NMEA Sentence Code,UTC Time,Status,Latitude,Latitude Direction,Longitude,Longitude Direction,Speed (knots),Track Angle (degrees true),Date,MagneticVariation,Magnetic Variation Direction,[FAA Mode]-Optional,Checksum
$GPRMC,012019.9,A,3344.074692,N,11749.010243,W,48.1,123.5,210110,,,A*45
$GPRMC,012022.9,A,3344.047506,N,11748.975356,W,47.0,129.8,210110,,,A*44
$GPRMC,012025.9,A,3344.020433,N,11748.942045,W,45.6,132.6,210110,,,A*40
$GPRMC,012028.9,A,3343.993520,N,11748.908117,W,46.7,132.5,210110,,,A*41
$GPRMC,012031.9,A,3343.967047,N,11748.875978,W,46.2,132.3,210110,,,A*4F
$GPRMC,012034.9,A,3343.941919,N,11748.835218,W,49.9,128.5,210110,,,A*4C
$GPRMC,012038.2,A,3343.913159,N,11748.793340,W,49.2,128.9,210110,,,A*48
$GPRMC,012041.9,A,3343.878498,N,11748.747017,W,50.6,130.8,210110,,,A*45
$GPRMC,012044.9,A,3343.852600,N,11748.708760,W,49.2,129.1,210110,,,A*4A
$GPRMC,012047.9,A,3343.826401,N,11748.667413,W,50.9,129.0,210110,,,A*44
$GPRMC,012050.9,A,3343.801348,N,11748.629785,W,47.5,128.9,210110,,,A*49
$GPRMC,012053.9,A,3343.775227,N,11748.591904,W,49.5,129.4,210110,,,A*4B
$GPRMC,012056.9,A,3343.747329,N,11748.553374,W,50.2,129.4,210110,,,A*4C
$GPRMC,012059.9,A,3343.719260,N,11748.513855,W,51.2,130.5,210110,,,A*40
$GPRMC,012102.9,A,3343.693337,N,11748.474411,W,50.8,129.0,210110,,,A*45
$GPRMC,012105.9,A,3343.667294,N,11748.434020,W,51.7,128.2,210110,,,A*4E
$GPRMC,012108.9,A,3343.639080,N,11748.394357,W,53.3,129.5,210110,,,A*41
$GPRMC,012111.9,A,3343.609432,N,11748.354856,W,52.1,130.3,210110,,,A*4C
$GPRMC,012114.9,A,3343.583689,N,11748.312988,W,51.5,127.7,210110,,,A*4F
$GPRMC,012117.9,A,3343.555663,N,11748.276675,W,51.1,129.8,210110,,,A*48
$GPRMC,012120.9,A,3343.527962,N,11748.237260,W,52.6,128.9,210110,,,A*46
$GPRMC,012123.2,A,3343.506992,N,11748.203264,W,53.5,128.3,210110,,,A*49
$GPRMC,012126.9,A,3343.474568,N,11748.152422,W,51.6,128.4,210110,,,A*4F
$GPRMC,012129.9,A,3343.447153,N,11748.114136,W,49.5,130.4,210110,,,A*4D
$GPRMC,012132.9,A,3343.420702,N,11748.075111,W,49.1,128.5,210110,,,A*4B
$GPRMC,012135.9,A,3343.396331,N,11748.034417,W,49.7,128.4,210110,,,A*43
$GPRMC,012138.9,A,3343.369942,N,11747.996151,W,48.7,129.9,210110,,,A*44
$GPRMC,012141.9,A,3343.344503,N,11747.961131,W,46.7,130.7,210110,,,A*4A
$GPRMC,012144.9,A,3343.319149,N,11747.924425,W,48.2,129.8,210110,,,A*40
$GPRMC,012147.9,A,3343.292423,N,11747.887022,W,49.1,130.1,210110,,,A*40
$GPRMC,012150.9,A,3343.268153,N,11747.850683,W,46.6,129.5,210110,,,A*42
$GPRMC,012153.9,A,3343.243911,N,11747.816531,W,46.0,130.6,210110,,,A*43
$GPRMC,012156.9,A,3343.216945,N,11747.780523,W,46.6,131.3,210110,,,A*46
$GPRMC,012159.9,A,3343.193495,N,11747.744282,W,44.7,129.7,210110,,,A*4D
$GPRMC,012202.9,A,3343.171337,N,11747.713791,W,41.9,129.3,210110,,,A*49
$GPRMC,012205.9,A,3343.148209,N,11747.680228,W,44.0,129.2,210110,,,A*49
$GPRMC,012208.9,A,3343.126317,N,11747.648677,W,41.6,129.5,210110,,,A*4C
$GPRMC,012211.9,A,3343.102430,N,11747.613976,W,44.9,129.5,210110,,,A*4A
$GPRMC,012214.9,A,3343.077403,N,11747.579545,W,46.0,130.8,210110,,,A*41
$GPRMC,012217.9,A,3343.053955,N,11747.542127,W,46.2,128.8,210110,,,A*49
$GPRMC,012220.9,A,3343.026691,N,11747.503991,W,49.1,130.1,210110,,,A*44
$GPRMC,012223.9,A,3343.001592,N,11747.469572,W,47.2,129.5,210110,,,A*4F
$GPRMC,012226.9,A,3342.976995,N,11747.429454,W,49.4,128.3,210110,,,A*47
$GPRMC,012229.9,A,3342.949183,N,11747.392039,W,49.6,130.0,210110,,,A*4B
$GPRMC,012232.9,A,3342.924260,N,11747.357542,W,46.1,130.9,210110,,,A*45
$GPRMC,012235.9,A,3342.897095,N,11747.322870,W,48.0,132.2,210110,,,A*4B
$GPRMC,012238.9,A,3342.871796,N,11747.286153,W,48.0,129.4,210110,,,A*41
$GPRMC,012241.9,A,3342.842976,N,11747.245537,W,51.3,129.7,210110,,,A*4E
$GPRMC,012244.9,A,3342.818274,N,11747.205982,W,50.2,127.2,210110,,,A*40
$GPRMC,012247.9,A,3342.790468,N,11747.165360,W,52.5,130.3,210110,,,A*46
$GPRMC,012250.9,A,3342.759817,N,11747.125714,W,52.6,132.8,210110,,,A*48
$GPRMC,012253.9,A,3342.731479,N,11747.089741,W,48.7,133.2,210110,,,A*47
$GPRMC,012256.9,A,3342.704014,N,11747.055146,W,47.4,134.5,210110,,,A*47
$GPRMC,012259.9,A,3342.676406,N,11747.022846,W,46.1,135.9,210110,,,A*4B
$GPRMC,012302.9,A,3342.649842,N,11746.996434,W,43.3,138.5,210110,,,A*4C
$GPRMC,012305.9,A,3342.622582,N,11746.967345,W,42.9,138.3,210110,,,A*45
$GPRMC,012308.9,A,3342.595817,N,11746.941392,W,43.3,139.6,210110,,,A*47
$GPRMC,012311.9,A,3342.565397,N,11746.912567,W,45.4,141.0,210110,,,A*41
$GPRMC,012314.9,A,3342.535607,N,11746.883834,W,45.2,142.9,210110,,,A*43
$GPRMC,012317.9,A,3342.506732,N,11746.858776,W,44.8,143.3,210110,,,A*48
$GPRMC,012320.9,A,3342.477013,N,11746.831506,W,46.3,144.2,210110,,,A*4A
$GPRMC,012323.9,A,3342.442966,N,11746.804432,W,47.1,146.7,210110,,,A*40
$GPRMC,012326.9,A,3342.412448,N,11746.780207,W,42.8,147.9,210110,,,A*41
$GPRMC,012329.9,A,3342.385020,N,11746.760519,W,39.6,148.1,210110,,,A*4E
$GPRMC,012332.9,A,3342.358398,N,11746.740828,W,40.5,149.0,210110,,,A*44
$GPRMC,012335.9,A,3342.328549,N,11746.718824,W,42.2,150.3,210110,,,A*41
$GPRMC,012338.9,A,3342.297048,N,11746.696549,W,43.9,150.6,210110,,,A*43
$GPRMC,012341.9,A,3342.264426,N,11746.676497,W,45.3,152.3,210110,,,A*4A
$GPRMC,012344.9,A,3342.230767,N,11746.657375,W,45.7,152.2,210110,,,A*45
$GPRMC,012347.9,A,3342.193976,N,11746.635599,W,48.0,153.0,210110,,,A*4B
$GPRMC,012350.9,A,3342.156499,N,11746.612875,W,48.8,151.7,210110,,,A*4F
$GPRMC,012353.9,A,3342.121959,N,11746.591529,W,47.4,151.7,210110,,,A*42
$GPRMC,012356.9,A,3342.088806,N,11746.568113,W,45.3,151.8,210110,,,A*4F
$GPRMC,012359.9,A,3342.058985,N,11746.547777,W,40.9,150.7,210110,,,A*4F
$GPRMC,012402.9,A,3342.030216,N,11746.527936,W,41.1,150.0,210110,,,A*4A
$GPRMC,012405.0,A,3342.010786,N,11746.511975,W,41.0,148.1,210110,,,A*41
$GPRMC,012408.9,A,3341.966796,N,11746.482975,W,45.3,151.3,210110,,,A*49
$GPRMC,012411.9,A,3341.934176,N,11746.464036,W,44.1,152.4,210110,,,A*4F
$GPRMC,012414.9,A,3341.902437,N,11746.443795,W,43.6,151.2,210110,,,A*41
$GPRMC,012417.9,A,3341.869054,N,11746.422620,W,44.7,151.8,210110,,,A*4B
$GPRMC,012420.9,A,3341.837994,N,11746.402442,W,42.0,152.3,210110,,,A*4C
$GPRMC,012423.9,A,3341.807394,N,11746.383890,W,42.0,151.1,210110,,,A*4A
$GPRMC,012426.9,A,3341.774602,N,11746.364319,W,42.5,151.6,210110,,,A*4F
$GPRMC,012429.9,A,3341.745046,N,11746.343762,W,40.8,150.9,210110,,,A*48
$GPRMC,012432.9,A,3341.713607,N,11746.324152,W,40.4,151.7,210110,,,A*45
$GPRMC,012435.9,A,3341.685312,N,11746.303214,W,40.0,151.2,210110,,,A*48
$GPRMC,012438.9,A,3341.657334,N,11746.284868,W,38.5,152.0,210110,,,A*4A
$GPRMC,012441.9,A,3341.627047,N,11746.266405,W,40.0,151.1,210110,,,A*47
$GPRMC,012444.9,A,3341.599029,N,11746.247843,W,40.5,151.7,210110,,,A*42
$GPRMC,012447.9,A,3341.568440,N,11746.227181,W,42.5,151.2,210110,,,A*42
$GPRMC,012450.9,A,3341.538269,N,11746.202432,W,44.5,149.3,210110,,,A*48
$GPRMC,012453.9,A,3341.503161,N,11746.179578,W,47.2,151.3,210110,,,A*45
$GPRMC,012456.9,A,3341.469859,N,11746.157427,W,45.9,151.9,210110,,,A*4B
$GPRMC,012459.9,A,3341.435538,N,11746.138504,W,44.3,153.0,210110,,,A*4E
$GPRMC,012502.9,A,3341.404566,N,11746.118771,W,42.4,152.5,210110,,,A*4F
$GPRMC,012505.2,A,3341.382294,N,11746.102302,W,41.1,149.5,210110,,,A*47
$GPRMC,012508.9,A,3341.343829,N,11746.075917,W,42.4,151.6,210110,,,A*43
$GPRMC,012511.9,A,3341.312737,N,11746.054928,W,44.0,150.9,210110,,,A*4C
$GPRMC,012514.9,A,3341.278609,N,11746.032145,W,45.7,150.6,210110,,,A*42
$GPRMC,012517.9,A,3341.246823,N,11746.013855,W,43.8,152.3,210110,,,A*4F
$GPRMC,012520.9,A,3341.215254,N,11745.994219,W,42.9,152.0,210110,,,A*43
$GPRMC,012523.9,A,3341.182568,N,11745.972068,W,44.5,151.0,210110,,,A*40
$GPRMC,012526.9,A,3341.148968,N,11745.949939,W,46.8,150.8,210110,,,A*4C
$GPRMC,012529.9,A,3341.111947,N,11745.925089,W,49.1,151.3,210110,,,A*46
$GPRMC,012532.9,A,3341.077661,N,11745.901326,W,48.9,151.4,210110,,,A*48
$GPRMC,012535.9,A,3341.041112,N,11745.880238,W,48.9,153.5,210110,,,A*4C
$GPRMC,012538.9,A,3341.003201,N,11745.854917,W,49.1,150.4,210110,,,A*42
$GPRMC,012541.9,A,3340.973207,N,11745.835034,W,45.0,148.2,210110,,,A*48
$GPRMC,012544.9,A,3340.942755,N,11745.807801,W,47.2,144.5,210110,,,A*49
$GPRMC,012547.9,A,3340.913018,N,11745.778048,W,46.4,142.2,210110,,,A*44
$GPRMC,012550.9,A,3340.884239,N,11745.747136,W,48.2,137.4,210110,,,A*44
$GPRMC,012553.9,A,3340.855353,N,11745.713814,W,48.5,135.6,210110,,,A*49
$GPRMC,012556.9,A,3340.824439,N,11745.682910,W,47.7,138.1,210110,,,A*4A
$GPRMC,012559.9,A,3340.795853,N,11745.651296,W,45.9,136.9,210110,,,A*41
$GPRMC,012603.2,A,3340.765111,N,11745.616686,W,46.0,136.5,210110,,,A*46
$GPRMC,012606.2,A,3340.737375,N,11745.584986,W,46.7,136.6,210110,,,A*47
$GPRMC,012609.2,A,3340.709878,N,11745.553249,W,46.4,136.3,210110,,,A*47
$GPRMC,012612.9,A,3340.674822,N,11745.514306,W,46.7,138.0,210110,,,A*45
$GPRMC,012615.9,A,3340.643610,N,11745.482881,W,48.5,140.1,210110,,,A*41
$GPRMC,012618.9,A,3340.611616,N,11745.455562,W,47.1,144.4,210110,,,A*4D
$GPRMC,012622.2,A,3340.576529,N,11745.425383,W,47.3,145.6,210110,,,A*4D
$GPRMC,012625.9,A,3340.528928,N,11745.400824,W,50.0,156.3,210110,,,A*44
$GPRMC,012628.9,A,3340.490031,N,11745.381664,W,49.3,159.3,210110,,,A*4A
$GPRMC,012631.9,A,3340.449266,N,11745.367100,W,51.0,164.0,210110,,,A*4C
$GPRMC,012634.9,A,3340.409974,N,11745.357623,W,48.3,169.8,210110,,,A*4E
$GPRMC,012637.9,A,3340.370380,N,11745.350636,W,48.4,170.5,210110,,,A*44
$GPRMC,012640.9,A,3340.332308,N,11745.340529,W,47.0,169.4,210110,,,A*4C
$GPRMC,012643.9,A,3340.290908,N,11745.334163,W,49.3,170.5,210110,,,A*41
$GPRMC,012646.9,A,3340.252118,N,11745.323002,W,48.4,167.0,210110,,,A*46
$GPRMC,012649.9,A,3340.214153,N,11745.310538,W,48.2,164.2,210110,,,A*4F
$GPRMC,012652.9,A,3340.174330,N,11745.293428,W,50.3,159.1,210110,,,A*48
$GPRMC,012655.9,A,3340.139456,N,11745.270835,W,46.6,152.7,210110,,,A*43
$GPRMC,012659.2,A,3340.104907,N,11745.248925,W,42.0,150.2,210110,,,A*4D
$GPRMC,012702.9,A,3340.070122,N,11745.220386,W,43.1,144.8,210110,,,A*46
$GPRMC,012705.9,A,3340.037452,N,11745.194998,W,44.7,147.3,210110,,,A*40
$GPRMC,012708.9,A,3340.009910,N,11745.172326,W,41.8,146.8,210110,,,A*4C
$GPRMC,012711.9,A,3339.981514,N,11745.152542,W,41.1,147.6,210110,,,A*4B
$GPRMC,012714.9,A,3339.950896,N,11745.128989,W,43.5,147.1,210110,,,A*42
$GPRMC,012717.9,A,3339.921384,N,11745.106071,W,42.2,146.9,210110,,,A*42
$GPRMC,012720.9,A,3339.891667,N,11745.080852,W,43.0,145.9,210110,,,A*42
$GPRMC,012723.9,A,3339.863514,N,11745.056375,W,42.2,144.9,210110,,,A*4C
$GPRMC,012726.9,A,3339.834526,N,11745.036149,W,41.4,148.8,210110,,,A*49
$GPRMC,012729.9,A,3339.802340,N,11745.011581,W,44.2,147.8,210110,,,A*4C
$GPRMC,012732.9,A,3339.769597,N,11744.988729,W,45.2,148.3,210110,,,A*45
$GPRMC,012735.9,A,3339.737937,N,11744.963989,W,45.5,147.0,210110,,,A*45
$GPRMC,012738.9,A,3339.704610,N,11744.938252,W,47.4,145.9,210110,,,A*49
$GPRMC,012741.9,A,3339.669921,N,11744.911735,W,48.6,146.5,210110,,,A*4D
$GPRMC,012744.9,A,3339.636970,N,11744.885932,W,48.9,147.3,210110,,,A*4B
$GPRMC,012747.2,A,3339.610842,N,11744.863114,W,51.0,145.6,210110,,,A*45
$GPRMC,012750.9,A,3339.568237,N,11744.829873,W,50.0,148.9,210110,,,A*49
$GPRMC,012753.9,A,3339.532025,N,11744.800834,W,52.5,146.6,210110,,,A*4A
$GPRMC,012756.9,A,3339.494553,N,11744.769432,W,54.4,145.4,210110,,,A*4A
$GPRMC,012759.9,A,3339.458468,N,11744.740649,W,53.7,145.8,210110,,,A*41
$GPRMC,012802.9,A,3339.421070,N,11744.708115,W,53.5,144.3,210110,,,A*49
$GPRMC,012805.9,A,3339.387124,N,11744.680916,W,48.6,146.6,210110,,,A*41
$GPRMC,012808.9,A,3339.357697,N,11744.654201,W,44.7,144.8,210110,,,A*4B
$GPRMC,012812.2,A,3339.325522,N,11744.627460,W,41.9,143.8,210110,,,A*4A
$GPRMC,012815.9,A,3339.286332,N,11744.598929,W,44.7,147.4,210110,,,A*4D
$GPRMC,012818.9,A,3339.256752,N,11744.574363,W,43.7,145.7,210110,,,A*4F
$GPRMC,012821.9,A,3339.226051,N,11744.550213,W,43.4,146.8,210110,,,A*49
$GPRMC,012824.9,A,3339.193974,N,11744.527756,W,44.6,147.2,210110,,,A*45
$GPRMC,012827.9,A,3339.162011,N,11744.503614,W,46.0,146.5,210110,,,A*41
$GPRMC,012830.9,A,3339.132433,N,11744.479439,W,44.5,144.9,210110,,,A*4E
$GPRMC,012833.9,A,3339.099993,N,11744.450834,W,46.8,146.0,210110,,,A*44
$GPRMC,012836.9,A,3339.067940,N,11744.425606,W,45.9,144.6,210110,,,A*45
$GPRMC,012839.9,A,3339.035724,N,11744.398946,W,45.8,146.3,210110,,,A*4D
$GPRMC,012842.9,A,3339.002012,N,11744.375047,W,47.4,148.5,210110,,,A*4A
$GPRMC,012845.9,A,3338.970125,N,11744.347898,W,47.0,145.8,210110,,,A*4A
$GPRMC,012848.9,A,3338.935673,N,11744.323058,W,48.6,147.2,210110,,,A*45
$GPRMC,012851.9,A,3338.902135,N,11744.295071,W,48.2,147.5,210110,,,A*48
$GPRMC,012854.9,A,3338.869909,N,11744.270789,W,46.5,147.4,210110,,,A*45
$GPRMC,012857.9,A,3338.839774,N,11744.246315,W,44.1,146.4,210110,,,A*44
$GPRMC,012900.9,A,3338.809026,N,11744.223780,W,43.6,147.5,210110,,,A*4F
$GPRMC,012903.9,A,3338.778706,N,11744.198383,W,44.3,145.9,210110,,,A*48
$GPRMC,012906.9,A,3338.749823,N,11744.172329,W,43.6,145.1,210110,,,A*49
$GPRMC,012909.9,A,3338.718401,N,11744.147783,W,44.2,146.0,210110,,,A*4D
$GPRMC,012912.9,A,3338.688724,N,11744.125532,W,43.1,146.7,210110,,,A*44
$GPRMC,012915.0,A,3338.668877,N,11744.110779,W,40.3,147.3,210110,,,A*42
$GPRMC,012918.2,A,3338.639701,N,11744.087597,W,37.9,149.0,210110,,,A*4D
$GPRMC,012921.9,A,3338.609021,N,11744.064935,W,35.9,145.7,210110,,,A*4A
$GPRMC,012924.9,A,3338.585770,N,11744.046513,W,33.8,146.8,210110,,,A*48
$GPRMC,012927.9,A,3338.562471,N,11744.032836,W,30.0,151.2,210110,,,A*4E
$GPRMC,012930.9,A,3338.542594,N,11744.017106,W,28.3,149.5,210110,,,A*49
$GPRMC,012933.2,A,3338.533362,N,11744.006302,W,23.2,145.3,210110,,,A*4E
$GPRMC,012936.2,A,3338.515696,N,11743.994701,W,23.5,147.7,210110,,,A*42
$GPRMC,012939.2,A,3338.498308,N,11743.981819,W,24.4,146.9,210110,,,A*40
$GPRMC,012942.2,A,3338.481333,N,11743.968934,W,23.6,148.2,210110,,,A*45
$GPRMC,012945.2,A,3338.466013,N,11743.954976,W,23.7,147.1,210110,,,A*4E
$GPRMC,012948.9,A,3338.446187,N,11743.939054,W,24.3,148.8,210110,,,A*41
$GPRMC,012951.9,A,3338.429135,N,11743.924746,W,23.0,146.8,210110,,,A*4B
$GPRMC,012954.9,A,3338.415944,N,11743.913543,W,19.4,147.5,210110,,,A*4D
$GPRMC,012957.9,A,3338.404128,N,11743.905172,W,18.0,146.4,210110,,,A*48
$GPRMC,013000.9,A,3338.392514,N,11743.893168,W,19.0,144.3,210110,,,A*40
$GPRMC,013003.9,A,3338.379252,N,11743.884088,W,17.3,147.1,210110,,,A*46
$GPRMC,013006.9,A,3338.368867,N,11743.875006,W,15.3,145.8,210110,,,A*4E
$GPRMC,013009.9,A,3338.357891,N,11743.867803,W,14.8,150.9,210110,,,A*45
$GPRMC,013012.9,A,3338.348965,N,11743.862322,W,11.2,152.4,210110,,,A*46
$GPRMC,013015.9,A,3338.341506,N,11743.856472,W,10.5,148.6,210110,,,A*4B
$GPRMC,013019.2,A,3338.333908,N,11743.850284,W,10.2,148.6,210110,,,A*45
$GPRMC,013022.2,A,3338.326522,N,11743.840849,W,13.0,141.1,210110,,,A*48
$GPRMC,013025.9,A,3338.316322,N,11743.832735,W,14.0,144.5,210110,,,A*46
$GPRMC,013028.9,A,3338.305184,N,11743.823757,W,13.8,145.7,210110,,,A*4F
$GPRMC,013031.9,A,3338.295576,N,11743.817760,W,12.2,145.6,210110,,,A*4F
$GPRMC,013034.9,A,3338.286331,N,11743.810866,W,12.1,146.0,210110,,,A*45
$GPRMC,013037.9,A,3338.277547,N,11743.804168,W,13.8,146.6,210110,,,A*43
$GPRMC,013040.9,A,3338.265798,N,11743.794944,W,16.7,146.2,210110,,,A*4E
$GPRMC,013043.9,A,3338.255550,N,11743.786469,W,15.4,143.8,210110,,,A*46
$GPRMC,013046.9,A,3338.244156,N,11743.777262,W,16.1,145.6,210110,,,A*4C
$GPRMC,013049.9,A,3338.232350,N,11743.766552,W,17.0,143.9,210110,,,A*4B
$GPRMC,013052.9,A,3338.217507,N,11743.756578,W,19.4,150.5,210110,,,A*4D
$GPRMC,013055.9,A,3338.207557,N,11743.748652,W,16.7,147.4,210110,,,A*41
$GPRMC,013058.9,A,3338.197379,N,11743.739966,W,14.8,145.7,210110,,,A*4E
$GPRMC,013101.9,A,3338.188238,N,11743.731182,W,14.5,141.8,210110,,,A*45
$GPRMC,013104.9,A,3338.177397,N,11743.722247,W,14.4,146.1,210110,,,A*43
$GPRMC,013107.9,A,3338.167336,N,11743.716111,W,12.6,150.2,210110,,,A*4D
$GPRMC,013110.9,A,3338.158472,N,11743.708909,W,12.3,146.5,210110,,,A*4B
$GPRMC,013113.9,A,3338.151174,N,11743.700171,W,13.8,140.1,210110,,,A*45
$GPRMC,013116.9,A,3338.138406,N,11743.691329,W,16.2,145.9,210110,,,A*4B
$GPRMC,013119.9,A,3338.127118,N,11743.682776,W,16.6,145.6,210110,,,A*47
$GPRMC,013122.9,A,3338.113631,N,11743.672448,W,18.3,146.8,210110,,,A*43
$GPRMC,013125.9,A,3338.102928,N,11743.663041,W,17.3,144.1,210110,,,A*4A
$GPRMC,013128.9,A,3338.089352,N,11743.652714,W,19.0,147.5,210110,,,A*4D
$GPRMC,013131.9,A,3338.075703,N,11743.641857,W,19.1,149.2,210110,,,A*44
$GPRMC,013134.9,A,3338.063783,N,11743.630700,W,18.4,145.1,210110,,,A*4E
$GPRMC,013137.9,A,3338.049397,N,11743.620280,W,20.4,145.6,210110,,,A*44
$GPRMC,013140.9,A,3338.033796,N,11743.607272,W,20.8,145.8,210110,,,A*46
$GPRMC,013143.9,A,3338.020756,N,11743.597038,W,20.3,144.9,210110,,,A*46
$GPRMC,013146.9,A,3338.008403,N,11743.585642,W,18.9,143.6,210110,,,A*4B
$GPRMC,013149.9,A,3337.997918,N,11743.574710,W,17.1,141.3,210110,,,A*4B
$GPRMC,013152.9,A,3337.989803,N,11743.564490,W,13.1,140.9,210110,,,A*40
$GPRMC,013155.9,A,3337.982938,N,11743.559410,W,8.6,145.6,210110,,,A*74
$GPRMC,013158.9,A,3337.977490,N,11743.555579,W,8.4,146.4,210110,,,A*7D
$GPRMC,013201.9,A,3337.972988,N,11743.549759,W,9.9,138.9,210110,,,A*76
$GPRMC,013204.9,A,3337.967064,N,11743.542919,W,9.4,139.4,210110,,,A*7C
$GPRMC,013207.9,A,3337.958555,N,11743.533250,W,16.4,134.5,210110,,,A*46
$GPRMC,013210.9,A,3337.945974,N,11743.517668,W,21.9,132.8,210110,,,A*48
$GPRMC,013213.9,A,3337.933302,N,11743.500879,W,21.8,133.9,210110,,,A*48
$GPRMC,013216.9,A,3337.921384,N,11743.487155,W,16.8,137.2,210110,,,A*42
$GPRMC,013219.9,A,3337.912205,N,11743.478345,W,14.0,140.7,210110,,,A*49
$GPRMC,013222.9,A,3337.904321,N,11743.470133,W,13.1,138.4,210110,,,A*40
$GPRMC,013225.9,A,3337.896870,N,11743.459594,W,15.2,134.7,210110,,,A*4A
$GPRMC,013228.9,A,3337.885846,N,11743.445216,W,18.9,133.9,210110,,,A*4F
$GPRMC,013231.9,A,3337.873137,N,11743.431723,W,20.6,138.1,210110,,,A*46
$GPRMC,013234.9,A,3337.860626,N,11743.416659,W,23.1,135.6,210110,,,A*41
$GPRMC,013237.9,A,3337.847445,N,11743.401848,W,22.4,134.5,210110,,,A*4E
$GPRMC,013240.9,A,3337.832654,N,11743.384304,W,23.5,136.1,210110,,,A*41
$GPRMC,013243.9,A,3337.821430,N,11743.368685,W,21.8,132.6,210110,,,A*42
$GPRMC,013246.9,A,3337.807388,N,11743.356388,W,22.1,137.1,210110,,,A*4A
$GPRMC,013249.9,A,3337.795026,N,11743.337962,W,23.3,133.7,210110,,,A*4E
$GPRMC,013252.9,A,3337.779828,N,11743.323232,W,24.0,138.6,210110,,,A*45
$GPRMC,013255.9,A,3337.764756,N,11743.306359,W,25.4,137.1,210110,,,A*4E
$GPRMC,013258.9,A,3337.749489,N,11743.289874,W,23.6,140.0,210110,,,A*4A
$GPRMC,013301.9,A,3337.732841,N,11743.279206,W,23.4,145.1,210110,,,A*45
$GPRMC,013304.9,A,3337.717312,N,11743.263827,W,23.8,142.3,210110,,,A*41
$GPRMC,013307.9,A,3337.702245,N,11743.249616,W,23.3,142.4,210110,,,A*4D
$GPRMC,013310.2,A,3337.689465,N,11743.239258,W,24.3,146.5,210110,,,A*4D
$GPRMC,013313.0,A,3337.676364,N,11743.225047,W,24.3,140.8,210110,,,A*40
$GPRMC,013316.9,A,3337.652186,N,11743.205579,W,24.2,144.8,210110,,,A*4B
$GPRMC,013319.9,A,3337.636771,N,11743.190849,W,24.7,142.0,210110,,,A*42
$GPRMC,013322.9,A,3337.618929,N,11743.174689,W,27.5,142.1,210110,,,A*4D
$GPRMC,013325.9,A,3337.601398,N,11743.156965,W,27.2,141.9,210110,,,A*43
$GPRMC,013328.9,A,3337.581303,N,11743.139737,W,30.1,143.1,210110,,,A*48
$GPRMC,013331.9,A,3337.560280,N,11743.121151,W,31.0,143.4,210110,,,A*4F
$GPRMC,013334.9,A,3337.541064,N,11743.101759,W,30.2,142.2,210110,,,A*49
$GPRMC,013337.9,A,3337.522553,N,11743.084698,W,29.5,143.9,210110,,,A*4B
$GPRMC,013340.9,A,3337.501114,N,11743.064904,W,31.9,141.6,210110,,,A*41
$GPRMC,013343.9,A,3337.479226,N,11743.046385,W,31.6,142.1,210110,,,A*46
$GPRMC,013346.9,A,3337.458916,N,11743.029428,W,29.4,144.2,210110,,,A*4F
$GPRMC,013349.9,A,3337.439313,N,11743.012087,W,28.3,144.3,210110,,,A*46
$GPRMC,013352.9,A,3337.420555,N,11742.993454,W,29.4,142.5,210110,,,A*4D
$GPRMC,013355.9,A,3337.399315,N,11742.975941,W,30.1,143.8,210110,,,A*4D
$GPRMC,013358.9,A,3337.380914,N,11742.956626,W,28.7,141.3,210110,,,A*4A
$GPRMC,013401.9,A,3337.365265,N,11742.940227,W,23.9,142.2,210110,,,A*42
$GPRMC,013404.9,A,3337.349509,N,11742.926182,W,23.2,142.4,210110,,,A*45
$GPRMC,013407.9,A,3337.335499,N,11742.912652,W,23.0,142.2,210110,,,A*4C
$GPRMC,013410.9,A,3337.318735,N,11742.896156,W,25.1,140.7,210110,,,A*4E
$GPRMC,013413.9,A,3337.301730,N,11742.881463,W,25.6,142.6,210110,,,A*41
$GPRMC,013416.9,A,3337.285843,N,11742.865689,W,24.9,142.1,210110,,,A*47
$GPRMC,013419.9,A,3337.267226,N,11742.851113,W,25.6,144.9,210110,,,A*4E
$GPRMC,013422.9,A,3337.251809,N,11742.836630,W,24.2,141.3,210110,,,A*49
$GPRMC,013425.9,A,3337.236038,N,11742.821931,W,24.1,140.2,210110,,,A*4E
$GPRMC,013428.9,A,3337.221675,N,11742.807230,W,22.3,142.6,210110,,,A*46
$GPRMC,013431.9,A,3337.206630,N,11742.795923,W,20.6,146.6,210110,,,A*44
$GPRMC,013434.9,A,3337.194760,N,11742.786565,W,17.2,147.5,210110,,,A*43
$GPRMC,013437.9,A,3337.186509,N,11742.774012,W,14.8,136.2,210110,,,A*4E
$GPRMC,013440.9,A,3337.175189,N,11742.765798,W,16.8,142.9,210110,,,A*41
$GPRMC,013443.9,A,3337.162228,N,11742.751774,W,22.2,139.2,210110,,,A*43
$GPRMC,013446.9,A,3337.144340,N,11742.735784,W,26.0,142.1,210110,,,A*49
$GPRMC,013449.9,A,3337.126172,N,11742.721989,W,26.2,145.2,210110,,,A*41
$GPRMC,013452.9,A,3337.108054,N,11742.705349,W,26.7,141.3,210110,,,A*42
$GPRMC,013455.9,A,3337.089021,N,11742.690329,W,26.8,144.8,210110,,,A*45
$GPRMC,013458.9,A,3337.075070,N,11742.675559,W,23.5,143.2,210110,,,A*40
$GPRMC,013501.9,A,3337.061048,N,11742.659736,W,24.4,138.1,210110,,,A*4F
$GPRMC,013504.9,A,3337.043680,N,11742.643304,W,27.6,140.4,210110,,,A*4D
$GPRMC,013507.9,A,3337.023865,N,11742.625468,W,27.3,143.5,210110,,,A*47
$GPRMC,013510.9,A,3337.006879,N,11742.608854,W,25.5,142.7,210110,,,A*40
$GPRMC,013513.9,A,3336.991467,N,11742.593848,W,25.6,140.0,210110,,,A*4C
$GPRMC,013516.9,A,3336.974699,N,11742.579682,W,23.1,142.6,210110,,,A*48
$GPRMC,013519.9,A,3336.963554,N,11742.567716,W,18.3,141.6,210110,,,A*49
$GPRMC,013522.9,A,3336.952456,N,11742.555582,W,17.7,138.7,210110,,,A*4A
$GPRMC,013525.9,A,3336.941082,N,11742.541706,W,20.4,133.7,210110,,,A*45
$GPRMC,013528.9,A,3336.927872,N,11742.524495,W,24.0,134.2,210110,,,A*47
$GPRMC,013531.9,A,3336.910071,N,11742.505704,W,28.5,134.7,210110,,,A*44
$GPRMC,013534.9,A,3336.893763,N,11742.485321,W,28.8,132.7,210110,,,A*4E
$GPRMC,013537.9,A,3336.875093,N,11742.464595,W,29.5,135.7,210110,,,A*40
$GPRMC,013540.9,A,3336.860771,N,11742.445696,W,28.4,136.4,210110,,,A*4C
$GPRMC,013543.9,A,3336.842563,N,11742.424415,W,30.6,136.2,210110,,,A*4D
$GPRMC,013546.9,A,3336.822466,N,11742.403085,W,32.5,136.9,210110,,,A*48
$GPRMC,013549.9,A,3336.802587,N,11742.381848,W,32.0,137.9,210110,,,A*4B
$GPRMC,013552.9,A,3336.784081,N,11742.359509,W,31.3,134.5,210110,,,A*41
$GPRMC,013555.9,A,3336.764821,N,11742.338963,W,30.9,136.8,210110,,,A*49
$GPRMC,013558.9,A,3336.744850,N,11742.313713,W,34.5,133.8,210110,,,A*4D
$GPRMC,013601.9,A,3336.723540,N,11742.288792,W,35.2,135.1,210110,,,A*4C
$GPRMC,013604.9,A,3336.704184,N,11742.264199,W,33.2,135.6,210110,,,A*4E
$GPRMC,013607.9,A,3336.682384,N,11742.241702,W,33.6,137.0,210110,,,A*43
$GPRMC,013610.9,A,3336.663934,N,11742.218232,W,33.9,132.0,210110,,,A*4B
$GPRMC,013613.9,A,3336.643374,N,11742.193117,W,36.4,132.7,210110,,,A*4F
$GPRMC,013616.9,A,3336.624832,N,11742.165498,W,35.2,128.5,210110,,,A*45
$GPRMC,013619.9,A,3336.610921,N,11742.132654,W,37.2,124.8,210110,,,A*4D
$GPRMC,013622.9,A,3336.592301,N,11742.102235,W,38.4,125.7,210110,,,A*43
$GPRMC,013625.9,A,3336.571585,N,11742.071486,W,37.5,126.3,210110,,,A*41
$GPRMC,013628.9,A,3336.555179,N,11742.042105,W,34.5,123.8,210110,,,A*4E
$GPRMC,013631.9,A,3336.541834,N,11742.012671,W,33.1,120.1,210110,,,A*4B
$GPRMC,013634.9,A,3336.530993,N,11741.982060,W,33.4,116.0,210110,,,A*40
$GPRMC,013637.9,A,3336.516823,N,11741.953395,W,32.7,118.3,210110,,,A*47
$GPRMC,013640.9,A,3336.504574,N,11741.925356,W,31.4,117.8,210110,,,A*41
$GPRMC,013643.9,A,3336.491845,N,11741.898111,W,31.7,118.2,210110,,,A*40
$GPRMC,013646.9,A,3336.482880,N,11741.868300,W,30.6,114.7,210110,,,A*4A
$GPRMC,013649.2,A,3336.474752,N,11741.846212,W,31.5,113.7,210110,,,A*4C
$GPRMC,013652.9,A,3336.460149,N,11741.816484,W,28.5,117.7,210110,,,A*44
$GPRMC,013655.9,A,3336.447519,N,11741.790392,W,29.6,118.4,210110,,,A*48
$GPRMC,013658.9,A,3336.433208,N,11741.764726,W,29.8,118.6,210110,,,A*4D
$GPRMC,013701.9,A,3336.423209,N,11741.737190,W,30.5,115.0,210110,,,A*43
$GPRMC,013704.9,A,3336.412096,N,11741.709023,W,31.8,116.4,210110,,,A*4F
$GPRMC,013707.9,A,3336.397738,N,11741.681969,W,33.3,118.2,210110,,,A*42
$GPRMC,013710.9,A,3336.385726,N,11741.651113,W,33.8,118.5,210110,,,A*4C
$GPRMC,013713.9,A,3336.371566,N,11741.621345,W,34.7,119.5,210110,,,A*4D
$GPRMC,013716.9,A,3336.356407,N,11741.591394,W,35.9,120.3,210110,,,A*4C
$GPRMC,013719.9,A,3336.339919,N,11741.559971,W,35.0,122.1,210110,,,A*44
$GPRMC,013722.9,A,3336.323789,N,11741.532898,W,33.4,124.0,210110,,,A*4E
$GPRMC,013725.9,A,3336.307934,N,11741.504853,W,34.9,124.1,210110,,,A*4E
$GPRMC,013728.9,A,3336.291152,N,11741.475925,W,34.9,125.3,210110,,,A*41
$GPRMC,013731.9,A,3336.273768,N,11741.449961,W,34.2,128.3,210110,,,A*43
$GPRMC,013734.2,A,3336.259078,N,11741.427723,W,37.8,127.2,210110,,,A*44
$GPRMC,013737.2,A,3336.238885,N,11741.396340,W,41.2,127.0,210110,,,A*4F
$GPRMC,013740.9,A,3336.214490,N,11741.354721,W,42.8,127.9,210110,,,A*4F
$GPRMC,013743.9,A,3336.193995,N,11741.319886,W,42.2,125.9,210110,,,A*4B
$GPRMC,013746.9,A,3336.172302,N,11741.287884,W,38.6,128.4,210110,,,A*48
$GPRMC,013749.9,A,3336.151384,N,11741.260160,W,35.9,129.9,210110,,,A*4C
$GPRMC,013752.9,A,3336.137002,N,11741.230730,W,34.3,122.5,210110,,,A*41
$GPRMC,013755.9,A,3336.124924,N,11741.200496,W,33.9,118.5,210110,,,A*41
$GPRMC,013758.9,A,3336.112618,N,11741.171210,W,33.1,115.8,210110,,,A*4C
$GPRMC,013801.9,A,3336.100792,N,11741.142022,W,32.8,116.0,210110,,,A*4F
$GPRMC,013804.9,A,3336.088218,N,11741.109072,W,36.1,114.9,210110,,,A*40
$GPRMC,013807.9,A,3336.075426,N,11741.077740,W,34.8,116.3,210110,,,A*47
$GPRMC,013810.9,A,3336.061729,N,11741.045905,W,36.9,115.5,210110,,,A*40
$GPRMC,013813.9,A,3336.048780,N,11741.013252,W,35.2,115.7,210110,,,A*4B
$GPRMC,013816.9,A,3336.037055,N,11740.980722,W,35.5,115.3,210110,,,A*4A
$GPRMC,013819.9,A,3336.021618,N,11740.950102,W,35.9,118.2,210110,,,A*44
$GPRMC,013822.9,A,3336.009552,N,11740.916962,W,36.2,114.1,210110,,,A*40
$GPRMC,013825.9,A,3335.996422,N,11740.883529,W,38.6,115.2,210110,,,A*4B
$GPRMC,013828.9,A,3335.982180,N,11740.847293,W,38.4,116.1,210110,,,A*42
$GPRMC,013831.9,A,3335.969446,N,11740.812637,W,37.9,116.0,210110,,,A*49
$GPRMC,013834.2,A,3335.958505,N,11740.786275,W,39.1,115.0,210110,,,A*46
$GPRMC,013837.2,A,3335.945147,N,11740.750503,W,40.7,115.2,210110,,,A*4C
$GPRMC,013840.9,A,3335.927901,N,11740.704705,W,41.4,115.5,210110,,,A*49
$GPRMC,013843.9,A,3335.912023,N,11740.669895,W,39.8,118.0,210110,,,A*42
$GPRMC,013846.9,A,3335.896083,N,11740.636832,W,38.9,119.2,210110,,,A*44
$GPRMC,013849.9,A,3335.874715,N,11740.607352,W,39.6,126.0,210110,,,A*40
$GPRMC,013852.9,A,3335.855560,N,11740.575109,W,40.1,128.4,210110,,,A*40
$GPRMC,013855.9,A,3335.831825,N,11740.544006,W,39.4,133.4,210110,,,A*44
$GPRMC,013858.9,A,3335.811236,N,11740.519758,W,33.9,134.9,210110,,,A*4A
$GPRMC,013901.9,A,3335.793857,N,11740.498362,W,31.9,137.4,210110,,,A*46
$GPRMC,013904.9,A,3335.775579,N,11740.476185,W,32.3,136.4,210110,,,A*49
$GPRMC,013907.9,A,3335.750195,N,11740.452544,W,37.4,139.2,210110,,,A*4F
$GPRMC,013910.9,A,3335.720691,N,11740.428830,W,41.8,143.9,210110,,,A*45
$GPRMC,013913.9,A,3335.692611,N,11740.404550,W,41.3,144.8,210110,,,A*4E
$GPRMC,013916.9,A,3335.663293,N,11740.384275,W,39.2,148.3,210110,,,A*4D
$GPRMC,013919.9,A,3335.636531,N,11740.365534,W,36.9,152.4,210110,,,A*48
$GPRMC,013922.9,A,3335.606247,N,11740.350277,W,38.7,157.0,210110,,,A*42
$GPRMC,013925.9,A,3335.576574,N,11740.336986,W,38.4,160.2,210110,,,A*46
$GPRMC,013928.9,A,3335.548415,N,11740.325243,W,34.6,163.0,210110,,,A*4F
$GPRMC,013931.9,A,3335.522495,N,11740.321018,W,31.4,169.7,210110,,,A*41
$GPRMC,013934.9,A,3335.495463,N,11740.314659,W,32.6,168.2,210110,,,A*40
$GPRMC,013937.9,A,3335.467574,N,11740.311199,W,33.6,173.0,210110,,,A*4E
$GPRMC,013940.9,A,3335.445500,N,11740.305816,W,28.8,175.2,210110,,,A*46
$GPRMC,013943.9,A,3335.423712,N,11740.306124,W,25.8,179.9,210110,,,A*45
$GPRMC,013946.9,A,3335.399158,N,11740.306772,W,28.9,180.9,210110,,,A*41
$GPRMC,013949.9,A,3335.376028,N,11740.306201,W,28.2,179.3,210110,,,A*4F
$GPRMC,013952.9,A,3335.355572,N,11740.307094,W,26.4,181.4,210110,,,A*49
$GPRMC,013955.9,A,3335.331283,N,11740.307099,W,27.6,181.6,210110,,,A*49
$GPRMC,013958.9,A,3335.307733,N,11740.307241,W,29.2,181.5,210110,,,A*41
$GPRMC,014001.9,A,3335.281250,N,11740.307518,W,30.2,180.5,210110,,,A*4E
$GPRMC,014004.9,A,3335.258087,N,11740.306867,W,27.7,180.7,210110,,,A*42
$GPRMC,014007.9,A,3335.234560,N,11740.308472,W,28.0,181.5,210110,,,A*4A
$GPRMC,014010.9,A,3335.208452,N,11740.308547,W,32.3,181.5,210110,,,A*4C
$GPRMC,014013.9,A,3335.178796,N,11740.309381,W,33.1,181.5,210110,,,A*4E
$GPRMC,014016.9,A,3335.153969,N,11740.308437,W,30.4,179.7,210110,,,A*44
$GPRMC,014019.9,A,3335.130351,N,11740.312436,W,30.6,183.5,210110,,,A*40
$GPRMC,014022.9,A,3335.103531,N,11740.311144,W,33.2,182.4,210110,,,A*4C
$GPRMC,014025.9,A,3335.074460,N,11740.313307,W,35.7,184.2,210110,,,A*4B
$GPRMC,014028.9,A,3335.046464,N,11740.317049,W,35.6,186.6,210110,,,A*49
$GPRMC,014031.9,A,3335.017631,N,11740.322097,W,35.1,186.3,210110,,,A*40
$GPRMC,014034.9,A,3334.990372,N,11740.325994,W,32.9,191.5,210110,,,A*42
$GPRMC,014037.9,A,3334.961650,N,11740.337784,W,35.6,203.8,210110,,,A*4B
$GPRMC,014040.9,A,3334.938786,N,11740.354398,W,34.2,210.3,210110,,,A*4D
$GPRMC,014043.9,A,3334.915117,N,11740.371608,W,30.6,207.4,210110,,,A*45
$GPRMC,014046.9,A,3334.891871,N,11740.375604,W,26.5,183.3,210110,,,A*40
$GPRMC,014049.9,A,3334.871927,N,11740.369030,W,24.3,166.9,210110,,,A*4A
$GPRMC,014052.9,A,3334.855083,N,11740.361749,W,19.6,163.2,210110,,,A*45
$GPRMC,014055.9,A,3334.843948,N,11740.357490,W,12.2,163.0,210110,,,A*44
$GPRMC,014058.9,A,3334.835079,N,11740.355485,W,10.0,163.8,210110,,,A*4D
$GPRMC,014101.9,A,3334.826082,N,11740.352061,W,11.7,161.7,210110,,,A*44
$GPRMC,014104.9,A,3334.816727,N,11740.352001,W,11.1,192.6,210110,,,A*47
$GPRMC,014107.9,A,3334.808899,N,11740.364646,W,15.6,237.1,210110,,,A*49
$GPRMC,014110.9,A,3334.807666,N,11740.387620,W,23.8,267.1,210110,,,A*4D
$GPRMC,014113.9,A,3334.807613,N,11740.415021,W,28.2,274.0,210110,,,A*45
$GPRMC,014116.9,A,3334.811092,N,11740.449561,W,33.8,279.3,210110,,,A*4E
$GPRMC,014119.9,A,3334.818165,N,11740.482599,W,34.0,283.9,210110,,,A*41
$GPRMC,014122.9,A,3334.824741,N,11740.517056,W,35.1,283.4,210110,,,A*40
$GPRMC,014125.9,A,3334.831406,N,11740.550762,W,35.3,284.2,210110,,,A*43
$GPRMC,014128.9,A,3334.838966,N,11740.584185,W,35.1,285.3,210110,,,A*48
$GPRMC,014131.0,A,3334.844681,N,11740.607195,W,35.8,285.3,210110,,,A*44
$GPRMC,014134.9,A,3334.854621,N,11740.653271,W,36.9,279.7,210110,,,A*4E
$GPRMC,014137.9,A,3334.856949,N,11740.689337,W,36.9,275.7,210110,,,A*46
$GPRMC,014140.9,A,3334.857437,N,11740.729398,W,38.5,269.3,210110,,,A*46
$GPRMC,014143.9,A,3334.856887,N,11740.766929,W,38.8,266.1,210110,,,A*48
$GPRMC,014146.9,A,3334.852689,N,11740.805584,W,40.3,259.0,210110,,,A*41
$GPRMC,014149.9,A,3334.845447,N,11740.844759,W,40.9,252.3,210110,,,A*4D
$GPRMC,014152.9,A,3334.832503,N,11740.880715,W,40.7,245.5,210110,,,A*48
$GPRMC,014155.9,A,3334.817067,N,11740.916318,W,40.2,240.2,210110,,,A*4F
$GPRMC,014158.9,A,3334.795511,N,11740.948319,W,40.2,232.7,210110,,,A*49
$GPRMC,014201.9,A,3334.770601,N,11740.982114,W,42.3,227.5,210110,,,A*43
$GPRMC,014204.2,A,3334.747670,N,11741.005634,W,45.6,222.2,210110,,,A*4D
$GPRMC,014207.2,A,3334.715734,N,11741.032922,W,48.0,214.4,210110,,,A*4C
$GPRMC,014210.2,A,3334.681554,N,11741.057817,W,47.6,211.0,210110,,,A*4E
$GPRMC,014213.2,A,3334.648818,N,11741.080898,W,42.7,210.2,210110,,,A*47
$GPRMC,014216.2,A,3334.619385,N,11741.101889,W,37.8,212.3,210110,,,A*4F
$GPRMC,014219.9,A,3334.590300,N,11741.126297,W,31.8,215.7,210110,,,A*41
$GPRMC,014222.9,A,3334.572121,N,11741.144798,W,28.7,221.5,210110,,,A*48
$GPRMC,014225.9,A,3334.554797,N,11741.165700,W,30.2,227.7,210110,,,A*4A
$GPRMC,014228.2,A,3334.541072,N,11741.185238,W,31.9,231.4,210110,,,A*4A
$GPRMC,014231.9,A,3334.521544,N,11741.224094,W,37.2,238.1,210110,,,A*42
$GPRMC,014234.9,A,3334.504829,N,11741.254304,W,36.3,241.4,210110,,,A*40
$GPRMC,014237.9,A,3334.491699,N,11741.287385,W,36.6,247.5,210110,,,A*4E
$GPRMC,014240.9,A,3334.479907,N,11741.322752,W,36.8,250.2,210110,,,A*4F
$GPRMC,014243.9,A,3334.474481,N,11741.357544,W,35.3,255.9,210110,,,A*43
$GPRMC,014246.9,A,3334.472995,N,11741.388935,W,35.7,262.8,210110,,,A*41
$GPRMC,014249.9,A,3334.469274,N,11741.425700,W,38.1,265.0,210110,,,A*4C
$GPRMC,014252.9,A,3334.467590,N,11741.463550,W,38.1,265.6,210110,,,A*46
$GPRMC,014255.9,A,3334.461345,N,11741.504137,W,39.1,262.3,210110,,,A*4F
$GPRMC,014258.9,A,3334.457006,N,11741.543889,W,40.1,263.7,210110,,,A*47
$GPRMC,014301.9,A,3334.453991,N,11741.581453,W,38.7,265.0,210110,,,A*44
$GPRMC,014304.9,A,3334.453798,N,11741.622675,W,40.8,268.1,210110,,,A*46
$GPRMC,014307.9,A,3334.449614,N,11741.663902,W,41.7,264.8,210110,,,A*4A
$GPRMC,014310.9,A,3334.450307,N,11741.704651,W,42.6,268.5,210110,,,A*49
$GPRMC,014313.9,A,3334.448974,N,11741.748337,W,43.1,267.9,210110,,,A*45
$GPRMC,014316.9,A,3334.447277,N,11741.791020,W,42.4,265.0,210110,,,A*49
$GPRMC,014319.9,A,3334.437734,N,11741.830070,W,39.8,254.8,210110,,,A*48
$GPRMC,014322.9,A,3334.428288,N,11741.868133,W,37.7,251.8,210110,,,A*43
$GPRMC,014325.9,A,3334.416746,N,11741.897694,W,34.1,244.9,210110,,,A*44
$GPRMC,014328.9,A,3334.403198,N,11741.926082,W,31.1,241.6,210110,,,A*4D
$GPRMC,014331.9,A,3334.388424,N,11741.947736,W,23.8,232.4,210110,,,A*40
$GPRMC,014334.9,A,3334.385518,N,11741.961389,W,14.8,240.0,210110,,,A*47
$GPRMC,014337.9,A,3334.380615,N,11741.974545,W,15.4,242.5,210110,,,A*47
$GPRMC,014340.9,A,3334.373278,N,11741.986301,W,14.8,238.9,210110,,,A*43
$GPRMC,014343.9,A,3334.368101,N,11741.997571,W,11.7,239.3,210110,,,A*47
$GPRMC,014352.9,A,3334.365449,N,11742.006411,W,5.9,243.5,210110,,,A*76
$GPRMC,014355.9,A,3334.362708,N,11742.016479,W,12.9,246.6,210110,,,A*4F
$GPRMC,014358.9,A,3334.350268,N,11742.024430,W,16.5,206.1,210110,,,A*47
$GPRMC,014401.9,A,3334.328223,N,11742.023829,W,23.6,170.7,210110,,,A*4E
$GPRMC,014404.9,A,3334.308630,N,11742.015392,W,26.5,162.1,210110,,,A*42
$GPRMC,014407.9,A,3334.282492,N,11742.008526,W,32.4,168.3,210110,,,A*41
$GPRMC,014410.9,A,3334.251924,N,11742.002860,W,36.3,173.5,210110,,,A*43
$GPRMC,014413.9,A,3334.221583,N,11742.001406,W,36.2,179.4,210110,,,A*43
$GPRMC,014416.9,A,3334.193395,N,11742.002740,W,35.9,183.9,210110,,,A*4F
$GPRMC,014420.2,A,3334.160155,N,11742.008083,W,36.5,189.3,210110,,,A*4E
$GPRMC,014423.9,A,3334.123757,N,11742.019556,W,35.7,196.0,210110,,,A*44
$GPRMC,014426.2,A,3334.107199,N,11742.030268,W,31.6,203.9,210110,,,A*4A
$GPRMC,014429.9,A,3334.075826,N,11742.051220,W,34.2,206.4,210110,,,A*45
$GPRMC,014432.9,A,3334.048236,N,11742.067418,W,36.1,207.6,210110,,,A*40
$GPRMC,014435.9,A,3334.022654,N,11742.086379,W,35.4,206.0,210110,,,A*45
$GPRMC,014438.2,A,3334.001188,N,11742.095884,W,35.5,201.1,210110,,,A*48
$GPRMC,014441.9,A,3333.973234,N,11742.105163,W,28.8,194.0,210110,,,A*45
$GPRMC,014444.9,A,3333.956500,N,11742.110943,W,21.1,195.0,210110,,,A*48
$GPRMC,014447.9,A,3333.944225,N,11742.116015,W,15.3,195.7,210110,,,A*46
$GPRMC,014450.9,A,3333.934357,N,11742.118167,W,11.7,197.5,210110,,,A*49
$GPRMC,014453.9,A,3333.928449,N,11742.120629,W,7.1,189.6,210110,,,A*74
$GPRMC,014505.9,A,3333.914769,N,11742.123178,W,10.9,193.0,210110,,,A*4B
$GPRMC,014508.9,A,3333.900394,N,11742.128684,W,18.4,201.1,210110,,,A*46
$GPRMC,014511.9,A,3333.879385,N,11742.135863,W,25.1,201.5,210110,,,A*45
$GPRMC,014514.9,A,3333.857962,N,11742.150825,W,28.5,205.0,210110,,,A*46
$GPRMC,014517.9,A,3333.833934,N,11742.163196,W,30.5,204.4,210110,,,A*49
$GPRMC,014520.9,A,3333.814285,N,11742.173218,W,25.7,202.8,210110,,,A*41
$GPRMC,014523.9,A,3333.794537,N,11742.183946,W,23.5,205.1,210110,,,A*4E
$GPRMC,014526.9,A,3333.780328,N,11742.192055,W,18.6,204.8,210110,,,A*4E
$GPRMC,014529.9,A,3333.768350,N,11742.196995,W,15.2,200.7,210110,,,A*4B
$GPRMC,014533.2,A,3333.754784,N,11742.201222,W,13.9,197.5,210110,,,A*41
$GPRMC,014536.2,A,3333.745317,N,11742.204693,W,14.4,198.3,210110,,,A*42
$GPRMC,014539.9,A,3333.724170,N,11742.208313,W,21.5,188.4,210110,,,A*42
$GPRMC,014543.2,A,3333.695923,N,11742.212312,W,31.5,182.0,210110,,,A*44
$GPRMC,014546.2,A,3333.662237,N,11742.211576,W,41.2,175.6,210110,,,A*4E
$GPRMC,014549.9,A,3333.618414,N,11742.206421,W,42.8,170.5,210110,,,A*4A
$GPRMC,014552.9,A,3333.584770,N,11742.196027,W,42.8,163.2,210110,,,A*4A
$GPRMC,014555.9,A,3333.553094,N,11742.179648,W,43.0,155.6,210110,,,A*4C
$GPRMC,014558.9,A,3333.524062,N,11742.157420,W,41.6,147.6,210110,,,A*4F
$GPRMC,014601.9,A,3333.497270,N,11742.133131,W,39.7,142.3,210110,,,A*41
$GPRMC,014604.9,A,3333.475756,N,11742.111379,W,31.4,139.5,210110,,,A*46
