NMEA Sentence Code,UTC Time,Status,Latitude,Latitude Direction,Longitude,Longitude Direction,Speed (knots),Track Angle (degrees true),Date,MagneticVariation,Magnetic Variation Direction,[FAA Mode]-Optional,Checksum
$GPRMC,183442.525,A,3237.3342,N,11705.5665,W,11.41,097.27,020310,,*24
$GPRMC,183443.525,A,3237.3338,N,11705.5626,W,11.41,097.27,020310,,*2F
$GPRMC,183444.525,A,3237.3335,N,11705.5587,W,11.41,097.27,020310,,*2D
$GPRMC,183445.525,A,3237.3331,N,11705.5549,W,11.41,097.27,020310,,*2A
$GPRMC,183521.522,A,3237.3498,N,11705.6001,W,8.55,046.22,020310,,*14
$GPRMC,183522.522,A,3237.3474,N,11705.5859,W,9.83,032.29,020310,,*11
$GPRMC,183523.522,A,3237.3501,N,11705.5832,W,10.74,029.78,020310,,*20
$GPRMC,183524.522,A,3237.3525,N,11705.5815,W,11.40,026.12,020310,,*21
$GPRMC,183525.522,A,3237.3552,N,11705.5782,W,13.11,358.87,020310,,*21
$GPRMC,183527.522,A,3237.3628,N,11705.5750,W,17.12,341.21,020310,,*21
$GPRMC,183528.522,A,3237.3679,N,11705.5771,W,19.13,340.82,020310,,*2E
$GPRMC,183529.522,A,3237.3732,N,11705.5793,W,20.99,342.08,020310,,*25
$GPRMC,183530.522,A,3237.3790,N,11705.5816,W,23.07,341.05,020310,,*2D
$GPRMC,183533.522,A,3237.3989,N,11705.5900,W,26.54,340.88,020310,,*29
$GPRMC,183534.521,A,3237.4061,N,11705.5929,W,27.41,340.28,020310,,*21
$GPRMC,183535.521,A,3237.4134,N,11705.5963,W,28.38,338.60,020310,,*2D
$GPRMC,183536.521,A,3237.4210,N,11705.5999,W,29.13,338.25,020310,,*27
$GPRMC,183537.521,A,3237.4288,N,11705.6036,W,30.21,337.99,020310,,*29
$GPRMC,183538.521,A,3237.4368,N,11705.6074,W,31.31,337.79,020310,,*21
$GPRMC,183539.521,A,3237.4450,N,11705.6115,W,32.29,337.89,020310,,*2F
$GPRMC,183540.521,A,3237.4536,N,11705.6159,W,33.29,337.51,020310,,*2C
$GPRMC,183542.521,A,3237.4713,N,11705.6246,W,35.19,338.18,020310,,*21
$GPRMC,183543.521,A,3237.4807,N,11705.6290,W,36.04,338.94,020310,,*2A
$GPRMC,183544.521,A,3237.4903,N,11705.6333,W,37.30,339.82,020310,,*20
$GPRMC,183545.521,A,3237.5003,N,11705.6376,W,38.45,339.85,020310,,*22
$GPRMC,183548.521,A,3237.5319,N,11705.6513,W,41.45,339.80,020310,,*29
$GPRMC,183549.521,A,3237.5430,N,11705.6562,W,42.27,339.44,020310,,*2D
$GPRMC,183550.520,A,3237.5542,N,11705.6613,W,43.10,339.44,020310,,*20
$GPRMC,183551.520,A,3237.5656,N,11705.6664,W,44.03,340.17,020310,,*2A
$GPRMC,183552.520,A,3237.5775,N,11705.6713,W,44.90,341.08,020310,,*2D
$GPRMC,183553.520,A,3237.5897,N,11705.6763,W,45.88,341.18,020310,,*21
$GPRMC,183554.520,A,3237.6020,N,11705.6813,W,46.71,341.34,020310,,*22
$GPRMC,183555.520,A,3237.6145,N,11705.6863,W,47.50,341.49,020310,,*2E
$GPRMC,183557.520,A,3237.6400,N,11705.6965,W,49.00,341.31,020310,,*2B
$GPRMC,183558.520,A,3237.6531,N,11705.7017,W,49.74,341.07,020310,,*2C
$GPRMC,183559.520,A,3237.6665,N,11705.7070,W,50.37,341.18,020310,,*2F
$GPRMC,183600.520,A,3237.6800,N,11705.7123,W,51.03,341.35,020310,,*23
$GPRMC,183603.520,A,3237.7213,N,11705.7288,W,52.73,341.34,020310,,*2E
$GPRMC,183604.520,A,3237.7355,N,11705.7343,W,53.17,341.57,020310,,*2A
$GPRMC,183605.519,A,3237.7494,N,11705.7397,W,53.30,341.69,020310,,*2A
$GPRMC,183606.519,A,3237.7634,N,11705.7451,W,53.37,341.72,020310,,*21
$GPRMC,183607.519,A,3237.7771,N,11705.7504,W,53.73,341.58,020310,,*29
$GPRMC,183608.519,A,3237.7919,N,11705.7562,W,52.63,341.70,020310,,*2C
$GPRMC,183609.519,A,3237.8058,N,11705.7620,W,51.80,341.82,020310,,*28
$GPRMC,183610.519,A,3237.8194,N,11705.7675,W,50.99,341.71,020310,,*24
$GPRMC,183612.519,A,3237.8460,N,11705.7781,W,49.82,341.47,020310,,*25
$GPRMC,183613.519,A,3237.8590,N,11705.7832,W,49.78,341.40,020310,,*2F
$GPRMC,183614.519,A,3237.8721,N,11705.7884,W,49.33,341.35,020310,,*20
$GPRMC,183615.519,A,3237.8851,N,11705.7936,W,49.10,341.34,020310,,*21
$GPRMC,183618.519,A,3237.9241,N,11705.8091,W,49.55,341.52,020310,,*2C
$GPRMC,183619.519,A,3237.9372,N,11705.8143,W,49.74,341.53,020310,,*20
$GPRMC,183620.518,A,3237.9504,N,11705.8196,W,49.83,341.24,020310,,*2C
$GPRMC,183621.518,A,3237.9637,N,11705.8249,W,50.05,341.43,020310,,*28
$GPRMC,183622.518,A,3237.9769,N,11705.8301,W,50.08,341.47,020310,,*25
$GPRMC,183623.518,A,3237.9901,N,11705.8354,W,50.09,341.19,020310,,*2E
$GPRMC,183624.518,A,3238.0034,N,11705.8408,W,50.22,341.09,020310,,*26
$GPRMC,183625.518,A,3238.0165,N,11705.8461,W,49.78,341.45,020310,,*22
$GPRMC,183627.518,A,3238.0426,N,11705.8565,W,48.63,341.36,020310,,*28
$GPRMC,183628.518,A,3238.0553,N,11705.8617,W,48.05,340.74,020310,,*25
$GPRMC,183629.518,A,3238.0680,N,11705.8668,W,47.98,341.34,020310,,*2F
$GPRMC,183630.518,A,3238.0806,N,11705.8718,W,47.82,341.14,020310,,*28
$GPRMC,183633.518,A,3238.1182,N,11705.8866,W,47.24,341.32,020310,,*21
$GPRMC,183634.518,A,3238.1306,N,11705.8915,W,47.16,341.25,020310,,*2A
$GPRMC,183635.518,A,3238.1430,N,11705.8965,W,47.13,341.23,020310,,*2D
$GPRMC,183636.517,A,3238.1559,N,11705.9016,W,47.42,341.40,020310,,*22
$GPRMC,183637.517,A,3238.1684,N,11705.9069,W,47.93,340.88,020310,,*21
$GPRMC,183638.517,A,3238.1805,N,11705.9113,W,47.58,342.19,020310,,*28
$GPRMC,183639.517,A,3238.1932,N,11705.9156,W,48.97,341.82,020310,,*20
$GPRMC,183640.517,A,3238.2062,N,11705.9211,W,49.05,341.38,020310,,*2A
$GPRMC,183642.517,A,3238.2321,N,11705.9318,W,49.29,341.20,020310,,*23
$GPRMC,183643.517,A,3238.2450,N,11705.9370,W,49.21,341.17,020310,,*21
$GPRMC,183644.517,A,3238.2579,N,11705.9421,W,49.10,341.39,020310,,*21
$GPRMC,183645.517,A,3238.2709,N,11705.9474,W,48.94,341.56,020310,,*21
$GPRMC,183648.517,A,3238.3094,N,11705.9627,W,48.57,341.16,020310,,*21
$GPRMC,183649.517,A,3238.3221,N,11705.9679,W,48.54,341.29,020310,,*28
$GPRMC,183650.517,A,3238.3348,N,11705.9730,W,48.45,341.48,020310,,*25
$GPRMC,183651.516,A,3238.3476,N,11705.9782,W,48.50,341.49,020310,,*23
$GPRMC,183652.516,A,3238.3605,N,11705.9834,W,48.64,341.30,020310,,*2D
$GPRMC,183653.516,A,3238.3734,N,11705.9885,W,48.94,341.17,020310,,*2F
$GPRMC,183654.516,A,3238.3863,N,11705.9936,W,48.74,341.74,020310,,*27
$GPRMC,183655.516,A,3238.3992,N,11705.9987,W,49.18,341.51,020310,,*2F
$GPRMC,183657.516,A,3238.4254,N,11706.0089,W,49.53,342.12,020310,,*2D
$GPRMC,183658.516,A,3238.4385,N,11706.0140,W,49.81,342.24,020310,,*21
$GPRMC,183659.516,A,3238.4517,N,11706.0189,W,49.90,342.61,020310,,*29
$GPRMC,183700.516,A,3238.4650,N,11706.0237,W,49.99,342.85,020310,,*21
$GPRMC,183703.516,A,3238.5048,N,11706.0381,W,50.18,343.37,020310,,*29
$GPRMC,183704.516,A,3238.5181,N,11706.0428,W,50.11,343.79,020310,,*2D
$GPRMC,183705.516,A,3238.5315,N,11706.0473,W,50.18,343.89,020310,,*2B
$GPRMC,183706.516,A,3238.5449,N,11706.0520,W,50.26,343.79,020310,,*23
$GPRMC,183707.515,A,3238.5583,N,11706.0566,W,50.36,344.07,020310,,*2B
$GPRMC,183708.515,A,3238.5718,N,11706.0611,W,50.46,344.35,020310,,*21
$GPRMC,183709.515,A,3238.5853,N,11706.0656,W,50.65,344.52,020310,,*23
$GPRMC,183710.515,A,3238.5989,N,11706.0700,W,50.82,344.55,020310,,*21
$GPRMC,183712.515,A,3238.6262,N,11706.0790,W,51.34,344.73,020310,,*2F
$GPRMC,183713.515,A,3238.6401,N,11706.0834,W,51.59,344.69,020310,,*2C
$GPRMC,183714.515,A,3238.6540,N,11706.0880,W,51.78,344.41,020310,,*29
$GPRMC,183715.515,A,3238.6680,N,11706.0926,W,52.01,344.51,020310,,*26
$GPRMC,183718.515,A,3238.7101,N,11706.1066,W,52.46,344.72,020310,,*2A
$GPRMC,183719.515,A,3238.7242,N,11706.1112,W,52.56,344.63,020310,,*2C
$GPRMC,183720.515,A,3238.7383,N,11706.1158,W,52.77,344.36,020310,,*27
$GPRMC,183721.515,A,3238.7525,N,11706.1204,W,52.87,344.35,020310,,*2A
$GPRMC,183722.514,A,3238.7667,N,11706.1251,W,53.26,344.49,020310,,*2C
$GPRMC,183723.514,A,3238.7810,N,11706.1298,W,53.54,344.67,020310,,*2F
$GPRMC,183724.514,A,3238.7954,N,11706.1344,W,53.48,344.72,020310,,*20
$GPRMC,183725.514,A,3238.8097,N,11706.1390,W,53.09,344.45,020310,,*20
$GPRMC,183727.514,A,3238.8379,N,11706.1487,W,52.57,343.46,020310,,*2E
$GPRMC,183728.514,A,3238.8518,N,11706.1537,W,52.19,343.25,020310,,*25
$GPRMC,183729.514,A,3238.8656,N,11706.1586,W,51.90,343.01,020310,,*23
$GPRMC,183730.514,A,3238.8794,N,11706.1636,W,51.67,343.09,020310,,*2C
$GPRMC,183733.514,A,3238.9203,N,11706.1788,W,51.17,342.36,020310,,*2B
$GPRMC,183734.514,A,3238.9339,N,11706.1840,W,51.04,341.94,020310,,*26
$GPRMC,183735.514,A,3238.9474,N,11706.1892,W,50.78,342.40,020310,,*26
$GPRMC,183736.514,A,3238.9608,N,11706.1944,W,51.21,341.58,020310,,*21
$GPRMC,183737.513,A,3238.9743,N,11706.1997,W,50.90,341.43,020310,,*26
$GPRMC,183738.513,A,3238.9876,N,11706.2051,W,50.63,341.25,020310,,*2C
$GPRMC,183739.513,A,3239.0009,N,11706.2105,W,50.42,340.95,020310,,*2C
$GPRMC,183740.513,A,3239.0142,N,11706.2160,W,50.27,340.60,020310,,*26
$GPRMC,183742.513,A,3239.0404,N,11706.2272,W,50.02,339.91,020310,,*24
$GPRMC,183743.513,A,3239.0535,N,11706.2328,W,50.37,339.85,020310,,*2B
$GPRMC,183744.513,A,3239.0666,N,11706.2385,W,50.00,339.70,020310,,*20
$GPRMC,183745.513,A,3239.0795,N,11706.2443,W,49.74,339.57,020310,,*2F
$GPRMC,183748.513,A,3239.1184,N,11706.2613,W,49.56,339.76,020310,,*21
$GPRMC,183749.513,A,3239.1313,N,11706.2670,W,49.59,339.66,020310,,*27
$GPRMC,183750.513,A,3239.1443,N,11706.2726,W,49.75,339.83,020310,,*2A
$GPRMC,183751.513,A,3239.1572,N,11706.2783,W,49.39,339.84,020310,,*28
$GPRMC,183752.513,A,3239.1700,N,11706.2840,W,49.38,339.53,020310,,*27
$GPRMC,183753.512,A,3239.1829,N,11706.2897,W,49.39,339.88,020310,,*2E
$GPRMC,183754.512,A,3239.1957,N,11706.2952,W,49.30,339.94,020310,,*2D
$GPRMC,183755.512,A,3239.2087,N,11706.3009,W,49.50,339.79,020310,,*28
$GPRMC,183757.512,A,3239.2346,N,11706.3122,W,49.80,340.02,020310,,*23
$GPRMC,183758.512,A,3239.2478,N,11706.3179,W,50.01,339.81,020310,,*2C
$GPRMC,183759.512,A,3239.2608,N,11706.3236,W,50.20,339.90,020310,,*23
$GPRMC,183800.512,A,3239.2740,N,11706.3293,W,50.26,339.82,020310,,*27
$GPRMC,183803.512,A,3239.3135,N,11706.3464,W,50.50,339.96,020310,,*2B
$GPRMC,183804.512,A,3239.3266,N,11706.3520,W,50.34,339.85,020310,,*28
$GPRMC,183805.512,A,3239.3397,N,11706.3578,W,50.06,339.76,020310,,*26
$GPRMC,183806.512,A,3239.3528,N,11706.3635,W,49.87,339.91,020310,,*25
$GPRMC,183807.512,A,3239.3658,N,11706.3691,W,49.81,339.66,020310,,*20
$GPRMC,183808.511,A,3239.3788,N,11706.3748,W,49.81,339.60,020310,,*23
$GPRMC,183809.511,A,3239.3918,N,11706.3805,W,49.87,340.10,020310,,*2C
$GPRMC,183810.511,A,3239.4048,N,11706.3860,W,49.87,340.27,020310,,*28
$GPRMC,183812.511,A,3239.4310,N,11706.3970,W,49.89,340.30,020310,,*2C
$GPRMC,183813.511,A,3239.4441,N,11706.4025,W,49.90,340.59,020310,,*27
$GPRMC,183814.511,A,3239.4572,N,11706.4080,W,49.96,341.08,020310,,*2D
$GPRMC,183815.511,A,3239.4704,N,11706.4134,W,50.09,340.89,020310,,*27
$GPRMC,183818.511,A,3239.5101,N,11706.4297,W,50.47,340.82,020310,,*23
$GPRMC,183819.511,A,3239.5234,N,11706.4350,W,50.53,341.40,020310,,*27
$GPRMC,183820.511,A,3239.5367,N,11706.4404,W,50.40,341.45,020310,,*2B
$GPRMC,183821.511,A,3239.5499,N,11706.4456,W,50.25,341.25,020310,,*2E
$GPRMC,183822.511,A,3239.5630,N,11706.4510,W,49.96,340.87,020310,,*26
$GPRMC,183823.511,A,3239.5761,N,11706.4564,W,49.66,341.20,020310,,*22
$GPRMC,183824.510,A,3239.5890,N,11706.4616,W,49.10,341.14,020310,,*25
$GPRMC,183825.510,A,3239.6018,N,11706.4669,W,48.47,340.91,020310,,*28
$GPRMC,183827.510,A,3239.6270,N,11706.4772,W,47.68,341.32,020310,,*27
$GPRMC,183828.510,A,3239.6395,N,11706.4822,W,47.44,341.10,020310,,*26
$GPRMC,183829.510,A,3239.6519,N,11706.4873,W,47.31,341.09,020310,,*2B
$GPRMC,183830.510,A,3239.6643,N,11706.4924,W,47.36,340.88,020310,,*23
$GPRMC,183833.510,A,3239.7019,N,11706.5079,W,48.42,340.96,020310,,*2B
$GPRMC,183834.510,A,3239.7147,N,11706.5132,W,48.75,340.97,020310,,*2D
$GPRMC,183835.510,A,3239.7276,N,11706.5185,W,49.09,340.95,020310,,*29
$GPRMC,183836.510,A,3239.7406,N,11706.5239,W,49.49,340.87,020310,,*28
$GPRMC,183837.510,A,3239.7536,N,11706.5293,W,49.69,340.75,020310,,*24
$GPRMC,183838.510,A,3239.7667,N,11706.5347,W,49.94,340.87,020310,,*2B
$GPRMC,183839.509,A,3239.7798,N,11706.5400,W,50.07,341.01,020310,,*2A
$GPRMC,183840.509,A,3239.7929,N,11706.5454,W,49.86,341.10,020310,,*20
$GPRMC,183842.509,A,3239.8191,N,11706.5560,W,49.51,341.26,020310,,*2F
$GPRMC,183843.509,A,3239.8321,N,11706.5613,W,49.38,341.01,020310,,*2A
$GPRMC,183844.509,A,3239.8451,N,11706.5665,W,49.47,341.19,020310,,*2D
$GPRMC,183845.509,A,3239.8582,N,11706.5718,W,49.58,341.27,020310,,*2B
$GPRMC,183848.509,A,3239.8974,N,11706.5879,W,50.08,341.17,020310,,*25
$GPRMC,183849.509,A,3239.9106,N,11706.5933,W,50.31,341.15,020310,,*2F
$GPRMC,183850.509,A,3239.9239,N,11706.5987,W,50.38,340.74,020310,,*28
$GPRMC,183851.509,A,3239.9370,N,11706.6041,W,50.00,341.07,020310,,*2B
$GPRMC,183852.509,A,3239.9501,N,11706.6094,W,49.54,340.86,020310,,*21
$GPRMC,183853.509,A,3239.9631,N,11706.6146,W,49.03,341.16,020310,,*24
$GPRMC,183854.509,A,3239.9759,N,11706.6198,W,48.41,341.39,020310,,*25
$GPRMC,183855.508,A,3239.9885,N,11706.6249,W,47.72,341.17,020310,,*27
$GPRMC,183857.508,A,3240.0133,N,11706.6349,W,46.57,340.97,020310,,*28
$GPRMC,183858.508,A,3240.0256,N,11706.6399,W,46.60,341.02,020310,,*23
$GPRMC,183859.508,A,3240.0379,N,11706.6447,W,46.81,341.60,020310,,*21
$GPRMC,183900.508,A,3240.0502,N,11706.6494,W,47.09,342.17,020310,,*2A
$GPRMC,183903.508,A,3240.0886,N,11706.6607,W,48.05,347.91,020310,,*28
$GPRMC,183904.508,A,3240.1016,N,11706.6639,W,47.66,348.95,020310,,*23
$GPRMC,183905.508,A,3240.1148,N,11706.6663,W,47.86,350.99,020310,,*2C
$GPRMC,183906.508,A,3240.1281,N,11706.6686,W,48.18,351.70,020310,,*2C
$GPRMC,183907.508,A,3240.1415,N,11706.6703,W,48.47,353.80,020310,,*2D
$GPRMC,183908.508,A,3240.1550,N,11706.6715,W,49.09,355.15,020310,,*24
$GPRMC,183909.508,A,3240.1687,N,11706.6722,W,49.24,357.16,020310,,*26
$GPRMC,183910.507,A,3240.1825,N,11706.6726,W,48.97,359.06,020310,,*25
$GPRMC,183912.507,A,3240.2095,N,11706.6719,W,47.72,001.86,020310,,*29
$GPRMC,183913.507,A,3240.2224,N,11706.6711,W,46.97,002.71,020310,,*29
$GPRMC,183914.507,A,3240.2355,N,11706.6699,W,46.64,004.62,020310,,*20
$GPRMC,183915.507,A,3240.2483,N,11706.6682,W,45.73,006.68,020310,,*2A
$GPRMC,183918.507,A,3240.2857,N,11706.6607,W,45.32,011.49,020310,,*2F
$GPRMC,183919.507,A,3240.2980,N,11706.6576,W,45.33,012.48,020310,,*23
$GPRMC,183920.507,A,3240.3104,N,11706.6540,W,46.03,013.58,020310,,*29
$GPRMC,183921.507,A,3240.3228,N,11706.6502,W,46.39,015.57,020310,,*23
$GPRMC,183922.507,A,3240.3352,N,11706.6458,W,46.53,017.12,020310,,*2D
$GPRMC,183923.507,A,3240.3476,N,11706.6410,W,46.85,018.11,020310,,*26
$GPRMC,183924.507,A,3240.3601,N,11706.6359,W,47.18,019.54,020310,,*2C
$GPRMC,183925.506,A,3240.3723,N,11706.6303,W,47.51,021.34,020310,,*22
$GPRMC,183927.506,A,3240.3971,N,11706.6184,W,47.39,022.22,020310,,*2E
$GPRMC,183928.506,A,3240.4093,N,11706.6125,W,47.44,022.46,020310,,*20
$GPRMC,183929.506,A,3240.4216,N,11706.6064,W,47.96,022.45,020310,,*26
$GPRMC,183930.506,A,3240.4340,N,11706.6003,W,48.10,022.36,020310,,*28
$GPRMC,183933.506,A,3240.4709,N,11706.5823,W,47.11,022.27,020310,,*25
$GPRMC,183934.506,A,3240.4830,N,11706.5763,W,46.83,021.79,020310,,*2E
$GPRMC,183935.506,A,3240.4951,N,11706.5709,W,46.56,020.35,020310,,*24
$GPRMC,183936.506,A,3240.5073,N,11706.5658,W,46.84,018.47,020310,,*2B
$GPRMC,183937.506,A,3240.5199,N,11706.5612,W,47.69,016.37,020310,,*2A
$GPRMC,183938.506,A,3240.5328,N,11706.5573,W,48.01,012.97,020310,,*26
$GPRMC,183939.506,A,3240.5460,N,11706.5543,W,48.64,010.28,020310,,*2A
$GPRMC,183940.506,A,3240.5594,N,11706.5519,W,49.76,008.16,020310,,*27
$GPRMC,183942.505,A,3240.5870,N,11706.5488,W,49.96,004.27,020310,,*28
$GPRMC,183943.505,A,3240.6006,N,11706.5482,W,49.87,002.18,020310,,*23
$GPRMC,183944.505,A,3240.6144,N,11706.5481,W,49.80,000.25,020310,,*2B
$GPRMC,183945.505,A,3240.6284,N,11706.5487,W,49.46,357.69,020310,,*20
$GPRMC,183948.505,A,3240.6696,N,11706.5545,W,49.12,350.63,020310,,*29
$GPRMC,183949.505,A,3240.6831,N,11706.5575,W,48.94,348.58,020310,,*26
$GPRMC,183950.505,A,3240.6962,N,11706.5612,W,48.63,345.84,020310,,*2F
$GPRMC,183951.505,A,3240.7091,N,11706.5657,W,48.12,343.83,020310,,*2C
$GPRMC,183952.505,A,3240.7216,N,11706.5707,W,47.88,342.28,020310,,*2A
$GPRMC,183953.505,A,3240.7339,N,11706.5758,W,47.46,341.80,020310,,*2E
$GPRMC,183954.505,A,3240.7464,N,11706.5808,W,47.38,341.83,020310,,*26
$GPRMC,183955.505,A,3240.7589,N,11706.5858,W,47.82,341.74,020310,,*29
$GPRMC,183957.504,A,3240.7845,N,11706.5957,W,48.31,342.10,020310,,*2F
$GPRMC,183958.504,A,3240.7972,N,11706.6008,W,48.60,342.10,020310,,*21
$GPRMC,183959.504,A,3240.8101,N,11706.6059,W,48.71,341.77,020310,,*25
$GPRMC,184000.504,A,3240.8230,N,11706.6111,W,49.17,341.67,020310,,*2B
$GPRMC,184003.504,A,3240.8620,N,11706.6267,W,49.54,341.47,020310,,*2A
$GPRMC,184004.504,A,3240.8751,N,11706.6319,W,49.57,341.63,020310,,*27
$GPRMC,184005.504,A,3240.8882,N,11706.6370,W,49.59,342.38,020310,,*2B
$GPRMC,184006.504,A,3240.9013,N,11706.6419,W,49.32,342.35,020310,,*21
$GPRMC,184007.504,A,3240.9143,N,11706.6469,W,49.13,341.47,020310,,*26
$GPRMC,184008.504,A,3240.9273,N,11706.6520,W,48.97,341.55,020310,,*2B
$GPRMC,184009.504,A,3240.9402,N,11706.6571,W,48.99,341.87,020310,,*2F
$GPRMC,184010.504,A,3240.9532,N,11706.6621,W,49.22,342.07,020310,,*29
$GPRMC,184012.503,A,3240.9792,N,11706.6722,W,49.19,342.00,020310,,*29
$GPRMC,184013.503,A,3240.9922,N,11706.6772,W,49.07,342.06,020310,,*21
$GPRMC,184014.503,A,3241.0052,N,11706.6822,W,49.35,342.03,020310,,*2E
$GPRMC,184015.503,A,3241.0183,N,11706.6874,W,49.44,341.65,020310,,*24
$GPRMC,184018.503,A,3241.0579,N,11706.7028,W,50.29,341.74,020310,,*2B
$GPRMC,184019.503,A,3241.0711,N,11706.7079,W,49.97,341.58,020310,,*21
$GPRMC,184020.503,A,3241.0842,N,11706.7132,W,49.61,340.76,020310,,*28
$GPRMC,184021.503,A,3241.0971,N,11706.7187,W,49.39,339.33,020310,,*24
$GPRMC,184022.503,A,3241.1098,N,11706.7245,W,48.87,338.27,020310,,*25
$GPRMC,184023.503,A,3241.1223,N,11706.7306,W,48.10,336.95,020310,,*29
$GPRMC,184024.503,A,3241.1346,N,11706.7371,W,47.32,335.24,020310,,*2A
$GPRMC,184025.503,A,3241.1464,N,11706.7441,W,46.77,332.98,020310,,*28
$GPRMC,184027.502,A,3241.1691,N,11706.7589,W,46.44,330.50,020310,,*20
$GPRMC,184028.502,A,3241.1802,N,11706.7667,W,46.30,328.64,020310,,*25
$GPRMC,184029.502,A,3241.1911,N,11706.7750,W,45.81,327.21,020310,,*25
$GPRMC,184030.502,A,3241.2015,N,11706.7835,W,45.60,326.18,020310,,*2B
$GPRMC,184033.502,A,3241.2321,N,11706.8103,W,45.70,321.78,020310,,*2F
$GPRMC,184034.502,A,3241.2419,N,11706.8200,W,45.88,320.23,020310,,*2C
$GPRMC,184035.502,A,3241.2516,N,11706.8300,W,46.19,318.10,020310,,*22
$GPRMC,184036.502,A,3241.2609,N,11706.8406,W,46.47,316.25,020310,,*2E
$GPRMC,184037.502,A,3241.2701,N,11706.8517,W,46.95,314.72,020310,,*28
$GPRMC,184038.502,A,3241.2790,N,11706.8631,W,47.26,313.32,020310,,*22
$GPRMC,184039.502,A,3241.2878,N,11706.8746,W,47.46,312.25,020310,,*2A
$GPRMC,184040.502,A,3241.2966,N,11706.8866,W,48.09,310.98,020310,,*27
$GPRMC,184042.501,A,3241.3140,N,11706.9113,W,48.92,310.30,020310,,*21
$GPRMC,184043.501,A,3241.3227,N,11706.9238,W,49.06,309.69,020310,,*20
$GPRMC,184044.501,A,3241.3315,N,11706.9364,W,49.39,309.86,020310,,*22
$GPRMC,184045.501,A,3241.3405,N,11706.9490,W,49.75,310.37,020310,,*23
$GPRMC,184048.501,A,3241.3686,N,11706.9866,W,51.24,313.47,020310,,*2B
$GPRMC,184049.501,A,3241.3784,N,11706.9989,W,51.64,313.56,020310,,*2D
$GPRMC,184050.501,A,3241.3884,N,11707.0113,W,52.05,313.84,020310,,*22
$GPRMC,184051.501,A,3241.3985,N,11707.0237,W,52.30,313.76,020310,,*2D
$GPRMC,184052.501,A,3241.4087,N,11707.0363,W,52.38,314.02,020310,,*2E
$GPRMC,184053.501,A,3241.4188,N,11707.0487,W,52.31,314.43,020310,,*20
$GPRMC,184054.501,A,3241.4290,N,11707.0612,W,52.44,314.43,020310,,*21
$GPRMC,184055.501,A,3241.4391,N,11707.0738,W,52.36,313.78,020310,,*23
$GPRMC,184057.501,A,3241.4591,N,11707.0988,W,51.84,313.67,020310,,*26
$GPRMC,184058.500,A,3241.4690,N,11707.1111,W,51.28,313.36,020310,,*21
$GPRMC,184059.500,A,3241.4789,N,11707.1232,W,50.83,314.68,020310,,*27
$GPRMC,184100.500,A,3241.4890,N,11707.1348,W,50.55,316.75,020310,,*24
$GPRMC,184103.500,A,3241.5211,N,11707.1662,W,49.45,323.21,020310,,*26
$GPRMC,184104.500,A,3241.5322,N,11707.1756,W,49.19,325.18,020310,,*23
$GPRMC,184105.500,A,3241.5436,N,11707.1843,W,49.00,327.80,020310,,*20
$GPRMC,184106.500,A,3241.5552,N,11707.1925,W,48.90,330.07,020310,,*20
$GPRMC,184107.500,A,3241.5670,N,11707.2001,W,48.76,331.82,020310,,*2A
$GPRMC,184108.500,A,3241.5793,N,11707.2069,W,48.67,334.72,020310,,*2D
$GPRMC,184109.500,A,3241.5918,N,11707.2132,W,48.88,337.02,020310,,*2B
$GPRMC,184110.500,A,3241.6046,N,11707.2189,W,49.13,339.50,020310,,*28
$GPRMC,184113.499,A,3241.6441,N,11707.2327,W,49.89,346.07,020310,,*26
$GPRMC,184114.499,A,3241.6578,N,11707.2361,W,50.42,348.02,020310,,*2C
$GPRMC,184115.499,A,3241.6717,N,11707.2390,W,51.18,350.36,020310,,*28
$GPRMC,184116.499,A,3241.6860,N,11707.2413,W,51.65,352.22,020310,,*25
$GPRMC,184117.499,A,3241.7005,N,11707.2430,W,52.31,354.52,020310,,*2C
$GPRMC,184118.499,A,3241.7151,N,11707.2439,W,52.86,356.35,020310,,*25
$GPRMC,184119.499,A,3241.7299,N,11707.2443,W,53.06,357.89,020310,,*21
$GPRMC,184120.499,A,3241.7446,N,11707.2445,W,52.75,358.47,020310,,*21
$GPRMC,184122.499,A,3241.7744,N,11707.2451,W,53.53,359.17,020310,,*26
$GPRMC,184123.499,A,3241.7894,N,11707.2453,W,53.58,358.83,020310,,*20
$GPRMC,184124.499,A,3241.8044,N,11707.2457,W,53.76,358.73,020310,,*2A
$GPRMC,184125.499,A,3241.8193,N,11707.2460,W,53.78,359.04,020310,,*2B
$GPRMC,184128.499,A,3241.8641,N,11707.2465,W,53.57,359.50,020310,,*27
$GPRMC,184129.498,A,3241.8790,N,11707.2465,W,53.39,359.78,020310,,*28
$GPRMC,184130.498,A,3241.8939,N,11707.2465,W,53.15,359.85,020310,,*21
$GPRMC,184131.498,A,3241.9088,N,11707.2464,W,53.36,000.09,020310,,*29
$GPRMC,184132.498,A,3241.9237,N,11707.2462,W,53.20,000.80,020310,,*2C
$GPRMC,184133.498,A,3241.9385,N,11707.2459,W,53.02,000.89,020310,,*24
$GPRMC,184134.498,A,3241.9533,N,11707.2455,W,52.81,001.22,020310,,*2E
$GPRMC,184135.498,A,3241.9679,N,11707.2451,W,52.51,001.11,020310,,*2B
$GPRMC,184137.498,A,3241.9970,N,11707.2444,W,51.61,001.42,020310,,*2D
$GPRMC,184138.498,A,3242.0112,N,11707.2439,W,50.98,001.86,020310,,*21
$GPRMC,184139.498,A,3242.0253,N,11707.2433,W,50.53,002.03,020310,,*25
$GPRMC,184140.498,A,3242.0393,N,11707.2426,W,50.02,002.28,020310,,*2F
$GPRMC,184143.498,A,3242.0806,N,11707.2409,W,47.88,002.05,020310,,*2D
$GPRMC,184144.497,A,3242.0939,N,11707.2403,W,47.58,002.15,020310,,*2E
$GPRMC,184145.497,A,3242.1072,N,11707.2397,W,48.18,001.86,020310,,*20
$GPRMC,184146.497,A,3242.1205,N,11707.2391,W,47.93,001.68,020310,,*2B
$GPRMC,184147.497,A,3242.1339,N,11707.2386,W,47.68,001.64,020310,,*2A
$GPRMC,184148.497,A,3242.1472,N,11707.2383,W,47.49,001.38,020310,,*22
$GPRMC,184149.497,A,3242.1605,N,11707.2380,W,47.55,000.65,020310,,*26
$GPRMC,184150.497,A,3242.1737,N,11707.2380,W,47.73,359.57,020310,,*24
$GPRMC,184152.497,A,3242.2003,N,11707.2387,W,48.23,358.47,020310,,*28
$GPRMC,184153.497,A,3242.2137,N,11707.2391,W,48.25,358.55,020310,,*2D
$GPRMC,184154.497,A,3242.2271,N,11707.2395,W,48.33,359.13,020310,,*2B
$GPRMC,184155.497,A,3242.2405,N,11707.2396,W,48.07,000.53,020310,,*20
$GPRMC,184158.497,A,3242.2810,N,11707.2373,W,48.99,004.08,020310,,*23
$GPRMC,184159.497,A,3242.2946,N,11707.2359,W,49.10,004.99,020310,,*20
$GPRMC,184200.496,A,3242.3081,N,11707.2344,W,49.02,005.67,020310,,*22
$GPRMC,184203.496,A,3242.3490,N,11707.2291,W,49.29,006.92,020310,,*2C
$GPRMC,184204.496,A,3242.3627,N,11707.2271,W,49.42,007.10,020310,,*2D
$GPRMC,184205.496,A,3242.3764,N,11707.2251,W,49.54,007.51,020310,,*2A
$GPRMC,184206.496,A,3242.3900,N,11707.2227,W,49.80,008.35,020310,,*20
$GPRMC,184207.496,A,3242.4038,N,11707.2201,W,49.99,009.45,020310,,*2E
$GPRMC,184208.496,A,3242.4176,N,11707.2175,W,50.11,009.79,020310,,*2D
$GPRMC,184209.496,A,3242.4314,N,11707.2147,W,50.38,009.65,020310,,*2D
$GPRMC,184210.496,A,3242.4453,N,11707.2118,W,50.29,009.82,020310,,*22
$GPRMC,184212.496,A,3242.4730,N,11707.2057,W,50.51,011.05,020310,,*25
$GPRMC,184213.496,A,3242.4869,N,11707.2023,W,50.73,011.55,020310,,*21
$GPRMC,184214.496,A,3242.5008,N,11707.1989,W,51.20,011.81,020310,,*2C
$GPRMC,184215.495,A,3242.5149,N,11707.1952,W,51.86,012.48,020310,,*26
$GPRMC,184218.495,A,3242.5579,N,11707.1829,W,53.27,014.07,020310,,*25
$GPRMC,184219.495,A,3242.5724,N,11707.1785,W,53.58,014.34,020310,,*2F
$GPRMC,184220.495,A,3242.5869,N,11707.1740,W,53.74,014.81,020310,,*2A
$GPRMC,184221.495,A,3242.6013,N,11707.1691,W,53.93,016.20,020310,,*20
$GPRMC,184222.495,A,3242.6156,N,11707.1641,W,53.42,016.40,020310,,*24
$GPRMC,184223.495,A,3242.6299,N,11707.1590,W,53.65,016.87,020310,,*24
$GPRMC,184224.495,A,3242.6442,N,11707.1537,W,53.56,017.46,020310,,*22
$GPRMC,184225.495,A,3242.6584,N,11707.1484,W,53.45,017.88,020310,,*21
$GPRMC,184227.495,A,3242.6867,N,11707.1376,W,52.94,018.35,020310,,*2D
$GPRMC,184228.495,A,3242.7005,N,11707.1319,W,52.20,019.42,020310,,*28
$GPRMC,184229.495,A,3242.7141,N,11707.1261,W,51.76,020.02,020310,,*28
$GPRMC,184230.494,A,3242.7275,N,11707.1202,W,51.03,020.35,020310,,*26
$GPRMC,184233.494,A,3242.7672,N,11707.1022,W,50.51,020.62,020310,,*22
$GPRMC,184234.494,A,3242.7805,N,11707.0961,W,51.17,021.07,020310,,*25
$GPRMC,184235.494,A,3242.7938,N,11707.0903,W,50.98,020.21,020310,,*2C
$GPRMC,184236.494,A,3242.8074,N,11707.0850,W,51.38,017.85,020310,,*27
$GPRMC,184237.494,A,3242.8213,N,11707.0802,W,51.92,015.98,020310,,*2C
$GPRMC,184238.494,A,3242.8353,N,11707.0759,W,52.15,014.08,020310,,*23
$GPRMC,184239.494,A,3242.8494,N,11707.0726,W,51.87,010.71,020310,,*24
$GPRMC,184240.494,A,3242.8637,N,11707.0700,W,51.87,008.50,020310,,*2F
$GPRMC,184242.494,A,3242.8913,N,11707.0655,W,51.68,002.64,020310,,*29
$GPRMC,184243.494,A,3242.9054,N,11707.0653,W,51.61,000.36,020310,,*29
$GPRMC,184244.494,A,3242.9196,N,11707.0658,W,51.32,359.18,020310,,*2F
$GPRMC,184245.494,A,3242.9338,N,11707.0663,W,51.19,358.80,020310,,*29
$GPRMC,184248.493,A,3242.9770,N,11707.0679,W,50.81,358.72,020310,,*2D
$GPRMC,184249.493,A,3242.9910,N,11707.0685,W,50.00,357.34,020310,,*23
$GPRMC,184250.493,A,3243.0049,N,11707.0689,W,50.15,358.66,020310,,*26
$GPRMC,184251.493,A,3243.0187,N,11707.0693,W,50.74,358.45,020310,,*29
$GPRMC,184252.493,A,3243.0326,N,11707.0697,W,50.68,358.87,020310,,*24
$GPRMC,184253.493,A,3243.0467,N,11707.0700,W,50.59,359.00,020310,,*24
$GPRMC,184254.493,A,3243.0604,N,11707.0704,W,49.59,359.66,020310,,*28
$GPRMC,184255.493,A,3243.0740,N,11707.0700,W,49.16,001.87,020310,,*26
$GPRMC,184257.493,A,3243.1008,N,11707.0677,W,48.74,004.50,020310,,*25
$GPRMC,184258.493,A,3243.1144,N,11707.0663,W,48.89,005.75,020310,,*22
$GPRMC,184259.493,A,3243.1279,N,11707.0644,W,49.17,007.77,020310,,*2D
$GPRMC,184300.493,A,3243.1415,N,11707.0618,W,49.55,009.25,020310,,*2A
$GPRMC,184303.492,A,3243.1820,N,11707.0513,W,50.25,014.18,020310,,*27
$GPRMC,184304.492,A,3243.1957,N,11707.0469,W,50.69,015.75,020310,,*2F
$GPRMC,184305.492,A,3243.2092,N,11707.0418,W,50.97,017.75,020310,,*28
$GPRMC,184306.492,A,3243.2228,N,11707.0363,W,51.52,018.98,020310,,*27
$GPRMC,184307.492,A,3243.2364,N,11707.0305,W,51.90,019.73,020310,,*25
$GPRMC,184308.492,A,3243.2495,N,11707.0241,W,51.06,022.05,020310,,*24
$GPRMC,184309.492,A,3243.2624,N,11707.0173,W,50.83,023.89,020310,,*26
$GPRMC,184310.492,A,3243.2751,N,11707.0099,W,50.77,025.84,020310,,*28
$GPRMC,184312.492,A,3243.3000,N,11706.9940,W,50.86,029.39,020310,,*29
$GPRMC,184313.492,A,3243.3121,N,11706.9853,W,50.91,030.74,020310,,*2E
$GPRMC,184314.492,A,3243.3240,N,11706.9764,W,50.55,031.96,020310,,*23
$GPRMC,184315.492,A,3243.3359,N,11706.9672,W,51.08,032.93,020310,,*22
$GPRMC,184318.491,A,3243.3719,N,11706.9387,W,51.33,032.23,020310,,*20
$GPRMC,184319.491,A,3243.3841,N,11706.9296,W,51.35,031.46,020310,,*24
$GPRMC,184320.491,A,3243.3962,N,11706.9208,W,51.58,030.65,020310,,*22
$GPRMC,184321.491,A,3243.4084,N,11706.9120,W,51.73,030.68,020310,,*28
$GPRMC,184322.491,A,3243.4208,N,11706.9034,W,51.84,030.81,020310,,*26
$GPRMC,184323.491,A,3243.4331,N,11706.8948,W,51.99,030.96,020310,,*25
$GPRMC,184324.491,A,3243.4455,N,11706.8860,W,51.98,031.19,020310,,*2B
$GPRMC,184325.491,A,3243.4579,N,11706.8773,W,51.85,031.54,020310,,*2D
$GPRMC,184327.491,A,3243.4826,N,11706.8599,W,51.57,031.19,020310,,*28
$GPRMC,184328.491,A,3243.4950,N,11706.8512,W,51.44,031.09,020310,,*27
$GPRMC,184329.491,A,3243.5073,N,11706.8425,W,51.21,030.93,020310,,*2B
$GPRMC,184330.491,A,3243.5195,N,11706.8339,W,51.15,031.11,020310,,*2C
$GPRMC,184333.490,A,3243.5560,N,11706.8081,W,50.89,030.77,020310,,*25
$GPRMC,184334.490,A,3243.5681,N,11706.7996,W,50.71,030.99,020310,,*29
$GPRMC,184335.490,A,3243.5802,N,11706.7909,W,50.66,031.30,020310,,*2F
$GPRMC,184336.490,A,3243.5921,N,11706.7823,W,50.52,031.21,020310,,*22
$GPRMC,184337.490,A,3243.6042,N,11706.7738,W,50.24,030.48,020310,,*26
$GPRMC,184338.490,A,3243.6162,N,11706.7656,W,50.15,029.60,020310,,*23
$GPRMC,184339.490,A,3243.6285,N,11706.7577,W,50.01,028.03,020310,,*29
$GPRMC,184340.490,A,3243.6408,N,11706.7503,W,50.00,026.63,020310,,*2E
$GPRMC,184342.490,A,3243.6658,N,11706.7366,W,49.86,023.26,020310,,*2C
$GPRMC,184343.490,A,3243.6785,N,11706.7303,W,49.83,022.21,020310,,*2C
$GPRMC,184344.490,A,3243.6914,N,11706.7243,W,49.95,021.12,020310,,*2C
$GPRMC,184345.490,A,3243.7044,N,11706.7188,W,49.81,019.59,020310,,*25
$GPRMC,184348.489,A,3243.7446,N,11706.7047,W,50.49,014.91,020310,,*21
$GPRMC,184349.489,A,3243.7583,N,11706.7007,W,50.60,013.61,020310,,*2F
$GPRMC,184350.489,A,3243.7721,N,11706.6972,W,50.66,011.67,020310,,*25
$GPRMC,184351.489,A,3243.7862,N,11706.6940,W,51.06,010.31,020310,,*28
$GPRMC,184352.489,A,3243.8004,N,11706.6914,W,51.30,009.42,020310,,*24
$GPRMC,184353.489,A,3243.8146,N,11706.6892,W,51.35,007.55,020310,,*20
$GPRMC,184354.489,A,3243.8290,N,11706.6874,W,51.41,006.25,020310,,*22
$GPRMC,184355.489,A,3243.8433,N,11706.6861,W,51.38,004.55,020310,,*23
$GPRMC,184357.489,A,3243.8715,N,11706.6846,W,51.07,001.09,020310,,*23
$GPRMC,184358.489,A,3243.8855,N,11706.6848,W,50.92,359.96,020310,,*2C
$GPRMC,184359.489,A,3243.8997,N,11706.6852,W,51.07,358.72,020310,,*2F
$GPRMC,184400.489,A,3243.9140,N,11706.6859,W,51.01,357.66,020310,,*20
$GPRMC,184403.488,A,3243.9560,N,11706.6931,W,51.71,353.15,020310,,*2C
$GPRMC,184404.488,A,3243.9700,N,11706.6955,W,51.01,351.78,020310,,*23
$GPRMC,184405.488,A,3243.9839,N,11706.6984,W,51.13,350.16,020310,,*21
$GPRMC,184406.488,A,3243.9979,N,11706.7017,W,51.08,348.92,020310,,*2A
$GPRMC,184407.488,A,3244.0118,N,11706.7051,W,51.02,347.90,020310,,*2F
$GPRMC,184408.488,A,3244.0257,N,11706.7089,W,50.94,346.56,020310,,*28
$GPRMC,184409.488,A,3244.0395,N,11706.7131,W,50.91,345.39,020310,,*2B
$GPRMC,184410.488,A,3244.0532,N,11706.7175,W,50.84,344.30,020310,,*24
$GPRMC,184412.488,A,3244.0805,N,11706.7272,W,50.86,343.02,020310,,*2F
$GPRMC,184413.488,A,3244.0941,N,11706.7320,W,51.06,343.32,020310,,*23
$GPRMC,184414.488,A,3244.1078,N,11706.7368,W,51.38,343.29,020310,,*2D
$GPRMC,184415.488,A,3244.1216,N,11706.7418,W,51.55,343.16,020310,,*21
$GPRMC,184418.487,A,3244.1627,N,11706.7566,W,51.59,343.36,020310,,*23
$GPRMC,184419.487,A,3244.1764,N,11706.7616,W,51.51,343.28,020310,,*27
$GPRMC,184420.487,A,3244.1901,N,11706.7665,W,51.34,343.30,020310,,*2E
$GPRMC,184421.487,A,3244.2038,N,11706.7715,W,50.94,343.05,020310,,*24
$GPRMC,184422.487,A,3244.2173,N,11706.7764,W,50.85,343.18,020310,,*23
$GPRMC,184423.487,A,3244.2307,N,11706.7812,W,50.73,343.98,020310,,*2C
$GPRMC,184424.487,A,3244.2443,N,11706.7858,W,50.83,344.32,020310,,*2A
$GPRMC,184425.487,A,3244.2581,N,11706.7900,W,51.22,346.90,020310,,*28
$GPRMC,184427.487,A,3244.2861,N,11706.7956,W,50.93,352.72,020310,,*28
$GPRMC,184428.487,A,3244.3000,N,11706.7974,W,51.14,354.92,020310,,*2F
$GPRMC,184429.487,A,3244.3139,N,11706.7985,W,51.11,357.24,020310,,*20
$GPRMC,184430.487,A,3244.3278,N,11706.7984,W,51.15,359.29,020310,,*28
$GPRMC,184433.487,A,3244.3706,N,11706.7945,W,51.57,007.41,020310,,*2A
$GPRMC,184434.486,A,3244.3849,N,11706.7915,W,51.71,009.74,020310,,*21
$GPRMC,184435.486,A,3244.3988,N,11706.7879,W,51.14,012.80,020310,,*25
$GPRMC,184436.486,A,3244.4127,N,11706.7837,W,51.39,015.14,020310,,*23
$GPRMC,184437.486,A,3244.4265,N,11706.7789,W,51.17,017.67,020310,,*27
$GPRMC,184438.486,A,3244.4401,N,11706.7733,W,51.15,019.68,020310,,*2E
$GPRMC,184439.486,A,3244.4534,N,11706.7669,W,51.28,021.52,020310,,*2A
$GPRMC,184440.486,A,3244.4666,N,11706.7594,W,51.16,024.97,020310,,*20
$GPRMC,184442.486,A,3244.4919,N,11706.7431,W,51.22,030.24,020310,,*21
$GPRMC,184443.486,A,3244.5042,N,11706.7339,W,51.26,032.21,020310,,*2A
$GPRMC,184444.486,A,3244.5161,N,11706.7244,W,51.32,035.22,020310,,*27
$GPRMC,184445.486,A,3244.5273,N,11706.7144,W,51.37,037.56,020310,,*21
$GPRMC,184448.486,A,3244.5594,N,11706.6809,W,51.19,038.78,020310,,*2C
$GPRMC,184449.485,A,3244.5705,N,11706.6703,W,51.21,038.40,020310,,*21
$GPRMC,184450.485,A,3244.5816,N,11706.6598,W,51.10,038.33,020310,,*22
$GPRMC,184451.485,A,3244.5927,N,11706.6493,W,50.90,038.64,020310,,*21
$GPRMC,184452.485,A,3244.6036,N,11706.6387,W,50.65,038.94,020310,,*2F
$GPRMC,184453.485,A,3244.6145,N,11706.6283,W,50.34,038.76,020310,,*26
$GPRMC,184454.485,A,3244.6255,N,11706.6179,W,50.42,038.57,020310,,*27
$GPRMC,184455.485,A,3244.6364,N,11706.6074,W,50.53,038.74,020310,,*28
$GPRMC,184457.485,A,3244.6590,N,11706.5872,W,50.65,035.54,020310,,*20
$GPRMC,184458.485,A,3244.6709,N,11706.5780,W,51.25,032.93,020310,,*26
$GPRMC,184459.485,A,3244.6825,N,11706.5684,W,51.68,030.15,020310,,*26
$GPRMC,184500.485,A,3244.6953,N,11706.5604,W,51.99,027.79,020310,,*21
$GPRMC,184503.485,A,3244.7353,N,11706.5396,W,52.38,020.39,020310,,*2C
$GPRMC,184504.484,A,3244.7488,N,11706.5344,W,51.33,018.53,020310,,*2B
$GPRMC,184505.484,A,3244.7623,N,11706.5299,W,51.28,015.49,020310,,*24
$GPRMC,184506.484,A,3244.7765,N,11706.5261,W,50.83,013.03,020310,,*2B
$GPRMC,184507.484,A,3244.7904,N,11706.5230,W,50.65,010.65,020310,,*2C
$GPRMC,184508.484,A,3244.8046,N,11706.5208,W,50.59,008.37,020310,,*29
$GPRMC,184509.484,A,3244.8187,N,11706.5191,W,50.62,006.10,020310,,*24
$GPRMC,184510.484,A,3244.8328,N,11706.5182,W,50.69,003.36,020310,,*23
$GPRMC,184512.484,A,3244.8618,N,11706.5180,W,51.71,000.50,020310,,*2E
$GPRMC,184513.484,A,3244.8762,N,11706.5177,W,52.08,002.27,020310,,*24
$GPRMC,184514.484,A,3244.8907,N,11706.5176,W,52.16,001.29,020310,,*2D
$GPRMC,184515.484,A,3244.9051,N,11706.5175,W,51.87,001.17,020310,,*22
$GPRMC,184518.484,A,3244.9483,N,11706.5173,W,50.90,000.64,020310,,*20
$GPRMC,184519.484,A,3244.9626,N,11706.5171,W,51.08,000.63,020310,,*29
$GPRMC,184520.483,A,3244.9768,N,11706.5171,W,50.83,000.23,020310,,*29
$GPRMC,184521.483,A,3244.9910,N,11706.5170,W,50.83,000.23,020310,,*28
$GPRMC,184522.483,A,3245.0051,N,11706.5169,W,50.77,000.70,020310,,*2A
$GPRMC,184523.483,A,3245.0193,N,11706.5168,W,51.42,000.45,020310,,*24
$GPRMC,184524.483,A,3245.0336,N,11706.5168,W,51.45,000.25,020310,,*2F
$GPRMC,184525.483,A,3245.0480,N,11706.5171,W,51.53,359.71,020310,,*25
$GPRMC,184527.483,A,3245.0766,N,11706.5176,W,51.32,359.50,020310,,*2F
$GPRMC,184528.483,A,3245.0909,N,11706.5177,W,51.22,359.68,020310,,*2C
$GPRMC,184529.483,A,3245.1052,N,11706.5179,W,51.21,359.70,020310,,*2F
$GPRMC,184530.483,A,3245.1195,N,11706.5181,W,51.21,359.70,020310,,*2A
$GPRMC,184533.483,A,3245.1623,N,11706.5185,W,51.21,359.70,020310,,*27
$GPRMC,184534.483,A,3245.1766,N,11706.5187,W,51.21,359.70,020310,,*22
$GPRMC,184535.482,A,3245.1908,N,11706.5188,W,51.21,359.70,020310,,*2B
$GPRMC,184536.482,A,3245.2054,N,11706.5188,W,52.14,000.23,020310,,*27
$GPRMC,184537.482,A,3245.2197,N,11706.5187,W,51.20,359.97,020310,,*23
$GPRMC,184538.482,A,3245.2340,N,11706.5187,W,51.14,000.00,020310,,*22
$GPRMC,184539.482,A,3245.2483,N,11706.5185,W,51.16,000.59,020310,,*27
$GPRMC,184540.482,A,3245.2626,N,11706.5184,W,51.14,000.48,020310,,*27
$GPRMC,184542.482,A,3245.2912,N,11706.5185,W,51.22,359.36,020310,,*2F
$GPRMC,184543.482,A,3245.3054,N,11706.5186,W,50.99,359.56,020310,,*20
$GPRMC,184544.482,A,3245.3197,N,11706.5187,W,50.97,359.58,020310,,*28
$GPRMC,184545.482,A,3245.3339,N,11706.5188,W,50.97,359.58,020310,,*20
$GPRMC,184548.482,A,3245.3765,N,11706.5192,W,51.08,359.53,020310,,*27
$GPRMC,184549.482,A,3245.3907,N,11706.5196,W,51.12,358.89,020310,,*25
$GPRMC,184550.482,A,3245.4050,N,11706.5201,W,51.25,358.29,020310,,*22
$GPRMC,184551.481,A,3245.4192,N,11706.5204,W,51.15,359.10,020310,,*22
$GPRMC,184552.481,A,3245.4334,N,11706.5206,W,50.74,359.51,020310,,*2E
$GPRMC,184553.481,A,3245.4475,N,11706.5209,W,50.81,359.24,020310,,*2A
$GPRMC,184554.481,A,3245.4618,N,11706.5211,W,51.32,359.16,020310,,*25
$GPRMC,184555.481,A,3245.4761,N,11706.5213,W,51.36,359.21,020310,,*29
$GPRMC,184557.481,A,3245.5046,N,11706.5219,W,51.27,358.82,020310,,*2A
$GPRMC,184558.481,A,3245.5188,N,11706.5222,W,51.20,358.67,020310,,*22
$GPRMC,184559.481,A,3245.5331,N,11706.5226,W,51.32,358.25,020310,,*22
$GPRMC,184600.481,A,3245.5473,N,11706.5231,W,51.13,358.15,020310,,*2A
$GPRMC,184603.481,A,3245.5899,N,11706.5245,W,51.33,358.46,020310,,*26
$GPRMC,184604.481,A,3245.6041,N,11706.5249,W,51.33,358.43,020310,,*26
$GPRMC,184605.481,A,3245.6173,N,11706.5242,W,50.92,357.41,020310,,*2B
$GPRMC,184606.480,A,3245.6314,N,11706.5252,W,51.03,357.16,020310,,*20
$GPRMC,184607.480,A,3245.6457,N,11706.5262,W,51.07,357.07,020310,,*26
$GPRMC,184608.480,A,3245.6601,N,11706.5276,W,51.27,356.48,020310,,*25
$GPRMC,184609.480,A,3245.6744,N,11706.5289,W,51.58,355.20,020310,,*21
$GPRMC,184610.480,A,3245.6886,N,11706.5304,W,51.33,355.43,020310,,*24
$GPRMC,184612.480,A,3245.7170,N,11706.5335,W,51.40,355.33,020310,,*26
$GPRMC,184613.480,A,3245.7313,N,11706.5350,W,51.23,355.28,020310,,*2C
$GPRMC,184614.480,A,3245.7455,N,11706.5366,W,51.17,354.69,020310,,*28
$GPRMC,184615.480,A,3245.7598,N,11706.5385,W,51.08,353.83,020310,,*29
$GPRMC,184618.480,A,3245.8025,N,11706.5440,W,51.85,354.73,020310,,*2B
$GPRMC,184619.480,A,3245.8171,N,11706.5460,W,52.16,353.55,020310,,*22
$GPRMC,184620.480,A,3245.8315,N,11706.5483,W,51.59,352.40,020310,,*28
$GPRMC,184621.480,A,3245.8458,N,11706.5512,W,51.64,350.18,020310,,*2F
$GPRMC,184622.479,A,3245.8598,N,11706.5547,W,51.85,347.16,020310,,*20
$GPRMC,184623.479,A,3245.8736,N,11706.5588,W,51.41,345.18,020310,,*20
$GPRMC,184624.479,A,3245.8872,N,11706.5636,W,51.39,343.95,020310,,*22
$GPRMC,184625.479,A,3245.9006,N,11706.5689,W,51.26,341.53,020310,,*2B
$GPRMC,184627.479,A,3245.9270,N,11706.5816,W,51.12,337.54,020310,,*23
$GPRMC,184628.479,A,3245.9401,N,11706.5887,W,51.25,335.57,020310,,*21
$GPRMC,184629.479,A,3245.9530,N,11706.5964,W,51.37,333.45,020310,,*29
$GPRMC,184630.479,A,3245.9657,N,11706.6046,W,51.60,331.37,020310,,*2C
$GPRMC,184633.479,A,3246.0034,N,11706.6310,W,51.87,329.83,020310,,*29
$GPRMC,184634.479,A,3246.0158,N,11706.6399,W,51.90,329.61,020310,,*2E
$GPRMC,184635.479,A,3246.0282,N,11706.6487,W,51.89,330.02,020310,,*26
$GPRMC,184636.479,A,3246.0407,N,11706.6573,W,51.78,330.53,020310,,*2E
$GPRMC,184637.478,A,3246.0533,N,11706.6657,W,51.67,330.49,020310,,*28
$GPRMC,184638.478,A,3246.0658,N,11706.6740,W,51.48,331.56,020310,,*2C
$GPRMC,184639.478,A,3246.0785,N,11706.6819,W,51.29,333.06,020310,,*2F
$GPRMC,184640.478,A,3246.0913,N,11706.6894,W,51.23,334.62,020310,,*2A
$GPRMC,184642.478,A,3246.1171,N,11706.7032,W,50.88,337.32,020310,,*26
$GPRMC,184643.478,A,3246.1304,N,11706.7096,W,51.32,338.40,020310,,*23
$GPRMC,184644.478,A,3246.1438,N,11706.7156,W,51.34,339.63,020310,,*27
$GPRMC,184645.478,A,3246.1573,N,11706.7210,W,51.47,341.86,020310,,*29
$GPRMC,184648.478,A,3246.1987,N,11706.7353,W,51.98,345.27,020310,,*28
$GPRMC,184649.478,A,3246.2127,N,11706.7392,W,51.83,346.82,020310,,*23
$GPRMC,184650.478,A,3246.2268,N,11706.7426,W,51.70,348.42,020310,,*25
$GPRMC,184651.478,A,3246.2409,N,11706.7458,W,51.78,349.49,020310,,*2E
$GPRMC,184652.477,A,3246.2551,N,11706.7485,W,51.99,351.00,020310,,*25
$GPRMC,184653.477,A,3246.2693,N,11706.7507,W,52.09,352.47,020310,,*28
$GPRMC,184654.477,A,3246.2838,N,11706.7524,W,52.45,354.14,020310,,*29
$GPRMC,184655.477,A,3246.2984,N,11706.7535,W,52.51,356.99,020310,,*2C
$GPRMC,184657.477,A,3246.3276,N,11706.7530,W,53.06,002.89,020310,,*2C
$GPRMC,184658.477,A,3246.3424,N,11706.7514,W,53.40,004.94,020310,,*2C
$GPRMC,184659.477,A,3246.3571,N,11706.7492,W,53.53,007.29,020310,,*24
$GPRMC,184700.477,A,3246.3717,N,11706.7460,W,54.36,010.52,020310,,*28
$GPRMC,184703.477,A,3246.4162,N,11706.7313,W,55.12,018.21,020310,,*20
$GPRMC,184704.477,A,3246.4309,N,11706.7253,W,55.22,018.10,020310,,*2C
$GPRMC,184705.477,A,3246.4456,N,11706.7193,W,55.59,018.21,020310,,*21
$GPRMC,184706.477,A,3246.4605,N,11706.7135,W,55.95,017.24,020310,,*20
$GPRMC,184707.477,A,3246.4754,N,11706.7083,W,56.25,016.20,020310,,*25
$GPRMC,184708.476,A,3246.4902,N,11706.7036,W,56.33,013.15,020310,,*2C
$GPRMC,184709.476,A,3246.5055,N,11706.6997,W,56.61,010.92,020310,,*2F
$GPRMC,184710.476,A,3246.5214,N,11706.6967,W,56.93,008.27,020310,,*25
$GPRMC,184712.476,A,3246.5537,N,11706.6935,W,57.66,002.87,020310,,*2D
$GPRMC,184713.476,A,3246.5699,N,11706.6933,W,57.82,359.73,020310,,*21
$GPRMC,184714.476,A,3246.5862,N,11706.6943,W,58.23,356.31,020310,,*26
$GPRMC,184715.476,A,3246.6028,N,11706.6965,W,58.23,354.09,020310,,*2F
$GPRMC,184718.476,A,3246.6505,N,11706.7075,W,58.02,346.52,020310,,*2F
$GPRMC,184719.476,A,3246.6661,N,11706.7126,W,57.76,344.54,020310,,*20
$GPRMC,184720.476,A,3246.6814,N,11706.7179,W,57.54,343.76,020310,,*2B
$GPRMC,184721.476,A,3246.6965,N,11706.7232,W,56.19,343.62,020310,,*2C
$GPRMC,184722.476,A,3246.7115,N,11706.7282,W,56.29,344.23,020310,,*2B
$GPRMC,184723.475,A,3246.7264,N,11706.7333,W,55.80,344.09,020310,,*2F
$GPRMC,184724.475,A,3246.7411,N,11706.7386,W,55.42,343.79,020310,,*2C
$GPRMC,184725.475,A,3246.7559,N,11706.7436,W,55.18,344.04,020310,,*2E
$GPRMC,184727.475,A,3246.7852,N,11706.7537,W,54.57,343.80,020310,,*2B
$GPRMC,184728.475,A,3246.7997,N,11706.7588,W,54.33,343.59,020310,,*2E
$GPRMC,184729.475,A,3246.8141,N,11706.7638,W,54.04,343.70,020310,,*24
$GPRMC,184730.475,A,3246.8284,N,11706.7689,W,53.85,343.93,020310,,*2F
$GPRMC,184733.475,A,3246.8709,N,11706.7839,W,53.07,344.10,020310,,*2F
$GPRMC,184734.475,A,3246.8850,N,11706.7888,W,52.63,344.14,020310,,*26
$GPRMC,184735.475,A,3246.8989,N,11706.7936,W,52.26,343.99,020310,,*25
$GPRMC,184736.475,A,3246.9127,N,11706.7983,W,51.67,344.15,020310,,*20
$GPRMC,184737.475,A,3246.9263,N,11706.8030,W,50.98,344.15,020310,,*2D
$GPRMC,184738.475,A,3246.9397,N,11706.8077,W,50.61,343.95,020310,,*22
$GPRMC,184739.474,A,3246.9532,N,11706.8125,W,50.54,343.68,020310,,*29
$GPRMC,184740.474,A,3246.9667,N,11706.8174,W,51.01,343.67,020310,,*2E
$GPRMC,184742.474,A,3246.9942,N,11706.8270,W,51.64,343.76,020310,,*20
$GPRMC,184743.474,A,3247.0081,N,11706.8318,W,51.60,344.05,020310,,*27
$GPRMC,184744.474,A,3247.0219,N,11706.8363,W,51.61,344.94,020310,,*26
$GPRMC,184745.474,A,3247.0358,N,11706.8403,W,51.55,346.55,020310,,*2A
$GPRMC,184748.474,A,3247.0778,N,11706.8495,W,51.12,351.50,020310,,*2E
$GPRMC,184749.474,A,3247.0919,N,11706.8516,W,51.34,352.79,020310,,*20
$GPRMC,184750.474,A,3247.1062,N,11706.8533,W,51.28,354.33,020310,,*2E
$GPRMC,184751.474,A,3247.1205,N,11706.8544,W,51.38,356.07,020310,,*28
$GPRMC,184752.474,A,3247.1348,N,11706.8551,W,51.49,357.74,020310,,*24
$GPRMC,184753.474,A,3247.1492,N,11706.8553,W,51.42,359.36,020310,,*24
$GPRMC,184754.473,A,3247.1636,N,11706.8551,W,51.26,000.80,020310,,*2A
$GPRMC,184755.473,A,3247.1778,N,11706.8542,W,50.64,003.07,020310,,*29
$GPRMC,184757.473,A,3247.2062,N,11706.8512,W,51.05,005.75,020310,,*24
$GPRMC,184758.473,A,3247.2202,N,11706.8488,W,50.52,008.01,020310,,*20
$GPRMC,184759.473,A,3247.2342,N,11706.8458,W,51.13,010.36,020310,,*20
$GPRMC,184800.473,A,3247.2483,N,11706.8424,W,51.24,011.62,020310,,*26
$GPRMC,184803.473,A,3247.2897,N,11706.8296,W,51.08,015.82,020310,,*27
$GPRMC,184804.473,A,3247.3034,N,11706.8248,W,51.16,016.59,020310,,*29
$GPRMC,184805.473,A,3247.3168,N,11706.8193,W,51.01,018.82,020310,,*2B
$GPRMC,184806.473,A,3247.3303,N,11706.8139,W,51.20,018.21,020310,,*2D
$GPRMC,184807.473,A,3247.3437,N,11706.8087,W,50.88,017.80,020310,,*2F
$GPRMC,184808.473,A,3247.3571,N,11706.8034,W,50.93,017.87,020310,,*26
$GPRMC,184809.472,A,3247.3706,N,11706.7981,W,51.17,017.81,020310,,*27
$GPRMC,184810.472,A,3247.3841,N,11706.7927,W,51.43,018.21,020310,,*2B
$GPRMC,184812.472,A,3247.4115,N,11706.7820,W,51.94,017.86,020310,,*28
$GPRMC,184813.472,A,3247.4252,N,11706.7767,W,52.00,017.90,020310,,*2C
$GPRMC,184814.472,A,3247.4389,N,11706.7714,W,51.74,017.71,020310,,*27
$GPRMC,184815.472,A,3247.4525,N,11706.7662,W,51.26,017.68,020310,,*29
$GPRMC,184818.472,A,3247.4925,N,11706.7503,W,50.56,017.89,020310,,*25
$GPRMC,184819.472,A,3247.5058,N,11706.7451,W,50.48,017.99,020310,,*2E
$GPRMC,184820.472,A,3247.5192,N,11706.7400,W,50.57,017.76,020310,,*28
$GPRMC,184821.472,A,3247.5327,N,11706.7352,W,50.92,016.27,020310,,*29
$GPRMC,184822.472,A,3247.5464,N,11706.7307,W,51.19,015.16,020310,,*29
$GPRMC,184823.472,A,3247.5602,N,11706.7268,W,51.08,013.60,020310,,*25
$GPRMC,184824.472,A,3247.5742,N,11706.7233,W,51.64,012.00,020310,,*24
$GPRMC,184825.471,A,3247.5883,N,11706.7202,W,51.85,010.54,020310,,*2A
$GPRMC,184827.471,A,3247.6169,N,11706.7152,W,51.88,008.00,020310,,*25
$GPRMC,184828.471,A,3247.6312,N,11706.7133,W,51.60,006.60,020310,,*2D
$GPRMC,184829.471,A,3247.6454,N,11706.7118,W,50.98,005.03,020310,,*20
$GPRMC,184830.471,A,3247.6596,N,11706.7107,W,50.84,003.84,020310,,*2D
$GPRMC,184833.471,A,3247.7017,N,11706.7102,W,50.60,359.61,020310,,*2B
$GPRMC,184834.471,A,3247.7157,N,11706.7106,W,50.60,358.40,020310,,*2F
$GPRMC,184835.471,A,3247.7299,N,11706.7114,W,50.89,356.96,020310,,*2E
$GPRMC,184836.471,A,3247.7441,N,11706.7127,W,51.34,355.64,020310,,*27
$GPRMC,184837.471,A,3247.7584,N,11706.7143,W,51.69,354.73,020310,,*23
$GPRMC,184838.471,A,3247.7729,N,11706.7160,W,52.15,354.68,020310,,*2A
$GPRMC,184839.471,A,3247.7873,N,11706.7176,W,52.17,354.74,020310,,*23
$GPRMC,184840.470,A,3247.8017,N,11706.7192,W,51.83,354.94,020310,,*23
$GPRMC,184842.470,A,3247.8302,N,11706.7223,W,51.18,354.88,020310,,*20
$GPRMC,184843.470,A,3247.8443,N,11706.7237,W,50.89,355.07,020310,,*29
$GPRMC,184844.470,A,3247.8584,N,11706.7253,W,50.86,354.92,020310,,*24
$GPRMC,184845.470,A,3247.8725,N,11706.7268,W,51.06,354.80,020310,,*2E
$GPRMC,184848.470,A,3247.9156,N,11706.7325,W,51.33,354.56,020310,,*25
$GPRMC,184849.470,A,3247.9300,N,11706.7342,W,51.42,354.81,020310,,*28
$GPRMC,184850.470,A,3247.9441,N,11706.7357,W,50.66,354.95,020310,,*24
$GPRMC,184851.470,A,3247.9577,N,11706.7372,W,51.13,354.70,020310,,*2E
$GPRMC,184852.470,A,3247.9718,N,11706.7389,W,51.01,355.01,020310,,*26
$GPRMC,184853.470,A,3247.9861,N,11706.7406,W,51.25,354.51,020310,,*24
$GPRMC,184854.470,A,3248.0003,N,11706.7424,W,51.04,354.61,020310,,*29
$GPRMC,184855.470,A,3248.0142,N,11706.7438,W,51.10,354.48,020310,,*2F
$GPRMC,184857.469,A,3248.0427,N,11706.7473,W,51.25,354.50,020310,,*23
$GPRMC,184858.469,A,3248.0568,N,11706.7488,W,51.27,354.60,020310,,*23
$GPRMC,184859.469,A,3248.0710,N,11706.7503,W,51.31,354.54,020310,,*2D
$GPRMC,184900.469,A,3248.0853,N,11706.7519,W,51.40,354.54,020310,,*25
$GPRMC,184903.469,A,3248.1281,N,11706.7566,W,51.36,354.87,020310,,*25
$GPRMC,184904.469,A,3248.1425,N,11706.7582,W,51.43,354.50,020310,,*28
$GPRMC,184905.469,A,3248.1567,N,11706.7597,W,51.26,354.56,020310,,*2F
$GPRMC,184906.469,A,3248.1709,N,11706.7614,W,51.22,353.73,020310,,*2A
$GPRMC,184907.469,A,3248.1850,N,11706.7632,W,51.16,353.81,020310,,*26
$GPRMC,184908.469,A,3248.1990,N,11706.7650,W,51.16,353.75,020310,,*2B
$GPRMC,184909.469,A,3248.2131,N,11706.7668,W,51.19,353.66,020310,,*2C
$GPRMC,184910.469,A,3248.2272,N,11706.7687,W,51.08,352.95,020310,,*2C
$GPRMC,184912.468,A,3248.2552,N,11706.7727,W,51.06,353.34,020310,,*25
$GPRMC,184913.468,A,3248.2693,N,11706.7747,W,51.19,353.23,020310,,*24
$GPRMC,184914.468,A,3248.2834,N,11706.7767,W,51.13,352.86,020310,,*26
$GPRMC,184915.468,A,3248.2976,N,11706.7788,W,51.56,352.67,020310,,*2F
$GPRMC,184918.468,A,3248.3403,N,11706.7851,W,51.28,353.07,020310,,*29
$GPRMC,184919.468,A,3248.3546,N,11706.7872,W,51.81,352.81,020310,,*25
$GPRMC,184920.468,A,3248.3688,N,11706.7893,W,51.09,352.41,020310,,*2D
$GPRMC,184921.468,A,3248.3830,N,11706.7915,W,51.09,352.84,020310,,*27
$GPRMC,184922.468,A,3248.3972,N,11706.7936,W,51.35,352.84,020310,,*2D
$GPRMC,184923.468,A,3248.4113,N,11706.7957,W,51.28,352.79,020310,,*2D
$GPRMC,184924.468,A,3248.4255,N,11706.7978,W,51.42,352.76,020310,,*25
$GPRMC,184925.468,A,3248.4397,N,11706.7999,W,51.50,352.91,020310,,*2E
$GPRMC,184927.467,A,3248.4679,N,11706.8041,W,51.36,352.92,020310,,*26
$GPRMC,184928.467,A,3248.4820,N,11706.8062,W,51.26,352.96,020310,,*2F
$GPRMC,184929.467,A,3248.4961,N,11706.8083,W,51.22,352.66,020310,,*2E
$GPRMC,184930.467,A,3248.5102,N,11706.8104,W,51.08,352.50,020310,,*29
$GPRMC,184933.467,A,3248.5524,N,11706.8169,W,51.22,353.04,020310,,*29
$GPRMC,184934.467,A,3248.5665,N,11706.8190,W,51.32,353.09,020310,,*22
$GPRMC,184935.467,A,3248.5807,N,11706.8210,W,51.47,353.03,020310,,*2A
$GPRMC,184936.467,A,3248.5949,N,11706.8232,W,51.81,352.88,020310,,*2A
$GPRMC,184937.467,A,3248.6093,N,11706.8254,W,52.04,352.55,020310,,*28
$GPRMC,184938.467,A,3248.6238,N,11706.8277,W,52.53,352.52,020310,,*20
$GPRMC,184939.467,A,3248.6384,N,11706.8299,W,53.15,352.87,020310,,*2C
$GPRMC,184940.467,A,3248.6531,N,11706.8321,W,53.81,352.72,020310,,*2F
$GPRMC,184942.466,A,3248.6830,N,11706.8365,W,54.10,352.93,020310,,*20
$GPRMC,184943.466,A,3248.6978,N,11706.8387,W,53.66,352.84,020310,,*20
$GPRMC,184944.466,A,3248.7125,N,11706.8410,W,53.08,352.69,020310,,*24
$GPRMC,184945.466,A,3248.7271,N,11706.8432,W,52.61,352.89,020310,,*27
$GPRMC,184948.466,A,3248.7706,N,11706.8497,W,52.84,352.69,020310,,*25
$GPRMC,184949.466,A,3248.7853,N,11706.8521,W,53.20,352.23,020310,,*26
$GPRMC,184950.466,A,3248.8000,N,11706.8544,W,53.26,352.20,020310,,*29
$GPRMC,184951.466,A,3248.8147,N,11706.8569,W,53.43,351.82,020310,,*2D
$GPRMC,184952.466,A,3248.8294,N,11706.8594,W,53.47,351.91,020310,,*27
$GPRMC,184953.466,A,3248.8440,N,11706.8619,W,53.31,351.70,020310,,*21
$GPRMC,184954.466,A,3248.8587,N,11706.8646,W,53.07,351.23,020310,,*25
$GPRMC,184955.466,A,3248.8733,N,11706.8673,W,52.78,351.28,020310,,*2D
$GPRMC,184957.465,A,3248.9023,N,11706.8728,W,52.82,351.09,020310,,*22
$GPRMC,184958.465,A,3248.9168,N,11706.8756,W,52.91,350.87,020310,,*2F
$GPRMC,184959.465,A,3248.9313,N,11706.8785,W,53.16,350.38,020310,,*24
$GPRMC,185000.465,A,3248.9459,N,11706.8816,W,53.09,350.41,020310,,*2C
$GPRMC,185003.465,A,3248.9895,N,11706.8906,W,53.19,349.96,020310,,*20
$GPRMC,185004.465,A,3249.0041,N,11706.8937,W,53.00,349.92,020310,,*20
$GPRMC,185005.465,A,3249.0186,N,11706.8968,W,52.94,349.64,020310,,*24
$GPRMC,185006.465,A,3249.0332,N,11706.8998,W,53.02,349.67,020310,,*28
$GPRMC,185007.465,A,3249.0477,N,11706.9031,W,53.02,349.24,020310,,*23
$GPRMC,185008.465,A,3249.0622,N,11706.9064,W,53.13,349.15,020310,,*2C
$GPRMC,185009.465,A,3249.0767,N,11706.9096,W,53.07,349.35,020310,,*27
$GPRMC,185010.465,A,3249.0913,N,11706.9128,W,53.00,349.67,020310,,*26
$GPRMC,185012.465,A,3249.1203,N,11706.9191,W,52.89,349.72,020310,,*29
$GPRMC,185013.464,A,3249.1348,N,11706.9223,W,52.95,349.56,020310,,*26
$GPRMC,185014.464,A,3249.1493,N,11706.9255,W,52.93,349.34,020310,,*23
$GPRMC,185015.464,A,3249.1637,N,11706.9287,W,53.05,349.38,020310,,*23
$GPRMC,185018.464,A,3249.2073,N,11706.9383,W,53.03,349.64,020310,,*21
$GPRMC,185019.464,A,3249.2219,N,11706.9415,W,53.03,349.35,020310,,*22
$GPRMC,185020.464,A,3249.2364,N,11706.9448,W,53.05,349.49,020310,,*26
$GPRMC,185021.464,A,3249.2509,N,11706.9480,W,53.02,349.71,020310,,*22
$GPRMC,185022.464,A,3249.2654,N,11706.9512,W,52.97,349.62,020310,,*2F
$GPRMC,185023.464,A,3249.2798,N,11706.9543,W,52.91,349.78,020310,,*26
$GPRMC,185024.464,A,3249.2943,N,11706.9575,W,52.98,349.53,020310,,*2C
$GPRMC,185025.464,A,3249.3088,N,11706.9608,W,52.92,349.29,020310,,*2C
$GPRMC,185027.464,A,3249.3379,N,11706.9674,W,52.90,349.24,020310,,*27
$GPRMC,185028.463,A,3249.3523,N,11706.9706,W,52.83,349.31,020310,,*24
$GPRMC,185029.463,A,3249.3669,N,11706.9738,W,52.97,349.53,020310,,*24
$GPRMC,185030.463,A,3249.3814,N,11706.9772,W,53.36,348.48,020310,,*27
$GPRMC,185033.463,A,3249.4251,N,11706.9870,W,55.59,350.56,020310,,*2C
$GPRMC,185034.463,A,3249.4400,N,11706.9901,W,53.06,349.81,020310,,*20
$GPRMC,185035.463,A,3249.4541,N,11706.9932,W,52.86,349.48,020310,,*29
$GPRMC,185036.463,A,3249.4686,N,11706.9963,W,52.83,349.74,020310,,*2C
$GPRMC,185037.463,A,3249.4831,N,11706.9996,W,52.84,349.45,020310,,*20
$GPRMC,185038.463,A,3249.4974,N,11707.0028,W,52.82,349.36,020310,,*29
$GPRMC,185039.463,A,3249.5117,N,11707.0059,W,52.75,349.59,020310,,*23
$GPRMC,185040.463,A,3249.5260,N,11707.0090,W,52.80,349.62,020310,,*29
$GPRMC,185042.463,A,3249.5547,N,11707.0152,W,52.92,349.62,020310,,*25
$GPRMC,185043.462,A,3249.5691,N,11707.0183,W,52.95,349.59,020310,,*2E
$GPRMC,185044.462,A,3249.5837,N,11707.0214,W,53.07,349.55,020310,,*20
$GPRMC,185045.462,A,3249.5981,N,11707.0244,W,53.13,349.47,020310,,*2E
$GPRMC,185048.462,A,3249.6415,N,11707.0337,W,53.14,349.45,020310,,*20
$GPRMC,185049.462,A,3249.6559,N,11707.0369,W,53.16,349.42,020310,,*26
$GPRMC,185050.462,A,3249.6705,N,11707.0400,W,53.21,349.46,020310,,*2D
$GPRMC,185051.462,A,3249.6849,N,11707.0432,W,53.22,349.53,020310,,*2D
$GPRMC,185052.462,A,3249.6994,N,11707.0464,W,53.11,349.56,020310,,*29
$GPRMC,185053.462,A,3249.7139,N,11707.0496,W,53.01,349.57,020310,,*2B
$GPRMC,185054.462,A,3249.7284,N,11707.0528,W,53.02,349.45,020310,,*2D
$GPRMC,185055.462,A,3249.7428,N,11707.0559,W,52.90,349.81,020310,,*28
$GPRMC,185057.462,A,3249.7716,N,11707.0621,W,52.83,349.47,020310,,*20
$GPRMC,185058.462,A,3249.7860,N,11707.0655,W,52.86,349.25,020310,,*23
$GPRMC,185059.461,A,3249.8005,N,11707.0688,W,52.96,349.29,020310,,*28
$GPRMC,185100.461,A,3249.8151,N,11707.0721,W,52.93,349.24,020310,,*2F
$GPRMC,185103.461,A,3249.8585,N,11707.0819,W,53.15,349.36,020310,,*29
$GPRMC,185104.461,A,3249.8731,N,11707.0852,W,53.16,349.24,020310,,*2C
$GPRMC,185105.461,A,3249.8876,N,11707.0885,W,53.22,349.44,020310,,*2A
$GPRMC,185106.461,A,3249.9021,N,11707.0917,W,53.06,349.73,020310,,*2A
$GPRMC,185107.461,A,3249.9166,N,11707.0949,W,53.01,349.70,020310,,*26
$GPRMC,185108.461,A,3249.9311,N,11707.0981,W,52.84,349.39,020310,,*2E
$GPRMC,185109.461,A,3249.9456,N,11707.1013,W,52.74,349.33,020310,,*2D
$GPRMC,185110.461,A,3249.9599,N,11707.1047,W,52.73,349.22,020310,,*21
$GPRMC,185112.461,A,3249.9888,N,11707.1118,W,52.95,347.61,020310,,*24
$GPRMC,185113.461,A,3250.0032,N,11707.1159,W,53.09,346.21,020310,,*29
$GPRMC,185114.460,A,3250.0176,N,11707.1202,W,53.27,345.34,020310,,*28
$GPRMC,185115.460,A,3250.0320,N,11707.1248,W,53.81,344.73,020310,,*28
$GPRMC,185118.460,A,3250.0742,N,11707.1418,W,52.88,340.08,020310,,*26
$GPRMC,185119.460,A,3250.0877,N,11707.1482,W,52.78,338.70,020310,,*22
$GPRMC,185120.460,A,3250.1013,N,11707.1548,W,52.76,338.14,020310,,*28
$GPRMC,185121.460,A,3250.1148,N,11707.1615,W,52.81,337.91,020310,,*27
$GPRMC,185122.460,A,3250.1284,N,11707.1682,W,52.91,337.93,020310,,*2A
$GPRMC,185123.460,A,3250.1419,N,11707.1749,W,52.92,338.04,020310,,*2D
$GPRMC,185124.460,A,3250.1555,N,11707.1816,W,52.97,337.69,020310,,*27
$GPRMC,185125.460,A,3250.1691,N,11707.1884,W,52.97,337.13,020310,,*2B
$GPRMC,185127.460,A,3250.1963,N,11707.2017,W,53.20,338.71,020310,,*2C
$GPRMC,185128.460,A,3250.2101,N,11707.2080,W,53.15,339.95,020310,,*2F
$GPRMC,185129.460,A,3250.2240,N,11707.2137,W,53.09,341.96,020310,,*24
$GPRMC,185130.459,A,3250.2380,N,11707.2190,W,53.26,343.37,020310,,*22
$GPRMC,185133.459,A,3250.2807,N,11707.2317,W,52.75,348.10,020310,,*21
$GPRMC,185134.459,A,3250.2952,N,11707.2350,W,52.74,349.43,020310,,*22
$GPRMC,185135.459,A,3250.3097,N,11707.2379,W,52.63,351.45,020310,,*20
$GPRMC,185136.459,A,3250.3242,N,11707.2402,W,52.84,353.13,020310,,*2A
$GPRMC,185137.459,A,3250.3388,N,11707.2419,W,52.73,354.59,020310,,*27
$GPRMC,185138.459,A,3250.3533,N,11707.2430,W,52.75,356.80,020310,,*25
$GPRMC,185139.459,A,3250.3678,N,11707.2436,W,52.74,358.46,020310,,*2B
$GPRMC,185140.459,A,3250.3823,N,11707.2437,W,52.38,359.25,020310,,*28
$GPRMC,185142.459,A,3250.4114,N,11707.2427,W,52.58,003.14,020310,,*29
$GPRMC,185143.459,A,3250.4257,N,11707.2412,W,52.35,004.86,020310,,*2D
$GPRMC,185144.459,A,3250.4402,N,11707.2392,W,52.76,006.25,020310,,*2F
$GPRMC,185145.458,A,3250.4549,N,11707.2368,W,53.14,007.25,020310,,*20
$GPRMC,185148.458,A,3250.4989,N,11707.2272,W,52.89,012.34,020310,,*26
$GPRMC,185149.458,A,3250.5134,N,11707.2231,W,54.02,014.28,020310,,*21
$GPRMC,185150.458,A,3250.5276,N,11707.2186,W,51.39,015.51,020310,,*21
$GPRMC,185151.458,A,3250.5416,N,11707.2134,W,52.59,017.88,020310,,*2A
$GPRMC,185152.458,A,3250.5554,N,11707.2076,W,52.81,018.58,020310,,*2E
$GPRMC,185153.458,A,3250.5692,N,11707.2016,W,52.50,020.90,020310,,*23
$GPRMC,185154.458,A,3250.5827,N,11707.1950,W,52.42,022.70,020310,,*23
$GPRMC,185155.458,A,3250.5959,N,11707.1879,W,52.35,024.48,020310,,*2D
$GPRMC,185157.458,A,3250.6220,N,11707.1718,W,52.65,027.06,020310,,*2D
$GPRMC,185158.458,A,3250.6351,N,11707.1636,W,53.00,028.18,020310,,*2A
$GPRMC,185159.458,A,3250.6481,N,11707.1550,W,53.27,029.00,020310,,*2F
$GPRMC,185200.457,A,3250.6612,N,11707.1464,W,53.59,029.31,020310,,*2A
$GPRMC,185203.457,A,3250.7008,N,11707.1208,W,53.39,028.91,020310,,*24
$GPRMC,185204.457,A,3250.7137,N,11707.1122,W,53.04,028.99,020310,,*23
$GPRMC,185205.457,A,3250.7265,N,11707.1037,W,52.63,029.44,020310,,*22
$GPRMC,185206.457,A,3250.7393,N,11707.0953,W,52.46,029.24,020310,,*22
$GPRMC,185207.457,A,3250.7520,N,11707.0870,W,51.85,028.25,020310,,*21
$GPRMC,185208.457,A,3250.7646,N,11707.0787,W,52.38,028.85,020310,,*25
$GPRMC,185209.457,A,3250.7774,N,11707.0704,W,52.29,028.87,020310,,*2D
$GPRMC,185210.457,A,3250.7902,N,11707.0621,W,52.52,028.66,020310,,*2F
$GPRMC,185212.457,A,3250.8160,N,11707.0452,W,53.20,028.32,020310,,*2D
$GPRMC,185213.457,A,3250.8291,N,11707.0369,W,53.65,027.57,020310,,*23
$GPRMC,185214.457,A,3250.8424,N,11707.0287,W,53.81,026.29,020310,,*2F
$GPRMC,185215.457,A,3250.8559,N,11707.0209,W,53.82,024.81,020310,,*20
$GPRMC,185218.456,A,3250.8970,N,11707.0003,W,52.86,021.35,020310,,*2C
$GPRMC,185219.456,A,3250.9108,N,11706.9941,W,52.66,020.45,020310,,*24
$GPRMC,185220.456,A,3250.9245,N,11706.9882,W,52.68,018.77,020310,,*2E
$GPRMC,185221.456,A,3250.9384,N,11706.9828,W,52.59,017.24,020310,,*28
$GPRMC,185222.456,A,3250.9523,N,11706.9776,W,52.88,016.61,020310,,*28
$GPRMC,185223.456,A,3250.9665,N,11706.9727,W,53.10,016.13,020310,,*29
$GPRMC,185224.456,A,3250.9807,N,11706.9682,W,52.81,015.35,020310,,*24
$GPRMC,185225.456,A,3250.9950,N,11706.9636,W,53.28,015.60,020310,,*2B
$GPRMC,185227.456,A,3251.0236,N,11706.9543,W,53.04,015.79,020310,,*2D
$GPRMC,185228.456,A,3251.0378,N,11706.9496,W,52.99,015.79,020310,,*25
$GPRMC,185229.456,A,3251.0521,N,11706.9449,W,52.99,015.83,020310,,*29
$GPRMC,185230.456,A,3251.0663,N,11706.9402,W,52.89,015.58,020310,,*2C
$GPRMC,185233.455,A,3251.1086,N,11706.9263,W,52.72,015.97,020310,,*26
$GPRMC,185234.455,A,3251.1227,N,11706.9217,W,52.76,015.72,020310,,*24
$GPRMC,185235.455,A,3251.1368,N,11706.9171,W,52.94,015.51,020310,,*21
$GPRMC,185236.455,A,3251.1510,N,11706.9124,W,52.75,015.59,020310,,*2C
$GPRMC,185237.455,A,3251.1651,N,11706.9077,W,52.93,015.67,020310,,*29
$GPRMC,185238.455,A,3251.1793,N,11706.9029,W,53.14,016.10,020310,,*2F
$GPRMC,185239.455,A,3251.1935,N,11706.8981,W,53.05,016.21,020310,,*24
$GPRMC,185240.455,A,3251.2077,N,11706.8933,W,53.04,015.78,020310,,*21
$GPRMC,185242.455,A,3251.2360,N,11706.8835,W,52.97,017.58,020310,,*2A
$GPRMC,185243.455,A,3251.2501,N,11706.8781,W,52.87,018.81,020310,,*20
$GPRMC,185244.455,A,3251.2639,N,11706.8722,W,52.85,020.43,020310,,*21
$GPRMC,185245.455,A,3251.2776,N,11706.8660,W,52.89,021.46,020310,,*25
$GPRMC,185248.454,A,3251.3180,N,11706.8453,W,53.07,024.93,020310,,*2F
$GPRMC,185249.454,A,3251.3312,N,11706.8377,W,53.09,026.28,020310,,*2A
$GPRMC,185250.454,A,3251.3443,N,11706.8297,W,53.10,027.57,020310,,*2F
$GPRMC,185251.454,A,3251.3575,N,11706.8217,W,53.06,027.63,020310,,*22
$GPRMC,185252.454,A,3251.3707,N,11706.8136,W,53.06,027.55,020310,,*23
$GPRMC,185253.454,A,3251.3839,N,11706.8055,W,53.05,027.30,020310,,*24
$GPRMC,185254.454,A,3251.3970,N,11706.7974,W,52.96,027.24,020310,,*24
$GPRMC,185255.454,A,3251.4101,N,11706.7893,W,52.94,027.42,020310,,*26
$GPRMC,185257.454,A,3251.4361,N,11706.7733,W,52.79,027.69,020310,,*2F
$GPRMC,185258.454,A,3251.4491,N,11706.7653,W,52.76,027.55,020310,,*2F
$GPRMC,185259.454,A,3251.4621,N,11706.7572,W,52.82,026.71,020310,,*2B
$GPRMC,185300.454,A,3251.4753,N,11706.7495,W,52.95,025.82,020310,,*23
$GPRMC,185303.453,A,3251.5156,N,11706.7279,W,53.28,022.69,020310,,*24
$GPRMC,185304.453,A,3251.5294,N,11706.7214,W,53.12,021.58,020310,,*2D
