NMEA Sentence Code,UTC Time,Status,Latitude,Latitude Direction,Longitude,Longitude Direction,Speed (knots),Track Angle (degrees true),Date,MagneticVariation,Magnetic Variation Direction,[FAA Mode]-Optional,Checksum
$GPRMC,203612.9,A,3257.238536,N,11714.025583,W,12.1,249.8,180410,,,A*49
$GPRMC,203615.9,A,3257.231134,N,11714.046265,W,23.0,248.6,180410,,,A*47
$GPRMC,203618.9,A,3257.223384,N,11714.070039,W,28.0,248.2,180410,,,A*41
$GPRMC,203621.9,A,3257.212681,N,11714.102282,W,34.8,247.9,180410,,,A*4E
$GPRMC,203624.9,A,3257.196714,N,11714.136154,W,36.8,244.1,180410,,,A*4F
$GPRMC,203627.9,A,3257.184835,N,11714.165781,W,33.7,244.2,180410,,,A*42
$GPRMC,203630.9,A,3257.171958,N,11714.196000,W,33.3,245.3,180410,,,A*42
$GPRMC,203633.9,A,3257.160955,N,11714.224363,W,31.4,245.9,180410,,,A*4F
$GPRMC,203636.9,A,3257.149494,N,11714.250564,W,28.6,245.3,180410,,,A*43
$GPRMC,203639.9,A,3257.140538,N,11714.272860,W,26.4,247.9,180410,,,A*4F
$GPRMC,203642.9,A,3257.132061,N,11714.296649,W,24.8,245.5,180410,,,A*40
$GPRMC,203645.9,A,3257.126330,N,11714.314385,W,18.0,245.9,180410,,,A*40
$GPRMC,203648.9,A,3257.123502,N,11714.326846,W,12.2,244.8,180410,,,A*42
$GPRMC,203651.9,A,3257.118659,N,11714.334131,W,8.7,236.6,180410,,,A*70
$GPRMC,203700.9,A,3257.110840,N,11714.349022,W,10.1,247.4,180410,,,A*49
$GPRMC,203703.2,A,3257.108464,N,11714.358016,W,12.8,250.3,180410,,,A*4F
$GPRMC,203706.2,A,3257.102789,N,11714.374224,W,19.0,247.1,180410,,,A*4A
$GPRMC,203709.2,A,3257.094496,N,11714.394597,W,23.5,245.6,180410,,,A*4E
$GPRMC,203712.2,A,3257.084610,N,11714.418232,W,26.8,244.8,180410,,,A*45
$GPRMC,203715.2,A,3257.075422,N,11714.441023,W,25.8,245.0,180410,,,A*4B
$GPRMC,203718.9,A,3257.062376,N,11714.474150,W,27.7,247.8,180410,,,A*49
$GPRMC,203721.9,A,3257.057009,N,11714.495988,W,21.2,253.2,180410,,,A*40
$GPRMC,203724.9,A,3257.043691,N,11714.527588,W,31.6,245.5,180410,,,A*46
$GPRMC,203727.9,A,3257.029576,N,11714.559890,W,33.3,244.4,180410,,,A*49
$GPRMC,203730.9,A,3257.018747,N,11714.584748,W,28.6,244.2,180410,,,A*4E
$GPRMC,203733.9,A,3257.009136,N,11714.609304,W,27.1,245.2,180410,,,A*4E
$GPRMC,203736.9,A,3257.000780,N,11714.632359,W,24.9,244.6,180410,,,A*47
$GPRMC,203739.9,A,3256.994413,N,11714.650519,W,21.5,246.9,180410,,,A*46
$GPRMC,203742.9,A,3256.989464,N,11714.669604,W,20.3,250.9,180410,,,A*43
$GPRMC,203745.9,A,3256.988388,N,11714.686909,W,17.9,271.6,180410,,,A*41
$GPRMC,203748.9,A,3256.993661,N,11714.705018,W,17.8,302.1,180410,,,A*44
$GPRMC,203751.9,A,3257.009986,N,11714.712168,W,20.8,344.6,180410,,,A*40
$GPRMC,203754.9,A,3257.030147,N,11714.708117,W,24.6,19.1,180410,,,A*7F
$GPRMC,203757.9,A,3257.040731,N,11714.688905,W,26.1,60.6,180410,,,A*72
$GPRMC,203800.9,A,3257.037759,N,11714.661085,W,26.0,102.2,180410,,,A*47
$GPRMC,203803.9,A,3257.016248,N,11714.648796,W,26.8,158.9,180410,,,A*40
$GPRMC,203806.9,A,3256.986984,N,11714.637395,W,35.4,162.8,180410,,,A*46
$GPRMC,203809.2,A,3256.958434,N,11714.633894,W,42.5,169.2,180410,,,A*49
$GPRMC,203812.9,A,3256.911646,N,11714.624229,W,47.7,170.9,180410,,,A*4C
$GPRMC,203815.9,A,3256.869934,N,11714.616167,W,50.8,170.3,180410,,,A*44
$GPRMC,203818.9,A,3256.825013,N,11714.606629,W,53.5,170.1,180410,,,A*4D
$GPRMC,203821.9,A,3256.779966,N,11714.596279,W,55.7,169.8,180410,,,A*44
$GPRMC,203824.9,A,3256.733537,N,11714.586911,W,56.3,170.3,180410,,,A*47
$GPRMC,203827.9,A,3256.687855,N,11714.575972,W,55.8,169.6,180410,,,A*4F
$GPRMC,203830.9,A,3256.640180,N,11714.569262,W,57.7,169.8,180410,,,A*47
$GPRMC,203833.9,A,3256.592450,N,11714.560495,W,58.7,169.8,180410,,,A*48
$GPRMC,203836.9,A,3256.540082,N,11714.551421,W,62.0,170.8,180410,,,A*42
$GPRMC,203839.9,A,3256.489888,N,11714.541492,W,63.5,171.2,180410,,,A*4D
$GPRMC,203842.9,A,3256.437579,N,11714.531316,W,63.7,171.1,180410,,,A*4A
$GPRMC,203845.9,A,3256.383148,N,11714.522573,W,64.7,172.6,180410,,,A*47
$GPRMC,203848.9,A,3256.330603,N,11714.514921,W,64.4,173.9,180410,,,A*49
$GPRMC,203851.9,A,3256.277641,N,11714.510748,W,64.2,175.6,180410,,,A*4F
$GPRMC,203854.9,A,3256.224633,N,11714.506473,W,63.7,176.3,180410,,,A*41
$GPRMC,203857.9,A,3256.171188,N,11714.504357,W,64.1,176.9,180410,,,A*4E
$GPRMC,203900.9,A,3256.114732,N,11714.499789,W,67.2,176.1,180410,,,A*43
$GPRMC,203903.9,A,3256.059988,N,11714.496704,W,66.6,175.7,180410,,,A*4D
$GPRMC,203906.9,A,3256.003633,N,11714.491859,W,67.1,175.8,180410,,,A*41
$GPRMC,203909.9,A,3255.947846,N,11714.486252,W,66.7,175.1,180410,,,A*41
$GPRMC,203912.9,A,3255.895866,N,11714.480092,W,64.3,174.1,180410,,,A*48
$GPRMC,203915.9,A,3255.839256,N,11714.468153,W,67.6,169.8,180410,,,A*49
$GPRMC,203918.9,A,3255.785003,N,11714.456751,W,67.4,169.0,180410,,,A*4D
$GPRMC,203921.9,A,3255.726095,N,11714.441903,W,69.3,167.2,180410,,,A*4B
$GPRMC,203924.9,A,3255.670430,N,11714.424794,W,68.2,165.3,180410,,,A*47
$GPRMC,203927.9,A,3255.616501,N,11714.406070,W,68.9,164.1,180410,,,A*42
$GPRMC,203930.9,A,3255.559488,N,11714.388457,W,68.5,164.8,180410,,,A*49
$GPRMC,203933.9,A,3255.505276,N,11714.369920,W,69.7,164.1,180410,,,A*4C
$GPRMC,203936.9,A,3255.450780,N,11714.350799,W,68.8,164.1,180410,,,A*4C
$GPRMC,203939.9,A,3255.394520,N,11714.330432,W,69.1,163.0,180410,,,A*4E
$GPRMC,203942.9,A,3255.341602,N,11714.305954,W,69.0,158.2,180410,,,A*49
$GPRMC,203945.9,A,3255.287497,N,11714.278331,W,69.5,155.0,180410,,,A*43
$GPRMC,203948.9,A,3255.236188,N,11714.245342,W,69.9,150.0,180410,,,A*4C
$GPRMC,203951.9,A,3255.186936,N,11714.207172,W,70.4,146.3,180410,,,A*47
$GPRMC,203954.9,A,3255.138660,N,11714.164633,W,71.1,142.5,180410,,,A*49
$GPRMC,203957.9,A,3255.093734,N,11714.118004,W,70.5,138.6,180410,,,A*48
$GPRMC,204000.9,A,3255.053996,N,11714.067200,W,70.3,133.6,180410,,,A*4C
$GPRMC,204003.9,A,3255.013655,N,11714.016353,W,70.5,131.8,180410,,,A*40
$GPRMC,204006.9,A,3254.981604,N,11713.965470,W,66.0,129.9,180410,,,A*44
$GPRMC,204009.9,A,3254.945572,N,11713.913493,W,67.9,131.5,180410,,,A*40
$GPRMC,204012.9,A,3254.905009,N,11713.866370,W,68.0,137.7,180410,,,A*4C
$GPRMC,204015.9,A,3254.859994,N,11713.825019,W,69.3,143.5,180410,,,A*46
$GPRMC,204018.9,A,3254.808097,N,11713.791102,W,70.6,151.2,180410,,,A*47
$GPRMC,204021.9,A,3254.754219,N,11713.760815,W,70.7,154.1,180410,,,A*49
$GPRMC,204024.9,A,3254.703432,N,11713.728216,W,69.6,151.7,180410,,,A*4E
$GPRMC,204027.9,A,3254.652334,N,11713.695289,W,70.3,152.1,180410,,,A*40
$GPRMC,204030.9,A,3254.600267,N,11713.663287,W,71.3,152.2,180410,,,A*43
$GPRMC,204033.9,A,3254.549903,N,11713.627757,W,70.1,151.5,180410,,,A*48
$GPRMC,204036.9,A,3254.497831,N,11713.595653,W,70.8,152.2,180410,,,A*4D
$GPRMC,204039.9,A,3254.446033,N,11713.561650,W,71.4,151.8,180410,,,A*48
$GPRMC,204042.9,A,3254.391692,N,11713.531349,W,71.4,154.2,180410,,,A*43
$GPRMC,204045.9,A,3254.338478,N,11713.500792,W,71.8,153.3,180410,,,A*4B
$GPRMC,204048.9,A,3254.286230,N,11713.464913,W,72.9,148.9,180410,,,A*4E
$GPRMC,204051.9,A,3254.235062,N,11713.423763,W,74.4,146.0,180410,,,A*4D
$GPRMC,204054.2,A,3254.197471,N,11713.387865,W,75.1,143.2,180410,,,A*4D
$GPRMC,204057.9,A,3254.138355,N,11713.333411,W,74.4,141.1,180410,,,A*44
$GPRMC,204100.9,A,3254.093101,N,11713.286352,W,68.6,137.8,180410,,,A*4C
$GPRMC,204103.9,A,3254.045976,N,11713.239956,W,72.6,140.4,180410,,,A*41
$GPRMC,204106.9,A,3253.999452,N,11713.192950,W,72.4,140.1,180410,,,A*43
$GPRMC,204109.9,A,3253.953167,N,11713.146724,W,72.3,140.7,180410,,,A*4C
$GPRMC,204112.9,A,3253.902156,N,11713.102543,W,73.0,142.2,180410,,,A*46
$GPRMC,204115.9,A,3253.855818,N,11713.059794,W,70.3,142.2,180410,,,A*46
$GPRMC,204118.9,A,3253.807236,N,11713.018190,W,70.4,143.1,180410,,,A*48
$GPRMC,204121.9,A,3253.765496,N,11712.972576,W,69.5,138.9,180410,,,A*40
$GPRMC,204124.9,A,3253.723442,N,11712.924216,W,71.3,135.9,180410,,,A*4E
$GPRMC,204127.9,A,3253.684661,N,11712.875415,W,67.8,132.3,180410,,,A*43
$GPRMC,204130.9,A,3253.646092,N,11712.824162,W,68.4,129.6,180410,,,A*4C
$GPRMC,204133.9,A,3253.612971,N,11712.768251,W,68.7,124.7,180410,,,A*41
$GPRMC,204136.9,A,3253.584310,N,11712.710337,W,69.0,120.0,180410,,,A*4E
$GPRMC,204139.9,A,3253.559345,N,11712.649223,W,68.8,116.1,180410,,,A*45
$GPRMC,204142.9,A,3253.536076,N,11712.586626,W,67.8,114.0,180410,,,A*4E
$GPRMC,204145.9,A,3253.514896,N,11712.524696,W,67.2,113.9,180410,,,A*48
$GPRMC,204148.9,A,3253.487555,N,11712.466722,W,66.8,119.9,180410,,,A*44
$GPRMC,204151.9,A,3253.455220,N,11712.413229,W,65.5,125.2,180410,,,A*40
$GPRMC,204154.9,A,3253.421346,N,11712.362926,W,65.5,127.7,180410,,,A*45
$GPRMC,204157.9,A,3253.381907,N,11712.315078,W,67.6,134.7,180410,,,A*45
$GPRMC,204200.9,A,3253.337441,N,11712.274965,W,64.9,142.7,180410,,,A*48
$GPRMC,204203.9,A,3253.291323,N,11712.243509,W,63.6,149.0,180410,,,A*43
$GPRMC,204206.9,A,3253.245865,N,11712.214935,W,61.4,153.0,180410,,,A*4C
$GPRMC,204209.9,A,3253.193955,N,11712.192812,W,63.5,160.0,180410,,,A*43
$GPRMC,204212.9,A,3253.145723,N,11712.174724,W,62.5,164.4,180410,,,A*4E
$GPRMC,204215.9,A,3253.095885,N,11712.157513,W,62.8,164.7,180410,,,A*4F
$GPRMC,204218.9,A,3253.045716,N,11712.140717,W,63.0,164.7,180410,,,A*43
$GPRMC,204221.9,A,3252.990548,N,11712.126495,W,66.2,168.6,180410,,,A*43
$GPRMC,204224.9,A,3252.938074,N,11712.110471,W,65.6,165.6,180410,,,A*4B
$GPRMC,204227.9,A,3252.885262,N,11712.093984,W,65.7,165.8,180410,,,A*48
$GPRMC,204230.9,A,3252.827863,N,11712.079376,W,67.9,166.2,180410,,,A*4B
$GPRMC,204233.9,A,3252.775457,N,11712.060909,W,65.5,164.9,180410,,,A*46
$GPRMC,204236.9,A,3252.723111,N,11712.043656,W,66.3,165.2,180410,,,A*4C
$GPRMC,204239.9,A,3252.667761,N,11712.029575,W,67.0,166.4,180410,,,A*4A
$GPRMC,204242.9,A,3252.613416,N,11712.012727,W,66.2,165.4,180410,,,A*4B
$GPRMC,204245.9,A,3252.560741,N,11711.995726,W,65.9,165.0,180410,,,A*42
$GPRMC,204248.9,A,3252.507691,N,11711.972184,W,66.6,159.1,180410,,,A*47
$GPRMC,204251.2,A,3252.469591,N,11711.949622,W,66.2,155.2,180410,,,A*46
$GPRMC,204254.9,A,3252.408896,N,11711.911248,W,66.2,150.6,180410,,,A*41
$GPRMC,204257.9,A,3252.364308,N,11711.876275,W,65.1,146.0,180410,,,A*4C
$GPRMC,204300.9,A,3252.319399,N,11711.836629,W,66.7,142.9,180410,,,A*4C
$GPRMC,204303.9,A,3252.274796,N,11711.794670,W,67.2,141.7,180410,,,A*4C
$GPRMC,204306.9,A,3252.234756,N,11711.753928,W,65.0,140.3,180410,,,A*4D
$GPRMC,204309.9,A,3252.192912,N,11711.714207,W,63.1,141.6,180410,,,A*45
$GPRMC,204312.9,A,3252.154027,N,11711.675084,W,62.1,140.4,180410,,,A*47
$GPRMC,204315.9,A,3252.112086,N,11711.635518,W,63.5,141.5,180410,,,A*48
$GPRMC,204318.9,A,3252.068248,N,11711.595711,W,65.6,142.3,180410,,,A*4B
$GPRMC,204321.9,A,3252.024200,N,11711.557812,W,63.6,142.5,180410,,,A*47
$GPRMC,204324.9,A,3251.987673,N,11711.518602,W,60.7,138.9,180410,,,A*46
$GPRMC,204327.9,A,3251.948054,N,11711.479311,W,63.8,140.5,180410,,,A*4B
$GPRMC,204330.9,A,3251.903510,N,11711.440329,W,65.0,141.3,180410,,,A*4F
$GPRMC,204333.9,A,3251.861726,N,11711.399270,W,64.2,141.1,180410,,,A*41
$GPRMC,204336.9,A,3251.820109,N,11711.358908,W,63.4,140.7,180410,,,A*45
$GPRMC,204339.9,A,3251.776827,N,11711.320402,W,65.7,141.4,180410,,,A*4C
$GPRMC,204342.9,A,3251.733776,N,11711.277739,W,66.3,140.9,180410,,,A*49
$GPRMC,204345.9,A,3251.691093,N,11711.238742,W,64.6,142.0,180410,,,A*40
$GPRMC,204348.9,A,3251.649368,N,11711.197157,W,65.1,142.0,180410,,,A*4D
$GPRMC,204351.9,A,3251.604897,N,11711.160820,W,64.4,146.8,180410,,,A*4E
$GPRMC,204354.9,A,3251.558696,N,11711.129490,W,63.1,150.2,180410,,,A*4B
$GPRMC,204357.9,A,3251.513622,N,11711.100874,W,62.0,152.5,180410,,,A*40
$GPRMC,204400.9,A,3251.466608,N,11711.072957,W,63.3,152.6,180410,,,A*4B
$GPRMC,204403.9,A,3251.419528,N,11711.044880,W,63.0,152.8,180410,,,A*42
$GPRMC,204406.9,A,3251.371616,N,11711.016701,W,63.9,153.3,180410,,,A*42
$GPRMC,204409.9,A,3251.325210,N,11710.986436,W,65.3,152.4,180410,,,A*42
$GPRMC,204412.9,A,3251.274467,N,11710.955466,W,68.0,152.2,180410,,,A*48
$GPRMC,204415.9,A,3251.224301,N,11710.924691,W,68.1,152.2,180410,,,A*40
$GPRMC,204418.9,A,3251.176093,N,11710.894660,W,66.1,152.4,180410,,,A*4D
$GPRMC,204421.9,A,3251.126884,N,11710.863445,W,66.2,152.9,180410,,,A*4F
$GPRMC,204424.9,A,3251.077262,N,11710.835257,W,65.8,153.2,180410,,,A*48
$GPRMC,204427.9,A,3251.030688,N,11710.805087,W,65.2,152.4,180410,,,A*49
$GPRMC,204430.9,A,3250.980830,N,11710.776812,W,65.7,153.2,180410,,,A*4C
$GPRMC,204433.9,A,3250.931530,N,11710.747436,W,65.8,153.6,180410,,,A*4B
$GPRMC,204436.9,A,3250.883985,N,11710.718703,W,63.6,152.9,180410,,,A*4D
$GPRMC,204439.9,A,3250.837131,N,11710.688174,W,63.8,152.1,180410,,,A*42
$GPRMC,204442.9,A,3250.790197,N,11710.658020,W,63.6,151.8,180410,,,A*49
$GPRMC,204445.9,A,3250.740641,N,11710.630354,W,66.7,153.4,180410,,,A*4B
$GPRMC,204448.9,A,3250.689217,N,11710.599428,W,68.4,153.1,180410,,,A*41
$GPRMC,204451.9,A,3250.637592,N,11710.568663,W,68.1,153.1,180410,,,A*40
$GPRMC,204454.9,A,3250.590241,N,11710.538987,W,65.2,152.3,180410,,,A*4F
$GPRMC,204457.9,A,3250.543485,N,11710.508881,W,64.1,152.5,180410,,,A*4C
$GPRMC,204500.9,A,3250.494422,N,11710.479730,W,65.2,153.3,180410,,,A*4E
$GPRMC,204503.9,A,3250.448207,N,11710.449843,W,64.6,152.0,180410,,,A*42
$GPRMC,204506.9,A,3250.399232,N,11710.420310,W,64.3,153.0,180410,,,A*4C
$GPRMC,204509.9,A,3250.353068,N,11710.391614,W,63.1,152.7,180410,,,A*47
$GPRMC,204512.9,A,3250.306177,N,11710.362960,W,63.7,152.0,180410,,,A*43
$GPRMC,204515.9,A,3250.257449,N,11710.335341,W,63.2,153.1,180410,,,A*47
$GPRMC,204518.9,A,3250.209662,N,11710.305836,W,63.6,153.2,180410,,,A*45
$GPRMC,204521.9,A,3250.161135,N,11710.276777,W,64.9,153.5,180410,,,A*47
$GPRMC,204524.9,A,3250.114198,N,11710.244653,W,64.8,151.3,180410,,,A*44
$GPRMC,204527.9,A,3250.064509,N,11710.216236,W,65.7,153.1,180410,,,A*43
$GPRMC,204530.9,A,3250.013333,N,11710.185358,W,67.6,152.7,180410,,,A*4E
$GPRMC,204533.2,A,3249.977426,N,11710.161404,W,65.4,151.4,180410,,,A*42
$GPRMC,204536.9,A,3249.916866,N,11710.126318,W,65.0,153.5,180410,,,A*4D
$GPRMC,204539.9,A,3249.866293,N,11710.097463,W,66.9,153.8,180410,,,A*43
$GPRMC,204542.9,A,3249.819184,N,11710.065502,W,66.0,152.1,180410,,,A*48
$GPRMC,204545.9,A,3249.768281,N,11710.036130,W,65.6,153.4,180410,,,A*42
$GPRMC,204548.9,A,3249.722551,N,11710.008277,W,62.4,152.7,180410,,,A*41
$GPRMC,204551.9,A,3249.675428,N,11709.980206,W,62.2,153.2,180410,,,A*40
$GPRMC,204554.9,A,3249.629944,N,11709.949551,W,61.1,151.8,180410,,,A*43
$GPRMC,204557.9,A,3249.584874,N,11709.924729,W,60.7,153.4,180410,,,A*49
$GPRMC,204600.9,A,3249.542003,N,11709.897497,W,59.3,152.2,180410,,,A*4C
$GPRMC,204603.2,A,3249.506834,N,11709.875336,W,60.5,153.0,180410,,,A*47
$GPRMC,204606.2,A,3249.461465,N,11709.848658,W,60.8,153.8,180410,,,A*4C
$GPRMC,204609.2,A,3249.415706,N,11709.822700,W,60.7,154.2,180410,,,A*44
$GPRMC,204612.9,A,3249.360325,N,11709.790568,W,61.4,153.3,180410,,,A*4B
$GPRMC,204615.9,A,3249.312632,N,11709.763764,W,62.8,154.1,180410,,,A*42
$GPRMC,204618.2,A,3249.277297,N,11709.742293,W,62.8,153.5,180410,,,A*40
$GPRMC,204621.9,A,3249.218892,N,11709.709426,W,62.6,154.2,180410,,,A*4E
$GPRMC,204624.9,A,3249.173162,N,11709.681995,W,61.7,153.1,180410,,,A*41
$GPRMC,204627.9,A,3249.127291,N,11709.655320,W,61.2,154.1,180410,,,A*43
$GPRMC,204630.9,A,3249.078838,N,11709.629757,W,63.6,155.9,180410,,,A*47
$GPRMC,204633.9,A,3249.032456,N,11709.603703,W,61.8,153.6,180410,,,A*42
$GPRMC,204636.9,A,3248.985529,N,11709.575851,W,62.9,154.2,180410,,,A*41
$GPRMC,204639.9,A,3248.938356,N,11709.547789,W,63.2,153.6,180410,,,A*44
$GPRMC,204642.9,A,3248.890610,N,11709.517248,W,64.2,151.6,180410,,,A*44
$GPRMC,204645.9,A,3248.846282,N,11709.480434,W,65.9,146.1,180410,,,A*4E
$GPRMC,204648.9,A,3248.801808,N,11709.440826,W,67.6,142.5,180410,,,A*46
$GPRMC,204651.9,A,3248.760505,N,11709.398760,W,66.5,140.5,180410,,,A*49
$GPRMC,204654.9,A,3248.717708,N,11709.356764,W,65.8,140.4,180410,,,A*4A
$GPRMC,204657.9,A,3248.674442,N,11709.317436,W,65.2,141.2,180410,,,A*4C
$GPRMC,204700.9,A,3248.632750,N,11709.276922,W,63.4,140.8,180410,,,A*48
$GPRMC,204703.9,A,3248.595738,N,11709.238878,W,61.3,139.8,180410,,,A*44
$GPRMC,204706.9,A,3248.554243,N,11709.201706,W,61.3,143.2,180410,,,A*4E
$GPRMC,204710.2,A,3248.508353,N,11709.163704,W,60.0,144.8,180410,,,A*41
$GPRMC,204713.9,A,3248.453702,N,11709.133089,W,57.0,153.0,180410,,,A*4B
$GPRMC,204716.9,A,3248.407962,N,11709.110639,W,57.2,157.6,180410,,,A*4B
$GPRMC,204719.9,A,3248.361195,N,11709.091742,W,59.6,161.2,180410,,,A*4D
$GPRMC,204722.9,A,3248.311558,N,11709.076380,W,61.3,166.6,180410,,,A*49
$GPRMC,204725.9,A,3248.257437,N,11709.063722,W,65.1,168.0,180410,,,A*43
$GPRMC,204728.9,A,3248.204743,N,11709.048014,W,64.4,164.9,180410,,,A*42
$GPRMC,204731.2,A,3248.164166,N,11709.038336,W,63.9,168.2,180410,,,A*4C
$GPRMC,204734.9,A,3248.102446,N,11709.022845,W,63.3,167.4,180410,,,A*42
$GPRMC,204737.9,A,3248.051099,N,11709.010438,W,63.8,167.4,180410,,,A*4C
$GPRMC,204740.9,A,3247.997496,N,11708.994555,W,64.5,166.9,180410,,,A*43
$GPRMC,204743.9,A,3247.945864,N,11708.985091,W,63.3,172.0,180410,,,A*4E
$GPRMC,204746.9,A,3247.893742,N,11708.981160,W,63.3,176.3,180410,,,A*46
$GPRMC,204749.9,A,3247.840020,N,11708.979271,W,64.3,179.4,180410,,,A*4F
$GPRMC,204752.9,A,3247.785036,N,11708.984285,W,64.8,183.8,180410,,,A*4F
$GPRMC,204755.9,A,3247.732542,N,11708.987821,W,64.3,183.4,180410,,,A*42
$GPRMC,204758.9,A,3247.677565,N,11708.991504,W,64.7,182.4,180410,,,A*42
$GPRMC,204801.9,A,3247.626044,N,11708.994051,W,62.7,181.5,180410,,,A*47
$GPRMC,204804.9,A,3247.572897,N,11708.993634,W,63.3,178.1,180410,,,A*43
$GPRMC,204807.9,A,3247.519451,N,11708.987290,W,63.9,172.9,180410,,,A*4C
$GPRMC,204810.9,A,3247.468196,N,11708.974650,W,63.3,167.6,180410,,,A*46
$GPRMC,204813.9,A,3247.417580,N,11708.957907,W,64.1,163.6,180410,,,A*43
$GPRMC,204816.9,A,3247.365803,N,11708.934628,W,64.6,158.9,180410,,,A*45
$GPRMC,204819.9,A,3247.317138,N,11708.908822,W,64.4,154.9,180410,,,A*4B
$GPRMC,204822.9,A,3247.272304,N,11708.878113,W,63.0,149.8,180410,,,A*4F
$GPRMC,204825.9,A,3247.227113,N,11708.843451,W,64.2,145.4,180410,,,A*42
$GPRMC,204828.9,A,3247.184430,N,11708.803732,W,64.6,140.9,180410,,,A*4F
$GPRMC,204831.9,A,3247.143987,N,11708.762193,W,64.0,137.7,180410,,,A*40
$GPRMC,204834.9,A,3247.107638,N,11708.715516,W,65.1,131.7,180410,,,A*41
$GPRMC,204837.9,A,3247.077128,N,11708.664225,W,64.4,126.9,180410,,,A*4E
$GPRMC,204840.9,A,3247.045744,N,11708.612958,W,63.9,126.3,180410,,,A*43
$GPRMC,204843.9,A,3247.013014,N,11708.562344,W,64.6,126.4,180410,,,A*4D
$GPRMC,204846.9,A,3246.982134,N,11708.509485,W,63.7,125.8,180410,,,A*45
$GPRMC,204849.9,A,3246.949155,N,11708.461048,W,63.8,128.1,180410,,,A*4B
$GPRMC,204852.9,A,3246.914719,N,11708.414646,W,62.5,131.4,180410,,,A*4C
$GPRMC,204855.9,A,3246.877984,N,11708.368651,W,64.4,135.1,180410,,,A*49
$GPRMC,204858.9,A,3246.833765,N,11708.327833,W,65.7,142.1,180410,,,A*46
$GPRMC,204901.9,A,3246.791439,N,11708.289898,W,65.4,145.3,180410,,,A*44
$GPRMC,204904.9,A,3246.743890,N,11708.255174,W,66.2,148.0,180410,,,A*40
$GPRMC,204907.9,A,3246.695734,N,11708.219574,W,66.9,148.7,180410,,,A*48
$GPRMC,204910.9,A,3246.647816,N,11708.187151,W,65.9,149.6,180410,,,A*4A
$GPRMC,204913.9,A,3246.601629,N,11708.153562,W,65.9,149.0,180410,,,A*42
$GPRMC,204916.9,A,3246.556180,N,11708.121664,W,64.5,150.7,180410,,,A*40
$GPRMC,204919.9,A,3246.511462,N,11708.092745,W,62.3,150.5,180410,,,A*4C
$GPRMC,204922.9,A,3246.466271,N,11708.064110,W,61.4,152.0,180410,,,A*4D
$GPRMC,204925.9,A,3246.422128,N,11708.036446,W,61.1,152.5,180410,,,A*44
$GPRMC,204928.9,A,3246.377991,N,11708.008488,W,60.0,151.0,180410,,,A*4D
$GPRMC,204931.9,A,3246.335458,N,11707.973741,W,61.1,144.8,180410,,,A*4B
$GPRMC,204934.2,A,3246.310225,N,11707.939103,W,59.4,133.6,180410,,,A*40
$GPRMC,204937.2,A,3246.285495,N,11707.887260,W,61.1,123.0,180410,,,A*48
$GPRMC,204940.2,A,3246.279607,N,11707.826287,W,63.0,101.0,180410,,,A*43
$GPRMC,204943.2,A,3246.296751,N,11707.769739,W,59.3,81.6,180410,,,A*72
$GPRMC,204946.2,A,3246.330941,N,11707.728509,W,54.6,54.8,180410,,,A*7F
$GPRMC,204949.9,A,3246.364454,N,11707.673243,W,57.0,57.6,180410,,,A*7D
$GPRMC,204952.9,A,3246.396924,N,11707.625230,W,62.0,52.9,180410,,,A*7B
$GPRMC,204955.9,A,3246.430610,N,11707.577414,W,62.0,54.4,180410,,,A*70
$GPRMC,204958.9,A,3246.458259,N,11707.524520,W,62.7,56.9,180410,,,A*72
$GPRMC,205001.9,A,3246.487853,N,11707.472479,W,62.9,56.4,180410,,,A*78
$GPRMC,205004.9,A,3246.516502,N,11707.421454,W,62.9,56.9,180410,,,A*79
$GPRMC,205007.9,A,3246.544675,N,11707.369750,W,61.4,57.5,180410,,,A*71
$GPRMC,205010.9,A,3246.572344,N,11707.318662,W,61.1,56.5,180410,,,A*77
$GPRMC,205013.9,A,3246.601153,N,11707.267982,W,61.5,55.9,180410,,,A*74
$GPRMC,205016.9,A,3246.624765,N,11707.217164,W,59.9,59.1,180410,,,A*71
$GPRMC,205019.9,A,3246.651680,N,11707.165560,W,62.2,60.3,180410,,,A*7B
$GPRMC,205022.9,A,3246.675918,N,11707.111615,W,62.3,64.5,180410,,,A*7A
$GPRMC,205025.9,A,3246.691724,N,11707.051375,W,63.4,72.9,180410,,,A*7D
$GPRMC,205028.9,A,3246.699977,N,11706.988836,W,63.6,80.4,180410,,,A*72
$GPRMC,205031.9,A,3246.706694,N,11706.926815,W,62.7,83.5,180410,,,A*78
$GPRMC,205034.9,A,3246.709186,N,11706.867043,W,59.9,87.4,180410,,,A*7A
$GPRMC,205037.9,A,3246.713172,N,11706.808149,W,60.7,86.7,180410,,,A*7D
$GPRMC,205041.2,A,3246.714123,N,11706.740651,W,63.2,86.2,180410,,,A*7A
$GPRMC,205044.0,A,3246.713595,N,11706.682621,W,63.7,89.6,180410,,,A*75
$GPRMC,205047.9,A,3246.714423,N,11706.599640,W,64.1,90.1,180410,,,A*74
$GPRMC,205050.9,A,3246.717228,N,11706.536347,W,65.5,87.7,180410,,,A*7E
$GPRMC,205053.9,A,3246.716641,N,11706.468878,W,67.3,88.7,180410,,,A*71
$GPRMC,205056.9,A,3246.720175,N,11706.404106,W,65.8,88.0,180410,,,A*75
$GPRMC,205059.9,A,3246.723958,N,11706.337521,W,67.6,85.1,180410,,,A*78
$GPRMC,205102.9,A,3246.726284,N,11706.272232,W,68.3,87.5,180410,,,A*71
$GPRMC,205105.9,A,3246.728846,N,11706.203810,W,69.4,86.1,180410,,,A*73
$GPRMC,205108.9,A,3246.734750,N,11706.135654,W,68.5,83.3,180410,,,A*74
$GPRMC,205111.9,A,3246.742262,N,11706.068139,W,68.4,81.4,180410,,,A*78
$GPRMC,205114.9,A,3246.754468,N,11706.001900,W,68.1,79.0,180410,,,A*7D
$GPRMC,205117.9,A,3246.764637,N,11705.934415,W,69.5,80.2,180410,,,A*71
$GPRMC,205120.9,A,3246.775941,N,11705.866179,W,70.5,80.3,180410,,,A*7B
$GPRMC,205123.9,A,3246.788751,N,11705.798731,W,70.8,78.6,180410,,,A*7E
$GPRMC,205126.9,A,3246.797270,N,11705.728924,W,71.0,79.5,180410,,,A*79
$GPRMC,205129.9,A,3246.811722,N,11705.660738,W,71.9,78.6,180410,,,A*70
$GPRMC,205132.9,A,3246.821816,N,11705.593730,W,69.1,79.7,180410,,,A*77
$GPRMC,205135.9,A,3246.827608,N,11705.521641,W,69.3,83.1,180410,,,A*78
$GPRMC,205138.9,A,3246.831508,N,11705.456244,W,67.9,86.2,180410,,,A*73
$GPRMC,205141.9,A,3246.835058,N,11705.389005,W,68.5,87.2,180410,,,A*79
$GPRMC,205144.9,A,3246.836038,N,11705.319147,W,68.7,87.6,180410,,,A*71
$GPRMC,205147.9,A,3246.839999,N,11705.252880,W,66.4,87.3,180410,,,A*7B
$GPRMC,205150.9,A,3246.839694,N,11705.188157,W,64.7,90.6,180410,,,A*7A
$GPRMC,205153.9,A,3246.834790,N,11705.122443,W,65.6,94.3,180410,,,A*70
$GPRMC,205156.9,A,3246.828005,N,11705.057218,W,67.2,99.7,180410,,,A*77
$GPRMC,205159.9,A,3246.817321,N,11704.993446,W,66.7,100.2,180410,,,A*4C
$GPRMC,205202.9,A,3246.807485,N,11704.928667,W,66.3,100.0,180410,,,A*4E
$GPRMC,205205.9,A,3246.801913,N,11704.864046,W,67.0,98.9,180410,,,A*7A
$GPRMC,205208.9,A,3246.794362,N,11704.798525,W,66.4,98.1,180410,,,A*79
$GPRMC,205211.9,A,3246.787055,N,11704.732855,W,66.5,97.5,180410,,,A*74
$GPRMC,205214.9,A,3246.774670,N,11704.666855,W,66.8,99.1,180410,,,A*7B
$GPRMC,205217.9,A,3246.765514,N,11704.600046,W,68.2,98.8,180410,,,A*7F
$GPRMC,205220.9,A,3246.757440,N,11704.531986,W,68.0,98.1,180410,,,A*75
$GPRMC,205223.9,A,3246.751108,N,11704.463423,W,69.0,96.1,180410,,,A*72
$GPRMC,205226.9,A,3246.748000,N,11704.397186,W,69.0,92.2,180410,,,A*77
$GPRMC,205229.9,A,3246.748541,N,11704.327978,W,69.1,90.3,180410,,,A*78
$GPRMC,205232.9,A,3246.753270,N,11704.260883,W,67.0,87.4,180410,,,A*74
$GPRMC,205235.9,A,3246.757005,N,11704.197011,W,65.4,87.3,180410,,,A*7E
$GPRMC,205238.9,A,3246.759277,N,11704.133123,W,65.3,87.5,180410,,,A*75
$GPRMC,205241.9,A,3246.762303,N,11704.066078,W,66.5,87.5,180410,,,A*7A
$GPRMC,205244.9,A,3246.762158,N,11703.999783,W,65.2,89.4,180410,,,A*75
$GPRMC,205247.2,A,3246.763638,N,11703.953990,W,61.3,88.3,180410,,,A*74
$GPRMC,205250.9,A,3246.765976,N,11703.878377,W,62.3,88.4,180410,,,A*75
$GPRMC,205253.9,A,3246.761270,N,11703.819458,W,60.9,95.8,180410,,,A*7A
$GPRMC,205256.9,A,3246.745824,N,11703.757071,W,63.7,105.9,180410,,,A*4C
$GPRMC,205259.9,A,3246.730625,N,11703.696673,W,64.2,107.7,180410,,,A*48
$GPRMC,205302.9,A,3246.712277,N,11703.637400,W,64.1,109.7,180410,,,A*44
$GPRMC,205305.9,A,3246.695943,N,11703.574621,W,65.7,107.2,180410,,,A*48
$GPRMC,205308.9,A,3246.677681,N,11703.512811,W,64.7,106.6,180410,,,A*41
$GPRMC,205311.9,A,3246.664255,N,11703.446840,W,68.4,102.4,180410,,,A*4B
$GPRMC,205314.9,A,3246.654948,N,11703.381415,W,67.8,101.0,180410,,,A*4E
$GPRMC,205317.9,A,3246.642988,N,11703.317251,W,67.0,101.8,180410,,,A*4F
$GPRMC,205320.9,A,3246.628674,N,11703.252495,W,67.7,103.2,180410,,,A*4A
$GPRMC,205323.9,A,3246.616198,N,11703.187481,W,68.5,103.6,180410,,,A*46
$GPRMC,205326.9,A,3246.599625,N,11703.120257,W,69.8,106.1,180410,,,A*48
$GPRMC,205329.9,A,3246.583311,N,11703.054667,W,68.1,108.6,180410,,,A*4A
$GPRMC,205332.9,A,3246.560077,N,11702.992162,W,66.5,113.1,180410,,,A*49
$GPRMC,205335.9,A,3246.535384,N,11702.933613,W,64.5,116.8,180410,,,A*45
$GPRMC,205338.9,A,3246.511804,N,11702.881160,W,61.0,119.5,180410,,,A*44
$GPRMC,205341.9,A,3246.485267,N,11702.827782,W,62.1,121.0,180410,,,A*43
$GPRMC,205344.9,A,3246.458011,N,11702.775195,W,62.1,121.3,180410,,,A*4E
$GPRMC,205347.9,A,3246.430574,N,11702.723471,W,63.0,122.0,180410,,,A*49
$GPRMC,205350.9,A,3246.404490,N,11702.669525,W,63.9,119.7,180410,,,A*4A
$GPRMC,205353.9,A,3246.376190,N,11702.611428,W,66.0,120.3,180410,,,A*4F
$GPRMC,205356.9,A,3246.360491,N,11702.551676,W,64.3,105.9,180410,,,A*4B
$GPRMC,205359.9,A,3246.354003,N,11702.489331,W,63.2,96.4,180410,,,A*7E
$GPRMC,205402.9,A,3246.355463,N,11702.427840,W,63.5,86.3,180410,,,A*7C
$GPRMC,205405.9,A,3246.364445,N,11702.364696,W,64.8,78.9,180410,,,A*79
$GPRMC,205408.9,A,3246.377611,N,11702.302906,W,63.5,74.9,180410,,,A*75
$GPRMC,205411.9,A,3246.395267,N,11702.240663,W,65.0,72.9,180410,,,A*7A
$GPRMC,205414.9,A,3246.409097,N,11702.177884,W,65.3,74.7,180410,,,A*7B
$GPRMC,205417.9,A,3246.425061,N,11702.115882,W,66.2,73.9,180410,,,A*76
$GPRMC,205420.9,A,3246.437812,N,11702.051592,W,66.2,76.9,180410,,,A*75
$GPRMC,205423.9,A,3246.443057,N,11701.987113,W,66.3,86.8,180410,,,A*7F
$GPRMC,205426.9,A,3246.436673,N,11701.920206,W,66.1,97.3,180410,,,A*7B
$GPRMC,205429.9,A,3246.422506,N,11701.856770,W,65.9,107.1,180410,,,A*45
$GPRMC,205432.9,A,3246.399025,N,11701.795363,W,67.5,114.5,180410,,,A*42
$GPRMC,205435.9,A,3246.372174,N,11701.734518,W,68.5,116.6,180410,,,A*4A
$GPRMC,205438.2,A,3246.351969,N,11701.688619,W,65.9,116.7,180410,,,A*4D
$GPRMC,205441.9,A,3246.319439,N,11701.621346,W,64.5,119.7,180410,,,A*42
$GPRMC,205444.9,A,3246.294811,N,11701.569057,W,62.0,118.6,180410,,,A*4A
$GPRMC,205447.9,A,3246.271247,N,11701.514854,W,62.0,114.0,180410,,,A*40
$GPRMC,205450.9,A,3246.255797,N,11701.454827,W,63.3,103.8,180410,,,A*45
$GPRMC,205453.2,A,3246.248283,N,11701.407160,W,63.7,98.3,180410,,,A*71
$GPRMC,205456.9,A,3246.244936,N,11701.329500,W,64.8,95.0,180410,,,A*79
$GPRMC,205459.9,A,3246.250446,N,11701.266849,W,63.8,85.3,180410,,,A*76
$GPRMC,205502.9,A,3246.263969,N,11701.204659,W,63.7,75.9,180410,,,A*78
$GPRMC,205505.9,A,3246.283271,N,11701.149588,W,61.2,68.4,180410,,,A*70
$GPRMC,205508.9,A,3246.306503,N,11701.097456,W,58.4,60.7,180410,,,A*74
$GPRMC,205511.9,A,3246.333350,N,11701.048365,W,56.4,57.9,180410,,,A*7B
$GPRMC,205514.9,A,3246.356419,N,11701.001564,W,54.2,58.4,180410,,,A*7B
$GPRMC,205517.9,A,3246.379923,N,11700.958264,W,53.4,57.8,180410,,,A*70
$GPRMC,205520.9,A,3246.400069,N,11700.910218,W,55.0,63.2,180410,,,A*72
$GPRMC,205523.9,A,3246.420544,N,11700.861634,W,55.8,63.7,180410,,,A*79
$GPRMC,205526.9,A,3246.439785,N,11700.809465,W,56.7,65.4,180410,,,A*7A
$GPRMC,205529.9,A,3246.456830,N,11700.756025,W,58.2,65.9,180410,,,A*7E
$GPRMC,205532.9,A,3246.475657,N,11700.699341,W,61.6,67.9,180410,,,A*75
$GPRMC,205535.9,A,3246.497380,N,11700.642970,W,62.9,66.5,180410,,,A*7E
$GPRMC,205538.9,A,3246.518499,N,11700.585354,W,64.4,66.1,180410,,,A*71
$GPRMC,205541.9,A,3246.543961,N,11700.524300,W,67.7,65.2,180410,,,A*71
$GPRMC,205544.9,A,3246.565963,N,11700.462470,W,68.6,67.0,180410,,,A*7F
$GPRMC,205547.9,A,3246.586178,N,11700.399879,W,69.8,68.1,180410,,,A*74
$GPRMC,205550.9,A,3246.611282,N,11700.332884,W,72.2,66.6,180410,,,A*73
$GPRMC,205553.9,A,3246.633074,N,11700.268824,W,69.4,66.6,180410,,,A*73
$GPRMC,205557.2,A,3246.660881,N,11700.203529,W,67.2,60.3,180410,,,A*7E
$GPRMC,205600.9,A,3246.693897,N,11700.136220,W,63.3,59.7,180410,,,A*7F
$GPRMC,205603.9,A,3246.720008,N,11700.082157,W,64.7,61.7,180410,,,A*7E
$GPRMC,205606.9,A,3246.741381,N,11700.022515,W,65.7,69.2,180410,,,A*7A
$GPRMC,205609.9,A,3246.753890,N,11659.958592,W,67.1,79.2,180410,,,A*7E
$GPRMC,205612.9,A,3246.759137,N,11659.889556,W,68.1,87.7,180410,,,A*74
$GPRMC,205615.9,A,3246.757166,N,11659.823364,W,67.3,92.0,180410,,,A*70
$GPRMC,205618.9,A,3246.752975,N,11659.755892,W,68.9,92.7,180410,,,A*7C
$GPRMC,205621.9,A,3246.748552,N,11659.687606,W,68.5,93.2,180410,,,A*71
$GPRMC,205624.9,A,3246.745851,N,11659.619786,W,69.6,92.6,180410,,,A*7E
$GPRMC,205627.9,A,3246.745397,N,11659.550891,W,68.6,92.1,180410,,,A*7D
$GPRMC,205630.9,A,3246.740915,N,11659.484797,W,67.3,93.5,180410,,,A*70
$GPRMC,205633.9,A,3246.739358,N,11659.420316,W,65.5,91.8,180410,,,A*76
$GPRMC,205636.9,A,3246.738715,N,11659.354916,W,64.3,90.2,180410,,,A*7D
$GPRMC,205639.9,A,3246.736541,N,11659.293521,W,61.3,91.8,180410,,,A*73
$GPRMC,205642.9,A,3246.731028,N,11659.235982,W,60.0,94.1,180410,,,A*75
$GPRMC,205645.9,A,3246.732050,N,11659.174750,W,60.8,89.2,180410,,,A*7E
$GPRMC,205648.9,A,3246.739115,N,11659.114668,W,62.3,80.7,180410,,,A*71
$GPRMC,205651.9,A,3246.754027,N,11659.054162,W,63.2,73.3,180410,,,A*72
$GPRMC,205654.9,A,3246.784919,N,11659.003314,W,62.4,56.5,180410,,,A*79
$GPRMC,205657.9,A,3246.820151,N,11658.958016,W,61.6,46.7,180410,,,A*7A
$GPRMC,205700.9,A,3246.861001,N,11658.922398,W,60.9,36.3,180410,,,A*7D
$GPRMC,205703.9,A,3246.907385,N,11658.892819,W,61.1,27.8,180410,,,A*7A
$GPRMC,205706.9,A,3246.958580,N,11658.867476,W,67.2,23.1,180410,,,A*71
$GPRMC,205709.9,A,3247.007145,N,11658.840997,W,64.8,24.6,180410,,,A*7F
$GPRMC,205712.9,A,3247.053338,N,11658.811555,W,63.6,28.0,180410,,,A*79
$GPRMC,205715.9,A,3247.099872,N,11658.777892,W,65.3,30.9,180410,,,A*77
$GPRMC,205718.9,A,3247.146167,N,11658.743460,W,65.5,31.7,180410,,,A*7B
$GPRMC,205721.9,A,3247.184978,N,11658.713932,W,58.4,30.0,180410,,,A*7F
$GPRMC,205724.9,A,3247.230738,N,11658.691241,W,58.0,23.6,180410,,,A*78
$GPRMC,205727.9,A,3247.279341,N,11658.673366,W,62.3,14.2,180410,,,A*7E
$GPRMC,205730.9,A,3247.332317,N,11658.666671,W,64.0,4.3,180410,,,A*47
$GPRMC,205733.9,A,3247.387089,N,11658.665991,W,65.1,0.8,180410,,,A*43
$GPRMC,205736.9,A,3247.442612,N,11658.667188,W,66.4,0.2,180410,,,A*42
$GPRMC,205739.9,A,3247.498681,N,11658.664820,W,66.7,2.8,180410,,,A*43
$GPRMC,205742.9,A,3247.559941,N,11658.655487,W,73.7,6.2,180410,,,A*49
$GPRMC,205745.9,A,3247.613179,N,11658.644156,W,68.4,8.1,180410,,,A*4D
$GPRMC,205748.9,A,3247.672881,N,11658.635887,W,69.6,7.9,180410,,,A*4E
$GPRMC,205751.9,A,3247.728693,N,11658.627685,W,68.2,6.7,180410,,,A*40
$GPRMC,205754.9,A,3247.782896,N,11658.618758,W,67.6,7.4,180410,,,A*4A
$GPRMC,205757.9,A,3247.838983,N,11658.608601,W,68.0,8.4,180410,,,A*48
$GPRMC,205800.9,A,3247.895318,N,11658.595346,W,68.2,14.4,180410,,,A*74
$GPRMC,205803.9,A,3247.949512,N,11658.573216,W,69.3,20.3,180410,,,A*77
$GPRMC,205806.9,A,3247.999408,N,11658.540530,W,68.6,28.8,180410,,,A*71
$GPRMC,205809.9,A,3248.044868,N,11658.501996,W,68.5,34.8,180410,,,A*79
$GPRMC,205812.9,A,3248.081454,N,11658.456550,W,64.4,45.7,180410,,,A*78
$GPRMC,205815.9,A,3248.112557,N,11658.404750,W,63.4,54.9,180410,,,A*7A
$GPRMC,205818.9,A,3248.140411,N,11658.353327,W,62.2,58.3,180410,,,A*73
$GPRMC,205821.9,A,3248.157275,N,11658.297413,W,59.9,68.6,180410,,,A*77
$GPRMC,205824.9,A,3248.169886,N,11658.242198,W,57.5,74.5,180410,,,A*7B
$GPRMC,205827.9,A,3248.176685,N,11658.184360,W,58.9,83.0,180410,,,A*79
$GPRMC,205830.9,A,3248.179864,N,11658.125488,W,58.5,88.6,180410,,,A*7A
$GPRMC,205833.2,A,3248.179493,N,11658.079943,W,59.5,90.0,180410,,,A*7A
$GPRMC,205836.2,A,3248.178378,N,11658.021332,W,58.2,90.2,180410,,,A*79
$GPRMC,205839.2,A,3248.178158,N,11657.965106,W,56.9,89.9,180410,,,A*73
$GPRMC,205842.9,A,3248.177049,N,11657.895505,W,57.5,91.4,180410,,,A*7A
$GPRMC,205845.2,A,3248.176776,N,11657.850603,W,59.0,89.4,180410,,,A*72
$GPRMC,205848.9,A,3248.176531,N,11657.779361,W,57.8,91.1,180410,,,A*7A
$GPRMC,205851.9,A,3248.177619,N,11657.725395,W,56.0,89.7,180410,,,A*7E
$GPRMC,205854.9,A,3248.177442,N,11657.668357,W,57.1,89.5,180410,,,A*73
$GPRMC,205857.9,A,3248.178060,N,11657.610870,W,57.6,89.6,180410,,,A*7E
$GPRMC,205900.9,A,3248.178377,N,11657.554102,W,59.5,90.3,180410,,,A*77
$GPRMC,205903.9,A,3248.177214,N,11657.497470,W,57.8,92.7,180410,,,A*74
$GPRMC,205906.9,A,3248.176848,N,11657.435290,W,61.8,90.5,180410,,,A*76
$GPRMC,205909.9,A,3248.177858,N,11657.373040,W,63.4,90.0,180410,,,A*78
$GPRMC,205912.9,A,3248.177727,N,11657.309280,W,65.4,90.3,180410,,,A*73
$GPRMC,205915.9,A,3248.178571,N,11657.243775,W,64.0,89.5,180410,,,A*71
$GPRMC,205918.9,A,3248.176461,N,11657.182322,W,60.1,91.4,180410,,,A*77
$GPRMC,205921.9,A,3248.177407,N,11657.127109,W,55.7,89.4,180410,,,A*71
$GPRMC,205924.9,A,3248.177237,N,11657.072741,W,54.3,89.8,180410,,,A*73
$GPRMC,205927.9,A,3248.175917,N,11657.018566,W,54.9,91.0,180410,,,A*7B
$GPRMC,205930.9,A,3248.175312,N,11656.964455,W,54.2,91.2,180410,,,A*79
$GPRMC,205933.9,A,3248.174402,N,11656.909009,W,56.5,90.6,180410,,,A*7B
$GPRMC,205936.9,A,3248.175479,N,11656.851755,W,58.3,89.8,180410,,,A*7F
$GPRMC,205939.9,A,3248.177499,N,11656.797060,W,55.9,87.9,180410,,,A*70
$GPRMC,205942.9,A,3248.178448,N,11656.741800,W,55.0,89.0,180410,,,A*74
$GPRMC,205945.9,A,3248.175433,N,11656.686247,W,56.5,94.8,180410,,,A*73
$GPRMC,205948.9,A,3248.176152,N,11656.636424,W,51.4,89.6,180410,,,A*73
$GPRMC,205951.9,A,3248.175777,N,11656.584496,W,51.5,91.0,180410,,,A*74
$GPRMC,205954.9,A,3248.173281,N,11656.532429,W,53.8,90.7,180410,,,A*7B
$GPRMC,205957.9,A,3248.174875,N,11656.477521,W,56.0,90.6,180410,,,A*7B
$GPRMC,210000.9,A,3248.174510,N,11656.419784,W,58.1,91.1,180410,,,A*76
$GPRMC,210003.9,A,3248.172911,N,11656.365781,W,51.6,92.7,180410,,,A*7C
$GPRMC,210006.9,A,3248.172145,N,11656.320737,W,43.3,92.8,180410,,,A*75
$GPRMC,210009.9,A,3248.168784,N,11656.282784,W,35.7,96.3,180410,,,A*71
$GPRMC,210012.9,A,3248.166382,N,11656.251972,W,30.6,96.6,180410,,,A*7F
$GPRMC,210015.9,A,3248.160975,N,11656.224992,W,28.5,103.8,180410,,,A*49
$GPRMC,210018.9,A,3248.161180,N,11656.204532,W,20.9,92.3,180410,,,A*75
$GPRMC,210021.9,A,3248.160011,N,11656.188039,W,14.8,95.1,180410,,,A*7D
$GPRMC,210024.9,A,3248.160031,N,11656.179290,W,7.8,88.0,180410,,,A*4A
$GPRMC,210027.9,A,3248.161015,N,11656.172314,W,5.5,82.5,180410,,,A*48
$GPRMC,210036.9,A,3248.161010,N,11656.161613,W,6.0,93.8,180410,,,A*46
$GPRMC,210039.9,A,3248.158004,N,11656.158303,W,4.6,126.9,180410,,,A*72
$GPRMC,210042.9,A,3248.154582,N,11656.153743,W,8.1,141.1,180410,,,A*70
$GPRMC,210045.9,A,3248.140070,N,11656.152599,W,16.9,177.6,180410,,,A*4B
$GPRMC,210048.9,A,3248.120037,N,11656.152401,W,22.8,177.3,180410,,,A*40
$GPRMC,210051.9,A,3248.101088,N,11656.149397,W,23.8,177.6,180410,,,A*49
$GPRMC,210054.9,A,3248.079537,N,11656.150962,W,25.0,184.6,180410,,,A*49
$GPRMC,210057.9,A,3248.060797,N,11656.151667,W,22.9,181.5,180410,,,A*49
$GPRMC,210100.9,A,3248.041978,N,11656.151136,W,21.3,180.5,180410,,,A*4D
$GPRMC,210103.9,A,3248.028633,N,11656.149374,W,14.1,173.0,180410,,,A*41
$GPRMC,210127.9,A,3248.023172,N,11656.147664,W,6.9,171.7,180410,,,A*7A
$GPRMC,210130.9,A,3248.016683,N,11656.145946,W,9.2,172.7,180410,,,A*79
$GPRMC,210133.9,A,3248.008322,N,11656.138251,W,14.4,122.4,180410,,,A*40
$GPRMC,210136.9,A,3248.007742,N,11656.117515,W,21.9,93.1,180410,,,A*77
$GPRMC,210139.9,A,3248.007156,N,11656.093687,W,23.1,94.5,180410,,,A*77
$GPRMC,210142.9,A,3248.005969,N,11656.078522,W,14.9,113.1,180410,,,A*42
$GPRMC,210145.9,A,3247.991015,N,11656.074231,W,17.9,171.1,180410,,,A*42
$GPRMC,210148.9,A,3247.972433,N,11656.078756,W,22.3,181.9,180410,,,A*41
$GPRMC,210151.9,A,3247.950346,N,11656.077797,W,25.4,177.5,180410,,,A*4B
$GPRMC,210154.9,A,3247.926796,N,11656.077137,W,28.0,179.8,180410,,,A*40
$GPRMC,210157.9,A,3247.903125,N,11656.076383,W,28.9,177.3,180410,,,A*4A
$GPRMC,210200.9,A,3247.878930,N,11656.076861,W,29.5,180.9,180410,,,A*42
$GPRMC,210203.2,A,3247.860217,N,11656.076885,W,29.6,179.6,180410,,,A*4D
$GPRMC,210206.2,A,3247.833563,N,11656.077809,W,28.6,181.1,180410,,,A*4E
$GPRMC,210209.2,A,3247.812787,N,11656.078123,W,19.4,182.1,180410,,,A*47
$GPRMC,210212.2,A,3247.801211,N,11656.078609,W,9.2,179.2,180410,,,A*7A
$GPRMC,210236.9,A,3247.794855,N,11656.078570,W,6.1,178.1,180410,,,A*7D
$GPRMC,210239.9,A,3247.789679,N,11656.076110,W,7.2,154.0,180410,,,A*7F
$GPRMC,210242.9,A,3247.786585,N,11656.066566,W,9.8,116.1,180410,,,A*7B
$GPRMC,210245.9,A,3247.783519,N,11656.051088,W,16.7,97.2,180410,,,A*77
$GPRMC,210248.9,A,3247.783929,N,11656.031426,W,20.1,90.4,180410,,,A*71
$GPRMC,210251.9,A,3247.785564,N,11656.012820,W,19.2,87.0,180410,,,A*7A
$GPRMC,210254.9,A,3247.784591,N,11655.993971,W,18.3,91.8,180410,,,A*7D
$GPRMC,210257.9,A,3247.786104,N,11655.973993,W,21.6,88.9,180410,,,A*70
$GPRMC,210300.9,A,3247.788356,N,11655.948923,W,23.8,87.6,180410,,,A*77
$GPRMC,210303.9,A,3247.789322,N,11655.923563,W,26.4,88.4,180410,,,A*77
$GPRMC,210306.9,A,3247.789014,N,11655.895273,W,28.5,90.4,180410,,,A*78
$GPRMC,210309.9,A,3247.788628,N,11655.867928,W,27.9,88.9,180410,,,A*70
$GPRMC,210312.9,A,3247.787343,N,11655.838404,W,30.9,92.0,180410,,,A*70
$GPRMC,210315.9,A,3247.787507,N,11655.805205,W,33.3,89.3,180410,,,A*78
$GPRMC,210318.9,A,3247.786898,N,11655.771447,W,33.5,90.6,180410,,,A*78
$GPRMC,210321.9,A,3247.786794,N,11655.739478,W,32.6,90.3,180410,,,A*76
$GPRMC,210324.9,A,3247.786387,N,11655.705373,W,33.7,89.6,180410,,,A*7B
$GPRMC,210327.9,A,3247.787507,N,11655.673436,W,32.8,86.3,180410,,,A*75
$GPRMC,210330.9,A,3247.786886,N,11655.645804,W,26.4,90.9,180410,,,A*7A
$GPRMC,210333.9,A,3247.785767,N,11655.626918,W,13.4,100.1,180410,,,A*45
$GPRMC,210336.9,A,3247.785321,N,11655.623297,W,4.5,122.8,180410,,,A*71
$GPRMC,210339.9,A,3247.774539,N,11655.619805,W,13.0,172.3,180410,,,A*4A
$GPRMC,210342.9,A,3247.759551,N,11655.620701,W,19.6,179.8,180410,,,A*4A
$GPRMC,210345.9,A,3247.738587,N,11655.619584,W,26.7,180.5,180410,,,A*42
$GPRMC,210348.9,A,3247.714726,N,11655.620269,W,29.9,181.6,180410,,,A*45
$GPRMC,210351.9,A,3247.686516,N,11655.619997,W,31.5,180.0,180410,,,A*44
$GPRMC,210354.9,A,3247.661266,N,11655.619871,W,31.1,181.3,180410,,,A*47
$GPRMC,210357.9,A,3247.635155,N,11655.620185,W,31.9,180.8,180410,,,A*4C
$GPRMC,210400.9,A,3247.607767,N,11655.620307,W,31.4,179.9,180410,,,A*4D
$GPRMC,210403.9,A,3247.586198,N,11655.618745,W,24.6,177.4,180410,,,A*4E
$GPRMC,210406.9,A,3247.571289,N,11655.618124,W,15.1,180.2,180410,,,A*4A
$GPRMC,210412.9,A,3247.563341,N,11655.618355,W,8.0,151.9,180410,,,A*77
$GPRMC,210415.9,A,3247.562305,N,11655.606412,W,14.5,99.5,180410,,,A*7B
$GPRMC,210418.9,A,3247.563122,N,11655.585237,W,22.3,90.0,180410,,,A*76
$GPRMC,210421.9,A,3247.560878,N,11655.560489,W,27.3,92.4,180410,,,A*72
$GPRMC,210424.9,A,3247.563294,N,11655.528348,W,31.2,88.2,180410,,,A*71
$GPRMC,210427.9,A,3247.563531,N,11655.498033,W,31.1,89.5,180410,,,A*7A
$GPRMC,210430.9,A,3247.563607,N,11655.468559,W,30.8,91.0,180410,,,A*78
$GPRMC,210433.9,A,3247.563873,N,11655.436200,W,30.9,89.6,180410,,,A*78
$GPRMC,210436.9,A,3247.562878,N,11655.404103,W,32.6,90.6,180410,,,A*73
$GPRMC,210439.9,A,3247.564351,N,11655.371787,W,32.1,90.4,180410,,,A*70
$GPRMC,210442.9,A,3247.562419,N,11655.342120,W,28.8,92.0,180410,,,A*7E
$GPRMC,210445.9,A,3247.561178,N,11655.317135,W,24.4,91.8,180410,,,A*77
$GPRMC,210448.9,A,3247.560768,N,11655.297802,W,16.1,99.9,180410,,,A*75
$GPRMC,210451.9,A,3247.551393,N,11655.293284,W,12.1,174.9,180410,,,A*49
