NMEA Sentence Code,UTC Time,Status,Latitude,Latitude Direction,Longitude,Longitude Direction,Speed (knots),Track Angle (degrees true),Date,MagneticVariation,Magnetic Variation Direction,[FAA Mode]-Optional,Checksum
$GPRMC,002558.639,A,3334.2018,N,11605.3685,W,12.18,180.69,230310,,*2F
$GPRMC,002559.639,A,3334.1984,N,11605.3687,W,12.04,181.40,230310,,*24
$GPRMC,002600.639,A,3334.1951,N,11605.3689,W,11.71,182.08,230310,,*23
$GPRMC,002601.639,A,3334.1918,N,11605.3692,W,11.47,182.82,230310,,*22
$GPRMC,002603.639,A,3334.1858,N,11605.3697,W,10.42,182.04,230310,,*2A
$GPRMC,002604.638,A,3334.1830,N,11605.3699,W,9.93,180.18,230310,,*17
$GPRMC,002605.638,A,3334.1803,N,11605.3699,W,8.83,179.08,230310,,*11
$GPRMC,002606.638,A,3334.1780,N,11605.3699,W,7.72,178.39,230310,,*14
$GPRMC,002625.637,A,3334.1680,N,11605.3694,W,4.78,202.11,230310,,*1B
$GPRMC,002626.637,A,3334.1666,N,11605.3704,W,6.05,217.26,230310,,*10
$GPRMC,002627.637,A,3334.1655,N,11605.3722,W,6.55,226.33,230310,,*16
$GPRMC,002628.637,A,3334.1643,N,11605.3740,W,7.13,239.07,230310,,*10
$GPRMC,002629.637,A,3334.1636,N,11605.3763,W,7.39,250.23,230310,,*13
$GPRMC,002630.637,A,3334.1632,N,11605.3790,W,8.26,261.40,230310,,*15
$GPRMC,002631.637,A,3334.1632,N,11605.3821,W,9.47,268.91,230310,,*12
$GPRMC,002633.637,A,3334.1637,N,11605.3903,W,13.23,271.67,230310,,*2C
$GPRMC,002634.637,A,3334.1638,N,11605.3955,W,14.91,271.41,230310,,*2D
$GPRMC,002635.636,A,3334.1640,N,11605.4011,W,16.28,270.47,230310,,*2B
$GPRMC,002636.636,A,3334.1640,N,11605.4071,W,17.46,268.65,230310,,*2E
$GPRMC,002639.636,A,3334.1632,N,11605.4274,W,20.82,266.33,230310,,*22
$GPRMC,002640.636,A,3334.1629,N,11605.4347,W,21.58,266.62,230310,,*25
$GPRMC,002641.636,A,3334.1626,N,11605.4421,W,21.87,266.28,230310,,*20
$GPRMC,002642.636,A,3334.1622,N,11605.4494,W,22.11,266.58,230310,,*22
$GPRMC,002643.636,A,3334.1619,N,11605.4569,W,22.20,267.23,230310,,*27
$GPRMC,002644.636,A,3334.1618,N,11605.4643,W,22.10,268.53,230310,,*21
$GPRMC,002645.636,A,3334.1623,N,11605.4731,W,21.81,270.06,230310,,*2E
$GPRMC,002646.636,A,3334.1625,N,11605.4802,W,21.56,270.97,230310,,*26
$GPRMC,002648.636,A,3334.1629,N,11605.4943,W,20.82,271.46,230310,,*25
$GPRMC,002649.636,A,3334.1631,N,11605.5009,W,19.68,271.92,230310,,*2C
$GPRMC,002650.635,A,3334.1633,N,11605.5071,W,18.45,272.11,230310,,*2C
$GPRMC,002651.635,A,3334.1635,N,11605.5129,W,17.35,272.32,230310,,*2E
$GPRMC,002654.635,A,3334.1641,N,11605.5261,W,10.08,272.49,230310,,*22
$GPRMC,002655.635,A,3334.1643,N,11605.5287,W,7.54,274.14,230310,,*18
$GPRMC,002656.635,A,3334.1644,N,11605.5304,W,4.84,273.71,230310,,*1C
$GPRMC,002740.632,A,3334.1633,N,11605.5352,W,4.42,297.05,230310,,*1D
$GPRMC,002741.632,A,3334.1642,N,11605.5367,W,6.90,314.66,230310,,*1E
$GPRMC,002742.632,A,3334.1659,N,11605.5384,W,8.52,316.58,230310,,*15
$GPRMC,002743.632,A,3334.1681,N,11605.5402,W,9.36,330.21,230310,,*11
$GPRMC,002744.632,A,3334.1707,N,11605.5414,W,10.41,345.72,230310,,*22
$GPRMC,002745.632,A,3334.1740,N,11605.5418,W,11.50,353.06,230310,,*29
$GPRMC,002746.632,A,3334.1777,N,11605.5418,W,12.71,358.72,230310,,*26
$GPRMC,002748.632,A,3334.1864,N,11605.5405,W,14.67,004.48,230310,,*2B
$GPRMC,002749.632,A,3334.1907,N,11605.5400,W,14.60,003.10,230310,,*26
$GPRMC,002750.632,A,3334.1951,N,11605.5395,W,14.26,001.61,230310,,*20
$GPRMC,002751.632,A,3334.1990,N,11605.5393,W,12.85,001.16,230310,,*25
$GPRMC,002754.631,A,3334.2073,N,11605.5391,W,6.66,357.31,230310,,*1B
$GPRMC,002755.631,A,3334.2088,N,11605.5391,W,4.43,358.77,230310,,*16
$GPRMC,002833.629,A,3334.2153,N,11605.5390,W,5.82,353.14,230310,,*14
$GPRMC,002834.629,A,3334.2172,N,11605.5394,W,7.70,351.57,230310,,*1E
$GPRMC,002835.629,A,3334.2196,N,11605.5399,W,9.71,350.37,230310,,*10
$GPRMC,002836.629,A,3334.2227,N,11605.5407,W,11.94,351.13,230310,,*2F
$GPRMC,002839.628,A,3334.2355,N,11605.5434,W,19.07,351.72,230310,,*20
$GPRMC,002840.628,A,3334.2411,N,11605.5444,W,21.49,351.88,230310,,*2A
$GPRMC,002841.628,A,3334.2475,N,11605.5455,W,23.85,352.52,230310,,*2F
$GPRMC,002842.628,A,3334.2544,N,11605.5467,W,25.74,352.89,230310,,*20
$GPRMC,002843.628,A,3334.2619,N,11605.5479,W,27.30,352.95,230310,,*2A
$GPRMC,002844.628,A,3334.2698,N,11605.5493,W,29.15,352.68,230310,,*2B
$GPRMC,002845.628,A,3334.2782,N,11605.5506,W,30.49,352.07,230310,,*25
$GPRMC,002846.628,A,3334.2871,N,11605.5522,W,32.07,351.68,230310,,*21
$GPRMC,002848.628,A,3334.3059,N,11605.5560,W,34.83,350.27,230310,,*2A
$GPRMC,002849.628,A,3334.3159,N,11605.5583,W,36.07,349.65,230310,,*27
$GPRMC,002850.628,A,3334.3262,N,11605.5607,W,37.46,349.02,230310,,*2E
$GPRMC,002851.628,A,3334.3368,N,11605.5632,W,38.63,348.52,230310,,*2E
$GPRMC,002854.627,A,3334.3699,N,11605.5724,W,40.96,345.95,230310,,*2A
$GPRMC,002855.627,A,3334.3812,N,11605.5759,W,41.43,345.10,230310,,*28
$GPRMC,002856.627,A,3334.3926,N,11605.5796,W,41.85,343.81,230310,,*2A
$GPRMC,002857.627,A,3334.4039,N,11605.5837,W,42.35,343.36,230310,,*2B
$GPRMC,002858.627,A,3334.4154,N,11605.5878,W,42.76,343.88,230310,,*27
$GPRMC,002859.627,A,3334.4270,N,11605.5918,W,43.28,344.08,230310,,*21
$GPRMC,002900.627,A,3334.4389,N,11605.5958,W,44.28,344.34,230310,,*27
$GPRMC,002901.627,A,3334.4509,N,11605.5999,W,44.83,344.10,230310,,*22
$GPRMC,002903.627,A,3334.4755,N,11605.6084,W,46.16,343.58,230310,,*28
$GPRMC,002904.627,A,3334.4880,N,11605.6128,W,46.70,343.79,230310,,*2C
$GPRMC,002905.627,A,3334.5007,N,11605.6171,W,47.26,344.01,230310,,*2D
$GPRMC,002906.627,A,3334.5135,N,11605.6215,W,47.87,343.74,230310,,*21
$GPRMC,002909.626,A,3334.5529,N,11605.6352,W,49.50,344.04,230310,,*20
$GPRMC,002910.626,A,3334.5664,N,11605.6398,W,49.99,344.11,230310,,*25
$GPRMC,002911.626,A,3334.5799,N,11605.6445,W,50.41,343.88,230310,,*2A
$GPRMC,002912.626,A,3334.5934,N,11605.6492,W,50.73,343.64,230310,,*29
$GPRMC,002913.626,A,3334.6071,N,11605.6540,W,50.93,343.81,230310,,*28
$GPRMC,002914.626,A,3334.6209,N,11605.6588,W,51.36,343.84,230310,,*2D
$GPRMC,002915.626,A,3334.6347,N,11605.6635,W,51.65,343.94,230310,,*25
$GPRMC,002916.626,A,3334.6486,N,11605.6682,W,51.76,344.12,230310,,*2B
$GPRMC,002918.626,A,3334.6763,N,11605.6777,W,51.11,343.86,230310,,*2D
$GPRMC,002919.626,A,3334.6899,N,11605.6823,W,50.79,343.93,230310,,*23
$GPRMC,002920.626,A,3334.7035,N,11605.6870,W,50.48,343.86,230310,,*26
$GPRMC,002921.626,A,3334.7171,N,11605.6916,W,50.26,343.88,230310,,*21
$GPRMC,002924.626,A,3334.7574,N,11605.7054,W,50.24,344.07,230310,,*29
$GPRMC,002925.625,A,3334.7709,N,11605.7101,W,50.07,344.05,230310,,*21
$GPRMC,002926.625,A,3334.7844,N,11605.7147,W,50.06,344.57,230310,,*20
$GPRMC,002927.625,A,3334.7980,N,11605.7189,W,50.10,345.87,230310,,*21
$GPRMC,002928.625,A,3334.8118,N,11605.7227,W,50.45,347.27,230310,,*27
$GPRMC,002929.625,A,3334.8255,N,11605.7262,W,50.32,348.13,230310,,*25
$GPRMC,002930.625,A,3334.8393,N,11605.7295,W,50.23,349.19,230310,,*25
$GPRMC,002931.625,A,3334.8531,N,11605.7325,W,50.10,350.30,230310,,*23
$GPRMC,002933.625,A,3334.8807,N,11605.7377,W,50.01,352.19,230310,,*27
$GPRMC,002934.625,A,3334.8945,N,11605.7398,W,50.02,353.01,230310,,*2D
$GPRMC,002935.625,A,3334.9084,N,11605.7416,W,50.55,353.99,230310,,*2B
$GPRMC,002936.625,A,3334.9225,N,11605.7430,W,50.32,355.12,230310,,*21
$GPRMC,002939.625,A,3334.9643,N,11605.7458,W,50.11,357.95,230310,,*28
$GPRMC,002940.624,A,3334.9783,N,11605.7462,W,50.05,358.93,230310,,*2F
$GPRMC,002941.624,A,3334.9924,N,11605.7463,W,50.11,359.75,230310,,*20
$GPRMC,002942.624,A,3335.0064,N,11605.7463,W,50.06,000.32,230310,,*2C
$GPRMC,002943.624,A,3335.0204,N,11605.7462,W,50.17,000.61,230310,,*2E
$GPRMC,002944.624,A,3335.0344,N,11605.7461,W,50.20,000.50,230310,,*29
$GPRMC,002945.624,A,3335.0484,N,11605.7460,W,50.13,000.26,230310,,*23
$GPRMC,002946.624,A,3335.0624,N,11605.7460,W,50.14,000.07,230310,,*2C
$GPRMC,002948.624,A,3335.0903,N,11605.7458,W,50.12,000.19,230310,,*2A
$GPRMC,002949.624,A,3335.1044,N,11605.7456,W,50.22,000.27,230310,,*20
$GPRMC,002950.624,A,3335.1183,N,11605.7455,W,50.11,000.28,230310,,*2E
$GPRMC,002951.624,A,3335.1323,N,11605.7455,W,50.18,000.40,230310,,*20
$GPRMC,002954.624,A,3335.1743,N,11605.7451,W,49.85,000.40,230310,,*2F
$GPRMC,002955.623,A,3335.1883,N,11605.7449,W,49.72,000.50,230310,,*2A
$GPRMC,002956.623,A,3335.2023,N,11605.7448,W,50.11,000.43,230310,,*26
$GPRMC,002957.623,A,3335.2164,N,11605.7445,W,49.60,000.51,230310,,*25
$GPRMC,002958.623,A,3335.2304,N,11605.7445,W,49.43,000.00,230310,,*2B
$GPRMC,002959.623,A,3335.2443,N,11605.7444,W,49.45,000.07,230310,,*2E
$GPRMC,003000.623,A,3335.2581,N,11605.7444,W,49.16,000.14,230310,,*21
$GPRMC,003001.623,A,3335.2719,N,11605.7444,W,49.42,359.99,230310,,*28
$GPRMC,003003.623,A,3335.2994,N,11605.7445,W,49.71,000.24,230310,,*29
$GPRMC,003004.623,A,3335.3133,N,11605.7445,W,49.93,000.09,230310,,*29
$GPRMC,003005.623,A,3335.3271,N,11605.7444,W,50.07,000.26,230310,,*24
$GPRMC,003006.623,A,3335.3410,N,11605.7444,W,50.33,000.06,230310,,*23
$GPRMC,003009.623,A,3335.3834,N,11605.7453,W,51.17,358.00,230310,,*2F
$GPRMC,003010.623,A,3335.3977,N,11605.7460,W,51.55,356.90,230310,,*20
$GPRMC,003011.622,A,3335.4120,N,11605.7471,W,51.64,356.03,230310,,*25
$GPRMC,003012.622,A,3335.4262,N,11605.7484,W,51.30,355.12,230310,,*2B
$GPRMC,003013.622,A,3335.4403,N,11605.7499,W,50.73,354.57,230310,,*21
$GPRMC,003014.622,A,3335.4542,N,11605.7516,W,50.28,353.74,230310,,*2C
$GPRMC,003015.622,A,3335.4680,N,11605.7536,W,49.92,352.98,230310,,*28
$GPRMC,003016.622,A,3335.4818,N,11605.7557,W,49.90,352.36,230310,,*25
$GPRMC,003018.622,A,3335.5093,N,11605.7605,W,50.30,351.26,230310,,*25
$GPRMC,003019.622,A,3335.5231,N,11605.7633,W,50.46,350.18,230310,,*26
$GPRMC,003020.622,A,3335.5369,N,11605.7664,W,50.41,349.36,230310,,*21
$GPRMC,003021.622,A,3335.5506,N,11605.7697,W,50.60,348.63,230310,,*21
$GPRMC,003024.622,A,3335.5915,N,11605.7809,W,50.08,346.09,230310,,*2F
$GPRMC,003025.622,A,3335.6050,N,11605.7852,W,50.27,344.94,230310,,*20
$GPRMC,003026.621,A,3335.6185,N,11605.7897,W,50.30,344.26,230310,,*2F
$GPRMC,003027.621,A,3335.6320,N,11605.7944,W,50.22,343.94,230310,,*21
$GPRMC,003028.621,A,3335.6454,N,11605.7991,W,50.55,343.63,230310,,*2A
$GPRMC,003029.621,A,3335.6589,N,11605.8039,W,50.47,343.30,230310,,*2B
$GPRMC,003030.621,A,3335.6723,N,11605.8090,W,50.64,342.47,230310,,*22
$GPRMC,003031.621,A,3335.6857,N,11605.8144,W,50.43,340.94,230310,,*2E
$GPRMC,003033.621,A,3335.7121,N,11605.8262,W,50.34,339.17,230310,,*27
$GPRMC,003034.621,A,3335.7252,N,11605.8323,W,50.25,338.60,230310,,*22
$GPRMC,003035.621,A,3335.7381,N,11605.8386,W,50.15,338.17,230310,,*20
$GPRMC,003036.621,A,3335.7510,N,11605.8450,W,50.00,337.59,230310,,*20
$GPRMC,003039.621,A,3335.7891,N,11605.8651,W,49.60,334.98,230310,,*28
$GPRMC,003040.621,A,3335.8017,N,11605.8722,W,50.18,334.74,230310,,*2F
$GPRMC,003041.621,A,3335.8143,N,11605.8795,W,50.05,334.15,230310,,*29
$GPRMC,003042.620,A,3335.8269,N,11605.8869,W,50.16,333.24,230310,,*2B
$GPRMC,003043.620,A,3335.8393,N,11605.8946,W,50.33,332.30,230310,,*21
$GPRMC,003044.620,A,3335.8517,N,11605.9026,W,50.36,331.75,230310,,*25
$GPRMC,003045.620,A,3335.8639,N,11605.9108,W,50.35,330.79,230310,,*28
$GPRMC,003046.620,A,3335.8761,N,11605.9192,W,50.34,329.77,230310,,*23
$GPRMC,003048.620,A,3335.9000,N,11605.9368,W,50.12,328.46,230310,,*2C
$GPRMC,003049.620,A,3335.9117,N,11605.9457,W,49.81,327.04,230310,,*2A
$GPRMC,003050.620,A,3335.9233,N,11605.9550,W,50.06,326.52,230310,,*24
$GPRMC,003051.620,A,3335.9349,N,11605.9645,W,50.16,326.12,230310,,*2B
$GPRMC,003054.620,A,3335.9693,N,11605.9936,W,50.25,323.62,230310,,*25
$GPRMC,003055.620,A,3335.9804,N,11606.0037,W,49.98,322.27,230310,,*28
$GPRMC,003056.620,A,3335.9915,N,11606.0139,W,49.99,322.17,230310,,*27
$GPRMC,003057.619,A,3336.0024,N,11606.0243,W,50.20,321.76,230310,,*2D
$GPRMC,003058.619,A,3336.0133,N,11606.0348,W,50.23,320.64,230310,,*2E
$GPRMC,003059.619,A,3336.0240,N,11606.0456,W,50.20,320.26,230310,,*25
$GPRMC,003100.619,A,3336.0346,N,11606.0565,W,50.18,319.24,230310,,*2D
$GPRMC,003101.619,A,3336.0449,N,11606.0676,W,50.34,318.35,230310,,*2A
$GPRMC,003103.619,A,3336.0655,N,11606.0904,W,50.32,317.29,230310,,*29
$GPRMC,003104.619,A,3336.0757,N,11606.1020,W,50.33,316.74,230310,,*2B
$GPRMC,003105.619,A,3336.0857,N,11606.1137,W,50.28,315.80,230310,,*20
$GPRMC,003106.619,A,3336.0955,N,11606.1256,W,50.16,314.81,230310,,*29
$GPRMC,003109.619,A,3336.1242,N,11606.1622,W,50.09,312.58,230310,,*21
$GPRMC,003110.619,A,3336.1335,N,11606.1747,W,50.13,311.45,230310,,*2E
$GPRMC,003111.619,A,3336.1425,N,11606.1875,W,50.30,310.64,230310,,*24
$GPRMC,003112.619,A,3336.1515,N,11606.2004,W,50.32,310.39,230310,,*22
$GPRMC,003113.618,A,3336.1604,N,11606.2134,W,50.41,309.41,230310,,*20
$GPRMC,003114.618,A,3336.1692,N,11606.2265,W,50.32,308.93,230310,,*25
$GPRMC,003115.618,A,3336.1780,N,11606.2397,W,50.34,309.20,230310,,*25
$GPRMC,003116.618,A,3336.1868,N,11606.2527,W,50.26,309.82,230310,,*29
$GPRMC,003118.618,A,3336.2047,N,11606.2784,W,50.06,310.13,230310,,*28
$GPRMC,003119.618,A,3336.2137,N,11606.2912,W,50.01,310.39,230310,,*21
$GPRMC,003120.618,A,3336.2227,N,11606.3039,W,50.08,311.25,230310,,*2D
$GPRMC,003121.618,A,3336.2320,N,11606.3164,W,50.08,312.31,230310,,*25
$GPRMC,003124.618,A,3336.2606,N,11606.3531,W,50.30,314.25,230310,,*2D
$GPRMC,003125.618,A,3336.2704,N,11606.3650,W,50.28,315.08,230310,,*2C
$GPRMC,003126.618,A,3336.2804,N,11606.3768,W,50.27,316.21,230310,,*2D
$GPRMC,003127.618,A,3336.2905,N,11606.3883,W,50.28,317.21,230310,,*28
$GPRMC,003128.617,A,3336.3008,N,11606.3995,W,50.19,318.10,230310,,*24
$GPRMC,003129.617,A,3336.3113,N,11606.4104,W,50.13,318.98,230310,,*23
$GPRMC,003130.617,A,3336.3219,N,11606.4213,W,50.12,319.40,230310,,*22
$GPRMC,003131.617,A,3336.3326,N,11606.4321,W,50.16,320.02,230310,,*26
$GPRMC,003133.617,A,3336.3544,N,11606.4530,W,50.25,322.21,230310,,*23
$GPRMC,003134.617,A,3336.3655,N,11606.4632,W,50.29,322.86,230310,,*27
$GPRMC,003135.617,A,3336.3767,N,11606.4732,W,50.25,323.76,230310,,*25
$GPRMC,003136.617,A,3336.3880,N,11606.4829,W,50.26,324.37,230310,,*24
$GPRMC,003139.617,A,3336.4218,N,11606.5119,W,50.16,324.36,230310,,*2E
$GPRMC,003140.617,A,3336.4331,N,11606.5216,W,50.16,324.04,230310,,*27
$GPRMC,003141.617,A,3336.4444,N,11606.5314,W,50.12,323.79,230310,,*29
$GPRMC,003142.617,A,3336.4556,N,11606.5412,W,50.10,323.86,230310,,*2B
$GPRMC,003143.616,A,3336.4669,N,11606.5510,W,50.14,323.86,230310,,*23
$GPRMC,003144.616,A,3336.4781,N,11606.5609,W,50.17,323.79,230310,,*2B
$GPRMC,003145.616,A,3336.4894,N,11606.5707,W,50.14,324.02,230310,,*26
$GPRMC,003146.616,A,3336.5007,N,11606.5804,W,50.19,324.29,230310,,*2E
$GPRMC,003148.616,A,3336.5234,N,11606.6000,W,50.26,324.18,230310,,*23
$GPRMC,003149.616,A,3336.5347,N,11606.6098,W,50.23,324.09,230310,,*23
$GPRMC,003150.616,A,3336.5461,N,11606.6196,W,50.20,324.04,230310,,*29
$GPRMC,003151.616,A,3336.5574,N,11606.6295,W,50.12,323.83,230310,,*24
$GPRMC,003154.616,A,3336.5910,N,11606.6591,W,50.09,324.40,230310,,*2E
$GPRMC,003155.616,A,3336.6023,N,11606.6689,W,50.20,324.42,230310,,*26
$GPRMC,003156.616,A,3336.6137,N,11606.6786,W,50.27,324.38,230310,,*25
$GPRMC,003157.616,A,3336.6251,N,11606.6884,W,50.21,324.28,230310,,*2D
$GPRMC,003158.616,A,3336.6364,N,11606.6981,W,50.20,324.23,230310,,*2B
$GPRMC,003159.615,A,3336.6477,N,11606.7079,W,50.24,324.05,230310,,*23
$GPRMC,003200.615,A,3336.6590,N,11606.7178,W,50.21,324.20,230310,,*26
$GPRMC,003201.615,A,3336.6703,N,11606.7276,W,50.14,324.13,230310,,*24
$GPRMC,003203.615,A,3336.6929,N,11606.7471,W,50.13,324.03,230310,,*27
$GPRMC,003204.615,A,3336.7042,N,11606.7569,W,50.17,324.12,230310,,*29
$GPRMC,003205.615,A,3336.7155,N,11606.7666,W,50.19,324.12,230310,,*2D
$GPRMC,003206.615,A,3336.7269,N,11606.7764,W,50.24,324.15,230310,,*28
$GPRMC,003209.615,A,3336.7608,N,11606.8059,W,50.40,323.06,230310,,*25
$GPRMC,003210.615,A,3336.7720,N,11606.8158,W,50.22,323.63,230310,,*21
$GPRMC,003211.615,A,3336.7833,N,11606.8257,W,50.10,323.95,230310,,*29
$GPRMC,003212.615,A,3336.7946,N,11606.8356,W,50.14,323.87,230310,,*2E
$GPRMC,003213.615,A,3336.8059,N,11606.8454,W,50.07,324.08,230310,,*20
$GPRMC,003214.614,A,3336.8172,N,11606.8553,W,50.15,323.98,230310,,*25
$GPRMC,003215.614,A,3336.8285,N,11606.8651,W,50.21,324.12,230310,,*2C
$GPRMC,003216.614,A,3336.8398,N,11606.8749,W,50.19,324.07,230310,,*25
$GPRMC,003218.614,A,3336.8623,N,11606.8946,W,50.29,324.09,230310,,*22
$GPRMC,003219.614,A,3336.8737,N,11606.9044,W,50.23,324.07,230310,,*29
$GPRMC,003220.614,A,3336.8850,N,11606.9141,W,50.17,324.11,230310,,*29
$GPRMC,003221.614,A,3336.8962,N,11606.9240,W,50.25,323.81,230310,,*25
$GPRMC,003224.614,A,3336.9301,N,11606.9534,W,50.12,324.07,230310,,*27
$GPRMC,003225.614,A,3336.9414,N,11606.9632,W,50.12,324.25,230310,,*20
$GPRMC,003226.614,A,3336.9527,N,11606.9730,W,50.25,324.25,230310,,*25
$GPRMC,003227.614,A,3336.9640,N,11606.9829,W,50.21,324.36,230310,,*27
$GPRMC,003228.614,A,3336.9754,N,11606.9927,W,50.28,324.08,230310,,*27
$GPRMC,003229.614,A,3336.9867,N,11607.0025,W,50.22,323.70,230310,,*28
$GPRMC,003230.613,A,3336.9980,N,11607.0124,W,50.25,323.60,230310,,*29
$GPRMC,003231.613,A,3337.0093,N,11607.0222,W,50.12,323.86,230310,,*22
$GPRMC,003233.613,A,3337.0318,N,11607.0418,W,50.18,324.20,230310,,*2E
$GPRMC,003234.613,A,3337.0432,N,11607.0516,W,50.18,324.21,230310,,*28
$GPRMC,003235.613,A,3337.0544,N,11607.0615,W,50.18,324.23,230310,,*2B
$GPRMC,003236.613,A,3337.0657,N,11607.0714,W,50.38,324.40,230310,,*2E
$GPRMC,003239.613,A,3337.1004,N,11607.1000,W,50.54,326.86,230310,,*21
$GPRMC,003240.613,A,3337.1122,N,11607.1091,W,50.27,327.34,230310,,*2E
$GPRMC,003241.613,A,3337.1241,N,11607.1180,W,50.16,328.13,230310,,*20
$GPRMC,003242.613,A,3337.1361,N,11607.1267,W,50.11,329.14,230310,,*2B
$GPRMC,003243.613,A,3337.1481,N,11607.1352,W,50.06,330.11,230310,,*2F
$GPRMC,003244.613,A,3337.1603,N,11607.1434,W,50.10,330.88,230310,,*20
$GPRMC,003245.612,A,3337.1726,N,11607.1515,W,50.22,331.37,230310,,*20
$GPRMC,003246.612,A,3337.1850,N,11607.1594,W,50.51,332.16,230310,,*20
$GPRMC,003248.612,A,3337.2103,N,11607.1746,W,51.29,334.10,230310,,*21
$GPRMC,003249.612,A,3337.2232,N,11607.1821,W,51.66,334.91,230310,,*2D
$GPRMC,003250.612,A,3337.2364,N,11607.1892,W,52.21,336.08,230310,,*2D
$GPRMC,003251.612,A,3337.2499,N,11607.1960,W,52.95,336.60,230310,,*24
$GPRMC,003254.612,A,3337.2909,N,11607.2156,W,52.29,339.07,230310,,*22
$GPRMC,003255.612,A,3337.3045,N,11607.2216,W,51.76,339.96,230310,,*25
$GPRMC,003256.612,A,3337.3181,N,11607.2272,W,51.46,341.05,230310,,*2B
$GPRMC,003257.612,A,3337.3318,N,11607.2325,W,51.52,342.07,230310,,*2F
$GPRMC,003258.612,A,3337.3455,N,11607.2377,W,51.69,342.92,230310,,*2D
$GPRMC,003259.612,A,3337.3593,N,11607.2427,W,51.73,343.52,230310,,*23
$GPRMC,003300.612,A,3337.3732,N,11607.2474,W,51.92,344.07,230310,,*29
$GPRMC,003301.611,A,3337.3871,N,11607.2521,W,52.01,344.82,230310,,*26
$GPRMC,003303.611,A,3337.4151,N,11607.2606,W,51.95,345.81,230310,,*22
$GPRMC,003304.611,A,3337.4291,N,11607.2647,W,51.73,345.81,230310,,*27
$GPRMC,003305.611,A,3337.4432,N,11607.2688,W,51.75,345.62,230310,,*21
$GPRMC,003306.611,A,3337.4571,N,11607.2731,W,51.59,345.37,230310,,*29
$GPRMC,003309.611,A,3337.4987,N,11607.2858,W,51.55,345.68,230310,,*25
$GPRMC,003310.611,A,3337.5127,N,11607.2901,W,51.78,345.58,230310,,*2F
$GPRMC,003311.611,A,3337.5265,N,11607.2945,W,51.76,345.47,230310,,*2B
$GPRMC,003312.611,A,3337.5406,N,11607.2988,W,51.90,345.32,230310,,*20
$GPRMC,003313.611,A,3337.5547,N,11607.3032,W,52.26,345.47,230310,,*20
$GPRMC,003314.611,A,3337.5689,N,11607.3075,W,51.94,345.26,230310,,*28
$GPRMC,003315.611,A,3337.5830,N,11607.3119,W,51.86,344.95,230310,,*24
$GPRMC,003316.610,A,3337.5970,N,11607.3164,W,51.71,344.57,230310,,*2F
$GPRMC,003318.610,A,3337.6247,N,11607.3263,W,51.96,342.74,230310,,*27
$GPRMC,003319.610,A,3337.6385,N,11607.3316,W,51.88,341.97,230310,,*2B
$GPRMC,003320.610,A,3337.6523,N,11607.3372,W,52.15,340.44,230310,,*21
$GPRMC,003321.610,A,3337.6659,N,11607.3429,W,52.21,340.42,230310,,*26
$GPRMC,003324.610,A,3337.7064,N,11607.3615,W,51.82,337.51,230310,,*2F
$GPRMC,003325.610,A,3337.7198,N,11607.3681,W,51.79,336.93,230310,,*2A
$GPRMC,003326.610,A,3337.7331,N,11607.3750,W,51.83,336.32,230310,,*2B
$GPRMC,003327.610,A,3337.7462,N,11607.3820,W,51.98,335.58,230310,,*26
$GPRMC,003328.610,A,3337.7593,N,11607.3892,W,51.99,334.77,230310,,*22
$GPRMC,003329.610,A,3337.7724,N,11607.3969,W,52.05,333.86,230310,,*27
$GPRMC,003330.610,A,3337.7853,N,11607.4047,W,52.03,332.85,230310,,*26
$GPRMC,003331.609,A,3337.7981,N,11607.4128,W,52.06,332.06,230310,,*27
$GPRMC,003333.609,A,3337.8236,N,11607.4295,W,51.92,330.59,230310,,*2E
$GPRMC,003334.609,A,3337.8361,N,11607.4382,W,51.70,329.83,230310,,*2E
$GPRMC,003335.609,A,3337.8484,N,11607.4471,W,51.61,329.01,230310,,*22
$GPRMC,003336.609,A,3337.8606,N,11607.4563,W,51.80,328.09,230310,,*2D
$GPRMC,003339.609,A,3337.8969,N,11607.4845,W,51.66,327.43,230310,,*24
$GPRMC,003340.609,A,3337.9090,N,11607.4938,W,51.98,328.21,230310,,*25
$GPRMC,003341.609,A,3337.9211,N,11607.5031,W,52.01,328.16,230310,,*29
$GPRMC,003342.609,A,3337.9334,N,11607.5124,W,51.98,328.07,230310,,*2A
$GPRMC,003343.609,A,3337.9456,N,11607.5216,W,51.99,327.85,230310,,*2E
$GPRMC,003344.609,A,3337.9579,N,11607.5308,W,51.98,327.56,230310,,*24
$GPRMC,003345.609,A,3337.9701,N,11607.5401,W,51.92,327.54,230310,,*2E
$GPRMC,003346.609,A,3337.9823,N,11607.5494,W,51.96,327.56,230310,,*28
$GPRMC,003348.608,A,3338.0069,N,11607.5678,W,52.07,327.83,230310,,*24
$GPRMC,003349.608,A,3338.0191,N,11607.5771,W,52.01,327.73,230310,,*22
$GPRMC,003350.608,A,3338.0314,N,11607.5863,W,51.95,327.69,230310,,*2C
$GPRMC,003351.608,A,3338.0436,N,11607.5956,W,51.97,327.65,230310,,*23
$GPRMC,003354.608,A,3338.0803,N,11607.6231,W,51.85,327.99,230310,,*25
$GPRMC,003355.608,A,3338.0926,N,11607.6323,W,51.86,327.70,230310,,*24
$GPRMC,003356.608,A,3338.1048,N,11607.6415,W,51.89,327.82,230310,,*27
$GPRMC,003357.608,A,3338.1170,N,11607.6507,W,51.87,327.73,230310,,*2E
$GPRMC,003358.608,A,3338.1292,N,11607.6600,W,51.93,327.62,230310,,*2F
$GPRMC,003359.608,A,3338.1415,N,11607.6692,W,51.98,327.62,230310,,*27
$GPRMC,003400.608,A,3338.1537,N,11607.6784,W,51.99,327.82,230310,,*24
$GPRMC,003401.608,A,3338.1660,N,11607.6877,W,52.02,327.77,230310,,*2C
$GPRMC,003403.607,A,3338.1904,N,11607.7062,W,52.03,327.67,230310,,*21
$GPRMC,003404.607,A,3338.2026,N,11607.7154,W,51.94,327.91,230310,,*2C
$GPRMC,003405.607,A,3338.2149,N,11607.7246,W,51.88,328.01,230310,,*2E
$GPRMC,003406.607,A,3338.2270,N,11607.7338,W,51.81,327.71,230310,,*2D
$GPRMC,003409.607,A,3338.2636,N,11607.7616,W,51.93,327.44,230310,,*28
$GPRMC,003410.607,A,3338.2757,N,11607.7709,W,51.91,327.61,230310,,*2C
$GPRMC,003411.607,A,3338.2879,N,11607.7801,W,51.64,327.73,230310,,*20
$GPRMC,003412.607,A,3338.2999,N,11607.7891,W,51.06,327.85,230310,,*28
$GPRMC,003413.607,A,3338.3118,N,11607.7981,W,50.51,327.93,230310,,*2D
$GPRMC,003414.607,A,3338.3235,N,11607.8070,W,49.87,327.70,230310,,*20
$GPRMC,003415.607,A,3338.3351,N,11607.8158,W,49.27,327.64,230310,,*26
$GPRMC,003416.607,A,3338.3465,N,11607.8245,W,48.66,327.72,230310,,*29
$GPRMC,003418.606,A,3338.3690,N,11607.8415,W,47.42,327.74,230310,,*22
$GPRMC,003419.606,A,3338.3800,N,11607.8499,W,46.84,327.83,230310,,*23
$GPRMC,003420.606,A,3338.3910,N,11607.8581,W,46.43,327.88,230310,,*21
$GPRMC,003421.606,A,3338.4018,N,11607.8663,W,46.01,327.81,230310,,*26
$GPRMC,003424.606,A,3338.4342,N,11607.8908,W,45.75,327.86,230310,,*2A
$GPRMC,003425.606,A,3338.4447,N,11607.8987,W,44.85,327.87,230310,,*21
$GPRMC,003426.606,A,3338.4549,N,11607.9064,W,43.19,327.89,230310,,*24
$GPRMC,003427.606,A,3338.4646,N,11607.9138,W,41.08,327.66,230310,,*22
$GPRMC,003428.606,A,3338.4737,N,11607.9207,W,38.60,327.50,230310,,*20
$GPRMC,003429.606,A,3338.4822,N,11607.9273,W,36.04,327.15,230310,,*24
$GPRMC,003430.606,A,3338.4901,N,11607.9333,W,33.31,327.78,230310,,*21
$GPRMC,003431.606,A,3338.4975,N,11607.9389,W,31.27,328.11,230310,,*27
$GPRMC,003433.605,A,3338.5107,N,11607.9488,W,26.39,328.14,230310,,*20
$GPRMC,003434.605,A,3338.5164,N,11607.9530,W,23.63,327.91,230310,,*28
$GPRMC,003435.605,A,3338.5213,N,11607.9568,W,20.74,327.54,230310,,*2B
$GPRMC,003436.605,A,3338.5256,N,11607.9602,W,18.29,327.85,230310,,*29
$GPRMC,003439.605,A,3338.5363,N,11607.9682,W,11.42,328.45,230310,,*2E
$GPRMC,003440.605,A,3338.5383,N,11607.9699,W,8.44,327.21,230310,,*17
$GPRMC,003441.605,A,3338.5399,N,11607.9707,W,5.20,323.61,230310,,*14
$GPRMC,003543.601,A,3338.5396,N,11607.9711,W,5.23,322.25,230310,,*19
$GPRMC,003544.601,A,3338.5417,N,11607.9726,W,8.38,325.13,230310,,*11
$GPRMC,003545.601,A,3338.5444,N,11607.9746,W,11.26,326.74,230310,,*25
$GPRMC,003546.601,A,3338.5477,N,11607.9771,W,13.74,325.94,230310,,*2A
$GPRMC,003548.601,A,3338.5560,N,11607.9834,W,18.70,326.94,230310,,*21
$GPRMC,003549.601,A,3338.5610,N,11607.9870,W,20.87,327.82,230310,,*21
$GPRMC,003550.600,A,3338.5665,N,11607.9910,W,22.79,328.08,230310,,*23
$GPRMC,003551.600,A,3338.5724,N,11607.9954,W,24.64,328.21,230310,,*27
$GPRMC,003554.600,A,3338.5920,N,11608.0102,W,29.01,327.05,230310,,*22
$GPRMC,003555.600,A,3338.5990,N,11608.0157,W,30.22,327.00,230310,,*24
$GPRMC,003556.600,A,3338.6065,N,11608.0214,W,31.79,327.46,230310,,*2E
$GPRMC,003557.600,A,3338.6143,N,11608.0273,W,33.05,327.60,230310,,*26
$GPRMC,003558.600,A,3338.6224,N,11608.0334,W,34.25,327.67,230310,,*2B
$GPRMC,003559.600,A,3338.6309,N,11608.0397,W,35.73,327.88,230310,,*2E
$GPRMC,003600.600,A,3338.6397,N,11608.0462,W,37.08,327.80,230310,,*2D
$GPRMC,003601.600,A,3338.6487,N,11608.0530,W,38.17,327.75,230310,,*27
$GPRMC,003603.600,A,3338.6675,N,11608.0672,W,40.47,327.70,230310,,*20
$GPRMC,003604.600,A,3338.6771,N,11608.0748,W,41.37,326.41,230310,,*2F
$GPRMC,003605.600,A,3338.6872,N,11608.0825,W,42.68,327.40,230310,,*2F
$GPRMC,003606.599,A,3338.6975,N,11608.0902,W,43.63,327.75,230310,,*21
$GPRMC,003609.599,A,3338.7296,N,11608.1143,W,45.88,327.79,230310,,*2A
$GPRMC,003610.599,A,3338.7406,N,11608.1226,W,46.54,327.71,230310,,*27
$GPRMC,003611.599,A,3338.7517,N,11608.1310,W,47.19,327.59,230310,,*21
$GPRMC,003612.599,A,3338.7631,N,11608.1396,W,47.93,327.59,230310,,*29
$GPRMC,003613.599,A,3338.7745,N,11608.1483,W,48.48,327.48,230310,,*20
$GPRMC,003614.599,A,3338.7861,N,11608.1570,W,49.01,327.61,230310,,*24
$GPRMC,003615.599,A,3338.7978,N,11608.1658,W,49.57,327.80,230310,,*29
$GPRMC,003616.599,A,3338.8097,N,11608.1748,W,50.17,327.95,230310,,*25
$GPRMC,003618.599,A,3338.8341,N,11608.1930,W,51.23,327.59,230310,,*24
$GPRMC,003619.599,A,3338.8465,N,11608.2024,W,52.01,327.60,230310,,*22
$GPRMC,003620.599,A,3338.8590,N,11608.2117,W,52.70,328.03,230310,,*2E
$GPRMC,003621.598,A,3338.8718,N,11608.2210,W,53.17,328.63,230310,,*2E
$GPRMC,003624.598,A,3338.9110,N,11608.2483,W,54.15,330.64,230310,,*23
$GPRMC,003625.598,A,3338.9246,N,11608.2567,W,54.35,332.44,230310,,*2B
$GPRMC,003626.598,A,3338.9381,N,11608.2656,W,54.81,331.38,230310,,*24
$GPRMC,003627.598,A,3338.9517,N,11608.2743,W,55.02,331.73,230310,,*2C
$GPRMC,003628.598,A,3338.9653,N,11608.2830,W,55.11,332.37,230310,,*2A
$GPRMC,003629.598,A,3338.9790,N,11608.2914,W,55.20,333.06,230310,,*23
$GPRMC,003630.598,A,3338.9928,N,11608.2997,W,55.26,333.50,230310,,*28
$GPRMC,003631.598,A,3339.0066,N,11608.3079,W,55.26,334.00,230310,,*28
$GPRMC,003633.598,A,3339.0344,N,11608.3248,W,54.80,335.29,230310,,*2E
$GPRMC,003634.598,A,3339.0483,N,11608.3321,W,54.80,336.24,230310,,*25
$GPRMC,003635.598,A,3339.0625,N,11608.3393,W,54.93,336.34,230310,,*20
$GPRMC,003636.598,A,3339.0769,N,11608.3463,W,54.97,336.41,230310,,*24
$GPRMC,003639.597,A,3339.1193,N,11608.3678,W,55.01,338.42,230310,,*2D
$GPRMC,003640.597,A,3339.1336,N,11608.3745,W,55.03,339.07,230310,,*23
$GPRMC,003641.597,A,3339.1486,N,11608.3807,W,55.04,339.89,230310,,*26
$GPRMC,003642.597,A,3339.1632,N,11608.3869,W,54.94,340.22,230310,,*27
$GPRMC,003643.597,A,3339.1774,N,11608.3931,W,54.92,340.43,230310,,*28
$GPRMC,003644.597,A,3339.1920,N,11608.3991,W,54.97,340.85,230310,,*25
$GPRMC,003645.597,A,3339.2065,N,11608.4050,W,54.97,341.52,230310,,*27
$GPRMC,003646.597,A,3339.2212,N,11608.4106,W,55.04,342.31,230310,,*29
$GPRMC,003648.597,A,3339.2507,N,11608.4213,W,55.18,343.34,230310,,*2A
$GPRMC,003649.597,A,3339.2656,N,11608.4265,W,55.16,344.07,230310,,*24
$GPRMC,003650.597,A,3339.2804,N,11608.4313,W,54.97,344.58,230310,,*27
$GPRMC,003651.597,A,3339.2951,N,11608.4361,W,54.86,345.04,230310,,*2A
$GPRMC,003654.596,A,3339.3397,N,11608.4494,W,55.05,346.64,230310,,*2D
$GPRMC,003655.596,A,3339.3546,N,11608.4535,W,55.04,347.06,230310,,*28
$GPRMC,003656.596,A,3339.3696,N,11608.4575,W,55.05,347.39,230310,,*2C
$GPRMC,003657.596,A,3339.3847,N,11608.4613,W,55.06,347.93,230310,,*2F
$GPRMC,003658.596,A,3339.3998,N,11608.4649,W,55.02,348.68,230310,,*23
$GPRMC,003659.596,A,3339.4149,N,11608.4683,W,55.08,349.04,230310,,*26
$GPRMC,003700.596,A,3339.4299,N,11608.4718,W,55.20,349.12,230310,,*2B
$GPRMC,003701.596,A,3339.4449,N,11608.4749,W,55.20,350.60,230310,,*28
$GPRMC,003703.596,A,3339.4752,N,11608.4804,W,55.20,351.32,230310,,*23
$GPRMC,003704.596,A,3339.4905,N,11608.4829,W,55.12,351.90,230310,,*2E
$GPRMC,003705.596,A,3339.5057,N,11608.4852,W,55.00,352.49,230310,,*28
$GPRMC,003706.596,A,3339.5209,N,11608.4874,W,54.99,352.88,230310,,*2A
$GPRMC,003709.595,A,3339.5663,N,11608.4939,W,55.10,352.47,230310,,*25
$GPRMC,003710.595,A,3339.5816,N,11608.4963,W,55.11,351.88,230310,,*2F
$GPRMC,003711.595,A,3339.5968,N,11608.4988,W,55.14,352.03,230310,,*26
$GPRMC,003712.595,A,3339.6121,N,11608.5012,W,55.08,352.22,230310,,*26
$GPRMC,003713.595,A,3339.6273,N,11608.5035,W,55.13,352.55,230310,,*2C
$GPRMC,003714.595,A,3339.6425,N,11608.5058,W,55.17,352.61,230310,,*26
$GPRMC,003715.595,A,3339.6577,N,11608.5082,W,55.15,352.87,230310,,*2C
$GPRMC,003716.595,A,3339.6729,N,11608.5105,W,55.15,352.50,230310,,*22
$GPRMC,003718.595,A,3339.7034,N,11608.5153,W,55.11,352.32,230310,,*25
$GPRMC,003719.595,A,3339.7186,N,11608.5177,W,55.09,352.50,230310,,*27
$GPRMC,003720.595,A,3339.7338,N,11608.5201,W,55.04,352.55,230310,,*20
$GPRMC,003721.595,A,3339.7489,N,11608.5225,W,55.07,352.44,230310,,*29
$GPRMC,003724.594,A,3339.7944,N,11608.5296,W,55.09,352.74,230310,,*24
$GPRMC,003725.594,A,3339.8095,N,11608.5318,W,55.03,352.71,230310,,*27
$GPRMC,003726.594,A,3339.8247,N,11608.5342,W,55.13,352.41,230310,,*24
$GPRMC,003727.594,A,3339.8399,N,11608.5367,W,55.02,352.21,230310,,*26
$GPRMC,003728.594,A,3339.8551,N,11608.5392,W,55.00,351.62,230310,,*27
$GPRMC,003729.594,A,3339.8703,N,11608.5419,W,55.15,351.74,230310,,*24
$GPRMC,003730.594,A,3339.8855,N,11608.5448,W,54.99,350.76,230310,,*22
$GPRMC,003731.594,A,3339.9007,N,11608.5479,W,55.14,350.36,230310,,*2F
$GPRMC,003733.594,A,3339.9307,N,11608.5546,W,55.17,348.83,230310,,*27
$GPRMC,003734.594,A,3339.9458,N,11608.5584,W,55.18,348.00,230310,,*27
$GPRMC,003735.594,A,3339.9607,N,11608.5625,W,55.14,347.03,230310,,*26
$GPRMC,003736.594,A,3339.9756,N,11608.5668,W,55.05,346.34,230310,,*2C
$GPRMC,003739.593,A,3340.0200,N,11608.5809,W,54.91,344.28,230310,,*2F
$GPRMC,003740.593,A,3340.0346,N,11608.5863,W,54.93,343.40,230310,,*25
$GPRMC,003741.593,A,3340.0491,N,11608.5919,W,55.04,342.58,230310,,*22
$GPRMC,003742.593,A,3340.0637,N,11608.5975,W,54.97,341.99,230310,,*20
$GPRMC,003743.593,A,3340.0783,N,11608.6031,W,55.17,341.51,230310,,*28
$GPRMC,003744.593,A,3340.0928,N,11608.6090,W,54.86,340.83,230310,,*2C
$GPRMC,003745.593,A,3340.1072,N,11608.6152,W,54.92,340.34,230310,,*2C
$GPRMC,003746.593,A,3340.1216,N,11608.6216,W,55.03,339.71,230310,,*2A
$GPRMC,003748.593,A,3340.1502,N,11608.6351,W,54.91,337.91,230310,,*2E
$GPRMC,003749.593,A,3340.1644,N,11608.6422,W,54.98,337.10,230310,,*2D
$GPRMC,003750.593,A,3340.1785,N,11608.6495,W,55.19,336.71,230310,,*2B
$GPRMC,003751.593,A,3340.1926,N,11608.6569,W,55.21,336.30,230310,,*21
$GPRMC,003754.592,A,3340.2343,N,11608.6806,W,54.71,333.86,230310,,*27
$GPRMC,003755.592,A,3340.2476,N,11608.6889,W,53.74,332.96,230310,,*22
$GPRMC,003756.592,A,3340.2608,N,11608.6973,W,53.10,332.26,230310,,*27
$GPRMC,003757.592,A,3340.2735,N,11608.7058,W,52.52,331.45,230310,,*29
$GPRMC,003758.592,A,3340.2862,N,11608.7143,W,51.96,330.66,230310,,*2B
$GPRMC,003759.592,A,3340.2985,N,11608.7230,W,51.24,330.45,230310,,*2D
$GPRMC,003800.592,A,3340.3107,N,11608.7315,W,50.68,330.08,230310,,*2B
$GPRMC,003801.592,A,3340.3226,N,11608.7399,W,49.95,329.23,230310,,*25
$GPRMC,003803.592,A,3340.3458,N,11608.7572,W,48.55,328.02,230310,,*24
$GPRMC,003804.592,A,3340.3570,N,11608.7658,W,47.00,327.35,230310,,*27
$GPRMC,003805.592,A,3340.3675,N,11608.7742,W,44.27,326.61,230310,,*2C
$GPRMC,003806.592,A,3340.3770,N,11608.7823,W,41.09,325.71,230310,,*28
$GPRMC,003809.591,A,3340.4007,N,11608.8027,W,29.91,324.64,230310,,*2D
$GPRMC,003810.591,A,3340.4067,N,11608.8080,W,26.31,324.32,230310,,*28
$GPRMC,003811.591,A,3340.4121,N,11608.8128,W,23.60,324.16,230310,,*2E
$GPRMC,003812.591,A,3340.4168,N,11608.8170,W,21.88,324.05,230310,,*2B
$GPRMC,003813.591,A,3340.4211,N,11608.8208,W,19.48,323.97,230310,,*20
$GPRMC,003814.591,A,3340.4246,N,11608.8241,W,15.95,323.84,230310,,*26
$GPRMC,003815.591,A,3340.4275,N,11608.8266,W,12.12,323.72,230310,,*23
$GPRMC,003816.591,A,3340.4295,N,11608.8285,W,8.80,323.48,230310,,*1A
$GPRMC,003833.590,A,3340.4351,N,11608.8344,W,8.65,321.83,230310,,*17
$GPRMC,003834.590,A,3340.4376,N,11608.8366,W,11.59,322.21,230310,,*29
$GPRMC,003835.590,A,3340.4406,N,11608.8394,W,14.24,322.52,230310,,*2E
$GPRMC,003836.590,A,3340.4442,N,11608.8428,W,16.79,321.97,230310,,*2D
$GPRMC,003839.590,A,3340.4579,N,11608.8558,W,23.39,321.09,230310,,*28
$GPRMC,003840.589,A,3340.4633,N,11608.8611,W,25.29,320.62,230310,,*26
$GPRMC,003841.589,A,3340.4690,N,11608.8667,W,26.91,320.31,230310,,*29
$GPRMC,003842.589,A,3340.4750,N,11608.8727,W,28.42,320.21,230310,,*23
$GPRMC,003843.589,A,3340.4814,N,11608.8791,W,29.93,320.18,230310,,*27
$GPRMC,003844.589,A,3340.4880,N,11608.8858,W,31.34,319.96,230310,,*2F
$GPRMC,003845.589,A,3340.4949,N,11608.8929,W,32.63,319.29,230310,,*28
$GPRMC,003846.589,A,3340.5020,N,11608.9003,W,33.93,318.64,230310,,*2A
$GPRMC,003848.589,A,3340.5168,N,11608.9164,W,36.52,317.38,230310,,*27
$GPRMC,003849.589,A,3340.5245,N,11608.9250,W,37.77,317.09,230310,,*2A
$GPRMC,003850.589,A,3340.5324,N,11608.9340,W,38.96,316.35,230310,,*2A
$GPRMC,003851.589,A,3340.5411,N,11608.9434,W,40.23,316.05,230310,,*2C
$GPRMC,003854.589,A,3340.5662,N,11608.9736,W,43.35,314.97,230310,,*23
$GPRMC,003855.588,A,3340.5748,N,11608.9841,W,44.19,314.39,230310,,*28
$GPRMC,003856.588,A,3340.5835,N,11608.9947,W,44.89,313.90,230310,,*24
$GPRMC,003857.588,A,3340.5923,N,11609.0056,W,45.61,313.84,230310,,*20
$GPRMC,003858.588,A,3340.6013,N,11609.0167,W,46.22,313.65,230310,,*2E
$GPRMC,003859.588,A,3340.6103,N,11609.0282,W,47.10,313.69,230310,,*2B
$GPRMC,003900.588,A,3340.6195,N,11609.0398,W,47.80,313.71,230310,,*23
$GPRMC,003901.588,A,3340.6288,N,11609.0515,W,48.47,313.76,230310,,*2D
$GPRMC,003903.588,A,3340.6481,N,11609.0754,W,49.60,314.31,230310,,*27
$GPRMC,003904.588,A,3340.6579,N,11609.0874,W,50.01,313.91,230310,,*29
$GPRMC,003905.588,A,3340.6676,N,11609.0997,W,50.47,313.78,230310,,*2D
$GPRMC,003906.588,A,3340.6775,N,11609.1120,W,51.25,313.82,230310,,*29
$GPRMC,003909.588,A,3340.7071,N,11609.1502,W,51.53,312.47,230310,,*29
$GPRMC,003910.588,A,3340.7167,N,11609.1627,W,50.65,313.12,230310,,*26
$GPRMC,003911.587,A,3340.7263,N,11609.1750,W,50.11,313.35,230310,,*28
$GPRMC,003912.587,A,3340.7358,N,11609.1871,W,49.76,313.93,230310,,*2B
$GPRMC,003913.587,A,3340.7449,N,11609.1991,W,49.46,313.81,230310,,*22
$GPRMC,003914.587,A,3340.7544,N,11609.2111,W,49.60,313.46,230310,,*25
$GPRMC,003915.587,A,3340.7640,N,11609.2232,W,49.52,313.43,230310,,*25
$GPRMC,003916.587,A,3340.7736,N,11609.2351,W,49.68,313.86,230310,,*22
$GPRMC,003918.587,A,3340.7929,N,11609.2592,W,49.82,313.17,230310,,*29
$GPRMC,003919.587,A,3340.8025,N,11609.2712,W,49.70,313.39,230310,,*29
$GPRMC,003920.587,A,3340.8124,N,11609.2831,W,49.52,313.87,230310,,*28
$GPRMC,003921.587,A,3340.8220,N,11609.2951,W,49.95,313.65,230310,,*2E
$GPRMC,003924.587,A,3340.8507,N,11609.3313,W,49.57,313.63,230310,,*2C
$GPRMC,003925.587,A,3340.8601,N,11609.3432,W,49.22,313.66,230310,,*2B
$GPRMC,003926.586,A,3340.8692,N,11609.3550,W,49.00,313.24,230310,,*20
$GPRMC,003927.586,A,3340.8785,N,11609.3669,W,48.92,313.00,230310,,*23
$GPRMC,003928.586,A,3340.8881,N,11609.3789,W,49.31,313.65,230310,,*23
$GPRMC,003929.586,A,3340.8981,N,11609.3908,W,49.59,313.71,230310,,*2F
$GPRMC,003930.586,A,3340.9078,N,11609.4027,W,49.66,313.52,230310,,*27
$GPRMC,003931.586,A,3340.9175,N,11609.4147,W,50.06,313.66,230310,,*24
$GPRMC,003933.586,A,3340.9371,N,11609.4391,W,50.58,313.43,230310,,*25
$GPRMC,003934.586,A,3340.9471,N,11609.4514,W,50.52,313.49,230310,,*2E
$GPRMC,003935.586,A,3340.9568,N,11609.4635,W,49.97,313.56,230310,,*29
$GPRMC,003936.586,A,3340.9663,N,11609.4756,W,49.46,313.60,230310,,*2F
$GPRMC,003939.586,A,3340.9945,N,11609.5107,W,47.84,313.59,230310,,*22
$GPRMC,003940.586,A,3341.0035,N,11609.5221,W,47.18,313.76,230310,,*25
$GPRMC,003941.586,A,3341.0126,N,11609.5333,W,46.69,313.59,230310,,*2F
$GPRMC,003942.585,A,3341.0216,N,11609.5446,W,45.97,313.16,230310,,*23
$GPRMC,003943.585,A,3341.0303,N,11609.5557,W,45.34,313.20,230310,,*2A
$GPRMC,003944.585,A,3341.0391,N,11609.5666,W,44.98,313.49,230310,,*2F
$GPRMC,003945.585,A,3341.0478,N,11609.5775,W,45.13,313.66,230310,,*22
$GPRMC,003946.585,A,3341.0566,N,11609.5885,W,45.66,313.53,230310,,*2B
$GPRMC,003948.585,A,3341.0746,N,11609.6107,W,46.14,313.77,230310,,*25
$GPRMC,003949.585,A,3341.0835,N,11609.6218,W,46.22,313.84,230310,,*2B
$GPRMC,003950.585,A,3341.0924,N,11609.6328,W,46.24,313.71,230310,,*2C
$GPRMC,003951.585,A,3341.1009,N,11609.6441,W,46.41,313.69,230310,,*28
$GPRMC,003954.585,A,3341.1279,N,11609.6783,W,47.39,313.28,230310,,*2E
$GPRMC,003955.585,A,3341.1353,N,11609.6877,W,47.75,313.63,230310,,*25
$GPRMC,003956.585,A,3341.1446,N,11609.6993,W,48.20,313.74,230310,,*27
$GPRMC,003957.584,A,3341.1540,N,11609.7111,W,48.62,313.49,230310,,*2B
$GPRMC,003958.584,A,3341.1636,N,11609.7230,W,49.06,313.51,230310,,*2C
$GPRMC,003959.584,A,3341.1733,N,11609.7350,W,49.50,313.63,230310,,*2C
$GPRMC,004000.584,A,3341.1834,N,11609.7469,W,49.84,313.88,230310,,*27
$GPRMC,004001.584,A,3341.1933,N,11609.7590,W,50.28,313.98,230310,,*28
$GPRMC,004003.584,A,3341.2131,N,11609.7834,W,50.84,313.75,230310,,*25
$GPRMC,004004.584,A,3341.2232,N,11609.7958,W,51.08,313.93,230310,,*24
$GPRMC,004005.584,A,3341.2332,N,11609.8081,W,51.35,313.93,230310,,*28
$GPRMC,004006.584,A,3341.2434,N,11609.8205,W,51.61,314.02,230310,,*2A
$GPRMC,004009.584,A,3341.2734,N,11609.8579,W,51.71,313.38,230310,,*25
$GPRMC,004010.584,A,3341.2833,N,11609.8705,W,51.55,313.00,230310,,*21
$GPRMC,004011.584,A,3341.2932,N,11609.8830,W,51.51,313.52,230310,,*2A
$GPRMC,004012.584,A,3341.3031,N,11609.8955,W,51.50,313.62,230310,,*22
$GPRMC,004013.583,A,3341.3132,N,11609.9079,W,51.49,313.84,230310,,*20
$GPRMC,004014.583,A,3341.3232,N,11609.9203,W,51.46,313.72,230310,,*2D
$GPRMC,004015.583,A,3341.3332,N,11609.9328,W,51.68,313.83,230310,,*27
$GPRMC,004016.583,A,3341.3432,N,11609.9453,W,51.85,313.65,230310,,*23
$GPRMC,004018.583,A,3341.3636,N,11609.9703,W,52.37,313.95,230310,,*28
$GPRMC,004019.583,A,3341.3737,N,11609.9829,W,52.54,313.96,230310,,*28
$GPRMC,004020.583,A,3341.3840,N,11609.9955,W,52.77,314.17,230310,,*28
$GPRMC,004021.583,A,3341.3948,N,11610.0082,W,54.03,315.10,230310,,*21
$GPRMC,004024.583,A,3341.4275,N,11610.0469,W,56.03,316.64,230310,,*25
$GPRMC,004025.583,A,3341.4390,N,11610.0597,W,56.30,317.07,230310,,*2A
$GPRMC,004026.583,A,3341.4505,N,11610.0724,W,56.20,317.94,230310,,*22
$GPRMC,004027.583,A,3341.4620,N,11610.0848,W,55.84,318.77,230310,,*2D
$GPRMC,004028.582,A,3341.4738,N,11610.0970,W,55.25,319.36,230310,,*2E
$GPRMC,004029.582,A,3341.4854,N,11610.1088,W,54.91,319.63,230310,,*2B
$GPRMC,004030.582,A,3341.4970,N,11610.1206,W,54.65,319.88,230310,,*2E
$GPRMC,004031.582,A,3341.5086,N,11610.1322,W,54.46,320.22,230310,,*22
$GPRMC,004033.582,A,3341.5324,N,11610.1549,W,54.98,321.70,230310,,*25
$GPRMC,004034.582,A,3341.5446,N,11610.1661,W,55.15,322.14,230310,,*2D
$GPRMC,004035.582,A,3341.5568,N,11610.1772,W,55.24,322.87,230310,,*2A
$GPRMC,004036.582,A,3341.5691,N,11610.1881,W,55.21,323.41,230310,,*21
$GPRMC,004039.582,A,3341.6063,N,11610.2200,W,54.88,325.03,230310,,*24
$GPRMC,004040.582,A,3341.6189,N,11610.2304,W,54.85,325.48,230310,,*28
$GPRMC,004041.582,A,3341.6314,N,11610.2406,W,54.94,326.11,230310,,*25
$GPRMC,004042.582,A,3341.6440,N,11610.2507,W,54.91,326.75,230310,,*27
$GPRMC,004043.581,A,3341.6568,N,11610.2606,W,55.07,327.01,230310,,*20
$GPRMC,004044.581,A,3341.6697,N,11610.2706,W,54.90,327.21,230310,,*28
$GPRMC,004045.581,A,3341.6826,N,11610.2804,W,54.86,327.74,230310,,*27
$GPRMC,004046.581,A,3341.6955,N,11610.2900,W,54.87,328.32,230310,,*28
$GPRMC,004048.581,A,3341.7216,N,11610.3090,W,54.74,329.07,230310,,*21
$GPRMC,004049.581,A,3341.7346,N,11610.3181,W,54.55,329.91,230310,,*29
$GPRMC,004050.581,A,3341.7477,N,11610.3270,W,54.53,330.53,230310,,*29
$GPRMC,004051.581,A,3341.7611,N,11610.3358,W,54.85,331.42,230310,,*2B
$GPRMC,004054.581,A,3341.8021,N,11610.3612,W,55.10,333.10,230310,,*27
$GPRMC,004055.581,A,3341.8163,N,11610.3694,W,55.21,333.52,230310,,*2B
$GPRMC,004056.581,A,3341.8304,N,11610.3773,W,55.35,334.03,230310,,*25
$GPRMC,004057.581,A,3341.8445,N,11610.3854,W,55.29,333.88,230310,,*25
$GPRMC,004058.581,A,3341.8585,N,11610.3936,W,55.19,333.61,230310,,*26
$GPRMC,004059.580,A,3341.8722,N,11610.4018,W,55.23,333.47,230310,,*26
$GPRMC,004100.580,A,3341.8859,N,11610.4101,W,55.01,333.25,230310,,*25
$GPRMC,004101.580,A,3341.8995,N,11610.4183,W,54.84,333.12,230310,,*27
$GPRMC,004103.580,A,3341.9271,N,11610.4347,W,54.99,333.95,230310,,*2C
$GPRMC,004104.580,A,3341.9410,N,11610.4426,W,55.11,334.08,230310,,*28
$GPRMC,004105.580,A,3341.9549,N,11610.4507,W,55.19,333.84,230310,,*2D
$GPRMC,004106.580,A,3341.9688,N,11610.4588,W,55.24,333.88,230310,,*25
$GPRMC,004109.580,A,3342.0100,N,11610.4833,W,55.29,333.36,230310,,*22
$GPRMC,004110.580,A,3342.0240,N,11610.4916,W,55.06,333.69,230310,,*2C
$GPRMC,004111.580,A,3342.0377,N,11610.4999,W,55.04,333.16,230310,,*25
$GPRMC,004112.580,A,3342.0513,N,11610.5081,W,55.01,333.44,230310,,*21
$GPRMC,004113.580,A,3342.0651,N,11610.5162,W,54.95,333.75,230310,,*27
$GPRMC,004114.579,A,3342.0788,N,11610.5243,W,54.96,333.74,230310,,*21
$GPRMC,004115.579,A,3342.0926,N,11610.5324,W,55.14,333.78,230310,,*2D
$GPRMC,004116.579,A,3342.1063,N,11610.5405,W,55.11,333.86,230310,,*27
$GPRMC,004118.579,A,3342.1334,N,11610.5566,W,53.82,333.58,230310,,*23
$GPRMC,004119.579,A,3342.1467,N,11610.5646,W,53.08,333.42,230310,,*2B
$GPRMC,004120.579,A,3342.1598,N,11610.5726,W,52.32,333.18,230310,,*20
$GPRMC,004121.579,A,3342.1727,N,11610.5803,W,51.44,332.98,230310,,*24
$GPRMC,004124.579,A,3342.2098,N,11610.6037,W,49.48,331.42,230310,,*2C
$GPRMC,004125.579,A,3342.2217,N,11610.6116,W,49.03,330.32,230310,,*23
$GPRMC,004126.579,A,3342.2334,N,11610.6197,W,48.64,329.63,230310,,*25
$GPRMC,004127.579,A,3342.2450,N,11610.6278,W,48.39,329.13,230310,,*2C
$GPRMC,004128.579,A,3342.2565,N,11610.6362,W,48.11,328.36,230310,,*22
$GPRMC,004129.579,A,3342.2679,N,11610.6447,W,47.76,328.18,230310,,*2F
$GPRMC,004130.578,A,3342.2792,N,11610.6530,W,47.36,327.87,230310,,*2E
$GPRMC,004131.578,A,3342.2903,N,11610.6613,W,46.86,328.17,230310,,*27
$GPRMC,004133.578,A,3342.3123,N,11610.6771,W,45.51,329.03,230310,,*26
$GPRMC,004134.578,A,3342.3230,N,11610.6847,W,44.40,328.92,230310,,*22
$GPRMC,004135.578,A,3342.3336,N,11610.6923,W,43.34,328.58,230310,,*25
$GPRMC,004136.578,A,3342.3436,N,11610.7000,W,42.68,327.11,230310,,*22
$GPRMC,004139.578,A,3342.3711,N,11610.7235,W,40.21,323.20,230310,,*26
$GPRMC,004140.578,A,3342.3798,N,11610.7316,W,39.67,321.72,230310,,*20
$GPRMC,004141.578,A,3342.3883,N,11610.7399,W,39.13,320.29,230310,,*2F
$GPRMC,004142.578,A,3342.3965,N,11610.7482,W,38.78,319.46,230310,,*27
$GPRMC,004143.578,A,3342.4045,N,11610.7566,W,38.41,319.40,230310,,*2D
$GPRMC,004144.578,A,3342.4126,N,11610.7649,W,37.97,319.45,230310,,*21
$GPRMC,004145.577,A,3342.4205,N,11610.7731,W,37.85,320.04,230310,,*2F
$GPRMC,004146.577,A,3342.4284,N,11610.7812,W,37.00,320.28,230310,,*28
$GPRMC,004148.577,A,3342.4436,N,11610.7966,W,34.10,319.29,230310,,*22
$GPRMC,004149.577,A,3342.4505,N,11610.8039,W,32.11,318.96,230310,,*2C
$GPRMC,004150.577,A,3342.4569,N,11610.8106,W,29.90,318.88,230310,,*2F
$GPRMC,004151.577,A,3342.4629,N,11610.8168,W,27.41,319.20,230310,,*20
$GPRMC,004154.577,A,3342.4765,N,11610.8315,W,18.24,319.02,230310,,*2B
$GPRMC,004155.577,A,3342.4799,N,11610.8351,W,15.98,318.80,230310,,*28
$GPRMC,004156.577,A,3342.4828,N,11610.8381,W,13.77,320.25,230310,,*20
$GPRMC,004157.577,A,3342.4854,N,11610.8405,W,11.71,321.65,230310,,*20
$GPRMC,004158.577,A,3342.4875,N,11610.8424,W,9.60,322.30,230310,,*15
$GPRMC,004159.577,A,3342.4892,N,11610.8438,W,7.35,323.68,230310,,*12
$GPRMC,004200.577,A,3342.4905,N,11610.8448,W,5.65,325.45,230310,,*1B
$GPRMC,004203.576,A,3342.4934,N,11610.8466,W,4.59,342.64,230310,,*1B
$GPRMC,004204.576,A,3342.4946,N,11610.8468,W,5.22,352.51,230310,,*1D
$GPRMC,004205.576,A,3342.4963,N,11610.8466,W,7.59,008.53,230310,,*15
$GPRMC,004206.576,A,3342.4984,N,11610.8456,W,8.40,023.84,230310,,*18
$GPRMC,004209.576,A,3342.5043,N,11610.8375,W,13.30,050.95,230310,,*2B
$GPRMC,004210.576,A,3342.5070,N,11610.8337,W,16.00,046.52,230310,,*2F
$GPRMC,004211.576,A,3342.5103,N,11610.8292,W,17.95,046.38,230310,,*24
$GPRMC,004212.576,A,3342.5141,N,11610.8241,W,19.83,045.25,230310,,*29
$GPRMC,004213.576,A,3342.5187,N,11610.8188,W,21.53,044.69,230310,,*2B
$GPRMC,004214.576,A,3342.5230,N,11610.8133,W,22.90,044.78,230310,,*2F
$GPRMC,004215.576,A,3342.5274,N,11610.8076,W,23.79,045.71,230310,,*20
$GPRMC,004216.575,A,3342.5321,N,11610.8015,W,24.83,046.06,230310,,*25
$GPRMC,004218.575,A,3342.5425,N,11610.7887,W,27.24,044.86,230310,,*20
$GPRMC,004219.575,A,3342.5480,N,11610.7820,W,27.98,045.34,230310,,*2C
$GPRMC,004220.575,A,3342.5537,N,11610.7752,W,29.08,044.65,230310,,*23
$GPRMC,004221.575,A,3342.5595,N,11610.7682,W,29.46,045.56,230310,,*2D
$GPRMC,004224.575,A,3342.5775,N,11610.7462,W,31.75,045.30,230310,,*21
$GPRMC,004225.575,A,3342.5839,N,11610.7386,W,32.26,045.15,230310,,*28
$GPRMC,004226.575,A,3342.5904,N,11610.7309,W,32.66,044.55,230310,,*22
$GPRMC,004227.575,A,3342.5968,N,11610.7233,W,32.61,044.94,230310,,*2B
$GPRMC,004228.575,A,3342.6033,N,11610.7155,W,32.75,044.97,230310,,*25
$GPRMC,004229.575,A,3342.6098,N,11610.7078,W,32.98,044.93,230310,,*2C
$GPRMC,004230.575,A,3342.6164,N,11610.6999,W,33.11,045.06,230310,,*2C
$GPRMC,004231.574,A,3342.6229,N,11610.6921,W,33.06,045.05,230310,,*20
$GPRMC,004233.574,A,3342.6360,N,11610.6765,W,33.07,045.12,230310,,*27
$GPRMC,004234.574,A,3342.6426,N,11610.6685,W,33.46,045.32,230310,,*2D
$GPRMC,004235.574,A,3342.6493,N,11610.6605,W,33.74,045.56,230310,,*29
$GPRMC,004236.574,A,3342.6560,N,11610.6523,W,34.25,045.40,230310,,*24
$GPRMC,004239.574,A,3342.6771,N,11610.6269,W,35.14,045.43,230310,,*20
$GPRMC,004240.574,A,3342.6841,N,11610.6186,W,35.22,045.08,230310,,*2A
$GPRMC,004241.574,A,3342.6912,N,11610.6102,W,35.53,045.09,230310,,*27
$GPRMC,004242.574,A,3342.6983,N,11610.6017,W,35.75,045.03,230310,,*27
$GPRMC,004243.574,A,3342.7054,N,11610.5933,W,35.59,044.91,230310,,*2C
$GPRMC,004244.574,A,3342.7124,N,11610.5849,W,35.39,044.97,230310,,*21
$GPRMC,004245.574,A,3342.7194,N,11610.5766,W,35.12,045.06,230310,,*29
$GPRMC,004246.574,A,3342.7262,N,11610.5683,W,34.85,045.18,230310,,*2A
$GPRMC,004248.573,A,3342.7400,N,11610.5520,W,34.36,044.85,230310,,*26
$GPRMC,004249.573,A,3342.7468,N,11610.5440,W,34.14,044.61,230310,,*24
$GPRMC,004250.573,A,3342.7536,N,11610.5360,W,34.04,044.79,230310,,*2B
$GPRMC,004251.573,A,3342.7603,N,11610.5280,W,33.78,045.09,230310,,*2A
$GPRMC,004254.573,A,3342.7800,N,11610.5043,W,32.91,045.34,230310,,*27
$GPRMC,004255.573,A,3342.7863,N,11610.4966,W,32.47,045.37,230310,,*24
$GPRMC,004256.573,A,3342.7926,N,11610.4890,W,31.91,045.44,230310,,*23
$GPRMC,004257.573,A,3342.7987,N,11610.4816,W,31.27,045.20,230310,,*28
$GPRMC,004258.573,A,3342.8046,N,11610.4746,W,29.94,045.05,230310,,*20
$GPRMC,004259.573,A,3342.8103,N,11610.4677,W,29.01,044.92,230310,,*21
$GPRMC,004300.573,A,3342.8157,N,11610.4612,W,27.88,044.99,230310,,*2A
$GPRMC,004301.573,A,3342.8210,N,11610.4549,W,26.63,044.78,230310,,*2D
$GPRMC,004303.572,A,3342.8306,N,11610.4432,W,24.05,044.96,230310,,*27
$GPRMC,004304.572,A,3342.8350,N,11610.4378,W,22.76,045.13,230310,,*24
$GPRMC,004305.572,A,3342.8391,N,11610.4327,W,21.26,046.08,230310,,*2D
$GPRMC,004306.572,A,3342.8429,N,11610.4277,W,20.55,047.08,230310,,*2A
$GPRMC,004309.572,A,3342.8540,N,11610.4125,W,20.28,050.17,230310,,*2D
$GPRMC,004310.572,A,3342.8575,N,11610.4071,W,20.45,053.06,230310,,*2B
$GPRMC,004311.572,A,3342.8606,N,11610.4013,W,20.66,057.06,230310,,*2C
$GPRMC,004312.572,A,3342.8633,N,11610.3952,W,20.73,062.51,230310,,*22
$GPRMC,004313.572,A,3342.8655,N,11610.3888,W,20.89,068.30,230310,,*2D
$GPRMC,004314.572,A,3342.8670,N,11610.3821,W,21.05,074.59,230310,,*29
$GPRMC,004315.572,A,3342.8684,N,11610.3749,W,22.16,077.09,230310,,*25
$GPRMC,004316.572,A,3342.8697,N,11610.3675,W,23.05,078.12,230310,,*2C
$GPRMC,004318.571,A,3342.8726,N,11610.3515,W,24.97,077.83,230310,,*24
$GPRMC,004319.571,A,3342.8741,N,11610.3432,W,25.63,077.97,230310,,*2F
$GPRMC,004320.571,A,3342.8757,N,11610.3345,W,26.56,077.64,230310,,*2C
$GPRMC,004321.571,A,3342.8772,N,11610.3257,W,27.10,078.20,230310,,*24
$GPRMC,004324.571,A,3342.8820,N,11610.2971,W,29.98,078.42,230310,,*2D
$GPRMC,004325.571,A,3342.8836,N,11610.2870,W,30.90,078.94,230310,,*20
$GPRMC,004326.571,A,3342.8850,N,11610.2766,W,31.65,079.78,230310,,*23
$GPRMC,004327.571,A,3342.8852,N,11610.2664,W,32.35,081.11,230310,,*2D
$GPRMC,004328.571,A,3342.8867,N,11610.2558,W,32.58,082.31,230310,,*22
$GPRMC,004329.571,A,3342.8879,N,11610.2451,W,32.55,082.43,230310,,*2C
$GPRMC,004330.571,A,3342.8888,N,11610.2341,W,32.45,083.88,230310,,*2B
$GPRMC,004331.571,A,3342.8895,N,11610.2232,W,32.77,085.55,230310,,*24
$GPRMC,004333.570,A,3342.8902,N,11610.2010,W,33.24,086.77,230310,,*2E
$GPRMC,004334.570,A,3342.8906,N,11610.1897,W,33.70,087.02,230310,,*2B
$GPRMC,004335.570,A,3342.8911,N,11610.1783,W,34.84,087.72,230310,,*2D
$GPRMC,004336.570,A,3342.8912,N,11610.1663,W,36.52,089.51,230310,,*24
$GPRMC,004339.570,A,3342.8902,N,11610.1288,W,38.83,094.34,230310,,*26
$GPRMC,004340.570,A,3342.8893,N,11610.1158,W,39.75,094.95,230310,,*2C
$GPRMC,004341.570,A,3342.8881,N,11610.1025,W,40.59,095.15,230310,,*2C
$GPRMC,004342.570,A,3342.8870,N,11610.0888,W,41.35,095.83,230310,,*2B
$GPRMC,004343.570,A,3342.8857,N,11610.0749,W,42.07,097.08,230310,,*2E
$GPRMC,004344.570,A,3342.8841,N,11610.0609,W,42.60,098.14,230310,,*28
$GPRMC,004345.570,A,3342.8820,N,11610.0469,W,42.99,100.30,230310,,*2A
$GPRMC,004346.570,A,3342.8793,N,11610.0327,W,43.85,102.53,230310,,*28
$GPRMC,004348.570,A,3342.8734,N,11610.0040,W,44.88,104.57,230310,,*21
$GPRMC,004349.569,A,3342.8700,N,11609.9894,W,45.47,105.64,230310,,*2C
$GPRMC,004350.569,A,3342.8662,N,11609.9748,W,46.01,106.70,230310,,*28
$GPRMC,004351.569,A,3342.8621,N,11609.9601,W,46.52,108.23,230310,,*2C
$GPRMC,004354.569,A,3342.8496,N,11609.9153,W,47.90,110.01,230310,,*21
$GPRMC,004355.569,A,3342.8447,N,11609.9003,W,48.41,109.85,230310,,*2F
$GPRMC,004356.569,A,3342.8400,N,11609.8851,W,48.87,110.02,230310,,*2C
$GPRMC,004357.569,A,3342.8352,N,11609.8698,W,49.49,109.90,230310,,*26
$GPRMC,004358.569,A,3342.8308,N,11609.8540,W,49.94,109.72,230310,,*2C
$GPRMC,004359.569,A,3342.8263,N,11609.8382,W,50.40,109.68,230310,,*23
$GPRMC,004400.569,A,3342.8217,N,11609.8222,W,50.84,109.70,230310,,*21
$GPRMC,004401.569,A,3342.8169,N,11609.8061,W,51.27,110.07,230310,,*2F
$GPRMC,004403.569,A,3342.8071,N,11609.7738,W,51.92,110.04,230310,,*2C
$GPRMC,004404.568,A,3342.8021,N,11609.7575,W,52.34,109.94,230310,,*2A
$GPRMC,004405.568,A,3342.7970,N,11609.7410,W,52.68,109.97,230310,,*21
$GPRMC,004406.568,A,3342.7920,N,11609.7244,W,52.99,109.77,230310,,*20
$GPRMC,004409.568,A,3342.7771,N,11609.6744,W,52.76,109.64,230310,,*22
$GPRMC,004410.568,A,3342.7722,N,11609.6579,W,52.41,109.88,230310,,*26
$GPRMC,004411.568,A,3342.7670,N,11609.6415,W,52.34,109.92,230310,,*23
$GPRMC,004412.568,A,3342.7620,N,11609.6251,W,52.55,110.15,230310,,*23
$GPRMC,004413.568,A,3342.7570,N,11609.6086,W,52.69,109.99,230310,,*2F
$GPRMC,004414.568,A,3342.7521,N,11609.5921,W,52.65,109.68,230310,,*29
$GPRMC,004415.568,A,3342.7471,N,11609.5756,W,52.48,109.80,230310,,*2B
$GPRMC,004416.568,A,3342.7423,N,11609.5591,W,52.35,109.79,230310,,*2A
$GPRMC,004418.568,A,3342.7325,N,11609.5264,W,52.20,109.68,230310,,*2C
$GPRMC,004419.567,A,3342.7276,N,11609.5101,W,52.20,109.82,230310,,*21
$GPRMC,004420.567,A,3342.7226,N,11609.4937,W,52.30,109.93,230310,,*23
$GPRMC,004421.567,A,3342.7176,N,11609.4773,W,52.44,109.93,230310,,*29
$GPRMC,004424.567,A,3342.7025,N,11609.4281,W,52.55,109.92,230310,,*22
$GPRMC,004425.567,A,3342.6975,N,11609.4116,W,52.52,109.92,230310,,*24
$GPRMC,004426.567,A,3342.6925,N,11609.3952,W,52.38,110.05,230310,,*27
$GPRMC,004427.567,A,3342.6876,N,11609.3789,W,52.15,110.07,230310,,*24
$GPRMC,004428.567,A,3342.6827,N,11609.3626,W,52.06,109.88,230310,,*26
$GPRMC,004429.567,A,3342.6777,N,11609.3464,W,52.04,109.57,230310,,*29
$GPRMC,004430.567,A,3342.6728,N,11609.3301,W,51.95,110.04,230310,,*2A
$GPRMC,004431.567,A,3342.6679,N,11609.3139,W,52.18,110.18,230310,,*2C
$GPRMC,004433.567,A,3342.6580,N,11609.2813,W,52.20,110.01,230310,,*28
$GPRMC,004434.567,A,3342.6531,N,11609.2649,W,52.39,110.04,230310,,*29
$GPRMC,004435.566,A,3342.6482,N,11609.2486,W,52.34,109.95,230310,,*2C
$GPRMC,004436.566,A,3342.6433,N,11609.2322,W,52.34,109.55,230310,,*20
$GPRMC,004439.566,A,3342.6285,N,11609.1831,W,52.41,109.97,230310,,*22
$GPRMC,004440.566,A,3342.6235,N,11609.1668,W,52.39,109.65,230310,,*27
$GPRMC,004441.566,A,3342.6186,N,11609.1504,W,52.44,109.82,230310,,*27
$GPRMC,004442.566,A,3342.6137,N,11609.1339,W,52.63,109.71,230310,,*2F
$GPRMC,004443.566,A,3342.6087,N,11609.1175,W,52.43,110.18,230310,,*2B
$GPRMC,004444.566,A,3342.6037,N,11609.1011,W,52.54,110.03,230310,,*28
$GPRMC,004445.566,A,3342.5987,N,11609.0847,W,52.60,110.15,230310,,*22
$GPRMC,004446.566,A,3342.5937,N,11609.0682,W,52.45,110.03,230310,,*2D
$GPRMC,004448.566,A,3342.5840,N,11609.0355,W,52.16,110.30,230310,,*2B
$GPRMC,004449.566,A,3342.5790,N,11609.0192,W,52.27,109.95,230310,,*24
$GPRMC,004450.565,A,3342.5741,N,11609.0029,W,52.12,110.03,230310,,*23
$GPRMC,004451.565,A,3342.5692,N,11608.9866,W,51.92,110.07,230310,,*29
$GPRMC,004454.565,A,3342.5544,N,11608.9380,W,51.94,110.06,230310,,*20
$GPRMC,004455.565,A,3342.5496,N,11608.9218,W,52.04,109.79,230310,,*25
$GPRMC,004456.565,A,3342.5447,N,11608.9055,W,52.30,109.78,230310,,*27
$GPRMC,004457.565,A,3342.5397,N,11608.8891,W,52.59,109.88,230310,,*2D
$GPRMC,004458.565,A,3342.5348,N,11608.8726,W,52.75,109.67,230310,,*2C
$GPRMC,004459.565,A,3342.5299,N,11608.8561,W,52.90,109.47,230310,,*28
$GPRMC,004500.565,A,3342.5250,N,11608.8394,W,53.02,109.65,230310,,*26
$GPRMC,004501.565,A,3342.5200,N,11608.8228,W,53.06,109.64,230310,,*21
$GPRMC,004503.565,A,3342.5102,N,11608.7897,W,52.52,109.63,230310,,*24
$GPRMC,004504.565,A,3342.5054,N,11608.7733,W,52.24,109.66,230310,,*24
$GPRMC,004505.565,A,3342.5005,N,11608.7571,W,52.05,109.91,230310,,*2E
$GPRMC,004506.564,A,3342.4956,N,11608.7408,W,51.96,110.01,230310,,*25
$GPRMC,004509.564,A,3342.4811,N,11608.6919,W,52.36,109.31,230310,,*26
$GPRMC,004510.564,A,3342.4762,N,11608.6754,W,52.43,109.57,230310,,*20
$GPRMC,004511.564,A,3342.4712,N,11608.6590,W,52.41,110.16,230310,,*23
$GPRMC,004512.564,A,3342.4662,N,11608.6426,W,52.73,109.79,230310,,*2A
$GPRMC,004513.564,A,3342.4614,N,11608.6261,W,52.79,109.16,230310,,*2C
$GPRMC,004514.564,A,3342.4567,N,11608.6095,W,52.80,109.04,230310,,*20
$GPRMC,004515.564,A,3342.4519,N,11608.5929,W,52.65,109.26,230310,,*2E
$GPRMC,004516.564,A,3342.4471,N,11608.5764,W,52.50,109.36,230310,,*22
$GPRMC,004518.564,A,3342.4375,N,11608.5436,W,52.19,109.69,230310,,*2C
$GPRMC,004519.564,A,3342.4326,N,11608.5273,W,52.09,109.52,230310,,*25
$GPRMC,004520.564,A,3342.4277,N,11608.5109,W,52.13,109.29,230310,,*23
$GPRMC,004521.563,A,3342.4228,N,11608.4946,W,52.24,109.50,230310,,*27
$GPRMC,004524.563,A,3342.4079,N,11608.4455,W,52.45,110.03,230310,,*22
$GPRMC,004525.563,A,3342.4029,N,11608.4291,W,52.39,109.96,230310,,*27
$GPRMC,004526.563,A,3342.3980,N,11608.4128,W,52.16,110.00,230310,,*22
$GPRMC,004527.563,A,3342.3931,N,11608.3966,W,52.05,110.08,230310,,*26
$GPRMC,004528.563,A,3342.3880,N,11608.3805,W,51.59,110.68,230310,,*2A
$GPRMC,004529.563,A,3342.3831,N,11608.3644,W,51.42,110.21,230310,,*2D
$GPRMC,004530.563,A,3342.3784,N,11608.3484,W,51.39,110.40,230310,,*21
$GPRMC,004531.563,A,3342.3734,N,11608.3324,W,51.30,110.31,230310,,*29
$GPRMC,004533.563,A,3342.3636,N,11608.3001,W,51.91,110.48,230310,,*29
$GPRMC,004534.563,A,3342.3585,N,11608.2839,W,52.07,110.85,230310,,*2A
$GPRMC,004535.563,A,3342.3533,N,11608.2678,W,52.22,111.30,230310,,*25
$GPRMC,004536.563,A,3342.3482,N,11608.2515,W,52.48,111.45,230310,,*2B
$GPRMC,004539.562,A,3342.3325,N,11608.2023,W,53.16,111.16,230310,,*23
$GPRMC,004540.562,A,3342.3272,N,11608.1859,W,53.14,111.44,230310,,*2D
$GPRMC,004541.562,A,3342.3218,N,11608.1695,W,52.87,111.72,230310,,*20
$GPRMC,004542.562,A,3342.3163,N,11608.1533,W,52.46,111.98,230310,,*2A
$GPRMC,004543.562,A,3342.3108,N,11608.1372,W,52.15,111.90,230310,,*2B
$GPRMC,004544.562,A,3342.3053,N,11608.1211,W,51.98,111.89,230310,,*29
$GPRMC,004545.562,A,3342.2998,N,11608.1052,W,51.92,112.22,230310,,*2A
$GPRMC,004546.562,A,3342.2943,N,11608.0893,W,51.74,112.04,230310,,*27
$GPRMC,004548.562,A,3342.2837,N,11608.0574,W,51.87,111.86,230310,,*2A
$GPRMC,004549.562,A,3342.2783,N,11608.0413,W,52.10,111.89,230310,,*29
$GPRMC,004550.562,A,3342.2729,N,11608.0252,W,52.43,111.69,230310,,*2A
$GPRMC,004551.562,A,3342.2676,N,11608.0088,W,52.83,111.54,230310,,*27
$GPRMC,004554.561,A,3342.2529,N,11607.9593,W,52.69,111.79,230310,,*2A
$GPRMC,004555.561,A,3342.2476,N,11607.9430,W,52.30,111.70,230310,,*2D
$GPRMC,004556.561,A,3342.2423,N,11607.9269,W,52.04,111.70,230310,,*23
$GPRMC,004557.561,A,3342.2368,N,11607.9110,W,51.86,112.42,230310,,*2C
$GPRMC,004558.561,A,3342.2313,N,11607.8951,W,51.77,112.05,230310,,*2E
$GPRMC,004559.561,A,3342.2260,N,11607.8792,W,51.57,111.98,230310,,*2E
$GPRMC,004600.561,A,3342.2208,N,11607.8633,W,51.60,112.09,230310,,*2A
$GPRMC,004601.561,A,3342.2153,N,11607.8474,W,51.87,112.12,230310,,*24
$GPRMC,004603.561,A,3342.2046,N,11607.8152,W,52.43,112.07,230310,,*2D
$GPRMC,004604.561,A,3342.1991,N,11607.7990,W,52.70,111.89,230310,,*26
$GPRMC,004605.561,A,3342.1937,N,11607.7827,W,53.05,111.69,230310,,*2B
$GPRMC,004606.561,A,3342.1881,N,11607.7663,W,53.02,111.83,230310,,*29
$GPRMC,004609.560,A,3342.1724,N,11607.7173,W,52.39,109.99,230310,,*2A
$GPRMC,004610.560,A,3342.1676,N,11607.7010,W,52.04,108.67,230310,,*2E
$GPRMC,004611.560,A,3342.1631,N,11607.6845,W,51.93,108.10,230310,,*28
$GPRMC,004612.560,A,3342.1589,N,11607.6681,W,51.92,106.49,230310,,*2E
$GPRMC,004613.560,A,3342.1548,N,11607.6516,W,51.76,105.85,230310,,*26
$GPRMC,004614.560,A,3342.1511,N,11607.6350,W,51.54,105.39,230310,,*2E
$GPRMC,004615.560,A,3342.1476,N,11607.6184,W,51.56,104.50,230310,,*28
$GPRMC,004616.560,A,3342.1442,N,11607.6018,W,51.59,104.20,230310,,*20
$GPRMC,004618.560,A,3342.1374,N,11607.5685,W,51.52,103.64,230310,,*21
$GPRMC,004619.560,A,3342.1340,N,11607.5519,W,51.55,103.48,230310,,*28
$GPRMC,004620.560,A,3342.1307,N,11607.5352,W,51.50,103.16,230310,,*26
$GPRMC,004621.560,A,3342.1274,N,11607.5185,W,51.51,103.05,230310,,*29
$GPRMC,004624.559,A,3342.1187,N,11607.4681,W,51.37,102.68,230310,,*21
$GPRMC,004625.559,A,3342.1155,N,11607.4514,W,51.45,102.65,230310,,*28
$GPRMC,004626.559,A,3342.1124,N,11607.4348,W,51.46,102.90,230310,,*2B
$GPRMC,004627.559,A,3342.1092,N,11607.4181,W,51.57,103.21,230310,,*2A
$GPRMC,004628.559,A,3342.1059,N,11607.4014,W,51.58,103.46,230310,,*21
$GPRMC,004629.559,A,3342.1026,N,11607.3847,W,51.40,103.37,230310,,*2E
$GPRMC,004630.559,A,3342.0993,N,11607.3680,W,51.45,103.15,230310,,*20
$GPRMC,004631.559,A,3342.0963,N,11607.3513,W,51.48,102.46,230310,,*2D
$GPRMC,004633.559,A,3342.0901,N,11607.3179,W,51.41,102.88,230310,,*28
$GPRMC,004634.559,A,3342.0870,N,11607.3013,W,51.37,103.01,230310,,*24
$GPRMC,004635.559,A,3342.0839,N,11607.2845,W,51.38,102.70,230310,,*2A
$GPRMC,004636.559,A,3342.0811,N,11607.2678,W,51.34,102.64,230310,,*2A
$GPRMC,004639.558,A,3342.0716,N,11607.2177,W,51.65,102.48,230310,,*2E
