NMEA Sentence Code,UTC Time,Status,Latitude,Latitude Direction,Longitude,Longitude Direction,Speed (knots),Track Angle (degrees true),Date,MagneticVariation,Magnetic Variation Direction,[FAA Mode]-Optional,Checksum
$GPRMC,153720.6,A,3337.061493,N,11749.194714,W,62.7,151.7,220310,,,A*42
$GPRMC,153723.6,A,3337.012241,N,11749.171848,W,62.6,157.6,220310,,,A*47
$GPRMC,153726.6,A,3336.962915,N,11749.149739,W,62.2,157.8,220310,,,A*4F
$GPRMC,153729.6,A,3336.913197,N,11749.128753,W,61.4,158.7,220310,,,A*4A
$GPRMC,153732.6,A,3336.863645,N,11749.106107,W,62.1,155.1,220310,,,A*48
$GPRMC,153735.6,A,3336.814665,N,11749.077945,W,64.8,150.8,220310,,,A*47
$GPRMC,153738.6,A,3336.769242,N,11749.044157,W,64.2,145.4,220310,,,A*47
$GPRMC,153741.6,A,3336.727242,N,11749.003849,W,64.3,139.8,220310,,,A*40
$GPRMC,153744.6,A,3336.690205,N,11748.958030,W,64.6,133.0,220310,,,A*4C
$GPRMC,153747.6,A,3336.659178,N,11748.906362,W,63.6,126.1,220310,,,A*4E
$GPRMC,153750.6,A,3336.630210,N,11748.849961,W,65.5,120.5,220310,,,A*4E
$GPRMC,153753.6,A,3336.608654,N,11748.791441,W,64.4,113.6,220310,,,A*44
$GPRMC,153756.6,A,3336.589623,N,11748.730325,W,65.2,108.3,220310,,,A*4D
$GPRMC,153759.6,A,3336.576354,N,11748.665464,W,65.4,102.2,220310,,,A*49
$GPRMC,153802.6,A,3336.569635,N,11748.603095,W,65.1,99.7,220310,,,A*7D
$GPRMC,153805.6,A,3336.560341,N,11748.538139,W,65.4,99.8,220310,,,A*73
$GPRMC,153808.6,A,3336.550986,N,11748.472521,W,65.1,99.5,220310,,,A*76
$GPRMC,153811.6,A,3336.541927,N,11748.406488,W,65.7,99.7,220310,,,A*70
$GPRMC,153814.6,A,3336.528157,N,11748.345353,W,65.5,103.6,220310,,,A*45
$GPRMC,153817.6,A,3336.509412,N,11748.282848,W,66.0,110.3,220310,,,A*4B
$GPRMC,153820.6,A,3336.487440,N,11748.223506,W,67.7,116.3,220310,,,A*43
$GPRMC,153823.6,A,3336.462331,N,11748.162939,W,67.6,115.9,220310,,,A*44
$GPRMC,153826.6,A,3336.439053,N,11748.101873,W,67.3,114.5,220310,,,A*4A
$GPRMC,153829.6,A,3336.416177,N,11748.041697,W,67.0,115.0,220310,,,A*49
$GPRMC,153832.6,A,3336.393664,N,11747.982580,W,64.5,114.4,220310,,,A*43
$GPRMC,153835.6,A,3336.372323,N,11747.925317,W,63.4,114.7,220310,,,A*4D
$GPRMC,153838.6,A,3336.349399,N,11747.867612,W,64.1,115.2,220310,,,A*48
$GPRMC,153841.6,A,3336.327742,N,11747.810900,W,63.5,114.9,220310,,,A*49
$GPRMC,153844.6,A,3336.305177,N,11747.753214,W,64.0,114.8,220310,,,A*49
$GPRMC,153847.6,A,3336.282638,N,11747.695547,W,62.8,114.8,220310,,,A*4C
$GPRMC,153850.6,A,3336.260705,N,11747.639368,W,61.2,114.9,220310,,,A*4C
$GPRMC,153853.6,A,3336.238487,N,11747.585062,W,59.6,115.6,220310,,,A*47
$GPRMC,153856.6,A,3336.218136,N,11747.533049,W,57.6,114.8,220310,,,A*4A
$GPRMC,153859.6,A,3336.198222,N,11747.481052,W,57.6,114.4,220310,,,A*46
$GPRMC,153902.6,A,3336.178550,N,11747.429115,W,57.7,113.2,220310,,,A*45
$GPRMC,153905.6,A,3336.161131,N,11747.374911,W,59.1,108.2,220310,,,A*48
$GPRMC,153908.6,A,3336.147202,N,11747.317240,W,61.0,103.8,220310,,,A*43
$GPRMC,153911.6,A,3336.140328,N,11747.258744,W,60.2,98.3,220310,,,A*75
$GPRMC,153914.6,A,3336.134015,N,11747.197799,W,62.0,97.0,220310,,,A*72
$GPRMC,153917.6,A,3336.127170,N,11747.134619,W,64.4,97.9,220310,,,A*7A
$GPRMC,153920.6,A,3336.120181,N,11747.074137,W,62.8,100.1,220310,,,A*44
$GPRMC,153923.6,A,3336.109644,N,11747.013721,W,62.4,103.1,220310,,,A*4D
$GPRMC,153926.6,A,3336.094788,N,11746.953060,W,63.2,107.5,220310,,,A*45
$GPRMC,153929.6,A,3336.074637,N,11746.893610,W,64.6,113.5,220310,,,A*4B
$GPRMC,153932.6,A,3336.047695,N,11746.835274,W,64.5,118.3,220310,,,A*4D
$GPRMC,153935.6,A,3336.019882,N,11746.779732,W,65.1,121.4,220310,,,A*41
$GPRMC,153938.6,A,3335.993029,N,11746.722686,W,64.4,120.0,220310,,,A*4C
$GPRMC,153941.6,A,3335.967474,N,11746.666104,W,64.2,117.5,220310,,,A*4E
$GPRMC,153944.6,A,3335.947511,N,11746.608465,W,62.2,109.3,220310,,,A*4E
$GPRMC,153947.6,A,3335.933321,N,11746.548308,W,63.6,105.7,220310,,,A*4D
$GPRMC,153950.6,A,3335.925134,N,11746.486956,W,63.4,99.0,220310,,,A*79
$GPRMC,153953.6,A,3335.922709,N,11746.423137,W,64.2,95.2,220310,,,A*7A
$GPRMC,153956.6,A,3335.918066,N,11746.356487,W,64.6,95.3,220310,,,A*76
$GPRMC,153959.6,A,3335.912552,N,11746.295687,W,63.3,97.3,220310,,,A*7D
$GPRMC,154002.6,A,3335.902281,N,11746.237192,W,62.0,101.5,220310,,,A*44
$GPRMC,154005.6,A,3335.888169,N,11746.178969,W,62.4,107.9,220310,,,A*4F
$GPRMC,154008.6,A,3335.867610,N,11746.122669,W,61.7,114.0,220310,,,A*41
$GPRMC,154011.6,A,3335.834622,N,11746.065698,W,63.5,122.2,220310,,,A*45
$GPRMC,154014.6,A,3335.801545,N,11746.012731,W,63.4,127.2,220310,,,A*42
$GPRMC,154017.6,A,3335.768979,N,11745.964184,W,63.0,131.5,220310,,,A*45
$GPRMC,154020.6,A,3335.736161,N,11745.915405,W,63.0,129.4,220310,,,A*49
$GPRMC,154023.6,A,3335.700783,N,11745.869066,W,65.2,129.6,220310,,,A*48
$GPRMC,154026.6,A,3335.667858,N,11745.821146,W,62.1,129.0,220310,,,A*49
$GPRMC,154029.6,A,3335.635354,N,11745.775919,W,57.7,131.5,220310,,,A*46
$GPRMC,154032.6,A,3335.604133,N,11745.739870,W,52.5,136.9,220310,,,A*47
$GPRMC,154035.6,A,3335.571582,N,11745.708376,W,49.0,141.9,220310,,,A*4F
$GPRMC,154038.6,A,3335.534172,N,11745.689819,W,47.6,157.1,220310,,,A*45
$GPRMC,154041.6,A,3335.500761,N,11745.672189,W,42.8,152.4,220310,,,A*47
$GPRMC,154044.6,A,3335.473082,N,11745.651530,W,38.2,147.4,220310,,,A*49
$GPRMC,154047.6,A,3335.461289,N,11745.622049,W,30.4,124.1,220310,,,A*41
$GPRMC,154050.6,A,3335.462032,N,11745.591248,W,25.9,99.1,220310,,,A*70
$GPRMC,154053.6,A,3335.466168,N,11745.573364,W,16.3,66.0,220310,,,A*71
$GPRMC,154056.6,A,3335.480109,N,11745.561487,W,19.4,27.8,220310,,,A*77
$GPRMC,154059.6,A,3335.502719,N,11745.560548,W,27.2,3.6,220310,,,A*44
$GPRMC,154102.6,A,3335.528006,N,11745.563014,W,30.0,357.6,220310,,,A*43
$GPRMC,154105.6,A,3335.554109,N,11745.570673,W,28.1,350.7,220310,,,A*4A
$GPRMC,154108.6,A,3335.572015,N,11745.573399,W,19.8,348.8,220310,,,A*40
$GPRMC,154111.6,A,3335.581818,N,11745.576314,W,10.3,2.4,220310,,,A*42
$GPRMC,154132.6,A,3335.591309,N,11745.580737,W,8.7,344.6,220310,,,A*7B
$GPRMC,154135.6,A,3335.603762,N,11745.584075,W,16.9,345.4,220310,,,A*4A
$GPRMC,154138.6,A,3335.620382,N,11745.591762,W,25.7,344.3,220310,,,A*41
$GPRMC,154141.6,A,3335.644677,N,11745.601235,W,32.8,342.4,220310,,,A*47
$GPRMC,154144.6,A,3335.672967,N,11745.611138,W,37.0,342.8,220310,,,A*47
$GPRMC,154147.6,A,3335.705633,N,11745.624678,W,40.7,342.2,220310,,,A*43
$GPRMC,154150.6,A,3335.739176,N,11745.637467,W,42.8,342.1,220310,,,A*4C
$GPRMC,154153.6,A,3335.774797,N,11745.652438,W,45.9,341.6,220310,,,A*44
$GPRMC,154156.6,A,3335.814245,N,11745.667230,W,49.8,341.9,220310,,,A*48
$GPRMC,154159.6,A,3335.853762,N,11745.682029,W,50.9,342.0,220310,,,A*46
$GPRMC,154202.6,A,3335.894744,N,11745.699564,W,52.1,341.2,220310,,,A*49
$GPRMC,154205.6,A,3335.935863,N,11745.715741,W,52.8,341.7,220310,,,A*42
$GPRMC,154208.6,A,3335.979180,N,11745.732852,W,53.8,342.9,220310,,,A*47
$GPRMC,154211.6,A,3336.023310,N,11745.745478,W,52.8,349.5,220310,,,A*43
$GPRMC,154214.6,A,3336.069262,N,11745.749162,W,54.9,357.4,220310,,,A*47
$GPRMC,154217.6,A,3336.116172,N,11745.745748,W,55.8,4.6,220310,,,A*4A
$GPRMC,154220.6,A,3336.161229,N,11745.735337,W,55.4,12.7,220310,,,A*72
$GPRMC,154223.6,A,3336.205191,N,11745.715381,W,56.1,21.2,220310,,,A*7C
$GPRMC,154226.6,A,3336.247036,N,11745.692151,W,55.4,25.6,220310,,,A*74
$GPRMC,154229.6,A,3336.289731,N,11745.665285,W,56.7,25.2,220310,,,A*7F
$GPRMC,154232.6,A,3336.333339,N,11745.645739,W,56.2,18.2,220310,,,A*72
$GPRMC,154235.6,A,3336.378134,N,11745.632221,W,54.6,10.3,220310,,,A*76
$GPRMC,154238.6,A,3336.423706,N,11745.628435,W,54.2,2.7,220310,,,A*4E
$GPRMC,154241.6,A,3336.468849,N,11745.631390,W,53.7,354.5,220310,,,A*4B
$GPRMC,154244.6,A,3336.513770,N,11745.640276,W,56.5,347.6,220310,,,A*4F
$GPRMC,154247.6,A,3336.560639,N,11745.653087,W,57.5,347.1,220310,,,A*4C
$GPRMC,154250.6,A,3336.608758,N,11745.663751,W,58.2,350.0,220310,,,A*41
$GPRMC,154253.6,A,3336.657319,N,11745.670696,W,59.5,355.6,220310,,,A*44
$GPRMC,154256.6,A,3336.706778,N,11745.671053,W,59.5,1.8,220310,,,A*45
$GPRMC,154259.6,A,3336.755899,N,11745.664426,W,59.4,8.1,220310,,,A*4F
$GPRMC,154302.6,A,3336.804175,N,11745.650770,W,60.2,13.9,220310,,,A*79
$GPRMC,154305.6,A,3336.851889,N,11745.629956,W,61.3,20.4,220310,,,A*7D
$GPRMC,154308.6,A,3336.897946,N,11745.606039,W,59.5,26.4,220310,,,A*7E
$GPRMC,154311.6,A,3336.940887,N,11745.573099,W,60.2,32.6,220310,,,A*70
$GPRMC,154314.6,A,3336.982790,N,11745.539432,W,60.5,33.5,220310,,,A*7C
$GPRMC,154317.6,A,3337.025811,N,11745.505746,W,62.1,33.8,220310,,,A*78
$GPRMC,154320.6,A,3337.068858,N,11745.469995,W,63.2,34.2,220310,,,A*7C
$GPRMC,154323.6,A,3337.112607,N,11745.434241,W,63.7,33.9,220310,,,A*74
$GPRMC,154326.6,A,3337.156820,N,11745.399899,W,62.7,31.6,220310,,,A*79
$GPRMC,154329.6,A,3337.205194,N,11745.370289,W,64.2,24.7,220310,,,A*7F
$GPRMC,154332.6,A,3337.255309,N,11745.351784,W,62.6,15.4,220310,,,A*7E
$GPRMC,154335.6,A,3337.305907,N,11745.343288,W,59.5,6.5,220310,,,A*4B
$GPRMC,154338.6,A,3337.354288,N,11745.344008,W,58.6,357.4,220310,,,A*47
$GPRMC,154341.6,A,3337.402178,N,11745.352919,W,58.8,349.0,220310,,,A*4A
$GPRMC,154344.6,A,3337.448664,N,11745.371800,W,58.1,340.5,220310,,,A*46
$GPRMC,154347.6,A,3337.491233,N,11745.397715,W,57.0,331.5,220310,,,A*4C
$GPRMC,154350.6,A,3337.531296,N,11745.430468,W,58.2,324.5,220310,,,A*44
$GPRMC,154353.6,A,3337.571363,N,11745.465309,W,60.8,324.1,220310,,,A*4D
$GPRMC,154356.6,A,3337.613337,N,11745.501380,W,62.3,324.6,220310,,,A*42
$GPRMC,154359.6,A,3337.655479,N,11745.538271,W,63.3,324.2,220310,,,A*42
$GPRMC,154402.6,A,3337.698964,N,11745.575099,W,64.6,324.3,220310,,,A*45
$GPRMC,154405.6,A,3337.742871,N,11745.611864,W,63.6,326.2,220310,,,A*4E
$GPRMC,154408.6,A,3337.787914,N,11745.644511,W,62.6,331.5,220310,,,A*47
$GPRMC,154411.6,A,3337.836053,N,11745.667482,W,61.5,340.2,220310,,,A*4B
$GPRMC,154414.6,A,3337.887900,N,11745.680025,W,61.9,349.8,220310,,,A*44
$GPRMC,154417.6,A,3337.940851,N,11745.678683,W,61.0,1.2,220310,,,A*49
$GPRMC,154420.6,A,3337.991605,N,11745.670982,W,60.0,8.7,220310,,,A*45
$GPRMC,154423.6,A,3338.039835,N,11745.658141,W,59.9,12.0,220310,,,A*7D
$GPRMC,154426.6,A,3338.088327,N,11745.644205,W,60.3,13.1,220310,,,A*74
$GPRMC,154429.6,A,3338.138328,N,11745.631588,W,61.5,12.0,220310,,,A*79
$GPRMC,154432.6,A,3338.189337,N,11745.620518,W,62.4,8.5,220310,,,A*42
$GPRMC,154435.6,A,3338.241432,N,11745.613441,W,61.9,4.1,220310,,,A*4B
$GPRMC,154438.6,A,3338.293715,N,11745.614406,W,61.3,358.0,220310,,,A*4A
$GPRMC,154441.6,A,3338.343938,N,11745.620753,W,58.7,353.0,220310,,,A*48
$GPRMC,154444.6,A,3338.391588,N,11745.630182,W,57.6,348.8,220310,,,A*42
$GPRMC,154447.6,A,3338.437311,N,11745.645485,W,56.3,342.9,220310,,,A*43
$GPRMC,154450.6,A,3338.481887,N,11745.663797,W,55.9,341.9,220310,,,A*42
$GPRMC,154453.6,A,3338.525199,N,11745.682431,W,55.3,341.9,220310,,,A*42
$GPRMC,154456.6,A,3338.569148,N,11745.698307,W,54.8,342.6,220310,,,A*4C
$GPRMC,154459.6,A,3338.613052,N,11745.713234,W,55.3,346.9,220310,,,A*45
$GPRMC,154502.6,A,3338.659052,N,11745.722197,W,55.9,352.3,220310,,,A*49
$GPRMC,154505.6,A,3338.706383,N,11745.723494,W,58.1,359.1,220310,,,A*41
$GPRMC,154508.6,A,3338.757014,N,11745.719335,W,61.0,4.2,220310,,,A*43
$GPRMC,154511.6,A,3338.808412,N,11745.713585,W,62.8,4.7,220310,,,A*45
$GPRMC,154514.6,A,3338.859898,N,11745.708325,W,61.4,4.9,220310,,,A*4D
$GPRMC,154517.6,A,3338.911138,N,11745.704011,W,61.8,4.4,220310,,,A*49
$GPRMC,154520.6,A,3338.962080,N,11745.697122,W,61.1,7.6,220310,,,A*49
$GPRMC,154523.6,A,3339.012485,N,11745.685953,W,60.4,10.9,220310,,,A*74
$GPRMC,154526.6,A,3339.059545,N,11745.671258,W,58.8,14.5,220310,,,A*77
$GPRMC,154529.6,A,3339.105661,N,11745.655619,W,57.7,17.1,220310,,,A*75
$GPRMC,154532.6,A,3339.151639,N,11745.635085,W,56.9,21.4,220310,,,A*79
$GPRMC,154535.6,A,3339.195646,N,11745.611307,W,57.0,25.3,220310,,,A*7A
$GPRMC,154538.6,A,3339.238307,N,11745.585361,W,57.6,27.4,220310,,,A*7E
$GPRMC,154541.6,A,3339.281092,N,11745.558581,W,57.3,27.6,220310,,,A*72
$GPRMC,154544.6,A,3339.323585,N,11745.532488,W,58.0,27.4,220310,,,A*77
$GPRMC,154547.6,A,3339.367207,N,11745.504819,W,59.6,27.9,220310,,,A*72
$GPRMC,154550.6,A,3339.411648,N,11745.477165,W,60.5,27.5,220310,,,A*7F
$GPRMC,154553.6,A,3339.456810,N,11745.449733,W,61.9,27.4,220310,,,A*78
$GPRMC,154556.6,A,3339.503299,N,11745.422418,W,61.8,27.0,220310,,,A*75
$GPRMC,154559.6,A,3339.549576,N,11745.394345,W,61.9,26.5,220310,,,A*72
$GPRMC,154602.6,A,3339.597622,N,11745.364420,W,64.2,26.3,220310,,,A*7D
$GPRMC,154605.6,A,3339.646297,N,11745.335778,W,64.4,26.1,220310,,,A*71
$GPRMC,154608.6,A,3339.694952,N,11745.309160,W,65.0,25.6,220310,,,A*70
$GPRMC,154611.6,A,3339.743404,N,11745.280704,W,64.8,26.2,220310,,,A*77
$GPRMC,154614.6,A,3339.792427,N,11745.250295,W,65.7,26.6,220310,,,A*75
$GPRMC,154617.6,A,3339.843934,N,11745.222096,W,67.0,22.0,220310,,,A*79
$GPRMC,154620.6,A,3339.895971,N,11745.203332,W,66.5,15.4,220310,,,A*7D
$GPRMC,154623.6,A,3339.951814,N,11745.191943,W,67.0,9.9,220310,,,A*45
$GPRMC,154626.6,A,3340.007677,N,11745.189580,W,66.5,1.5,220310,,,A*45
$GPRMC,154629.6,A,3340.063876,N,11745.190917,W,67.3,358.6,220310,,,A*46
$GPRMC,154632.6,A,3340.119518,N,11745.192800,W,66.9,357.7,220310,,,A*45
$GPRMC,154635.6,A,3340.176390,N,11745.195476,W,67.8,357.7,220310,,,A*47
$GPRMC,154638.6,A,3340.233427,N,11745.199488,W,69.2,357.9,220310,,,A*44
$GPRMC,154641.6,A,3340.292362,N,11745.201619,W,69.1,357.6,220310,,,A*43
$GPRMC,154644.6,A,3340.348767,N,11745.203853,W,68.4,357.8,220310,,,A*49
$GPRMC,154647.6,A,3340.407060,N,11745.202681,W,68.9,2.1,220310,,,A*41
$GPRMC,154650.6,A,3340.465439,N,11745.194003,W,70.4,8.7,220310,,,A*43
$GPRMC,154653.6,A,3340.521740,N,11745.176852,W,70.3,15.3,220310,,,A*73
$GPRMC,154656.6,A,3340.577380,N,11745.152986,W,70.7,19.4,220310,,,A*7C
$GPRMC,154659.6,A,3340.628958,N,11745.119282,W,70.1,29.0,220310,,,A*74
$GPRMC,154702.6,A,3340.678845,N,11745.080880,W,70.2,33.7,220310,,,A*75
$GPRMC,154705.6,A,3340.727964,N,11745.041276,W,70.7,34.4,220310,,,A*74
$GPRMC,154708.6,A,3340.776196,N,11744.999853,W,70.3,35.4,220310,,,A*7D
$GPRMC,154711.6,A,3340.821067,N,11744.961233,W,68.5,35.6,220310,,,A*71
$GPRMC,154714.6,A,3340.869284,N,11744.922934,W,69.3,34.0,220310,,,A*7C
$GPRMC,154717.6,A,3340.918937,N,11744.883383,W,69.2,33.3,220310,,,A*72
$GPRMC,154720.6,A,3340.967557,N,11744.847644,W,68.1,32.8,220310,,,A*7A
$GPRMC,154723.6,A,3341.014237,N,11744.810742,W,67.4,33.7,220310,,,A*75
$GPRMC,154726.6,A,3341.060479,N,11744.773864,W,67.1,34.2,220310,,,A*79
$GPRMC,154729.6,A,3341.105590,N,11744.734968,W,66.6,35.1,220310,,,A*78
$GPRMC,154732.6,A,3341.151581,N,11744.697214,W,66.4,34.7,220310,,,A*7E
$GPRMC,154735.6,A,3341.198151,N,11744.656785,W,67.5,35.7,220310,,,A*74
$GPRMC,154738.6,A,3341.244282,N,11744.617778,W,67.4,35.6,220310,,,A*71
$GPRMC,154741.6,A,3341.290538,N,11744.579213,W,68.5,35.5,220310,,,A*7E
$GPRMC,154744.6,A,3341.337040,N,11744.539020,W,68.5,35.6,220310,,,A*78
$GPRMC,154747.6,A,3341.383898,N,11744.498562,W,69.8,35.7,220310,,,A*7D
$GPRMC,154750.6,A,3341.429519,N,11744.461665,W,67.6,35.0,220310,,,A*7D
$GPRMC,154753.6,A,3341.476449,N,11744.423009,W,68.3,35.0,220310,,,A*70
$GPRMC,154756.6,A,3341.523864,N,11744.383659,W,68.9,35.3,220310,,,A*70
$GPRMC,154759.6,A,3341.571569,N,11744.342189,W,69.9,35.1,220310,,,A*7C
$GPRMC,154802.6,A,3341.619625,N,11744.301737,W,69.3,34.8,220310,,,A*7D
$GPRMC,154805.6,A,3341.666755,N,11744.262177,W,69.2,35.1,220310,,,A*7B
$GPRMC,154808.6,A,3341.714356,N,11744.222489,W,69.0,35.0,220310,,,A*76
$GPRMC,154811.6,A,3341.760332,N,11744.183593,W,67.5,35.4,220310,,,A*72
$GPRMC,154814.6,A,3341.807211,N,11744.145524,W,67.9,35.2,220310,,,A*75
$GPRMC,154817.6,A,3341.852886,N,11744.106779,W,67.4,35.9,220310,,,A*79
$GPRMC,154820.6,A,3341.897726,N,11744.065163,W,67.4,38.2,220310,,,A*7E
$GPRMC,154823.6,A,3341.941279,N,11744.019560,W,68.0,40.1,220310,,,A*73
$GPRMC,154826.6,A,3341.983830,N,11743.974257,W,68.1,41.7,220310,,,A*7F
$GPRMC,154829.6,A,3342.025441,N,11743.927636,W,68.3,41.8,220310,,,A*74
$GPRMC,154832.6,A,3342.067281,N,11743.881944,W,67.4,43.0,220310,,,A*77
$GPRMC,154835.6,A,3342.106993,N,11743.835954,W,66.8,42.9,220310,,,A*75
$GPRMC,154838.6,A,3342.147186,N,11743.788631,W,66.2,43.7,220310,,,A*71
$GPRMC,154841.6,A,3342.186974,N,11743.742473,W,66.7,43.8,220310,,,A*7F
$GPRMC,154844.6,A,3342.227405,N,11743.696542,W,66.3,43.0,220310,,,A*7E
$GPRMC,154847.6,A,3342.268931,N,11743.652673,W,65.9,39.3,220310,,,A*72
$GPRMC,154850.6,A,3342.312866,N,11743.613053,W,66.0,35.5,220310,,,A*7A
$GPRMC,154853.6,A,3342.357919,N,11743.578562,W,65.6,32.6,220310,,,A*79
$GPRMC,154856.6,A,3342.405552,N,11743.548406,W,65.1,28.3,220310,,,A*76
$GPRMC,154859.6,A,3342.454630,N,11743.520644,W,65.3,25.0,220310,,,A*7C
$GPRMC,154902.6,A,3342.505271,N,11743.495929,W,64.8,21.9,220310,,,A*7B
$GPRMC,154905.6,A,3342.555991,N,11743.475491,W,64.5,18.7,220310,,,A*75
$GPRMC,154908.6,A,3342.608105,N,11743.455309,W,65.3,19.2,220310,,,A*71
$GPRMC,154911.6,A,3342.659501,N,11743.433667,W,64.1,19.0,220310,,,A*71
$GPRMC,154914.6,A,3342.709421,N,11743.412681,W,63.5,19.3,220310,,,A*78
$GPRMC,154917.6,A,3342.759929,N,11743.391943,W,63.4,18.8,220310,,,A*7D
$GPRMC,154920.6,A,3342.810415,N,11743.368808,W,65.2,19.5,220310,,,A*7D
$GPRMC,154923.6,A,3342.860517,N,11743.346572,W,64.8,19.6,220310,,,A*7E
$GPRMC,154926.6,A,3342.909170,N,11743.323496,W,65.6,23.2,220310,,,A*7A
$GPRMC,154929.6,A,3342.958655,N,11743.294003,W,66.0,27.1,220310,,,A*76
$GPRMC,154932.6,A,3343.007050,N,11743.261740,W,66.4,29.7,220310,,,A*7B
$GPRMC,154943.6,A,3343.189838,N,11743.174362,W,63.7,14.9,220310,,,A*79
$GPRMC,154946.6,A,3343.237584,N,11743.166695,W,59.7,9.2,220310,,,A*40
$GPRMC,154949.6,A,3343.289969,N,11743.165408,W,61.9,3.2,220310,,,A*4F
$GPRMC,154952.6,A,3343.340096,N,11743.164633,W,62.3,4.1,220310,,,A*4E
$GPRMC,154955.6,A,3343.391777,N,11743.160673,W,62.8,5.3,220310,,,A*45
$GPRMC,154958.6,A,3343.443081,N,11743.153428,W,62.9,6.6,220310,,,A*45
$GPRMC,155001.6,A,3343.495905,N,11743.147864,W,63.9,5.7,220310,,,A*4D
$GPRMC,155004.6,A,3343.549274,N,11743.142216,W,64.6,6.0,220310,,,A*43
$GPRMC,155007.6,A,3343.603175,N,11743.136000,W,65.0,5.7,220310,,,A*4A
$GPRMC,155010.6,A,3343.657697,N,11743.126751,W,65.9,6.2,220310,,,A*4B
$GPRMC,155013.6,A,3343.712742,N,11743.119332,W,66.5,6.2,220310,,,A*43
$GPRMC,155016.6,A,3343.767792,N,11743.111693,W,66.8,6.9,220310,,,A*49
$GPRMC,155019.6,A,3343.823686,N,11743.103179,W,67.0,6.3,220310,,,A*4E
$GPRMC,155022.6,A,3343.878363,N,11743.098272,W,66.8,6.1,220310,,,A*46
$GPRMC,155025.6,A,3343.933583,N,11743.091627,W,66.7,6.2,220310,,,A*46
$GPRMC,155028.6,A,3343.988921,N,11743.085690,W,67.4,6.1,220310,,,A*47
$GPRMC,155031.6,A,3344.044483,N,11743.079588,W,68.1,5.7,220310,,,A*42
$GPRMC,155034.6,A,3344.101088,N,11743.070990,W,68.8,6.3,220310,,,A*4A
$GPRMC,155037.6,A,3344.157537,N,11743.063653,W,68.3,5.8,220310,,,A*4A
$GPRMC,155040.6,A,3344.213112,N,11743.055589,W,67.0,6.2,220310,,,A*4E
$GPRMC,155043.6,A,3344.269208,N,11743.051221,W,68.2,4.2,220310,,,A*46
$GPRMC,155046.6,A,3344.327130,N,11743.050204,W,69.1,0.9,220310,,,A*4B
$GPRMC,155049.6,A,3344.385077,N,11743.054124,W,69.4,356.3,220310,,,A*44
$GPRMC,155052.6,A,3344.441838,N,11743.063380,W,69.5,351.6,220310,,,A*49
$GPRMC,155055.6,A,3344.495955,N,11743.078080,W,69.4,346.9,220310,,,A*4C
$GPRMC,155058.6,A,3344.547695,N,11743.098737,W,69.4,342.2,220310,,,A*46
$GPRMC,155101.6,A,3344.602261,N,11743.120901,W,70.7,340.2,220310,,,A*46
$GPRMC,155104.6,A,3344.651869,N,11743.154422,W,69.6,331.2,220310,,,A*47
$GPRMC,155107.6,A,3344.702062,N,11743.192073,W,70.3,327.8,220310,,,A*4A
$GPRMC,155110.6,A,3344.748681,N,11743.231180,W,68.7,323.4,220310,,,A*4B
$GPRMC,155113.6,A,3344.793529,N,11743.273778,W,67.6,320.1,220310,,,A*40
$GPRMC,155116.6,A,3344.831310,N,11743.324724,W,67.0,314.4,220310,,,A*40
$GPRMC,155119.6,A,3344.867159,N,11743.376759,W,66.4,309.2,220310,,,A*41
$GPRMC,155122.6,A,3344.901206,N,11743.431319,W,66.6,307.0,220310,,,A*4B
$GPRMC,155125.6,A,3344.930826,N,11743.486938,W,65.7,303.1,220310,,,A*44
$GPRMC,155128.6,A,3344.959174,N,11743.542334,W,65.1,302.7,220310,,,A*46
$GPRMC,155131.6,A,3344.988030,N,11743.597591,W,65.7,301.9,220310,,,A*49
$GPRMC,155134.6,A,3345.014739,N,11743.652664,W,64.9,300.2,220310,,,A*49
$GPRMC,155137.6,A,3345.044362,N,11743.708887,W,66.0,303.0,220310,,,A*42
$GPRMC,155140.6,A,3345.076602,N,11743.761015,W,66.1,308.6,220310,,,A*40
$GPRMC,155143.6,A,3345.113546,N,11743.805816,W,65.4,315.4,220310,,,A*4C
$GPRMC,155146.6,A,3345.153684,N,11743.848409,W,64.8,320.1,220310,,,A*45
$GPRMC,155149.6,A,3345.199617,N,11743.882806,W,65.3,327.8,220310,,,A*47
$GPRMC,155152.6,A,3345.247219,N,11743.910903,W,65.0,333.6,220310,,,A*41
$GPRMC,155155.6,A,3345.296779,N,11743.935115,W,64.6,340.1,220310,,,A*45
$GPRMC,155158.6,A,3345.349159,N,11743.951969,W,65.1,346.0,220310,,,A*4F
$GPRMC,155201.6,A,3345.406567,N,11743.960430,W,67.5,353.5,220310,,,A*41
$GPRMC,155204.6,A,3345.463348,N,11743.963583,W,67.1,358.6,220310,,,A*4A
$GPRMC,155207.6,A,3345.519362,N,11743.958141,W,66.8,6.4,220310,,,A*4D
$GPRMC,155210.6,A,3345.572631,N,11743.947407,W,66.1,9.2,220310,,,A*4C
$GPRMC,155213.6,A,3345.627894,N,11743.940110,W,66.1,8.1,220310,,,A*4B
$GPRMC,155216.6,A,3345.680532,N,11743.931742,W,63.7,6.4,220310,,,A*4D
$GPRMC,155219.6,A,3345.731059,N,11743.927328,W,62.9,2.1,220310,,,A*40
$GPRMC,155222.6,A,3345.784437,N,11743.929099,W,64.0,356.3,220310,,,A*42
$GPRMC,155225.6,A,3345.838336,N,11743.939341,W,65.0,349.1,220310,,,A*41
$GPRMC,155228.6,A,3345.888854,N,11743.958078,W,64.7,340.9,220310,,,A*41
$GPRMC,155231.6,A,3345.937995,N,11743.983989,W,65.3,335.3,220310,,,A*4C
$GPRMC,155234.6,A,3345.985681,N,11744.015885,W,65.6,329.5,220310,,,A*48
$GPRMC,155237.6,A,3346.030123,N,11744.054722,W,63.9,322.7,220310,,,A*47
$GPRMC,155240.6,A,3346.072331,N,11744.099070,W,65.7,316.4,220310,,,A*4D
$GPRMC,155243.6,A,3346.108622,N,11744.148963,W,66.1,310.1,220310,,,A*45
$GPRMC,155246.6,A,3346.141609,N,11744.201790,W,66.6,306.5,220310,,,A*4C
$GPRMC,155249.6,A,3346.174173,N,11744.255404,W,66.1,305.4,220310,,,A*45
$GPRMC,155252.6,A,3346.205596,N,11744.308792,W,65.8,306.3,220310,,,A*4E
$GPRMC,155255.6,A,3346.237038,N,11744.361384,W,65.0,305.7,220310,,,A*4A
$GPRMC,155258.6,A,3346.269315,N,11744.415747,W,66.3,305.4,220310,,,A*4C
$GPRMC,155301.6,A,3346.300380,N,11744.471185,W,66.5,304.5,220310,,,A*4F
$GPRMC,155304.6,A,3346.332829,N,11744.525726,W,65.9,304.7,220310,,,A*41
$GPRMC,155307.6,A,3346.365005,N,11744.577583,W,65.3,307.3,220310,,,A*41
$GPRMC,155310.6,A,3346.400983,N,11744.630886,W,66.5,310.0,220310,,,A*4C
$GPRMC,155313.6,A,3346.439586,N,11744.680638,W,66.6,312.7,220310,,,A*4A
$GPRMC,155316.6,A,3346.482269,N,11744.726222,W,67.1,316.3,220310,,,A*4D
$GPRMC,155319.6,A,3346.525467,N,11744.769012,W,66.1,320.9,220310,,,A*42
$GPRMC,155322.6,A,3346.571400,N,11744.803810,W,65.5,328.0,220310,,,A*45
$GPRMC,155325.6,A,3346.621088,N,11744.832258,W,64.6,335.2,220310,,,A*48
$GPRMC,155328.6,A,3346.671394,N,11744.851819,W,63.5,341.3,220310,,,A*42
$GPRMC,155331.6,A,3346.723691,N,11744.865040,W,63.7,347.4,220310,,,A*4C
$GPRMC,155334.6,A,3346.776400,N,11744.870580,W,63.2,356.4,220310,,,A*4B
$GPRMC,155337.6,A,3346.831183,N,11744.868748,W,63.0,1.2,220310,,,A*40
$GPRMC,155340.6,A,3346.884112,N,11744.861232,W,62.1,6.4,220310,,,A*46
$GPRMC,155343.6,A,3346.934893,N,11744.850217,W,61.0,10.8,220310,,,A*73
$GPRMC,155346.6,A,3346.982999,N,11744.832091,W,61.0,18.1,220310,,,A*79
$GPRMC,155349.6,A,3347.030654,N,11744.807711,W,61.7,24.2,220310,,,A*7B
$GPRMC,155352.6,A,3347.077628,N,11744.778907,W,63.6,28.0,220310,,,A*7A
$GPRMC,155355.6,A,3347.122316,N,11744.742741,W,64.8,34.2,220310,,,A*77
$GPRMC,155358.6,A,3347.165071,N,11744.700946,W,65.6,39.6,220310,,,A*72
$GPRMC,155401.6,A,3347.204256,N,11744.658023,W,64.4,43.5,220310,,,A*71
$GPRMC,155404.6,A,3347.240383,N,11744.610047,W,62.5,48.3,220310,,,A*79
$GPRMC,155407.6,A,3347.273038,N,11744.560447,W,61.7,52.3,220310,,,A*73
$GPRMC,155410.6,A,3347.303134,N,11744.509924,W,62.0,53.6,220310,,,A*79
$GPRMC,155413.6,A,3347.334509,N,11744.460259,W,62.6,53.2,220310,,,A*79
$GPRMC,155416.6,A,3347.366325,N,11744.409095,W,63.8,53.6,220310,,,A*75
$GPRMC,155419.6,A,3347.397623,N,11744.357690,W,63.9,53.7,220310,,,A*78
$GPRMC,155422.6,A,3347.429001,N,11744.306832,W,63.5,53.8,220310,,,A*75
$GPRMC,155425.6,A,3347.460343,N,11744.257002,W,63.6,53.9,220310,,,A*76
$GPRMC,155428.6,A,3347.492816,N,11744.205813,W,63.7,53.4,220310,,,A*7E
$GPRMC,155431.6,A,3347.525088,N,11744.154729,W,64.4,53.2,220310,,,A*77
$GPRMC,155434.6,A,3347.558168,N,11744.104263,W,63.5,53.0,220310,,,A*7D
$GPRMC,155437.6,A,3347.590292,N,11744.053998,W,63.3,53.5,220310,,,A*73
$GPRMC,155440.6,A,3347.622435,N,11744.002981,W,63.2,53.0,220310,,,A*7A
$GPRMC,155443.6,A,3347.652307,N,11743.951896,W,62.3,54.0,220310,,,A*70
$GPRMC,155446.6,A,3347.683426,N,11743.901521,W,63.0,53.8,220310,,,A*74
$GPRMC,155449.6,A,3347.714639,N,11743.849597,W,64.1,53.9,220310,,,A*7F
$GPRMC,155452.6,A,3347.745934,N,11743.798040,W,63.2,52.7,220310,,,A*74
$GPRMC,155455.6,A,3347.778331,N,11743.748219,W,62.9,52.5,220310,,,A*79
$GPRMC,155458.6,A,3347.815089,N,11743.702086,W,63.0,46.7,220310,,,A*75
$GPRMC,155501.6,A,3347.855357,N,11743.659591,W,64.0,40.5,220310,,,A*73
$GPRMC,155504.6,A,3347.900219,N,11743.620786,W,64.6,34.1,220310,,,A*77
$GPRMC,155507.6,A,3347.947125,N,11743.590172,W,65.6,28.0,220310,,,A*73
$GPRMC,155510.6,A,3347.997429,N,11743.563568,W,65.7,22.9,220310,,,A*70
$GPRMC,155513.6,A,3348.048495,N,11743.544274,W,65.0,16.8,220310,,,A*7E
$GPRMC,155516.6,A,3348.102811,N,11743.526189,W,66.2,14.9,220310,,,A*73
$GPRMC,155519.6,A,3348.155566,N,11743.509814,W,65.7,13.9,220310,,,A*72
$GPRMC,155522.6,A,3348.208370,N,11743.495344,W,65.7,13.2,220310,,,A*71
$GPRMC,155525.6,A,3348.262034,N,11743.479529,W,66.7,13.8,220310,,,A*7F
$GPRMC,155528.6,A,3348.316082,N,11743.465131,W,66.8,13.1,220310,,,A*7B
$GPRMC,155531.6,A,3348.369935,N,11743.449157,W,67.4,15.3,220310,,,A*79
$GPRMC,155534.6,A,3348.422034,N,11743.429174,W,67.0,19.1,220310,,,A*71
$GPRMC,155537.6,A,3348.472915,N,11743.404954,W,66.8,22.3,220310,,,A*7B
$GPRMC,155540.6,A,3348.524464,N,11743.378940,W,67.3,23.0,220310,,,A*73
$GPRMC,155543.6,A,3348.573121,N,11743.347453,W,67.4,27.9,220310,,,A*7F
$GPRMC,155546.6,A,3348.622352,N,11743.314688,W,67.9,28.3,220310,,,A*71
$GPRMC,155549.6,A,3348.672608,N,11743.282972,W,68.3,27.9,220310,,,A*75
$GPRMC,155552.6,A,3348.724092,N,11743.250855,W,68.7,28.2,220310,,,A*73
$GPRMC,155555.6,A,3348.775563,N,11743.218441,W,68.9,27.6,220310,,,A*7B
$GPRMC,155558.6,A,3348.827206,N,11743.186100,W,69.4,28.2,220310,,,A*79
$GPRMC,155605.6,A,3348.949707,N,11743.104700,W,70.5,22.8,220310,,,A*7A
$GPRMC,155606.6,A,3348.967552,N,11743.096681,W,70.0,22.0,220310,,,A*78
$GPRMC,155609.6,A,3349.020196,N,11743.075464,W,68.8,20.0,220310,,,A*77
$GPRMC,155612.6,A,3349.072200,N,11743.059026,W,67.9,17.2,220310,,,A*72
$GPRMC,155615.6,A,3349.125451,N,11743.044118,W,65.8,15.4,220310,,,A*73
$GPRMC,155618.6,A,3349.178968,N,11743.029288,W,64.8,13.7,220310,,,A*74
$GPRMC,155621.6,A,3349.231651,N,11743.015485,W,64.3,12.0,220310,,,A*7C
$GPRMC,155624.6,A,3349.284172,N,11743.004590,W,64.6,9.8,220310,,,A*43
$GPRMC,155627.6,A,3349.336425,N,11742.993187,W,64.7,9.2,220310,,,A*40
$GPRMC,155630.6,A,3349.387954,N,11742.982207,W,63.5,7.6,220310,,,A*43
$GPRMC,155633.6,A,3349.438402,N,11742.977050,W,62.6,4.6,220310,,,A*46
$GPRMC,155636.6,A,3349.487346,N,11742.978098,W,62.4,2.6,220310,,,A*4F
$GPRMC,155639.6,A,3349.537963,N,11742.979610,W,63.0,1.1,220310,,,A*41
$GPRMC,155642.6,A,3349.587956,N,11742.982859,W,61.0,359.6,220310,,,A*4C
$GPRMC,155645.6,A,3349.637375,N,11742.985210,W,60.3,357.7,220310,,,A*45
$GPRMC,155648.6,A,3349.686549,N,11742.988321,W,59.2,355.8,220310,,,A*43
$GPRMC,155651.6,A,3349.734271,N,11742.994359,W,59.1,354.9,220310,,,A*4E
$GPRMC,155654.6,A,3349.783413,N,11743.001821,W,58.5,353.7,220310,,,A*49
$GPRMC,155657.6,A,3349.832199,N,11743.008224,W,58.1,354.5,220310,,,A*4F
$GPRMC,155700.6,A,3349.881071,N,11743.013499,W,58.7,354.1,220310,,,A*4B
$GPRMC,155703.6,A,3349.930757,N,11743.019947,W,59.8,353.4,220310,,,A*48
$GPRMC,155706.6,A,3349.980598,N,11743.028064,W,59.7,352.4,220310,,,A*43
$GPRMC,155709.6,A,3350.030732,N,11743.033863,W,61.0,353.2,220310,,,A*4A
$GPRMC,155712.6,A,3350.082281,N,11743.040106,W,62.6,353.4,220310,,,A*49
$GPRMC,155715.6,A,3350.136736,N,11743.046195,W,64.8,353.4,220310,,,A*4D
$GPRMC,155718.6,A,3350.189885,N,11743.054949,W,64.7,353.3,220310,,,A*41
$GPRMC,155721.6,A,3350.242052,N,11743.060481,W,63.6,356.2,220310,,,A*41
