NMEA Sentence Code,UTC Time,Status,Latitude,Latitude Direction,Longitude,Longitude Direction,Speed (knots),Track Angle (degrees true),Date,MagneticVariation,Magnetic Variation Direction,[FAA Mode]-Optional,Checksum
$GPRMC,211144.4,A,3252.3458,N,11712.8592,W,5.70,93.20,110410,,*27
$GPRMC,211147.4,A,3252.3480,N,11712.8479,W,10.70,80.10,110410,,*10
$GPRMC,211150.4,A,3252.3527,N,11712.8293,W,18.90,74.70,110410,,*13
$GPRMC,211153.4,A,3252.3585,N,11712.8044,W,24.20,74.20,110410,,*11
$GPRMC,211156.4,A,3252.3649,N,11712.7754,W,27.70,75.10,110410,,*1A
$GPRMC,211159.4,A,3252.3725,N,11712.7448,W,30.80,75.00,110410,,*18
$GPRMC,211202.4,A,3252.3798,N,11712.7161,W,29.70,74.80,110410,,*13
$GPRMC,211205.4,A,3252.3865,N,11712.6861,W,29.30,76.40,110410,,*1B
$GPRMC,211208.4,A,3252.3968,N,11712.6601,W,27.50,72.50,110410,,*1F
$GPRMC,211211.4,A,3252.4030,N,11712.6378,W,23.30,71.30,110410,,*18
$GPRMC,211214.4,A,3252.4063,N,11712.6225,W,16.60,68.10,110410,,*1B
$GPRMC,211217.4,A,3252.4102,N,11712.6132,W,10.40,69.70,110410,,*18
$GPRMC,211220.4,A,3252.4139,N,11712.6077,W,5.50,62.40,110410,,*29
$GPRMC,211238.4,A,3252.4161,N,11712.5973,W,7.30,95.40,110410,,*2F
$GPRMC,211241.4,A,3252.4236,N,11712.5697,W,20.50,80.30,110410,,*15
$GPRMC,211244.4,A,3252.4288,N,11712.5427,W,25.20,78.50,110410,,*1F
$GPRMC,211247.4,A,3252.4326,N,11712.5189,W,24.20,78.20,110410,,*1E
$GPRMC,211250.4,A,3252.4351,N,11712.4979,W,20.50,80.70,110410,,*1F
$GPRMC,211253.4,A,3252.4351,N,11712.4813,W,16.50,87.10,110410,,*15
$GPRMC,211256.4,A,3252.4331,N,11712.4673,W,13.80,93.50,110410,,*17
$GPRMC,211402.4,A,3252.4403,N,11712.4601,W,7.90,72.50,110410,,*28
$GPRMC,211405.4,A,3252.4479,N,11712.4391,W,14.80,67.70,110410,,*1B
$GPRMC,211408.4,A,3252.4554,N,11712.4047,W,25.40,72.20,110410,,*1F
$GPRMC,211411.4,A,3252.4538,N,11712.3581,W,34.30,82.60,110410,,*19
$GPRMC,211414.4,A,3252.4539,N,11712.3199,W,35.60,81.90,110410,,*18
$GPRMC,211417.4,A,3252.4606,N,11712.2747,W,39.80,81.50,110410,,*1E
$GPRMC,211420.4,A,3252.4682,N,11712.2332,W,42.00,78.80,110410,,*1F
$GPRMC,211423.4,A,3252.4746,N,11712.1887,W,42.70,79.30,110410,,*1E
$GPRMC,211426.4,A,3252.4785,N,11712.1467,W,42.60,81.50,110410,,*16
$GPRMC,211429.4,A,3252.4794,N,11712.1065,W,38.70,91.10,110410,,*16
$GPRMC,211432.4,A,3252.4738,N,11712.0727,W,35.70,102.20,110410,,*2F
$GPRMC,211435.4,A,3252.4615,N,11712.0385,W,37.30,109.70,110410,,*22
$GPRMC,211438.4,A,3252.4448,N,11711.9977,W,42.70,112.00,110410,,*23
$GPRMC,211441.4,A,3252.4215,N,11711.9533,W,48.50,123.60,110410,,*23
$GPRMC,211444.4,A,3252.3943,N,11711.9191,W,46.90,133.40,110410,,*24
$GPRMC,211447.4,A,3252.3651,N,11711.8910,W,47.20,138.50,110410,,*2B
$GPRMC,211450.4,A,3252.3338,N,11711.8578,W,49.00,139.40,110410,,*29
$GPRMC,211453.4,A,3252.3021,N,11711.8259,W,49.20,139.30,110410,,*20
$GPRMC,211456.4,A,3252.2686,N,11711.7927,W,50.40,139.20,110410,,*2D
$GPRMC,211459.4,A,3252.2410,N,11711.7606,W,50.50,138.60,110410,,*27
$GPRMC,211502.4,A,3252.2051,N,11711.7238,W,51.90,139.00,110410,,*2A
$GPRMC,211505.4,A,3252.1702,N,11711.6888,W,52.50,138.90,110410,,*28
$GPRMC,211508.4,A,3252.1334,N,11711.6570,W,55.50,140.50,110410,,*2A
$GPRMC,211511.4,A,3252.0943,N,11711.6210,W,55.10,140.90,110410,,*20
$GPRMC,211514.4,A,3252.0577,N,11711.5850,W,56.00,140.80,110410,,*20
$GPRMC,211517.4,A,3252.0159,N,11711.5458,W,59.40,140.60,110410,,*2A
$GPRMC,211520.4,A,3251.9769,N,11711.5059,W,62.70,139.10,110410,,*26
$GPRMC,211523.4,A,3251.9339,N,11711.4632,W,64.80,140.10,110410,,*29
$GPRMC,211526.4,A,3251.8935,N,11711.4221,W,65.10,140.60,110410,,*22
$GPRMC,211529.4,A,3251.8483,N,11711.3811,W,66.60,141.40,110410,,*24
$GPRMC,211532.4,A,3251.8050,N,11711.3412,W,65.50,141.70,110410,,*28
$GPRMC,211535.4,A,3251.7644,N,11711.3019,W,64.90,141.30,110410,,*25
$GPRMC,211538.4,A,3251.7229,N,11711.2612,W,64.60,141.20,110410,,*25
$GPRMC,211541.4,A,3251.6776,N,11711.2218,W,64.10,142.10,110410,,*2C
$GPRMC,211544.4,A,3251.6325,N,11711.1823,W,65.10,143.80,110410,,*23
$GPRMC,211547.4,A,3251.5847,N,11711.1457,W,64.90,147.40,110410,,*22
$GPRMC,211550.4,A,3251.5357,N,11711.1118,W,66.10,150.40,110410,,*2C
$GPRMC,211553.4,A,3251.4864,N,11711.0801,W,65.80,151.60,110410,,*2C
$GPRMC,211556.4,A,3251.4416,N,11711.0514,W,64.80,151.80,110410,,*26
$GPRMC,211559.4,A,3251.3937,N,11711.0193,W,66.50,151.60,110410,,*2A
$GPRMC,211602.4,A,3251.3422,N,11710.9910,W,68.70,152.90,110410,,*25
$GPRMC,211606.4,A,3251.2711,N,11710.9526,W,69.20,152.90,110410,,*2E
$GPRMC,211609.4,A,3251.2195,N,11710.9190,W,70.50,152.50,110410,,*21
$GPRMC,211612.4,A,3251.1675,N,11710.8874,W,69.50,152.90,110410,,*27
$GPRMC,211615.4,A,3251.1154,N,11710.8577,W,68.90,153.10,110410,,*2E
$GPRMC,211618.4,A,3251.0662,N,11710.8268,W,67.30,152.90,110410,,*25
$GPRMC,211621.4,A,3251.0175,N,11710.7967,W,65.70,153.00,110410,,*2B
$GPRMC,211624.4,A,3250.9700,N,11710.7671,W,64.90,152.90,110410,,*2D
$GPRMC,211627.4,A,3250.9222,N,11710.7383,W,64.40,153.10,110410,,*27
$GPRMC,211630.4,A,3250.8752,N,11710.7083,W,64.20,152.50,110410,,*22
$GPRMC,211633.4,A,3250.8310,N,11710.6789,W,62.60,152.40,110410,,*2C
$GPRMC,211636.4,A,3250.7819,N,11710.6520,W,63.70,153.20,110410,,*22
$GPRMC,211639.4,A,3250.7371,N,11710.6237,W,62.40,152.30,110410,,*2B
$GPRMC,211642.4,A,3250.6918,N,11710.5958,W,61.90,152.40,110410,,*2B
$GPRMC,211645.4,A,3250.6439,N,11710.5710,W,61.90,153.20,110410,,*27
$GPRMC,211648.4,A,3250.5930,N,11710.5407,W,62.60,153.70,110410,,*21
$GPRMC,211651.4,A,3250.5451,N,11710.5102,W,63.60,152.20,110410,,*26
$GPRMC,211654.4,A,3250.4983,N,11710.4815,W,63.40,152.30,110410,,*2D
$GPRMC,211657.4,A,3250.4512,N,11710.4533,W,63.20,153.40,110410,,*23
$GPRMC,211700.4,A,3250.4058,N,11710.4232,W,63.00,152.20,110410,,*28
$GPRMC,211716.4,A,3250.1629,N,11710.2746,W,57.70,152.70,110410,,*2F
$GPRMC,211719.4,A,3250.1200,N,11710.2486,W,56.20,152.90,110410,,*2A
$GPRMC,211722.4,A,3250.0780,N,11710.2239,W,55.40,153.10,110410,,*20
$GPRMC,211725.4,A,3250.0354,N,11710.1982,W,56.20,152.40,110410,,*23
$GPRMC,211728.4,A,3249.9942,N,11710.1715,W,56.80,151.90,110410,,*26
$GPRMC,211731.4,A,3249.9517,N,11710.1433,W,57.50,151.00,110410,,*20
$GPRMC,211734.4,A,3249.9097,N,11710.1158,W,57.50,151.10,110410,,*21
$GPRMC,211745.4,A,3249.7345,N,11710.0115,W,65.40,152.80,110410,,*27
$GPRMC,211748.4,A,3249.6860,N,11709.9827,W,65.30,153.40,110410,,*24
$GPRMC,211751.4,A,3249.6333,N,11709.9522,W,66.10,153.70,110410,,*2B
$GPRMC,211754.4,A,3249.5860,N,11709.9219,W,65.70,152.40,110410,,*28
$GPRMC,211757.4,A,3249.5377,N,11709.8935,W,65.70,153.20,110410,,*25
$GPRMC,211800.4,A,3249.4928,N,11709.8660,W,64.60,153.40,110410,,*20
$GPRMC,211803.4,A,3249.4444,N,11709.8376,W,64.50,153.30,110410,,*22
$GPRMC,211806.4,A,3249.3982,N,11709.8097,W,64.00,153.70,110410,,*2A
$GPRMC,211809.4,A,3249.3476,N,11709.7787,W,65.10,152.80,110410,,*24
$GPRMC,211812.4,A,3249.2934,N,11709.7431,W,66.10,151.80,110410,,*2A
$GPRMC,211815.4,A,3249.2436,N,11709.7131,W,66.10,152.30,110410,,*2F
$GPRMC,211818.4,A,3249.2004,N,11709.6854,W,65.40,152.30,110410,,*2A
$GPRMC,211821.4,A,3249.1570,N,11709.6583,W,64.50,152.60,110410,,*27
$GPRMC,211827.4,A,3249.0593,N,11709.6000,W,63.50,153.10,110410,,*22
$GPRMC,211830.4,A,3249.0317,N,11709.5969,W,58.80,155.60,110410,,*2F
$GPRMC,211833.4,A,3249.0005,N,11709.5782,W,55.10,155.00,110410,,*25
$GPRMC,211836.4,A,3248.9557,N,11709.5595,W,55.10,155.30,110410,,*2D
$GPRMC,211839.4,A,3248.9112,N,11709.5320,W,56.80,153.70,110410,,*27
$GPRMC,211842.4,A,3248.8709,N,11709.5027,W,56.70,149.80,110410,,*29
$GPRMC,211845.4,A,3248.8305,N,11709.4737,W,56.40,149.40,110410,,*2E
$GPRMC,211848.4,A,3248.7869,N,11709.4381,W,56.40,146.20,110410,,*2D
$GPRMC,211851.4,A,3248.7516,N,11709.4053,W,55.30,145.20,110410,,*2B
$GPRMC,211854.4,A,3248.7165,N,11709.3666,W,55.50,141.10,110410,,*28
$GPRMC,211857.4,A,3248.6793,N,11709.3319,W,56.10,141.30,110410,,*2D
$GPRMC,211900.4,A,3248.6434,N,11709.2965,W,55.00,143.10,110410,,*22
$GPRMC,211903.4,A,3248.6021,N,11709.2606,W,56.40,144.80,110410,,*22
$GPRMC,211906.4,A,3248.5629,N,11709.2297,W,55.20,147.10,110410,,*29
$GPRMC,211909.4,A,3248.5313,N,11709.2082,W,47.50,148.70,110410,,*21
$GPRMC,211912.4,A,3248.4913,N,11709.2062,W,42.90,164.80,110410,,*26
$GPRMC,211915.4,A,3248.4492,N,11709.2117,W,41.30,179.40,110410,,*2F
$GPRMC,211918.4,A,3248.4091,N,11709.2222,W,44.50,186.80,110410,,*2F
$GPRMC,211921.4,A,3248.3642,N,11709.2395,W,51.90,194.30,110410,,*27
$GPRMC,211924.4,A,3248.3207,N,11709.2524,W,51.80,195.80,110410,,*20
$GPRMC,211927.4,A,3248.2799,N,11709.2662,W,49.80,195.60,110410,,*26
$GPRMC,211930.4,A,3248.2402,N,11709.2826,W,50.90,197.90,110410,,*2B
$GPRMC,211933.4,A,3248.1982,N,11709.3002,W,51.90,197.70,110410,,*2E
$GPRMC,211936.4,A,3248.1570,N,11709.3165,W,52.50,198.40,110410,,*29
$GPRMC,211939.4,A,3248.1129,N,11709.3317,W,53.20,197.70,110410,,*23
$GPRMC,211942.4,A,3248.0668,N,11709.3485,W,54.40,197.60,110410,,*20
$GPRMC,211945.4,A,3248.0274,N,11709.3696,W,54.90,200.90,110410,,*21
$GPRMC,211948.4,A,3247.9843,N,11709.3847,W,53.30,198.80,110410,,*28
$GPRMC,211951.4,A,3247.9417,N,11709.4002,W,52.90,198.80,110410,,*28
$GPRMC,211954.4,A,3247.8937,N,11709.4127,W,53.30,197.00,110410,,*29
$GPRMC,211957.4,A,3247.8508,N,11709.4301,W,54.40,198.40,110410,,*27
$GPRMC,212000.4,A,3247.8080,N,11709.4472,W,55.20,198.60,110410,,*2C
$GPRMC,212003.4,A,3247.7639,N,11709.4655,W,55.40,199.00,110410,,*22
$GPRMC,212006.4,A,3247.7215,N,11709.4847,W,56.00,198.60,110410,,*20
$GPRMC,212009.4,A,3247.6780,N,11709.4986,W,53.50,198.70,110410,,*2A
$GPRMC,212012.4,A,3247.6376,N,11709.5148,W,51.70,199.00,110410,,*20
$GPRMC,212015.4,A,3247.5990,N,11709.5288,W,49.40,197.50,110410,,*28
$GPRMC,212018.4,A,3247.5647,N,11709.5445,W,47.20,200.00,110410,,*27
$GPRMC,212021.4,A,3247.5387,N,11709.5668,W,44.90,205.90,110410,,*2D
$GPRMC,212024.4,A,3247.5436,N,11709.5972,W,29.60,231.40,110410,,*2F
$GPRMC,212027.4,A,3247.5294,N,11709.6110,W,25.40,215.90,110410,,*28
$GPRMC,212030.4,A,3247.5120,N,11709.6237,W,25.80,210.80,110410,,*2C
$GPRMC,212033.4,A,3247.4939,N,11709.6366,W,24.40,211.50,110410,,*2A
$GPRMC,212036.4,A,3247.4786,N,11709.6462,W,21.00,208.40,110410,,*2E
$GPRMC,212039.4,A,3247.4693,N,11709.6551,W,18.10,215.90,110410,,*2F
$GPRMC,212042.4,A,3247.4641,N,11709.6702,W,17.70,229.50,110410,,*22
$GPRMC,212045.4,A,3247.4651,N,11709.7028,W,22.90,248.60,110410,,*26
$GPRMC,212048.4,A,3247.4693,N,11709.7467,W,31.70,264.70,110410,,*29
$GPRMC,212051.4,A,3247.4784,N,11709.7821,W,33.30,271.30,110410,,*2E
$GPRMC,212054.4,A,3247.4808,N,11709.8190,W,33.20,269.80,110410,,*2F
$GPRMC,212057.4,A,3247.4816,N,11709.8530,W,33.90,269.30,110410,,*2D
$GPRMC,212100.4,A,3247.4816,N,11709.8833,W,31.20,269.20,110410,,*28
$GPRMC,212103.4,A,3247.4863,N,11709.9130,W,29.00,276.10,110410,,*24
$GPRMC,212106.4,A,3247.4901,N,11709.9345,W,24.00,279.20,110410,,*25
$GPRMC,212109.4,A,3247.4949,N,11709.9519,W,19.30,283.50,110410,,*26
$GPRMC,212112.4,A,3247.4997,N,11709.9694,W,18.20,286.30,110410,,*2A
$GPRMC,212115.4,A,3247.5050,N,11709.9852,W,18.10,285.10,110410,,*28
$GPRMC,212118.4,A,3247.5043,N,11709.9794,W,11.00,289.20,110410,,*25
$GPRMC,212121.4,A,3247.5046,N,11709.9823,W,7.90,290.70,110410,,*1A
$GPRMC,212124.4,A,3247.5044,N,11709.9732,W,4.50,301.50,110410,,*16
$GPRMC,212130.4,A,3247.5013,N,11709.9723,W,8.40,270.80,110410,,*16
$GPRMC,212133.4,A,3247.4958,N,11709.9809,W,11.20,242.80,110410,,*2A
$GPRMC,212136.4,A,3247.4875,N,11709.9881,W,13.30,230.90,110410,,*26
$GPRMC,212139.4,A,3247.4685,N,11710.0027,W,19.80,216.70,110410,,*26
$GPRMC,212142.4,A,3247.4523,N,11710.0135,W,20.70,220.70,110410,,*27
$GPRMC,212145.4,A,3247.4364,N,11710.0247,W,21.40,221.70,110410,,*20
$GPRMC,212148.4,A,3247.4232,N,11710.0381,W,20.60,222.80,110410,,*2B
$GPRMC,212151.4,A,3247.4136,N,11710.0451,W,16.00,227.20,110410,,*22
$GPRMC,212154.4,A,3247.4108,N,11710.0450,W,6.30,229.50,110410,,*10
$GPRMC,212218.4,A,3247.3963,N,11710.0555,W,10.30,230.20,110410,,*25
