NMEA Sentence Code,UTC Time,Status,Latitude,Latitude Direction,Longitude,Longitude Direction,Speed (knots),Track Angle (degrees true),Date,MagneticVariation,Magnetic Variation Direction,[FAA Mode]-Optional,Checksum
$GPRMC,011241.000,A,3300.3251,N,11649.3807,W,31.10,262.10,271210,,,A*4A
$GPRMC,011244.000,A,3300.3205,N,11649.4141,W,35.96,259.70,271210,,,A*46
$GPRMC,011247.000,A,3300.3125,N,11649.4517,W,39.90,252.50,271210,,,A*40
$GPRMC,011250.000,A,3300.3013,N,11649.4899,W,40.82,250.30,271210,,,A*40
$GPRMC,011253.000,A,3300.2877,N,11649.5277,W,41.32,244.10,271210,,,A*4E
$GPRMC,011256.000,A,3300.2717,N,11649.5637,W,41.79,240.40,271210,,,A*4C
$GPRMC,011259.000,A,3300.2535,N,11649.5995,W,43.25,238.40,271210,,,A*42
$GPRMC,011302.000,A,3300.2345,N,11649.6361,W,44.22,238.50,271210,,,A*4F
$GPRMC,011305.000,A,3300.2099,N,11649.6832,W,45.68,238.20,271210,,,A*4F
$GPRMC,011308.000,A,3300.1942,N,11649.7127,W,44.71,238.20,271210,,,A*4B
$GPRMC,011311.000,A,3300.1697,N,11649.7593,W,45.20,237.90,271210,,,A*4E
$GPRMC,011314.000,A,3300.1501,N,11649.7974,W,44.71,238.30,271210,,,A*42
$GPRMC,011317.000,A,3300.1299,N,11649.8327,W,43.74,235.70,271210,,,A*4F
$GPRMC,011321.000,A,3300.1079,N,11649.8824,W,42.77,243.80,271210,,,A*42
$GPRMC,011325.000,A,3300.0951,N,11649.9256,W,41.81,257.60,271210,,,A*4B
$GPRMC,011328.000,A,3300.0896,N,11649.9660,W,41.31,263.10,271210,,,A*46
$GPRMC,011331.000,A,3300.0852,N,11650.0069,W,41.79,261.60,271210,,,A*41
$GPRMC,011334.000,A,3300.0758,N,11650.0459,W,40.35,247.40,271210,,,A*49
$GPRMC,011337.000,A,3300.0594,N,11650.0797,W,39.38,236.10,271210,,,A*49
$GPRMC,011340.000,A,3300.0354,N,11650.1085,W,41.32,223.60,271210,,,A*40
$GPRMC,011343.000,A,3300.0118,N,11650.1373,W,40.34,225.80,271210,,,A*4C
$GPRMC,011346.000,A,3259.9894,N,11650.1650,W,37.92,229.40,271210,,,A*48
$GPRMC,011349.000,A,3259.9730,N,11650.1954,W,35.96,244.90,271210,,,A*4D
$GPRMC,011351.000,A,3259.9649,N,11650.2166,W,35.00,241.80,271210,,,A*4A
$GPRMC,011355.000,A,3259.9399,N,11650.2554,W,39.38,228.60,271210,,,A*45
$GPRMC,011357.000,A,3259.9257,N,11650.2757,W,41.32,234.30,271210,,,A*48
$GPRMC,011400.000,A,3259.9088,N,11650.3111,W,41.31,245.00,271210,,,A*4E
$GPRMC,011404.000,A,3259.8977,N,11650.3654,W,41.79,263.00,271210,,,A*4C
$GPRMC,011407.000,A,3259.8943,N,11650.4066,W,42.78,264.40,271210,,,A*49
$GPRMC,011410.000,A,3259.8905,N,11650.4488,W,43.25,264.00,271210,,,A*44
$GPRMC,011414.000,A,3259.8857,N,11650.5046,W,41.31,263.30,271210,,,A*42
$GPRMC,011417.000,A,3259.8817,N,11650.5450,W,41.32,263.50,271210,,,A*43
$GPRMC,011420.000,A,3259.8783,N,11650.5849,W,39.38,264.20,271210,,,A*44
$GPRMC,011423.000,A,3259.8750,N,11650.6206,W,32.58,264.00,271210,,,A*44
$GPRMC,011426.000,A,3259.8733,N,11650.6485,W,24.79,263.40,271210,,,A*4E
$GPRMC,011429.000,A,3259.8753,N,11650.6602,W,10.69,273.90,271210,,,A*40
$GPRMC,011456.000,A,3259.8676,N,11650.6724,W,14.09,194.50,271210,,,A*4F
$GPRMC,011459.000,A,3259.8486,N,11650.6735,W,23.33,174.10,271210,,,A*4A
$GPRMC,011502.000,A,3259.8254,N,11650.6671,W,28.67,162.50,271210,,,A*44
$GPRMC,011505.000,A,3259.8004,N,11650.6500,W,34.50,146.20,271210,,,A*49
$GPRMC,011508.000,A,3259.7767,N,11650.6256,W,36.93,133.80,271210,,,A*48
$GPRMC,011511.000,A,3259.7558,N,11650.5967,W,38.88,132.50,271210,,,A*4C
$GPRMC,011514.000,A,3259.7336,N,11650.5732,W,37.91,142.00,271210,,,A*4C
$GPRMC,011517.000,A,3259.7038,N,11650.5510,W,40.82,149.50,271210,,,A*4C
$GPRMC,011520.000,A,3259.6753,N,11650.5321,W,38.39,151.00,271210,,,A*44
$GPRMC,011523.000,A,3259.6486,N,11650.5156,W,35.96,152.80,271210,,,A*4D
$GPRMC,011526.000,A,3259.6216,N,11650.4997,W,36.93,153.00,271210,,,A*4C
$GPRMC,011529.000,A,3259.5922,N,11650.4818,W,39.85,152.70,271210,,,A*44
$GPRMC,011532.000,A,3259.5606,N,11650.4620,W,41.79,150.40,271210,,,A*4F
$GPRMC,011535.000,A,3259.5328,N,11650.4392,W,41.79,141.40,271210,,,A*4D
$GPRMC,011538.000,A,3259.5067,N,11650.4090,W,43.25,136.40,271210,,,A*42
$GPRMC,011541.000,A,3259.4794,N,11650.3816,W,42.77,141.20,271210,,,A*47
$GPRMC,011544.000,A,3259.4522,N,11650.3569,W,40.82,143.50,271210,,,A*45
$GPRMC,011547.000,A,3259.4248,N,11650.3322,W,40.82,144.20,271210,,,A*44
$GPRMC,011550.000,A,3259.3982,N,11650.3108,W,35.96,145.90,271210,,,A*4F
$GPRMC,011553.000,A,3259.3744,N,11650.2925,W,33.05,145.90,271210,,,A*42
$GPRMC,011556.000,A,3259.3538,N,11650.2742,W,29.16,140.50,271210,,,A*41
$GPRMC,011559.000,A,3259.3386,N,11650.2548,W,27.70,130.60,271210,,,A*4F
$GPRMC,011602.000,A,3259.3374,N,11650.2284,W,27.70,98.30,271210,,,A*7E
$GPRMC,011605.000,A,3259.3453,N,11650.1982,W,30.62,82.10,271210,,,A*79
$GPRMC,011608.000,A,3259.3500,N,11650.1657,W,33.53,82.60,271210,,,A*72
$GPRMC,011611.000,A,3259.3560,N,11650.1296,W,35.48,75.50,271210,,,A*72
$GPRMC,011614.000,A,3259.3707,N,11650.0990,W,36.93,55.30,271210,,,A*79
$GPRMC,011617.000,A,3259.3917,N,11650.0708,W,37.91,48.10,271210,,,A*77
$GPRMC,011620.000,A,3259.4095,N,11650.0439,W,33.05,56.30,271210,,,A*72
$GPRMC,011624.000,A,3259.4166,N,11650.0075,W,30.13,82.80,271210,,,A*71
$GPRMC,011627.000,A,3259.4085,N,11649.9779,W,32.07,109.20,271210,,,A*4B
$GPRMC,011629.000,A,3259.3975,N,11649.9575,W,34.02,116.10,271210,,,A*44
$GPRMC,011633.000,A,3259.3796,N,11649.9172,W,34.50,116.00,271210,,,A*49
$GPRMC,011636.000,A,3259.3713,N,11649.8888,W,29.16,107.30,271210,,,A*41
$GPRMC,011639.000,A,3259.3736,N,11649.8619,W,28.19,82.50,271210,,,A*7B
$GPRMC,011642.000,A,3259.3766,N,11649.8367,W,25.27,88.10,271210,,,A*70
$GPRMC,011645.000,A,3259.3669,N,11649.8118,W,29.16,115.10,271210,,,A*48
$GPRMC,011648.000,A,3259.3512,N,11649.7837,W,34.99,122.80,271210,,,A*47
$GPRMC,011651.000,A,3259.3344,N,11649.7523,W,37.91,120.40,271210,,,A*47
$GPRMC,011654.000,A,3259.3159,N,11649.7205,W,37.91,124.60,271210,,,A*49
$GPRMC,011657.000,A,3259.2942,N,11649.6945,W,35.48,142.20,271210,,,A*45
$GPRMC,011700.000,A,3259.2689,N,11649.6872,W,33.05,173.60,271210,,,A*42
$GPRMC,011703.000,A,3259.2391,N,11649.6932,W,35.48,193.40,271210,,,A*4B
$GPRMC,011706.000,A,3259.2094,N,11649.7063,W,36.93,203.80,271210,,,A*47
$GPRMC,011709.000,A,3259.1821,N,11649.7222,W,36.45,209.00,271210,,,A*43
$GPRMC,011712.000,A,3259.1569,N,11649.7408,W,35.48,211.10,271210,,,A*40
$GPRMC,011715.000,A,3259.1330,N,11649.7612,W,33.53,219.40,271210,,,A*45
$GPRMC,011718.000,A,3259.1194,N,11649.7856,W,30.63,240.90,271210,,,A*4B
$GPRMC,011721.000,A,3259.1140,N,11649.8106,W,26.24,248.70,271210,,,A*49
$GPRMC,011724.000,A,3259.1039,N,11649.8345,W,27.70,239.00,271210,,,A*47
$GPRMC,011727.000,A,3259.0889,N,11649.8584,W,29.16,234.50,271210,,,A*4B
$GPRMC,011730.000,A,3259.0762,N,11649.8797,W,26.26,229.10,271210,,,A*43
$GPRMC,011733.000,A,3259.0573,N,11649.8940,W,27.22,201.20,271210,,,A*4A
$GPRMC,011736.000,A,3259.0330,N,11649.9026,W,30.62,195.80,271210,,,A*40
$GPRMC,011739.000,A,3259.0054,N,11649.9136,W,35.48,199.30,271210,,,A*44
$GPRMC,011742.000,A,3258.9768,N,11649.9255,W,34.99,199.20,271210,,,A*42
$GPRMC,011745.000,A,3258.9500,N,11649.9324,W,32.56,188.60,271210,,,A*4F
$GPRMC,011748.000,A,3258.9253,N,11649.9302,W,29.65,171.00,271210,,,A*4D
$GPRMC,011751.000,A,3258.8972,N,11649.9090,W,36.93,145.80,271210,,,A*4C
$GPRMC,011754.000,A,3258.8754,N,11649.8854,W,34.03,135.10,271210,,,A*47
$GPRMC,011757.000,A,3258.8635,N,11649.8573,W,33.05,110.60,271210,,,A*4B
$GPRMC,011800.000,A,3258.8614,N,11649.8223,W,35.48,87.20,271210,,,A*73
$GPRMC,011803.000,A,3258.8682,N,11649.7858,W,38.88,78.20,271210,,,A*77
$GPRMC,011806.000,A,3258.8762,N,11649.7465,W,40.82,78.90,271210,,,A*71
$GPRMC,011809.000,A,3258.8761,N,11649.7092,W,36.45,89.30,271210,,,A*7F
$GPRMC,011812.000,A,3258.8647,N,11649.6743,W,36.93,112.50,271210,,,A*44
$GPRMC,011815.000,A,3258.8515,N,11649.6405,W,39.36,114.30,271210,,,A*46
$GPRMC,011818.000,A,3258.8346,N,11649.6045,W,41.79,115.40,271210,,,A*49
$GPRMC,011821.000,A,3258.8201,N,11649.5672,W,42.28,115.50,271210,,,A*46
$GPRMC,011824.000,A,3258.8011,N,11649.5300,W,41.79,128.30,271210,,,A*4F
$GPRMC,011827.000,A,3258.7762,N,11649.5014,W,42.28,136.80,271210,,,A*45
$GPRMC,011830.000,A,3258.7495,N,11649.4730,W,42.28,136.80,271210,,,A*48
$GPRMC,011833.000,A,3258.7260,N,11649.4488,W,37.42,142.70,271210,,,A*45
$GPRMC,011836.000,A,3258.6982,N,11649.4352,W,36.45,164.90,271210,,,A*4A
$GPRMC,011839.000,A,3258.6668,N,11649.4395,W,39.36,189.80,271210,,,A*4C
$GPRMC,011842.000,A,3258.6320,N,11649.4488,W,42.77,192.70,271210,,,A*4E
$GPRMC,011845.000,A,3258.5961,N,11649.4598,W,44.22,193.80,271210,,,A*4D
$GPRMC,011848.000,A,3258.5618,N,11649.4700,W,41.31,193.90,271210,,,A*44
$GPRMC,011851.000,A,3258.5325,N,11649.4820,W,35.96,207.30,271210,,,A*40
$GPRMC,011854.000,A,3258.5120,N,11649.5075,W,35.96,231.70,271210,,,A*4A
$GPRMC,011857.000,A,3258.4972,N,11649.5437,W,41.31,245.00,271210,,,A*4F
$GPRMC,011900.000,A,3258.4838,N,11649.5841,W,43.74,250.90,271210,,,A*40
$GPRMC,011904.000,A,3258.4743,N,11649.6403,W,42.77,260.80,271210,,,A*4E
$GPRMC,011907.000,A,3258.4701,N,11649.6832,W,42.28,261.60,271210,,,A*40
$GPRMC,011910.000,A,3258.4593,N,11649.7171,W,35.96,245.00,271210,,,A*45
$GPRMC,011913.000,A,3258.4388,N,11649.7442,W,37.91,223.40,271210,,,A*4E
$GPRMC,011916.000,A,3258.4102,N,11649.7611,W,39.86,207.20,271210,,,A*47
$GPRMC,011919.000,A,3258.3797,N,11649.7772,W,39.85,205.80,271210,,,A*4A
$GPRMC,011922.000,A,3258.3482,N,11649.7936,W,41.81,205.70,271210,,,A*4F
$GPRMC,011925.000,A,3258.3174,N,11649.8126,W,41.79,207.40,271210,,,A*44
$GPRMC,011928.000,A,3258.2843,N,11649.8328,W,45.20,207.00,271210,,,A*45
$GPRMC,011931.000,A,3258.2497,N,11649.8537,W,47.14,207.30,271210,,,A*46
$GPRMC,011934.000,A,3258.2153,N,11649.8748,W,46.65,207.60,271210,,,A*46
$GPRMC,011937.000,A,3258.1810,N,11649.8938,W,45.20,206.00,271210,,,A*44
$GPRMC,011940.000,A,3258.1466,N,11649.9140,W,44.71,206.30,271210,,,A*49
$GPRMC,011943.000,A,3258.1160,N,11649.9333,W,41.31,208.80,271210,,,A*4B
$GPRMC,011946.000,A,3258.0897,N,11649.9603,W,41.31,224.40,271210,,,A*4A
$GPRMC,011949.000,A,3258.0683,N,11649.9895,W,38.39,228.90,271210,,,A*48
$GPRMC,011952.000,A,3258.0480,N,11650.0105,W,31.59,216.90,271210,,,A*40
$GPRMC,011955.000,A,3258.0195,N,11650.0194,W,35.96,192.20,271210,,,A*4D
$GPRMC,011958.000,A,3257.9894,N,11650.0253,W,37.42,188.70,271210,,,A*43
$GPRMC,012001.000,A,3257.9561,N,11650.0313,W,40.82,189.40,271210,,,A*49
$GPRMC,012004.000,A,3257.9217,N,11650.0383,W,41.79,190.00,271210,,,A*4A
$GPRMC,012007.000,A,3257.8885,N,11650.0476,W,40.82,195.90,271210,,,A*4D
$GPRMC,012010.000,A,3257.8564,N,11650.0616,W,40.34,201.00,271210,,,A*47
$GPRMC,012013.000,A,3257.8260,N,11650.0770,W,40.34,203.90,271210,,,A*4D
$GPRMC,012016.000,A,3257.7940,N,11650.0928,W,42.28,203.50,271210,,,A*4E
$GPRMC,012019.000,A,3257.7612,N,11650.1095,W,43.25,203.80,271210,,,A*46
$GPRMC,012022.000,A,3257.7281,N,11650.1270,W,44.71,203.90,271210,,,A*4E
$GPRMC,012025.000,A,3257.6934,N,11650.1437,W,45.20,202.50,271210,,,A*40
$GPRMC,012028.000,A,3257.6577,N,11650.1619,W,46.17,202.90,271210,,,A*43
$GPRMC,012031.000,A,3257.6226,N,11650.1796,W,46.65,203.10,271210,,,A*42
$GPRMC,012034.000,A,3257.5866,N,11650.1965,W,46.65,202.80,271210,,,A*40
$GPRMC,012037.000,A,3257.5495,N,11650.2153,W,47.14,203.10,271210,,,A*42
$GPRMC,012039.000,A,3257.5262,N,11650.2257,W,44.71,201.90,271210,,,A*4F
$GPRMC,012043.000,A,3257.4843,N,11650.2547,W,43.74,215.20,271210,,,A*40
$GPRMC,012046.000,A,3257.4573,N,11650.2815,W,40.34,224.40,271210,,,A*42
$GPRMC,012049.000,A,3257.4358,N,11650.3115,W,38.88,231.30,271210,,,A*41
$GPRMC,012052.000,A,3257.4172,N,11650.3431,W,37.42,233.00,271210,,,A*4A
$GPRMC,012055.000,A,3257.3983,N,11650.3726,W,37.42,232.20,271210,,,A*4A
$GPRMC,012058.000,A,3257.3793,N,11650.3975,W,35.48,222.30,271210,,,A*48
$GPRMC,012101.000,A,3257.3525,N,11650.4109,W,33.05,196.00,271210,,,A*4E
$GPRMC,012105.000,A,3257.3258,N,11650.4090,W,27.22,168.10,271210,,,A*46
$GPRMC,012108.000,A,3257.3031,N,11650.3953,W,29.18,147.20,271210,,,A*4E
$GPRMC,012111.000,A,3257.2850,N,11650.3802,W,28.67,144.90,271210,,,A*4C
$GPRMC,012114.000,A,3257.2562,N,11650.3684,W,29.16,171.30,271210,,,A*4E
$GPRMC,012117.000,A,3257.2327,N,11650.3741,W,29.16,198.30,271210,,,A*45
$GPRMC,012120.000,A,3257.2099,N,11650.3942,W,34.50,219.50,271210,,,A*48
$GPRMC,012123.000,A,3257.1878,N,11650.4187,W,38.88,222.10,271210,,,A*4C
$GPRMC,012126.000,A,3257.1622,N,11650.4445,W,41.79,219.20,271210,,,A*48
$GPRMC,012129.000,A,3257.1318,N,11650.4688,W,42.77,213.30,271210,,,A*4E
$GPRMC,012132.000,A,3257.1010,N,11650.4894,W,43.25,207.00,271210,,,A*4C
$GPRMC,012135.000,A,3257.0664,N,11650.5081,W,45.68,205.50,271210,,,A*4A
$GPRMC,012138.000,A,3257.0322,N,11650.5279,W,46.17,205.70,271210,,,A*4C
$GPRMC,012141.000,A,3256.9982,N,11650.5471,W,45.20,205.70,271210,,,A*43
$GPRMC,012145.000,A,3256.9534,N,11650.5703,W,44.22,204.20,271210,,,A*47
$GPRMC,012148.000,A,3256.9198,N,11650.5888,W,43.25,203.80,271210,,,A*49
$GPRMC,012150.000,A,3256.8995,N,11650.6010,W,41.31,206.70,271210,,,A*43
$GPRMC,012155.000,A,3256.8570,N,11650.6441,W,41.31,225.60,271210,,,A*41
$GPRMC,012158.000,A,3256.8369,N,11650.6779,W,42.28,235.90,271210,,,A*4F
$GPRMC,012201.000,A,3256.8145,N,11650.7139,W,45.20,234.20,271210,,,A*4A
$GPRMC,012204.000,A,3256.7934,N,11650.7518,W,44.71,232.40,271210,,,A*4C
$GPRMC,012207.000,A,3256.7672,N,11650.7831,W,44.71,226.90,271210,,,A*4C
$GPRMC,012210.000,A,3256.7426,N,11650.8150,W,43.74,226.40,271210,,,A*47
$GPRMC,012214.000,A,3256.7077,N,11650.8515,W,41.31,217.80,271210,,,A*4B
$GPRMC,012217.000,A,3256.6786,N,11650.8697,W,38.88,206.30,271210,,,A*4E
$GPRMC,012220.000,A,3256.6470,N,11650.8807,W,38.88,196.90,271210,,,A*47
$GPRMC,012223.000,A,3256.6140,N,11650.8919,W,39.36,199.00,271210,,,A*4E
$GPRMC,012226.000,A,3256.5860,N,11650.9072,W,37.91,208.80,271210,,,A*46
$GPRMC,012229.000,A,3256.5622,N,11650.9327,W,37.91,226.10,271210,,,A*47
$GPRMC,012232.000,A,3256.5470,N,11650.9642,W,35.96,243.80,271210,,,A*41
$GPRMC,012235.000,A,3256.5403,N,11650.9969,W,35.48,261.30,271210,,,A*4C
$GPRMC,012238.000,A,3256.5398,N,11651.0320,W,36.93,272.00,271210,,,A*4F
$GPRMC,012241.000,A,3256.5432,N,11651.0718,W,40.82,275.50,271210,,,A*4A
$GPRMC,012244.000,A,3256.5464,N,11651.1124,W,40.34,273.10,271210,,,A*4B
$GPRMC,012247.000,A,3256.5440,N,11651.1517,W,39.36,263.10,271210,,,A*47
$GPRMC,012250.000,A,3256.5348,N,11651.1909,W,40.82,252.90,271210,,,A*46
$GPRMC,012253.000,A,3256.5219,N,11651.2285,W,40.82,250.00,271210,,,A*47
$GPRMC,012256.000,A,3256.5126,N,11651.2685,W,41.31,254.70,271210,,,A*43
$GPRMC,012259.000,A,3256.5042,N,11651.3059,W,38.39,255.90,271210,,,A*40
$GPRMC,012302.000,A,3256.4985,N,11651.3399,W,33.53,257.50,271210,,,A*4A
$GPRMC,012305.000,A,3256.4920,N,11651.3710,W,31.10,257.10,271210,,,A*46
$GPRMC,012308.000,A,3256.4862,N,11651.3995,W,29.65,257.60,271210,,,A*43
$GPRMC,012311.000,A,3256.4809,N,11651.4265,W,27.22,257.30,271210,,,A*4D
$GPRMC,012314.000,A,3256.4786,N,11651.4455,W,19.44,263.30,271210,,,A*4F
$GPRMC,012317.000,A,3256.4815,N,11651.4643,W,21.38,286.10,271210,,,A*45
$GPRMC,012320.000,A,3256.4909,N,11651.4877,W,27.22,296.00,271210,,,A*49
$GPRMC,012323.000,A,3256.5057,N,11651.5147,W,33.53,301.00,271210,,,A*4E
$GPRMC,012326.000,A,3256.5204,N,11651.5473,W,36.93,296.10,271210,,,A*4A
$GPRMC,012329.000,A,3256.5329,N,11651.5840,W,39.85,293.60,271210,,,A*4D
$GPRMC,012332.000,A,3256.5462,N,11651.6170,W,37.42,297.50,271210,,,A*44
$GPRMC,012335.000,A,3256.5575,N,11651.6510,W,35.96,286.40,271210,,,A*4C
$GPRMC,012338.000,A,3256.5586,N,11651.6854,W,33.05,268.60,271210,,,A*4E
$GPRMC,012341.000,A,3256.5461,N,11651.7172,W,35.48,244.50,271210,,,A*46
$GPRMC,012344.000,A,3256.5296,N,11651.7491,W,36.93,239.50,271210,,,A*4A
$GPRMC,012347.000,A,3256.5136,N,11651.7811,W,37.42,238.90,271210,,,A*44
$GPRMC,012350.000,A,3256.4972,N,11651.8136,W,38.39,240.10,271210,,,A*4C
$GPRMC,012353.000,A,3256.4826,N,11651.8436,W,34.50,240.30,271210,,,A*4B
$GPRMC,012357.000,A,3256.4625,N,11651.8847,W,36.45,240.60,271210,,,A*4B
$GPRMC,012400.000,A,3256.4461,N,11651.9167,W,37.91,238.40,271210,,,A*43
$GPRMC,012403.000,A,3256.4279,N,11651.9476,W,37.91,232.70,271210,,,A*43
$GPRMC,012407.000,A,3256.3984,N,11651.9806,W,36.93,222.10,271210,,,A*46
$GPRMC,012410.000,A,3256.3744,N,11652.0052,W,36.93,219.50,271210,,,A*4D
$GPRMC,012413.000,A,3256.3514,N,11652.0286,W,36.45,220.60,271210,,,A*40
$GPRMC,012416.000,A,3256.3293,N,11652.0513,W,34.50,217.90,271210,,,A*4B
$GPRMC,012419.000,A,3256.3062,N,11652.0653,W,31.59,200.40,271210,,,A*48
$GPRMC,012422.000,A,3256.2801,N,11652.0696,W,32.56,186.20,271210,,,A*42
$GPRMC,012425.000,A,3256.2518,N,11652.0700,W,34.99,183.80,271210,,,A*44
$GPRMC,012428.000,A,3256.2211,N,11652.0738,W,36.45,186.10,271210,,,A*43
$GPRMC,012431.000,A,3256.1892,N,11652.0786,W,38.88,187.20,271210,,,A*41
$GPRMC,012435.000,A,3256.1561,N,11652.0858,W,34.99,190.30,271210,,,A*43
$GPRMC,012438.000,A,3256.1313,N,11652.0925,W,26.73,194.60,271210,,,A*40
$GPRMC,012441.000,A,3256.1141,N,11652.0989,W,17.01,196.90,271210,,,A*47
$GPRMC,012444.000,A,3256.1034,N,11652.1030,W,10.21,198.40,271210,,,A*4D
$GPRMC,012515.000,A,3256.0955,N,11652.1055,W,0.49,208.90,271210,,,A*7C
$GPRMC,012518.000,A,3256.0819,N,11652.1129,W,17.01,204.20,271210,,,A*4F
$GPRMC,012521.000,A,3256.0625,N,11652.1234,W,25.27,206.90,271210,,,A*47
$GPRMC,012524.000,A,3256.0416,N,11652.1370,W,28.19,208.60,271210,,,A*40
$GPRMC,012526.000,A,3256.0281,N,11652.1463,W,28.67,209.70,271210,,,A*46
$GPRMC,012530.000,A,3255.9984,N,11652.1667,W,32.07,209.70,271210,,,A*4E
$GPRMC,012533.000,A,3255.9728,N,11652.1839,W,34.99,210.70,271210,,,A*49
$GPRMC,012536.000,A,3255.9501,N,11652.2020,W,31.59,212.80,271210,,,A*42
$GPRMC,012539.000,A,3255.9284,N,11652.2154,W,28.67,208.90,271210,,,A*4A
$GPRMC,012542.000,A,3255.9080,N,11652.2290,W,28.19,210.20,271210,,,A*40
$GPRMC,012545.000,A,3255.8868,N,11652.2439,W,30.62,211.90,271210,,,A*42
$GPRMC,012548.000,A,3255.8645,N,11652.2614,W,33.05,211.90,271210,,,A*41
$GPRMC,012551.000,A,3255.8410,N,11652.2788,W,33.05,210.90,271210,,,A*4E
$GPRMC,012554.000,A,3255.8167,N,11652.2967,W,34.99,212.10,271210,,,A*49
$GPRMC,012557.000,A,3255.7905,N,11652.3159,W,37.42,212.50,271210,,,A*4C
$GPRMC,012600.000,A,3255.7635,N,11652.3375,W,38.39,213.90,271210,,,A*43
$GPRMC,012603.000,A,3255.7365,N,11652.3571,W,37.42,211.90,271210,,,A*43
$GPRMC,012606.000,A,3255.7098,N,11652.3787,W,38.39,214.30,271210,,,A*40
$GPRMC,012610.000,A,3255.6770,N,11652.4080,W,35.96,217.60,271210,,,A*4E
$GPRMC,012613.000,A,3255.6525,N,11652.4319,W,36.45,218.60,271210,,,A*4E
$GPRMC,012616.000,A,3255.6287,N,11652.4527,W,34.99,216.60,271210,,,A*42
$GPRMC,012619.000,A,3255.6042,N,11652.4705,W,34.99,209.50,271210,,,A*49
$GPRMC,012622.000,A,3255.5777,N,11652.4860,W,34.50,203.10,271210,,,A*44
$GPRMC,012625.000,A,3255.5504,N,11652.4968,W,34.02,195.70,271210,,,A*41
$GPRMC,012628.000,A,3255.5227,N,11652.5039,W,33.05,193.40,271210,,,A*43
$GPRMC,012631.000,A,3255.4961,N,11652.5131,W,32.56,195.40,271210,,,A*4B
$GPRMC,012634.000,A,3255.4718,N,11652.5202,W,31.10,195.00,271210,,,A*48
$GPRMC,012637.000,A,3255.4466,N,11652.5322,W,32.07,205.70,271210,,,A*4A
$GPRMC,012640.000,A,3255.4235,N,11652.5528,W,33.05,218.40,271210,,,A*4A
$GPRMC,012643.000,A,3255.4053,N,11652.5786,W,33.53,227.10,271210,,,A*47
$GPRMC,012646.000,A,3255.3844,N,11652.6010,W,32.07,222.40,271210,,,A*40
$GPRMC,012649.000,A,3255.3616,N,11652.6218,W,33.05,220.30,271210,,,A*4A
$GPRMC,012652.000,A,3255.3408,N,11652.6427,W,32.56,221.40,271210,,,A*46
$GPRMC,012655.000,A,3255.3210,N,11652.6667,W,32.07,222.40,271210,,,A*4F
$GPRMC,012658.000,A,3255.3004,N,11652.6878,W,32.07,222.30,271210,,,A*42
$GPRMC,012701.000,A,3255.2797,N,11652.7091,W,33.05,222.60,271210,,,A*4B
$GPRMC,012704.000,A,3255.2603,N,11652.7337,W,33.53,226.70,271210,,,A*4B
$GPRMC,012707.000,A,3255.2428,N,11652.7590,W,34.02,231.20,271210,,,A*48
$GPRMC,012710.000,A,3255.2258,N,11652.7899,W,36.45,238.30,271210,,,A*42
$GPRMC,012712.000,A,3255.2165,N,11652.8119,W,36.93,243.30,271210,,,A*44
$GPRMC,012716.000,A,3255.1994,N,11652.8601,W,39.85,250.30,271210,,,A*41
$GPRMC,012719.000,A,3255.1884,N,11652.8981,W,40.82,252.50,271210,,,A*44
$GPRMC,012722.000,A,3255.1788,N,11652.9380,W,41.79,254.30,271210,,,A*40
$GPRMC,012725.000,A,3255.1689,N,11652.9764,W,41.31,252.40,271210,,,A*44
$GPRMC,012727.000,A,3255.1607,N,11653.0008,W,41.31,250.50,271210,,,A*46
$GPRMC,012731.000,A,3255.1416,N,11653.0445,W,37.42,233.70,271210,,,A*4C
$GPRMC,012734.000,A,3255.1179,N,11653.0668,W,36.45,210.90,271210,,,A*41
$GPRMC,012738.000,A,3255.0774,N,11653.0782,W,37.91,187.40,271210,,,A*4A
$GPRMC,012741.000,A,3255.0443,N,11653.0815,W,39.36,183.70,271210,,,A*46
$GPRMC,012744.000,A,3255.0124,N,11653.0825,W,39.36,182.60,271210,,,A*44
$GPRMC,012747.000,A,3254.9798,N,11653.0852,W,39.36,184.00,271210,,,A*4E
$GPRMC,012750.000,A,3254.9460,N,11653.0884,W,38.39,184.10,271210,,,A*48
$GPRMC,012753.000,A,3254.9158,N,11653.0921,W,35.96,184.90,271210,,,A*4B
$GPRMC,012756.000,A,3254.8872,N,11653.0946,W,34.99,184.80,271210,,,A*40
$GPRMC,012759.000,A,3254.8578,N,11653.0959,W,33.53,182.50,271210,,,A*4C
$GPRMC,012802.000,A,3254.8299,N,11653.0983,W,33.53,184.60,271210,,,A*47
$GPRMC,012805.000,A,3254.8009,N,11653.0991,W,34.50,179.50,271210,,,A*4D
$GPRMC,012808.000,A,3254.7729,N,11653.0969,W,33.53,172.90,271210,,,A*4E
$GPRMC,012811.000,A,3254.7433,N,11653.0912,W,34.99,171.00,271210,,,A*49
$GPRMC,012814.000,A,3254.7133,N,11653.0870,W,36.45,172.10,271210,,,A*4D
$GPRMC,012817.000,A,3254.6839,N,11653.0818,W,36.45,172.00,271210,,,A*43
$GPRMC,012820.000,A,3254.6523,N,11653.0767,W,38.88,171.20,271210,,,A*48
$GPRMC,012823.000,A,3254.6191,N,11653.0699,W,40.34,171.10,271210,,,A*4D
$GPRMC,012826.000,A,3254.5853,N,11653.0644,W,41.32,171.50,271210,,,A*4F
$GPRMC,012829.000,A,3254.5503,N,11653.0573,W,43.75,171.40,271210,,,A*4F
$GPRMC,012832.000,A,3254.5132,N,11653.0492,W,45.21,171.10,271210,,,A*4F
$GPRMC,012835.000,A,3254.4775,N,11653.0430,W,42.77,172.00,271210,,,A*42
$GPRMC,012838.000,A,3254.4449,N,11653.0383,W,38.88,172.60,271210,,,A*47
$GPRMC,012842.000,A,3254.4009,N,11653.0299,W,41.32,170.80,271210,,,A*43
$GPRMC,012845.000,A,3254.3672,N,11653.0245,W,40.34,174.70,271210,,,A*44
$GPRMC,012848.000,A,3254.3367,N,11653.0258,W,35.96,183.50,271210,,,A*44
$GPRMC,012851.000,A,3254.3089,N,11653.0297,W,33.05,190.80,271210,,,A*4F
$GPRMC,012854.000,A,3254.2829,N,11653.0405,W,32.56,200.70,271210,,,A*46
$GPRMC,012857.000,A,3254.2570,N,11653.0546,W,34.50,207.60,271210,,,A*44
$GPRMC,012900.000,A,3254.2321,N,11653.0731,W,35.96,212.40,271210,,,A*4A
$GPRMC,012903.000,A,3254.2062,N,11653.0938,W,38.39,213.20,271210,,,A*45
$GPRMC,012906.000,A,3254.1797,N,11653.1156,W,39.36,214.30,271210,,,A*47
$GPRMC,012909.000,A,3254.1521,N,11653.1360,W,38.39,213.10,271210,,,A*4B
$GPRMC,012912.000,A,3254.1275,N,11653.1539,W,35.48,212.70,271210,,,A*41
$GPRMC,012915.000,A,3254.1017,N,11653.1742,W,38.39,214.20,271210,,,A*46
$GPRMC,012917.000,A,3254.0837,N,11653.1874,W,39.36,212.10,271210,,,A*4E
$GPRMC,012921.000,A,3254.0493,N,11653.2127,W,35.00,212.70,271210,,,A*4A
$GPRMC,012924.000,A,3254.0258,N,11653.2300,W,34.02,213.30,271210,,,A*4F
$GPRMC,012927.000,A,3254.0025,N,11653.2489,W,34.99,217.10,271210,,,A*46
$GPRMC,012930.000,A,3253.9771,N,11653.2727,W,39.36,218.70,271210,,,A*4E
$GPRMC,012933.000,A,3253.9536,N,11653.2969,W,36.45,220.50,271210,,,A*4A
$GPRMC,012936.000,A,3253.9309,N,11653.3161,W,34.02,217.40,271210,,,A*40
$GPRMC,012939.000,A,3253.9058,N,11653.3341,W,35.48,210.00,271210,,,A*44
$GPRMC,012943.000,A,3253.8751,N,11653.3483,W,35.96,204.00,271210,,,A*49
$GPRMC,012946.000,A,3253.8519,N,11653.3634,W,35.49,209.60,271210,,,A*45
$GPRMC,012949.000,A,3253.8190,N,11653.3876,W,33.53,210.90,271210,,,A*4D
$GPRMC,012952.000,A,3253.7995,N,11653.3923,W,29.65,198.60,271210,,,A*46
$GPRMC,012954.000,A,3253.7833,N,11653.3925,W,28.67,191.40,271210,,,A*43
$GPRMC,012957.000,A,3253.7592,N,11653.3940,W,29.65,188.70,271210,,,A*4D
$GPRMC,013000.000,A,3253.7279,N,11653.4018,W,31.59,190.00,271210,,,A*4E
$GPRMC,013005.000,A,3253.6874,N,11653.4101,W,36.08,192.10,271210,,,A*44
$GPRMC,013008.000,A,3253.6577,N,11653.4166,W,36.57,191.10,271210,,,A*4F
$GPRMC,013011.000,A,3253.6304,N,11653.4233,W,30.76,195.10,271210,,,A*47
$GPRMC,013014.000,A,3253.6082,N,11653.4347,W,29.16,210.20,271210,,,A*4E
$GPRMC,013017.000,A,3253.5875,N,11653.4520,W,31.72,209.30,271210,,,A*4B
$GPRMC,013020.000,A,3253.5646,N,11653.4637,W,27.77,196.40,271210,,,A*44
$GPRMC,013023.000,A,3253.5441,N,11653.4672,W,22.92,182.20,271210,,,A*4E
$GPRMC,013026.000,A,3253.5247,N,11653.4674,W,25.35,182.20,271210,,,A*47
$GPRMC,013029.000,A,3253.5025,N,11653.4694,W,28.34,185.50,271210,,,A*4C
$GPRMC,013032.000,A,3253.4794,N,11653.4743,W,27.22,198.00,271210,,,A*40
$GPRMC,013035.000,A,3253.4596,N,11653.4837,W,25.76,194.90,271210,,,A*4D
$GPRMC,013038.000,A,3253.4400,N,11653.4862,W,22.84,183.30,271210,,,A*48
$GPRMC,013041.000,A,3253.4211,N,11653.4784,W,24.86,174.80,271210,,,A*40
$GPRMC,013044.000,A,3253.3996,N,11653.4785,W,28.25,185.20,271210,,,A*46
$GPRMC,013047.000,A,3253.3753,N,11653.4821,W,31.72,191.30,271210,,,A*4D
$GPRMC,013050.000,A,3253.3493,N,11653.4936,W,34.52,208.30,271210,,,A*47
$GPRMC,013053.000,A,3253.3250,N,11653.5134,W,35.49,215.30,271210,,,A*41
$GPRMC,013056.000,A,3253.3017,N,11653.5344,W,35.49,219.70,271210,,,A*48
$GPRMC,013059.000,A,3253.2800,N,11653.5580,W,35.49,225.20,271210,,,A*4C
$GPRMC,013102.000,A,3253.2604,N,11653.5826,W,33.06,228.70,271210,,,A*4D
$GPRMC,013105.000,A,3253.2446,N,11653.6049,W,32.58,230.80,271210,,,A*40
$GPRMC,013108.000,A,3253.2197,N,11653.6363,W,32.56,220.50,271210,,,A*4D
$GPRMC,013111.000,A,3253.1979,N,11653.6575,W,33.53,221.00,271210,,,A*4F
$GPRMC,013114.000,A,3253.1777,N,11653.6784,W,34.02,222.60,271210,,,A*40
$GPRMC,013117.000,A,3253.1557,N,11653.6990,W,34.02,219.60,271210,,,A*40
$GPRMC,013120.000,A,3253.1357,N,11653.7236,W,34.50,228.70,271210,,,A*40
$GPRMC,013123.000,A,3253.1170,N,11653.7455,W,30.62,222.70,271210,,,A*48
$GPRMC,013126.000,A,3253.0997,N,11653.7629,W,25.27,216.30,271210,,,A*42
$GPRMC,013129.000,A,3253.0813,N,11653.7745,W,24.30,210.10,271210,,,A*48
$GPRMC,013132.000,A,3253.0642,N,11653.7869,W,25.27,212.50,271210,,,A*48
$GPRMC,013135.000,A,3253.0461,N,11653.8014,W,26.24,215.00,271210,,,A*43
$GPRMC,013138.000,A,3253.0278,N,11653.8176,W,26.73,216.60,271210,,,A*42
$GPRMC,013141.000,A,3253.0111,N,11653.8329,W,25.27,218.50,271210,,,A*47
$GPRMC,013144.000,A,3252.9967,N,11653.8496,W,22.84,225.90,271210,,,A*4C
$GPRMC,013147.000,A,3252.9866,N,11653.8677,W,22.84,240.20,271210,,,A*4A
$GPRMC,013150.000,A,3252.9791,N,11653.8889,W,23.81,251.40,271210,,,A*46
$GPRMC,013153.000,A,3252.9765,N,11653.9153,W,26.73,260.60,271210,,,A*49
$GPRMC,013156.000,A,3252.9717,N,11653.9441,W,30.13,257.90,271210,,,A*45
$GPRMC,013159.000,A,3252.9652,N,11653.9738,W,32.56,254.60,271210,,,A*48
$GPRMC,013202.000,A,3252.9574,N,11654.0067,W,35.48,254.30,271210,,,A*4C
$GPRMC,013205.000,A,3252.9493,N,11654.0420,W,36.93,254.90,271210,,,A*4B
$GPRMC,013208.000,A,3252.9424,N,11654.0724,W,32.56,255.20,271210,,,A*4A
$GPRMC,013211.000,A,3252.9338,N,11654.1013,W,32.07,248.90,271210,,,A*49
$GPRMC,013214.000,A,3252.9187,N,11654.1286,W,33.53,237.70,271210,,,A*42
$GPRMC,013217.000,A,3252.9028,N,11654.1551,W,31.59,236.30,271210,,,A*45
$GPRMC,013220.000,A,3252.8883,N,11654.1797,W,29.65,234.70,271210,,,A*41
$GPRMC,013223.000,A,3252.8751,N,11654.2029,W,29.65,233.60,271210,,,A*45
$GPRMC,013226.000,A,3252.8602,N,11654.2270,W,31.59,232.60,271210,,,A*4E
$GPRMC,013228.000,A,3252.8502,N,11654.2452,W,33.05,235.50,271210,,,A*4A
$GPRMC,013232.000,A,3252.8299,N,11654.2840,W,34.99,239.60,271210,,,A*46
$GPRMC,013235.000,A,3252.8161,N,11654.3102,W,31.10,238.50,271210,,,A*4D
$GPRMC,013238.000,A,3252.8027,N,11654.3370,W,31.59,238.70,271210,,,A*4B
$GPRMC,013241.000,A,3252.7888,N,11654.3645,W,33.05,240.00,271210,,,A*47
$GPRMC,013244.000,A,3252.7755,N,11654.3884,W,29.16,237.00,271210,,,A*47
$GPRMC,013247.000,A,3252.7610,N,11654.4094,W,28.19,229.30,271210,,,A*48
$GPRMC,013250.000,A,3252.7446,N,11654.4287,W,28.19,225.10,271210,,,A*41
$GPRMC,013253.000,A,3252.7248,N,11654.4445,W,29.65,214.20,271210,,,A*49
$GPRMC,013256.000,A,3252.7027,N,11654.4574,W,31.60,207.60,271210,,,A*4E
$GPRMC,013259.000,A,3252.6769,N,11654.4719,W,33.53,206.30,271210,,,A*42
$GPRMC,013302.000,A,3252.6562,N,11654.4870,W,28.67,209.60,271210,,,A*43
$GPRMC,013305.000,A,3252.6356,N,11654.4990,W,25.76,209.50,271210,,,A*44
$GPRMC,013308.000,A,3252.6241,N,11654.5129,W,19.93,228.80,271210,,,A*4F
$GPRMC,013311.000,A,3252.6191,N,11654.5293,W,16.04,244.40,271210,,,A*4C
$GPRMC,013314.000,A,3252.6151,N,11654.5397,W,10.21,246.00,271210,,,A*47
$GPRMC,013317.000,A,3252.6118,N,11654.5473,W,9.23,243.30,271210,,,A*78
$GPRMC,013320.000,A,3252.6085,N,11654.5552,W,9.72,241.40,271210,,,A*7A
$GPRMC,013323.000,A,3252.6061,N,11654.5619,W,6.80,240.70,271210,,,A*7F
$GPRMC,013338.000,A,3252.6033,N,11654.5646,W,4.37,227.70,271210,,,A*77
$GPRMC,013341.000,A,3252.6008,N,11654.5677,W,5.83,226.70,271210,,,A*7C
$GPRMC,013344.000,A,3252.5967,N,11654.5706,W,4.37,209.30,271210,,,A*7A
$GPRMC,013412.000,A,3252.5861,N,11654.5770,W,1.46,201.30,271210,,,A*73
$GPRMC,013415.000,A,3252.5777,N,11654.5803,W,4.37,200.30,271210,,,A*75
$GPRMC,013434.000,A,3252.5565,N,11654.5869,W,5.35,194.80,271210,,,A*7D
$GPRMC,013436.000,A,3252.5559,N,11654.5863,W,3.89,187.80,271210,,,A*79
$GPRMC,013440.000,A,3252.5505,N,11654.5874,W,5.43,188.20,271210,,,A*72
$GPRMC,013531.000,A,3252.5093,N,11654.5989,W,4.37,188.90,271210,,,A*75
$GPRMC,013534.000,A,3252.5004,N,11654.6026,W,11.66,196.50,271210,,,A*42
$GPRMC,013537.000,A,3252.4842,N,11654.6073,W,22.36,195.00,271210,,,A*49
$GPRMC,013540.000,A,3252.4615,N,11654.6158,W,29.65,200.00,271210,,,A*4F
$GPRMC,013543.000,A,3252.4369,N,11654.6307,W,34.50,209.20,271210,,,A*4B
$GPRMC,013546.000,A,3252.4108,N,11654.6532,W,38.88,219.30,271210,,,A*42
$GPRMC,013549.000,A,3252.3894,N,11654.6838,W,40.34,232.10,271210,,,A*42
$GPRMC,013552.000,A,3252.3695,N,11654.7199,W,42.77,239.70,271210,,,A*4C
$GPRMC,013555.000,A,3252.3522,N,11654.7582,W,43.25,241.90,271210,,,A*4D
$GPRMC,013558.000,A,3252.3347,N,11654.7953,W,43.74,241.30,271210,,,A*4B
$GPRMC,013601.000,A,3252.3173,N,11654.8322,W,42.77,240.70,271210,,,A*45
$GPRMC,013604.000,A,3252.2978,N,11654.8622,W,38.39,227.90,271210,,,A*4F
$GPRMC,013607.000,A,3252.2724,N,11654.8843,W,38.88,211.80,271210,,,A*4C
$GPRMC,013610.000,A,3252.2409,N,11654.8980,W,37.91,195.70,271210,,,A*4F
$GPRMC,013612.000,A,3252.2217,N,11654.8994,W,35.48,184.30,271210,,,A*43
$GPRMC,013616.000,A,3252.1845,N,11654.8994,W,32.56,179.00,271210,,,A*40
$GPRMC,013619.000,A,3252.1583,N,11654.8989,W,29.65,177.50,271210,,,A*45
$GPRMC,013622.000,A,3252.1343,N,11654.8983,W,29.65,178.90,271210,,,A*4E
$GPRMC,013625.000,A,3252.1091,N,11654.8974,W,31.10,178.70,271210,,,A*48
$GPRMC,013628.000,A,3252.0821,N,11654.8987,W,31.59,183.20,271210,,,A*47
$GPRMC,013632.000,A,3252.0486,N,11654.9087,W,30.62,199.90,271210,,,A*4C
$GPRMC,013635.000,A,3252.0271,N,11654.9233,W,29.16,213.10,271210,,,A*4A
$GPRMC,013638.000,A,3252.0087,N,11654.9441,W,30.62,223.70,271210,,,A*41
$GPRMC,013641.000,A,3251.9905,N,11654.9669,W,31.10,228.00,271210,,,A*46
$GPRMC,013644.000,A,3251.9735,N,11654.9896,W,29.65,228.40,271210,,,A*4F
$GPRMC,013648.000,A,3251.9532,N,11655.0184,W,28.19,226.60,271210,,,A*42
$GPRMC,013651.000,A,3251.9386,N,11655.0371,W,27.22,227.90,271210,,,A*42
$GPRMC,013654.000,A,3251.9211,N,11655.0553,W,27.70,218.40,271210,,,A*48
$GPRMC,013657.000,A,3251.9014,N,11655.0692,W,27.22,207.10,271210,,,A*4E
$GPRMC,013700.000,A,3251.8817,N,11655.0772,W,23.33,196.70,271210,,,A*41
$GPRMC,013704.000,A,3251.8660,N,11655.0798,W,15.55,189.20,271210,,,A*41
$GPRMC,013707.000,A,3251.8557,N,11655.0798,W,12.15,176.50,271210,,,A*41
$GPRMC,013710.000,A,3251.8407,N,11655.0774,W,19.93,173.10,271210,,,A*45
$GPRMC,013713.000,A,3251.8280,N,11655.0750,W,13.61,171.70,271210,,,A*4A
$GPRMC,013716.000,A,3251.8230,N,11655.0752,W,6.80,193.60,271210,,,A*70
$GPRMC,013719.000,A,3251.8163,N,11655.0911,W,17.98,253.60,271210,,,A*45
$GPRMC,013722.000,A,3251.8121,N,11655.1173,W,27.70,260.90,271210,,,A*4C
$GPRMC,013725.000,A,3251.8096,N,11655.1490,W,33.05,262.40,271210,,,A*46
$GPRMC,013728.000,A,3251.8042,N,11655.1867,W,38.39,261.10,271210,,,A*44
$GPRMC,013731.000,A,3251.7983,N,11655.2251,W,38.39,260.10,271210,,,A*4A
$GPRMC,013734.000,A,3251.7944,N,11655.2609,W,34.50,263.30,271210,,,A*4F
$GPRMC,013737.000,A,3251.7927,N,11655.2903,W,28.67,264.00,271210,,,A*41
$GPRMC,013740.000,A,3251.7891,N,11655.3118,W,20.41,255.60,271210,,,A*46
$GPRMC,013743.000,A,3251.7851,N,11655.3285,W,13.12,260.90,271210,,,A*41
$GPRMC,013746.000,A,3251.7873,N,11655.3342,W,6.80,308.10,271210,,,A*76
$GPRMC,013749.000,A,3251.7923,N,11655.3379,W,6.32,306.30,271210,,,A*70
$GPRMC,013901.000,A,3251.8004,N,11655.3429,W,6.32,03.60,271210,,,A*40
$GPRMC,013904.000,A,3251.8138,N,11655.3408,W,10.21,16.60,271210,,,A*79
$GPRMC,013907.000,A,3251.8201,N,11655.3325,W,10.21,58.90,271210,,,A*7E
$GPRMC,013910.000,A,3251.8131,N,11655.3271,W,8.75,149.60,271210,,,A*7E
$GPRMC,013913.000,A,3251.8026,N,11655.3273,W,14.58,189.50,271210,,,A*45
$GPRMC,013916.000,A,3251.7969,N,11655.3298,W,4.37,195.10,271210,,,A*79
$GPRMC,013919.000,A,3251.7911,N,11655.3325,W,7.29,195.80,271210,,,A*7B
$GPRMC,013928.000,A,3251.7839,N,11655.3357,W,4.86,228.40,271210,,,A*78
$GPRMC,013931.000,A,3251.7846,N,11655.3486,W,11.66,285.50,271210,,,A*4F
$GPRMC,013934.000,A,3251.7939,N,11655.3567,W,14.09,348.70,271210,,,A*43
$GPRMC,013937.000,A,3251.8118,N,11655.3555,W,22.84,04.00,271210,,,A*79
$GPRMC,013939.000,A,3251.8283,N,11655.3507,W,28.67,09.30,271210,,,A*78
$GPRMC,013943.000,A,3251.8705,N,11655.3430,W,37.91,05.10,271210,,,A*72
$GPRMC,013946.000,A,3251.9023,N,11655.3420,W,40.34,00.50,271210,,,A*7A
$GPRMC,013949.000,A,3251.9378,N,11655.3437,W,42.77,356.70,271210,,,A*49
$GPRMC,013952.000,A,3251.9749,N,11655.3487,W,44.22,353.60,271210,,,A*4C
$GPRMC,013955.000,A,3252.0122,N,11655.3536,W,44.71,350.90,271210,,,A*4B
$GPRMC,013958.000,A,3252.0371,N,11655.3606,W,45.20,348.40,271210,,,A*43
$GPRMC,014001.000,A,3252.0851,N,11655.3724,W,44.71,347.30,271210,,,A*44
$GPRMC,014004.000,A,3252.1231,N,11655.3802,W,45.68,349.30,271210,,,A*40
$GPRMC,014007.000,A,3252.1604,N,11655.3884,W,44.71,349.10,271210,,,A*44
$GPRMC,014010.000,A,3252.1965,N,11655.3968,W,45.20,349.00,271210,,,A*4D
$GPRMC,014013.000,A,3252.2328,N,11655.4051,W,44.71,348.70,271210,,,A*49
$GPRMC,014017.000,A,3252.2815,N,11655.4170,W,42.28,348.30,271210,,,A*44
$GPRMC,014020.000,A,3252.3169,N,11655.4253,W,42.28,347.30,271210,,,A*4E
$GPRMC,014024.000,A,3252.3566,N,11655.4393,W,34.50,343.50,271210,,,A*40
$GPRMC,014027.000,A,3252.3785,N,11655.4471,W,23.81,347.70,271210,,,A*4B
$GPRMC,014030.000,A,3252.3889,N,11655.4484,W,8.75,354.90,271210,,,A*7A
$GPRMC,014124.000,A,3252.3915,N,11655.4496,W,3.89,333.50,271210,,,A*7C
$GPRMC,014127.000,A,3252.4008,N,11655.4534,W,11.18,339.80,271210,,,A*48
$GPRMC,014130.000,A,3252.4143,N,11655.4577,W,16.52,345.90,271210,,,A*44
$GPRMC,014132.000,A,3252.4243,N,11655.4605,W,17.50,347.00,271210,,,A*4B
$GPRMC,014136.000,A,3252.4491,N,11655.4660,W,24.79,348.20,271210,,,A*43
$GPRMC,014139.000,A,3252.4736,N,11655.4721,W,31.59,348.70,271210,,,A*45
$GPRMC,014142.000,A,3252.5031,N,11655.4783,W,36.45,348.50,271210,,,A*48
$GPRMC,014145.000,A,3252.5358,N,11655.4856,W,40.34,348.20,271210,,,A*44
$GPRMC,014148.000,A,3252.5711,N,11655.4954,W,42.28,347.20,271210,,,A*43
$GPRMC,014151.000,A,3252.6050,N,11655.5040,W,41.31,348.20,271210,,,A*43
$GPRMC,014154.000,A,3252.6384,N,11655.5122,W,41.79,347.90,271210,,,A*41
$GPRMC,014157.000,A,3252.6741,N,11655.5199,W,44.22,346.10,271210,,,A*4D
$GPRMC,014200.000,A,3252.7103,N,11655.5333,W,45.20,340.60,271210,,,A*4D
$GPRMC,014203.000,A,3252.7473,N,11655.5524,W,48.11,335.20,271210,,,A*45
$GPRMC,014206.000,A,3252.7819,N,11655.5755,W,50.06,328.80,271210,,,A*4D
$GPRMC,014209.000,A,3252.8174,N,11655.6053,W,52.49,324.70,271210,,,A*47
$GPRMC,014212.000,A,3252.8514,N,11655.6389,W,52.97,320.00,271210,,,A*4B
$GPRMC,014215.000,A,3252.8847,N,11655.6710,W,52.00,320.20,271210,,,A*4F
$GPRMC,014218.000,A,3252.9182,N,11655.7034,W,51.51,320.20,271210,,,A*44
$GPRMC,014221.000,A,3252.9514,N,11655.7358,W,51.51,320.60,271210,,,A*48
$GPRMC,014224.000,A,3252.9854,N,11655.7688,W,51.51,320.80,271210,,,A*42
$GPRMC,014227.000,A,3253.0187,N,11655.8019,W,52.97,319.90,271210,,,A*4D
$GPRMC,014230.000,A,3253.0541,N,11655.8349,W,52.97,321.30,271210,,,A*42
$GPRMC,014233.000,A,3253.0882,N,11655.8673,W,52.00,321.10,271210,,,A*43
$GPRMC,014236.000,A,3253.1230,N,11655.8995,W,51.51,321.70,271210,,,A*42
$GPRMC,014239.000,A,3253.1568,N,11655.9283,W,50.06,327.80,271210,,,A*40
$GPRMC,014242.000,A,3253.1938,N,11655.9487,W,50.55,338.40,271210,,,A*43
$GPRMC,014245.000,A,3253.2351,N,11655.9607,W,51.51,348.40,271210,,,A*4A
$GPRMC,014248.000,A,3253.2774,N,11655.9651,W,50.06,359.00,271210,,,A*40
$GPRMC,014251.000,A,3253.3176,N,11655.9601,W,48.11,08.20,271210,,,A*72
$GPRMC,014254.000,A,3253.3436,N,11655.9532,W,47.63,11.90,271210,,,A*7C
$GPRMC,014257.000,A,3253.3955,N,11655.9388,W,48.11,13.60,271210,,,A*77
$GPRMC,014300.000,A,3253.4356,N,11655.9303,W,49.08,06.80,271210,,,A*7A
$GPRMC,014303.000,A,3253.4775,N,11655.9276,W,50.06,359.40,271210,,,A*4C
$GPRMC,014306.000,A,3253.5197,N,11655.9331,W,51.03,353.90,271210,,,A*43
$GPRMC,014309.000,A,3253.5491,N,11655.9365,W,52.00,354.30,271210,,,A*43
$GPRMC,014311.000,A,3253.5898,N,11655.9403,W,50.54,355.00,271210,,,A*49
$GPRMC,014315.000,A,3253.6485,N,11655.9472,W,52.00,355.50,271210,,,A*4E
$GPRMC,014318.000,A,3253.6907,N,11655.9534,W,51.51,352.20,271210,,,A*40
$GPRMC,014321.000,A,3253.7327,N,11655.9643,W,52.00,345.00,271210,,,A*43
$GPRMC,014324.000,A,3253.7606,N,11655.9767,W,52.49,339.30,271210,,,A*42
$GPRMC,014327.000,A,3253.8123,N,11656.0110,W,54.43,328.40,271210,,,A*49
$GPRMC,014330.000,A,3253.8478,N,11656.0416,W,52.49,325.10,271210,,,A*43
$GPRMC,014333.000,A,3253.8812,N,11656.0706,W,51.03,324.90,271210,,,A*46
$GPRMC,014336.000,A,3253.9164,N,11656.1019,W,52.97,323.80,271210,,,A*4A
$GPRMC,014339.000,A,3253.9544,N,11656.1327,W,53.94,325.30,271210,,,A*42
$GPRMC,014342.000,A,3253.9901,N,11656.1622,W,53.94,324.50,271210,,,A*44
$GPRMC,014345.000,A,3254.0249,N,11656.1923,W,52.97,324.70,271210,,,A*44
$GPRMC,014348.000,A,3254.0628,N,11656.2216,W,52.97,324.80,271210,,,A*4B
$GPRMC,014351.000,A,3254.0992,N,11656.2523,W,53.94,324.00,271210,,,A*46
$GPRMC,014354.000,A,3254.1354,N,11656.2833,W,53.46,324.30,271210,,,A*42
$GPRMC,014357.000,A,3254.1718,N,11656.3145,W,52.97,324.60,271210,,,A*4C
$GPRMC,014400.000,A,3254.2080,N,11656.3444,W,52.00,325.50,271210,,,A*44
$GPRMC,014403.000,A,3254.2433,N,11656.3721,W,49.08,326.90,271210,,,A*46
$GPRMC,014406.000,A,3254.2774,N,11656.4000,W,49.08,325.40,271210,,,A*4E
$GPRMC,014409.000,A,3254.3082,N,11656.4304,W,50.06,319.60,271210,,,A*42
$GPRMC,014412.000,A,3254.3375,N,11656.4636,W,50.54,315.70,271210,,,A*4D
$GPRMC,014415.000,A,3254.3686,N,11656.5020,W,52.97,312.20,271210,,,A*4C
$GPRMC,014418.000,A,3254.3969,N,11656.5433,W,53.46,308.80,271210,,,A*45
$GPRMC,014421.000,A,3254.4221,N,11656.5874,W,53.46,304.40,271210,,,A*40
$GPRMC,014424.000,A,3254.4473,N,11656.6323,W,53.94,304.30,271210,,,A*46
$GPRMC,014427.000,A,3254.4733,N,11656.6760,W,53.94,304.70,271210,,,A*45
$GPRMC,014430.000,A,3254.4992,N,11656.7196,W,53.46,305.30,271210,,,A*42
$GPRMC,014433.000,A,3254.5270,N,11656.7591,W,50.55,312.30,271210,,,A*43
$GPRMC,014436.000,A,3254.5578,N,11656.7914,W,47.64,323.50,271210,,,A*48
$GPRMC,014439.000,A,3254.5943,N,11656.8067,W,46.17,343.80,271210,,,A*4F
$GPRMC,014442.000,A,3254.6345,N,11656.8108,W,46.17,359.00,271210,,,A*47
$GPRMC,014445.000,A,3254.6751,N,11656.8064,W,47.63,04.20,271210,,,A*71
$GPRMC,014448.000,A,3254.7141,N,11656.8048,W,47.14,01.40,271210,,,A*77
$GPRMC,014451.000,A,3254.7525,N,11656.8081,W,47.14,352.30,271210,,,A*4E
$GPRMC,014454.000,A,3254.7895,N,11656.8240,W,47.63,335.80,271210,,,A*48
$GPRMC,014457.000,A,3254.8234,N,11656.8549,W,50.06,320.20,271210,,,A*40
$GPRMC,014500.000,A,3254.8522,N,11656.8915,W,49.57,313.50,271210,,,A*4D
$GPRMC,014503.000,A,3254.8778,N,11656.9278,W,49.08,313.40,271210,,,A*49
$GPRMC,014506.000,A,3254.9100,N,11656.9588,W,49.09,326.70,271210,,,A*48
$GPRMC,014509.000,A,3254.9475,N,11656.9765,W,47.64,344.20,271210,,,A*45
$GPRMC,014512.000,A,3254.9867,N,11656.9793,W,46.17,00.80,271210,,,A*75
$GPRMC,014515.000,A,3255.0253,N,11656.9670,W,47.15,18.30,271210,,,A*7A
$GPRMC,014518.000,A,3255.0604,N,11656.9473,W,47.14,26.80,271210,,,A*77
$GPRMC,014521.000,A,3255.0953,N,11656.9264,W,48.11,27.30,271210,,,A*70
$GPRMC,014524.000,A,3255.1315,N,11656.9041,W,49.57,27.10,271210,,,A*78
$GPRMC,014527.000,A,3255.1711,N,11656.8862,W,51.51,17.80,271210,,,A*76
$GPRMC,014530.000,A,3255.2115,N,11656.8782,W,50.06,08.10,271210,,,A*74
$GPRMC,014533.000,A,3255.2549,N,11656.8711,W,52.00,08.40,271210,,,A*71
$GPRMC,014536.000,A,3255.2954,N,11656.8625,W,49.08,14.80,271210,,,A*71
$GPRMC,014539.000,A,3255.3310,N,11656.8459,W,46.65,27.40,271210,,,A*74
$GPRMC,014542.000,A,3255.3603,N,11656.8192,W,46.65,42.00,271210,,,A*7A
$GPRMC,014545.000,A,3255.3867,N,11656.7856,W,47.63,50.00,271210,,,A*7B
$GPRMC,014548.000,A,3255.4145,N,11656.7496,W,47.63,44.20,271210,,,A*7F
$GPRMC,014551.000,A,3255.4519,N,11656.7287,W,47.63,20.00,271210,,,A*7C
$GPRMC,014554.000,A,3255.4909,N,11656.7250,W,46.65,00.90,271210,,,A*72
$GPRMC,014557.000,A,3255.5286,N,11656.7369,W,47.63,345.60,271210,,,A*4D
$GPRMC,014600.000,A,3255.5583,N,11656.7646,W,46.17,325.40,271210,,,A*40
$GPRMC,014603.000,A,3255.5791,N,11656.7891,W,45.68,322.40,271210,,,A*4A
$GPRMC,014606.000,A,3255.6101,N,11656.8168,W,47.18,322.40,271210,,,A*46
$GPRMC,014609.000,A,3255.6400,N,11656.8482,W,50.06,315.60,271210,,,A*43
$GPRMC,014612.000,A,3255.6657,N,11656.8987,W,49.08,297.30,271210,,,A*49
$GPRMC,014615.000,A,3255.6809,N,11656.9429,W,48.11,293.20,271210,,,A*4F
$GPRMC,014618.000,A,3255.7011,N,11656.9833,W,46.17,304.50,271210,,,A*45
$GPRMC,014622.000,A,3255.7292,N,11657.0183,W,45.20,315.30,271210,,,A*4E
$GPRMC,014626.000,A,3255.7780,N,11657.0617,W,48.11,323.70,271210,,,A*48
$GPRMC,014629.000,A,3255.8120,N,11657.0900,W,50.06,324.10,271210,,,A*43
$GPRMC,014632.000,A,3255.8437,N,11657.1197,W,49.08,322.90,271210,,,A*45
$GPRMC,014635.000,A,3255.8787,N,11657.1473,W,48.60,327.10,271210,,,A*47
$GPRMC,014638.000,A,3255.9135,N,11657.1676,W,46.65,338.60,271210,,,A*41
$GPRMC,014641.000,A,3255.9528,N,11657.1788,W,48.11,348.20,271210,,,A*49
$GPRMC,014644.000,A,3255.9943,N,11657.1874,W,50.06,349.10,271210,,,A*4C
$GPRMC,014647.000,A,3256.0343,N,11657.1986,W,50.54,345.10,271210,,,A*48
$GPRMC,014650.000,A,3256.0762,N,11657.2161,W,52.97,338.40,271210,,,A*49
$GPRMC,014653.000,A,3256.1136,N,11657.2391,W,51.51,332.30,271210,,,A*45
$GPRMC,014656.000,A,3256.1512,N,11657.2642,W,50.54,331.70,271210,,,A*4A
$GPRMC,014659.000,A,3256.1903,N,11657.2846,W,50.54,337.20,271210,,,A*40
$GPRMC,014702.000,A,3256.2316,N,11657.3000,W,50.55,344.30,271210,,,A*4D
$GPRMC,014705.000,A,3256.2724,N,11657.3100,W,50.54,351.00,271210,,,A*48
$GPRMC,014708.000,A,3256.3150,N,11657.3148,W,50.54,354.40,271210,,,A*4C
$GPRMC,014711.000,A,3256.3571,N,11657.3193,W,50.54,354.80,271210,,,A*49
$GPRMC,014714.000,A,3256.3988,N,11657.3262,W,50.54,351.20,271210,,,A*44
$GPRMC,014717.000,A,3256.4385,N,11657.3381,W,50.06,343.80,271210,,,A*45
$GPRMC,014720.000,A,3256.4794,N,11657.3570,W,52.00,336.20,271210,,,A*41
$GPRMC,014723.000,A,3256.5167,N,11657.3807,W,51.03,329.90,271210,,,A*41
$GPRMC,014726.000,A,3256.5507,N,11657.4113,W,51.03,322.10,271210,,,A*4E
$GPRMC,014729.000,A,3256.5813,N,11657.4476,W,51.51,313.90,271210,,,A*42
$GPRMC,014732.000,A,3256.6079,N,11657.4887,W,51.51,306.10,271210,,,A*41
$GPRMC,014735.000,A,3256.6288,N,11657.5331,W,51.03,298.70,271210,,,A*4A
$GPRMC,014738.000,A,3256.6498,N,11657.5797,W,52.49,298.30,271210,,,A*41
$GPRMC,014741.000,A,3256.6691,N,11657.6261,W,52.97,297.80,271210,,,A*4C
$GPRMC,014744.000,A,3256.6910,N,11657.6695,W,51.03,303.30,271210,,,A*49
$GPRMC,014747.000,A,3256.7169,N,11657.7085,W,50.54,310.90,271210,,,A*40
$GPRMC,014750.000,A,3256.7491,N,11657.7428,W,51.03,319.70,271210,,,A*43
$GPRMC,014753.000,A,3256.7844,N,11657.7730,W,52.00,325.70,271210,,,A*41
$GPRMC,014756.000,A,3256.8206,N,11657.8011,W,49.57,327.90,271210,,,A*48
$GPRMC,014759.000,A,3256.8524,N,11657.8250,W,46.17,328.10,271210,,,A*4B
$GPRMC,014802.000,A,3256.8841,N,11657.8483,W,44.71,328.20,271210,,,A*4D
$GPRMC,014805.000,A,3256.9171,N,11657.8724,W,46.17,328.70,271210,,,A*48
$GPRMC,014808.000,A,3256.9489,N,11657.8978,W,46.65,326.50,271210,,,A*49
$GPRMC,014811.000,A,3256.9820,N,11657.9219,W,45.20,329.70,271210,,,A*4C
$GPRMC,014814.000,A,3257.0140,N,11657.9451,W,45.20,328.90,271210,,,A*4B
$GPRMC,014817.000,A,3257.0471,N,11657.9675,W,44.71,329.20,271210,,,A*44
$GPRMC,014820.000,A,3257.0767,N,11657.9896,W,43.25,328.50,271210,,,A*47
$GPRMC,014823.000,A,3257.1075,N,11658.0128,W,43.74,328.30,271210,,,A*49
$GPRMC,014826.000,A,3257.1379,N,11658.0359,W,43.74,328.70,271210,,,A*43
$GPRMC,014829.000,A,3257.1680,N,11658.0586,W,41.31,328.40,271210,,,A*4B
$GPRMC,014832.000,A,3257.1955,N,11658.0786,W,39.85,327.30,271210,,,A*4C
$GPRMC,014835.000,A,3257.2237,N,11658.0979,W,37.42,329.90,271210,,,A*48
$GPRMC,014838.000,A,3257.2457,N,11658.1158,W,32.56,327.10,271210,,,A*49
$GPRMC,014841.000,A,3257.2680,N,11658.1327,W,29.16,331.20,271210,,,A*4F
$GPRMC,014843.000,A,3257.2759,N,11658.1387,W,18.95,333.10,271210,,,A*4A
$GPRMC,015115.000,A,3257.2871,N,11658.1535,W,10.21,299.70,271210,,,A*4B
$GPRMC,015118.000,A,3257.2847,N,11658.1789,W,22.84,262.40,271210,,,A*4F
$GPRMC,015121.000,A,3257.2692,N,11658.2126,W,35.48,245.20,271210,,,A*46
$GPRMC,015124.000,A,3257.2537,N,11658.2477,W,38.39,243.70,271210,,,A*46
$GPRMC,015127.000,A,3257.2409,N,11658.2831,W,41.31,244.50,271210,,,A*44
$GPRMC,015130.000,A,3257.2215,N,11658.3235,W,46.17,241.70,271210,,,A*42
$GPRMC,015133.000,A,3257.2015,N,11658.3632,W,48.60,240.60,271210,,,A*4E
$GPRMC,015136.000,A,3257.1800,N,11658.4071,W,52.00,241.30,271210,,,A*4B
$GPRMC,015139.000,A,3257.1596,N,11658.4550,W,54.43,242.40,271210,,,A*45
$GPRMC,015142.000,A,3257.1357,N,11658.5034,W,55.89,241.80,271210,,,A*4C
$GPRMC,015145.000,A,3257.1200,N,11658.5537,W,55.40,248.50,271210,,,A*4F
$GPRMC,015148.000,A,3257.1040,N,11658.6066,W,56.86,252.00,271210,,,A*41
$GPRMC,015151.000,A,3257.0927,N,11658.6616,W,57.35,258.20,271210,,,A*40
$GPRMC,015153.000,A,3257.0881,N,11658.6989,W,57.35,261.60,271210,,,A*48
$GPRMC,015157.000,A,3257.0834,N,11658.7596,W,57.35,264.70,271210,,,A*45
$GPRMC,015200.000,A,3257.0812,N,11658.8152,W,57.35,265.30,271210,,,A*46
$GPRMC,015203.000,A,3257.0783,N,11658.8714,W,57.35,265.20,271210,,,A*47
$GPRMC,015206.000,A,3257.0755,N,11658.9276,W,57.84,265.20,271210,,,A*43
$GPRMC,015209.000,A,3257.0729,N,11658.9839,W,58.33,264.30,271210,,,A*45
$GPRMC,015212.000,A,3257.0679,N,11659.0402,W,57.42,260.40,271210,,,A*4D
$GPRMC,015215.000,A,3257.0600,N,11659.0944,W,57.48,256.00,271210,,,A*40
$GPRMC,015218.000,A,3257.0467,N,11659.1484,W,57.96,250.40,271210,,,A*4F
$GPRMC,015221.000,A,3257.0290,N,11659.2010,W,57.96,246.80,271210,,,A*4A
$GPRMC,015224.000,A,3257.0116,N,11659.2543,W,58.45,251.20,271210,,,A*4C
$GPRMC,015227.000,A,3256.9985,N,11659.3099,W,58.93,257.30,271210,,,A*4A
$GPRMC,015230.000,A,3256.9889,N,11659.3677,W,60.76,260.40,271210,,,A*44
$GPRMC,015233.000,A,3256.9838,N,11659.4269,W,60.75,264.70,271210,,,A*45
$GPRMC,015236.000,A,3256.9798,N,11659.4860,W,60.76,261.20,271210,,,A*45
$GPRMC,015239.000,A,3256.9725,N,11659.5437,W,59.85,257.90,271210,,,A*4B
$GPRMC,015242.000,A,3256.9601,N,11659.6011,W,61.24,252.30,271210,,,A*4C
$GPRMC,015245.000,A,3256.9428,N,11659.6578,W,61.72,246.40,271210,,,A*49
$GPRMC,015248.000,A,3256.9205,N,11659.7117,W,62.21,242.50,271210,,,A*41
$GPRMC,015251.000,A,3256.8991,N,11659.7659,W,62.69,246.50,271210,,,A*4B
$GPRMC,015254.000,A,3256.8825,N,11659.8221,W,62.69,252.40,271210,,,A*40
$GPRMC,015257.000,A,3256.8721,N,11659.8800,W,62.21,258.20,271210,,,A*41
$GPRMC,015300.000,A,3256.8662,N,11659.9339,W,61.73,261.80,271210,,,A*40
$GPRMC,015303.000,A,3256.8598,N,11700.0123,W,60.75,261.60,271210,,,A*41
$GPRMC,015306.000,A,3256.8505,N,11700.0700,W,58.80,256.80,271210,,,A*4C
$GPRMC,015310.000,A,3256.8321,N,11700.1290,W,57.38,247.50,271210,,,A*47
$GPRMC,015313.000,A,3256.8124,N,11700.1789,W,55.41,242.50,271210,,,A*47
$GPRMC,015316.000,A,3256.7895,N,11700.2259,W,55.89,238.50,271210,,,A*4C
$GPRMC,015319.000,A,3256.7650,N,11700.2729,W,56.37,238.20,271210,,,A*47
$GPRMC,015322.000,A,3256.7347,N,11700.3311,W,55.89,238.60,271210,,,A*40
$GPRMC,015326.000,A,3256.7079,N,11700.3827,W,55.90,239.30,271210,,,A*48
$GPRMC,015329.000,A,3256.6860,N,11700.4306,W,54.46,244.60,271210,,,A*4C
$GPRMC,015332.000,A,3256.6690,N,11700.4794,W,52.98,249.30,271210,,,A*45
$GPRMC,015335.000,A,3256.6561,N,11700.5287,W,52.04,255.50,271210,,,A*47
$GPRMC,015338.000,A,3256.6472,N,11700.5784,W,51.07,259.90,271210,,,A*4F
$GPRMC,015341.000,A,3256.6408,N,11700.6283,W,51.04,262.20,271210,,,A*4D
$GPRMC,015344.000,A,3256.6356,N,11700.6786,W,51.04,262.60,271210,,,A*40
$GPRMC,015347.000,A,3256.6298,N,11700.7290,W,52.01,261.70,271210,,,A*47
$GPRMC,015350.000,A,3256.6233,N,11700.7798,W,52.00,261.30,271210,,,A*48
$GPRMC,015353.000,A,3256.6172,N,11700.8304,W,51.51,261.70,271210,,,A*40
$GPRMC,015356.000,A,3256.6099,N,11700.8804,W,51.51,257.60,271210,,,A*4E
$GPRMC,015359.000,A,3256.5996,N,11700.9247,W,51.03,252.40,271210,,,A*48
$GPRMC,015402.000,A,3256.5820,N,11700.9749,W,50.06,243.60,271210,,,A*40
$GPRMC,015405.000,A,3256.5616,N,11701.0173,W,49.57,236.50,271210,,,A*46
$GPRMC,015408.000,A,3256.5366,N,11701.0570,W,50.07,229.10,271210,,,A*49
$GPRMC,015411.000,A,3256.5084,N,11701.0928,W,49.57,225.10,271210,,,A*4E
$GPRMC,015414.000,A,3256.4795,N,11701.1274,W,49.57,225.60,271210,,,A*49
$GPRMC,015417.000,A,3256.4522,N,11701.1633,W,48.60,231.00,271210,,,A*45
$GPRMC,015420.000,A,3256.4292,N,11701.2022,W,48.11,237.40,271210,,,A*4C
$GPRMC,015423.000,A,3256.4082,N,11701.2429,W,48.11,238.80,271210,,,A*40
$GPRMC,015426.000,A,3256.3874,N,11701.2838,W,49.09,238.60,271210,,,A*49
$GPRMC,015429.000,A,3256.3656,N,11701.3254,W,50.07,238.30,271210,,,A*4A
$GPRMC,015432.000,A,3256.3433,N,11701.3685,W,50.54,239.40,271210,,,A*49
$GPRMC,015435.000,A,3256.3232,N,11701.4125,W,50.07,245.30,271210,,,A*49
$GPRMC,015438.000,A,3256.3080,N,11701.4585,W,50.07,252.70,271210,,,A*43
$GPRMC,015441.000,A,3256.2980,N,11701.5063,W,49.57,259.90,271210,,,A*41
$GPRMC,015444.000,A,3256.2937,N,11701.5551,W,49.08,266.70,271210,,,A*44
$GPRMC,015447.000,A,3256.2934,N,11701.6042,W,50.54,271.30,271210,,,A*43
$GPRMC,015450.000,A,3256.2945,N,11701.6546,W,51.04,271.30,271210,,,A*46
$GPRMC,015453.000,A,3256.2954,N,11701.7047,W,50.54,271.00,271210,,,A*47
$GPRMC,015456.000,A,3256.2959,N,11701.7543,W,50.07,270.80,271210,,,A*41
$GPRMC,015459.000,A,3256.2968,N,11701.8039,W,50.55,271.40,271210,,,A*41
$GPRMC,015502.000,A,3256.2977,N,11701.8548,W,51.52,271.40,271210,,,A*45
$GPRMC,015505.000,A,3256.2987,N,11701.9062,W,52.00,271.60,271210,,,A*47
$GPRMC,015508.000,A,3256.2999,N,11701.9583,W,52.98,271.90,271210,,,A*41
$GPRMC,015512.000,A,3256.3016,N,11702.0413,W,52.97,271.20,271210,,,A*43
$GPRMC,015515.000,A,3256.3024,N,11702.0883,W,45.20,271.60,271210,,,A*4E
$GPRMC,015518.000,A,3256.3035,N,11702.1251,W,34.99,271.60,271210,,,A*43
$GPRMC,015521.000,A,3256.3049,N,11702.1525,W,25.27,271.40,271210,,,A*41
$GPRMC,015524.000,A,3256.3055,N,11702.1686,W,14.58,271.20,271210,,,A*4F
$GPRMC,015537.000,A,3256.3061,N,11702.1799,W,10.69,271.50,271210,,,A*44
$GPRMC,015540.000,A,3256.3067,N,11702.1950,W,19.44,272.10,271210,,,A*48
$GPRMC,015543.000,A,3256.3072,N,11702.2164,W,23.81,272.20,271210,,,A*40
$GPRMC,015546.000,A,3256.3081,N,11702.2442,W,30.62,272.40,271210,,,A*41
$GPRMC,015549.000,A,3256.3087,N,11702.2781,W,36.46,271.80,271210,,,A*4B
$GPRMC,015552.000,A,3256.3097,N,11702.3160,W,39.36,272.10,271210,,,A*4A
$GPRMC,015555.000,A,3256.3108,N,11702.3556,W,39.85,272.60,271210,,,A*44
$GPRMC,015558.000,A,3256.3120,N,11702.3958,W,40.83,271.80,271210,,,A*44
$GPRMC,015601.000,A,3256.3131,N,11702.4368,W,41.32,271.70,271210,,,A*41
$GPRMC,015604.000,A,3256.3142,N,11702.4781,W,41.81,271.90,271210,,,A*45
$GPRMC,015607.000,A,3256.3163,N,11702.5287,W,41.79,274.00,271210,,,A*4C
$GPRMC,015611.000,A,3256.3212,N,11702.5843,W,42.28,277.90,271210,,,A*41
$GPRMC,015614.000,A,3256.3293,N,11702.6255,W,40.82,282.90,271210,,,A*4B
$GPRMC,015617.000,A,3256.3356,N,11702.6521,W,33.55,284.40,271210,,,A*41
$GPRMC,015619.000,A,3256.3410,N,11702.6782,W,26.73,284.50,271210,,,A*40
$GPRMC,015623.000,A,3256.3463,N,11702.7023,W,17.01,285.50,271210,,,A*46
$GPRMC,015626.000,A,3256.3488,N,11702.7173,W,14.58,283.00,271210,,,A*4E
$GPRMC,015654.000,A,3256.3520,N,11702.7320,W,6.32,263.70,271210,,,A*7A
$GPRMC,015658.000,A,3256.3576,N,11702.7487,W,14.09,298.60,271210,,,A*41
$GPRMC,015701.000,A,3256.3685,N,11702.7512,W,13.12,344.70,271210,,,A*42
$GPRMC,015704.000,A,3256.3903,N,11702.7428,W,26.73,13.40,271210,,,A*7D
$GPRMC,015707.000,A,3256.4187,N,11702.7335,W,35.48,13.80,271210,,,A*70
$GPRMC,015710.000,A,3256.4498,N,11702.7230,W,37.43,14.90,271210,,,A*76
$GPRMC,015713.000,A,3256.4808,N,11702.7136,W,36.46,14.90,271210,,,A*71
$GPRMC,015716.000,A,3256.5132,N,11702.7055,W,39.36,10.30,271210,,,A*77
$GPRMC,015719.000,A,3256.5491,N,11702.6993,W,41.84,04.30,271210,,,A*75
$GPRMC,015722.000,A,3256.5847,N,11702.6964,W,41.32,00.40,271210,,,A*7C
$GPRMC,015725.000,A,3256.6195,N,11702.6962,W,40.87,00.20,271210,,,A*71
$GPRMC,015727.000,A,3256.6428,N,11702.6955,W,40.83,03.40,271210,,,A*75
$GPRMC,015730.000,A,3256.6855,N,11702.6876,W,42.28,12.70,271210,,,A*75
$GPRMC,015734.000,A,3256.7216,N,11702.6664,W,44.71,31.20,271210,,,A*7E
$GPRMC,015737.000,A,3256.7608,N,11702.6337,W,45.20,36.50,271210,,,A*70
$GPRMC,015741.000,A,3256.7940,N,11702.6052,W,42.77,30.30,271210,,,A*77
$GPRMC,015744.000,A,3256.8312,N,11702.5868,W,40.82,18.20,271210,,,A*71
$GPRMC,015748.000,A,3256.8710,N,11702.5794,W,42.77,06.20,271210,,,A*70
$GPRMC,015751.000,A,3256.9078,N,11702.5750,W,42.29,07.00,271210,,,A*70
$GPRMC,015754.000,A,3256.9435,N,11702.5654,W,42.29,17.30,271210,,,A*7F
$GPRMC,015757.000,A,3256.9766,N,11702.5485,W,42.29,29.10,271210,,,A*78
$GPRMC,015800.000,A,3257.0060,N,11702.5235,W,42.29,39.10,271210,,,A*70
$GPRMC,015803.000,A,3257.0329,N,11702.4970,W,40.82,39.50,271210,,,A*71
$GPRMC,015806.000,A,3257.0588,N,11702.4731,W,36.95,33.10,271210,,,A*7B
$GPRMC,015809.000,A,3257.0864,N,11702.4582,W,37.42,18.60,271210,,,A*74
$GPRMC,015811.000,A,3257.1046,N,11702.4544,W,33.53,06.10,271210,,,A*72
$GPRMC,015815.000,A,3257.1417,N,11702.4518,W,33.53,01.90,271210,,,A*70
$GPRMC,015818.000,A,3257.1692,N,11702.4505,W,32.56,02.30,271210,,,A*73
