NMEA Sentence Code,UTC Time,Status,Latitude,Latitude Direction,Longitude,Longitude Direction,Speed (knots),Track Angle (degrees true),Date,MagneticVariation,Magnetic Variation Direction,[FAA Mode]-Optional,Checksum
$GPRMC,235618.000,A,3258.7580,N,11715.3369,W,4.37,35.51,100410,,,A*4B
$GPRMC,235621.000,A,3258.7605,N,11715.3340,W,4.37,54.49,100410,,,A*4A
$GPRMC,235721.000,A,3258.7650,N,11715.3263,W,3.40,54.14,100410,,,A*44
$GPRMC,235724.000,A,3258.7683,N,11715.3154,W,8.75,80.51,100410,,,A*4D
$GPRMC,235727.000,A,3258.7747,N,11715.2867,W,21.38,78.75,100410,,,A*7C
$GPRMC,235730.000,A,3258.7847,N,11715.2388,W,44.22,76.99,100410,,,A*7B
$GPRMC,235733.000,A,3258.7934,N,11715.1963,W,42.77,76.99,100410,,,A*77
$GPRMC,235736.000,A,3258.8001,N,11715.1602,W,35.96,78.05,100410,,,A*7E
$GPRMC,235739.000,A,3258.8014,N,11715.1287,W,30.62,90.00,100410,,,A*71
$GPRMC,235742.000,A,3258.7966,N,11715.1000,W,30.15,104.41,100410,,,A*4A
$GPRMC,235745.000,A,3258.7776,N,11715.0926,W,23.33,147.30,100410,,,A*49
$GPRMC,235748.000,A,3258.7609,N,11715.0978,W,17.50,184.92,100410,,,A*43
$GPRMC,235751.000,A,3258.7490,N,11715.1155,W,18.95,233.09,100410,,,A*44
$GPRMC,235754.000,A,3258.7499,N,11715.1393,W,18.95,270.35,100410,,,A*48
$GPRMC,235757.000,A,3258.7634,N,11715.1554,W,18.47,318.16,100410,,,A*42
$GPRMC,235800.000,A,3258.7766,N,11715.1628,W,17.04,337.85,100410,,,A*4E
$GPRMC,235803.000,A,3258.7914,N,11715.1699,W,20.90,340.66,100410,,,A*48
$GPRMC,235806.000,A,3258.8075,N,11715.1770,W,20.41,341.02,100410,,,A*45
$GPRMC,235809.000,A,3258.8246,N,11715.1837,W,21.87,341.02,100410,,,A*4F
$GPRMC,235812.000,A,3258.8426,N,11715.1918,W,21.87,339.26,100410,,,A*40
$GPRMC,235815.000,A,3258.8590,N,11715.1976,W,18.95,342.77,100410,,,A*42
$GPRMC,235818.000,A,3258.8706,N,11715.2008,W,12.15,345.94,100410,,,A*49
$GPRMC,235821.000,A,3258.8771,N,11715.2027,W,7.78,347.34,100410,,,A*79
$GPRMC,235824.000,A,3258.8861,N,11715.2053,W,13.12,341.02,100410,,,A*4B
$GPRMC,235827.000,A,3258.8993,N,11715.2117,W,17.98,338.20,100410,,,A*4D
$GPRMC,235830.000,A,3258.9147,N,11715.2169,W,16.52,343.48,100410,,,A*47
$GPRMC,235833.000,A,3258.9247,N,11715.2198,W,11.18,345.94,100410,,,A*47
$GPRMC,235836.000,A,3258.9331,N,11715.2217,W,10.69,342.07,100410,,,A*4C
$GPRMC,235839.000,A,3258.9411,N,11715.2252,W,10.69,342.07,100410,,,A*47
$GPRMC,235843.000,A,3258.9537,N,11715.2304,W,11.18,339.96,100410,,,A*4E
$GPRMC,235846.000,A,3258.9630,N,11715.2339,W,10.21,340.66,100410,,,A*4B
$GPRMC,235849.000,A,3258.9723,N,11715.2384,W,13.61,339.61,100410,,,A*4F
$GPRMC,235852.000,A,3258.9833,N,11715.2420,W,13.61,341.02,100410,,,A*48
$GPRMC,235855.000,A,3258.9939,N,11715.2462,W,13.12,341.37,100410,,,A*40
$GPRMC,235858.000,A,3259.0032,N,11715.2510,W,12.64,337.15,100410,,,A*42
$GPRMC,235901.000,A,3259.0116,N,11715.2571,W,14.09,341.02,100410,,,A*45
$GPRMC,235904.000,A,3259.0196,N,11715.2597,W,7.29,350.16,100410,,,A*75
$GPRMC,235913.000,A,3259.0293,N,11715.2636,W,5.35,338.55,100410,,,A*7B
$GPRMC,235916.000,A,3259.0370,N,11715.2648,W,10.21,347.70,100410,,,A*45
$GPRMC,235919.000,A,3259.0493,N,11715.2681,W,15.55,345.94,100410,,,A*4B
$GPRMC,235922.000,A,3259.0624,N,11715.2742,W,17.01,345.94,100410,,,A*40
$GPRMC,235925.000,A,3259.0737,N,11715.2767,W,11.18,05.27,100410,,,A*72
$GPRMC,235934.000,A,3259.0773,N,11715.2780,W,5.35,349.80,100410,,,A*77
$GPRMC,235937.000,A,3259.0824,N,11715.2796,W,7.78,348.75,100410,,,A*7E
$GPRMC,235940.000,A,3259.0888,N,11715.2813,W,7.29,349.10,100410,,,A*7C
$GPRMC,235943.000,A,3259.0940,N,11715.2819,W,5.35,349.10,100410,,,A*7F
$GPRMC,235946.000,A,3259.0995,N,11715.2838,W,7.78,344.88,100410,,,A*76
$GPRMC,235949.000,A,3259.1091,N,11715.2854,W,10.69,350.86,100410,,,A*42
$GPRMC,235952.000,A,3259.1175,N,11715.2877,W,10.21,346.99,100410,,,A*47
$GPRMC,235955.000,A,3259.1262,N,11715.2906,W,13.12,349.10,100410,,,A*4F
$GPRMC,235958.000,A,3259.1381,N,11715.2922,W,15.07,352.27,100410,,,A*44
$GPRMC,000001.000,A,3259.1500,N,11715.2941,W,14.09,352.97,110410,,,A*4A
$GPRMC,000004.000,A,3259.1622,N,11715.2961,W,16.52,353.32,110410,,,A*4C
$GPRMC,000007.000,A,3259.1774,N,11715.2980,W,19.44,352.97,110410,,,A*44
$GPRMC,000010.000,A,3259.1951,N,11715.3009,W,21.89,351.56,110410,,,A*46
$GPRMC,000013.000,A,3259.2124,N,11715.3038,W,20.41,352.97,110410,,,A*45
$GPRMC,000016.000,A,3259.2269,N,11715.3057,W,15.07,355.78,110410,,,A*41
$GPRMC,000019.000,A,3259.2350,N,11715.3067,W,8.80,350.51,110410,,,A*7B
$GPRMC,000022.000,A,3259.2411,N,11715.3076,W,6.80,352.62,110410,,,A*7D
$GPRMC,000025.000,A,3259.2478,N,11715.3089,W,8.75,352.27,110410,,,A*70
$GPRMC,000028.000,A,3259.2575,N,11715.3105,W,15.07,352.97,110410,,,A*46
$GPRMC,000031.000,A,3259.2710,N,11715.3128,W,17.50,351.91,110410,,,A*45
$GPRMC,000034.000,A,3259.2852,N,11715.3150,W,17.01,351.91,110410,,,A*42
$GPRMC,000037.000,A,3259.3000,N,11715.3176,W,18.95,350.86,110410,,,A*4E
$GPRMC,000040.000,A,3259.3170,N,11715.3199,W,19.44,352.62,110410,,,A*4C
$GPRMC,000042.000,A,3259.3261,N,11715.3225,W,15.55,353.32,110410,,,A*41
$GPRMC,000046.000,A,3259.3383,N,11715.3241,W,11.18,348.75,110410,,,A*4E
$GPRMC,000049.000,A,3259.3496,N,11715.3266,W,15.55,350.16,110410,,,A*46
$GPRMC,000052.000,A,3259.3637,N,11715.3289,W,16.52,351.56,110410,,,A*45
$GPRMC,000055.000,A,3259.3756,N,11715.3311,W,15.07,351.56,110410,,,A*47
$GPRMC,000058.000,A,3259.3898,N,11715.3344,W,17.01,350.86,110410,,,A*4F
$GPRMC,000101.000,A,3259.4059,N,11715.3373,W,18.47,351.56,110410,,,A*45
$GPRMC,000104.000,A,3259.4220,N,11715.3392,W,20.41,352.97,110410,,,A*40
$GPRMC,000107.000,A,3259.4371,N,11715.3414,W,18.47,352.97,110410,,,A*42
$GPRMC,000110.000,A,3259.4529,N,11715.3434,W,19.93,352.62,110410,,,A*4F
$GPRMC,000113.000,A,3259.4709,N,11715.3459,W,22.36,352.62,110410,,,A*40
$GPRMC,000116.000,A,3259.4889,N,11715.3495,W,20.90,352.27,110410,,,A*4D
$GPRMC,000119.000,A,3259.5057,N,11715.3521,W,18.47,352.62,110410,,,A*46
$GPRMC,000122.000,A,3259.5195,N,11715.3540,W,15.55,353.32,110410,,,A*4C
$GPRMC,000125.000,A,3259.5308,N,11715.3553,W,13.12,351.91,110410,,,A*41
$GPRMC,000128.000,A,3259.5430,N,11715.3582,W,17.01,351.91,110410,,,A*4A
$GPRMC,000131.000,A,3259.5578,N,11715.3604,W,17.50,352.27,110410,,,A*48
$GPRMC,000134.000,A,3259.5713,N,11715.3627,W,15.55,351.91,110410,,,A*4A
$GPRMC,000137.000,A,3259.5848,N,11715.3646,W,16.04,352.62,110410,,,A*47
$GPRMC,000140.000,A,3259.5990,N,11715.3672,W,17.98,351.56,110410,,,A*44
$GPRMC,000143.000,A,3259.6154,N,11715.3701,W,20.90,352.27,110410,,,A*48
$GPRMC,000146.000,A,3259.6341,N,11715.3727,W,22.36,352.62,110410,,,A*40
$GPRMC,000149.000,A,3259.6521,N,11715.3765,W,23.33,349.10,110410,,,A*42
$GPRMC,000152.000,A,3259.6737,N,11715.3817,W,28.19,348.75,110410,,,A*46
$GPRMC,000155.000,A,3259.6978,N,11715.3855,W,28.67,351.91,110410,,,A*49
$GPRMC,000158.000,A,3259.7194,N,11715.3878,W,24.30,353.67,110410,,,A*45
$GPRMC,000201.000,A,3259.7374,N,11715.3910,W,21.87,351.91,110410,,,A*4B
$GPRMC,000204.000,A,3259.7548,N,11715.3936,W,20.41,353.67,110410,,,A*43
$GPRMC,000207.000,A,3259.7683,N,11715.3958,W,15.07,352.62,110410,,,A*4C
$GPRMC,000210.000,A,3259.7796,N,11715.3974,W,12.15,351.91,110410,,,A*4A
$GPRMC,000213.000,A,3259.7902,N,11715.3997,W,13.61,350.86,110410,,,A*42
$GPRMC,000216.000,A,3259.8037,N,11715.4029,W,17.01,348.75,110410,,,A*4B
$GPRMC,000219.000,A,3259.8201,N,11715.4058,W,20.41,348.40,110410,,,A*43
$GPRMC,000222.000,A,3259.8436,N,11715.4077,W,26.73,351.56,110410,,,A*4C
$GPRMC,000225.000,A,3259.8716,N,11715.4106,W,31.59,351.21,110410,,,A*43
$GPRMC,000228.000,A,3259.9009,N,11715.4151,W,35.96,352.27,110410,,,A*46
$GPRMC,000231.000,A,3259.9321,N,11715.4216,W,37.91,352.27,110410,,,A*42
$GPRMC,000234.000,A,3259.9617,N,11715.4261,W,35.96,352.62,110410,,,A*43
$GPRMC,000237.000,A,3259.9907,N,11715.4312,W,33.53,352.62,110410,,,A*44
$GPRMC,000240.000,A,3300.0187,N,11715.4361,W,34.99,352.62,110410,,,A*45
$GPRMC,000243.000,A,3300.0506,N,11715.4403,W,38.88,352.27,110410,,,A*45
$GPRMC,000246.000,A,3300.0834,N,11715.4454,W,40.82,352.27,110410,,,A*4B
$GPRMC,000249.000,A,3300.1143,N,11715.4509,W,34.52,351.91,110410,,,A*45
$GPRMC,000252.000,A,3300.1401,N,11715.4567,W,29.66,349.10,110410,,,A*4F
$GPRMC,000255.000,A,3300.1626,N,11715.4621,W,26.24,347.34,110410,,,A*4F
$GPRMC,000258.000,A,3300.1835,N,11715.4689,W,24.79,345.23,110410,,,A*42
$GPRMC,000301.000,A,3300.2028,N,11715.4769,W,24.32,341.72,110410,,,A*48
$GPRMC,000304.000,A,3300.2225,N,11715.4850,W,25.78,339.96,110410,,,A*4D
$GPRMC,000307.000,A,3300.2424,N,11715.4940,W,25.29,337.15,110410,,,A*48
$GPRMC,000310.000,A,3300.2608,N,11715.5033,W,22.86,335.04,110410,,,A*4E
$GPRMC,000313.000,A,3300.2781,N,11715.5136,W,24.32,332.58,110410,,,A*4E
$GPRMC,000316.000,A,3300.2965,N,11715.5259,W,26.26,329.77,110410,,,A*45
$GPRMC,000319.000,A,3300.3161,N,11715.5397,W,27.22,328.01,110410,,,A*41
$GPRMC,000322.000,A,3300.3341,N,11715.5545,W,27.22,325.20,110410,,,A*4E
$GPRMC,000325.000,A,3300.3515,N,11715.5690,W,22.84,321.68,110410,,,A*44
$GPRMC,000328.000,A,3300.3641,N,11715.5806,W,18.47,317.81,110410,,,A*4E
$GPRMC,000331.000,A,3300.3695,N,11715.5857,W,9.23,319.92,110410,,,A*75
$GPRMC,000334.000,A,3300.3763,N,11715.5928,W,14.13,318.87,110410,,,A*4B
$GPRMC,000337.000,A,3300.3853,N,11715.6018,W,15.55,318.16,110410,,,A*46
$GPRMC,000340.000,A,3300.3950,N,11715.6121,W,17.04,316.76,110410,,,A*41
$GPRMC,000343.000,A,3300.4072,N,11715.6256,W,22.38,316.05,110410,,,A*42
$GPRMC,000346.000,A,3300.4214,N,11715.6417,W,24.32,316.41,110410,,,A*4A
$GPRMC,000349.000,A,3300.4365,N,11715.6591,W,26.24,315.70,110410,,,A*49
$GPRMC,000352.000,A,3300.4529,N,11715.6775,W,27.72,316.05,110410,,,A*46
$GPRMC,000355.000,A,3300.4703,N,11715.6968,W,29.16,316.05,110410,,,A*45
$GPRMC,000358.000,A,3300.4893,N,11715.7190,W,34.02,315.35,110410,,,A*49
$GPRMC,000401.000,A,3300.5131,N,11715.7457,W,39.86,316.05,110410,,,A*4D
$GPRMC,000404.000,A,3300.5382,N,11715.7750,W,43.75,316.41,110410,,,A*47
$GPRMC,000407.000,A,3300.5659,N,11715.8062,W,47.15,316.41,110410,,,A*4C
$GPRMC,000410.000,A,3300.5948,N,11715.8390,W,49.58,316.05,110410,,,A*4C
$GPRMC,000413.000,A,3300.6251,N,11715.8738,W,51.03,316.05,110410,,,A*4E
$GPRMC,000416.000,A,3300.6557,N,11715.9099,W,51.04,315.70,110410,,,A*41
$GPRMC,000419.000,A,3300.6866,N,11715.9453,W,51.52,316.76,110410,,,A*45
$GPRMC,000422.000,A,3300.7178,N,11715.9807,W,52.52,316.41,110410,,,A*40
$GPRMC,000425.000,A,3300.7503,N,11716.0177,W,55.44,316.05,110410,,,A*4B
$GPRMC,000428.000,A,3300.7838,N,11716.0569,W,57.38,316.05,110410,,,A*41
$GPRMC,000431.000,A,3300.8192,N,11716.0978,W,59.81,315.70,110410,,,A*4E
$GPRMC,000434.000,A,3300.8546,N,11716.1384,W,58.84,316.05,110410,,,A*4B
$GPRMC,000437.000,A,3300.8900,N,11716.1786,W,58.35,316.41,110410,,,A*4A
$GPRMC,000440.000,A,3300.9260,N,11716.2169,W,57.35,320.98,110410,,,A*4C
$GPRMC,000443.000,A,3300.9627,N,11716.2497,W,52.01,324.84,110410,,,A*47
$GPRMC,000446.000,A,3300.9972,N,11716.2765,W,47.15,328.01,110410,,,A*43
$GPRMC,000449.000,A,3301.0294,N,11716.2990,W,41.81,331.17,110410,,,A*47
$GPRMC,000452.000,A,3301.0580,N,11716.3164,W,35.98,334.69,110410,,,A*4A
$GPRMC,000455.000,A,3301.0828,N,11716.3296,W,29.16,336.80,110410,,,A*42
$GPRMC,000458.000,A,3301.1031,N,11716.3395,W,23.33,338.55,110410,,,A*47
$GPRMC,000501.000,A,3301.1198,N,11716.3466,W,19.93,339.96,110410,,,A*4E
$GPRMC,000504.000,A,3301.1359,N,11716.3534,W,22.36,341.37,110410,,,A*41
$GPRMC,000507.000,A,3301.1559,N,11716.3608,W,26.73,342.42,110410,,,A*4C
$GPRMC,000510.000,A,3301.1800,N,11716.3685,W,31.10,345.23,110410,,,A*4D
$GPRMC,000513.000,A,3301.2083,N,11716.3753,W,34.02,348.05,110410,,,A*4B
$GPRMC,000516.000,A,3301.2363,N,11716.3814,W,33.05,349.80,110410,,,A*43
$GPRMC,000519.000,A,3301.2634,N,11716.3862,W,32.56,350.51,110410,,,A*49
$GPRMC,000522.000,A,3301.2927,N,11716.3923,W,36.93,350.51,110410,,,A*45
$GPRMC,000525.000,A,3301.3245,N,11716.3981,W,39.85,350.51,110410,,,A*4C
$GPRMC,000528.000,A,3301.3577,N,11716.4042,W,39.36,350.51,110410,,,A*4E
$GPRMC,000531.000,A,3301.3879,N,11716.4107,W,34.52,350.16,110410,,,A*49
$GPRMC,000534.000,A,3301.4150,N,11716.4161,W,31.12,349.10,110410,,,A*46
$GPRMC,000537.000,A,3301.4375,N,11716.4226,W,25.27,347.34,110410,,,A*4B
$GPRMC,000540.000,A,3301.4562,N,11716.4281,W,21.87,345.23,110410,,,A*4C
$GPRMC,000543.000,A,3301.4719,N,11716.4335,W,17.52,343.48,110410,,,A*49
$GPRMC,000546.000,A,3301.4855,N,11716.4380,W,16.04,344.53,110410,,,A*4A
$GPRMC,000549.000,A,3301.4967,N,11716.4429,W,12.64,343.12,110410,,,A*41
$GPRMC,000552.000,A,3301.5051,N,11716.4458,W,9.72,343.12,110410,,,A*7D
$GPRMC,000604.000,A,3301.5109,N,11716.4470,W,4.01,336.80,110410,,,A*7B
$GPRMC,000607.000,A,3301.5157,N,11716.4503,W,9.72,339.26,110410,,,A*7C
$GPRMC,000610.000,A,3301.5266,N,11716.4554,W,17.98,338.91,110410,,,A*4F
$GPRMC,000613.000,A,3301.5427,N,11716.4635,W,22.84,337.85,110410,,,A*4A
$GPRMC,000616.000,A,3301.5643,N,11716.4747,W,32.09,335.74,110410,,,A*43
$GPRMC,000619.000,A,3301.5901,N,11716.4892,W,35.48,334.34,110410,,,A*45
$GPRMC,000622.000,A,3301.6168,N,11716.5063,W,35.98,331.17,110410,,,A*47
$GPRMC,000625.000,A,3301.6432,N,11716.5243,W,37.43,330.47,110410,,,A*4A
$GPRMC,000628.000,A,3301.6715,N,11716.5436,W,39.38,330.12,110410,,,A*47
$GPRMC,000631.000,A,3301.6992,N,11716.5629,W,37.92,330.12,110410,,,A*4C
$GPRMC,000634.000,A,3301.7268,N,11716.5816,W,38.39,330.82,110410,,,A*43
$GPRMC,000637.000,A,3301.7558,N,11716.6006,W,41.32,330.47,110410,,,A*42
$GPRMC,000640.000,A,3301.7874,N,11716.6218,W,44.72,330.47,110410,,,A*4D
$GPRMC,000643.000,A,3301.8208,N,11716.6440,W,46.17,330.47,110410,,,A*4A
$GPRMC,000646.000,A,3301.8540,N,11716.6672,W,45.68,330.47,110410,,,A*4C
$GPRMC,000649.000,A,3301.8846,N,11716.6856,W,38.39,332.23,110410,,,A*4E
$GPRMC,000652.000,A,3301.9052,N,11716.7004,W,27.70,332.93,110410,,,A*4E
$GPRMC,000655.000,A,3301.9200,N,11716.7100,W,20.41,330.82,110410,,,A*4E
$GPRMC,000658.000,A,3301.9332,N,11716.7190,W,18.47,330.12,110410,,,A*4E
$GPRMC,000701.000,A,3301.9464,N,11716.7284,W,18.95,330.47,110410,,,A*4E
$GPRMC,000704.000,A,3301.9596,N,11716.7374,W,19.93,331.17,110410,,,A*4A
$GPRMC,000707.000,A,3301.9750,N,11716.7470,W,22.84,330.47,110410,,,A*48
$GPRMC,000710.000,A,3301.9943,N,11716.7609,W,28.67,329.41,110410,,,A*47
$GPRMC,000713.000,A,3302.0197,N,11716.7773,W,35.96,330.82,110410,,,A*46
$GPRMC,000716.000,A,3302.0477,N,11716.7959,W,38.88,330.47,110410,,,A*45
$GPRMC,000719.000,A,3302.0761,N,11716.8153,W,37.91,330.12,110410,,,A*44
$GPRMC,000722.000,A,3302.1025,N,11716.8336,W,34.99,330.82,110410,,,A*49
$GPRMC,000725.000,A,3302.1279,N,11716.8503,W,33.53,330.82,110410,,,A*44
$GPRMC,000728.000,A,3302.1517,N,11716.8668,W,34.99,330.47,110410,,,A*40
$GPRMC,000731.000,A,3302.1778,N,11716.8835,W,35.96,330.47,110410,,,A*4B
$GPRMC,000734.000,A,3302.2035,N,11716.9006,W,34.02,330.82,110410,,,A*4F
$GPRMC,000738.000,A,3302.2270,N,11716.9189,W,23.33,330.12,110410,,,A*4B
$GPRMC,000741.000,A,3302.2428,N,11716.9302,W,23.33,330.47,110410,,,A*4F
$GPRMC,000744.000,A,3302.2599,N,11716.9408,W,23.33,330.82,110410,,,A*45
$GPRMC,000747.000,A,3302.2788,N,11716.9524,W,24.80,330.12,110410,,,A*4D
$GPRMC,000750.000,A,3302.2969,N,11716.9643,W,24.79,330.47,110410,,,A*4E
$GPRMC,000753.000,A,3302.3159,N,11716.9772,W,26.24,330.12,110410,,,A*4E
$GPRMC,000756.000,A,3302.3365,N,11716.9920,W,29.65,329.77,110410,,,A*4E
$GPRMC,000759.000,A,3302.3603,N,11717.0071,W,32.56,330.12,110410,,,A*40
$GPRMC,000802.000,A,3302.3838,N,11717.0238,W,32.07,330.12,110410,,,A*4C
$GPRMC,000805.000,A,3302.4057,N,11717.0386,W,29.66,330.47,110410,,,A*44
$GPRMC,000808.000,A,3302.4272,N,11717.0528,W,27.70,330.47,110410,,,A*47
$GPRMC,000811.000,A,3302.4449,N,11717.0647,W,22.84,330.82,110410,,,A*4C
$GPRMC,000814.000,A,3302.4597,N,11717.0750,W,19.93,331.17,110410,,,A*4F
$GPRMC,000817.000,A,3302.4726,N,11717.0834,W,17.01,330.82,110410,,,A*41
$GPRMC,000820.000,A,3302.4858,N,11717.0905,W,17.50,333.63,110410,,,A*48
$GPRMC,000823.000,A,3302.4987,N,11717.0956,W,17.50,336.09,110410,,,A*47
$GPRMC,000826.000,A,3302.5119,N,11717.1017,W,17.50,336.80,110410,,,A*40
$GPRMC,000829.000,A,3302.5219,N,11717.1065,W,8.26,338.91,110410,,,A*78
$GPRMC,000832.000,A,3302.5270,N,11717.1098,W,7.29,339.61,110410,,,A*71
$GPRMC,000835.000,A,3302.5338,N,11717.1127,W,10.69,339.96,110410,,,A*44
$GPRMC,000838.000,A,3302.5437,N,11717.1172,W,14.09,337.50,110410,,,A*47
$GPRMC,000841.000,A,3302.5582,N,11717.1223,W,18.95,342.77,110410,,,A*4F
$GPRMC,000844.000,A,3302.5766,N,11717.1297,W,23.81,342.77,110410,,,A*40
$GPRMC,000847.000,A,3302.5978,N,11717.1374,W,25.76,343.12,110410,,,A*42
$GPRMC,000850.000,A,3302.6200,N,11717.1445,W,26.24,345.59,110410,,,A*4B
$GPRMC,000853.000,A,3302.6409,N,11717.1503,W,24.79,345.59,110410,,,A*4E
$GPRMC,000856.000,A,3302.6599,N,11717.1552,W,23.33,345.94,110410,,,A*4F
$GPRMC,000859.000,A,3302.6767,N,11717.1606,W,20.41,346.29,110410,,,A*42
$GPRMC,000902.000,A,3302.6928,N,11717.1655,W,19.44,345.94,110410,,,A*44
$GPRMC,000905.000,A,3302.7101,N,11717.1703,W,21.38,345.94,110410,,,A*43
$GPRMC,000908.000,A,3302.7269,N,11717.1761,W,20.90,344.88,110410,,,A*48
$GPRMC,000911.000,A,3302.7436,N,11717.1815,W,21.38,345.94,110410,,,A*4F
$GPRMC,000914.000,A,3302.7613,N,11717.1870,W,22.84,347.70,110410,,,A*40
$GPRMC,000917.000,A,3302.7806,N,11717.1935,W,24.30,344.88,110410,,,A*44
$GPRMC,000920.000,A,3302.8009,N,11717.1999,W,25.27,344.88,110410,,,A*49
$GPRMC,000923.000,A,3302.8231,N,11717.2054,W,25.76,346.99,110410,,,A*4E
$GPRMC,000926.000,A,3302.8450,N,11717.2112,W,26.73,346.99,110410,,,A*4F
$GPRMC,000929.000,A,3302.8650,N,11717.2169,W,26.24,345.59,110410,,,A*43
$GPRMC,000932.000,A,3302.8856,N,11717.2234,W,25.27,346.29,110410,,,A*4E
$GPRMC,000935.000,A,3302.9052,N,11717.2298,W,24.30,345.59,110410,,,A*41
$GPRMC,000938.000,A,3302.9210,N,11717.2356,W,18.47,345.94,110410,,,A*45
$GPRMC,000941.000,A,3302.9348,N,11717.2401,W,17.01,345.94,110410,,,A*4F
$GPRMC,000944.000,A,3302.9477,N,11717.2440,W,15.55,344.18,110410,,,A*42
$GPRMC,000947.000,A,3302.9589,N,11717.2475,W,13.61,348.05,110410,,,A*46
$GPRMC,000950.000,A,3302.9718,N,11717.2517,W,15.07,345.59,110410,,,A*4D
$GPRMC,000953.000,A,3302.9860,N,11717.2556,W,19.93,345.59,110410,,,A*4A
$GPRMC,000956.000,A,3303.0047,N,11717.2610,W,24.79,345.23,110410,,,A*4C
$GPRMC,000959.000,A,3303.0278,N,11717.2678,W,30.13,345.94,110410,,,A*46
$GPRMC,001002.000,A,3303.0536,N,11717.2759,W,31.59,345.59,110410,,,A*41
$GPRMC,001005.000,A,3303.0780,N,11717.2823,W,28.67,345.94,110410,,,A*4F
$GPRMC,001008.000,A,3303.0996,N,11717.2897,W,25.27,344.53,110410,,,A*47
$GPRMC,001011.000,A,3303.1196,N,11717.2952,W,23.33,346.64,110410,,,A*4B
$GPRMC,001014.000,A,3303.1382,N,11717.3006,W,23.33,346.29,110410,,,A*49
$GPRMC,001017.000,A,3303.1572,N,11717.3055,W,21.38,345.94,110410,,,A*49
$GPRMC,001020.000,A,3303.1730,N,11717.3100,W,18.95,346.99,110410,,,A*4B
$GPRMC,001023.000,A,3303.1875,N,11717.3145,W,17.98,346.29,110410,,,A*4E
$GPRMC,001026.000,A,3303.2013,N,11717.3196,W,17.98,345.23,110410,,,A*47
$GPRMC,001029.000,A,3303.2158,N,11717.3232,W,16.52,346.64,110410,,,A*4C
$GPRMC,001032.000,A,3303.2293,N,11717.3273,W,16.52,346.64,110410,,,A*47
$GPRMC,001035.000,A,3303.2435,N,11717.3319,W,17.50,345.59,110410,,,A*49
$GPRMC,001039.000,A,3303.2657,N,11717.3399,W,25.27,345.59,110410,,,A*4A
$GPRMC,001042.000,A,3303.2879,N,11717.3473,W,30.62,345.23,110410,,,A*4F
$GPRMC,001045.000,A,3303.3169,N,11717.3563,W,36.45,344.88,110410,,,A*42
$GPRMC,001048.000,A,3303.3490,N,11717.3663,W,40.82,345.94,110410,,,A*49
$GPRMC,001051.000,A,3303.3845,N,11717.3760,W,43.75,345.94,110410,,,A*4C
$GPRMC,001054.000,A,3303.4208,N,11717.3869,W,44.71,345.59,110410,,,A*49
$GPRMC,001057.000,A,3303.4578,N,11717.3978,W,45.68,345.94,110410,,,A*43
$GPRMC,001100.000,A,3303.4958,N,11717.4085,W,46.65,345.94,110410,,,A*4C
$GPRMC,001103.000,A,3303.5332,N,11717.4200,W,47.63,345.59,110410,,,A*41
$GPRMC,001106.000,A,3303.5727,N,11717.4320,W,48.60,345.94,110410,,,A*4A
$GPRMC,001109.000,A,3303.6114,N,11717.4445,W,46.17,345.94,110410,,,A*4A
$GPRMC,001112.000,A,3303.6432,N,11717.4532,W,36.45,346.64,110410,,,A*4C
$GPRMC,001115.000,A,3303.6706,N,11717.4616,W,32.56,345.59,110410,,,A*41
$GPRMC,001118.000,A,3303.6951,N,11717.4693,W,27.22,345.23,110410,,,A*47
$GPRMC,001121.000,A,3303.7147,N,11717.4741,W,18.95,345.94,110410,,,A*41
$GPRMC,001124.000,A,3303.7282,N,11717.4780,W,17.01,345.94,110410,,,A*41
$GPRMC,001127.000,A,3303.7411,N,11717.4822,W,14.09,345.59,110410,,,A*43
$GPRMC,001130.000,A,3303.7501,N,11717.4847,W,6.32,345.59,110410,,,A*7D
$GPRMC,001139.000,A,3303.7543,N,11717.4851,W,3.89,349.80,110410,,,A*78
$GPRMC,001142.000,A,3303.7614,N,11717.4880,W,11.18,342.42,110410,,,A*47
$GPRMC,001145.000,A,3303.7765,N,11717.4928,W,21.87,345.59,110410,,,A*4C
$GPRMC,001148.000,A,3303.7974,N,11717.4989,W,28.67,345.94,110410,,,A*42
$GPRMC,001151.000,A,3303.8235,N,11717.5066,W,35.48,345.59,110410,,,A*42
$GPRMC,001154.000,A,3303.8537,N,11717.5160,W,38.39,345.94,110410,,,A*4F
$GPRMC,001157.000,A,3303.8859,N,11717.5250,W,39.85,345.23,110410,,,A*43
$GPRMC,001200.000,A,3303.9191,N,11717.5356,W,41.31,344.53,110410,,,A*4F
$GPRMC,001203.000,A,3303.9554,N,11717.5472,W,45.20,344.88,110410,,,A*42
$GPRMC,001206.000,A,3303.9928,N,11717.5581,W,46.17,345.59,110410,,,A*47
$GPRMC,001209.000,A,3304.0298,N,11717.5694,W,46.17,345.59,110410,,,A*41
$GPRMC,001212.000,A,3304.0665,N,11717.5803,W,44.71,346.29,110410,,,A*4B
$GPRMC,001215.000,A,3304.1019,N,11717.5910,W,43.26,345.94,110410,,,A*43
$GPRMC,001218.000,A,3304.1370,N,11717.6013,W,43.25,345.59,110410,,,A*49
$GPRMC,001221.000,A,3304.1727,N,11717.6122,W,43.74,345.94,110410,,,A*43
$GPRMC,001224.000,A,3304.2088,N,11717.6225,W,44.71,345.94,110410,,,A*41
$GPRMC,001227.000,A,3304.2464,N,11717.6341,W,46.17,345.59,110410,,,A*44
$GPRMC,001230.000,A,3304.2841,N,11717.6457,W,46.17,345.59,110410,,,A*49
$GPRMC,001233.000,A,3304.3217,N,11717.6560,W,46.17,345.94,110410,,,A*46
$GPRMC,001236.000,A,3304.3607,N,11717.6682,W,47.63,345.59,110410,,,A*4A
$GPRMC,001239.000,A,3304.3990,N,11717.6798,W,48.60,345.59,110410,,,A*42
$GPRMC,001242.000,A,3304.4382,N,11717.6927,W,49.57,345.94,110410,,,A*4E
$GPRMC,001245.000,A,3304.4788,N,11717.7046,W,48.12,345.94,110410,,,A*48
$GPRMC,001248.000,A,3304.5158,N,11717.7162,W,45.20,345.59,110410,,,A*45
$GPRMC,001251.000,A,3304.5515,N,11717.7268,W,43.74,345.59,110410,,,A*4E
$GPRMC,001254.000,A,3304.5869,N,11717.7377,W,44.24,345.59,110410,,,A*40
$GPRMC,001256.000,A,3304.6111,N,11717.7448,W,45.20,346.29,110410,,,A*4D
$GPRMC,001300.000,A,3304.6626,N,11717.7603,W,48.60,345.94,110410,,,A*4D
$GPRMC,001303.000,A,3304.7041,N,11717.7718,W,51.51,345.94,110410,,,A*49
$GPRMC,001306.000,A,3304.7469,N,11717.7850,W,53.46,345.94,110410,,,A*45
$GPRMC,001309.000,A,3304.7900,N,11717.7982,W,53.46,345.23,110410,,,A*4A
$GPRMC,001312.000,A,3304.8332,N,11717.8111,W,52.50,345.94,110410,,,A*43
$GPRMC,001315.000,A,3304.8753,N,11717.8237,W,51.03,345.59,110410,,,A*44
$GPRMC,001318.000,A,3304.9178,N,11717.8359,W,52.49,345.94,110410,,,A*42
$GPRMC,001321.000,A,3304.9609,N,11717.8491,W,55.41,345.23,110410,,,A*49
$GPRMC,001324.000,A,3305.0063,N,11717.8642,W,57.35,342.77,110410,,,A*45
$GPRMC,001327.000,A,3305.0527,N,11717.8848,W,60.75,338.20,110410,,,A*48
$GPRMC,001330.000,A,3305.0994,N,11717.9112,W,62.21,333.98,110410,,,A*46
$GPRMC,001333.000,A,3305.1447,N,11717.9392,W,61.72,332.23,110410,,,A*49
$GPRMC,001336.000,A,3305.1904,N,11717.9685,W,61.23,331.52,110410,,,A*44
$GPRMC,001339.000,A,3305.2361,N,11717.9965,W,61.72,331.52,110410,,,A*44
$GPRMC,001342.000,A,3305.2815,N,11718.0280,W,62.69,330.82,110410,,,A*43
$GPRMC,001345.000,A,3305.3272,N,11718.0577,W,62.21,331.17,110410,,,A*40
$GPRMC,001348.000,A,3305.3716,N,11718.0860,W,59.78,331.52,110410,,,A*44
$GPRMC,001351.000,A,3305.4141,N,11718.1150,W,57.83,331.17,110410,,,A*4F
$GPRMC,001354.000,A,3305.4547,N,11718.1413,W,54.43,331.52,110410,,,A*44
$GPRMC,001357.000,A,3305.4946,N,11718.1668,W,53.94,331.52,110410,,,A*49
$GPRMC,001400.000,A,3305.5348,N,11718.1922,W,54.92,331.88,110410,,,A*4E
$GPRMC,001403.000,A,3305.5757,N,11718.2186,W,56.37,331.17,110410,,,A*49
$GPRMC,001406.000,A,3305.6182,N,11718.2440,W,57.35,331.88,110410,,,A*4B
$GPRMC,001409.000,A,3305.6604,N,11718.2723,W,58.32,331.17,110410,,,A*45
$GPRMC,001412.000,A,3305.7038,N,11718.3010,W,59.78,331.17,110410,,,A*4E
$GPRMC,001415.000,A,3305.7473,N,11718.3306,W,60.75,330.82,110410,,,A*4C
$GPRMC,001418.000,A,3305.7907,N,11718.3586,W,56.86,331.17,110410,,,A*45
$GPRMC,001421.000,A,3305.8277,N,11718.3844,W,49.57,328.71,110410,,,A*45
$GPRMC,001424.000,A,3305.8583,N,11718.4017,W,40.34,334.34,110410,,,A*45
$GPRMC,001427.000,A,3305.8808,N,11718.4156,W,31.59,331.88,110410,,,A*43
$GPRMC,001430.000,A,3305.9047,N,11718.4297,W,33.05,331.52,110410,,,A*45
$GPRMC,001433.000,A,3305.9272,N,11718.4452,W,30.13,330.47,110410,,,A*4C
$GPRMC,001436.000,A,3305.9478,N,11718.4600,W,28.19,330.82,110410,,,A*4A
$GPRMC,001439.000,A,3305.9684,N,11718.4725,W,28.19,331.52,110410,,,A*4E
$GPRMC,001442.000,A,3305.9900,N,11718.4880,W,30.62,330.12,110410,,,A*41
$GPRMC,001445.000,A,3306.0131,N,11718.5022,W,31.59,331.52,110410,,,A*4B
$GPRMC,001448.000,A,3306.0369,N,11718.5179,W,33.05,331.52,110410,,,A*4D
$GPRMC,001451.000,A,3306.0611,N,11718.5331,W,32.56,331.52,110410,,,A*46
$GPRMC,001454.000,A,3306.0836,N,11718.5488,W,29.16,330.82,110410,,,A*4F
$GPRMC,001457.000,A,3306.1004,N,11718.5607,W,19.93,330.82,110410,,,A*4F
$GPRMC,001500.000,A,3306.1145,N,11718.5697,W,18.47,332.23,110410,,,A*40
$GPRMC,001503.000,A,3306.1235,N,11718.5765,W,10.69,332.58,110410,,,A*43
$GPRMC,001515.000,A,3306.1364,N,11718.5839,W,6.32,332.23,110410,,,A*72
$GPRMC,001518.000,A,3306.1451,N,11718.5894,W,13.61,326.60,110410,,,A*49
$GPRMC,001521.000,A,3306.1599,N,11718.6000,W,20.41,323.79,110410,,,A*4F
$GPRMC,001524.000,A,3306.1847,N,11718.6148,W,32.07,328.36,110410,,,A*48
$GPRMC,001527.000,A,3306.2130,N,11718.6325,W,36.45,330.47,110410,,,A*45
$GPRMC,001530.000,A,3306.2381,N,11718.6476,W,31.59,331.17,110410,,,A*44
$GPRMC,001533.000,A,3306.2590,N,11718.6615,W,27.70,331.88,110410,,,A*4C
$GPRMC,001536.000,A,3306.2783,N,11718.6747,W,24.79,331.52,110410,,,A*42
$GPRMC,001539.000,A,3306.2960,N,11718.6866,W,23.81,330.82,110410,,,A*4E
$GPRMC,001542.000,A,3306.3125,N,11718.6979,W,21.87,330.12,110410,,,A*48
$GPRMC,001545.000,A,3306.3279,N,11718.7082,W,20.43,331.17,110410,,,A*44
$GPRMC,001548.000,A,3306.3421,N,11718.7175,W,18.47,331.52,110410,,,A*45
$GPRMC,001551.000,A,3306.3530,N,11718.7246,W,11.18,331.17,110410,,,A*4D
$GPRMC,001554.000,A,3306.3607,N,11718.7297,W,10.21,331.17,110410,,,A*48
$GPRMC,001557.000,A,3306.3691,N,11718.7342,W,13.61,331.52,110410,,,A*4B
$GPRMC,001600.000,A,3306.3817,N,11718.7426,W,20.41,331.52,110410,,,A*4D
$GPRMC,001603.000,A,3306.3987,N,11718.7535,W,24.79,331.52,110410,,,A*4A
$GPRMC,001606.000,A,3306.4171,N,11718.7658,W,24.79,331.17,110410,,,A*40
$GPRMC,001609.000,A,3306.4338,N,11718.7770,W,21.87,331.17,110410,,,A*4F
$GPRMC,001612.000,A,3306.4502,N,11718.7883,W,23.81,330.82,110410,,,A*40
$GPRMC,001615.000,A,3306.4695,N,11718.8008,W,27.22,331.17,110410,,,A*4E
$GPRMC,001618.000,A,3306.4905,N,11718.8140,W,28.67,331.88,110410,,,A*40
$GPRMC,001621.000,A,3306.5111,N,11718.8282,W,27.70,331.88,110410,,,A*42
$GPRMC,001624.000,A,3306.5320,N,11718.8404,W,26.73,332.58,110410,,,A*43
$GPRMC,001627.000,A,3306.5526,N,11718.8527,W,28.19,332.93,110410,,,A*45
$GPRMC,001630.000,A,3306.5751,N,11718.8662,W,32.56,333.28,110410,,,A*42
$GPRMC,001633.000,A,3306.6005,N,11718.8816,W,35.48,333.28,110410,,,A*41
$GPRMC,001636.000,A,3306.6276,N,11718.8977,W,36.45,333.28,110410,,,A*4A
$GPRMC,001639.000,A,3306.6546,N,11718.9141,W,36.45,333.28,110410,,,A*4D
$GPRMC,001642.000,A,3306.6829,N,11718.9306,W,36.93,333.28,110410,,,A*4F
$GPRMC,001645.000,A,3306.7093,N,11718.9467,W,34.50,332.93,110410,,,A*4C
$GPRMC,001648.000,A,3306.7322,N,11718.9598,W,28.19,333.63,110410,,,A*47
$GPRMC,001651.000,A,3306.7518,N,11718.9711,W,24.30,333.63,110410,,,A*44
$GPRMC,001654.000,A,3306.7692,N,11718.9814,W,21.87,332.93,110410,,,A*4D
$GPRMC,001657.000,A,3306.7843,N,11718.9911,W,19.93,332.23,110410,,,A*4D
$GPRMC,001700.000,A,3306.7985,N,11718.9998,W,18.47,333.28,110410,,,A*46
$GPRMC,001703.000,A,3306.8107,N,11719.0075,W,15.55,333.63,110410,,,A*4B
$GPRMC,001706.000,A,3306.8217,N,11719.0142,W,14.09,333.28,110410,,,A*4E
$GPRMC,001709.000,A,3306.8326,N,11719.0207,W,15.55,332.93,110410,,,A*49
$GPRMC,001712.000,A,3306.8451,N,11719.0284,W,17.50,332.93,110410,,,A*48
$GPRMC,001715.000,A,3306.8577,N,11719.0358,W,15.55,333.28,110410,,,A*4C
$GPRMC,001718.000,A,3306.8683,N,11719.0426,W,14.09,332.93,110410,,,A*4E
$GPRMC,001721.000,A,3306.8786,N,11719.0484,W,13.61,333.63,110410,,,A*4F
$GPRMC,001724.000,A,3306.8918,N,11719.0561,W,19.44,333.28,110410,,,A*4B
$GPRMC,001727.000,A,3306.9095,N,11719.0654,W,26.24,333.63,110410,,,A*45
$GPRMC,001730.000,A,3306.9314,N,11719.0793,W,32.56,333.28,110410,,,A*4C
$GPRMC,001733.000,A,3306.9568,N,11719.0944,W,35.48,333.28,110410,,,A*4E
$GPRMC,001736.000,A,3306.9832,N,11719.1105,W,35.96,333.28,110410,,,A*46
$GPRMC,001739.000,A,3307.0103,N,11719.1272,W,36.45,332.58,110410,,,A*42
$GPRMC,001742.000,A,3307.0379,N,11719.1440,W,37.42,333.28,110410,,,A*46
$GPRMC,001745.000,A,3307.0676,N,11719.1604,W,39.36,333.98,110410,,,A*4F
$GPRMC,001748.000,A,3307.0975,N,11719.1790,W,41.31,332.93,110410,,,A*40
$GPRMC,001751.000,A,3307.1281,N,11719.1977,W,42.28,333.28,110410,,,A*44
$GPRMC,001754.000,A,3307.1599,N,11719.2173,W,43.25,333.28,110410,,,A*4C
$GPRMC,001757.000,A,3307.1928,N,11719.2379,W,43.74,333.28,110410,,,A*45
$GPRMC,001800.000,A,3307.2230,N,11719.2547,W,36.45,333.28,110410,,,A*42
$GPRMC,001803.000,A,3307.2484,N,11719.2701,W,32.56,332.58,110410,,,A*48
$GPRMC,001806.000,A,3307.2703,N,11719.2830,W,27.70,332.58,110410,,,A*4C
$GPRMC,001809.000,A,3307.2903,N,11719.2936,W,25.27,333.63,110410,,,A*43
$GPRMC,001812.000,A,3307.3093,N,11719.3046,W,25.76,333.63,110410,,,A*43
$GPRMC,001815.000,A,3307.3283,N,11719.3162,W,25.27,333.28,110410,,,A*4B
$GPRMC,001820.000,A,3307.3511,N,11719.3313,W,18.95,332.93,110410,,,A*43
$GPRMC,001823.000,A,3307.3666,N,11719.3413,W,20.41,332.58,110410,,,A*41
$GPRMC,001826.000,A,3307.3830,N,11719.3522,W,23.81,332.23,110410,,,A*49
$GPRMC,001829.000,A,3307.4029,N,11719.3628,W,27.22,333.98,110410,,,A*44
$GPRMC,001832.000,A,3307.4235,N,11719.3757,W,28.67,333.28,110410,,,A*4D
$GPRMC,001835.000,A,3307.4457,N,11719.3886,W,29.65,333.63,110410,,,A*47
$GPRMC,001838.000,A,3307.4689,N,11719.4024,W,31.10,333.28,110410,,,A*48
$GPRMC,001841.000,A,3307.4934,N,11719.4153,W,31.59,332.93,110410,,,A*42
$GPRMC,001844.000,A,3307.5156,N,11719.4298,W,29.65,332.93,110410,,,A*48
$GPRMC,001847.000,A,3307.5372,N,11719.4426,W,28.67,333.63,110410,,,A*41
$GPRMC,001850.000,A,3307.5584,N,11719.4555,W,28.19,333.28,110410,,,A*4B
$GPRMC,001853.000,A,3307.5790,N,11719.4671,W,27.22,333.98,110410,,,A*46
$GPRMC,001856.000,A,3307.5990,N,11719.4803,W,27.22,333.28,110410,,,A*4D
$GPRMC,001859.000,A,3307.6196,N,11719.4909,W,26.24,333.63,110410,,,A*4C
$GPRMC,001902.000,A,3307.6392,N,11719.5019,W,26.24,333.28,110410,,,A*43
$GPRMC,001905.000,A,3307.6588,N,11719.5135,W,26.24,333.28,110410,,,A*46
$GPRMC,001908.000,A,3307.6785,N,11719.5254,W,26.24,333.28,110410,,,A*40
$GPRMC,001911.000,A,3307.6984,N,11719.5373,W,26.73,333.28,110410,,,A*41
$GPRMC,001914.000,A,3307.7184,N,11719.5485,W,27.22,333.98,110410,,,A*4D
$GPRMC,001917.000,A,3307.7390,N,11719.5621,W,28.67,332.93,110410,,,A*41
$GPRMC,001920.000,A,3307.7612,N,11719.5762,W,32.07,332.93,110410,,,A*41
$GPRMC,001923.000,A,3307.7860,N,11719.5913,W,34.50,332.58,110410,,,A*42
$GPRMC,001926.000,A,3307.8111,N,11719.6055,W,31.59,333.63,110410,,,A*4A
$GPRMC,001929.000,A,3307.8317,N,11719.6181,W,23.33,333.63,110410,,,A*46
$GPRMC,001932.000,A,3307.8468,N,11719.6277,W,18.95,333.28,110410,,,A*42
$GPRMC,001935.000,A,3307.8600,N,11719.6335,W,15.55,333.28,110410,,,A*4F
$GPRMC,001938.000,A,3307.8716,N,11719.6406,W,16.04,332.58,110410,,,A*42
$GPRMC,001941.000,A,3307.8841,N,11719.6493,W,18.47,331.17,110410,,,A*4C
$GPRMC,001944.000,A,3307.9015,N,11719.6596,W,23.33,333.63,110410,,,A*4F
$GPRMC,001947.000,A,3307.9186,N,11719.6699,W,20.41,333.63,110410,,,A*4D
$GPRMC,001950.000,A,3307.9308,N,11719.6783,W,15.07,332.93,110410,,,A*4F
$GPRMC,001953.000,A,3307.9424,N,11719.6847,W,16.04,333.98,110410,,,A*48
$GPRMC,001956.000,A,3307.9562,N,11719.6940,W,20.90,330.82,110410,,,A*48
$GPRMC,001959.000,A,3307.9752,N,11719.7034,W,26.73,332.93,110410,,,A*44
$GPRMC,002002.000,A,3307.9984,N,11719.7162,W,31.59,333.98,110410,,,A*43
$GPRMC,002005.000,A,3308.0229,N,11719.7307,W,33.05,335.39,110410,,,A*49
$GPRMC,002008.000,A,3308.0496,N,11719.7455,W,35.48,336.45,110410,,,A*41
$GPRMC,002011.000,A,3308.0785,N,11719.7600,W,37.42,336.80,110410,,,A*4B
$GPRMC,002014.000,A,3308.1078,N,11719.7751,W,36.93,336.45,110410,,,A*4B
$GPRMC,002017.000,A,3308.1333,N,11719.7890,W,33.05,336.45,110410,,,A*4C
$GPRMC,002020.000,A,3308.1577,N,11719.8009,W,32.07,337.15,110410,,,A*4E
$GPRMC,002023.000,A,3308.1815,N,11719.8141,W,31.59,336.80,110410,,,A*4C
$GPRMC,002026.000,A,3308.2041,N,11719.8247,W,26.73,337.15,110410,,,A*45
$GPRMC,002029.000,A,3308.2227,N,11719.8327,W,21.38,338.55,110410,,,A*4C
$GPRMC,002032.000,A,3308.2356,N,11719.8398,W,16.04,336.45,110410,,,A*41
$GPRMC,002035.000,A,3308.2472,N,11719.8459,W,15.55,336.45,110410,,,A*4A
$GPRMC,002039.000,A,3308.2662,N,11719.8559,W,20.41,337.15,110410,,,A*43
$GPRMC,002042.000,A,3308.2845,N,11719.8653,W,24.79,338.20,110410,,,A*4B
$GPRMC,002045.000,A,3308.3064,N,11719.8756,W,28.67,338.20,110410,,,A*41
$GPRMC,002048.000,A,3308.3306,N,11719.8888,W,32.56,336.45,110410,,,A*43
$GPRMC,002051.000,A,3308.3579,N,11719.9036,W,36.45,336.45,110410,,,A*4F
$GPRMC,002054.000,A,3308.3875,N,11719.9197,W,38.39,336.80,110410,,,A*4D
$GPRMC,002057.000,A,3308.4168,N,11719.9335,W,39.36,336.80,110410,,,A*48
$GPRMC,002100.000,A,3308.4493,N,11719.9496,W,42.28,337.15,110410,,,A*4A
$GPRMC,002103.000,A,3308.4841,N,11719.9657,W,44.71,337.85,110410,,,A*46
$GPRMC,002106.000,A,3308.5208,N,11719.9814,W,48.61,341.72,110410,,,A*48
$GPRMC,002109.000,A,3308.5617,N,11719.9950,W,51.51,346.64,110410,,,A*47
$GPRMC,002112.000,A,3308.6051,N,11720.0043,W,53.94,351.91,110410,,,A*45
$GPRMC,002115.000,A,3308.6518,N,11720.0085,W,55.92,357.19,110410,,,A*46
$GPRMC,002118.000,A,3308.6984,N,11720.0117,W,55.90,357.19,110410,,,A*4A
$GPRMC,002121.000,A,3308.7454,N,11720.0143,W,56.37,356.84,110410,,,A*4B
$GPRMC,002124.000,A,3308.7915,N,11720.0172,W,54.44,356.13,110410,,,A*4C
$GPRMC,002127.000,A,3308.8365,N,11720.0246,W,54.92,348.40,110410,,,A*4B
$GPRMC,002130.000,A,3308.8816,N,11720.0387,W,55.89,342.42,110410,,,A*4D
$GPRMC,002133.000,A,3308.9257,N,11720.0619,W,58.33,334.34,110410,,,A*4E
$GPRMC,002136.000,A,3308.9704,N,11720.0877,W,59.78,333.98,110410,,,A*41
$GPRMC,002139.000,A,3309.0164,N,11720.1141,W,61.72,333.98,110410,,,A*4A
$GPRMC,002142.000,A,3309.0638,N,11720.1411,W,63.19,334.34,110410,,,A*46
$GPRMC,002145.000,A,3309.1111,N,11720.1681,W,63.18,333.98,110410,,,A*47
$GPRMC,002148.000,A,3309.1590,N,11720.1958,W,63.66,333.98,110410,,,A*45
$GPRMC,002151.000,A,3309.2057,N,11720.2232,W,62.70,334.34,110410,,,A*43
$GPRMC,002154.000,A,3309.2524,N,11720.2499,W,62.21,334.34,110410,,,A*44
$GPRMC,002157.000,A,3309.2987,N,11720.2760,W,60.26,334.69,110410,,,A*4A
$GPRMC,002200.000,A,3309.3422,N,11720.2995,W,55.90,336.45,110410,,,A*4B
$GPRMC,002203.000,A,3309.3831,N,11720.3210,W,52.97,336.45,110410,,,A*41
$GPRMC,002206.000,A,3309.4236,N,11720.3413,W,52.97,336.80,110410,,,A*42
$GPRMC,002209.000,A,3309.4609,N,11720.3609,W,47.14,336.80,110410,,,A*43
$GPRMC,002212.000,A,3309.4906,N,11720.3773,W,38.88,336.09,110410,,,A*49
$GPRMC,002215.000,A,3309.5186,N,11720.3915,W,36.45,336.80,110410,,,A*4F
$GPRMC,002218.000,A,3309.5446,N,11720.4047,W,32.07,336.09,110410,,,A*41
$GPRMC,002221.000,A,3309.5652,N,11720.4156,W,25.27,336.45,110410,,,A*41
$GPRMC,002224.000,A,3309.5816,N,11720.4230,W,22.36,336.80,110410,,,A*47
$GPRMC,002228.000,A,3309.6055,N,11720.4350,W,23.81,337.15,110410,,,A*40
$GPRMC,002231.000,A,3309.6235,N,11720.4436,W,23.33,336.45,110410,,,A*46
$GPRMC,002234.000,A,3309.6405,N,11720.4527,W,20.90,336.45,110410,,,A*4D
$GPRMC,002237.000,A,3309.6554,N,11720.4597,W,18.95,337.50,110410,,,A*4B
$GPRMC,002240.000,A,3309.6705,N,11720.4681,W,24.30,337.15,110410,,,A*48
$GPRMC,002243.000,A,3309.6914,N,11720.4791,W,30.13,336.45,110410,,,A*45
$GPRMC,002246.000,A,3309.7159,N,11720.4910,W,33.05,336.80,110410,,,A*4A
$GPRMC,002249.000,A,3309.7426,N,11720.5045,W,34.50,336.80,110410,,,A*47
$GPRMC,002252.000,A,3309.7654,N,11720.5157,W,26.24,336.80,110410,,,A*48
$GPRMC,002255.000,A,3309.7812,N,11720.5238,W,17.98,336.45,110410,,,A*45
$GPRMC,002258.000,A,3309.7947,N,11720.5309,W,17.50,336.45,110410,,,A*4E
$GPRMC,002301.000,A,3309.8079,N,11720.5380,W,17.98,336.45,110410,,,A*4D
$GPRMC,002304.000,A,3309.8214,N,11720.5450,W,17.50,336.45,110410,,,A*4F
$GPRMC,002307.000,A,3309.8353,N,11720.5521,W,19.44,337.15,110410,,,A*46
$GPRMC,002310.000,A,3309.8514,N,11720.5595,W,21.87,337.50,110410,,,A*4F
$GPRMC,002313.000,A,3309.8713,N,11720.5692,W,27.70,337.15,110410,,,A*42
$GPRMC,002316.000,A,3309.8951,N,11720.5814,W,33.05,336.45,110410,,,A*4C
$GPRMC,002319.000,A,3309.9219,N,11720.5952,W,37.42,336.80,110410,,,A*48
$GPRMC,002322.000,A,3309.9518,N,11720.6101,W,39.85,337.15,110410,,,A*43
$GPRMC,002325.000,A,3309.9837,N,11720.6265,W,41.79,336.80,110410,,,A*44
$GPRMC,002328.000,A,3310.0168,N,11720.6432,W,42.77,336.80,110410,,,A*42
$GPRMC,002331.000,A,3310.0490,N,11720.6583,W,39.85,336.80,110410,,,A*42
$GPRMC,002334.000,A,3310.0776,N,11720.6731,W,37.91,335.74,110410,,,A*44
$GPRMC,002337.000,A,3310.1053,N,11720.6886,W,35.48,333.98,110410,,,A*47
$GPRMC,002340.000,A,3310.1311,N,11720.7047,W,34.50,331.88,110410,,,A*4D
$GPRMC,002343.000,A,3310.1559,N,11720.7214,W,34.03,329.77,110410,,,A*4F
$GPRMC,002346.000,A,3310.1800,N,11720.7388,W,34.03,328.36,110410,,,A*4B
$GPRMC,002349.000,A,3310.2025,N,11720.7565,W,29.65,327.66,110410,,,A*4B
$GPRMC,002352.000,A,3310.2186,N,11720.7681,W,19.93,329.06,110410,,,A*42
$GPRMC,002355.000,A,3310.2302,N,11720.7761,W,12.64,330.47,110410,,,A*4A
$GPRMC,002358.000,A,3310.2360,N,11720.7797,W,5.35,331.88,110410,,,A*7A
$GPRMC,002401.000,A,3310.2399,N,11720.7829,W,7.78,328.01,110410,,,A*7F
$GPRMC,002404.000,A,3310.2495,N,11720.7890,W,15.07,327.66,110410,,,A*46
$GPRMC,002407.000,A,3310.2643,N,11720.8012,W,22.38,327.66,110410,,,A*49
$GPRMC,002410.000,A,3310.2769,N,11720.8109,W,16.04,329.06,110410,,,A*4D
$GPRMC,002413.000,A,3310.2859,N,11720.8170,W,12.64,328.01,110410,,,A*48
$GPRMC,002416.000,A,3310.2968,N,11720.8257,W,19.46,330.12,110410,,,A*48
$GPRMC,002419.000,A,3310.3139,N,11720.8363,W,26.75,331.52,110410,,,A*45
$GPRMC,002422.000,A,3310.3342,N,11720.8508,W,29.18,327.66,110410,,,A*4C
$GPRMC,002425.000,A,3310.3541,N,11720.8659,W,26.73,327.30,110410,,,A*48
$GPRMC,002428.000,A,3310.3709,N,11720.8785,W,21.87,327.66,110410,,,A*44
$GPRMC,002431.000,A,3310.3863,N,11720.8907,W,21.41,327.30,110410,,,A*42
$GPRMC,002434.000,A,3310.4008,N,11720.9013,W,19.93,327.30,110410,,,A*4C
$GPRMC,002437.000,A,3310.4153,N,11720.9126,W,20.90,328.01,110410,,,A*43
$GPRMC,002440.000,A,3310.4314,N,11720.9245,W,24.79,328.01,110410,,,A*47
$GPRMC,002443.000,A,3310.4504,N,11720.9403,W,28.69,327.30,110410,,,A*47
$GPRMC,002446.000,A,3310.4722,N,11720.9561,W,33.05,327.66,110410,,,A*42
$GPRMC,002449.000,A,3310.4967,N,11720.9744,W,35.96,327.30,110410,,,A*48
$GPRMC,002452.000,A,3310.5228,N,11720.9940,W,37.91,328.36,110410,,,A*45
$GPRMC,002455.000,A,3310.5495,N,11721.0137,W,36.95,328.01,110410,,,A*43
$GPRMC,002458.000,A,3310.5740,N,11721.0320,W,33.06,327.66,110410,,,A*40
$GPRMC,002501.000,A,3310.5952,N,11721.0478,W,28.19,327.66,110410,,,A*4E
$GPRMC,002504.000,A,3310.6142,N,11721.0619,W,27.72,326.25,110410,,,A*40
$GPRMC,002507.000,A,3310.6329,N,11721.0771,W,26.73,324.84,110410,,,A*4A
$GPRMC,002510.000,A,3310.6509,N,11721.0919,W,25.78,325.55,110410,,,A*4D
$GPRMC,002513.000,A,3310.6689,N,11721.1064,W,26.26,325.55,110410,,,A*4F
$GPRMC,002516.000,A,3310.6873,N,11721.1225,W,29.18,324.84,110410,,,A*49
$GPRMC,002519.000,A,3310.7069,N,11721.1382,W,26.75,324.49,110410,,,A*4D
$GPRMC,002522.000,A,3310.7246,N,11721.1527,W,23.83,324.84,110410,,,A*4E
$GPRMC,002525.000,A,3310.7404,N,11721.1656,W,21.38,325.20,110410,,,A*41
$GPRMC,002528.000,A,3310.7539,N,11721.1769,W,19.44,325.55,110410,,,A*4C
$GPRMC,002531.000,A,3310.7674,N,11721.1881,W,19.93,325.55,110410,,,A*4D
$GPRMC,002534.000,A,3310.7809,N,11721.1997,W,20.43,324.49,110410,,,A*41
$GPRMC,002537.000,A,3310.7951,N,11721.2119,W,20.90,324.14,110410,,,A*45
$GPRMC,002540.000,A,3310.8092,N,11721.2229,W,19.44,324.84,110410,,,A*46
$GPRMC,002543.000,A,3310.8211,N,11721.2325,W,17.98,324.84,110410,,,A*4E
$GPRMC,002546.000,A,3310.8347,N,11721.2441,W,19.93,325.20,110410,,,A*46
$GPRMC,002549.000,A,3310.8495,N,11721.2560,W,22.36,325.55,110410,,,A*46
$GPRMC,002552.000,A,3310.8669,N,11721.2692,W,24.30,325.55,110410,,,A*43
$GPRMC,002555.000,A,3310.8833,N,11721.2824,W,23.81,325.20,110410,,,A*49
$GPRMC,002558.000,A,3310.8984,N,11721.2953,W,22.84,324.84,110410,,,A*43
$GPRMC,002601.000,A,3310.9142,N,11721.3088,W,23.81,324.49,110410,,,A*44
$GPRMC,002604.000,A,3310.9315,N,11721.3236,W,26.73,324.84,110410,,,A*4F
$GPRMC,002607.000,A,3310.9505,N,11721.3400,W,27.70,324.84,110410,,,A*4A
$GPRMC,002610.000,A,3310.9695,N,11721.3552,W,26.24,325.20,110410,,,A*4F
$GPRMC,002613.000,A,3310.9866,N,11721.3693,W,24.30,324.84,110410,,,A*48
$GPRMC,002616.000,A,3311.0024,N,11721.3828,W,23.81,324.84,110410,,,A*48
$GPRMC,002619.000,A,3311.0204,N,11721.3970,W,27.22,325.55,110410,,,A*4B
$GPRMC,002623.000,A,3311.0471,N,11721.4186,W,31.10,325.55,110410,,,A*46
$GPRMC,002626.000,A,3311.0703,N,11721.4379,W,34.02,324.84,110410,,,A*4C
$GPRMC,002629.000,A,3311.0931,N,11721.4578,W,34.50,323.79,110410,,,A*49
$GPRMC,002632.000,A,3311.1169,N,11721.4772,W,35.48,325.20,110410,,,A*4D
$GPRMC,002635.000,A,3311.1411,N,11721.4981,W,36.45,325.55,110410,,,A*4E
$GPRMC,002638.000,A,3311.1675,N,11721.5196,W,38.39,324.84,110410,,,A*44
$GPRMC,002641.000,A,3311.1945,N,11721.5419,W,40.83,324.84,110410,,,A*4A
$GPRMC,002644.000,A,3311.2235,N,11721.5650,W,42.29,324.84,110410,,,A*4D
$GPRMC,002647.000,A,3311.2528,N,11721.5895,W,43.26,325.20,110410,,,A*43
$GPRMC,002650.000,A,3311.2830,N,11721.6143,W,45.21,325.20,110410,,,A*41
$GPRMC,002653.000,A,3311.3155,N,11721.6410,W,48.15,325.20,110410,,,A*40
$GPRMC,002656.000,A,3311.3493,N,11721.6693,W,50.06,324.84,110410,,,A*47
$GPRMC,002659.000,A,3311.3844,N,11721.6983,W,52.00,324.84,110410,,,A*44
$GPRMC,002702.000,A,3311.4201,N,11721.7285,W,52.52,325.20,110410,,,A*43
$GPRMC,002705.000,A,3311.4565,N,11721.7585,W,53.47,325.20,110410,,,A*43
$GPRMC,002708.000,A,3311.4929,N,11721.7890,W,52.50,325.20,110410,,,A*44
$GPRMC,002711.000,A,3311.5280,N,11721.8187,W,50.55,325.20,110410,,,A*42
$GPRMC,002714.000,A,3311.5624,N,11721.8476,W,51.07,324.84,110410,,,A*4F
$GPRMC,002717.000,A,3311.5975,N,11721.8772,W,52.00,324.84,110410,,,A*44
$GPRMC,002720.000,A,3311.6332,N,11721.9072,W,52.00,324.84,110410,,,A*4C
$GPRMC,002723.000,A,3311.6689,N,11721.9368,W,51.51,325.20,110410,,,A*4A
$GPRMC,002726.000,A,3311.7040,N,11721.9654,W,50.54,325.20,110410,,,A*43
$GPRMC,002729.000,A,3311.7385,N,11721.9947,W,50.54,324.84,110410,,,A*44
$GPRMC,002732.000,A,3311.7732,N,11722.0237,W,52.00,324.84,110410,,,A*43
$GPRMC,002735.000,A,3311.8093,N,11722.0536,W,52.97,324.49,110410,,,A*4E
$GPRMC,002738.000,A,3311.8453,N,11722.0842,W,52.52,324.84,110410,,,A*4D
$GPRMC,002741.000,A,3311.8810,N,11722.1148,W,52.98,322.73,110410,,,A*42
$GPRMC,002744.000,A,3311.9155,N,11722.1489,W,54.43,318.16,110410,,,A*4C
$GPRMC,002747.000,A,3311.9477,N,11722.1882,W,55.41,312.19,110410,,,A*4B
$GPRMC,002750.000,A,3311.9770,N,11722.2303,W,55.90,306.56,110410,,,A*4A
$GPRMC,002753.000,A,3312.0030,N,11722.2767,W,56.41,301.29,110410,,,A*46
$GPRMC,002756.000,A,3312.0259,N,11722.3259,W,56.86,297.42,110410,,,A*4F
$GPRMC,002759.000,A,3312.0446,N,11722.3781,W,57.38,292.50,110410,,,A*4A
$GPRMC,002802.000,A,3312.0623,N,11722.4312,W,58.33,292.15,110410,,,A*46
$GPRMC,002805.000,A,3312.0809,N,11722.4852,W,59.29,292.50,110410,,,A*43
$GPRMC,002808.000,A,3312.0993,N,11722.5387,W,57.84,292.15,110410,,,A*46
$GPRMC,002811.000,A,3312.1170,N,11722.5911,W,56.38,291.80,110410,,,A*46
$GPRMC,002814.000,A,3312.1340,N,11722.6433,W,56.38,292.15,110410,,,A*43
$GPRMC,002817.000,A,3312.1521,N,11722.6951,W,55.89,292.50,110410,,,A*40
$GPRMC,002820.000,A,3312.1694,N,11722.7466,W,55.89,292.15,110410,,,A*40
$GPRMC,002823.000,A,3312.1871,N,11722.7981,W,55.89,292.15,110410,,,A*42
$GPRMC,002826.000,A,3312.2068,N,11722.8489,W,57.35,294.96,110410,,,A*46
$GPRMC,002829.000,A,3312.2325,N,11722.9004,W,60.27,302.70,110410,,,A*42
$GPRMC,002832.000,A,3312.2634,N,11722.9490,W,61.26,309.38,110410,,,A*43
$GPRMC,002835.000,A,3312.2985,N,11722.9941,W,62.21,314.65,110410,,,A*40
$GPRMC,002838.000,A,3312.3381,N,11723.0356,W,63.18,321.68,110410,,,A*46
$GPRMC,002841.000,A,3312.3815,N,11723.0720,W,62.69,328.36,110410,,,A*4E
$GPRMC,002844.000,A,3312.4266,N,11723.1023,W,62.21,331.88,110410,,,A*46
$GPRMC,002847.000,A,3312.4730,N,11723.1312,W,64.15,332.23,110410,,,A*41
$GPRMC,002850.000,A,3312.5206,N,11723.1612,W,65.12,332.23,110410,,,A*45
$GPRMC,002853.000,A,3312.5682,N,11723.1911,W,64.64,331.88,110410,,,A*40
$GPRMC,002856.000,A,3312.6155,N,11723.2207,W,63.66,332.23,110410,,,A*43
$GPRMC,002859.000,A,3312.6622,N,11723.2490,W,62.21,331.88,110410,,,A*43
$GPRMC,002902.000,A,3312.7076,N,11723.2780,W,61.73,332.23,110410,,,A*4E
$GPRMC,002905.000,A,3312.7536,N,11723.3070,W,63.18,332.23,110410,,,A*4E
$GPRMC,002908.000,A,3312.8006,N,11723.3366,W,64.64,331.88,110410,,,A*40
$GPRMC,002911.000,A,3312.8502,N,11723.3646,W,66.10,336.45,110410,,,A*49
$GPRMC,002914.000,A,3312.9023,N,11723.3861,W,67.07,343.83,110410,,,A*4F
$GPRMC,002917.000,A,3312.9558,N,11723.4032,W,65.61,345.94,110410,,,A*4E
$GPRMC,002920.000,A,3313.0085,N,11723.4190,W,65.12,345.59,110410,,,A*4B
$GPRMC,002923.000,A,3313.0610,N,11723.4351,W,64.64,345.59,110410,,,A*4D
$GPRMC,002926.000,A,3313.1131,N,11723.4515,W,63.66,345.94,110410,,,A*4F
$GPRMC,002929.000,A,3313.1643,N,11723.4669,W,62.69,345.94,110410,,,A*44
$GPRMC,002932.000,A,3313.2149,N,11723.4817,W,61.72,345.94,110410,,,A*4E
$GPRMC,002935.000,A,3313.2644,N,11723.4969,W,60.75,345.94,110410,,,A*4D
$GPRMC,002938.000,A,3313.3124,N,11723.5120,W,58.80,344.88,110410,,,A*49
$GPRMC,002941.000,A,3313.3587,N,11723.5297,W,58.33,338.55,110410,,,A*46
$GPRMC,002944.000,A,3313.4025,N,11723.5538,W,58.84,332.58,110410,,,A*40
$GPRMC,002947.000,A,3313.4456,N,11723.5838,W,60.75,326.60,110410,,,A*45
$GPRMC,002950.000,A,3313.4859,N,11723.6208,W,61.72,320.98,110410,,,A*4D
$GPRMC,002953.000,A,3313.5222,N,11723.6607,W,60.76,317.11,110410,,,A*42
$GPRMC,002956.000,A,3313.5596,N,11723.7022,W,60.75,317.11,110410,,,A*4C
$GPRMC,002959.000,A,3313.5969,N,11723.7441,W,60.76,317.11,110410,,,A*4D
$GPRMC,003000.000,A,3313.6091,N,11723.7576,W,60.76,316.76,110410,,,A*41
$GPRMC,003005.000,A,3313.6703,N,11723.8252,W,58.33,317.11,110410,,,A*4C
$GPRMC,003008.000,A,3313.7054,N,11723.8641,W,57.83,316.76,110410,,,A*47
$GPRMC,003011.000,A,3313.7421,N,11723.9037,W,59.29,317.11,110410,,,A*41
$GPRMC,003014.000,A,3313.7781,N,11723.9449,W,60.26,316.76,110410,,,A*45
$GPRMC,003017.000,A,3313.8155,N,11723.9867,W,63.21,317.11,110410,,,A*42
$GPRMC,003020.000,A,3313.8547,N,11724.0299,W,64.15,317.11,110410,,,A*44
$GPRMC,003023.000,A,3313.8946,N,11724.0740,W,65.12,316.76,110410,,,A*4D
$GPRMC,003026.000,A,3313.9345,N,11724.1177,W,64.64,318.52,110410,,,A*4B
$GPRMC,003029.000,A,3313.9761,N,11724.1589,W,64.15,321.68,110410,,,A*46
$GPRMC,003032.000,A,3314.0186,N,11724.1985,W,63.18,322.38,110410,,,A*41
$GPRMC,003035.000,A,3314.0601,N,11724.2359,W,61.73,322.38,110410,,,A*49
$GPRMC,003038.000,A,3314.1003,N,11724.2726,W,60.27,322.03,110410,,,A*45
$GPRMC,003041.000,A,3314.1402,N,11724.3089,W,59.78,322.73,110410,,,A*4A
$GPRMC,003044.000,A,3314.1798,N,11724.3453,W,59.78,322.73,110410,,,A*4C
$GPRMC,003047.000,A,3314.2194,N,11724.3817,W,59.81,322.03,110410,,,A*4B
$GPRMC,003050.000,A,3314.2571,N,11724.4203,W,59.85,316.05,110410,,,A*4F
$GPRMC,003053.000,A,3314.2915,N,11724.4644,W,60.78,309.02,110410,,,A*44
$GPRMC,003056.000,A,3314.3214,N,11724.5133,W,61.23,303.75,110410,,,A*49
$GPRMC,003059.000,A,3314.3443,N,11724.5667,W,60.27,295.31,110410,,,A*4F
$GPRMC,003102.000,A,3314.3636,N,11724.6218,W,59.78,291.09,110410,,,A*40
$GPRMC,003105.000,A,3314.3813,N,11724.6775,W,59.78,291.45,110410,,,A*48
$GPRMC,003108.000,A,3314.3996,N,11724.7319,W,58.32,293.20,110410,,,A*48
$GPRMC,003111.000,A,3314.4209,N,11724.7837,W,57.35,297.42,110410,,,A*45
$GPRMC,003114.000,A,3314.4511,N,11724.8310,W,58.84,307.62,110410,,,A*40
$GPRMC,003117.000,A,3314.4846,N,11724.8748,W,60.27,315.35,110410,,,A*46
$GPRMC,003120.000,A,3314.5223,N,11724.9144,W,60.76,322.38,110410,,,A*4C
$GPRMC,003123.000,A,3314.5648,N,11724.9481,W,61.24,329.77,110410,,,A*4C
$GPRMC,003126.000,A,3314.6095,N,11724.9758,W,61.23,334.69,110410,,,A*4F
$GPRMC,003129.000,A,3314.6565,N,11724.9968,W,60.26,339.61,110410,,,A*46
$GPRMC,003132.000,A,3314.7035,N,11725.0177,W,59.78,338.91,110410,,,A*4C
$GPRMC,003135.000,A,3314.7502,N,11725.0389,W,59.78,339.26,110410,,,A*44
$GPRMC,003138.000,A,3314.7965,N,11725.0595,W,59.30,339.26,110410,,,A*43
$GPRMC,003141.000,A,3314.8425,N,11725.0817,W,59.29,335.39,110410,,,A*46
$GPRMC,003144.000,A,3314.8866,N,11725.1091,W,59.29,330.12,110410,,,A*43
$GPRMC,003147.000,A,3314.9288,N,11725.1413,W,59.78,326.25,110410,,,A*42
$GPRMC,003150.000,A,3314.9703,N,11725.1738,W,60.27,326.25,110410,,,A*48
$GPRMC,003153.000,A,3315.0128,N,11725.2076,W,61.23,325.90,110410,,,A*4A
$GPRMC,003156.000,A,3315.0556,N,11725.2414,W,61.72,326.25,110410,,,A*4B
$GPRMC,003159.000,A,3315.0987,N,11725.2755,W,62.21,326.25,110410,,,A*47
$GPRMC,003202.000,A,3315.1415,N,11725.3096,W,61.23,326.25,110410,,,A*45
$GPRMC,003205.000,A,3315.1840,N,11725.3431,W,60.75,326.25,110410,,,A*45
$GPRMC,003208.000,A,3315.2259,N,11725.3762,W,60.26,326.25,110410,,,A*4A
$GPRMC,003211.000,A,3315.2680,N,11725.4094,W,60.26,326.60,110410,,,A*4A
$GPRMC,003214.000,A,3315.3102,N,11725.4429,W,60.75,326.25,110410,,,A*46
$GPRMC,003217.000,A,3315.3524,N,11725.4763,W,61.72,326.25,110410,,,A*4E
$GPRMC,003220.000,A,3315.3952,N,11725.5108,W,61.23,326.25,110410,,,A*49
$GPRMC,003223.000,A,3315.4380,N,11725.5449,W,61.72,326.25,110410,,,A*4C
$GPRMC,003226.000,A,3315.4811,N,11725.5790,W,61.73,326.25,110410,,,A*4C
$GPRMC,003230.000,A,3315.5384,N,11725.6244,W,61.72,326.25,110410,,,A*43
$GPRMC,003233.000,A,3315.5812,N,11725.6585,W,61.72,326.25,110410,,,A*4E
$GPRMC,003236.000,A,3315.6240,N,11725.6929,W,61.72,326.60,110410,,,A*4E
$GPRMC,003239.000,A,3315.6671,N,11725.7267,W,61.72,326.25,110410,,,A*46
$GPRMC,003242.000,A,3315.7106,N,11725.7609,W,61.72,326.25,110410,,,A*40
$GPRMC,003245.000,A,3315.7537,N,11725.7943,W,61.72,326.60,110410,,,A*41
$GPRMC,003248.000,A,3315.7969,N,11725.8288,W,61.72,326.25,110410,,,A*49
$GPRMC,003251.000,A,3315.8393,N,11725.8635,W,61.72,325.20,110410,,,A*45
$GPRMC,003254.000,A,3315.8793,N,11725.9025,W,62.21,317.46,110410,,,A*46
$GPRMC,003257.000,A,3315.9159,N,11725.9466,W,62.72,311.48,110410,,,A*49
$GPRMC,003300.000,A,3315.9507,N,11725.9932,W,62.24,311.48,110410,,,A*4A
$GPRMC,003303.000,A,3315.9848,N,11726.0396,W,61.73,311.13,110410,,,A*4E
$GPRMC,003306.000,A,3316.0189,N,11726.0859,W,61.23,311.48,110410,,,A*46
$GPRMC,003309.000,A,3316.0524,N,11726.1316,W,61.72,311.13,110410,,,A*41
$GPRMC,003312.000,A,3316.0865,N,11726.1777,W,61.72,311.48,110410,,,A*4E
$GPRMC,003315.000,A,3316.1207,N,11726.2237,W,62.21,310.08,110410,,,A*44
$GPRMC,003318.000,A,3316.1535,N,11726.2707,W,61.72,310.43,110410,,,A*43
$GPRMC,003321.000,A,3316.1876,N,11726.3174,W,62.70,311.13,110410,,,A*45
$GPRMC,003324.000,A,3316.2224,N,11726.3653,W,65.61,311.48,110410,,,A*45
$GPRMC,003327.000,A,3316.2591,N,11726.4146,W,67.07,311.48,110410,,,A*49
$GPRMC,003330.000,A,3316.2964,N,11726.4648,W,66.61,311.48,110410,,,A*41
$GPRMC,003333.000,A,3316.3337,N,11726.5134,W,66.12,313.59,110410,,,A*44
$GPRMC,003336.000,A,3316.3743,N,11726.5575,W,66.10,321.33,110410,,,A*48
$GPRMC,003339.000,A,3316.4197,N,11726.5958,W,66.10,327.30,110410,,,A*49
$GPRMC,003342.000,A,3316.4663,N,11726.6312,W,65.12,326.95,110410,,,A*41
$GPRMC,003345.000,A,3316.5117,N,11726.6659,W,64.15,327.30,110410,,,A*41
$GPRMC,003348.000,A,3316.5565,N,11726.6997,W,63.18,327.66,110410,,,A*49
$GPRMC,003351.000,A,3316.6006,N,11726.7332,W,62.21,327.66,110410,,,A*4D
$GPRMC,003354.000,A,3316.6440,N,11726.7664,W,61.72,327.30,110410,,,A*4E
$GPRMC,003357.000,A,3316.6875,N,11726.7992,W,62.21,327.66,110410,,,A*47
$GPRMC,003400.000,A,3316.7309,N,11726.8323,W,61.72,327.30,110410,,,A*4A
$GPRMC,003403.000,A,3316.7740,N,11726.8655,W,61.72,327.30,110410,,,A*44
$GPRMC,003406.000,A,3316.8175,N,11726.8983,W,61.24,327.66,110410,,,A*4A
$GPRMC,003409.000,A,3316.8606,N,11726.9312,W,62.24,327.66,110410,,,A*46
$GPRMC,003412.000,A,3316.9047,N,11726.9646,W,62.21,327.30,110410,,,A*4C
$GPRMC,003415.000,A,3316.9482,N,11726.9978,W,62.21,327.66,110410,,,A*47
$GPRMC,003418.000,A,3316.9926,N,11727.0309,W,62.69,327.30,110410,,,A*42
$GPRMC,003421.000,A,3317.0373,N,11727.0651,W,64.64,327.30,110410,,,A*49
$GPRMC,003424.000,A,3317.0827,N,11727.0995,W,65.13,327.30,110410,,,A*40
$GPRMC,003427.000,A,3317.1291,N,11727.1346,W,66.10,327.66,110410,,,A*43
$GPRMC,003430.000,A,3317.1757,N,11727.1697,W,67.07,327.30,110410,,,A*47
$GPRMC,003433.000,A,3317.2230,N,11727.2060,W,67.55,327.66,110410,,,A*4A
$GPRMC,003436.000,A,3317.2704,N,11727.2418,W,67.58,327.30,110410,,,A*48
$GPRMC,003439.000,A,3317.3177,N,11727.2781,W,67.07,327.30,110410,,,A*4D
$GPRMC,003442.000,A,3317.3653,N,11727.3139,W,67.07,327.30,110410,,,A*44
$GPRMC,003445.000,A,3317.4123,N,11727.3489,W,67.07,327.66,110410,,,A*49
$GPRMC,003448.000,A,3317.4596,N,11727.3853,W,67.09,327.30,110410,,,A*48
$GPRMC,003451.000,A,3317.5069,N,11727.4210,W,67.07,327.66,110410,,,A*43
$GPRMC,003454.000,A,3317.5542,N,11727.4564,W,67.07,327.66,110410,,,A*4E
$GPRMC,003457.000,A,3317.6016,N,11727.4931,W,67.55,326.95,110410,,,A*4C
$GPRMC,003500.000,A,3317.6469,N,11727.5311,W,65.12,321.33,110410,,,A*40
$GPRMC,003503.000,A,3317.6872,N,11727.5752,W,64.15,315.00,110410,,,A*47
$GPRMC,003506.000,A,3317.7242,N,11727.6203,W,63.66,314.65,110410,,,A*49
$GPRMC,003509.000,A,3317.7612,N,11727.6660,W,63.67,314.65,110410,,,A*47
$GPRMC,003512.000,A,3317.7985,N,11727.7110,W,63.69,314.65,110410,,,A*43
$GPRMC,003515.000,A,3317.8362,N,11727.7561,W,64.18,314.30,110410,,,A*4B
$GPRMC,003518.000,A,3317.8742,N,11727.8018,W,65.15,314.65,110410,,,A*48
$GPRMC,003521.000,A,3317.9125,N,11727.8482,W,65.13,313.95,110410,,,A*4D
$GPRMC,003524.000,A,3317.9501,N,11727.8942,W,63.69,314.65,110410,,,A*48
$GPRMC,003527.000,A,3317.9872,N,11727.9392,W,63.67,314.65,110410,,,A*4A
$GPRMC,003530.000,A,3318.0245,N,11727.9843,W,64.15,314.30,110410,,,A*41
$GPRMC,003533.000,A,3318.0621,N,11728.0303,W,65.13,314.65,110410,,,A*4A
$GPRMC,003536.000,A,3318.1004,N,11728.0767,W,65.61,314.30,110410,,,A*4C
$GPRMC,003539.000,A,3318.1384,N,11728.1237,W,65.61,314.65,110410,,,A*49
$GPRMC,003542.000,A,3318.1771,N,11728.1703,W,66.59,314.65,110410,,,A*41
$GPRMC,003545.000,A,3318.2163,N,11728.2173,W,66.09,314.65,110410,,,A*47
$GPRMC,003548.000,A,3318.2553,N,11728.2646,W,67.07,314.65,110410,,,A*43
$GPRMC,003551.000,A,3318.2942,N,11728.3120,W,66.59,314.30,110410,,,A*4B
$GPRMC,003554.000,A,3318.3332,N,11728.3590,W,66.59,314.65,110410,,,A*4D
$GPRMC,003557.000,A,3318.3721,N,11728.4059,W,66.10,314.65,110410,,,A*42
$GPRMC,003559.000,A,3318.3979,N,11728.4372,W,66.59,314.65,110410,,,A*48
$GPRMC,003603.000,A,3318.4500,N,11728.4999,W,66.59,314.30,110410,,,A*4E
$GPRMC,003606.000,A,3318.4893,N,11728.5476,W,66.59,314.30,110410,,,A*41
$GPRMC,003609.000,A,3318.5282,N,11728.5952,W,66.59,314.30,110410,,,A*4E
$GPRMC,003612.000,A,3318.5672,N,11728.6425,W,66.59,314.30,110410,,,A*41
$GPRMC,003615.000,A,3318.6058,N,11728.6895,W,66.10,314.65,110410,,,A*41
$GPRMC,003618.000,A,3318.6441,N,11728.7359,W,65.12,314.30,110410,,,A*4B
$GPRMC,003621.000,A,3318.6821,N,11728.7816,W,64.15,316.05,110410,,,A*49
$GPRMC,003624.000,A,3318.7220,N,11728.8234,W,64.15,323.09,110410,,,A*49
$GPRMC,003627.000,A,3318.7667,N,11728.8585,W,63.67,329.77,110410,,,A*41
$GPRMC,003630.000,A,3318.8137,N,11728.8862,W,62.72,337.50,110410,,,A*41
$GPRMC,003633.000,A,3318.8629,N,11728.9068,W,62.24,344.53,110410,,,A*4D
$GPRMC,003636.000,A,3318.9138,N,11728.9190,W,62.72,351.91,110410,,,A*41
$GPRMC,003639.000,A,3318.9659,N,11728.9248,W,61.75,355.78,110410,,,A*4F
$GPRMC,003642.000,A,3319.0171,N,11728.9293,W,61.73,355.43,110410,,,A*4E
$GPRMC,003645.000,A,3319.0683,N,11728.9341,W,62.21,355.43,110410,,,A*49
$GPRMC,003648.000,A,3319.1201,N,11728.9386,W,62.21,355.43,110410,,,A*40
$GPRMC,003651.000,A,3319.1713,N,11728.9457,W,61.72,350.86,110410,,,A*4C
$GPRMC,003654.000,A,3319.2218,N,11728.9589,W,61.72,343.83,110410,,,A*41
$GPRMC,003657.000,A,3319.2707,N,11728.9798,W,62.69,337.85,110410,,,A*47
$GPRMC,003700.000,A,3319.3181,N,11729.0091,W,64.15,330.12,110410,,,A*4F
$GPRMC,003703.000,A,3319.3622,N,11729.0465,W,64.64,321.68,110410,,,A*46
$GPRMC,003706.000,A,3319.4024,N,11729.0893,W,64.16,314.30,110410,,,A*4F
$GPRMC,003709.000,A,3319.4381,N,11729.1366,W,64.16,310.78,110410,,,A*44
$GPRMC,003712.000,A,3319.4732,N,11729.1849,W,63.67,310.78,110410,,,A*45
$GPRMC,003715.000,A,3319.5080,N,11729.2331,W,63.67,311.13,110410,,,A*46
$GPRMC,003718.000,A,3319.5424,N,11729.2805,W,62.70,310.78,110410,,,A*46
$GPRMC,003721.000,A,3319.5765,N,11729.3271,W,61.73,310.78,110410,,,A*42
$GPRMC,003724.000,A,3319.6106,N,11729.3741,W,61.73,311.13,110410,,,A*4D
$GPRMC,003727.000,A,3319.6441,N,11729.4205,W,61.73,311.13,110410,,,A*4A
$GPRMC,003730.000,A,3319.6779,N,11729.4668,W,61.73,311.13,110410,,,A*4B
$GPRMC,003733.000,A,3319.7104,N,11729.5119,W,56.87,310.78,110410,,,A*46
$GPRMC,003736.000,A,3319.7413,N,11729.5540,W,56.87,312.54,110410,,,A*44
$GPRMC,003739.000,A,3319.7741,N,11729.5965,W,59.30,311.84,110410,,,A*49
$GPRMC,003742.000,A,3319.8076,N,11729.6413,W,60.27,310.78,110410,,,A*48
$GPRMC,003745.000,A,3319.8405,N,11729.6870,W,61.24,311.13,110410,,,A*48
$GPRMC,003748.000,A,3319.8742,N,11729.7330,W,60.76,311.13,110410,,,A*4D
$GPRMC,003751.000,A,3319.9084,N,11729.7787,W,61.72,312.19,110410,,,A*4D
$GPRMC,003754.000,A,3319.9434,N,11729.8244,W,62.69,311.84,110410,,,A*4C
$GPRMC,003757.000,A,3319.9782,N,11729.8714,W,64.15,311.13,110410,,,A*42
$GPRMC,003800.000,A,3320.0136,N,11729.9203,W,66.59,310.78,110410,,,A*41
$GPRMC,003803.000,A,3320.0500,N,11729.9705,W,67.55,310.78,110410,,,A*4D
$GPRMC,003806.000,A,3320.0870,N,11730.0214,W,67.07,311.13,110410,,,A*4D
$GPRMC,003809.000,A,3320.1240,N,11730.0716,W,67.07,311.13,110410,,,A*4D
$GPRMC,003812.000,A,3320.1607,N,11730.1218,W,66.09,310.78,110410,,,A*49
$GPRMC,003815.000,A,3320.1961,N,11730.1704,W,63.66,310.78,110410,,,A*45
$GPRMC,003818.000,A,3320.2302,N,11730.2171,W,60.26,310.78,110410,,,A*44
$GPRMC,003821.000,A,3320.2624,N,11730.2615,W,59.29,310.78,110410,,,A*4F
$GPRMC,003824.000,A,3320.2949,N,11730.3062,W,58.32,311.13,110410,,,A*4E
$GPRMC,003827.000,A,3320.3268,N,11730.3497,W,58.32,311.13,110410,,,A*4A
$GPRMC,003830.000,A,3320.3587,N,11730.3931,W,57.35,311.13,110410,,,A*43
$GPRMC,003833.000,A,3320.3899,N,11730.4363,W,56.86,310.78,110410,,,A*4D
$GPRMC,003836.000,A,3320.4198,N,11730.4781,W,53.94,310.78,110410,,,A*49
$GPRMC,003839.000,A,3320.4491,N,11730.5180,W,52.97,310.78,110410,,,A*4E
$GPRMC,003842.000,A,3320.4777,N,11730.5583,W,52.97,310.78,110410,,,A*4E
$GPRMC,003845.000,A,3320.5067,N,11730.5975,W,52.49,310.78,110410,,,A*48
$GPRMC,003848.000,A,3320.5354,N,11730.6374,W,52.97,310.78,110410,,,A*4D
$GPRMC,003851.000,A,3320.5637,N,11730.6764,W,50.54,311.13,110410,,,A*41
$GPRMC,003854.000,A,3320.5910,N,11730.7137,W,48.60,310.78,110410,,,A*4D
$GPRMC,003857.000,A,3320.6171,N,11730.7498,W,48.12,310.78,110410,,,A*47
$GPRMC,003900.000,A,3320.6438,N,11730.7861,W,49.57,311.13,110410,,,A*4A
$GPRMC,003903.000,A,3320.6712,N,11730.8235,W,50.54,310.78,110410,,,A*41
$GPRMC,003906.000,A,3320.6992,N,11730.8621,W,52.00,310.78,110410,,,A*40
$GPRMC,003909.000,A,3320.7278,N,11730.9017,W,52.49,311.13,110410,,,A*42
$GPRMC,003913.000,A,3320.7665,N,11730.9545,W,53.46,310.78,110410,,,A*41
$GPRMC,003916.000,A,3320.7957,N,11730.9947,W,53.95,311.13,110410,,,A*46
$GPRMC,003919.000,A,3320.8254,N,11731.0356,W,53.95,311.13,110410,,,A*4C
$GPRMC,003922.000,A,3320.8553,N,11731.0771,W,55.41,310.43,110410,,,A*4E
$GPRMC,003925.000,A,3320.8852,N,11731.1196,W,56.86,310.08,110410,,,A*4C
$GPRMC,003928.000,A,3320.9155,N,11731.1627,W,56.86,309.73,110410,,,A*47
