NMEA Sentence Code,UTC Time,Status,Latitude,Latitude Direction,Longitude,Longitude Direction,Speed (knots),Track Angle (degrees true),Date,MagneticVariation,Magnetic Variation Direction,[FAA Mode]-Optional,Checksum
$GPRMC,224336.4,A,3329.508973,N,11708.697582,W,19.2,162.3,020810,,,A*4E
$GPRMC,224339.4,A,3329.492816,N,11708.692552,W,18.7,162.7,020810,,,A*49
$GPRMC,224342.4,A,3329.477642,N,11708.687646,W,18.1,163.5,020810,,,A*46
$GPRMC,224345.4,A,3329.462901,N,11708.682258,W,19.9,163.7,020810,,,A*48
$GPRMC,224348.4,A,3329.446326,N,11708.676631,W,20.7,164.1,020810,,,A*49
$GPRMC,224351.4,A,3329.429355,N,11708.671003,W,21.8,164.9,020810,,,A*4A
$GPRMC,224354.4,A,3329.410415,N,11708.664916,W,24.4,164.8,020810,,,A*47
$GPRMC,224357.4,A,3329.387859,N,11708.656710,W,28.8,162.9,020810,,,A*47
$GPRMC,224400.4,A,3329.363772,N,11708.647248,W,32.3,163.3,020810,,,A*4D
$GPRMC,224403.4,A,3329.337787,N,11708.637706,W,32.3,163.1,020810,,,A*4F
$GPRMC,224406.4,A,3329.312499,N,11708.628235,W,31.0,163.3,020810,,,A*48
$GPRMC,224409.4,A,3329.289799,N,11708.619802,W,26.0,163.0,020810,,,A*4E
$GPRMC,224412.4,A,3329.270112,N,11708.612971,W,24.0,163.4,020810,,,A*4F
$GPRMC,224415.4,A,3329.249634,N,11708.606045,W,27.1,163.4,020810,,,A*48
$GPRMC,224418.4,A,3329.227241,N,11708.598444,W,28.1,163.2,020810,,,A*43
$GPRMC,224421.4,A,3329.205265,N,11708.590310,W,28.9,163.4,020810,,,A*4F
$GPRMC,224424.4,A,3329.181713,N,11708.581323,W,31.3,163.0,020810,,,A*47
$GPRMC,224427.4,A,3329.155889,N,11708.571576,W,33.7,162.9,020810,,,A*46
$GPRMC,224430.4,A,3329.128427,N,11708.561304,W,35.1,162.9,020810,,,A*40
$GPRMC,224433.4,A,3329.100298,N,11708.550430,W,37.0,161.4,020810,,,A*44
$GPRMC,224436.4,A,3329.068740,N,11708.537910,W,43.1,162.0,020810,,,A*45
$GPRMC,224439.4,A,3329.033390,N,11708.524468,W,44.7,162.9,020810,,,A*45
$GPRMC,224442.4,A,3328.997566,N,11708.511403,W,46.3,163.2,020810,,,A*47
$GPRMC,224445.4,A,3328.959021,N,11708.497630,W,50.2,163.5,020810,,,A*48
$GPRMC,224448.4,A,3328.918211,N,11708.482621,W,51.5,163.2,020810,,,A*44
$GPRMC,224451.4,A,3328.877170,N,11708.468165,W,51.5,163.8,020810,,,A*49
$GPRMC,224454.4,A,3328.834626,N,11708.452637,W,54.4,163.6,020810,,,A*4C
$GPRMC,224457.4,A,3328.789722,N,11708.436061,W,57.2,163.2,020810,,,A*45
$GPRMC,224500.4,A,3328.744325,N,11708.420247,W,56.2,163.6,020810,,,A*40
$GPRMC,224503.4,A,3328.698911,N,11708.404071,W,57.0,163.3,020810,,,A*49
$GPRMC,224506.4,A,3328.652832,N,11708.387051,W,59.2,163.4,020810,,,A*4F
$GPRMC,224509.4,A,3328.604510,N,11708.368829,W,60.6,162.9,020810,,,A*4A
$GPRMC,224512.4,A,3328.555988,N,11708.351511,W,61.5,163.1,020810,,,A*4D
$GPRMC,224515.4,A,3328.504538,N,11708.333942,W,63.9,163.2,020810,,,A*4A
$GPRMC,224518.4,A,3328.452102,N,11708.314831,W,65.9,163.1,020810,,,A*4D
$GPRMC,224521.4,A,3328.398378,N,11708.294530,W,67.2,163.1,020810,,,A*45
$GPRMC,224524.4,A,3328.345165,N,11708.275512,W,64.5,163.1,020810,,,A*45
$GPRMC,224527.4,A,3328.293693,N,11708.257640,W,63.7,163.2,020810,,,A*40
$GPRMC,224530.4,A,3328.244986,N,11708.239810,W,61.3,163.5,020810,,,A*45
$GPRMC,224533.4,A,3328.194371,N,11708.224364,W,61.9,165.9,020810,,,A*4E
$GPRMC,224536.4,A,3328.144036,N,11708.210098,W,61.5,167.8,020810,,,A*4E
$GPRMC,224539.4,A,3328.095929,N,11708.200108,W,59.0,170.8,020810,,,A*4A
$GPRMC,224542.4,A,3328.045993,N,11708.193678,W,60.4,173.7,020810,,,A*41
$GPRMC,224545.4,A,3327.997141,N,11708.189901,W,57.9,176.4,020810,,,A*4D
$GPRMC,224548.4,A,3327.948263,N,11708.188487,W,58.1,178.9,020810,,,A*47
$GPRMC,224551.4,A,3327.899387,N,11708.189482,W,59.5,181.4,020810,,,A*43
$GPRMC,224554.4,A,3327.848372,N,11708.191881,W,60.0,181.6,020810,,,A*4B
$GPRMC,224557.4,A,3327.796192,N,11708.193802,W,60.6,180.8,020810,,,A*48
$GPRMC,224600.4,A,3327.744935,N,11708.191861,W,61.1,177.0,020810,,,A*42
$GPRMC,224603.4,A,3327.695994,N,11708.186451,W,60.4,175.1,020810,,,A*49
$GPRMC,224606.4,A,3327.646138,N,11708.180380,W,60.7,174.5,020810,,,A*47
$GPRMC,224609.4,A,3327.596081,N,11708.174628,W,60.8,174.3,020810,,,A*40
$GPRMC,224612.4,A,3327.548456,N,11708.168352,W,59.1,174.6,020810,,,A*44
$GPRMC,224615.4,A,3327.498723,N,11708.162351,W,58.6,174.1,020810,,,A*46
$GPRMC,224618.4,A,3327.449617,N,11708.157272,W,59.3,173.9,020810,,,A*4C
$GPRMC,224621.4,A,3327.399701,N,11708.152652,W,60.3,174.3,020810,,,A*4E
$GPRMC,224624.4,A,3327.349854,N,11708.146521,W,61.5,174.1,020810,,,A*4E
$GPRMC,224627.4,A,3327.296935,N,11708.142496,W,62.2,174.3,020810,,,A*47
$GPRMC,224630.4,A,3327.244882,N,11708.135147,W,63.2,174.0,020810,,,A*48
$GPRMC,224633.4,A,3327.192288,N,11708.128386,W,63.4,174.2,020810,,,A*44
$GPRMC,224636.4,A,3327.139815,N,11708.122552,W,63.2,175.6,020810,,,A*48
$GPRMC,224639.4,A,3327.084620,N,11708.123230,W,64.4,179.4,020810,,,A*45
$GPRMC,224642.4,A,3327.028640,N,11708.127393,W,63.5,183.3,020810,,,A*41
$GPRMC,224645.4,A,3326.974395,N,11708.135810,W,64.6,187.6,020810,,,A*4C
$GPRMC,224648.4,A,3326.919521,N,11708.147557,W,65.8,191.6,020810,,,A*40
$GPRMC,224651.4,A,3326.865790,N,11708.164663,W,66.3,195.0,020810,,,A*45
$GPRMC,224654.4,A,3326.812380,N,11708.182306,W,64.7,195.0,020810,,,A*4D
$GPRMC,224657.4,A,3326.761283,N,11708.198936,W,63.3,195.0,020810,,,A*46
$GPRMC,224700.4,A,3326.709391,N,11708.217393,W,64.6,195.4,020810,,,A*4E
$GPRMC,224703.4,A,3326.656662,N,11708.234879,W,65.5,195.4,020810,,,A*43
$GPRMC,224706.4,A,3326.604898,N,11708.252684,W,64.8,196.3,020810,,,A*4E
$GPRMC,224709.4,A,3326.552555,N,11708.269284,W,64.9,195.6,020810,,,A*46
$GPRMC,224712.4,A,3326.500699,N,11708.286523,W,64.8,196.1,020810,,,A*46
$GPRMC,224715.4,A,3326.449554,N,11708.304734,W,64.3,197.7,020810,,,A*4C
$GPRMC,224718.4,A,3326.397047,N,11708.326333,W,65.7,199.4,020810,,,A*49
$GPRMC,224721.4,A,3326.345242,N,11708.350587,W,65.4,201.8,020810,,,A*4E
$GPRMC,224724.4,A,3326.296253,N,11708.376011,W,63.6,203.4,020810,,,A*40
$GPRMC,224727.4,A,3326.248415,N,11708.403000,W,63.7,205.8,020810,,,A*4A
$GPRMC,224730.4,A,3326.201583,N,11708.431482,W,63.7,207.9,020810,,,A*43
$GPRMC,224733.4,A,3326.156185,N,11708.459746,W,61.4,209.5,020810,,,A*45
$GPRMC,224736.4,A,3326.111550,N,11708.490532,W,61.9,211.4,020810,,,A*4E
$GPRMC,224739.4,A,3326.067640,N,11708.525229,W,62.1,213.3,020810,,,A*4F
$GPRMC,224742.4,A,3326.024041,N,11708.561402,W,62.6,215.0,020810,,,A*4E
$GPRMC,224745.4,A,3325.981459,N,11708.599042,W,63.1,216.9,020810,,,A*4A
$GPRMC,224748.4,A,3325.940267,N,11708.637940,W,63.1,218.5,020810,,,A*4F
$GPRMC,224751.4,A,3325.898932,N,11708.677584,W,65.3,220.1,020810,,,A*43
$GPRMC,224754.4,A,3325.857904,N,11708.721169,W,67.7,222.3,020810,,,A*43
$GPRMC,224757.4,A,3325.817144,N,11708.768556,W,68.9,224.0,020810,,,A*49
$GPRMC,224800.4,A,3325.775153,N,11708.818009,W,69.5,225.7,020810,,,A*45
$GPRMC,224803.4,A,3325.734956,N,11708.867586,W,68.4,225.7,020810,,,A*44
$GPRMC,224806.4,A,3325.696177,N,11708.915118,W,67.0,225.2,020810,,,A*4A
$GPRMC,224809.4,A,3325.656621,N,11708.962379,W,66.3,224.3,020810,,,A*4A
$GPRMC,224812.4,A,3325.615601,N,11709.006097,W,65.8,221.0,020810,,,A*42
$GPRMC,224815.4,A,3325.571481,N,11709.046922,W,66.6,217.7,020810,,,A*42
$GPRMC,224818.4,A,3325.526215,N,11709.083841,W,65.8,214.5,020810,,,A*47
$GPRMC,224821.4,A,3325.481052,N,11709.116819,W,63.3,211.3,020810,,,A*4E
$GPRMC,224824.4,A,3325.435239,N,11709.149011,W,62.7,210.3,020810,,,A*45
$GPRMC,224827.4,A,3325.389843,N,11709.180906,W,63.1,210.7,020810,,,A*48
$GPRMC,224830.4,A,3325.344808,N,11709.211764,W,62.8,210.3,020810,,,A*4D
$GPRMC,224833.4,A,3325.299629,N,11709.242981,W,63.5,210.4,020810,,,A*4A
$GPRMC,224836.4,A,3325.253613,N,11709.274969,W,63.6,210.4,020810,,,A*40
$GPRMC,224839.4,A,3325.208286,N,11709.306298,W,62.1,210.3,020810,,,A*49
$GPRMC,224842.4,A,3325.162646,N,11709.339941,W,63.0,211.2,020810,,,A*41
$GPRMC,224845.4,A,3325.115747,N,11709.371988,W,64.6,210.5,020810,,,A*48
$GPRMC,224848.4,A,3325.070469,N,11709.406463,W,63.6,211.8,020810,,,A*4C
$GPRMC,224851.4,A,3325.024269,N,11709.440743,W,64.0,211.9,020810,,,A*40
$GPRMC,224854.4,A,3324.979430,N,11709.473470,W,64.7,211.8,020810,,,A*4A
$GPRMC,224857.4,A,3324.932778,N,11709.507412,W,65.2,211.1,020810,,,A*42
$GPRMC,224900.4,A,3324.886118,N,11709.541495,W,64.5,210.5,020810,,,A*41
$GPRMC,224903.4,A,3324.840461,N,11709.575046,W,66.0,211.0,020810,,,A*4D
$GPRMC,224906.4,A,3324.794383,N,11709.608626,W,65.8,211.5,020810,,,A*42
$GPRMC,224909.4,A,3324.747534,N,11709.641728,W,65.0,212.5,020810,,,A*40
$GPRMC,224912.4,A,3324.702188,N,11709.675058,W,63.7,211.8,020810,,,A*40
$GPRMC,224915.4,A,3324.658205,N,11709.707872,W,63.1,212.0,020810,,,A*46
$GPRMC,224918.4,A,3324.613258,N,11709.741081,W,62.6,210.8,020810,,,A*46
$GPRMC,224921.4,A,3324.564004,N,11709.771212,W,64.8,206.3,020810,,,A*4B
$GPRMC,224924.4,A,3324.518364,N,11709.808828,W,65.9,213.2,020810,,,A*47
$GPRMC,224927.4,A,3324.472422,N,11709.840365,W,64.1,209.1,020810,,,A*43
$GPRMC,224930.4,A,3324.430025,N,11709.879572,W,64.5,214.6,020810,,,A*45
$GPRMC,224933.4,A,3324.384612,N,11709.917843,W,66.2,215.5,020810,,,A*4D
$GPRMC,224936.4,A,3324.339484,N,11709.956083,W,66.3,215.8,020810,,,A*4E
$GPRMC,224939.4,A,3324.294452,N,11709.992973,W,65.3,215.2,020810,,,A*4B
$GPRMC,224942.4,A,3324.249454,N,11710.029614,W,64.7,214.3,020810,,,A*4B
$GPRMC,224945.4,A,3324.206534,N,11710.065897,W,64.8,215.0,020810,,,A*40
$GPRMC,224948.4,A,3324.161475,N,11710.103183,W,64.9,214.5,020810,,,A*43
$GPRMC,224951.4,A,3324.116888,N,11710.139360,W,65.0,213.2,020810,,,A*4B
$GPRMC,224954.4,A,3324.070536,N,11710.173647,W,66.5,211.0,020810,,,A*4F
$GPRMC,224957.4,A,3324.022616,N,11710.207057,W,66.0,210.1,020810,,,A*48
$GPRMC,225000.4,A,3323.974449,N,11710.238443,W,66.1,209.2,020810,,,A*40
$GPRMC,225003.4,A,3323.926316,N,11710.269382,W,66.1,208.3,020810,,,A*47
$GPRMC,225006.4,A,3323.877285,N,11710.298547,W,66.5,206.8,020810,,,A*4C
$GPRMC,225009.4,A,3323.827618,N,11710.327237,W,65.7,205.4,020810,,,A*4D
$GPRMC,225012.4,A,3323.777656,N,11710.353966,W,65.5,203.9,020810,,,A*42
$GPRMC,225015.4,A,3323.727949,N,11710.379149,W,65.2,202.1,020810,,,A*42
$GPRMC,225018.4,A,3323.677746,N,11710.402386,W,65.8,200.2,020810,,,A*4B
$GPRMC,225021.4,A,3323.625445,N,11710.423345,W,65.4,197.2,020810,,,A*4B
$GPRMC,225024.4,A,3323.572531,N,11710.441068,W,65.3,195.0,020810,,,A*42
$GPRMC,225027.4,A,3323.519673,N,11710.455471,W,64.4,192.6,020810,,,A*47
$GPRMC,225030.4,A,3323.466943,N,11710.468967,W,64.0,191.1,020810,,,A*40
$GPRMC,225033.4,A,3323.413291,N,11710.480172,W,64.2,188.7,020810,,,A*43
$GPRMC,225036.4,A,3323.360726,N,11710.488237,W,63.4,186.5,020810,,,A*4B
$GPRMC,225039.4,A,3323.308088,N,11710.493597,W,63.9,184.3,020810,,,A*47
$GPRMC,225042.4,A,3323.253362,N,11710.494087,W,67.8,181.4,020810,,,A*47
$GPRMC,225045.4,A,3323.195003,N,11710.494155,W,68.8,179.3,020810,,,A*4C
$GPRMC,225048.4,A,3323.138174,N,11710.488855,W,67.2,176.7,020810,,,A*4D
$GPRMC,225051.4,A,3323.083189,N,11710.481447,W,65.6,174.4,020810,,,A*47
$GPRMC,225054.4,A,3323.030279,N,11710.475098,W,63.0,172.9,020810,,,A*40
$GPRMC,225057.4,A,3322.979069,N,11710.465124,W,61.6,170.2,020810,,,A*4F
$GPRMC,225100.4,A,3322.930137,N,11710.452593,W,61.3,167.7,020810,,,A*41
$GPRMC,225103.4,A,3322.879613,N,11710.437466,W,62.0,165.8,020810,,,A*4A
$GPRMC,225106.4,A,3322.828524,N,11710.419101,W,63.6,163.1,020810,,,A*4C
$GPRMC,225109.4,A,3322.779947,N,11710.398732,W,61.9,160.6,020810,,,A*40
$GPRMC,225112.4,A,3322.730581,N,11710.376898,W,62.6,159.0,020810,,,A*4E
$GPRMC,225115.4,A,3322.682747,N,11710.351555,W,62.5,156.2,020810,,,A*4E
$GPRMC,225118.4,A,3322.635833,N,11710.324165,W,61.9,154.3,020810,,,A*4A
$GPRMC,225121.4,A,3322.590348,N,11710.295102,W,61.8,152.3,020810,,,A*46
$GPRMC,225124.4,A,3322.545821,N,11710.262544,W,63.1,150.2,020810,,,A*49
$GPRMC,225127.4,A,3322.505625,N,11710.227105,W,61.3,146.5,020810,,,A*44
$GPRMC,225130.4,A,3322.464000,N,11710.191894,W,61.2,145.2,020810,,,A*4F
$GPRMC,225133.4,A,3322.421157,N,11710.156747,W,62.8,142.9,020810,,,A*41
$GPRMC,225136.4,A,3322.378900,N,11710.116906,W,63.8,141.3,020810,,,A*42
$GPRMC,225139.4,A,3322.338029,N,11710.076281,W,63.7,139.6,020810,,,A*4D
$GPRMC,225142.4,A,3322.298068,N,11710.035134,W,62.6,138.9,020810,,,A*4B
$GPRMC,225145.4,A,3322.259445,N,11709.994335,W,61.8,138.2,020810,,,A*45
$GPRMC,225148.4,A,3322.222645,N,11709.953106,W,60.7,137.4,020810,,,A*48
$GPRMC,225151.4,A,3322.183119,N,11709.912786,W,62.6,139.2,020810,,,A*46
$GPRMC,225154.4,A,3322.141898,N,11709.872960,W,63.7,141.5,020810,,,A*44
$GPRMC,225157.4,A,3322.100544,N,11709.834258,W,63.3,143.9,020810,,,A*46
$GPRMC,225200.4,A,3322.057707,N,11709.797122,W,63.8,146.3,020810,,,A*4D
$GPRMC,225203.4,A,3322.012640,N,11709.762979,W,63.7,147.8,020810,,,A*44
$GPRMC,225206.4,A,3321.966307,N,11709.730556,W,62.8,148.4,020810,,,A*45
$GPRMC,225209.4,A,3321.918551,N,11709.701692,W,63.5,152.4,020810,,,A*48
$GPRMC,225212.4,A,3321.868040,N,11709.674300,W,65.9,154.9,020810,,,A*4D
$GPRMC,225215.4,A,3321.817771,N,11709.648652,W,65.1,157.3,020810,,,A*4B
$GPRMC,225218.4,A,3321.767094,N,11709.625729,W,65.0,160.2,020810,,,A*40
$GPRMC,225221.4,A,3321.713976,N,11709.607852,W,65.0,163.3,020810,,,A*4D
$GPRMC,225224.4,A,3321.662274,N,11709.591444,W,62.9,165.5,020810,,,A*4F
$GPRMC,225227.4,A,3321.610129,N,11709.579367,W,62.6,168.2,020810,,,A*47
$GPRMC,225230.4,A,3321.555644,N,11709.567907,W,63.6,170.1,020810,,,A*47
$GPRMC,225233.4,A,3321.500790,N,11709.560200,W,64.1,172.7,020810,,,A*43
$GPRMC,225236.4,A,3321.444576,N,11709.553715,W,65.2,174.2,020810,,,A*4D
$GPRMC,225239.4,A,3321.390452,N,11709.548987,W,65.2,176.9,020810,,,A*4D
$GPRMC,225242.4,A,3321.339944,N,11709.545852,W,63.8,178.8,020810,,,A*4F
$GPRMC,225245.4,A,3321.289778,N,11709.545537,W,62.5,180.5,020810,,,A*4B
$GPRMC,225248.4,A,3321.238211,N,11709.546946,W,63.6,180.6,020810,,,A*4E
$GPRMC,225251.4,A,3321.187027,N,11709.547204,W,62.9,180.7,020810,,,A*45
$GPRMC,225254.4,A,3321.134010,N,11709.547400,W,63.0,180.4,020810,,,A*45
$GPRMC,225257.4,A,3321.080714,N,11709.549941,W,64.0,180.9,020810,,,A*47
$GPRMC,225300.4,A,3321.028771,N,11709.552110,W,62.4,181.3,020810,,,A*4A
$GPRMC,225303.4,A,3320.976672,N,11709.553150,W,62.8,180.8,020810,,,A*4B
$GPRMC,225306.4,A,3320.923189,N,11709.553973,W,63.0,180.9,020810,,,A*4C
$GPRMC,225309.4,A,3320.869706,N,11709.554308,W,63.2,180.7,020810,,,A*40
$GPRMC,225312.4,A,3320.818653,N,11709.555111,W,62.3,181.0,020810,,,A*40
$GPRMC,225315.4,A,3320.765401,N,11709.555387,W,63.3,181.0,020810,,,A*4B
$GPRMC,225318.4,A,3320.712865,N,11709.556328,W,63.2,180.9,020810,,,A*47
$GPRMC,225321.4,A,3320.659089,N,11709.557425,W,63.4,180.9,020810,,,A*44
$GPRMC,225324.4,A,3320.607486,N,11709.558759,W,63.2,180.7,020810,,,A*4E
$GPRMC,225327.4,A,3320.553946,N,11709.557982,W,64.8,180.6,020810,,,A*45
$GPRMC,225330.4,A,3320.500510,N,11709.558522,W,64.3,180.6,020810,,,A*48
$GPRMC,225333.4,A,3320.448911,N,11709.557994,W,61.8,180.5,020810,,,A*48
$GPRMC,225336.4,A,3320.396322,N,11709.558769,W,62.8,180.8,020810,,,A*4E
$GPRMC,225339.4,A,3320.343616,N,11709.559325,W,63.6,180.7,020810,,,A*46
$GPRMC,225342.4,A,3320.290505,N,11709.561092,W,62.8,180.7,020810,,,A*4F
$GPRMC,225345.4,A,3320.237222,N,11709.562455,W,63.7,180.7,020810,,,A*45
$GPRMC,225348.4,A,3320.183612,N,11709.562157,W,63.3,180.4,020810,,,A*43
$GPRMC,225351.4,A,3320.132887,N,11709.562959,W,61.0,180.8,020810,,,A*48
$GPRMC,225354.4,A,3320.081875,N,11709.564415,W,61.9,181.4,020810,,,A*4E
$GPRMC,225357.4,A,3320.030410,N,11709.565353,W,61.9,180.9,020810,,,A*40
$GPRMC,225400.4,A,3319.978140,N,11709.566626,W,63.1,181.2,020810,,,A*4E
$GPRMC,225403.4,A,3319.924841,N,11709.567872,W,63.1,180.8,020810,,,A*49
$GPRMC,225406.4,A,3319.872345,N,11709.568163,W,63.3,180.3,020810,,,A*4E
$GPRMC,225409.4,A,3319.819661,N,11709.569048,W,63.2,180.5,020810,,,A*41
$GPRMC,225412.4,A,3319.766575,N,11709.567011,W,64.6,178.2,020810,,,A*4B
$GPRMC,225415.4,A,3319.711494,N,11709.563094,W,66.1,176.1,020810,,,A*43
$GPRMC,225418.4,A,3319.655870,N,11709.556964,W,67.0,174.0,020810,,,A*4A
$GPRMC,225421.4,A,3319.601673,N,11709.548361,W,65.7,171.9,020810,,,A*45
$GPRMC,225424.4,A,3319.547637,N,11709.538285,W,66.5,169.5,020810,,,A*49
$GPRMC,225427.4,A,3319.493847,N,11709.524784,W,64.6,167.3,020810,,,A*4B
$GPRMC,225430.4,A,3319.442379,N,11709.507415,W,65.3,164.3,020810,,,A*4A
$GPRMC,225433.4,A,3319.390578,N,11709.487468,W,65.9,161.7,020810,,,A*4E
$GPRMC,225436.4,A,3319.338808,N,11709.464275,W,66.5,159.3,020810,,,A*44
$GPRMC,225439.4,A,3319.287378,N,11709.438486,W,67.0,156.7,020810,,,A*4E
$GPRMC,225442.4,A,3319.237225,N,11709.409986,W,65.7,153.8,020810,,,A*40
$GPRMC,225445.4,A,3319.189085,N,11709.379188,W,64.8,152.2,020810,,,A*4A
$GPRMC,225448.4,A,3319.141508,N,11709.348966,W,64.5,151.7,020810,,,A*42
$GPRMC,225451.4,A,3319.095961,N,11709.318974,W,63.3,151.5,020810,,,A*44
$GPRMC,225454.4,A,3319.050066,N,11709.288114,W,63.6,151.6,020810,,,A*46
$GPRMC,225457.4,A,3319.003748,N,11709.258369,W,62.8,151.7,020810,,,A*43
$GPRMC,225500.4,A,3318.957260,N,11709.229057,W,63.1,151.7,020810,,,A*46
$GPRMC,225503.4,A,3318.911379,N,11709.199078,W,62.3,151.6,020810,,,A*49
$GPRMC,225506.4,A,3318.865577,N,11709.172042,W,61.3,153.7,020810,,,A*4A
$GPRMC,225509.4,A,3318.818827,N,11709.146960,W,62.4,156.2,020810,,,A*4D
$GPRMC,225512.4,A,3318.769324,N,11709.123812,W,64.1,158.5,020810,,,A*4B
$GPRMC,225515.4,A,3318.717279,N,11709.102949,W,65.8,161.0,020810,,,A*47
$GPRMC,225518.4,A,3318.663861,N,11709.082544,W,66.9,162.3,020810,,,A*41
$GPRMC,225521.4,A,3318.610201,N,11709.064404,W,66.8,164.1,020810,,,A*4B
$GPRMC,225524.4,A,3318.554012,N,11709.050220,W,67.0,167.7,020810,,,A*46
$GPRMC,225527.4,A,3318.499080,N,11709.039582,W,66.0,170.6,020810,,,A*48
$GPRMC,225530.4,A,3318.444697,N,11709.032735,W,64.4,173.3,020810,,,A*4B
$GPRMC,225533.4,A,3318.390828,N,11709.027538,W,63.5,175.7,020810,,,A*43
$GPRMC,225536.4,A,3318.336690,N,11709.022615,W,63.1,176.2,020810,,,A*4C
$GPRMC,225539.4,A,3318.280446,N,11709.021197,W,64.4,177.1,020810,,,A*48
$GPRMC,225542.4,A,3318.227742,N,11709.019219,W,63.8,177.6,020810,,,A*4C
$GPRMC,225545.4,A,3318.176526,N,11709.017249,W,62.1,177.4,020810,,,A*4D
$GPRMC,225548.4,A,3318.124836,N,11709.014124,W,61.9,177.0,020810,,,A*4F
$GPRMC,225551.4,A,3318.072296,N,11709.011234,W,63.3,176.9,020810,,,A*42
$GPRMC,225554.4,A,3318.019240,N,11709.007901,W,64.8,176.9,020810,,,A*47
$GPRMC,225557.4,A,3317.964893,N,11709.003839,W,66.1,176.9,020810,,,A*49
$GPRMC,225600.4,A,3317.909821,N,11709.000265,W,65.7,177.1,020810,,,A*46
$GPRMC,225603.4,A,3317.855946,N,11708.998254,W,65.1,177.8,020810,,,A*49
$GPRMC,225606.4,A,3317.800862,N,11708.995770,W,66.1,177.5,020810,,,A*4B
$GPRMC,225609.4,A,3317.748516,N,11708.992571,W,64.1,177.4,020810,,,A*4E
$GPRMC,225612.4,A,3317.696512,N,11708.988583,W,64.6,176.9,020810,,,A*4F
$GPRMC,225615.4,A,3317.641227,N,11708.986707,W,66.1,177.1,020810,,,A*4F
$GPRMC,225618.4,A,3317.585694,N,11708.983873,W,65.1,177.6,020810,,,A*48
$GPRMC,225621.4,A,3317.532314,N,11708.979090,W,64.2,177.0,020810,,,A*47
$GPRMC,225624.4,A,3317.477037,N,11708.976538,W,65.1,176.4,020810,,,A*4F
$GPRMC,225627.4,A,3317.418758,N,11708.975310,W,67.5,177.4,020810,,,A*43
$GPRMC,225630.4,A,3317.363102,N,11708.972326,W,66.7,178.0,020810,,,A*4D
$GPRMC,225633.4,A,3317.306459,N,11708.971442,W,67.9,180.5,020810,,,A*4D
$GPRMC,225636.4,A,3317.248779,N,11708.974274,W,67.5,183.1,020810,,,A*4F
$GPRMC,225639.4,A,3317.192913,N,11708.980732,W,66.7,185.5,020810,,,A*4B
$GPRMC,225642.4,A,3317.138251,N,11708.988621,W,66.8,187.7,020810,,,A*4E
$GPRMC,225645.4,A,3317.084979,N,11709.000584,W,66.0,191.8,020810,,,A*4A
$GPRMC,225648.4,A,3317.029732,N,11709.016808,W,67.5,194.2,020810,,,A*44
$GPRMC,225651.4,A,3316.974207,N,11709.036431,W,69.0,196.9,020810,,,A*49
$GPRMC,225654.4,A,3316.920345,N,11709.059003,W,67.9,200.0,020810,,,A*44
$GPRMC,225657.4,A,3316.869047,N,11709.084386,W,65.9,202.9,020810,,,A*4D
$GPRMC,225700.4,A,3316.821276,N,11709.110231,W,64.1,205.2,020810,,,A*46
$GPRMC,225703.4,A,3316.773151,N,11709.139550,W,63.9,206.5,020810,,,A*4B
$GPRMC,225706.4,A,3316.725929,N,11709.166486,W,63.7,206.0,020810,,,A*41
$GPRMC,225709.4,A,3316.679256,N,11709.194471,W,63.8,206.0,020810,,,A*4F
$GPRMC,225712.4,A,3316.630260,N,11709.222600,W,64.1,205.7,020810,,,A*4D
$GPRMC,225715.4,A,3316.581030,N,11709.250776,W,65.1,206.0,020810,,,A*44
$GPRMC,225718.4,A,3316.531177,N,11709.280439,W,67.0,206.2,020810,,,A*44
$GPRMC,225721.4,A,3316.482015,N,11709.308870,W,66.0,205.9,020810,,,A*4B
$GPRMC,225724.4,A,3316.431769,N,11709.337280,W,66.0,205.9,020810,,,A*43
$GPRMC,225727.4,A,3316.382675,N,11709.365881,W,66.0,205.8,020810,,,A*4E
$GPRMC,225730.4,A,3316.332674,N,11709.392324,W,66.6,204.2,020810,,,A*43
$GPRMC,225733.4,A,3316.282151,N,11709.417539,W,66.5,202.6,020810,,,A*4B
$GPRMC,225736.4,A,3316.231798,N,11709.441008,W,65.8,200.6,020810,,,A*4D
$GPRMC,225739.4,A,3316.179554,N,11709.462172,W,65.3,198.6,020810,,,A*4B
$GPRMC,225742.4,A,3316.128294,N,11709.479312,W,63.6,195.8,020810,,,A*46
$GPRMC,225745.4,A,3316.076844,N,11709.495493,W,63.1,193.4,020810,,,A*4D
$GPRMC,225748.4,A,3316.025636,N,11709.508332,W,64.1,190.7,020810,,,A*43
$GPRMC,225751.4,A,3315.972314,N,11709.518064,W,66.4,188.5,020810,,,A*4B
$GPRMC,225754.4,A,3315.916069,N,11709.524877,W,69.0,186.1,020810,,,A*41
$GPRMC,225757.4,A,3315.857296,N,11709.529643,W,69.9,183.1,020810,,,A*4C
$GPRMC,225800.4,A,3315.802257,N,11709.531755,W,65.4,181.3,020810,,,A*42
$GPRMC,225803.4,A,3315.751712,N,11709.531153,W,60.1,179.3,020810,,,A*4B
$GPRMC,225806.4,A,3315.704264,N,11709.529182,W,55.4,177.1,020810,,,A*40
$GPRMC,225809.4,A,3315.658127,N,11709.525002,W,55.3,175.2,020810,,,A*40
$GPRMC,225812.4,A,3315.611560,N,11709.518477,W,57.0,173.2,020810,,,A*4F
$GPRMC,225815.4,A,3315.564292,N,11709.509494,W,58.6,170.4,020810,,,A*42
$GPRMC,225818.4,A,3315.517002,N,11709.498825,W,57.8,169.2,020810,,,A*40
$GPRMC,225821.4,A,3315.471256,N,11709.485638,W,56.2,166.8,020810,,,A*48
$GPRMC,225824.4,A,3315.427029,N,11709.469618,W,56.7,163.7,020810,,,A*4B
$GPRMC,225827.4,A,3315.380887,N,11709.452043,W,57.2,162.5,020810,,,A*49
$GPRMC,225830.4,A,3315.334872,N,11709.433376,W,58.4,161.1,020810,,,A*46
$GPRMC,225833.4,A,3315.288596,N,11709.414366,W,58.3,160.7,020810,,,A*40
$GPRMC,225836.4,A,3315.244075,N,11709.395056,W,57.0,160.5,020810,,,A*4D
$GPRMC,225839.4,A,3315.198919,N,11709.376396,W,55.8,160.1,020810,,,A*4F
$GPRMC,225842.4,A,3315.155335,N,11709.357895,W,56.2,159.8,020810,,,A*47
$GPRMC,225845.4,A,3315.110313,N,11709.339100,W,57.3,160.2,020810,,,A*48
$GPRMC,225848.4,A,3315.065733,N,11709.320523,W,56.2,159.9,020810,,,A*4C
$GPRMC,225851.4,A,3315.021548,N,11709.301259,W,56.7,159.7,020810,,,A*48
$GPRMC,225854.4,A,3314.977814,N,11709.280648,W,55.9,159.7,020810,,,A*43
$GPRMC,225857.4,A,3314.932167,N,11709.261750,W,57.5,160.5,020810,,,A*4D
$GPRMC,225900.4,A,3314.887021,N,11709.241560,W,58.5,159.9,020810,,,A*48
$GPRMC,225903.4,A,3314.841798,N,11709.221933,W,58.1,160.1,020810,,,A*4E
$GPRMC,225906.4,A,3314.795520,N,11709.201804,W,58.7,159.6,020810,,,A*40
$GPRMC,225909.4,A,3314.749297,N,11709.180980,W,59.5,159.7,020810,,,A*40
$GPRMC,225912.4,A,3314.703312,N,11709.160139,W,59.1,159.5,020810,,,A*4A
$GPRMC,225915.4,A,3314.656504,N,11709.139143,W,60.0,159.0,020810,,,A*42
$GPRMC,225918.4,A,3314.610416,N,11709.120043,W,58.5,160.2,020810,,,A*40
$GPRMC,225921.4,A,3314.562793,N,11709.099815,W,60.5,160.1,020810,,,A*42
$GPRMC,225924.4,A,3314.514473,N,11709.079359,W,60.6,160.2,020810,,,A*46
$GPRMC,225927.4,A,3314.467290,N,11709.058132,W,61.3,159.9,020810,,,A*42
$GPRMC,225930.4,A,3314.418157,N,11709.038229,W,60.8,160.4,020810,,,A*46
$GPRMC,225933.4,A,3314.371390,N,11709.017435,W,59.3,160.0,020810,,,A*47
$GPRMC,225936.4,A,3314.324679,N,11708.997324,W,60.5,160.0,020810,,,A*4B
$GPRMC,225939.4,A,3314.276839,N,11708.976498,W,60.8,159.8,020810,,,A*48
$GPRMC,225942.4,A,3314.229197,N,11708.956364,W,60.0,160.0,020810,,,A*4F
$GPRMC,225945.4,A,3314.180351,N,11708.936505,W,61.2,159.9,020810,,,A*47
$GPRMC,225948.4,A,3314.132246,N,11708.916602,W,59.9,160.3,020810,,,A*42
$GPRMC,225951.4,A,3314.086189,N,11708.895923,W,59.7,159.5,020810,,,A*40
$GPRMC,225954.4,A,3314.039489,N,11708.875231,W,60.1,159.7,020810,,,A*4C
$GPRMC,225957.4,A,3313.989604,N,11708.855607,W,60.7,159.5,020810,,,A*4A
$GPRMC,230000.4,A,3313.940785,N,11708.834146,W,61.1,160.0,020810,,,A*45
$GPRMC,230003.4,A,3313.892468,N,11708.812916,W,61.7,160.1,020810,,,A*46
$GPRMC,230006.4,A,3313.845030,N,11708.792480,W,59.6,159.9,020810,,,A*4D
$GPRMC,230009.4,A,3313.797890,N,11708.772909,W,58.4,160.2,020810,,,A*40
$GPRMC,230012.4,A,3313.753043,N,11708.754417,W,56.4,160.3,020810,,,A*4D
$GPRMC,230015.4,A,3313.709197,N,11708.736261,W,55.6,160.3,020810,,,A*4F
$GPRMC,230018.4,A,3313.664595,N,11708.717408,W,56.2,159.9,020810,,,A*43
$GPRMC,230021.4,A,3313.621104,N,11708.697395,W,55.7,160.1,020810,,,A*4A
$GPRMC,230024.4,A,3313.577713,N,11708.678450,W,55.1,160.0,020810,,,A*47
$GPRMC,230027.4,A,3313.535204,N,11708.659734,W,53.7,160.0,020810,,,A*43
$GPRMC,230030.4,A,3313.492883,N,11708.642268,W,52.9,160.5,020810,,,A*40
$GPRMC,230033.4,A,3313.451297,N,11708.624038,W,53.5,159.7,020810,,,A*41
$GPRMC,230036.4,A,3313.408879,N,11708.605178,W,52.9,158.7,020810,,,A*48
$GPRMC,230039.4,A,3313.368225,N,11708.586497,W,53.1,158.1,020810,,,A*46
$GPRMC,230042.4,A,3313.325960,N,11708.565906,W,55.0,156.8,020810,,,A*41
$GPRMC,230045.4,A,3313.283738,N,11708.542517,W,56.7,155.5,020810,,,A*4B
$GPRMC,230048.4,A,3313.240558,N,11708.518595,W,57.1,154.7,020810,,,A*4C
$GPRMC,230051.4,A,3313.198451,N,11708.493721,W,56.9,153.5,020810,,,A*49
$GPRMC,230054.4,A,3313.155155,N,11708.467482,W,58.6,152.7,020810,,,A*4F
$GPRMC,230057.4,A,3313.111184,N,11708.438790,W,59.9,151.4,020810,,,A*44
$GPRMC,230100.4,A,3313.067304,N,11708.409551,W,61.3,150.4,020810,,,A*40
$GPRMC,230103.4,A,3313.022704,N,11708.377971,W,61.5,149.6,020810,,,A*4A
$GPRMC,230106.4,A,3312.979686,N,11708.346202,W,60.6,148.5,020810,,,A*4F
$GPRMC,230109.4,A,3312.936849,N,11708.314765,W,60.4,147.9,020810,,,A*44
$GPRMC,230112.4,A,3312.894462,N,11708.283360,W,60.7,147.7,020810,,,A*41
$GPRMC,230115.4,A,3312.850849,N,11708.249644,W,63.0,147.4,020810,,,A*49
$GPRMC,230118.4,A,3312.806372,N,11708.216343,W,64.2,147.8,020810,,,A*45
$GPRMC,230121.4,A,3312.761691,N,11708.182500,W,64.1,147.5,020810,,,A*48
$GPRMC,230124.4,A,3312.716275,N,11708.147635,W,64.9,147.5,020810,,,A*47
$GPRMC,230127.4,A,3312.670715,N,11708.113067,W,63.9,147.7,020810,,,A*43
$GPRMC,230130.4,A,3312.625329,N,11708.080447,W,64.0,148.1,020810,,,A*44
$GPRMC,230133.4,A,3312.580127,N,11708.046852,W,63.4,148.3,020810,,,A*44
$GPRMC,230136.4,A,3312.536508,N,11708.013716,W,62.5,147.5,020810,,,A*43
$GPRMC,230139.4,A,3312.491391,N,11707.980261,W,63.7,147.9,020810,,,A*40
$GPRMC,230142.4,A,3312.447306,N,11707.946053,W,63.4,147.4,020810,,,A*4E
$GPRMC,230145.4,A,3312.403736,N,11707.912954,W,61.3,147.9,020810,,,A*49
$GPRMC,230148.4,A,3312.360001,N,11707.882081,W,61.0,148.0,020810,,,A*49
$GPRMC,230151.4,A,3312.316306,N,11707.851387,W,62.2,149.0,020810,,,A*4F
$GPRMC,230154.4,A,3312.272058,N,11707.820387,W,60.0,149.4,020810,,,A*43
$GPRMC,230157.4,A,3312.228381,N,11707.790183,W,60.7,150.0,020810,,,A*41
$GPRMC,230200.4,A,3312.183365,N,11707.759861,W,61.5,150.9,020810,,,A*42
$GPRMC,230203.4,A,3312.138994,N,11707.730784,W,60.7,151.3,020810,,,A*46
$GPRMC,230206.4,A,3312.093051,N,11707.702174,W,62.2,151.9,020810,,,A*46
$GPRMC,230209.4,A,3312.047794,N,11707.673891,W,61.2,152.4,020810,,,A*46
$GPRMC,230212.4,A,3312.001793,N,11707.645839,W,62.4,153.0,020810,,,A*4E
$GPRMC,230215.4,A,3311.955436,N,11707.618467,W,60.9,153.0,020810,,,A*4E
$GPRMC,230218.4,A,3311.908916,N,11707.592167,W,61.2,153.6,020810,,,A*4C
$GPRMC,230221.4,A,3311.863542,N,11707.566543,W,60.5,154.2,020810,,,A*4B
$GPRMC,230224.4,A,3311.818240,N,11707.540466,W,60.4,154.5,020810,,,A*43
$GPRMC,230227.4,A,3311.772769,N,11707.512807,W,61.4,153.4,020810,,,A*46
$GPRMC,230230.4,A,3311.726918,N,11707.486355,W,62.7,154.1,020810,,,A*4B
$GPRMC,230233.4,A,3311.679453,N,11707.459939,W,62.5,154.1,020810,,,A*41
$GPRMC,230236.4,A,3311.631929,N,11707.432817,W,62.8,154.1,020810,,,A*45
$GPRMC,230239.4,A,3311.583958,N,11707.405888,W,63.5,154.3,020810,,,A*4A
$GPRMC,230242.4,A,3311.535574,N,11707.378740,W,64.9,154.2,020810,,,A*45
$GPRMC,230245.4,A,3311.486769,N,11707.350958,W,65.0,154.4,020810,,,A*46
$GPRMC,230248.4,A,3311.437639,N,11707.322910,W,64.9,154.2,020810,,,A*42
$GPRMC,230251.4,A,3311.388225,N,11707.294687,W,66.0,154.2,020810,,,A*46
$GPRMC,230254.4,A,3311.338309,N,11707.266224,W,66.3,154.1,020810,,,A*47
$GPRMC,230257.4,A,3311.289159,N,11707.237858,W,65.1,154.2,020810,,,A*4F
$GPRMC,230300.4,A,3311.240641,N,11707.209912,W,63.6,154.2,020810,,,A*44
$GPRMC,230303.4,A,3311.192174,N,11707.182055,W,64.9,154.2,020810,,,A*48
$GPRMC,230306.4,A,3311.143780,N,11707.154265,W,64.0,154.0,020810,,,A*4D
$GPRMC,230309.4,A,3311.095078,N,11707.126333,W,65.4,154.3,020810,,,A*49
$GPRMC,230312.4,A,3311.046596,N,11707.098707,W,63.7,154.4,020810,,,A*4D
$GPRMC,230315.4,A,3310.998243,N,11707.070824,W,64.8,154.1,020810,,,A*4B
$GPRMC,230318.4,A,3310.948673,N,11707.042048,W,65.1,154.2,020810,,,A*44
$GPRMC,230321.4,A,3310.899203,N,11707.013787,W,65.6,154.2,020810,,,A*47
$GPRMC,230324.4,A,3310.850351,N,11706.985647,W,65.1,154.2,020810,,,A*4C
$GPRMC,230327.4,A,3310.801275,N,11706.957437,W,66.2,154.1,020810,,,A*45
$GPRMC,230330.4,A,3310.752375,N,11706.929248,W,64.6,154.2,020810,,,A*49
$GPRMC,230333.4,A,3310.703596,N,11706.901635,W,65.1,154.3,020810,,,A*46
$GPRMC,230336.4,A,3310.655322,N,11706.873745,W,64.3,154.3,020810,,,A*49
$GPRMC,230339.4,A,3310.606941,N,11706.846143,W,63.9,154.3,020810,,,A*44
$GPRMC,230342.4,A,3310.558056,N,11706.818381,W,65.9,154.1,020810,,,A*4C
$GPRMC,230345.4,A,3310.508304,N,11706.789620,W,66.4,154.1,020810,,,A*4D
$GPRMC,230348.4,A,3310.458354,N,11706.760234,W,66.5,153.8,020810,,,A*48
$GPRMC,230351.4,A,3310.410709,N,11706.731016,W,64.6,152.7,020810,,,A*49
$GPRMC,230354.4,A,3310.361660,N,11706.705624,W,64.0,153.6,020810,,,A*45
$GPRMC,230357.4,A,3310.313069,N,11706.677016,W,64.7,153.7,020810,,,A*49
$GPRMC,230400.4,A,3310.263679,N,11706.647405,W,66.8,153.6,020810,,,A*44
$GPRMC,230403.4,A,3310.213123,N,11706.619223,W,67.0,154.2,020810,,,A*4B
$GPRMC,230406.4,A,3310.162776,N,11706.590261,W,67.2,154.3,020810,,,A*4A
$GPRMC,230409.4,A,3310.112439,N,11706.561723,W,66.5,153.9,020810,,,A*4C
$GPRMC,230412.4,A,3310.063539,N,11706.533205,W,64.7,154.1,020810,,,A*49
$GPRMC,230415.4,A,3310.014844,N,11706.505489,W,65.0,154.6,020810,,,A*4F
$GPRMC,230418.4,A,3309.965625,N,11706.477820,W,66.1,154.0,020810,,,A*43
$GPRMC,230421.4,A,3309.916695,N,11706.450147,W,65.5,154.2,020810,,,A*4E
$GPRMC,230424.4,A,3309.865835,N,11706.421484,W,68.6,154.3,020810,,,A*49
$GPRMC,230427.4,A,3309.813526,N,11706.391111,W,68.9,154.2,020810,,,A*4F
$GPRMC,230430.4,A,3309.762445,N,11706.363025,W,67.2,156.6,020810,,,A*4D
$GPRMC,230433.4,A,3309.710683,N,11706.339702,W,65.5,160.0,020810,,,A*48
$GPRMC,230436.4,A,3309.659103,N,11706.319854,W,64.4,161.9,020810,,,A*48
$GPRMC,230439.4,A,3309.606018,N,11706.301583,W,64.9,163.6,020810,,,A*48
$GPRMC,230442.4,A,3309.553052,N,11706.287243,W,64.4,166.7,020810,,,A*44
$GPRMC,230445.4,A,3309.502531,N,11706.274810,W,62.6,168.5,020810,,,A*4F
$GPRMC,230448.4,A,3309.451908,N,11706.265312,W,62.3,171.6,020810,,,A*44
$GPRMC,230451.4,A,3309.399744,N,11706.258638,W,62.7,174.3,020810,,,A*4E
$GPRMC,230454.4,A,3309.347685,N,11706.254150,W,63.1,175.6,020810,,,A*42
$GPRMC,230457.4,A,3309.294687,N,11706.253059,W,63.9,179.7,020810,,,A*46
$GPRMC,230500.4,A,3309.239941,N,11706.254470,W,65.8,182.0,020810,,,A*4B
$GPRMC,230503.4,A,3309.184248,N,11706.257594,W,67.1,182.7,020810,,,A*4B
$GPRMC,230506.4,A,3309.129648,N,11706.260224,W,65.5,182.3,020810,,,A*47
$GPRMC,230509.4,A,3309.074701,N,11706.262468,W,66.8,182.5,020810,,,A*49
$GPRMC,230512.4,A,3309.020063,N,11706.264747,W,64.3,182.7,020810,,,A*42
$GPRMC,230515.4,A,3308.969003,N,11706.267547,W,59.9,182.8,020810,,,A*4C
$GPRMC,230518.4,A,3308.918805,N,11706.270235,W,61.4,182.3,020810,,,A*40
$GPRMC,230521.4,A,3308.867405,N,11706.272701,W,61.5,182.3,020810,,,A*4E
$GPRMC,230524.4,A,3308.817049,N,11706.275572,W,59.3,182.5,020810,,,A*4A
$GPRMC,230527.4,A,3308.767873,N,11706.277823,W,59.5,182.6,020810,,,A*4E
$GPRMC,230530.4,A,3308.717476,N,11706.280119,W,60.8,182.7,020810,,,A*48
$GPRMC,230533.4,A,3308.667329,N,11706.282925,W,59.7,182.6,020810,,,A*41
$GPRMC,230536.4,A,3308.616642,N,11706.285723,W,61.7,182.3,020810,,,A*4B
$GPRMC,230539.4,A,3308.565061,N,11706.288510,W,62.6,182.9,020810,,,A*43
$GPRMC,230542.4,A,3308.512379,N,11706.291639,W,63.8,182.2,020810,,,A*41
$GPRMC,230545.4,A,3308.457999,N,11706.293803,W,64.9,182.8,020810,,,A*4B
$GPRMC,230548.4,A,3308.405223,N,11706.297049,W,62.6,182.8,020810,,,A*40
$GPRMC,230551.4,A,3308.355694,N,11706.299360,W,59.6,181.9,020810,,,A*4E
$GPRMC,230554.4,A,3308.306041,N,11706.300989,W,59.6,181.9,020810,,,A*4F
$GPRMC,230557.4,A,3308.257188,N,11706.303407,W,59.3,182.5,020810,,,A*4F
$GPRMC,230600.4,A,3308.207177,N,11706.305609,W,59.4,182.6,020810,,,A*45
$GPRMC,230603.4,A,3308.158138,N,11706.308261,W,58.1,182.4,020810,,,A*45
$GPRMC,230606.4,A,3308.108815,N,11706.310483,W,59.8,182.5,020810,,,A*49
$GPRMC,230609.4,A,3308.059349,N,11706.312653,W,58.3,182.6,020810,,,A*45
$GPRMC,230612.4,A,3308.009986,N,11706.315843,W,59.8,182.7,020810,,,A*40
$GPRMC,230615.4,A,3307.960374,N,11706.319050,W,59.1,182.6,020810,,,A*47
$GPRMC,230618.4,A,3307.910485,N,11706.321744,W,59.1,181.9,020810,,,A*41
$GPRMC,230621.4,A,3307.861620,N,11706.323084,W,58.5,180.6,020810,,,A*43
$GPRMC,230624.4,A,3307.811214,N,11706.322663,W,60.7,178.8,020810,,,A*4C
$GPRMC,230627.4,A,3307.761258,N,11706.319335,W,59.9,176.5,020810,,,A*46
$GPRMC,230630.4,A,3307.711214,N,11706.313982,W,59.6,173.7,020810,,,A*4B
$GPRMC,230633.4,A,3307.662003,N,11706.305613,W,58.7,171.3,020810,,,A*4F
$GPRMC,230636.4,A,3307.613966,N,11706.295663,W,59.4,170.1,020810,,,A*48
$GPRMC,230639.4,A,3307.564378,N,11706.284154,W,61.3,168.2,020810,,,A*44
$GPRMC,230642.4,A,3307.512221,N,11706.270832,W,63.3,166.3,020810,,,A*4B
$GPRMC,230645.4,A,3307.463450,N,11706.254150,W,60.9,163.4,020810,,,A*4B
$GPRMC,230648.4,A,3307.413827,N,11706.232964,W,62.4,160.8,020810,,,A*42
$GPRMC,230651.4,A,3307.366920,N,11706.207074,W,60.8,157.1,020810,,,A*44
$GPRMC,230654.4,A,3307.322156,N,11706.183371,W,59.7,156.7,020810,,,A*43
$GPRMC,230657.4,A,3307.276625,N,11706.160115,W,59.0,156.7,020810,,,A*49
$GPRMC,230700.4,A,3307.231335,N,11706.135769,W,60.6,154.4,020810,,,A*4D
$GPRMC,230703.4,A,3307.185128,N,11706.108962,W,60.2,153.9,020810,,,A*49
$GPRMC,230706.4,A,3307.141444,N,11706.082452,W,59.5,154.0,020810,,,A*45
$GPRMC,230709.4,A,3307.095573,N,11706.055376,W,60.9,153.3,020810,,,A*4E
$GPRMC,230712.4,A,3307.050467,N,11706.028799,W,60.8,153.1,020810,,,A*45
$GPRMC,230715.4,A,3307.006037,N,11706.001440,W,60.4,153.4,020810,,,A*45
$GPRMC,230718.4,A,3306.960079,N,11705.975327,W,61.2,153.9,020810,,,A*4F
$GPRMC,230721.4,A,3306.914338,N,11705.949826,W,60.9,154.5,020810,,,A*44
$GPRMC,230724.4,A,3306.867727,N,11705.923393,W,60.5,154.5,020810,,,A*4B
$GPRMC,230727.4,A,3306.823662,N,11705.898787,W,59.0,155.3,020810,,,A*40
$GPRMC,230730.4,A,3306.780211,N,11705.873840,W,59.1,154.6,020810,,,A*44
$GPRMC,230733.4,A,3306.735476,N,11705.848513,W,59.3,154.5,020810,,,A*4C
$GPRMC,230736.4,A,3306.691640,N,11705.821975,W,58.6,152.1,020810,,,A*44
$GPRMC,230739.4,A,3306.649668,N,11705.793084,W,58.1,150.2,020810,,,A*43
$GPRMC,230742.4,A,3306.608511,N,11705.764707,W,57.6,150.3,020810,,,A*4A
$GPRMC,230745.4,A,3306.566017,N,11705.736337,W,59.0,150.6,020810,,,A*48
$GPRMC,230748.4,A,3306.522766,N,11705.709608,W,60.4,155.1,020810,,,A*4D
$GPRMC,230751.4,A,3306.476776,N,11705.683763,W,59.5,154.5,020810,,,A*45
$GPRMC,230754.4,A,3306.433082,N,11705.658056,W,58.7,154.0,020810,,,A*4C
$GPRMC,230757.4,A,3306.387641,N,11705.631518,W,61.4,153.9,020810,,,A*49
$GPRMC,230800.4,A,3306.340512,N,11705.603413,W,63.4,153.7,020810,,,A*4D
$GPRMC,230803.4,A,3306.293865,N,11705.576692,W,61.1,154.0,020810,,,A*41
$GPRMC,230806.4,A,3306.246989,N,11705.549586,W,63.6,154.0,020810,,,A*40
$GPRMC,230809.4,A,3306.198266,N,11705.521048,W,65.1,153.8,020810,,,A*42
$GPRMC,230812.4,A,3306.149496,N,11705.493366,W,63.8,153.9,020810,,,A*44
$GPRMC,230815.4,A,3306.103357,N,11705.466253,W,61.4,154.1,020810,,,A*4B
$GPRMC,230818.4,A,3306.057909,N,11705.439196,W,60.2,152.9,020810,,,A*4E
$GPRMC,230821.4,A,3306.013977,N,11705.411103,W,59.6,151.3,020810,,,A*4C
$GPRMC,230824.4,A,3305.972525,N,11705.381162,W,58.0,149.5,020810,,,A*4E
$GPRMC,230827.4,A,3305.931638,N,11705.352597,W,56.1,148.5,020810,,,A*4B
$GPRMC,230830.4,A,3305.891620,N,11705.320358,W,58.0,145.1,020810,,,A*49
$GPRMC,230833.4,A,3305.850452,N,11705.285405,W,60.9,143.8,020810,,,A*4C
$GPRMC,230836.4,A,3305.809821,N,11705.248348,W,61.6,142.4,020810,,,A*41
$GPRMC,230839.4,A,3305.770301,N,11705.209901,W,60.4,140.7,020810,,,A*46
$GPRMC,230842.4,A,3305.733638,N,11705.172812,W,58.2,139.0,020810,,,A*4A
$GPRMC,230845.4,A,3305.697408,N,11705.134499,W,57.3,138.3,020810,,,A*42
$GPRMC,230848.4,A,3305.661042,N,11705.096881,W,58.4,139.3,020810,,,A*49
$GPRMC,230851.4,A,3305.624897,N,11705.058862,W,57.4,138.5,020810,,,A*47
$GPRMC,230854.4,A,3305.590089,N,11705.022262,W,55.8,138.1,020810,,,A*44
$GPRMC,230857.4,A,3305.556121,N,11704.984425,W,55.1,137.4,020810,,,A*4C
$GPRMC,230900.4,A,3305.521986,N,11704.947259,W,55.9,138.1,020810,,,A*4A
$GPRMC,230903.4,A,3305.487719,N,11704.910805,W,55.1,138.5,020810,,,A*41
$GPRMC,230906.4,A,3305.454241,N,11704.873850,W,55.5,137.9,020810,,,A*41
$GPRMC,230909.4,A,3305.419518,N,11704.839365,W,54.4,138.3,020810,,,A*4A
$GPRMC,230912.4,A,3305.385698,N,11704.800881,W,56.5,138.0,020810,,,A*42
$GPRMC,230915.4,A,3305.348939,N,11704.762347,W,58.0,138.1,020810,,,A*40
$GPRMC,230918.4,A,3305.312441,N,11704.722607,W,59.0,137.4,020810,,,A*4E
$GPRMC,230921.4,A,3305.276171,N,11704.684334,W,57.9,137.8,020810,,,A*42
$GPRMC,230924.4,A,3305.239616,N,11704.646329,W,57.6,138.7,020810,,,A*47
$GPRMC,230927.4,A,3305.203106,N,11704.608320,W,57.6,140.0,020810,,,A*40
$GPRMC,230930.4,A,3305.167444,N,11704.573099,W,56.4,141.5,020810,,,A*4D
$GPRMC,230933.4,A,3305.129199,N,11704.537936,W,58.6,143.1,020810,,,A*47
$GPRMC,230936.4,A,3305.087928,N,11704.503331,W,59.4,145.4,020810,,,A*4F
$GPRMC,230939.4,A,3305.046739,N,11704.471934,W,57.8,147.7,020810,,,A*4B
$GPRMC,230942.4,A,3305.005071,N,11704.443042,W,56.7,149.7,020810,,,A*42
$GPRMC,230945.4,A,3304.964501,N,11704.415276,W,56.2,151.3,020810,,,A*46
$GPRMC,230948.4,A,3304.923318,N,11704.390069,W,55.9,152.9,020810,,,A*41
$GPRMC,230951.4,A,3304.880883,N,11704.365056,W,55.7,154.4,020810,,,A*4B
$GPRMC,230954.4,A,3304.839594,N,11704.342480,W,53.9,156.4,020810,,,A*47
$GPRMC,230957.4,A,3304.796517,N,11704.322234,W,56.6,158.5,020810,,,A*4F
$GPRMC,231000.4,A,3304.750809,N,11704.302820,W,58.9,160.2,020810,,,A*4D
$GPRMC,231003.4,A,3304.704415,N,11704.284833,W,59.0,161.7,020810,,,A*4F
$GPRMC,231006.4,A,3304.657345,N,11704.268260,W,58.6,163.8,020810,,,A*4B
$GPRMC,231009.4,A,3304.610582,N,11704.254711,W,57.0,166.7,020810,,,A*45
$GPRMC,231012.4,A,3304.565343,N,11704.242493,W,56.9,168.6,020810,,,A*4C
$GPRMC,231015.4,A,3304.519993,N,11704.233806,W,57.6,172.1,020810,,,A*43
$GPRMC,231018.4,A,3304.471367,N,11704.226045,W,58.7,173.0,020810,,,A*45
$GPRMC,231021.4,A,3304.420747,N,11704.218740,W,61.3,173.6,020810,,,A*4A
$GPRMC,231024.4,A,3304.369657,N,11704.212376,W,61.0,173.6,020810,,,A*4D
$GPRMC,231027.4,A,3304.319706,N,11704.205056,W,60.1,173.8,020810,,,A*45
$GPRMC,231030.4,A,3304.271187,N,11704.198422,W,59.2,173.3,020810,,,A*41
$GPRMC,231033.4,A,3304.222614,N,11704.190549,W,59.6,173.7,020810,,,A*4D
$GPRMC,231036.4,A,3304.173831,N,11704.183677,W,60.0,172.8,020810,,,A*48
$GPRMC,231039.4,A,3304.124863,N,11704.176427,W,59.8,173.0,020810,,,A*44
$GPRMC,231042.4,A,3304.074967,N,11704.168394,W,60.1,173.3,020810,,,A*49
$GPRMC,231045.4,A,3304.026170,N,11704.161810,W,58.0,173.8,020810,,,A*48
$GPRMC,231048.4,A,3303.979225,N,11704.156042,W,56.2,174.0,020810,,,A*4A
$GPRMC,231051.4,A,3303.932067,N,11704.152206,W,56.9,175.9,020810,,,A*4C
$GPRMC,231054.4,A,3303.883086,N,11704.150514,W,59.5,179.4,020810,,,A*49
$GPRMC,231057.4,A,3303.834558,N,11704.150487,W,57.5,181.2,020810,,,A*44
$GPRMC,231100.4,A,3303.787250,N,11704.153973,W,55.9,183.6,020810,,,A*42
$GPRMC,231103.4,A,3303.740153,N,11704.159654,W,56.4,186.3,020810,,,A*44
$GPRMC,231106.4,A,3303.692913,N,11704.167181,W,56.9,188.5,020810,,,A*44
$GPRMC,231109.4,A,3303.646394,N,11704.178607,W,57.2,192.0,020810,,,A*44
$GPRMC,231112.4,A,3303.600771,N,11704.191794,W,57.1,194.8,020810,,,A*42
$GPRMC,231115.4,A,3303.553890,N,11704.207861,W,58.3,196.1,020810,,,A*4F
$GPRMC,231118.4,A,3303.506418,N,11704.226650,W,59.7,199.2,020810,,,A*48
$GPRMC,231121.4,A,3303.459033,N,11704.248444,W,60.6,201.1,020810,,,A*41
$GPRMC,231124.4,A,3303.411220,N,11704.272597,W,60.8,202.2,020810,,,A*40
$GPRMC,231127.4,A,3303.364075,N,11704.295074,W,62.3,201.9,020810,,,A*44
$GPRMC,231130.4,A,3303.315016,N,11704.317210,W,62.4,200.2,020810,,,A*47
$GPRMC,231133.4,A,3303.265351,N,11704.337413,W,61.7,197.9,020810,,,A*43
$GPRMC,231136.4,A,3303.217392,N,11704.352870,W,60.7,194.7,020810,,,A*4A
$GPRMC,231139.4,A,3303.166210,N,11704.366571,W,62.8,191.9,020810,,,A*46
$GPRMC,231142.4,A,3303.115145,N,11704.376977,W,61.9,189.4,020810,,,A*40
$GPRMC,231145.4,A,3303.065394,N,11704.384860,W,60.4,187.1,020810,,,A*42
$GPRMC,231148.4,A,3303.017515,N,11704.387720,W,57.8,183.7,020810,,,A*47
$GPRMC,231151.4,A,3302.970905,N,11704.387890,W,55.9,179.4,020810,,,A*4A
$GPRMC,231154.4,A,3302.923619,N,11704.386234,W,57.6,177.4,020810,,,A*4D
$GPRMC,231157.4,A,3302.874334,N,11704.382129,W,59.0,176.7,020810,,,A*46
$GPRMC,231200.4,A,3302.824912,N,11704.380101,W,59.5,179.4,020810,,,A*4D
$GPRMC,231203.4,A,3302.774610,N,11704.382409,W,59.3,184.1,020810,,,A*47
$GPRMC,231206.4,A,3302.725852,N,11704.388175,W,57.2,188.4,020810,,,A*4C
$GPRMC,231209.4,A,3302.678944,N,11704.397542,W,56.8,191.4,020810,,,A*41
$GPRMC,231212.4,A,3302.633682,N,11704.411894,W,56.3,195.4,020810,,,A*41
$GPRMC,231215.4,A,3302.588331,N,11704.429799,W,56.6,198.6,020810,,,A*4B
$GPRMC,231218.4,A,3302.543451,N,11704.448096,W,56.7,198.7,020810,,,A*4F
$GPRMC,231221.4,A,3302.498539,N,11704.466373,W,57.8,199.2,020810,,,A*43
$GPRMC,231224.4,A,3302.452854,N,11704.485640,W,57.9,199.0,020810,,,A*4D
$GPRMC,231227.4,A,3302.406837,N,11704.505669,W,58.9,199.0,020810,,,A*47
$GPRMC,231230.4,A,3302.360918,N,11704.524894,W,58.1,199.3,020810,,,A*4E
$GPRMC,231233.4,A,3302.315117,N,11704.543783,W,58.8,199.0,020810,,,A*4A
$GPRMC,231236.4,A,3302.268590,N,11704.562741,W,59.3,199.1,020810,,,A*49
$GPRMC,231239.4,A,3302.221514,N,11704.582795,W,60.1,199.6,020810,,,A*4F
$GPRMC,231242.4,A,3302.174744,N,11704.602365,W,59.8,199.4,020810,,,A*46
$GPRMC,231245.4,A,3302.126276,N,11704.621880,W,60.1,199.0,020810,,,A*44
$GPRMC,231248.4,A,3302.078999,N,11704.641488,W,60.2,199.1,020810,,,A*49
$GPRMC,231251.4,A,3302.032660,N,11704.661011,W,60.2,199.2,020810,,,A*43
$GPRMC,231254.4,A,3301.985480,N,11704.680645,W,60.0,198.6,020810,,,A*43
$GPRMC,231257.4,A,3301.938041,N,11704.695368,W,58.5,195.1,020810,,,A*45
$GPRMC,231300.4,A,3301.889508,N,11704.709875,W,59.2,192.7,020810,,,A*41
$GPRMC,231303.4,A,3301.840800,N,11704.721576,W,59.8,189.8,020810,,,A*49
$GPRMC,231306.4,A,3301.792718,N,11704.727963,W,57.9,186.0,020810,,,A*4C
$GPRMC,231309.4,A,3301.744773,N,11704.731750,W,58.9,183.0,020810,,,A*46
$GPRMC,231312.4,A,3301.695332,N,11704.734932,W,57.5,182.2,020810,,,A*4F
$GPRMC,231315.4,A,3301.647758,N,11704.735786,W,56.6,179.5,020810,,,A*4E
$GPRMC,231318.4,A,3301.599209,N,11704.736291,W,58.4,180.7,020810,,,A*4A
$GPRMC,231321.4,A,3301.550674,N,11704.737497,W,56.9,181.1,020810,,,A*4E
$GPRMC,231324.4,A,3301.504121,N,11704.737112,W,57.2,180.7,020810,,,A*48
$GPRMC,231327.4,A,3301.456632,N,11704.738468,W,55.7,181.1,020810,,,A*4F
$GPRMC,231330.4,A,3301.411613,N,11704.739772,W,52.9,180.5,020810,,,A*4C
$GPRMC,231333.4,A,3301.367881,N,11704.740701,W,53.1,181.1,020810,,,A*4A
$GPRMC,231336.4,A,3301.322179,N,11704.742536,W,55.7,182.3,020810,,,A*45
$GPRMC,231339.4,A,3301.276564,N,11704.747103,W,54.4,184.9,020810,,,A*4B
$GPRMC,231342.4,A,3301.230626,N,11704.752689,W,54.4,185.3,020810,,,A*4A
$GPRMC,231345.4,A,3301.183783,N,11704.757856,W,56.9,184.9,020810,,,A*45
$GPRMC,231348.4,A,3301.132879,N,11704.764070,W,59.8,185.3,020810,,,A*41
$GPRMC,231351.4,A,3301.084053,N,11704.768906,W,58.6,185.2,020810,,,A*4F
$GPRMC,231354.4,A,3301.036453,N,11704.773332,W,55.9,185.6,020810,,,A*46
$GPRMC,231357.4,A,3300.991929,N,11704.778048,W,53.1,186.0,020810,,,A*4E
$GPRMC,231400.4,A,3300.946399,N,11704.783530,W,55.3,185.2,020810,,,A*4B
$GPRMC,231403.4,A,3300.900477,N,11704.788788,W,54.8,185.6,020810,,,A*49
$GPRMC,231406.4,A,3300.854339,N,11704.794413,W,55.6,185.7,020810,,,A*43
$GPRMC,231409.4,A,3300.808765,N,11704.799479,W,55.3,185.1,020810,,,A*4A
$GPRMC,231412.4,A,3300.763696,N,11704.803922,W,53.9,185.3,020810,,,A*4E
$GPRMC,231415.4,A,3300.719416,N,11704.808724,W,54.0,185.7,020810,,,A*47
$GPRMC,231418.4,A,3300.673998,N,11704.813741,W,55.4,185.8,020810,,,A*4F
$GPRMC,231421.4,A,3300.626022,N,11704.820010,W,57.1,185.4,020810,,,A*45
$GPRMC,231424.4,A,3300.580064,N,11704.824229,W,55.0,185.0,020810,,,A*46
$GPRMC,231427.4,A,3300.533289,N,11704.829045,W,55.7,184.7,020810,,,A*48
$GPRMC,231430.4,A,3300.483753,N,11704.836142,W,59.6,185.5,020810,,,A*40
$GPRMC,231433.4,A,3300.431975,N,11704.840975,W,62.8,186.1,020810,,,A*4C
$GPRMC,231436.4,A,3300.380674,N,11704.847848,W,61.9,187.8,020810,,,A*48
$GPRMC,231439.4,A,3300.331690,N,11704.855930,W,59.2,189.1,020810,,,A*4D
$GPRMC,231442.4,A,3300.282613,N,11704.867021,W,59.0,190.3,020810,,,A*43
$GPRMC,231445.4,A,3300.234982,N,11704.879697,W,57.0,192.2,020810,,,A*47
$GPRMC,231448.4,A,3300.188935,N,11704.894510,W,56.2,194.5,020810,,,A*4F
$GPRMC,231451.4,A,3300.143899,N,11704.912229,W,55.2,196.0,020810,,,A*41
$GPRMC,231454.4,A,3300.098705,N,11704.927751,W,56.2,196.5,020810,,,A*43
$GPRMC,231457.4,A,3300.053490,N,11704.943917,W,55.4,194.9,020810,,,A*4D
$GPRMC,231500.4,A,3300.007245,N,11704.959536,W,57.3,195.0,020810,,,A*48
$GPRMC,231503.4,A,3259.961185,N,11704.973603,W,57.0,195.1,020810,,,A*4F
$GPRMC,231506.4,A,3259.915932,N,11704.989947,W,55.8,195.9,020810,,,A*45
$GPRMC,231509.4,A,3259.869830,N,11705.005555,W,56.9,193.8,020810,,,A*45
$GPRMC,231512.4,A,3259.821554,N,11705.018293,W,59.6,191.8,020810,,,A*4F
$GPRMC,231515.4,A,3259.774802,N,11705.027339,W,58.7,187.3,020810,,,A*48
$GPRMC,231518.4,A,3259.728081,N,11705.032128,W,56.0,184.1,020810,,,A*41
$GPRMC,231521.4,A,3259.681330,N,11705.034830,W,57.8,181.4,020810,,,A*4F
$GPRMC,231524.4,A,3259.633973,N,11705.034486,W,56.5,178.1,020810,,,A*40
$GPRMC,231527.4,A,3259.586027,N,11705.031191,W,58.2,175.3,020810,,,A*46
$GPRMC,231530.4,A,3259.537754,N,11705.025537,W,58.0,173.6,020810,,,A*45
$GPRMC,231533.4,A,3259.488133,N,11705.016894,W,60.0,171.1,020810,,,A*4E
$GPRMC,231536.4,A,3259.438683,N,11705.007173,W,60.0,169.8,020810,,,A*4C
$GPRMC,231539.4,A,3259.389849,N,11704.996777,W,60.4,169.8,020810,,,A*40
$GPRMC,231542.4,A,3259.340637,N,11704.985770,W,60.1,169.8,020810,,,A*4E
$GPRMC,231545.4,A,3259.290199,N,11704.979404,W,61.0,173.8,020810,,,A*4E
$GPRMC,231548.4,A,3259.238451,N,11704.978764,W,61.3,178.9,020810,,,A*4D
$GPRMC,231551.4,A,3259.186074,N,11704.981307,W,61.9,183.7,020810,,,A*47
$GPRMC,231554.4,A,3259.133753,N,11704.988842,W,63.0,188.4,020810,,,A*4E
$GPRMC,231557.4,A,3259.082666,N,11705.001937,W,62.4,193.4,020810,,,A*44
$GPRMC,231600.4,A,3259.032683,N,11705.020787,W,61.8,197.9,020810,,,A*45
$GPRMC,231603.4,A,3258.983876,N,11705.042886,W,63.5,202.2,020810,,,A*41
$GPRMC,231606.4,A,3258.936407,N,11705.070822,W,64.1,207.4,020810,,,A*4F
$GPRMC,231609.4,A,3258.889490,N,11705.100260,W,63.7,208.1,020810,,,A*4A
$GPRMC,231612.4,A,3258.843250,N,11705.131554,W,65.0,209.0,020810,,,A*4F
$GPRMC,231615.4,A,3258.796569,N,11705.161315,W,62.2,208.2,020810,,,A*42
$GPRMC,231618.4,A,3258.751724,N,11705.189464,W,60.2,207.9,020810,,,A*4E
$GPRMC,231621.4,A,3258.707551,N,11705.217069,W,60.6,208.1,020810,,,A*49
$GPRMC,231624.4,A,3258.662806,N,11705.245762,W,61.2,208.3,020810,,,A*4D
$GPRMC,231627.4,A,3258.617133,N,11705.273952,W,62.2,207.9,020810,,,A*4D
$GPRMC,231630.4,A,3258.572125,N,11705.301341,W,61.0,207.6,020810,,,A*4E
$GPRMC,231633.4,A,3258.528337,N,11705.328915,W,60.0,208.2,020810,,,A*49
$GPRMC,231636.4,A,3258.486094,N,11705.356855,W,59.7,207.8,020810,,,A*47
$GPRMC,231639.4,A,3258.441559,N,11705.383931,W,59.6,207.7,020810,,,A*42
$GPRMC,231642.4,A,3258.396874,N,11705.412862,W,60.8,208.4,020810,,,A*41
$GPRMC,231645.4,A,3258.351932,N,11705.441880,W,62.0,208.5,020810,,,A*4F
$GPRMC,231648.4,A,3258.306063,N,11705.472092,W,61.1,208.9,020810,,,A*48
$GPRMC,231651.4,A,3258.264201,N,11705.499492,W,58.6,208.4,020810,,,A*42
$GPRMC,231654.4,A,3258.223037,N,11705.525357,W,57.4,208.4,020810,,,A*46
$GPRMC,231657.4,A,3258.179234,N,11705.551812,W,58.4,208.0,020810,,,A*4A
$GPRMC,231700.4,A,3258.135404,N,11705.579284,W,59.3,205.8,020810,,,A*48
$GPRMC,231703.4,A,3258.095029,N,11705.606620,W,54.6,208.5,020810,,,A*42
$GPRMC,231706.4,A,3258.056002,N,11705.631332,W,53.1,208.1,020810,,,A*47
$GPRMC,231709.4,A,3258.018333,N,11705.655303,W,51.0,207.8,020810,,,A*46
$GPRMC,231712.4,A,3257.983548,N,11705.678327,W,47.8,208.8,020810,,,A*4B
$GPRMC,231715.4,A,3257.950852,N,11705.701399,W,44.7,209.8,020810,,,A*43
$GPRMC,231718.4,A,3257.921570,N,11705.719690,W,39.3,209.5,020810,,,A*43
$GPRMC,231721.4,A,3257.895490,N,11705.737873,W,34.6,209.5,020810,,,A*4F
$GPRMC,231724.4,A,3257.872722,N,11705.753683,W,31.2,211.2,020810,,,A*45
$GPRMC,231727.4,A,3257.852741,N,11705.761696,W,28.6,204.7,020810,,,A*49
$GPRMC,231730.4,A,3257.839684,N,11705.770123,W,23.2,204.8,020810,,,A*43
$GPRMC,231733.4,A,3257.823153,N,11705.780674,W,23.5,205.2,020810,,,A*40
$GPRMC,231736.4,A,3257.806752,N,11705.793195,W,24.0,210.2,020810,,,A*49
$GPRMC,231739.4,A,3257.792207,N,11705.803979,W,20.0,210.3,020810,,,A*48
$GPRMC,231742.4,A,3257.779146,N,11705.811623,W,17.8,209.9,020810,,,A*4A
$GPRMC,231745.4,A,3257.766287,N,11705.819855,W,16.7,209.3,020810,,,A*4E
$GPRMC,231748.4,A,3257.755713,N,11705.826230,W,13.9,210.1,020810,,,A*4F
$GPRMC,231751.4,A,3257.746758,N,11705.832201,W,12.4,209.4,020810,,,A*4C
$GPRMC,231754.4,A,3257.738751,N,11705.838083,W,11.1,209.4,020810,,,A*4D
$GPRMC,231757.4,A,3257.730114,N,11705.844928,W,13.2,210.0,020810,,,A*4F
$GPRMC,231800.4,A,3257.719374,N,11705.852072,W,14.9,206.8,020810,,,A*4F
$GPRMC,231803.4,A,3257.708988,N,11705.857558,W,14.3,207.5,020810,,,A*4B
$GPRMC,231806.4,A,3257.697604,N,11705.865656,W,14.5,208.5,020810,,,A*47
$GPRMC,231809.4,A,3257.685564,N,11705.870966,W,16.9,206.2,020810,,,A*41
$GPRMC,231812.4,A,3257.672046,N,11705.879635,W,19.2,210.4,020810,,,A*43
$GPRMC,231815.4,A,3257.657027,N,11705.889757,W,20.0,211.2,020810,,,A*41
$GPRMC,231818.4,A,3257.643919,N,11705.899473,W,17.5,211.3,020810,,,A*49
$GPRMC,231821.4,A,3257.632107,N,11705.908498,W,16.3,213.8,020810,,,A*40
$GPRMC,231824.4,A,3257.620282,N,11705.918660,W,18.1,214.0,020810,,,A*4F
$GPRMC,231827.4,A,3257.608238,N,11705.928649,W,18.3,215.5,020810,,,A*49
$GPRMC,231830.4,A,3257.597119,N,11705.937582,W,14.3,214.9,020810,,,A*41
$GPRMC,231833.4,A,3257.589741,N,11705.942312,W,8.6,211.9,020810,,,A*76
$GPRMC,231836.4,A,3257.586242,N,11705.945277,W,4.9,212.5,020810,,,A*73
$GPRMC,231839.4,A,3257.582021,N,11705.948077,W,5.0,210.8,020810,,,A*77
$GPRMC,231842.4,A,3257.577481,N,11705.952397,W,8.4,213.0,020810,,,A*7B
$GPRMC,231845.4,A,3257.570251,N,11705.957511,W,11.0,212.1,020810,,,A*41
$GPRMC,231848.4,A,3257.561294,N,11705.965003,W,13.1,212.8,020810,,,A*48
$GPRMC,231851.4,A,3257.552941,N,11705.972107,W,12.2,213.0,020810,,,A*4B
$GPRMC,231854.4,A,3257.544968,N,11705.976499,W,11.0,210.5,020810,,,A*43
$GPRMC,231857.4,A,3257.538254,N,11705.981639,W,9.2,212.9,020810,,,A*7A
$GPRMC,231906.4,A,3257.530140,N,11705.987273,W,4.4,216.8,020810,,,A*73
$GPRMC,231909.4,A,3257.525552,N,11705.989327,W,5.7,208.4,020810,,,A*70
$GPRMC,231924.4,A,3257.516562,N,11705.994902,W,5.7,210.5,020810,,,A*75
$GPRMC,231927.4,A,3257.510688,N,11705.999324,W,8.2,212.0,020810,,,A*7B
$GPRMC,231930.4,A,3257.503485,N,11706.004209,W,9.5,209.5,020810,,,A*79
$GPRMC,231933.4,A,3257.495863,N,11706.009027,W,10.3,206.3,020810,,,A*44
$GPRMC,231936.4,A,3257.488174,N,11706.013572,W,10.9,207.5,020810,,,A*41
$GPRMC,231939.4,A,3257.479445,N,11706.019748,W,12.0,209.5,020810,,,A*43
$GPRMC,231942.4,A,3257.468882,N,11706.027710,W,15.9,212.1,020810,,,A*48
$GPRMC,231945.4,A,3257.453846,N,11706.034305,W,16.9,206.4,020810,,,A*4E
$GPRMC,231948.4,A,3257.441477,N,11706.040246,W,16.8,205.8,020810,,,A*45
$GPRMC,231951.4,A,3257.426492,N,11706.048227,W,19.8,204.9,020810,,,A*47
$GPRMC,231954.4,A,3257.408556,N,11706.057243,W,23.1,202.7,020810,,,A*43
$GPRMC,231957.4,A,3257.388386,N,11706.066392,W,28.3,202.4,020810,,,A*41
$GPRMC,232000.4,A,3257.365795,N,11706.077213,W,29.2,202.6,020810,,,A*46
$GPRMC,232003.4,A,3257.341784,N,11706.088338,W,32.0,201.5,020810,,,A*43
$GPRMC,232006.4,A,3257.314324,N,11706.102303,W,35.2,203.0,020810,,,A*41
$GPRMC,232009.4,A,3257.287820,N,11706.117944,W,35.3,205.5,020810,,,A*45
$GPRMC,232012.4,A,3257.262273,N,11706.133585,W,35.5,206.9,020810,,,A*46
$GPRMC,232015.4,A,3257.234415,N,11706.153162,W,38.1,208.3,020810,,,A*42
$GPRMC,232018.4,A,3257.206275,N,11706.171310,W,39.0,208.6,020810,,,A*4C
$GPRMC,232021.4,A,3257.178356,N,11706.189232,W,38.1,208.7,020810,,,A*4B
$GPRMC,232024.4,A,3257.150145,N,11706.208224,W,38.5,209.9,020810,,,A*42
$GPRMC,232027.4,A,3257.122193,N,11706.228611,W,41.0,209.7,020810,,,A*4A
$GPRMC,232030.4,A,3257.091359,N,11706.249604,W,43.2,210.3,020810,,,A*4E
$GPRMC,232033.4,A,3257.057886,N,11706.272914,W,45.5,209.9,020810,,,A*4B
$GPRMC,232036.4,A,3257.023872,N,11706.296270,W,47.6,209.5,020810,,,A*48
$GPRMC,232039.4,A,3256.989836,N,11706.319535,W,49.1,209.0,020810,,,A*43
$GPRMC,232042.4,A,3256.951203,N,11706.344237,W,52.6,209.3,020810,,,A*45
$GPRMC,232045.4,A,3256.911348,N,11706.371235,W,54.5,208.5,020810,,,A*4E
$GPRMC,232048.4,A,3256.871279,N,11706.398494,W,54.5,209.4,020810,,,A*4D
$GPRMC,232051.4,A,3256.832168,N,11706.425578,W,54.1,209.6,020810,,,A*45
$GPRMC,232054.4,A,3256.793919,N,11706.453588,W,52.8,210.2,020810,,,A*47
$GPRMC,232057.4,A,3256.755669,N,11706.477832,W,51.9,209.3,020810,,,A*47
$GPRMC,232100.4,A,3256.718288,N,11706.502266,W,51.2,208.6,020810,,,A*41
$GPRMC,232103.4,A,3256.678713,N,11706.524454,W,50.8,205.8,020810,,,A*49
$GPRMC,232106.4,A,3256.640133,N,11706.543937,W,50.9,204.0,020810,,,A*42
$GPRMC,232109.4,A,3256.600493,N,11706.563753,W,50.9,203.4,020810,,,A*4B
$GPRMC,232112.4,A,3256.560914,N,11706.581766,W,51.1,201.5,020810,,,A*46
$GPRMC,232115.4,A,3256.519628,N,11706.598524,W,52.1,199.5,020810,,,A*42
$GPRMC,232118.4,A,3256.479264,N,11706.615045,W,51.9,197.8,020810,,,A*48
$GPRMC,232121.4,A,3256.438295,N,11706.628235,W,51.4,195.4,020810,,,A*41
$GPRMC,232124.4,A,3256.396922,N,11706.639702,W,51.4,193.4,020810,,,A*47
$GPRMC,232127.4,A,3256.354460,N,11706.651651,W,51.4,193.4,020810,,,A*48
$GPRMC,232130.4,A,3256.311725,N,11706.665071,W,52.0,193.7,020810,,,A*4A
$GPRMC,232133.4,A,3256.270175,N,11706.677411,W,51.0,194.0,020810,,,A*4E
$GPRMC,232136.4,A,3256.227833,N,11706.690734,W,52.1,194.8,020810,,,A*45
$GPRMC,232139.4,A,3256.184862,N,11706.702357,W,53.5,193.9,020810,,,A*4C
$GPRMC,232142.4,A,3256.140503,N,11706.715858,W,54.7,194.9,020810,,,A*42
$GPRMC,232145.4,A,3256.095791,N,11706.728873,W,56.3,195.1,020810,,,A*4D
$GPRMC,232148.4,A,3256.050569,N,11706.743380,W,56.5,194.6,020810,,,A*46
$GPRMC,232151.4,A,3256.005550,N,11706.755962,W,56.1,194.4,020810,,,A*43
$GPRMC,232154.4,A,3255.961713,N,11706.769912,W,54.4,195.1,020810,,,A*40
$GPRMC,232157.4,A,3255.918197,N,11706.782277,W,53.6,194.9,020810,,,A*46
$GPRMC,232200.4,A,3255.877932,N,11706.793471,W,51.2,193.8,020810,,,A*48
$GPRMC,232203.4,A,3255.835508,N,11706.804979,W,52.8,193.6,020810,,,A*4B
$GPRMC,232206.4,A,3255.792052,N,11706.819002,W,54.2,193.9,020810,,,A*4C
$GPRMC,232209.4,A,3255.747860,N,11706.832388,W,53.7,194.2,020810,,,A*44
$GPRMC,232212.4,A,3255.703429,N,11706.844517,W,54.9,193.6,020810,,,A*44
$GPRMC,232215.4,A,3255.659779,N,11706.857434,W,53.1,194.2,020810,,,A*45
$GPRMC,232218.4,A,3255.619342,N,11706.867147,W,49.9,191.8,020810,,,A*4E
$GPRMC,232221.4,A,3255.579191,N,11706.876174,W,49.3,191.0,020810,,,A*4F
$GPRMC,232224.4,A,3255.537511,N,11706.887540,W,51.3,191.8,020810,,,A*40
$GPRMC,232227.4,A,3255.494780,N,11706.898715,W,52.6,191.7,020810,,,A*44
$GPRMC,232230.4,A,3255.449799,N,11706.909601,W,54.5,190.5,020810,,,A*41
$GPRMC,232233.4,A,3255.404531,N,11706.917713,W,55.0,188.8,020810,,,A*46
$GPRMC,232236.4,A,3255.358279,N,11706.928090,W,57.0,189.1,020810,,,A*4C
$GPRMC,232239.4,A,3255.310787,N,11706.937222,W,57.1,189.1,020810,,,A*4F
$GPRMC,232242.4,A,3255.265271,N,11706.943016,W,56.7,187.5,020810,,,A*47
$GPRMC,232245.4,A,3255.217355,N,11706.952829,W,57.6,188.1,020810,,,A*4D
$GPRMC,232248.4,A,3255.169694,N,11706.961370,W,58.1,188.3,020810,,,A*4F
$GPRMC,232251.4,A,3255.122467,N,11706.968527,W,57.3,187.2,020810,,,A*48
$GPRMC,232254.4,A,3255.076214,N,11706.975479,W,55.0,186.5,020810,,,A*4E
$GPRMC,232257.4,A,3255.030343,N,11706.982468,W,53.5,186.2,020810,,,A*40
$GPRMC,232300.4,A,3254.986197,N,11706.986567,W,53.9,184.2,020810,,,A*49
$GPRMC,232303.4,A,3254.940302,N,11706.989309,W,55.5,185.2,020810,,,A*44
$GPRMC,232306.4,A,3254.895126,N,11706.995239,W,54.1,185.6,020810,,,A*42
$GPRMC,232309.4,A,3254.851562,N,11706.997716,W,53.6,183.6,020810,,,A*4D
$GPRMC,232312.4,A,3254.804491,N,11706.999976,W,55.9,182.3,020810,,,A*41
$GPRMC,232315.4,A,3254.755706,N,11707.003302,W,58.3,181.8,020810,,,A*4D
$GPRMC,232318.4,A,3254.707031,N,11707.004240,W,57.5,180.6,020810,,,A*42
$GPRMC,232321.4,A,3254.661013,N,11707.004941,W,55.6,180.2,020810,,,A*46
$GPRMC,232324.4,A,3254.613858,N,11707.004808,W,56.1,179.5,020810,,,A*48
$GPRMC,232327.4,A,3254.568061,N,11707.003841,W,55.5,179.2,020810,,,A*4C
$GPRMC,232330.4,A,3254.522250,N,11707.003312,W,54.8,179.0,020810,,,A*47
$GPRMC,232333.4,A,3254.475860,N,11707.002259,W,55.5,178.7,020810,,,A*4B
$GPRMC,232336.4,A,3254.429114,N,11707.000984,W,56.7,178.5,020810,,,A*47
$GPRMC,232339.4,A,3254.380860,N,11706.999388,W,58.0,179.0,020810,,,A*45
$GPRMC,232342.4,A,3254.332058,N,11706.998726,W,58.0,178.8,020810,,,A*4B
$GPRMC,232345.4,A,3254.284312,N,11706.998767,W,55.8,178.9,020810,,,A*4C
$GPRMC,232348.4,A,3254.238145,N,11706.997638,W,54.5,179.3,020810,,,A*45
$GPRMC,232351.4,A,3254.193172,N,11706.997670,W,53.5,180.2,020810,,,A*47
$GPRMC,232354.4,A,3254.148984,N,11706.997853,W,53.7,180.2,020810,,,A*48
$GPRMC,232357.4,A,3254.104485,N,11706.998001,W,52.8,180.4,020810,,,A*47
$GPRMC,232400.4,A,3254.060343,N,11706.998585,W,53.6,180.3,020810,,,A*4D
$GPRMC,232403.4,A,3254.015519,N,11706.999000,W,53.8,179.8,020810,,,A*4F
$GPRMC,232406.4,A,3253.969298,N,11706.999461,W,55.4,180.0,020810,,,A*46
$GPRMC,232409.4,A,3253.922962,N,11706.999063,W,55.7,179.1,020810,,,A*4A
$GPRMC,232412.4,A,3253.877286,N,11706.995893,W,55.6,178.0,020810,,,A*4A
$GPRMC,232415.4,A,3253.831200,N,11706.990805,W,55.5,174.7,020810,,,A*43
$GPRMC,232418.4,A,3253.785810,N,11706.984838,W,54.2,172.0,020810,,,A*49
$GPRMC,232421.4,A,3253.739872,N,11706.974766,W,56.2,169.0,020810,,,A*43
$GPRMC,232424.4,A,3253.695071,N,11706.963357,W,55.5,166.8,020810,,,A*49
$GPRMC,232427.4,A,3253.650500,N,11706.949446,W,54.4,165.4,020810,,,A*40
$GPRMC,232430.4,A,3253.607997,N,11706.936109,W,53.0,164.7,020810,,,A*41
$GPRMC,232433.4,A,3253.565923,N,11706.921802,W,53.0,163.9,020810,,,A*47
$GPRMC,232436.4,A,3253.525591,N,11706.905576,W,50.6,161.2,020810,,,A*47
$GPRMC,232439.4,A,3253.486018,N,11706.889506,W,51.9,160.6,020810,,,A*4D
$GPRMC,232442.4,A,3253.442611,N,11706.871033,W,55.4,159.9,020810,,,A*4E
$GPRMC,232445.4,A,3253.399289,N,11706.850452,W,55.2,157.9,020810,,,A*45
$GPRMC,232448.4,A,3253.355237,N,11706.829607,W,55.5,156.2,020810,,,A*4C
$GPRMC,232451.4,A,3253.314346,N,11706.807505,W,53.7,154.3,020810,,,A*4C
$GPRMC,232454.4,A,3253.274626,N,11706.784760,W,53.6,153.6,020810,,,A*4B
$GPRMC,232457.4,A,3253.232786,N,11706.761111,W,56.0,153.7,020810,,,A*48
$GPRMC,232500.4,A,3253.189212,N,11706.735425,W,58.7,153.2,020810,,,A*4F
$GPRMC,232503.4,A,3253.145960,N,11706.709967,W,58.8,153.8,020810,,,A*43
$GPRMC,232506.4,A,3253.099822,N,11706.684691,W,60.2,154.1,020810,,,A*4C
$GPRMC,232509.4,A,3253.055453,N,11706.660014,W,58.0,154.8,020810,,,A*48
$GPRMC,232512.4,A,3253.013786,N,11706.634412,W,55.5,153.9,020810,,,A*46
$GPRMC,232515.4,A,3252.972108,N,11706.610158,W,56.0,154.7,020810,,,A*4C
$GPRMC,232518.4,A,3252.927930,N,11706.587913,W,57.8,156.4,020810,,,A*40
$GPRMC,232521.4,A,3252.881344,N,11706.565346,W,60.2,157.5,020810,,,A*46
