NMEA Sentence Code,UTC Time,Status,Latitude,Latitude Direction,Longitude,Longitude Direction,Speed (knots),Track Angle (degrees true),Date,MagneticVariation,Magnetic Variation Direction,[FAA Mode]-Optional,Checksum
$GPRMC,151248.7,A,3334.179622,N,11749.630673,W,21.4,262.2,150410,,,A*41
$GPRMC,151251.7,A,3334.175215,N,11749.653100,W,23.7,254.0,150410,,,A*45
$GPRMC,151254.7,A,3334.166606,N,11749.676358,W,25.7,244.6,150410,,,A*4D
$GPRMC,151257.7,A,3334.153289,N,11749.696113,W,22.5,225.8,150410,,,A*44
$GPRMC,151300.7,A,3334.142355,N,11749.709542,W,17.7,225.1,150410,,,A*4D
$GPRMC,151303.7,A,3334.137369,N,11749.713442,W,5.7,216.1,150410,,,A*7A
$GPRMC,151306.7,A,3334.131339,N,11749.719383,W,12.4,218.0,150410,,,A*46
$GPRMC,151309.7,A,3334.122832,N,11749.727062,W,13.7,215.1,150410,,,A*44
$GPRMC,151312.7,A,3334.114086,N,11749.736305,W,14.3,225.7,150410,,,A*48
$GPRMC,151315.7,A,3334.105210,N,11749.747680,W,16.6,221.0,150410,,,A*48
$GPRMC,151318.7,A,3334.093365,N,11749.757125,W,17.0,208.8,150410,,,A*45
$GPRMC,151321.7,A,3334.080405,N,11749.763558,W,13.9,198.2,150410,,,A*48
$GPRMC,151324.7,A,3334.067684,N,11749.768776,W,16.6,200.9,150410,,,A*49
$GPRMC,151327.7,A,3334.054360,N,11749.776678,W,18.3,208.2,150410,,,A*4D
$GPRMC,151330.7,A,3334.041335,N,11749.786684,W,19.1,214.9,150410,,,A*46
$GPRMC,151333.7,A,3334.028389,N,11749.800128,W,19.8,219.1,150410,,,A*41
$GPRMC,151336.7,A,3334.021609,N,11749.809013,W,12.4,245.9,150410,,,A*46
$GPRMC,151339.7,A,3334.023949,N,11749.821690,W,13.5,285.6,150410,,,A*44
$GPRMC,151342.7,A,3334.035416,N,11749.839661,W,24.2,306.0,150410,,,A*40
$GPRMC,151345.7,A,3334.048810,N,11749.861028,W,28.1,306.2,150410,,,A*4C
$GPRMC,151348.7,A,3334.065500,N,11749.886168,W,33.6,307.3,150410,,,A*43
$GPRMC,151351.7,A,3334.083017,N,11749.914984,W,37.9,307.0,150410,,,A*48
$GPRMC,151354.7,A,3334.103547,N,11749.945555,W,40.1,308.6,150410,,,A*41
$GPRMC,151357.7,A,3334.125656,N,11749.976052,W,40.4,310.4,150410,,,A*49
$GPRMC,151400.7,A,3334.148171,N,11750.004799,W,39.8,312.6,150410,,,A*43
$GPRMC,151403.7,A,3334.171520,N,11750.032064,W,38.7,314.8,150410,,,A*4C
$GPRMC,151406.7,A,3334.191901,N,11750.058798,W,36.1,312.9,150410,,,A*4F
$GPRMC,151409.7,A,3334.211346,N,11750.080969,W,32.8,315.1,150410,,,A*45
$GPRMC,151412.7,A,3334.226934,N,11750.101537,W,28.5,313.5,150410,,,A*4F
$GPRMC,151415.7,A,3334.240144,N,11750.117902,W,22.4,315.1,150410,,,A*43
$GPRMC,151418.7,A,3334.249486,N,11750.128385,W,16.4,311.2,150410,,,A*45
$GPRMC,151421.7,A,3334.257732,N,11750.136223,W,17.9,314.6,150410,,,A*43
$GPRMC,151424.7,A,3334.269520,N,11750.150708,W,21.2,313.4,150410,,,A*4D
$GPRMC,151427.7,A,3334.286036,N,11750.169735,W,27.4,314.2,150410,,,A*48
$GPRMC,151430.7,A,3334.306636,N,11750.192264,W,32.7,317.2,150410,,,A*40
$GPRMC,151433.7,A,3334.328134,N,11750.216771,W,35.7,317.1,150410,,,A*40
$GPRMC,151436.7,A,3334.352384,N,11750.243152,W,38.5,318.1,150410,,,A*46
$GPRMC,151439.7,A,3334.379430,N,11750.278196,W,42.8,318.4,150410,,,A*4D
$GPRMC,151442.7,A,3334.409556,N,11750.305279,W,47.0,324.8,150410,,,A*47
$GPRMC,151445.7,A,3334.443393,N,11750.331521,W,48.2,329.4,150410,,,A*40
$GPRMC,151448.7,A,3334.480724,N,11750.353989,W,50.2,334.5,150410,,,A*44
$GPRMC,151451.7,A,3334.519173,N,11750.372885,W,50.2,337.8,150410,,,A*49
$GPRMC,151454.7,A,3334.557421,N,11750.392333,W,49.2,336.5,150410,,,A*48
$GPRMC,151457.7,A,3334.593823,N,11750.413611,W,47.9,330.8,150410,,,A*48
$GPRMC,151500.7,A,3334.627503,N,11750.438368,W,46.2,325.2,150410,,,A*4E
$GPRMC,151503.7,A,3334.657536,N,11750.466015,W,45.4,320.9,150410,,,A*45
$GPRMC,151506.7,A,3334.684174,N,11750.496712,W,44.0,314.2,150410,,,A*4A
$GPRMC,151509.7,A,3334.708149,N,11750.529777,W,43.8,309.2,150410,,,A*4B
$GPRMC,151512.7,A,3334.732032,N,11750.563853,W,44.4,309.8,150410,,,A*43
$GPRMC,151515.7,A,3334.755801,N,11750.597893,W,44.6,310.2,150410,,,A*4A
$GPRMC,151518.7,A,3334.779565,N,11750.632077,W,45.1,309.5,150410,,,A*41
$GPRMC,151521.7,A,3334.803572,N,11750.666589,W,45.1,309.6,150410,,,A*49
$GPRMC,151524.7,A,3334.827529,N,11750.701694,W,45.5,309.3,150410,,,A*4A
$GPRMC,151527.7,A,3334.851192,N,11750.738257,W,46.6,307.6,150410,,,A*46
$GPRMC,151530.7,A,3334.873844,N,11750.774700,W,44.4,308.6,150410,,,A*42
$GPRMC,151533.7,A,3334.897280,N,11750.808364,W,42.8,309.5,150410,,,A*43
$GPRMC,151536.7,A,3334.919377,N,11750.839322,W,39.7,309.8,150410,,,A*46
$GPRMC,151539.7,A,3334.936883,N,11750.865165,W,29.5,310.0,150410,,,A*4F
$GPRMC,151542.7,A,3334.950775,N,11750.885046,W,24.2,309.0,150410,,,A*49
$GPRMC,151545.7,A,3334.959019,N,11750.896116,W,13.3,309.5,150410,,,A*4C
$GPRMC,151645.7,A,3334.974144,N,11750.912744,W,11.0,324.2,150410,,,A*4C
$GPRMC,151648.7,A,3334.985812,N,11750.931737,W,21.8,309.4,150410,,,A*42
$GPRMC,151651.7,A,3334.999263,N,11750.951947,W,27.4,309.4,150410,,,A*4E
$GPRMC,151654.7,A,3335.014951,N,11750.975308,W,31.4,309.8,150410,,,A*40
$GPRMC,151657.7,A,3335.033859,N,11751.001573,W,36.9,309.9,150410,,,A*45
$GPRMC,151700.7,A,3335.054095,N,11751.032129,W,40.6,309.5,150410,,,A*46
$GPRMC,151703.7,A,3335.076299,N,11751.065004,W,43.2,309.0,150410,,,A*45
$GPRMC,151706.7,A,3335.100157,N,11751.098468,W,44.3,309.9,150410,,,A*42
$GPRMC,151709.7,A,3335.124044,N,11751.131667,W,43.4,309.9,150410,,,A*47
$GPRMC,151712.7,A,3335.147490,N,11751.164048,W,42.2,309.6,150410,,,A*46
$GPRMC,151715.7,A,3335.169564,N,11751.195388,W,41.7,309.4,150410,,,A*42
$GPRMC,151718.7,A,3335.192027,N,11751.227946,W,41.6,309.9,150410,,,A*47
$GPRMC,151721.7,A,3335.214136,N,11751.260438,W,41.7,309.7,150410,,,A*49
$GPRMC,151724.7,A,3335.236328,N,11751.292604,W,41.7,309.7,150410,,,A*41
$GPRMC,151727.7,A,3335.257105,N,11751.325939,W,42.4,309.0,150410,,,A*43
$GPRMC,151730.7,A,3335.279666,N,11751.358923,W,42.5,309.9,150410,,,A*42
$GPRMC,151733.7,A,3335.303247,N,11751.391376,W,43.7,309.7,150410,,,A*48
$GPRMC,151736.7,A,3335.326574,N,11751.426338,W,43.8,307.4,150410,,,A*4E
$GPRMC,151739.7,A,3335.346184,N,11751.463753,W,43.8,301.7,150410,,,A*41
$GPRMC,151742.7,A,3335.364145,N,11751.500993,W,43.4,301.2,150410,,,A*4F
$GPRMC,151745.7,A,3335.382838,N,11751.538060,W,43.2,301.2,150410,,,A*4B
$GPRMC,151748.7,A,3335.400724,N,11751.574331,W,42.1,301.1,150410,,,A*47
$GPRMC,151751.7,A,3335.419096,N,11751.607803,W,38.7,301.2,150410,,,A*4C
$GPRMC,151754.7,A,3335.435706,N,11751.639716,W,37.9,301.5,150410,,,A*49
$GPRMC,151757.7,A,3335.452293,N,11751.671735,W,37.2,301.5,150410,,,A*44
