NMEA Sentence Code,UTC Time,Status,Latitude,Latitude Direction,Longitude,Longitude Direction,Speed (knots),Track Angle (degrees true),Date,MagneticVariation,Magnetic Variation Direction,[FAA Mode]-Optional,Checksum
$GPRMC,010553.000,A,3255.8853,N,11714.1907,W,32.20,21.7,161110,,*28
$GPRMC,010556.000,A,3255.9114,N,11714.1816,W,32.02,15.1,161110,,*26
$GPRMC,010559.000,A,3255.9372,N,11714.1768,W,30.99,8.7,161110,,*17
$GPRMC,010602.000,A,3255.9618,N,11714.1756,W,29.83,2.5,161110,,*15
$GPRMC,010605.000,A,3255.9850,N,11714.1776,W,26.43,355.1,161110,,*14
$GPRMC,010608.000,A,3256.0034,N,11714.1815,W,19.39,350.8,161110,,*1E
$GPRMC,010611.000,A,3256.0163,N,11714.1849,W,14.04,349.8,161110,,*17
$GPRMC,010614.000,A,3256.0249,N,11714.1875,W,8.28,350.6,161110,,*23
$GPRMC,010705.000,A,3256.0381,N,11714.1935,W,14.50,338.8,161110,,*10
$GPRMC,010708.000,A,3256.0500,N,11714.1998,W,14.70,336.7,161110,,*16
$GPRMC,010711.000,A,3256.0601,N,11714.2050,W,10.04,337.8,161110,,*1B
$GPRMC,010723.000,A,3256.0669,N,11714.2090,W,7.11,310.9,161110,,*2E
$GPRMC,010726.000,A,3256.0744,N,11714.2145,W,14.10,333.0,161110,,*17
$GPRMC,010729.000,A,3256.0820,N,11714.2252,W,11.10,282.5,161110,,*1B
$GPRMC,010732.000,A,3256.0784,N,11714.2403,W,19.72,245.2,161110,,*12
$GPRMC,010735.000,A,3256.0683,N,11714.2627,W,27.01,242.4,161110,,*1F
$GPRMC,010738.000,A,3256.0551,N,11714.2878,W,31.71,237.6,161110,,*1A
$GPRMC,010741.000,A,3256.0398,N,11714.3149,W,31.67,236.3,161110,,*1E
$GPRMC,010744.000,A,3256.0252,N,11714.3408,W,29.34,235.9,161110,,*1A
$GPRMC,010747.000,A,3256.0114,N,11714.3645,W,29.94,235.5,161110,,*15
$GPRMC,010750.000,A,3255.9972,N,11714.3892,W,30.18,235.9,161110,,*15
$GPRMC,010753.000,A,3255.9822,N,11714.4145,W,33.50,234.4,161110,,*15
$GPRMC,010756.000,A,3255.9681,N,11714.4385,W,24.14,235.0,161110,,*1A
$GPRMC,010759.000,A,3255.9580,N,11714.4555,W,21.57,233.9,161110,,*11
$GPRMC,010802.000,A,3255.9460,N,11714.4746,W,24.60,235.0,161110,,*11
$GPRMC,010805.000,A,3255.9362,N,11714.4949,W,22.03,238.8,161110,,*14
$GPRMC,010808.000,A,3255.9258,N,11714.5089,W,14.23,232.3,161110,,*13
$GPRMC,010811.000,A,3255.9153,N,11714.5151,W,11.61,177.6,161110,,*13
$GPRMC,010814.000,A,3255.9022,N,11714.5079,W,21.84,154.2,161110,,*17
$GPRMC,010817.000,A,3255.8818,N,11714.4948,W,28.82,153.2,161110,,*16
$GPRMC,010820.000,A,3255.8593,N,11714.4818,W,30.35,157.6,161110,,*1D
$GPRMC,010823.000,A,3255.8347,N,11714.4731,W,28.69,163.2,161110,,*16
$GPRMC,010826.000,A,3255.8099,N,11714.4670,W,32.27,167.6,161110,,*16
$GPRMC,010829.000,A,3255.7810,N,11714.4596,W,38.83,168.1,161110,,*18
$GPRMC,010832.000,A,3255.7459,N,11714.4508,W,43.29,168.0,161110,,*19
$GPRMC,010835.000,A,3255.7094,N,11714.4405,W,43.13,166.8,161110,,*18
$GPRMC,010838.000,A,3255.6741,N,11714.4293,W,43.90,165.1,161110,,*13
$GPRMC,010841.000,A,3255.6369,N,11714.4169,W,47.38,164.6,161110,,*15
$GPRMC,010844.000,A,3255.5970,N,11714.4033,W,50.51,164.3,161110,,*13
$GPRMC,010847.000,A,3255.5564,N,11714.3897,W,49.84,163.6,161110,,*1A
$GPRMC,010850.000,A,3255.5160,N,11714.3753,W,49.84,164.0,161110,,*1A
$GPRMC,010853.000,A,3255.4765,N,11714.3620,W,47.97,164.9,161110,,*1B
$GPRMC,010856.000,A,3255.4390,N,11714.3488,W,47.84,164.6,161110,,*1D
$GPRMC,010859.000,A,3255.4005,N,11714.3348,W,48.99,163.2,161110,,*16
$GPRMC,010902.000,A,3255.3628,N,11714.3190,W,47.30,160.9,161110,,*14
$GPRMC,010905.000,A,3255.3264,N,11714.3008,W,48.05,157.6,161110,,*1D
$GPRMC,010908.000,A,3255.2900,N,11714.2797,W,49.21,154.2,161110,,*18
$GPRMC,010911.000,A,3255.2532,N,11714.2562,W,50.53,151.5,161110,,*1A
$GPRMC,010914.000,A,3255.2164,N,11714.2299,W,51.87,148.6,161110,,*18
$GPRMC,010917.000,A,3255.1805,N,11714.2006,W,52.75,145.6,161110,,*11
$GPRMC,010920.000,A,3255.1452,N,11714.1692,W,51.77,142.7,161110,,*14
$GPRMC,010923.000,A,3255.1112,N,11714.1362,W,52.49,139.8,161110,,*11
$GPRMC,010926.000,A,3255.0800,N,11714.1019,W,50.94,136.9,161110,,*1C
$GPRMC,010929.000,A,3255.0511,N,11714.0665,W,49.86,134.1,161110,,*13
$GPRMC,010932.000,A,3255.0225,N,11714.0290,W,51.63,131.6,161110,,*17
$GPRMC,010935.000,A,3254.9947,N,11713.9896,W,50.96,130.5,161110,,*1C
$GPRMC,010938.000,A,3254.9670,N,11713.9497,W,53.17,129.9,161110,,*19
$GPRMC,010941.000,A,3254.9376,N,11713.9102,W,53.48,132.7,161110,,*13
$GPRMC,010944.000,A,3254.9058,N,11713.8743,W,51.48,137.2,161110,,*19
$GPRMC,010947.000,A,3254.8730,N,11713.8430,W,51.34,141.9,161110,,*14
$GPRMC,010950.000,A,3254.8371,N,11713.8154,W,52.00,147.4,161110,,*1B
$GPRMC,010953.000,A,3254.7985,N,11713.7907,W,51.71,151.4,161110,,*15
$GPRMC,010956.000,A,3254.7608,N,11713.7674,W,50.65,151.9,161110,,*18
$GPRMC,010959.000,A,3254.7237,N,11713.7447,W,50.08,152.0,161110,,*1C
$GPRMC,011002.000,A,3254.6858,N,11713.7213,W,52.56,152.1,161110,,*17
$GPRMC,011005.000,A,3254.6464,N,11713.6964,W,53.34,152.1,161110,,*1C
$GPRMC,011008.000,A,3254.6076,N,11713.6716,W,53.06,151.6,161110,,*18
$GPRMC,011011.000,A,3254.5671,N,11713.6461,W,55.79,152.1,161110,,*1B
$GPRMC,011014.000,A,3254.5261,N,11713.6205,W,55.22,151.9,161110,,*1A
$GPRMC,011017.000,A,3254.4853,N,11713.5948,W,56.73,152.3,161110,,*1C
$GPRMC,011020.000,A,3254.4418,N,11713.5686,W,59.15,153.6,161110,,*1D
$GPRMC,011023.000,A,3254.3965,N,11713.5438,W,61.32,155.5,161110,,*12
$GPRMC,011026.000,A,3254.3487,N,11713.5189,W,62.26,156.1,161110,,*18
$GPRMC,011029.000,A,3254.3012,N,11713.4970,W,59.33,159.6,161110,,*14
$GPRMC,011032.000,A,3254.2546,N,11713.4815,W,56.48,164.7,161110,,*15
$GPRMC,011035.000,A,3254.2091,N,11713.4712,W,55.77,169.3,161110,,*13
$GPRMC,011038.000,A,3254.1639,N,11713.4659,W,53.76,173.8,161110,,*10
$GPRMC,011041.000,A,3254.1186,N,11713.4653,W,55.28,179.8,161110,,*10
$GPRMC,011044.000,A,3254.0727,N,11713.4696,W,55.83,184.9,161110,,*12
$GPRMC,011047.000,A,3254.0258,N,11713.4796,W,57.50,189.8,161110,,*1D
$GPRMC,011050.000,A,3253.9796,N,11713.4936,W,55.06,194.5,161110,,*16
$GPRMC,011053.000,A,3253.9357,N,11713.5103,W,55.02,197.0,161110,,*11
$GPRMC,011056.000,A,3253.8914,N,11713.5271,W,56.17,197.4,161110,,*1D
$GPRMC,011059.000,A,3253.8469,N,11713.5443,W,56.99,197.9,161110,,*19
$GPRMC,011102.000,A,3253.8014,N,11713.5622,W,57.88,198.0,161110,,*1A
$GPRMC,011105.000,A,3253.7549,N,11713.5803,W,58.56,198.0,161110,,*1E
$GPRMC,011108.000,A,3253.7082,N,11713.5983,W,59.11,197.7,161110,,*12
$GPRMC,011111.000,A,3253.6604,N,11713.6150,W,59.55,195.6,161110,,*15
$GPRMC,011114.000,A,3253.6113,N,11713.6279,W,60.78,191.7,161110,,*19
$GPRMC,011117.000,A,3253.5624,N,11713.6367,W,58.11,187.8,161110,,*18
$GPRMC,011120.000,A,3253.5141,N,11713.6421,W,58.87,185.3,161110,,*1B
$GPRMC,011123.000,A,3253.4666,N,11713.6470,W,56.75,185.0,161110,,*1F
$GPRMC,011126.000,A,3253.4187,N,11713.6517,W,58.83,184.8,161110,,*1C
$GPRMC,011129.000,A,3253.3697,N,11713.6568,W,59.07,185.1,161110,,*1F
$GPRMC,011132.000,A,3253.3212,N,11713.6616,W,57.40,185.0,161110,,*1A
$GPRMC,011135.000,A,3253.2763,N,11713.6660,W,49.00,185.3,161110,,*16
$GPRMC,011138.000,A,3253.2402,N,11713.6695,W,38.56,184.8,161110,,*1A
$GPRMC,011141.000,A,3253.2153,N,11713.6718,W,23.62,184.5,161110,,*11
$GPRMC,011144.000,A,3253.2021,N,11713.6730,W,12.35,184.3,161110,,*1C
$GPRMC,011147.000,A,3253.1956,N,11713.6741,W,7.48,185.6,161110,,*29
$GPRMC,011150.000,A,3253.1911,N,11713.6744,W,7.97,185.2,161110,,*2F
$GPRMC,011153.000,A,3253.1816,N,11713.6756,W,15.28,184.8,161110,,*15
$GPRMC,011156.000,A,3253.1659,N,11713.6767,W,21.24,183.6,161110,,*15
$GPRMC,011159.000,A,3253.1481,N,11713.6786,W,20.08,184.7,161110,,*1B
$GPRMC,011202.000,A,3253.1301,N,11713.6802,W,23.61,185.2,161110,,*12
$GPRMC,011205.000,A,3253.1080,N,11713.6824,W,26.28,184.9,161110,,*19
$GPRMC,011208.000,A,3253.0870,N,11713.6848,W,23.57,184.8,161110,,*14
$GPRMC,011211.000,A,3253.0674,N,11713.6866,W,25.22,184.3,161110,,*15
$GPRMC,011214.000,A,3253.0452,N,11713.6886,W,27.43,184.0,161110,,*1E
$GPRMC,011217.000,A,3253.0222,N,11713.6911,W,26.57,185.0,161110,,*16
$GPRMC,011220.000,A,3253.0003,N,11713.6932,W,26.27,184.7,161110,,*13
$GPRMC,011223.000,A,3252.9792,N,11713.6954,W,23.25,185.0,161110,,*16
$GPRMC,011226.000,A,3252.9608,N,11713.6973,W,20.78,184.7,161110,,*19
$GPRMC,011229.000,A,3252.9443,N,11713.6988,W,18.19,184.9,161110,,*1D
$GPRMC,011232.000,A,3252.9295,N,11713.7000,W,16.45,184.5,161110,,*19
$GPRMC,011235.000,A,3252.9163,N,11713.7011,W,15.04,184.4,161110,,*13
$GPRMC,011238.000,A,3252.9039,N,11713.7025,W,14.29,185.1,161110,,*1D
$GPRMC,011241.000,A,3252.8962,N,11713.7032,W,5.30,180.0,161110,,*2F
$GPRMC,011259.000,A,3252.8831,N,11713.7050,W,12.33,185.8,161110,,*1D
$GPRMC,011302.000,A,3252.8701,N,11713.7062,W,16.76,185.9,161110,,*1B
$GPRMC,011305.000,A,3252.8547,N,11713.7074,W,16.53,185.0,161110,,*15
$GPRMC,011308.000,A,3252.8406,N,11713.7088,W,15.88,184.9,161110,,*12
$GPRMC,011311.000,A,3252.8271,N,11713.7097,W,15.37,185.0,161110,,*1E
$GPRMC,011314.000,A,3252.8136,N,11713.7109,W,16.18,184.8,161110,,*1A
$GPRMC,011317.000,A,3252.7994,N,11713.7119,W,17.17,184.5,161110,,*14
$GPRMC,011320.000,A,3252.7850,N,11713.7131,W,17.34,184.7,161110,,*10
$GPRMC,011323.000,A,3252.7704,N,11713.7143,W,17.07,184.8,161110,,*17
$GPRMC,011326.000,A,3252.7565,N,11713.7158,W,16.83,184.6,161110,,*1E
$GPRMC,011329.000,A,3252.7422,N,11713.7172,W,16.96,184.5,161110,,*1C
$GPRMC,011332.000,A,3252.7300,N,11713.7184,W,11.86,184.2,161110,,*19
$GPRMC,011335.000,A,3252.7210,N,11713.7195,W,10.40,184.3,161110,,*14
$GPRMC,011338.000,A,3252.7126,N,11713.7203,W,9.91,184.8,161110,,*2C
$GPRMC,011341.000,A,3252.7042,N,11713.7211,W,10.31,185.2,161110,,*1B
$GPRMC,011344.000,A,3252.6953,N,11713.7220,W,10.74,185.0,161110,,*17
$GPRMC,011347.000,A,3252.6857,N,11713.7231,W,11.19,184.7,161110,,*1D
$GPRMC,011350.000,A,3252.6764,N,11713.7239,W,11.09,184.6,161110,,*1C
$GPRMC,011353.000,A,3252.6672,N,11713.7247,W,11.41,184.3,161110,,*19
$GPRMC,011356.000,A,3252.6575,N,11713.7256,W,11.62,184.1,161110,,*1B
$GPRMC,011359.000,A,3252.6480,N,11713.7263,W,11.47,184.7,161110,,*18
$GPRMC,011402.000,A,3252.6398,N,11713.7269,W,7.32,185.0,161110,,*26
$GPRMC,011405.000,A,3252.6342,N,11713.7277,W,5.65,185.0,161110,,*29
$GPRMC,011408.000,A,3252.6299,N,11713.7285,W,5.05,185.0,161110,,*28
$GPRMC,011411.000,A,3252.6261,N,11713.7286,W,4.62,185.0,161110,,*24
$GPRMC,011414.000,A,3252.6210,N,11713.7293,W,7.37,185.0,161110,,*20
$GPRMC,011417.000,A,3252.6131,N,11713.7296,W,10.63,184.4,161110,,*14
$GPRMC,011420.000,A,3252.6033,N,11713.7303,W,11.85,184.4,161110,,*17
$GPRMC,011423.000,A,3252.5939,N,11713.7313,W,10.80,184.3,161110,,*16
$GPRMC,011426.000,A,3252.5850,N,11713.7323,W,10.90,184.5,161110,,*19
$GPRMC,011429.000,A,3252.5761,N,11713.7328,W,11.15,184.5,161110,,*1C
$GPRMC,011432.000,A,3252.5667,N,11713.7339,W,11.63,184.7,161110,,*12
$GPRMC,011435.000,A,3252.5576,N,11713.7346,W,9.40,184.4,161110,,*25
$GPRMC,011438.000,A,3252.5503,N,11713.7356,W,8.10,184.8,161110,,*23
$GPRMC,011441.000,A,3252.5441,N,11713.7358,W,5.93,185.0,161110,,*2B
$GPRMC,011444.000,A,3252.5396,N,11713.7362,W,5.36,185.0,161110,,*25
$GPRMC,011447.000,A,3252.5346,N,11713.7367,W,7.51,185.0,161110,,*2D
$GPRMC,011450.000,A,3252.5250,N,11713.7376,W,15.18,184.7,161110,,*15
$GPRMC,011453.000,A,3252.5102,N,11713.7390,W,19.44,184.6,161110,,*1E
$GPRMC,011456.000,A,3252.4952,N,11713.7406,W,16.08,184.1,161110,,*1F
$GPRMC,011459.000,A,3252.4839,N,11713.7414,W,11.77,183.4,161110,,*12
$GPRMC,011502.000,A,3252.4749,N,11713.7422,W,10.74,183.7,161110,,*11
$GPRMC,011505.000,A,3252.4662,N,11713.7432,W,10.95,184.1,161110,,*11
$GPRMC,011508.000,A,3252.4572,N,11713.7438,W,11.40,183.9,161110,,*12
$GPRMC,011511.000,A,3252.4478,N,11713.7446,W,11.95,184.1,161110,,*1F
$GPRMC,011514.000,A,3252.4386,N,11713.7457,W,11.09,184.9,161110,,*11
$GPRMC,011517.000,A,3252.4285,N,11713.7466,W,14.07,184.9,161110,,*19
$GPRMC,011520.000,A,3252.4173,N,11713.7478,W,13.42,184.4,161110,,*13
$GPRMC,011523.000,A,3252.4062,N,11713.7490,W,13.57,184.7,161110,,*10
$GPRMC,011526.000,A,3252.3943,N,11713.7504,W,15.07,184.7,161110,,*17
$GPRMC,011529.000,A,3252.3816,N,11713.7517,W,15.46,184.6,161110,,*1F
$GPRMC,011532.000,A,3252.3680,N,11713.7530,W,16.06,184.5,161110,,*15
$GPRMC,011535.000,A,3252.3546,N,11713.7540,W,14.74,184.4,161110,,*1A
$GPRMC,011538.000,A,3252.3432,N,11713.7552,W,13.53,184.6,161110,,*16
$GPRMC,011541.000,A,3252.3330,N,11713.7559,W,11.58,184.0,161110,,*19
$GPRMC,011544.000,A,3252.3237,N,11713.7565,W,12.00,182.2,161110,,*1F
$GPRMC,011547.000,A,3252.3135,N,11713.7569,W,13.87,182.9,161110,,*14
$GPRMC,011550.000,A,3252.3020,N,11713.7579,W,14.90,184.5,161110,,*1D
$GPRMC,011553.000,A,3252.2867,N,11713.7601,W,20.76,184.7,161110,,*15
$GPRMC,011556.000,A,3252.2688,N,11713.7624,W,21.51,184.7,161110,,*1C
$GPRMC,011559.000,A,3252.2492,N,11713.7643,W,24.62,184.5,161110,,*1C
$GPRMC,011602.000,A,3252.2275,N,11713.7668,W,26.04,184.9,161110,,*19
$GPRMC,011605.000,A,3252.2062,N,11713.7687,W,24.79,184.6,161110,,*1C
$GPRMC,011608.000,A,3252.1859,N,11713.7703,W,24.30,184.7,161110,,*13
$GPRMC,011611.000,A,3252.1654,N,11713.7728,W,23.32,184.9,161110,,*1A
$GPRMC,011614.000,A,3252.1456,N,11713.7748,W,25.20,184.5,161110,,*10
$GPRMC,011617.000,A,3252.1251,N,11713.7767,W,24.15,184.5,161110,,*18
$GPRMC,011620.000,A,3252.1049,N,11713.7786,W,24.06,184.6,161110,,*19
$GPRMC,011623.000,A,3252.0848,N,11713.7807,W,23.20,185.2,161110,,*12
$GPRMC,011626.000,A,3252.0672,N,11713.7830,W,19.92,184.8,161110,,*1F
$GPRMC,011629.000,A,3252.0511,N,11713.7848,W,18.32,184.6,161110,,*1C
$GPRMC,011632.000,A,3252.0368,N,11713.7862,W,15.72,184.8,161110,,*11
$GPRMC,011635.000,A,3252.0250,N,11713.7871,W,13.02,184.3,161110,,*14
$GPRMC,011638.000,A,3252.0161,N,11713.7877,W,10.12,183.5,161110,,*1D
$GPRMC,011641.000,A,3252.0059,N,11713.7886,W,15.86,184.2,161110,,*1F
$GPRMC,011644.000,A,3251.9909,N,11713.7894,W,20.71,183.6,161110,,*12
$GPRMC,011647.000,A,3251.9723,N,11713.7913,W,21.73,184.5,161110,,*1E
$GPRMC,011650.000,A,3251.9524,N,11713.7931,W,25.57,184.6,161110,,*1C
$GPRMC,011653.000,A,3251.9322,N,11713.7953,W,22.48,184.7,161110,,*13
$GPRMC,011656.000,A,3251.9126,N,11713.7974,W,25.26,184.8,161110,,*15
$GPRMC,011659.000,A,3251.8900,N,11713.7999,W,28.01,184.8,161110,,*1C
$GPRMC,011702.000,A,3251.8654,N,11713.8021,W,28.96,184.5,161110,,*1B
$GPRMC,011705.000,A,3251.8429,N,11713.8043,W,24.92,184.7,161110,,*1A
$GPRMC,011708.000,A,3251.8236,N,11713.8062,W,22.33,184.8,161110,,*1E
$GPRMC,011711.000,A,3251.8031,N,11713.8080,W,27.29,184.6,161110,,*1F
$GPRMC,011714.000,A,3251.7779,N,11713.8106,W,32.69,184.4,161110,,*13
$GPRMC,011717.000,A,3251.7489,N,11713.8134,W,36.28,184.6,161110,,*1E
$GPRMC,011720.000,A,3251.7180,N,11713.8160,W,38.64,184.5,161110,,*12
$GPRMC,011723.000,A,3251.6854,N,11713.8191,W,38.77,184.6,161110,,*1F
$GPRMC,011726.000,A,3251.6534,N,11713.8224,W,37.99,184.7,161110,,*12
$GPRMC,011729.000,A,3251.6211,N,11713.8263,W,38.68,184.9,161110,,*11
$GPRMC,011732.000,A,3251.5910,N,11713.8285,W,35.35,184.8,161110,,*1E
$GPRMC,011735.000,A,3251.5637,N,11713.8309,W,30.42,185.6,161110,,*1C
$GPRMC,011738.000,A,3251.5407,N,11713.8338,W,26.55,185.3,161110,,*16
$GPRMC,011741.000,A,3251.5193,N,11713.8355,W,25.54,184.6,161110,,*1D
$GPRMC,011744.000,A,3251.4981,N,11713.8374,W,27.03,184.9,161110,,*1E
$GPRMC,011747.000,A,3251.4757,N,11713.8395,W,25.52,184.8,161110,,*10
$GPRMC,011750.000,A,3251.4575,N,11713.8418,W,19.69,185.9,161110,,*11
$GPRMC,011753.000,A,3251.4447,N,11713.8433,W,9.17,186.2,161110,,*2B
$GPRMC,011759.000,A,3251.4371,N,11713.8448,W,5.16,186.3,161110,,*23
$GPRMC,011802.000,A,3251.4322,N,11713.8455,W,8.92,186.3,161110,,*29
$GPRMC,011805.000,A,3251.4221,N,11713.8474,W,15.69,188.7,161110,,*1D
$GPRMC,011808.000,A,3251.4072,N,11713.8505,W,19.08,190.5,161110,,*13
$GPRMC,011811.000,A,3251.3905,N,11713.8547,W,20.11,193.0,161110,,*17
$GPRMC,011814.000,A,3251.3745,N,11713.8597,W,19.66,194.9,161110,,*11
$GPRMC,011817.000,A,3251.3584,N,11713.8658,W,20.21,197.4,161110,,*1A
$GPRMC,011820.000,A,3251.3422,N,11713.8722,W,21.90,199.1,161110,,*1F
$GPRMC,011823.000,A,3251.3249,N,11713.8800,W,23.85,201.0,161110,,*1D
$GPRMC,011826.000,A,3251.3043,N,11713.8904,W,28.85,203.7,161110,,*1B
$GPRMC,011829.000,A,3251.2811,N,11713.9037,W,31.08,206.6,161110,,*1B
$GPRMC,011832.000,A,3251.2584,N,11713.9189,W,30.26,209.3,161110,,*13
$GPRMC,011835.000,A,3251.2371,N,11713.9336,W,28.51,210.3,161110,,*1F
$GPRMC,011838.000,A,3251.2149,N,11713.9493,W,33.19,210.0,161110,,*16
$GPRMC,011841.000,A,3251.1885,N,11713.9671,W,36.99,210.3,161110,,*12
$GPRMC,011844.000,A,3251.1619,N,11713.9857,W,35.77,210.5,161110,,*13
$GPRMC,011847.000,A,3251.1378,N,11714.0034,W,32.49,211.8,161110,,*17
$GPRMC,011850.000,A,3251.1175,N,11714.0192,W,26.51,213.6,161110,,*13
$GPRMC,011853.000,A,3251.1012,N,11714.0310,W,20.53,211.0,161110,,*18
$GPRMC,011856.000,A,3251.0870,N,11714.0412,W,20.36,210.4,161110,,*13
$GPRMC,011859.000,A,3251.0715,N,11714.0518,W,21.81,210.2,161110,,*10
$GPRMC,011902.000,A,3251.0545,N,11714.0631,W,25.30,210.2,161110,,*1E
$GPRMC,011905.000,A,3251.0358,N,11714.0765,W,27.92,211.1,161110,,*1B
$GPRMC,011908.000,A,3251.0147,N,11714.0924,W,28.57,212.5,161110,,*10
$GPRMC,011911.000,A,3250.9962,N,11714.1057,W,23.71,209.3,161110,,*10
$GPRMC,011914.000,A,3250.9787,N,11714.1157,W,22.65,206.3,161110,,*1A
$GPRMC,011917.000,A,3250.9617,N,11714.1246,W,22.24,204.2,161110,,*14
$GPRMC,011920.000,A,3250.9452,N,11714.1324,W,21.56,201.6,161110,,*11
$GPRMC,011923.000,A,3250.9281,N,11714.1394,W,22.25,199.3,161110,,*11
$GPRMC,011926.000,A,3250.9097,N,11714.1458,W,23.94,197.6,161110,,*16
$GPRMC,011929.000,A,3250.8905,N,11714.1523,W,23.44,195.3,161110,,*1D
$GPRMC,011932.000,A,3250.8711,N,11714.1575,W,24.90,193.1,161110,,*15
$GPRMC,011935.000,A,3250.8502,N,11714.1627,W,26.90,190.8,161110,,*1E
$GPRMC,011938.000,A,3250.8259,N,11714.1670,W,31.59,188.3,161110,,*19
$GPRMC,011941.000,A,3250.7996,N,11714.1712,W,31.66,187.7,161110,,*12
$GPRMC,011944.000,A,3250.7709,N,11714.1761,W,36.57,189.0,161110,,*17
$GPRMC,011947.000,A,3250.7453,N,11714.1830,W,24.73,193.0,161110,,*1D
$GPRMC,011950.000,A,3250.7282,N,11714.1873,W,19.14,190.3,161110,,*19
$GPRMC,011953.000,A,3250.7152,N,11714.1892,W,12.76,188.0,161110,,*1E
$GPRMC,011956.000,A,3250.7061,N,11714.1911,W,11.47,187.5,161110,,*1B
$GPRMC,011959.000,A,3250.6966,N,11714.1927,W,11.24,187.3,161110,,*1D
$GPRMC,012002.000,A,3250.6901,N,11714.1938,W,6.39,187.4,161110,,*2B
$GPRMC,012005.000,A,3250.6851,N,11714.1946,W,6.94,187.8,161110,,*2A
$GPRMC,012008.000,A,3250.6775,N,11714.1951,W,12.23,187.7,161110,,*1E
$GPRMC,012011.000,A,3250.6651,N,11714.1973,W,18.65,187.5,161110,,*1B
$GPRMC,012014.000,A,3250.6475,N,11714.1996,W,23.00,186.6,161110,,*18
$GPRMC,012017.000,A,3250.6265,N,11714.2022,W,27.17,184.6,161110,,*19
$GPRMC,012020.000,A,3250.6018,N,11714.2037,W,30.76,182.1,161110,,*11
$GPRMC,012023.000,A,3250.5770,N,11714.2035,W,28.90,179.1,161110,,*1F
$GPRMC,012026.000,A,3250.5531,N,11714.2017,W,28.72,176.4,161110,,*1B
$GPRMC,012029.000,A,3250.5280,N,11714.1983,W,31.60,175.5,161110,,*17
$GPRMC,012032.000,A,3250.5019,N,11714.1951,W,31.71,173.5,161110,,*16
$GPRMC,012035.000,A,3250.4752,N,11714.1902,W,31.81,169.7,161110,,*18
$GPRMC,012038.000,A,3250.4489,N,11714.1832,W,30.96,167.7,161110,,*1B
$GPRMC,012041.000,A,3250.4255,N,11714.1768,W,25.58,167.3,161110,,*10
$GPRMC,012044.000,A,3250.4071,N,11714.1720,W,20.82,167.4,161110,,*18
$GPRMC,012047.000,A,3250.3906,N,11714.1669,W,21.66,166.4,161110,,*13
$GPRMC,012050.000,A,3250.3722,N,11714.1615,W,24.05,165.9,161110,,*18
$GPRMC,012053.000,A,3250.3508,N,11714.1548,W,28.24,165.1,161110,,*1D
$GPRMC,012056.000,A,3250.3276,N,11714.1472,W,28.83,163.5,161110,,*11
$GPRMC,012059.000,A,3250.3041,N,11714.1394,W,29.67,163.3,161110,,*1A
$GPRMC,012102.000,A,3250.2811,N,11714.1299,W,27.57,158.4,161110,,*17
$GPRMC,012105.000,A,3250.2619,N,11714.1139,W,28.94,141.1,161110,,*12
$GPRMC,012108.000,A,3250.2505,N,11714.0870,W,31.20,108.1,161110,,*1E
$GPRMC,012111.000,A,3250.2510,N,11714.0531,W,35.49,87.3,161110,,*25
$GPRMC,012114.000,A,3250.2607,N,11714.0171,W,40.49,73.4,161110,,*2B
$GPRMC,012117.000,A,3250.2743,N,11713.9754,W,47.05,69.8,161110,,*2E
$GPRMC,012120.000,A,3250.2892,N,11713.9293,W,50.08,69.4,161110,,*20
$GPRMC,012123.000,A,3250.3046,N,11713.8801,W,54.93,71.3,161110,,*2B
$GPRMC,012126.000,A,3250.3175,N,11713.8254,W,58.28,75.6,161110,,*28
$GPRMC,012129.000,A,3250.3282,N,11713.7679,W,59.67,77.5,161110,,*23
$GPRMC,012132.000,A,3250.3383,N,11713.7103,W,59.29,78.1,161110,,*22
$GPRMC,012135.000,A,3250.3484,N,11713.6537,W,57.82,78.8,161110,,*21
$GPRMC,012138.000,A,3250.3579,N,11713.5976,W,57.19,78.7,161110,,*28
$GPRMC,012141.000,A,3250.3671,N,11713.5430,W,56.16,78.8,161110,,*23
$GPRMC,012144.000,A,3250.3763,N,11713.4885,W,54.68,78.8,161110,,*2C
$GPRMC,012147.000,A,3250.3847,N,11713.4368,W,51.47,78.6,161110,,*28
$GPRMC,012150.000,A,3250.3931,N,11713.3882,W,48.50,78.7,161110,,*29
$GPRMC,012153.000,A,3250.4012,N,11713.3428,W,45.62,77.2,161110,,*2F
$GPRMC,012156.000,A,3250.4114,N,11713.2995,W,44.41,74.3,161110,,*25
$GPRMC,012159.000,A,3250.4229,N,11713.2591,W,41.75,71.3,161110,,*28
$GPRMC,012202.000,A,3250.4355,N,11713.2208,W,40.97,68.6,161110,,*28
$GPRMC,012205.000,A,3250.4490,N,11713.1842,W,38.48,65.5,161110,,*25
$GPRMC,012208.000,A,3250.4618,N,11713.1533,W,33.20,62.7,161110,,*21
$GPRMC,012211.000,A,3250.4739,N,11713.1265,W,29.91,61.3,161110,,*29
$GPRMC,012214.000,A,3250.4856,N,11713.1010,W,30.45,61.0,161110,,*28
$GPRMC,012217.000,A,3250.4984,N,11713.0738,W,33.36,60.7,161110,,*28
$GPRMC,012220.000,A,3250.5122,N,11713.0434,W,37.06,60.8,161110,,*2E
$GPRMC,012223.000,A,3250.5276,N,11713.0109,W,37.17,60.8,161110,,*24
$GPRMC,012226.000,A,3250.5427,N,11712.9794,W,36.27,60.7,161110,,*24
$GPRMC,012229.000,A,3250.5569,N,11712.9484,W,36.34,61.1,161110,,*27
$GPRMC,012232.000,A,3250.5714,N,11712.9165,W,36.32,60.7,161110,,*2E
$GPRMC,012235.000,A,3250.5859,N,11712.8860,W,34.55,61.2,161110,,*25
$GPRMC,012238.000,A,3250.5993,N,11712.8569,W,32.43,61.8,161110,,*20
$GPRMC,012241.000,A,3250.6115,N,11712.8301,W,28.95,61.9,161110,,*22
$GPRMC,012244.000,A,3250.6227,N,11712.8055,W,26.49,61.8,161110,,*29
$GPRMC,012247.000,A,3250.6320,N,11712.7840,W,22.30,62.2,161110,,*2C
$GPRMC,012250.000,A,3250.6398,N,11712.7665,W,18.99,62.3,161110,,*2B
$GPRMC,012253.000,A,3250.6462,N,11712.7517,W,16.22,61.6,161110,,*24
$GPRMC,012256.000,A,3250.6524,N,11712.7372,W,16.86,62.2,161110,,*2E
$GPRMC,012259.000,A,3250.6590,N,11712.7217,W,19.89,62.5,161110,,*2B
$GPRMC,012302.000,A,3250.6668,N,11712.7038,W,21.70,62.5,161110,,*22
$GPRMC,012305.000,A,3250.6759,N,11712.6822,W,26.17,62.3,161110,,*24
$GPRMC,012308.000,A,3250.6855,N,11712.6594,W,24.83,62.8,161110,,*2E
$GPRMC,012311.000,A,3250.6946,N,11712.6390,W,22.12,62.9,161110,,*28
$GPRMC,012314.000,A,3250.7029,N,11712.6191,W,21.85,62.8,161110,,*23
$GPRMC,012317.000,A,3250.7112,N,11712.6004,W,21.09,62.5,161110,,*2D
$GPRMC,012320.000,A,3250.7183,N,11712.5854,W,12.53,59.6,161110,,*2B
$GPRMC,012323.000,A,3250.7222,N,11712.5772,W,8.73,60.5,161110,,*1B
$GPRMC,012326.000,A,3250.7256,N,11712.5698,W,9.90,61.8,161110,,*18
$GPRMC,012329.000,A,3250.7303,N,11712.5585,W,16.25,62.2,161110,,*20
$GPRMC,012332.000,A,3250.7379,N,11712.5418,W,20.67,62.5,161110,,*26
$GPRMC,012335.000,A,3250.7454,N,11712.5239,W,19.79,62.8,161110,,*24
$GPRMC,012338.000,A,3250.7531,N,11712.5068,W,19.28,62.9,161110,,*28
$GPRMC,012341.000,A,3250.7600,N,11712.4902,W,17.81,64.6,161110,,*27
$GPRMC,012344.000,A,3250.7667,N,11712.4725,W,21.61,65.9,161110,,*2D
$GPRMC,012347.000,A,3250.7743,N,11712.4503,W,26.25,67.8,161110,,*2B
$GPRMC,012350.000,A,3250.7824,N,11712.4241,W,29.49,70.5,161110,,*2C
$GPRMC,012353.000,A,3250.7892,N,11712.3976,W,26.87,73.5,161110,,*24
$GPRMC,012356.000,A,3250.7945,N,11712.3715,W,29.19,75.8,161110,,*22
$GPRMC,012359.000,A,3250.7998,N,11712.3418,W,31.33,78.9,161110,,*2E
$GPRMC,012402.000,A,3250.8040,N,11712.3105,W,33.14,82.1,161110,,*27
$GPRMC,012405.000,A,3250.8064,N,11712.2778,W,32.37,85.3,161110,,*2E
$GPRMC,012408.000,A,3250.8071,N,11712.2460,W,30.98,88.7,161110,,*23
$GPRMC,012411.000,A,3250.8062,N,11712.2165,W,28.93,91.8,161110,,*2C
$GPRMC,012414.000,A,3250.8044,N,11712.1873,W,30.93,94.0,161110,,*24
$GPRMC,012417.000,A,3250.8015,N,11712.1568,W,29.88,96.8,161110,,*2C
$GPRMC,012420.000,A,3250.7978,N,11712.1300,W,25.81,99.1,161110,,*2E
$GPRMC,012423.000,A,3250.7935,N,11712.1055,W,26.94,101.6,161110,,*17
$GPRMC,012426.000,A,3250.7885,N,11712.0789,W,28.25,102.5,161110,,*1B
$GPRMC,012429.000,A,3250.7828,N,11712.0500,W,30.87,102.7,161110,,*13
$GPRMC,012432.000,A,3250.7772,N,11712.0206,W,30.84,102.9,161110,,*15
$GPRMC,012435.000,A,3250.7715,N,11711.9913,W,29.44,102.8,161110,,*13
$GPRMC,012438.000,A,3250.7663,N,11711.9634,W,28.53,102.9,161110,,*12
$GPRMC,012441.000,A,3250.7609,N,11711.9357,W,28.07,102.9,161110,,*11
$GPRMC,012444.000,A,3250.7560,N,11711.9109,W,24.51,102.8,161110,,*1F
$GPRMC,012447.000,A,3250.7515,N,11711.8874,W,24.53,102.9,161110,,*1F
$GPRMC,012450.000,A,3250.7472,N,11711.8642,W,23.47,102.6,161110,,*1F
$GPRMC,012453.000,A,3250.7429,N,11711.8410,W,23.90,101.8,161110,,*10
$GPRMC,012456.000,A,3250.7390,N,11711.8186,W,21.98,100.3,161110,,*1A
$GPRMC,012459.000,A,3250.7360,N,11711.7968,W,22.72,98.9,161110,,*20
$GPRMC,012502.000,A,3250.7331,N,11711.7735,W,25.53,97.5,161110,,*2A
$GPRMC,012505.000,A,3250.7310,N,11711.7464,W,29.68,95.5,161110,,*2F
$GPRMC,012508.000,A,3250.7292,N,11711.7149,W,33.83,93.5,161110,,*2B
$GPRMC,012511.000,A,3250.7278,N,11711.6801,W,36.34,91.6,161110,,*2B
$GPRMC,012514.000,A,3250.7289,N,11711.6416,W,40.83,89.3,161110,,*2B
$GPRMC,012517.000,A,3250.7318,N,11711.6012,W,40.27,85.2,161110,,*22
$GPRMC,012520.000,A,3250.7364,N,11711.5634,W,37.28,82.6,161110,,*20
$GPRMC,012523.000,A,3250.7413,N,11711.5275,W,37.10,81.5,161110,,*2E
$GPRMC,012526.000,A,3250.7465,N,11711.4896,W,40.77,81.1,161110,,*29
$GPRMC,012529.000,A,3250.7529,N,11711.4477,W,43.55,81.1,161110,,*2F
$GPRMC,012532.000,A,3250.7594,N,11711.4024,W,49.03,79.7,161110,,*29
$GPRMC,012535.000,A,3250.7678,N,11711.3505,W,56.73,80.1,161110,,*27
$GPRMC,012538.000,A,3250.7759,N,11711.2923,W,60.08,80.6,161110,,*2F
$GPRMC,012541.000,A,3250.7841,N,11711.2324,W,61.58,80.9,161110,,*21
$GPRMC,012544.000,A,3250.7923,N,11711.1717,W,62.88,81.0,161110,,*20
$GPRMC,012547.000,A,3250.8003,N,11711.1089,W,64.36,81.2,161110,,*26
$GPRMC,012550.000,A,3250.8088,N,11711.0450,W,65.96,81.1,161110,,*2A
$GPRMC,012553.000,A,3250.8177,N,11710.9807,W,65.38,81.0,161110,,*2B
$GPRMC,012556.000,A,3250.8262,N,11710.9174,W,64.31,80.8,161110,,*25
$GPRMC,012559.000,A,3250.8346,N,11710.8539,W,64.99,80.9,161110,,*22
$GPRMC,012602.000,A,3250.8419,N,11710.7898,W,65.17,83.3,161110,,*25
$GPRMC,012605.000,A,3250.8449,N,11710.7262,W,63.50,87.3,161110,,*29
$GPRMC,012608.000,A,3250.8442,N,11710.6639,W,61.76,91.2,161110,,*24
$GPRMC,012611.000,A,3250.8381,N,11710.6038,W,61.10,96.1,161110,,*27
$GPRMC,012614.000,A,3250.8297,N,11710.5445,W,59.80,98.7,161110,,*23
$GPRMC,012617.000,A,3250.8218,N,11710.4872,W,59.44,99.0,161110,,*20
$GPRMC,012620.000,A,3250.8139,N,11710.4285,W,59.93,98.7,161110,,*2A
$GPRMC,012623.000,A,3250.8046,N,11710.3706,W,59.54,102.0,161110,,*17
$GPRMC,012626.000,A,3250.7906,N,11710.3143,W,59.04,106.6,161110,,*10
$GPRMC,012629.000,A,3250.7716,N,11710.2607,W,58.37,112.5,161110,,*11
$GPRMC,012632.000,A,3250.7485,N,11710.2096,W,58.47,118.1,161110,,*15
$GPRMC,012635.000,A,3250.7222,N,11710.1616,W,58.00,123.1,161110,,*1F
$GPRMC,012638.000,A,3250.6921,N,11710.1165,W,57.30,128.1,161110,,*1F
$GPRMC,012641.000,A,3250.6600,N,11710.0734,W,58.10,131.1,161110,,*1B
$GPRMC,012644.000,A,3250.6269,N,11710.0311,W,57.36,132.0,161110,,*1F
$GPRMC,012647.000,A,3250.5947,N,11709.9898,W,56.95,132.4,161110,,*1F
$GPRMC,012650.000,A,3250.5617,N,11709.9482,W,57.91,132.2,161110,,*17
$GPRMC,012653.000,A,3250.5290,N,11709.9059,W,57.38,132.3,161110,,*1F
$GPRMC,012656.000,A,3250.4967,N,11709.8644,W,55.67,132.2,161110,,*1A
$GPRMC,012659.000,A,3250.4652,N,11709.8234,W,56.70,132.1,161110,,*19
$GPRMC,012702.000,A,3250.4323,N,11709.7812,W,57.78,132.2,161110,,*1E
$GPRMC,012705.000,A,3250.3994,N,11709.7384,W,58.88,132.2,161110,,*1C
$GPRMC,012708.000,A,3250.3670,N,11709.6956,W,57.92,131.8,161110,,*1D
$GPRMC,012711.000,A,3250.3359,N,11709.6505,W,59.78,128.3,161110,,*18
$GPRMC,012714.000,A,3250.3079,N,11709.6007,W,61.42,122.9,161110,,*19
$GPRMC,012717.000,A,3250.2837,N,11709.5480,W,59.54,117.4,161110,,*16
$GPRMC,012720.000,A,3250.2653,N,11709.4946,W,57.33,111.9,161110,,*1C
$GPRMC,012723.000,A,3250.2512,N,11709.4411,W,57.59,107.3,161110,,*17
$GPRMC,012726.000,A,3250.2411,N,11709.3855,W,57.85,101.8,161110,,*17
$GPRMC,012729.000,A,3250.2356,N,11709.3276,W,59.14,96.6,161110,,*20
$GPRMC,012732.000,A,3250.2355,N,11709.2697,W,57.52,90.4,161110,,*2B
$GPRMC,012735.000,A,3250.2404,N,11709.2132,W,56.51,84.6,161110,,*22
$GPRMC,012738.000,A,3250.2501,N,11709.1577,W,56.68,79.0,161110,,*23
$GPRMC,012741.000,A,3250.2611,N,11709.1039,W,55.51,76.8,161110,,*2E
$GPRMC,012744.000,A,3250.2726,N,11709.0505,W,56.05,76.2,161110,,*2D
$GPRMC,012747.000,A,3250.2845,N,11708.9961,W,56.53,76.2,161110,,*21
$GPRMC,012750.000,A,3250.2956,N,11708.9421,W,54.83,76.0,161110,,*20
$GPRMC,012753.000,A,3250.3064,N,11708.8922,W,48.49,76.7,161110,,*29
$GPRMC,012756.000,A,3250.3154,N,11708.8466,W,47.18,76.6,161110,,*29
$GPRMC,012759.000,A,3250.3248,N,11708.8012,W,46.35,76.7,161110,,*20
$GPRMC,012802.000,A,3250.3333,N,11708.7607,W,39.48,76.1,161110,,*25
$GPRMC,012805.000,A,3250.3411,N,11708.7242,W,37.39,75.5,161110,,*2F
$GPRMC,012808.000,A,3250.3487,N,11708.6897,W,34.48,75.6,161110,,*28
$GPRMC,012811.000,A,3250.3551,N,11708.6589,W,30.82,76.1,161110,,*2E
$GPRMC,012814.000,A,3250.3609,N,11708.6303,W,29.15,76.1,161110,,*27
$GPRMC,012817.000,A,3250.3663,N,11708.6027,W,29.47,76.2,161110,,*29
$GPRMC,012820.000,A,3250.3721,N,11708.5750,W,28.30,76.1,161110,,*2C
$GPRMC,012823.000,A,3250.3773,N,11708.5481,W,27.07,76.2,161110,,*2F
$GPRMC,012826.000,A,3250.3822,N,11708.5230,W,25.09,76.2,161110,,*21
$GPRMC,012829.000,A,3250.3875,N,11708.4984,W,25.81,76.2,161110,,*29
$GPRMC,012832.000,A,3250.3925,N,11708.4745,W,23.35,76.0,161110,,*2F
$GPRMC,012835.000,A,3250.3963,N,11708.4571,W,12.79,76.9,161110,,*2C
$GPRMC,012850.000,A,3250.3983,N,11708.4464,W,6.47,77.4,161110,,*10
$GPRMC,012853.000,A,3250.4003,N,11708.4383,W,10.61,74.7,161110,,*28
$GPRMC,012856.000,A,3250.4034,N,11708.4243,W,17.32,75.4,161110,,*27
$GPRMC,012859.000,A,3250.4076,N,11708.4051,W,21.68,74.8,161110,,*28
$GPRMC,012902.000,A,3250.4128,N,11708.3805,W,28.09,74.9,161110,,*2C
$GPRMC,012905.000,A,3250.4191,N,11708.3510,W,32.19,75.4,161110,,*26
$GPRMC,012908.000,A,3250.4251,N,11708.3194,W,31.26,76.7,161110,,*23
$GPRMC,012911.000,A,3250.4303,N,11708.2894,W,28.56,78.2,161110,,*21
$GPRMC,012914.000,A,3250.4347,N,11708.2629,W,24.95,79.7,161110,,*2B
$GPRMC,012917.000,A,3250.4378,N,11708.2401,W,22.24,80.9,161110,,*28
$GPRMC,012920.000,A,3250.4406,N,11708.2189,W,20.95,81.8,161110,,*2F
$GPRMC,012923.000,A,3250.4427,N,11708.2013,W,14.55,81.3,161110,,*2D
$GPRMC,012926.000,A,3250.4439,N,11708.1921,W,5.91,79.0,161110,,*10
$GPRMC,012938.000,A,3250.4452,N,11708.1782,W,4.61,78.4,161110,,*1E
$GPRMC,012941.000,A,3250.4456,N,11708.1735,W,4.92,78.4,161110,,*14
$GPRMC,012944.000,A,3250.4463,N,11708.1684,W,6.37,81.2,161110,,*11
$GPRMC,012947.000,A,3250.4470,N,11708.1623,W,7.17,82.3,161110,,*1C
$GPRMC,012950.000,A,3250.4481,N,11708.1540,W,8.88,82.2,161110,,*1A
$GPRMC,012953.000,A,3250.4490,N,11708.1445,W,10.79,82.1,161110,,*29
$GPRMC,012956.000,A,3250.4504,N,11708.1318,W,14.73,82.2,161110,,*22
$GPRMC,012959.000,A,3250.4520,N,11708.1172,W,14.79,82.2,161110,,*2F
$GPRMC,013002.000,A,3250.4537,N,11708.1033,W,12.01,81.9,161110,,*2A
$GPRMC,013005.000,A,3250.4550,N,11708.0938,W,7.54,82.9,161110,,*18
$GPRMC,013017.000,A,3250.4561,N,11708.0829,W,6.21,82.7,161110,,*15
$GPRMC,013020.000,A,3250.4566,N,11708.0766,W,6.64,82.2,161110,,*16
$GPRMC,013023.000,A,3250.4579,N,11708.0681,W,10.93,82.5,161110,,*2B
$GPRMC,013026.000,A,3250.4588,N,11708.0553,W,15.06,82.7,161110,,*27
$GPRMC,013029.000,A,3250.4605,N,11708.0384,W,19.27,82.0,161110,,*2A
$GPRMC,013032.000,A,3250.4627,N,11708.0185,W,21.43,82.0,161110,,*2A
$GPRMC,013035.000,A,3250.4654,N,11707.9976,W,20.32,81.8,161110,,*27
$GPRMC,013038.000,A,3250.4672,N,11707.9777,W,18.92,82.5,161110,,*2E
$GPRMC,013041.000,A,3250.4701,N,11707.9596,W,14.67,83.3,161110,,*29
$GPRMC,013044.000,A,3250.4708,N,11707.9497,W,7.45,83.8,161110,,*1C
$GPRMC,013056.000,A,3250.4717,N,11707.9448,W,5.63,83.8,161110,,*15
$GPRMC,013059.000,A,3250.4722,N,11707.9370,W,10.43,83.0,161110,,*2E
$GPRMC,013102.000,A,3250.4732,N,11707.9251,W,13.32,83.4,161110,,*23
$GPRMC,013105.000,A,3250.4746,N,11707.9116,W,14.48,82.8,161110,,*20
$GPRMC,013108.000,A,3250.4763,N,11707.8953,W,18.02,83.1,161110,,*28
$GPRMC,013111.000,A,3250.4783,N,11707.8790,W,15.11,83.2,161110,,*23
$GPRMC,013114.000,A,3250.4799,N,11707.8647,W,14.26,83.1,161110,,*20
$GPRMC,013117.000,A,3250.4813,N,11707.8488,W,17.38,83.0,161110,,*22
$GPRMC,013120.000,A,3250.4830,N,11707.8320,W,16.88,83.1,161110,,*29
$GPRMC,013123.000,A,3250.4843,N,11707.8168,W,14.34,83.2,161110,,*26
$GPRMC,013126.000,A,3250.4856,N,11707.8031,W,14.28,83.2,161110,,*27
$GPRMC,013129.000,A,3250.4868,N,11707.7888,W,14.49,83.5,161110,,*20
$GPRMC,013132.000,A,3250.4882,N,11707.7742,W,14.50,83.8,161110,,*22
$GPRMC,013135.000,A,3250.4893,N,11707.7600,W,14.25,84.3,161110,,*2C
$GPRMC,013138.000,A,3250.4902,N,11707.7481,W,10.63,84.5,161110,,*23
$GPRMC,013141.000,A,3250.4909,N,11707.7382,W,9.75,84.8,161110,,*10
$GPRMC,013144.000,A,3250.4916,N,11707.7292,W,8.72,84.7,161110,,*12
$GPRMC,013147.000,A,3250.4924,N,11707.7212,W,8.25,85.2,161110,,*1E
$GPRMC,013150.000,A,3250.4930,N,11707.7121,W,11.64,85.4,161110,,*25
$GPRMC,013153.000,A,3250.4940,N,11707.6992,W,14.34,85.9,161110,,*2D
$GPRMC,013156.000,A,3250.4949,N,11707.6846,W,16.34,85.8,161110,,*2A
$GPRMC,013159.000,A,3250.4956,N,11707.6684,W,17.32,86.9,161110,,*2E
$GPRMC,013202.000,A,3250.4964,N,11707.6512,W,16.14,87.2,161110,,*21
$GPRMC,013205.000,A,3250.4971,N,11707.6365,W,13.57,87.6,161110,,*22
$GPRMC,013208.000,A,3250.4973,N,11707.6247,W,10.02,88.3,161110,,*25
$GPRMC,013211.000,A,3250.4977,N,11707.6157,W,7.22,88.3,161110,,*1F
$GPRMC,013214.000,A,3250.4980,N,11707.6091,W,5.56,87.7,161110,,*13
$GPRMC,013217.000,A,3250.4983,N,11707.6046,W,4.82,87.7,161110,,*11
$GPRMC,013220.000,A,3250.4984,N,11707.5975,W,9.53,88.0,161110,,*11
$GPRMC,013223.000,A,3250.4988,N,11707.5862,W,12.59,88.1,161110,,*28
$GPRMC,013226.000,A,3250.4988,N,11707.5725,W,14.37,88.8,161110,,*26
$GPRMC,013229.000,A,3250.4989,N,11707.5578,W,14.87,89.2,161110,,*22
$GPRMC,013232.000,A,3250.4991,N,11707.5429,W,15.72,89.2,161110,,*2F
$GPRMC,013235.000,A,3250.4995,N,11707.5272,W,16.71,88.9,161110,,*2E
$GPRMC,013238.000,A,3250.4999,N,11707.5112,W,15.67,89.1,161110,,*27
$GPRMC,013241.000,A,3250.5001,N,11707.4968,W,13.51,89.1,161110,,*27
$GPRMC,013244.000,A,3250.5001,N,11707.4848,W,10.64,89.5,161110,,*20
$GPRMC,013247.000,A,3250.5002,N,11707.4745,W,10.42,88.9,161110,,*2B
$GPRMC,013250.000,A,3250.5005,N,11707.4632,W,13.74,88.8,161110,,*2C
$GPRMC,013253.000,A,3250.5006,N,11707.4479,W,16.26,89.6,161110,,*2C
$GPRMC,013256.000,A,3250.5007,N,11707.4312,W,16.57,89.6,161110,,*24
$GPRMC,013259.000,A,3250.5010,N,11707.4144,W,17.45,88.7,161110,,*2E
$GPRMC,013302.000,A,3250.5014,N,11707.3968,W,17.65,88.9,161110,,*28
$GPRMC,013305.000,A,3250.5016,N,11707.3794,W,16.86,89.2,161110,,*26
$GPRMC,013308.000,A,3250.5017,N,11707.3630,W,16.99,89.3,161110,,*2A
$GPRMC,013311.000,A,3250.5019,N,11707.3448,W,20.20,89.2,161110,,*27
$GPRMC,013314.000,A,3250.5024,N,11707.3241,W,20.97,89.4,161110,,*29
$GPRMC,013317.000,A,3250.5025,N,11707.3035,W,20.27,89.2,161110,,*27
$GPRMC,013320.000,A,3250.5029,N,11707.2833,W,21.29,89.1,161110,,*2C
$GPRMC,013323.000,A,3250.5035,N,11707.2618,W,21.98,89.2,161110,,*2C
$GPRMC,013326.000,A,3250.5037,N,11707.2383,W,24.64,89.0,161110,,*28
$GPRMC,013329.000,A,3250.5041,N,11707.2135,W,26.43,88.5,161110,,*2A
$GPRMC,013332.000,A,3250.5043,N,11707.1868,W,26.70,88.9,161110,,*2C
$GPRMC,013335.000,A,3250.5042,N,11707.1619,W,23.49,89.2,161110,,*27
$GPRMC,013338.000,A,3250.5045,N,11707.1396,W,22.87,88.9,161110,,*26
$GPRMC,013341.000,A,3250.5046,N,11707.1175,W,21.47,89.2,161110,,*21
$GPRMC,013344.000,A,3250.5047,N,11707.0971,W,20.58,89.1,161110,,*24
$GPRMC,013347.000,A,3250.5048,N,11707.0764,W,20.24,89.0,161110,,*28
$GPRMC,013350.000,A,3250.5053,N,11707.0569,W,19.45,88.8,161110,,*2F
$GPRMC,013353.000,A,3250.5054,N,11707.0363,W,21.79,89.0,161110,,*2A
$GPRMC,013356.000,A,3250.5055,N,11707.0127,W,25.31,89.0,161110,,*24
$GPRMC,013359.000,A,3250.5057,N,11706.9870,W,26.76,89.1,161110,,*2B
$GPRMC,013402.000,A,3250.5061,N,11706.9599,W,26.72,89.3,161110,,*2B
$GPRMC,013405.000,A,3250.5063,N,11706.9329,W,28.71,89.4,161110,,*29
$GPRMC,013408.000,A,3250.5067,N,11706.9029,W,31.81,88.9,161110,,*28
$GPRMC,013411.000,A,3250.5073,N,11706.8702,W,34.65,89.2,161110,,*2F
$GPRMC,013414.000,A,3250.5076,N,11706.8343,W,37.45,89.4,161110,,*29
$GPRMC,013417.000,A,3250.5074,N,11706.7980,W,34.45,90.2,161110,,*2F
$GPRMC,013420.000,A,3250.5067,N,11706.7661,W,30.73,91.4,161110,,*2F
$GPRMC,013423.000,A,3250.5060,N,11706.7368,W,29.75,91.8,161110,,*25
$GPRMC,013426.000,A,3250.5050,N,11706.7056,W,33.78,92.2,161110,,*22
$GPRMC,013429.000,A,3250.5035,N,11706.6701,W,38.16,92.7,161110,,*2C
$GPRMC,013432.000,A,3250.5019,N,11706.6311,W,40.26,92.7,161110,,*21
$GPRMC,013435.000,A,3250.5005,N,11706.5911,W,40.50,92.6,161110,,*22
$GPRMC,013438.000,A,3250.4990,N,11706.5506,W,40.78,92.6,161110,,*2B
$GPRMC,013441.000,A,3250.4979,N,11706.5098,W,42.23,92.7,161110,,*2D
$GPRMC,013444.000,A,3250.4962,N,11706.4674,W,44.02,92.5,161110,,*20
$GPRMC,013447.000,A,3250.4946,N,11706.4243,W,43.88,92.5,161110,,*20
$GPRMC,013450.000,A,3250.4929,N,11706.3799,W,44.85,92.6,161110,,*23
$GPRMC,013453.000,A,3250.4911,N,11706.3355,W,45.10,92.7,161110,,*23
$GPRMC,013456.000,A,3250.4891,N,11706.2891,W,47.71,92.8,161110,,*27
$GPRMC,013459.000,A,3250.4872,N,11706.2407,W,50.32,92.7,161110,,*28
$GPRMC,013502.000,A,3250.4851,N,11706.1895,W,52.54,92.6,161110,,*21
$GPRMC,013505.000,A,3250.4830,N,11706.1365,W,54.20,92.6,161110,,*20
$GPRMC,013508.000,A,3250.4809,N,11706.0820,W,55.34,92.7,161110,,*29
$GPRMC,013511.000,A,3250.4787,N,11706.0267,W,56.59,92.7,161110,,*29
$GPRMC,013514.000,A,3250.4767,N,11705.9703,W,57.45,92.6,161110,,*22
$GPRMC,013517.000,A,3250.4746,N,11705.9129,W,58.56,92.7,161110,,*20
$GPRMC,013520.000,A,3250.4723,N,11705.8542,W,59.65,92.7,161110,,*2E
$GPRMC,013523.000,A,3250.4709,N,11705.7965,W,57.97,91.4,161110,,*20
$GPRMC,013526.000,A,3250.4726,N,11705.7383,W,59.38,87.5,161110,,*27
$GPRMC,013529.000,A,3250.4780,N,11705.6804,W,58.29,82.7,161110,,*27
$GPRMC,013532.000,A,3250.4878,N,11705.6239,W,57.29,78.0,161110,,*2C
$GPRMC,013535.000,A,3250.4999,N,11705.5687,W,58.12,75.7,161110,,*2A
$GPRMC,013538.000,A,3250.5120,N,11705.5142,W,56.15,75.2,161110,,*2E
$GPRMC,013541.000,A,3250.5244,N,11705.4601,W,56.66,75.0,161110,,*26
$GPRMC,013544.000,A,3250.5364,N,11705.4060,W,56.80,75.2,161110,,*2B
$GPRMC,013547.000,A,3250.5482,N,11705.3523,W,56.14,75.3,161110,,*2E
$GPRMC,013550.000,A,3250.5603,N,11705.2986,W,56.13,75.0,161110,,*25
$GPRMC,013553.000,A,3250.5723,N,11705.2450,W,55.52,75.0,161110,,*25
$GPRMC,013556.000,A,3250.5843,N,11705.1918,W,55.49,75.1,161110,,*20
$GPRMC,013559.000,A,3250.5961,N,11705.1387,W,55.73,75.3,161110,,*29
$GPRMC,013602.000,A,3250.6080,N,11705.0853,W,55.98,74.8,161110,,*2D
$GPRMC,013605.000,A,3250.6216,N,11705.0324,W,56.14,72.4,161110,,*21
$GPRMC,013608.000,A,3250.6377,N,11704.9800,W,56.23,69.1,161110,,*24
$GPRMC,013611.000,A,3250.6564,N,11704.9288,W,56.35,66.0,161110,,*2B
$GPRMC,013614.000,A,3250.6774,N,11704.8788,W,56.38,62.7,161110,,*27
$GPRMC,013617.000,A,3250.7010,N,11704.8299,W,56.32,59.5,161110,,*25
$GPRMC,013620.000,A,3250.7266,N,11704.7832,W,56.40,56.6,161110,,*2F
$GPRMC,013623.000,A,3250.7546,N,11704.7382,W,56.41,53.0,161110,,*2B
$GPRMC,013626.000,A,3250.7849,N,11704.6952,W,56.51,49.8,161110,,*28
$GPRMC,013629.000,A,3250.8160,N,11704.6540,W,56.76,47.9,161110,,*2F
$GPRMC,013632.000,A,3250.8490,N,11704.6124,W,58.67,47.4,161110,,*2A
$GPRMC,013635.000,A,3250.8832,N,11704.5694,W,60.13,47.3,161110,,*29
$GPRMC,013638.000,A,3250.9167,N,11704.5263,W,57.37,47.4,161110,,*25
$GPRMC,013641.000,A,3250.9490,N,11704.4845,W,57.54,47.3,161110,,*2B
$GPRMC,013644.000,A,3250.9821,N,11704.4422,W,58.20,47.3,161110,,*29
$GPRMC,013647.000,A,3251.0139,N,11704.4016,W,53.75,47.4,161110,,*2D
$GPRMC,013650.000,A,3251.0423,N,11704.3656,W,46.22,47.0,161110,,*22
$GPRMC,013653.000,A,3251.0669,N,11704.3346,W,40.67,46.9,161110,,*26
$GPRMC,013656.000,A,3251.0884,N,11704.3065,W,36.62,47.6,161110,,*26
$GPRMC,013659.000,A,3251.1060,N,11704.2825,W,29.45,49.3,161110,,*27
$GPRMC,013702.000,A,3251.1208,N,11704.2614,W,27.94,50.8,161110,,*29
$GPRMC,013705.000,A,3251.1351,N,11704.2400,W,26.64,52.9,161110,,*29
$GPRMC,013708.000,A,3251.1484,N,11704.2176,W,30.02,54.7,161110,,*20
$GPRMC,013711.000,A,3251.1628,N,11704.1909,W,33.95,56.7,161110,,*20
$GPRMC,013714.000,A,3251.1770,N,11704.1620,W,33.50,59.0,161110,,*2C
$GPRMC,013717.000,A,3251.1910,N,11704.1315,W,36.92,61.0,161110,,*24
$GPRMC,013720.000,A,3251.2053,N,11704.0981,W,38.55,63.5,161110,,*29
$GPRMC,013723.000,A,3251.2189,N,11704.0627,W,40.19,66.3,161110,,*2B
$GPRMC,013726.000,A,3251.2318,N,11704.0253,W,42.10,68.7,161110,,*22
$GPRMC,013729.000,A,3251.2434,N,11703.9850,W,44.34,71.7,161110,,*2B
$GPRMC,013732.000,A,3251.2543,N,11703.9414,W,47.03,74.5,161110,,*2C
$GPRMC,013735.000,A,3251.2631,N,11703.8950,W,48.16,77.6,161110,,*2A
$GPRMC,013738.000,A,3251.2696,N,11703.8490,W,46.37,80.6,161110,,*2E
$GPRMC,013741.000,A,3251.2740,N,11703.8040,W,45.68,83.6,161110,,*29
$GPRMC,013744.000,A,3251.2765,N,11703.7589,W,45.75,86.6,161110,,*2D
$GPRMC,013747.000,A,3251.2770,N,11703.7132,W,46.02,89.7,161110,,*23
$GPRMC,013750.000,A,3251.2755,N,11703.6675,W,46.57,92.8,161110,,*22
$GPRMC,013753.000,A,3251.2721,N,11703.6211,W,47.23,95.5,161110,,*2C
$GPRMC,013756.000,A,3251.2667,N,11703.5762,W,43.63,98.5,161110,,*25
$GPRMC,013759.000,A,3251.2603,N,11703.5343,W,43.17,100.3,161110,,*1A
$GPRMC,013802.000,A,3251.2540,N,11703.4924,W,42.28,100.0,161110,,*1B
$GPRMC,013805.000,A,3251.2477,N,11703.4514,W,42.18,99.9,161110,,*2D
$GPRMC,013808.000,A,3251.2411,N,11703.4099,W,42.85,100.1,161110,,*1D
$GPRMC,013811.000,A,3251.2345,N,11703.3669,W,45.12,100.1,161110,,*14
$GPRMC,013814.000,A,3251.2281,N,11703.3231,W,46.03,100.1,161110,,*12
$GPRMC,013817.000,A,3251.2213,N,11703.2781,W,46.69,100.1,161110,,*19
$GPRMC,013820.000,A,3251.2146,N,11703.2325,W,47.37,99.9,161110,,*27
$GPRMC,013823.000,A,3251.2078,N,11703.1852,W,49.04,99.8,161110,,*2F
$GPRMC,013826.000,A,3251.2010,N,11703.1394,W,44.85,100.0,161110,,*18
$GPRMC,013829.000,A,3251.1945,N,11703.0960,W,45.40,100.0,161110,,*15
$GPRMC,013832.000,A,3251.1875,N,11703.0502,W,49.02,100.0,161110,,*1F
$GPRMC,013835.000,A,3251.1802,N,11703.0011,W,51.18,100.0,161110,,*1D
$GPRMC,013838.000,A,3251.1723,N,11702.9508,W,51.71,100.2,161110,,*14
$GPRMC,013841.000,A,3251.1649,N,11702.9001,W,52.25,99.8,161110,,*22
$GPRMC,013844.000,A,3251.1576,N,11702.8486,W,53.50,99.5,161110,,*2C
$GPRMC,013847.000,A,3251.1503,N,11702.7965,W,51.33,99.4,161110,,*24
$GPRMC,013850.000,A,3251.1455,N,11702.7561,W,33.94,98.6,161110,,*22
$GPRMC,013853.000,A,3251.1420,N,11702.7308,W,23.24,98.9,161110,,*2F
$GPRMC,013856.000,A,3251.1389,N,11702.7113,W,19.66,99.8,161110,,*29
$GPRMC,013859.000,A,3251.1358,N,11702.6924,W,20.96,99.8,161110,,*22
$GPRMC,013902.000,A,3251.1323,N,11702.6720,W,19.60,100.4,161110,,*15
$GPRMC,013905.000,A,3251.1302,N,11702.6580,W,13.43,99.9,161110,,*2E
$GPRMC,013908.000,A,3251.1278,N,11702.6434,W,17.28,99.9,161110,,*28
$GPRMC,013911.000,A,3251.1254,N,11702.6266,W,18.28,100.0,161110,,*18
$GPRMC,013914.000,A,3251.1223,N,11702.6062,W,23.69,100.2,161110,,*14
$GPRMC,013917.000,A,3251.1185,N,11702.5807,W,29.53,99.5,161110,,*25
$GPRMC,013920.000,A,3251.1140,N,11702.5504,W,32.09,99.6,161110,,*20
$GPRMC,013923.000,A,3251.1088,N,11702.5179,W,34.18,100.2,161110,,*1B
$GPRMC,013926.000,A,3251.1036,N,11702.4847,W,33.66,100.6,161110,,*14
$GPRMC,013929.000,A,3251.0984,N,11702.4522,W,33.00,100.7,161110,,*15
$GPRMC,013932.000,A,3251.0932,N,11702.4205,W,33.80,100.8,161110,,*17
$GPRMC,013935.000,A,3251.0874,N,11702.3851,W,38.50,100.6,161110,,*17
$GPRMC,013938.000,A,3251.0814,N,11702.3467,W,40.07,100.2,161110,,*1C
$GPRMC,013941.000,A,3251.0752,N,11702.3063,W,43.21,100.1,161110,,*1B
$GPRMC,013944.000,A,3251.0690,N,11702.2643,W,44.48,100.0,161110,,*1D
$GPRMC,013947.000,A,3251.0626,N,11702.2189,W,48.04,99.9,161110,,*2E
$GPRMC,013950.000,A,3251.0559,N,11702.1716,W,48.68,99.9,161110,,*2A
$GPRMC,013953.000,A,3251.0484,N,11702.1236,W,49.24,100.8,161110,,*16
$GPRMC,013956.000,A,3251.0396,N,11702.0786,W,44.55,103.5,161110,,*1D
$GPRMC,013959.000,A,3251.0297,N,11702.0390,W,40.53,106.9,161110,,*1A
$GPRMC,014002.000,A,3251.0191,N,11702.0034,W,35.65,110.0,161110,,*1B
$GPRMC,014005.000,A,3251.0084,N,11701.9732,W,30.20,112.7,161110,,*13
$GPRMC,014008.000,A,3250.9990,N,11701.9503,W,21.36,115.2,161110,,*1F
$GPRMC,014011.000,A,3250.9914,N,11701.9334,W,19.08,117.0,161110,,*1F
$GPRMC,014014.000,A,3250.9842,N,11701.9169,W,19.00,117.6,161110,,*1C
$GPRMC,014017.000,A,3250.9768,N,11701.9008,W,18.65,118.8,161110,,*1D
$GPRMC,014020.000,A,3250.9702,N,11701.8874,W,14.21,120.6,161110,,*1E
$GPRMC,014023.000,A,3250.9649,N,11701.8761,W,12.46,121.1,161110,,*19
$GPRMC,014026.000,A,3250.9583,N,11701.8641,W,16.94,122.0,161110,,*13
$GPRMC,014029.000,A,3250.9505,N,11701.8499,W,17.22,123.7,161110,,*1F
$GPRMC,014032.000,A,3250.9426,N,11701.8373,W,13.98,125.3,161110,,*11
$GPRMC,014035.000,A,3250.9373,N,11701.8287,W,8.58,125.2,161110,,*2C
$GPRMC,014038.000,A,3250.9329,N,11701.8218,W,9.39,125.8,161110,,*24
$GPRMC,014041.000,A,3250.9273,N,11701.8131,W,12.01,126.9,161110,,*1F
$GPRMC,014044.000,A,3250.9203,N,11701.8027,W,14.84,128.2,161110,,*15
$GPRMC,014047.000,A,3250.9119,N,11701.7901,W,17.96,128.8,161110,,*16
$GPRMC,014050.000,A,3250.9011,N,11701.7752,W,20.43,130.5,161110,,*19
$GPRMC,014053.000,A,3250.8896,N,11701.7598,W,20.58,132.2,161110,,*17
$GPRMC,014056.000,A,3250.8779,N,11701.7449,W,21.17,133.9,161110,,*11
$GPRMC,014059.000,A,3250.8651,N,11701.7300,W,22.14,135.4,161110,,*14
$GPRMC,014102.000,A,3250.8513,N,11701.7151,W,22.85,137.0,161110,,*16
$GPRMC,014105.000,A,3250.8378,N,11701.7010,W,19.19,138.5,161110,,*19
$GPRMC,014108.000,A,3250.8268,N,11701.6900,W,16.33,139.9,161110,,*17
$GPRMC,014111.000,A,3250.8173,N,11701.6808,W,14.41,141.1,161110,,*1F
$GPRMC,014114.000,A,3250.8076,N,11701.6721,W,14.63,142.8,161110,,*10
$GPRMC,014117.000,A,3250.7974,N,11701.6636,W,15.90,144.0,161110,,*13
$GPRMC,014120.000,A,3250.7865,N,11701.6547,W,16.05,145.1,161110,,*1C
$GPRMC,014123.000,A,3250.7750,N,11701.6453,W,17.20,146.5,161110,,*13
$GPRMC,014126.000,A,3250.7638,N,11701.6369,W,13.94,147.6,161110,,*1E
$GPRMC,014129.000,A,3250.7539,N,11701.6298,W,15.40,148.5,161110,,*1F
$GPRMC,014132.000,A,3250.7429,N,11701.6218,W,16.33,150.2,161110,,*14
$GPRMC,014135.000,A,3250.7314,N,11701.6141,W,14.91,151.2,161110,,*1E
$GPRMC,014138.000,A,3250.7197,N,11701.6067,W,18.02,152.0,161110,,*18
$GPRMC,014141.000,A,3250.7041,N,11701.5970,W,23.20,152.8,161110,,*10
$GPRMC,014144.000,A,3250.6851,N,11701.5861,W,26.93,154.0,161110,,*1F
$GPRMC,014147.000,A,3250.6635,N,11701.5734,W,31.21,154.4,161110,,*14
$GPRMC,014150.000,A,3250.6382,N,11701.5589,W,35.81,154.2,161110,,*17
$GPRMC,014153.000,A,3250.6102,N,11701.5429,W,37.90,154.2,161110,,*17
$GPRMC,014156.000,A,3250.5816,N,11701.5264,W,37.68,154.3,161110,,*14
$GPRMC,014159.000,A,3250.5541,N,11701.5108,W,36.23,154.6,161110,,*16
$GPRMC,014202.000,A,3250.5265,N,11701.4955,W,35.31,154.4,161110,,*19
$GPRMC,014205.000,A,3250.5005,N,11701.4811,W,33.66,154.4,161110,,*1F
$GPRMC,014208.000,A,3250.4754,N,11701.4669,W,32.91,154.5,161110,,*19
$GPRMC,014211.000,A,3250.4500,N,11701.4527,W,34.55,154.3,161110,,*13
$GPRMC,014214.000,A,3250.4234,N,11701.4378,W,35.66,154.4,161110,,*1C
$GPRMC,014217.000,A,3250.3970,N,11701.4226,W,34.40,154.1,161110,,*19
$GPRMC,014220.000,A,3250.3726,N,11701.4092,W,30.28,154.4,161110,,*12
$GPRMC,014223.000,A,3250.3485,N,11701.3945,W,34.70,152.6,161110,,*12
$GPRMC,014226.000,A,3250.3218,N,11701.3757,W,39.37,148.3,161110,,*18
$GPRMC,014229.000,A,3250.2955,N,11701.3529,W,39.36,143.0,161110,,*16
$GPRMC,014232.000,A,3250.2712,N,11701.3278,W,36.92,138.0,161110,,*1F
$GPRMC,014235.000,A,3250.2511,N,11701.3030,W,32.10,133.0,161110,,*12
$GPRMC,014238.000,A,3250.2349,N,11701.2799,W,29.56,129.0,161110,,*12
$GPRMC,014241.000,A,3250.2203,N,11701.2553,W,31.01,124.9,161110,,*18
$GPRMC,014244.000,A,3250.2076,N,11701.2303,W,27.63,120.3,161110,,*13
$GPRMC,014247.000,A,3250.1980,N,11701.2080,W,22.63,117.0,161110,,*19
$GPRMC,014250.000,A,3250.1912,N,11701.1897,W,18.93,114.2,161110,,*1E
$GPRMC,014253.000,A,3250.1854,N,11701.1729,W,19.82,111.5,161110,,*17
$GPRMC,014256.000,A,3250.1795,N,11701.1521,W,24.22,108.2,161110,,*11
$GPRMC,014259.000,A,3250.1738,N,11701.1273,W,26.35,105.1,161110,,*13
$GPRMC,014302.000,A,3250.1693,N,11701.1015,W,26.44,101.3,161110,,*1E
$GPRMC,014305.000,A,3250.1659,N,11701.0744,W,28.58,97.7,161110,,*24
$GPRMC,014308.000,A,3250.1637,N,11701.0462,W,28.68,94.9,161110,,*28
$GPRMC,014311.000,A,3250.1626,N,11701.0185,W,27.93,94.0,161110,,*2E
$GPRMC,014314.000,A,3250.1611,N,11700.9903,W,29.41,93.6,161110,,*21
$GPRMC,014317.000,A,3250.1595,N,11700.9594,W,32.92,93.8,161110,,*25
$GPRMC,014320.000,A,3250.1576,N,11700.9246,W,37.27,93.8,161110,,*2F
$GPRMC,014323.000,A,3250.1555,N,11700.8858,W,41.41,94.1,161110,,*26
$GPRMC,014326.000,A,3250.1529,N,11700.8428,W,45.09,94.0,161110,,*2A
$GPRMC,014329.000,A,3250.1505,N,11700.7984,W,44.87,93.2,161110,,*2D
$GPRMC,014332.000,A,3250.1497,N,11700.7530,W,47.18,90.1,161110,,*2B
$GPRMC,014335.000,A,3250.1518,N,11700.7052,W,49.24,86.1,161110,,*2D
$GPRMC,014338.000,A,3250.1576,N,11700.6572,W,48.94,80.9,161110,,*2A
$GPRMC,014341.000,A,3250.1656,N,11700.6086,W,51.93,78.3,161110,,*29
$GPRMC,014344.000,A,3250.1748,N,11700.5575,W,54.11,78.1,161110,,*25
$GPRMC,014347.000,A,3250.1834,N,11700.5042,W,53.87,79.3,161110,,*28
$GPRMC,014350.000,A,3250.1884,N,11700.4522,W,51.96,85.0,161110,,*25
$GPRMC,014353.000,A,3250.1876,N,11700.4022,W,50.18,91.1,161110,,*2D
$GPRMC,014356.000,A,3250.1808,N,11700.3528,W,51.52,101.4,161110,,*1B
$GPRMC,014359.000,A,3250.1624,N,11700.3060,W,52.52,116.5,161110,,*19
$GPRMC,014402.000,A,3250.1332,N,11700.2670,W,53.04,132.9,161110,,*1C
$GPRMC,014405.000,A,3250.0961,N,11700.2386,W,51.39,147.9,161110,,*14
$GPRMC,014408.000,A,3250.0554,N,11700.2227,W,51.15,162.5,161110,,*1C
$GPRMC,014411.000,A,3250.0122,N,11700.2172,W,50.55,172.3,161110,,*10
$GPRMC,014414.000,A,3249.9709,N,11700.2152,W,47.79,175.7,161110,,*12
$GPRMC,014417.000,A,3249.9299,N,11700.2146,W,48.49,178.2,161110,,*1C
$GPRMC,014420.000,A,3249.8895,N,11700.2135,W,47.20,177.0,161110,,*16
$GPRMC,014423.000,A,3249.8506,N,11700.2116,W,46.79,177.7,161110,,*19
$GPRMC,014426.000,A,3249.8104,N,11700.2100,W,49.61,177.9,161110,,*15
$GPRMC,014429.000,A,3249.7674,N,11700.2079,W,52.64,177.9,161110,,*15
$GPRMC,014432.000,A,3249.7232,N,11700.2077,W,53.03,179.2,161110,,*12
$GPRMC,014435.000,A,3249.6789,N,11700.2070,W,53.57,179.5,161110,,*10
$GPRMC,014438.000,A,3249.6332,N,11700.2067,W,55.69,179.5,161110,,*14
$GPRMC,014441.000,A,3249.5844,N,11700.2046,W,61.54,177.5,161110,,*17
$GPRMC,014444.000,A,3249.5323,N,11700.1992,W,63.15,174.3,161110,,*19
$GPRMC,014447.000,A,3249.4804,N,11700.1896,W,61.92,170.3,161110,,*19
$GPRMC,014450.000,A,3249.4303,N,11700.1760,W,61.11,166.9,161110,,*13
$GPRMC,014453.000,A,3249.3806,N,11700.1586,W,61.56,163.3,161110,,*1F
$GPRMC,014456.000,A,3249.3315,N,11700.1392,W,61.50,161.8,161110,,*1F
$GPRMC,014459.000,A,3249.2829,N,11700.1199,W,60.98,161.5,161110,,*14
$GPRMC,014502.000,A,3249.2352,N,11700.1008,W,60.11,162.0,161110,,*12
$GPRMC,014505.000,A,3249.1864,N,11700.0853,W,60.45,166.1,161110,,*1B
$GPRMC,014508.000,A,3249.1380,N,11700.0755,W,58.00,171.1,161110,,*12
$GPRMC,014511.000,A,3249.0902,N,11700.0718,W,57.64,176.5,161110,,*1C
$GPRMC,014514.000,A,3249.0428,N,11700.0735,W,56.15,181.7,161110,,*1E
$GPRMC,014517.000,A,3248.9975,N,11700.0804,W,54.47,187.1,161110,,*18
$GPRMC,014520.000,A,3248.9540,N,11700.0921,W,51.78,192.7,161110,,*1B
$GPRMC,014523.000,A,3248.9145,N,11700.1070,W,47.12,197.6,161110,,*1A
$GPRMC,014526.000,A,3248.8804,N,11700.1243,W,42.36,202.7,161110,,*1D
$GPRMC,014529.000,A,3248.8497,N,11700.1439,W,42.21,207.2,161110,,*19
$GPRMC,014532.000,A,3248.8201,N,11700.1645,W,40.81,209.7,161110,,*10
$GPRMC,014535.000,A,3248.7906,N,11700.1854,W,42.17,210.2,161110,,*1A
$GPRMC,014538.000,A,3248.7594,N,11700.2072,W,44.58,209.7,161110,,*1F
$GPRMC,014541.000,A,3248.7246,N,11700.2310,W,50.86,209.2,161110,,*1D
$GPRMC,014544.000,A,3248.6873,N,11700.2557,W,51.10,209.3,161110,,*1F
$GPRMC,014547.000,A,3248.6491,N,11700.2785,W,52.25,205.7,161110,,*1C
$GPRMC,014550.000,A,3248.6079,N,11700.3000,W,55.64,202.2,161110,,*13
$GPRMC,014553.000,A,3248.5625,N,11700.3176,W,58.98,197.1,161110,,*1E
$GPRMC,014556.000,A,3248.5139,N,11700.3297,W,60.08,191.4,161110,,*1C
$GPRMC,014559.000,A,3248.4634,N,11700.3370,W,61.11,186.5,161110,,*1E
$GPRMC,014602.000,A,3248.4112,N,11700.3396,W,62.78,181.9,161110,,*1F
$GPRMC,014605.000,A,3248.3581,N,11700.3394,W,63.73,180.4,161110,,*15
$GPRMC,014608.000,A,3248.3055,N,11700.3392,W,63.17,180.2,161110,,*16
$GPRMC,014611.000,A,3248.2523,N,11700.3391,W,63.70,180.1,161110,,*1A
$GPRMC,014614.000,A,3248.1994,N,11700.3388,W,62.75,179.9,161110,,*1E
$GPRMC,014617.000,A,3248.1472,N,11700.3385,W,62.01,180.1,161110,,*18
$GPRMC,014620.000,A,3248.0948,N,11700.3388,W,62.47,180.1,161110,,*16
$GPRMC,014623.000,A,3248.0427,N,11700.3388,W,62.02,180.1,161110,,*10
$GPRMC,014626.000,A,3247.9909,N,11700.3388,W,62.24,180.0,161110,,*17
$GPRMC,014629.000,A,3247.9399,N,11700.3387,W,58.77,180.1,161110,,*1A
$GPRMC,014632.000,A,3247.8914,N,11700.3388,W,58.42,180.3,161110,,*15
$GPRMC,014635.000,A,3247.8427,N,11700.3391,W,58.25,180.2,161110,,*17
$GPRMC,014638.000,A,3247.7942,N,11700.3395,W,57.93,181.1,161110,,*1F
$GPRMC,014641.000,A,3247.7460,N,11700.3423,W,57.50,183.2,161110,,*18
$GPRMC,014644.000,A,3247.6969,N,11700.3480,W,60.26,186.0,161110,,*13
$GPRMC,014647.000,A,3247.6470,N,11700.3566,W,60.49,188.7,161110,,*1C
$GPRMC,014650.000,A,3247.5972,N,11700.3674,W,59.73,190.0,161110,,*1B
$GPRMC,014653.000,A,3247.5480,N,11700.3778,W,59.91,189.8,161110,,*19
$GPRMC,014656.000,A,3247.4985,N,11700.3865,W,59.57,188.1,161110,,*14
$GPRMC,014659.000,A,3247.4493,N,11700.3930,W,58.63,186.2,161110,,*1B
$GPRMC,014702.000,A,3247.3998,N,11700.3969,W,61.10,183.6,161110,,*16
$GPRMC,014705.000,A,3247.3473,N,11700.3988,W,63.91,181.8,161110,,*11
$GPRMC,014708.000,A,3247.2934,N,11700.3987,W,64.79,179.4,161110,,*16
$GPRMC,014711.000,A,3247.2391,N,11700.3953,W,64.41,175.5,161110,,*14
$GPRMC,014714.000,A,3247.1865,N,11700.3887,W,63.35,174.1,161110,,*1B
$GPRMC,014717.000,A,3247.1352,N,11700.3799,W,60.48,171.4,161110,,*1E
$GPRMC,014720.000,A,3247.0861,N,11700.3680,W,59.01,167.8,161110,,*15
$GPRMC,014723.000,A,3247.0392,N,11700.3536,W,56.09,166.0,161110,,*11
$GPRMC,014726.000,A,3246.9951,N,11700.3389,W,53.23,165.2,161110,,*17
$GPRMC,014729.000,A,3246.9530,N,11700.3256,W,51.69,165.4,161110,,*1A
$GPRMC,014732.000,A,3246.9110,N,11700.3125,W,52.20,165.4,161110,,*1F
$GPRMC,014735.000,A,3246.8693,N,11700.2990,W,49.85,165.0,161110,,*13
$GPRMC,014738.000,A,3246.8300,N,11700.2865,W,47.26,165.0,161110,,*1D
$GPRMC,014741.000,A,3246.7938,N,11700.2747,W,42.35,165.0,161110,,*15
$GPRMC,014744.000,A,3246.7622,N,11700.2649,W,36.78,165.6,161110,,*17
$GPRMC,014747.000,A,3246.7335,N,11700.2560,W,35.59,165.3,161110,,*1A
$GPRMC,014750.000,A,3246.7037,N,11700.2466,W,37.52,165.4,161110,,*14
$GPRMC,014753.000,A,3246.6716,N,11700.2376,W,40.99,167.1,161110,,*14
$GPRMC,014756.000,A,3246.6372,N,11700.2293,W,42.56,168.1,161110,,*13
$GPRMC,014759.000,A,3246.6027,N,11700.2220,W,41.30,169.9,161110,,*1D
$GPRMC,014802.000,A,3246.5689,N,11700.2186,W,40.06,177.0,161110,,*10
$GPRMC,014805.000,A,3246.5363,N,11700.2217,W,39.13,183.4,161110,,*18
$GPRMC,014808.000,A,3246.5036,N,11700.2197,W,38.83,173.2,161110,,*1C
$GPRMC,014811.000,A,3246.4727,N,11700.2060,W,37.89,160.6,161110,,*18
$GPRMC,014814.000,A,3246.4461,N,11700.1927,W,30.30,159.9,161110,,*15
$GPRMC,014817.000,A,3246.4269,N,11700.1846,W,19.22,161.8,161110,,*1C
$GPRMC,014820.000,A,3246.4160,N,11700.1813,W,10.53,168.5,161110,,*19
$GPRMC,014823.000,A,3246.4111,N,11700.1818,W,5.78,201.8,161110,,*2B
$GPRMC,014826.000,A,3246.4055,N,11700.1926,W,16.70,248.3,161110,,*1F
$GPRMC,014829.000,A,3246.4055,N,11700.2155,W,26.07,267.5,161110,,*17
$GPRMC,014832.000,A,3246.4054,N,11700.2443,W,27.01,267.5,161110,,*19
$GPRMC,014835.000,A,3246.4048,N,11700.2677,W,18.85,268.2,161110,,*1E
$GPRMC,014838.000,A,3246.4052,N,11700.2820,W,10.89,271.5,161110,,*1F
