NMEA Sentence Code,UTC Time,Status,Latitude,Latitude Direction,Longitude,Longitude Direction,Speed (knots),Track Angle (degrees true),Date,MagneticVariation,Magnetic Variation Direction,[FAA Mode]-Optional,Checksum
$GPRMC,183830.6,A,3337.061726,N,11749.203972,W,66.8,153.0,080310,,,A*49
$GPRMC,183833.6,A,3337.009342,N,11749.176758,W,67.1,157.9,080310,,,A*40
$GPRMC,183836.6,A,3336.956544,N,11749.150561,W,67.4,158.1,080310,,,A*49
$GPRMC,183839.6,A,3336.903265,N,11749.125008,W,67.2,157.8,080310,,,A*4A
$GPRMC,183842.6,A,3336.851726,N,11749.102021,W,64.6,155.3,080310,,,A*42
$GPRMC,183845.6,A,3336.803772,N,11749.073554,W,64.8,150.2,080310,,,A*49
$GPRMC,183848.6,A,3336.760553,N,11749.037604,W,64.4,141.3,080310,,,A*44
$GPRMC,183851.6,A,3336.720078,N,11748.994992,W,63.6,137.1,080310,,,A*43
$GPRMC,183854.6,A,3336.683830,N,11748.949229,W,63.6,130.6,080310,,,A*41
$GPRMC,183857.6,A,3336.652557,N,11748.900098,W,63.1,124.1,080310,,,A*42
$GPRMC,183900.6,A,3336.624716,N,11748.846266,W,64.3,119.5,080310,,,A*48
$GPRMC,183903.6,A,3336.601620,N,11748.787585,W,65.9,113.4,080310,,,A*40
$GPRMC,183906.6,A,3336.586010,N,11748.722762,W,66.7,106.4,080310,,,A*41
$GPRMC,183909.6,A,3336.573837,N,11748.659014,W,65.9,103.3,080310,,,A*4D
$GPRMC,183912.6,A,3336.559160,N,11748.597620,W,64.8,103.3,080310,,,A*44
$GPRMC,183915.6,A,3336.550901,N,11748.527265,W,68.3,99.7,080310,,,A*7A
$GPRMC,183918.6,A,3336.543466,N,11748.459288,W,68.1,99.5,080310,,,A*72
$GPRMC,183921.6,A,3336.533262,N,11748.392711,W,67.4,100.6,080310,,,A*40
$GPRMC,183924.6,A,3336.518972,N,11748.328134,W,66.7,106.5,080310,,,A*41
$GPRMC,183927.6,A,3336.498700,N,11748.265540,W,67.8,113.4,080310,,,A*44
$GPRMC,183930.6,A,3336.474947,N,11748.203424,W,68.2,115.1,080310,,,A*48
$GPRMC,183933.6,A,3336.451972,N,11748.141024,W,66.0,114.7,080310,,,A*40
$GPRMC,183936.6,A,3336.428964,N,11748.081291,W,64.8,115.2,080310,,,A*43
$GPRMC,183939.6,A,3336.406274,N,11748.023049,W,64.0,115.3,080310,,,A*4C
$GPRMC,183942.6,A,3336.384279,N,11747.965503,W,63.2,114.3,080310,,,A*4B
$GPRMC,183945.6,A,3336.362564,N,11747.909174,W,62.2,114.9,080310,,,A*4A
$GPRMC,183948.6,A,3336.340263,N,11747.852108,W,63.6,114.9,080310,,,A*46
$GPRMC,183951.6,A,3336.317741,N,11747.792859,W,64.2,114.4,080310,,,A*49
$GPRMC,183954.6,A,3336.295848,N,11747.735683,W,63.0,114.6,080310,,,A*42
$GPRMC,183957.6,A,3336.274179,N,11747.678173,W,63.7,114.8,080310,,,A*4C
$GPRMC,184000.6,A,3336.252952,N,11747.620669,W,63.3,114.4,080310,,,A*4C
$GPRMC,184003.6,A,3336.230020,N,11747.563688,W,63.0,115.1,080310,,,A*4B
$GPRMC,184006.6,A,3336.206598,N,11747.505944,W,63.6,115.0,080310,,,A*45
$GPRMC,184009.6,A,3336.184848,N,11747.448139,W,63.8,114.5,080310,,,A*43
$GPRMC,184012.6,A,3336.163674,N,11747.388828,W,65.5,110.5,080310,,,A*4C
$GPRMC,184015.6,A,3336.150300,N,11747.326292,W,65.3,103.9,080310,,,A*4A
$GPRMC,184018.6,A,3336.141470,N,11747.262352,W,65.7,98.3,080310,,,A*76
$GPRMC,184021.6,A,3336.135663,N,11747.197095,W,66.4,96.4,080310,,,A*77
$GPRMC,184024.6,A,3336.128932,N,11747.131563,W,66.8,97.3,080310,,,A*7F
$GPRMC,184027.6,A,3336.120013,N,11747.065713,W,67.2,99.9,080310,,,A*74
$GPRMC,184030.6,A,3336.106223,N,11746.998703,W,67.9,104.1,080310,,,A*4A
$GPRMC,184033.6,A,3336.087679,N,11746.933902,W,67.8,109.3,080310,,,A*4A
$GPRMC,184036.6,A,3336.066142,N,11746.872636,W,67.3,114.4,080310,,,A*43
$GPRMC,184039.6,A,3336.038694,N,11746.813711,W,67.1,119.1,080310,,,A*42
$GPRMC,184042.6,A,3336.008647,N,11746.755414,W,67.5,120.9,080310,,,A*4E
$GPRMC,184045.6,A,3335.980797,N,11746.697695,W,66.9,119.5,080310,,,A*40
$GPRMC,184048.6,A,3335.957155,N,11746.639068,W,65.4,112.9,080310,,,A*46
$GPRMC,184051.6,A,3335.938825,N,11746.578107,W,65.0,108.5,080310,,,A*44
$GPRMC,184054.6,A,3335.926965,N,11746.515637,W,65.2,102.0,080310,,,A*49
$GPRMC,184057.6,A,3335.922314,N,11746.451354,W,64.7,96.1,080310,,,A*7A
$GPRMC,184100.6,A,3335.921220,N,11746.390484,W,64.7,94.2,080310,,,A*7D
$GPRMC,184103.6,A,3335.915532,N,11746.327564,W,64.3,95.2,080310,,,A*7B
$GPRMC,184106.6,A,3335.908281,N,11746.266185,W,62.1,98.9,080310,,,A*70
$GPRMC,184109.6,A,3335.896725,N,11746.204453,W,61.1,103.7,080310,,,A*46
$GPRMC,184112.6,A,3335.879090,N,11746.148399,W,59.3,111.3,080310,,,A*40
$GPRMC,184115.6,A,3335.856190,N,11746.097609,W,58.1,117.2,080310,,,A*40
$GPRMC,184118.6,A,3335.828800,N,11746.049600,W,58.7,123.3,080310,,,A*4E
$GPRMC,184121.6,A,3335.799269,N,11746.003536,W,58.4,129.4,080310,,,A*42
$GPRMC,184124.6,A,3335.767229,N,11745.959416,W,57.6,134.7,080310,,,A*46
$GPRMC,184127.6,A,3335.735639,N,11745.919341,W,53.5,132.2,080310,,,A*42
$GPRMC,184130.6,A,3335.709014,N,11745.881045,W,48.7,130.6,080310,,,A*4B
$GPRMC,184133.6,A,3335.683543,N,11745.845192,W,46.4,130.1,080310,,,A*45
$GPRMC,184136.6,A,3335.659071,N,11745.809548,W,46.9,130.7,080310,,,A*43
$GPRMC,184139.6,A,3335.632711,N,11745.774309,W,47.5,132.7,080310,,,A*49
$GPRMC,184142.6,A,3335.604986,N,11745.740466,W,46.8,135.1,080310,,,A*44
$GPRMC,184145.6,A,3335.575188,N,11745.714054,W,44.3,145.9,080310,,,A*42
$GPRMC,184148.6,A,3335.544335,N,11745.696089,W,42.5,156.1,080310,,,A*48
$GPRMC,184151.6,A,3335.515087,N,11745.682500,W,38.4,156.3,080310,,,A*41
$GPRMC,184154.6,A,3335.489478,N,11745.662364,W,35.0,140.8,080310,,,A*4B
$GPRMC,184157.6,A,3335.471634,N,11745.637369,W,31.7,128.4,080310,,,A*49
$GPRMC,184200.6,A,3335.465291,N,11745.611933,W,24.0,105.0,080310,,,A*4F
$GPRMC,184203.6,A,3335.465565,N,11745.594385,W,14.9,97.1,080310,,,A*78
$GPRMC,184212.6,A,3335.466702,N,11745.587467,W,5.3,95.9,080310,,,A*41
$GPRMC,184215.6,A,3335.466715,N,11745.580990,W,9.7,89.5,080310,,,A*4B
$GPRMC,184218.6,A,3335.472533,N,11745.571533,W,12.8,39.7,080310,,,A*72
$GPRMC,184221.6,A,3335.487004,N,11745.566431,W,20.3,9.4,080310,,,A*4C
$GPRMC,184224.6,A,3335.508358,N,11745.564988,W,26.7,1.9,080310,,,A*4F
$GPRMC,184227.6,A,3335.535287,N,11745.567659,W,32.1,351.8,080310,,,A*45
$GPRMC,184230.6,A,3335.571980,N,11745.573272,W,42.0,348.4,080310,,,A*45
$GPRMC,184233.6,A,3335.616126,N,11745.587983,W,50.5,343.4,080310,,,A*43
$GPRMC,184236.6,A,3335.658560,N,11745.603379,W,53.1,342.0,080310,,,A*48
$GPRMC,184239.6,A,3335.701296,N,11745.620801,W,54.8,341.9,080310,,,A*45
$GPRMC,184242.6,A,3335.744691,N,11745.637898,W,53.3,342.3,080310,,,A*48
$GPRMC,184245.6,A,3335.789360,N,11745.655870,W,55.4,340.4,080310,,,A*43
$GPRMC,184248.6,A,3335.834854,N,11745.674454,W,57.4,341.4,080310,,,A*41
$GPRMC,184251.6,A,3335.880037,N,11745.692572,W,56.3,342.0,080310,,,A*47
$GPRMC,184254.6,A,3335.923792,N,11745.710082,W,55.7,342.1,080310,,,A*45
$GPRMC,184257.6,A,3335.967456,N,11745.726788,W,54.5,342.2,080310,,,A*45
$GPRMC,184300.6,A,3336.011429,N,11745.740779,W,53.6,347.7,080310,,,A*4F
$GPRMC,184303.6,A,3336.056692,N,11745.746586,W,55.3,356.9,080310,,,A*44
$GPRMC,184306.6,A,3336.104622,N,11745.744128,W,56.9,4.9,080310,,,A*43
$GPRMC,184309.6,A,3336.152799,N,11745.733817,W,58.6,12.9,080310,,,A*7D
$GPRMC,184313.6,A,3336.215240,N,11745.707195,W,59.2,24.0,080310,,,A*7A
$GPRMC,184316.6,A,3336.258724,N,11745.679752,W,57.1,27.4,080310,,,A*7E
$GPRMC,184319.6,A,3336.301309,N,11745.656036,W,55.6,22.9,080310,,,A*72
$GPRMC,184322.6,A,3336.344556,N,11745.638047,W,53.8,15.8,080310,,,A*74
$GPRMC,184325.6,A,3336.387896,N,11745.630197,W,52.6,6.0,080310,,,A*4C
$GPRMC,184328.6,A,3336.431941,N,11745.627962,W,52.8,358.6,080310,,,A*44
$GPRMC,184331.6,A,3336.476568,N,11745.632274,W,53.1,352.4,080310,,,A*40
$GPRMC,184334.6,A,3336.520633,N,11745.643449,W,55.4,347.1,080310,,,A*46
$GPRMC,184337.6,A,3336.565609,N,11745.655973,W,56.5,347.1,080310,,,A*4C
$GPRMC,184340.6,A,3336.611342,N,11745.666716,W,56.0,351.0,080310,,,A*48
$GPRMC,184343.6,A,3336.657585,N,11745.672147,W,55.9,357.0,080310,,,A*4F
$GPRMC,184346.6,A,3336.704297,N,11745.672596,W,56.5,1.9,080310,,,A*47
$GPRMC,184349.6,A,3336.751864,N,11745.666355,W,57.8,8.5,080310,,,A*4B
$GPRMC,184352.6,A,3336.799865,N,11745.653057,W,58.3,15.6,080310,,,A*78
$GPRMC,184355.6,A,3336.846174,N,11745.634489,W,58.7,21.5,080310,,,A*7D
$GPRMC,184358.6,A,3336.891111,N,11745.610216,W,59.5,28.0,080310,,,A*70
$GPRMC,184401.6,A,3336.934129,N,11745.578691,W,60.7,33.8,080310,,,A*72
$GPRMC,184404.6,A,3336.976171,N,11745.545075,W,61.1,33.7,080310,,,A*76
$GPRMC,184407.6,A,3337.019079,N,11745.510791,W,62.4,33.6,080310,,,A*77
$GPRMC,184410.6,A,3337.062963,N,11745.476150,W,63.2,33.3,080310,,,A*77
$GPRMC,184413.6,A,3337.106675,N,11745.440810,W,63.8,33.9,080310,,,A*77
$GPRMC,184416.6,A,3337.151480,N,11745.405815,W,63.3,32.2,080310,,,A*7D
$GPRMC,184419.6,A,3337.197971,N,11745.376822,W,62.0,24.7,080310,,,A*7C
$GPRMC,184422.6,A,3337.246813,N,11745.357017,W,61.1,16.0,080310,,,A*77
$GPRMC,184425.6,A,3337.297965,N,11745.346251,W,62.3,9.5,080310,,,A*46
$GPRMC,184428.6,A,3337.348707,N,11745.342778,W,59.9,1.6,080310,,,A*41
$GPRMC,184431.6,A,3337.399576,N,11745.354606,W,61.2,349.2,080310,,,A*45
$GPRMC,184434.6,A,3337.448867,N,11745.372171,W,61.7,340.6,080310,,,A*4D
$GPRMC,184437.6,A,3337.492720,N,11745.399332,W,60.1,331.5,080310,,,A*47
$GPRMC,184440.6,A,3337.533658,N,11745.431775,W,59.5,326.1,080310,,,A*4D
$GPRMC,184443.6,A,3337.574616,N,11745.467572,W,60.2,324.7,080310,,,A*48
$GPRMC,184446.6,A,3337.615827,N,11745.503383,W,60.8,324.6,080310,,,A*45
$GPRMC,184449.6,A,3337.658445,N,11745.539171,W,62.4,324.6,080310,,,A*43
$GPRMC,184452.6,A,3337.700450,N,11745.575277,W,62.1,325.1,080310,,,A*4F
$GPRMC,184455.6,A,3337.741982,N,11745.610190,W,60.6,326.1,080310,,,A*43
$GPRMC,184458.6,A,3337.784780,N,11745.639800,W,58.8,332.4,080310,,,A*45
$GPRMC,184501.6,A,3337.830288,N,11745.660550,W,57.1,340.1,080310,,,A*47
$GPRMC,184504.6,A,3337.878145,N,11745.671631,W,59.1,351.5,080310,,,A*42
$GPRMC,184507.6,A,3337.927448,N,11745.676190,W,59.0,357.8,080310,,,A*43
$GPRMC,184510.6,A,3337.976568,N,11745.671792,W,59.7,7.5,080310,,,A*4D
$GPRMC,184513.6,A,3338.025487,N,11745.660030,W,60.5,12.3,080310,,,A*7B
$GPRMC,184516.6,A,3338.075421,N,11745.646231,W,60.4,12.5,080310,,,A*77
$GPRMC,184519.6,A,3338.124216,N,11745.633221,W,59.5,12.1,080310,,,A*73
$GPRMC,184522.6,A,3338.172433,N,11745.622385,W,58.9,9.1,080310,,,A*41
$GPRMC,184525.6,A,3338.221229,N,11745.616608,W,58.2,4.6,080310,,,A*48
$GPRMC,184528.6,A,3338.268547,N,11745.615004,W,56.7,0.1,080310,,,A*46
$GPRMC,184531.6,A,3338.314421,N,11745.617177,W,54.1,354.9,080310,,,A*4C
$GPRMC,184534.6,A,3338.358521,N,11745.623732,W,53.9,350.8,080310,,,A*4A
$GPRMC,184537.6,A,3338.402723,N,11745.634555,W,54.8,346.1,080310,,,A*4C
$GPRMC,184540.6,A,3338.446577,N,11745.649213,W,54.8,343.5,080310,,,A*41
$GPRMC,184543.6,A,3338.489515,N,11745.666390,W,54.4,341.5,080310,,,A*4C
$GPRMC,184546.6,A,3338.532345,N,11745.683570,W,53.7,341.6,080310,,,A*4F
$GPRMC,184549.6,A,3338.576013,N,11745.699686,W,54.8,343.2,080310,,,A*4F
$GPRMC,184552.6,A,3338.620810,N,11745.712406,W,55.3,349.6,080310,,,A*42
$GPRMC,184555.6,A,3338.667222,N,11745.720376,W,55.5,354.3,080310,,,A*43
$GPRMC,184558.6,A,3338.715108,N,11745.722064,W,56.7,0.4,080310,,,A*47
$GPRMC,184601.6,A,3338.763109,N,11745.719043,W,57.2,4.2,080310,,,A*43
$GPRMC,184604.6,A,3338.810545,N,11745.714854,W,57.0,4.6,080310,,,A*44
$GPRMC,184607.6,A,3338.858155,N,11745.709721,W,57.9,5.0,080310,,,A*41
$GPRMC,184610.6,A,3338.906147,N,11745.704267,W,57.9,5.5,080310,,,A*41
$GPRMC,184613.6,A,3338.953868,N,11745.697694,W,57.3,7.3,080310,,,A*4B
$GPRMC,184616.6,A,3339.001271,N,11745.688037,W,57.4,10.1,080310,,,A*71
$GPRMC,184619.6,A,3339.047162,N,11745.675801,W,56.9,14.2,080310,,,A*79
$GPRMC,184622.6,A,3339.092957,N,11745.660280,W,56.3,17.1,080310,,,A*7A
$GPRMC,184625.6,A,3339.137320,N,11745.641795,W,57.0,20.4,080310,,,A*78
$GPRMC,184628.6,A,3339.181950,N,11745.620463,W,57.9,23.3,080310,,,A*75
$GPRMC,184631.6,A,3339.225901,N,11745.595681,W,58.6,27.0,080310,,,A*70
$GPRMC,184634.6,A,3339.268610,N,11745.568389,W,59.0,27.5,080310,,,A*7E
$GPRMC,184637.6,A,3339.311601,N,11745.541231,W,59.6,27.4,080310,,,A*7C
$GPRMC,184640.6,A,3339.356082,N,11745.513450,W,59.6,27.7,080310,,,A*77
$GPRMC,184643.6,A,3339.400193,N,11745.486438,W,59.5,27.6,080310,,,A*70
$GPRMC,184646.6,A,3339.444399,N,11745.458971,W,59.7,27.1,080310,,,A*7B
$GPRMC,184649.6,A,3339.489154,N,11745.430781,W,60.4,27.8,080310,,,A*79
$GPRMC,184652.6,A,3339.534759,N,11745.403068,W,60.9,27.4,080310,,,A*7E
$GPRMC,184655.6,A,3339.579682,N,11745.377742,W,60.0,26.3,080310,,,A*73
$GPRMC,184658.6,A,3339.624955,N,11745.351087,W,60.1,25.4,080310,,,A*7F
$GPRMC,184701.6,A,3339.669268,N,11745.325568,W,59.5,25.5,080310,,,A*76
$GPRMC,184704.6,A,3339.714491,N,11745.300273,W,59.8,26.1,080310,,,A*78
$GPRMC,184707.6,A,3339.758575,N,11745.272463,W,58.8,27.1,080310,,,A*7B
$GPRMC,184710.6,A,3339.803762,N,11745.245847,W,60.4,26.1,080310,,,A*70
$GPRMC,184713.6,A,3339.850186,N,11745.221760,W,61.1,20.8,080310,,,A*7A
$GPRMC,184716.6,A,3339.897795,N,11745.204634,W,59.1,14.9,080310,,,A*7A
$GPRMC,184719.6,A,3339.945902,N,11745.192384,W,58.6,9.8,080310,,,A*42
$GPRMC,184722.6,A,3339.993607,N,11745.188654,W,57.5,0.6,080310,,,A*43
$GPRMC,184725.6,A,3340.040644,N,11745.190343,W,57.3,358.5,080310,,,A*4B
$GPRMC,184728.6,A,3340.089150,N,11745.191819,W,57.4,357.4,080310,,,A*4D
$GPRMC,184731.6,A,3340.137395,N,11745.194620,W,57.1,358.3,080310,,,A*46
$GPRMC,184734.6,A,3340.185344,N,11745.196062,W,57.8,358.6,080310,,,A*48
$GPRMC,184737.6,A,3340.235047,N,11745.197587,W,58.1,357.9,080310,,,A*4A
$GPRMC,184740.6,A,3340.282785,N,11745.199421,W,56.9,358.0,080310,,,A*4C
$GPRMC,184743.6,A,3340.329457,N,11745.201818,W,56.3,357.6,080310,,,A*44
$GPRMC,184746.6,A,3340.377412,N,11745.202920,W,58.1,0.3,080310,,,A*4A
$GPRMC,184749.6,A,3340.426116,N,11745.199159,W,58.8,6.1,080310,,,A*4D
$GPRMC,184752.6,A,3340.474761,N,11745.190200,W,59.2,10.7,080310,,,A*7A
$GPRMC,184755.6,A,3340.522022,N,11745.175554,W,58.2,16.4,080310,,,A*76
$GPRMC,184758.6,A,3340.567589,N,11745.155402,W,59.1,23.2,080310,,,A*7C
$GPRMC,184801.6,A,3340.611665,N,11745.129745,W,59.7,27.3,080310,,,A*74
$GPRMC,184804.6,A,3340.655929,N,11745.098608,W,61.0,31.4,080310,,,A*79
$GPRMC,184807.6,A,3340.697259,N,11745.064461,W,59.2,34.3,080310,,,A*7D
$GPRMC,184810.6,A,3340.737870,N,11745.031019,W,58.9,35.0,080310,,,A*72
$GPRMC,184813.6,A,3340.777321,N,11744.998045,W,58.1,35.1,080310,,,A*71
$GPRMC,184816.6,A,3340.816904,N,11744.964362,W,58.3,34.9,080310,,,A*7F
$GPRMC,184819.6,A,3340.857643,N,11744.931368,W,58.5,34.0,080310,,,A*7C
$GPRMC,184822.6,A,3340.899024,N,11744.898878,W,58.4,33.2,080310,,,A*7D
$GPRMC,184825.6,A,3340.940945,N,11744.866318,W,59.4,32.9,080310,,,A*76
$GPRMC,184828.6,A,3340.982475,N,11744.833474,W,59.7,32.8,080310,,,A*74
$GPRMC,184831.6,A,3341.024477,N,11744.800914,W,59.7,33.6,080310,,,A*7E
$GPRMC,184834.6,A,3341.064992,N,11744.767604,W,58.9,34.2,080310,,,A*75
$GPRMC,184837.6,A,3341.104722,N,11744.733802,W,58.4,35.2,080310,,,A*71
$GPRMC,184840.6,A,3341.142762,N,11744.699906,W,58.0,36.0,080310,,,A*76
$GPRMC,184843.6,A,3341.182275,N,11744.666023,W,57.9,35.6,080310,,,A*77
$GPRMC,184846.6,A,3341.220368,N,11744.631135,W,57.1,36.1,080310,,,A*7C
$GPRMC,184849.6,A,3341.259593,N,11744.596976,W,56.6,35.7,080310,,,A*7D
$GPRMC,184852.6,A,3341.298707,N,11744.564956,W,55.4,35.3,080310,,,A*7F
$GPRMC,184855.6,A,3341.336957,N,11744.533996,W,55.2,35.1,080310,,,A*7C
$GPRMC,184858.6,A,3341.374689,N,11744.501741,W,56.2,35.2,080310,,,A*7E
$GPRMC,184901.6,A,3341.415047,N,11744.469532,W,56.5,35.6,080310,,,A*7D
$GPRMC,184904.6,A,3341.454243,N,11744.436374,W,58.3,35.0,080310,,,A*7B
$GPRMC,184907.6,A,3341.494426,N,11744.401707,W,59.1,35.3,080310,,,A*75
$GPRMC,184910.6,A,3341.535205,N,11744.366815,W,59.7,35.1,080310,,,A*70
$GPRMC,184913.6,A,3341.576271,N,11744.332747,W,59.4,35.1,080310,,,A*7D
$GPRMC,184916.6,A,3341.618332,N,11744.297987,W,60.6,34.9,080310,,,A*78
$GPRMC,184919.6,A,3341.658454,N,11744.263214,W,59.6,35.5,080310,,,A*79
$GPRMC,184922.6,A,3341.699939,N,11744.228733,W,60.0,34.9,080310,,,A*74
$GPRMC,184925.6,A,3341.741583,N,11744.193813,W,60.4,35.1,080310,,,A*79
$GPRMC,184928.6,A,3341.784227,N,11744.159628,W,61.2,34.9,080310,,,A*7A
$GPRMC,184931.6,A,3341.824829,N,11744.124006,W,60.5,36.2,080310,,,A*7C
$GPRMC,184934.6,A,3341.866702,N,11744.086873,W,62.3,37.7,080310,,,A*7A
$GPRMC,184937.6,A,3341.907169,N,11744.047077,W,63.0,39.4,080310,,,A*7A
$GPRMC,184940.6,A,3341.947471,N,11744.006109,W,63.2,40.2,080310,,,A*75
$GPRMC,184943.6,A,3341.986348,N,11743.965550,W,62.2,41.0,080310,,,A*77
$GPRMC,184946.6,A,3342.022762,N,11743.925592,W,60.6,42.5,080310,,,A*70
$GPRMC,184949.6,A,3342.057789,N,11743.885198,W,59.0,43.9,080310,,,A*7C
$GPRMC,184952.6,A,3342.093478,N,11743.845643,W,59.2,43.0,080310,,,A*75
$GPRMC,184955.6,A,3342.128493,N,11743.805832,W,57.9,43.9,080310,,,A*76
$GPRMC,184958.6,A,3342.161986,N,11743.767743,W,55.1,43.6,080310,,,A*78
$GPRMC,185001.6,A,3342.194174,N,11743.729841,W,54.5,44.1,080310,,,A*71
$GPRMC,185004.6,A,3342.228432,N,11743.691218,W,55.3,42.2,080310,,,A*71
$GPRMC,185007.6,A,3342.264038,N,11743.654949,W,55.4,39.9,080310,,,A*72
$GPRMC,185010.6,A,3342.300401,N,11743.621280,W,55.2,36.0,080310,,,A*75
$GPRMC,185013.6,A,3342.339363,N,11743.589587,W,56.6,32.1,080310,,,A*7C
$GPRMC,185016.6,A,3342.381119,N,11743.560166,W,57.0,29.3,080310,,,A*76
$GPRMC,185019.6,A,3342.424164,N,11743.534128,W,57.6,25.3,080310,,,A*7A
$GPRMC,185022.6,A,3342.470073,N,11743.510433,W,58.0,21.6,080310,,,A*75
$GPRMC,185025.6,A,3342.515680,N,11743.490150,W,58.7,20.1,080310,,,A*72
$GPRMC,185028.6,A,3342.560716,N,11743.472856,W,57.8,18.8,080310,,,A*72
$GPRMC,185031.6,A,3342.606319,N,11743.454978,W,57.3,18.9,080310,,,A*71
$GPRMC,185034.6,A,3342.651116,N,11743.436484,W,57.2,18.8,080310,,,A*71
$GPRMC,185037.6,A,3342.697244,N,11743.417405,W,57.4,19.0,080310,,,A*79
$GPRMC,185040.6,A,3342.743458,N,11743.398660,W,57.9,18.7,080310,,,A*70
$GPRMC,185043.6,A,3342.789711,N,11743.378989,W,59.1,19.1,080310,,,A*7C
$GPRMC,185046.6,A,3342.835788,N,11743.360309,W,59.4,18.8,080310,,,A*77
$GPRMC,185049.6,A,3342.882839,N,11743.338363,W,61.1,22.3,080310,,,A*7C
$GPRMC,185052.6,A,3342.929265,N,11743.313821,W,60.9,25.9,080310,,,A*75
$GPRMC,185055.6,A,3342.974341,N,11743.284278,W,62.2,29.2,080310,,,A*7A
$GPRMC,185058.6,A,3343.019400,N,11743.251644,W,62.9,30.9,080310,,,A*7D
$GPRMC,185100.6,A,3343.049416,N,11743.229460,W,63.3,31.7,080310,,,A*7C
$GPRMC,185101.6,A,3343.063079,N,11743.218808,W,62.3,31.9,080310,,,A*77
$GPRMC,185108.6,A,3343.181984,N,11743.173886,W,64.1,14.8,080310,,,A*72
$GPRMC,185111.6,A,3343.227670,N,11743.168512,W,59.6,4.0,080310,,,A*4B
$GPRMC,185114.6,A,3343.273428,N,11743.169940,W,56.1,359.8,080310,,,A*41
$GPRMC,185117.6,A,3343.320771,N,11743.168037,W,58.6,4.5,080310,,,A*4D
$GPRMC,185120.6,A,3343.369766,N,11743.162346,W,60.1,6.4,080310,,,A*42
$GPRMC,185123.6,A,3343.420806,N,11743.155620,W,61.3,6.1,080310,,,A*45
$GPRMC,185126.6,A,3343.471954,N,11743.149437,W,62.3,5.7,080310,,,A*4D
$GPRMC,185129.6,A,3343.524112,N,11743.143171,W,63.2,6.0,080310,,,A*40
$GPRMC,185132.6,A,3343.577090,N,11743.136191,W,63.8,6.1,080310,,,A*40
$GPRMC,185135.6,A,3343.630178,N,11743.129126,W,63.9,6.5,080310,,,A*47
$GPRMC,185138.6,A,3343.683450,N,11743.121851,W,64.8,6.3,080310,,,A*4C
$GPRMC,185141.6,A,3343.737862,N,11743.114879,W,65.9,5.9,080310,,,A*44
$GPRMC,185144.6,A,3343.792449,N,11743.107578,W,65.9,6.5,080310,,,A*4A
$GPRMC,185147.6,A,3343.848596,N,11743.099171,W,66.7,6.7,080310,,,A*46
$GPRMC,185150.6,A,3343.903939,N,11743.092161,W,66.2,6.4,080310,,,A*4B
$GPRMC,185153.6,A,3343.958146,N,11743.084502,W,65.1,6.2,080310,,,A*46
$GPRMC,185156.6,A,3344.013240,N,11743.078087,W,65.7,6.1,080310,,,A*49
$GPRMC,185159.6,A,3344.067150,N,11743.071141,W,66.1,6.4,080310,,,A*45
$GPRMC,185202.6,A,3344.122523,N,11743.064621,W,66.6,6.0,080310,,,A*4E
$GPRMC,185205.6,A,3344.177621,N,11743.057411,W,66.9,6.5,080310,,,A*43
$GPRMC,185208.6,A,3344.233190,N,11743.051013,W,66.8,5.2,080310,,,A*45
$GPRMC,185211.6,A,3344.289109,N,11743.047931,W,67.5,1.4,080310,,,A*4C
$GPRMC,185214.6,A,3344.346007,N,11743.049281,W,68.3,357.8,080310,,,A*4F
$GPRMC,185217.6,A,3344.404486,N,11743.055147,W,69.9,354.2,080310,,,A*46
$GPRMC,185220.6,A,3344.460879,N,11743.066600,W,68.7,349.7,080310,,,A*4E
$GPRMC,185223.6,A,3344.515231,N,11743.081996,W,66.9,345.2,080310,,,A*48
$GPRMC,185226.6,A,3344.567600,N,11743.103611,W,66.5,341.3,080310,,,A*4C
$GPRMC,185229.6,A,3344.616984,N,11743.132586,W,66.3,334.9,080310,,,A*44
$GPRMC,185232.6,A,3344.665707,N,11743.163841,W,66.3,331.8,080310,,,A*49
$GPRMC,185235.6,A,3344.709575,N,11743.198236,W,63.4,325.2,080310,,,A*41
$GPRMC,185238.6,A,3344.751676,N,11743.236242,W,63.7,322.1,080310,,,A*42
$GPRMC,185241.6,A,3344.791842,N,11743.276740,W,62.5,318.9,080310,,,A*48
$GPRMC,185244.6,A,3344.827866,N,11743.320006,W,60.9,315.2,080310,,,A*46
$GPRMC,185247.6,A,3344.860479,N,11743.364805,W,60.6,311.8,080310,,,A*4E
$GPRMC,185250.6,A,3344.889606,N,11743.412072,W,60.3,307.0,080310,,,A*41
$GPRMC,185253.6,A,3344.916015,N,11743.462752,W,60.2,302.6,080310,,,A*41
$GPRMC,185256.6,A,3344.942356,N,11743.515291,W,60.5,300.2,080310,,,A*4B
$GPRMC,185259.6,A,3344.966694,N,11743.567460,W,60.2,300.2,080310,,,A*43
$GPRMC,185302.6,A,3344.992117,N,11743.619798,W,60.9,300.4,080310,,,A*48
$GPRMC,185305.6,A,3345.017780,N,11743.672621,W,61.4,301.3,080310,,,A*46
$GPRMC,185308.6,A,3345.045837,N,11743.724050,W,61.0,303.5,080310,,,A*4D
$GPRMC,185311.6,A,3345.077595,N,11743.772942,W,61.1,308.8,080310,,,A*4F
$GPRMC,185314.6,A,3345.114677,N,11743.817389,W,61.7,315.1,080310,,,A*43
$GPRMC,185317.6,A,3345.155746,N,11743.854415,W,61.2,322.5,080310,,,A*46
$GPRMC,185320.6,A,3345.199926,N,11743.886962,W,61.6,329.3,080310,,,A*41
$GPRMC,185323.6,A,3345.246942,N,11743.913875,W,60.8,334.0,080310,,,A*4B
$GPRMC,185326.6,A,3345.293896,N,11743.936904,W,59.3,339.1,080310,,,A*43
$GPRMC,185329.6,A,3345.340441,N,11743.953400,W,57.6,345.2,080310,,,A*4C
$GPRMC,185332.6,A,3345.388813,N,11743.961612,W,58.7,352.1,080310,,,A*42
$GPRMC,185335.6,A,3345.441352,N,11743.963228,W,62.3,0.1,080310,,,A*4F
$GPRMC,185338.6,A,3345.493469,N,11743.960313,W,63.7,4.6,080310,,,A*4E
$GPRMC,185341.6,A,3345.545336,N,11743.952511,W,63.0,7.5,080310,,,A*45
$GPRMC,185344.6,A,3345.597532,N,11743.943005,W,62.7,8.7,080310,,,A*46
$GPRMC,185347.6,A,3345.648303,N,11743.935529,W,60.7,6.6,080310,,,A*47
$GPRMC,185350.6,A,3345.699943,N,11743.929699,W,60.9,3.4,080310,,,A*4F
$GPRMC,185353.6,A,3345.751440,N,11743.927646,W,60.0,358.7,080310,,,A*4C
$GPRMC,185356.6,A,3345.802370,N,11743.932410,W,61.0,353.3,080310,,,A*4F
$GPRMC,185359.6,A,3345.852413,N,11743.943435,W,61.0,346.7,080310,,,A*46
$GPRMC,185402.6,A,3345.901360,N,11743.961514,W,60.3,340.9,080310,,,A*43
$GPRMC,185405.6,A,3345.948366,N,11743.986077,W,61.3,334.6,080310,,,A*4B
$GPRMC,185408.6,A,3345.992813,N,11744.017366,W,61.5,328.5,080310,,,A*45
$GPRMC,185411.6,A,3346.033598,N,11744.053914,W,61.9,323.0,080310,,,A*4F
$GPRMC,185414.6,A,3346.072316,N,11744.095265,W,62.5,316.6,080310,,,A*47
$GPRMC,185417.6,A,3346.107255,N,11744.143122,W,64.7,311.3,080310,,,A*4D
$GPRMC,185420.6,A,3346.141224,N,11744.196439,W,67.9,308.0,080310,,,A*4C
$GPRMC,185423.6,A,3346.174672,N,11744.252991,W,68.6,307.1,080310,,,A*44
$GPRMC,185426.6,A,3346.207734,N,11744.307880,W,68.6,306.9,080310,,,A*4C
$GPRMC,185429.6,A,3346.241624,N,11744.362725,W,68.5,306.4,080310,,,A*4C
$GPRMC,185432.6,A,3346.273314,N,11744.417448,W,67.0,305.9,080310,,,A*48
$GPRMC,185435.6,A,3346.305380,N,11744.472838,W,67.5,305.6,080310,,,A*40
$GPRMC,185438.6,A,3346.339805,N,11744.528012,W,68.1,306.4,080310,,,A*40
$GPRMC,185441.6,A,3346.376063,N,11744.580466,W,67.2,310.8,080310,,,A*4F
$GPRMC,185444.6,A,3346.414311,N,11744.628425,W,66.4,313.7,080310,,,A*42
$GPRMC,185447.6,A,3346.452256,N,11744.677644,W,66.4,314.4,080310,,,A*4A
$GPRMC,185450.6,A,3346.491084,N,11744.723917,W,64.2,316.8,080310,,,A*4D
$GPRMC,185453.6,A,3346.534301,N,11744.765630,W,65.5,321.6,080310,,,A*4A
$GPRMC,185456.6,A,3346.580390,N,11744.801065,W,65.0,328.0,080310,,,A*49
$GPRMC,185459.6,A,3346.630366,N,11744.829160,W,65.9,335.5,080310,,,A*49
$GPRMC,185502.6,A,3346.681323,N,11744.845141,W,65.3,342.7,080310,,,A*4C
$GPRMC,185505.6,A,3346.735669,N,11744.857490,W,66.8,349.4,080310,,,A*44
$GPRMC,185508.6,A,3346.791194,N,11744.865217,W,66.9,355.6,080310,,,A*44
$GPRMC,185511.6,A,3346.849130,N,11744.862697,W,66.7,3.8,080310,,,A*43
$GPRMC,185514.6,A,3346.904784,N,11744.855227,W,66.3,8.4,080310,,,A*4F
$GPRMC,185517.6,A,3346.956022,N,11744.841040,W,63.9,14.9,080310,,,A*79
$GPRMC,185520.6,A,3347.005400,N,11744.819628,W,63.2,21.2,080310,,,A*74
$GPRMC,185523.6,A,3347.052012,N,11744.793284,W,62.1,26.6,080310,,,A*7C
$GPRMC,185526.6,A,3347.096966,N,11744.761777,W,63.6,30.9,080310,,,A*71
$GPRMC,185529.6,A,3347.140698,N,11744.724713,W,64.4,36.0,080310,,,A*73
$GPRMC,185532.6,A,3347.181565,N,11744.683415,W,64.7,40.6,080310,,,A*78
$GPRMC,185535.6,A,3347.219622,N,11744.637619,W,65.1,45.7,080310,,,A*7F
$GPRMC,185538.6,A,3347.252814,N,11744.589169,W,65.4,51.5,080310,,,A*72
$GPRMC,185541.6,A,3347.285826,N,11744.536526,W,66.3,52.9,080310,,,A*77
$GPRMC,185544.6,A,3347.318237,N,11744.482615,W,66.5,53.5,080310,,,A*7B
$GPRMC,185547.6,A,3347.351901,N,11744.428868,W,66.4,53.2,080310,,,A*79
$GPRMC,185550.6,A,3347.384957,N,11744.376440,W,66.0,53.4,080310,,,A*7C
$GPRMC,185553.6,A,3347.417963,N,11744.323675,W,65.7,53.3,080310,,,A*72
$GPRMC,185556.6,A,3347.448976,N,11744.271343,W,64.8,53.5,080310,,,A*77
$GPRMC,185559.6,A,3347.481694,N,11744.220022,W,63.7,53.1,080310,,,A*72
$GPRMC,185602.6,A,3347.513264,N,11744.170086,W,61.9,53.1,080310,,,A*7A
$GPRMC,185605.6,A,3347.543592,N,11744.121801,W,61.4,53.4,080310,,,A*7D
$GPRMC,185608.6,A,3347.573703,N,11744.073009,W,61.0,53.2,080310,,,A*7D
$GPRMC,185611.6,A,3347.604600,N,11744.023459,W,59.7,53.8,080310,,,A*76
$GPRMC,185614.6,A,3347.633842,N,11743.974612,W,59.6,54.0,080310,,,A*70
$GPRMC,185617.6,A,3347.663142,N,11743.927931,W,59.1,53.6,080310,,,A*71
$GPRMC,185620.6,A,3347.693109,N,11743.879147,W,59.7,54.1,080310,,,A*70
$GPRMC,185623.6,A,3347.723263,N,11743.831248,W,59.9,53.9,080310,,,A*77
$GPRMC,185626.6,A,3347.753038,N,11743.783091,W,60.4,53.3,080310,,,A*74
$GPRMC,185629.6,A,3347.786128,N,11743.735107,W,61.1,49.7,080310,,,A*7B
$GPRMC,185632.6,A,3347.821280,N,11743.690048,W,60.9,44.7,080310,,,A*72
$GPRMC,185635.6,A,3347.859743,N,11743.651649,W,60.0,37.4,080310,,,A*74
$GPRMC,185638.6,A,3347.900107,N,11743.617504,W,59.2,33.2,080310,,,A*70
$GPRMC,185641.6,A,3347.943005,N,11743.587670,W,59.1,28.5,080310,,,A*7E
$GPRMC,185644.6,A,3347.987144,N,11743.563537,W,58.3,23.4,080310,,,A*74
$GPRMC,185647.6,A,3348.034127,N,11743.545391,W,59.1,17.5,080310,,,A*77
$GPRMC,185650.6,A,3348.081042,N,11743.530802,W,58.3,14.6,080310,,,A*7D
$GPRMC,185653.6,A,3348.129542,N,11743.515825,W,58.7,14.5,080310,,,A*7D
$GPRMC,185656.6,A,3348.177269,N,11743.501552,W,58.7,13.6,080310,,,A*71
$GPRMC,185659.6,A,3348.224388,N,11743.489136,W,57.9,13.3,080310,,,A*76
$GPRMC,185702.6,A,3348.272587,N,11743.476465,W,58.6,13.5,080310,,,A*76
$GPRMC,185705.6,A,3348.322484,N,11743.464175,W,58.6,13.3,080310,,,A*76
$GPRMC,185708.6,A,3348.368852,N,11743.448814,W,58.8,15.1,080310,,,A*78
$GPRMC,185711.6,A,3348.415387,N,11743.429947,W,60.7,19.7,080310,,,A*70
$GPRMC,185714.6,A,3348.461333,N,11743.406847,W,62.7,24.1,080310,,,A*7F
$GPRMC,185717.6,A,3348.507783,N,11743.379653,W,61.8,27.1,080310,,,A*79
$GPRMC,185720.6,A,3348.552588,N,11743.348616,W,62.6,30.0,080310,,,A*7D
$GPRMC,185723.6,A,3348.597088,N,11743.317771,W,62.4,29.6,080310,,,A*74
$GPRMC,185726.6,A,3348.641730,N,11743.287516,W,61.1,28.9,080310,,,A*7E
$GPRMC,185729.6,A,3348.687830,N,11743.256515,W,61.8,29.7,080310,,,A*7D
$GPRMC,185732.6,A,3348.735831,N,11743.225425,W,63.2,29.0,080310,,,A*77
$GPRMC,185735.6,A,3348.783342,N,11743.195718,W,63.5,27.5,080310,,,A*7B
$GPRMC,185738.6,A,3348.831213,N,11743.166218,W,62.5,26.8,080310,,,A*71
$GPRMC,185741.6,A,3348.881200,N,11743.141193,W,63.3,24.9,080310,,,A*77
$GPRMC,185744.6,A,3348.931576,N,11743.116690,W,64.0,21.9,080310,,,A*79
$GPRMC,185747.6,A,3348.982615,N,11743.094036,W,64.2,20.0,080310,,,A*7F
$GPRMC,185750.6,A,3349.035270,N,11743.074171,W,63.5,17.8,080310,,,A*7A
$GPRMC,185753.6,A,3349.086336,N,11743.056377,W,62.2,16.0,080310,,,A*79
$GPRMC,185756.6,A,3349.136397,N,11743.042297,W,61.7,13.4,080310,,,A*70
$GPRMC,185759.6,A,3349.185949,N,11743.029526,W,60.6,11.4,080310,,,A*7C
$GPRMC,185802.6,A,3349.230743,N,11743.019362,W,56.7,9.8,080310,,,A*40
$GPRMC,185805.6,A,3349.277245,N,11743.010620,W,57.7,8.1,080310,,,A*44
$GPRMC,185808.6,A,3349.327475,N,11743.003097,W,57.1,6.8,080310,,,A*41
$GPRMC,185811.6,A,3349.377936,N,11742.996516,W,57.7,5.6,080310,,,A*45
$GPRMC,185814.6,A,3349.426698,N,11742.992895,W,57.4,3.7,080310,,,A*4E
$GPRMC,185817.6,A,3349.475134,N,11742.989192,W,60.0,2.1,080310,,,A*49
$GPRMC,185820.6,A,3349.525637,N,11742.987604,W,60.1,0.7,080310,,,A*4E
$GPRMC,185823.6,A,3349.576375,N,11742.987115,W,61.1,359.8,080310,,,A*4E
$GPRMC,185826.6,A,3349.627564,N,11742.987720,W,62.1,358.1,080310,,,A*41
$GPRMC,185829.6,A,3349.679530,N,11742.990595,W,63.0,356.9,080310,,,A*48
$GPRMC,185832.6,A,3349.733412,N,11742.994855,W,63.5,355.9,080310,,,A*4F
$GPRMC,185836.6,A,3349.804639,N,11743.005680,W,63.7,353.0,080310,,,A*40
$GPRMC,185837.6,A,3349.824470,N,11743.007353,W,64.0,352.5,080310,,,A*41
$GPRMC,185840.6,A,3349.875697,N,11743.016246,W,64.8,352.0,080310,,,A*46
$GPRMC,185843.6,A,3349.933336,N,11743.023055,W,66.6,352.6,080310,,,A*44
$GPRMC,185846.6,A,3349.988640,N,11743.032053,W,67.0,352.3,080310,,,A*41
$GPRMC,185849.6,A,3350.044816,N,11743.040155,W,67.7,352.6,080310,,,A*42
$GPRMC,185852.6,A,3350.103744,N,11743.045601,W,69.1,352.7,080310,,,A*48
$GPRMC,185855.6,A,3350.161294,N,11743.054318,W,69.8,352.5,080310,,,A*45
$GPRMC,185858.6,A,3350.219206,N,11743.062164,W,70.5,353.8,080310,,,A*4A
