NMEA Sentence Code,UTC Time,Status,Latitude,Latitude Direction,Longitude,Longitude Direction,Speed (knots),Track Angle (degrees true),Date,MagneticVariation,Magnetic Variation Direction,[FAA Mode]-Optional,Checksum
$GPRMC,202425.4,A,3339.4077,N,11724.0653,W,42.40,212.60,060410,,*2F
$GPRMC,202428.4,A,3339.3703,N,11724.0764,W,44.30,199.40,060410,,*27
$GPRMC,202431.4,A,3339.3347,N,11724.1012,W,47.90,209.50,060410,,*2E
$GPRMC,202434.4,A,3339.3061,N,11724.1334,W,48.70,220.90,060410,,*2D
$GPRMC,202437.4,A,3339.2730,N,11724.1636,W,50.50,217.70,060410,,*2A
$GPRMC,202440.4,A,3339.2355,N,11724.1750,W,47.60,199.60,060410,,*2D
$GPRMC,202443.4,A,3339.1989,N,11724.1905,W,47.00,204.20,060410,,*2D
$GPRMC,202446.4,A,3339.1731,N,11724.2259,W,48.80,224.10,060410,,*22
$GPRMC,202449.4,A,3339.1620,N,11724.2722,W,50.80,243.20,060410,,*2E
$GPRMC,202452.4,A,3339.1608,N,11724.3216,W,50.40,256.90,060410,,*2E
$GPRMC,202455.4,A,3339.1550,N,11724.3681,W,48.60,258.60,060410,,*27
$GPRMC,202458.4,A,3339.1537,N,11724.4145,W,48.90,259.30,060410,,*28
$GPRMC,202501.4,A,3339.1458,N,11724.4747,W,52.80,257.90,060410,,*27
$GPRMC,202504.4,A,3339.1371,N,11724.5265,W,51.20,256.90,060410,,*22
$GPRMC,202507.4,A,3339.1255,N,11724.5763,W,51.50,254.30,060410,,*2A
$GPRMC,202510.4,A,3339.1114,N,11724.6250,W,51.10,251.80,060410,,*26
$GPRMC,202513.4,A,3339.0976,N,11724.6716,W,49.70,251.00,060410,,*28
$GPRMC,202516.4,A,3339.0854,N,11724.7177,W,47.60,252.90,060410,,*29
$GPRMC,202519.4,A,3339.0746,N,11724.7649,W,48.80,255.70,060410,,*28
$GPRMC,202522.4,A,3339.0675,N,11724.8128,W,48.20,259.30,060410,,*2C
$GPRMC,202525.4,A,3339.0544,N,11724.8587,W,49.00,250.00,060410,,*22
$GPRMC,202528.4,A,3339.0312,N,11724.8993,W,48.50,235.10,060410,,*25
$GPRMC,202531.4,A,3339.0051,N,11724.9366,W,47.90,231.10,060410,,*2F
$GPRMC,202534.4,A,3338.9773,N,11724.9684,W,46.50,220.50,060410,,*25
$GPRMC,202537.4,A,3338.9460,N,11724.9919,W,44.40,210.30,060410,,*2A
$GPRMC,202540.4,A,3338.9086,N,11725.0039,W,45.10,198.20,060410,,*23
$GPRMC,202543.4,A,3338.8683,N,11725.0073,W,45.10,191.30,060410,,*24
$GPRMC,202546.4,A,3338.8325,N,11725.0241,W,44.60,206.80,060410,,*2B
$GPRMC,202549.4,A,3338.8036,N,11725.0480,W,42.00,218.20,060410,,*2B
$GPRMC,202552.4,A,3338.7783,N,11725.0768,W,41.70,223.60,060410,,*2A
$GPRMC,202555.4,A,3338.7509,N,11725.1075,W,43.70,224.50,060410,,*21
$GPRMC,202558.4,A,3338.7240,N,11725.1390,W,45.00,225.00,060410,,*2B
$GPRMC,202601.4,A,3338.6962,N,11725.1709,W,46.50,223.20,060410,,*28
$GPRMC,202604.4,A,3338.6675,N,11725.2031,W,48.90,222.80,060410,,*22
$GPRMC,202607.4,A,3338.6354,N,11725.2332,W,47.10,215.80,060410,,*24
$GPRMC,202610.4,A,3338.5969,N,11725.2517,W,48.30,202.10,060410,,*26
$GPRMC,202613.4,A,3338.5551,N,11725.2660,W,52.10,197.10,060410,,*27
$GPRMC,202616.4,A,3338.5121,N,11725.2803,W,52.80,195.80,060410,,*28
$GPRMC,202619.4,A,3338.4697,N,11725.2942,W,51.60,195.90,060410,,*24
$GPRMC,202622.4,A,3338.4294,N,11725.3061,W,50.40,193.00,060410,,*2E
$GPRMC,202625.4,A,3338.3861,N,11725.3115,W,51.60,184.90,060410,,*20
$GPRMC,202628.4,A,3338.3423,N,11725.3145,W,51.70,184.30,060410,,*29
$GPRMC,202631.4,A,3338.2997,N,11725.3182,W,50.60,184.80,060410,,*22
$GPRMC,202634.4,A,3338.2580,N,11725.3266,W,49.40,192.80,060410,,*29
$GPRMC,202637.4,A,3338.2182,N,11725.3450,W,52.50,202.00,060410,,*26
$GPRMC,202640.4,A,3338.1904,N,11725.3813,W,48.10,221.40,060410,,*22
$GPRMC,202643.4,A,3338.1714,N,11725.4219,W,44.30,227.10,060410,,*24
$GPRMC,202646.4,A,3338.1448,N,11725.4486,W,41.80,217.00,060410,,*27
$GPRMC,202649.4,A,3338.1129,N,11725.4639,W,39.10,204.70,060410,,*2F
$GPRMC,202652.4,A,3338.0698,N,11725.4633,W,46.70,184.40,060410,,*25
$GPRMC,202655.4,A,3338.0287,N,11725.4700,W,48.60,193.50,060410,,*21
$GPRMC,202658.4,A,3337.9920,N,11725.4910,W,48.20,206.00,060410,,*2D
$GPRMC,202701.4,A,3337.9593,N,11725.5095,W,42.50,200.70,060410,,*2D
$GPRMC,202704.4,A,3337.9226,N,11725.5188,W,44.50,193.50,060410,,*21
$GPRMC,202707.4,A,3337.8797,N,11725.5129,W,48.20,180.80,060410,,*23
$GPRMC,202710.4,A,3337.8367,N,11725.5120,W,49.00,183.50,060410,,*2A
$GPRMC,202713.4,A,3337.7967,N,11725.5149,W,48.60,183.70,060410,,*26
$GPRMC,202716.4,A,3337.7562,N,11725.5177,W,49.30,185.30,060410,,*21
$GPRMC,202719.4,A,3337.7160,N,11725.5262,W,48.60,195.30,060410,,*2A
$GPRMC,202722.4,A,3337.6785,N,11725.5449,W,47.60,204.70,060410,,*21
$GPRMC,202725.4,A,3337.6429,N,11725.5588,W,45.90,193.60,060410,,*2E
$GPRMC,202728.4,A,3337.6052,N,11725.5638,W,46.20,187.00,060410,,*28
$GPRMC,202731.4,A,3337.5654,N,11725.5684,W,46.10,185.70,060410,,*22
$GPRMC,202734.4,A,3337.5260,N,11725.5729,W,45.70,182.80,060410,,*2F
$GPRMC,202737.4,A,3337.4893,N,11725.5665,W,45.00,173.20,060410,,*21
$GPRMC,202740.4,A,3337.4598,N,11725.5356,W,45.20,144.40,060410,,*22
$GPRMC,202743.4,A,3337.4310,N,11725.5064,W,44.00,142.80,060410,,*2C
$GPRMC,202746.4,A,3337.4019,N,11725.4849,W,38.40,148.50,060410,,*2D
$GPRMC,202749.4,A,3337.3701,N,11725.4808,W,34.70,167.60,060410,,*2F
$GPRMC,202752.4,A,3337.3288,N,11725.4877,W,41.60,179.80,060410,,*2B
$GPRMC,202755.4,A,3337.2872,N,11725.5008,W,45.90,193.10,060410,,*25
$GPRMC,202758.4,A,3337.2592,N,11725.5247,W,42.50,209.70,060410,,*2F
$GPRMC,202801.4,A,3337.2382,N,11725.5541,W,37.70,219.10,060410,,*2D
$GPRMC,202804.4,A,3337.2091,N,11725.5740,W,40.80,213.40,060410,,*2A
$GPRMC,202807.4,A,3337.1818,N,11725.5997,W,41.00,224.00,060410,,*2E
$GPRMC,202810.4,A,3337.1567,N,11725.6234,W,36.40,212.30,060410,,*2E
$GPRMC,202813.4,A,3337.1273,N,11725.6309,W,34.60,192.00,060410,,*28
$GPRMC,202816.4,A,3337.1005,N,11725.6095,W,36.20,157.20,060410,,*25
$GPRMC,202819.4,A,3337.0911,N,11725.5654,W,34.60,120.60,060410,,*2D
$GPRMC,202822.4,A,3337.0919,N,11725.5309,W,32.70,100.40,060410,,*27
$GPRMC,202825.4,A,3337.1100,N,11725.5053,W,26.80,68.10,060410,,*1D
$GPRMC,202828.4,A,3337.1401,N,11725.4886,W,29.10,38.40,060410,,*13
$GPRMC,202831.4,A,3337.1828,N,11725.4950,W,37.70,4.50,060410,,*21
$GPRMC,202834.4,A,3337.2173,N,11725.4940,W,39.10,5.10,060410,,*2C
$GPRMC,202837.4,A,3337.2465,N,11725.4773,W,37.80,23.10,060410,,*10
$GPRMC,202840.4,A,3337.2626,N,11725.4433,W,37.90,51.00,060410,,*17
$GPRMC,202843.4,A,3337.2717,N,11725.4106,W,33.60,61.90,060410,,*15
$GPRMC,202852.4,A,3337.1610,N,11725.3994,W,36.20,199.10,060410,,*2B
$GPRMC,202855.4,A,3337.1292,N,11725.4240,W,38.40,204.90,060410,,*20
$GPRMC,202858.4,A,3337.0966,N,11725.4407,W,40.30,200.40,060410,,*28
$GPRMC,202901.4,A,3337.0613,N,11725.4587,W,42.30,201.80,060410,,*2E
$GPRMC,202904.4,A,3337.0308,N,11725.4791,W,41.70,210.30,060410,,*2D
$GPRMC,202907.4,A,3337.0032,N,11725.5036,W,41.40,222.50,060410,,*2B
$GPRMC,202910.4,A,3336.9790,N,11725.5377,W,43.50,231.40,060410,,*2C
$GPRMC,202913.4,A,3336.9565,N,11725.5712,W,41.50,227.60,060410,,*27
$GPRMC,202916.4,A,3336.9303,N,11725.5971,W,41.30,217.50,060410,,*29
$GPRMC,202919.4,A,3336.8978,N,11725.6109,W,41.10,204.10,060410,,*21
$GPRMC,202922.4,A,3336.8593,N,11725.6033,W,43.90,180.00,060410,,*2C
$GPRMC,202925.4,A,3336.8224,N,11725.5977,W,44.40,178.50,060410,,*22
$GPRMC,202928.4,A,3336.7824,N,11725.5956,W,45.50,183.50,060410,,*2D
$GPRMC,202931.4,A,3336.7455,N,11725.6015,W,44.40,192.60,060410,,*21
$GPRMC,202935.4,A,3336.7001,N,11725.6226,W,43.30,205.90,060410,,*20
$GPRMC,202938.4,A,3336.6693,N,11725.6492,W,44.60,217.70,060410,,*27
$GPRMC,202941.4,A,3336.6434,N,11725.6800,W,44.90,223.60,060410,,*28
$GPRMC,202944.4,A,3336.6161,N,11725.7109,W,45.90,223.50,060410,,*2B
$GPRMC,202947.4,A,3336.5886,N,11725.7425,W,46.40,223.40,060410,,*2F
$GPRMC,202950.4,A,3336.5614,N,11725.7753,W,46.40,224.00,060410,,*2D
$GPRMC,202953.4,A,3336.5339,N,11725.8073,W,46.20,224.10,060410,,*29
$GPRMC,202956.4,A,3336.5054,N,11725.8378,W,45.70,219.80,060410,,*2D
$GPRMC,202959.4,A,3336.4746,N,11725.8617,W,43.40,211.30,060410,,*2D
$GPRMC,203002.4,A,3336.4394,N,11725.8726,W,43.60,195.90,060410,,*24
$GPRMC,203005.4,A,3336.4043,N,11725.8800,W,42.30,191.90,060410,,*21
$GPRMC,203008.4,A,3336.3711,N,11725.8899,W,41.00,196.10,060410,,*24
$GPRMC,203011.4,A,3336.3461,N,11725.9099,W,36.90,209.00,060410,,*2C
$GPRMC,203014.4,A,3336.3288,N,11725.9406,W,36.00,224.90,060410,,*25
$GPRMC,203017.4,A,3336.3194,N,11725.9735,W,33.80,240.80,060410,,*25
$GPRMC,203020.4,A,3336.3464,N,11725.9968,W,27.00,276.20,060410,,*2F
$GPRMC,203023.4,A,3336.3837,N,11726.0065,W,25.00,323.80,060410,,*21
$GPRMC,203026.4,A,3336.4323,N,11726.0098,W,36.60,353.10,060410,,*25
$GPRMC,203029.4,A,3336.4679,N,11726.0072,W,38.10,5.60,060410,,*2A
$GPRMC,203032.4,A,3336.5044,N,11725.9996,W,39.90,5.20,060410,,*2D
$GPRMC,203035.4,A,3336.5388,N,11726.0013,W,39.60,357.30,060410,,*2D
$GPRMC,203038.4,A,3336.5764,N,11726.0024,W,42.90,357.70,060410,,*25
$GPRMC,203041.4,A,3336.6089,N,11726.0077,W,40.50,353.20,060410,,*25
$GPRMC,203044.4,A,3336.6403,N,11726.0170,W,38.20,350.20,060410,,*2B
$GPRMC,203047.4,A,3336.6670,N,11726.0372,W,38.30,332.70,060410,,*2E
$GPRMC,203050.4,A,3336.6925,N,11726.0548,W,34.50,336.90,060410,,*28
$GPRMC,203053.4,A,3336.7245,N,11726.0541,W,36.30,355.50,060410,,*23
$GPRMC,203056.4,A,3336.7550,N,11726.0617,W,36.50,342.80,060410,,*28
$GPRMC,203059.4,A,3336.7842,N,11726.0866,W,40.80,326.80,060410,,*2F
$GPRMC,203102.4,A,3336.7946,N,11726.1229,W,36.00,303.70,060410,,*24
$GPRMC,203105.4,A,3336.7771,N,11726.1642,W,33.70,264.90,060410,,*2C
$GPRMC,203108.4,A,3336.7588,N,11726.1946,W,34.50,241.80,060410,,*2D
$GPRMC,203111.4,A,3336.7276,N,11726.2076,W,35.10,206.40,060410,,*20
$GPRMC,203114.4,A,3336.6901,N,11726.2182,W,42.60,205.70,060410,,*22
$GPRMC,203117.4,A,3336.6519,N,11726.2405,W,45.50,209.30,060410,,*22
$GPRMC,203120.4,A,3336.6184,N,11726.2645,W,45.60,210.80,060410,,*20
$GPRMC,203123.4,A,3336.5857,N,11726.2888,W,45.00,211.10,060410,,*26
$GPRMC,203126.4,A,3336.5553,N,11726.3132,W,44.20,217.80,060410,,*2F
$GPRMC,203129.4,A,3336.5333,N,11726.3452,W,42.40,231.00,060410,,*2F
$GPRMC,203132.4,A,3336.5260,N,11726.3871,W,40.50,248.30,060410,,*21
$GPRMC,203135.4,A,3336.5093,N,11726.4211,W,38.90,233.70,060410,,*28
$GPRMC,203138.4,A,3336.4870,N,11726.4510,W,40.80,230.40,060410,,*29
$GPRMC,203141.4,A,3336.4655,N,11726.4841,W,41.90,233.70,060410,,*27
$GPRMC,203144.4,A,3336.4480,N,11726.5233,W,44.50,243.60,060410,,*29
$GPRMC,203147.4,A,3336.4358,N,11726.5677,W,47.60,252.60,060410,,*2C
$GPRMC,203150.4,A,3336.4256,N,11726.6148,W,49.80,254.70,060410,,*2A
$GPRMC,203153.4,A,3336.4149,N,11726.6635,W,49.50,255.10,060410,,*23
$GPRMC,203156.4,A,3336.4038,N,11726.7104,W,48.80,253.10,060410,,*2F
$GPRMC,203159.4,A,3336.3844,N,11726.7468,W,43.30,238.20,060410,,*25
$GPRMC,203202.4,A,3336.3551,N,11726.7752,W,44.40,228.60,060410,,*2E
$GPRMC,203205.4,A,3336.3361,N,11726.8096,W,42.80,242.50,060410,,*29
$GPRMC,203208.4,A,3336.3186,N,11726.8463,W,41.30,237.80,060410,,*26
$GPRMC,203211.4,A,3336.2939,N,11726.8752,W,40.80,224.40,060410,,*26
$GPRMC,203214.4,A,3336.2589,N,11726.8920,W,42.90,207.30,060410,,*2A
$GPRMC,203217.4,A,3336.2284,N,11726.9159,W,44.60,215.20,060410,,*2F
$GPRMC,203220.4,A,3336.1994,N,11726.9447,W,43.80,216.10,060410,,*21
$GPRMC,203223.4,A,3336.1714,N,11726.9698,W,43.00,222.10,060410,,*2B
$GPRMC,203226.4,A,3336.1524,N,11727.0046,W,44.10,236.40,060410,,*24
$GPRMC,203229.4,A,3336.1531,N,11727.0454,W,40.80,257.50,060410,,*23
$GPRMC,203232.4,A,3336.1809,N,11727.0727,W,36.00,290.50,060410,,*2A
$GPRMC,203235.4,A,3336.1992,N,11727.1055,W,33.50,289.90,060410,,*29
$GPRMC,203238.4,A,3336.1956,N,11727.1415,W,34.40,265.70,060410,,*26
$GPRMC,203241.4,A,3336.1795,N,11727.1739,W,37.70,251.40,060410,,*20
$GPRMC,203244.4,A,3336.1742,N,11727.2116,W,40.30,261.20,060410,,*26
$GPRMC,203247.4,A,3336.1842,N,11727.2494,W,40.60,280.20,060410,,*2F
$GPRMC,203250.4,A,3336.1891,N,11727.2894,W,40.40,275.80,060410,,*29
$GPRMC,203253.4,A,3336.1807,N,11727.3298,W,40.30,259.50,060410,,*26
$GPRMC,203256.4,A,3336.1601,N,11727.3656,W,41.90,238.00,060410,,*24
$GPRMC,203259.4,A,3336.1440,N,11727.4030,W,43.20,246.60,060410,,*2B
$GPRMC,203302.4,A,3336.1382,N,11727.4432,W,43.70,259.10,060410,,*27
$GPRMC,203305.4,A,3336.1274,N,11727.4856,W,42.60,250.00,060410,,*2E
$GPRMC,203308.4,A,3336.1089,N,11727.5276,W,46.70,241.40,060410,,*2B
$GPRMC,203311.4,A,3336.0894,N,11727.5670,W,45.30,236.90,060410,,*2E
$GPRMC,203314.4,A,3336.0640,N,11727.6015,W,44.70,228.40,060410,,*2D
$GPRMC,203317.4,A,3336.0265,N,11727.6147,W,44.10,203.60,060410,,*26
$GPRMC,203320.4,A,3335.9789,N,11727.6164,W,51.30,195.20,060410,,*20
$GPRMC,203323.4,A,3335.9401,N,11727.6372,W,50.80,207.60,060410,,*23
$GPRMC,203326.4,A,3335.9064,N,11727.6617,W,47.20,210.00,060410,,*2B
$GPRMC,203329.4,A,3335.8709,N,11727.6786,W,44.50,197.80,060410,,*20
$GPRMC,203332.4,A,3335.8350,N,11727.6892,W,44.80,197.20,060410,,*2F
$GPRMC,203335.4,A,3335.8077,N,11727.7145,W,43.40,213.90,060410,,*23
$GPRMC,203338.4,A,3335.7923,N,11727.7552,W,42.10,235.70,060410,,*25
$GPRMC,203341.4,A,3335.8004,N,11727.7930,W,36.60,258.90,060410,,*21
$GPRMC,203344.4,A,3335.8224,N,11727.8335,W,38.80,272.30,060410,,*26
$GPRMC,203347.4,A,3335.8083,N,11727.8680,W,36.60,250.00,060410,,*22
$GPRMC,203350.4,A,3335.7739,N,11727.8768,W,38.70,203.20,060410,,*21
$GPRMC,203353.4,A,3335.7379,N,11727.8744,W,40.80,183.20,060410,,*27
$GPRMC,203356.4,A,3335.6998,N,11727.8745,W,44.00,189.00,060410,,*23
$GPRMC,203359.4,A,3335.6647,N,11727.8889,W,44.30,203.70,060410,,*2B
$GPRMC,203402.4,A,3335.6348,N,11727.9110,W,42.10,212.50,060410,,*26
$GPRMC,203405.4,A,3335.6118,N,11727.9360,W,37.90,224.60,060410,,*2F
$GPRMC,203408.4,A,3335.5953,N,11727.9700,W,41.00,239.50,060410,,*23
$GPRMC,203411.4,A,3335.5926,N,11728.0157,W,45.10,260.70,060410,,*20
$GPRMC,203414.4,A,3335.6059,N,11728.0526,W,41.10,276.90,060410,,*28
$GPRMC,203417.4,A,3335.6045,N,11728.0916,W,36.40,265.50,060410,,*22
$GPRMC,203420.4,A,3335.5915,N,11728.1255,W,34.70,248.70,060410,,*28
$GPRMC,203423.4,A,3335.5677,N,11728.1496,W,33.80,226.60,060410,,*28
$GPRMC,203426.4,A,3335.5287,N,11728.1564,W,38.60,202.70,060410,,*28
$GPRMC,203429.4,A,3335.5034,N,11728.1812,W,37.70,219.90,060410,,*2B
$GPRMC,203432.4,A,3335.4860,N,11728.2205,W,41.10,239.50,060410,,*2F
$GPRMC,203435.4,A,3335.4884,N,11728.2599,W,38.60,259.70,060410,,*2D
$GPRMC,203438.4,A,3335.5134,N,11728.2939,W,38.20,292.20,060410,,*23
$GPRMC,203441.4,A,3335.5320,N,11728.3289,W,38.80,291.80,060410,,*28
$GPRMC,203444.4,A,3335.5368,N,11728.3646,W,33.00,279.60,060410,,*2D
$GPRMC,203447.4,A,3335.5261,N,11728.4037,W,36.80,257.60,060410,,*20
$GPRMC,203450.4,A,3335.5155,N,11728.4412,W,38.40,260.70,060410,,*26
$GPRMC,203453.4,A,3335.5196,N,11728.4788,W,40.40,279.10,060410,,*2B
$GPRMC,203456.4,A,3335.5338,N,11728.5182,W,44.30,288.00,060410,,*29
$GPRMC,203459.4,A,3335.5484,N,11728.5627,W,48.30,289.50,060410,,*26
$GPRMC,203502.4,A,3335.5634,N,11728.6090,W,49.70,290.90,060410,,*28
$GPRMC,203505.4,A,3335.5761,N,11728.6546,W,47.10,289.40,060410,,*2D
$GPRMC,203508.4,A,3335.5888,N,11728.6980,W,45.70,290.90,060410,,*2F
$GPRMC,203511.4,A,3335.6092,N,11728.7347,W,43.30,298.90,060410,,*2D
$GPRMC,203514.4,A,3335.6364,N,11728.7640,W,42.90,311.50,060410,,*27
$GPRMC,203517.4,A,3335.6572,N,11728.7973,W,43.70,304.40,060410,,*20
$GPRMC,203520.4,A,3335.6783,N,11728.8350,W,45.30,302.50,060410,,*29
$GPRMC,203523.4,A,3335.6941,N,11728.8774,W,47.50,296.40,060410,,*21
$GPRMC,203526.4,A,3335.7051,N,11728.9236,W,48.00,290.70,060410,,*20
$GPRMC,203529.4,A,3335.7119,N,11728.9747,W,47.40,290.20,060410,,*2F
$GPRMC,203532.4,A,3335.7211,N,11729.0184,W,43.30,282.00,060410,,*2D
$GPRMC,203535.4,A,3335.7159,N,11729.0590,W,40.30,264.30,060410,,*2C
$GPRMC,203538.4,A,3335.6848,N,11729.0876,W,38.60,224.50,060410,,*24
$GPRMC,203541.4,A,3335.6512,N,11729.1142,W,43.40,219.50,060410,,*27
$GPRMC,203544.4,A,3335.6306,N,11729.1535,W,48.30,240.70,060410,,*27
$GPRMC,203547.4,A,3335.6326,N,11729.1913,W,42.80,265.20,060410,,*2D
$GPRMC,203550.4,A,3335.6449,N,11729.2253,W,38.60,277.40,060410,,*2F
$GPRMC,203553.4,A,3335.6462,N,11729.2629,W,38.00,268.40,060410,,*24
$GPRMC,203556.4,A,3335.6365,N,11729.2983,W,36.80,250.80,060410,,*2F
$GPRMC,203559.4,A,3335.6170,N,11729.3385,W,44.10,248.50,060410,,*23
$GPRMC,203602.4,A,3335.6037,N,11729.3837,W,48.20,255.50,060410,,*2D
$GPRMC,203605.4,A,3335.6033,N,11729.4283,W,44.20,268.80,060410,,*23
$GPRMC,203608.4,A,3335.5999,N,11729.4679,W,38.50,258.70,060410,,*25
$GPRMC,203611.4,A,3335.5820,N,11729.4968,W,32.90,236.60,060410,,*2E
$GPRMC,203614.4,A,3335.5543,N,11729.5234,W,38.80,228.00,060410,,*22
$GPRMC,203617.4,A,3335.5360,N,11729.5581,W,41.80,239.20,060410,,*23
$GPRMC,203620.4,A,3335.5280,N,11729.5921,W,36.80,250.20,060410,,*21
$GPRMC,203623.4,A,3335.5434,N,11729.6312,W,38.30,272.70,060410,,*22
$GPRMC,203626.4,A,3335.5639,N,11729.6674,W,39.60,285.80,060410,,*2E
$GPRMC,203629.4,A,3335.5677,N,11729.7064,W,38.00,274.00,060410,,*2C
$GPRMC,203632.4,A,3335.5627,N,11729.7471,W,39.70,264.60,060410,,*22
$GPRMC,203635.4,A,3335.5470,N,11729.7841,W,40.50,253.40,060410,,*20
$GPRMC,203638.4,A,3335.5349,N,11729.8210,W,38.00,242.40,060410,,*2B
$GPRMC,203641.4,A,3335.5135,N,11729.8508,W,37.40,230.90,060410,,*21
$GPRMC,203644.4,A,3335.4822,N,11729.8620,W,36.80,206.80,060410,,*2A
$GPRMC,203647.4,A,3335.4540,N,11729.8789,W,37.00,210.90,060410,,*2D
$GPRMC,203650.4,A,3335.4301,N,11729.9116,W,41.00,228.00,060410,,*2A
$GPRMC,203653.4,A,3335.4217,N,11729.9467,W,38.90,243.20,060410,,*24
$GPRMC,203656.4,A,3335.4220,N,11729.9813,W,35.40,261.40,060410,,*2C
$GPRMC,203659.4,A,3335.4290,N,11730.0140,W,34.20,275.50,060410,,*25
$GPRMC,203702.4,A,3335.4396,N,11730.0430,W,31.80,282.40,060410,,*29
$GPRMC,203705.4,A,3335.4353,N,11730.0746,W,31.50,265.00,060410,,*25
$GPRMC,203708.4,A,3335.4278,N,11730.1073,W,34.50,255.10,060410,,*27
$GPRMC,203711.4,A,3335.4189,N,11730.1402,W,34.90,251.60,060410,,*2F
$GPRMC,203714.4,A,3335.4121,N,11730.1727,W,34.50,254.90,060410,,*2A
$GPRMC,203717.4,A,3335.4125,N,11730.2051,W,33.40,268.20,060410,,*2A
$GPRMC,203720.4,A,3335.4186,N,11730.2368,W,32.70,280.80,060410,,*20
$GPRMC,203723.4,A,3335.4376,N,11730.2665,W,36.10,299.10,060410,,*25
$GPRMC,203726.4,A,3335.4558,N,11730.3005,W,40.60,301.60,060410,,*2A
$GPRMC,203729.4,A,3335.4736,N,11730.3347,W,39.60,300.50,060410,,*26
$GPRMC,203732.4,A,3335.4899,N,11730.3691,W,39.00,298.20,060410,,*29
$GPRMC,203735.4,A,3335.5011,N,11730.4045,W,37.30,291.00,060410,,*29
$GPRMC,203738.4,A,3335.4984,N,11730.4430,W,38.10,268.40,060410,,*29
$GPRMC,203741.4,A,3335.4935,N,11730.4800,W,37.00,268.40,060410,,*2C
$GPRMC,203744.4,A,3335.4923,N,11730.5173,W,36.40,269.70,060410,,*25
$GPRMC,203747.4,A,3335.5052,N,11730.5536,W,39.50,294.60,060410,,*20
$GPRMC,203750.4,A,3335.5209,N,11730.5896,W,40.90,297.60,060410,,*2C
$GPRMC,203753.4,A,3335.5371,N,11730.6269,W,42.60,295.10,060410,,*20
$GPRMC,203756.4,A,3335.5472,N,11730.6662,W,41.20,286.00,060410,,*2A
$GPRMC,203759.4,A,3335.5449,N,11730.7075,W,36.90,270.20,060410,,*2C
$GPRMC,203802.4,A,3335.5264,N,11730.7493,W,44.00,246.00,060410,,*23
$GPRMC,203805.4,A,3335.5101,N,11730.7888,W,43.80,241.90,060410,,*23
$GPRMC,203808.4,A,3335.4879,N,11730.8227,W,41.90,226.70,060410,,*25
$GPRMC,203811.4,A,3335.4614,N,11730.8452,W,36.90,213.70,060410,,*2A
$GPRMC,203814.4,A,3335.4251,N,11730.8561,W,41.90,198.60,060410,,*2A
$GPRMC,203817.4,A,3335.3930,N,11730.8711,W,39.50,204.80,060410,,*2C
$GPRMC,203820.4,A,3335.3661,N,11730.8974,W,41.20,219.80,060410,,*2A
$GPRMC,203823.4,A,3335.3492,N,11730.9349,W,41.10,244.20,060410,,*23
$GPRMC,203826.4,A,3335.3344,N,11730.9719,W,40.30,238.80,060410,,*29
$GPRMC,203829.4,A,3335.3138,N,11731.0025,W,39.30,223.50,060410,,*26
$GPRMC,203832.4,A,3335.2902,N,11731.0293,W,39.30,225.10,060410,,*21
$GPRMC,203835.4,A,3335.2714,N,11731.0615,W,39.60,240.30,060410,,*21
$GPRMC,203838.4,A,3335.2570,N,11731.0967,W,39.40,245.10,060410,,*23
$GPRMC,203841.4,A,3335.2464,N,11731.1345,W,40.40,252.50,060410,,*2E
$GPRMC,203844.4,A,3335.2355,N,11731.1730,W,41.30,251.40,060410,,*2C
$GPRMC,203847.4,A,3335.2247,N,11731.2117,W,40.40,252.00,060410,,*2C
$GPRMC,203850.4,A,3335.2139,N,11731.2495,W,39.30,249.00,060410,,*2C
$GPRMC,203853.4,A,3335.1984,N,11731.2851,W,41.00,237.20,060410,,*21
$GPRMC,203856.4,A,3335.1740,N,11731.3122,W,39.80,221.70,060410,,*2B
$GPRMC,203859.4,A,3335.1401,N,11731.3210,W,39.70,192.30,060410,,*20
$GPRMC,203902.4,A,3335.1068,N,11731.3234,W,38.50,189.20,060410,,*2A
$GPRMC,203905.4,A,3335.0747,N,11731.3340,W,42.30,200.70,060410,,*28
$GPRMC,203908.4,A,3335.0484,N,11731.3563,W,40.00,215.00,060410,,*2C
$GPRMC,203911.4,A,3335.0291,N,11731.3900,W,41.40,235.70,060410,,*2F
$GPRMC,203914.4,A,3335.0074,N,11731.4246,W,43.70,226.70,060410,,*2E
$GPRMC,203917.4,A,3334.9825,N,11731.4579,W,45.70,231.00,060410,,*25
$GPRMC,203920.4,A,3334.9638,N,11731.4994,W,47.30,242.20,060410,,*2C
$GPRMC,203923.4,A,3334.9451,N,11731.5442,W,50.50,243.30,060410,,*25
$GPRMC,203926.4,A,3334.9246,N,11731.5909,W,53.40,242.60,060410,,*24
$GPRMC,203929.4,A,3334.9034,N,11731.6430,W,59.60,243.30,060410,,*24
$GPRMC,203932.4,A,3334.8811,N,11731.6961,W,60.70,243.10,060410,,*20
$GPRMC,203935.4,A,3334.8591,N,11731.7488,W,57.50,243.00,060410,,*2E
$GPRMC,203938.4,A,3334.8377,N,11731.7986,W,55.50,243.00,060410,,*2C
$GPRMC,203941.4,A,3334.8170,N,11731.8468,W,52.90,243.40,060410,,*2A
$GPRMC,203944.4,A,3334.7981,N,11731.8928,W,50.20,243.40,060410,,*26
$GPRMC,203947.4,A,3334.7798,N,11731.9365,W,47.90,243.60,060410,,*2E
$GPRMC,203950.4,A,3334.7619,N,11731.9785,W,47.00,243.30,060410,,*26
$GPRMC,203953.4,A,3334.7444,N,11732.0193,W,45.80,243.10,060410,,*2C
$GPRMC,203956.4,A,3334.7267,N,11732.0609,W,47.10,242.90,060410,,*28
$GPRMC,203959.4,A,3334.7086,N,11732.1044,W,49.00,243.40,060410,,*27
$GPRMC,204002.4,A,3334.6897,N,11732.1478,W,48.90,243.00,060410,,*29
$GPRMC,204005.4,A,3334.6694,N,11732.1910,W,48.90,238.60,060410,,*2A
$GPRMC,204008.4,A,3334.6452,N,11732.2290,W,48.60,228.50,060410,,*22
$GPRMC,204011.4,A,3334.6168,N,11732.2628,W,48.00,222.00,060410,,*28
$GPRMC,204014.4,A,3334.5878,N,11732.2935,W,46.80,222.70,060410,,*24
$GPRMC,204017.4,A,3334.5606,N,11732.3264,W,46.40,227.20,060410,,*22
$GPRMC,204020.4,A,3334.5345,N,11732.3604,W,46.50,227.30,060410,,*26
$GPRMC,204023.4,A,3334.5070,N,11732.3971,W,49.30,228.10,060410,,*29
$GPRMC,204026.4,A,3334.4781,N,11732.4332,W,50.50,226.00,060410,,*2F
$GPRMC,204029.4,A,3334.4486,N,11732.4633,W,47.40,219.40,060410,,*2F
$GPRMC,204032.4,A,3334.4109,N,11732.4842,W,51.40,204.30,060410,,*23
$GPRMC,204035.4,A,3334.3710,N,11732.5049,W,51.30,203.90,060410,,*25
$GPRMC,204038.4,A,3334.3329,N,11732.5257,W,51.40,203.80,060410,,*2D
$GPRMC,204041.4,A,3334.2918,N,11732.5472,W,53.20,203.90,060410,,*2E
$GPRMC,204044.4,A,3334.2507,N,11732.5686,W,54.40,203.80,060410,,*20
$GPRMC,204047.4,A,3334.2098,N,11732.5904,W,53.60,204.10,060410,,*2E
$GPRMC,204050.4,A,3334.1691,N,11732.6114,W,53.30,203.90,060410,,*24
$GPRMC,204053.4,A,3334.1292,N,11732.6330,W,52.60,204.20,060410,,*2C
$GPRMC,204056.4,A,3334.0896,N,11732.6550,W,52.90,204.10,060410,,*2A
$GPRMC,204059.4,A,3334.0484,N,11732.6754,W,52.10,202.30,060410,,*20
$GPRMC,204102.4,A,3334.0091,N,11732.6920,W,48.60,200.70,060410,,*28
$GPRMC,204105.4,A,3333.9714,N,11732.7097,W,48.50,200.40,060410,,*2F
$GPRMC,204108.4,A,3333.9339,N,11732.7251,W,46.40,198.70,060410,,*2F
$GPRMC,204111.4,A,3333.8976,N,11732.7395,W,45.90,198.80,060410,,*2F
$GPRMC,204114.4,A,3333.8615,N,11732.7542,W,46.00,198.60,060410,,*28
$GPRMC,204117.4,A,3333.8254,N,11732.7695,W,46.10,199.30,060410,,*26
$GPRMC,204120.4,A,3333.7890,N,11732.7840,W,46.40,199.40,060410,,*2B
$GPRMC,204123.4,A,3333.7522,N,11732.7992,W,46.70,199.70,060410,,*22
$GPRMC,204126.4,A,3333.7148,N,11732.8150,W,47.20,199.80,060410,,*2D
$GPRMC,204129.4,A,3333.6779,N,11732.8309,W,47.90,199.50,060410,,*2F
$GPRMC,204132.4,A,3333.6406,N,11732.8473,W,47.20,200.20,060410,,*2B
$GPRMC,204135.4,A,3333.6036,N,11732.8632,W,47.30,199.10,060410,,*2D
$GPRMC,204138.4,A,3333.5662,N,11732.8782,W,48.00,199.20,060410,,*21
$GPRMC,204141.4,A,3333.5279,N,11732.8945,W,47.80,199.10,060410,,*20
$GPRMC,204144.4,A,3333.4908,N,11732.9094,W,47.70,198.90,060410,,*2B
$GPRMC,204147.4,A,3333.4528,N,11732.9248,W,49.00,198.60,060410,,*23
$GPRMC,204150.4,A,3333.4138,N,11732.9391,W,48.80,195.40,060410,,*23
$GPRMC,204153.4,A,3333.3748,N,11732.9477,W,48.50,188.40,060410,,*28
$GPRMC,204156.4,A,3333.3350,N,11732.9526,W,47.60,183.60,060410,,*20
$GPRMC,204159.4,A,3333.2939,N,11732.9532,W,48.90,179.70,060410,,*2A
$GPRMC,204202.4,A,3333.2531,N,11732.9511,W,48.10,178.00,060410,,*2C
$GPRMC,204205.4,A,3333.2141,N,11732.9465,W,48.60,176.10,060410,,*22
$GPRMC,204208.4,A,3333.1718,N,11732.9430,W,50.20,176.60,060410,,*2C
$GPRMC,204211.4,A,3333.1290,N,11732.9401,W,49.80,177.10,060410,,*27
$GPRMC,204214.4,A,3333.0885,N,11732.9376,W,48.50,176.70,060410,,*21
$GPRMC,204217.4,A,3333.0487,N,11732.9356,W,48.00,177.20,060410,,*2F
$GPRMC,204220.4,A,3333.0080,N,11732.9332,W,49.60,176.60,060410,,*28
$GPRMC,204223.4,A,3332.9667,N,11732.9310,W,49.70,176.70,060410,,*2C
$GPRMC,204226.4,A,3332.9250,N,11732.9285,W,50.70,176.70,060410,,*2C
$GPRMC,204229.4,A,3332.8818,N,11732.9255,W,52.80,177.30,060410,,*21
$GPRMC,204232.4,A,3332.8369,N,11732.9273,W,54.00,184.20,060410,,*21
$GPRMC,204235.4,A,3332.7953,N,11732.9367,W,52.10,191.40,060410,,*2B
$GPRMC,204238.4,A,3332.7537,N,11732.9475,W,50.40,191.70,060410,,*28
$GPRMC,204241.4,A,3332.7143,N,11732.9589,W,48.50,192.90,060410,,*26
$GPRMC,204244.4,A,3332.6750,N,11732.9687,W,47.70,190.90,060410,,*24
$GPRMC,204247.4,A,3332.6361,N,11732.9687,W,46.20,176.10,060410,,*25
$GPRMC,204250.4,A,3332.5985,N,11732.9574,W,46.50,162.80,060410,,*24
$GPRMC,204253.4,A,3332.5604,N,11732.9431,W,47.40,162.70,060410,,*2E
$GPRMC,204256.4,A,3332.5228,N,11732.9292,W,47.30,164.20,060410,,*2A
$GPRMC,204259.4,A,3332.4852,N,11732.9176,W,45.10,166.10,060410,,*2B
$GPRMC,204302.4,A,3332.4479,N,11732.9133,W,44.70,178.00,060410,,*29
$GPRMC,204305.4,A,3332.4092,N,11732.9159,W,46.40,183.50,060410,,*23
$GPRMC,204308.4,A,3332.3717,N,11732.9299,W,47.20,196.60,060410,,*2C
$GPRMC,204311.4,A,3332.3338,N,11732.9414,W,48.50,194.60,060410,,*24
$GPRMC,204314.4,A,3332.2935,N,11732.9525,W,49.10,191.40,060410,,*26
$GPRMC,204317.4,A,3332.2526,N,11732.9597,W,49.80,185.30,060410,,*29
$GPRMC,204320.4,A,3332.2103,N,11732.9628,W,49.10,182.20,060410,,*26
$GPRMC,204323.4,A,3332.1696,N,11732.9643,W,48.00,182.10,060410,,*23
$GPRMC,204326.4,A,3332.1301,N,11732.9670,W,46.90,184.00,060410,,*2D
$GPRMC,204329.4,A,3332.0920,N,11732.9725,W,46.30,188.70,060410,,*2A
$GPRMC,204332.4,A,3332.0539,N,11732.9820,W,46.40,194.60,060410,,*25
$GPRMC,204335.4,A,3332.0166,N,11732.9951,W,46.10,198.70,060410,,*23
$GPRMC,204338.4,A,3331.9801,N,11733.0107,W,46.80,200.80,060410,,*2B
$GPRMC,204341.4,A,3331.9443,N,11733.0303,W,47.30,205.80,060410,,*26
$GPRMC,204344.4,A,3331.9114,N,11733.0517,W,47.00,209.70,060410,,*27
$GPRMC,204347.4,A,3331.8767,N,11733.0760,W,48.30,210.90,060410,,*2F
$GPRMC,204350.4,A,3331.8409,N,11733.1010,W,49.50,210.70,060410,,*2A
$GPRMC,204353.4,A,3331.8053,N,11733.1273,W,49.40,210.60,060410,,*25
$GPRMC,204356.4,A,3331.7700,N,11733.1518,W,47.70,207.30,060410,,*2A
$GPRMC,204359.4,A,3331.7335,N,11733.1705,W,46.80,199.20,060410,,*22
$GPRMC,204402.4,A,3331.6971,N,11733.1796,W,44.20,189.20,060410,,*23
$GPRMC,204405.4,A,3331.6622,N,11733.1854,W,43.40,188.00,060410,,*2E
$GPRMC,204408.4,A,3331.6252,N,11733.1934,W,47.00,194.20,060410,,*28
$GPRMC,204411.4,A,3331.5890,N,11733.2067,W,44.00,200.00,060410,,*24
$GPRMC,204414.4,A,3331.5559,N,11733.2229,W,42.50,203.80,060410,,*29
$GPRMC,204417.4,A,3331.5241,N,11733.2437,W,43.90,212.60,060410,,*2E
$GPRMC,204420.4,A,3331.4949,N,11733.2695,W,43.60,218.50,060410,,*24
$GPRMC,204423.4,A,3331.4705,N,11733.3026,W,42.40,231.00,060410,,*23
$GPRMC,204426.4,A,3331.4505,N,11733.3381,W,41.00,239.20,060410,,*27
$GPRMC,204429.4,A,3331.4344,N,11733.3720,W,38.30,241.10,060410,,*25
$GPRMC,204432.4,A,3331.4198,N,11733.4034,W,33.70,241.20,060410,,*25
$GPRMC,204435.4,A,3331.4082,N,11733.4284,W,26.30,240.60,060410,,*24
$GPRMC,204438.4,A,3331.3993,N,11733.4478,W,21.50,240.30,060410,,*26
$GPRMC,204441.4,A,3331.3906,N,11733.4661,W,21.50,240.60,060410,,*2B
$GPRMC,204444.4,A,3331.3810,N,11733.4878,W,27.80,241.40,060410,,*26
$GPRMC,204447.4,A,3331.3679,N,11733.5126,W,29.80,237.30,060410,,*2F
$GPRMC,204450.4,A,3331.3520,N,11733.5369,W,31.70,227.20,060410,,*29
$GPRMC,204453.4,A,3331.3325,N,11733.5586,W,32.10,221.40,060410,,*2B
$GPRMC,204456.4,A,3331.3092,N,11733.5775,W,34.40,210.90,060410,,*23
$GPRMC,204459.4,A,3331.2812,N,11733.5918,W,35.80,199.80,060410,,*26
$GPRMC,204502.4,A,3331.2528,N,11733.6013,W,34.70,195.30,060410,,*25
$GPRMC,204505.4,A,3331.2259,N,11733.6101,W,33.90,197.00,060410,,*29
$GPRMC,204508.4,A,3331.2000,N,11733.6218,W,34.10,202.70,060410,,*26
$GPRMC,204511.4,A,3331.1738,N,11733.6403,W,36.10,213.00,060410,,*28
$GPRMC,204514.4,A,3331.1505,N,11733.6606,W,34.60,219.70,060410,,*2E
$GPRMC,204517.4,A,3331.1296,N,11733.6833,W,33.50,225.50,060410,,*21
$GPRMC,204520.4,A,3331.1110,N,11733.7073,W,33.50,228.60,060410,,*2B
$GPRMC,204523.4,A,3331.0927,N,11733.7330,W,33.90,228.90,060410,,*22
$GPRMC,204526.4,A,3331.0735,N,11733.7585,W,33.90,226.60,060410,,*23
$GPRMC,204529.4,A,3331.0536,N,11733.7832,W,34.40,225.70,060410,,*24
$GPRMC,204532.4,A,3331.0320,N,11733.8056,W,34.10,220.30,060410,,*2E
$GPRMC,204535.4,A,3331.0094,N,11733.8261,W,33.30,215.90,060410,,*2A
$GPRMC,204538.4,A,3330.9837,N,11733.8452,W,35.50,213.50,060410,,*22
$GPRMC,204541.4,A,3330.9579,N,11733.8657,W,37.60,214.40,060410,,*2B
$GPRMC,204544.4,A,3330.9322,N,11733.8898,W,39.00,221.50,060410,,*24
$GPRMC,204547.4,A,3330.9108,N,11733.9194,W,39.60,230.60,060410,,*2C
$GPRMC,204550.4,A,3330.8922,N,11733.9556,W,43.10,239.80,060410,,*2C
$GPRMC,204553.4,A,3330.8773,N,11733.9988,W,46.20,248.30,060410,,*21
$GPRMC,204556.4,A,3330.8670,N,11734.0451,W,47.80,255.30,060410,,*26
$GPRMC,204559.4,A,3330.8625,N,11734.0915,W,48.00,262.70,060410,,*23
$GPRMC,204602.4,A,3330.8611,N,11734.1394,W,47.90,265.90,060410,,*24
$GPRMC,204605.4,A,3330.8608,N,11734.1851,W,46.60,268.00,060410,,*23
$GPRMC,204608.4,A,3330.8621,N,11734.2311,W,45.70,269.90,060410,,*23
$GPRMC,204611.4,A,3330.8657,N,11734.2738,W,42.70,273.10,060410,,*21
$GPRMC,204614.4,A,3330.8728,N,11734.3151,W,42.40,281.50,060410,,*2F
$GPRMC,204617.4,A,3330.8806,N,11734.3559,W,41.40,281.90,060410,,*2C
$GPRMC,204620.4,A,3330.8841,N,11734.3966,W,40.30,273.40,060410,,*2D
$GPRMC,204623.4,A,3330.8830,N,11734.4369,W,40.90,261.10,060410,,*26
$GPRMC,204626.4,A,3330.8751,N,11734.4775,W,42.60,253.40,060410,,*2B
$GPRMC,204629.4,A,3330.8658,N,11734.5187,W,43.20,254.90,060410,,*29
$GPRMC,204632.4,A,3330.8577,N,11734.5616,W,43.50,257.80,060410,,*27
$GPRMC,204635.4,A,3330.8518,N,11734.6040,W,43.40,260.20,060410,,*20
$GPRMC,204638.4,A,3330.8476,N,11734.6483,W,43.10,262.10,060410,,*2B
$GPRMC,204641.4,A,3330.8430,N,11734.6897,W,41.00,262.80,060410,,*24
$GPRMC,204644.4,A,3330.8394,N,11734.7290,W,39.00,263.70,060410,,*25
$GPRMC,204647.4,A,3330.8351,N,11734.7679,W,39.50,263.40,060410,,*2A
$GPRMC,204650.4,A,3330.8307,N,11734.8062,W,40.30,262.70,060410,,*26
$GPRMC,204653.4,A,3330.8255,N,11734.8472,W,41.30,261.00,060410,,*23
$GPRMC,204656.4,A,3330.8219,N,11734.8883,W,42.40,262.80,060410,,*23
$GPRMC,204659.4,A,3330.8197,N,11734.9312,W,43.30,267.00,060410,,*20
$GPRMC,204702.4,A,3330.8226,N,11734.9737,W,41.70,275.40,060410,,*24
$GPRMC,204705.4,A,3330.8352,N,11735.0117,W,40.40,289.30,060410,,*2B
$GPRMC,204708.4,A,3330.8523,N,11735.0481,W,41.80,294.90,060410,,*27
$GPRMC,204711.4,A,3330.8690,N,11735.0802,W,38.70,297.40,060410,,*2C
$GPRMC,204714.4,A,3330.8784,N,11735.1180,W,40.30,284.90,060410,,*2B
$GPRMC,204717.4,A,3330.8839,N,11735.1574,W,40.90,276.30,060410,,*23
$GPRMC,204720.4,A,3330.8811,N,11735.1993,W,42.80,265.60,060410,,*2C
$GPRMC,204723.4,A,3330.8804,N,11735.2424,W,43.00,273.90,060410,,*28
$GPRMC,204726.4,A,3330.8867,N,11735.2849,W,44.30,284.90,060410,,*23
$GPRMC,204729.4,A,3330.8977,N,11735.3274,W,45.10,288.40,060410,,*2B
$GPRMC,204732.4,A,3330.9098,N,11735.3708,W,46.10,288.50,060410,,*24
$GPRMC,204735.4,A,3330.9220,N,11735.4153,W,45.60,288.50,060410,,*29
$GPRMC,204738.4,A,3330.9338,N,11735.4580,W,44.40,290.90,060410,,*20
$GPRMC,204741.4,A,3330.9489,N,11735.4974,W,43.70,295.00,060410,,*2C
$GPRMC,204744.4,A,3330.9730,N,11735.5296,W,43.50,310.40,060410,,*24
$GPRMC,204747.4,A,3330.9955,N,11735.5628,W,42.60,300.50,060410,,*29
$GPRMC,204750.4,A,3331.0117,N,11735.6011,W,43.40,295.20,060410,,*2F
$GPRMC,204753.4,A,3331.0245,N,11735.6419,W,44.50,291.60,060410,,*22
$GPRMC,204756.4,A,3331.0382,N,11735.6849,W,47.70,291.20,060410,,*21
$GPRMC,204759.4,A,3331.0508,N,11735.7301,W,47.10,290.80,060410,,*21
$GPRMC,204802.4,A,3331.0660,N,11735.7732,W,46.20,290.80,060410,,*2B
$GPRMC,204805.4,A,3331.0801,N,11735.8156,W,44.00,290.40,060410,,*22
$GPRMC,204808.4,A,3331.0932,N,11735.8567,W,44.60,292.30,060410,,*2B
$GPRMC,204811.4,A,3331.1065,N,11735.8996,W,46.10,291.20,060410,,*2C
$GPRMC,204814.4,A,3331.1201,N,11735.9424,W,46.20,290.80,060410,,*24
$GPRMC,204817.4,A,3331.1336,N,11735.9869,W,46.70,290.30,060410,,*29
$GPRMC,204820.4,A,3331.1466,N,11736.0312,W,45.50,290.50,060410,,*25
$GPRMC,204823.4,A,3331.1597,N,11736.0731,W,44.50,292.00,060410,,*2A
$GPRMC,204826.4,A,3331.1757,N,11736.1111,W,40.60,299.40,060410,,*2C
$GPRMC,204829.4,A,3331.2008,N,11736.1414,W,42.40,314.90,060410,,*24
$GPRMC,204832.4,A,3331.2272,N,11736.1705,W,42.90,316.00,060410,,*24
$GPRMC,204835.4,A,3331.2544,N,11736.1995,W,43.20,317.70,060410,,*2A
$GPRMC,204838.4,A,3331.2811,N,11736.2274,W,42.30,318.30,060410,,*26
$GPRMC,204841.4,A,3331.3054,N,11736.2562,W,39.90,311.30,060410,,*2F
$GPRMC,204844.4,A,3331.3253,N,11736.2883,W,40.20,300.90,060410,,*22
$GPRMC,204847.4,A,3331.3410,N,11736.3246,W,41.50,294.00,060410,,*21
$GPRMC,204850.4,A,3331.3479,N,11736.3649,W,41.80,279.00,060410,,*2D
$GPRMC,204853.4,A,3331.3524,N,11736.4066,W,41.60,274.00,060410,,*28
$GPRMC,204856.4,A,3331.3530,N,11736.4476,W,40.60,268.30,060410,,*22
$GPRMC,204859.4,A,3331.3458,N,11736.4879,W,42.20,255.10,060410,,*2B
$GPRMC,204902.4,A,3331.3317,N,11736.5253,W,41.30,246.80,060410,,*22
$GPRMC,204905.4,A,3331.3153,N,11736.5656,W,45.00,248.90,060410,,*2E
$GPRMC,204908.4,A,3331.3083,N,11736.6095,W,45.50,262.00,060410,,*21
$GPRMC,204911.4,A,3331.3093,N,11736.6555,W,45.60,271.60,060410,,*26
$GPRMC,204914.4,A,3331.3155,N,11736.7000,W,44.50,276.20,060410,,*2D
$GPRMC,204917.4,A,3331.3197,N,11736.7468,W,45.30,272.60,060410,,*2D
$GPRMC,204920.4,A,3331.3199,N,11736.7924,W,43.30,264.50,060410,,*20
$GPRMC,204923.4,A,3331.3083,N,11736.8331,W,41.90,249.90,060410,,*23
$GPRMC,204926.4,A,3331.2918,N,11736.8683,W,41.00,238.60,060410,,*20
$GPRMC,204929.4,A,3331.2756,N,11736.9041,W,40.60,241.90,060410,,*24
$GPRMC,204932.4,A,3331.2606,N,11736.9399,W,39.40,246.20,060410,,*2C
$GPRMC,204935.4,A,3331.2484,N,11736.9757,W,37.80,248.90,060410,,*22
$GPRMC,204938.4,A,3331.2392,N,11737.0082,W,33.90,251.70,060410,,*2B
$GPRMC,204941.4,A,3331.2319,N,11737.0338,W,28.50,251.30,060410,,*26
$GPRMC,204944.4,A,3331.2248,N,11737.0586,W,27.80,251.20,060410,,*26
$GPRMC,204947.4,A,3331.2174,N,11737.0808,W,26.40,251.30,060410,,*2E
$GPRMC,204950.4,A,3331.2119,N,11737.1047,W,23.90,252.20,060410,,*2B
$GPRMC,204953.4,A,3331.2064,N,11737.1264,W,21.10,253.50,060410,,*2C
$GPRMC,204956.4,A,3331.2026,N,11737.1441,W,17.80,257.40,060410,,*27
$GPRMC,204959.4,A,3331.1996,N,11737.1548,W,11.90,258.60,060410,,*2B
$GPRMC,205002.4,A,3331.1992,N,11737.1589,W,5.90,265.50,060410,,*1C
$GPRMC,205017.4,A,3331.1991,N,11737.1601,W,10.20,267.20,060410,,*22
$GPRMC,205020.4,A,3331.1987,N,11737.1712,W,10.10,271.90,060410,,*2D
$GPRMC,205023.4,A,3331.2026,N,11737.1802,W,10.60,305.90,060410,,*24
$GPRMC,205026.4,A,3331.2116,N,11737.1857,W,13.90,345.00,060410,,*22
$GPRMC,205029.4,A,3331.2263,N,11737.1865,W,19.10,356.90,060410,,*24
$GPRMC,205032.4,A,3331.2513,N,11737.1896,W,32.00,354.40,060410,,*25
$GPRMC,205035.4,A,3331.2789,N,11737.1925,W,35.10,355.00,060410,,*29
$GPRMC,205038.4,A,3331.3110,N,11737.1948,W,40.40,0.90,060410,,*25
$GPRMC,205041.4,A,3331.3461,N,11737.1916,W,43.10,6.20,060410,,*28
$GPRMC,205044.4,A,3331.3824,N,11737.1831,W,45.60,12.20,060410,,*10
$GPRMC,205047.4,A,3331.4226,N,11737.1692,W,50.10,18.10,060410,,*11
$GPRMC,205050.4,A,3331.4640,N,11737.1519,W,53.80,20.10,060410,,*12
$GPRMC,205053.4,A,3331.5079,N,11737.1330,W,55.80,18.70,060410,,*1A
$GPRMC,205056.4,A,3331.5526,N,11737.1183,W,54.90,13.40,060410,,*12
$GPRMC,205059.4,A,3331.5993,N,11737.1108,W,55.00,5.50,060410,,*22
$GPRMC,205102.4,A,3331.6495,N,11737.1127,W,57.60,356.30,060410,,*2F
$GPRMC,205105.4,A,3331.6980,N,11737.1200,W,58.50,349.30,060410,,*25
$GPRMC,205108.4,A,3331.7447,N,11737.1352,W,58.50,342.50,060410,,*24
$GPRMC,205111.4,A,3331.7900,N,11737.1554,W,59.10,340.50,060410,,*25
$GPRMC,205114.4,A,3331.8342,N,11737.1866,W,61.10,328.90,060410,,*26
$GPRMC,205117.4,A,3331.8722,N,11737.2209,W,58.50,322.20,060410,,*28
$GPRMC,205120.4,A,3331.9083,N,11737.2613,W,59.60,317.80,060410,,*20
$GPRMC,205123.4,A,3331.9442,N,11737.3022,W,59.90,317.20,060410,,*2A
$GPRMC,205126.4,A,3331.9783,N,11737.3431,W,59.70,317.10,060410,,*2A
$GPRMC,205129.4,A,3332.0139,N,11737.3825,W,56.70,318.40,060410,,*24
$GPRMC,205132.4,A,3332.0521,N,11737.4164,W,55.50,325.10,060410,,*22
$GPRMC,205135.4,A,3332.0939,N,11737.4450,W,56.90,333.20,060410,,*29
$GPRMC,205138.4,A,3332.1367,N,11737.4680,W,55.20,337.30,060410,,*26
$GPRMC,205141.4,A,3332.1807,N,11737.4884,W,57.10,338.70,060410,,*25
$GPRMC,205144.4,A,3332.2246,N,11737.5092,W,56.40,338.10,060410,,*20
$GPRMC,205147.4,A,3332.2681,N,11737.5303,W,56.20,337.90,060410,,*26
$GPRMC,205150.4,A,3332.3119,N,11737.5512,W,56.00,337.80,060410,,*22
$GPRMC,205153.4,A,3332.3545,N,11737.5718,W,54.60,338.30,060410,,*24
$GPRMC,205156.4,A,3332.3965,N,11737.5918,W,53.70,338.00,060410,,*24
$GPRMC,205159.4,A,3332.4393,N,11737.6110,W,53.30,338.70,060410,,*2F
$GPRMC,205202.4,A,3332.4806,N,11737.6314,W,53.00,337.70,060410,,*2F
$GPRMC,205205.4,A,3332.5194,N,11737.6509,W,49.60,338.10,060410,,*25
$GPRMC,205208.4,A,3332.5578,N,11737.6691,W,48.60,338.20,060410,,*2E
$GPRMC,205211.4,A,3332.5960,N,11737.6872,W,49.20,338.00,060410,,*27
$GPRMC,205214.4,A,3332.6349,N,11737.7054,W,50.10,338.20,060410,,*24
$GPRMC,205217.4,A,3332.6739,N,11737.7228,W,50.80,341.00,060410,,*28
$GPRMC,205220.4,A,3332.7141,N,11737.7386,W,50.70,343.10,060410,,*2D
$GPRMC,205223.4,A,3332.7568,N,11737.7494,W,50.00,348.50,060410,,*2D
$GPRMC,205226.4,A,3332.7971,N,11737.7577,W,49.80,349.90,060410,,*2D
$GPRMC,205229.4,A,3332.8391,N,11737.7629,W,51.60,355.50,060410,,*27
$GPRMC,205232.4,A,3332.8827,N,11737.7652,W,52.20,358.50,060410,,*2D
$GPRMC,205235.4,A,3332.9261,N,11737.7658,W,50.20,0.00,060410,,*20
$GPRMC,205238.4,A,3332.9666,N,11737.7662,W,47.80,359.90,060410,,*2D
$GPRMC,205241.4,A,3333.0016,N,11737.7647,W,40.50,0.30,060410,,*22
$GPRMC,205244.4,A,3333.0332,N,11737.7661,W,34.50,358.30,060410,,*2B
$GPRMC,205247.4,A,3333.0598,N,11737.7673,W,30.50,358.60,060410,,*2C
$GPRMC,205250.4,A,3333.0786,N,11737.7676,W,21.40,0.30,060410,,*28
$GPRMC,205253.4,A,3333.0853,N,11737.7686,W,7.50,357.90,060410,,*1D
$GPRMC,205305.4,A,3333.0947,N,11737.7689,W,11.30,351.10,060410,,*2B
$GPRMC,205308.4,A,3333.1116,N,11737.7713,W,20.00,352.60,060410,,*2C
$GPRMC,205311.4,A,3333.1349,N,11737.7752,W,29.20,350.70,060410,,*21
$GPRMC,205314.4,A,3333.1624,N,11737.7816,W,34.20,349.20,060410,,*24
$GPRMC,205317.4,A,3333.1942,N,11737.7897,W,38.50,349.20,060410,,*2A
$GPRMC,205320.4,A,3333.2257,N,11737.7968,W,38.20,348.70,060410,,*20
$GPRMC,205323.4,A,3333.2559,N,11737.8049,W,36.90,347.60,060410,,*24
$GPRMC,205326.4,A,3333.2839,N,11737.8129,W,34.80,347.70,060410,,*2F
$GPRMC,205329.4,A,3333.3100,N,11737.8197,W,33.70,348.00,060410,,*27
$GPRMC,205332.4,A,3333.3383,N,11737.8251,W,36.60,348.60,060410,,*2F
$GPRMC,205335.4,A,3333.3694,N,11737.8313,W,38.30,348.90,060410,,*28
$GPRMC,205338.4,A,3333.4025,N,11737.8390,W,39.80,348.90,060410,,*2F
$GPRMC,205341.4,A,3333.4346,N,11737.8447,W,39.00,354.00,060410,,*26
$GPRMC,205344.4,A,3333.4673,N,11737.8477,W,38.90,358.50,060410,,*22
$GPRMC,205347.4,A,3333.4995,N,11737.8475,W,38.60,1.80,060410,,*29
$GPRMC,205350.4,A,3333.5283,N,11737.8465,W,35.10,4.20,060410,,*26
$GPRMC,205353.4,A,3333.5522,N,11737.8415,W,29.00,7.30,060410,,*20
$GPRMC,205356.4,A,3333.5678,N,11737.8384,W,20.00,9.10,060410,,*23
$GPRMC,205359.4,A,3333.5756,N,11737.8352,W,10.40,11.40,060410,,*11
$GPRMC,205408.4,A,3333.5816,N,11737.8289,W,10.60,43.30,060410,,*1C
$GPRMC,205411.4,A,3333.6005,N,11737.8258,W,18.80,15.50,060410,,*12
$GPRMC,205414.4,A,3333.6184,N,11737.8199,W,26.40,15.70,060410,,*12
$GPRMC,205417.4,A,3333.6420,N,11737.8123,W,29.60,15.30,060410,,*12
$GPRMC,205420.4,A,3333.6671,N,11737.8036,W,32.80,16.30,060410,,*12
$GPRMC,205423.4,A,3333.6950,N,11737.7943,W,34.90,15.00,060410,,*1E
$GPRMC,205426.4,A,3333.7210,N,11737.7847,W,33.20,16.40,060410,,*1B
$GPRMC,205429.4,A,3333.7478,N,11737.7763,W,32.40,15.50,060410,,*10
$GPRMC,205432.4,A,3333.7736,N,11737.7675,W,32.50,15.90,060410,,*18
$GPRMC,205435.4,A,3333.8007,N,11737.7585,W,33.30,15.80,060410,,*1F
$GPRMC,205438.4,A,3333.8289,N,11737.7488,W,33.50,14.80,060410,,*1D
$GPRMC,205441.4,A,3333.8562,N,11737.7424,W,30.10,10.70,060410,,*1B
$GPRMC,205444.4,A,3333.8792,N,11737.7369,W,27.20,10.80,060410,,*17
$GPRMC,205447.4,A,3333.8969,N,11737.7335,W,18.10,6.90,060410,,*2E
$GPRMC,205450.4,A,3333.9062,N,11737.7326,W,10.10,359.30,060410,,*22
$GPRMC,205605.4,A,3333.9086,N,11737.7315,W,5.00,341.50,060410,,*10
$GPRMC,205608.4,A,3333.9230,N,11737.7335,W,13.20,344.30,060410,,*26
$GPRMC,205611.4,A,3333.9354,N,11737.7512,W,22.80,306.90,060410,,*2A
$GPRMC,205614.4,A,3333.9420,N,11737.7804,W,29.70,287.20,060410,,*26
$GPRMC,205617.4,A,3333.9507,N,11737.8120,W,36.30,290.50,060410,,*2A
$GPRMC,205620.4,A,3333.9632,N,11737.8480,W,39.70,292.90,060410,,*21
$GPRMC,205623.4,A,3333.9772,N,11737.8867,W,41.10,294.00,060410,,*24
$GPRMC,205626.4,A,3333.9911,N,11737.9245,W,41.10,293.80,060410,,*2E
$GPRMC,205629.4,A,3334.0055,N,11737.9629,W,41.40,293.90,060410,,*2C
$GPRMC,205632.4,A,3334.0190,N,11738.0016,W,42.20,293.10,060410,,*2F
$GPRMC,205635.4,A,3334.0318,N,11738.0416,W,43.20,288.50,060410,,*21
$GPRMC,205638.4,A,3334.0421,N,11738.0842,W,44.80,284.90,060410,,*21
$GPRMC,205641.4,A,3334.0487,N,11738.1291,W,46.10,279.70,060410,,*21
$GPRMC,205644.4,A,3334.0514,N,11738.1750,W,46.20,271.90,060410,,*22
$GPRMC,205647.4,A,3334.0505,N,11738.2203,W,45.50,266.30,060410,,*29
$GPRMC,205650.4,A,3334.0465,N,11738.2647,W,43.70,260.80,060410,,*25
$GPRMC,205653.4,A,3334.0395,N,11738.3070,W,42.90,257.60,060410,,*28
$GPRMC,205656.4,A,3334.0282,N,11738.3489,W,43.60,253.20,060410,,*26
$GPRMC,205659.4,A,3334.0142,N,11738.3892,W,44.20,244.70,060410,,*20
$GPRMC,205702.4,A,3333.9983,N,11738.4280,W,43.80,240.80,060410,,*2C
$GPRMC,205705.4,A,3333.9819,N,11738.4657,W,43.10,240.90,060410,,*2F
$GPRMC,205708.4,A,3333.9648,N,11738.5037,W,43.20,241.60,060410,,*24
$GPRMC,205711.4,A,3333.9507,N,11738.5386,W,34.90,244.30,060410,,*26
$GPRMC,205714.4,A,3333.9401,N,11738.5654,W,26.40,245.60,060410,,*24
$GPRMC,205717.4,A,3333.9322,N,11738.5827,W,18.30,241.00,060410,,*23
$GPRMC,205720.4,A,3333.9283,N,11738.5937,W,12.00,242.70,060410,,*20
$GPRMC,205759.4,A,3333.9252,N,11738.6012,W,4.80,252.80,060410,,*1E
$GPRMC,205802.4,A,3333.9253,N,11738.6089,W,8.50,266.80,060410,,*1A
$GPRMC,205805.4,A,3333.9205,N,11738.6284,W,18.50,255.40,060410,,*2C
$GPRMC,205808.4,A,3333.9125,N,11738.6575,W,31.40,245.90,060410,,*2F
$GPRMC,205811.4,A,3333.9011,N,11738.6892,W,36.80,242.50,060410,,*25
$GPRMC,205814.4,A,3333.8844,N,11738.7223,W,39.50,237.50,060410,,*28
$GPRMC,205817.4,A,3333.8654,N,11738.7554,W,40.30,234.40,060410,,*29
$GPRMC,205820.4,A,3333.8465,N,11738.7882,W,39.40,238.10,060410,,*2B
$GPRMC,205823.4,A,3333.8300,N,11738.8207,W,37.00,238.60,060410,,*29
$GPRMC,205826.4,A,3333.8160,N,11738.8490,W,32.00,239.50,060410,,*27
$GPRMC,205829.4,A,3333.8074,N,11738.8713,W,24.60,240.60,060410,,*28
$GPRMC,205832.4,A,3333.8042,N,11738.8861,W,16.70,249.00,060410,,*22
$GPRMC,205841.4,A,3333.8045,N,11738.8894,W,7.30,261.70,060410,,*12
$GPRMC,205844.4,A,3333.7997,N,11738.9071,W,20.50,250.90,060410,,*23
$GPRMC,205847.4,A,3333.7916,N,11738.9290,W,23.50,241.90,060410,,*27
$GPRMC,205850.4,A,3333.7849,N,11738.9602,W,33.10,251.10,060410,,*29
$GPRMC,205853.4,A,3333.7828,N,11739.0028,W,43.00,264.80,060410,,*22
$GPRMC,205856.4,A,3333.7819,N,11739.0487,W,45.20,268.30,060410,,*27
$GPRMC,205859.4,A,3333.7812,N,11739.0952,W,46.80,267.90,060410,,*2A
$GPRMC,205902.4,A,3333.7794,N,11739.1415,W,46.10,267.60,060410,,*2D
$GPRMC,205905.4,A,3333.7799,N,11739.1852,W,44.50,270.60,060410,,*28
$GPRMC,205908.4,A,3333.7786,N,11739.2222,W,37.70,270.90,060410,,*2C
$GPRMC,205911.4,A,3333.7779,N,11739.2501,W,27.30,266.80,060410,,*21
$GPRMC,205914.4,A,3333.7778,N,11739.2703,W,16.60,268.20,060410,,*26
$GPRMC,205917.4,A,3333.7780,N,11739.2873,W,19.30,269.80,060410,,*2B
$GPRMC,205920.4,A,3333.7781,N,11739.3092,W,24.90,271.90,060410,,*24
$GPRMC,205923.4,A,3333.7801,N,11739.3346,W,27.00,275.70,060410,,*2A
$GPRMC,205926.4,A,3333.7837,N,11739.3616,W,29.10,279.60,060410,,*28
$GPRMC,205929.4,A,3333.7892,N,11739.3908,W,30.30,282.70,060410,,*27
$GPRMC,205932.4,A,3333.7946,N,11739.4181,W,27.40,284.60,060410,,*2D
$GPRMC,205935.4,A,3333.7990,N,11739.4404,W,19.90,286.50,060410,,*28
$GPRMC,205938.4,A,3333.8030,N,11739.4566,W,16.20,289.00,060410,,*22
$GPRMC,205941.4,A,3333.8052,N,11739.4634,W,7.90,293.30,060410,,*1F
$GPRMC,205959.4,A,3333.8056,N,11739.4647,W,5.60,286.90,060410,,*15
$GPRMC,210002.4,A,3333.8110,N,11739.4844,W,18.70,286.10,060410,,*2D
$GPRMC,210005.4,A,3333.8168,N,11739.5078,W,26.70,286.30,060410,,*2C
$GPRMC,210008.4,A,3333.8231,N,11739.5356,W,31.00,285.40,060410,,*24
$GPRMC,210011.4,A,3333.8303,N,11739.5675,W,34.00,285.20,060410,,*2B
$GPRMC,210014.4,A,3333.8377,N,11739.6018,W,36.30,282.90,060410,,*2E
$GPRMC,210017.4,A,3333.8439,N,11739.6390,W,38.90,279.90,060410,,*23
$GPRMC,210020.4,A,3333.8485,N,11739.6779,W,39.30,276.20,060410,,*2C
$GPRMC,210023.4,A,3333.8507,N,11739.7177,W,40.50,271.50,060410,,*25
$GPRMC,210026.4,A,3333.8509,N,11739.7592,W,42.00,267.50,060410,,*21
$GPRMC,210029.4,A,3333.8479,N,11739.8017,W,42.90,263.50,060410,,*22
$GPRMC,210032.4,A,3333.8419,N,11739.8436,W,42.10,260.50,060410,,*22
$GPRMC,210035.4,A,3333.8350,N,11739.8828,W,40.30,258.60,060410,,*24
$GPRMC,210038.4,A,3333.8233,N,11739.9202,W,40.40,249.20,060410,,*2D
$GPRMC,210041.4,A,3333.8100,N,11739.9567,W,39.70,248.40,060410,,*2E
$GPRMC,210044.4,A,3333.7990,N,11739.9926,W,37.30,248.60,060410,,*24
$GPRMC,210047.4,A,3333.7892,N,11740.0243,W,30.90,253.70,060410,,*2D
$GPRMC,210050.4,A,3333.7834,N,11740.0463,W,20.70,257.20,060410,,*2D
$GPRMC,210053.4,A,3333.7793,N,11740.0527,W,7.20,248.10,060410,,*10
$GPRMC,210156.4,A,3333.7711,N,11740.0678,W,8.70,229.10,060410,,*1A
$GPRMC,210159.4,A,3333.7641,N,11740.0870,W,15.40,237.60,060410,,*20
$GPRMC,210202.4,A,3333.7549,N,11740.1166,W,23.00,239.50,060410,,*25
$GPRMC,210205.4,A,3333.7462,N,11740.1345,W,16.30,236.00,060410,,*26
$GPRMC,210208.4,A,3333.7406,N,11740.1452,W,9.80,233.10,060410,,*19
$GPRMC,210211.4,A,3333.7366,N,11740.1507,W,5.50,224.70,060410,,*10
$GPRMC,210232.4,A,3333.7320,N,11740.1586,W,5.10,255.40,060410,,*1B
$GPRMC,210235.4,A,3333.7262,N,11740.1685,W,9.70,245.20,060410,,*16
$GPRMC,210238.4,A,3333.7126,N,11740.1858,W,19.50,234.30,060410,,*22
$GPRMC,210241.4,A,3333.6991,N,11740.2026,W,23.00,228.90,060410,,*20
$GPRMC,210244.4,A,3333.6760,N,11740.2208,W,28.70,218.90,060410,,*24
$GPRMC,210247.4,A,3333.6510,N,11740.2392,W,31.40,214.60,060410,,*28
$GPRMC,210250.4,A,3333.6298,N,11740.2582,W,33.00,216.80,060410,,*24
$GPRMC,210253.4,A,3333.6082,N,11740.2794,W,29.70,217.30,060410,,*2D
$GPRMC,210256.4,A,3333.5949,N,11740.2950,W,20.70,223.10,060410,,*2F
$GPRMC,210300.4,A,3333.5903,N,11740.3130,W,13.30,245.60,060410,,*2F
$GPRMC,210318.4,A,3333.5833,N,11740.3144,W,8.90,214.90,060410,,*1C
$GPRMC,210321.4,A,3333.5758,N,11740.3317,W,18.30,235.90,060410,,*28
$GPRMC,210324.4,A,3333.5652,N,11740.3564,W,29.30,249.10,060410,,*25
$GPRMC,210327.4,A,3333.5554,N,11740.3857,W,34.10,249.70,060410,,*26
$GPRMC,210330.4,A,3333.5455,N,11740.4187,W,36.60,249.80,060410,,*29
$GPRMC,210333.4,A,3333.5348,N,11740.4539,W,37.10,250.40,060410,,*22
$GPRMC,210336.4,A,3333.5243,N,11740.4886,W,36.20,250.10,060410,,*23
$GPRMC,210339.4,A,3333.5143,N,11740.5224,W,36.00,248.50,060410,,*23
$GPRMC,210342.4,A,3333.5013,N,11740.5548,W,35.80,239.40,060410,,*2A
$GPRMC,210345.4,A,3333.4845,N,11740.5850,W,36.90,232.70,060410,,*29
$GPRMC,210348.4,A,3333.4660,N,11740.6146,W,37.50,234.70,060410,,*2B
$GPRMC,210351.4,A,3333.4491,N,11740.6449,W,36.60,237.40,060410,,*27
$GPRMC,210354.4,A,3333.4392,N,11740.6736,W,28.80,248.80,060410,,*28
$GPRMC,210357.4,A,3333.4320,N,11740.6943,W,19.60,237.10,060410,,*23
$GPRMC,210400.4,A,3333.4281,N,11740.7060,W,12.80,244.70,060410,,*22
$GPRMC,210403.4,A,3333.4270,N,11740.7146,W,7.50,257.70,060410,,*11
$GPRMC,210500.4,A,3333.4228,N,11740.7305,W,6.00,271.60,060410,,*1A
$GPRMC,210503.4,A,3333.4235,N,11740.7428,W,11.60,273.70,060410,,*2E
$GPRMC,210506.4,A,3333.4187,N,11740.7681,W,24.40,257.80,060410,,*2D
$GPRMC,210509.4,A,3333.4139,N,11740.7968,W,32.10,259.00,060410,,*2B
$GPRMC,210512.4,A,3333.4063,N,11740.8300,W,34.50,257.70,060410,,*2F
$GPRMC,210515.4,A,3333.4004,N,11740.8639,W,34.20,256.20,060410,,*25
$GPRMC,210518.4,A,3333.3895,N,11740.9017,W,39.60,251.20,060410,,*2A
$GPRMC,210521.4,A,3333.3760,N,11740.9386,W,40.00,244.60,060410,,*26
$GPRMC,210524.4,A,3333.3574,N,11740.9743,W,40.30,236.10,060410,,*28
$GPRMC,210527.4,A,3333.3335,N,11741.0053,W,40.40,228.40,060410,,*2B
$GPRMC,210530.4,A,3333.3097,N,11741.0301,W,38.50,222.80,060410,,*2A
$GPRMC,210533.4,A,3333.2877,N,11741.0546,W,34.70,219.90,060410,,*2C
$GPRMC,210536.4,A,3333.2683,N,11741.0737,W,29.10,215.50,060410,,*22
$GPRMC,210539.4,A,3333.2539,N,11741.0868,W,22.80,215.80,060410,,*25
$GPRMC,210542.4,A,3333.2443,N,11741.0981,W,15.70,217.00,060410,,*22
$GPRMC,210545.4,A,3333.2433,N,11741.1054,W,6.90,237.10,060410,,*1D
$GPRMC,210600.4,A,3333.2416,N,11741.1110,W,8.90,226.80,060410,,*1E
$GPRMC,210603.4,A,3333.2294,N,11741.1196,W,17.90,227.20,060410,,*2A
$GPRMC,210606.4,A,3333.2094,N,11741.1377,W,29.30,230.80,060410,,*2B
$GPRMC,210609.4,A,3333.1917,N,11741.1644,W,35.30,236.80,060410,,*2B
$GPRMC,210612.4,A,3333.1721,N,11741.1989,W,43.60,234.40,060410,,*2E
$GPRMC,210615.4,A,3333.1502,N,11741.2336,W,43.40,229.50,060410,,*28
$GPRMC,210618.4,A,3333.1219,N,11741.2651,W,44.90,221.60,060410,,*2D
$GPRMC,210621.4,A,3333.0882,N,11741.2905,W,46.70,211.80,060410,,*21
$GPRMC,210624.4,A,3333.0522,N,11741.3102,W,46.50,200.80,060410,,*2F
$GPRMC,210627.4,A,3333.0158,N,11741.3252,W,46.40,198.30,060410,,*2B
$GPRMC,210630.4,A,3332.9779,N,11741.3386,W,47.00,198.20,060410,,*2C
$GPRMC,210633.4,A,3332.9410,N,11741.3534,W,46.60,199.10,060410,,*29
$GPRMC,210636.4,A,3332.9036,N,11741.3692,W,47.60,199.20,060410,,*21
$GPRMC,210639.4,A,3332.8651,N,11741.3837,W,48.00,197.60,060410,,*2A
$GPRMC,210642.4,A,3332.8263,N,11741.3964,W,48.40,195.10,060410,,*25
$GPRMC,210645.4,A,3332.7870,N,11741.4086,W,48.70,194.50,060410,,*21
$GPRMC,210648.4,A,3332.7468,N,11741.4207,W,48.90,194.30,060410,,*2A
$GPRMC,210651.4,A,3332.7084,N,11741.4345,W,48.20,197.00,060410,,*28
$GPRMC,210654.4,A,3332.6714,N,11741.4495,W,45.40,201.40,060410,,*2B
$GPRMC,210657.4,A,3332.6425,N,11741.4702,W,40.50,212.00,060410,,*26
$GPRMC,210700.4,A,3332.6193,N,11741.4900,W,32.40,215.60,060410,,*24
$GPRMC,210703.4,A,3332.6054,N,11741.5044,W,21.20,214.80,060410,,*2E
$GPRMC,210706.4,A,3332.5961,N,11741.5119,W,12.30,207.70,060410,,*22
$GPRMC,210727.4,A,3332.5877,N,11741.5281,W,15.00,231.50,060410,,*26
$GPRMC,210730.4,A,3332.5725,N,11741.5473,W,25.00,229.80,060410,,*24
$GPRMC,210733.4,A,3332.5519,N,11741.5709,W,32.20,225.80,060410,,*2C
$GPRMC,210736.4,A,3332.5303,N,11741.5961,W,36.90,225.40,060410,,*27
$GPRMC,210739.4,A,3332.5044,N,11741.6242,W,40.20,224.20,060410,,*2C
$GPRMC,210742.4,A,3332.4749,N,11741.6512,W,43.30,216.40,060410,,*2C
$GPRMC,210745.4,A,3332.4454,N,11741.6762,W,43.90,213.10,060410,,*2B
$GPRMC,210748.4,A,3332.4137,N,11741.6975,W,43.90,208.80,060410,,*2D
$GPRMC,210751.4,A,3332.3804,N,11741.7186,W,46.70,209.30,060410,,*2F
$GPRMC,210754.4,A,3332.3492,N,11741.7446,W,46.50,216.30,060410,,*2C
$GPRMC,210757.4,A,3332.3200,N,11741.7751,W,47.00,220.90,060410,,*2C
$GPRMC,210800.4,A,3332.2919,N,11741.8064,W,46.60,222.50,060410,,*24
$GPRMC,210803.4,A,3332.2658,N,11741.8363,W,43.50,222.80,060410,,*22
$GPRMC,210806.4,A,3332.2387,N,11741.8663,W,43.60,222.60,060410,,*28
$GPRMC,210809.4,A,3332.2131,N,11741.8950,W,42.20,222.30,060410,,*27
$GPRMC,210812.4,A,3332.1854,N,11741.9238,W,42.80,221.70,060410,,*2D
$GPRMC,210815.4,A,3332.1584,N,11741.9525,W,43.70,222.50,060410,,*2E
$GPRMC,210818.4,A,3332.1298,N,11741.9824,W,44.60,221.50,060410,,*20
$GPRMC,210821.4,A,3332.1025,N,11742.0099,W,43.50,219.90,060410,,*29
$GPRMC,210824.4,A,3332.0748,N,11742.0361,W,39.40,218.40,060410,,*25
$GPRMC,210827.4,A,3332.0541,N,11742.0560,W,31.70,216.90,060410,,*22
$GPRMC,210830.4,A,3332.0387,N,11742.0747,W,29.40,221.80,060410,,*20
$GPRMC,210833.4,A,3332.0163,N,11742.0985,W,36.80,224.50,060410,,*21
$GPRMC,210836.4,A,3331.9934,N,11742.1264,W,39.40,224.40,060410,,*23
$GPRMC,210839.4,A,3331.9676,N,11742.1557,W,42.60,226.90,060410,,*23
$GPRMC,210842.4,A,3331.9465,N,11742.1894,W,44.30,231.80,060410,,*29
$GPRMC,210845.4,A,3331.9242,N,11742.2257,W,45.70,232.50,060410,,*20
$GPRMC,210848.4,A,3331.9006,N,11742.2621,W,45.40,232.10,060410,,*2D
$GPRMC,210851.4,A,3331.8794,N,11742.2980,W,43.70,235.80,060410,,*27
$GPRMC,210854.4,A,3331.8599,N,11742.3353,W,42.40,241.50,060410,,*24
$GPRMC,210857.4,A,3331.8426,N,11742.3718,W,43.00,241.10,060410,,*28
$GPRMC,210900.4,A,3331.8245,N,11742.4096,W,44.60,240.60,060410,,*29
$GPRMC,210903.4,A,3331.8053,N,11742.4481,W,44.90,237.50,060410,,*21
$GPRMC,210906.4,A,3331.7843,N,11742.4836,W,42.70,232.90,060410,,*23
$GPRMC,210909.4,A,3331.7593,N,11742.5157,W,43.00,226.00,060410,,*29
$GPRMC,210912.4,A,3331.7308,N,11742.5442,W,42.70,219.40,060410,,*28
$GPRMC,210915.4,A,3331.6989,N,11742.5674,W,43.50,211.80,060410,,*2D
$GPRMC,210918.4,A,3331.6671,N,11742.5910,W,44.30,212.90,060410,,*26
$GPRMC,210921.4,A,3331.6395,N,11742.6175,W,41.70,219.40,060410,,*2C
$GPRMC,210924.4,A,3331.6196,N,11742.6447,W,36.20,225.90,060410,,*2B
$GPRMC,210927.4,A,3331.6062,N,11742.6664,W,24.50,227.10,060410,,*2F
$GPRMC,210930.4,A,3331.5980,N,11742.6798,W,16.60,223.80,060410,,*22
$GPRMC,210933.4,A,3331.5978,N,11742.6850,W,9.10,263.20,060410,,*1A
$GPRMC,210936.4,A,3331.6044,N,11742.6957,W,15.20,303.40,060410,,*23
$GPRMC,210939.4,A,3331.6177,N,11742.7113,W,22.90,303.80,060410,,*27
$GPRMC,210942.4,A,3331.6338,N,11742.7361,W,33.10,302.90,060410,,*2D
$GPRMC,210945.4,A,3331.6467,N,11742.7657,W,34.80,292.20,060410,,*2A
$GPRMC,210948.4,A,3331.6581,N,11742.7987,W,36.70,294.30,060410,,*26
$GPRMC,210951.4,A,3331.6766,N,11742.8296,W,36.50,306.40,060410,,*2E
$GPRMC,210954.4,A,3331.6976,N,11742.8567,W,35.20,313.30,060410,,*2A
$GPRMC,210957.4,A,3331.7174,N,11742.8816,W,32.70,315.60,060410,,*28
$GPRMC,211000.4,A,3331.7351,N,11742.9004,W,25.70,319.80,060410,,*29
$GPRMC,211003.4,A,3331.7466,N,11742.9102,W,16.20,335.40,060410,,*29
$GPRMC,211012.4,A,3331.7473,N,11742.9144,W,7.30,313.40,060410,,*1A
