NMEA Sentence Code,UTC Time,Status,Latitude,Latitude Direction,Longitude,Longitude Direction,Speed (knots),Track Angle (degrees true),Date,MagneticVariation,Magnetic Variation Direction,[FAA Mode]-Optional,Checksum
$GPRMC,192630.000,A,3337.0739,N,11749.5678,W,50.83,176.68,130310,,,A*4C
$GPRMC,192633.000,A,3337.0308,N,11749.5657,W,52.48,177.35,130310,,,A*48
$GPRMC,192636.000,A,3336.9866,N,11749.5636,W,53.17,177.66,130310,,,A*4C
$GPRMC,192639.000,A,3336.9424,N,11749.5619,W,52.58,177.81,130310,,,A*47
$GPRMC,192642.000,A,3336.8981,N,11749.5598,W,52.34,177.48,130310,,,A*4D
$GPRMC,192645.000,A,3336.8540,N,11749.5576,W,52.33,177.55,130310,,,A*40
$GPRMC,192648.000,A,3336.8099,N,11749.5552,W,53.09,177.37,130310,,,A*46
$GPRMC,192651.000,A,3336.7657,N,11749.5530,W,52.03,177.69,130310,,,A*41
$GPRMC,192654.000,A,3336.7222,N,11749.5505,W,52.15,177.26,130310,,,A*48
$GPRMC,192657.000,A,3336.6799,N,11749.5487,W,50.02,177.41,130310,,,A*41
$GPRMC,192700.000,A,3336.6392,N,11749.5465,W,47.55,177.84,130310,,,A*4C
$GPRMC,192703.000,A,3336.6008,N,11749.5462,W,45.26,181.31,130310,,,A*49
$GPRMC,192706.000,A,3336.5661,N,11749.5489,W,39.57,185.43,130310,,,A*4F
$GPRMC,192709.000,A,3336.5358,N,11749.5537,W,36.20,188.80,130310,,,A*46
$GPRMC,192712.000,A,3336.5053,N,11749.5611,W,39.05,192.90,130310,,,A*41
$GPRMC,192715.000,A,3336.4736,N,11749.5715,W,39.07,196.68,130310,,,A*47
$GPRMC,192718.000,A,3336.4430,N,11749.5839,W,37.97,200.04,130310,,,A*4F
$GPRMC,192721.000,A,3336.4147,N,11749.5979,W,35.33,202.94,130310,,,A*42
$GPRMC,192724.000,A,3336.3900,N,11749.6118,W,30.27,207.25,130310,,,A*48
$GPRMC,192727.000,A,3336.3746,N,11749.6225,W,15.65,208.33,130310,,,A*43
$GPRMC,192736.000,A,3336.3655,N,11749.6294,W,6.81,212.76,130310,,,A*78
$GPRMC,192739.000,A,3336.3602,N,11749.6333,W,6.58,209.47,130310,,,A*75
$GPRMC,192757.000,A,3336.3568,N,11749.6360,W,10.58,213.08,130310,,,A*43
$GPRMC,192800.000,A,3336.3435,N,11749.6464,W,23.26,213.89,130310,,,A*44
$GPRMC,192803.000,A,3336.3232,N,11749.6635,W,33.40,216.86,130310,,,A*4B
$GPRMC,192806.000,A,3336.2990,N,11749.6862,W,38.27,219.52,130310,,,A*4C
$GPRMC,192809.000,A,3336.2726,N,11749.7125,W,42.30,220.04,130310,,,A*49
$GPRMC,192812.000,A,3336.2444,N,11749.7408,W,43.74,220.15,130310,,,A*4F
$GPRMC,192815.000,A,3336.2162,N,11749.7696,W,44.10,220.17,130310,,,A*4B
$GPRMC,192818.000,A,3336.1872,N,11749.7987,W,45.48,220.10,130310,,,A*49
$GPRMC,192821.000,A,3336.1574,N,11749.8287,W,47.01,220.22,130310,,,A*42
$GPRMC,192824.000,A,3336.1268,N,11749.8595,W,47.65,220.11,130310,,,A*4B
$GPRMC,192827.000,A,3336.0964,N,11749.8898,W,46.97,219.59,130310,,,A*44
$GPRMC,192830.000,A,3336.0660,N,11749.9204,W,47.78,219.90,130310,,,A*42
$GPRMC,192833.000,A,3336.0349,N,11749.9517,W,48.79,220.10,130310,,,A*46
$GPRMC,192836.000,A,3336.0031,N,11749.9832,W,49.63,219.88,130310,,,A*44
$GPRMC,192839.000,A,3335.9707,N,11750.0156,W,50.06,219.79,130310,,,A*4C
$GPRMC,192842.000,A,3335.9377,N,11750.0474,W,50.76,216.60,130310,,,A*46
$GPRMC,192845.000,A,3335.9016,N,11750.0751,W,51.40,209.40,130310,,,A*49
$GPRMC,192848.000,A,3335.8636,N,11750.0972,W,49.14,202.69,130310,,,A*46
$GPRMC,192851.000,A,3335.8276,N,11750.1130,W,43.08,197.50,130310,,,A*43
$GPRMC,192854.000,A,3335.7966,N,11750.1225,W,34.75,192.45,130310,,,A*4F
$GPRMC,192857.000,A,3335.7739,N,11750.1271,W,24.09,189.79,130310,,,A*46
$GPRMC,192900.000,A,3335.7613,N,11750.1284,W,12.43,186.87,130310,,,A*43
$GPRMC,192915.000,A,3335.7507,N,11750.1286,W,14.39,183.53,130310,,,A*44
$GPRMC,192918.000,A,3335.7320,N,11750.1295,W,26.70,181.62,130310,,,A*44
$GPRMC,192921.000,A,3335.7048,N,11750.1293,W,34.77,177.90,130310,,,A*45
$GPRMC,192924.000,A,3335.6712,N,11750.1275,W,40.19,177.85,130310,,,A*4E
$GPRMC,192927.000,A,3335.6339,N,11750.1258,W,42.82,178.17,130310,,,A*4B
$GPRMC,192930.000,A,3335.5949,N,11750.1233,W,45.33,177.96,130310,,,A*45
$GPRMC,192933.000,A,3335.5559,N,11750.1219,W,47.52,178.30,130310,,,A*45
$GPRMC,192936.000,A,3335.5148,N,11750.1202,W,49.96,178.67,130310,,,A*4A
$GPRMC,192939.000,A,3335.4731,N,11750.1193,W,50.12,178.34,130310,,,A*45
$GPRMC,192942.000,A,3335.4301,N,11750.1175,W,51.74,177.45,130310,,,A*4E
$GPRMC,192945.000,A,3335.3865,N,11750.1154,W,52.18,177.85,130310,,,A*41
$GPRMC,192948.000,A,3335.3418,N,11750.1129,W,53.28,177.58,130310,,,A*42
$GPRMC,192951.000,A,3335.2977,N,11750.1107,W,52.52,177.81,130310,,,A*4B
$GPRMC,192954.000,A,3335.2547,N,11750.1092,W,49.29,179.93,130310,,,A*47
$GPRMC,192957.000,A,3335.2134,N,11750.1141,W,50.19,190.14,130310,,,A*48
$GPRMC,193000.000,A,3335.1730,N,11750.1275,W,50.36,198.98,130310,,,A*46
$GPRMC,193003.000,A,3335.1357,N,11750.1479,W,47.65,209.17,130310,,,A*46
$GPRMC,193006.000,A,3335.1034,N,11750.1754,W,46.42,219.09,130310,,,A*43
$GPRMC,193009.000,A,3335.0753,N,11750.2091,W,46.57,228.34,130310,,,A*4E
$GPRMC,193012.000,A,3335.0523,N,11750.2465,W,45.44,236.27,130310,,,A*42
$GPRMC,193015.000,A,3335.0329,N,11750.2859,W,46.04,242.16,130310,,,A*4C
$GPRMC,193018.000,A,3335.0222,N,11750.3313,W,47.62,254.97,130310,,,A*40
$GPRMC,193021.000,A,3335.0186,N,11750.3800,W,48.45,264.27,130310,,,A*4C
$GPRMC,193024.000,A,3335.0186,N,11750.4300,W,49.87,271.59,130310,,,A*47
$GPRMC,193027.000,A,3335.0257,N,11750.4770,W,46.15,282.87,130310,,,A*43
$GPRMC,193030.000,A,3335.0374,N,11750.5205,W,46.26,288.18,130310,,,A*4F
$GPRMC,193033.000,A,3335.0498,N,11750.5641,W,46.29,288.21,130310,,,A*48
$GPRMC,193036.000,A,3335.0621,N,11750.6076,W,46.37,288.37,130310,,,A*44
$GPRMC,193039.000,A,3335.0744,N,11750.6518,W,47.08,287.51,130310,,,A*46
$GPRMC,193042.000,A,3335.0842,N,11750.6967,W,46.24,279.94,130310,,,A*40
$GPRMC,193045.000,A,3335.0874,N,11750.7431,W,46.67,269.99,130310,,,A*46
$GPRMC,193048.000,A,3335.0820,N,11750.7878,W,44.36,257.92,130310,,,A*4B
$GPRMC,193051.000,A,3335.0705,N,11750.8278,W,40.11,248.79,130310,,,A*44
$GPRMC,193054.000,A,3335.0546,N,11750.8595,W,36.08,235.04,130310,,,A*49
$GPRMC,193057.000,A,3335.0360,N,11750.8864,W,32.25,229.42,130310,,,A*4F
$GPRMC,193100.000,A,3335.0198,N,11750.9060,W,23.04,221.58,130310,,,A*44
$GPRMC,193103.000,A,3335.0087,N,11750.9168,W,13.20,218.06,130310,,,A*45
$GPRMC,193106.000,A,3335.0033,N,11750.9215,W,4.81,218.51,130310,,,A*79
$GPRMC,193206.000,A,3335.0036,N,11750.9200,W,4.47,219.67,130310,,,A*75
$GPRMC,193209.000,A,3334.9965,N,11750.9272,W,13.15,219.15,130310,,,A*4C
$GPRMC,193212.000,A,3334.9854,N,11750.9342,W,15.31,192.61,130310,,,A*44
$GPRMC,193215.000,A,3334.9730,N,11750.9296,W,17.38,142.71,130310,,,A*41
$GPRMC,193218.000,A,3334.9586,N,11750.9091,W,29.61,128.81,130310,,,A*44
$GPRMC,193221.000,A,3334.9398,N,11750.8809,W,37.82,129.14,130310,,,A*40
$GPRMC,193224.000,A,3334.9177,N,11750.8486,W,42.80,129.28,130310,,,A*42
$GPRMC,193227.000,A,3334.8934,N,11750.8131,W,45.48,129.20,130310,,,A*4D
$GPRMC,193230.000,A,3334.8673,N,11750.7755,W,49.42,129.75,130310,,,A*4A
$GPRMC,193233.000,A,3334.8405,N,11750.7373,W,48.23,129.87,130310,,,A*41
$GPRMC,193236.000,A,3334.8153,N,11750.7011,W,44.58,129.41,130310,,,A*4F
$GPRMC,193239.000,A,3334.7920,N,11750.6677,W,43.96,129.83,130310,,,A*4F
$GPRMC,193242.000,A,3334.7674,N,11750.6327,W,46.49,129.90,130310,,,A*48
$GPRMC,193245.000,A,3334.7427,N,11750.5972,W,46.04,129.68,130310,,,A*4C
$GPRMC,193248.000,A,3334.7180,N,11750.5621,W,46.33,129.49,130310,,,A*47
$GPRMC,193251.000,A,3334.6926,N,11750.5255,W,47.70,129.90,130310,,,A*4F
$GPRMC,193254.000,A,3334.6658,N,11750.4890,W,49.84,133.94,130310,,,A*44
$GPRMC,193257.000,A,3334.6347,N,11750.4555,W,51.16,141.29,130310,,,A*49
$GPRMC,193300.000,A,3334.5981,N,11750.4256,W,53.41,148.53,130310,,,A*49
$GPRMC,193303.000,A,3334.5574,N,11750.4008,W,55.51,155.89,130310,,,A*49
$GPRMC,193306.000,A,3334.5138,N,11750.3801,W,55.80,158.26,130310,,,A*42
$GPRMC,193309.000,A,3334.4710,N,11750.3590,W,54.29,155.98,130310,,,A*4F
$GPRMC,193312.000,A,3334.4325,N,11750.3356,W,49.86,150.83,130310,,,A*4D
$GPRMC,193315.000,A,3334.3993,N,11750.3106,W,45.89,146.49,130310,,,A*4F
$GPRMC,193318.000,A,3334.3695,N,11750.2840,W,44.77,141.43,130310,,,A*4C
$GPRMC,193321.000,A,3334.3417,N,11750.2549,W,43.01,137.27,130310,,,A*4F
$GPRMC,193324.000,A,3334.3184,N,11750.2271,W,36.34,134.43,130310,,,A*4C
$GPRMC,193327.000,A,3334.3001,N,11750.2043,W,28.60,134.87,130310,,,A*46
$GPRMC,193330.000,A,3334.2859,N,11750.1872,W,20.61,135.48,130310,,,A*46
$GPRMC,193333.000,A,3334.2767,N,11750.1757,W,14.53,134.79,130310,,,A*4A
$GPRMC,193336.000,A,3334.2672,N,11750.1641,W,21.00,133.88,130310,,,A*45
$GPRMC,193339.000,A,3334.2528,N,11750.1466,W,26.49,134.76,130310,,,A*4D
$GPRMC,193342.000,A,3334.2365,N,11750.1266,W,29.13,134.18,130310,,,A*40
$GPRMC,193345.000,A,3334.2180,N,11750.1041,W,33.60,134.19,130310,,,A*47
$GPRMC,193348.000,A,3334.1976,N,11750.0793,W,36.23,134.64,130310,,,A*49
$GPRMC,193351.000,A,3334.1753,N,11750.0522,W,38.35,134.77,130310,,,A*4B
$GPRMC,193354.000,A,3334.1503,N,11750.0234,W,43.79,136.60,130310,,,A*49
$GPRMC,193357.000,A,3334.1218,N,11749.9901,W,49.40,133.25,130310,,,A*4F
$GPRMC,193400.000,A,3334.0935,N,11749.9514,W,53.15,129.97,130310,,,A*4E
$GPRMC,193403.000,A,3334.0655,N,11749.9087,W,54.65,127.28,130310,,,A*41
$GPRMC,193406.000,A,3334.0392,N,11749.8653,W,52.41,124.90,130310,,,A*44
$GPRMC,193409.000,A,3334.0145,N,11749.8230,W,51.88,126.14,130310,,,A*4A
$GPRMC,193412.000,A,3333.9886,N,11749.7808,W,52.63,126.62,130310,,,A*41
$GPRMC,193415.000,A,3333.9625,N,11749.7391,W,52.13,126.64,130310,,,A*4B
$GPRMC,193418.000,A,3333.9365,N,11749.6974,W,51.95,126.53,130310,,,A*4E
$GPRMC,193421.000,A,3333.9104,N,11749.6559,W,51.98,126.95,130310,,,A*45
$GPRMC,193424.000,A,3333.8841,N,11749.6135,W,52.00,127.14,130310,,,A*4D
$GPRMC,193427.000,A,3333.8588,N,11749.5733,W,48.95,127.38,130310,,,A*4C
$GPRMC,193430.000,A,3333.8338,N,11749.5338,W,50.87,126.51,130310,,,A*4C
$GPRMC,193433.000,A,3333.8071,N,11749.4935,W,51.76,131.92,130310,,,A*41
$GPRMC,193436.000,A,3333.7745,N,11749.4586,W,52.74,142.35,130310,,,A*47
$GPRMC,193439.000,A,3333.7382,N,11749.4282,W,52.98,143.23,130310,,,A*40
$GPRMC,193442.000,A,3333.7044,N,11749.3927,W,53.91,134.21,130310,,,A*4C
$GPRMC,193445.000,A,3333.6745,N,11749.3518,W,54.14,130.31,130310,,,A*43
$GPRMC,193448.000,A,3333.6446,N,11749.3108,W,53.70,131.72,130310,,,A*48
$GPRMC,193451.000,A,3333.6152,N,11749.2704,W,53.03,130.78,130310,,,A*44
$GPRMC,193454.000,A,3333.5865,N,11749.2301,W,53.36,130.71,130310,,,A*41
$GPRMC,193457.000,A,3333.5565,N,11749.1912,W,50.49,135.89,130310,,,A*4D
$GPRMC,193500.000,A,3333.5261,N,11749.1608,W,45.22,141.26,130310,,,A*46
$GPRMC,193503.000,A,3333.4981,N,11749.1345,W,42.70,141.13,130310,,,A*4B
$GPRMC,193506.000,A,3333.4718,N,11749.1091,W,39.59,139.90,130310,,,A*49
$GPRMC,193509.000,A,3333.4494,N,11749.0826,W,36.97,131.02,130310,,,A*4A
$GPRMC,193512.000,A,3333.4286,N,11749.0505,W,43.53,124.18,130310,,,A*4C
$GPRMC,193515.000,A,3333.4096,N,11749.0106,W,48.20,117.45,130310,,,A*48
$GPRMC,193518.000,A,3333.3918,N,11748.9686,W,46.31,117.18,130310,,,A*4C
$GPRMC,193521.000,A,3333.3746,N,11748.9279,W,44.97,116.44,130310,,,A*41
$GPRMC,193524.000,A,3333.3579,N,11748.8873,W,45.83,116.18,130310,,,A*46
$GPRMC,193527.000,A,3333.3395,N,11748.8446,W,49.61,119.39,130310,,,A*47
$GPRMC,193530.000,A,3333.3174,N,11748.8035,W,47.59,125.31,130310,,,A*4E
$GPRMC,193533.000,A,3333.2948,N,11748.7663,W,44.18,125.98,130310,,,A*44
$GPRMC,193536.000,A,3333.2743,N,11748.7319,W,42.44,125.71,130310,,,A*44
$GPRMC,193539.000,A,3333.2531,N,11748.6972,W,43.05,126.16,130310,,,A*4C
$GPRMC,193542.000,A,3333.2321,N,11748.6626,W,42.89,125.61,130310,,,A*4F
$GPRMC,193545.000,A,3333.2119,N,11748.6282,W,41.39,123.77,130310,,,A*42
$GPRMC,193548.000,A,3333.1951,N,11748.5925,W,41.06,114.59,130310,,,A*49
$GPRMC,193551.000,A,3333.1840,N,11748.5528,W,42.37,103.74,130310,,,A*49
$GPRMC,193554.000,A,3333.1790,N,11748.5104,W,43.82,95.40,130310,,,A*72
$GPRMC,193557.000,A,3333.1753,N,11748.4672,W,42.17,100.73,130310,,,A*49
$GPRMC,193600.000,A,3333.1653,N,11748.4281,W,40.55,112.69,130310,,,A*4D
$GPRMC,193603.000,A,3333.1496,N,11748.3938,W,38.26,124.56,130310,,,A*49
$GPRMC,193606.000,A,3333.1282,N,11748.3656,W,37.95,135.53,130310,,,A*4A
$GPRMC,193609.000,A,3333.1018,N,11748.3430,W,38.60,147.77,130310,,,A*40
$GPRMC,193612.000,A,3333.0714,N,11748.3251,W,40.31,154.69,130310,,,A*47
$GPRMC,193615.000,A,3333.0418,N,11748.3072,W,40.25,147.93,130310,,,A*4E
$GPRMC,193618.000,A,3333.0165,N,11748.2828,W,38.62,136.49,130310,,,A*47
$GPRMC,193621.000,A,3332.9958,N,11748.2537,W,38.95,124.91,130310,,,A*4E
$GPRMC,193624.000,A,3332.9792,N,11748.2189,W,41.22,119.05,130310,,,A*43
$GPRMC,193627.000,A,3332.9630,N,11748.1824,W,41.61,118.26,130310,,,A*43
$GPRMC,193630.000,A,3332.9477,N,11748.1450,W,41.22,115.07,130310,,,A*42
$GPRMC,193633.000,A,3332.9351,N,11748.1097,W,36.10,112.39,130310,,,A*46
$GPRMC,193636.000,A,3332.9239,N,11748.0774,W,34.09,113.46,130310,,,A*44
$GPRMC,193639.000,A,3332.9131,N,11748.0466,W,32.75,113.12,130310,,,A*4C
$GPRMC,193642.000,A,3332.9030,N,11748.0176,W,31.38,112.90,130310,,,A*45
$GPRMC,193645.000,A,3332.8932,N,11747.9883,W,32.74,113.31,130310,,,A*4C
$GPRMC,193648.000,A,3332.8824,N,11747.9580,W,33.51,112.99,130310,,,A*4C
$GPRMC,193651.000,A,3332.8718,N,11747.9272,W,33.67,112.41,130310,,,A*4E
$GPRMC,193654.000,A,3332.8611,N,11747.8960,W,34.40,112.63,130310,,,A*48
$GPRMC,193657.000,A,3332.8506,N,11747.8663,W,30.79,113.14,130310,,,A*4D
$GPRMC,193700.000,A,3332.8405,N,11747.8361,W,34.21,110.98,130310,,,A*45
$GPRMC,193703.000,A,3332.8306,N,11747.8055,W,31.12,111.33,130310,,,A*43
$GPRMC,193706.000,A,3332.8213,N,11747.7769,W,31.56,110.75,130310,,,A*47
$GPRMC,193709.000,A,3332.8119,N,11747.7466,W,33.06,111.08,130310,,,A*41
$GPRMC,193712.000,A,3332.8018,N,11747.7164,W,32.01,115.39,130310,,,A*4C
$GPRMC,193715.000,A,3332.7875,N,11747.6891,W,32.52,125.39,130310,,,A*40
$GPRMC,193718.000,A,3332.7696,N,11747.6627,W,34.09,128.39,130310,,,A*48
$GPRMC,193721.000,A,3332.7535,N,11747.6351,W,33.42,120.51,130310,,,A*42
$GPRMC,193724.000,A,3332.7414,N,11747.6052,W,33.98,114.00,130310,,,A*41
$GPRMC,193727.000,A,3332.7301,N,11747.5737,W,32.31,113.77,130310,,,A*43
$GPRMC,193730.000,A,3332.7214,N,11747.5504,W,21.10,115.87,130310,,,A*4A
$GPRMC,193733.000,A,3332.7177,N,11747.5416,W,5.51,121.27,130310,,,A*73
$GPRMC,193754.000,A,3332.7175,N,11747.5341,W,13.29,113.60,130310,,,A*4F
$GPRMC,193757.000,A,3332.7106,N,11747.5165,W,22.18,112.92,130310,,,A*40
$GPRMC,193800.000,A,3332.7023,N,11747.4931,W,26.23,112.16,130310,,,A*43
$GPRMC,193803.000,A,3332.6922,N,11747.4660,W,31.40,113.38,130310,,,A*4C
$GPRMC,193806.000,A,3332.6814,N,11747.4362,W,32.19,113.25,130310,,,A*49
$GPRMC,193809.000,A,3332.6708,N,11747.4073,W,30.15,113.01,130310,,,A*4F
$GPRMC,193812.000,A,3332.6605,N,11747.3807,W,28.27,113.92,130310,,,A*47
$GPRMC,193815.000,A,3332.6517,N,11747.3557,W,26.01,112.98,130310,,,A*49
$GPRMC,193818.000,A,3332.6439,N,11747.3337,W,20.91,113.37,130310,,,A*42
$GPRMC,193821.000,A,3332.6392,N,11747.3206,W,9.42,114.02,130310,,,A*79
$GPRMC,193839.000,A,3332.6373,N,11747.3150,W,4.59,112.03,130310,,,A*7F
$GPRMC,193842.000,A,3332.6345,N,11747.3066,W,13.02,111.76,130310,,,A*4B
$GPRMC,193845.000,A,3332.6281,N,11747.2897,W,21.92,113.11,130310,,,A*49
$GPRMC,193848.000,A,3332.6196,N,11747.2665,W,26.24,113.65,130310,,,A*4B
$GPRMC,193851.000,A,3332.6098,N,11747.2410,W,26.17,112.15,130310,,,A*4A
$GPRMC,193854.000,A,3332.6008,N,11747.2165,W,26.65,114.07,130310,,,A*41
$GPRMC,193857.000,A,3332.5912,N,11747.1917,W,26.32,115.05,130310,,,A*4C
$GPRMC,193900.000,A,3332.5825,N,11747.1702,W,20.95,114.67,130310,,,A*4E
$GPRMC,193903.000,A,3332.5771,N,11747.1546,W,14.04,112.30,130310,,,A*4A
$GPRMC,193906.000,A,3332.5736,N,11747.1451,W,8.02,115.83,130310,,,A*7F
$GPRMC,193945.000,A,3332.5705,N,11747.1349,W,10.99,110.39,130310,,,A*49
$GPRMC,193948.000,A,3332.5657,N,11747.1209,W,15.93,113.55,130310,,,A*41
$GPRMC,193951.000,A,3332.5586,N,11747.1058,W,17.19,121.34,130310,,,A*46
$GPRMC,193954.000,A,3332.5506,N,11747.0915,W,17.94,123.22,130310,,,A*4A
$GPRMC,193957.000,A,3332.5418,N,11747.0767,W,18.44,125.33,130310,,,A*48
$GPRMC,194000.000,A,3332.5331,N,11747.0614,W,17.19,121.00,130310,,,A*4E
$GPRMC,194003.000,A,3332.5277,N,11747.0453,W,18.55,103.91,130310,,,A*40
$GPRMC,194006.000,A,3332.5257,N,11747.0265,W,19.05,95.54,130310,,,A*77
$GPRMC,194009.000,A,3332.5228,N,11747.0076,W,18.83,105.34,130310,,,A*41
$GPRMC,194012.000,A,3332.5160,N,11746.9923,W,15.63,132.88,130310,,,A*45
$GPRMC,194015.000,A,3332.5042,N,11746.9825,W,19.07,143.54,130310,,,A*4D
$GPRMC,194018.000,A,3332.4914,N,11746.9715,W,17.85,143.72,130310,,,A*47
$GPRMC,194021.000,A,3332.4798,N,11746.9616,W,16.91,143.45,130310,,,A*45
$GPRMC,194024.000,A,3332.4663,N,11746.9504,W,20.87,143.49,130310,,,A*4B
$GPRMC,194027.000,A,3332.4522,N,11746.9385,W,18.67,145.17,130310,,,A*49
$GPRMC,194030.000,A,3332.4419,N,11746.9301,W,11.81,144.39,130310,,,A*46
$GPRMC,194033.000,A,3332.4367,N,11746.9258,W,5.94,146.38,130310,,,A*74
$GPRMC,194036.000,A,3332.4335,N,11746.9235,W,4.77,147.48,130310,,,A*77
$GPRMC,194039.000,A,3332.4289,N,11746.9198,W,8.61,143.66,130310,,,A*79
$GPRMC,194042.000,A,3332.4219,N,11746.9138,W,12.28,143.14,130310,,,A*45
$GPRMC,194045.000,A,3332.4118,N,11746.9052,W,15.03,145.02,130310,,,A*42
$GPRMC,194048.000,A,3332.3994,N,11746.8948,W,19.37,143.77,130310,,,A*48
$GPRMC,194051.000,A,3332.3868,N,11746.8840,W,17.58,143.50,130310,,,A*49
$GPRMC,194054.000,A,3332.3736,N,11746.8721,W,20.56,142.34,130310,,,A*49
$GPRMC,194057.000,A,3332.3605,N,11746.8598,W,18.98,141.99,130310,,,A*46
$GPRMC,194100.000,A,3332.3469,N,11746.8478,W,21.89,143.96,130310,,,A*45
$GPRMC,194103.000,A,3332.3304,N,11746.8337,W,24.78,144.49,130310,,,A*48
$GPRMC,194106.000,A,3332.3129,N,11746.8188,W,26.26,145.97,130310,,,A*4D
$GPRMC,194109.000,A,3332.2947,N,11746.8048,W,26.35,148.14,130310,,,A*4A
$GPRMC,194112.000,A,3332.2750,N,11746.7906,W,27.14,149.78,130310,,,A*4D
$GPRMC,194115.000,A,3332.2567,N,11746.7774,W,24.49,148.99,130310,,,A*42
$GPRMC,194118.000,A,3332.2401,N,11746.7651,W,22.02,147.14,130310,,,A*4B
$GPRMC,194121.000,A,3332.2263,N,11746.7543,W,19.12,146.81,130310,,,A*47
$GPRMC,194124.000,A,3332.2133,N,11746.7444,W,17.46,147.90,130310,,,A*4C
$GPRMC,194127.000,A,3332.2000,N,11746.7345,W,20.79,148.26,130310,,,A*42
$GPRMC,194130.000,A,3332.1843,N,11746.7230,W,22.71,148.90,130310,,,A*4C
$GPRMC,194133.000,A,3332.1675,N,11746.7112,W,23.47,149.31,130310,,,A*49
$GPRMC,194136.000,A,3332.1511,N,11746.6994,W,23.40,148.01,130310,,,A*4F
$GPRMC,194139.000,A,3332.1355,N,11746.6871,W,21.67,146.26,130310,,,A*40
$GPRMC,194142.000,A,3332.1208,N,11746.6760,W,20.28,148.07,130310,,,A*4D
$GPRMC,194145.000,A,3332.1076,N,11746.6661,W,16.87,147.74,130310,,,A*4A
$GPRMC,194148.000,A,3332.0950,N,11746.6568,W,19.70,148.36,130310,,,A*4F
$GPRMC,194151.000,A,3332.0811,N,11746.6465,W,18.43,147.79,130310,,,A*4A
$GPRMC,194154.000,A,3332.0694,N,11746.6378,W,15.14,148.19,130310,,,A*41
$GPRMC,194157.000,A,3332.0608,N,11746.6314,W,9.41,147.87,130310,,,A*78
$GPRMC,194227.000,A,3332.0549,N,11746.6273,W,5.72,147.68,130310,,,A*77
$GPRMC,194230.000,A,3332.0478,N,11746.6221,W,14.73,146.61,130310,,,A*4C
$GPRMC,194233.000,A,3332.0357,N,11746.6130,W,16.23,148.11,130310,,,A*48
$GPRMC,194236.000,A,3332.0256,N,11746.6055,W,13.33,148.32,130310,,,A*4A
$GPRMC,194239.000,A,3332.0158,N,11746.5981,W,13.94,147.56,130310,,,A*4B
$GPRMC,194242.000,A,3332.0041,N,11746.5893,W,18.35,147.78,130310,,,A*40
$GPRMC,194245.000,A,3331.9900,N,11746.5790,W,20.06,148.50,130310,,,A*43
$GPRMC,194248.000,A,3331.9766,N,11746.5696,W,15.45,151.04,130310,,,A*4F
$GPRMC,194251.000,A,3331.9695,N,11746.5648,W,5.53,153.40,130310,,,A*7D
$GPRMC,194300.000,A,3331.9636,N,11746.5608,W,9.72,147.56,130310,,,A*78
$GPRMC,194303.000,A,3331.9536,N,11746.5533,W,15.68,145.27,130310,,,A*41
$GPRMC,194306.000,A,3331.9417,N,11746.5412,W,20.11,135.33,130310,,,A*4E
$GPRMC,194309.000,A,3331.9288,N,11746.5243,W,24.70,132.32,130310,,,A*46
$GPRMC,194312.000,A,3331.9134,N,11746.5050,W,26.91,135.00,130310,,,A*43
$GPRMC,194315.000,A,3331.8957,N,11746.4841,W,31.80,135.47,130310,,,A*44
$GPRMC,194318.000,A,3331.8757,N,11746.4608,W,32.80,136.03,130310,,,A*44
$GPRMC,194321.000,A,3331.8564,N,11746.4378,W,32.11,134.51,130310,,,A*43
$GPRMC,194324.000,A,3331.8372,N,11746.4146,W,32.51,135.27,130310,,,A*4C
$GPRMC,194327.000,A,3331.8206,N,11746.3952,W,22.87,135.65,130310,,,A*4B
$GPRMC,194330.000,A,3331.8118,N,11746.3842,W,12.08,136.40,130310,,,A*41
$GPRMC,194342.000,A,3331.8089,N,11746.3808,W,4.57,122.08,130310,,,A*77
$GPRMC,194345.000,A,3331.8012,N,11746.3706,W,15.75,132.62,130310,,,A*4E
$GPRMC,194348.000,A,3331.7882,N,11746.3548,W,23.20,135.79,130310,,,A*4D
$GPRMC,194351.000,A,3331.7729,N,11746.3356,W,27.51,134.85,130310,,,A*42
$GPRMC,194354.000,A,3331.7553,N,11746.3139,W,31.04,135.24,130310,,,A*4E
$GPRMC,194357.000,A,3331.7362,N,11746.2915,W,31.30,135.13,130310,,,A*4D
$GPRMC,194400.000,A,3331.7172,N,11746.2689,W,32.77,134.80,130310,,,A*4A
$GPRMC,194403.000,A,3331.6966,N,11746.2440,W,36.19,135.43,130310,,,A*40
$GPRMC,194406.000,A,3331.6746,N,11746.2182,W,35.92,135.42,130310,,,A*43
$GPRMC,194409.000,A,3331.6532,N,11746.1929,W,36.70,135.40,130310,,,A*4A
$GPRMC,194412.000,A,3331.6309,N,11746.1663,W,39.07,134.61,130310,,,A*42
$GPRMC,194415.000,A,3331.6065,N,11746.1371,W,42.25,135.17,130310,,,A*46
$GPRMC,194418.000,A,3331.5808,N,11746.1066,W,42.85,135.36,130310,,,A*47
$GPRMC,194421.000,A,3331.5550,N,11746.0759,W,43.44,134.29,130310,,,A*44
$GPRMC,194424.000,A,3331.5292,N,11746.0445,W,43.77,134.37,130310,,,A*49
$GPRMC,194427.000,A,3331.5050,N,11746.0136,W,41.80,132.08,130310,,,A*47
$GPRMC,194430.000,A,3331.4819,N,11745.9826,W,42.80,132.25,130310,,,A*4B
$GPRMC,194433.000,A,3331.4566,N,11745.9510,W,45.32,134.76,130310,,,A*4B
$GPRMC,194436.000,A,3331.4304,N,11745.9194,W,43.40,134.43,130310,,,A*41
$GPRMC,194439.000,A,3331.4061,N,11745.8909,W,40.13,137.58,130310,,,A*4F
$GPRMC,194442.000,A,3331.3822,N,11745.8650,W,37.88,138.69,130310,,,A*47
$GPRMC,194445.000,A,3331.3590,N,11745.8398,W,36.69,135.89,130310,,,A*48
$GPRMC,194448.000,A,3331.3388,N,11745.8132,W,37.42,134.33,130310,,,A*40
$GPRMC,194451.000,A,3331.3165,N,11745.7859,W,37.29,134.83,130310,,,A*44
$GPRMC,194454.000,A,3331.2953,N,11745.7590,W,35.94,130.85,130310,,,A*43
$GPRMC,194457.000,A,3331.2798,N,11745.7328,W,30.04,124.84,130310,,,A*44
$GPRMC,194500.000,A,3331.2719,N,11745.7168,W,15.33,128.68,130310,,,A*45
$GPRMC,194518.000,A,3331.2716,N,11745.7131,W,11.28,123.89,130310,,,A*45
$GPRMC,194521.000,A,3331.2622,N,11745.6995,W,21.18,132.96,130310,,,A*40
$GPRMC,194524.000,A,3331.2468,N,11745.6843,W,25.22,143.97,130310,,,A*49
$GPRMC,194527.000,A,3331.2265,N,11745.6687,W,30.79,148.25,130310,,,A*4F
$GPRMC,194530.000,A,3331.2029,N,11745.6520,W,33.80,149.21,130310,,,A*4D
$GPRMC,194533.000,A,3331.1769,N,11745.6335,W,37.93,148.37,130310,,,A*4C
$GPRMC,194536.000,A,3331.1488,N,11745.6130,W,39.48,147.65,130310,,,A*42
$GPRMC,194539.000,A,3331.1200,N,11745.5895,W,42.56,142.60,130310,,,A*4D
$GPRMC,194542.000,A,3331.0919,N,11745.5625,W,42.60,140.13,130310,,,A*45
$GPRMC,194545.000,A,3331.0647,N,11745.5352,W,41.63,139.35,130310,,,A*49
$GPRMC,194548.000,A,3331.0393,N,11745.5097,W,36.99,140.11,130310,,,A*4F
$GPRMC,194551.000,A,3331.0167,N,11745.4872,W,33.57,139.73,130310,,,A*41
$GPRMC,194554.000,A,3330.9946,N,11745.4648,W,36.19,139.98,130310,,,A*4A
$GPRMC,194557.000,A,3330.9747,N,11745.4445,W,25.98,140.72,130310,,,A*48
$GPRMC,194639.000,A,3330.9733,N,11745.4414,W,6.00,130.63,130310,,,A*73
$GPRMC,194642.000,A,3330.9605,N,11745.4283,W,25.97,141.03,130310,,,A*4C
$GPRMC,194645.000,A,3330.9356,N,11745.4072,W,39.67,146.14,130310,,,A*47
$GPRMC,194648.000,A,3330.9050,N,11745.3830,W,44.99,146.85,130310,,,A*45
$GPRMC,194651.000,A,3330.8709,N,11745.3553,W,52.34,146.09,130310,,,A*4B
$GPRMC,194654.000,A,3330.8320,N,11745.3249,W,55.22,146.03,130310,,,A*47
$GPRMC,194657.000,A,3330.7922,N,11745.2925,W,58.67,144.31,130310,,,A*4C
$GPRMC,194700.000,A,3330.7524,N,11745.2568,W,58.77,141.99,130310,,,A*46
$GPRMC,194703.000,A,3330.7162,N,11745.2181,W,57.43,136.42,130310,,,A*4E
$GPRMC,194706.000,A,3330.6847,N,11745.1788,W,53.02,133.71,130310,,,A*4C
$GPRMC,194709.000,A,3330.6553,N,11745.1412,W,50.97,133.22,130310,,,A*42
$GPRMC,194712.000,A,3330.6266,N,11745.1087,W,45.16,139.77,130310,,,A*46
$GPRMC,194715.000,A,3330.5983,N,11745.0823,W,42.97,144.99,130310,,,A*41
$GPRMC,194718.000,A,3330.5705,N,11745.0619,W,38.42,150.62,130310,,,A*4F
$GPRMC,194721.000,A,3330.5421,N,11745.0456,W,38.17,154.34,130310,,,A*4E
$GPRMC,194724.000,A,3330.5138,N,11745.0276,W,39.62,148.53,130310,,,A*4D
$GPRMC,194727.000,A,3330.4891,N,11745.0041,W,38.89,137.11,130310,,,A*49
$GPRMC,194730.000,A,3330.4674,N,11744.9752,W,38.60,128.27,130310,,,A*4B
$GPRMC,194733.000,A,3330.4465,N,11744.9462,W,36.73,133.66,130310,,,A*49
$GPRMC,194736.000,A,3330.4247,N,11744.9209,W,35.30,136.00,130310,,,A*40
$GPRMC,194739.000,A,3330.4031,N,11744.8974,W,35.53,139.20,130310,,,A*44
$GPRMC,194742.000,A,3330.3791,N,11744.8726,W,39.88,139.11,130310,,,A*43
$GPRMC,194745.000,A,3330.3527,N,11744.8454,W,42.57,139.46,130310,,,A*41
$GPRMC,194748.000,A,3330.3262,N,11744.8172,W,41.61,137.64,130310,,,A*43
$GPRMC,194751.000,A,3330.3010,N,11744.7897,W,40.07,137.56,130310,,,A*41
$GPRMC,194754.000,A,3330.2762,N,11744.7632,W,39.14,138.12,130310,,,A*45
$GPRMC,194757.000,A,3330.2513,N,11744.7386,W,37.92,143.90,130310,,,A*4E
$GPRMC,194800.000,A,3330.2252,N,11744.7181,W,37.90,149.00,130310,,,A*45
$GPRMC,194803.000,A,3330.1976,N,11744.6995,W,37.41,150.16,130310,,,A*47
$GPRMC,194806.000,A,3330.1711,N,11744.6813,W,35.91,149.49,130310,,,A*4F
$GPRMC,194809.000,A,3330.1451,N,11744.6635,W,36.12,149.20,130310,,,A*4A
$GPRMC,194812.000,A,3330.1179,N,11744.6445,W,38.72,149.44,130310,,,A*40
$GPRMC,194815.000,A,3330.0889,N,11744.6241,W,40.92,149.11,130310,,,A*43
$GPRMC,194818.000,A,3330.0593,N,11744.6032,W,41.58,149.29,130310,,,A*42
$GPRMC,194821.000,A,3330.0292,N,11744.5818,W,42.00,148.86,130310,,,A*47
$GPRMC,194824.000,A,3330.0010,N,11744.5585,W,41.24,141.69,130310,,,A*4E
$GPRMC,194827.000,A,3329.9766,N,11744.5311,W,39.74,134.00,130310,,,A*46
$GPRMC,194830.000,A,3329.9553,N,11744.5013,W,37.55,127.63,130310,,,A*4F
$GPRMC,194833.000,A,3329.9374,N,11744.4732,W,33.15,126.47,130310,,,A*4D
$GPRMC,194836.000,A,3329.9204,N,11744.4450,W,35.94,125.16,130310,,,A*41
$GPRMC,194839.000,A,3329.9021,N,11744.4165,W,35.69,130.04,130310,,,A*4D
$GPRMC,194842.000,A,3329.8804,N,11744.3899,W,36.95,138.07,130310,,,A*49
$GPRMC,194845.000,A,3329.8574,N,11744.3677,W,34.13,143.27,130310,,,A*48
$GPRMC,194848.000,A,3329.8342,N,11744.3475,W,34.29,143.57,130310,,,A*48
$GPRMC,194851.000,A,3329.8104,N,11744.3281,W,37.00,149.47,130310,,,A*4E
$GPRMC,194854.000,A,3329.7840,N,11744.3114,W,35.11,152.29,130310,,,A*42
$GPRMC,194857.000,A,3329.7589,N,11744.2957,W,32.84,152.29,130310,,,A*4C
$GPRMC,194900.000,A,3329.7351,N,11744.2812,W,32.09,152.26,130310,,,A*46
$GPRMC,194903.000,A,3329.7103,N,11744.2656,W,34.91,152.12,130310,,,A*4E
$GPRMC,194906.000,A,3329.6844,N,11744.2492,W,34.85,150.88,130310,,,A*4E
$GPRMC,194909.000,A,3329.6593,N,11744.2308,W,34.94,145.22,130310,,,A*46
$GPRMC,194912.000,A,3329.6370,N,11744.2098,W,34.38,138.47,130310,,,A*42
$GPRMC,194915.000,A,3329.6161,N,11744.1844,W,36.13,131.68,130310,,,A*42
$GPRMC,194918.000,A,3329.5971,N,11744.1561,W,35.83,128.01,130310,,,A*42
$GPRMC,194921.000,A,3329.5795,N,11744.1281,W,34.84,127.22,130310,,,A*4D
$GPRMC,194924.000,A,3329.5613,N,11744.0992,W,35.99,127.28,130310,,,A*48
$GPRMC,194927.000,A,3329.5426,N,11744.0701,W,37.43,127.94,130310,,,A*49
$GPRMC,194930.000,A,3329.5231,N,11744.0398,W,39.03,127.54,130310,,,A*4D
$GPRMC,194933.000,A,3329.5027,N,11744.0078,W,42.07,127.48,130310,,,A*43
$GPRMC,194936.000,A,3329.4815,N,11743.9751,W,40.45,127.85,130310,,,A*49
$GPRMC,194939.000,A,3329.4616,N,11743.9423,W,41.45,125.72,130310,,,A*46
$GPRMC,194942.000,A,3329.4395,N,11743.9076,W,45.65,129.25,130310,,,A*48
$GPRMC,194945.000,A,3329.4136,N,11743.8720,W,48.15,132.10,130310,,,A*47
$GPRMC,194948.000,A,3329.3852,N,11743.8364,W,49.68,134.51,130310,,,A*4A
$GPRMC,194951.000,A,3329.3553,N,11743.8007,W,50.10,135.11,130310,,,A*4A
$GPRMC,194954.000,A,3329.3271,N,11743.7674,W,44.13,135.68,130310,,,A*4D
$GPRMC,194957.000,A,3329.3019,N,11743.7385,W,40.15,136.67,130310,,,A*47
$GPRMC,195000.000,A,3329.2789,N,11743.7131,W,35.12,137.34,130310,,,A*4D
$GPRMC,195003.000,A,3329.2586,N,11743.6908,W,32.14,137.34,130310,,,A*41
$GPRMC,195006.000,A,3329.2396,N,11743.6694,W,31.30,136.16,130310,,,A*4D
$GPRMC,195009.000,A,3329.2217,N,11743.6488,W,28.83,135.34,130310,,,A*46
$GPRMC,195012.000,A,3329.2045,N,11743.6285,W,29.87,134.50,130310,,,A*44
$GPRMC,195015.000,A,3329.1857,N,11743.6056,W,35.33,134.74,130310,,,A*43
$GPRMC,195018.000,A,3329.1626,N,11743.5779,W,41.94,135.30,130310,,,A*40
$GPRMC,195021.000,A,3329.1382,N,11743.5496,W,39.56,135.91,130310,,,A*49
$GPRMC,195024.000,A,3329.1142,N,11743.5217,W,41.12,135.34,130310,,,A*4D
$GPRMC,195027.000,A,3329.0892,N,11743.4921,W,42.81,135.02,130310,,,A*48
$GPRMC,195030.000,A,3329.0635,N,11743.4614,W,43.54,135.15,130310,,,A*4B
$GPRMC,195033.000,A,3329.0377,N,11743.4311,W,42.38,136.02,130310,,,A*45
$GPRMC,195036.000,A,3329.0124,N,11743.4022,W,41.65,136.15,130310,,,A*4A
$GPRMC,195039.000,A,3328.9861,N,11743.3722,W,45.22,136.33,130310,,,A*46
$GPRMC,195042.000,A,3328.9588,N,11743.3404,W,45.37,135.39,130310,,,A*4A
$GPRMC,195045.000,A,3328.9312,N,11743.3078,W,46.42,135.40,130310,,,A*48
$GPRMC,195048.000,A,3328.9040,N,11743.2761,W,43.53,135.98,130310,,,A*4F
$GPRMC,195051.000,A,3328.8788,N,11743.2480,W,38.76,138.45,130310,,,A*4F
$GPRMC,195054.000,A,3328.8548,N,11743.2229,W,38.02,139.76,130310,,,A*43
$GPRMC,195057.000,A,3328.8296,N,11743.1985,W,39.06,141.86,130310,,,A*4F
$GPRMC,195100.000,A,3328.8046,N,11743.1763,W,34.97,144.65,130310,,,A*48
$GPRMC,195103.000,A,3328.7821,N,11743.1580,W,31.81,146.43,130310,,,A*46
$GPRMC,195106.000,A,3328.7586,N,11743.1404,W,35.28,148.59,130310,,,A*4C
$GPRMC,195109.000,A,3328.7328,N,11743.1227,W,34.77,150.56,130310,,,A*4B
$GPRMC,195112.000,A,3328.7070,N,11743.1058,W,35.38,151.03,130310,,,A*4E
$GPRMC,195115.000,A,3328.6813,N,11743.0892,W,34.12,152.45,130310,,,A*42
$GPRMC,195118.000,A,3328.6567,N,11743.0738,W,32.38,151.54,130310,,,A*43
$GPRMC,195121.000,A,3328.6345,N,11743.0595,W,28.06,151.01,130310,,,A*4C
$GPRMC,195124.000,A,3328.6147,N,11743.0467,W,26.67,150.91,130310,,,A*44
$GPRMC,195127.000,A,3328.5963,N,11743.0346,W,23.61,150.70,130310,,,A*42
$GPRMC,195130.000,A,3328.5817,N,11743.0249,W,17.57,150.93,130310,,,A*47
$GPRMC,195133.000,A,3328.5715,N,11743.0181,W,11.06,150.74,130310,,,A*45
$GPRMC,195224.000,A,3328.5628,N,11743.0124,W,13.57,149.66,130310,,,A*4D
$GPRMC,195227.000,A,3328.5480,N,11743.0021,W,25.25,149.85,130310,,,A*47
$GPRMC,195230.000,A,3328.5240,N,11742.9851,W,35.10,149.18,130310,,,A*4F
$GPRMC,195233.000,A,3328.4961,N,11742.9655,W,37.22,150.00,130310,,,A*4D
$GPRMC,195236.000,A,3328.4680,N,11742.9465,W,38.36,150.65,130310,,,A*40
$GPRMC,195239.000,A,3328.4384,N,11742.9266,W,41.27,150.78,130310,,,A*49
$GPRMC,195242.000,A,3328.4079,N,11742.9061,W,41.47,150.75,130310,,,A*4A
$GPRMC,195245.000,A,3328.3778,N,11742.8862,W,41.92,150.91,130310,,,A*44
$GPRMC,195248.000,A,3328.3466,N,11742.8656,W,41.20,150.49,130310,,,A*40
$GPRMC,195251.000,A,3328.3178,N,11742.8463,W,37.43,150.69,130310,,,A*40
$GPRMC,195254.000,A,3328.2912,N,11742.8283,W,36.26,150.52,130310,,,A*42
$GPRMC,195257.000,A,3328.2637,N,11742.8098,W,39.43,150.66,130310,,,A*4A
$GPRMC,195300.000,A,3328.2329,N,11742.7892,W,44.80,151.13,130310,,,A*48
$GPRMC,195303.000,A,3328.1987,N,11742.7666,W,48.02,150.36,130310,,,A*43
$GPRMC,195306.000,A,3328.1623,N,11742.7421,W,50.25,150.74,130310,,,A*4C
$GPRMC,195309.000,A,3328.1255,N,11742.7178,W,50.41,150.89,130310,,,A*4F
$GPRMC,195312.000,A,3328.0880,N,11742.6928,W,51.84,150.72,130310,,,A*46
$GPRMC,195315.000,A,3328.0508,N,11742.6678,W,50.48,150.97,130310,,,A*4C
$GPRMC,195318.000,A,3328.0143,N,11742.6435,W,48.90,150.48,130310,,,A*4F
$GPRMC,195321.000,A,3327.9822,N,11742.6184,W,42.28,142.54,130310,,,A*45
$GPRMC,195324.000,A,3327.9604,N,11742.5942,W,33.29,132.01,130310,,,A*4B
$GPRMC,195327.000,A,3327.9457,N,11742.5714,W,25.89,128.28,130310,,,A*4C
$GPRMC,195330.000,A,3327.9372,N,11742.5555,W,16.90,123.26,130310,,,A*40
$GPRMC,195333.000,A,3327.9341,N,11742.5460,W,11.81,113.30,130310,,,A*47
$GPRMC,195336.000,A,3327.9281,N,11742.5290,W,22.33,109.22,130310,,,A*47
$GPRMC,195339.000,A,3327.9227,N,11742.5041,W,28.09,102.18,130310,,,A*4B
$GPRMC,195342.000,A,3327.9203,N,11742.4755,W,30.76,95.04,130310,,,A*71
$GPRMC,195345.000,A,3327.9213,N,11742.4448,W,29.16,83.94,130310,,,A*78
$GPRMC,195348.000,A,3327.9244,N,11742.4225,W,18.01,81.18,130310,,,A*78
$GPRMC,195351.000,A,3327.9283,N,11742.4153,W,6.50,76.78,130310,,,A*4C
$GPRMC,195427.000,A,3327.9274,N,11742.4092,W,10.63,87.54,130310,,,A*79
$GPRMC,195430.000,A,3327.9266,N,11742.3895,W,23.75,90.23,130310,,,A*75
$GPRMC,195433.000,A,3327.9273,N,11742.3595,W,30.16,86.79,130310,,,A*70
$GPRMC,195436.000,A,3327.9293,N,11742.3260,W,33.00,88.26,130310,,,A*76
$GPRMC,195439.000,A,3327.9298,N,11742.2922,W,33.54,90.85,130310,,,A*7F
$GPRMC,195442.000,A,3327.9295,N,11742.2573,W,34.19,91.01,130310,,,A*75
$GPRMC,195445.000,A,3327.9290,N,11742.2242,W,31.33,92.85,130310,,,A*70
$GPRMC,195448.000,A,3327.9290,N,11742.1949,W,28.31,89.93,130310,,,A*79
$GPRMC,195451.000,A,3327.9297,N,11742.1699,W,22.92,87.70,130310,,,A*74
$GPRMC,195454.000,A,3327.9294,N,11742.1527,W,14.88,97.04,130310,,,A*78
$GPRMC,195506.000,A,3327.9297,N,11742.1361,W,17.30,90.53,130310,,,A*7C
$GPRMC,195509.000,A,3327.9299,N,11742.1134,W,24.70,89.81,130310,,,A*7C
$GPRMC,195512.000,A,3327.9300,N,11742.0841,W,29.72,89.86,130310,,,A*75
$GPRMC,195515.000,A,3327.9286,N,11742.0525,W,30.60,89.88,130310,,,A*77
$GPRMC,195518.000,A,3327.9286,N,11742.0218,W,30.66,89.83,130310,,,A*7E
$GPRMC,195521.000,A,3327.9295,N,11741.9891,W,34.07,88.50,130310,,,A*7B
$GPRMC,195524.000,A,3327.9297,N,11741.9547,W,33.06,90.46,130310,,,A*72
$GPRMC,195527.000,A,3327.9295,N,11741.9214,W,32.19,90.38,130310,,,A*74
$GPRMC,195530.000,A,3327.9286,N,11741.8921,W,27.35,91.63,130310,,,A*79
$GPRMC,195533.000,A,3327.9292,N,11741.8719,W,20.05,90.30,130310,,,A*79
$GPRMC,195536.000,A,3327.9295,N,11741.8564,W,13.50,84.46,130310,,,A*77
$GPRMC,195551.000,A,3327.9327,N,11741.8456,W,8.07,88.26,130310,,,A*4C
$GPRMC,195554.000,A,3327.9256,N,11741.8272,W,22.06,116.81,130310,,,A*4C
$GPRMC,195557.000,A,3327.9120,N,11741.7983,W,32.08,118.26,130310,,,A*4B
$GPRMC,195600.000,A,3327.8941,N,11741.7653,W,32.26,120.20,130310,,,A*47
$GPRMC,195603.000,A,3327.8813,N,11741.7386,W,28.38,121.10,130310,,,A*49
$GPRMC,195606.000,A,3327.8687,N,11741.7140,W,28.44,119.74,130310,,,A*45
$GPRMC,195609.000,A,3327.8557,N,11741.6875,W,31.52,120.54,130310,,,A*4D
$GPRMC,195612.000,A,3327.8406,N,11741.6628,W,29.33,131.19,130310,,,A*43
$GPRMC,195615.000,A,3327.8234,N,11741.6457,W,24.45,144.69,130310,,,A*40
$GPRMC,195618.000,A,3327.8090,N,11741.6355,W,18.44,150.01,130310,,,A*41
$GPRMC,195621.000,A,3327.7967,N,11741.6290,W,14.65,161.46,130310,,,A*43
$GPRMC,195624.000,A,3327.7874,N,11741.6272,W,9.11,170.97,130310,,,A*7A
$GPRMC,195648.000,A,3327.7798,N,11741.6273,W,11.53,175.02,130310,,,A*4A
$GPRMC,195651.000,A,3327.7667,N,11741.6276,W,16.13,184.51,130310,,,A*4D
$GPRMC,195654.000,A,3327.7550,N,11741.6301,W,11.89,191.62,130310,,,A*4E
$GPRMC,195657.000,A,3327.7462,N,11741.6326,W,9.69,193.89,130310,,,A*78
$GPRMC,195700.000,A,3327.7387,N,11741.6343,W,7.02,196.97,130310,,,A*7D
$GPRMC,195703.000,A,3327.7330,N,11741.6368,W,7.77,202.24,130310,,,A*7F
$GPRMC,195706.000,A,3327.7246,N,11741.6401,W,13.62,198.79,130310,,,A*4B
$GPRMC,195709.000,A,3327.7106,N,11741.6458,W,18.80,198.46,130310,,,A*44
$GPRMC,195712.000,A,3327.6959,N,11741.6513,W,16.75,194.81,130310,,,A*40
$GPRMC,195715.000,A,3327.6842,N,11741.6537,W,11.78,184.25,130310,,,A*4F
$GPRMC,195718.000,A,3327.6738,N,11741.6504,W,12.41,162.09,130310,,,A*4F
$GPRMC,195721.000,A,3327.6648,N,11741.6439,W,12.55,139.62,130310,,,A*4A
$GPRMC,195724.000,A,3327.6592,N,11741.6344,W,12.46,116.75,130310,,,A*4F
$GPRMC,195727.000,A,3327.6559,N,11741.6225,W,11.01,109.94,130310,,,A*4C
$GPRMC,195730.000,A,3327.6542,N,11741.6140,W,6.87,105.87,130310,,,A*76
$GPRMC,195733.000,A,3327.6538,N,11741.6083,W,6.24,101.62,130310,,,A*70
$GPRMC,195736.000,A,3327.6525,N,11741.6016,W,7.54,104.91,130310,,,A*7A
$GPRMC,195745.000,A,3327.6480,N,11741.5870,W,6.49,97.51,130310,,,A*41
$GPRMC,195748.000,A,3327.6483,N,11741.5807,W,6.07,89.60,130310,,,A*48
$GPRMC,195751.000,A,3327.6466,N,11741.5754,W,4.84,110.87,130310,,,A*73
$GPRMC,195754.000,A,3327.6452,N,11741.5701,W,6.38,98.32,130310,,,A*4B
$GPRMC,195757.000,A,3327.6441,N,11741.5633,W,6.77,101.44,130310,,,A*71
$GPRMC,195800.000,A,3327.6418,N,11741.5577,W,6.04,106.07,130310,,,A*77
$GPRMC,195803.000,A,3327.6398,N,11741.5516,W,6.08,118.83,130310,,,A*73
$GPRMC,195806.000,A,3327.6342,N,11741.5502,W,8.96,189.44,130310,,,A*7E
$GPRMC,195809.000,A,3327.6255,N,11741.5523,W,11.73,195.67,130310,,,A*4A
$GPRMC,195812.000,A,3327.6173,N,11741.5560,W,8.40,202.09,130310,,,A*7D
$GPRMC,195815.000,A,3327.6105,N,11741.5560,W,7.22,152.19,130310,,,A*77
$GPRMC,195827.000,A,3327.6079,N,11741.5458,W,5.07,58.33,130310,,,A*40
$GPRMC,195830.000,A,3327.6108,N,11741.5428,W,5.39,23.59,130310,,,A*4B
$GPRMC,195833.000,A,3327.6165,N,11741.5406,W,9.68,16.46,130310,,,A*4F
$GPRMC,195836.000,A,3327.6254,N,11741.5382,W,9.41,2.79,130310,,,A*72
$GPRMC,195839.000,A,3327.6304,N,11741.5410,W,6.18,309.02,130310,,,A*72
$GPRMC,195842.000,A,3327.6321,N,11741.5465,W,6.27,302.80,130310,,,A*76
$GPRMC,195845.000,A,3327.6383,N,11741.5492,W,8.56,336.57,130310,,,A*74
$GPRMC,195848.000,A,3327.6419,N,11741.5538,W,4.72,299.07,130310,,,A*77
$GPRMC,195851.000,A,3327.6435,N,11741.5584,W,6.19,284.75,130310,,,A*70
$GPRMC,195909.000,A,3327.6488,N,11741.5788,W,5.73,283.76,130310,,,A*7F
$GPRMC,195912.000,A,3327.6499,N,11741.5826,W,4.40,277.12,130310,,,A*76
$GPRMC,195915.000,A,3327.6511,N,11741.5889,W,7.83,298.51,130310,,,A*7F
$GPRMC,195918.000,A,3327.6553,N,11741.5956,W,5.38,304.25,130310,,,A*72
$GPRMC,195921.000,A,3327.6559,N,11741.5989,W,4.43,272.23,130310,,,A*7B
$GPRMC,195924.000,A,3327.6561,N,11741.6080,W,11.06,275.46,130310,,,A*47
$GPRMC,195927.000,A,3327.6616,N,11741.6243,W,15.21,286.60,130310,,,A*43
$GPRMC,195930.000,A,3327.6660,N,11741.6372,W,12.55,301.57,130310,,,A*49
$GPRMC,195933.000,A,3327.6718,N,11741.6435,W,7.32,322.71,130310,,,A*70
$GPRMC,200003.000,A,3327.6777,N,11741.6477,W,6.55,306.94,130310,,,A*77
$GPRMC,200015.000,A,3327.6795,N,11741.6665,W,6.09,265.75,130310,,,A*7F
$GPRMC,200018.000,A,3327.6791,N,11741.6743,W,6.02,267.13,130310,,,A*7A
