NMEA Sentence Code,UTC Time,Status,Latitude,Latitude Direction,Longitude,Longitude Direction,Speed (knots),Track Angle (degrees true),Date,MagneticVariation,Magnetic Variation Direction,[FAA Mode]-Optional,Checksum
$GPRMC,235945.0,A,3331.991016,N,11703.255187,W,8.4,134.3,300710,,,A*70
$GPRMC,235948.0,A,3331.984035,N,11703.247567,W,13.3,138.4,300710,,,A*47
$GPRMC,235951.0,A,3331.975071,N,11703.237816,W,15.3,137.8,300710,,,A*48
$GPRMC,235954.0,A,3331.965395,N,11703.227652,W,14.9,138.7,300710,,,A*41
$GPRMC,235957.0,A,3331.955985,N,11703.218026,W,14.7,141.1,300710,,,A*45
$GPRMC,000003.0,A,3331.935444,N,11703.207405,W,10.6,166.2,310710,,,A*46
$GPRMC,000009.0,A,3331.926346,N,11703.205851,W,5.1,202.0,310710,,,A*74
$GPRMC,000012.0,A,3331.922649,N,11703.210774,W,8.2,235.9,310710,,,A*7F
$GPRMC,000015.0,A,3331.919343,N,11703.217674,W,6.3,246.2,310710,,,A*79
$GPRMC,000018.0,A,3331.919529,N,11703.222512,W,7.0,296.5,310710,,,A*73
$GPRMC,000021.0,A,3331.927641,N,11703.231228,W,18.4,320.9,310710,,,A*4F
$GPRMC,000024.0,A,3331.941846,N,11703.246436,W,26.1,315.5,310710,,,A*48
$GPRMC,000027.0,A,3331.959327,N,11703.266391,W,30.5,316.9,310710,,,A*4A
$GPRMC,000030.0,A,3331.978463,N,11703.287831,W,31.3,317.4,310710,,,A*4D
$GPRMC,000033.0,A,3331.997194,N,11703.308375,W,29.1,317.0,310710,,,A*40
$GPRMC,000036.0,A,3332.012570,N,11703.327008,W,24.0,313.7,310710,,,A*47
$GPRMC,000039.0,A,3332.024590,N,11703.340184,W,15.6,318.2,310710,,,A*4D
$GPRMC,000042.0,A,3332.030794,N,11703.346772,W,5.5,317.2,310710,,,A*76
$GPRMC,000048.0,A,3332.034958,N,11703.354386,W,10.8,277.3,310710,,,A*45
$GPRMC,000051.0,A,3332.030037,N,11703.367593,W,17.7,228.7,310710,,,A*4D
$GPRMC,000054.0,A,3332.018364,N,11703.382776,W,23.2,228.3,310710,,,A*43
$GPRMC,000057.0,A,3332.006757,N,11703.399689,W,18.7,231.9,310710,,,A*4F
$GPRMC,000100.0,A,3331.999633,N,11703.409873,W,8.4,228.2,310710,,,A*77
$GPRMC,000118.0,A,3331.993467,N,11703.417920,W,12.4,224.5,310710,,,A*4F
$GPRMC,000121.0,A,3331.982680,N,11703.431322,W,23.2,227.4,310710,,,A*44
$GPRMC,000124.0,A,3331.967793,N,11703.450921,W,28.9,227.6,310710,,,A*45
$GPRMC,000127.0,A,3331.950031,N,11703.473929,W,33.0,227.6,310710,,,A*47
$GPRMC,000130.0,A,3331.930922,N,11703.499266,W,34.1,228.1,310710,,,A*46
$GPRMC,000133.0,A,3331.911515,N,11703.524628,W,34.6,227.5,310710,,,A*4B
$GPRMC,000136.0,A,3331.891584,N,11703.550241,W,34.8,227.3,310710,,,A*4F
$GPRMC,000139.0,A,3331.871599,N,11703.576292,W,35.6,227.8,310710,,,A*4C
$GPRMC,000142.0,A,3331.851266,N,11703.603787,W,37.5,229.7,310710,,,A*45
$GPRMC,000145.0,A,3331.830606,N,11703.633816,W,39.6,232.3,310710,,,A*40
$GPRMC,000148.0,A,3331.810776,N,11703.666601,W,40.4,235.6,310710,,,A*4F
$GPRMC,000151.0,A,3331.793066,N,11703.700004,W,39.1,239.4,310710,,,A*42
$GPRMC,000154.0,A,3331.777098,N,11703.735077,W,40.1,242.8,310710,,,A*40
$GPRMC,000157.0,A,3331.762444,N,11703.771011,W,39.6,245.0,310710,,,A*44
$GPRMC,000200.0,A,3331.749348,N,11703.807587,W,39.8,248.0,310710,,,A*40
$GPRMC,000203.0,A,3331.737597,N,11703.844703,W,39.8,249.8,310710,,,A*4E
$GPRMC,000206.0,A,3331.725995,N,11703.882190,W,40.1,249.3,310710,,,A*4C
$GPRMC,000209.0,A,3331.714096,N,11703.919843,W,40.3,249.7,310710,,,A*49
$GPRMC,000212.0,A,3331.702340,N,11703.957597,W,40.3,249.5,310710,,,A*40
$GPRMC,000215.0,A,3331.690746,N,11703.995607,W,40.2,249.8,310710,,,A*47
$GPRMC,000218.0,A,3331.679219,N,11704.033421,W,40.1,249.4,310710,,,A*49
$GPRMC,000221.0,A,3331.667644,N,11704.070989,W,39.6,249.5,310710,,,A*40
$GPRMC,000224.0,A,3331.656150,N,11704.107903,W,39.3,249.8,310710,,,A*4E
$GPRMC,000227.0,A,3331.644483,N,11704.144434,W,39.3,249.1,310710,,,A*42
$GPRMC,000230.0,A,3331.632687,N,11704.181474,W,39.9,249.7,310710,,,A*42
$GPRMC,000233.0,A,3331.621057,N,11704.218951,W,40.1,249.7,310710,,,A*47
$GPRMC,000236.0,A,3331.609243,N,11704.256614,W,40.3,249.7,310710,,,A*49
$GPRMC,000239.0,A,3331.597244,N,11704.294620,W,40.8,249.9,310710,,,A*49
$GPRMC,000242.0,A,3331.585375,N,11704.333379,W,41.8,249.8,310710,,,A*40
$GPRMC,000245.0,A,3331.572900,N,11704.372737,W,42.0,248.5,310710,,,A*4B
$GPRMC,000248.0,A,3331.559593,N,11704.411799,W,42.3,247.3,310710,,,A*45
$GPRMC,000251.0,A,3331.545388,N,11704.450674,W,42.4,245.9,310710,,,A*44
$GPRMC,000254.0,A,3331.530258,N,11704.488850,W,42.4,243.7,310710,,,A*4A
$GPRMC,000257.0,A,3331.514054,N,11704.526669,W,42.4,242.5,310710,,,A*43
$GPRMC,000300.0,A,3331.497161,N,11704.564061,W,42.6,241.5,310710,,,A*44
$GPRMC,000303.0,A,3331.480092,N,11704.601493,W,42.4,241.3,310710,,,A*41
$GPRMC,000306.0,A,3331.462827,N,11704.638241,W,42.0,240.8,310710,,,A*43
$GPRMC,000309.0,A,3331.445952,N,11704.674400,W,41.0,240.7,310710,,,A*4D
$GPRMC,000312.0,A,3331.429313,N,11704.709665,W,40.4,240.9,310710,,,A*43
$GPRMC,000315.0,A,3331.412845,N,11704.745306,W,41.0,241.3,310710,,,A*42
$GPRMC,000318.0,A,3331.397464,N,11704.781576,W,41.0,245.7,310710,,,A*43
$GPRMC,000321.0,A,3331.384966,N,11704.819888,W,41.4,251.3,310710,,,A*43
$GPRMC,000324.0,A,3331.375841,N,11704.860252,W,42.2,258.0,310710,,,A*40
$GPRMC,000327.0,A,3331.370196,N,11704.902613,W,43.6,262.7,310710,,,A*4A
$GPRMC,000330.0,A,3331.365898,N,11704.946044,W,44.0,263.0,310710,,,A*4C
$GPRMC,000333.0,A,3331.361649,N,11704.989446,W,43.5,263.3,310710,,,A*4D
$GPRMC,000336.0,A,3331.357447,N,11705.032314,W,43.2,262.9,310710,,,A*45
$GPRMC,000339.0,A,3331.352287,N,11705.074916,W,42.7,260.4,310710,,,A*44
$GPRMC,000342.0,A,3331.345168,N,11705.116331,W,42.1,257.0,310710,,,A*40
$GPRMC,000345.0,A,3331.336805,N,11705.156680,W,41.3,254.4,310710,,,A*4C
$GPRMC,000348.0,A,3331.326540,N,11705.195641,W,40.8,251.1,310710,,,A*44
$GPRMC,000351.0,A,3331.314679,N,11705.234259,W,41.1,248.7,310710,,,A*47
$GPRMC,000354.0,A,3331.301850,N,11705.272400,W,41.4,248.1,310710,,,A*48
$GPRMC,000357.0,A,3331.288879,N,11705.310914,W,41.9,247.9,310710,,,A*47
$GPRMC,000400.0,A,3331.275877,N,11705.349457,W,41.5,248.4,310710,,,A*46
$GPRMC,000403.0,A,3331.263294,N,11705.387301,W,40.3,248.3,310710,,,A*43
$GPRMC,000406.0,A,3331.250907,N,11705.424351,W,39.9,248.1,310710,,,A*4A
$GPRMC,000409.0,A,3331.238457,N,11705.461129,W,39.6,247.8,310710,,,A*46
$GPRMC,000412.0,A,3331.226317,N,11705.497475,W,39.0,248.2,310710,,,A*46
$GPRMC,000415.0,A,3331.214260,N,11705.532910,W,37.7,247.8,310710,,,A*4D
$GPRMC,000418.0,A,3331.203062,N,11705.566822,W,34.7,248.2,310710,,,A*41
$GPRMC,000421.0,A,3331.192300,N,11705.596036,W,29.4,244.5,310710,,,A*41
$GPRMC,000424.0,A,3331.182606,N,11705.618360,W,21.2,239.9,310710,,,A*4B
$GPRMC,000427.0,A,3331.175573,N,11705.632346,W,13.1,238.5,310710,,,A*42
$GPRMC,000430.0,A,3331.171238,N,11705.640574,W,7.7,237.2,310710,,,A*71
$GPRMC,000457.0,A,3331.167813,N,11705.649259,W,12.7,236.9,310710,,,A*4B
$GPRMC,000500.0,A,3331.160257,N,11705.662959,W,19.5,237.9,310710,,,A*4F
$GPRMC,000503.0,A,3331.150143,N,11705.682341,W,25.5,238.4,310710,,,A*49
$GPRMC,000506.0,A,3331.137940,N,11705.706300,W,30.6,239.7,310710,,,A*4B
$GPRMC,000509.0,A,3331.123805,N,11705.734775,W,34.7,238.7,310710,,,A*42
$GPRMC,000512.0,A,3331.107881,N,11705.765196,W,36.4,238.0,310710,,,A*4B
$GPRMC,000515.0,A,3331.091103,N,11705.797554,W,38.7,238.0,310710,,,A*4B
$GPRMC,000518.0,A,3331.073642,N,11705.830857,W,39.1,237.8,310710,,,A*44
$GPRMC,000521.0,A,3331.056256,N,11705.863596,W,38.2,237.7,310710,,,A*43
$GPRMC,000524.0,A,3331.038976,N,11705.896059,W,38.3,237.4,310710,,,A*49
$GPRMC,000527.0,A,3331.021339,N,11705.928407,W,38.4,236.9,310710,,,A*43
$GPRMC,000530.0,A,3331.003574,N,11705.960598,W,38.6,236.5,310710,,,A*4F
$GPRMC,000533.0,A,3330.985816,N,11705.993474,W,39.6,237.5,310710,,,A*4C
$GPRMC,000536.0,A,3330.967970,N,11706.027566,W,40.5,238.8,310710,,,A*4C
$GPRMC,000539.0,A,3330.950556,N,11706.062428,W,40.6,239.2,310710,,,A*4D
$GPRMC,000542.0,A,3330.933118,N,11706.097728,W,40.9,240.1,310710,,,A*41
$GPRMC,000545.0,A,3330.916318,N,11706.132620,W,39.7,240.9,310710,,,A*4C
$GPRMC,000548.0,A,3330.900783,N,11706.166577,W,37.8,241.9,310710,,,A*40
$GPRMC,000551.0,A,3330.887202,N,11706.197571,W,31.8,242.4,310710,,,A*4A
$GPRMC,000554.0,A,3330.876472,N,11706.222315,W,24.4,242.8,310710,,,A*4D
$GPRMC,000557.0,A,3330.868599,N,11706.240903,W,17.8,243.0,310710,,,A*49
$GPRMC,000600.0,A,3330.862813,N,11706.254134,W,12.3,242.8,310710,,,A*43
$GPRMC,000603.0,A,3330.859537,N,11706.261512,W,5.4,243.2,310710,,,A*7F
$GPRMC,000636.0,A,3330.854570,N,11706.275237,W,12.5,243.3,310710,,,A*44
$GPRMC,000639.0,A,3330.848211,N,11706.290631,W,20.8,243.5,310710,,,A*45
$GPRMC,000642.0,A,3330.839055,N,11706.312402,W,26.6,243.3,310710,,,A*4A
$GPRMC,000645.0,A,3330.828107,N,11706.338156,W,30.7,243.0,310710,,,A*42
$GPRMC,000648.0,A,3330.815884,N,11706.366898,W,33.3,243.2,310710,,,A*46
$GPRMC,000651.0,A,3330.802526,N,11706.397691,W,35.8,242.2,310710,,,A*48
$GPRMC,000654.0,A,3330.787585,N,11706.430562,W,38.8,240.9,310710,,,A*47
$GPRMC,000657.0,A,3330.770488,N,11706.465127,W,40.5,238.3,310710,,,A*42
$GPRMC,000700.0,A,3330.752333,N,11706.499873,W,40.6,238.0,310710,,,A*4D
$GPRMC,000703.0,A,3330.733778,N,11706.535324,W,42.7,237.9,310710,,,A*49
$GPRMC,000706.0,A,3330.713986,N,11706.572967,W,45.5,237.6,310710,,,A*45
$GPRMC,000709.0,A,3330.693442,N,11706.611641,W,45.1,237.9,310710,,,A*40
$GPRMC,000712.0,A,3330.673715,N,11706.649480,W,43.6,238.3,310710,,,A*43
$GPRMC,000715.0,A,3330.654735,N,11706.686027,W,42.2,238.1,310710,,,A*4E
$GPRMC,000718.0,A,3330.636157,N,11706.721588,W,42.0,238.1,310710,,,A*4B
$GPRMC,000721.0,A,3330.617386,N,11706.757627,W,42.2,237.9,310710,,,A*4E
$GPRMC,000724.0,A,3330.598544,N,11706.793736,W,43.2,237.7,310710,,,A*41
$GPRMC,000727.0,A,3330.579318,N,11706.830414,W,42.9,237.8,310710,,,A*42
$GPRMC,000730.0,A,3330.560320,N,11706.866568,W,42.5,237.8,310710,,,A*42
$GPRMC,000733.0,A,3330.541499,N,11706.902692,W,42.9,238.3,310710,,,A*4A
$GPRMC,000736.0,A,3330.522707,N,11706.939571,W,43.3,239.0,310710,,,A*41
$GPRMC,000739.0,A,3330.505022,N,11706.977244,W,43.3,242.9,310710,,,A*45
$GPRMC,000742.0,A,3330.489588,N,11707.017015,W,44.5,246.7,310710,,,A*4A
$GPRMC,000745.0,A,3330.476173,N,11707.058842,W,45.2,251.1,310710,,,A*4A
$GPRMC,000748.0,A,3330.465257,N,11707.102435,W,46.0,255.2,310710,,,A*44
$GPRMC,000751.0,A,3330.457369,N,11707.146968,W,45.5,260.6,310710,,,A*40
$GPRMC,000754.0,A,3330.452787,N,11707.191551,W,44.2,264.8,310710,,,A*44
$GPRMC,000757.0,A,3330.450398,N,11707.234445,W,41.2,267.8,310710,,,A*41
$GPRMC,000800.0,A,3330.450987,N,11707.272510,W,35.4,272.3,310710,,,A*41
$GPRMC,000803.0,A,3330.453544,N,11707.304521,W,30.5,275.9,310710,,,A*49
$GPRMC,000806.0,A,3330.457248,N,11707.334550,W,30.6,278.2,310710,,,A*43
$GPRMC,000809.0,A,3330.461857,N,11707.365258,W,31.5,279.5,310710,,,A*42
$GPRMC,000812.0,A,3330.466849,N,11707.395071,W,28.0,280.9,310710,,,A*41
$GPRMC,000815.0,A,3330.471126,N,11707.420412,W,24.8,279.8,310710,,,A*4B
$GPRMC,000818.0,A,3330.475091,N,11707.443858,W,23.8,281.5,310710,,,A*45
$GPRMC,000821.0,A,3330.479859,N,11707.470055,W,30.1,281.7,310710,,,A*43
$GPRMC,000824.0,A,3330.485225,N,11707.500909,W,33.1,281.5,310710,,,A*43
$GPRMC,000827.0,A,3330.491227,N,11707.535856,W,37.3,281.1,310710,,,A*48
$GPRMC,000830.0,A,3330.497408,N,11707.572272,W,36.4,281.3,310710,,,A*48
$GPRMC,000833.0,A,3330.503400,N,11707.607089,W,34.9,281.1,310710,,,A*45
$GPRMC,000836.0,A,3330.508985,N,11707.640729,W,34.0,281.1,310710,,,A*4C
$GPRMC,000839.0,A,3330.514796,N,11707.675043,W,36.5,281.0,310710,,,A*49
$GPRMC,000842.0,A,3330.520391,N,11707.711404,W,37.0,279.1,310710,,,A*47
$GPRMC,000845.0,A,3330.524576,N,11707.747518,W,36.0,276.7,310710,,,A*4C
$GPRMC,000848.0,A,3330.527467,N,11707.783446,W,37.3,273.9,310710,,,A*48
$GPRMC,000851.0,A,3330.528772,N,11707.822497,W,40.4,270.7,310710,,,A*4A
$GPRMC,000854.0,A,3330.528498,N,11707.863098,W,40.9,268.1,310710,,,A*44
$GPRMC,000857.0,A,3330.526484,N,11707.903517,W,39.9,265.0,310710,,,A*43
$GPRMC,000900.0,A,3330.522851,N,11707.942618,W,39.0,262.4,310710,,,A*43
$GPRMC,000903.0,A,3330.518000,N,11707.980508,W,37.8,261.6,310710,,,A*4E
$GPRMC,000906.0,A,3330.513089,N,11708.017618,W,38.1,261.1,310710,,,A*4A
$GPRMC,000909.0,A,3330.507798,N,11708.055281,W,38.4,260.4,310710,,,A*44
$GPRMC,000912.0,A,3330.502437,N,11708.092859,W,38.1,260.6,310710,,,A*4E
$GPRMC,000915.0,A,3330.497408,N,11708.130080,W,37.4,261.1,310710,,,A*41
$GPRMC,000918.0,A,3330.492555,N,11708.166526,W,37.1,260.9,310710,,,A*46
$GPRMC,000921.0,A,3330.487468,N,11708.203681,W,38.4,261.0,310710,,,A*4B
$GPRMC,000924.0,A,3330.482052,N,11708.241631,W,39.2,258.7,310710,,,A*41
$GPRMC,000927.0,A,3330.476339,N,11708.279923,W,39.0,260.5,310710,,,A*4B
$GPRMC,000930.0,A,3330.470872,N,11708.318305,W,38.3,260.0,310710,,,A*40
$GPRMC,000933.0,A,3330.465010,N,11708.354938,W,36.3,258.2,310710,,,A*40
$GPRMC,000936.0,A,3330.458196,N,11708.389307,W,35.3,255.6,310710,,,A*48
$GPRMC,000939.0,A,3330.450632,N,11708.421715,W,32.8,253.2,310710,,,A*4A
$GPRMC,000942.0,A,3330.442420,N,11708.450868,W,30.5,250.6,310710,,,A*4F
$GPRMC,000945.0,A,3330.433322,N,11708.479555,W,32.1,248.3,310710,,,A*49
$GPRMC,000948.0,A,3330.422627,N,11708.509574,W,32.2,246.2,310710,,,A*4D
$GPRMC,000951.0,A,3330.415255,N,11708.528186,W,10.7,243.0,310710,,,A*48
$GPRMC,001036.0,A,3330.415116,N,11708.526773,W,6.8,247.7,310710,,,A*7C
$GPRMC,001039.0,A,3330.409936,N,11708.539200,W,18.4,243.2,310710,,,A*49
$GPRMC,001042.0,A,3330.401088,N,11708.559111,W,26.2,241.3,310710,,,A*4C
$GPRMC,001045.0,A,3330.388434,N,11708.585061,W,32.8,238.5,310710,,,A*4E
$GPRMC,001048.0,A,3330.372623,N,11708.613848,W,35.0,236.0,310710,,,A*49
$GPRMC,001051.0,A,3330.355750,N,11708.642941,W,34.8,234.5,310710,,,A*43
$GPRMC,001054.0,A,3330.338993,N,11708.669666,W,31.5,231.7,310710,,,A*40
$GPRMC,001057.0,A,3330.324154,N,11708.691302,W,24.3,230.1,310710,,,A*48
$GPRMC,001100.0,A,3330.310928,N,11708.710241,W,26.0,230.6,310710,,,A*47
$GPRMC,001103.0,A,3330.295166,N,11708.733039,W,32.3,230.5,310710,,,A*43
$GPRMC,001106.0,A,3330.277464,N,11708.758280,W,32.2,230.5,310710,,,A*41
$GPRMC,001109.0,A,3330.261184,N,11708.781645,W,28.6,230.3,310710,,,A*42
$GPRMC,001112.0,A,3330.247284,N,11708.801727,W,24.0,230.5,310710,,,A*41
$GPRMC,001115.0,A,3330.234859,N,11708.819354,W,22.7,230.0,310710,,,A*45
$GPRMC,001118.0,A,3330.223614,N,11708.835185,W,18.0,229.4,310710,,,A*4B
$GPRMC,001121.0,A,3330.216372,N,11708.845505,W,9.9,230.6,310710,,,A*7A
$GPRMC,001124.0,A,3330.211688,N,11708.852420,W,8.3,233.3,310710,,,A*75
$GPRMC,001212.0,A,3330.209115,N,11708.857625,W,8.0,231.5,310710,,,A*7C
$GPRMC,001215.0,A,3330.201783,N,11708.868172,W,18.8,230.5,310710,,,A*4B
$GPRMC,001218.0,A,3330.189154,N,11708.886553,W,27.6,231.0,310710,,,A*48
$GPRMC,001221.0,A,3330.173617,N,11708.909406,W,29.5,231.4,310710,,,A*49
$GPRMC,001224.0,A,3330.158645,N,11708.931378,W,27.0,230.3,310710,,,A*4A
$GPRMC,001227.0,A,3330.144792,N,11708.951459,W,24.8,231.0,310710,,,A*44
$GPRMC,001230.0,A,3330.132061,N,11708.970449,W,23.4,230.8,310710,,,A*48
$GPRMC,001233.0,A,3330.119320,N,11708.988896,W,24.2,230.4,310710,,,A*40
$GPRMC,001236.0,A,3330.105550,N,11709.008560,W,26.4,230.0,310710,,,A*4D
$GPRMC,001239.0,A,3330.090669,N,11709.029763,W,27.8,229.3,310710,,,A*42
$GPRMC,001242.0,A,3330.075292,N,11709.049563,W,25.7,225.9,310710,,,A*4A
$GPRMC,001245.0,A,3330.062257,N,11709.066154,W,18.9,227.2,310710,,,A*46
$GPRMC,001248.0,A,3330.054180,N,11709.077308,W,11.2,229.2,310710,,,A*40
$GPRMC,001251.0,A,3330.049996,N,11709.083464,W,5.1,230.2,310710,,,A*73
$GPRMC,001324.0,A,3330.045427,N,11709.093241,W,8.0,232.1,310710,,,A*76
$GPRMC,001327.0,A,3330.038730,N,11709.103309,W,15.7,232.6,310710,,,A*43
$GPRMC,001330.0,A,3330.030246,N,11709.116375,W,16.5,233.0,310710,,,A*40
$GPRMC,001333.0,A,3330.017646,N,11709.121409,W,17.0,171.6,310710,,,A*4D
$GPRMC,001336.0,A,3330.005563,N,11709.110169,W,20.3,132.4,310710,,,A*4C
$GPRMC,001339.0,A,3329.991635,N,11709.093387,W,25.0,137.3,310710,,,A*43
$GPRMC,001342.0,A,3329.974237,N,11709.075468,W,29.0,141.3,310710,,,A*41
$GPRMC,001345.0,A,3329.953979,N,11709.056800,W,30.8,143.4,310710,,,A*44
$GPRMC,001348.0,A,3329.932884,N,11709.038272,W,31.7,144.0,310710,,,A*47
$GPRMC,001351.0,A,3329.910309,N,11709.018980,W,33.5,144.3,310710,,,A*46
$GPRMC,001354.0,A,3329.886946,N,11708.999699,W,33.8,145.7,310710,,,A*42
$GPRMC,001357.0,A,3329.862673,N,11708.979532,W,36.3,144.0,310710,,,A*46
$GPRMC,001400.0,A,3329.837122,N,11708.956689,W,39.0,142.4,310710,,,A*40
$GPRMC,001403.0,A,3329.811106,N,11708.932836,W,38.6,142.2,310710,,,A*48
$GPRMC,001406.0,A,3329.785340,N,11708.908219,W,39.7,140.7,310710,,,A*46
$GPRMC,001409.0,A,3329.759133,N,11708.882303,W,40.7,139.8,310710,,,A*48
$GPRMC,001412.0,A,3329.732617,N,11708.855845,W,41.3,140.6,310710,,,A*48
$GPRMC,001415.0,A,3329.705683,N,11708.829558,W,41.6,140.9,310710,,,A*46
$GPRMC,001418.0,A,3329.677985,N,11708.803572,W,41.9,143.1,310710,,,A*42
$GPRMC,001421.0,A,3329.649027,N,11708.779166,W,42.6,146.9,310710,,,A*46
$GPRMC,001424.0,A,3329.618299,N,11708.757002,W,43.1,151.4,310710,,,A*42
$GPRMC,001427.0,A,3329.585911,N,11708.737288,W,43.7,154.6,310710,,,A*4A
$GPRMC,001430.0,A,3329.552450,N,11708.719968,W,43.0,157.9,310710,,,A*4C
$GPRMC,001433.0,A,3329.518770,N,11708.705383,W,42.2,161.4,310710,,,A*49
$GPRMC,001436.0,A,3329.485384,N,11708.692775,W,41.5,162.7,310710,,,A*40
$GPRMC,001439.0,A,3329.451744,N,11708.680157,W,42.8,162.7,310710,,,A*45
$GPRMC,001442.0,A,3329.417151,N,11708.667056,W,43.6,163.1,310710,,,A*48
$GPRMC,001445.0,A,3329.381281,N,11708.653568,W,45.6,162.6,310710,,,A*46
$GPRMC,001448.0,A,3329.344183,N,11708.639864,W,47.1,163.1,310710,,,A*4D
$GPRMC,001451.0,A,3329.306354,N,11708.626109,W,46.5,163.0,310710,,,A*43
$GPRMC,001454.0,A,3329.269360,N,11708.612626,W,46.1,163.4,310710,,,A*44
$GPRMC,001457.0,A,3329.232778,N,11708.599691,W,45.3,163.3,310710,,,A*4E
$GPRMC,001500.0,A,3329.196342,N,11708.586625,W,45.3,163.2,310710,,,A*4D
$GPRMC,001503.0,A,3329.160096,N,11708.573439,W,45.3,163.0,310710,,,A*4A
$GPRMC,001506.0,A,3329.123796,N,11708.560438,W,45.3,163.3,310710,,,A*4F
$GPRMC,001509.0,A,3329.087471,N,11708.547458,W,45.4,163.5,310710,,,A*47
$GPRMC,001512.0,A,3329.050577,N,11708.534377,W,46.6,163.1,310710,,,A*4B
$GPRMC,001515.0,A,3329.012798,N,11708.520693,W,47.6,163.0,310710,,,A*43
$GPRMC,001518.0,A,3328.974405,N,11708.506923,W,48.2,163.3,310710,,,A*49
$GPRMC,001521.0,A,3328.935259,N,11708.492952,W,49.3,163.7,310710,,,A*47
$GPRMC,001524.0,A,3328.895114,N,11708.479640,W,50.0,165.3,310710,,,A*43
$GPRMC,001527.0,A,3328.855134,N,11708.466494,W,49.1,163.5,310710,,,A*42
$GPRMC,001530.0,A,3328.815877,N,11708.452367,W,48.9,163.4,310710,,,A*4A
$GPRMC,001533.0,A,3328.776602,N,11708.438225,W,49.0,163.1,310710,,,A*49
$GPRMC,001536.0,A,3328.737176,N,11708.424118,W,49.1,163.5,310710,,,A*48
$GPRMC,001539.0,A,3328.697546,N,11708.410153,W,50.3,163.5,310710,,,A*49
$GPRMC,001542.0,A,3328.656838,N,11708.395538,W,51.2,163.0,310710,,,A*4A
$GPRMC,001545.0,A,3328.615315,N,11708.380652,W,52.6,163.8,310710,,,A*4A
$GPRMC,001548.0,A,3328.572839,N,11708.365504,W,53.1,162.9,310710,,,A*4D
$GPRMC,001551.0,A,3328.530320,N,11708.349883,W,53.5,163.0,310710,,,A*40
$GPRMC,001554.0,A,3328.487461,N,11708.334177,W,53.5,163.2,310710,,,A*40
$GPRMC,001557.0,A,3328.444721,N,11708.318884,W,53.2,163.0,310710,,,A*45
$GPRMC,001600.0,A,3328.402273,N,11708.303575,W,52.7,163.4,310710,,,A*4D
$GPRMC,001603.0,A,3328.360053,N,11708.288543,W,52.5,163.4,310710,,,A*48
$GPRMC,001606.0,A,3328.318321,N,11708.273667,W,52.1,163.4,310710,,,A*41
$GPRMC,001609.0,A,3328.276499,N,11708.258921,W,52.0,163.5,310710,,,A*47
$GPRMC,001612.0,A,3328.234961,N,11708.243990,W,51.9,163.8,310710,,,A*46
$GPRMC,001615.0,A,3328.192920,N,11708.230411,W,51.9,166.3,310710,,,A*45
$GPRMC,001618.0,A,3328.150200,N,11708.219287,W,52.2,168.6,310710,,,A*4E
$GPRMC,001621.0,A,3328.107215,N,11708.210008,W,52.3,170.8,310710,,,A*48
$GPRMC,001624.0,A,3328.064053,N,11708.203118,W,51.9,173.6,310710,,,A*4F
$GPRMC,001627.0,A,3328.020815,N,11708.198657,W,52.2,176.5,310710,,,A*45
$GPRMC,001630.0,A,3327.977386,N,11708.196565,W,52.0,178.6,310710,,,A*45
$GPRMC,001633.0,A,3327.933843,N,11708.196163,W,51.9,181.0,310710,,,A*4C
$GPRMC,001636.0,A,3327.890387,N,11708.197983,W,51.8,182.7,310710,,,A*40
$GPRMC,001639.0,A,3327.847380,N,11708.200870,W,51.4,183.3,310710,,,A*4B
$GPRMC,001642.0,A,3327.804675,N,11708.203420,W,51.1,181.3,310710,,,A*42
$GPRMC,001645.0,A,3327.762083,N,11708.203168,W,51.0,178.5,310710,,,A*4D
$GPRMC,001648.0,A,3327.719443,N,11708.200774,W,51.0,176.1,310710,,,A*46
$GPRMC,001651.0,A,3327.677158,N,11708.196369,W,50.7,175.1,310710,,,A*49
$GPRMC,001654.0,A,3327.634894,N,11708.192371,W,51.2,175.8,310710,,,A*42
$GPRMC,001657.0,A,3327.591937,N,11708.187960,W,52.1,174.7,310710,,,A*45
$GPRMC,001700.0,A,3327.548427,N,11708.183127,W,52.2,174.4,310710,,,A*41
$GPRMC,001703.0,A,3327.505199,N,11708.177424,W,52.0,174.0,310710,,,A*40
$GPRMC,001706.0,A,3327.461682,N,11708.172163,W,52.1,174.8,310710,,,A*41
$GPRMC,001709.0,A,3327.418077,N,11708.167235,W,52.4,174.9,310710,,,A*4C
$GPRMC,001712.0,A,3327.374399,N,11708.162437,W,52.4,174.8,310710,,,A*48
$GPRMC,001715.0,A,3327.330847,N,11708.158102,W,52.4,175.5,310710,,,A*41
$GPRMC,001718.0,A,3327.287128,N,11708.153289,W,52.5,174.4,310710,,,A*4B
$GPRMC,001721.0,A,3327.243237,N,11708.148240,W,52.7,175.1,310710,,,A*4D
$GPRMC,001724.0,A,3327.199312,N,11708.143784,W,52.7,175.4,310710,,,A*49
$GPRMC,001727.0,A,3327.155438,N,11708.139379,W,52.6,175.4,310710,,,A*4F
$GPRMC,001730.0,A,3327.111553,N,11708.136089,W,52.7,178.1,310710,,,A*4F
$GPRMC,001733.0,A,3327.067526,N,11708.135838,W,53.0,181.6,310710,,,A*48
$GPRMC,001736.0,A,3327.022389,N,11708.138830,W,54.9,185.1,310710,,,A*47
$GPRMC,001739.0,A,3326.975684,N,11708.145202,W,56.7,188.2,310710,,,A*49
$GPRMC,001742.0,A,3326.928973,N,11708.154577,W,56.3,191.3,310710,,,A*42
$GPRMC,001745.0,A,3326.882891,N,11708.167009,W,56.4,194.5,310710,,,A*41
$GPRMC,001748.0,A,3326.837342,N,11708.181689,W,56.4,195.8,310710,,,A*4D
$GPRMC,001751.0,A,3326.791967,N,11708.197676,W,56.4,196.2,310710,,,A*45
$GPRMC,001754.0,A,3326.746372,N,11708.212829,W,56.3,195.3,310710,,,A*4B
$GPRMC,001757.0,A,3326.700821,N,11708.227278,W,56.2,195.3,310710,,,A*4E
$GPRMC,001800.0,A,3326.655290,N,11708.242129,W,56.1,195.1,310710,,,A*47
$GPRMC,001803.0,A,3326.609952,N,11708.256945,W,56.1,195.1,310710,,,A*4F
$GPRMC,001806.0,A,3326.564602,N,11708.271469,W,56.1,195.2,310710,,,A*4D
$GPRMC,001809.0,A,3326.519518,N,11708.286255,W,56.0,196.0,310710,,,A*41
$GPRMC,001812.0,A,3326.474746,N,11708.302378,W,55.9,197.5,310710,,,A*45
$GPRMC,001815.0,A,3326.430386,N,11708.319703,W,55.9,198.8,310710,,,A*4A
$GPRMC,001818.0,A,3326.386381,N,11708.338633,W,56.0,201.0,310710,,,A*4A
$GPRMC,001821.0,A,3326.343025,N,11708.359248,W,56.1,201.9,310710,,,A*43
$GPRMC,001824.0,A,3326.299410,N,11708.380370,W,56.2,203.0,310710,,,A*44
$GPRMC,001827.0,A,3326.256411,N,11708.403061,W,56.2,205.1,310710,,,A*4D
$GPRMC,001830.0,A,3326.213932,N,11708.427498,W,56.3,206.8,310710,,,A*49
$GPRMC,001833.0,A,3326.172326,N,11708.453790,W,56.3,208.9,310710,,,A*46
$GPRMC,001836.0,A,3326.131369,N,11708.481461,W,56.3,210.2,310710,,,A*4F
$GPRMC,001839.0,A,3326.091098,N,11708.510424,W,56.3,212.0,310710,,,A*4E
$GPRMC,001842.0,A,3326.051579,N,11708.541031,W,56.3,213.9,310710,,,A*48
$GPRMC,001845.0,A,3326.012963,N,11708.573127,W,56.3,215.7,310710,,,A*40
$GPRMC,001848.0,A,3325.974942,N,11708.606349,W,56.5,216.8,310710,,,A*45
$GPRMC,001851.0,A,3325.937739,N,11708.640653,W,56.3,218.3,310710,,,A*47
$GPRMC,001854.0,A,3325.901039,N,11708.676627,W,58.0,220.4,310710,,,A*47
$GPRMC,001857.0,A,3325.863436,N,11708.716141,W,60.8,221.8,310710,,,A*44
$GPRMC,001900.0,A,3325.826394,N,11708.757264,W,60.4,223.7,310710,,,A*49
$GPRMC,001903.0,A,3325.790524,N,11708.799524,W,59.9,225.4,310710,,,A*46
$GPRMC,001906.0,A,3325.755609,N,11708.842392,W,59.8,225.5,310710,,,A*44
$GPRMC,001909.0,A,3325.720503,N,11708.884853,W,59.6,225.1,310710,,,A*46
$GPRMC,001912.0,A,3325.685513,N,11708.926957,W,59.6,224.8,310710,,,A*47
$GPRMC,001915.0,A,3325.649939,N,11708.968533,W,59.6,223.0,310710,,,A*4F
$GPRMC,001918.0,A,3325.612686,N,11709.007554,W,59.4,219.7,310710,,,A*4B
$GPRMC,001921.0,A,3325.573991,N,11709.044584,W,59.4,217.5,310710,,,A*4A
$GPRMC,001924.0,A,3325.533597,N,11709.079164,W,59.5,214.2,310710,,,A*40
$GPRMC,001927.0,A,3325.492104,N,11709.111270,W,59.3,211.5,310710,,,A*4A
$GPRMC,001930.0,A,3325.449442,N,11709.141410,W,59.6,210.3,310710,,,A*4A
$GPRMC,001933.0,A,3325.406569,N,11709.171544,W,59.6,210.6,310710,,,A*4C
$GPRMC,001936.0,A,3325.363632,N,11709.201503,W,59.5,210.0,310710,,,A*42
$GPRMC,001939.0,A,3325.320492,N,11709.231085,W,59.6,210.2,310710,,,A*4B
$GPRMC,001942.0,A,3325.277544,N,11709.260827,W,59.6,210.4,310710,,,A*4C
$GPRMC,001945.0,A,3325.234555,N,11709.290675,W,59.5,210.6,310710,,,A*4B
$GPRMC,001948.0,A,3325.191661,N,11709.320623,W,59.5,210.4,310710,,,A*45
$GPRMC,001951.0,A,3325.148838,N,11709.350854,W,59.6,210.9,310710,,,A*4C
$GPRMC,001954.0,A,3325.106417,N,11709.381853,W,59.8,212.0,310710,,,A*4C
$GPRMC,001957.0,A,3325.064313,N,11709.414050,W,59.9,213.1,310710,,,A*48
$GPRMC,002000.0,A,3325.022222,N,11709.446161,W,59.8,211.6,310710,,,A*41
$GPRMC,002003.0,A,3324.979507,N,11709.477090,W,59.8,211.5,310710,,,A*4A
$GPRMC,002006.0,A,3324.936857,N,11709.508492,W,59.9,211.9,310710,,,A*4E
$GPRMC,002009.0,A,3324.894602,N,11709.539914,W,59.6,211.7,310710,,,A*46
$GPRMC,002012.0,A,3324.852051,N,11709.570974,W,59.8,211.5,310710,,,A*41
$GPRMC,002015.0,A,3324.809499,N,11709.602069,W,59.8,211.6,310710,,,A*48
$GPRMC,002018.0,A,3324.767171,N,11709.633124,W,59.3,211.8,310710,,,A*4E
$GPRMC,002021.0,A,3324.725092,N,11709.664350,W,59.3,211.8,310710,,,A*4D
$GPRMC,002024.0,A,3324.683064,N,11709.695400,W,59.3,211.5,310710,,,A*4D
$GPRMC,002027.0,A,3324.640892,N,11709.726118,W,59.4,211.6,310710,,,A*41
$GPRMC,002030.0,A,3324.598823,N,11709.757409,W,59.4,212.1,310710,,,A*4C
$GPRMC,002033.0,A,3324.556526,N,11709.788273,W,59.6,211.4,310710,,,A*48
$GPRMC,002036.0,A,3324.514243,N,11709.819323,W,59.0,212.2,310710,,,A*4F
$GPRMC,002039.0,A,3324.472577,N,11709.850630,W,59.2,212.5,310710,,,A*4E
$GPRMC,002042.0,A,3324.430991,N,11709.882620,W,59.4,213.0,310710,,,A*4C
$GPRMC,002045.0,A,3324.389621,N,11709.915365,W,59.5,214.3,310710,,,A*44
$GPRMC,002048.0,A,3324.348897,N,11709.949447,W,59.6,215.3,310710,,,A*4B
$GPRMC,002051.0,A,3324.307887,N,11709.983696,W,60.1,215.0,310710,,,A*4F
$GPRMC,002054.0,A,3324.266907,N,11710.018165,W,60.0,215.3,310710,,,A*4F
$GPRMC,002057.0,A,3324.225940,N,11710.052509,W,59.9,214.8,310710,,,A*41
$GPRMC,002100.0,A,3324.184779,N,11710.086567,W,60.1,214.5,310710,,,A*40
$GPRMC,002103.0,A,3324.143115,N,11710.119779,W,60.0,213.2,310710,,,A*4F
$GPRMC,002106.0,A,3324.100802,N,11710.152122,W,60.2,212.2,310710,,,A*46
$GPRMC,002109.0,A,3324.057924,N,11710.183921,W,61.2,211.3,310710,,,A*4B
$GPRMC,002112.0,A,3324.013617,N,11710.214775,W,61.2,209.8,310710,,,A*4E
$GPRMC,002115.0,A,3323.969290,N,11710.244527,W,61.0,208.9,310710,,,A*43
$GPRMC,002118.0,A,3323.924277,N,11710.273208,W,61.1,207.5,310710,,,A*42
$GPRMC,002121.0,A,3323.878773,N,11710.300884,W,61.0,207.0,310710,,,A*4E
$GPRMC,002124.0,A,3323.832812,N,11710.327654,W,61.2,205.2,310710,,,A*49
$GPRMC,002127.0,A,3323.786544,N,11710.352920,W,61.0,204.1,310710,,,A*4A
$GPRMC,002130.0,A,3323.739826,N,11710.376804,W,61.1,202.7,310710,,,A*41
$GPRMC,002133.0,A,3323.692489,N,11710.398881,W,60.8,200.4,310710,,,A*4F
$GPRMC,002136.0,A,3323.644717,N,11710.418389,W,60.7,198.2,310710,,,A*42
$GPRMC,002139.0,A,3323.596503,N,11710.436328,W,60.5,197.0,310710,,,A*4E
$GPRMC,002142.0,A,3323.547843,N,11710.452608,W,60.7,194.6,310710,,,A*45
$GPRMC,002145.0,A,3323.498683,N,11710.465910,W,60.7,191.8,310710,,,A*4A
$GPRMC,002148.0,A,3323.448867,N,11710.476838,W,60.8,189.9,310710,,,A*40
$GPRMC,002151.0,A,3323.398837,N,11710.485463,W,60.8,187.3,310710,,,A*4D
$GPRMC,002154.0,A,3323.348086,N,11710.491709,W,61.0,184.8,310710,,,A*4C
$GPRMC,002157.0,A,3323.297007,N,11710.495944,W,61.0,183.3,310710,,,A*4A
$GPRMC,002200.0,A,3323.246165,N,11710.498016,W,60.8,180.8,310710,,,A*40
$GPRMC,002203.0,A,3323.195371,N,11710.497503,W,60.7,178.4,310710,,,A*43
$GPRMC,002206.0,A,3323.144657,N,11710.494591,W,60.6,176.6,310710,,,A*4E
$GPRMC,002209.0,A,3323.094305,N,11710.489481,W,60.6,174.4,310710,,,A*43
$GPRMC,002212.0,A,3323.044016,N,11710.482300,W,60.6,172.1,310710,,,A*43
$GPRMC,002215.0,A,3322.994044,N,11710.472679,W,60.5,169.9,310710,,,A*43
$GPRMC,002218.0,A,3322.944520,N,11710.461208,W,60.5,168.1,310710,,,A*4D
$GPRMC,002221.0,A,3322.895536,N,11710.447056,W,60.4,165.3,310710,,,A*4E
$GPRMC,002224.0,A,3322.847183,N,11710.430635,W,60.0,163.4,310710,,,A*48
$GPRMC,002227.0,A,3322.799509,N,11710.412536,W,59.8,161.6,310710,,,A*43
$GPRMC,002230.0,A,3322.752879,N,11710.392157,W,59.7,159.1,310710,,,A*47
$GPRMC,002233.0,A,3322.706573,N,11710.369562,W,59.9,157.1,310710,,,A*44
$GPRMC,002236.0,A,3322.660874,N,11710.345291,W,59.9,155.3,310710,,,A*4F
$GPRMC,002239.0,A,3322.615883,N,11710.318933,W,60.1,153.0,310710,,,A*46
$GPRMC,002242.0,A,3322.571677,N,11710.290398,W,60.0,150.4,310710,,,A*42
$GPRMC,002245.0,A,3322.528605,N,11710.259745,W,60.0,148.5,310710,,,A*45
$GPRMC,002248.0,A,3322.486667,N,11710.227061,W,59.8,145.9,310710,,,A*42
$GPRMC,002251.0,A,3322.446003,N,11710.192767,W,59.8,144.5,310710,,,A*43
$GPRMC,002254.0,A,3322.406324,N,11710.157105,W,59.7,142.3,310710,,,A*40
$GPRMC,002257.0,A,3322.367750,N,11710.119684,W,59.8,140.1,310710,,,A*4F
$GPRMC,002300.0,A,3322.330132,N,11710.080406,W,60.1,138.1,310710,,,A*49
$GPRMC,002303.0,A,3322.293035,N,11710.039574,W,60.5,137.8,310710,,,A*40
$GPRMC,002306.0,A,3322.255756,N,11709.998994,W,60.4,138.1,310710,,,A*42
$GPRMC,002309.0,A,3322.218440,N,11709.958671,W,60.4,137.8,310710,,,A*4E
$GPRMC,002312.0,A,3322.181005,N,11709.918649,W,60.3,139.3,310710,,,A*4F
$GPRMC,002315.0,A,3322.142019,N,11709.880347,W,60.3,142.1,310710,,,A*4F
$GPRMC,002318.0,A,3322.101673,N,11709.844077,W,60.5,144.2,310710,,,A*44
$GPRMC,002321.0,A,3322.059951,N,11709.809899,W,60.7,146.6,310710,,,A*48
$GPRMC,002324.0,A,3322.017101,N,11709.776958,W,60.7,148.5,310710,,,A*4C
$GPRMC,002327.0,A,3321.973362,N,11709.746345,W,60.4,150.9,310710,,,A*43
$GPRMC,002330.0,A,3321.928920,N,11709.718097,W,60.0,152.8,310710,,,A*47
$GPRMC,002333.0,A,3321.884201,N,11709.691729,W,59.5,154.9,310710,,,A*41
$GPRMC,002336.0,A,3321.838609,N,11709.667403,W,59.9,157.6,310710,,,A*4D
$GPRMC,002339.0,A,3321.792240,N,11709.645395,W,59.6,159.2,310710,,,A*49
$GPRMC,002342.0,A,3321.745555,N,11709.625591,W,59.7,161.8,310710,,,A*48
$GPRMC,002345.0,A,3321.697964,N,11709.608225,W,59.7,164.1,310710,,,A*44
$GPRMC,002348.0,A,3321.649827,N,11709.592931,W,59.8,165.9,310710,,,A*44
$GPRMC,002351.0,A,3321.601241,N,11709.579332,W,59.9,168.2,310710,,,A*41
$GPRMC,002354.0,A,3321.552219,N,11709.568143,W,59.9,169.9,310710,,,A*42
$GPRMC,002357.0,A,3321.502848,N,11709.559035,W,59.8,172.6,310710,,,A*4C
$GPRMC,002400.0,A,3321.453334,N,11709.552643,W,59.6,174.7,310710,,,A*49
$GPRMC,002403.0,A,3321.403925,N,11709.548177,W,59.6,176.5,310710,,,A*4E
$GPRMC,002406.0,A,3321.354720,N,11709.546246,W,59.6,178.8,310710,,,A*49
$GPRMC,002409.0,A,3321.305376,N,11709.546583,W,59.6,180.9,310710,,,A*4D
$GPRMC,002412.0,A,3321.255832,N,11709.547910,W,59.7,180.5,310710,,,A*42
$GPRMC,002415.0,A,3321.206250,N,11709.548614,W,59.6,179.9,310710,,,A*42
$GPRMC,002418.0,A,3321.156627,N,11709.548469,W,59.8,180.2,310710,,,A*46
$GPRMC,002421.0,A,3321.106974,N,11709.549112,W,59.6,180.5,310710,,,A*41
$GPRMC,002424.0,A,3321.057349,N,11709.549997,W,59.7,180.7,310710,,,A*43
$GPRMC,002427.0,A,3321.007473,N,11709.550953,W,59.7,181.0,310710,,,A*4D
$GPRMC,002430.0,A,3320.957817,N,11709.551733,W,59.6,180.7,310710,,,A*46
$GPRMC,002433.0,A,3320.908069,N,11709.552296,W,59.7,180.5,310710,,,A*44
$GPRMC,002436.0,A,3320.858371,N,11709.553000,W,59.7,180.8,310710,,,A*4E
$GPRMC,002439.0,A,3320.808532,N,11709.554051,W,59.7,180.8,310710,,,A*46
$GPRMC,002442.0,A,3320.758613,N,11709.554785,W,59.7,180.7,310710,,,A*41
$GPRMC,002445.0,A,3320.708890,N,11709.555449,W,59.6,180.7,310710,,,A*45
$GPRMC,002448.0,A,3320.659298,N,11709.556284,W,59.7,181.0,310710,,,A*4C
$GPRMC,002451.0,A,3320.609416,N,11709.557194,W,59.4,180.6,310710,,,A*46
$GPRMC,002454.0,A,3320.559902,N,11709.557939,W,59.4,180.7,310710,,,A*43
$GPRMC,002457.0,A,3320.510143,N,11709.558884,W,59.6,181.0,310710,,,A*4C
$GPRMC,002500.0,A,3320.460327,N,11709.560101,W,59.7,181.0,310710,,,A*47
$GPRMC,002503.0,A,3320.410509,N,11709.561233,W,59.7,181.4,310710,,,A*4E
$GPRMC,002506.0,A,3320.360775,N,11709.563305,W,59.6,182.2,310710,,,A*40
$GPRMC,002509.0,A,3320.311113,N,11709.565040,W,59.7,181.1,310710,,,A*4A
$GPRMC,002512.0,A,3320.261234,N,11709.566141,W,59.6,180.9,310710,,,A*4B
$GPRMC,002515.0,A,3320.211156,N,11709.567459,W,59.7,181.1,310710,,,A*49
$GPRMC,002518.0,A,3320.161367,N,11709.568555,W,59.5,180.9,310710,,,A*49
$GPRMC,002521.0,A,3320.111521,N,11709.569018,W,59.6,180.3,310710,,,A*44
$GPRMC,002524.0,A,3320.061705,N,11709.569812,W,59.7,180.9,310710,,,A*4A
$GPRMC,002527.0,A,3320.011992,N,11709.570547,W,59.7,180.7,310710,,,A*45
$GPRMC,002530.0,A,3319.962291,N,11709.571331,W,59.6,181.0,310710,,,A*4D
$GPRMC,002533.0,A,3319.912530,N,11709.572211,W,59.7,180.7,310710,,,A*42
$GPRMC,002536.0,A,3319.862664,N,11709.572956,W,59.7,180.8,310710,,,A*44
$GPRMC,002539.0,A,3319.813034,N,11709.573629,W,59.5,180.3,310710,,,A*41
$GPRMC,002542.0,A,3319.763107,N,11709.573182,W,59.7,178.7,310710,,,A*43
$GPRMC,002545.0,A,3319.713188,N,11709.570562,W,59.7,176.8,310710,,,A*4C
$GPRMC,002548.0,A,3319.663407,N,11709.565688,W,59.6,174.1,310710,,,A*4C
$GPRMC,002551.0,A,3319.614013,N,11709.558371,W,59.5,172.0,310710,,,A*4C
$GPRMC,002554.0,A,3319.565019,N,11709.548886,W,59.4,170.0,310710,,,A*47
$GPRMC,002557.0,A,3319.516247,N,11709.537460,W,59.3,167.7,310710,,,A*43
$GPRMC,002600.0,A,3319.468163,N,11709.523237,W,59.4,164.9,310710,,,A*44
$GPRMC,002603.0,A,3319.420572,N,11709.506636,W,59.4,163.0,310710,,,A*43
$GPRMC,002606.0,A,3319.373655,N,11709.488184,W,59.3,160.7,310710,,,A*4B
$GPRMC,002609.0,A,3319.327604,N,11709.467147,W,59.2,158.0,310710,,,A*42
$GPRMC,002612.0,A,3319.282329,N,11709.444325,W,58.5,156.2,310710,,,A*41
$GPRMC,002615.0,A,3319.238346,N,11709.419768,W,58.0,153.8,310710,,,A*41
$GPRMC,002618.0,A,3319.195480,N,11709.393299,W,57.6,152.1,310710,,,A*4A
$GPRMC,002621.0,A,3319.152713,N,11709.365840,W,58.7,152.2,310710,,,A*48
$GPRMC,002624.0,A,3319.109482,N,11709.337994,W,59.1,152.0,310710,,,A*42
$GPRMC,002627.0,A,3319.066028,N,11709.309775,W,59.2,151.4,310710,,,A*45
$GPRMC,002630.0,A,3319.022664,N,11709.281487,W,59.1,151.8,310710,,,A*4D
$GPRMC,002633.0,A,3318.978863,N,11709.253867,W,59.4,152.2,310710,,,A*41
$GPRMC,002636.0,A,3318.935039,N,11709.226171,W,59.4,151.7,310710,,,A*40
$GPRMC,002639.0,A,3318.891004,N,11709.198647,W,59.5,153.3,310710,,,A*4D
$GPRMC,002642.0,A,3318.846078,N,11709.172993,W,59.6,155.6,310710,,,A*42
$GPRMC,002645.0,A,3318.800436,N,11709.149331,W,59.5,157.7,310710,,,A*43
$GPRMC,002648.0,A,3318.753786,N,11709.128063,W,59.6,159.9,310710,,,A*4F
$GPRMC,002651.0,A,3318.706819,N,11709.108554,W,59.3,161.8,310710,,,A*42
$GPRMC,002654.0,A,3318.659736,N,11709.091279,W,58.9,163.9,310710,,,A*4F
$GPRMC,002657.0,A,3318.612301,N,11709.076267,W,58.4,166.5,310710,,,A*41
$GPRMC,002700.0,A,3318.564927,N,11709.064001,W,57.9,168.4,310710,,,A*42
$GPRMC,002703.0,A,3318.517273,N,11709.053531,W,58.7,170.7,310710,,,A*46
$GPRMC,002706.0,A,3318.468312,N,11709.045041,W,59.5,172.6,310710,,,A*49
$GPRMC,002709.0,A,3318.418905,N,11709.038644,W,59.6,174.9,310710,,,A*4E
$GPRMC,002712.0,A,3318.369220,N,11709.035044,W,59.7,177.4,310710,,,A*4D
$GPRMC,002715.0,A,3318.319301,N,11709.033233,W,59.7,177.8,310710,,,A*47
$GPRMC,002718.0,A,3318.269678,N,11709.030723,W,59.6,177.6,310710,,,A*4F
$GPRMC,002721.0,A,3318.219988,N,11709.028310,W,59.6,177.8,310710,,,A*41
$GPRMC,002724.0,A,3318.170214,N,11709.025875,W,59.6,177.1,310710,,,A*4A
$GPRMC,002727.0,A,3318.120569,N,11709.022466,W,59.6,176.4,310710,,,A*4C
$GPRMC,002730.0,A,3318.071020,N,11709.019207,W,59.4,177.6,310710,,,A*4F
$GPRMC,002733.0,A,3318.021390,N,11709.016913,W,59.5,177.2,310710,,,A*45
$GPRMC,002736.0,A,3317.971772,N,11709.014188,W,59.6,177.6,310710,,,A*44
$GPRMC,002739.0,A,3317.922109,N,11709.011391,W,59.8,177.4,310710,,,A*44
$GPRMC,002742.0,A,3317.872223,N,11709.008263,W,60.0,177.2,310710,,,A*47
$GPRMC,002745.0,A,3317.822329,N,11709.005432,W,59.9,177.5,310710,,,A*45
$GPRMC,002748.0,A,3317.772384,N,11709.002787,W,59.9,177.3,310710,,,A*49
$GPRMC,002751.0,A,3317.722455,N,11708.999829,W,59.8,177.4,310710,,,A*48
$GPRMC,002754.0,A,3317.672528,N,11708.997013,W,60.0,177.2,310710,,,A*49
$GPRMC,002757.0,A,3317.622548,N,11708.993900,W,59.8,177.3,310710,,,A*45
$GPRMC,002800.0,A,3317.572855,N,11708.990978,W,59.9,177.2,310710,,,A*43
$GPRMC,002803.0,A,3317.522836,N,11708.987966,W,59.8,177.2,310710,,,A*48
$GPRMC,002806.0,A,3317.472846,N,11708.985129,W,59.7,177.2,310710,,,A*40
$GPRMC,002809.0,A,3317.422985,N,11708.982896,W,59.7,178.6,310710,,,A*45
$GPRMC,002812.0,A,3317.372977,N,11708.981222,W,59.6,178.0,310710,,,A*41
$GPRMC,002815.0,A,3317.322852,N,11708.979472,W,59.8,179.7,310710,,,A*49
$GPRMC,002818.0,A,3317.272658,N,11708.980593,W,59.8,182.3,310710,,,A*4C
$GPRMC,002821.0,A,3317.222644,N,11708.984239,W,59.9,184.6,310710,,,A*4F
$GPRMC,002824.0,A,3317.173069,N,11708.990163,W,59.9,187.3,310710,,,A*4B
$GPRMC,002827.0,A,3317.123720,N,11708.999191,W,59.7,189.7,310710,,,A*47
$GPRMC,002830.0,A,3317.074855,N,11709.010632,W,59.6,192.0,310710,,,A*44
$GPRMC,002833.0,A,3317.026198,N,11709.024025,W,59.5,194.5,310710,,,A*4F
$GPRMC,002836.0,A,3316.978529,N,11709.040510,W,59.6,197.4,310710,,,A*47
$GPRMC,002839.0,A,3316.931464,N,11709.059495,W,59.6,199.6,310710,,,A*45
$GPRMC,002842.0,A,3316.884814,N,11709.080814,W,59.9,202.3,310710,,,A*47
$GPRMC,002845.0,A,3316.839094,N,11709.104793,W,59.9,204.9,310710,,,A*47
$GPRMC,002848.0,A,3316.794065,N,11709.130673,W,59.8,206.2,310710,,,A*4C
$GPRMC,002851.0,A,3316.749173,N,11709.156593,W,59.7,205.4,310710,,,A*45
$GPRMC,002854.0,A,3316.704197,N,11709.182478,W,60.0,205.8,310710,,,A*4F
$GPRMC,002857.0,A,3316.659339,N,11709.208378,W,59.9,205.8,310710,,,A*46
$GPRMC,002900.0,A,3316.614160,N,11709.234117,W,60.0,205.4,310710,,,A*49
$GPRMC,002903.0,A,3316.568986,N,11709.260218,W,60.2,205.6,310710,,,A*4F
$GPRMC,002906.0,A,3316.523304,N,11709.286425,W,60.4,205.5,310710,,,A*40
$GPRMC,002909.0,A,3316.477898,N,11709.312446,W,60.4,205.8,310710,,,A*45
$GPRMC,002912.0,A,3316.432802,N,11709.338482,W,60.3,205.4,310710,,,A*46
$GPRMC,002915.0,A,3316.387389,N,11709.364110,W,60.4,204.7,310710,,,A*42
$GPRMC,002918.0,A,3316.341425,N,11709.388738,W,60.5,203.7,310710,,,A*4C
$GPRMC,002921.0,A,3316.295054,N,11709.412430,W,60.6,202.4,310710,,,A*42
$GPRMC,002924.0,A,3316.248044,N,11709.434227,W,60.7,200.3,310710,,,A*46
$GPRMC,002927.0,A,3316.200146,N,11709.453750,W,60.8,198.1,310710,,,A*41
$GPRMC,002930.0,A,3316.151995,N,11709.471679,W,60.5,195.8,310710,,,A*45
$GPRMC,002933.0,A,3316.104243,N,11709.487309,W,59.2,194.1,310710,,,A*48
$GPRMC,002936.0,A,3316.056491,N,11709.500727,W,59.1,192.0,310710,,,A*40
$GPRMC,002939.0,A,3316.008184,N,11709.511751,W,59.1,189.8,310710,,,A*46
$GPRMC,002942.0,A,3315.959301,N,11709.520572,W,59.3,187.9,310710,,,A*47
$GPRMC,002945.0,A,3315.910259,N,11709.527633,W,59.4,186.1,310710,,,A*4E
$GPRMC,002948.0,A,3315.861242,N,11709.533286,W,59.0,185.1,310710,,,A*46
$GPRMC,002951.0,A,3315.812274,N,11709.536972,W,58.7,182.5,310710,,,A*4F
$GPRMC,002954.0,A,3315.763652,N,11709.537716,W,58.3,179.9,310710,,,A*42
$GPRMC,002957.0,A,3315.715422,N,11709.535911,W,58.2,177.6,310710,,,A*4E
$GPRMC,003000.0,A,3315.666333,N,11709.532330,W,59.5,176.1,310710,,,A*48
$GPRMC,003003.0,A,3315.616977,N,11709.526637,W,59.1,173.2,310710,,,A*43
$GPRMC,003006.0,A,3315.567649,N,11709.518198,W,59.6,171.1,310710,,,A*48
$GPRMC,003009.0,A,3315.518652,N,11709.507823,W,59.5,169.3,310710,,,A*4A
$GPRMC,003012.0,A,3315.470098,N,11709.494903,W,59.6,166.5,310710,,,A*4D
$GPRMC,003012.1,A,3315.426541,N,11709.482456,W,59.5,166.5,310710,,,A*47
$GPRMC,003018.9,A,3315.363641,N,11709.446292,W,59.0,162.7,310710,,,A*45
$GPRMC,003021.0,A,3315.323579,N,11709.439231,W,59.3,160.7,310710,,,A*4A
$GPRMC,003024.9,A,3315.266750,N,11709.415121,W,59.4,160.0,310710,,,A*43
$GPRMC,003027.0,A,3315.235574,N,11709.400999,W,59.3,160.9,310710,,,A*4A
$GPRMC,003030.0,A,3315.188539,N,11709.381687,W,59.4,161.3,310710,,,A*42
$GPRMC,003033.0,A,3315.141514,N,11709.362008,W,59.6,160.8,310710,,,A*4F
$GPRMC,003036.0,A,3315.094105,N,11709.342037,W,59.7,160.7,310710,,,A*47
$GPRMC,003039.0,A,3315.047281,N,11709.321358,W,59.7,159.8,310710,,,A*43
$GPRMC,003042.0,A,3315.000359,N,11709.300728,W,59.6,160.1,310710,,,A*4A
$GPRMC,003045.0,A,3314.953437,N,11709.280762,W,59.6,160.1,310710,,,A*4B
$GPRMC,003048.0,A,3314.906538,N,11709.260435,W,59.7,160.1,310710,,,A*46
$GPRMC,003051.0,A,3314.859566,N,11709.240328,W,59.7,160.5,310710,,,A*43
$GPRMC,003054.0,A,3314.812402,N,11709.220176,W,59.7,160.3,310710,,,A*43
$GPRMC,003057.0,A,3314.765468,N,11709.199813,W,59.7,160.1,310710,,,A*4A
$GPRMC,003100.0,A,3314.718568,N,11709.179722,W,59.7,160.2,310710,,,A*42
$GPRMC,003103.0,A,3314.671657,N,11709.159339,W,59.6,160.0,310710,,,A*4F
$GPRMC,003106.0,A,3314.625057,N,11709.139132,W,59.6,160.1,310710,,,A*43
$GPRMC,003109.0,A,3314.578235,N,11709.118940,W,59.7,160.2,310710,,,A*4D
$GPRMC,003112.0,A,3314.531364,N,11709.098888,W,59.7,160.4,310710,,,A*45
$GPRMC,003115.0,A,3314.484487,N,11709.078903,W,59.7,160.2,310710,,,A*4D
$GPRMC,003118.0,A,3314.437678,N,11709.058520,W,59.6,159.9,310710,,,A*45
$GPRMC,003121.0,A,3314.390950,N,11709.038232,W,59.6,160.4,310710,,,A*45
$GPRMC,003124.0,A,3314.344104,N,11709.018136,W,59.6,160.0,310710,,,A*41
$GPRMC,003127.0,A,3314.297323,N,11708.997883,W,59.7,160.2,310710,,,A*41
$GPRMC,003130.0,A,3314.250396,N,11708.978008,W,59.7,160.4,310710,,,A*4E
$GPRMC,003133.0,A,3314.203519,N,11708.957786,W,59.7,160.2,310710,,,A*40
$GPRMC,003136.0,A,3314.156574,N,11708.937755,W,59.6,160.2,310710,,,A*44
$GPRMC,003139.0,A,3314.109856,N,11708.917181,W,59.6,159.8,310710,,,A*41
$GPRMC,003142.0,A,3314.063143,N,11708.896953,W,59.6,160.4,310710,,,A*44
$GPRMC,003145.0,A,3314.016307,N,11708.877043,W,59.6,160.2,310710,,,A*42
$GPRMC,003148.0,A,3313.969493,N,11708.856670,W,59.6,159.9,310710,,,A*47
$GPRMC,003151.0,A,3313.922609,N,11708.836619,W,59.6,160.3,310710,,,A*48
$GPRMC,003154.0,A,3313.875702,N,11708.816296,W,59.7,160.0,310710,,,A*47
$GPRMC,003157.0,A,3313.828710,N,11708.796134,W,59.6,160.1,310710,,,A*43
$GPRMC,003200.0,A,3313.782117,N,11708.775786,W,59.6,159.9,310710,,,A*4C
$GPRMC,003203.0,A,3313.735288,N,11708.755569,W,59.7,160.2,310710,,,A*47
$GPRMC,003206.0,A,3313.688515,N,11708.735563,W,59.5,160.3,310710,,,A*49
$GPRMC,003209.0,A,3313.641877,N,11708.715507,W,59.4,160.0,310710,,,A*48
$GPRMC,003212.0,A,3313.595229,N,11708.695395,W,59.4,160.3,310710,,,A*4E
$GPRMC,003215.0,A,3313.548458,N,11708.675701,W,59.3,160.4,310710,,,A*4E
$GPRMC,003218.0,A,3313.501921,N,11708.655323,W,59.4,159.0,310710,,,A*42
$GPRMC,003221.0,A,3313.455525,N,11708.634201,W,59.4,159.7,310710,,,A*41
$GPRMC,003224.0,A,3313.409189,N,11708.613073,W,59.4,158.3,310710,,,A*48
$GPRMC,003227.0,A,3313.363449,N,11708.590905,W,58.9,157.5,310710,,,A*4C
$GPRMC,003230.0,A,3313.318262,N,11708.568405,W,58.5,157.0,310710,,,A*4A
$GPRMC,003233.0,A,3313.273656,N,11708.545205,W,58.3,156.0,310710,,,A*48
$GPRMC,003236.0,A,3313.229598,N,11708.520844,W,58.1,154.6,310710,,,A*49
$GPRMC,003239.0,A,3313.186274,N,11708.495417,W,58.1,153.4,310710,,,A*45
$GPRMC,003242.0,A,3313.142471,N,11708.468983,W,59.2,152.9,310710,,,A*4E
$GPRMC,003245.0,A,3313.098767,N,11708.441565,W,59.3,151.7,310710,,,A*48
$GPRMC,003248.0,A,3313.055529,N,11708.412768,W,59.3,150.5,310710,,,A*46
$GPRMC,003251.0,A,3313.012593,N,11708.383071,W,59.5,149.6,310710,,,A*41
$GPRMC,003254.0,A,3312.970036,N,11708.352941,W,59.4,149.3,310710,,,A*40
$GPRMC,003257.0,A,3312.927505,N,11708.322756,W,59.3,148.9,310710,,,A*47
$GPRMC,003300.0,A,3312.885104,N,11708.292169,W,59.5,149.1,310710,,,A*47
$GPRMC,003303.0,A,3312.842731,N,11708.261451,W,59.4,148.5,310710,,,A*49
$GPRMC,003306.0,A,3312.800529,N,11708.230486,W,59.2,148.3,310710,,,A*4F
$GPRMC,003309.0,A,3312.758614,N,11708.199542,W,59.2,148.1,310710,,,A*44
$GPRMC,003312.0,A,3312.716482,N,11708.168653,W,59.1,148.6,310710,,,A*40
$GPRMC,003315.0,A,3312.674426,N,11708.137784,W,58.9,148.3,310710,,,A*41
$GPRMC,003318.0,A,3312.632561,N,11708.106664,W,59.0,148.0,310710,,,A*4A
$GPRMC,003321.0,A,3312.590542,N,11708.075589,W,59.2,148.7,310710,,,A*4A
$GPRMC,003324.0,A,3312.548652,N,11708.044619,W,59.2,148.3,310710,,,A*44
$GPRMC,003327.0,A,3312.506604,N,11708.013615,W,59.3,148.5,310710,,,A*47
$GPRMC,003330.0,A,3312.464321,N,11707.982369,W,59.6,148.2,310710,,,A*44
$GPRMC,003333.0,A,3312.422139,N,11707.950680,W,59.6,147.8,310710,,,A*46
$GPRMC,003336.0,A,3312.379824,N,11707.919293,W,59.5,148.8,310710,,,A*48
$GPRMC,003339.0,A,3312.338039,N,11707.888289,W,58.5,148.2,310710,,,A*4F
$GPRMC,003342.0,A,3312.296260,N,11707.857369,W,59.1,148.0,310710,,,A*42
$GPRMC,003345.0,A,3312.255224,N,11707.826435,W,56.7,148.1,310710,,,A*4A
$GPRMC,003348.0,A,3312.215718,N,11707.796683,W,56.0,148.6,310710,,,A*42
$GPRMC,003351.0,A,3312.175221,N,11707.768379,W,55.9,150.6,310710,,,A*42
$GPRMC,003354.0,A,3312.134729,N,11707.741382,W,55.7,151.1,310710,,,A*48
$GPRMC,003357.0,A,3312.093766,N,11707.714994,W,55.9,152.5,310710,,,A*48
$GPRMC,003400.0,A,3312.052125,N,11707.689803,W,56.0,153.5,310710,,,A*40
$GPRMC,003403.0,A,3312.010285,N,11707.664587,W,55.8,153.4,310710,,,A*44
$GPRMC,003406.0,A,3311.968397,N,11707.639648,W,55.8,153.7,310710,,,A*4D
$GPRMC,003409.0,A,3311.926660,N,11707.614733,W,55.8,154.1,310710,,,A*46
$GPRMC,003412.0,A,3311.884735,N,11707.590438,W,55.8,154.2,310710,,,A*40
$GPRMC,003415.0,A,3311.842938,N,11707.565986,W,55.8,154.1,310710,,,A*4F
$GPRMC,003418.0,A,3311.800849,N,11707.541916,W,55.9,154.7,310710,,,A*4B
$GPRMC,003421.0,A,3311.759084,N,11707.517359,W,55.8,153.8,310710,,,A*40
$GPRMC,003424.0,A,3311.717302,N,11707.492641,W,55.8,154.0,310710,,,A*4D
$GPRMC,003427.0,A,3311.675379,N,11707.468335,W,55.8,154.4,310710,,,A*40
$GPRMC,003430.0,A,3311.633278,N,11707.444120,W,55.8,154.6,310710,,,A*4E
$GPRMC,003433.0,A,3311.591347,N,11707.419965,W,55.9,153.9,310710,,,A*43
$GPRMC,003436.0,A,3311.549299,N,11707.395543,W,55.9,154.2,310710,,,A*46
$GPRMC,003439.0,A,3311.507353,N,11707.371303,W,55.9,154.4,310710,,,A*4A
$GPRMC,003442.0,A,3311.465322,N,11707.347299,W,55.9,154.8,310710,,,A*4E
$GPRMC,003445.0,A,3311.423392,N,11707.323425,W,55.8,154.1,310710,,,A*4B
$GPRMC,003448.0,A,3311.381368,N,11707.299411,W,55.9,155.0,310710,,,A*4A
$GPRMC,003451.0,A,3311.339181,N,11707.276121,W,55.9,155.4,310710,,,A*47
$GPRMC,003454.0,A,3311.296919,N,11707.252374,W,56.0,154.2,310710,,,A*46
$GPRMC,003457.0,A,3311.254797,N,11707.228118,W,56.0,154.5,310710,,,A*41
$GPRMC,003500.0,A,3311.212723,N,11707.203878,W,56.0,154.2,310710,,,A*4E
$GPRMC,003503.0,A,3311.170891,N,11707.179391,W,55.9,153.8,310710,,,A*49
$GPRMC,003506.0,A,3311.128606,N,11707.155447,W,56.0,154.4,310710,,,A*42
$GPRMC,003509.0,A,3311.086399,N,11707.131352,W,56.0,154.2,310710,,,A*4C
$GPRMC,003512.0,A,3311.044340,N,11707.107006,W,56.0,154.0,310710,,,A*49
$GPRMC,003515.0,A,3311.002317,N,11707.082771,W,56.0,154.3,310710,,,A*46
$GPRMC,003518.0,A,3310.960185,N,11707.058546,W,56.0,154.3,310710,,,A*4F
$GPRMC,003521.0,A,3310.918006,N,11707.034340,W,56.1,154.2,310710,,,A*4A
$GPRMC,003524.0,A,3310.875776,N,11707.010135,W,56.1,154.4,310710,,,A*45
$GPRMC,003527.0,A,3310.833745,N,11706.985749,W,56.0,153.7,310710,,,A*48
$GPRMC,003530.0,A,3310.791744,N,11706.961222,W,55.9,154.3,310710,,,A*43
$GPRMC,003533.0,A,3310.749675,N,11706.937082,W,55.9,154.3,310710,,,A*4D
$GPRMC,003536.0,A,3310.707803,N,11706.912635,W,55.9,153.6,310710,,,A*42
$GPRMC,003539.0,A,3310.666026,N,11706.888254,W,55.8,154.4,310710,,,A*41
$GPRMC,003542.0,A,3310.623977,N,11706.864486,W,55.8,154.2,310710,,,A*4C
$GPRMC,003545.0,A,3310.581956,N,11706.840457,W,55.9,154.2,310710,,,A*48
$GPRMC,003548.0,A,3310.539985,N,11706.816141,W,55.8,154.0,310710,,,A*4A
$GPRMC,003551.0,A,3310.498067,N,11706.792046,W,55.7,154.4,310710,,,A*43
$GPRMC,003554.0,A,3310.455946,N,11706.767836,W,55.8,154.4,310710,,,A*47
$GPRMC,003557.0,A,3310.414030,N,11706.743555,W,55.9,154.1,310710,,,A*43
$GPRMC,003600.0,A,3310.371984,N,11706.719174,W,55.9,154.1,310710,,,A*48
$GPRMC,003603.0,A,3310.329976,N,11706.694908,W,55.8,154.2,310710,,,A*4E
$GPRMC,003606.0,A,3310.287957,N,11706.670603,W,55.9,154.2,310710,,,A*42
$GPRMC,003609.0,A,3310.245959,N,11706.646277,W,55.9,154.1,310710,,,A*4C
$GPRMC,003612.0,A,3310.203998,N,11706.621991,W,55.9,154.4,310710,,,A*4E
$GPRMC,003615.0,A,3310.161882,N,11706.598032,W,55.9,154.5,310710,,,A*44
$GPRMC,003618.0,A,3310.119662,N,11706.573827,W,56.0,154.1,310710,,,A*41
$GPRMC,003621.0,A,3310.077495,N,11706.549486,W,56.1,154.2,310710,,,A*44
$GPRMC,003624.0,A,3310.035326,N,11706.525356,W,56.1,154.4,310710,,,A*4E
$GPRMC,003627.0,A,3309.993358,N,11706.501166,W,56.1,154.3,310710,,,A*49
$GPRMC,003630.0,A,3309.951314,N,11706.476654,W,55.9,153.9,310710,,,A*48
$GPRMC,003633.0,A,3309.909444,N,11706.452001,W,56.0,154.0,310710,,,A*40
$GPRMC,003636.0,A,3309.867730,N,11706.427836,W,55.4,154.4,310710,,,A*41
$GPRMC,003639.0,A,3309.825799,N,11706.403962,W,55.8,154.2,310710,,,A*47
$GPRMC,003642.0,A,3309.783738,N,11706.380170,W,55.7,155.6,310710,,,A*4E
$GPRMC,003645.0,A,3309.740860,N,11706.358469,W,55.8,158.5,310710,,,A*4D
$GPRMC,003648.0,A,3309.697531,N,11706.338684,W,55.9,159.3,310710,,,A*43
$GPRMC,003651.0,A,3309.653342,N,11706.320745,W,55.7,162.5,310710,,,A*44
$GPRMC,003654.0,A,3309.608832,N,11706.305235,W,55.7,164.4,310710,,,A*41
$GPRMC,003657.0,A,3309.563854,N,11706.291450,W,55.7,166.6,310710,,,A*45
$GPRMC,003700.0,A,3309.518589,N,11706.279723,W,55.6,168.8,310710,,,A*47
$GPRMC,003703.0,A,3309.472920,N,11706.270414,W,55.5,171.3,310710,,,A*48
$GPRMC,003706.0,A,3309.426908,N,11706.263373,W,55.6,173.5,310710,,,A*45
$GPRMC,003709.0,A,3309.380723,N,11706.258505,W,55.6,175.9,310710,,,A*43
$GPRMC,003712.0,A,3309.334422,N,11706.255351,W,55.6,177.5,310710,,,A*40
$GPRMC,003715.0,A,3309.287980,N,11706.254139,W,55.6,179.8,310710,,,A*45
$GPRMC,003718.0,A,3309.241561,N,11706.255160,W,55.6,181.7,310710,,,A*44
$GPRMC,003721.0,A,3309.195067,N,11706.257564,W,55.5,182.5,310710,,,A*47
$GPRMC,003724.0,A,3309.148859,N,11706.260285,W,55.5,182.7,310710,,,A*49
$GPRMC,003727.0,A,3309.102662,N,11706.263141,W,55.5,182.3,310710,,,A*4E
$GPRMC,003730.0,A,3309.056454,N,11706.265711,W,55.5,182.7,310710,,,A*4E
$GPRMC,003733.0,A,3309.010231,N,11706.268724,W,55.5,182.6,310710,,,A*40
$GPRMC,003736.0,A,3308.963882,N,11706.271193,W,55.5,182.5,310710,,,A*4A
$GPRMC,003739.0,A,3308.917715,N,11706.274045,W,55.6,182.5,310710,,,A*4B
$GPRMC,003742.0,A,3308.871386,N,11706.276524,W,55.3,182.4,310710,,,A*4C
$GPRMC,003745.0,A,3308.825108,N,11706.278797,W,55.6,182.4,310710,,,A*4F
$GPRMC,003748.0,A,3308.778621,N,11706.281287,W,55.6,182.5,310710,,,A*4A
$GPRMC,003751.0,A,3308.732172,N,11706.283917,W,55.6,182.7,310710,,,A*4F
$GPRMC,003754.0,A,3308.685638,N,11706.286703,W,55.6,182.6,310710,,,A*41
$GPRMC,003757.0,A,3308.639244,N,11706.289092,W,55.6,182.3,310710,,,A*4F
$GPRMC,003800.0,A,3308.592802,N,11706.291350,W,55.5,182.1,310710,,,A*4D
$GPRMC,003803.0,A,3308.546451,N,11706.292959,W,55.5,181.4,310710,,,A*4B
$GPRMC,003806.0,A,3308.499941,N,11706.294870,W,55.6,182.3,310710,,,A*4A
$GPRMC,003809.0,A,3308.453392,N,11706.297138,W,55.6,182.1,310710,,,A*43
$GPRMC,003812.0,A,3308.407104,N,11706.299482,W,55.6,182.5,310710,,,A*4B
$GPRMC,003815.0,A,3308.360788,N,11706.301891,W,55.7,182.2,310710,,,A*40
$GPRMC,003818.0,A,3308.314379,N,11706.304587,W,55.6,183.2,310710,,,A*4B
$GPRMC,003821.0,A,3308.268035,N,11706.308524,W,55.6,184.0,310710,,,A*40
$GPRMC,003824.0,A,3308.221845,N,11706.312155,W,55.4,182.9,310710,,,A*43
$GPRMC,003827.0,A,3308.176138,N,11706.314549,W,54.4,182.2,310710,,,A*47
$GPRMC,003830.0,A,3308.130269,N,11706.316672,W,55.1,182.5,310710,,,A*4E
$GPRMC,003833.0,A,3308.084886,N,11706.318950,W,53.2,182.5,310710,,,A*4C
$GPRMC,003836.0,A,3308.041120,N,11706.320438,W,51.5,181.9,310710,,,A*47
$GPRMC,003839.0,A,3307.999207,N,11706.322757,W,49.8,182.9,310710,,,A*42
$GPRMC,003842.0,A,3307.958652,N,11706.326292,W,47.7,185.3,310710,,,A*43
$GPRMC,003845.0,A,3307.920227,N,11706.331880,W,45.7,187.5,310710,,,A*44
$GPRMC,003848.0,A,3307.883361,N,11706.337301,W,43.9,186.4,310710,,,A*4E
$GPRMC,003851.0,A,3307.847031,N,11706.342124,W,44.0,186.7,310710,,,A*42
$GPRMC,003854.0,A,3307.809498,N,11706.348592,W,46.0,188.6,310710,,,A*44
$GPRMC,003857.0,A,3307.773364,N,11706.355527,W,41.8,188.5,310710,,,A*4F
$GPRMC,003900.0,A,3307.739837,N,11706.363714,W,41.4,196.4,310710,,,A*4A
$GPRMC,003903.0,A,3307.707902,N,11706.380713,W,42.9,210.8,310710,,,A*46
$GPRMC,003906.0,A,3307.680217,N,11706.407920,W,43.8,224.9,310710,,,A*42
$GPRMC,003909.0,A,3307.658154,N,11706.443361,W,45.1,239.9,310710,,,A*40
$GPRMC,003912.0,A,3307.644897,N,11706.485374,W,45.5,255.6,310710,,,A*4E
$GPRMC,003915.0,A,3307.641402,N,11706.530561,W,46.2,270.6,310710,,,A*42
$GPRMC,003918.0,A,3307.647218,N,11706.574385,W,43.4,280.1,310710,,,A*43
$GPRMC,003921.0,A,3307.655531,N,11706.616142,W,42.4,284.3,310710,,,A*4F
$GPRMC,003924.0,A,3307.667005,N,11706.657034,W,43.8,290.8,310710,,,A*4F
$GPRMC,003927.0,A,3307.681979,N,11706.698474,W,46.1,293.3,310710,,,A*41
$GPRMC,003930.0,A,3307.698621,N,11706.740759,W,46.5,295.0,310710,,,A*44
$GPRMC,003933.0,A,3307.716185,N,11706.781807,W,44.9,296.5,310710,,,A*48
$GPRMC,003936.0,A,3307.733181,N,11706.820421,W,42.3,297.1,310710,,,A*4B
$GPRMC,003939.0,A,3307.749143,N,11706.857506,W,41.9,296.1,310710,,,A*4B
$GPRMC,003942.0,A,3307.765201,N,11706.896099,W,44.1,296.0,310710,,,A*4E
$GPRMC,003945.0,A,3307.782391,N,11706.936458,W,46.4,296.5,310710,,,A*48
$GPRMC,003948.0,A,3307.800722,N,11706.978879,W,48.6,297.2,310710,,,A*43
$GPRMC,003951.0,A,3307.819654,N,11707.022728,W,49.9,297.0,310710,,,A*43
$GPRMC,003954.0,A,3307.839215,N,11707.067568,W,50.8,297.2,310710,,,A*49
$GPRMC,003957.0,A,3307.859030,N,11707.112835,W,51.1,297.0,310710,,,A*45
$GPRMC,004000.0,A,3307.879122,N,11707.158334,W,51.2,297.5,310710,,,A*4B
$GPRMC,004003.0,A,3307.899070,N,11707.203425,W,51.0,297.3,310710,,,A*4E
$GPRMC,004006.0,A,3307.918867,N,11707.249125,W,51.6,297.1,310710,,,A*42
$GPRMC,004009.0,A,3307.938840,N,11707.295227,W,52.6,297.4,310710,,,A*4C
$GPRMC,004012.0,A,3307.959291,N,11707.342083,W,53.8,297.1,310710,,,A*4A
$GPRMC,004015.0,A,3307.980187,N,11707.389820,W,54.1,297.1,310710,,,A*45
$GPRMC,004018.0,A,3308.000565,N,11707.437577,W,53.5,296.9,310710,,,A*49
$GPRMC,004021.0,A,3308.021019,N,11707.484529,W,52.9,297.2,310710,,,A*4A
$GPRMC,004024.0,A,3308.041085,N,11707.531129,W,52.1,296.9,310710,,,A*45
$GPRMC,004027.0,A,3308.059467,N,11707.577251,W,51.2,293.2,310710,,,A*47
$GPRMC,004030.0,A,3308.074911,N,11707.625330,W,52.3,288.3,310710,,,A*49
$GPRMC,004033.0,A,3308.086420,N,11707.675345,W,51.9,282.9,310710,,,A*46
$GPRMC,004036.0,A,3308.094527,N,11707.725415,W,50.7,280.1,310710,,,A*45
$GPRMC,004039.0,A,3308.101915,N,11707.774670,W,50.8,280.7,310710,,,A*46
$GPRMC,004042.0,A,3308.109984,N,11707.825117,W,52.2,281.0,310710,,,A*49
$GPRMC,004045.0,A,3308.118438,N,11707.877013,W,54.0,280.6,310710,,,A*45
$GPRMC,004048.0,A,3308.126472,N,11707.930081,W,54.2,280.2,310710,,,A*44
$GPRMC,004051.0,A,3308.134992,N,11707.982635,W,53.6,282.1,310710,,,A*4E
$GPRMC,004054.0,A,3308.146212,N,11708.033550,W,52.7,287.7,310710,,,A*42
$GPRMC,004057.0,A,3308.161734,N,11708.082660,W,52.9,293.2,310710,,,A*41
$GPRMC,004100.0,A,3308.180930,N,11708.130356,W,53.7,297.2,310710,,,A*44
$GPRMC,004103.0,A,3308.201920,N,11708.177851,W,53.9,297.4,310710,,,A*4B
$GPRMC,004106.0,A,3308.222672,N,11708.225638,W,53.9,296.9,310710,,,A*4E
$GPRMC,004109.0,A,3308.243330,N,11708.273068,W,53.9,297.3,310710,,,A*4E
$GPRMC,004112.0,A,3308.264183,N,11708.320604,W,53.6,297.4,310710,,,A*48
$GPRMC,004115.0,A,3308.284385,N,11708.367465,W,51.8,296.9,310710,,,A*43
$GPRMC,004118.0,A,3308.303732,N,11708.412265,W,50.4,297.2,310710,,,A*4C
$GPRMC,004121.0,A,3308.322873,N,11708.456647,W,49.7,297.2,310710,,,A*40
$GPRMC,004124.0,A,3308.341534,N,11708.499822,W,48.4,296.0,310710,,,A*41
$GPRMC,004127.0,A,3308.356883,N,11708.544164,W,49.4,289.0,310710,,,A*40
$GPRMC,004130.0,A,3308.368009,N,11708.592539,W,52.1,282.2,310710,,,A*40
$GPRMC,004133.0,A,3308.374170,N,11708.644666,W,54.2,274.4,310710,,,A*4A
$GPRMC,004136.0,A,3308.375943,N,11708.698845,W,55.1,271.6,310710,,,A*4D
$GPRMC,004139.0,A,3308.377210,N,11708.753668,W,55.2,271.9,310710,,,A*46
$GPRMC,004142.0,A,3308.378546,N,11708.808239,W,54.7,271.7,310710,,,A*4A
$GPRMC,004145.0,A,3308.379795,N,11708.862293,W,54.5,271.9,310710,,,A*40
$GPRMC,004148.0,A,3308.381349,N,11708.916215,W,54.1,272.0,310710,,,A*4D
$GPRMC,004151.0,A,3308.382730,N,11708.970349,W,55.1,271.7,310710,,,A*41
$GPRMC,004154.0,A,3308.383836,N,11709.024915,W,55.0,271.2,310710,,,A*42
$GPRMC,004157.0,A,3308.382883,N,11709.079491,W,55.1,266.3,310710,,,A*41
$GPRMC,004200.0,A,3308.377527,N,11709.134047,W,55.2,261.2,310710,,,A*4B
$GPRMC,004203.0,A,3308.368140,N,11709.188025,W,55.1,255.8,310710,,,A*4E
$GPRMC,004206.0,A,3308.355090,N,11709.240881,W,55.9,252.6,310710,,,A*49
$GPRMC,004209.0,A,3308.340900,N,11709.293365,W,54.6,252.6,310710,,,A*43
$GPRMC,004212.0,A,3308.327515,N,11709.344622,W,53.4,252.7,310710,,,A*49
$GPRMC,004215.0,A,3308.314130,N,11709.394175,W,51.8,252.4,310710,,,A*48
$GPRMC,004218.0,A,3308.301077,N,11709.443309,W,52.3,252.8,310710,,,A*43
$GPRMC,004221.0,A,3308.288104,N,11709.493224,W,52.8,253.0,310710,,,A*4D
$GPRMC,004224.0,A,3308.275456,N,11709.542378,W,51.8,252.6,310710,,,A*49
$GPRMC,004227.0,A,3308.262418,N,11709.591156,W,51.1,253.1,310710,,,A*49
$GPRMC,004230.0,A,3308.251678,N,11709.639541,W,49.8,258.0,310710,,,A*42
$GPRMC,004233.0,A,3308.244871,N,11709.688128,W,49.6,263.2,310710,,,A*47
$GPRMC,004236.0,A,3308.241071,N,11709.737066,W,49.8,265.8,310710,,,A*43
$GPRMC,004239.0,A,3308.238104,N,11709.787423,W,52.3,266.0,310710,,,A*45
$GPRMC,004242.0,A,3308.234886,N,11709.838645,W,50.2,265.6,310710,,,A*49
$GPRMC,004245.0,A,3308.231853,N,11709.885285,W,45.6,266.1,310710,,,A*49
$GPRMC,004248.0,A,3308.229190,N,11709.929944,W,45.1,266.5,310710,,,A*49
$GPRMC,004251.0,A,3308.226567,N,11709.975116,W,47.0,266.4,310710,,,A*46
$GPRMC,004254.0,A,3308.223992,N,11710.023325,W,50.3,266.9,310710,,,A*48
$GPRMC,004257.0,A,3308.222255,N,11710.074210,W,52.2,267.1,310710,,,A*45
$GPRMC,004300.0,A,3308.219627,N,11710.125150,W,50.5,266.6,310710,,,A*4E
$GPRMC,004303.0,A,3308.216720,N,11710.174139,W,48.5,266.1,310710,,,A*41
$GPRMC,004306.0,A,3308.214080,N,11710.221081,W,46.4,266.2,310710,,,A*46
$GPRMC,004309.0,A,3308.211558,N,11710.267148,W,46.4,267.7,310710,,,A*4E
$GPRMC,004312.0,A,3308.211447,N,11710.312898,W,46.8,274.8,310710,,,A*4D
$GPRMC,004315.0,A,3308.217817,N,11710.359584,W,49.1,283.0,310710,,,A*4C
$GPRMC,004318.0,A,3308.229635,N,11710.403624,W,41.2,291.4,310710,,,A*4F
$GPRMC,004321.0,A,3308.242364,N,11710.425712,W,17.2,308.0,310710,,,A*4F
$GPRMC,004351.0,A,3308.252490,N,11710.431304,W,12.3,331.4,310710,,,A*49
$GPRMC,004354.0,A,3308.263750,N,11710.436409,W,15.5,342.3,310710,,,A*4E
$GPRMC,004357.0,A,3308.277002,N,11710.441428,W,18.4,341.4,310710,,,A*43
$GPRMC,004400.0,A,3308.292937,N,11710.447433,W,19.7,343.5,310710,,,A*4F
$GPRMC,004403.0,A,3308.306702,N,11710.453116,W,16.2,333.1,310710,,,A*46
$GPRMC,004406.0,A,3308.313124,N,11710.466161,W,15.5,280.0,310710,,,A*4F
$GPRMC,004409.0,A,3308.309953,N,11710.485066,W,23.7,259.6,310710,,,A*4D
$GPRMC,004412.0,A,3308.304542,N,11710.506746,W,22.5,252.0,310710,,,A*47
$GPRMC,004415.0,A,3308.298638,N,11710.527467,W,21.5,251.8,310710,,,A*41
$GPRMC,004418.0,A,3308.293171,N,11710.547337,W,20.1,251.5,310710,,,A*41
$GPRMC,004421.0,A,3308.288104,N,11710.564657,W,16.7,251.1,310710,,,A*46
$GPRMC,004424.0,A,3308.284257,N,11710.578382,W,12.6,251.7,310710,,,A*49
$GPRMC,004427.0,A,3308.281845,N,11710.589104,W,10.2,257.5,310710,,,A*46
$GPRMC,004430.0,A,3308.280706,N,11710.598035,W,8.9,262.0,310710,,,A*7B
$GPRMC,004433.0,A,3308.279250,N,11710.607415,W,10.7,256.2,310710,,,A*49
$GPRMC,004436.0,A,3308.269174,N,11710.619610,W,16.0,236.7,310710,,,A*42
$GPRMC,004439.0,A,3308.268098,N,11710.633984,W,19.5,251.3,310710,,,A*4A
$GPRMC,004442.0,A,3308.263137,N,11710.651264,W,18.8,252.7,310710,,,A*43
$GPRMC,004445.0,A,3308.257371,N,11710.668227,W,18.9,252.2,310710,,,A*4A
$GPRMC,004448.0,A,3308.251565,N,11710.687610,W,22.5,251.8,310710,,,A*4F
$GPRMC,004451.0,A,3308.245847,N,11710.711096,W,27.0,252.9,310710,,,A*4B
$GPRMC,004454.0,A,3308.239525,N,11710.737790,W,28.3,252.6,310710,,,A*4A
