NMEA Sentence Code,UTC Time,Status,Latitude,Latitude Direction,Longitude,Longitude Direction,Speed (knots),Track Angle (degrees true),Date,MagneticVariation,Magnetic Variation Direction,[FAA Mode]-Optional,Checksum
$GPRMC,190747.1,A,3254.004535,N,11711.754379,W,8.9,200.6,011010,,,A*7E
$GPRMC,190750.1,A,3253.999492,N,11711.762637,W,10.4,235.6,011010,,,A*46
$GPRMC,190753.1,A,3253.995236,N,11711.775206,W,13.1,241.8,011010,,,A*4A
$GPRMC,190759.1,A,3253.981123,N,11711.844086,W,28.6,253.8,011010,,,A*49
$GPRMC,190802.1,A,3253.975922,N,11711.890926,W,35.5,257.9,011010,,,A*4A
$GPRMC,190805.1,A,3253.970631,N,11711.929318,W,35.5,258.6,011010,,,A*41
$GPRMC,190808.1,A,3253.965166,N,11711.968241,W,36.7,258.6,011010,,,A*44
$GPRMC,190811.1,A,3253.958244,N,11712.002008,W,34.5,258.0,011010,,,A*4E
$GPRMC,190814.1,A,3253.954046,N,11712.030961,W,31.6,261.2,011010,,,A*4E
$GPRMC,190817.1,A,3253.950775,N,11712.063148,W,31.4,258.9,011010,,,A*48
$GPRMC,190820.1,A,3253.944947,N,11712.094696,W,31.8,258.9,011010,,,A*46
$GPRMC,190823.1,A,3253.938575,N,11712.122922,W,29.3,256.6,011010,,,A*4C
$GPRMC,190826.1,A,3253.930328,N,11712.146840,W,27.0,252.3,011010,,,A*44
$GPRMC,190829.1,A,3253.914471,N,11712.162159,W,24.2,230.0,011010,,,A*47
$GPRMC,190832.1,A,3253.894172,N,11712.167332,W,22.9,202.9,011010,,,A*4D
$GPRMC,190835.1,A,3253.869624,N,11712.169917,W,28.0,188.4,011010,,,A*40
$GPRMC,190838.1,A,3253.843859,N,11712.170175,W,29.8,183.9,011010,,,A*4A
$GPRMC,190841.1,A,3253.819427,N,11712.170604,W,30.0,181.2,011010,,,A*46
$GPRMC,190844.1,A,3253.794957,N,11712.171077,W,29.5,181.6,011010,,,A*49
$GPRMC,190847.1,A,3253.773780,N,11712.169083,W,24.7,178.3,011010,,,A*49
$GPRMC,190850.1,A,3253.760953,N,11712.170018,W,14.8,173.8,011010,,,A*4B
$GPRMC,190853.1,A,3253.756859,N,11712.170408,W,4.9,160.8,011010,,,A*71
$GPRMC,190902.1,A,3253.754398,N,11712.172318,W,7.0,190.9,011010,,,A*70
$GPRMC,190905.1,A,3253.746350,N,11712.172837,W,10.2,183.7,011010,,,A*4E
$GPRMC,190908.1,A,3253.735538,N,11712.173303,W,13.6,181.5,011010,,,A*45
$GPRMC,190911.1,A,3253.722184,N,11712.172620,W,16.5,175.8,011010,,,A*4D
$GPRMC,190914.1,A,3253.707134,N,11712.166771,W,18.9,162.5,011010,,,A*4D
$GPRMC,190917.1,A,3253.692969,N,11712.158508,W,19.9,152.3,011010,,,A*46
$GPRMC,190920.1,A,3253.675281,N,11712.142960,W,22.7,144.3,011010,,,A*4E
$GPRMC,190923.1,A,3253.659488,N,11712.129134,W,24.0,145.4,011010,,,A*4F
$GPRMC,190926.1,A,3253.641472,N,11712.116316,W,23.3,149.1,011010,,,A*45
$GPRMC,190929.1,A,3253.629119,N,11712.108447,W,18.4,146.3,011010,,,A*42
$GPRMC,190932.1,A,3253.623923,N,11712.106734,W,9.9,149.1,011010,,,A*7A
$GPRMC,191029.1,A,3253.617347,N,11712.105882,W,4.9,182.8,011010,,,A*75
$GPRMC,191032.1,A,3253.602736,N,11712.106045,W,11.9,185.0,011010,,,A*42
$GPRMC,191035.1,A,3253.580641,N,11712.105563,W,17.6,180.3,011010,,,A*40
$GPRMC,191038.1,A,3253.569329,N,11712.109526,W,12.4,195.3,011010,,,A*4F
$GPRMC,191041.1,A,3253.562388,N,11712.120291,W,12.5,229.9,011010,,,A*4E
$GPRMC,191044.1,A,3253.558408,N,11712.141842,W,18.9,250.5,011010,,,A*4A
$GPRMC,191047.1,A,3253.551812,N,11712.171965,W,26.3,248.4,011010,,,A*4F
$GPRMC,191050.1,A,3253.542387,N,11712.201989,W,29.8,244.7,011010,,,A*41
$GPRMC,191053.1,A,3253.528461,N,11712.233524,W,34.7,238.8,011010,,,A*4C
$GPRMC,191056.1,A,3253.508281,N,11712.263237,W,37.5,230.6,011010,,,A*44
$GPRMC,191059.1,A,3253.486215,N,11712.295165,W,40.6,228.8,011010,,,A*48
$GPRMC,191102.1,A,3253.462954,N,11712.329439,W,42.9,229.1,011010,,,A*4C
$GPRMC,191105.1,A,3253.439667,N,11712.364313,W,44.2,231.1,011010,,,A*48
$GPRMC,191108.1,A,3253.421297,N,11712.403476,W,43.2,239.4,011010,,,A*4F
$GPRMC,191111.1,A,3253.410092,N,11712.440341,W,38.4,247.9,011010,,,A*48
$GPRMC,191114.1,A,3253.411264,N,11712.477081,W,38.1,266.2,011010,,,A*41
$GPRMC,191117.1,A,3253.415413,N,11712.511761,W,31.7,277.1,011010,,,A*44
$GPRMC,191120.1,A,3253.424103,N,11712.539796,W,30.4,286.6,011010,,,A*4F
$GPRMC,191123.1,A,3253.442785,N,11712.557583,W,29.0,303.3,011010,,,A*4F
$GPRMC,191129.1,A,3253.494266,N,11712.549455,W,24.4,352.5,011010,,,A*48
$GPRMC,191138.1,A,3253.451058,N,11712.424587,W,35.9,124.6,011010,,,A*47
$GPRMC,191141.1,A,3253.424701,N,11712.384826,W,44.7,129.2,011010,,,A*4A
$GPRMC,191144.1,A,3253.400373,N,11712.353946,W,38.1,133.3,011010,,,A*42
$GPRMC,191147.1,A,3253.381234,N,11712.328139,W,32.5,136.2,011010,,,A*4B
$GPRMC,191150.1,A,3253.362231,N,11712.308703,W,30.0,138.3,011010,,,A*40
$GPRMC,191153.1,A,3253.342969,N,11712.289453,W,29.8,141.8,011010,,,A*4C
$GPRMC,191156.1,A,3253.324108,N,11712.272567,W,27.7,143.6,011010,,,A*49
$GPRMC,191159.1,A,3253.302142,N,11712.255933,W,30.8,147.3,011010,,,A*4C
$GPRMC,191202.1,A,3253.278268,N,11712.235885,W,33.9,149.1,011010,,,A*42
$GPRMC,191205.1,A,3253.248403,N,11712.219911,W,38.7,154.4,011010,,,A*43
$GPRMC,191208.1,A,3253.215495,N,11712.203797,W,40.2,156.8,011010,,,A*46
$GPRMC,191211.1,A,3253.183497,N,11712.189216,W,41.4,159.8,011010,,,A*45
$GPRMC,191214.1,A,3253.150887,N,11712.177023,W,42.0,162.8,011010,,,A*49
$GPRMC,191217.1,A,3253.114077,N,11712.163078,W,43.5,164.5,011010,,,A*49
$GPRMC,191220.1,A,3253.078810,N,11712.153590,W,45.0,166.0,011010,,,A*4B
$GPRMC,191223.1,A,3253.043182,N,11712.143272,W,45.4,165.5,011010,,,A*4A
$GPRMC,191226.1,A,3253.004077,N,11712.130872,W,47.9,164.8,011010,,,A*4A
$GPRMC,191229.1,A,3252.963242,N,11712.117958,W,50.5,164.8,011010,,,A*4E
$GPRMC,191232.1,A,3252.919507,N,11712.105429,W,53.5,164.6,011010,,,A*4A
$GPRMC,191235.1,A,3252.875697,N,11712.093263,W,54.0,166.4,011010,,,A*48
$GPRMC,191238.1,A,3252.831638,N,11712.080155,W,54.6,165.6,011010,,,A*43
$GPRMC,191241.1,A,3252.786495,N,11712.066376,W,56.4,165.5,011010,,,A*43
$GPRMC,191244.1,A,3252.741340,N,11712.052306,W,55.9,165.3,011010,,,A*4A
$GPRMC,191247.1,A,3252.697422,N,11712.038619,W,55.4,165.2,011010,,,A*4B
$GPRMC,191250.1,A,3252.651704,N,11712.023654,W,56.4,165.2,011010,,,A*40
$GPRMC,191253.1,A,3252.608783,N,11712.009376,W,53.9,163.6,011010,,,A*47
$GPRMC,191256.1,A,3252.566888,N,11711.993626,W,53.0,161.2,011010,,,A*4B
$GPRMC,191259.1,A,3252.527124,N,11711.975825,W,51.2,159.2,011010,,,A*40
$GPRMC,191302.1,A,3252.489706,N,11711.957221,W,49.0,156.3,011010,,,A*47
$GPRMC,191305.1,A,3252.454477,N,11711.934859,W,47.6,152.9,011010,,,A*43
$GPRMC,191308.1,A,3252.418085,N,11711.910514,W,48.7,150.0,011010,,,A*48
$GPRMC,191311.1,A,3252.384757,N,11711.887227,W,47.8,147.5,011010,,,A*41
$GPRMC,191314.1,A,3252.348575,N,11711.857479,W,50.3,145.1,011010,,,A*4D
$GPRMC,191317.1,A,3252.313672,N,11711.826374,W,52.4,142.5,011010,,,A*4E
$GPRMC,191320.1,A,3252.277405,N,11711.790773,W,54.6,141.4,011010,,,A*4C
$GPRMC,191323.1,A,3252.241376,N,11711.755968,W,55.7,141.2,011010,,,A*42
$GPRMC,191326.1,A,3252.207101,N,11711.723785,W,51.4,139.9,011010,,,A*48
$GPRMC,191329.1,A,3252.175664,N,11711.691516,W,48.4,139.0,011010,,,A*44
$GPRMC,191332.1,A,3252.145083,N,11711.662503,W,46.9,140.7,011010,,,A*40
$GPRMC,191335.1,A,3252.114251,N,11711.634076,W,46.9,141.4,011010,,,A*48
$GPRMC,191338.1,A,3252.081333,N,11711.603959,W,48.6,141.5,011010,,,A*4D
$GPRMC,191341.1,A,3252.049627,N,11711.574159,W,49.0,140.9,011010,,,A*46
$GPRMC,191344.1,A,3252.015684,N,11711.542378,W,50.5,141.6,011010,,,A*44
$GPRMC,191347.1,A,3251.984708,N,11711.510798,W,50.9,140.5,011010,,,A*43
$GPRMC,191350.1,A,3251.951264,N,11711.479452,W,52.1,141.0,011010,,,A*47
$GPRMC,191353.1,A,3251.915147,N,11711.447262,W,53.3,141.8,011010,,,A*45
$GPRMC,191356.1,A,3251.880537,N,11711.412731,W,52.1,140.9,011010,,,A*4E
$GPRMC,191359.1,A,3251.847820,N,11711.381824,W,50.9,141.0,011010,,,A*45
$GPRMC,191402.1,A,3251.814226,N,11711.349360,W,50.7,140.7,011010,,,A*41
$GPRMC,191405.1,A,3251.782665,N,11711.318137,W,49.4,139.9,011010,,,A*4A
$GPRMC,191408.1,A,3251.750905,N,11711.288838,W,47.8,141.1,011010,,,A*4A
$GPRMC,191411.1,A,3251.721226,N,11711.261615,W,47.4,141.1,011010,,,A*44
$GPRMC,191414.1,A,3251.688630,N,11711.231145,W,48.2,141.4,011010,,,A*4B
$GPRMC,191417.1,A,3251.655234,N,11711.201026,W,49.6,143.0,011010,,,A*4C
$GPRMC,191420.1,A,3251.620647,N,11711.173695,W,49.6,145.6,011010,,,A*42
$GPRMC,191423.1,A,3251.584612,N,11711.146896,W,50.0,148.8,011010,,,A*4A
$GPRMC,191426.1,A,3251.548381,N,11711.121191,W,50.0,150.8,011010,,,A*46
$GPRMC,191429.1,A,3251.510901,N,11711.096757,W,49.6,151.9,011010,,,A*49
$GPRMC,191432.1,A,3251.473362,N,11711.073470,W,49.7,152.3,011010,,,A*4D
$GPRMC,191435.1,A,3251.436978,N,11711.051005,W,47.9,152.0,011010,,,A*4F
$GPRMC,191438.1,A,3251.402567,N,11711.029486,W,46.3,151.7,011010,,,A*48
$GPRMC,191441.1,A,3251.367891,N,11711.007492,W,47.6,152.6,011010,,,A*49
$GPRMC,191444.1,A,3251.330253,N,11710.986599,W,48.7,153.7,011010,,,A*4F
$GPRMC,191447.1,A,3251.293895,N,11710.964566,W,48.9,153.3,011010,,,A*42
$GPRMC,191450.1,A,3251.258209,N,11710.942858,W,49.3,153.3,011010,,,A*43
$GPRMC,191453.1,A,3251.220650,N,11710.921783,W,49.6,153.4,011010,,,A*49
$GPRMC,191456.1,A,3251.183002,N,11710.898942,W,51.2,154.1,011010,,,A*48
$GPRMC,191459.1,A,3251.145044,N,11710.875054,W,53.2,153.7,011010,,,A*41
$GPRMC,191502.1,A,3251.102185,N,11710.851062,W,56.8,154.5,011010,,,A*48
$GPRMC,191505.1,A,3251.057450,N,11710.825137,W,59.2,153.2,011010,,,A*44
$GPRMC,191508.1,A,3251.013201,N,11710.796926,W,60.1,152.9,011010,,,A*47
$GPRMC,191511.1,A,3250.967829,N,11710.770298,W,60.5,153.4,011010,,,A*4A
$GPRMC,191514.1,A,3250.923160,N,11710.743583,W,59.7,153.2,011010,,,A*48
$GPRMC,191517.1,A,3250.878099,N,11710.716397,W,59.5,152.9,011010,,,A*48
$GPRMC,191520.1,A,3250.834378,N,11710.689819,W,58.9,153.3,011010,,,A*44
$GPRMC,191523.1,A,3250.790135,N,11710.663780,W,58.1,153.0,011010,,,A*4D
$GPRMC,191526.1,A,3250.746028,N,11710.637552,W,58.6,152.9,011010,,,A*4D
$GPRMC,191529.1,A,3250.702366,N,11710.610191,W,59.4,152.4,011010,,,A*4B
$GPRMC,191532.1,A,3250.658486,N,11710.585254,W,58.1,152.8,011010,,,A*4B
$GPRMC,191535.1,A,3250.616040,N,11710.557883,W,58.2,152.6,011010,,,A*4A
$GPRMC,191538.1,A,3250.574144,N,11710.530445,W,57.3,152.8,011010,,,A*42
$GPRMC,191541.1,A,3250.532153,N,11710.504752,W,56.3,152.4,011010,,,A*47
$GPRMC,191544.1,A,3250.493007,N,11710.479462,W,53.2,152.4,011010,,,A*47
$GPRMC,191547.1,A,3250.453904,N,11710.456043,W,52.3,153.0,011010,,,A*4D
$GPRMC,191550.1,A,3250.415700,N,11710.432711,W,51.1,152.8,011010,,,A*49
$GPRMC,191553.1,A,3250.379752,N,11710.409499,W,50.3,151.9,011010,,,A*4A
$GPRMC,191556.1,A,3250.342326,N,11710.383677,W,52.9,150.9,011010,,,A*4E
$GPRMC,191559.1,A,3250.301506,N,11710.358580,W,55.9,152.0,011010,,,A*43
$GPRMC,191602.1,A,3250.260997,N,11710.333238,W,54.1,152.5,011010,,,A*49
$GPRMC,191605.1,A,3250.222102,N,11710.309447,W,52.9,152.3,011010,,,A*43
$GPRMC,191608.1,A,3250.182653,N,11710.287504,W,52.7,152.6,011010,,,A*4E
$GPRMC,191611.1,A,3250.142505,N,11710.262774,W,54.6,152.5,011010,,,A*40
$GPRMC,191614.1,A,3250.101113,N,11710.235884,W,56.9,151.9,011010,,,A*41
$GPRMC,191617.1,A,3250.058728,N,11710.210782,W,56.9,152.7,011010,,,A*42
$GPRMC,191620.1,A,3250.015358,N,11710.184270,W,56.7,152.9,011010,,,A*4A
$GPRMC,191623.1,A,3249.973767,N,11710.156842,W,57.0,152.5,011010,,,A*4E
$GPRMC,191626.1,A,3249.931003,N,11710.130878,W,57.4,152.7,011010,,,A*47
$GPRMC,191629.1,A,3249.887648,N,11710.105983,W,58.2,153.2,011010,,,A*43
$GPRMC,191632.1,A,3249.845082,N,11710.080106,W,58.4,153.1,011010,,,A*4B
$GPRMC,191638.1,A,3249.753415,N,11710.027197,W,60.8,153.8,011010,,,A*48
$GPRMC,191641.1,A,3249.706539,N,11709.999830,W,60.6,154.7,011010,,,A*4F
$GPRMC,191644.1,A,3249.661662,N,11709.973631,W,60.5,152.9,011010,,,A*47
$GPRMC,191647.1,A,3249.617787,N,11709.946503,W,60.2,152.2,011010,,,A*47
$GPRMC,191650.1,A,3249.572984,N,11709.918784,W,61.1,153.0,011010,,,A*4B
$GPRMC,191653.1,A,3249.527376,N,11709.891732,W,61.2,153.6,011010,,,A*47
$GPRMC,191656.1,A,3249.481434,N,11709.863580,W,61.6,153.2,011010,,,A*48
$GPRMC,191659.1,A,3249.434805,N,11709.836675,W,62.3,153.8,011010,,,A*42
$GPRMC,191702.1,A,3249.386722,N,11709.807829,W,62.0,153.9,011010,,,A*4E
$GPRMC,191705.1,A,3249.340541,N,11709.783434,W,61.5,154.7,011010,,,A*48
$GPRMC,191708.1,A,3249.293359,N,11709.755401,W,61.8,153.7,011010,,,A*42
$GPRMC,191711.1,A,3249.246154,N,11709.727810,W,63.0,153.6,011010,,,A*4F
$GPRMC,191714.1,A,3249.201137,N,11709.700352,W,61.3,153.8,011010,,,A*4B
$GPRMC,191717.1,A,3249.154430,N,11709.673939,W,60.7,153.4,011010,,,A*42
$GPRMC,191720.1,A,3249.106862,N,11709.646833,W,61.8,154.9,011010,,,A*43
$GPRMC,191723.1,A,3249.060928,N,11709.622498,W,59.4,155.7,011010,,,A*49
$GPRMC,191726.1,A,3249.016261,N,11709.596931,W,58.9,154.4,011010,,,A*47
$GPRMC,191729.1,A,3248.973146,N,11709.571833,W,58.7,153.7,011010,,,A*45
$GPRMC,191732.1,A,3248.932155,N,11709.547073,W,57.3,152.9,011010,,,A*45
$GPRMC,191735.1,A,3248.890054,N,11709.518320,W,57.8,150.2,011010,,,A*46
$GPRMC,191738.1,A,3248.847687,N,11709.486790,W,59.0,146.0,011010,,,A*43
$GPRMC,191741.1,A,3248.809231,N,11709.452460,W,58.5,141.9,011010,,,A*41
$GPRMC,191744.1,A,3248.770307,N,11709.415101,W,58.8,140.9,011010,,,A*4C
$GPRMC,191747.1,A,3248.733903,N,11709.379147,W,57.3,140.4,011010,,,A*40
$GPRMC,191750.1,A,3248.696076,N,11709.344043,W,58.2,141.7,011010,,,A*44
$GPRMC,191753.1,A,3248.656830,N,11709.309113,W,58.6,143.8,011010,,,A*45
$GPRMC,191756.1,A,3248.618196,N,11709.274576,W,58.0,144.1,011010,,,A*4B
$GPRMC,191759.1,A,3248.579767,N,11709.243127,W,55.4,145.5,011010,,,A*40
$GPRMC,191802.1,A,3248.539990,N,11709.218844,W,54.3,153.6,011010,,,A*43
$GPRMC,191805.1,A,3248.496850,N,11709.207838,W,52.0,168.0,011010,,,A*43
$GPRMC,191808.1,A,3248.451750,N,11709.206307,W,52.3,176.5,011010,,,A*45
$GPRMC,191811.1,A,3248.407587,N,11709.224890,W,54.9,194.0,011010,,,A*46
$GPRMC,191814.1,A,3248.362974,N,11709.242218,W,56.1,197.4,011010,,,A*40
$GPRMC,191817.1,A,3248.318601,N,11709.258102,W,55.5,196.4,011010,,,A*46
$GPRMC,191820.1,A,3248.273581,N,11709.274124,W,56.6,196.4,011010,,,A*4F
$GPRMC,191823.1,A,3248.228288,N,11709.289770,W,57.2,196.0,011010,,,A*48
$GPRMC,191826.1,A,3248.181168,N,11709.305879,W,59.3,195.8,011010,,,A*47
$GPRMC,191829.1,A,3248.132580,N,11709.322829,W,60.3,197.1,011010,,,A*43
$GPRMC,191832.1,A,3248.083060,N,11709.340825,W,61.4,197.3,011010,,,A*45
$GPRMC,191835.1,A,3248.034119,N,11709.357296,W,60.4,197.2,011010,,,A*45
$GPRMC,191838.1,A,3247.985996,N,11709.374028,W,60.5,197.1,011010,,,A*4F
$GPRMC,191841.1,A,3247.937628,N,11709.392207,W,60.1,196.5,011010,,,A*44
$GPRMC,191844.1,A,3247.889847,N,11709.411115,W,60.3,197.3,011010,,,A*4B
$GPRMC,191847.1,A,3247.841434,N,11709.428302,W,60.6,197.2,011010,,,A*4E
$GPRMC,191850.1,A,3247.793505,N,11709.445517,W,60.0,197.3,011010,,,A*45
$GPRMC,191853.1,A,3247.745713,N,11709.463300,W,60.0,197.4,011010,,,A*4B
$GPRMC,191856.1,A,3247.696969,N,11709.481678,W,61.4,197.4,011010,,,A*41
$GPRMC,191859.1,A,3247.649009,N,11709.499457,W,60.8,196.9,011010,,,A*44
$GPRMC,191902.1,A,3247.601029,N,11709.517065,W,60.7,197.4,011010,,,A*44
$GPRMC,191905.1,A,3247.551977,N,11709.535843,W,61.3,196.8,011010,,,A*43
$GPRMC,191908.1,A,3247.500530,N,11709.552115,W,63.3,196.4,011010,,,A*40
$GPRMC,191911.1,A,3247.450760,N,11709.569909,W,63.0,196.6,011010,,,A*47
$GPRMC,191914.1,A,3247.399540,N,11709.589230,W,64.2,197.5,011010,,,A*48
$GPRMC,191917.1,A,3247.348280,N,11709.608804,W,64.4,197.2,011010,,,A*4A
$GPRMC,191920.1,A,3247.297103,N,11709.626400,W,64.3,197.0,011010,,,A*44
$GPRMC,191923.1,A,3247.246712,N,11709.645040,W,64.3,197.4,011010,,,A*4C
$GPRMC,191926.1,A,3247.195367,N,11709.663280,W,64.1,196.7,011010,,,A*48
$GPRMC,191929.1,A,3247.144978,N,11709.681316,W,62.7,196.9,011010,,,A*43
$GPRMC,191932.1,A,3247.094777,N,11709.700822,W,63.2,197.4,011010,,,A*48
$GPRMC,191935.1,A,3247.044735,N,11709.719297,W,63.6,197.4,011010,,,A*4C
$GPRMC,191938.1,A,3246.994305,N,11709.737622,W,64.5,197.9,011010,,,A*4C
$GPRMC,191941.1,A,3246.942963,N,11709.756267,W,64.7,197.1,011010,,,A*4B
$GPRMC,191944.1,A,3246.891187,N,11709.772807,W,64.3,194.7,011010,,,A*48
$GPRMC,191947.1,A,3246.841370,N,11709.784728,W,62.5,190.3,011010,,,A*47
$GPRMC,191950.1,A,3246.788754,N,11709.790007,W,63.5,184.0,011010,,,A*41
$GPRMC,191953.1,A,3246.735065,N,11709.787199,W,62.8,178.0,011010,,,A*4E
$GPRMC,191956.1,A,3246.685164,N,11709.780872,W,60.0,175.1,011010,,,A*4C
$GPRMC,191959.1,A,3246.635391,N,11709.764357,W,61.9,165.0,011010,,,A*4E
$GPRMC,192002.1,A,3246.587217,N,11709.743477,W,62.1,159.7,011010,,,A*4C
$GPRMC,192005.1,A,3246.539336,N,11709.719150,W,62.5,157.6,011010,,,A*48
$GPRMC,192008.1,A,3246.491625,N,11709.696431,W,62.5,159.3,011010,,,A*4E
$GPRMC,192011.1,A,3246.441006,N,11709.681502,W,62.6,167.1,011010,,,A*47
$GPRMC,192014.1,A,3246.388846,N,11709.675262,W,62.1,175.9,011010,,,A*4A
$GPRMC,192017.1,A,3246.337643,N,11709.678756,W,61.4,185.5,011010,,,A*4C
$GPRMC,192020.1,A,3246.287858,N,11709.688934,W,61.3,190.6,011010,,,A*43
$GPRMC,192023.1,A,3246.239345,N,11709.702473,W,60.0,192.7,011010,,,A*4E
$GPRMC,192026.1,A,3246.192358,N,11709.718031,W,59.5,194.1,011010,,,A*43
$GPRMC,192029.1,A,3246.146152,N,11709.731019,W,56.6,193.0,011010,,,A*46
$GPRMC,192032.1,A,3246.104100,N,11709.740791,W,50.1,191.9,011010,,,A*46
$GPRMC,192035.1,A,3246.062373,N,11709.751557,W,51.7,193.3,011010,,,A*41
$GPRMC,192038.1,A,3246.018885,N,11709.762157,W,54.2,192.3,011010,,,A*46
$GPRMC,192041.1,A,3245.974317,N,11709.773463,W,54.5,192.6,011010,,,A*48
$GPRMC,192044.1,A,3245.931555,N,11709.784171,W,52.9,192.0,011010,,,A*4E
$GPRMC,192047.1,A,3245.886269,N,11709.797236,W,54.8,194.9,011010,,,A*42
$GPRMC,192050.1,A,3245.843364,N,11709.812992,W,54.1,196.6,011010,,,A*42
$GPRMC,192053.1,A,3245.800403,N,11709.829061,W,54.2,197.9,011010,,,A*40
$GPRMC,192056.1,A,3245.761119,N,11709.850385,W,54.6,207.4,011010,,,A*47
$GPRMC,192059.1,A,3245.725297,N,11709.877099,W,51.6,212.1,011010,,,A*42
$GPRMC,192102.1,A,3245.698016,N,11709.915291,W,49.1,223.8,011010,,,A*4B
$GPRMC,192105.1,A,3245.684052,N,11709.970221,W,52.6,244.2,011010,,,A*4F
$GPRMC,192108.1,A,3245.672165,N,11710.024902,W,55.6,251.4,011010,,,A*41
$GPRMC,192111.1,A,3245.659137,N,11710.081792,W,58.4,253.9,011010,,,A*4F
$GPRMC,192114.1,A,3245.645620,N,11710.139489,W,59.3,254.1,011010,,,A*44
$GPRMC,192117.1,A,3245.634388,N,11710.196703,W,57.8,254.7,011010,,,A*41
$GPRMC,192120.1,A,3245.623140,N,11710.252209,W,56.8,255.1,011010,,,A*47
$GPRMC,192123.1,A,3245.612040,N,11710.306998,W,57.3,255.7,011010,,,A*48
$GPRMC,192126.1,A,3245.599843,N,11710.362814,W,58.2,255.8,011010,,,A*40
$GPRMC,192129.1,A,3245.587220,N,11710.418320,W,58.9,255.9,011010,,,A*43
$GPRMC,192132.1,A,3245.575292,N,11710.474919,W,58.7,257.1,011010,,,A*43
$GPRMC,192135.1,A,3245.568269,N,11710.527746,W,52.6,260.9,011010,,,A*48
$GPRMC,192138.1,A,3245.563303,N,11710.576069,W,47.8,263.2,011010,,,A*4F
$GPRMC,192141.1,A,3245.562061,N,11710.622340,W,47.6,267.1,011010,,,A*44
$GPRMC,192144.1,A,3245.560946,N,11710.667704,W,44.9,270.4,011010,,,A*45
$GPRMC,192147.1,A,3245.562524,N,11710.709192,W,42.2,272.5,011010,,,A*42
$GPRMC,192150.1,A,3245.563946,N,11710.752093,W,43.5,272.5,011010,,,A*45
$GPRMC,192153.1,A,3245.566238,N,11710.795742,W,46.0,271.8,011010,,,A*4F
$GPRMC,192156.1,A,3245.567517,N,11710.840733,W,45.5,272.3,011010,,,A*4E
$GPRMC,192159.1,A,3245.570446,N,11710.883303,W,43.2,272.8,011010,,,A*40
$GPRMC,192202.1,A,3245.571850,N,11710.925283,W,43.7,272.2,011010,,,A*4C
$GPRMC,192205.1,A,3245.574874,N,11710.968913,W,45.4,273.5,011010,,,A*40
$GPRMC,192208.1,A,3245.576335,N,11711.017014,W,49.8,271.4,011010,,,A*4C
$GPRMC,192211.1,A,3245.578111,N,11711.068802,W,52.1,271.6,011010,,,A*48
$GPRMC,192214.1,A,3245.579585,N,11711.121959,W,53.1,271.7,011010,,,A*46
$GPRMC,192217.1,A,3245.581861,N,11711.176132,W,55.2,273.4,011010,,,A*46
$GPRMC,192220.1,A,3245.587409,N,11711.230212,W,57.2,276.5,011010,,,A*40
$GPRMC,192223.1,A,3245.593724,N,11711.285943,W,56.7,277.8,011010,,,A*43
$GPRMC,192226.1,A,3245.600616,N,11711.341046,W,56.8,278.3,011010,,,A*41
$GPRMC,192229.1,A,3245.608654,N,11711.396875,W,58.3,279.8,011010,,,A*4D
$GPRMC,192232.1,A,3245.618202,N,11711.454250,W,60.3,280.4,011010,,,A*44
$GPRMC,192235.1,A,3245.628410,N,11711.513435,W,59.7,280.7,011010,,,A*4F
$GPRMC,192238.1,A,3245.637548,N,11711.568477,W,57.2,280.1,011010,,,A*47
$GPRMC,192241.1,A,3245.645608,N,11711.621024,W,54.3,279.2,011010,,,A*40
$GPRMC,192244.1,A,3245.648685,N,11711.673261,W,51.5,272.8,011010,,,A*4B
$GPRMC,192247.1,A,3245.646615,N,11711.721337,W,48.3,265.2,011010,,,A*49
$GPRMC,192250.1,A,3245.640288,N,11711.769490,W,49.8,259.4,011010,,,A*4C
$GPRMC,192253.1,A,3245.631312,N,11711.818811,W,51.3,259.2,011010,,,A*43
$GPRMC,192256.1,A,3245.625381,N,11711.869700,W,51.8,262.9,011010,,,A*48
$GPRMC,192259.1,A,3245.620578,N,11711.919727,W,50.9,264.4,011010,,,A*4A
$GPRMC,192302.1,A,3245.616225,N,11711.968446,W,48.8,264.4,011010,,,A*45
$GPRMC,192305.1,A,3245.611419,N,11712.013245,W,45.9,262.2,011010,,,A*43
$GPRMC,192308.1,A,3245.603050,N,11712.056407,W,45.0,255.9,011010,,,A*43
$GPRMC,192311.1,A,3245.589530,N,11712.098401,W,45.3,247.5,011010,,,A*41
$GPRMC,192314.1,A,3245.571221,N,11712.139321,W,46.6,240.6,011010,,,A*49
$GPRMC,192317.1,A,3245.547980,N,11712.177972,W,48.4,233.8,011010,,,A*4F
$GPRMC,192320.1,A,3245.519814,N,11712.210248,W,48.3,224.4,011010,,,A*41
$GPRMC,192323.1,A,3245.489005,N,11712.239505,W,46.4,217.2,011010,,,A*48
$GPRMC,192326.1,A,3245.460828,N,11712.257753,W,37.3,209.0,011010,,,A*48
$GPRMC,192329.1,A,3245.436468,N,11712.269359,W,27.9,202.9,011010,,,A*46
$GPRMC,192332.1,A,3245.421305,N,11712.276223,W,18.8,200.6,011010,,,A*44
$GPRMC,192335.1,A,3245.411726,N,11712.279021,W,11.8,196.9,011010,,,A*40
$GPRMC,192338.1,A,3245.403468,N,11712.280489,W,8.5,194.5,011010,,,A*7C
$GPRMC,192350.1,A,3245.390351,N,11712.284869,W,10.8,191.2,011010,,,A*42
$GPRMC,192353.1,A,3245.377337,N,11712.287312,W,16.3,188.4,011010,,,A*4F
$GPRMC,192356.1,A,3245.362501,N,11712.289945,W,18.1,188.1,011010,,,A*42
$GPRMC,192359.1,A,3245.347194,N,11712.292384,W,17.4,188.8,011010,,,A*4C
$GPRMC,192402.1,A,3245.335754,N,11712.294898,W,11.7,191.3,011010,,,A*4C
$GPRMC,192405.1,A,3245.329492,N,11712.296395,W,4.8,185.7,011010,,,A*71
$GPRMC,192414.1,A,3245.322854,N,11712.296254,W,7.7,188.4,011010,,,A*72
$GPRMC,192417.1,A,3245.313033,N,11712.298084,W,13.5,188.3,011010,,,A*4B
$GPRMC,192420.1,A,3245.300985,N,11712.300734,W,14.3,189.8,011010,,,A*4E
$GPRMC,192423.1,A,3245.290168,N,11712.302597,W,11.3,186.2,011010,,,A*47
$GPRMC,192426.1,A,3245.283719,N,11712.303912,W,6.3,184.0,011010,,,A*76
$GPRMC,192523.1,A,3245.277179,N,11712.302107,W,7.1,184.4,011010,,,A*73
$GPRMC,192526.1,A,3245.266423,N,11712.303257,W,13.2,184.3,011010,,,A*4A
$GPRMC,192529.1,A,3245.252378,N,11712.302433,W,16.4,179.2,011010,,,A*4E
$GPRMC,192532.1,A,3245.240207,N,11712.303013,W,13.2,182.0,011010,,,A*4C
$GPRMC,192535.1,A,3245.230555,N,11712.303396,W,11.5,180.4,011010,,,A*41
$GPRMC,192538.1,A,3245.224257,N,11712.303463,W,6.8,176.1,011010,,,A*76
$GPRMC,192623.1,A,3245.209711,N,11712.302042,W,10.1,177.1,011010,,,A*4E
$GPRMC,192626.1,A,3245.196673,N,11712.299784,W,16.4,173.4,011010,,,A*47
$GPRMC,192629.1,A,3245.180120,N,11712.298143,W,18.5,171.8,011010,,,A*43
$GPRMC,192632.1,A,3245.161613,N,11712.296073,W,19.2,171.9,011010,,,A*4A
$GPRMC,192635.1,A,3245.146076,N,11712.294693,W,17.2,172.6,011010,,,A*45
$GPRMC,192638.1,A,3245.134245,N,11712.292658,W,12.5,172.4,011010,,,A*4E
$GPRMC,192641.1,A,3245.128173,N,11712.292174,W,6.0,176.8,011010,,,A*7A
$GPRMC,192817.1,A,3245.120944,N,11712.291811,W,5.5,185.3,011010,,,A*7B
$GPRMC,192820.1,A,3245.107862,N,11712.293320,W,13.1,185.0,011010,,,A*44
$GPRMC,192823.1,A,3245.090392,N,11712.296578,W,19.3,191.3,011010,,,A*4C
$GPRMC,192826.1,A,3245.074288,N,11712.302114,W,19.6,198.3,011010,,,A*47
$GPRMC,192829.1,A,3245.057875,N,11712.310781,W,18.3,205.9,011010,,,A*41
$GPRMC,192832.1,A,3245.043378,N,11712.320227,W,20.6,212.4,011010,,,A*47
$GPRMC,192835.1,A,3245.028622,N,11712.331754,W,21.8,213.0,011010,,,A*4C
$GPRMC,192838.1,A,3245.012666,N,11712.342443,W,21.8,213.0,011010,,,A*49
$GPRMC,192841.1,A,3244.999742,N,11712.354454,W,19.6,217.4,011010,,,A*4F
$GPRMC,192844.1,A,3244.987545,N,11712.364937,W,18.0,214.4,011010,,,A*4F
$GPRMC,192847.1,A,3244.974253,N,11712.376672,W,20.9,216.0,011010,,,A*49
$GPRMC,192850.1,A,3244.959020,N,11712.390005,W,21.8,216.1,011010,,,A*49
$GPRMC,192853.1,A,3244.946788,N,11712.403767,W,19.8,222.6,011010,,,A*44
$GPRMC,192856.1,A,3244.934943,N,11712.416474,W,18.9,222.5,011010,,,A*4B
$GPRMC,192859.1,A,3244.923377,N,11712.429227,W,18.7,222.4,011010,,,A*4C
$GPRMC,192902.1,A,3244.911755,N,11712.442895,W,20.8,224.1,011010,,,A*4F
$GPRMC,192905.1,A,3244.899406,N,11712.456763,W,20.4,226.8,011010,,,A*48
$GPRMC,192908.1,A,3244.888502,N,11712.471955,W,21.3,228.4,011010,,,A*4A
$GPRMC,192911.1,A,3244.876244,N,11712.489136,W,21.8,228.8,011010,,,A*4B
$GPRMC,192914.1,A,3244.866132,N,11712.503907,W,17.5,232.5,011010,,,A*4A
$GPRMC,192917.1,A,3244.860748,N,11712.512903,W,10.0,234.3,011010,,,A*42
$GPRMC,192920.1,A,3244.857948,N,11712.517827,W,4.9,234.3,011010,,,A*72
$GPRMC,192950.1,A,3244.853663,N,11712.525699,W,6.3,228.1,011010,,,A*7A
$GPRMC,192953.1,A,3244.846851,N,11712.535939,W,13.0,231.4,011010,,,A*4C
$GPRMC,192956.1,A,3244.839083,N,11712.550341,W,16.3,236.0,011010,,,A*45
$GPRMC,192959.1,A,3244.836572,N,11712.564256,W,14.0,271.9,011010,,,A*45
$GPRMC,193002.1,A,3244.842881,N,11712.579622,W,16.9,304.9,011010,,,A*42
$GPRMC,193005.1,A,3244.853040,N,11712.591793,W,16.0,318.9,011010,,,A*49
$GPRMC,193008.1,A,3244.859494,N,11712.594323,W,8.3,333.0,011010,,,A*75
$GPRMC,193017.1,A,3244.853541,N,11712.597791,W,6.5,148.2,011010,,,A*72
$GPRMC,193020.1,A,3244.846669,N,11712.590748,W,9.8,138.7,011010,,,A*78
$GPRMC,193023.1,A,3244.839102,N,11712.580465,W,10.2,132.8,011010,,,A*43
$GPRMC,193111.1,A,3244.828809,N,11712.565430,W,6.8,119.6,011010,,,A*70
$GPRMC,193114.1,A,3244.827067,N,11712.560951,W,4.5,115.0,011010,,,A*70
