NMEA Sentence Code,UTC Time,Status,Latitude,Latitude Direction,Longitude,Longitude Direction,Speed (knots),Track Angle (degrees true),Date,MagneticVariation,Magnetic Variation Direction,[FAA Mode]-Optional,Checksum
$GPRMC,221606.2,A,3349.766217,N,11608.537305,W,16.7,98.5,130510,,,A*7A
$GPRMC,221609.2,A,3349.765487,N,11608.520145,W,17.1,100.8,130510,,,A*43
$GPRMC,221612.2,A,3349.771160,N,11608.507334,W,13.9,83.9,130510,,,A*76
$GPRMC,221615.2,A,3349.774119,N,11608.495798,W,13.7,87.1,130510,,,A*70
$GPRMC,221618.2,A,3349.772916,N,11608.479716,W,14.7,96.6,130510,,,A*78
$GPRMC,221621.2,A,3349.771323,N,11608.468701,W,12.9,95.8,130510,,,A*7E
$GPRMC,221624.2,A,3349.771585,N,11608.455197,W,15.5,87.9,130510,,,A*7F
$GPRMC,221627.2,A,3349.765696,N,11608.441375,W,14.2,104.2,130510,,,A*44
$GPRMC,221630.2,A,3349.765935,N,11608.426043,W,15.4,89.2,130510,,,A*70
$GPRMC,221633.2,A,3349.768027,N,11608.416537,W,11.8,78.0,130510,,,A*75
$GPRMC,221636.2,A,3349.770354,N,11608.402555,W,12.7,81.5,130510,,,A*70
$GPRMC,221639.2,A,3349.772299,N,11608.392861,W,10.8,81.6,130510,,,A*77
$GPRMC,221642.2,A,3349.772480,N,11608.382688,W,10.4,82.1,130510,,,A*75
$GPRMC,221645.2,A,3349.773579,N,11608.370261,W,11.6,85.3,130510,,,A*7C
$GPRMC,221648.2,A,3349.771483,N,11608.354982,W,14.6,103.8,130510,,,A*46
$GPRMC,221651.2,A,3349.776113,N,11608.344860,W,12.1,70.3,130510,,,A*76
$GPRMC,221654.2,A,3349.778758,N,11608.333112,W,11.7,70.5,130510,,,A*7B
$GPRMC,221657.2,A,3349.790811,N,11608.327160,W,12.0,43.8,130510,,,A*75
$GPRMC,221700.2,A,3349.802686,N,11608.318054,W,12.9,36.2,130510,,,A*79
$GPRMC,221703.2,A,3349.815210,N,11608.312903,W,13.0,24.1,130510,,,A*7E
$GPRMC,221706.2,A,3349.823588,N,11608.308646,W,11.9,26.2,130510,,,A*77
$GPRMC,221709.2,A,3349.828870,N,11608.307225,W,8.3,26.2,130510,,,A*45
$GPRMC,221712.2,A,3349.836829,N,11608.297409,W,10.9,43.2,130510,,,A*7C
$GPRMC,221715.2,A,3349.844104,N,11608.292903,W,12.0,41.3,130510,,,A*72
$GPRMC,221718.2,A,3349.862401,N,11608.288198,W,16.4,30.9,130510,,,A*76
$GPRMC,221721.2,A,3349.886315,N,11608.284552,W,21.5,20.2,130510,,,A*75
$GPRMC,221724.2,A,3349.885511,N,11608.273274,W,16.2,27.9,130510,,,A*75
$GPRMC,221727.2,A,3349.894862,N,11608.265846,W,14.8,30.1,130510,,,A*75
$GPRMC,221730.2,A,3349.905456,N,11608.258604,W,15.1,31.7,130510,,,A*78
$GPRMC,221733.2,A,3349.914360,N,11608.250185,W,13.2,34.3,130510,,,A*7B
$GPRMC,221736.2,A,3349.919593,N,11608.228497,W,13.6,44.4,130510,,,A*74
$GPRMC,221739.2,A,3349.927230,N,11608.220138,W,11.7,40.2,130510,,,A*71
$GPRMC,221742.2,A,3349.938421,N,11608.219751,W,12.0,19.9,130510,,,A*75
$GPRMC,221745.2,A,3349.944213,N,11608.211016,W,8.2,28.6,130510,,,A*46
$GPRMC,221748.2,A,3349.945527,N,11608.198982,W,7.3,51.5,130510,,,A*4F
$GPRMC,221754.2,A,3349.952219,N,11608.194380,W,6.0,41.6,130510,,,A*4A
$GPRMC,221815.2,A,3349.958617,N,11608.179084,W,4.6,54.5,130510,,,A*47
$GPRMC,221818.2,A,3349.965360,N,11608.176566,W,6.7,39.2,130510,,,A*48
$GPRMC,221821.2,A,3349.974842,N,11608.173062,W,9.1,28.0,130510,,,A*46
$GPRMC,221824.2,A,3349.983785,N,11608.171661,W,10.2,18.0,130510,,,A*70
$GPRMC,221827.2,A,3349.993754,N,11608.169644,W,10.9,21.5,130510,,,A*74
$GPRMC,221830.2,A,3350.002395,N,11608.165488,W,9.8,20.1,130510,,,A*40
$GPRMC,221833.2,A,3350.010217,N,11608.160481,W,10.5,24.5,130510,,,A*72
$GPRMC,221836.2,A,3350.017207,N,11608.152835,W,9.3,42.1,130510,,,A*49
$GPRMC,221839.2,A,3350.018478,N,11608.147417,W,8.5,56.4,130510,,,A*48
$GPRMC,221842.2,A,3350.019704,N,11608.135227,W,11.2,73.9,130510,,,A*78
$GPRMC,221845.2,A,3350.017710,N,11608.126958,W,8.0,95.2,130510,,,A*4C
$GPRMC,221848.2,A,3350.024397,N,11608.114128,W,11.8,60.2,130510,,,A*7E
$GPRMC,221851.2,A,3350.034456,N,11608.105779,W,11.3,46.9,130510,,,A*7B
$GPRMC,221854.2,A,3350.042356,N,11608.099709,W,10.7,37.1,130510,,,A*70
$GPRMC,221857.2,A,3350.051129,N,11608.096084,W,9.9,13.4,130510,,,A*43
$GPRMC,221900.0,A,3350.056044,N,11608.091340,W,9.4,22.7,130510,,,A*4F
$GPRMC,221903.2,A,3350.065356,N,11608.085728,W,10.6,26.0,130510,,,A*78
$GPRMC,221906.2,A,3350.073223,N,11608.080109,W,10.6,26.2,130510,,,A*7B
$GPRMC,221909.2,A,3350.079626,N,11608.073129,W,7.8,51.9,130510,,,A*42
$GPRMC,221912.2,A,3350.076439,N,11608.067394,W,5.3,87.2,130510,,,A*43
$GPRMC,221915.2,A,3350.074432,N,11608.057033,W,8.0,88.9,130510,,,A*4A
$GPRMC,221918.2,A,3350.075172,N,11608.044757,W,9.5,78.3,130510,,,A*41
$GPRMC,221921.2,A,3350.073304,N,11608.035328,W,7.8,93.1,130510,,,A*40
$GPRMC,221924.2,A,3350.071596,N,11608.031725,W,6.3,111.3,130510,,,A*74
$GPRMC,221927.2,A,3350.077215,N,11608.023197,W,7.4,66.9,130510,,,A*4C
$GPRMC,221930.2,A,3350.081569,N,11608.016503,W,7.8,57.6,130510,,,A*41
$GPRMC,221933.2,A,3350.083782,N,11608.013126,W,5.5,41.7,130510,,,A*48
$GPRMC,221936.2,A,3350.090287,N,11608.005488,W,7.8,42.0,130510,,,A*42
$GPRMC,221939.2,A,3350.096872,N,11608.000606,W,7.6,32.6,130510,,,A*45
$GPRMC,221942.2,A,3350.101693,N,11607.998293,W,6.8,34.8,130510,,,A*4F
$GPRMC,221945.2,A,3350.104955,N,11607.997803,W,4.6,25.0,130510,,,A*40
$GPRMC,221958.2,A,3350.113058,N,11607.981144,W,5.1,63.9,130510,,,A*4E
$GPRMC,222001.2,A,3350.117432,N,11607.972995,W,7.8,53.4,130510,,,A*49
$GPRMC,222004.2,A,3350.125488,N,11607.963873,W,10.5,54.4,130510,,,A*79
$GPRMC,222007.9,A,3350.130852,N,11607.949309,W,12.0,82.1,130510,,,A*79
$GPRMC,222010.0,A,3350.132812,N,11607.940977,W,10.6,78.0,130510,,,A*7A
$GPRMC,222013.2,A,3350.131834,N,11607.931574,W,9.4,92.7,130510,,,A*4C
$GPRMC,222016.2,A,3350.131611,N,11607.924027,W,7.7,88.1,130510,,,A*47
$GPRMC,222019.9,A,3350.129220,N,11607.915078,W,7.0,91.6,130510,,,A*4C
$GPRMC,222022.2,A,3350.130600,N,11607.909315,W,8.5,82.1,130510,,,A*4B
$GPRMC,222025.2,A,3350.133346,N,11607.901676,W,9.2,84.3,130510,,,A*42
$GPRMC,222028.2,A,3350.141218,N,11607.893359,W,10.5,61.9,130510,,,A*7C
$GPRMC,222031.2,A,3350.144287,N,11607.882701,W,11.1,63.1,130510,,,A*71
$GPRMC,222034.2,A,3350.147408,N,11607.877128,W,8.8,57.2,130510,,,A*44
$GPRMC,222037.2,A,3350.149672,N,11607.864878,W,10.4,68.0,130510,,,A*73
$GPRMC,222040.0,A,3350.150819,N,11607.852348,W,12.5,82.6,130510,,,A*76
$GPRMC,222043.0,A,3350.148095,N,11607.837332,W,12.7,102.5,130510,,,A*46
$GPRMC,222047.2,A,3350.145805,N,11607.819628,W,11.7,90.9,130510,,,A*7B
$GPRMC,222050.2,A,3350.149812,N,11607.805930,W,11.8,81.8,130510,,,A*72
$GPRMC,222053.2,A,3350.152211,N,11607.794235,W,13.3,81.8,130510,,,A*72
$GPRMC,222056.2,A,3350.155653,N,11607.785003,W,10.8,70.8,130510,,,A*73
$GPRMC,222059.2,A,3350.155535,N,11607.772105,W,12.0,91.7,130510,,,A*7A
$GPRMC,222102.2,A,3350.156712,N,11607.760642,W,11.0,72.6,130510,,,A*79
$GPRMC,222105.2,A,3350.159261,N,11607.751602,W,9.7,71.2,130510,,,A*4F
$GPRMC,222108.9,A,3350.159442,N,11607.739504,W,9.0,84.1,130510,,,A*4B
$GPRMC,222111.9,A,3350.159387,N,11607.730542,W,10.9,88.1,130510,,,A*7B
$GPRMC,222114.9,A,3350.152312,N,11607.712318,W,17.6,110.4,130510,,,A*4D
$GPRMC,222118.2,A,3350.149053,N,11607.695255,W,14.0,101.9,130510,,,A*48
$GPRMC,222122.2,A,3350.149567,N,11607.675301,W,14.3,87.4,130510,,,A*7C
$GPRMC,222125.2,A,3350.151900,N,11607.662829,W,13.8,90.3,130510,,,A*75
$GPRMC,222128.2,A,3350.153600,N,11607.650512,W,13.6,86.3,130510,,,A*78
$GPRMC,222131.2,A,3350.156334,N,11607.643049,W,8.1,60.8,130510,,,A*40
$GPRMC,222134.0,A,3350.150612,N,11607.631091,W,12.1,109.1,130510,,,A*4C
$GPRMC,222137.2,A,3350.147096,N,11607.614055,W,15.0,101.4,130510,,,A*45
$GPRMC,222140.2,A,3350.151746,N,11607.600218,W,14.6,79.5,130510,,,A*7E
$GPRMC,222143.2,A,3350.155068,N,11607.588605,W,12.3,69.2,130510,,,A*7C
$GPRMC,222146.2,A,3350.159690,N,11607.577716,W,12.6,68.0,130510,,,A*71
$GPRMC,222149.2,A,3350.163037,N,11607.561084,W,15.4,71.1,130510,,,A*7B
$GPRMC,222152.2,A,3350.168147,N,11607.547746,W,12.6,61.6,130510,,,A*72
$GPRMC,222155.2,A,3350.175691,N,11607.531898,W,14.8,61.4,130510,,,A*72
$GPRMC,222158.2,A,3350.178284,N,11607.516060,W,14.2,69.1,130510,,,A*7F
$GPRMC,222201.2,A,3350.181537,N,11607.504040,W,12.4,69.8,130510,,,A*71
$GPRMC,222204.2,A,3350.182774,N,11607.488902,W,15.5,84.1,130510,,,A*74
$GPRMC,222207.2,A,3350.186198,N,11607.478887,W,9.2,65.8,130510,,,A*48
$GPRMC,222210.2,A,3350.184303,N,11607.465890,W,12.5,93.3,130510,,,A*79
$GPRMC,222213.2,A,3350.177408,N,11607.450885,W,15.6,113.2,130510,,,A*44
$GPRMC,222216.2,A,3350.171373,N,11607.446565,W,10.9,133.5,130510,,,A*47
$GPRMC,222219.2,A,3350.162646,N,11607.441026,W,10.9,138.7,130510,,,A*45
$GPRMC,222222.2,A,3350.160088,N,11607.431747,W,11.0,108.4,130510,,,A*44
$GPRMC,222225.2,A,3350.156207,N,11607.420460,W,12.7,113.2,130510,,,A*4D
$GPRMC,222228.2,A,3350.152637,N,11607.410146,W,11.5,117.8,130510,,,A*4E
$GPRMC,222231.2,A,3350.150699,N,11607.399686,W,10.9,97.2,130510,,,A*73
$GPRMC,222234.9,A,3350.153789,N,11607.391124,W,6.7,66.9,130510,,,A*45
$GPRMC,222237.2,A,3350.155253,N,11607.384737,W,8.4,70.0,130510,,,A*4A
$GPRMC,222240.2,A,3350.155074,N,11607.368663,W,12.3,87.1,130510,,,A*7A
$GPRMC,222243.2,A,3350.145971,N,11607.360978,W,10.8,113.5,130510,,,A*48
$GPRMC,222246.2,A,3350.139943,N,11607.344955,W,14.1,112.7,130510,,,A*40
$GPRMC,222249.2,A,3350.135143,N,11607.334116,W,11.6,114.7,130510,,,A*47
$GPRMC,222252.2,A,3350.125473,N,11607.320395,W,18.1,125.2,130510,,,A*4F
$GPRMC,222255.2,A,3350.124098,N,11607.307145,W,14.1,108.6,130510,,,A*45
$GPRMC,222258.2,A,3350.122385,N,11607.294239,W,14.3,101.7,130510,,,A*48
$GPRMC,222301.2,A,3350.119402,N,11607.278576,W,11.9,100.0,130510,,,A*42
$GPRMC,222305.2,A,3350.126736,N,11607.259896,W,15.5,68.7,130510,,,A*7E
$GPRMC,222308.2,A,3350.122823,N,11607.244816,W,15.7,103.5,130510,,,A*44
$GPRMC,222311.2,A,3350.118386,N,11607.233234,W,13.4,111.4,130510,,,A*4C
$GPRMC,222314.2,A,3350.117115,N,11607.220303,W,13.5,102.4,130510,,,A*4A
$GPRMC,222317.2,A,3350.108379,N,11607.206833,W,14.9,116.4,130510,,,A*4D
$GPRMC,222320.2,A,3350.102295,N,11607.191991,W,14.2,122.7,130510,,,A*4B
$GPRMC,222323.2,A,3350.094406,N,11607.178040,W,15.0,111.7,130510,,,A*4B
$GPRMC,222326.2,A,3350.090804,N,11607.158340,W,17.4,107.1,130510,,,A*42
$GPRMC,222329.2,A,3350.082459,N,11607.147855,W,13.6,128.8,130510,,,A*49
$GPRMC,222332.2,A,3350.071586,N,11607.137845,W,18.2,133.9,130510,,,A*4E
$GPRMC,222335.2,A,3350.063937,N,11607.133015,W,10.6,133.1,130510,,,A*41
$GPRMC,222338.2,A,3350.057155,N,11607.130244,W,7.4,154.2,130510,,,A*74
$GPRMC,222341.2,A,3350.050074,N,11607.118671,W,12.6,135.9,130510,,,A*4D
$GPRMC,222344.2,A,3350.043075,N,11607.103334,W,18.6,120.9,130510,,,A*4B
$GPRMC,222347.2,A,3350.031371,N,11607.092383,W,16.2,132.2,130510,,,A*4D
$GPRMC,222350.2,A,3350.022807,N,11607.078798,W,16.0,126.5,130510,,,A*49
$GPRMC,222353.2,A,3350.015105,N,11607.071147,W,13.1,129.2,130510,,,A*44
$GPRMC,222356.2,A,3350.006727,N,11607.058839,W,15.2,123.5,130510,,,A*46
$GPRMC,222359.2,A,3350.005141,N,11607.052553,W,9.8,116.6,130510,,,A*75
$GPRMC,222402.2,A,3350.000751,N,11607.046838,W,8.3,124.5,130510,,,A*73
$GPRMC,222405.2,A,3349.998893,N,11607.039207,W,7.3,132.0,130510,,,A*76
$GPRMC,222408.2,A,3349.997258,N,11607.029162,W,13.4,104.4,130510,,,A*4B
$GPRMC,222411.2,A,3349.991612,N,11607.015691,W,12.6,113.7,130510,,,A*4D
$GPRMC,222414.2,A,3349.986580,N,11607.004248,W,12.2,116.6,130510,,,A*46
$GPRMC,222417.2,A,3349.980130,N,11606.995960,W,9.6,139.2,130510,,,A*7A
$GPRMC,222420.2,A,3349.970277,N,11606.987610,W,12.5,145.6,130510,,,A*4C
$GPRMC,222423.2,A,3349.968801,N,11606.977769,W,12.5,107.5,130510,,,A*48
$GPRMC,222426.2,A,3349.966373,N,11606.965222,W,12.2,105.5,130510,,,A*41
$GPRMC,222429.2,A,3349.961001,N,11606.958230,W,9.3,134.3,130510,,,A*7D
$GPRMC,222432.2,A,3349.952713,N,11606.952779,W,11.6,137.6,130510,,,A*4B
$GPRMC,222435.2,A,3349.947906,N,11606.946406,W,8.6,120.7,130510,,,A*73
$GPRMC,222438.2,A,3349.943495,N,11606.938926,W,8.1,121.2,130510,,,A*78
$GPRMC,222442.2,A,3349.939999,N,11606.925944,W,9.1,102.2,130510,,,A*71
$GPRMC,222445.2,A,3349.940583,N,11606.915849,W,12.1,98.8,130510,,,A*72
$GPRMC,222448.2,A,3349.939946,N,11606.906402,W,12.1,102.6,130510,,,A*49
$GPRMC,222451.2,A,3349.936556,N,11606.893682,W,12.1,105.2,130510,,,A*47
$GPRMC,222454.2,A,3349.934807,N,11606.880625,W,12.6,101.6,130510,,,A*41
$GPRMC,222457.2,A,3349.926816,N,11606.866318,W,15.8,118.8,130510,,,A*4D
$GPRMC,222500.2,A,3349.924420,N,11606.858646,W,13.4,111.7,130510,,,A*4A
$GPRMC,222503.2,A,3349.921692,N,11606.848703,W,13.4,103.2,130510,,,A*40
$GPRMC,222506.2,A,3349.917591,N,11606.837034,W,9.7,112.7,130510,,,A*76
$GPRMC,222509.2,A,3349.912436,N,11606.829728,W,9.6,122.8,130510,,,A*78
$GPRMC,222512.2,A,3349.905291,N,11606.822327,W,11.5,130.0,130510,,,A*4E
$GPRMC,222515.2,A,3349.897582,N,11606.814068,W,11.9,113.2,130510,,,A*44
$GPRMC,222518.2,A,3349.896998,N,11606.803604,W,13.7,92.3,130510,,,A*70
$GPRMC,222521.2,A,3349.892413,N,11606.788567,W,14.9,104.6,130510,,,A*48
$GPRMC,222524.2,A,3349.900537,N,11606.778268,W,11.9,79.2,130510,,,A*7D
$GPRMC,222527.2,A,3349.903438,N,11606.769657,W,9.2,68.3,130510,,,A*48
$GPRMC,222530.2,A,3349.905749,N,11606.760775,W,9.4,67.5,130510,,,A*4A
$GPRMC,222533.2,A,3349.908999,N,11606.748410,W,12.5,77.4,130510,,,A*76
$GPRMC,222536.2,A,3349.915379,N,11606.740823,W,11.3,61.8,130510,,,A*71
$GPRMC,222539.2,A,3349.923172,N,11606.735134,W,10.5,47.3,130510,,,A*77
$GPRMC,222542.2,A,3349.931280,N,11606.726110,W,12.1,41.6,130510,,,A*77
$GPRMC,222545.2,A,3349.939464,N,11606.712464,W,13.5,60.6,130510,,,A*73
$GPRMC,222548.2,A,3349.944483,N,11606.697477,W,14.5,69.7,130510,,,A*7C
$GPRMC,222551.2,A,3349.944038,N,11606.683297,W,12.2,88.0,130510,,,A*74
$GPRMC,222555.2,A,3349.941296,N,11606.660750,W,14.7,91.6,130510,,,A*7D
$GPRMC,222558.2,A,3349.939142,N,11606.650537,W,11.9,89.4,130510,,,A*75
$GPRMC,222601.2,A,3349.942816,N,11606.637477,W,13.6,73.0,130510,,,A*76
$GPRMC,222604.2,A,3349.947512,N,11606.623236,W,14.5,70.8,130510,,,A*76
$GPRMC,222607.2,A,3349.947229,N,11606.606713,W,17.1,94.4,130510,,,A*7E
$GPRMC,222610.2,A,3349.945657,N,11606.592986,W,15.8,102.3,130510,,,A*49
$GPRMC,222613.9,A,3349.943678,N,11606.573166,W,15.7,92.7,130510,,,A*70
$GPRMC,222616.9,A,3349.943401,N,11606.563458,W,11.5,95.2,130510,,,A*74
$GPRMC,222619.9,A,3349.937768,N,11606.552954,W,10.4,113.6,130510,,,A*4C
$GPRMC,222622.2,A,3349.937708,N,11606.544439,W,11.3,104.6,130510,,,A*48
$GPRMC,222625.2,A,3349.932087,N,11606.530894,W,14.9,107.2,130510,,,A*4A
$GPRMC,222628.2,A,3349.926724,N,11606.524505,W,8.4,125.7,130510,,,A*79
$GPRMC,222631.2,A,3349.920740,N,11606.521034,W,9.3,148.6,130510,,,A*7B
$GPRMC,222634.2,A,3349.912742,N,11606.520162,W,9.3,165.7,130510,,,A*70
$GPRMC,222637.2,A,3349.900830,N,11606.515123,W,15.3,152.7,130510,,,A*40
$GPRMC,222640.2,A,3349.890028,N,11606.507407,W,16.9,150.8,130510,,,A*4D
$GPRMC,222643.2,A,3349.874863,N,11606.497596,W,21.7,148.5,130510,,,A*4C
$GPRMC,222646.2,A,3349.870444,N,11606.498157,W,9.7,161.2,130510,,,A*74
$GPRMC,222649.2,A,3349.862778,N,11606.496795,W,11.0,168.6,130510,,,A*41
$GPRMC,222652.2,A,3349.851861,N,11606.494336,W,12.4,163.1,130510,,,A*48
$GPRMC,222655.2,A,3349.843623,N,11606.482939,W,13.8,132.1,130510,,,A*4F
$GPRMC,222658.2,A,3349.839734,N,11606.474007,W,12.3,138.5,130510,,,A*41
$GPRMC,222701.2,A,3349.836792,N,11606.467569,W,12.7,129.4,130510,,,A*45
$GPRMC,222704.2,A,3349.833266,N,11606.466715,W,5.7,149.1,130510,,,A*76
$GPRMC,222707.2,A,3349.825401,N,11606.464959,W,7.0,153.1,130510,,,A*7F
$GPRMC,222710.2,A,3349.822976,N,11606.461363,W,4.5,121.2,130510,,,A*75
$GPRMC,222713.2,A,3349.824115,N,11606.446658,W,9.5,98.2,130510,,,A*4B
$GPRMC,222716.2,A,3349.818364,N,11606.433940,W,11.5,122.4,130510,,,A*4E
$GPRMC,222719.2,A,3349.811275,N,11606.424730,W,11.9,129.0,130510,,,A*45
$GPRMC,222722.2,A,3349.804237,N,11606.424081,W,8.0,153.9,130510,,,A*77
$GPRMC,222725.2,A,3349.793631,N,11606.432203,W,9.4,207.9,130510,,,A*7B
$GPRMC,222728.2,A,3349.783829,N,11606.431684,W,10.6,184.6,130510,,,A*45
$GPRMC,222731.2,A,3349.774689,N,11606.436701,W,7.4,187.4,130510,,,A*7F
$GPRMC,222734.2,A,3349.767486,N,11606.428966,W,9.0,144.2,130510,,,A*76
$GPRMC,222737.2,A,3349.766499,N,11606.417471,W,12.4,116.9,130510,,,A*4F
$GPRMC,222740.2,A,3349.760420,N,11606.403066,W,15.3,121.5,130510,,,A*44
$GPRMC,222743.2,A,3349.759122,N,11606.387280,W,15.1,102.8,130510,,,A*45
$GPRMC,222746.2,A,3349.757505,N,11606.374196,W,12.7,110.5,130510,,,A*48
$GPRMC,222749.2,A,3349.753724,N,11606.362986,W,10.3,102.9,130510,,,A*45
$GPRMC,222752.2,A,3349.754860,N,11606.359402,W,5.1,100.1,130510,,,A*72
$GPRMC,222802.2,A,3349.750709,N,11606.340169,W,8.2,106.0,130510,,,A*75
$GPRMC,222805.2,A,3349.750695,N,11606.332209,W,8.2,100.2,130510,,,A*72
$GPRMC,222808.2,A,3349.750868,N,11606.324851,W,7.4,91.1,130510,,,A*40
$GPRMC,222811.2,A,3349.749772,N,11606.309859,W,12.4,87.7,130510,,,A*76
$GPRMC,222814.2,A,3349.749875,N,11606.295892,W,13.4,85.4,130510,,,A*78
$GPRMC,222817.2,A,3349.747516,N,11606.282849,W,14.4,90.8,130510,,,A*72
$GPRMC,222820.2,A,3349.755992,N,11606.268459,W,16.6,65.8,130510,,,A*76
$GPRMC,222823.2,A,3349.761301,N,11606.255940,W,15.1,78.3,130510,,,A*7A
$GPRMC,222827.2,A,3349.762334,N,11606.236278,W,14.5,82.7,130510,,,A*7A
$GPRMC,222830.2,A,3349.760594,N,11606.219487,W,14.0,91.0,130510,,,A*79
$GPRMC,222833.2,A,3349.760340,N,11606.205302,W,12.2,103.2,130510,,,A*4E
$GPRMC,222836.2,A,3349.757108,N,11606.193623,W,11.2,111.3,130510,,,A*4A
$GPRMC,222839.2,A,3349.752026,N,11606.179514,W,12.2,118.4,130510,,,A*43
$GPRMC,222842.2,A,3349.748307,N,11606.167804,W,11.7,97.9,130510,,,A*7A
$GPRMC,222845.2,A,3349.745613,N,11606.154724,W,11.6,99.0,130510,,,A*7B
$GPRMC,222848.2,A,3349.737718,N,11606.144212,W,11.3,122.6,130510,,,A*4A
$GPRMC,222851.2,A,3349.729854,N,11606.133936,W,12.2,120.4,130510,,,A*45
$GPRMC,222854.2,A,3349.724877,N,11606.122603,W,12.7,112.6,130510,,,A*43
$GPRMC,222857.2,A,3349.722498,N,11606.111285,W,11.4,98.2,130510,,,A*76
$GPRMC,222900.2,A,3349.728373,N,11606.102390,W,9.7,75.1,130510,,,A*40
$GPRMC,222903.2,A,3349.740870,N,11606.095114,W,12.1,50.9,130510,,,A*77
$GPRMC,222906.2,A,3349.748583,N,11606.089334,W,11.3,40.9,130510,,,A*76
$GPRMC,222909.2,A,3349.753937,N,11606.080451,W,11.0,46.7,130510,,,A*76
$GPRMC,222912.2,A,3349.759441,N,11606.071893,W,10.2,49.6,130510,,,A*7B
$GPRMC,222915.2,A,3349.764002,N,11606.061901,W,11.4,54.0,130510,,,A*77
$GPRMC,222918.2,A,3349.758450,N,11606.050505,W,12.2,87.8,130510,,,A*7F
$GPRMC,222921.2,A,3349.764384,N,11606.044911,W,9.8,64.6,130510,,,A*4B
$GPRMC,222924.2,A,3349.768221,N,11606.036031,W,10.6,66.5,130510,,,A*75
$GPRMC,222927.2,A,3349.768067,N,11606.024203,W,9.1,76.5,130510,,,A*48
$GPRMC,222930.2,A,3349.768430,N,11606.018280,W,7.8,80.9,130510,,,A*4E
$GPRMC,222933.2,A,3349.770253,N,11606.009302,W,10.6,74.7,130510,,,A*71
$GPRMC,222936.2,A,3349.773514,N,11606.000635,W,9.0,63.6,130510,,,A*42
$GPRMC,222939.2,A,3349.772841,N,11605.981706,W,15.2,84.1,130510,,,A*72
$GPRMC,222942.2,A,3349.773090,N,11605.967601,W,15.7,83.7,130510,,,A*71
$GPRMC,222945.2,A,3349.775150,N,11605.952591,W,14.7,80.6,130510,,,A*72
$GPRMC,222948.2,A,3349.775481,N,11605.936278,W,14.6,77.2,130510,,,A*79
$GPRMC,222951.2,A,3349.779624,N,11605.917549,W,16.0,75.9,130510,,,A*7B
$GPRMC,222954.2,A,3349.783547,N,11605.902349,W,15.9,72.2,130510,,,A*79
$GPRMC,222957.2,A,3349.787419,N,11605.888439,W,15.4,69.7,130510,,,A*75
$GPRMC,223000.2,A,3349.787016,N,11605.877169,W,11.5,91.3,130510,,,A*72
$GPRMC,223003.2,A,3349.784271,N,11605.863047,W,12.1,98.9,130510,,,A*7D
$GPRMC,223006.2,A,3349.784643,N,11605.855621,W,9.0,81.8,130510,,,A*4C
$GPRMC,223009.2,A,3349.793757,N,11605.853933,W,8.9,33.0,130510,,,A*42
$GPRMC,223012.2,A,3349.803202,N,11605.850838,W,9.2,19.2,130510,,,A*42
$GPRMC,223015.2,A,3349.813850,N,11605.854935,W,10.4,358.1,130510,,,A*4A
$GPRMC,223018.2,A,3349.824326,N,11605.859183,W,10.5,342.0,130510,,,A*4A
$GPRMC,223021.2,A,3349.829647,N,11605.866376,W,9.6,337.0,130510,,,A*72
$GPRMC,223024.2,A,3349.838513,N,11605.865457,W,7.5,32.3,130510,,,A*4A
$GPRMC,223027.2,A,3349.843045,N,11605.856225,W,9.7,65.2,130510,,,A*4F
$GPRMC,223030.0,A,3349.843763,N,11605.850224,W,9.3,81.5,130510,,,A*46
$GPRMC,223034.2,A,3349.842744,N,11605.841535,W,4.9,92.2,130510,,,A*41
$GPRMC,223037.2,A,3349.842956,N,11605.835116,W,5.3,83.4,130510,,,A*44
$GPRMC,223040.2,A,3349.844128,N,11605.830505,W,4.9,91.8,130510,,,A*44
$GPRMC,223043.2,A,3349.841674,N,11605.825311,W,5.6,113.1,130510,,,A*77
$GPRMC,223046.2,A,3349.839219,N,11605.823452,W,5.2,142.3,130510,,,A*76
$GPRMC,223049.2,A,3349.829853,N,11605.820939,W,8.8,158.5,130510,,,A*75
$GPRMC,223052.2,A,3349.819830,N,11605.818612,W,10.7,157.8,130510,,,A*40
$GPRMC,223055.9,A,3349.803691,N,11605.808020,W,12.3,150.5,130510,,,A*48
$GPRMC,223058.2,A,3349.796267,N,11605.802954,W,13.1,145.2,130510,,,A*40
$GPRMC,223101.2,A,3349.790121,N,11605.798024,W,9.5,143.3,130510,,,A*70
$GPRMC,223104.2,A,3349.790510,N,11605.795150,W,4.5,121.0,130510,,,A*76
$GPRMC,223107.2,A,3349.787768,N,11605.790308,W,5.3,118.5,130510,,,A*7C
$GPRMC,223110.2,A,3349.785334,N,11605.785717,W,6.2,136.0,130510,,,A*70
$GPRMC,223113.2,A,3349.779881,N,11605.782459,W,6.5,156.1,130510,,,A*7B
$GPRMC,223116.2,A,3349.775386,N,11605.780870,W,5.8,161.1,130510,,,A*71
$GPRMC,223119.2,A,3349.770062,N,11605.775294,W,6.6,143.9,130510,,,A*7D
$GPRMC,223122.2,A,3349.768301,N,11605.770129,W,6.1,124.8,130510,,,A*7D
$GPRMC,223125.2,A,3349.764048,N,11605.762543,W,8.1,120.1,130510,,,A*70
$GPRMC,223128.2,A,3349.759120,N,11605.752948,W,10.2,121.8,130510,,,A*4A
$GPRMC,223131.2,A,3349.754390,N,11605.741668,W,12.2,110.8,130510,,,A*49
$GPRMC,223134.2,A,3349.755667,N,11605.728231,W,13.1,83.9,130510,,,A*7F
$GPRMC,223137.2,A,3349.757757,N,11605.715965,W,12.1,79.1,130510,,,A*74
$GPRMC,223140.2,A,3349.759621,N,11605.707614,W,9.0,74.8,130510,,,A*4F
$GPRMC,223143.2,A,3349.763035,N,11605.701937,W,7.6,65.8,130510,,,A*46
$GPRMC,223146.2,A,3349.766733,N,11605.694511,W,7.3,60.5,130510,,,A*4F
$GPRMC,223149.2,A,3349.772191,N,11605.688488,W,8.4,57.1,130510,,,A*4F
$GPRMC,223152.2,A,3349.775227,N,11605.680930,W,8.8,58.0,130510,,,A*48
$GPRMC,223155.2,A,3349.779320,N,11605.673146,W,8.7,54.7,130510,,,A*44
$GPRMC,223158.2,A,3349.785684,N,11605.665150,W,9.1,54.1,130510,,,A*40
$GPRMC,223201.2,A,3349.790403,N,11605.657530,W,9.2,53.9,130510,,,A*49
$GPRMC,223204.2,A,3349.794794,N,11605.649546,W,9.3,57.4,130510,,,A*43
$GPRMC,223207.2,A,3349.800489,N,11605.645495,W,8.6,48.1,130510,,,A*41
$GPRMC,223210.2,A,3349.805257,N,11605.638225,W,8.6,45.5,130510,,,A*49
$GPRMC,223213.2,A,3349.810597,N,11605.632121,W,8.0,52.0,130510,,,A*4D
$GPRMC,223216.2,A,3349.814975,N,11605.624962,W,8.5,52.1,130510,,,A*40
$GPRMC,223219.2,A,3349.819701,N,11605.617446,W,9.2,52.9,130510,,,A*4A
$GPRMC,223222.2,A,3349.824827,N,11605.608196,W,9.9,55.1,130510,,,A*45
$GPRMC,223225.2,A,3349.830646,N,11605.603347,W,8.5,33.7,130510,,,A*40
$GPRMC,223228.2,A,3349.838021,N,11605.596524,W,10.3,36.4,130510,,,A*77
$GPRMC,223231.2,A,3349.851120,N,11605.597693,W,11.7,18.3,130510,,,A*70
$GPRMC,223234.2,A,3349.856075,N,11605.589645,W,11.7,33.3,130510,,,A*7E
$GPRMC,223237.2,A,3349.863095,N,11605.579922,W,11.3,42.8,130510,,,A*7D
$GPRMC,223240.2,A,3349.870012,N,11605.574247,W,9.9,34.6,130510,,,A*49
$GPRMC,223243.2,A,3349.878151,N,11605.571111,W,9.5,22.5,130510,,,A*49
$GPRMC,223246.2,A,3349.890227,N,11605.571236,W,12.0,10.1,130510,,,A*74
$GPRMC,223249.2,A,3349.899189,N,11605.571385,W,10.3,358.4,130510,,,A*47
$GPRMC,223252.2,A,3349.907858,N,11605.571008,W,9.2,18.1,130510,,,A*43
$GPRMC,223255.2,A,3349.915082,N,11605.567870,W,8.7,4.8,130510,,,A*78
$GPRMC,223258.2,A,3349.922140,N,11605.567239,W,8.3,11.2,130510,,,A*43
$GPRMC,223301.2,A,3349.930423,N,11605.561368,W,10.6,30.7,130510,,,A*74
$GPRMC,223304.9,A,3349.940967,N,11605.552697,W,12.0,38.0,130510,,,A*7E
$GPRMC,223307.2,A,3349.944126,N,11605.546869,W,9.8,56.2,130510,,,A*4D
$GPRMC,223310.2,A,3349.945970,N,11605.533486,W,12.2,72.1,130510,,,A*7B
$GPRMC,223313.0,A,3349.949645,N,11605.523751,W,11.8,60.1,130510,,,A*7D
$GPRMC,223316.2,A,3349.955464,N,11605.510216,W,13.0,61.2,130510,,,A*78
$GPRMC,223319.2,A,3349.959035,N,11605.498336,W,12.3,68.9,130510,,,A*79
$GPRMC,223322.2,A,3349.959200,N,11605.487377,W,10.5,94.7,130510,,,A*77
$GPRMC,223325.2,A,3349.959115,N,11605.478944,W,9.8,89.9,130510,,,A*4A
$GPRMC,223328.2,A,3349.960187,N,11605.466940,W,12.2,83.0,130510,,,A*7E
$GPRMC,223331.2,A,3349.959152,N,11605.455546,W,10.0,92.9,130510,,,A*77
$GPRMC,223334.2,A,3349.956529,N,11605.446776,W,10.1,104.3,130510,,,A*43
$GPRMC,223337.2,A,3349.954131,N,11605.435841,W,6.8,91.2,130510,,,A*42
$GPRMC,223340.2,A,3349.954964,N,11605.430299,W,8.6,90.3,130510,,,A*40
$GPRMC,223343.2,A,3349.950559,N,11605.421616,W,11.2,120.6,130510,,,A*45
$GPRMC,223346.2,A,3349.944537,N,11605.411884,W,12.2,122.9,130510,,,A*45
$GPRMC,223349.2,A,3349.940074,N,11605.403543,W,9.5,123.5,130510,,,A*79
$GPRMC,223352.2,A,3349.934622,N,11605.394912,W,10.2,133.9,130510,,,A*46
$GPRMC,223355.2,A,3349.929643,N,11605.386802,W,11.8,134.4,130510,,,A*48
$GPRMC,223358.2,A,3349.925143,N,11605.378077,W,10.8,127.4,130510,,,A*46
$GPRMC,223401.2,A,3349.920105,N,11605.369425,W,11.0,116.4,130510,,,A*42
$GPRMC,223404.2,A,3349.915407,N,11605.360579,W,10.2,119.6,130510,,,A*49
$GPRMC,223408.2,A,3349.908836,N,11605.348216,W,10.6,124.6,130510,,,A*49
$GPRMC,223411.2,A,3349.905258,N,11605.343161,W,7.5,128.5,130510,,,A*7C
$GPRMC,223414.9,A,3349.900099,N,11605.333483,W,8.7,132.5,130510,,,A*70
$GPRMC,223417.9,A,3349.894168,N,11605.328074,W,10.2,135.7,130510,,,A*4F
$GPRMC,223420.9,A,3349.886130,N,11605.320242,W,11.0,131.8,130510,,,A*42
$GPRMC,223423.0,A,3349.882171,N,11605.315176,W,11.1,135.3,130510,,,A*45
$GPRMC,223426.2,A,3349.873895,N,11605.306291,W,12.4,147.0,130510,,,A*47
$GPRMC,223429.2,A,3349.867238,N,11605.297491,W,12.7,136.5,130510,,,A*4F
$GPRMC,223432.2,A,3349.859094,N,11605.289240,W,13.8,136.8,130510,,,A*4A
$GPRMC,223435.2,A,3349.851147,N,11605.280054,W,13.8,137.0,130510,,,A*4D
$GPRMC,223438.2,A,3349.842301,N,11605.272436,W,13.0,141.2,130510,,,A*44
$GPRMC,223441.2,A,3349.831962,N,11605.264551,W,13.9,146.1,130510,,,A*4B
$GPRMC,223444.2,A,3349.823517,N,11605.257408,W,11.0,157.2,130510,,,A*46
$GPRMC,223447.2,A,3349.816871,N,11605.251922,W,10.9,136.6,130510,,,A*46
$GPRMC,223450.2,A,3349.809505,N,11605.244794,W,10.4,130.8,130510,,,A*42
$GPRMC,223453.9,A,3349.803249,N,11605.233096,W,10.9,121.0,130510,,,A*4F
$GPRMC,223456.2,A,3349.799582,N,11605.226966,W,10.5,126.1,130510,,,A*45
$GPRMC,223459.2,A,3349.795300,N,11605.218551,W,10.4,105.7,130510,,,A*49
$GPRMC,223502.2,A,3349.792308,N,11605.208372,W,11.4,103.2,130510,,,A*4D
$GPRMC,223505.2,A,3349.790428,N,11605.198033,W,11.0,101.3,130510,,,A*46
$GPRMC,223508.2,A,3349.787725,N,11605.184092,W,14.0,101.8,130510,,,A*4B
$GPRMC,223511.2,A,3349.786330,N,11605.169674,W,13.6,92.2,130510,,,A*7F
$GPRMC,223514.2,A,3349.785416,N,11605.156764,W,12.7,99.3,130510,,,A*7C
$GPRMC,223517.2,A,3349.782303,N,11605.144019,W,12.8,109.1,130510,,,A*40
$GPRMC,223520.2,A,3349.778390,N,11605.131028,W,13.7,105.7,130510,,,A*4F
$GPRMC,223523.2,A,3349.775941,N,11605.119250,W,10.3,100.8,130510,,,A*4D
$GPRMC,223526.2,A,3349.774753,N,11605.113912,W,5.3,109.6,130510,,,A*70
$GPRMC,223529.2,A,3349.773490,N,11605.108444,W,5.4,111.3,130510,,,A*7B
$GPRMC,223532.2,A,3349.770206,N,11605.101835,W,8.2,114.3,130510,,,A*76
$GPRMC,223535.2,A,3349.767966,N,11605.091516,W,11.1,110.6,130510,,,A*44
$GPRMC,223538.2,A,3349.761458,N,11605.079327,W,13.0,117.2,130510,,,A*4D
$GPRMC,223541.2,A,3349.757478,N,11605.066184,W,13.7,113.0,130510,,,A*40
$GPRMC,223544.2,A,3349.760815,N,11605.060652,W,7.5,72.1,130510,,,A*4C
$GPRMC,223547.2,A,3349.765853,N,11605.054867,W,8.1,55.5,130510,,,A*4D
$GPRMC,223550.2,A,3349.765254,N,11605.039724,W,14.1,87.8,130510,,,A*7A
$GPRMC,223553.9,A,3349.766293,N,11605.023738,W,13.9,90.8,130510,,,A*75
$GPRMC,223556.9,A,3349.764384,N,11605.007168,W,14.4,93.6,130510,,,A*77
$GPRMC,223559.2,A,3349.767107,N,11604.999030,W,11.7,75.2,130510,,,A*70
$GPRMC,223602.2,A,3349.772035,N,11604.986921,W,14.0,64.4,130510,,,A*7A
$GPRMC,223605.2,A,3349.775194,N,11604.973051,W,12.8,75.1,130510,,,A*7F
$GPRMC,223608.2,A,3349.776845,N,11604.959357,W,12.7,76.3,130510,,,A*77
$GPRMC,223611.2,A,3349.782824,N,11604.947081,W,14.1,56.6,130510,,,A*73
$GPRMC,223614.2,A,3349.789606,N,11604.933156,W,15.7,59.3,130510,,,A*76
$GPRMC,223617.2,A,3349.796427,N,11604.920229,W,14.5,59.9,130510,,,A*7A
$GPRMC,223620.2,A,3349.801177,N,11604.908498,W,12.6,65.2,130510,,,A*78
$GPRMC,223623.2,A,3349.802523,N,11604.897944,W,10.3,82.9,130510,,,A*73
$GPRMC,223626.9,A,3349.802899,N,11604.886100,W,7.2,82.4,130510,,,A*43
$GPRMC,223629.2,A,3349.801837,N,11604.881206,W,7.4,99.6,130510,,,A*4C
$GPRMC,223632.2,A,3349.803908,N,11604.873708,W,8.4,68.8,130510,,,A*40
$GPRMC,223635.2,A,3349.808435,N,11604.861990,W,12.9,69.4,130510,,,A*78
$GPRMC,223638.2,A,3349.811914,N,11604.849261,W,11.8,74.6,130510,,,A*70
$GPRMC,223641.2,A,3349.817044,N,11604.838339,W,12.7,56.8,130510,,,A*7C
$GPRMC,223644.2,A,3349.825087,N,11604.827614,W,14.5,47.1,130510,,,A*7E
$GPRMC,223647.2,A,3349.833296,N,11604.815580,W,15.1,45.9,130510,,,A*78
$GPRMC,223650.2,A,3349.842766,N,11604.808120,W,12.8,26.0,130510,,,A*72
$GPRMC,223653.2,A,3349.852182,N,11604.804212,W,11.6,18.4,130510,,,A*76
$GPRMC,223656.2,A,3349.862608,N,11604.801204,W,11.7,18.8,130510,,,A*7A
$GPRMC,223659.2,A,3349.868081,N,11604.796015,W,12.9,29.0,130510,,,A*7C
$GPRMC,223702.2,A,3349.874757,N,11604.788972,W,12.7,51.1,130510,,,A*75
$GPRMC,223705.2,A,3349.878240,N,11604.778932,W,10.7,67.2,130510,,,A*72
$GPRMC,223708.2,A,3349.881550,N,11604.768863,W,8.7,71.0,130510,,,A*47
$GPRMC,223711.2,A,3349.879358,N,11604.762273,W,6.1,121.2,130510,,,A*79
$GPRMC,223714.2,A,3349.875058,N,11604.759331,W,5.7,127.5,130510,,,A*78
$GPRMC,223717.2,A,3349.873827,N,11604.753119,W,8.3,79.7,130510,,,A*4E
$GPRMC,223720.2,A,3349.877617,N,11604.742353,W,11.9,61.3,130510,,,A*70
$GPRMC,223723.2,A,3349.881716,N,11604.733055,W,9.3,58.4,130510,,,A*47
$GPRMC,223726.2,A,3349.886145,N,11604.725456,W,9.2,49.6,130510,,,A*46
$GPRMC,223729.2,A,3349.891703,N,11604.719721,W,8.8,30.9,130510,,,A*4D
$GPRMC,223732.2,A,3349.897127,N,11604.713146,W,9.2,41.6,130510,,,A*4E
$GPRMC,223735.2,A,3349.905167,N,11604.705707,W,9.7,46.9,130510,,,A*4E
$GPRMC,223738.2,A,3349.909958,N,11604.698328,W,8.5,49.6,130510,,,A*44
$GPRMC,223741.2,A,3349.914679,N,11604.692804,W,8.8,46.3,130510,,,A*42
$GPRMC,223744.2,A,3349.920494,N,11604.687922,W,8.0,36.3,130510,,,A*4F
$GPRMC,223747.2,A,3349.925710,N,11604.685059,W,6.6,28.6,130510,,,A*43
$GPRMC,223750.2,A,3349.929555,N,11604.682241,W,6.0,33.8,130510,,,A*44
$GPRMC,223753.2,A,3349.932495,N,11604.678493,W,6.1,38.3,130510,,,A*4D
$GPRMC,223756.2,A,3349.935782,N,11604.678247,W,4.9,33.5,130510,,,A*42
$GPRMC,223759.2,A,3349.938269,N,11604.673598,W,5.0,38.3,130510,,,A*4B
$GPRMC,223802.2,A,3349.942701,N,11604.670455,W,5.7,27.3,130510,,,A*46
$GPRMC,223805.2,A,3349.948205,N,11604.670100,W,6.3,26.2,130510,,,A*48
$GPRMC,223808.2,A,3349.951226,N,11604.666795,W,5.8,30.5,130510,,,A*49
$GPRMC,223811.2,A,3349.955931,N,11604.663038,W,5.7,28.7,130510,,,A*49
$GPRMC,223814.2,A,3349.959825,N,11604.660736,W,5.0,31.1,130510,,,A*47
$GPRMC,223817.2,A,3349.962748,N,11604.656980,W,4.9,37.6,130510,,,A*47
$GPRMC,223820.2,A,3349.966805,N,11604.653927,W,5.5,37.2,130510,,,A*40
$GPRMC,223823.2,A,3349.970447,N,11604.649132,W,6.3,42.5,130510,,,A*49
$GPRMC,223826.2,A,3349.974092,N,11604.646016,W,5.7,31.9,130510,,,A*43
$GPRMC,223829.2,A,3349.977723,N,11604.643662,W,4.9,27.3,130510,,,A*40
$GPRMC,223852.2,A,3349.982668,N,11604.617653,W,6.9,117.1,130510,,,A*79
$GPRMC,223855.2,A,3349.977238,N,11604.607803,W,8.4,127.9,130510,,,A*77
$GPRMC,223858.2,A,3349.971543,N,11604.603958,W,7.9,139.1,130510,,,A*79
$GPRMC,223901.2,A,3349.966574,N,11604.602778,W,6.5,153.6,130510,,,A*7D
$GPRMC,223904.2,A,3349.962540,N,11604.596987,W,7.4,133.5,130510,,,A*7E
$GPRMC,223907.2,A,3349.969243,N,11604.583964,W,12.6,66.5,130510,,,A*7C
$GPRMC,223910.2,A,3349.973913,N,11604.571721,W,14.4,65.0,130510,,,A*7F
$GPRMC,223913.2,A,3349.973601,N,11604.558370,W,13.3,80.7,130510,,,A*77
$GPRMC,223916.2,A,3349.975085,N,11604.547995,W,12.2,78.4,130510,,,A*75
$GPRMC,223919.2,A,3349.981338,N,11604.538674,W,12.1,52.0,130510,,,A*73
$GPRMC,223922.2,A,3349.987623,N,11604.532850,W,9.9,42.0,130510,,,A*43
$GPRMC,223925.2,A,3349.993692,N,11604.530718,W,7.5,31.8,130510,,,A*44
$GPRMC,223934.2,A,3350.004969,N,11604.528684,W,6.3,17.1,130510,,,A*47
$GPRMC,223937.2,A,3350.011105,N,11604.527787,W,6.4,8.7,130510,,,A*70
$GPRMC,223940.2,A,3350.015828,N,11604.529201,W,5.5,353.2,130510,,,A*7D
$GPRMC,223943.9,A,3350.019123,N,11604.529358,W,5.7,5.1,130510,,,A*77
$GPRMC,223946.2,A,3350.023940,N,11604.526285,W,6.2,27.9,130510,,,A*4D
$GPRMC,223949.2,A,3350.029293,N,11604.521378,W,6.7,34.6,130510,,,A*41
$GPRMC,223952.2,A,3350.033509,N,11604.514851,W,6.3,53.8,130510,,,A*49
$GPRMC,223956.2,A,3350.034437,N,11604.506252,W,4.7,72.2,130510,,,A*43
$GPRMC,223959.2,A,3350.033380,N,11604.500114,W,5.0,89.4,130510,,,A*43
$GPRMC,224002.2,A,3350.032552,N,11604.494181,W,5.3,94.4,130510,,,A*44
$GPRMC,224005.2,A,3350.027907,N,11604.490646,W,4.9,122.4,130510,,,A*74
$GPRMC,224008.2,A,3350.027015,N,11604.484931,W,6.0,108.6,130510,,,A*78
$GPRMC,224011.2,A,3350.025218,N,11604.479910,W,5.3,113.3,130510,,,A*73
$GPRMC,224014.2,A,3350.022303,N,11604.473829,W,6.9,113.2,130510,,,A*73
$GPRMC,224017.2,A,3350.020473,N,11604.465012,W,7.8,110.0,130510,,,A*74
$GPRMC,224020.2,A,3350.017521,N,11604.456562,W,8.9,115.2,130510,,,A*79
$GPRMC,224023.2,A,3350.012122,N,11604.446807,W,10.4,122.8,130510,,,A*4D
$GPRMC,224026.2,A,3350.005958,N,11604.440922,W,10.1,143.3,130510,,,A*42
$GPRMC,224029.2,A,3349.998874,N,11604.439514,W,9.7,170.6,130510,,,A*7B
$GPRMC,224032.2,A,3349.990895,N,11604.438750,W,8.5,169.4,130510,,,A*7C
$GPRMC,224035.2,A,3349.984179,N,11604.435222,W,8.6,150.5,130510,,,A*70
$GPRMC,224038.2,A,3349.977767,N,11604.427330,W,9.6,132.2,130510,,,A*7B
$GPRMC,224041.2,A,3349.974302,N,11604.419140,W,9.7,120.3,130510,,,A*7A
$GPRMC,224044.2,A,3349.971066,N,11604.408882,W,10.1,115.1,130510,,,A*46
$GPRMC,224047.2,A,3349.969760,N,11604.400978,W,7.9,112.0,130510,,,A*79
$GPRMC,224211.2,A,3350.020580,N,11604.411792,W,5.5,306.3,130510,,,A*78
$GPRMC,224228.2,A,3350.039704,N,11604.403444,W,6.0,30.0,130510,,,A*4C
$GPRMC,224231.2,A,3350.044408,N,11604.392580,W,11.2,60.7,130510,,,A*71
$GPRMC,224234.9,A,3350.050181,N,11604.373955,W,14.7,65.0,130510,,,A*77
$GPRMC,224238.2,A,3350.054811,N,11604.358955,W,14.1,68.1,130510,,,A*77
$GPRMC,224241.9,A,3350.062053,N,11604.340022,W,14.3,59.4,130510,,,A*7C
$GPRMC,224244.9,A,3350.068370,N,11604.323424,W,16.9,65.8,130510,,,A*7D
$GPRMC,224247.9,A,3350.072521,N,11604.310338,W,14.0,69.8,130510,,,A*7A
$GPRMC,224251.2,A,3350.076108,N,11604.298037,W,12.7,74.7,130510,,,A*72
$GPRMC,224255.2,A,3350.077435,N,11604.282436,W,11.9,88.3,130510,,,A*78
$GPRMC,224258.2,A,3350.076375,N,11604.276342,W,5.6,93.5,130510,,,A*4E
$GPRMC,224304.2,A,3350.072990,N,11604.267775,W,5.8,106.7,130510,,,A*72
$GPRMC,224307.2,A,3350.069389,N,11604.261038,W,6.9,110.7,130510,,,A*74
$GPRMC,224310.2,A,3350.068259,N,11604.253983,W,6.7,102.1,130510,,,A*7C
$GPRMC,224314.2,A,3350.069780,N,11604.240432,W,9.8,78.0,130510,,,A*40
$GPRMC,224317.2,A,3350.074644,N,11604.227653,W,12.2,73.2,130510,,,A*7B
$GPRMC,224321.2,A,3350.077037,N,11604.212544,W,11.1,76.1,130510,,,A*7A
$GPRMC,224324.2,A,3350.074461,N,11604.201751,W,11.2,103.6,130510,,,A*48
$GPRMC,224327.2,A,3350.068764,N,11604.188964,W,14.1,119.7,130510,,,A*46
$GPRMC,224330.2,A,3350.066603,N,11604.176798,W,11.1,109.8,130510,,,A*49
$GPRMC,224333.2,A,3350.057723,N,11604.167270,W,10.6,138.7,130510,,,A*43
$GPRMC,224336.2,A,3350.051039,N,11604.158723,W,11.7,135.7,130510,,,A*4E
$GPRMC,224339.2,A,3350.041297,N,11604.150299,W,14.1,139.0,130510,,,A*42
$GPRMC,224342.2,A,3350.029721,N,11604.140929,W,15.6,147.9,130510,,,A*4F
$GPRMC,224345.2,A,3350.017638,N,11604.129831,W,18.8,137.9,130510,,,A*4F
$GPRMC,224348.2,A,3350.006480,N,11604.117115,W,18.5,136.5,130510,,,A*41
$GPRMC,224351.2,A,3349.994638,N,11604.103588,W,19.4,135.5,130510,,,A*44
$GPRMC,224354.2,A,3349.984254,N,11604.090392,W,17.6,123.4,130510,,,A*42
$GPRMC,224357.2,A,3349.976689,N,11604.074459,W,17.5,118.1,130510,,,A*4C
$GPRMC,224400.2,A,3349.971884,N,11604.060080,W,15.8,106.7,130510,,,A*4E
$GPRMC,224403.9,A,3349.972732,N,11604.036704,W,16.7,90.5,130510,,,A*7F
$GPRMC,224406.9,A,3349.973848,N,11604.023521,W,14.9,86.2,130510,,,A*74
$GPRMC,224409.2,A,3349.975274,N,11604.014410,W,13.7,85.5,130510,,,A*79
$GPRMC,224412.2,A,3349.979212,N,11604.000567,W,13.1,70.3,130510,,,A*71
$GPRMC,224415.2,A,3349.983726,N,11603.987335,W,14.3,67.3,130510,,,A*72
$GPRMC,224418.2,A,3349.988176,N,11603.971106,W,15.9,71.4,130510,,,A*77
$GPRMC,224421.2,A,3349.994496,N,11603.956140,W,16.1,63.9,130510,,,A*79
$GPRMC,224424.2,A,3350.000727,N,11603.940540,W,17.0,63.6,130510,,,A*75
$GPRMC,224427.2,A,3350.006508,N,11603.924182,W,16.0,58.6,130510,,,A*7E
$GPRMC,224430.2,A,3350.019674,N,11603.911848,W,19.0,40.4,130510,,,A*73
$GPRMC,224433.2,A,3350.033722,N,11603.899659,W,20.1,35.6,130510,,,A*7E
$GPRMC,224436.2,A,3350.046640,N,11603.889522,W,21.3,26.4,130510,,,A*71
$GPRMC,224439.2,A,3350.063033,N,11603.882705,W,22.6,20.6,130510,,,A*75
$GPRMC,224442.2,A,3350.080704,N,11603.873956,W,23.6,21.7,130510,,,A*70
$GPRMC,224445.2,A,3350.097298,N,11603.864846,W,22.1,23.0,130510,,,A*74
$GPRMC,224448.2,A,3350.113422,N,11603.858241,W,20.8,16.1,130510,,,A*7D
$GPRMC,224451.2,A,3350.130845,N,11603.854720,W,20.4,8.4,130510,,,A*41
$GPRMC,224454.9,A,3350.150026,N,11603.849750,W,19.0,6.3,130510,,,A*48
$GPRMC,224457.2,A,3350.163080,N,11603.848873,W,19.8,3.8,130510,,,A*45
$GPRMC,224501.2,A,3350.184228,N,11603.848165,W,21.6,354.4,130510,,,A*48
$GPRMC,224504.0,A,3350.203620,N,11603.852476,W,22.6,353.3,130510,,,A*40
$GPRMC,224507.2,A,3350.222634,N,11603.857876,W,20.9,348.8,130510,,,A*42
$GPRMC,224510.0,A,3350.237350,N,11603.861806,W,19.9,349.3,130510,,,A*47
$GPRMC,224513.9,A,3350.259800,N,11603.862388,W,20.2,359.7,130510,,,A*41
