NMEA Sentence Code,UTC Time,Status,Latitude,Latitude Direction,Longitude,Longitude Direction,Speed (knots),Track Angle (degrees true),Date,MagneticVariation,Magnetic Variation Direction,[FAA Mode]-Optional,Checksum
$GPRMC,202110.7,A,3337.564679,N,11736.719721,W,6.8,111.6,010910,,,A*79
$GPRMC,202113.7,A,3337.565898,N,11736.709797,W,9.3,78.3,010910,,,A*49
$GPRMC,202116.7,A,3337.573413,N,11736.699239,W,14.5,46.3,010910,,,A*7A
$GPRMC,202119.7,A,3337.589048,N,11736.685730,W,22.3,37.4,010910,,,A*79
$GPRMC,202122.7,A,3337.608928,N,11736.669616,W,28.6,35.8,010910,,,A*72
$GPRMC,202125.7,A,3337.632824,N,11736.649122,W,32.5,36.1,010910,,,A*71
$GPRMC,202128.7,A,3337.658508,N,11736.627547,W,36.6,35.2,010910,,,A*7B
$GPRMC,202131.7,A,3337.685357,N,11736.606740,W,37.0,33.3,010910,,,A*79
$GPRMC,202134.7,A,3337.713290,N,11736.581186,W,40.0,37.5,010910,,,A*7A
$GPRMC,202137.7,A,3337.742821,N,11736.557521,W,40.2,35.5,010910,,,A*7F
$GPRMC,202140.7,A,3337.769938,N,11736.533536,W,40.9,35.7,010910,,,A*72
$GPRMC,202143.7,A,3337.797236,N,11736.508993,W,41.2,35.9,010910,,,A*7A
$GPRMC,202146.7,A,3337.821321,N,11736.486088,W,38.0,38.4,010910,,,A*72
$GPRMC,202149.7,A,3337.840323,N,11736.462194,W,34.9,44.5,010910,,,A*71
$GPRMC,202152.7,A,3337.855424,N,11736.438313,W,30.2,49.1,010910,,,A*7B
$GPRMC,202155.7,A,3337.868639,N,11736.418262,W,25.3,50.9,010910,,,A*7C
$GPRMC,202158.7,A,3337.876540,N,11736.401590,W,18.5,54.9,010910,,,A*7D
$GPRMC,202201.7,A,3337.882954,N,11736.391094,W,14.4,50.5,010910,,,A*7A
$GPRMC,202204.7,A,3337.888548,N,11736.385080,W,12.3,42.0,010910,,,A*73
$GPRMC,202225.7,A,3337.881337,N,11736.388703,W,4.7,53.9,010910,,,A*4C
$GPRMC,202228.7,A,3337.891556,N,11736.379372,W,13.0,26.9,010910,,,A*7E
$GPRMC,202231.7,A,3337.903547,N,11736.378098,W,13.7,0.2,010910,,,A*42
$GPRMC,202234.7,A,3337.919302,N,11736.387358,W,19.7,333.2,010910,,,A*4D
$GPRMC,202237.7,A,3337.941299,N,11736.398089,W,25.1,338.5,010910,,,A*44
$GPRMC,202240.7,A,3337.965767,N,11736.405217,W,27.8,344.1,010910,,,A*44
$GPRMC,202243.7,A,3337.992769,N,11736.412935,W,31.9,350.0,010910,,,A*4E
$GPRMC,202246.7,A,3338.020993,N,11736.416132,W,32.9,355.4,010910,,,A*46
$GPRMC,202249.7,A,3338.050883,N,11736.417578,W,34.2,359.4,010910,,,A*44
$GPRMC,202252.7,A,3338.078377,N,11736.418132,W,32.8,358.6,010910,,,A*4E
$GPRMC,202255.7,A,3338.102891,N,11736.418506,W,31.1,359.0,010910,,,A*48
$GPRMC,202258.7,A,3338.125079,N,11736.420707,W,26.4,358.9,010910,,,A*4D
$GPRMC,202301.7,A,3338.143758,N,11736.421014,W,21.2,355.7,010910,,,A*42
$GPRMC,202304.7,A,3338.154580,N,11736.421305,W,13.1,356.3,010910,,,A*40
$GPRMC,202334.7,A,3338.164458,N,11736.425584,W,5.8,358.2,010910,,,A*7E
$GPRMC,202337.7,A,3338.172449,N,11736.426524,W,8.8,356.3,010910,,,A*71
$GPRMC,202340.7,A,3338.185577,N,11736.429130,W,11.7,349.3,010910,,,A*42
$GPRMC,202343.7,A,3338.202975,N,11736.432822,W,15.0,352.0,010910,,,A*49
$GPRMC,202346.7,A,3338.231017,N,11736.444804,W,25.5,339.6,010910,,,A*49
$GPRMC,202349.7,A,3338.258251,N,11736.457034,W,26.6,338.2,010910,,,A*45
$GPRMC,202352.7,A,3338.278865,N,11736.470073,W,21.1,333.0,010910,,,A*4F
$GPRMC,202355.7,A,3338.289720,N,11736.477356,W,12.5,336.0,010910,,,A*4A
$GPRMC,202358.7,A,3338.296087,N,11736.479676,W,7.8,337.9,010910,,,A*7B
$GPRMC,202401.7,A,3338.301253,N,11736.479459,W,7.1,356.8,010910,,,A*74
$GPRMC,202404.7,A,3338.311448,N,11736.473136,W,14.1,35.7,010910,,,A*71
$GPRMC,202407.7,A,3338.323084,N,11736.460143,W,20.1,47.6,010910,,,A*74
$GPRMC,202410.7,A,3338.339689,N,11736.443075,W,24.5,45.1,010910,,,A*72
$GPRMC,202413.7,A,3338.356846,N,11736.425661,W,27.5,40.3,010910,,,A*72
$GPRMC,202416.7,A,3338.378491,N,11736.407266,W,30.6,35.6,010910,,,A*7C
$GPRMC,202419.7,A,3338.395466,N,11736.392536,W,23.6,31.7,010910,,,A*76
$GPRMC,202422.7,A,3338.408798,N,11736.383491,W,19.6,28.1,010910,,,A*74
$GPRMC,202425.7,A,3338.412303,N,11736.380975,W,9.5,31.1,010910,,,A*40
$GPRMC,202446.7,A,3338.412349,N,11736.379203,W,12.1,34.4,010910,,,A*79
$GPRMC,202449.7,A,3338.424821,N,11736.369600,W,20.3,32.7,010910,,,A*76
$GPRMC,202452.7,A,3338.441346,N,11736.355902,W,25.9,33.7,010910,,,A*79
$GPRMC,202455.7,A,3338.461896,N,11736.339429,W,29.3,34.7,010910,,,A*75
$GPRMC,202458.7,A,3338.481900,N,11736.321588,W,30.3,35.8,010910,,,A*7D
$GPRMC,202501.7,A,3338.503106,N,11736.301926,W,32.3,36.9,010910,,,A*7F
$GPRMC,202504.7,A,3338.524876,N,11736.280444,W,32.9,39.8,010910,,,A*74
$GPRMC,202507.7,A,3338.541321,N,11736.257398,W,31.6,46.8,010910,,,A*75
$GPRMC,202510.7,A,3338.552499,N,11736.236513,W,28.5,53.5,010910,,,A*75
$GPRMC,202513.7,A,3338.562291,N,11736.215781,W,22.3,58.7,010910,,,A*76
$GPRMC,202516.7,A,3338.571073,N,11736.199746,W,18.6,60.0,010910,,,A*73
$GPRMC,202519.7,A,3338.570343,N,11736.202391,W,4.5,47.8,010910,,,A*41
$GPRMC,202537.7,A,3338.576891,N,11736.198434,W,11.1,26.5,010910,,,A*7D
$GPRMC,202540.7,A,3338.588177,N,11736.199403,W,13.2,350.7,010910,,,A*49
$GPRMC,202543.7,A,3338.601025,N,11736.208289,W,16.2,332.1,010910,,,A*46
$GPRMC,202546.7,A,3338.627092,N,11736.228505,W,26.9,330.1,010910,,,A*40
$GPRMC,202549.7,A,3338.652262,N,11736.247392,W,29.3,329.2,010910,,,A*4F
$GPRMC,202552.7,A,3338.701973,N,11736.279558,W,46.9,330.3,010910,,,A*4E
$GPRMC,202555.7,A,3338.745154,N,11736.306672,W,51.6,333.0,010910,,,A*4F
$GPRMC,202558.7,A,3338.787105,N,11736.328276,W,54.2,335.0,010910,,,A*43
$GPRMC,202601.7,A,3338.829568,N,11736.352190,W,56.0,334.9,010910,,,A*46
$GPRMC,202604.7,A,3338.872904,N,11736.376005,W,57.5,333.6,010910,,,A*4C
$GPRMC,202607.7,A,3338.916158,N,11736.406790,W,58.4,328.8,010910,,,A*4C
$GPRMC,202610.7,A,3338.954525,N,11736.440560,W,58.4,323.9,010910,,,A*47
$GPRMC,202613.7,A,3338.987884,N,11736.478165,W,56.7,315.9,010910,,,A*4E
$GPRMC,202616.7,A,3339.020147,N,11736.520928,W,56.4,311.8,010910,,,A*43
$GPRMC,202619.7,A,3339.048677,N,11736.565540,W,56.4,306.0,010910,,,A*4B
$GPRMC,202622.7,A,3339.071809,N,11736.612886,W,57.1,300.8,010910,,,A*40
$GPRMC,202625.7,A,3339.092794,N,11736.664246,W,57.7,295.2,010910,,,A*47
$GPRMC,202628.7,A,3339.107735,N,11736.716929,W,57.5,290.4,010910,,,A*4B
$GPRMC,202631.7,A,3339.121945,N,11736.772190,W,56.6,286.2,010910,,,A*45
$GPRMC,202634.7,A,3339.133056,N,11736.828854,W,58.5,283.2,010910,,,A*41
$GPRMC,202637.7,A,3339.143688,N,11736.884458,W,58.7,281.8,010910,,,A*4C
$GPRMC,202640.7,A,3339.154797,N,11736.940534,W,58.6,282.5,010910,,,A*48
$GPRMC,202643.7,A,3339.165391,N,11736.995736,W,57.7,282.5,010910,,,A*4D
$GPRMC,202646.7,A,3339.174159,N,11737.053692,W,58.6,283.4,010910,,,A*4D
$GPRMC,202649.7,A,3339.187124,N,11737.111350,W,59.3,286.6,010910,,,A*4B
$GPRMC,202652.7,A,3339.203236,N,11737.164810,W,58.8,289.2,010910,,,A*42
$GPRMC,202655.7,A,3339.221358,N,11737.219136,W,58.1,290.1,010910,,,A*4A
$GPRMC,202658.7,A,3339.239285,N,11737.272792,W,58.4,290.9,010910,,,A*47
$GPRMC,202701.7,A,3339.257474,N,11737.328621,W,59.0,290.7,010910,,,A*46
$GPRMC,202704.7,A,3339.276305,N,11737.385243,W,60.4,290.9,010910,,,A*46
$GPRMC,202707.7,A,3339.294508,N,11737.441907,W,61.7,290.4,010910,,,A*49
$GPRMC,202710.7,A,3339.314808,N,11737.502072,W,64.1,290.4,010910,,,A*45
$GPRMC,202713.7,A,3339.335952,N,11737.563236,W,65.1,291.1,010910,,,A*4B
$GPRMC,202716.7,A,3339.356940,N,11737.626771,W,67.0,291.2,010910,,,A*4C
$GPRMC,202719.7,A,3339.377079,N,11737.687525,W,65.7,291.6,010910,,,A*4A
$GPRMC,202722.7,A,3339.400133,N,11737.747695,W,64.1,295.0,010910,,,A*4A
$GPRMC,202725.7,A,3339.422122,N,11737.802464,W,61.2,295.8,010910,,,A*41
$GPRMC,202728.7,A,3339.447711,N,11737.855688,W,60.5,300.0,010910,,,A*48
$GPRMC,202731.7,A,3339.476186,N,11737.905205,W,59.2,303.6,010910,,,A*47
$GPRMC,202734.7,A,3339.506903,N,11737.949579,W,57.6,307.2,010910,,,A*4F
$GPRMC,202737.7,A,3339.537561,N,11737.993672,W,58.2,309.9,010910,,,A*47
$GPRMC,202740.7,A,3339.569580,N,11738.033234,W,57.3,314.1,010910,,,A*43
$GPRMC,202743.7,A,3339.602293,N,11738.074198,W,57.3,314.8,010910,,,A*44
$GPRMC,202746.7,A,3339.636791,N,11738.114303,W,58.4,315.2,010910,,,A*45
$GPRMC,202749.7,A,3339.669469,N,11738.155580,W,56.9,313.8,010910,,,A*43
$GPRMC,202752.7,A,3339.706733,N,11738.195682,W,59.1,314.2,010910,,,A*4A
$GPRMC,202755.7,A,3339.738903,N,11738.240264,W,61.3,310.8,010910,,,A*4D
$GPRMC,202758.7,A,3339.771460,N,11738.288720,W,61.3,309.4,010910,,,A*40
$GPRMC,202801.7,A,3339.801695,N,11738.337821,W,62.0,306.6,010910,,,A*45
$GPRMC,202804.7,A,3339.825237,N,11738.391178,W,63.0,300.3,010910,,,A*41
$GPRMC,202807.7,A,3339.848030,N,11738.447538,W,62.8,296.3,010910,,,A*47
$GPRMC,202810.7,A,3339.868653,N,11738.504646,W,62.1,294.5,010910,,,A*41
$GPRMC,202813.7,A,3339.890256,N,11738.561464,W,62.6,294.9,010910,,,A*4E
$GPRMC,202816.7,A,3339.913397,N,11738.617771,W,62.0,295.5,010910,,,A*43
$GPRMC,202819.7,A,3339.936612,N,11738.673342,W,61.4,296.5,010910,,,A*41
$GPRMC,202822.7,A,3339.958809,N,11738.730608,W,63.7,295.5,010910,,,A*4A
$GPRMC,202825.7,A,3339.984431,N,11738.783785,W,61.4,298.9,010910,,,A*47
$GPRMC,202828.7,A,3340.006419,N,11738.837006,W,60.7,296.8,010910,,,A*4C
$GPRMC,202831.7,A,3340.028196,N,11738.891754,W,60.1,296.5,010910,,,A*4D
$GPRMC,202834.7,A,3340.050064,N,11738.945365,W,59.6,296.4,010910,,,A*49
$GPRMC,202837.7,A,3340.072163,N,11738.997997,W,59.7,296.2,010910,,,A*43
$GPRMC,202840.7,A,3340.093419,N,11739.052848,W,60.7,295.6,010910,,,A*4B
$GPRMC,202843.7,A,3340.114125,N,11739.107200,W,61.4,295.8,010910,,,A*47
$GPRMC,202846.7,A,3340.133750,N,11739.161556,W,61.1,295.3,010910,,,A*49
$GPRMC,202849.7,A,3340.156894,N,11739.217386,W,61.9,296.5,010910,,,A*46
$GPRMC,202852.7,A,3340.179684,N,11739.272555,W,61.6,296.3,010910,,,A*4C
$GPRMC,202855.7,A,3340.201849,N,11739.327645,W,61.6,295.8,010910,,,A*43
$GPRMC,202858.7,A,3340.223713,N,11739.381783,W,61.3,295.9,010910,,,A*4D
$GPRMC,202901.7,A,3340.244921,N,11739.437021,W,61.2,295.4,010910,,,A*47
$GPRMC,202904.7,A,3340.265174,N,11739.492375,W,63.3,295.4,010910,,,A*47
$GPRMC,202907.7,A,3340.287055,N,11739.549875,W,64.2,295.6,010910,,,A*42
$GPRMC,202910.7,A,3340.308082,N,11739.608234,W,64.4,295.6,010910,,,A*47
$GPRMC,202913.7,A,3340.331757,N,11739.666132,W,65.7,295.7,010910,,,A*4F
$GPRMC,202916.7,A,3340.355374,N,11739.725664,W,66.7,296.0,010910,,,A*48
$GPRMC,202919.7,A,3340.378639,N,11739.785928,W,67.2,295.5,010910,,,A*4B
$GPRMC,202922.7,A,3340.402691,N,11739.845998,W,66.3,295.3,010910,,,A*45
$GPRMC,202925.7,A,3340.427380,N,11739.905890,W,66.5,295.8,010910,,,A*41
$GPRMC,202928.7,A,3340.450189,N,11739.965364,W,65.5,295.4,010910,,,A*4E
$GPRMC,202931.7,A,3340.473899,N,11740.023258,W,64.3,296.9,010910,,,A*4D
$GPRMC,202934.7,A,3340.498739,N,11740.079943,W,63.3,296.9,010910,,,A*41
$GPRMC,202937.7,A,3340.529101,N,11740.132191,W,63.1,303.6,010910,,,A*4D
$GPRMC,202940.7,A,3340.564627,N,11740.180349,W,63.4,309.6,010910,,,A*46
$GPRMC,202943.7,A,3340.601061,N,11740.227117,W,63.3,313.7,010910,,,A*4B
$GPRMC,202946.7,A,3340.640830,N,11740.269574,W,63.7,319.1,010910,,,A*44
$GPRMC,202949.7,A,3340.683082,N,11740.308022,W,63.7,323.6,010910,,,A*4B
$GPRMC,202952.7,A,3340.728385,N,11740.343524,W,64.2,327.7,010910,,,A*4E
$GPRMC,202955.7,A,3340.777944,N,11740.375152,W,65.4,332.1,010910,,,A*41
$GPRMC,202958.7,A,3340.826708,N,11740.406150,W,66.1,332.3,010910,,,A*44
$GPRMC,203001.7,A,3340.876127,N,11740.434854,W,64.9,333.5,010910,,,A*4F
$GPRMC,203004.7,A,3340.923066,N,11740.463954,W,63.8,332.0,010910,,,A*4E
$GPRMC,203007.7,A,3340.969036,N,11740.495748,W,63.9,330.2,010910,,,A*4D
$GPRMC,203010.7,A,3341.010676,N,11740.530518,W,63.5,325.0,010910,,,A*4C
$GPRMC,203013.7,A,3341.051238,N,11740.566446,W,61.6,324.0,010910,,,A*4D
$GPRMC,203016.7,A,3341.088347,N,11740.604272,W,59.6,320.3,010910,,,A*4F
$GPRMC,203019.7,A,3341.123624,N,11740.646445,W,59.2,314.0,010910,,,A*44
$GPRMC,203022.7,A,3341.155702,N,11740.688441,W,58.0,310.9,010910,,,A*40
$GPRMC,203025.7,A,3341.187467,N,11740.732955,W,58.8,309.7,010910,,,A*4E
$GPRMC,203028.7,A,3341.219519,N,11740.777968,W,59.7,310.5,010910,,,A*44
$GPRMC,203031.7,A,3341.251932,N,11740.824750,W,60.2,310.2,010910,,,A*41
$GPRMC,203034.7,A,3341.284643,N,11740.871639,W,61.1,310.1,010910,,,A*4A
$GPRMC,203037.7,A,3341.317283,N,11740.919068,W,62.2,309.8,010910,,,A*46
$GPRMC,203040.7,A,3341.349651,N,11740.967550,W,63.3,309.9,010910,,,A*40
$GPRMC,203043.7,A,3341.383494,N,11741.016178,W,64.1,309.6,010910,,,A*44
$GPRMC,203046.7,A,3341.418041,N,11741.065094,W,63.3,310.0,010910,,,A*44
$GPRMC,203049.7,A,3341.452369,N,11741.113124,W,63.4,310.0,010910,,,A*41
$GPRMC,203052.7,A,3341.486615,N,11741.161679,W,63.9,310.2,010910,,,A*49
$GPRMC,203055.7,A,3341.521961,N,11741.210491,W,64.7,310.3,010910,,,A*47
$GPRMC,203058.7,A,3341.556687,N,11741.260305,W,65.9,310.2,010910,,,A*4E
$GPRMC,203101.7,A,3341.591559,N,11741.309304,W,65.4,310.7,010910,,,A*4F
$GPRMC,203104.7,A,3341.626122,N,11741.360403,W,64.8,309.9,010910,,,A*49
$GPRMC,203107.7,A,3341.660646,N,11741.409235,W,63.4,309.8,010910,,,A*4C
$GPRMC,203110.7,A,3341.692205,N,11741.458825,W,62.5,307.7,010910,,,A*4A
$GPRMC,203113.7,A,3341.723060,N,11741.509306,W,62.8,306.1,010910,,,A*46
$GPRMC,203116.7,A,3341.753900,N,11741.561112,W,63.6,304.9,010910,,,A*47
$GPRMC,203119.7,A,3341.780239,N,11741.614790,W,61.8,302.2,010910,,,A*4B
$GPRMC,203122.7,A,3341.803928,N,11741.669479,W,62.1,299.2,010910,,,A*4B
$GPRMC,203125.7,A,3341.827727,N,11741.723233,W,60.6,298.8,010910,,,A*42
$GPRMC,203128.7,A,3341.852351,N,11741.775868,W,60.4,299.8,010910,,,A*4C
$GPRMC,203131.7,A,3341.876693,N,11741.828080,W,60.5,299.6,010910,,,A*4F
$GPRMC,203134.7,A,3341.900633,N,11741.880748,W,61.3,299.3,010910,,,A*43
$GPRMC,203137.7,A,3341.926035,N,11741.935873,W,62.8,299.0,010910,,,A*47
$GPRMC,203140.7,A,3341.950644,N,11741.990132,W,63.1,299.8,010910,,,A*45
$GPRMC,203143.7,A,3341.976795,N,11742.045050,W,62.9,299.6,010910,,,A*4F
$GPRMC,203146.7,A,3342.003697,N,11742.099170,W,62.2,299.1,010910,,,A*4F
$GPRMC,203149.7,A,3342.028227,N,11742.152007,W,61.8,299.3,010910,,,A*4A
$GPRMC,203152.7,A,3342.053237,N,11742.204725,W,61.3,299.7,010910,,,A*45
$GPRMC,203155.7,A,3342.078223,N,11742.256264,W,61.6,299.9,010910,,,A*42
$GPRMC,203158.7,A,3342.103622,N,11742.309911,W,62.2,299.6,010910,,,A*4D
$GPRMC,203201.7,A,3342.129582,N,11742.365279,W,63.3,299.6,010910,,,A*4C
$GPRMC,203204.7,A,3342.154762,N,11742.420126,W,63.4,299.4,010910,,,A*45
$GPRMC,203207.7,A,3342.181106,N,11742.473988,W,61.9,300.1,010910,,,A*4B
$GPRMC,203210.7,A,3342.207761,N,11742.526847,W,60.7,300.5,010910,,,A*4F
$GPRMC,203213.7,A,3342.232066,N,11742.578504,W,58.9,300.2,010910,,,A*49
$GPRMC,203216.7,A,3342.257646,N,11742.629413,W,58.0,299.9,010910,,,A*48
$GPRMC,203219.7,A,3342.280911,N,11742.679918,W,57.7,298.9,010910,,,A*4A
$GPRMC,203222.7,A,3342.304302,N,11742.730944,W,58.4,298.9,010910,,,A*4E
$GPRMC,203225.7,A,3342.327201,N,11742.782460,W,59.2,298.2,010910,,,A*44
$GPRMC,203228.7,A,3342.350954,N,11742.834500,W,59.6,298.7,010910,,,A*46
$GPRMC,203231.7,A,3342.376331,N,11742.886244,W,60.9,301.0,010910,,,A*4E
$GPRMC,203234.7,A,3342.404957,N,11742.935869,W,60.4,304.6,010910,,,A*41
$GPRMC,203237.7,A,3342.436807,N,11742.983717,W,61.5,307.8,010910,,,A*41
$GPRMC,203240.7,A,3342.472093,N,11743.026054,W,59.7,313.7,010910,,,A*40
$GPRMC,203243.7,A,3342.509152,N,11743.067074,W,59.8,318.2,010910,,,A*44
$GPRMC,203246.7,A,3342.550907,N,11743.102238,W,60.6,323.9,010910,,,A*4A
$GPRMC,203249.7,A,3342.592607,N,11743.132500,W,58.7,329.4,010910,,,A*46
$GPRMC,203252.7,A,3342.637139,N,11743.160544,W,57.7,331.9,010910,,,A*46
$GPRMC,203255.7,A,3342.683067,N,11743.181701,W,58.2,338.0,010910,,,A*42
$GPRMC,203258.7,A,3342.728253,N,11743.199126,W,59.4,342.3,010910,,,A*49
$GPRMC,203301.7,A,3342.776998,N,11743.211589,W,58.9,346.9,010910,,,A*43
$GPRMC,203304.7,A,3342.823015,N,11743.220842,W,58.4,350.6,010910,,,A*48
$GPRMC,203307.7,A,3342.868070,N,11743.224854,W,57.9,354.8,010910,,,A*4C
$GPRMC,203310.7,A,3342.915613,N,11743.223963,W,58.5,1.5,010910,,,A*4D
$GPRMC,203313.7,A,3342.965331,N,11743.219753,W,57.8,5.2,010910,,,A*49
$GPRMC,203316.7,A,3343.012255,N,11743.211548,W,57.2,6.1,010910,,,A*4D
$GPRMC,203319.7,A,3343.059152,N,11743.204946,W,57.0,6.1,010910,,,A*4D
$GPRMC,203322.7,A,3343.106646,N,11743.199073,W,56.6,5.6,010910,,,A*47
$GPRMC,203325.7,A,3343.155544,N,11743.193498,W,57.6,6.0,010910,,,A*48
$GPRMC,203328.7,A,3343.204651,N,11743.186266,W,56.8,6.3,010910,,,A*4A
$GPRMC,203331.7,A,3343.249553,N,11743.179773,W,56.0,6.0,010910,,,A*40
$GPRMC,203334.7,A,3343.297657,N,11743.174828,W,56.8,5.9,010910,,,A*4F
$GPRMC,203337.7,A,3343.345913,N,11743.168781,W,57.3,5.7,010910,,,A*48
$GPRMC,203340.7,A,3343.393555,N,11743.163431,W,58.4,5.3,010910,,,A*42
$GPRMC,203343.7,A,3343.442318,N,11743.157049,W,58.7,6.0,010910,,,A*4A
$GPRMC,203346.7,A,3343.491218,N,11743.151513,W,58.6,5.5,010910,,,A*4B
$GPRMC,203349.7,A,3343.540955,N,11743.146199,W,58.9,5.5,010910,,,A*44
$GPRMC,203352.7,A,3343.588922,N,11743.137303,W,58.8,6.8,010910,,,A*42
$GPRMC,203355.7,A,3343.639299,N,11743.130216,W,59.7,5.5,010910,,,A*45
$GPRMC,203358.7,A,3343.688165,N,11743.123534,W,59.3,6.3,010910,,,A*46
$GPRMC,203401.7,A,3343.737836,N,11743.117652,W,60.2,6.3,010910,,,A*48
$GPRMC,203404.7,A,3343.786434,N,11743.110078,W,59.3,6.5,010910,,,A*4D
$GPRMC,203407.7,A,3343.835195,N,11743.102942,W,59.3,6.0,010910,,,A*41
$GPRMC,203410.7,A,3343.883268,N,11743.095919,W,59.5,6.5,010910,,,A*49
$GPRMC,203413.7,A,3343.933587,N,11743.089417,W,60.0,5.9,010910,,,A*48
$GPRMC,203416.7,A,3343.981851,N,11743.083404,W,59.8,5.8,010910,,,A*49
$GPRMC,203419.7,A,3344.032241,N,11743.077982,W,60.4,5.7,010910,,,A*4A
$GPRMC,203422.7,A,3344.082867,N,11743.071913,W,60.4,6.3,010910,,,A*4E
$GPRMC,203425.7,A,3344.134173,N,11743.064528,W,61.0,6.4,010910,,,A*4B
$GPRMC,203428.7,A,3344.185964,N,11743.058700,W,61.4,5.7,010910,,,A*41
$GPRMC,203431.7,A,3344.238254,N,11743.052920,W,61.5,5.0,010910,,,A*44
$GPRMC,203434.7,A,3344.290183,N,11743.048719,W,61.8,1.8,010910,,,A*44
$GPRMC,203437.7,A,3344.342981,N,11743.050323,W,61.6,357.9,010910,,,A*48
$GPRMC,203440.7,A,3344.394090,N,11743.054618,W,60.8,354.6,010910,,,A*40
$GPRMC,203443.7,A,3344.443679,N,11743.063479,W,60.5,350.1,010910,,,A*40
$GPRMC,203446.7,A,3344.489672,N,11743.077326,W,59.3,346.0,010910,,,A*4A
$GPRMC,203449.7,A,3344.536789,N,11743.092798,W,59.1,344.7,010910,,,A*48
$GPRMC,203452.7,A,3344.583308,N,11743.115283,W,60.6,339.4,010910,,,A*44
$GPRMC,203455.7,A,3344.626828,N,11743.144433,W,60.5,333.7,010910,,,A*45
$GPRMC,203458.7,A,3344.672051,N,11743.175118,W,60.4,330.0,010910,,,A*44
$GPRMC,203501.7,A,3344.713945,N,11743.207218,W,59.8,325.8,010910,,,A*4C
$GPRMC,203504.7,A,3344.752752,N,11743.243688,W,59.3,321.4,010910,,,A*4A
$GPRMC,203507.7,A,3344.788846,N,11743.282735,W,59.1,317.6,010910,,,A*4B
$GPRMC,203510.7,A,3344.823287,N,11743.324367,W,57.9,313.5,010910,,,A*4B
$GPRMC,203513.7,A,3344.853626,N,11743.367959,W,57.8,309.6,010910,,,A*49
$GPRMC,203516.7,A,3344.882752,N,11743.415126,W,58.1,306.2,010910,,,A*4D
$GPRMC,203519.7,A,3344.907510,N,11743.463869,W,58.3,301.1,010910,,,A*4F
$GPRMC,203522.7,A,3344.932119,N,11743.510239,W,56.0,303.0,010910,,,A*48
$GPRMC,203525.7,A,3344.956611,N,11743.560174,W,57.4,301.1,010910,,,A*49
$GPRMC,203528.7,A,3344.980986,N,11743.610011,W,58.0,300.8,010910,,,A*4B
$GPRMC,203531.7,A,3345.005404,N,11743.660274,W,57.7,300.8,010910,,,A*4F
$GPRMC,203534.7,A,3345.029319,N,11743.710223,W,56.8,302.7,010910,,,A*48
$GPRMC,203537.7,A,3345.057612,N,11743.756227,W,56.1,307.6,010910,,,A*47
$GPRMC,203540.7,A,3345.091052,N,11743.798598,W,57.4,314.1,010910,,,A*4F
$GPRMC,203543.7,A,3345.127412,N,11743.836299,W,56.6,319.1,010910,,,A*43
$GPRMC,203546.7,A,3345.165269,N,11743.869647,W,56.3,323.9,010910,,,A*43
$GPRMC,203549.7,A,3345.205819,N,11743.896907,W,55.6,329.5,010910,,,A*4F
$GPRMC,203552.7,A,3345.244360,N,11743.925318,W,54.8,328.0,010910,,,A*43
$GPRMC,203555.7,A,3345.285650,N,11743.943268,W,52.1,336.6,010910,,,A*4F
$GPRMC,203558.7,A,3345.325287,N,11743.953329,W,49.7,345.0,010910,,,A*4C
$GPRMC,203601.7,A,3345.366676,N,11743.961465,W,49.1,351.1,010910,,,A*42
$GPRMC,203604.7,A,3345.409503,N,11743.966148,W,50.7,355.9,010910,,,A*47
$GPRMC,203607.7,A,3345.451202,N,11743.966322,W,50.9,0.8,010910,,,A*4D
$GPRMC,203610.7,A,3345.494419,N,11743.961119,W,52.2,5.4,010910,,,A*43
$GPRMC,203613.7,A,3345.539354,N,11743.953646,W,55.3,8.1,010910,,,A*4A
$GPRMC,203616.7,A,3345.587420,N,11743.943476,W,57.4,9.7,010910,,,A*4C
$GPRMC,203619.7,A,3345.637416,N,11743.935081,W,58.2,9.1,010910,,,A*4C
$GPRMC,203622.7,A,3345.688604,N,11743.927759,W,60.0,6.2,010910,,,A*45
$GPRMC,203625.7,A,3345.739765,N,11743.925527,W,61.0,0.2,010910,,,A*41
$GPRMC,203628.7,A,3345.788319,N,11743.929495,W,58.4,354.9,010910,,,A*4A
$GPRMC,203631.7,A,3345.838282,N,11743.941121,W,60.4,349.2,010910,,,A*4D
$GPRMC,203634.7,A,3345.890845,N,11743.956795,W,63.9,345.7,010910,,,A*43
$GPRMC,203637.7,A,3345.936476,N,11743.974995,W,59.6,342.6,010910,,,A*4F
$GPRMC,203640.7,A,3345.978473,N,11744.008045,W,60.2,331.2,010910,,,A*4F
$GPRMC,203643.7,A,3346.019275,N,11744.039945,W,59.6,325.4,010910,,,A*47
$GPRMC,203646.7,A,3346.056536,N,11744.078532,W,58.8,318.3,010910,,,A*46
$GPRMC,203649.7,A,3346.089418,N,11744.121055,W,57.1,312.4,010910,,,A*44
$GPRMC,203652.7,A,3346.118473,N,11744.164707,W,57.6,308.0,010910,,,A*43
$GPRMC,203655.7,A,3346.148058,N,11744.211487,W,58.9,306.6,010910,,,A*4E
$GPRMC,203658.7,A,3346.178385,N,11744.259769,W,60.0,305.9,010910,,,A*42
$GPRMC,203701.7,A,3346.208207,N,11744.309966,W,62.4,306.7,010910,,,A*4E
$GPRMC,203704.7,A,3346.238768,N,11744.359239,W,62.9,306.9,010910,,,A*43
$GPRMC,203707.7,A,3346.269106,N,11744.409181,W,62.7,306.8,010910,,,A*47
$GPRMC,203710.7,A,3346.298865,N,11744.458685,W,61.7,307.6,010910,,,A*48
$GPRMC,203713.7,A,3346.330300,N,11744.507715,W,62.5,307.9,010910,,,A*4D
$GPRMC,203716.7,A,3346.362920,N,11744.556650,W,62.2,308.6,010910,,,A*44
$GPRMC,203719.7,A,3346.395141,N,11744.602396,W,61.2,311.1,010910,,,A*4D
$GPRMC,203722.7,A,3346.429478,N,11744.647231,W,61.2,313.6,010910,,,A*42
$GPRMC,203725.7,A,3346.467460,N,11744.690634,W,61.4,316.4,010910,,,A*4C
$GPRMC,203728.7,A,3346.502788,N,11744.728873,W,57.5,319.0,010910,,,A*46
$GPRMC,203731.7,A,3346.540050,N,11744.764735,W,56.3,324.1,010910,,,A*47
$GPRMC,203734.7,A,3346.579920,N,11744.796540,W,58.0,326.9,010910,,,A*4C
$GPRMC,203737.7,A,3346.621516,N,11744.827635,W,58.7,327.3,010910,,,A*40
$GPRMC,203740.7,A,3346.665129,N,11744.851291,W,57.6,333.1,010910,,,A*4A
$GPRMC,203743.7,A,3346.715684,N,11744.865147,W,58.7,342.0,010910,,,A*49
$GPRMC,203746.7,A,3346.768628,N,11744.868611,W,60.9,351.6,010910,,,A*48
$GPRMC,203749.7,A,3346.819549,N,11744.874367,W,61.4,355.1,010910,,,A*4C
$GPRMC,203752.7,A,3346.866603,N,11744.866848,W,58.6,3.4,010910,,,A*4B
$GPRMC,203755.7,A,3346.912853,N,11744.859083,W,59.3,9.2,010910,,,A*4E
$GPRMC,203758.7,A,3346.960923,N,11744.844086,W,59.4,14.9,010910,,,A*79
$GPRMC,203801.7,A,3347.008122,N,11744.821223,W,59.6,21.5,010910,,,A*73
$GPRMC,203804.7,A,3347.047269,N,11744.792735,W,59.8,27.0,010910,,,A*79
$GPRMC,203807.7,A,3347.088754,N,11744.762049,W,60.3,31.0,010910,,,A*77
$GPRMC,203810.7,A,3347.131115,N,11744.728396,W,61.4,35.7,010910,,,A*7B
$GPRMC,203813.7,A,3347.170170,N,11744.692225,W,60.9,39.8,010910,,,A*78
$GPRMC,203816.7,A,3347.207149,N,11744.648717,W,62.3,45.4,010910,,,A*78
$GPRMC,203819.7,A,3347.241059,N,11744.602700,W,61.9,49.5,010910,,,A*79
$GPRMC,203822.7,A,3347.272249,N,11744.555953,W,60.8,52.6,010910,,,A*72
$GPRMC,203825.7,A,3347.301428,N,11744.509961,W,59.1,52.7,010910,,,A*7B
$GPRMC,203828.7,A,3347.331175,N,11744.461202,W,58.2,52.8,010910,,,A*74
$GPRMC,203831.7,A,3347.360997,N,11744.411731,W,59.6,53.8,010910,,,A*7A
$GPRMC,203834.7,A,3347.391404,N,11744.363060,W,59.3,53.3,010910,,,A*79
$GPRMC,203837.7,A,3347.422554,N,11744.312804,W,60.8,53.6,010910,,,A*79
$GPRMC,203840.7,A,3347.453615,N,11744.262338,W,61.6,54.5,010910,,,A*70
$GPRMC,203843.7,A,3347.483075,N,11744.210689,W,61.2,54.6,010910,,,A*73
$GPRMC,203846.7,A,3347.513682,N,11744.161014,W,60.9,53.7,010910,,,A*7B
$GPRMC,203849.7,A,3347.544062,N,11744.112942,W,59.0,53.3,010910,,,A*77
$GPRMC,203852.7,A,3347.573825,N,11744.064147,W,59.0,53.6,010910,,,A*7A
$GPRMC,203855.7,A,3347.604423,N,11744.016805,W,59.5,52.5,010910,,,A*79
$GPRMC,203858.7,A,3347.634206,N,11743.971492,W,58.6,52.7,010910,,,A*7B
$GPRMC,203901.7,A,3347.663500,N,11743.924828,W,57.9,53.3,010910,,,A*7D
$GPRMC,203904.7,A,3347.691944,N,11743.878144,W,57.3,52.7,010910,,,A*7D
$GPRMC,203907.7,A,3347.719764,N,11743.833663,W,56.2,53.4,010910,,,A*7C
$GPRMC,203910.7,A,3347.747143,N,11743.789587,W,55.3,53.5,010910,,,A*76
$GPRMC,203913.7,A,3347.775593,N,11743.744005,W,56.5,51.6,010910,,,A*77
$GPRMC,203916.7,A,3347.807409,N,11743.700984,W,56.9,47.0,010910,,,A*77
$GPRMC,203919.7,A,3347.843178,N,11743.662548,W,57.6,41.5,010910,,,A*7F
$GPRMC,203922.7,A,3347.882970,N,11743.626103,W,59.6,36.8,010910,,,A*72
$GPRMC,203925.7,A,3347.925433,N,11743.594290,W,60.2,32.0,010910,,,A*72
$GPRMC,203928.7,A,3347.971063,N,11743.569325,W,59.4,26.1,010910,,,A*7A
$GPRMC,203931.7,A,3348.019203,N,11743.548970,W,59.9,20.4,010910,,,A*79
$GPRMC,203934.7,A,3348.067634,N,11743.533974,W,59.1,14.4,010910,,,A*72
$GPRMC,203937.7,A,3348.117291,N,11743.520152,W,60.3,14.3,010910,,,A*7D
$GPRMC,203940.7,A,3348.166442,N,11743.506871,W,60.6,13.2,010910,,,A*7C
$GPRMC,203943.7,A,3348.215599,N,11743.493353,W,61.0,12.7,010910,,,A*7A
$GPRMC,203946.7,A,3348.266090,N,11743.479833,W,61.4,13.6,010910,,,A*7A
$GPRMC,203949.7,A,3348.314821,N,11743.465450,W,61.8,14.8,010910,,,A*72
$GPRMC,203952.7,A,3348.363455,N,11743.451038,W,61.0,15.1,010910,,,A*7A
$GPRMC,203955.7,A,3348.412312,N,11743.432671,W,59.8,18.7,010910,,,A*7E
$GPRMC,203958.7,A,3348.459310,N,11743.409283,W,60.2,23.2,010910,,,A*72
$GPRMC,204001.7,A,3348.505180,N,11743.382825,W,60.0,26.0,010910,,,A*74
$GPRMC,204004.7,A,3348.549295,N,11743.353340,W,60.8,27.4,010910,,,A*77
$GPRMC,204007.7,A,3348.593542,N,11743.324622,W,60.7,28.7,010910,,,A*7C
$GPRMC,204010.7,A,3348.639173,N,11743.295829,W,61.2,28.6,010910,,,A*74
$GPRMC,204013.7,A,3348.685489,N,11743.266298,W,61.2,28.7,010910,,,A*7D
$GPRMC,204016.7,A,3348.732137,N,11743.236468,W,61.3,28.3,010910,,,A*7C
$GPRMC,204019.7,A,3348.776192,N,11743.208283,W,60.6,28.5,010910,,,A*70
$GPRMC,204022.7,A,3348.818772,N,11743.180095,W,59.9,27.2,010910,,,A*7C
$GPRMC,204025.7,A,3348.863071,N,11743.153553,W,59.9,26.2,010910,,,A*73
$GPRMC,204028.7,A,3348.907607,N,11743.129397,W,60.7,23.9,010910,,,A*73
$GPRMC,204031.7,A,3348.953503,N,11743.107858,W,60.4,21.5,010910,,,A*74
$GPRMC,204034.7,A,3349.001045,N,11743.087944,W,60.7,20.0,010910,,,A*7B
$GPRMC,204037.7,A,3349.050341,N,11743.068848,W,61.7,18.0,010910,,,A*7D
$GPRMC,204040.7,A,3349.098583,N,11743.049957,W,61.1,17.1,010910,,,A*75
$GPRMC,204043.7,A,3349.147665,N,11743.035536,W,61.0,14.5,010910,,,A*78
$GPRMC,204046.7,A,3349.197027,N,11743.021677,W,60.7,12.7,010910,,,A*71
$GPRMC,204049.7,A,3349.247164,N,11743.009733,W,60.5,10.2,010910,,,A*78
$GPRMC,204052.7,A,3349.297813,N,11742.999908,W,59.8,8.7,010910,,,A*4A
$GPRMC,204055.7,A,3349.344376,N,11742.990150,W,57.2,7.9,010910,,,A*43
$GPRMC,204058.7,A,3349.390335,N,11742.982846,W,56.7,6.2,010910,,,A*43
$GPRMC,204101.7,A,3349.435209,N,11742.979087,W,55.9,5.9,010910,,,A*4C
$GPRMC,204104.7,A,3349.479299,N,11742.976736,W,54.3,3.0,010910,,,A*4E
$GPRMC,204107.7,A,3349.525805,N,11742.976379,W,56.1,1.3,010910,,,A*44
$GPRMC,204110.7,A,3349.570793,N,11742.975054,W,54.8,0.2,010910,,,A*46
$GPRMC,204113.7,A,3349.614015,N,11742.975841,W,53.4,358.1,010910,,,A*47
$GPRMC,204116.7,A,3349.659528,N,11742.980227,W,54.5,355.7,010910,,,A*4D
$GPRMC,204119.7,A,3349.704419,N,11742.986110,W,54.9,355.1,010910,,,A*43
$GPRMC,204122.7,A,3349.753796,N,11742.993719,W,57.1,353.4,010910,,,A*4E
$GPRMC,204125.7,A,3349.802293,N,11743.002113,W,57.8,352.8,010910,,,A*4A
$GPRMC,204128.7,A,3349.851021,N,11743.009670,W,58.6,353.0,010910,,,A*4B
$GPRMC,204131.7,A,3349.900812,N,11743.017266,W,59.7,353.2,010910,,,A*40
$GPRMC,204134.7,A,3349.951392,N,11743.023658,W,60.9,353.7,010910,,,A*4D
$GPRMC,204137.7,A,3350.002503,N,11743.030832,W,62.7,353.2,010910,,,A*4E
$GPRMC,204140.7,A,3350.054670,N,11743.038585,W,62.4,353.5,010910,,,A*47
$GPRMC,204143.7,A,3350.107853,N,11743.046097,W,63.6,352.7,010910,,,A*43
$GPRMC,204146.7,A,3350.160042,N,11743.055373,W,63.5,352.6,010910,,,A*46
$GPRMC,204149.7,A,3350.211745,N,11743.063713,W,63.6,353.0,010910,,,A*4F
$GPRMC,204152.7,A,3350.264100,N,11743.070247,W,64.2,355.4,010910,,,A*47
