NMEA Sentence Code,UTC Time,Status,Latitude,Latitude Direction,Longitude,Longitude Direction,Speed (knots),Track Angle (degrees true),Date,MagneticVariation,Magnetic Variation Direction,[FAA Mode]-Optional,Checksum
$GPRMC,220246,A,3326.4030,N,11737.1869,W,33.40,252.30,200310,,*3B
$GPRMC,220249,A,3326.3946,N,11737.2182,W,32.50,250.40,200310,,*31
$GPRMC,220252,A,3326.3840,N,11737.2464,W,29.60,244.00,200310,,*39
$GPRMC,220255,A,3326.3703,N,11737.2686,W,25.90,234.90,200310,,*35
$GPRMC,220258,A,3326.3599,N,11737.2866,W,21.50,235.80,200310,,*31
$GPRMC,220301,A,3326.3543,N,11737.3056,W,20.80,253.40,200310,,*31
$GPRMC,220304,A,3326.3513,N,11737.3269,W,22.60,268.10,200310,,*3E
$GPRMC,220307,A,3326.3614,N,11737.3483,W,25.10,296.50,200310,,*3E
$GPRMC,220310,A,3326.3721,N,11737.3697,W,24.90,298.80,200310,,*32
$GPRMC,220313,A,3326.3826,N,11737.3930,W,25.90,298.70,200310,,*35
$GPRMC,220316,A,3326.3927,N,11737.4156,W,24.20,298.00,200310,,*32
$GPRMC,220319,A,3326.4024,N,11737.4373,W,25.10,298.40,200310,,*33
$GPRMC,220322,A,3326.4134,N,11737.4593,W,26.20,300.30,200310,,*34
$GPRMC,220325,A,3326.4240,N,11737.4810,W,24.30,301.10,200310,,*35
$GPRMC,220328,A,3326.4343,N,11737.5010,W,23.90,302.50,200310,,*39
$GPRMC,220331,A,3326.4464,N,11737.5226,W,27.40,304.40,200310,,*3A
$GPRMC,220335,A,3326.4694,N,11737.5603,W,31.00,306.40,200310,,*31
$GPRMC,220338,A,3326.4874,N,11737.5827,W,31.70,312.30,200310,,*31
$GPRMC,220341,A,3326.5040,N,11737.6066,W,32.10,312.70,200310,,*3E
$GPRMC,220344,A,3326.5241,N,11737.6317,W,34.70,315.60,200310,,*3B
$GPRMC,220347,A,3326.5405,N,11737.6503,W,35.50,315.00,200310,,*38
$GPRMC,220350,A,3326.5617,N,11737.6745,W,34.30,314.80,200310,,*31
$GPRMC,220353,A,3326.5815,N,11737.6981,W,30.50,315.00,200310,,*33
$GPRMC,220356,A,3326.5986,N,11737.7186,W,27.10,314.80,200310,,*38
$GPRMC,220359,A,3326.6141,N,11737.7385,W,25.20,313.50,200310,,*3D
$GPRMC,220402,A,3326.6270,N,11737.7545,W,20.50,314.10,200310,,*3E
$GPRMC,220405,A,3326.6413,N,11737.7715,W,20.50,314.40,200310,,*38
$GPRMC,220408,A,3326.6543,N,11737.7843,W,21.20,317.00,200310,,*3C
$GPRMC,220411,A,3326.6630,N,11737.7950,W,22.00,312.50,200310,,*31
$GPRMC,220414,A,3326.6748,N,11737.8133,W,13.80,321.00,200310,,*37
$GPRMC,220417,A,3326.6786,N,11737.8202,W,9.10,311.00,200310,,*06
$GPRMC,220420,A,3326.6847,N,11737.8273,W,10.70,316.30,200310,,*3C
$GPRMC,220423,A,3326.6887,N,11737.8315,W,7.30,323.90,200310,,*0C
$GPRMC,220426,A,3326.6919,N,11737.8394,W,12.00,297.90,200310,,*3F
$GPRMC,220429,A,3326.7028,N,11737.8550,W,21.40,305.10,200310,,*32
$GPRMC,220432,A,3326.7152,N,11737.8690,W,24.10,312.20,200310,,*3E
$GPRMC,220435,A,3326.7303,N,11737.8883,W,21.50,308.50,200310,,*3E
$GPRMC,220438,A,3326.7396,N,11737.9054,W,19.60,303.10,200310,,*3B
$GPRMC,220441,A,3326.7523,N,11737.9222,W,20.50,307.40,200310,,*36
$GPRMC,220444,A,3326.7592,N,11737.9347,W,19.60,304.50,200310,,*30
$GPRMC,220447,A,3326.7693,N,11737.9524,W,18.10,302.90,200310,,*3E
$GPRMC,220450,A,3326.7790,N,11737.9692,W,16.80,301.90,200310,,*30
$GPRMC,220453,A,3326.7870,N,11737.9844,W,20.70,304.30,200310,,*32
$GPRMC,220456,A,3326.7979,N,11738.0039,W,23.70,303.10,200310,,*3D
$GPRMC,220459,A,3326.8128,N,11738.0282,W,28.00,302.80,200310,,*37
$GPRMC,220502,A,3326.8190,N,11738.0491,W,23.30,299.90,200310,,*35
$GPRMC,220505,A,3326.8288,N,11738.0659,W,18.10,307.20,200310,,*39
$GPRMC,220508,A,3326.8343,N,11738.0769,W,10.80,309.70,200310,,*3A
$GPRMC,220511,A,3326.8376,N,11738.0834,W,6.10,307.40,200310,,*00
$GPRMC,220514,A,3326.8406,N,11738.0903,W,11.20,296.80,200310,,*30
$GPRMC,220517,A,3326.8457,N,11738.1022,W,13.90,297.50,200310,,*39
$GPRMC,220520,A,3326.8530,N,11738.1180,W,20.50,293.90,200310,,*30
$GPRMC,220523,A,3326.8626,N,11738.1390,W,25.10,296.70,200310,,*3E
$GPRMC,220526,A,3326.8773,N,11738.1630,W,30.30,301.50,200310,,*3E
$GPRMC,220529,A,3326.8878,N,11738.1865,W,27.30,300.10,200310,,*38
$GPRMC,220532,A,3326.9008,N,11738.2126,W,30.10,301.40,200310,,*31
$GPRMC,220535,A,3326.9168,N,11738.2392,W,33.00,303.60,200310,,*3E
$GPRMC,220538,A,3326.9306,N,11738.2660,W,32.30,305.10,200310,,*32
$GPRMC,220541,A,3326.9495,N,11738.2907,W,31.00,312.60,200310,,*3E
$GPRMC,220544,A,3326.9662,N,11738.3123,W,26.30,314.10,200310,,*3A
$GPRMC,220547,A,3326.9788,N,11738.3273,W,23.10,310.40,200310,,*3C
$GPRMC,220550,A,3326.9904,N,11738.3463,W,26.60,305.00,200310,,*35
$GPRMC,220553,A,3327.0082,N,11738.3738,W,33.00,308.10,200310,,*3A
$GPRMC,220556,A,3327.0252,N,11738.3972,W,32.00,310.40,200310,,*3D
$GPRMC,220559,A,3327.0458,N,11738.4232,W,33.60,311.40,200310,,*30
$GPRMC,220602,A,3327.0624,N,11738.4476,W,31.70,311.10,200310,,*34
$GPRMC,220605,A,3327.0783,N,11738.4706,W,30.30,309.80,200310,,*3E
$GPRMC,220608,A,3327.0915,N,11738.4921,W,27.20,309.60,200310,,*30
$GPRMC,220611,A,3327.1058,N,11738.5107,W,25.50,308.80,200310,,*3E
$GPRMC,220614,A,3327.1226,N,11738.5304,W,25.80,310.60,200310,,*3B
$GPRMC,220617,A,3327.1315,N,11738.5494,W,23.70,305.70,200310,,*3B
$GPRMC,220620,A,3327.1370,N,11738.5679,W,22.50,300.00,200310,,*3C
$GPRMC,220623,A,3327.1499,N,11738.5890,W,25.40,304.80,200310,,*3C
$GPRMC,220627,A,3327.1655,N,11738.6138,W,30.20,302.90,200310,,*37
$GPRMC,220630,A,3327.1818,N,11738.6408,W,33.60,301.90,200310,,*34
$GPRMC,220633,A,3327.1950,N,11738.6675,W,32.80,300.60,200310,,*33
$GPRMC,220636,A,3327.2130,N,11738.7023,W,39.30,298.70,200310,,*3E
$GPRMC,220639,A,3327.2267,N,11738.7348,W,38.90,297.60,200310,,*3B
$GPRMC,220642,A,3327.2393,N,11738.7673,W,35.50,297.00,200310,,*37
$GPRMC,220645,A,3327.2538,N,11738.7979,W,29.80,297.20,200310,,*30
$GPRMC,220648,A,3327.2648,N,11738.8234,W,29.60,296.90,200310,,*30
$GPRMC,220651,A,3327.2761,N,11738.8504,W,31.60,297.00,200310,,*37
$GPRMC,220654,A,3327.2892,N,11738.8805,W,35.70,297.10,200310,,*39
$GPRMC,220657,A,3327.3030,N,11738.9129,W,36.80,297.30,200310,,*33
$GPRMC,220701,A,3327.3220,N,11738.9575,W,38.70,297.10,200310,,*3C
$GPRMC,220704,A,3327.3392,N,11739.0003,W,39.80,296.10,200310,,*32
$GPRMC,220707,A,3327.3548,N,11739.0359,W,40.70,296.10,200310,,*3D
$GPRMC,220710,A,3327.3711,N,11739.0725,W,41.20,299.10,200310,,*31
$GPRMC,220713,A,3327.3902,N,11739.1088,W,42.90,301.20,200310,,*34
$GPRMC,220716,A,3327.4090,N,11739.1456,W,44.50,300.70,200310,,*3D
$GPRMC,220719,A,3327.4282,N,11739.1836,W,44.20,301.70,200310,,*3F
$GPRMC,220722,A,3327.4510,N,11739.2207,W,45.50,304.00,200310,,*34
$GPRMC,220725,A,3327.4771,N,11739.2583,W,48.30,307.50,200310,,*30
$GPRMC,220728,A,3327.4966,N,11739.2991,W,48.30,304.90,200310,,*35
$GPRMC,220731,A,3327.5200,N,11739.3381,W,48.50,305.00,200310,,*33
$GPRMC,220734,A,3327.5370,N,11739.3663,W,46.50,305.40,200310,,*33
$GPRMC,220737,A,3327.5658,N,11739.4147,W,47.50,304.20,200310,,*3F
$GPRMC,220740,A,3327.5857,N,11739.4568,W,48.20,299.50,200310,,*3D
$GPRMC,220743,A,3327.6012,N,11739.4891,W,47.50,296.90,200310,,*34
$GPRMC,220746,A,3327.6203,N,11739.5327,W,48.70,296.00,200310,,*30
$GPRMC,220750,A,3327.6450,N,11739.5923,W,49.20,296.10,200310,,*3C
$GPRMC,220753,A,3327.6708,N,11739.6478,W,51.10,301.00,200310,,*35
$GPRMC,220756,A,3327.6994,N,11739.6932,W,55.20,306.70,200310,,*3F
$GPRMC,220759,A,3327.7303,N,11739.7385,W,57.60,308.20,200310,,*3F
$GPRMC,220802,A,3327.7591,N,11739.7840,W,57.80,308.50,200310,,*38
$GPRMC,220805,A,3327.7851,N,11739.8188,W,60.30,309.50,200310,,*32
$GPRMC,220808,A,3327.8268,N,11739.8775,W,64.30,309.50,200310,,*30
$GPRMC,220811,A,3327.8623,N,11739.9312,W,68.00,308.50,200310,,*39
$GPRMC,220814,A,3327.9011,N,11739.9837,W,69.70,309.80,200310,,*3C
$GPRMC,220817,A,3327.9386,N,11740.0363,W,68.50,309.60,200310,,*32
$GPRMC,220820,A,3327.9652,N,11740.0768,W,64.60,307.40,200310,,*36
$GPRMC,220823,A,3328.0017,N,11740.1404,W,64.20,302.30,200310,,*3A
$GPRMC,220827,A,3328.0302,N,11740.2022,W,63.80,297.20,200310,,*3B
$GPRMC,220830,A,3328.0540,N,11740.2589,W,64.20,298.00,200310,,*39
$GPRMC,220833,A,3328.0899,N,11740.3284,W,66.00,304.30,200310,,*3F
$GPRMC,220836,A,3328.1291,N,11740.3803,W,66.40,311.70,200310,,*38
$GPRMC,220840,A,3328.1770,N,11740.4225,W,59.30,322.90,200310,,*3F
$GPRMC,220844,A,3328.2281,N,11740.4520,W,49.30,336.70,200310,,*3B
$GPRMC,220847,A,3328.2604,N,11740.4631,W,29.40,346.40,200310,,*37
$GPRMC,220850,A,3328.2785,N,11740.4673,W,21.60,349.20,200310,,*3C
$GPRMC,220853,A,3328.2896,N,11740.4701,W,16.90,350.40,200310,,*33
$GPRMC,220856,A,3328.3074,N,11740.4731,W,17.70,352.60,200310,,*3F
$GPRMC,220859,A,3328.3210,N,11740.4767,W,18.60,351.60,200310,,*3E
$GPRMC,220902,A,3328.3433,N,11740.4769,W,24.50,355.10,200310,,*37
$GPRMC,220905,A,3328.3686,N,11740.4771,W,27.40,359.80,200310,,*32
$GPRMC,220908,A,3328.3888,N,11740.4769,W,25.30,0.20,200310,,*36
$GPRMC,220911,A,3328.4080,N,11740.4783,W,22.20,1.00,200310,,*38
$GPRMC,220914,A,3328.4255,N,11740.4764,W,21.50,4.30,200310,,*3C
$GPRMC,220917,A,3328.4415,N,11740.4745,W,19.10,7.50,200310,,*34
$GPRMC,220920,A,3328.4554,N,11740.4755,W,16.10,5.30,200310,,*3E
$GPRMC,220923,A,3328.4679,N,11740.4735,W,16.80,10.20,200310,,*0B
$GPRMC,220926,A,3328.4786,N,11740.4700,W,13.10,11.60,200310,,*00
$GPRMC,220929,A,3328.4854,N,11740.4669,W,10.80,15.50,200310,,*0C
$GPRMC,220932,A,3328.4930,N,11740.4646,W,10.20,12.70,200310,,*07
$GPRMC,220935,A,3328.5024,N,11740.4625,W,7.80,8.90,200310,,*01
$GPRMC,220939,A,3328.5104,N,11740.4599,W,10.10,14.50,200310,,*04
$GPRMC,220942,A,3328.5220,N,11740.4581,W,12.20,11.20,200310,,*07
$GPRMC,220945,A,3328.5360,N,11740.4533,W,15.70,13.50,200310,,*0B
$GPRMC,220948,A,3328.5473,N,11740.4477,W,14.00,18.00,200310,,*0A
$GPRMC,220951,A,3328.5559,N,11740.4417,W,12.10,25.00,200310,,*04
$GPRMC,220954,A,3328.5669,N,11740.4370,W,12.20,22.10,200310,,*02
$GPRMC,220957,A,3328.5774,N,11740.4337,W,14.20,22.60,200310,,*0E
$GPRMC,221000,A,3328.5900,N,11740.4257,W,16.60,27.10,200310,,*0A
$GPRMC,221003,A,3328.6068,N,11740.4177,W,20.10,23.90,200310,,*02
$GPRMC,221006,A,3328.6229,N,11740.4083,W,21.30,29.50,200310,,*0F
$GPRMC,221009,A,3328.6381,N,11740.3981,W,21.10,25.80,200310,,*0C
$GPRMC,221012,A,3328.6551,N,11740.3897,W,21.50,25.20,200310,,*05
$GPRMC,221015,A,3328.6691,N,11740.3795,W,20.40,31.20,200310,,*05
$GPRMC,221019,A,3328.6826,N,11740.3660,W,20.00,34.80,200310,,*0B
$GPRMC,221022,A,3328.6974,N,11740.3523,W,22.60,35.40,200310,,*08
$GPRMC,221025,A,3328.7128,N,11740.3393,W,23.00,36.20,200310,,*00
$GPRMC,221028,A,3328.7284,N,11740.3272,W,23.90,36.00,200310,,*0D
$GPRMC,221031,A,3328.7450,N,11740.3117,W,23.10,35.80,200310,,*09
$GPRMC,221034,A,3328.7627,N,11740.2985,W,25.90,36.10,200310,,*08
$GPRMC,221037,A,3328.7809,N,11740.2818,W,28.80,35.70,200310,,*05
$GPRMC,221040,A,3328.8007,N,11740.2651,W,30.70,35.80,200310,,*06
$GPRMC,221043,A,3328.8227,N,11740.2461,W,33.20,35.80,200310,,*02
$GPRMC,221046,A,3328.8465,N,11740.2254,W,36.30,36.00,200310,,*08
$GPRMC,221049,A,3328.8682,N,11740.2065,W,28.00,35.70,200310,,*04
$GPRMC,221052,A,3328.8862,N,11740.1909,W,26.80,35.80,200310,,*07
$GPRMC,221055,A,3328.9049,N,11740.1746,W,28.10,36.10,200310,,*08
$GPRMC,221058,A,3328.9246,N,11740.1586,W,28.90,34.50,200310,,*08
$GPRMC,221101,A,3328.9445,N,11740.1421,W,27.40,34.70,200310,,*0C
$GPRMC,221104,A,3328.9606,N,11740.1270,W,25.50,36.90,200310,,*01
$GPRMC,221107,A,3328.9812,N,11740.1123,W,29.10,34.20,200310,,*0D
$GPRMC,221110,A,3329.0012,N,11740.0933,W,33.70,36.00,200310,,*0E
$GPRMC,221113,A,3329.0257,N,11740.0667,W,33.20,38.50,200310,,*0E
$GPRMC,221116,A,3329.0527,N,11740.0477,W,35.60,34.00,200310,,*03
$GPRMC,221119,A,3329.0767,N,11740.0273,W,36.70,34.70,200310,,*0D
$GPRMC,221122,A,3329.1040,N,11740.0004,W,41.60,38.30,200310,,*0D
$GPRMC,221125,A,3329.1377,N,11739.9771,W,45.80,32.50,200310,,*09
$GPRMC,221128,A,3329.1700,N,11739.9520,W,46.60,32.30,200310,,*0D
$GPRMC,221131,A,3329.2032,N,11739.9279,W,47.00,31.70,200310,,*0B
$GPRMC,221134,A,3329.2338,N,11739.9020,W,47.00,34.10,200310,,*0A
$GPRMC,221137,A,3329.2689,N,11739.8743,W,48.80,32.90,200310,,*0C
$GPRMC,221140,A,3329.3047,N,11739.8516,W,47.50,29.50,200310,,*0F
$GPRMC,221143,A,3329.3386,N,11739.8246,W,49.00,32.90,200310,,*0D
$GPRMC,221146,A,3329.3687,N,11739.7964,W,47.70,34.50,200310,,*0B
$GPRMC,221149,A,3329.4058,N,11739.7707,W,49.10,31.50,200310,,*01
$GPRMC,221152,A,3329.4411,N,11739.7444,W,48.60,33.00,200310,,*07
$GPRMC,221155,A,3329.4750,N,11739.7182,W,47.50,32.30,200310,,*07
$GPRMC,221158,A,3329.5068,N,11739.6947,W,45.90,32.50,200310,,*0F
$GPRMC,221201,A,3329.5416,N,11739.6678,W,48.80,32.10,200310,,*06
$GPRMC,221204,A,3329.5825,N,11739.6440,W,53.60,29.10,200310,,*08
$GPRMC,221207,A,3329.6195,N,11739.6168,W,53.90,28.40,200310,,*0E
$GPRMC,221210,A,3329.6616,N,11739.5937,W,55.30,24.00,200310,,*01
$GPRMC,221213,A,3329.7033,N,11739.5719,W,55.00,21.90,200310,,*0F
$GPRMC,221216,A,3329.7482,N,11739.5543,W,56.00,17.90,200310,,*0F
$GPRMC,221219,A,3329.7917,N,11739.5401,W,55.00,15.80,200310,,*06
$GPRMC,221222,A,3329.8376,N,11739.5227,W,56.60,14.20,200310,,*00
$GPRMC,221225,A,3329.8871,N,11739.5105,W,59.70,10.40,200310,,*04
$GPRMC,221228,A,3329.9334,N,11739.5043,W,58.00,6.60,200310,,*32
$GPRMC,221231,A,3329.9825,N,11739.4983,W,58.10,4.20,200310,,*32
$GPRMC,221234,A,3330.0308,N,11739.4945,W,55.40,1.60,200310,,*31
$GPRMC,221237,A,3330.0741,N,11739.4952,W,54.10,359.40,200310,,*35
$GPRMC,221240,A,3330.1189,N,11739.4989,W,54.60,356.50,200310,,*39
$GPRMC,221245,A,3330.1781,N,11739.5086,W,54.80,351.60,200310,,*3F
$GPRMC,221248,A,3330.2409,N,11739.5212,W,57.30,348.50,200310,,*3E
$GPRMC,221251,A,3330.2879,N,11739.5345,W,58.70,345.00,200310,,*3D
$GPRMC,221254,A,3330.3356,N,11739.5526,W,61.00,341.30,200310,,*36
$GPRMC,221257,A,3330.3850,N,11739.5762,W,63.70,339.10,200310,,*32
$GPRMC,221300,A,3330.4342,N,11739.5955,W,63.10,340.80,200310,,*35
$GPRMC,221303,A,3330.4876,N,11739.6177,W,66.10,340.40,200310,,*38
$GPRMC,221306,A,3330.5454,N,11739.6409,W,67.30,341.10,200310,,*3B
$GPRMC,221309,A,3330.5910,N,11739.6618,W,63.30,340.40,200310,,*3B
$GPRMC,221312,A,3330.6342,N,11739.6791,W,66.30,340.30,200310,,*3D
$GPRMC,221315,A,3330.6945,N,11739.7090,W,65.30,339.40,200310,,*3A
$GPRMC,221318,A,3330.7469,N,11739.7321,W,65.30,340.00,200310,,*36
$GPRMC,221321,A,3330.7949,N,11739.7536,W,63.10,340.10,200310,,*36
$GPRMC,221324,A,3330.8484,N,11739.7724,W,65.60,342.40,200310,,*37
$GPRMC,221327,A,3330.8993,N,11739.7913,W,63.40,341.40,200310,,*32
$GPRMC,221330,A,3330.9490,N,11739.8137,W,63.30,340.20,200310,,*3A
$GPRMC,221333,A,3330.9851,N,11739.8308,W,64.50,340.40,200310,,*31
$GPRMC,221336,A,3331.0361,N,11739.8521,W,64.80,340.40,200310,,*34
$GPRMC,221339,A,3331.0860,N,11739.8735,W,64.20,340.10,200310,,*39
$GPRMC,221342,A,3331.1358,N,11739.8957,W,64.40,340.30,200310,,*3A
$GPRMC,221347,A,3331.2189,N,11739.9301,W,65.10,340.30,200310,,*3E
$GPRMC,221350,A,3331.2735,N,11739.9525,W,64.80,340.30,200310,,*31
$GPRMC,221353,A,3331.3234,N,11739.9749,W,61.50,340.30,200310,,*37
$GPRMC,221356,A,3331.3661,N,11739.9938,W,60.90,340.50,200310,,*35
$GPRMC,221359,A,3331.4345,N,11740.0232,W,65.50,340.50,200310,,*31
$GPRMC,221402,A,3331.4840,N,11740.0439,W,63.60,339.30,200310,,*36
$GPRMC,221405,A,3331.5195,N,11740.0641,W,60.80,333.30,200310,,*3B
$GPRMC,221408,A,3331.5589,N,11740.0917,W,61.70,328.60,200310,,*32
$GPRMC,221412,A,3331.6210,N,11740.1418,W,64.70,324.40,200310,,*35
$GPRMC,221416,A,3331.6660,N,11740.1988,W,65.30,313.30,200310,,*30
$GPRMC,221419,A,3331.7143,N,11740.2656,W,67.00,309.80,200310,,*36
$GPRMC,221422,A,3331.7464,N,11740.3140,W,62.40,310.00,200310,,*3E
$GPRMC,221425,A,3331.7779,N,11740.3591,W,59.70,311.10,200310,,*35
$GPRMC,221428,A,3331.8169,N,11740.4026,W,61.30,318.20,200310,,*3B
$GPRMC,221432,A,3331.8642,N,11740.4402,W,65.30,327.80,200310,,*3E
$GPRMC,221435,A,3331.9195,N,11740.4680,W,61.60,340.20,200310,,*37
$GPRMC,221438,A,3331.9616,N,11740.4806,W,50.40,348.80,200310,,*34
$GPRMC,221441,A,3331.9894,N,11740.4840,W,33.80,354.80,200310,,*38
$GPRMC,221444,A,3332.0100,N,11740.4860,W,26.10,358.00,200310,,*38
$GPRMC,221447,A,3332.0414,N,11740.4854,W,34.00,0.40,200310,,*34
$GPRMC,221450,A,3332.0727,N,11740.4858,W,38.60,0.30,200310,,*30
$GPRMC,221453,A,3332.1174,N,11740.4830,W,50.10,2.20,200310,,*36
$GPRMC,221456,A,3332.1583,N,11740.4818,W,49.60,2.10,200310,,*39
$GPRMC,221459,A,3332.1971,N,11740.4736,W,49.70,8.30,200310,,*3D
$GPRMC,221502,A,3332.2448,N,11740.4678,W,56.20,8.30,200310,,*36
$GPRMC,221505,A,3332.2943,N,11740.4587,W,59.60,8.90,200310,,*35
$GPRMC,221508,A,3332.3444,N,11740.4475,W,60.10,10.50,200310,,*07
$GPRMC,221512,A,3332.3991,N,11740.4358,W,58.00,10.40,200310,,*0A
$GPRMC,221515,A,3332.4588,N,11740.4251,W,59.50,8.60,200310,,*39
$GPRMC,221518,A,3332.5046,N,11740.4154,W,55.70,7.80,200310,,*3B
$GPRMC,221521,A,3332.5477,N,11740.4106,W,53.60,4.00,200310,,*3C
$GPRMC,221524,A,3332.5915,N,11740.4064,W,54.20,6.00,200310,,*34
$GPRMC,221527,A,3332.6363,N,11740.3988,W,55.00,9.30,200310,,*3C
$GPRMC,221530,A,3332.6841,N,11740.3899,W,56.60,8.90,200310,,*3E
$GPRMC,221533,A,3332.7303,N,11740.3811,W,56.00,8.80,200310,,*36
$GPRMC,221536,A,3332.7753,N,11740.3730,W,54.60,7.10,200310,,*3C
$GPRMC,221539,A,3332.8181,N,11740.3671,W,53.20,5.90,200310,,*38
$GPRMC,221542,A,3332.8682,N,11740.3625,W,56.20,4.20,200310,,*3E
$GPRMC,221545,A,3332.9156,N,11740.3590,W,55.20,2.50,200310,,*39
$GPRMC,221548,A,3332.9609,N,11740.3563,W,53.80,1.30,200310,,*3C
$GPRMC,221551,A,3333.0044,N,11740.3568,W,50.30,359.50,200310,,*38
$GPRMC,221554,A,3333.0302,N,11740.3568,W,33.00,1.00,200310,,*31
$GPRMC,221557,A,3333.0495,N,11740.3554,W,27.30,3.80,200310,,*38
$GPRMC,221600,A,3333.0760,N,11740.3544,W,30.80,360.00,200310,,*32
$GPRMC,221603,A,3333.0984,N,11740.3568,W,28.20,357.70,200310,,*3B
$GPRMC,221606,A,3333.1245,N,11740.3553,W,30.80,1.60,200310,,*33
$GPRMC,221609,A,3333.1521,N,11740.3552,W,33.60,359.70,200310,,*3A
$GPRMC,221612,A,3333.1757,N,11740.3550,W,36.70,358.90,200310,,*3A
$GPRMC,221615,A,3333.2135,N,11740.3584,W,37.10,359.20,200310,,*38
$GPRMC,221618,A,3333.2494,N,11740.3579,W,40.80,358.40,200310,,*37
$GPRMC,221621,A,3333.2778,N,11740.3588,W,35.70,358.30,200310,,*38
$GPRMC,221624,A,3333.3094,N,11740.3591,W,34.10,358.60,200310,,*33
$GPRMC,221627,A,3333.3334,N,11740.3584,W,30.50,1.20,200310,,*36
$GPRMC,221630,A,3333.3583,N,11740.3578,W,32.40,3.00,200310,,*3A
$GPRMC,221633,A,3333.3926,N,11740.3539,W,38.00,4.60,200310,,*30
$GPRMC,221636,A,3333.4242,N,11740.3524,W,36.80,4.90,200310,,*3E
$GPRMC,221639,A,3333.4432,N,11740.3462,W,34.70,14.80,200310,,*0E
$GPRMC,221642,A,3333.4700,N,11740.3253,W,32.60,34.30,200310,,*0A
$GPRMC,221645,A,3333.4853,N,11740.3064,W,27.00,39.00,200310,,*0E
$GPRMC,221649,A,3333.5057,N,11740.2971,W,22.30,20.70,200310,,*0A
$GPRMC,221652,A,3333.5203,N,11740.3033,W,13.20,350.60,200310,,*3B
$GPRMC,221655,A,3333.5284,N,11740.3071,W,10.40,344.90,200310,,*3A
$GPRMC,221658,A,3333.5344,N,11740.3075,W,6.80,350.50,200310,,*0C
$GPRMC,221704,A,3333.5406,N,11740.3061,W,8.50,352.50,200310,,*01
$GPRMC,221707,A,3333.5500,N,11740.3117,W,13.00,339.70,200310,,*35
$GPRMC,221710,A,3333.5617,N,11740.3135,W,13.60,355.90,200310,,*34
$GPRMC,221713,A,3333.5729,N,11740.3029,W,17.60,46.70,200310,,*0C
$GPRMC,221716,A,3333.5855,N,11740.2908,W,15.90,47.70,200310,,*0A
$GPRMC,221719,A,3333.5934,N,11740.2804,W,13.40,48.60,200310,,*0B
$GPRMC,221722,A,3333.5972,N,11740.2731,W,6.80,45.40,200310,,*3F
$GPRMC,221740,A,3333.5996,N,11740.2639,W,11.10,45.30,200310,,*00
$GPRMC,221743,A,3333.6139,N,11740.2534,W,19.50,36.90,200310,,*01
$GPRMC,221746,A,3333.6296,N,11740.2404,W,23.50,39.50,200310,,*0A
$GPRMC,221749,A,3333.6490,N,11740.2242,W,27.80,32.60,200310,,*00
$GPRMC,221752,A,3333.6769,N,11740.2026,W,40.50,38.80,200310,,*07
$GPRMC,221755,A,3333.7040,N,11740.1745,W,44.70,42.90,200310,,*06
$GPRMC,221758,A,3333.7310,N,11740.1404,W,47.00,49.70,200310,,*0A
$GPRMC,221801,A,3333.7515,N,11740.1027,W,43.80,58.60,200310,,*02
$GPRMC,221804,A,3333.7691,N,11740.0616,W,43.80,63.90,200310,,*0A
$GPRMC,221807,A,3333.7811,N,11740.0197,W,43.90,67.80,200310,,*05
$GPRMC,221810,A,3333.7961,N,11739.9799,W,44.40,66.40,200310,,*0D
$GPRMC,221813,A,3333.8136,N,11739.9382,W,46.70,65.50,200310,,*06
$GPRMC,221816,A,3333.8230,N,11739.8930,W,46.40,72.10,200310,,*05
$GPRMC,221819,A,3333.8327,N,11739.8505,W,44.10,76.20,200310,,*07
$GPRMC,221823,A,3333.8378,N,11739.8033,W,42.10,80.90,200310,,*00
$GPRMC,221826,A,3333.8420,N,11739.7565,W,37.80,85.90,200310,,*08
$GPRMC,221829,A,3333.8431,N,11739.7221,W,33.30,88.70,200310,,*0C
$GPRMC,221832,A,3333.8410,N,11739.6907,W,32.00,94.00,200310,,*03
$GPRMC,221835,A,3333.8337,N,11739.6585,W,34.90,99.80,200310,,*0A
$GPRMC,221838,A,3333.8313,N,11739.6254,W,32.90,99.70,200310,,*03
$GPRMC,221841,A,3333.8263,N,11739.5970,W,29.00,102.20,200310,,*30
$GPRMC,221844,A,3333.8239,N,11739.5696,W,24.90,98.20,200310,,*0B
$GPRMC,221847,A,3333.8204,N,11739.5484,W,20.30,99.40,200310,,*0E
$GPRMC,221850,A,3333.8192,N,11739.5329,W,13.10,98.00,200310,,*03
$GPRMC,222002,A,3333.8102,N,11739.5146,W,5.00,121.90,200310,,*01
$GPRMC,222005,A,3333.8121,N,11739.4905,W,14.90,83.80,200310,,*08
$GPRMC,222008,A,3333.8179,N,11739.4791,W,18.00,63.70,200310,,*0F
$GPRMC,222011,A,3333.8409,N,11739.4768,W,20.90,7.20,200310,,*36
$GPRMC,222014,A,3333.8651,N,11739.4740,W,28.20,7.60,200310,,*31
$GPRMC,222017,A,3333.8938,N,11739.4678,W,33.90,7.80,200310,,*37
$GPRMC,222020,A,3333.9215,N,11739.4650,W,34.40,5.10,200310,,*3D
$GPRMC,222023,A,3333.9535,N,11739.4609,W,37.10,3.00,200310,,*36
$GPRMC,222026,A,3333.9835,N,11739.4618,W,37.80,355.80,200310,,*3F
$GPRMC,222029,A,3334.0150,N,11739.4675,W,39.10,350.20,200310,,*37
$GPRMC,222034,A,3334.0589,N,11739.4836,W,39.40,339.50,200310,,*3F
$GPRMC,222038,A,3334.0997,N,11739.5040,W,41.70,337.40,200310,,*3B
$GPRMC,222041,A,3334.1444,N,11739.5261,W,42.00,341.30,200310,,*34
$GPRMC,222044,A,3334.1786,N,11739.5377,W,41.00,348.00,200310,,*33
$GPRMC,222048,A,3334.2158,N,11739.5400,W,41.50,357.80,200310,,*3D
$GPRMC,222051,A,3334.2600,N,11739.5356,W,41.40,7.80,200310,,*3C
$GPRMC,222054,A,3334.2923,N,11739.5256,W,41.30,14.00,200310,,*0B
$GPRMC,222057,A,3334.3345,N,11739.5158,W,46.00,13.50,200310,,*08
$GPRMC,222100,A,3334.3595,N,11739.5093,W,39.80,11.00,200310,,*01
$GPRMC,222104,A,3334.3792,N,11739.5003,W,19.60,16.20,200310,,*00
$GPRMC,222154,A,3334.4267,N,11739.4844,W,25.40,16.80,200310,,*00
$GPRMC,222158,A,3334.4613,N,11739.4723,W,37.20,14.60,200310,,*0C
$GPRMC,222202,A,3334.5107,N,11739.4653,W,44.00,5.30,200310,,*36
$GPRMC,222205,A,3334.5593,N,11739.4629,W,45.20,1.00,200310,,*31
$GPRMC,222208,A,3334.5932,N,11739.4635,W,41.30,355.10,200310,,*30
$GPRMC,222211,A,3334.6300,N,11739.4693,W,44.00,352.90,200310,,*35
$GPRMC,222215,A,3334.6684,N,11739.4781,W,42.30,350.30,200310,,*37
$GPRMC,222218,A,3334.7102,N,11739.4857,W,42.90,353.80,200310,,*34
$GPRMC,222221,A,3334.7479,N,11739.4820,W,43.50,3.10,200310,,*35
$GPRMC,222224,A,3334.7827,N,11739.4797,W,42.40,2.60,200310,,*32
$GPRMC,222227,A,3334.8197,N,11739.4783,W,43.80,2.30,200310,,*31
$GPRMC,222230,A,3334.8507,N,11739.4774,W,41.30,359.50,200310,,*30
$GPRMC,222234,A,3334.9020,N,11739.4805,W,44.20,350.10,200310,,*35
$GPRMC,222239,A,3334.9489,N,11739.4973,W,39.00,338.20,200310,,*3A
$GPRMC,222242,A,3334.9824,N,11739.5153,W,35.20,334.80,200310,,*3E
$GPRMC,222246,A,3334.9975,N,11739.5253,W,22.80,334.40,200310,,*3C
$GPRMC,222249,A,3335.0110,N,11739.5315,W,12.00,347.60,200310,,*3E
$GPRMC,222330,A,3335.0102,N,11739.5323,W,5.00,344.40,200310,,*00
$GPRMC,222333,A,3335.0176,N,11739.5398,W,11.10,329.60,200310,,*3D
$GPRMC,222336,A,3335.0261,N,11739.5479,W,15.60,327.90,200310,,*37
$GPRMC,222339,A,3335.0382,N,11739.5577,W,18.70,327.40,200310,,*3A
$GPRMC,222342,A,3335.0596,N,11739.5739,W,24.60,325.40,200310,,*31
$GPRMC,222345,A,3335.0754,N,11739.5855,W,29.30,330.20,200310,,*35
$GPRMC,222348,A,3335.0978,N,11739.5995,W,29.70,333.00,200310,,*30
$GPRMC,222351,A,3335.1221,N,11739.6114,W,30.10,339.10,200310,,*39
$GPRMC,222354,A,3335.1424,N,11739.6180,W,20.40,345.60,200310,,*3A
$GPRMC,222357,A,3335.1558,N,11739.6201,W,12.10,353.90,200310,,*35
$GPRMC,222400,A,3335.1602,N,11739.6208,W,4.70,355.80,200310,,*03
$GPRMC,222409,A,3335.1698,N,11739.6229,W,9.10,346.50,200310,,*0E
$GPRMC,222412,A,3335.1810,N,11739.6259,W,14.40,348.90,200310,,*36
$GPRMC,222415,A,3335.1966,N,11739.6265,W,21.20,354.70,200310,,*3D
$GPRMC,222418,A,3335.2217,N,11739.6252,W,24.80,4.10,200310,,*35
$GPRMC,222421,A,3335.2484,N,11739.6240,W,30.10,5.40,200310,,*38
$GPRMC,222424,A,3335.2760,N,11739.6204,W,32.60,10.20,200310,,*03
$GPRMC,222427,A,3335.2972,N,11739.6125,W,33.50,13.70,200310,,*09
$GPRMC,222430,A,3335.3219,N,11739.6043,W,32.10,14.70,200310,,*0B
$GPRMC,222433,A,3335.3515,N,11739.5941,W,35.10,15.30,200310,,*09
$GPRMC,222436,A,3335.3812,N,11739.5866,W,32.40,12.10,200310,,*05
$GPRMC,222439,A,3335.4130,N,11739.5793,W,29.80,8.20,200310,,*3F
$GPRMC,222442,A,3335.4332,N,11739.5794,W,24.40,0.30,200310,,*3C
$GPRMC,222445,A,3335.4534,N,11739.5814,W,23.70,355.40,200310,,*3C
$GPRMC,222448,A,3335.4624,N,11739.5806,W,15.10,355.80,200310,,*3F
$GPRMC,222451,A,3335.4731,N,11739.5837,W,14.30,350.60,200310,,*38
$GPRMC,222454,A,3335.4877,N,11739.5861,W,18.50,354.70,200310,,*3C
$GPRMC,222457,A,3335.5074,N,11739.5889,W,21.70,353.20,200310,,*39
$GPRMC,222500,A,3335.5207,N,11739.5916,W,16.20,350.80,200310,,*33
$GPRMC,222503,A,3335.5300,N,11739.5928,W,10.80,354.40,200310,,*3F
$GPRMC,222506,A,3335.5364,N,11739.5926,W,7.00,4.50,200310,,*0F
$GPRMC,222536,A,3335.5481,N,11739.5895,W,6.20,359.60,200310,,*02
$GPRMC,222539,A,3335.5672,N,11739.5943,W,18.20,359.60,200310,,*36
$GPRMC,222542,A,3335.5871,N,11739.5910,W,26.00,8.20,200310,,*3D
$GPRMC,222545,A,3335.6093,N,11739.5878,W,28.10,12.20,200310,,*06
$GPRMC,222549,A,3335.6389,N,11739.5764,W,29.30,16.80,200310,,*0D
$GPRMC,222552,A,3335.6558,N,11739.5685,W,23.00,18.30,200310,,*0F
$GPRMC,222555,A,3335.6708,N,11739.5613,W,19.70,18.70,200310,,*0A
$GPRMC,222558,A,3335.6872,N,11739.5552,W,17.90,19.70,200310,,*02
$GPRMC,222601,A,3335.7020,N,11739.5470,W,23.90,24.80,200310,,*04
$GPRMC,222604,A,3335.7230,N,11739.5377,W,28.10,22.20,200310,,*0D
$GPRMC,222607,A,3335.7421,N,11739.5262,W,27.10,22.00,200310,,*00
$GPRMC,222610,A,3335.7630,N,11739.5165,W,26.90,22.70,200310,,*0E
$GPRMC,222613,A,3335.7835,N,11739.5058,W,26.50,23.50,200310,,*06
$GPRMC,222616,A,3335.8045,N,11739.4939,W,27.30,24.70,200310,,*0E
$GPRMC,222619,A,3335.8291,N,11739.4758,W,28.60,25.90,200310,,*06
$GPRMC,222623,A,3335.8542,N,11739.4650,W,25.10,20.50,200310,,*0C
$GPRMC,222626,A,3335.8761,N,11739.4582,W,23.60,17.20,200310,,*04
$GPRMC,222629,A,3335.8908,N,11739.4511,W,24.70,20.90,200310,,*09
$GPRMC,222632,A,3335.9099,N,11739.4426,W,25.30,20.80,200310,,*02
$GPRMC,222636,A,3335.9427,N,11739.4323,W,27.00,14.90,200310,,*02
$GPRMC,222639,A,3335.9623,N,11739.4244,W,24.30,16.70,200310,,*07
$GPRMC,222642,A,3335.9794,N,11739.4185,W,22.70,14.30,200310,,*0C
$GPRMC,222645,A,3336.0027,N,11739.4119,W,23.90,12.90,200310,,*08
$GPRMC,222648,A,3336.0215,N,11739.4045,W,25.50,15.70,200310,,*0D
$GPRMC,222651,A,3336.0388,N,11739.3963,W,27.40,17.00,200310,,*0C
$GPRMC,222654,A,3336.0655,N,11739.3880,W,32.90,17.80,200310,,*01
$GPRMC,222657,A,3336.0949,N,11739.3780,W,34.50,16.30,200310,,*0F
$GPRMC,222700,A,3336.1233,N,11739.3682,W,35.10,15.70,200310,,*0A
$GPRMC,222703,A,3336.1509,N,11739.3592,W,35.10,13.80,200310,,*0C
$GPRMC,222706,A,3336.1817,N,11739.3515,W,35.90,11.00,200310,,*06
$GPRMC,222709,A,3336.2148,N,11739.3495,W,38.90,6.50,200310,,*3E
$GPRMC,222712,A,3336.2494,N,11739.3448,W,41.60,4.40,200310,,*32
$GPRMC,222715,A,3336.2834,N,11739.3421,W,40.20,4.40,200310,,*39
$GPRMC,222719,A,3336.3264,N,11739.3385,W,37.80,4.80,200310,,*34
$GPRMC,222724,A,3336.3684,N,11739.3307,W,29.60,9.00,200310,,*3E
$GPRMC,222727,A,3336.3951,N,11739.3254,W,22.30,10.60,200310,,*0D
$GPRMC,222730,A,3336.4092,N,11739.3251,W,18.30,7.20,200310,,*34
$GPRMC,222734,A,3336.4210,N,11739.3208,W,17.50,17.30,200310,,*0D
$GPRMC,222737,A,3336.4405,N,11739.3107,W,22.40,20.20,200310,,*02
$GPRMC,222740,A,3336.4622,N,11739.2969,W,28.30,26.70,200310,,*0A
$GPRMC,222743,A,3336.4849,N,11739.2822,W,31.40,29.20,200310,,*01
$GPRMC,222746,A,3336.5139,N,11739.2649,W,35.80,27.90,200310,,*05
$GPRMC,222749,A,3336.5457,N,11739.2483,W,39.00,24.00,200310,,*0D
$GPRMC,222752,A,3336.5655,N,11739.2389,W,35.60,19.50,200310,,*0B
$GPRMC,222756,A,3336.6092,N,11739.2344,W,36.40,6.20,200310,,*38
$GPRMC,222759,A,3336.6418,N,11739.2329,W,35.80,1.00,200310,,*30
$GPRMC,222802,A,3336.6729,N,11739.2405,W,33.60,352.80,200310,,*3C
$GPRMC,222805,A,3336.6967,N,11739.2451,W,30.40,350.10,200310,,*34
$GPRMC,222808,A,3336.7164,N,11739.2505,W,26.70,349.30,200310,,*3D
$GPRMC,222813,A,3336.7436,N,11739.2553,W,18.40,351.60,200310,,*34
$GPRMC,222816,A,3336.7553,N,11739.2583,W,14.00,353.80,200310,,*3A
$GPRMC,222819,A,3336.7606,N,11739.2569,W,7.30,5.70,200310,,*0C
$GPRMC,222825,A,3336.7657,N,11739.2593,W,6.60,351.60,200310,,*05
$GPRMC,222828,A,3336.7844,N,11739.2617,W,17.20,0.20,200310,,*3C
$GPRMC,222831,A,3336.8027,N,11739.2576,W,21.90,6.90,200310,,*31
$GPRMC,222834,A,3336.8208,N,11739.2547,W,25.30,10.40,200310,,*0D
$GPRMC,222837,A,3336.8488,N,11739.2498,W,32.70,13.10,200310,,*07
$GPRMC,222841,A,3336.8781,N,11739.2373,W,34.80,22.30,200310,,*07
$GPRMC,222844,A,3336.9056,N,11739.2190,W,36.70,29.10,200310,,*05
$GPRMC,222848,A,3336.9446,N,11739.1924,W,37.70,31.90,200310,,*08
$GPRMC,222851,A,3336.9668,N,11739.1725,W,35.40,36.40,200310,,*0A
$GPRMC,222854,A,3336.9896,N,11739.1503,W,36.00,40.70,200310,,*03
$GPRMC,222857,A,3337.0046,N,11739.1206,W,35.10,48.10,200310,,*03
$GPRMC,222900,A,3337.0235,N,11739.0965,W,35.10,40.80,200310,,*08
$GPRMC,222903,A,3337.0440,N,11739.0750,W,33.00,38.50,200310,,*02
$GPRMC,222906,A,3337.0671,N,11739.0578,W,32.00,31.00,200310,,*02
$GPRMC,222909,A,3337.0906,N,11739.0423,W,32.60,27.60,200310,,*0A
$GPRMC,222912,A,3337.1163,N,11739.0298,W,32.90,21.40,200310,,*07
$GPRMC,222915,A,3337.1432,N,11739.0203,W,33.30,14.30,200310,,*09
$GPRMC,222918,A,3337.1732,N,11739.0184,W,34.30,6.80,200310,,*34
$GPRMC,222921,A,3337.2056,N,11739.0216,W,36.10,359.20,200310,,*33
$GPRMC,222924,A,3337.2374,N,11739.0225,W,36.30,354.90,200310,,*31
$GPRMC,222927,A,3337.2667,N,11739.0286,W,36.60,350.90,200310,,*3D
$GPRMC,222930,A,3337.2961,N,11739.0341,W,36.30,351.20,200310,,*37
$GPRMC,222933,A,3337.3275,N,11739.0378,W,35.90,351.30,200310,,*39
$GPRMC,222936,A,3337.3599,N,11739.0450,W,36.80,350.00,200310,,*34
$GPRMC,222939,A,3337.3880,N,11739.0486,W,35.40,351.70,200310,,*3C
$GPRMC,222942,A,3337.4167,N,11739.0543,W,36.20,351.00,200310,,*3D
$GPRMC,222945,A,3337.4434,N,11739.0614,W,35.10,350.50,200310,,*3C
$GPRMC,222948,A,3337.4705,N,11739.0651,W,34.90,351.90,200310,,*35
$GPRMC,222951,A,3337.5031,N,11739.0747,W,36.40,349.30,200310,,*36
$GPRMC,222954,A,3337.5344,N,11739.0815,W,36.50,350.70,200310,,*37
$GPRMC,222957,A,3337.5633,N,11739.0879,W,35.20,353.60,200310,,*3D
$GPRMC,223000,A,3337.5851,N,11739.0851,W,28.90,0.70,200310,,*34
$GPRMC,223003,A,3337.6062,N,11739.0832,W,25.90,0.90,200310,,*3A
$GPRMC,223006,A,3337.6201,N,11739.0810,W,20.00,3.90,200310,,*37
$GPRMC,223009,A,3337.6306,N,11739.0793,W,14.70,4.20,200310,,*36
$GPRMC,223012,A,3337.6403,N,11739.0789,W,12.20,5.30,200310,,*36
$GPRMC,223015,A,3337.6426,N,11739.0796,W,6.00,1.00,200310,,*08
$GPRMC,223106,A,3337.6596,N,11739.0791,W,14.40,4.60,200310,,*32
$GPRMC,223109,A,3337.6763,N,11739.0776,W,20.40,5.40,200310,,*38
$GPRMC,223112,A,3337.6971,N,11739.0721,W,25.40,8.80,200310,,*39
$GPRMC,223115,A,3337.7210,N,11739.0683,W,29.50,9.60,200310,,*38
$GPRMC,223119,A,3337.7496,N,11739.0577,W,32.30,16.70,200310,,*07
$GPRMC,223122,A,3337.7760,N,11739.0447,W,33.90,22.20,200310,,*0E
$GPRMC,223125,A,3337.8079,N,11739.0272,W,35.10,26.70,200310,,*06
$GPRMC,223128,A,3337.8302,N,11739.0118,W,39.30,30.50,200310,,*00
$GPRMC,223131,A,3337.8620,N,11738.9823,W,41.00,39.20,200310,,*06
$GPRMC,223134,A,3337.8890,N,11738.9613,W,44.90,40.10,200310,,*0A
$GPRMC,223137,A,3337.9195,N,11738.9336,W,46.80,36.90,200310,,*0C
$GPRMC,223140,A,3337.9518,N,11738.9060,W,46.30,36.50,200310,,*0A
$GPRMC,223143,A,3337.9816,N,11738.8804,W,43.40,34.50,200310,,*01
$GPRMC,223146,A,3338.0150,N,11738.8583,W,45.30,26.90,200310,,*05
$GPRMC,223149,A,3338.0498,N,11738.8409,W,43.90,21.60,200310,,*0C
$GPRMC,223152,A,3338.0968,N,11738.8266,W,45.40,12.90,200310,,*0F
$GPRMC,223155,A,3338.1334,N,11738.8210,W,43.90,6.00,200310,,*3C
$GPRMC,223200,A,3338.1849,N,11738.8154,W,42.20,3.40,200310,,*36
$GPRMC,223203,A,3338.2324,N,11738.8117,W,43.40,3.40,200310,,*36
$GPRMC,223206,A,3338.2551,N,11738.8068,W,40.10,9.50,200310,,*33
$GPRMC,223209,A,3338.2876,N,11738.7982,W,40.80,14.80,200310,,*0E
$GPRMC,223212,A,3338.3186,N,11738.7847,W,40.90,22.30,200310,,*04
$GPRMC,223215,A,3338.3464,N,11738.7650,W,40.60,30.00,200310,,*0D
$GPRMC,223218,A,3338.3767,N,11738.7425,W,41.20,34.30,200310,,*02
$GPRMC,223221,A,3338.4021,N,11738.7175,W,39.70,38.80,200310,,*07
$GPRMC,223224,A,3338.4253,N,11738.6940,W,36.90,37.80,200310,,*04
$GPRMC,223228,A,3338.4383,N,11738.6766,W,20.00,31.90,200310,,*07
$GPRMC,223231,A,3338.4455,N,11738.6751,W,11.00,8.90,200310,,*3F
$GPRMC,223240,A,3338.4457,N,11738.6693,W,7.50,55.70,200310,,*30
$GPRMC,223243,A,3338.4534,N,11738.6628,W,12.30,44.80,200310,,*0A
$GPRMC,223246,A,3338.4699,N,11738.6510,W,20.00,34.90,200310,,*07
$GPRMC,223249,A,3338.4956,N,11738.6381,W,30.50,28.30,200310,,*09
$GPRMC,223252,A,3338.5312,N,11738.6252,W,34.50,18.30,200310,,*00
$GPRMC,223255,A,3338.5618,N,11738.6157,W,36.20,10.40,200310,,*04
$GPRMC,223258,A,3338.5904,N,11738.6093,W,37.60,7.50,200310,,*30
$GPRMC,223301,A,3338.6219,N,11738.6064,W,37.60,5.40,200310,,*32
$GPRMC,223304,A,3338.6512,N,11738.6011,W,35.00,6.60,200310,,*3C
$GPRMC,223307,A,3338.6817,N,11738.5972,W,35.90,6.60,200310,,*31
$GPRMC,223310,A,3338.7129,N,11738.5939,W,36.40,6.30,200310,,*36
$GPRMC,223313,A,3338.7461,N,11738.5947,W,38.60,359.90,200310,,*3A
$GPRMC,223316,A,3338.7705,N,11738.5954,W,38.80,354.80,200310,,*3E
$GPRMC,223319,A,3338.8096,N,11738.6066,W,38.40,345.50,200310,,*39
$GPRMC,223322,A,3338.8310,N,11738.6145,W,36.20,341.20,200310,,*37
$GPRMC,223325,A,3338.8643,N,11738.6300,W,38.40,338.10,200310,,*35
$GPRMC,223328,A,3338.8947,N,11738.6437,W,39.40,340.60,200310,,*39
$GPRMC,223331,A,3338.9251,N,11738.6548,W,41.20,346.50,200310,,*39
$GPRMC,223334,A,3338.9671,N,11738.6609,W,37.70,353.00,200310,,*39
$GPRMC,223337,A,3338.9958,N,11738.6626,W,35.30,356.60,200310,,*36
$GPRMC,223340,A,3339.0182,N,11738.6687,W,29.60,351.00,200310,,*33
$GPRMC,223343,A,3339.0390,N,11738.6715,W,25.90,354.70,200310,,*3A
$GPRMC,223346,A,3339.0603,N,11738.6736,W,23.90,355.70,200310,,*36
$GPRMC,223349,A,3339.0723,N,11738.6730,W,13.80,352.20,200310,,*3C
$GPRMC,223355,A,3339.0770,N,11738.6698,W,9.50,22.00,200310,,*34
$GPRMC,223358,A,3339.0933,N,11738.6652,W,18.10,19.50,200310,,*0F
$GPRMC,223401,A,3339.1160,N,11738.6598,W,27.10,13.70,200310,,*0A
$GPRMC,223404,A,3339.1472,N,11738.6476,W,37.00,21.90,200310,,*07
$GPRMC,223407,A,3339.1753,N,11738.6295,W,38.90,26.80,200310,,*0F
$GPRMC,223410,A,3339.2137,N,11738.6109,W,45.10,25.50,200310,,*04
$GPRMC,223413,A,3339.2399,N,11738.5966,W,43.70,24.40,200310,,*03
$GPRMC,223416,A,3339.2803,N,11738.5765,W,40.40,22.00,200310,,*01
$GPRMC,223419,A,3339.3043,N,11738.5646,W,38.40,23.70,200310,,*0A
$GPRMC,223423,A,3339.3381,N,11738.5451,W,34.80,28.20,200310,,*04
$GPRMC,223426,A,3339.3630,N,11738.5274,W,28.50,29.60,200310,,*0A
$GPRMC,223429,A,3339.3779,N,11738.5210,W,22.20,20.10,200310,,*08
$GPRMC,223432,A,3339.3921,N,11738.5165,W,20.80,18.20,200310,,*00
$GPRMC,223435,A,3339.3990,N,11738.5119,W,12.10,11.50,200310,,*00
$GPRMC,223438,A,3339.4080,N,11738.5158,W,8.30,352.10,200310,,*0E
$GPRMC,223502,A,3339.4229,N,11738.5156,W,11.50,351.80,200310,,*3D
$GPRMC,223505,A,3339.4528,N,11738.5044,W,26.40,15.20,200310,,*02
$GPRMC,223508,A,3339.4932,N,11738.5006,W,35.60,1.20,200310,,*3B
$GPRMC,223511,A,3339.5273,N,11738.5026,W,37.30,359.00,200310,,*35
$GPRMC,223514,A,3339.5560,N,11738.5037,W,35.40,358.80,200310,,*39
$GPRMC,223517,A,3339.5868,N,11738.5041,W,36.90,358.40,200310,,*3C
$GPRMC,223520,A,3339.6115,N,11738.5070,W,30.30,354.80,200310,,*36
$GPRMC,223523,A,3339.6357,N,11738.5064,W,28.60,0.60,200310,,*34
$GPRMC,223526,A,3339.6463,N,11738.5030,W,20.70,14.90,200310,,*03
$GPRMC,223529,A,3339.6493,N,11738.4871,W,20.50,57.10,200310,,*02
$GPRMC,223532,A,3339.6577,N,11738.4519,W,35.70,70.50,200310,,*07
$GPRMC,223535,A,3339.6707,N,11738.4021,W,49.20,70.80,200310,,*08
$GPRMC,223538,A,3339.6783,N,11738.3515,W,54.50,76.20,200310,,*0B
$GPRMC,223541,A,3339.6933,N,11738.2892,W,62.00,77.60,200310,,*06
$GPRMC,223544,A,3339.7165,N,11738.2224,W,70.10,70.80,200310,,*05
$GPRMC,223547,A,3339.7396,N,11738.1604,W,64.90,66.90,200310,,*06
$GPRMC,223550,A,3339.7709,N,11738.1055,W,62.90,58.30,200310,,*01
$GPRMC,223553,A,3339.8016,N,11738.0561,W,59.30,54.20,200310,,*08
$GPRMC,223556,A,3339.8272,N,11738.0090,W,56.30,57.90,200310,,*01
$GPRMC,223559,A,3339.8481,N,11737.9590,W,54.00,61.90,200310,,*03
$GPRMC,223603,A,3339.8659,N,11737.9114,W,47.30,59.90,200310,,*0A
$GPRMC,223606,A,3339.8883,N,11737.8703,W,52.50,56.00,200310,,*03
$GPRMC,223609,A,3339.9141,N,11737.8256,W,55.80,55.00,200310,,*06
$GPRMC,223612,A,3339.9493,N,11737.7699,W,55.40,52.50,200310,,*00
$GPRMC,223615,A,3339.9752,N,11737.7310,W,49.80,48.00,200310,,*02
$GPRMC,223618,A,3340.0128,N,11737.7012,W,49.60,37.10,200310,,*05
$GPRMC,223621,A,3340.0454,N,11737.6760,W,43.00,33.80,200310,,*03
$GPRMC,223624,A,3340.0670,N,11737.6573,W,31.60,30.00,200310,,*0A
$GPRMC,223627,A,3340.0788,N,11737.6434,W,19.00,28.80,200310,,*00
$GPRMC,223630,A,3340.0838,N,11737.6386,W,6.40,16.40,200310,,*37
$GPRMC,223636,A,3340.0868,N,11737.6377,W,6.50,59.90,200310,,*3D
$GPRMC,223639,A,3340.0961,N,11737.6270,W,16.40,48.90,200310,,*0C
$GPRMC,223642,A,3340.1073,N,11737.6144,W,22.00,45.60,200310,,*0E
$GPRMC,223645,A,3340.1337,N,11737.6025,W,31.60,25.40,200310,,*0C
$GPRMC,223648,A,3340.1667,N,11737.5934,W,30.50,15.80,200310,,*06
$GPRMC,223651,A,3340.1790,N,11737.5881,W,20.90,20.80,200310,,*03
$GPRMC,223654,A,3340.1934,N,11737.5818,W,15.10,13.40,200310,,*04
$GPRMC,223755,A,3340.2059,N,11737.5880,W,8.20,319.00,200310,,*06
$GPRMC,223758,A,3340.2234,N,11737.6069,W,21.70,308.90,200310,,*39
$GPRMC,223801,A,3340.2343,N,11737.6442,W,35.30,284.80,200310,,*33
$GPRMC,223804,A,3340.2389,N,11737.6821,W,36.20,276.90,200310,,*37
$GPRMC,223807,A,3340.2337,N,11737.7206,W,41.00,266.00,200310,,*35
$GPRMC,223810,A,3340.2283,N,11737.7636,W,42.10,262.80,200310,,*34
$GPRMC,223813,A,3340.2265,N,11737.8061,W,42.50,264.70,200310,,*39
$GPRMC,223816,A,3340.2236,N,11737.8502,W,45.00,267.80,200310,,*34
$GPRMC,223819,A,3340.2255,N,11737.8950,W,45.40,274.70,200310,,*3C
$GPRMC,223822,A,3340.2326,N,11737.9254,W,45.50,283.20,200310,,*33
$GPRMC,223825,A,3340.2510,N,11737.9796,W,45.40,293.00,200310,,*3E
$GPRMC,223828,A,3340.2697,N,11738.0211,W,46.10,299.60,200310,,*39
$GPRMC,223834,A,3340.3144,N,11738.0855,W,41.60,312.80,200310,,*3A
$GPRMC,223837,A,3340.3483,N,11738.1152,W,44.80,317.30,200310,,*3D
$GPRMC,223840,A,3340.3793,N,11738.1478,W,45.40,318.70,200310,,*34
$GPRMC,223843,A,3340.4098,N,11738.1752,W,43.40,322.00,200310,,*3F
$GPRMC,223846,A,3340.4237,N,11738.1907,W,27.60,320.80,200310,,*39
$GPRMC,223849,A,3340.4311,N,11738.1975,W,17.60,341.90,200310,,*33
$GPRMC,223852,A,3340.4474,N,11738.1871,W,22.90,29.50,200310,,*00
$GPRMC,223855,A,3340.4726,N,11738.1607,W,36.80,40.20,200310,,*00
$GPRMC,223858,A,3340.5002,N,11738.1358,W,40.60,34.90,200310,,*05
$GPRMC,223901,A,3340.5272,N,11738.1175,W,38.50,32.20,200310,,*01
$GPRMC,223904,A,3340.5563,N,11738.0953,W,40.20,31.10,200310,,*06
$GPRMC,223907,A,3340.5847,N,11738.0738,W,40.60,32.50,200310,,*0E
$GPRMC,223910,A,3340.6120,N,11738.0561,W,37.50,25.20,200310,,*0F
$GPRMC,223913,A,3340.6415,N,11738.0475,W,35.70,18.30,200310,,*04
$GPRMC,223916,A,3340.6710,N,11738.0348,W,37.80,17.60,200310,,*09
$GPRMC,223919,A,3340.7033,N,11738.0286,W,38.20,16.30,200310,,*03
