NMEA Sentence Code,UTC Time,Status,Latitude,Latitude Direction,Longitude,Longitude Direction,Speed (knots),Track Angle (degrees true),Date,MagneticVariation,Magnetic Variation Direction,[FAA Mode]-Optional,Checksum
$GPRMC,152427.000,A,3246.3249,N,11701.1043,W,15.21,237.2,161110,,*1C
$GPRMC,152430.000,A,3246.3184,N,11701.1166,W,15.88,237.6,161110,,*19
$GPRMC,152433.000,A,3246.3115,N,11701.1294,W,16.39,238.6,161110,,*1A
$GPRMC,152436.000,A,3246.3046,N,11701.1438,W,17.94,240.6,161110,,*11
$GPRMC,152439.000,A,3246.2969,N,11701.1619,W,23.19,244.4,161110,,*1E
$GPRMC,152442.000,A,3246.2893,N,11701.1846,W,26.42,248.2,161110,,*13
$GPRMC,152445.000,A,3246.2818,N,11701.2114,W,30.40,252.0,161110,,*16
$GPRMC,152448.000,A,3246.2754,N,11701.2409,W,30.93,256.6,161110,,*19
$GPRMC,152451.000,A,3246.2708,N,11701.2713,W,31.20,259.8,161110,,*18
$GPRMC,152454.000,A,3246.2671,N,11701.3021,W,31.20,262.8,161110,,*1D
$GPRMC,152457.000,A,3246.2653,N,11701.3331,W,33.05,266.1,161110,,*14
$GPRMC,152500.000,A,3246.2646,N,11701.3668,W,34.27,269.7,161110,,*14
$GPRMC,152503.000,A,3246.2662,N,11701.4006,W,32.58,273.7,161110,,*1D
$GPRMC,152506.000,A,3246.2686,N,11701.4320,W,30.21,276.3,161110,,*18
$GPRMC,152509.000,A,3246.2722,N,11701.4611,W,29.48,279.6,161110,,*12
$GPRMC,152512.000,A,3246.2789,N,11701.4890,W,29.02,284.7,161110,,*13
$GPRMC,152515.000,A,3246.2864,N,11701.5158,W,28.55,288.5,161110,,*19
$GPRMC,152518.000,A,3246.2954,N,11701.5416,W,28.51,293.4,161110,,*16
$GPRMC,152521.000,A,3246.3060,N,11701.5662,W,27.58,297.2,161110,,*16
$GPRMC,152524.000,A,3246.3167,N,11701.5878,W,22.51,299.2,161110,,*12
$GPRMC,152527.000,A,3246.3255,N,11701.6068,W,20.75,299.7,161110,,*18
$GPRMC,152530.000,A,3246.3341,N,11701.6247,W,21.24,299.1,161110,,*16
$GPRMC,152533.000,A,3246.3433,N,11701.6436,W,22.70,298.8,161110,,*1D
$GPRMC,152536.000,A,3246.3526,N,11701.6645,W,25.81,297.4,161110,,*11
$GPRMC,152539.000,A,3246.3622,N,11701.6881,W,26.94,297.1,161110,,*1D
$GPRMC,152542.000,A,3246.3721,N,11701.7116,W,27.34,296.4,161110,,*1A
$GPRMC,152545.000,A,3246.3823,N,11701.7370,W,28.72,296.6,161110,,*1D
$GPRMC,152548.000,A,3246.3931,N,11701.7614,W,27.06,296.8,161110,,*17
$GPRMC,152551.000,A,3246.4029,N,11701.7848,W,25.67,296.8,161110,,*1A
$GPRMC,152554.000,A,3246.4121,N,11701.8058,W,22.56,297.2,161110,,*1E
$GPRMC,152557.000,A,3246.4209,N,11701.8249,W,22.87,295.9,161110,,*13
$GPRMC,152600.000,A,3246.4287,N,11701.8453,W,23.09,293.4,161110,,*15
$GPRMC,152603.000,A,3246.4361,N,11701.8682,W,27.20,290.0,161110,,*19
$GPRMC,152606.000,A,3246.4426,N,11701.8960,W,29.60,285.7,161110,,*12
$GPRMC,152609.000,A,3246.4477,N,11701.9259,W,31.05,281.3,161110,,*13
$GPRMC,152612.000,A,3246.4513,N,11701.9560,W,31.48,276.9,161110,,*1C
$GPRMC,152615.000,A,3246.4530,N,11701.9879,W,32.79,272.6,161110,,*15
$GPRMC,152618.000,A,3246.4516,N,11702.0205,W,33.97,267.5,161110,,*11
$GPRMC,152621.000,A,3246.4487,N,11702.0536,W,33.82,262.7,161110,,*16
$GPRMC,152624.000,A,3246.4439,N,11702.0861,W,33.50,258.4,161110,,*1C
$GPRMC,152627.000,A,3246.4366,N,11702.1192,W,35.45,254.9,161110,,*15
$GPRMC,152630.000,A,3246.4284,N,11702.1532,W,36.39,254.5,161110,,*14
$GPRMC,152633.000,A,3246.4202,N,11702.1889,W,38.73,254.5,161110,,*14
$GPRMC,152636.000,A,3246.4111,N,11702.2269,W,40.62,254.1,161110,,*1C
$GPRMC,152639.000,A,3246.4016,N,11702.2660,W,41.39,254.2,161110,,*14
$GPRMC,152642.000,A,3246.3922,N,11702.3071,W,45.11,254.5,161110,,*1F
$GPRMC,152645.000,A,3246.3819,N,11702.3518,W,48.39,254.9,161110,,*10
$GPRMC,152648.000,A,3246.3732,N,11702.3998,W,50.33,259.0,161110,,*18
$GPRMC,152651.000,A,3246.3684,N,11702.4492,W,49.52,265.5,161110,,*19
$GPRMC,152654.000,A,3246.3689,N,11702.4981,W,49.37,271.9,161110,,*14
$GPRMC,152657.000,A,3246.3744,N,11702.5469,W,50.12,279.6,161110,,*15
$GPRMC,152700.000,A,3246.3855,N,11702.5943,W,48.97,286.3,161110,,*1D
$GPRMC,152703.000,A,3246.4008,N,11702.6373,W,46.01,292.6,161110,,*12
$GPRMC,152706.000,A,3246.4184,N,11702.6762,W,43.46,298.1,161110,,*1D
$GPRMC,152709.000,A,3246.4367,N,11702.7119,W,41.58,299.9,161110,,*12
$GPRMC,152712.000,A,3246.4546,N,11702.7452,W,38.67,301.2,161110,,*1E
$GPRMC,152715.000,A,3246.4712,N,11702.7765,W,37.70,301.1,161110,,*17
$GPRMC,152718.000,A,3246.4882,N,11702.8093,W,40.95,301.0,161110,,*17
$GPRMC,152721.000,A,3246.5060,N,11702.8441,W,42.37,301.4,161110,,*1D
$GPRMC,152724.000,A,3246.5248,N,11702.8810,W,44.86,300.9,161110,,*18
$GPRMC,152727.000,A,3246.5436,N,11702.9206,W,47.10,298.9,161110,,*14
$GPRMC,152730.000,A,3246.5623,N,11702.9632,W,49.79,296.9,161110,,*18
$GPRMC,152733.000,A,3246.5800,N,11703.0079,W,49.52,294.3,161110,,*14
$GPRMC,152736.000,A,3246.5961,N,11703.0542,W,52.05,291.9,161110,,*1D
$GPRMC,152739.000,A,3246.6116,N,11703.1041,W,54.48,289.6,161110,,*17
$GPRMC,152742.000,A,3246.6247,N,11703.1559,W,54.07,286.1,161110,,*13
$GPRMC,152745.000,A,3246.6343,N,11703.2069,W,52.03,283.3,161110,,*11
$GPRMC,152748.000,A,3246.6429,N,11703.2580,W,53.47,282.1,161110,,*17
$GPRMC,152751.000,A,3246.6525,N,11703.3112,W,55.17,282.3,161110,,*1D
$GPRMC,152754.000,A,3246.6622,N,11703.3659,W,56.85,282.1,161110,,*1E
$GPRMC,152757.000,A,3246.6723,N,11703.4218,W,59.27,282.1,161110,,*1C
$GPRMC,152800.000,A,3246.6829,N,11703.4787,W,58.37,282.5,161110,,*13
$GPRMC,152803.000,A,3246.6943,N,11703.5337,W,57.26,284.9,161110,,*16
$GPRMC,152806.000,A,3246.7091,N,11703.5880,W,58.50,287.5,161110,,*12
$GPRMC,152809.000,A,3246.7248,N,11703.6427,W,57.39,288.3,161110,,*10
$GPRMC,152812.000,A,3246.7402,N,11703.6960,W,56.24,288.5,161110,,*17
$GPRMC,152815.000,A,3246.7546,N,11703.7480,W,54.83,288.3,161110,,*1A
$GPRMC,152818.000,A,3246.7664,N,11703.7996,W,52.14,285.2,161110,,*1A
$GPRMC,152821.000,A,3246.7731,N,11703.8467,W,45.91,279.4,161110,,*13
$GPRMC,152824.000,A,3246.7753,N,11703.8893,W,42.24,273.1,161110,,*13
$GPRMC,152827.000,A,3246.7745,N,11703.9300,W,41.10,269.4,161110,,*1D
$GPRMC,152830.000,A,3246.7731,N,11703.9708,W,42.11,268.6,161110,,*15
$GPRMC,152833.000,A,3246.7715,N,11704.0124,W,43.09,268.0,161110,,*18
$GPRMC,152836.000,A,3246.7704,N,11704.0559,W,45.01,268.3,161110,,*1E
$GPRMC,152839.000,A,3246.7693,N,11704.1013,W,46.28,268.4,161110,,*1B
$GPRMC,152842.000,A,3246.7685,N,11704.1472,W,46.90,268.7,161110,,*13
$GPRMC,152845.000,A,3246.7675,N,11704.1941,W,48.21,268.7,161110,,*12
$GPRMC,152848.000,A,3246.7667,N,11704.2424,W,49.62,268.8,161110,,*18
$GPRMC,152851.000,A,3246.7662,N,11704.2927,W,51.30,269.3,161110,,*1F
$GPRMC,152854.000,A,3246.7659,N,11704.3435,W,51.42,270.4,161110,,*17
$GPRMC,152857.000,A,3246.7674,N,11704.3939,W,50.89,271.9,161110,,*10
$GPRMC,152900.000,A,3246.7691,N,11704.4444,W,50.26,273.9,161110,,*1F
$GPRMC,152903.000,A,3246.7728,N,11704.4949,W,51.65,275.0,161110,,*16
$GPRMC,152906.000,A,3246.7776,N,11704.5478,W,56.05,276.4,161110,,*10
$GPRMC,152909.000,A,3246.7844,N,11704.6034,W,56.75,279.1,161110,,*13
$GPRMC,152912.000,A,3246.7934,N,11704.6583,W,56.69,281.0,161110,,*1D
$GPRMC,152915.000,A,3246.8024,N,11704.7130,W,56.73,281.3,161110,,*18
$GPRMC,152918.000,A,3246.8114,N,11704.7683,W,56.92,281.2,161110,,*16
$GPRMC,152921.000,A,3246.8210,N,11704.8234,W,57.15,281.3,161110,,*13
$GPRMC,152924.000,A,3246.8304,N,11704.8789,W,57.24,281.4,161110,,*14
$GPRMC,152927.000,A,3246.8397,N,11704.9342,W,55.97,281.2,161110,,*13
$GPRMC,152930.000,A,3246.8485,N,11704.9877,W,53.92,281.3,161110,,*1E
$GPRMC,152933.000,A,3246.8566,N,11705.0398,W,53.72,280.5,161110,,*1A
$GPRMC,152936.000,A,3246.8627,N,11705.0948,W,58.44,277.0,161110,,*1D
$GPRMC,152939.000,A,3246.8666,N,11705.1561,W,64.01,274.0,161110,,*1C
$GPRMC,152942.000,A,3246.8666,N,11705.2190,W,63.08,269.5,161110,,*1E
$GPRMC,152945.000,A,3246.8638,N,11705.2806,W,61.06,266.2,161110,,*10
$GPRMC,152948.000,A,3246.8600,N,11705.3396,W,58.81,265.7,161110,,*16
$GPRMC,152951.000,A,3246.8560,N,11705.3967,W,55.49,264.1,161110,,*11
$GPRMC,152954.000,A,3246.8506,N,11705.4497,W,51.08,264.1,161110,,*10
$GPRMC,152957.000,A,3246.8459,N,11705.4978,W,46.63,264.0,161110,,*1E
$GPRMC,153000.000,A,3246.8419,N,11705.5412,W,40.75,263.6,161110,,*10
$GPRMC,153003.000,A,3246.8379,N,11705.5751,W,30.49,261.5,161110,,*1F
$GPRMC,153006.000,A,3246.8346,N,11705.6005,W,21.66,260.5,161110,,*1F
$GPRMC,153009.000,A,3246.8325,N,11705.6157,W,13.11,260.1,161110,,*16
$GPRMC,153012.000,A,3246.8303,N,11705.6263,W,12.37,259.2,161110,,*10
$GPRMC,153015.000,A,3246.8279,N,11705.6388,W,15.83,259.8,161110,,*1D
$GPRMC,153018.000,A,3246.8260,N,11705.6583,W,21.76,262.7,161110,,*1F
$GPRMC,153021.000,A,3246.8233,N,11705.6792,W,20.90,259.5,161110,,*12
$GPRMC,153024.000,A,3246.8202,N,11705.7011,W,25.50,259.3,161110,,*17
$GPRMC,153027.000,A,3246.8150,N,11705.7272,W,27.54,258.5,161110,,*16
$GPRMC,153030.000,A,3246.8102,N,11705.7545,W,27.08,258.0,161110,,*18
$GPRMC,153033.000,A,3246.8059,N,11705.7791,W,23.62,258.5,161110,,*12
$GPRMC,153036.000,A,3246.8018,N,11705.8017,W,24.94,258.6,161110,,*19
$GPRMC,153039.000,A,3246.7977,N,11705.8278,W,27.58,258.4,161110,,*13
$GPRMC,153042.000,A,3246.7933,N,11705.8541,W,27.11,258.5,161110,,*1E
$GPRMC,153045.000,A,3246.7888,N,11705.8801,W,26.72,258.6,161110,,*16
$GPRMC,153048.000,A,3246.7844,N,11705.9060,W,27.19,258.6,161110,,*19
$GPRMC,153051.000,A,3246.7798,N,11705.9323,W,27.39,258.5,161110,,*1A
$GPRMC,153054.000,A,3246.7749,N,11705.9588,W,25.49,258.4,161110,,*10
$GPRMC,153057.000,A,3246.7719,N,11705.9762,W,15.39,258.3,161110,,*13
$GPRMC,153100.000,A,3246.7699,N,11705.9892,W,12.80,259.2,161110,,*1C
$GPRMC,153103.000,A,3246.7682,N,11705.9978,W,8.39,259.1,161110,,*2A
$GPRMC,153106.000,A,3246.7670,N,11706.0059,W,9.33,259.2,161110,,*2A
$GPRMC,153109.000,A,3246.7650,N,11706.0180,W,16.70,259.8,161110,,*11
$GPRMC,153112.000,A,3246.7624,N,11706.0351,W,17.42,259.8,161110,,*16
$GPRMC,153115.000,A,3246.7592,N,11706.0525,W,20.24,260.3,161110,,*1F
$GPRMC,153118.000,A,3246.7561,N,11706.0760,W,27.55,260.9,161110,,*16
$GPRMC,153121.000,A,3246.7523,N,11706.1033,W,29.07,261.2,161110,,*19
$GPRMC,153124.000,A,3246.7486,N,11706.1330,W,31.70,261.8,161110,,*11
$GPRMC,153127.000,A,3246.7452,N,11706.1650,W,32.00,263.1,161110,,*17
$GPRMC,153130.000,A,3246.7423,N,11706.1958,W,30.73,263.7,161110,,*10
$GPRMC,153133.000,A,3246.7396,N,11706.2248,W,28.02,264.8,161110,,*14
$GPRMC,153136.000,A,3246.7379,N,11706.2508,W,25.72,265.5,161110,,*15
$GPRMC,153139.000,A,3246.7364,N,11706.2753,W,24.70,266.6,161110,,*19
$GPRMC,153142.000,A,3246.7343,N,11706.2965,W,18.54,265.9,161110,,*1E
$GPRMC,153145.000,A,3246.7332,N,11706.3104,W,11.61,265.0,161110,,*17
$GPRMC,153148.000,A,3246.7325,N,11706.3180,W,6.72,265.2,161110,,*26
$GPRMC,153151.000,A,3246.7323,N,11706.3255,W,9.75,266.0,161110,,*2A
$GPRMC,153154.000,A,3246.7318,N,11706.3381,W,15.21,266.9,161110,,*1A
$GPRMC,153157.000,A,3246.7315,N,11706.3545,W,18.65,267.5,161110,,*1A
$GPRMC,153200.000,A,3246.7313,N,11706.3768,W,24.41,270.6,161110,,*1C
$GPRMC,153203.000,A,3246.7329,N,11706.4038,W,29.20,272.0,161110,,*1D
$GPRMC,153206.000,A,3246.7343,N,11706.4364,W,35.22,272.3,161110,,*12
$GPRMC,153209.000,A,3246.7365,N,11706.4736,W,38.82,273.1,161110,,*1E
$GPRMC,153212.000,A,3246.7399,N,11706.5119,W,38.73,275.5,161110,,*11
$GPRMC,153215.000,A,3246.7449,N,11706.5499,W,37.69,278.8,161110,,*15
$GPRMC,153218.000,A,3246.7506,N,11706.5840,W,33.26,279.0,161110,,*1C
$GPRMC,153221.000,A,3246.7530,N,11706.6170,W,34.23,273.0,161110,,*12
$GPRMC,153224.000,A,3246.7506,N,11706.6517,W,35.56,263.5,161110,,*10
$GPRMC,153227.000,A,3246.7444,N,11706.6872,W,38.63,258.3,161110,,*1F
$GPRMC,153230.000,A,3246.7382,N,11706.7220,W,32.99,260.1,161110,,*1E
$GPRMC,153233.000,A,3246.7366,N,11706.7535,W,32.34,267.5,161110,,*10
$GPRMC,153236.000,A,3246.7360,N,11706.7893,W,36.95,269.7,161110,,*11
$GPRMC,153239.000,A,3246.7361,N,11706.8233,W,32.41,270.1,161110,,*13
$GPRMC,153242.000,A,3246.7342,N,11706.8543,W,29.08,268.2,161110,,*13
$GPRMC,153245.000,A,3246.7324,N,11706.8805,W,24.99,266.8,161110,,*1A
$GPRMC,153248.000,A,3246.7309,N,11706.9033,W,23.21,266.7,161110,,*1F
$GPRMC,153251.000,A,3246.7284,N,11706.9280,W,26.99,266.0,161110,,*18
$GPRMC,153254.000,A,3246.7265,N,11706.9525,W,23.06,265.3,161110,,*19
$GPRMC,153257.000,A,3246.7253,N,11706.9713,W,18.04,264.7,161110,,*17
$GPRMC,153300.000,A,3246.7234,N,11706.9866,W,13.75,263.3,161110,,*16
$GPRMC,153303.000,A,3246.7223,N,11707.0018,W,20.56,265.7,161110,,*19
$GPRMC,153306.000,A,3246.7203,N,11707.0274,W,30.76,262.6,161110,,*13
$GPRMC,153309.000,A,3246.7147,N,11707.0604,W,34.51,257.5,161110,,*18
$GPRMC,153312.000,A,3246.7068,N,11707.0947,W,34.33,253.6,161110,,*15
$GPRMC,153315.000,A,3246.6981,N,11707.1255,W,30.86,250.6,161110,,*1D
$GPRMC,153318.000,A,3246.6890,N,11707.1526,W,26.48,247.8,161110,,*1F
$GPRMC,153321.000,A,3246.6815,N,11707.1729,W,18.86,246.0,161110,,*13
$GPRMC,153324.000,A,3246.6760,N,11707.1875,W,14.25,245.6,161110,,*1D
$GPRMC,153327.000,A,3246.6734,N,11707.1941,W,4.50,245.1,161110,,*2D
$GPRMC,153333.000,A,3246.6700,N,11707.2012,W,7.94,242.7,161110,,*29
$GPRMC,153336.000,A,3246.6653,N,11707.2115,W,15.30,242.3,161110,,*14
$GPRMC,153339.000,A,3246.6577,N,11707.2274,W,19.39,240.5,161110,,*1B
$GPRMC,153342.000,A,3246.6488,N,11707.2456,W,22.87,238.9,161110,,*1E
$GPRMC,153345.000,A,3246.6379,N,11707.2651,W,23.76,237.4,161110,,*18
$GPRMC,153348.000,A,3246.6251,N,11707.2881,W,30.13,235.3,161110,,*19
$GPRMC,153351.000,A,3246.6096,N,11707.3147,W,33.39,234.8,161110,,*1B
$GPRMC,153354.000,A,3246.5940,N,11707.3413,W,31.77,234.7,161110,,*1C
$GPRMC,153357.000,A,3246.5784,N,11707.3677,W,34.03,234.7,161110,,*1F
$GPRMC,153400.000,A,3246.5609,N,11707.3970,W,36.99,234.8,161110,,*18
$GPRMC,153403.000,A,3246.5435,N,11707.4258,W,34.82,234.9,161110,,*19
$GPRMC,153406.000,A,3246.5271,N,11707.4535,W,34.55,235.3,161110,,*17
$GPRMC,153409.000,A,3246.5108,N,11707.4819,W,35.12,236.4,161110,,*10
$GPRMC,153412.000,A,3246.4946,N,11707.5104,W,34.01,236.8,161110,,*12
$GPRMC,153415.000,A,3246.4799,N,11707.5384,W,32.58,237.4,161110,,*14
$GPRMC,153418.000,A,3246.4665,N,11707.5641,W,27.95,237.6,161110,,*10
$GPRMC,153421.000,A,3246.4558,N,11707.5843,W,19.68,239.2,161110,,*1E
$GPRMC,153424.000,A,3246.4487,N,11707.5986,W,15.74,239.9,161110,,*1A
$GPRMC,153427.000,A,3246.4430,N,11707.6102,W,13.90,241.0,161110,,*18
$GPRMC,153430.000,A,3246.4368,N,11707.6234,W,18.65,240.1,161110,,*13
$GPRMC,153433.000,A,3246.4282,N,11707.6405,W,21.12,240.8,161110,,*12
$GPRMC,153436.000,A,3246.4208,N,11707.6587,W,18.33,242.9,161110,,*14
$GPRMC,153439.000,A,3246.4153,N,11707.6727,W,14.76,245.4,161110,,*19
$GPRMC,153442.000,A,3246.4105,N,11707.6855,W,15.36,246.4,161110,,*1A
$GPRMC,153445.000,A,3246.4051,N,11707.7016,W,20.38,248.3,161110,,*12
$GPRMC,153448.000,A,3246.3989,N,11707.7220,W,21.23,250.7,161110,,*15
$GPRMC,153451.000,A,3246.3937,N,11707.7411,W,18.81,251.3,161110,,*1B
$GPRMC,153454.000,A,3246.3893,N,11707.7564,W,11.81,250.0,161110,,*19
$GPRMC,153457.000,A,3246.3873,N,11707.7638,W,5.75,252.5,161110,,*27
$GPRMC,153500.000,A,3246.3856,N,11707.7708,W,10.24,252.1,161110,,*15
$GPRMC,153503.000,A,3246.3820,N,11707.7831,W,15.89,253.0,161110,,*10
$GPRMC,153506.000,A,3246.3785,N,11707.7992,W,15.95,255.7,161110,,*11
$GPRMC,153509.000,A,3246.3764,N,11707.8138,W,13.10,261.2,161110,,*1F
$GPRMC,153512.000,A,3246.3751,N,11707.8247,W,8.93,263.7,161110,,*2E
$GPRMC,153515.000,A,3246.3750,N,11707.8327,W,7.44,267.9,161110,,*20
$GPRMC,153518.000,A,3246.3751,N,11707.8390,W,5.98,271.3,161110,,*2E
$GPRMC,153521.000,A,3246.3757,N,11707.8469,W,9.02,275.1,161110,,*2A
$GPRMC,153524.000,A,3246.3764,N,11707.8547,W,6.92,279.8,161110,,*21
$GPRMC,153527.000,A,3246.3781,N,11707.8634,W,11.02,281.8,161110,,*16
$GPRMC,153530.000,A,3246.3812,N,11707.8768,W,17.04,286.9,161110,,*1B
$GPRMC,153533.000,A,3246.3856,N,11707.8917,W,14.89,292.9,161110,,*1D
$GPRMC,153536.000,A,3246.3927,N,11707.9071,W,19.88,299.7,161110,,*1E
$GPRMC,153539.000,A,3246.4017,N,11707.9228,W,17.13,306.7,161110,,*19
$GPRMC,153542.000,A,3246.4109,N,11707.9346,W,16.83,312.7,161110,,*1F
$GPRMC,153545.000,A,3246.4217,N,11707.9470,W,19.12,315.9,161110,,*18
$GPRMC,153548.000,A,3246.4335,N,11707.9596,W,17.37,317.3,161110,,*1C
$GPRMC,153551.000,A,3246.4434,N,11707.9703,W,15.13,318.4,161110,,*10
$GPRMC,153554.000,A,3246.4538,N,11707.9807,W,17.73,319.1,161110,,*13
$GPRMC,153557.000,A,3246.4644,N,11707.9915,W,16.89,319.6,161110,,*19
$GPRMC,153600.000,A,3246.4758,N,11708.0023,W,18.45,320.7,161110,,*1B
$GPRMC,153603.000,A,3246.4892,N,11708.0145,W,22.38,322.1,161110,,*17
$GPRMC,153606.000,A,3246.5032,N,11708.0269,W,19.44,322.8,161110,,*16
$GPRMC,153609.000,A,3246.5151,N,11708.0374,W,16.15,322.8,161110,,*1B
$GPRMC,153612.000,A,3246.5247,N,11708.0463,W,13.27,323.0,161110,,*19
$GPRMC,153615.000,A,3246.5330,N,11708.0540,W,13.59,323.2,161110,,*14
$GPRMC,153618.000,A,3246.5428,N,11708.0629,W,14.93,323.2,161110,,*1A
$GPRMC,153621.000,A,3246.5517,N,11708.0707,W,11.90,323.1,161110,,*15
$GPRMC,153624.000,A,3246.5596,N,11708.0781,W,13.54,323.0,161110,,*1C
$GPRMC,153627.000,A,3246.5705,N,11708.0873,W,17.01,323.8,161110,,*19
$GPRMC,153630.000,A,3246.5825,N,11708.0981,W,17.83,322.7,161110,,*1A
$GPRMC,153633.000,A,3246.5928,N,11708.1072,W,12.50,323.3,161110,,*1F
$GPRMC,153636.000,A,3246.5994,N,11708.1125,W,8.60,325.0,161110,,*23
$GPRMC,153639.000,A,3246.6070,N,11708.1184,W,13.41,325.8,161110,,*16
$GPRMC,153642.000,A,3246.6162,N,11708.1259,W,13.09,326.5,161110,,*19
$GPRMC,153645.000,A,3246.6247,N,11708.1325,W,11.25,326.8,161110,,*11
$GPRMC,153648.000,A,3246.6338,N,11708.1394,W,14.15,327.7,161110,,*17
$GPRMC,153651.000,A,3246.6459,N,11708.1482,W,20.64,327.5,161110,,*1C
$GPRMC,153654.000,A,3246.6612,N,11708.1592,W,19.21,328.2,161110,,*17
$GPRMC,153657.000,A,3246.6734,N,11708.1685,W,22.19,325.6,161110,,*1E
$GPRMC,153700.000,A,3246.6923,N,11708.1834,W,29.33,327.1,161110,,*17
$GPRMC,153703.000,A,3246.7119,N,11708.1981,W,25.60,328.6,161110,,*19
$GPRMC,153706.000,A,3246.7290,N,11708.2102,W,23.27,328.6,161110,,*1B
$GPRMC,153709.000,A,3246.7470,N,11708.2233,W,27.81,328.1,161110,,*12
$GPRMC,153712.000,A,3246.7684,N,11708.2390,W,32.12,328.5,161110,,*13
$GPRMC,153715.000,A,3246.7923,N,11708.2565,W,35.14,327.8,161110,,*19
$GPRMC,153718.000,A,3246.8184,N,11708.2768,W,38.25,325.8,161110,,*1C
$GPRMC,153721.000,A,3246.8460,N,11708.3007,W,42.29,322.4,161110,,*1C
$GPRMC,153724.000,A,3246.8748,N,11708.3305,W,47.55,318.4,161110,,*16
$GPRMC,153727.000,A,3246.9049,N,11708.3646,W,51.13,315.4,161110,,*18
$GPRMC,153730.000,A,3246.9351,N,11708.4034,W,54.54,312.3,161110,,*16
$GPRMC,153733.000,A,3246.9646,N,11708.4464,W,55.37,308.8,161110,,*13
$GPRMC,153736.000,A,3246.9913,N,11708.4889,W,51.87,306.2,161110,,*1D
$GPRMC,153739.000,A,3247.0169,N,11708.5318,W,54.12,305.4,161110,,*11
$GPRMC,153742.000,A,3247.0426,N,11708.5755,W,53.77,305.2,161110,,*1C
$GPRMC,153745.000,A,3247.0689,N,11708.6191,W,54.12,305.2,161110,,*15
$GPRMC,153748.000,A,3247.0955,N,11708.6629,W,55.24,306.2,161110,,*15
$GPRMC,153751.000,A,3247.1251,N,11708.7062,W,56.50,309.3,161110,,*15
$GPRMC,153754.000,A,3247.1567,N,11708.7485,W,57.74,312.5,161110,,*14
$GPRMC,153757.000,A,3247.1919,N,11708.7877,W,57.78,316.8,161110,,*16
$GPRMC,153800.000,A,3247.2282,N,11708.8235,W,57.04,320.4,161110,,*10
$GPRMC,153803.000,A,3247.2665,N,11708.8557,W,55.09,324.7,161110,,*15
$GPRMC,153806.000,A,3247.3066,N,11708.8841,W,57.53,329.0,161110,,*19
$GPRMC,153809.000,A,3247.3508,N,11708.9102,W,59.60,333.3,161110,,*12
$GPRMC,153812.000,A,3247.3966,N,11708.9325,W,59.09,337.5,161110,,*16
$GPRMC,153815.000,A,3247.4435,N,11708.9503,W,59.52,341.8,161110,,*1D
$GPRMC,153818.000,A,3247.4922,N,11708.9640,W,60.11,346.2,161110,,*1F
$GPRMC,153821.000,A,3247.5418,N,11708.9734,W,59.98,350.9,161110,,*15
$GPRMC,153824.000,A,3247.5912,N,11708.9778,W,59.33,354.9,161110,,*1A
$GPRMC,153827.000,A,3247.6413,N,11708.9789,W,58.35,0.7,161110,,*13
$GPRMC,153830.000,A,3247.6900,N,11708.9762,W,58.23,2.8,161110,,*15
$GPRMC,153833.000,A,3247.7385,N,11708.9724,W,58.30,3.4,161110,,*1D
$GPRMC,153836.000,A,3247.7868,N,11708.9683,W,58.05,3.5,161110,,*1B
$GPRMC,153839.000,A,3247.8357,N,11708.9656,W,58.58,2.7,161110,,*1F
$GPRMC,153842.000,A,3247.8838,N,11708.9636,W,57.70,358.8,161110,,*11
$GPRMC,153845.000,A,3247.9320,N,11708.9664,W,58.49,356.0,161110,,*11
$GPRMC,153848.000,A,3247.9807,N,11708.9738,W,58.71,352.0,161110,,*15
$GPRMC,153851.000,A,3248.0289,N,11708.9853,W,59.09,348.4,161110,,*14
$GPRMC,153854.000,A,3248.0779,N,11708.9979,W,60.56,347.4,161110,,*1D
$GPRMC,153857.000,A,3248.1275,N,11709.0114,W,61.56,347.2,161110,,*1A
$GPRMC,153900.000,A,3248.1774,N,11709.0249,W,61.40,347.3,161110,,*10
$GPRMC,153903.000,A,3248.2277,N,11709.0379,W,61.76,347.5,161110,,*17
$GPRMC,153906.000,A,3248.2773,N,11709.0515,W,60.42,347.6,161110,,*1A
$GPRMC,153909.000,A,3248.3260,N,11709.0638,W,58.72,348.2,161110,,*1C
$GPRMC,153912.000,A,3248.3731,N,11709.0776,W,57.77,345.5,161110,,*1C
$GPRMC,153915.000,A,3248.4189,N,11709.0947,W,57.51,341.8,161110,,*18
$GPRMC,153918.000,A,3248.4627,N,11709.1159,W,55.40,337.4,161110,,*1F
$GPRMC,153921.000,A,3248.5037,N,11709.1396,W,52.70,333.9,161110,,*1F
$GPRMC,153924.000,A,3248.5413,N,11709.1647,W,50.50,330.5,161110,,*1E
$GPRMC,153927.000,A,3248.5758,N,11709.1907,W,47.70,326.6,161110,,*1A
$GPRMC,153930.000,A,3248.6065,N,11709.2198,W,46.17,322.5,161110,,*1C
$GPRMC,153933.000,A,3248.6365,N,11709.2495,W,46.56,321.2,161110,,*15
$GPRMC,153936.000,A,3248.6651,N,11709.2789,W,44.44,320.6,161110,,*18
$GPRMC,153939.000,A,3248.6930,N,11709.3067,W,42.13,320.4,161110,,*1F
$GPRMC,153942.000,A,3248.7186,N,11709.3324,W,38.25,320.3,161110,,*1C
$GPRMC,153945.000,A,3248.7392,N,11709.3526,W,29.43,320.6,161110,,*1D
$GPRMC,153948.000,A,3248.7566,N,11709.3695,W,28.14,320.5,161110,,*16
$GPRMC,153951.000,A,3248.7762,N,11709.3882,W,32.07,320.4,161110,,*18
$GPRMC,153954.000,A,3248.7968,N,11709.4089,W,35.14,320.1,161110,,*1D
$GPRMC,153957.000,A,3248.8215,N,11709.4323,W,40.29,321.0,161110,,*1F
$GPRMC,154000.000,A,3248.8474,N,11709.4564,W,38.03,322.4,161110,,*17
$GPRMC,154003.000,A,3248.8700,N,11709.4748,W,32.08,326.9,161110,,*10
$GPRMC,154006.000,A,3248.8929,N,11709.4915,W,29.81,328.0,161110,,*1A
$GPRMC,154009.000,A,3248.9108,N,11709.5048,W,24.66,328.6,161110,,*1D
$GPRMC,154012.000,A,3248.9295,N,11709.5170,W,26.13,330.7,161110,,*12
$GPRMC,154015.000,A,3248.9470,N,11709.5282,W,21.83,331.8,161110,,*16
$GPRMC,154018.000,A,3248.9627,N,11709.5376,W,20.56,333.1,161110,,*13
$GPRMC,154021.000,A,3248.9784,N,11709.5467,W,22.96,333.6,161110,,*1F
$GPRMC,154024.000,A,3248.9986,N,11709.5581,W,29.17,334.0,161110,,*1C
$GPRMC,154027.000,A,3249.0208,N,11709.5707,W,28.13,334.3,161110,,*10
$GPRMC,154030.000,A,3249.0414,N,11709.5822,W,28.61,334.1,161110,,*12
$GPRMC,154033.000,A,3249.0644,N,11709.5950,W,30.72,334.1,161110,,*19
$GPRMC,154036.000,A,3249.0865,N,11709.6079,W,28.47,334.2,161110,,*1C
$GPRMC,154039.000,A,3249.1074,N,11709.6204,W,28.02,333.8,161110,,*1E
$GPRMC,154042.000,A,3249.1283,N,11709.6325,W,26.84,333.9,161110,,*1B
$GPRMC,154045.000,A,3249.1478,N,11709.6436,W,24.53,334.0,161110,,*1D
$GPRMC,154048.000,A,3249.1662,N,11709.6543,W,24.21,334.1,161110,,*1E
$GPRMC,154051.000,A,3249.1840,N,11709.6647,W,23.66,333.9,161110,,*14
$GPRMC,154054.000,A,3249.1996,N,11709.6737,W,17.76,334.3,161110,,*16
$GPRMC,154057.000,A,3249.2109,N,11709.6798,W,13.79,334.3,161110,,*16
$GPRMC,154100.000,A,3249.2174,N,11709.6839,W,6.31,331.9,161110,,*2C
$GPRMC,154115.000,A,3249.2239,N,11709.6878,W,5.53,332.8,161110,,*22
$GPRMC,154118.000,A,3249.2297,N,11709.6910,W,9.84,334.1,161110,,*2D
$GPRMC,154121.000,A,3249.2385,N,11709.6956,W,13.20,335.1,161110,,*13
$GPRMC,154124.000,A,3249.2500,N,11709.7025,W,15.22,334.4,161110,,*11
$GPRMC,154127.000,A,3249.2614,N,11709.7093,W,15.39,334.1,161110,,*16
$GPRMC,154130.000,A,3249.2731,N,11709.7158,W,14.45,334.1,161110,,*1A
$GPRMC,154133.000,A,3249.2837,N,11709.7218,W,13.36,334.4,161110,,*11
$GPRMC,154136.000,A,3249.2943,N,11709.7278,W,14.16,333.9,161110,,*1F
$GPRMC,154139.000,A,3249.3055,N,11709.7349,W,15.35,331.9,161110,,*1E
$GPRMC,154142.000,A,3249.3161,N,11709.7415,W,14.74,332.8,161110,,*1C
$GPRMC,154145.000,A,3249.3302,N,11709.7491,W,20.05,333.2,161110,,*1A
$GPRMC,154148.000,A,3249.3463,N,11709.7583,W,19.72,333.8,161110,,*15
$GPRMC,154151.000,A,3249.3608,N,11709.7667,W,18.89,334.1,161110,,*10
$GPRMC,154154.000,A,3249.3765,N,11709.7761,W,23.49,333.8,161110,,*12
$GPRMC,154157.000,A,3249.3954,N,11709.7869,W,24.25,333.8,161110,,*17
$GPRMC,154200.000,A,3249.4142,N,11709.7977,W,25.75,333.9,161110,,*15
$GPRMC,154203.000,A,3249.4319,N,11709.8081,W,19.91,333.2,161110,,*1B
$GPRMC,154206.000,A,3249.4436,N,11709.8151,W,14.60,334.1,161110,,*1F
$GPRMC,154209.000,A,3249.4539,N,11709.8211,W,15.01,334.1,161110,,*1F
$GPRMC,154212.000,A,3249.4669,N,11709.8290,W,18.27,333.5,161110,,*10
$GPRMC,154215.000,A,3249.4807,N,11709.8370,W,17.89,333.6,161110,,*16
$GPRMC,154218.000,A,3249.4936,N,11709.8445,W,17.68,333.3,161110,,*13
$GPRMC,154221.000,A,3249.5081,N,11709.8537,W,20.14,333.3,161110,,*16
$GPRMC,154224.000,A,3249.5220,N,11709.8617,W,18.24,333.6,161110,,*16
$GPRMC,154227.000,A,3249.5372,N,11709.8707,W,21.70,333.3,161110,,*1D
$GPRMC,154230.000,A,3249.5536,N,11709.8808,W,22.54,332.6,161110,,*1C
$GPRMC,154233.000,A,3249.5709,N,11709.8915,W,23.58,332.7,161110,,*10
$GPRMC,154236.000,A,3249.5889,N,11709.9023,W,24.13,332.7,161110,,*17
$GPRMC,154239.000,A,3249.6058,N,11709.9125,W,20.91,333.1,161110,,*11
$GPRMC,154242.000,A,3249.6197,N,11709.9206,W,17.92,333.0,161110,,*1B
$GPRMC,154245.000,A,3249.6326,N,11709.9289,W,17.91,332.6,161110,,*17
$GPRMC,154248.000,A,3249.6452,N,11709.9368,W,16.84,332.5,161110,,*16
$GPRMC,154251.000,A,3249.6573,N,11709.9441,W,16.35,332.2,161110,,*1D
$GPRMC,154254.000,A,3249.6699,N,11709.9519,W,16.97,332.8,161110,,*11
$GPRMC,154257.000,A,3249.6825,N,11709.9596,W,17.09,332.7,161110,,*15
$GPRMC,154300.000,A,3249.6953,N,11709.9675,W,16.65,332.7,161110,,*13
$GPRMC,154303.000,A,3249.7070,N,11709.9742,W,15.52,332.3,161110,,*1F
$GPRMC,154306.000,A,3249.7183,N,11709.9810,W,15.10,333.1,161110,,*1A
$GPRMC,154309.000,A,3249.7293,N,11709.9879,W,14.72,332.8,161110,,*15
$GPRMC,154312.000,A,3249.7364,N,11709.9930,W,4.72,330.2,161110,,*23
$GPRMC,154327.000,A,3249.7457,N,11709.9981,W,6.36,332.9,161110,,*23
$GPRMC,154330.000,A,3249.7504,N,11710.0012,W,6.25,328.1,161110,,*21
$GPRMC,154333.000,A,3249.7578,N,11710.0047,W,10.15,334.0,161110,,*11
$GPRMC,154336.000,A,3249.7687,N,11710.0112,W,14.82,333.9,161110,,*12
$GPRMC,154339.000,A,3249.7805,N,11710.0182,W,14.88,332.9,161110,,*1B
$GPRMC,154342.000,A,3249.7918,N,11710.0255,W,14.57,332.6,161110,,*1E
$GPRMC,154345.000,A,3249.8027,N,11710.0325,W,14.84,332.2,161110,,*1F
$GPRMC,154348.000,A,3249.8135,N,11710.0392,W,14.40,332.1,161110,,*17
$GPRMC,154351.000,A,3249.8243,N,11710.0461,W,13.85,332.3,161110,,*1A
$GPRMC,154354.000,A,3249.8338,N,11710.0522,W,10.98,332.5,161110,,*1D
$GPRMC,154357.000,A,3249.8414,N,11710.0566,W,8.82,333.5,161110,,*24
$GPRMC,154400.000,A,3249.8468,N,11710.0599,W,7.10,332.9,161110,,*23
$GPRMC,154403.000,A,3249.8518,N,11710.0628,W,7.04,331.9,161110,,*29
$GPRMC,154406.000,A,3249.8561,N,11710.0655,W,4.73,332.5,161110,,*24
$GPRMC,154409.000,A,3249.8598,N,11710.0676,W,4.77,332.5,161110,,*28
$GPRMC,154412.000,A,3249.8642,N,11710.0706,W,7.70,332.1,161110,,*20
$GPRMC,154415.000,A,3249.8714,N,11710.0753,W,10.13,332.5,161110,,*12
$GPRMC,154418.000,A,3249.8790,N,11710.0796,W,8.84,333.0,161110,,*29
$GPRMC,154421.000,A,3249.8851,N,11710.0830,W,7.54,333.2,161110,,*22
$GPRMC,154424.000,A,3249.8915,N,11710.0868,W,8.37,333.0,161110,,*23
$GPRMC,154427.000,A,3249.8968,N,11710.0899,W,4.77,332.7,161110,,*2A
$GPRMC,154442.000,A,3249.9011,N,11710.0921,W,4.78,332.7,161110,,*22
$GPRMC,154445.000,A,3249.9072,N,11710.0955,W,10.84,333.3,161110,,*10
$GPRMC,154448.000,A,3249.9160,N,11710.1006,W,11.02,333.3,161110,,*1E
$GPRMC,154451.000,A,3249.9241,N,11710.1060,W,10.80,332.7,161110,,*18
$GPRMC,154454.000,A,3249.9322,N,11710.1110,W,11.95,332.9,161110,,*14
$GPRMC,154457.000,A,3249.9430,N,11710.1175,W,16.78,332.7,161110,,*1A
$GPRMC,154500.000,A,3249.9554,N,11710.1249,W,16.18,332.6,161110,,*11
$GPRMC,154503.000,A,3249.9669,N,11710.1319,W,15.37,332.2,161110,,*11
$GPRMC,154506.000,A,3249.9772,N,11710.1384,W,11.00,331.7,161110,,*1D
$GPRMC,154509.000,A,3249.9834,N,11710.1425,W,6.84,332.3,161110,,*2E
$GPRMC,154512.000,A,3249.9872,N,11710.1448,W,4.94,332.7,161110,,*2A
$GPRMC,154515.000,A,3249.9924,N,11710.1477,W,9.53,333.7,161110,,*24
$GPRMC,154518.000,A,3250.0019,N,11710.1528,W,13.65,337.3,161110,,*1A
$GPRMC,154521.000,A,3250.0103,N,11710.1577,W,10.08,334.6,161110,,*1E
$GPRMC,154524.000,A,3250.0168,N,11710.1617,W,7.59,332.1,161110,,*20
$GPRMC,154527.000,A,3250.0217,N,11710.1660,W,6.15,330.5,161110,,*27
$GPRMC,154530.000,A,3250.0269,N,11710.1692,W,9.15,331.6,161110,,*28
$GPRMC,154533.000,A,3250.0343,N,11710.1731,W,7.79,332.8,161110,,*23
$GPRMC,154554.000,A,3250.0454,N,11710.1804,W,8.42,331.3,161110,,*25
$GPRMC,154603.000,A,3250.0566,N,11710.1885,W,11.16,327.3,161110,,*13
$GPRMC,154606.000,A,3250.0686,N,11710.1973,W,18.52,329.6,161110,,*11
$GPRMC,154609.000,A,3250.0835,N,11710.2067,W,19.79,331.9,161110,,*19
$GPRMC,154612.000,A,3250.0973,N,11710.2153,W,16.14,332.8,161110,,*10
$GPRMC,154615.000,A,3250.1087,N,11710.2223,W,14.89,333.0,161110,,*1F
$GPRMC,154618.000,A,3250.1198,N,11710.2290,W,15.49,332.8,161110,,*11
$GPRMC,154621.000,A,3250.1326,N,11710.2363,W,17.74,332.9,161110,,*1C
$GPRMC,154624.000,A,3250.1455,N,11710.2438,W,17.49,333.1,161110,,*14
$GPRMC,154627.000,A,3250.1588,N,11710.2519,W,17.32,332.7,161110,,*1F
$GPRMC,154630.000,A,3250.1730,N,11710.2607,W,21.05,332.8,161110,,*1A
$GPRMC,154633.000,A,3250.1897,N,11710.2709,W,23.03,332.8,161110,,*10
$GPRMC,154636.000,A,3250.2072,N,11710.2814,W,24.71,334.7,161110,,*1D
$GPRMC,154639.000,A,3250.2271,N,11710.2917,W,26.13,335.5,161110,,*14
$GPRMC,154642.000,A,3250.2466,N,11710.3034,W,26.55,333.5,161110,,*15
$GPRMC,154645.000,A,3250.2692,N,11710.3158,W,33.58,335.6,161110,,*1C
$GPRMC,154648.000,A,3250.2982,N,11710.3327,W,41.34,333.5,161110,,*1F
$GPRMC,154651.000,A,3250.3328,N,11710.3532,W,48.03,333.1,161110,,*17
$GPRMC,154654.000,A,3250.3702,N,11710.3759,W,49.17,332.7,161110,,*12
$GPRMC,154657.000,A,3250.4078,N,11710.3993,W,50.71,332.7,161110,,*1C
$GPRMC,154700.000,A,3250.4461,N,11710.4225,W,51.87,333.0,161110,,*1C
$GPRMC,154703.000,A,3250.4853,N,11710.4462,W,52.50,333.6,161110,,*18
$GPRMC,154706.000,A,3250.5258,N,11710.4680,W,54.91,336.1,161110,,*1A
$GPRMC,154709.000,A,3250.5700,N,11710.4897,W,58.54,337.6,161110,,*16
$GPRMC,154712.000,A,3250.6175,N,11710.5100,W,61.64,340.6,161110,,*14
$GPRMC,154715.000,A,3250.6671,N,11710.5248,W,60.63,347.0,161110,,*18
$GPRMC,154718.000,A,3250.7166,N,11710.5340,W,57.17,350.9,161110,,*14
$GPRMC,154721.000,A,3250.7613,N,11710.5414,W,51.19,350.9,161110,,*15
$GPRMC,154724.000,A,3250.8015,N,11710.5528,W,48.53,342.7,161110,,*1A
$GPRMC,154727.000,A,3250.8354,N,11710.5780,W,47.15,325.4,161110,,*10
$GPRMC,154730.000,A,3250.8612,N,11710.6160,W,50.24,307.8,161110,,*12
$GPRMC,154733.000,A,3250.8775,N,11710.6623,W,51.35,290.5,161110,,*12
$GPRMC,154736.000,A,3250.8815,N,11710.7129,W,51.29,272.9,161110,,*1F
$GPRMC,154739.000,A,3250.8730,N,11710.7646,W,53.36,261.6,161110,,*17
$GPRMC,154742.000,A,3250.8643,N,11710.8175,W,53.73,260.2,161110,,*12
$GPRMC,154745.000,A,3250.8554,N,11710.8699,W,52.47,259.0,161110,,*1B
$GPRMC,154748.000,A,3250.8465,N,11710.9220,W,54.03,259.3,161110,,*17
$GPRMC,154751.000,A,3250.8373,N,11710.9762,W,55.31,259.5,161110,,*1A
$GPRMC,154754.000,A,3250.8293,N,11711.0297,W,54.67,260.3,161110,,*19
$GPRMC,154757.000,A,3250.8218,N,11711.0831,W,54.30,260.8,161110,,*16
$GPRMC,154800.000,A,3250.8148,N,11711.1370,W,55.11,261.0,161110,,*19
$GPRMC,154803.000,A,3250.8076,N,11711.1914,W,55.53,261.1,161110,,*19
$GPRMC,154806.000,A,3250.8002,N,11711.2457,W,55.69,260.9,161110,,*16
$GPRMC,154809.000,A,3250.7930,N,11711.2989,W,52.58,260.8,161110,,*14
$GPRMC,154812.000,A,3250.7864,N,11711.3480,W,48.56,261.2,161110,,*15
$GPRMC,154815.000,A,3250.7802,N,11711.3943,W,46.47,261.2,161110,,*1E
$GPRMC,154818.000,A,3250.7746,N,11711.4397,W,48.18,261.3,161110,,*1D
$GPRMC,154821.000,A,3250.7681,N,11711.4873,W,50.69,260.9,161110,,*18
$GPRMC,154824.000,A,3250.7612,N,11711.5377,W,52.46,260.7,161110,,*18
$GPRMC,154827.000,A,3250.7546,N,11711.5886,W,52.03,261.7,161110,,*1C
$GPRMC,154830.000,A,3250.7507,N,11711.6398,W,52.18,265.2,161110,,*13
$GPRMC,154833.000,A,3250.7495,N,11711.6925,W,53.57,268.9,161110,,*1A
$GPRMC,154836.000,A,3250.7514,N,11711.7454,W,53.60,272.9,161110,,*12
$GPRMC,154839.000,A,3250.7568,N,11711.7973,W,52.32,277.5,161110,,*11
$GPRMC,154842.000,A,3250.7653,N,11711.8496,W,55.34,281.1,161110,,*13
$GPRMC,154845.000,A,3250.7763,N,11711.9065,W,62.12,282.9,161110,,*14
$GPRMC,154848.000,A,3250.7870,N,11711.9680,W,62.02,282.8,161110,,*19
$GPRMC,154851.000,A,3250.7985,N,11712.0270,W,59.71,282.9,161110,,*16
$GPRMC,154854.000,A,3250.8101,N,11712.0843,W,58.67,282.7,161110,,*1A
$GPRMC,154857.000,A,3250.8201,N,11712.1400,W,56.48,281.2,161110,,*15
$GPRMC,154900.000,A,3250.8261,N,11712.1946,W,56.26,276.6,161110,,*1B
$GPRMC,154903.000,A,3250.8278,N,11712.2504,W,56.11,271.6,161110,,*1A
$GPRMC,154906.000,A,3250.8251,N,11712.3054,W,54.92,266.4,161110,,*18
$GPRMC,154909.000,A,3250.8184,N,11712.3583,W,54.33,261.2,161110,,*19
$GPRMC,154912.000,A,3250.8075,N,11712.4107,W,53.72,255.9,161110,,*1D
$GPRMC,154915.000,A,3250.7935,N,11712.4603,W,52.48,251.2,161110,,*1C
$GPRMC,154918.000,A,3250.7765,N,11712.5081,W,52.16,246.1,161110,,*19
$GPRMC,154921.000,A,3250.7563,N,11712.5532,W,50.30,242.6,161110,,*1F
$GPRMC,154924.000,A,3250.7366,N,11712.5961,W,48.13,242.6,161110,,*1B
$GPRMC,154927.000,A,3250.7186,N,11712.6371,W,46.27,242.8,161110,,*1B
$GPRMC,154930.000,A,3250.7012,N,11712.6771,W,45.66,242.5,161110,,*1E
$GPRMC,154933.000,A,3250.6843,N,11712.7164,W,44.15,242.6,161110,,*15
$GPRMC,154936.000,A,3250.6678,N,11712.7540,W,40.58,242.7,161110,,*18
$GPRMC,154939.000,A,3250.6530,N,11712.7873,W,36.02,242.5,161110,,*19
$GPRMC,154942.000,A,3250.6390,N,11712.8192,W,37.20,242.6,161110,,*12
$GPRMC,154945.000,A,3250.6250,N,11712.8512,W,35.38,242.1,161110,,*18
$GPRMC,154948.000,A,3250.6120,N,11712.8803,W,31.33,242.2,161110,,*10
$GPRMC,154951.000,A,3250.6004,N,11712.9074,W,29.74,241.5,161110,,*18
$GPRMC,154954.000,A,3250.5882,N,11712.9337,W,31.28,240.9,161110,,*11
$GPRMC,154957.000,A,3250.5747,N,11712.9618,W,33.77,240.8,161110,,*15
$GPRMC,155000.000,A,3250.5614,N,11712.9903,W,31.26,241.1,161110,,*13
$GPRMC,155003.000,A,3250.5497,N,11713.0155,W,27.50,241.7,161110,,*1A
$GPRMC,155006.000,A,3250.5395,N,11713.0381,W,24.90,241.3,161110,,*1A
$GPRMC,155009.000,A,3250.5297,N,11713.0587,W,23.96,240.7,161110,,*12
$GPRMC,155012.000,A,3250.5194,N,11713.0796,W,24.95,240.9,161110,,*10
$GPRMC,155015.000,A,3250.5086,N,11713.1028,W,27.89,240.6,161110,,*17
$GPRMC,155018.000,A,3250.4978,N,11713.1253,W,24.87,240.5,161110,,*13
$GPRMC,155021.000,A,3250.4885,N,11713.1441,W,19.72,240.7,161110,,*19
$GPRMC,155024.000,A,3250.4824,N,11713.1576,W,10.71,241.8,161110,,*16
$GPRMC,155027.000,A,3250.4792,N,11713.1644,W,7.96,241.6,161110,,*24
$GPRMC,155030.000,A,3250.4759,N,11713.1711,W,8.83,241.2,161110,,*2B
$GPRMC,155033.000,A,3250.4719,N,11713.1789,W,10.27,241.7,161110,,*1F
$GPRMC,155036.000,A,3250.4681,N,11713.1878,W,10.05,243.3,161110,,*1D
$GPRMC,155039.000,A,3250.4650,N,11713.1949,W,7.55,243.8,161110,,*25
$GPRMC,155042.000,A,3250.4623,N,11713.2020,W,8.49,244.1,161110,,*24
$GPRMC,155045.000,A,3250.4584,N,11713.2107,W,12.10,245.4,161110,,*1A
$GPRMC,155048.000,A,3250.4542,N,11713.2221,W,12.90,246.1,161110,,*14
$GPRMC,155051.000,A,3250.4503,N,11713.2335,W,12.42,246.7,161110,,*14
$GPRMC,155054.000,A,3250.4467,N,11713.2439,W,10.36,247.5,161110,,*1B
$GPRMC,155057.000,A,3250.4430,N,11713.2541,W,13.13,248.5,161110,,*1F
$GPRMC,155100.000,A,3250.4386,N,11713.2683,W,16.34,249.8,161110,,*17
$GPRMC,155103.000,A,3250.4342,N,11713.2838,W,16.15,250.9,161110,,*18
$GPRMC,155106.000,A,3250.4305,N,11713.2984,W,15.33,252.6,161110,,*12
$GPRMC,155109.000,A,3250.4270,N,11713.3129,W,17.63,253.2,161110,,*12
$GPRMC,155112.000,A,3250.4222,N,11713.3320,W,20.89,254.8,161110,,*19
$GPRMC,155115.000,A,3250.4176,N,11713.3548,W,26.90,255.9,161110,,*1A
$GPRMC,155118.000,A,3250.4122,N,11713.3820,W,29.50,256.9,161110,,*15
$GPRMC,155121.000,A,3250.4071,N,11713.4108,W,29.56,258.0,161110,,*1D
$GPRMC,155124.000,A,3250.4023,N,11713.4393,W,28.99,258.1,161110,,*1C
$GPRMC,155127.000,A,3250.3970,N,11713.4697,W,33.77,257.9,161110,,*1B
$GPRMC,155130.000,A,3250.3905,N,11713.5044,W,37.63,257.5,161110,,*1B
$GPRMC,155133.000,A,3250.3837,N,11713.5418,W,39.41,257.6,161110,,*18
$GPRMC,155136.000,A,3250.3765,N,11713.5808,W,40.40,257.8,161110,,*19
$GPRMC,155139.000,A,3250.3694,N,11713.6192,W,38.47,257.6,161110,,*16
$GPRMC,155142.000,A,3250.3634,N,11713.6507,W,30.79,257.3,161110,,*18
$GPRMC,155145.000,A,3250.3581,N,11713.6779,W,25.46,257.4,161110,,*16
$GPRMC,155148.000,A,3250.3542,N,11713.6982,W,19.66,257.6,161110,,*11
$GPRMC,155151.000,A,3250.3516,N,11713.7142,W,15.76,258.4,161110,,*1D
$GPRMC,155154.000,A,3250.3495,N,11713.7290,W,17.35,258.7,161110,,*18
$GPRMC,155157.000,A,3250.3461,N,11713.7472,W,19.85,258.9,161110,,*11
$GPRMC,155200.000,A,3250.3437,N,11713.7655,W,18.61,261.4,161110,,*18
$GPRMC,155203.000,A,3250.3420,N,11713.7829,W,17.83,262.9,161110,,*15
$GPRMC,155206.000,A,3250.3406,N,11713.8004,W,18.56,263.9,161110,,*1A
$GPRMC,155209.000,A,3250.3394,N,11713.8215,W,23.89,266.3,161110,,*1E
$GPRMC,155212.000,A,3250.3387,N,11713.8469,W,26.10,268.8,161110,,*1B
$GPRMC,155215.000,A,3250.3396,N,11713.8732,W,25.53,273.5,161110,,*12
$GPRMC,155218.000,A,3250.3416,N,11713.8967,W,22.10,276.5,161110,,*1B
$GPRMC,155221.000,A,3250.3436,N,11713.9162,W,19.06,276.7,161110,,*12
$GPRMC,155224.000,A,3250.3458,N,11713.9337,W,17.45,277.0,161110,,*12
$GPRMC,155227.000,A,3250.3473,N,11713.9482,W,13.33,276.2,161110,,*17
$GPRMC,155230.000,A,3250.3478,N,11713.9606,W,15.04,274.2,161110,,*14
$GPRMC,155233.000,A,3250.3484,N,11713.9788,W,21.39,272.1,161110,,*1F
$GPRMC,155236.000,A,3250.3484,N,11714.0038,W,28.62,269.8,161110,,*1C
$GPRMC,155239.000,A,3250.3486,N,11714.0348,W,32.05,270.2,161110,,*1D
$GPRMC,155242.000,A,3250.3509,N,11714.0663,W,32.08,276.1,161110,,*13
$GPRMC,155245.000,A,3250.3626,N,11714.0958,W,35.60,299.5,161110,,*11
$GPRMC,155248.000,A,3250.3886,N,11714.1200,W,40.51,322.7,161110,,*1C
$GPRMC,155251.000,A,3250.4222,N,11714.1377,W,46.30,335.1,161110,,*17
$GPRMC,155254.000,A,3250.4623,N,11714.1547,W,53.83,340.0,161110,,*1D
$GPRMC,155257.000,A,3250.5060,N,11714.1685,W,54.19,345.1,161110,,*13
$GPRMC,155300.000,A,3250.5534,N,11714.1789,W,59.67,350.4,161110,,*1C
$GPRMC,155303.000,A,3250.6039,N,11714.1832,W,60.25,355.9,161110,,*1F
$GPRMC,155306.000,A,3250.6545,N,11714.1811,W,60.09,2.8,161110,,*1B
$GPRMC,155309.000,A,3250.7060,N,11714.1751,W,62.55,5.2,161110,,*1A
$GPRMC,155312.000,A,3250.7566,N,11714.1678,W,59.47,6.8,161110,,*1B
$GPRMC,155315.000,A,3250.8054,N,11714.1594,W,58.36,7.2,161110,,*1A
$GPRMC,155318.000,A,3250.8525,N,11714.1507,W,56.20,8.9,161110,,*13
$GPRMC,155321.000,A,3250.8995,N,11714.1387,W,57.77,13.0,161110,,*20
$GPRMC,155324.000,A,3250.9459,N,11714.1202,W,58.52,18.6,161110,,*20
$GPRMC,155327.000,A,3250.9909,N,11714.0963,W,59.50,24.1,161110,,*2D
$GPRMC,155330.000,A,3251.0349,N,11714.0673,W,59.83,28.7,161110,,*27
$GPRMC,155333.000,A,3251.0782,N,11714.0366,W,60.48,30.4,161110,,*21
$GPRMC,155336.000,A,3251.1220,N,11714.0052,W,61.07,30.5,161110,,*27
$GPRMC,155339.000,A,3251.1649,N,11713.9751,W,57.82,30.5,161110,,*21
$GPRMC,155342.000,A,3251.2050,N,11713.9465,W,54.01,30.5,161110,,*2C
$GPRMC,155345.000,A,3251.2427,N,11713.9202,W,51.61,30.3,161110,,*2D
$GPRMC,155348.000,A,3251.2808,N,11713.8953,W,53.09,28.3,161110,,*2A
$GPRMC,155351.000,A,3251.3208,N,11713.8729,W,54.10,24.0,161110,,*2A
$GPRMC,155354.000,A,3251.3643,N,11713.8544,W,55.91,19.2,161110,,*29
$GPRMC,155357.000,A,3251.4096,N,11713.8404,W,56.27,14.0,161110,,*27
$GPRMC,155400.000,A,3251.4571,N,11713.8322,W,57.72,8.0,161110,,*11
$GPRMC,155403.000,A,3251.5055,N,11713.8271,W,58.27,5.3,161110,,*16
$GPRMC,155406.000,A,3251.5547,N,11713.8226,W,58.98,4.8,161110,,*19
$GPRMC,155409.000,A,3251.6046,N,11713.8181,W,60.35,4.7,161110,,*1C
$GPRMC,155412.000,A,3251.6538,N,11713.8133,W,57.01,4.6,161110,,*11
$GPRMC,155415.000,A,3251.7010,N,11713.8091,W,57.45,4.7,161110,,*10
$GPRMC,155418.000,A,3251.7484,N,11713.8046,W,56.14,4.7,161110,,*1B
$GPRMC,155421.000,A,3251.7949,N,11713.8005,W,55.01,4.7,161110,,*1D
$GPRMC,155424.000,A,3251.8414,N,11713.7959,W,57.20,4.5,161110,,*1E
$GPRMC,155427.000,A,3251.8896,N,11713.7918,W,58.89,4.6,161110,,*11
$GPRMC,155430.000,A,3251.9396,N,11713.7873,W,60.20,4.8,161110,,*17
$GPRMC,155433.000,A,3251.9899,N,11713.7826,W,61.26,4.7,161110,,*18
$GPRMC,155436.000,A,3252.0409,N,11713.7780,W,60.58,4.7,161110,,*19
$GPRMC,155439.000,A,3252.0910,N,11713.7734,W,59.23,4.7,161110,,*1A
$GPRMC,155442.000,A,3252.1406,N,11713.7685,W,59.36,4.6,161110,,*13
$GPRMC,155445.000,A,3252.1889,N,11713.7635,W,57.83,4.6,161110,,*14
$GPRMC,155448.000,A,3252.2369,N,11713.7585,W,57.07,4.7,161110,,*1A
$GPRMC,155451.000,A,3252.2839,N,11713.7538,W,54.38,4.8,161110,,*1A
$GPRMC,155454.000,A,3252.3287,N,11713.7494,W,52.99,4.8,161110,,*1B
$GPRMC,155457.000,A,3252.3713,N,11713.7451,W,47.74,5.1,161110,,*16
$GPRMC,155500.000,A,3252.4084,N,11713.7414,W,44.69,4.9,161110,,*1C
$GPRMC,155503.000,A,3252.4453,N,11713.7371,W,44.25,4.7,161110,,*13
$GPRMC,155506.000,A,3252.4807,N,11713.7342,W,41.96,4.6,161110,,*17
$GPRMC,155509.000,A,3252.5160,N,11713.7310,W,43.17,4.6,161110,,*1D
$GPRMC,155512.000,A,3252.5522,N,11713.7274,W,44.60,4.6,161110,,*11
$GPRMC,155515.000,A,3252.5888,N,11713.7237,W,43.69,4.5,161110,,*11
$GPRMC,155518.000,A,3252.6260,N,11713.7205,W,45.19,4.5,161110,,*13
$GPRMC,155521.000,A,3252.6644,N,11713.7170,W,45.63,4.7,161110,,*15
$GPRMC,155524.000,A,3252.7020,N,11713.7134,W,46.02,4.9,161110,,*1F
$GPRMC,155527.000,A,3252.7414,N,11713.7093,W,48.44,4.8,161110,,*1E
$GPRMC,155530.000,A,3252.7824,N,11713.7051,W,50.39,4.8,161110,,*1A
$GPRMC,155533.000,A,3252.8251,N,11713.7011,W,52.83,4.7,161110,,*16
$GPRMC,155536.000,A,3252.8710,N,11713.6967,W,55.90,4.7,161110,,*1F
$GPRMC,155539.000,A,3252.9188,N,11713.6918,W,58.08,4.6,161110,,*13
$GPRMC,155542.000,A,3252.9676,N,11713.6870,W,59.11,4.6,161110,,*1F
$GPRMC,155545.000,A,3253.0176,N,11713.6821,W,61.66,4.9,161110,,*17
$GPRMC,155548.000,A,3253.0699,N,11713.6761,W,63.00,5.6,161110,,*1B
$GPRMC,155551.000,A,3253.1221,N,11713.6703,W,62.02,5.4,161110,,*10
$GPRMC,155554.000,A,3253.1735,N,11713.6645,W,60.94,5.8,161110,,*17
$GPRMC,155557.000,A,3253.2241,N,11713.6581,W,59.86,5.8,161110,,*13
$GPRMC,155600.000,A,3253.2737,N,11713.6524,W,59.28,5.2,161110,,*17
$GPRMC,155603.000,A,3253.3228,N,11713.6482,W,58.72,4.5,161110,,*1B
$GPRMC,155606.000,A,3253.3715,N,11713.6435,W,58.33,4.6,161110,,*1F
$GPRMC,155609.000,A,3253.4196,N,11713.6388,W,58.38,4.8,161110,,*1E
$GPRMC,155612.000,A,3253.4684,N,11713.6336,W,58.18,5.6,161110,,*18
$GPRMC,155615.000,A,3253.5177,N,11713.6277,W,60.81,5.6,161110,,*1A
$GPRMC,155618.000,A,3253.5683,N,11713.6223,W,62.01,5.7,161110,,*11
$GPRMC,155621.000,A,3253.6201,N,11713.6126,W,63.26,9.4,161110,,*1B
$GPRMC,155624.000,A,3253.6711,N,11713.5979,W,62.94,13.8,161110,,*24
$GPRMC,155627.000,A,3253.7199,N,11713.5791,W,60.67,17.5,161110,,*2F
$GPRMC,155630.000,A,3253.7669,N,11713.5595,W,60.05,19.2,161110,,*2A
$GPRMC,155633.000,A,3253.8141,N,11713.5382,W,60.44,20.1,161110,,*27
$GPRMC,155636.000,A,3253.8618,N,11713.5187,W,60.17,18.8,161110,,*2A
$GPRMC,155639.000,A,3253.9099,N,11713.5001,W,60.14,18.4,161110,,*2B
$GPRMC,155642.000,A,3253.9575,N,11713.4806,W,60.11,19.5,161110,,*2B
$GPRMC,155645.000,A,3254.0039,N,11713.4590,W,59.62,20.6,161110,,*2A
$GPRMC,155648.000,A,3254.0508,N,11713.4395,W,58.76,18.3,161110,,*29
$GPRMC,155651.000,A,3254.0985,N,11713.4257,W,59.76,13.3,161110,,*2D
$GPRMC,155654.000,A,3254.1483,N,11713.4173,W,60.13,7.9,161110,,*11
$GPRMC,155657.000,A,3254.1985,N,11713.4146,W,61.52,2.0,161110,,*17
$GPRMC,155700.000,A,3254.2498,N,11713.4168,W,61.89,356.9,161110,,*17
$GPRMC,155703.000,A,3254.3012,N,11713.4264,W,61.72,351.4,161110,,*12
$GPRMC,155706.000,A,3254.3514,N,11713.4416,W,62.26,345.9,161110,,*1D
$GPRMC,155709.000,A,3254.4001,N,11713.4617,W,61.07,340.9,161110,,*12
$GPRMC,155712.000,A,3254.4465,N,11713.4880,W,60.98,334.9,161110,,*1A
$GPRMC,155715.000,A,3254.4903,N,11713.5180,W,59.83,330.4,161110,,*11
$GPRMC,155718.000,A,3254.5324,N,11713.5517,W,60.94,327.4,161110,,*12
$GPRMC,155721.000,A,3254.5752,N,11713.5855,W,62.34,327.7,161110,,*1D
$GPRMC,155724.000,A,3254.6205,N,11713.6168,W,63.35,330.7,161110,,*1E
$GPRMC,155727.000,A,3254.6676,N,11713.6467,W,64.81,331.8,161110,,*11
$GPRMC,155730.000,A,3254.7158,N,11713.6777,W,65.65,332.3,161110,,*1C
$GPRMC,155733.000,A,3254.7639,N,11713.7080,W,64.12,332.6,161110,,*15
$GPRMC,155736.000,A,3254.8114,N,11713.7370,W,63.41,332.7,161110,,*1B
$GPRMC,155739.000,A,3254.8573,N,11713.7663,W,61.66,330.0,161110,,*14
$GPRMC,155742.000,A,3254.8996,N,11713.8009,W,60.80,325.2,161110,,*15
$GPRMC,155745.000,A,3254.9381,N,11713.8391,W,59.17,319.9,161110,,*1D
$GPRMC,155748.000,A,3254.9724,N,11713.8780,W,54.91,316.3,161110,,*19
$GPRMC,155751.000,A,3255.0025,N,11713.9148,W,50.19,314.7,161110,,*1E
$GPRMC,155754.000,A,3255.0303,N,11713.9477,W,46.72,315.9,161110,,*10
$GPRMC,155757.000,A,3255.0564,N,11713.9753,W,38.51,318.9,161110,,*14
$GPRMC,155800.000,A,3255.0773,N,11713.9959,W,29.41,320.8,161110,,*12
$GPRMC,155803.000,A,3255.0935,N,11714.0103,W,20.31,325.3,161110,,*14
$GPRMC,155806.000,A,3255.1034,N,11714.0147,W,7.45,341.7,161110,,*28
$GPRMC,155809.000,A,3255.1109,N,11714.0110,W,16.83,35.0,161110,,*27
$GPRMC,155812.000,A,3255.1243,N,11713.9947,W,27.56,45.0,161110,,*29
$GPRMC,155815.000,A,3255.1411,N,11713.9680,W,35.89,52.9,161110,,*25
$GPRMC,155818.000,A,3255.1609,N,11713.9363,W,40.62,51.3,161110,,*25
$GPRMC,155821.000,A,3255.1846,N,11713.9055,W,42.02,44.9,161110,,*26
$GPRMC,155824.000,A,3255.2123,N,11713.8772,W,44.03,41.0,161110,,*22
$GPRMC,155827.000,A,3255.2390,N,11713.8488,W,41.07,43.4,161110,,*2A
$GPRMC,155830.000,A,3255.2609,N,11713.8190,W,37.95,49.5,161110,,*24
$GPRMC,155833.000,A,3255.2789,N,11713.7893,W,35.30,54.3,161110,,*2C
$GPRMC,155836.000,A,3255.2946,N,11713.7631,W,28.83,53.8,161110,,*2A
$GPRMC,155839.000,A,3255.3075,N,11713.7433,W,21.50,51.8,161110,,*28
$GPRMC,155842.000,A,3255.3152,N,11713.7310,W,11.34,51.1,161110,,*2E
$GPRMC,155851.000,A,3255.3203,N,11713.7237,W,10.82,48.1,161110,,*2B
$GPRMC,155854.000,A,3255.3280,N,11713.7149,W,13.51,41.4,161110,,*2E
$GPRMC,155857.000,A,3255.3394,N,11713.7100,W,15.76,357.3,161110,,*14
$GPRMC,155900.000,A,3255.3511,N,11713.7188,W,20.13,321.3,161110,,*18
$GPRMC,155903.000,A,3255.3650,N,11713.7386,W,28.26,311.1,161110,,*1E
