NMEA Sentence Code,UTC Time,Status,Latitude,Latitude Direction,Longitude,Longitude Direction,Speed (knots),Track Angle (degrees true),Date,MagneticVariation,Magnetic Variation Direction,[FAA Mode]-Optional,Checksum
$GPRMC,182906.000,A,3308.1513,N,11709.8218,W,16.52,05.27,90610,,,A*45
$GPRMC,182909.000,A,3308.1677,N,11709.8176,W,18.95,08.09,90610,,,A*44
$GPRMC,182912.000,A,3308.1764,N,11709.8163,W,9.72,11.95,90610,,,A*7D
$GPRMC,182915.000,A,3308.1793,N,11709.8160,W,4.86,09.84,90610,,,A*7E
$GPRMC,182918.000,A,3308.1864,N,11709.8118,W,14.13,37.97,90610,,,A*49
$GPRMC,182921.000,A,3308.1934,N,11709.7960,W,25.27,69.61,90610,,,A*48
$GPRMC,182929.000,A,3308.2192,N,11709.6975,W,46.65,78.05,90610,,,A*43
$GPRMC,182932.000,A,3308.2282,N,11709.6515,W,47.64,76.29,90610,,,A*41
$GPRMC,182935.000,A,3308.2395,N,11709.6048,W,50.07,73.12,90610,,,A*42
$GPRMC,182938.000,A,3308.2527,N,11709.5553,W,54.43,71.37,90610,,,A*4D
$GPRMC,182941.000,A,3308.2662,N,11709.5041,W,53.94,72.42,90610,,,A*4B
$GPRMC,182944.000,A,3308.2797,N,11709.4536,W,53.94,72.42,90610,,,A*41
$GPRMC,182947.000,A,3308.2935,N,11709.4030,W,53.46,71.72,90610,,,A*48
$GPRMC,182950.000,A,3308.3074,N,11709.3525,W,53.94,72.42,90610,,,A*4A
$GPRMC,182953.000,A,3308.3212,N,11709.3020,W,52.97,72.07,90610,,,A*48
$GPRMC,182956.000,A,3308.3328,N,11709.2540,W,52.00,72.77,90610,,,A*4E
$GPRMC,182959.000,A,3308.3447,N,11709.2064,W,51.04,73.48,90610,,,A*46
$GPRMC,183002.000,A,3308.3563,N,11709.1558,W,51.52,76.64,90610,,,A*46
$GPRMC,183005.000,A,3308.3660,N,11709.1050,W,54.44,81.56,90610,,,A*47
$GPRMC,183008.000,A,3308.3705,N,11709.0493,W,57.35,85.43,90610,,,A*47
$GPRMC,183011.000,A,3308.3692,N,11708.9910,W,59.29,91.76,90610,,,A*4E
$GPRMC,183014.000,A,3308.3672,N,11708.9315,W,60.76,91.76,90610,,,A*4A
$GPRMC,183017.000,A,3308.3656,N,11708.8710,W,61.24,91.76,90610,,,A*49
$GPRMC,183020.000,A,3308.3640,N,11708.8108,W,60.75,92.81,90610,,,A*4B
$GPRMC,183023.000,A,3308.3608,N,11708.7503,W,60.26,92.11,90610,,,A*4B
$GPRMC,183026.000,A,3308.3592,N,11708.6914,W,59.29,91.76,90610,,,A*42
$GPRMC,183029.000,A,3308.3553,N,11708.6338,W,58.80,95.27,90610,,,A*46
$GPRMC,183032.000,A,3308.3489,N,11708.5768,W,56.86,99.14,90610,,,A*4C
$GPRMC,183035.000,A,3308.3354,N,11708.5250,W,53.46,107.58,90610,,,A*75
$GPRMC,183038.000,A,3308.3164,N,11708.4790,W,50.07,116.72,90610,,,A*7F
$GPRMC,183041.000,A,3308.2977,N,11708.4355,W,48.61,117.07,90610,,,A*7D
$GPRMC,183044.000,A,3308.2797,N,11708.3914,W,50.06,115.66,90610,,,A*7D
$GPRMC,183047.000,A,3308.2601,N,11708.3438,W,54.43,115.66,90610,,,A*76
$GPRMC,183050.000,A,3308.2391,N,11708.2936,W,56.37,116.37,90610,,,A*78
$GPRMC,183053.000,A,3308.2163,N,11708.2421,W,58.80,117.42,90610,,,A*7E
$GPRMC,183056.000,A,3308.1938,N,11708.1902,W,59.78,117.07,90610,,,A*76
$GPRMC,183059.000,A,3308.1716,N,11708.1378,W,58.33,117.07,90610,,,A*72
$GPRMC,183102.000,A,3308.1506,N,11708.0866,W,56.38,113.91,90610,,,A*75
$GPRMC,183105.000,A,3308.1336,N,11708.0341,W,57.35,108.63,90610,,,A*72
$GPRMC,183108.000,A,3308.1201,N,11707.9788,W,58.33,104.06,90610,,,A*7B
$GPRMC,183111.000,A,3308.1094,N,11707.9225,W,56.87,101.60,90610,,,A*7B
$GPRMC,183114.000,A,3308.1004,N,11707.8690,W,52.98,100.90,90610,,,A*78
$GPRMC,183117.000,A,3308.0927,N,11707.8175,W,52.49,100.20,90610,,,A*79
$GPRMC,183120.000,A,3308.0853,N,11707.7676,W,51.03,100.20,90610,,,A*79
$GPRMC,183123.000,A,3308.0779,N,11707.7216,W,44.22,101.25,90610,,,A*7C
$GPRMC,183126.000,A,3308.0708,N,11707.6794,W,42.77,101.60,90610,,,A*76
$GPRMC,183129.000,A,3308.0631,N,11707.6395,W,41.79,103.71,90610,,,A*78
$GPRMC,183132.000,A,3308.0534,N,11707.6022,W,38.88,107.58,90610,,,A*74
$GPRMC,183135.000,A,3308.0399,N,11707.5665,W,40.82,114.26,90610,,,A*7A
$GPRMC,183138.000,A,3308.0254,N,11707.5298,W,40.34,116.37,90610,,,A*7E
$GPRMC,183141.000,A,3308.0100,N,11707.4953,W,38.88,119.18,90610,,,A*75
$GPRMC,183144.000,A,3307.9936,N,11707.4632,W,37.43,121.64,90610,,,A*7B
$GPRMC,183147.000,A,3307.9771,N,11707.4303,W,38.88,120.94,90610,,,A*74
$GPRMC,183150.000,A,3307.9601,N,11707.3975,W,39.36,121.64,90610,,,A*72
$GPRMC,183153.000,A,3307.9411,N,11707.3666,W,36.46,127.97,90610,,,A*7D
$GPRMC,183156.000,A,3307.9240,N,11707.3415,W,28.67,130.78,90610,,,A*77
$GPRMC,183159.000,A,3307.9147,N,11707.3276,W,12.64,130.08,90610,,,A*72
$GPRMC,183232.000,A,3307.8999,N,11707.3093,W,8.75,148.71,90610,,,A*45
$GPRMC,183234.000,A,3307.8922,N,11707.3096,W,14.58,189.84,90610,,,A*73
$GPRMC,183239.000,A,3307.8642,N,11707.3299,W,20.90,217.97,90610,,,A*7F
$GPRMC,183243.000,A,3307.8484,N,11707.3460,W,18.47,217.62,90610,,,A*71
$GPRMC,183355.000,A,3307.8429,N,11707.3508,W,8.26,218.67,90610,,,A*43
$GPRMC,183358.000,A,3307.8336,N,11707.3573,W,14.58,204.96,90610,,,A*7C
$GPRMC,183400.000,A,3307.8246,N,11707.3569,W,16.04,169.10,90610,,,A*76
$GPRMC,183404.000,A,3307.8095,N,11707.3370,W,24.30,126.21,90610,,,A*7F
$GPRMC,183407.000,A,3307.7943,N,11707.3106,W,34.02,123.05,90610,,,A*71
$GPRMC,183419.000,A,3307.7345,N,11707.1847,W,34.99,114.96,90610,,,A*70
$GPRMC,183422.000,A,3307.7219,N,11707.1526,W,36.45,114.26,90610,,,A*72
$GPRMC,183431.000,A,3307.6833,N,11707.0486,W,40.34,113.91,90610,,,A*75
$GPRMC,183434.000,A,3307.6694,N,11707.0116,W,41.79,113.55,90610,,,A*7F
$GPRMC,183437.000,A,3307.6556,N,11706.9736,W,40.82,113.91,90610,,,A*70
$GPRMC,183440.000,A,3307.6414,N,11706.9356,W,41.31,113.91,90610,,,A*7C
$GPRMC,183443.000,A,3307.6276,N,11706.8992,W,39.36,114.26,90610,,,A*7D
$GPRMC,183446.000,A,3307.6144,N,11706.8661,W,35.48,116.72,90610,,,A*7F
$GPRMC,183449.000,A,3307.6006,N,11706.8345,W,34.50,116.02,90610,,,A*7B
$GPRMC,183452.000,A,3307.5899,N,11706.8069,W,28.19,113.91,90610,,,A*7E
$GPRMC,183455.000,A,3307.5806,N,11706.7818,W,26.73,114.26,90610,,,A*77
$GPRMC,183458.000,A,3307.5716,N,11706.7579,W,26.73,112.85,90610,,,A*71
$GPRMC,183501.000,A,3307.5616,N,11706.7309,W,33.05,114.26,90610,,,A*76
$GPRMC,183504.000,A,3307.5504,N,11706.7000,W,34.02,112.15,90610,,,A*7F
$GPRMC,183508.000,A,3307.5362,N,11706.6572,W,35.48,111.09,90610,,,A*75
$GPRMC,183511.000,A,3307.5240,N,11706.6218,W,37.42,113.20,90610,,,A*76
$GPRMC,183514.000,A,3307.5121,N,11706.5886,W,35.96,113.91,90610,,,A*78
$GPRMC,183517.000,A,3307.5001,N,11706.5571,W,34.50,113.91,90610,,,A*76
$GPRMC,183520.000,A,3307.4882,N,11706.5262,W,34.99,114.61,90610,,,A*78
$GPRMC,183523.000,A,3307.4754,N,11706.4947,W,34.50,117.07,90610,,,A*74
$GPRMC,183526.000,A,3307.4628,N,11706.4654,W,30.13,116.37,90610,,,A*77
$GPRMC,183529.000,A,3307.4548,N,11706.4461,W,13.61,113.55,90610,,,A*7C
