NMEA Sentence Code,UTC Time,Status,Latitude,Latitude Direction,Longitude,Longitude Direction,Speed (knots),Track Angle (degrees true),Date,MagneticVariation,Magnetic Variation Direction,[FAA Mode]-Optional,Checksum
$GPRMC,000809.000,A,3347.6097,N,11622.0471,W,69.04,125.33,010610,,,A*49
$GPRMC,000812.000,A,3347.5763,N,11621.9906,W,69.27,125.43,010610,,,A*4D
$GPRMC,000815.000,A,3347.5428,N,11621.9340,W,69.32,125.33,010610,,,A*4D
$GPRMC,000818.000,A,3347.5094,N,11621.8774,W,69.32,125.34,010610,,,A*46
$GPRMC,000821.000,A,3347.4759,N,11621.8210,W,69.35,125.38,010610,,,A*47
$GPRMC,000824.000,A,3347.4423,N,11621.7646,W,69.23,125.38,010610,,,A*43
$GPRMC,000827.000,A,3347.4088,N,11621.7084,W,69.20,125.43,010610,,,A*42
$GPRMC,000830.000,A,3347.3753,N,11621.6521,W,69.28,125.56,010610,,,A*45
$GPRMC,000833.000,A,3347.3416,N,11621.5958,W,69.30,125.35,010610,,,A*49
$GPRMC,000836.000,A,3347.3081,N,11621.5394,W,69.12,125.13,010610,,,A*48
$GPRMC,000839.000,A,3347.2746,N,11621.4831,W,69.25,125.00,010610,,,A*49
$GPRMC,000842.000,A,3347.2413,N,11621.4266,W,69.26,125.59,010610,,,A*41
$GPRMC,000845.000,A,3347.2078,N,11621.3701,W,69.06,125.35,010610,,,A*44
$GPRMC,000848.000,A,3347.1744,N,11621.3136,W,69.12,125.52,010610,,,A*44
$GPRMC,000851.000,A,3347.1413,N,11621.2574,W,68.95,125.25,010610,,,A*40
$GPRMC,000854.000,A,3347.1076,N,11621.2008,W,69.56,125.62,010610,,,A*41
$GPRMC,000857.000,A,3347.0742,N,11621.1442,W,69.33,125.35,010610,,,A*4B
$GPRMC,000900.000,A,3347.0410,N,11621.0873,W,69.28,125.01,010610,,,A*4E
$GPRMC,000903.000,A,3347.0078,N,11621.0307,W,69.20,125.46,010610,,,A*44
$GPRMC,000906.000,A,3346.9744,N,11620.9742,W,69.09,125.50,010610,,,A*40
$GPRMC,000909.000,A,3346.9411,N,11620.9176,W,69.20,125.25,010610,,,A*44
$GPRMC,000912.000,A,3346.9077,N,11620.8610,W,69.35,125.38,010610,,,A*44
$GPRMC,000915.000,A,3346.8741,N,11620.8044,W,69.34,125.42,010610,,,A*4B
$GPRMC,000918.000,A,3346.8408,N,11620.7477,W,69.28,125.21,010610,,,A*4B
$GPRMC,000921.000,A,3346.8073,N,11620.6911,W,69.37,125.50,010610,,,A*4D
$GPRMC,000924.000,A,3346.7733,N,11620.6351,W,68.99,125.61,010610,,,A*4D
$GPRMC,000927.000,A,3346.7404,N,11620.5800,W,66.14,125.19,010610,,,A*41
$GPRMC,000930.000,A,3346.7096,N,11620.5277,W,62.71,125.26,010610,,,A*49
$GPRMC,000933.000,A,3346.6793,N,11620.4761,W,64.69,125.30,010610,,,A*42
$GPRMC,000936.000,A,3346.6472,N,11620.4219,W,68.15,125.47,010610,,,A*46
$GPRMC,000939.000,A,3346.6140,N,11620.3656,W,69.33,125.30,010610,,,A*40
$GPRMC,000942.000,A,3346.5804,N,11620.3089,W,69.34,125.28,010610,,,A*4C
$GPRMC,000945.000,A,3346.5468,N,11620.2524,W,69.29,125.57,010610,,,A*4A
$GPRMC,000948.000,A,3346.5133,N,11620.1959,W,69.38,125.48,010610,,,A*47
$GPRMC,000951.000,A,3346.4795,N,11620.1393,W,69.54,126.00,010610,,,A*4D
$GPRMC,000954.000,A,3346.4450,N,11620.0834,W,69.41,126.46,010610,,,A*43
$GPRMC,000957.000,A,3346.4106,N,11620.0276,W,69.38,125.66,010610,,,A*45
$GPRMC,001000.000,A,3346.3765,N,11619.9717,W,69.22,125.40,010610,,,A*45
$GPRMC,001003.000,A,3346.3428,N,11619.9156,W,69.01,125.17,010610,,,A*4C
$GPRMC,001006.000,A,3346.3091,N,11619.8595,W,69.11,125.36,010610,,,A*47
$GPRMC,001009.000,A,3346.2753,N,11619.8033,W,69.39,125.34,010610,,,A*41
$GPRMC,001012.000,A,3346.2423,N,11619.7477,W,66.93,125.20,010610,,,A*4E
$GPRMC,001015.000,A,3346.2106,N,11619.6945,W,64.75,125.34,010610,,,A*49
$GPRMC,001018.000,A,3346.1782,N,11619.6405,W,68.41,125.58,010610,,,A*45
$GPRMC,001021.000,A,3346.1447,N,11619.5843,W,69.40,125.51,010610,,,A*41
$GPRMC,001024.000,A,3346.1110,N,11619.5279,W,69.51,125.45,010610,,,A*45
$GPRMC,001027.000,A,3346.0773,N,11619.4714,W,69.59,125.38,010610,,,A*49
$GPRMC,001030.000,A,3346.0439,N,11619.4145,W,69.48,124.58,010610,,,A*47
$GPRMC,001033.000,A,3346.0116,N,11619.3570,W,69.40,123.47,010610,,,A*48
$GPRMC,001036.000,A,3345.9806,N,11619.2985,W,69.41,121.39,010610,,,A*42
$GPRMC,001039.000,A,3345.9513,N,11619.2388,W,69.29,119.70,010610,,,A*4B
$GPRMC,001042.000,A,3345.9237,N,11619.1780,W,69.17,117.98,010610,,,A*4C
$GPRMC,001045.000,A,3345.8977,N,11619.1164,W,68.98,115.75,010610,,,A*4E
$GPRMC,001048.000,A,3345.8746,N,11619.0525,W,69.39,111.49,010610,,,A*4E
$GPRMC,001051.000,A,3345.8545,N,11618.9872,W,69.54,110.06,010610,,,A*41
$GPRMC,001054.000,A,3345.8348,N,11618.9218,W,69.31,109.65,010610,,,A*47
$GPRMC,001057.000,A,3345.8162,N,11618.8580,W,65.79,108.67,010610,,,A*4A
$GPRMC,001100.000,A,3345.7992,N,11618.7966,W,64.33,109.15,010610,,,A*41
$GPRMC,001103.000,A,3345.7812,N,11618.7358,W,64.60,109.94,010610,,,A*43
$GPRMC,001106.000,A,3345.7625,N,11618.6741,W,66.24,109.77,010610,,,A*4E
$GPRMC,001109.000,A,3345.7440,N,11618.6118,W,65.92,109.76,010610,,,A*45
$GPRMC,001112.000,A,3345.7256,N,11618.5501,W,65.42,109.55,010610,,,A*4D
$GPRMC,001115.000,A,3345.7074,N,11618.4887,W,65.14,109.57,010610,,,A*4B
$GPRMC,001118.000,A,3345.6899,N,11618.4257,W,67.31,106.69,010610,,,A*4C
$GPRMC,001121.000,A,3345.6759,N,11618.3600,W,68.58,102.76,010610,,,A*4E
$GPRMC,001124.000,A,3345.6635,N,11618.2924,W,70.38,102.85,010610,,,A*4B
$GPRMC,001127.000,A,3345.6507,N,11618.2229,W,71.12,102.20,010610,,,A*4A
$GPRMC,001130.000,A,3345.6374,N,11618.1552,W,68.77,105.04,010610,,,A*4C
$GPRMC,001133.000,A,3345.6203,N,11618.0893,W,68.81,109.08,010610,,,A*46
$GPRMC,001136.000,A,3345.5996,N,11618.0249,W,69.38,113.27,010610,,,A*4F
$GPRMC,001139.000,A,3345.5735,N,11617.9631,W,69.04,119.04,010610,,,A*4E
$GPRMC,001142.000,A,3345.5453,N,11617.9030,W,68.66,118.67,010610,,,A*47
$GPRMC,001145.000,A,3345.5179,N,11617.8423,W,68.90,117.78,010610,,,A*42
$GPRMC,001148.000,A,3345.4926,N,11617.7802,W,68.87,114.12,010610,,,A*45
$GPRMC,001151.000,A,3345.4712,N,11617.7163,W,68.92,109.86,010610,,,A*4F
$GPRMC,001154.000,A,3345.4526,N,11617.6509,W,68.98,108.52,010610,,,A*44
$GPRMC,001157.000,A,3345.4338,N,11617.5859,W,68.74,109.66,010610,,,A*41
$GPRMC,001200.000,A,3345.4143,N,11617.5211,W,68.93,109.83,010610,,,A*4A
$GPRMC,001203.000,A,3345.3945,N,11617.4564,W,68.82,110.10,010610,,,A*46
$GPRMC,001206.000,A,3345.3751,N,11617.3917,W,68.88,109.61,010610,,,A*43
$GPRMC,001209.000,A,3345.3555,N,11617.3269,W,68.97,110.06,010610,,,A*4F
$GPRMC,001212.000,A,3345.3357,N,11617.2621,W,68.96,110.28,010610,,,A*45
$GPRMC,001215.000,A,3345.3150,N,11617.1977,W,68.94,111.74,010610,,,A*42
$GPRMC,001218.000,A,3345.2926,N,11617.1339,W,68.79,113.56,010610,,,A*46
$GPRMC,001221.000,A,3345.2688,N,11617.0715,W,68.47,115.20,010610,,,A*46
$GPRMC,001224.000,A,3345.2438,N,11617.0098,W,68.64,116.09,010610,,,A*41
$GPRMC,001227.000,A,3345.2186,N,11616.9479,W,68.82,115.50,010610,,,A*46
$GPRMC,001230.000,A,3345.1937,N,11616.8859,W,68.99,115.77,010610,,,A*41
$GPRMC,001233.000,A,3345.1685,N,11616.8240,W,68.94,115.89,010610,,,A*4A
$GPRMC,001236.000,A,3345.1433,N,11616.7620,W,69.12,115.81,010610,,,A*4A
$GPRMC,001239.000,A,3345.1181,N,11616.6999,W,69.02,115.91,010610,,,A*45
$GPRMC,001242.000,A,3345.0929,N,11616.6378,W,68.94,115.72,010610,,,A*44
$GPRMC,001245.000,A,3345.0678,N,11616.5757,W,69.38,115.62,010610,,,A*44
$GPRMC,001248.000,A,3345.0434,N,11616.5129,W,68.92,114.30,010610,,,A*4B
$GPRMC,001251.000,A,3345.0225,N,11616.4490,W,68.67,107.86,010610,,,A*46
$GPRMC,001254.000,A,3345.0084,N,11616.3824,W,68.77,101.61,010610,,,A*40
$GPRMC,001257.000,A,3344.9987,N,11616.3147,W,69.12,99.13,010610,,,A*7A
$GPRMC,001300.000,A,3344.9894,N,11616.2471,W,68.23,100.84,010610,,,A*47
$GPRMC,001303.000,A,3344.9755,N,11616.1809,W,68.56,107.04,010610,,,A*4B
$GPRMC,001306.000,A,3344.9553,N,11616.1163,W,68.83,113.78,010610,,,A*49
$GPRMC,001309.000,A,3344.9286,N,11616.0549,W,68.99,120.34,010610,,,A*47
$GPRMC,001312.000,A,3344.8959,N,11615.9979,W,68.78,126.31,010610,,,A*4C
$GPRMC,001315.000,A,3344.8589,N,11615.9449,W,68.64,132.85,010610,,,A*43
$GPRMC,001318.000,A,3344.8174,N,11615.8970,W,68.73,136.37,010610,,,A*45
$GPRMC,001321.000,A,3344.7758,N,11615.8496,W,68.61,135.26,010610,,,A*4D
$GPRMC,001324.000,A,3344.7357,N,11615.8003,W,68.85,132.16,010610,,,A*45
$GPRMC,001327.000,A,3344.6990,N,11615.7472,W,69.00,126.88,010610,,,A*45
$GPRMC,001330.000,A,3344.6667,N,11615.6902,W,68.91,121.98,010610,,,A*40
$GPRMC,001333.000,A,3344.6369,N,11615.6312,W,68.97,121.02,010610,,,A*46
$GPRMC,001336.000,A,3344.6077,N,11615.5719,W,68.96,120.80,010610,,,A*49
$GPRMC,001339.000,A,3344.5782,N,11615.5127,W,68.80,120.85,010610,,,A*41
$GPRMC,001342.000,A,3344.5488,N,11615.4537,W,68.87,120.84,010610,,,A*46
$GPRMC,001345.000,A,3344.5194,N,11615.3946,W,69.09,120.83,010610,,,A*44
$GPRMC,001348.000,A,3344.4898,N,11615.3352,W,69.23,120.76,010610,,,A*40
$GPRMC,001351.000,A,3344.4603,N,11615.2757,W,69.02,120.81,010610,,,A*4F
$GPRMC,001354.000,A,3344.4309,N,11615.2165,W,68.84,120.77,010610,,,A*44
$GPRMC,001357.000,A,3344.4024,N,11615.1568,W,68.80,118.39,010610,,,A*44
$GPRMC,001400.000,A,3344.3766,N,11615.0957,W,68.59,115.56,010610,,,A*46
$GPRMC,001403.000,A,3344.3538,N,11615.0327,W,68.71,111.49,010610,,,A*41
$GPRMC,001406.000,A,3344.3343,N,11614.9679,W,68.90,108.80,010610,,,A*4A
$GPRMC,001409.000,A,3344.3181,N,11614.9021,W,68.96,104.92,010610,,,A*4B
$GPRMC,001412.000,A,3344.3049,N,11614.8350,W,68.90,101.96,010610,,,A*47
$GPRMC,001415.000,A,3344.2950,N,11614.7672,W,69.03,98.21,010610,,,A*7C
$GPRMC,001418.000,A,3344.2888,N,11614.6987,W,69.24,95.37,010610,,,A*7E
$GPRMC,001421.000,A,3344.2852,N,11614.6298,W,69.13,92.38,010610,,,A*7A
$GPRMC,001424.000,A,3344.2851,N,11614.5608,W,68.97,88.71,010610,,,A*79
$GPRMC,001427.000,A,3344.2884,N,11614.4920,W,69.01,85.43,010610,,,A*74
$GPRMC,001430.000,A,3344.2952,N,11614.4233,W,69.03,82.05,010610,,,A*76
$GPRMC,001433.000,A,3344.3054,N,11614.3553,W,68.74,78.72,010610,,,A*79
$GPRMC,001436.000,A,3344.3184,N,11614.2880,W,68.93,76.79,010610,,,A*7E
$GPRMC,001439.000,A,3344.3319,N,11614.2208,W,68.90,76.86,010610,,,A*7E
$GPRMC,001442.000,A,3344.3452,N,11614.1538,W,68.60,77.25,010610,,,A*7A
$GPRMC,001445.000,A,3344.3561,N,11614.0863,W,68.71,82.10,010610,,,A*72
$GPRMC,001448.000,A,3344.3600,N,11614.0175,W,68.79,88.99,010610,,,A*76
$GPRMC,001451.000,A,3344.3578,N,11613.9487,W,68.90,94.94,010610,,,A*73
$GPRMC,001454.000,A,3344.3523,N,11613.8802,W,69.10,95.25,010610,,,A*7A
$GPRMC,001457.000,A,3344.3466,N,11613.8117,W,68.84,95.38,010610,,,A*74
$GPRMC,001500.000,A,3344.3411,N,11613.7433,W,68.76,95.35,010610,,,A*7B
$GPRMC,001503.000,A,3344.3355,N,11613.6749,W,68.77,95.57,010610,,,A*75
$GPRMC,001506.000,A,3344.3300,N,11613.6064,W,68.99,95.36,010610,,,A*7F
$GPRMC,001509.000,A,3344.3245,N,11613.5379,W,68.88,95.65,010610,,,A*7A
$GPRMC,001512.000,A,3344.3189,N,11613.4694,W,68.95,95.21,010610,,,A*78
$GPRMC,001515.000,A,3344.3135,N,11613.4009,W,68.86,95.38,010610,,,A*70
$GPRMC,001518.000,A,3344.3078,N,11613.3325,W,68.70,95.76,010610,,,A*7C
$GPRMC,001521.000,A,3344.3024,N,11613.2642,W,68.75,95.24,010610,,,A*78
$GPRMC,001524.000,A,3344.2969,N,11613.1960,W,68.68,95.30,010610,,,A*79
$GPRMC,001527.000,A,3344.2912,N,11613.1276,W,68.88,96.04,010610,,,A*70
$GPRMC,001530.000,A,3344.2832,N,11613.0600,W,68.75,100.81,010610,,,A*40
$GPRMC,001533.000,A,3344.2688,N,11612.9939,W,68.84,107.84,010610,,,A*4D
$GPRMC,001536.000,A,3344.2477,N,11612.9302,W,68.74,114.48,010610,,,A*45
$GPRMC,001539.000,A,3344.2206,N,11612.8697,W,68.49,121.22,010610,,,A*46
$GPRMC,001542.000,A,3344.1869,N,11612.8139,W,68.67,128.11,010610,,,A*4C
$GPRMC,001545.000,A,3344.1485,N,11612.7626,W,68.87,134.79,010610,,,A*4E
$GPRMC,001548.000,A,3344.1054,N,11612.7164,W,68.43,140.10,010610,,,A*4E
$GPRMC,001551.000,A,3344.0602,N,11612.6737,W,68.76,141.64,010610,,,A*47
$GPRMC,001554.000,A,3344.0148,N,11612.6311,W,69.00,141.66,010610,,,A*49
$GPRMC,001557.000,A,3343.9694,N,11612.5884,W,69.00,141.73,010610,,,A*42
$GPRMC,001600.000,A,3343.9240,N,11612.5461,W,68.63,141.45,010610,,,A*48
$GPRMC,001603.000,A,3343.8795,N,11612.5027,W,68.75,140.00,010610,,,A*46
$GPRMC,001606.000,A,3343.8360,N,11612.4577,W,68.73,137.81,010610,,,A*43
$GPRMC,001609.000,A,3343.7938,N,11612.4105,W,68.99,135.82,010610,,,A*40
$GPRMC,001612.000,A,3343.7535,N,11612.3615,W,68.97,133.37,010610,,,A*4C
$GPRMC,001615.000,A,3343.7146,N,11612.3104,W,69.21,131.35,010610,,,A*40
$GPRMC,001618.000,A,3343.6770,N,11612.2578,W,69.21,130.48,010610,,,A*4A
$GPRMC,001621.000,A,3343.6397,N,11612.2054,W,68.91,130.65,010610,,,A*43
$GPRMC,001624.000,A,3343.6023,N,11612.1529,W,69.12,130.48,010610,,,A*43
$GPRMC,001627.000,A,3343.5641,N,11612.1012,W,68.72,132.39,010610,,,A*4F
$GPRMC,001630.000,A,3343.5234,N,11612.0531,W,68.62,137.09,010610,,,A*4D
$GPRMC,001633.000,A,3343.4805,N,11612.0079,W,68.61,139.65,010610,,,A*49
$GPRMC,001636.000,A,3343.4362,N,11611.9641,W,68.66,140.86,010610,,,A*45
$GPRMC,001639.000,A,3343.3918,N,11611.9207,W,68.51,140.76,010610,,,A*47
$GPRMC,001642.000,A,3343.3474,N,11611.8774,W,68.69,140.64,010610,,,A*44
$GPRMC,001645.000,A,3343.3030,N,11611.8337,W,68.84,140.48,010610,,,A*49
$GPRMC,001648.000,A,3343.2584,N,11611.7901,W,68.98,140.82,010610,,,A*44
$GPRMC,001651.000,A,3343.2139,N,11611.7464,W,68.88,140.23,010610,,,A*4A
$GPRMC,001654.000,A,3343.1696,N,11611.7025,W,68.82,140.70,010610,,,A*43
$GPRMC,001657.000,A,3343.1251,N,11611.6592,W,68.69,139.65,010610,,,A*48
$GPRMC,001700.000,A,3343.0832,N,11611.6124,W,68.73,134.40,010610,,,A*4D
$GPRMC,001703.000,A,3343.0446,N,11611.5614,W,68.96,129.94,010610,,,A*48
$GPRMC,001706.000,A,3343.0099,N,11611.5063,W,69.15,124.97,010610,,,A*49
$GPRMC,001709.000,A,3342.9790,N,11611.4481,W,69.07,119.89,010610,,,A*4B
$GPRMC,001712.000,A,3342.9529,N,11611.3877,W,67.35,115.61,010610,,,A*46
$GPRMC,001715.000,A,3342.9315,N,11611.3239,W,68.63,109.58,010610,,,A*43
$GPRMC,001718.000,A,3342.9148,N,11611.2575,W,68.66,104.94,010610,,,A*42
$GPRMC,001721.000,A,3342.9033,N,11611.1897,W,68.82,99.51,010610,,,A*71
$GPRMC,001724.000,A,3342.8965,N,11611.1210,W,69.01,94.80,010610,,,A*71
$GPRMC,001727.000,A,3342.8946,N,11611.0516,W,69.27,90.87,010610,,,A*74
$GPRMC,001730.000,A,3342.8948,N,11610.9821,W,69.13,89.98,010610,,,A*7C
$GPRMC,001733.000,A,3342.8950,N,11610.9127,W,69.18,90.54,010610,,,A*7A
$GPRMC,001736.000,A,3342.8952,N,11610.8433,W,68.91,89.82,010610,,,A*7F
$GPRMC,001739.000,A,3342.8956,N,11610.7746,W,68.35,89.66,010610,,,A*7E
$GPRMC,001742.000,A,3342.8959,N,11610.7062,W,68.41,90.18,010610,,,A*7E
$GPRMC,001745.000,A,3342.8962,N,11610.6379,W,68.28,89.72,010610,,,A*72
$GPRMC,001748.000,A,3342.8964,N,11610.5695,W,68.71,89.88,010610,,,A*74
$GPRMC,001751.000,A,3342.8963,N,11610.5007,W,68.88,90.77,010610,,,A*78
$GPRMC,001754.000,A,3342.8951,N,11610.4318,W,69.02,91.33,010610,,,A*72
$GPRMC,001757.000,A,3342.8945,N,11610.3628,W,69.03,90.37,010610,,,A*71
$GPRMC,001800.000,A,3342.8946,N,11610.2938,W,69.15,90.06,010610,,,A*75
$GPRMC,001803.000,A,3342.8945,N,11610.2250,W,68.96,90.33,010610,,,A*7C
$GPRMC,001806.000,A,3342.8932,N,11610.1558,W,69.20,93.02,010610,,,A*78
$GPRMC,001809.000,A,3342.8876,N,11610.0876,W,68.79,98.05,010610,,,A*77
$GPRMC,001812.000,A,3342.8768,N,11610.0201,W,68.77,102.94,010610,,,A*43
$GPRMC,001815.000,A,3342.8611,N,11609.9540,W,68.59,107.61,010610,,,A*4B
$GPRMC,001818.000,A,3342.8427,N,11609.8888,W,68.66,108.60,010610,,,A*4B
$GPRMC,001821.000,A,3342.8237,N,11609.8240,W,68.72,109.48,010610,,,A*46
$GPRMC,001824.000,A,3342.8041,N,11609.7593,W,68.73,109.66,010610,,,A*4B
$GPRMC,001827.000,A,3342.7845,N,11609.6945,W,69.10,109.80,010610,,,A*41
$GPRMC,001830.000,A,3342.7646,N,11609.6286,W,71.05,109.60,010610,,,A*4D
$GPRMC,001833.000,A,3342.7439,N,11609.5607,W,72.95,109.92,010610,,,A*4D
$GPRMC,001836.000,A,3342.7228,N,11609.4914,W,74.46,109.96,010610,,,A*4E
$GPRMC,001839.000,A,3342.7013,N,11609.4213,W,73.80,109.95,010610,,,A*49
$GPRMC,001842.000,A,3342.6811,N,11609.3543,W,69.39,109.74,010610,,,A*4D
$GPRMC,001845.000,A,3342.6613,N,11609.2892,W,69.29,109.77,010610,,,A*44
$GPRMC,001848.000,A,3342.6418,N,11609.2243,W,69.06,109.48,010610,,,A*47
$GPRMC,001851.000,A,3342.6225,N,11609.1593,W,68.95,109.47,010610,,,A*4A
$GPRMC,001854.000,A,3342.6028,N,11609.0947,W,68.89,110.28,010610,,,A*48
$GPRMC,001857.000,A,3342.5830,N,11609.0301,W,68.69,109.74,010610,,,A*4E
$GPRMC,001900.000,A,3342.5643,N,11608.9671,W,64.84,109.50,010610,,,A*44
$GPRMC,001903.000,A,3342.5459,N,11608.9063,W,65.08,109.76,010610,,,A*4A
$GPRMC,001906.000,A,3342.5278,N,11608.8449,W,65.29,109.08,010610,,,A*4D
$GPRMC,001909.000,A,3342.5100,N,11608.7837,W,64.08,109.28,010610,,,A*44
$GPRMC,001912.000,A,3342.4926,N,11608.7250,W,62.11,109.64,010610,,,A*4E
$GPRMC,001915.000,A,3342.4751,N,11608.6667,W,61.54,109.70,010610,,,A*41
$GPRMC,001918.000,A,3342.4583,N,11608.6105,W,58.62,109.58,010610,,,A*47
$GPRMC,001921.000,A,3342.4420,N,11608.5552,W,58.98,109.23,010610,,,A*49
$GPRMC,001924.000,A,3342.4260,N,11608.5010,W,56.38,109.55,010610,,,A*48
$GPRMC,001927.000,A,3342.4103,N,11608.4477,W,56.78,109.41,010610,,,A*48
$GPRMC,001930.000,A,3342.3942,N,11608.3936,W,58.43,109.00,010610,,,A*48
$GPRMC,001933.000,A,3342.3780,N,11608.3379,W,59.56,109.33,010610,,,A*4F
$GPRMC,001936.000,A,3342.3606,N,11608.2815,W,60.80,110.60,010610,,,A*4A
$GPRMC,001939.000,A,3342.3422,N,11608.2241,W,62.05,111.39,010610,,,A*48
$GPRMC,001942.000,A,3342.3229,N,11608.1657,W,63.48,111.90,010610,,,A*42
$GPRMC,001945.000,A,3342.3027,N,11608.1059,W,65.31,111.66,010610,,,A*40
$GPRMC,001948.000,A,3342.2829,N,11608.0459,W,62.86,111.71,010610,,,A*42
$GPRMC,001951.000,A,3342.2634,N,11607.9873,W,63.80,111.65,010610,,,A*48
$GPRMC,001954.000,A,3342.2445,N,11607.9290,W,61.18,111.35,010610,,,A*48
$GPRMC,001957.000,A,3342.2257,N,11607.8725,W,60.18,111.77,010610,,,A*43
$GPRMC,002000.000,A,3342.2066,N,11607.8165,W,61.16,112.06,010610,,,A*43
$GPRMC,002003.000,A,3342.1877,N,11607.7604,W,59.06,111.56,010610,,,A*48
$GPRMC,002006.000,A,3342.1709,N,11607.7059,W,57.86,109.39,010610,,,A*43
$GPRMC,002009.000,A,3342.1559,N,11607.6508,W,58.31,106.32,010610,,,A*4C
$GPRMC,002012.000,A,3342.1438,N,11607.5950,W,57.44,103.30,010610,,,A*48
$GPRMC,002015.000,A,3342.1330,N,11607.5390,W,57.74,102.96,010610,,,A*48
$GPRMC,002018.000,A,3342.1226,N,11607.4828,W,57.77,102.56,010610,,,A*45
$GPRMC,002021.000,A,3342.1121,N,11607.4264,W,58.30,102.57,010610,,,A*44
$GPRMC,002024.000,A,3342.1012,N,11607.3694,W,58.06,102.49,010610,,,A*46
$GPRMC,002027.000,A,3342.0909,N,11607.3140,W,55.26,102.76,010610,,,A*4A
$GPRMC,002030.000,A,3342.0811,N,11607.2613,W,53.49,102.54,010610,,,A*4B
$GPRMC,002033.000,A,3342.0713,N,11607.2090,W,54.32,102.68,010610,,,A*4C
$GPRMC,002036.000,A,3342.0612,N,11607.1557,W,55.72,102.76,010610,,,A*4E
$GPRMC,002039.000,A,3342.0508,N,11607.1009,W,57.01,102.80,010610,,,A*48
$GPRMC,002042.000,A,3342.0401,N,11607.0444,W,58.71,102.70,010610,,,A*47
$GPRMC,002045.000,A,3342.0285,N,11606.9856,W,62.40,104.17,010610,,,A*41
$GPRMC,002048.000,A,3342.0157,N,11606.9225,W,66.80,102.97,010610,,,A*48
$GPRMC,002051.000,A,3342.0029,N,11606.8567,W,67.96,103.21,010610,,,A*42
$GPRMC,002054.000,A,3341.9902,N,11606.7900,W,68.13,102.52,010610,,,A*48
$GPRMC,002057.000,A,3341.9778,N,11606.7235,W,67.59,102.51,010610,,,A*47
$GPRMC,002100.000,A,3341.9654,N,11606.6578,W,67.51,102.74,010610,,,A*4B
$GPRMC,002103.000,A,3341.9530,N,11606.5916,W,68.01,101.99,010610,,,A*44
$GPRMC,002106.000,A,3341.9415,N,11606.5248,W,68.30,101.75,010610,,,A*47
$GPRMC,002109.000,A,3341.9295,N,11606.4578,W,68.62,102.30,010610,,,A*46
$GPRMC,002112.000,A,3341.9168,N,11606.3908,W,68.72,102.98,010610,,,A*42
$GPRMC,002115.000,A,3341.9040,N,11606.3240,W,68.43,103.11,010610,,,A*4B
$GPRMC,002118.000,A,3341.8913,N,11606.2572,W,68.51,102.24,010610,,,A*4B
$GPRMC,002121.000,A,3341.8803,N,11606.1899,W,68.58,99.12,010610,,,A*75
$GPRMC,002124.000,A,3341.8740,N,11606.1218,W,68.69,94.21,010610,,,A*74
$GPRMC,002127.000,A,3341.8729,N,11606.0534,W,68.36,88.85,010610,,,A*79
$GPRMC,002130.000,A,3341.8763,N,11605.9850,W,68.55,85.00,010610,,,A*71
$GPRMC,002133.000,A,3341.8841,N,11605.9169,W,68.79,81.47,010610,,,A*77
$GPRMC,002136.000,A,3341.8935,N,11605.8492,W,68.59,80.68,010610,,,A*7E
$GPRMC,002139.000,A,3341.9030,N,11605.7814,W,68.72,80.58,010610,,,A*7B
$GPRMC,002142.000,A,3341.9125,N,11605.7137,W,68.47,80.85,010610,,,A*7C
$GPRMC,002145.000,A,3341.9219,N,11605.6461,W,68.52,80.67,010610,,,A*78
$GPRMC,002148.000,A,3341.9310,N,11605.5786,W,68.59,80.94,010610,,,A*73
$GPRMC,002151.000,A,3341.9402,N,11605.5109,W,68.50,80.60,010610,,,A*7C
$GPRMC,002154.000,A,3341.9485,N,11605.4432,W,68.73,82.21,010610,,,A*7C
$GPRMC,002157.000,A,3341.9569,N,11605.3753,W,68.59,81.02,010610,,,A*75
$GPRMC,002200.000,A,3341.9660,N,11605.3076,W,68.75,80.92,010610,,,A*78
$GPRMC,002203.000,A,3341.9750,N,11605.2400,W,68.42,81.10,010610,,,A*72
$GPRMC,002206.000,A,3341.9843,N,11605.1722,W,68.51,80.71,010610,,,A*7E
$GPRMC,002209.000,A,3341.9930,N,11605.1045,W,68.84,81.91,010610,,,A*75
$GPRMC,002212.000,A,3341.9999,N,11605.0366,W,68.65,83.59,010610,,,A*76
$GPRMC,002215.000,A,3342.0050,N,11604.9683,W,68.68,85.71,010610,,,A*70
$GPRMC,002218.000,A,3342.0083,N,11604.8999,W,68.67,87.44,010610,,,A*7D
$GPRMC,002221.000,A,3342.0094,N,11604.8316,W,68.69,89.69,010610,,,A*73
$GPRMC,002224.000,A,3342.0087,N,11604.7631,W,68.73,91.70,010610,,,A*71
$GPRMC,002227.000,A,3342.0061,N,11604.6948,W,68.69,93.11,010610,,,A*74
$GPRMC,002230.000,A,3342.0020,N,11604.6265,W,68.68,94.28,010610,,,A*7F
$GPRMC,002233.000,A,3341.9980,N,11604.5583,W,68.58,93.90,010610,,,A*7E
$GPRMC,002236.000,A,3341.9936,N,11604.4902,W,68.59,94.95,010610,,,A*71
$GPRMC,002239.000,A,3341.9887,N,11604.4220,W,68.68,94.66,010610,,,A*70
$GPRMC,002242.000,A,3341.9835,N,11604.3536,W,68.98,95.15,010610,,,A*78
$GPRMC,002245.000,A,3341.9785,N,11604.2849,W,69.15,95.03,010610,,,A*7C
$GPRMC,002248.000,A,3341.9735,N,11604.2158,W,69.34,94.80,010610,,,A*7A
$GPRMC,002251.000,A,3341.9687,N,11604.1467,W,69.20,94.76,010610,,,A*7C
$GPRMC,002254.000,A,3341.9633,N,11604.0778,W,69.13,95.94,010610,,,A*77
$GPRMC,002257.000,A,3341.9555,N,11604.0094,W,68.82,99.45,010610,,,A*7B
$GPRMC,002300.000,A,3341.9434,N,11603.9421,W,68.80,103.81,010610,,,A*42
$GPRMC,002303.000,A,3341.9276,N,11603.8760,W,68.80,108.49,010610,,,A*49
$GPRMC,002306.000,A,3341.9065,N,11603.8119,W,68.80,112.82,010610,,,A*48
$GPRMC,002309.000,A,3341.8828,N,11603.7492,W,68.43,115.30,010610,,,A*4F
$GPRMC,002312.000,A,3341.8554,N,11603.6887,W,68.36,118.97,010610,,,A*48
$GPRMC,002315.000,A,3341.8258,N,11603.6303,W,67.80,121.08,010610,,,A*4D
$GPRMC,002318.000,A,3341.7960,N,11603.5728,W,66.93,121.05,010610,,,A*4F
$GPRMC,002321.000,A,3341.7666,N,11603.5153,W,67.69,121.00,010610,,,A*47
$GPRMC,002324.000,A,3341.7372,N,11603.4571,W,68.01,120.90,010610,,,A*4E
$GPRMC,002327.000,A,3341.7076,N,11603.3987,W,68.35,120.94,010610,,,A*4B
$GPRMC,002330.000,A,3341.6778,N,11603.3403,W,68.30,121.13,010610,,,A*4F
$GPRMC,002333.000,A,3341.6481,N,11603.2816,W,68.49,120.78,010610,,,A*42
$GPRMC,002336.000,A,3341.6184,N,11603.2229,W,68.64,121.22,010610,,,A*40
$GPRMC,002339.000,A,3341.5884,N,11603.1642,W,68.83,121.23,010610,,,A*47
$GPRMC,002342.000,A,3341.5587,N,11603.1055,W,68.62,120.83,010610,,,A*41
$GPRMC,002345.000,A,3341.5309,N,11603.0456,W,68.63,117.40,010610,,,A*4A
$GPRMC,002348.000,A,3341.5065,N,11602.9833,W,68.68,112.92,010610,,,A*48
$GPRMC,002351.000,A,3341.4868,N,11602.9188,W,68.68,107.87,010610,,,A*4D
$GPRMC,002354.000,A,3341.4700,N,11602.8531,W,68.63,107.01,010610,,,A*4B
$GPRMC,002357.000,A,3341.4536,N,11602.7875,W,68.55,107.02,010610,,,A*4B
$GPRMC,002400.000,A,3341.4370,N,11602.7219,W,68.80,106.90,010610,,,A*48
$GPRMC,002403.000,A,3341.4205,N,11602.6558,W,69.16,106.86,010610,,,A*42
$GPRMC,002406.000,A,3341.4040,N,11602.5896,W,69.05,106.97,010610,,,A*4A
$GPRMC,002409.000,A,3341.3872,N,11602.5237,W,68.83,107.32,010610,,,A*4B
$GPRMC,002412.000,A,3341.3703,N,11602.4578,W,69.13,107.11,010610,,,A*4C
$GPRMC,002415.000,A,3341.3535,N,11602.3919,W,68.98,106.90,010610,,,A*4A
$GPRMC,002418.000,A,3341.3370,N,11602.3260,W,68.65,106.56,010610,,,A*4D
$GPRMC,002421.000,A,3341.3213,N,11602.2599,W,68.70,105.65,010610,,,A*44
$GPRMC,002424.000,A,3341.3052,N,11602.1938,W,68.82,106.66,010610,,,A*4F
$GPRMC,002427.000,A,3341.2886,N,11602.1280,W,68.72,107.15,010610,,,A*4E
$GPRMC,002430.000,A,3341.2712,N,11602.0627,W,68.53,108.04,010610,,,A*4E
$GPRMC,002433.000,A,3341.2534,N,11601.9975,W,68.69,107.62,010610,,,A*4F
$GPRMC,002436.000,A,3341.2362,N,11601.9318,W,68.97,107.32,010610,,,A*4A
$GPRMC,002439.000,A,3341.2190,N,11601.8660,W,69.00,107.12,010610,,,A*4C
$GPRMC,002442.000,A,3341.2022,N,11601.8002,W,68.75,106.66,010610,,,A*4B
$GPRMC,002445.000,A,3341.1855,N,11601.7344,W,68.77,107.00,010610,,,A*4A
$GPRMC,002448.000,A,3341.1692,N,11601.6686,W,68.75,105.82,010610,,,A*42
$GPRMC,002451.000,A,3341.1535,N,11601.6026,W,68.56,106.32,010610,,,A*41
$GPRMC,002454.000,A,3341.1372,N,11601.5368,W,68.67,106.20,010610,,,A*4A
$GPRMC,002457.000,A,3341.1215,N,11601.4707,W,68.78,105.31,010610,,,A*48
$GPRMC,002500.000,A,3341.1065,N,11601.4043,W,68.94,105.09,010610,,,A*40
$GPRMC,002503.000,A,3341.0917,N,11601.3379,W,68.74,104.95,010610,,,A*49
$GPRMC,002506.000,A,3341.0769,N,11601.2715,W,68.82,104.73,010610,,,A*45
$GPRMC,002509.000,A,3341.0624,N,11601.2050,W,68.83,104.79,010610,,,A*4F
$GPRMC,002512.000,A,3341.0477,N,11601.1386,W,68.80,104.61,010610,,,A*40
$GPRMC,002515.000,A,3341.0330,N,11601.0722,W,68.65,105.05,010610,,,A*40
$GPRMC,002518.000,A,3341.0182,N,11601.0059,W,68.83,104.70,010610,,,A*46
$GPRMC,002521.000,A,3341.0038,N,11600.9394,W,68.72,104.62,010610,,,A*4B
$GPRMC,002524.000,A,3340.9891,N,11600.8728,W,69.29,104.84,010610,,,A*48
$GPRMC,002527.000,A,3340.9745,N,11600.8061,W,69.04,104.89,010610,,,A*45
$GPRMC,002530.000,A,3340.9596,N,11600.7393,W,69.26,104.65,010610,,,A*4C
$GPRMC,002533.000,A,3340.9451,N,11600.6724,W,69.50,104.76,010610,,,A*4F
$GPRMC,002536.000,A,3340.9302,N,11600.6046,W,70.97,104.73,010610,,,A*4E
$GPRMC,002539.000,A,3340.9150,N,11600.5355,W,72.00,104.65,010610,,,A*4D
$GPRMC,002542.000,A,3340.8996,N,11600.4653,W,73.23,104.76,010610,,,A*42
$GPRMC,002545.000,A,3340.8836,N,11600.3940,W,74.41,104.99,010610,,,A*46
$GPRMC,002548.000,A,3340.8674,N,11600.3215,W,75.55,105.03,010610,,,A*4E
$GPRMC,002551.000,A,3340.8509,N,11600.2489,W,73.71,105.54,010610,,,A*4F
$GPRMC,002554.000,A,3340.8350,N,11600.1805,W,69.24,105.60,010610,,,A*47
$GPRMC,002557.000,A,3340.8199,N,11600.1139,W,68.82,104.45,010610,,,A*4E
$GPRMC,002600.000,A,3340.8052,N,11600.0475,W,68.80,104.98,010610,,,A*47
$GPRMC,002603.000,A,3340.7905,N,11559.9812,W,68.85,104.64,010610,,,A*4D
$GPRMC,002606.000,A,3340.7759,N,11559.9149,W,68.62,104.70,010610,,,A*44
$GPRMC,002609.000,A,3340.7614,N,11559.8486,W,68.53,104.19,010610,,,A*49
$GPRMC,002612.000,A,3340.7488,N,11559.7819,W,68.44,101.03,010610,,,A*49
$GPRMC,002615.000,A,3340.7405,N,11559.7145,W,68.52,96.66,010610,,,A*70
$GPRMC,002618.000,A,3340.7373,N,11559.6463,W,68.66,90.88,010610,,,A*7A
$GPRMC,002621.000,A,3340.7389,N,11559.5780,W,68.65,87.43,010610,,,A*7A
$GPRMC,002624.000,A,3340.7422,N,11559.5094,W,68.93,87.07,010610,,,A*72
$GPRMC,002627.000,A,3340.7454,N,11559.4405,W,69.25,86.67,010610,,,A*76
$GPRMC,002630.000,A,3340.7488,N,11559.3715,W,69.03,86.90,010610,,,A*78
$GPRMC,002633.000,A,3340.7520,N,11559.3026,W,68.92,86.89,010610,,,A*7E
$GPRMC,002636.000,A,3340.7557,N,11559.2339,W,68.86,86.72,010610,,,A*76
$GPRMC,002639.000,A,3340.7595,N,11559.1653,W,68.88,86.29,010610,,,A*7D
$GPRMC,002642.000,A,3340.7627,N,11559.0966,W,68.96,87.43,010610,,,A*71
$GPRMC,002645.000,A,3340.7661,N,11559.0278,W,68.98,86.24,010610,,,A*7E
$GPRMC,002648.000,A,3340.7697,N,11558.9589,W,69.17,86.59,010610,,,A*77
$GPRMC,002651.000,A,3340.7732,N,11558.8899,W,68.94,86.76,010610,,,A*7B
$GPRMC,002654.000,A,3340.7763,N,11558.8211,W,68.94,86.69,010610,,,A*7E
$GPRMC,002657.000,A,3340.7796,N,11558.7524,W,68.82,86.95,010610,,,A*7D
$GPRMC,002700.000,A,3340.7829,N,11558.6839,W,68.93,86.78,010610,,,A*76
$GPRMC,002703.000,A,3340.7860,N,11558.6151,W,68.90,86.94,010610,,,A*7E
$GPRMC,002706.000,A,3340.7890,N,11558.5465,W,68.89,87.18,010610,,,A*78
$GPRMC,002709.000,A,3340.7894,N,11558.4778,W,69.13,91.65,010610,,,A*72
$GPRMC,002712.000,A,3340.7863,N,11558.4092,W,69.06,94.75,010610,,,A*73
$GPRMC,002715.000,A,3340.7793,N,11558.3412,W,68.83,98.86,010610,,,A*73
$GPRMC,002718.000,A,3340.7687,N,11558.2737,W,69.12,101.53,010610,,,A*4F
$GPRMC,002721.000,A,3340.7566,N,11558.2060,W,68.98,102.04,010610,,,A*4E
$GPRMC,002724.000,A,3340.7442,N,11558.1387,W,68.89,102.51,010610,,,A*45
$GPRMC,002727.000,A,3340.7312,N,11558.0715,W,68.91,102.45,010610,,,A*46
$GPRMC,002730.000,A,3340.7192,N,11558.0043,W,68.76,101.44,010610,,,A*45
$GPRMC,002733.000,A,3340.7075,N,11557.9369,W,68.91,101.83,010610,,,A*41
$GPRMC,002736.000,A,3340.6957,N,11557.8694,W,69.13,101.52,010610,,,A*4D
$GPRMC,002739.000,A,3340.6840,N,11557.8018,W,68.99,101.55,010610,,,A*43
$GPRMC,002742.000,A,3340.6723,N,11557.7342,W,69.10,101.58,010610,,,A*4B
$GPRMC,002745.000,A,3340.6607,N,11557.6666,W,68.91,101.40,010610,,,A*48
$GPRMC,002748.000,A,3340.6492,N,11557.5992,W,68.85,101.63,010610,,,A*48
$GPRMC,002751.000,A,3340.6376,N,11557.5318,W,68.95,101.47,010610,,,A*42
$GPRMC,002754.000,A,3340.6261,N,11557.4643,W,68.92,101.57,010610,,,A*4C
$GPRMC,002757.000,A,3340.6143,N,11557.3969,W,68.97,101.55,010610,,,A*4B
$GPRMC,002800.000,A,3340.6028,N,11557.3295,W,68.87,101.66,010610,,,A*43
$GPRMC,002803.000,A,3340.5909,N,11557.2621,W,69.07,101.94,010610,,,A*47
$GPRMC,002806.000,A,3340.5792,N,11557.1945,W,69.25,101.69,010610,,,A*42
$GPRMC,002809.000,A,3340.5676,N,11557.1268,W,69.17,101.47,010610,,,A*4F
$GPRMC,002812.000,A,3340.5561,N,11557.0591,W,69.12,101.45,010610,,,A*47
$GPRMC,002815.000,A,3340.5446,N,11556.9916,W,68.87,101.55,010610,,,A*43
$GPRMC,002818.000,A,3340.5329,N,11556.9243,W,68.76,101.81,010610,,,A*4C
$GPRMC,002821.000,A,3340.5212,N,11556.8570,W,69.01,101.64,010610,,,A*43
$GPRMC,002824.000,A,3340.5097,N,11556.7894,W,69.01,101.17,010610,,,A*45
$GPRMC,002827.000,A,3340.4982,N,11556.7218,W,68.99,101.78,010610,,,A*4D
$GPRMC,002830.000,A,3340.4866,N,11556.6543,W,68.92,101.40,010610,,,A*48
$GPRMC,002833.000,A,3340.4749,N,11556.5871,W,69.04,101.74,010610,,,A*4F
$GPRMC,002836.000,A,3340.4635,N,11556.5195,W,69.25,101.34,010610,,,A*44
$GPRMC,002839.000,A,3340.4521,N,11556.4518,W,69.20,101.55,010610,,,A*4F
$GPRMC,002842.000,A,3340.4405,N,11556.3844,W,69.07,101.80,010610,,,A*4A
$GPRMC,002845.000,A,3340.4289,N,11556.3169,W,69.20,101.60,010610,,,A*42
$GPRMC,002848.000,A,3340.4175,N,11556.2493,W,68.94,100.96,010610,,,A*48
$GPRMC,002851.000,A,3340.4070,N,11556.1816,W,69.02,100.50,010610,,,A*42
$GPRMC,002854.000,A,3340.3960,N,11556.1138,W,69.31,101.18,010610,,,A*40
$GPRMC,002857.000,A,3340.3844,N,11556.0460,W,69.25,101.71,010610,,,A*47
$GPRMC,002900.000,A,3340.3727,N,11555.9783,W,69.15,101.34,010610,,,A*48
$GPRMC,002903.000,A,3340.3612,N,11555.9106,W,69.02,101.50,010610,,,A*43
$GPRMC,002906.000,A,3340.3497,N,11555.8432,W,68.74,101.56,010610,,,A*4C
$GPRMC,002909.000,A,3340.3379,N,11555.7760,W,68.77,101.58,010610,,,A*42
$GPRMC,002912.000,A,3340.3263,N,11555.7088,W,68.70,101.40,010610,,,A*4D
$GPRMC,002915.000,A,3340.3148,N,11555.6415,W,68.87,101.57,010610,,,A*4F
$GPRMC,002918.000,A,3340.3031,N,11555.5741,W,68.86,101.63,010610,,,A*4A
$GPRMC,002921.000,A,3340.2914,N,11555.5068,W,68.89,101.73,010610,,,A*4D
$GPRMC,002924.000,A,3340.2797,N,11555.4394,W,68.95,101.49,010610,,,A*48
$GPRMC,002927.000,A,3340.2683,N,11555.3719,W,69.04,101.50,010610,,,A*48
$GPRMC,002930.000,A,3340.2567,N,11555.3043,W,69.03,101.45,010610,,,A*4C
$GPRMC,002933.000,A,3340.2451,N,11555.2367,W,69.08,101.64,010610,,,A*47
$GPRMC,002936.000,A,3340.2336,N,11555.1693,W,68.76,101.66,010610,,,A*43
$GPRMC,002939.000,A,3340.2219,N,11555.1022,W,68.86,101.83,010610,,,A*48
$GPRMC,002942.000,A,3340.2102,N,11555.0349,W,68.91,101.35,010610,,,A*49
$GPRMC,002945.000,A,3340.1989,N,11554.9677,W,68.57,101.41,010610,,,A*4F
$GPRMC,002948.000,A,3340.1868,N,11554.9010,W,68.51,102.47,010610,,,A*48
$GPRMC,002951.000,A,3340.1744,N,11554.8343,W,68.59,102.03,010610,,,A*4D
$GPRMC,002954.000,A,3340.1623,N,11554.7672,W,68.77,102.30,010610,,,A*4C
$GPRMC,002957.000,A,3340.1506,N,11554.6999,W,68.95,101.19,010610,,,A*44
$GPRMC,003000.000,A,3340.1392,N,11554.6325,W,68.80,101.65,010610,,,A*47
$GPRMC,003003.000,A,3340.1275,N,11554.5653,W,68.82,101.71,010610,,,A*4C
$GPRMC,003006.000,A,3340.1159,N,11554.4979,W,68.81,101.57,010610,,,A*45
$GPRMC,003009.000,A,3340.1045,N,11554.4306,W,68.82,101.25,010610,,,A*42
$GPRMC,003012.000,A,3340.0928,N,11554.3632,W,69.01,101.73,010610,,,A*47
$GPRMC,003015.000,A,3340.0813,N,11554.2958,W,68.93,101.41,010610,,,A*40
$GPRMC,003018.000,A,3340.0698,N,11554.2284,W,68.85,101.33,010610,,,A*48
$GPRMC,003021.000,A,3340.0582,N,11554.1610,W,68.92,101.56,010610,,,A*45
$GPRMC,003024.000,A,3340.0465,N,11554.0937,W,68.99,101.65,010610,,,A*48
$GPRMC,003027.000,A,3340.0351,N,11554.0260,W,69.21,101.53,010610,,,A*45
$GPRMC,003030.000,A,3340.0241,N,11553.9580,W,69.50,100.38,010610,,,A*4E
$GPRMC,003033.000,A,3340.0132,N,11553.8899,W,69.26,101.19,010610,,,A*4D
$GPRMC,003036.000,A,3340.0019,N,11553.8222,W,69.07,101.67,010610,,,A*40
$GPRMC,003039.000,A,3339.9903,N,11553.7548,W,68.78,101.59,010610,,,A*4A
$GPRMC,003042.000,A,3339.9789,N,11553.6876,W,68.51,101.30,010610,,,A*4F
$GPRMC,003045.000,A,3339.9673,N,11553.6204,W,68.92,101.55,010610,,,A*4F
$GPRMC,003048.000,A,3339.9558,N,11553.5530,W,68.80,101.42,010610,,,A*4E
$GPRMC,003051.000,A,3339.9442,N,11553.4857,W,68.91,101.63,010610,,,A*42
$GPRMC,003054.000,A,3339.9325,N,11553.4183,W,68.96,101.19,010610,,,A*4B
$GPRMC,003057.000,A,3339.9220,N,11553.3508,W,68.86,99.62,010610,,,A*71
$GPRMC,003100.000,A,3339.9133,N,11553.2828,W,69.02,97.84,010610,,,A*76
$GPRMC,003103.000,A,3339.9065,N,11553.2144,W,69.06,95.90,010610,,,A*77
$GPRMC,003106.000,A,3339.9009,N,11553.1458,W,69.09,95.87,010610,,,A*7A
$GPRMC,003109.000,A,3339.8954,N,11553.0772,W,69.06,95.26,010610,,,A*7B
$GPRMC,003112.000,A,3339.8905,N,11553.0088,W,68.73,94.76,010610,,,A*70
$GPRMC,003115.000,A,3339.8861,N,11552.9405,W,68.81,94.47,010610,,,A*72
$GPRMC,003118.000,A,3339.8816,N,11552.8720,W,68.88,94.29,010610,,,A*7B
$GPRMC,003121.000,A,3339.8773,N,11552.8035,W,68.83,94.40,010610,,,A*7A
$GPRMC,003124.000,A,3339.8727,N,11552.7350,W,68.87,94.75,010610,,,A*73
$GPRMC,003127.000,A,3339.8684,N,11552.6666,W,68.68,94.38,010610,,,A*71
$GPRMC,003130.000,A,3339.8637,N,11552.5983,W,68.85,94.68,010610,,,A*7E
$GPRMC,003133.000,A,3339.8592,N,11552.5298,W,68.85,94.17,010610,,,A*78
$GPRMC,003136.000,A,3339.8552,N,11552.4612,W,68.96,93.63,010610,,,A*70
$GPRMC,003139.000,A,3339.8516,N,11552.3924,W,69.02,93.55,010610,,,A*7B
$GPRMC,003142.000,A,3339.8478,N,11552.3236,W,68.86,93.95,010610,,,A*77
$GPRMC,003145.000,A,3339.8433,N,11552.2552,W,68.92,94.92,010610,,,A*7E
$GPRMC,003148.000,A,3339.8384,N,11552.1866,W,68.96,94.59,010610,,,A*72
$GPRMC,003151.000,A,3339.8342,N,11552.1181,W,68.93,94.01,010610,,,A*78
$GPRMC,003154.000,A,3339.8298,N,11552.0494,W,69.15,94.78,010610,,,A*7A
$GPRMC,003157.000,A,3339.8250,N,11551.9808,W,68.94,94.64,010610,,,A*7B
$GPRMC,003200.000,A,3339.8203,N,11551.9122,W,68.90,94.58,010610,,,A*76
$GPRMC,003203.000,A,3339.8158,N,11551.8437,W,68.90,94.43,010610,,,A*72
$GPRMC,003206.000,A,3339.8113,N,11551.7751,W,68.90,94.28,010610,,,A*79
$GPRMC,003209.000,A,3339.8068,N,11551.7066,W,68.85,94.43,010610,,,A*71
$GPRMC,003212.000,A,3339.8023,N,11551.6381,W,68.98,94.48,010610,,,A*78
$GPRMC,003215.000,A,3339.7977,N,11551.5696,W,68.89,94.50,010610,,,A*71
$GPRMC,003218.000,A,3339.7934,N,11551.5011,W,68.78,94.29,010610,,,A*72
$GPRMC,003221.000,A,3339.7888,N,11551.4326,W,69.15,94.81,010610,,,A*70
$GPRMC,003224.000,A,3339.7841,N,11551.3638,W,69.19,94.42,010610,,,A*7E
$GPRMC,003227.000,A,3339.7796,N,11551.2949,W,69.23,94.58,010610,,,A*72
$GPRMC,003230.000,A,3339.7748,N,11551.2260,W,69.09,94.69,010610,,,A*7D
$GPRMC,003233.000,A,3339.7705,N,11551.1576,W,68.66,94.33,010610,,,A*73
$GPRMC,003236.000,A,3339.7661,N,11551.0892,W,68.87,94.25,010610,,,A*7B
$GPRMC,003239.000,A,3339.7616,N,11551.0207,W,68.94,94.50,010610,,,A*72
$GPRMC,003242.000,A,3339.7571,N,11550.9522,W,68.95,94.33,010610,,,A*70
$GPRMC,003245.000,A,3339.7526,N,11550.8837,W,68.91,94.46,010610,,,A*7B
$GPRMC,003248.000,A,3339.7481,N,11550.8152,W,68.83,94.57,010610,,,A*73
$GPRMC,003251.000,A,3339.7435,N,11550.7467,W,68.79,94.52,010610,,,A*78
$GPRMC,003254.000,A,3339.7389,N,11550.6782,W,69.01,94.34,010610,,,A*7A
$GPRMC,003257.000,A,3339.7344,N,11550.6096,W,68.82,94.55,010610,,,A*77
$GPRMC,003300.000,A,3339.7299,N,11550.5412,W,68.86,94.59,010610,,,A*76
$GPRMC,003303.000,A,3339.7251,N,11550.4727,W,68.77,94.32,010610,,,A*76
$GPRMC,003306.000,A,3339.7207,N,11550.4043,W,68.89,94.56,010610,,,A*76
$GPRMC,003309.000,A,3339.7161,N,11550.3358,W,68.87,94.51,010610,,,A*7D
$GPRMC,003312.000,A,3339.7116,N,11550.2671,W,69.00,94.76,010610,,,A*73
$GPRMC,003315.000,A,3339.7071,N,11550.1987,W,68.82,94.60,010610,,,A*7D
$GPRMC,003318.000,A,3339.7025,N,11550.1302,W,68.94,94.55,010610,,,A*77
$GPRMC,003321.000,A,3339.6980,N,11550.0618,W,68.73,94.51,010610,,,A*78
$GPRMC,003324.000,A,3339.6935,N,11549.9934,W,68.94,94.45,010610,,,A*7F
$GPRMC,003327.000,A,3339.6890,N,11549.9249,W,68.84,94.49,010610,,,A*7E
$GPRMC,003330.000,A,3339.6844,N,11549.8564,W,68.86,94.74,010610,,,A*74
$GPRMC,003333.000,A,3339.6797,N,11549.7879,W,68.88,94.48,010610,,,A*79
$GPRMC,003336.000,A,3339.6752,N,11549.7194,W,68.86,94.19,010610,,,A*75
$GPRMC,003339.000,A,3339.6707,N,11549.6510,W,68.80,94.69,010610,,,A*72
$GPRMC,003342.000,A,3339.6659,N,11549.5824,W,69.07,94.66,010610,,,A*7C
$GPRMC,003345.000,A,3339.6614,N,11549.5137,W,68.94,94.29,010610,,,A*79
$GPRMC,003348.000,A,3339.6571,N,11549.4451,W,68.98,94.49,010610,,,A*7A
$GPRMC,003351.000,A,3339.6525,N,11549.3766,W,68.75,94.69,010610,,,A*72
$GPRMC,003354.000,A,3339.6480,N,11549.3081,W,68.76,94.56,010610,,,A*78
$GPRMC,003357.000,A,3339.6434,N,11549.2396,W,68.97,94.31,010610,,,A*7E
$GPRMC,003400.000,A,3339.6388,N,11549.1710,W,68.90,94.68,010610,,,A*79
$GPRMC,003403.000,A,3339.6341,N,11549.1024,W,68.97,94.49,010610,,,A*7B
$GPRMC,003406.000,A,3339.6294,N,11549.0338,W,68.96,94.66,010610,,,A*74
$GPRMC,003409.000,A,3339.6248,N,11548.9654,W,68.78,94.84,010610,,,A*71
$GPRMC,003412.000,A,3339.6200,N,11548.8969,W,68.98,94.46,010610,,,A*77
$GPRMC,003415.000,A,3339.6157,N,11548.8282,W,69.01,94.27,010610,,,A*79
$GPRMC,003418.000,A,3339.6113,N,11548.7595,W,68.89,94.54,010610,,,A*7F
$GPRMC,003421.000,A,3339.6068,N,11548.6910,W,68.93,94.11,010610,,,A*72
$GPRMC,003424.000,A,3339.6034,N,11548.6223,W,68.91,92.59,010610,,,A*7D
$GPRMC,003427.000,A,3339.6019,N,11548.5535,W,68.96,90.66,010610,,,A*7B
$GPRMC,003430.000,A,3339.6016,N,11548.4844,W,69.32,90.09,010610,,,A*7E
$GPRMC,003433.000,A,3339.6015,N,11548.4150,W,68.94,89.79,010610,,,A*70
$GPRMC,003436.000,A,3339.6015,N,11548.3461,W,69.00,90.18,010610,,,A*76
$GPRMC,003439.000,A,3339.6014,N,11548.2773,W,68.95,90.13,010610,,,A*7F
$GPRMC,003442.000,A,3339.6013,N,11548.2085,W,68.81,90.17,010610,,,A*7B
$GPRMC,003445.000,A,3339.6011,N,11548.1399,W,68.88,90.32,010610,,,A*7D
$GPRMC,003448.000,A,3339.6009,N,11548.0710,W,69.00,89.93,010610,,,A*7F
$GPRMC,003451.000,A,3339.6009,N,11548.0022,W,68.86,89.81,010610,,,A*7D
$GPRMC,003454.000,A,3339.6009,N,11547.9335,W,68.90,90.26,010610,,,A*79
$GPRMC,003457.000,A,3339.6004,N,11547.8648,W,68.83,90.39,010610,,,A*75
$GPRMC,003500.000,A,3339.6001,N,11547.7959,W,68.95,90.06,010610,,,A*78
$GPRMC,003503.000,A,3339.6000,N,11547.7267,W,69.02,90.23,010610,,,A*74
$GPRMC,003506.000,A,3339.5996,N,11547.6577,W,68.99,90.34,010610,,,A*76
$GPRMC,003509.000,A,3339.5994,N,11547.5887,W,69.01,90.07,010610,,,A*7A
$GPRMC,003512.000,A,3339.5992,N,11547.5198,W,68.84,90.20,010610,,,A*78
$GPRMC,003515.000,A,3339.5991,N,11547.4510,W,68.93,90.04,010610,,,A*79
$GPRMC,003518.000,A,3339.5990,N,11547.3822,W,68.87,90.03,010610,,,A*7C
$GPRMC,003521.000,A,3339.5989,N,11547.3133,W,68.89,90.12,010610,,,A*79
$GPRMC,003524.000,A,3339.5987,N,11547.2445,W,68.92,90.30,010610,,,A*7D
$GPRMC,003527.000,A,3339.5985,N,11547.1757,W,68.81,90.06,010610,,,A*78
$GPRMC,003530.000,A,3339.5985,N,11547.1069,W,68.87,90.16,010610,,,A*73
$GPRMC,003533.000,A,3339.5983,N,11547.0382,W,68.75,89.98,010610,,,A*72
$GPRMC,003536.000,A,3339.5984,N,11546.9694,W,68.92,89.82,010610,,,A*78
$GPRMC,003539.000,A,3339.5983,N,11546.9005,W,68.96,90.11,010610,,,A*78
$GPRMC,003542.000,A,3339.5982,N,11546.8318,W,68.85,90.14,010610,,,A*7C
$GPRMC,003545.000,A,3339.5980,N,11546.7630,W,68.85,90.35,010610,,,A*7A
$GPRMC,003548.000,A,3339.5976,N,11546.6944,W,68.71,90.44,010610,,,A*7E
$GPRMC,003551.000,A,3339.5973,N,11546.6256,W,68.93,90.27,010610,,,A*72
$GPRMC,003554.000,A,3339.5972,N,11546.5568,W,68.95,90.18,010610,,,A*75
$GPRMC,003557.000,A,3339.5971,N,11546.4879,W,68.90,90.10,010610,,,A*74
$GPRMC,003600.000,A,3339.5970,N,11546.4191,W,68.92,90.17,010610,,,A*7E
$GPRMC,003603.000,A,3339.5967,N,11546.3504,W,68.78,90.41,010610,,,A*73
$GPRMC,003606.000,A,3339.5964,N,11546.2816,W,68.95,90.24,010610,,,A*7A
$GPRMC,003609.000,A,3339.5963,N,11546.2128,W,68.92,89.91,010610,,,A*77
$GPRMC,003612.000,A,3339.5965,N,11546.1439,W,68.83,89.96,010610,,,A*7A
$GPRMC,003615.000,A,3339.5962,N,11546.0751,W,69.00,90.57,010610,,,A*79
$GPRMC,003618.000,A,3339.5959,N,11546.0062,W,68.99,89.64,010610,,,A*72
$GPRMC,003621.000,A,3339.5951,N,11545.9375,W,68.98,91.24,010610,,,A*73
$GPRMC,003624.000,A,3339.5947,N,11545.8689,W,68.89,90.32,010610,,,A*70
$GPRMC,003627.000,A,3339.5943,N,11545.8001,W,69.00,90.83,010610,,,A*7B
$GPRMC,003630.000,A,3339.5931,N,11545.7313,W,68.90,91.34,010610,,,A*72
$GPRMC,003633.000,A,3339.5924,N,11545.6626,W,68.86,89.84,010610,,,A*72
$GPRMC,003636.000,A,3339.5923,N,11545.5940,W,68.66,90.19,010610,,,A*7E
$GPRMC,003639.000,A,3339.5924,N,11545.5254,W,68.88,89.61,010610,,,A*7F
$GPRMC,003642.000,A,3339.5933,N,11545.4566,W,68.96,89.06,010610,,,A*7C
$GPRMC,003645.000,A,3339.5937,N,11545.3878,W,69.06,90.02,010610,,,A*7E
$GPRMC,003648.000,A,3339.5937,N,11545.3188,W,68.97,90.05,010610,,,A*7B
$GPRMC,003651.000,A,3339.5935,N,11545.2500,W,68.83,90.21,010610,,,A*77
$GPRMC,003654.000,A,3339.5932,N,11545.1813,W,69.01,90.45,010610,,,A*70
$GPRMC,003657.000,A,3339.5928,N,11545.1124,W,69.05,90.37,010610,,,A*74
$GPRMC,003700.000,A,3339.5918,N,11545.0436,W,68.81,91.40,010610,,,A*7F
$GPRMC,003703.000,A,3339.5907,N,11544.9749,W,68.83,90.87,010610,,,A*79
$GPRMC,003706.000,A,3339.5903,N,11544.9062,W,68.80,90.11,010610,,,A*7A
$GPRMC,003709.000,A,3339.5900,N,11544.8375,W,68.86,90.67,010610,,,A*75
$GPRMC,003712.000,A,3339.5898,N,11544.7688,W,68.87,89.98,010610,,,A*7E
$GPRMC,003715.000,A,3339.5901,N,11544.7000,W,68.89,89.80,010610,,,A*79
$GPRMC,003718.000,A,3339.5899,N,11544.6330,W,65.08,90.41,010610,,,A*74
$GPRMC,003721.000,A,3339.5896,N,11544.5701,W,61.75,90.02,010610,,,A*7D
$GPRMC,003724.000,A,3339.5895,N,11544.5084,W,61.96,90.14,010610,,,A*7B
$GPRMC,003727.000,A,3339.5894,N,11544.4470,W,61.21,89.77,010610,,,A*76
$GPRMC,003730.000,A,3339.5895,N,11544.3867,W,59.94,89.70,010610,,,A*7E
$GPRMC,003733.000,A,3339.5904,N,11544.3271,W,59.78,88.93,010610,,,A*77
$GPRMC,003736.000,A,3339.5908,N,11544.2675,W,60.31,90.16,010610,,,A*7C
$GPRMC,003739.000,A,3339.5905,N,11544.2060,W,62.36,90.16,010610,,,A*79
$GPRMC,003742.000,A,3339.5901,N,11544.1431,W,64.25,90.38,010610,,,A*7A
$GPRMC,003745.000,A,3339.5898,N,11544.0790,W,64.45,90.65,010610,,,A*7B
$GPRMC,003748.000,A,3339.5894,N,11544.0145,W,64.56,90.34,010610,,,A*72
$GPRMC,003751.000,A,3339.5894,N,11543.9501,W,64.43,89.95,010610,,,A*77
$GPRMC,003754.000,A,3339.5894,N,11543.8857,W,64.51,90.13,010610,,,A*78
$GPRMC,003757.000,A,3339.5892,N,11543.8214,W,64.39,90.35,010610,,,A*7A
$GPRMC,003800.000,A,3339.5889,N,11543.7572,W,64.06,90.30,010610,,,A*7C
$GPRMC,003803.000,A,3339.5888,N,11543.6932,W,64.30,89.63,010610,,,A*7C
$GPRMC,003806.000,A,3339.5889,N,11543.6289,W,64.53,89.50,010610,,,A*76
$GPRMC,003809.000,A,3339.5895,N,11543.5647,W,64.40,88.43,010610,,,A*70
$GPRMC,003812.000,A,3339.5914,N,11543.5005,W,64.46,87.53,010610,,,A*7A
$GPRMC,003815.000,A,3339.5940,N,11543.4363,W,64.38,86.69,010610,,,A*7F
$GPRMC,003818.000,A,3339.5978,N,11543.3724,W,64.17,85.66,010610,,,A*78
$GPRMC,003821.000,A,3339.6022,N,11543.3085,W,64.40,85.05,010610,,,A*7C
$GPRMC,003824.000,A,3339.6077,N,11543.2444,W,64.50,83.55,010610,,,A*73
$GPRMC,003827.000,A,3339.6141,N,11543.1805,W,64.27,82.59,010610,,,A*73
$GPRMC,003830.000,A,3339.6214,N,11543.1169,W,64.20,81.55,010610,,,A*7D
$GPRMC,003833.000,A,3339.6291,N,11543.0534,W,64.27,81.10,010610,,,A*78
$GPRMC,003836.000,A,3339.6377,N,11542.9899,W,64.33,80.14,010610,,,A*76
$GPRMC,003839.000,A,3339.6472,N,11542.9267,W,64.50,79.86,010610,,,A*78
$GPRMC,003842.000,A,3339.6563,N,11542.8632,W,64.51,80.47,010610,,,A*7A
$GPRMC,003845.000,A,3339.6658,N,11542.8000,W,64.13,79.27,010610,,,A*77
$GPRMC,003848.000,A,3339.6758,N,11542.7369,W,64.34,79.26,010610,,,A*7C
$GPRMC,003851.000,A,3339.6858,N,11542.6741,W,63.92,79.03,010610,,,A*78
$GPRMC,003854.000,A,3339.6962,N,11542.6113,W,64.28,78.91,010610,,,A*78
$GPRMC,003857.000,A,3339.7064,N,11542.5482,W,64.49,79.14,010610,,,A*70
$GPRMC,003900.000,A,3339.7166,N,11542.4851,W,64.24,78.72,010610,,,A*79
$GPRMC,003903.000,A,3339.7270,N,11542.4222,W,64.22,79.13,010610,,,A*70
$GPRMC,003906.000,A,3339.7369,N,11542.3591,W,64.33,79.58,010610,,,A*7B
$GPRMC,003909.000,A,3339.7469,N,11542.2963,W,64.20,79.03,010610,,,A*7F
$GPRMC,003912.000,A,3339.7572,N,11542.2334,W,64.25,79.05,010610,,,A*75
$GPRMC,003915.000,A,3339.7672,N,11542.1702,W,64.58,79.15,010610,,,A*78
$GPRMC,003918.000,A,3339.7773,N,11542.1069,W,64.40,78.90,010610,,,A*7A
$GPRMC,003921.000,A,3339.7877,N,11542.0436,W,64.69,79.13,010610,,,A*75
$GPRMC,003924.000,A,3339.7981,N,11541.9803,W,64.60,78.82,010610,,,A*78
$GPRMC,003927.000,A,3339.8081,N,11541.9170,W,64.37,79.29,010610,,,A*72
$GPRMC,003930.000,A,3339.8178,N,11541.8538,W,64.46,79.60,010610,,,A*71
$GPRMC,003933.000,A,3339.8279,N,11541.7906,W,64.47,78.66,010610,,,A*78
$GPRMC,003936.000,A,3339.8380,N,11541.7276,W,64.37,79.80,010610,,,A*78
$GPRMC,003939.000,A,3339.8478,N,11541.6643,W,64.43,79.24,010610,,,A*79
$GPRMC,003942.000,A,3339.8582,N,11541.6014,W,64.23,78.74,010610,,,A*77
$GPRMC,003945.000,A,3339.8686,N,11541.5386,W,64.26,78.80,010610,,,A*72
$GPRMC,003948.000,A,3339.8788,N,11541.4755,W,64.36,79.15,010610,,,A*77
$GPRMC,003951.000,A,3339.8890,N,11541.4124,W,64.38,79.15,010610,,,A*77
$GPRMC,003954.000,A,3339.8992,N,11541.3493,W,64.41,79.36,010610,,,A*70
$GPRMC,003957.000,A,3339.9089,N,11541.2860,W,64.29,79.14,010610,,,A*7E
$GPRMC,004000.000,A,3339.9192,N,11541.2230,W,64.33,79.09,010610,,,A*71
$GPRMC,004003.000,A,3339.9294,N,11541.1602,W,64.23,79.03,010610,,,A*7A
$GPRMC,004006.000,A,3339.9393,N,11541.0971,W,64.32,80.30,010610,,,A*75
$GPRMC,004009.000,A,3339.9469,N,11541.0332,W,64.85,82.62,010610,,,A*7C
$GPRMC,004012.000,A,3339.9532,N,11540.9692,W,64.61,83.91,010610,,,A*79
$GPRMC,004015.000,A,3339.9584,N,11540.9049,W,64.53,84.99,010610,,,A*7D
$GPRMC,004018.000,A,3339.9630,N,11540.8408,W,64.32,85.08,010610,,,A*72
$GPRMC,004021.000,A,3339.9679,N,11540.7767,W,64.48,84.71,010610,,,A*72
$GPRMC,004024.000,A,3339.9727,N,11540.7126,W,64.48,85.26,010610,,,A*7D
$GPRMC,004027.000,A,3339.9772,N,11540.6484,W,64.43,84.89,010610,,,A*7D
$GPRMC,004030.000,A,3339.9821,N,11540.5844,W,64.39,84.76,010610,,,A*7C
$GPRMC,004033.000,A,3339.9869,N,11540.5204,W,64.21,84.94,010610,,,A*78
$GPRMC,004036.000,A,3339.9916,N,11540.4563,W,65.38,85.05,010610,,,A*73
$GPRMC,004039.000,A,3339.9964,N,11540.3893,W,69.06,85.13,010610,,,A*7A
$GPRMC,004042.000,A,3340.0015,N,11540.3201,W,69.44,84.80,010610,,,A*72
$GPRMC,004045.000,A,3340.0067,N,11540.2514,W,68.82,84.99,010610,,,A*71
$GPRMC,004048.000,A,3340.0118,N,11540.1831,W,68.55,84.68,010610,,,A*78
$GPRMC,004051.000,A,3340.0168,N,11540.1149,W,68.55,85.13,010610,,,A*7C
$GPRMC,004054.000,A,3340.0218,N,11540.0468,W,68.51,84.36,010610,,,A*78
$GPRMC,004057.000,A,3340.0270,N,11539.9786,W,68.60,84.82,010610,,,A*7C
$GPRMC,004100.000,A,3340.0329,N,11539.9106,W,68.47,83.53,010610,,,A*72
