NMEA Sentence Code,UTC Time,Status,Latitude,Latitude Direction,Longitude,Longitude Direction,Speed (knots),Track Angle (degrees true),Date,MagneticVariation,Magnetic Variation Direction,[FAA Mode]-Optional,Checksum
$GPRMC,165804.000,A,3307.8540,N,11718.9026,W,22.45,346.44,200810,,,A*44
$GPRMC,165807.000,A,3307.8715,N,11718.9111,W,22.67,337.02,200810,,,A*44
$GPRMC,165810.000,A,3307.8889,N,11718.9216,W,22.97,330.84,200810,,,A*4A
$GPRMC,165813.000,A,3307.9031,N,11718.9360,W,22.73,318.83,200810,,,A*44
$GPRMC,165816.000,A,3307.9147,N,11718.9533,W,22.27,310.99,200810,,,A*43
$GPRMC,165819.000,A,3307.9243,N,11718.9722,W,18.85,301.92,200810,,,A*43
$GPRMC,165822.000,A,3307.9315,N,11718.9852,W,13.47,312.60,200810,,,A*4B
$GPRMC,165825.000,A,3307.9417,N,11718.9911,W,14.04,331.44,200810,,,A*48
$GPRMC,165828.000,A,3307.9492,N,11718.9999,W,10.16,300.82,200810,,,A*47
$GPRMC,165831.000,A,3307.9424,N,11719.0113,W,14.61,221.98,200810,,,A*4D
$GPRMC,165834.000,A,3307.9265,N,11719.0254,W,23.80,217.02,200810,,,A*46
$GPRMC,165837.000,A,3307.9075,N,11719.0421,W,28.71,218.51,200810,,,A*4E
$GPRMC,165840.000,A,3307.8889,N,11719.0613,W,27.82,223.74,200810,,,A*4B
$GPRMC,165843.000,A,3307.8727,N,11719.0808,W,26.19,227.04,200810,,,A*47
$GPRMC,165846.000,A,3307.8568,N,11719.0979,W,25.63,217.42,200810,,,A*43
$GPRMC,165849.000,A,3307.8381,N,11719.1112,W,26.54,206.02,200810,,,A*4A
$GPRMC,165852.000,A,3307.8158,N,11719.1200,W,28.39,192.78,200810,,,A*40
$GPRMC,165855.000,A,3307.7923,N,11719.1208,W,29.34,181.52,200810,,,A*42
$GPRMC,165858.000,A,3307.7664,N,11719.1179,W,30.92,169.38,200810,,,A*48
$GPRMC,165901.000,A,3307.7416,N,11719.1085,W,30.36,158.14,200810,,,A*42
$GPRMC,165904.000,A,3307.7177,N,11719.0962,W,30.34,156.56,200810,,,A*4E
$GPRMC,165907.000,A,3307.6948,N,11719.0827,W,30.60,156.54,200810,,,A*4B
$GPRMC,165910.000,A,3307.6738,N,11719.0687,W,28.80,153.85,200810,,,A*4E
$GPRMC,165913.000,A,3307.6523,N,11719.0557,W,28.99,155.17,200810,,,A*4E
$GPRMC,165916.000,A,3307.6313,N,11719.0436,W,27.61,155.85,200810,,,A*4B
$GPRMC,165919.000,A,3307.6121,N,11719.0309,W,26.23,153.65,200810,,,A*43
$GPRMC,165922.000,A,3307.5915,N,11719.0218,W,26.05,151.08,200810,,,A*4B
$GPRMC,165925.000,A,3307.5695,N,11719.0097,W,29.13,142.72,200810,,,A*49
$GPRMC,165928.000,A,3307.5510,N,11718.9912,W,27.99,132.30,200810,,,A*4B
$GPRMC,165931.000,A,3307.5381,N,11718.9686,W,27.28,121.10,200810,,,A*45
$GPRMC,165934.000,A,3307.5293,N,11718.9430,W,28.19,108.50,200810,,,A*4F
$GPRMC,165937.000,A,3307.5227,N,11718.9157,W,28.70,109.69,200810,,,A*43
$GPRMC,165940.000,A,3307.5166,N,11718.8880,W,28.70,107.88,200810,,,A*46
$GPRMC,165943.000,A,3307.5070,N,11718.8626,W,27.33,118.63,200810,,,A*42
$GPRMC,165946.000,A,3307.4936,N,11718.8414,W,26.34,132.52,200810,,,A*42
$GPRMC,165949.000,A,3307.4772,N,11718.8245,W,25.30,142.35,200810,,,A*40
$GPRMC,165952.000,A,3307.4600,N,11718.8119,W,23.74,148.71,200810,,,A*48
$GPRMC,165955.000,A,3307.4385,N,11718.8040,W,27.41,166.36,200810,,,A*47
$GPRMC,165958.000,A,3307.4140,N,11718.8019,W,29.94,180.50,200810,,,A*43
$GPRMC,170001.000,A,3307.3876,N,11718.8073,W,30.29,193.28,200810,,,A*46
$GPRMC,170004.000,A,3307.3650,N,11718.8131,W,26.49,187.84,200810,,,A*4C
$GPRMC,170007.000,A,3307.3460,N,11718.8149,W,19.21,180.23,200810,,,A*49
$GPRMC,170010.000,A,3307.3333,N,11718.8160,W,11.38,184.77,200810,,,A*40
$GPRMC,170022.000,A,3307.3292,N,11718.8185,W,5.74,236.91,200810,,,A*7F
$GPRMC,170025.000,A,3307.3275,N,11718.8378,W,21.35,269.43,200810,,,A*47
$GPRMC,170028.000,A,3307.3286,N,11718.8646,W,29.12,273.93,200810,,,A*45
$GPRMC,170031.000,A,3307.3296,N,11718.8957,W,32.40,271.37,200810,,,A*42
$GPRMC,170034.000,A,3307.3296,N,11718.9308,W,33.97,270.54,200810,,,A*49
$GPRMC,170037.000,A,3307.3294,N,11718.9670,W,36.12,271.53,200810,,,A*4C
$GPRMC,170040.000,A,3307.3297,N,11719.0024,W,34.73,268.42,200810,,,A*4D
$GPRMC,170043.000,A,3307.3290,N,11719.0354,W,33.52,268.06,200810,,,A*49
$GPRMC,170046.000,A,3307.3290,N,11719.0675,W,30.49,271.26,200810,,,A*49
$GPRMC,170049.000,A,3307.3289,N,11719.0957,W,23.85,271.28,200810,,,A*4D
$GPRMC,170052.000,A,3307.3291,N,11719.1146,W,15.28,271.19,200810,,,A*47
$GPRMC,170055.000,A,3307.3294,N,11719.1226,W,4.65,271.76,200810,,,A*70
$GPRMC,170134.000,A,3307.3310,N,11719.1235,W,6.26,271.38,200810,,,A*76
$GPRMC,170137.000,A,3307.3312,N,11719.1338,W,13.30,270.37,200810,,,A*46
$GPRMC,170140.000,A,3307.3311,N,11719.1502,W,18.41,269.44,200810,,,A*4B
$GPRMC,170143.000,A,3307.3308,N,11719.1715,W,23.33,268.87,200810,,,A*47
$GPRMC,170146.000,A,3307.3309,N,11719.1973,W,27.27,271.37,200810,,,A*4F
$GPRMC,170149.000,A,3307.3311,N,11719.2268,W,31.98,270.74,200810,,,A*4E
$GPRMC,170152.000,A,3307.3312,N,11719.2590,W,31.09,270.87,200810,,,A*43
$GPRMC,170155.000,A,3307.3322,N,11719.2915,W,35.04,275.01,200810,,,A*44
$GPRMC,170158.000,A,3307.3338,N,11719.3283,W,36.47,271.92,200810,,,A*4D
$GPRMC,170201.000,A,3307.3347,N,11719.3635,W,33.55,273.07,200810,,,A*4B
$GPRMC,170204.000,A,3307.3394,N,11719.3946,W,29.19,286.68,200810,,,A*4B
$GPRMC,170207.000,A,3307.3502,N,11719.4166,W,23.37,314.94,200810,,,A*43
$GPRMC,170210.000,A,3307.3657,N,11719.4198,W,16.66,351.30,200810,,,A*4A
$GPRMC,170213.000,A,3307.3780,N,11719.4121,W,15.02,42.84,200810,,,A*7F
$GPRMC,170216.000,A,3307.3841,N,11719.3990,W,15.24,78.05,200810,,,A*79
$GPRMC,170219.000,A,3307.3845,N,11719.3892,W,4.58,99.13,200810,,,A*42
$GPRMC,170225.000,A,3307.3821,N,11719.3840,W,10.68,113.31,200810,,,A*45
$GPRMC,170228.000,A,3307.3708,N,11719.3698,W,24.12,142.20,200810,,,A*49
$GPRMC,170231.000,A,3307.3482,N,11719.3529,W,34.32,148.27,200810,,,A*47
$GPRMC,170234.000,A,3307.3220,N,11719.3336,W,35.96,148.24,200810,,,A*48
$GPRMC,170237.000,A,3307.2853,N,11719.3103,W,45.74,151.47,200810,,,A*46
$GPRMC,170240.000,A,3307.2500,N,11719.2890,W,47.70,153.07,200810,,,A*4F
$GPRMC,170243.000,A,3307.2137,N,11719.2671,W,49.37,152.88,200810,,,A*46
$GPRMC,170246.000,A,3307.1771,N,11719.2451,W,48.63,153.06,200810,,,A*43
$GPRMC,170249.000,A,3307.1411,N,11719.2225,W,50.08,150.98,200810,,,A*4C
$GPRMC,170252.000,A,3307.1032,N,11719.1987,W,52.29,152.77,200810,,,A*41
$GPRMC,170255.000,A,3307.0642,N,11719.1755,W,52.36,153.23,200810,,,A*49
$GPRMC,170258.000,A,3307.0248,N,11719.1520,W,53.42,153.00,200810,,,A*49
$GPRMC,170301.000,A,3306.9850,N,11719.1282,W,53.25,153.19,200810,,,A*49
$GPRMC,170304.000,A,3306.9450,N,11719.1044,W,53.91,153.10,200810,,,A*4E
$GPRMC,170307.000,A,3306.9046,N,11719.0803,W,54.34,153.09,200810,,,A*44
$GPRMC,170310.000,A,3306.8637,N,11719.0561,W,55.07,153.46,200810,,,A*40
$GPRMC,170313.000,A,3306.8223,N,11719.0315,W,55.68,152.99,200810,,,A*4D
$GPRMC,170316.000,A,3306.7806,N,11719.0065,W,56.36,153.32,200810,,,A*46
$GPRMC,170319.000,A,3306.7384,N,11718.9810,W,57.19,153.05,200810,,,A*42
$GPRMC,170322.000,A,3306.6962,N,11718.9555,W,55.82,153.34,200810,,,A*47
$GPRMC,170325.000,A,3306.6552,N,11718.9312,W,53.86,152.90,200810,,,A*47
$GPRMC,170328.000,A,3306.6147,N,11718.9070,W,54.94,153.19,200810,,,A*49
$GPRMC,170331.000,A,3306.5742,N,11718.8827,W,54.39,153.21,200810,,,A*46
$GPRMC,170334.000,A,3306.5336,N,11718.8582,W,54.38,152.59,200810,,,A*49
$GPRMC,170337.000,A,3306.4931,N,11718.8331,W,55.39,152.04,200810,,,A*40
$GPRMC,170340.000,A,3306.4525,N,11718.8071,W,54.37,151.26,200810,,,A*42
$GPRMC,170343.000,A,3306.4136,N,11718.7819,W,51.96,151.52,200810,,,A*43
$GPRMC,170346.000,A,3306.3764,N,11718.7580,W,49.68,151.44,200810,,,A*42
$GPRMC,170349.000,A,3306.3402,N,11718.7347,W,48.82,151.38,200810,,,A*4D
$GPRMC,170352.000,A,3306.3042,N,11718.7113,W,50.33,151.06,200810,,,A*4A
$GPRMC,170355.000,A,3306.2661,N,11718.6869,W,53.10,151.19,200810,,,A*42
$GPRMC,170358.000,A,3306.2262,N,11718.6608,W,55.74,151.05,200810,,,A*48
$GPRMC,170401.000,A,3306.1848,N,11718.6336,W,56.52,150.99,200810,,,A*49
$GPRMC,170404.000,A,3306.1440,N,11718.6072,W,55.58,151.34,200810,,,A*44
$GPRMC,170407.000,A,3306.1029,N,11718.5803,W,56.67,150.99,200810,,,A*48
$GPRMC,170410.000,A,3306.0608,N,11718.5530,W,57.39,151.19,200810,,,A*44
$GPRMC,170413.000,A,3306.0187,N,11718.5257,W,57.31,150.98,200810,,,A*41
$GPRMC,170416.000,A,3305.9767,N,11718.4983,W,57.05,150.92,200810,,,A*48
$GPRMC,170419.000,A,3305.9347,N,11718.4711,W,57.30,151.39,200810,,,A*42
$GPRMC,170422.000,A,3305.8927,N,11718.4438,W,57.26,151.00,200810,,,A*42
$GPRMC,170425.000,A,3305.8507,N,11718.4165,W,57.21,151.01,200810,,,A*40
$GPRMC,170428.000,A,3305.8086,N,11718.3892,W,57.31,151.11,200810,,,A*47
$GPRMC,170431.000,A,3305.7668,N,11718.3618,W,57.12,151.14,200810,,,A*4E
$GPRMC,170434.000,A,3305.7251,N,11718.3345,W,57.01,151.20,200810,,,A*4D
$GPRMC,170437.000,A,3305.6835,N,11718.3074,W,57.03,151.13,200810,,,A*44
$GPRMC,170440.000,A,3305.6416,N,11718.2802,W,57.37,151.45,200810,,,A*45
$GPRMC,170443.000,A,3305.5998,N,11718.2526,W,57.26,151.19,200810,,,A*4C
$GPRMC,170446.000,A,3305.5583,N,11718.2248,W,57.00,150.81,200810,,,A*44
$GPRMC,170449.000,A,3305.5168,N,11718.1972,W,57.05,151.24,200810,,,A*40
$GPRMC,170452.000,A,3305.4751,N,11718.1697,W,57.04,150.76,200810,,,A*44
$GPRMC,170455.000,A,3305.4332,N,11718.1424,W,57.08,151.25,200810,,,A*43
$GPRMC,170458.000,A,3305.3914,N,11718.1157,W,57.24,151.66,200810,,,A*4F
$GPRMC,170501.000,A,3305.3495,N,11718.0887,W,57.21,151.29,200810,,,A*4D
$GPRMC,170504.000,A,3305.3077,N,11718.0617,W,57.06,151.45,200810,,,A*48
$GPRMC,170507.000,A,3305.2661,N,11718.0346,W,57.07,151.10,200810,,,A*4B
$GPRMC,170510.000,A,3305.2243,N,11718.0074,W,57.20,151.18,200810,,,A*46
$GPRMC,170513.000,A,3305.1824,N,11717.9802,W,57.18,151.20,200810,,,A*42
$GPRMC,170516.000,A,3305.1405,N,11717.9530,W,57.18,150.95,200810,,,A*4B
$GPRMC,170519.000,A,3305.0987,N,11717.9260,W,57.04,152.01,200810,,,A*42
$GPRMC,170522.000,A,3305.0562,N,11717.9011,W,56.92,155.87,200810,,,A*4E
$GPRMC,170525.000,A,3305.0127,N,11717.8798,W,56.71,160.03,200810,,,A*4C
$GPRMC,170528.000,A,3304.9680,N,11717.8628,W,55.32,163.95,200810,,,A*41
$GPRMC,170531.000,A,3304.9238,N,11717.8494,W,54.12,166.07,200810,,,A*46
$GPRMC,170534.000,A,3304.8802,N,11717.8367,W,53.69,165.79,200810,,,A*4B
$GPRMC,170537.000,A,3304.8365,N,11717.8238,W,54.07,165.77,200810,,,A*48
$GPRMC,170540.000,A,3304.7926,N,11717.8108,W,53.93,165.66,200810,,,A*40
$GPRMC,170543.000,A,3304.7496,N,11717.7978,W,52.68,165.45,200810,,,A*41
$GPRMC,170546.000,A,3304.7076,N,11717.7852,W,50.91,165.75,200810,,,A*40
$GPRMC,170549.000,A,3304.6664,N,11717.7729,W,51.19,165.65,200810,,,A*48
$GPRMC,170552.000,A,3304.6250,N,11717.7605,W,51.03,165.54,200810,,,A*47
$GPRMC,170555.000,A,3304.5840,N,11717.7482,W,49.88,165.89,200810,,,A*4F
$GPRMC,170558.000,A,3304.5439,N,11717.7364,W,49.57,165.81,200810,,,A*45
$GPRMC,170601.000,A,3304.5037,N,11717.7245,W,49.65,165.84,200810,,,A*46
$GPRMC,170604.000,A,3304.4629,N,11717.7123,W,51.31,165.51,200810,,,A*48
$GPRMC,170607.000,A,3304.4205,N,11717.6995,W,53.83,165.62,200810,,,A*4E
$GPRMC,170610.000,A,3304.3748,N,11717.6858,W,58.09,165.62,200810,,,A*4A
$GPRMC,170613.000,A,3304.3275,N,11717.6716,W,58.10,165.69,200810,,,A*44
$GPRMC,170616.000,A,3304.2808,N,11717.6574,W,57.26,165.05,200810,,,A*46
$GPRMC,170619.000,A,3304.2348,N,11717.6423,W,57.10,164.58,200810,,,A*49
$GPRMC,170622.000,A,3304.1887,N,11717.6276,W,57.17,165.19,200810,,,A*4F
$GPRMC,170625.000,A,3304.1424,N,11717.6136,W,57.11,165.84,200810,,,A*48
$GPRMC,170628.000,A,3304.0962,N,11717.5997,W,57.20,165.68,200810,,,A*4B
$GPRMC,170631.000,A,3304.0499,N,11717.5858,W,57.19,165.72,200810,,,A*49
$GPRMC,170634.000,A,3304.0036,N,11717.5719,W,57.10,165.85,200810,,,A*46
$GPRMC,170637.000,A,3303.9574,N,11717.5580,W,57.00,165.63,200810,,,A*43
$GPRMC,170640.000,A,3303.9113,N,11717.5440,W,56.81,165.40,200810,,,A*42
$GPRMC,170643.000,A,3303.8649,N,11717.5302,W,57.21,165.64,200810,,,A*44
$GPRMC,170646.000,A,3303.8184,N,11717.5163,W,57.35,165.95,200810,,,A*49
$GPRMC,170649.000,A,3303.7719,N,11717.5026,W,57.29,165.91,200810,,,A*42
$GPRMC,170652.000,A,3303.7254,N,11717.4888,W,57.36,165.82,200810,,,A*45
$GPRMC,170655.000,A,3303.6790,N,11717.4747,W,57.45,165.68,200810,,,A*42
$GPRMC,170658.000,A,3303.6327,N,11717.4608,W,57.23,165.93,200810,,,A*49
$GPRMC,170701.000,A,3303.5862,N,11717.4476,W,57.21,167.40,200810,,,A*48
$GPRMC,170704.000,A,3303.5398,N,11717.4351,W,56.66,166.28,200810,,,A*4C
$GPRMC,170707.000,A,3303.4943,N,11717.4216,W,56.07,165.87,200810,,,A*41
$GPRMC,170710.000,A,3303.4488,N,11717.4079,W,56.24,165.30,200810,,,A*4B
$GPRMC,170713.000,A,3303.4032,N,11717.3939,W,56.35,165.64,200810,,,A*46
$GPRMC,170716.000,A,3303.3576,N,11717.3803,W,56.25,165.79,200810,,,A*44
$GPRMC,170719.000,A,3303.3121,N,11717.3667,W,56.35,165.54,200810,,,A*4F
$GPRMC,170722.000,A,3303.2665,N,11717.3530,W,56.29,165.80,200810,,,A*44
$GPRMC,170725.000,A,3303.2210,N,11717.3393,W,56.38,165.78,200810,,,A*4D
$GPRMC,170728.000,A,3303.1754,N,11717.3255,W,56.20,165.55,200810,,,A*4B
$GPRMC,170731.000,A,3303.1301,N,11717.3112,W,56.14,164.54,200810,,,A*40
$GPRMC,170734.000,A,3303.0849,N,11717.2964,W,56.25,164.68,200810,,,A*46
$GPRMC,170737.000,A,3303.0396,N,11717.2819,W,56.17,165.53,200810,,,A*4F
$GPRMC,170740.000,A,3302.9943,N,11717.2678,W,55.74,165.45,200810,,,A*4D
$GPRMC,170743.000,A,3302.9488,N,11717.2540,W,56.19,166.12,200810,,,A*45
$GPRMC,170746.000,A,3302.9036,N,11717.2403,W,56.11,165.39,200810,,,A*45
$GPRMC,170749.000,A,3302.8583,N,11717.2263,W,56.29,165.82,200810,,,A*4B
$GPRMC,170752.000,A,3302.8131,N,11717.2127,W,56.17,165.54,200810,,,A*49
$GPRMC,170755.000,A,3302.7680,N,11717.1991,W,55.99,165.93,200810,,,A*44
$GPRMC,170758.000,A,3302.7225,N,11717.1855,W,56.31,165.76,200810,,,A*41
$GPRMC,170801.000,A,3302.6773,N,11717.1721,W,55.86,166.18,200810,,,A*4D
$GPRMC,170804.000,A,3302.6316,N,11717.1582,W,56.09,165.49,200810,,,A*47
$GPRMC,170807.000,A,3302.5861,N,11717.1442,W,56.58,165.33,200810,,,A*48
$GPRMC,170810.000,A,3302.5404,N,11717.1282,W,57.25,160.67,200810,,,A*44
$GPRMC,170813.000,A,3302.4954,N,11717.1077,W,57.21,157.09,200810,,,A*4E
$GPRMC,170816.000,A,3302.4521,N,11717.0841,W,57.12,154.23,200810,,,A*42
$GPRMC,170819.000,A,3302.4100,N,11717.0579,W,57.19,150.63,200810,,,A*47
$GPRMC,170822.000,A,3302.3686,N,11717.0305,W,56.92,150.59,200810,,,A*47
$GPRMC,170825.000,A,3302.3272,N,11717.0028,W,57.24,150.62,200810,,,A*47
$GPRMC,170828.000,A,3302.2857,N,11716.9749,W,57.17,150.11,200810,,,A*4A
$GPRMC,170831.000,A,3302.2442,N,11716.9468,W,57.30,150.45,200810,,,A*4E
$GPRMC,170834.000,A,3302.2027,N,11716.9189,W,57.09,150.47,200810,,,A*4E
$GPRMC,170837.000,A,3302.1612,N,11716.8910,W,57.10,150.20,200810,,,A*4E
$GPRMC,170840.000,A,3302.1196,N,11716.8630,W,57.08,150.42,200810,,,A*45
$GPRMC,170843.000,A,3302.0780,N,11716.8351,W,57.12,150.33,200810,,,A*49
$GPRMC,170846.000,A,3302.0364,N,11716.8071,W,56.96,150.10,200810,,,A*4F
$GPRMC,170849.000,A,3301.9949,N,11716.7792,W,57.10,150.47,200810,,,A*47
$GPRMC,170852.000,A,3301.9532,N,11716.7514,W,57.17,150.55,200810,,,A*45
$GPRMC,170855.000,A,3301.9116,N,11716.7235,W,56.96,150.15,200810,,,A*48
$GPRMC,170858.000,A,3301.8701,N,11716.6954,W,57.03,150.07,200810,,,A*47
$GPRMC,170901.000,A,3301.8275,N,11716.6674,W,56.97,150.36,200810,,,A*4F
$GPRMC,170904.000,A,3301.7851,N,11716.6396,W,57.00,150.89,200810,,,A*4B
$GPRMC,170907.000,A,3301.7437,N,11716.6118,W,56.93,149.95,200810,,,A*4E
$GPRMC,170910.000,A,3301.7023,N,11716.5836,W,57.11,150.00,200810,,,A*40
$GPRMC,170913.000,A,3301.6614,N,11716.5549,W,57.33,149.85,200810,,,A*40
$GPRMC,170916.000,A,3301.6206,N,11716.5264,W,57.34,150.51,200810,,,A*4C
$GPRMC,170919.000,A,3301.5792,N,11716.4988,W,57.10,152.23,200810,,,A*41
$GPRMC,170922.000,A,3301.5359,N,11716.4742,W,57.27,156.98,200810,,,A*42
$GPRMC,170925.000,A,3301.4914,N,11716.4537,W,57.12,160.74,200810,,,A*46
$GPRMC,170928.000,A,3301.4462,N,11716.4377,W,56.89,165.77,200810,,,A*40
$GPRMC,170931.000,A,3301.3994,N,11716.4262,W,57.10,169.41,200810,,,A*46
$GPRMC,170934.000,A,3301.3522,N,11716.4168,W,57.20,170.80,200810,,,A*4D
$GPRMC,170937.000,A,3301.3052,N,11716.4079,W,56.61,170.78,200810,,,A*4E
$GPRMC,170940.000,A,3301.2585,N,11716.3990,W,56.59,170.40,200810,,,A*49
$GPRMC,170943.000,A,3301.2117,N,11716.3891,W,56.79,169.20,200810,,,A*49
$GPRMC,170946.000,A,3301.1651,N,11716.3769,W,57.17,165.21,200810,,,A*46
$GPRMC,170949.000,A,3301.1197,N,11716.3611,W,56.69,162.24,200810,,,A*40
$GPRMC,170952.000,A,3301.0749,N,11716.3400,W,56.74,157.14,200810,,,A*45
$GPRMC,170955.000,A,3301.0316,N,11716.3155,W,57.29,153.25,200810,,,A*46
$GPRMC,170958.000,A,3300.9895,N,11716.2870,W,57.12,148.73,200810,,,A*4D
$GPRMC,171001.000,A,3300.9494,N,11716.2555,W,57.10,144.83,200810,,,A*4F
$GPRMC,171004.000,A,3300.9116,N,11716.2208,W,57.47,140.96,200810,,,A*48
$GPRMC,171007.000,A,3300.8757,N,11716.1832,W,57.33,137.02,200810,,,A*47
$GPRMC,171010.000,A,3300.8413,N,11716.1433,W,57.22,135.94,200810,,,A*42
$GPRMC,171013.000,A,3300.8071,N,11716.1039,W,57.12,135.98,200810,,,A*40
$GPRMC,171016.000,A,3300.7728,N,11716.0644,W,57.13,135.77,200810,,,A*4C
$GPRMC,171019.000,A,3300.7386,N,11716.0247,W,57.19,135.63,200810,,,A*4B
$GPRMC,171022.000,A,3300.7044,N,11715.9852,W,57.13,135.89,200810,,,A*44
$GPRMC,171025.000,A,3300.6703,N,11715.9455,W,57.12,135.50,200810,,,A*48
$GPRMC,171028.000,A,3300.6359,N,11715.9060,W,57.20,136.19,200810,,,A*43
$GPRMC,171031.000,A,3300.6010,N,11715.8669,W,56.91,136.19,200810,,,A*40
$GPRMC,171034.000,A,3300.5668,N,11715.8277,W,57.09,135.97,200810,,,A*41
$GPRMC,171037.000,A,3300.5330,N,11715.7882,W,56.93,135.47,200810,,,A*4A
$GPRMC,171040.000,A,3300.4993,N,11715.7488,W,57.10,135.67,200810,,,A*46
$GPRMC,171043.000,A,3300.4654,N,11715.7094,W,57.08,135.70,200810,,,A*47
$GPRMC,171046.000,A,3300.4312,N,11715.6700,W,57.30,135.75,200810,,,A*40
$GPRMC,171049.000,A,3300.3967,N,11715.6311,W,56.95,136.23,200810,,,A*4A
$GPRMC,171052.000,A,3300.3618,N,11715.5927,W,56.86,137.96,200810,,,A*46
$GPRMC,171055.000,A,3300.3255,N,11715.5583,W,56.84,144.20,200810,,,A*45
$GPRMC,171058.000,A,3300.2862,N,11715.5280,W,56.65,149.75,200810,,,A*41
$GPRMC,171101.000,A,3300.2433,N,11715.5024,W,57.07,155.21,200810,,,A*41
$GPRMC,171104.000,A,3300.1990,N,11715.4820,W,56.95,161.25,200810,,,A*47
$GPRMC,171107.000,A,3300.1531,N,11715.4663,W,57.11,166.33,200810,,,A*47
$GPRMC,171110.000,A,3300.1061,N,11715.4566,W,57.33,172.30,200810,,,A*41
$GPRMC,171113.000,A,3300.0586,N,11715.4501,W,57.43,172.35,200810,,,A*4C
$GPRMC,171116.000,A,3300.0110,N,11715.4430,W,57.61,172.50,200810,,,A*42
$GPRMC,171119.000,A,3259.9635,N,11715.4361,W,57.34,172.50,200810,,,A*4A
$GPRMC,171122.000,A,3259.9158,N,11715.4296,W,57.10,172.91,200810,,,A*4C
$GPRMC,171125.000,A,3259.8684,N,11715.4230,W,57.25,173.18,200810,,,A*46
$GPRMC,171128.000,A,3259.8208,N,11715.4163,W,57.16,172.81,200810,,,A*4F
$GPRMC,171131.000,A,3259.7731,N,11715.4094,W,57.15,172.61,200810,,,A*43
$GPRMC,171134.000,A,3259.7261,N,11715.4021,W,57.08,172.37,200810,,,A*47
$GPRMC,171137.000,A,3259.6791,N,11715.3944,W,57.12,172.03,200810,,,A*4E
$GPRMC,171140.000,A,3259.6319,N,11715.3866,W,57.14,172.31,200810,,,A*4C
$GPRMC,171143.000,A,3259.5847,N,11715.3789,W,57.27,172.47,200810,,,A*43
$GPRMC,171146.000,A,3259.5376,N,11715.3717,W,57.22,172.54,200810,,,A*4F
$GPRMC,171149.000,A,3259.4906,N,11715.3643,W,57.12,172.23,200810,,,A*4F
$GPRMC,171152.000,A,3259.4436,N,11715.3569,W,57.18,172.40,200810,,,A*4F
$GPRMC,171155.000,A,3259.3966,N,11715.3495,W,57.03,172.54,200810,,,A*4A
$GPRMC,171158.000,A,3259.3495,N,11715.3425,W,57.24,172.65,200810,,,A*4A
$GPRMC,171201.000,A,3259.3023,N,11715.3352,W,57.11,172.19,200810,,,A*46
$GPRMC,171204.000,A,3259.2552,N,11715.3277,W,57.13,172.42,200810,,,A*4B
$GPRMC,171207.000,A,3259.2075,N,11715.3199,W,57.33,172.23,200810,,,A*4E
$GPRMC,171210.000,A,3259.1599,N,11715.3121,W,57.32,172.36,200810,,,A*4A
$GPRMC,171213.000,A,3259.1123,N,11715.3042,W,57.30,171.42,200810,,,A*4A
$GPRMC,171216.000,A,3259.0646,N,11715.2942,W,57.68,167.57,200810,,,A*4C
$GPRMC,171219.000,A,3259.0177,N,11715.2803,W,57.47,163.74,200810,,,A*4A
$GPRMC,171222.000,A,3258.9715,N,11715.2637,W,57.32,162.41,200810,,,A*44
$GPRMC,171225.000,A,3258.9256,N,11715.2464,W,57.19,162.23,200810,,,A*48
$GPRMC,171228.000,A,3258.8796,N,11715.2293,W,57.28,162.46,200810,,,A*42
$GPRMC,171231.000,A,3258.8338,N,11715.2120,W,57.31,162.18,200810,,,A*42
$GPRMC,171234.000,A,3258.7880,N,11715.1945,W,57.21,162.28,200810,,,A*4A
$GPRMC,171237.000,A,3258.7424,N,11715.1772,W,57.22,162.24,200810,,,A*4E
$GPRMC,171240.000,A,3258.6969,N,11715.1598,W,57.13,162.25,200810,,,A*4E
$GPRMC,171243.000,A,3258.6519,N,11715.1428,W,54.74,162.35,200810,,,A*4F
$GPRMC,171246.000,A,3258.6097,N,11715.1267,W,53.20,162.45,200810,,,A*45
$GPRMC,171249.000,A,3258.5660,N,11715.1102,W,55.41,160.78,200810,,,A*4A
$GPRMC,171252.000,A,3258.5215,N,11715.0920,W,56.06,161.64,200810,,,A*43
$GPRMC,171255.000,A,3258.4767,N,11715.0755,W,56.21,162.49,200810,,,A*40
$GPRMC,171258.000,A,3258.4317,N,11715.0590,W,55.97,162.29,200810,,,A*4D
$GPRMC,171301.000,A,3258.3868,N,11715.0421,W,56.16,162.15,200810,,,A*4A
$GPRMC,171304.000,A,3258.3420,N,11715.0252,W,55.71,162.79,200810,,,A*45
$GPRMC,171307.000,A,3258.2973,N,11715.0087,W,56.77,162.16,200810,,,A*4A
$GPRMC,171310.000,A,3258.2515,N,11714.9916,W,57.49,162.45,200810,,,A*43
$GPRMC,171313.000,A,3258.2058,N,11714.9745,W,56.88,163.40,200810,,,A*4C
$GPRMC,171316.000,A,3258.1603,N,11714.9587,W,56.80,163.30,200810,,,A*41
$GPRMC,171319.000,A,3258.1150,N,11714.9422,W,57.02,162.46,200810,,,A*4A
$GPRMC,171322.000,A,3258.0696,N,11714.9254,W,57.09,162.28,200810,,,A*4A
$GPRMC,171325.000,A,3258.0240,N,11714.9085,W,57.20,162.42,200810,,,A*4B
$GPRMC,171328.000,A,3257.9784,N,11714.8916,W,57.16,162.17,200810,,,A*4A
$GPRMC,171331.000,A,3257.9329,N,11714.8747,W,57.08,162.38,200810,,,A*49
$GPRMC,171334.000,A,3257.8876,N,11714.8578,W,57.08,162.01,200810,,,A*48
$GPRMC,171337.000,A,3257.8421,N,11714.8409,W,57.08,162.31,200810,,,A*41
$GPRMC,171340.000,A,3257.7967,N,11714.8241,W,57.04,162.40,200810,,,A*41
$GPRMC,171343.000,A,3257.7512,N,11714.8072,W,57.08,162.19,200810,,,A*4E
$GPRMC,171346.000,A,3257.7057,N,11714.7903,W,57.11,162.35,200810,,,A*49
$GPRMC,171349.000,A,3257.6599,N,11714.7740,W,57.08,163.68,200810,,,A*48
$GPRMC,171352.000,A,3257.6136,N,11714.7596,W,57.08,165.74,200810,,,A*41
$GPRMC,171355.000,A,3257.5670,N,11714.7468,W,57.11,167.47,200810,,,A*4A
$GPRMC,171358.000,A,3257.5203,N,11714.7352,W,56.98,168.70,200810,,,A*42
$GPRMC,171401.000,A,3257.4734,N,11714.7251,W,56.45,170.52,200810,,,A*42
$GPRMC,171404.000,A,3257.4291,N,11714.7164,W,53.60,171.06,200810,,,A*4A
$GPRMC,171407.000,A,3257.3859,N,11714.7078,W,53.07,170.62,200810,,,A*4E
$GPRMC,171410.000,A,3257.3426,N,11714.6992,W,53.24,170.82,200810,,,A*4F
$GPRMC,171413.000,A,3257.2980,N,11714.6897,W,54.70,169.06,200810,,,A*4A
$GPRMC,171416.000,A,3257.2521,N,11714.6801,W,56.66,170.41,200810,,,A*49
$GPRMC,171419.000,A,3257.2051,N,11714.6710,W,57.65,171.10,200810,,,A*4C
$GPRMC,171422.000,A,3257.1579,N,11714.6621,W,57.64,170.90,200810,,,A*43
$GPRMC,171425.000,A,3257.1108,N,11714.6529,W,57.33,170.95,200810,,,A*4A
$GPRMC,171428.000,A,3257.0636,N,11714.6441,W,57.39,170.62,200810,,,A*41
$GPRMC,171431.000,A,3257.0162,N,11714.6353,W,57.36,171.38,200810,,,A*4A
$GPRMC,171434.000,A,3256.9688,N,11714.6258,W,58.05,168.98,200810,,,A*43
$GPRMC,171437.000,A,3256.9213,N,11714.6169,W,57.55,171.25,200810,,,A*43
$GPRMC,171440.000,A,3256.8740,N,11714.6089,W,57.24,171.84,200810,,,A*43
$GPRMC,171443.000,A,3256.8267,N,11714.6006,W,57.27,170.95,200810,,,A*45
$GPRMC,171446.000,A,3256.7799,N,11714.5915,W,57.06,171.08,200810,,,A*45
$GPRMC,171449.000,A,3256.7334,N,11714.5827,W,56.99,170.92,200810,,,A*4C
$GPRMC,171452.000,A,3256.6866,N,11714.5741,W,56.66,170.82,200810,,,A*45
$GPRMC,171455.000,A,3256.6398,N,11714.5656,W,56.96,171.12,200810,,,A*48
$GPRMC,171458.000,A,3256.5926,N,11714.5569,W,57.28,171.23,200810,,,A*40
$GPRMC,171501.000,A,3256.5455,N,11714.5485,W,57.15,171.55,200810,,,A*48
$GPRMC,171504.000,A,3256.4982,N,11714.5401,W,57.21,171.54,200810,,,A*41
$GPRMC,171507.000,A,3256.4507,N,11714.5322,W,57.15,172.12,200810,,,A*43
$GPRMC,171510.000,A,3256.4029,N,11714.5253,W,57.16,172.55,200810,,,A*4B
$GPRMC,171513.000,A,3256.3552,N,11714.5190,W,57.08,173.89,200810,,,A*45
$GPRMC,171516.000,A,3256.3073,N,11714.5140,W,57.40,175.62,200810,,,A*44
$GPRMC,171519.000,A,3256.2594,N,11714.5102,W,56.94,176.15,200810,,,A*4B
$GPRMC,171522.000,A,3256.2117,N,11714.5069,W,56.82,176.01,200810,,,A*42
$GPRMC,171525.000,A,3256.1641,N,11714.5034,W,57.08,176.71,200810,,,A*4E
$GPRMC,171528.000,A,3256.1166,N,11714.5000,W,57.19,176.49,200810,,,A*4D
$GPRMC,171531.000,A,3256.0695,N,11714.4963,W,57.21,176.29,200810,,,A*4F
$GPRMC,171534.000,A,3256.0222,N,11714.4927,W,57.04,176.43,200810,,,A*49
$GPRMC,171537.000,A,3255.9749,N,11714.4886,W,57.13,174.87,200810,,,A*4E
$GPRMC,171540.000,A,3255.9275,N,11714.4835,W,57.18,174.34,200810,,,A*4F
$GPRMC,171543.000,A,3255.8801,N,11714.4768,W,57.27,172.51,200810,,,A*4A
$GPRMC,171546.000,A,3255.8325,N,11714.4677,W,57.39,170.12,200810,,,A*47
$GPRMC,171549.000,A,3255.7856,N,11714.4568,W,56.91,168.71,200810,,,A*4A
$GPRMC,171552.000,A,3255.7390,N,11714.4453,W,56.82,167.65,200810,,,A*40
$GPRMC,171555.000,A,3255.6929,N,11714.4323,W,57.02,165.87,200810,,,A*49
$GPRMC,171558.000,A,3255.6469,N,11714.4178,W,57.19,164.57,200810,,,A*47
$GPRMC,171601.000,A,3255.6013,N,11714.4023,W,57.14,164.35,200810,,,A*47
$GPRMC,171604.000,A,3255.5557,N,11714.3869,W,57.08,163.99,200810,,,A*49
$GPRMC,171607.000,A,3255.5099,N,11714.3713,W,57.17,164.15,200810,,,A*42
$GPRMC,171610.000,A,3255.4642,N,11714.3560,W,57.15,164.45,200810,,,A*44
$GPRMC,171613.000,A,3255.4184,N,11714.3406,W,57.09,163.65,200810,,,A*43
$GPRMC,171616.000,A,3255.3729,N,11714.3231,W,57.13,160.35,200810,,,A*4F
$GPRMC,171619.000,A,3255.3285,N,11714.3019,W,57.01,156.94,200810,,,A*46
$GPRMC,171622.000,A,3255.2851,N,11714.2770,W,57.20,153.10,200810,,,A*4F
$GPRMC,171625.000,A,3255.2430,N,11714.2493,W,57.22,149.88,200810,,,A*45
$GPRMC,171628.000,A,3255.2027,N,11714.2190,W,57.16,146.87,200810,,,A*4B
$GPRMC,171631.000,A,3255.1638,N,11714.1863,W,57.25,143.63,200810,,,A*41
$GPRMC,171634.000,A,3255.1260,N,11714.1514,W,57.28,140.13,200810,,,A*49
$GPRMC,171637.000,A,3255.0903,N,11714.1136,W,57.28,136.86,200810,,,A*4C
$GPRMC,171640.000,A,3255.0567,N,11714.0733,W,57.23,133.76,200810,,,A*41
$GPRMC,171643.000,A,3255.0249,N,11714.0311,W,57.16,130.63,200810,,,A*4C
$GPRMC,171646.000,A,3254.9943,N,11713.9877,W,57.32,130.48,200810,,,A*4A
$GPRMC,171649.000,A,3254.9638,N,11713.9444,W,57.21,130.19,200810,,,A*4C
$GPRMC,171652.000,A,3254.9322,N,11713.9022,W,57.01,134.52,200810,,,A*45
$GPRMC,171655.000,A,3254.8973,N,11713.8644,W,57.02,139.89,200810,,,A*42
$GPRMC,171658.000,A,3254.8593,N,11713.8305,W,57.17,145.63,200810,,,A*46
$GPRMC,171701.000,A,3254.8187,N,11713.8013,W,57.18,151.25,200810,,,A*46
$GPRMC,171704.000,A,3254.7766,N,11713.7752,W,57.14,152.27,200810,,,A*45
$GPRMC,171707.000,A,3254.7345,N,11713.7491,W,57.29,152.17,200810,,,A*42
$GPRMC,171710.000,A,3254.6920,N,11713.7231,W,57.01,152.36,200810,,,A*49
$GPRMC,171713.000,A,3254.6490,N,11713.6966,W,57.56,151.76,200810,,,A*41
$GPRMC,171716.000,A,3254.6071,N,11713.6698,W,57.45,152.00,200810,,,A*41
$GPRMC,171719.000,A,3254.5651,N,11713.6432,W,57.06,151.61,200810,,,A*48
$GPRMC,171722.000,A,3254.5217,N,11713.6161,W,57.17,151.93,200810,,,A*48
$GPRMC,171725.000,A,3254.4785,N,11713.5895,W,57.55,152.23,200810,,,A*4F
$GPRMC,171728.000,A,3254.4354,N,11713.5634,W,57.00,152.98,200810,,,A*4F
$GPRMC,171731.000,A,3254.3922,N,11713.5383,W,57.28,154.01,200810,,,A*4E
$GPRMC,171734.000,A,3254.3497,N,11713.5133,W,57.02,153.08,200810,,,A*47
$GPRMC,171737.000,A,3254.3089,N,11713.4869,W,57.22,150.22,200810,,,A*41
$GPRMC,171740.000,A,3254.2696,N,11713.4569,W,57.40,146.00,200810,,,A*46
$GPRMC,171743.000,A,3254.2314,N,11713.4241,W,57.79,143.75,200810,,,A*4A
$GPRMC,171746.000,A,3254.1932,N,11713.3896,W,56.96,140.04,200810,,,A*40
$GPRMC,171749.000,A,3254.1573,N,11713.3525,W,57.20,139.91,200810,,,A*4D
$GPRMC,171752.000,A,3254.1198,N,11713.3160,W,57.06,140.35,200810,,,A*47
$GPRMC,171755.000,A,3254.0824,N,11713.2797,W,57.19,140.01,200810,,,A*49
$GPRMC,171758.000,A,3254.0452,N,11713.2435,W,57.12,140.34,200810,,,A*4F
$GPRMC,171801.000,A,3254.0083,N,11713.2074,W,57.14,140.81,200810,,,A*4D
$GPRMC,171804.000,A,3253.9709,N,11713.1719,W,57.11,141.13,200810,,,A*43
$GPRMC,171807.000,A,3253.9334,N,11713.1366,W,57.18,141.32,200810,,,A*4C
$GPRMC,171810.000,A,3253.8958,N,11713.1014,W,57.16,141.62,200810,,,A*46
$GPRMC,171813.000,A,3253.8580,N,11713.0666,W,57.08,142.21,200810,,,A*45
$GPRMC,171816.000,A,3253.8198,N,11713.0324,W,57.09,143.07,200810,,,A*4A
$GPRMC,171819.000,A,3253.7826,N,11712.9981,W,57.21,141.30,200810,,,A*47
$GPRMC,171822.000,A,3253.7471,N,11712.9611,W,57.10,137.92,200810,,,A*4C
$GPRMC,171825.000,A,3253.7135,N,11712.9217,W,57.20,134.88,200810,,,A*47
$GPRMC,171828.000,A,3253.6812,N,11712.8799,W,57.19,131.28,200810,,,A*40
$GPRMC,171831.000,A,3253.6513,N,11712.8360,W,57.18,128.23,200810,,,A*44
$GPRMC,171834.000,A,3253.6237,N,11712.7895,W,57.19,124.95,200810,,,A*4E
$GPRMC,171837.000,A,3253.5980,N,11712.7422,W,57.18,121.45,200810,,,A*40
$GPRMC,171840.000,A,3253.5745,N,11712.6930,W,57.20,118.34,200810,,,A*4F
$GPRMC,171843.000,A,3253.5532,N,11712.6423,W,57.08,115.29,200810,,,A*4A
$GPRMC,171846.000,A,3253.5334,N,11712.5905,W,57.13,114.60,200810,,,A*43
$GPRMC,171849.000,A,3253.5133,N,11712.5392,W,57.01,115.16,200810,,,A*4E
$GPRMC,171852.000,A,3253.4922,N,11712.4885,W,56.94,117.58,200810,,,A*44
$GPRMC,171855.000,A,3253.4684,N,11712.4400,W,56.88,122.65,200810,,,A*44
$GPRMC,171858.000,A,3253.4406,N,11712.3944,W,57.00,128.52,200810,,,A*44
$GPRMC,171901.000,A,3253.4093,N,11712.3520,W,57.00,133.51,200810,,,A*46
$GPRMC,171904.000,A,3253.3747,N,11712.3137,W,56.73,139.69,200810,,,A*4C
$GPRMC,171907.000,A,3253.3382,N,11712.2822,W,52.11,145.81,200810,,,A*43
$GPRMC,171910.000,A,3253.3029,N,11712.2559,W,48.21,147.75,200810,,,A*47
$GPRMC,171913.000,A,3253.2688,N,11712.2328,W,47.11,151.86,200810,,,A*4F
$GPRMC,171916.000,A,3253.2325,N,11712.2127,W,47.69,155.89,200810,,,A*41
$GPRMC,171919.000,A,3253.1954,N,11712.1953,W,47.36,159.34,200810,,,A*49
$GPRMC,171922.000,A,3253.1580,N,11712.1807,W,48.09,162.83,200810,,,A*43
$GPRMC,171925.000,A,3253.1188,N,11712.1687,W,49.16,165.73,200810,,,A*49
$GPRMC,171928.000,A,3253.0788,N,11712.1571,W,49.56,165.55,200810,,,A*49
$GPRMC,171931.000,A,3253.0384,N,11712.1456,W,50.09,165.79,200810,,,A*41
$GPRMC,171934.000,A,3252.9978,N,11712.1338,W,49.65,165.87,200810,,,A*49
$GPRMC,171937.000,A,3252.9574,N,11712.1219,W,49.91,165.45,200810,,,A*4D
$GPRMC,171940.000,A,3252.9166,N,11712.1099,W,50.49,165.48,200810,,,A*40
$GPRMC,171943.000,A,3252.8754,N,11712.0977,W,50.73,165.62,200810,,,A*4C
$GPRMC,171946.000,A,3252.8346,N,11712.0859,W,49.34,166.04,200810,,,A*4B
$GPRMC,171949.000,A,3252.7950,N,11712.0758,W,46.94,169.26,200810,,,A*42
$GPRMC,171952.000,A,3252.7575,N,11712.0688,W,44.67,171.28,200810,,,A*46
$GPRMC,171955.000,A,3252.7217,N,11712.0611,W,42.94,167.29,200810,,,A*4E
$GPRMC,171958.000,A,3252.6871,N,11712.0514,W,42.16,167.38,200810,,,A*44
$GPRMC,172001.000,A,3252.6536,N,11712.0437,W,41.60,170.96,200810,,,A*4C
$GPRMC,172004.000,A,3252.6199,N,11712.0387,W,40.39,176.33,200810,,,A*40
$GPRMC,172007.000,A,3252.5867,N,11712.0418,W,40.34,190.77,200810,,,A*4C
$GPRMC,172010.000,A,3252.5549,N,11712.0549,W,39.64,205.34,200810,,,A*4D
$GPRMC,172013.000,A,3252.5284,N,11712.0763,W,37.22,219.33,200810,,,A*44
$GPRMC,172016.000,A,3252.5089,N,11712.1027,W,35.14,233.68,200810,,,A*49
$GPRMC,172019.000,A,3252.4954,N,11712.1320,W,33.21,246.14,200810,,,A*43
$GPRMC,172022.000,A,3252.4869,N,11712.1649,W,36.73,256.41,200810,,,A*4D
$GPRMC,172025.000,A,3252.4814,N,11712.2016,W,38.72,259.60,200810,,,A*4C
$GPRMC,172028.000,A,3252.4757,N,11712.2401,W,38.96,259.96,200810,,,A*48
$GPRMC,172031.000,A,3252.4703,N,11712.2798,W,39.97,258.39,200810,,,A*46
$GPRMC,172034.000,A,3252.4646,N,11712.3180,W,37.79,259.06,200810,,,A*4E
$GPRMC,172037.000,A,3252.4599,N,11712.3534,W,33.95,260.60,200810,,,A*4B
$GPRMC,172040.000,A,3252.4562,N,11712.3837,W,28.36,260.74,200810,,,A*47
$GPRMC,172043.000,A,3252.4554,N,11712.4086,W,20.64,261.43,200810,,,A*4E
$GPRMC,172046.000,A,3252.4537,N,11712.4202,W,8.56,262.15,200810,,,A*7B
$GPRMC,172049.000,A,3252.4520,N,11712.4268,W,5.41,249.41,200810,,,A*7D
$GPRMC,172119.000,A,3252.4522,N,11712.4319,W,4.73,255.93,200810,,,A*7E
$GPRMC,172122.000,A,3252.4500,N,11712.4415,W,13.78,261.63,200810,,,A*48
$GPRMC,172125.000,A,3252.4479,N,11712.4575,W,17.52,263.39,200810,,,A*46
$GPRMC,172128.000,A,3252.4454,N,11712.4770,W,20.83,263.78,200810,,,A*4E
$GPRMC,172131.000,A,3252.4434,N,11712.4985,W,22.03,264.19,200810,,,A*4E
$GPRMC,172134.000,A,3252.4390,N,11712.5228,W,23.89,262.41,200810,,,A*47
$GPRMC,172137.000,A,3252.4353,N,11712.5473,W,26.16,257.33,200810,,,A*43
$GPRMC,172140.000,A,3252.4303,N,11712.5748,W,30.36,254.97,200810,,,A*45
$GPRMC,172143.000,A,3252.4232,N,11712.6047,W,31.57,250.92,200810,,,A*49
$GPRMC,172146.000,A,3252.4149,N,11712.6349,W,32.62,251.84,200810,,,A*4D
$GPRMC,172149.000,A,3252.4069,N,11712.6654,W,31.73,252.12,200810,,,A*47
$GPRMC,172152.000,A,3252.3982,N,11712.6948,W,31.07,252.30,200810,,,A*47
$GPRMC,172155.000,A,3252.3897,N,11712.7240,W,31.67,251.26,200810,,,A*45
$GPRMC,172158.000,A,3252.3812,N,11712.7539,W,30.82,251.72,200810,,,A*47
$GPRMC,172201.000,A,3252.3736,N,11712.7823,W,28.80,252.23,200810,,,A*4B
$GPRMC,172204.000,A,3252.3677,N,11712.8039,W,18.31,251.48,200810,,,A*41
$GPRMC,172207.000,A,3252.3650,N,11712.8137,W,5.04,249.69,200810,,,A*78
$GPRMC,172240.000,A,3252.3627,N,11712.8209,W,11.20,255.17,200810,,,A*42
$GPRMC,172243.000,A,3252.3590,N,11712.8365,W,19.85,255.11,200810,,,A*44
$GPRMC,172246.000,A,3252.3536,N,11712.8609,W,29.17,256.49,200810,,,A*44
$GPRMC,172249.000,A,3252.3464,N,11712.8933,W,35.15,255.61,200810,,,A*4D
$GPRMC,172252.000,A,3252.3384,N,11712.9281,W,34.93,255.57,200810,,,A*47
$GPRMC,172255.000,A,3252.3308,N,11712.9621,W,34.56,255.45,200810,,,A*40
$GPRMC,172258.000,A,3252.3234,N,11712.9956,W,33.98,255.02,200810,,,A*4A
$GPRMC,172301.000,A,3252.3159,N,11713.0281,W,33.08,254.67,200810,,,A*4D
$GPRMC,172304.000,A,3252.3079,N,11713.0589,W,32.22,249.95,200810,,,A*4C
$GPRMC,172307.000,A,3252.2975,N,11713.0886,W,34.59,242.94,200810,,,A*49
$GPRMC,172310.000,A,3252.2826,N,11713.1199,W,38.85,239.30,200810,,,A*41
$GPRMC,172313.000,A,3252.2653,N,11713.1541,W,41.14,239.28,200810,,,A*40
$GPRMC,172316.000,A,3252.2479,N,11713.1887,W,40.21,239.53,200810,,,A*43
$GPRMC,172319.000,A,3252.2327,N,11713.2236,W,39.41,247.32,200810,,,A*45
$GPRMC,172322.000,A,3252.2238,N,11713.2616,W,40.31,259.65,200810,,,A*40
$GPRMC,172325.000,A,3252.2216,N,11713.3014,W,40.12,271.38,200810,,,A*4D
$GPRMC,172328.000,A,3252.2265,N,11713.3413,W,40.48,284.06,200810,,,A*4F
$GPRMC,172331.000,A,3252.2389,N,11713.3788,W,40.38,295.30,200810,,,A*47
$GPRMC,172334.000,A,3252.2554,N,11713.4144,W,40.33,298.21,200810,,,A*43
$GPRMC,172337.000,A,3252.2721,N,11713.4494,W,40.28,298.72,200810,,,A*44
$GPRMC,172340.000,A,3252.2891,N,11713.4847,W,41.21,299.20,200810,,,A*4C
$GPRMC,172343.000,A,3252.3064,N,11713.5205,W,41.61,299.00,200810,,,A*47
$GPRMC,172346.000,A,3252.3227,N,11713.5554,W,37.79,297.41,200810,,,A*47
$GPRMC,172349.000,A,3252.3347,N,11713.5860,W,30.52,289.99,200810,,,A*41
$GPRMC,172352.000,A,3252.3417,N,11713.6127,W,27.51,282.79,200810,,,A*40
$GPRMC,172355.000,A,3252.3456,N,11713.6400,W,28.92,275.35,200810,,,A*42
$GPRMC,172358.000,A,3252.3461,N,11713.6689,W,29.06,267.02,200810,,,A*43
$GPRMC,172401.000,A,3252.3436,N,11713.6965,W,27.42,261.62,200810,,,A*49
$GPRMC,172404.000,A,3252.3388,N,11713.7232,W,28.24,256.53,200810,,,A*4F
$GPRMC,172407.000,A,3252.3333,N,11713.7498,W,26.54,256.42,200810,,,A*43
$GPRMC,172410.000,A,3252.3277,N,11713.7750,W,25.87,255.99,200810,,,A*4B
$GPRMC,172413.000,A,3252.3225,N,11713.7996,W,25.36,256.42,200810,,,A*44
$GPRMC,172416.000,A,3252.3171,N,11713.8246,W,26.37,256.42,200810,,,A*48
$GPRMC,172419.000,A,3252.3118,N,11713.8509,W,27.37,258.08,200810,,,A*45
$GPRMC,172422.000,A,3252.3076,N,11713.8775,W,27.48,262.19,200810,,,A*4C
$GPRMC,172425.000,A,3252.3053,N,11713.9045,W,27.30,266.33,200810,,,A*4A
$GPRMC,172428.000,A,3252.3047,N,11713.9311,W,26.16,269.45,200810,,,A*4B
$GPRMC,172431.000,A,3252.3051,N,11713.9558,W,23.14,270.03,200810,,,A*42
$GPRMC,172434.000,A,3252.3052,N,11713.9771,W,20.04,269.43,200810,,,A*43
$GPRMC,172437.000,A,3252.3053,N,11713.9946,W,14.56,270.33,200810,,,A*44
$GPRMC,172558.000,A,3252.3051,N,11714.0151,W,14.82,273.38,200810,,,A*4F
$GPRMC,172601.000,A,3252.3062,N,11714.0331,W,20.53,270.96,200810,,,A*48
$GPRMC,172604.000,A,3252.3076,N,11714.0564,W,25.92,273.28,200810,,,A*40
$GPRMC,172607.000,A,3252.3096,N,11714.0841,W,28.45,272.13,200810,,,A*49
$GPRMC,172610.000,A,3252.3105,N,11714.1132,W,29.63,273.41,200810,,,A*4B
$GPRMC,172613.000,A,3252.3114,N,11714.1441,W,31.50,271.95,200810,,,A*4B
$GPRMC,172616.000,A,3252.3123,N,11714.1754,W,31.69,272.71,200810,,,A*4E
$GPRMC,172619.000,A,3252.3130,N,11714.2072,W,31.62,270.65,200810,,,A*4F
$GPRMC,172622.000,A,3252.3122,N,11714.2396,W,33.03,267.24,200810,,,A*4B
$GPRMC,172625.000,A,3252.3094,N,11714.2722,W,31.53,261.52,200810,,,A*4B
$GPRMC,172628.000,A,3252.3031,N,11714.3032,W,31.99,251.16,200810,,,A*4B
$GPRMC,172631.000,A,3252.2921,N,11714.3325,W,33.02,242.79,200810,,,A*44
$GPRMC,172634.000,A,3252.2776,N,11714.3617,W,34.78,236.46,200810,,,A*4C
$GPRMC,172637.000,A,3252.2602,N,11714.3902,W,35.31,232.35,200810,,,A*4A
$GPRMC,172640.000,A,3252.2431,N,11714.4139,W,25.74,228.35,200810,,,A*44
$GPRMC,172643.000,A,3252.2337,N,11714.4266,W,11.06,229.33,200810,,,A*4A
$GPRMC,172707.000,A,3252.2249,N,11714.4392,W,14.13,237.27,200810,,,A*42
$GPRMC,172710.000,A,3252.2181,N,11714.4540,W,18.15,245.54,200810,,,A*41
$GPRMC,172713.000,A,3252.2120,N,11714.4709,W,18.31,249.56,200810,,,A*4E
$GPRMC,172716.000,A,3252.2086,N,11714.4881,W,16.37,264.37,200810,,,A*49
$GPRMC,172719.000,A,3252.2084,N,11714.5027,W,12.66,272.96,200810,,,A*4D
$GPRMC,172722.000,A,3252.2098,N,11714.5116,W,8.08,279.99,200810,,,A*7C
$GPRMC,172725.000,A,3252.2124,N,11714.5243,W,15.85,281.13,200810,,,A*42
$GPRMC,172728.000,A,3252.2116,N,11714.5396,W,15.82,242.38,200810,,,A*46
$GPRMC,172731.000,A,3252.1917,N,11714.5475,W,25.24,188.33,200810,,,A*4F
$GPRMC,172734.000,A,3252.1665,N,11714.5526,W,33.70,190.33,200810,,,A*48
$GPRMC,172737.000,A,3252.1372,N,11714.5588,W,35.46,190.42,200810,,,A*49
$GPRMC,172740.000,A,3252.1069,N,11714.5653,W,35.95,190.56,200810,,,A*4E
$GPRMC,172743.000,A,3252.0770,N,11714.5714,W,35.20,190.36,200810,,,A*49
$GPRMC,172746.000,A,3252.0480,N,11714.5779,W,34.05,191.17,200810,,,A*4F
$GPRMC,172749.000,A,3252.0193,N,11714.5846,W,35.23,191.23,200810,,,A*46
$GPRMC,172752.000,A,3251.9901,N,11714.5912,W,35.32,191.07,200810,,,A*43
$GPRMC,172755.000,A,3251.9617,N,11714.5981,W,34.24,190.60,200810,,,A*40
$GPRMC,172758.000,A,3251.9331,N,11714.6040,W,36.13,187.27,200810,,,A*48
$GPRMC,172801.000,A,3251.9011,N,11714.6066,W,40.80,180.84,200810,,,A*4B
$GPRMC,172804.000,A,3251.8663,N,11714.6048,W,41.55,174.83,200810,,,A*45
$GPRMC,172807.000,A,3251.8312,N,11714.5987,W,42.70,170.19,200810,,,A*4F
$GPRMC,172810.000,A,3251.7951,N,11714.5913,W,44.73,170.49,200810,,,A*46
$GPRMC,172813.000,A,3251.7592,N,11714.5834,W,42.17,169.04,200810,,,A*47
$GPRMC,172816.000,A,3251.7269,N,11714.5774,W,38.47,176.85,200810,,,A*45
$GPRMC,172819.000,A,3251.6946,N,11714.5831,W,38.85,197.66,200810,,,A*4F
$GPRMC,172822.000,A,3251.6649,N,11714.6069,W,41.53,217.07,200810,,,A*48
$GPRMC,172825.000,A,3251.6479,N,11714.6416,W,40.57,243.14,200810,,,A*44
$GPRMC,172828.000,A,3251.6411,N,11714.6814,W,41.85,262.71,200810,,,A*47
$GPRMC,172831.000,A,3251.6368,N,11714.7238,W,42.34,255.80,200810,,,A*40
$GPRMC,172834.000,A,3251.6228,N,11714.7608,W,39.61,233.57,200810,,,A*41
$GPRMC,172837.000,A,3251.5972,N,11714.7847,W,38.75,210.04,200810,,,A*43
$GPRMC,172840.000,A,3251.5646,N,11714.7940,W,38.81,187.60,200810,,,A*49
$GPRMC,172843.000,A,3251.5303,N,11714.7925,W,41.13,176.34,200810,,,A*47
$GPRMC,172846.000,A,3251.4960,N,11714.7847,W,42.19,166.56,200810,,,A*45
$GPRMC,172849.000,A,3251.4623,N,11714.7718,W,43.00,160.32,200810,,,A*4A
$GPRMC,172852.000,A,3251.4284,N,11714.7578,W,43.28,161.67,200810,,,A*46
$GPRMC,172855.000,A,3251.3936,N,11714.7459,W,43.66,166.96,200810,,,A*45
$GPRMC,172858.000,A,3251.3576,N,11714.7386,W,42.58,173.59,200810,,,A*4E
$GPRMC,172901.000,A,3251.3235,N,11714.7356,W,40.29,176.82,200810,,,A*49
$GPRMC,172904.000,A,3251.2892,N,11714.7332,W,41.43,177.20,200810,,,A*4C
$GPRMC,172907.000,A,3251.2561,N,11714.7311,W,37.27,177.06,200810,,,A*48
$GPRMC,172910.000,A,3251.2257,N,11714.7290,W,34.96,176.57,200810,,,A*48
$GPRMC,172913.000,A,3251.1981,N,11714.7270,W,31.62,176.68,200810,,,A*44
$GPRMC,172916.000,A,3251.1728,N,11714.7269,W,28.99,183.05,200810,,,A*49
$GPRMC,172919.000,A,3251.1503,N,11714.7338,W,28.55,201.17,200810,,,A*42
$GPRMC,172922.000,A,3251.1293,N,11714.7495,W,30.21,217.81,200810,,,A*46
$GPRMC,172925.000,A,3251.1117,N,11714.7725,W,30.96,235.73,200810,,,A*47
$GPRMC,172928.000,A,3251.1010,N,11714.8010,W,31.31,250.25,200810,,,A*4E
$GPRMC,172931.000,A,3251.0935,N,11714.8310,W,31.16,251.37,200810,,,A*4D
$GPRMC,172934.000,A,3251.0856,N,11714.8588,W,28.95,251.56,200810,,,A*4F
$GPRMC,172937.000,A,3251.0798,N,11714.8878,W,28.97,251.25,200810,,,A*45
$GPRMC,172940.000,A,3251.0738,N,11714.9157,W,27.97,251.30,200810,,,A*41
$GPRMC,172943.000,A,3251.0675,N,11714.9423,W,26.95,250.76,200810,,,A*4C
$GPRMC,172946.000,A,3251.0609,N,11714.9661,W,21.54,250.42,200810,,,A*4B
$GPRMC,172949.000,A,3251.0561,N,11714.9835,W,14.53,251.82,200810,,,A*4A
$GPRMC,172952.000,A,3251.0530,N,11714.9948,W,9.65,251.24,200810,,,A*7A
$GPRMC,172955.000,A,3251.0505,N,11715.0010,W,5.78,250.00,200810,,,A*70
$GPRMC,172958.000,A,3251.0487,N,11715.0056,W,5.56,251.11,200810,,,A*79
$GPRMC,173001.000,A,3251.0468,N,11715.0114,W,6.21,250.20,200810,,,A*7B
$GPRMC,173004.000,A,3251.0453,N,11715.0163,W,5.92,248.44,200810,,,A*76
$GPRMC,173007.000,A,3251.0433,N,11715.0235,W,9.73,251.31,200810,,,A*7A
$GPRMC,173010.000,A,3251.0400,N,11715.0360,W,15.35,252.38,200810,,,A*48
$GPRMC,173013.000,A,3251.0370,N,11715.0506,W,15.53,254.36,200810,,,A*45
$GPRMC,173016.000,A,3251.0340,N,11715.0658,W,16.00,258.76,200810,,,A*46
$GPRMC,173019.000,A,3251.0321,N,11715.0814,W,14.71,262.70,200810,,,A*43
$GPRMC,173022.000,A,3251.0311,N,11715.0964,W,15.35,267.75,200810,,,A*4F
$GPRMC,173025.000,A,3251.0310,N,11715.1113,W,14.62,271.36,200810,,,A*43
$GPRMC,173028.000,A,3251.0315,N,11715.1239,W,9.42,273.08,200810,,,A*71
$GPRMC,173222.000,A,3251.0314,N,11715.1324,W,8.27,278.50,200810,,,A*71
$GPRMC,173225.000,A,3251.0327,N,11715.1486,W,18.97,274.05,200810,,,A*4F
$GPRMC,173228.000,A,3251.0336,N,11715.1711,W,23.95,269.93,200810,,,A*46
$GPRMC,173231.000,A,3251.0336,N,11715.1946,W,23.20,270.73,200810,,,A*4A
$GPRMC,173234.000,A,3251.0344,N,11715.2161,W,20.15,272.70,200810,,,A*40
$GPRMC,173237.000,A,3251.0353,N,11715.2315,W,10.46,273.78,200810,,,A*48
$GPRMC,173307.000,A,3251.0336,N,11715.2378,W,6.64,272.64,200810,,,A*79
$GPRMC,173310.000,A,3251.0341,N,11715.2505,W,15.90,268.81,200810,,,A*4A
$GPRMC,173313.000,A,3251.0338,N,11715.2688,W,20.67,267.19,200810,,,A*41
$GPRMC,173316.000,A,3251.0313,N,11715.2911,W,24.16,258.72,200810,,,A*41
$GPRMC,173319.000,A,3251.0254,N,11715.3150,W,25.98,251.15,200810,,,A*4F
$GPRMC,173322.000,A,3251.0176,N,11715.3399,W,26.71,249.75,200810,,,A*48
$GPRMC,173325.000,A,3251.0098,N,11715.3649,W,27.22,249.37,200810,,,A*47
$GPRMC,173328.000,A,3251.0022,N,11715.3895,W,25.55,250.33,200810,,,A*4A
$GPRMC,173331.000,A,3250.9957,N,11715.4147,W,27.92,255.68,200810,,,A*42
$GPRMC,173334.000,A,3250.9923,N,11715.4443,W,32.16,266.60,200810,,,A*45
$GPRMC,173337.000,A,3250.9937,N,11715.4779,W,34.63,275.66,200810,,,A*49
$GPRMC,173340.000,A,3250.9956,N,11715.5126,W,34.15,269.49,200810,,,A*42
$GPRMC,173343.000,A,3250.9936,N,11715.5457,W,32.31,264.20,200810,,,A*46
$GPRMC,173346.000,A,3250.9911,N,11715.5771,W,32.51,265.00,200810,,,A*44
$GPRMC,173349.000,A,3250.9886,N,11715.6096,W,32.50,265.21,200810,,,A*4B
$GPRMC,173352.000,A,3250.9860,N,11715.6403,W,30.36,263.25,200810,,,A*41
$GPRMC,173355.000,A,3250.9813,N,11715.6691,W,28.97,254.64,200810,,,A*48
$GPRMC,173358.000,A,3250.9729,N,11715.6953,W,28.16,245.25,200810,,,A*4E
$GPRMC,173401.000,A,3250.9603,N,11715.7209,W,31.30,235.26,200810,,,A*41
$GPRMC,173404.000,A,3250.9448,N,11715.7468,W,32.48,235.88,200810,,,A*40
$GPRMC,173407.000,A,3250.9301,N,11715.7754,W,34.27,241.98,200810,,,A*48
$GPRMC,173410.000,A,3250.9189,N,11715.8065,W,34.10,249.54,200810,,,A*4A
$GPRMC,173413.000,A,3250.9085,N,11715.8398,W,36.86,248.84,200810,,,A*44
$GPRMC,173416.000,A,3250.8973,N,11715.8742,W,37.34,248.77,200810,,,A*47
$GPRMC,173419.000,A,3250.8872,N,11715.9083,W,34.90,253.54,200810,,,A*45
$GPRMC,173422.000,A,3250.8816,N,11715.9408,W,32.08,258.81,200810,,,A*4C
$GPRMC,173425.000,A,3250.8759,N,11715.9723,W,32.47,254.22,200810,,,A*4B
$GPRMC,173428.000,A,3250.8666,N,11716.0012,W,29.72,242.59,200810,,,A*43
$GPRMC,173431.000,A,3250.8547,N,11716.0218,W,20.96,229.19,200810,,,A*49
$GPRMC,173434.000,A,3250.8454,N,11716.0322,W,12.20,218.42,200810,,,A*47
$GPRMC,173437.000,A,3250.8399,N,11716.0373,W,6.09,222.27,200810,,,A*72
$GPRMC,173607.000,A,3250.8305,N,11716.0415,W,5.04,213.93,200810,,,A*72
$GPRMC,173610.000,A,3250.8240,N,11716.0409,W,12.00,145.82,200810,,,A*4B
$GPRMC,173613.000,A,3250.8162,N,11716.0305,W,16.51,130.79,200810,,,A*46
$GPRMC,173616.000,A,3250.8065,N,11716.0170,W,18.84,132.00,200810,,,A*4F
$GPRMC,173619.000,A,3250.7970,N,11716.0044,W,14.32,132.23,200810,,,A*44
$GPRMC,173622.000,A,3250.7914,N,11715.9973,W,6.69,144.05,200810,,,A*71
$GPRMC,173625.000,A,3250.7853,N,11715.9965,W,10.46,200.24,200810,,,A*49
$GPRMC,173628.000,A,3250.7748,N,11716.0059,W,18.17,223.30,200810,,,A*45
$GPRMC,173631.000,A,3250.7627,N,11716.0189,W,19.38,221.81,200810,,,A*4D
$GPRMC,173634.000,A,3250.7508,N,11716.0315,W,18.17,222.37,200810,,,A*43
$GPRMC,173637.000,A,3250.7394,N,11716.0433,W,16.54,223.73,200810,,,A*48
$GPRMC,173640.000,A,3250.7302,N,11716.0534,W,12.91,222.20,200810,,,A*4B
$GPRMC,173643.000,A,3250.7232,N,11716.0607,W,8.28,219.96,200810,,,A*75
$GPRMC,173649.000,A,3250.7181,N,11716.0641,W,8.48,191.01,200810,,,A*7D
$GPRMC,173652.000,A,3250.7083,N,11716.0567,W,17.21,133.29,200810,,,A*40
$GPRMC,173655.000,A,3250.6977,N,11716.0422,W,19.59,132.06,200810,,,A*49
$GPRMC,173658.000,A,3250.6877,N,11716.0262,W,20.13,120.55,200810,,,A*46
