NMEA Sentence Code,UTC Time,Status,Latitude,Latitude Direction,Longitude,Longitude Direction,Speed (knots),Track Angle (degrees true),Date,MagneticVariation,Magnetic Variation Direction,[FAA Mode]-Optional,Checksum
$GPRMC,001132.53,A,3311.8870,N,11717.6016,W,4.736,285.253,281110,0,W,A*2D
$GPRMC,001405.53,A,3311.8890,N,11717.6174,W,6.931,274.081,281110,0,W,A*2F
$GPRMC,001408.53,A,3311.8894,N,11717.6255,W,11.137,267.842,281110,0,W,A*1B
$GPRMC,001411.53,A,3311.8887,N,11717.6384,W,11.421,268.131,281110,0,W,A*1C
$GPRMC,001414.53,A,3311.8892,N,11717.6504,W,12.338,270.523,281110,0,W,A*11
$GPRMC,001417.53,A,3311.8895,N,11717.6668,W,19.352,268.934,281110,0,W,A*18
$GPRMC,001420.53,A,3311.8894,N,11717.6854,W,13.619,269.798,281110,0,W,A*15
$GPRMC,001423.53,A,3311.8894,N,11717.6949,W,9.417,268.561,281110,0,W,A*29
$GPRMC,001426.53,A,3311.8892,N,11717.7115,W,22.256,268.083,281110,0,W,A*19
$GPRMC,001429.53,A,3311.8894,N,11717.7317,W,16.491,270.081,281110,0,W,A*11
$GPRMC,001432.53,A,3311.8859,N,11717.7446,W,11.664,226.627,281110,0,W,A*1F
$GPRMC,001435.53,A,3311.8742,N,11717.7470,W,17.513,180.412,281110,0,W,A*16
$GPRMC,001438.53,A,3311.8581,N,11717.7458,W,16.707,180.269,281110,0,W,A*10
$GPRMC,001441.53,A,3311.8435,N,11717.7487,W,17.162,202.638,281110,0,W,A*1F
$GPRMC,001444.53,A,3311.8330,N,11717.7582,W,12.475,229.342,281110,0,W,A*1B
$GPRMC,001447.53,A,3311.8289,N,11717.7650,W,9.463,232.350,281110,0,W,A*23
$GPRMC,001450.53,A,3311.8205,N,11717.7763,W,16.404,222.625,281110,0,W,A*19
$GPRMC,001453.53,A,3311.8087,N,11717.7841,W,17.977,200.959,281110,0,W,A*11
$GPRMC,001456.53,A,3311.7918,N,11717.7867,W,21.289,183.214,281110,0,W,A*15
$GPRMC,001459.53,A,3311.7774,N,11717.7869,W,12.780,181.903,281110,0,W,A*13
$GPRMC,001502.53,A,3311.7706,N,11717.7876,W,5.509,181.359,281110,0,W,A*27
$GPRMC,001505.53,A,3311.7654,N,11717.7830,W,10.657,122.760,281110,0,W,A*1F
$GPRMC,001508.53,A,3311.7631,N,11717.7660,W,22.838,94.942,281110,0,W,A*2E
$GPRMC,001511.53,A,3311.7610,N,11717.7392,W,27.762,94.001,281110,0,W,A*26
$GPRMC,001514.53,A,3311.7588,N,11717.7102,W,29.829,96.542,281110,0,W,A*24
$GPRMC,001517.53,A,3311.7535,N,11717.6784,W,31.849,107.109,281110,0,W,A*15
$GPRMC,001520.53,A,3311.7435,N,11717.6474,W,32.410,113.763,281110,0,W,A*10
$GPRMC,001523.53,A,3311.7319,N,11717.6200,W,27.007,122.152,281110,0,W,A*1F
$GPRMC,001526.53,A,3311.7213,N,11717.6028,W,13.401,132.897,281110,0,W,A*1D
$GPRMC,001544.53,A,3311.7102,N,11717.6003,W,14.403,200.483,281110,0,W,A*1D
$GPRMC,001547.53,A,3311.6930,N,11717.6092,W,29.357,202.253,281110,0,W,A*1F
$GPRMC,001550.53,A,3311.6647,N,11717.6195,W,38.676,193.857,281110,0,W,A*13
$GPRMC,001553.53,A,3311.6314,N,11717.6279,W,41.496,191.825,281110,0,W,A*17
$GPRMC,001556.53,A,3311.5971,N,11717.6385,W,41.565,198.029,281110,0,W,A*1A
$GPRMC,001559.53,A,3311.5647,N,11717.6561,W,42.145,209.628,281110,0,W,A*1A
$GPRMC,001602.53,A,3311.5339,N,11717.6796,W,42.800,208.434,281110,0,W,A*17
$GPRMC,001605.53,A,3311.4994,N,11717.6969,W,43.831,196.479,281110,0,W,A*1C
$GPRMC,001608.53,A,3311.4624,N,11717.7073,W,46.225,191.023,281110,0,W,A*10
$GPRMC,001611.53,A,3311.4236,N,11717.7162,W,46.617,191.193,281110,0,W,A*11
$GPRMC,001614.53,A,3311.3849,N,11717.7249,W,46.140,191.848,281110,0,W,A*11
$GPRMC,001617.53,A,3311.3473,N,11717.7340,W,45.168,191.945,281110,0,W,A*1A
$GPRMC,001620.53,A,3311.3111,N,11717.7425,W,42.766,191.534,281110,0,W,A*1E
$GPRMC,001623.53,A,3311.2773,N,11717.7502,W,38.968,191.164,281110,0,W,A*16
$GPRMC,001626.53,A,3311.2477,N,11717.7572,W,33.371,191.526,281110,0,W,A*18
$GPRMC,001629.53,A,3311.2247,N,11717.7635,W,23.393,195.983,281110,0,W,A*18
$GPRMC,001632.53,A,3311.2103,N,11717.7685,W,14.530,196.909,281110,0,W,A*10
$GPRMC,001635.53,A,3311.2012,N,11717.7721,W,8.728,199.134,281110,0,W,A*26
$GPRMC,001644.53,A,3311.1939,N,11717.7754,W,6.847,201.033,281110,0,W,A*2D
$GPRMC,001647.53,A,3311.1871,N,11717.7790,W,12.472,202.563,281110,0,W,A*17
$GPRMC,001650.53,A,3311.1733,N,11717.7874,W,23.124,202.984,281110,0,W,A*1C
$GPRMC,001653.53,A,3311.1527,N,11717.7963,W,28.365,195.520,281110,0,W,A*1C
$GPRMC,001656.53,A,3311.1287,N,11717.8010,W,29.422,185.030,281110,0,W,A*16
$GPRMC,001659.53,A,3311.1032,N,11717.8012,W,31.459,178.367,281110,0,W,A*11
$GPRMC,001702.53,A,3311.0758,N,11717.8002,W,34.232,178.163,281110,0,W,A*1D
$GPRMC,001705.53,A,3311.0483,N,11717.7981,W,31.143,177.877,281110,0,W,A*11
$GPRMC,001708.53,A,3311.0270,N,11717.7968,W,20.312,178.197,281110,0,W,A*1F
$GPRMC,001711.53,A,3311.0170,N,11717.8052,W,16.734,249.040,281110,0,W,A*14
$GPRMC,001714.53,A,3311.0122,N,11717.8295,W,29.978,258.121,281110,0,W,A*13
$GPRMC,001717.53,A,3311.0050,N,11717.8650,W,39.761,254.812,281110,0,W,A*1B
$GPRMC,001720.53,A,3310.9946,N,11717.9065,W,44.747,252.202,281110,0,W,A*1B
$GPRMC,001723.53,A,3310.9809,N,11717.9515,W,45.988,247.051,281110,0,W,A*1C
$GPRMC,001726.53,A,3310.9659,N,11717.9934,W,43.442,245.690,281110,0,W,A*19
$GPRMC,001729.53,A,3310.9502,N,11718.0362,W,49.207,246.449,281110,0,W,A*1C
$GPRMC,001732.53,A,3310.9327,N,11718.0851,W,55.110,247.302,281110,0,W,A*1D
$GPRMC,001735.53,A,3310.9140,N,11718.1380,W,58.947,247.883,281110,0,W,A*1A
$GPRMC,001738.53,A,3310.8950,N,11718.1942,W,61.775,248.601,281110,0,W,A*15
$GPRMC,001741.53,A,3310.8761,N,11718.2523,W,63.153,248.538,281110,0,W,A*16
$GPRMC,001744.53,A,3310.8569,N,11718.3133,W,64.358,249.291,281110,0,W,A*16
$GPRMC,001747.53,A,3310.8378,N,11718.3719,W,59.921,248.876,281110,0,W,A*15
$GPRMC,001750.53,A,3310.8205,N,11718.4262,W,56.931,249.066,281110,0,W,A*10
$GPRMC,001753.53,A,3310.8064,N,11718.4783,W,54.458,253.741,281110,0,W,A*15
$GPRMC,001756.53,A,3310.7968,N,11718.5304,W,54.021,258.424,281110,0,W,A*11
$GPRMC,001759.53,A,3310.7909,N,11718.5863,W,59.098,266.531,281110,0,W,A*14
$GPRMC,001802.53,A,3310.7916,N,11718.6460,W,61.458,273.765,281110,0,W,A*13
$GPRMC,001805.53,A,3310.7990,N,11718.7043,W,61.507,278.956,281110,0,W,A*10
$GPRMC,001808.53,A,3310.8075,N,11718.7655,W,62.723,278.115,281110,0,W,A*19
$GPRMC,001811.53,A,3310.8156,N,11718.8266,W,62.117,278.127,281110,0,W,A*1A
$GPRMC,001814.53,A,3310.8235,N,11718.8879,W,60.989,278.598,281110,0,W,A*10
$GPRMC,001817.53,A,3310.8319,N,11718.9497,W,64.149,280.834,281110,0,W,A*1D
$GPRMC,001820.53,A,3310.8440,N,11719.0132,W,64.753,284.325,281110,0,W,A*12
$GPRMC,001823.53,A,3310.8596,N,11719.0741,W,62.488,288.136,281110,0,W,A*16
$GPRMC,001826.53,A,3310.8770,N,11719.1310,W,59.672,289.523,281110,0,W,A*16
$GPRMC,001829.53,A,3310.8946,N,11719.1852,W,59.024,290.116,281110,0,W,A*10
$GPRMC,001832.53,A,3310.9117,N,11719.2396,W,58.837,289.633,281110,0,W,A*14
$GPRMC,001835.53,A,3310.9281,N,11719.2945,W,58.879,287.769,281110,0,W,A*11
$GPRMC,001838.53,A,3310.9400,N,11719.3515,W,58.873,279.976,281110,0,W,A*10
$GPRMC,001841.53,A,3310.9441,N,11719.4092,W,58.127,271.262,281110,0,W,A*18
$GPRMC,001844.53,A,3310.9416,N,11719.4664,W,57.551,263.312,281110,0,W,A*1F
$GPRMC,001847.53,A,3310.9321,N,11719.5228,W,58.003,255.537,281110,0,W,A*1B
$GPRMC,001850.53,A,3310.9184,N,11719.5784,W,58.794,254.548,281110,0,W,A*13
$GPRMC,001853.53,A,3310.9043,N,11719.6346,W,60.109,254.593,281110,0,W,A*1C
$GPRMC,001856.53,A,3310.8906,N,11719.6908,W,58.695,256.170,281110,0,W,A*12
$GPRMC,001859.53,A,3310.8819,N,11719.7492,W,58.574,261.930,281110,0,W,A*19
$GPRMC,001902.53,A,3310.8774,N,11719.8068,W,58.004,267.928,281110,0,W,A*11
$GPRMC,001905.53,A,3310.8766,N,11719.8642,W,58.721,269.543,281110,0,W,A*14
$GPRMC,001908.53,A,3310.8761,N,11719.9229,W,59.610,269.574,281110,0,W,A*10
$GPRMC,001911.53,A,3310.8761,N,11719.9821,W,59.820,269.929,281110,0,W,A*13
$GPRMC,001914.53,A,3310.8761,N,11720.0407,W,58.129,269.895,281110,0,W,A*1A
$GPRMC,001917.53,A,3310.8769,N,11720.0977,W,57.787,271.296,281110,0,W,A*16
$GPRMC,001920.53,A,3310.8775,N,11720.1545,W,55.672,270.370,281110,0,W,A*12
$GPRMC,001923.53,A,3310.8775,N,11720.2080,W,52.655,270.081,281110,0,W,A*11
$GPRMC,001926.53,A,3310.8772,N,11720.2599,W,52.232,269.807,281110,0,W,A*15
$GPRMC,001929.53,A,3310.8769,N,11720.3115,W,51.738,269.245,281110,0,W,A*11
$GPRMC,001932.53,A,3310.8769,N,11720.3627,W,51.707,270.200,281110,0,W,A*18
$GPRMC,001935.53,A,3310.8767,N,11720.4141,W,50.764,270.549,281110,0,W,A*1F
$GPRMC,001938.53,A,3310.8771,N,11720.4645,W,50.429,270.659,281110,0,W,A*1E
$GPRMC,001941.53,A,3310.8775,N,11720.5142,W,50.264,267.721,281110,0,W,A*12
$GPRMC,001944.53,A,3310.8740,N,11720.5624,W,47.882,263.451,281110,0,W,A*12
$GPRMC,001947.53,A,3310.8682,N,11720.6070,W,43.214,258.624,281110,0,W,A*13
$GPRMC,001950.53,A,3310.8599,N,11720.6460,W,40.079,254.065,281110,0,W,A*1C
$GPRMC,001953.53,A,3310.8500,N,11720.6838,W,38.672,251.636,281110,0,W,A*19
$GPRMC,001956.53,A,3310.8379,N,11720.7193,W,38.165,246.437,281110,0,W,A*19
$GPRMC,001959.53,A,3310.8223,N,11720.7533,W,38.851,243.070,281110,0,W,A*1A
$GPRMC,002002.53,A,3310.8062,N,11720.7883,W,41.307,239.594,281110,0,W,A*1B
$GPRMC,002005.53,A,3310.7865,N,11720.8239,W,44.196,235.794,281110,0,W,A*19
$GPRMC,002008.53,A,3310.7638,N,11720.8586,W,44.617,234.367,281110,0,W,A*16
$GPRMC,002011.53,A,3310.7421,N,11720.8955,W,44.753,238.362,281110,0,W,A*1E
$GPRMC,002014.53,A,3310.7228,N,11720.9340,W,43.422,240.295,281110,0,W,A*1F
$GPRMC,002017.53,A,3310.7053,N,11720.9710,W,39.616,242.980,281110,0,W,A*16
$GPRMC,002020.53,A,3310.6944,N,11721.0034,W,33.226,254.616,281110,0,W,A*1F
$GPRMC,002023.53,A,3310.6909,N,11721.0372,W,36.352,268.159,281110,0,W,A*10
$GPRMC,002026.53,A,3310.6938,N,11721.0750,W,39.759,280.370,281110,0,W,A*1C
$GPRMC,002029.53,A,3310.7049,N,11721.1149,W,43.840,295.105,281110,0,W,A*1C
$GPRMC,002032.53,A,3310.7256,N,11721.1510,W,45.021,310.376,281110,0,W,A*11
$GPRMC,002035.53,A,3310.7550,N,11721.1801,W,48.098,324.396,281110,0,W,A*1C
$GPRMC,002038.53,A,3310.7899,N,11721.2072,W,51.488,325.121,281110,0,W,A*14
$GPRMC,002041.53,A,3310.8279,N,11721.2370,W,55.385,325.161,281110,0,W,A*1A
$GPRMC,002044.53,A,3310.8673,N,11721.2691,W,58.313,323.595,281110,0,W,A*10
$GPRMC,002047.53,A,3310.9085,N,11721.3034,W,60.571,324.501,281110,0,W,A*16
$GPRMC,002050.53,A,3310.9500,N,11721.3386,W,59.319,323.615,281110,0,W,A*11
$GPRMC,002053.53,A,3310.9908,N,11721.3724,W,58.868,324.686,281110,0,W,A*1B
$GPRMC,002056.53,A,3311.0320,N,11721.4062,W,59.596,325.188,281110,0,W,A*11
$GPRMC,002059.53,A,3311.0735,N,11721.4402,W,59.481,324.927,281110,0,W,A*17
$GPRMC,002102.53,A,3311.1149,N,11721.4740,W,58.879,325.012,281110,0,W,A*15
$GPRMC,002105.53,A,3311.1555,N,11721.5076,W,58.384,325.081,281110,0,W,A*1B
$GPRMC,002108.53,A,3311.1961,N,11721.5411,W,58.990,325.083,281110,0,W,A*15
$GPRMC,002111.53,A,3311.2370,N,11721.5745,W,59.436,325.231,281110,0,W,A*1D
$GPRMC,002114.53,A,3311.2790,N,11721.6080,W,61.423,327.545,281110,0,W,A*16
$GPRMC,002117.53,A,3311.3217,N,11721.6433,W,62.117,325.065,281110,0,W,A*16
$GPRMC,002120.53,A,3311.3639,N,11721.6790,W,60.593,325.092,281110,0,W,A*12
$GPRMC,002123.53,A,3311.4046,N,11721.7130,W,57.553,325.648,281110,0,W,A*1C
$GPRMC,002126.53,A,3311.4435,N,11721.7449,W,56.072,324.816,281110,0,W,A*11
$GPRMC,002129.53,A,3311.4816,N,11721.7763,W,55.859,324.899,281110,0,W,A*1D
$GPRMC,002132.53,A,3311.5202,N,11721.8079,W,56.874,325.150,281110,0,W,A*1B
$GPRMC,002135.53,A,3311.5598,N,11721.8402,W,57.836,324.975,281110,0,W,A*19
$GPRMC,002138.53,A,3311.5989,N,11721.8726,W,55.581,325.329,281110,0,W,A*1C
$GPRMC,002141.53,A,3311.6340,N,11721.9017,W,45.485,325.514,281110,0,W,A*16
$GPRMC,002144.53,A,3311.6609,N,11721.9236,W,36.643,324.541,281110,0,W,A*17
$GPRMC,002147.53,A,3311.6859,N,11721.9443,W,37.480,325.047,281110,0,W,A*15
$GPRMC,002150.53,A,3311.7137,N,11721.9671,W,44.088,324.396,281110,0,W,A*16
$GPRMC,002153.53,A,3311.7456,N,11721.9932,W,47.703,325.084,281110,0,W,A*19
$GPRMC,002156.53,A,3311.7791,N,11722.0203,W,48.598,325.253,281110,0,W,A*10
$GPRMC,002159.53,A,3311.8126,N,11722.0476,W,48.904,326.696,281110,0,W,A*19
$GPRMC,002202.53,A,3311.8483,N,11722.0735,W,49.442,329.863,281110,0,W,A*1F
$GPRMC,002205.53,A,3311.8827,N,11722.0993,W,44.964,326.367,281110,0,W,A*1C
$GPRMC,002208.53,A,3311.9106,N,11722.1224,W,40.622,320.603,281110,0,W,A*14
$GPRMC,002211.53,A,3311.9350,N,11722.1493,W,40.707,316.331,281110,0,W,A*10
$GPRMC,002214.53,A,3311.9594,N,11722.1791,W,42.328,312.424,281110,0,W,A*16
$GPRMC,002217.53,A,3311.9820,N,11722.2120,W,42.770,307.900,281110,0,W,A*1E
$GPRMC,002220.53,A,3312.0024,N,11722.2466,W,41.557,304.301,281110,0,W,A*17
$GPRMC,002223.53,A,3312.0191,N,11722.2809,W,36.912,300.003,281110,0,W,A*16
$GPRMC,002226.53,A,3312.0330,N,11722.3106,W,32.791,301.101,281110,0,W,A*1E
$GPRMC,002229.53,A,3312.0468,N,11722.3312,W,24.155,325.982,281110,0,W,A*10
$GPRMC,002232.53,A,3312.0657,N,11722.3352,W,23.597,13.161,281110,0,W,A*2E
$GPRMC,002235.53,A,3312.0808,N,11722.3209,W,23.124,59.434,281110,0,W,A*25
$GPRMC,002238.53,A,3312.0824,N,11722.2968,W,22.078,104.397,281110,0,W,A*15
$GPRMC,002241.53,A,3312.0666,N,11722.2788,W,24.379,154.082,281110,0,W,A*15
$GPRMC,002244.53,A,3312.0456,N,11722.2791,W,24.664,207.465,281110,0,W,A*18
$GPRMC,002247.53,A,3312.0302,N,11722.2983,W,27.630,236.566,281110,0,W,A*12
$GPRMC,002250.53,A,3312.0140,N,11722.3235,W,34.535,234.606,281110,0,W,A*14
$GPRMC,002253.53,A,3311.9965,N,11722.3521,W,33.752,236.389,281110,0,W,A*14
$GPRMC,002256.53,A,3311.9822,N,11722.3785,W,25.159,239.173,281110,0,W,A*1D
$GPRMC,002259.53,A,3311.9735,N,11722.3967,W,15.203,241.236,281110,0,W,A*1B
$GPRMC,002302.53,A,3311.9695,N,11722.4047,W,6.440,239.224,281110,0,W,A*2C
$GPRMC,002305.53,A,3311.9646,N,11722.4156,W,17.713,239.577,281110,0,W,A*10
$GPRMC,002308.53,A,3311.9548,N,11722.4358,W,26.283,238.558,281110,0,W,A*1E
$GPRMC,002311.53,A,3311.9416,N,11722.4612,W,30.312,236.795,281110,0,W,A*14
$GPRMC,002314.53,A,3311.9262,N,11722.4874,W,31.999,235.079,281110,0,W,A*14
$GPRMC,002317.53,A,3311.9116,N,11722.5110,W,25.515,234.334,281110,0,W,A*1B
$GPRMC,002320.53,A,3311.9022,N,11722.5255,W,13.132,235.231,281110,0,W,A*1A
$GPRMC,002323.53,A,3311.8982,N,11722.5333,W,6.552,234.489,281110,0,W,A*28
$GPRMC,002332.53,A,3311.8951,N,11722.5402,W,8.809,231.651,281110,0,W,A*2C
$GPRMC,002335.53,A,3311.8868,N,11722.5520,W,21.260,234.905,281110,0,W,A*14
$GPRMC,002338.53,A,3311.8756,N,11722.5702,W,23.063,230.097,281110,0,W,A*1C
$GPRMC,002341.53,A,3311.8662,N,11722.5845,W,11.837,231.154,281110,0,W,A*1F
$GPRMC,002353.53,A,3311.8626,N,11722.5898,W,7.828,211.254,281110,0,W,A*24
$GPRMC,002356.53,A,3311.8539,N,11722.5873,W,12.789,149.705,281110,0,W,A*16
$GPRMC,002359.53,A,3311.8444,N,11722.5760,W,16.719,145.267,281110,0,W,A*1F
$GPRMC,002402.53,A,3311.8318,N,11722.5635,W,20.143,145.819,281110,0,W,A*16
$GPRMC,002405.53,A,3311.8202,N,11722.5535,W,11.918,143.867,281110,0,W,A*13
$GPRMC,002411.53,A,3311.8138,N,11722.5475,W,6.797,145.500,281110,0,W,A*2C
$GPRMC,002414.53,A,3311.8078,N,11722.5412,W,11.493,143.394,281110,0,W,A*11
$GPRMC,002417.53,A,3311.7991,N,11722.5332,W,13.446,145.008,281110,0,W,A*1C
$GPRMC,002420.53,A,3311.7902,N,11722.5242,W,15.882,144.035,281110,0,W,A*19
$GPRMC,002423.53,A,3311.7796,N,11722.5147,W,14.560,144.353,281110,0,W,A*1C
$GPRMC,002426.53,A,3311.7706,N,11722.5064,W,13.592,143.961,281110,0,W,A*16
$GPRMC,002429.53,A,3311.7609,N,11722.4983,W,13.362,143.249,281110,0,W,A*1E
$GPRMC,002432.53,A,3311.7525,N,11722.4908,W,12.070,145.455,281110,0,W,A*16
$GPRMC,002435.53,A,3311.7446,N,11722.4840,W,11.688,143.753,281110,0,W,A*19
$GPRMC,002438.53,A,3311.7372,N,11722.4779,W,10.377,145.720,281110,0,W,A*17
$GPRMC,002441.53,A,3311.7304,N,11722.4726,W,10.058,143.503,281110,0,W,A*19
$GPRMC,002444.53,A,3311.7214,N,11722.4649,W,16.678,145.070,281110,0,W,A*11
$GPRMC,002447.53,A,3311.7088,N,11722.4543,W,19.223,144.982,281110,0,W,A*1C
