NMEA Sentence Code,UTC Time,Status,Latitude,Latitude Direction,Longitude,Longitude Direction,Speed (knots),Track Angle (degrees true),Date,MagneticVariation,Magnetic Variation Direction,[FAA Mode]-Optional,Checksum
$GPRMC,174815.2,A,3240.954036,N,11710.691044,W,12.0,329.8,020110,,,A*41
$GPRMC,174818.2,A,3240.967494,N,11710.702930,W,17.0,327.9,020110,,,A*4B
$GPRMC,174821.2,A,3240.982613,N,11710.711833,W,18.3,335.9,020110,,,A*48
$GPRMC,174824.2,A,3240.997276,N,11710.720449,W,17.6,341.9,020110,,,A*44
$GPRMC,174827.2,A,3241.009772,N,11710.723324,W,16.1,354.7,020110,,,A*4A
$GPRMC,174830.2,A,3241.024751,N,11710.725704,W,17.1,353.2,020110,,,A*41
$GPRMC,174833.2,A,3241.039097,N,11710.730114,W,18.7,345.9,020110,,,A*45
$GPRMC,174836.2,A,3241.053464,N,11710.735722,W,18.2,338.3,020110,,,A*47
$GPRMC,174839.2,A,3241.066499,N,11710.745685,W,17.1,327.3,020110,,,A*45
$GPRMC,174842.2,A,3241.078782,N,11710.757502,W,20.1,320.0,020110,,,A*40
$GPRMC,174845.2,A,3241.091582,N,11710.771382,W,19.8,319.3,020110,,,A*42
$GPRMC,174848.2,A,3241.103751,N,11710.784217,W,18.1,319.6,020110,,,A*43
$GPRMC,174851.2,A,3241.117170,N,11710.787111,W,14.9,339.1,020110,,,A*4C
$GPRMC,174854.2,A,3241.125817,N,11710.789909,W,10.6,346.7,020110,,,A*4A
$GPRMC,174857.2,A,3241.133423,N,11710.789019,W,10.0,357.9,020110,,,A*45
$GPRMC,174900.2,A,3241.139329,N,11710.787855,W,7.9,9.2,020110,,,A*73
$GPRMC,174951.2,A,3241.164734,N,11710.771830,W,9.0,38.4,020110,,,A*4E
$GPRMC,174954.2,A,3241.185766,N,11710.760615,W,16.8,33.0,020110,,,A*73
$GPRMC,174957.2,A,3241.204729,N,11710.751057,W,20.6,27.8,020110,,,A*75
$GPRMC,175000.2,A,3241.232417,N,11710.745005,W,24.5,23.5,020110,,,A*78
$GPRMC,175003.2,A,3241.255456,N,11710.731481,W,24.9,25.7,020110,,,A*7C
$GPRMC,175006.2,A,3241.274363,N,11710.718034,W,24.5,26.7,020110,,,A*75
$GPRMC,175009.2,A,3241.294855,N,11710.708111,W,24.9,25.5,020110,,,A*70
$GPRMC,175012.2,A,3241.313410,N,11710.697293,W,24.3,26.4,020110,,,A*7F
$GPRMC,175015.2,A,3241.332481,N,11710.687169,W,24.9,25.6,020110,,,A*7F
$GPRMC,175018.2,A,3241.353289,N,11710.675884,W,25.1,26.0,020110,,,A*70
$GPRMC,175021.2,A,3241.370234,N,11710.663141,W,24.4,27.8,020110,,,A*77
$GPRMC,175024.2,A,3241.389714,N,11710.650638,W,24.7,26.7,020110,,,A*77
$GPRMC,175027.2,A,3241.406806,N,11710.640301,W,22.7,29.4,020110,,,A*7C
$GPRMC,175030.2,A,3241.423390,N,11710.630013,W,22.5,27.9,020110,,,A*7F
$GPRMC,175033.2,A,3241.438877,N,11710.620834,W,21.5,27.7,020110,,,A*75
$GPRMC,175036.2,A,3241.452885,N,11710.610403,W,19.9,27.8,020110,,,A*72
$GPRMC,175039.2,A,3241.467755,N,11710.599321,W,20.3,31.7,020110,,,A*74
$GPRMC,175042.2,A,3241.481789,N,11710.586981,W,20.8,34.4,020110,,,A*72
$GPRMC,175045.2,A,3241.497319,N,11710.574959,W,21.4,33.8,020110,,,A*71
$GPRMC,175048.2,A,3241.513443,N,11710.562763,W,22.6,33.8,020110,,,A*78
$GPRMC,175051.2,A,3241.538689,N,11710.557691,W,24.4,26.9,020110,,,A*76
$GPRMC,175054.2,A,3241.559070,N,11710.548124,W,24.5,27.9,020110,,,A*73
$GPRMC,175057.2,A,3241.578085,N,11710.539801,W,23.2,28.5,020110,,,A*72
$GPRMC,175100.2,A,3241.595302,N,11710.529127,W,22.0,27.2,020110,,,A*79
$GPRMC,175103.2,A,3241.610735,N,11710.519749,W,20.1,26.5,020110,,,A*7C
$GPRMC,175106.2,A,3241.625516,N,11710.509928,W,18.9,28.4,020110,,,A*78
$GPRMC,175109.2,A,3241.637250,N,11710.501037,W,15.0,28.0,020110,,,A*7E
$GPRMC,175112.2,A,3241.644751,N,11710.496913,W,10.5,21.7,020110,,,A*7A
$GPRMC,175115.2,A,3241.651660,N,11710.493343,W,8.6,24.2,020110,,,A*4A
$GPRMC,175133.2,A,3241.658194,N,11710.485488,W,4.9,37.4,020110,,,A*4B
$GPRMC,175136.2,A,3241.659291,N,11710.480727,W,5.0,62.6,020110,,,A*40
$GPRMC,175139.2,A,3241.658361,N,11710.471081,W,9.3,98.3,020110,,,A*4A
$GPRMC,175142.2,A,3241.650453,N,11710.449136,W,20.0,107.2,020110,,,A*40
$GPRMC,175145.2,A,3241.641489,N,11710.424619,W,25.6,112.5,020110,,,A*41
$GPRMC,175148.2,A,3241.632645,N,11710.400708,W,27.3,113.3,020110,,,A*4D
$GPRMC,175151.2,A,3241.620238,N,11710.373981,W,28.5,115.4,020110,,,A*4C
$GPRMC,175154.2,A,3241.610990,N,11710.349319,W,27.8,115.2,020110,,,A*45
$GPRMC,175157.2,A,3241.598172,N,11710.320132,W,30.4,114.8,020110,,,A*44
$GPRMC,175200.2,A,3241.584058,N,11710.288547,W,32.5,116.8,020110,,,A*45
$GPRMC,175203.2,A,3241.574494,N,11710.260152,W,31.8,115.3,020110,,,A*4D
$GPRMC,175206.2,A,3241.563040,N,11710.232363,W,31.7,117.0,020110,,,A*4A
$GPRMC,175209.2,A,3241.549844,N,11710.206394,W,30.6,116.5,020110,,,A*4A
$GPRMC,175212.2,A,3241.537755,N,11710.179688,W,30.6,118.0,020110,,,A*4E
$GPRMC,175215.2,A,3241.525249,N,11710.149282,W,32.9,116.4,020110,,,A*48
$GPRMC,175218.2,A,3241.512627,N,11710.124555,W,29.5,120.7,020110,,,A*4B
$GPRMC,175221.2,A,3241.499343,N,11710.103865,W,26.6,128.1,020110,,,A*4D
$GPRMC,175224.2,A,3241.474664,N,11710.083192,W,31.1,137.7,020110,,,A*4A
$GPRMC,175227.2,A,3241.457132,N,11710.062789,W,30.9,134.8,020110,,,A*4A
$GPRMC,175230.2,A,3241.437824,N,11710.038443,W,32.9,132.3,020110,,,A*41
$GPRMC,175233.2,A,3241.421186,N,11710.012996,W,32.5,127.8,020110,,,A*4A
$GPRMC,175236.2,A,3241.402050,N,11709.984351,W,35.7,127.2,020110,,,A*44
$GPRMC,175239.2,A,3241.382741,N,11709.953391,W,38.6,124.4,020110,,,A*4C
$GPRMC,175242.2,A,3241.363208,N,11709.919009,W,41.6,123.4,020110,,,A*42
$GPRMC,175245.2,A,3241.342362,N,11709.883216,W,43.9,123.6,020110,,,A*4A
$GPRMC,175248.2,A,3241.322493,N,11709.848127,W,43.8,124.6,020110,,,A*48
$GPRMC,175251.2,A,3241.300174,N,11709.812781,W,43.6,125.8,020110,,,A*48
$GPRMC,175254.2,A,3241.275572,N,11709.781401,W,42.9,128.9,020110,,,A*40
$GPRMC,175257.2,A,3241.251434,N,11709.749749,W,42.7,129.1,020110,,,A*4A
$GPRMC,175300.2,A,3241.231495,N,11709.712191,W,44.0,120.7,020110,,,A*47
$GPRMC,175303.2,A,3241.213695,N,11709.670973,W,45.2,113.9,020110,,,A*4A
$GPRMC,175306.2,A,3241.199919,N,11709.630150,W,44.0,108.6,020110,,,A*4E
$GPRMC,175309.2,A,3241.193300,N,11709.587962,W,44.5,100.9,020110,,,A*4D
$GPRMC,175312.2,A,3241.191147,N,11709.546287,W,43.6,94.2,020110,,,A*7A
$GPRMC,175315.2,A,3241.194231,N,11709.506081,W,42.9,87.4,020110,,,A*70
$GPRMC,175318.2,A,3241.198757,N,11709.464998,W,42.3,81.7,020110,,,A*7F
$GPRMC,175321.2,A,3241.208843,N,11709.427059,W,41.6,75.2,020110,,,A*7E
$GPRMC,175324.2,A,3241.223638,N,11709.390441,W,41.8,68.1,020110,,,A*77
$GPRMC,175327.2,A,3241.241323,N,11709.352916,W,43.4,61.4,020110,,,A*7C
$GPRMC,175330.2,A,3241.262537,N,11709.317580,W,43.8,55.2,020110,,,A*77
$GPRMC,175333.2,A,3241.288828,N,11709.284169,W,44.7,49.2,020110,,,A*7E
$GPRMC,175336.2,A,3241.315108,N,11709.253898,W,45.1,46.2,020110,,,A*70
$GPRMC,175339.2,A,3241.344217,N,11709.226219,W,45.2,42.2,020110,,,A*70
$GPRMC,175342.2,A,3241.372343,N,11709.198282,W,45.6,41.4,020110,,,A*7C
$GPRMC,175345.2,A,3241.407652,N,11709.168610,W,49.1,38.9,020110,,,A*73
$GPRMC,175348.2,A,3241.442403,N,11709.136736,W,50.7,38.5,020110,,,A*75
$GPRMC,175351.2,A,3241.474267,N,11709.106398,W,50.4,39.0,020110,,,A*78
$GPRMC,175354.2,A,3241.507383,N,11709.074645,W,50.9,39.8,020110,,,A*77
$GPRMC,175357.2,A,3241.541188,N,11709.041355,W,52.2,39.8,020110,,,A*74
$GPRMC,175400.2,A,3241.575962,N,11709.004941,W,53.8,40.4,020110,,,A*7D
$GPRMC,175403.2,A,3241.608970,N,11708.970566,W,53.0,40.2,020110,,,A*78
$GPRMC,175406.2,A,3241.642134,N,11708.938057,W,52.2,39.7,020110,,,A*78
$GPRMC,175409.2,A,3241.676280,N,11708.905663,W,52.0,39.8,020110,,,A*7E
$GPRMC,175412.2,A,3241.710116,N,11708.872017,W,50.8,40.6,020110,,,A*77
$GPRMC,175415.2,A,3241.741964,N,11708.840334,W,48.9,39.2,020110,,,A*78
$GPRMC,175418.2,A,3241.771307,N,11708.811307,W,45.8,39.7,020110,,,A*74
$GPRMC,175421.2,A,3241.800061,N,11708.785045,W,44.0,39.7,020110,,,A*7A
$GPRMC,175424.2,A,3241.828138,N,11708.758300,W,44.3,40.0,020110,,,A*70
$GPRMC,175427.2,A,3241.857782,N,11708.727600,W,47.4,40.7,020110,,,A*72
$GPRMC,175430.2,A,3241.891003,N,11708.697876,W,49.5,37.6,020110,,,A*7B
$GPRMC,175433.2,A,3241.924542,N,11708.668197,W,50.3,36.9,020110,,,A*71
$GPRMC,175436.2,A,3241.955965,N,11708.638758,W,49.3,38.8,020110,,,A*7C
$GPRMC,175439.2,A,3241.985327,N,11708.608473,W,47.3,39.4,020110,,,A*78
$GPRMC,175442.2,A,3242.013667,N,11708.587125,W,42.6,33.6,020110,,,A*7A
$GPRMC,175445.2,A,3242.047112,N,11708.573767,W,41.6,19.8,020110,,,A*77
$GPRMC,175448.2,A,3242.082914,N,11708.566645,W,42.3,11.9,020110,,,A*77
$GPRMC,175451.2,A,3242.121055,N,11708.574530,W,44.8,357.9,020110,,,A*45
$GPRMC,175454.2,A,3242.143844,N,11708.609260,W,43.8,334.8,020110,,,A*44
$GPRMC,175457.2,A,3242.167961,N,11708.650738,W,45.6,314.7,020110,,,A*46
$GPRMC,175500.2,A,3242.187562,N,11708.688227,W,43.6,306.6,020110,,,A*4E
$GPRMC,175503.2,A,3242.208434,N,11708.725368,W,43.1,307.3,020110,,,A*44
$GPRMC,175506.2,A,3242.231307,N,11708.762181,W,44.7,307.6,020110,,,A*4E
$GPRMC,175509.2,A,3242.259454,N,11708.795111,W,47.3,314.9,020110,,,A*45
$GPRMC,175512.2,A,3242.294573,N,11708.823298,W,48.6,326.7,020110,,,A*4F
$GPRMC,175515.2,A,3242.333876,N,11708.843017,W,50.5,339.1,020110,,,A*4D
$GPRMC,175518.2,A,3242.376013,N,11708.851401,W,50.3,352.4,020110,,,A*44
$GPRMC,175521.2,A,3242.419694,N,11708.852400,W,50.7,357.6,020110,,,A*48
$GPRMC,175524.2,A,3242.463704,N,11708.854021,W,51.7,358.4,020110,,,A*45
$GPRMC,175527.2,A,3242.510363,N,11708.852740,W,53.5,358.7,020110,,,A*43
$GPRMC,175530.2,A,3242.558387,N,11708.853112,W,56.4,358.8,020110,,,A*48
$GPRMC,175533.2,A,3242.608295,N,11708.852774,W,58.5,359.0,020110,,,A*4E
$GPRMC,175536.2,A,3242.657257,N,11708.853509,W,58.9,359.4,020110,,,A*4E
$GPRMC,175539.2,A,3242.705260,N,11708.853780,W,58.3,359.4,020110,,,A*4A
$GPRMC,175542.2,A,3242.754898,N,11708.854320,W,58.9,359.7,020110,,,A*4F
$GPRMC,175545.2,A,3242.804007,N,11708.854540,W,57.9,359.4,020110,,,A*40
$GPRMC,175548.2,A,3242.851512,N,11708.854257,W,56.6,0.3,020110,,,A*4B
$GPRMC,175551.2,A,3242.898774,N,11708.854807,W,56.8,359.8,020110,,,A*41
$GPRMC,175554.2,A,3242.945563,N,11708.854820,W,56.8,359.3,020110,,,A*4F
$GPRMC,175557.2,A,3242.991614,N,11708.857418,W,56.1,359.0,020110,,,A*48
$GPRMC,175600.2,A,3243.037750,N,11708.857157,W,54.7,359.8,020110,,,A*4E
$GPRMC,175603.2,A,3243.084040,N,11708.854981,W,55.2,359.8,020110,,,A*47
$GPRMC,175606.2,A,3243.129375,N,11708.858782,W,54.8,355.0,020110,,,A*4F
$GPRMC,175609.2,A,3243.173648,N,11708.867384,W,53.8,351.1,020110,,,A*48
$GPRMC,175612.2,A,3243.216265,N,11708.882368,W,54.2,345.9,020110,,,A*40
$GPRMC,175615.2,A,3243.258660,N,11708.899712,W,54.3,341.6,020110,,,A*45
$GPRMC,175618.2,A,3243.300245,N,11708.917563,W,53.8,336.9,020110,,,A*47
$GPRMC,175621.2,A,3243.339669,N,11708.941985,W,52.7,333.8,020110,,,A*40
$GPRMC,175624.2,A,3243.375982,N,11708.965082,W,50.5,331.2,020110,,,A*47
$GPRMC,175627.2,A,3243.404998,N,11708.996970,W,49.6,320.9,020110,,,A*46
$GPRMC,175630.2,A,3243.437316,N,11709.037686,W,52.5,310.3,020110,,,A*49
$GPRMC,175633.2,A,3243.456815,N,11709.084966,W,52.7,299.0,020110,,,A*4D
$GPRMC,175636.2,A,3243.466653,N,11709.134707,W,51.7,287.2,020110,,,A*4A
$GPRMC,175639.2,A,3243.468320,N,11709.188876,W,52.3,273.1,020110,,,A*4B
$GPRMC,175642.2,A,3243.463420,N,11709.244223,W,55.3,265.3,020110,,,A*40
$GPRMC,175645.2,A,3243.454869,N,11709.303053,W,58.6,263.0,020110,,,A*48
$GPRMC,175648.2,A,3243.447831,N,11709.361518,W,58.7,263.1,020110,,,A*44
$GPRMC,175651.2,A,3243.438905,N,11709.419368,W,58.7,260.9,020110,,,A*40
$GPRMC,175654.2,A,3243.426570,N,11709.475925,W,59.0,256.6,020110,,,A*41
$GPRMC,175657.2,A,3243.406257,N,11709.529604,W,57.9,249.1,020110,,,A*48
$GPRMC,175700.2,A,3243.386525,N,11709.582942,W,58.5,247.6,020110,,,A*40
$GPRMC,175703.2,A,3243.371420,N,11709.638981,W,59.1,252.3,020110,,,A*46
$GPRMC,175706.2,A,3243.367555,N,11709.695361,W,56.7,261.7,020110,,,A*49
$GPRMC,175709.2,A,3243.370577,N,11709.753152,W,58.4,269.9,020110,,,A*42
$GPRMC,175712.2,A,3243.379039,N,11709.809826,W,58.2,276.7,020110,,,A*42
$GPRMC,175715.2,A,3243.399659,N,11709.864365,W,60.4,286.1,020110,,,A*48
$GPRMC,175718.2,A,3243.434892,N,11709.907369,W,57.8,295.9,020110,,,A*46
$GPRMC,175721.2,A,3243.468312,N,11709.943628,W,54.8,303.8,020110,,,A*4A
$GPRMC,175724.2,A,3243.516653,N,11709.957676,W,53.2,320.6,020110,,,A*4B
$GPRMC,175727.2,A,3243.555811,N,11709.993418,W,56.0,321.8,020110,,,A*4D
$GPRMC,175730.2,A,3243.594388,N,11710.028277,W,58.2,322.2,020110,,,A*46
$GPRMC,175733.2,A,3243.636362,N,11710.064524,W,61.4,323.5,020110,,,A*49
$GPRMC,175736.2,A,3243.680985,N,11710.103014,W,64.1,323.7,020110,,,A*46
$GPRMC,175739.2,A,3243.723684,N,11710.138529,W,63.4,324.1,020110,,,A*4F
$GPRMC,175742.2,A,3243.766091,N,11710.175594,W,63.7,323.4,020110,,,A*4E
$GPRMC,175745.2,A,3243.808939,N,11710.213701,W,64.7,323.1,020110,,,A*4A
$GPRMC,175748.2,A,3243.853999,N,11710.250669,W,64.8,324.1,020110,,,A*43
$GPRMC,175751.2,A,3243.897234,N,11710.289080,W,64.5,322.9,020110,,,A*49
$GPRMC,175754.2,A,3243.940856,N,11710.327445,W,64.9,323.4,020110,,,A*41
$GPRMC,175757.2,A,3243.984162,N,11710.366005,W,65.0,323.3,020110,,,A*4E
$GPRMC,175800.2,A,3244.030123,N,11710.403536,W,66.6,323.9,020110,,,A*49
$GPRMC,175803.2,A,3244.075676,N,11710.442504,W,66.4,323.8,020110,,,A*4B
$GPRMC,175806.2,A,3244.119997,N,11710.480353,W,65.6,324.9,020110,,,A*48
$GPRMC,175809.2,A,3244.163805,N,11710.518394,W,64.4,324.0,020110,,,A*41
$GPRMC,175812.2,A,3244.206456,N,11710.553236,W,62.9,324.2,020110,,,A*4E
$GPRMC,175815.2,A,3244.246773,N,11710.592127,W,63.8,323.2,020110,,,A*40
$GPRMC,175818.2,A,3244.288506,N,11710.629997,W,64.0,323.7,020110,,,A*45
$GPRMC,175821.2,A,3244.332797,N,11710.668697,W,65.0,323.7,020110,,,A*4E
$GPRMC,175824.2,A,3244.375941,N,11710.706051,W,64.6,323.6,020110,,,A*4E
$GPRMC,175827.2,A,3244.419860,N,11710.741608,W,63.3,323.9,020110,,,A*46
$GPRMC,175830.2,A,3244.460468,N,11710.780300,W,62.0,320.2,020110,,,A*40
$GPRMC,175833.2,A,3244.495351,N,11710.825829,W,63.3,312.2,020110,,,A*47
$GPRMC,175836.2,A,3244.524509,N,11710.878224,W,63.8,303.2,020110,,,A*46
$GPRMC,175839.2,A,3244.551652,N,11710.934589,W,64.7,299.1,020110,,,A*46
$GPRMC,175842.2,A,3244.577464,N,11710.991175,W,65.2,298.8,020110,,,A*4D
$GPRMC,175845.2,A,3244.604220,N,11711.048549,W,66.6,299.0,020110,,,A*42
$GPRMC,175848.2,A,3244.630391,N,11711.107043,W,67.4,298.4,020110,,,A*40
$GPRMC,175851.2,A,3244.656390,N,11711.164865,W,66.0,298.6,020110,,,A*47
$GPRMC,175854.2,A,3244.682465,N,11711.221136,W,63.4,298.9,020110,,,A*45
$GPRMC,175857.2,A,3244.707781,N,11711.275775,W,63.1,298.7,020110,,,A*48
$GPRMC,175900.2,A,3244.732583,N,11711.330296,W,62.4,298.5,020110,,,A*43
$GPRMC,175903.2,A,3244.758510,N,11711.385935,W,63.4,298.7,020110,,,A*49
$GPRMC,175906.2,A,3244.782641,N,11711.440350,W,63.5,298.7,020110,,,A*4A
$GPRMC,175909.2,A,3244.808213,N,11711.495555,W,64.1,298.7,020110,,,A*43
$GPRMC,175912.2,A,3244.833882,N,11711.551288,W,65.0,299.3,020110,,,A*48
$GPRMC,175915.2,A,3244.864114,N,11711.604960,W,64.9,303.6,020110,,,A*4A
$GPRMC,175918.2,A,3244.897706,N,11711.653376,W,64.1,308.9,020110,,,A*4D
$GPRMC,175921.2,A,3244.934394,N,11711.697979,W,63.0,314.4,020110,,,A*4B
$GPRMC,175924.2,A,3244.972769,N,11711.737179,W,61.5,318.3,020110,,,A*45
$GPRMC,175927.2,A,3245.015164,N,11711.774762,W,60.9,322.2,020110,,,A*4A
$GPRMC,175930.2,A,3245.055190,N,11711.810256,W,59.8,323.4,020110,,,A*40
$GPRMC,175933.2,A,3245.095870,N,11711.844396,W,59.9,324.7,020110,,,A*41
$GPRMC,175936.2,A,3245.134889,N,11711.879570,W,59.0,323.4,020110,,,A*45
$GPRMC,175939.2,A,3245.170061,N,11711.919735,W,58.7,316.8,020110,,,A*4C
$GPRMC,175942.2,A,3245.201566,N,11711.962690,W,57.4,313.0,020110,,,A*44
$GPRMC,175945.2,A,3245.231684,N,11712.005692,W,57.4,311.0,020110,,,A*44
$GPRMC,175948.2,A,3245.263232,N,11712.049306,W,57.8,310.5,020110,,,A*4F
$GPRMC,175951.2,A,3245.293529,N,11712.091936,W,56.9,313.0,020110,,,A*4F
$GPRMC,175954.2,A,3245.327154,N,11712.130061,W,55.7,318.3,020110,,,A*4E
$GPRMC,175957.2,A,3245.364841,N,11712.163687,W,56.0,324.5,020110,,,A*42
$GPRMC,180000.2,A,3245.406455,N,11712.186451,W,56.1,335.7,020110,,,A*48
$GPRMC,180003.2,A,3245.451477,N,11712.203784,W,56.4,342.0,020110,,,A*4E
$GPRMC,180006.2,A,3245.499749,N,11712.217183,W,58.9,345.9,020110,,,A*48
$GPRMC,180009.2,A,3245.549534,N,11712.229734,W,60.2,347.3,020110,,,A*4C
$GPRMC,180012.2,A,3245.599618,N,11712.240475,W,60.5,348.5,020110,,,A*41
$GPRMC,180015.2,A,3245.646767,N,11712.253978,W,59.1,347.8,020110,,,A*40
$GPRMC,180018.2,A,3245.695825,N,11712.265197,W,58.8,348.1,020110,,,A*48
$GPRMC,180021.2,A,3245.744446,N,11712.277416,W,59.2,347.7,020110,,,A*4B
$GPRMC,180024.2,A,3245.792899,N,11712.289852,W,60.8,347.9,020110,,,A*48
$GPRMC,180027.2,A,3245.845048,N,11712.302314,W,61.4,347.7,020110,,,A*42
$GPRMC,180030.2,A,3245.896624,N,11712.315094,W,62.4,347.4,020110,,,A*4B
$GPRMC,180033.2,A,3245.950047,N,11712.328893,W,62.9,347.6,020110,,,A*4E
$GPRMC,180036.2,A,3246.000820,N,11712.342012,W,63.7,347.7,020110,,,A*4E
$GPRMC,180039.2,A,3246.052335,N,11712.355028,W,62.9,347.6,020110,,,A*48
$GPRMC,180042.2,A,3246.104093,N,11712.367188,W,62.8,348.0,020110,,,A*4B
$GPRMC,180045.2,A,3246.156328,N,11712.380479,W,63.1,346.4,020110,,,A*48
$GPRMC,180048.2,A,3246.206687,N,11712.393143,W,61.8,347.8,020110,,,A*4B
$GPRMC,180051.2,A,3246.259651,N,11712.404823,W,62.3,348.2,020110,,,A*49
$GPRMC,180054.2,A,3246.309787,N,11712.418288,W,60.8,347.8,020110,,,A*48
$GPRMC,180057.2,A,3246.361098,N,11712.431656,W,60.8,347.0,020110,,,A*48
$GPRMC,180100.2,A,3246.412098,N,11712.445386,W,61.8,347.2,020110,,,A*40
$GPRMC,180103.2,A,3246.462976,N,11712.458957,W,61.8,347.8,020110,,,A*4D
$GPRMC,180106.2,A,3246.513887,N,11712.472969,W,62.4,347.0,020110,,,A*42
$GPRMC,180109.2,A,3246.563729,N,11712.485646,W,60.6,347.1,020110,,,A*4A
$GPRMC,180112.2,A,3246.612434,N,11712.495336,W,57.9,348.3,020110,,,A*4F
$GPRMC,180115.2,A,3246.664527,N,11712.507006,W,60.3,352.2,020110,,,A*44
$GPRMC,180118.2,A,3246.715079,N,11712.509948,W,60.4,358.7,020110,,,A*45
$GPRMC,180121.2,A,3246.766905,N,11712.504776,W,61.4,4.6,020110,,,A*4D
$GPRMC,180124.2,A,3246.819058,N,11712.496313,W,62.0,7.9,020110,,,A*48
$GPRMC,180127.2,A,3246.868537,N,11712.485416,W,60.6,8.5,020110,,,A*46
$GPRMC,180130.2,A,3246.918394,N,11712.476098,W,60.4,8.1,020110,,,A*41
$GPRMC,180133.2,A,3246.969590,N,11712.467797,W,61.7,8.0,020110,,,A*4D
$GPRMC,180136.2,A,3247.021494,N,11712.458231,W,62.7,8.7,020110,,,A*48
$GPRMC,180139.2,A,3247.074473,N,11712.447633,W,62.8,8.6,020110,,,A*48
$GPRMC,180142.2,A,3247.129089,N,11712.436051,W,63.2,9.3,020110,,,A*47
$GPRMC,180145.2,A,3247.179708,N,11712.429261,W,62.2,8.3,020110,,,A*44
$GPRMC,180148.2,A,3247.230183,N,11712.419926,W,60.1,7.2,020110,,,A*46
$GPRMC,180151.2,A,3247.282440,N,11712.415146,W,61.3,4.3,020110,,,A*4E
$GPRMC,180154.2,A,3247.333660,N,11712.413088,W,61.8,1.5,020110,,,A*4D
$GPRMC,180157.2,A,3247.383653,N,11712.416317,W,61.2,359.0,020110,,,A*44
$GPRMC,180200.2,A,3247.433311,N,11712.419650,W,59.6,355.3,020110,,,A*43
$GPRMC,180203.2,A,3247.482322,N,11712.428361,W,59.5,352.3,020110,,,A*4B
$GPRMC,180206.2,A,3247.530481,N,11712.437904,W,59.8,349.2,020110,,,A*49
$GPRMC,180209.2,A,3247.577208,N,11712.451860,W,58.5,345.9,020110,,,A*4A
$GPRMC,180212.2,A,3247.624499,N,11712.469130,W,60.6,342.6,020110,,,A*4C
$GPRMC,180215.2,A,3247.672461,N,11712.490644,W,61.0,339.5,020110,,,A*45
$GPRMC,180218.2,A,3247.719490,N,11712.515395,W,62.4,336.3,020110,,,A*41
$GPRMC,180221.2,A,3247.766959,N,11712.541841,W,63.3,334.3,020110,,,A*4C
$GPRMC,180224.2,A,3247.816326,N,11712.567668,W,63.8,333.8,020110,,,A*45
$GPRMC,180227.2,A,3247.864477,N,11712.594829,W,63.7,333.5,020110,,,A*45
$GPRMC,180230.2,A,3247.911382,N,11712.623745,W,62.3,333.6,020110,,,A*41
$GPRMC,180233.2,A,3247.956798,N,11712.650031,W,61.2,334.4,020110,,,A*49
$GPRMC,180236.2,A,3248.002016,N,11712.675124,W,60.1,336.0,020110,,,A*4C
$GPRMC,180239.2,A,3248.048681,N,11712.700080,W,61.0,335.9,020110,,,A*43
$GPRMC,180242.2,A,3248.094385,N,11712.724131,W,60.6,335.6,020110,,,A*4A
$GPRMC,180245.2,A,3248.140279,N,11712.750393,W,61.8,333.4,020110,,,A*45
$GPRMC,180248.2,A,3248.186236,N,11712.777943,W,61.7,332.8,020110,,,A*49
$GPRMC,180251.2,A,3248.231809,N,11712.807559,W,61.6,331.4,020110,,,A*49
$GPRMC,180254.2,A,3248.275019,N,11712.839656,W,61.5,329.3,020110,,,A*49
$GPRMC,180257.2,A,3248.317511,N,11712.872123,W,61.9,327.7,020110,,,A*4E
$GPRMC,180300.2,A,3248.361548,N,11712.905307,W,61.7,326.1,020110,,,A*4C
$GPRMC,180303.2,A,3248.404059,N,11712.939953,W,62.1,325.4,020110,,,A*49
$GPRMC,180306.2,A,3248.445268,N,11712.974712,W,61.7,325.0,020110,,,A*4A
$GPRMC,180309.2,A,3248.488488,N,11713.009982,W,62.3,324.6,020110,,,A*49
$GPRMC,180312.2,A,3248.533264,N,11713.043697,W,64.2,327.2,020110,,,A*43
$GPRMC,180315.2,A,3248.577959,N,11713.080073,W,65.2,326.2,020110,,,A*42
$GPRMC,180318.2,A,3248.620146,N,11713.118731,W,65.4,325.8,020110,,,A*46
$GPRMC,180321.2,A,3248.666092,N,11713.154889,W,65.6,326.2,020110,,,A*49
$GPRMC,180324.2,A,3248.709894,N,11713.188772,W,63.9,326.4,020110,,,A*4F
$GPRMC,180327.2,A,3248.756019,N,11713.224593,W,64.2,326.7,020110,,,A*4C
$GPRMC,180330.2,A,3248.802805,N,11713.258171,W,63.7,328.4,020110,,,A*4D
$GPRMC,180333.2,A,3248.847376,N,11713.290106,W,62.7,328.7,020110,,,A*46
$GPRMC,180336.2,A,3248.891307,N,11713.322705,W,62.1,327.4,020110,,,A*49
$GPRMC,180339.2,A,3248.934620,N,11713.357399,W,61.7,326.2,020110,,,A*49
$GPRMC,180342.2,A,3248.976803,N,11713.390514,W,61.6,325.9,020110,,,A*4D
$GPRMC,180345.2,A,3249.019369,N,11713.426038,W,62.5,325.2,020110,,,A*46
$GPRMC,180348.2,A,3249.059028,N,11713.463524,W,61.5,322.6,020110,,,A*40
$GPRMC,180351.2,A,3249.097384,N,11713.501565,W,60.4,320.2,020110,,,A*49
$GPRMC,180354.2,A,3249.133936,N,11713.541556,W,60.8,319.0,020110,,,A*40
$GPRMC,180357.2,A,3249.172494,N,11713.583009,W,61.9,319.0,020110,,,A*42
$GPRMC,180400.2,A,3249.211326,N,11713.623368,W,61.4,319.0,020110,,,A*4F
$GPRMC,180403.2,A,3249.250523,N,11713.663132,W,61.8,319.0,020110,,,A*4F
$GPRMC,180406.2,A,3249.289755,N,11713.703257,W,60.9,318.9,020110,,,A*42
$GPRMC,180409.2,A,3249.327463,N,11713.742591,W,60.5,319.0,020110,,,A*42
$GPRMC,180412.2,A,3249.365234,N,11713.783181,W,60.5,318.6,020110,,,A*45
$GPRMC,180415.2,A,3249.403492,N,11713.821538,W,60.1,319.4,020110,,,A*49
$GPRMC,180418.2,A,3249.444258,N,11713.857780,W,59.8,324.3,020110,,,A*4D
$GPRMC,180421.2,A,3249.485822,N,11713.887174,W,58.8,329.2,020110,,,A*40
$GPRMC,180424.2,A,3249.529991,N,11713.913746,W,58.6,333.9,020110,,,A*4E
$GPRMC,180427.2,A,3249.575893,N,11713.934470,W,58.4,339.9,020110,,,A*4C
$GPRMC,180430.2,A,3249.626211,N,11713.948641,W,59.8,345.8,020110,,,A*43
$GPRMC,180433.2,A,3249.675768,N,11713.954889,W,59.0,352.7,020110,,,A*4B
$GPRMC,180436.2,A,3249.724560,N,11713.956599,W,58.0,358.1,020110,,,A*42
$GPRMC,180439.2,A,3249.772213,N,11713.957805,W,57.1,359.3,020110,,,A*49
$GPRMC,180442.2,A,3249.818306,N,11713.958197,W,56.2,0.0,020110,,,A*40
$GPRMC,180445.2,A,3249.865950,N,11713.957641,W,55.6,0.4,020110,,,A*44
$GPRMC,180448.2,A,3249.911097,N,11713.957247,W,54.7,0.4,020110,,,A*4B
$GPRMC,180451.2,A,3249.956698,N,11713.959185,W,54.5,357.7,020110,,,A*4A
$GPRMC,180454.2,A,3250.001801,N,11713.964732,W,54.8,352.8,020110,,,A*41
$GPRMC,180457.2,A,3250.048042,N,11713.976429,W,55.3,347.8,020110,,,A*44
$GPRMC,180500.2,A,3250.092086,N,11713.993551,W,55.7,342.7,020110,,,A*43
$GPRMC,180503.2,A,3250.135579,N,11714.013977,W,56.0,339.5,020110,,,A*4D
$GPRMC,180506.2,A,3250.179159,N,11714.035834,W,56.9,338.6,020110,,,A*4F
$GPRMC,180509.2,A,3250.225737,N,11714.054930,W,58.1,339.1,020110,,,A*46
$GPRMC,180512.2,A,3250.272936,N,11714.076049,W,60.0,339.0,020110,,,A*4D
$GPRMC,180515.2,A,3250.319652,N,11714.097012,W,60.5,339.2,020110,,,A*4D
$GPRMC,180518.2,A,3250.368627,N,11714.119310,W,62.1,339.0,020110,,,A*46
$GPRMC,180521.2,A,3250.418254,N,11714.139940,W,62.1,339.8,020110,,,A*49
$GPRMC,180524.2,A,3250.465292,N,11714.160364,W,61.2,341.3,020110,,,A*48
$GPRMC,180527.2,A,3250.512143,N,11714.175422,W,59.7,346.5,020110,,,A*4B
$GPRMC,180530.2,A,3250.564216,N,11714.182463,W,60.4,353.4,020110,,,A*4E
$GPRMC,180533.2,A,3250.616610,N,11714.182747,W,62.4,0.2,020110,,,A*4D
$GPRMC,180536.2,A,3250.670191,N,11714.177577,W,62.8,5.4,020110,,,A*42
$GPRMC,180539.2,A,3250.722539,N,11714.166647,W,62.8,7.9,020110,,,A*42
$GPRMC,180542.2,A,3250.774212,N,11714.157445,W,63.0,8.2,020110,,,A*4C
$GPRMC,180545.2,A,3250.826362,N,11714.147587,W,62.4,8.3,020110,,,A*4F
$GPRMC,180548.2,A,3250.878281,N,11714.136954,W,61.7,11.7,020110,,,A*7D
$GPRMC,180551.2,A,3250.928443,N,11714.120390,W,61.5,17.0,020110,,,A*7F
$GPRMC,180554.2,A,3250.974727,N,11714.097609,W,60.5,22.4,020110,,,A*79
$GPRMC,180557.2,A,3251.018695,N,11714.072350,W,59.0,26.0,020110,,,A*7D
$GPRMC,180600.2,A,3251.061853,N,11714.043834,W,60.2,29.0,020110,,,A*7A
$GPRMC,180603.2,A,3251.104111,N,11714.014563,W,59.1,29.7,020110,,,A*77
$GPRMC,180606.2,A,3251.144818,N,11713.983121,W,60.1,31.2,020110,,,A*72
$GPRMC,180609.2,A,3251.187492,N,11713.951171,W,59.5,31.4,020110,,,A*7E
$GPRMC,180612.2,A,3251.226533,N,11713.919821,W,57.5,31.4,020110,,,A*78
$GPRMC,180615.2,A,3251.268204,N,11713.894659,W,55.9,28.6,020110,,,A*77
$GPRMC,180618.2,A,3251.309509,N,11713.872742,W,55.3,25.6,020110,,,A*72
$GPRMC,180621.2,A,3251.354618,N,11713.853727,W,56.6,19.4,020110,,,A*78
$GPRMC,180624.2,A,3251.398983,N,11713.835896,W,57.0,14.7,020110,,,A*7C
$GPRMC,180627.2,A,3251.447769,N,11713.823174,W,57.8,10.6,020110,,,A*7F
$GPRMC,180630.2,A,3251.495339,N,11713.816585,W,57.6,6.7,020110,,,A*43
$GPRMC,180633.2,A,3251.544584,N,11713.812059,W,58.3,4.5,020110,,,A*47
$GPRMC,180636.2,A,3251.588382,N,11713.809198,W,55.7,4.1,020110,,,A*49
$GPRMC,180639.2,A,3251.635117,N,11713.802382,W,56.5,5.3,020110,,,A*4D
$GPRMC,180642.2,A,3251.682211,N,11713.799684,W,56.8,3.9,020110,,,A*47
$GPRMC,180645.2,A,3251.729875,N,11713.795795,W,56.9,4.5,020110,,,A*4F
$GPRMC,180648.2,A,3251.777336,N,11713.791685,W,55.7,4.5,020110,,,A*4C
$GPRMC,180651.2,A,3251.822632,N,11713.788020,W,55.2,4.5,020110,,,A*4E
$GPRMC,180654.2,A,3251.868141,N,11713.783875,W,56.0,4.2,020110,,,A*43
$GPRMC,180657.2,A,3251.914547,N,11713.779784,W,56.4,4.7,020110,,,A*4D
$GPRMC,180700.2,A,3251.963691,N,11713.776077,W,58.6,4.4,020110,,,A*4D
$GPRMC,180703.2,A,3252.013892,N,11713.772595,W,59.9,4.0,020110,,,A*49
$GPRMC,180706.2,A,3252.064499,N,11713.765513,W,60.2,4.8,020110,,,A*4A
$GPRMC,180709.2,A,3252.114849,N,11713.759594,W,60.7,5.0,020110,,,A*4E
$GPRMC,180712.2,A,3252.165747,N,11713.755073,W,60.8,4.4,020110,,,A*49
$GPRMC,180715.2,A,3252.216741,N,11713.750929,W,61.0,3.6,020110,,,A*40
$GPRMC,180718.2,A,3252.266491,N,11713.745374,W,60.0,4.8,020110,,,A*4A
$GPRMC,180721.2,A,3252.318607,N,11713.740553,W,60.7,4.8,020110,,,A*44
$GPRMC,180724.2,A,3252.368658,N,11713.735003,W,59.7,5.1,020110,,,A*4C
$GPRMC,180727.2,A,3252.417142,N,11713.729629,W,58.7,4.3,020110,,,A*4D
$GPRMC,180730.2,A,3252.464762,N,11713.725941,W,57.5,4.3,020110,,,A*4B
$GPRMC,180733.2,A,3252.514539,N,11713.721844,W,58.5,4.1,020110,,,A*4F
$GPRMC,180736.2,A,3252.561401,N,11713.716631,W,56.7,4.7,020110,,,A*40
$GPRMC,180739.2,A,3252.609060,N,11713.712845,W,56.0,4.6,020110,,,A*4E
$GPRMC,180742.2,A,3252.654688,N,11713.708291,W,53.9,4.2,020110,,,A*4A
$GPRMC,180745.2,A,3252.697863,N,11713.701470,W,51.3,5.9,020110,,,A*4B
$GPRMC,180748.2,A,3252.743853,N,11713.697050,W,52.5,5.1,020110,,,A*48
$GPRMC,180751.2,A,3252.789296,N,11713.692767,W,52.5,4.6,020110,,,A*45
$GPRMC,180754.2,A,3252.831424,N,11713.690148,W,52.0,4.4,020110,,,A*4D
$GPRMC,180757.2,A,3252.873324,N,11713.685816,W,51.7,4.6,020110,,,A*4F
$GPRMC,180800.2,A,3252.916782,N,11713.682035,W,51.3,5.1,020110,,,A*44
$GPRMC,180803.2,A,3252.961359,N,11713.678671,W,52.4,5.1,020110,,,A*42
$GPRMC,180806.2,A,3253.003582,N,11713.673478,W,51.6,5.3,020110,,,A*48
$GPRMC,180809.2,A,3253.046939,N,11713.668838,W,52.0,6.3,020110,,,A*4E
$GPRMC,180812.2,A,3253.090929,N,11713.661644,W,51.8,8.4,020110,,,A*40
$GPRMC,180815.2,A,3253.130034,N,11713.651627,W,48.5,10.9,020110,,,A*7E
$GPRMC,180818.2,A,3253.165485,N,11713.640986,W,43.7,17.4,020110,,,A*7A
$GPRMC,180821.2,A,3253.192835,N,11713.627557,W,36.6,22.0,020110,,,A*7F
$GPRMC,180824.2,A,3253.213530,N,11713.615313,W,30.7,25.7,020110,,,A*78
$GPRMC,180827.2,A,3253.224793,N,11713.607527,W,22.2,30.4,020110,,,A*77
$GPRMC,180830.2,A,3253.224182,N,11713.609969,W,8.4,23.6,020110,,,A*41
$GPRMC,180845.2,A,3253.214589,N,11713.618061,W,4.4,345.7,020110,,,A*70
$GPRMC,180848.2,A,3253.219129,N,11713.625261,W,11.0,302.9,020110,,,A*4F
$GPRMC,180851.2,A,3253.223753,N,11713.642755,W,19.4,284.0,020110,,,A*4C
$GPRMC,180854.2,A,3253.228068,N,11713.666939,W,25.1,282.5,020110,,,A*46
$GPRMC,180857.2,A,3253.234514,N,11713.690450,W,22.1,286.2,020110,,,A*49
$GPRMC,180900.2,A,3253.239956,N,11713.710900,W,21.8,285.2,020110,,,A*45
$GPRMC,180903.2,A,3253.243703,N,11713.735887,W,27.5,284.3,020110,,,A*47
$GPRMC,180906.2,A,3253.250501,N,11713.766899,W,32.6,284.4,020110,,,A*49
$GPRMC,180909.2,A,3253.262709,N,11713.805145,W,39.1,288.1,020110,,,A*4A
$GPRMC,180912.2,A,3253.277348,N,11713.845543,W,43.0,291.9,020110,,,A*4F
$GPRMC,180915.2,A,3253.293853,N,11713.887037,W,45.5,293.5,020110,,,A*46
$GPRMC,180918.2,A,3253.311673,N,11713.926012,W,44.1,296.9,020110,,,A*4D
$GPRMC,180921.2,A,3253.328700,N,11713.958932,W,39.9,301.4,020110,,,A*4A
$GPRMC,180924.2,A,3253.347376,N,11713.988469,W,38.2,304.6,020110,,,A*40
$GPRMC,180927.2,A,3253.366369,N,11714.018329,W,37.0,304.9,020110,,,A*48
$GPRMC,180930.2,A,3253.382387,N,11714.047427,W,36.2,302.3,020110,,,A*48
$GPRMC,180933.2,A,3253.396101,N,11714.079652,W,37.2,298.0,020110,,,A*4F
$GPRMC,180936.2,A,3253.406031,N,11714.115462,W,38.4,291.0,020110,,,A*4C
$GPRMC,180939.2,A,3253.416201,N,11714.154520,W,40.6,286.9,020110,,,A*43
$GPRMC,180942.2,A,3253.426179,N,11714.191741,W,39.6,284.6,020110,,,A*4F
$GPRMC,180945.2,A,3253.435272,N,11714.229285,W,39.8,285.0,020110,,,A*46
$GPRMC,180948.2,A,3253.444984,N,11714.269856,W,41.0,285.1,020110,,,A*49
$GPRMC,180951.2,A,3253.453220,N,11714.306918,W,38.9,285.9,020110,,,A*4E
$GPRMC,180954.2,A,3253.462241,N,11714.339448,W,36.0,289.4,020110,,,A*4C
$GPRMC,180957.2,A,3253.477270,N,11714.370136,W,33.8,298.4,020110,,,A*45
$GPRMC,181000.2,A,3253.492943,N,11714.393841,W,28.8,308.0,020110,,,A*4D
$GPRMC,181003.2,A,3253.507833,N,11714.411145,W,26.9,315.7,020110,,,A*41
$GPRMC,181006.2,A,3253.526081,N,11714.427541,W,28.6,321.6,020110,,,A*44
$GPRMC,181009.2,A,3253.547754,N,11714.442939,W,30.1,329.4,020110,,,A*47
$GPRMC,181012.2,A,3253.577723,N,11714.453452,W,33.6,341.0,020110,,,A*40
$GPRMC,181015.2,A,3253.610105,N,11714.458547,W,37.0,348.2,020110,,,A*40
$GPRMC,181018.2,A,3253.641294,N,11714.464911,W,35.4,350.0,020110,,,A*4F
$GPRMC,181021.2,A,3253.666744,N,11714.467316,W,29.5,351.7,020110,,,A*4C
$GPRMC,181024.2,A,3253.683090,N,11714.471989,W,20.4,352.0,020110,,,A*4B
$GPRMC,181027.2,A,3253.694844,N,11714.474661,W,14.7,351.3,020110,,,A*47
$GPRMC,181030.2,A,3253.711565,N,11714.476185,W,18.3,350.1,020110,,,A*47
$GPRMC,181033.2,A,3253.731302,N,11714.479949,W,24.2,348.8,020110,,,A*48
$GPRMC,181036.2,A,3253.756351,N,11714.483524,W,29.2,349.4,020110,,,A*48
$GPRMC,181039.2,A,3253.782900,N,11714.490929,W,32.8,349.4,020110,,,A*43
$GPRMC,181042.2,A,3253.812653,N,11714.496206,W,34.3,351.0,020110,,,A*40
$GPRMC,181045.2,A,3253.842664,N,11714.503045,W,34.4,349.7,020110,,,A*47
$GPRMC,181048.2,A,3253.864235,N,11714.507868,W,27.6,351.2,020110,,,A*41
$GPRMC,181051.2,A,3253.878375,N,11714.510705,W,15.7,347.9,020110,,,A*4F
$GPRMC,181106.2,A,3253.884237,N,11714.513615,W,4.5,2.1,020110,,,A*73
$GPRMC,181109.2,A,3253.897190,N,11714.515270,W,15.9,349.1,020110,,,A*41
$GPRMC,181112.2,A,3253.920400,N,11714.521297,W,25.5,347.7,020110,,,A*43
$GPRMC,181115.2,A,3253.948829,N,11714.526708,W,33.3,348.4,020110,,,A*44
$GPRMC,181118.2,A,3253.981427,N,11714.533207,W,38.5,349.6,020110,,,A*4E
$GPRMC,181121.2,A,3254.015863,N,11714.541633,W,41.1,348.4,020110,,,A*44
$GPRMC,181124.2,A,3254.048954,N,11714.549017,W,39.6,347.7,020110,,,A*40
$GPRMC,181127.2,A,3254.077115,N,11714.557146,W,32.1,349.4,020110,,,A*49
$GPRMC,181130.2,A,3254.093550,N,11714.560464,W,21.5,351.3,020110,,,A*49
$GPRMC,181133.2,A,3254.101305,N,11714.561130,W,12.5,347.6,020110,,,A*41
$GPRMC,181145.2,A,3254.097006,N,11714.560797,W,5.3,313.0,020110,,,A*73
$GPRMC,181148.2,A,3254.098207,N,11714.570717,W,9.1,280.8,020110,,,A*76
$GPRMC,181151.2,A,3254.099282,N,11714.580486,W,9.4,273.4,020110,,,A*73
$GPRMC,181154.2,A,3254.096900,N,11714.589801,W,9.4,261.9,020110,,,A*7C
$GPRMC,181157.2,A,3254.098263,N,11714.597714,W,6.6,265.6,020110,,,A*7D
$GPRMC,181212.2,A,3254.102475,N,11714.605895,W,5.2,331.1,020110,,,A*72
$GPRMC,181215.2,A,3254.109219,N,11714.606837,W,7.1,346.5,020110,,,A*7C
$GPRMC,181218.2,A,3254.115632,N,11714.608417,W,7.4,346.0,020110,,,A*71
$GPRMC,181221.2,A,3254.117829,N,11714.611947,W,5.6,325.0,020110,,,A*78
$GPRMC,181233.2,A,3254.100599,N,11714.611846,W,6.5,143.6,020110,,,A*7F
$GPRMC,181236.2,A,3254.094408,N,11714.606027,W,7.4,126.3,020110,,,A*70
$GPRMC,181239.2,A,3254.094685,N,11714.595463,W,8.4,94.1,020110,,,A*40
$GPRMC,181242.2,A,3254.097419,N,11714.586809,W,8.4,77.8,020110,,,A*4E
$GPRMC,181245.2,A,3254.098170,N,11714.578832,W,7.3,77.2,020110,,,A*47
$GPRMC,181303.2,A,3254.102861,N,11714.568958,W,7.2,62.8,020110,,,A*4C
$GPRMC,181306.2,A,3254.110571,N,11714.561749,W,10.1,43.5,020110,,,A*7A
$GPRMC,181309.2,A,3254.125403,N,11714.563621,W,16.2,355.0,020110,,,A*4E
$GPRMC,181312.2,A,3254.144871,N,11714.567951,W,23.6,347.6,020110,,,A*41
$GPRMC,181315.2,A,3254.166209,N,11714.571572,W,26.2,350.1,020110,,,A*49
$GPRMC,181318.2,A,3254.188654,N,11714.575322,W,27.0,352.1,020110,,,A*4E
$GPRMC,181321.2,A,3254.211468,N,11714.581489,W,27.9,350.4,020110,,,A*49
$GPRMC,181324.2,A,3254.238079,N,11714.585644,W,31.4,350.6,020110,,,A*4C
$GPRMC,181327.2,A,3254.267237,N,11714.589881,W,34.8,350.3,020110,,,A*4A
$GPRMC,181330.2,A,3254.299669,N,11714.596565,W,37.9,350.2,020110,,,A*48
$GPRMC,181333.2,A,3254.330389,N,11714.603518,W,38.3,350.5,020110,,,A*45
