NMEA Sentence Code,UTC Time,Status,Latitude,Latitude Direction,Longitude,Longitude Direction,Speed (knots),Track Angle (degrees true),Date,MagneticVariation,Magnetic Variation Direction,[FAA Mode]-Optional,Checksum
$GPRMC,090852.43,A,3248.5015,N,11655.1716,W,40.969,206.211,080810,0,W,A*14
$GPRMC,090855.43,A,3248.4704,N,11655.1899,W,41.387,206.371,080810,0,W,A*11
$GPRMC,090858.43,A,3248.4396,N,11655.2085,W,40.665,207.452,080810,0,W,A*1A
$GPRMC,090901.43,A,3248.4092,N,11655.2286,W,42.999,211.042,080810,0,W,A*1D
$GPRMC,090904.43,A,3248.3788,N,11655.2524,W,43.360,216.119,080810,0,W,A*19
$GPRMC,090907.43,A,3248.3502,N,11655.2786,W,42.969,219.736,080810,0,W,A*16
$GPRMC,090910.43,A,3248.3233,N,11655.3080,W,43.384,225.142,080810,0,W,A*17
$GPRMC,090913.43,A,3248.2991,N,11655.3398,W,42.554,230.326,080810,0,W,A*12
$GPRMC,090916.43,A,3248.2771,N,11655.3737,W,43.174,233.234,080810,0,W,A*10
$GPRMC,090919.43,A,3248.2570,N,11655.4091,W,42.243,239.363,080810,0,W,A*1F
$GPRMC,090922.43,A,3248.2401,N,11655.4452,W,41.313,242.695,080810,0,W,A*1C
$GPRMC,090925.43,A,3248.2253,N,11655.4821,W,41.605,247.390,080810,0,W,A*15
$GPRMC,090928.43,A,3248.2129,N,11655.5201,W,40.446,250.890,080810,0,W,A*16
$GPRMC,090931.43,A,3248.2036,N,11655.5579,W,38.679,255.791,080810,0,W,A*13
$GPRMC,090934.43,A,3248.1976,N,11655.5953,W,37.847,260.105,080810,0,W,A*1D
$GPRMC,090937.43,A,3248.1932,N,11655.6327,W,38.385,264.144,080810,0,W,A*1F
$GPRMC,090940.43,A,3248.1910,N,11655.6709,W,39.297,267.604,080810,0,W,A*14
$GPRMC,090943.43,A,3248.1910,N,11655.7104,W,40.109,269.750,080810,0,W,A*19
$GPRMC,090946.43,A,3248.1913,N,11655.7506,W,40.557,270.329,080810,0,W,A*14
$GPRMC,090949.43,A,3248.1915,N,11655.7904,W,39.528,270.140,080810,0,W,A*18
$GPRMC,090952.43,A,3248.1914,N,11655.8295,W,39.094,269.224,080810,0,W,A*14
$GPRMC,090955.43,A,3248.1914,N,11655.8676,W,38.340,270.033,080810,0,W,A*1D
$GPRMC,090958.43,A,3248.1917,N,11655.9053,W,37.825,270.326,080810,0,W,A*13
$GPRMC,091001.43,A,3248.1921,N,11655.9434,W,38.984,270.309,080810,0,W,A*1F
$GPRMC,091004.43,A,3248.1923,N,11655.9827,W,40.095,269.827,080810,0,W,A*1F
$GPRMC,091007.43,A,3248.1924,N,11656.0228,W,40.565,269.783,080810,0,W,A*1F
$GPRMC,091010.43,A,3248.1925,N,11656.0638,W,41.799,270.432,080810,0,W,A*1C
$GPRMC,091013.43,A,3248.1927,N,11656.1057,W,42.902,269.778,080810,0,W,A*19
$GPRMC,091016.43,A,3248.1925,N,11656.1491,W,43.993,269.512,080810,0,W,A*17
$GPRMC,091019.43,A,3248.1928,N,11656.1931,W,44.981,270.030,080810,0,W,A*1B
$GPRMC,091022.43,A,3248.1931,N,11656.2383,W,45.622,270.005,080810,0,W,A*1A
$GPRMC,091025.43,A,3248.1931,N,11656.2836,W,46.211,270.124,080810,0,W,A*1D
$GPRMC,091028.43,A,3248.1932,N,11656.3294,W,46.546,270.112,080810,0,W,A*10
$GPRMC,091031.43,A,3248.1932,N,11656.3764,W,48.056,269.818,080810,0,W,A*13
$GPRMC,091034.43,A,3248.1931,N,11656.4241,W,48.803,269.735,080810,0,W,A*18
$GPRMC,091037.43,A,3248.1929,N,11656.4728,W,49.686,269.923,080810,0,W,A*13
$GPRMC,091040.43,A,3248.1929,N,11656.5216,W,48.377,269.202,080810,0,W,A*18
$GPRMC,091043.43,A,3248.1918,N,11656.5692,W,48.165,268.738,080810,0,W,A*1D
$GPRMC,091046.43,A,3248.1913,N,11656.6172,W,48.608,269.616,080810,0,W,A*19
$GPRMC,091049.43,A,3248.1913,N,11656.6661,W,49.563,269.690,080810,0,W,A*12
$GPRMC,091052.43,A,3248.1913,N,11656.7154,W,49.781,270.001,080810,0,W,A*10
$GPRMC,091055.43,A,3248.1916,N,11656.7658,W,51.062,269.922,080810,0,W,A*1A
$GPRMC,091058.43,A,3248.1917,N,11656.8157,W,49.312,269.552,080810,0,W,A*17
$GPRMC,091101.43,A,3248.1916,N,11656.8637,W,47.664,270.196,080810,0,W,A*14
$GPRMC,091104.43,A,3248.1917,N,11656.9098,W,45.738,269.937,080810,0,W,A*13
$GPRMC,091107.43,A,3248.1917,N,11656.9549,W,45.519,269.856,080810,0,W,A*1E
$GPRMC,091110.43,A,3248.1916,N,11657.0000,W,45.259,269.625,080810,0,W,A*10
$GPRMC,091113.43,A,3248.1918,N,11657.0449,W,45.918,269.734,080810,0,W,A*1B
$GPRMC,091116.43,A,3248.1920,N,11657.0905,W,46.744,269.809,080810,0,W,A*15
$GPRMC,091119.43,A,3248.1923,N,11657.1372,W,47.603,270.244,080810,0,W,A*1A
$GPRMC,091122.43,A,3248.1921,N,11657.1849,W,49.319,269.930,080810,0,W,A*13
$GPRMC,091125.43,A,3248.1918,N,11657.2349,W,51.208,269.645,080810,0,W,A*13
$GPRMC,091128.43,A,3248.1915,N,11657.2860,W,51.611,270.289,080810,0,W,A*13
$GPRMC,091131.43,A,3248.1916,N,11657.3366,W,50.873,269.358,080810,0,W,A*1A
$GPRMC,091134.43,A,3248.1915,N,11657.3859,W,49.046,270.370,080810,0,W,A*1F
$GPRMC,091137.43,A,3248.1913,N,11657.4337,W,47.981,269.805,080810,0,W,A*13
$GPRMC,091140.43,A,3248.1909,N,11657.4808,W,47.858,270.324,080810,0,W,A*1A
$GPRMC,091143.43,A,3248.1912,N,11657.5284,W,48.061,269.918,080810,0,W,A*1C
$GPRMC,091146.43,A,3248.1911,N,11657.5765,W,48.868,269.863,080810,0,W,A*1C
$GPRMC,091149.43,A,3248.1911,N,11657.6257,W,49.987,269.718,080810,0,W,A*16
$GPRMC,091152.43,A,3248.1909,N,11657.6756,W,50.869,269.440,080810,0,W,A*16
$GPRMC,091155.43,A,3248.1908,N,11657.7261,W,50.746,270.129,080810,0,W,A*10
$GPRMC,091158.43,A,3248.1910,N,11657.7760,W,50.224,269.214,080810,0,W,A*14
$GPRMC,091201.43,A,3248.1903,N,11657.8253,W,49.626,269.054,080810,0,W,A*1B
$GPRMC,091204.43,A,3248.1901,N,11657.8742,W,48.929,269.362,080810,0,W,A*1E
$GPRMC,091207.43,A,3248.1899,N,11657.9230,W,49.909,269.322,080810,0,W,A*1B
$GPRMC,091210.43,A,3248.1894,N,11657.9728,W,50.499,269.570,080810,0,W,A*11
$GPRMC,091213.43,A,3248.1887,N,11658.0233,W,51.108,269.615,080810,0,W,A*15
$GPRMC,091216.43,A,3248.1891,N,11658.0741,W,51.960,270.767,080810,0,W,A*1D
$GPRMC,091219.43,A,3248.1894,N,11658.1258,W,52.594,269.889,080810,0,W,A*18
$GPRMC,091222.43,A,3248.1885,N,11658.1775,W,51.870,266.971,080810,0,W,A*17
$GPRMC,091225.43,A,3248.1838,N,11658.2276,W,49.868,261.174,080810,0,W,A*19
$GPRMC,091228.43,A,3248.1753,N,11658.2753,W,49.167,255.441,080810,0,W,A*16
$GPRMC,091231.43,A,3248.1627,N,11658.3212,W,49.027,249.665,080810,0,W,A*11
$GPRMC,091234.43,A,3248.1458,N,11658.3660,W,48.546,243.582,080810,0,W,A*1C
$GPRMC,091237.43,A,3248.1251,N,11658.4072,W,48.031,237.686,080810,0,W,A*13
$GPRMC,091240.43,A,3248.1020,N,11658.4451,W,47.141,232.645,080810,0,W,A*11
$GPRMC,091243.43,A,3248.0757,N,11658.4801,W,47.234,226.101,080810,0,W,A*1E
$GPRMC,091246.43,A,3248.0472,N,11658.5119,W,46.537,220.801,080810,0,W,A*14
$GPRMC,091249.43,A,3248.0161,N,11658.5403,W,46.789,215.576,080810,0,W,A*1E
$GPRMC,091252.43,A,3247.9830,N,11658.5645,W,47.264,209.555,080810,0,W,A*14
$GPRMC,091255.43,A,3247.9469,N,11658.5855,W,48.186,204.028,080810,0,W,A*1E
$GPRMC,091258.43,A,3247.9092,N,11658.6017,W,48.407,198.442,080810,0,W,A*1C
$GPRMC,091301.43,A,3247.8697,N,11658.6133,W,48.738,192.768,080810,0,W,A*1A
$GPRMC,091304.43,A,3247.8297,N,11658.6208,W,48.455,187.432,080810,0,W,A*10
$GPRMC,091307.43,A,3247.7887,N,11658.6269,W,49.847,187.751,080810,0,W,A*18
$GPRMC,091310.43,A,3247.7462,N,11658.6334,W,52.013,187.498,080810,0,W,A*15
$GPRMC,091313.43,A,3247.7022,N,11658.6401,W,53.380,187.502,080810,0,W,A*1D
$GPRMC,091316.43,A,3247.6575,N,11658.6472,W,54.077,188.216,080810,0,W,A*1B
$GPRMC,091319.43,A,3247.6122,N,11658.6542,W,54.337,187.071,080810,0,W,A*1B
$GPRMC,091322.43,A,3247.5669,N,11658.6606,W,54.195,187.671,080810,0,W,A*17
$GPRMC,091325.43,A,3247.5225,N,11658.6676,W,52.436,186.995,080810,0,W,A*15
$GPRMC,091328.43,A,3247.4800,N,11658.6725,W,50.243,184.143,080810,0,W,A*14
$GPRMC,091331.43,A,3247.4386,N,11658.6741,W,49.826,180.638,080810,0,W,A*15
$GPRMC,091334.43,A,3247.3975,N,11658.6741,W,49.216,180.270,080810,0,W,A*10
$GPRMC,091337.43,A,3247.3558,N,11658.6744,W,49.766,180.646,080810,0,W,A*16
$GPRMC,091340.43,A,3247.3153,N,11658.6758,W,47.954,184.228,080810,0,W,A*1D
$GPRMC,091343.43,A,3247.2760,N,11658.6823,W,47.350,191.545,080810,0,W,A*1C
$GPRMC,091346.43,A,3247.2378,N,11658.6948,W,47.993,198.074,080810,0,W,A*13
$GPRMC,091349.43,A,3247.2008,N,11658.7124,W,46.862,205.501,080810,0,W,A*15
$GPRMC,091352.43,A,3247.1663,N,11658.7353,W,46.506,210.910,080810,0,W,A*12
$GPRMC,091355.43,A,3247.1338,N,11658.7603,W,46.512,212.583,080810,0,W,A*1F
$GPRMC,091358.43,A,3247.1012,N,11658.7854,W,46.537,212.136,080810,0,W,A*18
$GPRMC,091401.43,A,3247.0681,N,11658.8099,W,46.760,209.860,080810,0,W,A*18
$GPRMC,091404.43,A,3247.0344,N,11658.8322,W,46.212,207.217,080810,0,W,A*16
$GPRMC,091407.43,A,3246.9996,N,11658.8527,W,46.975,205.378,080810,0,W,A*1B
$GPRMC,091410.43,A,3246.9639,N,11658.8729,W,47.418,205.986,080810,0,W,A*17
$GPRMC,091413.43,A,3246.9283,N,11658.8932,W,47.684,205.529,080810,0,W,A*1B
$GPRMC,091416.43,A,3246.8923,N,11658.9132,W,47.665,205.477,080810,0,W,A*12
$GPRMC,091419.43,A,3246.8573,N,11658.9359,W,47.750,212.473,080810,0,W,A*1E
$GPRMC,091422.43,A,3246.8260,N,11658.9637,W,46.589,222.098,080810,0,W,A*1B
$GPRMC,091425.43,A,3246.7987,N,11658.9969,W,46.650,229.625,080810,0,W,A*19
$GPRMC,091428.43,A,3246.7767,N,11659.0349,W,46.259,238.328,080810,0,W,A*11
$GPRMC,091431.43,A,3246.7586,N,11659.0758,W,46.499,244.848,080810,0,W,A*1C
$GPRMC,091434.43,A,3246.7457,N,11659.1197,W,46.848,256.257,080810,0,W,A*17
$GPRMC,091437.43,A,3246.7394,N,11659.1666,W,48.268,263.144,080810,0,W,A*14
$GPRMC,091440.43,A,3246.7388,N,11659.2151,W,48.516,271.721,080810,0,W,A*11
$GPRMC,091443.43,A,3246.7411,N,11659.2642,W,49.277,272.064,080810,0,W,A*14
$GPRMC,091446.43,A,3246.7430,N,11659.3142,W,51.040,271.860,080810,0,W,A*14
$GPRMC,091449.43,A,3246.7451,N,11659.3657,W,52.394,272.404,080810,0,W,A*1B
$GPRMC,091452.43,A,3246.7471,N,11659.4177,W,52.469,272.203,080810,0,W,A*15
$GPRMC,091455.43,A,3246.7485,N,11659.4700,W,52.758,271.737,080810,0,W,A*1F
$GPRMC,091458.43,A,3246.7504,N,11659.5222,W,52.694,272.124,080810,0,W,A*18
$GPRMC,091501.43,A,3246.7522,N,11659.5751,W,54.122,272.339,080810,0,W,A*12
$GPRMC,091504.43,A,3246.7544,N,11659.6298,W,56.053,272.480,080810,0,W,A*14
$GPRMC,091507.43,A,3246.7571,N,11659.6863,W,57.415,272.638,080810,0,W,A*19
$GPRMC,091510.43,A,3246.7598,N,11659.7432,W,57.548,273.064,080810,0,W,A*16
$GPRMC,091513.43,A,3246.7626,N,11659.8000,W,57.289,273.188,080810,0,W,A*10
$GPRMC,091516.43,A,3246.7650,N,11659.8564,W,57.203,272.230,080810,0,W,A*10
$GPRMC,091519.43,A,3246.7665,N,11659.9138,W,58.315,269.713,080810,0,W,A*12
$GPRMC,091522.43,A,3246.7629,N,11659.9717,W,58.998,261.376,080810,0,W,A*19
$GPRMC,091525.43,A,3246.7523,N,11700.0285,W,58.144,254.206,080810,0,W,A*14
$GPRMC,091528.43,A,3246.7359,N,11700.0822,W,57.121,246.478,080810,0,W,A*15
$GPRMC,091531.43,A,3246.7145,N,11700.1309,W,54.904,240.466,080810,0,W,A*14
$GPRMC,091534.43,A,3246.6898,N,11700.1769,W,55.283,237.990,080810,0,W,A*1A
$GPRMC,091537.43,A,3246.6648,N,11700.2234,W,56.061,237.376,080810,0,W,A*1B
$GPRMC,091540.43,A,3246.6432,N,11700.2731,W,56.771,246.522,080810,0,W,A*13
$GPRMC,091543.43,A,3246.6239,N,11700.3257,W,58.153,246.277,080810,0,W,A*16
$GPRMC,091546.43,A,3246.6040,N,11700.3794,W,59.725,246.468,080810,0,W,A*1B
$GPRMC,091549.43,A,3246.5841,N,11700.4347,W,61.334,247.174,080810,0,W,A*15
$GPRMC,091552.43,A,3246.5639,N,11700.4907,W,61.578,246.983,080810,0,W,A*1F
$GPRMC,091555.43,A,3246.5435,N,11700.5465,W,60.921,246.822,080810,0,W,A*15
$GPRMC,091558.43,A,3246.5233,N,11700.6014,W,59.741,246.898,080810,0,W,A*1A
$GPRMC,091601.43,A,3246.5037,N,11700.6556,W,59.135,246.729,080810,0,W,A*10
$GPRMC,091604.43,A,3246.4845,N,11700.7091,W,58.296,246.600,080810,0,W,A*17
$GPRMC,091607.43,A,3246.4651,N,11700.7621,W,58.815,246.954,080810,0,W,A*1D
$GPRMC,091610.43,A,3246.4455,N,11700.8161,W,59.946,246.587,080810,0,W,A*15
$GPRMC,091613.43,A,3246.4249,N,11700.8709,W,61.108,246.183,080810,0,W,A*1C
$GPRMC,091616.43,A,3246.4038,N,11700.9258,W,60.881,244.308,080810,0,W,A*17
$GPRMC,091619.43,A,3246.3806,N,11700.9792,W,60.985,241.201,080810,0,W,A*11
$GPRMC,091622.43,A,3246.3551,N,11701.0311,W,60.998,238.042,080810,0,W,A*16
$GPRMC,091625.43,A,3246.3285,N,11701.0822,W,60.685,238.702,080810,0,W,A*14
$GPRMC,091628.43,A,3246.3030,N,11701.1330,W,59.241,240.492,080810,0,W,A*1F
$GPRMC,091631.43,A,3246.2819,N,11701.1844,W,56.991,247.522,080810,0,W,A*19
$GPRMC,091634.43,A,3246.2683,N,11701.2373,W,55.160,257.775,080810,0,W,A*19
$GPRMC,091637.43,A,3246.2607,N,11701.2906,W,54.906,262.638,080810,0,W,A*19
$GPRMC,091640.43,A,3246.2571,N,11701.3454,W,54.889,267.987,080810,0,W,A*18
$GPRMC,091643.43,A,3246.2584,N,11701.3999,W,55.861,272.844,080810,0,W,A*10
$GPRMC,091646.43,A,3246.2640,N,11701.4558,W,57.525,279.335,080810,0,W,A*11
$GPRMC,091649.43,A,3246.2751,N,11701.5106,W,56.830,287.861,080810,0,W,A*12
$GPRMC,091652.43,A,3246.2938,N,11701.5628,W,56.728,296.251,080810,0,W,A*1D
$GPRMC,091655.43,A,3246.3172,N,11701.6119,W,57.584,298.769,080810,0,W,A*1E
$GPRMC,091658.43,A,3246.3414,N,11701.6626,W,57.139,297.896,080810,0,W,A*1F
$GPRMC,091701.43,A,3246.3635,N,11701.7122,W,56.950,296.653,080810,0,W,A*11
$GPRMC,091704.43,A,3246.3852,N,11701.7628,W,57.161,296.795,080810,0,W,A*16
$GPRMC,091707.43,A,3246.4072,N,11701.8130,W,56.744,296.038,080810,0,W,A*19
$GPRMC,091710.43,A,3246.4270,N,11701.8634,W,55.956,292.489,080810,0,W,A*18
$GPRMC,091713.43,A,3246.4409,N,11701.9149,W,54.215,282.559,080810,0,W,A*1F
$GPRMC,091716.43,A,3246.4478,N,11701.9667,W,52.544,275.869,080810,0,W,A*14
$GPRMC,091719.43,A,3246.4490,N,11702.0182,W,52.452,267.304,080810,0,W,A*1E
$GPRMC,091722.43,A,3246.4441,N,11702.0698,W,52.996,261.063,080810,0,W,A*17
$GPRMC,091725.43,A,3246.4340,N,11702.1218,W,54.269,254.772,080810,0,W,A*17
$GPRMC,091728.43,A,3246.4213,N,11702.1735,W,54.607,254.017,080810,0,W,A*1F
$GPRMC,091731.43,A,3246.4084,N,11702.2251,W,54.531,254.412,080810,0,W,A*18
$GPRMC,091734.43,A,3246.3956,N,11702.2766,W,54.510,254.295,080810,0,W,A*17
$GPRMC,091737.43,A,3246.3830,N,11702.3282,W,53.989,254.372,080810,0,W,A*18
$GPRMC,091740.43,A,3246.3708,N,11702.3798,W,54.312,256.348,080810,0,W,A*16
$GPRMC,091743.43,A,3246.3628,N,11702.4325,W,54.048,263.634,080810,0,W,A*17
$GPRMC,091746.43,A,3246.3613,N,11702.4857,W,53.670,272.106,080810,0,W,A*18
$GPRMC,091749.43,A,3246.3662,N,11702.5390,W,54.725,279.131,080810,0,W,A*19
$GPRMC,091752.43,A,3246.3778,N,11702.5925,W,55.865,287.835,080810,0,W,A*1B
$GPRMC,091755.43,A,3246.3952,N,11702.6448,W,56.449,294.743,080810,0,W,A*12
$GPRMC,091758.43,A,3246.4187,N,11702.6941,W,57.401,301.502,080810,0,W,A*1B
$GPRMC,091801.43,A,3246.4451,N,11702.7425,W,58.420,301.206,080810,0,W,A*17
$GPRMC,091804.43,A,3246.4713,N,11702.7923,W,59.131,301.161,080810,0,W,A*1A
$GPRMC,091807.43,A,3246.4974,N,11702.8425,W,58.648,301.436,080810,0,W,A*1D
$GPRMC,091810.43,A,3246.5226,N,11702.8917,W,57.238,301.139,080810,0,W,A*1C
$GPRMC,091813.43,A,3246.5465,N,11702.9393,W,54.782,298.409,080810,0,W,A*19
$GPRMC,091816.43,A,3246.5667,N,11702.9875,W,53.926,294.317,080810,0,W,A*1C
$GPRMC,091819.43,A,3246.5847,N,11703.0358,W,53.338,292.952,080810,0,W,A*1B
$GPRMC,091822.43,A,3246.6009,N,11703.0845,W,52.727,289.985,080810,0,W,A*1E
$GPRMC,091825.43,A,3246.6145,N,11703.1335,W,51.956,286.401,080810,0,W,A*18
$GPRMC,091828.43,A,3246.6257,N,11703.1826,W,51.589,284.110,080810,0,W,A*15
$GPRMC,091831.43,A,3246.6351,N,11703.2329,W,52.484,282.113,080810,0,W,A*17
$GPRMC,091834.43,A,3246.6442,N,11703.2832,W,52.167,282.116,080810,0,W,A*1B
$GPRMC,091837.43,A,3246.6535,N,11703.3331,W,51.912,281.991,080810,0,W,A*1D
$GPRMC,091840.43,A,3246.6621,N,11703.3833,W,51.979,281.382,080810,0,W,A*17
$GPRMC,091843.43,A,3246.6707,N,11703.4342,W,52.195,281.905,080810,0,W,A*17
$GPRMC,091846.43,A,3246.6798,N,11703.4849,W,52.631,282.759,080810,0,W,A*19
$GPRMC,091849.43,A,3246.6900,N,11703.5360,W,53.366,284.251,080810,0,W,A*15
$GPRMC,091852.43,A,3246.7030,N,11703.5871,W,54.577,288.995,080810,0,W,A*11
$GPRMC,091855.43,A,3246.7180,N,11703.6385,W,55.741,288.250,080810,0,W,A*1B
$GPRMC,091858.43,A,3246.7326,N,11703.6910,W,55.979,288.033,080810,0,W,A*1C
$GPRMC,091901.43,A,3246.7472,N,11703.7433,W,55.598,288.174,080810,0,W,A*1B
$GPRMC,091904.43,A,3246.7608,N,11703.7959,W,55.668,284.651,080810,0,W,A*10
$GPRMC,091907.43,A,3246.7690,N,11703.8493,W,55.056,276.752,080810,0,W,A*12
$GPRMC,091910.43,A,3246.7707,N,11703.9032,W,54.095,269.399,080810,0,W,A*16
$GPRMC,091913.43,A,3246.7695,N,11703.9572,W,54.200,268.764,080810,0,W,A*17
$GPRMC,091916.43,A,3246.7690,N,11704.0115,W,54.896,268.472,080810,0,W,A*1D
$GPRMC,091919.43,A,3246.7677,N,11704.0659,W,54.518,268.471,080810,0,W,A*1C
$GPRMC,091922.43,A,3246.7664,N,11704.1199,W,54.212,267.730,080810,0,W,A*18
$GPRMC,091925.43,A,3246.7646,N,11704.1737,W,54.659,268.550,080810,0,W,A*1D
$GPRMC,091928.43,A,3246.7637,N,11704.2283,W,55.294,269.096,080810,0,W,A*15
$GPRMC,091931.43,A,3246.7630,N,11704.2833,W,55.776,268.684,080810,0,W,A*16
$GPRMC,091934.43,A,3246.7626,N,11704.3383,W,55.996,270.987,080810,0,W,A*10
$GPRMC,091937.43,A,3246.7642,N,11704.3944,W,57.047,272.827,080810,0,W,A*1E
$GPRMC,091940.43,A,3246.7665,N,11704.4512,W,57.619,273.855,080810,0,W,A*1A
$GPRMC,091943.43,A,3246.7711,N,11704.5080,W,57.785,276.358,080810,0,W,A*13
$GPRMC,091946.43,A,3246.7772,N,11704.5653,W,58.846,278.318,080810,0,W,A*1E
$GPRMC,091949.43,A,3246.7853,N,11704.6231,W,59.849,280.471,080810,0,W,A*1F
$GPRMC,091952.43,A,3246.7950,N,11704.6811,W,59.479,281.472,080810,0,W,A*12
$GPRMC,091955.43,A,3246.8047,N,11704.7382,W,58.738,281.193,080810,0,W,A*18
$GPRMC,091958.43,A,3246.8143,N,11704.7950,W,58.023,281.075,080810,0,W,A*11
$GPRMC,092001.43,A,3246.8236,N,11704.8508,W,57.012,280.946,080810,0,W,A*1D
$GPRMC,092004.43,A,3246.8331,N,11704.9060,W,56.468,281.656,080810,0,W,A*13
$GPRMC,092007.43,A,3246.8424,N,11704.9604,W,55.880,281.544,080810,0,W,A*1E
$GPRMC,092010.43,A,3246.8517,N,11705.0144,W,55.455,281.062,080810,0,W,A*17
$GPRMC,092013.43,A,3246.8598,N,11705.0677,W,54.780,279.615,080810,0,W,A*1F
$GPRMC,092016.43,A,3246.8655,N,11705.1207,W,53.484,275.421,080810,0,W,A*13
$GPRMC,092019.43,A,3246.8678,N,11705.1726,W,51.380,271.162,080810,0,W,A*12
$GPRMC,092022.43,A,3246.8679,N,11705.2231,W,50.966,268.634,080810,0,W,A*14
$GPRMC,092025.43,A,3246.8646,N,11705.2734,W,51.195,263.179,080810,0,W,A*1F
$GPRMC,092028.43,A,3246.8597,N,11705.3240,W,51.326,264.168,080810,0,W,A*17
$GPRMC,092031.43,A,3246.8550,N,11705.3745,W,51.669,264.021,080810,0,W,A*16
$GPRMC,092034.43,A,3246.8505,N,11705.4254,W,52.188,264.366,080810,0,W,A*1A
$GPRMC,092037.43,A,3246.8461,N,11705.4768,W,52.806,264.025,080810,0,W,A*1B
$GPRMC,092040.43,A,3246.8413,N,11705.5287,W,53.026,262.937,080810,0,W,A*1C
$GPRMC,092043.43,A,3246.8351,N,11705.5810,W,53.918,261.052,080810,0,W,A*17
$GPRMC,092046.43,A,3246.8269,N,11705.6347,W,55.916,258.760,080810,0,W,A*16
$GPRMC,092049.43,A,3246.8172,N,11705.6898,W,57.861,258.787,080810,0,W,A*13
$GPRMC,092052.43,A,3246.8075,N,11705.7466,W,58.647,258.528,080810,0,W,A*11
$GPRMC,092055.43,A,3246.7979,N,11705.8031,W,57.302,258.891,080810,0,W,A*11
$GPRMC,092058.43,A,3246.7880,N,11705.8573,W,55.591,258.245,080810,0,W,A*15
$GPRMC,092101.43,A,3246.7784,N,11705.9114,W,56.073,258.298,080810,0,W,A*1D
$GPRMC,092104.43,A,3246.7690,N,11705.9657,W,56.031,258.593,080810,0,W,A*16
$GPRMC,092107.43,A,3246.7595,N,11706.0196,W,55.281,258.393,080810,0,W,A*1F
$GPRMC,092110.43,A,3246.7510,N,11706.0724,W,53.856,260.933,080810,0,W,A*16
$GPRMC,092113.43,A,3246.7445,N,11706.1248,W,53.186,262.038,080810,0,W,A*1E
$GPRMC,092116.43,A,3246.7392,N,11706.1766,W,52.677,263.498,080810,0,W,A*18
$GPRMC,092119.43,A,3246.7344,N,11706.2289,W,53.268,264.045,080810,0,W,A*13
$GPRMC,092122.43,A,3246.7307,N,11706.2818,W,54.244,265.738,080810,0,W,A*1B
$GPRMC,092125.43,A,3246.7284,N,11706.3359,W,54.959,267.515,080810,0,W,A*11
$GPRMC,092128.43,A,3246.7271,N,11706.3905,W,54.594,268.492,080810,0,W,A*19
$GPRMC,092131.43,A,3246.7263,N,11706.4449,W,55.056,269.124,080810,0,W,A*13
$GPRMC,092134.43,A,3246.7255,N,11706.4993,W,54.805,268.470,080810,0,W,A*13
$GPRMC,092137.43,A,3246.7248,N,11706.5534,W,54.598,269.298,080810,0,W,A*14
$GPRMC,092140.43,A,3246.7243,N,11706.6069,W,54.012,269.595,080810,0,W,A*1C
$GPRMC,092143.43,A,3246.7236,N,11706.6606,W,54.679,268.591,080810,0,W,A*1C
$GPRMC,092146.43,A,3246.7226,N,11706.7148,W,55.310,268.741,080810,0,W,A*10
$GPRMC,092149.43,A,3246.7218,N,11706.7705,W,56.920,268.424,080810,0,W,A*17
$GPRMC,092152.43,A,3246.7201,N,11706.8257,W,56.228,268.951,080810,0,W,A*14
$GPRMC,092155.43,A,3246.7194,N,11706.8809,W,55.562,269.313,080810,0,W,A*1A
$GPRMC,092158.43,A,3246.7185,N,11706.9360,W,55.378,267.447,080810,0,W,A*17
$GPRMC,092201.43,A,3246.7150,N,11706.9913,W,55.909,263.714,080810,0,W,A*13
$GPRMC,092204.43,A,3246.7078,N,11707.0462,W,56.408,258.464,080810,0,W,A*1D
$GPRMC,092207.43,A,3246.6964,N,11707.1006,W,57.116,253.454,080810,0,W,A*1F
$GPRMC,092210.43,A,3246.6799,N,11707.1534,W,56.633,247.817,080810,0,W,A*1E
$GPRMC,092213.43,A,3246.6601,N,11707.2036,W,55.018,243.533,080810,0,W,A*1A
$GPRMC,092216.43,A,3246.6374,N,11707.2514,W,55.408,238.634,080810,0,W,A*10
$GPRMC,092219.43,A,3246.6112,N,11707.2967,W,56.230,234.606,080810,0,W,A*16
$GPRMC,092222.43,A,3246.5835,N,11707.3419,W,56.170,234.437,080810,0,W,A*13
$GPRMC,092225.43,A,3246.5566,N,11707.3865,W,55.274,234.333,080810,0,W,A*1F
$GPRMC,092228.43,A,3246.5300,N,11707.4307,W,55.013,234.829,080810,0,W,A*1F
$GPRMC,092231.43,A,3246.5035,N,11707.4756,W,56.007,236.506,080810,0,W,A*16
$GPRMC,092234.43,A,3246.4777,N,11707.5223,W,56.496,237.564,080810,0,W,A*1C
$GPRMC,092237.43,A,3246.4524,N,11707.5697,W,56.622,237.397,080810,0,W,A*17
$GPRMC,092240.43,A,3246.4267,N,11707.6162,W,56.162,236.840,080810,0,W,A*1A
$GPRMC,092243.43,A,3246.4014,N,11707.6622,W,55.491,237.317,080810,0,W,A*1E
$GPRMC,092246.43,A,3246.3773,N,11707.7093,W,56.160,240.942,080810,0,W,A*15
$GPRMC,092249.43,A,3246.3560,N,11707.7594,W,57.075,245.362,080810,0,W,A*11
$GPRMC,092252.43,A,3246.3375,N,11707.8124,W,58.125,249.011,080810,0,W,A*19
$GPRMC,092255.43,A,3246.3223,N,11707.8670,W,57.786,253.293,080810,0,W,A*19
$GPRMC,092258.43,A,3246.3092,N,11707.9217,W,57.343,254.326,080810,0,W,A*1D
$GPRMC,092301.43,A,3246.2966,N,11707.9753,W,56.738,255.274,080810,0,W,A*18
$GPRMC,092304.43,A,3246.2847,N,11708.0289,W,55.516,255.140,080810,0,W,A*12
$GPRMC,092307.43,A,3246.2727,N,11708.0814,W,54.242,254.532,080810,0,W,A*11
$GPRMC,092310.43,A,3246.2610,N,11708.1326,W,53.246,254.482,080810,0,W,A*10
$GPRMC,092313.43,A,3246.2497,N,11708.1828,W,52.230,254.869,080810,0,W,A*12
$GPRMC,092316.43,A,3246.2385,N,11708.2321,W,51.384,255.056,080810,0,W,A*1A
$GPRMC,092319.43,A,3246.2275,N,11708.2804,W,49.840,254.274,080810,0,W,A*1E
$GPRMC,092322.43,A,3246.2159,N,11708.3274,W,49.633,253.087,080810,0,W,A*14
$GPRMC,092325.43,A,3246.2032,N,11708.3744,W,50.761,251.568,080810,0,W,A*11
$GPRMC,092328.43,A,3246.1892,N,11708.4228,W,52.180,250.441,080810,0,W,A*15
$GPRMC,092331.43,A,3246.1736,N,11708.4711,W,52.689,248.099,080810,0,W,A*15
$GPRMC,092334.43,A,3246.1567,N,11708.5191,W,52.277,246.815,080810,0,W,A*1E
$GPRMC,092337.43,A,3246.1388,N,11708.5663,W,51.908,244.440,080810,0,W,A*1E
$GPRMC,092340.43,A,3246.1199,N,11708.6123,W,51.256,243.700,080810,0,W,A*1C
$GPRMC,092343.43,A,3246.1007,N,11708.6569,W,50.611,242.066,080810,0,W,A*13
$GPRMC,092346.43,A,3246.0812,N,11708.7006,W,49.797,241.941,080810,0,W,A*1E
$GPRMC,092349.43,A,3246.0618,N,11708.7438,W,49.346,242.350,080810,0,W,A*1D
$GPRMC,092352.43,A,3246.0440,N,11708.7877,W,49.596,245.782,080810,0,W,A*18
$GPRMC,092355.43,A,3246.0283,N,11708.8336,W,50.821,249.440,080810,0,W,A*1F
$GPRMC,092358.43,A,3246.0143,N,11708.8811,W,51.267,252.491,080810,0,W,A*1C
$GPRMC,092401.43,A,3246.0027,N,11708.9294,W,50.935,254.045,080810,0,W,A*14
$GPRMC,092404.43,A,3245.9908,N,11708.9772,W,50.315,253.127,080810,0,W,A*18
$GPRMC,092407.43,A,3245.9790,N,11709.0249,W,50.403,253.674,080810,0,W,A*10
$GPRMC,092410.43,A,3245.9672,N,11709.0733,W,51.919,253.765,080810,0,W,A*15
$GPRMC,092413.43,A,3245.9552,N,11709.1233,W,53.033,253.650,080810,0,W,A*17
$GPRMC,092416.43,A,3245.9426,N,11709.1741,W,54.297,253.338,080810,0,W,A*10
$GPRMC,092419.43,A,3245.9294,N,11709.2259,W,55.122,252.414,080810,0,W,A*1B
$GPRMC,092422.43,A,3245.9165,N,11709.2782,W,54.963,253.856,080810,0,W,A*1A
$GPRMC,092425.43,A,3245.9038,N,11709.3301,W,54.771,253.885,080810,0,W,A*19
$GPRMC,092428.43,A,3245.8908,N,11709.3828,W,56.077,253.448,080810,0,W,A*11
$GPRMC,092431.43,A,3245.8773,N,11709.4364,W,56.605,253.280,080810,0,W,A*1E
$GPRMC,092434.43,A,3245.8641,N,11709.4901,W,56.948,253.492,080810,0,W,A*11
$GPRMC,092437.43,A,3245.8506,N,11709.5443,W,56.820,253.278,080810,0,W,A*15
$GPRMC,092440.43,A,3245.8373,N,11709.5965,W,53.525,253.073,080810,0,W,A*1C
$GPRMC,092443.43,A,3245.8246,N,11709.6471,W,53.160,253.384,080810,0,W,A*1D
$GPRMC,092446.43,A,3245.8106,N,11709.6965,W,52.272,249.131,080810,0,W,A*11
$GPRMC,092449.43,A,3245.7924,N,11709.7430,W,51.915,242.336,080810,0,W,A*12
$GPRMC,092452.43,A,3245.7711,N,11709.7884,W,52.955,240.160,080810,0,W,A*17
$GPRMC,092455.43,A,3245.7484,N,11709.8343,W,53.863,240.211,080810,0,W,A*10
$GPRMC,092458.43,A,3245.7258,N,11709.8811,W,54.266,239.936,080810,0,W,A*1E
$GPRMC,092501.43,A,3245.7035,N,11709.9283,W,54.401,243.243,080810,0,W,A*19
$GPRMC,092504.43,A,3245.6859,N,11709.9779,W,54.405,250.014,080810,0,W,A*19
$GPRMC,092507.43,A,3245.6715,N,11710.0288,W,54.617,253.643,080810,0,W,A*11
$GPRMC,092510.43,A,3245.6589,N,11710.0808,W,54.951,254.356,080810,0,W,A*19
$GPRMC,092513.43,A,3245.6462,N,11710.1326,W,54.627,253.783,080810,0,W,A*1D
$GPRMC,092516.43,A,3245.6347,N,11710.1842,W,53.830,255.138,080810,0,W,A*1E
$GPRMC,092519.43,A,3245.6234,N,11710.2349,W,53.001,255.197,080810,0,W,A*18
$GPRMC,092522.43,A,3245.6124,N,11710.2851,W,52.076,254.792,080810,0,W,A*13
$GPRMC,092525.43,A,3245.6015,N,11710.3346,W,52.079,255.181,080810,0,W,A*11
$GPRMC,092528.43,A,3245.5910,N,11710.3846,W,52.602,256.233,080810,0,W,A*1B
$GPRMC,092531.43,A,3245.5808,N,11710.4355,W,52.792,255.766,080810,0,W,A*1B
$GPRMC,092534.43,A,3245.5711,N,11710.4863,W,52.839,258.379,080810,0,W,A*1E
$GPRMC,092537.43,A,3245.5642,N,11710.5374,W,52.134,262.318,080810,0,W,A*1C
$GPRMC,092540.43,A,3245.5595,N,11710.5890,W,52.209,265.357,080810,0,W,A*15
$GPRMC,092543.43,A,3245.5581,N,11710.6411,W,53.063,270.237,080810,0,W,A*19
$GPRMC,092546.43,A,3245.5596,N,11710.6948,W,54.678,271.896,080810,0,W,A*10
$GPRMC,092549.43,A,3245.5614,N,11710.7498,W,55.569,272.019,080810,0,W,A*19
$GPRMC,092552.43,A,3245.5635,N,11710.8049,W,55.137,272.678,080810,0,W,A*19
$GPRMC,092555.43,A,3245.5657,N,11710.8590,W,54.142,272.433,080810,0,W,A*15
$GPRMC,092558.43,A,3245.5676,N,11710.9120,W,53.199,272.314,080810,0,W,A*16
$GPRMC,092601.43,A,3245.5693,N,11710.9641,W,52.430,271.739,080810,0,W,A*1D
$GPRMC,092604.43,A,3245.5711,N,11711.0165,W,53.756,272.493,080810,0,W,A*18
$GPRMC,092607.43,A,3245.5732,N,11711.0705,W,54.619,271.895,080810,0,W,A*1E
$GPRMC,092610.43,A,3245.5753,N,11711.1236,W,53.159,273.248,080810,0,W,A*17
$GPRMC,092613.43,A,3245.5780,N,11711.1755,W,52.665,273.431,080810,0,W,A*1B
$GPRMC,092616.43,A,3245.5819,N,11711.2265,W,50.994,277.077,080810,0,W,A*15
$GPRMC,092619.43,A,3245.5878,N,11711.2756,W,49.861,278.866,080810,0,W,A*1C
$GPRMC,092622.43,A,3245.5948,N,11711.3247,W,50.048,280.076,080810,0,W,A*17
$GPRMC,092625.43,A,3245.6020,N,11711.3733,W,50.009,279.517,080810,0,W,A*13
$GPRMC,092628.43,A,3245.6093,N,11711.4223,W,50.170,280.469,080810,0,W,A*14
$GPRMC,092631.43,A,3245.6170,N,11711.4713,W,50.798,280.327,080810,0,W,A*1B
$GPRMC,092634.43,A,3245.6247,N,11711.5205,W,50.790,280.899,080810,0,W,A*1C
$GPRMC,092637.43,A,3245.6329,N,11711.5697,W,50.250,280.690,080810,0,W,A*17
$GPRMC,092640.43,A,3245.6401,N,11711.6175,W,48.720,278.696,080810,0,W,A*18
$GPRMC,092643.43,A,3245.6447,N,11711.6643,W,47.639,272.914,080810,0,W,A*12
$GPRMC,092646.43,A,3245.6439,N,11711.7107,W,47.096,265.206,080810,0,W,A*15
$GPRMC,092649.43,A,3245.6387,N,11711.7563,W,45.411,260.527,080810,0,W,A*16
$GPRMC,092652.43,A,3245.6314,N,11711.7995,W,43.230,258.083,080810,0,W,A*10
$GPRMC,092655.43,A,3245.6242,N,11711.8405,W,42.138,259.187,080810,0,W,A*10
$GPRMC,092658.43,A,3245.6174,N,11711.8813,W,42.251,259.219,080810,0,W,A*18
$GPRMC,092701.43,A,3245.6104,N,11711.9227,W,43.726,258.698,080810,0,W,A*16
$GPRMC,092704.43,A,3245.6030,N,11711.9653,W,43.934,258.640,080810,0,W,A*1A
$GPRMC,092707.43,A,3245.5964,N,11712.0081,W,44.446,260.952,080810,0,W,A*19
$GPRMC,092710.43,A,3245.5913,N,11712.0514,W,44.394,263.902,080810,0,W,A*18
$GPRMC,092713.43,A,3245.5887,N,11712.0931,W,40.306,267.663,080810,0,W,A*1F
$GPRMC,092716.43,A,3245.5883,N,11712.1296,W,36.458,271.320,080810,0,W,A*11
$GPRMC,092719.43,A,3245.5927,N,11712.1639,W,34.767,286.540,080810,0,W,A*15
$GPRMC,092722.43,A,3245.6045,N,11712.1953,W,35.504,298.854,080810,0,W,A*11
$GPRMC,092725.43,A,3245.6251,N,11712.2237,W,39.171,318.450,080810,0,W,A*10
$GPRMC,092728.43,A,3245.6537,N,11712.2448,W,40.050,336.708,080810,0,W,A*1A
$GPRMC,092731.43,A,3245.6868,N,11712.2565,W,41.430,345.264,080810,0,W,A*13
$GPRMC,092734.43,A,3245.7231,N,11712.2662,W,45.661,346.585,080810,0,W,A*1C
$GPRMC,092737.43,A,3245.7616,N,11712.2766,W,48.243,346.574,080810,0,W,A*1C
$GPRMC,092740.43,A,3245.8023,N,11712.2878,W,49.359,346.423,080810,0,W,A*1B
$GPRMC,092743.43,A,3245.8430,N,11712.2980,W,48.630,347.617,080810,0,W,A*17
$GPRMC,092746.43,A,3245.8836,N,11712.3077,W,49.288,348.005,080810,0,W,A*14
$GPRMC,092749.43,A,3245.9239,N,11712.3180,W,48.027,347.157,080810,0,W,A*19
$GPRMC,092752.43,A,3245.9630,N,11712.3282,W,47.915,348.195,080810,0,W,A*19
$GPRMC,092755.43,A,3246.0030,N,11712.3380,W,48.685,347.523,080810,0,W,A*1E
$GPRMC,092758.43,A,3246.0433,N,11712.3483,W,49.535,347.985,080810,0,W,A*19
$GPRMC,092801.43,A,3246.0840,N,11712.3582,W,49.619,348.052,080810,0,W,A*13
$GPRMC,092804.43,A,3246.1252,N,11712.3684,W,50.468,347.909,080810,0,W,A*1F
$GPRMC,092807.43,A,3246.1670,N,11712.3791,W,51.559,347.827,080810,0,W,A*12
$GPRMC,092810.43,A,3246.2095,N,11712.3896,W,52.505,348.230,080810,0,W,A*1B
$GPRMC,092813.43,A,3246.2522,N,11712.4006,W,51.547,347.974,080810,0,W,A*16
$GPRMC,092816.43,A,3246.2943,N,11712.4113,W,51.196,347.946,080810,0,W,A*14
$GPRMC,092819.43,A,3246.3361,N,11712.4224,W,50.613,347.565,080810,0,W,A*11
$GPRMC,092822.43,A,3246.3780,N,11712.4333,W,51.594,347.941,080810,0,W,A*12
$GPRMC,092825.43,A,3246.4206,N,11712.4444,W,52.414,347.667,080810,0,W,A*1F
$GPRMC,092828.43,A,3246.4632,N,11712.4554,W,51.328,347.903,080810,0,W,A*17
$GPRMC,092831.43,A,3246.5050,N,11712.4661,W,50.604,347.994,080810,0,W,A*1D
$GPRMC,092834.43,A,3246.5467,N,11712.4764,W,51.450,347.982,080810,0,W,A*19
$GPRMC,092837.43,A,3246.5891,N,11712.4874,W,51.838,347.320,080810,0,W,A*11
$GPRMC,092840.43,A,3246.6315,N,11712.4977,W,51.846,349.699,080810,0,W,A*17
$GPRMC,092843.43,A,3246.6749,N,11712.5041,W,52.571,354.785,080810,0,W,A*1E
$GPRMC,092846.43,A,3246.7190,N,11712.5049,W,52.304,1.831,080810,0,W,A*17
$GPRMC,092849.43,A,3246.7631,N,11712.5004,W,52.328,6.690,080810,0,W,A*11
$GPRMC,092852.43,A,3246.8065,N,11712.4929,W,51.090,8.410,080810,0,W,A*13
$GPRMC,092855.43,A,3246.8491,N,11712.4852,W,50.970,8.528,080810,0,W,A*1A
$GPRMC,092858.43,A,3246.8912,N,11712.4774,W,49.969,8.539,080810,0,W,A*1A
$GPRMC,092901.43,A,3246.9320,N,11712.4696,W,49.062,8.959,080810,0,W,A*18
$GPRMC,092904.43,A,3246.9719,N,11712.4620,W,47.923,8.611,080810,0,W,A*1F
$GPRMC,092907.43,A,3247.0118,N,11712.4548,W,48.084,8.760,080810,0,W,A*12
$GPRMC,092910.43,A,3247.0515,N,11712.4476,W,48.093,8.599,080810,0,W,A*13
$GPRMC,092913.43,A,3247.0909,N,11712.4405,W,47.490,8.656,080810,0,W,A*1D
$GPRMC,092916.43,A,3247.1297,N,11712.4337,W,46.886,8.669,080810,0,W,A*15
$GPRMC,092919.43,A,3247.1680,N,11712.4267,W,45.734,8.675,080810,0,W,A*14
$GPRMC,092922.43,A,3247.2055,N,11712.4203,W,44.482,7.939,080810,0,W,A*14
$GPRMC,092925.43,A,3247.2410,N,11712.4143,W,41.690,9.743,080810,0,W,A*18
$GPRMC,092928.43,A,3247.2749,N,11712.4071,W,40.869,10.221,080810,0,W,A*2A
$GPRMC,092931.43,A,3247.3082,N,11712.4003,W,38.722,8.328,080810,0,W,A*18
$GPRMC,092934.43,A,3247.3391,N,11712.3978,W,35.401,0.385,080810,0,W,A*1E
$GPRMC,092937.43,A,3247.3665,N,11712.3975,W,31.197,0.942,080810,0,W,A*11
$GPRMC,092940.43,A,3247.3906,N,11712.3971,W,26.690,0.401,080810,0,W,A*13
$GPRMC,092943.43,A,3247.4098,N,11712.3971,W,20.464,0.464,080810,0,W,A*15
$GPRMC,092946.43,A,3247.4225,N,11712.3972,W,10.408,359.544,080810,0,W,A*12
$GPRMC,092955.43,A,3247.4292,N,11712.3977,W,6.268,358.960,080810,0,W,A*25
$GPRMC,092958.43,A,3247.4351,N,11712.3955,W,8.507,38.612,080810,0,W,A*19
$GPRMC,093001.43,A,3247.4382,N,11712.3897,W,8.281,65.631,080810,0,W,A*1C
$GPRMC,093004.43,A,3247.4399,N,11712.3782,W,14.910,87.569,080810,0,W,A*24
$GPRMC,093007.43,A,3247.4403,N,11712.3607,W,19.496,89.320,080810,0,W,A*24
$GPRMC,093010.43,A,3247.4402,N,11712.3400,W,21.080,91.708,080810,0,W,A*29
$GPRMC,093013.43,A,3247.4394,N,11712.3191,W,20.450,93.343,080810,0,W,A*2E
$GPRMC,093016.43,A,3247.4375,N,11712.2989,W,20.409,98.829,080810,0,W,A*24
$GPRMC,093019.43,A,3247.4341,N,11712.2788,W,20.625,100.436,080810,0,W,A*1D
$GPRMC,093022.43,A,3247.4310,N,11712.2586,W,21.372,97.923,080810,0,W,A*2D
$GPRMC,093025.43,A,3247.4287,N,11712.2372,W,21.699,97.140,080810,0,W,A*25
$GPRMC,093028.43,A,3247.4262,N,11712.2185,W,15.215,99.196,080810,0,W,A*2B
$GPRMC,093031.43,A,3247.4234,N,11712.2068,W,10.543,113.215,080810,0,W,A*18
$GPRMC,093034.43,A,3247.4167,N,11712.2011,W,11.200,174.375,080810,0,W,A*11
$GPRMC,093037.43,A,3247.4072,N,11712.2031,W,10.845,191.561,080810,0,W,A*17
$GPRMC,093040.43,A,3247.3969,N,11712.2059,W,12.602,188.119,080810,0,W,A*11
$GPRMC,093043.43,A,3247.3858,N,11712.2075,W,13.550,188.001,080810,0,W,A*12
$GPRMC,093046.43,A,3247.3738,N,11712.2103,W,14.892,191.132,080810,0,W,A*13
$GPRMC,093049.43,A,3247.3645,N,11712.2122,W,6.658,191.570,080810,0,W,A*2D
$GPRMC,093052.43,A,3247.3617,N,11712.2153,W,6.756,238.165,080810,0,W,A*29
$GPRMC,093055.43,A,3247.3605,N,11712.2230,W,8.717,275.211,080810,0,W,A*29
$GPRMC,093058.43,A,3247.3620,N,11712.2341,W,14.390,278.873,080810,0,W,A*11
$GPRMC,093101.43,A,3247.3640,N,11712.2511,W,18.115,278.769,080810,0,W,A*1E
$GPRMC,093104.43,A,3247.3662,N,11712.2689,W,17.087,278.863,080810,0,W,A*19
$GPRMC,093107.43,A,3247.3682,N,11712.2837,W,12.419,280.787,080810,0,W,A*1B
$GPRMC,093110.43,A,3247.3698,N,11712.2954,W,11.386,279.661,080810,0,W,A*1F
$GPRMC,093113.43,A,3247.3707,N,11712.3058,W,9.796,275.683,080810,0,W,A*23
$GPRMC,093116.43,A,3247.3709,N,11712.3131,W,6.144,273.764,080810,0,W,A*2E
$GPRMC,093119.43,A,3247.3713,N,11712.3209,W,10.025,275.059,080810,0,W,A*1C
$GPRMC,093122.43,A,3247.3722,N,11712.3316,W,10.451,279.617,080810,0,W,A*1E
$GPRMC,093125.43,A,3247.3737,N,11712.3405,W,8.913,288.708,080810,0,W,A*2B
$GPRMC,093131.43,A,3247.3807,N,11712.3500,W,10.614,333.565,080810,0,W,A*1F
$GPRMC,093134.43,A,3247.3923,N,11712.3533,W,17.099,352.994,080810,0,W,A*1C
$GPRMC,093137.43,A,3247.4097,N,11712.3554,W,24.167,352.264,080810,0,W,A*1B
$GPRMC,093140.43,A,3247.4318,N,11712.3582,W,27.451,353.736,080810,0,W,A*14
$GPRMC,093143.43,A,3247.4567,N,11712.3640,W,30.789,352.263,080810,0,W,A*10
$GPRMC,093146.43,A,3247.4830,N,11712.3681,W,31.493,350.828,080810,0,W,A*19
$GPRMC,093149.43,A,3247.5059,N,11712.3726,W,23.140,348.579,080810,0,W,A*14
$GPRMC,093152.43,A,3247.5244,N,11712.3773,W,23.245,347.504,080810,0,W,A*13
$GPRMC,093155.43,A,3247.5446,N,11712.3833,W,25.887,343.804,080810,0,W,A*10
$GPRMC,093158.43,A,3247.5664,N,11712.3917,W,28.307,342.866,080810,0,W,A*13
$GPRMC,093201.43,A,3247.5896,N,11712.4005,W,29.250,340.922,080810,0,W,A*13
$GPRMC,093204.43,A,3247.6133,N,11712.4111,W,30.455,337.608,080810,0,W,A*1B
$GPRMC,093207.43,A,3247.6371,N,11712.4228,W,31.238,337.820,080810,0,W,A*1D
$GPRMC,093210.43,A,3247.6621,N,11712.4343,W,32.351,338.900,080810,0,W,A*16
$GPRMC,093213.43,A,3247.6891,N,11712.4465,W,35.737,339.067,080810,0,W,A*19
$GPRMC,093216.43,A,3247.7190,N,11712.4590,W,39.416,340.512,080810,0,W,A*1B
$GPRMC,093219.43,A,3247.7514,N,11712.4723,W,41.795,340.064,080810,0,W,A*15
$GPRMC,093222.43,A,3247.7846,N,11712.4877,W,42.369,337.422,080810,0,W,A*1B
$GPRMC,093225.43,A,3247.8173,N,11712.5053,W,41.855,334.406,080810,0,W,A*11
$GPRMC,093228.43,A,3247.8481,N,11712.5243,W,39.765,331.465,080810,0,W,A*14
$GPRMC,093231.43,A,3247.8778,N,11712.5426,W,39.447,332.451,080810,0,W,A*1B
$GPRMC,093234.43,A,3247.9068,N,11712.5602,W,39.014,332.006,080810,0,W,A*19
$GPRMC,093237.43,A,3247.9350,N,11712.5782,W,37.798,332.230,080810,0,W,A*11
$GPRMC,093240.43,A,3247.9623,N,11712.5955,W,35.963,331.457,080810,0,W,A*18
$GPRMC,093243.43,A,3247.9874,N,11712.6114,W,33.023,332.223,080810,0,W,A*14
$GPRMC,093246.43,A,3248.0120,N,11712.6262,W,33.812,332.741,080810,0,W,A*16
$GPRMC,093249.43,A,3248.0367,N,11712.6409,W,31.587,333.079,080810,0,W,A*1D
$GPRMC,093252.43,A,3248.0606,N,11712.6556,W,33.459,331.962,080810,0,W,A*1F
$GPRMC,093255.43,A,3248.0872,N,11712.6722,W,36.800,332.063,080810,0,W,A*1A
$GPRMC,093258.43,A,3248.1151,N,11712.6893,W,37.842,332.778,080810,0,W,A*11
$GPRMC,093301.43,A,3248.1430,N,11712.7066,W,36.899,333.255,080810,0,W,A*11
$GPRMC,093304.43,A,3248.1701,N,11712.7229,W,35.744,331.980,080810,0,W,A*11
$GPRMC,093307.43,A,3248.1962,N,11712.7394,W,34.603,332.263,080810,0,W,A*18
$GPRMC,093310.43,A,3248.2215,N,11712.7543,W,33.258,333.490,080810,0,W,A*1C
$GPRMC,093313.43,A,3248.2461,N,11712.7695,W,33.141,331.455,080810,0,W,A*12
$GPRMC,093316.43,A,3248.2714,N,11712.7840,W,33.671,338.207,080810,0,W,A*1C
$GPRMC,093319.43,A,3248.2978,N,11712.7931,W,32.594,348.807,080810,0,W,A*14
$GPRMC,093322.43,A,3248.3252,N,11712.7945,W,31.233,0.073,080810,0,W,A*10
$GPRMC,093325.43,A,3248.3480,N,11712.7927,W,24.165,7.068,080810,0,W,A*13
$GPRMC,093328.43,A,3248.3656,N,11712.7846,W,21.117,31.166,080810,0,W,A*2B
$GPRMC,093331.43,A,3248.3777,N,11712.7708,W,19.893,50.949,080810,0,W,A*28
$GPRMC,093334.43,A,3248.3906,N,11712.7565,W,22.460,28.313,080810,0,W,A*2E
$GPRMC,093337.43,A,3248.4100,N,11712.7494,W,24.609,6.025,080810,0,W,A*1A
$GPRMC,093340.43,A,3248.4282,N,11712.7511,W,19.466,347.724,080810,0,W,A*1A
$GPRMC,093343.43,A,3248.4400,N,11712.7520,W,10.981,24.983,080810,0,W,A*2F
$GPRMC,093346.43,A,3248.4464,N,11712.7422,W,15.855,68.340,080810,0,W,A*2B
$GPRMC,093349.43,A,3248.4504,N,11712.7242,W,21.361,74.738,080810,0,W,A*2E
$GPRMC,093352.43,A,3248.4554,N,11712.7018,W,24.154,74.455,080810,0,W,A*25
$GPRMC,093355.43,A,3248.4615,N,11712.6767,W,27.652,71.482,080810,0,W,A*27
$GPRMC,093358.43,A,3248.4684,N,11712.6489,W,29.421,75.892,080810,0,W,A*20
$GPRMC,093401.43,A,3248.4742,N,11712.6197,W,29.816,76.543,080810,0,W,A*20
$GPRMC,093404.43,A,3248.4802,N,11712.5905,W,30.622,74.606,080810,0,W,A*2F
$GPRMC,093407.43,A,3248.4883,N,11712.5610,W,31.846,67.404,080810,0,W,A*21
$GPRMC,093410.43,A,3248.5000,N,11712.5321,W,32.593,63.783,080810,0,W,A*2C
$GPRMC,093413.43,A,3248.5130,N,11712.5024,W,34.234,59.869,080810,0,W,A*25
$GPRMC,093416.43,A,3248.5296,N,11712.4735,W,35.693,52.496,080810,0,W,A*26
$GPRMC,093419.43,A,3248.5489,N,11712.4451,W,37.065,51.923,080810,0,W,A*2D
$GPRMC,093422.43,A,3248.5685,N,11712.4159,W,36.690,51.386,080810,0,W,A*2E
$GPRMC,093425.43,A,3248.5877,N,11712.3879,W,35.874,50.409,080810,0,W,A*20
$GPRMC,093428.43,A,3248.6066,N,11712.3606,W,34.711,50.995,080810,0,W,A*25
$GPRMC,093431.43,A,3248.6246,N,11712.3340,W,34.269,51.733,080810,0,W,A*23
$GPRMC,093434.43,A,3248.6428,N,11712.3077,W,34.080,51.034,080810,0,W,A*2A
$GPRMC,093437.43,A,3248.6603,N,11712.2815,W,32.943,52.534,080810,0,W,A*29
$GPRMC,093440.43,A,3248.6757,N,11712.2551,W,31.846,59.163,080810,0,W,A*2E
$GPRMC,093443.43,A,3248.6880,N,11712.2280,W,31.565,65.400,080810,0,W,A*20
$GPRMC,093446.43,A,3248.6976,N,11712.1984,W,32.441,72.335,080810,0,W,A*22
$GPRMC,093449.43,A,3248.7032,N,11712.1688,W,28.574,82.088,080810,0,W,A*20
$GPRMC,093452.43,A,3248.7049,N,11712.1425,W,24.938,87.490,080810,0,W,A*23
$GPRMC,093455.43,A,3248.7053,N,11712.1203,W,21.140,85.368,080810,0,W,A*2D
$GPRMC,093458.43,A,3248.7065,N,11712.1014,W,19.063,87.766,080810,0,W,A*22
$GPRMC,093501.43,A,3248.7071,N,11712.0846,W,15.790,90.237,080810,0,W,A*24
$GPRMC,093504.43,A,3248.7072,N,11712.0730,W,7.583,93.359,080810,0,W,A*15
$GPRMC,093534.43,A,3248.7078,N,11712.0628,W,10.319,59.040,080810,0,W,A*2A
$GPRMC,093537.43,A,3248.7157,N,11712.0563,W,12.731,16.003,080810,0,W,A*29
$GPRMC,093540.43,A,3248.7293,N,11712.0556,W,19.800,1.393,080810,0,W,A*1E
$GPRMC,093543.43,A,3248.7481,N,11712.0559,W,22.983,0.390,080810,0,W,A*17
$GPRMC,093546.43,A,3248.7627,N,11712.0565,W,9.313,349.244,080810,0,W,A*2F
$GPRMC,093549.43,A,3248.7651,N,11712.0612,W,7.084,248.706,080810,0,W,A*22
$GPRMC,093552.43,A,3248.7580,N,11712.0641,W,12.953,181.727,080810,0,W,A*13
$GPRMC,093555.43,A,3248.7437,N,11712.0651,W,20.286,182.725,080810,0,W,A*1B
$GPRMC,093558.43,A,3248.7262,N,11712.0662,W,19.060,182.306,080810,0,W,A*15
$GPRMC,093601.43,A,3248.7146,N,11712.0672,W,6.118,192.199,080810,0,W,A*2B
$GPRMC,093610.43,A,3248.7109,N,11712.0699,W,8.241,225.809,080810,0,W,A*2B
$GPRMC,093613.43,A,3248.7088,N,11712.0817,W,16.413,272.613,080810,0,W,A*11
$GPRMC,093616.43,A,3248.7093,N,11712.1023,W,24.042,269.467,080810,0,W,A*1A
$GPRMC,093619.43,A,3248.7087,N,11712.1294,W,29.080,268.448,080810,0,W,A*11
$GPRMC,093622.43,A,3248.7074,N,11712.1608,W,32.540,263.029,080810,0,W,A*1F
$GPRMC,093625.43,A,3248.7021,N,11712.1945,W,36.059,256.347,080810,0,W,A*1A
$GPRMC,093628.43,A,3248.6920,N,11712.2306,W,39.293,246.537,080810,0,W,A*1B
$GPRMC,093631.43,A,3248.6759,N,11712.2656,W,40.429,237.563,080810,0,W,A*1D
$GPRMC,093634.43,A,3248.6550,N,11712.2993,W,41.888,231.647,080810,0,W,A*10
$GPRMC,093637.43,A,3248.6325,N,11712.3328,W,42.688,231.272,080810,0,W,A*13
$GPRMC,093640.43,A,3248.6097,N,11712.3660,W,42.252,231.237,080810,0,W,A*12
$GPRMC,093643.43,A,3248.5881,N,11712.3982,W,39.605,231.418,080810,0,W,A*1F
$GPRMC,093646.43,A,3248.5672,N,11712.4288,W,38.726,231.139,080810,0,W,A*19
$GPRMC,093649.43,A,3248.5476,N,11712.4573,W,36.002,231.079,080810,0,W,A*19
$GPRMC,093652.43,A,3248.5292,N,11712.4858,W,36.936,234.020,080810,0,W,A*1C
$GPRMC,093655.43,A,3248.5116,N,11712.5178,W,40.228,240.174,080810,0,W,A*18
$GPRMC,093658.43,A,3248.4967,N,11712.5550,W,42.105,248.990,080810,0,W,A*10
$GPRMC,093701.43,A,3248.4872,N,11712.5951,W,40.608,256.174,080810,0,W,A*10
$GPRMC,093704.43,A,3248.4794,N,11712.6337,W,39.988,255.738,080810,0,W,A*1F
$GPRMC,093707.43,A,3248.4708,N,11712.6715,W,39.489,254.283,080810,0,W,A*15
$GPRMC,093710.43,A,3248.4622,N,11712.7086,W,39.082,254.651,080810,0,W,A*12
$GPRMC,093713.43,A,3248.4538,N,11712.7465,W,39.614,255.426,080810,0,W,A*1A
$GPRMC,093716.43,A,3248.4458,N,11712.7848,W,39.927,255.687,080810,0,W,A*1D
$GPRMC,093719.43,A,3248.4375,N,11712.8233,W,40.700,254.838,080810,0,W,A*1D
$GPRMC,093722.43,A,3248.4285,N,11712.8622,W,41.381,254.454,080810,0,W,A*15
$GPRMC,093725.43,A,3248.4197,N,11712.9014,W,39.837,255.594,080810,0,W,A*15
$GPRMC,093728.43,A,3248.4116,N,11712.9375,W,36.689,254.667,080810,0,W,A*1F
$GPRMC,093731.43,A,3248.4031,N,11712.9711,W,34.507,254.277,080810,0,W,A*17
$GPRMC,093734.43,A,3248.3960,N,11713.0025,W,32.358,255.428,080810,0,W,A*17
$GPRMC,093737.43,A,3248.3898,N,11713.0327,W,30.877,255.706,080810,0,W,A*18
$GPRMC,093740.43,A,3248.3836,N,11713.0616,W,29.683,255.060,080810,0,W,A*11
$GPRMC,093743.43,A,3248.3776,N,11713.0893,W,28.146,255.081,080810,0,W,A*1A
$GPRMC,093746.43,A,3248.3722,N,11713.1143,W,24.375,255.963,080810,0,W,A*10
$GPRMC,093749.43,A,3248.3676,N,11713.1372,W,24.760,257.626,080810,0,W,A*13
$GPRMC,093752.43,A,3248.3630,N,11713.1619,W,26.394,256.189,080810,0,W,A*1D
$GPRMC,093755.43,A,3248.3581,N,11713.1870,W,26.101,255.934,080810,0,W,A*11
$GPRMC,093758.43,A,3248.3532,N,11713.2116,W,25.761,255.469,080810,0,W,A*18
$GPRMC,093801.43,A,3248.3484,N,11713.2358,W,24.195,255.878,080810,0,W,A*1F
$GPRMC,093804.43,A,3248.3436,N,11713.2573,W,21.997,254.526,080810,0,W,A*14
$GPRMC,093807.43,A,3248.3390,N,11713.2795,W,24.955,256.695,080810,0,W,A*14
$GPRMC,093810.43,A,3248.3341,N,11713.3047,W,27.605,255.331,080810,0,W,A*16
$GPRMC,093813.43,A,3248.3278,N,11713.3327,W,30.328,253.767,080810,0,W,A*16
$GPRMC,093816.43,A,3248.3200,N,11713.3631,W,31.884,252.872,080810,0,W,A*18
$GPRMC,093819.43,A,3248.3124,N,11713.3928,W,30.885,252.667,080810,0,W,A*1F
$GPRMC,093822.43,A,3248.3043,N,11713.4217,W,32.127,248.818,080810,0,W,A*19
$GPRMC,093825.43,A,3248.2918,N,11713.4516,W,34.724,238.469,080810,0,W,A*10
$GPRMC,093828.43,A,3248.2733,N,11713.4812,W,39.101,229.813,080810,0,W,A*1E
$GPRMC,093831.43,A,3248.2498,N,11713.5113,W,42.725,226.627,080810,0,W,A*17
$GPRMC,093834.43,A,3248.2243,N,11713.5429,W,43.768,226.472,080810,0,W,A*14
$GPRMC,093837.43,A,3248.2004,N,11713.5728,W,37.876,227.778,080810,0,W,A*1F
$GPRMC,093840.43,A,3248.1820,N,11713.5995,W,32.353,238.131,080810,0,W,A*16
$GPRMC,093843.43,A,3248.1721,N,11713.6268,W,29.369,252.604,080810,0,W,A*1F
$GPRMC,093846.43,A,3248.1659,N,11713.6552,W,29.880,255.721,080810,0,W,A*17
$GPRMC,093849.43,A,3248.1596,N,11713.6825,W,26.598,252.027,080810,0,W,A*18
$GPRMC,093852.43,A,3248.1538,N,11713.7061,W,24.146,254.745,080810,0,W,A*1F
$GPRMC,093855.43,A,3248.1486,N,11713.7290,W,24.639,254.437,080810,0,W,A*19
$GPRMC,093858.43,A,3248.1438,N,11713.7521,W,23.175,256.290,080810,0,W,A*1D
$GPRMC,093901.43,A,3248.1388,N,11713.7745,W,23.786,256.278,080810,0,W,A*10
$GPRMC,093904.43,A,3248.1339,N,11713.7981,W,25.528,254.943,080810,0,W,A*18
$GPRMC,093907.43,A,3248.1280,N,11713.8232,W,27.387,253.930,080810,0,W,A*16
$GPRMC,093910.43,A,3248.1217,N,11713.8501,W,29.048,255.833,080810,0,W,A*13
$GPRMC,093913.43,A,3248.1156,N,11713.8786,W,29.542,255.635,080810,0,W,A*1C
$GPRMC,093916.43,A,3248.1090,N,11713.9071,W,30.086,253.381,080810,0,W,A*15
$GPRMC,093919.43,A,3248.1016,N,11713.9361,W,31.681,253.575,080810,0,W,A*1B
$GPRMC,093922.43,A,3248.0942,N,11713.9668,W,32.120,254.432,080810,0,W,A*1C
$GPRMC,093925.43,A,3248.0880,N,11713.9965,W,30.383,256.187,080810,0,W,A*16
$GPRMC,093928.43,A,3248.0820,N,11714.0259,W,30.514,254.847,080810,0,W,A*14
$GPRMC,093931.43,A,3248.0757,N,11714.0534,W,27.560,253.570,080810,0,W,A*14
$GPRMC,093934.43,A,3248.0696,N,11714.0783,W,24.861,254.141,080810,0,W,A*1D
$GPRMC,093937.43,A,3248.0650,N,11714.0989,W,17.981,255.657,080810,0,W,A*1E
$GPRMC,093940.43,A,3248.0625,N,11714.1115,W,9.093,256.126,080810,0,W,A*27
$GPRMC,094001.43,A,3248.0599,N,11714.1231,W,13.375,256.791,080810,0,W,A*17
$GPRMC,094004.43,A,3248.0564,N,11714.1396,W,20.485,255.035,080810,0,W,A*1E
$GPRMC,094007.43,A,3248.0519,N,11714.1618,W,23.874,256.072,080810,0,W,A*15
$GPRMC,094010.43,A,3248.0470,N,11714.1862,W,26.002,256.037,080810,0,W,A*13
$GPRMC,094013.43,A,3248.0414,N,11714.2118,W,26.759,254.119,080810,0,W,A*13
$GPRMC,094016.43,A,3248.0358,N,11714.2375,W,25.960,255.269,080810,0,W,A*12
$GPRMC,094019.43,A,3248.0303,N,11714.2616,W,24.659,255.204,080810,0,W,A*1C
$GPRMC,094022.43,A,3248.0249,N,11714.2862,W,26.592,255.379,080810,0,W,A*1B
$GPRMC,094025.43,A,3248.0192,N,11714.3114,W,25.165,255.018,080810,0,W,A*1B
$GPRMC,094028.43,A,3248.0141,N,11714.3340,W,23.034,255.375,080810,0,W,A*10
$GPRMC,094031.43,A,3248.0090,N,11714.3570,W,25.168,255.708,080810,0,W,A*10
$GPRMC,094034.43,A,3248.0038,N,11714.3827,W,28.100,256.038,080810,0,W,A*1C
$GPRMC,094037.43,A,3247.9985,N,11714.4088,W,25.223,255.775,080810,0,W,A*1E
$GPRMC,094040.43,A,3247.9936,N,11714.4302,W,20.597,253.848,080810,0,W,A*1D
$GPRMC,094043.43,A,3247.9892,N,11714.4501,W,21.865,254.870,080810,0,W,A*19
$GPRMC,094046.43,A,3247.9848,N,11714.4723,W,24.155,255.840,080810,0,W,A*14
$GPRMC,094049.43,A,3247.9797,N,11714.4963,W,25.813,254.793,080810,0,W,A*16
$GPRMC,094052.43,A,3247.9740,N,11714.5211,W,25.130,254.834,080810,0,W,A*13
$GPRMC,094055.43,A,3247.9688,N,11714.5437,W,21.999,254.352,080810,0,W,A*17
$GPRMC,094058.43,A,3247.9644,N,11714.5640,W,21.945,255.270,080810,0,W,A*19
$GPRMC,094101.43,A,3247.9589,N,11714.5853,W,23.567,250.936,080810,0,W,A*18
$GPRMC,094104.43,A,3247.9528,N,11714.6083,W,24.391,254.903,080810,0,W,A*1A
$GPRMC,094107.43,A,3247.9477,N,11714.6309,W,21.938,254.746,080810,0,W,A*10
$GPRMC,094110.43,A,3247.9433,N,11714.6507,W,17.959,256.813,080810,0,W,A*11
$GPRMC,094113.43,A,3247.9403,N,11714.6643,W,10.203,254.688,080810,0,W,A*1F
$GPRMC,094119.43,A,3247.9374,N,11714.6765,W,12.216,260.015,080810,0,W,A*14
$GPRMC,094122.43,A,3247.9345,N,11714.6907,W,18.257,250.850,080810,0,W,A*11
$GPRMC,094125.43,A,3247.9295,N,11714.7097,W,21.121,253.079,080810,0,W,A*13
$GPRMC,094128.43,A,3247.9252,N,11714.7303,W,21.045,258.106,080810,0,W,A*1A
$GPRMC,094131.43,A,3247.9215,N,11714.7497,W,19.659,254.285,080810,0,W,A*1F
$GPRMC,094134.43,A,3247.9172,N,11714.7678,W,17.452,254.690,080810,0,W,A*1C
$GPRMC,094137.43,A,3247.9152,N,11714.7785,W,4.747,260.299,080810,0,W,A*21
$GPRMC,094140.43,A,3247.9148,N,11714.7860,W,12.312,264.224,080810,0,W,A*1F
$GPRMC,094143.43,A,3247.9122,N,11714.8017,W,19.670,255.824,080810,0,W,A*15
$GPRMC,094146.43,A,3247.9080,N,11714.8229,W,23.394,255.527,080810,0,W,A*1E
$GPRMC,094149.43,A,3247.9032,N,11714.8452,W,22.938,254.712,080810,0,W,A*1A
$GPRMC,094152.43,A,3247.8984,N,11714.8662,W,19.070,253.966,080810,0,W,A*13
$GPRMC,094155.43,A,3247.8948,N,11714.8801,W,12.052,251.051,080810,0,W,A*1B
$GPRMC,094158.43,A,3247.8916,N,11714.8893,W,8.115,243.569,080810,0,W,A*22
$GPRMC,094201.43,A,3247.8864,N,11714.8925,W,8.636,182.337,080810,0,W,A*20
$GPRMC,094204.43,A,3247.8777,N,11714.8901,W,13.491,163.281,080810,0,W,A*18
$GPRMC,094207.43,A,3247.8650,N,11714.8851,W,16.277,163.796,080810,0,W,A*13
$GPRMC,094210.43,A,3247.8532,N,11714.8811,W,13.558,166.263,080810,0,W,A*13
$GPRMC,094213.43,A,3247.8435,N,11714.8781,W,9.413,166.038,080810,0,W,A*29
$GPRMC,094219.43,A,3247.8370,N,11714.8785,W,5.240,216.604,080810,0,W,A*20
$GPRMC,094222.43,A,3247.8346,N,11714.8824,W,5.071,244.449,080810,0,W,A*25
$GPRMC,094225.43,A,3247.8329,N,11714.8879,W,6.989,255.435,080810,0,W,A*25
$GPRMC,094228.43,A,3247.8320,N,11714.8947,W,4.916,260.045,080810,0,W,A*2C
$GPRMC,094231.43,A,3247.8311,N,11714.8985,W,4.540,254.947,080810,0,W,A*2B
$GPRMC,094234.43,A,3247.8302,N,11714.9038,W,5.692,254.149,080810,0,W,A*29
$GPRMC,094237.43,A,3247.8289,N,11714.9100,W,6.411,258.834,080810,0,W,A*27
$GPRMC,094240.43,A,3247.8276,N,11714.9152,W,4.437,256.330,080810,0,W,A*27
$GPRMC,094313.43,A,3247.8280,N,11714.9173,W,5.269,83.485,080810,0,W,A*15
$GPRMC,094316.43,A,3247.8286,N,11714.9101,W,6.854,84.831,080810,0,W,A*10
$GPRMC,094319.43,A,3247.8293,N,11714.9029,W,6.774,82.906,080810,0,W,A*1E
$GPRMC,094322.43,A,3247.8297,N,11714.8966,W,6.031,87.025,080810,0,W,A*1A
