NMEA Sentence Code,UTC Time,Status,Latitude,Latitude Direction,Longitude,Longitude Direction,Speed (knots),Track Angle (degrees true),Date,MagneticVariation,Magnetic Variation Direction,[FAA Mode]-Optional,Checksum
$GPRMC,234628.9,A,3243.335753,N,11709.562014,W,8.3,181.2,230410,,,A*71
$GPRMC,234631.9,A,3243.330931,N,11709.561513,W,5.4,172.2,230410,,,A*71
$GPRMC,234646.9,A,3243.322725,N,11709.573795,W,5.4,277.1,230410,,,A*73
$GPRMC,234652.9,A,3243.323196,N,11709.581780,W,5.3,272.6,230410,,,A*75
$GPRMC,234743.9,A,3243.329357,N,11709.607336,W,9.3,353.9,230410,,,A*74
$GPRMC,234746.9,A,3243.338221,N,11709.610764,W,6.6,346.3,230410,,,A*70
$GPRMC,234801.9,A,3243.349379,N,11709.611482,W,4.7,8.7,230410,,,A*72
$GPRMC,234804.9,A,3243.353608,N,11709.604929,W,7.8,56.0,230410,,,A*47
$GPRMC,234807.9,A,3243.359212,N,11709.593192,W,11.5,64.1,230410,,,A*7E
$GPRMC,234810.9,A,3243.362522,N,11709.580291,W,11.8,64.0,230410,,,A*7A
$GPRMC,234813.9,A,3243.363094,N,11709.572399,W,5.8,70.6,230410,,,A*42
$GPRMC,234854.2,A,3243.374886,N,11709.535386,W,4.5,86.4,230410,,,A*4D
$GPRMC,234857.9,A,3243.378684,N,11709.530791,W,4.7,57.0,230410,,,A*48
$GPRMC,234903.2,A,3243.382292,N,11709.522310,W,6.5,64.1,230410,,,A*4A
$GPRMC,234906.9,A,3243.385908,N,11709.517092,W,6.2,52.7,230410,,,A*40
$GPRMC,234909.2,A,3243.387009,N,11709.512703,W,5.3,56.8,230410,,,A*4D
$GPRMC,234915.2,A,3243.388719,N,11709.503363,W,6.3,75.2,230410,,,A*43
$GPRMC,234921.9,A,3243.393164,N,11709.495110,W,5.2,58.0,230410,,,A*4E
$GPRMC,234924.9,A,3243.396457,N,11709.483822,W,13.0,68.4,230410,,,A*76
$GPRMC,234927.9,A,3243.404050,N,11709.458996,W,26.6,69.4,230410,,,A*73
$GPRMC,234930.9,A,3243.415674,N,11709.426921,W,34.1,68.9,230410,,,A*78
$GPRMC,234933.9,A,3243.425740,N,11709.390160,W,39.1,73.2,230410,,,A*75
$GPRMC,234936.9,A,3243.433832,N,11709.351062,W,36.9,78.4,230410,,,A*79
$GPRMC,234939.9,A,3243.438890,N,11709.325426,W,23.0,73.4,230410,,,A*74
$GPRMC,234942.9,A,3243.440719,N,11709.311817,W,14.6,79.3,230410,,,A*7F
$GPRMC,234945.9,A,3243.440228,N,11709.299745,W,13.7,85.2,230410,,,A*72
$GPRMC,234948.9,A,3243.442852,N,11709.282233,W,20.4,82.3,230410,,,A*71
$GPRMC,234951.9,A,3243.445948,N,11709.257274,W,25.1,84.2,230410,,,A*78
$GPRMC,234954.9,A,3243.449069,N,11709.225609,W,33.9,83.3,230410,,,A*79
$GPRMC,234957.9,A,3243.454128,N,11709.186996,W,42.0,83.6,230410,,,A*7B
$GPRMC,235000.9,A,3243.452909,N,11709.140009,W,46.8,94.1,230410,,,A*74
$GPRMC,235003.9,A,3243.443001,N,11709.091784,W,49.1,103.0,230410,,,A*41
$GPRMC,235006.9,A,3243.424756,N,11709.043565,W,53.1,116.8,230410,,,A*45
$GPRMC,235009.9,A,3243.395946,N,11709.000012,W,55.7,131.9,230410,,,A*4E
$GPRMC,235012.9,A,3243.357573,N,11708.965503,W,57.0,143.2,230410,,,A*45
$GPRMC,235015.9,A,3243.312809,N,11708.939711,W,58.5,152.7,230410,,,A*44
$GPRMC,235018.9,A,3243.265539,N,11708.917791,W,60.6,157.5,230410,,,A*4D
$GPRMC,235021.9,A,3243.218499,N,11708.897619,W,59.5,161.6,230410,,,A*41
$GPRMC,235024.9,A,3243.168637,N,11708.881011,W,60.9,166.9,230410,,,A*41
$GPRMC,235027.9,A,3243.116463,N,11708.872580,W,62.4,172.1,230410,,,A*4B
$GPRMC,235030.9,A,3243.065032,N,11708.866844,W,63.0,176.1,230410,,,A*49
$GPRMC,235033.9,A,3243.012794,N,11708.862293,W,65.2,177.8,230410,,,A*49
$GPRMC,235036.9,A,3242.955556,N,11708.865170,W,67.4,180.4,230410,,,A*42
$GPRMC,235039.9,A,3242.903236,N,11708.864812,W,63.8,179.3,230410,,,A*4A
$GPRMC,235042.9,A,3242.851861,N,11708.864206,W,61.8,179.9,230410,,,A*4F
$GPRMC,235045.9,A,3242.797016,N,11708.863498,W,65.2,179.8,230410,,,A*4C
$GPRMC,235048.9,A,3242.741013,N,11708.864376,W,67.2,179.4,230410,,,A*41
$GPRMC,235051.9,A,3242.685994,N,11708.862463,W,67.4,179.2,230410,,,A*43
$GPRMC,235054.9,A,3242.625991,N,11708.861892,W,70.3,178.7,230410,,,A*4D
$GPRMC,235057.2,A,3242.586847,N,11708.865253,W,64.3,182.9,230410,,,A*48
$GPRMC,235100.9,A,3242.517598,N,11708.865592,W,64.7,183.6,230410,,,A*47
$GPRMC,235103.9,A,3242.461515,N,11708.862563,W,66.6,179.3,230410,,,A*4B
$GPRMC,235106.9,A,3242.409255,N,11708.861058,W,62.8,179.6,230410,,,A*42
$GPRMC,235109.9,A,3242.355687,N,11708.859985,W,62.1,177.3,230410,,,A*48
$GPRMC,235112.9,A,3242.306969,N,11708.846358,W,61.0,163.8,230410,,,A*43
$GPRMC,235115.9,A,3242.260779,N,11708.820490,W,60.9,151.2,230410,,,A*4A
$GPRMC,235118.9,A,3242.223313,N,11708.779633,W,61.7,134.4,230410,,,A*4A
$GPRMC,235121.9,A,3242.188744,N,11708.733801,W,60.1,130.8,230410,,,A*4A
$GPRMC,235124.9,A,3242.157469,N,11708.688249,W,58.5,130.0,230410,,,A*41
$GPRMC,235127.9,A,3242.127245,N,11708.643204,W,57.5,129.6,230410,,,A*42
$GPRMC,235130.9,A,3242.096614,N,11708.599902,W,57.8,130.2,230410,,,A*47
$GPRMC,235133.9,A,3242.068545,N,11708.554998,W,57.1,127.6,230410,,,A*4B
$GPRMC,235136.9,A,3242.037726,N,11708.510873,W,58.3,129.1,230410,,,A*43
$GPRMC,235139.9,A,3242.004232,N,11708.462837,W,62.0,129.0,230410,,,A*43
$GPRMC,235142.9,A,3241.973394,N,11708.416321,W,61.7,130.1,230410,,,A*4A
$GPRMC,235145.9,A,3241.940132,N,11708.368275,W,61.7,130.2,230410,,,A*4E
$GPRMC,235149.2,A,3241.903470,N,11708.318964,W,59.9,130.5,230410,,,A*43
$GPRMC,235152.9,A,3241.868252,N,11708.271576,W,51.4,130.8,230410,,,A*41
$GPRMC,235155.9,A,3241.850836,N,11708.251057,W,31.9,134.0,230410,,,A*46
$GPRMC,235158.9,A,3241.839436,N,11708.231440,W,28.6,129.8,230410,,,A*4F
$GPRMC,235201.9,A,3241.823990,N,11708.207769,W,30.5,129.3,230410,,,A*46
$GPRMC,235204.9,A,3241.808622,N,11708.189358,W,21.8,131.3,230410,,,A*4B
$GPRMC,235207.9,A,3241.804665,N,11708.183734,W,7.6,126.7,230410,,,A*7B
$GPRMC,235210.9,A,3241.802111,N,11708.178905,W,8.5,128.6,230410,,,A*74
$GPRMC,235213.9,A,3241.798508,N,11708.170218,W,9.6,129.1,230410,,,A*7C
$GPRMC,235216.9,A,3241.792722,N,11708.162091,W,11.6,130.9,230410,,,A*40
$GPRMC,235219.9,A,3241.783809,N,11708.149722,W,17.9,128.2,230410,,,A*44
$GPRMC,235222.9,A,3241.771041,N,11708.133522,W,24.0,128.1,230410,,,A*40
$GPRMC,235226.2,A,3241.751809,N,11708.107889,W,32.1,128.6,230410,,,A*43
$GPRMC,235229.9,A,3241.730364,N,11708.077532,W,30.1,130.1,230410,,,A*47
$GPRMC,235232.9,A,3241.714935,N,11708.053594,W,30.2,127.5,230410,,,A*4E
$GPRMC,235235.9,A,3241.701742,N,11708.030434,W,27.2,120.6,230410,,,A*4F
$GPRMC,235238.2,A,3241.693403,N,11708.010582,W,30.1,116.3,230410,,,A*4E
$GPRMC,235241.9,A,3241.679275,N,11707.975772,W,31.6,112.2,230410,,,A*43
$GPRMC,235244.9,A,3241.672164,N,11707.951641,W,25.7,106.2,230410,,,A*48
$GPRMC,235247.9,A,3241.668334,N,11707.931892,W,18.3,101.9,230410,,,A*47
$GPRMC,235250.9,A,3241.666696,N,11707.918553,W,11.0,97.4,230410,,,A*70
$GPRMC,235253.9,A,3241.666772,N,11707.908118,W,10.6,93.2,230410,,,A*77
$GPRMC,235256.9,A,3241.665151,N,11707.898048,W,10.0,95.5,230410,,,A*7D
$GPRMC,235259.9,A,3241.665604,N,11707.887695,W,12.4,92.7,230410,,,A*7E
$GPRMC,235302.9,A,3241.665341,N,11707.872978,W,15.1,91.6,230410,,,A*73
$GPRMC,235305.9,A,3241.666973,N,11707.855608,W,18.0,80.2,230410,,,A*79
$GPRMC,235308.9,A,3241.666680,N,11707.836136,W,21.1,90.2,230410,,,A*72
$GPRMC,235311.9,A,3241.664169,N,11707.810874,W,26.6,92.4,230410,,,A*77
$GPRMC,235314.9,A,3241.667108,N,11707.779981,W,32.0,86.2,230410,,,A*7D
$GPRMC,235317.9,A,3241.666058,N,11707.744329,W,35.9,88.1,230410,,,A*7E
$GPRMC,235320.9,A,3241.667956,N,11707.703152,W,39.9,87.5,230410,,,A*76
$GPRMC,235323.9,A,3241.667988,N,11707.661257,W,41.3,88.7,230410,,,A*7D
$GPRMC,235326.9,A,3241.669692,N,11707.623532,W,41.3,88.8,230410,,,A*7F
$GPRMC,235329.9,A,3241.668085,N,11707.578637,W,43.6,93.4,230410,,,A*7B
$GPRMC,235333.2,A,3241.663322,N,11707.537499,W,35.5,96.8,230410,,,A*78
$GPRMC,235336.2,A,3241.659198,N,11707.510290,W,26.1,101.7,230410,,,A*4B
$GPRMC,235339.2,A,3241.654196,N,11707.485579,W,25.6,105.0,230410,,,A*4D
$GPRMC,235342.9,A,3241.647268,N,11707.456307,W,24.5,106.3,230410,,,A*49
$GPRMC,235345.9,A,3241.639956,N,11707.435640,W,21.9,111.8,230410,,,A*46
$GPRMC,235348.9,A,3241.632837,N,11707.417947,W,17.7,114.8,230410,,,A*40
$GPRMC,235351.9,A,3241.629123,N,11707.408856,W,9.2,115.3,230410,,,A*71
$GPRMC,235354.9,A,3241.627259,N,11707.402894,W,7.6,110.9,230410,,,A*75
$GPRMC,235357.9,A,3241.622852,N,11707.392173,W,11.1,117.8,230410,,,A*4A
$GPRMC,235400.9,A,3241.617956,N,11707.379612,W,12.9,116.2,230410,,,A*49
$GPRMC,235403.9,A,3241.611919,N,11707.372776,W,9.5,121.5,230410,,,A*7A
$GPRMC,235406.9,A,3241.607485,N,11707.361043,W,13.7,120.3,230410,,,A*4D
$GPRMC,235409.9,A,3241.600006,N,11707.347245,W,19.8,123.3,230410,,,A*4C
$GPRMC,235412.9,A,3241.589270,N,11707.325192,W,27.0,125.3,230410,,,A*49
$GPRMC,235415.9,A,3241.571703,N,11707.300965,W,32.1,130.8,230410,,,A*45
$GPRMC,235418.9,A,3241.552390,N,11707.274085,W,35.2,129.2,230410,,,A*44
$GPRMC,235421.9,A,3241.530947,N,11707.245703,W,38.1,131.2,230410,,,A*46
$GPRMC,235424.9,A,3241.512865,N,11707.221811,W,31.3,132.4,230410,,,A*42
$GPRMC,235427.9,A,3241.498908,N,11707.197049,W,30.6,127.2,230410,,,A*45
$GPRMC,235430.9,A,3241.482197,N,11707.171670,W,32.3,129.2,230410,,,A*4B
$GPRMC,235433.9,A,3241.462318,N,11707.146234,W,35.1,131.8,230410,,,A*45
$GPRMC,235436.9,A,3241.445166,N,11707.117481,W,36.6,128.5,230410,,,A*43
$GPRMC,235439.9,A,3241.424950,N,11707.090105,W,36.2,130.5,230410,,,A*4C
$GPRMC,235442.9,A,3241.403921,N,11707.065540,W,35.1,132.8,230410,,,A*43
$GPRMC,235445.9,A,3241.386780,N,11707.041378,W,32.3,130.7,230410,,,A*48
$GPRMC,235448.9,A,3241.371981,N,11707.021262,W,22.7,132.2,230410,,,A*4C
$GPRMC,235451.9,A,3241.364318,N,11707.011684,W,14.1,142.1,230410,,,A*42
$GPRMC,235512.9,A,3241.363723,N,11707.003236,W,9.9,122.8,230410,,,A*7A
$GPRMC,235515.9,A,3241.355746,N,11706.993936,W,13.2,132.7,230410,,,A*4F
$GPRMC,235518.9,A,3241.342633,N,11706.977909,W,20.8,131.5,230410,,,A*4A
$GPRMC,235521.9,A,3241.331868,N,11706.962689,W,21.1,129.8,230410,,,A*4B
$GPRMC,235524.9,A,3241.321764,N,11706.946848,W,19.3,130.1,230410,,,A*41
$GPRMC,235527.9,A,3241.311137,N,11706.936162,W,16.3,135.6,230410,,,A*4A
$GPRMC,235530.9,A,3241.304184,N,11706.921919,W,16.7,130.7,230410,,,A*42
$GPRMC,235533.9,A,3241.295274,N,11706.910220,W,16.1,130.4,230410,,,A*42
$GPRMC,235536.9,A,3241.288585,N,11706.899043,W,16.2,129.0,230410,,,A*4A
$GPRMC,235539.9,A,3241.275884,N,11706.883881,W,21.7,131.1,230410,,,A*4F
$GPRMC,235542.9,A,3241.262897,N,11706.867703,W,22.9,134.9,230410,,,A*48
$GPRMC,235545.9,A,3241.250321,N,11706.851487,W,23.2,133.6,230410,,,A*40
$GPRMC,235548.9,A,3241.233259,N,11706.837224,W,26.2,142.5,230410,,,A*49
$GPRMC,235551.9,A,3241.214089,N,11706.817871,W,28.9,140.8,230410,,,A*49
$GPRMC,235554.9,A,3241.198147,N,11706.799074,W,28.3,138.7,230410,,,A*46
$GPRMC,235557.9,A,3241.177465,N,11706.780685,W,30.9,142.7,230410,,,A*4F
$GPRMC,235600.9,A,3241.152750,N,11706.765353,W,31.5,150.3,230410,,,A*43
$GPRMC,235603.9,A,3241.132575,N,11706.749063,W,30.2,150.4,230410,,,A*4C
$GPRMC,235606.9,A,3241.109719,N,11706.738177,W,29.4,155.7,230410,,,A*43
$GPRMC,235609.9,A,3241.086028,N,11706.727089,W,30.0,158.0,230410,,,A*47
$GPRMC,235612.9,A,3241.062069,N,11706.716853,W,28.7,161.2,230410,,,A*49
$GPRMC,235615.9,A,3241.043309,N,11706.707490,W,25.8,160.4,230410,,,A*4E
$GPRMC,235618.9,A,3241.023237,N,11706.698709,W,26.8,161.2,230410,,,A*49
$GPRMC,235621.9,A,3241.002095,N,11706.690771,W,29.7,161.9,230410,,,A*46
$GPRMC,235624.9,A,3240.976318,N,11706.683254,W,30.2,163.4,230410,,,A*4C
$GPRMC,235627.9,A,3240.950651,N,11706.673952,W,29.1,162.4,230410,,,A*4B
$GPRMC,235630.9,A,3240.928241,N,11706.664233,W,29.7,161.0,230410,,,A*4C
$GPRMC,235633.9,A,3240.901160,N,11706.654729,W,33.1,163.0,230410,,,A*46
$GPRMC,235636.9,A,3240.874263,N,11706.642695,W,35.3,161.4,230410,,,A*43
$GPRMC,235639.9,A,3240.845060,N,11706.632041,W,34.1,162.3,230410,,,A*40
$GPRMC,235642.9,A,3240.819171,N,11706.623368,W,30.8,163.4,230410,,,A*47
$GPRMC,235645.9,A,3240.794596,N,11706.613539,W,31.8,161.9,230410,,,A*48
$GPRMC,235648.9,A,3240.769257,N,11706.603373,W,33.0,159.0,230410,,,A*4C
$GPRMC,235651.9,A,3240.744102,N,11706.593230,W,33.0,161.2,230410,,,A*4D
$GPRMC,235654.9,A,3240.719065,N,11706.585118,W,31.1,163.0,230410,,,A*4D
$GPRMC,235657.9,A,3240.690722,N,11706.576147,W,34.4,165.5,230410,,,A*4F
$GPRMC,235700.9,A,3240.660906,N,11706.566682,W,36.8,169.6,230410,,,A*45
$GPRMC,235703.2,A,3240.638088,N,11706.562208,W,35.8,173.0,230410,,,A*43
$GPRMC,235706.2,A,3240.606657,N,11706.560757,W,36.5,180.8,230410,,,A*48
$GPRMC,235709.2,A,3240.576617,N,11706.562886,W,38.6,185.6,230410,,,A*40
$GPRMC,235712.2,A,3240.545583,N,11706.568288,W,36.3,191.4,230410,,,A*46
$GPRMC,235715.2,A,3240.517413,N,11706.576589,W,34.8,195.4,230410,,,A*4A
$GPRMC,235718.9,A,3240.483953,N,11706.590965,W,36.4,201.8,230410,,,A*43
$GPRMC,235721.9,A,3240.452650,N,11706.607118,W,39.8,202.3,230410,,,A*4D
$GPRMC,235724.9,A,3240.421403,N,11706.623094,W,40.1,200.2,230410,,,A*4F
$GPRMC,235727.9,A,3240.388895,N,11706.638533,W,40.3,202.4,230410,,,A*4F
$GPRMC,235730.9,A,3240.356247,N,11706.655103,W,42.3,202.2,230410,,,A*47
$GPRMC,235733.9,A,3240.321927,N,11706.670174,W,43.0,197.8,230410,,,A*49
$GPRMC,235736.9,A,3240.283357,N,11706.679362,W,46.0,191.5,230410,,,A*4A
$GPRMC,235739.9,A,3240.244413,N,11706.685676,W,47.9,187.7,230410,,,A*47
$GPRMC,235742.9,A,3240.203973,N,11706.689994,W,47.4,183.3,230410,,,A*41
$GPRMC,235745.9,A,3240.165849,N,11706.689795,W,45.6,178.3,230410,,,A*46
$GPRMC,235748.9,A,3240.128726,N,11706.686294,W,45.7,175.1,230410,,,A*41
$GPRMC,235751.9,A,3240.088207,N,11706.679565,W,48.2,170.4,230410,,,A*45
$GPRMC,235754.9,A,3240.050235,N,11706.666192,W,48.9,163.5,230410,,,A*4E
$GPRMC,235757.9,A,3240.010162,N,11706.651162,W,49.4,161.2,230410,,,A*4A
$GPRMC,235800.9,A,3239.970495,N,11706.635857,W,49.7,161.4,230410,,,A*43
$GPRMC,235803.9,A,3239.934298,N,11706.618285,W,47.5,159.8,230410,,,A*4A
$GPRMC,235806.9,A,3239.895667,N,11706.603221,W,48.6,161.2,230410,,,A*48
$GPRMC,235809.9,A,3239.854884,N,11706.589663,W,49.0,162.7,230410,,,A*4B
$GPRMC,235812.9,A,3239.816465,N,11706.574294,W,50.1,161.8,230410,,,A*4F
$GPRMC,235815.9,A,3239.774924,N,11706.555979,W,51.7,159.4,230410,,,A*40
$GPRMC,235818.9,A,3239.728544,N,11706.536788,W,55.3,161.0,230410,,,A*44
$GPRMC,235821.9,A,3239.684627,N,11706.519112,W,55.1,160.5,230410,,,A*41
$GPRMC,235824.9,A,3239.641852,N,11706.503116,W,52.3,162.0,230410,,,A*4C
$GPRMC,235827.9,A,3239.603054,N,11706.486654,W,50.7,160.2,230410,,,A*4C
$GPRMC,235830.9,A,3239.559836,N,11706.468805,W,54.6,160.4,230410,,,A*43
$GPRMC,235833.9,A,3239.515828,N,11706.450857,W,56.2,160.7,230410,,,A*4E
$GPRMC,235836.9,A,3239.469837,N,11706.430408,W,56.5,159.8,230410,,,A*4D
$GPRMC,235839.9,A,3239.423836,N,11706.410711,W,58.5,159.4,230410,,,A*46
$GPRMC,235842.9,A,3239.375384,N,11706.391175,W,59.5,160.1,230410,,,A*48
$GPRMC,235845.9,A,3239.327256,N,11706.372503,W,58.9,161.4,230410,,,A*47
$GPRMC,235848.9,A,3239.283497,N,11706.353485,W,56.1,160.2,230410,,,A*43
$GPRMC,235851.9,A,3239.241838,N,11706.334911,W,54.2,159.2,230410,,,A*46
$GPRMC,235854.9,A,3239.200814,N,11706.316818,W,53.4,160.2,230410,,,A*4B
$GPRMC,235857.9,A,3239.157390,N,11706.299421,W,53.9,160.4,230410,,,A*45
$GPRMC,235900.9,A,3239.118006,N,11706.282908,W,52.2,160.9,230410,,,A*4A
$GPRMC,235903.9,A,3239.078554,N,11706.264324,W,51.4,159.8,230410,,,A*4E
$GPRMC,235906.9,A,3239.041501,N,11706.246655,W,47.9,158.2,230410,,,A*43
$GPRMC,235909.9,A,3239.006128,N,11706.231936,W,45.9,160.5,230410,,,A*44
$GPRMC,235912.9,A,3238.967886,N,11706.217214,W,48.0,162.6,230410,,,A*46
$GPRMC,235915.9,A,3238.928628,N,11706.201722,W,50.1,162.5,230410,,,A*4C
$GPRMC,235918.9,A,3238.884516,N,11706.188327,W,53.2,165.0,230410,,,A*49
$GPRMC,235921.9,A,3238.841301,N,11706.173688,W,49.5,163.9,230410,,,A*4D
$GPRMC,235924.9,A,3238.808914,N,11706.162706,W,41.6,164.1,230410,,,A*48
$GPRMC,235927.9,A,3238.776446,N,11706.151143,W,41.8,164.0,230410,,,A*4F
$GPRMC,235930.9,A,3238.745780,N,11706.142435,W,33.0,165.5,230410,,,A*4F
$GPRMC,235933.9,A,3238.724379,N,11706.135244,W,25.7,165.7,230410,,,A*4B
$GPRMC,235936.9,A,3238.707654,N,11706.130451,W,19.6,166.4,230410,,,A*4C
$GPRMC,235939.9,A,3238.695146,N,11706.125284,W,16.1,160.4,230410,,,A*49
$GPRMC,235942.9,A,3238.683712,N,11706.121912,W,15.3,164.4,230410,,,A*40
$GPRMC,235945.9,A,3238.670368,N,11706.116376,W,17.2,162.9,230410,,,A*46
$GPRMC,235948.9,A,3238.655523,N,11706.113161,W,16.8,165.7,230410,,,A*46
$GPRMC,235951.9,A,3238.643059,N,11706.108871,W,13.6,164.9,230410,,,A*47
$GPRMC,235954.9,A,3238.634603,N,11706.106156,W,11.7,171.0,230410,,,A*47
$GPRMC,235957.9,A,3238.618061,N,11706.101015,W,24.6,164.2,230410,,,A*48
$GPRMC,000003.9,A,3238.571372,N,11706.088969,W,24.1,166.1,240410,,,A*4A
$GPRMC,000006.9,A,3238.555120,N,11706.083894,W,20.7,164.3,240410,,,A*46
$GPRMC,000009.9,A,3238.538474,N,11706.076764,W,21.1,164.2,240410,,,A*4A
$GPRMC,000012.9,A,3238.522364,N,11706.069694,W,22.3,160.8,240410,,,A*42
$GPRMC,000015.9,A,3238.498011,N,11706.061634,W,28.2,163.8,240410,,,A*4E
$GPRMC,000018.9,A,3238.476671,N,11706.053252,W,26.1,160.8,240410,,,A*48
$GPRMC,000021.9,A,3238.463100,N,11706.047266,W,16.7,163.8,240410,,,A*43
$GPRMC,000024.9,A,3238.452079,N,11706.042652,W,14.3,163.3,240410,,,A*40
$GPRMC,000027.9,A,3238.440647,N,11706.037440,W,15.6,160.4,240410,,,A*48
$GPRMC,000030.9,A,3238.427040,N,11706.034292,W,15.9,165.7,240410,,,A*4D
$GPRMC,000033.9,A,3238.414210,N,11706.027703,W,16.7,159.9,240410,,,A*4A
$GPRMC,000036.9,A,3238.403494,N,11706.022266,W,15.0,160.8,240410,,,A*4F
$GPRMC,000039.9,A,3238.386271,N,11706.016575,W,22.4,161.4,240410,,,A*48
$GPRMC,000042.2,A,3238.366257,N,11706.007763,W,29.7,161.0,240410,,,A*4C
$GPRMC,000045.9,A,3238.335126,N,11705.996834,W,33.4,163.4,240410,,,A*42
$GPRMC,000048.9,A,3238.305373,N,11705.985183,W,36.2,161.7,240410,,,A*4B
$GPRMC,000051.9,A,3238.275657,N,11705.973564,W,36.4,162.0,240410,,,A*40
$GPRMC,000054.9,A,3238.248859,N,11705.963193,W,35.1,161.9,240410,,,A*4A
$GPRMC,000057.9,A,3238.215353,N,11705.952475,W,42.6,164.2,240410,,,A*46
$GPRMC,000100.9,A,3238.179187,N,11705.939659,W,45.3,164.5,240410,,,A*43
$GPRMC,000103.2,A,3238.149657,N,11705.926387,W,49.7,160.1,240410,,,A*42
$GPRMC,000106.9,A,3238.093405,N,11705.905553,W,55.4,161.5,240410,,,A*4A
$GPRMC,000109.9,A,3238.049353,N,11705.888426,W,56.1,161.4,240410,,,A*46
$GPRMC,000112.9,A,3238.005163,N,11705.870321,W,55.5,161.5,240410,,,A*44
$GPRMC,000115.9,A,3237.964696,N,11705.850954,W,51.6,159.7,240410,,,A*4B
$GPRMC,000118.9,A,3237.926018,N,11705.837704,W,47.1,163.3,240410,,,A*47
$GPRMC,000121.9,A,3237.890129,N,11705.825748,W,42.7,164.9,240410,,,A*47
$GPRMC,000124.9,A,3237.857242,N,11705.813786,W,39.2,162.9,240410,,,A*4F
$GPRMC,000127.9,A,3237.829032,N,11705.804318,W,33.5,164.5,240410,,,A*42
