NMEA Sentence Code,UTC Time,Status,Latitude,Latitude Direction,Longitude,Longitude Direction,Speed (knots),Track Angle (degrees true),Date,MagneticVariation,Magnetic Variation Direction,[FAA Mode]-Optional,Checksum
$GPRMC,225143.000,A,3252.0898,N,11713.8847,W,4.51,168.52,190310,,,A*74
$GPRMC,225146.000,A,3252.0842,N,11713.8834,W,7.96,165.75,190310,,,A*72
$GPRMC,225149.000,A,3252.0784,N,11713.8796,W,8.58,138.86,190310,,,A*76
$GPRMC,225152.000,A,3252.0746,N,11713.8719,W,10.90,105.99,190310,,,A*48
$GPRMC,225155.000,A,3252.0756,N,11713.8597,W,13.92,76.07,190310,,,A*79
$GPRMC,225158.000,A,3252.0785,N,11713.8460,W,13.62,77.31,190310,,,A*78
$GPRMC,225201.000,A,3252.0811,N,11713.8319,W,15.63,79.26,190310,,,A*73
$GPRMC,225204.000,A,3252.0840,N,11713.8155,W,17.79,80.13,190310,,,A*71
$GPRMC,225207.000,A,3252.0867,N,11713.7979,W,17.52,79.94,190310,,,A*7E
$GPRMC,225210.000,A,3252.0889,N,11713.7829,W,13.44,81.30,190310,,,A*76
$GPRMC,225213.000,A,3252.0905,N,11713.7699,W,14.40,81.44,190310,,,A*75
$GPRMC,225216.000,A,3252.0924,N,11713.7543,W,18.53,82.01,190310,,,A*7B
$GPRMC,225219.000,A,3252.0946,N,11713.7338,W,21.81,81.77,190310,,,A*7D
$GPRMC,225222.000,A,3252.0972,N,11713.7097,W,26.41,82.05,190310,,,A*79
$GPRMC,225225.000,A,3252.0994,N,11713.6832,W,25.75,85.74,190310,,,A*75
$GPRMC,225228.000,A,3252.1008,N,11713.6564,W,28.37,87.15,190310,,,A*75
$GPRMC,225231.000,A,3252.1017,N,11713.6280,W,28.17,88.36,190310,,,A*72
$GPRMC,225234.000,A,3252.1019,N,11713.6004,W,27.03,90.53,190310,,,A*77
$GPRMC,225237.000,A,3252.1019,N,11713.5755,W,22.51,90.75,190310,,,A*72
$GPRMC,225240.000,A,3252.1031,N,11713.5552,W,19.21,81.17,190310,,,A*76
$GPRMC,225243.000,A,3252.1054,N,11713.5378,W,16.84,82.80,190310,,,A*75
$GPRMC,225246.000,A,3252.1068,N,11713.5223,W,14.97,89.50,190310,,,A*76
$GPRMC,225249.000,A,3252.1071,N,11713.5099,W,9.79,88.60,190310,,,A*4C
$GPRMC,225325.000,A,3252.1104,N,11713.4941,W,12.99,63.16,190310,,,A*79
$GPRMC,225328.000,A,3252.1186,N,11713.4863,W,12.89,19.06,190310,,,A*72
$GPRMC,225331.000,A,3252.1369,N,11713.4862,W,23.03,1.23,190310,,,A*46
$GPRMC,225334.000,A,3252.1574,N,11713.4828,W,23.31,13.84,190310,,,A*78
$GPRMC,225337.000,A,3252.1746,N,11713.4759,W,19.20,21.10,190310,,,A*74
$GPRMC,225340.000,A,3252.1826,N,11713.4724,W,9.80,17.22,190310,,,A*48
$GPRMC,225419.000,A,3252.1814,N,11713.4684,W,8.07,39.61,190310,,,A*4C
$GPRMC,225422.000,A,3252.1910,N,11713.4601,W,16.94,42.08,190310,,,A*7A
$GPRMC,225425.000,A,3252.2039,N,11713.4469,W,21.01,42.99,190310,,,A*70
$GPRMC,225428.000,A,3252.2174,N,11713.4323,W,21.26,43.43,190310,,,A*7F
$GPRMC,225431.000,A,3252.2305,N,11713.4204,W,16.24,32.84,190310,,,A*7C
$GPRMC,225434.000,A,3252.2380,N,11713.4151,W,7.74,25.56,190310,,,A*4B
$GPRMC,225513.000,A,3252.2425,N,11713.4118,W,6.90,62.67,190310,,,A*40
$GPRMC,225516.000,A,3252.2418,N,11713.4014,W,14.77,103.84,190310,,,A*47
$GPRMC,225519.000,A,3252.2341,N,11713.3833,W,24.50,116.62,190310,,,A*43
$GPRMC,225522.000,A,3252.2258,N,11713.3578,W,28.77,106.30,190310,,,A*4F
$GPRMC,225525.000,A,3252.2184,N,11713.3274,W,33.40,101.57,190310,,,A*49
$GPRMC,225528.000,A,3252.2158,N,11713.2916,W,37.20,92.56,190310,,,A*73
$GPRMC,225531.000,A,3252.2170,N,11713.2534,W,38.14,85.03,190310,,,A*73
$GPRMC,225534.000,A,3252.2263,N,11713.2152,W,38.83,70.96,190310,,,A*7B
$GPRMC,225537.000,A,3252.2407,N,11713.1806,W,36.57,61.62,190310,,,A*7B
$GPRMC,225540.000,A,3252.2559,N,11713.1512,W,30.18,58.98,190310,,,A*7B
$GPRMC,225543.000,A,3252.2653,N,11713.1325,W,14.56,58.74,190310,,,A*7D
$GPRMC,225628.000,A,3252.2704,N,11713.1152,W,14.48,69.28,190310,,,A*76
$GPRMC,225631.000,A,3252.2791,N,11713.0984,W,21.49,60.84,190310,,,A*78
$GPRMC,225634.000,A,3252.2900,N,11713.0765,W,26.96,60.75,190310,,,A*71
$GPRMC,225637.000,A,3252.2997,N,11713.0497,W,31.57,73.24,190310,,,A*7F
$GPRMC,225640.000,A,3252.3073,N,11713.0163,W,36.77,75.53,190310,,,A*70
$GPRMC,225643.000,A,3252.3153,N,11712.9801,W,36.96,75.64,190310,,,A*7E
$GPRMC,225646.000,A,3252.3232,N,11712.9450,W,35.06,75.14,190310,,,A*7A
$GPRMC,225649.000,A,3252.3294,N,11712.9164,W,23.84,77.33,190310,,,A*71
$GPRMC,225652.000,A,3252.3332,N,11712.8994,W,11.31,76.27,190310,,,A*7B
$GPRMC,225701.000,A,3252.3354,N,11712.8878,W,10.23,74.00,190310,,,A*7A
$GPRMC,225704.000,A,3252.3383,N,11712.8745,W,15.33,76.77,190310,,,A*72
$GPRMC,225707.000,A,3252.3420,N,11712.8589,W,18.16,75.46,190310,,,A*76
$GPRMC,225710.000,A,3252.3459,N,11712.8429,W,13.56,75.34,190310,,,A*7F
$GPRMC,225713.000,A,3252.3481,N,11712.8332,W,8.17,76.14,190310,,,A*4A
$GPRMC,225716.000,A,3252.3500,N,11712.8255,W,9.31,74.53,190310,,,A*43
$GPRMC,225719.000,A,3252.3529,N,11712.8150,W,13.12,73.47,190310,,,A*79
$GPRMC,225722.000,A,3252.3575,N,11712.7967,W,23.70,73.70,190310,,,A*78
$GPRMC,225725.000,A,3252.3639,N,11712.7727,W,26.95,71.49,190310,,,A*78
$GPRMC,225728.000,A,3252.3714,N,11712.7459,W,29.47,72.07,190310,,,A*78
$GPRMC,225731.000,A,3252.3790,N,11712.7175,W,30.33,71.98,190310,,,A*79
$GPRMC,225734.000,A,3252.3866,N,11712.6900,W,27.92,71.01,190310,,,A*7C
$GPRMC,225737.000,A,3252.3939,N,11712.6639,W,27.29,71.69,190310,,,A*7F
$GPRMC,225740.000,A,3252.4006,N,11712.6400,W,22.89,72.47,190310,,,A*75
$GPRMC,225743.000,A,3252.4052,N,11712.6236,W,11.98,72.11,190310,,,A*77
$GPRMC,225752.000,A,3252.4088,N,11712.6121,W,7.62,72.15,190310,,,A*43
$GPRMC,225755.000,A,3252.4120,N,11712.6006,W,16.75,70.93,190310,,,A*79
$GPRMC,225758.000,A,3252.4170,N,11712.5811,W,23.48,74.82,190310,,,A*70
$GPRMC,225801.000,A,3252.4220,N,11712.5560,W,29.27,79.26,190310,,,A*7E
$GPRMC,225804.000,A,3252.4260,N,11712.5281,W,24.69,80.15,190310,,,A*76
$GPRMC,225807.000,A,3252.4288,N,11712.5062,W,20.76,82.27,190310,,,A*75
$GPRMC,225810.000,A,3252.4305,N,11712.4914,W,8.62,82.53,190310,,,A*42
$GPRMC,225822.000,A,3252.4303,N,11712.4849,W,4.40,88.41,190310,,,A*49
$GPRMC,225825.000,A,3252.4310,N,11712.4774,W,11.16,82.58,190310,,,A*78
$GPRMC,225828.000,A,3252.4328,N,11712.4614,W,20.27,82.59,190310,,,A*78
$GPRMC,225831.000,A,3252.4346,N,11712.4389,W,24.31,83.64,190310,,,A*75
$GPRMC,225834.000,A,3252.4376,N,11712.4127,W,29.47,81.48,190310,,,A*75
$GPRMC,225837.000,A,3252.4416,N,11712.3811,W,33.74,80.93,190310,,,A*70
$GPRMC,225840.000,A,3252.4455,N,11712.3469,W,35.26,81.85,190310,,,A*73
$GPRMC,225843.000,A,3252.4517,N,11712.3115,W,36.36,79.71,190310,,,A*77
$GPRMC,225846.000,A,3252.4576,N,11712.2755,W,37.06,79.59,190310,,,A*7E
$GPRMC,225849.000,A,3252.4633,N,11712.2385,W,38.12,79.74,190310,,,A*7F
$GPRMC,225852.000,A,3252.4686,N,11712.2022,W,34.45,80.84,190310,,,A*72
$GPRMC,225855.000,A,3252.4709,N,11712.1758,W,20.01,87.40,190310,,,A*70
$GPRMC,225858.000,A,3252.4731,N,11712.1656,W,6.74,83.25,190310,,,A*48
$GPRMC,225901.000,A,3252.4745,N,11712.1589,W,8.14,80.44,190310,,,A*4B
$GPRMC,225934.000,A,3252.4794,N,11712.1328,W,4.55,82.72,190310,,,A*42
$GPRMC,230043.000,A,3252.4734,N,11712.0861,W,4.57,112.05,190310,,,A*78
$GPRMC,230049.000,A,3252.4712,N,11712.0795,W,4.78,110.99,190310,,,A*78
$GPRMC,230052.000,A,3252.4692,N,11712.0739,W,6.29,113.24,190310,,,A*7E
$GPRMC,230055.000,A,3252.4673,N,11712.0685,W,5.55,112.94,190310,,,A*72
$GPRMC,230058.000,A,3252.4653,N,11712.0634,W,5.23,112.35,190310,,,A*7D
$GPRMC,230122.000,A,3252.4608,N,11712.0519,W,5.96,114.95,190310,,,A*71
$GPRMC,230125.000,A,3252.4583,N,11712.0454,W,7.38,112.56,190310,,,A*71
$GPRMC,230143.000,A,3252.4518,N,11712.0270,W,5.39,111.76,190310,,,A*71
$GPRMC,230146.000,A,3252.4498,N,11712.0218,W,5.84,113.37,190310,,,A*72
$GPRMC,230149.000,A,3252.4479,N,11712.0166,W,5.42,113.28,190310,,,A*7C
$GPRMC,230152.000,A,3252.4460,N,11712.0116,W,5.45,114.21,190310,,,A*70
$GPRMC,230204.000,A,3252.4409,N,11711.9982,W,4.81,113.39,190310,,,A*77
$GPRMC,230519.000,A,3252.3753,N,11711.9075,W,4.88,138.33,190310,,,A*7C
$GPRMC,230531.000,A,3252.3674,N,11711.8989,W,4.43,138.69,190310,,,A*71
$GPRMC,230549.000,A,3252.3528,N,11711.8837,W,5.51,140.22,190310,,,A*72
$GPRMC,230552.000,A,3252.3493,N,11711.8801,W,5.48,141.13,190310,,,A*77
$GPRMC,230555.000,A,3252.3459,N,11711.8769,W,4.82,140.92,190310,,,A*78
$GPRMC,230610.000,A,3252.3350,N,11711.8658,W,5.08,139.64,190310,,,A*73
$GPRMC,230613.000,A,3252.3319,N,11711.8626,W,5.65,140.54,190310,,,A*72
$GPRMC,230616.000,A,3252.3274,N,11711.8582,W,8.65,140.86,190310,,,A*72
$GPRMC,230619.000,A,3252.3216,N,11711.8527,W,8.17,140.84,190310,,,A*71
$GPRMC,230622.000,A,3252.3169,N,11711.8482,W,6.21,140.31,190310,,,A*79
$GPRMC,230625.000,A,3252.3133,N,11711.8447,W,4.76,141.03,190310,,,A*78
$GPRMC,230628.000,A,3252.3102,N,11711.8417,W,5.63,141.06,190310,,,A*72
$GPRMC,230631.000,A,3252.3065,N,11711.8382,W,5.98,140.79,190310,,,A*7C
$GPRMC,230634.000,A,3252.3019,N,11711.8332,W,8.75,134.27,190310,,,A*7F
$GPRMC,230637.000,A,3252.2972,N,11711.8276,W,7.24,134.73,190310,,,A*72
$GPRMC,230646.000,A,3252.2896,N,11711.8187,W,6.21,137.97,190310,,,A*7F
$GPRMC,230649.000,A,3252.2848,N,11711.8136,W,9.06,139.59,190310,,,A*7F
$GPRMC,230652.000,A,3252.2784,N,11711.8071,W,11.08,138.73,190310,,,A*46
$GPRMC,230655.000,A,3252.2713,N,11711.7996,W,11.69,138.75,190310,,,A*41
$GPRMC,230658.000,A,3252.2626,N,11711.7906,W,16.38,139.10,190310,,,A*43
$GPRMC,230701.000,A,3252.2510,N,11711.7788,W,19.12,139.07,190310,,,A*41
$GPRMC,230704.000,A,3252.2393,N,11711.7667,W,17.96,139.55,190310,,,A*4C
$GPRMC,230707.000,A,3252.2280,N,11711.7553,W,17.19,138.66,190310,,,A*4E
$GPRMC,230710.000,A,3252.2182,N,11711.7449,W,13.73,138.56,190310,,,A*48
$GPRMC,230713.000,A,3252.2122,N,11711.7386,W,7.20,138.56,190310,,,A*76
$GPRMC,230716.000,A,3252.2085,N,11711.7347,W,4.47,138.37,190310,,,A*77
$GPRMC,230746.000,A,3252.1940,N,11711.7193,W,5.67,139.26,190310,,,A*78
$GPRMC,230752.000,A,3252.1861,N,11711.7106,W,10.51,131.75,190310,,,A*4C
$GPRMC,230755.000,A,3252.1792,N,11711.7028,W,8.96,131.87,190310,,,A*7A
$GPRMC,230810.000,A,3252.1794,N,11711.7044,W,4.75,120.31,190310,,,A*74
$GPRMC,230813.000,A,3252.1727,N,11711.6965,W,12.19,143.48,190310,,,A*42
$GPRMC,230816.000,A,3252.1603,N,11711.6880,W,17.66,150.49,190310,,,A*44
$GPRMC,230819.000,A,3252.1481,N,11711.6737,W,18.85,140.96,190310,,,A*41
$GPRMC,230822.000,A,3252.1365,N,11711.6617,W,17.20,141.10,190310,,,A*48
$GPRMC,230825.000,A,3252.1243,N,11711.6496,W,19.42,141.20,190310,,,A*48
$GPRMC,230828.000,A,3252.1105,N,11711.6360,W,23.64,140.89,190310,,,A*45
$GPRMC,230831.000,A,3252.0928,N,11711.6189,W,29.49,141.66,190310,,,A*4B
$GPRMC,230834.000,A,3252.0721,N,11711.5991,W,33.40,141.57,190310,,,A*4B
$GPRMC,230837.000,A,3252.0495,N,11711.5769,W,36.42,138.41,190310,,,A*43
$GPRMC,230840.000,A,3252.0258,N,11711.5521,W,37.96,140.25,190310,,,A*4F
$GPRMC,230843.000,A,3252.0015,N,11711.5283,W,37.18,141.18,190310,,,A*41
$GPRMC,230846.000,A,3251.9773,N,11711.5051,W,37.46,141.03,190310,,,A*45
$GPRMC,230849.000,A,3251.9516,N,11711.4807,W,40.56,141.16,190310,,,A*44
$GPRMC,230852.000,A,3251.9240,N,11711.4545,W,43.32,141.23,190310,,,A*46
$GPRMC,230855.000,A,3251.8956,N,11711.4273,W,42.78,141.22,190310,,,A*40
$GPRMC,230858.000,A,3251.8684,N,11711.4013,W,40.29,140.95,190310,,,A*42
$GPRMC,230901.000,A,3251.8429,N,11711.3769,W,38.66,141.04,190310,,,A*4A
$GPRMC,230904.000,A,3251.8177,N,11711.3529,W,38.62,141.18,190310,,,A*4E
$GPRMC,230907.000,A,3251.7932,N,11711.3295,W,37.00,141.03,190310,,,A*4A
$GPRMC,230910.000,A,3251.7686,N,11711.3060,W,38.50,141.16,190310,,,A*4A
$GPRMC,230913.000,A,3251.7442,N,11711.2827,W,36.37,141.11,190310,,,A*41
$GPRMC,230916.000,A,3251.7213,N,11711.2608,W,34.50,141.08,190310,,,A*4E
$GPRMC,230919.000,A,3251.6978,N,11711.2384,W,37.99,140.90,190310,,,A*41
$GPRMC,230922.000,A,3251.6728,N,11711.2146,W,38.07,141.53,190310,,,A*48
$GPRMC,230925.000,A,3251.6472,N,11711.1914,W,38.70,143.80,190310,,,A*43
$GPRMC,230928.000,A,3251.6204,N,11711.1692,W,39.61,146.17,190310,,,A*42
$GPRMC,230931.000,A,3251.5921,N,11711.1475,W,41.18,147.97,190310,,,A*46
$GPRMC,230934.000,A,3251.5632,N,11711.1274,W,38.82,150.84,190310,,,A*40
$GPRMC,230937.000,A,3251.5358,N,11711.1100,W,35.86,152.45,190310,,,A*4C
$GPRMC,230940.000,A,3251.5103,N,11711.0946,W,33.29,152.87,190310,,,A*46
$GPRMC,230943.000,A,3251.4859,N,11711.0797,W,32.70,152.93,190310,,,A*48
$GPRMC,230946.000,A,3251.4624,N,11711.0655,W,31.04,152.49,190310,,,A*41
$GPRMC,230949.000,A,3251.4393,N,11711.0514,W,32.05,152.72,190310,,,A*4B
$GPRMC,230952.000,A,3251.4145,N,11711.0362,W,35.15,152.23,190310,,,A*4D
$GPRMC,230955.000,A,3251.3864,N,11711.0191,W,39.81,152.91,190310,,,A*41
$GPRMC,230958.000,A,3251.3555,N,11711.0004,W,43.47,152.69,190310,,,A*4E
$GPRMC,231001.000,A,3251.3218,N,11710.9799,W,46.32,152.96,190310,,,A*48
$GPRMC,231004.000,A,3251.2873,N,11710.9588,W,46.87,152.61,190310,,,A*4F
$GPRMC,231007.000,A,3251.2513,N,11710.9368,W,49.33,152.68,190310,,,A*46
$GPRMC,231010.000,A,3251.2136,N,11710.9137,W,52.06,152.76,190310,,,A*48
$GPRMC,231013.000,A,3251.1736,N,11710.8893,W,55.42,152.73,190310,,,A*4A
$GPRMC,231016.000,A,3251.1309,N,11710.8634,W,58.37,152.73,190310,,,A*4B
$GPRMC,231019.000,A,3251.0862,N,11710.8360,W,61.13,152.57,190310,,,A*4D
$GPRMC,231022.000,A,3251.0407,N,11710.8081,W,60.68,152.57,190310,,,A*4B
$GPRMC,231025.000,A,3250.9957,N,11710.7806,W,60.23,152.71,190310,,,A*4F
$GPRMC,231028.000,A,3250.9504,N,11710.7530,W,60.97,152.38,190310,,,A*42
$GPRMC,231031.000,A,3250.9049,N,11710.7254,W,60.54,152.63,190310,,,A*42
$GPRMC,231034.000,A,3250.8601,N,11710.6982,W,59.46,152.71,190310,,,A*47
$GPRMC,231037.000,A,3250.8155,N,11710.6709,W,60.42,152.47,190310,,,A*44
$GPRMC,231040.000,A,3250.7703,N,11710.6436,W,60.29,153.10,190310,,,A*4F
$GPRMC,231043.000,A,3250.7256,N,11710.6166,W,59.36,152.80,190310,,,A*45
$GPRMC,231046.000,A,3250.6813,N,11710.5895,W,59.33,152.39,190310,,,A*4B
$GPRMC,231049.000,A,3250.6373,N,11710.5623,W,59.18,152.46,190310,,,A*4B
$GPRMC,231052.000,A,3250.5940,N,11710.5358,W,57.18,152.67,190310,,,A*4C
$GPRMC,231055.000,A,3250.5515,N,11710.5097,W,57.33,152.52,190310,,,A*48
$GPRMC,231058.000,A,3250.5081,N,11710.4833,W,58.11,152.90,190310,,,A*4B
$GPRMC,231101.000,A,3250.4656,N,11710.4576,W,56.02,152.57,190310,,,A*40
$GPRMC,231104.000,A,3250.4241,N,11710.4322,W,55.62,152.65,190310,,,A*44
$GPRMC,231107.000,A,3250.3834,N,11710.4075,W,53.87,152.74,190310,,,A*44
$GPRMC,231110.000,A,3250.3435,N,11710.3832,W,53.57,152.62,190310,,,A*49
$GPRMC,231113.000,A,3250.3042,N,11710.3592,W,52.83,152.50,190310,,,A*40
$GPRMC,231116.000,A,3250.2649,N,11710.3350,W,53.05,152.41,190310,,,A*4E
$GPRMC,231119.000,A,3250.2262,N,11710.3114,W,51.08,152.85,190310,,,A*49
$GPRMC,231122.000,A,3250.1888,N,11710.2886,W,50.14,152.44,190310,,,A*4E
$GPRMC,231125.000,A,3250.1521,N,11710.2661,W,49.77,152.55,190310,,,A*4D
$GPRMC,231128.000,A,3250.1145,N,11710.2431,W,52.04,152.66,190310,,,A*4F
$GPRMC,231131.000,A,3250.0752,N,11710.2191,W,53.21,152.67,190310,,,A*4E
$GPRMC,231134.000,A,3250.0357,N,11710.1951,W,53.00,152.78,190310,,,A*40
$GPRMC,231137.000,A,3249.9962,N,11710.1712,W,52.80,153.49,190310,,,A*4D
$GPRMC,231140.000,A,3249.9581,N,11710.1491,W,48.10,152.74,190310,,,A*49
$GPRMC,231143.000,A,3249.9255,N,11710.1294,W,41.27,152.71,190310,,,A*4F
$GPRMC,231146.000,A,3249.8955,N,11710.1112,W,40.36,152.62,190310,,,A*4E
$GPRMC,231149.000,A,3249.8660,N,11710.0931,W,39.43,152.47,190310,,,A*4B
$GPRMC,231152.000,A,3249.8376,N,11710.0755,W,37.35,152.33,190310,,,A*43
$GPRMC,231155.000,A,3249.8106,N,11710.0590,W,36.76,152.70,190310,,,A*4B
$GPRMC,231158.000,A,3249.7837,N,11710.0424,W,35.78,152.11,190310,,,A*46
$GPRMC,231201.000,A,3249.7579,N,11710.0264,W,34.66,152.63,190310,,,A*47
$GPRMC,231204.000,A,3249.7323,N,11710.0107,W,34.08,152.55,190310,,,A*40
$GPRMC,231207.000,A,3249.7077,N,11709.9957,W,32.58,152.53,190310,,,A*48
$GPRMC,231210.000,A,3249.6862,N,11709.9823,W,25.12,152.85,190310,,,A*42
$GPRMC,231213.000,A,3249.6699,N,11709.9723,W,20.96,152.45,190310,,,A*41
$GPRMC,231216.000,A,3249.6553,N,11709.9634,W,19.87,152.53,190310,,,A*4B
$GPRMC,231219.000,A,3249.6395,N,11709.9538,W,23.14,152.56,190310,,,A*41
$GPRMC,231222.000,A,3249.6231,N,11709.9437,W,21.39,152.31,190310,,,A*44
$GPRMC,231225.000,A,3249.6076,N,11709.9343,W,20.55,152.66,190310,,,A*4F
$GPRMC,231228.000,A,3249.5926,N,11709.9251,W,21.21,152.49,190310,,,A*40
$GPRMC,231231.000,A,3249.5767,N,11709.9154,W,21.64,152.76,190310,,,A*48
$GPRMC,231234.000,A,3249.5598,N,11709.9051,W,24.26,152.32,190310,,,A*48
$GPRMC,231237.000,A,3249.5408,N,11709.8933,W,26.98,152.71,190310,,,A*4F
$GPRMC,231240.000,A,3249.5187,N,11709.8799,W,32.26,152.93,190310,,,A*4F
$GPRMC,231243.000,A,3249.4928,N,11709.8646,W,35.37,153.67,190310,,,A*4E
$GPRMC,231246.000,A,3249.4664,N,11709.8491,W,34.54,153.69,190310,,,A*4E
$GPRMC,231249.000,A,3249.4408,N,11709.8342,W,33.40,153.58,190310,,,A*40
$GPRMC,231252.000,A,3249.4156,N,11709.8195,W,33.47,153.46,190310,,,A*44
$GPRMC,231255.000,A,3249.3906,N,11709.8049,W,32.85,153.76,190310,,,A*45
$GPRMC,231258.000,A,3249.3657,N,11709.7905,W,33.34,153.82,190310,,,A*4D
$GPRMC,231301.000,A,3249.3397,N,11709.7754,W,35.86,153.99,190310,,,A*46
$GPRMC,231304.000,A,3249.3111,N,11709.7587,W,38.20,153.04,190310,,,A*46
$GPRMC,231307.000,A,3249.2801,N,11709.7411,W,42.42,154.16,190310,,,A*4F
$GPRMC,231310.000,A,3249.2483,N,11709.7224,W,41.34,153.91,190310,,,A*45
$GPRMC,231313.000,A,3249.2172,N,11709.7041,W,41.22,153.64,190310,,,A*41
$GPRMC,231316.000,A,3249.1862,N,11709.6860,W,40.98,154.22,190310,,,A*40
$GPRMC,231319.000,A,3249.1558,N,11709.6684,W,40.21,153.55,190310,,,A*4A
$GPRMC,231322.000,A,3249.1251,N,11709.6504,W,41.13,153.75,190310,,,A*45
$GPRMC,231325.000,A,3249.0950,N,11709.6328,W,39.14,153.72,190310,,,A*4E
$GPRMC,231328.000,A,3249.0659,N,11709.6159,W,38.05,154.03,190310,,,A*41
$GPRMC,231331.000,A,3249.0378,N,11709.5997,W,36.77,153.74,190310,,,A*4A
$GPRMC,231334.000,A,3249.0108,N,11709.5840,W,35.48,153.78,190310,,,A*42
$GPRMC,231337.000,A,3248.9853,N,11709.5692,W,33.00,153.63,190310,,,A*4F
$GPRMC,231340.000,A,3248.9612,N,11709.5551,W,31.92,153.86,190310,,,A*4A
$GPRMC,231343.000,A,3248.9368,N,11709.5406,W,33.35,153.11,190310,,,A*43
$GPRMC,231346.000,A,3248.9139,N,11709.5265,W,27.03,151.75,190310,,,A*43
$GPRMC,231349.000,A,3248.8980,N,11709.5157,W,18.57,150.07,190310,,,A*4C
$GPRMC,231352.000,A,3248.8878,N,11709.5084,W,12.19,148.51,190310,,,A*45
$GPRMC,231355.000,A,3248.8823,N,11709.5042,W,7.03,147.70,190310,,,A*75
$GPRMC,231358.000,A,3248.8784,N,11709.5012,W,5.61,147.52,190310,,,A*79
$GPRMC,231404.000,A,3248.8737,N,11709.4972,W,5.08,148.21,190310,,,A*75
$GPRMC,231407.000,A,3248.8684,N,11709.4932,W,10.60,145.91,190310,,,A*47
$GPRMC,231410.000,A,3248.8592,N,11709.4857,W,16.53,144.50,190310,,,A*4D
$GPRMC,231413.000,A,3248.8462,N,11709.4745,W,19.78,143.34,190310,,,A*4F
$GPRMC,231416.000,A,3248.8334,N,11709.4630,W,18.66,142.32,190310,,,A*44
$GPRMC,231419.000,A,3248.8209,N,11709.4517,W,18.75,141.83,190310,,,A*49
$GPRMC,231422.000,A,3248.8089,N,11709.4403,W,17.75,140.71,190310,,,A*4C
$GPRMC,231425.000,A,3248.7977,N,11709.4294,W,17.10,140.13,190310,,,A*43
$GPRMC,231428.000,A,3248.7864,N,11709.4183,W,18.02,140.84,190310,,,A*4A
$GPRMC,231431.000,A,3248.7733,N,11709.4057,W,22.45,140.58,190310,,,A*4C
$GPRMC,231434.000,A,3248.7570,N,11709.3899,W,27.37,140.51,190310,,,A*48
$GPRMC,231437.000,A,3248.7379,N,11709.3713,W,31.36,140.62,190310,,,A*4F
$GPRMC,231440.000,A,3248.7157,N,11709.3500,W,36.08,140.70,190310,,,A*48
$GPRMC,231443.000,A,3248.6909,N,11709.3261,W,39.60,141.31,190310,,,A*4C
$GPRMC,231446.000,A,3248.6638,N,11709.3000,W,43.04,140.50,190310,,,A*48
$GPRMC,231449.000,A,3248.6352,N,11709.2723,W,44.56,140.75,190310,,,A*4E
$GPRMC,231452.000,A,3248.6056,N,11709.2437,W,46.55,140.78,190310,,,A*49
$GPRMC,231455.000,A,3248.5741,N,11709.2145,W,48.31,143.04,190310,,,A*48
$GPRMC,231458.000,A,3248.5397,N,11709.1854,W,50.37,145.72,190310,,,A*48
$GPRMC,231501.000,A,3248.5032,N,11709.1581,W,51.82,147.30,190310,,,A*47
$GPRMC,231504.000,A,3248.4700,N,11709.1349,W,44.14,151.44,190310,,,A*48
$GPRMC,231507.000,A,3248.4380,N,11709.1183,W,41.76,156.07,190310,,,A*42
$GPRMC,231510.000,A,3248.4057,N,11709.1038,W,40.81,159.18,190310,,,A*44
$GPRMC,231513.000,A,3248.3741,N,11709.0911,W,40.36,161.91,190310,,,A*45
$GPRMC,231516.000,A,3248.3435,N,11709.0801,W,35.54,165.60,190310,,,A*4C
$GPRMC,231519.000,A,3248.3153,N,11709.0718,W,34.72,167.25,190310,,,A*47
$GPRMC,231522.000,A,3248.2889,N,11709.0651,W,30.84,166.70,190310,,,A*40
$GPRMC,231525.000,A,3248.2642,N,11709.0590,W,29.92,167.40,190310,,,A*4D
$GPRMC,231528.000,A,3248.2407,N,11709.0530,W,27.64,167.60,190310,,,A*4C
$GPRMC,231531.000,A,3248.2184,N,11709.0477,W,28.06,167.83,190310,,,A*4E
$GPRMC,231534.000,A,3248.1945,N,11709.0418,W,29.95,167.64,190310,,,A*46
$GPRMC,231537.000,A,3248.1697,N,11709.0352,W,30.47,166.81,190310,,,A*41
$GPRMC,231540.000,A,3248.1440,N,11709.0283,W,33.19,167.04,190310,,,A*40
$GPRMC,231543.000,A,3248.1145,N,11709.0204,W,38.33,167.49,190310,,,A*46
$GPRMC,231546.000,A,3248.0823,N,11709.0120,W,40.27,167.18,190310,,,A*40
$GPRMC,231549.000,A,3248.0488,N,11709.0031,W,41.45,167.30,190310,,,A*4C
$GPRMC,231552.000,A,3248.0151,N,11708.9942,W,41.49,167.48,190310,,,A*41
$GPRMC,231555.000,A,3247.9811,N,11708.9859,W,40.96,169.56,190310,,,A*44
$GPRMC,231558.000,A,3247.9472,N,11708.9797,W,41.75,172.64,190310,,,A*4A
$GPRMC,231601.000,A,3247.9115,N,11708.9758,W,42.76,175.94,190310,,,A*4A
$GPRMC,231604.000,A,3247.8744,N,11708.9739,W,46.33,179.16,190310,,,A*48
$GPRMC,231607.000,A,3247.8347,N,11708.9743,W,47.24,182.37,190310,,,A*41
$GPRMC,231610.000,A,3247.7952,N,11708.9766,W,48.58,182.83,190310,,,A*4A
$GPRMC,231613.000,A,3247.7536,N,11708.9803,W,48.56,183.68,190310,,,A*41
$GPRMC,231616.000,A,3247.7148,N,11708.9832,W,42.49,183.22,190310,,,A*41
$GPRMC,231619.000,A,3247.6831,N,11708.9854,W,33.50,183.10,190310,,,A*47
$GPRMC,231622.000,A,3247.6588,N,11708.9870,W,26.64,183.14,190310,,,A*41
$GPRMC,231625.000,A,3247.6374,N,11708.9883,W,25.55,182.02,190310,,,A*48
$GPRMC,231628.000,A,3247.6155,N,11708.9888,W,27.89,180.33,190310,,,A*4C
$GPRMC,231631.000,A,3247.5901,N,11708.9881,W,33.17,177.63,190310,,,A*48
$GPRMC,231634.000,A,3247.5608,N,11708.9861,W,35.99,175.42,190310,,,A*44
$GPRMC,231637.000,A,3247.5309,N,11708.9823,W,36.52,172.33,190310,,,A*40
$GPRMC,231640.000,A,3247.4991,N,11708.9767,W,38.92,169.78,190310,,,A*42
$GPRMC,231643.000,A,3247.4670,N,11708.9686,W,39.79,166.89,190310,,,A*4A
$GPRMC,231646.000,A,3247.4339,N,11708.9584,W,41.70,164.22,190310,,,A*43
$GPRMC,231649.000,A,3247.4010,N,11708.9458,W,40.70,160.90,190310,,,A*48
$GPRMC,231652.000,A,3247.3697,N,11708.9318,W,38.97,158.33,190310,,,A*4B
$GPRMC,231655.000,A,3247.3407,N,11708.9171,W,36.52,155.72,190310,,,A*45
$GPRMC,231658.000,A,3247.3137,N,11708.9012,W,36.21,152.52,190310,,,A*4B
$GPRMC,231701.000,A,3247.2878,N,11708.8844,W,34.52,150.48,190310,,,A*40
$GPRMC,231704.000,A,3247.2637,N,11708.8672,W,32.87,148.23,190310,,,A*41
$GPRMC,231707.000,A,3247.2412,N,11708.8495,W,32.61,145.21,190310,,,A*4B
$GPRMC,231710.000,A,3247.2177,N,11708.8293,W,36.68,143.25,190310,,,A*44
$GPRMC,231713.000,A,3247.1930,N,11708.8060,W,38.19,140.66,190310,,,A*4D
$GPRMC,231716.000,A,3247.1690,N,11708.7814,W,37.92,138.19,190310,,,A*42
$GPRMC,231719.000,A,3247.1461,N,11708.7552,W,37.90,134.76,190310,,,A*49
$GPRMC,231722.000,A,3247.1248,N,11708.7284,W,35.81,132.87,190310,,,A*4A
$GPRMC,231725.000,A,3247.1056,N,11708.7020,W,33.26,130.16,190310,,,A*4D
$GPRMC,231728.000,A,3247.0893,N,11708.6771,W,30.47,127.66,190310,,,A*47
$GPRMC,231731.000,A,3247.0760,N,11708.6550,W,26.56,125.72,190310,,,A*4D
$GPRMC,231734.000,A,3247.0637,N,11708.6337,W,26.32,125.62,190310,,,A*4F
$GPRMC,231737.000,A,3247.0515,N,11708.6126,W,26.13,124.70,190310,,,A*4C
$GPRMC,231740.000,A,3247.0393,N,11708.5916,W,25.87,125.19,190310,,,A*4C
$GPRMC,231743.000,A,3247.0269,N,11708.5709,W,26.02,125.09,190310,,,A*44
$GPRMC,231746.000,A,3247.0153,N,11708.5510,W,22.77,124.91,190310,,,A*47
$GPRMC,231749.000,A,3247.0057,N,11708.5345,W,18.50,124.23,190310,,,A*4E
$GPRMC,231752.000,A,3246.9971,N,11708.5196,W,18.50,124.79,190310,,,A*42
$GPRMC,231755.000,A,3246.9884,N,11708.5047,W,18.75,123.46,190310,,,A*4F
$GPRMC,231758.000,A,3246.9792,N,11708.4899,W,18.67,125.37,190310,,,A*43
$GPRMC,231801.000,A,3246.9701,N,11708.4746,W,19.02,125.27,190310,,,A*44
$GPRMC,231804.000,A,3246.9605,N,11708.4593,W,19.42,127.29,190310,,,A*46
$GPRMC,231807.000,A,3246.9498,N,11708.4433,W,22.06,128.70,190310,,,A*43
$GPRMC,231810.000,A,3246.9359,N,11708.4239,W,28.83,130.41,190310,,,A*4F
$GPRMC,231813.000,A,3246.9190,N,11708.4013,W,31.01,131.76,190310,,,A*46
$GPRMC,231816.000,A,3246.9012,N,11708.3793,W,30.63,134.71,190310,,,A*47
$GPRMC,231819.000,A,3246.8827,N,11708.3584,W,28.28,136.80,190310,,,A*49
$GPRMC,231822.000,A,3246.8682,N,11708.3429,W,20.42,138.70,190310,,,A*43
$GPRMC,231825.000,A,3246.8571,N,11708.3317,W,15.05,139.69,190310,,,A*4D
$GPRMC,231828.000,A,3246.8505,N,11708.3253,W,7.33,140.03,190310,,,A*76
$GPRMC,231843.000,A,3246.8437,N,11708.3187,W,5.42,133.75,190310,,,A*70
$GPRMC,231846.000,A,3246.8366,N,11708.3123,W,14.41,142.02,190310,,,A*4D
$GPRMC,231849.000,A,3246.8242,N,11708.3018,W,19.62,144.39,190310,,,A*4E
$GPRMC,231852.000,A,3246.8091,N,11708.2894,W,23.08,145.33,190310,,,A*4B
$GPRMC,231855.000,A,3246.7931,N,11708.2769,W,21.63,146.42,190310,,,A*47
$GPRMC,231858.000,A,3246.7806,N,11708.2677,W,13.85,148.99,190310,,,A*40
$GPRMC,231901.000,A,3246.7725,N,11708.2619,W,10.36,147.46,190310,,,A*4D
$GPRMC,231904.000,A,3246.7656,N,11708.2568,W,8.07,148.23,190310,,,A*7F
$GPRMC,231919.000,A,3246.7596,N,11708.2517,W,6.61,147.68,190310,,,A*7A
$GPRMC,231922.000,A,3246.7539,N,11708.2475,W,9.88,147.81,190310,,,A*7D
$GPRMC,231925.000,A,3246.7446,N,11708.2406,W,17.31,147.65,190310,,,A*40
$GPRMC,231928.000,A,3246.7277,N,11708.2284,W,26.73,148.36,190310,,,A*48
$GPRMC,231931.000,A,3246.7073,N,11708.2138,W,28.86,148.89,190310,,,A*42
$GPRMC,231934.000,A,3246.6859,N,11708.1983,W,30.38,148.09,190310,,,A*49
$GPRMC,231937.000,A,3246.6635,N,11708.1820,W,32.07,148.44,190310,,,A*41
$GPRMC,231940.000,A,3246.6403,N,11708.1653,W,32.51,148.61,190310,,,A*48
$GPRMC,231943.000,A,3246.6171,N,11708.1483,W,32.14,147.77,190310,,,A*4D
$GPRMC,231946.000,A,3246.5955,N,11708.1323,W,28.86,148.10,190310,,,A*46
$GPRMC,231949.000,A,3246.5749,N,11708.1173,W,29.08,148.51,190310,,,A*4F
$GPRMC,231952.000,A,3246.5533,N,11708.1017,W,31.65,148.19,190310,,,A*47
$GPRMC,231955.000,A,3246.5293,N,11708.0843,W,34.34,148.60,190310,,,A*4A
$GPRMC,231958.000,A,3246.5049,N,11708.0666,W,33.12,148.14,190310,,,A*4B
$GPRMC,232001.000,A,3246.4830,N,11708.0508,W,28.07,148.70,190310,,,A*4D
$GPRMC,232004.000,A,3246.4646,N,11708.0375,W,24.30,147.92,190310,,,A*40
$GPRMC,232007.000,A,3246.4478,N,11708.0251,W,23.56,148.12,190310,,,A*4B
$GPRMC,232010.000,A,3246.4308,N,11708.0127,W,24.40,148.20,190310,,,A*4E
$GPRMC,232013.000,A,3246.4131,N,11707.9999,W,25.07,148.47,190310,,,A*4D
$GPRMC,232016.000,A,3246.3959,N,11707.9876,W,21.36,148.82,190310,,,A*46
$GPRMC,232019.000,A,3246.3823,N,11707.9776,W,17.67,147.85,190310,,,A*43
$GPRMC,232022.000,A,3246.3719,N,11707.9700,W,13.16,147.59,190310,,,A*4F
$GPRMC,232025.000,A,3246.3625,N,11707.9631,W,14.55,148.05,190310,,,A*43
$GPRMC,232028.000,A,3246.3541,N,11707.9570,W,9.82,148.01,190310,,,A*7B
$GPRMC,232031.000,A,3246.3477,N,11707.9524,W,9.64,147.61,190310,,,A*77
$GPRMC,232034.000,A,3246.3387,N,11707.9458,W,14.25,148.05,190310,,,A*44
$GPRMC,232037.000,A,3246.3288,N,11707.9386,W,15.38,148.05,190310,,,A*40
$GPRMC,232040.000,A,3246.3163,N,11707.9296,W,18.15,148.56,190310,,,A*42
$GPRMC,232043.000,A,3246.3023,N,11707.9196,W,20.40,148.38,190310,,,A*44
$GPRMC,232046.000,A,3246.2863,N,11707.9080,W,24.10,148.07,190310,,,A*47
$GPRMC,232049.000,A,3246.2673,N,11707.8941,W,29.53,147.67,190310,,,A*41
$GPRMC,232052.000,A,3246.2463,N,11707.8788,W,28.34,148.60,190310,,,A*4B
$GPRMC,232055.000,A,3246.2281,N,11707.8658,W,21.72,148.66,190310,,,A*47
$GPRMC,232058.000,A,3246.2140,N,11707.8559,W,17.79,149.23,190310,,,A*48
$GPRMC,232101.000,A,3246.2021,N,11707.8477,W,15.86,149.96,190310,,,A*42
$GPRMC,232104.000,A,3246.1909,N,11707.8403,W,14.81,150.64,190310,,,A*47
$GPRMC,232107.000,A,3246.1789,N,11707.8324,W,19.22,150.52,190310,,,A*41
$GPRMC,232110.000,A,3246.1649,N,11707.8233,W,19.50,151.21,190310,,,A*4D
$GPRMC,232113.000,A,3246.1492,N,11707.8134,W,22.87,151.61,190310,,,A*48
$GPRMC,232116.000,A,3246.1329,N,11707.8034,W,20.16,153.05,190310,,,A*41
$GPRMC,232119.000,A,3246.1214,N,11707.7965,W,12.27,152.77,190310,,,A*44
$GPRMC,232122.000,A,3246.1134,N,11707.7919,W,9.29,153.82,190310,,,A*79
$GPRMC,232125.000,A,3246.1057,N,11707.7874,W,13.60,153.60,190310,,,A*4A
$GPRMC,232128.000,A,3246.0933,N,11707.7804,W,16.10,154.43,190310,,,A*4E
$GPRMC,232131.000,A,3246.0807,N,11707.7734,W,15.95,154.43,190310,,,A*42
$GPRMC,232134.000,A,3246.0735,N,11707.7694,W,5.57,154.91,190310,,,A*72
$GPRMC,232143.000,A,3246.0684,N,11707.7670,W,8.97,155.39,190310,,,A*71
$GPRMC,232146.000,A,3246.0595,N,11707.7622,W,14.00,154.91,190310,,,A*40
$GPRMC,232149.000,A,3246.0473,N,11707.7556,W,16.00,156.05,190310,,,A*4B
$GPRMC,232152.000,A,3246.0382,N,11707.7508,W,8.79,152.90,190310,,,A*7A
$GPRMC,232155.000,A,3246.0343,N,11707.7489,W,7.12,156.43,190310,,,A*70
$GPRMC,232158.000,A,3246.0249,N,11707.7442,W,16.05,157.60,190310,,,A*47
$GPRMC,232201.000,A,3246.0102,N,11707.7368,W,19.19,156.99,190310,,,A*4E
$GPRMC,232204.000,A,3245.9926,N,11707.7292,W,25.21,162.15,190310,,,A*4C
$GPRMC,232207.000,A,3245.9715,N,11707.7206,W,25.83,158.98,190310,,,A*48
$GPRMC,232210.000,A,3245.9501,N,11707.7111,W,27.59,159.29,190310,,,A*42
$GPRMC,232213.000,A,3245.9271,N,11707.7012,W,30.59,160.51,190310,,,A*40
$GPRMC,232216.000,A,3245.9026,N,11707.6915,W,29.31,161.47,190310,,,A*4A
$GPRMC,232219.000,A,3245.8788,N,11707.6822,W,30.61,162.28,190310,,,A*45
$GPRMC,232222.000,A,3245.8555,N,11707.6738,W,28.12,163.28,190310,,,A*47
$GPRMC,232225.000,A,3245.8324,N,11707.6659,W,29.04,164.03,190310,,,A*4E
$GPRMC,232228.000,A,3245.8077,N,11707.6595,W,31.17,169.64,190310,,,A*42
$GPRMC,232231.000,A,3245.7824,N,11707.6534,W,31.15,166.38,190310,,,A*44
$GPRMC,232234.000,A,3245.7608,N,11707.6462,W,24.37,164.74,190310,,,A*4D
$GPRMC,232237.000,A,3245.7456,N,11707.6425,W,19.96,167.01,190310,,,A*40
$GPRMC,232240.000,A,3245.7295,N,11707.6384,W,20.65,166.97,190310,,,A*4D
$GPRMC,232243.000,A,3245.7140,N,11707.6342,W,18.92,166.63,190310,,,A*47
$GPRMC,232246.000,A,3245.6969,N,11707.6295,W,23.12,166.84,190310,,,A*42
$GPRMC,232249.000,A,3245.6781,N,11707.6245,W,22.68,167.18,190310,,,A*40
$GPRMC,232252.000,A,3245.6624,N,11707.6203,W,16.81,167.10,190310,,,A*4E
$GPRMC,232255.000,A,3245.6504,N,11707.6171,W,13.27,166.09,190310,,,A*4E
$GPRMC,232258.000,A,3245.6397,N,11707.6141,W,13.93,165.72,190310,,,A*4C
$GPRMC,232301.000,A,3245.6287,N,11707.6110,W,13.88,166.99,190310,,,A*49
$GPRMC,232304.000,A,3245.6179,N,11707.6080,W,13.53,166.51,190310,,,A*44
$GPRMC,232307.000,A,3245.6071,N,11707.6051,W,13.69,166.72,190310,,,A*4A
$GPRMC,232310.000,A,3245.5940,N,11707.6014,W,17.77,165.79,190310,,,A*46
$GPRMC,232313.000,A,3245.5778,N,11707.5965,W,21.44,164.82,190310,,,A*4C
$GPRMC,232316.000,A,3245.5595,N,11707.5907,W,23.06,164.08,190310,,,A*4A
$GPRMC,232319.000,A,3245.5417,N,11707.5847,W,21.43,164.34,190310,,,A*47
$GPRMC,232322.000,A,3245.5231,N,11707.5784,W,24.90,163.90,190310,,,A*4F
$GPRMC,232325.000,A,3245.5010,N,11707.5706,W,29.43,163.74,190310,,,A*4A
$GPRMC,232328.000,A,3245.4769,N,11707.5623,W,29.25,163.36,190310,,,A*4F
$GPRMC,232331.000,A,3245.4549,N,11707.5545,W,26.16,163.49,190310,,,A*43
$GPRMC,232334.000,V,3245.4341,N,11707.5475,W,25.60,164.05,190310,,,E*54
$GPRMC,232337.000,A,3245.4129,N,11707.5401,W,25.73,163.59,190310,,,A*47
$GPRMC,232340.000,A,3245.3922,N,11707.5334,W,25.55,163.80,190310,,,A*42
$GPRMC,232343.000,A,3245.3707,N,11707.5261,W,27.20,163.90,190310,,,A*48
$GPRMC,232346.000,A,3245.3488,N,11707.5188,W,27.63,163.90,190310,,,A*4A
$GPRMC,232349.000,A,3245.3251,N,11707.5105,W,30.96,163.45,190310,,,A*46
$GPRMC,232352.000,A,3245.2986,N,11707.5021,W,33.10,164.09,190310,,,A*49
$GPRMC,232355.000,A,3245.2729,N,11707.4931,W,28.48,163.52,190310,,,A*42
$GPRMC,232358.000,A,3245.2572,N,11707.4879,W,15.16,163.17,190310,,,A*4A
$GPRMC,232401.000,A,3245.2516,N,11707.4858,W,4.98,164.09,190310,,,A*7E
$GPRMC,232407.000,A,3245.2479,N,11707.4845,W,4.93,162.29,190310,,,A*73
$GPRMC,232410.000,A,3245.2430,N,11707.4828,W,6.74,165.47,190310,,,A*77
$GPRMC,232413.000,A,3245.2386,N,11707.4797,W,6.43,150.74,190310,,,A*77
$GPRMC,232416.000,A,3245.2302,N,11707.4773,W,11.67,173.16,190310,,,A*41
$GPRMC,232419.000,A,3245.2172,N,11707.4735,W,14.30,161.47,190310,,,A*49
$GPRMC,232422.000,A,3245.2054,N,11707.4694,W,13.85,163.11,190310,,,A*46
$GPRMC,232425.000,A,3245.1935,N,11707.4653,W,15.50,163.57,190310,,,A*4B
$GPRMC,232428.000,A,3245.1806,N,11707.4611,W,15.93,163.69,190310,,,A*43
$GPRMC,232431.000,A,3245.1676,N,11707.4567,W,16.62,164.72,190310,,,A*40
$GPRMC,232434.000,A,3245.1534,N,11707.4520,W,18.08,164.08,190310,,,A*4C
$GPRMC,232437.000,A,3245.1384,N,11707.4471,W,19.35,163.95,190310,,,A*4B
$GPRMC,232440.000,A,3245.1209,N,11707.4410,W,23.58,163.24,190310,,,A*40
$GPRMC,232443.000,A,3245.1017,N,11707.4342,W,23.41,163.94,190310,,,A*4D
$GPRMC,232446.000,A,3245.0828,N,11707.4277,W,23.52,163.63,190310,,,A*40
$GPRMC,232449.000,A,3245.0638,N,11707.4211,W,23.80,163.46,190310,,,A*48
$GPRMC,232452.000,A,3245.0446,N,11707.4144,W,24.39,163.92,190310,,,A*46
$GPRMC,232455.000,A,3245.0241,N,11707.4074,W,25.35,162.88,190310,,,A*45
$GPRMC,232458.000,A,3245.0010,N,11707.3989,W,29.56,162.22,190310,,,A*4B
$GPRMC,232501.000,A,3244.9798,N,11707.3905,W,21.73,159.90,190310,,,A*43
$GPRMC,232504.000,A,3244.9665,N,11707.3848,W,15.11,159.23,190310,,,A*46
$GPRMC,232507.000,A,3244.9542,N,11707.3791,W,16.75,157.24,190310,,,A*40
$GPRMC,232510.000,A,3244.9410,N,11707.3723,W,18.23,155.15,190310,,,A*44
$GPRMC,232513.000,A,3244.9263,N,11707.3638,W,20.31,153.01,190310,,,A*45
$GPRMC,232516.000,A,3244.9109,N,11707.3542,W,22.56,151.28,190310,,,A*4B
$GPRMC,232519.000,A,3244.8945,N,11707.3428,W,22.76,149.13,190310,,,A*4B
$GPRMC,232522.000,A,3244.8774,N,11707.3301,W,23.67,146.85,190310,,,A*42
$GPRMC,232525.000,A,3244.8615,N,11707.3171,W,22.72,144.91,190310,,,A*44
$GPRMC,232528.000,A,3244.8455,N,11707.3035,W,25.38,144.54,190310,,,A*4E
$GPRMC,232531.000,A,3244.8269,N,11707.2878,W,27.97,144.70,190310,,,A*4E
$GPRMC,232534.000,A,3244.8080,N,11707.2719,W,26.29,144.62,190310,,,A*41
$GPRMC,232537.000,A,3244.7909,N,11707.2574,W,24.45,144.35,190310,,,A*46
$GPRMC,232540.000,A,3244.7746,N,11707.2435,W,23.55,144.53,190310,,,A*41
$GPRMC,232543.000,A,3244.7588,N,11707.2303,W,22.60,144.75,190310,,,A*43
$GPRMC,232546.000,A,3244.7431,N,11707.2172,W,24.56,145.52,190310,,,A*46
$GPRMC,232549.000,A,3244.7257,N,11707.2025,W,25.55,144.69,190310,,,A*47
$GPRMC,232552.000,A,3244.7085,N,11707.1880,W,24.61,144.66,190310,,,A*4D
$GPRMC,232555.000,A,3244.6933,N,11707.1753,W,20.38,144.93,190310,,,A*4C
$GPRMC,232558.000,A,3244.6800,N,11707.1642,W,17.15,145.04,190310,,,A*45
$GPRMC,232601.000,A,3244.6712,N,11707.1568,W,11.95,143.95,190310,,,A*4D
$GPRMC,232604.000,A,3244.6633,N,11707.1500,W,11.66,144.06,190310,,,A*45
$GPRMC,232607.000,A,3244.6548,N,11707.1429,W,13.57,144.39,190310,,,A*4F
$GPRMC,232610.000,A,3244.6449,N,11707.1347,W,14.99,144.24,190310,,,A*4F
$GPRMC,232613.000,A,3244.6350,N,11707.1263,W,14.09,143.91,190310,,,A*44
$GPRMC,232616.000,A,3244.6257,N,11707.1183,W,13.48,144.33,190310,,,A*47
$GPRMC,232619.000,A,3244.6161,N,11707.1104,W,15.99,145.14,190310,,,A*4F
$GPRMC,232622.000,A,3244.6036,N,11707.0998,W,20.74,144.45,190310,,,A*48
$GPRMC,232625.000,A,3244.5880,N,11707.0868,W,24.06,144.52,190310,,,A*40
$GPRMC,232628.000,A,3244.5720,N,11707.0733,W,22.86,144.32,190310,,,A*41
$GPRMC,232631.000,A,3244.5579,N,11707.0602,W,18.47,139.78,190310,,,A*44
$GPRMC,232634.000,A,3244.5466,N,11707.0503,W,17.03,146.56,190310,,,A*47
$GPRMC,232637.000,A,3244.5340,N,11707.0407,W,18.06,147.16,190310,,,A*4D
$GPRMC,232640.000,A,3244.5216,N,11707.0315,W,17.37,148.00,190310,,,A*4E
$GPRMC,232643.000,A,3244.5090,N,11707.0224,W,18.74,148.58,190310,,,A*47
$GPRMC,232646.000,A,3244.4944,N,11707.0121,W,21.63,149.28,190310,,,A*4F
$GPRMC,232649.000,A,3244.4783,N,11707.0011,W,22.46,150.20,190310,,,A*43
$GPRMC,232652.000,A,3244.4636,N,11706.9914,W,15.97,150.80,190310,,,A*40
$GPRMC,232655.000,A,3244.4527,N,11706.9844,W,14.95,151.59,190310,,,A*46
$GPRMC,232658.000,A,3244.4409,N,11706.9770,W,16.81,152.20,190310,,,A*44
$GPRMC,232701.000,A,3244.4272,N,11706.9688,W,20.39,152.85,190310,,,A*4C
$GPRMC,232704.000,A,3244.4085,N,11706.9579,W,28.95,154.03,190310,,,A*48
$GPRMC,232707.000,A,3244.3858,N,11706.9451,W,29.74,155.13,190310,,,A*41
$GPRMC,232710.000,A,3244.3634,N,11706.9327,W,28.81,155.96,190310,,,A*43
$GPRMC,232713.000,A,3244.3421,N,11706.9216,W,27.12,156.85,190310,,,A*41
$GPRMC,232716.000,A,3244.3235,N,11706.9122,W,21.06,157.37,190310,,,A*48
$GPRMC,232719.000,A,3244.3048,N,11706.9033,W,28.00,159.17,190310,,,A*4D
$GPRMC,232722.000,A,3244.2796,N,11706.8922,W,34.11,159.77,190310,,,A*43
$GPRMC,232725.000,A,3244.2517,N,11706.8807,W,35.56,161.44,190310,,,A*40
$GPRMC,232728.000,A,3244.2229,N,11706.8694,W,36.18,161.44,190310,,,A*4A
$GPRMC,232731.000,A,3244.1945,N,11706.8578,W,35.20,160.74,190310,,,A*4B
$GPRMC,232734.000,A,3244.1686,N,11706.8466,W,29.20,161.03,190310,,,A*4C
$GPRMC,232737.000,A,3244.1470,N,11706.8379,W,26.15,160.86,190310,,,A*48
$GPRMC,232740.000,A,3244.1272,N,11706.8297,W,24.40,160.62,190310,,,A*45
$GPRMC,232743.000,A,3244.1084,N,11706.8220,W,23.41,160.68,190310,,,A*4D
$GPRMC,232746.000,A,3244.0898,N,11706.8142,W,23.81,160.45,190310,,,A*48
$GPRMC,232749.000,A,3244.0708,N,11706.8064,W,24.28,159.68,190310,,,A*45
$GPRMC,232752.000,A,3244.0511,N,11706.7981,W,25.37,160.28,190310,,,A*49
$GPRMC,232755.000,A,3244.0299,N,11706.7885,W,28.58,157.04,190310,,,A*42
$GPRMC,232758.000,A,3244.0085,N,11706.7766,W,28.15,153.08,190310,,,A*43
$GPRMC,232801.000,A,3243.9883,N,11706.7633,W,27.52,148.74,190310,,,A*4C
$GPRMC,232804.000,A,3243.9691,N,11706.7483,W,25.70,144.39,190310,,,A*4A
$GPRMC,232807.000,A,3243.9540,N,11706.7349,W,20.68,142.24,190310,,,A*41
$GPRMC,232810.000,A,3243.9400,N,11706.7210,W,23.33,137.99,190310,,,A*46
$GPRMC,232813.000,A,3243.9250,N,11706.7044,W,25.01,135.48,190310,,,A*4C
$GPRMC,232816.000,A,3243.9115,N,11706.6875,W,21.61,132.05,190310,,,A*4C
$GPRMC,232819.000,A,3243.9004,N,11706.6723,W,19.21,128.87,190310,,,A*40
$GPRMC,232822.000,A,3243.8911,N,11706.6581,W,17.38,126.77,190310,,,A*49
$GPRMC,232825.000,A,3243.8825,N,11706.6438,W,19.47,124.34,190310,,,A*48
$GPRMC,232828.000,A,3243.8722,N,11706.6253,W,25.25,122.67,190310,,,A*4D
$GPRMC,232831.000,A,3243.8599,N,11706.6027,W,28.50,123.28,190310,,,A*43
$GPRMC,232834.000,A,3243.8461,N,11706.5792,W,30.31,127.44,190310,,,A*4A
$GPRMC,232837.000,A,3243.8312,N,11706.5550,W,28.06,124.02,190310,,,A*4A
$GPRMC,232840.000,A,3243.8198,N,11706.5345,W,22.13,123.33,190310,,,A*43
$GPRMC,232843.000,A,3243.8109,N,11706.5182,W,17.31,123.16,190310,,,A*40
$GPRMC,232846.000,A,3243.8035,N,11706.5048,W,15.92,123.32,190310,,,A*41
$GPRMC,232849.000,A,3243.7962,N,11706.4915,W,16.97,123.05,190310,,,A*48
$GPRMC,232852.000,A,3243.7864,N,11706.4740,W,23.08,122.38,190310,,,A*44
$GPRMC,232855.000,A,3243.7752,N,11706.4542,W,24.98,122.76,190310,,,A*4D
$GPRMC,232858.000,A,3243.7624,N,11706.4309,W,30.02,123.54,190310,,,A*4E
$GPRMC,232901.000,A,3243.7475,N,11706.4051,W,31.93,125.53,190310,,,A*43
$GPRMC,232904.000,A,3243.7305,N,11706.3778,W,36.00,128.16,190310,,,A*4C
$GPRMC,232907.000,A,3243.7096,N,11706.3492,W,39.25,132.47,190310,,,A*46
$GPRMC,232910.000,A,3243.6866,N,11706.3212,W,38.88,136.16,190310,,,A*4E
$GPRMC,232913.000,A,3243.6656,N,11706.2987,W,28.84,139.25,190310,,,A*44
$GPRMC,232916.000,A,3243.6490,N,11706.2826,W,24.98,141.74,190310,,,A*49
$GPRMC,232919.000,A,3243.6327,N,11706.2683,W,22.90,143.95,190310,,,A*4F
$GPRMC,232922.000,A,3243.6191,N,11706.2573,W,17.41,146.07,190310,,,A*40
$GPRMC,232925.000,A,3243.6076,N,11706.2488,W,16.36,147.77,190310,,,A*4D
$GPRMC,232928.000,A,3243.5964,N,11706.2409,W,13.94,149.18,190310,,,A*4A
$GPRMC,232931.000,A,3243.5879,N,11706.2353,W,10.92,150.96,190310,,,A*4C
$GPRMC,232934.000,A,3243.5805,N,11706.2306,W,10.20,151.60,190310,,,A*43
$GPRMC,232937.000,A,3243.5730,N,11706.2261,W,10.24,152.69,190310,,,A*47
$GPRMC,232940.000,A,3243.5658,N,11706.2218,W,8.49,153.56,190310,,,A*79
$GPRMC,232943.000,A,3243.5603,N,11706.2187,W,7.13,154.68,190310,,,A*7B
$GPRMC,232946.000,A,3243.5557,N,11706.2161,W,4.66,154.71,190310,,,A*7D
$GPRMC,232958.000,A,3243.5456,N,11706.2107,W,4.87,156.60,190310,,,A*7F
$GPRMC,233001.000,A,3243.5417,N,11706.2087,W,5.41,156.15,190310,,,A*7E
$GPRMC,233004.000,A,3243.5375,N,11706.2065,W,5.92,156.97,190310,,,A*70
$GPRMC,233007.000,A,3243.5330,N,11706.2044,W,5.65,161.45,190310,,,A*72
$GPRMC,233013.000,A,3243.5258,N,11706.2013,W,4.80,160.93,190310,,,A*7A
$GPRMC,233016.000,A,3243.5219,N,11706.1996,W,4.85,159.38,190310,,,A*73
$GPRMC,233022.000,A,3243.5155,N,11706.1964,W,5.34,158.39,190310,,,A*79
$GPRMC,233025.000,A,3243.5108,N,11706.1942,W,7.49,161.38,190310,,,A*71
$GPRMC,233028.000,A,3243.5044,N,11706.1917,W,8.23,161.09,190310,,,A*74
$GPRMC,233031.000,A,3243.4983,N,11706.1893,W,6.81,162.64,190310,,,A*7C
$GPRMC,233034.000,A,3243.4936,N,11706.1875,W,5.55,163.25,190310,,,A*71
$GPRMC,233037.000,A,3243.4890,N,11706.1862,W,5.60,167.54,190310,,,A*7D
$GPRMC,233040.000,A,3243.4838,N,11706.1845,W,8.49,163.63,190310,,,A*7C
$GPRMC,233043.000,A,3243.4742,N,11706.1813,W,13.88,165.26,190310,,,A*4E
$GPRMC,233046.000,A,3243.4623,N,11706.1777,W,14.29,167.14,190310,,,A*4F
$GPRMC,233049.000,A,3243.4514,N,11706.1750,W,11.28,169.83,190310,,,A*46
$GPRMC,233052.000,A,3243.4434,N,11706.1731,W,8.55,169.96,190310,,,A*7E
$GPRMC,233055.000,A,3243.4342,N,11706.1709,W,13.69,168.55,190310,,,A*4F
$GPRMC,233058.000,A,3243.4210,N,11706.1686,W,16.18,172.52,190310,,,A*4D
$GPRMC,233101.000,A,3243.4082,N,11706.1668,W,15.01,173.10,190310,,,A*45
$GPRMC,233104.000,A,3243.3970,N,11706.1656,W,11.83,173.59,190310,,,A*4D
$GPRMC,233107.000,A,3243.3895,N,11706.1648,W,7.98,173.97,190310,,,A*74
$GPRMC,233110.000,A,3243.3832,N,11706.1646,W,9.46,176.70,190310,,,A*70
$GPRMC,233113.000,A,3243.3730,N,11706.1641,W,15.82,177.45,190310,,,A*4B
$GPRMC,233116.000,A,3243.3567,N,11706.1635,W,21.69,179.32,190310,,,A*41
$GPRMC,233119.000,A,3243.3389,N,11706.1637,W,20.13,181.32,190310,,,A*41
$GPRMC,233122.000,A,3243.3224,N,11706.1647,W,19.70,183.50,190310,,,A*41
$GPRMC,233125.000,A,3243.3062,N,11706.1658,W,18.93,183.04,190310,,,A*45
$GPRMC,233128.000,A,3243.2918,N,11706.1669,W,14.22,184.17,190310,,,A*4C
$GPRMC,233131.000,A,3243.2816,N,11706.1678,W,11.50,183.77,190310,,,A*4A
$GPRMC,233134.000,A,3243.2725,N,11706.1686,W,10.66,184.20,190310,,,A*40
$GPRMC,233137.000,A,3243.2636,N,11706.1695,W,11.08,184.18,190310,,,A*40
$GPRMC,233140.000,A,3243.2542,N,11706.1702,W,12.04,183.22,190310,,,A*4E
$GPRMC,233143.000,A,3243.2436,N,11706.1710,W,13.22,183.26,190310,,,A*4D
$GPRMC,233146.000,A,3243.2320,N,11706.1720,W,14.35,184.35,190310,,,A*4F
$GPRMC,233149.000,A,3243.2203,N,11706.1730,W,13.50,184.15,190310,,,A*47
$GPRMC,233152.000,A,3243.2084,N,11706.1740,W,15.35,183.79,190310,,,A*4F
$GPRMC,233155.000,A,3243.1947,N,11706.1748,W,17.20,180.99,190310,,,A*4E
$GPRMC,233158.000,A,3243.1777,N,11706.1761,W,23.68,183.12,190310,,,A*4E
$GPRMC,233201.000,A,3243.1561,N,11706.1782,W,25.88,185.36,190310,,,A*41
$GPRMC,233204.000,A,3243.1308,N,11706.1798,W,32.30,178.87,190310,,,A*4B
$GPRMC,233207.000,A,3243.0992,N,11706.1835,W,38.86,185.32,190310,,,A*43
$GPRMC,233210.000,A,3243.0644,N,11706.1857,W,40.49,183.44,190310,,,A*4E
$GPRMC,233213.000,A,3243.0310,N,11706.1878,W,38.44,182.88,190310,,,A*47
$GPRMC,233216.000,A,3242.9996,N,11706.1885,W,35.93,179.86,190310,,,A*41
$GPRMC,233219.000,A,3242.9712,N,11706.1877,W,30.29,177.53,190310,,,A*43
$GPRMC,233222.000,A,3242.9494,N,11706.1857,W,21.63,174.97,190310,,,A*41
$GPRMC,233225.000,A,3242.9346,N,11706.1835,W,15.12,172.09,190310,,,A*4A
$GPRMC,233228.000,A,3242.9248,N,11706.1817,W,9.81,171.99,190310,,,A*75
$GPRMC,233231.000,A,3242.9184,N,11706.1804,W,6.45,170.05,190310,,,A*7F
$GPRMC,233237.000,A,3242.9107,N,11706.1776,W,8.47,170.35,190310,,,A*77
$GPRMC,233240.000,A,3242.9000,N,11706.1753,W,14.10,169.59,190310,,,A*4B
$GPRMC,233243.000,A,3242.8872,N,11706.1718,W,15.08,165.77,190310,,,A*43
$GPRMC,233246.000,A,3242.8758,N,11706.1681,W,12.39,165.29,190310,,,A*4E
$GPRMC,233249.000,A,3242.8671,N,11706.1653,W,9.34,164.08,190310,,,A*71
$GPRMC,233252.000,A,3242.8604,N,11706.1630,W,7.71,164.63,190310,,,A*7E
$GPRMC,233255.000,A,3242.8531,N,11706.1604,W,9.81,163.56,190310,,,A*7B
$GPRMC,233258.000,A,3242.8453,N,11706.1575,W,9.45,161.83,190310,,,A*74
$GPRMC,233301.000,A,3242.8367,N,11706.1538,W,12.62,160.42,190310,,,A*43
$GPRMC,233304.000,A,3242.8261,N,11706.1492,W,13.87,159.57,190310,,,A*44
$GPRMC,233307.000,A,3242.8154,N,11706.1442,W,13.17,157.96,190310,,,A*45
$GPRMC,233310.000,A,3242.8065,N,11706.1398,W,10.42,156.67,190310,,,A*4C
$GPRMC,233313.000,A,3242.7988,N,11706.1358,W,10.12,155.57,190310,,,A*43
$GPRMC,233316.000,A,3242.7910,N,11706.1316,W,10.04,155.67,190310,,,A*49
$GPRMC,233319.000,A,3242.7834,N,11706.1272,W,11.36,153.40,190310,,,A*41
$GPRMC,233322.000,A,3242.7735,N,11706.1214,W,13.84,152.47,190310,,,A*4A
$GPRMC,233325.000,A,3242.7635,N,11706.1150,W,13.25,151.87,190310,,,A*4B
$GPRMC,233328.000,A,3242.7550,N,11706.1094,W,9.67,151.04,190310,,,A*79
$GPRMC,233331.000,A,3242.7487,N,11706.1053,W,8.06,150.72,190310,,,A*77
$GPRMC,233334.000,A,3242.7406,N,11706.0998,W,14.37,148.59,190310,,,A*4B
$GPRMC,233337.000,A,3242.7285,N,11706.0910,W,18.05,147.40,190310,,,A*4F
$GPRMC,233340.000,A,3242.7163,N,11706.0813,W,16.63,145.69,190310,,,A*41
$GPRMC,233343.000,A,3242.7056,N,11706.0723,W,14.92,144.21,190310,,,A*48
$GPRMC,233346.000,A,3242.6960,N,11706.0631,W,15.79,141.85,190310,,,A*4D
$GPRMC,233349.000,A,3242.6855,N,11706.0538,W,15.58,141.36,190310,,,A*44
$GPRMC,233352.000,A,3242.6732,N,11706.0431,W,17.75,142.75,190310,,,A*41
$GPRMC,233355.000,A,3242.6605,N,11706.0312,W,20.38,141.19,190310,,,A*41
$GPRMC,233358.000,A,3242.6471,N,11706.0184,W,19.88,141.22,190310,,,A*49
$GPRMC,233401.000,A,3242.6326,N,11706.0046,W,23.22,141.97,190310,,,A*4F
$GPRMC,233404.000,A,3242.6164,N,11705.9890,W,27.93,140.87,190310,,,A*49
$GPRMC,233407.000,A,3242.5942,N,11705.9678,W,36.54,141.71,190310,,,A*4E
$GPRMC,233410.000,A,3242.5693,N,11705.9454,W,35.39,144.00,190310,,,A*4C
$GPRMC,233413.000,A,3242.5471,N,11705.9259,W,29.85,142.41,190310,,,A*43
$GPRMC,233416.000,A,3242.5279,N,11705.9087,W,28.87,144.48,190310,,,A*45
$GPRMC,233419.000,A,3242.5073,N,11705.8913,W,30.55,143.06,190310,,,A*4C
$GPRMC,233422.000,A,3242.4876,N,11705.8730,W,29.09,141.43,190310,,,A*45
$GPRMC,233425.000,A,3242.4686,N,11705.8553,W,29.07,141.09,190310,,,A*44
$GPRMC,233428.000,A,3242.4490,N,11705.8363,W,29.12,138.56,190310,,,A*49
$GPRMC,233431.000,A,3242.4285,N,11705.8174,W,31.62,143.02,190310,,,A*44
$GPRMC,233434.000,A,3242.4060,N,11705.7993,W,33.04,148.01,190310,,,A*4C
$GPRMC,233437.000,A,3242.3802,N,11705.7832,W,36.09,154.29,190310,,,A*41
$GPRMC,233440.000,A,3242.3515,N,11705.7687,W,37.43,159.00,190310,,,A*43
$GPRMC,233443.000,A,3242.3221,N,11705.7583,W,34.63,166.84,190310,,,A*46
$GPRMC,233446.000,A,3242.2986,N,11705.7544,W,23.11,175.10,190310,,,A*43
$GPRMC,233449.000,A,3242.2900,N,11705.7549,W,6.42,180.23,190310,,,A*74
$GPRMC,233619.000,A,3242.2789,N,11705.7575,W,15.09,179.85,190310,,,A*44
$GPRMC,233622.000,A,3242.2660,N,11705.7577,W,12.95,180.43,190310,,,A*46
$GPRMC,233625.000,A,3242.2568,N,11705.7577,W,9.61,176.54,190310,,,A*74
$GPRMC,233628.000,A,3242.2494,N,11705.7531,W,12.12,130.37,190310,,,A*40
$GPRMC,233631.000,A,3242.2459,N,11705.7395,W,15.37,93.12,190310,,,A*7E
$GPRMC,233634.000,A,3242.2458,N,11705.7256,W,12.11,90.09,190310,,,A*7E
$GPRMC,233637.000,A,3242.2457,N,11705.7150,W,10.56,90.41,190310,,,A*7A
$GPRMC,233640.000,A,3242.2456,N,11705.7044,W,10.63,90.04,190310,,,A*78
$GPRMC,233643.000,A,3242.2455,N,11705.6905,W,17.13,90.50,190310,,,A*74
$GPRMC,233646.000,A,3242.2452,N,11705.6726,W,18.88,90.16,190310,,,A*76
$GPRMC,233649.000,A,3242.2454,N,11705.6502,W,25.80,89.33,190310,,,A*72
$GPRMC,233652.000,A,3242.2456,N,11705.6233,W,28.07,89.48,190310,,,A*71
$GPRMC,233655.000,A,3242.2461,N,11705.5933,W,31.57,89.02,190310,,,A*79
$GPRMC,233658.000,A,3242.2461,N,11705.5604,W,33.61,90.14,190310,,,A*77
$GPRMC,233701.000,A,3242.2456,N,11705.5275,W,32.30,90.41,190310,,,A*79
$GPRMC,233704.000,A,3242.2453,N,11705.4960,W,31.73,90.48,190310,,,A*7A
$GPRMC,233707.000,A,3242.2455,N,11705.4644,W,31.31,90.13,190310,,,A*7E
$GPRMC,233710.000,A,3242.2454,N,11705.4342,W,29.34,90.26,190310,,,A*70
$GPRMC,233713.000,A,3242.2454,N,11705.4075,W,22.79,89.72,190310,,,A*7F
$GPRMC,233716.000,A,3242.2455,N,11705.3907,W,12.73,89.46,190310,,,A*7E
$GPRMC,233719.000,A,3242.2456,N,11705.3822,W,5.10,90.26,190310,,,A*49
$GPRMC,233801.000,A,3242.2465,N,11705.3731,W,9.74,90.70,190310,,,A*4F
$GPRMC,233804.000,A,3242.2465,N,11705.3579,W,19.86,89.20,190310,,,A*75
$GPRMC,233807.000,A,3242.2465,N,11705.3349,W,25.03,90.15,190310,,,A*7F
$GPRMC,233810.000,A,3242.2467,N,11705.3079,W,27.91,89.67,190310,,,A*7F
$GPRMC,233813.000,A,3242.2453,N,11705.2793,W,27.85,95.83,190310,,,A*7B
$GPRMC,233816.000,A,3242.2435,N,11705.2528,W,25.97,92.27,190310,,,A*74
$GPRMC,233819.000,A,3242.2434,N,11705.2265,W,26.60,89.88,190310,,,A*70
$GPRMC,233822.000,A,3242.2435,N,11705.1988,W,29.31,89.02,190310,,,A*7B
$GPRMC,233825.000,A,3242.2454,N,11705.1698,W,29.58,82.92,190310,,,A*78
$GPRMC,233828.000,A,3242.2513,N,11705.1404,W,31.77,70.41,190310,,,A*77
$GPRMC,233831.000,A,3242.2629,N,11705.1115,W,31.87,62.52,190310,,,A*7E
$GPRMC,233834.000,A,3242.2766,N,11705.0825,W,34.36,62.37,190310,,,A*76
$GPRMC,233837.000,A,3242.2905,N,11705.0520,W,34.69,62.60,190310,,,A*7E
$GPRMC,233840.000,A,3242.3035,N,11705.0246,W,28.51,60.64,190310,,,A*72
$GPRMC,233843.000,A,3242.3150,N,11704.9999,W,28.18,61.90,190310,,,A*75
$GPRMC,233846.000,A,3242.3267,N,11704.9752,W,28.25,60.01,190310,,,A*79
$GPRMC,233849.000,A,3242.3412,N,11704.9516,W,28.94,51.90,190310,,,A*70
$GPRMC,233852.000,A,3242.3557,N,11704.9301,W,27.30,51.36,190310,,,A*77
$GPRMC,233855.000,A,3242.3690,N,11704.9108,W,20.57,51.85,190310,,,A*7D
$GPRMC,233858.000,A,3242.3756,N,11704.9006,W,9.25,52.79,190310,,,A*4A
$GPRMC,233901.000,A,3242.3797,N,11704.8945,W,7.51,54.25,190310,,,A*47
$GPRMC,233904.000,A,3242.3834,N,11704.8884,W,7.74,58.29,190310,,,A*4F
$GPRMC,233907.000,A,3242.3871,N,11704.8806,W,11.51,64.31,190310,,,A*71
$GPRMC,233910.000,A,3242.3910,N,11704.8689,W,14.16,71.22,190310,,,A*78
$GPRMC,233913.000,A,3242.3948,N,11704.8538,W,18.38,74.89,190310,,,A*7B
$GPRMC,233916.000,A,3242.3987,N,11704.8356,W,18.93,75.59,190310,,,A*7E
$GPRMC,233919.000,A,3242.4026,N,11704.8187,W,14.74,73.93,190310,,,A*7F
$GPRMC,233922.000,A,3242.4055,N,11704.8069,W,11.44,74.13,190310,,,A*7B
$GPRMC,233925.000,A,3242.4080,N,11704.7963,W,11.83,74.26,190310,,,A*75
$GPRMC,233928.000,A,3242.4106,N,11704.7850,W,12.84,74.58,190310,,,A*7B
$GPRMC,233931.000,A,3242.4140,N,11704.7700,W,17.89,74.58,190310,,,A*73
$GPRMC,233934.000,A,3242.4177,N,11704.7541,W,13.59,74.08,190310,,,A*79
$GPRMC,233937.000,A,3242.4197,N,11704.7453,W,6.14,74.51,190310,,,A*47
$GPRMC,234013.000,A,3242.4197,N,11704.7360,W,11.57,75.27,190310,,,A*79
$GPRMC,234016.000,A,3242.4239,N,11704.7183,W,22.53,74.65,190310,,,A*77
$GPRMC,234019.000,A,3242.4295,N,11704.6942,W,25.53,75.31,190310,,,A*7D
$GPRMC,234022.000,A,3242.4357,N,11704.6683,W,27.78,74.29,190310,,,A*7B
$GPRMC,234025.000,A,3242.4427,N,11704.6399,W,30.40,74.21,190310,,,A*77
$GPRMC,234028.000,A,3242.4502,N,11704.6091,W,33.05,74.55,190310,,,A*76
$GPRMC,234031.000,A,3242.4586,N,11704.5760,W,35.54,71.99,190310,,,A*7F
$GPRMC,234034.000,A,3242.4687,N,11704.5405,W,38.71,73.65,190310,,,A*73
$GPRMC,234037.000,A,3242.4786,N,11704.5026,W,39.78,72.03,190310,,,A*7C
$GPRMC,234040.000,A,3242.4898,N,11704.4651,W,39.52,70.55,190310,,,A*72
$GPRMC,234043.000,A,3242.5010,N,11704.4289,W,37.99,70.25,190310,,,A*77
$GPRMC,234046.000,A,3242.5112,N,11704.3943,W,36.42,69.71,190310,,,A*75
$GPRMC,234049.000,A,3242.5211,N,11704.3617,W,34.20,69.81,190310,,,A*7D
$GPRMC,234052.000,A,3242.5300,N,11704.3306,W,32.94,71.81,190310,,,A*73
$GPRMC,234055.000,A,3242.5378,N,11704.2996,W,33.43,74.87,190310,,,A*71
$GPRMC,234058.000,A,3242.5434,N,11704.2665,W,34.70,81.60,190310,,,A*74
$GPRMC,234101.000,A,3242.5460,N,11704.2305,W,37.10,89.06,190310,,,A*76
$GPRMC,234104.000,A,3242.5462,N,11704.1934,W,37.17,87.20,190310,,,A*77
$GPRMC,234107.000,A,3242.5488,N,11704.1576,W,35.37,83.41,190310,,,A*79
$GPRMC,234110.000,A,3242.5527,N,11704.1242,W,31.38,82.13,190310,,,A*76
$GPRMC,234113.000,A,3242.5558,N,11704.0979,W,22.64,82.13,190310,,,A*74
$GPRMC,234116.000,A,3242.5582,N,11704.0787,W,19.34,82.54,190310,,,A*77
$GPRMC,234119.000,A,3242.5606,N,11704.0588,W,20.92,82.95,190310,,,A*71
$GPRMC,234122.000,A,3242.5633,N,11704.0375,W,23.09,83.36,190310,,,A*72
$GPRMC,234125.000,A,3242.5660,N,11704.0131,W,25.72,82.43,190310,,,A*78
$GPRMC,234128.000,A,3242.5690,N,11703.9859,W,29.26,82.41,190310,,,A*7C
$GPRMC,234131.000,A,3242.5724,N,11703.9584,W,27.17,80.67,190310,,,A*7D
$GPRMC,234134.000,A,3242.5758,N,11703.9331,W,25.30,80.49,190310,,,A*70
$GPRMC,234137.000,A,3242.5787,N,11703.9100,W,23.44,80.38,190310,,,A*72
$GPRMC,234140.000,A,3242.5811,N,11703.8875,W,24.23,82.47,190310,,,A*74
$GPRMC,234143.000,A,3242.5832,N,11703.8655,W,20.92,81.98,190310,,,A*75
$GPRMC,234146.000,A,3242.5834,N,11703.8512,W,9.58,85.44,190310,,,A*4E
$GPRMC,234222.000,A,3242.5763,N,11703.8478,W,10.15,82.42,190310,,,A*7F
$GPRMC,234225.000,A,3242.5794,N,11703.8323,W,18.77,81.60,190310,,,A*76
$GPRMC,234228.000,A,3242.5833,N,11703.8108,W,22.41,81.91,190310,,,A*70
$GPRMC,234231.000,A,3242.5873,N,11703.7884,W,22.90,80.92,190310,,,A*70
$GPRMC,234234.000,A,3242.5912,N,11703.7656,W,22.83,80.76,190310,,,A*7A
$GPRMC,234237.000,A,3242.5950,N,11703.7411,W,25.70,81.71,190310,,,A*73
$GPRMC,234240.000,A,3242.5991,N,11703.7136,W,29.21,81.53,190310,,,A*76
$GPRMC,234243.000,A,3242.6038,N,11703.6845,W,28.48,81.18,190310,,,A*71
$GPRMC,234246.000,A,3242.6075,N,11703.6575,W,26.61,80.98,190310,,,A*7F
$GPRMC,234249.000,A,3242.6103,N,11703.6333,W,23.99,81.07,190310,,,A*71
$GPRMC,234252.000,A,3242.6135,N,11703.6118,W,20.85,78.38,190310,,,A*71
$GPRMC,234255.000,A,3242.6158,N,11703.5934,W,19.39,81.63,190310,,,A*7D
$GPRMC,234258.000,A,3242.6180,N,11703.5742,W,19.61,82.18,190310,,,A*78
$GPRMC,234301.000,A,3242.6199,N,11703.5565,W,16.99,82.95,190310,,,A*77
$GPRMC,234304.000,A,3242.6218,N,11703.5408,W,15.07,81.61,190310,,,A*7E
$GPRMC,234307.000,A,3242.6236,N,11703.5271,W,13.07,82.97,190310,,,A*75
$GPRMC,234310.000,A,3242.6251,N,11703.5161,W,10.48,82.54,190310,,,A*77
$GPRMC,234313.000,A,3242.6260,N,11703.5094,W,4.94,80.40,190310,,,A*4E
$GPRMC,234346.000,A,3242.6264,N,11703.5048,W,5.37,84.88,190310,,,A*43
$GPRMC,234349.000,A,3242.6276,N,11703.4956,W,12.57,82.90,190310,,,A*77
$GPRMC,234352.000,A,3242.6297,N,11703.4802,W,15.86,82.32,190310,,,A*71
$GPRMC,234355.000,A,3242.6316,N,11703.4630,W,18.26,82.33,190310,,,A*77
$GPRMC,234358.000,A,3242.6343,N,11703.4445,W,17.31,80.69,190310,,,A*7E
$GPRMC,234401.000,A,3242.6357,N,11703.4305,W,11.96,81.13,190310,,,A*74
$GPRMC,234404.000,A,3242.6370,N,11703.4212,W,7.22,79.51,190310,,,A*4A
$GPRMC,234419.000,A,3242.6394,N,11703.4078,W,14.83,79.51,190310,,,A*7B
$GPRMC,234422.000,A,3242.6423,N,11703.3857,W,24.87,87.57,190310,,,A*7A
$GPRMC,234425.000,A,3242.6439,N,11703.3587,W,27.20,83.61,190310,,,A*79
$GPRMC,234428.000,A,3242.6465,N,11703.3354,W,18.01,78.91,190310,,,A*71
$GPRMC,234431.000,A,3242.6479,N,11703.3251,W,6.81,80.70,190310,,,A*4F
$GPRMC,234434.000,A,3242.6488,N,11703.3201,W,4.68,78.28,190310,,,A*4E
$GPRMC,234452.000,A,3242.6529,N,11703.3123,W,6.61,82.48,190310,,,A*4F
$GPRMC,234455.000,A,3242.6538,N,11703.3015,W,14.62,84.91,190310,,,A*7E
$GPRMC,234458.000,A,3242.6548,N,11703.2842,W,19.40,83.35,190310,,,A*7B
$GPRMC,234501.000,A,3242.6578,N,11703.2626,W,23.02,80.44,190310,,,A*73
$GPRMC,234504.000,A,3242.6612,N,11703.2382,W,25.62,81.43,190310,,,A*74
$GPRMC,234507.000,A,3242.6644,N,11703.2124,W,26.27,80.80,190310,,,A*76
$GPRMC,234510.000,A,3242.6675,N,11703.1872,W,25.89,81.79,190310,,,A*7B
$GPRMC,234513.000,A,3242.6704,N,11703.1611,W,26.60,81.67,190310,,,A*7F
$GPRMC,234516.000,A,3242.6734,N,11703.1361,W,24.16,83.27,190310,,,A*7E
$GPRMC,234519.000,A,3242.6756,N,11703.1127,W,22.95,83.17,190310,,,A*7B
$GPRMC,234522.000,A,3242.6781,N,11703.0911,W,21.67,81.43,190310,,,A*78
$GPRMC,234525.000,A,3242.6808,N,11703.0716,W,19.26,80.37,190310,,,A*74
$GPRMC,234528.000,A,3242.6843,N,11703.0496,W,26.36,75.61,190310,,,A*79
$GPRMC,234531.000,A,3242.6913,N,11703.0240,W,26.92,70.22,190310,,,A*74
$GPRMC,234534.000,A,3242.6991,N,11703.0027,W,18.70,62.30,190310,,,A*79
$GPRMC,234537.000,A,3242.7025,N,11702.9942,W,5.45,62.76,190310,,,A*47
$GPRMC,234634.000,A,3242.7070,N,11702.9850,W,7.85,73.32,190310,,,A*4B
$GPRMC,234637.000,A,3242.7115,N,11702.9742,W,14.48,61.43,190310,,,A*70
$GPRMC,234640.000,A,3242.7180,N,11702.9592,W,17.69,68.21,190310,,,A*7E
$GPRMC,234643.000,A,3242.7210,N,11702.9399,W,21.53,88.13,190310,,,A*79
$GPRMC,234646.000,A,3242.7214,N,11702.9178,W,22.54,89.29,190310,,,A*79
$GPRMC,234649.000,A,3242.7215,N,11702.8935,W,26.40,89.75,190310,,,A*7F
$GPRMC,234652.000,A,3242.7215,N,11702.8658,W,28.65,88.89,190310,,,A*7A
$GPRMC,234655.000,A,3242.7218,N,11702.8374,W,28.99,89.20,190310,,,A*7A
$GPRMC,234658.000,A,3242.7219,N,11702.8094,W,27.22,89.58,190310,,,A*7B
$GPRMC,234701.000,A,3242.7220,N,11702.7830,W,26.55,89.83,190310,,,A*72
$GPRMC,234704.000,A,3242.7223,N,11702.7556,W,29.46,89.04,190310,,,A*7B
$GPRMC,234707.000,A,3242.7224,N,11702.7254,W,30.49,90.05,190310,,,A*74
$GPRMC,234710.000,A,3242.7221,N,11702.6959,W,28.64,91.13,190310,,,A*70
$GPRMC,234713.000,A,3242.7221,N,11702.6665,W,31.07,89.64,190310,,,A*77
$GPRMC,234716.000,A,3242.7225,N,11702.6346,W,32.87,89.31,190310,,,A*79
$GPRMC,234719.000,A,3242.7229,N,11702.6018,W,32.95,89.48,190310,,,A*7F
$GPRMC,234722.000,A,3242.7232,N,11702.5696,W,32.17,89.37,190310,,,A*7C
$GPRMC,234725.000,A,3242.7233,N,11702.5377,W,32.35,89.37,190310,,,A*70
$GPRMC,234728.000,A,3242.7234,N,11702.5070,W,28.97,89.72,190310,,,A*7C
$GPRMC,234731.000,A,3242.7235,N,11702.4792,W,28.08,89.72,190310,,,A*79
$GPRMC,234734.000,A,3242.7238,N,11702.4509,W,29.39,89.11,190310,,,A*77
$GPRMC,234737.000,A,3242.7241,N,11702.4218,W,29.80,89.17,190310,,,A*79
$GPRMC,234740.000,A,3242.7245,N,11702.3930,W,28.98,89.19,190310,,,A*7D
$GPRMC,234743.000,A,3242.7248,N,11702.3632,W,31.53,89.53,190310,,,A*7F
$GPRMC,234746.000,A,3242.7249,N,11702.3306,W,33.70,90.03,190310,,,A*77
$GPRMC,234749.000,A,3242.7258,N,11702.3000,W,26.63,85.52,190310,,,A*7B
$GPRMC,234752.000,A,3242.7281,N,11702.2813,W,13.37,79.49,190310,,,A*70
$GPRMC,234755.000,A,3242.7302,N,11702.2723,W,7.72,75.90,190310,,,A*4D
$GPRMC,234758.000,A,3242.7317,N,11702.2668,W,4.97,73.96,190310,,,A*42
$GPRMC,234804.000,A,3242.7341,N,11702.2571,W,11.25,71.41,190310,,,A*79
$GPRMC,234807.000,A,3242.7397,N,11702.2424,W,19.40,64.41,190310,,,A*7F
$GPRMC,234810.000,A,3242.7484,N,11702.2232,W,24.52,60.54,190310,,,A*70
$GPRMC,234813.000,A,3242.7610,N,11702.2001,W,30.15,54.86,190310,,,A*70
$GPRMC,234816.000,A,3242.7781,N,11702.1754,W,32.61,49.15,190310,,,A*7F
$GPRMC,234819.000,A,3242.7956,N,11702.1515,W,31.68,49.48,190310,,,A*71
$GPRMC,234822.000,A,3242.8134,N,11702.1270,W,33.00,49.69,190310,,,A*71
$GPRMC,234825.000,A,3242.8314,N,11702.1021,W,32.24,49.80,190310,,,A*70
$GPRMC,234828.000,A,3242.8484,N,11702.0785,W,30.59,49.02,190310,,,A*79
$GPRMC,234831.000,A,3242.8647,N,11702.0560,W,29.20,50.25,190310,,,A*7E
$GPRMC,234834.000,A,3242.8806,N,11702.0336,W,29.94,50.56,190310,,,A*7E
$GPRMC,234837.000,A,3242.8967,N,11702.0107,W,29.47,50.90,190310,,,A*7F
$GPRMC,234840.000,A,3242.9091,N,11701.9867,W,28.61,67.41,190310,,,A*76
$GPRMC,234843.000,A,3242.9168,N,11701.9592,W,29.53,71.62,190310,,,A*73
$GPRMC,234846.000,A,3242.9241,N,11701.9312,W,29.92,72.12,190310,,,A*79
$GPRMC,234849.000,A,3242.9332,N,11701.9023,W,32.49,68.38,190310,,,A*7D
$GPRMC,234852.000,A,3242.9422,N,11701.8714,W,33.76,72.24,190310,,,A*78
$GPRMC,234855.000,A,3242.9509,N,11701.8388,W,34.69,72.38,190310,,,A*72
$GPRMC,234858.000,A,3242.9590,N,11701.8078,W,32.06,72.18,190310,,,A*7E
$GPRMC,234901.000,A,3242.9675,N,11701.7762,W,34.67,72.00,190310,,,A*70
$GPRMC,234904.000,A,3242.9769,N,11701.7438,W,35.11,68.47,190310,,,A*7D
$GPRMC,234907.000,A,3242.9883,N,11701.7131,W,32.39,64.64,190310,,,A*79
$GPRMC,234910.000,A,3242.9993,N,11701.6853,W,30.95,65.20,190310,,,A*76
$GPRMC,234913.000,A,3243.0107,N,11701.6571,W,32.23,64.54,190310,,,A*78
