NMEA Sentence Code,UTC Time,Status,Latitude,Latitude Direction,Longitude,Longitude Direction,Speed (knots),Track Angle (degrees true),Date,MagneticVariation,Magnetic Variation Direction,[FAA Mode]-Optional,Checksum
$GPRMC,170307.000,A,3245.7157,N,11709.9698,W,16.52,66.80,280310,,,A*7A
$GPRMC,170310.000,A,3245.7224,N,11709.9505,W,20.90,64.69,280310,,,A*72
$GPRMC,170313.000,A,3245.7347,N,11709.9376,W,23.81,42.89,280310,,,A*7E
$GPRMC,170316.000,A,3245.7537,N,11709.9225,W,27.70,34.45,280310,,,A*76
$GPRMC,170319.000,A,3245.7730,N,11709.9055,W,28.67,36.56,280310,,,A*70
$GPRMC,170322.000,A,3245.7907,N,11709.8887,W,30.15,41.48,280310,,,A*77
$GPRMC,170324.000,A,3245.8097,N,11709.8704,W,29.65,39.02,280310,,,A*74
$GPRMC,170328.000,A,3245.8264,N,11709.8578,W,21.87,26.72,280310,,,A*72
$GPRMC,170332.000,A,3245.8563,N,11709.8562,W,21.38,354.38,280310,,,A*4E
$GPRMC,170333.000,A,3245.8628,N,11709.8588,W,22.36,346.64,280310,,,A*40
$GPRMC,170338.000,A,3245.8978,N,11709.8730,W,28.67,344.53,280310,,,A*48
$GPRMC,170342.000,A,3245.9300,N,11709.8775,W,21.87,05.27,280310,,,A*72
$GPRMC,170345.000,A,3245.9445,N,11709.8717,W,18.47,27.42,280310,,,A*72
$GPRMC,170401.000,A,3245.9474,N,11709.8572,W,3.40,50.27,280310,,,A*48
$GPRMC,170404.000,A,3245.9500,N,11709.8478,W,13.12,71.37,280310,,,A*70
$GPRMC,170407.000,A,3245.9551,N,11709.8292,W,21.41,72.42,280310,,,A*73
$GPRMC,170410.000,A,3245.9609,N,11709.8070,W,24.80,72.42,280310,,,A*7D
$GPRMC,170413.000,A,3245.9674,N,11709.7819,W,27.22,72.42,280310,,,A*77
$GPRMC,170416.000,A,3245.9761,N,11709.7516,W,26.24,71.02,280310,,,A*75
$GPRMC,170419.000,A,3245.9796,N,11709.7288,W,26.73,78.40,280310,,,A*7F
$GPRMC,170422.000,A,3245.9806,N,11709.7037,W,25.27,91.41,280310,,,A*73
$GPRMC,170425.000,A,3245.9806,N,11709.6802,W,23.83,91.41,280310,,,A*73
$GPRMC,170428.000,A,3245.9802,N,11709.6547,W,17.98,91.41,280310,,,A*7B
$GPRMC,170432.000,A,3245.9748,N,11709.6451,W,11.18,147.66,280310,,,A*46
$GPRMC,170435.000,A,3245.9632,N,11709.6412,W,16.04,164.88,280310,,,A*41
$GPRMC,170438.000,A,3245.9481,N,11709.6367,W,19.93,164.18,280310,,,A*4B
$GPRMC,170441.000,A,3245.9316,N,11709.6312,W,21.41,163.48,280310,,,A*48
$GPRMC,170444.000,A,3245.9143,N,11709.6254,W,21.87,163.48,280310,,,A*46
$GPRMC,170447.000,A,3245.8966,N,11709.6187,W,22.36,160.31,280310,,,A*42
$GPRMC,170450.000,A,3245.8818,N,11709.6081,W,21.87,145.20,280310,,,A*45
$GPRMC,170453.000,A,3245.8705,N,11709.5894,W,22.36,116.72,280310,,,A*42
$GPRMC,170457.000,A,3245.8686,N,11709.5591,W,23.81,94.22,280310,,,A*77
$GPRMC,170500.000,A,3245.8792,N,11709.5247,W,30.13,72.77,280310,,,A*7D
$GPRMC,170504.000,A,3245.8879,N,11709.4912,W,31.59,74.18,280310,,,A*79
$GPRMC,170506.000,A,3245.8937,N,11709.4703,W,32.56,74.53,280310,,,A*7D
$GPRMC,170510.000,A,3245.9027,N,11709.4291,W,34.50,73.83,280310,,,A*77
$GPRMC,170513.000,A,3245.9136,N,11709.3850,W,35.48,74.18,280310,,,A*78
$GPRMC,170517.000,A,3245.9275,N,11709.3380,W,37.91,72.42,280310,,,A*71
$GPRMC,170522.000,A,3245.9429,N,11709.2798,W,36.45,72.42,280310,,,A*7C
$GPRMC,170525.000,A,3245.9535,N,11709.2534,W,29.65,60.82,280310,,,A*70
$GPRMC,170528.000,A,3245.9638,N,11709.2363,W,29.66,53.79,280310,,,A*70
$GPRMC,170532.000,A,3245.9947,N,11709.2247,W,20.41,30.59,280310,,,A*70
$GPRMC,170534.000,A,3246.0005,N,11709.2157,W,17.50,46.05,280310,,,A*7D
$GPRMC,170538.000,A,3245.9999,N,11709.2025,W,15.55,79.45,280310,,,A*7C
$GPRMC,170541.000,A,3245.9915,N,11709.1945,W,9.72,128.32,280310,,,A*77
$GPRMC,170543.000,A,3245.9741,N,11709.2009,W,19.44,189.49,280310,,,A*4B
$GPRMC,170547.000,A,3245.9506,N,11709.2125,W,22.84,203.20,280310,,,A*4B
$GPRMC,170550.000,A,3245.9281,N,11709.2231,W,23.81,200.74,280310,,,A*45
$GPRMC,170553.000,A,3245.9136,N,11709.2289,W,19.93,198.98,280310,,,A*40
$GPRMC,170556.000,A,3245.9043,N,11709.2299,W,10.69,160.31,280310,,,A*4F
$GPRMC,170600.000,A,3245.9001,N,11709.2176,W,12.64,104.77,280310,,,A*44
$GPRMC,170603.000,A,3245.9133,N,11709.1896,W,25.27,61.88,280310,,,A*72
$GPRMC,170604.000,A,3245.9172,N,11709.1813,W,26.73,63.63,280310,,,A*78
$GPRMC,170607.000,A,3245.9255,N,11709.1597,W,33.05,66.80,280310,,,A*71
$GPRMC,170612.000,A,3245.9419,N,11709.1018,W,39.36,72.07,280310,,,A*79
$GPRMC,170614.000,A,3245.9522,N,11709.0654,W,40.82,72.77,280310,,,A*7F
$GPRMC,170617.000,A,3245.9616,N,11709.0322,W,45.20,72.42,280310,,,A*77
$GPRMC,170621.000,A,3245.9770,N,11708.9730,W,49.08,73.48,280310,,,A*71
$GPRMC,170624.000,A,3245.9918,N,11708.9132,W,51.51,73.83,280310,,,A*72
$GPRMC,170627.000,A,3246.0015,N,11708.8749,W,52.97,73.12,280310,,,A*75
$GPRMC,170631.000,A,3246.0259,N,11708.7960,W,54.43,67.85,280310,,,A*76
$GPRMC,170632.000,A,3246.0334,N,11708.7783,W,54.43,66.80,280310,,,A*78
$GPRMC,170637.000,A,3246.0675,N,11708.6991,W,54.92,62.58,280310,,,A*7C
$GPRMC,170640.000,A,3246.0900,N,11708.6499,W,56.37,61.88,280310,,,A*77
$GPRMC,170643.000,A,3246.1116,N,11708.6013,W,57.35,62.23,280310,,,A*7D
$GPRMC,170646.000,A,3246.1325,N,11708.5469,W,59.78,65.04,280310,,,A*75
$GPRMC,170649.000,A,3246.1508,N,11708.4954,W,58.32,67.15,280310,,,A*7C
$GPRMC,170654.000,A,3246.1821,N,11708.4007,W,60.75,69.61,280310,,,A*7C
$GPRMC,170657.000,A,3246.1940,N,11708.3595,W,56.37,72.07,280310,,,A*79
$GPRMC,170700.000,A,3246.2068,N,11708.3113,W,54.92,73.48,280310,,,A*77
$GPRMC,170704.000,A,3246.2155,N,11708.2417,W,50.06,82.27,280310,,,A*72
$GPRMC,170707.000,A,3246.2171,N,11708.1960,W,49.09,85.78,280310,,,A*73
$GPRMC,170710.000,A,3246.2207,N,11708.1320,W,50.06,85.78,280310,,,A*7E
$GPRMC,170713.000,A,3246.2239,N,11708.0956,W,48.60,85.08,280310,,,A*74
$GPRMC,170716.000,A,3246.2284,N,11708.0483,W,46.65,82.27,280310,,,A*73
$GPRMC,170719.000,A,3246.2332,N,11708.0042,W,46.17,81.91,280310,,,A*72
$GPRMC,170722.000,A,3246.2358,N,11707.9649,W,44.71,89.30,280310,,,A*7C
$GPRMC,170725.000,A,3246.2239,N,11707.9122,W,40.35,110.04,280310,,,A*45
$GPRMC,170728.000,A,3246.2110,N,11707.8874,W,37.42,119.18,280310,,,A*4F
$GPRMC,170731.000,A,3246.1821,N,11707.8590,W,41.31,136.76,280310,,,A*48
$GPRMC,170734.000,A,3246.1541,N,11707.8320,W,42.77,141.68,280310,,,A*45
$GPRMC,170737.000,A,3246.1235,N,11707.8072,W,43.74,145.55,280310,,,A*4E
$GPRMC,170740.000,A,3246.0900,N,11707.7876,W,44.24,151.52,280310,,,A*41
$GPRMC,170743.000,A,3246.0494,N,11707.7651,W,45.20,153.98,280310,,,A*48
$GPRMC,170746.000,A,3246.0147,N,11707.7457,W,46.17,154.34,280310,,,A*44
$GPRMC,170749.000,A,3245.9799,N,11707.7268,W,47.14,156.80,280310,,,A*41
$GPRMC,170752.000,A,3245.9442,N,11707.7087,W,46.17,156.80,280310,,,A*4F
$GPRMC,170756.000,A,3245.9024,N,11707.6904,W,46.66,162.07,280310,,,A*42
$GPRMC,170759.000,A,3245.8579,N,11707.6753,W,45.20,162.42,280310,,,A*4D
$GPRMC,170803.000,A,3245.8177,N,11707.6637,W,43.75,165.59,280310,,,A*4F
$GPRMC,170805.000,A,3245.7849,N,11707.6563,W,43.25,168.05,280310,,,A*41
$GPRMC,170809.000,A,3245.7372,N,11707.6431,W,44.71,166.29,280310,,,A*4E
$GPRMC,170814.000,A,3245.6841,N,11707.6328,W,43.75,169.45,280310,,,A*41
$GPRMC,170817.000,A,3245.6355,N,11707.6205,W,47.63,167.70,280310,,,A*49
$GPRMC,170820.000,A,3245.5963,N,11707.6102,W,49.08,166.64,280310,,,A*42
$GPRMC,170823.000,A,3245.5525,N,11707.5977,W,50.06,164.53,280310,,,A*46
$GPRMC,170826.000,A,3245.5148,N,11707.5842,W,48.11,164.53,280310,,,A*44
$GPRMC,170830.000,A,3245.4739,N,11707.5716,W,45.20,167.34,280310,,,A*41
$GPRMC,170833.000,A,3245.4373,N,11707.5613,W,43.74,168.05,280310,,,A*46
$GPRMC,170835.000,A,3245.4147,N,11707.5565,W,41.31,167.34,280310,,,A*49
$GPRMC,170839.000,A,3245.3745,N,11707.5462,W,34.99,168.40,280310,,,A*4C
$GPRMC,170842.000,A,3245.3507,N,11707.5388,W,26.73,167.70,280310,,,A*4C
$GPRMC,170845.000,A,3245.3359,N,11707.5343,W,16.52,165.94,280310,,,A*49
$GPRMC,170921.000,A,3245.3224,N,11707.5204,W,11.66,120.59,280310,,,A*43
$GPRMC,170925.000,A,3245.3185,N,11707.4876,W,15.55,86.84,280310,,,A*78
$GPRMC,170928.000,A,3245.3185,N,11707.4812,W,7.78,85.78,280310,,,A*4B
$GPRMC,170944.000,A,3245.3188,N,11707.4709,W,3.40,104.77,280310,,,A*71
$GPRMC,170947.000,A,3245.3188,N,11707.4638,W,8.26,89.30,280310,,,A*4D
$GPRMC,170950.000,A,3245.3227,N,11707.4561,W,8.80,55.90,280310,,,A*45
$GPRMC,170954.000,A,3245.3365,N,11707.4574,W,7.78,351.91,280310,,,A*7C
$GPRMC,170957.000,A,3245.3500,N,11707.4699,W,14.09,325.20,280310,,,A*47
$GPRMC,171002.000,A,3245.3944,N,11707.5040,W,34.99,332.58,280310,,,A*42
$GPRMC,171005.000,A,3245.4347,N,11707.5224,W,43.74,339.96,280310,,,A*41
$GPRMC,171008.000,A,3245.4772,N,11707.5378,W,47.63,342.42,280310,,,A*41
$GPRMC,171011.000,A,3245.5184,N,11707.5536,W,49.57,342.77,280310,,,A*44
$GPRMC,171013.000,A,3245.5412,N,11707.5626,W,50.06,342.77,280310,,,A*42
$GPRMC,171018.000,A,3245.6130,N,11707.5855,W,49.57,345.59,280310,,,A*42
$GPRMC,171021.000,A,3245.6529,N,11707.5974,W,49.08,346.64,280310,,,A*41
$GPRMC,171024.000,A,3245.6925,N,11707.6080,W,48.12,348.05,280310,,,A*46
$GPRMC,171026.000,A,3245.7166,N,11707.6138,W,44.72,351.21,280310,,,A*4C
$GPRMC,171030.000,A,3245.7707,N,11707.6292,W,48.61,348.05,280310,,,A*49
$GPRMC,171033.000,A,3245.8100,N,11707.6431,W,49.57,344.88,280310,,,A*46
$GPRMC,171036.000,A,3245.8492,N,11707.6579,W,49.57,342.42,280310,,,A*40
$GPRMC,171039.000,A,3245.8924,N,11707.6743,W,54.92,341.02,280310,,,A*46
$GPRMC,171042.000,A,3245.9374,N,11707.6942,W,57.35,337.85,280310,,,A*4B
$GPRMC,171045.000,A,3245.9931,N,11707.7165,W,53.95,339.61,280310,,,A*41
$GPRMC,171049.000,A,3246.0362,N,11707.7338,W,49.57,340.66,280310,,,A*4D
$GPRMC,171051.000,A,3246.0694,N,11707.7480,W,47.14,340.31,280310,,,A*47
$GPRMC,171055.000,A,3246.1129,N,11707.7647,W,47.64,338.55,280310,,,A*40
$GPRMC,171058.000,A,3246.1476,N,11707.7831,W,43.26,335.39,280310,,,A*48
$GPRMC,171101.000,A,3246.1817,N,11707.7989,W,42.28,336.45,280310,,,A*4B
$GPRMC,171104.000,A,3246.2142,N,11707.8114,W,41.81,343.12,280310,,,A*47
$GPRMC,171107.000,A,3246.2532,N,11707.8114,W,46.18,359.65,280310,,,A*4B
$GPRMC,171110.000,A,3246.2928,N,11707.8014,W,49.08,09.84,280310,,,A*7C
$GPRMC,171112.000,A,3246.3069,N,11707.7783,W,45.20,28.12,280310,,,A*7F
$GPRMC,171116.000,A,3246.3465,N,11707.7158,W,47.14,48.87,280310,,,A*7C
$GPRMC,171119.000,A,3246.3723,N,11707.6730,W,51.51,51.68,280310,,,A*74
$GPRMC,171122.000,A,3246.3983,N,11707.6308,W,52.97,53.44,280310,,,A*72
$GPRMC,171125.000,A,3246.4283,N,11707.5855,W,54.43,53.79,280310,,,A*78
$GPRMC,171128.000,A,3246.4585,N,11707.5381,W,56.86,53.44,280310,,,A*73
$GPRMC,171131.000,A,3246.4846,N,11707.4905,W,56.37,55.55,280310,,,A*72
$GPRMC,171135.000,A,3246.5094,N,11707.4297,W,55.40,59.06,280310,,,A*79
$GPRMC,171138.000,A,3246.5326,N,11707.3817,W,55.40,59.41,280310,,,A*78
$GPRMC,171141.000,A,3246.5580,N,11707.3379,W,53.46,56.60,280310,,,A*73
$GPRMC,171144.000,A,3246.5825,N,11707.2984,W,51.03,54.84,280310,,,A*76
$GPRMC,171147.000,A,3246.6088,N,11707.2568,W,50.06,55.55,280310,,,A*7E
$GPRMC,171150.000,A,3246.6307,N,11707.2169,W,49.57,55.90,280310,,,A*7C
$GPRMC,171153.000,A,3246.6497,N,11707.1664,W,52.49,61.52,280310,,,A*74
$GPRMC,171156.000,A,3246.6700,N,11707.1197,W,54.92,65.39,280310,,,A*7E
$GPRMC,171159.000,A,3246.6848,N,11707.0673,W,55.89,72.42,280310,,,A*7F
$GPRMC,171204.000,A,3246.7012,N,11706.9771,W,54.92,80.16,280310,,,A*7E
$GPRMC,171207.000,A,3246.7060,N,11706.9237,W,53.94,84.73,280310,,,A*79
$GPRMC,171210.000,A,3246.7083,N,11706.8683,W,54.92,86.84,280310,,,A*73
$GPRMC,171213.000,A,3246.7112,N,11706.8165,W,54.43,87.19,280310,,,A*7F
$GPRMC,171216.000,A,3246.7115,N,11706.7583,W,57.35,89.30,280310,,,A*79
$GPRMC,171219.000,A,3246.7112,N,11706.7129,W,58.80,89.65,280310,,,A*74
$GPRMC,171223.000,A,3246.7125,N,11706.6205,W,60.26,89.30,280310,,,A*72
$GPRMC,171226.000,A,3246.7141,N,11706.5626,W,58.80,88.95,280310,,,A*7A
$GPRMC,171229.000,A,3246.7151,N,11706.5046,W,58.80,88.59,280310,,,A*74
$GPRMC,171232.000,A,3246.7144,N,11706.4461,W,58.32,89.30,280310,,,A*7D
$GPRMC,171234.000,A,3246.7144,N,11706.4084,W,57.83,89.65,280310,,,A*71
$GPRMC,171239.000,A,3246.7160,N,11706.3125,W,58.32,88.24,280310,,,A*76
$GPRMC,171242.000,A,3246.7209,N,11706.2533,W,60.26,85.43,280310,,,A*76
$GPRMC,171245.000,A,3246.7241,N,11706.1934,W,59.78,84.73,280310,,,A*76
$GPRMC,171248.000,A,3246.7283,N,11706.1345,W,60.75,83.67,280310,,,A*7C
$GPRMC,171251.000,A,3246.7344,N,11706.0875,W,61.72,81.21,280310,,,A*71
$GPRMC,171254.000,A,3246.7440,N,11706.0280,W,62.21,79.45,280310,,,A*77
$GPRMC,171257.000,A,3246.7543,N,11705.9678,W,62.70,78.75,280310,,,A*79
$GPRMC,171300.000,A,3246.7640,N,11705.9118,W,63.19,78.40,280310,,,A*73
$GPRMC,171304.000,A,3246.7807,N,11705.8117,W,61.72,78.75,280310,,,A*7D
$GPRMC,171307.000,A,3246.7910,N,11705.7508,W,62.21,78.75,280310,,,A*79
$GPRMC,171311.000,A,3246.8026,N,11705.6829,W,63.18,78.75,280310,,,A*79
$GPRMC,171315.000,A,3246.8152,N,11705.6021,W,63.18,80.51,280310,,,A*7E
$GPRMC,171317.000,A,3246.8200,N,11705.5609,W,63.18,82.27,280310,,,A*74
$GPRMC,171321.000,A,3246.8284,N,11705.4611,W,65.12,85.78,280310,,,A*74
$GPRMC,171324.000,A,3246.8322,N,11705.3971,W,64.15,85.78,280310,,,A*74
$GPRMC,171327.000,A,3246.8367,N,11705.3363,W,63.18,86.13,280310,,,A*7B
$GPRMC,171330.000,A,3246.8380,N,11705.2748,W,62.69,87.54,280310,,,A*7D
$GPRMC,171333.000,A,3246.8383,N,11705.2268,W,62.72,89.30,280310,,,A*7C
$GPRMC,171336.000,A,3246.8358,N,11705.1660,W,62.21,94.22,280310,,,A*79
$GPRMC,171339.000,A,3246.8300,N,11705.1045,W,62.24,98.09,280310,,,A*7A
$GPRMC,171342.000,A,3246.8213,N,11705.0440,W,62.24,99.14,280310,,,A*78
$GPRMC,171345.000,A,3246.8132,N,11704.9883,W,62.21,99.14,280310,,,A*71
$GPRMC,171348.000,A,3246.8042,N,11704.9230,W,62.24,99.14,280310,,,A*7D
$GPRMC,171351.000,A,3246.7958,N,11704.8625,W,61.75,99.14,280310,,,A*7E
$GPRMC,171354.000,A,3246.7872,N,11704.8023,W,61.75,99.14,280310,,,A*72
$GPRMC,171357.000,A,3246.7798,N,11704.7424,W,61.75,98.09,280310,,,A*7B
$GPRMC,171400.000,A,3246.7724,N,11704.6822,W,62.24,98.44,280310,,,A*7C
$GPRMC,171403.000,A,3246.7646,N,11704.6214,W,62.24,98.79,280310,,,A*7B
$GPRMC,171405.000,A,3246.7582,N,11704.5667,W,62.21,97.73,280310,,,A*75
$GPRMC,171408.000,A,3246.7530,N,11704.5046,W,62.69,95.98,280310,,,A*7F
$GPRMC,171412.000,A,3246.7485,N,11704.4389,W,60.76,93.52,280310,,,A*76
$GPRMC,171415.000,A,3246.7466,N,11704.3794,W,60.26,91.05,280310,,,A*76
$GPRMC,171418.000,A,3246.7498,N,11704.3076,W,59.30,87.89,280310,,,A*7F
$GPRMC,171421.000,A,3246.7498,N,11704.2480,W,59.29,87.89,280310,,,A*71
$GPRMC,171424.000,A,3246.7534,N,11704.1936,W,56.86,87.19,280310,,,A*73
$GPRMC,171427.000,A,3246.7566,N,11704.1364,W,57.83,87.54,280310,,,A*77
$GPRMC,171430.000,A,3246.7582,N,11704.0778,W,58.32,88.24,280310,,,A*7E
$GPRMC,171433.000,A,3246.7575,N,11704.0243,W,56.37,89.30,280310,,,A*77
$GPRMC,171435.000,A,3246.7582,N,11703.9889,W,55.40,88.59,280310,,,A*76
$GPRMC,171440.000,A,3246.7611,N,11703.8930,W,56.37,88.95,280310,,,A*7C
$GPRMC,171443.000,A,3246.7608,N,11703.8370,W,57.83,92.11,280310,,,A*70
$GPRMC,171446.000,A,3246.7534,N,11703.7788,W,59.29,99.49,280310,,,A*7D
$GPRMC,171449.000,A,3246.7408,N,11703.7369,W,58.32,106.52,280310,,,A*41
$GPRMC,171452.000,A,3246.7218,N,11703.6819,W,60.26,108.98,280310,,,A*47
$GPRMC,171455.000,A,3246.7038,N,11703.6265,W,61.23,110.04,280310,,,A*49
$GPRMC,171458.000,A,3246.6871,N,11703.5695,W,62.21,107.93,280310,,,A*41
$GPRMC,171502.000,A,3246.6697,N,11703.4933,W,62.21,103.71,280310,,,A*43
$GPRMC,171505.000,A,3246.6549,N,11703.4163,W,62.69,101.60,280310,,,A*47
$GPRMC,171508.000,A,3246.6455,N,11703.3545,W,63.18,101.95,280310,,,A*4C
$GPRMC,171511.000,A,3246.6368,N,11703.2921,W,63.66,101.25,280310,,,A*40
$GPRMC,171514.000,A,3246.6240,N,11703.2306,W,62.69,101.60,280310,,,A*4E
$GPRMC,171517.000,A,3246.6143,N,11703.1830,W,62.69,103.71,280310,,,A*42
$GPRMC,171520.000,A,3246.6005,N,11703.1241,W,61.72,106.17,280310,,,A*45
$GPRMC,171523.000,A,3246.5844,N,11703.0671,W,61.23,108.98,280310,,,A*43
$GPRMC,171526.000,A,3246.5660,N,11703.0121,W,60.76,113.20,280310,,,A*44
$GPRMC,171530.000,A,3246.5319,N,11702.9287,W,60.26,117.07,280310,,,A*4B
$GPRMC,171531.000,A,3246.5232,N,11702.9104,W,61.23,118.12,280310,,,A*45
$GPRMC,171536.000,A,3246.4772,N,11702.8215,W,61.72,121.29,280310,,,A*46
$GPRMC,171539.000,A,3246.4521,N,11702.7716,W,60.26,120.94,280310,,,A*43
$GPRMC,171542.000,A,3246.4257,N,11702.7218,W,59.29,120.94,280310,,,A*47
$GPRMC,171545.000,A,3246.3993,N,11702.6703,W,60.26,120.94,280310,,,A*4F
$GPRMC,171548.000,A,3246.3787,N,11702.6136,W,61.23,113.91,280310,,,A*48
$GPRMC,171551.000,A,3246.3652,N,11702.5554,W,61.72,105.82,280310,,,A*4B
$GPRMC,171554.000,A,3246.3543,N,11702.4977,W,61.72,99.84,280310,,,A*73
$GPRMC,171557.000,A,3246.3539,N,11702.4359,W,61.72,90.00,280310,,,A*7E
$GPRMC,171559.000,A,3246.3559,N,11702.3960,W,61.72,85.43,280310,,,A*72
$GPRMC,171603.000,A,3246.3674,N,11702.3365,W,61.23,76.64,280310,,,A*70
$GPRMC,171608.000,A,3246.3945,N,11702.2222,W,59.29,74.88,280310,,,A*74
$GPRMC,171610.000,A,3246.4019,N,11702.1842,W,58.80,75.23,280310,,,A*77
$GPRMC,171615.000,A,3246.4222,N,11702.1057,W,55.40,74.53,280310,,,A*73
$GPRMC,171617.000,A,3246.4299,N,11702.0706,W,55.41,77.70,280310,,,A*70
$GPRMC,171621.000,A,3246.4389,N,11701.9873,W,55.89,86.48,280310,,,A*73
$GPRMC,171624.000,A,3246.4383,N,11701.9306,W,56.37,91.05,280310,,,A*7C
$GPRMC,171627.000,A,3246.4334,N,11701.8759,W,55.40,94.22,280310,,,A*7F
$GPRMC,171632.000,A,3246.4022,N,11701.7957,W,52.49,113.20,280310,,,A*42
$GPRMC,171637.000,A,3246.3636,N,11701.7134,W,57.83,116.37,280310,,,A*4E
$GPRMC,171640.000,A,3246.3359,N,11701.6635,W,59.78,118.83,280310,,,A*4E
$GPRMC,171643.000,A,3246.3079,N,11701.6107,W,61.72,119.88,280310,,,A*41
$GPRMC,171647.000,A,3246.2854,N,11701.5544,W,60.27,117.42,280310,,,A*4A
$GPRMC,171650.000,A,3246.2596,N,11701.4845,W,60.75,113.20,280310,,,A*45
$GPRMC,171652.000,A,3246.2480,N,11701.4446,W,61.72,109.34,280310,,,A*46
$GPRMC,171656.000,A,3246.2393,N,11701.3651,W,60.75,100.20,280310,,,A*4E
$GPRMC,171700.000,A,3246.2509,N,11701.2956,W,61.72,85.08,280310,,,A*70
$GPRMC,171703.000,A,3246.2616,N,11701.2347,W,61.26,78.05,280310,,,A*7A
$GPRMC,171706.000,A,3246.2754,N,11701.1768,W,61.26,70.31,280310,,,A*7D
$GPRMC,171709.000,A,3246.2944,N,11701.1208,W,61.72,67.85,280310,,,A*76
$GPRMC,171712.000,A,3246.3214,N,11701.0687,W,62.72,58.36,280310,,,A*76
$GPRMC,171714.000,A,3246.3398,N,11701.0336,W,62.72,58.36,280310,,,A*7A
$GPRMC,171718.000,A,3246.3839,N,11700.9509,W,63.67,57.66,280310,,,A*7B
$GPRMC,171722.000,A,3246.4132,N,11700.8800,W,61.24,64.34,280310,,,A*70
$GPRMC,171726.000,A,3246.4434,N,11700.8034,W,62.69,65.74,280310,,,A*77
$GPRMC,171729.000,A,3246.4634,N,11700.7461,W,63.67,66.80,280310,,,A*76
$GPRMC,171732.000,A,3246.4833,N,11700.6879,W,63.66,66.80,280310,,,A*70
$GPRMC,171735.000,A,3246.5049,N,11700.6296,W,64.16,66.80,280310,,,A*78
$GPRMC,171738.000,A,3246.5203,N,11700.5855,W,63.67,66.80,280310,,,A*7E
$GPRMC,171741.000,A,3246.5413,N,11700.5276,W,64.15,67.50,280310,,,A*72
$GPRMC,171743.000,A,3246.5551,N,11700.4890,W,63.66,67.50,280310,,,A*77
$GPRMC,171747.000,A,3246.5873,N,11700.3979,W,63.18,67.50,280310,,,A*76
$GPRMC,171750.000,A,3246.6079,N,11700.3393,W,63.18,67.50,280310,,,A*7F
$GPRMC,171752.000,A,3246.6211,N,11700.2991,W,63.66,67.50,280310,,,A*71
$GPRMC,171756.000,A,3246.6494,N,11700.2225,W,63.18,66.45,280310,,,A*76
$GPRMC,171800.000,A,3246.6742,N,11700.1703,W,59.78,61.17,280310,,,A*7F
$GPRMC,171803.000,A,3246.7135,N,11700.1008,W,63.18,59.77,280310,,,A*75
$GPRMC,171806.000,A,3246.7392,N,11700.0467,W,63.67,60.82,280310,,,A*7B
$GPRMC,171809.000,A,3246.7537,N,11659.9885,W,62.70,71.72,280310,,,A*71
$GPRMC,171812.000,A,3246.7572,N,11659.9267,W,62.69,84.38,280310,,,A*70
$GPRMC,171815.000,A,3246.7588,N,11659.8636,W,64.15,89.30,280310,,,A*7B
$GPRMC,171817.000,A,3246.7556,N,11659.8214,W,64.64,91.76,280310,,,A*73
$GPRMC,171821.000,A,3246.7521,N,11659.7371,W,64.15,92.46,280310,,,A*7D
$GPRMC,171824.000,A,3246.7492,N,11659.6750,W,65.12,92.81,280310,,,A*7A
$GPRMC,171827.000,A,3246.7463,N,11659.6103,W,66.09,92.46,280310,,,A*75
$GPRMC,171830.000,A,3246.7440,N,11659.5443,W,66.58,92.46,280310,,,A*74
$GPRMC,171834.000,A,3246.7424,N,11659.4548,W,66.58,91.76,280310,,,A*79
$GPRMC,171837.000,A,3246.7392,N,11659.3895,W,65.12,92.11,280310,,,A*75
$GPRMC,171840.000,A,3246.7366,N,11659.3232,W,64.64,92.46,280310,,,A*7B
$GPRMC,171843.000,A,3246.7357,N,11659.2630,W,63.18,91.41,280310,,,A*75
$GPRMC,171846.000,A,3246.7334,N,11659.2006,W,63.18,91.05,280310,,,A*76
$GPRMC,171849.000,A,3246.7344,N,11659.1404,W,58.80,85.08,280310,,,A*7A
$GPRMC,171852.000,A,3246.7450,N,11659.0837,W,57.83,76.99,280310,,,A*77
$GPRMC,171854.000,A,3246.7553,N,11659.0480,W,58.32,71.72,280310,,,A*74
$GPRMC,171858.000,A,3246.7827,N,11658.9936,W,58.80,61.88,280310,,,A*73
$GPRMC,171902.000,A,3246.8425,N,11658.9315,W,59.29,39.38,280310,,,A*73
$GPRMC,171907.000,A,3246.9108,N,11658.8838,W,56.37,28.83,280310,,,A*78
$GPRMC,171910.000,A,3246.9574,N,11658.8571,W,58.80,27.07,280310,,,A*70
$GPRMC,171913.000,A,3246.9896,N,11658.8375,W,58.32,27.07,280310,,,A*79
$GPRMC,171917.000,A,3247.0685,N,11658.8024,W,61.23,24.61,280310,,,A*77
$GPRMC,171920.000,A,3247.1190,N,11658.7760,W,64.64,25.66,280310,,,A*79
$GPRMC,171923.000,A,3247.1570,N,11658.7345,W,62.70,33.05,280310,,,A*72
$GPRMC,171926.000,A,3247.1953,N,11658.7055,W,58.32,28.48,280310,,,A*74
$GPRMC,171929.000,A,3247.2394,N,11658.6804,W,58.80,24.26,280310,,,A*79
$GPRMC,171932.000,A,3247.2902,N,11658.6688,W,59.78,11.60,280310,,,A*7E
$GPRMC,171935.000,A,3247.3424,N,11658.6601,W,59.78,04.92,280310,,,A*79
$GPRMC,171938.000,A,3247.3919,N,11658.6579,W,59.78,01.76,280310,,,A*74
$GPRMC,171941.000,A,3247.4380,N,11658.6614,W,58.32,359.65,280310,,,A*4C
$GPRMC,171944.000,A,3247.4863,N,11658.6601,W,58.80,03.16,280310,,,A*7A
$GPRMC,171947.000,A,3247.5349,N,11658.6543,W,58.32,04.92,280310,,,A*7C
$GPRMC,171950.000,A,3247.5809,N,11658.6457,W,58.80,08.79,280310,,,A*71
$GPRMC,171953.000,A,3247.6343,N,11658.6337,W,60.75,08.44,280310,,,A*7A
$GPRMC,171956.000,A,3247.6848,N,11658.6273,W,60.75,07.73,280310,,,A*75
$GPRMC,171959.000,A,3247.7357,N,11658.6170,W,60.75,07.73,280310,,,A*7E
$GPRMC,172002.000,A,3247.7853,N,11658.6112,W,59.29,06.68,280310,,,A*79
$GPRMC,172005.000,A,3247.8319,N,11658.6000,W,58.32,09.14,280310,,,A*79
$GPRMC,172008.000,A,3247.8828,N,11658.5880,W,58.80,11.95,280310,,,A*77
$GPRMC,172011.000,A,3247.9333,N,11658.5723,W,60.75,15.82,280310,,,A*7A
$GPRMC,172015.000,A,3247.9784,N,11658.5571,W,58.81,16.88,280310,,,A*7A
$GPRMC,172018.000,A,3248.0286,N,11658.5166,W,56.86,29.18,280310,,,A*78
$GPRMC,172021.000,A,3248.0659,N,11658.4780,W,58.32,39.73,280310,,,A*76
$GPRMC,172024.000,A,3248.1004,N,11658.4281,W,60.26,50.27,280310,,,A*78
$GPRMC,172027.000,A,3248.1290,N,11658.3811,W,61.72,57.30,280310,,,A*71
$GPRMC,172030.000,A,3248.1515,N,11658.3251,W,61.72,65.04,280310,,,A*75
$GPRMC,172034.000,A,3248.1664,N,11658.2620,W,59.78,76.29,280310,,,A*7B
$GPRMC,172037.000,A,3248.1754,N,11658.2037,W,59.78,81.21,280310,,,A*7A
$GPRMC,172041.000,A,3248.1786,N,11658.1114,W,59.78,88.95,280310,,,A*71
$GPRMC,172044.000,A,3248.1792,N,11658.0518,W,58.80,88.59,280310,,,A*7E
$GPRMC,172047.000,A,3248.1789,N,11657.9948,W,57.35,89.65,280310,,,A*77
$GPRMC,172050.000,A,3248.1757,N,11657.9372,W,57.35,91.41,280310,,,A*7E
$GPRMC,172053.000,A,3248.1773,N,11657.8844,W,55.40,89.65,280310,,,A*7B
$GPRMC,172058.000,A,3248.1750,N,11657.7914,W,54.92,90.35,280310,,,A*79
$GPRMC,172101.000,A,3248.1718,N,11657.7380,W,55.40,91.05,280310,,,A*73
$GPRMC,172104.000,A,3248.1728,N,11657.6817,W,56.37,89.65,280310,,,A*7D
$GPRMC,172107.000,A,3248.1718,N,11657.6250,W,56.86,91.05,280310,,,A*71
$GPRMC,172110.000,A,3248.1731,N,11657.5703,W,56.37,88.95,280310,,,A*77
$GPRMC,172113.000,A,3248.1754,N,11657.5140,W,56.86,89.65,280310,,,A*72
$GPRMC,172116.000,A,3248.1741,N,11657.4573,W,57.83,90.70,280310,,,A*7E
$GPRMC,172119.000,A,3248.1750,N,11657.4026,W,57.83,88.95,280310,,,A*76
$GPRMC,172122.000,A,3248.1770,N,11657.3424,W,59.78,88.95,280310,,,A*77
$GPRMC,172125.000,A,3248.1776,N,11657.2845,W,59.29,88.95,280310,,,A*78
$GPRMC,172129.000,A,3248.1779,N,11657.2063,W,58.32,90.35,280310,,,A*7F
$GPRMC,172132.000,A,3248.1779,N,11657.1503,W,56.37,90.00,280310,,,A*78
$GPRMC,172135.000,A,3248.1760,N,11657.0965,W,55.41,91.05,280310,,,A*7C
$GPRMC,172138.000,A,3248.1744,N,11657.0395,W,56.87,90.35,280310,,,A*79
$GPRMC,172141.000,A,3248.1776,N,11656.9794,W,58.81,89.30,280310,,,A*7E
$GPRMC,172144.000,A,3248.1757,N,11656.9224,W,60.26,90.70,280310,,,A*7C
$GPRMC,172147.000,A,3248.1760,N,11656.8812,W,61.72,89.65,280310,,,A*79
$GPRMC,172150.000,A,3248.1763,N,11656.8004,W,62.21,88.59,280310,,,A*78
$GPRMC,172153.000,A,3248.1747,N,11656.7409,W,61.23,91.05,280310,,,A*7B
$GPRMC,172156.000,A,3248.1760,N,11656.6816,W,59.78,89.30,280310,,,A*72
$GPRMC,172159.000,A,3248.1767,N,11656.6227,W,59.29,89.30,280310,,,A*76
$GPRMC,172202.000,A,3248.1776,N,11656.5645,W,59.30,89.30,280310,,,A*70
$GPRMC,172205.000,A,3248.1744,N,11656.5065,W,58.80,91.05,280310,,,A*77
$GPRMC,172208.000,A,3248.1783,N,11656.4476,W,58.80,88.59,280310,,,A*77
$GPRMC,172211.000,A,3248.1795,N,11656.3891,W,58.80,89.30,280310,,,A*74
$GPRMC,172214.000,A,3248.1779,N,11656.3314,W,57.35,90.70,280310,,,A*78
$GPRMC,172217.000,A,3248.1754,N,11656.2780,W,55.89,91.05,280310,,,A*7A
$GPRMC,172557.000,A,3250.0641,N,11653.6149,W,59.29,42.54,280310,,,A*7A
$GPRMC,172600.000,A,3250.1017,N,11653.5801,W,57.83,40.78,280310,,,A*7B
$GPRMC,172603.000,A,3250.1291,N,11653.5496,W,58.80,41.48,280310,,,A*78
$GPRMC,172606.000,A,3250.1671,N,11653.5097,W,59.78,41.48,280310,,,A*74
$GPRMC,172609.000,A,3250.2054,N,11653.4694,W,60.75,41.48,280310,,,A*7A
$GPRMC,172612.000,A,3250.2520,N,11653.4211,W,60.75,41.48,280310,,,A*7F
$GPRMC,172615.000,A,3250.2913,N,11653.3790,W,62.21,41.48,280310,,,A*7C
$GPRMC,172618.000,A,3250.3325,N,11653.3375,W,63.19,39.73,280310,,,A*7D
$GPRMC,172621.000,A,3250.3705,N,11653.3027,W,60.75,39.38,280310,,,A*73
$GPRMC,172623.000,A,3250.3866,N,11653.2782,W,56.37,42.54,280310,,,A*77
$GPRMC,172627.000,A,3250.4262,N,11653.2390,W,55.40,41.84,280310,,,A*70
$GPRMC,172630.000,A,3250.4603,N,11653.2036,W,55.89,41.84,280310,,,A*7F
$GPRMC,172633.000,A,3250.4957,N,11653.1659,W,56.37,41.84,280310,,,A*78
$GPRMC,172635.000,A,3250.5185,N,11653.1427,W,57.35,41.48,280310,,,A*70
$GPRMC,172639.000,A,3250.5688,N,11653.0870,W,59.78,44.30,280310,,,A*74
$GPRMC,172642.000,A,3250.5984,N,11653.0436,W,57.38,52.38,280310,,,A*70
$GPRMC,172645.000,A,3250.6267,N,11652.9989,W,60.26,51.33,280310,,,A*70
$GPRMC,172648.000,A,3250.6515,N,11652.9541,W,55.40,56.25,280310,,,A*71
$GPRMC,172651.000,A,3250.6676,N,11652.9029,W,54.92,67.50,280310,,,A*7A
$GPRMC,172654.000,A,3250.6798,N,11652.8508,W,55.40,73.48,280310,,,A*7B
$GPRMC,172657.000,A,3250.6917,N,11652.7996,W,55.40,74.53,280310,,,A*78
$GPRMC,172700.000,A,3250.7043,N,11652.7465,W,56.37,74.53,280310,,,A*70
$GPRMC,172703.000,A,3250.7175,N,11652.6924,W,56.37,74.53,280310,,,A*7E
$GPRMC,172706.000,A,3250.7300,N,11652.6380,W,57.35,73.48,280310,,,A*71
$GPRMC,172708.000,A,3250.7393,N,11652.6010,W,56.86,71.02,280310,,,A*7A
$GPRMC,172711.000,A,3250.7615,N,11652.5470,W,58.80,62.58,280310,,,A*7D
$GPRMC,172714.000,A,3250.7915,N,11652.4884,W,59.78,56.25,280310,,,A*7A
$GPRMC,172718.000,A,3250.8282,N,11652.4378,W,61.23,48.52,280310,,,A*7E
$GPRMC,172721.000,A,3250.8645,N,11652.3957,W,62.21,43.24,280310,,,A*70
$GPRMC,172724.000,A,3250.9028,N,11652.3564,W,60.75,41.13,280310,,,A*70
$GPRMC,172727.000,A,3250.9412,N,11652.3152,W,61.23,42.54,280310,,,A*7D
$GPRMC,172731.000,A,3251.0017,N,11652.2470,W,63.18,45.35,280310,,,A*7D
$GPRMC,172733.000,A,3251.0274,N,11652.2248,W,58.80,41.84,280310,,,A*72
$GPRMC,172737.000,A,3251.0680,N,11652.1733,W,61.23,49.57,280310,,,A*76
$GPRMC,172740.000,A,3251.1018,N,11652.1234,W,61.23,55.20,280310,,,A*7F
$GPRMC,172743.000,A,3251.1272,N,11652.0728,W,60.75,61.17,280310,,,A*7A
$GPRMC,172745.000,A,3251.1430,N,11652.0358,W,62.21,63.98,280310,,,A*79
$GPRMC,172749.000,A,3251.1661,N,11651.9579,W,62.21,69.61,280310,,,A*70
$GPRMC,172752.000,A,3251.1864,N,11651.9016,W,60.75,66.80,280310,,,A*7E
$GPRMC,172755.000,A,3251.2035,N,11651.8411,W,61.24,69.26,280310,,,A*72
$GPRMC,172758.000,A,3251.2209,N,11651.7841,W,60.26,70.31,280310,,,A*79
$GPRMC,172801.000,A,3251.2328,N,11651.7294,W,57.83,75.23,280310,,,A*77
$GPRMC,172804.000,A,3251.2408,N,11651.6760,W,56.86,79.80,280310,,,A*79
$GPRMC,172807.000,A,3251.2453,N,11651.6213,W,56.37,85.08,280310,,,A*7C
$GPRMC,172810.000,A,3251.2450,N,11651.5649,W,57.35,91.41,280310,,,A*7A
$GPRMC,172813.000,A,3251.2427,N,11651.5077,W,58.32,93.16,280310,,,A*7A
$GPRMC,172816.000,A,3251.2363,N,11651.4513,W,57.83,96.68,280310,,,A*77
$GPRMC,172819.000,A,3251.2283,N,11651.3940,W,58.80,98.44,280310,,,A*76
$GPRMC,172822.000,A,3251.2205,N,11651.3364,W,58.80,99.14,280310,,,A*78
$GPRMC,172825.000,A,3251.2131,N,11651.2775,W,59.78,97.73,280310,,,A*77
$GPRMC,172828.000,A,3251.2080,N,11651.2189,W,59.29,98.09,280310,,,A*72
$GPRMC,172831.000,A,3251.2012,N,11651.1616,W,58.32,98.09,280310,,,A*78
$GPRMC,172834.000,A,3251.1932,N,11651.1050,W,58.80,98.44,280310,,,A*71
$GPRMC,172837.000,A,3251.1848,N,11651.0480,W,57.83,98.09,280310,,,A*73
$GPRMC,172840.000,A,3251.1784,N,11650.9898,W,58.80,97.73,280310,,,A*7F
$GPRMC,172843.000,A,3251.1729,N,11650.9328,W,58.80,96.68,280310,,,A*70
$GPRMC,172846.000,A,3251.1671,N,11650.8733,W,59.29,95.27,280310,,,A*7C
$GPRMC,172849.000,A,3251.1632,N,11650.8156,W,59.29,92.81,280310,,,A*7A
$GPRMC,172852.000,A,3251.1636,N,11650.7567,W,58.80,90.00,280310,,,A*74
$GPRMC,172855.000,A,3251.1652,N,11650.6978,W,59.29,87.54,280310,,,A*77
$GPRMC,172858.000,A,3251.1690,N,11650.6386,W,59.78,85.08,280310,,,A*70
$GPRMC,172901.000,A,3251.1758,N,11650.5807,W,59.29,83.67,280310,,,A*72
$GPRMC,172904.000,A,3251.1819,N,11650.5237,W,58.80,83.67,280310,,,A*76
$GPRMC,172907.000,A,3251.1887,N,11650.4661,W,59.29,83.32,280310,,,A*76
$GPRMC,172910.000,A,3251.1941,N,11650.4069,W,58.80,82.27,280310,,,A*72
$GPRMC,172913.000,A,3251.2077,N,11650.3473,W,59.78,75.59,280310,,,A*71
$GPRMC,172916.000,A,3251.2244,N,11650.2897,W,59.29,70.66,280310,,,A*7C
$GPRMC,172919.000,A,3251.2453,N,11650.2337,W,59.78,66.45,280310,,,A*70
$GPRMC,172922.000,A,3251.2653,N,11650.1793,W,60.75,65.39,280310,,,A*7C
$GPRMC,172925.000,A,3251.2878,N,11650.1249,W,61.23,65.04,280310,,,A*72
$GPRMC,172928.000,A,3251.3119,N,11650.0705,W,61.23,65.04,280310,,,A*7C
$GPRMC,172931.000,A,3251.3329,N,11650.0161,W,60.26,66.45,280310,,,A*73
$GPRMC,172934.000,A,3251.3486,N,11649.9614,W,59.29,70.66,280310,,,A*73
$GPRMC,172937.000,A,3251.3628,N,11649.9067,W,58.32,72.77,280310,,,A*7D
$GPRMC,172940.000,A,3251.3750,N,11649.8504,W,60.27,74.88,280310,,,A*7B
$GPRMC,172943.000,A,3251.3805,N,11649.7928,W,60.27,80.16,280310,,,A*76
$GPRMC,172946.000,A,3251.3853,N,11649.7339,W,59.78,84.02,280310,,,A*7B
$GPRMC,172949.000,A,3251.3844,N,11649.6759,W,59.32,87.89,280310,,,A*7F
$GPRMC,172951.000,A,3251.3847,N,11649.6370,W,59.32,87.54,280310,,,A*7A
$GPRMC,172955.000,A,3251.3873,N,11649.5459,W,58.32,88.59,280310,,,A*75
$GPRMC,172958.000,A,3251.3866,N,11649.4899,W,57.83,90.35,280310,,,A*7B
$GPRMC,173001.000,A,3251.3860,N,11649.4345,W,57.83,90.00,280310,,,A*75
$GPRMC,173004.000,A,3251.3966,N,11649.3727,W,59.29,86.48,280310,,,A*75
$GPRMC,173007.000,A,3251.4011,N,11649.3138,W,58.80,86.84,280310,,,A*72
$GPRMC,173009.000,A,3251.4037,N,11649.2736,W,59.78,86.84,280310,,,A*77
$GPRMC,173013.000,A,3251.4059,N,11649.2095,W,59.29,86.84,280310,,,A*7E
$GPRMC,173016.000,A,3251.4075,N,11649.1500,W,60.26,87.19,280310,,,A*7F
$GPRMC,173019.000,A,3251.4079,N,11649.0924,W,59.78,90.70,280310,,,A*7F
$GPRMC,173022.000,A,3251.4053,N,11649.0338,W,60.27,93.87,280310,,,A*73
$GPRMC,173025.000,A,3251.3988,N,11648.9752,W,60.26,99.14,280310,,,A*7D
$GPRMC,173028.000,A,3251.3856,N,11648.9173,W,60.26,106.88,280310,,,A*45
$GPRMC,173031.000,A,3251.3673,N,11648.8622,W,59.78,113.20,280310,,,A*41
$GPRMC,173034.000,A,3251.3403,N,11648.8120,W,60.76,124.45,280310,,,A*47
$GPRMC,173037.000,A,3251.3090,N,11648.7654,W,61.26,132.19,280310,,,A*4B
$GPRMC,173040.000,A,3251.2762,N,11648.7248,W,61.24,136.41,280310,,,A*42
$GPRMC,173042.000,A,3251.2363,N,11648.6888,W,61.23,143.44,280310,,,A*42
$GPRMC,173046.000,A,3251.1880,N,11648.6534,W,62.21,148.36,280310,,,A*46
$GPRMC,173049.000,A,3251.1420,N,11648.6215,W,63.67,149.06,280310,,,A*4A
$GPRMC,173052.000,A,3251.0953,N,11648.5893,W,64.64,148.71,280310,,,A*4A
$GPRMC,173055.000,A,3251.0477,N,11648.5568,W,65.12,149.06,280310,,,A*4E
$GPRMC,173058.000,A,3251.0033,N,11648.5240,W,63.66,148.01,280310,,,A*49
$GPRMC,173101.000,A,3250.9592,N,11648.4873,W,64.15,143.79,280310,,,A*4E
$GPRMC,173104.000,A,3250.9119,N,11648.4358,W,63.66,136.76,280310,,,A*40
$GPRMC,173107.000,A,3250.8784,N,11648.3881,W,61.72,132.54,280310,,,A*4B
$GPRMC,173110.000,A,3250.8446,N,11648.3418,W,60.26,131.48,280310,,,A*42
$GPRMC,173114.000,A,3250.8108,N,11648.2980,W,59.81,131.84,280310,,,A*43
$GPRMC,173117.000,A,3250.7696,N,11648.2410,W,58.80,131.84,280310,,,A*4B
$GPRMC,173120.000,A,3250.7384,N,11648.1979,W,58.32,131.13,280310,,,A*4F
$GPRMC,173123.000,A,3250.7068,N,11648.1538,W,58.80,130.43,280310,,,A*49
$GPRMC,173127.000,A,3250.6801,N,11648.1078,W,57.35,124.45,280310,,,A*48
$GPRMC,173129.000,A,3250.6521,N,11648.0589,W,59.29,122.70,280310,,,A*40
$GPRMC,173133.000,A,3250.6338,N,11648.0029,W,56.38,113.55,280310,,,A*40
$GPRMC,173136.000,A,3250.6186,N,11647.9507,W,55.89,111.80,280310,,,A*4E
$GPRMC,173139.000,A,3250.6013,N,11647.9012,W,55.40,111.45,280310,,,A*41
$GPRMC,173142.000,A,3250.5852,N,11647.8497,W,55.40,112.15,280310,,,A*4D
$GPRMC,173145.000,A,3250.5691,N,11647.7985,W,54.92,111.45,280310,,,A*42
$GPRMC,173148.000,A,3250.5514,N,11647.7486,W,55.89,112.15,280310,,,A*42
$GPRMC,173151.000,A,3250.5327,N,11647.6968,W,58.32,112.15,280310,,,A*4D
$GPRMC,173154.000,A,3250.5124,N,11647.6433,W,60.75,112.15,280310,,,A*42
$GPRMC,173157.000,A,3250.4918,N,11647.5873,W,62.21,112.50,280310,,,A*4E
$GPRMC,173200.000,A,3250.4699,N,11647.5300,W,64.16,112.50,280310,,,A*44
$GPRMC,173203.000,A,3250.4484,N,11647.4718,W,65.12,112.50,280310,,,A*40
$GPRMC,173206.000,A,3250.4278,N,11647.4119,W,66.58,111.80,280310,,,A*44
$GPRMC,173209.000,A,3250.4085,N,11647.3501,W,66.09,111.45,280310,,,A*4C
$GPRMC,173211.000,A,3250.3930,N,11647.3115,W,64.15,111.09,280310,,,A*43
$GPRMC,173215.000,A,3250.3698,N,11647.2349,W,62.21,110.39,280310,,,A*43
$GPRMC,173218.000,A,3250.3579,N,11647.1763,W,61.24,101.95,280310,,,A*4D
$GPRMC,173221.000,A,3250.3502,N,11647.1177,W,59.78,97.03,280310,,,A*7B
$GPRMC,173224.000,A,3250.3483,N,11647.0595,W,58.80,91.05,280310,,,A*79
$GPRMC,173227.000,A,3250.3525,N,11647.0022,W,59.29,85.08,280310,,,A*74
$GPRMC,173230.000,A,3250.3624,N,11646.9433,W,61.24,79.45,280310,,,A*70
$GPRMC,173233.000,A,3250.3714,N,11646.8841,W,59.78,78.75,280310,,,A*79
$GPRMC,173236.000,A,3250.3817,N,11646.8277,W,57.42,78.40,280310,,,A*7E
$GPRMC,173239.000,A,3250.3917,N,11646.7717,W,56.87,78.40,280310,,,A*74
$GPRMC,173242.000,A,3250.4007,N,11646.7173,W,54.46,78.75,280310,,,A*7A
$GPRMC,173245.000,A,3250.4110,N,11646.6633,W,56.38,79.10,280310,,,A*71
$GPRMC,173248.000,A,3250.4165,N,11646.6085,W,54.99,87.89,280310,,,A*7D
$GPRMC,173251.000,A,3250.4146,N,11646.5551,W,54.51,95.62,280310,,,A*79
$GPRMC,173255.000,A,3250.4036,N,11646.4701,W,55.89,99.14,280310,,,A*74
$GPRMC,173258.000,A,3250.3956,N,11646.4141,W,58.32,99.49,280310,,,A*76
$GPRMC,173301.000,A,3250.3834,N,11646.3572,W,59.78,101.25,280310,,,A*48
$GPRMC,173303.000,A,3250.3776,N,11646.3192,W,58.80,101.25,280310,,,A*4F
$GPRMC,173306.000,A,3250.3727,N,11646.2790,W,58.32,99.84,280310,,,A*79
$GPRMC,173311.000,A,3250.3541,N,11646.1634,W,60.76,99.14,280310,,,A*73
$GPRMC,173314.000,A,3250.3431,N,11646.1071,W,59.78,100.55,280310,,,A*47
$GPRMC,173316.000,A,3250.3344,N,11646.0697,W,58.80,100.90,280310,,,A*40
$GPRMC,173319.000,A,3250.3238,N,11646.0266,W,58.80,102.66,280310,,,A*44
$GPRMC,173323.000,A,3250.3116,N,11645.9404,W,57.35,101.95,280310,,,A*44
$GPRMC,173327.000,A,3250.3068,N,11645.8763,W,58.81,100.55,280310,,,A*46
$GPRMC,173329.000,A,3250.3039,N,11645.8370,W,59.30,100.20,280310,,,A*43
$GPRMC,173333.000,A,3250.2948,N,11645.7595,W,59.78,99.49,280310,,,A*76
$GPRMC,173336.000,A,3250.2868,N,11645.7015,W,59.78,99.84,280310,,,A*7C
$GPRMC,173338.000,A,3250.2804,N,11645.6635,W,59.78,102.66,280310,,,A*42
$GPRMC,173342.000,A,3250.2582,N,11645.5908,W,59.78,108.63,280310,,,A*41
$GPRMC,173345.000,A,3250.2411,N,11645.5348,W,59.78,108.63,280310,,,A*43
$GPRMC,173349.000,A,3250.2202,N,11645.4608,W,59.78,108.98,280310,,,A*4F
$GPRMC,173352.000,A,3250.2050,N,11645.4041,W,60.26,107.93,280310,,,A*4E
$GPRMC,173355.000,A,3250.1909,N,11645.3533,W,59.78,108.63,280310,,,A*49
$GPRMC,173358.000,A,3250.1725,N,11645.2918,W,59.81,108.63,280310,,,A*46
$GPRMC,173401.000,A,3250.1577,N,11645.2416,W,59.78,108.63,280310,,,A*4D
$GPRMC,173404.000,A,3250.1400,N,11645.1824,W,59.29,109.34,280310,,,A*40
$GPRMC,173407.000,A,3250.1246,N,11645.1264,W,58.32,108.63,280310,,,A*41
$GPRMC,173410.000,A,3250.1104,N,11645.0774,W,57.84,108.28,280310,,,A*4A
$GPRMC,173413.000,A,3250.0953,N,11645.0195,W,56.37,106.17,280310,,,A*40
$GPRMC,173416.000,A,3250.0853,N,11644.9651,W,57.35,103.36,280310,,,A*46
$GPRMC,173419.000,A,3250.0750,N,11644.9068,W,58.32,101.60,280310,,,A*40
$GPRMC,173422.000,A,3250.0679,N,11644.8479,W,59.29,97.38,280310,,,A*7F
$GPRMC,173425.000,A,3250.0650,N,11644.7907,W,60.27,92.11,280310,,,A*72
$GPRMC,173428.000,A,3250.0634,N,11644.7305,W,60.26,89.30,280310,,,A*7D
$GPRMC,173430.000,A,3250.0660,N,11644.6922,W,58.80,86.48,280310,,,A*7C
$GPRMC,173434.000,A,3250.0724,N,11644.6056,W,55.89,85.43,280310,,,A*7F
$GPRMC,173436.000,A,3250.0737,N,11644.5699,W,54.43,86.13,280310,,,A*78
$GPRMC,173440.000,A,3250.0766,N,11644.5126,W,56.86,84.73,280310,,,A*71
$GPRMC,173443.000,A,3250.0827,N,11644.4392,W,57.83,85.78,280310,,,A*7A
$GPRMC,173446.000,A,3250.0876,N,11644.3800,W,56.86,88.24,280310,,,A*7C
$GPRMC,173449.000,A,3250.0876,N,11644.3355,W,57.83,92.11,280310,,,A*71
$GPRMC,173453.000,A,3250.0769,N,11644.2599,W,56.89,99.49,280310,,,A*71
$GPRMC,173456.000,A,3250.0692,N,11644.2097,W,56.86,99.49,280310,,,A*75
$GPRMC,173459.000,A,3250.0573,N,11644.1344,W,57.83,100.90,280310,,,A*49
$GPRMC,173502.000,A,3250.0477,N,11644.0764,W,58.32,101.25,280310,,,A*4E
$GPRMC,173505.000,A,3250.0419,N,11644.0339,W,56.89,99.84,280310,,,A*78
$GPRMC,173508.000,A,3250.0335,N,11643.9834,W,56.87,101.25,280310,,,A*41
$GPRMC,173511.000,A,3250.0190,N,11643.9136,W,56.86,101.95,280310,,,A*45
$GPRMC,173514.000,A,3250.0164,N,11643.8711,W,56.37,96.68,280310,,,A*7E
$GPRMC,173517.000,A,3250.0158,N,11643.8154,W,56.86,91.76,280310,,,A*77
$GPRMC,173519.000,A,3250.0171,N,11643.7842,W,56.38,88.24,280310,,,A*79
$GPRMC,173523.000,A,3250.0225,N,11643.6931,W,56.86,86.13,280310,,,A*79
$GPRMC,173526.000,A,3250.0242,N,11643.6381,W,54.43,87.89,280310,,,A*75
$GPRMC,173529.000,A,3250.0238,N,11643.5985,W,52.50,89.65,280310,,,A*72
$GPRMC,173532.000,A,3250.0232,N,11643.5460,W,53.94,92.11,280310,,,A*74
$GPRMC,173535.000,A,3250.0209,N,11643.4929,W,54.43,95.62,280310,,,A*74
$GPRMC,173538.000,A,3250.0164,N,11643.4366,W,56.37,95.98,280310,,,A*74
$GPRMC,173541.000,A,3250.0119,N,11643.3815,W,56.86,95.98,280310,,,A*72
$GPRMC,173544.000,A,3250.0081,N,11643.3117,W,56.86,91.76,280310,,,A*78
$GPRMC,173547.000,A,3250.0129,N,11643.2544,W,56.86,82.62,280310,,,A*7C
$GPRMC,173551.000,A,3250.0274,N,11643.1804,W,56.37,72.07,280310,,,A*7C
$GPRMC,173554.000,A,3250.0444,N,11643.1314,W,53.46,65.74,280310,,,A*77
$GPRMC,173557.000,A,3250.0711,N,11643.0864,W,54.92,56.25,280310,,,A*70
$GPRMC,173559.000,A,3250.0898,N,11643.0564,W,56.38,54.84,280310,,,A*76
$GPRMC,173604.000,A,3250.1336,N,11642.9805,W,55.40,60.47,280310,,,A*75
$GPRMC,173606.000,A,3250.1484,N,11642.9477,W,55.40,62.58,280310,,,A*7C
$GPRMC,173610.000,A,3250.1738,N,11642.8836,W,55.89,67.15,280310,,,A*7E
$GPRMC,173613.000,A,3250.1906,N,11642.8315,W,56.37,72.77,280310,,,A*72
$GPRMC,173615.000,A,3250.1983,N,11642.7938,W,58.32,75.23,280310,,,A*7E
$GPRMC,173618.000,A,3250.2054,N,11642.7545,W,59.81,77.34,280310,,,A*78
$GPRMC,173623.000,A,3250.2224,N,11642.6564,W,59.78,77.70,280310,,,A*71
$GPRMC,173627.000,A,3250.2366,N,11642.5749,W,59.78,78.05,280310,,,A*71
$GPRMC,173629.000,A,3250.2430,N,11642.5363,W,60.27,78.05,280310,,,A*77
$GPRMC,173633.000,A,3250.2556,N,11642.4591,W,60.76,77.70,280310,,,A*7E
$GPRMC,173636.000,A,3250.2668,N,11642.4002,W,61.72,77.70,280310,,,A*7F
$GPRMC,173639.000,A,3250.2771,N,11642.3409,W,62.21,77.34,280310,,,A*74
$GPRMC,173643.000,A,3250.2923,N,11642.2605,W,62.69,77.70,280310,,,A*73
$GPRMC,173646.000,A,3250.3013,N,11642.2003,W,61.73,80.51,280310,,,A*7E
$GPRMC,173649.000,A,3250.3093,N,11642.1401,W,61.24,80.16,280310,,,A*7D
$GPRMC,173652.000,A,3250.3109,N,11642.0805,W,60.27,86.13,280310,,,A*7D
$GPRMC,173655.000,A,3250.3119,N,11642.0216,W,59.78,88.95,280310,,,A*73
$GPRMC,173658.000,A,3250.3116,N,11641.9637,W,57.84,90.00,280310,,,A*74
$GPRMC,173701.000,A,3250.3135,N,11641.9061,W,58.80,89.30,280310,,,A*7D
$GPRMC,173704.000,A,3250.3129,N,11641.8482,W,58.32,90.35,280310,,,A*79
$GPRMC,173707.000,A,3250.3145,N,11641.7909,W,57.83,89.30,280310,,,A*79
$GPRMC,173710.000,A,3250.3129,N,11641.7336,W,57.83,90.70,280310,,,A*7F
$GPRMC,173713.000,A,3250.3106,N,11641.6773,W,56.86,91.41,280310,,,A*72
$GPRMC,173716.000,A,3250.3116,N,11641.6200,W,58.80,89.30,280310,,,A*70
$GPRMC,173719.000,A,3250.3113,N,11641.5633,W,58.32,90.35,280310,,,A*79
$GPRMC,173722.000,A,3250.3090,N,11641.5054,W,58.80,90.35,280310,,,A*75
$GPRMC,173725.000,A,3250.3093,N,11641.4455,W,58.80,90.00,280310,,,A*73
$GPRMC,173728.000,A,3250.3103,N,11641.3885,W,57.83,89.65,280310,,,A*77
$GPRMC,173731.000,A,3250.3135,N,11641.3306,W,57.83,88.95,280310,,,A*74
$GPRMC,173734.000,A,3250.3158,N,11641.2740,W,57.35,88.59,280310,,,A*70
$GPRMC,173737.000,A,3250.3148,N,11641.2189,W,56.86,90.70,280310,,,A*7A
$GPRMC,173739.000,A,3250.3142,N,11641.1803,W,57.83,91.05,280310,,,A*71
$GPRMC,173743.000,A,3250.3100,N,11641.1024,W,59.78,93.87,280310,,,A*75
$GPRMC,173746.000,A,3250.3013,N,11641.0445,W,60.75,98.09,280310,,,A*7B
$GPRMC,173749.000,A,3250.2932,N,11640.9846,W,61.23,98.09,280310,,,A*7A
$GPRMC,173752.000,A,3250.2839,N,11640.9254,W,60.75,99.49,280310,,,A*74
$GPRMC,173755.000,A,3250.2775,N,11640.8655,W,60.26,99.14,280310,,,A*7E
$GPRMC,173758.000,A,3250.2685,N,11640.8082,W,59.29,99.49,280310,,,A*7C
$GPRMC,173801.000,A,3250.2617,N,11640.7519,W,58.80,99.14,280310,,,A*76
$GPRMC,173803.000,A,3250.2643,N,11640.7187,W,58.33,97.73,280310,,,A*71
$GPRMC,173807.000,A,3250.2565,N,11640.6392,W,58.35,97.38,280310,,,A*7C
$GPRMC,173810.000,A,3250.2511,N,11640.5816,W,57.86,93.52,280310,,,A*72
$GPRMC,173813.000,A,3250.2488,N,11640.5240,W,58.32,91.76,280310,,,A*7D
$GPRMC,173816.000,A,3250.2517,N,11640.4661,W,58.35,85.08,280310,,,A*72
$GPRMC,173819.000,A,3250.2575,N,11640.4091,W,58.32,82.62,280310,,,A*7C
$GPRMC,173821.000,A,3250.2633,N,11640.3711,W,58.32,80.86,280310,,,A*76
$GPRMC,173825.000,A,3250.2784,N,11640.2813,W,58.80,79.80,280310,,,A*7A
$GPRMC,173828.000,A,3250.2839,N,11640.2244,W,58.80,81.21,280310,,,A*7A
$GPRMC,173831.000,A,3250.2916,N,11640.1680,W,58.32,82.62,280310,,,A*7C
$GPRMC,173835.000,A,3250.2945,N,11640.1059,W,56.38,88.24,280310,,,A*70
$GPRMC,173838.000,A,3250.2936,N,11640.0486,W,57.91,91.76,280310,,,A*73
$GPRMC,173841.000,A,3250.2929,N,11639.9978,W,57.35,91.76,280310,,,A*76
$GPRMC,173844.000,A,3250.2865,N,11639.9208,W,59.29,97.73,280310,,,A*76
$GPRMC,173847.000,A,3250.2749,N,11639.8632,W,60.75,102.30,280310,,,A*41
$GPRMC,173852.000,A,3250.2549,N,11639.7622,W,60.26,103.36,280310,,,A*48
$GPRMC,173855.000,A,3250.2427,N,11639.7052,W,59.78,101.60,280310,,,A*47
$GPRMC,173858.000,A,3250.2363,N,11639.6453,W,61.23,97.38,280310,,,A*7F
$GPRMC,173901.000,A,3250.2376,N,11639.6022,W,59.29,91.76,280310,,,A*79
$GPRMC,173904.000,A,3250.2414,N,11639.5433,W,61.72,86.48,280310,,,A*76
$GPRMC,173907.000,A,3250.2466,N,11639.4857,W,59.29,82.97,280310,,,A*7C
$GPRMC,173910.000,A,3250.2559,N,11639.4361,W,57.83,80.51,280310,,,A*7F
$GPRMC,173912.000,A,3250.2633,N,11639.3795,W,57.35,80.51,280310,,,A*77
$GPRMC,173916.000,A,3250.2752,N,11639.3148,W,58.32,79.10,280310,,,A*78
$GPRMC,173918.000,A,3250.2778,N,11639.2800,W,57.35,79.80,280310,,,A*7B
$GPRMC,173922.000,A,3250.2926,N,11639.1925,W,55.90,82.62,280310,,,A*77
$GPRMC,173925.000,A,3250.2955,N,11639.1390,W,53.46,85.78,280310,,,A*71
$GPRMC,173928.000,A,3250.2923,N,11639.0837,W,55.40,91.76,280310,,,A*71
$GPRMC,173932.000,A,3250.2868,N,11639.0238,W,55.89,97.03,280310,,,A*70
$GPRMC,173934.000,A,3250.2816,N,11638.9868,W,55.89,98.79,280310,,,A*7A
$GPRMC,173938.000,A,3250.2643,N,11638.9008,W,56.86,103.01,280310,,,A*46
$GPRMC,173940.000,A,3250.2556,N,11638.8622,W,57.35,104.06,280310,,,A*48
$GPRMC,173944.000,A,3250.2453,N,11638.8040,W,55.89,104.06,280310,,,A*4F
$GPRMC,173947.000,A,3250.2324,N,11638.7528,W,54.92,104.41,280310,,,A*47
$GPRMC,173949.000,A,3250.2244,N,11638.7180,W,54.92,104.77,280310,,,A*4D
$GPRMC,173953.000,A,3250.2083,N,11638.6359,W,54.92,103.71,280310,,,A*49
$GPRMC,173956.000,A,3250.1993,N,11638.5970,W,53.46,104.41,280310,,,A*4F
$GPRMC,174000.000,A,3250.1796,N,11638.5175,W,55.90,104.77,280310,,,A*4C
$GPRMC,174003.000,A,3250.1642,N,11638.4663,W,56.38,106.52,280310,,,A*42
$GPRMC,174006.000,A,3250.1529,N,11638.4084,W,57.35,104.77,280310,,,A*4F
$GPRMC,174009.000,A,3250.1416,N,11638.3553,W,56.86,106.52,280310,,,A*49
$GPRMC,174012.000,A,3250.1223,N,11638.3051,W,56.37,112.15,280310,,,A*48
$GPRMC,174015.000,A,3250.1056,N,11638.2529,W,56.37,111.45,280310,,,A*42
$GPRMC,174018.000,A,3250.0866,N,11638.2030,W,54.92,112.50,280310,,,A*42
$GPRMC,174021.000,A,3250.0740,N,11638.1641,W,54.43,111.45,280310,,,A*4B
$GPRMC,174024.000,A,3250.0567,N,11638.1148,W,53.46,112.50,280310,,,A*42
$GPRMC,174027.000,A,3250.0386,N,11638.0662,W,52.00,113.55,280310,,,A*41
$GPRMC,174029.000,A,3250.0274,N,11638.0347,W,52.00,112.85,280310,,,A*4D
$GPRMC,174033.000,A,3250.0003,N,11637.9604,W,52.00,112.15,280310,,,A*49
$GPRMC,174036.000,A,3249.9897,N,11637.9237,W,52.00,110.74,280310,,,A*49
$GPRMC,174039.000,A,3249.9707,N,11637.8831,W,52.97,116.37,280310,,,A*42
$GPRMC,174042.000,A,3249.9421,N,11637.8232,W,53.94,123.05,280310,,,A*45
$GPRMC,174047.000,A,3249.8903,N,11637.7560,W,55.40,131.84,280310,,,A*46
$GPRMC,174050.000,A,3249.8558,N,11637.7215,W,53.94,137.11,280310,,,A*42
$GPRMC,174053.000,A,3249.8291,N,11637.6967,W,51.52,142.73,280310,,,A*42
$GPRMC,174055.000,A,3249.8066,N,11637.6761,W,49.08,145.20,280310,,,A*41
$GPRMC,174059.000,A,3249.7663,N,11637.6510,W,38.39,152.93,280310,,,A*4F
$GPRMC,174102.000,A,3249.7374,N,11637.6372,W,36.45,155.39,280310,,,A*43
$GPRMC,174105.000,A,3249.7116,N,11637.6224,W,35.48,154.69,280310,,,A*4A
$GPRMC,174108.000,A,3249.6830,N,11637.6089,W,36.93,156.80,280310,,,A*4E
$GPRMC,174111.000,A,3249.6534,N,11637.5944,W,37.91,157.50,280310,,,A*4B
$GPRMC,174114.000,A,3249.6241,N,11637.5812,W,36.93,158.20,280310,,,A*42
$GPRMC,174117.000,A,3249.6032,N,11637.5693,W,29.65,155.74,280310,,,A*4B
$GPRMC,174120.000,A,3249.5916,N,11637.5577,W,18.95,148.36,280310,,,A*4D
$GPRMC,174123.000,A,3249.5874,N,11637.5522,W,6.80,137.81,280310,,,A*74
$GPRMC,174126.000,A,3249.5890,N,11637.5442,W,7.29,69.96,280310,,,A*42
$GPRMC,174129.000,A,3249.5951,N,11637.5361,W,10.21,46.05,280310,,,A*7E
$GPRMC,174132.000,A,3249.6048,N,11637.5297,W,13.12,33.75,280310,,,A*78
$GPRMC,174135.000,A,3249.6360,N,11637.5162,W,27.70,26.02,280310,,,A*78
$GPRMC,174138.000,A,3249.6682,N,11637.5027,W,34.99,23.55,280310,,,A*7E
$GPRMC,174141.000,A,3249.7010,N,11637.4853,W,39.36,23.55,280310,,,A*7E
$GPRMC,174144.000,A,3249.7316,N,11637.4685,W,40.82,24.61,280310,,,A*7A
$GPRMC,174147.000,A,3249.7660,N,11637.4528,W,44.22,23.20,280310,,,A*75
$GPRMC,174150.000,A,3249.8050,N,11637.4354,W,46.65,23.20,280310,,,A*75
$GPRMC,174153.000,A,3249.8433,N,11637.4170,W,47.63,22.50,280310,,,A*72
$GPRMC,174156.000,A,3249.8806,N,11637.3977,W,49.57,21.09,280310,,,A*73
$GPRMC,174159.000,A,3249.9176,N,11637.3797,W,49.08,19.69,280310,,,A*74
$GPRMC,174201.000,A,3249.9421,N,11637.3691,W,49.08,18.28,280310,,,A*7E
$GPRMC,174205.000,A,3249.9859,N,11637.3517,W,48.61,18.28,280310,,,A*7A
$GPRMC,174208.000,A,3250.0248,N,11637.3385,W,48.11,16.88,280310,,,A*72
$GPRMC,174211.000,A,3250.0615,N,11637.3215,W,44.71,26.02,280310,,,A*75
$GPRMC,174214.000,A,3250.0934,N,11637.2992,W,43.26,32.34,280310,,,A*7C
$GPRMC,174218.000,A,3250.1329,N,11637.2465,W,45.68,48.87,280310,,,A*7B
$GPRMC,174221.000,A,3250.1584,N,11637.2130,W,45.68,47.46,280310,,,A*77
$GPRMC,174224.000,A,3250.1732,N,11637.1827,W,40.82,51.68,280310,,,A*7B
$GPRMC,174227.000,A,3250.2009,N,11637.1512,W,43.25,50.27,280310,,,A*7B
$GPRMC,174230.000,A,3250.2199,N,11637.1138,W,44.71,58.36,280310,,,A*77
$GPRMC,174234.000,A,3250.2430,N,11637.0611,W,44.71,63.28,280310,,,A*7F
$GPRMC,174237.000,A,3250.2582,N,11637.0298,W,46.18,60.82,280310,,,A*7F
$GPRMC,174241.000,A,3250.2852,N,11636.9771,W,46.66,55.20,280310,,,A*73
$GPRMC,174244.000,A,3250.3084,N,11636.9410,W,45.20,51.33,280310,,,A*77
$GPRMC,174248.000,A,3250.3380,N,11636.9008,W,39.36,48.16,280310,,,A*72
$GPRMC,174253.000,A,3250.3824,N,11636.8496,W,35.48,40.43,280310,,,A*72
$GPRMC,174256.000,A,3250.4081,N,11636.8287,W,36.45,36.56,280310,,,A*7A
$GPRMC,174259.000,A,3250.4329,N,11636.8058,W,36.93,37.62,280310,,,A*79
$GPRMC,174302.000,A,3250.4580,N,11636.7875,W,35.48,36.21,280310,,,A*78
$GPRMC,174305.000,A,3250.4815,N,11636.7646,W,35.96,42.89,280310,,,A*72
$GPRMC,174308.000,A,3250.4976,N,11636.7360,W,36.93,56.60,280310,,,A*7E
$GPRMC,174311.000,A,3250.5160,N,11636.6993,W,41.31,65.74,280310,,,A*72
$GPRMC,174315.000,A,3250.5182,N,11636.6587,W,42.77,81.91,280310,,,A*73
$GPRMC,174318.000,A,3250.5095,N,11636.6191,W,40.82,100.90,280310,,,A*4B
$GPRMC,174322.000,A,3250.5060,N,11636.5625,W,41.81,90.00,280310,,,A*70
$GPRMC,174324.000,A,3250.5070,N,11636.5229,W,41.79,83.67,280310,,,A*7B
$GPRMC,174328.000,A,3250.5147,N,11636.4798,W,40.82,78.05,280310,,,A*79
$GPRMC,174332.000,A,3250.5298,N,11636.4251,W,42.77,74.18,280310,,,A*7B
$GPRMC,174334.000,A,3250.5372,N,11636.3980,W,42.77,73.48,280310,,,A*7A
$GPRMC,174338.000,A,3250.5607,N,11636.3311,W,44.71,70.66,280310,,,A*7C
$GPRMC,174341.000,A,3250.5675,N,11636.2908,W,44.71,73.83,280310,,,A*7C
$GPRMC,174344.000,A,3250.5794,N,11636.2448,W,48.12,73.12,280310,,,A*7F
$GPRMC,174348.000,A,3250.5874,N,11636.2004,W,47.63,73.83,280310,,,A*7F
$GPRMC,174351.000,A,3250.6022,N,11636.1408,W,43.74,72.77,280310,,,A*7C
$GPRMC,174353.000,A,3250.6116,N,11636.1161,W,41.79,65.74,280310,,,A*78
$GPRMC,174358.000,A,3250.6521,N,11636.0675,W,40.34,41.84,280310,,,A*71
$GPRMC,174401.000,A,3250.6788,N,11636.0472,W,38.39,29.88,280310,,,A*7E
$GPRMC,174404.000,A,3250.7139,N,11636.0285,W,42.77,26.72,280310,,,A*75
$GPRMC,174407.000,A,3250.7477,N,11636.0092,W,43.25,25.66,280310,,,A*7D
$GPRMC,174410.000,A,3250.7812,N,11635.9905,W,43.74,25.31,280310,,,A*7F
$GPRMC,174413.000,A,3250.8130,N,11635.9748,W,42.77,24.26,280310,,,A*78
$GPRMC,174415.000,A,3250.8382,N,11635.9625,W,44.71,25.66,280310,,,A*7A
$GPRMC,174420.000,A,3250.8913,N,11635.9197,W,47.64,37.27,280310,,,A*71
$GPRMC,174423.000,A,3250.9234,N,11635.8901,W,48.11,39.02,280310,,,A*7F
$GPRMC,174426.000,A,3250.9566,N,11635.8595,W,49.08,39.02,280310,,,A*72
$GPRMC,174429.000,A,3250.9856,N,11635.8277,W,49.08,41.48,280310,,,A*79
$GPRMC,174432.000,A,3251.0239,N,11635.7939,W,52.49,39.38,280310,,,A*71
$GPRMC,174435.000,A,3251.0464,N,11635.7668,W,45.20,40.08,280310,,,A*77
$GPRMC,174439.000,A,3251.0760,N,11635.7372,W,39.86,39.73,280310,,,A*77
$GPRMC,174442.000,A,3251.1066,N,11635.7041,W,39.85,42.19,280310,,,A*7B
$GPRMC,174445.000,A,3251.1288,N,11635.6861,W,34.03,33.40,280310,,,A*7C
$GPRMC,174448.000,A,3251.1436,N,11635.6700,W,26.73,41.13,280310,,,A*7D
$GPRMC,174451.000,A,3251.1520,N,11635.6651,W,15.55,22.85,280310,,,A*78
$GPRMC,174455.000,A,3251.1639,N,11635.6745,W,13.61,346.64,280310,,,A*4C
$GPRMC,174458.000,A,3251.1777,N,11635.6947,W,24.30,319.22,280310,,,A*4E
$GPRMC,174501.000,A,3251.1999,N,11635.7131,W,27.72,333.98,280310,,,A*49
$GPRMC,174504.000,A,3251.2257,N,11635.7227,W,33.53,347.70,280310,,,A*41
$GPRMC,174508.000,A,3251.2723,N,11635.7231,W,34.50,09.49,280310,,,A*7B
$GPRMC,174513.000,A,3251.3139,N,11635.6980,W,34.99,35.51,280310,,,A*7E
$GPRMC,174516.000,A,3251.3416,N,11635.6754,W,37.43,34.10,280310,,,A*74
$GPRMC,174519.000,A,3251.3667,N,11635.6606,W,33.05,22.50,280310,,,A*7C
$GPRMC,174523.000,A,3251.3963,N,11635.6552,W,33.05,07.73,280310,,,A*7A
$GPRMC,174527.000,A,3251.4426,N,11635.6642,W,36.45,351.21,280310,,,A*41
$GPRMC,174530.000,A,3251.4764,N,11635.6677,W,40.82,354.38,280310,,,A*43
$GPRMC,174533.000,A,3251.5131,N,11635.6684,W,41.79,358.59,280310,,,A*45
$GPRMC,174536.000,A,3251.5511,N,11635.6648,W,43.74,06.33,280310,,,A*7D
$GPRMC,174539.000,A,3251.5817,N,11635.6561,W,40.34,14.77,280310,,,A*75
$GPRMC,174542.000,A,3251.6145,N,11635.6400,W,42.77,20.39,280310,,,A*7A
$GPRMC,174545.000,A,3251.6502,N,11635.6239,W,43.74,22.15,280310,,,A*78
$GPRMC,174548.000,A,3251.6830,N,11635.6075,W,42.28,21.09,280310,,,A*75
$GPRMC,174552.000,A,3251.7201,N,11635.5946,W,37.91,19.69,280310,,,A*70
$GPRMC,174555.000,A,3251.7506,N,11635.5776,W,39.36,28.83,280310,,,A*7F
$GPRMC,174559.000,A,3251.7841,N,11635.5460,W,38.88,37.62,280310,,,A*7C
$GPRMC,174601.000,A,3251.8005,N,11635.5319,W,35.96,33.75,280310,,,A*7C
$GPRMC,174605.000,A,3251.8272,N,11635.5168,W,32.07,23.91,280310,,,A*7A
$GPRMC,174608.000,A,3251.8662,N,11635.5190,W,35.96,355.78,280310,,,A*4F
$GPRMC,174611.000,A,3251.8913,N,11635.5242,W,34.02,355.08,280310,,,A*49
$GPRMC,174614.000,A,3251.9187,N,11635.5187,W,33.53,12.66,280310,,,A*79
$GPRMC,174617.000,A,3251.9450,N,11635.5081,W,34.02,21.45,280310,,,A*70
$GPRMC,174620.000,A,3251.9714,N,11635.4945,W,34.99,20.04,280310,,,A*71
$GPRMC,174623.000,A,3252.0036,N,11635.4823,W,38.39,19.69,280310,,,A*79
$GPRMC,174626.000,A,3252.0336,N,11635.4672,W,37.91,26.37,280310,,,A*7F
$GPRMC,174629.000,A,3252.0657,N,11635.4533,W,38.88,20.74,280310,,,A*72
$GPRMC,174632.000,A,3252.0963,N,11635.4411,W,38.39,21.80,280310,,,A*71
$GPRMC,174635.000,A,3252.1275,N,11635.4215,W,39.85,28.12,280310,,,A*7D
$GPRMC,174638.000,A,3252.1575,N,11635.4070,W,39.85,21.45,280310,,,A*7D
$GPRMC,174641.000,A,3252.1887,N,11635.3925,W,39.85,21.09,280310,,,A*75
$GPRMC,174645.000,A,3252.2206,N,11635.3777,W,40.34,20.74,280310,,,A*77
$GPRMC,174647.000,A,3252.2534,N,11635.3690,W,39.85,14.41,280310,,,A*7E
$GPRMC,174651.000,A,3252.2856,N,11635.3610,W,39.36,11.25,280310,,,A*77
$GPRMC,174654.000,A,3252.3191,N,11635.3520,W,36.93,12.30,280310,,,A*76
$GPRMC,174658.000,A,3252.3625,N,11635.3446,W,34.99,01.41,280310,,,A*7F
$GPRMC,174701.000,A,3252.3873,N,11635.3420,W,33.05,15.12,280310,,,A*7E
$GPRMC,174704.000,A,3252.4156,N,11635.3275,W,35.96,27.07,280310,,,A*7D
$GPRMC,174707.000,A,3252.4443,N,11635.3117,W,36.45,28.83,280310,,,A*76
$GPRMC,174710.000,A,3252.4723,N,11635.2921,W,38.39,26.02,280310,,,A*7B
$GPRMC,174713.000,A,3252.5016,N,11635.2805,W,39.85,16.17,280310,,,A*7E
$GPRMC,174716.000,A,3252.5299,N,11635.2651,W,37.42,29.88,280310,,,A*7E
$GPRMC,174719.000,A,3252.5514,N,11635.2390,W,39.85,49.22,280310,,,A*78
$GPRMC,174722.000,A,3252.5637,N,11635.2068,W,35.96,55.55,280310,,,A*75
$GPRMC,174725.000,A,3252.5704,N,11635.1878,W,25.76,47.81,280310,,,A*7C
$GPRMC,174728.000,A,3252.5897,N,11635.1720,W,27.22,37.62,280310,,,A*7F
$GPRMC,174731.000,A,3252.6084,N,11635.1511,W,30.62,47.81,280310,,,A*76
$GPRMC,174734.000,A,3252.6216,N,11635.1344,W,25.78,48.87,280310,,,A*7A
$GPRMC,174737.000,A,3252.6445,N,11635.1225,W,25.76,23.20,280310,,,A*71
$GPRMC,174740.000,A,3252.6618,N,11635.1151,W,22.84,21.45,280310,,,A*70
$GPRMC,174743.000,A,3252.6786,N,11635.0945,W,28.19,44.65,280310,,,A*76
$GPRMC,174746.000,A,3252.7014,N,11635.0745,W,31.10,37.27,280310,,,A*73
$GPRMC,174749.000,A,3252.7224,N,11635.0636,W,26.24,22.50,280310,,,A*7D
$GPRMC,174752.000,A,3252.7436,N,11635.0684,W,26.73,350.51,280310,,,A*4E
$GPRMC,174755.000,A,3252.7681,N,11635.0806,W,31.59,342.42,280310,,,A*4C
$GPRMC,174758.000,A,3252.7944,N,11635.0877,W,31.10,351.21,280310,,,A*4B
$GPRMC,174801.000,A,3252.8144,N,11635.0880,W,31.10,357.89,280310,,,A*43
$GPRMC,174805.000,A,3252.8421,N,11635.0629,W,27.22,39.38,280310,,,A*7B
$GPRMC,174808.000,A,3252.8382,N,11635.0378,W,24.79,79.10,280310,,,A*7A
$GPRMC,174811.000,A,3252.8250,N,11635.0140,W,23.35,99.49,280310,,,A*78
$GPRMC,174814.000,A,3252.7999,N,11634.9995,W,28.67,128.67,280310,,,A*4F
$GPRMC,174818.000,A,3252.7735,N,11634.9702,W,27.22,129.73,280310,,,A*41
$GPRMC,174820.000,A,3252.7674,N,11634.9574,W,24.30,123.75,280310,,,A*41
$GPRMC,174824.000,A,3252.7787,N,11634.9223,W,28.19,81.21,280310,,,A*72
$GPRMC,174827.000,A,3252.8064,N,11634.8891,W,33.05,52.38,280310,,,A*77
$GPRMC,174830.000,A,3252.8276,N,11634.8618,W,35.96,51.33,280310,,,A*7B
$GPRMC,174833.000,A,3252.8495,N,11634.8347,W,35.48,48.87,280310,,,A*78
$GPRMC,174836.000,A,3252.8707,N,11634.8128,W,32.56,38.32,280310,,,A*7F
$GPRMC,174839.000,A,3252.8913,N,11634.7932,W,32.56,43.95,280310,,,A*76
$GPRMC,174842.000,A,3252.9020,N,11634.7662,W,32.56,57.66,280310,,,A*71
$GPRMC,174845.000,A,3252.9229,N,11634.7353,W,36.45,55.20,280310,,,A*7C
$GPRMC,174848.000,A,3252.9396,N,11634.7076,W,33.53,55.55,280310,,,A*70
$GPRMC,174851.000,A,3252.9525,N,11634.6812,W,32.56,56.60,280310,,,A*7C
$GPRMC,174854.000,A,3252.9660,N,11634.6538,W,32.56,60.12,280310,,,A*7E
$GPRMC,174857.000,A,3252.9737,N,11634.6239,W,32.56,73.48,280310,,,A*75
$GPRMC,174900.000,A,3252.9782,N,11634.5946,W,30.13,78.05,280310,,,A*79
$GPRMC,174905.000,A,3252.9940,N,11634.5518,W,26.24,60.12,280310,,,A*77
$GPRMC,174908.000,A,3253.0101,N,11634.5347,W,25.76,40.43,280310,,,A*71
$GPRMC,174911.000,A,3253.0262,N,11634.5209,W,24.79,35.86,280310,,,A*71
$GPRMC,174914.000,A,3253.0468,N,11634.5048,W,27.70,30.59,280310,,,A*72
$GPRMC,174917.000,A,3253.0648,N,11634.4932,W,26.24,26.72,280310,,,A*7A
$GPRMC,174920.000,A,3253.0915,N,11634.4852,W,27.70,13.71,280310,,,A*7B
$GPRMC,174923.000,A,3253.1108,N,11634.4858,W,28.67,358.95,280310,,,A*48
$GPRMC,174926.000,A,3253.1414,N,11634.4987,W,31.10,342.77,280310,,,A*49
$GPRMC,174929.000,A,3253.1633,N,11634.5064,W,33.55,340.31,280310,,,A*47
$GPRMC,174933.000,A,3253.2045,N,11634.5254,W,32.56,337.50,280310,,,A*4C
$GPRMC,174936.000,A,3253.2261,N,11634.5367,W,29.65,339.61,280310,,,A*4A
$GPRMC,174939.000,A,3253.2505,N,11634.5444,W,30.13,346.64,280310,,,A*42
$GPRMC,174942.000,A,3253.2753,N,11634.5479,W,30.13,350.86,280310,,,A*4A
$GPRMC,174945.000,A,3253.3011,N,11634.5505,W,30.62,354.73,280310,,,A*4F
$GPRMC,174946.000,A,3253.3114,N,11634.5524,W,31.59,354.02,280310,,,A*44
$GPRMC,174951.000,A,3253.3574,N,11634.5618,W,33.53,350.51,280310,,,A*46
$GPRMC,174954.000,A,3253.3864,N,11634.5663,W,34.02,348.75,280310,,,A*4F
$GPRMC,174957.000,A,3253.4086,N,11634.5753,W,30.62,345.23,280310,,,A*41
$GPRMC,175000.000,A,3253.4317,N,11634.5824,W,29.16,344.88,280310,,,A*44
$GPRMC,175004.000,A,3253.4591,N,11634.5936,W,27.72,341.72,280310,,,A*46
$GPRMC,175007.000,A,3253.4842,N,11634.6113,W,33.53,330.12,280310,,,A*4C
$GPRMC,175010.000,A,3253.5045,N,11634.6249,W,35.49,331.52,280310,,,A*40
$GPRMC,175013.000,A,3253.5315,N,11634.6422,W,35.96,333.28,280310,,,A*43
$GPRMC,175015.000,A,3253.5489,N,11634.6538,W,35.96,330.47,280310,,,A*47
$GPRMC,175017.000,A,3253.5656,N,11634.6632,W,36.95,331.88,280310,,,A*4E
$GPRMC,175022.000,A,3253.6136,N,11634.6905,W,35.98,335.39,280310,,,A*41
$GPRMC,175026.000,A,3253.6426,N,11634.7121,W,32.09,336.45,280310,,,A*49
$GPRMC,175030.000,A,3253.6812,N,11634.7282,W,32.07,345.59,280310,,,A*48
$GPRMC,175033.000,A,3253.7089,N,11634.7337,W,33.05,351.56,280310,,,A*46
$GPRMC,175036.000,A,3253.7388,N,11634.7378,W,34.99,349.45,280310,,,A*43
$GPRMC,175039.000,A,3253.7671,N,11634.7469,W,35.48,344.53,280310,,,A*4F
$GPRMC,175041.000,A,3253.7871,N,11634.7536,W,36.93,341.72,280310,,,A*46
$GPRMC,175046.000,A,3253.8263,N,11634.7842,W,34.50,323.79,280310,,,A*4B
$GPRMC,175049.000,A,3253.8486,N,11634.8058,W,34.50,326.25,280310,,,A*49
$GPRMC,175052.000,A,3253.8733,N,11634.8206,W,34.02,336.09,280310,,,A*4F
$GPRMC,175057.000,A,3253.9203,N,11634.8350,W,33.53,347.70,280310,,,A*44
$GPRMC,175101.000,A,3253.9622,N,11634.8408,W,36.93,356.13,280310,,,A*47
$GPRMC,175105.000,A,3253.9960,N,11634.8392,W,35.00,02.46,280310,,,A*75
$GPRMC,175108.000,A,3254.0253,N,11634.8379,W,34.50,01.76,280310,,,A*7C
$GPRMC,175111.000,A,3254.0552,N,11634.8334,W,34.50,08.09,280310,,,A*7A
$GPRMC,175114.000,A,3254.0793,N,11634.8254,W,33.05,17.93,280310,,,A*7D
$GPRMC,175117.000,A,3254.1099,N,11634.8090,W,30.62,25.66,280310,,,A*71
$GPRMC,175118.000,A,3254.1173,N,11634.8051,W,29.16,22.85,280310,,,A*77
$GPRMC,175123.000,A,3254.1472,N,11634.8016,W,26.24,00.35,280310,,,A*7D
$GPRMC,175127.000,A,3254.1756,N,11634.8144,W,30.13,343.12,280310,,,A*48
$GPRMC,175129.000,A,3254.1933,N,11634.8225,W,33.55,338.91,280310,,,A*49
