NMEA Sentence Code,UTC Time,Status,Latitude,Latitude Direction,Longitude,Longitude Direction,Speed (knots),Track Angle (degrees true),Date,MagneticVariation,Magnetic Variation Direction,[FAA Mode]-Optional,Checksum
$GPRMC,014226.0,A,3336.183548,N,11751.669256,W,22.5,54.4,210210,,,A*72
$GPRMC,014229.0,A,3336.218164,N,11751.639614,W,34.8,34.7,210210,,,A*7E
$GPRMC,014232.0,A,3336.246774,N,11751.623718,W,35.5,24.9,210210,,,A*7D
$GPRMC,014235.0,A,3336.277598,N,11751.616042,W,37.3,12.8,210210,,,A*76
$GPRMC,014238.0,A,3336.310454,N,11751.609522,W,39.1,10.7,210210,,,A*76
$GPRMC,014241.0,A,3336.342110,N,11751.601247,W,40.4,11.3,210210,,,A*78
$GPRMC,014244.0,A,3336.374259,N,11751.594437,W,39.7,11.7,210210,,,A*71
$GPRMC,014247.0,A,3336.401171,N,11751.586929,W,30.8,12.1,210210,,,A*7C
$GPRMC,014250.0,A,3336.418046,N,11751.582139,W,20.1,11.3,210210,,,A*73
$GPRMC,014253.0,A,3336.426668,N,11751.579384,W,10.6,13.1,210210,,,A*73
$GPRMC,014314.0,A,3336.433114,N,11751.580484,W,5.3,19.6,210210,,,A*44
$GPRMC,014317.0,A,3336.436762,N,11751.572951,W,11.3,65.6,210210,,,A*73
$GPRMC,014320.0,A,3336.437309,N,11751.553976,W,19.3,88.7,210210,,,A*73
$GPRMC,014323.0,A,3336.435761,N,11751.523918,W,27.9,92.9,210210,,,A*75
$GPRMC,014326.0,A,3336.434919,N,11751.480515,W,41.5,91.8,210210,,,A*77
$GPRMC,014329.0,A,3336.433927,N,11751.433074,W,47.2,91.6,210210,,,A*77
$GPRMC,014332.0,A,3336.433093,N,11751.383691,W,49.3,90.9,210210,,,A*7B
$GPRMC,014335.0,A,3336.431504,N,11751.335293,W,49.3,91.4,210210,,,A*72
$GPRMC,014338.0,A,3336.431603,N,11751.287022,W,48.9,90.3,210210,,,A*76
$GPRMC,014341.0,A,3336.430046,N,11751.238896,W,47.4,88.8,210210,,,A*7D
$GPRMC,014344.0,A,3336.429663,N,11751.192307,W,47.4,89.5,210210,,,A*7D
$GPRMC,014347.0,A,3336.430176,N,11751.144640,W,48.4,89.1,210210,,,A*73
$GPRMC,014350.0,A,3336.431899,N,11751.095825,W,48.5,87.3,210210,,,A*71
$GPRMC,014353.0,A,3336.437478,N,11751.048421,W,47.6,83.5,210210,,,A*71
$GPRMC,014356.0,A,3336.444207,N,11750.997483,W,50.5,82.4,210210,,,A*79
$GPRMC,014359.0,A,3336.445817,N,11750.949025,W,49.8,87.8,210210,,,A*7B
$GPRMC,014402.0,A,3336.442958,N,11750.902010,W,49.3,95.2,210210,,,A*74
$GPRMC,014405.0,A,3336.436646,N,11750.852598,W,48.5,101.5,210210,,,A*4D
$GPRMC,014408.0,A,3336.426549,N,11750.803438,W,50.9,104.2,210210,,,A*45
$GPRMC,014411.0,A,3336.416526,N,11750.753741,W,52.4,104.6,210210,,,A*4B
$GPRMC,014414.0,A,3336.404687,N,11750.700964,W,54.0,104.7,210210,,,A*49
$GPRMC,014417.0,A,3336.392353,N,11750.648093,W,54.5,105.2,210210,,,A*43
$GPRMC,014420.0,A,3336.380036,N,11750.595194,W,53.9,103.8,210210,,,A*46
$GPRMC,014423.0,A,3336.370347,N,11750.543921,W,53.3,100.4,210210,,,A*47
$GPRMC,014426.0,A,3336.364630,N,11750.489215,W,54.7,95.1,210210,,,A*72
$GPRMC,014429.0,A,3336.364580,N,11750.435672,W,54.0,92.0,210210,,,A*76
$GPRMC,014432.0,A,3336.363724,N,11750.385376,W,51.5,91.4,210210,,,A*7D
$GPRMC,014435.0,A,3336.365619,N,11750.338049,W,49.5,87.0,210210,,,A*70
$GPRMC,014438.0,A,3336.371642,N,11750.288165,W,49.8,82.9,210210,,,A*72
$GPRMC,014441.0,A,3336.381251,N,11750.243528,W,45.6,76.6,210210,,,A*79
$GPRMC,014444.0,A,3336.393365,N,11750.201244,W,45.5,73.5,210210,,,A*77
$GPRMC,014447.0,A,3336.407165,N,11750.160290,W,44.5,68.8,210210,,,A*77
$GPRMC,014450.0,A,3336.424126,N,11750.121563,W,45.1,64.0,210210,,,A*78
$GPRMC,014453.0,A,3336.443858,N,11750.082546,W,46.6,60.3,210210,,,A*76
$GPRMC,014456.0,A,3336.464621,N,11750.041401,W,48.2,59.3,210210,,,A*7B
$GPRMC,014459.0,A,3336.484335,N,11749.999895,W,48.0,60.8,210210,,,A*7C
$GPRMC,014502.0,A,3336.501278,N,11749.957212,W,47.9,64.8,210210,,,A*72
$GPRMC,014505.0,A,3336.514872,N,11749.912500,W,47.0,69.7,210210,,,A*7F
$GPRMC,014508.0,A,3336.522890,N,11749.867177,W,46.0,75.7,210210,,,A*70
$GPRMC,014511.0,A,3336.526377,N,11749.827032,W,41.9,81.9,210210,,,A*71
$GPRMC,014514.0,A,3336.527111,N,11749.786146,W,41.3,87.6,210210,,,A*72
$GPRMC,014517.0,A,3336.526725,N,11749.742868,W,42.1,91.9,210210,,,A*75
$GPRMC,014520.0,A,3336.523351,N,11749.700629,W,41.9,94.7,210210,,,A*7E
$GPRMC,014523.0,A,3336.519908,N,11749.660895,W,40.5,94.2,210210,,,A*74
$GPRMC,014526.0,A,3336.518003,N,11749.624591,W,36.5,95.0,210210,,,A*79
$GPRMC,014529.0,A,3336.517717,N,11749.594515,W,30.2,93.7,210210,,,A*7F
$GPRMC,014532.0,A,3336.512510,N,11749.571152,W,23.9,96.9,210210,,,A*7B
$GPRMC,014535.0,A,3336.506166,N,11749.556396,W,19.2,109.5,210210,,,A*4A
$GPRMC,014538.0,A,3336.508035,N,11749.560226,W,5.1,110.0,210210,,,A*72
$GPRMC,014635.0,A,3336.514535,N,11749.555208,W,7.0,87.9,210210,,,A*4B
$GPRMC,014638.0,A,3336.522181,N,11749.546791,W,6.7,55.4,210210,,,A*4B
$GPRMC,014641.0,A,3336.534726,N,11749.543394,W,8.3,24.0,210210,,,A*45
$GPRMC,014644.0,A,3336.552004,N,11749.544684,W,11.8,357.9,210210,,,A*49
$GPRMC,014647.0,A,3336.599555,N,11749.539789,W,27.0,352.5,210210,,,A*4E
$GPRMC,014650.0,A,3336.653895,N,11749.537280,W,42.8,356.9,210210,,,A*4D
$GPRMC,014653.0,A,3336.703057,N,11749.540514,W,49.6,357.8,210210,,,A*43
$GPRMC,014656.0,A,3336.750953,N,11749.544027,W,51.2,355.4,210210,,,A*4F
$GPRMC,014659.0,A,3336.798936,N,11749.548055,W,53.4,356.1,210210,,,A*4C
$GPRMC,014702.0,A,3336.845344,N,11749.551282,W,54.2,356.5,210210,,,A*46
$GPRMC,014705.0,A,3336.893782,N,11749.555231,W,54.8,356.6,210210,,,A*41
$GPRMC,014708.0,A,3336.939662,N,11749.557995,W,54.3,355.8,210210,,,A*43
$GPRMC,014711.0,A,3336.985280,N,11749.557595,W,54.0,356.4,210210,,,A*44
$GPRMC,014714.0,A,3337.029393,N,11749.558775,W,52.5,357.3,210210,,,A*4A
$GPRMC,014717.0,A,3337.071248,N,11749.560265,W,51.9,357.2,210210,,,A*42
$GPRMC,014805.0,A,3337.064962,N,11749.206651,W,55.8,152.4,210210,,,A*49
$GPRMC,014808.0,A,3337.018544,N,11749.182769,W,58.0,155.7,210210,,,A*43
$GPRMC,014811.0,A,3336.972076,N,11749.160204,W,58.7,156.8,210210,,,A*42
$GPRMC,014814.0,A,3336.922219,N,11749.137578,W,60.6,157.2,210210,,,A*46
$GPRMC,014817.0,A,3336.876454,N,11749.115102,W,59.5,156.6,210210,,,A*4F
$GPRMC,014820.0,A,3336.832873,N,11749.089306,W,60.3,152.2,210210,,,A*4C
$GPRMC,014823.0,A,3336.790162,N,11749.056666,W,61.1,146.7,210210,,,A*43
$GPRMC,014826.0,A,3336.749085,N,11749.019407,W,61.6,140.6,210210,,,A*44
$GPRMC,014829.0,A,3336.712416,N,11748.975811,W,62.0,135.0,210210,,,A*43
$GPRMC,014832.0,A,3336.678441,N,11748.928854,W,61.9,129.9,210210,,,A*41
$GPRMC,014835.0,A,3336.651012,N,11748.878495,W,61.2,124.2,210210,,,A*47
$GPRMC,014838.0,A,3336.626442,N,11748.827152,W,61.6,118.0,210210,,,A*46
$GPRMC,014841.0,A,3336.603725,N,11748.772159,W,63.0,113.6,210210,,,A*40
$GPRMC,014844.0,A,3336.584633,N,11748.713602,W,62.8,108.4,210210,,,A*40
$GPRMC,014847.0,A,3336.573759,N,11748.652829,W,63.6,101.9,210210,,,A*4E
$GPRMC,014850.0,A,3336.564099,N,11748.590352,W,64.9,99.9,210210,,,A*77
$GPRMC,014853.0,A,3336.555063,N,11748.526674,W,65.6,99.3,210210,,,A*7B
$GPRMC,014856.0,A,3336.546262,N,11748.462579,W,66.0,99.2,210210,,,A*74
$GPRMC,014859.0,A,3336.536511,N,11748.396648,W,66.5,99.9,210210,,,A*7C
$GPRMC,014902.0,A,3336.524273,N,11748.333952,W,65.3,104.3,210210,,,A*42
$GPRMC,014905.0,A,3336.507614,N,11748.272695,W,64.0,109.7,210210,,,A*4A
$GPRMC,014908.0,A,3336.485765,N,11748.214665,W,63.4,114.1,210210,,,A*4D
$GPRMC,014911.0,A,3336.463095,N,11748.155964,W,65.2,114.9,210210,,,A*45
$GPRMC,014914.0,A,3336.439833,N,11748.094662,W,66.1,114.7,210210,,,A*40
$GPRMC,014917.0,A,3336.417716,N,11748.035719,W,65.6,114.5,210210,,,A*47
$GPRMC,014920.0,A,3336.395015,N,11747.977478,W,65.1,115.0,210210,,,A*4D
$GPRMC,014923.0,A,3336.371565,N,11747.918775,W,64.6,114.5,210210,,,A*43
$GPRMC,014926.0,A,3336.347062,N,11747.859449,W,66.7,115.5,210210,,,A*4B
$GPRMC,014929.0,A,3336.325334,N,11747.800720,W,65.8,114.9,210210,,,A*41
$GPRMC,014932.0,A,3336.302156,N,11747.741183,W,65.7,114.7,210210,,,A*4C
$GPRMC,014935.0,A,3336.279108,N,11747.682798,W,65.2,115.4,210210,,,A*48
$GPRMC,014938.0,A,3336.256726,N,11747.623806,W,65.1,115.0,210210,,,A*46
$GPRMC,014941.0,A,3336.232687,N,11747.565284,W,65.3,115.2,210210,,,A*41
$GPRMC,014944.0,A,3336.208610,N,11747.506512,W,65.9,115.3,210210,,,A*45
$GPRMC,014947.0,A,3336.185512,N,11747.449047,W,65.7,114.6,210210,,,A*44
$GPRMC,014950.0,A,3336.166401,N,11747.389104,W,64.9,110.0,210210,,,A*4C
$GPRMC,014953.0,A,3336.151876,N,11747.325578,W,66.1,104.1,210210,,,A*40
$GPRMC,014956.0,A,3336.141566,N,11747.261163,W,65.6,100.3,210210,,,A*45
$GPRMC,014959.0,A,3336.133040,N,11747.195152,W,66.1,97.6,210210,,,A*7A
$GPRMC,015002.0,A,3336.126389,N,11747.128423,W,67.0,97.6,210210,,,A*7B
$GPRMC,015005.0,A,3336.117903,N,11747.061868,W,66.6,100.2,210210,,,A*45
$GPRMC,015008.0,A,3336.105720,N,11746.998005,W,65.8,104.8,210210,,,A*4A
$GPRMC,015011.0,A,3336.089794,N,11746.939142,W,61.2,109.3,210210,,,A*49
$GPRMC,015014.0,A,3336.070848,N,11746.883765,W,59.8,112.2,210210,,,A*4D
$GPRMC,015017.0,A,3336.045751,N,11746.830347,W,60.5,117.7,210210,,,A*44
$GPRMC,015020.0,A,3336.020363,N,11746.779839,W,60.3,120.1,210210,,,A*42
$GPRMC,015023.0,A,3335.996077,N,11746.728085,W,61.0,120.1,210210,,,A*49
$GPRMC,015026.0,A,3335.971504,N,11746.673095,W,62.1,117.0,210210,,,A*4D
$GPRMC,015029.0,A,3335.951693,N,11746.614343,W,62.1,111.0,210210,,,A*42
$GPRMC,015032.0,A,3335.936438,N,11746.554074,W,62.3,106.4,210210,,,A*4A
$GPRMC,015035.0,A,3335.924836,N,11746.493453,W,62.3,103.9,210210,,,A*4F
$GPRMC,015038.0,A,3335.922800,N,11746.428696,W,63.5,97.7,210210,,,A*7F
$GPRMC,015041.0,A,3335.920062,N,11746.363500,W,64.4,96.1,210210,,,A*7A
$GPRMC,015044.0,A,3335.914730,N,11746.295710,W,66.5,96.5,210210,,,A*74
$GPRMC,015047.0,A,3335.904689,N,11746.231525,W,63.6,101.0,210210,,,A*43
$GPRMC,015050.0,A,3335.888858,N,11746.171157,W,64.8,107.9,210210,,,A*42
$GPRMC,015053.0,A,3335.861593,N,11746.117530,W,64.3,116.6,210210,,,A*4D
$GPRMC,015056.0,A,3335.834224,N,11746.062250,W,64.5,122.6,210210,,,A*40
$GPRMC,015059.0,A,3335.801547,N,11746.007254,W,66.0,128.4,210210,,,A*43
$GPRMC,015102.0,A,3335.765771,N,11745.952987,W,66.8,129.3,210210,,,A*47
$GPRMC,015105.0,A,3335.729465,N,11745.898710,W,67.2,129.7,210210,,,A*46
$GPRMC,015108.0,A,3335.692889,N,11745.845640,W,68.2,129.1,210210,,,A*49
$GPRMC,015111.0,A,3335.658864,N,11745.793925,W,67.2,129.3,210210,,,A*41
$GPRMC,015114.0,A,3335.623096,N,11745.740997,W,68.0,129.5,210210,,,A*41
$GPRMC,015117.0,A,3335.588036,N,11745.689242,W,67.5,129.3,210210,,,A*41
$GPRMC,015120.0,A,3335.552101,N,11745.633227,W,68.7,125.8,210210,,,A*4F
$GPRMC,015123.0,A,3335.522368,N,11745.577730,W,67.5,119.6,210210,,,A*4A
$GPRMC,015126.0,A,3335.499611,N,11745.514089,W,67.9,112.8,210210,,,A*4C
$GPRMC,015129.0,A,3335.484067,N,11745.447901,W,67.3,105.6,210210,,,A*44
$GPRMC,015132.0,A,3335.474473,N,11745.382035,W,66.2,101.3,210210,,,A*41
$GPRMC,015135.0,A,3335.464927,N,11745.316029,W,66.5,100.3,210210,,,A*4D
$GPRMC,015138.0,A,3335.457145,N,11745.249425,W,67.1,99.6,210210,,,A*7E
$GPRMC,015141.0,A,3335.449050,N,11745.182262,W,67.0,99.3,210210,,,A*7F
$GPRMC,015144.0,A,3335.438602,N,11745.117867,W,65.8,99.7,210210,,,A*70
$GPRMC,015147.0,A,3335.428858,N,11745.052066,W,65.4,99.7,210210,,,A*76
$GPRMC,015150.0,A,3335.417813,N,11744.986756,W,64.4,101.8,210210,,,A*48
$GPRMC,015153.0,A,3335.403197,N,11744.926018,W,62.9,105.8,210210,,,A*43
$GPRMC,015156.0,A,3335.385908,N,11744.867304,W,62.0,110.6,210210,,,A*48
$GPRMC,015159.0,A,3335.365150,N,11744.811435,W,61.5,113.8,210210,,,A*43
$GPRMC,015202.0,A,3335.343221,N,11744.755282,W,62.2,114.0,210210,,,A*41
$GPRMC,015205.0,A,3335.323280,N,11744.698016,W,62.5,112.4,210210,,,A*41
$GPRMC,015208.0,A,3335.306069,N,11744.640055,W,63.2,109.1,210210,,,A*45
$GPRMC,015211.0,A,3335.292915,N,11744.578530,W,63.7,104.2,210210,,,A*46
$GPRMC,015214.0,A,3335.283956,N,11744.516045,W,64.4,99.5,210210,,,A*7D
$GPRMC,015217.0,A,3335.277279,N,11744.453128,W,64.8,97.6,210210,,,A*78
$GPRMC,015220.0,A,3335.269090,N,11744.389343,W,66.1,97.8,210210,,,A*7C
$GPRMC,015223.0,A,3335.261865,N,11744.320970,W,68.7,96.8,210210,,,A*75
$GPRMC,015226.0,A,3335.253752,N,11744.252780,W,69.1,97.0,210210,,,A*71
$GPRMC,015229.0,A,3335.247194,N,11744.183558,W,70.1,96.6,210210,,,A*70
$GPRMC,015234.0,A,3335.237171,N,11744.067943,W,69.8,96.4,210210,,,A*7E
$GPRMC,015237.0,A,3335.230775,N,11743.999884,W,68.5,97.8,210210,,,A*7C
$GPRMC,015240.0,A,3335.221333,N,11743.932246,W,67.0,101.6,210210,,,A*45
$GPRMC,015243.0,A,3335.204363,N,11743.863036,W,67.5,107.8,210210,,,A*49
$GPRMC,015246.0,A,3335.179813,N,11743.800583,W,67.1,115.5,210210,,,A*4D
$GPRMC,015249.0,A,3335.149979,N,11743.743288,W,66.5,121.4,210210,,,A*4B
$GPRMC,015252.0,A,3335.118416,N,11743.689215,W,67.0,125.4,210210,,,A*42
$GPRMC,015255.0,A,3335.080473,N,11743.635805,W,68.2,130.4,210210,,,A*43
$GPRMC,015258.0,A,3335.042345,N,11743.584447,W,68.0,131.1,210210,,,A*47
$GPRMC,015301.0,A,3335.004763,N,11743.533106,W,68.5,131.2,210210,,,A*42
$GPRMC,015304.0,A,3334.966868,N,11743.480631,W,68.5,130.9,210210,,,A*4F
$GPRMC,015307.0,A,3334.929260,N,11743.428484,W,68.4,131.1,210210,,,A*43
$GPRMC,015310.0,A,3334.892234,N,11743.376603,W,68.2,130.7,210210,,,A*45
$GPRMC,015313.0,A,3334.855865,N,11743.325203,W,68.9,130.4,210210,,,A*49
$GPRMC,015316.0,A,3334.818205,N,11743.273378,W,68.5,130.5,210210,,,A*4B
$GPRMC,015319.0,A,3334.781518,N,11743.220678,W,68.4,128.8,210210,,,A*46
$GPRMC,015322.0,A,3334.747639,N,11743.167079,W,68.4,127.2,210210,,,A*46
$GPRMC,015325.0,A,3334.715347,N,11743.112629,W,68.4,124.9,210210,,,A*43
$GPRMC,015328.0,A,3334.682982,N,11743.055491,W,68.5,123.8,210210,,,A*46
$GPRMC,015331.0,A,3334.653823,N,11743.002311,W,66.3,122.0,210210,,,A*44
$GPRMC,015334.0,A,3334.623016,N,11742.942964,W,66.8,120.7,210210,,,A*42
$GPRMC,015337.0,A,3334.596808,N,11742.882955,W,67.5,117.9,210210,,,A*42
$GPRMC,015340.0,A,3334.571681,N,11742.818721,W,69.0,116.1,210210,,,A*48
$GPRMC,015343.0,A,3334.547193,N,11742.754542,W,69.2,114.0,210210,,,A*4B
$GPRMC,015346.0,A,3334.523758,N,11742.691900,W,69.8,113.5,210210,,,A*47
$GPRMC,015349.0,A,3334.501272,N,11742.628274,W,69.9,113.0,210210,,,A*4B
$GPRMC,015352.0,A,3334.478574,N,11742.564294,W,69.7,113.0,210210,,,A*44
$GPRMC,015355.0,A,3334.454980,N,11742.502376,W,68.8,114.0,210210,,,A*4E
$GPRMC,015358.0,A,3334.420677,N,11742.433802,W,72.2,118.6,210210,,,A*47
$GPRMC,015401.0,A,3334.398128,N,11742.373275,W,70.5,120.6,210210,,,A*42
$GPRMC,015404.0,A,3334.359434,N,11742.312731,W,69.9,128.4,210210,,,A*4E
$GPRMC,015407.0,A,3334.320769,N,11742.259215,W,70.1,132.3,210210,,,A*49
$GPRMC,015410.0,A,3334.277949,N,11742.208037,W,70.6,134.4,210210,,,A*40
$GPRMC,015413.0,A,3334.236793,N,11742.157666,W,69.8,133.9,210210,,,A*48
$GPRMC,015416.0,A,3334.195521,N,11742.105534,W,70.2,133.9,210210,,,A*4D
$GPRMC,015419.0,A,3334.154538,N,11742.054561,W,70.4,133.5,210210,,,A*48
$GPRMC,015422.0,A,3334.113282,N,11742.003146,W,69.4,133.4,210210,,,A*4F
$GPRMC,015425.0,A,3334.073929,N,11741.953833,W,68.3,133.2,210210,,,A*41
$GPRMC,015428.0,A,3334.035462,N,11741.905025,W,66.9,133.3,210210,,,A*45
$GPRMC,015431.0,A,3333.998477,N,11741.856681,W,66.1,133.5,210210,,,A*41
$GPRMC,015434.0,A,3333.960375,N,11741.811278,W,65.7,135.5,210210,,,A*44
$GPRMC,015437.0,A,3333.920314,N,11741.768389,W,64.8,138.5,210210,,,A*49
$GPRMC,015440.0,A,3333.873753,N,11741.729018,W,66.2,144.7,210210,,,A*46
$GPRMC,015443.0,A,3333.825307,N,11741.692667,W,68.1,147.9,210210,,,A*4C
$GPRMC,015446.0,A,3333.773247,N,11741.657626,W,70.0,148.6,210210,,,A*44
$GPRMC,015449.0,A,3333.723731,N,11741.621051,W,69.5,148.6,210210,,,A*40
$GPRMC,015452.0,A,3333.679291,N,11741.581343,W,68.5,143.4,210210,,,A*4A
$GPRMC,015455.0,A,3333.635828,N,11741.538164,W,68.4,136.8,210210,,,A*47
$GPRMC,015458.0,A,3333.596886,N,11741.487882,W,68.8,130.2,210210,,,A*40
$GPRMC,015501.0,A,3333.562731,N,11741.432784,W,68.7,124.4,210210,,,A*4E
$GPRMC,015504.0,A,3333.537613,N,11741.373759,W,68.3,116.9,210210,,,A*40
$GPRMC,015507.0,A,3333.514558,N,11741.312201,W,68.4,112.0,210210,,,A*4B
$GPRMC,015510.0,A,3333.499067,N,11741.247078,W,69.1,105.7,210210,,,A*48
$GPRMC,015513.0,A,3333.486748,N,11741.180930,W,68.0,102.1,210210,,,A*43
$GPRMC,015516.0,A,3333.475108,N,11741.114119,W,67.8,101.5,210210,,,A*46
$GPRMC,015519.0,A,3333.463496,N,11741.049263,W,66.5,101.6,210210,,,A*44
$GPRMC,015522.0,A,3333.452043,N,11740.985006,W,66.7,101.8,210210,,,A*47
$GPRMC,015525.0,A,3333.438728,N,11740.920122,W,67.1,105.5,210210,,,A*40
$GPRMC,015528.0,A,3333.419270,N,11740.856337,W,68.0,110.5,210210,,,A*4A
$GPRMC,015531.0,A,3333.392558,N,11740.795553,W,67.8,116.8,210210,,,A*43
$GPRMC,015534.0,A,3333.360353,N,11740.740112,W,67.2,122.4,210210,,,A*4E
$GPRMC,015537.0,A,3333.315219,N,11740.692232,W,66.4,132.9,210210,,,A*44
$GPRMC,015540.0,A,3333.270496,N,11740.653228,W,64.7,140.6,210210,,,A*4A
$GPRMC,015543.0,A,3333.218395,N,11740.617433,W,68.4,148.6,210210,,,A*48
$GPRMC,015546.0,A,3333.162593,N,11740.597481,W,68.0,159.9,210210,,,A*4A
$GPRMC,015549.0,A,3333.104085,N,11740.583549,W,69.4,167.5,210210,,,A*43
$GPRMC,015552.0,A,3333.048166,N,11740.568942,W,69.1,167.8,210210,,,A*46
$GPRMC,015555.0,A,3332.989360,N,11740.554585,W,69.1,167.4,210210,,,A*44
$GPRMC,015558.0,A,3332.932421,N,11740.540170,W,69.7,167.8,210210,,,A*4A
$GPRMC,015601.0,A,3332.875022,N,11740.525972,W,70.2,168.1,210210,,,A*42
$GPRMC,015604.0,A,3332.815926,N,11740.512651,W,71.1,168.3,210210,,,A*46
$GPRMC,015607.0,A,3332.758729,N,11740.498316,W,70.0,168.5,210210,,,A*41
$GPRMC,015610.0,A,3332.700224,N,11740.485720,W,69.7,168.6,210210,,,A*43
$GPRMC,015613.0,A,3332.645576,N,11740.471798,W,68.3,168.5,210210,,,A*4E
$GPRMC,015616.0,A,3332.590116,N,11740.462563,W,67.0,173.5,210210,,,A*40
$GPRMC,015619.0,A,3332.533067,N,11740.463697,W,67.8,182.7,210210,,,A*4C
$GPRMC,015622.0,A,3332.477988,N,11740.470346,W,67.3,187.2,210210,,,A*4D
$GPRMC,015625.0,A,3332.421924,N,11740.478488,W,66.7,187.2,210210,,,A*47
$GPRMC,015628.0,A,3332.368316,N,11740.488304,W,64.9,187.9,210210,,,A*40
$GPRMC,015631.0,A,3332.316664,N,11740.496962,W,62.4,187.8,210210,,,A*4E
$GPRMC,015634.0,A,3332.264168,N,11740.502585,W,63.2,185.7,210210,,,A*47
$GPRMC,015637.0,A,3332.210876,N,11740.507156,W,64.9,183.3,210210,,,A*40
$GPRMC,015640.0,A,3332.155887,N,11740.510214,W,66.7,182.0,210210,,,A*41
$GPRMC,015643.0,A,3332.100100,N,11740.511627,W,67.0,179.9,210210,,,A*4A
$GPRMC,015646.0,A,3332.045947,N,11740.507982,W,66.2,177.0,210210,,,A*47
$GPRMC,015649.0,A,3331.989519,N,11740.503020,W,68.3,174.8,210210,,,A*44
$GPRMC,015652.0,A,3331.933508,N,11740.489227,W,68.5,168.6,210210,,,A*4C
$GPRMC,015656.0,A,3331.865172,N,11740.463155,W,66.4,163.0,210210,,,A*43
$GPRMC,015701.0,A,3331.791079,N,11740.399796,W,68.8,147.9,210210,,,A*48
$GPRMC,015704.0,A,3331.747135,N,11740.353883,W,71.2,141.6,210210,,,A*49
$GPRMC,015707.0,A,3331.716061,N,11740.298584,W,69.2,130.9,210210,,,A*42
$GPRMC,015710.0,A,3331.681450,N,11740.245829,W,68.1,129.3,210210,,,A*47
$GPRMC,015713.0,A,3331.644288,N,11740.191610,W,68.4,132.8,210210,,,A*44
$GPRMC,015716.0,A,3331.603598,N,11740.145114,W,67.0,137.7,210210,,,A*4F
$GPRMC,015719.0,A,3331.560937,N,11740.104753,W,64.7,142.6,210210,,,A*48
$GPRMC,015722.0,A,3331.511917,N,11740.072276,W,64.6,151.2,210210,,,A*41
$GPRMC,015725.0,A,3331.461796,N,11740.046992,W,63.2,157.8,210210,,,A*4E
$GPRMC,015728.0,A,3331.411415,N,11740.026663,W,64.2,160.9,210210,,,A*49
$GPRMC,015731.0,A,3331.362713,N,11740.005731,W,62.5,160.7,210210,,,A*4F
$GPRMC,015734.0,A,3331.313050,N,11739.985918,W,62.4,160.7,210210,,,A*47
$GPRMC,015737.0,A,3331.263382,N,11739.964797,W,63.1,160.3,210210,,,A*48
$GPRMC,015740.0,A,3331.212652,N,11739.942761,W,64.3,160.7,210210,,,A*4A
$GPRMC,015743.0,A,3331.160677,N,11739.922520,W,65.3,161.0,210210,,,A*4E
$GPRMC,015746.0,A,3331.110776,N,11739.900182,W,64.9,160.2,210210,,,A*48
$GPRMC,015749.0,A,3331.059759,N,11739.878842,W,64.9,160.2,210210,,,A*4D
$GPRMC,015752.0,A,3331.010284,N,11739.856587,W,64.9,160.1,210210,,,A*44
$GPRMC,015755.0,A,3330.959612,N,11739.835352,W,65.0,160.4,210210,,,A*4B
$GPRMC,015758.0,A,3330.908721,N,11739.812379,W,64.7,160.3,210210,,,A*4E
$GPRMC,015801.0,A,3330.857614,N,11739.789013,W,65.3,160.2,210210,,,A*47
$GPRMC,015804.0,A,3330.806325,N,11739.765674,W,65.4,160.3,210210,,,A*42
$GPRMC,015807.0,A,3330.752792,N,11739.743872,W,65.3,160.9,210210,,,A*46
$GPRMC,015810.0,A,3330.703289,N,11739.722768,W,64.9,160.1,210210,,,A*4B
$GPRMC,015813.0,A,3330.650827,N,11739.699590,W,66.3,160.4,210210,,,A*48
$GPRMC,015816.0,A,3330.598002,N,11739.676530,W,67.8,159.5,210210,,,A*4F
$GPRMC,015819.0,A,3330.542164,N,11739.653218,W,69.2,160.3,210210,,,A*44
$GPRMC,015822.0,A,3330.485413,N,11739.629721,W,69.8,160.4,210210,,,A*4C
$GPRMC,015825.0,A,3330.429743,N,11739.607553,W,69.5,160.5,210210,,,A*4C
$GPRMC,015828.0,A,3330.375645,N,11739.584429,W,68.3,160.9,210210,,,A*47
$GPRMC,015831.0,A,3330.321343,N,11739.562558,W,68.4,160.8,210210,,,A*44
$GPRMC,015834.0,A,3330.266005,N,11739.542624,W,68.0,164.1,210210,,,A*41
$GPRMC,015837.0,A,3330.209864,N,11739.528989,W,67.5,167.6,210210,,,A*4E
$GPRMC,015840.0,A,3330.154317,N,11739.516790,W,67.0,170.4,210210,,,A*40
$GPRMC,015843.0,A,3330.101376,N,11739.511833,W,64.5,174.6,210210,,,A*45
$GPRMC,015846.0,A,3330.045629,N,11739.510291,W,64.5,178.6,210210,,,A*41
$GPRMC,015849.0,A,3329.991388,N,11739.512380,W,65.3,182.1,210210,,,A*4E
$GPRMC,015852.0,A,3329.935712,N,11739.518132,W,67.6,186.2,210210,,,A*4C
$GPRMC,015855.0,A,3329.879678,N,11739.527166,W,67.4,189.2,210210,,,A*4F
$GPRMC,015858.0,A,3329.825971,N,11739.539334,W,66.1,192.4,210210,,,A*4F
$GPRMC,015901.0,A,3329.774315,N,11739.557283,W,65.4,196.4,210210,,,A*46
$GPRMC,015904.0,A,3329.722249,N,11739.577988,W,65.1,199.3,210210,,,A*47
$GPRMC,015907.0,A,3329.672935,N,11739.601764,W,64.3,202.6,210210,,,A*49
$GPRMC,015910.0,A,3329.625284,N,11739.628808,W,63.4,205.8,210210,,,A*4B
$GPRMC,015913.0,A,3329.577598,N,11739.657909,W,64.0,207.4,210210,,,A*43
$GPRMC,015916.0,A,3329.536972,N,11739.689298,W,60.8,211.3,210210,,,A*47
$GPRMC,015919.0,A,3329.493978,N,11739.723658,W,62.3,212.8,210210,,,A*44
$GPRMC,015922.0,A,3329.448162,N,11739.756972,W,62.7,211.8,210210,,,A*4B
$GPRMC,015925.0,A,3329.403963,N,11739.792292,W,63.6,212.4,210210,,,A*48
$GPRMC,015928.0,A,3329.358879,N,11739.826952,W,64.6,212.8,210210,,,A*4A
$GPRMC,015931.0,A,3329.313696,N,11739.860754,W,64.6,212.1,210210,,,A*41
$GPRMC,015934.0,A,3329.269693,N,11739.894407,W,64.1,211.9,210210,,,A*4F
$GPRMC,015937.0,A,3329.223698,N,11739.928972,W,64.4,212.1,210210,,,A*4E
$GPRMC,015940.0,A,3329.179617,N,11739.961766,W,62.9,212.0,210210,,,A*49
$GPRMC,015943.0,A,3329.138010,N,11739.993133,W,60.9,213.3,210210,,,A*45
$GPRMC,015946.0,A,3329.094739,N,11740.029476,W,61.8,215.2,210210,,,A*4E
$GPRMC,015949.0,A,3329.052712,N,11740.064001,W,62.5,215.2,210210,,,A*41
$GPRMC,015952.0,A,3329.012556,N,11740.101325,W,62.1,216.3,210210,,,A*4C
$GPRMC,015955.0,A,3328.970694,N,11740.137547,W,61.0,215.7,210210,,,A*48
$GPRMC,015958.0,A,3328.928697,N,11740.171497,W,59.8,215.7,210210,,,A*46
$GPRMC,020001.0,A,3328.886684,N,11740.206956,W,60.7,216.2,210210,,,A*42
$GPRMC,020004.0,A,3328.846031,N,11740.244297,W,62.4,216.6,210210,,,A*46
$GPRMC,020007.0,A,3328.802762,N,11740.282074,W,63.8,216.0,210210,,,A*4A
$GPRMC,020010.0,A,3328.758833,N,11740.317141,W,64.1,215.0,210210,,,A*40
$GPRMC,020013.0,A,3328.716412,N,11740.353964,W,62.6,215.3,210210,,,A*4B
$GPRMC,020016.0,A,3328.674497,N,11740.387421,W,60.6,214.3,210210,,,A*40
$GPRMC,020019.0,A,3328.631235,N,11740.418350,W,60.1,209.9,210210,,,A*41
$GPRMC,020022.0,A,3328.586338,N,11740.443095,W,60.2,205.5,210210,,,A*4D
$GPRMC,020025.0,A,3328.538010,N,11740.459224,W,59.9,198.6,210210,,,A*40
$GPRMC,020028.0,A,3328.489484,N,11740.474844,W,60.5,192.5,210210,,,A*43
$GPRMC,020031.0,A,3328.438998,N,11740.483465,W,60.3,187.4,210210,,,A*45
$GPRMC,020034.0,A,3328.390483,N,11740.487042,W,61.0,181.2,210210,,,A*45
$GPRMC,020037.0,A,3328.338469,N,11740.486153,W,62.1,177.8,210210,,,A*41
$GPRMC,020040.0,A,3328.288591,N,11740.480728,W,61.9,173.9,210210,,,A*4F
$GPRMC,020043.0,A,3328.245465,N,11740.464972,W,57.5,165.4,210210,,,A*4F
$GPRMC,020046.0,A,3328.202600,N,11740.444905,W,55.5,157.2,210210,,,A*4F
$GPRMC,020049.0,A,3328.161215,N,11740.420014,W,53.7,150.0,210210,,,A*4C
$GPRMC,020052.0,A,3328.126307,N,11740.387218,W,52.1,142.4,210210,,,A*43
$GPRMC,020055.0,A,3328.096522,N,11740.351565,W,51.7,134.4,210210,,,A*4D
$GPRMC,020058.0,A,3328.071954,N,11740.309177,W,52.0,125.7,210210,,,A*49
$GPRMC,020101.0,A,3328.051973,N,11740.264130,W,51.4,118.8,210210,,,A*4C
$GPRMC,020104.0,A,3328.031748,N,11740.214854,W,53.6,116.5,210210,,,A*46
$GPRMC,020107.0,A,3328.010410,N,11740.166641,W,53.9,117.8,210210,,,A*47
$GPRMC,020110.0,A,3327.985324,N,11740.118125,W,54.5,123.1,210210,,,A*42
$GPRMC,020113.0,A,3327.958035,N,11740.075952,W,54.2,128.2,210210,,,A*4F
$GPRMC,020116.0,A,3327.928744,N,11740.033691,W,55.0,129.4,210210,,,A*4A
$GPRMC,020119.0,A,3327.899025,N,11739.990135,W,54.9,129.7,210210,,,A*42
$GPRMC,020122.0,A,3327.870530,N,11739.947783,W,54.3,129.3,210210,,,A*43
$GPRMC,020125.0,A,3327.841683,N,11739.905550,W,54.5,129.5,210210,,,A*47
$GPRMC,020128.0,A,3327.811008,N,11739.862462,W,56.5,129.6,210210,,,A*4B
$GPRMC,020131.0,A,3327.779317,N,11739.818468,W,58.7,129.4,210210,,,A*46
$GPRMC,020134.0,A,3327.746647,N,11739.772542,W,61.0,128.7,210210,,,A*4A
$GPRMC,020137.0,A,3327.712780,N,11739.725293,W,62.7,129.4,210210,,,A*4D
$GPRMC,020140.0,A,3327.678791,N,11739.675506,W,62.8,128.7,210210,,,A*42
$GPRMC,020143.0,A,3327.649942,N,11739.624402,W,62.4,123.9,210210,,,A*4B
$GPRMC,020146.0,A,3327.626766,N,11739.569497,W,62.6,117.0,210210,,,A*45
$GPRMC,020149.0,A,3327.604357,N,11739.512403,W,62.7,116.3,210210,,,A*4E
$GPRMC,020152.0,A,3327.581560,N,11739.458555,W,61.0,118.2,210210,,,A*4E
$GPRMC,020155.0,A,3327.557367,N,11739.409891,W,58.7,122.0,210210,,,A*44
$GPRMC,020158.0,A,3327.530693,N,11739.362752,W,57.6,124.8,210210,,,A*4C
$GPRMC,020201.0,A,3327.502050,N,11739.317638,W,58.3,126.1,210210,,,A*45
$GPRMC,020204.0,A,3327.474041,N,11739.270909,W,58.3,126.0,210210,,,A*4C
$GPRMC,020207.0,A,3327.444584,N,11739.223023,W,58.9,125.7,210210,,,A*49
$GPRMC,020210.0,A,3327.416689,N,11739.175435,W,59.4,124.1,210210,,,A*4E
$GPRMC,020213.0,A,3327.389994,N,11739.126232,W,58.7,122.9,210210,,,A*44
$GPRMC,020216.0,A,3327.364986,N,11739.077751,W,57.5,121.4,210210,,,A*47
$GPRMC,020219.0,A,3327.341714,N,11739.029995,W,55.7,120.1,210210,,,A*43
$GPRMC,020222.0,A,3327.320973,N,11738.981949,W,54.3,118.3,210210,,,A*44
$GPRMC,020225.0,A,3327.298581,N,11738.931798,W,56.3,117.9,210210,,,A*4E
$GPRMC,020228.0,A,3327.276695,N,11738.881060,W,56.9,117.5,210210,,,A*49
$GPRMC,020231.0,A,3327.255109,N,11738.830422,W,57.0,117.2,210210,,,A*45
$GPRMC,020234.0,A,3327.232877,N,11738.779214,W,57.4,117.4,210210,,,A*42
$GPRMC,020237.0,A,3327.208443,N,11738.727583,W,58.7,118.4,210210,,,A*42
$GPRMC,020240.0,A,3327.189427,N,11738.681886,W,58.3,120.1,210210,,,A*45
$GPRMC,020243.0,A,3327.160650,N,11738.629439,W,58.6,122.6,210210,,,A*49
$GPRMC,020246.0,A,3327.134191,N,11738.582005,W,55.3,124.3,210210,,,A*45
$GPRMC,020249.0,A,3327.110341,N,11738.537003,W,52.6,125.8,210210,,,A*43
$GPRMC,020252.0,A,3327.084133,N,11738.493912,W,52.7,128.4,210210,,,A*44
$GPRMC,020255.0,A,3327.055388,N,11738.451627,W,54.3,129.7,210210,,,A*4A
$GPRMC,020258.0,A,3327.026631,N,11738.408267,W,56.1,130.2,210210,,,A*45
$GPRMC,020301.0,A,3326.996288,N,11738.366056,W,56.5,130.8,210210,,,A*4C
$GPRMC,020304.0,A,3326.964544,N,11738.322729,W,56.8,130.8,210210,,,A*41
$GPRMC,020307.0,A,3326.932929,N,11738.278746,W,58.4,130.0,210210,,,A*4B
$GPRMC,020310.0,A,3326.903599,N,11738.231030,W,59.7,125.6,210210,,,A*43
$GPRMC,020313.0,A,3326.878023,N,11738.182864,W,59.0,122.5,210210,,,A*48
$GPRMC,020316.0,A,3326.851368,N,11738.132291,W,59.0,122.0,210210,,,A*44
$GPRMC,020319.0,A,3326.824329,N,11738.081415,W,59.9,121.7,210210,,,A*42
$GPRMC,020322.0,A,3326.797824,N,11738.028433,W,60.8,121.3,210210,,,A*43
$GPRMC,020325.0,A,3326.770921,N,11737.975761,W,60.7,121.3,210210,,,A*4C
$GPRMC,020328.0,A,3326.741990,N,11737.923591,W,61.1,125.2,210210,,,A*45
$GPRMC,020331.0,A,3326.709790,N,11737.875707,W,61.0,129.3,210210,,,A*4C
$GPRMC,020334.0,A,3326.676347,N,11737.833537,W,57.8,132.8,210210,,,A*41
$GPRMC,020337.0,A,3326.643101,N,11737.793704,W,56.9,134.3,210210,,,A*4E
$GPRMC,020340.0,A,3326.610124,N,11737.754099,W,56.6,134.8,210210,,,A*43
$GPRMC,020343.0,A,3326.577087,N,11737.714951,W,56.1,135.2,210210,,,A*4F
$GPRMC,020346.0,A,3326.543340,N,11737.674694,W,57.0,135.4,210210,,,A*42
$GPRMC,020349.0,A,3326.508578,N,11737.633311,W,58.1,135.2,210210,,,A*4C
$GPRMC,020352.0,A,3326.474099,N,11737.592122,W,58.0,133.5,210210,,,A*4C
$GPRMC,020355.0,A,3326.444059,N,11737.546416,W,58.1,128.1,210210,,,A*40
$GPRMC,020358.0,A,3326.416563,N,11737.499216,W,57.8,124.7,210210,,,A*4F
$GPRMC,020401.0,A,3326.389537,N,11737.452077,W,57.4,123.7,210210,,,A*4D
$GPRMC,020404.0,A,3326.363920,N,11737.404441,W,57.0,123.6,210210,,,A*41
$GPRMC,020407.0,A,3326.336862,N,11737.357610,W,57.7,124.0,210210,,,A*44
$GPRMC,020410.0,A,3326.308883,N,11737.308718,W,59.2,123.7,210210,,,A*48
$GPRMC,020413.0,A,3326.280721,N,11737.258070,W,60.0,123.8,210210,,,A*47
$GPRMC,020416.0,A,3326.251932,N,11737.207704,W,60.5,125.2,210210,,,A*45
$GPRMC,020419.0,A,3326.220504,N,11737.161876,W,59.5,130.8,210210,,,A*48
$GPRMC,020422.0,A,3326.185222,N,11737.119259,W,60.3,135.9,210210,,,A*4F
$GPRMC,020425.0,A,3326.147747,N,11737.080397,W,58.3,139.8,210210,,,A*44
$GPRMC,020428.0,A,3326.103551,N,11737.052168,W,57.5,149.2,210210,,,A*45
$GPRMC,020431.0,A,3326.061895,N,11737.024169,W,56.9,150.5,210210,,,A*4F
$GPRMC,020434.0,A,3326.020642,N,11736.996204,W,56.6,150.6,210210,,,A*4E
$GPRMC,020437.0,A,3325.978807,N,11736.969232,W,57.0,151.2,210210,,,A*42
$GPRMC,020440.0,A,3325.937117,N,11736.940165,W,57.8,148.6,210210,,,A*4F
$GPRMC,020443.0,A,3325.895565,N,11736.906787,W,60.0,145.6,210210,,,A*4D
$GPRMC,020446.0,A,3325.858941,N,11736.869383,W,60.2,140.0,210210,,,A*4A
$GPRMC,020449.0,A,3325.827831,N,11736.825906,W,60.5,134.1,210210,,,A*41
$GPRMC,020452.0,A,3325.793668,N,11736.781088,W,60.0,133.9,210210,,,A*4D
$GPRMC,020455.0,A,3325.757025,N,11736.739328,W,59.6,137.1,210210,,,A*47
$GPRMC,020458.0,A,3325.719498,N,11736.702285,W,58.7,141.2,210210,,,A*4E
$GPRMC,020501.0,A,3325.674938,N,11736.672222,W,58.8,146.8,210210,,,A*47
$GPRMC,020504.0,A,3325.631852,N,11736.640652,W,59.2,148.6,210210,,,A*47
$GPRMC,020507.0,A,3325.588040,N,11736.612358,W,59.7,150.3,210210,,,A*4F
$GPRMC,020510.0,A,3325.542412,N,11736.582411,W,61.7,150.3,210210,,,A*47
$GPRMC,020513.0,A,3325.497673,N,11736.550049,W,63.7,150.0,210210,,,A*4F
$GPRMC,020516.0,A,3325.450458,N,11736.520443,W,64.2,152.8,210210,,,A*4B
$GPRMC,020519.0,A,3325.400670,N,11736.494529,W,66.3,157.7,210210,,,A*43
$GPRMC,020522.0,A,3325.350472,N,11736.469049,W,66.1,157.5,210210,,,A*48
$GPRMC,020525.0,A,3325.298743,N,11736.441463,W,67.0,154.6,210210,,,A*4D
$GPRMC,020528.0,A,3325.249484,N,11736.408655,W,67.2,149.0,210210,,,A*46
$GPRMC,020531.0,A,3325.202898,N,11736.371736,W,67.9,145.5,210210,,,A*4F
$GPRMC,020534.0,A,3325.158770,N,11736.332523,W,66.4,144.3,210210,,,A*45
$GPRMC,020537.0,A,3325.110806,N,11736.297598,W,65.9,149.7,210210,,,A*4D
$GPRMC,020540.0,A,3325.061737,N,11736.269769,W,64.4,155.7,210210,,,A*4B
$GPRMC,020543.0,A,3325.012772,N,11736.244374,W,65.2,157.8,210210,,,A*40
$GPRMC,020546.0,A,3324.962358,N,11736.219599,W,66.2,157.4,210210,,,A*44
$GPRMC,020549.0,A,3324.910650,N,11736.193102,W,66.8,157.7,210210,,,A*4D
$GPRMC,020552.0,A,3324.858321,N,11736.168266,W,67.5,158.1,210210,,,A*49
$GPRMC,020555.0,A,3324.803794,N,11736.142984,W,69.5,157.6,210210,,,A*43
$GPRMC,020558.0,A,3324.748421,N,11736.115053,W,70.3,157.1,210210,,,A*4B
$GPRMC,020601.0,A,3324.694333,N,11736.087507,W,70.9,157.4,210210,,,A*41
$GPRMC,020604.0,A,3324.639748,N,11736.058511,W,71.6,156.6,210210,,,A*43
$GPRMC,020607.0,A,3324.584871,N,11736.031199,W,70.2,156.9,210210,,,A*41
$GPRMC,020610.0,A,3324.531198,N,11736.004507,W,69.4,157.3,210210,,,A*47
$GPRMC,020613.0,A,3324.478098,N,11735.978117,W,69.6,157.5,210210,,,A*49
$GPRMC,020616.0,A,3324.425360,N,11735.952059,W,68.5,157.5,210210,,,A*41
$GPRMC,020619.0,A,3324.373303,N,11735.926196,W,68.5,157.5,210210,,,A*4E
$GPRMC,020622.0,A,3324.320651,N,11735.898659,W,69.5,157.2,210210,,,A*44
$GPRMC,020625.0,A,3324.266625,N,11735.871656,W,69.6,156.9,210210,,,A*42
$GPRMC,020628.0,A,3324.213570,N,11735.845027,W,70.1,157.0,210210,,,A*4E
$GPRMC,020631.0,A,3324.159832,N,11735.816817,W,70.4,157.0,210210,,,A*48
$GPRMC,020634.0,A,3324.104885,N,11735.791442,W,70.7,157.9,210210,,,A*4F
$GPRMC,020637.0,A,3324.052120,N,11735.764034,W,69.7,157.0,210210,,,A*46
$GPRMC,020640.0,A,3323.996972,N,11735.736757,W,72.3,157.7,210210,,,A*43
$GPRMC,020643.0,A,3323.940378,N,11735.709651,W,73.4,158.1,210210,,,A*4F
$GPRMC,020646.0,A,3323.883645,N,11735.681219,W,73.2,157.1,210210,,,A*4F
$GPRMC,020649.0,A,3323.828928,N,11735.651235,W,72.5,156.0,210210,,,A*40
$GPRMC,020652.0,A,3323.774873,N,11735.620463,W,71.4,153.9,210210,,,A*4E
$GPRMC,020655.0,A,3323.722170,N,11735.588320,W,70.9,152.4,210210,,,A*41
$GPRMC,020658.0,A,3323.673015,N,11735.554799,W,68.7,150.6,210210,,,A*4B
$GPRMC,020701.0,A,3323.625644,N,11735.522288,W,67.2,149.5,210210,,,A*42
$GPRMC,020704.0,A,3323.579824,N,11735.487510,W,65.5,147.8,210210,,,A*4B
$GPRMC,020707.0,A,3323.534094,N,11735.452179,W,65.0,146.9,210210,,,A*44
$GPRMC,020710.0,A,3323.488835,N,11735.416872,W,65.1,146.7,210210,,,A*4A
$GPRMC,020713.0,A,3323.441936,N,11735.379954,W,66.3,146.9,210210,,,A*4A
$GPRMC,020716.0,A,3323.395843,N,11735.343968,W,66.1,147.1,210210,,,A*4F
$GPRMC,020719.0,A,3323.347871,N,11735.306821,W,66.8,146.2,210210,,,A*48
$GPRMC,020722.0,A,3323.303938,N,11735.267393,W,65.9,142.9,210210,,,A*45
$GPRMC,020725.0,A,3323.262479,N,11735.224187,W,66.0,138.2,210210,,,A*40
$GPRMC,020728.0,A,3323.224110,N,11735.177425,W,65.8,132.5,210210,,,A*4B
$GPRMC,020731.0,A,3323.188753,N,11735.125065,W,66.4,128.2,210210,,,A*43
$GPRMC,020734.0,A,3323.158675,N,11735.068753,W,66.7,123.0,210210,,,A*4E
$GPRMC,020737.0,A,3323.130225,N,11735.010876,W,67.8,120.3,210210,,,A*4B
$GPRMC,020740.0,A,3323.105809,N,11734.952422,W,66.4,117.7,210210,,,A*47
$GPRMC,020743.0,A,3323.083791,N,11734.895034,W,65.5,116.0,210210,,,A*48
$GPRMC,020746.0,A,3323.060816,N,11734.837361,W,64.5,115.5,210210,,,A*4C
$GPRMC,020749.0,A,3323.039674,N,11734.779252,W,64.7,115.3,210210,,,A*45
$GPRMC,020752.0,A,3323.018287,N,11734.720702,W,65.6,115.3,210210,,,A*48
$GPRMC,020755.0,A,3322.994800,N,11734.662580,W,64.9,115.9,210210,,,A*4D
$GPRMC,020758.0,A,3322.971328,N,11734.604260,W,64.8,115.9,210210,,,A*42
$GPRMC,020801.0,A,3322.948043,N,11734.544990,W,65.1,115.2,210210,,,A*45
$GPRMC,020804.0,A,3322.924116,N,11734.486176,W,65.6,115.6,210210,,,A*47
$GPRMC,020807.0,A,3322.901052,N,11734.425723,W,66.5,115.4,210210,,,A*4F
$GPRMC,020810.0,A,3322.876825,N,11734.363524,W,67.8,115.4,210210,,,A*4C
$GPRMC,020813.0,A,3322.852594,N,11734.302154,W,67.5,115.5,210210,,,A*46
$GPRMC,020816.0,A,3322.828996,N,11734.242352,W,66.3,115.1,210210,,,A*42
$GPRMC,020819.0,A,3322.806601,N,11734.180800,W,66.5,115.1,210210,,,A*47
$GPRMC,020822.0,A,3322.782126,N,11734.120751,W,66.0,115.2,210210,,,A*49
$GPRMC,020825.0,A,3322.759312,N,11734.061367,W,66.5,115.3,210210,,,A*4C
$GPRMC,020828.0,A,3322.735327,N,11733.999248,W,67.7,115.0,210210,,,A*48
$GPRMC,020831.0,A,3322.709552,N,11733.941629,W,64.5,119.4,210210,,,A*44
$GPRMC,020834.0,A,3322.678003,N,11733.887297,W,62.8,125.4,210210,,,A*49
$GPRMC,020837.0,A,3322.643571,N,11733.841378,W,59.6,131.8,210210,,,A*47
$GPRMC,020840.0,A,3322.608862,N,11733.801180,W,57.7,135.3,210210,,,A*46
$GPRMC,020843.0,A,3322.574905,N,11733.761186,W,58.8,135.5,210210,,,A*44
$GPRMC,020846.0,A,3322.540451,N,11733.719556,W,60.1,134.1,210210,,,A*4B
$GPRMC,020849.0,A,3322.507354,N,11733.675635,W,60.0,130.4,210210,,,A*48
$GPRMC,020852.0,A,3322.477532,N,11733.627236,W,60.0,124.7,210210,,,A*44
$GPRMC,020855.0,A,3322.448798,N,11733.575943,W,61.3,123.7,210210,,,A*45
$GPRMC,020858.0,A,3322.420458,N,11733.524490,W,62.0,122.9,210210,,,A*41
$GPRMC,020901.0,A,3322.392652,N,11733.472743,W,62.1,123.1,210210,,,A*4D
$GPRMC,020904.0,A,3322.363532,N,11733.419434,W,63.2,123.3,210210,,,A*4D
$GPRMC,020907.0,A,3322.334207,N,11733.366700,W,63.2,123.2,210210,,,A*47
$GPRMC,020910.0,A,3322.303629,N,11733.313162,W,63.6,123.6,210210,,,A*4D
$GPRMC,020913.0,A,3322.276142,N,11733.262902,W,62.1,123.3,210210,,,A*4D
$GPRMC,020916.0,A,3322.246884,N,11733.211640,W,61.9,123.6,210210,,,A*4B
$GPRMC,020919.0,A,3322.218266,N,11733.160045,W,60.8,124.0,210210,,,A*4E
$GPRMC,020922.0,A,3322.191253,N,11733.110217,W,59.6,123.1,210210,,,A*42
$GPRMC,020925.0,A,3322.164875,N,11733.061322,W,59.7,123.5,210210,,,A*44
$GPRMC,020928.0,A,3322.138422,N,11733.012947,W,59.6,123.6,210210,,,A*41
$GPRMC,020931.0,A,3322.112900,N,11732.966099,W,59.7,123.2,210210,,,A*48
$GPRMC,020934.0,A,3322.087775,N,11732.915990,W,60.0,122.5,210210,,,A*43
$GPRMC,020937.0,A,3322.057277,N,11732.862145,W,62.4,123.6,210210,,,A*4F
$GPRMC,020940.0,A,3322.027081,N,11732.812618,W,61.4,126.5,210210,,,A*4E
$GPRMC,020943.0,A,3321.996924,N,11732.767739,W,58.6,128.6,210210,,,A*41
$GPRMC,020946.0,A,3321.967061,N,11732.723121,W,58.2,129.3,210210,,,A*4D
$GPRMC,020949.0,A,3321.935781,N,11732.679094,W,58.3,129.3,210210,,,A*4C
$GPRMC,020952.0,A,3321.905417,N,11732.636224,W,57.9,129.3,210210,,,A*4E
$GPRMC,020955.0,A,3321.874345,N,11732.590236,W,58.8,129.0,210210,,,A*4F
$GPRMC,020958.0,A,3321.844081,N,11732.545542,W,58.1,129.0,210210,,,A*4F
$GPRMC,021001.0,A,3321.814263,N,11732.501633,W,57.5,128.8,210210,,,A*47
$GPRMC,021004.0,A,3321.783063,N,11732.458383,W,57.7,129.4,210210,,,A*4D
$GPRMC,021007.0,A,3321.752582,N,11732.413802,W,57.8,129.5,210210,,,A*4B
$GPRMC,021010.0,A,3321.721991,N,11732.369360,W,58.0,129.1,210210,,,A*41
$GPRMC,021013.0,A,3321.692376,N,11732.324947,W,58.2,128.9,210210,,,A*45
$GPRMC,021016.0,A,3321.661796,N,11732.279714,W,60.6,129.3,210210,,,A*43
$GPRMC,021019.0,A,3321.627980,N,11732.229927,W,63.9,129.2,210210,,,A*41
$GPRMC,021022.0,A,3321.593931,N,11732.179569,W,65.2,128.8,210210,,,A*49
$GPRMC,021025.0,A,3321.559435,N,11732.130030,W,65.3,129.0,210210,,,A*4D
$GPRMC,021028.0,A,3321.524132,N,11732.080123,W,65.2,129.5,210210,,,A*45
$GPRMC,021031.0,A,3321.491356,N,11732.029641,W,64.2,128.8,210210,,,A*4F
$GPRMC,021034.0,A,3321.456587,N,11731.979633,W,64.5,128.8,210210,,,A*46
$GPRMC,021037.0,A,3321.423083,N,11731.930789,W,63.7,129.0,210210,,,A*47
$GPRMC,021040.0,A,3321.389275,N,11731.881781,W,62.5,129.2,210210,,,A*49
$GPRMC,021043.0,A,3321.356388,N,11731.834459,W,59.9,129.0,210210,,,A*45
$GPRMC,021046.0,A,3321.324687,N,11731.790121,W,58.4,129.3,210210,,,A*4B
$GPRMC,021049.0,A,3321.294734,N,11731.744878,W,57.6,129.1,210210,,,A*44
$GPRMC,021052.0,A,3321.264288,N,11731.700496,W,57.8,129.7,210210,,,A*47
$GPRMC,021055.0,A,3321.233228,N,11731.655771,W,58.3,129.4,210210,,,A*44
$GPRMC,021058.0,A,3321.203854,N,11731.610493,W,58.6,129.7,210210,,,A*43
$GPRMC,021101.0,A,3321.172131,N,11731.565169,W,58.7,130.0,210210,,,A*4E
$GPRMC,021104.0,A,3321.140235,N,11731.518911,W,59.9,130.0,210210,,,A*4F
$GPRMC,021107.0,A,3321.106869,N,11731.470242,W,62.6,128.6,210210,,,A*47
$GPRMC,021110.0,A,3321.073455,N,11731.419614,W,64.0,129.6,210210,,,A*48
$GPRMC,021113.0,A,3321.040103,N,11731.371083,W,62.9,129.1,210210,,,A*44
$GPRMC,021116.0,A,3321.006640,N,11731.323152,W,61.5,129.6,210210,,,A*41
$GPRMC,021119.0,A,3320.975332,N,11731.274865,W,61.4,128.6,210210,,,A*4C
$GPRMC,021122.0,A,3320.943065,N,11731.226665,W,62.0,128.8,210210,,,A*40
$GPRMC,021125.0,A,3320.908851,N,11731.178387,W,63.4,129.2,210210,,,A*48
$GPRMC,021128.0,A,3320.874388,N,11731.127734,W,65.4,128.7,210210,,,A*44
$GPRMC,021131.0,A,3320.839011,N,11731.077078,W,65.0,130.4,210210,,,A*43
$GPRMC,021134.0,A,3320.803847,N,11731.028221,W,65.5,131.2,210210,,,A*42
$GPRMC,021137.0,A,3320.767779,N,11730.979150,W,66.2,131.1,210210,,,A*40
$GPRMC,021140.0,A,3320.730489,N,11730.929395,W,67.2,130.9,210210,,,A*48
$GPRMC,021143.0,A,3320.692489,N,11730.878151,W,68.1,130.8,210210,,,A*40
$GPRMC,021146.0,A,3320.656337,N,11730.828002,W,66.9,130.8,210210,,,A*4B
$GPRMC,021149.0,A,3320.619417,N,11730.777398,W,66.6,131.1,210210,,,A*48
$GPRMC,021152.0,A,3320.583112,N,11730.728086,W,66.3,130.8,210210,,,A*49
$GPRMC,021155.0,A,3320.547289,N,11730.678907,W,65.6,131.0,210210,,,A*4C
$GPRMC,021158.0,A,3320.511503,N,11730.628732,W,66.4,130.6,210210,,,A*4C
$GPRMC,021201.0,A,3320.474357,N,11730.579322,W,68.0,131.0,210210,,,A*49
$GPRMC,021204.0,A,3320.437279,N,11730.528245,W,69.1,130.7,210210,,,A*44
$GPRMC,021207.0,A,3320.399780,N,11730.476339,W,69.6,130.8,210210,,,A*4F
$GPRMC,021210.0,A,3320.361155,N,11730.424680,W,70.2,131.1,210210,,,A*44
$GPRMC,021213.0,A,3320.323107,N,11730.371867,W,70.5,130.8,210210,,,A*49
$GPRMC,021216.0,A,3320.283201,N,11730.318397,W,70.6,131.0,210210,,,A*43
$GPRMC,021219.0,A,3320.245661,N,11730.266779,W,69.2,130.8,210210,,,A*4D
$GPRMC,021222.0,A,3320.208644,N,11730.214693,W,67.9,130.9,210210,,,A*4F
$GPRMC,021225.0,A,3320.171731,N,11730.163578,W,67.8,130.9,210210,,,A*42
$GPRMC,021228.0,A,3320.134277,N,11730.111701,W,68.7,130.8,210210,,,A*41
$GPRMC,021231.0,A,3320.097136,N,11730.060576,W,68.1,131.0,210210,,,A*4D
$GPRMC,021234.0,A,3320.060867,N,11730.010129,W,66.8,130.8,210210,,,A*4A
$GPRMC,021237.0,A,3320.025362,N,11729.961006,W,64.8,130.9,210210,,,A*4E
$GPRMC,021240.0,A,3319.989905,N,11729.912397,W,64.1,131.0,210210,,,A*4E
$GPRMC,021243.0,A,3319.954633,N,11729.864293,W,63.8,131.0,210210,,,A*4C
$GPRMC,021246.0,A,3319.919719,N,11729.814990,W,64.6,130.4,210210,,,A*4A
$GPRMC,021249.0,A,3319.884949,N,11729.767778,W,64.2,130.7,210210,,,A*4F
$GPRMC,021252.0,A,3319.850089,N,11729.719356,W,64.2,130.7,210210,,,A*48
$GPRMC,021255.0,A,3319.813202,N,11729.669972,W,66.4,130.5,210210,,,A*45
$GPRMC,021258.0,A,3319.775920,N,11729.619522,W,67.7,130.8,210210,,,A*4D
$GPRMC,021301.0,A,3319.738899,N,11729.569098,W,68.1,131.0,210210,,,A*4A
$GPRMC,021304.0,A,3319.702025,N,11729.518751,W,68.2,130.7,210210,,,A*48
$GPRMC,021307.0,A,3319.664235,N,11729.466869,W,67.9,130.9,210210,,,A*4F
$GPRMC,021310.0,A,3319.626672,N,11729.415722,W,67.8,130.7,210210,,,A*43
$GPRMC,021313.0,A,3319.588400,N,11729.363703,W,68.0,130.9,210210,,,A*4C
$GPRMC,021316.0,A,3319.551851,N,11729.313358,W,67.8,131.3,210210,,,A*44
$GPRMC,021319.0,A,3319.514738,N,11729.262315,W,68.9,130.4,210210,,,A*4C
$GPRMC,021322.0,A,3319.478357,N,11729.211354,W,68.5,130.2,210210,,,A*49
$GPRMC,021325.0,A,3319.442154,N,11729.160425,W,67.7,130.4,210210,,,A*49
$GPRMC,021328.0,A,3319.404603,N,11729.110414,W,67.2,131.7,210210,,,A*41
$GPRMC,021331.0,A,3319.366115,N,11729.063472,W,66.0,135.4,210210,,,A*4B
$GPRMC,021334.0,A,3319.325764,N,11729.019357,W,65.6,137.0,210210,,,A*47
$GPRMC,021337.0,A,3319.276243,N,11728.983268,W,67.2,143.8,210210,,,A*48
$GPRMC,021340.0,A,3319.223857,N,11728.964978,W,65.9,158.1,210210,,,A*4E
$GPRMC,021343.0,A,3319.173459,N,11728.948857,W,63.2,163.5,210210,,,A*4A
$GPRMC,021346.0,A,3319.122598,N,11728.941336,W,61.4,171.8,210210,,,A*48
$GPRMC,021349.0,A,3319.071161,N,11728.939264,W,61.0,175.3,210210,,,A*40
$GPRMC,021352.0,A,3319.020091,N,11728.936378,W,60.7,175.9,210210,,,A*4F
$GPRMC,021355.0,A,3318.968127,N,11728.934601,W,61.1,176.5,210210,,,A*41
$GPRMC,021358.0,A,3318.918113,N,11728.929396,W,60.1,174.8,210210,,,A*45
$GPRMC,021401.0,A,3318.867489,N,11728.920603,W,61.2,168.6,210210,,,A*40
$GPRMC,021404.0,A,3318.819706,N,11728.902251,W,61.3,161.2,210210,,,A*47
$GPRMC,021407.0,A,3318.771674,N,11728.879186,W,62.1,158.6,210210,,,A*4A
$GPRMC,021411.0,A,3318.713982,N,11728.833595,W,63.0,144.7,210210,,,A*4B
$GPRMC,021414.0,A,3318.672403,N,11728.791489,W,63.8,139.5,210210,,,A*47
$GPRMC,021417.0,A,3318.633856,N,11728.746341,W,63.2,135.5,210210,,,A*42
$GPRMC,021420.0,A,3318.596550,N,11728.699350,W,64.2,134.8,210210,,,A*49
$GPRMC,021423.0,A,3318.558631,N,11728.655212,W,66.0,134.3,210210,,,A*40
$GPRMC,021426.0,A,3318.519780,N,11728.607271,W,65.4,134.1,210210,,,A*4C
$GPRMC,021429.0,A,3318.482196,N,11728.561170,W,64.6,134.5,210210,,,A*47
$GPRMC,021432.0,A,3318.444322,N,11728.513722,W,65.1,134.4,210210,,,A*49
$GPRMC,021435.0,A,3318.406918,N,11728.467344,W,64.4,134.2,210210,,,A*4F
$GPRMC,021438.0,A,3318.369275,N,11728.421337,W,63.7,135.0,210210,,,A*4D
$GPRMC,021441.0,A,3318.332181,N,11728.376184,W,63.5,134.5,210210,,,A*4C
$GPRMC,021444.0,A,3318.294261,N,11728.331615,W,64.6,134.6,210210,,,A*42
$GPRMC,021447.0,A,3318.255837,N,11728.286592,W,65.9,135.4,210210,,,A*49
$GPRMC,021450.0,A,3318.215432,N,11728.240066,W,67.2,134.6,210210,,,A*4C
$GPRMC,021453.0,A,3318.176407,N,11728.192901,W,66.3,134.6,210210,,,A*4B
$GPRMC,021456.0,A,3318.137626,N,11728.144687,W,66.6,134.1,210210,,,A*42
$GPRMC,021459.0,A,3318.098364,N,11728.096190,W,67.2,134.1,210210,,,A*40
$GPRMC,021502.0,A,3318.058998,N,11728.048284,W,67.3,134.9,210210,,,A*46
$GPRMC,021505.0,A,3318.019038,N,11728.000392,W,67.6,134.9,210210,,,A*48
$GPRMC,021508.0,A,3317.978429,N,11727.951367,W,68.2,135.1,210210,,,A*4A
$GPRMC,021511.0,A,3317.939721,N,11727.905602,W,66.7,135.1,210210,,,A*40
$GPRMC,021514.0,A,3317.900687,N,11727.859005,W,66.3,134.8,210210,,,A*47
$GPRMC,021517.0,A,3317.862615,N,11727.811203,W,67.2,134.9,210210,,,A*43
$GPRMC,021520.0,A,3317.823089,N,11727.762356,W,68.5,134.5,210210,,,A*4F
$GPRMC,021523.0,A,3317.781475,N,11727.713602,W,70.2,134.8,210210,,,A*4D
$GPRMC,021526.0,A,3317.739653,N,11727.664039,W,71.4,135.2,210210,,,A*4E
$GPRMC,021529.0,A,3317.697185,N,11727.613428,W,70.9,135.0,210210,,,A*42
$GPRMC,021532.0,A,3317.654644,N,11727.564803,W,69.0,136.3,210210,,,A*4A
$GPRMC,021535.0,A,3317.611926,N,11727.523683,W,66.1,143.6,210210,,,A*4B
$GPRMC,021538.0,A,3317.566540,N,11727.487699,W,63.5,146.9,210210,,,A*46
$GPRMC,021541.0,A,3317.523895,N,11727.454381,W,60.0,147.3,210210,,,A*43
$GPRMC,021544.0,A,3317.480737,N,11727.421856,W,60.7,149.0,210210,,,A*40
$GPRMC,021547.0,A,3317.436331,N,11727.389413,W,64.1,148.0,210210,,,A*47
$GPRMC,021550.0,A,3317.389112,N,11727.353728,W,67.9,147.1,210210,,,A*48
$GPRMC,021553.0,A,3317.338739,N,11727.314819,W,71.2,146.7,210210,,,A*4B
$GPRMC,021556.0,A,3317.287621,N,11727.276454,W,72.1,147.2,210210,,,A*47
$GPRMC,021559.0,A,3317.235130,N,11727.237240,W,72.9,147.5,210210,,,A*4F
$GPRMC,021602.0,A,3317.185735,N,11727.197951,W,72.0,147.3,210210,,,A*44
$GPRMC,021605.0,A,3317.135931,N,11727.159638,W,72.3,147.4,210210,,,A*44
$GPRMC,021608.0,A,3317.085719,N,11727.120674,W,72.3,147.2,210210,,,A*47
$GPRMC,021611.0,A,3317.034741,N,11727.081071,W,71.5,147.0,210210,,,A*46
$GPRMC,021614.0,A,3316.983664,N,11727.042134,W,71.2,147.3,210210,,,A*4A
$GPRMC,021617.0,A,3316.934999,N,11727.006395,W,70.0,147.7,210210,,,A*46
$GPRMC,021620.0,A,3316.887312,N,11726.970398,W,69.0,147.7,210210,,,A*4E
$GPRMC,021623.0,A,3316.837768,N,11726.932567,W,69.6,147.3,210210,,,A*4D
$GPRMC,021626.0,A,3316.789543,N,11726.895166,W,69.0,147.2,210210,,,A*47
$GPRMC,021629.0,A,3316.740496,N,11726.858543,W,70.1,147.2,210210,,,A*4F
$GPRMC,021632.0,A,3316.690371,N,11726.822622,W,71.1,147.8,210210,,,A*45
$GPRMC,021635.0,A,3316.640655,N,11726.784666,W,70.8,147.5,210210,,,A*4A
$GPRMC,021638.0,A,3316.591200,N,11726.746744,W,70.5,147.2,210210,,,A*49
$GPRMC,021641.0,A,3316.541985,N,11726.708891,W,71.0,147.5,210210,,,A*42
$GPRMC,021644.0,A,3316.492370,N,11726.672323,W,70.9,147.9,210210,,,A*42
$GPRMC,021647.0,A,3316.443054,N,11726.634756,W,69.4,147.4,210210,,,A*44
$GPRMC,021650.0,A,3316.395238,N,11726.597155,W,68.5,146.2,210210,,,A*4E
$GPRMC,021653.0,A,3316.348932,N,11726.554728,W,70.2,140.5,210210,,,A*40
$GPRMC,021656.0,A,3316.305255,N,11726.504470,W,72.4,135.2,210210,,,A*4C
$GPRMC,021659.0,A,3316.266196,N,11726.450728,W,72.2,131.9,210210,,,A*4C
$GPRMC,021702.0,A,3316.228222,N,11726.394889,W,72.8,130.2,210210,,,A*4E
$GPRMC,021705.0,A,3316.187897,N,11726.340621,W,72.7,130.7,210210,,,A*44
$GPRMC,021708.0,A,3316.148719,N,11726.287642,W,71.9,131.2,210210,,,A*45
$GPRMC,021711.0,A,3316.109808,N,11726.234445,W,71.0,130.6,210210,,,A*46
$GPRMC,021714.0,A,3316.072758,N,11726.181851,W,69.5,130.3,210210,,,A*49
$GPRMC,021717.0,A,3316.034779,N,11726.131025,W,67.4,131.3,210210,,,A*45
$GPRMC,021720.0,A,3315.997865,N,11726.080673,W,67.3,130.7,210210,,,A*4C
$GPRMC,021723.0,A,3315.961265,N,11726.029716,W,67.7,131.2,210210,,,A*4D
$GPRMC,021726.0,A,3315.925050,N,11725.979138,W,66.2,130.1,210210,,,A*4F
$GPRMC,021729.0,A,3315.888616,N,11725.931520,W,65.2,131.6,210210,,,A*46
$GPRMC,021732.0,A,3315.848904,N,11725.888194,W,64.2,139.0,210210,,,A*4B
$GPRMC,021735.0,A,3315.804993,N,11725.850425,W,64.5,145.2,210210,,,A*4E
$GPRMC,021738.0,A,3315.758448,N,11725.814239,W,66.3,146.2,210210,,,A*42
$GPRMC,021741.0,A,3315.710953,N,11725.777391,W,67.5,146.2,210210,,,A*49
$GPRMC,021744.0,A,3315.663997,N,11725.739929,W,67.6,146.3,210210,,,A*40
$GPRMC,021747.0,A,3315.619132,N,11725.704190,W,65.3,146.2,210210,,,A*4B
$GPRMC,021750.0,A,3315.574335,N,11725.666794,W,65.8,145.9,210210,,,A*44
$GPRMC,021753.0,A,3315.528327,N,11725.630454,W,66.6,146.5,210210,,,A*43
$GPRMC,021756.0,A,3315.482391,N,11725.593723,W,66.2,145.8,210210,,,A*49
$GPRMC,021759.0,A,3315.437642,N,11725.559179,W,64.8,146.4,210210,,,A*4B
$GPRMC,021802.0,A,3315.392588,N,11725.524090,W,64.4,146.2,210210,,,A*41
$GPRMC,021805.0,A,3315.349878,N,11725.489208,W,63.5,145.8,210210,,,A*48
$GPRMC,021808.0,A,3315.306839,N,11725.455649,W,62.7,146.3,210210,,,A*40
$GPRMC,021811.0,A,3315.262329,N,11725.421130,W,63.2,146.7,210210,,,A*4B
$GPRMC,021814.0,A,3315.218037,N,11725.386597,W,63.8,146.2,210210,,,A*43
$GPRMC,021817.0,A,3315.171870,N,11725.349978,W,65.3,145.8,210210,,,A*4D
$GPRMC,021820.0,A,3315.127557,N,11725.314523,W,64.5,146.2,210210,,,A*46
$GPRMC,021823.0,A,3315.081211,N,11725.278947,W,65.7,146.2,210210,,,A*4B
$GPRMC,021826.0,A,3315.034280,N,11725.240971,W,67.2,146.4,210210,,,A*47
$GPRMC,021829.0,A,3314.988155,N,11725.204636,W,66.8,146.4,210210,,,A*4B
$GPRMC,021832.0,A,3314.940290,N,11725.167224,W,68.0,146.4,210210,,,A*48
$GPRMC,021835.0,A,3314.893572,N,11725.129795,W,67.8,146.9,210210,,,A*44
$GPRMC,021838.0,A,3314.845058,N,11725.098548,W,68.6,152.5,210210,,,A*4E
$GPRMC,021841.0,A,3314.792025,N,11725.070989,W,69.1,157.5,210210,,,A*4B
$GPRMC,021844.0,A,3314.736523,N,11725.045906,W,70.2,159.0,210210,,,A*42
$GPRMC,021847.0,A,3314.679556,N,11725.020234,W,71.9,158.9,210210,,,A*42
$GPRMC,021850.0,A,3314.623093,N,11724.994064,W,72.1,158.7,210210,,,A*42
$GPRMC,021853.0,A,3314.570126,N,11724.965867,W,71.8,153.9,210210,,,A*41
$GPRMC,021856.0,A,3314.518453,N,11724.928388,W,71.7,146.7,210210,,,A*4B
$GPRMC,021859.0,A,3314.469732,N,11724.883848,W,73.4,140.7,210210,,,A*47
$GPRMC,021902.0,A,3314.425007,N,11724.831843,W,75.3,134.6,210210,,,A*40
$GPRMC,021905.0,A,3314.391677,N,11724.776642,W,71.4,126.8,210210,,,A*43
$GPRMC,021908.0,A,3314.361200,N,11724.722289,W,67.1,124.4,210210,,,A*4B
$GPRMC,021911.0,A,3314.332431,N,11724.669342,W,64.4,124.7,210210,,,A*4C
$GPRMC,021914.0,A,3314.302739,N,11724.618612,W,62.4,125.2,210210,,,A*45
$GPRMC,021917.0,A,3314.273121,N,11724.570900,W,60.3,127.6,210210,,,A*4C
$GPRMC,021920.0,A,3314.236505,N,11724.523643,W,61.8,133.1,210210,,,A*4D
$GPRMC,021923.0,A,3314.199763,N,11724.480242,W,61.7,134.8,210210,,,A*46
$GPRMC,021929.0,A,3314.121929,N,11724.395177,W,61.7,137.1,210210,,,A*43
$GPRMC,021932.0,A,3314.083433,N,11724.352663,W,60.6,136.6,210210,,,A*49
$GPRMC,021935.0,A,3314.044429,N,11724.311130,W,62.8,137.6,210210,,,A*45
$GPRMC,021938.0,A,3314.008496,N,11724.268760,W,61.1,136.0,210210,,,A*45
$GPRMC,021941.0,A,3313.972086,N,11724.227059,W,61.9,136.3,210210,,,A*40
$GPRMC,021944.0,A,3313.933770,N,11724.184426,W,63.2,136.2,210210,,,A*40
$GPRMC,021947.0,A,3313.894061,N,11724.139667,W,63.7,136.2,210210,,,A*4C
$GPRMC,021950.0,A,3313.854109,N,11724.095272,W,64.4,136.6,210210,,,A*4E
$GPRMC,021953.0,A,3313.814751,N,11724.052047,W,65.5,135.3,210210,,,A*4B
$GPRMC,021956.0,A,3313.774345,N,11724.006664,W,66.2,136.3,210210,,,A*47
$GPRMC,021959.0,A,3313.733957,N,11723.960522,W,66.4,136.4,210210,,,A*4C
$GPRMC,022002.0,A,3313.693599,N,11723.916094,W,67.0,137.2,210210,,,A*46
$GPRMC,022005.0,A,3313.653773,N,11723.870483,W,65.8,137.2,210210,,,A*42
$GPRMC,022008.0,A,3313.614814,N,11723.827954,W,62.7,135.8,210210,,,A*47
$GPRMC,022011.0,A,3313.579068,N,11723.786893,W,59.6,135.4,210210,,,A*4F
$GPRMC,022014.0,A,3313.544400,N,11723.747654,W,57.1,136.5,210210,,,A*4D
$GPRMC,022017.0,A,3313.508995,N,11723.710356,W,56.2,135.9,210210,,,A*4F
$GPRMC,022020.0,A,3313.474247,N,11723.671519,W,56.8,136.2,210210,,,A*4C
$GPRMC,022023.0,A,3313.439286,N,11723.632974,W,57.4,135.9,210210,,,A*4E
$GPRMC,022026.0,A,3313.402367,N,11723.594349,W,58.6,139.3,210210,,,A*4D
$GPRMC,022029.0,A,3313.362743,N,11723.562590,W,57.5,146.2,210210,,,A*4F
$GPRMC,022032.0,A,3313.320337,N,11723.535721,W,57.6,153.0,210210,,,A*4B
$GPRMC,022035.0,A,3313.275462,N,11723.514077,W,57.0,160.1,210210,,,A*4A
$GPRMC,022038.0,A,3313.230231,N,11723.499421,W,56.2,165.1,210210,,,A*43
$GPRMC,022041.0,A,3313.182845,N,11723.487864,W,57.1,166.8,210210,,,A*44
$GPRMC,022044.0,A,3313.136493,N,11723.475192,W,57.0,166.5,210210,,,A*48
$GPRMC,022047.0,A,3313.090388,N,11723.462185,W,57.7,166.6,210210,,,A*4F
$GPRMC,022050.0,A,3313.043311,N,11723.449016,W,59.2,166.6,210210,,,A*4E
$GPRMC,022053.0,A,3312.995116,N,11723.435303,W,58.5,166.1,210210,,,A*46
$GPRMC,022056.0,A,3312.947009,N,11723.421449,W,58.1,166.0,210210,,,A*4A
$GPRMC,022059.0,A,3312.899693,N,11723.406488,W,58.6,165.4,210210,,,A*4A
$GPRMC,022102.0,A,3312.852832,N,11723.388357,W,59.2,160.4,210210,,,A*43
$GPRMC,022105.0,A,3312.809362,N,11723.365494,W,58.2,153.3,210210,,,A*49
$GPRMC,022108.0,A,3312.765375,N,11723.337335,W,58.7,152.2,210210,,,A*49
$GPRMC,022111.0,A,3312.721428,N,11723.308685,W,59.6,152.1,210210,,,A*4F
$GPRMC,022114.0,A,3312.677977,N,11723.281005,W,59.1,152.2,210210,,,A*45
$GPRMC,022117.0,A,3312.633893,N,11723.255048,W,59.0,152.4,210210,,,A*4A
$GPRMC,022120.0,A,3312.590834,N,11723.228224,W,58.7,152.4,210210,,,A*4D
$GPRMC,022123.0,A,3312.547891,N,11723.201247,W,58.3,152.2,210210,,,A*47
$GPRMC,022126.0,A,3312.505484,N,11723.173344,W,58.4,152.0,210210,,,A*4D
$GPRMC,022129.0,A,3312.463102,N,11723.147957,W,57.7,152.1,210210,,,A*4A
$GPRMC,022132.0,A,3312.420467,N,11723.121433,W,58.3,152.9,210210,,,A*4D
$GPRMC,022135.0,A,3312.379352,N,11723.093534,W,58.0,150.4,210210,,,A*42
$GPRMC,022138.0,A,3312.338386,N,11723.061401,W,58.2,145.7,210210,,,A*4C
$GPRMC,022141.0,A,3312.299052,N,11723.024581,W,59.3,140.7,210210,,,A*4F
$GPRMC,022144.0,A,3312.264715,N,11722.984230,W,59.1,135.5,210210,,,A*41
$GPRMC,022149.0,A,3312.215148,N,11722.907746,W,58.9,125.3,210210,,,A*45
$GPRMC,022152.0,A,3312.189597,N,11722.857519,W,59.3,120.4,210210,,,A*4A
$GPRMC,022155.0,A,3312.171707,N,11722.805637,W,57.6,114.2,210210,,,A*43
$GPRMC,022158.0,A,3312.156048,N,11722.753826,W,55.7,111.3,210210,,,A*42
$GPRMC,022201.0,A,3312.139333,N,11722.701816,W,55.6,111.1,210210,,,A*4C
$GPRMC,022205.0,A,3312.117503,N,11722.633598,W,55.4,111.1,210210,,,A*48
$GPRMC,022208.0,A,3312.098678,N,11722.584062,W,55.5,112.2,210210,,,A*42
$GPRMC,022211.0,A,3312.077635,N,11722.534698,W,55.8,114.9,210210,,,A*4A
$GPRMC,022214.0,A,3312.058309,N,11722.480792,W,58.1,114.0,210210,,,A*40
$GPRMC,022217.0,A,3312.045088,N,11722.426953,W,56.7,111.0,210210,,,A*47
$GPRMC,022220.0,A,3312.026748,N,11722.371901,W,54.2,111.9,210210,,,A*41
$GPRMC,022223.0,A,3312.009614,N,11722.322464,W,53.3,112.3,210210,,,A*40
$GPRMC,022226.0,A,3311.988496,N,11722.277286,W,51.8,119.4,210210,,,A*40
$GPRMC,022229.0,A,3311.964463,N,11722.234472,W,50.5,123.7,210210,,,A*4B
$GPRMC,022232.0,A,3311.939096,N,11722.200039,W,47.9,129.2,210210,,,A*4E
$GPRMC,022235.0,A,3311.912378,N,11722.166110,W,47.5,133.8,210210,,,A*47
$GPRMC,022238.0,A,3311.885405,N,11722.135046,W,45.8,137.7,210210,,,A*48
$GPRMC,022241.0,A,3311.852015,N,11722.109123,W,46.2,142.8,210210,,,A*40
$GPRMC,022244.0,A,3311.821211,N,11722.082050,W,45.5,144.5,210210,,,A*4F
$GPRMC,022247.0,A,3311.788884,N,11722.056054,W,45.6,144.8,210210,,,A*45
$GPRMC,022250.0,A,3311.757711,N,11722.030524,W,45.2,145.2,210210,,,A*4F
$GPRMC,022253.0,A,3311.725117,N,11722.005374,W,46.0,145.4,210210,,,A*4B
$GPRMC,022256.0,A,3311.693156,N,11721.978403,W,47.1,144.6,210210,,,A*43
$GPRMC,022259.0,A,3311.662683,N,11721.950934,W,46.6,144.9,210210,,,A*47
$GPRMC,022302.0,A,3311.629483,N,11721.924308,W,47.6,145.1,210210,,,A*4B
$GPRMC,022305.0,A,3311.595615,N,11721.897316,W,48.4,145.3,210210,,,A*4C
$GPRMC,022308.0,A,3311.561458,N,11721.871258,W,49.8,145.6,210210,,,A*4A
$GPRMC,022311.0,A,3311.527013,N,11721.842548,W,49.6,145.2,210210,,,A*47
$GPRMC,022314.0,A,3311.493699,N,11721.814742,W,50.4,145.3,210210,,,A*48
$GPRMC,022317.0,A,3311.458445,N,11721.786866,W,50.4,145.7,210210,,,A*46
$GPRMC,022320.0,A,3311.423677,N,11721.758085,W,51.5,145.4,210210,,,A*48
$GPRMC,022323.0,A,3311.388739,N,11721.728150,W,52.3,145.2,210210,,,A*4B
$GPRMC,022326.0,A,3311.349298,N,11721.694112,W,54.0,144.9,210210,,,A*42
$GPRMC,022329.0,A,3311.310345,N,11721.661305,W,54.6,144.8,210210,,,A*49
$GPRMC,022332.0,A,3311.272765,N,11721.630232,W,53.7,144.9,210210,,,A*46
$GPRMC,022335.0,A,3311.236296,N,11721.600523,W,53.3,145.6,210210,,,A*46
$GPRMC,022338.0,A,3311.199206,N,11721.569946,W,54.5,145.3,210210,,,A*43
$GPRMC,022341.0,A,3311.161497,N,11721.539632,W,54.4,145.2,210210,,,A*4D
$GPRMC,022344.0,A,3311.122688,N,11721.508290,W,55.3,145.2,210210,,,A*4B
$GPRMC,022347.0,A,3311.083997,N,11721.477152,W,56.0,145.6,210210,,,A*43
$GPRMC,022350.0,A,3311.047696,N,11721.445807,W,55.2,145.1,210210,,,A*4D
$GPRMC,022353.0,A,3311.008150,N,11721.414176,W,56.1,144.8,210210,,,A*4B
$GPRMC,022356.0,A,3310.970566,N,11721.381423,W,55.9,145.0,210210,,,A*44
$GPRMC,022359.0,A,3310.931948,N,11721.348385,W,56.9,145.2,210210,,,A*41
$GPRMC,022402.0,A,3310.892988,N,11721.315632,W,56.5,144.9,210210,,,A*4B
$GPRMC,022405.0,A,3310.854354,N,11721.283456,W,56.6,145.1,210210,,,A*49
$GPRMC,022408.0,A,3310.815235,N,11721.249379,W,56.7,144.5,210210,,,A*4F
$GPRMC,022411.0,A,3310.777300,N,11721.218099,W,56.3,144.5,210210,,,A*46
$GPRMC,022414.0,A,3310.738446,N,11721.186038,W,56.3,144.8,210210,,,A*4F
$GPRMC,022417.0,A,3310.699812,N,11721.153106,W,57.1,144.4,210210,,,A*40
$GPRMC,022420.0,A,3310.660329,N,11721.120441,W,57.9,145.2,210210,,,A*4C
$GPRMC,022423.0,A,3310.620174,N,11721.088570,W,57.8,145.9,210210,,,A*4B
$GPRMC,022426.0,A,3310.580211,N,11721.058729,W,57.6,147.6,210210,,,A*47
$GPRMC,022429.0,A,3310.538742,N,11721.028287,W,58.1,148.0,210210,,,A*4F
$GPRMC,022432.0,A,3310.493725,N,11720.994862,W,59.6,147.5,210210,,,A*46
$GPRMC,022435.0,A,3310.452369,N,11720.962509,W,59.1,147.3,210210,,,A*48
$GPRMC,022438.0,A,3310.411393,N,11720.930912,W,57.9,147.4,210210,,,A*47
$GPRMC,022441.0,A,3310.372232,N,11720.901426,W,55.5,147.9,210210,,,A*4A
$GPRMC,022444.0,A,3310.333132,N,11720.872068,W,55.1,147.8,210210,,,A*47
$GPRMC,022447.0,A,3310.294546,N,11720.844586,W,54.1,148.3,210210,,,A*4A
$GPRMC,022450.0,A,3310.257264,N,11720.817556,W,52.9,148.5,210210,,,A*47
$GPRMC,022453.0,A,3310.220320,N,11720.790629,W,52.1,148.6,210210,,,A*45
$GPRMC,022456.0,A,3310.186654,N,11720.763031,W,50.8,147.2,210210,,,A*4A
$GPRMC,022459.0,A,3310.152127,N,11720.738015,W,49.3,149.5,210210,,,A*4D
$GPRMC,022502.0,A,3310.114784,N,11720.713255,W,49.4,151.6,210210,,,A*4D
$GPRMC,022505.0,A,3310.076494,N,11720.690333,W,50.9,154.7,210210,,,A*47
$GPRMC,022508.0,A,3310.036708,N,11720.670361,W,51.3,156.3,210210,,,A*4C
$GPRMC,022511.0,A,3309.995192,N,11720.650452,W,52.9,157.4,210210,,,A*43
$GPRMC,022514.0,A,3309.953676,N,11720.630577,W,53.5,157.6,210210,,,A*4E
$GPRMC,022517.0,A,3309.912318,N,11720.608820,W,53.6,157.0,210210,,,A*44
$GPRMC,022520.0,A,3309.871039,N,11720.587805,W,52.4,156.9,210210,,,A*4C
$GPRMC,022523.0,A,3309.831181,N,11720.568193,W,52.2,157.7,210210,,,A*47
$GPRMC,022526.0,A,3309.790234,N,11720.548537,W,52.0,158.3,210210,,,A*4A
$GPRMC,022529.0,A,3309.750550,N,11720.528201,W,51.2,157.2,210210,,,A*47
$GPRMC,022532.0,A,3309.711606,N,11720.508162,W,52.1,157.7,210210,,,A*49
$GPRMC,022535.0,A,3309.672276,N,11720.488515,W,52.5,157.4,210210,,,A*43
$GPRMC,022538.0,A,3309.632422,N,11720.468177,W,53.0,157.1,210210,,,A*42
$GPRMC,022541.0,A,3309.591008,N,11720.446569,W,53.6,157.2,210210,,,A*48
$GPRMC,022544.0,A,3309.550093,N,11720.426248,W,52.3,158.0,210210,,,A*49
$GPRMC,022547.0,A,3309.511699,N,11720.407024,W,50.5,157.4,210210,,,A*47
$GPRMC,022550.0,A,3309.473833,N,11720.388254,W,49.3,157.1,210210,,,A*44
$GPRMC,022553.0,A,3309.435372,N,11720.369186,W,49.3,156.9,210210,,,A*41
$GPRMC,022556.0,A,3309.398231,N,11720.349136,W,50.3,156.1,210210,,,A*4B
$GPRMC,022559.0,A,3309.359463,N,11720.330045,W,50.7,156.6,210210,,,A*40
$GPRMC,022602.0,A,3309.320276,N,11720.311187,W,50.2,157.4,210210,,,A*4B
$GPRMC,022605.0,A,3309.280897,N,11720.291471,W,50.8,156.3,210210,,,A*4B
