NMEA Sentence Code,UTC Time,Status,Latitude,Latitude Direction,Longitude,Longitude Direction,Speed (knots),Track Angle (degrees true),Date,MagneticVariation,Magnetic Variation Direction,[FAA Mode]-Optional,Checksum
$GPRMC,235302.2,A,3350.232579,N,11743.098362,W,66.3,177.4,130410,,,A*41
$GPRMC,235305.2,A,3350.179032,N,11743.090521,W,66.2,173.6,130410,,,A*4E
$GPRMC,235308.2,A,3350.123669,N,11743.081521,W,67.7,172.8,130410,,,A*4F
$GPRMC,235311.2,A,3350.066715,N,11743.072088,W,67.4,173.0,130410,,,A*4D
$GPRMC,235314.2,A,3350.008103,N,11743.061846,W,69.0,171.5,130410,,,A*44
$GPRMC,235317.2,A,3349.952541,N,11743.050464,W,68.8,171.5,130410,,,A*4C
$GPRMC,235320.2,A,3349.892831,N,11743.037997,W,69.2,171.0,130410,,,A*41
$GPRMC,235323.2,A,3349.834853,N,11743.025718,W,68.2,171.5,130410,,,A*44
$GPRMC,235326.2,A,3349.779741,N,11743.016117,W,66.3,172.0,130410,,,A*4B
$GPRMC,235329.2,A,3349.725490,N,11743.007426,W,66.2,172.1,130410,,,A*45
$GPRMC,235332.2,A,3349.673296,N,11743.001537,W,64.8,174.6,130410,,,A*43
$GPRMC,235335.2,A,3349.623521,N,11742.996652,W,62.6,176.4,130410,,,A*44
$GPRMC,235338.2,A,3349.573040,N,11742.997399,W,62.1,178.6,130410,,,A*45
$GPRMC,235341.2,A,3349.518082,N,11742.998968,W,63.6,178.4,130410,,,A*47
$GPRMC,235344.2,A,3349.467118,N,11743.001646,W,61.5,181.7,130410,,,A*46
$GPRMC,235347.2,A,3349.413853,N,11743.005192,W,62.6,184.4,130410,,,A*4C
$GPRMC,235350.2,A,3349.361640,N,11743.010600,W,62.1,186.1,130410,,,A*4C
$GPRMC,235353.2,A,3349.309753,N,11743.018950,W,62.4,187.9,130410,,,A*4C
$GPRMC,235356.2,A,3349.259328,N,11743.027262,W,62.2,188.7,130410,,,A*44
$GPRMC,235359.2,A,3349.207591,N,11743.037473,W,63.7,188.2,130410,,,A*42
$GPRMC,235402.2,A,3349.155497,N,11743.049267,W,62.7,191.0,130410,,,A*49
$GPRMC,235405.2,A,3349.104779,N,11743.062831,W,61.1,192.6,130410,,,A*49
$GPRMC,235408.2,A,3349.050357,N,11743.081403,W,65.3,194.5,130410,,,A*4F
$GPRMC,235411.2,A,3348.993688,N,11743.105925,W,67.6,197.2,130410,,,A*40
$GPRMC,235414.2,A,3348.943112,N,11743.130297,W,66.7,200.5,130410,,,A*42
$GPRMC,235417.2,A,3348.893435,N,11743.156694,W,66.4,202.3,130410,,,A*4D
$GPRMC,235420.2,A,3348.843343,N,11743.183465,W,66.3,204.6,130410,,,A*42
$GPRMC,235423.2,A,3348.793506,N,11743.217490,W,67.9,208.5,130410,,,A*44
$GPRMC,235426.2,A,3348.743826,N,11743.253812,W,68.5,209.8,130410,,,A*4A
$GPRMC,235429.2,A,3348.695523,N,11743.288300,W,68.5,210.5,130410,,,A*4C
$GPRMC,235432.2,A,3348.646885,N,11743.323651,W,68.8,210.6,130410,,,A*46
$GPRMC,235435.2,A,3348.597817,N,11743.355639,W,67.2,209.1,130410,,,A*40
$GPRMC,235438.2,A,3348.548658,N,11743.386462,W,66.8,207.6,130410,,,A*4A
$GPRMC,235441.2,A,3348.500592,N,11743.414247,W,65.6,206.2,130410,,,A*48
$GPRMC,235444.2,A,3348.449728,N,11743.440352,W,66.3,202.6,130410,,,A*40
$GPRMC,235447.2,A,3348.397164,N,11743.464079,W,66.8,199.4,130410,,,A*4D
$GPRMC,235450.2,A,3348.344815,N,11743.488162,W,66.1,196.8,130410,,,A*49
$GPRMC,235453.2,A,3348.291657,N,11743.503246,W,65.8,193.6,130410,,,A*4D
$GPRMC,235456.2,A,3348.239600,N,11743.518526,W,64.5,193.7,130410,,,A*4E
$GPRMC,235459.2,A,3348.187887,N,11743.535233,W,64.3,194.0,130410,,,A*4C
$GPRMC,235502.2,A,3348.137637,N,11743.552345,W,63.7,194.3,130410,,,A*4C
$GPRMC,235505.2,A,3348.084666,N,11743.568574,W,64.0,193.7,130410,,,A*48
$GPRMC,235508.2,A,3348.032928,N,11743.582227,W,63.6,194.3,130410,,,A*4A
$GPRMC,235511.2,A,3347.984380,N,11743.603265,W,63.0,199.9,130410,,,A*4C
$GPRMC,235514.2,A,3347.937649,N,11743.631488,W,63.2,205.7,130410,,,A*4F
$GPRMC,235517.2,A,3347.889283,N,11743.668637,W,64.4,212.3,130410,,,A*43
$GPRMC,235520.2,A,3347.846484,N,11743.706278,W,64.4,219.1,130410,,,A*4A
$GPRMC,235523.2,A,3347.805516,N,11743.747613,W,65.3,220.3,130410,,,A*46
$GPRMC,235526.2,A,3347.769576,N,11743.791242,W,64.2,225.0,130410,,,A*4D
$GPRMC,235529.2,A,3347.734555,N,11743.838464,W,62.4,226.4,130410,,,A*42
$GPRMC,235532.2,A,3347.704514,N,11743.892800,W,63.5,233.3,130410,,,A*43
$GPRMC,235535.2,A,3347.673408,N,11743.945348,W,63.3,233.8,130410,,,A*48
$GPRMC,235538.2,A,3347.641324,N,11743.999368,W,64.1,234.6,130410,,,A*42
$GPRMC,235541.2,A,3347.610979,N,11744.051449,W,64.6,233.9,130410,,,A*4B
$GPRMC,235544.2,A,3347.579563,N,11744.102389,W,64.6,232.8,130410,,,A*49
$GPRMC,235547.2,A,3347.549897,N,11744.155172,W,64.7,233.5,130410,,,A*46
$GPRMC,235550.2,A,3347.516875,N,11744.209014,W,64.5,233.0,130410,,,A*4A
$GPRMC,235553.2,A,3347.484210,N,11744.260964,W,63.9,233.4,130410,,,A*44
$GPRMC,235556.2,A,3347.452225,N,11744.311331,W,64.3,233.7,130410,,,A*4F
$GPRMC,235559.2,A,3347.421348,N,11744.363914,W,64.4,233.9,130410,,,A*4F
$GPRMC,235602.2,A,3347.389956,N,11744.416453,W,64.2,233.3,130410,,,A*45
$GPRMC,235605.2,A,3347.358065,N,11744.467319,W,64.4,232.8,130410,,,A*44
$GPRMC,235608.2,A,3347.326439,N,11744.518380,W,63.7,232.8,130410,,,A*40
$GPRMC,235611.2,A,3347.295219,N,11744.568377,W,63.3,233.1,130410,,,A*46
$GPRMC,235614.2,A,3347.263216,N,11744.619460,W,63.3,233.3,130410,,,A*43
$GPRMC,235617.2,A,3347.231236,N,11744.669979,W,62.9,231.2,130410,,,A*4F
$GPRMC,235620.2,A,3347.198001,N,11744.716170,W,62.2,226.5,130410,,,A*4F
$GPRMC,235623.2,A,3347.161348,N,11744.757659,W,62.0,222.8,130410,,,A*46
$GPRMC,235626.2,A,3347.119359,N,11744.798038,W,63.3,217.9,130410,,,A*4B
$GPRMC,235629.2,A,3347.078251,N,11744.833251,W,61.7,214.0,130410,,,A*44
$GPRMC,235632.2,A,3347.036725,N,11744.868331,W,61.2,215.8,130410,,,A*47
$GPRMC,235635.2,A,3346.996372,N,11744.908003,W,61.6,220.9,130410,,,A*42
$GPRMC,235638.2,A,3346.959833,N,11744.952466,W,63.0,225.7,130410,,,A*45
$GPRMC,235641.2,A,3346.926030,N,11745.002442,W,64.3,231.5,130410,,,A*40
$GPRMC,235644.2,A,3346.898050,N,11745.059405,W,64.8,239.7,130410,,,A*4B
$GPRMC,235647.2,A,3346.872787,N,11745.115972,W,64.3,241.1,130410,,,A*47
$GPRMC,235650.2,A,3346.846945,N,11745.171801,W,63.2,241.6,130410,,,A*40
$GPRMC,235653.2,A,3346.821066,N,11745.226105,W,61.9,239.5,130410,,,A*43
$GPRMC,235656.2,A,3346.793605,N,11745.277191,W,60.4,235.1,130410,,,A*4E
$GPRMC,235659.2,A,3346.762656,N,11745.323739,W,60.3,229.1,130410,,,A*47
$GPRMC,235702.2,A,3346.729889,N,11745.364708,W,59.8,224.2,130410,,,A*45
$GPRMC,235705.2,A,3346.688216,N,11745.405411,W,61.6,217.9,130410,,,A*41
$GPRMC,235708.2,A,3346.643978,N,11745.442038,W,62.5,213.1,130410,,,A*48
$GPRMC,235711.2,A,3346.598662,N,11745.475148,W,62.4,211.7,130410,,,A*46
$GPRMC,235714.2,A,3346.550061,N,11745.494444,W,61.1,201.9,130410,,,A*4D
$GPRMC,235717.2,A,3346.499080,N,11745.510570,W,62.4,193.6,130410,,,A*4F
$GPRMC,235720.2,A,3346.446376,N,11745.521294,W,64.1,189.1,130410,,,A*43
$GPRMC,235723.2,A,3346.393444,N,11745.524866,W,63.6,182.4,130410,,,A*45
$GPRMC,235726.2,A,3346.340707,N,11745.523463,W,64.2,180.6,130410,,,A*47
$GPRMC,235729.2,A,3346.287424,N,11745.523091,W,64.0,180.6,130410,,,A*4B
$GPRMC,235732.2,A,3346.234086,N,11745.524967,W,64.9,181.8,130410,,,A*44
$GPRMC,235735.2,A,3346.180790,N,11745.527166,W,64.8,181.7,130410,,,A*4B
$GPRMC,235738.2,A,3346.127953,N,11745.528861,W,63.8,181.8,130410,,,A*43
$GPRMC,235741.2,A,3346.074966,N,11745.531310,W,63.0,182.1,130410,,,A*4B
$GPRMC,235744.2,A,3346.023557,N,11745.534670,W,61.0,183.2,130410,,,A*44
$GPRMC,235747.2,A,3345.972129,N,11745.538163,W,60.2,183.6,130410,,,A*4A
$GPRMC,235750.2,A,3345.922225,N,11745.542976,W,59.4,185.1,130410,,,A*4A
$GPRMC,235753.2,A,3345.872818,N,11745.550784,W,59.3,187.2,130410,,,A*4F
$GPRMC,235756.2,A,3345.823285,N,11745.560191,W,59.9,187.8,130410,,,A*41
$GPRMC,235759.2,A,3345.774986,N,11745.576070,W,59.8,194.2,130410,,,A*4B
$GPRMC,235802.2,A,3345.728366,N,11745.590431,W,59.7,198.9,130410,,,A*46
$GPRMC,235805.2,A,3345.684205,N,11745.613131,W,57.9,203.5,130410,,,A*42
$GPRMC,235808.2,A,3345.639762,N,11745.635640,W,57.5,204.2,130410,,,A*44
$GPRMC,235811.2,A,3345.595095,N,11745.663332,W,59.2,206.9,130410,,,A*45
$GPRMC,235814.2,A,3345.552034,N,11745.689989,W,58.6,207.0,130410,,,A*43
$GPRMC,235817.2,A,3345.509193,N,11745.717453,W,59.2,207.1,130410,,,A*4A
$GPRMC,235820.2,A,3345.464619,N,11745.745478,W,60.1,207.1,130410,,,A*46
$GPRMC,235823.2,A,3345.418497,N,11745.768924,W,60.8,204.2,130410,,,A*48
$GPRMC,235826.2,A,3345.372631,N,11745.792554,W,60.4,201.8,130410,,,A*45
$GPRMC,235829.2,A,3345.324374,N,11745.812953,W,60.7,197.7,130410,,,A*41
$GPRMC,235832.2,A,3345.276333,N,11745.830427,W,60.8,194.7,130410,,,A*4C
$GPRMC,235835.2,A,3345.228380,N,11745.840812,W,60.8,188.9,130410,,,A*46
$GPRMC,235838.2,A,3345.177988,N,11745.851339,W,61.4,189.2,130410,,,A*45
$GPRMC,235841.2,A,3345.127861,N,11745.861590,W,61.8,188.6,130410,,,A*47
$GPRMC,235844.2,A,3345.076175,N,11745.872073,W,62.1,188.5,130410,,,A*48
$GPRMC,235847.2,A,3345.027221,N,11745.881349,W,60.7,188.7,130410,,,A*4D
$GPRMC,235850.2,A,3344.975738,N,11745.893500,W,60.8,189.1,130410,,,A*49
$GPRMC,235853.2,A,3344.926902,N,11745.902937,W,59.8,188.9,130410,,,A*49
$GPRMC,235856.2,A,3344.878906,N,11745.911557,W,59.6,188.4,130410,,,A*49
$GPRMC,235859.2,A,3344.828347,N,11745.920650,W,59.2,188.5,130410,,,A*4F
$GPRMC,235902.2,A,3344.779566,N,11745.930109,W,59.0,188.0,130410,,,A*43
$GPRMC,235905.2,A,3344.733077,N,11745.937519,W,58.5,188.6,130410,,,A*4F
$GPRMC,235908.2,A,3344.685068,N,11745.946515,W,58.4,188.7,130410,,,A*4A
$GPRMC,235911.2,A,3344.636089,N,11745.958478,W,58.5,190.6,130410,,,A*49
$GPRMC,235914.2,A,3344.591134,N,11745.970296,W,57.0,195.4,130410,,,A*44
$GPRMC,235917.2,A,3344.545240,N,11745.986359,W,57.4,197.3,130410,,,A*44
$GPRMC,235920.2,A,3344.499995,N,11746.004447,W,58.2,201.1,130410,,,A*4C
$GPRMC,235923.2,A,3344.454948,N,11746.026499,W,58.2,202.8,130410,,,A*47
$GPRMC,235926.2,A,3344.413371,N,11746.052426,W,57.0,207.9,130410,,,A*4F
$GPRMC,235929.2,A,3344.373673,N,11746.081831,W,56.3,211.2,130410,,,A*4C
$GPRMC,235932.2,A,3344.335415,N,11746.112885,W,54.5,214.5,130410,,,A*44
$GPRMC,235935.2,A,3344.298591,N,11746.144268,W,53.7,215.0,130410,,,A*43
$GPRMC,235938.2,A,3344.261729,N,11746.174443,W,53.8,214.6,130410,,,A*4D
$GPRMC,235941.2,A,3344.225942,N,11746.204851,W,52.7,214.7,130410,,,A*44
$GPRMC,235944.2,A,3344.190336,N,11746.234621,W,52.6,214.9,130410,,,A*40
$GPRMC,235947.2,A,3344.154006,N,11746.265202,W,53.0,214.9,130410,,,A*4D
$GPRMC,235950.2,A,3344.117913,N,11746.295217,W,53.4,215.3,130410,,,A*45
$GPRMC,235953.2,A,3344.080365,N,11746.326438,W,53.9,215.0,130410,,,A*4E
$GPRMC,235956.2,A,3344.042434,N,11746.358212,W,55.6,215.5,130410,,,A*4D
$GPRMC,235959.2,A,3344.004528,N,11746.390512,W,56.1,215.1,130410,,,A*4F
$GPRMC,000002.2,A,3343.967528,N,11746.422894,W,56.9,215.0,140410,,,A*44
$GPRMC,000005.2,A,3343.928894,N,11746.454965,W,56.7,214.5,140410,,,A*46
$GPRMC,000008.2,A,3343.889676,N,11746.487828,W,57.3,214.7,140410,,,A*42
$GPRMC,000011.2,A,3343.848925,N,11746.520973,W,58.4,214.2,140410,,,A*40
$GPRMC,000014.2,A,3343.809071,N,11746.553708,W,57.9,214.6,140410,,,A*48
$GPRMC,000017.2,A,3343.769907,N,11746.587723,W,56.8,215.9,140410,,,A*44
$GPRMC,000020.2,A,3343.732271,N,11746.618211,W,56.0,214.4,140410,,,A*41
$GPRMC,000023.2,A,3343.692906,N,11746.649872,W,56.1,214.8,140410,,,A*44
$GPRMC,000026.2,A,3343.654997,N,11746.683421,W,55.9,215.6,140410,,,A*4B
$GPRMC,000029.2,A,3343.617943,N,11746.716741,W,56.1,217.1,140410,,,A*4C
$GPRMC,000032.2,A,3343.579882,N,11746.753277,W,58.0,219.5,140410,,,A*45
$GPRMC,000035.2,A,3343.545048,N,11746.793742,W,58.5,224.0,140410,,,A*42
$GPRMC,000038.2,A,3343.512794,N,11746.836098,W,58.9,228.7,140410,,,A*4C
$GPRMC,000041.2,A,3343.482708,N,11746.881669,W,58.2,231.8,140410,,,A*47
$GPRMC,000044.2,A,3343.456261,N,11746.928052,W,56.9,235.4,140410,,,A*40
$GPRMC,000047.2,A,3343.431326,N,11746.977377,W,55.2,238.3,140410,,,A*4C
$GPRMC,000050.2,A,3343.411341,N,11747.026833,W,54.9,240.8,140410,,,A*40
$GPRMC,000053.2,A,3343.389303,N,11747.073716,W,54.3,240.4,140410,,,A*4D
$GPRMC,000056.2,A,3343.366901,N,11747.119440,W,54.5,239.3,140410,,,A*43
$GPRMC,000059.2,A,3343.343074,N,11747.166956,W,55.3,239.4,140410,,,A*42
$GPRMC,000102.2,A,3343.319503,N,11747.214352,W,55.7,239.0,140410,,,A*4F
$GPRMC,000105.2,A,3343.294868,N,11747.262442,W,56.2,239.0,140410,,,A*4D
$GPRMC,000108.2,A,3343.270951,N,11747.310948,W,56.2,238.8,140410,,,A*4B
$GPRMC,000111.2,A,3343.245823,N,11747.358729,W,55.8,238.2,140410,,,A*47
$GPRMC,000114.2,A,3343.220439,N,11747.405694,W,56.5,237.6,140410,,,A*4B
$GPRMC,000117.2,A,3343.194031,N,11747.452073,W,55.8,235.9,140410,,,A*46
$GPRMC,000120.2,A,3343.167529,N,11747.499829,W,56.8,235.9,140410,,,A*41
$GPRMC,000123.2,A,3343.139226,N,11747.546110,W,57.5,234.7,140410,,,A*42
$GPRMC,000126.2,A,3343.112356,N,11747.592348,W,56.5,233.1,140410,,,A*4E
$GPRMC,000132.2,A,3343.061304,N,11747.680524,W,55.3,234.7,140410,,,A*41
$GPRMC,000135.2,A,3343.035441,N,11747.726076,W,54.5,234.1,140410,,,A*4F
$GPRMC,000138.2,A,3343.008488,N,11747.770384,W,54.5,233.6,140410,,,A*44
$GPRMC,000141.2,A,3342.979813,N,11747.813601,W,54.9,230.7,140410,,,A*46
$GPRMC,000144.2,A,3342.949964,N,11747.854825,W,54.9,227.3,140410,,,A*48
$GPRMC,000147.2,A,3342.916210,N,11747.894465,W,56.0,224.3,140410,,,A*45
$GPRMC,000150.2,A,3342.882205,N,11747.932612,W,55.8,221.8,140410,,,A*41
$GPRMC,000153.2,A,3342.845854,N,11747.967292,W,56.1,216.0,140410,,,A*4D
$GPRMC,000156.2,A,3342.807997,N,11747.998137,W,55.3,213.6,140410,,,A*4E
$GPRMC,000159.2,A,3342.768194,N,11748.026806,W,55.8,209.7,140410,,,A*45
$GPRMC,000202.2,A,3342.726707,N,11748.051920,W,56.2,206.1,140410,,,A*4B
$GPRMC,000205.2,A,3342.683003,N,11748.074165,W,57.1,202.6,140410,,,A*4E
$GPRMC,000208.2,A,3342.637352,N,11748.094276,W,57.5,202.6,140410,,,A*40
$GPRMC,000211.2,A,3342.591929,N,11748.116443,W,58.0,202.7,140410,,,A*41
$GPRMC,000214.2,A,3342.548115,N,11748.139354,W,58.4,204.4,140410,,,A*4A
$GPRMC,000217.2,A,3342.503384,N,11748.163211,W,58.2,205.0,140410,,,A*40
$GPRMC,000220.2,A,3342.458015,N,11748.188778,W,58.7,204.4,140410,,,A*4F
$GPRMC,000223.2,A,3342.412918,N,11748.213069,W,57.9,205.3,140410,,,A*47
$GPRMC,000226.2,A,3342.372981,N,11748.240716,W,56.3,213.4,140410,,,A*41
$GPRMC,000229.2,A,3342.335892,N,11748.274472,W,55.9,218.6,140410,,,A*48
$GPRMC,000232.2,A,3342.301949,N,11748.312266,W,55.0,224.8,140410,,,A*48
$GPRMC,000235.2,A,3342.273136,N,11748.353153,W,54.7,230.3,140410,,,A*43
$GPRMC,000238.2,A,3342.243640,N,11748.397086,W,55.3,231.7,140410,,,A*4A
$GPRMC,000241.2,A,3342.214699,N,11748.440095,W,55.4,229.1,140410,,,A*45
$GPRMC,000244.2,A,3342.182336,N,11748.480594,W,56.3,224.5,140410,,,A*49
$GPRMC,000247.2,A,3342.145010,N,11748.516655,W,56.2,217.8,140410,,,A*4A
$GPRMC,000250.2,A,3342.107885,N,11748.551402,W,55.8,219.4,140410,,,A*46
$GPRMC,000253.2,A,3342.075069,N,11748.588556,W,53.8,224.5,140410,,,A*46
$GPRMC,000256.2,A,3342.043917,N,11748.626905,W,53.8,226.0,140410,,,A*4C
$GPRMC,000259.2,A,3342.012825,N,11748.664521,W,52.9,225.7,140410,,,A*4F
$GPRMC,000302.2,A,3341.983211,N,11748.701535,W,52.4,225.5,140410,,,A*47
$GPRMC,000305.2,A,3341.953161,N,11748.741730,W,54.7,229.1,140410,,,A*47
$GPRMC,000308.2,A,3341.926129,N,11748.791146,W,56.2,239.9,140410,,,A*40
$GPRMC,000311.2,A,3341.909635,N,11748.842659,W,55.8,249.5,140410,,,A*45
$GPRMC,000314.2,A,3341.899964,N,11748.894971,W,54.9,259.0,140410,,,A*49
$GPRMC,000317.2,A,3341.898470,N,11748.947731,W,52.3,268.9,140410,,,A*41
$GPRMC,000320.2,A,3341.900612,N,11748.998681,W,51.3,272.1,140410,,,A*4B
