NMEA Sentence Code,UTC Time,Status,Latitude,Latitude Direction,Longitude,Longitude Direction,Speed (knots),Track Angle (degrees true),Date,MagneticVariation,Magnetic Variation Direction,[FAA Mode]-Optional,Checksum
$GPRMC,230419.6,A,3248.079434,N,11713.771434,W,33.3,61.6,240310,,,A*76
$GPRMC,230422.6,A,3248.092786,N,11713.740865,W,34.2,62.1,240310,,,A*79
$GPRMC,230425.6,A,3248.104162,N,11713.710130,W,34.5,63.9,240310,,,A*7E
$GPRMC,230428.6,A,3248.116099,N,11713.678452,W,34.1,63.3,240310,,,A*75
$GPRMC,230431.6,A,3248.130711,N,11713.648109,W,35.2,59.1,240310,,,A*7F
$GPRMC,230434.6,A,3248.148262,N,11713.622789,W,33.6,52.9,240310,,,A*77
$GPRMC,230437.6,A,3248.166233,N,11713.598515,W,32.5,50.5,240310,,,A*75
$GPRMC,230440.6,A,3248.184924,N,11713.574329,W,33.2,48.6,240310,,,A*73
$GPRMC,230443.6,A,3248.202215,N,11713.550321,W,32.7,49.3,240310,,,A*7A
$GPRMC,230446.6,A,3248.220888,N,11713.524734,W,33.2,48.6,240310,,,A*72
$GPRMC,230449.6,A,3248.239601,N,11713.502383,W,32.0,46.3,240310,,,A*7E
$GPRMC,230452.6,A,3248.254804,N,11713.482049,W,30.1,46.9,240310,,,A*71
$GPRMC,230455.6,A,3248.270409,N,11713.460462,W,26.9,50.0,240310,,,A*71
$GPRMC,230458.6,A,3248.281405,N,11713.446308,W,16.9,47.1,240310,,,A*75
$GPRMC,230501.6,A,3248.286675,N,11713.439827,W,7.5,46.1,240310,,,A*49
$GPRMC,230555.6,A,3248.292678,N,11713.422336,W,8.8,67.5,240310,,,A*44
$GPRMC,230558.6,A,3248.297013,N,11713.404855,W,14.3,78.2,240310,,,A*72
$GPRMC,230601.6,A,3248.307352,N,11713.371323,W,28.8,74.2,240310,,,A*74
$GPRMC,230604.6,A,3248.315914,N,11713.338124,W,30.3,75.4,240310,,,A*77
$GPRMC,230607.6,A,3248.322967,N,11713.306842,W,29.1,74.3,240310,,,A*7C
$GPRMC,230610.6,A,3248.329099,N,11713.282545,W,21.5,72.3,240310,,,A*74
$GPRMC,230613.6,A,3248.332664,N,11713.267131,W,16.6,73.0,240310,,,A*70
$GPRMC,230616.6,A,3248.337476,N,11713.252373,W,14.8,71.0,240310,,,A*7D
$GPRMC,230619.6,A,3248.341306,N,11713.236657,W,13.4,72.9,240310,,,A*73
$GPRMC,230622.6,A,3248.342690,N,11713.228093,W,6.5,77.8,240310,,,A*42
$GPRMC,230643.6,A,3248.346899,N,11713.213229,W,8.7,72.7,240310,,,A*4B
$GPRMC,230646.6,A,3248.348886,N,11713.200115,W,13.9,76.0,240310,,,A*77
$GPRMC,230649.6,A,3248.351773,N,11713.185889,W,14.0,75.1,240310,,,A*7B
$GPRMC,230652.6,A,3248.354829,N,11713.173097,W,13.2,73.7,240310,,,A*7F
$GPRMC,230655.6,A,3248.357380,N,11713.162086,W,12.3,73.1,240310,,,A*75
$GPRMC,230658.6,A,3248.359416,N,11713.152555,W,7.6,74.2,240310,,,A*43
$GPRMC,230916.6,A,3248.364143,N,11713.141526,W,5.7,47.4,240310,,,A*4E
$GPRMC,230919.6,A,3248.372802,N,11713.136563,W,7.8,31.2,240310,,,A*41
$GPRMC,230922.6,A,3248.380707,N,11713.137446,W,8.2,14.1,240310,,,A*48
$GPRMC,230925.6,A,3248.401209,N,11713.147416,W,16.3,347.2,240310,,,A*40
$GPRMC,230928.6,A,3248.431288,N,11713.155948,W,27.5,350.1,240310,,,A*43
$GPRMC,230931.6,A,3248.458015,N,11713.161331,W,29.3,351.3,240310,,,A*4A
$GPRMC,230934.6,A,3248.481313,N,11713.165281,W,25.9,354.0,240310,,,A*40
$GPRMC,230937.6,A,3248.500783,N,11713.167231,W,21.9,356.8,240310,,,A*41
$GPRMC,230940.6,A,3248.514605,N,11713.168744,W,16.6,357.0,240310,,,A*41
$GPRMC,230943.6,A,3248.528074,N,11713.169829,W,13.4,356.3,240310,,,A*4D
$GPRMC,230946.6,A,3248.535536,N,11713.170165,W,7.9,355.4,240310,,,A*72
$GPRMC,230949.6,A,3248.545527,N,11713.171327,W,13.1,351.9,240310,,,A*4B
$GPRMC,230952.6,A,3248.560561,N,11713.173950,W,18.6,350.6,240310,,,A*4E
$GPRMC,230955.6,A,3248.579127,N,11713.177193,W,23.1,349.5,240310,,,A*40
$GPRMC,230958.6,A,3248.602894,N,11713.183173,W,29.4,347.7,240310,,,A*45
$GPRMC,231001.6,A,3248.629650,N,11713.189234,W,32.2,349.1,240310,,,A*40
$GPRMC,231004.6,A,3248.656433,N,11713.194698,W,32.8,351.3,240310,,,A*45
$GPRMC,231007.6,A,3248.685224,N,11713.199433,W,33.9,352.3,240310,,,A*45
$GPRMC,231010.6,A,3248.712839,N,11713.203812,W,34.7,352.6,240310,,,A*49
$GPRMC,231013.6,A,3248.741520,N,11713.209004,W,36.1,351.6,240310,,,A*4B
$GPRMC,231016.6,A,3248.771720,N,11713.214760,W,37.1,347.7,240310,,,A*41
$GPRMC,231019.6,A,3248.801323,N,11713.227883,W,39.0,337.6,240310,,,A*4A
$GPRMC,231022.6,A,3248.830724,N,11713.248208,W,41.6,327.9,240310,,,A*44
$GPRMC,231025.6,A,3248.859283,N,11713.275697,W,44.0,320.5,240310,,,A*40
$GPRMC,231028.6,A,3248.888778,N,11713.304214,W,44.3,321.2,240310,,,A*4D
$GPRMC,231031.6,A,3248.916638,N,11713.330370,W,42.1,323.7,240310,,,A*41
$GPRMC,231034.6,A,3248.944668,N,11713.355613,W,42.0,322.9,240310,,,A*4B
$GPRMC,231037.6,A,3248.975761,N,11713.380932,W,43.7,323.2,240310,,,A*4A
$GPRMC,231040.6,A,3249.007340,N,11713.407138,W,44.8,324.2,240310,,,A*45
$GPRMC,231043.6,A,3249.037443,N,11713.438474,W,49.0,320.8,240310,,,A*4B
$GPRMC,231046.6,A,3249.070494,N,11713.472270,W,52.8,319.4,240310,,,A*4F
$GPRMC,231049.6,A,3249.106162,N,11713.508337,W,55.5,318.9,240310,,,A*44
$GPRMC,231052.6,A,3249.143471,N,11713.544695,W,57.2,319.7,240310,,,A*47
$GPRMC,231055.6,A,3249.179917,N,11713.582596,W,57.3,318.9,240310,,,A*40
$GPRMC,231058.6,A,3249.213770,N,11713.620703,W,56.6,318.9,240310,,,A*4C
$GPRMC,231101.6,A,3249.250375,N,11713.656300,W,57.1,319.3,240310,,,A*4C
$GPRMC,231104.6,A,3249.286926,N,11713.693649,W,57.5,319.2,240310,,,A*4A
$GPRMC,231107.6,A,3249.323204,N,11713.731688,W,57.8,319.0,240310,,,A*47
$GPRMC,231110.6,A,3249.360967,N,11713.769997,W,58.7,319.8,240310,,,A*4C
$GPRMC,231113.6,A,3249.399105,N,11713.807392,W,58.9,319.6,240310,,,A*4D
$GPRMC,231116.6,A,3249.436672,N,11713.844027,W,57.9,320.6,240310,,,A*42
$GPRMC,231119.6,A,3249.477686,N,11713.876555,W,57.8,326.0,240310,,,A*43
$GPRMC,231122.6,A,3249.518689,N,11713.904118,W,57.0,332.4,240310,,,A*4C
$GPRMC,231125.6,A,3249.562439,N,11713.927348,W,57.3,338.1,240310,,,A*45
$GPRMC,231128.6,A,3249.606828,N,11713.944545,W,57.5,343.5,240310,,,A*45
$GPRMC,231131.6,A,3249.653652,N,11713.955255,W,57.2,350.0,240310,,,A*48
$GPRMC,231134.6,A,3249.700819,N,11713.959199,W,56.4,356.1,240310,,,A*44
$GPRMC,231137.6,A,3249.748168,N,11713.959354,W,55.9,359.0,240310,,,A*47
$GPRMC,231140.6,A,3249.794854,N,11713.958047,W,55.6,0.0,240310,,,A*40
$GPRMC,231143.6,A,3249.840952,N,11713.958524,W,55.7,359.9,240310,,,A*45
$GPRMC,231146.6,A,3249.887593,N,11713.957502,W,55.7,0.3,240310,,,A*44
$GPRMC,231149.6,A,3249.934098,N,11713.957534,W,55.9,359.7,240310,,,A*4C
$GPRMC,231152.6,A,3249.981067,N,11713.960579,W,55.8,355.0,240310,,,A*4F
$GPRMC,231155.6,A,3250.026415,N,11713.969293,W,54.8,348.9,240310,,,A*4B
$GPRMC,231158.6,A,3250.069932,N,11713.984941,W,54.8,343.4,240310,,,A*44
$GPRMC,231201.6,A,3250.114808,N,11714.003218,W,55.6,340.2,240310,,,A*44
$GPRMC,231204.6,A,3250.157506,N,11714.022732,W,56.3,339.1,240310,,,A*40
$GPRMC,231207.6,A,3250.202209,N,11714.043700,W,57.4,338.8,240310,,,A*40
$GPRMC,231210.6,A,3250.246981,N,11714.064175,W,57.9,339.9,240310,,,A*41
$GPRMC,231213.6,A,3250.291064,N,11714.084729,W,58.2,339.4,240310,,,A*42
$GPRMC,231216.6,A,3250.337445,N,11714.105018,W,58.9,339.2,240310,,,A*4D
$GPRMC,231219.6,A,3250.383242,N,11714.125973,W,59.1,339.2,240310,,,A*43
