NMEA Sentence Code,UTC Time,Status,Latitude,Latitude Direction,Longitude,Longitude Direction,Speed (knots),Track Angle (degrees true),Date,MagneticVariation,Magnetic Variation Direction,[FAA Mode]-Optional,Checksum
$GPRMC,001555.70,A,3341.8094,N,11713.2361,W,6.124,177.990,191210,0,W,A*21
$GPRMC,001558.70,A,3341.8006,N,11713.2365,W,14.067,179.102,191210,0,W,A*1B
$GPRMC,001601.70,A,3341.7843,N,11713.2366,W,22.385,179.342,191210,0,W,A*1D
$GPRMC,001604.70,A,3341.7628,N,11713.2372,W,27.302,181.012,191210,0,W,A*15
$GPRMC,001607.70,A,3341.7375,N,11713.2380,W,32.201,179.065,191210,0,W,A*17
$GPRMC,001610.70,A,3341.7087,N,11713.2377,W,35.838,179.287,191210,0,W,A*1E
$GPRMC,001613.70,A,3341.6775,N,11713.2375,W,37.822,179.735,191210,0,W,A*11
$GPRMC,001616.70,A,3341.6449,N,11713.2375,W,39.594,179.703,191210,0,W,A*13
$GPRMC,001619.70,A,3341.6109,N,11713.2373,W,40.459,179.616,191210,0,W,A*10
$GPRMC,001622.70,A,3341.5764,N,11713.2372,W,41.123,180.027,191210,0,W,A*1C
$GPRMC,001625.70,A,3341.5419,N,11713.2380,W,41.050,181.777,191210,0,W,A*19
$GPRMC,001628.70,A,3341.5078,N,11713.2409,W,40.329,186.846,191210,0,W,A*17
$GPRMC,001631.70,A,3341.4749,N,11713.2490,W,38.721,195.709,191210,0,W,A*1E
$GPRMC,001634.70,A,3341.4465,N,11713.2617,W,32.710,204.875,191210,0,W,A*1C
$GPRMC,001637.70,A,3341.4255,N,11713.2759,W,22.289,213.261,191210,0,W,A*1C
$GPRMC,001640.70,A,3341.4149,N,11713.2844,W,8.519,214.605,191210,0,W,A*26
$GPRMC,001643.70,A,3341.4125,N,11713.2865,W,4.390,215.522,191210,0,W,A*20
$GPRMC,001646.70,A,3341.4066,N,11713.2919,W,13.488,217.614,191210,0,W,A*15
$GPRMC,001649.70,A,3341.3947,N,11713.3021,W,20.891,213.933,191210,0,W,A*1E
$GPRMC,001652.70,A,3341.3783,N,11713.3155,W,26.588,214.553,191210,0,W,A*1E
$GPRMC,001655.70,A,3341.3583,N,11713.3319,W,31.567,213.999,191210,0,W,A*1B
$GPRMC,001658.70,A,3341.3349,N,11713.3514,W,34.907,214.573,191210,0,W,A*1D
$GPRMC,001701.70,A,3341.3094,N,11713.3713,W,36.248,209.945,191210,0,W,A*11
$GPRMC,001704.70,A,3341.2826,N,11713.3864,W,34.601,199.746,191210,0,W,A*17
$GPRMC,001707.70,A,3341.2554,N,11713.3962,W,33.590,192.706,191210,0,W,A*18
$GPRMC,001710.70,A,3341.2289,N,11713.4012,W,31.670,184.677,191210,0,W,A*1F
$GPRMC,001713.70,A,3341.2030,N,11713.4017,W,30.807,179.850,191210,0,W,A*1F
$GPRMC,001716.70,A,3341.1778,N,11713.4009,W,28.530,179.003,191210,0,W,A*13
$GPRMC,001719.70,A,3341.1553,N,11713.4003,W,25.874,180.124,191210,0,W,A*1F
$GPRMC,001722.70,A,3341.1358,N,11713.4002,W,21.306,180.077,191210,0,W,A*16
$GPRMC,001725.70,A,3341.1202,N,11713.4003,W,16.580,179.696,191210,0,W,A*1D
$GPRMC,001728.70,A,3341.1087,N,11713.4005,W,13.566,179.482,191210,0,W,A*13
$GPRMC,001731.70,A,3341.0989,N,11713.3964,W,13.214,133.465,191210,0,W,A*11
$GPRMC,001734.70,A,3341.0967,N,11713.3812,W,18.124,88.077,191210,0,W,A*29
$GPRMC,001737.70,A,3341.0979,N,11713.3589,W,24.479,91.277,191210,0,W,A*22
$GPRMC,001740.70,A,3341.0982,N,11713.3308,W,29.777,90.776,191210,0,W,A*2C
$GPRMC,001743.70,A,3341.0990,N,11713.2987,W,32.441,89.690,191210,0,W,A*2D
$GPRMC,001746.70,A,3341.0994,N,11713.2649,W,33.761,90.007,191210,0,W,A*21
$GPRMC,001749.70,A,3341.1001,N,11713.2295,W,35.598,89.873,191210,0,W,A*2E
$GPRMC,001752.70,A,3341.1004,N,11713.1926,W,36.631,90.144,191210,0,W,A*27
$GPRMC,001755.70,A,3341.1007,N,11713.1554,W,36.907,90.142,191210,0,W,A*26
$GPRMC,001758.70,A,3341.1006,N,11713.1175,W,37.931,90.134,191210,0,W,A*28
$GPRMC,001801.70,A,3341.1006,N,11713.0797,W,37.027,90.066,191210,0,W,A*28
$GPRMC,001804.70,A,3341.1007,N,11713.0431,W,36.067,90.199,191210,0,W,A*27
$GPRMC,001807.70,A,3341.1006,N,11713.0079,W,33.839,90.361,191210,0,W,A*2E
$GPRMC,001810.70,A,3341.1005,N,11712.9751,W,31.758,90.118,191210,0,W,A*28
$GPRMC,001813.70,A,3341.1004,N,11712.9457,W,27.378,90.103,191210,0,W,A*24
$GPRMC,001816.70,A,3341.0999,N,11712.9208,W,23.236,91.666,191210,0,W,A*2B
$GPRMC,001819.70,A,3341.0993,N,11712.9011,W,16.585,93.443,191210,0,W,A*2A
$GPRMC,001822.70,A,3341.0989,N,11712.8909,W,6.056,99.836,191210,0,W,A*16
$GPRMC,001825.70,A,3341.0983,N,11712.8890,W,4.633,109.226,191210,0,W,A*2E
$GPRMC,001828.70,A,3341.0921,N,11712.8850,W,11.956,164.466,191210,0,W,A*16
$GPRMC,001831.70,A,3341.0793,N,11712.8840,W,18.839,176.131,191210,0,W,A*1D
$GPRMC,001834.70,A,3341.0618,N,11712.8816,W,21.041,170.180,191210,0,W,A*18
$GPRMC,001837.70,A,3341.0474,N,11712.8779,W,13.018,167.095,191210,0,W,A*1B
$GPRMC,001934.70,A,3341.0419,N,11712.8767,W,5.929,165.534,191210,0,W,A*2D
$GPRMC,001937.70,A,3341.0347,N,11712.8747,W,11.783,167.877,191210,0,W,A*13
$GPRMC,001940.70,A,3341.0226,N,11712.8711,W,15.650,158.976,191210,0,W,A*11
$GPRMC,001943.70,A,3341.0140,N,11712.8622,W,14.749,114.078,191210,0,W,A*17
$GPRMC,001946.70,A,3341.0139,N,11712.8463,W,19.019,76.607,191210,0,W,A*2F
$GPRMC,001949.70,A,3341.0189,N,11712.8243,W,25.000,76.633,191210,0,W,A*2F
$GPRMC,001952.70,A,3341.0248,N,11712.7972,W,29.788,76.815,191210,0,W,A*2C
$GPRMC,001955.70,A,3341.0310,N,11712.7663,W,32.720,76.183,191210,0,W,A*26
$GPRMC,001958.70,A,3341.0379,N,11712.7327,W,34.931,76.519,191210,0,W,A*2E
$GPRMC,002001.70,A,3341.0451,N,11712.6969,W,37.362,76.317,191210,0,W,A*23
$GPRMC,002004.70,A,3341.0529,N,11712.6590,W,39.622,76.294,191210,0,W,A*27
$GPRMC,002007.70,A,3341.0611,N,11712.6188,W,41.904,76.591,191210,0,W,A*27
$GPRMC,002010.70,A,3341.0693,N,11712.5777,W,41.498,76.329,191210,0,W,A*23
$GPRMC,002013.70,A,3341.0774,N,11712.5382,W,39.642,77.208,191210,0,W,A*2F
$GPRMC,002016.70,A,3341.0850,N,11712.5007,W,37.190,76.749,191210,0,W,A*2A
$GPRMC,002019.70,A,3341.0917,N,11712.4654,W,35.170,79.552,191210,0,W,A*2D
$GPRMC,002022.70,A,3341.0962,N,11712.4329,W,30.590,82.396,191210,0,W,A*2D
$GPRMC,002025.70,A,3341.0985,N,11712.4058,W,23.688,88.189,191210,0,W,A*28
$GPRMC,002028.70,A,3341.0978,N,11712.3853,W,18.456,93.730,191210,0,W,A*24
$GPRMC,002031.70,A,3341.0972,N,11712.3721,W,8.085,90.976,191210,0,W,A*18
$GPRMC,002104.70,A,3341.0967,N,11712.3663,W,9.465,92.343,191210,0,W,A*19
$GPRMC,002107.70,A,3341.0965,N,11712.3519,W,18.936,91.184,191210,0,W,A*27
$GPRMC,002110.70,A,3341.0964,N,11712.3284,W,27.833,90.393,191210,0,W,A*2E
$GPRMC,002113.70,A,3341.0965,N,11712.2979,W,32.867,89.981,191210,0,W,A*20
$GPRMC,002116.70,A,3341.0972,N,11712.2618,W,38.168,88.081,191210,0,W,A*2F
$GPRMC,002119.70,A,3341.0982,N,11712.2216,W,41.394,88.940,191210,0,W,A*2E
$GPRMC,002122.70,A,3341.0987,N,11712.1777,W,45.038,89.391,191210,0,W,A*24
$GPRMC,002125.70,A,3341.0990,N,11712.1317,W,46.167,89.842,191210,0,W,A*2A
$GPRMC,002128.70,A,3341.0992,N,11712.0845,W,47.676,90.300,191210,0,W,A*2B
$GPRMC,002131.70,A,3341.0995,N,11712.0367,W,47.568,89.475,191210,0,W,A*2E
$GPRMC,002134.70,A,3341.0994,N,11711.9902,W,46.034,90.233,191210,0,W,A*28
$GPRMC,002137.70,A,3341.0993,N,11711.9436,W,46.319,90.072,191210,0,W,A*2D
$GPRMC,002140.70,A,3341.0993,N,11711.8975,W,45.710,89.865,191210,0,W,A*2E
$GPRMC,002143.70,A,3341.0993,N,11711.8521,W,44.423,90.141,191210,0,W,A*25
$GPRMC,002146.70,A,3341.0995,N,11711.8082,W,43.635,90.294,191210,0,W,A*23
$GPRMC,002149.70,A,3341.0997,N,11711.7639,W,44.597,89.799,191210,0,W,A*2B
$GPRMC,002152.70,A,3341.0997,N,11711.7193,W,44.354,90.208,191210,0,W,A*2A
$GPRMC,002155.70,A,3341.0997,N,11711.6759,W,41.963,90.233,191210,0,W,A*2F
$GPRMC,002158.70,A,3341.0997,N,11711.6345,W,41.395,90.152,191210,0,W,A*2C
$GPRMC,002201.70,A,3341.0995,N,11711.5933,W,40.716,90.318,191210,0,W,A*2B
$GPRMC,002204.70,A,3341.0992,N,11711.5526,W,41.213,90.500,191210,0,W,A*2F
$GPRMC,002207.70,A,3341.0988,N,11711.5127,W,38.441,90.886,191210,0,W,A*2E
$GPRMC,002210.70,A,3341.0986,N,11711.4762,W,35.386,90.388,191210,0,W,A*24
$GPRMC,002213.70,A,3341.0980,N,11711.4426,W,32.648,90.959,191210,0,W,A*24
$GPRMC,002216.70,A,3341.0975,N,11711.4127,W,26.310,91.522,191210,0,W,A*23
$GPRMC,002219.70,A,3341.0968,N,11711.3908,W,19.271,91.486,191210,0,W,A*27
$GPRMC,002222.70,A,3341.0962,N,11711.3775,W,8.889,92.557,191210,0,W,A*12
$GPRMC,002252.70,A,3341.0952,N,11711.3651,W,6.019,93.565,191210,0,W,A*1E
$GPRMC,002255.70,A,3341.0945,N,11711.3563,W,11.758,89.743,191210,0,W,A*24
$GPRMC,002258.70,A,3341.0944,N,11711.3421,W,16.164,90.761,191210,0,W,A*29
$GPRMC,002301.70,A,3341.0942,N,11711.3263,W,15.165,90.425,191210,0,W,A*23
$GPRMC,002304.70,A,3341.0943,N,11711.3122,W,14.147,90.220,191210,0,W,A*23
$GPRMC,002307.70,A,3341.0950,N,11711.2946,W,22.006,90.268,191210,0,W,A*24
$GPRMC,002310.70,A,3341.0946,N,11711.2680,W,29.848,90.047,191210,0,W,A*26
$GPRMC,002313.70,A,3341.0954,N,11711.2344,W,36.366,88.255,191210,0,W,A*2A
$GPRMC,002316.70,A,3341.0962,N,11711.1955,W,40.241,89.052,191210,0,W,A*22
$GPRMC,002319.70,A,3341.0967,N,11711.1536,W,42.365,89.726,191210,0,W,A*20
$GPRMC,002322.70,A,3341.0969,N,11711.1115,W,40.338,89.910,191210,0,W,A*22
$GPRMC,002325.70,A,3341.0971,N,11711.0724,W,37.484,90.448,191210,0,W,A*21
$GPRMC,002328.70,A,3341.0970,N,11711.0375,W,33.032,90.015,191210,0,W,A*2C
$GPRMC,002331.70,A,3341.0971,N,11711.0041,W,34.548,90.552,191210,0,W,A*28
$GPRMC,002334.70,A,3341.0973,N,11710.9681,W,37.101,89.655,191210,0,W,A*2B
$GPRMC,002337.70,A,3341.0976,N,11710.9308,W,37.680,90.055,191210,0,W,A*29
$GPRMC,002340.70,A,3341.0980,N,11710.8924,W,38.099,88.971,191210,0,W,A*22
$GPRMC,002343.70,A,3341.0982,N,11710.8546,W,37.456,90.346,191210,0,W,A*24
$GPRMC,002346.70,A,3341.0985,N,11710.8155,W,39.947,90.226,191210,0,W,A*24
$GPRMC,002349.70,A,3341.0982,N,11710.7765,W,37.599,90.443,191210,0,W,A*22
$GPRMC,002352.70,A,3341.0976,N,11710.7386,W,38.650,92.576,191210,0,W,A*26
$GPRMC,002355.70,A,3341.0963,N,11710.6993,W,38.953,91.573,191210,0,W,A*20
$GPRMC,002358.70,A,3341.0960,N,11710.6613,W,37.112,90.199,191210,0,W,A*2A
$GPRMC,002401.70,A,3341.0960,N,11710.6255,W,33.994,90.564,191210,0,W,A*23
$GPRMC,002404.70,A,3341.0958,N,11710.5949,W,28.788,90.209,191210,0,W,A*2D
$GPRMC,002407.70,A,3341.0957,N,11710.5709,W,20.187,89.367,191210,0,W,A*2B
$GPRMC,002410.70,A,3341.0960,N,11710.5551,W,13.120,89.329,191210,0,W,A*21
$GPRMC,002413.70,A,3341.0963,N,11710.5467,W,4.827,87.206,191210,0,W,A*1F
$GPRMC,002522.70,A,3341.0964,N,11710.5393,W,11.839,90.590,191210,0,W,A*22
$GPRMC,002525.70,A,3341.0962,N,11710.5238,W,20.265,90.188,191210,0,W,A*2F
$GPRMC,002528.70,A,3341.0962,N,11710.5005,W,25.853,89.698,191210,0,W,A*2A
$GPRMC,002531.70,A,3341.0963,N,11710.4727,W,28.209,89.788,191210,0,W,A*2D
$GPRMC,002534.70,A,3341.0961,N,11710.4439,W,28.350,90.656,191210,0,W,A*21
$GPRMC,002537.70,A,3341.0958,N,11710.4163,W,26.191,90.689,191210,0,W,A*21
$GPRMC,002540.70,A,3341.0958,N,11710.3922,W,22.917,89.381,191210,0,W,A*2C
$GPRMC,002543.70,A,3341.0959,N,11710.3689,W,23.116,88.624,191210,0,W,A*23
$GPRMC,002546.70,A,3341.0926,N,11710.3484,W,20.202,120.105,191210,0,W,A*13
$GPRMC,002549.70,A,3341.0779,N,11710.3353,W,25.725,157.128,191210,0,W,A*1F
$GPRMC,002552.70,A,3341.0547,N,11710.3246,W,32.772,156.860,191210,0,W,A*1F
$GPRMC,002555.70,A,3341.0265,N,11710.3115,W,38.009,157.942,191210,0,W,A*1B
$GPRMC,002558.70,A,3340.9949,N,11710.2971,W,41.398,158.898,191210,0,W,A*1C
$GPRMC,002601.70,A,3340.9609,N,11710.2823,W,44.109,161.168,191210,0,W,A*1D
$GPRMC,002604.70,A,3340.9239,N,11710.2704,W,46.221,167.920,191210,0,W,A*1C
$GPRMC,002607.70,A,3340.8851,N,11710.2629,W,46.728,173.585,191210,0,W,A*1E
$GPRMC,002610.70,A,3340.8446,N,11710.2604,W,48.522,177.118,191210,0,W,A*1F
$GPRMC,002613.70,A,3340.8028,N,11710.2595,W,50.467,178.914,191210,0,W,A*19
$GPRMC,002616.70,A,3340.7595,N,11710.2592,W,52.847,177.723,191210,0,W,A*1E
$GPRMC,002619.70,A,3340.7142,N,11710.2586,W,54.934,179.894,191210,0,W,A*14
$GPRMC,002622.70,A,3340.6677,N,11710.2590,W,54.963,180.455,191210,0,W,A*1E
$GPRMC,002625.70,A,3340.6214,N,11710.2593,W,55.557,179.533,191210,0,W,A*16
$GPRMC,002628.70,A,3340.5736,N,11710.2597,W,57.392,180.222,191210,0,W,A*15
$GPRMC,002631.70,A,3340.5249,N,11710.2600,W,56.651,180.184,191210,0,W,A*19
$GPRMC,002634.70,A,3340.4781,N,11710.2604,W,55.690,180.429,191210,0,W,A*14
$GPRMC,002637.70,A,3340.4317,N,11710.2609,W,55.056,179.973,191210,0,W,A*19
$GPRMC,002640.70,A,3340.3853,N,11710.2611,W,55.573,179.870,191210,0,W,A*1C
$GPRMC,002643.70,A,3340.3382,N,11710.2613,W,56.410,180.361,191210,0,W,A*10
$GPRMC,002646.70,A,3340.2898,N,11710.2614,W,58.118,180.283,191210,0,W,A*1D
$GPRMC,002649.70,A,3340.2402,N,11710.2619,W,59.984,180.628,191210,0,W,A*19
$GPRMC,002652.70,A,3340.1893,N,11710.2623,W,61.236,180.231,191210,0,W,A*18
$GPRMC,002655.70,A,3340.1374,N,11710.2624,W,62.841,179.978,191210,0,W,A*13
$GPRMC,002658.70,A,3340.0846,N,11710.2627,W,63.067,180.234,191210,0,W,A*1E
$GPRMC,002701.70,A,3340.0321,N,11710.2629,W,63.062,180.147,191210,0,W,A*15
$GPRMC,002704.70,A,3339.9793,N,11710.2627,W,63.481,179.842,191210,0,W,A*17
$GPRMC,002707.70,A,3339.9261,N,11710.2626,W,64.352,180.070,191210,0,W,A*1C
$GPRMC,002710.70,A,3339.8723,N,11710.2625,W,63.740,179.583,191210,0,W,A*14
$GPRMC,002713.70,A,3339.8185,N,11710.2624,W,64.953,180.499,191210,0,W,A*1B
$GPRMC,002716.70,A,3339.7641,N,11710.2637,W,64.883,181.135,191210,0,W,A*12
$GPRMC,002719.70,A,3339.7096,N,11710.2651,W,65.929,181.330,191210,0,W,A*16
$GPRMC,002722.70,A,3339.6537,N,11710.2672,W,67.083,181.914,191210,0,W,A*17
$GPRMC,002725.70,A,3339.5981,N,11710.2695,W,65.777,181.985,191210,0,W,A*1D
$GPRMC,002728.70,A,3339.5433,N,11710.2722,W,65.555,182.302,191210,0,W,A*1D
$GPRMC,002731.70,A,3339.4884,N,11710.2751,W,65.218,182.495,191210,0,W,A*17
$GPRMC,002734.70,A,3339.4342,N,11710.2772,W,64.795,181.290,191210,0,W,A*13
$GPRMC,002737.70,A,3339.3801,N,11710.2782,W,64.477,180.552,191210,0,W,A*13
$GPRMC,002740.70,A,3339.3267,N,11710.2789,W,63.388,180.266,191210,0,W,A*12
$GPRMC,002743.70,A,3339.2744,N,11710.2787,W,61.486,179.834,191210,0,W,A*1A
$GPRMC,002746.70,A,3339.2232,N,11710.2786,W,61.572,180.088,191210,0,W,A*19
$GPRMC,002749.70,A,3339.1711,N,11710.2786,W,62.933,180.199,191210,0,W,A*1A
$GPRMC,002752.70,A,3339.1173,N,11710.2784,W,65.230,179.782,191210,0,W,A*15
$GPRMC,002755.70,A,3339.0627,N,11710.2780,W,65.080,179.391,191210,0,W,A*1E
$GPRMC,002758.70,A,3339.0086,N,11710.2777,W,64.263,179.648,191210,0,W,A*19
$GPRMC,002801.70,A,3338.9547,N,11710.2776,W,64.864,179.928,191210,0,W,A*1F
$GPRMC,002804.70,A,3338.9009,N,11710.2778,W,64.621,179.901,191210,0,W,A*1F
$GPRMC,002807.70,A,3338.8475,N,11710.2777,W,63.405,179.815,191210,0,W,A*1A
$GPRMC,002810.70,A,3338.7954,N,11710.2779,W,62.183,179.887,191210,0,W,A*12
$GPRMC,002813.70,A,3338.7433,N,11710.2782,W,62.739,179.879,191210,0,W,A*1F
$GPRMC,002816.70,A,3338.6904,N,11710.2783,W,64.011,179.966,191210,0,W,A*17
$GPRMC,002819.70,A,3338.6370,N,11710.2779,W,64.109,179.518,191210,0,W,A*19
$GPRMC,002822.70,A,3338.5840,N,11710.2775,W,62.781,179.721,191210,0,W,A*1E
$GPRMC,002825.70,A,3338.5315,N,11710.2770,W,63.242,179.616,191210,0,W,A*19
$GPRMC,002828.70,A,3338.4783,N,11710.2773,W,64.241,180.472,191210,0,W,A*1F
$GPRMC,002831.70,A,3338.4240,N,11710.2773,W,65.220,179.845,191210,0,W,A*15
$GPRMC,002834.70,A,3338.3686,N,11710.2771,W,65.955,179.686,191210,0,W,A*13
$GPRMC,002837.70,A,3338.3135,N,11710.2768,W,65.009,179.828,191210,0,W,A*1D
$GPRMC,002840.70,A,3338.2601,N,11710.2766,W,62.178,180.110,191210,0,W,A*16
$GPRMC,002843.70,A,3338.2090,N,11710.2763,W,60.671,179.860,191210,0,W,A*1A
$GPRMC,002846.70,A,3338.1584,N,11710.2761,W,60.784,179.635,191210,0,W,A*1B
$GPRMC,002849.70,A,3338.1073,N,11710.2757,W,61.590,179.872,191210,0,W,A*17
$GPRMC,002852.70,A,3338.0558,N,11710.2757,W,61.430,179.983,191210,0,W,A*14
$GPRMC,002855.70,A,3338.0047,N,11710.2755,W,60.702,179.856,191210,0,W,A*10
$GPRMC,002858.70,A,3337.9545,N,11710.2752,W,59.891,179.653,191210,0,W,A*1F
$GPRMC,002901.70,A,3337.9041,N,11710.2749,W,61.161,179.541,191210,0,W,A*14
$GPRMC,002904.70,A,3337.8528,N,11710.2748,W,61.467,179.751,191210,0,W,A*1B
$GPRMC,002907.70,A,3337.8017,N,11710.2749,W,60.959,180.095,191210,0,W,A*18
$GPRMC,002910.70,A,3337.7510,N,11710.2750,W,60.334,179.899,191210,0,W,A*18
$GPRMC,002913.70,A,3337.7002,N,11710.2751,W,61.362,179.770,191210,0,W,A*16
$GPRMC,002916.70,A,3337.6488,N,11710.2751,W,61.547,179.880,191210,0,W,A*15
$GPRMC,002919.70,A,3337.5975,N,11710.2755,W,59.833,180.636,191210,0,W,A*12
$GPRMC,002922.70,A,3337.5484,N,11710.2761,W,58.538,180.581,191210,0,W,A*16
$GPRMC,002925.70,A,3337.4997,N,11710.2768,W,58.566,180.766,191210,0,W,A*16
$GPRMC,002928.70,A,3337.4504,N,11710.2777,W,59.848,180.484,191210,0,W,A*1C
$GPRMC,002931.70,A,3337.3998,N,11710.2786,W,61.320,180.737,191210,0,W,A*11
$GPRMC,002934.70,A,3337.3487,N,11710.2795,W,60.604,180.900,191210,0,W,A*1D
$GPRMC,002937.70,A,3337.2992,N,11710.2805,W,59.879,180.293,191210,0,W,A*1F
$GPRMC,002940.70,A,3337.2490,N,11710.2807,W,60.921,179.924,191210,0,W,A*15
$GPRMC,002943.70,A,3337.1974,N,11710.2796,W,62.544,178.463,191210,0,W,A*17
$GPRMC,002946.70,A,3337.1447,N,11710.2779,W,63.664,178.851,191210,0,W,A*13
$GPRMC,002949.70,A,3337.0909,N,11710.2769,W,64.878,179.153,191210,0,W,A*15
$GPRMC,002952.70,A,3337.0371,N,11710.2760,W,64.005,179.116,191210,0,W,A*10
$GPRMC,002955.70,A,3336.9844,N,11710.2753,W,63.207,179.355,191210,0,W,A*10
$GPRMC,002958.70,A,3336.9310,N,11710.2744,W,63.868,179.141,191210,0,W,A*15
$GPRMC,003001.70,A,3336.8779,N,11710.2732,W,63.061,179.231,191210,0,W,A*1F
$GPRMC,003004.70,A,3336.8254,N,11710.2726,W,62.471,180.169,191210,0,W,A*19
$GPRMC,003007.70,A,3336.7737,N,11710.2737,W,61.676,181.363,191210,0,W,A*1A
$GPRMC,003010.70,A,3336.7222,N,11710.2758,W,61.510,182.097,191210,0,W,A*1C
$GPRMC,003013.70,A,3336.6715,N,11710.2784,W,60.040,182.595,191210,0,W,A*18
$GPRMC,003016.70,A,3336.6222,N,11710.2809,W,59.066,182.411,191210,0,W,A*15
$GPRMC,003019.70,A,3336.5720,N,11710.2835,W,61.493,182.156,191210,0,W,A*12
$GPRMC,003022.70,A,3336.5202,N,11710.2858,W,63.075,182.112,191210,0,W,A*1A
$GPRMC,003025.70,A,3336.4673,N,11710.2887,W,63.903,182.620,191210,0,W,A*12
$GPRMC,003028.70,A,3336.4135,N,11710.2917,W,64.692,182.191,191210,0,W,A*1F
$GPRMC,003031.70,A,3336.3597,N,11710.2942,W,64.250,182.324,191210,0,W,A*1A
$GPRMC,003034.70,A,3336.3061,N,11710.2970,W,64.538,182.464,191210,0,W,A*18
$GPRMC,003037.70,A,3336.2525,N,11710.3003,W,63.922,182.678,191210,0,W,A*1C
$GPRMC,003040.70,A,3336.2002,N,11710.3055,W,62.246,186.991,191210,0,W,A*1B
$GPRMC,003043.70,A,3336.1493,N,11710.3180,W,62.390,194.972,191210,0,W,A*1A
$GPRMC,003046.70,A,3336.0996,N,11710.3376,W,62.816,200.761,191210,0,W,A*1A
$GPRMC,003049.70,A,3336.0510,N,11710.3641,W,64.500,207.164,191210,0,W,A*1E
$GPRMC,003052.70,A,3336.0036,N,11710.3975,W,66.440,213.227,191210,0,W,A*1B
$GPRMC,003055.70,A,3335.9570,N,11710.4360,W,67.726,214.265,191210,0,W,A*1B
$GPRMC,003058.70,A,3335.9105,N,11710.4740,W,66.397,213.853,191210,0,W,A*11
$GPRMC,003101.70,A,3335.8648,N,11710.5108,W,66.444,212.817,191210,0,W,A*10
$GPRMC,003104.70,A,3335.8183,N,11710.5472,W,66.607,212.999,191210,0,W,A*1F
$GPRMC,003107.70,A,3335.7716,N,11710.5835,W,66.418,212.901,191210,0,W,A*1B
$GPRMC,003110.70,A,3335.7249,N,11710.6203,W,66.907,213.478,191210,0,W,A*1F
$GPRMC,003113.70,A,3335.6785,N,11710.6567,W,65.745,212.907,191210,0,W,A*12
$GPRMC,003116.70,A,3335.6324,N,11710.6911,W,65.524,210.285,191210,0,W,A*13
$GPRMC,003119.70,A,3335.5835,N,11710.7235,W,68.102,207.860,191210,0,W,A*12
$GPRMC,003122.70,A,3335.5327,N,11710.7540,W,67.651,204.796,191210,0,W,A*1C
$GPRMC,003125.70,A,3335.4813,N,11710.7810,W,66.444,202.303,191210,0,W,A*17
$GPRMC,003128.70,A,3335.4295,N,11710.8044,W,65.909,198.845,191210,0,W,A*16
$GPRMC,003131.70,A,3335.3768,N,11710.8234,W,65.790,195.434,191210,0,W,A*12
$GPRMC,003134.70,A,3335.3229,N,11710.8392,W,67.185,192.265,191210,0,W,A*1F
$GPRMC,003137.70,A,3335.2676,N,11710.8513,W,67.086,189.148,191210,0,W,A*18
$GPRMC,003140.70,A,3335.2124,N,11710.8596,W,66.384,186.106,191210,0,W,A*10
$GPRMC,003143.70,A,3335.1575,N,11710.8639,W,66.491,182.283,191210,0,W,A*1F
$GPRMC,003146.70,A,3335.1024,N,11710.8649,W,66.390,180.104,191210,0,W,A*14
$GPRMC,003149.70,A,3335.0459,N,11710.8637,W,67.693,179.983,191210,0,W,A*1B
$GPRMC,003152.70,A,3334.9880,N,11710.8628,W,70.262,179.772,191210,0,W,A*13
$GPRMC,003155.70,A,3334.9297,N,11710.8620,W,68.597,179.761,191210,0,W,A*16
$GPRMC,003158.70,A,3334.8730,N,11710.8617,W,67.055,179.858,191210,0,W,A*17
$GPRMC,003201.70,A,3334.8184,N,11710.8616,W,63.068,180.060,191210,0,W,A*1F
$GPRMC,003204.70,A,3334.7676,N,11710.8615,W,59.807,179.719,191210,0,W,A*1B
$GPRMC,003207.70,A,3334.7187,N,11710.8609,W,57.666,179.743,191210,0,W,A*14
$GPRMC,003210.70,A,3334.6703,N,11710.8606,W,58.740,179.854,191210,0,W,A*15
$GPRMC,003213.70,A,3334.6204,N,11710.8604,W,60.984,179.925,191210,0,W,A*1C
$GPRMC,003216.70,A,3334.5691,N,11710.8602,W,61.924,179.846,191210,0,W,A*1B
$GPRMC,003219.70,A,3334.5172,N,11710.8602,W,62.460,179.910,191210,0,W,A*12
$GPRMC,003222.70,A,3334.4661,N,11710.8602,W,60.454,180.011,191210,0,W,A*15
$GPRMC,003225.70,A,3334.4164,N,11710.8598,W,58.998,179.784,191210,0,W,A*1B
$GPRMC,003228.70,A,3334.3672,N,11710.8596,W,59.661,178.730,191210,0,W,A*19
$GPRMC,003231.70,A,3334.3181,N,11710.8595,W,59.240,180.052,191210,0,W,A*1A
$GPRMC,003234.70,A,3334.2688,N,11710.8597,W,59.204,180.629,191210,0,W,A*18
$GPRMC,003237.70,A,3334.2184,N,11710.8603,W,60.995,180.721,191210,0,W,A*1E
$GPRMC,003240.70,A,3334.1682,N,11710.8609,W,59.715,179.811,191210,0,W,A*10
$GPRMC,003243.70,A,3334.1187,N,11710.8605,W,58.807,180.142,191210,0,W,A*19
$GPRMC,003246.70,A,3334.0688,N,11710.8606,W,61.028,180.111,191210,0,W,A*1F
$GPRMC,003249.70,A,3334.0174,N,11710.8603,W,61.484,179.790,191210,0,W,A*1A
$GPRMC,003252.70,A,3333.9668,N,11710.8600,W,60.204,179.829,191210,0,W,A*15
$GPRMC,003255.70,A,3333.9164,N,11710.8598,W,60.322,179.719,191210,0,W,A*12
$GPRMC,003258.70,A,3333.8670,N,11710.8595,W,58.568,179.724,191210,0,W,A*1C
$GPRMC,003301.70,A,3333.8185,N,11710.8594,W,57.294,179.680,191210,0,W,A*19
$GPRMC,003304.70,A,3333.7718,N,11710.8591,W,54.600,179.879,191210,0,W,A*16
$GPRMC,003307.70,A,3333.7261,N,11710.8589,W,55.811,179.851,191210,0,W,A*12
$GPRMC,003310.70,A,3333.6785,N,11710.8590,W,58.511,179.993,191210,0,W,A*1D
$GPRMC,003313.70,A,3333.6282,N,11710.8590,W,62.158,179.896,191210,0,W,A*18
$GPRMC,003316.70,A,3333.5750,N,11710.8586,W,65.118,179.794,191210,0,W,A*1D
$GPRMC,003319.70,A,3333.5205,N,11710.8584,W,64.741,179.980,191210,0,W,A*15
$GPRMC,003322.70,A,3333.4666,N,11710.8585,W,64.180,179.906,191210,0,W,A*19
$GPRMC,003325.70,A,3333.4134,N,11710.8583,W,63.204,179.774,191210,0,W,A*1B
$GPRMC,003328.70,A,3333.3611,N,11710.8581,W,61.695,179.758,191210,0,W,A*13
$GPRMC,003331.70,A,3333.3100,N,11710.8588,W,60.696,181.739,191210,0,W,A*17
$GPRMC,003334.70,A,3333.2600,N,11710.8625,W,59.839,184.557,191210,0,W,A*1E
$GPRMC,003337.70,A,3333.2108,N,11710.8691,W,59.132,187.956,191210,0,W,A*11
$GPRMC,003340.70,A,3333.1629,N,11710.8782,W,57.052,188.724,191210,0,W,A*18
$GPRMC,003343.70,A,3333.1153,N,11710.8870,W,58.118,188.353,191210,0,W,A*17
$GPRMC,003346.70,A,3333.0675,N,11710.8954,W,57.618,187.257,191210,0,W,A*15
$GPRMC,003349.70,A,3333.0200,N,11710.9012,W,56.798,183.653,191210,0,W,A*1A
$GPRMC,003352.70,A,3332.9737,N,11710.9022,W,55.021,177.898,191210,0,W,A*1E
$GPRMC,003355.70,A,3332.9285,N,11710.8970,W,53.471,171.970,191210,0,W,A*1C
$GPRMC,003358.70,A,3332.8848,N,11710.8874,W,53.603,168.023,191210,0,W,A*1E
$GPRMC,003401.70,A,3332.8417,N,11710.8737,W,53.208,162.650,191210,0,W,A*1C
$GPRMC,003404.70,A,3332.7997,N,11710.8550,W,53.939,156.906,191210,0,W,A*12
$GPRMC,003407.70,A,3332.7601,N,11710.8319,W,52.256,152.877,191210,0,W,A*1A
$GPRMC,003410.70,A,3332.7216,N,11710.8039,W,55.473,146.804,191210,0,W,A*18
$GPRMC,003413.70,A,3332.6837,N,11710.7700,W,57.419,140.304,191210,0,W,A*12
$GPRMC,003416.70,A,3332.6492,N,11710.7307,W,57.242,135.498,191210,0,W,A*1F
$GPRMC,003419.70,A,3332.6166,N,11710.6902,W,56.628,134.546,191210,0,W,A*1A
$GPRMC,003422.70,A,3332.5835,N,11710.6499,W,55.959,136.132,191210,0,W,A*1E
$GPRMC,003425.70,A,3332.5489,N,11710.6128,W,54.397,140.774,191210,0,W,A*11
$GPRMC,003428.70,A,3332.5133,N,11710.5812,W,51.608,146.065,191210,0,W,A*1C
$GPRMC,003431.70,A,3332.4766,N,11710.5535,W,51.952,149.326,191210,0,W,A*10
$GPRMC,003434.70,A,3332.4425,N,11710.5296,W,42.917,149.647,191210,0,W,A*1E
$GPRMC,003437.70,A,3332.4137,N,11710.5093,W,40.430,149.475,191210,0,W,A*15
$GPRMC,003440.70,A,3332.3842,N,11710.4886,W,43.373,149.934,191210,0,W,A*1F
$GPRMC,003443.70,A,3332.3509,N,11710.4657,W,48.413,149.567,191210,0,W,A*1C
$GPRMC,003446.70,A,3332.3159,N,11710.4414,W,47.924,150.162,191210,0,W,A*12
$GPRMC,003449.70,A,3332.2816,N,11710.4181,W,46.886,150.229,191210,0,W,A*13
$GPRMC,003452.70,A,3332.2493,N,11710.3976,W,38.627,153.178,191210,0,W,A*17
$GPRMC,003455.70,A,3332.2256,N,11710.3828,W,25.477,151.543,191210,0,W,A*10
$GPRMC,003458.70,A,3332.2112,N,11710.3733,W,18.102,150.730,191210,0,W,A*15
$GPRMC,003501.70,A,3332.1997,N,11710.3655,W,15.312,150.387,191210,0,W,A*19
$GPRMC,003504.70,A,3332.1893,N,11710.3586,W,14.002,150.856,191210,0,W,A*10
$GPRMC,003507.70,A,3332.1777,N,11710.3508,W,19.721,151.468,191210,0,W,A*1B
$GPRMC,003510.70,A,3332.1600,N,11710.3393,W,27.922,151.061,191210,0,W,A*15
$GPRMC,003513.70,A,3332.1414,N,11710.3270,W,22.123,150.823,191210,0,W,A*1E
$GPRMC,003516.70,A,3332.1324,N,11710.3207,W,6.050,147.692,191210,0,W,A*2E
$GPRMC,003534.70,A,3332.1259,N,11710.3157,W,12.234,148.948,191210,0,W,A*11
$GPRMC,003537.70,A,3332.1151,N,11710.3084,W,19.027,150.705,191210,0,W,A*13
$GPRMC,003540.70,A,3332.1013,N,11710.2993,W,17.410,151.068,191210,0,W,A*19
$GPRMC,003543.70,A,3332.0894,N,11710.2916,W,15.573,151.191,191210,0,W,A*10
$GPRMC,003546.70,A,3332.0769,N,11710.2834,W,20.333,150.930,191210,0,W,A*1F
$GPRMC,003549.70,A,3332.0599,N,11710.2722,W,25.605,151.167,191210,0,W,A*1B
$GPRMC,003552.70,A,3332.0412,N,11710.2597,W,22.137,151.478,191210,0,W,A*15
$GPRMC,003555.70,A,3332.0287,N,11710.2513,W,13.740,150.918,191210,0,W,A*1A
$GPRMC,003558.70,A,3332.0192,N,11710.2449,W,13.430,150.262,191210,0,W,A*1C
$GPRMC,003601.70,A,3332.0080,N,11710.2372,W,17.633,150.771,191210,0,W,A*1C
$GPRMC,003604.70,A,3331.9957,N,11710.2290,W,16.531,150.748,191210,0,W,A*17
$GPRMC,003607.70,A,3331.9829,N,11710.2204,W,20.400,151.058,191210,0,W,A*10
$GPRMC,003610.70,A,3331.9655,N,11710.2087,W,26.573,150.536,191210,0,W,A*15
$GPRMC,003613.70,A,3331.9444,N,11710.1944,W,30.188,150.822,191210,0,W,A*1E
$GPRMC,003616.70,A,3331.9221,N,11710.1794,W,29.025,150.803,191210,0,W,A*10
$GPRMC,003619.70,A,3331.9038,N,11710.1674,W,22.558,150.800,191210,0,W,A*1D
$GPRMC,003622.70,A,3331.8880,N,11710.1569,W,22.028,151.386,191210,0,W,A*16
$GPRMC,003625.70,A,3331.8709,N,11710.1456,W,24.063,150.970,191210,0,W,A*19
$GPRMC,003628.70,A,3331.8538,N,11710.1344,W,22.846,150.784,191210,0,W,A*1C
$GPRMC,003631.70,A,3331.8377,N,11710.1236,W,21.011,150.357,191210,0,W,A*1E
$GPRMC,003634.70,A,3331.8228,N,11710.1137,W,20.227,151.084,191210,0,W,A*18
$GPRMC,003637.70,A,3331.8091,N,11710.1043,W,15.898,150.251,191210,0,W,A*1A
$GPRMC,003707.70,A,3331.7966,N,11710.0963,W,9.141,150.491,191210,0,W,A*26
$GPRMC,003710.70,A,3331.7874,N,11710.0902,W,16.715,151.453,191210,0,W,A*13
$GPRMC,003713.70,A,3331.7728,N,11710.0808,W,20.605,150.918,191210,0,W,A*1B
$GPRMC,003716.70,A,3331.7575,N,11710.0707,W,21.131,150.858,191210,0,W,A*10
$GPRMC,003719.70,A,3331.7401,N,11710.0589,W,26.665,150.763,191210,0,W,A*1F
$GPRMC,003722.70,A,3331.7192,N,11710.0450,W,27.449,150.531,191210,0,W,A*15
$GPRMC,003725.70,A,3331.7051,N,11710.0354,W,11.287,151.750,191210,0,W,A*1A
$GPRMC,003737.70,A,3331.6958,N,11710.0292,W,10.112,150.659,191210,0,W,A*14
$GPRMC,003740.70,A,3331.6887,N,11710.0243,W,10.781,150.613,191210,0,W,A*19
$GPRMC,003743.70,A,3331.6782,N,11710.0172,W,15.710,149.963,191210,0,W,A*1C
$GPRMC,003746.70,A,3331.6693,N,11710.0112,W,9.383,151.271,191210,0,W,A*2C
$GPRMC,003749.70,A,3331.6634,N,11710.0074,W,7.599,150.854,191210,0,W,A*20
$GPRMC,003752.70,A,3331.6571,N,11710.0034,W,10.369,152.093,191210,0,W,A*12
$GPRMC,003755.70,A,3331.6500,N,11709.9986,W,8.129,151.466,191210,0,W,A*20
$GPRMC,003758.70,A,3331.6424,N,11709.9938,W,14.331,150.549,191210,0,W,A*14
$GPRMC,003801.70,A,3331.6289,N,11709.9849,W,21.092,150.443,191210,0,W,A*16
$GPRMC,003804.70,A,3331.6153,N,11709.9757,W,16.685,150.784,191210,0,W,A*1B
$GPRMC,003807.70,A,3331.6035,N,11709.9680,W,14.757,151.406,191210,0,W,A*16
$GPRMC,003810.70,A,3331.5938,N,11709.9618,W,11.955,151.351,191210,0,W,A*1A
$GPRMC,003813.70,A,3331.5853,N,11709.9558,W,13.631,151.294,191210,0,W,A*15
$GPRMC,003816.70,A,3331.5721,N,11709.9476,W,22.921,150.751,191210,0,W,A*16
$GPRMC,003819.70,A,3331.5524,N,11709.9344,W,30.279,150.851,191210,0,W,A*12
$GPRMC,003822.70,A,3331.5274,N,11709.9183,W,35.746,153.465,191210,0,W,A*15
$GPRMC,003825.70,A,3331.5010,N,11709.9037,W,32.770,156.290,191210,0,W,A*17
$GPRMC,003828.70,A,3331.4768,N,11709.8910,W,30.326,156.452,191210,0,W,A*13
$GPRMC,003831.70,A,3331.4543,N,11709.8798,W,26.637,159.402,191210,0,W,A*16
$GPRMC,003834.70,A,3331.4371,N,11709.8730,W,17.504,165.874,191210,0,W,A*15
$GPRMC,003837.70,A,3331.4260,N,11709.8705,W,9.920,168.905,191210,0,W,A*2E
$GPRMC,003840.70,A,3331.4198,N,11709.8694,W,6.245,170.716,191210,0,W,A*21
$GPRMC,003843.70,A,3331.4157,N,11709.8687,W,4.703,173.938,191210,0,W,A*27
$GPRMC,003846.70,A,3331.4091,N,11709.8675,W,12.695,172.154,191210,0,W,A*1E
$GPRMC,003849.70,A,3331.3953,N,11709.8664,W,19.829,178.191,191210,0,W,A*10
$GPRMC,003852.70,A,3331.3782,N,11709.8663,W,20.979,180.702,191210,0,W,A*1A
$GPRMC,003855.70,A,3331.3610,N,11709.8671,W,20.042,180.548,191210,0,W,A*19
$GPRMC,003858.70,A,3331.3443,N,11709.8668,W,19.786,173.808,191210,0,W,A*18
$GPRMC,003901.70,A,3331.3302,N,11709.8620,W,13.574,147.985,191210,0,W,A*1D
$GPRMC,003904.70,A,3331.3244,N,11709.8561,W,4.601,139.119,191210,0,W,A*2E
$GPRMC,004016.70,A,3331.3184,N,11709.8495,W,12.279,138.464,191210,0,W,A*14
$GPRMC,004019.70,A,3331.3096,N,11709.8399,W,14.584,135.690,191210,0,W,A*15
$GPRMC,004022.70,A,3331.3055,N,11709.8274,W,14.986,87.430,191210,0,W,A*2E
$GPRMC,004025.70,A,3331.3114,N,11709.8120,W,19.096,50.463,191210,0,W,A*26
$GPRMC,004028.70,A,3331.3241,N,11709.7950,W,24.765,48.466,191210,0,W,A*21
$GPRMC,004031.70,A,3331.3394,N,11709.7748,W,27.478,47.400,191210,0,W,A*24
$GPRMC,004034.70,A,3331.3560,N,11709.7535,W,29.362,47.868,191210,0,W,A*24
$GPRMC,004037.70,A,3331.3705,N,11709.7346,W,19.810,49.290,191210,0,W,A*2A
$GPRMC,004040.70,A,3331.3782,N,11709.7248,W,8.404,46.070,191210,0,W,A*10
$GPRMC,004119.70,A,3331.3832,N,11709.7179,W,12.306,52.518,191210,0,W,A*28
$GPRMC,004122.70,A,3331.3923,N,11709.7041,W,21.879,50.749,191210,0,W,A*2C
$GPRMC,004125.70,A,3331.4050,N,11709.6863,W,23.204,48.287,191210,0,W,A*24
$GPRMC,004128.70,A,3331.4182,N,11709.6689,W,23.394,48.152,191210,0,W,A*2E
$GPRMC,004131.70,A,3331.4317,N,11709.6500,W,26.395,50.476,191210,0,W,A*24
$GPRMC,004134.70,A,3331.4466,N,11709.6294,W,25.957,47.832,191210,0,W,A*27
$GPRMC,004137.70,A,3331.4583,N,11709.6141,W,15.141,49.167,191210,0,W,A*2E
$GPRMC,004140.70,A,3331.4603,N,11709.6022,W,13.778,117.798,191210,0,W,A*17
$GPRMC,004143.70,A,3331.4500,N,11709.5902,W,21.219,139.682,191210,0,W,A*19
$GPRMC,004146.70,A,3331.4353,N,11709.5751,W,22.699,137.092,191210,0,W,A*12
$GPRMC,004149.70,A,3331.4233,N,11709.5622,W,16.542,138.366,191210,0,W,A*1A
$GPRMC,004152.70,A,3331.4153,N,11709.5535,W,11.028,137.306,191210,0,W,A*17
$GPRMC,004216.70,A,3331.4074,N,11709.5454,W,7.057,138.243,191210,0,W,A*26
$GPRMC,004219.70,A,3331.4013,N,11709.5396,W,11.853,138.847,191210,0,W,A*14
$GPRMC,004222.70,A,3331.3934,N,11709.5313,W,13.481,137.296,191210,0,W,A*12
$GPRMC,004225.70,A,3331.3846,N,11709.5220,W,12.900,138.832,191210,0,W,A*1E
$GPRMC,004228.70,A,3331.3749,N,11709.5190,W,12.651,193.400,191210,0,W,A*1C
$GPRMC,004231.70,A,3331.3658,N,11709.5291,W,14.851,228.169,191210,0,W,A*16
$GPRMC,004234.70,A,3331.3607,N,11709.5389,W,9.995,271.818,191210,0,W,A*27
$GPRMC,004237.70,A,3331.3667,N,11709.5476,W,13.640,317.530,191210,0,W,A*1F
$GPRMC,004240.70,A,3331.3768,N,11709.5585,W,17.777,317.493,191210,0,W,A*15
$GPRMC,004243.70,A,3331.3885,N,11709.5714,W,19.327,316.527,191210,0,W,A*10
$GPRMC,004246.70,A,3331.3996,N,11709.5832,W,13.329,317.542,191210,0,W,A*1B
$GPRMC,004249.70,A,3331.4053,N,11709.5900,W,5.257,317.776,191210,0,W,A*29
$GPRMC,004252.70,A,3331.4094,N,11709.5941,W,9.703,318.805,191210,0,W,A*21
$GPRMC,004255.70,A,3331.4165,N,11709.6017,W,12.769,315.917,191210,0,W,A*19
$GPRMC,004258.70,A,3331.4250,N,11709.6116,W,12.909,313.245,191210,0,W,A*13
$GPRMC,004301.70,A,3331.4323,N,11709.6198,W,9.759,321.068,191210,0,W,A*20
$GPRMC,004304.70,A,3331.4383,N,11709.6221,W,6.325,16.814,191210,0,W,A*1A
$GPRMC,004307.70,A,3331.4428,N,11709.6185,W,6.257,44.621,191210,0,W,A*19
$GPRMC,004410.70,A,3331.4408,N,11709.6063,W,5.205,176.955,191210,0,W,A*2B
$GPRMC,004413.70,A,3331.4367,N,11709.6092,W,6.437,234.967,191210,0,W,A*28
$GPRMC,004416.70,A,3331.4328,N,11709.6147,W,7.883,221.391,191210,0,W,A*2A
$GPRMC,004419.70,A,3331.4263,N,11709.6153,W,10.225,152.779,191210,0,W,A*1B
$GPRMC,004422.70,A,3331.4176,N,11709.6073,W,13.565,138.874,191210,0,W,A*19
$GPRMC,004428.70,A,3331.4110,N,11709.6002,W,7.001,137.690,191210,0,W,A*2C
$GPRMC,004431.70,A,3331.4049,N,11709.5933,W,12.541,138.335,191210,0,W,A*11
$GPRMC,004434.70,A,3331.3970,N,11709.5852,W,12.302,138.021,191210,0,W,A*11
$GPRMC,004437.70,A,3331.3898,N,11709.5769,W,13.937,137.137,191210,0,W,A*16
$GPRMC,004440.70,A,3331.3800,N,11709.5661,W,16.673,138.703,191210,0,W,A*1A
$GPRMC,004443.70,A,3331.3710,N,11709.5564,W,11.660,136.518,191210,0,W,A*12
$GPRMC,004446.70,A,3331.3645,N,11709.5496,W,7.828,137.256,191210,0,W,A*23
$GPRMC,004455.70,A,3331.3574,N,11709.5441,W,8.668,180.864,191210,0,W,A*28
$GPRMC,004458.70,A,3331.3486,N,11709.5501,W,16.034,221.094,191210,0,W,A*13
$GPRMC,004501.70,A,3331.3372,N,11709.5630,W,19.248,225.635,191210,0,W,A*1C
$GPRMC,004504.70,A,3331.3266,N,11709.5774,W,18.482,233.674,191210,0,W,A*1F
$GPRMC,004507.70,A,3331.3196,N,11709.5938,W,17.638,245.663,191210,0,W,A*1D
$GPRMC,004510.70,A,3331.3140,N,11709.6090,W,15.444,244.589,191210,0,W,A*15
$GPRMC,004522.70,A,3331.3087,N,11709.6222,W,9.542,224.471,191210,0,W,A*2F
