NMEA Sentence Code,UTC Time,Status,Latitude,Latitude Direction,Longitude,Longitude Direction,Speed (knots),Track Angle (degrees true),Date,MagneticVariation,Magnetic Variation Direction,[FAA Mode]-Optional,Checksum
$GPRMC,185048.9,A,3343.001361,N,11610.292703,W,7.9,50.9,271110,,,A*4B
$GPRMC,185051.9,A,3343.003835,N,11610.281477,W,9.8,84.5,271110,,,A*43
$GPRMC,185054.9,A,3343.000353,N,11610.273536,W,6.9,112.8,271110,,,A*7A
$GPRMC,185118.9,A,3342.993487,N,11610.257847,W,9.7,82.3,271110,,,A*40
$GPRMC,185121.9,A,3343.003667,N,11610.239869,W,23.0,50.0,271110,,,A*70
$GPRMC,185124.9,A,3343.019071,N,11610.220057,W,25.8,47.3,271110,,,A*79
$GPRMC,185127.9,A,3343.039020,N,11610.200028,W,31.3,42.9,271110,,,A*77
$GPRMC,185130.9,A,3343.060707,N,11610.175830,W,36.7,43.7,271110,,,A*73
$GPRMC,185133.9,A,3343.081555,N,11610.149280,W,37.0,45.4,271110,,,A*77
$GPRMC,185136.9,A,3343.105452,N,11610.121984,W,38.8,44.2,271110,,,A*78
$GPRMC,185139.9,A,3343.128268,N,11610.093121,W,39.8,45.1,271110,,,A*7B
$GPRMC,185142.9,A,3343.154217,N,11610.063891,W,41.1,45.1,271110,,,A*7F
$GPRMC,185145.9,A,3343.179257,N,11610.036308,W,41.6,44.2,271110,,,A*7D
$GPRMC,185148.9,A,3343.205966,N,11610.007139,W,43.6,43.1,271110,,,A*75
$GPRMC,185151.9,A,3343.232875,N,11609.973508,W,46.3,45.4,271110,,,A*7D
$GPRMC,185154.9,A,3343.258702,N,11609.938008,W,45.1,46.8,271110,,,A*7F
$GPRMC,185157.9,A,3343.282386,N,11609.908908,W,41.2,45.6,271110,,,A*73
$GPRMC,185200.9,A,3343.308406,N,11609.882940,W,39.3,37.8,271110,,,A*74
$GPRMC,185203.9,A,3343.333348,N,11609.863338,W,35.6,30.7,271110,,,A*79
$GPRMC,185206.9,A,3343.361093,N,11609.849706,W,36.0,21.9,271110,,,A*74
$GPRMC,185209.9,A,3343.390476,N,11609.842981,W,37.5,11.2,271110,,,A*7C
$GPRMC,185212.9,A,3343.421241,N,11609.841367,W,37.3,4.0,271110,,,A*48
$GPRMC,185215.9,A,3343.454056,N,11609.843230,W,39.1,358.7,271110,,,A*49
$GPRMC,185218.9,A,3343.487098,N,11609.843201,W,39.2,0.2,271110,,,A*42
$GPRMC,185221.9,A,3343.519637,N,11609.840144,W,39.6,1.6,271110,,,A*4D
$GPRMC,185224.9,A,3343.553065,N,11609.844078,W,39.7,355.6,271110,,,A*4E
$GPRMC,185227.9,A,3343.584441,N,11609.846887,W,38.2,356.0,271110,,,A*4E
$GPRMC,185230.9,A,3343.615303,N,11609.846547,W,38.5,0.4,271110,,,A*40
$GPRMC,185233.9,A,3343.648317,N,11609.847617,W,40.1,359.8,271110,,,A*41
$GPRMC,185236.9,A,3343.682306,N,11609.848839,W,41.2,358.7,271110,,,A*43
$GPRMC,185239.9,A,3343.718539,N,11609.848586,W,42.8,359.5,271110,,,A*47
$GPRMC,185242.9,A,3343.753846,N,11609.849530,W,42.7,359.6,271110,,,A*41
$GPRMC,185245.9,A,3343.788920,N,11609.847817,W,43.3,1.2,271110,,,A*48
$GPRMC,185248.9,A,3343.826371,N,11609.847249,W,44.7,0.4,271110,,,A*45
$GPRMC,185251.9,A,3343.865882,N,11609.845946,W,47.3,0.5,271110,,,A*4D
$GPRMC,185254.9,A,3343.905816,N,11609.845128,W,48.0,0.5,271110,,,A*4E
$GPRMC,185257.9,A,3343.945335,N,11609.843923,W,47.2,0.7,271110,,,A*49
$GPRMC,185300.9,A,3343.983962,N,11609.848089,W,47.5,358.6,271110,,,A*42
$GPRMC,185303.9,A,3344.024428,N,11609.849455,W,47.9,358.2,271110,,,A*4D
$GPRMC,185306.9,A,3344.063009,N,11609.849519,W,48.1,359.1,271110,,,A*40
$GPRMC,185309.9,A,3344.105204,N,11609.849256,W,49.8,0.3,271110,,,A*48
$GPRMC,185312.9,A,3344.147245,N,11609.848090,W,50.5,0.6,271110,,,A*48
$GPRMC,185315.9,A,3344.189214,N,11609.847462,W,50.2,0.0,271110,,,A*4E
$GPRMC,185318.9,A,3344.232813,N,11609.847214,W,51.7,0.3,271110,,,A*4D
$GPRMC,185321.9,A,3344.277001,N,11609.846045,W,52.4,0.6,271110,,,A*4F
$GPRMC,185324.9,A,3344.320031,N,11609.846640,W,52.4,359.5,271110,,,A*45
$GPRMC,185327.9,A,3344.366009,N,11609.846098,W,54.5,0.2,271110,,,A*43
$GPRMC,185330.9,A,3344.409811,N,11609.847246,W,50.9,0.5,271110,,,A*45
$GPRMC,185333.9,A,3344.449864,N,11609.845841,W,48.6,0.6,271110,,,A*4A
$GPRMC,185336.9,A,3344.491927,N,11609.845263,W,50.2,0.2,271110,,,A*4F
$GPRMC,185339.9,A,3344.532557,N,11609.845543,W,49.1,359.8,271110,,,A*48
$GPRMC,185342.9,A,3344.572800,N,11609.849410,W,48.6,358.1,271110,,,A*4A
$GPRMC,185345.9,A,3344.614687,N,11609.849071,W,49.0,0.7,271110,,,A*43
$GPRMC,185348.9,A,3344.655591,N,11609.848398,W,49.2,0.7,271110,,,A*48
$GPRMC,185351.9,A,3344.694870,N,11609.848934,W,48.4,359.5,271110,,,A*49
$GPRMC,185354.9,A,3344.737123,N,11609.848129,W,48.6,0.1,271110,,,A*46
$GPRMC,185357.9,A,3344.776115,N,11609.846894,W,48.1,0.5,271110,,,A*47
$GPRMC,185400.9,A,3344.817844,N,11609.848102,W,49.8,359.0,271110,,,A*4D
$GPRMC,185403.9,A,3344.860284,N,11609.853290,W,50.1,351.8,271110,,,A*4B
$GPRMC,185406.9,A,3344.899893,N,11609.865942,W,49.2,344.2,271110,,,A*40
$GPRMC,185409.9,A,3344.937750,N,11609.880983,W,48.5,342.2,271110,,,A*4C
$GPRMC,185412.9,A,3344.977049,N,11609.896419,W,49.0,341.6,271110,,,A*47
$GPRMC,185415.9,A,3345.016226,N,11609.912476,W,49.4,342.1,271110,,,A*40
$GPRMC,185418.9,A,3345.054755,N,11609.924662,W,47.9,343.6,271110,,,A*4D
$GPRMC,185421.9,A,3345.092435,N,11609.941116,W,47.7,341.3,271110,,,A*46
$GPRMC,185424.9,A,3345.128643,N,11609.957342,W,45.4,340.9,271110,,,A*4E
$GPRMC,185427.9,A,3345.162188,N,11609.974075,W,44.6,340.3,271110,,,A*4C
$GPRMC,185430.9,A,3345.201031,N,11609.985769,W,46.2,342.8,271110,,,A*44
$GPRMC,185433.2,A,3345.229126,N,11609.996653,W,46.3,341.8,271110,,,A*49
$GPRMC,185436.2,A,3345.266766,N,11610.012096,W,48.7,342.0,271110,,,A*46
$GPRMC,185439.2,A,3345.305648,N,11610.027703,W,50.3,341.1,271110,,,A*42
$GPRMC,185442.2,A,3345.346068,N,11610.043867,W,51.5,341.6,271110,,,A*42
$GPRMC,185445.2,A,3345.387271,N,11610.059804,W,51.7,341.9,271110,,,A*41
$GPRMC,185448.9,A,3345.437275,N,11610.079342,W,50.7,341.5,271110,,,A*49
$GPRMC,185451.9,A,3345.477597,N,11610.093927,W,49.6,342.6,271110,,,A*4A
$GPRMC,185454.9,A,3345.514985,N,11610.110890,W,48.0,341.8,271110,,,A*49
$GPRMC,185457.9,A,3345.552089,N,11610.125767,W,47.5,341.5,271110,,,A*4B
$GPRMC,185500.9,A,3345.591104,N,11610.139588,W,47.9,342.5,271110,,,A*42
$GPRMC,185503.9,A,3345.628689,N,11610.156030,W,48.1,340.5,271110,,,A*48
$GPRMC,185506.9,A,3345.668541,N,11610.168962,W,48.7,342.9,271110,,,A*45
$GPRMC,185509.9,A,3345.705273,N,11610.185744,W,48.4,341.3,271110,,,A*45
$GPRMC,185512.9,A,3345.744237,N,11610.199897,W,48.6,342.6,271110,,,A*42
$GPRMC,185515.9,A,3345.781759,N,11610.213799,W,47.9,342.4,271110,,,A*43
$GPRMC,185518.9,A,3345.818718,N,11610.231091,W,47.3,339.7,271110,,,A*4E
$GPRMC,185521.9,A,3345.855027,N,11610.244725,W,45.8,342.0,271110,,,A*4E
$GPRMC,185524.9,A,3345.891725,N,11610.257620,W,46.4,342.8,271110,,,A*47
$GPRMC,185527.9,A,3345.930090,N,11610.271705,W,47.3,342.3,271110,,,A*48
$GPRMC,185530.9,A,3345.968196,N,11610.286715,W,47.6,342.2,271110,,,A*49
$GPRMC,185533.9,A,3346.005589,N,11610.301715,W,47.3,341.7,271110,,,A*4C
$GPRMC,185536.9,A,3346.040591,N,11610.317698,W,46.2,341.1,271110,,,A*44
$GPRMC,185539.9,A,3346.078798,N,11610.332060,W,48.4,342.8,271110,,,A*4F
$GPRMC,185542.9,A,3346.117460,N,11610.345900,W,46.8,342.2,271110,,,A*48
$GPRMC,185545.9,A,3346.155363,N,11610.360172,W,47.6,342.6,271110,,,A*4C
$GPRMC,185548.9,A,3346.192436,N,11610.375081,W,47.6,342.6,271110,,,A*44
$GPRMC,185551.9,A,3346.231438,N,11610.389763,W,48.7,342.6,271110,,,A*4E
$GPRMC,185554.9,A,3346.268547,N,11610.407441,W,48.2,341.4,271110,,,A*48
$GPRMC,185557.9,A,3346.307063,N,11610.422185,W,49.1,341.6,271110,,,A*4A
$GPRMC,185600.9,A,3346.347234,N,11610.436863,W,48.7,342.0,271110,,,A*49
$GPRMC,185603.9,A,3346.383815,N,11610.452598,W,47.7,341.4,271110,,,A*48
$GPRMC,185606.9,A,3346.420900,N,11610.469604,W,47.9,340.1,271110,,,A*42
$GPRMC,185609.9,A,3346.458301,N,11610.484167,W,47.6,341.1,271110,,,A*46
$GPRMC,185612.9,A,3346.495893,N,11610.499326,W,47.4,340.3,271110,,,A*47
$GPRMC,185615.9,A,3346.532688,N,11610.516576,W,47.1,340.7,271110,,,A*4C
$GPRMC,185618.9,A,3346.569816,N,11610.531892,W,46.0,340.4,271110,,,A*47
$GPRMC,185621.9,A,3346.603490,N,11610.548281,W,44.9,338.6,271110,,,A*40
$GPRMC,185624.9,A,3346.638980,N,11610.564532,W,44.6,339.2,271110,,,A*4A
$GPRMC,185627.9,A,3346.674933,N,11610.580137,W,45.2,340.0,271110,,,A*4B
$GPRMC,185630.9,A,3346.710705,N,11610.592109,W,45.6,342.7,271110,,,A*4A
$GPRMC,185633.9,A,3346.745935,N,11610.608376,W,45.8,339.3,271110,,,A*48
$GPRMC,185636.9,A,3346.782100,N,11610.625479,W,47.3,339.9,271110,,,A*4C
$GPRMC,185639.9,A,3346.819443,N,11610.640769,W,46.6,341.0,271110,,,A*4F
$GPRMC,185642.9,A,3346.856114,N,11610.657771,W,47.6,339.3,271110,,,A*4D
$GPRMC,185645.9,A,3346.892742,N,11610.674450,W,47.7,339.4,271110,,,A*40
$GPRMC,185648.9,A,3346.930850,N,11610.689630,W,48.2,340.8,271110,,,A*46
$GPRMC,185651.9,A,3346.967347,N,11610.705745,W,47.9,340.4,271110,,,A*4F
$GPRMC,185654.9,A,3347.005124,N,11610.721470,W,48.6,340.8,271110,,,A*4E
$GPRMC,185657.9,A,3347.044072,N,11610.738479,W,48.4,341.0,271110,,,A*40
$GPRMC,185700.9,A,3347.081250,N,11610.754378,W,47.0,340.7,271110,,,A*49
$GPRMC,185703.9,A,3347.118153,N,11610.767696,W,46.4,343.4,271110,,,A*4B
$GPRMC,185706.9,A,3347.154957,N,11610.782058,W,46.1,341.8,271110,,,A*4E
$GPRMC,185709.9,A,3347.191360,N,11610.800102,W,47.6,339.9,271110,,,A*45
$GPRMC,185712.9,A,3347.229598,N,11610.815613,W,49.4,341.7,271110,,,A*40
$GPRMC,185715.9,A,3347.267705,N,11610.831717,W,47.8,340.7,271110,,,A*4B
$GPRMC,185718.9,A,3347.304382,N,11610.847000,W,46.0,341.3,271110,,,A*45
$GPRMC,185721.9,A,3347.338840,N,11610.865186,W,45.5,338.1,271110,,,A*40
$GPRMC,185724.9,A,3347.374267,N,11610.881981,W,46.5,339.6,271110,,,A*42
$GPRMC,185727.9,A,3347.410146,N,11610.899245,W,47.6,339.3,271110,,,A*49
$GPRMC,185730.9,A,3347.447469,N,11610.912789,W,45.2,340.7,271110,,,A*4E
$GPRMC,185733.9,A,3347.484430,N,11610.925714,W,44.5,341.9,271110,,,A*47
$GPRMC,185736.9,A,3347.521088,N,11610.943811,W,47.4,338.6,271110,,,A*42
$GPRMC,185739.9,A,3347.556871,N,11610.960192,W,47.4,339.6,271110,,,A*41
$GPRMC,185742.9,A,3347.594329,N,11610.975441,W,48.3,341.4,271110,,,A*4F
$GPRMC,185745.9,A,3347.632240,N,11610.992448,W,48.8,340.0,271110,,,A*47
$GPRMC,185748.9,A,3347.669816,N,11611.008619,W,47.8,340.7,271110,,,A*48
$GPRMC,185751.9,A,3347.706939,N,11611.024606,W,47.2,340.2,271110,,,A*4B
$GPRMC,185754.9,A,3347.742180,N,11611.039946,W,46.2,339.6,271110,,,A*48
$GPRMC,185757.9,A,3347.777482,N,11611.056178,W,45.5,340.0,271110,,,A*4A
$GPRMC,185800.9,A,3347.815100,N,11611.071186,W,45.7,341.4,271110,,,A*40
$GPRMC,185803.9,A,3347.852399,N,11611.084683,W,45.7,340.8,271110,,,A*47
$GPRMC,185806.9,A,3347.885502,N,11611.101346,W,44.2,338.1,271110,,,A*4E
$GPRMC,185809.9,A,3347.918064,N,11611.116364,W,41.6,339.5,271110,,,A*43
$GPRMC,185812.9,A,3347.946028,N,11611.130567,W,34.4,338.5,271110,,,A*4A
$GPRMC,185815.9,A,3347.967306,N,11611.140027,W,24.2,342.9,271110,,,A*41
$GPRMC,185818.9,A,3347.978291,N,11611.141267,W,12.5,359.0,271110,,,A*4B
$GPRMC,185821.9,A,3347.988428,N,11611.129242,W,17.2,47.8,271110,,,A*75
$GPRMC,185824.9,A,3347.998939,N,11611.109860,W,23.6,58.1,271110,,,A*70
$GPRMC,185827.9,A,3348.010862,N,11611.088888,W,26.5,56.6,271110,,,A*7B
$GPRMC,185830.9,A,3348.023846,N,11611.064300,W,30.6,53.6,271110,,,A*73
$GPRMC,185833.9,A,3348.041449,N,11611.040261,W,31.7,45.2,271110,,,A*74
$GPRMC,185836.9,A,3348.063358,N,11611.019097,W,33.5,38.5,271110,,,A*7C
$GPRMC,185839.9,A,3348.084272,N,11610.997936,W,32.2,37.3,271110,,,A*70
$GPRMC,185842.9,A,3348.105438,N,11610.979300,W,31.6,37.4,271110,,,A*73
$GPRMC,185845.9,A,3348.125847,N,11610.960653,W,30.0,37.7,271110,,,A*7D
$GPRMC,185848.9,A,3348.144134,N,11610.946431,W,27.1,34.6,271110,,,A*7D
$GPRMC,185851.9,A,3348.162475,N,11610.931486,W,26.6,35.4,271110,,,A*78
$GPRMC,185854.9,A,3348.179533,N,11610.915213,W,28.2,40.7,271110,,,A*73
$GPRMC,185857.9,A,3348.197705,N,11610.898048,W,28.9,38.6,271110,,,A*7A
$GPRMC,185900.9,A,3348.219788,N,11610.877111,W,34.8,38.0,271110,,,A*7F
$GPRMC,185903.9,A,3348.245462,N,11610.855588,W,37.4,35.6,271110,,,A*72
$GPRMC,185906.9,A,3348.268231,N,11610.832568,W,36.8,37.4,271110,,,A*7A
$GPRMC,185909.9,A,3348.294467,N,11610.807361,W,39.2,37.8,271110,,,A*73
$GPRMC,185912.9,A,3348.320598,N,11610.783398,W,38.8,36.9,271110,,,A*78
$GPRMC,185915.9,A,3348.344227,N,11610.761504,W,37.0,38.5,271110,,,A*74
$GPRMC,185918.9,A,3348.370999,N,11610.738184,W,40.5,37.3,271110,,,A*7C
$GPRMC,185921.9,A,3348.398443,N,11610.711941,W,41.4,36.5,271110,,,A*77
$GPRMC,185924.9,A,3348.424648,N,11610.689327,W,40.7,36.6,271110,,,A*70
$GPRMC,185927.9,A,3348.452528,N,11610.665362,W,41.6,36.7,271110,,,A*75
$GPRMC,185930.9,A,3348.479279,N,11610.639305,W,41.7,37.8,271110,,,A*7E
$GPRMC,185933.9,A,3348.507047,N,11610.614620,W,40.2,36.6,271110,,,A*7C
$GPRMC,185936.9,A,3348.533249,N,11610.592701,W,40.6,36.3,271110,,,A*7C
$GPRMC,185939.9,A,3348.558439,N,11610.568416,W,37.7,37.8,271110,,,A*74
$GPRMC,185942.9,A,3348.582387,N,11610.546478,W,37.8,36.6,271110,,,A*79
$GPRMC,185945.9,A,3348.607532,N,11610.523161,W,37.5,36.9,271110,,,A*74
$GPRMC,185948.9,A,3348.630275,N,11610.501740,W,34.3,38.4,271110,,,A*7A
$GPRMC,185951.9,A,3348.650622,N,11610.485415,W,31.2,36.4,271110,,,A*76
$GPRMC,185954.9,A,3348.667595,N,11610.469228,W,26.3,37.6,271110,,,A*76
$GPRMC,185957.9,A,3348.682651,N,11610.456740,W,21.3,36.4,271110,,,A*76
$GPRMC,190000.9,A,3348.692273,N,11610.443742,W,18.7,45.9,271110,,,A*7D
$GPRMC,190003.9,A,3348.699726,N,11610.433232,W,17.2,47.6,271110,,,A*72
$GPRMC,190006.9,A,3348.708284,N,11610.416867,W,21.1,59.2,271110,,,A*73
$GPRMC,190009.9,A,3348.717469,N,11610.391749,W,26.5,65.1,271110,,,A*73
$GPRMC,190012.9,A,3348.724605,N,11610.368675,W,22.6,66.8,271110,,,A*74
$GPRMC,190015.9,A,3348.729587,N,11610.348982,W,21.2,72.9,271110,,,A*71
$GPRMC,190018.9,A,3348.733490,N,11610.326422,W,23.8,75.9,271110,,,A*70
$GPRMC,190021.9,A,3348.739596,N,11610.308288,W,19.6,66.3,271110,,,A*72
$GPRMC,190024.9,A,3348.745151,N,11610.295717,W,12.4,58.6,271110,,,A*74
$GPRMC,190027.9,A,3348.752726,N,11610.288175,W,9.7,42.5,271110,,,A*48
$GPRMC,190030.9,A,3348.758147,N,11610.282058,W,8.6,47.7,271110,,,A*46
$GPRMC,190033.9,A,3348.762373,N,11610.275146,W,9.2,54.1,271110,,,A*4E
$GPRMC,190036.9,A,3348.765846,N,11610.269099,W,8.1,60.3,271110,,,A*48
$GPRMC,190039.9,A,3348.769549,N,11610.260384,W,12.3,52.1,271110,,,A*75
$GPRMC,190042.9,A,3348.780328,N,11610.251443,W,16.2,30.9,271110,,,A*78
$GPRMC,190045.9,A,3348.796792,N,11610.244806,W,21.1,12.0,271110,,,A*7A
$GPRMC,190048.9,A,3348.815208,N,11610.252808,W,23.5,342.1,271110,,,A*4D
$GPRMC,190051.9,A,3348.833647,N,11610.267659,W,25.6,329.8,271110,,,A*43
$GPRMC,190054.9,A,3348.850062,N,11610.278812,W,22.6,335.6,271110,,,A*49
$GPRMC,190057.9,A,3348.866637,N,11610.286919,W,20.3,336.3,271110,,,A*43
$GPRMC,190100.9,A,3348.879341,N,11610.293318,W,16.3,344.1,271110,,,A*47
$GPRMC,190103.9,A,3348.888701,N,11610.296251,W,11.7,341.2,271110,,,A*46
$GPRMC,190106.9,A,3348.898498,N,11610.298684,W,10.3,347.0,271110,,,A*42
$GPRMC,190109.9,A,3348.906556,N,11610.297167,W,11.4,1.5,271110,,,A*4F
$GPRMC,190112.9,A,3348.916998,N,11610.293875,W,13.5,10.0,271110,,,A*72
$GPRMC,190115.9,A,3348.930161,N,11610.291956,W,13.5,9.9,271110,,,A*4C
$GPRMC,190118.9,A,3348.938643,N,11610.290002,W,10.5,11.4,271110,,,A*70
$GPRMC,190121.9,A,3348.946742,N,11610.288889,W,12.9,4.7,271110,,,A*48
$GPRMC,190124.9,A,3348.958258,N,11610.287481,W,14.6,6.9,271110,,,A*42
$GPRMC,190127.9,A,3348.971854,N,11610.282398,W,15.5,13.2,271110,,,A*7B
$GPRMC,190130.9,A,3348.984912,N,11610.280093,W,16.2,11.6,271110,,,A*7C
$GPRMC,190133.9,A,3348.995980,N,11610.277719,W,15.9,13.0,271110,,,A*75
$GPRMC,190136.9,A,3349.012632,N,11610.275177,W,20.7,7.8,271110,,,A*48
$GPRMC,190139.9,A,3349.029230,N,11610.266377,W,21.4,17.0,271110,,,A*72
$GPRMC,190142.9,A,3349.048227,N,11610.261376,W,25.3,12.8,271110,,,A*77
$GPRMC,190145.9,A,3349.068078,N,11610.259048,W,23.9,8.9,271110,,,A*49
$GPRMC,190148.9,A,3349.087144,N,11610.254706,W,22.8,11.3,271110,,,A*79
$GPRMC,190151.9,A,3349.103502,N,11610.250178,W,19.4,15.2,271110,,,A*70
$GPRMC,190154.9,A,3349.116747,N,11610.239909,W,20.1,32.4,271110,,,A*7F
$GPRMC,190157.9,A,3349.128665,N,11610.230010,W,18.1,37.0,271110,,,A*72
$GPRMC,190200.9,A,3349.139660,N,11610.216767,W,17.6,43.5,271110,,,A*7B
$GPRMC,190203.9,A,3349.144882,N,11610.207844,W,12.7,42.6,271110,,,A*78
$GPRMC,190206.9,A,3349.147771,N,11610.202895,W,7.3,52.1,271110,,,A*42
$GPRMC,190209.9,A,3349.158211,N,11610.193653,W,20.0,42.3,271110,,,A*7A
$GPRMC,190212.9,A,3349.172202,N,11610.177492,W,24.2,47.2,271110,,,A*7D
$GPRMC,190215.9,A,3349.185155,N,11610.159433,W,23.5,49.6,271110,,,A*7E
$GPRMC,190218.9,A,3349.196799,N,11610.142209,W,24.2,51.0,271110,,,A*7D
$GPRMC,190221.9,A,3349.208035,N,11610.128293,W,20.4,45.9,271110,,,A*73
$GPRMC,190224.9,A,3349.220828,N,11610.114937,W,20.1,42.7,271110,,,A*7E
$GPRMC,190227.9,A,3349.229820,N,11610.097824,W,21.7,49.3,271110,,,A*7D
$GPRMC,190230.9,A,3349.244596,N,11610.081177,W,24.4,45.2,271110,,,A*73
$GPRMC,190233.9,A,3349.260424,N,11610.063757,W,25.5,45.3,271110,,,A*77
$GPRMC,190236.9,A,3349.276803,N,11610.043384,W,27.0,46.7,271110,,,A*74
$GPRMC,190239.9,A,3349.290332,N,11610.025622,W,25.8,47.2,271110,,,A*7D
$GPRMC,190242.9,A,3349.305025,N,11610.006047,W,25.7,46.7,271110,,,A*76
$GPRMC,190245.9,A,3349.319627,N,11609.989257,W,24.6,47.9,271110,,,A*72
$GPRMC,190248.9,A,3349.333133,N,11609.969850,W,24.9,51.7,271110,,,A*70
$GPRMC,190251.9,A,3349.344038,N,11609.952260,W,23.6,54.9,271110,,,A*70
$GPRMC,190254.9,A,3349.353839,N,11609.931277,W,23.7,59.7,271110,,,A*7B
$GPRMC,190257.9,A,3349.361162,N,11609.908058,W,24.9,64.7,271110,,,A*7C
$GPRMC,190300.9,A,3349.371677,N,11609.889510,W,21.3,59.5,271110,,,A*7F
$GPRMC,190303.9,A,3349.377957,N,11609.872177,W,18.1,64.2,271110,,,A*77
$GPRMC,190306.9,A,3349.383395,N,11609.859386,W,13.2,66.3,271110,,,A*73
$GPRMC,190309.9,A,3349.386169,N,11609.848617,W,12.2,73.0,271110,,,A*73
$GPRMC,190312.9,A,3349.387984,N,11609.836163,W,13.5,75.8,271110,,,A*76
$GPRMC,190315.9,A,3349.391746,N,11609.821019,W,14.7,74.8,271110,,,A*78
$GPRMC,190318.9,A,3349.394007,N,11609.807981,W,14.8,73.4,271110,,,A*7A
$GPRMC,190321.9,A,3349.397930,N,11609.794145,W,14.2,72.5,271110,,,A*71
$GPRMC,190324.9,A,3349.401587,N,11609.781707,W,11.9,66.0,271110,,,A*76
$GPRMC,190327.9,A,3349.405056,N,11609.773705,W,9.1,64.7,271110,,,A*43
$GPRMC,190330.9,A,3349.409796,N,11609.770524,W,4.8,47.4,271110,,,A*46
$GPRMC,190333.2,A,3349.408098,N,11609.766783,W,4.7,63.5,271110,,,A*46
$GPRMC,190345.9,A,3349.412918,N,11609.755684,W,4.8,35.9,271110,,,A*40
$GPRMC,190348.9,A,3349.414259,N,11609.750975,W,6.2,69.0,271110,,,A*49
$GPRMC,190351.9,A,3349.414567,N,11609.742395,W,6.9,78.0,271110,,,A*47
$GPRMC,190354.9,A,3349.417197,N,11609.736321,W,6.9,68.0,271110,,,A*47
$GPRMC,190357.9,A,3349.418450,N,11609.732056,W,6.2,64.5,271110,,,A*40
$GPRMC,190400.9,A,3349.420385,N,11609.723607,W,8.2,70.3,271110,,,A*4E
$GPRMC,190403.9,A,3349.424313,N,11609.716278,W,8.5,63.0,271110,,,A*4A
$GPRMC,190406.9,A,3349.429907,N,11609.707207,W,10.3,58.1,271110,,,A*73
$GPRMC,190409.9,A,3349.436320,N,11609.698982,W,10.5,48.4,271110,,,A*7E
$GPRMC,190412.9,A,3349.445088,N,11609.688244,W,13.9,53.3,271110,,,A*73
$GPRMC,190415.9,A,3349.449946,N,11609.675657,W,15.0,57.5,271110,,,A*7A
$GPRMC,190418.9,A,3349.452847,N,11609.663710,W,12.0,76.2,271110,,,A*7B
$GPRMC,190421.9,A,3349.458325,N,11609.652341,W,13.2,59.3,271110,,,A*79
$GPRMC,190424.9,A,3349.463924,N,11609.643202,W,12.0,55.9,271110,,,A*7C
$GPRMC,190427.9,A,3349.466427,N,11609.630470,W,13.1,69.2,271110,,,A*77
$GPRMC,190430.9,A,3349.472119,N,11609.618478,W,13.7,58.9,271110,,,A*71
$GPRMC,190433.9,A,3349.478299,N,11609.608739,W,14.1,62.3,271110,,,A*76
$GPRMC,190436.9,A,3349.483424,N,11609.597087,W,13.1,57.4,271110,,,A*76
$GPRMC,190439.9,A,3349.492340,N,11609.584919,W,14.0,48.5,271110,,,A*79
$GPRMC,190442.9,A,3349.499373,N,11609.574987,W,11.7,48.8,271110,,,A*79
$GPRMC,190445.9,A,3349.503719,N,11609.568722,W,8.1,48.4,271110,,,A*4A
$GPRMC,190448.9,A,3349.506174,N,11609.564227,W,6.1,66.3,271110,,,A*46
$GPRMC,190451.9,A,3349.506847,N,11609.557941,W,8.4,69.7,271110,,,A*4C
$GPRMC,190454.9,A,3349.510818,N,11609.546749,W,11.8,64.1,271110,,,A*7D
$GPRMC,190457.9,A,3349.516751,N,11609.536210,W,11.3,63.3,271110,,,A*7A
$GPRMC,190500.9,A,3349.521225,N,11609.526713,W,8.2,67.6,271110,,,A*44
$GPRMC,190509.9,A,3349.524311,N,11609.516818,W,5.2,71.6,271110,,,A*43
$GPRMC,190512.9,A,3349.524412,N,11609.510901,W,6.7,86.7,271110,,,A*4D
$GPRMC,190515.9,A,3349.523337,N,11609.503868,W,6.3,92.8,271110,,,A*4F
$GPRMC,190518.9,A,3349.523114,N,11609.499265,W,4.4,89.1,271110,,,A*42
$GPRMC,190533.9,A,3349.524959,N,11609.485575,W,4.8,78.6,271110,,,A*43
$GPRMC,190542.9,A,3349.531462,N,11609.477988,W,5.8,47.7,271110,,,A*4B
$GPRMC,190545.9,A,3349.537147,N,11609.468076,W,12.2,58.0,271110,,,A*7B
$GPRMC,190548.9,A,3349.546230,N,11609.454841,W,14.3,63.4,271110,,,A*7B
$GPRMC,190551.9,A,3349.549324,N,11609.443106,W,11.8,71.7,271110,,,A*7A
$GPRMC,190554.9,A,3349.554509,N,11609.433048,W,10.7,58.1,271110,,,A*75
$GPRMC,190557.9,A,3349.561762,N,11609.425756,W,11.5,22.5,271110,,,A*7A
$GPRMC,190600.9,A,3349.573918,N,11609.425722,W,14.5,359.9,271110,,,A*4E
$GPRMC,190603.9,A,3349.585476,N,11609.422726,W,14.4,13.0,271110,,,A*77
$GPRMC,190606.9,A,3349.596502,N,11609.417325,W,15.0,30.4,271110,,,A*73
$GPRMC,190609.9,A,3349.604838,N,11609.402308,W,17.0,51.4,271110,,,A*7E
$GPRMC,190612.9,A,3349.610925,N,11609.389560,W,14.0,58.6,271110,,,A*78
$GPRMC,190615.9,A,3349.618565,N,11609.374078,W,16.9,60.0,271110,,,A*77
$GPRMC,190618.9,A,3349.622815,N,11609.356255,W,19.7,72.2,271110,,,A*74
$GPRMC,190621.9,A,3349.626104,N,11609.335164,W,21.2,81.3,271110,,,A*74
$GPRMC,190624.9,A,3349.629977,N,11609.314521,W,23.2,71.4,271110,,,A*7E
$GPRMC,190627.9,A,3349.638132,N,11609.289647,W,24.6,69.7,271110,,,A*7B
$GPRMC,190630.9,A,3349.643984,N,11609.267314,W,23.1,70.7,271110,,,A*7F
$GPRMC,190633.9,A,3349.648484,N,11609.250711,W,16.7,81.0,271110,,,A*76
$GPRMC,190636.9,A,3349.644628,N,11609.238049,W,13.3,111.6,271110,,,A*40
$GPRMC,190639.9,A,3349.634944,N,11609.230503,W,12.6,147.1,271110,,,A*4E
$GPRMC,190642.9,A,3349.625117,N,11609.226271,W,11.3,153.5,271110,,,A*4E
$GPRMC,190646.0,A,3349.617318,N,11609.225093,W,8.0,162.6,271110,,,A*78
$GPRMC,190652.9,A,3349.612127,N,11609.211704,W,8.3,116.5,271110,,,A*72
$GPRMC,190655.9,A,3349.610180,N,11609.202840,W,9.1,114.6,271110,,,A*75
$GPRMC,190658.9,A,3349.610056,N,11609.191995,W,10.4,91.5,271110,,,A*70
$GPRMC,190702.0,A,3349.609906,N,11609.183628,W,7.4,96.1,271110,,,A*4C
$GPRMC,190705.2,A,3349.611765,N,11609.173144,W,8.8,71.5,271110,,,A*47
$GPRMC,190708.2,A,3349.617457,N,11609.165896,W,11.8,45.1,271110,,,A*74
$GPRMC,190711.2,A,3349.623834,N,11609.154260,W,14.7,65.3,271110,,,A*79
$GPRMC,190714.2,A,3349.630360,N,11609.142273,W,13.1,54.0,271110,,,A*71
$GPRMC,190717.9,A,3349.637779,N,11609.129575,W,12.4,55.2,271110,,,A*79
$GPRMC,190720.9,A,3349.644765,N,11609.117153,W,15.2,64.0,271110,,,A*78
$GPRMC,190723.9,A,3349.651385,N,11609.100146,W,18.5,71.3,271110,,,A*7A
$GPRMC,190726.9,A,3349.652353,N,11609.080300,W,19.1,78.6,271110,,,A*77
$GPRMC,190729.9,A,3349.655960,N,11609.062750,W,18.2,77.5,271110,,,A*76
$GPRMC,190732.9,A,3349.661822,N,11609.046785,W,16.7,69.0,271110,,,A*73
$GPRMC,190735.9,A,3349.665136,N,11609.035981,W,8.3,66.6,271110,,,A*40
$GPRMC,190741.9,A,3349.671565,N,11609.029624,W,9.3,50.4,271110,,,A*4F
$GPRMC,190744.9,A,3349.680486,N,11609.014939,W,20.2,56.6,271110,,,A*7B
$GPRMC,190747.9,A,3349.689630,N,11608.993720,W,27.0,65.3,271110,,,A*7F
$GPRMC,190750.9,A,3349.695032,N,11608.964050,W,28.6,79.6,271110,,,A*79
$GPRMC,190753.9,A,3349.702959,N,11608.936311,W,26.6,69.2,271110,,,A*7B
$GPRMC,190756.9,A,3349.713976,N,11608.916882,W,23.3,62.8,271110,,,A*71
$GPRMC,190759.9,A,3349.716701,N,11608.897743,W,15.3,74.5,271110,,,A*70
$GPRMC,190802.9,A,3349.724533,N,11608.887061,W,15.6,50.6,271110,,,A*75
$GPRMC,190805.9,A,3349.734354,N,11608.872379,W,19.1,54.8,271110,,,A*75
$GPRMC,190808.9,A,3349.742706,N,11608.855466,W,18.7,66.3,271110,,,A*7B
$GPRMC,190811.9,A,3349.751201,N,11608.840573,W,18.5,54.6,271110,,,A*74
$GPRMC,190814.9,A,3349.759025,N,11608.822379,W,20.2,67.1,271110,,,A*7E
$GPRMC,190817.9,A,3349.759448,N,11608.800428,W,23.1,87.5,271110,,,A*7B
$GPRMC,190820.9,A,3349.760506,N,11608.778339,W,21.5,86.6,271110,,,A*7D
$GPRMC,190823.9,A,3349.763156,N,11608.759954,W,18.2,80.6,271110,,,A*75
$GPRMC,190826.9,A,3349.763535,N,11608.745637,W,15.2,84.9,271110,,,A*70
$GPRMC,190829.9,A,3349.763507,N,11608.730872,W,14.2,92.1,271110,,,A*7D
$GPRMC,190832.9,A,3349.762538,N,11608.714885,W,16.2,91.8,271110,,,A*7C
$GPRMC,190835.9,A,3349.761097,N,11608.698998,W,17.3,93.9,271110,,,A*73
$GPRMC,190838.9,A,3349.759289,N,11608.680510,W,17.9,98.2,271110,,,A*77
$GPRMC,190841.9,A,3349.755218,N,11608.661083,W,19.3,98.2,271110,,,A*79
$GPRMC,190844.9,A,3349.757473,N,11608.642584,W,19.9,81.0,271110,,,A*76
$GPRMC,190847.9,A,3349.762494,N,11608.619517,W,24.7,80.4,271110,,,A*7B
$GPRMC,190850.9,A,3349.767999,N,11608.593971,W,25.4,77.2,271110,,,A*79
$GPRMC,190853.9,A,3349.769761,N,11608.570122,W,25.2,89.6,271110,,,A*7D
$GPRMC,190856.0,A,3349.765945,N,11608.555355,W,21.3,103.3,271110,,,A*43
$GPRMC,190859.9,A,3349.766771,N,11608.534153,W,16.6,76.6,271110,,,A*7B
$GPRMC,190902.9,A,3349.770596,N,11608.516309,W,19.7,78.9,271110,,,A*7A
$GPRMC,190905.9,A,3349.773634,N,11608.493822,W,21.2,88.0,271110,,,A*73
$GPRMC,190908.9,A,3349.772278,N,11608.477083,W,14.9,96.2,271110,,,A*7A
$GPRMC,190911.9,A,3349.768886,N,11608.469225,W,8.3,110.9,271110,,,A*70
$GPRMC,190926.9,A,3349.761261,N,11608.448207,W,16.2,101.9,271110,,,A*43
$GPRMC,190929.9,A,3349.762864,N,11608.426806,W,20.7,88.4,271110,,,A*7E
$GPRMC,190932.9,A,3349.763388,N,11608.408073,W,17.7,78.8,271110,,,A*7D
$GPRMC,190935.9,A,3349.770363,N,11608.391615,W,18.0,64.8,271110,,,A*79
$GPRMC,190938.9,A,3349.773128,N,11608.385681,W,8.6,59.6,271110,,,A*45
$GPRMC,190941.9,A,3349.772533,N,11608.381261,W,5.3,72.7,271110,,,A*4A
$GPRMC,190944.9,A,3349.772740,N,11608.375038,W,7.7,98.5,271110,,,A*4C
$GPRMC,190947.9,A,3349.774045,N,11608.361458,W,12.4,79.8,271110,,,A*79
$GPRMC,190950.9,A,3349.776327,N,11608.346725,W,14.2,69.3,271110,,,A*7C
$GPRMC,190953.9,A,3349.781676,N,11608.336664,W,13.3,48.2,271110,,,A*71
$GPRMC,190956.9,A,3349.793639,N,11608.329803,W,16.5,24.2,271110,,,A*74
$GPRMC,190959.9,A,3349.809002,N,11608.319681,W,17.9,26.8,271110,,,A*7B
$GPRMC,191002.9,A,3349.820998,N,11608.311491,W,15.4,31.4,271110,,,A*72
$GPRMC,191005.9,A,3349.830664,N,11608.304652,W,12.8,35.6,271110,,,A*7C
$GPRMC,191008.9,A,3349.836443,N,11608.298082,W,11.0,43.1,271110,,,A*72
$GPRMC,191011.9,A,3349.841457,N,11608.289420,W,11.0,50.9,271110,,,A*79
$GPRMC,191014.9,A,3349.850736,N,11608.279559,W,14.0,47.5,271110,,,A*77
$GPRMC,191017.9,A,3349.859300,N,11608.270078,W,13.8,43.1,271110,,,A*7C
$GPRMC,191020.9,A,3349.872073,N,11608.260019,W,18.3,45.4,271110,,,A*73
$GPRMC,191023.9,A,3349.881770,N,11608.244966,W,19.2,43.4,271110,,,A*79
$GPRMC,191026.9,A,3349.894332,N,11608.232600,W,18.0,47.3,271110,,,A*74
$GPRMC,191030.0,A,3349.903459,N,11608.219950,W,18.2,44.8,271110,,,A*76
$GPRMC,191033.9,A,3349.922548,N,11608.209025,W,16.6,26.5,271110,,,A*77
$GPRMC,191036.9,A,3349.932397,N,11608.205172,W,11.7,21.2,271110,,,A*7E
$GPRMC,191039.9,A,3349.935299,N,11608.203387,W,4.4,21.4,271110,,,A*46
$GPRMC,191048.9,A,3349.941653,N,11608.199860,W,4.6,50.2,271110,,,A*41
$GPRMC,191107.9,A,3349.954519,N,11608.184699,W,6.3,46.8,271110,,,A*4C
$GPRMC,191110.9,A,3349.960723,N,11608.178983,W,8.2,38.7,271110,,,A*48
$GPRMC,191113.9,A,3349.968757,N,11608.177733,W,9.7,15.4,271110,,,A*42
$GPRMC,191116.9,A,3349.978818,N,11608.173908,W,12.0,9.6,271110,,,A*42
$GPRMC,191119.9,A,3349.990181,N,11608.169938,W,14.1,24.7,271110,,,A*73
$GPRMC,191122.9,A,3350.002827,N,11608.163568,W,15.2,24.6,271110,,,A*74
$GPRMC,191125.9,A,3350.011032,N,11608.155910,W,12.5,38.0,271110,,,A*70
$GPRMC,191128.9,A,3350.015774,N,11608.143898,W,13.5,69.8,271110,,,A*77
$GPRMC,191131.9,A,3350.020111,N,11608.128715,W,16.1,70.2,271110,,,A*78
$GPRMC,191134.9,A,3350.023317,N,11608.113883,W,15.8,66.7,271110,,,A*7A
$GPRMC,191137.9,A,3350.030185,N,11608.103082,W,12.2,45.4,271110,,,A*75
$GPRMC,191140.9,A,3350.039261,N,11608.096697,W,13.0,34.7,271110,,,A*7C
$GPRMC,191143.9,A,3350.046050,N,11608.090327,W,11.5,25.6,271110,,,A*79
$GPRMC,191146.9,A,3350.054245,N,11608.084873,W,11.3,24.6,271110,,,A*71
$GPRMC,191158.9,A,3350.066817,N,11608.074924,W,7.2,40.3,271110,,,A*4F
$GPRMC,191201.9,A,3350.071075,N,11608.061366,W,13.9,75.5,271110,,,A*7C
$GPRMC,191204.9,A,3350.071036,N,11608.046512,W,15.5,90.1,271110,,,A*7B
$GPRMC,191207.9,A,3350.073172,N,11608.029199,W,16.1,85.2,271110,,,A*75
$GPRMC,191210.9,A,3350.076262,N,11608.018741,W,11.6,73.1,271110,,,A*7F
$GPRMC,191213.9,A,3350.084072,N,11608.010704,W,12.8,43.3,271110,,,A*77
$GPRMC,191216.9,A,3350.089395,N,11608.004402,W,7.5,51.1,271110,,,A*4D
$GPRMC,191219.9,A,3350.092769,N,11607.999607,W,6.4,45.0,271110,,,A*4E
$GPRMC,191222.9,A,3350.099830,N,11607.995883,W,10.5,31.0,271110,,,A*75
$GPRMC,191226.0,A,3350.106601,N,11607.986893,W,10.1,39.3,271110,,,A*7F
$GPRMC,191229.9,A,3350.113094,N,11607.984220,W,5.3,53.5,271110,,,A*4B
$GPRMC,191232.9,A,3350.115434,N,11607.978590,W,6.7,64.2,271110,,,A*42
$GPRMC,191235.9,A,3350.117948,N,11607.972440,W,6.7,58.4,271110,,,A*4E
$GPRMC,191238.9,A,3350.122676,N,11607.965077,W,9.7,52.7,271110,,,A*47
$GPRMC,191241.9,A,3350.128838,N,11607.954903,W,13.2,66.8,271110,,,A*79
$GPRMC,191244.9,A,3350.131819,N,11607.943501,W,11.9,75.6,271110,,,A*7A
$GPRMC,191247.9,A,3350.127931,N,11607.931007,W,11.0,98.5,271110,,,A*7A
$GPRMC,191250.9,A,3350.128977,N,11607.920412,W,10.2,95.1,271110,,,A*7B
$GPRMC,191253.9,A,3350.130897,N,11607.912244,W,9.8,74.2,271110,,,A*44
$GPRMC,191256.9,A,3350.136391,N,11607.900740,W,13.2,59.4,271110,,,A*70
$GPRMC,191259.9,A,3350.141749,N,11607.887822,W,14.4,66.2,271110,,,A*70
$GPRMC,191302.9,A,3350.142957,N,11607.874733,W,14.4,90.5,271110,,,A*70
$GPRMC,191305.9,A,3350.145996,N,11607.858287,W,17.0,74.5,271110,,,A*74
$GPRMC,191308.9,A,3350.142184,N,11607.839867,W,16.8,90.0,271110,,,A*70
$GPRMC,191311.9,A,3350.142764,N,11607.820960,W,19.8,86.3,271110,,,A*75
$GPRMC,191314.9,A,3350.142462,N,11607.802438,W,19.2,86.9,271110,,,A*75
$GPRMC,191317.9,A,3350.146348,N,11607.783539,W,18.3,74.7,271110,,,A*78
$GPRMC,191320.9,A,3350.148742,N,11607.766471,W,15.6,85.9,271110,,,A*72
$GPRMC,191323.9,A,3350.152502,N,11607.753108,W,14.3,69.8,271110,,,A*76
$GPRMC,191326.9,A,3350.151953,N,11607.739500,W,14.0,90.5,271110,,,A*70
$GPRMC,191329.9,A,3350.147135,N,11607.726273,W,14.4,100.1,271110,,,A*45
$GPRMC,191332.9,A,3350.147738,N,11607.714315,W,9.4,90.1,271110,,,A*40
$GPRMC,191441.9,A,3350.148770,N,11607.688839,W,9.0,96.2,271110,,,A*40
$GPRMC,191444.9,A,3350.148665,N,11607.668799,W,16.2,89.6,271110,,,A*7D
$GPRMC,191447.9,A,3350.148522,N,11607.652737,W,15.4,84.6,271110,,,A*7B
$GPRMC,191451.0,A,3350.148697,N,11607.633327,W,20.4,89.6,271110,,,A*71
$GPRMC,191454.9,A,3350.142975,N,11607.619220,W,14.9,112.8,271110,,,A*4D
$GPRMC,191457.9,A,3350.144497,N,11607.605773,W,14.1,94.5,271110,,,A*7D
$GPRMC,191500.9,A,3350.145407,N,11607.590751,W,15.0,81.7,271110,,,A*7F
$GPRMC,191503.9,A,3350.151707,N,11607.574560,W,17.2,68.3,271110,,,A*73
$GPRMC,191506.9,A,3350.153007,N,11607.560677,W,13.6,78.7,271110,,,A*76
$GPRMC,191509.0,A,3350.154639,N,11607.551555,W,13.1,79.4,271110,,,A*78
$GPRMC,191512.9,A,3350.163593,N,11607.536734,W,13.1,53.1,271110,,,A*75
$GPRMC,191515.9,A,3350.169443,N,11607.521233,W,18.2,66.8,271110,,,A*77
$GPRMC,191518.9,A,3350.173219,N,11607.503444,W,17.5,73.8,271110,,,A*72
$GPRMC,191521.9,A,3350.173183,N,11607.482856,W,19.1,85.3,271110,,,A*77
$GPRMC,191524.9,A,3350.179585,N,11607.464229,W,16.4,86.0,271110,,,A*7A
$GPRMC,191527.9,A,3350.173696,N,11607.449940,W,14.8,112.4,271110,,,A*4F
$GPRMC,191530.9,A,3350.162376,N,11607.440834,W,14.4,132.7,271110,,,A*44
$GPRMC,191533.9,A,3350.158368,N,11607.429943,W,12.2,111.0,271110,,,A*49
$GPRMC,191536.9,A,3350.151690,N,11607.420349,W,11.2,126.0,271110,,,A*49
$GPRMC,191539.9,A,3350.147958,N,11607.408649,W,12.5,115.8,271110,,,A*49
$GPRMC,191542.9,A,3350.145291,N,11607.395520,W,15.3,104.7,271110,,,A*48
$GPRMC,191545.9,A,3350.145527,N,11607.379614,W,15.2,94.2,271110,,,A*7F
$GPRMC,191548.9,A,3350.141504,N,11607.363589,W,17.9,108.7,271110,,,A*43
$GPRMC,191551.9,A,3350.133697,N,11607.344958,W,19.7,110.4,271110,,,A*48
$GPRMC,191554.9,A,3350.126949,N,11607.332784,W,15.0,122.9,271110,,,A*4C
$GPRMC,191557.9,A,3350.118928,N,11607.321215,W,15.1,121.9,271110,,,A*48
$GPRMC,191600.9,A,3350.117920,N,11607.308185,W,14.4,104.8,271110,,,A*4D
$GPRMC,191603.2,A,3350.115767,N,11607.296163,W,17.0,114.4,271110,,,A*4E
$GPRMC,191606.2,A,3350.115809,N,11607.277002,W,18.6,97.4,271110,,,A*76
$GPRMC,191609.2,A,3350.117802,N,11607.256552,W,20.0,86.1,271110,,,A*7B
$GPRMC,191612.9,A,3350.114959,N,11607.232641,W,19.8,99.7,271110,,,A*7F
$GPRMC,191615.0,A,3350.107368,N,11607.220385,W,21.2,114.2,271110,,,A*45
$GPRMC,191619.0,A,3350.101419,N,11607.197189,W,18.3,114.9,271110,,,A*4F
$GPRMC,191622.9,A,3350.089849,N,11607.177875,W,18.5,116.8,271110,,,A*47
$GPRMC,191626.2,A,3350.083460,N,11607.158201,W,20.3,108.4,271110,,,A*4F
$GPRMC,191629.9,A,3350.063699,N,11607.143898,W,20.2,142.1,271110,,,A*4B
$GPRMC,191632.9,A,3350.052211,N,11607.132513,W,19.0,141.5,271110,,,A*40
$GPRMC,191635.9,A,3350.038729,N,11607.118353,W,20.8,138.2,271110,,,A*44
$GPRMC,191638.9,A,3350.031654,N,11607.103950,W,16.9,129.1,271110,,,A*4F
$GPRMC,191641.0,A,3350.022602,N,11607.097211,W,19.3,144.2,271110,,,A*46
$GPRMC,191644.9,A,3350.015591,N,11607.081159,W,16.1,132.8,271110,,,A*49
$GPRMC,191647.9,A,3350.004026,N,11607.073007,W,16.8,151.5,271110,,,A*45
$GPRMC,191650.9,A,3349.993272,N,11607.060402,W,18.2,124.4,271110,,,A*4B
$GPRMC,191653.9,A,3349.986255,N,11607.038072,W,24.3,113.2,271110,,,A*4B
$GPRMC,191656.9,A,3349.980623,N,11607.019198,W,20.4,107.8,271110,,,A*47
$GPRMC,191659.9,A,3349.975590,N,11607.001689,W,17.2,118.3,271110,,,A*40
$GPRMC,191702.9,A,3349.969111,N,11606.990796,W,16.8,140.4,271110,,,A*41
$GPRMC,191706.0,A,3349.958126,N,11606.977742,W,16.6,126.8,271110,,,A*48
$GPRMC,191709.9,A,3349.947053,N,11606.962579,W,16.3,140.7,271110,,,A*47
$GPRMC,191712.9,A,3349.938257,N,11606.951885,W,13.1,141.9,271110,,,A*45
$GPRMC,191715.9,A,3349.933004,N,11606.945943,W,10.4,124.1,271110,,,A*4E
$GPRMC,191718.9,A,3349.929672,N,11606.935043,W,11.6,110.4,271110,,,A*40
$GPRMC,191721.0,A,3349.933689,N,11606.926780,W,14.2,83.9,271110,,,A*71
$GPRMC,191724.9,A,3349.929899,N,11606.899713,W,20.4,101.6,271110,,,A*43
$GPRMC,191727.9,A,3349.927316,N,11606.880445,W,18.0,104.8,271110,,,A*4E
$GPRMC,191730.9,A,3349.919568,N,11606.867900,W,15.4,122.4,271110,,,A*4E
$GPRMC,191733.9,A,3349.914470,N,11606.856541,W,14.3,117.0,271110,,,A*47
$GPRMC,191736.1,A,3349.910636,N,11606.846579,W,15.2,115.4,271110,,,A*42
$GPRMC,191739.9,A,3349.901478,N,11606.830121,W,14.3,128.9,271110,,,A*46
$GPRMC,191742.9,A,3349.889775,N,11606.818030,W,16.4,127.8,271110,,,A*45
$GPRMC,191745.9,A,3349.887800,N,11606.804509,W,14.4,105.7,271110,,,A*4E
$GPRMC,191748.9,A,3349.889464,N,11606.787050,W,18.1,88.9,271110,,,A*7D
$GPRMC,191751.9,A,3349.893635,N,11606.771595,W,17.5,78.2,271110,,,A*72
$GPRMC,191754.9,A,3349.899294,N,11606.758303,W,14.6,65.2,271110,,,A*7C
$GPRMC,191757.9,A,3349.909443,N,11606.741500,W,19.8,55.6,271110,,,A*72
$GPRMC,191800.9,A,3349.924065,N,11606.727016,W,19.6,46.4,271110,,,A*7C
$GPRMC,191803.9,A,3349.931845,N,11606.707777,W,21.1,67.3,271110,,,A*7B
$GPRMC,191806.9,A,3349.939484,N,11606.686013,W,24.0,71.1,271110,,,A*7B
$GPRMC,191809.9,A,3349.937998,N,11606.661007,W,26.5,91.8,271110,,,A*76
$GPRMC,191812.0,A,3349.936721,N,11606.646190,W,21.9,93.9,271110,,,A*7A
$GPRMC,191815.9,A,3349.941772,N,11606.621298,W,20.5,75.9,271110,,,A*7D
$GPRMC,191818.9,A,3349.942646,N,11606.603544,W,18.9,91.2,271110,,,A*75
$GPRMC,191821.9,A,3349.941119,N,11606.585893,W,16.0,92.7,271110,,,A*7A
$GPRMC,191825.0,A,3349.939283,N,11606.573774,W,10.6,103.6,271110,,,A*4F
$GPRMC,191828.9,A,3349.938062,N,11606.557777,W,14.6,102.8,271110,,,A*49
$GPRMC,191831.0,A,3349.933463,N,11606.548642,W,14.8,117.0,271110,,,A*4D
$GPRMC,191835.0,A,3349.925557,N,11606.526434,W,15.3,114.5,271110,,,A*4F
$GPRMC,191839.0,A,3349.916693,N,11606.521819,W,7.7,169.9,271110,,,A*7D
$GPRMC,191842.9,A,3349.903215,N,11606.521257,W,13.7,161.5,271110,,,A*47
$GPRMC,191845.9,A,3349.888042,N,11606.512467,W,20.7,150.8,271110,,,A*48
$GPRMC,191848.9,A,3349.877160,N,11606.500539,W,18.6,149.8,271110,,,A*4F
$GPRMC,191851.9,A,3349.864334,N,11606.495918,W,15.9,163.2,271110,,,A*44
$GPRMC,191854.0,A,3349.855482,N,11606.493446,W,16.1,171.1,271110,,,A*4B
$GPRMC,191857.9,A,3349.844725,N,11606.487963,W,10.7,136.8,271110,,,A*4A
$GPRMC,191900.9,A,3349.836508,N,11606.475974,W,16.2,130.9,271110,,,A*4E
$GPRMC,191903.0,A,3349.829663,N,11606.470761,W,13.0,145.0,271110,,,A*47
$GPRMC,191906.2,A,3349.821098,N,11606.462007,W,10.4,152.6,271110,,,A*49
$GPRMC,191909.9,A,3349.816255,N,11606.456078,W,9.2,116.8,271110,,,A*75
$GPRMC,191912.9,A,3349.814269,N,11606.438943,W,15.4,102.2,271110,,,A*4F
$GPRMC,191915.9,A,3349.805190,N,11606.426809,W,15.9,127.2,271110,,,A*47
$GPRMC,191918.9,A,3349.795182,N,11606.418500,W,11.7,151.9,271110,,,A*46
$GPRMC,191921.9,A,3349.783372,N,11606.430228,W,14.8,207.6,271110,,,A*44
$GPRMC,191925.2,A,3349.771856,N,11606.429115,W,12.6,165.4,271110,,,A*43
$GPRMC,191928.1,A,3349.761251,N,11606.417940,W,16.4,137.2,271110,,,A*43
$GPRMC,191931.9,A,3349.755706,N,11606.394712,W,18.7,106.6,271110,,,A*4D
$GPRMC,191934.2,A,3349.754574,N,11606.377670,W,21.1,93.6,271110,,,A*7C
$GPRMC,191937.2,A,3349.747260,N,11606.358054,W,18.7,110.2,271110,,,A*40
$GPRMC,191940.2,A,3349.741385,N,11606.343316,W,17.3,119.0,271110,,,A*43
$GPRMC,191943.2,A,3349.739365,N,11606.325218,W,21.3,86.1,271110,,,A*7D
$GPRMC,191946.9,A,3349.741571,N,11606.295717,W,23.7,89.1,271110,,,A*76
$GPRMC,191949.9,A,3349.746269,N,11606.274483,W,19.5,73.7,271110,,,A*79
$GPRMC,191952.9,A,3349.754242,N,11606.257561,W,20.4,69.8,271110,,,A*7A
$GPRMC,191955.9,A,3349.754042,N,11606.232784,W,25.8,89.1,271110,,,A*7B
$GPRMC,191958.9,A,3349.756193,N,11606.208088,W,25.0,85.7,271110,,,A*79
$GPRMC,192001.9,A,3349.753920,N,11606.185917,W,23.2,93.7,271110,,,A*70
$GPRMC,192004.9,A,3349.743200,N,11606.172982,W,17.6,118.1,271110,,,A*4E
$GPRMC,192007.9,A,3349.738309,N,11606.158753,W,15.0,115.2,271110,,,A*49
$GPRMC,192010.9,A,3349.726834,N,11606.146828,W,15.7,134.2,271110,,,A*4D
$GPRMC,192013.9,A,3349.718652,N,11606.135143,W,15.2,125.6,271110,,,A*4C
$GPRMC,192016.9,A,3349.718415,N,11606.120466,W,14.5,94.4,271110,,,A*71
$GPRMC,192019.9,A,3349.721551,N,11606.105805,W,15.2,80.4,271110,,,A*78
$GPRMC,192022.9,A,3349.729574,N,11606.093273,W,15.6,58.4,271110,,,A*7B
$GPRMC,192025.9,A,3349.741107,N,11606.082702,W,15.0,53.4,271110,,,A*7C
$GPRMC,192028.9,A,3349.751268,N,11606.070259,W,15.6,47.8,271110,,,A*73
$GPRMC,192031.9,A,3349.756163,N,11606.058431,W,11.7,64.4,271110,,,A*7E
$GPRMC,192034.9,A,3349.759747,N,11606.050514,W,11.2,60.1,271110,,,A*7E
$GPRMC,192037.9,A,3349.763840,N,11606.036388,W,15.9,76.0,271110,,,A*76
$GPRMC,192040.9,A,3349.767355,N,11606.019693,W,14.7,74.7,271110,,,A*75
$GPRMC,192043.9,A,3349.767509,N,11606.010277,W,11.0,78.6,271110,,,A*71
$GPRMC,192046.9,A,3349.770591,N,11605.994287,W,14.3,81.4,271110,,,A*78
$GPRMC,192049.9,A,3349.770044,N,11605.981078,W,14.2,91.7,271110,,,A*7F
$GPRMC,192052.0,A,3349.770562,N,11605.969530,W,16.5,86.6,271110,,,A*70
$GPRMC,192055.9,A,3349.773485,N,11605.946329,W,18.6,82.3,271110,,,A*7A
$GPRMC,192058.9,A,3349.774294,N,11605.927732,W,18.5,83.3,271110,,,A*7D
$GPRMC,192101.9,A,3349.780349,N,11605.910517,W,14.8,72.0,271110,,,A*77
$GPRMC,192104.9,A,3349.781879,N,11605.899656,W,12.1,73.3,271110,,,A*70
$GPRMC,192107.9,A,3349.784841,N,11605.887500,W,15.3,81.3,271110,,,A*7A
$GPRMC,192110.9,A,3349.783115,N,11605.871794,W,14.8,94.5,271110,,,A*7D
$GPRMC,192113.9,A,3349.785436,N,11605.858047,W,12.0,66.8,271110,,,A*70
$GPRMC,192116.9,A,3349.796196,N,11605.852517,W,14.1,20.2,271110,,,A*7D
$GPRMC,192119.9,A,3349.808133,N,11605.854603,W,15.1,353.5,271110,,,A*44
$GPRMC,192122.9,A,3349.820307,N,11605.857616,W,13.9,345.7,271110,,,A*4F
$GPRMC,192125.9,A,3349.827985,N,11605.866558,W,11.9,336.5,271110,,,A*40
$GPRMC,192128.9,A,3349.836433,N,11605.863413,W,10.1,22.8,271110,,,A*74
$GPRMC,192131.1,A,3349.844085,N,11605.852408,W,13.2,55.1,271110,,,A*79
$GPRMC,192134.9,A,3349.844423,N,11605.840625,W,8.0,90.6,271110,,,A*44
$GPRMC,192137.9,A,3349.842629,N,11605.832193,W,7.6,95.4,271110,,,A*48
$GPRMC,192140.9,A,3349.840384,N,11605.825638,W,5.7,105.5,271110,,,A*72
$GPRMC,192143.9,A,3349.834624,N,11605.823016,W,5.7,141.8,271110,,,A*7C
$GPRMC,192146.9,A,3349.826838,N,11605.821615,W,9.2,164.7,271110,,,A*7F
$GPRMC,192149.9,A,3349.815330,N,11605.818129,W,13.5,162.6,271110,,,A*4A
$GPRMC,192152.9,A,3349.805718,N,11605.814873,W,11.2,158.1,271110,,,A*4E
$GPRMC,192155.9,A,3349.798559,N,11605.810704,W,9.5,151.7,271110,,,A*7F
$GPRMC,192158.9,A,3349.791066,N,11605.806686,W,11.1,153.4,271110,,,A*42
$GPRMC,192201.9,A,3349.784020,N,11605.798849,W,10.3,145.3,271110,,,A*4D
$GPRMC,192204.9,A,3349.782223,N,11605.789546,W,10.2,119.7,271110,,,A*41
$GPRMC,192207.9,A,3349.772855,N,11605.782707,W,11.1,151.9,271110,,,A*4A
$GPRMC,192210.9,A,3349.765047,N,11605.779572,W,12.4,160.7,271110,,,A*4F
$GPRMC,192213.0,A,3349.761328,N,11605.775054,W,10.0,131.5,271110,,,A*46
$GPRMC,192216.9,A,3349.755892,N,11605.759931,W,14.6,118.9,271110,,,A*46
$GPRMC,192219.9,A,3349.748850,N,11605.746403,W,16.5,118.6,271110,,,A*47
$GPRMC,192222.0,A,3349.747446,N,11605.733652,W,17.5,99.3,271110,,,A*7A
$GPRMC,192225.9,A,3349.751991,N,11605.710488,W,18.1,78.2,271110,,,A*75
$GPRMC,192228.9,A,3349.758739,N,11605.695650,W,15.6,60.1,271110,,,A*76
$GPRMC,192231.9,A,3349.764615,N,11605.683324,W,14.9,59.2,271110,,,A*78
$GPRMC,192234.9,A,3349.774721,N,11605.673343,W,14.5,45.4,271110,,,A*73
$GPRMC,192237.9,A,3349.786100,N,11605.660775,W,18.0,51.5,271110,,,A*76
$GPRMC,192240.9,A,3349.794333,N,11605.646387,W,15.6,48.5,271110,,,A*79
$GPRMC,192243.9,A,3349.802636,N,11605.637533,W,15.5,41.5,271110,,,A*7F
$GPRMC,192246.9,A,3349.814779,N,11605.623152,W,19.4,53.8,271110,,,A*72
$GPRMC,192249.9,A,3349.825748,N,11605.608397,W,17.3,44.2,271110,,,A*7A
$GPRMC,192252.0,A,3349.834142,N,11605.602043,W,16.7,27.0,271110,,,A*77
$GPRMC,192255.9,A,3349.848627,N,11605.596465,W,11.9,23.1,271110,,,A*74
$GPRMC,192258.9,A,3349.856143,N,11605.590315,W,12.1,33.6,271110,,,A*78
$GPRMC,192302.0,A,3349.863798,N,11605.583654,W,10.5,36.6,271110,,,A*78
$GPRMC,192305.9,A,3349.870151,N,11605.576601,W,9.0,25.0,271110,,,A*44
$GPRMC,192308.9,A,3349.881613,N,11605.570720,W,14.7,18.5,271110,,,A*72
$GPRMC,192311.9,A,3349.894441,N,11605.573064,W,13.4,353.7,271110,,,A*45
$GPRMC,192314.9,A,3349.905364,N,11605.571777,W,13.0,14.7,271110,,,A*7A
$GPRMC,192317.9,A,3349.914380,N,11605.571128,W,11.2,354.7,271110,,,A*48
$GPRMC,192320.9,A,3349.922367,N,11605.568140,W,7.9,19.6,271110,,,A*41
$GPRMC,192323.9,A,3349.928368,N,11605.559540,W,10.0,44.3,271110,,,A*73
$GPRMC,192326.9,A,3349.933349,N,11605.552985,W,9.9,47.9,271110,,,A*49
$GPRMC,192329.9,A,3349.938717,N,11605.542565,W,12.0,58.8,271110,,,A*7D
$GPRMC,192332.0,A,3349.941922,N,11605.539138,W,8.7,56.2,271110,,,A*40
$GPRMC,192335.9,A,3349.949341,N,11605.520608,W,15.2,59.8,271110,,,A*79
$GPRMC,192339.0,A,3349.956591,N,11605.506920,W,16.1,56.7,271110,,,A*78
$GPRMC,192342.9,A,3349.960236,N,11605.489997,W,11.4,83.0,271110,,,A*75
$GPRMC,192345.9,A,3349.956584,N,11605.479475,W,11.2,96.9,271110,,,A*7C
$GPRMC,192348.9,A,3349.957719,N,11605.469450,W,10.4,78.7,271110,,,A*79
$GPRMC,192351.9,A,3349.958668,N,11605.461212,W,8.1,84.8,271110,,,A*41
$GPRMC,192354.9,A,3349.958308,N,11605.453941,W,6.3,97.4,271110,,,A*49
$GPRMC,192357.9,A,3349.954455,N,11605.446003,W,7.6,114.8,271110,,,A*70
$GPRMC,192400.9,A,3349.948869,N,11605.438652,W,8.2,116.4,271110,,,A*75
$GPRMC,192403.9,A,3349.949054,N,11605.431654,W,10.7,96.9,271110,,,A*76
$GPRMC,192406.9,A,3349.942935,N,11605.419363,W,12.2,118.7,271110,,,A*43
$GPRMC,192409.9,A,3349.939259,N,11605.409787,W,11.8,115.3,271110,,,A*4E
$GPRMC,192412.9,A,3349.933296,N,11605.397454,W,13.6,121.2,271110,,,A*4A
$GPRMC,192415.9,A,3349.924880,N,11605.386189,W,16.6,126.7,271110,,,A*44
$GPRMC,192418.9,A,3349.914136,N,11605.371962,W,18.0,124.4,271110,,,A*42
$GPRMC,192421.9,A,3349.906431,N,11605.357870,W,16.6,127.1,271110,,,A*41
$GPRMC,192425.0,A,3349.897914,N,11605.343506,W,17.5,128.3,271110,,,A*49
$GPRMC,192428.9,A,3349.882587,N,11605.324212,W,17.9,135.0,271110,,,A*4F
$GPRMC,192431.9,A,3349.875239,N,11605.312455,W,16.5,132.8,271110,,,A*4F
$GPRMC,192434.9,A,3349.865019,N,11605.300200,W,18.6,137.0,271110,,,A*4E
$GPRMC,192437.9,A,3349.851110,N,11605.287673,W,21.2,141.5,271110,,,A*46
$GPRMC,192440.9,A,3349.839842,N,11605.277372,W,18.3,144.5,271110,,,A*43
$GPRMC,192443.1,A,3349.828631,N,11605.268936,W,21.1,145.2,271110,,,A*48
$GPRMC,192446.9,A,3349.810368,N,11605.260474,W,16.1,161.0,271110,,,A*44
$GPRMC,192449.9,A,3349.804084,N,11605.250561,W,15.0,128.6,271110,,,A*40
$GPRMC,192452.9,A,3349.793576,N,11605.237035,W,19.1,132.9,271110,,,A*4F
$GPRMC,192455.9,A,3349.786430,N,11605.219298,W,21.4,116.0,271110,,,A*47
$GPRMC,192458.9,A,3349.782005,N,11605.194744,W,26.0,106.3,271110,,,A*4F
$GPRMC,192501.9,A,3349.782178,N,11605.168075,W,24.8,96.1,271110,,,A*7F
$GPRMC,192504.9,A,3349.776764,N,11605.145298,W,23.7,108.3,271110,,,A*48
$GPRMC,192507.9,A,3349.771648,N,11605.123742,W,20.2,101.0,271110,,,A*4D
$GPRMC,192510.9,A,3349.769089,N,11605.107377,W,17.1,105.5,271110,,,A*4B
$GPRMC,192513.9,A,3349.758162,N,11605.091761,W,20.9,117.1,271110,,,A*48
$GPRMC,192516.0,A,3349.753606,N,11605.081260,W,19.0,118.4,271110,,,A*46
$GPRMC,192519.9,A,3349.756355,N,11605.060664,W,13.1,71.0,271110,,,A*78
$GPRMC,192522.9,A,3349.760186,N,11605.046417,W,17.3,81.5,271110,,,A*77
$GPRMC,192525.9,A,3349.763623,N,11605.024406,W,20.7,88.8,271110,,,A*7B
$GPRMC,192528.9,A,3349.761984,N,11605.002660,W,21.1,90.7,271110,,,A*71
$GPRMC,192531.9,A,3349.768363,N,11604.981078,W,21.3,74.4,271110,,,A*74
$GPRMC,192534.9,A,3349.770647,N,11604.962365,W,18.5,81.2,271110,,,A*79
$GPRMC,192537.9,A,3349.777307,N,11604.943968,W,20.2,61.0,271110,,,A*78
$GPRMC,192540.9,A,3349.787989,N,11604.923648,W,23.9,62.6,271110,,,A*7D
$GPRMC,192543.9,A,3349.797604,N,11604.904264,W,21.7,66.8,271110,,,A*7C
$GPRMC,192546.9,A,3349.799233,N,11604.887074,W,16.5,81.0,271110,,,A*79
$GPRMC,192549.9,A,3349.797011,N,11604.874616,W,11.4,83.7,271110,,,A*77
$GPRMC,192552.9,A,3349.800574,N,11604.859990,W,16.6,77.4,271110,,,A*79
$GPRMC,192555.9,A,3349.803943,N,11604.843293,W,16.1,82.5,271110,,,A*7A
$GPRMC,192558.9,A,3349.817248,N,11604.827309,W,21.7,46.9,271110,,,A*74
$GPRMC,192601.9,A,3349.829106,N,11604.812637,W,18.0,39.4,271110,,,A*79
$GPRMC,192604.9,A,3349.844852,N,11604.805896,W,18.1,18.2,271110,,,A*78
$GPRMC,192607.9,A,3349.858910,N,11604.801238,W,17.6,18.0,271110,,,A*71
$GPRMC,192610.9,A,3349.870493,N,11604.789797,W,18.3,44.0,271110,,,A*77
$GPRMC,192613.9,A,3349.875187,N,11604.776267,W,11.8,59.4,271110,,,A*71
$GPRMC,192616.9,A,3349.877519,N,11604.775048,W,4.4,54.4,271110,,,A*4C
$GPRMC,192619.9,A,3349.872881,N,11604.767089,W,6.8,127.6,271110,,,A*7D
$GPRMC,192622.9,A,3349.869116,N,11604.765039,W,7.1,135.6,271110,,,A*7A
$GPRMC,192625.9,A,3349.865850,N,11604.754844,W,11.8,102.8,271110,,,A*4E
$GPRMC,192628.9,A,3349.865264,N,11604.748247,W,5.5,92.9,271110,,,A*4B
$GPRMC,192631.0,A,3349.867743,N,11604.741729,W,9.6,70.6,271110,,,A*40
$GPRMC,192634.9,A,3349.875042,N,11604.727849,W,11.7,51.9,271110,,,A*74
$GPRMC,192637.9,A,3349.880942,N,11604.722572,W,5.6,31.4,271110,,,A*4B
$GPRMC,192647.0,A,3349.886680,N,11604.716930,W,8.8,43.8,271110,,,A*45
$GPRMC,192650.9,A,3349.899144,N,11604.704849,W,13.5,54.4,271110,,,A*7A
$GPRMC,192654.0,A,3349.909717,N,11604.696281,W,13.4,44.9,271110,,,A*76
$GPRMC,192657.9,A,3349.920481,N,11604.687851,W,9.8,34.2,271110,,,A*47
$GPRMC,192700.9,A,3349.925556,N,11604.684342,W,6.6,36.5,271110,,,A*44
$GPRMC,192703.9,A,3349.928664,N,11604.680466,W,7.0,39.6,271110,,,A*46
$GPRMC,192706.9,A,3349.929972,N,11604.672797,W,7.1,54.4,271110,,,A*42
$GPRMC,192709.9,A,3349.936295,N,11604.670793,W,7.5,27.5,271110,,,A*46
$GPRMC,192712.9,A,3349.944036,N,11604.667859,W,9.2,24.8,271110,,,A*4A
$GPRMC,192715.9,A,3349.955322,N,11604.663789,W,11.3,22.0,271110,,,A*7B
$GPRMC,192718.9,A,3349.960515,N,11604.657403,W,9.7,33.4,271110,,,A*4D
$GPRMC,192721.9,A,3349.968419,N,11604.652708,W,10.0,36.4,271110,,,A*75
$GPRMC,192724.9,A,3349.974173,N,11604.643944,W,10.2,40.9,271110,,,A*7C
$GPRMC,192727.0,A,3349.974235,N,11604.641671,W,6.2,40.6,271110,,,A*44
$GPRMC,192731.0,A,3349.982275,N,11604.637546,W,7.8,29.3,271110,,,A*49
$GPRMC,192734.9,A,3349.986170,N,11604.628503,W,7.1,56.4,271110,,,A*4E
$GPRMC,192737.9,A,3349.985752,N,11604.618959,W,8.7,85.9,271110,,,A*42
$GPRMC,192740.9,A,3349.978724,N,11604.609760,W,11.2,121.8,271110,,,A*46
$GPRMC,192743.9,A,3349.964070,N,11604.605117,W,14.6,160.3,271110,,,A*4B
$GPRMC,192746.9,A,3349.953408,N,11604.600104,W,12.9,135.4,271110,,,A*48
$GPRMC,192749.9,A,3349.954561,N,11604.588900,W,12.7,75.3,271110,,,A*7D
$GPRMC,192752.9,A,3349.964734,N,11604.572137,W,19.2,63.7,271110,,,A*72
$GPRMC,192755.9,A,3349.970851,N,11604.553184,W,19.3,65.7,271110,,,A*70
$GPRMC,192758.9,A,3349.978902,N,11604.540633,W,17.2,46.6,271110,,,A*74
$GPRMC,192801.9,A,3349.991544,N,11604.531626,W,14.6,32.8,271110,,,A*76
$GPRMC,192804.9,A,3350.001769,N,11604.528585,W,10.7,10.9,271110,,,A*70
$GPRMC,192807.0,A,3350.008448,N,11604.528845,W,10.3,9.9,271110,,,A*4E
$GPRMC,192810.9,A,3350.019504,N,11604.529927,W,9.5,2.6,271110,,,A*76
$GPRMC,192813.9,A,3350.026437,N,11604.527253,W,9.8,30.6,271110,,,A*42
$GPRMC,192816.9,A,3350.033291,N,11604.517609,W,10.4,48.4,271110,,,A*78
$GPRMC,192819.9,A,3350.032072,N,11604.506216,W,9.8,82.1,271110,,,A*44
$GPRMC,192822.9,A,3350.029730,N,11604.493354,W,12.9,97.3,271110,,,A*70
$GPRMC,192825.9,A,3350.025128,N,11604.480940,W,13.5,111.8,271110,,,A*40
$GPRMC,192828.9,A,3350.020791,N,11604.466573,W,15.0,117.6,271110,,,A*43
$GPRMC,192832.1,A,3350.012674,N,11604.452865,W,17.1,125.1,271110,,,A*43
$GPRMC,192835.2,A,3350.002253,N,11604.442577,W,13.7,150.1,271110,,,A*48
$GPRMC,192838.2,A,3349.992393,N,11604.439751,W,12.4,183.0,271110,,,A*47
$GPRMC,192841.9,A,3349.978386,N,11604.438659,W,12.1,168.0,271110,,,A*4A
$GPRMC,192844.9,A,3349.977671,N,11604.427319,W,10.5,112.6,271110,,,A*4F
$GPRMC,192847.9,A,3349.975429,N,11604.418441,W,8.3,103.0,271110,,,A*7E
$GPRMC,192850.9,A,3349.976383,N,11604.410314,W,6.0,86.4,271110,,,A*46
$GPRMC,192853.9,A,3349.976215,N,11604.405941,W,5.3,88.4,271110,,,A*4B
$GPRMC,192856.9,A,3349.980417,N,11604.398932,W,5.3,59.4,271110,,,A*48
$GPRMC,192930.9,A,3349.998910,N,11604.384279,W,5.4,328.1,271110,,,A*74
$GPRMC,192933.9,A,3350.003325,N,11604.389289,W,6.1,320.3,271110,,,A*76
$GPRMC,192936.9,A,3350.004519,N,11604.394155,W,4.8,307.2,271110,,,A*7C
$GPRMC,192952.0,A,3350.012254,N,11604.410836,W,5.6,285.5,271110,,,A*7A
$GPRMC,192955.0,A,3350.018406,N,11604.416009,W,6.7,322.8,271110,,,A*77
$GPRMC,192958.9,A,3350.024940,N,11604.411836,W,5.8,27.3,271110,,,A*41
$GPRMC,193001.9,A,3350.030586,N,11604.406266,W,6.2,37.9,271110,,,A*4D
$GPRMC,193005.0,A,3350.035480,N,11604.397102,W,9.9,52.6,271110,,,A*44
$GPRMC,193008.9,A,3350.043442,N,11604.379735,W,16.5,67.0,271110,,,A*7F
$GPRMC,193011.9,A,3350.048309,N,11604.366595,W,13.9,64.3,271110,,,A*7B
$GPRMC,193014.9,A,3350.055255,N,11604.352547,W,14.9,60.2,271110,,,A*70
$GPRMC,193017.0,A,3350.058706,N,11604.341976,W,15.9,65.9,271110,,,A*77
$GPRMC,193020.9,A,3350.068735,N,11604.317105,W,19.9,68.9,271110,,,A*77
$GPRMC,193023.9,A,3350.072153,N,11604.300022,W,14.8,70.7,271110,,,A*70
$GPRMC,193026.9,A,3350.075701,N,11604.288762,W,14.3,84.8,271110,,,A*7E
$GPRMC,193029.9,A,3350.071697,N,11604.277480,W,9.6,103.5,271110,,,A*7E
$GPRMC,193032.9,A,3350.070880,N,11604.269988,W,7.5,98.1,271110,,,A*4D
$GPRMC,193035.9,A,3350.069410,N,11604.263496,W,7.7,107.2,271110,,,A*79
$GPRMC,193038.9,A,3350.067723,N,11604.254351,W,10.5,90.3,271110,,,A*7B
$GPRMC,193041.9,A,3350.070341,N,11604.240667,W,15.4,77.6,271110,,,A*7E
$GPRMC,193044.9,A,3350.070869,N,11604.225044,W,14.9,78.6,271110,,,A*7D
$GPRMC,193047.0,A,3350.073373,N,11604.216596,W,12.4,79.0,271110,,,A*72
$GPRMC,193050.9,A,3350.071882,N,11604.194100,W,16.9,101.3,271110,,,A*4C
$GPRMC,193053.9,A,3350.065814,N,11604.175105,W,18.9,112.8,271110,,,A*48
$GPRMC,193056.9,A,3350.057702,N,11604.162997,W,15.3,132.0,271110,,,A*4C
$GPRMC,193059.9,A,3350.045147,N,11604.150883,W,19.6,143.8,271110,,,A*45
$GPRMC,193102.9,A,3350.028400,N,11604.142190,W,20.2,149.4,271110,,,A*47
$GPRMC,193105.9,A,3350.016086,N,11604.132436,W,17.1,148.7,271110,,,A*4C
$GPRMC,193108.9,A,3350.007463,N,11604.122867,W,15.5,140.2,271110,,,A*4C
$GPRMC,193111.0,A,3349.998726,N,11604.114910,W,18.1,140.1,271110,,,A*46
$GPRMC,193114.9,A,3349.982929,N,11604.096380,W,21.5,136.9,271110,,,A*4F
$GPRMC,193117.9,A,3349.973592,N,11604.075881,W,24.7,116.5,271110,,,A*40
$GPRMC,193120.9,A,3349.966428,N,11604.056109,W,21.2,110.1,271110,,,A*4A
$GPRMC,193123.9,A,3349.966815,N,11604.030243,W,24.6,94.2,271110,,,A*79
$GPRMC,193126.9,A,3349.967797,N,11604.009866,W,18.6,87.3,271110,,,A*73
$GPRMC,193129.9,A,3349.971903,N,11603.994693,W,16.4,68.7,271110,,,A*7F
$GPRMC,193132.9,A,3349.979277,N,11603.975024,W,21.9,71.4,271110,,,A*72
$GPRMC,193135.9,A,3349.986601,N,11603.956220,W,20.8,66.2,271110,,,A*77
$GPRMC,193138.0,A,3349.990841,N,11603.944263,W,19.8,68.4,271110,,,A*78
$GPRMC,193141.9,A,3350.003301,N,11603.921853,W,19.8,49.4,271110,,,A*72
$GPRMC,193144.9,A,3350.016377,N,11603.910378,W,20.2,36.7,271110,,,A*79
$GPRMC,193147.9,A,3350.031692,N,11603.895694,W,21.6,35.0,271110,,,A*7B
$GPRMC,193150.0,A,3350.042096,N,11603.887849,W,21.4,30.0,271110,,,A*78
$GPRMC,193154.0,A,3350.066811,N,11603.876283,W,22.7,23.1,271110,,,A*7C
$GPRMC,193157.0,A,3350.082459,N,11603.865193,W,22.6,26.0,271110,,,A*70
$GPRMC,193200.9,A,3350.107161,N,11603.856959,W,22.5,17.3,271110,,,A*76
$GPRMC,193203.2,A,3350.122376,N,11603.854769,W,20.7,8.9,271110,,,A*46
$GPRMC,193206.2,A,3350.143986,N,11603.852686,W,23.8,3.5,271110,,,A*4C
$GPRMC,193209.2,A,3350.163741,N,11603.850044,W,24.8,5.5,271110,,,A*4F
$GPRMC,193212.2,A,3350.184621,N,11603.852025,W,25.0,346.8,271110,,,A*4E
$GPRMC,193215.2,A,3350.205199,N,11603.856663,W,24.9,350.5,271110,,,A*45
$GPRMC,193218.9,A,3350.228634,N,11603.862461,W,24.1,348.6,271110,,,A*49
$GPRMC,193222.0,A,3350.246718,N,11603.862850,W,23.3,1.8,271110,,,A*45
