NMEA Sentence Code,UTC Time,Status,Latitude,Latitude Direction,Longitude,Longitude Direction,Speed (knots),Track Angle (degrees true),Date,MagneticVariation,Magnetic Variation Direction,[FAA Mode]-Optional,Checksum
$GPRMC,021000.000,A,3325.4535,N,11737.0375,W,18.07,28.74,250310,,,A*7F
$GPRMC,021003.000,A,3325.4662,N,11737.0275,W,17.70,39.59,250310,,,A*7C
$GPRMC,021006.000,A,3325.4777,N,11737.0159,W,18.14,41.62,250310,,,A*7B
$GPRMC,021009.000,A,3325.4886,N,11737.0037,W,16.41,44.20,250310,,,A*71
$GPRMC,021012.000,A,3325.4959,N,11736.9945,W,10.92,47.58,250310,,,A*78
$GPRMC,021015.000,A,3325.5001,N,11736.9888,W,4.51,50.37,250310,,,A*4F
$GPRMC,021024.000,A,3325.5041,N,11736.9829,W,5.44,51.38,250310,,,A*49
$GPRMC,021027.000,A,3325.5068,N,11736.9790,W,4.52,52.41,250310,,,A*47
$GPRMC,021030.000,A,3325.5087,N,11736.9755,W,5.24,56.14,250310,,,A*4D
$GPRMC,021033.000,A,3325.5124,N,11736.9692,W,10.35,52.15,250310,,,A*7D
$GPRMC,021036.000,A,3325.5184,N,11736.9600,W,11.86,52.51,250310,,,A*70
$GPRMC,021039.000,A,3325.5234,N,11736.9517,W,9.43,55.93,250310,,,A*4B
$GPRMC,021042.000,A,3325.5287,N,11736.9439,W,10.44,51.34,250310,,,A*74
$GPRMC,021045.000,A,3325.5350,N,11736.9350,W,11.83,51.69,250310,,,A*72
$GPRMC,021048.000,A,3325.5409,N,11736.9264,W,10.12,51.53,250310,,,A*72
$GPRMC,021051.000,A,3325.5456,N,11736.9197,W,7.42,51.59,250310,,,A*46
$GPRMC,021109.000,A,3325.5543,N,11736.9071,W,10.45,52.42,250310,,,A*7E
$GPRMC,021112.000,A,3325.5610,N,11736.8969,W,14.07,52.79,250310,,,A*7A
$GPRMC,021115.000,A,3325.5696,N,11736.8845,W,18.26,50.83,250310,,,A*74
$GPRMC,021118.000,A,3325.5801,N,11736.8691,W,20.65,51.54,250310,,,A*79
$GPRMC,021121.000,A,3325.5913,N,11736.8528,W,20.15,51.14,250310,,,A*73
$GPRMC,021124.000,A,3325.6009,N,11736.8383,W,17.88,53.23,250310,,,A*76
$GPRMC,021127.000,A,3325.6111,N,11736.8236,W,18.68,51.70,250310,,,A*77
$GPRMC,021130.000,A,3325.6198,N,11736.8103,W,15.57,52.24,250310,,,A*76
$GPRMC,021133.000,A,3325.6284,N,11736.7983,W,16.46,51.12,250310,,,A*71
$GPRMC,021136.000,A,3325.6370,N,11736.7859,W,16.28,51.53,250310,,,A*75
$GPRMC,021139.000,A,3325.6455,N,11736.7731,W,15.87,52.41,250310,,,A*7D
$GPRMC,021142.000,A,3325.6517,N,11736.7630,W,9.51,51.16,250310,,,A*41
$GPRMC,021145.000,A,3325.6576,N,11736.7597,W,9.76,358.48,250310,,,A*7B
$GPRMC,021148.000,A,3325.6675,N,11736.7664,W,15.81,323.03,250310,,,A*4F
$GPRMC,021151.000,A,3325.6800,N,11736.7800,W,20.26,320.69,250310,,,A*43
$GPRMC,021154.000,A,3325.6934,N,11736.7935,W,20.95,320.76,250310,,,A*41
$GPRMC,021157.000,A,3325.7085,N,11736.8084,W,23.42,321.06,250310,,,A*43
$GPRMC,021200.000,A,3325.7238,N,11736.8232,W,22.88,321.77,250310,,,A*48
$GPRMC,021203.000,A,3325.7387,N,11736.8377,W,22.77,320.15,250310,,,A*4B
$GPRMC,021206.000,A,3325.7529,N,11736.8530,W,22.66,314.85,250310,,,A*47
$GPRMC,021209.000,A,3325.7648,N,11736.8697,W,20.25,307.36,250310,,,A*4D
$GPRMC,021212.000,A,3325.7725,N,11736.8842,W,14.75,300.66,250310,,,A*4B
$GPRMC,021215.000,A,3325.7775,N,11736.8958,W,12.18,297.22,250310,,,A*41
$GPRMC,021218.000,A,3325.7813,N,11736.9056,W,10.81,295.11,250310,,,A*45
$GPRMC,021221.000,A,3325.7848,N,11736.9160,W,11.82,287.62,250310,,,A*40
$GPRMC,021224.000,A,3325.7876,N,11736.9295,W,16.79,282.39,250310,,,A*49
$GPRMC,021227.000,A,3325.7908,N,11736.9487,W,20.64,281.13,250310,,,A*45
$GPRMC,021230.000,A,3325.7940,N,11736.9697,W,21.44,281.41,250310,,,A*48
$GPRMC,021233.000,A,3325.7975,N,11736.9903,W,20.29,282.55,250310,,,A*43
$GPRMC,021236.000,A,3325.8010,N,11737.0091,W,18.18,282.32,250310,,,A*41
$GPRMC,021239.000,A,3325.8040,N,11737.0260,W,16.53,282.33,250310,,,A*47
$GPRMC,021242.000,A,3325.8068,N,11737.0420,W,16.94,282.10,250310,,,A*49
$GPRMC,021245.000,A,3325.8104,N,11737.0597,W,19.02,284.76,250310,,,A*4E
$GPRMC,021248.000,A,3325.8141,N,11737.0789,W,20.27,282.22,250310,,,A*45
$GPRMC,021251.000,A,3325.8177,N,11737.1000,W,21.88,279.78,250310,,,A*40
$GPRMC,021254.000,A,3325.8210,N,11737.1214,W,21.86,281.92,250310,,,A*4D
$GPRMC,021257.000,A,3325.8249,N,11737.1427,W,20.00,282.09,250310,,,A*4A
$GPRMC,021300.000,A,3325.8276,N,11737.1586,W,13.64,281.88,250310,,,A*47
$GPRMC,021309.000,A,3325.8297,N,11737.1707,W,6.05,282.46,250310,,,A*78
$GPRMC,021312.000,A,3325.8309,N,11737.1774,W,7.94,282.02,250310,,,A*79
$GPRMC,021315.000,A,3325.8332,N,11737.1904,W,18.66,281.80,250310,,,A*45
$GPRMC,021318.000,A,3325.8373,N,11737.2127,W,25.50,282.93,250310,,,A*4D
$GPRMC,021321.000,A,3325.8440,N,11737.2377,W,26.58,292.80,250310,,,A*4F
$GPRMC,021324.000,A,3325.8543,N,11737.2620,W,27.12,299.78,250310,,,A*4C
$GPRMC,021327.000,A,3325.8686,N,11737.2837,W,28.56,313.77,250310,,,A*4E
$GPRMC,021330.000,A,3325.8871,N,11737.3032,W,29.82,321.20,250310,,,A*49
$GPRMC,021333.000,A,3325.9065,N,11737.3228,W,30.78,314.10,250310,,,A*47
$GPRMC,021336.000,A,3325.9224,N,11737.3484,W,32.48,299.76,250310,,,A*40
$GPRMC,021339.000,A,3325.9325,N,11737.3793,W,33.59,285.39,250310,,,A*4D
$GPRMC,021342.000,A,3325.9389,N,11737.4127,W,34.64,281.22,250310,,,A*4E
$GPRMC,021345.000,A,3325.9422,N,11737.4478,W,35.61,271.62,250310,,,A*4F
$GPRMC,021348.000,A,3325.9402,N,11737.4839,W,36.38,261.67,250310,,,A*42
$GPRMC,021351.000,A,3325.9339,N,11737.5203,W,37.20,258.01,250310,,,A*45
$GPRMC,021354.000,A,3325.9299,N,11737.5577,W,38.02,269.67,250310,,,A*42
$GPRMC,021357.000,A,3325.9348,N,11737.5955,W,38.32,281.43,250310,,,A*43
$GPRMC,021400.000,A,3325.9412,N,11737.6330,W,37.80,281.44,250310,,,A*45
$GPRMC,021403.000,A,3325.9476,N,11737.6693,W,36.59,281.85,250310,,,A*40
$GPRMC,021406.000,A,3325.9535,N,11737.7048,W,36.14,280.61,250310,,,A*40
$GPRMC,021409.000,A,3325.9586,N,11737.7401,W,35.54,280.25,250310,,,A*49
$GPRMC,021412.000,A,3325.9643,N,11737.7747,W,34.69,281.50,250310,,,A*44
$GPRMC,021415.000,A,3325.9693,N,11737.8067,W,29.87,279.39,250310,,,A*40
$GPRMC,021418.000,A,3325.9717,N,11737.8320,W,20.55,273.89,250310,,,A*47
$GPRMC,021421.000,A,3325.9720,N,11737.8473,W,11.49,270.84,250310,,,A*49
$GPRMC,021445.000,A,3325.9715,N,11737.8569,W,6.93,263.79,250310,,,A*76
$GPRMC,021448.000,A,3325.9704,N,11737.8674,W,13.67,263.04,250310,,,A*41
$GPRMC,021451.000,A,3325.9688,N,11737.8827,W,16.28,263.64,250310,,,A*4C
$GPRMC,021454.000,A,3325.9672,N,11737.9008,W,18.42,264.27,250310,,,A*4A
$GPRMC,021457.000,A,3325.9659,N,11737.9147,W,10.01,265.30,250310,,,A*42
$GPRMC,021500.000,A,3325.9654,N,11737.9291,W,19.99,266.92,250310,,,A*47
$GPRMC,021503.000,A,3325.9661,N,11737.9530,W,26.85,275.89,250310,,,A*47
$GPRMC,021506.000,A,3325.9705,N,11737.9821,W,31.18,283.76,250310,,,A*47
$GPRMC,021509.000,A,3325.9792,N,11738.0140,W,35.03,292.82,250310,,,A*4B
$GPRMC,021512.000,A,3325.9933,N,11738.0467,W,37.60,301.55,250310,,,A*42
$GPRMC,021515.000,A,3326.0131,N,11738.0775,W,40.05,311.99,250310,,,A*47
$GPRMC,021518.000,A,3326.0370,N,11738.1078,W,42.85,313.62,250310,,,A*4A
$GPRMC,021521.000,A,3326.0626,N,11738.1399,W,45.28,313.38,250310,,,A*45
$GPRMC,021524.000,A,3326.0895,N,11738.1737,W,47.56,313.68,250310,,,A*48
$GPRMC,021527.000,A,3326.1175,N,11738.2084,W,47.62,313.65,250310,,,A*4B
$GPRMC,021530.000,A,3326.1456,N,11738.2433,W,49.25,313.65,250310,,,A*4C
$GPRMC,021533.000,A,3326.1744,N,11738.2794,W,50.49,313.53,250310,,,A*46
$GPRMC,021536.000,A,3326.2038,N,11738.3160,W,50.85,313.50,250310,,,A*43
$GPRMC,021539.000,A,3326.2331,N,11738.3524,W,50.75,313.62,250310,,,A*4C
$GPRMC,021542.000,A,3326.2623,N,11738.3889,W,50.11,313.70,250310,,,A*4D
$GPRMC,021545.000,A,3326.2917,N,11738.4244,W,50.18,315.50,250310,,,A*43
$GPRMC,021548.000,A,3326.3215,N,11738.4602,W,50.65,314.03,250310,,,A*4D
$GPRMC,021551.000,A,3326.3511,N,11738.4969,W,51.47,313.78,250310,,,A*4E
$GPRMC,021554.000,A,3326.3810,N,11738.5342,W,51.92,313.36,250310,,,A*47
$GPRMC,021557.000,A,3326.4094,N,11738.5724,W,50.17,309.20,250310,,,A*43
$GPRMC,021600.000,A,3326.4332,N,11738.6100,W,43.25,305.50,250310,,,A*46
$GPRMC,021603.000,A,3326.4508,N,11738.6394,W,28.49,304.98,250310,,,A*47
$GPRMC,021606.000,A,3326.4617,N,11738.6573,W,17.72,305.07,250310,,,A*43
$GPRMC,021609.000,A,3326.4695,N,11738.6700,W,14.95,305.83,250310,,,A*46
$GPRMC,021612.000,A,3326.4755,N,11738.6795,W,9.59,305.90,250310,,,A*73
$GPRMC,021615.000,A,3326.4789,N,11738.6849,W,4.79,305.77,250310,,,A*7D
$GPRMC,021633.000,A,3326.4802,N,11738.6866,W,4.71,305.20,250310,,,A*72
$GPRMC,021636.000,A,3326.4848,N,11738.6945,W,13.67,305.09,250310,,,A*43
$GPRMC,021639.000,A,3326.4926,N,11738.7080,W,18.33,305.10,250310,,,A*46
$GPRMC,021642.000,A,3326.5020,N,11738.7244,W,21.30,305.14,250310,,,A*43
$GPRMC,021645.000,A,3326.5134,N,11738.7439,W,25.55,305.27,250310,,,A*4B
$GPRMC,021648.000,A,3326.5262,N,11738.7664,W,28.91,303.77,250310,,,A*4A
$GPRMC,021651.000,A,3326.5409,N,11738.7917,W,32.45,306.31,250310,,,A*47
$GPRMC,021654.000,A,3326.5581,N,11738.8188,W,34.66,307.78,250310,,,A*49
$GPRMC,021657.000,A,3326.5761,N,11738.8465,W,34.69,308.13,250310,,,A*4D
$GPRMC,021700.000,A,3326.5944,N,11738.8735,W,34.97,309.46,250310,,,A*41
$GPRMC,021703.000,A,3326.6141,N,11738.9008,W,36.78,311.04,250310,,,A*48
$GPRMC,021706.000,A,3326.6347,N,11738.9290,W,37.35,310.92,250310,,,A*4C
$GPRMC,021709.000,A,3326.6555,N,11738.9568,W,37.45,312.62,250310,,,A*4C
$GPRMC,021712.000,A,3326.6777,N,11738.9848,W,39.16,313.30,250310,,,A*45
$GPRMC,021715.000,A,3326.7011,N,11739.0139,W,41.36,314.13,250310,,,A*48
$GPRMC,021718.000,A,3326.7262,N,11739.0437,W,42.99,315.55,250310,,,A*4D
$GPRMC,021721.000,A,3326.7524,N,11739.0742,W,44.17,315.97,250310,,,A*4D
$GPRMC,021724.000,A,3326.7796,N,11739.1056,W,45.80,315.79,250310,,,A*4F
$GPRMC,021727.000,A,3326.8072,N,11739.1377,W,45.81,316.14,250310,,,A*47
$GPRMC,021730.000,A,3326.8348,N,11739.1689,W,45.15,316.36,250310,,,A*42
$GPRMC,021733.000,A,3326.8622,N,11739.2003,W,46.24,315.86,250310,,,A*46
$GPRMC,021736.000,A,3326.8887,N,11739.2345,W,47.00,309.12,250310,,,A*44
$GPRMC,021739.000,A,3326.9112,N,11739.2712,W,44.10,305.08,250310,,,A*4C
$GPRMC,021742.000,A,3326.9315,N,11739.3067,W,41.75,304.75,250310,,,A*4C
$GPRMC,021745.000,A,3326.9510,N,11739.3399,W,39.49,304.87,250310,,,A*47
$GPRMC,021748.000,A,3326.9693,N,11739.3713,W,37.27,304.73,250310,,,A*49
$GPRMC,021751.000,A,3326.9867,N,11739.4013,W,36.13,305.12,250310,,,A*44
$GPRMC,021754.000,A,3327.0041,N,11739.4308,W,36.68,305.08,250310,,,A*4B
$GPRMC,021757.000,A,3327.0220,N,11739.4617,W,38.80,304.61,250310,,,A*40
$GPRMC,021800.000,A,3327.0411,N,11739.4945,W,41.09,305.45,250310,,,A*49
$GPRMC,021803.000,A,3327.0609,N,11739.5286,W,41.64,303.52,250310,,,A*4F
$GPRMC,021806.000,A,3327.0793,N,11739.5649,W,43.51,299.07,250310,,,A*49
$GPRMC,021809.000,A,3327.0965,N,11739.6047,W,45.43,296.87,250310,,,A*48
$GPRMC,021812.000,A,3327.1135,N,11739.6451,W,45.00,296.86,250310,,,A*4B
$GPRMC,021815.000,A,3327.1302,N,11739.6849,W,44.01,296.40,250310,,,A*45
$GPRMC,021818.000,A,3327.1465,N,11739.7236,W,42.72,297.02,250310,,,A*48
$GPRMC,021821.000,A,3327.1626,N,11739.7613,W,42.10,297.09,250310,,,A*4B
$GPRMC,021824.000,A,3327.1785,N,11739.7984,W,41.89,296.77,250310,,,A*4C
$GPRMC,021827.000,A,3327.1946,N,11739.8353,W,40.49,298.30,250310,,,A*41
$GPRMC,021830.000,A,3327.2114,N,11739.8694,W,39.41,302.21,250310,,,A*41
$GPRMC,021833.000,A,3327.2301,N,11739.9022,W,39.80,305.98,250310,,,A*46
$GPRMC,021836.000,A,3327.2504,N,11739.9335,W,39.44,308.00,250310,,,A*41
$GPRMC,021839.000,A,3327.2700,N,11739.9635,W,37.04,307.75,250310,,,A*4A
$GPRMC,021842.000,A,3327.2886,N,11739.9916,W,35.01,308.89,250310,,,A*42
$GPRMC,021845.000,A,3327.3061,N,11740.0179,W,31.99,307.22,250310,,,A*48
$GPRMC,021848.000,A,3327.3194,N,11740.0387,W,19.79,307.88,250310,,,A*49
$GPRMC,021851.000,A,3327.3263,N,11740.0491,W,9.11,308.21,250310,,,A*79
$GPRMC,021900.000,A,3327.3330,N,11740.0588,W,11.54,306.10,250310,,,A*46
$GPRMC,021903.000,A,3327.3410,N,11740.0716,W,20.24,306.84,250310,,,A*4D
$GPRMC,021906.000,A,3327.3530,N,11740.0911,W,27.42,306.74,250310,,,A*4A
$GPRMC,021909.000,A,3327.3680,N,11740.1149,W,31.68,307.14,250310,,,A*41
$GPRMC,021912.000,A,3327.3843,N,11740.1422,W,35.49,304.90,250310,,,A*4A
$GPRMC,021915.000,A,3327.4023,N,11740.1734,W,39.51,304.99,250310,,,A*4C
$GPRMC,021918.000,A,3327.4225,N,11740.2067,W,42.42,306.96,250310,,,A*44
$GPRMC,021921.000,A,3327.4437,N,11740.2408,W,41.66,306.45,250310,,,A*4D
$GPRMC,021924.000,A,3327.4644,N,11740.2745,W,41.92,305.91,250310,,,A*45
$GPRMC,021927.000,A,3327.4850,N,11740.3086,W,42.05,305.64,250310,,,A*43
$GPRMC,021930.000,A,3327.5060,N,11740.3433,W,43.39,306.03,250310,,,A*49
$GPRMC,021933.000,A,3327.5273,N,11740.3783,W,42.78,305.67,250310,,,A*47
$GPRMC,021936.000,A,3327.5476,N,11740.4121,W,40.63,305.60,250310,,,A*47
$GPRMC,021939.000,A,3327.5670,N,11740.4445,W,38.94,305.59,250310,,,A*46
$GPRMC,021942.000,A,3327.5857,N,11740.4756,W,38.82,306.16,250310,,,A*4F
$GPRMC,021945.000,A,3327.6054,N,11740.5077,W,40.89,306.07,250310,,,A*41
$GPRMC,021948.000,A,3327.6257,N,11740.5413,W,41.83,305.65,250310,,,A*47
$GPRMC,021951.000,A,3327.6462,N,11740.5756,W,42.10,305.38,250310,,,A*4C
$GPRMC,021954.000,A,3327.6662,N,11740.6100,W,41.67,304.81,250310,,,A*4D
$GPRMC,021957.000,A,3327.6864,N,11740.6435,W,41.15,306.20,250310,,,A*49
$GPRMC,022000.000,A,3327.7065,N,11740.6754,W,39.08,307.88,250310,,,A*4D
$GPRMC,022003.000,A,3327.7266,N,11740.7044,W,36.50,311.88,250310,,,A*4D
$GPRMC,022006.000,A,3327.7475,N,11740.7292,W,34.29,317.84,250310,,,A*43
$GPRMC,022009.000,A,3327.7697,N,11740.7489,W,32.07,329.67,250310,,,A*44
$GPRMC,022012.000,A,3327.7951,N,11740.7603,W,33.70,346.73,250310,,,A*46
$GPRMC,022015.000,A,3327.8240,N,11740.7619,W,34.71,5.02,250310,,,A*4A
$GPRMC,022018.000,A,3327.8533,N,11740.7528,W,36.01,18.79,250310,,,A*70
$GPRMC,022021.000,A,3327.8788,N,11740.7347,W,33.27,33.29,250310,,,A*7A
$GPRMC,022024.000,A,3327.9005,N,11740.7145,W,32.33,32.88,250310,,,A*72
$GPRMC,022027.000,A,3327.9229,N,11740.6961,W,31.81,33.86,250310,,,A*77
$GPRMC,022030.000,A,3327.9450,N,11740.6778,W,31.46,33.98,250310,,,A*7B
$GPRMC,022033.000,A,3327.9663,N,11740.6603,W,31.84,33.52,250310,,,A*7F
$GPRMC,022036.000,A,3327.9905,N,11740.6412,W,37.09,33.82,250310,,,A*79
$GPRMC,022039.000,A,3328.0172,N,11740.6193,W,39.69,34.16,250310,,,A*76
$GPRMC,022042.000,A,3328.0452,N,11740.5967,W,40.37,33.60,250310,,,A*7E
$GPRMC,022045.000,A,3328.0726,N,11740.5754,W,37.86,31.55,250310,,,A*79
$GPRMC,022048.000,A,3328.1002,N,11740.5585,W,36.16,22.37,250310,,,A*74
$GPRMC,022051.000,A,3328.1281,N,11740.5468,W,34.65,17.93,250310,,,A*79
$GPRMC,022054.000,A,3328.1559,N,11740.5390,W,33.82,9.56,250310,,,A*46
$GPRMC,022057.000,A,3328.1837,N,11740.5352,W,33.51,5.26,250310,,,A*4B
$GPRMC,022100.000,A,3328.2123,N,11740.5325,W,35.47,4.66,250310,,,A*43
$GPRMC,022103.000,A,3328.2422,N,11740.5303,W,35.56,3.16,250310,,,A*40
$GPRMC,022106.000,A,3328.2713,N,11740.5283,W,34.57,4.29,250310,,,A*46
$GPRMC,022109.000,A,3328.2992,N,11740.5255,W,32.09,5.62,250310,,,A*46
$GPRMC,022112.000,A,3328.3247,N,11740.5228,W,29.51,5.17,250310,,,A*41
$GPRMC,022115.000,A,3328.3476,N,11740.5204,W,26.36,5.45,250310,,,A*45
$GPRMC,022118.000,A,3328.3674,N,11740.5183,W,21.64,5.83,250310,,,A*4E
$GPRMC,022121.000,A,3328.3815,N,11740.5168,W,12.96,5.18,250310,,,A*47
$GPRMC,022124.000,A,3328.3881,N,11740.5164,W,5.34,5.02,250310,,,A*76
$GPRMC,022139.000,A,3328.3927,N,11740.5162,W,8.11,5.24,250310,,,A*7F
$GPRMC,022142.000,A,3328.4047,N,11740.5151,W,19.75,4.84,250310,,,A*42
$GPRMC,022145.000,A,3328.4248,N,11740.5127,W,26.85,7.05,250310,,,A*40
$GPRMC,022148.000,A,3328.4480,N,11740.5086,W,27.70,10.09,250310,,,A*74
$GPRMC,022151.000,A,3328.4723,N,11740.5031,W,31.30,12.14,250310,,,A*77
$GPRMC,022154.000,A,3328.4991,N,11740.4953,W,33.61,15.54,250310,,,A*7C
$GPRMC,022157.000,A,3328.5274,N,11740.4844,W,37.46,20.34,250310,,,A*78
$GPRMC,022200.000,A,3328.5584,N,11740.4702,W,41.25,20.88,250310,,,A*7F
$GPRMC,022203.000,A,3328.5918,N,11740.4553,W,43.30,20.64,250310,,,A*77
$GPRMC,022206.000,A,3328.6259,N,11740.4395,W,43.40,21.53,250310,,,A*71
$GPRMC,022209.000,A,3328.6591,N,11740.4208,W,44.49,29.32,250310,,,A*79
$GPRMC,022212.000,A,3328.6910,N,11740.3969,W,46.03,34.37,250310,,,A*78
$GPRMC,022215.000,A,3328.7233,N,11740.3695,W,48.15,35.58,250310,,,A*79
$GPRMC,022218.000,A,3328.7563,N,11740.3413,W,48.82,35.64,250310,,,A*7B
$GPRMC,022221.000,A,3328.7891,N,11740.3126,W,47.48,36.06,250310,,,A*7C
$GPRMC,022224.000,A,3328.8206,N,11740.2853,W,45.45,36.04,250310,,,A*75
$GPRMC,022227.000,A,3328.8510,N,11740.2589,W,44.38,35.89,250310,,,A*71
$GPRMC,022230.000,A,3328.8807,N,11740.2332,W,43.39,35.66,250310,,,A*7D
$GPRMC,022233.000,A,3328.9099,N,11740.2080,W,43.27,35.82,250310,,,A*7F
$GPRMC,022236.000,A,3328.9395,N,11740.1825,W,43.49,35.96,250310,,,A*7C
$GPRMC,022239.000,A,3328.9690,N,11740.1570,W,43.65,36.04,250310,,,A*78
$GPRMC,022242.000,A,3328.9983,N,11740.1317,W,42.85,35.65,250310,,,A*75
$GPRMC,022245.000,A,3329.0270,N,11740.1069,W,41.88,36.01,250310,,,A*78
$GPRMC,022248.000,A,3329.0553,N,11740.0824,W,42.13,35.85,250310,,,A*7D
$GPRMC,022251.000,A,3329.0840,N,11740.0577,W,42.66,35.78,250310,,,A*71
$GPRMC,022254.000,A,3329.1129,N,11740.0327,W,43.02,35.72,250310,,,A*79
$GPRMC,022257.000,A,3329.1430,N,11740.0074,W,44.94,34.66,250310,,,A*7E
$GPRMC,022300.000,A,3329.1743,N,11739.9821,W,45.52,33.85,250310,,,A*74
$GPRMC,022303.000,A,3329.2053,N,11739.9572,W,44.10,33.95,250310,,,A*7F
$GPRMC,022306.000,A,3329.2365,N,11739.9330,W,45.21,32.06,250310,,,A*74
$GPRMC,022309.000,A,3329.2690,N,11739.9110,W,44.70,26.19,250310,,,A*7A
$GPRMC,022312.000,A,3329.3034,N,11739.8931,W,44.97,21.56,250310,,,A*76
$GPRMC,022315.000,A,3329.3377,N,11739.8780,W,42.57,20.01,250310,,,A*78
$GPRMC,022318.000,A,3329.3699,N,11739.8642,W,39.77,20.18,250310,,,A*79
$GPRMC,022321.000,A,3329.3989,N,11739.8515,W,33.38,20.12,250310,,,A*77
$GPRMC,022324.000,A,3329.4228,N,11739.8403,W,29.77,24.94,250310,,,A*79
$GPRMC,022327.000,A,3329.4443,N,11739.8257,W,30.46,33.85,250310,,,A*7A
$GPRMC,022330.000,A,3329.4642,N,11739.8077,W,29.69,38.25,250310,,,A*7B
$GPRMC,022333.000,A,3329.4826,N,11739.7911,W,24.59,36.04,250310,,,A*71
$GPRMC,022336.000,A,3329.4946,N,11739.7817,W,10.88,30.00,250310,,,A*7D
$GPRMC,022345.000,A,3329.5012,N,11739.7773,W,8.47,28.82,250310,,,A*44
$GPRMC,022348.000,A,3329.5110,N,11739.7715,W,16.39,25.24,250310,,,A*7D
$GPRMC,022351.000,A,3329.5245,N,11739.7652,W,20.35,18.95,250310,,,A*79
$GPRMC,022354.000,A,3329.5428,N,11739.7593,W,23.39,12.71,250310,,,A*70
$GPRMC,022357.000,A,3329.5618,N,11739.7558,W,22.07,4.06,250310,,,A*4E
$GPRMC,022400.000,A,3329.5766,N,11739.7555,W,13.80,0.49,250310,,,A*4C
$GPRMC,022403.000,A,3329.5850,N,11739.7556,W,7.88,1.31,250310,,,A*75
$GPRMC,022412.000,A,3329.5934,N,11739.7559,W,9.78,0.85,250310,,,A*76
$GPRMC,022415.000,A,3329.6047,N,11739.7558,W,17.06,1.45,250310,,,A*45
$GPRMC,022418.000,A,3329.6211,N,11739.7554,W,21.95,1.30,250310,,,A*48
$GPRMC,022421.000,A,3329.6416,N,11739.7552,W,25.92,1.22,250310,,,A*45
$GPRMC,022424.000,A,3329.6642,N,11739.7547,W,27.20,1.27,250310,,,A*49
$GPRMC,022427.000,A,3329.6870,N,11739.7543,W,26.92,0.91,250310,,,A*45
$GPRMC,022430.000,A,3329.7096,N,11739.7539,W,25.98,1.23,250310,,,A*4E
$GPRMC,022433.000,A,3329.7304,N,11739.7534,W,23.80,1.15,250310,,,A*42
$GPRMC,022436.000,A,3329.7494,N,11739.7531,W,21.48,1.09,250310,,,A*47
$GPRMC,022439.000,A,3329.7664,N,11739.7529,W,19.69,0.84,250310,,,A*40
$GPRMC,022442.000,A,3329.7844,N,11739.7526,W,22.76,1.67,250310,,,A*45
$GPRMC,022445.000,A,3329.8031,N,11739.7517,W,22.21,3.65,250310,,,A*47
$GPRMC,022448.000,A,3329.8220,N,11739.7503,W,22.72,3.82,250310,,,A*42
$GPRMC,022451.000,A,3329.8400,N,11739.7494,W,20.01,1.81,250310,,,A*46
$GPRMC,022454.000,A,3329.8522,N,11739.7490,W,9.81,2.38,250310,,,A*74
$GPRMC,022500.000,A,3329.8617,N,11739.7489,W,10.91,1.40,250310,,,A*4C
$GPRMC,022503.000,A,3329.8732,N,11739.7488,W,15.66,0.88,250310,,,A*40
$GPRMC,022506.000,A,3329.8893,N,11739.7488,W,21.66,0.12,250310,,,A*45
$GPRMC,022509.000,A,3329.9079,N,11739.7491,W,23.34,358.47,250310,,,A*44
$GPRMC,022512.000,A,3329.9284,N,11739.7496,W,24.51,0.16,250310,,,A*47
$GPRMC,022515.000,A,3329.9487,N,11739.7493,W,23.47,0.67,250310,,,A*46
$GPRMC,022518.000,A,3329.9673,N,11739.7487,W,21.13,2.00,250310,,,A*47
$GPRMC,022521.000,A,3329.9813,N,11739.7478,W,12.28,3.05,250310,,,A*49
$GPRMC,022524.000,A,3329.9916,N,11739.7479,W,13.86,358.39,250310,,,A*4E
$GPRMC,022527.000,A,3330.0033,N,11739.7491,W,14.24,355.28,250310,,,A*46
$GPRMC,022530.000,A,3330.0157,N,11739.7504,W,15.37,355.60,250310,,,A*41
$GPRMC,022533.000,A,3330.0277,N,11739.7516,W,13.98,355.22,250310,,,A*45
$GPRMC,022536.000,A,3330.0377,N,11739.7529,W,8.49,354.21,250310,,,A*79
$GPRMC,022612.000,A,3330.0463,N,11739.7544,W,6.18,355.24,250310,,,A*7B
$GPRMC,022615.000,A,3330.0539,N,11739.7552,W,12.00,354.26,250310,,,A*4A
$GPRMC,022618.000,A,3330.0662,N,11739.7572,W,17.18,353.14,250310,,,A*42
$GPRMC,022621.000,A,3330.0824,N,11739.7593,W,20.84,354.12,250310,,,A*4B
$GPRMC,022624.000,A,3330.1002,N,11739.7616,W,20.38,350.86,250310,,,A*43
$GPRMC,022627.000,A,3330.1161,N,11739.7690,W,20.27,325.43,250310,,,A*4F
$GPRMC,022630.000,A,3330.1286,N,11739.7823,W,19.84,319.25,250310,,,A*49
$GPRMC,022633.000,A,3330.1438,N,11739.7931,W,22.52,336.98,250310,,,A*43
$GPRMC,022636.000,A,3330.1616,N,11739.8014,W,23.09,340.09,250310,,,A*4F
$GPRMC,022639.000,A,3330.1794,N,11739.8092,W,22.07,339.79,250310,,,A*43
$GPRMC,022642.000,A,3330.1959,N,11739.8163,W,20.01,340.70,250310,,,A*4C
$GPRMC,022645.000,A,3330.2112,N,11739.8228,W,18.89,340.51,250310,,,A*4B
$GPRMC,022648.000,A,3330.2267,N,11739.8292,W,19.74,340.35,250310,,,A*47
$GPRMC,022651.000,A,3330.2419,N,11739.8355,W,18.41,340.44,250310,,,A*4B
$GPRMC,022654.000,A,3330.2547,N,11739.8409,W,12.82,340.36,250310,,,A*4A
$GPRMC,022657.000,A,3330.2615,N,11739.8439,W,5.53,343.86,250310,,,A*7C
$GPRMC,022709.000,A,3330.2708,N,11739.8473,W,10.16,341.24,250310,,,A*4A
$GPRMC,022712.000,A,3330.2814,N,11739.8516,W,16.06,340.94,250310,,,A*4D
$GPRMC,022715.000,A,3330.2949,N,11739.8572,W,16.74,340.92,250310,,,A*42
$GPRMC,022718.000,A,3330.3080,N,11739.8627,W,17.19,340.29,250310,,,A*4B
$GPRMC,022721.000,A,3330.3232,N,11739.8692,W,20.66,340.32,250310,,,A*42
$GPRMC,022724.000,A,3330.3395,N,11739.8761,W,20.96,340.69,250310,,,A*47
$GPRMC,022727.000,A,3330.3572,N,11739.8835,W,23.40,340.56,250310,,,A*41
$GPRMC,022730.000,A,3330.3760,N,11739.8914,W,23.42,340.24,250310,,,A*43
$GPRMC,022733.000,A,3330.3941,N,11739.8993,W,22.05,339.66,250310,,,A*48
$GPRMC,022736.000,A,3330.4103,N,11739.9067,W,19.44,338.48,250310,,,A*47
$GPRMC,022739.000,A,3330.4243,N,11739.9137,W,17.08,336.63,250310,,,A*4A
$GPRMC,022742.000,A,3330.4364,N,11739.9201,W,14.68,335.76,250310,,,A*46
$GPRMC,022745.000,A,3330.4467,N,11739.9256,W,12.17,336.88,250310,,,A*4B
$GPRMC,022748.000,A,3330.4538,N,11739.9293,W,7.66,337.57,250310,,,A*75
$GPRMC,022754.000,A,3330.4629,N,11739.9337,W,9.20,338.65,250310,,,A*76
$GPRMC,022757.000,A,3330.4729,N,11739.9382,W,15.39,340.11,250310,,,A*43
$GPRMC,022800.000,A,3330.4870,N,11739.9441,W,20.55,341.79,250310,,,A*46
$GPRMC,022803.000,A,3330.5067,N,11739.9507,W,27.51,344.15,250310,,,A*45
$GPRMC,022806.000,A,3330.5310,N,11739.9601,W,32.71,340.58,250310,,,A*4D
$GPRMC,022809.000,A,3330.5579,N,11739.9718,W,34.77,340.20,250310,,,A*4D
$GPRMC,022812.000,A,3330.5856,N,11739.9846,W,36.62,337.04,250310,,,A*43
$GPRMC,022815.000,A,3330.6149,N,11739.9989,W,38.39,339.22,250310,,,A*48
$GPRMC,022818.000,A,3330.6465,N,11740.0120,W,39.78,340.84,250310,,,A*44
$GPRMC,022821.000,A,3330.6782,N,11740.0254,W,39.97,340.53,250310,,,A*4F
$GPRMC,022824.000,A,3330.7089,N,11740.0384,W,37.93,340.85,250310,,,A*4A
$GPRMC,022827.000,A,3330.7392,N,11740.0513,W,38.93,340.05,250310,,,A*4F
$GPRMC,022830.000,A,3330.7702,N,11740.0643,W,39.82,341.57,250310,,,A*45
$GPRMC,022833.000,A,3330.7999,N,11740.0784,W,36.68,336.54,250310,,,A*48
$GPRMC,022836.000,A,3330.8274,N,11740.0933,W,36.20,335.05,250310,,,A*43
$GPRMC,022839.000,A,3330.8553,N,11740.1090,W,37.16,335.14,250310,,,A*4B
$GPRMC,022842.000,A,3330.8831,N,11740.1245,W,35.54,335.75,250310,,,A*47
$GPRMC,022845.000,A,3330.9100,N,11740.1380,W,34.77,338.36,250310,,,A*48
$GPRMC,022848.000,A,3330.9349,N,11740.1493,W,27.74,342.97,250310,,,A*48
$GPRMC,022851.000,A,3330.9534,N,11740.1546,W,18.56,346.65,250310,,,A*40
$GPRMC,022854.000,A,3330.9643,N,11740.1586,W,10.56,341.21,250310,,,A*45
$GPRMC,022857.000,A,3330.9713,N,11740.1614,W,8.64,340.43,250310,,,A*77
$GPRMC,022900.000,A,3330.9770,N,11740.1637,W,4.64,340.35,250310,,,A*7D
$GPRMC,022906.000,A,3330.9825,N,11740.1657,W,11.70,341.52,250310,,,A*43
$GPRMC,022909.000,A,3330.9956,N,11740.1710,W,21.30,341.23,250310,,,A*4A
$GPRMC,022912.000,A,3331.0161,N,11740.1795,W,29.73,340.74,250310,,,A*45
$GPRMC,022915.000,A,3331.0420,N,11740.1897,W,34.70,342.17,250310,,,A*47
$GPRMC,022918.000,A,3331.0707,N,11740.2002,W,36.15,344.92,250310,,,A*41
$GPRMC,022921.000,A,3331.1005,N,11740.2074,W,36.16,353.33,250310,,,A*40
$GPRMC,022924.000,A,3331.1305,N,11740.2056,W,35.95,12.23,250310,,,A*79
$GPRMC,022927.000,A,3331.1570,N,11740.1956,W,28.95,18.30,250310,,,A*70
$GPRMC,022930.000,A,3331.1761,N,11740.1874,W,17.96,21.44,250310,,,A*73
$GPRMC,022933.000,A,3331.1840,N,11740.1836,W,5.17,21.28,250310,,,A*4A
$GPRMC,022951.000,A,3331.1847,N,11740.1826,W,6.03,21.28,250310,,,A*4E
$GPRMC,022954.000,A,3331.1944,N,11740.1788,W,16.94,17.03,250310,,,A*71
$GPRMC,022957.000,A,3331.2112,N,11740.1737,W,24.38,11.41,250310,,,A*79
$GPRMC,023000.000,A,3331.2338,N,11740.1685,W,29.53,11.44,250310,,,A*74
$GPRMC,023003.000,A,3331.2583,N,11740.1629,W,29.75,10.80,250310,,,A*7A
$GPRMC,023006.000,A,3331.2823,N,11740.1555,W,29.63,19.19,250310,,,A*7E
$GPRMC,023009.000,A,3331.3060,N,11740.1435,W,31.96,25.21,250310,,,A*7F
$GPRMC,023012.000,A,3331.3315,N,11740.1286,W,35.65,27.58,250310,,,A*7E
$GPRMC,023015.000,A,3331.3592,N,11740.1114,W,38.38,27.33,250310,,,A*70
$GPRMC,023018.000,A,3331.3881,N,11740.0942,W,38.08,24.96,250310,,,A*77
$GPRMC,023021.000,A,3331.4176,N,11740.0832,W,36.91,9.55,250310,,,A*43
$GPRMC,023024.000,A,3331.4491,N,11740.0822,W,38.21,354.01,250310,,,A*44
$GPRMC,023027.000,A,3331.4807,N,11740.0892,W,38.29,348.61,250310,,,A*4C
$GPRMC,023030.000,A,3331.5111,N,11740.0978,W,36.23,343.64,250310,,,A*4A
$GPRMC,023033.000,A,3331.5388,N,11740.1124,W,36.25,329.67,250310,,,A*42
$GPRMC,023036.000,A,3331.5629,N,11740.1344,W,36.76,317.39,250310,,,A*4D
$GPRMC,023039.000,A,3331.5845,N,11740.1637,W,40.26,308.59,250310,,,A*4B
$GPRMC,023042.000,A,3331.6059,N,11740.1959,W,41.31,308.86,250310,,,A*43
$GPRMC,023045.000,A,3331.6276,N,11740.2288,W,42.34,308.37,250310,,,A*43
$GPRMC,023048.000,A,3331.6505,N,11740.2632,W,44.98,308.82,250310,,,A*46
$GPRMC,023051.000,A,3331.6743,N,11740.2989,W,45.57,308.84,250310,,,A*45
$GPRMC,023054.000,A,3331.6982,N,11740.3344,W,44.78,309.16,250310,,,A*4F
$GPRMC,023057.000,A,3331.7231,N,11740.3683,W,45.22,314.29,250310,,,A*4E
$GPRMC,023100.000,A,3331.7508,N,11740.4001,W,46.13,319.15,250310,,,A*48
$GPRMC,023103.000,A,3331.7810,N,11740.4287,W,46.22,324.39,250310,,,A*41
$GPRMC,023106.000,A,3331.8138,N,11740.4542,W,46.75,329.04,250310,,,A*47
$GPRMC,023109.000,A,3331.8486,N,11740.4764,W,47.60,334.48,250310,,,A*4F
$GPRMC,023112.000,A,3331.8859,N,11740.4948,W,48.81,340.35,250310,,,A*42
$GPRMC,023115.000,A,3331.9252,N,11740.5089,W,47.94,345.35,250310,,,A*4E
$GPRMC,023118.000,A,3331.9643,N,11740.5182,W,47.34,350.58,250310,,,A*48
$GPRMC,023121.000,A,3332.0039,N,11740.5244,W,48.10,353.27,250310,,,A*48
$GPRMC,023124.000,A,3332.0445,N,11740.5285,W,48.85,355.76,250310,,,A*41
$GPRMC,023127.000,A,3332.0861,N,11740.5306,W,50.33,358.07,250310,,,A*4D
$GPRMC,023130.000,A,3332.1286,N,11740.5305,W,50.59,0.82,250310,,,A*45
$GPRMC,023133.000,A,3332.1705,N,11740.5288,W,49.60,3.01,250310,,,A*46
$GPRMC,023136.000,A,3332.2113,N,11740.5248,W,48.07,6.21,250310,,,A*4A
$GPRMC,023139.000,A,3332.2507,N,11740.5192,W,47.23,6.54,250310,,,A*4B
$GPRMC,023142.000,A,3332.2896,N,11740.5134,W,46.80,7.10,250310,,,A*47
$GPRMC,023145.000,A,3332.3284,N,11740.5073,W,47.19,7.17,250310,,,A*4C
$GPRMC,023148.000,A,3332.3670,N,11740.5006,W,46.12,8.87,250310,,,A*40
$GPRMC,023151.000,A,3332.4050,N,11740.4936,W,46.34,8.29,250310,,,A*40
$GPRMC,023154.000,A,3332.4436,N,11740.4869,W,47.03,7.75,250310,,,A*49
$GPRMC,023157.000,A,3332.4821,N,11740.4809,W,45.40,7.23,250310,,,A*40
$GPRMC,023200.000,A,3332.5185,N,11740.4756,W,42.87,6.89,250310,,,A*4F
$GPRMC,023203.000,A,3332.5541,N,11740.4703,W,43.41,7.31,250310,,,A*49
$GPRMC,023206.000,A,3332.5905,N,11740.4646,W,45.46,7.67,250310,,,A*42
$GPRMC,023209.000,A,3332.6282,N,11740.4591,W,45.14,6.71,250310,,,A*42
$GPRMC,023212.000,A,3332.6647,N,11740.4546,W,43.11,4.72,250310,,,A*4D
$GPRMC,023215.000,A,3332.6998,N,11740.4512,W,41.49,3.41,250310,,,A*4E
$GPRMC,023218.000,A,3332.7332,N,11740.4493,W,39.22,1.57,250310,,,A*47
$GPRMC,023221.000,A,3332.7652,N,11740.4484,W,37.61,1.79,250310,,,A*4D
$GPRMC,023224.000,A,3332.7945,N,11740.4472,W,32.85,2.43,250310,,,A*4D
$GPRMC,023227.000,A,3332.8167,N,11740.4463,W,21.81,1.71,250310,,,A*4D
$GPRMC,023230.000,A,3332.8292,N,11740.4459,W,10.79,2.51,250310,,,A*4F
$GPRMC,023248.000,A,3332.8342,N,11740.4457,W,4.80,2.58,250310,,,A*78
$GPRMC,023251.000,A,3332.8425,N,11740.4454,W,14.49,2.10,250310,,,A*4D
$GPRMC,023254.000,A,3332.8581,N,11740.4449,W,22.50,1.54,250310,,,A*45
$GPRMC,023257.000,A,3332.8792,N,11740.4444,W,26.88,1.19,250310,,,A*43
$GPRMC,023300.000,A,3332.9023,N,11740.4437,W,26.60,1.82,250310,,,A*4C
$GPRMC,023303.000,A,3332.9209,N,11740.4431,W,18.26,1.05,250310,,,A*43
$GPRMC,023306.000,A,3332.9326,N,11740.4429,W,10.30,1.54,250310,,,A*48
$GPRMC,023330.000,A,3332.9424,N,11740.4424,W,11.19,1.53,250310,,,A*48
$GPRMC,023333.000,A,3332.9566,N,11740.4419,W,21.30,1.77,250310,,,A*4C
$GPRMC,023336.000,A,3332.9776,N,11740.4409,W,27.37,2.28,250310,,,A*43
$GPRMC,023339.000,A,3333.0026,N,11740.4402,W,31.88,1.13,250310,,,A*45
$GPRMC,023342.000,A,3333.0305,N,11740.4395,W,34.81,1.65,250310,,,A*4F
$GPRMC,023345.000,A,3333.0609,N,11740.4386,W,37.29,1.32,250310,,,A*40
$GPRMC,023348.000,A,3333.0929,N,11740.4376,W,38.72,1.84,250310,,,A*43
$GPRMC,023351.000,A,3333.1254,N,11740.4365,W,38.16,1.61,250310,,,A*40
$GPRMC,023354.000,A,3333.1569,N,11740.4356,W,36.67,1.51,250310,,,A*47
$GPRMC,023357.000,A,3333.1870,N,11740.4349,W,35.12,0.95,250310,,,A*47
$GPRMC,023400.000,A,3333.2157,N,11740.4348,W,34.16,359.75,250310,,,A*48
$GPRMC,023403.000,A,3333.2447,N,11740.4361,W,34.94,355.91,250310,,,A*48
$GPRMC,023406.000,A,3333.2745,N,11740.4390,W,36.07,355.30,250310,,,A*41
$GPRMC,023409.000,A,3333.3050,N,11740.4422,W,36.54,354.70,250310,,,A*41
$GPRMC,023412.000,A,3333.3360,N,11740.4456,W,37.96,355.12,250310,,,A*42
$GPRMC,023415.000,A,3333.3685,N,11740.4488,W,39.78,355.47,250310,,,A*46
$GPRMC,023418.000,A,3333.4020,N,11740.4522,W,40.36,354.88,250310,,,A*42
$GPRMC,023421.000,A,3333.4357,N,11740.4558,W,40.59,355.29,250310,,,A*45
$GPRMC,023424.000,A,3333.4695,N,11740.4592,W,40.05,355.44,250310,,,A*4F
$GPRMC,023427.000,A,3333.5020,N,11740.4621,W,37.99,356.35,250310,,,A*4E
$GPRMC,023430.000,A,3333.5321,N,11740.4633,W,35.39,359.76,250310,,,A*49
$GPRMC,023433.000,A,3333.5625,N,11740.4617,W,37.23,2.81,250310,,,A*41
$GPRMC,023436.000,A,3333.5932,N,11740.4599,W,36.16,2.81,250310,,,A*4F
$GPRMC,023439.000,A,3333.6230,N,11740.4580,W,35.25,3.35,250310,,,A*4F
$GPRMC,023442.000,A,3333.6521,N,11740.4559,W,34.82,3.57,250310,,,A*48
$GPRMC,023445.000,A,3333.6815,N,11740.4537,W,35.95,3.43,250310,,,A*4F
$GPRMC,023448.000,A,3333.7118,N,11740.4512,W,36.93,4.04,250310,,,A*41
$GPRMC,023451.000,A,3333.7423,N,11740.4486,W,36.86,3.76,250310,,,A*4E
$GPRMC,023454.000,A,3333.7733,N,11740.4465,W,37.51,3.55,250310,,,A*4E
$GPRMC,023457.000,A,3333.8040,N,11740.4443,W,36.66,3.03,250310,,,A*43
$GPRMC,023500.000,A,3333.8346,N,11740.4425,W,36.59,2.76,250310,,,A*4A
$GPRMC,023503.000,A,3333.8641,N,11740.4409,W,34.27,2.86,250310,,,A*41
$GPRMC,023506.000,A,3333.8913,N,11740.4392,W,30.57,3.36,250310,,,A*40
$GPRMC,023509.000,A,3333.9162,N,11740.4375,W,29.46,2.96,250310,,,A*4A
$GPRMC,023512.000,A,3333.9412,N,11740.4360,W,30.29,3.26,250310,,,A*4D
$GPRMC,023515.000,A,3333.9664,N,11740.4342,W,30.17,3.38,250310,,,A*4B
$GPRMC,023518.000,A,3333.9912,N,11740.4327,W,29.29,2.89,250310,,,A*45
$GPRMC,023521.000,A,3334.0148,N,11740.4311,W,27.88,3.65,250310,,,A*45
$GPRMC,023524.000,A,3334.0377,N,11740.4291,W,27.48,3.71,250310,,,A*4E
$GPRMC,023527.000,A,3334.0605,N,11740.4279,W,27.57,2.35,250310,,,A*44
$GPRMC,023530.000,A,3334.0828,N,11740.4263,W,26.15,4.11,250310,,,A*4F
$GPRMC,023533.000,A,3334.1029,N,11740.4246,W,22.12,3.95,250310,,,A*4B
$GPRMC,023536.000,A,3334.1203,N,11740.4232,W,20.42,3.85,250310,,,A*41
$GPRMC,023539.000,A,3334.1362,N,11740.4210,W,18.59,11.11,250310,,,A*77
$GPRMC,023542.000,A,3334.1503,N,11740.4177,W,17.20,7.37,250310,,,A*4A
$GPRMC,023545.000,A,3334.1639,N,11740.4162,W,15.06,3.47,250310,,,A*46
$GPRMC,023548.000,A,3334.1760,N,11740.4154,W,14.59,3.77,250310,,,A*4B
$GPRMC,023551.000,A,3334.1886,N,11740.4141,W,15.99,5.82,250310,,,A*41
$GPRMC,023554.000,A,3334.2008,N,11740.4130,W,13.45,4.00,250310,,,A*43
$GPRMC,023557.000,A,3334.2095,N,11740.4122,W,7.67,4.73,250310,,,A*76
$GPRMC,023824.000,A,3334.2144,N,11740.4152,W,6.90,286.90,250310,,,A*79
$GPRMC,023827.000,A,3334.2094,N,11740.4199,W,12.14,188.62,250310,,,A*48
$GPRMC,023830.000,A,3334.1954,N,11740.4215,W,20.60,182.73,250310,,,A*47
$GPRMC,023833.000,A,3334.1754,N,11740.4230,W,26.23,183.43,250310,,,A*4E
$GPRMC,023836.000,A,3334.1517,N,11740.4246,W,29.34,182.75,250310,,,A*42
$GPRMC,023839.000,A,3334.1261,N,11740.4262,W,31.03,183.36,250310,,,A*46
$GPRMC,023842.000,A,3334.1000,N,11740.4278,W,30.96,182.69,250310,,,A*42
$GPRMC,023845.000,A,3334.0737,N,11740.4295,W,31.80,183.51,250310,,,A*48
$GPRMC,023848.000,A,3334.0464,N,11740.4316,W,32.96,183.22,250310,,,A*4A
$GPRMC,023851.000,A,3334.0182,N,11740.4333,W,34.37,182.73,250310,,,A*40
$GPRMC,023854.000,A,3333.9887,N,11740.4353,W,35.88,183.52,250310,,,A*46
$GPRMC,023857.000,A,3333.9583,N,11740.4374,W,36.48,182.86,250310,,,A*4E
$GPRMC,023900.000,A,3333.9275,N,11740.4392,W,36.82,183.07,250310,,,A*45
$GPRMC,023903.000,A,3333.8969,N,11740.4413,W,36.00,183.52,250310,,,A*45
$GPRMC,023906.000,A,3333.8672,N,11740.4431,W,34.79,182.80,250310,,,A*47
$GPRMC,023909.000,A,3333.8383,N,11740.4451,W,34.07,183.29,250310,,,A*4E
$GPRMC,023912.000,A,3333.8100,N,11740.4469,W,33.58,182.63,250310,,,A*44
$GPRMC,023915.000,A,3333.7820,N,11740.4484,W,33.09,183.15,250310,,,A*40
$GPRMC,023918.000,A,3333.7546,N,11740.4504,W,32.69,183.21,250310,,,A*49
$GPRMC,023921.000,A,3333.7271,N,11740.4521,W,32.83,182.74,250310,,,A*42
$GPRMC,023924.000,A,3333.7000,N,11740.4538,W,31.98,183.16,250310,,,A*47
$GPRMC,023927.000,A,3333.6736,N,11740.4557,W,31.30,183.37,250310,,,A*4F
$GPRMC,023930.000,A,3333.6476,N,11740.4575,W,31.03,183.03,250310,,,A*49
$GPRMC,023933.000,A,3333.6220,N,11740.4590,W,30.38,182.79,250310,,,A*41
$GPRMC,023936.000,A,3333.5966,N,11740.4607,W,30.12,183.63,250310,,,A*41
$GPRMC,023939.000,A,3333.5716,N,11740.4626,W,29.91,183.31,250310,,,A*40
$GPRMC,023942.000,A,3333.5466,N,11740.4644,W,30.04,182.94,250310,,,A*46
$GPRMC,023945.000,A,3333.5211,N,11740.4653,W,31.38,179.51,250310,,,A*42
$GPRMC,023948.000,A,3333.4942,N,11740.4641,W,33.22,175.63,250310,,,A*44
$GPRMC,023951.000,A,3333.4657,N,11740.4614,W,34.52,175.42,250310,,,A*44
$GPRMC,023954.000,A,3333.4369,N,11740.4588,W,34.68,175.67,250310,,,A*41
$GPRMC,023957.000,A,3333.4079,N,11740.4567,W,35.02,176.41,250310,,,A*4B
$GPRMC,024000.000,A,3333.3787,N,11740.4544,W,35.33,175.80,250310,,,A*4B
$GPRMC,024003.000,A,3333.3491,N,11740.4518,W,35.72,175.61,250310,,,A*4F
$GPRMC,024006.000,A,3333.3192,N,11740.4487,W,36.02,174.57,250310,,,A*4B
$GPRMC,024009.000,A,3333.2892,N,11740.4456,W,35.98,175.33,250310,,,A*43
$GPRMC,024012.000,A,3333.2596,N,11740.4425,W,34.97,174.76,250310,,,A*4A
$GPRMC,024015.000,A,3333.2309,N,11740.4395,W,33.75,175.20,250310,,,A*48
$GPRMC,024018.000,A,3333.2032,N,11740.4378,W,32.80,178.26,250310,,,A*4D
$GPRMC,024021.000,A,3333.1762,N,11740.4374,W,31.53,180.63,250310,,,A*41
$GPRMC,024024.000,A,3333.1505,N,11740.4380,W,30.24,180.99,250310,,,A*48
$GPRMC,024027.000,A,3333.1258,N,11740.4388,W,29.12,181.62,250310,,,A*44
$GPRMC,024030.000,A,3333.1019,N,11740.4397,W,28.16,181.40,250310,,,A*4E
$GPRMC,024033.000,A,3333.0784,N,11740.4407,W,28.22,181.88,250310,,,A*42
$GPRMC,024036.000,A,3333.0552,N,11740.4417,W,27.57,181.79,250310,,,A*4C
$GPRMC,024039.000,A,3333.0325,N,11740.4426,W,26.76,181.60,250310,,,A*4D
$GPRMC,024042.000,A,3333.0105,N,11740.4436,W,25.81,182.60,250310,,,A*48
$GPRMC,024045.000,A,3332.9891,N,11740.4451,W,25.99,183.47,250310,,,A*4F
$GPRMC,024048.000,A,3332.9675,N,11740.4466,W,26.12,181.77,250310,,,A*43
$GPRMC,024051.000,A,3332.9449,N,11740.4472,W,28.35,181.35,250310,,,A*4E
$GPRMC,024054.000,A,3332.9206,N,11740.4484,W,29.55,182.52,250310,,,A*4A
$GPRMC,024057.000,A,3332.8959,N,11740.4498,W,29.79,182.62,250310,,,A*49
$GPRMC,024100.000,A,3332.8719,N,11740.4510,W,26.41,181.28,250310,,,A*48
$GPRMC,024103.000,A,3332.8553,N,11740.4515,W,14.11,180.76,250310,,,A*4C
$GPRMC,024106.000,A,3332.8474,N,11740.4517,W,5.86,179.47,250310,,,A*75
$GPRMC,024124.000,A,3332.8397,N,11740.4518,W,13.16,179.00,250310,,,A*4D
$GPRMC,024127.000,A,3332.8248,N,11740.4513,W,21.72,178.94,250310,,,A*49
$GPRMC,024130.000,A,3332.8046,N,11740.4513,W,26.19,181.36,250310,,,A*47
$GPRMC,024133.000,A,3332.7811,N,11740.4519,W,29.79,181.62,250310,,,A*43
$GPRMC,024136.000,A,3332.7554,N,11740.4527,W,30.91,181.65,250310,,,A*4E
$GPRMC,024139.000,A,3332.7301,N,11740.4534,W,29.48,180.85,250310,,,A*46
$GPRMC,024142.000,A,3332.7068,N,11740.4543,W,26.76,182.48,250310,,,A*47
$GPRMC,024145.000,A,3332.6841,N,11740.4556,W,27.83,182.88,250310,,,A*41
$GPRMC,024148.000,A,3332.6599,N,11740.4576,W,29.63,184.83,250310,,,A*4B
$GPRMC,024151.000,A,3332.6343,N,11740.4611,W,31.78,186.52,250310,,,A*4D
$GPRMC,024154.000,A,3332.6071,N,11740.4653,W,33.39,187.27,250310,,,A*48
$GPRMC,024157.000,A,3332.5788,N,11740.4695,W,34.15,186.41,250310,,,A*4B
$GPRMC,024200.000,A,3332.5503,N,11740.4735,W,34.20,186.52,250310,,,A*44
$GPRMC,024203.000,A,3332.5223,N,11740.4781,W,31.16,187.91,250310,,,A*43
$GPRMC,024206.000,A,3332.5010,N,11740.4833,W,21.84,191.91,250310,,,A*4F
$GPRMC,024209.000,A,3332.4856,N,11740.4858,W,14.50,184.82,250310,,,A*4F
$GPRMC,024212.000,A,3332.4782,N,11740.4877,W,6.60,209.24,250310,,,A*74
$GPRMC,024218.000,A,3332.4767,N,11740.4980,W,8.08,275.81,250310,,,A*78
$GPRMC,024221.000,A,3332.4780,N,11740.5074,W,10.54,279.65,250310,,,A*4E
$GPRMC,024224.000,A,3332.4795,N,11740.5182,W,9.13,278.76,250310,,,A*7F
$GPRMC,024227.000,A,3332.4811,N,11740.5265,W,7.62,290.23,250310,,,A*7B
$GPRMC,024230.000,A,3332.4844,N,11740.5336,W,6.97,297.20,250310,,,A*75
$GPRMC,024233.000,A,3332.4842,N,11740.5392,W,5.71,213.90,250310,,,A*72
$GPRMC,024236.000,A,3332.4797,N,11740.5375,W,7.31,128.83,250310,,,A*76
$GPRMC,024239.000,A,3332.4785,N,11740.5283,W,11.53,93.71,250310,,,A*7D
$GPRMC,024242.000,A,3332.4777,N,11740.5172,W,9.66,95.78,250310,,,A*41
$GPRMC,024245.000,A,3332.4771,N,11740.5084,W,9.04,96.39,250310,,,A*4A
$GPRMC,024248.000,A,3332.4762,N,11740.4988,W,8.70,98.51,250310,,,A*43
$GPRMC,024251.000,A,3332.4752,N,11740.4916,W,5.61,103.93,250310,,,A*7F
$GPRMC,024254.000,A,3332.4717,N,11740.4882,W,6.93,179.18,250310,,,A*77
$GPRMC,024257.000,A,3332.4624,N,11740.4898,W,15.87,187.25,250310,,,A*46
$GPRMC,024300.000,A,3332.4451,N,11740.4924,W,24.68,186.79,250310,,,A*48
$GPRMC,024303.000,A,3332.4217,N,11740.4952,W,30.76,185.49,250310,,,A*44
$GPRMC,024306.000,A,3332.3939,N,11740.4987,W,35.24,186.17,250310,,,A*43
$GPRMC,024309.000,A,3332.3631,N,11740.5030,W,38.10,186.67,250310,,,A*42
$GPRMC,024312.000,A,3332.3304,N,11740.5075,W,40.16,186.62,250310,,,A*46
$GPRMC,024315.000,A,3332.2957,N,11740.5125,W,42.90,186.72,250310,,,A*45
$GPRMC,024318.000,A,3332.2592,N,11740.5179,W,43.90,187.13,250310,,,A*43
$GPRMC,024321.000,A,3332.2229,N,11740.5232,W,43.38,186.69,250310,,,A*4C
$GPRMC,024324.000,A,3332.1860,N,11740.5277,W,44.95,184.42,250310,,,A*47
$GPRMC,024327.000,A,3332.1483,N,11740.5304,W,45.23,182.61,250310,,,A*4B
$GPRMC,024330.000,A,3332.1101,N,11740.5314,W,45.71,180.01,250310,,,A*40
$GPRMC,024333.000,A,3332.0717,N,11740.5305,W,45.41,177.86,250310,,,A*47
$GPRMC,024336.000,A,3332.0333,N,11740.5276,W,46.53,175.47,250310,,,A*4A
$GPRMC,024339.000,A,3331.9948,N,11740.5231,W,45.66,173.43,250310,,,A*4D
$GPRMC,024342.000,A,3331.9566,N,11740.5167,W,45.87,170.40,250310,,,A*4E
$GPRMC,024345.000,A,3331.9194,N,11740.5075,W,45.01,166.19,250310,,,A*47
$GPRMC,024348.000,A,3331.8833,N,11740.4945,W,44.94,161.71,250310,,,A*40
$GPRMC,024351.000,A,3331.8481,N,11740.4781,W,45.52,156.02,250310,,,A*40
$GPRMC,024354.000,A,3331.8144,N,11740.4578,W,44.55,151.11,250310,,,A*4E
$GPRMC,024357.000,A,3331.7834,N,11740.4348,W,43.67,145.75,250310,,,A*48
$GPRMC,024400.000,A,3331.7537,N,11740.4087,W,44.40,141.38,250310,,,A*4C
$GPRMC,024403.000,A,3331.7257,N,11740.3792,W,44.59,137.11,250310,,,A*48
$GPRMC,024406.000,A,3331.7002,N,11740.3473,W,43.79,131.70,250310,,,A*47
$GPRMC,024409.000,A,3331.6776,N,11740.3144,W,41.36,128.77,250310,,,A*4A
$GPRMC,024412.000,A,3331.6565,N,11740.2827,W,39.63,128.75,250310,,,A*40
$GPRMC,024415.000,A,3331.6360,N,11740.2520,W,39.17,128.48,250310,,,A*43
$GPRMC,024418.000,A,3331.6157,N,11740.2212,W,39.11,128.74,250310,,,A*47
$GPRMC,024421.000,A,3331.5954,N,11740.1912,W,38.27,128.78,250310,,,A*45
$GPRMC,024424.000,A,3331.5759,N,11740.1619,W,36.80,128.74,250310,,,A*48
$GPRMC,024427.000,A,3331.5565,N,11740.1352,W,34.18,135.19,250310,,,A*48
$GPRMC,024430.000,A,3331.5342,N,11740.1138,W,34.51,146.09,250310,,,A*4B
$GPRMC,024433.000,A,3331.5088,N,11740.0988,W,33.73,160.63,250310,,,A*40
$GPRMC,024436.000,A,3331.4813,N,11740.0910,W,33.83,169.69,250310,,,A*43
$GPRMC,024439.000,A,3331.4536,N,11740.0856,W,33.25,170.86,250310,,,A*40
$GPRMC,024442.000,A,3331.4275,N,11740.0836,W,30.90,181.41,250310,,,A*42
$GPRMC,024445.000,A,3331.4022,N,11740.0882,W,30.62,193.04,250310,,,A*45
$GPRMC,024448.000,A,3331.3780,N,11740.0993,W,31.66,205.56,250310,,,A*4F
$GPRMC,024451.000,A,3331.3538,N,11740.1143,W,33.28,206.29,250310,,,A*41
$GPRMC,024454.000,A,3331.3286,N,11740.1299,W,34.16,206.59,250310,,,A*4F
$GPRMC,024457.000,A,3331.3031,N,11740.1450,W,33.72,205.28,250310,,,A*41
$GPRMC,024500.000,A,3331.2780,N,11740.1582,W,32.11,199.40,250310,,,A*4C
$GPRMC,024503.000,A,3331.2527,N,11740.1663,W,30.28,191.15,250310,,,A*4C
$GPRMC,024506.000,A,3331.2303,N,11740.1717,W,24.34,190.71,250310,,,A*40
$GPRMC,024509.000,A,3331.2136,N,11740.1758,W,16.00,191.30,250310,,,A*42
$GPRMC,024512.000,A,3331.2052,N,11740.1781,W,5.55,194.05,250310,,,A*7E
$GPRMC,024521.000,A,3331.2008,N,11740.1799,W,5.43,194.24,250310,,,A*7C
$GPRMC,024524.000,A,3331.1918,N,11740.1829,W,15.81,195.04,250310,,,A*4A
$GPRMC,024527.000,A,3331.1764,N,11740.1894,W,23.04,202.73,250310,,,A*4F
$GPRMC,024530.000,A,3331.1563,N,11740.2002,W,29.24,203.36,250310,,,A*40
$GPRMC,024533.000,A,3331.1313,N,11740.2100,W,33.29,192.49,250310,,,A*44
$GPRMC,024536.000,A,3331.1021,N,11740.2140,W,36.35,180.73,250310,,,A*45
$GPRMC,024539.000,A,3331.0710,N,11740.2099,W,37.06,169.13,250310,,,A*4B
$GPRMC,024542.000,A,3331.0429,N,11740.1993,W,32.27,160.94,250310,,,A*4E
$GPRMC,024545.000,A,3331.0197,N,11740.1896,W,27.71,161.17,250310,,,A*40
$GPRMC,024548.000,A,3330.9997,N,11740.1811,W,21.83,160.10,250310,,,A*4F
$GPRMC,024551.000,A,3330.9883,N,11740.1759,W,9.20,159.61,250310,,,A*7F
$GPRMC,024557.000,A,3330.9823,N,11740.1731,W,11.48,159.81,250310,,,A*44
$GPRMC,024600.000,A,3330.9692,N,11740.1676,W,21.10,161.48,250310,,,A*43
$GPRMC,024603.000,A,3330.9494,N,11740.1595,W,27.90,160.94,250310,,,A*44
$GPRMC,024606.000,A,3330.9257,N,11740.1500,W,31.40,161.53,250310,,,A*44
$GPRMC,024609.000,A,3330.9000,N,11740.1386,W,33.50,157.85,250310,,,A*4E
$GPRMC,024612.000,A,3330.8739,N,11740.1248,W,33.97,155.74,250310,,,A*4C
$GPRMC,024615.000,A,3330.8479,N,11740.1105,W,34.09,154.98,250310,,,A*45
$GPRMC,024618.000,A,3330.8222,N,11740.0963,W,33.75,155.25,250310,,,A*42
$GPRMC,024621.000,A,3330.7965,N,11740.0828,W,33.41,157.33,250310,,,A*43
$GPRMC,024624.000,A,3330.7704,N,11740.0693,W,34.11,157.58,250310,,,A*4E
$GPRMC,024627.000,A,3330.7436,N,11740.0568,W,34.92,160.04,250310,,,A*4E
$GPRMC,024630.000,A,3330.7150,N,11740.0445,W,36.93,160.14,250310,,,A*41
$GPRMC,024633.000,A,3330.6849,N,11740.0316,W,38.92,160.50,250310,,,A*4C
$GPRMC,024636.000,A,3330.6535,N,11740.0183,W,40.32,160.36,250310,,,A*44
$GPRMC,024639.000,A,3330.6213,N,11740.0049,W,39.88,160.35,250310,,,A*43
$GPRMC,024642.000,A,3330.5906,N,11739.9919,W,37.61,160.60,250310,,,A*41
$GPRMC,024645.000,A,3330.5620,N,11739.9801,W,33.61,160.47,250310,,,A*44
$GPRMC,024648.000,A,3330.5392,N,11739.9703,W,26.57,160.62,250310,,,A*4E
$GPRMC,024651.000,A,3330.5185,N,11739.9615,W,26.28,159.85,250310,,,A*4F
$GPRMC,024654.000,A,3330.4968,N,11739.9520,W,28.57,159.96,250310,,,A*41
$GPRMC,024657.000,A,3330.4741,N,11739.9426,W,29.27,160.26,250310,,,A*47
$GPRMC,024700.000,A,3330.4508,N,11739.9324,W,29.43,158.58,250310,,,A*4E
$GPRMC,024703.000,A,3330.4279,N,11739.9209,W,29.48,156.36,250310,,,A*4F
$GPRMC,024706.000,A,3330.4053,N,11739.9091,W,29.41,157.03,250310,,,A*4D
$GPRMC,024709.000,A,3330.3824,N,11739.8983,W,29.54,159.57,250310,,,A*4D
$GPRMC,024712.000,A,3330.3592,N,11739.8883,W,29.27,160.04,250310,,,A*4E
$GPRMC,024715.000,A,3330.3364,N,11739.8785,W,28.39,159.90,250310,,,A*46
$GPRMC,024718.000,A,3330.3143,N,11739.8691,W,27.32,160.49,250310,,,A*42
$GPRMC,024721.000,A,3330.2932,N,11739.8604,W,26.59,161.02,250310,,,A*49
$GPRMC,024724.000,A,3330.2719,N,11739.8518,W,27.37,160.68,250310,,,A*41
$GPRMC,024727.000,A,3330.2498,N,11739.8425,W,28.85,160.81,250310,,,A*46
$GPRMC,024730.000,A,3330.2267,N,11739.8326,W,29.78,160.53,250310,,,A*4E
$GPRMC,024733.000,A,3330.2026,N,11739.8224,W,30.88,160.04,250310,,,A*4C
$GPRMC,024736.000,A,3330.1782,N,11739.8118,W,31.16,160.06,250310,,,A*4B
$GPRMC,024739.000,A,3330.1545,N,11739.8022,W,27.27,160.56,250310,,,A*45
$GPRMC,024742.000,A,3330.1359,N,11739.7945,W,19.03,159.63,250310,,,A*42
$GPRMC,024745.000,A,3330.1256,N,11739.7891,W,9.47,150.48,250310,,,A*72
$GPRMC,024815.000,A,3330.1203,N,11739.7846,W,9.11,136.20,250310,,,A*7F
$GPRMC,024818.000,A,3330.1139,N,11739.7765,W,13.30,138.04,250310,,,A*46
$GPRMC,024821.000,A,3330.1028,N,11739.7677,W,17.77,155.30,250310,,,A*44
$GPRMC,024824.000,A,3330.0875,N,11739.7637,W,19.58,174.80,250310,,,A*4F
$GPRMC,024827.000,A,3330.0699,N,11739.7614,W,22.45,173.56,250310,,,A*49
$GPRMC,024830.000,A,3330.0502,N,11739.7589,W,25.50,175.25,250310,,,A*48
$GPRMC,024833.000,A,3330.0290,N,11739.7564,W,25.70,174.18,250310,,,A*49
$GPRMC,024836.000,A,3330.0072,N,11739.7541,W,25.77,175.10,250310,,,A*4B
$GPRMC,024839.000,A,3329.9861,N,11739.7524,W,24.60,177.35,250310,,,A*4E
$GPRMC,024842.000,A,3329.9659,N,11739.7523,W,22.98,181.32,250310,,,A*4F
$GPRMC,024845.000,A,3329.9468,N,11739.7528,W,23.50,180.32,250310,,,A*47
$GPRMC,024848.000,A,3329.9260,N,11739.7533,W,26.38,181.24,250310,,,A*43
$GPRMC,024851.000,A,3329.9027,N,11739.7540,W,28.83,181.35,250310,,,A*40
$GPRMC,024854.000,A,3329.8784,N,11739.7549,W,28.75,182.17,250310,,,A*49
$GPRMC,024857.000,A,3329.8547,N,11739.7563,W,27.16,182.43,250310,,,A*44
$GPRMC,024900.000,A,3329.8372,N,11739.7572,W,13.55,181.76,250310,,,A*42
$GPRMC,024921.000,A,3329.8216,N,11739.7575,W,11.23,181.11,250310,,,A*47
$GPRMC,024924.000,A,3329.8088,N,11739.7580,W,18.72,181.59,250310,,,A*4C
$GPRMC,024927.000,A,3329.7913,N,11739.7585,W,22.48,180.65,250310,,,A*40
$GPRMC,024930.000,A,3329.7716,N,11739.7584,W,24.51,178.95,250310,,,A*4A
$GPRMC,024933.000,A,3329.7500,N,11739.7582,W,26.81,180.89,250310,,,A*4F
$GPRMC,024936.000,A,3329.7277,N,11739.7587,W,26.35,181.12,250310,,,A*44
$GPRMC,024939.000,A,3329.7055,N,11739.7592,W,27.15,181.51,250310,,,A*49
$GPRMC,024942.000,A,3329.6829,N,11739.7600,W,27.77,183.46,250310,,,A*4F
$GPRMC,024945.000,A,3329.6586,N,11739.7621,W,29.72,183.33,250310,,,A*4A
$GPRMC,024948.000,A,3329.6338,N,11739.7633,W,29.04,181.09,250310,,,A*4D
$GPRMC,024951.000,A,3329.6095,N,11739.7638,W,28.76,181.03,250310,,,A*44
$GPRMC,024954.000,A,3329.5857,N,11739.7643,W,27.55,180.56,250310,,,A*47
$GPRMC,024957.000,A,3329.5634,N,11739.7653,W,24.69,184.16,250310,,,A*42
$GPRMC,025000.000,A,3329.5442,N,11739.7685,W,22.11,191.65,250310,,,A*49
$GPRMC,025003.000,A,3329.5246,N,11739.7751,W,26.08,197.89,250310,,,A*48
$GPRMC,025006.000,A,3329.5042,N,11739.7847,W,26.63,204.65,250310,,,A*45
$GPRMC,025009.000,A,3329.4845,N,11739.7980,W,26.75,213.69,250310,,,A*43
$GPRMC,025012.000,A,3329.4690,N,11739.8109,W,17.52,214.28,250310,,,A*4C
$GPRMC,025015.000,A,3329.4612,N,11739.8174,W,5.51,214.32,250310,,,A*70
$GPRMC,025033.000,A,3329.4558,N,11739.8223,W,6.58,215.73,250310,,,A*76
$GPRMC,025036.000,A,3329.4489,N,11739.8285,W,12.77,216.38,250310,,,A*46
$GPRMC,025039.000,A,3329.4382,N,11739.8368,W,17.62,206.90,250310,,,A*45
$GPRMC,025042.000,A,3329.4222,N,11739.8447,W,23.59,199.82,250310,,,A*41
$GPRMC,025045.000,A,3329.4020,N,11739.8534,W,27.32,199.81,250310,,,A*49
$GPRMC,025048.000,A,3329.3794,N,11739.8633,W,30.04,200.12,250310,,,A*45
$GPRMC,025051.000,A,3329.3553,N,11739.8739,W,30.36,200.41,250310,,,A*48
$GPRMC,025054.000,A,3329.3313,N,11739.8844,W,30.63,199.67,250310,,,A*4D
$GPRMC,025057.000,A,3329.3068,N,11739.8950,W,32.20,200.01,250310,,,A*43
$GPRMC,025100.000,A,3329.2807,N,11739.9072,W,34.61,203.36,250310,,,A*4C
$GPRMC,025103.000,A,3329.2537,N,11739.9230,W,37.23,208.13,250310,,,A*4C
$GPRMC,025106.000,A,3329.2257,N,11739.9425,W,39.77,212.34,250310,,,A*4B
$GPRMC,025109.000,A,3329.1981,N,11739.9644,W,39.46,213.64,250310,,,A*44
$GPRMC,025112.000,A,3329.1708,N,11739.9876,W,39.56,217.66,250310,,,A*49
$GPRMC,025115.000,A,3329.1441,N,11740.0127,W,40.80,217.29,250310,,,A*44
$GPRMC,025118.000,A,3329.1165,N,11740.0385,W,42.01,218.80,250310,,,A*47
$GPRMC,025121.000,A,3329.0881,N,11740.0646,W,42.81,216.34,250310,,,A*4C
$GPRMC,025124.000,A,3329.0587,N,11740.0902,W,43.71,215.77,250310,,,A*47
$GPRMC,025127.000,A,3329.0292,N,11740.1159,W,42.66,215.89,250310,,,A*46
$GPRMC,025130.000,A,3329.0009,N,11740.1402,W,40.30,215.66,250310,,,A*4B
$GPRMC,025133.000,A,3328.9745,N,11740.1631,W,37.58,215.57,250310,,,A*41
$GPRMC,025136.000,A,3328.9498,N,11740.1842,W,35.00,215.61,250310,,,A*47
$GPRMC,025139.000,A,3328.9274,N,11740.2035,W,30.04,215.87,250310,,,A*4E
$GPRMC,025142.000,A,3328.9096,N,11740.2190,W,24.39,216.10,250310,,,A*44
$GPRMC,025145.000,A,3328.8925,N,11740.2339,W,26.78,215.97,250310,,,A*49
$GPRMC,025148.000,A,3328.8733,N,11740.2506,W,29.90,215.57,250310,,,A*42
$GPRMC,025151.000,A,3328.8527,N,11740.2679,W,30.27,214.68,250310,,,A*4F
$GPRMC,025154.000,A,3328.8314,N,11740.2857,W,32.06,215.64,250310,,,A*42
$GPRMC,025157.000,A,3328.8085,N,11740.3055,W,35.41,216.02,250310,,,A*46
$GPRMC,025200.000,A,3328.7833,N,11740.3274,W,38.67,215.65,250310,,,A*47
$GPRMC,025203.000,A,3328.7565,N,11740.3504,W,40.35,215.71,250310,,,A*47
$GPRMC,025206.000,A,3328.7289,N,11740.3744,W,41.00,215.93,250310,,,A*4A
$GPRMC,025209.000,A,3328.7005,N,11740.3987,W,41.98,215.44,250310,,,A*49
$GPRMC,025212.000,A,3328.6713,N,11740.4221,W,42.17,211.47,250310,,,A*41
$GPRMC,025215.000,A,3328.6400,N,11740.4429,W,43.07,206.87,250310,,,A*43
$GPRMC,025218.000,A,3328.6067,N,11740.4590,W,43.20,198.92,250310,,,A*4D
$GPRMC,025221.000,A,3328.5724,N,11740.4734,W,43.28,200.24,250310,,,A*4F
$GPRMC,025224.000,A,3328.5397,N,11740.4882,W,40.22,201.51,250310,,,A*4E
$GPRMC,025227.000,A,3328.5090,N,11740.5022,W,38.48,199.05,250310,,,A*4A
$GPRMC,025230.000,A,3328.4798,N,11740.5121,W,33.90,193.37,250310,,,A*45
$GPRMC,025233.000,A,3328.4561,N,11740.5179,W,25.34,190.21,250310,,,A*42
$GPRMC,025236.000,A,3328.4390,N,11740.5207,W,16.25,186.21,250310,,,A*42
$GPRMC,025239.000,A,3328.4295,N,11740.5217,W,7.60,184.66,250310,,,A*78
$GPRMC,025242.000,A,3328.4251,N,11740.5220,W,4.83,184.34,250310,,,A*71
$GPRMC,025245.000,A,3328.4149,N,11740.5230,W,20.11,184.44,250310,,,A*47
$GPRMC,025248.000,A,3328.3944,N,11740.5245,W,27.88,183.78,250310,,,A*45
$GPRMC,025251.000,A,3328.3695,N,11740.5269,W,31.70,185.04,250310,,,A*4D
$GPRMC,025254.000,A,3328.3420,N,11740.5296,W,34.73,184.87,250310,,,A*48
$GPRMC,025257.000,A,3328.3118,N,11740.5327,W,37.32,185.32,250310,,,A*47
$GPRMC,025300.000,A,3328.2798,N,11740.5368,W,38.89,186.70,250310,,,A*4A
$GPRMC,025303.000,A,3328.2476,N,11740.5406,W,37.55,184.72,250310,,,A*4B
$GPRMC,025306.000,A,3328.2168,N,11740.5435,W,36.04,184.80,250310,,,A*4C
$GPRMC,025309.000,A,3328.1873,N,11740.5463,W,34.69,184.36,250310,,,A*44
$GPRMC,025312.000,A,3328.1588,N,11740.5497,W,33.39,187.27,250310,,,A*4D
$GPRMC,025315.000,A,3328.1318,N,11740.5557,W,32.81,193.60,250310,,,A*4C
$GPRMC,025318.000,A,3328.1055,N,11740.5652,W,33.21,199.70,250310,,,A*4D
$GPRMC,025321.000,A,3328.0796,N,11740.5778,W,33.07,203.55,250310,,,A*44
$GPRMC,025324.000,A,3328.0558,N,11740.5927,W,31.70,212.04,250310,,,A*43
$GPRMC,025327.000,A,3328.0341,N,11740.6101,W,29.94,213.81,250310,,,A*4E
$GPRMC,025330.000,A,3328.0159,N,11740.6248,W,21.83,213.46,250310,,,A*48
$GPRMC,025333.000,A,3328.0042,N,11740.6342,W,12.26,213.31,250310,,,A*44
$GPRMC,025336.000,A,3327.9980,N,11740.6392,W,6.61,212.88,250310,,,A*78
$GPRMC,025406.000,A,3327.9961,N,11740.6417,W,5.35,213.53,250310,,,A*7C
$GPRMC,025409.000,A,3327.9873,N,11740.6487,W,17.86,213.25,250310,,,A*42
$GPRMC,025412.000,A,3327.9718,N,11740.6611,W,25.53,213.36,250310,,,A*4C
$GPRMC,025415.000,A,3327.9524,N,11740.6764,W,28.86,213.46,250310,,,A*47
$GPRMC,025418.000,A,3327.9314,N,11740.6933,W,30.75,213.82,250310,,,A*4E
$GPRMC,025421.000,A,3327.9095,N,11740.7108,W,31.03,213.41,250310,,,A*40
$GPRMC,025424.000,A,3327.8884,N,11740.7283,W,29.66,215.87,250310,,,A*4A
$GPRMC,025427.000,A,3327.8685,N,11740.7453,W,28.97,212.64,250310,,,A*48
$GPRMC,025430.000,A,3327.8471,N,11740.7591,W,27.20,204.16,250310,,,A*49
$GPRMC,025433.000,A,3327.8273,N,11740.7659,W,19.72,189.31,250310,,,A*40
$GPRMC,025436.000,A,3327.8164,N,11740.7700,W,10.51,221.34,250310,,,A*41
$GPRMC,025439.000,A,3327.8134,N,11740.7799,W,12.41,268.03,250310,,,A*41
$GPRMC,025442.000,A,3327.8151,N,11740.7961,W,19.17,283.27,250310,,,A*4C
$GPRMC,025445.000,A,3327.8240,N,11740.8130,W,19.65,323.15,250310,,,A*44
$GPRMC,025448.000,A,3327.8411,N,11740.8142,W,20.82,19.87,250310,,,A*7C
$GPRMC,025451.000,A,3327.8531,N,11740.7989,W,21.21,70.01,250310,,,A*7E
$GPRMC,025454.000,A,3327.8525,N,11740.7733,W,28.08,101.81,250310,,,A*4C
$GPRMC,025457.000,A,3327.8452,N,11740.7414,W,36.94,108.89,250310,,,A*43
$GPRMC,025500.000,A,3327.8337,N,11740.7047,W,39.92,109.05,250310,,,A*4A
$GPRMC,025503.000,A,3327.8218,N,11740.6644,W,44.06,109.16,250310,,,A*44
$GPRMC,025506.000,A,3327.8091,N,11740.6215,W,45.30,111.00,250310,,,A*48
$GPRMC,025509.000,A,3327.7964,N,11740.5783,W,45.22,106.53,250310,,,A*41
$GPRMC,025512.000,A,3327.7899,N,11740.5329,W,46.17,94.82,250310,,,A*7F
$GPRMC,025515.000,A,3327.7903,N,11740.4867,W,45.61,85.34,250310,,,A*75
$GPRMC,025518.000,A,3327.7969,N,11740.4420,W,45.45,75.25,250310,,,A*72
$GPRMC,025521.000,A,3327.8109,N,11740.3998,W,44.69,63.11,250310,,,A*7F
$GPRMC,025524.000,A,3327.8318,N,11740.3627,W,44.06,53.26,250310,,,A*7D
$GPRMC,025527.000,A,3327.8555,N,11740.3293,W,43.16,46.69,250310,,,A*73
$GPRMC,025530.000,A,3327.8818,N,11740.2994,W,43.49,41.21,250310,,,A*7D
$GPRMC,025533.000,A,3327.9104,N,11740.2747,W,40.31,32.39,250310,,,A*7A
$GPRMC,025536.000,A,3327.9363,N,11740.2575,W,30.68,27.78,250310,,,A*75
$GPRMC,025539.000,A,3327.9539,N,11740.2473,W,16.58,27.88,250310,,,A*7C
$GPRMC,025542.000,A,3327.9630,N,11740.2422,W,10.15,29.47,250310,,,A*7C
$GPRMC,025545.000,A,3327.9717,N,11740.2364,W,14.76,32.62,250310,,,A*76
$GPRMC,025548.000,A,3327.9849,N,11740.2263,W,22.38,34.28,250310,,,A*7E
$GPRMC,025551.000,A,3328.0019,N,11740.2109,W,27.79,41.69,250310,,,A*75
$GPRMC,025554.000,A,3328.0196,N,11740.1913,W,29.79,41.35,250310,,,A*71
$GPRMC,025557.000,A,3328.0371,N,11740.1682,W,31.30,49.23,250310,,,A*75
$GPRMC,025600.000,A,3328.0516,N,11740.1425,W,29.81,55.96,250310,,,A*7C
$GPRMC,025603.000,A,3328.0643,N,11740.1196,W,24.13,54.74,250310,,,A*7A
$GPRMC,025606.000,A,3328.0740,N,11740.1012,W,19.25,61.35,250310,,,A*78
$GPRMC,025609.000,A,3328.0793,N,11740.0877,W,10.60,64.82,250310,,,A*72
$GPRMC,025612.000,A,3328.0848,N,11740.0803,W,11.54,28.22,250310,,,A*76
$GPRMC,025615.000,A,3328.0958,N,11740.0788,W,14.36,354.73,250310,,,A*40
$GPRMC,025618.000,A,3328.1044,N,11740.0814,W,6.11,340.94,250310,,,A*78
$GPRMC,025621.000,A,3328.1074,N,11740.0839,W,4.37,304.70,250310,,,A*72
$GPRMC,025624.000,A,3328.1070,N,11740.0897,W,5.90,233.86,250310,,,A*77
$GPRMC,025627.000,A,3328.1028,N,11740.0919,W,6.07,167.36,250310,,,A*7A
$GPRMC,025630.000,A,3328.0976,N,11740.0900,W,5.74,159.59,250310,,,A*74
$GPRMC,025639.000,A,3328.0898,N,11740.0876,W,5.81,183.28,250310,,,A*77
$GPRMC,025642.000,A,3328.0843,N,11740.0919,W,10.27,230.49,250310,,,A*41
$GPRMC,025645.000,A,3328.0778,N,11740.1049,W,19.83,241.65,250310,,,A*43
$GPRMC,025648.000,A,3328.0677,N,11740.1257,W,27.00,236.87,250310,,,A*47
$GPRMC,025651.000,A,3328.0533,N,11740.1500,W,30.79,233.95,250310,,,A*47
$GPRMC,025654.000,A,3328.0372,N,11740.1757,W,32.47,231.30,250310,,,A*43
$GPRMC,025657.000,A,3328.0196,N,11740.2003,W,31.78,229.82,250310,,,A*42
$GPRMC,025700.000,A,3328.0031,N,11740.2197,W,22.34,222.81,250310,,,A*43
$GPRMC,025703.000,A,3327.9919,N,11740.2296,W,12.04,216.77,250310,,,A*49
$GPRMC,025706.000,A,3327.9852,N,11740.2354,W,6.58,215.29,250310,,,A*79
$GPRMC,025715.000,A,3327.9793,N,11740.2396,W,7.63,213.43,250310,,,A*74
$GPRMC,025718.000,A,3327.9700,N,11740.2467,W,17.48,211.21,250310,,,A*44
$GPRMC,025721.000,A,3327.9536,N,11740.2572,W,26.25,207.90,250310,,,A*48
$GPRMC,025724.000,A,3327.9327,N,11740.2706,W,29.31,209.02,250310,,,A*45
$GPRMC,025727.000,A,3327.9108,N,11740.2867,W,31.91,215.69,250310,,,A*42
$GPRMC,025730.000,A,3327.8892,N,11740.3076,W,33.97,220.33,250310,,,A*4B
$GPRMC,025733.000,A,3327.8681,N,11740.3314,W,35.07,225.86,250310,,,A*47
$GPRMC,025736.000,A,3327.8480,N,11740.3585,W,36.87,231.11,250310,,,A*4F
$GPRMC,025739.000,A,3327.8303,N,11740.3898,W,37.60,241.50,250310,,,A*47
$GPRMC,025742.000,A,3327.8171,N,11740.4243,W,37.64,247.74,250310,,,A*43
$GPRMC,025745.000,A,3327.8071,N,11740.4603,W,38.94,254.99,250310,,,A*44
$GPRMC,025748.000,A,3327.8008,N,11740.4995,W,40.96,261.89,250310,,,A*4D
$GPRMC,025751.000,A,3327.7995,N,11740.5432,W,45.52,272.96,250310,,,A*47
$GPRMC,025754.000,A,3327.8063,N,11740.5904,W,48.92,283.37,250310,,,A*41
$GPRMC,025757.000,A,3327.8196,N,11740.6379,W,49.78,290.70,250310,,,A*4E
$GPRMC,025800.000,A,3327.8358,N,11740.6853,W,51.41,291.11,250310,,,A*45
$GPRMC,025803.000,A,3327.8517,N,11740.7335,W,50.32,290.06,250310,,,A*43
$GPRMC,025806.000,A,3327.8646,N,11740.7800,W,46.95,285.16,250310,,,A*43
$GPRMC,025809.000,A,3327.8715,N,11740.8245,W,44.36,275.34,250310,,,A*4B
$GPRMC,025812.000,A,3327.8719,N,11740.8681,W,43.56,266.84,250310,,,A*49
$GPRMC,025815.000,A,3327.8681,N,11740.9113,W,43.70,261.75,250310,,,A*4E
$GPRMC,025818.000,A,3327.8625,N,11740.9551,W,45.55,261.92,250310,,,A*47
$GPRMC,025821.000,A,3327.8577,N,11741.0006,W,45.96,264.68,250310,,,A*49
$GPRMC,025824.000,A,3327.8579,N,11741.0451,W,43.52,274.90,250310,,,A*4C
$GPRMC,025827.000,A,3327.8639,N,11741.0863,W,40.69,283.49,250310,,,A*42
$GPRMC,025830.000,A,3327.8733,N,11741.1238,W,37.80,288.80,250310,,,A*43
$GPRMC,025833.000,A,3327.8831,N,11741.1581,W,34.87,288.15,250310,,,A*40
$GPRMC,025836.000,A,3327.8914,N,11741.1882,W,28.45,288.12,250310,,,A*49
$GPRMC,025839.000,A,3327.8971,N,11741.2088,W,15.37,288.50,250310,,,A*49
$GPRMC,025845.000,A,3327.8989,N,11741.2211,W,10.95,278.62,250310,,,A*44
$GPRMC,025848.000,A,3327.9042,N,11741.2393,W,24.71,288.13,250310,,,A*49
$GPRMC,025851.000,A,3327.9116,N,11741.2666,W,31.22,288.39,250310,,,A*44
$GPRMC,025854.000,A,3327.9206,N,11741.2990,W,35.41,287.78,250310,,,A*4E
$GPRMC,025857.000,A,3327.9298,N,11741.3333,W,35.66,286.96,250310,,,A*4C
$GPRMC,025900.000,A,3327.9381,N,11741.3651,W,30.40,288.11,250310,,,A*47
$GPRMC,025903.000,A,3327.9456,N,11741.3918,W,26.26,288.13,250310,,,A*4E
$GPRMC,025906.000,A,3327.9523,N,11741.4169,W,27.11,287.40,250310,,,A*4D
$GPRMC,025909.000,A,3327.9587,N,11741.4443,W,28.89,285.06,250310,,,A*4F
$GPRMC,025912.000,A,3327.9646,N,11741.4723,W,28.38,283.41,250310,,,A*41
$GPRMC,025915.000,A,3327.9697,N,11741.5001,W,29.24,281.67,250310,,,A*46
$GPRMC,025918.000,A,3327.9742,N,11741.5272,W,26.14,281.38,250310,,,A*42
$GPRMC,025921.000,A,3327.9784,N,11741.5530,W,26.66,282.45,250310,,,A*4F
$GPRMC,025924.000,A,3327.9841,N,11741.5789,W,27.20,287.85,250310,,,A*46
$GPRMC,025927.000,A,3327.9920,N,11741.6052,W,29.00,289.49,250310,,,A*43
$GPRMC,025930.000,A,3328.0012,N,11741.6328,W,29.88,292.90,250310,,,A*4B
