NMEA Sentence Code,UTC Time,Status,Latitude,Latitude Direction,Longitude,Longitude Direction,Speed (knots),Track Angle (degrees true),Date,MagneticVariation,Magnetic Variation Direction,[FAA Mode]-Optional,Checksum
$GPRMC,003017.000,A,3344.0653,N,11748.9986,W,60.26,126.21,281210,,,A*40
$GPRMC,003020.000,A,3344.0315,N,11748.9525,W,60.75,131.48,281210,,,A*49
$GPRMC,003023.000,A,3343.9977,N,11748.9084,W,60.26,132.54,281210,,,A*4C
$GPRMC,003026.000,A,3343.9642,N,11748.8634,W,60.27,130.78,281210,,,A*41
$GPRMC,003029.000,A,3343.9311,N,11748.8157,W,61.23,129.02,281210,,,A*4F
$GPRMC,003032.000,A,3343.8999,N,11748.7684,W,61.23,129.02,281210,,,A*48
$GPRMC,003035.000,A,3343.8674,N,11748.7205,W,61.75,129.38,281210,,,A*44
$GPRMC,003038.000,A,3343.8345,N,11748.6735,W,61.72,129.38,281210,,,A*4E
$GPRMC,003041.000,A,3343.8014,N,11748.6265,W,61.23,129.73,281210,,,A*4C
$GPRMC,003044.000,A,3343.7689,N,11748.5801,W,59.29,129.73,281210,,,A*4E
$GPRMC,003047.000,A,3343.7370,N,11748.5347,W,59.29,129.73,281210,,,A*47
$GPRMC,003050.000,A,3343.7055,N,11748.4890,W,59.29,129.73,281210,,,A*45
$GPRMC,003053.000,A,3343.6739,N,11748.4437,W,59.78,129.73,281210,,,A*4F
$GPRMC,003056.000,A,3343.6430,N,11748.3986,W,59.78,129.38,281210,,,A*4F
$GPRMC,003059.000,A,3343.6115,N,11748.3513,W,60.26,129.02,281210,,,A*4A
$GPRMC,003102.000,A,3343.5803,N,11748.3040,W,60.75,128.67,281210,,,A*4F
$GPRMC,003105.000,A,3343.5487,N,11748.2563,W,60.75,128.32,281210,,,A*4D
$GPRMC,003108.000,A,3343.5181,N,11748.2093,W,59.78,127.97,281210,,,A*4E
$GPRMC,003111.000,A,3343.4872,N,11748.1623,W,59.78,128.67,281210,,,A*4C
$GPRMC,003114.000,A,3343.4554,N,11748.1160,W,59.78,129.02,281210,,,A*42
$GPRMC,003117.000,A,3343.4235,N,11748.0693,W,59.78,129.02,281210,,,A*4B
$GPRMC,003120.000,A,3343.3926,N,11748.0239,W,59.78,129.73,281210,,,A*43
$GPRMC,003123.000,A,3343.3604,N,11747.9779,W,59.78,130.08,281210,,,A*4C
$GPRMC,003126.000,A,3343.3295,N,11747.9325,W,58.80,129.73,281210,,,A*4A
$GPRMC,003129.000,A,3343.2977,N,11747.8868,W,58.80,129.73,281210,,,A*40
$GPRMC,003132.000,A,3343.2661,N,11747.8421,W,58.80,130.08,281210,,,A*47
$GPRMC,003135.000,A,3343.2349,N,11747.7964,W,59.29,129.73,281210,,,A*4A
$GPRMC,003138.000,A,3343.2030,N,11747.7507,W,59.78,129.73,281210,,,A*47
$GPRMC,003141.000,A,3343.1712,N,11747.7047,W,59.29,129.73,281210,,,A*48
$GPRMC,003144.000,A,3343.1396,N,11747.6593,W,59.30,129.73,281210,,,A*40
$GPRMC,003147.000,A,3343.1074,N,11747.6136,W,59.78,129.73,281210,,,A*4B
$GPRMC,003150.000,A,3343.0752,N,11747.5672,W,60.76,129.73,281210,,,A*4F
$GPRMC,003153.000,A,3343.0427,N,11747.5202,W,60.26,129.73,281210,,,A*4B
$GPRMC,003156.000,A,3343.0109,N,11747.4748,W,59.29,129.73,281210,,,A*48
$GPRMC,003159.000,A,3342.9793,N,11747.4295,W,58.80,129.73,281210,,,A*4D
$GPRMC,003202.000,A,3342.9478,N,11747.3844,W,59.29,129.73,281210,,,A*45
$GPRMC,003205.000,A,3342.9159,N,11747.3384,W,59.78,129.73,281210,,,A*47
$GPRMC,003208.000,A,3342.8844,N,11747.2933,W,59.29,129.73,281210,,,A*4D
$GPRMC,003211.000,A,3342.8525,N,11747.2476,W,59.29,129.73,281210,,,A*43
$GPRMC,003214.000,A,3342.8210,N,11747.2032,W,58.32,130.08,281210,,,A*4C
$GPRMC,003217.000,A,3342.7894,N,11747.1581,W,58.33,130.43,281210,,,A*46
$GPRMC,003220.000,A,3342.7569,N,11747.1150,W,58.84,132.89,281210,,,A*4D
$GPRMC,003223.000,A,3342.7225,N,11747.0725,W,58.81,134.30,281210,,,A*45
$GPRMC,003226.000,A,3342.6877,N,11747.0313,W,59.30,135.35,281210,,,A*42
$GPRMC,003229.000,A,3342.6514,N,11746.9898,W,59.78,136.76,281210,,,A*4D
$GPRMC,003232.000,A,3342.6137,N,11746.9512,W,60.27,139.22,281210,,,A*43
$GPRMC,003235.000,A,3342.5747,N,11746.9125,W,60.26,140.62,281210,,,A*4D
$GPRMC,003238.000,A,3342.5355,N,11746.8759,W,59.78,142.73,281210,,,A*48
$GPRMC,003241.000,A,3342.4946,N,11746.8408,W,59.78,144.14,281210,,,A*4F
$GPRMC,003244.000,A,3342.4534,N,11746.8070,W,60.26,146.25,281210,,,A*49
$GPRMC,003247.000,A,3342.4106,N,11746.7738,W,60.27,147.66,281210,,,A*4C
$GPRMC,003250.000,A,3342.3681,N,11746.7432,W,59.78,149.41,281210,,,A*47
$GPRMC,003253.000,A,3342.3253,N,11746.7140,W,58.80,150.47,281210,,,A*47
$GPRMC,003256.000,A,3342.2825,N,11746.6860,W,58.32,151.52,281210,,,A*4E
$GPRMC,003259.000,A,3342.2400,N,11746.6583,W,57.83,151.17,281210,,,A*4E
$GPRMC,003302.000,A,3342.1969,N,11746.6303,W,58.80,150.82,281210,,,A*4F
$GPRMC,003305.000,A,3342.1528,N,11746.6016,W,59.29,151.52,281210,,,A*48
$GPRMC,003308.000,A,3342.1100,N,11746.5749,W,58.32,151.88,281210,,,A*49
$GPRMC,003311.000,A,3342.0665,N,11746.5479,W,58.32,151.52,281210,,,A*43
$GPRMC,003314.000,A,3342.0237,N,11746.5189,W,59.29,151.17,281210,,,A*45
$GPRMC,003317.000,A,3341.9790,N,11746.4909,W,59.29,151.17,281210,,,A*45
$GPRMC,003320.000,A,3341.9365,N,11746.4623,W,58.80,151.17,281210,,,A*4A
$GPRMC,003323.000,A,3341.8924,N,11746.4339,W,58.80,151.52,281210,,,A*48
$GPRMC,003326.000,A,3341.8486,N,11746.4059,W,59.78,151.88,281210,,,A*4C
$GPRMC,003329.000,A,3341.8052,N,11746.3770,W,59.78,151.52,281210,,,A*42
$GPRMC,003332.000,A,3341.7598,N,11746.3480,W,59.78,151.52,281210,,,A*48
$GPRMC,003335.000,A,3341.7144,N,11746.3187,W,60.75,151.52,281210,,,A*4F
$GPRMC,003338.000,A,3341.6713,N,11746.2891,W,59.78,151.17,281210,,,A*4E
$GPRMC,003341.000,A,3341.6278,N,11746.2604,W,59.29,151.17,281210,,,A*4E
$GPRMC,003344.000,A,3341.5844,N,11746.2312,W,59.29,150.82,281210,,,A*42
$GPRMC,003347.000,A,3341.5412,N,11746.2019,W,58.32,150.82,281210,,,A*4D
$GPRMC,003350.000,A,3341.4978,N,11746.1739,W,58.32,151.52,281210,,,A*41
$GPRMC,003353.000,A,3341.4524,N,11746.1436,W,60.26,151.17,281210,,,A*44
$GPRMC,003356.000,A,3341.4083,N,11746.1156,W,60.26,151.17,281210,,,A*4A
$GPRMC,003359.000,A,3341.3649,N,11746.0879,W,59.78,151.52,281210,,,A*47
$GPRMC,003402.000,A,3341.3220,N,11746.0596,W,59.29,151.88,281210,,,A*4A
$GPRMC,003405.000,A,3341.2763,N,11746.0287,W,60.26,151.17,281210,,,A*4A
$GPRMC,003408.000,A,3341.2322,N,11745.9997,W,60.75,151.17,281210,,,A*40
$GPRMC,003411.000,A,3341.1885,N,11745.9711,W,60.75,151.52,281210,,,A*4C
$GPRMC,003414.000,A,3341.1447,N,11745.9437,W,60.26,151.52,281210,,,A*4A
$GPRMC,003417.000,A,3341.1016,N,11745.9144,W,59.78,151.17,281210,,,A*48
$GPRMC,003420.000,A,3341.0555,N,11745.8848,W,60.75,151.52,281210,,,A*4D
$GPRMC,003423.000,A,3341.0092,N,11745.8539,W,61.23,151.17,281210,,,A*48
$GPRMC,003426.000,A,3340.9664,N,11745.8214,W,60.27,146.60,281210,,,A*41
$GPRMC,003429.000,A,3340.9268,N,11745.7867,W,60.27,142.38,281210,,,A*4E
$GPRMC,003432.000,A,3340.8891,N,11745.7487,W,59.78,139.22,281210,,,A*4C
$GPRMC,003435.000,A,3340.8528,N,11745.7084,W,58.80,136.76,281210,,,A*4B
$GPRMC,003438.000,A,3340.8170,N,11745.6682,W,58.80,136.76,281210,,,A*4E
$GPRMC,003441.000,A,3340.7813,N,11745.6277,W,59.29,137.11,281210,,,A*4F
$GPRMC,003444.000,A,3340.7456,N,11745.5874,W,59.29,137.11,281210,,,A*4D
$GPRMC,003447.000,A,3340.7105,N,11745.5465,W,58.80,136.41,281210,,,A*47
$GPRMC,003450.000,A,3340.6741,N,11745.5060,W,58.80,137.46,281210,,,A*41
$GPRMC,003453.000,A,3340.6362,N,11745.4696,W,58.33,142.73,281210,,,A*45
$GPRMC,003456.000,A,3340.5969,N,11745.4365,W,58.32,146.60,281210,,,A*4C
$GPRMC,003459.000,A,3340.5531,N,11745.4085,W,59.78,152.58,281210,,,A*4E
$GPRMC,003502.000,A,3340.5081,N,11745.3863,W,60.26,159.26,281210,,,A*4B
$GPRMC,003505.000,A,3340.4604,N,11745.3679,W,59.78,164.18,281210,,,A*41
$GPRMC,003508.000,A,3340.4115,N,11745.3557,W,60.26,169.10,281210,,,A*40
$GPRMC,003511.000,A,3340.3606,N,11745.3454,W,60.75,170.16,281210,,,A*40
$GPRMC,003514.000,A,3340.3104,N,11745.3354,W,60.75,170.16,281210,,,A*47
$GPRMC,003517.000,A,3340.2609,N,11745.3238,W,60.27,168.05,281210,,,A*48
$GPRMC,003520.000,A,3340.2135,N,11745.3071,W,59.81,162.07,281210,,,A*45
$GPRMC,003523.000,A,3340.1662,N,11745.2849,W,60.27,156.45,281210,,,A*45
$GPRMC,003526.000,A,3340.1208,N,11745.2575,W,61.23,152.23,281210,,,A*4B
$GPRMC,003529.000,A,3340.0768,N,11745.2244,W,61.23,147.30,281210,,,A*45
$GPRMC,003532.000,A,3340.0352,N,11745.1915,W,60.26,146.60,281210,,,A*4E
$GPRMC,003535.000,A,3339.9931,N,11745.1571,W,60.75,146.25,281210,,,A*48
$GPRMC,003538.000,A,3339.9506,N,11745.1239,W,61.23,146.25,281210,,,A*44
$GPRMC,003541.000,A,3339.9068,N,11745.0898,W,60.26,146.60,281210,,,A*42
$GPRMC,003544.000,A,3339.8656,N,11745.0570,W,60.26,146.95,281210,,,A*4C
$GPRMC,003547.000,A,3339.8228,N,11745.0242,W,60.26,147.30,281210,,,A*4A
$GPRMC,003550.000,A,3339.7803,N,11744.9910,W,60.75,147.30,281210,,,A*42
$GPRMC,003553.000,A,3339.7378,N,11744.9582,W,60.26,146.95,281210,,,A*49
$GPRMC,003556.000,A,3339.6970,N,11744.9253,W,59.29,146.25,281210,,,A*4A
$GPRMC,003559.000,A,3339.6558,N,11744.8925,W,58.80,146.25,281210,,,A*4A
$GPRMC,003602.000,A,3339.6155,N,11744.8603,W,58.32,146.25,281210,,,A*4C
$GPRMC,003605.000,A,3339.5750,N,11744.8278,W,57.83,146.25,281210,,,A*46
$GPRMC,003608.000,A,3339.5351,N,11744.7960,W,57.83,146.25,281210,,,A*43
$GPRMC,003611.000,A,3339.4939,N,11744.7631,W,58.32,145.90,281210,,,A*4D
$GPRMC,003614.000,A,3339.4533,N,11744.7300,W,59.29,144.49,281210,,,A*47
$GPRMC,003617.000,A,3339.4121,N,11744.6952,W,60.75,145.20,281210,,,A*42
$GPRMC,003620.000,A,3339.3706,N,11744.6614,W,61.23,145.90,281210,,,A*46
$GPRMC,003623.000,A,3339.3278,N,11744.6276,W,61.23,147.30,281210,,,A*41
$GPRMC,003626.000,A,3339.2859,N,11744.5938,W,60.75,146.25,281210,,,A*49
$GPRMC,003629.000,A,3339.2438,N,11744.5600,W,60.75,146.25,281210,,,A*49
$GPRMC,003632.000,A,3339.2013,N,11744.5262,W,61.23,146.25,281210,,,A*4C
$GPRMC,003635.000,A,3339.1585,N,11744.4918,W,62.21,146.25,281210,,,A*44
$GPRMC,003638.000,A,3339.1157,N,11744.4577,W,62.21,146.60,281210,,,A*46
$GPRMC,003641.000,A,3339.0729,N,11744.4236,W,60.76,146.25,281210,,,A*45
$GPRMC,003644.000,A,3339.0317,N,11744.3907,W,59.30,146.25,281210,,,A*4F
$GPRMC,003647.000,A,3338.9901,N,11744.3579,W,59.30,146.25,281210,,,A*4C
$GPRMC,003650.000,A,3338.9499,N,11744.3257,W,57.84,146.25,281210,,,A*4C
$GPRMC,003653.000,A,3338.9100,N,11744.2938,W,56.87,146.25,281210,,,A*4B
$GPRMC,003656.000,A,3338.8704,N,11744.2626,W,56.87,146.25,281210,,,A*4D
$GPRMC,003659.000,A,3338.8305,N,11744.2304,W,57.35,146.25,281210,,,A*4A
$GPRMC,003702.000,A,3338.7909,N,11744.1992,W,56.86,146.25,281210,,,A*43
$GPRMC,003705.000,A,3338.7507,N,11744.1670,W,57.83,146.25,281210,,,A*41
$GPRMC,003708.000,A,3338.7104,N,11744.1358,W,57.83,146.95,281210,,,A*4F
$GPRMC,003711.000,A,3338.6699,N,11744.1033,W,57.83,146.60,281210,,,A*41
$GPRMC,003714.000,A,3338.6300,N,11744.0711,W,57.83,146.60,281210,,,A*47
$GPRMC,003717.000,A,3338.5891,N,11744.0389,W,57.83,146.95,281210,,,A*4B
$GPRMC,003720.000,A,3338.5485,N,11744.0080,W,57.83,146.95,281210,,,A*4C
$GPRMC,003723.000,A,3338.5073,N,11743.9758,W,58.32,146.95,281210,,,A*4B
$GPRMC,003726.000,A,3338.4668,N,11743.9446,W,58.32,147.30,281210,,,A*41
$GPRMC,003729.000,A,3338.4262,N,11743.9134,W,56.86,146.95,281210,,,A*4F
$GPRMC,003732.000,A,3338.3873,N,11743.8831,W,55.40,146.60,281210,,,A*46
$GPRMC,003735.000,A,3338.3487,N,11743.8519,W,55.40,146.25,281210,,,A*40
$GPRMC,003738.000,A,3338.3100,N,11743.8210,W,55.89,146.25,281210,,,A*4C
$GPRMC,003741.000,A,3338.2701,N,11743.7895,W,56.86,146.25,281210,,,A*40
$GPRMC,003744.000,A,3338.2302,N,11743.7576,W,58.32,145.90,281210,,,A*4E
$GPRMC,003747.000,A,3338.1893,N,11743.7248,W,59.29,145.90,281210,,,A*4C
$GPRMC,003750.000,A,3338.1485,N,11743.6916,W,59.29,145.90,281210,,,A*40
$GPRMC,003753.000,A,3338.1073,N,11743.6582,W,59.29,145.90,281210,,,A*4F
$GPRMC,003756.000,A,3338.0667,N,11743.6250,W,59.29,145.55,281210,,,A*49
$GPRMC,003759.000,A,3338.0261,N,11743.5912,W,59.30,143.79,281210,,,A*4A
$GPRMC,003802.000,A,3337.9878,N,11743.5555,W,58.80,141.33,281210,,,A*46
$GPRMC,003805.000,A,3337.9515,N,11743.5159,W,58.81,137.11,281210,,,A*4F
$GPRMC,003808.000,A,3337.9167,N,11743.4753,W,58.33,136.05,281210,,,A*43
$GPRMC,003811.000,A,3337.8826,N,11743.4351,W,57.84,135.35,281210,,,A*43
$GPRMC,003814.000,A,3337.8488,N,11743.3949,W,57.83,135.35,281210,,,A*4D
$GPRMC,003817.000,A,3337.8144,N,11743.3546,W,57.35,135.70,281210,,,A*44
$GPRMC,003820.000,A,3337.7793,N,11743.3157,W,58.33,138.52,281210,,,A*43
$GPRMC,003823.000,A,3337.7413,N,11743.2774,W,59.30,141.33,281210,,,A*46
$GPRMC,003826.000,A,3337.7020,N,11743.2414,W,59.29,142.03,281210,,,A*4A
$GPRMC,003829.000,A,3337.6624,N,11743.2047,W,59.78,142.38,281210,,,A*48
$GPRMC,003832.000,A,3337.6238,N,11743.1686,W,59.30,142.38,281210,,,A*4F
$GPRMC,003835.000,A,3337.5842,N,11743.1322,W,59.30,142.38,281210,,,A*47
$GPRMC,003838.000,A,3337.5453,N,11743.0965,W,58.84,142.38,281210,,,A*40
$GPRMC,003841.000,A,3337.5060,N,11743.0605,W,58.84,142.38,281210,,,A*43
$GPRMC,003844.000,A,3337.4677,N,11743.0254,W,58.33,142.38,281210,,,A*4B
$GPRMC,003847.000,A,3337.4294,N,11742.9900,W,57.35,142.38,281210,,,A*4A
$GPRMC,003850.000,A,3337.3921,N,11742.9549,W,56.86,142.38,281210,,,A*46
$GPRMC,003853.000,A,3337.3535,N,11742.9195,W,58.81,142.73,281210,,,A*4F
$GPRMC,003856.000,A,3337.3145,N,11742.8834,W,59.30,142.38,281210,,,A*4E
$GPRMC,003859.000,A,3337.2756,N,11742.8477,W,58.80,142.38,281210,,,A*45
$GPRMC,003902.000,A,3337.2369,N,11742.8123,W,58.33,142.38,281210,,,A*4E
$GPRMC,003905.000,A,3337.1980,N,11742.7763,W,58.35,142.38,281210,,,A*4C
$GPRMC,003908.000,A,3337.1597,N,11742.7412,W,57.86,142.38,281210,,,A*49
$GPRMC,003911.000,A,3337.1211,N,11742.7058,W,57.86,142.38,281210,,,A*42
$GPRMC,003914.000,A,3337.0834,N,11742.6707,W,57.84,142.38,281210,,,A*45
$GPRMC,003917.000,A,3337.0445,N,11742.6350,W,58.81,142.38,281210,,,A*40
$GPRMC,003920.000,A,3337.0055,N,11742.5989,W,59.30,142.03,281210,,,A*4F
$GPRMC,003923.000,A,3336.9669,N,11742.5609,W,59.78,139.92,281210,,,A*42
$GPRMC,003926.000,A,3336.9312,N,11742.5207,W,59.78,136.05,281210,,,A*45
$GPRMC,003929.000,A,3336.8958,N,11742.4789,W,58.80,135.35,281210,,,A*4B
$GPRMC,003932.000,A,3336.8610,N,11742.4383,W,58.32,135.35,281210,,,A*45
$GPRMC,003935.000,A,3336.8259,N,11742.3971,W,58.32,135.35,281210,,,A*4B
$GPRMC,003938.000,A,3336.7912,N,11742.3569,W,58.32,136.05,281210,,,A*48
$GPRMC,003941.000,A,3336.7567,N,11742.3160,W,58.32,136.05,281210,,,A*45
$GPRMC,003944.000,A,3336.7210,N,11742.2748,W,59.29,136.05,281210,,,A*41
$GPRMC,003947.000,A,3336.6859,N,11742.2320,W,59.78,135.00,281210,,,A*4C
$GPRMC,003950.000,A,3336.6531,N,11742.1889,W,59.78,130.78,281210,,,A*48
$GPRMC,003953.000,A,3336.6219,N,11742.1425,W,58.80,127.62,281210,,,A*47
$GPRMC,003956.000,A,3336.5938,N,11742.0955,W,58.32,124.10,281210,,,A*4D
$GPRMC,003959.000,A,3336.5678,N,11742.0463,W,57.83,121.64,281210,,,A*42
$GPRMC,004002.000,A,3336.5449,N,11741.9954,W,57.83,118.12,281210,,,A*4A
$GPRMC,004005.000,A,3336.5234,N,11741.9442,W,57.35,117.07,281210,,,A*4D
$GPRMC,004008.000,A,3336.5021,N,11741.8950,W,56.37,117.42,281210,,,A*4B
$GPRMC,004011.000,A,3336.4799,N,11741.8438,W,56.86,117.07,281210,,,A*4E
$GPRMC,004014.000,A,3336.4590,N,11741.7939,W,56.86,116.72,281210,,,A*40
$GPRMC,004017.000,A,3336.4361,N,11741.7411,W,58.32,117.07,281210,,,A*4E
$GPRMC,004020.000,A,3336.4142,N,11741.6916,W,58.32,117.77,281210,,,A*45
$GPRMC,004023.000,A,3336.3914,N,11741.6404,W,57.83,118.48,281210,,,A*42
$GPRMC,004026.000,A,3336.3669,N,11741.5921,W,57.35,120.59,281210,,,A*4D
$GPRMC,004029.000,A,3336.3393,N,11741.5419,W,58.33,123.75,281210,,,A*40
$GPRMC,004032.000,A,3336.3116,N,11741.4943,W,59.78,125.86,281210,,,A*42
$GPRMC,004035.000,A,3336.2813,N,11741.4463,W,59.78,127.27,281210,,,A*4E
$GPRMC,004038.000,A,3336.2501,N,11741.3996,W,60.26,129.02,281210,,,A*45
$GPRMC,004041.000,A,3336.2192,N,11741.3539,W,58.32,128.67,281210,,,A*40
$GPRMC,004044.000,A,3336.1899,N,11741.3079,W,58.32,126.21,281210,,,A*49
$GPRMC,004047.000,A,3336.1626,N,11741.2587,W,58.80,123.40,281210,,,A*4E
$GPRMC,004050.000,A,3336.1384,N,11741.2085,W,58.32,119.18,281210,,,A*4F
$GPRMC,004053.000,A,3336.1159,N,11741.1563,W,58.32,116.72,281210,,,A*43
$GPRMC,004056.000,A,3336.0946,N,11741.1035,W,59.29,116.02,281210,,,A*4B
$GPRMC,004059.000,A,3336.0734,N,11741.0504,W,58.80,115.31,281210,,,A*48
$GPRMC,004102.000,A,3336.0528,N,11740.9976,W,58.80,114.61,281210,,,A*4D
$GPRMC,004105.000,A,3336.0325,N,11740.9448,W,58.32,114.96,281210,,,A*40
$GPRMC,004108.000,A,3336.0113,N,11740.8914,W,59.29,114.96,281210,,,A*44
$GPRMC,004111.000,A,3335.9897,N,11740.8377,W,58.80,115.31,281210,,,A*42
$GPRMC,004114.000,A,3335.9669,N,11740.7829,W,58.80,115.31,281210,,,A*47
$GPRMC,004117.000,A,3335.9495,N,11740.7347,W,56.86,115.31,281210,,,A*4E
$GPRMC,004120.000,A,3335.9305,N,11740.6851,W,55.89,116.02,281210,,,A*46
$GPRMC,004123.000,A,3335.9060,N,11740.6346,W,57.83,120.59,281210,,,A*4B
$GPRMC,004126.000,A,3335.8771,N,11740.5873,W,59.78,127.97,281210,,,A*49
$GPRMC,004129.000,A,3335.8436,N,11740.5425,W,60.76,133.24,281210,,,A*40
$GPRMC,004132.000,A,3335.8072,N,11740.4994,W,61.72,136.05,281210,,,A*4B
$GPRMC,004135.000,A,3335.7686,N,11740.4595,W,60.27,139.92,281210,,,A*43
$GPRMC,004138.000,A,3335.7296,N,11740.4244,W,59.29,143.09,281210,,,A*4B
$GPRMC,004141.000,A,3335.6884,N,11740.3909,W,58.80,146.60,281210,,,A*40
$GPRMC,004144.000,A,3335.6463,N,11740.3626,W,57.83,152.23,281210,,,A*4C
$GPRMC,004147.000,A,3335.6025,N,11740.3391,W,57.35,157.85,281210,,,A*44
$GPRMC,004150.000,A,3335.5574,N,11740.3211,W,57.35,162.77,281210,,,A*42
$GPRMC,004153.000,A,3335.5117,N,11740.3079,W,56.37,166.99,281210,,,A*4B
$GPRMC,004156.000,A,3335.4647,N,11740.2998,W,57.35,172.27,281210,,,A*49
$GPRMC,004159.000,A,3335.4168,N,11740.2985,W,58.32,178.24,281210,,,A*41
$GPRMC,004202.000,A,3335.3675,N,11740.3005,W,59.29,180.70,281210,,,A*4D
$GPRMC,004205.000,A,3335.3173,N,11740.3014,W,59.78,180.70,281210,,,A*4F
$GPRMC,004208.000,A,3335.2678,N,11740.3027,W,59.78,180.70,281210,,,A*4F
$GPRMC,004211.000,A,3335.2172,N,11740.3030,W,60.75,180.70,281210,,,A*4B
$GPRMC,004214.000,A,3335.1670,N,11740.3040,W,60.27,181.05,281210,,,A*4B
$GPRMC,004217.000,A,3335.1162,N,11740.3050,W,60.75,180.70,281210,,,A*49
$GPRMC,004220.000,A,3335.0647,N,11740.3059,W,61.23,181.41,281210,,,A*44
$GPRMC,004223.000,A,3335.0132,N,11740.3076,W,60.75,181.05,281210,,,A*4D
$GPRMC,004226.000,A,3334.9617,N,11740.3076,W,61.72,180.35,281210,,,A*44
$GPRMC,004229.000,A,3334.9102,N,11740.3085,W,61.72,181.05,281210,,,A*46
$GPRMC,004232.000,A,3334.8587,N,11740.3088,W,61.73,180.35,281210,,,A*4A
$GPRMC,004235.000,A,3334.8069,N,11740.3095,W,61.23,180.35,281210,,,A*41
$GPRMC,004238.000,A,3334.7573,N,11740.3098,W,60.26,180.35,281210,,,A*44
$GPRMC,004241.000,A,3334.7080,N,11740.3104,W,58.80,180.70,281210,,,A*41
$GPRMC,004244.000,A,3334.6594,N,11740.3117,W,58.80,181.05,281210,,,A*44
$GPRMC,004247.000,A,3334.6089,N,11740.3117,W,59.29,181.41,281210,,,A*4C
$GPRMC,004250.000,A,3334.5603,N,11740.3127,W,58.80,181.05,281210,,,A*4C
$GPRMC,004253.000,A,3334.5101,N,11740.3137,W,58.80,181.05,281210,,,A*4B
$GPRMC,004256.000,A,3334.4615,N,11740.3156,W,59.29,180.70,281210,,,A*4B
$GPRMC,004259.000,A,3334.4116,N,11740.3159,W,58.80,181.05,281210,,,A*4E
$GPRMC,004302.000,A,3334.3624,N,11740.3162,W,59.78,180.70,281210,,,A*4D
$GPRMC,004305.000,A,3334.3121,N,11740.3162,W,59.78,180.70,281210,,,A*48
$GPRMC,004308.000,A,3334.2626,N,11740.3166,W,59.29,180.70,281210,,,A*44
$GPRMC,004311.000,A,3334.2124,N,11740.3179,W,59.29,181.05,281210,,,A*44
$GPRMC,004314.000,A,3334.1631,N,11740.3198,W,59.78,182.11,281210,,,A*4C
$GPRMC,004317.000,A,3334.1132,N,11740.3233,W,59.78,183.52,281210,,,A*4F
$GPRMC,004320.000,A,3334.0630,N,11740.3281,W,60.26,185.27,281210,,,A*43
$GPRMC,004323.000,A,3334.0125,N,11740.3336,W,60.26,185.62,281210,,,A*4F
$GPRMC,004326.000,A,3333.9649,N,11740.3407,W,59.29,185.98,281210,,,A*4C
$GPRMC,004329.000,A,3333.9156,N,11740.3471,W,59.78,186.33,281210,,,A*4D
$GPRMC,004332.000,A,3333.8651,N,11740.3529,W,60.26,185.98,281210,,,A*49
$GPRMC,004335.000,A,3333.8149,N,11740.3607,W,60.26,186.33,281210,,,A*4D
$GPRMC,004338.000,A,3333.7653,N,11740.3677,W,60.26,185.98,281210,,,A*46
$GPRMC,004341.000,A,3333.7148,N,11740.3739,W,59.78,185.62,281210,,,A*4A
$GPRMC,004344.000,A,3333.6658,N,11740.3796,W,59.29,185.27,281210,,,A*48
$GPRMC,004347.000,A,3333.6160,N,11740.3829,W,59.78,183.52,281210,,,A*4C
$GPRMC,004350.000,A,3333.5657,N,11740.3851,W,59.29,181.76,281210,,,A*45
$GPRMC,004353.000,A,3333.5165,N,11740.3858,W,58.80,180.35,281210,,,A*4D
$GPRMC,004356.000,A,3333.4660,N,11740.3842,W,59.78,179.30,281210,,,A*45
$GPRMC,004359.000,A,3333.4148,N,11740.3838,W,60.26,179.30,281210,,,A*4B
$GPRMC,004402.000,A,3333.3659,N,11740.3829,W,59.29,178.95,281210,,,A*49
$GPRMC,004405.000,A,3333.3147,N,11740.3806,W,59.29,178.95,281210,,,A*4B
$GPRMC,004408.000,A,3333.2654,N,11740.3790,W,58.32,178.59,281210,,,A*49
$GPRMC,004411.000,A,3333.2162,N,11740.3780,W,57.83,178.95,281210,,,A*47
$GPRMC,004414.000,A,3333.1682,N,11740.3771,W,57.83,178.95,281210,,,A*46
$GPRMC,004417.000,A,3333.1200,N,11740.3758,W,57.35,178.59,281210,,,A*4D
$GPRMC,004420.000,A,3333.0730,N,11740.3739,W,56.37,178.95,281210,,,A*4A
$GPRMC,004423.000,A,3333.0257,N,11740.3729,W,56.37,178.95,281210,,,A*4C
$GPRMC,004426.000,A,3332.9793,N,11740.3722,W,55.89,180.00,281210,,,A*4A
$GPRMC,004429.000,A,3332.9310,N,11740.3729,W,57.35,181.05,281210,,,A*40
$GPRMC,004432.000,A,3332.8824,N,11740.3748,W,58.80,182.11,281210,,,A*47
$GPRMC,004435.000,A,3332.8341,N,11740.3787,W,59.29,184.22,281210,,,A*4F
$GPRMC,004438.000,A,3332.7859,N,11740.3854,W,59.29,186.33,281210,,,A*4C
$GPRMC,004441.000,A,3332.7357,N,11740.3935,W,60.27,188.09,281210,,,A*42
$GPRMC,004444.000,A,3332.6861,N,11740.4028,W,59.78,189.49,281210,,,A*4F
$GPRMC,004447.000,A,3332.6362,N,11740.4125,W,59.30,190.20,281210,,,A*43
$GPRMC,004450.000,A,3332.5876,N,11740.4234,W,59.30,190.55,281210,,,A*49
$GPRMC,004453.000,A,3332.5393,N,11740.4340,W,58.80,190.20,281210,,,A*40
$GPRMC,004456.000,A,3332.4920,N,11740.4443,W,57.84,190.55,281210,,,A*4B
$GPRMC,004459.000,A,3332.4447,N,11740.4550,W,57.84,190.55,281210,,,A*4B
$GPRMC,004502.000,A,3332.3974,N,11740.4653,W,57.84,190.55,281210,,,A*4E
$GPRMC,004505.000,A,3332.3488,N,11740.4756,W,59.30,190.20,281210,,,A*40
$GPRMC,004508.000,A,3332.2998,N,11740.4859,W,59.78,189.49,281210,,,A*4B
$GPRMC,004511.000,A,3332.2503,N,11740.4939,W,59.78,187.38,281210,,,A*42
$GPRMC,004514.000,A,3332.2014,N,11740.4997,W,59.78,185.27,281210,,,A*4C
$GPRMC,004517.000,A,3332.1518,N,11740.5032,W,59.78,182.81,281210,,,A*49
$GPRMC,004520.000,A,3332.1016,N,11740.5042,W,59.29,180.70,281210,,,A*49
$GPRMC,004523.000,A,3332.0510,N,11740.5026,W,59.78,177.89,281210,,,A*40
$GPRMC,004526.000,A,3332.0008,N,11740.4994,W,59.78,176.13,281210,,,A*4A
$GPRMC,004529.000,A,3331.9522,N,11740.4900,W,58.80,169.45,281210,,,A*44
$GPRMC,004532.000,A,3331.9062,N,11740.4740,W,57.35,161.02,281210,,,A*4F
$GPRMC,004535.000,A,3331.8628,N,11740.4517,W,56.37,155.04,281210,,,A*43
$GPRMC,004538.000,A,3331.8241,N,11740.4218,W,55.90,145.90,281210,,,A*4F
$GPRMC,004541.000,A,3331.7881,N,11740.3858,W,55.89,138.87,281210,,,A*45
$GPRMC,004544.000,A,3331.7572,N,11740.3452,W,55.90,130.78,281210,,,A*47
$GPRMC,004547.000,A,3331.7266,N,11740.3011,W,56.87,129.38,281210,,,A*4C
$GPRMC,004550.000,A,3331.6964,N,11740.2570,W,57.84,129.38,281210,,,A*43
$GPRMC,004553.000,A,3331.6658,N,11740.2129,W,57.35,130.43,281210,,,A*46
$GPRMC,004556.000,A,3331.6329,N,11740.1720,W,56.86,135.70,281210,,,A*40
$GPRMC,004559.000,A,3331.5969,N,11740.1350,W,56.87,140.98,281210,,,A*44
$GPRMC,004602.000,A,3331.5586,N,11740.1019,W,56.86,145.55,281210,,,A*4F
$GPRMC,004605.000,A,3331.5158,N,11740.0729,W,58.81,151.88,281210,,,A*46
$GPRMC,004608.000,A,3331.4704,N,11740.0491,W,58.81,157.85,281210,,,A*4E
$GPRMC,004611.000,A,3331.4234,N,11740.0288,W,59.29,160.31,281210,,,A*46
$GPRMC,004614.000,A,3331.3771,N,11740.0089,W,59.78,160.31,281210,,,A*47
$GPRMC,004617.000,A,3331.3301,N,11739.9892,W,59.29,160.31,281210,,,A*46
$GPRMC,004620.000,A,3331.2837,N,11739.9693,W,60.26,160.31,281210,,,A*47
$GPRMC,004623.000,A,3331.2361,N,11739.9490,W,60.26,160.31,281210,,,A*4D
$GPRMC,004626.000,A,3331.1884,N,11739.9287,W,61.23,160.66,281210,,,A*4D
$GPRMC,004629.000,A,3331.1398,N,11739.9081,W,61.23,160.66,281210,,,A*40
$GPRMC,004632.000,A,3331.0922,N,11739.8875,W,60.75,159.96,281210,,,A*45
$GPRMC,004635.000,A,3331.0446,N,11739.8669,W,60.26,160.31,281210,,,A*4F
$GPRMC,004638.000,A,3330.9979,N,11739.8470,W,59.29,160.31,281210,,,A*44
$GPRMC,004641.000,A,3330.9516,N,11739.8270,W,58.32,160.31,281210,,,A*42
$GPRMC,004644.000,A,3330.9055,N,11739.8071,W,59.78,160.31,281210,,,A*49
$GPRMC,004647.000,A,3330.8582,N,11739.7871,W,59.78,160.31,281210,,,A*43
$GPRMC,004650.000,A,3330.8112,N,11739.7668,W,60.27,160.31,281210,,,A*4E
$GPRMC,004653.000,A,3330.7636,N,11739.7469,W,60.29,160.31,281210,,,A*4E
$GPRMC,004656.000,A,3330.7166,N,11739.7266,W,60.78,159.96,281210,,,A*43
$GPRMC,004659.000,A,3330.6686,N,11739.7060,W,60.75,160.66,281210,,,A*48
$GPRMC,004702.000,A,3330.6210,N,11739.6860,W,61.23,160.66,281210,,,A*47
$GPRMC,004705.000,A,3330.5724,N,11739.6651,W,61.26,160.31,281210,,,A*4A
$GPRMC,004708.000,A,3330.5241,N,11739.6445,W,61.72,160.31,281210,,,A*47
$GPRMC,004711.000,A,3330.4752,N,11739.6239,W,61.73,160.31,281210,,,A*45
$GPRMC,004714.000,A,3330.4279,N,11739.6040,W,61.24,160.66,281210,,,A*40
$GPRMC,004717.000,A,3330.3799,N,11739.5834,W,60.27,159.96,281210,,,A*40
$GPRMC,004720.000,A,3330.3333,N,11739.5634,W,59.78,160.66,281210,,,A*4B
$GPRMC,004723.000,A,3330.2856,N,11739.5457,W,59.30,163.83,281210,,,A*42
$GPRMC,004726.000,A,3330.2383,N,11739.5312,W,59.29,166.64,281210,,,A*46
$GPRMC,004729.000,A,3330.1884,N,11739.5190,W,59.78,169.45,281210,,,A*46
$GPRMC,004732.000,A,3330.1385,N,11739.5103,W,60.26,172.27,281210,,,A*43
$GPRMC,004735.000,A,3330.0880,N,11739.5048,W,60.75,175.43,281210,,,A*46
$GPRMC,004738.000,A,3330.0368,N,11739.5045,W,59.78,179.65,281210,,,A*44
$GPRMC,004741.000,A,3329.9879,N,11739.5061,W,59.29,181.76,281210,,,A*47
$GPRMC,004744.000,A,3329.9399,N,11739.5113,W,59.29,184.57,281210,,,A*45
$GPRMC,004747.000,A,3329.8904,N,11739.5209,W,59.29,188.79,281210,,,A*41
$GPRMC,004750.000,A,3329.8421,N,11739.5315,W,58.80,192.30,281210,,,A*45
$GPRMC,004753.000,A,3329.7938,N,11739.5463,W,58.80,195.47,281210,,,A*4D
$GPRMC,004756.000,A,3329.7471,N,11739.5634,W,58.80,197.93,281210,,,A*43
$GPRMC,004759.000,A,3329.7011,N,11739.5840,W,58.32,200.74,281210,,,A*4E
$GPRMC,004802.000,A,3329.6560,N,11739.6072,W,59.30,204.26,281210,,,A*47
$GPRMC,004805.000,A,3329.6123,N,11739.6332,W,58.32,207.07,281210,,,A*47
$GPRMC,004808.000,A,3329.5701,N,11739.6622,W,58.80,210.23,281210,,,A*42
$GPRMC,004811.000,A,3329.5276,N,11739.6938,W,59.78,211.64,281210,,,A*4F
$GPRMC,004814.000,A,3329.4855,N,11739.7253,W,59.78,211.99,281210,,,A*45
$GPRMC,004817.000,A,3329.4433,N,11739.7572,W,59.29,212.34,281210,,,A*4E
$GPRMC,004820.000,A,3329.4018,N,11739.7887,W,59.29,212.34,281210,,,A*40
$GPRMC,004823.000,A,3329.3599,N,11739.8199,W,58.81,211.99,281210,,,A*46
$GPRMC,004826.000,A,3329.3187,N,11739.8508,W,58.81,211.99,281210,,,A*44
$GPRMC,004829.000,A,3329.2772,N,11739.8827,W,58.80,211.99,281210,,,A*47
$GPRMC,004832.000,A,3329.2363,N,11739.9133,W,57.83,212.34,281210,,,A*4C
$GPRMC,004835.000,A,3329.1958,N,11739.9442,W,56.86,211.99,281210,,,A*49
$GPRMC,004838.000,A,3329.1562,N,11739.9741,W,57.35,212.70,281210,,,A*4C
$GPRMC,004841.000,A,3329.1160,N,11740.0060,W,57.83,214.45,281210,,,A*4A
$GPRMC,004844.000,A,3329.0760,N,11740.0394,W,58.80,215.51,281210,,,A*48
$GPRMC,004847.000,A,3329.0355,N,11740.0739,W,59.29,215.86,281210,,,A*42
$GPRMC,004850.000,A,3328.9956,N,11740.1080,W,58.80,215.86,281210,,,A*43
$GPRMC,004853.000,A,3328.9560,N,11740.1424,W,57.83,215.86,281210,,,A*4F
$GPRMC,004856.000,A,3328.9170,N,11740.1759,W,58.32,215.86,281210,,,A*43
$GPRMC,004859.000,A,3328.8771,N,11740.2103,W,58.80,215.86,281210,,,A*49
$GPRMC,004902.000,A,3328.8372,N,11740.2448,W,59.29,215.86,281210,,,A*49
$GPRMC,004905.000,A,3328.7967,N,11740.2799,W,59.29,215.86,281210,,,A*40
$GPRMC,004908.000,A,3328.7571,N,11740.3143,W,59.30,215.86,281210,,,A*4E
$GPRMC,004911.000,A,3328.7168,N,11740.3487,W,58.81,215.86,281210,,,A*4C
$GPRMC,004914.000,A,3328.6773,N,11740.3825,W,58.32,214.45,281210,,,A*46
$GPRMC,004917.000,A,3328.6348,N,11740.4131,W,58.80,210.59,281210,,,A*42
$GPRMC,004920.000,A,3328.5904,N,11740.4376,W,58.80,204.61,281210,,,A*48
$GPRMC,004923.000,A,3328.5446,N,11740.4588,W,58.32,200.39,281210,,,A*47
$GPRMC,004926.000,A,3328.4977,N,11740.4746,W,57.83,194.77,281210,,,A*4D
$GPRMC,004929.000,A,3328.4491,N,11740.4846,W,57.83,189.49,281210,,,A*49
$GPRMC,004932.000,A,3328.3998,N,11740.4884,W,58.33,182.81,281210,,,A*45
$GPRMC,004935.000,A,3328.3512,N,11740.4878,W,57.83,178.24,281210,,,A*41
$GPRMC,004938.000,A,3328.3026,N,11740.4814,W,58.81,171.91,281210,,,A*4E
$GPRMC,004941.000,A,3328.2550,N,11740.4701,W,57.83,166.99,281210,,,A*4D
$GPRMC,004944.000,A,3328.2109,N,11740.4495,W,57.84,158.20,281210,,,A*46
$GPRMC,004947.000,A,3328.1697,N,11740.4225,W,55.90,150.47,281210,,,A*45
$GPRMC,004950.000,A,3328.1333,N,11740.3909,W,54.92,142.38,281210,,,A*42
$GPRMC,004953.000,A,3328.1011,N,11740.3529,W,53.95,133.24,281210,,,A*47
$GPRMC,004956.000,A,3328.0728,N,11740.3101,W,53.95,125.16,281210,,,A*46
$GPRMC,004959.000,A,3328.0496,N,11740.2641,W,54.43,119.53,281210,,,A*4F
$GPRMC,005002.000,A,3328.0290,N,11740.2155,W,54.92,116.37,281210,,,A*4A
$GPRMC,005005.000,A,3328.0081,N,11740.1653,W,55.40,117.42,281210,,,A*40
$GPRMC,005008.000,A,3327.9817,N,11740.1170,W,57.86,124.80,281210,,,A*4C
$GPRMC,005011.000,A,3327.9518,N,11740.0700,W,59.32,129.02,281210,,,A*40
$GPRMC,005014.000,A,3327.9199,N,11740.0237,W,61.24,129.02,281210,,,A*45
$GPRMC,005017.000,A,3327.8877,N,11739.9764,W,60.75,129.38,281210,,,A*46
$GPRMC,005020.000,A,3327.8552,N,11739.9290,W,61.72,129.02,281210,,,A*49
$GPRMC,005023.000,A,3327.8221,N,11739.8811,W,61.73,129.38,281210,,,A*43
$GPRMC,005026.000,A,3327.7902,N,11739.8341,W,61.72,129.02,281210,,,A*45
$GPRMC,005029.000,A,3327.7574,N,11739.7865,W,61.23,129.73,281210,,,A*47
$GPRMC,005032.000,A,3327.7261,N,11739.7401,W,59.78,129.02,281210,,,A*43
$GPRMC,005035.000,A,3327.6946,N,11739.6944,W,59.29,128.67,281210,,,A*40
$GPRMC,005038.000,A,3327.6650,N,11739.6490,W,57.35,125.51,281210,,,A*4A
$GPRMC,005041.000,A,3327.6392,N,11739.6004,W,57.83,120.23,281210,,,A*4B
$GPRMC,005044.000,A,3327.6186,N,11739.5492,W,57.35,116.02,281210,,,A*4A
$GPRMC,005047.000,A,3327.5971,N,11739.4971,W,57.84,116.72,281210,,,A*46
$GPRMC,005050.000,A,3327.5739,N,11739.4453,W,59.78,119.18,281210,,,A*41
$GPRMC,005053.000,A,3327.5465,N,11739.3944,W,59.78,123.75,281210,,,A*46
$GPRMC,005056.000,A,3327.5173,N,11739.3455,W,60.75,125.51,281210,,,A*4B
$GPRMC,005059.000,A,3327.4880,N,11739.2969,W,60.26,125.86,281210,,,A*4F
$GPRMC,005102.000,A,3327.4587,N,11739.2489,W,60.26,125.86,281210,,,A*49
$GPRMC,005105.000,A,3327.4297,N,11739.2007,W,59.29,125.86,281210,,,A*4F
$GPRMC,005108.000,A,3327.4030,N,11739.1524,W,57.84,122.70,281210,,,A*4D
$GPRMC,005111.000,A,3327.3769,N,11739.1028,W,58.32,121.64,281210,,,A*44
$GPRMC,005114.000,A,3327.3537,N,11739.0526,W,58.32,118.83,281210,,,A*41
$GPRMC,005117.000,A,3327.3312,N,11739.0014,W,57.38,117.07,281210,,,A*41
$GPRMC,005120.000,A,3327.3090,N,11738.9506,W,57.86,117.07,281210,,,A*47
$GPRMC,005123.000,A,3327.2865,N,11738.8987,W,58.33,117.42,281210,,,A*43
$GPRMC,005126.000,A,3327.2643,N,11738.8476,W,58.32,117.42,281210,,,A*4E
$GPRMC,005129.000,A,3327.2408,N,11738.7945,W,59.78,117.42,281210,,,A*41
$GPRMC,005132.000,A,3327.2202,N,11738.7430,W,58.80,116.37,281210,,,A*4D
$GPRMC,005135.000,A,3327.1964,N,11738.6899,W,58.80,118.12,281210,,,A*45
$GPRMC,005138.000,A,3327.1687,N,11738.6380,W,59.78,120.94,281210,,,A*4A
$GPRMC,005141.000,A,3327.1420,N,11738.5869,W,59.29,122.70,281210,,,A*48
$GPRMC,005144.000,A,3327.1127,N,11738.5392,W,59.32,126.21,281210,,,A*4A
$GPRMC,005147.000,A,3327.0824,N,11738.4926,W,59.32,128.67,281210,,,A*4A
$GPRMC,005150.000,A,3327.0512,N,11738.4478,W,58.84,130.43,281210,,,A*41
$GPRMC,005153.000,A,3327.0206,N,11738.4040,W,57.38,130.43,281210,,,A*47
$GPRMC,005156.000,A,3326.9907,N,11738.3616,W,55.90,130.43,281210,,,A*42
$GPRMC,005159.000,A,3326.9601,N,11738.3191,W,56.37,130.43,281210,,,A*42
$GPRMC,005202.000,A,3326.9302,N,11738.2766,W,56.87,129.73,281210,,,A*46
$GPRMC,005205.000,A,3326.9015,N,11738.2309,W,56.38,125.86,281210,,,A*4B
$GPRMC,005208.000,A,3326.8761,N,11738.1829,W,57.35,121.29,281210,,,A*44
$GPRMC,005211.000,A,3326.8513,N,11738.1334,W,57.86,121.29,281210,,,A*44
$GPRMC,005214.000,A,3326.8256,N,11738.0838,W,59.30,121.29,281210,,,A*42
$GPRMC,005217.000,A,3326.8001,N,11738.0333,W,58.80,121.29,281210,,,A*4B
$GPRMC,005220.000,A,3326.7754,N,11737.9840,W,57.83,121.29,281210,,,A*42
$GPRMC,005223.000,A,3326.7480,N,11737.9354,W,57.38,125.16,281210,,,A*4D
$GPRMC,005226.000,A,3326.7187,N,11737.8907,W,57.38,129.38,281210,,,A*47
$GPRMC,005229.000,A,3326.6875,N,11737.8485,W,56.37,133.24,281210,,,A*42
$GPRMC,005232.000,A,3326.6556,N,11737.8115,W,54.44,134.65,281210,,,A*4C
$GPRMC,005235.000,A,3326.6241,N,11737.7742,W,52.49,135.00,281210,,,A*48
$GPRMC,005238.000,A,3326.5935,N,11737.7381,W,52.00,135.00,281210,,,A*48
$GPRMC,005241.000,A,3326.5620,N,11737.7011,W,52.49,135.70,281210,,,A*4D
$GPRMC,005244.000,A,3326.5314,N,11737.6644,W,52.97,134.65,281210,,,A*4B
$GPRMC,005247.000,A,3326.4998,N,11737.6251,W,54.92,134.30,281210,,,A*44
$GPRMC,005250.000,A,3326.4683,N,11737.5846,W,56.89,131.13,281210,,,A*44
$GPRMC,005253.000,A,3326.4390,N,11737.5392,W,57.35,125.51,281210,,,A*47
$GPRMC,005256.000,A,3326.4116,N,11737.4916,W,58.32,124.10,281210,,,A*45
$GPRMC,005259.000,A,3326.3846,N,11737.4423,W,58.81,123.75,281210,,,A*46
$GPRMC,005302.000,A,3326.3576,N,11737.3937,W,58.84,123.40,281210,,,A*4B
$GPRMC,005305.000,A,3326.3299,N,11737.3438,W,59.32,123.40,281210,,,A*44
$GPRMC,005308.000,A,3326.3022,N,11737.2946,W,59.78,123.75,281210,,,A*46
$GPRMC,005311.000,A,3326.2745,N,11737.2447,W,59.30,123.75,281210,,,A*49
$GPRMC,005314.000,A,3326.2456,N,11737.1970,W,58.88,127.97,281210,,,A*4D
$GPRMC,005317.000,A,3326.2134,N,11737.1530,W,58.33,132.54,281210,,,A*4C
$GPRMC,005320.000,A,3326.1780,N,11737.1143,W,57.42,139.22,281210,,,A*41
$GPRMC,005323.000,A,3326.1397,N,11737.0799,W,57.42,144.84,281210,,,A*46
$GPRMC,005326.000,A,3326.1001,N,11737.0490,W,56.86,147.66,281210,,,A*43
$GPRMC,005329.000,A,3326.0589,N,11737.0207,W,57.35,150.12,281210,,,A*4C
$GPRMC,005332.000,A,3326.0170,N,11736.9927,W,57.83,150.12,281210,,,A*48
$GPRMC,005335.000,A,3325.9749,N,11736.9640,W,57.83,150.12,281210,,,A*47
$GPRMC,005338.000,A,3325.9337,N,11736.9344,W,58.32,148.01,281210,,,A*48
$GPRMC,005341.000,A,3325.8925,N,11736.9003,W,59.30,143.09,281210,,,A*4E
$GPRMC,005344.000,A,3325.8561,N,11736.8610,W,59.29,137.46,281210,,,A*42
$GPRMC,005347.000,A,3325.8210,N,11736.8192,W,59.78,134.30,281210,,,A*4B
$GPRMC,005350.000,A,3325.7859,N,11736.7773,W,58.32,134.65,281210,,,A*4C
$GPRMC,005353.000,A,3325.7492,N,11736.7374,W,59.30,139.22,281210,,,A*4A
$GPRMC,005356.000,A,3325.7097,N,11736.7011,W,60.75,143.09,281210,,,A*41
$GPRMC,005359.000,A,3325.6672,N,11736.6679,W,61.23,147.30,281210,,,A*47
$GPRMC,005402.000,A,3325.6231,N,11736.6364,W,61.23,149.77,281210,,,A*49
$GPRMC,005405.000,A,3325.5783,N,11736.6055,W,61.23,150.12,281210,,,A*4B
$GPRMC,005408.000,A,3325.5333,N,11736.5742,W,62.21,150.12,281210,,,A*4A
$GPRMC,005411.000,A,3325.4873,N,11736.5417,W,62.69,150.82,281210,,,A*4A
$GPRMC,005414.000,A,3325.4403,N,11736.5134,W,63.18,153.63,281210,,,A*4B
$GPRMC,005417.000,A,3325.3913,N,11736.4902,W,62.21,158.20,281210,,,A*48
$GPRMC,005420.000,A,3325.3437,N,11736.4674,W,60.75,158.20,281210,,,A*4A
$GPRMC,005423.000,A,3325.2990,N,11736.4442,W,57.35,155.39,281210,,,A*4A
$GPRMC,005426.000,A,3325.2594,N,11736.4165,W,56.87,148.71,281210,,,A*4F
$GPRMC,005429.000,A,3325.2201,N,11736.3847,W,57.84,144.49,281210,,,A*40
$GPRMC,005432.000,A,3325.1815,N,11736.3518,W,56.86,144.14,281210,,,A*4A
$GPRMC,005435.000,A,3325.1409,N,11736.3184,W,58.35,145.90,281210,,,A*46
$GPRMC,005438.000,A,3325.0991,N,11736.2904,W,58.32,152.58,281210,,,A*42
$GPRMC,005441.000,A,3325.0534,N,11736.2662,W,58.33,156.80,281210,,,A*40
$GPRMC,005444.000,A,3325.0077,N,11736.2430,W,59.29,157.15,281210,,,A*45
$GPRMC,005447.000,A,3324.9613,N,11736.2195,W,59.78,157.15,281210,,,A*44
$GPRMC,005450.000,A,3324.9147,N,11736.1970,W,60.27,157.15,281210,,,A*44
$GPRMC,005453.000,A,3324.8683,N,11736.1742,W,60.27,156.80,281210,,,A*4B
$GPRMC,005456.000,A,3324.8223,N,11736.1516,W,60.29,157.15,281210,,,A*40
$GPRMC,005459.000,A,3324.7750,N,11736.1272,W,60.75,156.80,281210,,,A*40
$GPRMC,005502.000,A,3324.7293,N,11736.1043,W,59.78,157.15,281210,,,A*4F
$GPRMC,005505.000,A,3324.6826,N,11736.0808,W,60.75,157.15,281210,,,A*4C
$GPRMC,005508.000,A,3324.6359,N,11736.0580,W,60.26,157.15,281210,,,A*49
$GPRMC,005511.000,A,3324.5896,N,11736.0351,W,59.78,157.15,281210,,,A*41
$GPRMC,005514.000,A,3324.5442,N,11736.0126,W,58.80,157.50,281210,,,A*44
$GPRMC,005517.000,A,3324.4991,N,11735.9901,W,58.32,157.15,281210,,,A*4A
$GPRMC,005520.000,A,3324.4550,N,11735.9672,W,58.32,156.80,281210,,,A*49
$GPRMC,005523.000,A,3324.4093,N,11735.9443,W,59.78,157.15,281210,,,A*42
$GPRMC,005526.000,A,3324.3639,N,11735.9215,W,59.78,157.15,281210,,,A*43
$GPRMC,005529.000,A,3324.3186,N,11735.8993,W,59.29,157.50,281210,,,A*4E
$GPRMC,005532.000,A,3324.2738,N,11735.8771,W,58.80,157.15,281210,,,A*47
$GPRMC,005535.000,A,3324.2281,N,11735.8536,W,59.29,156.80,281210,,,A*49
$GPRMC,005538.000,A,3324.1814,N,11735.8314,W,60.76,158.55,281210,,,A*41
$GPRMC,005541.000,A,3324.1341,N,11735.8088,W,61.23,157.85,281210,,,A*41
$GPRMC,005544.000,A,3324.0878,N,11735.7857,W,60.75,157.50,281210,,,A*4B
$GPRMC,005547.000,A,3324.0411,N,11735.7625,W,60.27,157.15,281210,,,A*46
$GPRMC,005550.000,A,3323.9948,N,11735.7393,W,60.26,157.15,281210,,,A*46
$GPRMC,005553.000,A,3323.9484,N,11735.7165,W,60.27,157.15,281210,,,A*42
$GPRMC,005556.000,A,3323.9021,N,11735.6926,W,60.75,157.15,281210,,,A*45
$GPRMC,005559.000,A,3323.8538,N,11735.6688,W,62.21,157.15,281210,,,A*4E
$GPRMC,005602.000,A,3323.8065,N,11735.6444,W,60.75,156.80,281210,,,A*42
$GPRMC,005605.000,A,3323.7617,N,11735.6183,W,59.29,153.98,281210,,,A*48
$GPRMC,005608.000,A,3323.7192,N,11735.5916,W,58.32,152.23,281210,,,A*42
$GPRMC,005611.000,A,3323.6787,N,11735.5639,W,56.37,150.82,281210,,,A*49
$GPRMC,005614.000,A,3323.6388,N,11735.5356,W,56.86,149.41,281210,,,A*46
$GPRMC,005617.000,A,3323.5985,N,11735.5069,W,56.86,148.71,281210,,,A*4C
$GPRMC,005620.000,A,3323.5593,N,11735.4773,W,56.87,147.30,281210,,,A*45
$GPRMC,005623.000,A,3323.5200,N,11735.4467,W,56.87,146.95,281210,,,A*43
$GPRMC,005626.000,A,3323.4798,N,11735.4158,W,57.35,146.95,281210,,,A*42
$GPRMC,005629.000,A,3323.4395,N,11735.3846,W,57.35,147.30,281210,,,A*4B
$GPRMC,005632.000,A,3323.3993,N,11735.3534,W,57.83,147.30,281210,,,A*4F
$GPRMC,005635.000,A,3323.3581,N,11735.3215,W,58.32,146.60,281210,,,A*42
$GPRMC,005638.000,A,3323.3192,N,11735.2881,W,58.80,143.79,281210,,,A*4B
$GPRMC,005641.000,A,3323.2812,N,11735.2494,W,59.78,139.22,281210,,,A*48
$GPRMC,005644.000,A,3323.2464,N,11735.2086,W,59.78,135.00,281210,,,A*4B
$GPRMC,005647.000,A,3323.2126,N,11735.1645,W,59.29,131.48,281210,,,A*4D
$GPRMC,005650.000,A,3323.1824,N,11735.1181,W,59.29,126.91,281210,,,A*4E
$GPRMC,005653.000,A,3323.1557,N,11735.0692,W,58.32,122.70,281210,,,A*40
$GPRMC,005656.000,A,3323.1325,N,11735.0190,W,57.83,118.83,281210,,,A*43
$GPRMC,005659.000,A,3323.1122,N,11734.9668,W,58.32,115.31,281210,,,A*40
$GPRMC,005702.000,A,3323.0926,N,11734.9141,W,57.83,114.96,281210,,,A*47
$GPRMC,005705.000,A,3323.0723,N,11734.8629,W,56.37,114.96,281210,,,A*4D
$GPRMC,005708.000,A,3323.0523,N,11734.8130,W,54.92,115.31,281210,,,A*4C
$GPRMC,005711.000,A,3323.0324,N,11734.7631,W,55.40,114.96,281210,,,A*4E
$GPRMC,005714.000,A,3323.0131,N,11734.7139,W,54.92,114.96,281210,,,A*4C
$GPRMC,005717.000,A,3322.9934,N,11734.6640,W,54.92,114.96,281210,,,A*42
$GPRMC,005720.000,A,3322.9748,N,11734.6147,W,54.43,114.61,281210,,,A*47
$GPRMC,005723.000,A,3322.9555,N,11734.5658,W,54.43,115.31,281210,,,A*44
$GPRMC,005726.000,A,3322.9365,N,11734.5169,W,54.92,114.61,281210,,,A*49
$GPRMC,005729.000,A,3322.9165,N,11734.4660,W,55.89,114.96,281210,,,A*48
$GPRMC,005732.000,A,3322.8966,N,11734.4155,W,55.90,114.96,281210,,,A*41
$GPRMC,005735.000,A,3322.8769,N,11734.3646,W,55.40,114.96,281210,,,A*48
$GPRMC,005738.000,A,3322.8566,N,11734.3151,W,55.40,115.31,281210,,,A*45
$GPRMC,005741.000,A,3322.8377,N,11734.2652,W,55.40,114.61,281210,,,A*4C
$GPRMC,005744.000,A,3322.8183,N,11734.2163,W,54.92,114.96,281210,,,A*43
$GPRMC,005747.000,A,3322.7987,N,11734.1660,W,54.92,114.96,281210,,,A*44
$GPRMC,005750.000,A,3322.7807,N,11734.1158,W,54.92,114.61,281210,,,A*4F
$GPRMC,005753.000,A,3322.7607,N,11734.0653,W,55.89,114.96,281210,,,A*4C
$GPRMC,005756.000,A,3322.7414,N,11734.0144,W,56.86,114.96,281210,,,A*44
$GPRMC,005759.000,A,3322.7173,N,11733.9610,W,57.35,118.48,281210,,,A*41
$GPRMC,005802.000,A,3322.6899,N,11733.9137,W,56.89,125.86,281210,,,A*44
$GPRMC,005805.000,A,3322.6597,N,11733.8699,W,56.89,131.13,281210,,,A*4B
$GPRMC,005808.000,A,3322.6255,N,11733.8297,W,57.35,136.05,281210,,,A*43
$GPRMC,005811.000,A,3322.5911,N,11733.7907,W,57.35,137.11,281210,,,A*4A
$GPRMC,005814.000,A,3322.5570,N,11733.7518,W,58.32,136.41,281210,,,A*4A
$GPRMC,005817.000,A,3322.5229,N,11733.7096,W,58.32,132.54,281210,,,A*41
$GPRMC,005820.000,A,3322.4907,N,11733.6639,W,58.80,127.97,281210,,,A*43
$GPRMC,005823.000,A,3322.4627,N,11733.6160,W,58.32,123.75,281210,,,A*47
$GPRMC,005826.000,A,3322.4363,N,11733.5687,W,57.35,123.05,281210,,,A*45
$GPRMC,005829.000,A,3322.4112,N,11733.5207,W,55.90,123.05,281210,,,A*4F
$GPRMC,005832.000,A,3322.3861,N,11733.4750,W,54.92,123.05,281210,,,A*4A
$GPRMC,005835.000,A,3322.3610,N,11733.4283,W,54.43,122.70,281210,,,A*41
$GPRMC,005838.000,A,3322.3355,N,11733.3820,W,56.38,123.05,281210,,,A*41
$GPRMC,005841.000,A,3322.3088,N,11733.3343,W,57.35,123.05,281210,,,A*4E
$GPRMC,005844.000,A,3322.2831,N,11733.2864,W,57.35,123.05,281210,,,A*4F
$GPRMC,005847.000,A,3322.2573,N,11733.2387,W,56.87,122.70,281210,,,A*4A
$GPRMC,005850.000,A,3322.2313,N,11733.1911,W,57.35,123.05,281210,,,A*41
$GPRMC,005853.000,A,3322.2049,N,11733.1428,W,57.35,123.05,281210,,,A*49
$GPRMC,005856.000,A,3322.1788,N,11733.0955,W,57.35,123.05,281210,,,A*43
$GPRMC,005859.000,A,3322.1527,N,11733.0472,W,57.84,123.05,281210,,,A*49
$GPRMC,005902.000,A,3322.1263,N,11732.9990,W,57.83,123.05,281210,,,A*4F
$GPRMC,005905.000,A,3322.0999,N,11732.9504,W,58.32,123.05,281210,,,A*43
$GPRMC,005908.000,A,3322.0739,N,11732.9024,W,58.33,123.05,281210,,,A*4C
$GPRMC,005911.000,A,3322.0465,N,11732.8532,W,58.81,124.10,281210,,,A*47
$GPRMC,005914.000,A,3322.0169,N,11732.8062,W,59.30,127.97,281210,,,A*4C
$GPRMC,005917.000,A,3321.9860,N,11732.7608,W,58.81,129.38,281210,,,A*40
$GPRMC,005920.000,A,3321.9557,N,11732.7160,W,58.80,129.02,281210,,,A*4C
$GPRMC,005923.000,A,3321.9245,N,11732.6697,W,59.30,129.02,281210,,,A*4F
$GPRMC,005926.000,A,3321.8933,N,11732.6243,W,59.30,129.02,281210,,,A*4C
$GPRMC,005929.000,A,3321.8618,N,11732.5783,W,59.30,129.38,281210,,,A*46
$GPRMC,005932.000,A,3321.8302,N,11732.5326,W,59.78,129.38,281210,,,A*45
$GPRMC,005935.000,A,3321.7984,N,11732.4866,W,59.78,129.38,281210,,,A*47
$GPRMC,005938.000,A,3321.7678,N,11732.4412,W,59.78,129.38,281210,,,A*49
$GPRMC,005941.000,A,3321.7356,N,11732.3932,W,61.24,129.38,281210,,,A*44
$GPRMC,005944.000,A,3321.7031,N,11732.3453,W,61.73,129.02,281210,,,A*42
$GPRMC,005947.000,A,3321.6706,N,11732.2979,W,61.73,129.02,281210,,,A*47
$GPRMC,005950.000,A,3321.6381,N,11732.2506,W,61.73,129.38,281210,,,A*47
$GPRMC,005953.000,A,3321.6056,N,11732.2036,W,61.24,129.02,281210,,,A*40
$GPRMC,005956.000,A,3321.5734,N,11732.1570,W,60.76,129.02,281210,,,A*47
$GPRMC,005959.000,A,3321.5415,N,11732.1103,W,59.78,129.02,281210,,,A*4C
$GPRMC,010002.000,A,3321.5109,N,11732.0652,W,58.81,129.38,281210,,,A*4B
$GPRMC,010005.000,A,3321.4800,N,11732.0205,W,58.33,129.38,281210,,,A*42
$GPRMC,010008.000,A,3321.4491,N,11731.9761,W,57.84,129.38,281210,,,A*45
$GPRMC,010011.000,A,3321.4182,N,11731.9313,W,58.32,129.38,281210,,,A*49
$GPRMC,010014.000,A,3321.3877,N,11731.8869,W,58.32,129.38,281210,,,A*4F
$GPRMC,010017.000,A,3321.3571,N,11731.8419,W,57.83,129.38,281210,,,A*49
$GPRMC,010020.000,A,3321.3265,N,11731.7971,W,57.83,129.38,281210,,,A*43
$GPRMC,010023.000,A,3321.2956,N,11731.7521,W,59.30,129.38,281210,,,A*45
$GPRMC,010026.000,A,3321.2641,N,11731.7060,W,59.29,129.02,281210,,,A*48
$GPRMC,010029.000,A,3321.2328,N,11731.6597,W,59.29,129.02,281210,,,A*41
$GPRMC,010032.000,A,3321.2016,N,11731.6143,W,58.80,129.02,281210,,,A*4A
$GPRMC,010035.000,A,3321.1707,N,11731.5692,W,58.32,129.38,281210,,,A*41
$GPRMC,010038.000,A,3321.1401,N,11731.5245,W,58.33,129.02,281210,,,A*4F
$GPRMC,010041.000,A,3321.1096,N,11731.4798,W,57.84,129.38,281210,,,A*45
$GPRMC,010044.000,A,3321.0787,N,11731.4350,W,58.81,129.38,281210,,,A*4C
$GPRMC,010047.000,A,3321.0471,N,11731.3890,W,59.78,129.38,281210,,,A*42
$GPRMC,010050.000,A,3321.0156,N,11731.3433,W,59.29,129.38,281210,,,A*45
$GPRMC,010053.000,A,3320.9840,N,11731.2976,W,58.80,129.38,281210,,,A*4F
$GPRMC,010056.000,A,3320.9531,N,11731.2522,W,58.80,129.02,281210,,,A*45
$GPRMC,010059.000,A,3320.9222,N,11731.2068,W,58.32,129.02,281210,,,A*4D
$GPRMC,010102.000,A,3320.8917,N,11731.1624,W,58.32,129.38,281210,,,A*4A
$GPRMC,010105.000,A,3320.8601,N,11731.1170,W,58.80,129.73,281210,,,A*45
$GPRMC,010108.000,A,3320.8286,N,11731.0716,W,59.78,130.08,281210,,,A*46
$GPRMC,010111.000,A,3320.7957,N,11731.0256,W,59.78,131.13,281210,,,A*4C
$GPRMC,010114.000,A,3320.7632,N,11730.9815,W,59.78,131.13,281210,,,A*40
$GPRMC,010117.000,A,3320.7307,N,11730.9364,W,59.30,131.13,281210,,,A*41
$GPRMC,010120.000,A,3320.6989,N,11730.8927,W,58.80,130.78,281210,,,A*42
$GPRMC,010123.000,A,3320.6664,N,11730.8483,W,59.30,130.78,281210,,,A*44
$GPRMC,010126.000,A,3320.6342,N,11730.8038,W,59.30,130.78,281210,,,A*44
$GPRMC,010129.000,A,3320.6020,N,11730.7597,W,57.84,130.78,281210,,,A*42
$GPRMC,010132.000,A,3320.5704,N,11730.7163,W,58.33,131.13,281210,,,A*4A
$GPRMC,010135.000,A,3320.5379,N,11730.6719,W,58.80,130.78,281210,,,A*4D
$GPRMC,010138.000,A,3320.5057,N,11730.6278,W,59.78,131.13,281210,,,A*47
$GPRMC,010141.000,A,3320.4729,N,11730.5827,W,59.78,131.13,281210,,,A*45
$GPRMC,010144.000,A,3320.4404,N,11730.5383,W,58.80,130.78,281210,,,A*43
$GPRMC,010147.000,A,3320.4085,N,11730.4942,W,58.32,130.78,281210,,,A*42
$GPRMC,010150.000,A,3320.3764,N,11730.4504,W,58.80,131.13,281210,,,A*40
$GPRMC,010153.000,A,3320.3438,N,11730.4057,W,59.29,130.78,281210,,,A*44
$GPRMC,010156.000,A,3320.3120,N,11730.3616,W,59.29,130.78,281210,,,A*49
$GPRMC,010159.000,A,3320.2792,N,11730.3165,W,59.29,131.13,281210,,,A*47
$GPRMC,010202.000,A,3320.2470,N,11730.2721,W,59.78,130.78,281210,,,A*4A
$GPRMC,010205.000,A,3320.2141,N,11730.2267,W,59.78,130.78,281210,,,A*4D
$GPRMC,010208.000,A,3320.1813,N,11730.1826,W,59.78,131.13,281210,,,A*4D
$GPRMC,010211.000,A,3320.1485,N,11730.1376,W,59.78,130.78,281210,,,A*44
$GPRMC,010214.000,A,3320.1156,N,11730.0928,W,59.78,131.13,281210,,,A*46
$GPRMC,010217.000,A,3320.0828,N,11730.0478,W,59.78,130.78,281210,,,A*40
$GPRMC,010220.000,A,3320.0503,N,11730.0027,W,59.78,130.78,281210,,,A*4E
$GPRMC,010223.000,A,3320.0172,N,11729.9570,W,60.26,130.78,281210,,,A*48
$GPRMC,010226.000,A,3319.9843,N,11729.9120,W,60.26,130.78,281210,,,A*44
$GPRMC,010229.000,A,3319.9518,N,11729.8669,W,59.29,131.13,281210,,,A*4A
$GPRMC,010232.000,A,3319.9196,N,11729.8222,W,59.78,131.13,281210,,,A*4D
$GPRMC,010235.000,A,3319.8868,N,11729.7774,W,59.29,131.13,281210,,,A*4E
$GPRMC,010238.000,A,3319.8546,N,11729.7330,W,59.30,131.13,281210,,,A*4E
$GPRMC,010241.000,A,3319.8211,N,11729.6879,W,60.27,131.13,281210,,,A*4E
$GPRMC,010244.000,A,3319.7883,N,11729.6426,W,60.75,131.13,281210,,,A*44
$GPRMC,010247.000,A,3319.7545,N,11729.5965,W,61.23,131.13,281210,,,A*4B
$GPRMC,010250.000,A,3319.7210,N,11729.5508,W,61.24,130.78,281210,,,A*46
$GPRMC,010253.000,A,3319.6872,N,11729.5045,W,61.24,131.13,281210,,,A*4A
$GPRMC,010256.000,A,3319.6541,N,11729.4588,W,61.24,130.78,281210,,,A*4B
$GPRMC,010259.000,A,3319.6209,N,11729.4131,W,60.76,130.78,281210,,,A*4F
$GPRMC,010302.000,A,3319.5881,N,11729.3680,W,60.27,130.78,281210,,,A*47
$GPRMC,010305.000,A,3319.5550,N,11729.3229,W,59.78,131.13,281210,,,A*4A
$GPRMC,010308.000,A,3319.5224,N,11729.2782,W,59.78,131.13,281210,,,A*46
$GPRMC,010311.000,A,3319.4896,N,11729.2328,W,59.78,131.13,281210,,,A*48
$GPRMC,010314.000,A,3319.4574,N,11729.1887,W,59.30,130.78,281210,,,A*41
$GPRMC,010317.000,A,3319.4249,N,11729.1440,W,58.81,130.78,281210,,,A*47
$GPRMC,010320.000,A,3319.3924,N,11729.1012,W,58.81,133.24,281210,,,A*4D
$GPRMC,010323.000,A,3319.3570,N,11729.0609,W,57.83,138.16,281210,,,A*49
$GPRMC,010326.000,A,3319.3171,N,11729.0284,W,58.33,146.60,281210,,,A*44
$GPRMC,010329.000,A,3319.2733,N,11729.0004,W,59.30,153.63,281210,,,A*45
$GPRMC,010332.000,A,3319.2283,N,11728.9792,W,59.30,160.66,281210,,,A*44
$GPRMC,010335.000,A,3319.1797,N,11728.9634,W,59.78,166.29,281210,,,A*4C
$GPRMC,010338.000,A,3319.1298,N,11728.9563,W,60.75,174.73,281210,,,A*41
$GPRMC,010341.000,A,3319.0792,N,11728.9512,W,59.78,174.73,281210,,,A*40
$GPRMC,010344.000,A,3319.0300,N,11728.9467,W,59.78,175.43,281210,,,A*4B
$GPRMC,010347.000,A,3318.9807,N,11728.9425,W,58.80,175.78,281210,,,A*44
$GPRMC,010350.000,A,3318.9338,N,11728.9377,W,56.86,174.73,281210,,,A*47
$GPRMC,010353.000,A,3318.8890,N,11728.9299,W,54.92,170.51,281210,,,A*4E
$GPRMC,010356.000,A,3318.8443,N,11728.9174,W,55.90,165.23,281210,,,A*4B
$GPRMC,010359.000,A,3318.7999,N,11728.8981,W,56.89,157.50,281210,,,A*4C
$GPRMC,010402.000,A,3318.7574,N,11728.8730,W,57.35,151.88,281210,,,A*4B
$GPRMC,010405.000,A,3318.7178,N,11728.8411,W,57.35,145.20,281210,,,A*43
$GPRMC,010408.000,A,3318.6817,N,11728.8038,W,57.35,138.16,281210,,,A*4F
$GPRMC,010411.000,A,3318.6476,N,11728.7632,W,57.84,134.30,281210,,,A*4D
$GPRMC,010414.000,A,3318.6141,N,11728.7220,W,58.32,134.65,281210,,,A*4C
$GPRMC,010417.000,A,3318.5800,N,11728.6808,W,57.35,134.30,281210,,,A*49
$GPRMC,010420.000,A,3318.5466,N,11728.6406,W,56.87,134.65,281210,,,A*4B
$GPRMC,010423.000,A,3318.5134,N,11728.6007,W,55.90,134.65,281210,,,A*4A
$GPRMC,010426.000,A,3318.4809,N,11728.5614,W,55.90,134.30,281210,,,A*4E
$GPRMC,010429.000,A,3318.4481,N,11728.5215,W,55.89,134.65,281210,,,A*40
$GPRMC,010432.000,A,3318.4152,N,11728.4822,W,56.38,134.65,281210,,,A*47
$GPRMC,010435.000,A,3318.3824,N,11728.4420,W,55.90,134.30,281210,,,A*40
$GPRMC,010438.000,A,3318.3499,N,11728.4027,W,55.41,134.65,281210,,,A*48
$GPRMC,010441.000,A,3318.3171,N,11728.3631,W,55.90,134.65,281210,,,A*4F
$GPRMC,010444.000,A,3318.2846,N,11728.3235,W,55.41,134.30,281210,,,A*4A
$GPRMC,010447.000,A,3318.2520,N,11728.2836,W,56.38,134.65,281210,,,A*41
$GPRMC,010450.000,A,3318.2189,N,11728.2431,W,57.35,134.30,281210,,,A*47
$GPRMC,010453.000,A,3318.1848,N,11728.2019,W,58.32,134.65,281210,,,A*45
$GPRMC,010456.000,A,3318.1507,N,11728.1607,W,58.80,134.65,281210,,,A*45
$GPRMC,010459.000,A,3318.1162,N,11728.1182,W,59.29,134.30,281210,,,A*45
$GPRMC,010502.000,A,3318.0815,N,11728.0760,W,59.29,134.30,281210,,,A*49
$GPRMC,010505.000,A,3318.0467,N,11728.0339,W,59.29,134.65,281210,,,A*4F
$GPRMC,010508.000,A,3318.0123,N,11727.9923,W,58.80,134.65,281210,,,A*42
$GPRMC,010511.000,A,3317.9781,N,11727.9505,W,58.33,134.30,281210,,,A*42
$GPRMC,010514.000,A,3317.9443,N,11727.9093,W,57.84,134.65,281210,,,A*43
$GPRMC,010517.000,A,3317.9102,N,11727.8681,W,58.35,134.65,281210,,,A*41
$GPRMC,010520.000,A,3317.8761,N,11727.8269,W,58.35,134.30,281210,,,A*45
$GPRMC,010523.000,A,3317.8413,N,11727.7847,W,59.32,134.65,281210,,,A*4F
$GPRMC,010526.000,A,3317.8066,N,11727.7426,W,59.81,134.65,281210,,,A*4F
$GPRMC,010529.000,A,3317.7709,N,11727.6995,W,60.27,134.65,281210,,,A*43
$GPRMC,010532.000,A,3317.7358,N,11727.6570,W,59.78,134.30,281210,,,A*4E
$GPRMC,010535.000,A,3317.7010,N,11727.6148,W,59.29,134.30,281210,,,A*4D
$GPRMC,010538.000,A,3317.6666,N,11727.5733,W,59.29,135.35,281210,,,A*4B
$GPRMC,010541.000,A,3317.6296,N,11727.5343,W,58.32,139.92,281210,,,A*47
$GPRMC,010544.000,A,3317.5890,N,11727.5021,W,59.29,146.25,281210,,,A*45
$GPRMC,010547.000,A,3317.5462,N,11727.4706,W,59.29,148.01,281210,,,A*4C
$GPRMC,010550.000,A,3317.5044,N,11727.4394,W,59.29,147.66,281210,,,A*4B
$GPRMC,010553.000,A,3317.4619,N,11727.4075,W,59.78,147.30,281210,,,A*4C
$GPRMC,010556.000,A,3317.4200,N,11727.3757,W,60.26,147.66,281210,,,A*47
$GPRMC,010559.000,A,3317.3769,N,11727.3425,W,60.75,146.95,281210,,,A*48
$GPRMC,010602.000,A,3317.3351,N,11727.3116,W,59.78,147.30,281210,,,A*46
$GPRMC,010605.000,A,3317.2929,N,11727.2801,W,59.78,147.30,281210,,,A*4B
$GPRMC,010608.000,A,3317.2514,N,11727.2488,W,58.80,147.30,281210,,,A*4F
$GPRMC,010611.000,A,3317.2102,N,11727.2176,W,57.84,147.66,281210,,,A*48
$GPRMC,010614.000,A,3317.1690,N,11727.1874,W,57.84,147.66,281210,,,A*4A
$GPRMC,010617.000,A,3317.1278,N,11727.1558,W,58.32,147.30,281210,,,A*49
$GPRMC,010620.000,A,3317.0869,N,11727.1243,W,57.83,147.30,281210,,,A*4E
$GPRMC,010623.000,A,3317.0473,N,11727.0947,W,55.89,147.66,281210,,,A*4F
$GPRMC,010626.000,A,3317.0084,N,11727.0654,W,55.40,147.66,281210,,,A*4E
$GPRMC,010629.000,A,3316.9691,N,11727.0358,W,55.40,147.30,281210,,,A*41
$GPRMC,010632.000,A,3316.9301,N,11727.0062,W,55.40,147.66,281210,,,A*4E
$GPRMC,010635.000,A,3316.8909,N,11726.9765,W,55.41,147.66,281210,,,A*43
$GPRMC,010638.000,A,3316.8519,N,11726.9463,W,56.41,147.30,281210,,,A*46
$GPRMC,010641.000,A,3316.8120,N,11726.9157,W,56.86,147.30,281210,,,A*4F
$GPRMC,010644.000,A,3316.7702,N,11726.8842,W,58.32,146.95,281210,,,A*40
$GPRMC,010647.000,A,3316.7287,N,11726.8526,W,58.33,147.66,281210,,,A*48
$GPRMC,010650.000,A,3316.6878,N,11726.8211,W,57.83,147.30,281210,,,A*41
$GPRMC,010653.000,A,3316.6466,N,11726.7892,W,57.84,147.30,281210,,,A*48
$GPRMC,010656.000,A,3316.6063,N,11726.7583,W,57.83,147.66,281210,,,A*45
$GPRMC,010659.000,A,3316.5642,N,11726.7271,W,59.29,147.66,281210,,,A*48
$GPRMC,010702.000,A,3316.5223,N,11726.6956,W,59.30,147.30,281210,,,A*40
$GPRMC,010705.000,A,3316.4802,N,11726.6634,W,60.26,147.30,281210,,,A*49
$GPRMC,010708.000,A,3316.4383,N,11726.6315,W,59.29,147.66,281210,,,A*46
$GPRMC,010711.000,A,3316.3981,N,11726.6000,W,57.35,146.95,281210,,,A*48
$GPRMC,010714.000,A,3316.3608,N,11726.5668,W,56.37,142.73,281210,,,A*47
$GPRMC,010717.000,A,3316.3257,N,11726.5279,W,56.89,135.35,281210,,,A*49
$GPRMC,010720.000,A,3316.2938,N,11726.4860,W,57.38,131.48,281210,,,A*48
$GPRMC,010723.000,A,3316.2613,N,11726.4422,W,59.32,131.13,281210,,,A*4D
$GPRMC,010726.000,A,3316.2285,N,11726.3978,W,60.27,131.13,281210,,,A*48
$GPRMC,010729.000,A,3316.1953,N,11726.3528,W,60.26,131.48,281210,,,A*42
$GPRMC,010732.000,A,3316.1622,N,11726.3084,W,60.26,131.48,281210,,,A*42
$GPRMC,010735.000,A,3316.1287,N,11726.2636,W,59.78,131.48,281210,,,A*41
$GPRMC,010738.000,A,3316.0956,N,11726.2192,W,59.78,131.48,281210,,,A*43
$GPRMC,010741.000,A,3316.0630,N,11726.1748,W,58.80,130.78,281210,,,A*44
$GPRMC,010744.000,A,3316.0309,N,11726.1316,W,58.80,131.13,281210,,,A*4D
$GPRMC,010747.000,A,3315.9974,N,11726.0866,W,59.29,131.48,281210,,,A*45
$GPRMC,010750.000,A,3315.9658,N,11726.0425,W,59.78,131.48,281210,,,A*4D
$GPRMC,010753.000,A,3315.9324,N,11725.9971,W,59.78,131.48,281210,,,A*46
$GPRMC,010756.000,A,3315.8995,N,11725.9520,W,59.78,131.48,281210,,,A*4A
$GPRMC,010759.000,A,3315.8638,N,11725.9096,W,58.80,135.35,281210,,,A*4D
$GPRMC,010802.000,A,3315.8258,N,11725.8735,W,58.80,142.03,281210,,,A*44
$GPRMC,010805.000,A,3315.7840,N,11725.8410,W,59.78,146.60,281210,,,A*4C
$GPRMC,010808.000,A,3315.7428,N,11725.8088,W,59.29,146.60,281210,,,A*42
$GPRMC,010811.000,A,3315.7029,N,11725.7779,W,57.35,146.95,281210,,,A*40
$GPRMC,010814.000,A,3315.6652,N,11725.7477,W,56.37,146.25,281210,,,A*4B
$GPRMC,010817.000,A,3315.6250,N,11725.7155,W,57.35,145.90,281210,,,A*45
$GPRMC,010820.000,A,3315.5835,N,11725.6830,W,59.29,146.60,281210,,,A*4F
$GPRMC,010823.000,A,3315.5423,N,11725.6505,W,59.29,146.60,281210,,,A*4C
$GPRMC,010826.000,A,3315.5020,N,11725.6183,W,58.32,146.25,281210,,,A*4E
$GPRMC,010829.000,A,3315.4624,N,11725.5874,W,56.86,146.60,281210,,,A*40
$GPRMC,010832.000,A,3315.4245,N,11725.5568,W,56.37,146.60,281210,,,A*43
$GPRMC,010835.000,A,3315.3852,N,11725.5256,W,55.89,146.25,281210,,,A*42
$GPRMC,010838.000,A,3315.3453,N,11725.4950,W,56.86,146.25,281210,,,A*42
$GPRMC,010841.000,A,3315.3057,N,11725.4628,W,56.86,146.25,281210,,,A*4C
$GPRMC,010844.000,A,3315.2664,N,11725.4319,W,57.35,146.25,281210,,,A*40
$GPRMC,010847.000,A,3315.2262,N,11725.4000,W,56.86,146.25,281210,,,A*43
$GPRMC,010850.000,A,3315.1876,N,11725.3685,W,56.86,145.90,281210,,,A*48
$GPRMC,010853.000,A,3315.1464,N,11725.3370,W,57.83,146.25,281210,,,A*42
$GPRMC,010856.000,A,3315.1068,N,11725.3048,W,57.35,146.60,281210,,,A*4B
$GPRMC,010859.000,A,3315.0669,N,11725.2726,W,57.35,146.25,281210,,,A*4D
$GPRMC,010902.000,A,3315.0276,N,11725.2407,W,57.35,146.25,281210,,,A*48
$GPRMC,010905.000,A,3314.9870,N,11725.2095,W,56.37,146.25,281210,,,A*47
$GPRMC,010908.000,A,3314.9481,N,11725.1786,W,55.40,146.25,281210,,,A*4D
$GPRMC,010911.000,A,3314.9098,N,11725.1474,W,55.40,146.25,281210,,,A*47
$GPRMC,010914.000,A,3314.8689,N,11725.1181,W,56.37,148.71,281210,,,A*46
$GPRMC,010917.000,A,3314.8268,N,11725.0920,W,56.86,154.34,281210,,,A*4A
$GPRMC,010920.000,A,3314.7843,N,11725.0721,W,57.35,158.55,281210,,,A*4F
$GPRMC,010923.000,A,3314.7392,N,11725.0521,W,56.37,159.61,281210,,,A*4C
$GPRMC,010926.000,A,3314.6961,N,11725.0328,W,55.89,159.26,281210,,,A*44
$GPRMC,010929.000,A,3314.6520,N,11725.0132,W,55.40,159.26,281210,,,A*4E
$GPRMC,010932.000,A,3314.6101,N,11724.9942,W,54.43,158.91,281210,,,A*4B
$GPRMC,010935.000,A,3314.5670,N,11724.9704,W,56.37,153.63,281210,,,A*45
$GPRMC,010938.000,A,3314.5265,N,11724.9417,W,57.83,148.36,281210,,,A*4D
$GPRMC,010941.000,A,3314.4878,N,11724.9069,W,58.32,141.33,281210,,,A*40
$GPRMC,010944.000,A,3314.4521,N,11724.8680,W,58.32,136.41,281210,,,A*41
$GPRMC,010947.000,A,3314.4202,N,11724.8246,W,56.86,129.38,281210,,,A*4B
$GPRMC,010950.000,A,3314.3926,N,11724.7798,W,55.40,125.86,281210,,,A*4E
$GPRMC,010953.000,A,3314.3658,N,11724.7344,W,55.89,124.80,281210,,,A*4C
$GPRMC,010956.000,A,3314.3388,N,11724.6881,W,57.35,124.45,281210,,,A*4E
$GPRMC,010959.000,A,3314.3105,N,11724.6411,W,57.35,125.16,281210,,,A*44
$GPRMC,011002.000,A,3314.2828,N,11724.5957,W,56.86,125.86,281210,,,A*49
$GPRMC,011005.000,A,3314.2522,N,11724.5523,W,56.38,132.19,281210,,,A*43
$GPRMC,011008.000,A,3314.2191,N,11724.5123,W,56.86,136.41,281210,,,A*4A
$GPRMC,011011.000,A,3314.1843,N,11724.4731,W,56.87,136.41,281210,,,A*42
$GPRMC,011014.000,A,3314.1502,N,11724.4351,W,56.38,136.76,281210,,,A*4D
$GPRMC,011017.000,A,3314.1158,N,11724.3971,W,55.41,136.76,281210,,,A*47
$GPRMC,011020.000,A,3314.0829,N,11724.3598,W,54.92,136.76,281210,,,A*49
$GPRMC,011023.000,A,3314.0491,N,11724.3221,W,55.41,136.76,281210,,,A*4F
$GPRMC,011026.000,A,3314.0153,N,11724.2838,W,56.38,136.41,281210,,,A*4B
$GPRMC,011029.000,A,3313.9806,N,11724.2449,W,56.86,136.41,281210,,,A*4C
$GPRMC,011032.000,A,3313.9461,N,11724.2062,W,56.86,136.76,281210,,,A*42
$GPRMC,011035.000,A,3313.9114,N,11724.1673,W,56.86,136.76,281210,,,A*47
$GPRMC,011038.000,A,3313.8769,N,11724.1293,W,56.86,136.76,281210,,,A*4D
$GPRMC,011041.000,A,3313.8419,N,11724.0904,W,57.35,137.11,281210,,,A*4A
$GPRMC,011044.000,A,3313.8071,N,11724.0518,W,57.35,137.11,281210,,,A*44
$GPRMC,011047.000,A,3313.7723,N,11724.0131,W,56.87,137.11,281210,,,A*4F
$GPRMC,011050.000,A,3313.7379,N,11723.9748,W,56.38,136.76,281210,,,A*40
$GPRMC,011053.000,A,3313.7031,N,11723.9356,W,57.84,137.11,281210,,,A*41
$GPRMC,011056.000,A,3313.6684,N,11723.8969,W,57.38,137.11,281210,,,A*4D
$GPRMC,011059.000,A,3313.6336,N,11723.8586,W,56.89,137.11,281210,,,A*48
$GPRMC,011102.000,A,3313.5995,N,11723.8203,W,56.41,137.11,281210,,,A*49
$GPRMC,011105.000,A,3313.5647,N,11723.7820,W,55.92,137.11,281210,,,A*47
$GPRMC,011108.000,A,3313.5313,N,11723.7447,W,55.44,137.11,281210,,,A*48
$GPRMC,011111.000,A,3313.4968,N,11723.7070,W,55.44,137.46,281210,,,A*45
$GPRMC,011114.000,A,3313.4633,N,11723.6700,W,54.92,136.76,281210,,,A*48
$GPRMC,011117.000,A,3313.4299,N,11723.6327,W,54.44,136.76,281210,,,A*45
$GPRMC,011120.000,A,3313.3957,N,11723.5976,W,53.94,140.27,281210,,,A*4D
$GPRMC,011123.000,A,3313.3591,N,11723.5667,W,54.43,145.55,281210,,,A*4A
$GPRMC,011126.000,A,3313.3182,N,11723.5413,W,55.89,152.93,281210,,,A*43
$GPRMC,011129.000,A,3313.2738,N,11723.5200,W,56.37,159.26,281210,,,A*4D
$GPRMC,011132.000,A,3313.2284,N,11723.5052,W,56.37,164.88,281210,,,A*4A
$GPRMC,011135.000,A,3313.1820,N,11723.4907,W,56.86,165.59,281210,,,A*45
$GPRMC,011138.000,A,3313.1347,N,11723.4766,W,57.83,165.94,281210,,,A*4E
$GPRMC,011141.000,A,3313.0880,N,11723.4631,W,57.83,165.94,281210,,,A*42
$GPRMC,011144.000,A,3313.0427,N,11723.4499,W,56.86,165.94,281210,,,A*42
