NMEA Sentence Code,UTC Time,Status,Latitude,Latitude Direction,Longitude,Longitude Direction,Speed (knots),Track Angle (degrees true),Date,MagneticVariation,Magnetic Variation Direction,[FAA Mode]-Optional,Checksum
$GPRMC,012926.4,A,3304.014932,N,11717.564338,W,64.4,344.5,230510,,,A*44
$GPRMC,012929.4,A,3304.067929,N,11717.579562,W,65.0,345.7,230510,,,A*46
$GPRMC,012932.4,A,3304.119520,N,11717.596262,W,64.5,345.5,230510,,,A*41
$GPRMC,012935.4,A,3304.173636,N,11717.611737,W,65.3,345.8,230510,,,A*4D
$GPRMC,012938.4,A,3304.224688,N,11717.628431,W,65.1,345.8,230510,,,A*49
$GPRMC,012941.4,A,3304.278509,N,11717.644275,W,65.1,345.8,230510,,,A*48
$GPRMC,012944.4,A,3304.330630,N,11717.659533,W,64.7,345.9,230510,,,A*46
$GPRMC,012947.4,A,3304.383591,N,11717.674793,W,65.9,346.1,230510,,,A*46
$GPRMC,012950.4,A,3304.437763,N,11717.689951,W,65.6,346.9,230510,,,A*42
$GPRMC,012953.4,A,3304.491187,N,11717.706213,W,66.4,345.8,230510,,,A*49
$GPRMC,012956.4,A,3304.545469,N,11717.723288,W,67.1,345.6,230510,,,A*4E
$GPRMC,012959.4,A,3304.599935,N,11717.740088,W,66.5,345.6,230510,,,A*46
$GPRMC,013002.4,A,3304.654165,N,11717.755333,W,66.3,346.2,230510,,,A*49
$GPRMC,013005.4,A,3304.708218,N,11717.771011,W,67.1,345.8,230510,,,A*40
$GPRMC,013008.4,A,3304.762373,N,11717.788043,W,67.2,345.6,230510,,,A*41
$GPRMC,013011.4,A,3304.816811,N,11717.804402,W,67.8,345.9,230510,,,A*45
$GPRMC,013014.4,A,3304.872553,N,11717.820270,W,69.1,346.2,230510,,,A*43
$GPRMC,013017.4,A,3304.930279,N,11717.836196,W,72.6,346.3,230510,,,A*48
$GPRMC,013020.4,A,3304.990871,N,11717.853896,W,74.2,344.1,230510,,,A*4C
$GPRMC,013023.4,A,3305.048772,N,11717.878827,W,71.8,339.2,230510,,,A*4B
$GPRMC,013026.4,A,3305.102655,N,11717.910349,W,69.9,333.9,230510,,,A*40
$GPRMC,013029.4,A,3305.152676,N,11717.944085,W,68.1,330.1,230510,,,A*4B
$GPRMC,013032.4,A,3305.202006,N,11717.976847,W,67.4,331.2,230510,,,A*49
$GPRMC,013035.4,A,3305.250719,N,11718.009062,W,67.1,331.4,230510,,,A*42
$GPRMC,013038.4,A,3305.301241,N,11718.040933,W,68.8,332.7,230510,,,A*44
$GPRMC,013041.4,A,3305.352994,N,11718.072909,W,70.8,331.7,230510,,,A*4D
$GPRMC,013044.4,A,3305.404553,N,11718.105769,W,70.0,331.3,230510,,,A*4E
$GPRMC,013047.4,A,3305.456544,N,11718.139569,W,70.1,331.6,230510,,,A*45
$GPRMC,013050.4,A,3305.507738,N,11718.172485,W,70.0,331.4,230510,,,A*40
$GPRMC,013053.4,A,3305.556777,N,11718.205123,W,68.6,331.3,230510,,,A*4E
$GPRMC,013056.4,A,3305.606977,N,11718.237343,W,68.2,331.3,230510,,,A*42
$GPRMC,013059.4,A,3305.656541,N,11718.269712,W,67.8,331.2,230510,,,A*4E
$GPRMC,013102.4,A,3305.707931,N,11718.301693,W,68.5,331.1,230510,,,A*49
$GPRMC,013105.4,A,3305.758620,N,11718.334721,W,69.5,331.0,230510,,,A*45
$GPRMC,013108.4,A,3305.809697,N,11718.367564,W,70.0,331.2,230510,,,A*45
$GPRMC,013111.4,A,3305.862341,N,11718.402276,W,71.6,331.0,230510,,,A*4B
$GPRMC,013114.4,A,3305.916213,N,11718.436056,W,72.4,331.5,230510,,,A*49
$GPRMC,013117.4,A,3305.967214,N,11718.472632,W,71.5,330.6,230510,,,A*4F
$GPRMC,013120.4,A,3306.020964,N,11718.504965,W,71.7,331.3,230510,,,A*45
$GPRMC,013123.4,A,3306.075590,N,11718.536735,W,72.4,332.2,230510,,,A*49
$GPRMC,013126.4,A,3306.126655,N,11718.572607,W,71.0,331.3,230510,,,A*44
$GPRMC,013129.4,A,3306.178400,N,11718.605687,W,69.2,331.9,230510,,,A*48
$GPRMC,013132.4,A,3306.226335,N,11718.637349,W,66.6,331.4,230510,,,A*4B
$GPRMC,013135.4,A,3306.275904,N,11718.667189,W,65.3,332.5,230510,,,A*4D
$GPRMC,013138.4,A,3306.322364,N,11718.697678,W,63.8,331.9,230510,,,A*4B
$GPRMC,013141.4,A,3306.367197,N,11718.727563,W,62.8,331.5,230510,,,A*44
$GPRMC,013144.4,A,3306.412073,N,11718.758606,W,62.6,330.8,230510,,,A*45
$GPRMC,013147.4,A,3306.456929,N,11718.789057,W,62.0,331.0,230510,,,A*41
$GPRMC,013150.4,A,3306.503725,N,11718.818841,W,62.5,331.4,230510,,,A*4D
$GPRMC,013153.4,A,3306.550485,N,11718.847160,W,62.0,332.6,230510,,,A*45
$GPRMC,013156.4,A,3306.596994,N,11718.875913,W,61.9,332.8,230510,,,A*4E
$GPRMC,013159.4,A,3306.643515,N,11718.904596,W,62.1,332.3,230510,,,A*49
$GPRMC,013202.4,A,3306.689209,N,11718.931898,W,61.2,332.6,230510,,,A*48
$GPRMC,013205.4,A,3306.733680,N,11718.959384,W,60.5,332.7,230510,,,A*45
$GPRMC,013208.4,A,3306.781292,N,11718.987643,W,62.1,333.0,230510,,,A*4B
$GPRMC,013211.4,A,3306.827608,N,11719.016257,W,62.1,332.4,230510,,,A*43
$GPRMC,013214.4,A,3306.872592,N,11719.046250,W,62.6,331.9,230510,,,A*4D
$GPRMC,013217.4,A,3306.921204,N,11719.074119,W,64.0,332.5,230510,,,A*41
$GPRMC,013220.4,A,3306.972190,N,11719.102957,W,65.6,333.6,230510,,,A*4A
$GPRMC,013223.4,A,3307.024253,N,11719.128692,W,66.0,334.8,230510,,,A*4C
$GPRMC,013226.4,A,3307.072057,N,11719.158778,W,65.1,333.8,230510,,,A*4B
$GPRMC,013229.4,A,3307.120936,N,11719.187055,W,65.2,333.7,230510,,,A*4A
$GPRMC,013232.4,A,3307.171045,N,11719.217047,W,66.5,333.3,230510,,,A*40
$GPRMC,013235.4,A,3307.224210,N,11719.246102,W,68.1,333.7,230510,,,A*4C
$GPRMC,013238.4,A,3307.272802,N,11719.277297,W,67.4,332.3,230510,,,A*49
$GPRMC,013241.4,A,3307.326713,N,11719.306838,W,69.2,333.6,230510,,,A*4C
$GPRMC,013244.4,A,3307.371806,N,11719.339546,W,66.8,332.9,230510,,,A*43
$GPRMC,013247.4,A,3307.420920,N,11719.370044,W,67.3,332.8,230510,,,A*47
$GPRMC,013250.4,A,3307.472941,N,11719.401049,W,69.6,333.5,230510,,,A*4A
$GPRMC,013253.4,A,3307.527674,N,11719.433415,W,73.0,332.8,230510,,,A*4C
$GPRMC,013256.4,A,3307.584871,N,11719.465136,W,74.3,333.0,230510,,,A*41
$GPRMC,013259.4,A,3307.641707,N,11719.497869,W,74.4,333.5,230510,,,A*46
$GPRMC,013302.4,A,3307.695240,N,11719.531662,W,72.4,333.3,230510,,,A*4E
$GPRMC,013305.4,A,3307.749415,N,11719.563332,W,71.5,333.7,230510,,,A*4E
$GPRMC,013308.4,A,3307.803260,N,11719.594351,W,71.0,334.5,230510,,,A*4B
$GPRMC,013311.4,A,3307.854728,N,11719.626027,W,71.3,332.9,230510,,,A*49
$GPRMC,013314.4,A,3307.908552,N,11719.658170,W,71.8,332.7,230510,,,A*44
$GPRMC,013317.4,A,3307.958897,N,11719.692467,W,70.8,331.9,230510,,,A*4F
$GPRMC,013320.4,A,3308.012345,N,11719.723035,W,70.7,333.5,230510,,,A*4E
$GPRMC,013323.4,A,3308.067527,N,11719.752234,W,70.7,335.1,230510,,,A*4A
$GPRMC,013326.4,A,3308.122792,N,11719.780475,W,70.9,336.4,230510,,,A*47
$GPRMC,013329.4,A,3308.178836,N,11719.807556,W,71.0,337.1,230510,,,A*4A
$GPRMC,013332.4,A,3308.238010,N,11719.833252,W,72.2,337.9,230510,,,A*46
$GPRMC,013335.4,A,3308.291273,N,11719.861552,W,70.7,336.9,230510,,,A*43
$GPRMC,013338.4,A,3308.343807,N,11719.890412,W,69.7,336.1,230510,,,A*42
$GPRMC,013341.4,A,3308.396478,N,11719.918791,W,69.2,336.1,230510,,,A*4C
$GPRMC,013344.4,A,3308.447093,N,11719.948218,W,68.8,335.5,230510,,,A*4E
$GPRMC,013347.4,A,3308.499467,N,11719.975365,W,70.3,337.3,230510,,,A*42
$GPRMC,013350.4,A,3308.551146,N,11720.000156,W,67.4,341.7,230510,,,A*40
$GPRMC,013353.4,A,3308.612704,N,11720.009048,W,71.8,352.3,230510,,,A*4D
$GPRMC,013356.4,A,3308.674735,N,11720.012317,W,73.2,357.0,230510,,,A*47
$GPRMC,013359.4,A,3308.734714,N,11720.014652,W,71.4,357.5,230510,,,A*4D
$GPRMC,013402.4,A,3308.793371,N,11720.016537,W,71.1,357.5,230510,,,A*49
$GPRMC,013405.4,A,3308.850143,N,11720.027106,W,68.8,348.9,230510,,,A*4A
$GPRMC,013408.4,A,3308.904065,N,11720.049257,W,68.7,339.4,230510,,,A*49
$GPRMC,013411.4,A,3308.958053,N,11720.078923,W,70.6,334.8,230510,,,A*4E
$GPRMC,013414.4,A,3309.012437,N,11720.109889,W,71.7,334.2,230510,,,A*47
$GPRMC,013417.4,A,3309.067009,N,11720.141373,W,72.8,333.8,230510,,,A*4C
$GPRMC,013420.4,A,3309.122342,N,11720.175029,W,73.9,333.2,230510,,,A*45
$GPRMC,013423.4,A,3309.180349,N,11720.205756,W,74.9,334.3,230510,,,A*4F
$GPRMC,013426.4,A,3309.233139,N,11720.240057,W,73.6,333.6,230510,,,A*49
$GPRMC,013429.4,A,3309.288932,N,11720.271373,W,73.3,334.6,230510,,,A*40
$GPRMC,013432.4,A,3309.339680,N,11720.303341,W,71.9,334.5,230510,,,A*49
$GPRMC,013435.4,A,3309.393685,N,11720.334726,W,72.4,334.7,230510,,,A*46
$GPRMC,013438.4,A,3309.449321,N,11720.361284,W,71.9,336.5,230510,,,A*43
$GPRMC,013441.4,A,3309.506414,N,11720.387709,W,72.6,337.7,230510,,,A*41
$GPRMC,013444.4,A,3309.564265,N,11720.413920,W,73.1,339.0,230510,,,A*40
$GPRMC,013447.4,A,3309.623169,N,11720.438814,W,73.5,339.4,230510,,,A*43
$GPRMC,013450.4,A,3309.680573,N,11720.464349,W,73.1,339.1,230510,,,A*48
$GPRMC,013453.4,A,3309.733625,N,11720.492532,W,71.2,337.5,230510,,,A*4A
$GPRMC,013456.4,A,3309.783191,N,11720.522526,W,70.5,336.8,230510,,,A*49
$GPRMC,013459.4,A,3309.836819,N,11720.549791,W,70.6,336.8,230510,,,A*4E
$GPRMC,013502.4,A,3309.891366,N,11720.577758,W,71.3,336.9,230510,,,A*42
$GPRMC,013505.4,A,3309.946237,N,11720.607088,W,71.6,336.6,230510,,,A*4F
$GPRMC,013508.4,A,3310.000884,N,11720.635369,W,71.4,336.8,230510,,,A*42
$GPRMC,013511.4,A,3310.055538,N,11720.664010,W,70.9,336.3,230510,,,A*4E
$GPRMC,013514.4,A,3310.108628,N,11720.693439,W,70.8,334.5,230510,,,A*42
$GPRMC,013517.4,A,3310.161139,N,11720.727295,W,71.9,330.8,230510,,,A*4E
$GPRMC,013520.4,A,3310.212309,N,11720.763959,W,72.9,328.0,230510,,,A*45
$GPRMC,013523.4,A,3310.263107,N,11720.802242,W,72.3,327.6,230510,,,A*46
$GPRMC,013526.4,A,3310.314309,N,11720.840017,W,71.9,327.8,230510,,,A*4D
$GPRMC,013529.4,A,3310.364660,N,11720.877851,W,71.2,327.7,230510,,,A*45
$GPRMC,013532.4,A,3310.415089,N,11720.916352,W,72.1,327.5,230510,,,A*43
$GPRMC,013535.4,A,3310.465946,N,11720.955293,W,72.2,327.5,230510,,,A*41
$GPRMC,013538.4,A,3310.516865,N,11720.992017,W,70.9,328.1,230510,,,A*4E
$GPRMC,013541.4,A,3310.568285,N,11721.029025,W,71.5,328.0,230510,,,A*48
$GPRMC,013544.4,A,3310.616870,N,11721.066872,W,70.1,326.7,230510,,,A*4A
$GPRMC,013547.4,A,3310.665887,N,11721.105093,W,70.1,326.9,230510,,,A*48
$GPRMC,013550.4,A,3310.715842,N,11721.142849,W,70.3,327.4,230510,,,A*43
$GPRMC,013553.4,A,3310.762646,N,11721.184518,W,70.3,325.4,230510,,,A*4B
$GPRMC,013556.4,A,3310.809611,N,11721.224970,W,70.6,325.2,230510,,,A*46
$GPRMC,013559.4,A,3310.858227,N,11721.264176,W,70.0,325.5,230510,,,A*47
$GPRMC,013602.4,A,3310.905506,N,11721.305774,W,69.8,324.6,230510,,,A*47
$GPRMC,013605.4,A,3310.952766,N,11721.345914,W,68.7,325.0,230510,,,A*43
$GPRMC,013608.4,A,3311.000819,N,11721.381412,W,67.9,325.6,230510,,,A*42
$GPRMC,013611.4,A,3311.045708,N,11721.419319,W,67.3,324.9,230510,,,A*4A
$GPRMC,013614.4,A,3311.091791,N,11721.458538,W,68.2,324.5,230510,,,A*44
$GPRMC,013617.4,A,3311.138846,N,11721.497456,W,68.7,325.1,230510,,,A*4A
$GPRMC,013620.4,A,3311.185141,N,11721.535652,W,68.3,325.0,230510,,,A*4C
$GPRMC,013623.4,A,3311.231999,N,11721.574100,W,68.3,324.8,230510,,,A*42
$GPRMC,013626.4,A,3311.277415,N,11721.613212,W,67.7,324.4,230510,,,A*49
$GPRMC,013629.4,A,3311.324009,N,11721.653138,W,68.2,324.3,230510,,,A*4A
$GPRMC,013632.4,A,3311.370851,N,11721.693619,W,68.4,324.6,230510,,,A*4F
$GPRMC,013635.4,A,3311.418468,N,11721.732157,W,68.6,325.2,230510,,,A*47
$GPRMC,013638.4,A,3311.463839,N,11721.772740,W,68.0,324.1,230510,,,A*4E
$GPRMC,013641.4,A,3311.510503,N,11721.812627,W,68.6,324.3,230510,,,A*4C
$GPRMC,013644.4,A,3311.559944,N,11721.848982,W,69.2,325.8,230510,,,A*4B
$GPRMC,013647.4,A,3311.608252,N,11721.887386,W,69.6,326.2,230510,,,A*43
$GPRMC,013650.4,A,3311.657283,N,11721.925993,W,70.1,326.6,230510,,,A*4F
$GPRMC,013653.4,A,3311.705733,N,11721.966604,W,71.1,325.8,230510,,,A*4E
$GPRMC,013656.4,A,3311.753689,N,11722.006985,W,71.5,325.6,230510,,,A*48
$GPRMC,013659.4,A,3311.804107,N,11722.047255,W,71.7,325.7,230510,,,A*4B
$GPRMC,013702.4,A,3311.852959,N,11722.086370,W,70.3,325.4,230510,,,A*49
$GPRMC,013705.4,A,3311.901382,N,11722.126095,W,70.3,324.0,230510,,,A*43
$GPRMC,013708.4,A,3311.941108,N,11722.176296,W,69.9,315.1,230510,,,A*4F
$GPRMC,013711.4,A,3311.979948,N,11722.230773,W,73.8,311.3,230510,,,A*43
$GPRMC,013714.4,A,3312.008752,N,11722.294749,W,72.2,300.9,230510,,,A*49
$GPRMC,013717.4,A,3312.034757,N,11722.358128,W,71.4,294.2,230510,,,A*42
$GPRMC,013720.4,A,3312.057250,N,11722.423148,W,71.4,291.9,230510,,,A*42
$GPRMC,013723.4,A,3312.078671,N,11722.488216,W,70.5,291.5,230510,,,A*4E
$GPRMC,013726.4,A,3312.101869,N,11722.552005,W,70.5,292.5,230510,,,A*46
$GPRMC,013729.4,A,3312.122895,N,11722.615036,W,69.4,292.1,230510,,,A*46
$GPRMC,013732.4,A,3312.144766,N,11722.681021,W,70.7,292.0,230510,,,A*4E
$GPRMC,013735.4,A,3312.167710,N,11722.748004,W,71.3,292.1,230510,,,A*4E
$GPRMC,013738.4,A,3312.190582,N,11722.813209,W,71.5,293.5,230510,,,A*4F
$GPRMC,013741.4,A,3312.217360,N,11722.876400,W,71.4,298.0,230510,,,A*44
$GPRMC,013744.4,A,3312.250558,N,11722.936893,W,71.9,303.2,230510,,,A*40
$GPRMC,013747.4,A,3312.285741,N,11722.993423,W,70.7,305.9,230510,,,A*4B
$GPRMC,013750.4,A,3312.320216,N,11723.050674,W,70.0,306.2,230510,,,A*4C
$GPRMC,013753.4,A,3312.385650,N,11723.079549,W,72.7,326.6,230510,,,A*43
$GPRMC,013756.4,A,3312.441871,N,11723.112264,W,73.6,331.4,230510,,,A*44
$GPRMC,013759.4,A,3312.496231,N,11723.144942,W,72.5,332.7,230510,,,A*41
$GPRMC,013802.4,A,3312.549198,N,11723.177709,W,71.5,332.4,230510,,,A*42
$GPRMC,013805.4,A,3312.601987,N,11723.209587,W,70.3,332.7,230510,,,A*46
$GPRMC,013808.4,A,3312.651380,N,11723.241352,W,66.9,331.9,230510,,,A*41
$GPRMC,013811.4,A,3312.699219,N,11723.271251,W,63.5,331.6,230510,,,A*4B
$GPRMC,013814.4,A,3312.744466,N,11723.299875,W,62.1,332.0,230510,,,A*4B
$GPRMC,013817.4,A,3312.790975,N,11723.328230,W,62.8,332.1,230510,,,A*46
$GPRMC,013820.4,A,3312.838529,N,11723.358679,W,63.3,332.2,230510,,,A*4D
$GPRMC,013823.4,A,3312.885019,N,11723.386490,W,61.5,334.7,230510,,,A*4F
$GPRMC,013826.4,A,3312.935623,N,11723.407528,W,61.7,338.8,230510,,,A*42
$GPRMC,013829.4,A,3312.996616,N,11723.420827,W,67.5,344.8,230510,,,A*4A
$GPRMC,013832.4,A,3313.055035,N,11723.436094,W,69.4,345.9,230510,,,A*48
$GPRMC,013835.4,A,3313.112288,N,11723.453075,W,70.1,345.8,230510,,,A*49
$GPRMC,013838.4,A,3313.169292,N,11723.470795,W,70.6,345.7,230510,,,A*43
$GPRMC,013841.4,A,3313.226200,N,11723.488699,W,70.7,345.7,230510,,,A*45
$GPRMC,013844.4,A,3313.284930,N,11723.505447,W,70.5,346.2,230510,,,A*41
$GPRMC,013847.4,A,3313.341126,N,11723.525374,W,70.3,343.3,230510,,,A*42
$GPRMC,013850.4,A,3313.395239,N,11723.551136,W,71.4,336.7,230510,,,A*47
$GPRMC,013853.4,A,3313.446267,N,11723.583882,W,69.2,329.9,230510,,,A*40
$GPRMC,013856.4,A,3313.494920,N,11723.622462,W,71.6,325.9,230510,,,A*49
$GPRMC,013859.4,A,3313.535859,N,11723.670873,W,70.3,318.2,230510,,,A*49
$GPRMC,013902.4,A,3313.580447,N,11723.716985,W,70.7,318.3,230510,,,A*47
$GPRMC,013905.4,A,3313.623961,N,11723.765693,W,69.9,317.7,230510,,,A*42
$GPRMC,013908.4,A,3313.663762,N,11723.813319,W,67.1,317.0,230510,,,A*4E
$GPRMC,013911.4,A,3313.703684,N,11723.857941,W,65.0,317.3,230510,,,A*4F
$GPRMC,013914.4,A,3313.745619,N,11723.901719,W,65.8,317.8,230510,,,A*4E
$GPRMC,013917.4,A,3313.783729,N,11723.944455,W,65.4,317.0,230510,,,A*4B
$GPRMC,013920.4,A,3313.823036,N,11723.992290,W,67.8,315.6,230510,,,A*4D
$GPRMC,013923.4,A,3313.863133,N,11724.042827,W,67.7,314.9,230510,,,A*4A
$GPRMC,013926.4,A,3313.904375,N,11724.087853,W,66.5,316.4,230510,,,A*49
$GPRMC,013929.4,A,3313.944767,N,11724.134322,W,67.3,316.2,230510,,,A*40
$GPRMC,013932.4,A,3313.994108,N,11724.172643,W,68.0,321.8,230510,,,A*4A
$GPRMC,013935.4,A,3314.038269,N,11724.212902,W,66.9,321.3,230510,,,A*42
$GPRMC,013938.4,A,3314.083578,N,11724.254939,W,68.7,321.7,230510,,,A*46
$GPRMC,013941.4,A,3314.130624,N,11724.296047,W,68.8,322.5,230510,,,A*4B
$GPRMC,013944.4,A,3314.175612,N,11724.337730,W,68.8,322.0,230510,,,A*42
$GPRMC,013947.4,A,3314.221032,N,11724.380315,W,69.8,321.7,230510,,,A*4D
$GPRMC,013950.4,A,3314.267468,N,11724.425105,W,72.1,320.7,230510,,,A*4B
$GPRMC,013953.4,A,3314.305184,N,11724.480284,W,72.3,314.7,230510,,,A*4A
$GPRMC,013956.4,A,3314.333562,N,11724.541627,W,70.9,302.1,230510,,,A*4E
$GPRMC,013959.4,A,3314.358742,N,11724.606525,W,71.4,293.7,230510,,,A*4E
$GPRMC,014002.4,A,3314.380766,N,11724.672820,W,71.9,291.6,230510,,,A*48
$GPRMC,014005.4,A,3314.404320,N,11724.740076,W,72.5,294.9,230510,,,A*4C
$GPRMC,014008.4,A,3314.433908,N,11724.802169,W,71.5,302.4,230510,,,A*43
$GPRMC,014011.4,A,3314.467699,N,11724.859302,W,69.6,305.3,230510,,,A*46
$GPRMC,014014.4,A,3314.503702,N,11724.914453,W,69.2,307.2,230510,,,A*4F
$GPRMC,014017.4,A,3314.540816,N,11724.964201,W,65.5,310.3,230510,,,A*4B
$GPRMC,014020.4,A,3314.599626,N,11724.991483,W,64.4,324.5,230510,,,A*41
$GPRMC,014023.4,A,3314.664802,N,11725.010534,W,70.1,335.8,230510,,,A*4A
$GPRMC,014026.4,A,3314.720475,N,11725.035303,W,70.5,337.7,230510,,,A*4E
$GPRMC,014029.4,A,3314.776252,N,11725.059137,W,70.5,339.0,230510,,,A*47
$GPRMC,014032.4,A,3314.833342,N,11725.081143,W,71.3,338.7,230510,,,A*44
$GPRMC,014035.4,A,3314.890675,N,11725.108641,W,73.2,334.0,230510,,,A*46
$GPRMC,014038.4,A,3314.943403,N,11725.149022,W,74.0,328.1,230510,,,A*48
$GPRMC,014041.4,A,3314.994158,N,11725.188887,W,73.3,326.7,230510,,,A*41
$GPRMC,014044.4,A,3315.045246,N,11725.228065,W,72.9,326.3,230510,,,A*4E
$GPRMC,014047.4,A,3315.093934,N,11725.269988,W,73.1,326.0,230510,,,A*4D
$GPRMC,014050.4,A,3315.143375,N,11725.310796,W,72.6,326.1,230510,,,A*41
$GPRMC,014053.4,A,3315.193850,N,11725.351254,W,73.0,326.0,230510,,,A*4B
$GPRMC,014056.4,A,3315.245252,N,11725.391892,W,73.5,326.4,230510,,,A*43
$GPRMC,014059.4,A,3315.294169,N,11725.432676,W,73.5,326.0,230510,,,A*45
$GPRMC,014102.4,A,3315.346054,N,11725.473512,W,74.3,326.4,230510,,,A*4A
$GPRMC,014105.4,A,3315.398381,N,11725.514442,W,74.6,326.3,230510,,,A*43
$GPRMC,014108.4,A,3315.450319,N,11725.554959,W,74.7,326.3,230510,,,A*4E
$GPRMC,014111.4,A,3315.502038,N,11725.595987,W,74.5,326.4,230510,,,A*4B
$GPRMC,014114.4,A,3315.553497,N,11725.637668,W,74.6,326.3,230510,,,A*4A
$GPRMC,014117.4,A,3315.605329,N,11725.678614,W,74.2,326.2,230510,,,A*4E
$GPRMC,014120.4,A,3315.655116,N,11725.718575,W,73.4,326.4,230510,,,A*45
$GPRMC,014123.4,A,3315.707107,N,11725.759604,W,74.0,326.1,230510,,,A*46
$GPRMC,014126.4,A,3315.759372,N,11725.802121,W,74.5,325.5,230510,,,A*4B
$GPRMC,014129.4,A,3315.810680,N,11725.844330,W,74.3,325.6,230510,,,A*4B
$GPRMC,014132.4,A,3315.859989,N,11725.887701,W,73.4,322.7,230510,,,A*45
$GPRMC,014135.4,A,3315.904572,N,11725.935503,W,73.4,317.7,230510,,,A*4D
$GPRMC,014138.4,A,3315.948232,N,11725.988473,W,74.7,315.3,230510,,,A*49
$GPRMC,014141.4,A,3315.989706,N,11726.042413,W,73.8,313.9,230510,,,A*46
$GPRMC,014144.4,A,3316.027541,N,11726.097510,W,72.0,311.9,230510,,,A*4D
$GPRMC,014147.4,A,3316.066600,N,11726.148743,W,68.9,311.5,230510,,,A*44
$GPRMC,014150.4,A,3316.105511,N,11726.201814,W,69.5,310.5,230510,,,A*4A
$GPRMC,014153.4,A,3316.143921,N,11726.256101,W,72.1,310.9,230510,,,A*49
$GPRMC,014156.4,A,3316.182686,N,11726.309620,W,71.9,310.8,230510,,,A*46
$GPRMC,014159.4,A,3316.223483,N,11726.364777,W,73.9,311.0,230510,,,A*45
$GPRMC,014202.4,A,3316.264900,N,11726.421658,W,74.7,311.1,230510,,,A*4F
$GPRMC,014205.4,A,3316.304077,N,11726.477030,W,70.7,311.4,230510,,,A*4C
$GPRMC,014208.4,A,3316.343027,N,11726.526176,W,67.0,312.7,230510,,,A*40
$GPRMC,014211.4,A,3316.386090,N,11726.569171,W,65.0,319.4,230510,,,A*4B
$GPRMC,014214.4,A,3316.431336,N,11726.605046,W,65.3,327.2,230510,,,A*4E
$GPRMC,014217.4,A,3316.475243,N,11726.639524,W,62.2,327.3,230510,,,A*47
$GPRMC,014220.4,A,3316.518385,N,11726.670923,W,58.7,327.4,230510,,,A*4F
$GPRMC,014223.4,A,3316.559092,N,11726.702130,W,58.9,327.3,230510,,,A*4B
$GPRMC,014226.4,A,3316.598912,N,11726.732891,W,56.7,327.4,230510,,,A*44
$GPRMC,014229.4,A,3316.639945,N,11726.764391,W,59.6,327.9,230510,,,A*4A
$GPRMC,014232.4,A,3316.684107,N,11726.796350,W,62.0,329.0,230510,,,A*41
$GPRMC,014235.4,A,3316.729727,N,11726.830413,W,64.0,328.1,230510,,,A*41
$GPRMC,014238.4,A,3316.775130,N,11726.864733,W,64.9,327.7,230510,,,A*45
$GPRMC,014241.4,A,3316.819133,N,11726.900708,W,61.4,327.7,230510,,,A*4E
$GPRMC,014244.4,A,3316.860316,N,11726.933559,W,59.3,327.5,230510,,,A*48
$GPRMC,014247.4,A,3316.900387,N,11726.965491,W,56.2,327.2,230510,,,A*4B
$GPRMC,014250.4,A,3316.938850,N,11726.995551,W,55.9,327.1,230510,,,A*4E
$GPRMC,014253.4,A,3316.978720,N,11727.027512,W,57.7,326.7,230510,,,A*4C
$GPRMC,014256.4,A,3317.022037,N,11727.057587,W,59.5,327.7,230510,,,A*49
$GPRMC,014259.4,A,3317.064936,N,11727.091589,W,62.5,327.4,230510,,,A*43
$GPRMC,014302.4,A,3317.111866,N,11727.123455,W,64.9,327.8,230510,,,A*45
$GPRMC,014305.4,A,3317.158105,N,11727.158744,W,66.1,327.5,230510,,,A*4B
$GPRMC,014308.4,A,3317.204598,N,11727.193206,W,66.7,328.9,230510,,,A*4D
$GPRMC,014311.4,A,3317.253981,N,11727.230340,W,69.4,328.9,230510,,,A*46
$GPRMC,014314.4,A,3317.305354,N,11727.265127,W,70.5,328.5,230510,,,A*45
$GPRMC,014317.4,A,3317.355236,N,11727.304134,W,72.6,327.2,230510,,,A*4B
$GPRMC,014320.4,A,3317.407135,N,11727.343101,W,72.8,327.5,230510,,,A*43
$GPRMC,014323.4,A,3317.457212,N,11727.381137,W,70.1,327.6,230510,,,A*40
$GPRMC,014326.4,A,3317.505008,N,11727.417417,W,68.4,327.7,230510,,,A*48
$GPRMC,014329.4,A,3317.553653,N,11727.451198,W,67.3,329.8,230510,,,A*45
$GPRMC,014332.4,A,3317.598960,N,11727.487968,W,65.7,327.5,230510,,,A*4E
$GPRMC,014335.4,A,3317.644785,N,11727.530895,W,67.1,323.2,230510,,,A*47
$GPRMC,014338.4,A,3317.690911,N,11727.573680,W,69.8,320.7,230510,,,A*4C
$GPRMC,014341.4,A,3317.727807,N,11727.623067,W,67.2,314.8,230510,,,A*4C
$GPRMC,014344.4,A,3317.767154,N,11727.671389,W,66.8,314.5,230510,,,A*40
$GPRMC,014347.4,A,3317.806871,N,11727.719846,W,67.4,314.5,230510,,,A*4F
$GPRMC,014350.4,A,3317.846600,N,11727.769432,W,68.0,314.4,230510,,,A*47
$GPRMC,014353.4,A,3317.885562,N,11727.816147,W,66.8,314.5,230510,,,A*4B
$GPRMC,014356.4,A,3317.924297,N,11727.861389,W,65.9,315.5,230510,,,A*4A
$GPRMC,014359.4,A,3317.964834,N,11727.909513,W,69.4,315.0,230510,,,A*4C
$GPRMC,014402.4,A,3318.008265,N,11727.958703,W,72.1,315.0,230510,,,A*4F
$GPRMC,014405.4,A,3318.051373,N,11728.013151,W,74.5,314.1,230510,,,A*48
$GPRMC,014408.4,A,3318.095493,N,11728.066749,W,75.2,314.5,230510,,,A*4B
$GPRMC,014411.4,A,3318.138476,N,11728.118871,W,74.3,314.6,230510,,,A*41
$GPRMC,014414.4,A,3318.180850,N,11728.169628,W,72.1,314.9,230510,,,A*40
$GPRMC,014417.4,A,3318.222449,N,11728.219603,W,71.1,314.6,230510,,,A*4D
$GPRMC,014420.4,A,3318.264574,N,11728.269757,W,71.3,314.3,230510,,,A*44
$GPRMC,014423.4,A,3318.305198,N,11728.320904,W,71.8,313.7,230510,,,A*4B
$GPRMC,014426.4,A,3318.346849,N,11728.373893,W,72.7,313.5,230510,,,A*4B
$GPRMC,014429.4,A,3318.390473,N,11728.425255,W,71.7,314.5,230510,,,A*4A
$GPRMC,014432.4,A,3318.430182,N,11728.477641,W,71.8,314.1,230510,,,A*4B
$GPRMC,014435.4,A,3318.474639,N,11728.529487,W,73.7,314.6,230510,,,A*43
$GPRMC,014438.4,A,3318.517939,N,11728.583151,W,74.5,314.3,230510,,,A*4B
$GPRMC,014441.4,A,3318.561560,N,11728.634384,W,74.1,314.6,230510,,,A*40
$GPRMC,014444.4,A,3318.605014,N,11728.687557,W,74.2,314.6,230510,,,A*41
$GPRMC,014447.4,A,3318.650262,N,11728.738202,W,74.1,315.7,230510,,,A*40
$GPRMC,014450.4,A,3318.693729,N,11728.788520,W,74.4,316.0,230510,,,A*4E
$GPRMC,014453.4,A,3318.738357,N,11728.838693,W,72.4,317.4,230510,,,A*4C
$GPRMC,014456.4,A,3318.787029,N,11728.881951,W,70.5,322.1,230510,,,A*44
$GPRMC,014459.4,A,3318.840572,N,11728.916098,W,69.1,328.0,230510,,,A*40
$GPRMC,014502.4,A,3318.891825,N,11728.939981,W,64.3,334.3,230510,,,A*41
$GPRMC,014505.4,A,3318.964726,N,11728.944358,W,71.3,347.2,230510,,,A*44
$GPRMC,014508.4,A,3319.029682,N,11728.945170,W,72.1,353.2,230510,,,A*4A
$GPRMC,014511.4,A,3319.090963,N,11728.944649,W,71.7,355.8,230510,,,A*45
$GPRMC,014514.4,A,3319.149011,N,11728.953116,W,70.8,353.8,230510,,,A*4A
$GPRMC,014517.4,A,3319.211375,N,11728.957532,W,71.5,352.5,230510,,,A*40
$GPRMC,014520.4,A,3319.263957,N,11728.978412,W,68.1,344.3,230510,,,A*48
$GPRMC,014523.4,A,3319.319909,N,11729.003882,W,72.4,338.7,230510,,,A*4C
$GPRMC,014526.4,A,3319.371068,N,11729.041090,W,73.6,330.9,230510,,,A*41
$GPRMC,014529.4,A,3319.409383,N,11729.089280,W,69.2,316.0,230510,,,A*45
$GPRMC,014532.4,A,3319.448368,N,11729.140759,W,69.6,312.4,230510,,,A*4E
$GPRMC,014535.4,A,3319.486372,N,11729.191088,W,69.0,311.9,230510,,,A*4F
$GPRMC,014538.4,A,3319.524962,N,11729.244175,W,70.6,311.1,230510,,,A*4E
$GPRMC,014541.4,A,3319.559980,N,11729.300209,W,70.9,310.4,230510,,,A*44
$GPRMC,014544.4,A,3319.598263,N,11729.354388,W,71.6,310.5,230510,,,A*4C
$GPRMC,014547.4,A,3319.639708,N,11729.409181,W,72.5,311.1,230510,,,A*4E
$GPRMC,014550.4,A,3319.677816,N,11729.462871,W,71.1,310.9,230510,,,A*47
$GPRMC,014553.4,A,3319.715934,N,11729.515971,W,70.1,310.8,230510,,,A*40
$GPRMC,014556.4,A,3319.759646,N,11729.565655,W,70.7,312.2,230510,,,A*47
$GPRMC,014559.4,A,3319.798252,N,11729.619566,W,70.9,311.1,230510,,,A*41
$GPRMC,014602.4,A,3319.835657,N,11729.675040,W,71.9,310.7,230510,,,A*48
$GPRMC,014605.4,A,3319.875143,N,11729.728825,W,72.4,311.0,230510,,,A*43
$GPRMC,014608.4,A,3319.913221,N,11729.785170,W,72.8,310.6,230510,,,A*4D
$GPRMC,014611.4,A,3319.953292,N,11729.839599,W,72.5,310.7,230510,,,A*4E
$GPRMC,014614.4,A,3319.994372,N,11729.894955,W,73.2,311.1,230510,,,A*45
$GPRMC,014617.4,A,3320.035207,N,11729.948696,W,73.1,311.4,230510,,,A*4B
$GPRMC,014620.4,A,3320.074139,N,11730.003087,W,73.0,310.8,230510,,,A*40
$GPRMC,014623.4,A,3320.114729,N,11730.058608,W,73.7,310.8,230510,,,A*4B
$GPRMC,014626.4,A,3320.156444,N,11730.112429,W,74.0,311.4,230510,,,A*43
$GPRMC,014629.4,A,3320.191735,N,11730.170898,W,73.6,310.2,230510,,,A*46
$GPRMC,014632.4,A,3320.232183,N,11730.227773,W,74.1,310.8,230510,,,A*4C
$GPRMC,014635.4,A,3320.273201,N,11730.282920,W,74.2,311.9,230510,,,A*43
$GPRMC,014638.4,A,3320.314794,N,11730.337095,W,74.2,311.7,230510,,,A*41
$GPRMC,014641.4,A,3320.354694,N,11730.392702,W,73.9,310.9,230510,,,A*4F
$GPRMC,014644.4,A,3320.397075,N,11730.447145,W,74.0,311.8,230510,,,A*48
$GPRMC,014647.4,A,3320.439083,N,11730.501911,W,74.2,312.0,230510,,,A*42
$GPRMC,014650.4,A,3320.479072,N,11730.556449,W,73.1,311.4,230510,,,A*4F
$GPRMC,014653.4,A,3320.518334,N,11730.610486,W,72.5,311.1,230510,,,A*49
$GPRMC,014656.4,A,3320.556447,N,11730.665566,W,72.8,310.4,230510,,,A*41
$GPRMC,014659.4,A,3320.600491,N,11730.720935,W,74.2,311.8,230510,,,A*4E
$GPRMC,014702.4,A,3320.640516,N,11730.776818,W,74.1,310.9,230510,,,A*45
$GPRMC,014705.4,A,3320.681033,N,11730.833640,W,74.5,310.8,230510,,,A*45
$GPRMC,014708.4,A,3320.720865,N,11730.889849,W,74.3,310.7,230510,,,A*46
$GPRMC,014711.4,A,3320.761754,N,11730.946672,W,75.1,310.9,230510,,,A*4F
$GPRMC,014714.4,A,3320.803702,N,11731.002294,W,75.1,311.2,230510,,,A*4C
$GPRMC,014717.4,A,3320.843595,N,11731.058246,W,74.3,310.5,230510,,,A*42
$GPRMC,014720.4,A,3320.883984,N,11731.115289,W,74.4,310.2,230510,,,A*4D
$GPRMC,014723.4,A,3320.924417,N,11731.172249,W,72.2,310.1,230510,,,A*4B
$GPRMC,014726.4,A,3320.963655,N,11731.226684,W,71.7,310.4,230510,,,A*4D
$GPRMC,014729.4,A,3321.004980,N,11731.278818,W,72.4,311.6,230510,,,A*4F
$GPRMC,014732.4,A,3321.043466,N,11731.334915,W,72.5,310.8,230510,,,A*48
$GPRMC,014735.4,A,3321.072958,N,11731.395846,W,71.9,309.0,230510,,,A*4E
$GPRMC,014738.4,A,3321.111658,N,11731.450602,W,72.3,309.4,230510,,,A*45
$GPRMC,014741.4,A,3321.150058,N,11731.505977,W,72.0,309.6,230510,,,A*45
$GPRMC,014744.4,A,3321.187087,N,11731.560602,W,71.2,309.2,230510,,,A*43
$GPRMC,014747.4,A,3321.224737,N,11731.615131,W,71.0,309.2,230510,,,A*42
$GPRMC,014750.4,A,3321.262009,N,11731.670035,W,69.5,309.0,230510,,,A*44
$GPRMC,014753.4,A,3321.299147,N,11731.722793,W,69.3,309.5,230510,,,A*46
$GPRMC,014756.4,A,3321.335196,N,11731.776572,W,69.5,309.6,230510,,,A*41
$GPRMC,014759.4,A,3321.372827,N,11731.830521,W,70.8,309.7,230510,,,A*41
$GPRMC,014802.4,A,3321.412076,N,11731.886290,W,72.7,309.7,230510,,,A*40
$GPRMC,014805.4,A,3321.450937,N,11731.942473,W,73.6,309.4,230510,,,A*4C
$GPRMC,014808.4,A,3321.488857,N,11731.999125,W,73.5,309.2,230510,,,A*46
$GPRMC,014811.4,A,3321.527576,N,11732.055518,W,73.8,309.1,230510,,,A*4A
$GPRMC,014814.4,A,3321.565117,N,11732.112912,W,74.1,309.1,230510,,,A*40
$GPRMC,014817.4,A,3321.603576,N,11732.170180,W,74.0,308.7,230510,,,A*42
$GPRMC,014820.4,A,3321.642319,N,11732.227129,W,73.8,309.3,230510,,,A*44
$GPRMC,014823.4,A,3321.681820,N,11732.284120,W,73.0,309.3,230510,,,A*41
$GPRMC,014826.4,A,3321.721029,N,11732.339461,W,72.3,310.0,230510,,,A*40
$GPRMC,014829.4,A,3321.760333,N,11732.394308,W,72.7,310.3,230510,,,A*4A
$GPRMC,014832.4,A,3321.800152,N,11732.448972,W,73.0,310.5,230510,,,A*4D
$GPRMC,014835.4,A,3321.840316,N,11732.504903,W,74.0,310.3,230510,,,A*42
$GPRMC,014838.4,A,3321.875382,N,11732.564850,W,74.0,308.3,230510,,,A*4C
$GPRMC,014841.4,A,3321.912313,N,11732.622976,W,73.9,308.9,230510,,,A*4A
$GPRMC,014844.4,A,3321.950554,N,11732.680528,W,74.2,308.8,230510,,,A*4E
$GPRMC,014847.4,A,3321.990044,N,11732.738139,W,74.6,309.1,230510,,,A*4F
$GPRMC,014850.4,A,3322.028970,N,11732.795289,W,74.5,308.7,230510,,,A*45
$GPRMC,014853.4,A,3322.065605,N,11732.854757,W,74.3,305.3,230510,,,A*49
$GPRMC,014856.4,A,3322.099705,N,11732.916607,W,74.5,303.1,230510,,,A*4F
$GPRMC,014859.4,A,3322.132769,N,11732.977574,W,71.6,303.0,230510,,,A*4D
$GPRMC,014902.4,A,3322.166487,N,11733.036468,W,71.3,304.0,230510,,,A*43
$GPRMC,014905.4,A,3322.201011,N,11733.095972,W,73.6,304.4,230510,,,A*41
$GPRMC,014908.4,A,3322.236017,N,11733.158322,W,75.8,303.8,230510,,,A*42
$GPRMC,014911.4,A,3322.270984,N,11733.220672,W,75.4,303.3,230510,,,A*40
$GPRMC,014914.4,A,3322.304304,N,11733.282900,W,74.6,302.7,230510,,,A*41
$GPRMC,014917.4,A,3322.337858,N,11733.345307,W,74.7,302.9,230510,,,A*48
$GPRMC,014920.4,A,3322.371105,N,11733.408723,W,74.9,302.5,230510,,,A*41
$GPRMC,014923.4,A,3322.404735,N,11733.471647,W,75.3,302.1,230510,,,A*40
$GPRMC,014926.4,A,3322.437508,N,11733.535284,W,76.2,302.0,230510,,,A*40
$GPRMC,014929.4,A,3322.472005,N,11733.599942,W,76.7,302.2,230510,,,A*46
$GPRMC,014932.4,A,3322.506918,N,11733.664049,W,76.0,303.4,230510,,,A*48
$GPRMC,014935.4,A,3322.548766,N,11733.720541,W,75.5,311.8,230510,,,A*47
$GPRMC,014938.4,A,3322.593672,N,11733.771598,W,72.9,316.3,230510,,,A*4F
$GPRMC,014941.4,A,3322.635432,N,11733.819534,W,67.7,316.5,230510,,,A*43
$GPRMC,014944.4,A,3322.674874,N,11733.865561,W,65.6,313.3,230510,,,A*46
$GPRMC,014947.4,A,3322.709204,N,11733.915989,W,66.4,306.5,230510,,,A*4C
$GPRMC,014950.4,A,3322.738729,N,11733.971489,W,65.7,300.0,230510,,,A*4E
$GPRMC,014953.4,A,3322.762939,N,11734.029888,W,65.2,295.9,230510,,,A*42
$GPRMC,014956.4,A,3322.783469,N,11734.088274,W,64.1,294.0,230510,,,A*48
$GPRMC,014959.4,A,3322.806509,N,11734.146438,W,64.7,295.0,230510,,,A*48
$GPRMC,015002.4,A,3322.828309,N,11734.204298,W,64.9,294.8,230510,,,A*4A
$GPRMC,015005.4,A,3322.852504,N,11734.264615,W,65.5,295.0,230510,,,A*48
$GPRMC,015008.4,A,3322.876480,N,11734.326044,W,67.1,294.9,230510,,,A*45
$GPRMC,015011.4,A,3322.898804,N,11734.382510,W,58.7,295.2,230510,,,A*47
$GPRMC,015014.4,A,3322.916444,N,11734.428022,W,52.0,295.9,230510,,,A*48
$GPRMC,015017.4,A,3322.928511,N,11734.458192,W,38.8,295.1,230510,,,A*46
$GPRMC,015020.4,A,3322.944245,N,11734.497569,W,47.2,294.8,230510,,,A*47
$GPRMC,015023.4,A,3322.962753,N,11734.544261,W,53.2,294.7,230510,,,A*48
$GPRMC,015026.4,A,3322.982084,N,11734.593811,W,56.0,294.7,230510,,,A*4E
$GPRMC,015029.4,A,3323.000755,N,11734.642477,W,53.9,295.0,230510,,,A*41
$GPRMC,015032.4,A,3323.020105,N,11734.692733,W,56.0,294.8,230510,,,A*41
$GPRMC,015035.4,A,3323.040975,N,11734.745273,W,58.8,295.4,230510,,,A*4E
$GPRMC,015038.4,A,3323.065123,N,11734.802964,W,65.3,296.0,230510,,,A*4C
$GPRMC,015041.4,A,3323.088121,N,11734.862592,W,65.9,294.9,230510,,,A*41
$GPRMC,015044.4,A,3323.110853,N,11734.922701,W,65.2,294.8,230510,,,A*4F
$GPRMC,015047.4,A,3323.134569,N,11734.981409,W,65.4,295.0,230510,,,A*43
$GPRMC,015050.4,A,3323.158858,N,11735.038290,W,64.9,297.6,230510,,,A*44
$GPRMC,015053.4,A,3323.188404,N,11735.093616,W,64.3,302.8,230510,,,A*4D
$GPRMC,015056.4,A,3323.219143,N,11735.143982,W,61.9,306.4,230510,,,A*4C
$GPRMC,015059.4,A,3323.252651,N,11735.190651,W,61.9,311.3,230510,,,A*46
$GPRMC,015102.4,A,3323.290265,N,11735.235569,W,64.5,315.9,230510,,,A*47
$GPRMC,015105.4,A,3323.329796,N,11735.279312,W,64.0,317.0,230510,,,A*46
$GPRMC,015108.4,A,3323.370151,N,11735.320496,W,63.4,318.8,230510,,,A*48
$GPRMC,015111.4,A,3323.412562,N,11735.358994,W,62.8,321.2,230510,,,A*4A
$GPRMC,015114.4,A,3323.467438,N,11735.384879,W,63.0,328.3,230510,,,A*41
$GPRMC,015117.4,A,3323.508822,N,11735.418272,W,59.9,327.7,230510,,,A*45
$GPRMC,015120.4,A,3323.549326,N,11735.448968,W,57.9,328.0,230510,,,A*48
$GPRMC,015123.4,A,3323.588366,N,11735.481520,W,59.0,325.5,230510,,,A*48
$GPRMC,015126.4,A,3323.629521,N,11735.516070,W,59.6,325.2,230510,,,A*4E
$GPRMC,015129.4,A,3323.676447,N,11735.544452,W,60.1,328.6,230510,,,A*4D
$GPRMC,015132.4,A,3323.718839,N,11735.575008,W,59.4,329.9,230510,,,A*43
$GPRMC,015135.4,A,3323.761634,N,11735.601910,W,57.7,331.6,230510,,,A*42
$GPRMC,015138.4,A,3323.805007,N,11735.627776,W,59.2,333.6,230510,,,A*47
$GPRMC,015141.4,A,3323.851587,N,11735.652229,W,60.0,335.6,230510,,,A*46
$GPRMC,015144.4,A,3323.898063,N,11735.676127,W,60.8,336.7,230510,,,A*48
$GPRMC,015147.4,A,3323.944135,N,11735.697777,W,57.8,337.8,230510,,,A*4F
$GPRMC,015150.4,A,3323.986173,N,11735.717778,W,52.7,338.0,230510,,,A*4E
$GPRMC,015153.4,A,3324.025851,N,11735.736477,W,51.0,337.7,230510,,,A*40
$GPRMC,015156.4,A,3324.063857,N,11735.753721,W,48.4,337.3,230510,,,A*4A
$GPRMC,015159.4,A,3324.101466,N,11735.772057,W,51.0,338.9,230510,,,A*42
$GPRMC,015202.4,A,3324.142941,N,11735.792183,W,53.6,337.5,230510,,,A*41
$GPRMC,015205.4,A,3324.184458,N,11735.815194,W,54.3,336.4,230510,,,A*4D
$GPRMC,015208.4,A,3324.225571,N,11735.835440,W,53.2,337.6,230510,,,A*49
$GPRMC,015211.4,A,3324.265742,N,11735.856662,W,53.4,336.1,230510,,,A*40
$GPRMC,015214.4,A,3324.307726,N,11735.880053,W,56.1,336.1,230510,,,A*4D
$GPRMC,015217.4,A,3324.351881,N,11735.902863,W,56.7,337.1,230510,,,A*48
$GPRMC,015220.4,A,3324.395751,N,11735.925636,W,56.3,336.6,230510,,,A*4F
$GPRMC,015223.4,A,3324.439366,N,11735.947475,W,57.3,336.3,230510,,,A*48
$GPRMC,015226.4,A,3324.483833,N,11735.969839,W,57.2,336.7,230510,,,A*4A
$GPRMC,015229.4,A,3324.528682,N,11735.990690,W,57.1,337.6,230510,,,A*49
$GPRMC,015232.4,A,3324.570326,N,11736.014078,W,56.9,336.5,230510,,,A*48
$GPRMC,015235.4,A,3324.614250,N,11736.035685,W,57.5,337.1,230510,,,A*41
$GPRMC,015238.4,A,3324.656486,N,11736.058297,W,57.0,336.8,230510,,,A*46
$GPRMC,015241.4,A,3324.702659,N,11736.079962,W,57.9,337.4,230510,,,A*4E
$GPRMC,015244.4,A,3324.747272,N,11736.103561,W,59.7,337.1,230510,,,A*41
$GPRMC,015247.4,A,3324.795855,N,11736.129152,W,63.0,336.7,230510,,,A*47
$GPRMC,015250.4,A,3324.849134,N,11736.152924,W,65.5,338.1,230510,,,A*4F
$GPRMC,015253.4,A,3324.900043,N,11736.176473,W,64.6,337.9,230510,,,A*4D
$GPRMC,015256.4,A,3324.950046,N,11736.201955,W,64.8,337.4,230510,,,A*41
$GPRMC,015259.4,A,3324.998464,N,11736.226828,W,62.9,337.0,230510,,,A*43
$GPRMC,015302.4,A,3325.044696,N,11736.250346,W,61.0,337.1,230510,,,A*43
$GPRMC,015305.4,A,3325.088556,N,11736.276666,W,60.7,335.5,230510,,,A*48
$GPRMC,015308.4,A,3325.133022,N,11736.301884,W,59.9,333.7,230510,,,A*41
$GPRMC,015311.4,A,3325.174176,N,11736.326743,W,59.5,331.5,230510,,,A*47
$GPRMC,015314.4,A,3325.214913,N,11736.355228,W,58.2,330.7,230510,,,A*45
$GPRMC,015317.4,A,3325.253335,N,11736.387370,W,58.6,327.8,230510,,,A*45
$GPRMC,015320.4,A,3325.292044,N,11736.422746,W,61.4,329.7,230510,,,A*49
$GPRMC,015323.4,A,3325.337106,N,11736.453689,W,63.0,331.2,230510,,,A*4D
$GPRMC,015326.4,A,3325.390835,N,11736.479911,W,68.5,335.5,230510,,,A*47
$GPRMC,015329.4,A,3325.450798,N,11736.509413,W,74.8,335.7,230510,,,A*40
$GPRMC,015332.4,A,3325.506097,N,11736.542336,W,72.9,332.9,230510,,,A*41
$GPRMC,015335.4,A,3325.557627,N,11736.575938,W,71.0,331.3,230510,,,A*4C
$GPRMC,015338.4,A,3325.608013,N,11736.608747,W,68.4,331.0,230510,,,A*49
$GPRMC,015341.4,A,3325.657573,N,11736.641321,W,67.1,331.5,230510,,,A*48
$GPRMC,015344.4,A,3325.705701,N,11736.674672,W,66.6,330.5,230510,,,A*4E
$GPRMC,015347.4,A,3325.752122,N,11736.708859,W,67.2,328.7,230510,,,A*4B
$GPRMC,015350.4,A,3325.785166,N,11736.755408,W,64.9,319.3,230510,,,A*49
$GPRMC,015353.4,A,3325.822434,N,11736.799579,W,62.8,315.0,230510,,,A*45
$GPRMC,015356.4,A,3325.854600,N,11736.842117,W,56.1,314.0,230510,,,A*4E
$GPRMC,015359.4,A,3325.884690,N,11736.876678,W,46.7,318.2,230510,,,A*45
$GPRMC,015402.4,A,3325.913171,N,11736.904183,W,44.1,321.9,230510,,,A*49
$GPRMC,015405.4,A,3325.945075,N,11736.928962,W,45.9,326.6,230510,,,A*40
$GPRMC,015408.4,A,3325.975505,N,11736.954195,W,44.3,328.8,230510,,,A*4C
$GPRMC,015411.4,A,3326.007793,N,11736.974601,W,43.3,330.7,230510,,,A*4F
$GPRMC,015414.4,A,3326.039231,N,11736.994779,W,42.9,331.1,230510,,,A*46
$GPRMC,015417.4,A,3326.069983,N,11737.014571,W,42.1,331.3,230510,,,A*42
$GPRMC,015420.4,A,3326.100085,N,11737.034166,W,40.9,331.0,230510,,,A*4E
$GPRMC,015423.4,A,3326.128926,N,11737.053816,W,40.3,329.9,230510,,,A*42
$GPRMC,015426.4,A,3326.155785,N,11737.073357,W,36.9,328.0,230510,,,A*45
$GPRMC,015429.4,A,3326.177869,N,11737.093147,W,30.0,325.6,230510,,,A*4E
$GPRMC,015432.4,A,3326.197093,N,11737.111023,W,29.3,322.0,230510,,,A*45
$GPRMC,015435.4,A,3326.214036,N,11737.132469,W,31.3,316.2,230510,,,A*42
$GPRMC,015438.4,A,3326.234477,N,11737.155005,W,32.3,315.0,230510,,,A*41
$GPRMC,015441.4,A,3326.250791,N,11737.179392,W,31.3,311.5,230510,,,A*47
$GPRMC,015444.4,A,3326.265695,N,11737.198984,W,25.7,310.2,230510,,,A*44
$GPRMC,015447.4,A,3326.276963,N,11737.216618,W,21.9,307.2,230510,,,A*40
$GPRMC,015450.4,A,3326.287418,N,11737.235159,W,22.9,304.5,230510,,,A*4D
$GPRMC,015453.4,A,3326.297689,N,11737.254700,W,23.6,304.0,230510,,,A*43
$GPRMC,015456.4,A,3326.309283,N,11737.273453,W,23.0,304.8,230510,,,A*40
$GPRMC,015459.4,A,3326.318951,N,11737.292310,W,23.0,302.3,230510,,,A*49
$GPRMC,015502.4,A,3326.328645,N,11737.314494,W,26.3,301.8,230510,,,A*45
$GPRMC,015505.4,A,3326.342660,N,11737.339442,W,30.8,302.8,230510,,,A*42
$GPRMC,015508.4,A,3326.358122,N,11737.366204,W,35.1,304.1,230510,,,A*48
$GPRMC,015511.4,A,3326.377351,N,11737.398326,W,41.4,303.8,230510,,,A*43
$GPRMC,015514.4,A,3326.395938,N,11737.436063,W,43.4,302.2,230510,,,A*47
$GPRMC,015517.4,A,3326.415223,N,11737.470991,W,41.3,302.9,230510,,,A*42
$GPRMC,015520.4,A,3326.433624,N,11737.503697,W,37.4,303.3,230510,,,A*40
$GPRMC,015523.4,A,3326.451272,N,11737.532842,W,35.8,304.9,230510,,,A*47
$GPRMC,015526.4,A,3326.469347,N,11737.558664,W,32.7,308.2,230510,,,A*47
$GPRMC,015529.4,A,3326.487693,N,11737.583619,W,34.2,309.8,230510,,,A*40
$GPRMC,015532.4,A,3326.507504,N,11737.610714,W,36.5,312.9,230510,,,A*45
$GPRMC,015535.4,A,3326.530777,N,11737.637732,W,40.7,314.2,230510,,,A*4F
$GPRMC,015538.4,A,3326.557185,N,11737.670486,W,48.1,313.7,230510,,,A*4B
$GPRMC,015541.4,A,3326.586741,N,11737.706621,W,49.9,314.5,230510,,,A*44
$GPRMC,015544.4,A,3326.611702,N,11737.738498,W,41.8,315.2,230510,,,A*49
$GPRMC,015547.4,A,3326.631761,N,11737.760736,W,31.2,316.2,230510,,,A*49
$GPRMC,015550.4,A,3326.644908,N,11737.778195,W,25.3,313.2,230510,,,A*4B
$GPRMC,015553.4,A,3326.660248,N,11737.797824,W,29.7,312.8,230510,,,A*40
$GPRMC,015556.4,A,3326.678653,N,11737.822179,W,34.5,313.5,230510,,,A*40
$GPRMC,015559.4,A,3326.699346,N,11737.848469,W,36.7,314.1,230510,,,A*4A
$GPRMC,015602.4,A,3326.719952,N,11737.874983,W,35.8,312.2,230510,,,A*4E
$GPRMC,015605.4,A,3326.739558,N,11737.901746,W,36.0,310.3,230510,,,A*41
$GPRMC,015608.4,A,3326.757337,N,11737.927968,W,32.9,308.0,230510,,,A*4A
$GPRMC,015611.4,A,3326.771302,N,11737.952614,W,28.4,305.3,230510,,,A*4E
$GPRMC,015614.4,A,3326.782884,N,11737.975490,W,26.2,302.5,230510,,,A*40
$GPRMC,015617.4,A,3326.795724,N,11737.998080,W,27.6,302.2,230510,,,A*44
$GPRMC,015620.4,A,3326.808576,N,11738.021591,W,29.3,301.1,230510,,,A*44
$GPRMC,015623.4,A,3326.821303,N,11738.046837,W,29.1,301.3,230510,,,A*48
$GPRMC,015626.4,A,3326.833377,N,11738.072143,W,29.5,300.0,230510,,,A*46
$GPRMC,015629.4,A,3326.846770,N,11738.099101,W,32.2,300.8,230510,,,A*4E
$GPRMC,015632.4,A,3326.860395,N,11738.128629,W,34.4,299.7,230510,,,A*47
$GPRMC,015635.4,A,3326.873407,N,11738.156382,W,31.5,300.3,230510,,,A*42
$GPRMC,015638.4,A,3326.888482,N,11738.183112,W,32.3,302.5,230510,,,A*44
$GPRMC,015641.4,A,3326.902267,N,11738.209859,W,31.5,302.2,230510,,,A*41
$GPRMC,015644.4,A,3326.917444,N,11738.235968,W,31.5,303.8,230510,,,A*40
$GPRMC,015647.4,A,3326.932074,N,11738.260435,W,30.1,306.2,230510,,,A*4C
$GPRMC,015650.4,A,3326.947595,N,11738.283547,W,29.3,308.7,230510,,,A*4A
$GPRMC,015653.4,A,3326.964385,N,11738.302834,W,26.2,311.5,230510,,,A*4A
$GPRMC,015656.4,A,3326.977058,N,11738.321094,W,23.4,310.7,230510,,,A*4D
$GPRMC,015659.4,A,3326.990899,N,11738.339586,W,25.2,311.7,230510,,,A*40
$GPRMC,015702.4,A,3327.006815,N,11738.359342,W,28.5,312.0,230510,,,A*4A
$GPRMC,015705.4,A,3327.022646,N,11738.383371,W,31.1,310.2,230510,,,A*48
$GPRMC,015708.4,A,3327.038502,N,11738.407416,W,31.4,309.1,230510,,,A*4E
$GPRMC,015711.4,A,3327.055399,N,11738.432020,W,32.0,310.2,230510,,,A*42
$GPRMC,015714.4,A,3327.073302,N,11738.456506,W,31.6,310.8,230510,,,A*4D
$GPRMC,015717.4,A,3327.089432,N,11738.481296,W,31.3,309.2,230510,,,A*4C
$GPRMC,015720.4,A,3327.106598,N,11738.504915,W,31.5,309.7,230510,,,A*40
$GPRMC,015723.4,A,3327.120581,N,11738.528802,W,30.0,307.1,230510,,,A*4A
$GPRMC,015726.4,A,3327.135960,N,11738.552958,W,30.6,306.8,230510,,,A*45
$GPRMC,015729.4,A,3327.149472,N,11738.577012,W,29.5,305.5,230510,,,A*4A
$GPRMC,015732.4,A,3327.164765,N,11738.600531,W,31.1,305.8,230510,,,A*4D
$GPRMC,015735.4,A,3327.178637,N,11738.627300,W,32.0,302.8,230510,,,A*45
$GPRMC,015738.4,A,3327.192425,N,11738.656803,W,32.6,300.8,230510,,,A*47
$GPRMC,015741.4,A,3327.205564,N,11738.685101,W,32.3,300.0,230510,,,A*48
$GPRMC,015744.4,A,3327.217255,N,11738.709638,W,29.4,300.3,230510,,,A*4D
$GPRMC,015747.4,A,3327.227644,N,11738.733646,W,27.5,298.5,230510,,,A*40
$GPRMC,015750.4,A,3327.237906,N,11738.757021,W,27.3,297.9,230510,,,A*4E
$GPRMC,015753.4,A,3327.246542,N,11738.779055,W,24.7,296.7,230510,,,A*40
$GPRMC,015756.4,A,3327.255890,N,11738.799443,W,22.0,297.5,230510,,,A*4A
$GPRMC,015759.4,A,3327.264361,N,11738.817806,W,21.0,297.9,230510,,,A*49
$GPRMC,015802.4,A,3327.271890,N,11738.836983,W,23.1,296.7,230510,,,A*4A
$GPRMC,015805.4,A,3327.281801,N,11738.860981,W,27.9,296.1,230510,,,A*41
$GPRMC,015808.4,A,3327.293819,N,11738.888949,W,32.2,297.4,230510,,,A*4F
$GPRMC,015811.4,A,3327.307270,N,11738.920611,W,36.8,297.2,230510,,,A*47
$GPRMC,015814.4,A,3327.322270,N,11738.955478,W,40.5,297.1,230510,,,A*45
$GPRMC,015817.4,A,3327.339518,N,11738.994575,W,44.0,297.2,230510,,,A*46
$GPRMC,015820.4,A,3327.357064,N,11739.036257,W,45.4,296.4,230510,,,A*41
$GPRMC,015823.4,A,3327.375010,N,11739.075789,W,45.9,297.6,230510,,,A*4E
$GPRMC,015826.4,A,3327.394045,N,11739.116145,W,47.5,299.3,230510,,,A*43
$GPRMC,015829.4,A,3327.415368,N,11739.157100,W,48.4,301.6,230510,,,A*41
$GPRMC,015832.4,A,3327.437902,N,11739.195538,W,45.9,303.8,230510,,,A*40
$GPRMC,015835.4,A,3327.460133,N,11739.233923,W,48.9,305.2,230510,,,A*47
$GPRMC,015838.4,A,3327.485991,N,11739.276256,W,53.8,305.1,230510,,,A*41
$GPRMC,015841.4,A,3327.513345,N,11739.322538,W,57.4,305.5,230510,,,A*41
$GPRMC,015844.4,A,3327.542363,N,11739.369514,W,59.3,305.8,230510,,,A*41
$GPRMC,015847.4,A,3327.570401,N,11739.419757,W,62.3,303.8,230510,,,A*4B
$GPRMC,015850.4,A,3327.597570,N,11739.476805,W,65.4,300.1,230510,,,A*48
$GPRMC,015853.4,A,3327.623761,N,11739.536099,W,67.8,297.6,230510,,,A*4B
$GPRMC,015856.4,A,3327.649598,N,11739.597436,W,69.3,296.7,230510,,,A*49
$GPRMC,015859.4,A,3327.678875,N,11739.657735,W,69.6,300.7,230510,,,A*4E
$GPRMC,015902.4,A,3327.714541,N,11739.714199,W,69.0,306.6,230510,,,A*47
$GPRMC,015905.4,A,3327.752170,N,11739.766295,W,68.1,309.1,230510,,,A*46
$GPRMC,015908.4,A,3327.789098,N,11739.818881,W,68.4,309.4,230510,,,A*43
$GPRMC,015911.4,A,3327.827171,N,11739.869688,W,66.9,309.9,230510,,,A*49
$GPRMC,015914.4,A,3327.859921,N,11739.919104,W,63.3,309.4,230510,,,A*4F
$GPRMC,015917.4,A,3327.894969,N,11739.966983,W,64.1,310.2,230510,,,A*45
$GPRMC,015920.4,A,3327.930294,N,11740.016063,W,64.5,309.8,230510,,,A*46
$GPRMC,015923.4,A,3327.964333,N,11740.064266,W,62.2,310.2,230510,,,A*49
$GPRMC,015926.4,A,3327.994796,N,11740.112342,W,60.0,307.5,230510,,,A*4E
$GPRMC,015929.4,A,3328.021004,N,11740.162640,W,61.0,301.8,230510,,,A*4F
$GPRMC,015932.4,A,3328.043426,N,11740.216892,W,60.3,297.0,230510,,,A*40
$GPRMC,015935.4,A,3328.065974,N,11740.270549,W,61.2,297.8,230510,,,A*4A
$GPRMC,015938.4,A,3328.094646,N,11740.321720,W,60.2,303.9,230510,,,A*43
$GPRMC,015941.4,A,3328.126657,N,11740.366596,W,58.0,310.9,230510,,,A*42
$GPRMC,015944.4,A,3328.162461,N,11740.405396,W,58.1,318.4,230510,,,A*40
$GPRMC,015947.4,A,3328.203368,N,11740.439754,W,59.0,323.8,230510,,,A*48
$GPRMC,015950.4,A,3328.250397,N,11740.465771,W,58.6,332.7,230510,,,A*4E
$GPRMC,015953.4,A,3328.307947,N,11740.477340,W,60.4,346.3,230510,,,A*42
$GPRMC,015956.4,A,3328.364371,N,11740.483926,W,62.7,353.1,230510,,,A*4B
$GPRMC,015959.4,A,3328.429990,N,11740.475374,W,70.5,3.4,230510,,,A*49
$GPRMC,020002.4,A,3328.490132,N,11740.465128,W,71.8,8.9,230510,,,A*4A
$GPRMC,020005.4,A,3328.548573,N,11740.447137,W,71.4,16.8,230510,,,A*74
$GPRMC,020008.4,A,3328.604639,N,11740.420481,W,71.5,23.6,230510,,,A*7F
$GPRMC,020011.4,A,3328.656007,N,11740.389310,W,69.1,29.0,230510,,,A*71
$GPRMC,020014.4,A,3328.703525,N,11740.350097,W,68.9,34.1,230510,,,A*7C
$GPRMC,020017.4,A,3328.751237,N,11740.310831,W,68.8,34.9,230510,,,A*75
$GPRMC,020020.4,A,3328.797166,N,11740.270330,W,68.5,35.9,230510,,,A*7D
$GPRMC,020023.4,A,3328.843912,N,11740.230404,W,69.2,35.7,230510,,,A*7F
$GPRMC,020026.4,A,3328.890888,N,11740.189579,W,69.8,35.9,230510,,,A*78
$GPRMC,020029.4,A,3328.938603,N,11740.148421,W,70.7,35.9,230510,,,A*7F
$GPRMC,020032.4,A,3328.986386,N,11740.107472,W,70.7,35.8,230510,,,A*74
$GPRMC,020035.4,A,3329.034923,N,11740.065371,W,71.4,36.0,230510,,,A*7F
$GPRMC,020038.4,A,3329.081626,N,11740.023333,W,70.6,36.8,230510,,,A*79
$GPRMC,020041.4,A,3329.128673,N,11739.984206,W,69.7,34.6,230510,,,A*7D
$GPRMC,020044.4,A,3329.179837,N,11739.945709,W,69.8,32.4,230510,,,A*7E
$GPRMC,020047.4,A,3329.229362,N,11739.909114,W,69.5,31.9,230510,,,A*71
$GPRMC,020050.4,A,3329.277673,N,11739.872873,W,68.8,32.2,230510,,,A*78
$GPRMC,020053.4,A,3329.328112,N,11739.835037,W,70.2,32.5,230510,,,A*7F
$GPRMC,020056.4,A,3329.376595,N,11739.796683,W,70.4,33.2,230510,,,A*75
$GPRMC,020059.4,A,3329.426210,N,11739.758191,W,70.6,33.0,230510,,,A*74
$GPRMC,020102.4,A,3329.476316,N,11739.720232,W,71.1,32.4,230510,,,A*7F
$GPRMC,020105.4,A,3329.527724,N,11739.680809,W,71.4,32.3,230510,,,A*73
$GPRMC,020108.4,A,3329.576242,N,11739.644962,W,68.4,31.2,230510,,,A*71
$GPRMC,020111.4,A,3329.624075,N,11739.615252,W,65.7,27.6,230510,,,A*7A
$GPRMC,020114.4,A,3329.672600,N,11739.586090,W,65.7,25.4,230510,,,A*7D
$GPRMC,020117.4,A,3329.723794,N,11739.561227,W,66.4,21.7,230510,,,A*77
$GPRMC,020120.4,A,3329.778092,N,11739.539920,W,67.1,18.1,230510,,,A*75
$GPRMC,020123.4,A,3329.825715,N,11739.524778,W,60.9,14.8,230510,,,A*7C
$GPRMC,020126.4,A,3329.872816,N,11739.513929,W,59.0,10.7,230510,,,A*71
$GPRMC,020129.4,A,3329.923606,N,11739.505359,W,61.6,7.3,230510,,,A*41
$GPRMC,020132.4,A,3329.978964,N,11739.498805,W,65.3,4.6,230510,,,A*4E
$GPRMC,020135.4,A,3330.034051,N,11739.495047,W,66.1,2.7,230510,,,A*4A
$GPRMC,020138.4,A,3330.089275,N,11739.496146,W,66.9,358.7,230510,,,A*42
$GPRMC,020141.4,A,3330.144884,N,11739.502467,W,68.1,354.1,230510,,,A*4E
$GPRMC,020144.4,A,3330.202296,N,11739.510928,W,69.1,351.3,230510,,,A*40
$GPRMC,020147.4,A,3330.258567,N,11739.524516,W,69.4,348.0,230510,,,A*4D
$GPRMC,020150.4,A,3330.316364,N,11739.543310,W,70.1,344.2,230510,,,A*47
$GPRMC,020153.4,A,3330.371723,N,11739.565141,W,69.6,341.0,230510,,,A*48
$GPRMC,020156.4,A,3330.424592,N,11739.589248,W,68.2,339.9,230510,,,A*49
$GPRMC,020159.4,A,3330.478239,N,11739.612550,W,67.7,340.0,230510,,,A*4B
$GPRMC,020202.4,A,3330.531890,N,11739.636372,W,68.0,339.8,230510,,,A*4D
$GPRMC,020205.4,A,3330.583637,N,11739.659151,W,65.2,339.7,230510,,,A*4A
$GPRMC,020208.4,A,3330.634688,N,11739.681044,W,64.7,340.2,230510,,,A*43
$GPRMC,020211.4,A,3330.686401,N,11739.702868,W,66.1,340.4,230510,,,A*4F
$GPRMC,020214.4,A,3330.736047,N,11739.723458,W,65.0,340.6,230510,,,A*4A
$GPRMC,020217.4,A,3330.785698,N,11739.745203,W,64.9,339.8,230510,,,A*45
$GPRMC,020220.4,A,3330.837968,N,11739.766600,W,65.7,340.4,230510,,,A*4C
$GPRMC,020223.4,A,3330.888783,N,11739.788660,W,65.7,340.1,230510,,,A*43
$GPRMC,020226.4,A,3330.940795,N,11739.809782,W,65.4,340.8,230510,,,A*45
$GPRMC,020229.4,A,3330.991917,N,11739.832360,W,63.9,340.4,230510,,,A*45
$GPRMC,020232.4,A,3331.041485,N,11739.854482,W,63.7,340.1,230510,,,A*4C
$GPRMC,020235.4,A,3331.093219,N,11739.874769,W,64.3,340.6,230510,,,A*47
$GPRMC,020238.4,A,3331.145130,N,11739.896457,W,65.5,340.4,230510,,,A*4F
$GPRMC,020241.4,A,3331.197475,N,11739.918483,W,66.6,340.2,230510,,,A*42
$GPRMC,020244.4,A,3331.249915,N,11739.939996,W,66.8,341.0,230510,,,A*4B
$GPRMC,020247.4,A,3331.302756,N,11739.962048,W,67.3,340.3,230510,,,A*43
$GPRMC,020250.4,A,3331.354595,N,11739.986250,W,67.5,338.8,230510,,,A*48
$GPRMC,020253.4,A,3331.409005,N,11740.009914,W,69.6,339.7,230510,,,A*40
$GPRMC,020256.4,A,3331.463897,N,11740.034628,W,70.2,339.6,230510,,,A*49
$GPRMC,020259.4,A,3331.517713,N,11740.061931,W,69.8,336.0,230510,,,A*4B
$GPRMC,020302.4,A,3331.567938,N,11740.093619,W,68.5,331.9,230510,,,A*4E
$GPRMC,020305.4,A,3331.609800,N,11740.130601,W,62.0,325.1,230510,,,A*4B
$GPRMC,020308.4,A,3331.646654,N,11740.170485,W,60.7,318.1,230510,,,A*43
$GPRMC,020311.4,A,3331.682215,N,11740.215785,W,63.9,313.5,230510,,,A*43
$GPRMC,020314.4,A,3331.717147,N,11740.268092,W,69.3,309.8,230510,,,A*42
$GPRMC,020317.4,A,3331.753517,N,11740.323217,W,68.8,308.5,230510,,,A*47
$GPRMC,020320.4,A,3331.791163,N,11740.375107,W,67.9,312.7,230510,,,A*4C
$GPRMC,020323.4,A,3331.833463,N,11740.419926,W,65.9,319.1,230510,,,A*44
$GPRMC,020326.4,A,3331.880802,N,11740.455208,W,63.8,326.5,230510,,,A*42
$GPRMC,020329.4,A,3331.940036,N,11740.474591,W,65.5,341.5,230510,,,A*41
$GPRMC,020332.4,A,3331.991808,N,11740.487311,W,62.2,350.9,230510,,,A*4C
$GPRMC,020335.4,A,3332.042861,N,11740.490192,W,60.6,358.7,230510,,,A*4F
$GPRMC,020338.4,A,3332.095239,N,11740.488862,W,62.3,1.4,230510,,,A*4B
$GPRMC,020341.4,A,3332.147885,N,11740.485666,W,63.6,2.7,230510,,,A*45
$GPRMC,020344.4,A,3332.201810,N,11740.480733,W,65.3,4.7,230510,,,A*4C
$GPRMC,020347.4,A,3332.255225,N,11740.472142,W,64.3,7.6,230510,,,A*4C
$GPRMC,020350.4,A,3332.307894,N,11740.463044,W,64.3,8.7,230510,,,A*45
$GPRMC,020353.4,A,3332.359814,N,11740.451647,W,64.2,10.6,230510,,,A*78
$GPRMC,020356.4,A,3332.413628,N,11740.439800,W,66.1,10.5,230510,,,A*74
$GPRMC,020359.4,A,3332.470642,N,11740.428311,W,68.9,9.7,230510,,,A*45
$GPRMC,020402.4,A,3332.530001,N,11740.419214,W,70.9,6.1,230510,,,A*4E
$GPRMC,020405.4,A,3332.587239,N,11740.412868,W,69.5,5.5,230510,,,A*45
$GPRMC,020408.4,A,3332.643078,N,11740.403445,W,68.0,8.5,230510,,,A*4E
$GPRMC,020411.4,A,3332.700751,N,11740.391347,W,69.5,9.4,230510,,,A*41
$GPRMC,020414.4,A,3332.759188,N,11740.380775,W,70.7,8.1,230510,,,A*41
$GPRMC,020417.4,A,3332.819390,N,11740.371785,W,72.4,6.6,230510,,,A*4B
$GPRMC,020420.4,A,3332.881214,N,11740.366448,W,73.7,3.8,230510,,,A*4E
$GPRMC,020423.4,A,3332.942872,N,11740.365044,W,73.8,1.5,230510,,,A*42
$GPRMC,020426.4,A,3333.007292,N,11740.363258,W,76.2,0.1,230510,,,A*49
$GPRMC,020429.4,A,3333.071411,N,11740.365142,W,76.1,358.9,230510,,,A*41
$GPRMC,020432.4,A,3333.134527,N,11740.367223,W,75.9,358.9,230510,,,A*42
$GPRMC,020435.4,A,3333.197652,N,11740.368692,W,75.7,358.7,230510,,,A*4C
$GPRMC,020438.4,A,3333.260331,N,11740.369951,W,74.3,359.3,230510,,,A*4B
$GPRMC,020441.4,A,3333.321120,N,11740.370322,W,72.4,359.8,230510,,,A*4F
$GPRMC,020444.4,A,3333.380425,N,11740.371299,W,70.6,359.4,230510,,,A*4D
$GPRMC,020447.4,A,3333.438005,N,11740.372201,W,68.0,359.3,230510,,,A*46
$GPRMC,020450.4,A,3333.491304,N,11740.373050,W,65.3,360.0,230510,,,A*41
$GPRMC,020453.4,A,3333.546565,N,11740.371690,W,67.6,0.8,230510,,,A*4A
$GPRMC,020456.4,A,3333.607406,N,11740.368866,W,72.1,2.0,230510,,,A*4B
$GPRMC,020459.4,A,3333.667550,N,11740.366203,W,71.4,2.5,230510,,,A*44
$GPRMC,020502.4,A,3333.724929,N,11740.361463,W,69.7,4.7,230510,,,A*46
$GPRMC,020505.4,A,3333.783420,N,11740.354401,W,70.2,5.6,230510,,,A*47
$GPRMC,020508.4,A,3333.841285,N,11740.345943,W,69.6,6.8,230510,,,A*48
$GPRMC,020511.4,A,3333.897498,N,11740.338764,W,68.1,6.3,230510,,,A*4D
$GPRMC,020514.4,A,3333.953583,N,11740.331289,W,67.9,6.4,230510,,,A*45
$GPRMC,020517.4,A,3334.009344,N,11740.323683,W,67.3,5.9,230510,,,A*43
$GPRMC,020520.4,A,3334.064695,N,11740.314554,W,66.5,6.4,230510,,,A*41
$GPRMC,020523.4,A,3334.117741,N,11740.309267,W,63.8,4.7,230510,,,A*4D
$GPRMC,020526.4,A,3334.166455,N,11740.307108,W,57.5,3.6,230510,,,A*40
$GPRMC,020529.4,A,3334.207209,N,11740.304925,W,49.4,2.6,230510,,,A*4F
$GPRMC,020532.4,A,3334.247271,N,11740.303448,W,48.0,1.4,230510,,,A*4B
$GPRMC,020535.4,A,3334.287789,N,11740.302185,W,48.9,2.2,230510,,,A*4B
$GPRMC,020538.4,A,3334.330056,N,11740.300997,W,50.8,0.9,230510,,,A*46
$GPRMC,020541.4,A,3334.375912,N,11740.300325,W,52.9,0.8,230510,,,A*41
$GPRMC,020544.4,A,3334.421251,N,11740.299927,W,54.5,359.9,230510,,,A*43
$GPRMC,020547.4,A,3334.467748,N,11740.301464,W,57.5,359.3,230510,,,A*4C
$GPRMC,020550.4,A,3334.517996,N,11740.301727,W,60.9,0.4,230510,,,A*45
$GPRMC,020553.4,A,3334.571548,N,11740.300692,W,63.5,0.0,230510,,,A*4C
$GPRMC,020556.4,A,3334.623196,N,11740.301282,W,61.3,0.1,230510,,,A*4B
$GPRMC,020559.4,A,3334.673563,N,11740.300684,W,60.4,0.1,230510,,,A*4A
$GPRMC,020602.4,A,3334.723545,N,11740.300766,W,60.2,359.4,230510,,,A*46
$GPRMC,020605.4,A,3334.774828,N,11740.300793,W,60.6,0.3,230510,,,A*43
$GPRMC,020608.4,A,3334.825221,N,11740.301112,W,60.2,0.3,230510,,,A*4C
$GPRMC,020611.4,A,3334.875684,N,11740.300175,W,59.9,0.8,230510,,,A*40
$GPRMC,020614.4,A,3334.926650,N,11740.298695,W,61.2,0.7,230510,,,A*4D
$GPRMC,020617.4,A,3334.978230,N,11740.298060,W,61.4,0.6,230510,,,A*4C
$GPRMC,020620.4,A,3335.029847,N,11740.296265,W,60.9,1.4,230510,,,A*48
$GPRMC,020623.4,A,3335.080774,N,11740.294973,W,62.0,1.0,230510,,,A*46
$GPRMC,020626.4,A,3335.132676,N,11740.295335,W,62.4,0.1,230510,,,A*45
$GPRMC,020629.4,A,3335.187733,N,11740.294660,W,64.9,0.9,230510,,,A*43
$GPRMC,020632.4,A,3335.243475,N,11740.294873,W,65.9,0.4,230510,,,A*43
$GPRMC,020635.4,A,3335.299866,N,11740.294024,W,66.7,0.7,230510,,,A*49
$GPRMC,020638.4,A,3335.355233,N,11740.292673,W,66.3,1.1,230510,,,A*4E
$GPRMC,020641.4,A,3335.410370,N,11740.291681,W,66.2,0.4,230510,,,A*4B
$GPRMC,020644.4,A,3335.466508,N,11740.293869,W,68.4,357.0,230510,,,A*41
$GPRMC,020647.4,A,3335.524353,N,11740.302054,W,70.1,351.3,230510,,,A*4B
$GPRMC,020650.4,A,3335.578051,N,11740.320214,W,68.5,344.4,230510,,,A*4D
$GPRMC,020653.4,A,3335.631639,N,11740.342699,W,68.3,339.0,230510,,,A*45
$GPRMC,020656.4,A,3335.681919,N,11740.373213,W,68.2,332.4,230510,,,A*4C
$GPRMC,020659.4,A,3335.728916,N,11740.409228,W,68.0,327.1,230510,,,A*4F
$GPRMC,020702.4,A,3335.772652,N,11740.449027,W,66.3,323.1,230510,,,A*40
$GPRMC,020705.4,A,3335.813320,N,11740.490752,W,65.2,319.2,230510,,,A*46
$GPRMC,020708.4,A,3335.851280,N,11740.535457,W,63.9,316.6,230510,,,A*48
$GPRMC,020711.4,A,3335.886417,N,11740.582625,W,63.4,312.2,230510,,,A*44
$GPRMC,020714.4,A,3335.917071,N,11740.632525,W,62.0,306.5,230510,,,A*40
$GPRMC,020717.4,A,3335.941266,N,11740.685694,W,59.2,300.4,230510,,,A*4C
$GPRMC,020720.4,A,3335.963802,N,11740.737710,W,58.6,296.9,230510,,,A*43
$GPRMC,020723.4,A,3335.984171,N,11740.791361,W,59.4,295.0,230510,,,A*43
$GPRMC,020726.4,A,3336.006643,N,11740.845958,W,60.1,295.4,230510,,,A*4D
$GPRMC,020729.4,A,3336.026382,N,11740.899835,W,60.5,295.0,230510,,,A*43
$GPRMC,020732.4,A,3336.048196,N,11740.954907,W,62.6,295.2,230510,,,A*45
$GPRMC,020735.4,A,3336.071193,N,11741.012502,W,63.7,295.2,230510,,,A*4E
$GPRMC,020738.4,A,3336.092180,N,11741.070407,W,62.8,294.7,230510,,,A*46
$GPRMC,020741.4,A,3336.113020,N,11741.128251,W,63.9,294.3,230510,,,A*46
$GPRMC,020744.4,A,3336.137999,N,11741.186999,W,64.3,296.1,230510,,,A*48
$GPRMC,020747.4,A,3336.163801,N,11741.241713,W,63.3,299.1,230510,,,A*46
$GPRMC,020750.4,A,3336.193116,N,11741.296282,W,65.2,303.0,230510,,,A*43
$GPRMC,020753.4,A,3336.224392,N,11741.350712,W,66.3,305.8,230510,,,A*4A
$GPRMC,020756.4,A,3336.259139,N,11741.402587,W,66.5,308.3,230510,,,A*48
$GPRMC,020759.4,A,3336.293766,N,11741.452965,W,65.1,308.2,230510,,,A*4E
$GPRMC,020802.4,A,3336.327469,N,11741.504765,W,65.9,307.0,230510,,,A*44
$GPRMC,020805.4,A,3336.358742,N,11741.558690,W,65.6,304.5,230510,,,A*4A
$GPRMC,020808.4,A,3336.388353,N,11741.612404,W,64.8,303.8,230510,,,A*49
$GPRMC,020811.4,A,3336.414930,N,11741.669441,W,65.8,300.2,230510,,,A*49
$GPRMC,020814.4,A,3336.441268,N,11741.727067,W,65.5,298.2,230510,,,A*4C
$GPRMC,020817.4,A,3336.466101,N,11741.785179,W,65.7,297.5,230510,,,A*4A
$GPRMC,020820.4,A,3336.493948,N,11741.842545,W,67.1,298.5,230510,,,A*45
$GPRMC,020823.4,A,3336.519768,N,11741.902555,W,67.6,297.4,230510,,,A*44
$GPRMC,020826.4,A,3336.545128,N,11741.961249,W,65.3,297.3,230510,,,A*45
$GPRMC,020829.4,A,3336.567735,N,11742.014840,W,58.0,297.6,230510,,,A*43
$GPRMC,020832.4,A,3336.589717,N,11742.063748,W,54.9,299.5,230510,,,A*46
$GPRMC,020835.4,A,3336.614032,N,11742.110032,W,55.0,301.7,230510,,,A*43
$GPRMC,020838.4,A,3336.640624,N,11742.155589,W,56.0,305.7,230510,,,A*4D
$GPRMC,020841.4,A,3336.672729,N,11742.199245,W,59.7,309.6,230510,,,A*4C
$GPRMC,020844.4,A,3336.708260,N,11742.243869,W,61.9,313.2,230510,,,A*47
$GPRMC,020847.4,A,3336.746718,N,11742.287193,W,64.0,315.5,230510,,,A*4D
$GPRMC,020850.4,A,3336.785402,N,11742.333051,W,65.6,315.2,230510,,,A*4D
$GPRMC,020853.4,A,3336.823557,N,11742.379081,W,65.5,315.0,230510,,,A*4E
$GPRMC,020856.4,A,3336.862819,N,11742.424877,W,64.9,315.4,230510,,,A*4E
$GPRMC,020859.4,A,3336.901102,N,11742.469616,W,63.8,315.7,230510,,,A*43
$GPRMC,020902.4,A,3336.938680,N,11742.513892,W,63.8,315.4,230510,,,A*46
$GPRMC,020905.4,A,3336.976703,N,11742.559455,W,64.1,315.4,230510,,,A*46
$GPRMC,020908.4,A,3337.022526,N,11742.598861,W,64.5,321.0,230510,,,A*46
$GPRMC,020911.4,A,3337.064785,N,11742.638649,W,64.8,322.3,230510,,,A*47
$GPRMC,020914.4,A,3337.108246,N,11742.677308,W,64.3,322.6,230510,,,A*46
$GPRMC,020917.4,A,3337.152104,N,11742.716251,W,65.2,322.6,230510,,,A*44
$GPRMC,020920.4,A,3337.195854,N,11742.756446,W,66.7,322.5,230510,,,A*46
$GPRMC,020923.4,A,3337.240365,N,11742.796023,W,67.0,323.1,230510,,,A*4F
$GPRMC,020926.4,A,3337.284914,N,11742.836598,W,67.5,323.1,230510,,,A*4B
$GPRMC,020929.4,A,3337.332400,N,11742.877892,W,69.3,323.1,230510,,,A*4A
$GPRMC,020932.4,A,3337.376377,N,11742.919586,W,66.5,322.8,230510,,,A*47
$GPRMC,020935.4,A,3337.420658,N,11742.957710,W,63.5,323.0,230510,,,A*47
$GPRMC,020938.4,A,3337.461192,N,11742.997551,W,63.7,321.2,230510,,,A*47
$GPRMC,020941.4,A,3337.503367,N,11743.038102,W,65.6,321.4,230510,,,A*4A
$GPRMC,020944.4,A,3337.544788,N,11743.078607,W,65.3,321.9,230510,,,A*47
$GPRMC,020947.4,A,3337.591532,N,11743.120011,W,71.6,323.1,230510,,,A*48
$GPRMC,020950.4,A,3337.642510,N,11743.160466,W,72.4,324.5,230510,,,A*41
$GPRMC,020953.4,A,3337.690857,N,11743.201539,W,70.5,325.0,230510,,,A*4B
$GPRMC,020956.4,A,3337.730486,N,11743.243094,W,64.0,323.2,230510,,,A*45
$GPRMC,020959.4,A,3337.770461,N,11743.280911,W,60.7,323.3,230510,,,A*4E
$GPRMC,021002.4,A,3337.809069,N,11743.318156,W,60.2,320.0,230510,,,A*4B
$GPRMC,021005.4,A,3337.847629,N,11743.360280,W,62.5,316.9,230510,,,A*4A
$GPRMC,021008.4,A,3337.884226,N,11743.403878,W,62.8,315.5,230510,,,A*4E
$GPRMC,021011.4,A,3337.923262,N,11743.447274,W,64.6,316.8,230510,,,A*4A
$GPRMC,021014.4,A,3337.965754,N,11743.494887,W,70.9,316.6,230510,,,A*41
$GPRMC,021017.4,A,3338.010046,N,11743.542215,W,71.9,319.2,230510,,,A*43
$GPRMC,021020.4,A,3338.056941,N,11743.584900,W,70.5,322.5,230510,,,A*4C
$GPRMC,021023.4,A,3338.106072,N,11743.626406,W,72.3,325.0,230510,,,A*44
$GPRMC,021026.4,A,3338.156283,N,11743.665649,W,71.4,326.9,230510,,,A*48
$GPRMC,021029.4,A,3338.207545,N,11743.704572,W,72.1,326.9,230510,,,A*46
$GPRMC,021032.4,A,3338.257134,N,11743.743951,W,71.3,326.7,230510,,,A*4A
$GPRMC,021035.4,A,3338.308543,N,11743.782361,W,72.3,326.9,230510,,,A*4B
$GPRMC,021038.4,A,3338.360137,N,11743.821939,W,73.5,327.4,230510,,,A*45
$GPRMC,021041.4,A,3338.413615,N,11743.860857,W,75.4,329.1,230510,,,A*4F
$GPRMC,021044.4,A,3338.468003,N,11743.899208,W,75.6,329.4,230510,,,A*46
$GPRMC,021047.4,A,3338.521971,N,11743.938566,W,75.6,329.4,230510,,,A*40
$GPRMC,021050.4,A,3338.575671,N,11743.976859,W,74.1,329.2,230510,,,A*43
$GPRMC,021053.4,A,3338.627197,N,11744.016823,W,74.0,325.0,230510,,,A*41
$GPRMC,021056.4,A,3338.669721,N,11744.068923,W,75.1,316.8,230510,,,A*45
$GPRMC,021059.4,A,3338.701682,N,11744.130994,W,73.8,305.2,230510,,,A*4A
