NMEA Sentence Code,UTC Time,Status,Latitude,Latitude Direction,Longitude,Longitude Direction,Speed (knots),Track Angle (degrees true),Date,MagneticVariation,Magnetic Variation Direction,[FAA Mode]-Optional,Checksum
$GPRMC,010443.6,A,3350.216467,N,11743.099669,W,67.6,176.2,220310,,,A*43
$GPRMC,010446.6,A,3350.159605,N,11743.092755,W,66.6,173.5,220310,,,A*4E
$GPRMC,010449.6,A,3350.105344,N,11743.083869,W,64.7,172.8,220310,,,A*47
$GPRMC,010452.6,A,3350.048594,N,11743.074124,W,66.2,172.4,220310,,,A*4D
$GPRMC,010455.6,A,3349.992786,N,11743.063438,W,66.0,171.7,220310,,,A*41
$GPRMC,010458.6,A,3349.940461,N,11743.055213,W,65.0,171.9,220310,,,A*4E
$GPRMC,010501.6,A,3349.888297,N,11743.047534,W,64.5,172.4,220310,,,A*42
$GPRMC,010504.6,A,3349.837584,N,11743.040359,W,63.1,171.8,220310,,,A*40
$GPRMC,010507.6,A,3349.787521,N,11743.031166,W,62.8,172.1,220310,,,A*42
$GPRMC,010510.6,A,3349.735961,N,11743.020006,W,63.2,172.5,220310,,,A*4D
$GPRMC,010513.6,A,3349.684331,N,11743.006935,W,62.7,173.1,220310,,,A*46
$GPRMC,010516.6,A,3349.631665,N,11742.997666,W,63.4,176.3,220310,,,A*45
$GPRMC,010519.6,A,3349.580270,N,11742.994203,W,63.3,178.0,220310,,,A*4D
$GPRMC,010522.6,A,3349.527737,N,11742.990719,W,64.3,178.7,220310,,,A*44
$GPRMC,010525.6,A,3349.473207,N,11742.990997,W,65.3,180.7,220310,,,A*4B
$GPRMC,010528.6,A,3349.417400,N,11742.995078,W,66.2,183.8,220310,,,A*46
$GPRMC,010531.6,A,3349.360429,N,11743.003703,W,65.6,186.4,220310,,,A*40
$GPRMC,010534.6,A,3349.304209,N,11743.013267,W,65.7,188.2,220310,,,A*4C
$GPRMC,010537.6,A,3349.248563,N,11743.026538,W,65.2,189.8,220310,,,A*48
$GPRMC,010540.6,A,3349.198514,N,11743.040793,W,64.9,191.7,220310,,,A*49
$GPRMC,010543.6,A,3349.144266,N,11743.055637,W,66.0,193.7,220310,,,A*4B
$GPRMC,010546.6,A,3349.090060,N,11743.074771,W,68.2,196.4,220310,,,A*48
$GPRMC,010549.6,A,3349.033868,N,11743.094401,W,69.0,198.4,220310,,,A*49
$GPRMC,010552.6,A,3348.978595,N,11743.121082,W,68.8,200.4,220310,,,A*40
$GPRMC,010555.6,A,3348.923906,N,11743.146768,W,69.1,201.7,220310,,,A*47
$GPRMC,010558.6,A,3348.870263,N,11743.173911,W,69.3,204.2,220310,,,A*41
$GPRMC,010601.6,A,3348.819785,N,11743.205209,W,69.1,207.6,220310,,,A*49
$GPRMC,010604.6,A,3348.768621,N,11743.239202,W,69.8,209.5,220310,,,A*4A
$GPRMC,010607.6,A,3348.719717,N,11743.274517,W,69.7,210.5,220310,,,A*46
$GPRMC,010610.6,A,3348.668760,N,11743.309597,W,70.0,210.5,220310,,,A*4B
$GPRMC,010613.6,A,3348.619269,N,11743.343709,W,69.7,209.6,220310,,,A*4D
$GPRMC,010616.6,A,3348.570253,N,11743.377409,W,68.9,209.1,220310,,,A*41
$GPRMC,010619.6,A,3348.520871,N,11743.411006,W,69.0,209.0,220310,,,A*44
$GPRMC,010622.6,A,3348.470690,N,11743.442824,W,68.5,207.1,220310,,,A*4C
$GPRMC,010625.6,A,3348.419728,N,11743.468957,W,67.9,202.3,220310,,,A*4F
$GPRMC,010628.6,A,3348.366413,N,11743.489437,W,68.9,198.2,220310,,,A*4C
$GPRMC,010631.6,A,3348.310059,N,11743.506545,W,70.0,194.8,220310,,,A*4B
$GPRMC,010634.6,A,3348.253327,N,11743.522772,W,70.0,195.1,220310,,,A*4A
$GPRMC,010637.6,A,3348.196851,N,11743.539534,W,70.6,194.6,220310,,,A*43
$GPRMC,010640.6,A,3348.138989,N,11743.558070,W,71.4,195.2,220310,,,A*47
$GPRMC,010643.6,A,3348.082229,N,11743.572982,W,70.1,194.8,220310,,,A*46
$GPRMC,010646.6,A,3348.026818,N,11743.590437,W,70.1,196.5,220310,,,A*45
$GPRMC,010649.6,A,3347.970742,N,11743.614128,W,70.5,201.2,220310,,,A*45
$GPRMC,010652.6,A,3347.919191,N,11743.646896,W,70.0,208.4,220310,,,A*49
$GPRMC,010655.6,A,3347.870181,N,11743.686882,W,69.4,214.9,220310,,,A*44
$GPRMC,010658.6,A,3347.828054,N,11743.731091,W,68.0,221.8,220310,,,A*48
$GPRMC,010701.6,A,3347.788642,N,11743.778807,W,67.7,227.9,220310,,,A*44
$GPRMC,010704.6,A,3347.757843,N,11743.827487,W,66.8,232.8,220310,,,A*46
$GPRMC,010707.6,A,3347.726046,N,11743.876181,W,65.9,233.0,220310,,,A*42
$GPRMC,010710.6,A,3347.693042,N,11743.928667,W,66.8,233.3,220310,,,A*4B
$GPRMC,010713.6,A,3347.659805,N,11743.980216,W,66.0,233.1,220310,,,A*4F
$GPRMC,010716.6,A,3347.626687,N,11744.033640,W,66.2,233.4,220310,,,A*40
$GPRMC,010719.6,A,3347.594747,N,11744.086451,W,65.4,233.3,220310,,,A*46
$GPRMC,010722.6,A,3347.560639,N,11744.140784,W,66.6,232.8,220310,,,A*46
$GPRMC,010725.6,A,3347.526860,N,11744.194144,W,66.7,233.2,220310,,,A*48
$GPRMC,010728.6,A,3347.493654,N,11744.247438,W,66.3,232.8,220310,,,A*4F
$GPRMC,010731.6,A,3347.458501,N,11744.300486,W,67.9,232.5,220310,,,A*42
$GPRMC,010734.6,A,3347.428120,N,11744.353780,W,66.6,234.1,220310,,,A*48
$GPRMC,010737.6,A,3347.396312,N,11744.405152,W,65.0,232.5,220310,,,A*40
$GPRMC,010740.6,A,3347.363018,N,11744.459686,W,66.7,233.2,220310,,,A*46
$GPRMC,010743.6,A,3347.330033,N,11744.513948,W,67.0,233.7,220310,,,A*4B
$GPRMC,010746.6,A,3347.297184,N,11744.567071,W,66.4,233.6,220310,,,A*4B
$GPRMC,010749.6,A,3347.264233,N,11744.620233,W,66.4,233.1,220310,,,A*44
$GPRMC,010752.6,A,3347.229843,N,11744.671807,W,66.1,230.9,220310,,,A*4D
$GPRMC,010755.6,A,3347.192535,N,11744.719282,W,66.6,226.4,220310,,,A*40
$GPRMC,010758.6,A,3347.150682,N,11744.765052,W,68.1,217.9,220310,,,A*4E
$GPRMC,010801.6,A,3347.104687,N,11744.804821,W,68.7,213.9,220310,,,A*4F
$GPRMC,010804.6,A,3347.053966,N,11744.839596,W,69.8,208.4,220310,,,A*4F
$GPRMC,010807.6,A,3347.000639,N,11744.865682,W,68.9,201.4,220310,,,A*49
$GPRMC,010810.6,A,3346.943859,N,11744.885561,W,69.9,195.3,220310,,,A*40
$GPRMC,010813.6,A,3346.886200,N,11744.898204,W,70.4,189.6,220310,,,A*48
$GPRMC,010816.6,A,3346.829551,N,11744.902950,W,68.4,183.8,220310,,,A*4E
$GPRMC,010819.6,A,3346.768895,N,11744.898915,W,71.6,176.5,220310,,,A*40
$GPRMC,010822.6,A,3346.710240,N,11744.886385,W,71.9,170.1,220310,,,A*44
$GPRMC,010825.6,A,3346.654061,N,11744.868189,W,70.6,164.0,220310,,,A*47
$GPRMC,010828.6,A,3346.601616,N,11744.842636,W,69.3,157.7,220310,,,A*4D
$GPRMC,010831.6,A,3346.548916,N,11744.810250,W,70.6,152.0,220310,,,A*48
$GPRMC,010834.6,A,3346.501753,N,11744.769909,W,70.7,144.6,220310,,,A*49
$GPRMC,010837.6,A,3346.455820,N,11744.724783,W,70.6,139.7,220310,,,A*4E
$GPRMC,010840.6,A,3346.416641,N,11744.674653,W,69.6,133.0,220310,,,A*4D
$GPRMC,010843.6,A,3346.382244,N,11744.619127,W,70.2,127.6,220310,,,A*45
$GPRMC,010846.6,A,3346.348547,N,11744.561341,W,70.2,126.4,220310,,,A*4F
$GPRMC,010849.6,A,3346.314735,N,11744.501168,W,70.1,125.8,220310,,,A*4D
$GPRMC,010852.6,A,3346.281886,N,11744.442456,W,70.5,125.4,220310,,,A*4B
$GPRMC,010855.6,A,3346.246746,N,11744.384567,W,71.4,125.8,220310,,,A*46
$GPRMC,010858.6,A,3346.210497,N,11744.325030,W,72.1,125.7,220310,,,A*42
$GPRMC,010901.6,A,3346.175241,N,11744.264652,W,73.0,125.3,220310,,,A*40
$GPRMC,010904.6,A,3346.139014,N,11744.205162,W,73.2,125.9,220310,,,A*44
$GPRMC,010907.6,A,3346.102727,N,11744.146638,W,71.7,126.8,220310,,,A*41
$GPRMC,010910.6,A,3346.063869,N,11744.093734,W,69.7,131.9,220310,,,A*4E
$GPRMC,010913.6,A,3346.019573,N,11744.048458,W,69.4,139.2,220310,,,A*49
$GPRMC,010916.6,A,3345.972628,N,11744.007989,W,69.0,144.5,220310,,,A*45
$GPRMC,010919.6,A,3345.917769,N,11743.978846,W,69.5,154.5,220310,,,A*4D
$GPRMC,010922.6,A,3345.863873,N,11743.952893,W,67.6,159.1,220310,,,A*47
$GPRMC,010925.6,A,3345.809778,N,11743.936970,W,66.8,165.7,220310,,,A*40
$GPRMC,010928.6,A,3345.752252,N,11743.929205,W,68.6,173.1,220310,,,A*47
$GPRMC,010931.6,A,3345.694676,N,11743.932925,W,67.6,182.7,220310,,,A*42
$GPRMC,010934.6,A,3345.638308,N,11743.939754,W,67.3,187.9,220310,,,A*40
$GPRMC,010937.6,A,3345.582484,N,11743.950767,W,68.2,189.1,220310,,,A*45
$GPRMC,010940.6,A,3345.525775,N,11743.962282,W,67.8,188.6,220310,,,A*49
$GPRMC,010943.6,A,3345.470748,N,11743.971458,W,66.7,186.7,220310,,,A*47
$GPRMC,010946.6,A,3345.413381,N,11743.973390,W,67.5,180.7,220310,,,A*42
$GPRMC,010949.6,A,3345.357462,N,11743.967725,W,67.7,173.9,220310,,,A*4F
$GPRMC,010952.6,A,3345.302302,N,11743.953638,W,67.4,168.1,220310,,,A*4F
$GPRMC,010955.6,A,3345.250057,N,11743.932969,W,67.1,161.6,220310,,,A*4A
$GPRMC,010958.6,A,3345.195504,N,11743.906315,W,68.3,158.0,220310,,,A*49
$GPRMC,011001.6,A,3345.149644,N,11743.869814,W,67.4,150.3,220310,,,A*4A
$GPRMC,011004.6,A,3345.108908,N,11743.821618,W,68.4,140.0,220310,,,A*4E
$GPRMC,011007.6,A,3345.068025,N,11743.773097,W,69.7,134.9,220310,,,A*4D
$GPRMC,011010.6,A,3345.030290,N,11743.719773,W,70.4,129.4,220310,,,A*41
$GPRMC,011013.6,A,3344.998951,N,11743.661262,W,70.8,123.4,220310,,,A*43
$GPRMC,011016.6,A,3344.968203,N,11743.599108,W,72.2,121.6,220310,,,A*46
$GPRMC,011019.6,A,3344.937815,N,11743.537235,W,71.3,121.6,220310,,,A*45
$GPRMC,011022.6,A,3344.905825,N,11743.477782,W,69.7,122.8,220310,,,A*43
$GPRMC,011025.6,A,3344.874054,N,11743.420060,W,69.1,124.3,220310,,,A*4F
$GPRMC,011028.6,A,3344.839599,N,11743.364524,W,69.4,128.5,220310,,,A*42
$GPRMC,011031.6,A,3344.801453,N,11743.312443,W,69.5,132.6,220310,,,A*4E
$GPRMC,011034.6,A,3344.758565,N,11743.262777,W,69.9,136.8,220310,,,A*48
$GPRMC,011037.6,A,3344.714241,N,11743.218045,W,70.6,139.8,220310,,,A*41
$GPRMC,011040.6,A,3344.665719,N,11743.181358,W,69.0,146.7,220310,,,A*4B
$GPRMC,011043.6,A,3344.614418,N,11743.147486,W,69.7,151.5,220310,,,A*41
$GPRMC,011046.6,A,3344.561274,N,11743.119804,W,68.3,155.9,220310,,,A*49
$GPRMC,011049.6,A,3344.505914,N,11743.097177,W,68.6,161.2,220310,,,A*4A
$GPRMC,011052.6,A,3344.449736,N,11743.079087,W,67.8,165.9,220310,,,A*47
$GPRMC,011055.6,A,3344.395396,N,11743.067505,W,66.5,171.3,220310,,,A*4B
$GPRMC,011058.6,A,3344.339820,N,11743.062231,W,66.1,175.8,220310,,,A*48
$GPRMC,011101.6,A,3344.283539,N,11743.061737,W,66.9,179.3,220310,,,A*4F
$GPRMC,011104.6,A,3344.228854,N,11743.064845,W,65.9,184.2,220310,,,A*42
$GPRMC,011107.6,A,3344.174978,N,11743.072703,W,66.9,186.3,220310,,,A*4E
$GPRMC,011110.6,A,3344.119090,N,11743.081117,W,66.7,186.9,220310,,,A*47
$GPRMC,011113.6,A,3344.064295,N,11743.089269,W,66.6,186.6,220310,,,A*44
$GPRMC,011116.6,A,3344.010100,N,11743.096470,W,65.6,186.7,220310,,,A*4F
$GPRMC,011119.6,A,3343.955400,N,11743.103654,W,66.2,186.5,220310,,,A*46
$GPRMC,011122.6,A,3343.900278,N,11743.111070,W,66.5,186.4,220310,,,A*42
$GPRMC,011125.6,A,3343.845483,N,11743.118586,W,66.3,186.8,220310,,,A*48
$GPRMC,011128.6,A,3343.789518,N,11743.126031,W,66.9,186.9,220310,,,A*46
$GPRMC,011131.6,A,3343.731697,N,11743.133254,W,67.6,187.6,220310,,,A*4C
$GPRMC,011134.6,A,3343.675167,N,11743.141496,W,68.4,187.3,220310,,,A*45
$GPRMC,011137.6,A,3343.617823,N,11743.149754,W,68.5,186.9,220310,,,A*44
$GPRMC,011140.6,A,3343.559385,N,11743.156839,W,70.0,186.8,220310,,,A*4D
$GPRMC,011143.6,A,3343.500934,N,11743.164795,W,69.2,186.6,220310,,,A*4E
$GPRMC,011146.6,A,3343.442708,N,11743.172474,W,68.3,187.3,220310,,,A*42
$GPRMC,011149.6,A,3343.386609,N,11743.183152,W,68.0,191.7,220310,,,A*4D
$GPRMC,011152.6,A,3343.331644,N,11743.198193,W,67.7,192.8,220310,,,A*41
$GPRMC,011155.6,A,3343.275994,N,11743.212669,W,67.7,191.3,220310,,,A*4E
$GPRMC,011158.6,A,3343.218912,N,11743.223794,W,69.2,187.9,220310,,,A*41
$GPRMC,011201.6,A,3343.160380,N,11743.232591,W,70.0,187.0,220310,,,A*47
$GPRMC,011204.6,A,3343.101254,N,11743.239792,W,70.8,186.3,220310,,,A*4D
$GPRMC,011207.6,A,3343.042203,N,11743.247530,W,70.9,185.8,220310,,,A*40
$GPRMC,011210.6,A,3342.982384,N,11743.255025,W,71.2,186.4,220310,,,A*4B
$GPRMC,011213.6,A,3342.924312,N,11743.261768,W,70.1,185.1,220310,,,A*46
$GPRMC,011216.6,A,3342.864434,N,11743.263566,W,71.5,180.9,220310,,,A*43
$GPRMC,011219.6,A,3342.803596,N,11743.257219,W,72.8,174.3,220310,,,A*43
$GPRMC,011222.6,A,3342.744066,N,11743.244131,W,73.0,169.1,220310,,,A*41
$GPRMC,011225.6,A,3342.685838,N,11743.224309,W,73.1,163.4,220310,,,A*48
$GPRMC,011228.6,A,3342.630481,N,11743.197605,W,71.9,158.4,220310,,,A*45
$GPRMC,011231.6,A,3342.577086,N,11743.165848,W,70.5,151.6,220310,,,A*42
$GPRMC,011234.6,A,3342.528923,N,11743.129340,W,67.8,146.4,220310,,,A*4F
$GPRMC,011237.6,A,3342.485665,N,11743.087939,W,65.0,141.6,220310,,,A*49
$GPRMC,011240.6,A,3342.447566,N,11743.044865,W,62.4,137.0,220310,,,A*44
$GPRMC,011243.6,A,3342.413430,N,11742.998693,W,61.9,131.4,220310,,,A*46
$GPRMC,011246.6,A,3342.382884,N,11742.948891,W,62.1,125.6,220310,,,A*42
$GPRMC,011249.6,A,3342.356163,N,11742.894447,W,63.7,119.9,220310,,,A*44
$GPRMC,011252.6,A,3342.334557,N,11742.838215,W,62.1,116.1,220310,,,A*4E
$GPRMC,011255.6,A,3342.310870,N,11742.781126,W,63.5,117.0,220310,,,A*4C
$GPRMC,011258.6,A,3342.286519,N,11742.722961,W,65.2,117.6,220310,,,A*48
$GPRMC,011301.6,A,3342.260201,N,11742.663316,W,66.0,117.5,220310,,,A*4F
$GPRMC,011304.6,A,3342.232971,N,11742.606941,W,65.8,118.5,220310,,,A*4E
$GPRMC,011307.6,A,3342.207312,N,11742.551966,W,64.8,119.1,220310,,,A*44
$GPRMC,011310.6,A,3342.179876,N,11742.497743,W,63.9,119.6,220310,,,A*42
$GPRMC,011313.6,A,3342.152355,N,11742.443903,W,63.4,120.2,220310,,,A*42
$GPRMC,011316.6,A,3342.128522,N,11742.389222,W,61.7,120.4,220310,,,A*42
$GPRMC,011319.6,A,3342.103514,N,11742.336048,W,61.4,120.2,220310,,,A*4E
$GPRMC,011322.6,A,3342.075545,N,11742.283806,W,62.4,119.9,220310,,,A*4D
$GPRMC,011325.6,A,3342.049165,N,11742.228974,W,62.8,119.7,220310,,,A*44
$GPRMC,011328.6,A,3342.023041,N,11742.174769,W,63.2,120.1,220310,,,A*4D
$GPRMC,011331.6,A,3341.996705,N,11742.119586,W,64.3,119.6,220310,,,A*45
$GPRMC,011334.6,A,3341.969201,N,11742.062299,W,65.8,120.0,220310,,,A*43
$GPRMC,011337.6,A,3341.942034,N,11742.005404,W,67.2,120.8,220310,,,A*4E
$GPRMC,011340.6,A,3341.914468,N,11741.948342,W,66.1,119.9,220310,,,A*4F
$GPRMC,011343.6,A,3341.887062,N,11741.891762,W,64.9,119.3,220310,,,A*4A
$GPRMC,011346.6,A,3341.858443,N,11741.834616,W,65.7,120.0,220310,,,A*41
$GPRMC,011349.6,A,3341.831342,N,11741.777476,W,65.4,120.0,220310,,,A*48
$GPRMC,011352.6,A,3341.804364,N,11741.720322,W,65.5,119.6,220310,,,A*49
$GPRMC,011355.6,A,3341.779183,N,11741.662419,W,65.9,118.8,220310,,,A*4B
$GPRMC,011358.6,A,3341.751275,N,11741.605912,W,66.3,119.8,220310,,,A*49
$GPRMC,011401.6,A,3341.723150,N,11741.549722,W,65.9,121.7,220310,,,A*48
$GPRMC,011404.6,A,3341.688786,N,11741.496934,W,67.1,125.9,220310,,,A*4A
$GPRMC,011407.6,A,3341.651249,N,11741.445004,W,67.0,128.9,220310,,,A*43
$GPRMC,011410.6,A,3341.614122,N,11741.394411,W,67.4,129.7,220310,,,A*4A
$GPRMC,011413.6,A,3341.579594,N,11741.343153,W,66.0,129.2,220310,,,A*41
$GPRMC,011416.6,A,3341.544180,N,11741.294067,W,64.2,130.0,220310,,,A*4C
$GPRMC,011419.6,A,3341.511732,N,11741.245334,W,63.2,129.4,220310,,,A*4E
$GPRMC,011422.6,A,3341.478775,N,11741.197914,W,61.9,129.9,220310,,,A*4B
$GPRMC,011425.6,A,3341.445437,N,11741.151627,W,60.4,130.3,220310,,,A*4C
$GPRMC,011428.6,A,3341.412065,N,11741.105542,W,61.4,130.7,220310,,,A*44
$GPRMC,011431.6,A,3341.379061,N,11741.058433,W,61.5,130.4,220310,,,A*4E
$GPRMC,011434.6,A,3341.346354,N,11741.011231,W,62.2,130.0,220310,,,A*4B
$GPRMC,011437.6,A,3341.313925,N,11740.961807,W,63.7,129.4,220310,,,A*4C
$GPRMC,011440.6,A,3341.278272,N,11740.912685,W,64.7,129.8,220310,,,A*42
$GPRMC,011443.6,A,3341.244863,N,11740.863292,W,64.4,129.5,220310,,,A*4F
$GPRMC,011446.6,A,3341.211396,N,11740.813663,W,62.9,130.1,220310,,,A*41
$GPRMC,011449.6,A,3341.179364,N,11740.767120,W,60.4,129.3,220310,,,A*47
$GPRMC,011452.6,A,3341.146282,N,11740.721717,W,58.5,130.1,220310,,,A*48
$GPRMC,011455.6,A,3341.114824,N,11740.677793,W,57.0,132.6,220310,,,A*4F
$GPRMC,011458.6,A,3341.081847,N,11740.636794,W,55.6,134.9,220310,,,A*45
$GPRMC,011501.6,A,3341.046764,N,11740.598990,W,56.2,137.8,220310,,,A*45
$GPRMC,011504.6,A,3341.008161,N,11740.562657,W,57.6,142.2,220310,,,A*45
$GPRMC,011507.6,A,3340.968115,N,11740.529312,W,58.2,144.6,220310,,,A*49
$GPRMC,011510.6,A,3340.924798,N,11740.498443,W,60.5,148.8,220310,,,A*42
$GPRMC,011513.6,A,3340.878867,N,11740.469573,W,62.1,152.3,220310,,,A*4C
$GPRMC,011516.6,A,3340.831114,N,11740.440419,W,64.1,152.9,220310,,,A*43
$GPRMC,011519.6,A,3340.782726,N,11740.410826,W,65.1,152.5,220310,,,A*44
$GPRMC,011522.6,A,3340.731514,N,11740.381789,W,66.2,152.1,220310,,,A*46
$GPRMC,011525.6,A,3340.683696,N,11740.347448,W,66.9,148.3,220310,,,A*46
$GPRMC,011528.6,A,3340.639275,N,11740.307412,W,66.9,142.3,220310,,,A*42
$GPRMC,011531.6,A,3340.598094,N,11740.263496,W,66.3,137.4,220310,,,A*4F
$GPRMC,011534.6,A,3340.559528,N,11740.216976,W,66.4,132.7,220310,,,A*45
$GPRMC,011537.6,A,3340.523703,N,11740.166651,W,66.3,129.3,220310,,,A*47
$GPRMC,011540.6,A,3340.491671,N,11740.113930,W,65.5,125.2,220310,,,A*49
$GPRMC,011543.6,A,3340.461992,N,11740.058095,W,66.2,121.8,220310,,,A*45
$GPRMC,011546.6,A,3340.436774,N,11739.999058,W,65.5,117.2,220310,,,A*44
$GPRMC,011549.6,A,3340.412998,N,11739.940028,W,66.4,115.8,220310,,,A*48
$GPRMC,011552.6,A,3340.389425,N,11739.879656,W,67.0,115.1,220310,,,A*44
$GPRMC,011555.6,A,3340.367285,N,11739.819330,W,65.0,114.0,220310,,,A*4E
$GPRMC,011558.6,A,3340.344280,N,11739.761621,W,63.7,114.3,220310,,,A*40
$GPRMC,011601.6,A,3340.321753,N,11739.703439,W,63.9,115.3,220310,,,A*47
$GPRMC,011604.6,A,3340.299796,N,11739.646420,W,63.5,114.7,220310,,,A*48
$GPRMC,011607.6,A,3340.276386,N,11739.587951,W,65.8,115.3,220310,,,A*44
$GPRMC,011610.6,A,3340.253344,N,11739.527721,W,65.7,115.0,220310,,,A*44
$GPRMC,011613.6,A,3340.230192,N,11739.467131,W,65.4,115.1,220310,,,A*4B
$GPRMC,011616.6,A,3340.206990,N,11739.410065,W,63.7,115.2,220310,,,A*47
$GPRMC,011619.6,A,3340.184710,N,11739.353671,W,63.4,114.6,220310,,,A*42
$GPRMC,011622.6,A,3340.163269,N,11739.295917,W,63.1,114.5,220310,,,A*4A
$GPRMC,011625.6,A,3340.140659,N,11739.236982,W,64.7,114.5,220310,,,A*4F
$GPRMC,011628.6,A,3340.118568,N,11739.177790,W,64.5,114.6,220310,,,A*44
$GPRMC,011631.6,A,3340.096277,N,11739.119216,W,64.6,114.8,220310,,,A*4C
$GPRMC,011634.6,A,3340.072487,N,11739.060152,W,65.7,115.3,220310,,,A*4C
$GPRMC,011637.6,A,3340.048273,N,11739.000919,W,66.6,115.6,220310,,,A*4D
$GPRMC,011640.6,A,3340.022581,N,11738.941411,W,66.7,116.1,220310,,,A*46
$GPRMC,011643.6,A,3339.998946,N,11738.880707,W,66.9,115.1,220310,,,A*41
$GPRMC,011646.6,A,3339.975341,N,11738.820915,W,67.4,115.2,220310,,,A*42
$GPRMC,011649.6,A,3339.949511,N,11738.760445,W,66.9,115.9,220310,,,A*45
$GPRMC,011652.6,A,3339.923778,N,11738.698888,W,68.0,115.5,220310,,,A*4E
$GPRMC,011655.6,A,3339.899895,N,11738.636228,W,68.5,115.0,220310,,,A*41
$GPRMC,011658.6,A,3339.876049,N,11738.575713,W,68.2,115.5,220310,,,A*4F
$GPRMC,011701.6,A,3339.850848,N,11738.513780,W,68.8,115.7,220310,,,A*4D
$GPRMC,011704.6,A,3339.825206,N,11738.451999,W,68.9,115.5,220310,,,A*48
$GPRMC,011707.6,A,3339.799264,N,11738.391886,W,68.7,117.5,220310,,,A*4F
$GPRMC,011710.6,A,3339.769471,N,11738.336316,W,67.5,122.0,220310,,,A*45
$GPRMC,011713.6,A,3339.735803,N,11738.282351,W,67.2,125.9,220310,,,A*42
$GPRMC,011716.6,A,3339.699682,N,11738.229573,W,67.0,129.6,220310,,,A*41
$GPRMC,011719.6,A,3339.658312,N,11738.180823,W,66.2,133.6,220310,,,A*4F
$GPRMC,011722.6,A,3339.618602,N,11738.135377,W,66.4,135.3,220310,,,A*46
$GPRMC,011725.6,A,3339.578674,N,11738.088605,W,66.6,135.2,220310,,,A*41
$GPRMC,011728.6,A,3339.539168,N,11738.041423,W,66.9,135.1,220310,,,A*4C
$GPRMC,011731.6,A,3339.500600,N,11737.992948,W,67.6,133.1,220310,,,A*47
$GPRMC,011734.6,A,3339.463721,N,11737.941433,W,68.2,129.4,220310,,,A*4E
$GPRMC,011737.6,A,3339.431118,N,11737.887519,W,67.1,125.9,220310,,,A*49
$GPRMC,011740.6,A,3339.402306,N,11737.832055,W,67.0,122.0,220310,,,A*48
$GPRMC,011743.6,A,3339.375028,N,11737.772401,W,68.9,118.9,220310,,,A*4B
$GPRMC,011746.6,A,3339.352780,N,11737.710493,W,67.7,113.6,220310,,,A*44
$GPRMC,011749.6,A,3339.332829,N,11737.646835,W,68.3,111.3,220310,,,A*4F
$GPRMC,011752.6,A,3339.311395,N,11737.582551,W,68.0,110.9,220310,,,A*44
$GPRMC,011755.6,A,3339.291277,N,11737.519129,W,67.9,110.5,220310,,,A*44
$GPRMC,011758.6,A,3339.272231,N,11737.457972,W,65.7,110.8,220310,,,A*4A
$GPRMC,011801.6,A,3339.253452,N,11737.396703,W,64.1,111.1,220310,,,A*44
$GPRMC,011804.6,A,3339.234280,N,11737.335241,W,64.9,110.8,220310,,,A*43
$GPRMC,011807.6,A,3339.214606,N,11737.274352,W,65.2,110.3,220310,,,A*4E
$GPRMC,011810.6,A,3339.195254,N,11737.213913,W,65.3,110.8,220310,,,A*45
$GPRMC,011813.6,A,3339.176735,N,11737.151884,W,66.0,110.2,220310,,,A*49
$GPRMC,011816.6,A,3339.158592,N,11737.088884,W,65.6,108.6,220310,,,A*42
$GPRMC,011819.6,A,3339.143341,N,11737.025303,W,66.1,105.4,220310,,,A*47
$GPRMC,011822.6,A,3339.129607,N,11736.959950,W,67.2,103.2,220310,,,A*49
$GPRMC,011825.6,A,3339.118404,N,11736.896408,W,64.8,101.9,220310,,,A*4F
$GPRMC,011828.6,A,3339.108584,N,11736.832074,W,64.7,101.2,220310,,,A*4F
$GPRMC,011831.6,A,3339.096994,N,11736.770382,W,64.6,102.8,220310,,,A*47
$GPRMC,011834.6,A,3339.081125,N,11736.709077,W,66.1,107.6,220310,,,A*4F
$GPRMC,011837.6,A,3339.060640,N,11736.649263,W,66.6,114.1,220310,,,A*47
$GPRMC,011840.6,A,3339.033236,N,11736.590732,W,66.1,120.8,220310,,,A*4B
$GPRMC,011843.6,A,3338.997822,N,11736.537901,W,67.8,129.8,220310,,,A*43
$GPRMC,011846.6,A,3338.958564,N,11736.487574,W,71.5,135.5,220310,,,A*44
$GPRMC,011849.6,A,3338.910652,N,11736.441518,W,72.7,142.2,220310,,,A*47
$GPRMC,011852.6,A,3338.859116,N,11736.401838,W,72.8,148.6,220310,,,A*4C
$GPRMC,011855.6,A,3338.804504,N,11736.371002,W,72.3,155.3,220310,,,A*47
$GPRMC,011858.6,A,3338.748507,N,11736.342294,W,71.9,156.3,220310,,,A*49
$GPRMC,011901.6,A,3338.694842,N,11736.314927,W,69.5,156.7,220310,,,A*49
$GPRMC,011904.6,A,3338.641460,N,11736.288208,W,69.0,156.4,220310,,,A*4C
$GPRMC,011907.6,A,3338.586858,N,11736.261393,W,69.8,156.4,220310,,,A*4C
$GPRMC,011910.6,A,3338.533977,N,11736.232745,W,69.5,155.7,220310,,,A*4C
$GPRMC,011913.6,A,3338.480991,N,11736.204281,W,68.7,156.5,220310,,,A*44
$GPRMC,011916.6,A,3338.428056,N,11736.176968,W,69.5,156.5,220310,,,A*48
$GPRMC,011919.6,A,3338.375223,N,11736.148412,W,69.2,156.2,220310,,,A*45
$GPRMC,011922.6,A,3338.321654,N,11736.120618,W,69.8,156.6,220310,,,A*40
$GPRMC,011925.6,A,3338.267379,N,11736.093298,W,70.0,156.8,220310,,,A*45
$GPRMC,011928.6,A,3338.212962,N,11736.065173,W,70.2,156.8,220310,,,A*47
$GPRMC,011931.6,A,3338.159129,N,11736.037206,W,70.1,157.5,220310,,,A*4D
$GPRMC,011934.6,A,3338.107465,N,11736.010392,W,69.7,157.5,220310,,,A*49
$GPRMC,011937.6,A,3338.051560,N,11735.986782,W,69.9,160.9,220310,,,A*4A
$GPRMC,011940.6,A,3337.996144,N,11735.968063,W,68.3,165.4,220310,,,A*4E
$GPRMC,011943.6,A,3337.938885,N,11735.955665,W,68.9,170.5,220310,,,A*4C
$GPRMC,011946.6,A,3337.880854,N,11735.951372,W,68.6,177.6,220310,,,A*4B
$GPRMC,011949.6,A,3337.824361,N,11735.952017,W,68.7,182.4,220310,,,A*4D
$GPRMC,011952.6,A,3337.765980,N,11735.958084,W,70.4,185.7,220310,,,A*46
$GPRMC,011955.6,A,3337.709449,N,11735.974643,W,70.2,192.6,220310,,,A*41
$GPRMC,011958.6,A,3337.654110,N,11735.994702,W,70.4,198.5,220310,,,A*49
$GPRMC,012001.6,A,3337.598532,N,11736.022435,W,70.9,203.2,220310,,,A*43
$GPRMC,012004.6,A,3337.546448,N,11736.055430,W,71.4,209.6,220310,,,A*4E
$GPRMC,012007.6,A,3337.497025,N,11736.095320,W,71.3,215.7,220310,,,A*4E
$GPRMC,012010.6,A,3337.449197,N,11736.140452,W,71.7,218.9,220310,,,A*4F
$GPRMC,012013.6,A,3337.403579,N,11736.185704,W,70.4,219.4,220310,,,A*41
$GPRMC,012016.6,A,3337.358287,N,11736.229615,W,69.5,219.2,220310,,,A*40
$GPRMC,012019.6,A,3337.313872,N,11736.273789,W,69.2,219.5,220310,,,A*4B
$GPRMC,012022.6,A,3337.270566,N,11736.317109,W,69.2,219.2,220310,,,A*45
$GPRMC,012025.6,A,3337.225890,N,11736.360856,W,69.0,219.2,220310,,,A*47
$GPRMC,012028.6,A,3337.180890,N,11736.403943,W,68.3,219.1,220310,,,A*40
$GPRMC,012031.6,A,3337.137516,N,11736.447567,W,67.5,219.6,220310,,,A*43
$GPRMC,012034.6,A,3337.092683,N,11736.488888,W,68.0,216.8,220310,,,A*43
$GPRMC,012037.6,A,3337.046060,N,11736.528470,W,68.7,214.6,220310,,,A*49
$GPRMC,012040.6,A,3336.997558,N,11736.564295,W,68.3,210.8,220310,,,A*48
$GPRMC,012043.6,A,3336.947914,N,11736.595540,W,67.7,207.1,220310,,,A*47
$GPRMC,012046.6,A,3336.897442,N,11736.623567,W,67.0,203.8,220310,,,A*41
$GPRMC,012049.6,A,3336.845058,N,11736.647642,W,66.8,200.8,220310,,,A*42
$GPRMC,012052.6,A,3336.793313,N,11736.668823,W,66.0,197.0,220310,,,A*49
$GPRMC,012055.6,A,3336.740180,N,11736.684711,W,66.8,194.0,220310,,,A*4F
$GPRMC,012058.6,A,3336.684266,N,11736.699956,W,68.4,191.9,220310,,,A*4F
$GPRMC,012101.6,A,3336.627799,N,11736.714637,W,67.9,191.9,220310,,,A*40
$GPRMC,012104.6,A,3336.572492,N,11736.728533,W,66.6,191.7,220310,,,A*46
$GPRMC,012107.6,A,3336.517687,N,11736.741504,W,66.1,191.1,220310,,,A*4A
$GPRMC,012110.6,A,3336.463447,N,11736.754888,W,65.4,191.6,220310,,,A*4C
$GPRMC,012113.6,A,3336.410984,N,11736.767965,W,64.6,191.7,220310,,,A*49
$GPRMC,012116.6,A,3336.359191,N,11736.781660,W,63.8,192.0,220310,,,A*45
$GPRMC,012119.6,A,3336.306162,N,11736.794339,W,64.8,191.3,220310,,,A*46
$GPRMC,012122.6,A,3336.253582,N,11736.807153,W,64.7,191.2,220310,,,A*40
$GPRMC,012125.6,A,3336.200645,N,11736.818507,W,64.6,190.1,220310,,,A*41
$GPRMC,012128.6,A,3336.146428,N,11736.826648,W,65.7,186.5,220310,,,A*42
$GPRMC,012131.6,A,3336.091706,N,11736.830803,W,66.6,182.2,220310,,,A*49
$GPRMC,012134.6,A,3336.037368,N,11736.831288,W,66.0,179.6,220310,,,A*42
$GPRMC,012137.6,A,3335.982483,N,11736.826437,W,65.5,175.0,220310,,,A*4F
$GPRMC,012140.6,A,3335.926181,N,11736.817184,W,66.2,171.5,220310,,,A*4C
$GPRMC,012143.6,A,3335.871429,N,11736.804078,W,67.3,167.4,220310,,,A*4D
$GPRMC,012146.6,A,3335.815836,N,11736.786413,W,68.4,165.3,220310,,,A*49
$GPRMC,012149.6,A,3335.761186,N,11736.769077,W,67.7,164.8,220310,,,A*49
$GPRMC,012152.6,A,3335.707227,N,11736.751191,W,67.0,165.1,220310,,,A*46
$GPRMC,012155.6,A,3335.653382,N,11736.734972,W,66.4,165.4,220310,,,A*49
$GPRMC,012158.6,A,3335.600317,N,11736.718822,W,66.0,165.3,220310,,,A*47
$GPRMC,012201.6,A,3335.547373,N,11736.702665,W,65.0,164.9,220310,,,A*44
$GPRMC,012204.6,A,3335.497000,N,11736.686759,W,61.6,165.0,220310,,,A*43
$GPRMC,012207.6,A,3335.450845,N,11736.675053,W,56.5,169.6,220310,,,A*4E
$GPRMC,012210.6,A,3335.408903,N,11736.669440,W,50.2,173.9,220310,,,A*48
$GPRMC,012213.6,A,3335.370609,N,11736.668675,W,45.9,180.6,220310,,,A*4F
$GPRMC,012216.6,A,3335.335149,N,11736.675305,W,42.2,187.4,220310,,,A*4F
$GPRMC,012219.6,A,3335.301786,N,11736.683635,W,40.7,191.2,220310,,,A*4B
$GPRMC,012222.6,A,3335.269340,N,11736.693173,W,38.4,193.0,220310,,,A*4A
$GPRMC,012225.6,A,3335.241526,N,11736.693039,W,34.1,176.3,220310,,,A*4F
$GPRMC,012228.6,A,3335.221387,N,11736.684648,W,24.3,160.9,220310,,,A*41
$GPRMC,012231.6,A,3335.206974,N,11736.677701,W,18.1,159.2,220310,,,A*46
$GPRMC,012234.6,A,3335.203013,N,11736.681166,W,10.7,197.8,220310,,,A*46
$GPRMC,012237.6,A,3335.194499,N,11736.693782,W,18.4,230.9,220310,,,A*45
$GPRMC,012240.6,A,3335.182163,N,11736.719802,W,29.6,242.4,220310,,,A*4E
$GPRMC,012243.6,A,3335.169786,N,11736.755102,W,36.5,248.5,220310,,,A*42
$GPRMC,012246.6,A,3335.161177,N,11736.795468,W,42.2,256.2,220310,,,A*4E
$GPRMC,012249.6,A,3335.156854,N,11736.837847,W,43.5,262.4,220310,,,A*4C
$GPRMC,012252.6,A,3335.158082,N,11736.886212,W,46.5,271.3,220310,,,A*4B
$GPRMC,012255.6,A,3335.164642,N,11736.934506,W,47.4,280.8,220310,,,A*46
$GPRMC,012258.6,A,3335.178846,N,11736.980854,W,49.3,289.6,220310,,,A*47
$GPRMC,012301.6,A,3335.196868,N,11737.025776,W,49.5,295.5,220310,,,A*46
$GPRMC,012304.6,A,3335.216378,N,11737.067752,W,47.2,296.9,220310,,,A*44
$GPRMC,012307.6,A,3335.232903,N,11737.109291,W,45.7,293.4,220310,,,A*4B
$GPRMC,012310.6,A,3335.244510,N,11737.152506,W,44.8,285.8,220310,,,A*40
$GPRMC,012313.6,A,3335.251675,N,11737.197669,W,46.0,279.8,220310,,,A*4D
$GPRMC,012316.6,A,3335.254536,N,11737.243796,W,45.3,273.4,220310,,,A*44
$GPRMC,012319.6,A,3335.249847,N,11737.290165,W,46.5,263.9,220310,,,A*41
$GPRMC,012322.6,A,3335.242130,N,11737.334553,W,44.9,258.8,220310,,,A*42
$GPRMC,012325.6,A,3335.232343,N,11737.374080,W,39.3,253.0,220310,,,A*48
$GPRMC,012328.6,A,3335.223186,N,11737.400862,W,28.1,247.2,220310,,,A*4B
$GPRMC,012331.6,A,3335.216010,N,11737.420242,W,19.3,244.8,220310,,,A*48
$GPRMC,012334.6,A,3335.217152,N,11737.431505,W,11.2,279.6,220310,,,A*46
$GPRMC,012337.6,A,3335.227563,N,11737.441037,W,15.2,320.2,220310,,,A*4E
$GPRMC,012340.6,A,3335.240885,N,11737.450661,W,17.8,328.3,220310,,,A*4E
$GPRMC,012343.6,A,3335.266902,N,11737.461785,W,26.6,340.5,220310,,,A*4A
$GPRMC,012346.6,A,3335.289779,N,11737.470833,W,27.6,343.1,220310,,,A*48
$GPRMC,012349.6,A,3335.309968,N,11737.476215,W,25.2,344.9,220310,,,A*41
$GPRMC,012352.6,A,3335.325601,N,11737.481124,W,21.1,338.8,220310,,,A*41
$GPRMC,012355.6,A,3335.335318,N,11737.487226,W,20.1,330.8,220310,,,A*44
$GPRMC,012358.6,A,3335.344529,N,11737.501670,W,19.9,317.6,220310,,,A*4A
$GPRMC,012401.6,A,3335.330544,N,11737.518120,W,16.0,273.2,220310,,,A*42
$GPRMC,012404.6,A,3335.327596,N,11737.537266,W,17.1,266.0,220310,,,A*44
$GPRMC,012407.6,A,3335.319854,N,11737.556607,W,16.9,252.7,220310,,,A*44
$GPRMC,012410.6,A,3335.312643,N,11737.570109,W,15.3,236.2,220310,,,A*42
$GPRMC,012413.6,A,3335.305264,N,11737.574746,W,9.1,207.9,220310,,,A*79
$GPRMC,012416.6,A,3335.297231,N,11737.573301,W,9.2,166.6,220310,,,A*7E
$GPRMC,012419.6,A,3335.286564,N,11737.568618,W,12.5,156.7,220310,,,A*4E
$GPRMC,012422.6,A,3335.276769,N,11737.565738,W,11.1,161.2,220310,,,A*4E
$GPRMC,012425.6,A,3335.269775,N,11737.563950,W,7.3,166.0,220310,,,A*7C
$GPRMC,012428.6,A,3335.262993,N,11737.561183,W,8.0,166.0,220310,,,A*74
$GPRMC,012431.6,A,3335.259100,N,11737.559392,W,5.1,152.0,220310,,,A*74
$GPRMC,012446.6,A,3335.265861,N,11737.554870,W,6.6,344.4,220310,,,A*7A
$GPRMC,012449.6,A,3335.271590,N,11737.556604,W,4.6,347.2,220310,,,A*7B
$GPRMC,012816.6,A,3335.279032,N,11737.561404,W,5.5,339.1,220310,,,A*76
$GPRMC,012819.6,A,3335.288067,N,11737.565802,W,9.2,338.2,220310,,,A*70
$GPRMC,012822.6,A,3335.295395,N,11737.569219,W,7.9,337.6,220310,,,A*78
$GPRMC,012825.6,A,3335.303336,N,11737.567659,W,7.6,4.3,220310,,,A*7F
$GPRMC,012828.6,A,3335.308555,N,11737.562986,W,7.6,27.2,220310,,,A*42
$GPRMC,012831.6,A,3335.314727,N,11737.549563,W,11.7,65.2,220310,,,A*7E
$GPRMC,012834.6,A,3335.317368,N,11737.527059,W,20.2,88.2,220310,,,A*77
$GPRMC,012837.6,A,3335.316870,N,11737.504509,W,22.1,90.5,220310,,,A*79
$GPRMC,012840.6,A,3335.317674,N,11737.484848,W,18.5,84.8,220310,,,A*76
$GPRMC,012843.6,A,3335.316649,N,11737.477850,W,8.3,99.7,220310,,,A*4B
$GPRMC,012846.6,A,3335.309973,N,11737.473908,W,8.4,135.2,220310,,,A*7B
$GPRMC,012849.6,A,3335.299994,N,11737.467855,W,12.2,142.0,220310,,,A*46
$GPRMC,012852.6,A,3335.287738,N,11737.457247,W,17.3,137.1,220310,,,A*46
$GPRMC,012855.6,A,3335.258452,N,11737.450440,W,26.0,154.6,220310,,,A*49
$GPRMC,012858.6,A,3335.231437,N,11737.437324,W,20.8,154.2,220310,,,A*46
$GPRMC,012901.6,A,3335.217817,N,11737.431387,W,9.8,155.3,220310,,,A*75
$GPRMC,012904.6,A,3335.211472,N,11737.431480,W,7.1,180.3,220310,,,A*76
$GPRMC,012907.6,A,3335.202012,N,11737.438988,W,12.4,226.0,220310,,,A*44
$GPRMC,012910.6,A,3335.184807,N,11737.464519,W,27.4,228.7,220310,,,A*41
$GPRMC,012913.6,A,3335.161610,N,11737.493809,W,38.9,227.0,220310,,,A*4E
$GPRMC,012916.6,A,3335.135829,N,11737.526698,W,43.4,226.4,220310,,,A*43
$GPRMC,012919.6,A,3335.109892,N,11737.560993,W,46.2,226.7,220310,,,A*45
$GPRMC,012922.6,A,3335.084334,N,11737.600076,W,48.5,231.4,220310,,,A*45
$GPRMC,012925.6,A,3335.064875,N,11737.642596,W,49.2,240.3,220310,,,A*48
$GPRMC,012928.6,A,3335.048588,N,11737.687063,W,48.2,247.0,220310,,,A*47
$GPRMC,012931.6,A,3335.038877,N,11737.728293,W,41.8,252.0,220310,,,A*4B
$GPRMC,012934.6,A,3335.032510,N,11737.762866,W,33.5,253.9,220310,,,A*46
$GPRMC,012937.6,A,3335.026907,N,11737.789443,W,25.5,255.8,220310,,,A*44
$GPRMC,012940.6,A,3335.024905,N,11737.807965,W,18.1,257.7,220310,,,A*43
$GPRMC,012943.6,A,3335.022936,N,11737.817930,W,9.7,253.1,220310,,,A*73
$GPRMC,012946.6,A,3335.021924,N,11737.827702,W,11.4,261.8,220310,,,A*48
$GPRMC,012949.6,A,3335.021528,N,11737.843023,W,16.0,265.3,220310,,,A*4D
$GPRMC,012952.6,A,3335.023616,N,11737.866275,W,24.3,271.6,220310,,,A*4F
$GPRMC,012955.6,A,3335.024964,N,11737.899333,W,33.7,272.7,220310,,,A*46
$GPRMC,012958.6,A,3335.028090,N,11737.941002,W,41.6,277.6,220310,,,A*40
$GPRMC,013001.6,A,3335.038024,N,11737.984841,W,46.8,282.9,220310,,,A*40
$GPRMC,013004.6,A,3335.051387,N,11738.031594,W,49.8,289.4,220310,,,A*44
$GPRMC,013007.6,A,3335.068432,N,11738.077150,W,49.8,294.8,220310,,,A*4A
$GPRMC,013010.6,A,3335.091029,N,11738.119072,W,51.4,300.9,220310,,,A*44
$GPRMC,013013.6,A,3335.114341,N,11738.162854,W,52.4,301.7,220310,,,A*4A
$GPRMC,013016.6,A,3335.139152,N,11738.207869,W,54.7,302.6,220310,,,A*49
$GPRMC,013019.6,A,3335.162995,N,11738.251938,W,53.8,303.3,220310,,,A*41
$GPRMC,013022.6,A,3335.186275,N,11738.296207,W,51.8,303.3,220310,,,A*48
$GPRMC,013025.6,A,3335.210276,N,11738.340546,W,52.6,303.9,220310,,,A*4F
$GPRMC,013028.6,A,3335.234624,N,11738.384642,W,52.7,303.4,220310,,,A*44
$GPRMC,013031.6,A,3335.259387,N,11738.430280,W,54.1,302.7,220310,,,A*4B
$GPRMC,013034.6,A,3335.283549,N,11738.475413,W,52.9,302.2,220310,,,A*4B
$GPRMC,013037.6,A,3335.304113,N,11738.519693,W,50.4,297.8,220310,,,A*44
$GPRMC,013040.6,A,3335.317720,N,11738.565220,W,48.6,288.7,220310,,,A*4D
$GPRMC,013043.6,A,3335.327211,N,11738.611419,W,47.8,282.8,220310,,,A*42
$GPRMC,013046.6,A,3335.329920,N,11738.659095,W,47.5,275.1,220310,,,A*40
$GPRMC,013049.6,A,3335.327162,N,11738.708513,W,48.6,267.8,220310,,,A*47
$GPRMC,013052.6,A,3335.322949,N,11738.755582,W,45.9,262.7,220310,,,A*41
$GPRMC,013055.6,A,3335.315250,N,11738.796704,W,40.1,255.7,220310,,,A*4B
$GPRMC,013058.6,A,3335.306886,N,11738.824948,W,32.3,248.1,220310,,,A*48
$GPRMC,013101.6,A,3335.296696,N,11738.850991,W,26.7,244.4,220310,,,A*4D
$GPRMC,013104.6,A,3335.289097,N,11738.869038,W,18.3,242.1,220310,,,A*4B
$GPRMC,013107.6,A,3335.285885,N,11738.877448,W,8.0,241.4,220310,,,A*77
$GPRMC,013113.6,A,3335.283683,N,11738.881601,W,5.7,246.0,220310,,,A*73
$GPRMC,013116.6,A,3335.277360,N,11738.890761,W,10.7,227.6,220310,,,A*47
$GPRMC,013119.6,A,3335.261262,N,11738.918687,W,27.0,230.7,220310,,,A*40
$GPRMC,013122.6,A,3335.238485,N,11738.957318,W,42.3,232.9,220310,,,A*4F
$GPRMC,013125.6,A,3335.214151,N,11738.995655,W,46.8,231.8,220310,,,A*45
$GPRMC,013128.6,A,3335.191109,N,11739.037040,W,49.2,237.4,220310,,,A*46
$GPRMC,013131.6,A,3335.170904,N,11739.084234,W,50.5,244.2,220310,,,A*40
$GPRMC,013134.6,A,3335.156954,N,11739.131757,W,51.0,251.6,220310,,,A*4F
$GPRMC,013137.6,A,3335.147025,N,11739.180645,W,50.5,257.5,220310,,,A*4A
$GPRMC,013140.6,A,3335.143548,N,11739.225227,W,46.2,263.0,220310,,,A*4E
$GPRMC,013143.6,A,3335.143002,N,11739.262145,W,38.8,264.7,220310,,,A*41
$GPRMC,013146.6,A,3335.141661,N,11739.293456,W,34.6,266.7,220310,,,A*4C
$GPRMC,013149.6,A,3335.141345,N,11739.330196,W,37.9,265.8,220310,,,A*41
$GPRMC,013152.6,A,3335.136344,N,11739.369025,W,38.8,261.7,220310,,,A*4A
$GPRMC,013155.6,A,3335.130593,N,11739.404947,W,37.4,257.5,220310,,,A*42
$GPRMC,013158.6,A,3335.124691,N,11739.430927,W,27.5,254.2,220310,,,A*4E
$GPRMC,013201.6,A,3335.118937,N,11739.445743,W,15.4,248.2,220310,,,A*4E
$GPRMC,013204.6,A,3335.113840,N,11739.453515,W,10.8,245.0,220310,,,A*41
$GPRMC,013207.6,A,3335.108589,N,11739.468074,W,17.3,246.5,220310,,,A*40
$GPRMC,013210.6,A,3335.099076,N,11739.490666,W,25.5,243.5,220310,,,A*4A
$GPRMC,013213.6,A,3335.082863,N,11739.519843,W,31.3,237.1,220310,,,A*42
$GPRMC,013216.6,A,3335.069712,N,11739.545709,W,29.6,237.4,220310,,,A*4A
$GPRMC,013219.6,A,3335.059899,N,11739.563254,W,22.9,241.5,220310,,,A*47
$GPRMC,013222.6,A,3335.058983,N,11739.564801,W,11.9,246.7,220310,,,A*4C
$GPRMC,013228.6,A,3335.057418,N,11739.567537,W,6.5,237.4,220310,,,A*72
$GPRMC,013231.6,A,3335.050516,N,11739.579663,W,13.1,232.9,220310,,,A*47
$GPRMC,013234.6,A,3335.039349,N,11739.601319,W,19.6,236.4,220310,,,A*41
$GPRMC,013237.6,A,3335.020283,N,11739.633313,W,29.7,239.1,220310,,,A*4E
$GPRMC,013240.6,A,3334.994931,N,11739.676961,W,43.2,243.0,220310,,,A*40
$GPRMC,013243.6,A,3334.979284,N,11739.719974,W,46.2,247.6,220310,,,A*4E
$GPRMC,013246.6,A,3334.965819,N,11739.767247,W,47.8,250.5,220310,,,A*44
$GPRMC,013249.6,A,3334.953461,N,11739.813482,W,48.1,251.5,220310,,,A*49
$GPRMC,013252.6,A,3334.942955,N,11739.860578,W,48.3,251.5,220310,,,A*4B
$GPRMC,013255.6,A,3334.929729,N,11739.904569,W,47.8,251.2,220310,,,A*44
$GPRMC,013258.6,A,3334.913493,N,11739.948535,W,46.1,244.8,220310,,,A*45
$GPRMC,013301.6,A,3334.890984,N,11739.987588,W,47.5,234.5,220310,,,A*43
$GPRMC,013304.6,A,3334.865184,N,11740.025523,W,49.1,231.1,220310,,,A*41
$GPRMC,013307.6,A,3334.842261,N,11740.062787,W,46.5,234.4,220310,,,A*4B
$GPRMC,013310.6,A,3334.824668,N,11740.100323,W,41.9,243.5,220310,,,A*45
$GPRMC,013313.6,A,3334.813590,N,11740.133921,W,35.6,248.6,220310,,,A*4A
$GPRMC,013316.6,A,3334.808130,N,11740.160527,W,28.2,255.6,220310,,,A*43
$GPRMC,013319.6,A,3334.807893,N,11740.191017,W,31.7,268.7,220310,,,A*49
$GPRMC,013322.6,A,3334.807418,N,11740.229147,W,38.2,270.2,220310,,,A*4A
$GPRMC,013325.6,A,3334.808440,N,11740.271382,W,42.1,271.1,220310,,,A*45
$GPRMC,013328.6,A,3334.809678,N,11740.315666,W,44.3,270.9,220310,,,A*41
$GPRMC,013331.6,A,3334.809697,N,11740.358958,W,43.6,270.6,220310,,,A*4E
$GPRMC,013334.6,A,3334.810653,N,11740.401453,W,43.3,273.4,220310,,,A*42
$GPRMC,013337.6,A,3334.817352,N,11740.446151,W,46.2,281.1,220310,,,A*4A
$GPRMC,013340.6,A,3334.828196,N,11740.492970,W,49.3,285.5,220310,,,A*40
$GPRMC,013343.6,A,3334.841529,N,11740.540594,W,51.4,287.3,220310,,,A*4E
$GPRMC,013346.6,A,3334.854361,N,11740.589110,W,51.7,287.5,220310,,,A*4D
$GPRMC,013349.6,A,3334.865233,N,11740.638221,W,51.2,284.7,220310,,,A*4A
$GPRMC,013352.6,A,3334.870693,N,11740.687154,W,48.9,276.5,220310,,,A*43
$GPRMC,013355.6,A,3334.870477,N,11740.736030,W,48.4,269.4,220310,,,A*46
$GPRMC,013358.6,A,3334.865232,N,11740.783074,W,47.5,262.6,220310,,,A*41
$GPRMC,013401.6,A,3334.853703,N,11740.828642,W,47.4,255.0,220310,,,A*46
$GPRMC,013404.6,A,3334.840671,N,11740.871973,W,47.7,248.0,220310,,,A*4B
$GPRMC,013407.6,A,3334.820426,N,11740.915226,W,48.2,240.7,220310,,,A*43
$GPRMC,013410.6,A,3334.796416,N,11740.954512,W,48.3,233.7,220310,,,A*44
$GPRMC,013413.6,A,3334.769443,N,11740.991455,W,50.0,227.2,220310,,,A*46
$GPRMC,013416.6,A,3334.737694,N,11741.024709,W,52.1,220.0,220310,,,A*4A
$GPRMC,013419.6,A,3334.700603,N,11741.052841,W,54.5,211.2,220310,,,A*4F
$GPRMC,013422.6,A,3334.661010,N,11741.080592,W,55.7,210.9,220310,,,A*40
$GPRMC,013425.6,A,3334.621226,N,11741.110319,W,55.0,212.8,220310,,,A*4D
$GPRMC,013428.6,A,3334.584431,N,11741.141789,W,53.8,218.3,220310,,,A*4A
$GPRMC,013431.6,A,3334.552466,N,11741.179420,W,53.9,226.0,220310,,,A*4F
$GPRMC,013434.6,A,3334.523953,N,11741.221599,W,54.6,233.4,220310,,,A*42
$GPRMC,013437.6,A,3334.500174,N,11741.271534,W,55.3,241.8,220310,,,A*42
$GPRMC,013440.6,A,3334.483670,N,11741.322377,W,53.9,249.4,220310,,,A*45
$GPRMC,013443.6,A,3334.475013,N,11741.372096,W,51.6,258.3,220310,,,A*4F
$GPRMC,013446.6,A,3334.471730,N,11741.423173,W,51.5,264.5,220310,,,A*4B
$GPRMC,013449.6,A,3334.469012,N,11741.475289,W,51.9,266.4,220310,,,A*40
$GPRMC,013452.6,A,3334.466119,N,11741.527498,W,52.3,266.0,220310,,,A*42
$GPRMC,013455.6,A,3334.463258,N,11741.577172,W,49.8,266.0,220310,,,A*43
$GPRMC,013458.6,A,3334.460154,N,11741.627071,W,50.3,266.1,220310,,,A*44
$GPRMC,013501.6,A,3334.457694,N,11741.675245,W,49.2,265.9,220310,,,A*46
$GPRMC,013504.6,A,3334.454572,N,11741.725517,W,48.8,265.6,220310,,,A*4B
$GPRMC,013507.6,A,3334.448508,N,11741.774689,W,48.9,262.8,220310,,,A*40
$GPRMC,013510.6,A,3334.441939,N,11741.822625,W,48.6,258.0,220310,,,A*45
$GPRMC,013513.6,A,3334.427538,N,11741.869442,W,47.9,249.2,220310,,,A*45
$GPRMC,013516.6,A,3334.409902,N,11741.912638,W,45.8,243.3,220310,,,A*43
$GPRMC,013519.6,A,3334.395996,N,11741.947649,W,38.2,241.2,220310,,,A*46
$GPRMC,013522.6,A,3334.381953,N,11741.974776,W,30.1,237.7,220310,,,A*40
$GPRMC,013525.6,A,3334.373621,N,11741.993279,W,19.6,239.0,220310,,,A*46
$GPRMC,013528.6,A,3334.369277,N,11742.002258,W,8.1,235.8,220310,,,A*75
$GPRMC,013537.6,A,3334.368284,N,11742.007526,W,7.2,248.2,220310,,,A*71
$GPRMC,013540.6,A,3334.361061,N,11742.020205,W,15.1,234.3,220310,,,A*48
$GPRMC,013543.6,A,3334.345839,N,11742.030399,W,21.6,206.1,220310,,,A*4E
$GPRMC,013546.6,A,3334.328080,N,11742.030350,W,22.4,182.1,220310,,,A*41
$GPRMC,013549.6,A,3334.302437,N,11742.018731,W,30.2,167.8,220310,,,A*40
$GPRMC,013552.6,A,3334.272445,N,11742.013788,W,35.6,173.7,220310,,,A*4B
$GPRMC,013555.6,A,3334.240838,N,11742.009904,W,37.2,176.0,220310,,,A*4E
$GPRMC,013558.6,A,3334.209759,N,11742.009964,W,33.6,182.4,220310,,,A*4F
$GPRMC,013601.6,A,3334.188352,N,11742.012693,W,24.3,189.4,220310,,,A*40
$GPRMC,013604.6,A,3334.174285,N,11742.021392,W,19.9,212.4,220310,,,A*4C
$GPRMC,013607.6,A,3334.173038,N,11742.031308,W,10.9,233.6,220310,,,A*46
$GPRMC,013610.6,A,3334.189220,N,11742.053238,W,18.3,292.2,220310,,,A*45
$GPRMC,013613.6,A,3334.218698,N,11742.088834,W,35.5,305.7,220310,,,A*49
$GPRMC,013616.6,A,3334.260375,N,11742.131504,W,53.2,313.8,220310,,,A*47
$GPRMC,013619.6,A,3334.292720,N,11742.169807,W,55.0,313.8,220310,,,A*46
$GPRMC,013622.6,A,3334.326799,N,11742.212361,W,58.9,313.3,220310,,,A*49
$GPRMC,013625.6,A,3334.360824,N,11742.257602,W,59.6,312.6,220310,,,A*4E
$GPRMC,013628.6,A,3334.393984,N,11742.303823,W,60.3,310.1,220310,,,A*43
$GPRMC,013631.6,A,3334.423347,N,11742.350952,W,59.5,306.4,220310,,,A*4D
$GPRMC,013634.6,A,3334.448906,N,11742.399001,W,58.5,303.0,220310,,,A*40
$GPRMC,013637.6,A,3334.473687,N,11742.451285,W,60.3,298.7,220310,,,A*49
$GPRMC,013640.6,A,3334.493394,N,11742.508857,W,61.6,293.0,220310,,,A*40
$GPRMC,013643.6,A,3334.512536,N,11742.568336,W,63.9,291.2,220310,,,A*42
$GPRMC,013646.6,A,3334.532102,N,11742.628201,W,64.3,292.1,220310,,,A*49
$GPRMC,013649.6,A,3334.554018,N,11742.688011,W,65.6,293.9,220310,,,A*48
$GPRMC,013652.6,A,3334.576783,N,11742.748183,W,66.3,294.8,220310,,,A*40
$GPRMC,013655.6,A,3334.599942,N,11742.807962,W,65.7,294.8,220310,,,A*41
$GPRMC,013658.6,A,3334.624091,N,11742.864924,W,65.2,296.1,220310,,,A*47
$GPRMC,013701.6,A,3334.650172,N,11742.920142,W,63.3,298.7,220310,,,A*43
$GPRMC,013704.6,A,3334.675278,N,11742.973728,W,62.4,300.9,220310,,,A*4C
$GPRMC,013707.6,A,3334.703396,N,11743.026874,W,63.1,301.6,220310,,,A*4A
$GPRMC,013710.6,A,3334.732141,N,11743.080677,W,64.0,303.5,220310,,,A*40
$GPRMC,013713.6,A,3334.763537,N,11743.134433,W,65.6,305.0,220310,,,A*4A
$GPRMC,013716.6,A,3334.796231,N,11743.187988,W,66.1,307.3,220310,,,A*44
$GPRMC,013719.6,A,3334.831019,N,11743.238894,W,66.2,308.7,220310,,,A*42
$GPRMC,013722.6,A,3334.866238,N,11743.289950,W,66.2,309.6,220310,,,A*4A
$GPRMC,013725.6,A,3334.902857,N,11743.338186,W,64.5,311.7,220310,,,A*48
$GPRMC,013728.6,A,3334.936729,N,11743.386011,W,63.1,311.1,220310,,,A*4B
$GPRMC,013731.6,A,3334.971123,N,11743.432043,W,62.5,312.2,220310,,,A*46
$GPRMC,013734.6,A,3335.005741,N,11743.478989,W,62.6,312.1,220310,,,A*4B
$GPRMC,013737.6,A,3335.040949,N,11743.525204,W,62.4,312.5,220310,,,A*4E
$GPRMC,013740.6,A,3335.075794,N,11743.572353,W,62.8,312.0,220310,,,A*4E
$GPRMC,013743.6,A,3335.108486,N,11743.617748,W,62.0,311.8,220310,,,A*4B
$GPRMC,013746.6,A,3335.141271,N,11743.663740,W,62.2,310.5,220310,,,A*48
$GPRMC,013749.6,A,3335.170304,N,11743.711342,W,60.6,306.5,220310,,,A*45
$GPRMC,013752.6,A,3335.196205,N,11743.763073,W,61.3,301.8,220310,,,A*4D
$GPRMC,013755.6,A,3335.219228,N,11743.817373,W,62.1,296.7,220310,,,A*4F
$GPRMC,013758.6,A,3335.239311,N,11743.875397,W,62.1,291.6,220310,,,A*43
$GPRMC,013801.6,A,3335.252576,N,11743.936102,W,61.5,285.8,220310,,,A*4E
$GPRMC,013804.6,A,3335.263327,N,11743.996028,W,61.8,282.4,220310,,,A*4E
$GPRMC,013807.6,A,3335.267176,N,11744.059375,W,62.4,277.2,220310,,,A*4A
$GPRMC,013810.6,A,3335.271675,N,11744.121539,W,61.8,276.5,220310,,,A*46
$GPRMC,013813.6,A,3335.275893,N,11744.182531,W,61.8,276.2,220310,,,A*41
$GPRMC,013816.6,A,3335.279381,N,11744.243811,W,62.6,276.5,220310,,,A*4B
$GPRMC,013819.6,A,3335.285513,N,11744.306649,W,63.9,276.9,220310,,,A*4B
$GPRMC,013822.6,A,3335.291109,N,11744.370975,W,64.5,276.5,220310,,,A*4F
$GPRMC,013825.6,A,3335.298835,N,11744.433270,W,64.5,276.0,220310,,,A*4C
$GPRMC,013828.6,A,3335.304201,N,11744.497794,W,63.8,276.9,220310,,,A*4A
$GPRMC,013831.6,A,3335.312513,N,11744.563266,W,63.6,279.5,220310,,,A*4E
$GPRMC,013834.6,A,3335.326439,N,11744.625769,W,63.5,284.3,220310,,,A*49
$GPRMC,013837.6,A,3335.342822,N,11744.686158,W,64.2,289.1,220310,,,A*4C
$GPRMC,013840.6,A,3335.363030,N,11744.746177,W,64.1,292.7,220310,,,A*4B
$GPRMC,013843.6,A,3335.384124,N,11744.804772,W,64.2,293.4,220310,,,A*4E
$GPRMC,013846.6,A,3335.405575,N,11744.864238,W,64.8,293.2,220310,,,A*44
$GPRMC,013849.6,A,3335.427848,N,11744.923983,W,65.6,292.4,220310,,,A*49
$GPRMC,013852.6,A,3335.444110,N,11744.986849,W,65.8,287.2,220310,,,A*46
$GPRMC,013855.6,A,3335.455862,N,11745.050283,W,66.2,282.9,220310,,,A*45
$GPRMC,013858.6,A,3335.466645,N,11745.113425,W,64.7,280.4,220310,,,A*47
$GPRMC,013901.6,A,3335.475982,N,11745.176448,W,63.6,279.4,220310,,,A*44
$GPRMC,013904.6,A,3335.484155,N,11745.238022,W,64.1,279.1,220310,,,A*49
$GPRMC,013907.6,A,3335.491772,N,11745.301255,W,64.7,279.1,220310,,,A*42
$GPRMC,013910.6,A,3335.501205,N,11745.366216,W,64.6,279.5,220310,,,A*4A
$GPRMC,013913.6,A,3335.513362,N,11745.428946,W,63.8,284.7,220310,,,A*40
$GPRMC,013916.6,A,3335.529899,N,11745.489486,W,63.4,289.2,220310,,,A*4D
$GPRMC,013919.6,A,3335.550005,N,11745.547711,W,62.7,293.7,220310,,,A*43
$GPRMC,013922.6,A,3335.577416,N,11745.601091,W,62.4,301.2,220310,,,A*4A
$GPRMC,013925.6,A,3335.607215,N,11745.653530,W,62.7,305.1,220310,,,A*41
$GPRMC,013928.6,A,3335.638702,N,11745.702663,W,62.1,307.3,220310,,,A*45
$GPRMC,013931.6,A,3335.672032,N,11745.752252,W,63.7,308.3,220310,,,A*4C
$GPRMC,013934.6,A,3335.706830,N,11745.801650,W,64.3,309.1,220310,,,A*4E
$GPRMC,013937.6,A,3335.741765,N,11745.850996,W,64.9,309.4,220310,,,A*4F
$GPRMC,013940.6,A,3335.777171,N,11745.900422,W,65.8,309.4,220310,,,A*4F
$GPRMC,013943.6,A,3335.812891,N,11745.950713,W,65.2,310.3,220310,,,A*46
$GPRMC,013946.6,A,3335.846079,N,11745.999834,W,64.0,309.1,220310,,,A*4A
$GPRMC,013949.6,A,3335.877086,N,11746.051355,W,64.2,305.1,220310,,,A*4B
$GPRMC,013952.6,A,3335.901539,N,11746.107177,W,63.5,298.9,220310,,,A*4D
$GPRMC,013955.6,A,3335.921058,N,11746.163057,W,63.0,292.8,220310,,,A*45
$GPRMC,013958.6,A,3335.935859,N,11746.224564,W,63.8,285.4,220310,,,A*43
$GPRMC,014001.6,A,3335.948854,N,11746.286297,W,63.3,282.8,220310,,,A*45
$GPRMC,014004.6,A,3335.954255,N,11746.350594,W,63.8,276.5,220310,,,A*45
$GPRMC,014007.6,A,3335.959323,N,11746.415125,W,64.6,275.6,220310,,,A*4A
$GPRMC,014010.6,A,3335.965485,N,11746.477935,W,64.3,276.2,220310,,,A*47
$GPRMC,014013.6,A,3335.975116,N,11746.540028,W,64.0,281.2,220310,,,A*41
$GPRMC,014016.6,A,3335.987495,N,11746.599078,W,63.4,285.7,220310,,,A*44
$GPRMC,014019.6,A,3336.006628,N,11746.657915,W,64.0,291.5,220310,,,A*4B
$GPRMC,014022.6,A,3336.031590,N,11746.714609,W,64.5,298.6,220310,,,A*4C
$GPRMC,014025.6,A,3336.058125,N,11746.771027,W,64.8,300.4,220310,,,A*48
$GPRMC,014028.6,A,3336.084498,N,11746.825303,W,63.8,299.2,220310,,,A*4C
$GPRMC,014031.6,A,3336.108467,N,11746.880615,W,63.2,296.3,220310,,,A*48
$GPRMC,014034.6,A,3336.129036,N,11746.936727,W,63.3,292.5,220310,,,A*41
$GPRMC,014037.6,A,3336.143599,N,11746.996485,W,62.9,286.1,220310,,,A*45
$GPRMC,014040.6,A,3336.156848,N,11747.058989,W,64.3,283.5,220310,,,A*46
$GPRMC,014043.6,A,3336.166189,N,11747.122419,W,64.4,279.5,220310,,,A*48
$GPRMC,014046.6,A,3336.173309,N,11747.186271,W,64.4,277.7,220310,,,A*49
$GPRMC,014049.6,A,3336.179962,N,11747.250359,W,64.9,277.8,220310,,,A*4A
$GPRMC,014052.6,A,3336.193490,N,11747.313462,W,64.8,283.6,220310,,,A*49
$GPRMC,014055.6,A,3336.208358,N,11747.374316,W,64.9,288.4,220310,,,A*41
$GPRMC,014058.6,A,3336.226233,N,11747.432452,W,62.5,292.7,220310,,,A*4C
$GPRMC,014101.6,A,3336.245946,N,11747.489021,W,61.0,294.1,220310,,,A*4B
$GPRMC,014104.6,A,3336.266681,N,11747.546623,W,61.3,294.4,220310,,,A*4B
$GPRMC,014107.6,A,3336.288922,N,11747.602632,W,62.5,294.9,220310,,,A*45
$GPRMC,014110.6,A,3336.310976,N,11747.660569,W,63.7,294.9,220310,,,A*48
$GPRMC,014113.6,A,3336.332519,N,11747.718976,W,64.9,294.6,220310,,,A*44
$GPRMC,014116.6,A,3336.356248,N,11747.778616,W,65.8,295.0,220310,,,A*48
$GPRMC,014119.6,A,3336.380179,N,11747.839908,W,67.0,294.5,220310,,,A*49
$GPRMC,014122.6,A,3336.404074,N,11747.901051,W,67.9,294.9,220310,,,A*4C
$GPRMC,014125.6,A,3336.428135,N,11747.962331,W,68.3,295.3,220310,,,A*4F
$GPRMC,014128.6,A,3336.451792,N,11748.023933,W,67.9,294.6,220310,,,A*4D
$GPRMC,014131.6,A,3336.475657,N,11748.086112,W,68.7,295.2,220310,,,A*4B
$GPRMC,014134.6,A,3336.499611,N,11748.147490,W,68.3,295.1,220310,,,A*4A
$GPRMC,014137.6,A,3336.522519,N,11748.207598,W,66.3,294.6,220310,,,A*45
$GPRMC,014140.6,A,3336.543552,N,11748.266194,W,64.0,291.9,220310,,,A*49
$GPRMC,014143.6,A,3336.558988,N,11748.325770,W,62.1,286.4,220310,,,A*4D
$GPRMC,014146.6,A,3336.570098,N,11748.385715,W,60.9,282.4,220310,,,A*4D
$GPRMC,014149.6,A,3336.578476,N,11748.446084,W,61.2,280.1,220310,,,A*44
$GPRMC,014152.6,A,3336.586878,N,11748.507391,W,61.7,280.1,220310,,,A*4B
$GPRMC,014155.6,A,3336.595373,N,11748.568963,W,62.2,279.3,220310,,,A*42
$GPRMC,014158.6,A,3336.602914,N,11748.631114,W,62.3,278.5,220310,,,A*48
$GPRMC,014201.6,A,3336.612888,N,11748.692241,W,62.4,281.5,220310,,,A*49
$GPRMC,014204.6,A,3336.626746,N,11748.751574,W,63.4,286.6,220310,,,A*4C
$GPRMC,014207.6,A,3336.646223,N,11748.810123,W,63.4,293.9,220310,,,A*48
$GPRMC,014210.6,A,3336.672549,N,11748.865976,W,64.0,300.0,220310,,,A*49
$GPRMC,014213.6,A,3336.703553,N,11748.918006,W,65.2,307.6,220310,,,A*41
$GPRMC,014216.6,A,3336.738272,N,11748.965711,W,63.4,311.9,220310,,,A*4B
$GPRMC,014219.6,A,3336.778665,N,11749.008306,W,64.4,318.8,220310,,,A*4C
$GPRMC,014222.6,A,3336.821689,N,11749.047362,W,64.7,324.3,220310,,,A*4B
$GPRMC,014225.6,A,3336.869155,N,11749.078340,W,64.0,331.4,220310,,,A*4E
$GPRMC,014228.6,A,3336.917488,N,11749.104324,W,64.3,336.4,220310,,,A*42
$GPRMC,014231.6,A,3336.967593,N,11749.129463,W,64.6,336.8,220310,,,A*44
$GPRMC,014234.6,A,3337.017296,N,11749.154466,W,64.9,337.8,220310,,,A*4D
$GPRMC,014237.6,A,3337.067638,N,11749.180659,W,65.1,335.7,220310,,,A*4A
$GPRMC,014407.6,A,3337.084481,N,11749.574462,W,55.3,175.2,220310,,,A*45
$GPRMC,014410.6,A,3337.036045,N,11749.572438,W,57.2,177.1,220310,,,A*4D
$GPRMC,014413.6,A,3336.986879,N,11749.567688,W,58.2,176.6,220310,,,A*4E
$GPRMC,014416.6,A,3336.937986,N,11749.564370,W,56.4,178.0,220310,,,A*41
$GPRMC,014419.6,A,3336.891440,N,11749.561662,W,54.9,177.3,220310,,,A*44
$GPRMC,014422.6,A,3336.844594,N,11749.560652,W,54.8,177.7,220310,,,A*4B
$GPRMC,014425.6,A,3336.799470,N,11749.558146,W,54.6,177.1,220310,,,A*49
$GPRMC,014428.6,A,3336.754491,N,11749.553342,W,54.5,176.2,220310,,,A*46
$GPRMC,014431.6,A,3336.708522,N,11749.548791,W,54.5,176.4,220310,,,A*48
$GPRMC,014434.6,A,3336.667729,N,11749.545357,W,50.7,176.6,220310,,,A*4B
$GPRMC,014437.6,A,3336.626379,N,11749.545245,W,48.3,178.8,220310,,,A*43
$GPRMC,014440.6,A,3336.588859,N,11749.547800,W,44.2,183.0,220310,,,A*45
$GPRMC,014443.6,A,3336.552901,N,11749.554214,W,40.8,187.1,220310,,,A*4B
$GPRMC,014446.6,A,3336.529482,N,11749.558881,W,30.2,187.3,220310,,,A*41
$GPRMC,014449.6,A,3336.517841,N,11749.567390,W,22.0,198.7,220310,,,A*4C
$GPRMC,014452.6,A,3336.515319,N,11749.587745,W,20.7,238.6,220310,,,A*4D
$GPRMC,014455.6,A,3336.518662,N,11749.624320,W,30.2,263.7,220310,,,A*48
$GPRMC,014458.6,A,3336.523906,N,11749.665722,W,36.8,272.9,220310,,,A*41
$GPRMC,014501.6,A,3336.526825,N,11749.702353,W,32.7,274.3,220310,,,A*4C
$GPRMC,014504.6,A,3336.524766,N,11749.726377,W,23.3,271.2,220310,,,A*43
$GPRMC,014507.6,A,3336.527697,N,11749.742703,W,14.7,274.1,220310,,,A*4F
$GPRMC,014510.6,A,3336.530622,N,11749.753334,W,6.9,281.3,220310,,,A*74
$GPRMC,014528.6,A,3336.537397,N,11749.764303,W,7.4,297.3,220310,,,A*78
$GPRMC,014531.6,A,3336.538313,N,11749.780980,W,14.6,281.6,220310,,,A*4A
$GPRMC,014534.6,A,3336.535324,N,11749.814800,W,26.1,269.2,220310,,,A*49
$GPRMC,014537.6,A,3336.527419,N,11749.860581,W,36.2,260.3,220310,,,A*4D
$GPRMC,014540.6,A,3336.519843,N,11749.901395,W,39.0,257.8,220310,,,A*44
$GPRMC,014543.6,A,3336.509286,N,11749.943597,W,38.9,253.0,220310,,,A*43
$GPRMC,014546.6,A,3336.498070,N,11749.979900,W,37.6,248.5,220310,,,A*40
$GPRMC,014549.6,A,3336.486153,N,11750.014442,W,37.6,244.2,220310,,,A*4A
$GPRMC,014552.6,A,3336.470054,N,11750.048489,W,38.3,240.1,220310,,,A*4C
$GPRMC,014555.6,A,3336.453602,N,11750.079230,W,36.6,238.1,220310,,,A*4D
$GPRMC,014558.6,A,3336.437184,N,11750.111151,W,37.8,238.7,220310,,,A*49
$GPRMC,014601.6,A,3336.421309,N,11750.146089,W,39.7,243.4,220310,,,A*4E
$GPRMC,014604.6,A,3336.406585,N,11750.182649,W,40.3,245.9,220310,,,A*4F
$GPRMC,014607.6,A,3336.393605,N,11750.220525,W,42.4,249.5,220310,,,A*4B
$GPRMC,014610.6,A,3336.382738,N,11750.262115,W,43.9,252.9,220310,,,A*49
$GPRMC,014613.6,A,3336.375422,N,11750.304909,W,44.1,258.9,220310,,,A*4B
