NMEA Sentence Code,UTC Time,Status,Latitude,Latitude Direction,Longitude,Longitude Direction,Speed (knots),Track Angle (degrees true),Date,MagneticVariation,Magnetic Variation Direction,[FAA Mode]-Optional,Checksum
$GPRMC,160718.4,A,3243.324252,N,11709.785014,W,11.3,185.2,020810,,,A*40
$GPRMC,160721.4,A,3243.320052,N,11709.785375,W,7.3,187.7,020810,,,A*78
$GPRMC,160724.4,A,3243.314256,N,11709.786942,W,5.8,186.1,020810,,,A*7F
$GPRMC,160736.4,A,3243.300521,N,11709.776983,W,6.8,143.2,020810,,,A*75
$GPRMC,160739.4,A,3243.290641,N,11709.776179,W,7.0,160.4,020810,,,A*74
$GPRMC,160742.4,A,3243.286177,N,11709.773789,W,5.1,163.3,020810,,,A*76
$GPRMC,161018.4,A,3243.263220,N,11709.780844,W,4.5,157.7,020810,,,A*71
$GPRMC,161021.4,A,3243.256660,N,11709.778257,W,7.4,157.8,020810,,,A*7F
$GPRMC,161024.4,A,3243.247212,N,11709.773729,W,10.5,156.9,020810,,,A*4B
$GPRMC,161027.4,A,3243.234348,N,11709.774767,W,12.5,172.1,020810,,,A*43
$GPRMC,161030.4,A,3243.222204,N,11709.776103,W,11.1,181.5,020810,,,A*42
$GPRMC,161033.4,A,3243.210154,N,11709.779139,W,7.9,187.3,020810,,,A*7F
$GPRMC,161036.4,A,3243.196954,N,11709.787067,W,6.9,216.1,020810,,,A*7C
$GPRMC,161039.4,A,3243.193454,N,11709.794257,W,7.4,246.6,020810,,,A*76
$GPRMC,161042.4,A,3243.192062,N,11709.801545,W,7.6,248.4,020810,,,A*73
$GPRMC,161045.4,A,3243.188425,N,11709.807939,W,7.3,240.7,020810,,,A*77
$GPRMC,161048.4,A,3243.188154,N,11709.809735,W,4.4,245.2,020810,,,A*71
$GPRMC,161312.4,A,3243.200565,N,11709.828512,W,5.6,341.6,020810,,,A*7E
$GPRMC,161315.4,A,3243.212568,N,11709.832289,W,10.6,354.9,020810,,,A*46
$GPRMC,161318.4,A,3243.220384,N,11709.830117,W,8.7,1.6,020810,,,A*7C
$GPRMC,161321.4,A,3243.224551,N,11709.830555,W,5.5,357.0,020810,,,A*77
$GPRMC,161654.4,A,3243.228511,N,11709.834571,W,6.7,357.6,020810,,,A*7D
$GPRMC,161657.4,A,3243.235593,N,11709.833684,W,7.4,358.3,020810,,,A*7E
$GPRMC,161700.4,A,3243.240339,N,11709.833895,W,5.3,2.7,020810,,,A*7A
$GPRMC,161733.4,A,3243.258550,N,11709.835060,W,9.1,345.4,020810,,,A*73
$GPRMC,161736.4,A,3243.275274,N,11709.830118,W,15.8,358.1,020810,,,A*4E
$GPRMC,161739.4,A,3243.291702,N,11709.829224,W,17.8,359.4,020810,,,A*4D
$GPRMC,161742.4,A,3243.307343,N,11709.828367,W,17.2,1.1,020810,,,A*48
$GPRMC,161745.4,A,3243.320676,N,11709.830577,W,15.6,359.4,020810,,,A*4A
$GPRMC,161748.4,A,3243.335181,N,11709.831731,W,17.6,358.0,020810,,,A*4A
$GPRMC,161751.4,A,3243.351079,N,11709.831187,W,18.9,1.9,020810,,,A*4B
$GPRMC,161754.4,A,3243.367492,N,11709.829067,W,20.1,2.4,020810,,,A*41
$GPRMC,161757.4,A,3243.384481,N,11709.825647,W,21.9,1.8,020810,,,A*43
$GPRMC,161800.4,A,3243.406433,N,11709.825972,W,25.8,359.3,020810,,,A*43
$GPRMC,161803.4,A,3243.427075,N,11709.825809,W,23.6,359.5,020810,,,A*46
$GPRMC,161806.4,A,3243.445248,N,11709.826459,W,22.5,0.5,020810,,,A*4C
$GPRMC,161809.4,A,3243.464102,N,11709.826851,W,22.9,359.5,020810,,,A*4A
$GPRMC,161812.4,A,3243.482372,N,11709.827123,W,23.2,358.9,020810,,,A*47
$GPRMC,161815.4,A,3243.500100,N,11709.824040,W,18.5,6.6,020810,,,A*43
$GPRMC,161818.4,A,3243.509068,N,11709.825527,W,10.1,6.4,020810,,,A*43
$GPRMC,161821.4,A,3243.509148,N,11709.806089,W,15.0,87.2,020810,,,A*71
$GPRMC,161824.4,A,3243.507349,N,11709.788410,W,13.8,89.5,020810,,,A*73
$GPRMC,161827.4,A,3243.504823,N,11709.784299,W,7.6,109.6,020810,,,A*7E
$GPRMC,161830.4,A,3243.496840,N,11709.780314,W,9.6,155.9,020810,,,A*7F
$GPRMC,161833.4,A,3243.479995,N,11709.779609,W,17.2,173.5,020810,,,A*48
$GPRMC,161836.4,A,3243.458943,N,11709.781061,W,17.3,178.6,020810,,,A*43
$GPRMC,161839.4,A,3243.447885,N,11709.782945,W,12.1,187.5,020810,,,A*41
$GPRMC,161851.4,A,3243.438777,N,11709.780368,W,9.4,152.4,020810,,,A*74
$GPRMC,161854.4,A,3243.420759,N,11709.775915,W,19.0,161.3,020810,,,A*4C
$GPRMC,161857.4,A,3243.385630,N,11709.780728,W,32.1,179.5,020810,,,A*44
$GPRMC,161900.4,A,3243.358622,N,11709.780747,W,29.8,181.7,020810,,,A*4B
$GPRMC,161903.4,A,3243.336265,N,11709.781265,W,25.0,182.8,020810,,,A*4B
$GPRMC,161906.4,A,3243.321058,N,11709.783589,W,18.4,186.4,020810,,,A*41
$GPRMC,161909.4,A,3243.315975,N,11709.785948,W,10.6,197.2,020810,,,A*44
$GPRMC,161912.4,A,3243.318477,N,11709.787370,W,6.8,234.1,020810,,,A*7F
$GPRMC,161915.4,A,3243.320132,N,11709.798255,W,10.6,278.8,020810,,,A*47
$GPRMC,161918.4,A,3243.322330,N,11709.812584,W,13.0,273.4,020810,,,A*4C
$GPRMC,161921.4,A,3243.322587,N,11709.818589,W,4.6,267.9,020810,,,A*73
$GPRMC,161924.4,A,3243.326669,N,11709.824389,W,5.9,313.3,020810,,,A*7E
$GPRMC,161927.4,A,3243.340895,N,11709.827421,W,16.6,343.7,020810,,,A*4A
$GPRMC,161930.4,A,3243.357593,N,11709.830206,W,16.6,347.2,020810,,,A*45
$GPRMC,161933.4,A,3243.367726,N,11709.836894,W,13.8,332.1,020810,,,A*44
$GPRMC,161936.4,A,3243.374540,N,11709.842930,W,10.1,352.2,020810,,,A*42
