NMEA Sentence Code,UTC Time,Status,Latitude,Latitude Direction,Longitude,Longitude Direction,Speed (knots),Track Angle (degrees true),Date,MagneticVariation,Magnetic Variation Direction,[FAA Mode]-Optional,Checksum
$GPRMC,013057.000,A,3300.3321,N,11649.3285,W,3.89,241.50,91210,,,A*43
$GPRMC,013100.000,A,3300.3286,N,11649.3421,W,17.98,257.80,91210,,,A*7B
$GPRMC,013103.000,A,3300.3270,N,11649.3688,W,30.13,262.40,91210,,,A*7C
$GPRMC,013106.000,A,3300.3216,N,11649.4064,W,39.85,259.40,91210,,,A*74
$GPRMC,013109.000,A,3300.3127,N,11649.4500,W,46.17,255.90,91210,,,A*7F
$GPRMC,013112.000,A,3300.3012,N,11649.4945,W,45.68,251.20,91210,,,A*7B
$GPRMC,013115.000,A,3300.2869,N,11649.5373,W,46.17,246.00,91210,,,A*78
$GPRMC,013118.000,A,3300.2656,N,11649.5756,W,45.68,238.40,91210,,,A*72
$GPRMC,013121.000,A,3300.2419,N,11649.6121,W,45.20,236.90,91210,,,A*7B
$GPRMC,013124.000,A,3300.2231,N,11649.6481,W,42.28,237.70,91210,,,A*7D
$GPRMC,013127.000,A,3300.2044,N,11649.6820,W,41.31,238.40,91210,,,A*7E
$GPRMC,013130.000,A,3300.1895,N,11649.7197,W,42.28,241.20,91210,,,A*78
$GPRMC,013133.000,A,3300.1688,N,11649.7559,W,43.25,237.10,91210,,,A*71
$GPRMC,013136.000,A,3300.1509,N,11649.7922,W,42.28,238.30,91210,,,A*7F
$GPRMC,013139.000,A,3300.1327,N,11649.8264,W,41.79,238.30,91210,,,A*7B
$GPRMC,013142.000,A,3300.1165,N,11649.8622,W,41.31,239.70,91210,,,A*7C
$GPRMC,013145.000,A,3300.1003,N,11649.9005,W,42.28,245.00,91210,,,A*7F
$GPRMC,013149.000,A,3300.0881,N,11649.9520,W,40.34,257.80,91210,,,A*76
$GPRMC,013152.000,A,3300.0857,N,11649.9938,W,41.79,264.30,91210,,,A*71
$GPRMC,013155.000,A,3300.0819,N,11650.0316,W,36.93,259.20,91210,,,A*70
$GPRMC,013158.000,A,3300.0715,N,11650.0631,W,30.62,245.70,91210,,,A*7E
$GPRMC,013201.000,A,3300.0551,N,11650.0849,W,28.67,229.90,91210,,,A*7A
$GPRMC,013204.000,A,3300.0390,N,11650.1043,W,28.67,225.50,91210,,,A*77
$GPRMC,013207.000,A,3300.0210,N,11650.1260,W,30.62,226.90,91210,,,A*7D
$GPRMC,013210.000,A,3300.0022,N,11650.1471,W,29.65,225.30,91210,,,A*78
$GPRMC,013213.000,A,3259.9865,N,11650.1680,W,28.19,228.10,91210,,,A*7D
$GPRMC,013216.000,A,3259.9753,N,11650.1925,W,28.67,241.30,91210,,,A*76
$GPRMC,013219.000,A,3259.9652,N,11650.2167,W,27.70,244.30,91210,,,A*78
$GPRMC,013222.000,A,3259.9508,N,11650.2390,W,28.67,230.20,91210,,,A*7D
$GPRMC,013225.000,A,3259.9332,N,11650.2619,W,31.59,229.70,91210,,,A*79
$GPRMC,013228.000,A,3259.9160,N,11650.2888,W,34.02,237.10,91210,,,A*75
$GPRMC,013231.000,A,3259.9036,N,11650.3197,W,34.99,245.60,91210,,,A*79
$GPRMC,013234.000,A,3259.8967,N,11650.3526,W,34.02,256.70,91210,,,A*7F
$GPRMC,013237.000,A,3259.8940,N,11650.3848,W,32.56,262.40,91210,,,A*7F
$GPRMC,013240.000,A,3259.8929,N,11650.4185,W,33.53,265.40,91210,,,A*7C
$GPRMC,013243.000,A,3259.8901,N,11650.4524,W,33.53,264.30,91210,,,A*7C
$GPRMC,013246.000,A,3259.8852,N,11650.4852,W,34.02,262.70,91210,,,A*73
$GPRMC,013249.000,A,3259.8819,N,11650.5140,W,29.16,262.70,91210,,,A*71
$GPRMC,013251.000,A,3259.8796,N,11650.5345,W,29.65,261.80,91210,,,A*7F
$GPRMC,013255.000,A,3259.8787,N,11650.5727,W,26.73,265.90,91210,,,A*76
$GPRMC,013258.000,A,3259.8766,N,11650.5940,W,21.87,263.90,91210,,,A*71
$GPRMC,013301.000,A,3259.8774,N,11650.6140,W,18.95,267.40,91210,,,A*74
$GPRMC,013304.000,A,3259.8744,N,11650.6298,W,15.07,262.90,91210,,,A*7A
$GPRMC,013307.000,A,3259.8746,N,11650.6439,W,13.12,271.10,91210,,,A*7E
$GPRMC,013310.000,A,3259.8759,N,11650.6545,W,9.72,275.80,91210,,,A*4C
$GPRMC,013313.000,A,3259.8782,N,11650.6660,W,14.09,282.10,91210,,,A*7C
$GPRMC,013316.000,A,3259.8818,N,11650.6838,W,20.41,283.50,91210,,,A*78
$GPRMC,013319.000,A,3259.8860,N,11650.7074,W,25.76,280.90,91210,,,A*77
$GPRMC,013322.000,A,3259.8906,N,11650.7371,W,31.10,281.80,91210,,,A*7D
$GPRMC,013325.000,A,3259.9000,N,11650.7736,W,36.45,281.90,91210,,,A*75
$GPRMC,013328.000,A,3259.9015,N,11650.8114,W,38.88,272.00,91210,,,A*7F
$GPRMC,013331.000,A,3259.9001,N,11650.8519,W,40.82,266.30,91210,,,A*78
$GPRMC,013335.000,A,3259.8966,N,11650.9006,W,37.42,271.70,91210,,,A*71
$GPRMC,013338.000,A,3259.8962,N,11650.9385,W,37.91,269.10,91210,,,A*71
$GPRMC,013341.000,A,3259.8935,N,11650.9775,W,39.85,263.50,91210,,,A*73
$GPRMC,013345.000,A,3259.8775,N,11651.0221,W,37.42,247.40,91210,,,A*73
$GPRMC,013348.000,A,3259.8661,N,11651.0589,W,39.36,252.20,91210,,,A*70
$GPRMC,013351.000,A,3259.8590,N,11651.0983,W,40.34,261.00,91210,,,A*7D
$GPRMC,013354.000,A,3259.8598,N,11651.1361,W,37.91,270.70,91210,,,A*7F
$GPRMC,013357.000,A,3259.8663,N,11651.1756,W,39.36,278.00,91210,,,A*77
$GPRMC,013400.000,A,3259.8710,N,11651.2168,W,41.79,276.90,91210,,,A*7C
$GPRMC,013403.000,A,3259.8694,N,11651.2584,W,41.79,267.60,91210,,,A*7B
$GPRMC,013406.000,A,3259.8654,N,11651.2987,W,40.34,264.10,91210,,,A*71
$GPRMC,013409.000,A,3259.8683,N,11651.3397,W,40.34,274.10,91210,,,A*7F
$GPRMC,013412.000,A,3259.8744,N,11651.3767,W,36.93,283.70,91210,,,A*76
$GPRMC,013415.000,A,3259.8882,N,11651.4106,W,37.42,293.80,91210,,,A*71
$GPRMC,013418.000,A,3259.8983,N,11651.4445,W,37.42,285.40,91210,,,A*75
$GPRMC,013421.000,A,3259.9021,N,11651.4849,W,40.34,278.70,91210,,,A*7F
$GPRMC,013424.000,A,3259.9058,N,11651.5254,W,40.82,277.90,91210,,,A*7F
$GPRMC,013427.000,A,3259.9141,N,11651.5653,W,42.28,282.10,91210,,,A*76
$GPRMC,013430.000,A,3259.9245,N,11651.6057,W,41.81,287.40,91210,,,A*76
$GPRMC,013433.000,A,3259.9386,N,11651.6451,W,42.77,292.00,91210,,,A*73
$GPRMC,013436.000,A,3259.9519,N,11651.6848,W,42.77,292.80,91210,,,A*7A
$GPRMC,013439.000,A,3259.9622,N,11651.7207,W,38.39,292.80,91210,,,A*79
$GPRMC,013442.000,A,3259.9797,N,11651.7498,W,35.48,310.50,91210,,,A*77
$GPRMC,013445.000,A,3300.0093,N,11651.7708,W,37.91,333.80,91210,,,A*77
$GPRMC,013448.000,A,3300.0382,N,11651.7839,W,37.42,338.80,91210,,,A*71
$GPRMC,013451.000,A,3300.0711,N,11651.7985,W,40.34,338.60,91210,,,A*7E
$GPRMC,013454.000,A,3300.1017,N,11651.8130,W,41.31,338.10,91210,,,A*71
$GPRMC,013457.000,A,3300.1336,N,11651.8252,W,40.82,340.60,91210,,,A*74
$GPRMC,013500.000,A,3300.1645,N,11651.8452,W,41.31,330.90,91210,,,A*71
$GPRMC,013503.000,A,3300.1901,N,11651.8698,W,40.82,318.00,91210,,,A*73
$GPRMC,013506.000,A,3300.2135,N,11651.8963,W,40.83,318.00,91210,,,A*70
$GPRMC,013509.000,A,3300.2424,N,11651.9187,W,40.34,332.30,91210,,,A*7E
$GPRMC,013512.000,A,3300.2719,N,11651.9296,W,38.88,343.70,91210,,,A*70
$GPRMC,013515.000,A,3300.3040,N,11651.9402,W,40.34,347.60,91210,,,A*7B
$GPRMC,013518.000,A,3300.3396,N,11651.9415,W,42.28,02.30,91210,,,A*40
$GPRMC,013521.000,A,3300.3753,N,11651.9349,W,43.74,09.70,91210,,,A*4E
$GPRMC,013524.000,A,3300.4126,N,11651.9293,W,44.71,05.60,91210,,,A*41
$GPRMC,013527.000,A,3300.4510,N,11651.9321,W,44.22,351.30,91210,,,A*7A
$GPRMC,013530.000,A,3300.4884,N,11651.9474,W,47.14,339.10,91210,,,A*71
$GPRMC,013533.000,A,3300.5245,N,11651.9669,W,47.63,336.10,91210,,,A*75
$GPRMC,013536.000,A,3300.5598,N,11651.9839,W,45.68,339.80,91210,,,A*73
$GPRMC,013539.000,A,3300.5948,N,11651.9920,W,43.25,352.90,91210,,,A*77
$GPRMC,013542.000,A,3300.6310,N,11651.9923,W,44.22,00.10,91210,,,A*40
$GPRMC,013545.000,A,3300.6675,N,11651.9937,W,45.20,359.50,91210,,,A*7C
$GPRMC,013548.000,A,3300.7055,N,11651.9940,W,45.68,359.00,91210,,,A*7D
$GPRMC,013551.000,A,3300.7427,N,11651.9924,W,44.22,00.30,91210,,,A*45
$GPRMC,013554.000,A,3300.7782,N,11651.9919,W,42.28,358.80,91210,,,A*7B
$GPRMC,013557.000,A,3300.8118,N,11651.9910,W,38.39,359.80,91210,,,A*77
$GPRMC,013600.000,A,3300.8399,N,11651.9926,W,31.59,355.20,91210,,,A*71
$GPRMC,013604.000,A,3300.8650,N,11651.9939,W,19.44,352.40,91210,,,A*7C
$GPRMC,013607.000,A,3300.8753,N,11651.9940,W,11.18,355.10,91210,,,A*70
$GPRMC,013658.000,A,3300.8858,N,11652.0011,W,8.80,304.40,91210,,,A*41
$GPRMC,013701.000,A,3300.8902,N,11652.0259,W,23.33,276.20,91210,,,A*7F
$GPRMC,013704.000,A,3300.8882,N,11652.0621,W,33.53,268.20,91210,,,A*70
$GPRMC,013707.000,A,3300.8893,N,11652.1011,W,38.88,270.40,91210,,,A*75
$GPRMC,013711.000,A,3300.8900,N,11652.1586,W,43.74,269.00,91210,,,A*71
$GPRMC,013714.000,A,3300.8902,N,11652.2030,W,44.71,270.20,91210,,,A*75
$GPRMC,013717.000,A,3300.8896,N,11652.2470,W,44.22,270.40,91210,,,A*7A
$GPRMC,013720.000,A,3300.8930,N,11652.2919,W,44.22,272.50,91210,,,A*72
$GPRMC,013723.000,A,3300.8934,N,11652.3361,W,45.20,270.70,91210,,,A*72
$GPRMC,013727.000,A,3300.8935,N,11652.3963,W,45.68,270.30,91210,,,A*77
$GPRMC,013730.000,A,3300.8940,N,11652.4417,W,45.68,270.50,91210,,,A*7C
$GPRMC,013733.000,A,3300.8948,N,11652.4869,W,44.22,270.60,91210,,,A*7E
$GPRMC,013736.000,A,3300.8933,N,11652.5283,W,42.77,269.80,91210,,,A*78
$GPRMC,013739.000,A,3300.8943,N,11652.5707,W,42.77,269.70,91210,,,A*76
$GPRMC,013743.000,A,3300.8945,N,11652.6266,W,40.82,269.20,91210,,,A*71
$GPRMC,013746.000,A,3300.8948,N,11652.6643,W,37.42,269.70,91210,,,A*73
$GPRMC,013749.000,A,3300.8942,N,11652.7012,W,34.50,268.90,91210,,,A*7A
$GPRMC,013752.000,A,3300.8948,N,11652.7307,W,28.69,270.20,91210,,,A*78
$GPRMC,013755.000,A,3300.8968,N,11652.7550,W,20.41,272.90,91210,,,A*72
$GPRMC,013759.000,A,3300.8883,N,11652.7719,W,15.55,231.60,91210,,,A*7E
$GPRMC,013802.000,A,3300.8721,N,11652.7753,W,18.95,192.40,91210,,,A*7F
$GPRMC,013805.000,A,3300.8444,N,11652.7741,W,31.59,180.50,91210,,,A*72
$GPRMC,013808.000,A,3300.8118,N,11652.7729,W,37.91,179.30,91210,,,A*7F
$GPRMC,013811.000,A,3300.7794,N,11652.7730,W,39.36,180.20,91210,,,A*76
$GPRMC,013814.000,A,3300.7441,N,11652.7734,W,41.31,181.60,91210,,,A*71
$GPRMC,013817.000,A,3300.7108,N,11652.7744,W,40.34,181.20,91210,,,A*7D
$GPRMC,013820.000,A,3300.6752,N,11652.7748,W,41.79,180.70,91210,,,A*71
$GPRMC,013823.000,A,3300.6409,N,11652.7734,W,41.31,179.00,91210,,,A*79
$GPRMC,013826.000,A,3300.6074,N,11652.7721,W,40.82,179.10,91210,,,A*7E
$GPRMC,013829.000,A,3300.5727,N,11652.7729,W,40.34,180.20,91210,,,A*73
$GPRMC,013831.000,A,3300.5498,N,11652.7723,W,38.88,179.60,91210,,,A*7D
$GPRMC,013836.000,A,3300.5161,N,11652.7739,W,27.22,181.70,91210,,,A*7A
$GPRMC,013839.000,A,3300.5036,N,11652.7795,W,19.93,202.90,91210,,,A*71
$GPRMC,013843.000,A,3300.5021,N,11652.8161,W,27.70,269.30,91210,,,A*7F
$GPRMC,013846.000,A,3300.5014,N,11652.8481,W,34.50,270.10,91210,,,A*7D
$GPRMC,013849.000,A,3300.5040,N,11652.8872,W,41.31,271.00,91210,,,A*76
$GPRMC,013852.000,A,3300.5038,N,11652.9317,W,43.74,269.30,91210,,,A*73
$GPRMC,013855.000,A,3300.5022,N,11652.9774,W,45.68,269.60,91210,,,A*70
$GPRMC,013858.000,A,3300.5011,N,11653.0263,W,46.65,269.00,91210,,,A*7E
$GPRMC,013901.000,A,3300.5039,N,11653.0724,W,47.14,271.20,91210,,,A*73
$GPRMC,013904.000,A,3300.5057,N,11653.1182,W,46.17,271.30,91210,,,A*76
$GPRMC,013907.000,A,3300.5056,N,11653.1658,W,47.63,270.50,91210,,,A*71
$GPRMC,013910.000,A,3300.5050,N,11653.2111,W,46.65,269.90,91210,,,A*7B
$GPRMC,013913.000,A,3300.5051,N,11653.2578,W,47.14,270.70,91210,,,A*73
$GPRMC,013916.000,A,3300.5071,N,11653.3048,W,47.63,271.00,91210,,,A*75
$GPRMC,013919.000,A,3300.5075,N,11653.3529,W,48.11,270.10,91210,,,A*76
$GPRMC,013922.000,A,3300.5069,N,11653.3996,W,47.14,269.80,91210,,,A*70
$GPRMC,013925.000,A,3300.5070,N,11653.4473,W,47.14,270.10,91210,,,A*7F
$GPRMC,013928.000,A,3300.5074,N,11653.4918,W,47.14,270.30,91210,,,A*74
$GPRMC,013931.000,A,3300.5079,N,11653.5399,W,47.63,270.60,91210,,,A*76
$GPRMC,013935.000,A,3300.5087,N,11653.5999,W,45.20,270.30,91210,,,A*79
$GPRMC,013938.000,A,3300.5078,N,11653.6452,W,45.20,269.50,91210,,,A*73
$GPRMC,013941.000,A,3300.5080,N,11653.6905,W,45.68,270.10,91210,,,A*75
$GPRMC,013944.000,A,3300.5092,N,11653.7355,W,45.68,271.00,91210,,,A*7D
$GPRMC,013947.000,A,3300.5095,N,11653.7804,W,45.68,270.60,91210,,,A*71
$GPRMC,013950.000,A,3300.5098,N,11653.8259,W,46.17,270.20,91210,,,A*78
$GPRMC,013954.000,A,3300.5107,N,11653.8884,W,46.17,270.70,91210,,,A*74
$GPRMC,013958.000,A,3300.5094,N,11653.9463,W,42.77,269.30,91210,,,A*79
$GPRMC,014001.000,A,3300.5098,N,11653.9858,W,37.42,270.50,91210,,,A*79
$GPRMC,014004.000,A,3300.5098,N,11654.0080,W,34.50,269.00,91210,,,A*72
$GPRMC,014007.000,A,3300.5114,N,11654.0566,W,37.42,270.80,91210,,,A*79
$GPRMC,014010.000,A,3300.5111,N,11654.0948,W,40.34,269.80,91210,,,A*73
$GPRMC,014013.000,A,3300.5114,N,11654.1374,W,42.77,270.80,91210,,,A*7C
$GPRMC,014016.000,A,3300.5119,N,11654.1790,W,41.31,269.60,91210,,,A*7D
$GPRMC,014019.000,A,3300.5123,N,11654.2178,W,37.91,270.80,91210,,,A*75
$GPRMC,014023.000,A,3300.5211,N,11654.2650,W,34.99,291.00,91210,,,A*7F
$GPRMC,014026.000,A,3300.5403,N,11654.2913,W,34.02,316.10,91210,,,A*7A
$GPRMC,014029.000,A,3300.5664,N,11654.3137,W,39.36,323.50,91210,,,A*71
$GPRMC,014032.000,A,3300.5961,N,11654.3384,W,43.74,324.50,91210,,,A*77
$GPRMC,014035.000,A,3300.6263,N,11654.3663,W,45.68,323.00,91210,,,A*7F
$GPRMC,014039.000,A,3300.6682,N,11654.4031,W,46.17,323.20,91210,,,A*77
$GPRMC,014042.000,A,3300.6972,N,11654.4292,W,44.71,323.80,91210,,,A*78
$GPRMC,014045.000,A,3300.7269,N,11654.4537,W,42.28,324.40,91210,,,A*76
$GPRMC,014048.000,A,3300.7543,N,11654.4775,W,39.36,321.10,91210,,,A*73
$GPRMC,014051.000,A,3300.7749,N,11654.4974,W,28.67,322.40,91210,,,A*7E
$GPRMC,014054.000,A,3300.7869,N,11654.5110,W,18.47,309.20,91210,,,A*73
$GPRMC,014057.000,A,3300.7894,N,11654.5250,W,14.09,276.40,91210,,,A*7C
$GPRMC,014100.000,A,3300.7748,N,11654.5407,W,22.84,230.20,91210,,,A*71
$GPRMC,014103.000,A,3300.7537,N,11654.5643,W,32.56,227.50,91210,,,A*75
$GPRMC,014106.000,A,3300.7337,N,11654.5896,W,35.96,227.50,91210,,,A*7B
$GPRMC,014109.000,A,3300.7117,N,11654.6180,W,40.34,228.40,91210,,,A*7D
$GPRMC,014113.000,A,3300.6776,N,11654.6607,W,46.17,226.60,91210,,,A*75
$GPRMC,014116.000,A,3300.6490,N,11654.6950,W,48.11,226.70,91210,,,A*7F
$GPRMC,014119.000,A,3300.6243,N,11654.7307,W,48.11,228.70,91210,,,A*7F
$GPRMC,014122.000,A,3300.5961,N,11654.7651,W,48.11,227.60,91210,,,A*77
$GPRMC,014125.000,A,3300.5704,N,11654.8021,W,49.08,232.30,91210,,,A*7B
$GPRMC,014128.000,A,3300.5497,N,11654.8444,W,49.08,242.40,91210,,,A*78
$GPRMC,014131.000,A,3300.5376,N,11654.8886,W,47.14,253.10,91210,,,A*7C
$GPRMC,014134.000,A,3300.5385,N,11654.9348,W,44.22,270.60,91210,,,A*7D
$GPRMC,014137.000,A,3300.5492,N,11654.9767,W,42.77,287.10,91210,,,A*7F
$GPRMC,014140.000,A,3300.5649,N,11655.0171,W,44.71,291.90,91210,,,A*7D
$GPRMC,014143.000,A,3300.5847,N,11655.0637,W,49.08,291.10,91210,,,A*70
$GPRMC,014146.000,A,3300.5976,N,11655.1123,W,49.57,284.00,91210,,,A*7A
$GPRMC,014149.000,A,3300.6024,N,11655.1469,W,51.51,277.60,91210,,,A*76
$GPRMC,014152.000,A,3300.5958,N,11655.2083,W,47.63,259.30,91210,,,A*71
$GPRMC,014155.000,A,3300.5814,N,11655.2528,W,48.60,249.10,91210,,,A*74
$GPRMC,014159.000,A,3300.5576,N,11655.3081,W,47.63,242.70,91210,,,A*77
$GPRMC,014201.000,A,3300.5445,N,11655.3355,W,47.14,241.60,91210,,,A*70
$GPRMC,014205.000,A,3300.5270,N,11655.3814,W,46.65,245.40,91210,,,A*7B
$GPRMC,014208.000,A,3300.5148,N,11655.4255,W,48.11,253.00,91210,,,A*78
$GPRMC,014211.000,A,3300.5170,N,11655.4727,W,46.17,274.00,91210,,,A*76
$GPRMC,014214.000,A,3300.5244,N,11655.5150,W,42.77,283.90,91210,,,A*73
$GPRMC,014217.000,A,3300.5435,N,11655.5506,W,44.22,301.60,91210,,,A*75
$GPRMC,014220.000,A,3300.5709,N,11655.5985,W,45.20,302.70,91210,,,A*7B
$GPRMC,014223.000,A,3300.5876,N,11655.6406,W,46.65,296.20,91210,,,A*71
$GPRMC,014226.000,A,3300.6022,N,11655.6830,W,45.68,291.50,91210,,,A*79
$GPRMC,014229.000,A,3300.6148,N,11655.7247,W,43.74,290.60,91210,,,A*79
$GPRMC,014232.000,A,3300.6280,N,11655.7629,W,41.79,290.70,91210,,,A*76
$GPRMC,014235.000,A,3300.6399,N,11655.8018,W,41.79,290.60,91210,,,A*72
$GPRMC,014238.000,A,3300.6516,N,11655.8424,W,42.28,289.50,91210,,,A*79
$GPRMC,014241.000,A,3300.6588,N,11655.8784,W,39.36,282.00,91210,,,A*74
$GPRMC,014244.000,A,3300.6623,N,11655.9180,W,40.34,274.50,91210,,,A*70
$GPRMC,014247.000,A,3300.6616,N,11655.9574,W,41.31,270.10,91210,,,A*7E
$GPRMC,014250.000,A,3300.6637,N,11655.9977,W,40.82,272.50,91210,,,A*7B
$GPRMC,014253.000,A,3300.6619,N,11656.0363,W,37.91,269.70,91210,,,A*7B
$GPRMC,014256.000,A,3300.6648,N,11656.0742,W,35.48,271.50,91210,,,A*70
$GPRMC,014259.000,A,3300.6650,N,11656.1100,W,34.99,268.90,91210,,,A*7E
$GPRMC,014302.000,A,3300.6629,N,11656.1433,W,34.02,266.70,91210,,,A*78
$GPRMC,014305.000,A,3300.6584,N,11656.1729,W,31.10,263.80,91210,,,A*7F
$GPRMC,014308.000,A,3300.6557,N,11656.2018,W,28.67,264.90,91210,,,A*74
$GPRMC,014311.000,A,3300.6533,N,11656.2321,W,33.05,264.70,91210,,,A*77
$GPRMC,014314.000,A,3300.6508,N,11656.2680,W,37.42,265.00,91210,,,A*75
$GPRMC,014317.000,A,3300.6485,N,11656.3087,W,41.31,265.90,91210,,,A*7E
$GPRMC,014320.000,A,3300.6466,N,11656.3532,W,44.71,266.00,91210,,,A*77
$GPRMC,014323.000,A,3300.6425,N,11656.3986,W,47.63,264.90,91210,,,A*7B
$GPRMC,014326.000,A,3300.6366,N,11656.4471,W,50.06,263.30,91210,,,A*74
$GPRMC,014329.000,A,3300.6384,N,11656.4991,W,50.06,269.30,91210,,,A*7E
$GPRMC,014332.000,A,3300.6436,N,11656.5469,W,48.11,278.20,91210,,,A*7F
$GPRMC,014335.000,A,3300.6520,N,11656.5940,W,47.63,283.70,91210,,,A*73
$GPRMC,014338.000,A,3300.6626,N,11656.6389,W,46.65,284.20,91210,,,A*72
$GPRMC,014341.000,A,3300.6706,N,11656.6843,W,47.14,281.00,91210,,,A*72
$GPRMC,014344.000,A,3300.6764,N,11656.7311,W,47.63,277.40,91210,,,A*73
$GPRMC,014348.000,A,3300.6815,N,11656.7948,W,48.60,275.70,91210,,,A*7D
$GPRMC,014351.000,A,3300.6852,N,11656.8427,W,48.11,277.40,91210,,,A*7A
$GPRMC,014354.000,A,3300.6957,N,11656.8882,W,46.17,287.50,91210,,,A*7E
$GPRMC,014357.000,A,3300.7077,N,11656.9280,W,45.20,290.20,91210,,,A*78
$GPRMC,014400.000,A,3300.7219,N,11656.9714,W,47.63,290.70,91210,,,A*7F
$GPRMC,014403.000,A,3300.7371,N,11657.0184,W,50.06,290.10,91210,,,A*77
$GPRMC,014405.000,A,3300.7461,N,11657.0493,W,48.60,289.30,91210,,,A*77
$GPRMC,014409.000,A,3300.7568,N,11657.1100,W,47.63,279.70,91210,,,A*7A
$GPRMC,014412.000,A,3300.7502,N,11657.1563,W,46.65,259.60,91210,,,A*79
$GPRMC,014415.000,A,3300.7354,N,11657.2003,W,46.17,248.20,91210,,,A*7A
$GPRMC,014418.000,A,3300.7092,N,11657.2337,W,46.65,227.90,91210,,,A*7D
$GPRMC,014421.000,A,3300.6793,N,11657.2634,W,45.68,218.60,91210,,,A*7B
$GPRMC,014425.000,A,3300.6369,N,11657.2769,W,50.06,193.70,91210,,,A*7A
$GPRMC,014428.000,A,3300.5798,N,11657.2856,W,51.03,190.10,91210,,,A*7C
$GPRMC,014431.000,A,3300.5372,N,11657.2987,W,51.51,195.30,91210,,,A*79
$GPRMC,014434.000,A,3300.4947,N,11657.3147,W,52.49,197.30,91210,,,A*7C
$GPRMC,014437.000,A,3300.4518,N,11657.3315,W,52.49,198.00,91210,,,A*70
$GPRMC,014440.000,A,3300.4112,N,11657.3445,W,50.54,197.30,91210,,,A*7E
$GPRMC,014443.000,A,3300.3710,N,11657.3587,W,50.54,198.10,91210,,,A*7C
$GPRMC,014446.000,A,3300.3304,N,11657.3777,W,51.51,201.90,91210,,,A*7A
$GPRMC,014449.000,A,3300.2916,N,11657.3979,W,51.51,205.40,91210,,,A*74
$GPRMC,014452.000,A,3300.2540,N,11657.4208,W,50.54,207.10,91210,,,A*78
$GPRMC,014455.000,A,3300.2173,N,11657.4436,W,50.54,207.50,91210,,,A*74
$GPRMC,014458.000,A,3300.1811,N,11657.4646,W,49.57,200.20,91210,,,A*79
$GPRMC,014501.000,A,3300.1428,N,11657.4770,W,49.08,191.60,91210,,,A*73
$GPRMC,014504.000,A,3300.1023,N,11657.4836,W,49.08,188.00,91210,,,A*7A
$GPRMC,014507.000,A,3300.0619,N,11657.4909,W,49.08,188.30,91210,,,A*79
$GPRMC,014510.000,A,3300.0176,N,11657.4988,W,51.03,191.90,91210,,,A*78
$GPRMC,014513.000,A,3259.9766,N,11657.5170,W,53.94,202.60,91210,,,A*7C
$GPRMC,014516.000,A,3259.9455,N,11657.5514,W,51.51,219.30,91210,,,A*78
$GPRMC,014519.000,A,3259.9226,N,11657.5898,W,49.08,230.10,91210,,,A*70
$GPRMC,014522.000,A,3259.9099,N,11657.6393,W,51.03,247.30,91210,,,A*7D
$GPRMC,014525.000,A,3259.9040,N,11657.6928,W,52.97,258.60,91210,,,A*71
$GPRMC,014529.000,A,3259.8991,N,11657.7614,W,52.49,262.40,91210,,,A*70
$GPRMC,014532.000,A,3259.8916,N,11657.8100,W,50.54,260.10,91210,,,A*71
$GPRMC,014535.000,A,3259.8858,N,11657.8592,W,49.57,262.00,91210,,,A*7A
$GPRMC,014538.000,A,3259.8763,N,11657.9082,W,49.08,259.70,91210,,,A*70
$GPRMC,014541.000,A,3259.8709,N,11657.9387,W,48.60,256.30,91210,,,A*70
$GPRMC,014544.000,A,3259.8531,N,11657.9971,W,48.11,249.50,91210,,,A*71
$GPRMC,014547.000,A,3259.8359,N,11658.0440,W,50.54,247.40,91210,,,A*74
$GPRMC,014550.000,A,3259.8174,N,11658.0891,W,50.54,246.60,91210,,,A*7C
$GPRMC,014553.000,A,3259.8026,N,11658.1359,W,50.54,249.80,91210,,,A*76
$GPRMC,014556.000,A,3259.7938,N,11658.1670,W,50.06,253.50,91210,,,A*75
$GPRMC,014559.000,A,3259.7845,N,11658.2318,W,50.06,261.30,91210,,,A*7E
$GPRMC,014602.000,A,3259.7772,N,11658.2804,W,50.54,260.00,91210,,,A*7B
$GPRMC,014605.000,A,3259.7689,N,11658.3265,W,50.54,255.10,91210,,,A*72
$GPRMC,014608.000,A,3259.7529,N,11658.3736,W,51.03,250.90,91210,,,A*7B
$GPRMC,014611.000,A,3259.7396,N,11658.4219,W,50.54,251.40,91210,,,A*71
$GPRMC,014615.000,A,3259.7212,N,11658.4834,W,49.57,250.30,91210,,,A*70
$GPRMC,014618.000,A,3259.7016,N,11658.5270,W,49.08,240.10,91210,,,A*79
$GPRMC,014621.000,A,3259.6790,N,11658.5676,W,49.57,235.30,91210,,,A*73
$GPRMC,014624.000,A,3259.6530,N,11658.6075,W,50.06,233.60,91210,,,A*77
$GPRMC,014627.000,A,3259.6267,N,11658.6462,W,50.06,231.90,91210,,,A*7E
$GPRMC,014630.000,A,3259.5956,N,11658.6828,W,50.55,224.10,91210,,,A*7A
$GPRMC,014633.000,A,3259.5646,N,11658.7146,W,49.58,216.80,91210,,,A*7A
$GPRMC,014636.000,A,3259.5256,N,11658.7378,W,51.52,205.60,91210,,,A*7A
$GPRMC,014639.000,A,3259.4855,N,11658.7539,W,51.04,196.90,91210,,,A*7B
$GPRMC,014642.000,A,3259.4439,N,11658.7632,W,51.52,187.30,91210,,,A*70
$GPRMC,014645.000,A,3259.4010,N,11658.7663,W,51.03,179.50,91210,,,A*7F
$GPRMC,014648.000,A,3259.3586,N,11658.7567,W,51.03,165.50,91210,,,A*75
$GPRMC,014651.000,A,3259.3210,N,11658.7366,W,50.06,152.40,91210,,,A*73
$GPRMC,014654.000,A,3259.2880,N,11658.7069,W,48.60,139.00,91210,,,A*78
$GPRMC,014657.000,A,3259.2615,N,11658.6710,W,48.60,128.70,91210,,,A*76
$GPRMC,014700.000,A,3259.2394,N,11658.6319,W,49.08,124.80,91210,,,A*78
$GPRMC,014703.000,A,3259.2161,N,11658.5940,W,48.60,130.80,91210,,,A*7C
$GPRMC,014707.000,A,3259.1739,N,11658.5498,W,50.54,143.40,91210,,,A*7E
$GPRMC,014710.000,A,3259.1364,N,11658.5252,W,50.54,153.90,91210,,,A*78
$GPRMC,014713.000,A,3259.0962,N,11658.5075,W,51.51,163.40,91210,,,A*7B
$GPRMC,014716.000,A,3259.0524,N,11658.4968,W,51.03,168.60,91210,,,A*7A
$GPRMC,014719.000,A,3259.0117,N,11658.4884,W,50.06,169.70,91210,,,A*76
$GPRMC,014722.000,A,3258.9709,N,11658.4807,W,50.06,170.30,91210,,,A*78
$GPRMC,014725.000,A,3258.9318,N,11658.4729,W,49.08,170.20,91210,,,A*7F
$GPRMC,014728.000,A,3258.8904,N,11658.4623,W,49.57,167.80,91210,,,A*79
$GPRMC,014731.000,A,3258.8527,N,11658.4535,W,46.17,169.00,91210,,,A*75
$GPRMC,014734.000,A,3258.8176,N,11658.4459,W,43.25,167.90,91210,,,A*78
$GPRMC,014737.000,A,3258.7829,N,11658.4363,W,40.82,166.20,91210,,,A*7D
$GPRMC,014740.000,A,3258.7530,N,11658.4265,W,34.50,164.80,91210,,,A*7B
$GPRMC,014743.000,A,3258.7298,N,11658.4209,W,24.79,170.00,91210,,,A*70
$GPRMC,014746.000,A,3258.7122,N,11658.4229,W,22.84,193.20,91210,,,A*7E
$GPRMC,014748.000,A,3258.7061,N,11658.4363,W,23.33,231.30,91210,,,A*7E
$GPRMC,014752.000,A,3258.6991,N,11658.4750,W,31.59,257.70,91210,,,A*7D
$GPRMC,014755.000,A,3258.6950,N,11658.5108,W,36.45,261.80,91210,,,A*7D
$GPRMC,014758.000,A,3258.6893,N,11658.5512,W,41.79,261.60,91210,,,A*70
$GPRMC,014801.000,A,3258.6856,N,11658.5933,W,44.71,261.60,91210,,,A*78
$GPRMC,014804.000,A,3258.6790,N,11658.6392,W,46.17,260.80,91210,,,A*77
$GPRMC,014807.000,A,3258.6695,N,11658.6836,W,46.65,257.00,91210,,,A*7C
$GPRMC,014810.000,A,3258.6651,N,11658.7285,W,46.17,262.40,91210,,,A*76
$GPRMC,014813.000,A,3258.6627,N,11658.7717,W,42.77,266.10,91210,,,A*79
$GPRMC,014816.000,A,3258.6645,N,11658.8129,W,42.28,272.20,91210,,,A*70
$GPRMC,014819.000,A,3258.6689,N,11658.8570,W,42.77,277.80,91210,,,A*72
$GPRMC,014822.000,A,3258.6732,N,11658.8965,W,41.79,279.10,91210,,,A*79
$GPRMC,014825.000,A,3258.6814,N,11658.9379,W,42.77,283.10,91210,,,A*7B
$GPRMC,014828.000,A,3258.6886,N,11658.9800,W,42.28,281.30,91210,,,A*72
$GPRMC,014831.000,A,3258.6951,N,11659.0206,W,42.77,281.10,91210,,,A*7D
$GPRMC,014834.000,A,3258.7039,N,11659.0641,W,43.74,280.30,91210,,,A*78
$GPRMC,014838.000,A,3258.7081,N,11659.1201,W,41.79,276.60,91210,,,A*75
$GPRMC,014841.000,A,3258.7097,N,11659.1580,W,36.93,274.10,91210,,,A*73
$GPRMC,014845.000,A,3258.7122,N,11659.2028,W,34.99,272.30,91210,,,A*70
$GPRMC,014848.000,A,3258.7122,N,11659.2392,W,35.96,265.40,91210,,,A*70
$GPRMC,014851.000,A,3258.7039,N,11659.2731,W,35.48,250.00,91210,,,A*7F
$GPRMC,014854.000,A,3258.6875,N,11659.3035,W,36.45,234.10,91210,,,A*74
$GPRMC,014857.000,A,3258.6673,N,11659.3313,W,37.91,231.50,91210,,,A*71
$GPRMC,014900.000,A,3258.6525,N,11659.3631,W,37.91,244.10,91210,,,A*71
$GPRMC,014903.000,A,3258.6433,N,11659.4001,W,38.39,257.10,91210,,,A*79
$GPRMC,014906.000,A,3258.6381,N,11659.4382,W,38.88,260.10,91210,,,A*74
$GPRMC,014909.000,A,3258.6318,N,11659.4741,W,37.42,257.90,91210,,,A*75
$GPRMC,014910.000,A,3258.6288,N,11659.4868,W,38.39,256.80,91210,,,A*72
$GPRMC,014910.000,A,3258.6288,N,11659.4868,W,38.39,256.80,91210,,,A*72
$GPRMC,014911.000,A,3258.6261,N,11659.4994,W,38.39,255.80,91210,,,A*75
$GPRMC,014915.000,A,3258.6150,N,11659.5450,W,38.41,253.10,91210,,,A*74
$GPRMC,014918.000,A,3258.6061,N,11659.5823,W,39.36,256.80,91210,,,A*7F
$GPRMC,014921.000,A,3258.6018,N,11659.6213,W,37.91,261.30,91210,,,A*7D
$GPRMC,014924.000,A,3258.5982,N,11659.6558,W,36.45,263.10,91210,,,A*71
$GPRMC,014927.000,A,3258.5942,N,11659.6907,W,36.45,262.80,91210,,,A*70
$GPRMC,014930.000,A,3258.5904,N,11659.7267,W,35.96,263.10,91210,,,A*7D
$GPRMC,014933.000,A,3258.5812,N,11659.7601,W,35.96,253.30,91210,,,A*7D
$GPRMC,014936.000,A,3258.5728,N,11659.7947,W,36.93,253.90,91210,,,A*7F
$GPRMC,014939.000,A,3258.5661,N,11659.8312,W,37.91,260.30,91210,,,A*70
$GPRMC,014942.000,A,3258.5691,N,11659.8677,W,36.93,273.20,91210,,,A*75
$GPRMC,014945.000,A,3258.5711,N,11659.9051,W,37.42,276.40,91210,,,A*76
$GPRMC,014948.000,A,3258.5727,N,11659.9397,W,35.49,271.90,91210,,,A*74
$GPRMC,014951.000,A,3258.5691,N,11659.9743,W,34.99,259.90,91210,,,A*7B
$GPRMC,014954.000,A,3258.5600,N,11700.0076,W,35.49,248.70,91210,,,A*71
$GPRMC,014957.000,A,3258.5453,N,11700.0371,W,35.96,236.20,91210,,,A*7C
$GPRMC,015000.000,A,3258.5274,N,11700.0666,W,36.93,233.30,91210,,,A*74
$GPRMC,015003.000,A,3258.5068,N,11700.0983,W,39.36,233.80,91210,,,A*77
$GPRMC,015006.000,A,3258.4894,N,11700.1279,W,37.92,233.30,91210,,,A*7C
$GPRMC,015009.000,A,3258.4694,N,11700.1577,W,37.91,232.00,91210,,,A*75
$GPRMC,015012.000,A,3258.4501,N,11700.1874,W,36.45,233.10,91210,,,A*76
$GPRMC,015015.000,A,3258.4395,N,11700.2101,W,38.88,238.90,91210,,,A*7E
$GPRMC,015018.000,A,3258.4208,N,11700.2577,W,41.31,246.70,91210,,,A*78
$GPRMC,015021.000,A,3258.4094,N,11700.2958,W,41.31,250.90,91210,,,A*7D
$GPRMC,015024.000,A,3258.3979,N,11700.3340,W,40.34,250.80,91210,,,A*72
$GPRMC,015027.000,A,3258.3872,N,11700.3725,W,40.34,251.70,91210,,,A*72
$GPRMC,015030.000,A,3258.3778,N,11700.4099,W,38.39,251.50,91210,,,A*76
$GPRMC,015033.000,A,3258.3681,N,11700.4465,W,37.91,250.70,91210,,,A*7B
$GPRMC,015036.000,A,3258.3583,N,11700.4805,W,35.96,255.60,91210,,,A*74
$GPRMC,015039.000,A,3258.3563,N,11700.5158,W,35.49,267.30,91210,,,A*73
$GPRMC,015042.000,A,3258.3560,N,11700.5514,W,36.93,266.60,91210,,,A*70
$GPRMC,015045.000,A,3258.3536,N,11700.5849,W,35.96,263.60,91210,,,A*72
$GPRMC,015048.000,A,3258.3482,N,11700.6216,W,37.91,261.40,91210,,,A*77
$GPRMC,015051.000,A,3258.3435,N,11700.6577,W,37.42,261.30,91210,,,A*7A
$GPRMC,015054.000,A,3258.3376,N,11700.6942,W,37.91,258.50,91210,,,A*77
$GPRMC,015057.000,A,3258.3274,N,11700.7295,W,37.42,250.50,91210,,,A*71
$GPRMC,015100.000,A,3258.3125,N,11700.7616,W,37.42,241.70,91210,,,A*78
$GPRMC,015103.000,A,3258.2967,N,11700.7847,W,38.89,233.30,91210,,,A*77
$GPRMC,015106.000,A,3258.2780,N,11700.8159,W,38.89,231.80,91210,,,A*75
$GPRMC,015108.000,A,3258.2649,N,11700.8375,W,40.93,233.50,91210,,,A*78
$GPRMC,015112.000,A,3258.2348,N,11700.8874,W,39.38,235.50,91210,,,A*74
$GPRMC,015115.000,A,3258.2190,N,11700.9171,W,32.56,236.70,91210,,,A*7B
$GPRMC,015118.000,A,3258.2062,N,11700.9396,W,23.81,236.90,91210,,,A*75
$GPRMC,015121.000,A,3258.2002,N,11700.9529,W,15.55,264.00,91210,,,A*79
$GPRMC,015124.000,A,3258.2072,N,11700.9660,W,14.09,315.00,91210,,,A*7A
$GPRMC,015127.000,A,3258.2287,N,11700.9739,W,27.22,344.40,91210,,,A*75
$GPRMC,015130.000,A,3258.2547,N,11700.9810,W,31.59,346.30,91210,,,A*72
$GPRMC,015133.000,A,3258.2824,N,11700.9917,W,33.05,344.60,91210,,,A*73
$GPRMC,015135.000,A,3258.2999,N,11700.9966,W,32.56,345.60,91210,,,A*72
$GPRMC,015139.000,A,3258.3344,N,11701.0048,W,30.13,346.50,91210,,,A*7B
$GPRMC,015142.000,A,3258.3564,N,11701.0145,W,28.67,335.70,91210,,,A*73
$GPRMC,015145.000,A,3258.3767,N,11701.0311,W,29.16,317.60,91210,,,A*70
$GPRMC,015148.000,A,3258.3929,N,11701.0582,W,32.56,301.70,91210,,,A*7D
$GPRMC,015151.000,A,3258.4058,N,11701.0877,W,34.02,296.50,91210,,,A*70
$GPRMC,015154.000,A,3258.4185,N,11701.1185,W,35.96,297.40,91210,,,A*7D
$GPRMC,015158.000,A,3258.4368,N,11701.1624,W,38.39,295.20,91210,,,A*70
$GPRMC,015201.000,A,3258.4497,N,11701.1980,W,39.36,293.40,91210,,,A*77
$GPRMC,015204.000,A,3258.4637,N,11701.2343,W,40.82,294.80,91210,,,A*76
$GPRMC,015207.000,A,3258.4773,N,11701.2707,W,40.34,294.10,91210,,,A*74
$GPRMC,015210.000,A,3258.4931,N,11701.3040,W,37.91,299.10,91210,,,A*7D
$GPRMC,015213.000,A,3258.5126,N,11701.3362,W,38.39,309.40,91210,,,A*72
$GPRMC,015216.000,A,3258.5351,N,11701.3600,W,36.93,320.90,91210,,,A*7C
$GPRMC,015219.000,A,3258.5600,N,11701.3759,W,35.48,334.20,91210,,,A*74
$GPRMC,015222.000,A,3258.5878,N,11701.3888,W,34.50,344.80,91210,,,A*7B
$GPRMC,015225.000,A,3258.6147,N,11701.3916,W,32.56,353.40,91210,,,A*76
$GPRMC,015228.000,A,3258.6398,N,11701.3931,W,28.19,358.00,91210,,,A*71
$GPRMC,015231.000,A,3258.6611,N,11701.3952,W,21.87,357.90,91210,,,A*70
$GPRMC,015234.000,A,3258.6720,N,11701.3951,W,11.66,355.10,91210,,,A*73
$GPRMC,015340.000,A,3258.6814,N,11701.3984,W,6.32,325.50,91210,,,A*45
$GPRMC,015343.000,A,3258.6933,N,11701.4199,W,18.95,297.00,91210,,,A*7E
$GPRMC,015346.000,A,3258.6920,N,11701.4711,W,41.31,271.80,91210,,,A*7D
$GPRMC,015349.000,A,3258.6928,N,11701.5167,W,43.25,270.40,91210,,,A*76
$GPRMC,015352.000,A,3258.6922,N,11701.5594,W,42.28,270.40,91210,,,A*72
$GPRMC,015355.000,A,3258.6951,N,11701.5984,W,36.45,272.60,91210,,,A*74
$GPRMC,015358.000,A,3258.6942,N,11701.6276,W,25.76,270.30,91210,,,A*7B
$GPRMC,015401.000,A,3258.6967,N,11701.6453,W,13.12,272.10,91210,,,A*71
$GPRMC,015413.000,A,3258.6981,N,11701.6555,W,10.21,271.10,91210,,,A*7D
$GPRMC,015416.000,A,3258.6970,N,11701.6737,W,22.84,270.40,91210,,,A*7A
$GPRMC,015419.000,A,3258.6980,N,11701.7078,W,35.96,272.60,91210,,,A*72
$GPRMC,015422.000,A,3258.6995,N,11701.7513,W,44.22,271.90,91210,,,A*73
$GPRMC,015425.000,A,3258.6983,N,11701.7965,W,46.17,270.60,91210,,,A*74
$GPRMC,015428.000,A,3258.7000,N,11701.8427,W,46.17,272.00,91210,,,A*7A
$GPRMC,015431.000,A,3258.7015,N,11701.8857,W,43.25,273.00,91210,,,A*78
$GPRMC,015435.000,A,3258.7030,N,11701.9317,W,41.79,271.00,91210,,,A*7C
$GPRMC,015438.000,A,3258.7037,N,11701.9734,W,42.28,271.10,91210,,,A*75
$GPRMC,015441.000,A,3258.7043,N,11702.0148,W,41.79,270.70,91210,,,A*7F
$GPRMC,015444.000,A,3258.7041,N,11702.0557,W,40.34,269.20,91210,,,A*77
$GPRMC,015447.000,A,3258.7039,N,11702.0910,W,38.39,269.90,91210,,,A*7D
$GPRMC,015450.000,A,3258.7036,N,11702.1369,W,32.07,270.00,91210,,,A*77
$GPRMC,015453.000,A,3258.7009,N,11702.1621,W,23.81,264.70,91210,,,A*7D
$GPRMC,015456.000,A,3258.6987,N,11702.1792,W,15.07,262.30,91210,,,A*76
$GPRMC,015459.000,A,3258.6953,N,11702.1945,W,19.44,260.40,91210,,,A*7A
$GPRMC,015502.000,A,3258.6878,N,11702.2226,W,31.10,250.60,91210,,,A*7A
$GPRMC,015505.000,A,3258.6751,N,11702.2554,W,39.85,242.90,91210,,,A*73
$GPRMC,015508.000,A,3258.6542,N,11702.2903,W,42.77,235.30,91210,,,A*7B
$GPRMC,015511.000,A,3258.6310,N,11702.3212,W,41.79,228.90,91210,,,A*73
$GPRMC,015514.000,A,3258.6053,N,11702.3489,W,41.31,217.40,91210,,,A*7B
$GPRMC,015517.000,A,3258.5750,N,11702.3717,W,42.77,211.80,91210,,,A*70
$GPRMC,015520.000,A,3258.5441,N,11702.3943,W,42.77,212.90,91210,,,A*7A
$GPRMC,015523.000,A,3258.5153,N,11702.4210,W,43.74,219.00,91210,,,A*75
$GPRMC,015526.000,A,3258.4928,N,11702.4529,W,42.28,233.80,91210,,,A*70
$GPRMC,015529.000,A,3258.4739,N,11702.4896,W,42.77,242.50,91210,,,A*79
$GPRMC,015532.000,A,3258.4706,N,11702.5334,W,43.74,266.20,91210,,,A*7E
$GPRMC,015535.000,A,3258.4765,N,11702.5774,W,43.25,281.90,91210,,,A*7A
$GPRMC,015538.000,A,3258.4912,N,11702.6163,W,42.78,296.40,91210,,,A*78
$GPRMC,015541.000,A,3258.5128,N,11702.6526,W,43.74,305.00,91210,,,A*71
$GPRMC,015543.000,A,3258.5282,N,11702.6752,W,43.74,307.70,91210,,,A*74
$GPRMC,015547.000,A,3258.5559,N,11702.7247,W,44.71,303.10,91210,,,A*71
$GPRMC,015550.000,A,3258.5743,N,11702.7582,W,41.31,301.50,91210,,,A*77
$GPRMC,015553.000,A,3258.5896,N,11702.7946,W,41.79,298.50,91210,,,A*7A
$GPRMC,015556.000,A,3258.6063,N,11702.8298,W,40.82,299.10,91210,,,A*79
$GPRMC,015559.000,A,3258.6234,N,11702.8670,W,40.82,299.30,91210,,,A*76
$GPRMC,015602.000,A,3258.6425,N,11702.9036,W,42.28,300.50,91210,,,A*7D
$GPRMC,015605.000,A,3258.6603,N,11702.9413,W,43.74,298.20,91210,,,A*70
$GPRMC,015608.000,A,3258.6728,N,11702.9790,W,41.79,289.60,91210,,,A*76
$GPRMC,015611.000,A,3258.6770,N,11703.0152,W,35.96,281.90,91210,,,A*76
$GPRMC,015614.000,A,3258.6782,N,11703.0391,W,24.30,279.40,91210,,,A*75
$GPRMC,015617.000,A,3258.6796,N,11703.0553,W,17.98,277.40,91210,,,A*77
$GPRMC,015620.000,A,3258.6796,N,11703.0693,W,12.15,275.60,91210,,,A*7C
$GPRMC,015650.000,A,3258.6823,N,11703.0934,W,12.15,280.40,91210,,,A*70
$GPRMC,015653.000,A,3258.6820,N,11703.1354,W,29.65,274.70,91210,,,A*7A
$GPRMC,015656.000,A,3258.6877,N,11703.1742,W,35.96,278.60,91210,,,A*72
$GPRMC,015659.000,A,3258.6935,N,11703.2116,W,38.88,279.40,91210,,,A*7F
$GPRMC,015702.000,A,3258.6995,N,11703.2518,W,41.31,279.40,91210,,,A*7C
$GPRMC,015704.000,A,3258.7018,N,11703.2790,W,41.31,277.70,91210,,,A*78
$GPRMC,015708.000,A,3258.7090,N,11703.3344,W,40.82,281.80,91210,,,A*77
$GPRMC,015712.000,A,3258.7276,N,11703.3837,W,38.39,293.80,91210,,,A*75
$GPRMC,015715.000,A,3258.7427,N,11703.4174,W,36.93,299.40,91210,,,A*71
$GPRMC,015718.000,A,3258.7575,N,11703.4440,W,33.53,303.00,91210,,,A*77
$GPRMC,015721.000,A,3258.7710,N,11703.4691,W,28.19,308.10,91210,,,A*7C
$GPRMC,015724.000,A,3258.7856,N,11703.4873,W,23.81,315.60,91210,,,A*77
$GPRMC,015726.000,A,3258.7934,N,11703.4950,W,18.47,318.00,91210,,,A*79
$GPRMC,015730.000,A,3258.7999,N,11703.5031,W,6.80,316.50,91210,,,A*49
$GPRMC,015820.000,A,3258.8041,N,11703.5104,W,2.92,285.20,91210,,,A*48
$GPRMC,015823.000,A,3258.7990,N,11703.5288,W,14.09,244.10,91210,,,A*7D
$GPRMC,015826.000,A,3258.7803,N,11703.5638,W,37.42,234.20,91210,,,A*76
$GPRMC,015829.000,A,3258.7556,N,11703.5974,W,42.28,231.30,91210,,,A*79
$GPRMC,015832.000,A,3258.7344,N,11703.6312,W,41.31,236.00,91210,,,A*70
$GPRMC,015835.000,A,3258.7219,N,11703.6683,W,39.85,246.80,91210,,,A*7C
$GPRMC,015838.000,A,3258.7177,N,11703.7053,W,34.99,259.60,91210,,,A*70
$GPRMC,015841.000,A,3258.7155,N,11703.7299,W,24.30,262.00,91210,,,A*76
$GPRMC,020033.000,A,3258.7218,N,11703.7506,W,10.21,260.10,91210,,,A*72
$GPRMC,020036.000,A,3258.7129,N,11703.7840,W,26.24,253.10,91210,,,A*79
$GPRMC,020038.000,A,3258.6987,N,11703.8316,W,47.63,248.40,91210,,,A*76
$GPRMC,020042.000,A,3258.6693,N,11703.8980,W,48.60,237.30,91210,,,A*77
$GPRMC,020045.000,A,3258.6420,N,11703.9318,W,46.65,223.00,91210,,,A*7D
$GPRMC,020048.000,A,3258.6085,N,11703.9596,W,49.08,211.70,91210,,,A*79
$GPRMC,020051.000,A,3258.5694,N,11703.9829,W,51.03,206.80,91210,,,A*76
$GPRMC,020054.000,A,3258.5432,N,11703.9970,W,50.54,205.40,91210,,,A*7C
$GPRMC,020057.000,A,3258.4936,N,11704.0273,W,50.06,208.40,91210,,,A*7B
$GPRMC,020100.000,A,3258.4583,N,11704.0535,W,50.06,215.60,91210,,,A*71
$GPRMC,020103.000,A,3258.4295,N,11704.0870,W,49.57,222.90,91210,,,A*79
$GPRMC,020106.000,A,3258.3984,N,11704.1221,W,51.03,223.80,91210,,,A*77
$GPRMC,020109.000,A,3258.3681,N,11704.1582,W,51.51,223.90,91210,,,A*7A
$GPRMC,020112.000,A,3258.3367,N,11704.1941,W,52.49,225.00,91210,,,A*7B
$GPRMC,020115.000,A,3258.3061,N,11704.2346,W,52.97,230.40,91210,,,A*74
$GPRMC,020118.000,A,3258.2900,N,11704.2802,W,50.06,245.20,91210,,,A*73
$GPRMC,020121.000,A,3258.2776,N,11704.3268,W,48.60,252.80,91210,,,A*74
$GPRMC,020124.000,A,3258.2760,N,11704.3781,W,49.58,265.80,91210,,,A*7A
$GPRMC,020127.000,A,3258.2763,N,11704.4250,W,47.63,272.70,91210,,,A*7B
$GPRMC,020130.000,A,3258.2797,N,11704.4724,W,47.14,274.60,91210,,,A*77
$GPRMC,020133.000,A,3258.2824,N,11704.5161,W,45.20,274.40,91210,,,A*72
$GPRMC,020136.000,A,3258.2831,N,11704.5626,W,46.65,272.10,91210,,,A*76
$GPRMC,020139.000,A,3258.2894,N,11704.6111,W,47.63,275.80,91210,,,A*7F
$GPRMC,020142.000,A,3258.2889,N,11704.6570,W,46.65,269.50,91210,,,A*7B
$GPRMC,020145.000,A,3258.2821,N,11704.7041,W,48.11,259.80,91210,,,A*7B
$GPRMC,020148.000,A,3258.2708,N,11704.7502,W,47.63,252.20,91210,,,A*7B
$GPRMC,020151.000,A,3258.2525,N,11704.7947,W,50.06,244.30,91210,,,A*70
$GPRMC,020154.000,A,3258.2258,N,11704.8333,W,50.54,230.80,91210,,,A*71
$GPRMC,020157.000,A,3258.1947,N,11704.8694,W,51.51,224.30,91210,,,A*76
$GPRMC,020200.000,A,3258.1728,N,11704.8922,W,51.51,222.60,91210,,,A*71
$GPRMC,020203.000,A,3258.1320,N,11704.9369,W,50.54,223.60,91210,,,A*7F
$GPRMC,020206.000,A,3258.1003,N,11704.9731,W,52.49,224.30,91210,,,A*7D
$GPRMC,020209.000,A,3258.0722,N,11705.0094,W,52.49,226.80,91210,,,A*7E
$GPRMC,020212.000,A,3258.0425,N,11705.0501,W,54.92,229.50,91210,,,A*7B
$GPRMC,020216.000,A,3258.0077,N,11705.1066,W,53.95,233.60,91210,,,A*71
$GPRMC,020219.000,A,3257.9811,N,11705.1507,W,54.43,234.00,91210,,,A*7F
$GPRMC,020222.000,A,3257.9535,N,11705.1917,W,52.49,232.70,91210,,,A*7C
$GPRMC,020227.000,A,3257.9174,N,11705.2665,W,52.49,242.90,91210,,,A*78
$GPRMC,020230.000,A,3257.9031,N,11705.3148,W,52.00,253.40,91210,,,A*77
$GPRMC,020233.000,A,3257.8973,N,11705.3653,W,50.06,263.50,91210,,,A*71
$GPRMC,020236.000,A,3257.8959,N,11705.4107,W,46.65,270.80,91210,,,A*70
$GPRMC,020239.000,A,3257.8984,N,11705.4561,W,45.21,274.10,91210,,,A*75
$GPRMC,020242.000,A,3257.9017,N,11705.4991,W,42.77,272.50,91210,,,A*7E
$GPRMC,020245.000,A,3257.9004,N,11705.5412,W,40.82,266.40,91210,,,A*70
$GPRMC,020248.000,A,3257.8977,N,11705.5775,W,34.50,265.00,91210,,,A*78
$GPRMC,020251.000,A,3257.8957,N,11705.6041,W,25.76,263.70,91210,,,A*74
$GPRMC,020253.000,A,3257.8962,N,11705.6162,W,18.95,265.10,91210,,,A*73
$GPRMC,020303.000,A,3257.8924,N,11705.6336,W,6.80,263.50,91210,,,A*4F
$GPRMC,020306.000,A,3257.8912,N,11705.6477,W,17.98,265.50,91210,,,A*72
$GPRMC,020309.000,A,3257.8879,N,11705.6726,W,27.22,263.10,91210,,,A*76
$GPRMC,020312.000,A,3257.8862,N,11705.7024,W,31.10,263.60,91210,,,A*73
$GPRMC,020315.000,A,3257.8825,N,11705.7363,W,36.45,262.90,91210,,,A*7E
$GPRMC,020318.000,A,3257.8775,N,11705.7795,W,43.74,260.00,91210,,,A*7F
$GPRMC,020321.000,A,3257.8676,N,11705.8250,W,47.14,253.10,91210,,,A*77
$GPRMC,020324.000,A,3257.8502,N,11705.8683,W,48.60,245.00,91210,,,A*72
$GPRMC,020326.000,A,3257.8386,N,11705.8967,W,46.65,244.40,91210,,,A*71
$GPRMC,020330.000,A,3257.8194,N,11705.9447,W,40.34,245.10,91210,,,A*7F
$GPRMC,020333.000,A,3257.8085,N,11705.9727,W,42.77,245.10,91210,,,A*7D
$GPRMC,020336.000,A,3257.7928,N,11706.0139,W,47.64,245.70,91210,,,A*7B
$GPRMC,020339.000,A,3257.7764,N,11706.0584,W,49.61,247.20,91210,,,A*7C
$GPRMC,020343.000,A,3257.7545,N,11706.1304,W,49.08,251.10,91210,,,A*74
$GPRMC,020346.000,A,3257.7407,N,11706.1757,W,49.08,249.90,91210,,,A*75
$GPRMC,020350.000,A,3257.7219,N,11706.2330,W,47.14,250.40,91210,,,A*7B
$GPRMC,020353.000,A,3257.7066,N,11706.2778,W,50.54,247.60,91210,,,A*7C
$GPRMC,020356.000,A,3257.6892,N,11706.3267,W,54.92,247.20,91210,,,A*7B
$GPRMC,020359.000,A,3257.6698,N,11706.3786,W,57.83,247.40,91210,,,A*7F
$GPRMC,020402.000,A,3257.6524,N,11706.4317,W,57.35,248.20,91210,,,A*7D
$GPRMC,020405.000,A,3257.6357,N,11706.4846,W,56.37,248.60,91210,,,A*70
$GPRMC,020408.000,A,3257.6181,N,11706.5360,W,56.37,248.60,91210,,,A*7A
$GPRMC,020411.000,A,3257.6002,N,11706.5893,W,58.81,248.20,91210,,,A*78
$GPRMC,020414.000,A,3257.5816,N,11706.6452,W,60.75,248.00,91210,,,A*73
$GPRMC,020417.000,A,3257.5637,N,11706.7017,W,61.23,248.80,91210,,,A*73
$GPRMC,020420.000,A,3257.5447,N,11706.7565,W,59.78,247.90,91210,,,A*79
$GPRMC,020423.000,A,3257.5264,N,11706.8100,W,58.80,248.20,91210,,,A*77
$GPRMC,020426.000,A,3257.5080,N,11706.8649,W,58.80,248.20,91210,,,A*70
$GPRMC,020429.000,A,3257.4887,N,11706.9192,W,60.26,247.60,91210,,,A*7D
$GPRMC,020432.000,A,3257.4699,N,11706.9758,W,60.75,248.30,91210,,,A*7A
$GPRMC,020435.000,A,3257.4528,N,11707.0316,W,59.78,248.60,91210,,,A*70
$GPRMC,020438.000,A,3257.4340,N,11707.0869,W,60.75,248.70,91210,,,A*70
$GPRMC,020441.000,A,3257.4144,N,11707.1447,W,61.23,247.40,91210,,,A*77
$GPRMC,020444.000,A,3257.3948,N,11707.1999,W,60.75,247.50,91210,,,A*7C
$GPRMC,020447.000,A,3257.3760,N,11707.2548,W,60.26,248.10,91210,,,A*75
$GPRMC,020450.000,A,3257.3566,N,11707.3111,W,61.23,248.00,91210,,,A*7B
$GPRMC,020452.000,A,3257.3440,N,11707.3504,W,61.72,249.30,91210,,,A*7A
$GPRMC,020456.000,A,3257.3248,N,11707.4260,W,60.75,252.60,91210,,,A*7B
$GPRMC,020459.000,A,3257.3081,N,11707.4826,W,59.78,252.80,91210,,,A*72
$GPRMC,020502.000,A,3257.2941,N,11707.5390,W,59.78,254.00,91210,,,A*70
$GPRMC,020505.000,A,3257.2816,N,11707.5961,W,60.75,256.30,91210,,,A*76
$GPRMC,020508.000,A,3257.2702,N,11707.6563,W,61.72,257.10,91210,,,A*79
$GPRMC,020512.000,A,3257.2553,N,11707.7354,W,62.21,257.70,91210,,,A*74
$GPRMC,020515.000,A,3257.2449,N,11707.7941,W,60.75,259.60,91210,,,A*7B
$GPRMC,020519.000,A,3257.2367,N,11707.8546,W,61.24,261.30,91210,,,A*73
$GPRMC,020522.000,A,3257.2251,N,11707.9335,W,62.21,261.50,91210,,,A*7C
$GPRMC,020525.000,A,3257.2213,N,11707.9942,W,61.72,264.30,91210,,,A*71
$GPRMC,020528.000,A,3257.2189,N,11708.0550,W,61.23,266.80,91210,,,A*78
$GPRMC,020531.000,A,3257.2163,N,11708.1148,W,60.26,267.10,91210,,,A*74
$GPRMC,020534.000,A,3257.2105,N,11708.1739,W,60.75,266.40,91210,,,A*73
$GPRMC,020537.000,A,3257.2085,N,11708.2349,W,60.26,267.60,91210,,,A*7C
$GPRMC,020540.000,A,3257.2092,N,11708.2962,W,60.26,270.00,91210,,,A*79
$GPRMC,020543.000,A,3257.2099,N,11708.3545,W,60.27,271.50,91210,,,A*7C
$GPRMC,020546.000,A,3257.2100,N,11708.4122,W,59.78,271.80,91210,,,A*77
$GPRMC,020549.000,A,3257.2136,N,11708.4717,W,60.26,273.90,91210,,,A*7F
$GPRMC,020552.000,A,3257.2185,N,11708.5304,W,59.78,275.40,91210,,,A*70
$GPRMC,020555.000,A,3257.2255,N,11708.5898,W,60.26,279.30,91210,,,A*7D
$GPRMC,020557.000,A,3257.2309,N,11708.6291,W,58.80,281.40,91210,,,A*70
$GPRMC,020601.000,A,3257.2483,N,11708.6990,W,56.37,286.90,91210,,,A*77
$GPRMC,020604.000,A,3257.2658,N,11708.7528,W,58.32,291.60,91210,,,A*7A
$GPRMC,020607.000,A,3257.2853,N,11708.8042,W,55.89,295.10,91210,,,A*74
$GPRMC,020610.000,A,3257.3073,N,11708.8516,W,56.37,300.20,91210,,,A*75
$GPRMC,020613.000,A,3257.3339,N,11708.8970,W,55.40,304.20,91210,,,A*70
$GPRMC,020616.000,A,3257.3618,N,11708.9424,W,55.89,307.70,91210,,,A*7D
$GPRMC,020619.000,A,3257.3932,N,11708.9840,W,58.32,312.70,91210,,,A*72
$GPRMC,020621.000,A,3257.4165,N,11709.0112,W,58.80,316.80,91210,,,A*70
$GPRMC,020625.000,A,3257.4680,N,11709.0657,W,61.23,317.50,91210,,,A*71
$GPRMC,020628.000,A,3257.5029,N,11709.1078,W,58.80,314.50,91210,,,A*72
$GPRMC,020632.000,A,3257.5477,N,11709.1662,W,59.78,310.30,91210,,,A*7F
$GPRMC,020635.000,A,3257.5775,N,11709.2125,W,60.26,306.40,91210,,,A*7F
$GPRMC,020638.000,A,3257.6060,N,11709.2631,W,61.23,303.30,91210,,,A*76
$GPRMC,020641.000,A,3257.6321,N,11709.3170,W,61.72,299.90,91210,,,A*71
$GPRMC,020644.000,A,3257.6561,N,11709.3684,W,59.78,298.90,91210,,,A*7A
$GPRMC,020647.000,A,3257.6817,N,11709.4200,W,60.26,299.60,91210,,,A*75
$GPRMC,020650.000,A,3257.7056,N,11709.4705,W,58.80,299.60,91210,,,A*78
$GPRMC,020653.000,A,3257.7308,N,11709.5211,W,59.29,299.40,91210,,,A*72
$GPRMC,020656.000,A,3257.7552,N,11709.5723,W,59.78,299.40,91210,,,A*7E
$GPRMC,020659.000,A,3257.7799,N,11709.6239,W,60.75,300.20,91210,,,A*79
$GPRMC,020701.000,A,3257.7957,N,11709.6595,W,59.78,298.90,91210,,,A*74
$GPRMC,020705.000,A,3257.8221,N,11709.7144,W,56.89,299.50,91210,,,A*70
$GPRMC,020708.000,A,3257.8456,N,11709.7623,W,54.95,299.70,91210,,,A*70
$GPRMC,020711.000,A,3257.8683,N,11709.8096,W,54.92,299.50,91210,,,A*70
$GPRMC,020714.000,A,3257.8909,N,11709.8569,W,55.44,299.60,91210,,,A*74
$GPRMC,020717.000,A,3257.9116,N,11709.9000,W,55.41,299.70,91210,,,A*7F
$GPRMC,020720.000,A,3257.9413,N,11709.9617,W,53.94,300.10,91210,,,A*72
$GPRMC,020723.000,A,3257.9627,N,11710.0074,W,52.97,299.50,91210,,,A*71
$GPRMC,020726.000,A,3257.9820,N,11710.0540,W,52.49,296.00,91210,,,A*76
$GPRMC,020729.000,A,3257.9999,N,11710.1026,W,53.46,292.10,91210,,,A*75
$GPRMC,020732.000,A,3258.0148,N,11710.1528,W,53.94,288.30,91210,,,A*70
$GPRMC,020735.000,A,3258.0261,N,11710.2063,W,55.89,283.00,91210,,,A*74
$GPRMC,020738.000,A,3258.0334,N,11710.2617,W,56.37,277.70,91210,,,A*77
$GPRMC,020741.000,A,3258.0377,N,11710.3181,W,56.86,273.50,91210,,,A*7B
$GPRMC,020744.000,A,3258.0378,N,11710.3742,W,56.86,268.30,91210,,,A*74
$GPRMC,020747.000,A,3258.0324,N,11710.4322,W,58.32,261.90,91210,,,A*79
$GPRMC,020750.000,A,3258.0220,N,11710.4863,W,54.92,258.40,91210,,,A*75
$GPRMC,020753.000,A,3258.0104,N,11710.5375,W,54.43,254.20,91210,,,A*78
$GPRMC,020756.000,A,3257.9969,N,11710.5895,W,55.40,250.80,91210,,,A*71
$GPRMC,020759.000,A,3257.9782,N,11710.6408,W,55.89,245.60,91210,,,A*71
$GPRMC,020802.000,A,3257.9560,N,11710.6901,W,56.37,240.90,91210,,,A*76
$GPRMC,020805.000,A,3257.9291,N,11710.7381,W,58.80,236.60,91210,,,A*77
$GPRMC,020808.000,A,3257.8989,N,11710.7863,W,60.26,231.10,91210,,,A*79
$GPRMC,020812.000,A,3257.8529,N,11710.8432,W,60.75,224.10,91210,,,A*71
$GPRMC,020815.000,A,3257.8141,N,11710.8819,W,61.23,219.10,91210,,,A*75
$GPRMC,020818.000,A,3257.7700,N,11710.9178,W,62.21,213.90,91210,,,A*78
$GPRMC,020821.000,A,3257.7257,N,11710.9498,W,62.21,208.80,91210,,,A*75
$GPRMC,020824.000,A,3257.6802,N,11710.9773,W,61.23,206.20,91210,,,A*78
$GPRMC,020827.000,A,3257.6339,N,11711.0027,W,60.75,205.80,91210,,,A*7D
$GPRMC,020830.000,A,3257.5891,N,11711.0279,W,59.29,205.50,91210,,,A*76
$GPRMC,020833.000,A,3257.5455,N,11711.0529,W,57.35,206.10,91210,,,A*77
$GPRMC,020836.000,A,3257.5025,N,11711.0783,W,57.83,207.10,91210,,,A*7F
$GPRMC,020839.000,A,3257.4625,N,11711.1077,W,57.35,212.00,91210,,,A*72
$GPRMC,020842.000,A,3257.4341,N,11711.1292,W,59.29,214.10,91210,,,A*74
$GPRMC,020845.000,A,3257.3815,N,11711.1768,W,59.29,219.90,91210,,,A*7B
$GPRMC,020848.000,A,3257.3455,N,11711.2173,W,59.29,224.70,91210,,,A*71
$GPRMC,020851.000,A,3257.3122,N,11711.2601,W,58.32,228.60,91210,,,A*78
$GPRMC,020854.000,A,3257.2817,N,11711.3060,W,58.80,232.00,91210,,,A*77
$GPRMC,020857.000,A,3257.2540,N,11711.3527,W,59.78,236.70,91210,,,A*78
$GPRMC,020900.000,A,3257.2285,N,11711.4043,W,60.75,240.90,91210,,,A*7D
$GPRMC,020903.000,A,3257.2057,N,11711.4579,W,60.26,243.50,91210,,,A*76
$GPRMC,020906.000,A,3257.1858,N,11711.5125,W,60.75,247.50,91210,,,A*79
$GPRMC,020909.000,A,3257.1676,N,11711.5667,W,59.78,248.10,91210,,,A*79
$GPRMC,020912.000,A,3257.1500,N,11711.6227,W,59.78,248.60,91210,,,A*75
$GPRMC,020915.000,A,3257.1302,N,11711.6775,W,59.78,247.90,91210,,,A*74
$GPRMC,020918.000,A,3257.1134,N,11711.7335,W,60.26,248.90,91210,,,A*71
$GPRMC,020921.000,A,3257.0945,N,11711.7903,W,61.23,248.20,91210,,,A*74
$GPRMC,020924.000,A,3257.0761,N,11711.8469,W,61.23,248.60,91210,,,A*73
$GPRMC,020927.000,A,3257.0583,N,11711.9049,W,61.23,248.60,91210,,,A*79
$GPRMC,020930.000,A,3257.0378,N,11711.9609,W,61.23,247.60,91210,,,A*70
$GPRMC,020933.000,A,3257.0196,N,11712.0154,W,59.29,248.00,91210,,,A*7C
$GPRMC,020936.000,A,3257.0007,N,11712.0694,W,58.80,247.80,91210,,,A*7E
$GPRMC,020939.000,A,3256.9809,N,11712.1235,W,60.26,245.60,91210,,,A*7A
$GPRMC,020942.000,A,3256.9589,N,11712.1780,W,60.75,242.50,91210,,,A*7A
$GPRMC,020946.000,A,3256.9238,N,11712.2457,W,60.75,237.20,91210,,,A*7C
$GPRMC,020949.000,A,3256.8921,N,11712.2969,W,63.18,234.50,91210,,,A*7D
$GPRMC,020952.000,A,3256.8610,N,11712.3463,W,62.69,233.40,91210,,,A*7D
$GPRMC,020955.000,A,3256.8316,N,11712.3962,W,62.21,235.70,91210,,,A*7C
$GPRMC,020957.000,A,3256.8128,N,11712.4314,W,62.21,237.90,91210,,,A*71
$GPRMC,021001.000,A,3256.7840,N,11712.5060,W,61.72,245.60,91210,,,A*7C
$GPRMC,021004.000,A,3256.7641,N,11712.5614,W,59.78,247.40,91210,,,A*72
$GPRMC,021007.000,A,3256.7446,N,11712.6150,W,59.78,247.70,91210,,,A*73
$GPRMC,021010.000,A,3256.7264,N,11712.6696,W,58.32,247.90,91210,,,A*7F
$GPRMC,021013.000,A,3256.7077,N,11712.7243,W,60.26,247.20,91210,,,A*74
$GPRMC,021016.000,A,3256.6857,N,11712.7784,W,60.26,242.60,91210,,,A*75
$GPRMC,021019.000,A,3256.6591,N,11712.8276,W,59.29,233.80,91210,,,A*77
$GPRMC,021021.000,A,3256.6379,N,11712.8578,W,59.78,231.20,91210,,,A*79
$GPRMC,021026.000,A,3256.5801,N,11712.9291,W,60.26,226.80,91210,,,A*75
$GPRMC,021029.000,A,3256.5479,N,11712.9744,W,59.78,230.00,91210,,,A*7A
$GPRMC,021032.000,A,3256.5196,N,11713.0206,W,58.80,236.50,91210,,,A*7A
$GPRMC,021035.000,A,3256.4996,N,11713.0739,W,58.32,245.70,91210,,,A*72
$GPRMC,021038.000,A,3256.4826,N,11713.1268,W,57.83,249.20,91210,,,A*79
$GPRMC,021041.000,A,3256.4660,N,11713.1815,W,59.29,249.00,91210,,,A*77
$GPRMC,021044.000,A,3256.4470,N,11713.2360,W,59.78,246.00,91210,,,A*70
$GPRMC,021047.000,A,3256.4222,N,11713.2885,W,60.26,239.00,91210,,,A*7B
$GPRMC,021050.000,A,3256.3947,N,11713.3392,W,61.23,235.60,91210,,,A*70
$GPRMC,021053.000,A,3256.3645,N,11713.3870,W,59.78,233.80,91210,,,A*74
$GPRMC,021056.000,A,3256.3382,N,11713.4364,W,57.83,238.30,91210,,,A*7C
$GPRMC,021059.000,A,3256.3185,N,11713.4869,W,56.86,246.10,91210,,,A*7F
$GPRMC,021102.000,A,3256.3022,N,11713.5400,W,56.37,251.40,91210,,,A*77
$GPRMC,021105.000,A,3256.2906,N,11713.5923,W,52.97,253.40,91210,,,A*7E
$GPRMC,021108.000,A,3256.2779,N,11713.6401,W,50.54,252.70,91210,,,A*74
$GPRMC,021111.000,A,3256.2647,N,11713.6877,W,51.03,250.30,91210,,,A*78
$GPRMC,021114.000,A,3256.2481,N,11713.7351,W,52.49,246.80,91210,,,A*7A
$GPRMC,021117.000,A,3256.2291,N,11713.7855,W,56.37,245.60,91210,,,A*71
$GPRMC,021120.000,A,3256.2097,N,11713.8360,W,56.86,245.50,91210,,,A*7A
$GPRMC,021123.000,A,3256.1908,N,11713.8885,W,55.89,246.40,91210,,,A*7B
$GPRMC,021126.000,A,3256.1731,N,11713.9384,W,54.43,247.20,91210,,,A*71
$GPRMC,021129.000,A,3256.1528,N,11713.9856,W,52.00,245.00,91210,,,A*71
$GPRMC,021132.000,A,3256.1371,N,11714.0289,W,49.09,247.70,91210,,,A*71
$GPRMC,021136.000,A,3256.1227,N,11714.0866,W,42.77,253.10,91210,,,A*7D
$GPRMC,021139.000,A,3256.1128,N,11714.1224,W,37.91,253.50,91210,,,A*7D
$GPRMC,021142.000,A,3256.1039,N,11714.1568,W,32.56,251.90,91210,,,A*7F
$GPRMC,021145.000,A,3256.0962,N,11714.1835,W,25.76,249.90,91210,,,A*76
$GPRMC,021149.000,A,3256.0896,N,11714.2053,W,13.61,248.10,91210,,,A*71
$GPRMC,021208.000,A,3256.0875,N,11714.2086,W,0.97,245.70,91210,,,A*42
$GPRMC,021211.000,A,3256.0793,N,11714.2230,W,14.58,220.70,91210,,,A*77
$GPRMC,021214.000,A,3256.0664,N,11714.2245,W,14.09,177.20,91210,,,A*79
$GPRMC,021218.000,A,3256.0414,N,11714.2116,W,29.65,157.00,91210,,,A*71
$GPRMC,021222.000,A,3255.9872,N,11714.1900,W,40.82,168.90,91210,,,A*71
$GPRMC,021225.000,A,3255.9530,N,11714.1870,W,41.79,178.50,91210,,,A*73
$GPRMC,021228.000,A,3255.9162,N,11714.1891,W,42.28,186.20,91210,,,A*73
$GPRMC,021231.000,A,3255.8835,N,11714.1992,W,41.79,198.00,91210,,,A*79
$GPRMC,021234.000,A,3255.8516,N,11714.2174,W,41.79,207.70,91210,,,A*71
$GPRMC,021237.000,A,3255.8226,N,11714.2387,W,41.79,211.60,91210,,,A*7E
$GPRMC,021240.000,A,3255.7927,N,11714.2610,W,42.28,208.20,91210,,,A*7B
$GPRMC,021243.000,A,3255.7588,N,11714.2774,W,43.25,199.90,91210,,,A*7E
$GPRMC,021246.000,A,3255.7244,N,11714.2875,W,42.28,191.20,91210,,,A*7D
$GPRMC,021249.000,A,3255.6895,N,11714.2911,W,41.31,183.00,91210,,,A*7C
$GPRMC,021252.000,A,3255.6534,N,11714.2884,W,42.77,174.10,91210,,,A*75
$GPRMC,021255.000,A,3255.6193,N,11714.2773,W,44.71,163.70,91210,,,A*7C
$GPRMC,021258.000,A,3255.5854,N,11714.2623,W,45.20,155.40,91210,,,A*77
$GPRMC,021301.000,A,3255.5522,N,11714.2414,W,46.65,150.00,91210,,,A*73
$GPRMC,021304.000,A,3255.5228,N,11714.2093,W,48.60,138.20,91210,,,A*77
$GPRMC,021307.000,A,3255.4957,N,11714.1714,W,50.06,128.50,91210,,,A*72
$GPRMC,021310.000,A,3255.4767,N,11714.1302,W,49.08,120.90,91210,,,A*78
$GPRMC,021313.000,A,3255.4691,N,11714.1002,W,48.11,111.20,91210,,,A*70
$GPRMC,021316.000,A,3255.4517,N,11714.0392,W,48.11,106.50,91210,,,A*72
$GPRMC,021319.000,A,3255.4404,N,11713.9923,W,48.11,106.10,91210,,,A*74
$GPRMC,021321.000,A,3255.4320,N,11713.9625,W,47.14,107.10,91210,,,A*7C
$GPRMC,021325.000,A,3255.4172,N,11713.9063,W,45.68,107.30,91210,,,A*72
$GPRMC,021328.000,A,3255.4072,N,11713.8616,W,43.74,106.20,91210,,,A*70
$GPRMC,021331.000,A,3255.3951,N,11713.8257,W,38.39,111.30,91210,,,A*74
$GPRMC,021334.000,A,3255.3822,N,11713.7946,W,34.52,116.20,91210,,,A*77
$GPRMC,021337.000,A,3255.3674,N,11713.7655,W,33.53,121.30,91210,,,A*77
$GPRMC,021340.000,A,3255.3504,N,11713.7398,W,31.59,127.30,91210,,,A*79
$GPRMC,021343.000,A,3255.3367,N,11713.7240,W,19.93,139.00,91210,,,A*7D
$GPRMC,021348.000,A,3255.3162,N,11713.7330,W,19.44,219.80,91210,,,A*74
$GPRMC,021351.000,A,3255.3014,N,11713.7583,W,30.62,234.50,91210,,,A*7F
$GPRMC,021353.000,A,3255.2914,N,11713.7760,W,30.13,234.90,91210,,,A*70
$GPRMC,021357.000,A,3255.2733,N,11713.8053,W,25.27,232.00,91210,,,A*7B
$GPRMC,021400.000,A,3255.2635,N,11713.8226,W,20.90,235.40,91210,,,A*73
$GPRMC,021403.000,A,3255.2550,N,11713.8361,W,14.09,232.20,91210,,,A*74
$GPRMC,021458.000,A,3255.2513,N,11713.8447,W,3.89,220.40,91210,,,A*45
$GPRMC,021501.000,A,3255.2378,N,11713.8514,W,13.61,193.30,91210,,,A*7F
$GPRMC,021504.000,A,3255.2221,N,11713.8447,W,19.93,150.70,91210,,,A*7C
$GPRMC,021507.000,A,3255.2060,N,11713.8296,W,24.79,141.40,91210,,,A*7B
$GPRMC,021510.000,A,3255.1888,N,11713.8128,W,27.70,143.90,91210,,,A*73
$GPRMC,021513.000,A,3255.1679,N,11713.7986,W,28.19,151.40,91210,,,A*7D
$GPRMC,021516.000,A,3255.1435,N,11713.7880,W,30.13,159.80,91210,,,A*72
$GPRMC,021519.000,A,3255.1188,N,11713.7786,W,32.07,165.80,91210,,,A*7F
$GPRMC,021522.000,A,3255.0910,N,11713.7752,W,33.53,174.40,91210,,,A*7A
$GPRMC,021526.000,A,3255.0503,N,11713.7788,W,36.45,185.10,91210,,,A*7E
$GPRMC,021529.000,A,3255.0198,N,11713.7813,W,36.93,185.20,91210,,,A*72
$GPRMC,021532.000,A,3254.9867,N,11713.7836,W,39.85,179.80,91210,,,A*7F
$GPRMC,021535.000,A,3254.9521,N,11713.7788,W,42.28,171.20,91210,,,A*74
$GPRMC,021537.000,A,3254.9300,N,11713.7716,W,42.77,164.60,91210,,,A*7E
$GPRMC,021541.000,A,3254.8855,N,11713.7503,W,41.79,153.80,91210,,,A*74
$GPRMC,021544.000,A,3254.8561,N,11713.7306,W,40.34,150.40,91210,,,A*7F
$GPRMC,021548.000,A,3254.8189,N,11713.7042,W,40.34,152.00,91210,,,A*74
$GPRMC,021551.000,A,3254.7871,N,11713.6848,W,41.31,153.20,91210,,,A*79
$GPRMC,021554.000,A,3254.7568,N,11713.6683,W,40.82,154.60,91210,,,A*7A
$GPRMC,021557.000,A,3254.7256,N,11713.6484,W,43.75,152.50,91210,,,A*78
$GPRMC,021600.000,A,3254.6904,N,11713.6270,W,48.11,153.00,91210,,,A*74
$GPRMC,021603.000,A,3254.6622,N,11713.6103,W,48.61,153.50,91210,,,A*79
$GPRMC,021606.000,A,3254.6267,N,11713.5892,W,47.15,153.90,91210,,,A*7B
$GPRMC,021609.000,A,3254.5921,N,11713.5677,W,45.69,151.20,91210,,,A*7B
$GPRMC,021612.000,A,3254.5517,N,11713.5390,W,45.68,148.60,91210,,,A*79
$GPRMC,021615.000,A,3254.5184,N,11713.5151,W,45.68,148.60,91210,,,A*7F
$GPRMC,021618.000,A,3254.4868,N,11713.4904,W,45.68,148.80,91210,,,A*7F
$GPRMC,021621.000,A,3254.4549,N,11713.4679,W,44.22,149.20,91210,,,A*7A
$GPRMC,021624.000,A,3254.4224,N,11713.4466,W,42.77,153.70,91210,,,A*77
$GPRMC,021627.000,A,3254.3913,N,11713.4315,W,41.79,159.60,91210,,,A*79
$GPRMC,021630.000,A,3254.3553,N,11713.4191,W,44.72,164.90,91210,,,A*76
$GPRMC,021633.000,A,3254.3191,N,11713.4079,W,44.71,164.40,91210,,,A*76
$GPRMC,021636.000,A,3254.2845,N,11713.3955,W,43.25,161.00,91210,,,A*75
$GPRMC,021639.000,A,3254.2563,N,11713.3796,W,36.45,155.40,91210,,,A*75
$GPRMC,021642.000,A,3254.2335,N,11713.3647,W,32.07,152.60,91210,,,A*76
$GPRMC,021645.000,A,3254.2131,N,11713.3503,W,27.22,147.50,91210,,,A*70
$GPRMC,021647.000,A,3254.2007,N,11713.3406,W,25.76,145.80,91210,,,A*7E
$GPRMC,021651.000,A,3254.1832,N,11713.3182,W,20.41,139.00,91210,,,A*7F
$GPRMC,021654.000,A,3254.1746,N,11713.3068,W,14.09,136.70,91210,,,A*70
$GPRMC,021715.000,A,3254.1680,N,11713.2977,W,5.35,140.10,91210,,,A*41
$GPRMC,021718.000,A,3254.1599,N,11713.2903,W,13.61,142.80,91210,,,A*79
$GPRMC,021720.000,A,3254.1529,N,11713.2834,W,17.98,140.60,91210,,,A*72
$GPRMC,021724.000,A,3254.1295,N,11713.2653,W,27.22,141.70,91210,,,A*7B
$GPRMC,021727.000,A,3254.1092,N,11713.2454,W,30.62,139.60,91210,,,A*74
$GPRMC,021730.000,A,3254.0902,N,11713.2260,W,29.65,139.00,91210,,,A*7B
$GPRMC,021733.000,A,3254.0727,N,11713.2069,W,29.65,137.50,91210,,,A*71
$GPRMC,021735.000,A,3254.0597,N,11713.1935,W,30.62,138.60,91210,,,A*7E
$GPRMC,021739.000,A,3254.0320,N,11713.1657,W,34.02,139.50,91210,,,A*73
$GPRMC,021742.000,A,3254.0109,N,11713.1449,W,33.53,139.70,91210,,,A*7A
$GPRMC,021745.000,A,3253.9889,N,11713.1243,W,31.59,141.10,91210,,,A*7F
$GPRMC,021748.000,A,3253.9698,N,11713.1060,W,28.67,140.40,91210,,,A*7E
$GPRMC,021751.000,A,3253.9507,N,11713.0881,W,29.18,142.20,91210,,,A*78
$GPRMC,021754.000,A,3253.9319,N,11713.0715,W,26.73,141.50,91210,,,A*70
$GPRMC,021757.000,A,3253.9183,N,11713.0588,W,18.47,139.30,91210,,,A*77
$GPRMC,021800.000,A,3253.9148,N,11713.0433,W,16.07,94.20,91210,,,A*41
$GPRMC,021803.000,A,3253.9243,N,11713.0231,W,24.30,62.60,91210,,,A*46
$GPRMC,021806.000,A,3253.9488,N,11712.9990,W,34.99,42.50,91210,,,A*49
$GPRMC,021808.000,A,3253.9671,N,11712.9855,W,34.02,34.90,91210,,,A*44
$GPRMC,021812.000,A,3253.9908,N,11712.9740,W,15.07,24.60,91210,,,A*4D
$GPRMC,021815.000,A,3253.9959,N,11712.9738,W,5.35,12.40,91210,,,A*76
