NMEA Sentence Code,UTC Time,Status,Latitude,Latitude Direction,Longitude,Longitude Direction,Speed (knots),Track Angle (degrees true),Date,MagneticVariation,Magnetic Variation Direction,[FAA Mode]-Optional,Checksum
$GPRMC,163444.9,A,3340.200835,N,11608.687815,W,51.2,153.5,111110,,,A*43
$GPRMC,163447.9,A,3340.164373,N,11608.670729,W,51.9,157.0,111110,,,A*4A
$GPRMC,163450.9,A,3340.117255,N,11608.647379,W,56.8,158.5,111110,,,A*44
$GPRMC,163453.9,A,3340.070991,N,11608.629083,W,57.1,160.7,111110,,,A*4B
$GPRMC,163456.9,A,3340.024695,N,11608.613067,W,58.4,163.3,111110,,,A*4A
$GPRMC,163459.9,A,3339.977265,N,11608.594536,W,60.8,163.8,111110,,,A*4E
$GPRMC,163502.9,A,3339.922713,N,11608.581289,W,63.3,167.6,111110,,,A*40
$GPRMC,163506.2,A,3339.864844,N,11608.568453,W,64.1,171.6,111110,,,A*45
$GPRMC,163509.2,A,3339.810966,N,11608.558711,W,64.6,172.2,111110,,,A*4E
$GPRMC,163512.2,A,3339.757951,N,11608.549914,W,64.0,171.6,111110,,,A*46
$GPRMC,163515.2,A,3339.705002,N,11608.541137,W,64.6,172.6,111110,,,A*4D
$GPRMC,163518.2,A,3339.651816,N,11608.532727,W,63.9,172.6,111110,,,A*46
$GPRMC,163521.2,A,3339.599879,N,11608.523658,W,63.0,172.5,111110,,,A*41
$GPRMC,163524.2,A,3339.548460,N,11608.515102,W,62.5,172.6,111110,,,A*46
$GPRMC,163527.2,A,3339.495711,N,11608.506500,W,63.7,172.1,111110,,,A*41
$GPRMC,163530.2,A,3339.443083,N,11608.497486,W,62.4,171.1,111110,,,A*47
$GPRMC,163533.2,A,3339.393091,N,11608.486559,W,60.5,169.4,111110,,,A*41
$GPRMC,163536.2,A,3339.344048,N,11608.474053,W,59.7,167.6,111110,,,A*4C
$GPRMC,163539.2,A,3339.293819,N,11608.460426,W,61.5,165.4,111110,,,A*4E
$GPRMC,163542.9,A,3339.233798,N,11608.438668,W,60.2,162.0,111110,,,A*45
$GPRMC,163545.2,A,3339.195331,N,11608.424813,W,62.0,161.9,111110,,,A*44
$GPRMC,163549.2,A,3339.130770,N,11608.397493,W,61.4,159.7,111110,,,A*4F
$GPRMC,163552.2,A,3339.084532,N,11608.375179,W,60.0,157.9,111110,,,A*47
$GPRMC,163555.2,A,3339.038199,N,11608.352025,W,59.9,156.3,111110,,,A*47
$GPRMC,163558.2,A,3338.993339,N,11608.328209,W,60.1,155.1,111110,,,A*49
$GPRMC,163602.2,A,3338.932426,N,11608.292532,W,60.3,153.8,111110,,,A*45
$GPRMC,163605.0,A,3338.893522,N,11608.265486,W,60.8,150.8,111110,,,A*41
$GPRMC,163608.9,A,3338.835937,N,11608.223990,W,62.8,148.5,111110,,,A*4F
$GPRMC,163611.9,A,3338.791502,N,11608.191129,W,62.1,148.4,111110,,,A*44
$GPRMC,163614.9,A,3338.748435,N,11608.157504,W,60.3,147.6,111110,,,A*4C
$GPRMC,163617.9,A,3338.706290,N,11608.125635,W,58.3,147.2,111110,,,A*47
$GPRMC,163620.9,A,3338.667801,N,11608.095686,W,53.4,147.8,111110,,,A*43
$GPRMC,163623.2,A,3338.639443,N,11608.075576,W,50.2,148.7,111110,,,A*4D
$GPRMC,163626.9,A,3338.600244,N,11608.044162,W,44.6,146.9,111110,,,A*4A
$GPRMC,163629.9,A,3338.571844,N,11608.023780,W,38.9,148.6,111110,,,A*44
$GPRMC,163632.9,A,3338.544382,N,11608.004331,W,37.3,148.0,111110,,,A*41
$GPRMC,163635.2,A,3338.524432,N,11607.990605,W,36.4,148.5,111110,,,A*4D
$GPRMC,163638.9,A,3338.492519,N,11607.964818,W,38.4,147.7,111110,,,A*45
$GPRMC,163641.9,A,3338.463838,N,11607.944985,W,40.6,148.4,111110,,,A*4D
$GPRMC,163644.9,A,3338.430746,N,11607.920564,W,46.3,147.6,111110,,,A*47
$GPRMC,163647.9,A,3338.396649,N,11607.892716,W,50.1,146.9,111110,,,A*45
$GPRMC,163650.9,A,3338.362736,N,11607.865807,W,50.8,147.2,111110,,,A*45
$GPRMC,163654.2,A,3338.321775,N,11607.835294,W,52.0,148.2,111110,,,A*4A
$GPRMC,163657.9,A,3338.273178,N,11607.798660,W,55.9,148.0,111110,,,A*44
$GPRMC,163700.2,A,3338.240423,N,11607.773810,W,58.6,147.8,111110,,,A*4E
$GPRMC,163703.0,A,3338.201625,N,11607.745364,W,60.5,147.8,111110,,,A*4B
$GPRMC,163706.9,A,3338.144250,N,11607.701762,W,62.6,147.7,111110,,,A*4F
$GPRMC,163709.2,A,3338.110081,N,11607.675702,W,63.0,147.7,111110,,,A*47
$GPRMC,163712.9,A,3338.055624,N,11607.634044,W,62.1,147.2,111110,,,A*4A
$GPRMC,163716.2,A,3338.007561,N,11607.596473,W,61.9,146.9,111110,,,A*4A
$GPRMC,163719.9,A,3337.952561,N,11607.556170,W,62.1,147.6,111110,,,A*47
$GPRMC,163723.2,A,3337.904533,N,11607.519649,W,62.2,148.1,111110,,,A*4C
$GPRMC,163726.0,A,3337.863542,N,11607.488170,W,62.5,147.6,111110,,,A*46
$GPRMC,163729.9,A,3337.804320,N,11607.446016,W,63.7,149.0,111110,,,A*4B
$GPRMC,163732.9,A,3337.757159,N,11607.416516,W,63.6,152.9,111110,,,A*46
$GPRMC,163735.9,A,3337.710253,N,11607.389961,W,64.8,155.8,111110,,,A*49
$GPRMC,163738.9,A,3337.659152,N,11607.368913,W,64.5,160.3,111110,,,A*40
$GPRMC,163741.2,A,3337.618857,N,11607.352208,W,65.7,161.9,111110,,,A*4C
$GPRMC,163744.9,A,3337.555419,N,11607.329153,W,65.0,164.5,111110,,,A*41
$GPRMC,163747.9,A,3337.501737,N,11607.310910,W,65.6,165.2,111110,,,A*49
$GPRMC,163750.0,A,3337.464993,N,11607.299690,W,64.4,165.3,111110,,,A*41
$GPRMC,163753.2,A,3337.409450,N,11607.282436,W,64.4,165.6,111110,,,A*48
$GPRMC,163756.0,A,3337.361334,N,11607.267236,W,64.1,165.6,111110,,,A*4B
$GPRMC,163759.2,A,3337.307586,N,11607.249285,W,63.0,163.1,111110,,,A*4A
$GPRMC,163802.2,A,3337.258350,N,11607.226917,W,63.7,158.5,111110,,,A*4F
$GPRMC,163805.2,A,3337.208723,N,11607.200969,W,64.0,154.8,111110,,,A*41
$GPRMC,163808.2,A,3337.162311,N,11607.171590,W,62.8,152.1,111110,,,A*48
$GPRMC,163812.2,A,3337.101470,N,11607.130557,W,62.8,148.9,111110,,,A*4B
$GPRMC,163815.2,A,3337.056357,N,11607.095436,W,62.9,147.3,111110,,,A*41
$GPRMC,163818.2,A,3337.012716,N,11607.058963,W,62.9,145.0,111110,,,A*40
$GPRMC,163821.0,A,3336.973331,N,11607.023476,W,63.3,144.0,111110,,,A*49
$GPRMC,163824.2,A,3336.927484,N,11606.982989,W,64.8,144.2,111110,,,A*46
$GPRMC,163827.0,A,3336.887882,N,11606.948203,W,64.1,144.2,111110,,,A*40
$GPRMC,163831.2,A,3336.828536,N,11606.895280,W,64.0,143.4,111110,,,A*48
$GPRMC,163834.2,A,3336.784212,N,11606.859606,W,63.0,144.5,111110,,,A*4E
$GPRMC,163837.2,A,3336.740744,N,11606.822435,W,62.3,143.9,111110,,,A*44
$GPRMC,163840.2,A,3336.698540,N,11606.785061,W,62.3,143.9,111110,,,A*41
$GPRMC,163843.2,A,3336.657620,N,11606.748277,W,61.1,143.8,111110,,,A*40
$GPRMC,163846.2,A,3336.615575,N,11606.710269,W,62.6,143.2,111110,,,A*4C
$GPRMC,163849.9,A,3336.562734,N,11606.665250,W,63.1,143.1,111110,,,A*40
$GPRMC,163853.2,A,3336.517120,N,11606.626733,W,63.4,143.6,111110,,,A*44
$GPRMC,163856.0,A,3336.478470,N,11606.593854,W,62.1,143.7,111110,,,A*4D
$GPRMC,163859.2,A,3336.432209,N,11606.555218,W,62.0,143.9,111110,,,A*41
$GPRMC,163902.2,A,3336.389501,N,11606.518098,W,63.4,143.6,111110,,,A*4F
$GPRMC,163905.2,A,3336.348206,N,11606.481174,W,62.5,143.2,111110,,,A*43
$GPRMC,163908.2,A,3336.307923,N,11606.441842,W,63.3,139.9,111110,,,A*48
$GPRMC,163911.2,A,3336.266743,N,11606.400059,W,63.3,138.1,111110,,,A*40
$GPRMC,163914.2,A,3336.229277,N,11606.356273,W,62.6,133.8,111110,,,A*44
$GPRMC,163917.2,A,3336.195620,N,11606.309042,W,61.6,131.1,111110,,,A*47
$GPRMC,163920.9,A,3336.155092,N,11606.248941,W,62.5,129.1,111110,,,A*4C
$GPRMC,163923.9,A,3336.122174,N,11606.200563,W,63.3,130.3,111110,,,A*4B
$GPRMC,163926.9,A,3336.086320,N,11606.155017,W,62.0,133.4,111110,,,A*41
$GPRMC,163929.9,A,3336.049248,N,11606.113948,W,59.8,136.2,111110,,,A*40
$GPRMC,163932.9,A,3336.015298,N,11606.074497,W,57.5,137.8,111110,,,A*49
$GPRMC,163935.9,A,3335.978025,N,11606.037943,W,57.9,141.2,111110,,,A*4F
$GPRMC,163938.9,A,3335.939957,N,11606.005654,W,57.2,143.8,111110,,,A*40
$GPRMC,163941.2,A,3335.909971,N,11605.980029,W,56.6,144.3,111110,,,A*40
$GPRMC,163944.9,A,3335.859963,N,11605.943349,W,58.0,148.6,111110,,,A*42
$GPRMC,163947.9,A,3335.815003,N,11605.914160,W,59.0,150.6,111110,,,A*45
$GPRMC,163950.9,A,3335.770134,N,11605.889213,W,59.2,154.7,111110,,,A*4F
$GPRMC,163953.9,A,3335.723745,N,11605.865852,W,59.0,156.4,111110,,,A*44
$GPRMC,163956.9,A,3335.678702,N,11605.844809,W,58.8,158.4,111110,,,A*47
$GPRMC,163959.9,A,3335.631922,N,11605.825061,W,57.9,161.0,111110,,,A*48
$GPRMC,164002.9,A,3335.584614,N,11605.809234,W,58.4,164.7,111110,,,A*43
$GPRMC,164005.9,A,3335.537550,N,11605.797013,W,58.3,168.8,111110,,,A*44
$GPRMC,164009.2,A,3335.482793,N,11605.786228,W,59.2,171.3,111110,,,A*48
$GPRMC,164012.2,A,3335.434500,N,11605.779122,W,59.3,174.1,111110,,,A*48
$GPRMC,164015.9,A,3335.375600,N,11605.773158,W,57.6,175.6,111110,,,A*4F
$GPRMC,164019.2,A,3335.321515,N,11605.772989,W,57.7,180.0,111110,,,A*46
$GPRMC,164022.0,A,3335.276087,N,11605.769202,W,59.5,178.8,111110,,,A*40
$GPRMC,164025.2,A,3335.223505,N,11605.767588,W,58.5,179.5,111110,,,A*4C
$GPRMC,164028.2,A,3335.173584,N,11605.768941,W,59.1,180.7,111110,,,A*49
$GPRMC,164031.2,A,3335.124111,N,11605.770273,W,58.1,180.2,111110,,,A*4C
$GPRMC,164034.9,A,3335.064947,N,11605.771168,W,59.4,180.5,111110,,,A*47
$GPRMC,164037.9,A,3335.014587,N,11605.772354,W,60.1,180.4,111110,,,A*43
$GPRMC,164040.9,A,3334.962250,N,11605.772805,W,61.5,179.6,111110,,,A*49
$GPRMC,164043.9,A,3334.910632,N,11605.768814,W,62.2,175.4,111110,,,A*4E
$GPRMC,164046.2,A,3334.871163,N,11605.762082,W,62.9,173.0,111110,,,A*41
$GPRMC,164049.0,A,3334.823197,N,11605.751040,W,62.8,169.0,111110,,,A*44
$GPRMC,164052.9,A,3334.754805,N,11605.731728,W,63.7,165.6,111110,,,A*41
$GPRMC,164055.9,A,3334.705731,N,11605.715215,W,62.9,164.1,111110,,,A*4E
$GPRMC,164058.9,A,3334.656683,N,11605.697270,W,62.4,163.8,111110,,,A*47
$GPRMC,164101.9,A,3334.606109,N,11605.679835,W,62.7,163.2,111110,,,A*48
$GPRMC,164104.9,A,3334.556203,N,11605.661367,W,62.6,164.0,111110,,,A*43
$GPRMC,164107.9,A,3334.506205,N,11605.643633,W,62.5,163.6,111110,,,A*45
$GPRMC,164110.9,A,3334.456390,N,11605.629667,W,61.8,164.8,111110,,,A*40
$GPRMC,164113.9,A,3334.405332,N,11605.610534,W,62.3,163.2,111110,,,A*47
$GPRMC,164116.9,A,3334.358655,N,11605.595295,W,59.8,166.0,111110,,,A*4F
$GPRMC,164119.9,A,3334.308681,N,11605.582287,W,60.2,168.3,111110,,,A*44
$GPRMC,164122.2,A,3334.269694,N,11605.572904,W,61.6,171.1,111110,,,A*45
$GPRMC,164125.9,A,3334.210503,N,11605.564791,W,56.5,174.8,111110,,,A*44
$GPRMC,164128.9,A,3334.161972,N,11605.566366,W,58.1,180.2,111110,,,A*43
$GPRMC,164131.9,A,3334.113244,N,11605.571295,W,58.4,182.6,111110,,,A*48
$GPRMC,164134.9,A,3334.065334,N,11605.576132,W,59.2,186.0,111110,,,A*47
$GPRMC,164137.9,A,3334.016075,N,11605.585202,W,58.8,189.6,111110,,,A*48
$GPRMC,164140.2,A,3333.979365,N,11605.593323,W,59.1,192.4,111110,,,A*43
$GPRMC,164143.0,A,3333.933351,N,11605.606126,W,60.0,194.4,111110,,,A*4E
$GPRMC,164147.2,A,3333.865456,N,11605.626791,W,59.5,194.5,111110,,,A*4C
$GPRMC,164150.9,A,3333.805463,N,11605.644250,W,60.1,191.5,111110,,,A*46
$GPRMC,164153.9,A,3333.754691,N,11605.652748,W,61.0,187.5,111110,,,A*4D
$GPRMC,164156.9,A,3333.703654,N,11605.658932,W,60.8,185.2,111110,,,A*46
$GPRMC,164159.9,A,3333.653418,N,11605.659652,W,60.5,181.6,111110,,,A*42
$GPRMC,164202.2,A,3333.614849,N,11605.660396,W,60.8,180.6,111110,,,A*44
$GPRMC,164205.2,A,3333.562749,N,11605.659819,W,61.4,179.9,111110,,,A*4C
$GPRMC,164208.2,A,3333.512239,N,11605.660020,W,61.4,180.9,111110,,,A*4A
$GPRMC,164211.2,A,3333.461063,N,11605.664242,W,62.0,185.7,111110,,,A*44
$GPRMC,164214.2,A,3333.409196,N,11605.671596,W,63.0,188.0,111110,,,A*45
$GPRMC,164217.9,A,3333.347124,N,11605.685355,W,61.8,191.5,111110,,,A*4C
$GPRMC,164220.9,A,3333.297513,N,11605.702473,W,61.2,196.1,111110,,,A*40
$GPRMC,164223.9,A,3333.247081,N,11605.722457,W,61.6,199.5,111110,,,A*4B
$GPRMC,164226.9,A,3333.200607,N,11605.746900,W,61.7,203.7,111110,,,A*4B
$GPRMC,164229.9,A,3333.152864,N,11605.774179,W,62.3,207.0,111110,,,A*48
$GPRMC,164232.9,A,3333.106809,N,11605.806203,W,62.3,210.3,111110,,,A*49
$GPRMC,164235.9,A,3333.061816,N,11605.839810,W,62.7,212.3,111110,,,A*42
$GPRMC,164238.9,A,3333.018289,N,11605.872395,W,62.3,211.5,111110,,,A*45
$GPRMC,164241.9,A,3332.973764,N,11605.903709,W,62.6,208.5,111110,,,A*43
$GPRMC,164244.9,A,3332.926652,N,11605.932448,W,62.4,205.2,111110,,,A*4E
$GPRMC,164247.9,A,3332.880858,N,11605.955082,W,60.7,202.0,111110,,,A*43
$GPRMC,164250.9,A,3332.831962,N,11605.974945,W,62.4,198.9,111110,,,A*4E
$GPRMC,164253.9,A,3332.780863,N,11605.990841,W,64.3,194.6,111110,,,A*45
$GPRMC,164256.9,A,3332.730646,N,11606.004151,W,63.7,191.3,111110,,,A*4E
$GPRMC,164259.9,A,3332.675225,N,11606.012367,W,65.3,186.9,111110,,,A*4E
$GPRMC,164302.9,A,3332.621599,N,11606.016860,W,64.2,183.5,111110,,,A*41
$GPRMC,164305.9,A,3332.565467,N,11606.016820,W,65.1,180.5,111110,,,A*40
$GPRMC,164308.9,A,3332.512118,N,11606.017917,W,64.3,179.9,111110,,,A*4D
$GPRMC,164311.9,A,3332.457464,N,11606.019522,W,64.5,180.4,111110,,,A*42
$GPRMC,164314.2,A,3332.414118,N,11606.022014,W,67.9,182.2,111110,,,A*46
$GPRMC,164317.2,A,3332.362466,N,11606.021775,W,62.7,180.9,111110,,,A*4E
$GPRMC,164320.2,A,3332.309769,N,11606.022131,W,62.7,180.6,111110,,,A*41
$GPRMC,164323.2,A,3332.256472,N,11606.021928,W,63.1,180.7,111110,,,A*45
$GPRMC,164326.2,A,3332.202063,N,11606.020698,W,65.7,180.4,111110,,,A*43
$GPRMC,164329.2,A,3332.147374,N,11606.020850,W,65.6,180.8,111110,,,A*4C
$GPRMC,164332.2,A,3332.091323,N,11606.021725,W,68.2,180.6,111110,,,A*45
$GPRMC,164335.2,A,3332.035815,N,11606.021717,W,66.2,179.7,111110,,,A*4A
$GPRMC,164338.2,A,3331.980482,N,11606.021763,W,65.6,179.9,111110,,,A*4B
$GPRMC,164341.2,A,3331.925497,N,11606.022022,W,64.0,179.8,111110,,,A*49
$GPRMC,164344.9,A,3331.859892,N,11606.022987,W,63.8,179.6,111110,,,A*43
$GPRMC,164347.9,A,3331.808911,N,11606.020639,W,62.7,178.8,111110,,,A*47
$GPRMC,164350.9,A,3331.753435,N,11606.023150,W,65.1,180.0,111110,,,A*4E
$GPRMC,164353.9,A,3331.699556,N,11606.024483,W,64.0,180.1,111110,,,A*43
$GPRMC,164356.9,A,3331.647712,N,11606.026806,W,64.0,180.7,111110,,,A*42
$GPRMC,164359.9,A,3331.595802,N,11606.023666,W,64.1,179.7,111110,,,A*45
$GPRMC,164402.9,A,3331.537911,N,11606.023677,W,66.0,179.4,111110,,,A*47
$GPRMC,164405.9,A,3331.484071,N,11606.020555,W,65.4,179.5,111110,,,A*40
$GPRMC,164408.9,A,3331.428802,N,11606.021423,W,64.9,179.8,111110,,,A*47
$GPRMC,164411.9,A,3331.375738,N,11606.022064,W,64.3,180.5,111110,,,A*43
$GPRMC,164414.9,A,3331.322773,N,11606.022556,W,63.0,180.2,111110,,,A*4C
$GPRMC,164417.9,A,3331.269687,N,11606.023373,W,63.1,180.2,111110,,,A*4A
$GPRMC,164420.9,A,3331.215320,N,11606.021309,W,64.5,179.1,111110,,,A*44
$GPRMC,164423.9,A,3331.159542,N,11606.020013,W,65.1,176.5,111110,,,A*49
$GPRMC,164426.9,A,3331.106409,N,11606.008928,W,65.8,172.5,111110,,,A*4E
$GPRMC,164429.2,A,3331.063925,N,11606.001424,W,66.1,170.9,111110,,,A*47
$GPRMC,164432.9,A,3330.999718,N,11605.985516,W,65.2,166.4,111110,,,A*47
$GPRMC,164435.9,A,3330.946004,N,11605.967464,W,66.5,163.6,111110,,,A*43
$GPRMC,164438.9,A,3330.895520,N,11605.944955,W,67.3,160.1,111110,,,A*4F
$GPRMC,164441.9,A,3330.841696,N,11605.921749,W,68.1,158.1,111110,,,A*40
$GPRMC,164444.9,A,3330.789424,N,11605.894500,W,68.1,155.3,111110,,,A*4A
$GPRMC,164447.9,A,3330.736404,N,11605.861438,W,69.9,151.5,111110,,,A*44
$GPRMC,164450.9,A,3330.690559,N,11605.827537,W,66.3,149.3,111110,,,A*40
$GPRMC,164453.9,A,3330.644966,N,11605.794180,W,65.8,149.3,111110,,,A*4D
$GPRMC,164456.9,A,3330.598673,N,11605.762402,W,65.8,150.1,111110,,,A*4D
$GPRMC,164459.9,A,3330.548790,N,11605.728666,W,67.4,150.0,111110,,,A*42
$GPRMC,164502.9,A,3330.499228,N,11605.696142,W,67.1,150.6,111110,,,A*40
$GPRMC,164505.9,A,3330.451537,N,11605.660246,W,67.7,149.0,111110,,,A*4C
$GPRMC,164508.9,A,3330.400375,N,11605.627034,W,68.2,150.7,111110,,,A*44
$GPRMC,164511.9,A,3330.347573,N,11605.596616,W,69.5,154.8,111110,,,A*4A
$GPRMC,164514.9,A,3330.294736,N,11605.571978,W,68.8,158.6,111110,,,A*43
$GPRMC,164517.9,A,3330.238903,N,11605.551032,W,68.7,162.7,111110,,,A*4C
$GPRMC,164520.9,A,3330.184187,N,11605.532554,W,68.3,164.2,111110,,,A*4F
$GPRMC,164523.9,A,3330.126847,N,11605.517366,W,68.5,168.1,111110,,,A*48
$GPRMC,164526.9,A,3330.069777,N,11605.507657,W,67.0,171.8,111110,,,A*46
$GPRMC,164529.9,A,3330.014787,N,11605.502382,W,66.7,175.1,111110,,,A*4F
$GPRMC,164532.9,A,3329.960013,N,11605.497423,W,66.0,177.5,111110,,,A*4D
$GPRMC,164535.9,A,3329.902846,N,11605.497731,W,66.8,179.9,111110,,,A*4C
$GPRMC,164539.2,A,3329.841174,N,11605.497995,W,66.9,178.8,111110,,,A*44
$GPRMC,164542.2,A,3329.786128,N,11605.497133,W,65.8,179.6,111110,,,A*4C
$GPRMC,164545.9,A,3329.717207,N,11605.497038,W,65.9,179.1,111110,,,A*4A
$GPRMC,164548.0,A,3329.681891,N,11605.499321,W,65.2,180.7,111110,,,A*4B
$GPRMC,164551.9,A,3329.606832,N,11605.500063,W,67.1,180.8,111110,,,A*46
$GPRMC,164554.9,A,3329.553692,N,11605.499228,W,65.1,179.8,111110,,,A*4C
$GPRMC,164557.2,A,3329.512333,N,11605.497699,W,65.1,180.4,111110,,,A*45
$GPRMC,164600.2,A,3329.459198,N,11605.496720,W,64.6,179.7,111110,,,A*48
$GPRMC,164603.9,A,3329.394461,N,11605.496749,W,64.4,179.9,111110,,,A*46
$GPRMC,164606.2,A,3329.352295,N,11605.496762,W,64.3,180.1,111110,,,A*4F
$GPRMC,164609.2,A,3329.299582,N,11605.496284,W,64.2,179.5,111110,,,A*49
$GPRMC,164613.2,A,3329.227446,N,11605.496332,W,63.8,179.3,111110,,,A*49
$GPRMC,164617.2,A,3329.154229,N,11605.494880,W,63.8,179.8,111110,,,A*4E
$GPRMC,164620.9,A,3329.089371,N,11605.494101,W,63.0,179.0,111110,,,A*4C
$GPRMC,164623.9,A,3329.035934,N,11605.493763,W,63.0,179.9,111110,,,A*4F
$GPRMC,164626.9,A,3328.982670,N,11605.494705,W,62.8,180.0,111110,,,A*40
$GPRMC,164629.9,A,3328.930982,N,11605.496194,W,62.1,180.2,111110,,,A*43
$GPRMC,164632.9,A,3328.878151,N,11605.494142,W,62.4,178.7,111110,,,A*4C
$GPRMC,164635.9,A,3328.826777,N,11605.494543,W,61.9,179.8,111110,,,A*47
$GPRMC,164638.9,A,3328.772887,N,11605.495924,W,63.7,180.5,111110,,,A*4F
$GPRMC,164641.2,A,3328.731242,N,11605.495936,W,65.1,180.5,111110,,,A*4D
$GPRMC,164644.2,A,3328.678413,N,11605.496369,W,64.3,179.9,111110,,,A*4C
$GPRMC,164647.2,A,3328.624809,N,11605.496173,W,64.5,179.7,111110,,,A*40
$GPRMC,164650.2,A,3328.571934,N,11605.494726,W,64.1,179.7,111110,,,A*4A
$GPRMC,164653.2,A,3328.518894,N,11605.493325,W,63.8,179.2,111110,,,A*46
$GPRMC,164656.2,A,3328.466482,N,11605.492872,W,62.9,179.6,111110,,,A*4C
$GPRMC,164659.2,A,3328.413069,N,11605.492804,W,63.5,180.1,111110,,,A*4D
$GPRMC,164702.2,A,3328.359961,N,11605.492982,W,63.6,179.6,111110,,,A*47
$GPRMC,164705.2,A,3328.306823,N,11605.492702,W,63.8,179.9,111110,,,A*4A
$GPRMC,164708.2,A,3328.253661,N,11605.492833,W,63.4,179.9,111110,,,A*4F
$GPRMC,164711.2,A,3328.199907,N,11605.492899,W,63.7,179.8,111110,,,A*4F
$GPRMC,164714.2,A,3328.146379,N,11605.492167,W,64.5,179.9,111110,,,A*47
$GPRMC,164717.2,A,3328.093184,N,11605.491079,W,63.5,179.8,111110,,,A*46
$GPRMC,164720.2,A,3328.040161,N,11605.491187,W,63.5,179.7,111110,,,A*48
$GPRMC,164723.2,A,3327.987326,N,11605.490502,W,63.5,179.8,111110,,,A*40
$GPRMC,164726.2,A,3327.933923,N,11605.491117,W,64.2,179.9,111110,,,A*45
$GPRMC,164729.2,A,3327.880917,N,11605.490782,W,63.3,180.0,111110,,,A*46
$GPRMC,164732.2,A,3327.827707,N,11605.491137,W,62.8,179.7,111110,,,A*4C
$GPRMC,164735.2,A,3327.775391,N,11605.491059,W,61.7,179.6,111110,,,A*4C
$GPRMC,164738.2,A,3327.724027,N,11605.489228,W,61.9,177.7,111110,,,A*47
$GPRMC,164741.2,A,3327.672204,N,11605.484510,W,62.1,174.7,111110,,,A*41
$GPRMC,164744.2,A,3327.620234,N,11605.476770,W,62.2,171.3,111110,,,A*4B
$GPRMC,164747.2,A,3327.568846,N,11605.465993,W,62.9,168.7,111110,,,A*4E
$GPRMC,164750.2,A,3327.517396,N,11605.452576,W,63.2,166.3,111110,,,A*45
$GPRMC,164753.2,A,3327.465862,N,11605.434412,W,64.2,162.4,111110,,,A*45
$GPRMC,164756.2,A,3327.415032,N,11605.411894,W,65.0,158.2,111110,,,A*43
$GPRMC,164759.2,A,3327.364502,N,11605.386501,W,65.8,156.7,111110,,,A*40
$GPRMC,164802.2,A,3327.315118,N,11605.357354,W,65.7,152.8,111110,,,A*46
$GPRMC,164805.2,A,3327.267573,N,11605.326560,W,65.8,150.8,111110,,,A*46
$GPRMC,164808.2,A,3327.221001,N,11605.290825,W,66.5,147.2,111110,,,A*4B
$GPRMC,164811.2,A,3327.175484,N,11605.252107,W,67.2,144.5,111110,,,A*4D
$GPRMC,164814.2,A,3327.131896,N,11605.210338,W,67.3,140.9,111110,,,A*46
$GPRMC,164817.2,A,3327.089547,N,11605.166554,W,67.4,139.5,111110,,,A*4D
$GPRMC,164820.9,A,3327.035357,N,11605.112281,W,69.9,139.1,111110,,,A*49
$GPRMC,164823.9,A,3326.994756,N,11605.070486,W,64.8,139.2,111110,,,A*47
$GPRMC,164826.9,A,3326.956457,N,11605.027438,W,63.0,137.1,111110,,,A*4B
$GPRMC,164829.2,A,3326.926243,N,11604.995157,W,63.4,139.1,111110,,,A*4C
$GPRMC,164832.0,A,3326.887303,N,11604.957932,W,63.6,139.4,111110,,,A*49
$GPRMC,164835.2,A,3326.842708,N,11604.913708,W,65.2,139.8,111110,,,A*43
$GPRMC,164839.2,A,3326.785434,N,11604.856819,W,68.5,140.1,111110,,,A*45
$GPRMC,164842.2,A,3326.744043,N,11604.813526,W,67.4,139.4,111110,,,A*45
$GPRMC,164845.2,A,3326.702643,N,11604.769670,W,66.8,139.3,111110,,,A*4E
$GPRMC,164848.2,A,3326.660840,N,11604.725480,W,66.5,138.9,111110,,,A*48
$GPRMC,164851.2,A,3326.619441,N,11604.683372,W,66.2,139.8,111110,,,A*43
$GPRMC,164854.2,A,3326.578324,N,11604.637998,W,64.4,138.0,111110,,,A*4A
$GPRMC,164857.2,A,3326.535494,N,11604.594426,W,67.5,139.3,111110,,,A*4E
$GPRMC,164900.9,A,3326.482609,N,11604.542008,W,65.0,139.3,111110,,,A*49
$GPRMC,164903.9,A,3326.438080,N,11604.499609,W,68.7,140.0,111110,,,A*4B
$GPRMC,164906.9,A,3326.393875,N,11604.455308,W,68.2,139.8,111110,,,A*4D
$GPRMC,164909.9,A,3326.350518,N,11604.411872,W,66.6,139.7,111110,,,A*48
$GPRMC,164912.9,A,3326.309009,N,11604.367497,W,66.6,139.6,111110,,,A*4B
$GPRMC,164915.9,A,3326.267912,N,11604.322089,W,66.7,138.9,111110,,,A*43
$GPRMC,164918.9,A,3326.224351,N,11604.281864,W,67.6,140.0,111110,,,A*41
$GPRMC,164921.9,A,3326.179856,N,11604.236617,W,68.7,140.0,111110,,,A*44
$GPRMC,164924.9,A,3326.137511,N,11604.192239,W,67.7,139.1,111110,,,A*40
$GPRMC,164927.9,A,3326.095557,N,11604.148949,W,67.6,138.9,111110,,,A*4B
$GPRMC,164930.9,A,3326.052815,N,11604.102421,W,68.3,139.1,111110,,,A*43
$GPRMC,164933.9,A,3326.012871,N,11604.056482,W,67.4,138.0,111110,,,A*47
$GPRMC,164936.9,A,3325.968294,N,11604.011441,W,69.5,139.6,111110,,,A*40
$GPRMC,164939.9,A,3325.924403,N,11603.966409,W,68.5,139.4,111110,,,A*4E
$GPRMC,164942.9,A,3325.880274,N,11603.923062,W,67.1,139.7,111110,,,A*4B
$GPRMC,164946.2,A,3325.833316,N,11603.876702,W,66.5,140.3,111110,,,A*46
$GPRMC,164949.9,A,3325.782833,N,11603.822680,W,66.8,138.4,111110,,,A*44
$GPRMC,164952.9,A,3325.739873,N,11603.779225,W,67.7,139.7,111110,,,A*4C
$GPRMC,164955.2,A,3325.704540,N,11603.746105,W,69.5,141.6,111110,,,A*4C
$GPRMC,164958.2,A,3325.660000,N,11603.701537,W,69.1,140.7,111110,,,A*41
$GPRMC,165001.2,A,3325.614497,N,11603.658042,W,69.4,140.3,111110,,,A*47
$GPRMC,165004.2,A,3325.569362,N,11603.612965,W,70.4,139.8,111110,,,A*49
$GPRMC,165007.2,A,3325.525934,N,11603.564998,W,71.4,136.8,111110,,,A*45
$GPRMC,165010.2,A,3325.484694,N,11603.515221,W,71.2,135.6,111110,,,A*48
$GPRMC,165013.2,A,3325.443351,N,11603.464271,W,71.3,134.9,111110,,,A*41
$GPRMC,165016.2,A,3325.401720,N,11603.413087,W,70.9,134.3,111110,,,A*4A
$GPRMC,165019.2,A,3325.360606,N,11603.360679,W,71.5,134.5,111110,,,A*4F
$GPRMC,165022.2,A,3325.318807,N,11603.310324,W,72.7,135.0,111110,,,A*48
$GPRMC,165025.2,A,3325.275206,N,11603.260232,W,72.8,135.7,111110,,,A*46
$GPRMC,165028.2,A,3325.232156,N,11603.209553,W,72.1,135.1,111110,,,A*4E
$GPRMC,165031.2,A,3325.188506,N,11603.159787,W,71.9,135.4,111110,,,A*46
$GPRMC,165034.2,A,3325.146194,N,11603.109889,W,70.1,136.3,111110,,,A*47
$GPRMC,165037.9,A,3325.092360,N,11603.055754,W,69.7,140.1,111110,,,A*44
$GPRMC,165041.2,A,3325.040446,N,11603.012222,W,68.3,145.2,111110,,,A*46
$GPRMC,165044.2,A,3324.990878,N,11602.977216,W,68.8,150.6,111110,,,A*40
$GPRMC,165047.9,A,3324.926705,N,11602.939198,W,68.7,154.1,111110,,,A*43
$GPRMC,165050.9,A,3324.873144,N,11602.914027,W,67.9,158.3,111110,,,A*42
$GPRMC,165053.9,A,3324.814956,N,11602.894901,W,70.4,163.7,111110,,,A*48
$GPRMC,165056.9,A,3324.759974,N,11602.877815,W,68.5,165.9,111110,,,A*42
$GPRMC,165100.2,A,3324.700965,N,11602.862470,W,66.3,167.4,111110,,,A*4B
$GPRMC,165103.2,A,3324.645535,N,11602.849890,W,66.4,168.7,111110,,,A*41
$GPRMC,165106.2,A,3324.591612,N,11602.836235,W,65.6,168.9,111110,,,A*4A
$GPRMC,165109.2,A,3324.537114,N,11602.823389,W,66.2,168.3,111110,,,A*47
$GPRMC,165112.2,A,3324.482218,N,11602.810456,W,66.8,169.4,111110,,,A*44
$GPRMC,165115.2,A,3324.427264,N,11602.798234,W,66.1,168.8,111110,,,A*4E
$GPRMC,165119.2,A,3324.355756,N,11602.781264,W,65.9,169.5,111110,,,A*4E
$GPRMC,165122.2,A,3324.302247,N,11602.767713,W,65.8,168.5,111110,,,A*4C
$GPRMC,165125.9,A,3324.237170,N,11602.754072,W,65.0,169.1,111110,,,A*4D
$GPRMC,165128.9,A,3324.184455,N,11602.742087,W,64.5,168.4,111110,,,A*44
$GPRMC,165131.9,A,3324.132189,N,11602.730497,W,65.3,167.8,111110,,,A*41
$GPRMC,165134.9,A,3324.079296,N,11602.714299,W,64.6,167.3,111110,,,A*46
$GPRMC,165137.9,A,3324.025457,N,11602.701021,W,64.8,167.7,111110,,,A*48
$GPRMC,165140.9,A,3323.972995,N,11602.687678,W,65.0,167.6,111110,,,A*4A
$GPRMC,165143.9,A,3323.920261,N,11602.673170,W,65.7,167.7,111110,,,A*4C
$GPRMC,165146.2,A,3323.876975,N,11602.663578,W,66.7,168.6,111110,,,A*4E
$GPRMC,165149.9,A,3323.808501,N,11602.647823,W,67.0,169.1,111110,,,A*49
$GPRMC,165152.9,A,3323.753694,N,11602.633434,W,67.1,168.2,111110,,,A*47
$GPRMC,165155.2,A,3323.710561,N,11602.624443,W,67.3,168.4,111110,,,A*47
$GPRMC,165158.2,A,3323.655385,N,11602.611931,W,67.4,168.9,111110,,,A*42
$GPRMC,165201.9,A,3323.588951,N,11602.595196,W,68.0,166.7,111110,,,A*47
$GPRMC,165204.9,A,3323.535096,N,11602.573895,W,68.5,159.8,111110,,,A*42
$GPRMC,165207.9,A,3323.484840,N,11602.545117,W,69.2,154.9,111110,,,A*45
$GPRMC,165210.9,A,3323.433752,N,11602.509521,W,69.2,147.6,111110,,,A*47
$GPRMC,165213.9,A,3323.387227,N,11602.467502,W,69.0,141.5,111110,,,A*44
$GPRMC,165217.2,A,3323.339930,N,11602.416958,W,69.1,138.5,111110,,,A*49
$GPRMC,165220.9,A,3323.289200,N,11602.357753,W,68.3,136.2,111110,,,A*49
$GPRMC,165223.9,A,3323.246755,N,11602.312486,W,67.9,137.0,111110,,,A*40
$GPRMC,165226.9,A,3323.205772,N,11602.264983,W,68.5,136.4,111110,,,A*49
$GPRMC,165229.9,A,3323.164745,N,11602.219817,W,68.9,137.5,111110,,,A*4C
$GPRMC,165232.9,A,3323.121698,N,11602.174401,W,70.0,137.5,111110,,,A*45
$GPRMC,165235.9,A,3323.077015,N,11602.126905,W,70.7,137.6,111110,,,A*49
$GPRMC,165238.9,A,3323.032021,N,11602.079507,W,70.6,137.8,111110,,,A*48
$GPRMC,165241.9,A,3322.989774,N,11602.029468,W,68.9,137.0,111110,,,A*4A
$GPRMC,165244.2,A,3322.958480,N,11601.993422,W,68.0,137.0,111110,,,A*4C
$GPRMC,165247.2,A,3322.916568,N,11601.947648,W,68.2,137.3,111110,,,A*44
$GPRMC,165250.2,A,3322.875241,N,11601.902744,W,67.1,137.3,111110,,,A*4A
$GPRMC,165253.0,A,3322.840536,N,11601.858122,W,66.3,136.6,111110,,,A*45
$GPRMC,165256.2,A,3322.796622,N,11601.810719,W,66.3,136.9,111110,,,A*4D
$GPRMC,165259.9,A,3322.745365,N,11601.757072,W,65.3,138.0,111110,,,A*43
$GPRMC,165302.9,A,3322.701073,N,11601.713773,W,67.3,140.6,111110,,,A*45
$GPRMC,165305.9,A,3322.654613,N,11601.674448,W,67.2,145.5,111110,,,A*4F
$GPRMC,165308.9,A,3322.605705,N,11601.640647,W,66.8,149.6,111110,,,A*4E
$GPRMC,165311.9,A,3322.554380,N,11601.611257,W,67.9,153.3,111110,,,A*47
$GPRMC,165314.9,A,3322.501167,N,11601.581234,W,69.0,154.2,111110,,,A*47
$GPRMC,165317.9,A,3322.450392,N,11601.550760,W,69.1,154.3,111110,,,A*41
$GPRMC,165320.9,A,3322.397942,N,11601.518791,W,69.0,154.2,111110,,,A*4C
$GPRMC,165323.9,A,3322.346438,N,11601.490664,W,69.8,154.3,111110,,,A*40
$GPRMC,165326.9,A,3322.293165,N,11601.458232,W,70.5,153.9,111110,,,A*4A
$GPRMC,165329.9,A,3322.239921,N,11601.429974,W,70.2,154.7,111110,,,A*4C
$GPRMC,165332.9,A,3322.189156,N,11601.398821,W,69.7,153.7,111110,,,A*40
$GPRMC,165335.9,A,3322.140911,N,11601.367780,W,68.4,153.3,111110,,,A*4B
$GPRMC,165338.9,A,3322.084889,N,11601.339404,W,70.3,156.5,111110,,,A*46
$GPRMC,165341.9,A,3322.028244,N,11601.313593,W,71.0,159.6,111110,,,A*4C
$GPRMC,165344.9,A,3321.971015,N,11601.293118,W,71.1,164.4,111110,,,A*4A
$GPRMC,165347.9,A,3321.914558,N,11601.274251,W,70.3,164.8,111110,,,A*4E
$GPRMC,165350.9,A,3321.856329,N,11601.257344,W,70.8,165.4,111110,,,A*4D
$GPRMC,165353.9,A,3321.802824,N,11601.242251,W,69.0,165.1,111110,,,A*4D
$GPRMC,165356.9,A,3321.745505,N,11601.226111,W,69.7,165.6,111110,,,A*4F
$GPRMC,165359.9,A,3321.688713,N,11601.207527,W,70.8,165.2,111110,,,A*44
$GPRMC,165402.9,A,3321.631897,N,11601.187779,W,72.2,164.6,111110,,,A*43
$GPRMC,165405.9,A,3321.571478,N,11601.170311,W,72.5,165.3,111110,,,A*4F
$GPRMC,165408.9,A,3321.514543,N,11601.152400,W,70.5,165.2,111110,,,A*4C
$GPRMC,165411.9,A,3321.457334,N,11601.131502,W,70.6,164.1,111110,,,A*43
$GPRMC,165414.9,A,3321.400872,N,11601.115405,W,69.9,165.4,111110,,,A*4E
$GPRMC,165417.9,A,3321.343325,N,11601.098720,W,70.1,165.2,111110,,,A*42
$GPRMC,165420.9,A,3321.287949,N,11601.079946,W,69.8,165.3,111110,,,A*4E
$GPRMC,165423.9,A,3321.233412,N,11601.063507,W,68.4,165.1,111110,,,A*4C
$GPRMC,165426.9,A,3321.177439,N,11601.047384,W,68.1,165.5,111110,,,A*49
$GPRMC,165429.9,A,3321.124170,N,11601.028189,W,67.3,164.5,111110,,,A*42
$GPRMC,165433.2,A,3321.062534,N,11601.010547,W,67.7,165.7,111110,,,A*4F
$GPRMC,165436.2,A,3321.008058,N,11600.990934,W,66.9,162.7,111110,,,A*49
$GPRMC,165439.2,A,3320.955152,N,11600.968722,W,67.8,159.6,111110,,,A*4A
$GPRMC,165442.2,A,3320.902915,N,11600.943118,W,67.6,156.6,111110,,,A*48
$GPRMC,165445.2,A,3320.850940,N,11600.914704,W,66.8,155.6,111110,,,A*4C
$GPRMC,165448.2,A,3320.800691,N,11600.881188,W,68.4,149.6,111110,,,A*47
$GPRMC,165451.9,A,3320.740234,N,11600.838429,W,68.7,148.2,111110,,,A*4E
$GPRMC,165454.2,A,3320.703127,N,11600.810583,W,67.6,148.1,111110,,,A*40
$GPRMC,165457.2,A,3320.655985,N,11600.773944,W,66.4,147.7,111110,,,A*46
$GPRMC,165510.2,A,3320.459166,N,11600.620911,W,65.4,146.9,111110,,,A*44
$GPRMC,165513.2,A,3320.404991,N,11600.586191,W,66.2,148.2,111110,,,A*40
$GPRMC,165516.2,A,3320.359338,N,11600.550462,W,65.8,148.0,111110,,,A*4A
$GPRMC,165519.2,A,3320.312026,N,11600.516233,W,65.7,147.8,111110,,,A*4E
$GPRMC,165522.2,A,3320.265839,N,11600.482202,W,65.4,147.5,111110,,,A*41
$GPRMC,165525.2,A,3320.218489,N,11600.446261,W,66.9,147.6,111110,,,A*4B
$GPRMC,165528.0,A,3320.175598,N,11600.413999,W,67.6,148.0,111110,,,A*46
$GPRMC,165531.2,A,3320.125614,N,11600.375940,W,68.1,147.9,111110,,,A*43
$GPRMC,165534.9,A,3320.063695,N,11600.330684,W,69.4,147.6,111110,,,A*4A
$GPRMC,165537.9,A,3320.016351,N,11600.293715,W,68.8,147.7,111110,,,A*4B
$GPRMC,165540.0,A,3319.982859,N,11600.270093,W,68.8,148.5,111110,,,A*46
$GPRMC,165543.2,A,3319.929456,N,11600.230560,W,69.6,148.2,111110,,,A*40
$GPRMC,165546.9,A,3319.870120,N,11600.185783,W,69.1,147.1,111110,,,A*4E
$GPRMC,165549.2,A,3319.831349,N,11600.157475,W,69.7,148.2,111110,,,A*4D
$GPRMC,165552.2,A,3319.780873,N,11600.121976,W,68.1,148.6,111110,,,A*4C
$GPRMC,165555.2,A,3319.734382,N,11600.086961,W,65.6,148.3,111110,,,A*44
$GPRMC,165559.2,A,3319.672319,N,11600.040608,W,65.0,147.8,111110,,,A*41
$GPRMC,165602.2,A,3319.627581,N,11600.007119,W,64.8,148.2,111110,,,A*43
$GPRMC,165605.2,A,3319.583268,N,11559.971435,W,64.8,147.2,111110,,,A*4A
$GPRMC,165608.9,A,3319.529683,N,11559.928602,W,65.8,146.4,111110,,,A*41
$GPRMC,165611.2,A,3319.490547,N,11559.902150,W,68.0,148.7,111110,,,A*4A
$GPRMC,165614.0,A,3319.443989,N,11559.867956,W,69.2,147.4,111110,,,A*4E
$GPRMC,165617.2,A,3319.389529,N,11559.828708,W,69.1,148.1,111110,,,A*4F
$GPRMC,165620.9,A,3319.331459,N,11559.784570,W,68.6,146.6,111110,,,A*4E
$GPRMC,165623.2,A,3319.292116,N,11559.756092,W,68.7,147.7,111110,,,A*47
$GPRMC,165627.2,A,3319.225059,N,11559.708422,W,69.0,147.9,111110,,,A*49
$GPRMC,165630.9,A,3319.165249,N,11559.663082,W,70.2,147.8,111110,,,A*49
$GPRMC,165633.9,A,3319.116676,N,11559.625173,W,69.8,147.6,111110,,,A*47
$GPRMC,165636.9,A,3319.066478,N,11559.588571,W,70.1,148.2,111110,,,A*40
$GPRMC,165639.9,A,3319.017533,N,11559.554007,W,69.4,147.9,111110,,,A*4B
$GPRMC,165642.2,A,3318.979821,N,11559.524249,W,70.3,147.7,111110,,,A*4C
$GPRMC,165645.2,A,3318.929453,N,11559.488047,W,71.2,148.4,111110,,,A*40
$GPRMC,165649.2,A,3318.862321,N,11559.439011,W,70.5,148.6,111110,,,A*4D
$GPRMC,165653.2,A,3318.795639,N,11559.387075,W,68.9,146.8,111110,,,A*48
$GPRMC,165656.9,A,3318.736757,N,11559.346713,W,68.0,148.8,111110,,,A*4B
$GPRMC,165659.2,A,3318.698076,N,11559.317240,W,71.0,148.0,111110,,,A*49
$GPRMC,165703.2,A,3318.630411,N,11559.266290,W,71.1,147.6,111110,,,A*42
$GPRMC,165706.9,A,3318.569945,N,11559.219376,W,69.8,147.3,111110,,,A*4B
$GPRMC,165709.2,A,3318.529798,N,11559.190517,W,72.2,148.8,111110,,,A*42
$GPRMC,165712.2,A,3318.480327,N,11559.152552,W,71.3,147.9,111110,,,A*49
$GPRMC,165715.2,A,3318.429525,N,11559.115614,W,71.4,148.2,111110,,,A*48
$GPRMC,165718.2,A,3318.379164,N,11559.078181,W,70.6,148.0,111110,,,A*46
$GPRMC,165721.9,A,3318.315662,N,11559.034288,W,68.8,148.5,111110,,,A*4C
$GPRMC,165725.2,A,3318.261637,N,11558.993016,W,70.0,148.7,111110,,,A*42
$GPRMC,165728.0,A,3318.220895,N,11558.958855,W,67.2,147.3,111110,,,A*49
$GPRMC,165731.0,A,3318.172619,N,11558.923316,W,67.3,148.4,111110,,,A*46
$GPRMC,165734.9,A,3318.110754,N,11558.876225,W,65.5,146.6,111110,,,A*4E
$GPRMC,165737.9,A,3318.064768,N,11558.841486,W,66.0,147.3,111110,,,A*49
$GPRMC,165740.9,A,3318.017841,N,11558.804150,W,66.6,147.5,111110,,,A*46
$GPRMC,165743.9,A,3317.967089,N,11558.772264,W,66.9,149.8,111110,,,A*4E
$GPRMC,165746.9,A,3317.919221,N,11558.738836,W,66.7,148.8,111110,,,A*4E
$GPRMC,165749.9,A,3317.872112,N,11558.700351,W,67.4,147.3,111110,,,A*49
$GPRMC,165752.9,A,3317.825426,N,11558.662786,W,68.7,147.3,111110,,,A*44
$GPRMC,165755.9,A,3317.775865,N,11558.627980,W,68.4,148.4,111110,,,A*40
$GPRMC,165758.9,A,3317.724728,N,11558.593056,W,69.3,148.9,111110,,,A*4A
$GPRMC,165801.9,A,3317.675365,N,11558.555844,W,68.8,147.6,111110,,,A*4A
$GPRMC,165804.9,A,3317.628413,N,11558.520034,W,67.8,148.2,111110,,,A*48
$GPRMC,165807.9,A,3317.581237,N,11558.484455,W,67.6,148.0,111110,,,A*4B
$GPRMC,165810.9,A,3317.530005,N,11558.448557,W,69.5,148.3,111110,,,A*49
$GPRMC,165813.9,A,3317.481025,N,11558.412300,W,69.6,148.1,111110,,,A*49
$GPRMC,165816.9,A,3317.431017,N,11558.375819,W,68.8,148.5,111110,,,A*48
$GPRMC,165819.9,A,3317.382238,N,11558.339093,W,68.5,148.1,111110,,,A*4C
$GPRMC,165822.9,A,3317.332346,N,11558.300756,W,69.9,148.2,111110,,,A*4D
$GPRMC,165825.9,A,3317.283652,N,11558.267237,W,67.9,149.0,111110,,,A*4E
$GPRMC,165828.9,A,3317.236109,N,11558.231471,W,67.0,147.9,111110,,,A*4D
$GPRMC,165831.9,A,3317.190459,N,11558.195814,W,66.3,148.2,111110,,,A*4E
$GPRMC,165834.9,A,3317.143546,N,11558.160729,W,64.8,147.2,111110,,,A*47
$GPRMC,165837.9,A,3317.098726,N,11558.127456,W,63.3,148.4,111110,,,A*4A
$GPRMC,165840.9,A,3317.056475,N,11558.094075,W,61.4,146.8,111110,,,A*46
$GPRMC,165843.9,A,3317.015030,N,11558.062280,W,58.7,147.4,111110,,,A*42
$GPRMC,165846.9,A,3316.974280,N,11558.031510,W,57.9,147.7,111110,,,A*4B
$GPRMC,165849.9,A,3316.934400,N,11558.004343,W,55.1,148.9,111110,,,A*43
$GPRMC,165852.9,A,3316.895205,N,11557.974848,W,55.7,147.8,111110,,,A*49
$GPRMC,165855.2,A,3316.868125,N,11557.948989,W,54.1,141.4,111110,,,A*48
$GPRMC,165858.2,A,3316.830168,N,11557.919078,W,54.0,145.4,111110,,,A*47
$GPRMC,165901.0,A,3316.789836,N,11557.891726,W,57.2,147.2,111110,,,A*4F
$GPRMC,165905.2,A,3316.729111,N,11557.848967,W,60.3,149.0,111110,,,A*49
$GPRMC,165908.2,A,3316.684919,N,11557.817702,W,61.4,148.5,111110,,,A*47
$GPRMC,165911.9,A,3316.629265,N,11557.778414,W,61.0,147.8,111110,,,A*47
$GPRMC,165914.9,A,3316.586846,N,11557.746099,W,60.7,148.1,111110,,,A*43
$GPRMC,165917.9,A,3316.546121,N,11557.712238,W,60.0,147.3,111110,,,A*46
$GPRMC,165920.9,A,3316.503603,N,11557.679702,W,61.0,147.3,111110,,,A*45
$GPRMC,165923.2,A,3316.469120,N,11557.656011,W,61.2,149.6,111110,,,A*47
$GPRMC,165926.2,A,3316.425711,N,11557.623918,W,61.6,147.6,111110,,,A*46
$GPRMC,165929.2,A,3316.381412,N,11557.592105,W,61.5,148.4,111110,,,A*43
$GPRMC,165932.2,A,3316.337011,N,11557.560611,W,61.6,149.3,111110,,,A*49
$GPRMC,165935.2,A,3316.292209,N,11557.528390,W,62.5,148.4,111110,,,A*4D
$GPRMC,165938.2,A,3316.246178,N,11557.495282,W,63.2,148.3,111110,,,A*48
$GPRMC,165941.2,A,3316.204079,N,11557.463859,W,61.2,148.4,111110,,,A*40
$GPRMC,165944.2,A,3316.161345,N,11557.432281,W,60.6,148.4,111110,,,A*47
$GPRMC,165947.2,A,3316.119145,N,11557.399693,W,60.9,147.8,111110,,,A*44
$GPRMC,165950.2,A,3316.074417,N,11557.367196,W,62.4,148.7,111110,,,A*46
$GPRMC,165953.2,A,3316.028767,N,11557.334329,W,64.7,147.6,111110,,,A*43
$GPRMC,165956.2,A,3315.981344,N,11557.299501,W,67.6,147.7,111110,,,A*43
$GPRMC,165959.2,A,3315.934517,N,11557.262772,W,67.2,147.5,111110,,,A*46
$GPRMC,170002.2,A,3315.889073,N,11557.227124,W,66.4,146.8,111110,,,A*4A
$GPRMC,170005.2,A,3315.841703,N,11557.190441,W,67.2,146.9,111110,,,A*46
$GPRMC,170008.2,A,3315.792384,N,11557.154049,W,68.1,147.4,111110,,,A*45
$GPRMC,170011.2,A,3315.744734,N,11557.118934,W,67.1,147.8,111110,,,A*41
$GPRMC,170014.2,A,3315.698760,N,11557.084327,W,65.7,147.9,111110,,,A*4C
$GPRMC,170017.2,A,3315.652231,N,11557.049118,W,65.5,147.7,111110,,,A*4B
$GPRMC,170020.2,A,3315.606203,N,11557.014734,W,65.3,147.8,111110,,,A*46
$GPRMC,170023.2,A,3315.559668,N,11556.980182,W,65.8,148.1,111110,,,A*46
$GPRMC,170026.2,A,3315.512293,N,11556.946323,W,65.3,148.3,111110,,,A*46
$GPRMC,170029.9,A,3315.456626,N,11556.904512,W,64.5,147.9,111110,,,A*49
$GPRMC,170032.2,A,3315.420737,N,11556.878075,W,65.5,148.7,111110,,,A*46
$GPRMC,170035.2,A,3315.375669,N,11556.843230,W,64.5,148.0,111110,,,A*41
$GPRMC,170038.0,A,3315.333072,N,11556.812284,W,64.7,148.0,111110,,,A*49
$GPRMC,170041.9,A,3315.273576,N,11556.768540,W,65.2,148.3,111110,,,A*40
$GPRMC,170045.2,A,3315.224579,N,11556.730124,W,65.5,147.8,111110,,,A*4A
$GPRMC,170048.2,A,3315.178418,N,11556.696504,W,63.7,148.1,111110,,,A*42
$GPRMC,170051.2,A,3315.132830,N,11556.662845,W,64.7,148.2,111110,,,A*45
$GPRMC,170054.2,A,3315.086696,N,11556.628661,W,64.9,148.1,111110,,,A*47
$GPRMC,170057.2,A,3315.039863,N,11556.595345,W,65.3,148.3,111110,,,A*4B
$GPRMC,170100.2,A,3314.993331,N,11556.560545,W,64.6,148.1,111110,,,A*46
$GPRMC,170103.2,A,3314.948742,N,11556.526569,W,63.4,147.9,111110,,,A*4D
$GPRMC,170106.0,A,3314.907910,N,11556.496160,W,62.8,148.1,111110,,,A*45
$GPRMC,170110.2,A,3314.843457,N,11556.449804,W,64.0,149.0,111110,,,A*48
$GPRMC,170113.0,A,3314.800721,N,11556.419964,W,64.2,148.8,111110,,,A*45
$GPRMC,170116.2,A,3314.748100,N,11556.381266,W,69.1,148.5,111110,,,A*48
$GPRMC,170119.9,A,3314.694965,N,11556.334836,W,66.3,146.0,111110,,,A*40
$GPRMC,170122.2,A,3314.659261,N,11556.305801,W,66.9,146.0,111110,,,A*41
$GPRMC,170126.2,A,3314.600389,N,11556.256334,W,65.4,145.8,111110,,,A*41
$GPRMC,170129.0,A,3314.560775,N,11556.224417,W,64.5,146.8,111110,,,A*4E
$GPRMC,170132.9,A,3314.502065,N,11556.179695,W,64.8,147.9,111110,,,A*41
$GPRMC,170135.9,A,3314.453958,N,11556.145129,W,66.7,147.8,111110,,,A*47
$GPRMC,170138.9,A,3314.406922,N,11556.110744,W,67.6,148.2,111110,,,A*4F
$GPRMC,170141.9,A,3314.355577,N,11556.075534,W,69.4,148.6,111110,,,A*43
$GPRMC,170144.2,A,3314.317817,N,11556.046403,W,69.2,148.1,111110,,,A*44
$GPRMC,170148.2,A,3314.254279,N,11555.997484,W,69.4,148.2,111110,,,A*40
$GPRMC,170151.9,A,3314.193343,N,11555.953626,W,69.2,149.4,111110,,,A*40
$GPRMC,170154.9,A,3314.148457,N,11555.916373,W,66.9,145.4,111110,,,A*4D
$GPRMC,170157.2,A,3314.114722,N,11555.884281,W,66.1,141.7,111110,,,A*44
$GPRMC,170200.2,A,3314.071426,N,11555.839758,W,67.9,139.4,111110,,,A*42
$GPRMC,170203.2,A,3314.029141,N,11555.796648,W,65.8,139.6,111110,,,A*43
$GPRMC,170206.0,A,3313.989830,N,11555.757177,W,67.4,139.7,111110,,,A*46
$GPRMC,170209.2,A,3313.942865,N,11555.709931,W,67.3,140.2,111110,,,A*41
$GPRMC,170212.9,A,3313.887792,N,11555.654733,W,69.6,138.5,111110,,,A*49
$GPRMC,170215.2,A,3313.854062,N,11555.620718,W,69.5,139.8,111110,,,A*46
$GPRMC,170218.9,A,3313.797978,N,11555.563507,W,70.4,138.1,111110,,,A*4B
$GPRMC,170221.9,A,3313.752891,N,11555.520867,W,69.2,140.5,111110,,,A*47
$GPRMC,170224.9,A,3313.709193,N,11555.477045,W,68.9,140.1,111110,,,A*42
$GPRMC,170227.9,A,3313.666255,N,11555.434769,W,67.5,140.0,111110,,,A*4C
$GPRMC,170230.9,A,3313.622518,N,11555.391970,W,66.6,141.3,111110,,,A*4A
$GPRMC,170233.9,A,3313.576241,N,11555.353132,W,67.2,145.9,111110,,,A*4B
$GPRMC,170237.2,A,3313.522268,N,11555.314639,W,69.3,150.7,111110,,,A*44
$GPRMC,170240.9,A,3313.459375,N,11555.275457,W,69.0,152.0,111110,,,A*45
$GPRMC,170243.9,A,3313.405755,N,11555.248410,W,69.0,157.5,111110,,,A*44
$GPRMC,170246.9,A,3313.351466,N,11555.224888,W,69.5,159.5,111110,,,A*48
$GPRMC,170249.9,A,3313.296976,N,11555.201490,W,69.6,159.6,111110,,,A*43
$GPRMC,170252.9,A,3313.241803,N,11555.180274,W,69.7,161.0,111110,,,A*4A
$GPRMC,170255.9,A,3313.188872,N,11555.157672,W,68.6,159.4,111110,,,A*4A
$GPRMC,170258.9,A,3313.133448,N,11555.131751,W,70.2,159.7,111110,,,A*4C
$GPRMC,170301.9,A,3313.077242,N,11555.110373,W,70.2,160.7,111110,,,A*41
$GPRMC,170304.9,A,3313.022997,N,11555.086765,W,69.3,160.0,111110,,,A*44
$GPRMC,170307.9,A,3312.967644,N,11555.063424,W,68.8,160.1,111110,,,A*49
$GPRMC,170310.9,A,3312.915678,N,11555.039751,W,67.8,159.6,111110,,,A*49
$GPRMC,170313.9,A,3312.862247,N,11555.017684,W,68.2,160.1,111110,,,A*4E
$GPRMC,170316.9,A,3312.810166,N,11554.993070,W,67.9,158.9,111110,,,A*40
$GPRMC,170319.9,A,3312.756747,N,11554.969488,W,69.2,159.9,111110,,,A*45
$GPRMC,170322.9,A,3312.703043,N,11554.942193,W,69.9,158.8,111110,,,A*43
$GPRMC,170325.9,A,3312.647134,N,11554.918528,W,70.8,159.9,111110,,,A*46
$GPRMC,170328.9,A,3312.591111,N,11554.895899,W,69.9,160.4,111110,,,A*49
$GPRMC,170331.0,A,3312.552114,N,11554.878159,W,70.6,159.5,111110,,,A*48
$GPRMC,170334.2,A,3312.492328,N,11554.852321,W,70.5,159.6,111110,,,A*4A
$GPRMC,170337.2,A,3312.437171,N,11554.827708,W,71.0,159.7,111110,,,A*40
$GPRMC,170340.2,A,3312.381384,N,11554.803032,W,71.3,159.8,111110,,,A*46
$GPRMC,170343.9,A,3312.314412,N,11554.773449,W,70.5,160.1,111110,,,A*4E
$GPRMC,170346.9,A,3312.256706,N,11554.748585,W,73.3,160.0,111110,,,A*47
$GPRMC,170349.9,A,3312.201443,N,11554.723281,W,71.7,159.6,111110,,,A*4C
$GPRMC,170352.9,A,3312.145605,N,11554.699458,W,70.5,159.6,111110,,,A*44
$GPRMC,170355.9,A,3312.090656,N,11554.674773,W,69.8,159.6,111110,,,A*40
$GPRMC,170358.9,A,3312.036587,N,11554.649777,W,69.5,159.1,111110,,,A*4E
$GPRMC,170401.9,A,3311.984629,N,11554.626467,W,68.9,159.4,111110,,,A*42
$GPRMC,170404.9,A,3311.930522,N,11554.604426,W,68.5,159.6,111110,,,A*4B
$GPRMC,170407.9,A,3311.873800,N,11554.580203,W,70.3,159.8,111110,,,A*4C
$GPRMC,170411.2,A,3311.813348,N,11554.554224,W,69.8,159.9,111110,,,A*4F
$GPRMC,170414.2,A,3311.757506,N,11554.529472,W,69.3,159.7,111110,,,A*43
$GPRMC,170417.9,A,3311.691386,N,11554.498813,W,69.3,158.6,111110,,,A*4E
$GPRMC,170420.2,A,3311.649854,N,11554.479338,W,70.0,159.2,111110,,,A*43
$GPRMC,170423.2,A,3311.593894,N,11554.455910,W,71.2,159.8,111110,,,A*4F
$GPRMC,170426.9,A,3311.526266,N,11554.425480,W,70.5,158.8,111110,,,A*4C
$GPRMC,170429.9,A,3311.473712,N,11554.398016,W,70.1,156.5,111110,,,A*49
$GPRMC,170432.9,A,3311.420283,N,11554.368393,W,70.6,153.6,111110,,,A*48
$GPRMC,170435.9,A,3311.369517,N,11554.332625,W,71.1,149.5,111110,,,A*46
$GPRMC,170438.2,A,3311.331758,N,11554.302187,W,70.1,145.6,111110,,,A*46
$GPRMC,170441.9,A,3311.273624,N,11554.244766,W,71.3,139.0,111110,,,A*4A
$GPRMC,170445.2,A,3311.226940,N,11554.193722,W,69.4,137.1,111110,,,A*40
$GPRMC,170448.2,A,3311.186822,N,11554.144724,W,69.3,132.4,111110,,,A*4A
$GPRMC,170451.2,A,3311.149589,N,11554.092890,W,69.2,129.4,111110,,,A*4C
$GPRMC,170454.2,A,3311.113228,N,11554.040160,W,68.9,129.5,111110,,,A*48
$GPRMC,170457.2,A,3311.077437,N,11553.986981,W,69.2,130.0,111110,,,A*44
$GPRMC,170500.2,A,3311.040846,N,11553.933503,W,69.8,128.5,111110,,,A*47
$GPRMC,170503.9,A,3310.993838,N,11553.870405,W,69.1,129.6,111110,,,A*4A
$GPRMC,170506.9,A,3310.956590,N,11553.817232,W,69.9,129.9,111110,,,A*4D
$GPRMC,170509.9,A,3310.918991,N,11553.762068,W,71.0,129.1,111110,,,A*4D
$GPRMC,170512.9,A,3310.881122,N,11553.709734,W,70.4,129.9,111110,,,A*48
$GPRMC,170515.9,A,3310.842612,N,11553.654988,W,70.9,130.1,111110,,,A*49
$GPRMC,170518.9,A,3310.803414,N,11553.601145,W,72.0,130.0,111110,,,A*46
$GPRMC,170521.9,A,3310.766255,N,11553.545752,W,71.8,129.2,111110,,,A*41
$GPRMC,170524.9,A,3310.725932,N,11553.490673,W,72.6,130.1,111110,,,A*44
$GPRMC,170527.9,A,3310.686160,N,11553.435776,W,72.4,130.0,111110,,,A*48
$GPRMC,170530.9,A,3310.648019,N,11553.378629,W,72.7,129.7,111110,,,A*4A
$GPRMC,170533.9,A,3310.609256,N,11553.324126,W,72.3,130.1,111110,,,A*4E
$GPRMC,170536.9,A,3310.569279,N,11553.270173,W,72.2,130.7,111110,,,A*44
$GPRMC,170539.9,A,3310.533053,N,11553.212353,W,72.2,128.4,111110,,,A*40
$GPRMC,170542.9,A,3310.494749,N,11553.157368,W,71.6,129.8,111110,,,A*4C
$GPRMC,170545.9,A,3310.454640,N,11553.104195,W,71.4,130.6,111110,,,A*4D
$GPRMC,170548.9,A,3310.415826,N,11553.051058,W,70.8,130.3,111110,,,A*42
$GPRMC,170551.9,A,3310.379132,N,11552.994801,W,71.5,129.4,111110,,,A*4D
$GPRMC,170554.9,A,3310.340652,N,11552.940677,W,72.6,130.3,111110,,,A*4A
$GPRMC,170558.2,A,3310.297089,N,11552.879613,W,73.4,130.2,111110,,,A*4D
$GPRMC,170601.9,A,3310.248501,N,11552.812309,W,72.1,130.1,111110,,,A*4A
$GPRMC,170604.9,A,3310.210043,N,11552.753822,W,71.8,129.2,111110,,,A*48
$GPRMC,170607.9,A,3310.169146,N,11552.702358,W,70.6,130.3,111110,,,A*46
$GPRMC,170610.9,A,3310.131945,N,11552.650175,W,70.5,130.1,111110,,,A*4C
$GPRMC,170613.9,A,3310.095544,N,11552.596066,W,70.4,129.8,111110,,,A*47
$GPRMC,170616.9,A,3310.058115,N,11552.543089,W,70.6,130.1,111110,,,A*49
$GPRMC,170619.9,A,3310.020647,N,11552.491707,W,70.0,132.9,111110,,,A*4A
$GPRMC,170622.2,A,3309.986495,N,11552.453906,W,71.1,136.7,111110,,,A*42
$GPRMC,170625.2,A,3309.940685,N,11552.409337,W,70.6,141.1,111110,,,A*4B
$GPRMC,170629.2,A,3309.876908,N,11552.355421,W,69.1,146.3,111110,,,A*4D
$GPRMC,170632.9,A,3309.818311,N,11552.313942,W,67.2,149.6,111110,,,A*4B
$GPRMC,170635.2,A,3309.779110,N,11552.290120,W,68.8,153.6,111110,,,A*44
$GPRMC,170638.9,A,3309.710952,N,11552.259047,W,70.4,158.6,111110,,,A*48
$GPRMC,170641.9,A,3309.654155,N,11552.233556,W,72.7,159.6,111110,,,A*41
$GPRMC,170644.9,A,3309.598418,N,11552.207276,W,73.1,160.0,111110,,,A*42
$GPRMC,170647.9,A,3309.540641,N,11552.184087,W,72.8,160.6,111110,,,A*40
$GPRMC,170650.9,A,3309.481339,N,11552.157807,W,74.0,159.7,111110,,,A*4B
$GPRMC,170653.9,A,3309.424077,N,11552.133505,W,73.5,160.5,111110,,,A*49
$GPRMC,170656.9,A,3309.366104,N,11552.108428,W,74.1,160.1,111110,,,A*49
$GPRMC,170659.9,A,3309.308045,N,11552.083312,W,74.3,160.1,111110,,,A*44
$GPRMC,170703.2,A,3309.240563,N,11552.056207,W,74.3,159.4,111110,,,A*4F
$GPRMC,170706.2,A,3309.182273,N,11552.030644,W,74.8,160.2,111110,,,A*45
$GPRMC,170709.2,A,3309.123395,N,11552.005815,W,74.7,160.2,111110,,,A*4B
$GPRMC,170712.2,A,3309.065660,N,11551.981011,W,73.6,160.5,111110,,,A*46
$GPRMC,170715.2,A,3309.008558,N,11551.956505,W,73.0,160.2,111110,,,A*49
$GPRMC,170718.2,A,3308.951309,N,11551.932416,W,73.0,160.2,111110,,,A*43
$GPRMC,170721.2,A,3308.894610,N,11551.908071,W,72.8,160.0,111110,,,A*4B
$GPRMC,170724.2,A,3308.838497,N,11551.883199,W,71.9,160.2,111110,,,A*40
$GPRMC,170727.2,A,3308.782910,N,11551.859607,W,70.4,160.8,111110,,,A*4E
$GPRMC,170730.2,A,3308.727555,N,11551.835391,W,70.3,160.4,111110,,,A*41
$GPRMC,170733.2,A,3308.674822,N,11551.810430,W,69.9,159.3,111110,,,A*4C
$GPRMC,170736.9,A,3308.603383,N,11551.781298,W,71.1,159.5,111110,,,A*46
$GPRMC,170739.9,A,3308.549887,N,11551.756657,W,69.7,159.8,111110,,,A*44
$GPRMC,170742.9,A,3308.491346,N,11551.733523,W,72.6,160.4,111110,,,A*44
$GPRMC,170745.9,A,3308.438272,N,11551.709235,W,70.7,159.4,111110,,,A*46
$GPRMC,170748.9,A,3308.384744,N,11551.685576,W,70.5,159.5,111110,,,A*4D
$GPRMC,170751.9,A,3308.323152,N,11551.662657,W,72.7,161.0,111110,,,A*4E
$GPRMC,170754.9,A,3308.267859,N,11551.636913,W,70.1,159.7,111110,,,A*4E
$GPRMC,170757.9,A,3308.214574,N,11551.615110,W,68.4,159.7,111110,,,A*4D
$GPRMC,170800.9,A,3308.158496,N,11551.590419,W,71.3,159.9,111110,,,A*45
$GPRMC,170803.9,A,3308.103924,N,11551.564536,W,71.0,159.7,111110,,,A*46
$GPRMC,170806.9,A,3308.048823,N,11551.541279,W,71.2,159.9,111110,,,A*4C
$GPRMC,170809.9,A,3307.995213,N,11551.516826,W,70.0,159.4,111110,,,A*40
$GPRMC,170812.9,A,3307.937832,N,11551.494526,W,70.9,160.5,111110,,,A*4F
$GPRMC,170815.9,A,3307.881753,N,11551.467970,W,70.0,159.2,111110,,,A*4B
$GPRMC,170818.9,A,3307.830228,N,11551.447619,W,66.5,160.5,111110,,,A*48
$GPRMC,170821.9,A,3307.777977,N,11551.425468,W,66.4,159.9,111110,,,A*48
$GPRMC,170824.9,A,3307.721222,N,11551.404006,W,68.8,161.0,111110,,,A*4A
$GPRMC,170827.9,A,3307.671421,N,11551.380426,W,65.8,160.6,111110,,,A*4F
$GPRMC,170830.9,A,3307.619989,N,11551.358620,W,65.6,160.5,111110,,,A*44
$GPRMC,170833.9,A,3307.568417,N,11551.338304,W,64.3,161.2,111110,,,A*4F
$GPRMC,170836.9,A,3307.517745,N,11551.318437,W,63.8,160.8,111110,,,A*44
$GPRMC,170839.9,A,3307.469469,N,11551.292019,W,64.5,157.1,111110,,,A*42
$GPRMC,170842.9,A,3307.418305,N,11551.264754,W,66.5,155.9,111110,,,A*4A
$GPRMC,170845.9,A,3307.368940,N,11551.234978,W,66.8,152.9,111110,,,A*49
$GPRMC,170848.9,A,3307.322035,N,11551.201499,W,66.6,150.1,111110,,,A*41
$GPRMC,170851.9,A,3307.275434,N,11551.166338,W,66.2,147.6,111110,,,A*44
$GPRMC,170854.2,A,3307.239681,N,11551.139129,W,65.6,146.7,111110,,,A*41
$GPRMC,170857.9,A,3307.183921,N,11551.092140,W,66.3,142.8,111110,,,A*4C
$GPRMC,170900.9,A,3307.139978,N,11551.050421,W,67.9,140.6,111110,,,A*49
$GPRMC,170903.9,A,3307.098033,N,11551.004532,W,68.0,137.9,111110,,,A*4D
$GPRMC,170906.9,A,3307.057563,N,11550.957834,W,66.2,137.1,111110,,,A*4A
$GPRMC,170909.9,A,3307.017183,N,11550.916171,W,64.7,137.3,111110,,,A*43
$GPRMC,170912.9,A,3306.978243,N,11550.871186,W,64.8,136.4,111110,,,A*46
$GPRMC,170915.9,A,3306.938929,N,11550.828165,W,65.1,137.2,111110,,,A*4C
$GPRMC,170918.9,A,3306.899156,N,11550.784253,W,65.7,137.3,111110,,,A*43
$GPRMC,170921.9,A,3306.860418,N,11550.736411,W,65.7,136.4,111110,,,A*4F
$GPRMC,170924.9,A,3306.818980,N,11550.692860,W,66.7,136.9,111110,,,A*42
$GPRMC,170928.2,A,3306.772075,N,11550.641165,W,68.0,137.0,111110,,,A*46
$GPRMC,170931.2,A,3306.730858,N,11550.595645,W,66.8,136.1,111110,,,A*46
$GPRMC,170934.9,A,3306.682134,N,11550.536954,W,66.5,132.7,111110,,,A*4A
$GPRMC,170937.9,A,3306.646239,N,11550.486765,W,65.3,129.3,111110,,,A*42
$GPRMC,170940.9,A,3306.616870,N,11550.432292,W,65.3,123.8,111110,,,A*43
$GPRMC,170943.9,A,3306.588153,N,11550.376733,W,65.9,120.2,111110,,,A*46
$GPRMC,170946.9,A,3306.561547,N,11550.318064,W,66.7,117.1,111110,,,A*42
$GPRMC,170949.9,A,3306.538152,N,11550.257123,W,66.7,114.3,111110,,,A*48
$GPRMC,170952.9,A,3306.520033,N,11550.202170,W,64.0,111.0,111110,,,A*48
$GPRMC,170955.9,A,3306.504174,N,11550.138175,W,66.0,105.5,111110,,,A*46
$GPRMC,170958.9,A,3306.488481,N,11550.069732,W,68.0,104.3,111110,,,A*48
$GPRMC,171001.9,A,3306.475488,N,11550.004021,W,67.7,104.1,111110,,,A*43
$GPRMC,171004.9,A,3306.463736,N,11549.941299,W,65.7,103.7,111110,,,A*45
$GPRMC,171007.9,A,3306.449236,N,11549.876515,W,66.2,104.0,111110,,,A*4B
$GPRMC,171010.9,A,3306.435439,N,11549.815234,W,64.7,105.1,111110,,,A*49
$GPRMC,171013.9,A,3306.421880,N,11549.753609,W,65.0,105.1,111110,,,A*40
$GPRMC,171016.9,A,3306.411905,N,11549.686948,W,66.0,102.1,111110,,,A*4D
$GPRMC,171019.2,A,3306.402779,N,11549.640077,W,65.1,101.0,111110,,,A*41
$GPRMC,171022.2,A,3306.394495,N,11549.577316,W,65.0,98.6,111110,,,A*75
$GPRMC,171025.2,A,3306.386539,N,11549.513687,W,64.6,98.0,111110,,,A*78
$GPRMC,171028.2,A,3306.380320,N,11549.449697,W,64.6,97.9,111110,,,A*74
$GPRMC,171031.2,A,3306.372823,N,11549.384922,W,65.8,97.8,111110,,,A*70
$GPRMC,171034.2,A,3306.364653,N,11549.319126,W,66.5,98.0,111110,,,A*7A
$GPRMC,171037.0,A,3306.357636,N,11549.258694,W,66.6,97.6,111110,,,A*78
$GPRMC,171040.2,A,3306.350405,N,11549.187104,W,66.9,97.6,111110,,,A*7F
$GPRMC,171044.2,A,3306.340258,N,11549.096387,W,68.1,98.1,111110,,,A*72
$GPRMC,171047.9,A,3306.328507,N,11549.018471,W,67.4,98.1,111110,,,A*7B
$GPRMC,171050.9,A,3306.322380,N,11548.951276,W,67.6,97.3,111110,,,A*75
$GPRMC,171053.9,A,3306.314119,N,11548.882563,W,67.9,98.2,111110,,,A*7C
$GPRMC,171057.9,A,3306.302331,N,11548.795651,W,66.6,98.0,111110,,,A*70
$GPRMC,171100.9,A,3306.294105,N,11548.731546,W,66.0,97.9,111110,,,A*73
$GPRMC,171103.9,A,3306.285165,N,11548.666767,W,65.7,98.0,111110,,,A*76
$GPRMC,171106.9,A,3306.278369,N,11548.599574,W,66.4,97.0,111110,,,A*73
$GPRMC,171109.9,A,3306.271632,N,11548.533246,W,66.6,97.6,111110,,,A*7C
$GPRMC,171112.9,A,3306.266907,N,11548.470938,W,64.2,96.1,111110,,,A*7D
$GPRMC,171115.9,A,3306.259102,N,11548.407147,W,65.1,97.6,111110,,,A*7F
$GPRMC,171118.9,A,3306.249952,N,11548.344551,W,65.5,98.6,111110,,,A*76
$GPRMC,171121.9,A,3306.242452,N,11548.279812,W,65.5,98.0,111110,,,A*79
$GPRMC,171124.9,A,3306.234386,N,11548.216850,W,65.1,98.6,111110,,,A*7E
$GPRMC,171127.9,A,3306.225705,N,11548.152798,W,65.3,98.8,111110,,,A*76
$GPRMC,171130.2,A,3306.217768,N,11548.103403,W,65.3,102.2,111110,,,A*4C
$GPRMC,171133.2,A,3306.204846,N,11548.041451,W,64.2,104.5,111110,,,A*4F
$GPRMC,171136.2,A,3306.186462,N,11547.979176,W,65.3,109.5,111110,,,A*49
$GPRMC,171139.2,A,3306.165725,N,11547.919586,W,64.4,112.7,111110,,,A*48
$GPRMC,171142.9,A,3306.133733,N,11547.845936,W,67.3,116.5,111110,,,A*46
$GPRMC,171145.9,A,3306.104878,N,11547.787647,W,67.0,118.3,111110,,,A*46
$GPRMC,171148.9,A,3306.079112,N,11547.726551,W,67.8,116.9,111110,,,A*46
$GPRMC,171152.2,A,3306.053331,N,11547.662138,W,67.1,117.2,111110,,,A*44
$GPRMC,171155.9,A,3306.022422,N,11547.589366,W,68.4,118.1,111110,,,A*42
$GPRMC,171158.9,A,3305.993444,N,11547.528290,W,69.3,118.8,111110,,,A*43
$GPRMC,171201.9,A,3305.965424,N,11547.470762,W,68.2,119.2,111110,,,A*4C
$GPRMC,171204.9,A,3305.937607,N,11547.408670,W,69.4,118.2,111110,,,A*46
$GPRMC,171207.9,A,3305.911453,N,11547.350876,W,68.5,118.2,111110,,,A*40
$GPRMC,171210.9,A,3305.883487,N,11547.289578,W,69.4,118.4,111110,,,A*45
$GPRMC,171213.9,A,3305.855545,N,11547.230708,W,68.9,118.9,111110,,,A*44
$GPRMC,171216.9,A,3305.826559,N,11547.171647,W,68.8,119.0,111110,,,A*4D
$GPRMC,171219.9,A,3305.798426,N,11547.111863,W,69.5,118.7,111110,,,A*45
$GPRMC,171222.9,A,3305.769464,N,11547.052635,W,69.5,119.3,111110,,,A*4B
$GPRMC,171225.9,A,3305.739264,N,11546.992932,W,70.0,119.5,111110,,,A*48
$GPRMC,171228.9,A,3305.712188,N,11546.931985,W,69.0,118.1,111110,,,A*45
$GPRMC,171231.9,A,3305.687133,N,11546.873050,W,68.2,118.2,111110,,,A*46
$GPRMC,171234.9,A,3305.658854,N,11546.813749,W,67.9,119.6,111110,,,A*41
$GPRMC,171237.9,A,3305.630954,N,11546.754571,W,68.0,118.6,111110,,,A*4F
$GPRMC,171240.9,A,3305.604378,N,11546.694868,W,68.2,118.7,111110,,,A*47
$GPRMC,171243.9,A,3305.574956,N,11546.636356,W,69.0,119.9,111110,,,A*44
$GPRMC,171246.9,A,3305.547342,N,11546.575761,W,68.0,118.9,111110,,,A*4A
$GPRMC,171249.9,A,3305.520868,N,11546.516845,W,66.9,118.3,111110,,,A*46
$GPRMC,171252.9,A,3305.497174,N,11546.458800,W,66.3,114.9,111110,,,A*43
$GPRMC,171255.9,A,3305.473392,N,11546.393498,W,69.0,114.2,111110,,,A*4E
$GPRMC,171258.2,A,3305.454403,N,11546.347038,W,68.2,114.7,111110,,,A*43
$GPRMC,171301.2,A,3305.431541,N,11546.287111,W,66.1,113.8,111110,,,A*48
$GPRMC,171304.0,A,3305.410050,N,11546.232119,W,67.0,115.4,111110,,,A*45
$GPRMC,171307.9,A,3305.375181,N,11546.154698,W,67.8,119.0,111110,,,A*4B
$GPRMC,171310.9,A,3305.344283,N,11546.099166,W,67.2,123.9,111110,,,A*42
$GPRMC,171313.9,A,3305.311209,N,11546.046146,W,66.2,127.1,111110,,,A*4E
$GPRMC,171316.9,A,3305.274359,N,11545.995846,W,66.8,130.7,111110,,,A*4A
$GPRMC,171319.9,A,3305.234299,N,11545.946297,W,68.7,133.0,111110,,,A*41
$GPRMC,171322.9,A,3305.195112,N,11545.896684,W,68.2,132.2,111110,,,A*4D
$GPRMC,171325.9,A,3305.159159,N,11545.846961,W,68.0,132.3,111110,,,A*4F
$GPRMC,171328.9,A,3305.119834,N,11545.797234,W,67.6,132.0,111110,,,A*46
$GPRMC,171331.9,A,3305.084297,N,11545.745757,W,66.9,129.7,111110,,,A*44
$GPRMC,171334.9,A,3305.049746,N,11545.694683,W,66.9,127.4,111110,,,A*41
$GPRMC,171337.9,A,3305.019724,N,11545.637377,W,68.1,122.4,111110,,,A*47
$GPRMC,171340.9,A,3304.992331,N,11545.576779,W,69.8,117.5,111110,,,A*4F
$GPRMC,171343.2,A,3304.972859,N,11545.528354,W,69.3,116.3,111110,,,A*40
$GPRMC,171346.2,A,3304.949832,N,11545.464663,W,71.7,113.0,111110,,,A*43
$GPRMC,171349.9,A,3304.930256,N,11545.388203,W,68.8,107.9,111110,,,A*4D
$GPRMC,171352.9,A,3304.917475,N,11545.322267,W,68.3,104.4,111110,,,A*42
$GPRMC,171355.9,A,3304.907385,N,11545.258628,W,65.6,103.6,111110,,,A*42
$GPRMC,171358.9,A,3304.893671,N,11545.196088,W,64.9,105.2,111110,,,A*4C
$GPRMC,171401.2,A,3304.881970,N,11545.152181,W,61.2,107.9,111110,,,A*46
$GPRMC,171404.0,A,3304.862049,N,11545.099305,W,63.2,112.5,111110,,,A*4D
$GPRMC,171407.9,A,3304.830165,N,11545.020546,W,65.5,116.2,111110,,,A*4E
$GPRMC,171410.9,A,3304.804668,N,11544.969000,W,62.9,120.6,111110,,,A*4D
$GPRMC,171413.9,A,3304.771884,N,11544.915905,W,62.8,124.9,111110,,,A*42
$GPRMC,171416.9,A,3304.741372,N,11544.865851,W,61.8,125.2,111110,,,A*49
$GPRMC,171419.9,A,3304.712411,N,11544.816233,W,62.3,125.5,111110,,,A*47
$GPRMC,171422.2,A,3304.688590,N,11544.776764,W,64.0,126.2,111110,,,A*41
$GPRMC,171425.9,A,3304.649449,N,11544.714320,W,64.3,126.8,111110,,,A*4C
$GPRMC,171428.2,A,3304.623656,N,11544.675541,W,63.9,128.5,111110,,,A*43
$GPRMC,171431.0,A,3304.592547,N,11544.630614,W,64.9,130.1,111110,,,A*4B
$GPRMC,171434.9,A,3304.545818,N,11544.568201,W,65.3,132.4,111110,,,A*48
$GPRMC,171437.2,A,3304.515128,N,11544.531918,W,66.3,135.3,111110,,,A*43
$GPRMC,171440.2,A,3304.473859,N,11544.486342,W,68.2,138.4,111110,,,A*40
$GPRMC,171443.2,A,3304.430928,N,11544.442507,W,67.6,140.5,111110,,,A*49
$GPRMC,171446.2,A,3304.386416,N,11544.400656,W,67.4,141.1,111110,,,A*40
$GPRMC,171449.2,A,3304.342171,N,11544.359880,W,66.8,142.4,111110,,,A*46
$GPRMC,171452.2,A,3304.298088,N,11544.319032,W,66.7,141.1,111110,,,A*41
$GPRMC,171455.2,A,3304.253785,N,11544.276814,W,67.2,141.7,111110,,,A*4D
$GPRMC,171458.2,A,3304.209374,N,11544.236063,W,67.3,141.7,111110,,,A*48
$GPRMC,171501.2,A,3304.165595,N,11544.194522,W,66.9,141.3,111110,,,A*41
$GPRMC,171505.2,A,3304.107476,N,11544.140527,W,64.4,141.2,111110,,,A*4F
$GPRMC,171509.2,A,3304.049070,N,11544.087984,W,66.6,142.9,111110,,,A*4D
$GPRMC,171512.2,A,3304.006165,N,11544.045392,W,67.8,141.5,111110,,,A*4A
$GPRMC,171515.2,A,3303.961628,N,11544.004027,W,67.8,141.2,111110,,,A*43
$GPRMC,171518.2,A,3303.916591,N,11543.961069,W,68.0,141.4,111110,,,A*49
$GPRMC,171521.2,A,3303.873071,N,11543.917849,W,67.3,140.8,111110,,,A*40
$GPRMC,171524.2,A,3303.827317,N,11543.875430,W,69.4,141.7,111110,,,A*47
$GPRMC,171527.2,A,3303.781581,N,11543.832581,W,69.4,142.5,111110,,,A*47
$GPRMC,171530.2,A,3303.736791,N,11543.789795,W,68.9,140.6,111110,,,A*4B
$GPRMC,171533.9,A,3303.680273,N,11543.736514,W,69.0,141.7,111110,,,A*41
$GPRMC,171536.9,A,3303.634987,N,11543.696005,W,68.5,144.7,111110,,,A*44
$GPRMC,171539.9,A,3303.585899,N,11543.659632,W,68.9,149.4,111110,,,A*4F
$GPRMC,171542.9,A,3303.533257,N,11543.626845,W,70.1,151.1,111110,,,A*4D
$GPRMC,171545.9,A,3303.482193,N,11543.598139,W,69.7,152.1,111110,,,A*43
$GPRMC,171548.2,A,3303.441971,N,11543.571688,W,70.9,151.7,111110,,,A*47
$GPRMC,171551.9,A,3303.378650,N,11543.527279,W,70.9,150.1,111110,,,A*4B
$GPRMC,171554.9,A,3303.325793,N,11543.492043,W,71.2,151.1,111110,,,A*47
$GPRMC,171558.2,A,3303.269649,N,11543.453797,W,70.3,149.8,111110,,,A*4C
$GPRMC,171601.0,A,3303.221986,N,11543.420321,W,71.8,147.9,111110,,,A*49
$GPRMC,171604.2,A,3303.170179,N,11543.376671,W,69.9,143.3,111110,,,A*43
$GPRMC,171607.2,A,3303.126820,N,11543.330634,W,69.2,138.6,111110,,,A*47
$GPRMC,171610.2,A,3303.085944,N,11543.285007,W,67.3,137.6,111110,,,A*43
$GPRMC,171613.2,A,3303.045524,N,11543.239538,W,67.1,137.0,111110,,,A*4C
$GPRMC,171616.2,A,3303.002525,N,11543.194306,W,68.1,137.2,111110,,,A*49
$GPRMC,171619.2,A,3302.960867,N,11543.148943,W,68.3,139.2,111110,,,A*47
$GPRMC,171622.2,A,3302.915828,N,11543.108132,W,67.9,142.7,111110,,,A*40
$GPRMC,171625.2,A,3302.868305,N,11543.070106,W,68.5,148.0,111110,,,A*4F
$GPRMC,171628.2,A,3302.818081,N,11543.034493,W,68.4,150.4,111110,,,A*4F
$GPRMC,171631.9,A,3302.756350,N,11542.993464,W,69.6,150.8,111110,,,A*44
$GPRMC,171634.9,A,3302.706620,N,11542.960981,W,69.0,150.7,111110,,,A*45
$GPRMC,171637.9,A,3302.656828,N,11542.926816,W,68.5,149.6,111110,,,A*44
$GPRMC,171640.2,A,3302.619239,N,11542.897897,W,69.2,147.1,111110,,,A*43
$GPRMC,171643.2,A,3302.573449,N,11542.857140,W,69.5,143.2,111110,,,A*41
$GPRMC,171646.2,A,3302.527281,N,11542.811401,W,71.7,138.4,111110,,,A*44
$GPRMC,171649.2,A,3302.483274,N,11542.761816,W,71.3,135.3,111110,,,A*42
$GPRMC,171652.2,A,3302.444973,N,11542.710476,W,68.7,130.1,111110,,,A*48
$GPRMC,171655.9,A,3302.400895,N,11542.645284,W,68.2,126.6,111110,,,A*42
$GPRMC,171658.9,A,3302.371375,N,11542.590326,W,66.5,122.7,111110,,,A*45
$GPRMC,171702.2,A,3302.341589,N,11542.528333,W,66.4,118.5,111110,,,A*4B
$GPRMC,171705.0,A,3302.319182,N,11542.474583,W,64.8,115.9,111110,,,A*46
$GPRMC,171708.2,A,3302.295317,N,11542.409829,W,64.8,112.7,111110,,,A*4C
