NMEA Sentence Code,UTC Time,Status,Latitude,Latitude Direction,Longitude,Longitude Direction,Speed (knots),Track Angle (degrees true),Date,MagneticVariation,Magnetic Variation Direction,[FAA Mode]-Optional,Checksum
$GPRMC,002941.5,A,3306.3338,N,11641.1908,W,53.80,249.50,040410,,*21
$GPRMC,002944.5,A,3306.3147,N,11641.2431,W,51.20,247.30,040410,,*2A
$GPRMC,002947.5,A,3306.3007,N,11641.2966,W,52.70,248.40,040410,,*2D
$GPRMC,002950.5,A,3306.2945,N,11641.3439,W,49.00,255.40,040410,,*22
$GPRMC,002953.5,A,3306.2919,N,11641.3984,W,51.50,261.60,040410,,*2A
$GPRMC,002956.5,A,3306.2885,N,11641.4469,W,50.20,259.30,040410,,*2A
$GPRMC,002959.5,A,3306.2786,N,11641.4950,W,48.30,253.80,040410,,*27
$GPRMC,003002.5,A,3306.2635,N,11641.5339,W,45.00,248.50,040410,,*25
$GPRMC,003005.5,A,3306.2420,N,11641.5679,W,44.20,240.50,040410,,*2E
$GPRMC,003008.5,A,3306.2202,N,11641.6054,W,44.40,239.60,040410,,*24
$GPRMC,003011.5,A,3306.1977,N,11641.6404,W,44.40,233.50,040410,,*2E
$GPRMC,003014.5,A,3306.1761,N,11641.6686,W,44.30,229.90,040410,,*2A
$GPRMC,003017.5,A,3306.1499,N,11641.6997,W,43.70,227.20,040410,,*24
$GPRMC,003020.5,A,3306.1259,N,11641.7284,W,42.40,224.20,040410,,*23
$GPRMC,003023.5,A,3306.0996,N,11641.7568,W,42.20,223.10,040410,,*2E
$GPRMC,003026.5,A,3306.0717,N,11641.7875,W,43.30,222.90,040410,,*24
$GPRMC,003029.5,A,3306.0420,N,11641.8148,W,44.10,219.80,040410,,*28
$GPRMC,003032.5,A,3306.0137,N,11641.8409,W,44.40,218.70,040410,,*2A
$GPRMC,003035.5,A,3305.9829,N,11641.8644,W,44.80,218.00,040410,,*21
$GPRMC,003038.5,A,3305.9501,N,11641.8966,W,47.10,217.90,040410,,*28
$GPRMC,003041.5,A,3305.9181,N,11641.9275,W,47.60,217.70,040410,,*2B
$GPRMC,003044.5,A,3305.8882,N,11641.9553,W,45.70,217.90,040410,,*2B
$GPRMC,003047.5,A,3305.8590,N,11641.9806,W,43.80,214.50,040410,,*2D
$GPRMC,003050.5,A,3305.8283,N,11642.0001,W,43.10,211.10,040410,,*23
$GPRMC,003053.5,A,3305.7971,N,11642.0229,W,43.40,210.40,040410,,*20
$GPRMC,003056.5,A,3305.7684,N,11642.0412,W,41.80,207.10,040410,,*23
$GPRMC,003059.5,A,3305.7367,N,11642.0594,W,42.70,205.50,040410,,*21
$GPRMC,003102.5,A,3305.7041,N,11642.0719,W,42.60,204.90,040410,,*22
$GPRMC,003105.5,A,3305.6691,N,11642.0938,W,44.90,205.80,040410,,*2B
$GPRMC,003108.5,A,3305.6357,N,11642.1118,W,44.90,205.20,040410,,*28
$GPRMC,003111.5,A,3305.6058,N,11642.1320,W,42.30,208.20,040410,,*24
$GPRMC,003114.5,A,3305.5766,N,11642.1547,W,40.50,214.10,040410,,*25
$GPRMC,003117.5,A,3305.5551,N,11642.1806,W,37.70,223.70,040410,,*28
$GPRMC,003120.5,A,3305.5348,N,11642.2088,W,37.40,228.00,040410,,*20
$GPRMC,003123.5,A,3305.5119,N,11642.2410,W,38.40,228.20,040410,,*2D
$GPRMC,003126.5,A,3305.4870,N,11642.2630,W,36.10,216.10,040410,,*2A
$GPRMC,003129.5,A,3305.4617,N,11642.2843,W,36.20,217.30,040410,,*20
$GPRMC,003132.5,A,3305.4425,N,11642.3088,W,34.20,225.10,040410,,*26
$GPRMC,003135.5,A,3305.4214,N,11642.3336,W,35.00,224.30,040410,,*23
$GPRMC,003138.5,A,3305.3946,N,11642.3574,W,38.50,215.30,040410,,*2F
$GPRMC,003141.5,A,3305.3649,N,11642.3684,W,40.00,201.20,040410,,*23
$GPRMC,003144.5,A,3305.3320,N,11642.3795,W,42.50,194.80,040410,,*2F
$GPRMC,003147.5,A,3305.3004,N,11642.3871,W,41.60,196.40,040410,,*22
$GPRMC,003150.5,A,3305.2680,N,11642.4104,W,40.80,205.70,040410,,*26
$GPRMC,003153.5,A,3305.2392,N,11642.4290,W,40.30,208.40,040410,,*28
$GPRMC,003156.5,A,3305.2170,N,11642.4532,W,38.10,213.30,040410,,*2C
$GPRMC,003159.5,A,3305.1971,N,11642.4743,W,36.10,213.10,040410,,*21
$GPRMC,003202.5,A,3305.1716,N,11642.4962,W,37.70,215.80,040410,,*26
$GPRMC,003205.5,A,3305.1443,N,11642.5258,W,38.50,218.70,040410,,*2E
$GPRMC,003208.5,A,3305.1226,N,11642.5482,W,37.10,219.70,040410,,*2D
$GPRMC,003211.5,A,3305.1012,N,11642.5724,W,36.70,220.70,040410,,*22
$GPRMC,003214.5,A,3305.0827,N,11642.6019,W,37.50,225.00,040410,,*23
$GPRMC,003217.5,A,3305.0640,N,11642.6282,W,38.90,223.40,040410,,*2E
$GPRMC,003220.5,A,3305.0412,N,11642.6575,W,39.30,224.40,040410,,*2C
$GPRMC,003223.5,A,3305.0147,N,11642.6855,W,40.20,222.90,040410,,*21
$GPRMC,003226.5,A,3304.9921,N,11642.7171,W,41.00,228.90,040410,,*23
$GPRMC,003229.5,A,3304.9708,N,11642.7502,W,41.20,231.50,040410,,*2F
$GPRMC,003232.5,A,3304.9503,N,11642.7823,W,40.90,232.40,040410,,*2A
$GPRMC,003235.5,A,3304.9324,N,11642.8156,W,40.60,234.10,040410,,*26
$GPRMC,003238.5,A,3304.9157,N,11642.8410,W,38.60,233.90,040410,,*2A
$GPRMC,003241.5,A,3304.8983,N,11642.8693,W,38.70,231.40,040410,,*23
$GPRMC,003245.5,A,3304.8609,N,11642.8966,W,39.00,216.20,040410,,*2A
$GPRMC,003248.5,A,3304.8335,N,11642.9163,W,38.40,213.30,040410,,*20
$GPRMC,003251.5,A,3304.8062,N,11642.9404,W,38.40,212.30,040410,,*2C
$GPRMC,003254.5,A,3304.7773,N,11642.9610,W,39.10,210.80,040410,,*2B
$GPRMC,003257.5,A,3304.7441,N,11642.9857,W,41.60,210.70,040410,,*20
$GPRMC,003300.5,A,3304.7126,N,11643.0092,W,43.10,211.40,040410,,*29
$GPRMC,003303.5,A,3304.6829,N,11643.0334,W,43.00,211.10,040410,,*26
$GPRMC,003306.5,A,3304.6515,N,11643.0519,W,44.10,208.20,040410,,*25
$GPRMC,003309.5,A,3304.6219,N,11643.0709,W,43.50,206.70,040410,,*2A
$GPRMC,003312.5,A,3304.5884,N,11643.0868,W,43.40,203.20,040410,,*24
$GPRMC,003315.5,A,3304.5532,N,11643.1058,W,43.90,203.40,040410,,*22
$GPRMC,003318.5,A,3304.5223,N,11643.1194,W,42.50,201.80,040410,,*2A
$GPRMC,003321.5,A,3304.4870,N,11643.1347,W,43.60,200.80,040410,,*22
$GPRMC,003324.5,A,3304.4515,N,11643.1513,W,44.30,200.90,040410,,*2D
$GPRMC,003327.5,A,3304.4146,N,11643.1680,W,45.20,200.80,040410,,*24
$GPRMC,003330.5,A,3304.3709,N,11643.1820,W,47.30,198.20,040410,,*27
$GPRMC,003333.5,A,3304.3418,N,11643.1787,W,42.40,193.60,040410,,*28
$GPRMC,003336.5,A,3304.3094,N,11643.1850,W,40.60,195.30,040410,,*2B
$GPRMC,003339.5,A,3304.2817,N,11643.1879,W,37.40,191.60,040410,,*2E
$GPRMC,003342.5,A,3304.2537,N,11643.1986,W,34.70,197.40,040410,,*28
$GPRMC,003345.5,A,3304.2207,N,11643.2194,W,37.30,205.00,040410,,*28
$GPRMC,003348.5,A,3304.1928,N,11643.2392,W,37.90,208.00,040410,,*23
$GPRMC,003351.5,A,3304.1643,N,11643.2586,W,39.30,209.00,040410,,*2F
$GPRMC,003354.5,A,3304.1403,N,11643.2816,W,37.20,215.90,040410,,*23
$GPRMC,003357.5,A,3304.1115,N,11643.3027,W,39.60,208.70,040410,,*21
$GPRMC,003400.5,A,3304.0821,N,11643.3199,W,39.30,207.10,040410,,*23
$GPRMC,003403.5,A,3304.0550,N,11643.3305,W,38.00,205.80,040410,,*25
$GPRMC,003406.5,A,3304.0261,N,11643.3473,W,37.70,207.90,040410,,*28
$GPRMC,003409.5,A,3303.9978,N,11643.3679,W,39.20,210.60,040410,,*20
$GPRMC,003412.5,A,3303.9710,N,11643.3845,W,37.50,207.20,040410,,*20
$GPRMC,003415.5,A,3303.9490,N,11643.4050,W,35.50,212.10,040410,,*22
$GPRMC,003418.5,A,3303.9295,N,11643.4318,W,36.20,221.70,040410,,*21
$GPRMC,003421.5,A,3303.9104,N,11643.4619,W,37.10,230.20,040410,,*23
$GPRMC,003424.5,A,3303.9053,N,11643.4920,W,33.50,237.10,040410,,*24
$GPRMC,003427.5,A,3303.8956,N,11643.5246,W,33.60,242.40,040410,,*24
$GPRMC,003430.5,A,3303.9242,N,11643.5631,W,33.90,265.20,040410,,*25
$GPRMC,003436.5,A,3304.0006,N,11643.6226,W,35.00,296.80,040410,,*27
$GPRMC,003439.5,A,3304.0239,N,11643.6526,W,36.00,293.60,040410,,*29
$GPRMC,003442.5,A,3304.0401,N,11643.6937,W,37.90,287.10,040410,,*2E
$GPRMC,003445.5,A,3304.0454,N,11643.7318,W,39.50,282.80,040410,,*21
$GPRMC,003448.5,A,3304.0511,N,11643.7711,W,40.10,281.00,040410,,*20
$GPRMC,003451.5,A,3304.0523,N,11643.8137,W,41.50,276.10,040410,,*28
$GPRMC,003454.5,A,3304.0559,N,11643.8574,W,43.50,274.70,040410,,*25
$GPRMC,003457.5,A,3304.0474,N,11643.9041,W,45.20,267.20,040410,,*2C
$GPRMC,003500.5,A,3304.0352,N,11643.9508,W,47.40,260.90,040410,,*2C
$GPRMC,003503.5,A,3304.0258,N,11643.9954,W,47.40,258.70,040410,,*24
$GPRMC,003506.5,A,3304.0166,N,11644.0434,W,48.20,259.40,040410,,*21
$GPRMC,003509.5,A,3304.0085,N,11644.0890,W,47.10,258.80,040410,,*21
$GPRMC,003512.5,A,3303.9987,N,11644.1339,W,45.80,259.10,040410,,*24
$GPRMC,003515.5,A,3303.9888,N,11644.1763,W,45.50,259.20,040410,,*28
$GPRMC,003518.5,A,3304.0038,N,11644.2371,W,49.30,266.10,040410,,*29
$GPRMC,003521.5,A,3304.0279,N,11644.2754,W,44.10,276.30,040410,,*2B
$GPRMC,003524.5,A,3304.0406,N,11644.3174,W,44.20,277.20,040410,,*26
$GPRMC,003527.5,A,3304.0457,N,11644.3606,W,43.20,277.00,040410,,*26
$GPRMC,003530.5,A,3304.0490,N,11644.4015,W,42.60,275.90,040410,,*26
$GPRMC,003533.5,A,3304.0524,N,11644.4427,W,42.30,275.30,040410,,*21
$GPRMC,003536.5,A,3304.0538,N,11644.4790,W,41.40,274.70,040410,,*27
$GPRMC,003539.5,A,3304.0424,N,11644.5182,W,39.90,267.00,040410,,*27
$GPRMC,003542.5,A,3304.0297,N,11644.5616,W,43.40,260.60,040410,,*2E
$GPRMC,003545.5,A,3304.0081,N,11644.6009,W,44.90,250.80,040410,,*20
$GPRMC,003548.5,A,3303.9930,N,11644.6414,W,43.60,248.60,040410,,*27
$GPRMC,003551.5,A,3303.9749,N,11644.6720,W,42.00,245.60,040410,,*21
$GPRMC,003554.5,A,3303.9593,N,11644.7071,W,42.30,243.80,040410,,*28
$GPRMC,003557.5,A,3303.9418,N,11644.7504,W,45.00,243.60,040410,,*24
$GPRMC,003600.5,A,3303.9240,N,11644.7924,W,45.70,245.00,040410,,*27
$GPRMC,003603.5,A,3303.9097,N,11644.8314,W,43.80,246.40,040410,,*24
$GPRMC,003606.5,A,3303.9088,N,11644.8725,W,41.70,255.90,040410,,*2B
$GPRMC,003609.5,A,3303.9059,N,11644.9211,W,44.10,260.00,040410,,*27
$GPRMC,003612.5,A,3303.9121,N,11644.9629,W,44.10,269.50,040410,,*20
$GPRMC,003615.5,A,3303.9148,N,11645.0036,W,42.70,271.00,040410,,*24
$GPRMC,003618.5,A,3303.9180,N,11645.0431,W,42.20,271.20,040410,,*29
$GPRMC,003621.5,A,3303.9189,N,11645.0818,W,40.50,270.50,040410,,*2E
$GPRMC,003624.5,A,3303.9196,N,11645.1200,W,40.10,270.00,040410,,*26
$GPRMC,003627.5,A,3303.9206,N,11645.1606,W,39.90,270.50,040410,,*2E
$GPRMC,003630.5,A,3303.9224,N,11645.2020,W,40.50,270.80,040410,,*26
$GPRMC,003633.5,A,3303.9230,N,11645.2463,W,42.00,271.40,040410,,*29
$GPRMC,003636.5,A,3303.9210,N,11645.2902,W,43.30,269.30,040410,,*28
$GPRMC,003639.5,A,3303.9269,N,11645.3314,W,43.80,272.00,040410,,*27
$GPRMC,003642.5,A,3303.9237,N,11645.3754,W,44.70,269.10,040410,,*23
$GPRMC,003645.5,A,3303.9233,N,11645.4185,W,44.80,269.20,040410,,*21
$GPRMC,003648.5,A,3303.9237,N,11645.4617,W,45.00,269.60,040410,,*29
$GPRMC,003652.5,A,3303.9251,N,11645.5249,W,46.40,271.40,040410,,*20
$GPRMC,003655.5,A,3303.9348,N,11645.5644,W,43.20,277.80,040410,,*2E
$GPRMC,003658.5,A,3303.9411,N,11645.6046,W,42.20,278.90,040410,,*20
$GPRMC,003701.5,A,3303.9607,N,11645.6455,W,43.60,288.40,040410,,*29
$GPRMC,003704.5,A,3303.9767,N,11645.6772,W,41.20,292.60,040410,,*22
$GPRMC,003707.5,A,3303.9906,N,11645.7079,W,37.90,295.20,040410,,*2C
$GPRMC,003710.5,A,3304.0286,N,11645.7032,W,31.20,318.10,040410,,*22
$GPRMC,003713.5,A,3304.0607,N,11645.7154,W,33.80,326.60,040410,,*2F
$GPRMC,003716.5,A,3304.0914,N,11645.7331,W,36.00,326.30,040410,,*2E
$GPRMC,003719.5,A,3304.1238,N,11645.7493,W,36.00,325.00,040410,,*2A
$GPRMC,003722.5,A,3304.1497,N,11645.7783,W,37.20,318.40,040410,,*2A
$GPRMC,003725.5,A,3304.1757,N,11645.8062,W,39.00,312.50,040410,,*22
$GPRMC,003728.5,A,3304.2004,N,11645.8430,W,41.60,309.60,040410,,*2E
$GPRMC,003731.5,A,3304.2210,N,11645.8761,W,43.30,308.60,040410,,*20
$GPRMC,003734.5,A,3304.2447,N,11645.9105,W,41.80,305.10,040410,,*27
$GPRMC,003737.5,A,3304.2635,N,11645.9481,W,41.60,300.30,040410,,*23
$GPRMC,003740.5,A,3304.2762,N,11645.9922,W,44.20,294.20,040410,,*28
$GPRMC,003743.5,A,3304.2880,N,11646.0221,W,39.70,295.10,040410,,*27
$GPRMC,003746.5,A,3304.3011,N,11646.0577,W,38.90,295.20,040410,,*2B
$GPRMC,003749.5,A,3304.3129,N,11646.0888,W,37.30,296.30,040410,,*24
$GPRMC,003752.5,A,3304.3379,N,11646.1204,W,39.50,305.40,040410,,*22
$GPRMC,003755.5,A,3304.3539,N,11646.1459,W,39.60,306.70,040410,,*2A
$GPRMC,003758.5,A,3304.3760,N,11646.1733,W,38.10,310.50,040410,,*25
$GPRMC,003801.5,A,3304.3996,N,11646.1937,W,37.00,315.30,040410,,*26
$GPRMC,003804.5,A,3304.4287,N,11646.2180,W,39.90,319.10,040410,,*21
$GPRMC,003807.5,A,3304.4572,N,11646.2438,W,40.90,320.30,040410,,*2F
$GPRMC,003810.5,A,3304.4811,N,11646.2709,W,40.20,318.90,040410,,*2A
$GPRMC,003813.5,A,3304.5037,N,11646.3056,W,41.20,305.70,040410,,*2B
$GPRMC,003816.5,A,3304.5227,N,11646.3359,W,40.90,302.70,040410,,*2C
$GPRMC,003819.5,A,3304.5383,N,11646.3665,W,38.20,300.90,040410,,*2E
$GPRMC,003822.5,A,3304.5563,N,11646.3979,W,38.80,299.60,040410,,*28
$GPRMC,003825.5,A,3304.5733,N,11646.4344,W,41.60,299.50,040410,,*28
$GPRMC,003828.5,A,3304.5907,N,11646.4707,W,42.00,300.10,040410,,*2F
$GPRMC,003831.5,A,3304.6057,N,11646.5062,W,41.50,300.00,040410,,*2A
$GPRMC,003834.5,A,3304.6271,N,11646.5424,W,43.00,302.80,040410,,*22
$GPRMC,003837.5,A,3304.6465,N,11646.5819,W,46.10,302.70,040410,,*2B
$GPRMC,003840.5,A,3304.6671,N,11646.6207,W,46.50,303.70,040410,,*2F
$GPRMC,003843.5,A,3304.6892,N,11646.6526,W,45.30,305.70,040410,,*28
$GPRMC,003846.5,A,3304.7034,N,11646.6951,W,45.20,299.80,040410,,*2E
$GPRMC,003849.5,A,3304.7143,N,11646.7356,W,43.30,291.40,040410,,*2F
$GPRMC,003852.5,A,3304.7238,N,11646.7671,W,40.00,288.80,040410,,*2E
$GPRMC,003855.5,A,3304.7358,N,11646.8071,W,43.30,288.10,040410,,*2E
$GPRMC,003858.5,A,3304.7472,N,11646.8466,W,42.90,286.40,040410,,*2E
$GPRMC,003901.5,A,3304.7564,N,11646.8875,W,42.80,285.40,040410,,*29
$GPRMC,003904.5,A,3304.7653,N,11646.9216,W,41.30,283.70,040410,,*28
$GPRMC,003907.5,A,3304.7723,N,11646.9599,W,40.80,282.50,040410,,*24
$GPRMC,003910.5,A,3304.7914,N,11646.9956,W,41.20,292.60,040410,,*2E
$GPRMC,003913.5,A,3304.8099,N,11647.0250,W,40.10,305.70,040410,,*27
$GPRMC,003916.5,A,3304.8284,N,11647.0513,W,38.00,307.20,040410,,*25
$GPRMC,003919.5,A,3304.8451,N,11647.0689,W,32.10,311.30,040410,,*29
$GPRMC,003922.5,A,3304.8621,N,11647.0854,W,29.50,317.80,040410,,*29
$GPRMC,003925.5,A,3304.8761,N,11647.0919,W,26.70,327.70,040410,,*22
$GPRMC,003928.5,A,3304.8966,N,11647.0976,W,26.90,336.70,040410,,*21
$GPRMC,003931.5,A,3304.9170,N,11647.1142,W,28.00,327.90,040410,,*20
$GPRMC,003934.5,A,3304.9375,N,11647.1371,W,30.20,321.60,040410,,*22
$GPRMC,003937.5,A,3304.9545,N,11647.1550,W,29.40,320.40,040410,,*2C
$GPRMC,003940.5,A,3304.9732,N,11647.1728,W,28.20,322.20,040410,,*20
$GPRMC,003943.5,A,3304.9898,N,11647.1890,W,27.30,312.70,040410,,*28
$GPRMC,003946.5,A,3304.9982,N,11647.2121,W,26.40,305.30,040410,,*23
$GPRMC,003949.5,A,3305.0032,N,11647.2481,W,29.20,298.40,040410,,*22
$GPRMC,003952.5,A,3305.0216,N,11647.2860,W,35.00,298.20,040410,,*26
$GPRMC,003955.5,A,3305.0326,N,11647.3172,W,33.90,296.90,040410,,*22
$GPRMC,003958.5,A,3305.0594,N,11647.3456,W,33.50,304.40,040410,,*28
$GPRMC,004001.5,A,3305.0719,N,11647.3698,W,33.70,301.60,040410,,*28
$GPRMC,004004.5,A,3305.0881,N,11647.3996,W,34.60,301.40,040410,,*26
$GPRMC,004007.5,A,3305.1018,N,11647.4316,W,35.90,299.90,040410,,*2A
$GPRMC,004010.5,A,3305.1238,N,11647.4622,W,36.90,305.20,040410,,*22
$GPRMC,004013.5,A,3305.1335,N,11647.4938,W,36.20,300.50,040410,,*20
$GPRMC,004016.5,A,3305.1480,N,11647.5267,W,37.60,295.70,040410,,*26
$GPRMC,004019.5,A,3305.1504,N,11647.5584,W,36.00,285.50,040410,,*2A
$GPRMC,004022.5,A,3305.1377,N,11647.5880,W,36.20,275.70,040410,,*26
$GPRMC,004025.5,A,3305.1315,N,11647.6175,W,33.60,268.80,040410,,*27
$GPRMC,004028.5,A,3305.0808,N,11647.6337,W,30.70,240.10,040410,,*29
$GPRMC,004031.5,A,3305.0474,N,11647.6503,W,32.90,224.70,040410,,*2F
$GPRMC,004034.5,A,3305.0187,N,11647.6671,W,37.10,213.50,040410,,*2E
$GPRMC,004037.5,A,3304.9881,N,11647.6953,W,40.80,216.50,040410,,*29
$GPRMC,004040.5,A,3304.9602,N,11647.7199,W,41.30,216.90,040410,,*25
$GPRMC,004043.5,A,3304.9256,N,11647.7426,W,43.80,215.00,040410,,*21
$GPRMC,004046.5,A,3304.8878,N,11647.7581,W,43.90,211.50,040410,,*2F
$GPRMC,004049.5,A,3304.8549,N,11647.7771,W,44.10,209.20,040410,,*23
$GPRMC,004052.5,A,3304.8213,N,11647.7971,W,45.10,207.50,040410,,*27
$GPRMC,004055.5,A,3304.7862,N,11647.8181,W,46.00,206.90,040410,,*24
$GPRMC,004058.5,A,3304.7552,N,11647.8389,W,43.90,210.40,040410,,*2B
$GPRMC,004101.5,A,3304.7218,N,11647.8629,W,44.40,210.70,040410,,*29
$GPRMC,004104.5,A,3304.6906,N,11647.8844,W,44.10,211.70,040410,,*28
$GPRMC,004107.5,A,3304.6589,N,11647.9071,W,44.20,211.40,040410,,*2F
$GPRMC,004110.5,A,3304.6351,N,11647.9281,W,39.00,216.60,040410,,*2A
$GPRMC,004113.5,A,3304.6124,N,11647.9516,W,37.40,218.80,040410,,*2A
$GPRMC,004116.5,A,3304.5893,N,11647.9743,W,37.40,218.20,040410,,*21
$GPRMC,004119.5,A,3304.5667,N,11647.9889,W,36.00,215.30,040410,,*2B
$GPRMC,004122.5,A,3304.5431,N,11648.0097,W,35.20,216.30,040410,,*21
$GPRMC,004125.5,A,3304.5240,N,11648.0134,W,31.50,212.80,040410,,*22
$GPRMC,004128.5,A,3304.5026,N,11648.0320,W,31.30,214.00,040410,,*22
$GPRMC,004131.5,A,3304.4798,N,11648.0498,W,31.90,213.50,040410,,*25
$GPRMC,004134.5,A,3304.4750,N,11648.0737,W,28.30,222.60,040410,,*21
$GPRMC,004139.5,A,3304.4599,N,11648.1231,W,30.50,226.50,040410,,*21
$GPRMC,004142.5,A,3304.4394,N,11648.1625,W,32.30,226.30,040410,,*25
$GPRMC,004145.5,A,3304.4204,N,11648.1860,W,32.30,225.10,040410,,*24
$GPRMC,004151.5,A,3304.3861,N,11648.2134,W,32.50,223.80,040410,,*2D
$GPRMC,004154.5,A,3304.3627,N,11648.2455,W,33.40,223.50,040410,,*2B
$GPRMC,004157.5,A,3304.3418,N,11648.2734,W,35.00,224.80,040410,,*2A
$GPRMC,004200.5,A,3304.3172,N,11648.2998,W,36.60,221.60,040410,,*24
$GPRMC,004203.5,A,3304.2935,N,11648.3230,W,35.90,220.00,040410,,*2E
$GPRMC,004206.5,A,3304.2704,N,11648.3451,W,36.10,219.20,040410,,*25
$GPRMC,004209.5,A,3304.2375,N,11648.3601,W,37.70,211.20,040410,,*20
$GPRMC,004212.5,A,3304.2107,N,11648.3794,W,37.70,211.30,040410,,*21
$GPRMC,004215.5,A,3304.1816,N,11648.4033,W,38.50,212.00,040410,,*2C
$GPRMC,004218.5,A,3304.1565,N,11648.4248,W,38.50,212.60,040410,,*20
$GPRMC,004221.5,A,3304.1333,N,11648.4419,W,35.40,212.00,040410,,*27
$GPRMC,004224.5,A,3304.1090,N,11648.4595,W,35.40,211.70,040410,,*29
$GPRMC,004227.5,A,3304.0795,N,11648.4874,W,37.30,214.20,040410,,*2E
$GPRMC,004230.5,A,3304.0574,N,11648.5157,W,36.80,220.50,040410,,*26
$GPRMC,004233.5,A,3304.0366,N,11648.5574,W,38.60,227.80,040410,,*2F
$GPRMC,004236.5,A,3304.0141,N,11648.5826,W,38.10,224.40,040410,,*2F
$GPRMC,004239.5,A,3303.9921,N,11648.6099,W,37.60,219.60,040410,,*2B
$GPRMC,004242.5,A,3304.0019,N,11648.6109,W,23.60,227.70,040410,,*2A
$GPRMC,004245.5,A,3303.9906,N,11648.6279,W,23.00,230.00,040410,,*27
$GPRMC,004248.5,A,3303.9755,N,11648.6501,W,27.20,232.20,040410,,*2C
$GPRMC,004251.5,A,3303.9376,N,11648.6500,W,27.80,222.20,040410,,*2B
$GPRMC,004254.5,A,3303.9189,N,11648.6721,W,28.70,222.20,040410,,*2D
$GPRMC,004257.5,A,3303.8905,N,11648.6994,W,34.00,220.10,040410,,*28
$GPRMC,004300.5,A,3303.8563,N,11648.7137,W,32.20,225.10,040410,,*26
$GPRMC,004303.5,A,3303.8261,N,11648.7173,W,33.90,208.70,040410,,*23
$GPRMC,004306.5,A,3303.8024,N,11648.7297,W,32.90,210.60,040410,,*25
$GPRMC,004309.5,A,3303.7861,N,11648.7594,W,32.80,217.40,040410,,*2C
$GPRMC,004312.5,A,3303.7620,N,11648.7816,W,35.20,222.00,040410,,*25
$GPRMC,004315.5,A,3303.7377,N,11648.8025,W,34.60,223.10,040410,,*27
$GPRMC,004318.5,A,3303.7157,N,11648.8204,W,33.50,220.40,040410,,*29
$GPRMC,004321.5,A,3303.6816,N,11648.8382,W,37.80,211.90,040410,,*27
$GPRMC,004324.5,A,3303.6559,N,11648.8526,W,38.20,211.30,040410,,*23
$GPRMC,004327.5,A,3303.6220,N,11648.8710,W,41.50,210.70,040410,,*22
$GPRMC,004330.5,A,3303.5925,N,11648.8907,W,38.90,207.10,040410,,*23
$GPRMC,004333.5,A,3303.5644,N,11648.9062,W,37.90,206.80,040410,,*24
$GPRMC,004336.5,A,3303.5472,N,11648.9310,W,36.30,211.40,040410,,*21
$GPRMC,004339.5,A,3303.5164,N,11648.9632,W,41.00,217.10,040410,,*29
$GPRMC,004342.5,A,3303.4982,N,11648.9829,W,37.00,218.80,040410,,*27
$GPRMC,004351.5,A,3303.4217,N,11649.0709,W,40.60,217.40,040410,,*22
$GPRMC,004354.5,A,3303.3964,N,11649.0896,W,38.70,213.20,040410,,*2A
$GPRMC,004357.5,A,3303.3722,N,11649.1139,W,40.40,215.60,040410,,*26
$GPRMC,004400.5,A,3303.3588,N,11649.1442,W,40.00,221.40,040410,,*29
$GPRMC,004403.5,A,3303.3351,N,11649.1743,W,41.50,223.20,040410,,*2A
$GPRMC,004406.5,A,3303.3101,N,11649.2021,W,41.50,223.20,040410,,*28
$GPRMC,004409.5,A,3303.2872,N,11649.2227,W,39.30,221.90,040410,,*2F
$GPRMC,004412.5,A,3303.2641,N,11649.2518,W,41.90,218.80,040410,,*2E
$GPRMC,004415.5,A,3303.2388,N,11649.2781,W,40.90,220.60,040410,,*2F
$GPRMC,004418.5,A,3303.2079,N,11649.2867,W,40.00,213.70,040410,,*20
$GPRMC,004421.5,A,3303.1810,N,11649.2753,W,36.90,195.80,040410,,*2C
$GPRMC,004424.5,A,3303.1523,N,11649.2751,W,35.90,191.30,040410,,*2A
$GPRMC,004427.5,A,3303.1231,N,11649.2744,W,35.00,187.20,040410,,*26
$GPRMC,004430.5,A,3303.0942,N,11649.2660,W,34.60,179.60,040410,,*2B
$GPRMC,004433.5,A,3303.0732,N,11649.2647,W,32.50,179.90,040410,,*2E
$GPRMC,004436.5,A,3303.0444,N,11649.2633,W,32.90,176.90,040410,,*29
$GPRMC,004439.5,A,3303.0081,N,11649.2625,W,33.80,178.50,040410,,*2E
$GPRMC,004442.5,A,3302.9846,N,11649.2585,W,33.40,179.80,040410,,*20
$GPRMC,004445.5,A,3302.9551,N,11649.2634,W,29.40,185.30,040410,,*26
$GPRMC,004448.5,A,3302.9265,N,11649.2671,W,29.60,185.40,040410,,*2F
$GPRMC,004451.5,A,3302.8898,N,11649.3144,W,35.90,204.20,040410,,*20
$GPRMC,004454.5,A,3302.8658,N,11649.3649,W,43.60,220.00,040410,,*27
$GPRMC,004457.5,A,3302.8360,N,11649.4018,W,46.60,222.50,040410,,*2D
$GPRMC,004500.5,A,3302.8277,N,11649.4403,W,43.90,234.00,040410,,*2F
$GPRMC,004503.5,A,3302.8078,N,11649.4781,W,43.00,235.60,040410,,*26
$GPRMC,004506.5,A,3302.7928,N,11649.5164,W,41.70,238.70,040410,,*25
$GPRMC,004517.5,A,3302.7665,N,11649.6560,W,40.50,257.70,040410,,*2A
$GPRMC,004520.5,A,3302.7588,N,11649.6952,W,40.80,260.70,040410,,*2A
$GPRMC,004523.5,A,3302.7537,N,11649.7371,W,42.40,261.20,040410,,*2D
$GPRMC,004535.5,A,3302.7602,N,11649.9174,W,45.60,268.70,040410,,*2F
$GPRMC,004538.5,A,3302.7596,N,11649.9620,W,45.10,268.80,040410,,*22
$GPRMC,004541.5,A,3302.7609,N,11649.9998,W,42.60,270.20,040410,,*26
$GPRMC,004544.5,A,3302.7637,N,11650.0386,W,41.50,272.50,040410,,*2F
$GPRMC,004547.5,A,3302.7741,N,11650.0748,W,39.20,276.50,040410,,*26
$GPRMC,004550.5,A,3302.7998,N,11650.1004,W,34.60,285.00,040410,,*24
$GPRMC,004553.5,A,3302.8384,N,11650.1196,W,32.40,303.50,040410,,*2B
$GPRMC,004556.5,A,3302.8729,N,11650.1464,W,36.90,297.10,040410,,*24
$GPRMC,004559.5,A,3302.8891,N,11650.1670,W,37.20,295.10,040410,,*28
$GPRMC,004602.5,A,3302.9063,N,11650.2016,W,37.60,296.00,040410,,*22
$GPRMC,004605.5,A,3302.9281,N,11650.2372,W,38.90,298.20,040410,,*26
$GPRMC,004608.5,A,3302.9425,N,11650.2721,W,39.50,293.20,040410,,*27
$GPRMC,004611.5,A,3302.9598,N,11650.3067,W,39.10,296.30,040410,,*2C
$GPRMC,004614.5,A,3302.9763,N,11650.3357,W,36.80,299.10,040410,,*24
$GPRMC,004617.5,A,3302.9875,N,11650.3620,W,34.20,299.60,040410,,*25
$GPRMC,004620.5,A,3303.0107,N,11650.3868,W,33.20,307.80,040410,,*28
$GPRMC,004623.5,A,3303.0387,N,11650.4114,W,33.70,308.90,040410,,*2F
$GPRMC,004626.5,A,3303.0564,N,11650.4400,W,35.10,300.00,040410,,*20
$GPRMC,004629.5,A,3303.0690,N,11650.4689,W,33.70,298.50,040410,,*21
$GPRMC,004637.5,A,3303.0531,N,11650.5168,W,35.90,273.10,040410,,*26
$GPRMC,004640.5,A,3303.0541,N,11650.5516,W,36.50,273.10,040410,,*23
$GPRMC,004643.5,A,3303.0554,N,11650.5910,W,38.70,271.00,040410,,*21
$GPRMC,004646.5,A,3303.0541,N,11650.6271,W,38.30,270.50,040410,,*2F
$GPRMC,004649.5,A,3303.0497,N,11650.6604,W,37.80,268.50,040410,,*21
$GPRMC,004652.5,A,3303.0426,N,11650.7002,W,38.30,267.70,040410,,*29
$GPRMC,004655.5,A,3303.0522,N,11650.7581,W,40.80,269.10,040410,,*29
$GPRMC,004658.5,A,3303.0519,N,11650.7983,W,39.80,269.00,040410,,*2D
$GPRMC,004701.5,A,3303.0527,N,11650.8391,W,41.90,269.60,040410,,*23
$GPRMC,004704.5,A,3303.0522,N,11650.8822,W,44.20,269.20,040410,,*2A
$GPRMC,004707.5,A,3303.0528,N,11650.9239,W,42.90,269.70,040410,,*2A
$GPRMC,004710.5,A,3303.0562,N,11650.9696,W,46.10,274.30,040410,,*27
$GPRMC,004713.5,A,3303.0565,N,11651.0089,W,43.00,274.70,040410,,*23
$GPRMC,004716.5,A,3303.0595,N,11651.0487,W,41.60,275.60,040410,,*27
$GPRMC,004719.5,A,3303.0622,N,11651.0911,W,41.70,274.80,040410,,*2B
$GPRMC,004722.5,A,3303.0645,N,11651.1310,W,41.50,274.50,040410,,*27
$GPRMC,004729.5,A,3303.0312,N,11651.2258,W,43.50,252.00,040410,,*26
$GPRMC,004732.5,A,3303.0203,N,11651.2636,W,42.20,247.00,040410,,*23
$GPRMC,004735.5,A,3303.0040,N,11651.3004,W,42.10,244.60,040410,,*21
$GPRMC,004738.5,A,3302.9829,N,11651.3351,W,42.70,238.80,040410,,*23
$GPRMC,004741.5,A,3302.9605,N,11651.3714,W,43.30,240.20,040410,,*28
$GPRMC,004744.5,A,3302.9418,N,11651.4096,W,43.50,241.80,040410,,*24
$GPRMC,004751.5,A,3302.8975,N,11651.4641,W,37.40,228.60,040410,,*28
$GPRMC,004754.5,A,3302.8774,N,11651.4957,W,37.70,229.70,040410,,*29
$GPRMC,004757.5,A,3302.8584,N,11651.5244,W,37.50,232.30,040410,,*23
$GPRMC,004800.5,A,3302.8414,N,11651.5529,W,36.40,233.60,040410,,*2E
$GPRMC,004803.5,A,3302.8232,N,11651.5782,W,34.90,233.50,040410,,*20
$GPRMC,004806.5,A,3302.8034,N,11651.6011,W,33.10,235.40,040410,,*27
$GPRMC,004809.5,A,3302.7892,N,11651.6285,W,32.10,238.20,040410,,*26
$GPRMC,004812.5,A,3302.7738,N,11651.6506,W,31.10,237.20,040410,,*23
$GPRMC,004815.5,A,3302.7585,N,11651.6741,W,30.40,235.70,040410,,*22
$GPRMC,004818.5,A,3302.7440,N,11651.6992,W,30.30,236.30,040410,,*27
$GPRMC,004821.5,A,3302.7303,N,11651.7171,W,28.80,236.40,040410,,*2C
$GPRMC,004824.5,A,3302.7187,N,11651.7410,W,28.20,238.00,040410,,*25
$GPRMC,004827.5,A,3302.7069,N,11651.7647,W,28.20,237.90,040410,,*21
$GPRMC,004830.5,A,3302.6964,N,11651.7837,W,26.50,241.10,040410,,*2B
$GPRMC,004833.5,A,3302.6887,N,11651.7914,W,23.90,238.60,040410,,*24
$GPRMC,004836.5,A,3302.6781,N,11651.8064,W,23.20,235.90,040410,,*20
$GPRMC,004839.5,A,3302.6658,N,11651.8311,W,23.40,233.80,040410,,*2A
$GPRMC,004842.5,A,3302.6514,N,11651.8630,W,25.90,235.40,040410,,*2A
$GPRMC,004845.5,A,3302.6391,N,11651.8839,W,25.90,234.70,040410,,*23
$GPRMC,004848.5,A,3302.6253,N,11651.9062,W,25.70,234.90,040410,,*26
$GPRMC,004851.5,A,3302.6135,N,11651.9280,W,25.90,235.20,040410,,*27
$GPRMC,004854.5,A,3302.6033,N,11651.9415,W,24.30,235.90,040410,,*2F
$GPRMC,004857.5,A,3302.5916,N,11651.9680,W,25.10,236.20,040410,,*24
$GPRMC,004900.5,A,3302.5797,N,11651.9748,W,24.30,229.10,040410,,*2B
$GPRMC,004903.5,A,3302.5688,N,11651.9903,W,23.80,232.40,040410,,*25
$GPRMC,004906.5,A,3302.5582,N,11652.0132,W,25.60,237.40,040410,,*24
$GPRMC,004909.5,A,3302.5463,N,11652.0344,W,25.20,237.20,040410,,*24
$GPRMC,004912.5,A,3302.5382,N,11652.0565,W,24.70,241.20,040410,,*26
$GPRMC,004915.5,A,3302.5284,N,11652.0708,W,18.80,239.50,040410,,*27
$GPRMC,004918.5,A,3302.5225,N,11652.0926,W,15.00,239.70,040410,,*24
$GPRMC,004921.5,A,3302.5168,N,11652.1027,W,13.20,235.40,040410,,*26
$GPRMC,004924.5,A,3302.5191,N,11652.1058,W,5.50,232.00,040410,,*1E
$GPRMC,004948.5,A,3302.5242,N,11652.1134,W,6.20,229.50,040410,,*19
$GPRMC,004951.5,A,3302.5197,N,11652.1187,W,7.00,222.40,040410,,*1B
$GPRMC,004954.5,A,3302.5134,N,11652.1299,W,9.40,230.50,040410,,*13
$GPRMC,004957.5,A,3302.4994,N,11652.1608,W,19.90,239.50,040410,,*2A
$GPRMC,005000.5,A,3302.4853,N,11652.1844,W,23.00,237.40,040410,,*23
$GPRMC,005003.5,A,3302.4717,N,11652.2085,W,23.80,237.70,040410,,*22
$GPRMC,005006.5,A,3302.4588,N,11652.2360,W,26.00,238.60,040410,,*28
$GPRMC,005009.5,A,3302.4386,N,11652.2703,W,28.20,236.20,040410,,*28
$GPRMC,005012.5,A,3302.4195,N,11652.3049,W,30.00,236.30,040410,,*20
$GPRMC,005015.5,A,3302.4062,N,11652.3339,W,29.60,239.60,040410,,*2E
$GPRMC,005018.5,A,3302.3905,N,11652.3595,W,28.30,236.00,040410,,*21
$GPRMC,005021.5,A,3302.3714,N,11652.3898,W,25.10,235.50,040410,,*2C
$GPRMC,005024.5,A,3302.3597,N,11652.4151,W,20.00,236.90,040410,,*20
$GPRMC,005027.5,A,3302.3526,N,11652.4291,W,18.70,236.60,040410,,*25
$GPRMC,005030.5,A,3302.3432,N,11652.4477,W,21.20,241.20,040410,,*22
$GPRMC,005033.5,A,3302.3325,N,11652.4704,W,22.70,237.20,040410,,*20
$GPRMC,005036.5,A,3302.3188,N,11652.4885,W,24.10,233.00,040410,,*20
$GPRMC,005039.5,A,3302.3086,N,11652.5071,W,23.70,236.20,040410,,*24
$GPRMC,005042.5,A,3302.2990,N,11652.5290,W,23.80,236.90,040410,,*2E
$GPRMC,005045.5,A,3302.2869,N,11652.5499,W,24.80,237.20,040410,,*2C
$GPRMC,005048.5,A,3302.2745,N,11652.5718,W,22.60,236.30,040410,,*22
$GPRMC,005051.5,A,3302.2617,N,11652.5920,W,23.50,235.30,040410,,*28
$GPRMC,005054.5,A,3302.2496,N,11652.6135,W,25.20,236.20,040410,,*2A
$GPRMC,005057.5,A,3302.2362,N,11652.6358,W,26.50,235.80,040410,,*21
$GPRMC,005100.5,A,3302.2239,N,11652.6559,W,27.70,233.80,040410,,*2F
$GPRMC,005103.5,A,3302.2117,N,11652.6785,W,28.30,235.40,040410,,*21
$GPRMC,005106.5,A,3302.1996,N,11652.7019,W,28.70,236.70,040410,,*21
$GPRMC,005109.5,A,3302.1806,N,11652.7299,W,33.00,236.20,040410,,*24
$GPRMC,005112.5,A,3302.1622,N,11652.7568,W,33.30,235.00,040410,,*2D
$GPRMC,005115.5,A,3302.1498,N,11652.7877,W,32.60,236.40,040410,,*29
$GPRMC,005118.5,A,3302.1371,N,11652.8117,W,29.50,236.60,040410,,*2F
$GPRMC,005121.5,A,3302.1272,N,11652.8311,W,24.30,236.90,040410,,*27
$GPRMC,005124.5,A,3302.1196,N,11652.8429,W,17.30,239.90,040410,,*28
$GPRMC,005127.5,A,3302.1153,N,11652.8492,W,12.90,248.60,040410,,*24
$GPRMC,005130.5,A,3302.1135,N,11652.8563,W,10.80,248.70,040410,,*2F
$GPRMC,005209.5,A,3302.1167,N,11652.8348,W,5.30,218.90,040410,,*1A
$GPRMC,005212.5,A,3302.1104,N,11652.8379,W,7.20,204.10,040410,,*11
$GPRMC,005215.5,A,3302.0980,N,11652.8413,W,11.50,189.20,040410,,*2D
$GPRMC,005218.5,A,3302.0821,N,11652.8507,W,15.80,194.60,040410,,*2F
$GPRMC,005221.5,A,3302.0639,N,11652.8563,W,18.00,194.00,040410,,*23
$GPRMC,005224.5,A,3302.0344,N,11652.8882,W,26.90,209.80,040410,,*20
$GPRMC,005227.5,A,3302.0043,N,11652.9292,W,34.00,219.60,040410,,*28
$GPRMC,005230.5,A,3301.9749,N,11652.9752,W,39.30,224.10,040410,,*27
$GPRMC,005233.5,A,3301.9476,N,11653.0106,W,40.30,224.50,040410,,*2E
$GPRMC,005236.5,A,3301.9214,N,11653.0401,W,41.10,224.50,040410,,*28
$GPRMC,005239.5,A,3301.8970,N,11653.0727,W,42.00,225.60,040410,,*28
$GPRMC,005242.5,A,3301.8721,N,11653.1193,W,43.90,229.20,040410,,*26
$GPRMC,005245.5,A,3301.8505,N,11653.1409,W,41.60,227.70,040410,,*25
$GPRMC,005248.5,A,3301.8261,N,11653.1764,W,41.80,227.40,040410,,*28
$GPRMC,005251.5,A,3301.8000,N,11653.2083,W,42.10,225.50,040410,,*21
$GPRMC,005254.5,A,3301.7737,N,11653.2433,W,42.00,226.20,040410,,*22
$GPRMC,005257.5,A,3301.7489,N,11653.2786,W,42.70,226.70,040410,,*28
$GPRMC,005300.5,A,3301.7232,N,11653.3143,W,43.00,227.10,040410,,*22
$GPRMC,005303.5,A,3301.6971,N,11653.3437,W,42.50,226.30,040410,,*2D
$GPRMC,005306.5,A,3301.6709,N,11653.3771,W,43.30,225.50,040410,,*2A
$GPRMC,005309.5,A,3301.6482,N,11653.4100,W,43.00,227.00,040410,,*26
$GPRMC,005312.5,A,3301.6222,N,11653.4439,W,43.80,227.20,040410,,*25
$GPRMC,005315.5,A,3301.5968,N,11653.4747,W,43.80,226.90,040410,,*24
$GPRMC,005318.5,A,3301.5710,N,11653.5061,W,43.40,226.80,040410,,*27
$GPRMC,005321.5,A,3301.5434,N,11653.5451,W,44.90,227.80,040410,,*24
$GPRMC,005324.5,A,3301.5208,N,11653.5744,W,44.10,226.90,040410,,*27
$GPRMC,005327.5,A,3301.4951,N,11653.6079,W,44.90,226.50,040410,,*2C
$GPRMC,005330.5,A,3301.4675,N,11653.6471,W,45.70,227.50,040410,,*21
$GPRMC,005333.5,A,3301.4427,N,11653.6799,W,46.00,227.40,040410,,*27
$GPRMC,005336.5,A,3301.4154,N,11653.7143,W,46.70,227.20,040410,,*22
$GPRMC,005339.5,A,3301.3874,N,11653.7518,W,48.20,226.90,040410,,*2A
$GPRMC,005342.5,A,3301.3582,N,11653.7898,W,48.40,226.80,040410,,*20
$GPRMC,005345.5,A,3301.3291,N,11653.8274,W,49.00,226.00,040410,,*28
$GPRMC,005348.5,A,3301.3011,N,11653.8672,W,47.90,227.30,040410,,*28
$GPRMC,005351.5,A,3301.2719,N,11653.9058,W,49.60,227.20,040410,,*21
$GPRMC,005354.5,A,3301.2430,N,11653.9470,W,50.60,227.30,040410,,*2B
$GPRMC,005357.5,A,3301.2150,N,11653.9832,W,50.00,227.40,040410,,*20
$GPRMC,005400.5,A,3301.1884,N,11654.0146,W,48.90,226.60,040410,,*21
$GPRMC,005403.5,A,3301.1588,N,11654.0531,W,48.90,228.40,040410,,*2B
$GPRMC,005406.5,A,3301.1304,N,11654.0881,W,49.40,227.10,040410,,*2C
$GPRMC,005409.5,A,3301.1020,N,11654.1252,W,49.60,228.10,040410,,*2E
$GPRMC,005412.5,A,3301.0771,N,11654.1540,W,48.00,228.50,040410,,*21
$GPRMC,005415.5,A,3301.0521,N,11654.1853,W,47.20,227.60,040410,,*2F
$GPRMC,005418.5,A,3301.0271,N,11654.2158,W,48.00,226.50,040410,,*2E
$GPRMC,005421.5,A,3300.9980,N,11654.2539,W,48.50,226.30,040410,,*29
$GPRMC,005424.5,A,3300.9699,N,11654.2881,W,48.90,226.60,040410,,*2C
$GPRMC,005427.5,A,3300.9412,N,11654.3285,W,49.10,227.70,040410,,*28
$GPRMC,005430.5,A,3300.9143,N,11654.3563,W,48.60,227.10,040410,,*20
$GPRMC,005433.5,A,3300.8891,N,11654.3905,W,46.60,229.60,040410,,*2F
$GPRMC,005436.5,A,3300.8660,N,11654.4177,W,43.90,228.20,040410,,*2F
$GPRMC,005439.5,A,3300.8427,N,11654.4585,W,42.40,230.10,040410,,*2E
$GPRMC,005442.5,A,3300.8231,N,11654.4825,W,37.20,228.90,040410,,*21
$GPRMC,005445.5,A,3300.8085,N,11654.5001,W,31.40,232.60,040410,,*20
$GPRMC,005448.5,A,3300.7987,N,11654.5216,W,27.00,240.80,040410,,*25
$GPRMC,005451.5,A,3300.8012,N,11654.5108,W,14.60,248.30,040410,,*2E
$GPRMC,005524.5,A,3300.7995,N,11654.5094,W,7.50,229.00,040410,,*15
$GPRMC,005527.5,A,3300.7922,N,11654.5183,W,14.70,224.40,040410,,*24
$GPRMC,005530.5,A,3300.7783,N,11654.5347,W,23.80,223.30,040410,,*26
$GPRMC,005533.5,A,3300.7581,N,11654.5587,W,31.90,224.10,040410,,*28
$GPRMC,005536.5,A,3300.7342,N,11654.5873,W,37.90,225.10,040410,,*25
$GPRMC,005539.5,A,3300.7097,N,11654.6166,W,42.10,225.90,040410,,*2D
$GPRMC,005542.5,A,3300.6835,N,11654.6473,W,45.40,226.00,040410,,*29
$GPRMC,005545.5,A,3300.6574,N,11654.6820,W,47.00,226.60,040410,,*2C
$GPRMC,005548.5,A,3300.6300,N,11654.7192,W,49.00,227.60,040410,,*2A
$GPRMC,005551.5,A,3300.6017,N,11654.7586,W,50.60,227.80,040410,,*26
$GPRMC,005554.5,A,3300.5740,N,11654.7956,W,49.70,228.90,040410,,*23
$GPRMC,005557.5,A,3300.5514,N,11654.8365,W,48.90,235.70,040410,,*2B
$GPRMC,005600.5,A,3300.5327,N,11654.8753,W,45.40,239.90,040410,,*2F
$GPRMC,005603.5,A,3300.5190,N,11654.9216,W,46.60,245.60,040410,,*22
$GPRMC,005606.5,A,3300.5118,N,11654.9650,W,40.70,251.00,040410,,*25
$GPRMC,005609.5,A,3300.5330,N,11655.0175,W,43.10,270.40,040410,,*28
$GPRMC,005612.5,A,3300.5709,N,11655.0804,W,53.20,285.90,040410,,*26
$GPRMC,005615.5,A,3300.5804,N,11655.1366,W,55.80,280.10,040410,,*2C
$GPRMC,005618.5,A,3300.5872,N,11655.1943,W,58.60,277.80,040410,,*2F
$GPRMC,005621.5,A,3300.5950,N,11655.2528,W,58.80,277.70,040410,,*27
$GPRMC,005624.5,A,3300.5835,N,11655.3072,W,58.50,270.70,040410,,*21
$GPRMC,005627.5,A,3300.5777,N,11655.3564,W,54.70,267.70,040410,,*21
$GPRMC,005630.5,A,3300.5337,N,11655.3915,W,51.50,248.80,040410,,*28
$GPRMC,005633.5,A,3300.5209,N,11655.4414,W,51.40,254.20,040410,,*2A
$GPRMC,005636.5,A,3300.5095,N,11655.4837,W,46.30,254.90,040410,,*2F
$GPRMC,005639.5,A,3300.5047,N,11655.5205,W,38.40,258.20,040410,,*2C
$GPRMC,005642.5,A,3300.5153,N,11655.5651,W,40.90,271.10,040410,,*2B
$GPRMC,005645.5,A,3300.5337,N,11655.6022,W,39.40,283.10,040410,,*23
$GPRMC,005648.5,A,3300.5503,N,11655.6467,W,45.50,285.90,040410,,*2E
$GPRMC,005651.5,A,3300.5818,N,11655.7020,W,52.10,287.90,040410,,*27
$GPRMC,005654.5,A,3300.6002,N,11655.7527,W,53.20,289.90,040410,,*2C
$GPRMC,005657.5,A,3300.6171,N,11655.8027,W,52.90,290.20,040410,,*29
$GPRMC,005700.5,A,3300.6437,N,11655.8585,W,54.30,288.30,040410,,*24
$GPRMC,005703.5,A,3300.6541,N,11655.9111,W,54.90,283.70,040410,,*2A
$GPRMC,005706.5,A,3300.6619,N,11655.9645,W,55.40,281.60,040410,,*28
$GPRMC,005709.5,A,3300.6715,N,11656.0181,W,54.80,281.10,040410,,*25
$GPRMC,005712.5,A,3300.6683,N,11656.0751,W,55.10,271.90,040410,,*25
$GPRMC,005715.5,A,3300.6687,N,11656.1299,W,54.90,271.00,040410,,*26
$GPRMC,005718.5,A,3300.6629,N,11656.1837,W,53.80,266.90,040410,,*28
$GPRMC,005721.5,A,3300.6564,N,11656.2372,W,53.00,265.20,040410,,*21
$GPRMC,005724.5,A,3300.6529,N,11656.2894,W,53.10,265.20,040410,,*2F
$GPRMC,005727.5,A,3300.6485,N,11656.3409,W,52.80,265.20,040410,,*2A
$GPRMC,005730.5,A,3300.6464,N,11656.3969,W,53.40,265.60,040410,,*21
$GPRMC,005733.5,A,3300.6428,N,11656.4490,W,54.00,266.50,040410,,*25
$GPRMC,005736.5,A,3300.6413,N,11656.5076,W,53.60,270.50,040410,,*23
$GPRMC,005739.5,A,3300.6475,N,11656.5613,W,53.80,276.80,040410,,*2C
$GPRMC,005742.5,A,3300.6588,N,11656.6073,W,53.20,282.10,040410,,*28
$GPRMC,005745.5,A,3300.6680,N,11656.6581,W,52.70,282.30,040410,,*2A
$GPRMC,005748.5,A,3300.6775,N,11656.7090,W,51.70,281.30,040410,,*28
$GPRMC,005751.5,A,3300.6819,N,11656.7610,W,50.90,277.40,040410,,*2A
$GPRMC,005754.5,A,3300.6856,N,11656.8147,W,50.80,276.70,040410,,*2D
$GPRMC,005757.5,A,3300.6934,N,11656.8627,W,50.00,279.90,040410,,*23
$GPRMC,005800.5,A,3300.7024,N,11656.9083,W,47.80,281.30,040410,,*2D
$GPRMC,005803.5,A,3300.7177,N,11656.9572,W,48.90,286.00,040410,,*28
$GPRMC,005806.5,A,3300.7287,N,11657.0069,W,51.60,287.00,040410,,*20
$GPRMC,005809.5,A,3300.7471,N,11657.0577,W,52.50,288.60,040410,,*23
$GPRMC,005812.5,A,3300.7558,N,11657.1069,W,51.20,283.70,040410,,*26
$GPRMC,005815.5,A,3300.7613,N,11657.1580,W,52.40,279.60,040410,,*2E
$GPRMC,005818.5,A,3300.7530,N,11657.2060,W,52.70,273.30,040410,,*25
$GPRMC,005821.5,A,3300.7302,N,11657.2433,W,45.80,262.30,040410,,*23
$GPRMC,005824.5,A,3300.6886,N,11657.2745,W,45.60,240.30,040410,,*2C
$GPRMC,005827.5,A,3300.6521,N,11657.3000,W,46.90,226.40,040410,,*23
$GPRMC,005830.5,A,3300.5948,N,11657.3133,W,55.90,209.00,040410,,*2F
$GPRMC,005833.5,A,3300.5415,N,11657.3186,W,55.90,199.00,040410,,*2D
$GPRMC,005836.5,A,3300.4971,N,11657.3261,W,52.80,196.90,040410,,*2C
$GPRMC,005839.5,A,3300.4542,N,11657.3319,W,51.50,196.10,040410,,*27
$GPRMC,005842.5,A,3300.4135,N,11657.3446,W,51.30,197.50,040410,,*21
$GPRMC,005845.5,A,3300.3735,N,11657.3597,W,51.60,197.70,040410,,*2D
$GPRMC,005848.5,A,3300.3315,N,11657.3737,W,51.50,198.00,040410,,*25
$GPRMC,005851.5,A,3300.2919,N,11657.3939,W,50.30,201.10,040410,,*2F
$GPRMC,005854.5,A,3300.2527,N,11657.4152,W,49.30,204.10,040410,,*24
$GPRMC,005857.5,A,3300.2176,N,11657.4429,W,48.40,208.50,040410,,*20
$GPRMC,005900.5,A,3300.1800,N,11657.4654,W,49.70,205.40,040410,,*2E
$GPRMC,005903.5,A,3300.1401,N,11657.4762,W,51.80,197.30,040410,,*2D
$GPRMC,005906.5,A,3300.0986,N,11657.4787,W,50.30,189.00,040410,,*26
$GPRMC,005909.5,A,3300.0521,N,11657.4942,W,51.80,188.40,040410,,*20
$GPRMC,005912.5,A,3300.0097,N,11657.5019,W,50.80,190.40,040410,,*2C
$GPRMC,005915.5,A,3259.9709,N,11657.5219,W,47.70,201.60,040410,,*2D
$GPRMC,005918.5,A,3259.9331,N,11657.5520,W,51.90,209.10,040410,,*24
$GPRMC,005921.5,A,3259.9005,N,11657.5959,W,54.80,219.20,040410,,*2E
$GPRMC,005924.5,A,3259.8696,N,11657.6389,W,55.90,224.10,040410,,*2F
$GPRMC,005927.5,A,3259.8474,N,11657.6879,W,56.90,231.00,040410,,*20
$GPRMC,005930.5,A,3259.8406,N,11657.7444,W,56.20,240.10,040410,,*2C
$GPRMC,005933.5,A,3259.8389,N,11657.8027,W,56.30,247.50,040410,,*23
$GPRMC,005936.5,A,3259.8215,N,11657.8539,W,55.40,247.60,040410,,*2F
$GPRMC,005939.5,A,3259.8428,N,11657.9227,W,57.90,254.70,040410,,*2D
$GPRMC,005942.5,A,3259.8317,N,11657.9794,W,58.20,252.20,040410,,*20
$GPRMC,005945.5,A,3259.8175,N,11658.0342,W,58.60,250.90,040410,,*25
$GPRMC,005948.5,A,3259.7950,N,11658.0844,W,58.40,248.60,040410,,*21
$GPRMC,005951.5,A,3259.7937,N,11658.1386,W,56.00,251.20,040410,,*2A
$GPRMC,005954.5,A,3259.7825,N,11658.1939,W,56.20,255.40,040410,,*23
$GPRMC,005957.5,A,3259.7753,N,11658.2515,W,55.70,259.50,040410,,*24
$GPRMC,010000.5,A,3259.7721,N,11658.3047,W,53.90,259.70,040410,,*27
$GPRMC,010003.5,A,3259.7621,N,11658.3591,W,55.30,255.30,040410,,*2F
$GPRMC,010006.5,A,3259.7514,N,11658.4146,W,55.10,255.10,040410,,*26
$GPRMC,010009.5,A,3259.7381,N,11658.4623,W,53.20,254.10,040410,,*23
$GPRMC,010012.5,A,3259.7260,N,11658.5101,W,52.20,253.80,040410,,*2E
$GPRMC,010015.5,A,3259.7034,N,11658.5556,W,49.90,246.00,040410,,*21
$GPRMC,010018.5,A,3259.6669,N,11658.5949,W,52.20,236.00,040410,,*27
$GPRMC,010021.5,A,3259.6379,N,11658.6343,W,52.40,233.20,040410,,*2B
$GPRMC,010024.5,A,3259.6091,N,11658.6720,W,51.00,233.10,040410,,*2E
$GPRMC,010027.5,A,3259.5747,N,11658.7097,W,55.90,222.40,040410,,*20
$GPRMC,010030.5,A,3259.5351,N,11658.7390,W,56.70,215.00,040410,,*2C
$GPRMC,010033.5,A,3259.4931,N,11658.7581,W,55.60,206.20,040410,,*26
$GPRMC,010036.5,A,3259.4481,N,11658.7763,W,56.00,202.70,040410,,*2F
$GPRMC,010039.5,A,3259.4051,N,11658.7921,W,53.40,199.90,040410,,*2F
$GPRMC,010042.5,A,3259.3648,N,11658.8017,W,49.70,196.50,040410,,*22
$GPRMC,010045.5,A,3259.3236,N,11658.7954,W,45.40,189.60,040410,,*2B
$GPRMC,010048.5,A,3259.2855,N,11658.7893,W,43.50,185.70,040410,,*28
$GPRMC,010051.5,A,3259.2534,N,11658.7682,W,41.20,176.60,040410,,*2C
$GPRMC,010054.5,A,3259.2286,N,11658.7071,W,38.50,152.30,040410,,*27
$GPRMC,010057.5,A,3259.2061,N,11658.5919,W,47.00,133.60,040410,,*25
$GPRMC,010100.5,A,3259.1763,N,11658.5540,W,46.90,141.00,040410,,*2B
$GPRMC,010103.5,A,3259.1423,N,11658.5247,W,48.10,145.60,040410,,*2B
$GPRMC,010106.5,A,3259.1037,N,11658.4984,W,52.60,149.80,040410,,*24
$GPRMC,010109.5,A,3259.0597,N,11658.4842,W,55.70,158.50,040410,,*25
$GPRMC,010112.5,A,3259.0172,N,11658.4751,W,55.50,162.60,040410,,*25
$GPRMC,010115.5,A,3258.9833,N,11658.4849,W,49.40,171.90,040410,,*21
$GPRMC,010118.5,A,3258.9417,N,11658.4767,W,51.30,171.20,040410,,*20
$GPRMC,010121.5,A,3258.8969,N,11658.4643,W,52.30,171.10,040410,,*28
$GPRMC,010124.5,A,3258.8556,N,11658.4578,W,52.40,173.40,040410,,*26
$GPRMC,010127.5,A,3258.8116,N,11658.4554,W,52.50,175.80,040410,,*20
$GPRMC,010130.5,A,3258.7738,N,11658.4432,W,50.60,171.60,040410,,*29
$GPRMC,010133.5,A,3258.7421,N,11658.4294,W,45.50,168.90,040410,,*2B
$GPRMC,010136.5,A,3258.7096,N,11658.4199,W,44.20,166.50,040410,,*2C
$GPRMC,010139.5,A,3258.6733,N,11658.4124,W,44.40,167.30,040410,,*2D
$GPRMC,010148.5,A,3258.6945,N,11658.5127,W,31.60,260.20,040410,,*23
$GPRMC,010151.5,A,3258.6903,N,11658.5545,W,39.80,261.60,040410,,*2A
$GPRMC,010154.5,A,3258.6856,N,11658.6028,W,45.20,262.30,040410,,*24
$GPRMC,010157.5,A,3258.6776,N,11658.6552,W,49.00,258.60,040410,,*20
$GPRMC,010200.5,A,3258.6720,N,11658.7041,W,49.00,259.50,040410,,*26
$GPRMC,010203.5,A,3258.6653,N,11658.7537,W,49.90,261.50,040410,,*26
$GPRMC,010206.5,A,3258.6636,N,11658.8045,W,50.90,268.30,040410,,*28
$GPRMC,010209.5,A,3258.6645,N,11658.8559,W,51.40,273.60,040410,,*28
$GPRMC,010212.5,A,3258.6719,N,11658.9080,W,52.60,279.20,040410,,*25
$GPRMC,010215.5,A,3258.6825,N,11658.9589,W,53.40,281.50,040410,,*2D
$GPRMC,010218.5,A,3258.6918,N,11659.0135,W,53.60,281.20,040410,,*21
$GPRMC,010221.5,A,3258.7002,N,11659.0645,W,54.70,279.40,040410,,*2F
$GPRMC,010224.5,A,3258.7058,N,11659.1195,W,54.80,276.80,040410,,*22
$GPRMC,010227.5,A,3258.7085,N,11659.1757,W,53.80,275.30,040410,,*26
$GPRMC,010230.5,A,3258.7125,N,11659.2244,W,49.80,273.40,040410,,*25
$GPRMC,010233.5,A,3258.7091,N,11659.2673,W,44.70,265.80,040410,,*21
$GPRMC,010236.5,A,3258.7016,N,11659.3021,W,40.20,259.60,040410,,*2B
$GPRMC,010239.5,A,3258.6780,N,11659.3352,W,37.00,241.90,040410,,*2E
$GPRMC,010242.5,A,3258.6580,N,11659.3737,W,40.80,244.80,040410,,*2B
$GPRMC,010245.5,A,3258.6507,N,11659.4113,W,39.30,253.00,040410,,*2F
$GPRMC,010248.5,A,3258.6414,N,11659.4649,W,46.50,258.00,040410,,*2C
$GPRMC,010251.5,A,3258.6240,N,11659.5179,W,48.30,252.40,040410,,*20
$GPRMC,010254.5,A,3258.6139,N,11659.5627,W,48.60,254.30,040410,,*20
$GPRMC,010257.5,A,3258.6055,N,11659.6139,W,50.90,259.40,040410,,*2F
$GPRMC,010300.5,A,3258.5970,N,11659.6718,W,53.80,261.30,040410,,*2A
$GPRMC,010303.5,A,3258.5877,N,11659.7342,W,55.50,261.20,040410,,*2F
$GPRMC,010306.5,A,3258.5750,N,11659.7840,W,52.30,253.90,040410,,*22
$GPRMC,010309.5,A,3258.5643,N,11659.8292,W,49.50,255.70,040410,,*20
$GPRMC,010312.5,A,3258.5602,N,11659.8807,W,50.20,265.40,040410,,*26
$GPRMC,010315.5,A,3258.5662,N,11659.9314,W,49.20,274.10,040410,,*22
$GPRMC,010318.5,A,3258.5720,N,11659.9806,W,48.70,277.00,040410,,*26
$GPRMC,010321.5,A,3258.5757,N,11700.0256,W,47.50,275.30,040410,,*2B
$GPRMC,010324.5,A,3258.5706,N,11700.0678,W,45.20,270.20,040410,,*23
$GPRMC,010327.5,A,3258.5266,N,11700.1070,W,44.10,244.20,040410,,*29
$GPRMC,010330.5,A,3258.4910,N,11700.1452,W,49.10,233.20,040410,,*2D
$GPRMC,010333.5,A,3258.4609,N,11700.1820,W,49.30,232.90,040410,,*28
$GPRMC,010336.5,A,3258.4355,N,11700.2172,W,49.20,236.00,040410,,*20
$GPRMC,010339.5,A,3258.4150,N,11700.2563,W,50.00,242.50,040410,,*20
$GPRMC,010342.5,A,3258.4049,N,11700.2998,W,48.70,249.30,040410,,*2E
$GPRMC,010345.5,A,3258.3943,N,11700.3414,W,47.90,251.20,040410,,*2C
$GPRMC,010348.5,A,3258.3812,N,11700.3861,W,48.10,251.00,040410,,*2F
$GPRMC,010351.5,A,3258.3685,N,11700.4281,W,46.40,250.10,040410,,*2F
$GPRMC,010354.5,A,3258.3557,N,11700.4707,W,44.10,250.90,040410,,*22
$GPRMC,010357.5,A,3258.3480,N,11700.5148,W,44.20,256.90,040410,,*23
$GPRMC,010400.5,A,3258.3479,N,11700.5647,W,46.30,264.60,040410,,*25
$GPRMC,010403.5,A,3258.3433,N,11700.6175,W,48.40,262.00,040410,,*24
$GPRMC,010406.5,A,3258.3360,N,11700.6672,W,48.40,261.40,040410,,*27
$GPRMC,010409.5,A,3258.3291,N,11700.7131,W,46.90,259.50,040410,,*2F
$GPRMC,010412.5,A,3258.3200,N,11700.7576,W,45.70,255.20,040410,,*2C
$GPRMC,010415.5,A,3258.2978,N,11700.7894,W,44.00,239.40,040410,,*25
$GPRMC,010418.5,A,3258.2761,N,11700.8256,W,45.20,235.40,040410,,*2A
$GPRMC,010421.5,A,3258.2505,N,11700.8649,W,46.70,233.50,040410,,*2B
$GPRMC,010424.5,A,3258.2251,N,11700.8989,W,46.00,234.40,040410,,*2A
$GPRMC,010427.5,A,3258.2058,N,11700.9320,W,41.20,235.60,040410,,*2C
$GPRMC,010430.5,A,3258.1899,N,11700.9579,W,33.80,234.00,040410,,*2E
$GPRMC,010433.5,A,3258.1796,N,11700.9787,W,28.10,240.50,040410,,*2B
$GPRMC,010436.5,A,3258.1827,N,11700.9875,W,20.40,249.10,040410,,*29
$GPRMC,010439.5,A,3258.2083,N,11700.9713,W,11.30,332.00,040410,,*25
$GPRMC,010442.5,A,3258.2342,N,11700.9727,W,20.20,348.70,040410,,*29
$GPRMC,010445.5,A,3258.2685,N,11700.9805,W,29.90,348.30,040410,,*29
$GPRMC,010448.5,A,3258.3011,N,11700.9891,W,34.10,347.70,040410,,*2C
$GPRMC,010451.5,A,3258.3301,N,11700.9998,W,34.40,342.80,040410,,*21
$GPRMC,010454.5,A,3258.3542,N,11701.0084,W,32.80,342.70,040410,,*2C
$GPRMC,010457.5,A,3258.4054,N,11701.0327,W,38.90,339.30,040410,,*23
$GPRMC,010500.5,A,3258.4291,N,11701.0758,W,37.80,319.90,040410,,*21
$GPRMC,010503.5,A,3258.4470,N,11701.1410,W,46.20,300.80,040410,,*20
$GPRMC,010506.5,A,3258.4643,N,11701.1978,W,49.50,296.00,040410,,*2A
$GPRMC,010509.5,A,3258.4825,N,11701.2434,W,51.20,295.60,040410,,*26
$GPRMC,010512.5,A,3258.4996,N,11701.2923,W,51.10,295.60,040410,,*2D
$GPRMC,010515.5,A,3258.5184,N,11701.3393,W,53.40,300.10,040410,,*2D
$GPRMC,010518.5,A,3258.5471,N,11701.3740,W,53.40,307.40,040410,,*27
$GPRMC,010521.5,A,3258.5788,N,11701.4022,W,52.60,313.50,040410,,*2B
$GPRMC,010524.5,A,3258.6117,N,11701.4115,W,45.80,324.00,040410,,*21
$GPRMC,010527.5,A,3258.6392,N,11701.3956,W,34.90,349.50,040410,,*2C
$GPRMC,010530.5,A,3258.6571,N,11701.3940,W,28.80,352.30,040410,,*26
$GPRMC,010533.5,A,3258.6680,N,11701.3912,W,22.60,355.60,040410,,*29
$GPRMC,010536.5,A,3258.6824,N,11701.3943,W,20.30,346.00,040410,,*2B
$GPRMC,010539.5,A,3258.6941,N,11701.3998,W,18.50,335.80,040410,,*21
$GPRMC,010542.5,A,3258.6959,N,11701.4136,W,17.00,316.90,040410,,*25
$GPRMC,010545.5,A,3258.6950,N,11701.4362,W,17.20,281.70,040410,,*2B
$GPRMC,010548.5,A,3258.6923,N,11701.4861,W,32.80,271.20,040410,,*2D
$GPRMC,010551.5,A,3258.6888,N,11701.5327,W,37.90,269.80,040410,,*2A
$GPRMC,010554.5,A,3258.6900,N,11701.5762,W,39.50,271.00,040410,,*28
$GPRMC,010557.5,A,3258.6913,N,11701.6171,W,38.90,271.50,040410,,*26
$GPRMC,010600.5,A,3258.6905,N,11701.6559,W,38.60,271.10,040410,,*25
$GPRMC,010603.5,A,3258.6906,N,11701.6947,W,38.30,271.60,040410,,*24
$GPRMC,010606.5,A,3258.6912,N,11701.7331,W,38.50,271.70,040410,,*29
$GPRMC,010609.5,A,3258.6921,N,11701.7728,W,40.50,270.80,040410,,*2B
$GPRMC,010612.5,A,3258.6925,N,11701.8177,W,43.30,270.80,040410,,*23
$GPRMC,010615.5,A,3258.6933,N,11701.8653,W,45.50,271.30,040410,,*28
$GPRMC,010618.5,A,3258.6936,N,11701.9114,W,46.00,271.50,040410,,*25
$GPRMC,010621.5,A,3258.6942,N,11701.9557,W,44.80,270.90,040410,,*28
$GPRMC,010624.5,A,3258.6952,N,11701.9964,W,42.60,271.30,040410,,*23
$GPRMC,010627.5,A,3258.6950,N,11702.0400,W,42.30,271.20,040410,,*23
$GPRMC,010630.5,A,3258.6976,N,11702.0787,W,40.30,271.60,040410,,*2B
$GPRMC,010633.5,A,3258.6976,N,11702.1145,W,36.60,270.90,040410,,*2B
$GPRMC,010636.5,A,3258.6968,N,11702.1469,W,32.10,268.80,040410,,*21
$GPRMC,010639.5,A,3258.6948,N,11702.1715,W,26.00,265.90,040410,,*2C
$GPRMC,010642.5,A,3258.6917,N,11702.1871,W,18.90,258.40,040410,,*20
$GPRMC,010645.5,A,3258.6850,N,11702.2002,W,15.50,243.20,040410,,*27
$GPRMC,010648.5,A,3258.6852,N,11702.2017,W,9.70,247.10,040410,,*14
$GPRMC,010651.5,A,3258.6840,N,11702.2136,W,12.10,258.80,040410,,*26
$GPRMC,010654.5,A,3258.6829,N,11702.2215,W,16.20,265.60,040410,,*29
$GPRMC,010657.5,A,3258.6818,N,11702.2387,W,19.80,266.70,040410,,*25
$GPRMC,010700.5,A,3258.6662,N,11702.2677,W,23.20,249.00,040410,,*26
$GPRMC,010703.5,A,3258.6457,N,11702.3013,W,31.60,234.80,040410,,*21
$GPRMC,010706.5,A,3258.6231,N,11702.3301,W,35.40,225.70,040410,,*2B
$GPRMC,010709.5,A,3258.5995,N,11702.3554,W,36.50,220.00,040410,,*24
$GPRMC,010712.5,A,3258.5738,N,11702.3766,W,37.50,213.10,040410,,*24
$GPRMC,010715.5,A,3258.5439,N,11702.3981,W,37.50,211.40,040410,,*21
$GPRMC,010718.5,A,3258.5182,N,11702.4196,W,35.60,214.70,040410,,*27
$GPRMC,010721.5,A,3258.4967,N,11702.4398,W,33.80,224.20,040410,,*2D
$GPRMC,010724.5,A,3258.4756,N,11702.4728,W,36.10,235.50,040410,,*20
$GPRMC,010727.5,A,3258.4657,N,11702.5052,W,36.70,248.50,040410,,*24
$GPRMC,010730.5,A,3258.4671,N,11702.5357,W,33.70,265.20,040410,,*2D
$GPRMC,010733.5,A,3258.4699,N,11702.5723,W,35.00,277.90,040410,,*26
$GPRMC,010736.5,A,3258.4808,N,11702.6099,W,38.60,292.50,040410,,*2C
$GPRMC,010739.5,A,3258.4996,N,11702.6422,W,40.60,302.60,040410,,*25
$GPRMC,010742.5,A,3258.5222,N,11702.6777,W,43.10,307.00,040410,,*28
$GPRMC,010745.5,A,3258.5446,N,11702.7151,W,43.80,303.70,040410,,*22
$GPRMC,010748.5,A,3258.5647,N,11702.7543,W,45.60,302.20,040410,,*27
$GPRMC,010751.5,A,3258.5850,N,11702.7951,W,46.30,299.90,040410,,*26
$GPRMC,010754.5,A,3258.6030,N,11702.8375,W,47.70,299.00,040410,,*21
$GPRMC,010757.5,A,3258.6260,N,11702.8768,W,47.80,300.30,040410,,*20
$GPRMC,010800.5,A,3258.6457,N,11702.9179,W,46.40,299.30,040410,,*24
$GPRMC,010803.5,A,3258.6635,N,11702.9565,W,46.30,298.00,040410,,*2D
$GPRMC,010806.5,A,3258.6739,N,11702.9996,W,42.40,289.10,040410,,*27
$GPRMC,010809.5,A,3258.6768,N,11703.0395,W,39.10,277.70,040410,,*23
$GPRMC,010812.5,A,3258.6787,N,11703.0788,W,38.60,274.00,040410,,*22
$GPRMC,010815.5,A,3258.6799,N,11703.1202,W,39.60,274.40,040410,,*29
$GPRMC,010818.5,A,3258.6848,N,11703.1611,W,40.80,277.10,040410,,*27
$GPRMC,010821.5,A,3258.6903,N,11703.2010,W,40.80,279.00,040410,,*28
$GPRMC,010824.5,A,3258.6951,N,11703.2423,W,42.30,278.90,040410,,*2F
$GPRMC,010827.5,A,3258.6999,N,11703.2836,W,42.10,278.70,040410,,*2C
$GPRMC,010830.5,A,3258.7059,N,11703.3205,W,40.60,280.70,040410,,*27
$GPRMC,010833.5,A,3258.7135,N,11703.3551,W,37.90,284.50,040410,,*20
$GPRMC,010836.5,A,3258.7236,N,11703.3848,W,35.20,288.40,040410,,*24
$GPRMC,010839.5,A,3258.7349,N,11703.4151,W,33.20,291.70,040410,,*29
$GPRMC,010842.5,A,3258.7481,N,11703.4363,W,28.30,301.40,040410,,*25
$GPRMC,010845.5,A,3258.7641,N,11703.4549,W,26.60,306.40,040410,,*2E
$GPRMC,010848.5,A,3258.7745,N,11703.4743,W,23.00,308.90,040410,,*2E
$GPRMC,010851.5,A,3258.7847,N,11703.4882,W,20.40,308.40,040410,,*23
$GPRMC,010854.5,A,3258.7961,N,11703.5024,W,21.20,312.20,040410,,*2C
$GPRMC,010857.5,A,3258.8076,N,11703.5173,W,20.60,312.40,040410,,*2F
$GPRMC,010900.5,A,3258.8189,N,11703.5339,W,21.30,309.40,040410,,*2F
$GPRMC,010903.5,A,3258.8118,N,11703.5432,W,15.50,289.90,040410,,*2D
$GPRMC,010906.5,A,3258.7870,N,11703.5706,W,21.50,240.50,040410,,*2A
$GPRMC,010909.5,A,3258.7697,N,11703.5910,W,24.10,233.40,040410,,*2F
$GPRMC,010912.5,A,3258.7384,N,11703.6342,W,34.50,235.20,040410,,*29
$GPRMC,010915.5,A,3258.7236,N,11703.6624,W,30.50,242.10,040410,,*24
$GPRMC,010918.5,A,3258.7148,N,11703.6886,W,29.10,248.00,040410,,*22
$GPRMC,010921.5,A,3258.7099,N,11703.7168,W,28.60,252.40,040410,,*24
$GPRMC,010924.5,A,3258.7065,N,11703.7350,W,22.80,249.30,040410,,*22
$GPRMC,010927.5,A,3258.7068,N,11703.7389,W,13.40,248.50,040410,,*21
$GPRMC,011009.5,A,3258.7127,N,11703.7360,W,6.00,258.60,040410,,*1A
$GPRMC,011012.5,A,3258.7109,N,11703.7423,W,6.40,254.70,040410,,*15
$GPRMC,011015.5,A,3258.7037,N,11703.7454,W,6.40,231.40,040410,,*1E
$GPRMC,011018.5,A,3258.6812,N,11703.7491,W,13.90,202.20,040410,,*2B
$GPRMC,011021.5,A,3258.6513,N,11703.7523,W,28.10,191.50,040410,,*2B
$GPRMC,011024.5,A,3258.6182,N,11703.7542,W,33.50,186.40,040410,,*2C
$GPRMC,011027.5,A,3258.5886,N,11703.7552,W,34.40,182.80,040410,,*2E
$GPRMC,011030.5,A,3258.5582,N,11703.7515,W,35.10,180.90,040410,,*25
$GPRMC,011033.5,A,3258.5284,N,11703.7551,W,34.80,180.20,040410,,*24
$GPRMC,011036.5,A,3258.4978,N,11703.7522,W,36.30,179.00,040410,,*21
$GPRMC,011039.5,A,3258.4669,N,11703.7533,W,37.30,180.40,040410,,*22
$GPRMC,011042.5,A,3258.4350,N,11703.7523,W,37.60,179.70,040410,,*20
$GPRMC,011045.5,A,3258.4035,N,11703.7506,W,37.80,179.40,040410,,*2D
$GPRMC,011048.5,A,3258.3724,N,11703.7498,W,38.20,179.80,040410,,*2F
$GPRMC,011051.5,A,3258.3417,N,11703.7506,W,37.30,179.50,040410,,*21
$GPRMC,011054.5,A,3258.3096,N,11703.7518,W,37.60,180.30,040410,,*23
$GPRMC,011057.5,A,3258.2767,N,11703.7518,W,39.20,180.00,040410,,*21
$GPRMC,011100.5,A,3258.2424,N,11703.7489,W,40.30,179.60,040410,,*20
$GPRMC,011103.5,A,3258.2093,N,11703.7495,W,39.40,179.30,040410,,*2A
$GPRMC,011106.5,A,3258.1772,N,11703.7494,W,38.50,181.00,040410,,*21
$GPRMC,011109.5,A,3258.1463,N,11703.7477,W,38.10,181.10,040410,,*25
$GPRMC,011112.5,A,3258.1153,N,11703.7512,W,38.00,181.70,040410,,*2C
$GPRMC,011115.5,A,3258.0829,N,11703.7488,W,37.90,180.20,040410,,*2E
$GPRMC,011118.5,A,3258.0502,N,11703.7489,W,37.80,180.10,040410,,*24
$GPRMC,011121.5,A,3258.0188,N,11703.7487,W,38.20,179.70,040410,,*23
$GPRMC,011124.5,A,3257.9870,N,11703.7474,W,37.50,178.60,040410,,*2A
$GPRMC,011127.5,A,3257.9570,N,11703.7481,W,34.50,179.20,040410,,*28
$GPRMC,011130.5,A,3257.9305,N,11703.7493,W,30.90,179.90,040410,,*2A
$GPRMC,011133.5,A,3257.9054,N,11703.7517,W,30.60,180.80,040410,,*2B
$GPRMC,011136.5,A,3257.8812,N,11703.7523,W,30.00,180.30,040410,,*2F
$GPRMC,011139.5,A,3257.8562,N,11703.7528,W,29.80,179.80,040410,,*2C
$GPRMC,011142.5,A,3257.8335,N,11703.7550,W,27.90,184.60,040410,,*28
$GPRMC,011145.5,A,3257.8134,N,11703.7590,W,24.70,187.10,040410,,*29
$GPRMC,011148.5,A,3257.7979,N,11703.7620,W,20.30,187.00,040410,,*23
$GPRMC,011151.5,A,3257.7821,N,11703.7665,W,19.90,190.90,040410,,*29
$GPRMC,011154.5,A,3257.7758,N,11703.7734,W,15.20,201.30,040410,,*2E
$GPRMC,011157.5,A,3257.7699,N,11703.7790,W,13.50,202.80,040410,,*26
$GPRMC,011200.5,A,3257.7832,N,11703.7906,W,7.30,243.40,040410,,*13
$GPRMC,011203.5,A,3257.7927,N,11703.7688,W,5.40,80.60,040410,,*26
$GPRMC,011206.5,A,3257.7938,N,11703.7606,W,6.30,90.20,040410,,*2A
$GPRMC,011215.5,A,3257.7989,N,11703.7561,W,5.40,65.80,040410,,*24
$GPRMC,011218.5,A,3257.8069,N,11703.7500,W,13.60,26.70,040410,,*1B
$GPRMC,011221.5,A,3257.8220,N,11703.7472,W,18.20,11.00,040410,,*16
$GPRMC,011224.5,A,3257.8420,N,11703.7456,W,23.00,7.60,040410,,*28
$GPRMC,011227.5,A,3257.8738,N,11703.7441,W,31.10,4.50,040410,,*25
$GPRMC,011230.5,A,3257.9115,N,11703.7462,W,37.70,1.50,040410,,*2F
$GPRMC,011233.5,A,3257.9438,N,11703.7465,W,38.80,0.20,040410,,*27
$GPRMC,011236.5,A,3257.9788,N,11703.7476,W,40.40,359.70,040410,,*21
$GPRMC,011239.5,A,3258.0112,N,11703.7463,W,37.80,0.90,040410,,*24
$GPRMC,011242.5,A,3258.0486,N,11703.7479,W,41.70,359.60,040410,,*25
$GPRMC,011245.5,A,3258.0866,N,11703.7481,W,44.10,0.50,040410,,*28
$GPRMC,011248.5,A,3258.1227,N,11703.7474,W,42.50,0.00,040410,,*26
$GPRMC,011251.5,A,3258.1598,N,11703.7483,W,45.20,360.00,040410,,*20
$GPRMC,011254.5,A,3258.1974,N,11703.7500,W,44.80,0.00,040410,,*2F
$GPRMC,011257.5,A,3258.2349,N,11703.7476,W,45.20,0.90,040410,,*29
$GPRMC,011300.5,A,3258.2737,N,11703.7484,W,45.30,359.70,040410,,*2A
$GPRMC,011303.5,A,3258.3126,N,11703.7495,W,45.10,359.60,040410,,*2D
$GPRMC,011306.5,A,3258.3485,N,11703.7478,W,44.20,0.20,040410,,*2E
$GPRMC,011309.5,A,3258.3859,N,11703.7466,W,43.30,0.40,040410,,*23
$GPRMC,011312.5,A,3258.4218,N,11703.7451,W,43.00,0.60,040410,,*24
$GPRMC,011315.5,A,3258.4549,N,11703.7423,W,41.20,1.20,040410,,*20
$GPRMC,011318.5,A,3258.4875,N,11703.7425,W,39.60,0.50,040410,,*24
$GPRMC,011321.5,A,3258.5213,N,11703.7449,W,40.60,359.70,040410,,*2C
$GPRMC,011324.5,A,3258.5529,N,11703.7424,W,39.70,1.40,040410,,*2E
$GPRMC,011327.5,A,3258.5837,N,11703.7422,W,39.30,1.50,040410,,*2C
$GPRMC,011330.5,A,3258.6159,N,11703.7431,W,38.10,0.30,040410,,*2E
$GPRMC,011333.5,A,3258.6456,N,11703.7423,W,36.30,359.90,040410,,*2D
$GPRMC,011336.5,A,3258.6708,N,11703.7435,W,31.50,357.00,040410,,*21
$GPRMC,011339.5,A,3258.6861,N,11703.7436,W,24.10,354.60,040410,,*28
$GPRMC,011342.5,A,3258.6971,N,11703.7452,W,18.20,351.40,040410,,*2D
$GPRMC,011345.5,A,3258.6977,N,11703.7442,W,10.20,348.00,040410,,*29
$GPRMC,011433.5,A,3258.7134,N,11703.7506,W,7.60,325.20,040410,,*1B
$GPRMC,011436.5,A,3258.7171,N,11703.7582,W,7.00,305.30,040410,,*16
$GPRMC,011439.5,A,3258.7165,N,11703.7737,W,9.20,277.00,040410,,*1B
$GPRMC,011442.5,A,3258.7128,N,11703.7956,W,13.40,258.80,040410,,*2F
$GPRMC,011445.5,A,3258.7024,N,11703.8417,W,25.10,251.70,040410,,*24
$GPRMC,011448.5,A,3258.6748,N,11703.9008,W,41.30,237.60,040410,,*2F
$GPRMC,011451.5,A,3258.6450,N,11703.9299,W,43.50,223.70,040410,,*27
$GPRMC,011454.5,A,3258.6133,N,11703.9567,W,46.00,215.20,040410,,*24
$GPRMC,011457.5,A,3258.5774,N,11703.9781,W,47.10,209.00,040410,,*24
$GPRMC,011500.5,A,3258.5431,N,11704.0024,W,47.10,208.80,040410,,*2A
$GPRMC,011503.5,A,3258.5103,N,11704.0222,W,43.00,209.70,040410,,*22
$GPRMC,011506.5,A,3258.4857,N,11704.0367,W,34.20,209.90,040410,,*22
$GPRMC,011509.5,A,3258.4623,N,11704.0533,W,30.90,212.60,040410,,*2D
$GPRMC,011512.5,A,3258.4470,N,11704.0640,W,24.30,212.90,040410,,*24
$GPRMC,011515.5,A,3258.4411,N,11704.0731,W,15.20,222.90,040410,,*23
$GPRMC,011518.5,A,3258.4370,N,11704.0813,W,13.10,227.60,040410,,*2E
$GPRMC,011521.5,A,3258.4384,N,11704.0788,W,4.80,244.80,040410,,*16
$GPRMC,011530.5,A,3258.4384,N,11704.0780,W,6.20,223.10,040410,,*1E
$GPRMC,011533.5,A,3258.4298,N,11704.0871,W,12.70,225.80,040410,,*2F
$GPRMC,011536.5,A,3258.4161,N,11704.1037,W,20.40,224.40,040410,,*2B
$GPRMC,011539.5,A,3258.3992,N,11704.1246,W,27.80,227.10,040410,,*2E
$GPRMC,011542.5,A,3258.3770,N,11704.1503,W,33.80,222.90,040410,,*2E
$GPRMC,011545.5,A,3258.3524,N,11704.1769,W,36.50,223.90,040410,,*2D
$GPRMC,011548.5,A,3258.3289,N,11704.2094,W,40.90,231.20,040410,,*23
$GPRMC,011551.5,A,3258.3081,N,11704.2559,W,46.80,239.40,040410,,*2C
$GPRMC,011554.5,A,3258.2917,N,11704.3012,W,47.80,248.40,040410,,*22
$GPRMC,011557.5,A,3258.2816,N,11704.3542,W,51.70,258.70,040410,,*2B
$GPRMC,011600.5,A,3258.2821,N,11704.4024,W,49.10,269.00,040410,,*26
$GPRMC,011603.5,A,3258.2836,N,11704.4545,W,50.80,273.60,040410,,*2D
$GPRMC,011606.5,A,3258.2889,N,11704.5028,W,50.70,274.40,040410,,*29
$GPRMC,011609.5,A,3258.2911,N,11704.5504,W,49.90,274.20,040410,,*2D
$GPRMC,011612.5,A,3258.2955,N,11704.6007,W,49.00,274.30,040410,,*2A
$GPRMC,011615.5,A,3258.2976,N,11704.6475,W,46.80,271.50,040410,,*29
$GPRMC,011618.5,A,3258.2939,N,11704.6896,W,43.50,265.40,040410,,*22
$GPRMC,011621.5,A,3258.2763,N,11704.7385,W,47.30,251.10,040410,,*21
$GPRMC,011624.5,A,3258.2614,N,11704.7796,W,46.70,245.00,040410,,*22
$GPRMC,011627.5,A,3258.2421,N,11704.8186,W,45.10,238.70,040410,,*25
$GPRMC,011630.5,A,3258.2208,N,11704.8456,W,36.30,230.00,040410,,*2F
$GPRMC,011633.5,A,3258.2061,N,11704.8659,W,26.90,229.00,040410,,*2F
$GPRMC,011636.5,A,3258.1924,N,11704.8771,W,23.70,223.40,040410,,*2F
$GPRMC,011639.5,A,3258.1746,N,11704.8962,W,27.20,222.30,040410,,*21
$GPRMC,011642.5,A,3258.1553,N,11704.9208,W,31.20,223.40,040410,,*2C
$GPRMC,011645.5,A,3258.1338,N,11704.9413,W,32.70,221.00,040410,,*2C
$GPRMC,011648.5,A,3258.1072,N,11704.9705,W,37.80,222.80,040410,,*29
$GPRMC,011651.5,A,3258.0806,N,11705.0049,W,42.50,225.80,040410,,*24
$GPRMC,011654.5,A,3258.0579,N,11705.0364,W,44.30,228.30,040410,,*2E
$GPRMC,011657.5,A,3258.0322,N,11705.0710,W,45.20,230.30,040410,,*2B
$GPRMC,011700.5,A,3258.0067,N,11705.1086,W,48.90,230.40,040410,,*22
$GPRMC,011703.5,A,3257.9821,N,11705.1451,W,47.10,231.30,040410,,*22
$GPRMC,011706.5,A,3257.9606,N,11705.1830,W,46.20,234.50,040410,,*26
$GPRMC,011709.5,A,3257.9378,N,11705.2225,W,46.00,235.90,040410,,*27
$GPRMC,011712.5,A,3257.9221,N,11705.2681,W,47.10,242.60,040410,,*25
$GPRMC,011715.5,A,3257.9069,N,11705.3120,W,48.50,249.30,040410,,*24
$GPRMC,011718.5,A,3257.8969,N,11705.3607,W,49.00,257.10,040410,,*2A
$GPRMC,011721.5,A,3257.8985,N,11705.4015,W,45.40,267.50,040410,,*2F
$GPRMC,011724.5,A,3257.8991,N,11705.4460,W,43.60,272.40,040410,,*28
$GPRMC,011727.5,A,3257.9020,N,11705.4858,W,41.50,273.10,040410,,*2B
$GPRMC,011730.5,A,3257.9033,N,11705.5216,W,37.30,270.50,040410,,*2E
$GPRMC,011733.5,A,3257.9018,N,11705.5572,W,35.80,265.70,040410,,*2E
