NMEA Sentence Code,UTC Time,Status,Latitude,Latitude Direction,Longitude,Longitude Direction,Speed (knots),Track Angle (degrees true),Date,MagneticVariation,Magnetic Variation Direction,[FAA Mode]-Optional,Checksum
$GPRMC,173201.3,A,3336.183972,N,11751.677070,W,28.8,51.3,230310,,,A*7E
$GPRMC,173204.3,A,3336.204999,N,11751.654146,W,34.3,40.1,230310,,,A*73
$GPRMC,173207.3,A,3336.231901,N,11751.635941,W,37.1,27.9,230310,,,A*77
$GPRMC,173210.3,A,3336.263402,N,11751.624287,W,38.7,14.5,230310,,,A*7C
$GPRMC,173213.3,A,3336.298956,N,11751.615179,W,41.3,10.6,230310,,,A*7A
$GPRMC,173216.3,A,3336.333461,N,11751.607466,W,41.8,11.0,230310,,,A*72
$GPRMC,173219.3,A,3336.368229,N,11751.598726,W,40.6,12.0,230310,,,A*77
$GPRMC,173222.3,A,3336.398562,N,11751.591211,W,36.2,12.1,230310,,,A*74
$GPRMC,173225.3,A,3336.425890,N,11751.585520,W,33.0,12.4,230310,,,A*70
$GPRMC,173231.3,A,3336.448496,N,11751.572614,W,21.3,28.9,230310,,,A*7C
$GPRMC,173234.3,A,3336.448269,N,11751.556774,W,16.3,67.5,230310,,,A*7D
$GPRMC,173237.3,A,3336.445649,N,11751.530014,W,24.6,87.2,230310,,,A*79
$GPRMC,173240.3,A,3336.442561,N,11751.489533,W,36.0,88.6,230310,,,A*7A
$GPRMC,173243.3,A,3336.440050,N,11751.440267,W,45.5,89.9,230310,,,A*70
$GPRMC,173246.3,A,3336.437011,N,11751.387051,W,49.7,90.9,230310,,,A*7D
$GPRMC,173249.3,A,3336.437138,N,11751.332789,W,52.4,89.4,230310,,,A*78
$GPRMC,173252.3,A,3336.436505,N,11751.277245,W,53.3,88.2,230310,,,A*7D
$GPRMC,173255.3,A,3336.437452,N,11751.225087,W,52.1,88.2,230310,,,A*70
$GPRMC,173258.3,A,3336.439121,N,11751.172390,W,52.5,87.5,230310,,,A*7A
$GPRMC,173301.3,A,3336.440157,N,11751.119800,W,51.0,89.2,230310,,,A*78
$GPRMC,173304.3,A,3336.443223,N,11751.070815,W,49.3,84.4,230310,,,A*75
$GPRMC,173307.3,A,3336.449896,N,11751.020735,W,50.5,81.3,230310,,,A*7C
$GPRMC,173310.3,A,3336.454849,N,11750.969874,W,50.7,84.7,230310,,,A*78
$GPRMC,173313.3,A,3336.454629,N,11750.919869,W,49.9,91.0,230310,,,A*7D
$GPRMC,173316.3,A,3336.449033,N,11750.871616,W,49.5,98.9,230310,,,A*7C
$GPRMC,173319.3,A,3336.438157,N,11750.822885,W,49.5,103.8,230310,,,A*46
$GPRMC,173322.3,A,3336.426755,N,11750.774434,W,49.5,104.5,230310,,,A*45
$GPRMC,173325.3,A,3336.415515,N,11750.724384,W,50.5,103.5,230310,,,A*42
$GPRMC,173328.3,A,3336.403348,N,11750.674660,W,50.6,105.0,230310,,,A*4D
$GPRMC,173331.3,A,3336.391998,N,11750.627095,W,50.0,105.8,230310,,,A*4A
$GPRMC,173334.3,A,3336.380102,N,11750.577227,W,51.7,103.7,230310,,,A*46
$GPRMC,173337.3,A,3336.372274,N,11750.525761,W,52.4,98.9,230310,,,A*77
$GPRMC,173340.3,A,3336.369590,N,11750.473661,W,52.8,93.0,230310,,,A*7D
$GPRMC,173343.3,A,3336.367424,N,11750.421574,W,52.4,93.1,230310,,,A*73
$GPRMC,173346.3,A,3336.366991,N,11750.372782,W,51.5,89.3,230310,,,A*75
$GPRMC,173349.3,A,3336.369948,N,11750.322398,W,50.3,84.3,230310,,,A*71
$GPRMC,173352.3,A,3336.378099,N,11750.272967,W,49.7,79.3,230310,,,A*7E
$GPRMC,173355.3,A,3336.390774,N,11750.223901,W,48.6,72.8,230310,,,A*7F
$GPRMC,173358.3,A,3336.404424,N,11750.176321,W,48.3,68.5,230310,,,A*76
$GPRMC,173401.3,A,3336.420463,N,11750.130508,W,47.5,65.0,230310,,,A*76
$GPRMC,173404.3,A,3336.440984,N,11750.089219,W,48.6,59.0,230310,,,A*76
$GPRMC,173407.3,A,3336.461867,N,11750.046862,W,49.9,58.9,230310,,,A*79
$GPRMC,173410.3,A,3336.483484,N,11750.005027,W,49.5,60.4,230310,,,A*76
$GPRMC,173413.3,A,3336.499373,N,11749.961863,W,48.2,66.2,230310,,,A*7C
$GPRMC,173416.3,A,3336.513186,N,11749.918174,W,47.3,71.5,230310,,,A*7C
$GPRMC,173419.3,A,3336.521174,N,11749.872545,W,46.9,77.9,230310,,,A*75
$GPRMC,173422.3,A,3336.524184,N,11749.827601,W,45.3,84.4,230310,,,A*7C
$GPRMC,173425.3,A,3336.526806,N,11749.789888,W,37.9,86.7,230310,,,A*70
$GPRMC,173428.3,A,3336.527127,N,11749.766661,W,27.9,89.6,230310,,,A*71
$GPRMC,173431.3,A,3336.528149,N,11749.768152,W,10.1,76.9,230310,,,A*74
$GPRMC,173449.3,A,3336.526669,N,11749.771893,W,11.3,77.3,230310,,,A*74
$GPRMC,173452.3,A,3336.528237,N,11749.750631,W,18.4,80.7,230310,,,A*78
$GPRMC,173455.3,A,3336.524293,N,11749.714591,W,28.8,90.8,230310,,,A*75
$GPRMC,173458.3,A,3336.521677,N,11749.680682,W,31.7,93.6,230310,,,A*74
$GPRMC,173501.3,A,3336.519314,N,11749.647652,W,30.5,92.6,230310,,,A*76
$GPRMC,173504.3,A,3336.517205,N,11749.620692,W,24.5,95.4,230310,,,A*71
$GPRMC,173507.3,A,3336.514450,N,11749.600929,W,16.1,95.5,230310,,,A*7E
$GPRMC,173510.3,A,3336.514191,N,11749.590349,W,8.5,95.3,230310,,,A*4B
$GPRMC,173537.3,A,3336.513012,N,11749.583583,W,7.9,94.5,230310,,,A*45
$GPRMC,173540.3,A,3336.512541,N,11749.574476,W,10.4,92.2,230310,,,A*7E
$GPRMC,173543.3,A,3336.514746,N,11749.559488,W,17.8,69.5,230310,,,A*78
$GPRMC,173546.3,A,3336.526827,N,11749.545071,W,20.9,37.4,230310,,,A*74
$GPRMC,173549.3,A,3336.550340,N,11749.536876,W,28.3,14.9,230310,,,A*75
$GPRMC,173552.3,A,3336.588249,N,11749.535938,W,40.6,3.1,230310,,,A*4F
$GPRMC,173555.3,A,3336.629260,N,11749.535925,W,46.6,359.4,230310,,,A*48
$GPRMC,173558.3,A,3336.671863,N,11749.537754,W,50.7,357.4,230310,,,A*43
$GPRMC,173601.3,A,3336.718201,N,11749.540616,W,53.8,357.7,230310,,,A*44
$GPRMC,173604.3,A,3336.763351,N,11749.542416,W,54.4,357.7,230310,,,A*42
$GPRMC,173607.3,A,3336.808286,N,11749.544235,W,54.4,357.4,230310,,,A*4A
$GPRMC,173610.3,A,3336.853722,N,11749.546562,W,53.6,357.3,230310,,,A*4C
$GPRMC,173613.3,A,3336.898290,N,11749.547898,W,50.0,357.8,230310,,,A*43
$GPRMC,173616.3,A,3336.936953,N,11749.548793,W,46.3,357.4,230310,,,A*44
$GPRMC,173619.3,A,3336.974916,N,11749.550686,W,45.2,357.1,230310,,,A*47
$GPRMC,173622.3,A,3337.014887,N,11749.551838,W,45.5,357.8,230310,,,A*4C
$GPRMC,173625.3,A,3337.053473,N,11749.553836,W,45.3,358.0,230310,,,A*42
$GPRMC,173716.3,A,3337.083150,N,11749.220339,W,56.3,150.4,230310,,,A*41
$GPRMC,173719.3,A,3337.039701,N,11749.194591,W,58.7,155.2,230310,,,A*4C
$GPRMC,173722.3,A,3336.992937,N,11749.172319,W,59.5,157.9,230310,,,A*42
$GPRMC,173725.3,A,3336.945142,N,11749.149464,W,60.9,158.5,230310,,,A*45
$GPRMC,173728.3,A,3336.897473,N,11749.126806,W,61.5,157.8,230310,,,A*4F
$GPRMC,173731.3,A,3336.850977,N,11749.103656,W,62.3,155.8,230310,,,A*4E
$GPRMC,173734.3,A,3336.803027,N,11749.074526,W,62.6,150.9,230310,,,A*45
$GPRMC,173737.3,A,3336.758464,N,11749.039275,W,62.7,143.7,230310,,,A*41
$GPRMC,173740.3,A,3336.719438,N,11748.996897,W,62.7,136.3,230310,,,A*40
$GPRMC,173743.3,A,3336.683478,N,11748.951118,W,62.8,131.2,230310,,,A*49
$GPRMC,173746.3,A,3336.653189,N,11748.901831,W,62.4,125.0,230310,,,A*46
$GPRMC,173749.3,A,3336.628154,N,11748.847982,W,63.2,118.9,230310,,,A*4F
$GPRMC,173752.3,A,3336.604931,N,11748.790364,W,62.9,113.1,230310,,,A*4E
$GPRMC,173755.3,A,3336.586443,N,11748.731726,W,60.5,106.7,230310,,,A*4D
$GPRMC,173758.3,A,3336.574714,N,11748.672396,W,61.1,102.3,230310,,,A*40
$GPRMC,173801.3,A,3336.566153,N,11748.612265,W,62.4,99.4,230310,,,A*7C
$GPRMC,173804.3,A,3336.556311,N,11748.550838,W,61.5,100.0,230310,,,A*4E
$GPRMC,173807.3,A,3336.547447,N,11748.489447,W,63.5,99.4,230310,,,A*7F
$GPRMC,173810.3,A,3336.539412,N,11748.426403,W,64.0,98.1,230310,,,A*73
$GPRMC,173813.3,A,3336.528994,N,11748.364027,W,63.3,101.8,230310,,,A*4C
$GPRMC,173816.3,A,3336.513617,N,11748.302879,W,63.8,107.9,230310,,,A*4A
$GPRMC,173819.3,A,3336.492565,N,11748.243374,W,63.9,113.6,230310,,,A*42
$GPRMC,173822.3,A,3336.469889,N,11748.185848,W,64.2,115.2,230310,,,A*42
$GPRMC,173825.3,A,3336.448539,N,11748.128563,W,62.9,114.6,230310,,,A*4B
$GPRMC,173828.3,A,3336.426999,N,11748.071340,W,61.7,114.4,230310,,,A*4D
$GPRMC,173831.3,A,3336.405168,N,11748.016589,W,60.8,114.1,230310,,,A*4B
$GPRMC,173834.3,A,3336.383937,N,11747.962463,W,60.1,114.9,230310,,,A*44
$GPRMC,173837.3,A,3336.362569,N,11747.907968,W,59.6,114.7,230310,,,A*49
$GPRMC,173840.3,A,3336.340670,N,11747.854362,W,60.5,115.6,230310,,,A*4C
$GPRMC,173843.3,A,3336.320094,N,11747.799519,W,60.6,114.1,230310,,,A*44
$GPRMC,173846.3,A,3336.298480,N,11747.745465,W,60.2,115.0,230310,,,A*4D
$GPRMC,173849.3,A,3336.276801,N,11747.691864,W,59.9,115.4,230310,,,A*47
$GPRMC,173852.3,A,3336.255234,N,11747.636950,W,60.8,115.1,230310,,,A*45
$GPRMC,173855.3,A,3336.233552,N,11747.581519,W,61.6,114.6,230310,,,A*42
$GPRMC,173858.3,A,3336.211497,N,11747.525967,W,62.2,114.8,230310,,,A*45
$GPRMC,173901.3,A,3336.190216,N,11747.468184,W,63.2,113.8,230310,,,A*46
$GPRMC,173904.3,A,3336.171259,N,11747.409334,W,63.4,110.1,230310,,,A*45
$GPRMC,173907.3,A,3336.155535,N,11747.348506,W,64.2,105.6,230310,,,A*4A
$GPRMC,173910.3,A,3336.144092,N,11747.286064,W,64.6,100.8,230310,,,A*49
$GPRMC,173913.3,A,3336.137220,N,11747.221950,W,64.5,97.5,230310,,,A*77
$GPRMC,173916.3,A,3336.131431,N,11747.157990,W,65.1,96.8,230310,,,A*75
$GPRMC,173919.3,A,3336.124204,N,11747.093610,W,64.3,99.0,230310,,,A*74
$GPRMC,173922.3,A,3336.113399,N,11747.029367,W,65.4,102.1,230310,,,A*4D
$GPRMC,173925.3,A,3336.097734,N,11746.967298,W,65.2,107.4,230310,,,A*41
$GPRMC,173928.3,A,3336.078607,N,11746.906635,W,65.4,111.8,230310,,,A*45
$GPRMC,173931.3,A,3336.055374,N,11746.847363,W,65.4,115.9,230310,,,A*44
$GPRMC,173934.3,A,3336.027044,N,11746.789934,W,66.2,120.6,230310,,,A*4D
$GPRMC,173937.3,A,3336.000191,N,11746.731895,W,66.3,120.0,230310,,,A*4C
$GPRMC,173940.3,A,3335.974220,N,11746.673900,W,65.9,115.5,230310,,,A*4C
$GPRMC,173943.3,A,3335.953677,N,11746.614530,W,64.7,109.9,230310,,,A*4C
$GPRMC,173946.3,A,3335.936584,N,11746.553877,W,64.9,107.1,230310,,,A*43
$GPRMC,173949.3,A,3335.928908,N,11746.490603,W,63.9,99.5,230310,,,A*7D
$GPRMC,173952.3,A,3335.923395,N,11746.428370,W,64.0,96.1,230310,,,A*75
$GPRMC,173955.3,A,3335.920642,N,11746.364594,W,65.0,93.9,230310,,,A*71
$GPRMC,173958.3,A,3335.914525,N,11746.298373,W,67.2,96.9,230310,,,A*71
$GPRMC,174001.3,A,3335.905046,N,11746.232940,W,66.1,101.1,230310,,,A*4C
$GPRMC,174004.3,A,3335.884881,N,11746.170109,W,66.3,109.9,230310,,,A*40
$GPRMC,174007.3,A,3335.861807,N,11746.108215,W,66.6,114.7,230310,,,A*40
$GPRMC,174010.3,A,3335.834032,N,11746.050172,W,65.4,121.0,230310,,,A*46
$GPRMC,174013.3,A,3335.802348,N,11745.999509,W,65.1,128.2,230310,,,A*47
$GPRMC,174016.3,A,3335.770766,N,11745.947975,W,65.0,129.2,230310,,,A*44
$GPRMC,174019.3,A,3335.737856,N,11745.898123,W,64.7,128.8,230310,,,A*41
$GPRMC,174022.3,A,3335.704390,N,11745.847680,W,65.3,128.5,230310,,,A*4C
$GPRMC,174025.3,A,3335.670919,N,11745.797276,W,65.1,128.1,230310,,,A*4B
$GPRMC,174028.3,A,3335.637199,N,11745.746011,W,66.1,129.0,230310,,,A*49
$GPRMC,174031.3,A,3335.603641,N,11745.695562,W,65.5,129.1,230310,,,A*4C
$GPRMC,174034.3,A,3335.570096,N,11745.644468,W,65.0,126.8,230310,,,A*46
$GPRMC,174037.3,A,3335.538865,N,11745.590650,W,65.6,121.7,230310,,,A*40
$GPRMC,174040.3,A,3335.513114,N,11745.533938,W,65.0,115.3,230310,,,A*4B
$GPRMC,174043.3,A,3335.492984,N,11745.473730,W,66.2,109.4,230310,,,A*49
$GPRMC,174046.3,A,3335.479985,N,11745.410904,W,64.2,101.8,230310,,,A*42
$GPRMC,174049.3,A,3335.469244,N,11745.348709,W,63.7,101.5,230310,,,A*4C
$GPRMC,174052.3,A,3335.459049,N,11745.285828,W,64.3,101.0,230310,,,A*40
$GPRMC,174055.3,A,3335.448114,N,11745.222043,W,65.3,101.0,230310,,,A*47
$GPRMC,174058.3,A,3335.439498,N,11745.156698,W,66.3,99.5,230310,,,A*7B
$GPRMC,174101.3,A,3335.429813,N,11745.092050,W,65.7,100.4,230310,,,A*44
$GPRMC,174104.3,A,3335.421374,N,11745.027849,W,64.5,100.2,230310,,,A*48
$GPRMC,174107.3,A,3335.410420,N,11744.964939,W,63.5,103.1,230310,,,A*41
$GPRMC,174110.3,A,3335.395049,N,11744.902616,W,63.4,108.5,230310,,,A*4A
$GPRMC,174113.3,A,3335.375627,N,11744.845874,W,60.5,114.4,230310,,,A*4F
$GPRMC,174116.3,A,3335.355037,N,11744.790047,W,61.3,114.5,230310,,,A*46
$GPRMC,174119.3,A,3335.333528,N,11744.733683,W,62.5,113.6,230310,,,A*44
$GPRMC,174122.3,A,3335.314155,N,11744.674290,W,64.4,110.7,230310,,,A*46
$GPRMC,174125.3,A,3335.298380,N,11744.614173,W,62.4,105.4,230310,,,A*47
$GPRMC,174128.3,A,3335.285526,N,11744.551410,W,64.4,101.9,230310,,,A*41
$GPRMC,174131.3,A,3335.277553,N,11744.487161,W,65.3,98.3,230310,,,A*72
$GPRMC,174134.3,A,3335.271183,N,11744.421588,W,66.4,96.2,230310,,,A*7C
$GPRMC,174137.3,A,3335.265876,N,11744.354668,W,68.4,96.0,230310,,,A*7D
$GPRMC,174140.3,A,3335.260037,N,11744.284876,W,70.8,94.2,230310,,,A*7D
$GPRMC,174143.3,A,3335.253622,N,11744.217657,W,67.6,96.2,230310,,,A*71
$GPRMC,174146.3,A,3335.247598,N,11744.149961,W,67.6,96.7,230310,,,A*74
$GPRMC,174149.3,A,3335.241375,N,11744.083318,W,66.8,96.6,230310,,,A*75
$GPRMC,174152.3,A,3335.233052,N,11744.017223,W,65.6,97.9,230310,,,A*7B
$GPRMC,174155.3,A,3335.221474,N,11743.954293,W,63.7,103.9,230310,,,A*46
$GPRMC,174158.3,A,3335.207185,N,11743.894104,W,62.4,108.1,230310,,,A*45
$GPRMC,174201.3,A,3335.189472,N,11743.836606,W,61.3,110.8,230310,,,A*4B
$GPRMC,174204.3,A,3335.167542,N,11743.780788,W,62.0,115.4,230310,,,A*40
$GPRMC,174207.3,A,3335.139453,N,11743.726818,W,62.6,122.3,230310,,,A*46
$GPRMC,174210.3,A,3335.107058,N,11743.675167,W,63.9,127.4,230310,,,A*48
$GPRMC,174213.3,A,3335.072660,N,11743.625854,W,64.6,130.0,230310,,,A*43
$GPRMC,174216.3,A,3335.038281,N,11743.578217,W,63.2,130.5,230310,,,A*43
$GPRMC,174219.3,A,3335.004390,N,11743.530100,W,62.6,130.2,230310,,,A*49
$GPRMC,174222.3,A,3334.969677,N,11743.482564,W,63.5,131.0,230310,,,A*41
$GPRMC,174225.3,A,3334.936052,N,11743.435387,W,63.0,130.1,230310,,,A*4F
$GPRMC,174228.3,A,3334.902452,N,11743.386665,W,63.5,130.0,230310,,,A*43
$GPRMC,174231.3,A,3334.867602,N,11743.339261,W,63.6,131.2,230310,,,A*4A
$GPRMC,174234.3,A,3334.833975,N,11743.291341,W,63.2,130.6,230310,,,A*40
$GPRMC,174237.3,A,3334.801445,N,11743.241558,W,64.2,128.0,230310,,,A*47
$GPRMC,174240.3,A,3334.769852,N,11743.190405,W,64.2,126.9,230310,,,A*4D
$GPRMC,174243.3,A,3334.735383,N,11743.138221,W,65.9,126.1,230310,,,A*40
$GPRMC,174246.3,A,3334.702359,N,11743.083885,W,67.3,124.4,230310,,,A*4C
$GPRMC,174249.3,A,3334.672901,N,11743.027016,W,66.7,121.6,230310,,,A*4C
$GPRMC,174252.3,A,3334.643547,N,11742.967864,W,68.2,120.6,230310,,,A*41
$GPRMC,174255.3,A,3334.615002,N,11742.909776,W,67.9,118.2,230310,,,A*4E
$GPRMC,174258.3,A,3334.587769,N,11742.849917,W,68.5,116.3,230310,,,A*41
$GPRMC,174301.3,A,3334.562356,N,11742.787421,W,69.7,115.1,230310,,,A*48
$GPRMC,174304.3,A,3334.538103,N,11742.723469,W,70.7,114.3,230310,,,A*49
$GPRMC,174307.3,A,3334.516531,N,11742.657377,W,70.8,112.1,230310,,,A*42
$GPRMC,174310.3,A,3334.494452,N,11742.591870,W,69.9,113.0,230310,,,A*47
$GPRMC,174313.3,A,3334.470332,N,11742.528657,W,69.3,113.8,230310,,,A*44
$GPRMC,174316.3,A,3334.444568,N,11742.468477,W,67.4,117.8,230310,,,A*47
$GPRMC,174319.3,A,3334.416952,N,11742.412162,W,64.7,120.6,230310,,,A*4C
$GPRMC,174322.3,A,3334.387819,N,11742.360290,W,62.6,125.0,230310,,,A*4D
$GPRMC,174325.3,A,3334.357726,N,11742.310519,W,61.1,127.3,230310,,,A*40
$GPRMC,174328.3,A,3334.324813,N,11742.262971,W,61.1,130.4,230310,,,A*47
$GPRMC,174331.3,A,3334.289095,N,11742.217637,W,62.6,133.7,230310,,,A*44
$GPRMC,174334.3,A,3334.251326,N,11742.172917,W,64.1,134.4,230310,,,A*47
$GPRMC,174337.3,A,3334.214985,N,11742.126640,W,64.2,134.1,230310,,,A*4C
$GPRMC,174340.3,A,3334.178011,N,11742.081606,W,64.1,134.5,230310,,,A*48
$GPRMC,174343.3,A,3334.140323,N,11742.035890,W,63.2,134.2,230310,,,A*4F
$GPRMC,174346.3,A,3334.103278,N,11741.991481,W,62.5,133.9,230310,,,A*40
$GPRMC,174349.3,A,3334.067977,N,11741.947331,W,61.4,133.3,230310,,,A*47
$GPRMC,174352.3,A,3334.031642,N,11741.903128,W,61.3,134.9,230310,,,A*47
$GPRMC,174355.3,A,3333.996412,N,11741.859900,W,60.0,134.0,230310,,,A*43
$GPRMC,174358.3,A,3333.961884,N,11741.816913,W,60.9,135.3,230310,,,A*47
$GPRMC,174401.3,A,3333.922903,N,11741.777746,W,60.3,140.5,230310,,,A*4D
$GPRMC,174404.3,A,3333.879795,N,11741.742456,W,61.5,145.7,230310,,,A*42
$GPRMC,174407.3,A,3333.837339,N,11741.711507,W,60.5,148.8,230310,,,A*49
$GPRMC,174410.3,A,3333.794009,N,11741.679566,W,61.4,148.3,230310,,,A*4A
$GPRMC,174413.3,A,3333.747867,N,11741.647336,W,63.6,148.4,230310,,,A*4E
$GPRMC,174416.3,A,3333.703721,N,11741.613401,W,63.7,147.7,230310,,,A*49
$GPRMC,174419.3,A,3333.661701,N,11741.575148,W,64.1,139.6,230310,,,A*43
$GPRMC,174422.3,A,3333.623051,N,11741.531787,W,64.6,133.6,230310,,,A*47
$GPRMC,174425.3,A,3333.588495,N,11741.483320,W,64.0,128.6,230310,,,A*43
$GPRMC,174428.3,A,3333.558187,N,11741.431202,W,63.3,121.9,230310,,,A*4F
$GPRMC,174431.3,A,3333.532932,N,11741.376584,W,62.9,116.4,230310,,,A*42
$GPRMC,174434.3,A,3333.512041,N,11741.317667,W,65.3,112.3,230310,,,A*4F
$GPRMC,174437.3,A,3333.494726,N,11741.254758,W,66.9,107.2,230310,,,A*42
$GPRMC,174440.3,A,3333.482472,N,11741.190428,W,66.9,102.5,230310,,,A*4A
$GPRMC,174443.3,A,3333.470649,N,11741.125244,W,67.2,102.3,230310,,,A*40
$GPRMC,174446.3,A,3333.461355,N,11741.060713,W,66.7,100.3,230310,,,A*4C
$GPRMC,174449.3,A,3333.450377,N,11740.996249,W,66.6,101.2,230310,,,A*4B
$GPRMC,174452.3,A,3333.439688,N,11740.931457,W,65.5,102.6,230310,,,A*48
$GPRMC,174455.3,A,3333.424121,N,11740.869403,W,65.0,108.4,230310,,,A*47
$GPRMC,174458.3,A,3333.398027,N,11740.811756,W,64.6,119.1,230310,,,A*43
$GPRMC,174501.3,A,3333.366824,N,11740.759694,W,63.4,126.2,230310,,,A*42
$GPRMC,174504.3,A,3333.330222,N,11740.712408,W,64.5,133.8,230310,,,A*48
$GPRMC,174507.3,A,3333.288382,N,11740.672261,W,65.1,143.3,230310,,,A*45
$GPRMC,174510.3,A,3333.241984,N,11740.637486,W,66.5,150.9,230310,,,A*4B
$GPRMC,174513.3,A,3333.191741,N,11740.609849,W,65.1,157.7,230310,,,A*4D
$GPRMC,174516.3,A,3333.138610,N,11740.591430,W,63.8,164.6,230310,,,A*40
$GPRMC,174519.3,A,3333.088163,N,11740.576389,W,62.7,167.7,230310,,,A*46
$GPRMC,174522.3,A,3333.036644,N,11740.565492,W,62.3,169.1,230310,,,A*4A
$GPRMC,174525.3,A,3332.985631,N,11740.552937,W,62.2,168.4,230310,,,A*4C
$GPRMC,174528.3,A,3332.935587,N,11740.541118,W,61.7,168.6,230310,,,A*47
$GPRMC,174531.3,A,3332.886340,N,11740.528471,W,60.9,168.4,230310,,,A*43
$GPRMC,174534.3,A,3332.837340,N,11740.515961,W,60.9,168.3,230310,,,A*49
$GPRMC,174537.3,A,3332.787632,N,11740.503672,W,60.2,167.9,230310,,,A*4A
$GPRMC,174540.3,A,3332.738544,N,11740.491009,W,59.7,167.4,230310,,,A*4E
$GPRMC,174543.3,A,3332.690422,N,11740.480308,W,59.9,168.0,230310,,,A*48
$GPRMC,174546.3,A,3332.641689,N,11740.467886,W,59.5,168.3,230310,,,A*49
$GPRMC,174549.3,A,3332.591847,N,11740.459748,W,60.7,173.4,230310,,,A*41
$GPRMC,174552.3,A,3332.542162,N,11740.459393,W,59.5,181.5,230310,,,A*4D
$GPRMC,174555.3,A,3332.491017,N,11740.466115,W,62.1,186.9,230310,,,A*41
$GPRMC,174558.3,A,3332.438666,N,11740.474706,W,63.5,187.2,230310,,,A*47
$GPRMC,174601.3,A,3332.385061,N,11740.484126,W,64.2,188.2,230310,,,A*4C
$GPRMC,174604.3,A,3332.330934,N,11740.494342,W,65.1,189.7,230310,,,A*49
$GPRMC,174607.3,A,3332.278353,N,11740.503419,W,64.3,188.0,230310,,,A*4F
$GPRMC,174610.3,A,3332.224931,N,11740.510330,W,64.1,185.3,230310,,,A*4C
$GPRMC,174613.3,A,3332.172201,N,11740.513647,W,62.3,182.3,230310,,,A*42
$GPRMC,174616.3,A,3332.121016,N,11740.514125,W,61.2,180.5,230310,,,A*47
$GPRMC,174619.3,A,3332.071283,N,11740.513190,W,59.5,178.8,230310,,,A*4D
$GPRMC,174622.3,A,3332.021590,N,11740.509780,W,60.0,176.1,230310,,,A*41
$GPRMC,174625.3,A,3331.969455,N,11740.502275,W,63.6,172.0,230310,,,A*4C
$GPRMC,174628.3,A,3331.918028,N,11740.486812,W,64.2,163.0,230310,,,A*4C
$GPRMC,174631.3,A,3331.866404,N,11740.462702,W,65.5,155.3,230310,,,A*42
$GPRMC,174634.3,A,3331.819459,N,11740.427538,W,66.2,146.6,230310,,,A*4E
$GPRMC,174637.3,A,3331.778330,N,11740.385962,W,65.1,137.7,230310,,,A*46
$GPRMC,174640.3,A,3331.742073,N,11740.337137,W,66.2,130.3,230310,,,A*49
$GPRMC,174643.3,A,3331.707668,N,11740.283924,W,67.1,129.2,230310,,,A*48
$GPRMC,174646.3,A,3331.672744,N,11740.231955,W,67.3,129.5,230310,,,A*4B
$GPRMC,174649.3,A,3331.635745,N,11740.182847,W,66.3,133.5,230310,,,A*45
$GPRMC,174652.3,A,3331.594222,N,11740.139108,W,66.5,141.5,230310,,,A*42
$GPRMC,174655.3,A,3331.549289,N,11740.101874,W,65.7,148.3,230310,,,A*43
$GPRMC,174658.3,A,3331.502211,N,11740.070138,W,63.9,153.2,230310,,,A*45
$GPRMC,174701.3,A,3331.454076,N,11740.045983,W,62.5,158.5,230310,,,A*46
$GPRMC,174704.3,A,3331.403677,N,11740.024361,W,62.3,160.0,230310,,,A*4F
$GPRMC,174707.3,A,3331.354827,N,11740.004046,W,62.6,160.2,230310,,,A*41
$GPRMC,174710.3,A,3331.305197,N,11739.983535,W,62.1,160.0,230310,,,A*4D
$GPRMC,174713.3,A,3331.255496,N,11739.961861,W,62.6,160.1,230310,,,A*48
$GPRMC,174716.3,A,3331.206723,N,11739.941109,W,61.4,160.5,230310,,,A*46
$GPRMC,174719.3,A,3331.158314,N,11739.920239,W,61.1,160.2,230310,,,A*44
$GPRMC,174722.3,A,3331.110156,N,11739.900684,W,60.7,160.2,230310,,,A*43
$GPRMC,174725.3,A,3331.062125,N,11739.879415,W,62.3,160.2,230310,,,A*47
$GPRMC,174728.3,A,3331.013104,N,11739.858573,W,62.8,160.9,230310,,,A*4D
$GPRMC,174731.3,A,3330.964207,N,11739.837626,W,61.3,159.6,230310,,,A*4A
$GPRMC,174734.3,A,3330.915244,N,11739.816184,W,62.1,160.1,230310,,,A*4E
$GPRMC,174737.3,A,3330.865734,N,11739.794939,W,62.3,160.0,230310,,,A*41
$GPRMC,174740.3,A,3330.816505,N,11739.774401,W,62.4,160.1,230310,,,A*4B
$GPRMC,174743.3,A,3330.768447,N,11739.753116,W,61.6,159.7,230310,,,A*42
$GPRMC,174746.3,A,3330.717992,N,11739.732740,W,64.4,160.4,230310,,,A*46
$GPRMC,174749.3,A,3330.668410,N,11739.710565,W,64.4,159.8,230310,,,A*44
$GPRMC,174752.3,A,3330.617372,N,11739.688546,W,65.5,159.5,230310,,,A*49
$GPRMC,174755.3,A,3330.565480,N,11739.667099,W,67.0,161.0,230310,,,A*4D
$GPRMC,174758.3,A,3330.513353,N,11739.644876,W,65.8,160.3,230310,,,A*48
$GPRMC,174801.3,A,3330.461365,N,11739.622992,W,66.1,160.4,230310,,,A*4C
$GPRMC,174804.3,A,3330.408558,N,11739.600672,W,66.9,160.6,230310,,,A*45
$GPRMC,174807.3,A,3330.355669,N,11739.578252,W,67.0,160.2,230310,,,A*4E
$GPRMC,174810.3,A,3330.303039,N,11739.556853,W,67.3,161.5,230310,,,A*4A
$GPRMC,174813.3,A,3330.247669,N,11739.539645,W,67.6,165.7,230310,,,A*48
$GPRMC,174816.3,A,3330.193740,N,11739.525253,W,67.4,169.1,230310,,,A*4B
$GPRMC,174819.3,A,3330.137367,N,11739.515496,W,68.3,172.3,230310,,,A*47
$GPRMC,174822.3,A,3330.081096,N,11739.509771,W,67.7,175.9,230310,,,A*4F
$GPRMC,174825.3,A,3330.023244,N,11739.508664,W,68.3,179.7,230310,,,A*40
$GPRMC,174828.3,A,3329.967673,N,11739.512926,W,66.6,184.1,230310,,,A*41
$GPRMC,174831.3,A,3329.913995,N,11739.520245,W,64.4,187.1,230310,,,A*41
$GPRMC,174834.3,A,3329.859535,N,11739.530722,W,66.3,190.8,230310,,,A*42
$GPRMC,174837.3,A,3329.806538,N,11739.545266,W,64.3,193.8,230310,,,A*40
$GPRMC,174840.3,A,3329.755960,N,11739.565384,W,64.5,198.6,230310,,,A*44
$GPRMC,174843.3,A,3329.705134,N,11739.588977,W,65.9,201.3,230310,,,A*45
$GPRMC,174846.3,A,3329.654867,N,11739.615207,W,65.5,204.6,230310,,,A*4D
$GPRMC,174849.3,A,3329.606661,N,11739.644262,W,65.2,208.3,230310,,,A*44
$GPRMC,174852.3,A,3329.560588,N,11739.677369,W,64.2,211.5,230310,,,A*4C
$GPRMC,174855.3,A,3329.513685,N,11739.712804,W,66.0,212.7,230310,,,A*42
$GPRMC,174858.3,A,3329.468199,N,11739.747159,W,65.8,212.3,230310,,,A*46
$GPRMC,174901.3,A,3329.421866,N,11739.782431,W,66.4,212.4,230310,,,A*45
$GPRMC,174904.3,A,3329.373860,N,11739.818310,W,67.5,212.2,230310,,,A*48
$GPRMC,174907.3,A,3329.325395,N,11739.854017,W,67.8,211.5,230310,,,A*4C
$GPRMC,174910.3,A,3329.276956,N,11739.889345,W,68.3,211.7,230310,,,A*4A
$GPRMC,174913.3,A,3329.227411,N,11739.926022,W,69.5,211.3,230310,,,A*46
$GPRMC,174916.3,A,3329.178422,N,11739.961413,W,68.3,211.2,230310,,,A*49
$GPRMC,174919.3,A,3329.129846,N,11739.998467,W,68.2,213.5,230310,,,A*4D
$GPRMC,174922.3,A,3329.083159,N,11740.037000,W,68.1,215.2,230310,,,A*46
$GPRMC,174925.3,A,3329.037453,N,11740.076197,W,67.8,215.7,230310,,,A*48
$GPRMC,174928.3,A,3328.991486,N,11740.116129,W,67.7,215.9,230310,,,A*4A
$GPRMC,174931.3,A,3328.946079,N,11740.154884,W,67.7,215.8,230310,,,A*45
$GPRMC,174934.3,A,3328.899857,N,11740.195342,W,68.1,216.1,230310,,,A*48
$GPRMC,174937.3,A,3328.853706,N,11740.234666,W,68.3,215.8,230310,,,A*45
$GPRMC,174940.3,A,3328.807425,N,11740.273610,W,68.0,215.8,230310,,,A*47
$GPRMC,174943.3,A,3328.762334,N,11740.312657,W,66.6,215.8,230310,,,A*42
$GPRMC,174946.3,A,3328.718246,N,11740.350652,W,65.5,214.9,230310,,,A*4D
$GPRMC,174949.3,A,3328.672370,N,11740.386806,W,65.4,211.9,230310,,,A*4B
$GPRMC,174952.3,A,3328.625592,N,11740.419305,W,64.0,208.6,230310,,,A*42
$GPRMC,174955.3,A,3328.576366,N,11740.446058,W,64.8,202.8,230310,,,A*40
$GPRMC,174958.3,A,3328.524006,N,11740.466696,W,65.3,197.2,230310,,,A*46
$GPRMC,175001.3,A,3328.471545,N,11740.482211,W,64.9,192.9,230310,,,A*45
$GPRMC,175004.3,A,3328.417558,N,11740.487941,W,65.7,185.3,230310,,,A*44
$GPRMC,175007.3,A,3328.363566,N,11740.488442,W,65.3,179.0,230310,,,A*4B
$GPRMC,175010.3,A,3328.308565,N,11740.483728,W,66.0,173.4,230310,,,A*49
$GPRMC,175013.3,A,3328.256062,N,11740.470328,W,64.7,166.5,230310,,,A*4A
$GPRMC,175016.3,A,3328.206105,N,11740.447578,W,65.2,157.5,230310,,,A*4B
$GPRMC,175019.3,A,3328.160380,N,11740.415654,W,64.1,148.1,230310,,,A*4A
$GPRMC,175022.3,A,3328.119219,N,11740.375411,W,64.0,139.2,230310,,,A*4B
$GPRMC,175025.3,A,3328.085068,N,11740.330543,W,61.9,132.4,230310,,,A*4A
$GPRMC,175028.3,A,3328.053121,N,11740.283072,W,59.2,122.9,230310,,,A*42
$GPRMC,175031.3,A,3328.030788,N,11740.232828,W,57.0,116.4,230310,,,A*41
$GPRMC,175034.3,A,3328.010547,N,11740.182505,W,56.2,117.5,230310,,,A*4E
$GPRMC,175037.3,A,3327.987083,N,11740.134512,W,55.4,121.5,230310,,,A*43
$GPRMC,175040.3,A,3327.961064,N,11740.088809,W,55.9,125.9,230310,,,A*46
$GPRMC,175043.3,A,3327.930457,N,11740.044688,W,58.1,129.6,230310,,,A*44
$GPRMC,175046.3,A,3327.900548,N,11739.999042,W,60.3,129.2,230310,,,A*47
$GPRMC,175049.3,A,3327.868035,N,11739.952381,W,62.5,129.5,230310,,,A*40
$GPRMC,175052.3,A,3327.834546,N,11739.903621,W,64.8,129.7,230310,,,A*40
$GPRMC,175055.3,A,3327.800930,N,11739.853073,W,66.6,129.2,230310,,,A*41
$GPRMC,175058.3,A,3327.765139,N,11739.801285,W,68.6,129.4,230310,,,A*45
$GPRMC,175101.3,A,3327.728007,N,11739.748181,W,69.6,129.5,230310,,,A*48
$GPRMC,175104.3,A,3327.691053,N,11739.693831,W,70.7,128.8,230310,,,A*4F
$GPRMC,175107.3,A,3327.655768,N,11739.636348,W,71.7,122.9,230310,,,A*4B
$GPRMC,175110.3,A,3327.626612,N,11739.574656,W,70.8,116.4,230310,,,A*4E
$GPRMC,175113.3,A,3327.601520,N,11739.512657,W,68.1,116.2,230310,,,A*4D
$GPRMC,175116.3,A,3327.575702,N,11739.452914,W,66.5,118.5,230310,,,A*44
$GPRMC,175119.3,A,3327.545809,N,11739.394879,W,68.7,122.6,230310,,,A*4D
$GPRMC,175122.3,A,3327.511356,N,11739.338673,W,69.4,125.6,230310,,,A*42
$GPRMC,175125.3,A,3327.477133,N,11739.283284,W,68.8,126.2,230310,,,A*42
$GPRMC,175128.3,A,3327.443607,N,11739.226949,W,68.8,125.8,230310,,,A*44
$GPRMC,175131.3,A,3327.411671,N,11739.169757,W,68.4,123.8,230310,,,A*49
$GPRMC,175134.3,A,3327.381345,N,11739.112221,W,68.9,121.8,230310,,,A*47
$GPRMC,175137.3,A,3327.351859,N,11739.051344,W,70.3,119.7,230310,,,A*4C
$GPRMC,175140.3,A,3327.324302,N,11738.988650,W,70.9,117.5,230310,,,A*41
$GPRMC,175143.3,A,3327.298022,N,11738.924678,W,71.1,116.8,230310,,,A*4C
$GPRMC,175146.3,A,3327.272164,N,11738.863127,W,69.9,117.3,230310,,,A*4A
$GPRMC,175149.3,A,3327.244900,N,11738.800367,W,70.3,117.8,230310,,,A*40
$GPRMC,175152.3,A,3327.217699,N,11738.738481,W,70.8,117.4,230310,,,A*4F
$GPRMC,175155.3,A,3327.189859,N,11738.676994,W,70.0,118.9,230310,,,A*46
$GPRMC,175158.3,A,3327.158472,N,11738.618190,W,70.2,121.9,230310,,,A*4E
$GPRMC,175201.3,A,3327.126882,N,11738.561621,W,68.4,124.6,230310,,,A*4E
$GPRMC,175204.3,A,3327.092276,N,11738.508624,W,67.8,127.7,230310,,,A*4F
$GPRMC,175207.3,A,3327.058682,N,11738.456259,W,66.2,129.3,230310,,,A*40
$GPRMC,175210.3,A,3327.022548,N,11738.405739,W,66.6,130.6,230310,,,A*42
$GPRMC,175213.3,A,3326.986701,N,11738.355828,W,65.2,130.8,230310,,,A*4C
$GPRMC,175216.3,A,3326.950485,N,11738.306630,W,65.6,130.5,230310,,,A*45
$GPRMC,175219.3,A,3326.915496,N,11738.254808,W,67.8,126.6,230310,,,A*42
$GPRMC,175222.3,A,3326.882884,N,11738.198282,W,68.1,121.4,230310,,,A*42
$GPRMC,175225.3,A,3326.853194,N,11738.139412,W,68.1,121.5,230310,,,A*44
$GPRMC,175228.3,A,3326.823140,N,11738.081396,W,69.2,121.2,230310,,,A*4B
$GPRMC,175231.3,A,3326.793544,N,11738.021914,W,69.3,121.3,230310,,,A*4D
$GPRMC,175234.3,A,3326.764899,N,11737.964557,W,67.5,121.6,230310,,,A*4C
$GPRMC,175237.3,A,3326.733693,N,11737.910698,W,65.8,126.7,230310,,,A*43
$GPRMC,175240.3,A,3326.698398,N,11737.860333,W,65.7,131.4,230310,,,A*45
$GPRMC,175243.3,A,3326.661703,N,11737.815257,W,62.8,134.4,230310,,,A*4A
$GPRMC,175246.3,A,3326.625038,N,11737.772317,W,62.1,135.1,230310,,,A*46
$GPRMC,175249.3,A,3326.587221,N,11737.728342,W,63.0,135.2,230310,,,A*44
$GPRMC,175252.3,A,3326.548426,N,11737.685992,W,62.8,135.5,230310,,,A*43
$GPRMC,175255.3,A,3326.512631,N,11737.643168,W,61.4,134.7,230310,,,A*44
$GPRMC,175258.3,A,3326.476837,N,11737.599357,W,61.7,132.7,230310,,,A*4D
$GPRMC,175301.3,A,3326.444914,N,11737.551188,W,62.1,125.9,230310,,,A*48
$GPRMC,175304.3,A,3326.415119,N,11737.498807,W,63.4,123.6,230310,,,A*4B
$GPRMC,175307.3,A,3326.385712,N,11737.445768,W,63.2,123.9,230310,,,A*44
$GPRMC,175310.3,A,3326.356063,N,11737.392714,W,64.3,123.3,230310,,,A*47
$GPRMC,175313.3,A,3326.325699,N,11737.338434,W,65.6,123.7,230310,,,A*42
$GPRMC,175316.3,A,3326.295385,N,11737.283204,W,66.4,123.4,230310,,,A*43
$GPRMC,175319.3,A,3326.265180,N,11737.228428,W,65.4,125.0,230310,,,A*4C
$GPRMC,175322.3,A,3326.232085,N,11737.177380,W,64.2,129.5,230310,,,A*40
$GPRMC,175325.3,A,3326.194303,N,11737.132390,W,63.1,135.6,230310,,,A*4F
$GPRMC,175328.3,A,3326.154723,N,11737.092067,W,61.7,142.0,230310,,,A*4A
$GPRMC,175331.3,A,3326.112614,N,11737.057849,W,60.8,147.4,230310,,,A*47
$GPRMC,175334.3,A,3326.068536,N,11737.028120,W,59.5,151.0,230310,,,A*47
$GPRMC,175337.3,A,3326.021706,N,11736.998309,W,62.4,151.6,230310,,,A*4D
$GPRMC,175340.3,A,3325.977842,N,11736.968903,W,60.9,150.9,230310,,,A*45
$GPRMC,175343.3,A,3325.933553,N,11736.938472,W,61.2,149.0,230310,,,A*4E
$GPRMC,175346.3,A,3325.891571,N,11736.904113,W,61.4,143.3,230310,,,A*40
$GPRMC,175349.3,A,3325.853238,N,11736.861167,W,62.8,137.0,230310,,,A*45
$GPRMC,175352.3,A,3325.817036,N,11736.814821,W,64.4,133.8,230310,,,A*4C
$GPRMC,175355.3,A,3325.779752,N,11736.768129,W,65.8,135.0,230310,,,A*4F
$GPRMC,175358.3,A,3325.738868,N,11736.724855,W,65.1,140.0,230310,,,A*40
$GPRMC,175401.3,A,3325.694892,N,11736.684407,W,67.2,144.2,230310,,,A*4E
$GPRMC,175404.3,A,3325.646361,N,11736.649200,W,66.2,148.2,230310,,,A*4E
$GPRMC,175407.3,A,3325.599123,N,11736.615775,W,65.8,150.4,230310,,,A*40
$GPRMC,175410.3,A,3325.552439,N,11736.583822,W,64.5,150.2,230310,,,A*44
$GPRMC,175413.3,A,3325.505671,N,11736.551792,W,64.9,150.7,230310,,,A*49
$GPRMC,175416.3,A,3325.457920,N,11736.521537,W,64.5,153.0,230310,,,A*43
$GPRMC,175419.3,A,3325.407437,N,11736.495906,W,64.2,157.8,230310,,,A*49
$GPRMC,175422.3,A,3325.357094,N,11736.470944,W,65.4,158.4,230310,,,A*47
$GPRMC,175425.3,A,3325.307413,N,11736.446198,W,64.6,155.6,230310,,,A*4E
$GPRMC,175428.3,A,3325.260464,N,11736.415419,W,64.5,149.9,230310,,,A*48
$GPRMC,175431.3,A,3325.215893,N,11736.380816,W,65.5,144.9,230310,,,A*42
$GPRMC,175434.3,A,3325.170961,N,11736.343764,W,65.8,144.4,230310,,,A*4E
$GPRMC,175437.3,A,3325.126144,N,11736.307467,W,64.4,147.7,230310,,,A*4C
$GPRMC,175440.3,A,3325.078225,N,11736.277628,W,62.9,153.9,230310,,,A*4D
$GPRMC,175443.3,A,3325.029101,N,11736.253380,W,63.5,157.0,230310,,,A*4E
$GPRMC,175446.3,A,3324.980028,N,11736.229018,W,64.2,157.4,230310,,,A*41
$GPRMC,175449.3,A,3324.929704,N,11736.203987,W,65.2,157.6,230310,,,A*40
$GPRMC,175452.3,A,3324.880898,N,11736.178340,W,64.5,157.4,230310,,,A*48
$GPRMC,175455.3,A,3324.832142,N,11736.154009,W,63.5,157.3,230310,,,A*48
$GPRMC,175458.3,A,3324.783072,N,11736.129466,W,63.1,157.5,230310,,,A*47
$GPRMC,175501.3,A,3324.734809,N,11736.104675,W,63.3,156.9,230310,,,A*42
$GPRMC,175504.3,A,3324.686552,N,11736.080672,W,62.9,156.9,230310,,,A*4D
$GPRMC,175507.3,A,3324.637897,N,11736.055870,W,63.6,157.4,230310,,,A*46
$GPRMC,175510.3,A,3324.591102,N,11736.031871,W,61.7,157.0,230310,,,A*4E
$GPRMC,175513.3,A,3324.544051,N,11736.009035,W,59.6,157.4,230310,,,A*4F
$GPRMC,175516.3,A,3324.496567,N,11735.985360,W,61.5,157.3,230310,,,A*46
$GPRMC,175519.3,A,3324.449743,N,11735.960221,W,61.6,156.6,230310,,,A*47
$GPRMC,175522.3,A,3324.401157,N,11735.936511,W,62.2,157.4,230310,,,A*43
$GPRMC,175525.3,A,3324.354178,N,11735.912685,W,62.0,156.5,230310,,,A*44
$GPRMC,175528.3,A,3324.306222,N,11735.888933,W,62.7,157.1,230310,,,A*40
$GPRMC,175531.3,A,3324.257354,N,11735.864768,W,63.2,157.0,230310,,,A*4A
$GPRMC,175534.3,A,3324.211845,N,11735.839439,W,62.9,156.6,230310,,,A*44
$GPRMC,175537.3,A,3324.163195,N,11735.813415,W,63.0,157.2,230310,,,A*4E
$GPRMC,175540.3,A,3324.115892,N,11735.789498,W,61.7,157.0,230310,,,A*4F
$GPRMC,175543.3,A,3324.068284,N,11735.765888,W,61.8,156.9,230310,,,A*42
$GPRMC,175546.3,A,3324.022292,N,11735.741882,W,61.9,156.1,230310,,,A*4B
$GPRMC,175549.3,A,3323.971217,N,11735.716842,W,64.4,156.8,230310,,,A*4E
$GPRMC,175552.3,A,3323.922167,N,11735.691895,W,63.6,158.0,230310,,,A*41
$GPRMC,175555.3,A,3323.872579,N,11735.668835,W,61.8,157.8,230310,,,A*4E
$GPRMC,175558.3,A,3323.822768,N,11735.646443,W,61.7,156.2,230310,,,A*41
$GPRMC,175601.3,A,3323.778428,N,11735.620221,W,60.4,154.1,230310,,,A*48
$GPRMC,175604.3,A,3323.730794,N,11735.593820,W,60.4,152.2,230310,,,A*40
$GPRMC,175607.3,A,3323.685232,N,11735.564383,W,62.2,151.3,230310,,,A*49
$GPRMC,175610.3,A,3323.638410,N,11735.533180,W,62.8,149.8,230310,,,A*44
$GPRMC,175613.3,A,3323.592633,N,11735.500467,W,63.7,148.9,230310,,,A*45
$GPRMC,175616.3,A,3323.549184,N,11735.468174,W,61.8,147.5,230310,,,A*4B
$GPRMC,175619.3,A,3323.507806,N,11735.434175,W,61.5,146.9,230310,,,A*45
$GPRMC,175622.3,A,3323.465083,N,11735.399860,W,61.7,147.0,230310,,,A*4A
$GPRMC,175625.3,A,3323.422614,N,11735.365986,W,62.9,146.8,230310,,,A*48
$GPRMC,175628.3,A,3323.378817,N,11735.331295,W,63.7,147.1,230310,,,A*4F
$GPRMC,175631.3,A,3323.334941,N,11735.296281,W,63.6,145.2,230310,,,A*44
$GPRMC,175634.3,A,3323.294898,N,11735.255894,W,63.7,139.8,230310,,,A*4E
$GPRMC,175637.3,A,3323.254135,N,11735.213026,W,63.8,136.5,230310,,,A*41
$GPRMC,175640.3,A,3323.218185,N,11735.167711,W,62.3,131.6,230310,,,A*4F
$GPRMC,175643.3,A,3323.186505,N,11735.119902,W,61.8,125.6,230310,,,A*4C
$GPRMC,175646.3,A,3323.157622,N,11735.067035,W,63.7,121.4,230310,,,A*4D
$GPRMC,175649.3,A,3323.131486,N,11735.011471,W,63.4,118.1,230310,,,A*47
$GPRMC,175652.3,A,3323.108000,N,11734.954072,W,64.2,115.9,230310,,,A*47
$GPRMC,175655.3,A,3323.086492,N,11734.896657,W,63.6,114.2,230310,,,A*4F
$GPRMC,175658.3,A,3323.064500,N,11734.838230,W,63.7,114.1,230310,,,A*47
$GPRMC,175701.3,A,3323.042466,N,11734.781327,W,63.3,113.9,230310,,,A*4E
$GPRMC,175704.3,A,3323.022007,N,11734.723622,W,62.9,113.2,230310,,,A*46
$GPRMC,175707.3,A,3322.999859,N,11734.667105,W,61.9,115.3,230310,,,A*49
$GPRMC,175710.3,A,3322.976735,N,11734.611436,W,61.8,115.6,230310,,,A*4B
$GPRMC,175713.3,A,3322.955077,N,11734.555431,W,62.4,114.3,230310,,,A*47
$GPRMC,175716.3,A,3322.934643,N,11734.498442,W,62.1,114.6,230310,,,A*40
$GPRMC,175719.3,A,3322.913653,N,11734.441602,W,62.5,114.1,230310,,,A*4A
$GPRMC,175722.3,A,3322.893811,N,11734.383034,W,64.5,113.6,230310,,,A*4F
$GPRMC,175725.3,A,3322.872321,N,11734.326905,W,63.1,114.8,230310,,,A*41
$GPRMC,175728.3,A,3322.845873,N,11734.271187,W,63.2,115.8,230310,,,A*47
$GPRMC,175731.3,A,3322.823621,N,11734.213742,W,63.4,115.7,230310,,,A*44
$GPRMC,175734.3,A,3322.801644,N,11734.156924,W,63.6,115.0,230310,,,A*4B
$GPRMC,175737.3,A,3322.780077,N,11734.100036,W,63.3,114.7,230310,,,A*42
$GPRMC,175740.3,A,3322.758096,N,11734.044371,W,63.5,115.4,230310,,,A*4D
$GPRMC,175743.3,A,3322.735983,N,11733.986913,W,63.3,115.6,230310,,,A*42
$GPRMC,175746.3,A,3322.706616,N,11733.935258,W,61.3,123.6,230310,,,A*4F
$GPRMC,175749.3,A,3322.674469,N,11733.886592,W,60.5,128.4,230310,,,A*48
$GPRMC,175752.3,A,3322.639997,N,11733.841948,W,60.6,133.9,230310,,,A*43
$GPRMC,175755.3,A,3322.601859,N,11733.799019,W,62.5,136.7,230310,,,A*41
$GPRMC,175758.3,A,3322.563192,N,11733.755745,W,63.4,137.0,230310,,,A*4D
$GPRMC,175801.3,A,3322.526727,N,11733.710574,W,64.2,132.9,230310,,,A*4B
$GPRMC,175804.3,A,3322.493311,N,11733.660855,W,63.9,125.8,230310,,,A*43
$GPRMC,175807.3,A,3322.464107,N,11733.608726,W,64.2,122.8,230310,,,A*43
$GPRMC,175810.3,A,3322.435489,N,11733.554926,W,63.6,123.1,230310,,,A*4D
$GPRMC,175813.3,A,3322.406445,N,11733.501990,W,63.5,122.7,230310,,,A*47
$GPRMC,175816.3,A,3322.376917,N,11733.448909,W,63.6,122.5,230310,,,A*45
$GPRMC,175819.3,A,3322.348406,N,11733.396578,W,63.0,123.8,230310,,,A*4E
$GPRMC,175822.3,A,3322.319743,N,11733.344751,W,62.4,123.2,230310,,,A*49
$GPRMC,175825.3,A,3322.291316,N,11733.292203,W,61.9,122.6,230310,,,A*48
$GPRMC,175828.3,A,3322.263370,N,11733.239997,W,62.2,122.5,230310,,,A*44
$GPRMC,175831.3,A,3322.235075,N,11733.187481,W,63.1,123.2,230310,,,A*41
$GPRMC,175834.3,A,3322.206069,N,11733.135230,W,62.9,123.0,230310,,,A*47
$GPRMC,175837.3,A,3322.177748,N,11733.082273,W,63.5,123.1,230310,,,A*43
$GPRMC,175840.3,A,3322.149469,N,11733.029940,W,62.5,123.0,230310,,,A*44
$GPRMC,175843.3,A,3322.121390,N,11732.978502,W,61.3,123.3,230310,,,A*48
$GPRMC,175846.3,A,3322.093788,N,11732.927563,W,61.4,123.3,230310,,,A*42
$GPRMC,175849.3,A,3322.065651,N,11732.876613,W,61.8,122.7,230310,,,A*49
$GPRMC,175852.3,A,3322.036484,N,11732.825772,W,60.9,124.7,230310,,,A*49
$GPRMC,175855.3,A,3322.004503,N,11732.778296,W,60.9,128.2,230310,,,A*40
$GPRMC,175858.3,A,3321.971443,N,11732.731652,W,61.2,130.0,230310,,,A*40
$GPRMC,175901.3,A,3321.939316,N,11732.683917,W,60.6,129.1,230310,,,A*4C
$GPRMC,175904.3,A,3321.907010,N,11732.638031,W,59.9,129.3,230310,,,A*4B
$GPRMC,175907.3,A,3321.875337,N,11732.591510,W,60.5,128.8,230310,,,A*40
$GPRMC,175910.3,A,3321.842796,N,11732.542673,W,62.4,128.7,230310,,,A*49
$GPRMC,175913.3,A,3321.808912,N,11732.494583,W,63.1,129.3,230310,,,A*41
$GPRMC,175916.3,A,3321.774490,N,11732.444499,W,63.8,129.5,230310,,,A*4F
$GPRMC,175919.3,A,3321.740133,N,11732.395606,W,63.2,130.0,230310,,,A*43
$GPRMC,175922.3,A,3321.709545,N,11732.347876,W,62.8,128.9,230310,,,A*4E
$GPRMC,175925.3,A,3321.675878,N,11732.298916,W,64.4,128.9,230310,,,A*4E
$GPRMC,175928.3,A,3321.641428,N,11732.247996,W,65.8,129.2,230310,,,A*40
$GPRMC,175931.3,A,3321.606201,N,11732.197928,W,65.2,129.1,230310,,,A*44
$GPRMC,175934.3,A,3321.572950,N,11732.148707,W,64.3,129.0,230310,,,A*4E
$GPRMC,175937.3,A,3321.536611,N,11732.098565,W,65.0,129.8,230310,,,A*47
$GPRMC,175940.3,A,3321.501902,N,11732.049634,W,65.2,130.7,230310,,,A*40
$GPRMC,175943.3,A,3321.465679,N,11731.998006,W,66.7,129.5,230310,,,A*4E
$GPRMC,175946.3,A,3321.430131,N,11731.946200,W,66.7,129.6,230310,,,A*44
$GPRMC,175949.3,A,3321.395065,N,11731.895657,W,66.5,129.4,230310,,,A*4A
$GPRMC,175952.3,A,3321.360103,N,11731.843726,W,67.4,128.8,230310,,,A*4A
$GPRMC,175955.3,A,3321.323276,N,11731.790963,W,68.1,129.6,230310,,,A*40
$GPRMC,175958.3,A,3321.288576,N,11731.739038,W,67.6,129.1,230310,,,A*41
$GPRMC,180001.3,A,3321.252739,N,11731.685218,W,67.9,128.9,230310,,,A*40
$GPRMC,180004.3,A,3321.216968,N,11731.633688,W,67.9,129.0,230310,,,A*47
$GPRMC,180007.3,A,3321.180985,N,11731.580782,W,67.7,129.7,230310,,,A*42
$GPRMC,180010.3,A,3321.144380,N,11731.528140,W,68.0,129.1,230310,,,A*47
$GPRMC,180013.3,A,3321.109559,N,11731.477455,W,66.0,129.4,230310,,,A*4E
$GPRMC,180016.3,A,3321.073191,N,11731.426604,W,66.3,129.3,230310,,,A*41
$GPRMC,180019.3,A,3321.038538,N,11731.374958,W,65.9,128.7,230310,,,A*4C
$GPRMC,180022.3,A,3321.004160,N,11731.325214,W,65.4,129.2,230310,,,A*4C
$GPRMC,180025.3,A,3320.969568,N,11731.274218,W,65.5,129.1,230310,,,A*4F
$GPRMC,180028.3,A,3320.934302,N,11731.223599,W,65.3,129.5,230310,,,A*4E
$GPRMC,180031.3,A,3320.900792,N,11731.172580,W,65.1,128.8,230310,,,A*4D
$GPRMC,180034.3,A,3320.866185,N,11731.122647,W,65.2,129.1,230310,,,A*4F
$GPRMC,180037.3,A,3320.831756,N,11731.074425,W,65.3,129.9,230310,,,A*4B
$GPRMC,180040.3,A,3320.796730,N,11731.024825,W,66.2,130.3,230310,,,A*40
$GPRMC,180043.3,A,3320.758457,N,11730.973725,W,67.9,130.5,230310,,,A*4A
$GPRMC,180046.3,A,3320.721031,N,11730.922527,W,68.8,131.0,230310,,,A*4B
$GPRMC,180049.3,A,3320.681430,N,11730.869065,W,70.9,130.9,230310,,,A*47
$GPRMC,180052.3,A,3320.643670,N,11730.816913,W,69.3,130.8,230310,,,A*46
$GPRMC,180055.3,A,3320.605978,N,11730.765483,W,69.2,130.6,230310,,,A*44
$GPRMC,180058.3,A,3320.567315,N,11730.713173,W,69.1,130.9,230310,,,A*48
$GPRMC,180101.3,A,3320.529851,N,11730.662861,W,68.7,131.5,230310,,,A*43
$GPRMC,180104.3,A,3320.492761,N,11730.612225,W,67.6,131.0,230310,,,A*4D
$GPRMC,180107.3,A,3320.458326,N,11730.562470,W,65.4,131.0,230310,,,A*4D
$GPRMC,180110.3,A,3320.423341,N,11730.513957,W,64.9,130.5,230310,,,A*40
$GPRMC,180113.3,A,3320.389442,N,11730.464484,W,64.8,130.2,230310,,,A*44
$GPRMC,180116.3,A,3320.354893,N,11730.415815,W,64.6,130.8,230310,,,A*47
$GPRMC,180119.3,A,3320.319850,N,11730.367879,W,64.8,131.1,230310,,,A*40
$GPRMC,180122.3,A,3320.284244,N,11730.319994,W,64.3,131.2,230310,,,A*41
$GPRMC,180125.3,A,3320.248915,N,11730.271885,W,64.3,131.2,230310,,,A*47
$GPRMC,180128.3,A,3320.214745,N,11730.224539,W,62.9,130.9,230310,,,A*44
$GPRMC,180131.3,A,3320.179698,N,11730.176918,W,62.5,130.9,230310,,,A*42
$GPRMC,180134.3,A,3320.145286,N,11730.130452,W,62.8,131.2,230310,,,A*45
$GPRMC,180137.3,A,3320.111255,N,11730.083566,W,63.0,131.1,230310,,,A*4C
$GPRMC,180140.3,A,3320.076682,N,11730.036002,W,62.2,130.7,230310,,,A*4F
$GPRMC,180143.3,A,3320.042566,N,11729.989127,W,62.8,130.9,230310,,,A*45
$GPRMC,180146.3,A,3320.007944,N,11729.941176,W,64.2,131.2,230310,,,A*4B
$GPRMC,180149.3,A,3319.971436,N,11729.892896,W,65.5,131.7,230310,,,A*45
$GPRMC,180152.3,A,3319.935534,N,11729.843884,W,65.4,130.9,230310,,,A*4D
$GPRMC,180155.3,A,3319.900180,N,11729.794921,W,65.8,130.9,230310,,,A*40
$GPRMC,180158.3,A,3319.864318,N,11729.745729,W,66.2,131.0,230310,,,A*46
$GPRMC,180201.3,A,3319.828004,N,11729.695830,W,67.1,130.7,230310,,,A*40
$GPRMC,180204.3,A,3319.791261,N,11729.645081,W,67.4,130.8,230310,,,A*4C
$GPRMC,180207.3,A,3319.754925,N,11729.594813,W,67.1,131.1,230310,,,A*4C
$GPRMC,180210.3,A,3319.718529,N,11729.544533,W,66.7,130.6,230310,,,A*41
$GPRMC,180213.3,A,3319.682057,N,11729.494360,W,66.6,131.5,230310,,,A*43
$GPRMC,180216.3,A,3319.646161,N,11729.444826,W,65.3,130.5,230310,,,A*49
$GPRMC,180219.3,A,3319.611760,N,11729.396379,W,63.1,130.8,230310,,,A*43
$GPRMC,180222.3,A,3319.576187,N,11729.351106,W,62.4,132.6,230310,,,A*4F
$GPRMC,180225.3,A,3319.542684,N,11729.305851,W,60.5,131.0,230310,,,A*47
$GPRMC,180228.3,A,3319.509781,N,11729.260921,W,60.6,130.7,230310,,,A*40
$GPRMC,180231.3,A,3319.476614,N,11729.215615,W,60.4,131.4,230310,,,A*46
$GPRMC,180234.3,A,3319.443848,N,11729.170614,W,59.6,131.0,230310,,,A*4F
$GPRMC,180237.3,A,3319.410727,N,11729.126214,W,59.1,131.5,230310,,,A*49
$GPRMC,180240.3,A,3319.376090,N,11729.083610,W,58.9,136.5,230310,,,A*45
$GPRMC,180243.3,A,3319.337858,N,11729.046037,W,59.6,143.9,230310,,,A*45
$GPRMC,180246.3,A,3319.296141,N,11729.014600,W,59.4,151.1,230310,,,A*47
$GPRMC,180249.3,A,3319.252091,N,11728.989205,W,58.4,156.1,230310,,,A*47
$GPRMC,180252.3,A,3319.205048,N,11728.970711,W,57.9,164.9,230310,,,A*46
$GPRMC,180255.3,A,3319.157575,N,11728.959328,W,57.9,169.4,230310,,,A*4B
$GPRMC,180258.3,A,3319.109300,N,11728.952825,W,57.8,175.0,230310,,,A*4C
$GPRMC,180301.3,A,3319.062298,N,11728.949294,W,57.4,175.4,230310,,,A*4F
$GPRMC,180304.3,A,3319.014755,N,11728.944867,W,58.0,175.3,230310,,,A*48
$GPRMC,180307.3,A,3318.966229,N,11728.940321,W,58.2,175.7,230310,,,A*43
$GPRMC,180310.3,A,3318.917560,N,11728.935498,W,58.8,173.7,230310,,,A*42
$GPRMC,180313.3,A,3318.869617,N,11728.925834,W,58.5,167.9,230310,,,A*47
$GPRMC,180316.3,A,3318.822273,N,11728.907775,W,60.0,159.8,230310,,,A*43
$GPRMC,180319.3,A,3318.774564,N,11728.884143,W,62.6,155.9,230310,,,A*41
$GPRMC,180322.3,A,3318.730377,N,11728.852814,W,63.2,148.0,230310,,,A*4D
$GPRMC,180325.3,A,3318.690220,N,11728.814400,W,62.2,140.7,230310,,,A*47
$GPRMC,180328.3,A,3318.652377,N,11728.771556,W,61.5,135.5,230310,,,A*4D
$GPRMC,180331.3,A,3318.617115,N,11728.727691,W,62.0,134.2,230310,,,A*49
$GPRMC,180334.3,A,3318.581378,N,11728.683465,W,61.4,134.2,230310,,,A*48
$GPRMC,180337.3,A,3318.546339,N,11728.639469,W,60.9,134.2,230310,,,A*44
$GPRMC,180340.3,A,3318.510534,N,11728.595838,W,61.4,134.2,230310,,,A*4D
$GPRMC,180343.3,A,3318.474562,N,11728.552521,W,61.1,134.0,230310,,,A*47
$GPRMC,180346.3,A,3318.438565,N,11728.508936,W,61.7,134.4,230310,,,A*4A
$GPRMC,180349.3,A,3318.402791,N,11728.465505,W,62.1,134.5,230310,,,A*47
$GPRMC,180352.3,A,3318.365982,N,11728.421376,W,63.2,134.8,230310,,,A*4A
$GPRMC,180355.3,A,3318.329023,N,11728.376316,W,63.7,134.6,230310,,,A*4F
$GPRMC,180358.3,A,3318.291252,N,11728.331433,W,64.0,134.6,230310,,,A*47
$GPRMC,180401.3,A,3318.254160,N,11728.286414,W,63.2,134.1,230310,,,A*4D
$GPRMC,180404.3,A,3318.216994,N,11728.241286,W,63.6,134.6,230310,,,A*48
$GPRMC,180407.3,A,3318.179621,N,11728.196083,W,63.3,134.3,230310,,,A*4E
$GPRMC,180410.3,A,3318.142608,N,11728.151161,W,63.3,134.6,230310,,,A*48
$GPRMC,180414.3,A,3318.093434,N,11728.091340,W,63.0,134.4,230310,,,A*41
$GPRMC,180417.3,A,3318.057182,N,11728.046346,W,62.5,134.8,230310,,,A*46
$GPRMC,180420.3,A,3318.020711,N,11728.002043,W,62.2,134.7,230310,,,A*40
$GPRMC,180423.3,A,3317.984368,N,11727.958296,W,62.0,134.9,230310,,,A*4E
$GPRMC,180426.3,A,3317.948502,N,11727.914850,W,61.3,134.5,230310,,,A*45
$GPRMC,180429.3,A,3317.912223,N,11727.871337,W,62.0,135.0,230310,,,A*4D
$GPRMC,180432.3,A,3317.875455,N,11727.827670,W,63.0,135.4,230310,,,A*40
$GPRMC,180435.3,A,3317.838445,N,11727.783473,W,63.5,134.0,230310,,,A*4F
$GPRMC,180438.3,A,3317.802294,N,11727.738167,W,64.4,134.2,230310,,,A*45
$GPRMC,180441.3,A,3317.763963,N,11727.691515,W,65.2,134.2,230310,,,A*44
$GPRMC,180444.3,A,3317.726070,N,11727.645072,W,65.5,134.0,230310,,,A*43
$GPRMC,180447.3,A,3317.687946,N,11727.598283,W,65.2,134.5,230310,,,A*4B
$GPRMC,180450.3,A,3317.647750,N,11727.553925,W,64.9,139.1,230310,,,A*4B
$GPRMC,180453.3,A,3317.605669,N,11727.513744,W,64.1,143.2,230310,,,A*4E
$GPRMC,180456.3,A,3317.559036,N,11727.479111,W,65.7,147.8,230310,,,A*4F
$GPRMC,180459.3,A,3317.512414,N,11727.444977,W,65.9,148.3,230310,,,A*47
$GPRMC,180502.3,A,3317.464313,N,11727.409917,W,66.5,148.2,230310,,,A*49
$GPRMC,180505.3,A,3317.416383,N,11727.374888,W,66.7,148.3,230310,,,A*4B
$GPRMC,180508.3,A,3317.367393,N,11727.339976,W,67.4,148.6,230310,,,A*48
$GPRMC,180511.3,A,3317.318963,N,11727.304879,W,67.3,147.0,230310,,,A*43
$GPRMC,180516.3,A,3317.240269,N,11727.244826,W,67.5,147.8,230310,,,A*48
$GPRMC,180519.3,A,3317.191029,N,11727.209037,W,67.8,147.4,230310,,,A*4E
$GPRMC,180522.3,A,3317.144362,N,11727.172176,W,67.3,147.5,230310,,,A*43
$GPRMC,180526.3,A,3317.080243,N,11727.125193,W,67.2,148.3,230310,,,A*4D
$GPRMC,180529.3,A,3317.034430,N,11727.090530,W,65.2,147.3,230310,,,A*40
$GPRMC,180532.3,A,3316.991108,N,11727.055602,W,63.7,146.8,230310,,,A*41
$GPRMC,180535.3,A,3316.946322,N,11727.021719,W,63.2,147.1,230310,,,A*43
$GPRMC,180538.3,A,3316.902104,N,11726.987078,W,64.0,147.1,230310,,,A*49
$GPRMC,180541.3,A,3316.858521,N,11726.951775,W,64.8,147.4,230310,,,A*46
$GPRMC,180544.3,A,3316.813223,N,11726.916566,W,66.4,147.4,230310,,,A*44
$GPRMC,180547.3,A,3316.766501,N,11726.881213,W,66.4,147.4,230310,,,A*47
$GPRMC,180550.3,A,3316.719806,N,11726.845488,W,66.3,147.1,230310,,,A*4D
$GPRMC,180554.3,A,3316.659420,N,11726.800203,W,65.0,147.7,230310,,,A*46
$GPRMC,180557.3,A,3316.612920,N,11726.765784,W,63.5,148.3,230310,,,A*49
$GPRMC,180600.3,A,3316.568041,N,11726.733767,W,62.6,148.7,230310,,,A*40
$GPRMC,180603.3,A,3316.523649,N,11726.702260,W,61.4,148.9,230310,,,A*4D
$GPRMC,180606.3,A,3316.481557,N,11726.669540,W,61.1,148.0,230310,,,A*48
$GPRMC,180609.3,A,3316.438629,N,11726.636957,W,61.3,148.3,230310,,,A*4E
$GPRMC,180612.3,A,3316.395932,N,11726.603375,W,61.5,147.3,230310,,,A*44
$GPRMC,180615.3,A,3316.357516,N,11726.566468,W,61.0,140.4,230310,,,A*49
$GPRMC,180618.3,A,3316.320548,N,11726.524656,W,61.9,135.0,230310,,,A*49
$GPRMC,180621.3,A,3316.287037,N,11726.477949,W,62.2,131.2,230310,,,A*4A
$GPRMC,180624.3,A,3316.252073,N,11726.430765,W,63.9,131.1,230310,,,A*4D
$GPRMC,180627.3,A,3316.217010,N,11726.382608,W,64.4,131.2,230310,,,A*47
$GPRMC,180630.3,A,3316.181026,N,11726.335083,W,64.2,130.8,230310,,,A*4C
$GPRMC,180633.3,A,3316.145950,N,11726.287355,W,63.7,131.2,230310,,,A*46
$GPRMC,180636.3,A,3316.111343,N,11726.240062,W,62.6,131.2,230310,,,A*46
$GPRMC,180639.3,A,3316.077338,N,11726.193685,W,63.4,131.2,230310,,,A*45
$GPRMC,180642.3,A,3316.042281,N,11726.146025,W,63.8,131.1,230310,,,A*47
$GPRMC,180645.3,A,3316.007183,N,11726.098507,W,64.0,131.2,230310,,,A*4B
$GPRMC,180648.3,A,3315.972092,N,11726.051843,W,62.4,131.4,230310,,,A*43
$GPRMC,180651.3,A,3315.937964,N,11726.006164,W,60.3,131.5,230310,,,A*40
$GPRMC,180654.3,A,3315.905176,N,11725.962013,W,59.1,131.6,230310,,,A*4D
$GPRMC,180657.3,A,3315.871508,N,11725.919449,W,58.6,136.3,230310,,,A*42
$GPRMC,180700.3,A,3315.833625,N,11725.881449,W,60.1,143.8,230310,,,A*4E
$GPRMC,180703.3,A,3315.792243,N,11725.847177,W,62.1,146.5,230310,,,A*45
$GPRMC,180706.3,A,3315.749246,N,11725.812607,W,62.5,146.1,230310,,,A*43
$GPRMC,180709.3,A,3315.705834,N,11725.777914,W,62.7,146.0,230310,,,A*49
$GPRMC,180712.3,A,3315.662363,N,11725.743824,W,61.7,146.6,230310,,,A*4A
$GPRMC,180715.3,A,3315.620183,N,11725.709465,W,61.5,145.9,230310,,,A*4E
$GPRMC,180718.3,A,3315.577948,N,11725.675765,W,60.7,145.8,230310,,,A*46
$GPRMC,180721.3,A,3315.535445,N,11725.643023,W,59.7,146.3,230310,,,A*48
$GPRMC,180724.3,A,3315.494192,N,11725.610281,W,59.5,145.9,230310,,,A*4F
$GPRMC,180727.3,A,3315.453598,N,11725.578336,W,57.2,146.4,230310,,,A*4E
$GPRMC,180730.3,A,3315.413871,N,11725.546804,W,57.4,146.2,230310,,,A*41
$GPRMC,180733.3,A,3315.373659,N,11725.514461,W,57.6,145.8,230310,,,A*44
$GPRMC,180736.3,A,3315.333770,N,11725.482243,W,58.0,145.4,230310,,,A*42
$GPRMC,180739.3,A,3315.292894,N,11725.450324,W,58.5,146.3,230310,,,A*4C
$GPRMC,180742.3,A,3315.251487,N,11725.417692,W,60.1,146.4,230310,,,A*42
$GPRMC,180745.3,A,3315.210089,N,11725.383971,W,61.6,144.6,230310,,,A*44
$GPRMC,180748.3,A,3315.167788,N,11725.348577,W,63.2,145.6,230310,,,A*46
$GPRMC,180751.3,A,3315.124303,N,11725.312796,W,63.4,145.4,230310,,,A*48
$GPRMC,180754.3,A,3315.078747,N,11725.276715,W,65.7,146.1,230310,,,A*4A
$GPRMC,180757.3,A,3315.033293,N,11725.241041,W,65.0,146.4,230310,,,A*4A
$GPRMC,180800.3,A,3314.987739,N,11725.205247,W,64.5,146.4,230310,,,A*45
$GPRMC,180803.3,A,3314.943167,N,11725.169713,W,63.6,146.2,230310,,,A*4C
$GPRMC,180806.3,A,3314.898377,N,11725.134749,W,64.4,146.7,230310,,,A*4A
$GPRMC,180809.3,A,3314.851602,N,11725.103248,W,64.9,153.5,230310,,,A*4C
$GPRMC,180812.3,A,3314.800688,N,11725.078017,W,66.0,159.2,230310,,,A*43
$GPRMC,180815.3,A,3314.748432,N,11725.054471,W,66.6,159.1,230310,,,A*4B
$GPRMC,180818.3,A,3314.696754,N,11725.031361,W,64.9,159.4,230310,,,A*4A
$GPRMC,180821.3,A,3314.646287,N,11725.009008,W,63.9,159.5,230310,,,A*47
$GPRMC,180824.3,A,3314.596636,N,11724.986145,W,63.8,157.7,230310,,,A*48
$GPRMC,180827.3,A,3314.548473,N,11724.958393,W,64.7,152.3,230310,,,A*48
$GPRMC,180830.3,A,3314.503838,N,11724.923647,W,64.7,145.5,230310,,,A*42
$GPRMC,180833.3,A,3314.462811,N,11724.882466,W,65.6,139.6,230310,,,A*4F
$GPRMC,180836.3,A,3314.428628,N,11724.834956,W,63.8,130.3,230310,,,A*47
$GPRMC,180839.3,A,3314.397758,N,11724.784495,W,63.3,126.3,230310,,,A*47
$GPRMC,180842.3,A,3314.367293,N,11724.732322,W,63.0,124.7,230310,,,A*45
$GPRMC,180845.3,A,3314.337348,N,11724.681400,W,62.1,124.7,230310,,,A*4E
$GPRMC,180848.3,A,3314.308120,N,11724.632111,W,60.2,125.1,230310,,,A*48
$GPRMC,180851.3,A,3314.277647,N,11724.584010,W,60.4,127.3,230310,,,A*47
$GPRMC,180854.3,A,3314.243270,N,11724.538483,W,62.2,134.0,230310,,,A*49
$GPRMC,180857.3,A,3314.205840,N,11724.495131,W,62.0,136.7,230310,,,A*4C
$GPRMC,180900.3,A,3314.168777,N,11724.452689,W,61.5,136.2,230310,,,A*40
$GPRMC,180903.3,A,3314.131013,N,11724.410351,W,61.3,136.9,230310,,,A*41
$GPRMC,180906.3,A,3314.093991,N,11724.368529,W,61.1,136.3,230310,,,A*47
$GPRMC,180909.3,A,3314.056646,N,11724.326402,W,61.1,136.6,230310,,,A*43
$GPRMC,180912.3,A,3314.019570,N,11724.284558,W,61.1,136.4,230310,,,A*41
$GPRMC,180915.3,A,3313.982499,N,11724.242713,W,61.6,136.5,230310,,,A*4D
$GPRMC,180918.3,A,3313.945220,N,11724.201074,W,61.8,136.8,230310,,,A*4D
$GPRMC,180921.3,A,3313.907187,N,11724.158668,W,62.9,136.7,230310,,,A*46
$GPRMC,180924.3,A,3313.868493,N,11724.115162,W,64.1,136.8,230310,,,A*4E
$GPRMC,180928.3,A,3313.816581,N,11724.057412,W,63.5,137.0,230310,,,A*46
$GPRMC,180931.3,A,3313.777252,N,11724.014001,W,63.7,137.6,230310,,,A*4A
$GPRMC,180934.3,A,3313.739430,N,11723.972742,W,62.2,137.0,230310,,,A*4B
$GPRMC,180942.3,A,3313.638031,N,11723.860490,W,63.1,137.5,230310,,,A*46
$GPRMC,180945.3,A,3313.599792,N,11723.816275,W,61.8,137.0,230310,,,A*45
$GPRMC,180948.3,A,3313.563407,N,11723.775971,W,61.1,137.3,230310,,,A*4D
$GPRMC,180951.3,A,3313.525298,N,11723.735799,W,60.2,137.3,230310,,,A*49
$GPRMC,180954.3,A,3313.488628,N,11723.695764,W,59.7,137.0,230310,,,A*40
$GPRMC,180957.3,A,3313.452074,N,11723.655422,W,59.4,137.0,230310,,,A*45
$GPRMC,181000.3,A,3313.415690,N,11723.615214,W,59.2,137.6,230310,,,A*47
$GPRMC,181003.3,A,3313.377025,N,11723.578212,W,59.6,145.2,230310,,,A*44
$GPRMC,181006.3,A,3313.333978,N,11723.547220,W,60.2,152.3,230310,,,A*44
$GPRMC,181009.3,A,3313.287343,N,11723.522546,W,61.3,157.7,230310,,,A*42
$GPRMC,181012.3,A,3313.238395,N,11723.504951,W,61.0,166.0,230310,,,A*4F
$GPRMC,181015.3,A,3313.189918,N,11723.490600,W,59.4,165.8,230310,,,A*4D
$GPRMC,181018.3,A,3313.141973,N,11723.476009,W,59.7,165.8,230310,,,A*4D
$GPRMC,181021.3,A,3313.093554,N,11723.461501,W,60.4,165.7,230310,,,A*4D
$GPRMC,181024.3,A,3313.044043,N,11723.446847,W,61.5,166.0,230310,,,A*4F
$GPRMC,181027.3,A,3312.993399,N,11723.431459,W,63.7,165.9,230310,,,A*43
$GPRMC,181030.3,A,3312.940966,N,11723.415423,W,65.8,165.5,230310,,,A*4F
$GPRMC,181033.3,A,3312.888304,N,11723.398743,W,64.9,162.9,230310,,,A*4B
$GPRMC,181036.3,A,3312.837751,N,11723.376110,W,63.9,155.9,230310,,,A*4D
$GPRMC,181039.3,A,3312.791046,N,11723.348585,W,61.2,152.2,230310,,,A*40
$GPRMC,181042.3,A,3312.745887,N,11723.320075,W,61.2,152.1,230310,,,A*47
$GPRMC,181045.3,A,3312.700267,N,11723.291896,W,61.4,152.4,230310,,,A*48
$GPRMC,181048.3,A,3312.654387,N,11723.263080,W,62.0,152.2,230310,,,A*49
$GPRMC,181051.3,A,3312.607737,N,11723.234548,W,63.1,152.2,230310,,,A*4B
$GPRMC,181054.3,A,3312.560503,N,11723.206248,W,63.6,152.2,230310,,,A*48
$GPRMC,181057.3,A,3312.513198,N,11723.176892,W,64.0,152.4,230310,,,A*47
$GPRMC,181100.3,A,3312.465711,N,11723.146477,W,63.8,152.1,230310,,,A*4D
$GPRMC,181103.3,A,3312.417798,N,11723.117264,W,63.5,152.3,230310,,,A*45
$GPRMC,181106.3,A,3312.371233,N,11723.084981,W,64.9,149.7,230310,,,A*4D
$GPRMC,181109.3,A,3312.328225,N,11723.049133,W,64.1,142.4,230310,,,A*49
$GPRMC,181112.3,A,3312.288233,N,11723.006739,W,63.4,135.9,230310,,,A*47
$GPRMC,181115.3,A,3312.251870,N,11722.961248,W,63.7,132.3,230310,,,A*4D
$GPRMC,181118.3,A,3312.221465,N,11722.912266,W,60.5,124.4,230310,,,A*46
$GPRMC,181121.3,A,3312.195878,N,11722.860485,W,61.1,118.2,230310,,,A*43
$GPRMC,181124.3,A,3312.173334,N,11722.805587,W,62.3,115.2,230310,,,A*41
$GPRMC,181127.3,A,3312.153043,N,11722.748631,W,62.3,113.3,230310,,,A*4C
$GPRMC,181130.3,A,3312.136139,N,11722.692146,W,60.9,111.7,230310,,,A*4A
$GPRMC,181133.3,A,3312.118110,N,11722.635545,W,62.1,112.0,230310,,,A*4A
$GPRMC,181136.3,A,3312.098576,N,11722.578808,W,62.7,112.4,230310,,,A*4E
$GPRMC,181139.3,A,3312.078857,N,11722.521203,W,62.1,112.1,230310,,,A*4F
$GPRMC,181142.3,A,3312.060225,N,11722.464759,W,60.3,112.0,230310,,,A*4E
$GPRMC,181145.3,A,3312.041069,N,11722.411096,W,57.1,112.1,230310,,,A*41
$GPRMC,181148.3,A,3312.023038,N,11722.358388,W,57.7,113.1,230310,,,A*4D
$GPRMC,181151.3,A,3312.001776,N,11722.306178,W,58.5,117.1,230310,,,A*47
$GPRMC,181154.3,A,3311.975287,N,11722.255692,W,59.8,124.4,230310,,,A*4D
$GPRMC,181157.3,A,3311.945332,N,11722.209069,W,59.1,130.1,230310,,,A*40
$GPRMC,181200.3,A,3311.911517,N,11722.166538,W,58.9,135.8,230310,,,A*4F
$GPRMC,181203.3,A,3311.874091,N,11722.127534,W,60.3,141.6,230310,,,A*40
$GPRMC,181206.3,A,3311.833459,N,11722.092061,W,60.3,144.7,230310,,,A*48
$GPRMC,181209.3,A,3311.791728,N,11722.056811,W,62.0,144.6,230310,,,A*42
$GPRMC,181212.3,A,3311.746859,N,11722.020748,W,63.9,145.5,230310,,,A*43
$GPRMC,181215.3,A,3311.701319,N,11721.983679,W,66.1,146.2,230310,,,A*41
$GPRMC,181218.3,A,3311.657787,N,11721.946709,W,64.1,145.1,230310,,,A*40
$GPRMC,181221.3,A,3311.614633,N,11721.910347,W,63.3,145.3,230310,,,A*49
$GPRMC,181224.3,A,3311.571842,N,11721.874967,W,62.8,144.9,230310,,,A*4E
$GPRMC,181227.3,A,3311.529523,N,11721.838886,W,62.8,145.0,230310,,,A*44
$GPRMC,181230.3,A,3311.487014,N,11721.803180,W,62.8,144.5,230310,,,A*45
$GPRMC,181233.3,A,3311.442844,N,11721.765668,W,66.9,143.8,230310,,,A*43
$GPRMC,181236.3,A,3311.396406,N,11721.725009,W,70.4,144.6,230310,,,A*44
$GPRMC,181239.3,A,3311.347732,N,11721.684278,W,71.8,145.1,230310,,,A*46
$GPRMC,181242.3,A,3311.298047,N,11721.643176,W,72.2,144.7,230310,,,A*44
$GPRMC,181245.3,A,3311.249174,N,11721.603060,W,71.7,145.3,230310,,,A*4F
$GPRMC,181248.3,A,3311.200602,N,11721.562637,W,70.3,145.5,230310,,,A*4A
$GPRMC,181251.3,A,3311.151051,N,11721.524356,W,69.8,145.9,230310,,,A*4A
$GPRMC,181254.3,A,3311.103622,N,11721.484439,W,69.2,145.1,230310,,,A*4D
$GPRMC,181257.3,A,3311.057170,N,11721.446521,W,66.7,145.9,230310,,,A*4A
$GPRMC,181300.3,A,3311.010827,N,11721.410004,W,65.4,146.3,230310,,,A*49
$GPRMC,181303.3,A,3310.969937,N,11721.374061,W,62.9,145.0,230310,,,A*40
$GPRMC,181306.3,A,3310.927331,N,11721.338560,W,64.2,145.1,230310,,,A*43
$GPRMC,181309.3,A,3310.885134,N,11721.301250,W,64.8,145.4,230310,,,A*43
$GPRMC,181312.3,A,3310.840996,N,11721.264348,W,64.7,145.2,230310,,,A*43
$GPRMC,181315.3,A,3310.796787,N,11721.228609,W,63.8,145.4,230310,,,A*48
$GPRMC,181318.3,A,3310.754884,N,11721.192712,W,62.2,145.0,230310,,,A*41
$GPRMC,181321.3,A,3310.712185,N,11721.158052,W,61.4,145.0,230310,,,A*41
$GPRMC,181324.3,A,3310.670486,N,11721.122714,W,61.6,144.9,230310,,,A*45
$GPRMC,181327.3,A,3310.629479,N,11721.088395,W,60.8,145.8,230310,,,A*49
$GPRMC,181330.3,A,3310.587540,N,11721.053789,W,60.6,145.8,230310,,,A*42
$GPRMC,181333.3,A,3310.542233,N,11721.019782,W,62.5,146.9,230310,,,A*4D
$GPRMC,181336.3,A,3310.498625,N,11720.986028,W,63.0,147.7,230310,,,A*4F
$GPRMC,181339.3,A,3310.453449,N,11720.953891,W,62.1,147.6,230310,,,A*4C
$GPRMC,181342.3,A,3310.409025,N,11720.922770,W,59.4,147.9,230310,,,A*45
$GPRMC,181345.3,A,3310.368041,N,11720.892255,W,57.5,148.2,230310,,,A*43
$GPRMC,181348.3,A,3310.329682,N,11720.863753,W,54.1,147.9,230310,,,A*4C
$GPRMC,181351.3,A,3310.295115,N,11720.838601,W,46.5,148.8,230310,,,A*4A
$GPRMC,181354.3,A,3310.266046,N,11720.817338,W,41.4,148.8,230310,,,A*40
$GPRMC,181357.3,A,3310.244324,N,11720.799665,W,30.6,148.6,230310,,,A*4A
$GPRMC,181400.3,A,3310.226275,N,11720.788014,W,23.2,151.2,230310,,,A*44
$GPRMC,181403.3,A,3310.215131,N,11720.779147,W,16.1,147.5,230310,,,A*48
$GPRMC,181406.3,A,3310.204306,N,11720.770928,W,15.6,147.0,230310,,,A*42
$GPRMC,181409.3,A,3310.193730,N,11720.762304,W,14.6,147.7,230310,,,A*40
$GPRMC,181412.3,A,3310.183084,N,11720.755144,W,15.2,147.3,230310,,,A*40
$GPRMC,181415.3,A,3310.171754,N,11720.746942,W,16.4,148.7,230310,,,A*42
$GPRMC,181418.3,A,3310.160352,N,11720.739209,W,14.3,149.4,230310,,,A*46
$GPRMC,181421.3,A,3310.152781,N,11720.733757,W,9.2,154.6,230310,,,A*70
$GPRMC,181424.3,A,3310.148070,N,11720.730713,W,6.6,155.1,230310,,,A*79
$GPRMC,181427.3,A,3310.139978,N,11720.726165,W,12.6,151.6,230310,,,A*4B
$GPRMC,181430.3,A,3310.130064,N,11720.720321,W,13.9,151.7,230310,,,A*4B
$GPRMC,181433.3,A,3310.117343,N,11720.712093,W,18.5,152.1,230310,,,A*42
$GPRMC,181436.3,A,3310.104293,N,11720.703399,W,17.6,152.5,230310,,,A*48
$GPRMC,181439.3,A,3310.091293,N,11720.695304,W,17.6,153.7,230310,,,A*43
$GPRMC,181442.3,A,3310.077819,N,11720.686742,W,19.0,154.6,230310,,,A*45
$GPRMC,181445.3,A,3310.062481,N,11720.678296,W,21.4,155.9,230310,,,A*47
$GPRMC,181448.3,A,3310.045006,N,11720.668799,W,24.7,156.7,230310,,,A*44
$GPRMC,181451.3,A,3310.025100,N,11720.658470,W,28.4,156.6,230310,,,A*44
$GPRMC,181454.3,A,3310.002920,N,11720.647310,W,29.7,157.6,230310,,,A*42
$GPRMC,181457.3,A,3309.978843,N,11720.635584,W,31.3,156.8,230310,,,A*45
$GPRMC,181500.3,A,3309.954843,N,11720.623191,W,30.5,156.5,230310,,,A*45
$GPRMC,181503.3,A,3309.931585,N,11720.611852,W,29.5,156.9,230310,,,A*41
$GPRMC,181506.3,A,3309.909427,N,11720.600825,W,28.8,157.0,230310,,,A*42
$GPRMC,181509.3,A,3309.888317,N,11720.590981,W,27.3,157.4,230310,,,A*44
$GPRMC,181512.3,A,3309.868012,N,11720.581044,W,25.1,157.1,230310,,,A*43
