NMEA Sentence Code,UTC Time,Status,Latitude,Latitude Direction,Longitude,Longitude Direction,Speed (knots),Track Angle (degrees true),Date,MagneticVariation,Magnetic Variation Direction,[FAA Mode]-Optional,Checksum
$GPRMC,013807.1,A,3255.211115,N,11713.811826,W,19.7,318.2,250310,,,A*45
$GPRMC,013810.1,A,3255.219848,N,11713.820360,W,14.8,312.3,250310,,,A*48
$GPRMC,013813.1,A,3255.221227,N,11713.825043,W,8.0,295.6,250310,,,A*7A
$GPRMC,013816.1,A,3255.224036,N,11713.830336,W,5.9,293.1,250310,,,A*78
$GPRMC,013910.1,A,3255.234809,N,11713.847734,W,6.6,316.0,250310,,,A*7D
$GPRMC,013913.1,A,3255.238708,N,11713.855274,W,7.3,303.3,250310,,,A*7D
$GPRMC,013916.1,A,3255.236226,N,11713.861345,W,6.3,277.9,250310,,,A*72
$GPRMC,013919.1,A,3255.227276,N,11713.871059,W,8.7,240.4,250310,,,A*74
$GPRMC,013922.1,A,3255.210196,N,11713.885776,W,14.8,222.6,250310,,,A*40
$GPRMC,013925.1,A,3255.184407,N,11713.903495,W,25.8,211.8,250310,,,A*49
$GPRMC,013928.1,A,3255.155141,N,11713.952499,W,36.8,230.4,250310,,,A*4A
$GPRMC,013931.1,A,3255.134100,N,11713.989300,W,38.3,233.7,250310,,,A*44
$GPRMC,013934.1,A,3255.114597,N,11714.018032,W,36.8,233.3,250310,,,A*4C
$GPRMC,013937.1,A,3255.095565,N,11714.047510,W,36.6,233.0,250310,,,A*48
$GPRMC,013947.1,A,3255.043963,N,11714.117282,W,24.8,223.3,250310,,,A*49
$GPRMC,013950.1,A,3255.032167,N,11714.120169,W,19.4,209.1,250310,,,A*4F
$GPRMC,013953.1,A,3255.018831,N,11714.110509,W,17.9,179.5,250310,,,A*4C
$GPRMC,013956.1,A,3255.006146,N,11714.065753,W,29.7,128.0,250310,,,A*43
$GPRMC,013959.1,A,3254.992965,N,11714.037715,W,28.8,127.3,250310,,,A*47
$GPRMC,014002.1,A,3254.980545,N,11714.013208,W,25.7,127.5,250310,,,A*41
$GPRMC,014005.1,A,3254.972813,N,11714.000347,W,13.5,129.0,250310,,,A*41
$GPRMC,014008.1,A,3254.968831,N,11713.993469,W,9.2,131.1,250310,,,A*7C
$GPRMC,014011.1,A,3254.958649,N,11713.979726,W,18.8,131.2,250310,,,A*43
$GPRMC,014014.1,A,3254.944477,N,11713.959257,W,27.1,131.8,250310,,,A*4A
$GPRMC,014017.1,A,3254.926291,N,11713.935304,W,32.8,132.2,250310,,,A*4A
$GPRMC,014020.1,A,3254.905586,N,11713.908084,W,38.3,133.6,250310,,,A*4F
$GPRMC,014023.1,A,3254.878850,N,11713.876868,W,45.5,137.2,250310,,,A*4F
$GPRMC,014026.1,A,3254.846158,N,11713.846896,W,49.6,142.8,250310,,,A*43
$GPRMC,014029.1,A,3254.811069,N,11713.819064,W,50.5,148.0,250310,,,A*4B
$GPRMC,014032.1,A,3254.772298,N,11713.793680,W,52.4,150.6,250310,,,A*4A
$GPRMC,014035.1,A,3254.731328,N,11713.767698,W,55.6,152.0,250310,,,A*43
$GPRMC,014038.1,A,3254.688613,N,11713.742098,W,55.5,152.3,250310,,,A*41
$GPRMC,014041.1,A,3254.646287,N,11713.715419,W,56.1,152.5,250310,,,A*4A
$GPRMC,014044.1,A,3254.602956,N,11713.688162,W,56.5,152.1,250310,,,A*44
$GPRMC,014047.1,A,3254.561626,N,11713.663533,W,56.3,152.3,250310,,,A*48
$GPRMC,014050.1,A,3254.520671,N,11713.637325,W,56.2,152.4,250310,,,A*4F
$GPRMC,014053.1,A,3254.478956,N,11713.609874,W,56.9,152.5,250310,,,A*42
$GPRMC,014056.1,A,3254.435618,N,11713.585607,W,57.6,154.2,250310,,,A*49
$GPRMC,014059.1,A,3254.393008,N,11713.561531,W,59.1,154.5,250310,,,A*48
$GPRMC,014102.1,A,3254.349228,N,11713.537974,W,58.3,156.2,250310,,,A*48
$GPRMC,014105.1,A,3254.303885,N,11713.518069,W,58.1,158.8,250310,,,A*42
$GPRMC,014108.1,A,3254.259570,N,11713.501170,W,57.1,162.3,250310,,,A*4A
$GPRMC,014111.1,A,3254.213974,N,11713.490369,W,55.6,167.6,250310,,,A*42
$GPRMC,014114.1,A,3254.169041,N,11713.482127,W,55.5,171.8,250310,,,A*47
$GPRMC,014117.1,A,3254.123730,N,11713.478153,W,54.8,175.9,250310,,,A*44
$GPRMC,014120.1,A,3254.078865,N,11713.480522,W,55.1,182.9,250310,,,A*45
$GPRMC,014123.1,A,3254.033999,N,11713.488079,W,55.1,188.1,250310,,,A*4A
$GPRMC,014126.1,A,3253.987580,N,11713.500824,W,56.0,193.4,250310,,,A*46
$GPRMC,014129.1,A,3253.942717,N,11713.515739,W,55.7,195.1,250310,,,A*4C
$GPRMC,014132.1,A,3253.896028,N,11713.532293,W,57.0,196.3,250310,,,A*41
$GPRMC,014135.1,A,3253.850554,N,11713.549563,W,57.0,197.1,250310,,,A*45
$GPRMC,014138.1,A,3253.804148,N,11713.567174,W,58.1,196.8,250310,,,A*48
$GPRMC,014141.1,A,3253.756903,N,11713.585163,W,59.3,197.0,250310,,,A*49
$GPRMC,014144.1,A,3253.708410,N,11713.603388,W,59.2,197.3,250310,,,A*40
$GPRMC,014147.1,A,3253.660692,N,11713.619161,W,59.9,195.3,250310,,,A*43
$GPRMC,014150.1,A,3253.612194,N,11713.631927,W,60.3,191.8,250310,,,A*4E
$GPRMC,014153.1,A,3253.562461,N,11713.640893,W,59.5,187.5,250310,,,A*48
$GPRMC,014156.1,A,3253.512264,N,11713.647903,W,59.3,185.9,250310,,,A*4E
$GPRMC,014159.1,A,3253.463268,N,11713.652885,W,59.4,185.3,250310,,,A*4C
$GPRMC,014202.1,A,3253.413309,N,11713.656597,W,59.6,184.8,250310,,,A*42
$GPRMC,014205.1,A,3253.364274,N,11713.659567,W,59.0,184.8,250310,,,A*4F
$GPRMC,014208.1,A,3253.315310,N,11713.666556,W,58.6,185.5,250310,,,A*42
$GPRMC,014211.1,A,3253.266202,N,11713.671754,W,58.5,184.9,250310,,,A*45
$GPRMC,014214.1,A,3253.216921,N,11713.676994,W,59.3,185.3,250310,,,A*44
$GPRMC,014217.1,A,3253.167832,N,11713.682394,W,58.5,184.8,250310,,,A*4D
$GPRMC,014220.1,A,3253.120074,N,11713.685837,W,57.2,183.4,250310,,,A*46
$GPRMC,014223.1,A,3253.072639,N,11713.689174,W,57.1,184.4,250310,,,A*4A
$GPRMC,014226.1,A,3253.024986,N,11713.692811,W,57.5,184.6,250310,,,A*41
$GPRMC,014229.1,A,3252.975143,N,11713.697900,W,58.4,185.1,250310,,,A*4F
$GPRMC,014232.1,A,3252.927497,N,11713.702046,W,58.1,184.8,250310,,,A*45
$GPRMC,014235.1,A,3252.878764,N,11713.707861,W,58.7,184.9,250310,,,A*49
$GPRMC,014238.1,A,3252.829436,N,11713.712829,W,60.0,185.1,250310,,,A*49
$GPRMC,014241.1,A,3252.779205,N,11713.718170,W,60.8,184.8,250310,,,A*44
$GPRMC,014244.1,A,3252.728920,N,11713.723027,W,60.2,184.6,250310,,,A*46
$GPRMC,014247.1,A,3252.677244,N,11713.726855,W,60.6,184.3,250310,,,A*4E
$GPRMC,014250.1,A,3252.627881,N,11713.732939,W,60.5,186.5,250310,,,A*47
$GPRMC,014253.1,A,3252.577046,N,11713.739274,W,60.7,185.5,250310,,,A*49
$GPRMC,014256.1,A,3252.527426,N,11713.744201,W,60.3,185.0,250310,,,A*42
$GPRMC,014259.1,A,3252.476724,N,11713.748646,W,60.3,184.7,250310,,,A*44
$GPRMC,014302.1,A,3252.426965,N,11713.753724,W,59.7,184.6,250310,,,A*45
$GPRMC,014305.1,A,3252.377624,N,11713.757839,W,59.7,185.0,250310,,,A*4B
$GPRMC,014308.1,A,3252.328198,N,11713.763437,W,59.2,184.6,250310,,,A*4B
$GPRMC,014311.1,A,3252.278649,N,11713.768985,W,59.0,185.2,250310,,,A*44
$GPRMC,014314.1,A,3252.229892,N,11713.773936,W,58.3,185.1,250310,,,A*4E
$GPRMC,014317.1,A,3252.181998,N,11713.778387,W,57.6,184.8,250310,,,A*4E
$GPRMC,014320.1,A,3252.133274,N,11713.783652,W,57.8,184.5,250310,,,A*40
$GPRMC,014323.1,A,3252.085263,N,11713.788130,W,57.9,184.6,250310,,,A*43
$GPRMC,014326.1,A,3252.037992,N,11713.792123,W,57.3,184.8,250310,,,A*47
$GPRMC,014329.1,A,3251.989392,N,11713.795837,W,57.7,184.5,250310,,,A*4F
$GPRMC,014332.1,A,3251.941470,N,11713.800423,W,57.7,184.7,250310,,,A*42
$GPRMC,014335.1,A,3251.892207,N,11713.806120,W,58.3,185.0,250310,,,A*41
$GPRMC,014338.1,A,3251.843998,N,11713.810300,W,58.3,184.6,250310,,,A*4D
$GPRMC,014341.1,A,3251.795208,N,11713.815644,W,58.3,184.3,250310,,,A*40
$GPRMC,014344.1,A,3251.746699,N,11713.819486,W,58.1,184.9,250310,,,A*4F
$GPRMC,014347.1,A,3251.698451,N,11713.824982,W,58.1,185.0,250310,,,A*47
$GPRMC,014350.1,A,3251.650700,N,11713.828517,W,58.0,184.1,250310,,,A*4F
$GPRMC,014353.1,A,3251.601969,N,11713.833748,W,59.1,184.7,250310,,,A*4D
$GPRMC,014356.1,A,3251.552390,N,11713.838282,W,59.4,184.5,250310,,,A*4E
$GPRMC,014359.1,A,3251.503178,N,11713.842989,W,59.8,184.5,250310,,,A*40
$GPRMC,014402.1,A,3251.453890,N,11713.845830,W,59.6,185.0,250310,,,A*4C
$GPRMC,014405.1,A,3251.403577,N,11713.856007,W,59.9,189.8,250310,,,A*4F
$GPRMC,014408.1,A,3251.355636,N,11713.871407,W,58.7,194.7,250310,,,A*4D
$GPRMC,014411.1,A,3251.309630,N,11713.891806,W,57.8,200.3,250310,,,A*43
$GPRMC,014414.1,A,3251.266447,N,11713.918940,W,57.2,206.6,250310,,,A*46
$GPRMC,014417.1,A,3251.225172,N,11713.946682,W,57.3,209.3,250310,,,A*40
$GPRMC,014420.1,A,3251.183041,N,11713.976349,W,57.8,210.2,250310,,,A*49
$GPRMC,014423.1,A,3251.142383,N,11714.005662,W,57.5,210.6,250310,,,A*45
$GPRMC,014426.1,A,3251.100689,N,11714.035166,W,57.5,210.3,250310,,,A*4C
$GPRMC,014429.1,A,3251.059310,N,11714.063993,W,57.6,210.1,250310,,,A*4B
$GPRMC,014432.1,A,3251.018853,N,11714.091962,W,56.9,210.2,250310,,,A*46
$GPRMC,014435.1,A,3250.976781,N,11714.118716,W,57.0,207.6,250310,,,A*46
$GPRMC,014438.1,A,3250.933825,N,11714.141027,W,56.4,202.7,250310,,,A*43
$GPRMC,014441.1,A,3250.890375,N,11714.158013,W,56.2,197.3,250310,,,A*49
$GPRMC,014444.1,A,3250.843288,N,11714.167536,W,58.7,190.1,250310,,,A*41
$GPRMC,014447.1,A,3250.794660,N,11714.173201,W,59.9,186.8,250310,,,A*42
$GPRMC,014450.1,A,3250.745764,N,11714.181766,W,60.0,187.4,250310,,,A*4A
$GPRMC,014453.1,A,3250.695986,N,11714.190642,W,60.9,187.8,250310,,,A*45
$GPRMC,014456.1,A,3250.645199,N,11714.197277,W,60.8,186.5,250310,,,A*43
$GPRMC,014459.1,A,3250.594650,N,11714.199958,W,60.0,181.5,250310,,,A*46
$GPRMC,014502.1,A,3250.545035,N,11714.195895,W,59.7,176.8,250310,,,A*44
$GPRMC,014505.1,A,3250.494620,N,11714.185716,W,60.3,171.0,250310,,,A*48
$GPRMC,014508.1,A,3250.446915,N,11714.172418,W,60.5,165.8,250310,,,A*4D
$GPRMC,014511.1,A,3250.398082,N,11714.150773,W,61.7,160.3,250310,,,A*45
$GPRMC,014514.1,A,3250.349416,N,11714.128119,W,62.1,159.3,250310,,,A*4F
$GPRMC,014517.1,A,3250.301808,N,11714.107902,W,61.0,159.4,250310,,,A*49
$GPRMC,014520.1,A,3250.253796,N,11714.085421,W,61.4,158.9,250310,,,A*4C
$GPRMC,014523.1,A,3250.206371,N,11714.064596,W,60.8,159.4,250310,,,A*41
$GPRMC,014526.1,A,3250.159079,N,11714.042366,W,61.0,159.0,250310,,,A*46
$GPRMC,014529.1,A,3250.111328,N,11714.019602,W,60.8,159.4,250310,,,A*46
$GPRMC,014532.1,A,3250.063768,N,11714.002595,W,59.8,162.9,250310,,,A*40
$GPRMC,014535.1,A,3250.015640,N,11713.990469,W,59.4,168.4,250310,,,A*41
$GPRMC,014538.1,A,3249.967271,N,11713.983084,W,59.0,172.7,250310,,,A*47
$GPRMC,014541.1,A,3249.918541,N,11713.981787,W,59.6,178.3,250310,,,A*4B
$GPRMC,014544.1,A,3249.869233,N,11713.982586,W,58.6,179.2,250310,,,A*4A
$GPRMC,014547.1,A,3249.820147,N,11713.982672,W,58.8,179.7,250310,,,A*47
$GPRMC,014550.1,A,3249.769396,N,11713.982980,W,59.8,179.8,250310,,,A*41
$GPRMC,014553.1,A,3249.718810,N,11713.982282,W,59.6,179.1,250310,,,A*4F
$GPRMC,014556.1,A,3249.670654,N,11713.978725,W,59.3,176.9,250310,,,A*44
$GPRMC,014559.1,A,3249.621887,N,11713.972088,W,58.8,171.4,250310,,,A*45
$GPRMC,014602.1,A,3249.573740,N,11713.958285,W,59.8,165.2,250310,,,A*4D
$GPRMC,014605.1,A,3249.525874,N,11713.937600,W,60.6,160.9,250310,,,A*4B
$GPRMC,014608.1,A,3249.480116,N,11713.912765,W,60.1,154.7,250310,,,A*4E
$GPRMC,014611.1,A,3249.437258,N,11713.881068,W,59.2,148.1,250310,,,A*40
$GPRMC,014614.1,A,3249.397153,N,11713.843887,W,59.5,142.1,250310,,,A*4A
$GPRMC,014617.1,A,3249.359941,N,11713.806963,W,58.7,139.4,250310,,,A*40
$GPRMC,014620.1,A,3249.323474,N,11713.770089,W,58.8,139.0,250310,,,A*4A
$GPRMC,014623.1,A,3249.285454,N,11713.729158,W,59.9,138.5,250310,,,A*43
$GPRMC,014626.1,A,3249.246994,N,11713.691109,W,59.6,139.2,250310,,,A*47
$GPRMC,014629.1,A,3249.210675,N,11713.653227,W,58.6,138.9,250310,,,A*41
$GPRMC,014632.1,A,3249.173603,N,11713.616562,W,57.1,139.1,250310,,,A*4A
$GPRMC,014635.1,A,3249.139870,N,11713.579371,W,54.8,138.5,250310,,,A*48
$GPRMC,014638.1,A,3249.105881,N,11713.544662,W,53.4,138.8,250310,,,A*4B
$GPRMC,014641.1,A,3249.072673,N,11713.509977,W,54.5,137.5,250310,,,A*41
$GPRMC,014644.1,A,3249.037172,N,11713.474914,W,55.7,139.9,250310,,,A*4C
$GPRMC,014647.1,A,3249.000109,N,11713.439978,W,56.1,142.2,250310,,,A*46
$GPRMC,014650.1,A,3248.962745,N,11713.406201,W,56.3,143.1,250310,,,A*4B
$GPRMC,014653.1,A,3248.925561,N,11713.371783,W,57.2,143.4,250310,,,A*42
$GPRMC,014656.1,A,3248.886607,N,11713.338073,W,57.6,143.8,250310,,,A*41
$GPRMC,014659.1,A,3248.846562,N,11713.306547,W,58.1,147.2,250310,,,A*4B
$GPRMC,014702.1,A,3248.805088,N,11713.276718,W,59.1,148.8,250310,,,A*48
$GPRMC,014705.1,A,3248.762369,N,11713.245926,W,60.1,148.5,250310,,,A*49
$GPRMC,014708.1,A,3248.720431,N,11713.214421,W,60.0,147.1,250310,,,A*4C
$GPRMC,014711.1,A,3248.678872,N,11713.181463,W,59.3,146.6,250310,,,A*45
$GPRMC,014714.1,A,3248.637578,N,11713.147963,W,59.6,146.8,250310,,,A*40
$GPRMC,014717.1,A,3248.596449,N,11713.116559,W,58.9,146.2,250310,,,A*4D
$GPRMC,014720.1,A,3248.555065,N,11713.085060,W,58.6,145.9,250310,,,A*4F
$GPRMC,014723.1,A,3248.514944,N,11713.051029,W,58.5,145.4,250310,,,A*49
$GPRMC,014726.1,A,3248.474454,N,11713.018110,W,58.9,144.5,250310,,,A*4D
$GPRMC,014729.1,A,3248.433250,N,11712.983503,W,58.8,144.3,250310,,,A*48
$GPRMC,014732.1,A,3248.392080,N,11712.948861,W,59.1,144.5,250310,,,A*41
$GPRMC,014735.1,A,3248.352562,N,11712.914866,W,59.7,144.9,250310,,,A*47
$GPRMC,014738.1,A,3248.310861,N,11712.882494,W,60.2,146.8,250310,,,A*41
$GPRMC,014741.1,A,3248.268808,N,11712.850102,W,60.2,148.0,250310,,,A*4D
$GPRMC,014744.1,A,3248.224088,N,11712.819072,W,60.9,149.6,250310,,,A*47
$GPRMC,014747.1,A,3248.179592,N,11712.790246,W,60.9,151.4,250310,,,A*41
$GPRMC,014750.1,A,3248.135313,N,11712.762872,W,60.2,152.8,250310,,,A*44
$GPRMC,014753.1,A,3248.090908,N,11712.737098,W,60.2,154.0,250310,,,A*4B
$GPRMC,014756.1,A,3248.045379,N,11712.712797,W,60.3,156.0,250310,,,A*46
$GPRMC,014759.1,A,3247.998978,N,11712.688472,W,60.5,156.3,250310,,,A*4B
$GPRMC,014802.1,A,3247.952195,N,11712.664375,W,61.1,155.9,250310,,,A*49
$GPRMC,014805.1,A,3247.906327,N,11712.638682,W,60.9,154.4,250310,,,A*45
$GPRMC,014808.1,A,3247.859536,N,11712.611533,W,62.6,153.2,250310,,,A*4B
$GPRMC,014811.1,A,3247.813294,N,11712.582890,W,62.3,152.6,250310,,,A*4F
$GPRMC,014814.1,A,3247.765676,N,11712.554062,W,63.2,152.6,250310,,,A*42
$GPRMC,014817.1,A,3247.716805,N,11712.526961,W,63.6,155.0,250310,,,A*45
$GPRMC,014820.1,A,3247.668368,N,11712.503364,W,63.1,158.7,250310,,,A*4C
$GPRMC,014823.1,A,3247.617906,N,11712.482034,W,63.3,161.0,250310,,,A*44
$GPRMC,014826.1,A,3247.567184,N,11712.463959,W,62.7,164.5,250310,,,A*4F
$GPRMC,014829.1,A,3247.516998,N,11712.450518,W,62.5,167.5,250310,,,A*4B
$GPRMC,014832.1,A,3247.465396,N,11712.439815,W,61.9,171.0,250310,,,A*42
$GPRMC,014835.1,A,3247.413708,N,11712.433988,W,61.7,174.4,250310,,,A*47
$GPRMC,014838.1,A,3247.362454,N,11712.430024,W,61.7,177.7,250310,,,A*4D
$GPRMC,014841.1,A,3247.311083,N,11712.430570,W,61.6,180.8,250310,,,A*4B
$GPRMC,014844.1,A,3247.260517,N,11712.434973,W,60.8,184.4,250310,,,A*4D
$GPRMC,014847.1,A,3247.209488,N,11712.441453,W,60.5,187.4,250310,,,A*45
$GPRMC,014850.1,A,3247.159354,N,11712.449460,W,60.2,188.2,250310,,,A*45
$GPRMC,014853.1,A,3247.109529,N,11712.458889,W,60.9,188.4,250310,,,A*49
$GPRMC,014856.1,A,3247.058545,N,11712.468535,W,61.8,188.4,250310,,,A*4A
$GPRMC,014859.1,A,3247.007756,N,11712.477660,W,61.5,188.3,250310,,,A*48
$GPRMC,014902.1,A,3246.956886,N,11712.487135,W,61.8,189.3,250310,,,A*4D
$GPRMC,014905.1,A,3246.906417,N,11712.495586,W,61.4,188.4,250310,,,A*4E
$GPRMC,014908.1,A,3246.855339,N,11712.504973,W,61.1,188.5,250310,,,A*44
$GPRMC,014911.1,A,3246.805410,N,11712.513275,W,60.6,188.2,250310,,,A*4F
$GPRMC,014914.1,A,3246.755224,N,11712.522241,W,60.8,187.8,250310,,,A*4F
$GPRMC,014917.1,A,3246.704369,N,11712.524605,W,61.4,180.9,250310,,,A*49
$GPRMC,014920.1,A,3246.652487,N,11712.522141,W,61.6,175.6,250310,,,A*4E
$GPRMC,014923.1,A,3246.602535,N,11712.512559,W,61.1,169.4,250310,,,A*46
$GPRMC,014926.1,A,3246.553144,N,11712.499717,W,60.8,168.1,250310,,,A*40
$GPRMC,014929.1,A,3246.503401,N,11712.488201,W,60.0,168.2,250310,,,A*47
$GPRMC,014932.1,A,3246.455003,N,11712.476102,W,59.2,168.0,250310,,,A*42
$GPRMC,014935.1,A,3246.407151,N,11712.463802,W,59.0,167.6,250310,,,A*42
$GPRMC,014938.1,A,3246.359465,N,11712.452251,W,58.7,168.2,250310,,,A*42
$GPRMC,014941.1,A,3246.310960,N,11712.439997,W,58.7,168.0,250310,,,A*47
$GPRMC,014944.1,A,3246.263328,N,11712.427065,W,58.6,167.6,250310,,,A*42
$GPRMC,014947.1,A,3246.215309,N,11712.413511,W,58.8,167.4,250310,,,A*4E
$GPRMC,014950.1,A,3246.167047,N,11712.400794,W,58.5,167.4,250310,,,A*47
$GPRMC,014953.1,A,3246.118497,N,11712.388930,W,58.4,168.5,250310,,,A*4D
$GPRMC,014956.1,A,3246.071361,N,11712.377012,W,57.7,167.9,250310,,,A*4E
$GPRMC,014959.1,A,3246.024742,N,11712.366555,W,57.3,167.6,250310,,,A*49
$GPRMC,015002.1,A,3245.978781,N,11712.354086,W,56.4,167.5,250310,,,A*4C
$GPRMC,015005.1,A,3245.933035,N,11712.342788,W,56.1,167.8,250310,,,A*4A
$GPRMC,015008.1,A,3245.886643,N,11712.331207,W,56.0,168.1,250310,,,A*4E
$GPRMC,015011.1,A,3245.841313,N,11712.320129,W,56.1,168.6,250310,,,A*44
$GPRMC,015014.1,A,3245.795275,N,11712.308372,W,56.9,167.9,250310,,,A*48
$GPRMC,015017.1,A,3245.749520,N,11712.295939,W,56.4,167.4,250310,,,A*4D
$GPRMC,015020.1,A,3245.703825,N,11712.283998,W,56.1,168.1,250310,,,A*4C
$GPRMC,015023.1,A,3245.657927,N,11712.273098,W,56.6,168.0,250310,,,A*4C
$GPRMC,015026.1,A,3245.611088,N,11712.261148,W,57.4,167.5,250310,,,A*41
$GPRMC,015029.1,A,3245.563783,N,11712.248962,W,57.8,167.2,250310,,,A*44
$GPRMC,015032.1,A,3245.517098,N,11712.236764,W,57.3,168.2,250310,,,A*45
$GPRMC,015035.1,A,3245.472144,N,11712.224598,W,55.1,167.4,250310,,,A*4B
$GPRMC,015038.1,A,3245.428306,N,11712.210170,W,53.1,163.2,250310,,,A*4C
$GPRMC,015041.1,A,3245.387467,N,11712.190736,W,52.4,156.2,250310,,,A*4D
$GPRMC,015044.1,A,3245.349248,N,11712.165386,W,52.2,149.0,250310,,,A*4E
$GPRMC,015047.1,A,3245.313617,N,11712.135184,W,53.2,141.8,250310,,,A*48
$GPRMC,015050.1,A,3245.280597,N,11712.098236,W,54.7,134.7,250310,,,A*4D
$GPRMC,015053.1,A,3245.250068,N,11712.056784,W,55.4,130.6,250310,,,A*4F
$GPRMC,015056.1,A,3245.219529,N,11712.014020,W,55.9,130.2,250310,,,A*41
$GPRMC,015059.1,A,3245.189777,N,11711.970052,W,55.5,129.9,250310,,,A*4F
$GPRMC,015102.1,A,3245.159675,N,11711.930655,W,54.2,132.6,250310,,,A*48
$GPRMC,015105.1,A,3245.127343,N,11711.892661,W,55.2,137.1,250310,,,A*4B
$GPRMC,015108.1,A,3245.089857,N,11711.858754,W,56.1,142.5,250310,,,A*4A
$GPRMC,015111.1,A,3245.052336,N,11711.826164,W,56.6,143.5,250310,,,A*42
$GPRMC,015114.1,A,3245.013300,N,11711.791892,W,56.9,143.3,250310,,,A*4D
$GPRMC,015117.1,A,3244.976003,N,11711.758305,W,57.0,142.2,250310,,,A*4D
$GPRMC,015120.1,A,3244.938876,N,11711.721547,W,57.4,139.0,250310,,,A*4D
$GPRMC,015123.1,A,3244.904763,N,11711.681662,W,57.4,134.4,250310,,,A*4C
$GPRMC,015126.1,A,3244.873921,N,11711.637964,W,57.8,129.5,250310,,,A*45
$GPRMC,015129.1,A,3244.844479,N,11711.592921,W,57.4,127.1,250310,,,A*45
$GPRMC,015132.1,A,3244.817752,N,11711.545449,W,57.8,121.9,250310,,,A*48
$GPRMC,015135.1,A,3244.795349,N,11711.495421,W,57.8,118.6,250310,,,A*43
$GPRMC,015138.1,A,3244.771570,N,11711.445627,W,57.1,118.8,250310,,,A*46
$GPRMC,015141.1,A,3244.748906,N,11711.396764,W,56.6,118.5,250310,,,A*4B
$GPRMC,015144.1,A,3244.726982,N,11711.347779,W,56.8,118.2,250310,,,A*43
$GPRMC,015147.1,A,3244.704390,N,11711.298677,W,56.2,118.5,250310,,,A*48
$GPRMC,015150.1,A,3244.682119,N,11711.249480,W,56.0,118.4,250310,,,A*47
$GPRMC,015153.1,A,3244.660105,N,11711.201125,W,55.6,118.4,250310,,,A*46
$GPRMC,015156.1,A,3244.637894,N,11711.151842,W,56.2,118.7,250310,,,A*4A
$GPRMC,015159.1,A,3244.614823,N,11711.103859,W,55.7,118.9,250310,,,A*4D
$GPRMC,015202.1,A,3244.591427,N,11711.056091,W,55.6,118.7,250310,,,A*44
$GPRMC,015205.1,A,3244.568376,N,11711.007292,W,56.1,118.4,250310,,,A*44
$GPRMC,015208.1,A,3244.546125,N,11710.957601,W,56.9,118.5,250310,,,A*4B
$GPRMC,015211.1,A,3244.522954,N,11710.907992,W,57.3,119.1,250310,,,A*41
$GPRMC,015214.1,A,3244.499090,N,11710.859431,W,57.0,121.9,250310,,,A*4A
$GPRMC,015217.1,A,3244.470332,N,11710.814735,W,56.6,129.7,250310,,,A*4A
$GPRMC,015220.1,A,3244.435138,N,11710.775669,W,56.8,138.1,250310,,,A*4F
$GPRMC,015223.1,A,3244.396136,N,11710.741600,W,57.5,143.0,250310,,,A*45
$GPRMC,015226.1,A,3244.356962,N,11710.706961,W,57.8,143.3,250310,,,A*40
$GPRMC,015229.1,A,3244.317306,N,11710.672704,W,58.8,143.6,250310,,,A*47
$GPRMC,015232.1,A,3244.278076,N,11710.638322,W,58.5,143.6,250310,,,A*42
$GPRMC,015235.1,A,3244.237737,N,11710.604885,W,59.2,143.8,250310,,,A*4D
$GPRMC,015238.1,A,3244.199469,N,11710.571821,W,56.3,145.1,250310,,,A*41
$GPRMC,015241.1,A,3244.161677,N,11710.541342,W,54.0,144.6,250310,,,A*4F
$GPRMC,015244.1,A,3244.126980,N,11710.510450,W,51.3,143.9,250310,,,A*40
$GPRMC,015247.1,A,3244.093092,N,11710.481392,W,50.0,144.3,250310,,,A*49
$GPRMC,015250.1,A,3244.060931,N,11710.452468,W,47.9,143.8,250310,,,A*4C
$GPRMC,015253.1,A,3244.029787,N,11710.423907,W,47.6,143.8,250310,,,A*4C
$GPRMC,015256.1,A,3243.996497,N,11710.395680,W,48.9,143.2,250310,,,A*41
$GPRMC,015259.1,A,3243.964446,N,11710.366320,W,49.1,142.6,250310,,,A*40
$GPRMC,015302.1,A,3243.930100,N,11710.337465,W,49.3,143.7,250310,,,A*49
$GPRMC,015305.1,A,3243.899419,N,11710.309853,W,45.3,143.3,250310,,,A*4D
$GPRMC,015308.1,A,3243.868534,N,11710.285088,W,44.1,144.1,250310,,,A*4D
$GPRMC,015311.1,A,3243.837440,N,11710.258814,W,46.3,143.0,250310,,,A*46
$GPRMC,015314.1,A,3243.805716,N,11710.229775,W,48.6,142.2,250310,,,A*44
$GPRMC,015317.1,A,3243.770873,N,11710.201125,W,50.2,145.7,250310,,,A*40
$GPRMC,015320.1,A,3243.736882,N,11710.171252,W,51.7,143.7,250310,,,A*4D
$GPRMC,015323.1,A,3243.702906,N,11710.140534,W,50.8,143.0,250310,,,A*48
$GPRMC,015326.1,A,3243.668419,N,11710.111542,W,50.4,143.7,250310,,,A*4D
$GPRMC,015329.1,A,3243.635413,N,11710.082684,W,48.2,144.5,250310,,,A*48
$GPRMC,015332.1,A,3243.602069,N,11710.058282,W,45.5,149.4,250310,,,A*4C
$GPRMC,015335.1,A,3243.569868,N,11710.037810,W,43.5,153.7,250310,,,A*4A
$GPRMC,015338.1,A,3243.539759,N,11710.017623,W,42.2,147.6,250310,,,A*41
$GPRMC,015341.1,A,3243.513787,N,11709.990964,W,41.9,137.6,250310,,,A*49
$GPRMC,015344.1,A,3243.488381,N,11709.963404,W,40.3,138.2,250310,,,A*4A
$GPRMC,015347.1,A,3243.463115,N,11709.939356,W,39.2,143.8,250310,,,A*45
$GPRMC,015350.1,A,3243.437200,N,11709.916994,W,37.8,144.5,250310,,,A*42
$GPRMC,015353.1,A,3243.411980,N,11709.896773,W,35.6,147.7,250310,,,A*45
$GPRMC,015356.1,A,3243.387647,N,11709.885400,W,30.1,159.6,250310,,,A*45
$GPRMC,015359.1,A,3243.365366,N,11709.882714,W,26.2,172.9,250310,,,A*43
$GPRMC,015402.1,A,3243.343993,N,11709.882308,W,24.3,178.0,250310,,,A*47
$GPRMC,015405.1,A,3243.324076,N,11709.881429,W,22.6,178.9,250310,,,A*4E
$GPRMC,015408.1,A,3243.307583,N,11709.881675,W,19.6,177.7,250310,,,A*4F
$GPRMC,015411.1,A,3243.290087,N,11709.881518,W,19.5,178.5,250310,,,A*4F
$GPRMC,015414.1,A,3243.274604,N,11709.882491,W,19.3,177.5,250310,,,A*47
$GPRMC,015417.1,A,3243.258759,N,11709.880746,W,17.8,178.0,250310,,,A*47
$GPRMC,015420.1,A,3243.243312,N,11709.883542,W,18.5,180.0,250310,,,A*42
$GPRMC,015423.1,A,3243.227664,N,11709.883222,W,18.9,177.4,250310,,,A*46
$GPRMC,015426.1,A,3243.211285,N,11709.883321,W,19.4,178.2,250310,,,A*4A
$GPRMC,015429.1,A,3243.195217,N,11709.882964,W,19.8,180.3,250310,,,A*41
$GPRMC,015432.1,A,3243.179392,N,11709.883718,W,19.2,179.8,250310,,,A*46
$GPRMC,015435.1,A,3243.161965,N,11709.884419,W,19.0,180.9,250310,,,A*4A
$GPRMC,015438.1,A,3243.146461,N,11709.880878,W,17.8,179.1,250310,,,A*4C
$GPRMC,015441.1,A,3243.134770,N,11709.880802,W,13.3,180.5,250310,,,A*44
$GPRMC,015444.1,A,3243.129425,N,11709.874501,W,9.7,136.7,250310,,,A*7B
$GPRMC,015447.1,A,3243.130834,N,11709.861754,W,11.5,93.3,250310,,,A*7B
$GPRMC,015450.1,A,3243.133161,N,11709.848258,W,12.9,86.3,250310,,,A*7E
$GPRMC,015453.1,A,3243.133020,N,11709.839549,W,8.3,87.0,250310,,,A*4B
$GPRMC,015514.1,A,3243.127766,N,11709.827891,W,8.4,86.3,250310,,,A*4B
$GPRMC,015517.1,A,3243.129858,N,11709.804079,W,20.4,85.0,250310,,,A*71
$GPRMC,015520.1,A,3243.131628,N,11709.779086,W,23.8,87.8,250310,,,A*75
$GPRMC,015523.1,A,3243.132525,N,11709.753211,W,24.0,87.2,250310,,,A*7A
$GPRMC,015526.1,A,3243.130049,N,11709.727811,W,23.6,90.9,250310,,,A*77
$GPRMC,015529.1,A,3243.126860,N,11709.705139,W,21.2,95.9,250310,,,A*7C
$GPRMC,015532.1,A,3243.125864,N,11709.685443,W,17.1,93.0,250310,,,A*79
$GPRMC,015535.1,A,3243.126773,N,11709.673549,W,12.1,95.8,250310,,,A*7D
$GPRMC,015538.1,A,3243.120951,N,11709.667684,W,11.1,155.0,250310,,,A*49
$GPRMC,015541.1,A,3243.111139,N,11709.666314,W,12.8,173.4,250310,,,A*44
$GPRMC,015544.1,A,3243.099009,N,11709.665652,W,14.3,175.9,250310,,,A*40
$GPRMC,015547.1,A,3243.085470,N,11709.664720,W,13.3,174.4,250310,,,A*4A
$GPRMC,015550.1,A,3243.079457,N,11709.665531,W,4.4,172.5,250310,,,A*7F
$GPRMC,015614.1,A,3243.070082,N,11709.670391,W,7.0,166.7,250310,,,A*71
$GPRMC,015617.1,A,3243.061406,N,11709.668181,W,9.6,171.1,250310,,,A*78
$GPRMC,015620.1,A,3243.050442,N,11709.667165,W,11.9,177.8,250310,,,A*42
$GPRMC,015623.1,A,3243.035225,N,11709.665569,W,15.2,178.3,250310,,,A*44
$GPRMC,015626.1,A,3243.028545,N,11709.665574,W,8.1,180.0,250310,,,A*7B
$GPRMC,015641.1,A,3243.006556,N,11709.670627,W,8.1,181.1,250310,,,A*75
$GPRMC,015644.1,A,3242.993727,N,11709.670926,W,13.8,181.7,250310,,,A*4B
$GPRMC,015647.1,A,3242.977043,N,11709.670469,W,17.5,177.4,250310,,,A*42
$GPRMC,015650.1,A,3242.962825,N,11709.669525,W,15.1,180.7,250310,,,A*44
$GPRMC,015653.1,A,3242.952489,N,11709.669653,W,9.4,184.3,250310,,,A*74
$GPRMC,015723.1,A,3242.938870,N,11709.665242,W,5.4,149.8,250310,,,A*7A
$GPRMC,015726.1,A,3242.929226,N,11709.664776,W,9.2,169.6,250310,,,A*73
$GPRMC,015729.1,A,3242.909202,N,11709.663779,W,17.8,174.9,250310,,,A*46
$GPRMC,015732.1,A,3242.891170,N,11709.663762,W,13.7,178.2,250310,,,A*4C
$GPRMC,015735.1,A,3242.884865,N,11709.665800,W,6.0,180.8,250310,,,A*71
$GPRMC,015808.1,A,3242.870710,N,11709.670439,W,6.9,168.4,250310,,,A*77
$GPRMC,015811.1,A,3242.856588,N,11709.668897,W,13.4,166.1,250310,,,A*4B
$GPRMC,015814.1,A,3242.828987,N,11709.671344,W,24.0,178.7,250310,,,A*40
$GPRMC,015817.1,A,3242.807110,N,11709.669764,W,22.9,176.8,250310,,,A*49
$GPRMC,015820.1,A,3242.789436,N,11709.669656,W,20.4,179.1,250310,,,A*4C
$GPRMC,015823.1,A,3242.774133,N,11709.668046,W,17.9,180.4,250310,,,A*41
$GPRMC,015826.1,A,3242.763343,N,11709.664850,W,11.1,176.6,250310,,,A*41
$GPRMC,015844.1,A,3242.746701,N,11709.663899,W,8.3,176.6,250310,,,A*78
$GPRMC,015847.1,A,3242.733183,N,11709.664364,W,12.4,180.1,250310,,,A*49
$GPRMC,015850.1,A,3242.714945,N,11709.664205,W,16.4,179.4,250310,,,A*49
$GPRMC,015853.1,A,3242.701752,N,11709.664836,W,15.7,179.5,250310,,,A*4D
