NMEA Sentence Code,UTC Time,Status,Latitude,Latitude Direction,Longitude,Longitude Direction,Speed (knots),Track Angle (degrees true),Date,MagneticVariation,Magnetic Variation Direction,[FAA Mode]-Optional,Checksum
$GPRMC,014636.000,A,3300.3314,N,11649.3319,W,5.35,239.30,101210,,,A*77
$GPRMC,014639.000,A,3300.3270,N,11649.3463,W,17.50,251.80,101210,,,A*44
$GPRMC,014642.000,A,3300.3241,N,11649.3776,W,33.05,262.30,101210,,,A*40
$GPRMC,014645.000,A,3300.3192,N,11649.4154,W,40.34,259.20,101210,,,A*44
$GPRMC,014648.000,A,3300.3102,N,11649.4591,W,44.71,254.20,101210,,,A*45
$GPRMC,014651.000,A,3300.2963,N,11649.5018,W,45.68,248.40,101210,,,A*44
$GPRMC,014654.000,A,3300.2821,N,11649.5431,W,46.17,244.50,101210,,,A*4F
$GPRMC,014657.000,A,3300.2643,N,11649.5857,W,47.63,242.40,101210,,,A*4F
$GPRMC,014700.000,A,3300.2432,N,11649.6234,W,46.65,238.60,101210,,,A*4C
$GPRMC,014703.000,A,3300.2213,N,11649.6637,W,48.11,238.10,101210,,,A*47
$GPRMC,014706.000,A,3300.2016,N,11649.7041,W,48.11,239.20,101210,,,A*41
$GPRMC,014709.000,A,3300.1809,N,11649.7428,W,46.65,238.90,101210,,,A*47
$GPRMC,014712.000,A,3300.1585,N,11649.7822,W,47.14,237.60,101210,,,A*45
$GPRMC,014715.000,A,3300.1373,N,11649.8215,W,47.14,237.20,101210,,,A*48
$GPRMC,014718.000,A,3300.1174,N,11649.8605,W,45.68,239.30,101210,,,A*43
$GPRMC,014721.000,A,3300.1012,N,11649.8998,W,43.25,246.20,101210,,,A*45
$GPRMC,014724.000,A,3300.0925,N,11649.9426,W,43.25,258.80,101210,,,A*40
$GPRMC,014728.000,A,3300.0880,N,11649.9963,W,42.28,264.20,101210,,,A*47
$GPRMC,014731.000,A,3300.0804,N,11650.0385,W,42.28,255.70,101210,,,A*47
$GPRMC,014734.000,A,3300.0663,N,11650.0723,W,38.88,239.50,101210,,,A*4A
$GPRMC,014737.000,A,3300.0431,N,11650.1015,W,40.82,225.40,101210,,,A*46
$GPRMC,014740.000,A,3300.0177,N,11650.1305,W,41.31,224.10,101210,,,A*4E
$GPRMC,014743.000,A,3259.9936,N,11650.1587,W,39.85,224.80,101210,,,A*41
$GPRMC,014746.000,A,3259.9750,N,11650.1900,W,37.91,234.70,101210,,,A*4C
$GPRMC,014749.000,A,3259.9626,N,11650.2223,W,35.96,242.30,101210,,,A*4A
$GPRMC,014752.000,A,3259.9449,N,11650.2509,W,36.93,230.90,101210,,,A*4D
$GPRMC,014755.000,A,3259.9233,N,11650.2801,W,39.36,233.50,101210,,,A*4B
$GPRMC,014758.000,A,3259.9090,N,11650.3154,W,39.36,246.50,101210,,,A*47
$GPRMC,014801.000,A,3259.8986,N,11650.3548,W,40.34,257.60,101210,,,A*4D
$GPRMC,014804.000,A,3259.8934,N,11650.3922,W,39.85,262.00,101210,,,A*45
$GPRMC,014807.000,A,3259.8918,N,11650.4326,W,40.82,265.10,101210,,,A*4E
$GPRMC,014810.000,A,3259.8882,N,11650.4723,W,39.36,264.00,101210,,,A*4A
$GPRMC,014813.000,A,3259.8843,N,11650.5079,W,34.02,262.70,101210,,,A*46
$GPRMC,014816.000,A,3259.8816,N,11650.5404,W,33.53,263.20,101210,,,A*4A
$GPRMC,014819.000,A,3259.8781,N,11650.5725,W,32.07,264.30,101210,,,A*42
$GPRMC,014822.000,A,3259.8756,N,11650.6009,W,26.73,264.70,101210,,,A*48
$GPRMC,014825.000,A,3259.8751,N,11650.6201,W,16.52,267.50,101210,,,A*43
$GPRMC,014828.000,A,3259.8760,N,11650.6291,W,7.78,270.90,101210,,,A*77
$GPRMC,014850.000,A,3259.8763,N,11650.6341,W,0.00,269.90,101210,,,A*77
$GPRMC,014853.000,A,3259.8741,N,11650.6548,W,16.04,271.10,101210,,,A*49
$GPRMC,014856.000,A,3259.8791,N,11650.6761,W,20.41,283.00,101210,,,A*40
$GPRMC,014859.000,A,3259.8839,N,11650.6995,W,25.27,284.70,101210,,,A*42
$GPRMC,014902.000,A,3259.8894,N,11650.7275,W,28.67,283.10,101210,,,A*46
$GPRMC,014905.000,A,3259.8956,N,11650.7575,W,32.07,282.70,101210,,,A*43
$GPRMC,014908.000,A,3259.9006,N,11650.7931,W,35.96,276.40,101210,,,A*48
$GPRMC,014911.000,A,3259.9003,N,11650.8288,W,36.93,266.70,101210,,,A*47
$GPRMC,014914.000,A,3259.8966,N,11650.8664,W,38.39,265.10,101210,,,A*44
$GPRMC,014917.000,A,3259.8962,N,11650.9059,W,39.36,271.70,101210,,,A*47
$GPRMC,014920.000,A,3259.8974,N,11650.9432,W,37.91,270.80,101210,,,A*40
$GPRMC,014923.000,A,3259.8922,N,11650.9807,W,37.42,256.80,101210,,,A*40
$GPRMC,014926.000,A,3259.8827,N,11651.0173,W,39.85,251.40,101210,,,A*4D
$GPRMC,014929.000,A,3259.8677,N,11651.0526,W,40.34,250.20,101210,,,A*4E
$GPRMC,014932.000,A,3259.8610,N,11651.0910,W,40.34,261.50,101210,,,A*49
$GPRMC,014935.000,A,3259.8608,N,11651.1310,W,40.34,273.00,101210,,,A*4A
$GPRMC,014938.000,A,3259.8660,N,11651.1705,W,40.82,277.70,101210,,,A*47
$GPRMC,014941.000,A,3259.8690,N,11651.2122,W,41.79,275.80,101210,,,A*4E
$GPRMC,014944.000,A,3259.8710,N,11651.2536,W,41.31,272.90,101210,,,A*49
$GPRMC,014947.000,A,3259.8661,N,11651.2909,W,38.88,264.00,101210,,,A*4F
$GPRMC,014950.000,A,3259.8646,N,11651.3284,W,37.91,269.60,101210,,,A*4F
$GPRMC,014953.000,A,3259.8732,N,11651.3685,W,39.85,285.00,101210,,,A*44
$GPRMC,014956.000,A,3259.8885,N,11651.4039,W,38.88,294.90,101210,,,A*41
$GPRMC,014959.000,A,3259.8979,N,11651.4396,W,37.42,285.10,101210,,,A*4B
$GPRMC,015002.000,A,3259.9017,N,11651.4783,W,40.82,278.00,101210,,,A*42
$GPRMC,015005.000,A,3259.9078,N,11651.5217,W,43.74,278.70,101210,,,A*48
$GPRMC,015008.000,A,3259.9150,N,11651.5645,W,43.25,280.30,101210,,,A*4A
$GPRMC,015011.000,A,3259.9222,N,11651.6048,W,42.77,285.40,101210,,,A*48
$GPRMC,015014.000,A,3259.9353,N,11651.6468,W,44.22,290.90,101210,,,A*43
$GPRMC,015017.000,A,3259.9502,N,11651.6884,W,43.25,292.20,101210,,,A*45
$GPRMC,015020.000,A,3259.9638,N,11651.7255,W,39.85,295.20,101210,,,A*4C
$GPRMC,015023.000,A,3259.9825,N,11651.7563,W,37.91,309.70,101210,,,A*45
$GPRMC,015026.000,A,3300.0118,N,11651.7749,W,39.85,335.10,101210,,,A*4B
$GPRMC,015029.000,A,3300.0451,N,11651.7869,W,41.32,339.70,101210,,,A*48
$GPRMC,015032.000,A,3300.0776,N,11651.8002,W,42.29,339.20,101210,,,A*42
$GPRMC,015035.000,A,3300.1121,N,11651.8172,W,43.74,338.60,101210,,,A*4A
$GPRMC,015038.000,A,3300.1450,N,11651.8334,W,42.77,336.80,101210,,,A*46
$GPRMC,015041.000,A,3300.1739,N,11651.8518,W,39.36,326.70,101210,,,A*4B
$GPRMC,015044.000,A,3300.1974,N,11651.8760,W,38.89,315.90,101210,,,A*4F
$GPRMC,015047.000,A,3300.2222,N,11651.9028,W,39.86,321.20,101210,,,A*4F
$GPRMC,015050.000,A,3300.2510,N,11651.9221,W,38.88,336.30,101210,,,A*4C
$GPRMC,015053.000,A,3300.2817,N,11651.9342,W,38.88,343.90,101210,,,A*49
$GPRMC,015055.000,A,3300.3031,N,11651.9400,W,40.82,346.60,101210,,,A*4C
$GPRMC,015059.000,A,3300.3485,N,11651.9423,W,42.77,03.30,101210,,,A*75
$GPRMC,015102.000,A,3300.3835,N,11651.9355,W,42.77,10.50,101210,,,A*7F
$GPRMC,015105.000,A,3300.4224,N,11651.9334,W,44.72,01.60,101210,,,A*72
$GPRMC,015108.000,A,3300.4580,N,11651.9372,W,42.77,350.60,101210,,,A*40
$GPRMC,015112.000,A,3300.5008,N,11651.9518,W,40.82,340.10,101210,,,A*4B
$GPRMC,015115.000,A,3300.5364,N,11651.9733,W,45.68,336.30,101210,,,A*4C
$GPRMC,015119.000,A,3300.5868,N,11651.9929,W,46.65,348.40,101210,,,A*42
$GPRMC,015122.000,A,3300.6233,N,11651.9955,W,44.71,355.00,101210,,,A*49
$GPRMC,015125.000,A,3300.6607,N,11651.9943,W,44.71,00.50,101210,,,A*7C
$GPRMC,015128.000,A,3300.7003,N,11651.9946,W,47.63,359.20,101210,,,A*4F
$GPRMC,015131.000,A,3300.7338,N,11651.9940,W,40.82,00.10,101210,,,A*7E
$GPRMC,015134.000,A,3300.7659,N,11651.9944,W,37.91,00.10,101210,,,A*7F
$GPRMC,015137.000,A,3300.7952,N,11651.9909,W,35.48,04.20,101210,,,A*70
$GPRMC,015139.000,A,3300.8150,N,11651.9890,W,34.50,01.20,101210,,,A*77
$GPRMC,015143.000,A,3300.8499,N,11651.9929,W,30.62,355.40,101210,,,A*48
$GPRMC,015146.000,A,3300.8722,N,11651.9931,W,26.24,357.40,101210,,,A*40
$GPRMC,015149.000,A,3300.8865,N,11651.9941,W,17.01,342.90,101210,,,A*48
$GPRMC,015152.000,A,3300.8943,N,11652.0030,W,14.58,312.60,101210,,,A*47
$GPRMC,015155.000,A,3300.8980,N,11652.0203,W,19.95,286.90,101210,,,A*42
$GPRMC,015158.000,A,3300.8938,N,11652.0495,W,28.67,270.30,101210,,,A*49
$GPRMC,015201.000,A,3300.8940,N,11652.0819,W,30.13,272.90,101210,,,A*43
$GPRMC,015205.000,A,3300.8951,N,11652.1216,W,34.99,273.20,101210,,,A*4F
$GPRMC,015208.000,A,3300.8971,N,11652.1627,W,39.85,273.40,101210,,,A*40
$GPRMC,015211.000,A,3300.8977,N,11652.2050,W,41.79,273.80,101210,,,A*4B
$GPRMC,015214.000,A,3300.8980,N,11652.2464,W,40.34,272.10,101210,,,A*45
$GPRMC,015217.000,A,3300.9004,N,11652.2827,W,40.82,273.90,101210,,,A*4D
$GPRMC,015220.000,A,3300.8896,N,11652.3326,W,40.82,271.40,101210,,,A*4F
$GPRMC,015223.000,A,3300.8926,N,11652.3732,W,40.82,272.10,101210,,,A*41
$GPRMC,015226.000,A,3300.8936,N,11652.4132,W,40.34,270.50,101210,,,A*4F
$GPRMC,015229.000,A,3300.8951,N,11652.4543,W,41.31,270.90,101210,,,A*4B
$GPRMC,015232.000,A,3300.8957,N,11652.4953,W,41.79,270.50,101210,,,A*4A
$GPRMC,015235.000,A,3300.8961,N,11652.5390,W,43.25,270.30,101210,,,A*41
$GPRMC,015239.000,A,3300.8967,N,11652.5924,W,41.79,268.60,101210,,,A*49
$GPRMC,015242.000,A,3300.8975,N,11652.6323,W,40.34,269.30,101210,,,A*44
$GPRMC,015245.000,A,3300.8963,N,11652.6709,W,38.88,269.70,101210,,,A*44
$GPRMC,015248.000,A,3300.8959,N,11652.7085,W,35.96,269.60,101210,,,A*41
$GPRMC,015251.000,A,3300.8943,N,11652.7416,W,33.05,267.70,101210,,,A*4F
$GPRMC,015255.000,A,3300.8949,N,11652.7719,W,23.81,267.90,101210,,,A*4E
$GPRMC,015258.000,A,3300.8823,N,11652.7790,W,17.50,221.40,101210,,,A*4B
$GPRMC,015301.000,A,3300.8580,N,11652.7763,W,29.18,180.10,101210,,,A*42
$GPRMC,015304.000,A,3300.8263,N,11652.7737,W,38.39,179.20,101210,,,A*4A
$GPRMC,015307.000,A,3300.7904,N,11652.7752,W,42.28,180.90,101210,,,A*4F
$GPRMC,015311.000,A,3300.7412,N,11652.7754,W,44.71,180.30,101210,,,A*44
$GPRMC,015314.000,A,3300.7042,N,11652.7754,W,44.71,180.00,101210,,,A*43
$GPRMC,015317.000,A,3300.6652,N,11652.7746,W,45.68,179.60,101210,,,A*4C
$GPRMC,015320.000,A,3300.6282,N,11652.7747,W,44.22,180.20,101210,,,A*4D
$GPRMC,015323.000,A,3300.5915,N,11652.7746,W,42.77,179.50,101210,,,A*4E
$GPRMC,015326.000,A,3300.5567,N,11652.7755,W,41.79,178.90,101210,,,A*40
$GPRMC,015328.000,A,3300.5380,N,11652.7751,W,33.53,178.80,101210,,,A*49
$GPRMC,015332.000,A,3300.5091,N,11652.7766,W,23.35,186.00,101210,,,A*4D
$GPRMC,015335.000,A,3300.4953,N,11652.7904,W,22.84,219.20,101210,,,A*4A
$GPRMC,015338.000,A,3300.4979,N,11652.8150,W,24.79,267.20,101210,,,A*44
$GPRMC,015341.000,A,3300.5006,N,11652.8508,W,33.05,271.50,101210,,,A*4E
$GPRMC,015344.000,A,3300.5036,N,11652.8905,W,37.91,273.20,101210,,,A*45
$GPRMC,015347.000,A,3300.5049,N,11652.9291,W,41.79,271.70,101210,,,A*49
$GPRMC,015350.000,A,3300.5039,N,11652.9716,W,42.28,270.50,101210,,,A*46
$GPRMC,015353.000,A,3300.5037,N,11653.0165,W,44.24,270.80,101210,,,A*46
$GPRMC,015355.000,A,3300.5039,N,11653.0478,W,45.68,270.70,101210,,,A*41
$GPRMC,015359.000,A,3300.5160,N,11653.1081,W,46.65,280.40,101210,,,A*41
$GPRMC,015402.000,A,3300.5076,N,11653.1549,W,46.65,270.00,101210,,,A*44
$GPRMC,015405.000,A,3300.5080,N,11653.2028,W,48.60,270.50,101210,,,A*45
$GPRMC,015408.000,A,3300.5053,N,11653.2516,W,47.63,267.50,101210,,,A*44
$GPRMC,015411.000,A,3300.5047,N,11653.2994,W,48.60,268.30,101210,,,A*4A
$GPRMC,015414.000,A,3300.5075,N,11653.3532,W,53.94,272.30,101210,,,A*45
$GPRMC,015417.000,A,3300.5064,N,11653.4045,W,52.00,269.90,101210,,,A*48
$GPRMC,015420.000,A,3300.5077,N,11653.4548,W,51.03,270.50,101210,,,A*42
$GPRMC,015423.000,A,3300.5079,N,11653.5050,W,50.54,269.20,101210,,,A*4E
$GPRMC,015426.000,A,3300.5066,N,11653.5522,W,48.60,269.40,101210,,,A*4D
$GPRMC,015429.000,A,3300.5072,N,11653.6029,W,50.06,270.80,101210,,,A*47
$GPRMC,015432.000,A,3300.5076,N,11653.6516,W,49.08,270.50,101210,,,A*4B
$GPRMC,015435.000,A,3300.5089,N,11653.6983,W,48.11,270.30,101210,,,A*43
$GPRMC,015438.000,A,3300.5097,N,11653.7461,W,49.57,270.30,101210,,,A*42
$GPRMC,015441.000,A,3300.5083,N,11653.7983,W,50.54,269.10,101210,,,A*49
$GPRMC,015444.000,A,3300.5081,N,11653.8482,W,51.03,270.50,101210,,,A*42
$GPRMC,015447.000,A,3300.5091,N,11653.9009,W,52.49,271.40,101210,,,A*4B
$GPRMC,015450.000,A,3300.5104,N,11653.9515,W,51.03,271.10,101210,,,A*40
$GPRMC,015453.000,A,3300.5099,N,11654.0007,W,50.54,270.00,101210,,,A*4D
$GPRMC,015456.000,A,3300.5095,N,11654.0507,W,49.08,269.30,101210,,,A*4B
$GPRMC,015458.000,A,3300.5101,N,11654.0843,W,49.57,270.20,101210,,,A*47
$GPRMC,015502.000,A,3300.5125,N,11654.1459,W,47.14,271.10,101210,,,A*42
$GPRMC,015506.000,A,3300.5120,N,11654.2072,W,45.68,269.60,101210,,,A*4A
$GPRMC,015509.000,A,3300.5146,N,11654.2493,W,43.74,274.00,101210,,,A*4F
$GPRMC,015512.000,A,3300.5269,N,11654.2839,W,36.93,290.00,101210,,,A*46
$GPRMC,015515.000,A,3300.5423,N,11654.3138,W,35.48,299.50,101210,,,A*49
$GPRMC,015518.000,A,3300.5771,N,11654.3315,W,40.82,325.10,101210,,,A*4B
$GPRMC,015521.000,A,3300.6107,N,11654.3548,W,43.25,324.70,101210,,,A*42
$GPRMC,015525.000,A,3300.6523,N,11654.3899,W,43.25,326.90,101210,,,A*49
$GPRMC,015528.000,A,3300.6810,N,11654.4150,W,43.26,323.80,101210,,,A*45
$GPRMC,015531.000,A,3300.7115,N,11654.4395,W,43.25,327.10,101210,,,A*45
$GPRMC,015535.000,A,3300.7382,N,11654.4641,W,32.07,323.10,101210,,,A*43
$GPRMC,015538.000,A,3300.7554,N,11654.4797,W,24.30,320.70,101210,,,A*4F
$GPRMC,015541.000,A,3300.7680,N,11654.4942,W,19.44,320.50,101210,,,A*42
$GPRMC,015544.000,A,3300.7768,N,11654.5012,W,13.12,326.60,101210,,,A*41
$GPRMC,015855.000,A,3300.7845,N,11654.5172,W,8.26,293.00,101210,,,A*7F
$GPRMC,015858.000,A,3300.7792,N,11654.5338,W,14.58,243.10,101210,,,A*43
$GPRMC,015901.000,A,3300.7591,N,11654.5594,W,27.22,226.20,101210,,,A*42
$GPRMC,015904.000,A,3300.7423,N,11654.5805,W,28.19,225.20,101210,,,A*4E
$GPRMC,015907.000,A,3300.7251,N,11654.6005,W,27.22,225.80,101210,,,A*48
$GPRMC,015910.000,A,3300.7047,N,11654.6254,W,34.50,226.80,101210,,,A*49
$GPRMC,015913.000,A,3300.6860,N,11654.6511,W,36.45,227.80,101210,,,A*47
$GPRMC,015916.000,A,3300.6638,N,11654.6788,W,40.34,226.30,101210,,,A*4E
$GPRMC,015920.000,A,3300.6310,N,11654.7197,W,42.77,227.30,101210,,,A*49
$GPRMC,015923.000,A,3300.6057,N,11654.7547,W,45.20,228.40,101210,,,A*4E
$GPRMC,015926.000,A,3300.5795,N,11654.7893,W,47.64,228.20,101210,,,A*41
$GPRMC,015929.000,A,3300.5558,N,11654.8263,W,47.63,231.00,101210,,,A*4A
$GPRMC,015933.000,A,3300.5403,N,11654.8829,W,45.21,258.40,101210,,,A*45
$GPRMC,015936.000,A,3300.5420,N,11654.9289,W,45.68,274.30,101210,,,A*44
$GPRMC,015939.000,A,3300.5506,N,11654.9713,W,45.20,288.30,101210,,,A*47
$GPRMC,015942.000,A,3300.5617,N,11655.0142,W,45.21,285.10,101210,,,A*4C
$GPRMC,015945.000,A,3300.5822,N,11655.0560,W,46.18,294.50,101210,,,A*4A
$GPRMC,015947.000,A,3300.5933,N,11655.0866,W,48.60,292.60,101210,,,A*46
$GPRMC,015951.000,A,3300.6027,N,11655.1473,W,44.72,279.60,101210,,,A*4D
$GPRMC,015954.000,A,3300.5985,N,11655.1961,W,48.11,264.60,101210,,,A*41
$GPRMC,015957.000,A,3300.5876,N,11655.2432,W,49.09,254.70,101210,,,A*4D
$GPRMC,020000.000,A,3300.5689,N,11655.2877,W,50.54,244.50,101210,,,A*40
$GPRMC,020003.000,A,3300.5472,N,11655.3281,W,48.12,238.80,101210,,,A*4A
$GPRMC,020006.000,A,3300.5281,N,11655.3739,W,50.54,245.60,101210,,,A*4C
$GPRMC,020009.000,A,3300.5153,N,11655.4210,W,50.06,253.00,101210,,,A*40
$GPRMC,020012.000,A,3300.5125,N,11655.4691,W,47.14,266.70,101210,,,A*42
$GPRMC,020015.000,A,3300.5211,N,11655.5145,W,44.71,280.20,101210,,,A*43
$GPRMC,020018.000,A,3300.5432,N,11655.5539,W,45.20,299.80,101210,,,A*41
$GPRMC,020021.000,A,3300.5653,N,11655.5908,W,42.77,304.60,101210,,,A*4E
$GPRMC,020023.000,A,3300.5802,N,11655.6176,W,45.69,303.60,101210,,,A*4B
$GPRMC,020027.000,A,3300.6051,N,11655.6732,W,46.17,296.20,101210,,,A*47
$GPRMC,020030.000,A,3300.6181,N,11655.7135,W,44.22,292.50,101210,,,A*4A
$GPRMC,020033.000,A,3300.6240,N,11655.7632,W,46.65,284.50,101210,,,A*41
$GPRMC,020036.000,A,3300.6388,N,11655.8083,W,47.63,288.80,101210,,,A*44
$GPRMC,020039.000,A,3300.6494,N,11655.8381,W,46.17,288.80,101210,,,A*42
$GPRMC,020042.000,A,3300.6640,N,11655.9008,W,48.60,287.90,101210,,,A*46
$GPRMC,020045.000,A,3300.6631,N,11655.9480,W,49.57,275.60,101210,,,A*44
$GPRMC,020048.000,A,3300.6641,N,11655.9943,W,45.20,272.40,101210,,,A*45
$GPRMC,020051.000,A,3300.6668,N,11656.0344,W,43.26,274.20,101210,,,A*41
$GPRMC,020054.000,A,3300.6645,N,11656.0756,W,42.77,268.30,101210,,,A*45
$GPRMC,020057.000,A,3300.6588,N,11656.1169,W,42.29,264.20,101210,,,A*49
$GPRMC,020059.000,A,3300.6580,N,11656.1447,W,42.77,265.60,101210,,,A*48
$GPRMC,020103.000,A,3300.6555,N,11656.1918,W,43.75,264.60,101210,,,A*4B
$GPRMC,020106.000,A,3300.6528,N,11656.2354,W,43.25,265.60,101210,,,A*41
$GPRMC,020109.000,A,3300.6502,N,11656.2781,W,42.77,265.30,101210,,,A*49
$GPRMC,020113.000,A,3300.6444,N,11656.3455,W,45.68,265.20,101210,,,A*42
$GPRMC,020116.000,A,3300.6414,N,11656.3922,W,48.11,264.60,101210,,,A*49
$GPRMC,020119.000,A,3300.6366,N,11656.4386,W,48.11,263.30,101210,,,A*45
$GPRMC,020121.000,A,3300.6342,N,11656.4702,W,50.06,264.60,101210,,,A*4D
$GPRMC,020125.000,A,3300.6382,N,11656.5198,W,49.57,269.00,101210,,,A*46
$GPRMC,020129.000,A,3300.6564,N,11656.6037,W,48.60,284.70,101210,,,A*42
$GPRMC,020132.000,A,3300.6662,N,11656.6495,W,48.60,285.70,101210,,,A*40
$GPRMC,020135.000,A,3300.6771,N,11656.6904,W,43.74,282.90,101210,,,A*46
$GPRMC,020138.000,A,3300.6806,N,11656.7343,W,44.71,276.20,101210,,,A*4E
$GPRMC,020141.000,A,3300.6809,N,11656.7753,W,43.74,275.20,101210,,,A*4B
$GPRMC,020145.000,A,3300.6854,N,11656.8339,W,44.71,276.10,101210,,,A*42
$GPRMC,020148.000,A,3300.6907,N,11656.8752,W,41.79,279.30,101210,,,A*41
$GPRMC,020151.000,A,3300.7051,N,11656.9157,W,43.25,290.50,101210,,,A*4A
$GPRMC,020154.000,A,3300.7178,N,11656.9562,W,43.25,290.20,101210,,,A*40
$GPRMC,020157.000,A,3300.7302,N,11656.9987,W,45.21,290.00,101210,,,A*4B
$GPRMC,020200.000,A,3300.7437,N,11657.0401,W,45.68,290.50,101210,,,A*48
$GPRMC,020203.000,A,3300.7534,N,11657.0821,W,44.72,286.10,101210,,,A*4E
$GPRMC,020206.000,A,3300.7574,N,11657.1282,W,46.65,278.10,101210,,,A*48
$GPRMC,020209.000,A,3300.7476,N,11657.1783,W,48.61,258.00,101210,,,A*49
$GPRMC,020212.000,A,3300.7257,N,11657.2184,W,47.14,241.20,101210,,,A*43
$GPRMC,020215.000,A,3300.6994,N,11657.2456,W,43.75,220.10,101210,,,A*4C
$GPRMC,020218.000,A,3300.6674,N,11657.2669,W,44.71,208.00,101210,,,A*46
$GPRMC,020221.000,A,3300.6238,N,11657.2785,W,51.51,193.00,101210,,,A*44
$GPRMC,020224.000,A,3300.5802,N,11657.2883,W,52.97,191.50,101210,,,A*46
$GPRMC,020227.000,A,3300.5367,N,11657.3010,W,54.43,195.20,101210,,,A*42
$GPRMC,020231.000,A,3300.4783,N,11657.3224,W,53.94,198.20,101210,,,A*4F
$GPRMC,020234.000,A,3300.4351,N,11657.3380,W,53.94,197.60,101210,,,A*45
$GPRMC,020237.000,A,3300.3942,N,11657.3543,W,52.97,198.30,101210,,,A*48
$GPRMC,020240.000,A,3300.3510,N,11657.3708,W,52.97,198.50,101210,,,A*48
$GPRMC,020243.000,A,3300.3110,N,11657.3895,W,52.00,203.40,101210,,,A*4A
$GPRMC,020246.000,A,3300.2724,N,11657.4121,W,52.00,207.00,101210,,,A*4E
$GPRMC,020249.000,A,3300.2355,N,11657.4376,W,51.51,209.70,101210,,,A*4D
$GPRMC,020252.000,A,3300.1979,N,11657.4613,W,52.00,208.20,101210,,,A*45
$GPRMC,020255.000,A,3300.1586,N,11657.4767,W,48.60,194.80,101210,,,A*4D
$GPRMC,020257.000,A,3300.1296,N,11657.4799,W,50.54,188.50,101210,,,A*46
$GPRMC,020301.000,A,3300.0725,N,11657.4891,W,52.00,186.90,101210,,,A*4E
$GPRMC,020304.000,A,3300.0300,N,11657.4977,W,52.97,190.30,101210,,,A*42
$GPRMC,020307.000,A,3300.0038,N,11657.5074,W,51.51,196.80,101210,,,A*46
$GPRMC,020310.000,A,3259.9514,N,11657.5370,W,52.01,206.60,101210,,,A*4A
$GPRMC,020313.000,A,3259.9223,N,11657.5745,W,51.03,220.90,101210,,,A*42
$GPRMC,020316.000,A,3259.9020,N,11657.6186,W,50.55,233.90,101210,,,A*4C
$GPRMC,020320.000,A,3259.9017,N,11657.6942,W,51.03,257.90,101210,,,A*4D
$GPRMC,020326.000,A,3259.8869,N,11657.7958,W,0.00,00.00,101210,,,A*4F
$GPRMC,020329.000,A,3259.8835,N,11657.8462,W,50.54,260.30,101210,,,A*41
$GPRMC,020332.000,A,3259.8777,N,11657.8988,W,51.51,260.50,101210,,,A*49
$GPRMC,020335.000,A,3259.8681,N,11657.9469,W,49.57,256.10,101210,,,A*4B
$GPRMC,020338.000,A,3259.8504,N,11657.9944,W,52.97,248.50,101210,,,A*47
$GPRMC,020341.000,A,3259.8319,N,11658.0427,W,53.46,245.80,101210,,,A*40
$GPRMC,020344.000,A,3259.8138,N,11658.0921,W,55.89,245.60,101210,,,A*44
$GPRMC,020347.000,A,3259.7965,N,11658.1378,W,52.49,247.90,101210,,,A*49
$GPRMC,020350.000,A,3259.7856,N,11658.1867,W,51.51,257.30,101210,,,A*4A
$GPRMC,020353.000,A,3259.7819,N,11658.2370,W,49.57,262.20,101210,,,A*44
$GPRMC,020356.000,A,3259.7769,N,11658.2839,W,47.63,261.70,101210,,,A*40
$GPRMC,020359.000,A,3259.7674,N,11658.3275,W,44.71,254.80,101210,,,A*48
$GPRMC,020402.000,A,3259.7530,N,11658.3693,W,45.20,250.30,101210,,,A*44
$GPRMC,020405.000,A,3259.7390,N,11658.4104,W,44.24,248.30,101210,,,A*4D
$GPRMC,020408.000,A,3259.7291,N,11658.4499,W,43.25,253.10,101210,,,A*4F
$GPRMC,020411.000,A,3259.7188,N,11658.4949,W,46.65,255.50,101210,,,A*4F
$GPRMC,020414.000,A,3259.7007,N,11658.5329,W,44.22,242.20,101210,,,A*41
$GPRMC,020417.000,A,3259.6741,N,11658.5694,W,46.65,233.70,101210,,,A*47
$GPRMC,020421.000,A,3259.6430,N,11658.6198,W,47.63,232.90,101210,,,A*47
$GPRMC,020424.000,A,3259.6186,N,11658.6564,W,48.12,232.40,101210,,,A*49
$GPRMC,020427.000,A,3259.5910,N,11658.6884,W,47.14,224.80,101210,,,A*4F
$GPRMC,020430.000,A,3259.5595,N,11658.7172,W,47.64,218.00,101210,,,A*49
$GPRMC,020433.000,A,3259.5309,N,11658.7363,W,48.61,208.60,101210,,,A*46
$GPRMC,020436.000,A,3259.4916,N,11658.7521,W,49.58,195.80,101210,,,A*44
$GPRMC,020518.000,A,3259.0361,N,11658.4928,W,47.63,134.70,101210,,,A*43
$GPRMC,020520.000,A,3259.0111,N,11658.4869,W,49.08,168.20,101210,,,A*46
$GPRMC,020523.000,A,3258.9579,N,11658.4780,W,46.17,170.40,101210,,,A*41
$GPRMC,020526.000,A,3258.9229,N,11658.4699,W,42.28,169.60,101210,,,A*4D
$GPRMC,020529.000,A,3258.8888,N,11658.4617,W,42.77,168.80,101210,,,A*41
$GPRMC,020532.000,A,3258.8545,N,11658.4541,W,42.77,169.40,101210,,,A*4A
$GPRMC,020534.000,A,3258.8315,N,11658.4477,W,42.28,168.60,101210,,,A*42
$GPRMC,020538.000,A,3258.7860,N,11658.4377,W,39.85,166.90,101210,,,A*45
$GPRMC,020541.000,A,3258.7554,N,11658.4294,W,34.99,165.30,101210,,,A*44
$GPRMC,020544.000,A,3258.7327,N,11658.4221,W,26.73,165.70,101210,,,A*4E
$GPRMC,020547.000,A,3258.7160,N,11658.4222,W,20.41,191.20,101210,,,A*46
$GPRMC,020550.000,A,3258.7051,N,11658.4356,W,20.41,232.40,101210,,,A*4D
$GPRMC,020553.000,A,3258.7008,N,11658.4612,W,26.73,259.30,101210,,,A*4A
$GPRMC,020556.000,A,3258.6964,N,11658.4921,W,32.56,260.40,101210,,,A*4D
$GPRMC,020559.000,A,3258.6936,N,11658.5270,W,35.96,261.80,101210,,,A*4D
$GPRMC,020603.000,A,3258.6874,N,11658.5784,W,39.85,261.50,101210,,,A*4B
$GPRMC,020606.000,A,3258.6806,N,11658.6178,W,40.82,258.90,101210,,,A*42
$GPRMC,020609.000,A,3258.6768,N,11658.6604,W,42.77,261.20,101210,,,A*4F
$GPRMC,020612.000,A,3258.6690,N,11658.7030,W,43.25,261.00,101210,,,A*47
$GPRMC,020615.000,A,3258.6621,N,11658.7446,W,43.26,262.30,101210,,,A*4C
$GPRMC,020618.000,A,3258.6626,N,11658.7882,W,43.75,269.70,101210,,,A*4B
$GPRMC,020621.000,A,3258.6665,N,11658.8310,W,43.26,275.80,101210,,,A*4D
$GPRMC,020624.000,A,3258.6702,N,11658.8698,W,42.78,278.50,101210,,,A*47
$GPRMC,020627.000,A,3258.6769,N,11658.9138,W,45.21,281.80,101210,,,A*45
$GPRMC,020630.000,A,3258.6860,N,11658.9590,W,47.14,283.00,101210,,,A*4D
$GPRMC,020633.000,A,3258.6931,N,11659.0064,W,48.11,281.60,101210,,,A*43
$GPRMC,020636.000,A,3258.7014,N,11659.0518,W,47.63,281.60,101210,,,A*4D
$GPRMC,020639.000,A,3258.7067,N,11659.0998,W,49.09,276.90,101210,,,A*47
$GPRMC,020642.000,A,3258.7093,N,11659.1481,W,49.09,274.50,101210,,,A*4A
$GPRMC,020645.000,A,3258.7122,N,11659.1974,W,47.63,273.80,101210,,,A*49
$GPRMC,020649.000,A,3258.7080,N,11659.2566,W,45.21,257.40,101210,,,A*4E
$GPRMC,020652.000,A,3258.6909,N,11659.2982,W,45.68,238.90,101210,,,A*42
$GPRMC,020655.000,A,3258.6684,N,11659.3318,W,43.74,231.80,101210,,,A*44
$GPRMC,020658.000,A,3258.6485,N,11659.3674,W,43.25,240.40,101210,,,A*4B
$GPRMC,020701.000,A,3258.6399,N,11659.4105,W,44.72,258.80,101210,,,A*4A
$GPRMC,020704.000,A,3258.6349,N,11659.4574,W,47.14,259.40,101210,,,A*4E
$GPRMC,020707.000,A,3258.6260,N,11659.5028,W,46.65,255.60,101210,,,A*43
$GPRMC,020710.000,A,3258.6136,N,11659.5440,W,46.18,252.20,101210,,,A*46
$GPRMC,020713.000,A,3258.6047,N,11659.5887,W,45.69,257.60,101210,,,A*41
$GPRMC,020716.000,A,3258.6035,N,11659.6365,W,47.14,266.20,101210,,,A*4B
$GPRMC,020719.000,A,3258.5985,N,11659.6824,W,47.15,264.20,101210,,,A*48
$GPRMC,020722.000,A,3258.5930,N,11659.7273,W,46.65,262.70,101210,,,A*42
$GPRMC,020725.000,A,3258.5772,N,11659.7705,W,46.66,254.10,101210,,,A*49
$GPRMC,020728.000,A,3258.5681,N,11659.8151,W,46.65,257.50,101210,,,A*45
$GPRMC,020731.000,A,3258.5654,N,11659.8607,W,45.69,268.80,101210,,,A*4F
$GPRMC,020734.000,A,3258.5690,N,11659.9068,W,46.66,276.10,101210,,,A*46
$GPRMC,020737.000,A,3258.5723,N,11659.9513,W,45.69,270.10,101210,,,A*4F
$GPRMC,020740.000,A,3258.5646,N,11659.9971,W,47.14,255.40,101210,,,A*4F
$GPRMC,020742.000,A,3258.5544,N,11700.0267,W,47.14,246.80,101210,,,A*4A
$GPRMC,020746.000,A,3258.5230,N,11700.0719,W,46.17,232.10,101210,,,A*4E
$GPRMC,020749.000,A,3258.4994,N,11700.1093,W,47.15,233.80,101210,,,A*4A
$GPRMC,020752.000,A,3258.4738,N,11700.1477,W,50.06,231.60,101210,,,A*4E
$GPRMC,020755.000,A,3258.4461,N,11700.1862,W,49.57,231.90,101210,,,A*4D
$GPRMC,020758.000,A,3258.4279,N,11700.2312,W,50.54,241.40,101210,,,A*41
$GPRMC,020801.000,A,3258.4134,N,11700.2767,W,49.57,250.30,101210,,,A*42
$GPRMC,020804.000,A,3258.3993,N,11700.3221,W,49.58,251.30,101210,,,A*4D
$GPRMC,020807.000,A,3258.3866,N,11700.3679,W,49.08,251.00,101210,,,A*4A
$GPRMC,020810.000,A,3258.3743,N,11700.4124,W,47.15,251.00,101210,,,A*4E
$GPRMC,020813.000,A,3258.3608,N,11700.4564,W,45.21,250.60,101210,,,A*41
$GPRMC,020816.000,A,3258.3555,N,11700.4985,W,42.29,265.20,101210,,,A*41
$GPRMC,020819.000,A,3258.3577,N,11700.5429,W,45.68,271.00,101210,,,A*41
$GPRMC,020821.000,A,3258.3569,N,11700.5720,W,44.22,267.40,101210,,,A*43
$GPRMC,020825.000,A,3258.3483,N,11700.6309,W,46.17,261.80,101210,,,A*40
$GPRMC,020828.000,A,3258.3451,N,11700.6726,W,44.22,264.50,101210,,,A*47
$GPRMC,020831.000,A,3258.3334,N,11700.7154,W,44.22,252.90,101210,,,A*40
$GPRMC,020834.000,A,3258.3163,N,11700.7570,W,45.20,242.30,101210,,,A*4F
$GPRMC,020837.000,A,3258.2945,N,11700.7881,W,43.75,234.40,101210,,,A*42
$GPRMC,020840.000,A,3258.2742,N,11700.8200,W,39.86,233.70,101210,,,A*42
$GPRMC,020843.000,A,3258.2565,N,11700.8487,W,35.98,233.90,101210,,,A*42
$GPRMC,020846.000,A,3258.2393,N,11700.8766,W,33.53,237.20,101210,,,A*4A
$GPRMC,020849.000,A,3258.2292,N,11700.8990,W,25.76,238.10,101210,,,A*4E
$GPRMC,020852.000,A,3258.2196,N,11700.9160,W,20.41,237.60,101210,,,A*4C
$GPRMC,020855.000,A,3258.2096,N,11700.9324,W,21.38,234.40,101210,,,A*46
$GPRMC,020858.000,A,3258.2004,N,11700.9474,W,16.04,245.60,101210,,,A*4D
$GPRMC,020901.000,A,3258.2035,N,11700.9622,W,14.58,301.80,101210,,,A*47
$GPRMC,020904.000,A,3258.2165,N,11700.9701,W,18.95,336.20,101210,,,A*45
$GPRMC,020907.000,A,3258.2359,N,11700.9754,W,25.27,345.50,101210,,,A*4F
$GPRMC,020910.000,A,3258.2601,N,11700.9823,W,31.10,345.50,101210,,,A*4F
$GPRMC,020913.000,A,3258.2879,N,11700.9903,W,34.99,346.30,101210,,,A*4F
$GPRMC,020916.000,A,3258.3177,N,11700.9995,W,37.42,345.40,101210,,,A*42
$GPRMC,020919.000,A,3258.3472,N,11701.0104,W,35.96,341.30,101210,,,A*4D
$GPRMC,020922.000,A,3258.3728,N,11701.0272,W,33.53,323.60,101210,,,A*45
$GPRMC,020925.000,A,3258.3900,N,11701.0525,W,34.52,303.70,101210,,,A*46
$GPRMC,020928.000,A,3258.4043,N,11701.0829,W,34.50,297.70,101210,,,A*4D
$GPRMC,020931.000,A,3258.4169,N,11701.1143,W,35.48,296.20,101210,,,A*44
$GPRMC,020934.000,A,3258.4318,N,11701.1455,W,36.45,297.40,101210,,,A*4E
$GPRMC,020937.000,A,3258.4452,N,11701.1795,W,38.39,294.10,101210,,,A*48
$GPRMC,020940.000,A,3258.4578,N,11701.2146,W,38.41,294.30,101210,,,A*47
$GPRMC,020943.000,A,3258.4708,N,11701.2505,W,39.36,295.00,101210,,,A*41
$GPRMC,020946.000,A,3258.4862,N,11701.2869,W,40.83,296.00,101210,,,A*43
$GPRMC,020949.000,A,3258.5029,N,11701.3219,W,39.85,303.20,101210,,,A*41
$GPRMC,020952.000,A,3258.5233,N,11701.3499,W,36.45,315.60,101210,,,A*4C
$GPRMC,020955.000,A,3258.5455,N,11701.3684,W,34.02,328.10,101210,,,A*4B
$GPRMC,020958.000,A,3258.5715,N,11701.3816,W,33.53,339.00,101210,,,A*46
$GPRMC,021001.000,A,3258.5969,N,11701.3873,W,30.13,348.40,101210,,,A*41
$GPRMC,021004.000,A,3258.6172,N,11701.3913,W,24.30,352.60,101210,,,A*4F
$GPRMC,021007.000,A,3258.6366,N,11701.3938,W,21.87,354.40,101210,,,A*4F
$GPRMC,021010.000,A,3258.6542,N,11701.3962,W,19.44,357.60,101210,,,A*43
$GPRMC,021013.000,A,3258.6662,N,11701.3970,W,12.64,355.80,101210,,,A*47
$GPRMC,021035.000,A,3258.6784,N,11701.3964,W,9.72,339.80,101210,,,A*78
$GPRMC,021038.000,A,3258.6880,N,11701.4080,W,9.72,295.10,101210,,,A*74
$GPRMC,021041.000,A,3258.6896,N,11701.4132,W,4.86,269.60,101210,,,A*77
$GPRMC,021044.000,A,3258.6887,N,11701.4230,W,12.64,269.40,101210,,,A*4A
$GPRMC,021047.000,A,3258.6892,N,11701.4433,W,22.36,270.40,101210,,,A*44
$GPRMC,021050.000,A,3258.6893,N,11701.4708,W,30.13,271.10,101210,,,A*48
$GPRMC,021053.000,A,3258.6893,N,11701.5048,W,34.02,270.60,101210,,,A*4B
$GPRMC,021056.000,A,3258.6908,N,11701.5397,W,34.99,271.60,101210,,,A*4F
$GPRMC,021059.000,A,3258.6905,N,11701.5733,W,32.07,270.30,101210,,,A*42
$GPRMC,021103.000,A,3258.6922,N,11701.6064,W,21.38,270.60,101210,,,A*44
$GPRMC,021106.000,A,3258.6919,N,11701.6207,W,11.66,269.10,101210,,,A*49
$GPRMC,021130.000,A,3258.6948,N,11701.6406,W,15.55,275.00,101210,,,A*47
$GPRMC,021133.000,A,3258.6929,N,11701.6794,W,29.65,270.40,101210,,,A*46
$GPRMC,021136.000,A,3258.6945,N,11701.7138,W,34.02,271.00,101210,,,A*40
$GPRMC,021139.000,A,3258.6953,N,11701.7492,W,34.99,271.10,101210,,,A*4E
$GPRMC,021142.000,A,3258.6965,N,11701.7849,W,36.45,271.40,101210,,,A*4B
$GPRMC,021145.000,A,3258.6981,N,11701.8216,W,37.91,271.20,101210,,,A*47
$GPRMC,021148.000,A,3258.6997,N,11701.8602,W,39.36,271.30,101210,,,A*4E
$GPRMC,021151.000,A,3258.6986,N,11701.8994,W,40.34,270.30,101210,,,A*4B
$GPRMC,021154.000,A,3258.6990,N,11701.9409,W,41.31,270.90,101210,,,A*4F
$GPRMC,021157.000,A,3258.7001,N,11701.9815,W,40.82,270.60,101210,,,A*4B
$GPRMC,021200.000,A,3258.7012,N,11702.0218,W,38.39,271.50,101210,,,A*48
$GPRMC,021203.000,A,3258.7026,N,11702.0570,W,35.48,271.30,101210,,,A*48
$GPRMC,021206.000,A,3258.7050,N,11702.0894,W,32.56,271.90,101210,,,A*49
$GPRMC,021209.000,A,3258.7041,N,11702.1190,W,26.73,270.60,101210,,,A*46
$GPRMC,021212.000,A,3258.7015,N,11702.1391,W,17.98,264.70,101210,,,A*4D
$GPRMC,021215.000,A,3258.7016,N,11702.1529,W,13.12,266.20,101210,,,A*4D
$GPRMC,021239.000,A,3258.7021,N,11702.1688,W,6.80,268.90,101210,,,A*75
$GPRMC,021242.000,A,3258.6990,N,11702.1815,W,16.52,257.10,101210,,,A*4B
$GPRMC,021244.000,A,3258.6947,N,11702.1946,W,21.38,253.70,101210,,,A*4A
$GPRMC,021248.000,A,3258.6831,N,11702.2311,W,32.56,247.50,101210,,,A*40
$GPRMC,021251.000,A,3258.6701,N,11702.2620,W,36.45,242.10,101210,,,A*44
$GPRMC,021254.000,A,3258.6535,N,11702.2943,W,37.91,236.10,101210,,,A*45
$GPRMC,021257.000,A,3258.6325,N,11702.3243,W,39.36,228.20,101210,,,A*44
$GPRMC,021300.000,A,3258.6075,N,11702.3495,W,37.91,219.10,101210,,,A*4E
$GPRMC,021303.000,A,3258.5821,N,11702.3704,W,36.93,211.70,101210,,,A*41
$GPRMC,021306.000,A,3258.5547,N,11702.3865,W,35.48,208.10,101210,,,A*4A
$GPRMC,021309.000,A,3258.5302,N,11702.4026,W,32.07,208.30,101210,,,A*44
$GPRMC,021312.000,A,3258.5122,N,11702.4200,W,27.70,220.40,101210,,,A*41
$GPRMC,021314.000,A,3258.5020,N,11702.4329,W,25.76,226.50,101210,,,A*4D
$GPRMC,021317.000,A,3258.4893,N,11702.4527,W,26.24,233.70,101210,,,A*45
$GPRMC,021321.000,A,3258.4795,N,11702.4843,W,25.76,249.00,101210,,,A*48
$GPRMC,021324.000,A,3258.4723,N,11702.5145,W,31.59,257.70,101210,,,A*4E
$GPRMC,021327.000,A,3258.4722,N,11702.5510,W,38.39,271.50,101210,,,A*41
$GPRMC,021330.000,A,3258.4825,N,11702.5912,W,41.79,289.10,101210,,,A*48
$GPRMC,021333.000,A,3258.4950,N,11702.6222,W,44.72,296.40,101210,,,A*46
$GPRMC,021336.000,A,3258.5168,N,11702.6541,W,40.87,306.60,101210,,,A*47
$GPRMC,021339.000,A,3258.5365,N,11702.6861,W,40.35,304.50,101210,,,A*40
$GPRMC,021343.000,A,3258.5671,N,11702.7380,W,41.79,303.40,101210,,,A*47
$GPRMC,021346.000,A,3258.5835,N,11702.7771,W,44.22,299.00,101210,,,A*4B
$GPRMC,021349.000,A,3258.6021,N,11702.8130,W,41.31,300.80,101210,,,A*48
$GPRMC,021352.000,A,3258.6205,N,11702.8472,W,41.79,301.40,101210,,,A*44
$GPRMC,021355.000,A,3258.6372,N,11702.8816,W,39.36,300.40,101210,,,A*49
$GPRMC,021358.000,A,3258.6505,N,11702.9192,W,39.36,296.90,101210,,,A*45
$GPRMC,021401.000,A,3258.6655,N,11702.9568,W,39.86,293.10,101210,,,A*4F
$GPRMC,021404.000,A,3258.6741,N,11702.9923,W,37.42,283.30,101210,,,A*48
$GPRMC,021407.000,A,3258.6762,N,11703.0262,W,34.03,275.90,101210,,,A*49
$GPRMC,021410.000,A,3258.6789,N,11703.0543,W,26.24,274.70,101210,,,A*47
$GPRMC,021412.000,A,3258.6805,N,11703.0683,W,21.87,275.00,101210,,,A*49
$GPRMC,021416.000,A,3258.6803,N,11703.0812,W,9.23,271.30,101210,,,A*7E
$GPRMC,021448.000,A,3258.6804,N,11703.0980,W,12.64,276.10,101210,,,A*44
$GPRMC,021451.000,A,3258.6828,N,11703.1229,W,22.84,275.50,101210,,,A*41
$GPRMC,021454.000,A,3258.6839,N,11703.1493,W,26.73,276.40,101210,,,A*4D
$GPRMC,021457.000,A,3258.6894,N,11703.1795,W,32.56,279.40,101210,,,A*41
$GPRMC,021500.000,A,3258.6922,N,11703.2181,W,36.45,276.20,101210,,,A*41
$GPRMC,021504.000,A,3258.6986,N,11703.2688,W,38.39,278.10,101210,,,A*4D
$GPRMC,021507.000,A,3258.7035,N,11703.3066,W,37.92,280.40,101210,,,A*45
$GPRMC,021510.000,A,3258.7122,N,11703.3410,W,37.42,287.40,101210,,,A*4B
$GPRMC,021516.000,A,3258.7389,N,11703.4111,W,38.39,297.40,101210,,,A*4F
$GPRMC,021519.000,A,3258.7548,N,11703.4419,W,36.93,301.40,101210,,,A*46
$GPRMC,021522.000,A,3258.7720,N,11703.4705,W,34.99,306.80,101210,,,A*4F
$GPRMC,021525.000,A,3258.7884,N,11703.4933,W,27.22,310.80,101210,,,A*47
$GPRMC,021529.000,A,3258.7996,N,11703.5064,W,8.75,317.30,101210,,,A*70
$GPRMC,021705.000,A,3258.7993,N,11703.5237,W,10.69,250.20,101210,,,A*4A
$GPRMC,021708.000,A,3258.7863,N,11703.5462,W,27.22,229.30,101210,,,A*4B
$GPRMC,021711.000,A,3258.7657,N,11703.5779,W,37.92,232.10,101210,,,A*41
$GPRMC,021714.000,A,3258.7452,N,11703.6097,W,40.35,233.50,101210,,,A*4F
$GPRMC,021717.000,A,3258.7297,N,11703.6418,W,40.82,242.10,101210,,,A*4E
$GPRMC,021720.000,A,3258.7181,N,11703.6883,W,35.48,257.90,101210,,,A*48
$GPRMC,021723.000,A,3258.7162,N,11703.7187,W,27.70,265.40,101210,,,A*4E
$GPRMC,021726.000,A,3258.7176,N,11703.7335,W,12.19,271.00,101210,,,A*4D
$GPRMC,021805.000,A,3258.7142,N,11703.7433,W,11.22,251.80,101210,,,A*44
$GPRMC,021808.000,A,3258.7119,N,11703.7814,W,35.96,260.30,101210,,,A*4E
$GPRMC,021811.000,A,3258.7028,N,11703.8281,W,45.20,251.80,101210,,,A*4F
$GPRMC,021814.000,A,3258.6840,N,11703.8741,W,49.57,241.20,101210,,,A*43
$GPRMC,021817.000,A,3258.6579,N,11703.9116,W,48.60,228.50,101210,,,A*4F
$GPRMC,021820.000,A,3258.6256,N,11703.9419,W,49.08,216.90,101210,,,A*45
$GPRMC,021823.000,A,3258.5908,N,11703.9674,W,48.11,208.90,101210,,,A*4A
$GPRMC,021825.000,A,3258.5670,N,11703.9829,W,48.11,207.60,101210,,,A*4A
$GPRMC,021829.000,A,3258.5313,N,11704.0038,W,46.65,206.20,101210,,,A*48
$GPRMC,021832.000,A,3258.4867,N,11704.0308,W,44.71,208.20,101210,,,A*42
$GPRMC,021835.000,A,3258.4578,N,11704.0556,W,44.71,216.70,101210,,,A*41
$GPRMC,021838.000,A,3258.4282,N,11704.0869,W,47.63,222.60,101210,,,A*49
$GPRMC,021841.000,A,3258.3987,N,11704.1221,W,51.03,224.70,101210,,,A*4F
$GPRMC,021844.000,A,3258.3669,N,11704.1578,W,51.51,222.90,101210,,,A*41
$GPRMC,021847.000,A,3258.3367,N,11704.1938,W,52.49,226.80,101210,,,A*4E
$GPRMC,021850.000,A,3258.3106,N,11704.2363,W,52.97,235.90,101210,,,A*4A
$GPRMC,021853.000,A,3258.2914,N,11704.2822,W,50.54,245.70,101210,,,A*49
$GPRMC,021856.000,A,3258.2800,N,11704.3304,W,49.58,256.10,101210,,,A*46
$GPRMC,021858.000,A,3258.2764,N,11704.3622,W,48.11,262.20,101210,,,A*4C
$GPRMC,021902.000,A,3258.2793,N,11704.4276,W,48.60,273.80,101210,,,A*44
$GPRMC,021905.000,A,3258.2824,N,11704.4759,W,49.08,275.20,101210,,,A*4B
$GPRMC,021908.000,A,3258.2856,N,11704.5247,W,50.54,275.10,101210,,,A*4A
$GPRMC,021911.000,A,3258.2901,N,11704.5752,W,51.51,274.50,101210,,,A*41
$GPRMC,021914.000,A,3258.2900,N,11704.6260,W,52.00,271.00,101210,,,A*45
$GPRMC,021917.000,A,3258.2869,N,11704.6778,W,51.51,264.40,101210,,,A*43
$GPRMC,021920.000,A,3258.2792,N,11704.7119,W,52.00,256.50,101210,,,A*4B
$GPRMC,021923.000,A,3258.2580,N,11704.7765,W,53.94,244.70,101210,,,A*49
$GPRMC,021926.000,A,3258.2337,N,11704.8180,W,52.50,233.70,101210,,,A*4D
$GPRMC,021929.000,A,3258.2023,N,11704.8585,W,55.40,225.00,101210,,,A*43
$GPRMC,021932.000,A,3258.1675,N,11704.8962,W,55.40,223.20,101210,,,A*4E
$GPRMC,021935.000,A,3258.1351,N,11704.9314,W,51.51,222.40,101210,,,A*43
$GPRMC,021938.000,A,3258.1046,N,11704.9649,W,50.54,224.00,101210,,,A*40
$GPRMC,021941.000,A,3258.0756,N,11705.0023,W,51.51,227.50,101210,,,A*49
$GPRMC,021943.000,A,3258.0563,N,11705.0292,W,52.97,229.20,101210,,,A*47
$GPRMC,021947.000,A,3258.0200,N,11705.0819,W,51.03,232.60,101210,,,A*48
$GPRMC,021950.000,A,3257.9952,N,11705.1224,W,52.00,234.20,101210,,,A*43
$GPRMC,021953.000,A,3257.9707,N,11705.1656,W,52.00,234.20,101210,,,A*4F
$GPRMC,021956.000,A,3257.9451,N,11705.2080,W,52.49,233.80,101210,,,A*44
$GPRMC,021959.000,A,3257.9228,N,11705.2501,W,51.52,240.60,101210,,,A*4C
$GPRMC,022002.000,A,3257.9069,N,11705.2971,W,51.51,249.90,101210,,,A*41
$GPRMC,022005.000,A,3257.8964,N,11705.3443,W,49.57,258.60,101210,,,A*4E
$GPRMC,022008.000,A,3257.8960,N,11705.3943,W,49.08,269.80,101210,,,A*4C
$GPRMC,022011.000,A,3257.8993,N,11705.4433,W,49.08,273.70,101210,,,A*41
$GPRMC,022014.000,A,3257.9009,N,11705.4934,W,50.06,272.50,101210,,,A*40
$GPRMC,022017.000,A,3257.8993,N,11705.5414,W,49.08,266.40,101210,,,A*44
$GPRMC,022021.000,A,3257.8942,N,11705.6020,W,47.14,265.00,101210,,,A*49
$GPRMC,022024.000,A,3257.8910,N,11705.6486,W,47.14,264.30,101210,,,A*41
$GPRMC,022027.000,A,3257.8864,N,11705.6959,W,47.63,263.60,101210,,,A*4D
$GPRMC,022029.000,A,3257.8837,N,11705.7245,W,41.79,263.10,101210,,,A*48
$GPRMC,022033.000,A,3257.8783,N,11705.7636,W,23.81,261.10,101210,,,A*42
$GPRMC,022036.000,A,3257.8763,N,11705.7752,W,16.52,258.50,101210,,,A*4C
$GPRMC,022051.000,A,3257.8749,N,11705.7875,W,11.66,254.40,101210,,,A*42
$GPRMC,022054.000,A,3257.8711,N,11705.8068,W,24.30,253.40,101210,,,A*43
$GPRMC,022057.000,A,3257.8620,N,11705.8374,W,34.50,247.30,101210,,,A*48
$GPRMC,022100.000,A,3257.8483,N,11705.8742,W,41.79,245.10,101210,,,A*48
$GPRMC,022104.000,A,3257.8311,N,11705.9158,W,47.14,244.10,101210,,,A*40
$GPRMC,022107.000,A,3257.8090,N,11705.9719,W,46.65,244.50,101210,,,A*49
$GPRMC,022110.000,A,3257.7919,N,11706.0136,W,47.63,244.90,101210,,,A*42
$GPRMC,022113.000,A,3257.7764,N,11706.0558,W,46.65,246.90,101210,,,A*4C
$GPRMC,022116.000,A,3257.7603,N,11706.1029,W,50.06,248.20,101210,,,A*4C
$GPRMC,022119.000,A,3257.7443,N,11706.1511,W,53.46,248.50,101210,,,A*4B
$GPRMC,022122.000,A,3257.7286,N,11706.2030,W,55.89,250.20,101210,,,A*42
$GPRMC,022125.000,A,3257.7111,N,11706.2553,W,56.37,248.60,101210,,,A*43
$GPRMC,022128.000,A,3257.7001,N,11706.2906,W,56.37,248.90,101210,,,A*4D
$GPRMC,022131.000,A,3257.6757,N,11706.3637,W,61.23,247.90,101210,,,A*42
$GPRMC,022134.000,A,3257.6566,N,11706.4187,W,61.23,247.70,101210,,,A*42
$GPRMC,022137.000,A,3257.6429,N,11706.4583,W,61.72,248.00,101210,,,A*47
$GPRMC,022140.000,A,3257.6181,N,11706.5330,W,61.72,248.60,101210,,,A*49
$GPRMC,022143.000,A,3257.5989,N,11706.5899,W,61.72,248.10,101210,,,A*46
$GPRMC,022146.000,A,3257.5791,N,11706.6457,W,61.72,248.00,101210,,,A*48
$GPRMC,022149.000,A,3257.5600,N,11706.7021,W,61.23,248.60,101210,,,A*48
$GPRMC,022152.000,A,3257.5412,N,11706.7587,W,60.75,247.80,101210,,,A*49
$GPRMC,022155.000,A,3257.5241,N,11706.8143,W,59.29,248.70,101210,,,A*4E
$GPRMC,022158.000,A,3257.5063,N,11706.8687,W,58.32,248.30,101210,,,A*41
$GPRMC,022201.000,A,3257.4876,N,11706.9243,W,59.29,248.50,101210,,,A*43
$GPRMC,022204.000,A,3257.4681,N,11706.9786,W,58.80,247.80,101210,,,A*4C
$GPRMC,022207.000,A,3257.4504,N,11707.0318,W,58.80,248.70,101210,,,A*4A
$GPRMC,022211.000,A,3257.4277,N,11707.1034,W,58.80,249.00,101210,,,A*44
$GPRMC,022214.000,A,3257.4092,N,11707.1568,W,59.78,247.80,101210,,,A*44
$GPRMC,022217.000,A,3257.3900,N,11707.2159,W,62.21,247.40,101210,,,A*4F
$GPRMC,022220.000,A,3257.3706,N,11707.2709,W,61.23,247.20,101210,,,A*47
$GPRMC,022223.000,A,3257.3511,N,11707.3314,W,63.66,248.80,101210,,,A*4F
$GPRMC,022226.000,A,3257.3327,N,11707.3900,W,63.66,250.40,101210,,,A*43
$GPRMC,022229.000,A,3257.3157,N,11707.4485,W,63.18,252.00,101210,,,A*41
$GPRMC,022232.000,A,3257.2994,N,11707.5094,W,64.15,253.30,101210,,,A*40
$GPRMC,022235.000,A,3257.2857,N,11707.5710,W,65.12,255.30,101210,,,A*42
$GPRMC,022238.000,A,3257.2729,N,11707.6360,W,67.07,256.70,101210,,,A*48
$GPRMC,022241.000,A,3257.2602,N,11707.7012,W,67.07,257.10,101210,,,A*4E
$GPRMC,022244.000,A,3257.2488,N,11707.7667,W,67.55,259.00,101210,,,A*47
$GPRMC,022247.000,A,3257.2394,N,11707.8322,W,69.01,259.50,101210,,,A*4F
$GPRMC,022250.000,A,3257.2294,N,11707.8998,W,70.47,260.80,101210,,,A*4E
$GPRMC,022252.000,A,3257.2238,N,11707.9445,W,69.50,262.10,101210,,,A*43
$GPRMC,022256.000,A,3257.2163,N,11708.0323,W,64.64,264.10,101210,,,A*47
$GPRMC,022259.000,A,3257.2130,N,11708.0937,W,61.72,266.40,101210,,,A*44
$GPRMC,022302.000,A,3257.2084,N,11708.1534,W,61.23,265.90,101210,,,A*41
$GPRMC,022305.000,A,3257.2071,N,11708.2139,W,60.75,268.40,101210,,,A*44
$GPRMC,022308.000,A,3257.2064,N,11708.2744,W,60.75,269.60,101210,,,A*42
$GPRMC,022312.000,A,3257.2067,N,11708.3530,W,60.26,270.30,101210,,,A*41
$GPRMC,022315.000,A,3257.2080,N,11708.4127,W,59.78,271.90,101210,,,A*40
$GPRMC,022318.000,A,3257.2104,N,11708.4699,W,58.80,272.80,101210,,,A*46
$GPRMC,022321.000,A,3257.2154,N,11708.5267,W,58.32,275.70,101210,,,A*4C
$GPRMC,022325.000,A,3257.2246,N,11708.6053,W,58.80,279.90,101210,,,A*45
$GPRMC,022329.000,A,3257.2413,N,11708.6800,W,59.29,285.20,101210,,,A*4B
$GPRMC,022332.000,A,3257.2578,N,11708.7317,W,58.32,289.70,101210,,,A*43
$GPRMC,022335.000,A,3257.2779,N,11708.7845,W,59.29,295.30,101210,,,A*49
$GPRMC,022338.000,A,3257.3021,N,11708.8362,W,59.78,298.60,101210,,,A*42
$GPRMC,022341.000,A,3257.3291,N,11708.8844,W,59.29,303.40,101210,,,A*4F
$GPRMC,022344.000,A,3257.3575,N,11708.9311,W,58.32,306.70,101210,,,A*40
$GPRMC,022347.000,A,3257.3891,N,11708.9747,W,57.83,311.90,101210,,,A*4E
$GPRMC,022350.000,A,3257.4233,N,11709.0151,W,58.32,315.70,101210,,,A*4B
$GPRMC,022353.000,A,3257.4598,N,11709.0545,W,59.29,317.30,101210,,,A*42
$GPRMC,022356.000,A,3257.4943,N,11709.0933,W,57.35,315.60,101210,,,A*44
$GPRMC,022359.000,A,3257.5277,N,11709.1371,W,58.80,312.30,101210,,,A*48
$GPRMC,022402.000,A,3257.5578,N,11709.1835,W,58.32,307.90,101210,,,A*45
$GPRMC,022405.000,A,3257.5866,N,11709.2282,W,58.32,305.00,101210,,,A*4E
$GPRMC,022408.000,A,3257.6131,N,11709.2789,W,58.80,301.30,101210,,,A*4B
$GPRMC,022411.000,A,3257.6359,N,11709.3304,W,58.80,298.60,101210,,,A*4B
$GPRMC,022415.000,A,3257.6696,N,11709.3968,W,59.29,300.60,101210,,,A*4B
$GPRMC,022418.000,A,3257.6933,N,11709.4481,W,59.29,299.50,101210,,,A*49
$GPRMC,022421.000,A,3257.7184,N,11709.5007,W,59.78,299.40,101210,,,A*48
$GPRMC,022425.000,A,3257.7504,N,11709.5729,W,60.26,299.20,101210,,,A*4C
$GPRMC,022428.000,A,3257.7748,N,11709.6262,W,61.23,298.70,101210,,,A*42
$GPRMC,022431.000,A,3257.8009,N,11709.6786,W,61.72,299.30,101210,,,A*49
$GPRMC,022434.000,A,3257.8262,N,11709.7300,W,60.75,299.80,101210,,,A*45
$GPRMC,022436.000,A,3257.8431,N,11709.7642,W,60.75,299.50,101210,,,A*49
$GPRMC,022440.000,A,3257.8757,N,11709.8356,W,61.72,298.70,101210,,,A*41
$GPRMC,022443.000,A,3257.9014,N,11709.8855,W,60.75,300.10,101210,,,A*4B
$GPRMC,022446.000,A,3257.9279,N,11709.9357,W,60.75,300.90,101210,,,A*47
$GPRMC,022449.000,A,3257.9519,N,11709.9888,W,60.75,299.50,101210,,,A*4D
$GPRMC,022452.000,A,3257.9675,N,11710.0247,W,60.75,298.20,101210,,,A*40
$GPRMC,022455.000,A,3257.9944,N,11710.0963,W,58.80,293.90,101210,,,A*46
$GPRMC,022458.000,A,3258.0142,N,11710.1506,W,60.26,289.90,101210,,,A*41
$GPRMC,022501.000,A,3258.0247,N,11710.2080,W,60.26,282.10,101210,,,A*41
$GPRMC,022504.000,A,3258.0329,N,11710.2673,W,60.26,277.90,101210,,,A*45
$GPRMC,022507.000,A,3258.0362,N,11710.3271,W,59.78,273.10,101210,,,A*43
$GPRMC,022510.000,A,3258.0359,N,11710.3847,W,58.80,268.00,101210,,,A*4F
$GPRMC,022513.000,A,3258.0298,N,11710.4429,W,58.80,262.80,101210,,,A*41
$GPRMC,022516.000,A,3258.0215,N,11710.4984,W,57.35,258.10,101210,,,A*4A
$GPRMC,022519.000,A,3258.0083,N,11710.5527,W,57.35,253.60,101210,,,A*40
$GPRMC,022522.000,A,3257.9915,N,11710.6071,W,58.32,248.90,101210,,,A*40
$GPRMC,022525.000,A,3257.9717,N,11710.6596,W,57.83,244.10,101210,,,A*46
$GPRMC,022528.000,A,3257.9462,N,11710.7104,W,58.80,238.50,101210,,,A*47
$GPRMC,022531.000,A,3257.9171,N,11710.7588,W,59.78,233.60,101210,,,A*46
$GPRMC,022534.000,A,3257.8863,N,11710.8043,W,58.80,229.50,101210,,,A*4B
$GPRMC,022537.000,A,3257.8502,N,11710.8480,W,60.75,224.60,101210,,,A*46
$GPRMC,022540.000,A,3257.8128,N,11710.8858,W,60.26,219.20,101210,,,A*4F
$GPRMC,022543.000,A,3257.7709,N,11710.9197,W,61.72,213.70,101210,,,A*42
$GPRMC,022546.000,A,3257.7266,N,11710.9524,W,61.72,209.60,101210,,,A*4D
$GPRMC,022549.000,A,3257.6938,N,11710.9704,W,62.21,206.00,101210,,,A*4F
$GPRMC,022552.000,A,3257.6344,N,11711.0028,W,59.78,205.50,101210,,,A*47
$GPRMC,022555.000,A,3257.5911,N,11711.0299,W,59.29,207.20,101210,,,A*40
$GPRMC,022558.000,A,3257.5468,N,11711.0558,W,58.80,205.80,101210,,,A*4E
$GPRMC,022600.000,A,3257.5179,N,11711.0719,W,58.80,206.30,101210,,,A*4A
$GPRMC,022604.000,A,3257.4701,N,11711.1029,W,58.33,211.80,101210,,,A*46
$GPRMC,022608.000,A,3257.4179,N,11711.1460,W,57.84,216.80,101210,,,A*4E
$GPRMC,022611.000,A,3257.3839,N,11711.1785,W,57.35,219.90,101210,,,A*40
$GPRMC,022614.000,A,3257.3373,N,11711.2303,W,57.35,224.70,101210,,,A*49
$GPRMC,022617.000,A,3257.3150,N,11711.2586,W,57.83,227.80,101210,,,A*43
$GPRMC,022620.000,A,3257.2765,N,11711.3166,W,57.35,233.30,101210,,,A*4E
$GPRMC,022623.000,A,3257.2499,N,11711.3647,W,57.83,237.80,101210,,,A*4B
$GPRMC,022626.000,A,3257.2270,N,11711.4135,W,57.83,241.80,101210,,,A*4B
$GPRMC,022629.000,A,3257.2066,N,11711.4646,W,57.83,246.10,101210,,,A*4C
$GPRMC,022632.000,A,3257.1879,N,11711.5175,W,58.32,247.50,101210,,,A*45
$GPRMC,022635.000,A,3257.1708,N,11711.5713,W,58.80,248.30,101210,,,A*4D
$GPRMC,022638.000,A,3257.1521,N,11711.6260,W,58.80,248.20,101210,,,A*4A
$GPRMC,022641.000,A,3257.1344,N,11711.6804,W,59.29,248.00,101210,,,A*49
$GPRMC,022644.000,A,3257.1146,N,11711.7342,W,59.78,247.20,101210,,,A*4D
$GPRMC,022647.000,A,3257.0978,N,11711.7893,W,58.80,249.10,101210,,,A*46
$GPRMC,022651.000,A,3257.0742,N,11711.8600,W,58.80,248.30,101210,,,A*4E
$GPRMC,022654.000,A,3257.0552,N,11711.9152,W,59.29,247.80,101210,,,A*4F
$GPRMC,022657.000,A,3257.0372,N,11711.9704,W,59.29,249.00,101210,,,A*4B
$GPRMC,022700.000,A,3257.0180,N,11712.0247,W,60.26,247.60,101210,,,A*42
$GPRMC,022703.000,A,3256.9983,N,11712.0806,W,60.26,246.60,101210,,,A*4C
$GPRMC,022706.000,A,3256.9787,N,11712.1349,W,60.26,245.10,101210,,,A*46
$GPRMC,022709.000,A,3256.9554,N,11712.1866,W,59.78,240.80,101210,,,A*4E
$GPRMC,022712.000,A,3256.9270,N,11712.2371,W,60.75,236.60,101210,,,A*43
$GPRMC,022715.000,A,3256.8978,N,11712.2885,W,62.21,234.90,101210,,,A*48
$GPRMC,022718.000,A,3256.8680,N,11712.3376,W,61.72,233.90,101210,,,A*49
$GPRMC,022721.000,A,3256.8385,N,11712.3881,W,62.69,235.70,101210,,,A*41
$GPRMC,022724.000,A,3256.8122,N,11712.4401,W,61.72,239.50,101210,,,A*4F
$GPRMC,022727.000,A,3256.7892,N,11712.4936,W,61.72,243.40,101210,,,A*44
$GPRMC,022730.000,A,3256.7708,N,11712.5502,W,61.72,247.80,101210,,,A*4C
$GPRMC,022733.000,A,3256.7524,N,11712.6044,W,59.78,248.30,101210,,,A*42
$GPRMC,022736.000,A,3256.7341,N,11712.6591,W,59.78,247.30,101210,,,A*40
$GPRMC,022740.000,A,3256.7078,N,11712.7318,W,59.78,246.50,101210,,,A*49
$GPRMC,022743.000,A,3256.6859,N,11712.7826,W,58.80,241.90,101210,,,A*4B
$GPRMC,022746.000,A,3256.6579,N,11712.8323,W,59.29,233.60,101210,,,A*48
$GPRMC,022748.000,A,3256.6371,N,11712.8631,W,59.29,230.40,101210,,,A*4F
$GPRMC,022753.000,A,3256.5913,N,11712.9175,W,60.26,226.40,101210,,,A*4C
$GPRMC,022756.000,A,3256.5464,N,11712.9777,W,60.75,230.70,101210,,,A*42
$GPRMC,022759.000,A,3256.5201,N,11713.0264,W,59.78,238.90,101210,,,A*46
$GPRMC,022802.000,A,3256.5005,N,11713.0798,W,58.80,246.50,101210,,,A*44
$GPRMC,022805.000,A,3256.4833,N,11713.1340,W,58.80,249.10,101210,,,A*44
$GPRMC,022808.000,A,3256.4651,N,11713.1881,W,58.80,248.90,101210,,,A*4C
$GPRMC,022811.000,A,3256.4447,N,11713.2424,W,60.26,244.80,101210,,,A*4B
$GPRMC,022814.000,A,3256.4203,N,11713.2932,W,60.26,238.30,101210,,,A*42
$GPRMC,022817.000,A,3256.3904,N,11713.3432,W,60.75,235.00,101210,,,A*4E
$GPRMC,022820.000,A,3256.3625,N,11713.3919,W,59.29,236.10,101210,,,A*43
$GPRMC,022823.000,A,3256.3374,N,11713.4394,W,56.37,240.00,101210,,,A*49
$GPRMC,022826.000,A,3256.3185,N,11713.4887,W,54.92,247.00,101210,,,A*43
$GPRMC,022829.000,A,3256.3023,N,11713.5415,W,55.89,251.70,101210,,,A*4C
$GPRMC,022832.000,A,3256.2880,N,11713.5937,W,54.92,252.90,101210,,,A*4D
$GPRMC,022835.000,A,3256.2765,N,11713.6451,W,52.49,253.50,101210,,,A*4D
$GPRMC,022838.000,A,3256.2637,N,11713.6929,W,51.03,249.70,101210,,,A*40
$GPRMC,022841.000,A,3256.2480,N,11713.7390,W,50.54,247.40,101210,,,A*47
$GPRMC,022845.000,A,3256.2291,N,11713.7858,W,52.01,244.90,101210,,,A*46
$GPRMC,022848.000,A,3256.2049,N,11713.8492,W,52.00,245.80,101210,,,A*48
$GPRMC,022851.000,A,3256.1880,N,11713.8932,W,50.54,245.40,101210,,,A*46
$GPRMC,022854.000,A,3256.1713,N,11713.9402,W,51.03,245.90,101210,,,A*47
$GPRMC,022857.000,A,3256.1541,N,11713.9871,W,51.03,246.70,101210,,,A*44
$GPRMC,022900.000,A,3256.1370,N,11714.0335,W,51.04,247.30,101210,,,A*44
$GPRMC,022904.000,A,3256.1184,N,11714.0947,W,45.68,252.10,101210,,,A*4F
$GPRMC,022907.000,A,3256.1123,N,11714.1215,W,41.79,253.60,101210,,,A*4E
$GPRMC,022910.000,A,3256.1001,N,11714.1710,W,36.45,253.60,101210,,,A*46
$GPRMC,022913.000,A,3256.0932,N,11714.1954,W,23.33,248.60,101210,,,A*4C
$GPRMC,022916.000,A,3256.0877,N,11714.2062,W,8.26,236.70,101210,,,A*73
$GPRMC,023008.000,A,3256.0855,N,11714.2154,W,11.22,238.00,101210,,,A*45
$GPRMC,023010.000,A,3256.0768,N,11714.2260,W,17.50,219.20,101210,,,A*4B
$GPRMC,023014.000,A,3256.0552,N,11714.2263,W,19.93,179.60,101210,,,A*47
$GPRMC,023018.000,A,3256.0162,N,11714.1988,W,45.68,159.70,101210,,,A*4F
$GPRMC,023021.000,A,3255.9645,N,11714.1877,W,47.14,174.20,101210,,,A*4F
$GPRMC,023024.000,A,3255.9255,N,11714.1894,W,46.17,184.70,101210,,,A*4A
$GPRMC,023027.000,A,3255.9008,N,11714.1955,W,44.71,191.50,101210,,,A*4B
$GPRMC,023030.000,A,3255.8543,N,11714.2186,W,45.68,207.00,101210,,,A*43
$GPRMC,023033.000,A,3255.8211,N,11714.2400,W,44.71,209.70,101210,,,A*4B
$GPRMC,023036.000,A,3255.7891,N,11714.2625,W,45.20,209.50,101210,,,A*41
$GPRMC,023039.000,A,3255.7537,N,11714.2789,W,44.71,200.00,101210,,,A*41
$GPRMC,023042.000,A,3255.7203,N,11714.2905,W,39.36,192.00,101210,,,A*46
$GPRMC,023045.000,A,3255.6894,N,11714.2924,W,32.56,182.10,101210,,,A*4A
$GPRMC,023048.000,A,3255.6710,N,11714.2905,W,21.38,174.70,101210,,,A*42
$GPRMC,023051.000,A,3255.6633,N,11714.2899,W,8.75,176.20,101210,,,A*7B
$GPRMC,023106.000,A,3255.6621,N,11714.2904,W,4.86,174.60,101210,,,A*78
$GPRMC,023109.000,A,3255.6508,N,11714.2889,W,16.04,172.40,101210,,,A*46
$GPRMC,023112.000,A,3255.6317,N,11714.2864,W,22.84,173.30,101210,,,A*4E
$GPRMC,023115.000,A,3255.5998,N,11714.2720,W,36.93,159.20,101210,,,A*42
$GPRMC,023118.000,A,3255.5684,N,11714.2517,W,42.77,150.40,101210,,,A*4D
$GPRMC,023121.000,A,3255.5493,N,11714.2341,W,44.22,143.90,101210,,,A*4F
$GPRMC,023124.000,A,3255.5101,N,11714.1925,W,48.60,133.90,101210,,,A*42
$GPRMC,023127.000,A,3255.4850,N,11714.1539,W,49.57,127.90,101210,,,A*4C
$GPRMC,023130.000,A,3255.4723,N,11714.1075,W,49.08,111.70,101210,,,A*4D
$GPRMC,023133.000,A,3255.4604,N,11714.0600,W,48.60,107.50,101210,,,A*45
$GPRMC,023136.000,A,3255.4494,N,11714.0152,W,47.63,106.80,101210,,,A*4B
$GPRMC,023139.000,A,3255.4366,N,11713.9723,W,46.65,107.80,101210,,,A*46
$GPRMC,023142.000,A,3255.4261,N,11713.9247,W,48.11,105.80,101210,,,A*44
$GPRMC,023145.000,A,3255.4134,N,11713.8801,W,47.14,107.00,101210,,,A*49
$GPRMC,023148.000,A,3255.4046,N,11713.8509,W,45.68,108.50,101210,,,A*46
$GPRMC,023151.000,A,3255.3877,N,11713.8026,W,40.34,114.50,101210,,,A*4A
$GPRMC,023154.000,A,3255.3717,N,11713.7719,W,35.96,121.60,101210,,,A*4D
$GPRMC,023157.000,A,3255.3561,N,11713.7474,W,28.19,127.00,101210,,,A*4E
$GPRMC,023200.000,A,3255.3465,N,11713.7327,W,17.98,127.60,101210,,,A*48
$GPRMC,023202.000,A,3255.3430,N,11713.7264,W,11.66,126.40,101210,,,A*48
$GPRMC,023214.000,A,3255.3402,N,11713.7234,W,3.89,140.20,101210,,,A*7F
$GPRMC,023217.000,A,3255.3303,N,11713.7218,W,12.15,178.00,101210,,,A*48
$GPRMC,023221.000,A,3255.3080,N,11713.7465,W,30.13,230.10,101210,,,A*41
$GPRMC,023224.000,A,3255.2926,N,11713.7730,W,32.07,234.80,101210,,,A*49
$GPRMC,023227.000,A,3255.2782,N,11713.7972,W,26.24,231.10,101210,,,A*4A
$GPRMC,023230.000,A,3255.2665,N,11713.8151,W,20.90,233.70,101210,,,A*4F
$GPRMC,023233.000,A,3255.2605,N,11713.8274,W,12.64,235.50,101210,,,A*40
$GPRMC,023245.000,A,3255.2468,N,11713.8390,W,4.86,193.30,101210,,,A*71
$GPRMC,023254.000,A,3255.2524,N,11713.8402,W,9.23,227.80,101210,,,A*71
$GPRMC,023257.000,A,3255.2433,N,11713.8497,W,16.52,217.20,101210,,,A*48
$GPRMC,023300.000,A,3255.2279,N,11713.8509,W,19.93,174.40,101210,,,A*47
$GPRMC,023303.000,A,3255.2117,N,11713.8347,W,25.76,141.70,101210,,,A*42
$GPRMC,023305.000,A,3255.1986,N,11713.8237,W,28.67,143.80,101210,,,A*41
$GPRMC,023309.000,A,3255.1691,N,11713.7999,W,32.07,149.20,101210,,,A*49
$GPRMC,023312.000,A,3255.1406,N,11713.7842,W,38.39,160.60,101210,,,A*40
$GPRMC,023315.000,A,3255.1052,N,11713.7747,W,43.74,170.60,101210,,,A*4C
$GPRMC,023318.000,A,3255.0673,N,11713.7735,W,44.72,178.70,101210,,,A*48
$GPRMC,023321.000,A,3255.0295,N,11713.7787,W,44.71,185.10,101210,,,A*40
$GPRMC,023324.000,A,3254.9919,N,11713.7801,W,44.71,181.20,101210,,,A*44
$GPRMC,023327.000,A,3254.9579,N,11713.7764,W,41.79,173.00,101210,,,A*43
$GPRMC,023329.000,A,3254.9348,N,11713.7713,W,41.31,167.40,101210,,,A*44
$GPRMC,023333.000,A,3254.8919,N,11713.7521,W,41.79,155.50,101210,,,A*4F
$GPRMC,023336.000,A,3254.8605,N,11713.7323,W,43.25,151.80,101210,,,A*4E
$GPRMC,023340.000,A,3254.8157,N,11713.7009,W,45.68,151.30,101210,,,A*40
$GPRMC,023343.000,A,3254.7801,N,11713.6792,W,46.65,153.60,101210,,,A*4B
$GPRMC,023346.000,A,3254.7475,N,11713.6611,W,45.20,154.40,101210,,,A*4C
$GPRMC,023350.000,A,3254.6996,N,11713.6346,W,48.11,154.10,101210,,,A*47
$GPRMC,023353.000,A,3254.6618,N,11713.6136,W,49.57,153.50,101210,,,A*48
$GPRMC,023356.000,A,3254.6258,N,11713.5927,W,49.57,154.10,101210,,,A*45
$GPRMC,023359.000,A,3254.5878,N,11713.5661,W,51.51,150.50,101210,,,A*43
$GPRMC,023402.000,A,3254.5497,N,11713.5393,W,52.00,149.20,101210,,,A*47
$GPRMC,023405.000,A,3254.5139,N,11713.5137,W,51.03,148.60,101210,,,A*48
$GPRMC,023408.000,A,3254.4782,N,11713.4874,W,50.54,148.10,101210,,,A*49
$GPRMC,023411.000,A,3254.4418,N,11713.4601,W,50.06,149.80,101210,,,A*42
$GPRMC,023414.000,A,3254.4051,N,11713.4399,W,48.60,156.60,101210,,,A*43
$GPRMC,023417.000,A,3254.3665,N,11713.4238,W,49.08,164.00,101210,,,A*44
$GPRMC,023420.000,A,3254.3240,N,11713.4112,W,50.54,165.60,101210,,,A*4E
$GPRMC,023423.000,A,3254.2887,N,11713.3973,W,46.17,161.00,101210,,,A*47
$GPRMC,023426.000,A,3254.2571,N,11713.3816,W,41.79,154.00,101210,,,A*4D
$GPRMC,023429.000,A,3254.2298,N,11713.3622,W,38.88,147.70,101210,,,A*4E
$GPRMC,023432.000,A,3254.2046,N,11713.3397,W,36.93,143.80,101210,,,A*41
$GPRMC,023435.000,A,3254.1854,N,11713.3202,W,30.13,139.90,101210,,,A*41
$GPRMC,023438.000,A,3254.1701,N,11713.3053,W,22.84,143.30,101210,,,A*4F
$GPRMC,023441.000,A,3254.1616,N,11713.2983,W,13.12,144.90,101210,,,A*43
$GPRMC,023505.000,A,3254.1550,N,11713.2892,W,8.26,148.40,101210,,,A*7E
$GPRMC,023509.000,A,3254.1363,N,11713.2693,W,24.30,135.30,101210,,,A*4F
$GPRMC,023512.000,A,3254.1155,N,11713.2479,W,33.53,139.50,101210,,,A*4D
$GPRMC,023515.000,A,3254.0898,N,11713.2255,W,36.93,139.10,101210,,,A*46
$GPRMC,023518.000,A,3254.0661,N,11713.2003,W,38.88,137.60,101210,,,A*4F
$GPRMC,023521.000,A,3254.0411,N,11713.1750,W,39.85,139.40,101210,,,A*42
$GPRMC,023524.000,A,3254.0153,N,11713.1487,W,40.34,139.60,101210,,,A*4B
$GPRMC,023527.000,A,3253.9900,N,11713.1246,W,38.88,140.10,101210,,,A*42
$GPRMC,023530.000,A,3253.9668,N,11713.1007,W,35.96,140.10,101210,,,A*40
$GPRMC,023533.000,A,3253.9459,N,11713.0819,W,30.62,140.40,101210,,,A*4E
$GPRMC,023536.000,A,3253.9310,N,11713.0671,W,21.38,139.20,101210,,,A*46
$GPRMC,023539.000,A,3253.9231,N,11713.0626,W,9.72,142.70,101210,,,A*74
$GPRMC,023603.000,A,3253.9193,N,11713.0595,W,1.46,143.20,101210,,,A*75
$GPRMC,023606.000,A,3253.9139,N,11713.0461,W,14.58,113.00,101210,,,A*46
$GPRMC,023609.000,A,3253.9188,N,11713.0295,W,18.95,71.10,101210,,,A*77
$GPRMC,023612.000,A,3253.9484,N,11713.0022,W,40.82,40.40,101210,,,A*76
$GPRMC,023615.000,A,3253.9832,N,11712.9803,W,47.14,27.80,101210,,,A*76
