NMEA Sentence Code,UTC Time,Status,Latitude,Latitude Direction,Longitude,Longitude Direction,Speed (knots),Track Angle (degrees true),Date,MagneticVariation,Magnetic Variation Direction,[FAA Mode]-Optional,Checksum
$GPRMC,184007.9,A,3337.078077,N,11749.218101,W,60.5,149.3,010110,,,A*48
$GPRMC,184010.9,A,3337.030676,N,11749.194191,W,62.1,157.5,010110,,,A*44
$GPRMC,184013.9,A,3336.983064,N,11749.170919,W,61.7,158.1,010110,,,A*4E
$GPRMC,184016.9,A,3336.935766,N,11749.150214,W,61.7,159.0,010110,,,A*47
$GPRMC,184019.9,A,3336.889030,N,11749.126389,W,62.0,157.8,010110,,,A*4C
$GPRMC,184022.9,A,3336.842596,N,11749.102229,W,62.4,156.0,010110,,,A*4A
$GPRMC,184025.9,A,3336.798783,N,11749.074349,W,61.0,150.5,010110,,,A*40
$GPRMC,184028.9,A,3336.758456,N,11749.039382,W,62.2,145.1,010110,,,A*45
$GPRMC,184031.9,A,3336.716272,N,11748.999094,W,64.4,139.6,010110,,,A*4D
$GPRMC,184034.9,A,3336.682337,N,11748.956859,W,61.9,133.6,010110,,,A*4C
$GPRMC,184037.9,A,3336.649855,N,11748.909616,W,61.6,128.5,010110,,,A*4E
$GPRMC,184040.9,A,3336.621215,N,11748.860228,W,61.1,124.0,010110,,,A*47
$GPRMC,184043.9,A,3336.601195,N,11748.809626,W,59.4,116.9,010110,,,A*4E
$GPRMC,184046.9,A,3336.579156,N,11748.753980,W,61.8,113.6,010110,,,A*46
$GPRMC,184049.9,A,3336.568394,N,11748.696085,W,60.5,106.1,010110,,,A*4E
$GPRMC,184052.9,A,3336.560402,N,11748.634157,W,62.5,100.5,010110,,,A*42
$GPRMC,184055.9,A,3336.555656,N,11748.572637,W,62.4,97.9,010110,,,A*72
$GPRMC,184058.9,A,3336.546342,N,11748.512932,W,61.4,99.9,010110,,,A*7C
$GPRMC,184101.9,A,3336.539824,N,11748.453845,W,61.2,99.2,010110,,,A*7A
$GPRMC,184104.2,A,3336.532669,N,11748.407233,W,61.6,100.1,010110,,,A*44
$GPRMC,184107.2,A,3336.521718,N,11748.348070,W,61.6,105.8,010110,,,A*47
$GPRMC,184110.2,A,3336.504473,N,11748.290320,W,61.6,111.7,010110,,,A*40
$GPRMC,184113.9,A,3336.477567,N,11748.220653,W,62.4,115.9,010110,,,A*48
$GPRMC,184116.9,A,3336.453580,N,11748.162742,W,63.0,115.5,010110,,,A*4F
$GPRMC,184119.9,A,3336.432188,N,11748.106462,W,62.1,115.2,010110,,,A*4F
$GPRMC,184122.9,A,3336.411573,N,11748.052123,W,60.9,115.0,010110,,,A*4E
$GPRMC,184125.9,A,3336.389734,N,11747.997211,W,60.7,115.6,010110,,,A*4B
$GPRMC,184128.9,A,3336.370401,N,11747.944803,W,58.7,116.7,010110,,,A*4B
$GPRMC,184131.9,A,3336.345446,N,11747.893777,W,57.7,120.6,010110,,,A*4A
$GPRMC,184134.9,A,3336.318286,N,11747.845721,W,57.2,122.8,010110,,,A*4C
$GPRMC,184137.9,A,3336.300004,N,11747.802086,W,52.8,117.2,010110,,,A*44
$GPRMC,184140.9,A,3336.278819,N,11747.763921,W,45.2,123.3,010110,,,A*48
$GPRMC,184143.9,A,3336.263828,N,11747.730246,W,38.1,119.8,010110,,,A*44
$GPRMC,184146.9,A,3336.249469,N,11747.700585,W,34.2,119.5,010110,,,A*49
$GPRMC,184149.9,A,3336.237768,N,11747.673953,W,30.9,120.1,010110,,,A*4E
$GPRMC,184152.9,A,3336.229132,N,11747.651322,W,24.4,115.8,010110,,,A*49
$GPRMC,184155.9,A,3336.221469,N,11747.634447,W,20.4,122.4,010110,,,A*46
$GPRMC,184158.9,A,3336.215120,N,11747.626342,W,11.2,132.0,010110,,,A*44
$GPRMC,184255.9,A,3336.215785,N,11747.609415,W,10.5,110.3,010110,,,A*4E
$GPRMC,184258.9,A,3336.210072,N,11747.586098,W,24.7,105.8,010110,,,A*46
$GPRMC,184301.9,A,3336.198726,N,11747.553587,W,34.6,111.2,010110,,,A*42
$GPRMC,184304.2,A,3336.188787,N,11747.523374,W,43.5,110.5,010110,,,A*4E
$GPRMC,184307.2,A,3336.175022,N,11747.479678,W,50.0,109.0,010110,,,A*4A
$GPRMC,184310.0,A,3336.162777,N,11747.432903,W,52.2,105.8,010110,,,A*47
$GPRMC,184313.9,A,3336.148034,N,11747.366358,W,54.5,103.3,010110,,,A*4B
$GPRMC,184316.9,A,3336.142909,N,11747.309719,W,57.9,97.2,010110,,,A*79
$GPRMC,184319.9,A,3336.138040,N,11747.252003,W,59.9,95.3,010110,,,A*71
$GPRMC,184322.9,A,3336.135138,N,11747.190747,W,61.1,93.8,010110,,,A*7E
$GPRMC,184325.9,A,3336.128924,N,11747.126428,W,63.7,96.4,010110,,,A*7A
$GPRMC,184328.2,A,3336.124441,N,11747.077322,W,63.4,96.9,010110,,,A*78
$GPRMC,184331.2,A,3336.112479,N,11747.015215,W,63.0,105.8,010110,,,A*41
$GPRMC,184334.2,A,3336.096775,N,11746.955292,W,63.0,109.3,010110,,,A*42
$GPRMC,184337.2,A,3336.077596,N,11746.896386,W,63.1,113.2,010110,,,A*40
$GPRMC,184340.9,A,3336.050280,N,11746.825398,W,63.0,117.0,010110,,,A*4E
$GPRMC,184343.9,A,3336.024655,N,11746.768679,W,63.5,118.9,010110,,,A*4D
$GPRMC,184346.9,A,3335.997685,N,11746.716940,W,63.1,120.1,010110,,,A*4C
$GPRMC,184349.9,A,3335.975233,N,11746.659218,W,63.8,115.5,010110,,,A*41
$GPRMC,184352.9,A,3335.954088,N,11746.605613,W,60.2,110.8,010110,,,A*4D
$GPRMC,184355.9,A,3335.939661,N,11746.546393,W,60.5,105.0,010110,,,A*42
$GPRMC,184358.9,A,3335.930602,N,11746.488673,W,59.1,99.3,010110,,,A*72
$GPRMC,184401.9,A,3335.925759,N,11746.428002,W,60.4,95.3,010110,,,A*7B
$GPRMC,184404.9,A,3335.919674,N,11746.365972,W,61.6,95.4,010110,,,A*7B
$GPRMC,184407.9,A,3335.914923,N,11746.300374,W,64.0,96.0,010110,,,A*73
$GPRMC,184410.9,A,3335.903791,N,11746.239474,W,62.7,102.1,010110,,,A*44
$GPRMC,184413.9,A,3335.890829,N,11746.180536,W,60.6,106.6,010110,,,A*46
$GPRMC,184416.9,A,3335.875137,N,11746.121682,W,60.0,109.5,010110,,,A*43
$GPRMC,184419.9,A,3335.854145,N,11746.064869,W,60.5,114.8,010110,,,A*45
$GPRMC,184422.9,A,3335.818569,N,11746.012662,W,62.4,124.8,010110,,,A*4B
$GPRMC,184425.9,A,3335.787093,N,11745.962846,W,62.3,126.8,010110,,,A*45
$GPRMC,184428.9,A,3335.758119,N,11745.915873,W,61.4,127.3,010110,,,A*41
$GPRMC,184431.9,A,3335.721653,N,11745.865015,W,64.0,128.7,010110,,,A*4A
$GPRMC,184434.2,A,3335.694013,N,11745.829488,W,60.7,128.4,010110,,,A*41
$GPRMC,184437.2,A,3335.661516,N,11745.779136,W,63.7,128.7,010110,,,A*42
$GPRMC,184440.2,A,3335.628287,N,11745.728791,W,64.0,127.6,010110,,,A*41
$GPRMC,184443.2,A,3335.593011,N,11745.680140,W,63.2,128.1,010110,,,A*48
$GPRMC,184446.9,A,3335.550447,N,11745.617609,W,64.9,125.2,010110,,,A*48
$GPRMC,184449.9,A,3335.523574,N,11745.562313,W,63.2,118.3,010110,,,A*4E
$GPRMC,184452.9,A,3335.503551,N,11745.506006,W,62.2,111.7,010110,,,A*48
$GPRMC,184455.9,A,3335.486502,N,11745.449343,W,60.9,108.5,010110,,,A*4E
$GPRMC,184458.9,A,3335.476501,N,11745.391585,W,60.5,101.9,010110,,,A*48
$GPRMC,184501.9,A,3335.467365,N,11745.330600,W,61.9,100.3,010110,,,A*42
$GPRMC,184504.9,A,3335.459591,N,11745.271550,W,60.1,99.7,010110,,,A*79
$GPRMC,184507.9,A,3335.449517,N,11745.212116,W,61.5,100.5,010110,,,A*40
$GPRMC,184510.9,A,3335.443911,N,11745.151355,W,60.4,98.1,010110,,,A*73
$GPRMC,184513.9,A,3335.434698,N,11745.089169,W,62.1,100.0,010110,,,A*41
$GPRMC,184516.9,A,3335.427254,N,11745.030685,W,60.6,100.0,010110,,,A*40
$GPRMC,184519.9,A,3335.414823,N,11744.973673,W,60.1,103.8,010110,,,A*4F
$GPRMC,184522.9,A,3335.400634,N,11744.916163,W,61.1,106.8,010110,,,A*4B
$GPRMC,184525.9,A,3335.379648,N,11744.858537,W,61.5,112.7,010110,,,A*4E
$GPRMC,184528.9,A,3335.358758,N,11744.803654,W,60.6,114.9,010110,,,A*42
$GPRMC,184531.9,A,3335.332891,N,11744.748931,W,62.4,117.7,010110,,,A*4D
$GPRMC,184534.9,A,3335.314831,N,11744.695695,W,60.3,112.5,010110,,,A*44
$GPRMC,184537.9,A,3335.300555,N,11744.638279,W,61.0,107.7,010110,,,A*48
$GPRMC,184540.9,A,3335.287831,N,11744.576814,W,62.6,104.1,010110,,,A*41
$GPRMC,184543.9,A,3335.277399,N,11744.515866,W,62.0,100.8,010110,,,A*4F
$GPRMC,184546.9,A,3335.273699,N,11744.454954,W,61.4,95.8,010110,,,A*75
$GPRMC,184549.9,A,3335.267496,N,11744.394349,W,61.4,96.1,010110,,,A*75
$GPRMC,184552.9,A,3335.260999,N,11744.334407,W,61.0,97.4,010110,,,A*7D
$GPRMC,184555.9,A,3335.255275,N,11744.274847,W,61.1,96.9,010110,,,A*75
$GPRMC,184558.9,A,3335.249876,N,11744.213371,W,61.5,96.2,010110,,,A*7C
$GPRMC,184601.9,A,3335.245882,N,11744.152914,W,61.0,95.5,010110,,,A*7A
$GPRMC,184604.9,A,3335.237203,N,11744.090760,W,62.3,97.6,010110,,,A*7A
$GPRMC,184607.9,A,3335.229949,N,11744.030781,W,61.3,97.5,010110,,,A*76
$GPRMC,184611.2,A,3335.220320,N,11743.964638,W,61.1,101.1,010110,,,A*42
$GPRMC,184614.9,A,3335.203201,N,11743.892309,W,61.9,107.5,010110,,,A*4A
$GPRMC,184617.9,A,3335.186436,N,11743.833349,W,61.0,110.3,010110,,,A*43
$GPRMC,184620.9,A,3335.162736,N,11743.777597,W,62.0,115.7,010110,,,A*46
$GPRMC,184623.2,A,3335.138429,N,11743.737073,W,62.2,122.3,010110,,,A*45
$GPRMC,184626.2,A,3335.110738,N,11743.687473,W,60.2,124.6,010110,,,A*46
$GPRMC,184629.2,A,3335.076823,N,11743.639764,W,62.5,130.3,010110,,,A*48
$GPRMC,184632.2,A,3335.043706,N,11743.592773,W,62.7,130.7,010110,,,A*4E
$GPRMC,184636.2,A,3334.998140,N,11743.529115,W,63.3,130.8,010110,,,A*4C
$GPRMC,184639.2,A,3334.963483,N,11743.480835,W,63.1,130.2,010110,,,A*4C
$GPRMC,184642.2,A,3334.929606,N,11743.432855,W,63.0,130.4,010110,,,A*49
$GPRMC,184645.2,A,3334.895538,N,11743.385038,W,63.0,130.5,010110,,,A*4F
$GPRMC,184649.2,A,3334.849617,N,11743.321045,W,63.2,130.5,010110,,,A*4A
$GPRMC,184652.9,A,3334.808883,N,11743.261941,W,63.0,129.9,010110,,,A*43
$GPRMC,184655.9,A,3334.779291,N,11743.212544,W,61.9,127.0,010110,,,A*45
$GPRMC,184658.9,A,3334.748381,N,11743.161784,W,62.1,125.8,010110,,,A*42
$GPRMC,184701.9,A,3334.717990,N,11743.108894,W,62.4,124.3,010110,,,A*41
$GPRMC,184704.9,A,3334.692708,N,11743.059334,W,60.7,122.0,010110,,,A*47
$GPRMC,184707.9,A,3334.666448,N,11743.007342,W,60.9,120.8,010110,,,A*46
$GPRMC,184710.9,A,3334.640830,N,11742.953847,W,62.6,119.1,010110,,,A*4E
$GPRMC,184713.9,A,3334.617470,N,11742.901775,W,60.4,118.7,010110,,,A*49
$GPRMC,184716.9,A,3334.594903,N,11742.847030,W,61.4,116.6,010110,,,A*46
$GPRMC,184719.9,A,3334.572910,N,11742.791722,W,60.8,114.9,010110,,,A*43
$GPRMC,184722.9,A,3334.551139,N,11742.737281,W,60.4,113.9,010110,,,A*42
$GPRMC,184725.2,A,3334.534735,N,11742.694314,W,59.1,113.1,010110,,,A*45
$GPRMC,184728.9,A,3334.507633,N,11742.625592,W,61.2,114.6,010110,,,A*4E
$GPRMC,184731.9,A,3334.485003,N,11742.569848,W,60.9,114.4,010110,,,A*41
$GPRMC,184734.9,A,3334.465848,N,11742.515072,W,59.5,113.5,010110,,,A*47
$GPRMC,184737.9,A,3334.445538,N,11742.460897,W,59.5,115.8,010110,,,A*47
$GPRMC,184740.9,A,3334.417386,N,11742.406753,W,61.7,119.1,010110,,,A*48
$GPRMC,184743.9,A,3334.389366,N,11742.358180,W,59.3,125.0,010110,,,A*40
$GPRMC,184746.9,A,3334.355650,N,11742.309349,W,60.8,128.9,010110,,,A*42
$GPRMC,184749.9,A,3334.318873,N,11742.261423,W,62.2,132.0,010110,,,A*45
$GPRMC,184752.9,A,3334.284289,N,11742.217713,W,61.5,133.7,010110,,,A*47
$GPRMC,184755.9,A,3334.247744,N,11742.172463,W,62.1,134.0,010110,,,A*48
$GPRMC,184758.9,A,3334.211494,N,11742.129316,W,61.9,134.4,010110,,,A*4C
$GPRMC,184801.9,A,3334.176609,N,11742.087255,W,60.3,134.9,010110,,,A*4E
$GPRMC,184804.9,A,3334.140822,N,11742.043886,W,60.6,134.7,010110,,,A*4E
$GPRMC,184807.9,A,3334.105950,N,11742.000459,W,60.2,133.5,010110,,,A*40
$GPRMC,184810.9,A,3334.071274,N,11741.957422,W,61.0,134.8,010110,,,A*44
$GPRMC,184813.9,A,3334.035338,N,11741.914905,W,60.7,134.6,010110,,,A*49
$GPRMC,184816.9,A,3334.001306,N,11741.873663,W,59.7,135.1,010110,,,A*45
$GPRMC,184819.9,A,3333.965307,N,11741.830234,W,61.9,135.9,010110,,,A*4B
$GPRMC,184822.9,A,3333.927122,N,11741.789092,W,60.9,140.3,010110,,,A*4A
$GPRMC,184825.9,A,3333.886343,N,11741.755210,W,60.9,145.7,010110,,,A*4A
$GPRMC,184828.9,A,3333.842041,N,11741.719727,W,62.6,147.0,010110,,,A*4F
$GPRMC,184831.9,A,3333.799618,N,11741.688381,W,61.2,148.0,010110,,,A*4D
$GPRMC,184834.9,A,3333.755561,N,11741.656696,W,61.5,149.0,010110,,,A*43
$GPRMC,184837.9,A,3333.712725,N,11741.623550,W,61.4,147.3,010110,,,A*46
$GPRMC,184840.9,A,3333.670465,N,11741.589270,W,61.7,143.4,010110,,,A*42
$GPRMC,184843.9,A,3333.628060,N,11741.548056,W,63.3,139.2,010110,,,A*4B
$GPRMC,184846.9,A,3333.592996,N,11741.504530,W,62.8,133.5,010110,,,A*46
$GPRMC,184849.9,A,3333.563265,N,11741.455314,W,62.2,126.6,010110,,,A*48
$GPRMC,184852.9,A,3333.534238,N,11741.402940,W,62.0,122.5,010110,,,A*44
$GPRMC,184855.9,A,3333.514015,N,11741.347868,W,62.1,114.3,010110,,,A*43
$GPRMC,184858.9,A,3333.498514,N,11741.288917,W,62.0,108.9,010110,,,A*42
$GPRMC,184901.2,A,3333.489941,N,11741.244183,W,61.9,102.5,010110,,,A*41
$GPRMC,184904.2,A,3333.479924,N,11741.183532,W,62.1,101.2,010110,,,A*41
$GPRMC,184907.2,A,3333.470245,N,11741.123546,W,61.7,101.1,010110,,,A*48
$GPRMC,184910.9,A,3333.458109,N,11741.050340,W,60.4,101.2,010110,,,A*40
$GPRMC,184913.9,A,3333.448954,N,11740.990955,W,61.2,100.3,010110,,,A*4F
$GPRMC,184916.9,A,3333.439090,N,11740.932083,W,60.7,102.4,010110,,,A*46
$GPRMC,184919.9,A,3333.421963,N,11740.871576,W,61.4,108.6,010110,,,A*46
$GPRMC,184922.9,A,3333.403593,N,11740.816588,W,58.6,113.2,010110,,,A*4B
$GPRMC,184926.2,A,3333.368419,N,11740.761885,W,59.8,126.3,010110,,,A*4A
$GPRMC,184930.2,A,3333.320534,N,11740.702779,W,61.2,138.7,010110,,,A*4C
$GPRMC,184933.9,A,3333.270924,N,11740.659138,W,58.6,145.3,010110,,,A*41
$GPRMC,184937.2,A,3333.221058,N,11740.626657,W,60.7,153.7,010110,,,A*47
$GPRMC,184940.2,A,3333.172295,N,11740.605419,W,60.8,162.7,010110,,,A*45
$GPRMC,184943.2,A,3333.122586,N,11740.590523,W,60.4,168.3,010110,,,A*43
$GPRMC,184946.2,A,3333.072894,N,11740.578254,W,60.9,168.3,010110,,,A*40
$GPRMC,184949.2,A,3333.022974,N,11740.565684,W,61.2,168.0,010110,,,A*49
$GPRMC,184952.2,A,3332.973048,N,11740.553013,W,61.2,168.1,010110,,,A*45
$GPRMC,184955.2,A,3332.922935,N,11740.540468,W,61.2,168.1,010110,,,A*4F
$GPRMC,184958.9,A,3332.861108,N,11740.525040,W,61.8,168.2,010110,,,A*4D
$GPRMC,185001.9,A,3332.811860,N,11740.512702,W,60.6,168.3,010110,,,A*42
$GPRMC,185004.9,A,3332.761618,N,11740.500458,W,61.4,169.1,010110,,,A*41
$GPRMC,185007.9,A,3332.711593,N,11740.488526,W,61.2,168.0,010110,,,A*4A
$GPRMC,185010.9,A,3332.660739,N,11740.475235,W,61.4,167.9,010110,,,A*4E
$GPRMC,185013.9,A,3332.609803,N,11740.463303,W,61.8,170.3,010110,,,A*47
$GPRMC,185016.9,A,3332.558428,N,11740.458593,W,62.2,178.7,010110,,,A*42
$GPRMC,185019.9,A,3332.508788,N,11740.464731,W,61.1,186.4,010110,,,A*46
$GPRMC,185022.9,A,3332.458220,N,11740.472417,W,60.5,187.7,010110,,,A*4A
$GPRMC,185025.9,A,3332.405967,N,11740.479163,W,61.4,187.3,010110,,,A*44
$GPRMC,185028.9,A,3332.354903,N,11740.487028,W,60.7,187.4,010110,,,A*42
$GPRMC,185031.9,A,3332.304886,N,11740.496039,W,60.4,188.2,010110,,,A*49
$GPRMC,185034.9,A,3332.254438,N,11740.502747,W,60.6,186.3,010110,,,A*4E
$GPRMC,185037.9,A,3332.202953,N,11740.506353,W,61.4,184.3,010110,,,A*4A
$GPRMC,185040.9,A,3332.152478,N,11740.510787,W,60.9,183.1,010110,,,A*4B
$GPRMC,185043.9,A,3332.104126,N,11740.511195,W,59.9,180.1,010110,,,A*48
$GPRMC,185046.9,A,3332.051020,N,11740.512018,W,62.4,180.0,010110,,,A*48
$GPRMC,185049.9,A,3332.001794,N,11740.508734,W,60.5,176.8,010110,,,A*4A
$GPRMC,185052.9,A,3331.950809,N,11740.499407,W,60.8,170.8,010110,,,A*44
$GPRMC,185055.9,A,3331.901549,N,11740.482768,W,60.5,162.9,010110,,,A*41
$GPRMC,185058.9,A,3331.854157,N,11740.456859,W,61.1,153.4,010110,,,A*48
$GPRMC,185101.9,A,3331.810723,N,11740.423484,W,61.9,145.4,010110,,,A*41
$GPRMC,185104.9,A,3331.770139,N,11740.380467,W,64.3,138.2,010110,,,A*40
$GPRMC,185107.9,A,3331.736561,N,11740.336779,W,62.1,132.2,010110,,,A*47
$GPRMC,185110.9,A,3331.707616,N,11740.289179,W,60.2,128.1,010110,,,A*4A
$GPRMC,185113.9,A,3331.676457,N,11740.241380,W,60.9,128.8,010110,,,A*4B
$GPRMC,185116.9,A,3331.641626,N,11740.196734,W,60.9,133.5,010110,,,A*4B
$GPRMC,185119.9,A,3331.603917,N,11740.154598,W,59.9,138.5,010110,,,A*44
$GPRMC,185122.9,A,3331.564512,N,11740.117203,W,60.2,144.0,010110,,,A*4A
$GPRMC,185125.9,A,3331.519695,N,11740.086149,W,60.7,150.6,010110,,,A*49
$GPRMC,185128.9,A,3331.475090,N,11740.060401,W,60.5,155.6,010110,,,A*4A
$GPRMC,185131.9,A,3331.424900,N,11740.039347,W,62.4,159.7,010110,,,A*41
$GPRMC,185134.9,A,3331.376988,N,11740.021197,W,59.8,161.3,010110,,,A*49
$GPRMC,185137.9,A,3331.331399,N,11740.003202,W,59.1,161.6,010110,,,A*40
$GPRMC,185140.9,A,3331.281622,N,11739.980364,W,62.1,159.7,010110,,,A*40
$GPRMC,185143.9,A,3331.233506,N,11739.959172,W,61.2,159.8,010110,,,A*41
$GPRMC,185146.9,A,3331.183559,N,11739.937822,W,61.9,161.0,010110,,,A*4A
$GPRMC,185149.9,A,3331.136818,N,11739.919562,W,60.6,161.3,010110,,,A*4B
$GPRMC,185152.9,A,3331.088942,N,11739.899714,W,60.6,160.9,010110,,,A*4A
$GPRMC,185155.9,A,3331.039661,N,11739.879211,W,61.5,160.5,010110,,,A*49
$GPRMC,185158.9,A,3330.991154,N,11739.856208,W,61.5,159.2,010110,,,A*47
$GPRMC,185201.9,A,3330.943904,N,11739.838668,W,60.8,161.3,010110,,,A*46
$GPRMC,185204.9,A,3330.896930,N,11739.817933,W,60.5,160.7,010110,,,A*49
$GPRMC,185207.9,A,3330.849030,N,11739.794670,W,61.8,158.8,010110,,,A*45
$GPRMC,185210.9,A,3330.802012,N,11739.772996,W,61.2,159.5,010110,,,A*45
$GPRMC,185213.9,A,3330.752634,N,11739.751988,W,62.0,160.3,010110,,,A*4D
$GPRMC,185216.9,A,3330.703145,N,11739.731463,W,62.2,160.8,010110,,,A*4A
$GPRMC,185219.9,A,3330.655967,N,11739.709981,W,61.1,159.7,010110,,,A*40
$GPRMC,185222.9,A,3330.607277,N,11739.689005,W,61.4,160.3,010110,,,A*42
$GPRMC,185225.9,A,3330.559377,N,11739.669351,W,61.1,160.4,010110,,,A*42
$GPRMC,185228.9,A,3330.509173,N,11739.649367,W,61.6,161.1,010110,,,A*48
$GPRMC,185231.9,A,3330.462481,N,11739.628011,W,60.6,159.3,010110,,,A*49
$GPRMC,185234.9,A,3330.415087,N,11739.606472,W,60.6,159.7,010110,,,A*47
$GPRMC,185237.9,A,3330.363640,N,11739.584103,W,63.4,160.0,010110,,,A*49
$GPRMC,185240.9,A,3330.315676,N,11739.564855,W,62.0,161.6,010110,,,A*4B
$GPRMC,185243.9,A,3330.267324,N,11739.545674,W,61.9,161.9,010110,,,A*45
$GPRMC,185246.9,A,3330.219755,N,11739.533907,W,60.5,167.6,010110,,,A*45
$GPRMC,185249.9,A,3330.169131,N,11739.523291,W,61.4,170.8,010110,,,A*47
$GPRMC,185253.2,A,3330.112026,N,11739.514479,W,61.7,174.7,010110,,,A*40
$GPRMC,185256.9,A,3330.049623,N,11739.511757,W,62.6,178.5,010110,,,A*44
$GPRMC,185259.9,A,3329.995834,N,11739.510994,W,63.9,179.6,010110,,,A*4F
$GPRMC,185302.9,A,3329.940476,N,11739.513310,W,66.8,184.1,010110,,,A*46
$GPRMC,185305.9,A,3329.883934,N,11739.522708,W,69.4,188.9,010110,,,A*4C
$GPRMC,185308.9,A,3329.823036,N,11739.537045,W,73.3,191.9,010110,,,A*4E
$GPRMC,185311.9,A,3329.765258,N,11739.556764,W,73.0,196.3,010110,,,A*4C
$GPRMC,185314.9,A,3329.710107,N,11739.582380,W,73.3,201.1,010110,,,A*49
$GPRMC,185317.9,A,3329.650512,N,11739.611170,W,76.5,203.8,010110,,,A*43
$GPRMC,185320.9,A,3329.594783,N,11739.646295,W,76.7,208.3,010110,,,A*4E
$GPRMC,185323.9,A,3329.540961,N,11739.686340,W,76.9,211.8,010110,,,A*4E
$GPRMC,185326.9,A,3329.486936,N,11739.727036,W,76.8,212.0,010110,,,A*40
$GPRMC,185329.9,A,3329.432420,N,11739.769395,W,76.6,212.6,010110,,,A*42
$GPRMC,185333.2,A,3329.374202,N,11739.811821,W,76.0,212.2,010110,,,A*47
$GPRMC,185336.2,A,3329.320085,N,11739.853131,W,77.1,212.1,010110,,,A*43
$GPRMC,185339.2,A,3329.265083,N,11739.894190,W,77.6,212.0,010110,,,A*4C
$GPRMC,185342.9,A,3329.196811,N,11739.945154,W,78.2,211.8,010110,,,A*42
$GPRMC,185345.9,A,3329.142577,N,11739.987327,W,76.8,213.0,010110,,,A*47
$GPRMC,185348.9,A,3329.091580,N,11740.030340,W,75.2,215.2,010110,,,A*4A
$GPRMC,185351.9,A,3329.039143,N,11740.071743,W,73.9,214.6,010110,,,A*41
$GPRMC,185354.9,A,3328.989613,N,11740.114975,W,73.6,216.0,010110,,,A*47
$GPRMC,185357.9,A,3328.940643,N,11740.157466,W,73.0,216.1,010110,,,A*4B
$GPRMC,185400.9,A,3328.892056,N,11740.199826,W,72.6,216.0,010110,,,A*4E
$GPRMC,185403.9,A,3328.842693,N,11740.243551,W,72.9,215.9,010110,,,A*43
$GPRMC,185406.9,A,3328.794214,N,11740.283424,W,71.7,215.3,010110,,,A*41
$GPRMC,185409.9,A,3328.745065,N,11740.324616,W,71.8,215.5,010110,,,A*40
$GPRMC,185412.9,A,3328.698004,N,11740.366630,W,69.9,216.2,010110,,,A*42
$GPRMC,185415.9,A,3328.649374,N,11740.405214,W,69.7,212.0,010110,,,A*45
$GPRMC,185418.9,A,3328.597695,N,11740.436330,W,68.6,205.7,010110,,,A*44
$GPRMC,185421.9,A,3328.542169,N,11740.461309,W,69.2,199.2,010110,,,A*4C
$GPRMC,185424.9,A,3328.488101,N,11740.478916,W,67.1,193.1,010110,,,A*48
$GPRMC,185427.9,A,3328.432308,N,11740.488150,W,67.1,186.7,010110,,,A*46
$GPRMC,185430.9,A,3328.376220,N,11740.491342,W,66.9,181.4,010110,,,A*48
$GPRMC,185433.9,A,3328.317694,N,11740.485415,W,68.6,175.0,010110,,,A*49
$GPRMC,185436.9,A,3328.260656,N,11740.471986,W,69.7,167.1,010110,,,A*4D
$GPRMC,185439.9,A,3328.205821,N,11740.449315,W,70.6,158.9,010110,,,A*49
$GPRMC,185442.9,A,3328.155514,N,11740.412260,W,69.4,148.1,010110,,,A*46
$GPRMC,185445.9,A,3328.109661,N,11740.366535,W,70.4,138.1,010110,,,A*45
$GPRMC,185448.9,A,3328.071226,N,11740.316204,W,69.6,131.6,010110,,,A*47
$GPRMC,185451.9,A,3328.044751,N,11740.260423,W,68.3,120.4,010110,,,A*49
$GPRMC,185454.9,A,3328.018374,N,11740.198021,W,69.2,117.6,010110,,,A*42
$GPRMC,185457.9,A,3327.991678,N,11740.138665,W,68.0,120.1,010110,,,A*43
$GPRMC,185500.9,A,3327.962758,N,11740.085414,W,66.5,125.1,010110,,,A*42
$GPRMC,185503.9,A,3327.925242,N,11740.029919,W,69.8,129.0,010110,,,A*45
$GPRMC,185506.9,A,3327.884683,N,11739.975105,W,71.4,130.4,010110,,,A*41
$GPRMC,185509.9,A,3327.848707,N,11739.921725,W,70.0,129.2,010110,,,A*4D
$GPRMC,185512.9,A,3327.812443,N,11739.866698,W,70.9,128.1,010110,,,A*45
$GPRMC,185515.9,A,3327.773295,N,11739.811727,W,72.7,129.6,010110,,,A*48
$GPRMC,185518.9,A,3327.736492,N,11739.755006,W,73.3,128.7,010110,,,A*4B
$GPRMC,185521.9,A,3327.696535,N,11739.698942,W,73.9,130.2,010110,,,A*49
$GPRMC,185524.9,A,3327.658246,N,11739.638789,W,75.4,126.9,010110,,,A*49
$GPRMC,185527.9,A,3327.628839,N,11739.577132,W,73.2,119.1,010110,,,A*45
$GPRMC,185530.9,A,3327.603157,N,11739.514890,W,72.3,117.1,010110,,,A*41
$GPRMC,185533.9,A,3327.575155,N,11739.450203,W,72.4,118.7,010110,,,A*4D
$GPRMC,185536.9,A,3327.543031,N,11739.389193,W,71.1,122.9,010110,,,A*46
$GPRMC,185539.9,A,3327.508670,N,11739.329851,W,72.0,125.2,010110,,,A*46
$GPRMC,185542.9,A,3327.472634,N,11739.270729,W,73.6,125.7,010110,,,A*49
$GPRMC,185545.9,A,3327.435615,N,11739.212913,W,73.9,125.7,010110,,,A*42
$GPRMC,185548.9,A,3327.402401,N,11739.149170,W,74.0,122.1,010110,,,A*43
$GPRMC,185551.9,A,3327.370599,N,11739.088546,W,72.2,121.4,010110,,,A*46
$GPRMC,185554.9,A,3327.340129,N,11739.026046,W,71.4,119.3,010110,,,A*47
$GPRMC,185557.9,A,3327.315342,N,11738.965416,W,68.3,117.2,010110,,,A*45
$GPRMC,185600.9,A,3327.291556,N,11738.907458,W,66.7,117.1,010110,,,A*4D
$GPRMC,185603.9,A,3327.269622,N,11738.848710,W,66.6,115.6,010110,,,A*48
$GPRMC,185606.9,A,3327.243640,N,11738.787922,W,68.1,116.5,010110,,,A*4B
$GPRMC,185609.9,A,3327.214850,N,11738.725885,W,70.4,117.2,010110,,,A*47
$GPRMC,185612.9,A,3327.185073,N,11738.662627,W,70.3,119.0,010110,,,A*40
$GPRMC,185615.9,A,3327.157455,N,11738.605229,W,68.4,121.2,010110,,,A*44
$GPRMC,185618.9,A,3327.120861,N,11738.546396,W,70.4,126.4,010110,,,A*4B
$GPRMC,185621.9,A,3327.084961,N,11738.493109,W,67.6,129.1,010110,,,A*4C
$GPRMC,185624.9,A,3327.048754,N,11738.442747,W,66.7,130.7,010110,,,A*4F
$GPRMC,185627.9,A,3327.012063,N,11738.393069,W,66.5,131.4,010110,,,A*40
$GPRMC,185630.9,A,3326.975296,N,11738.343723,W,65.3,131.0,010110,,,A*42
$GPRMC,185633.9,A,3326.938779,N,11738.295873,W,65.5,131.0,010110,,,A*4A
$GPRMC,185636.9,A,3326.906212,N,11738.245633,W,65.9,127.1,010110,,,A*47
$GPRMC,185639.9,A,3326.876907,N,11738.191105,W,67.0,122.9,010110,,,A*4F
$GPRMC,185642.9,A,3326.848932,N,11738.133794,W,68.2,121.1,010110,,,A*48
$GPRMC,185645.9,A,3326.818979,N,11738.073083,W,69.0,119.8,010110,,,A*40
$GPRMC,185648.9,A,3326.789795,N,11738.013806,W,68.6,121.5,010110,,,A*44
$GPRMC,185651.9,A,3326.760356,N,11737.958285,W,66.2,122.6,010110,,,A*42
$GPRMC,185654.9,A,3326.726452,N,11737.905009,W,66.6,127.5,010110,,,A*4A
$GPRMC,185657.9,A,3326.688789,N,11737.855020,W,66.9,132.9,010110,,,A*41
$GPRMC,185700.9,A,3326.647220,N,11737.808867,W,67.1,135.4,010110,,,A*47
$GPRMC,185703.2,A,3326.618553,N,11737.773097,W,65.5,134.8,010110,,,A*49
$GPRMC,185706.2,A,3326.580058,N,11737.726742,W,66.6,135.0,010110,,,A*46
$GPRMC,185709.2,A,3326.540923,N,11737.679934,W,67.0,135.2,010110,,,A*41
$GPRMC,185712.2,A,3326.502098,N,11737.632212,W,67.1,134.2,010110,,,A*44
$GPRMC,185715.2,A,3326.464124,N,11737.582743,W,67.9,129.9,010110,,,A*42
$GPRMC,185718.9,A,3326.419671,N,11737.515315,W,71.4,127.8,010110,,,A*45
$GPRMC,185721.9,A,3326.390781,N,11737.457781,W,68.7,122.7,010110,,,A*48
$GPRMC,185724.9,A,3326.360724,N,11737.398226,W,68.6,121.8,010110,,,A*4C
$GPRMC,185727.9,A,3326.327844,N,11737.340577,W,69.5,123.4,010110,,,A*4F
$GPRMC,185730.9,A,3326.297053,N,11737.282486,W,69.5,122.7,010110,,,A*4F
$GPRMC,185733.9,A,3326.264714,N,11737.225543,W,68.5,124.1,010110,,,A*40
$GPRMC,185736.9,A,3326.227802,N,11737.171879,W,69.1,130.0,010110,,,A*4D
$GPRMC,185739.9,A,3326.185443,N,11737.123412,W,68.1,137.2,010110,,,A*42
$GPRMC,185742.9,A,3326.142593,N,11737.083090,W,66.7,144.3,010110,,,A*41
$GPRMC,185745.9,A,3326.095687,N,11737.049473,W,65.9,149.2,010110,,,A*45
$GPRMC,185748.9,A,3326.046770,N,11737.017244,W,66.5,150.2,010110,,,A*41
$GPRMC,185751.9,A,3325.996682,N,11736.982231,W,67.9,150.3,010110,,,A*48
$GPRMC,185754.2,A,3325.960478,N,11736.956844,W,66.0,149.8,010110,,,A*42
$GPRMC,185757.2,A,3325.913672,N,11736.922092,W,66.6,145.1,010110,,,A*4E
$GPRMC,185800.2,A,3325.870155,N,11736.881339,W,66.3,138.9,010110,,,A*48
$GPRMC,185803.0,A,3325.832994,N,11736.839010,W,66.2,134.4,010110,,,A*41
$GPRMC,185806.2,A,3325.790938,N,11736.788652,W,65.6,135.7,010110,,,A*47
$GPRMC,185809.9,A,3325.740537,N,11736.733733,W,66.5,139.5,010110,,,A*45
$GPRMC,185812.9,A,3325.696118,N,11736.694247,W,66.3,143.9,010110,,,A*41
$GPRMC,185815.9,A,3325.650611,N,11736.656494,W,67.1,146.9,010110,,,A*42
$GPRMC,185818.2,A,3325.611557,N,11736.630014,W,69.0,150.1,010110,,,A*4C
$GPRMC,185821.2,A,3325.561342,N,11736.595663,W,69.1,150.4,010110,,,A*4E
$GPRMC,185824.2,A,3325.511149,N,11736.561950,W,69.4,150.3,010110,,,A*43
$GPRMC,185827.2,A,3325.460342,N,11736.529157,W,69.5,153.1,010110,,,A*4D
$GPRMC,185830.2,A,3325.407098,N,11736.500822,W,70.5,158.0,010110,,,A*4C
$GPRMC,185833.2,A,3325.352271,N,11736.475185,W,70.2,158.2,010110,,,A*4F
$GPRMC,185836.2,A,3325.298368,N,11736.447022,W,71.2,153.8,010110,,,A*49
$GPRMC,185839.2,A,3325.246800,N,11736.411998,W,71.0,146.1,010110,,,A*44
$GPRMC,185842.2,A,3325.198697,N,11736.370854,W,71.4,143.7,010110,,,A*4E
$GPRMC,185845.2,A,3325.151182,N,11736.329441,W,69.9,145.1,010110,,,A*4F
$GPRMC,185848.2,A,3325.101378,N,11736.294264,W,69.2,153.9,010110,,,A*42
$GPRMC,185851.2,A,3325.048765,N,11736.266604,W,68.9,157.4,010110,,,A*42
$GPRMC,185854.2,A,3324.995548,N,11736.240392,W,68.4,157.2,010110,,,A*47
$GPRMC,185857.2,A,3324.942994,N,11736.214288,W,68.3,157.0,010110,,,A*4D
$GPRMC,185900.2,A,3324.890599,N,11736.187662,W,68.7,156.9,010110,,,A*44
$GPRMC,185904.2,A,3324.819122,N,11736.150574,W,69.8,155.8,010110,,,A*47
$GPRMC,185907.2,A,3324.766109,N,11736.122853,W,69.3,156.7,010110,,,A*40
$GPRMC,185910.2,A,3324.713179,N,11736.095899,W,69.3,157.4,010110,,,A*4A
$GPRMC,185913.0,A,3324.663147,N,11736.071704,W,71.1,158.2,010110,,,A*43
$GPRMC,185916.2,A,3324.602529,N,11736.043615,W,71.5,158.2,010110,,,A*4B
$GPRMC,185919.2,A,3324.547933,N,11736.016163,W,71.2,157.3,010110,,,A*4E
$GPRMC,185922.2,A,3324.493079,N,11735.988430,W,71.8,157.0,010110,,,A*4E
$GPRMC,185925.9,A,3324.425316,N,11735.954102,W,72.2,156.8,010110,,,A*40
$GPRMC,185928.9,A,3324.369280,N,11735.926177,W,73.1,157.3,010110,,,A*43
$GPRMC,185931.9,A,3324.311428,N,11735.897953,W,74.9,157.6,010110,,,A*4F
$GPRMC,185934.2,A,3324.267347,N,11735.874467,W,74.9,156.9,010110,,,A*46
$GPRMC,185937.2,A,3324.210683,N,11735.846782,W,74.4,157.2,010110,,,A*46
$GPRMC,185940.2,A,3324.153250,N,11735.817555,W,73.9,157.2,010110,,,A*4E
$GPRMC,185943.2,A,3324.096370,N,11735.789175,W,73.5,157.2,010110,,,A*44
$GPRMC,185946.9,A,3324.026696,N,11735.753891,W,73.4,157.1,010110,,,A*4A
$GPRMC,185949.9,A,3323.969518,N,11735.724154,W,74.2,156.9,010110,,,A*4D
$GPRMC,185952.9,A,3323.911521,N,11735.694822,W,75.1,156.7,010110,,,A*4C
$GPRMC,185955.2,A,3323.868944,N,11735.673276,W,73.4,156.6,010110,,,A*40
$GPRMC,185958.2,A,3323.813863,N,11735.644079,W,72.2,154.6,010110,,,A*49
$GPRMC,190001.2,A,3323.760496,N,11735.613266,W,70.8,152.8,010110,,,A*4B
$GPRMC,190004.0,A,3323.711395,N,11735.582495,W,71.5,152.1,010110,,,A*4A
$GPRMC,190007.2,A,3323.654110,N,11735.543917,W,72.0,150.6,010110,,,A*4D
$GPRMC,190010.2,A,3323.604192,N,11735.507904,W,71.1,148.4,010110,,,A*4F
$GPRMC,190013.2,A,3323.554462,N,11735.470810,W,71.0,147.4,010110,,,A*4B
$GPRMC,190016.2,A,3323.504643,N,11735.432106,W,71.9,146.9,010110,,,A*47
$GPRMC,190019.2,A,3323.454568,N,11735.392846,W,72.1,146.8,010110,,,A*4C
$GPRMC,190022.2,A,3323.404559,N,11735.353909,W,71.7,147.0,010110,,,A*48
$GPRMC,190025.2,A,3323.355082,N,11735.314088,W,71.0,144.8,010110,,,A*40
$GPRMC,190028.2,A,3323.308215,N,11735.271363,W,69.8,140.4,010110,,,A*44
$GPRMC,190031.2,A,3323.265513,N,11735.225694,W,68.2,135.5,010110,,,A*43
$GPRMC,190034.9,A,3323.217065,N,11735.164391,W,69.3,132.8,010110,,,A*40
$GPRMC,190037.9,A,3323.182391,N,11735.110766,W,68.9,126.7,010110,,,A*4A
$GPRMC,190040.9,A,3323.148222,N,11735.051322,W,72.1,123.0,010110,,,A*44
$GPRMC,190043.9,A,3323.124457,N,11734.993319,W,68.1,117.3,010110,,,A*48
$GPRMC,190046.9,A,3323.100883,N,11734.930625,W,68.9,115.3,010110,,,A*47
$GPRMC,190049.9,A,3323.077099,N,11734.867375,W,69.5,115.0,010110,,,A*47
$GPRMC,190052.9,A,3323.054648,N,11734.807412,W,67.8,114.5,010110,,,A*41
$GPRMC,190055.9,A,3323.027932,N,11734.743806,W,70.3,115.6,010110,,,A*49
$GPRMC,190058.9,A,3323.002498,N,11734.680479,W,69.7,115.7,010110,,,A*49
$GPRMC,190101.9,A,3322.976002,N,11734.614986,W,71.2,115.5,010110,,,A*46
$GPRMC,190104.9,A,3322.953296,N,11734.554262,W,68.2,114.8,010110,,,A*49
$GPRMC,190107.9,A,3322.929616,N,11734.493916,W,67.2,114.5,010110,,,A*4B
$GPRMC,190110.9,A,3322.904461,N,11734.432294,W,69.0,115.2,010110,,,A*40
$GPRMC,190113.9,A,3322.882745,N,11734.371007,W,68.3,113.6,010110,,,A*41
$GPRMC,190116.9,A,3322.857237,N,11734.304994,W,70.3,114.3,010110,,,A*46
$GPRMC,190119.9,A,3322.833912,N,11734.243891,W,68.4,114.9,010110,,,A*45
$GPRMC,190122.9,A,3322.809479,N,11734.181163,W,68.5,114.7,010110,,,A*42
$GPRMC,190125.9,A,3322.783510,N,11734.120545,W,68.5,116.1,010110,,,A*49
$GPRMC,190128.9,A,3322.761175,N,11734.060024,W,68.1,115.0,010110,,,A*4E
$GPRMC,190131.9,A,3322.737538,N,11733.998095,W,68.0,115.9,010110,,,A*43
$GPRMC,190134.9,A,3322.710015,N,11733.940939,W,65.2,120.8,010110,,,A*4B
$GPRMC,190137.9,A,3322.675928,N,11733.884451,W,66.9,126.2,010110,,,A*43
$GPRMC,190140.9,A,3322.639768,N,11733.836336,W,66.5,132.7,010110,,,A*42
$GPRMC,190143.9,A,3322.595730,N,11733.791155,W,67.8,137.5,010110,,,A*47
$GPRMC,190146.9,A,3322.553741,N,11733.743255,W,68.7,136.3,010110,,,A*45
$GPRMC,190149.9,A,3322.512735,N,11733.693875,W,69.6,132.6,010110,,,A*49
$GPRMC,190152.9,A,3322.478324,N,11733.639298,W,70.0,125.9,010110,,,A*44
$GPRMC,190155.9,A,3322.448523,N,11733.579838,W,70.2,122.3,010110,,,A*49
$GPRMC,190158.9,A,3322.416981,N,11733.522344,W,69.9,123.4,010110,,,A*40
$GPRMC,190201.9,A,3322.385936,N,11733.464367,W,69.9,123.0,010110,,,A*48
$GPRMC,190204.9,A,3322.352845,N,11733.406007,W,69.8,124.2,010110,,,A*47
$GPRMC,190207.9,A,3322.319601,N,11733.346720,W,70.7,123.9,010110,,,A*4F
$GPRMC,190210.9,A,3322.290326,N,11733.288996,W,69.2,122.6,010110,,,A*4A
$GPRMC,190213.9,A,3322.255056,N,11733.230684,W,70.4,125.0,010110,,,A*44
$GPRMC,190216.9,A,3322.222410,N,11733.170247,W,70.4,123.6,010110,,,A*4B
$GPRMC,190219.9,A,3322.192998,N,11733.116078,W,67.0,123.4,010110,,,A*4F
$GPRMC,190222.9,A,3322.163163,N,11733.059865,W,68.0,123.2,010110,,,A*42
$GPRMC,190225.9,A,3322.131608,N,11733.001842,W,69.9,123.2,010110,,,A*48
$GPRMC,190228.9,A,3322.100834,N,11732.942677,W,71.1,122.7,010110,,,A*44
$GPRMC,190231.9,A,3322.067337,N,11732.881075,W,72.2,123.4,010110,,,A*4C
$GPRMC,190234.9,A,3322.031587,N,11732.823859,W,71.7,126.3,010110,,,A*4D
$GPRMC,190237.9,A,3321.996618,N,11732.766585,W,72.0,127.3,010110,,,A*4B
$GPRMC,190240.9,A,3321.956015,N,11732.710922,W,72.5,129.8,010110,,,A*4C
$GPRMC,190243.9,A,3321.916248,N,11732.655623,W,72.9,129.5,010110,,,A*4E
$GPRMC,190246.9,A,3321.881220,N,11732.600316,W,71.5,128.9,010110,,,A*4B
$GPRMC,190249.9,A,3321.844045,N,11732.545965,W,70.6,129.8,010110,,,A*42
$GPRMC,190252.9,A,3321.805437,N,11732.490947,W,71.6,129.5,010110,,,A*49
$GPRMC,190255.9,A,3321.767453,N,11732.435307,W,71.7,130.1,010110,,,A*4B
$GPRMC,190258.9,A,3321.728219,N,11732.382303,W,71.0,130.7,010110,,,A*4B
$GPRMC,190301.9,A,3321.689062,N,11732.325796,W,72.0,129.6,010110,,,A*4D
$GPRMC,190304.9,A,3321.650775,N,11732.269814,W,71.7,129.5,010110,,,A*46
$GPRMC,190307.9,A,3321.615133,N,11732.214018,W,70.6,128.5,010110,,,A*4F
$GPRMC,190310.9,A,3321.576923,N,11732.161564,W,71.3,129.5,010110,,,A*4C
$GPRMC,190313.9,A,3321.537085,N,11732.104688,W,73.2,130.3,010110,,,A*40
$GPRMC,190316.9,A,3321.497060,N,11732.048528,W,72.8,129.8,010110,,,A*4D
$GPRMC,190319.9,A,3321.463153,N,11731.995341,W,69.2,128.5,010110,,,A*47
$GPRMC,190322.9,A,3321.426697,N,11731.942580,W,70.2,129.1,010110,,,A*4D
$GPRMC,190325.9,A,3321.389399,N,11731.885841,W,72.3,128.9,010110,,,A*43
$GPRMC,190328.9,A,3321.349657,N,11731.829404,W,72.8,129.8,010110,,,A*45
$GPRMC,190331.9,A,3321.311847,N,11731.774879,W,71.9,129.2,010110,,,A*46
$GPRMC,190334.9,A,3321.273979,N,11731.717333,W,73.2,129.1,010110,,,A*40
$GPRMC,190337.9,A,3321.231436,N,11731.656075,W,77.1,129.4,010110,,,A*44
$GPRMC,190340.9,A,3321.190756,N,11731.598927,W,74.9,129.7,010110,,,A*4E
$GPRMC,190343.9,A,3321.153570,N,11731.542610,W,71.9,128.9,010110,,,A*42
$GPRMC,190346.9,A,3321.114975,N,11731.486696,W,73.2,129.6,010110,,,A*4D
$GPRMC,190349.9,A,3321.078073,N,11731.430466,W,71.3,128.8,010110,,,A*4A
$GPRMC,190352.9,A,3321.041884,N,11731.377691,W,69.8,129.5,010110,,,A*4A
$GPRMC,190355.9,A,3321.005319,N,11731.322105,W,70.3,128.0,010110,,,A*4F
$GPRMC,190358.9,A,3320.969858,N,11731.267815,W,69.5,128.3,010110,,,A*4B
$GPRMC,190401.9,A,3320.935511,N,11731.214184,W,68.8,128.1,010110,,,A*42
$GPRMC,190404.9,A,3320.898056,N,11731.160732,W,68.5,128.3,010110,,,A*43
$GPRMC,190407.9,A,3320.859926,N,11731.107580,W,69.3,130.1,010110,,,A*45
$GPRMC,190410.9,A,3320.824324,N,11731.055373,W,68.4,129.4,010110,,,A*46
$GPRMC,190413.9,A,3320.784784,N,11731.003015,W,69.7,131.5,010110,,,A*44
$GPRMC,190416.9,A,3320.746404,N,11730.951263,W,70.2,131.5,010110,,,A*45
$GPRMC,190419.9,A,3320.708972,N,11730.900456,W,69.7,131.7,010110,,,A*47
$GPRMC,190422.9,A,3320.669482,N,11730.846662,W,71.5,131.1,010110,,,A*40
$GPRMC,190425.9,A,3320.629484,N,11730.791383,W,71.0,130.5,010110,,,A*4A
$GPRMC,190428.9,A,3320.594498,N,11730.741133,W,66.8,130.3,010110,,,A*43
$GPRMC,190431.9,A,3320.556749,N,11730.690971,W,67.0,131.0,010110,,,A*42
$GPRMC,190434.9,A,3320.522616,N,11730.643457,W,66.1,130.5,010110,,,A*4C
$GPRMC,190437.9,A,3320.484856,N,11730.591223,W,69.2,131.0,010110,,,A*49
$GPRMC,190440.9,A,3320.444938,N,11730.536172,W,72.2,130.6,010110,,,A*4B
$GPRMC,190443.9,A,3320.403059,N,11730.480775,W,74.0,132.0,010110,,,A*48
$GPRMC,190446.9,A,3320.363542,N,11730.425269,W,72.9,131.0,010110,,,A*48
$GPRMC,190449.9,A,3320.324591,N,11730.371675,W,70.8,130.8,010110,,,A*4F
$GPRMC,190452.9,A,3320.286288,N,11730.318991,W,71.2,130.5,010110,,,A*4F
$GPRMC,190455.9,A,3320.246506,N,11730.265040,W,70.4,130.8,010110,,,A*41
$GPRMC,190458.9,A,3320.209378,N,11730.211556,W,69.8,129.9,010110,,,A*44
$GPRMC,190501.9,A,3320.170962,N,11730.158969,W,70.6,130.9,010110,,,A*45
$GPRMC,190504.9,A,3320.131669,N,11730.108047,W,69.0,131.8,010110,,,A*4F
$GPRMC,190507.9,A,3320.095456,N,11730.060138,W,65.9,131.0,010110,,,A*46
$GPRMC,190510.9,A,3320.059300,N,11730.006543,W,67.5,130.5,010110,,,A*46
$GPRMC,190513.9,A,3320.023680,N,11729.956605,W,66.8,130.5,010110,,,A*4C
$GPRMC,190516.9,A,3319.985269,N,11729.905743,W,68.5,131.2,010110,,,A*45
$GPRMC,190519.9,A,3319.948832,N,11729.852967,W,69.0,128.6,010110,,,A*4C
$GPRMC,190522.9,A,3319.909934,N,11729.800448,W,70.7,130.6,010110,,,A*47
$GPRMC,190525.9,A,3319.870302,N,11729.749450,W,71.0,131.7,010110,,,A*4D
$GPRMC,190528.9,A,3319.833301,N,11729.696563,W,70.6,130.7,010110,,,A*40
$GPRMC,190531.9,A,3319.791561,N,11729.637874,W,74.8,130.4,010110,,,A*46
$GPRMC,190534.9,A,3319.752661,N,11729.584132,W,73.1,130.6,010110,,,A*43
$GPRMC,190537.9,A,3319.711455,N,11729.529928,W,73.4,131.2,010110,,,A*46
$GPRMC,190540.9,A,3319.668889,N,11729.472852,W,76.0,131.0,010110,,,A*44
$GPRMC,190543.9,A,3319.626823,N,11729.414006,W,77.1,130.6,010110,,,A*43
$GPRMC,190546.9,A,3319.584832,N,11729.357558,W,76.5,131.5,010110,,,A*44
$GPRMC,190549.9,A,3319.543291,N,11729.299160,W,76.9,130.2,010110,,,A*45
$GPRMC,190552.9,A,3319.500905,N,11729.242060,W,77.6,130.6,010110,,,A*43
$GPRMC,190555.9,A,3319.459866,N,11729.183359,W,76.4,130.5,010110,,,A*4A
$GPRMC,190558.9,A,3319.415969,N,11729.128361,W,75.8,131.6,010110,,,A*46
$GPRMC,190601.9,A,3319.372432,N,11729.073714,W,74.7,135.0,010110,,,A*49
$GPRMC,190604.2,A,3319.338344,N,11729.039249,W,71.1,138.6,010110,,,A*44
$GPRMC,190607.2,A,3319.287049,N,11729.004844,W,70.6,153.1,010110,,,A*49
$GPRMC,190610.2,A,3319.233129,N,11728.978607,W,70.0,161.0,010110,,,A*4B
$GPRMC,190613.9,A,3319.164377,N,11728.957476,W,68.2,169.1,010110,,,A*40
$GPRMC,190616.9,A,3319.105928,N,11728.949483,W,69.4,174.7,010110,,,A*4A
$GPRMC,190619.9,A,3319.048976,N,11728.945367,W,70.1,175.9,010110,,,A*45
$GPRMC,190622.9,A,3318.991149,N,11728.939673,W,69.2,175.2,010110,,,A*4E
$GPRMC,190625.9,A,3318.931376,N,11728.934577,W,70.6,175.4,010110,,,A*4D
$GPRMC,190628.9,A,3318.872442,N,11728.922447,W,70.5,169.6,010110,,,A*4F
$GPRMC,190631.9,A,3318.817053,N,11728.901593,W,70.5,161.7,010110,,,A*40
$GPRMC,190634.9,A,3318.765375,N,11728.873487,W,68.3,153.3,010110,,,A*42
$GPRMC,190637.9,A,3318.717951,N,11728.838019,W,66.4,145.5,010110,,,A*4C
$GPRMC,190640.9,A,3318.674387,N,11728.794829,W,66.6,138.4,010110,,,A*42
$GPRMC,190643.9,A,3318.632458,N,11728.745847,W,67.7,134.8,010110,,,A*42
$GPRMC,190646.9,A,3318.594649,N,11728.697892,W,66.6,134.1,010110,,,A*45
$GPRMC,190649.9,A,3318.554825,N,11728.649272,W,67.8,134.6,010110,,,A*4D
$GPRMC,190652.9,A,3318.516926,N,11728.602570,W,67.6,134.8,010110,,,A*49
$GPRMC,190655.9,A,3318.475886,N,11728.553243,W,69.4,134.8,010110,,,A*4D
$GPRMC,190658.9,A,3318.434652,N,11728.503696,W,70.8,134.2,010110,,,A*45
$GPRMC,190701.9,A,3318.395662,N,11728.455566,W,68.9,134.4,010110,,,A*47
$GPRMC,190704.9,A,3318.356665,N,11728.405609,W,68.8,133.5,010110,,,A*42
$GPRMC,190707.9,A,3318.315077,N,11728.354885,W,70.5,134.3,010110,,,A*4F
$GPRMC,190710.9,A,3318.271732,N,11728.306065,W,70.3,135.3,010110,,,A*4A
$GPRMC,190713.9,A,3318.232873,N,11728.259108,W,68.5,135.2,010110,,,A*4B
$GPRMC,190716.9,A,3318.193522,N,11728.208465,W,69.0,134.1,010110,,,A*43
$GPRMC,190719.9,A,3318.151683,N,11728.158589,W,70.3,135.0,010110,,,A*44
$GPRMC,190722.9,A,3318.110295,N,11728.110770,W,68.3,134.4,010110,,,A*4E
$GPRMC,190725.9,A,3318.070369,N,11728.063344,W,67.7,135.3,010110,,,A*47
$GPRMC,190728.9,A,3318.034344,N,11728.018279,W,65.7,133.7,010110,,,A*46
$GPRMC,190731.9,A,3317.991297,N,11727.967715,W,69.5,134.8,010110,,,A*4F
$GPRMC,190734.9,A,3317.950606,N,11727.919029,W,69.0,134.8,010110,,,A*4F
$GPRMC,190737.9,A,3317.910954,N,11727.869522,W,70.5,134.8,010110,,,A*45
$GPRMC,190740.9,A,3317.869110,N,11727.818565,W,72.8,134.9,010110,,,A*49
$GPRMC,190743.9,A,3317.825811,N,11727.767430,W,73.7,135.0,010110,,,A*4A
$GPRMC,190746.9,A,3317.781554,N,11727.713177,W,75.4,134.2,010110,,,A*41
$GPRMC,190749.9,A,3317.739549,N,11727.660488,W,74.5,134.4,010110,,,A*47
$GPRMC,190752.9,A,3317.695187,N,11727.607569,W,74.2,135.1,010110,,,A*40
$GPRMC,190755.9,A,3317.651165,N,11727.557057,W,73.6,136.8,010110,,,A*44
$GPRMC,190758.9,A,3317.604463,N,11727.514094,W,72.3,143.6,010110,,,A*4A
$GPRMC,190801.9,A,3317.554404,N,11727.476563,W,69.8,147.4,010110,,,A*41
$GPRMC,190804.9,A,3317.506559,N,11727.439016,W,68.0,146.8,010110,,,A*42
$GPRMC,190807.9,A,3317.458867,N,11727.403009,W,67.7,147.0,010110,,,A*4D
$GPRMC,190810.9,A,3317.411044,N,11727.365410,W,68.4,146.2,010110,,,A*4B
$GPRMC,190813.9,A,3317.365250,N,11727.329773,W,67.1,147.3,010110,,,A*4F
$GPRMC,190816.9,A,3317.313765,N,11727.294309,W,70.2,148.8,010110,,,A*47
$GPRMC,190819.9,A,3317.264821,N,11727.256923,W,70.4,148.0,010110,,,A*44
$GPRMC,190822.9,A,3317.214182,N,11727.220044,W,70.6,148.5,010110,,,A*45
$GPRMC,190825.9,A,3317.164496,N,11727.182623,W,71.0,147.8,010110,,,A*4F
$GPRMC,190828.9,A,3317.112853,N,11727.142100,W,72.5,147.3,010110,,,A*41
$GPRMC,190831.9,A,3317.061105,N,11727.102958,W,72.8,147.5,010110,,,A*4C
$GPRMC,190834.9,A,3317.010167,N,11727.063866,W,71.3,147.2,010110,,,A*4E
$GPRMC,190837.9,A,3316.959186,N,11727.025598,W,72.9,147.6,010110,,,A*44
$GPRMC,190840.9,A,3316.907413,N,11726.984994,W,73.0,147.4,010110,,,A*4F
$GPRMC,190843.9,A,3316.854512,N,11726.946815,W,73.9,147.9,010110,,,A*49
$GPRMC,190846.9,A,3316.802442,N,11726.906930,W,73.5,147.9,010110,,,A*45
$GPRMC,190849.9,A,3316.751445,N,11726.868672,W,73.6,147.7,010110,,,A*49
$GPRMC,190852.9,A,3316.697437,N,11726.828502,W,75.4,147.2,010110,,,A*4C
$GPRMC,190855.9,A,3316.645283,N,11726.787208,W,75.2,146.8,010110,,,A*47
$GPRMC,190858.9,A,3316.593069,N,11726.747466,W,75.5,147.1,010110,,,A*49
$GPRMC,190901.9,A,3316.538756,N,11726.706252,W,75.6,148.0,010110,,,A*47
$GPRMC,190904.9,A,3316.487396,N,11726.667444,W,74.7,147.3,010110,,,A*44
$GPRMC,190907.9,A,3316.435539,N,11726.627387,W,74.0,147.5,010110,,,A*40
$GPRMC,190910.9,A,3316.383478,N,11726.587216,W,74.2,145.9,010110,,,A*44
$GPRMC,190913.9,A,3316.334894,N,11726.539977,W,74.1,138.4,010110,,,A*48
$GPRMC,190916.9,A,3316.291891,N,11726.485667,W,74.5,132.6,010110,,,A*42
$GPRMC,190919.9,A,3316.251277,N,11726.428179,W,76.6,131.4,010110,,,A*4C
$GPRMC,190922.9,A,3316.208035,N,11726.370170,W,76.8,131.8,010110,,,A*4D
$GPRMC,190925.9,A,3316.166707,N,11726.314679,W,76.0,131.4,010110,,,A*4F
$GPRMC,190928.9,A,3316.124150,N,11726.257321,W,75.6,131.2,010110,,,A*4D
$GPRMC,190931.9,A,3316.082802,N,11726.201542,W,74.3,131.4,010110,,,A*44
$GPRMC,190934.2,A,3316.052351,N,11726.160150,W,72.5,131.2,010110,,,A*4F
$GPRMC,190937.2,A,3316.014088,N,11726.106730,W,71.3,131.5,010110,,,A*4B
$GPRMC,190940.2,A,3315.975341,N,11726.054137,W,70.7,131.7,010110,,,A*40
$GPRMC,190943.2,A,3315.936543,N,11726.001738,W,70.5,131.2,010110,,,A*4E
$GPRMC,190946.2,A,3315.898148,N,11725.949625,W,69.2,132.2,010110,,,A*46
$GPRMC,190949.9,A,3315.846450,N,11725.890989,W,69.1,139.2,010110,,,A*49
$GPRMC,190952.9,A,3315.798755,N,11725.852704,W,69.7,145.2,010110,,,A*41
$GPRMC,190955.9,A,3315.749246,N,11725.815853,W,69.8,146.9,010110,,,A*44
$GPRMC,190958.9,A,3315.700721,N,11725.776924,W,69.2,146.3,010110,,,A*4B
$GPRMC,191001.9,A,3315.651776,N,11725.736876,W,70.4,145.8,010110,,,A*4C
$GPRMC,191004.9,A,3315.600760,N,11725.695553,W,72.3,146.4,010110,,,A*42
$GPRMC,191007.9,A,3315.551193,N,11725.657796,W,71.4,146.7,010110,,,A*4E
$GPRMC,191010.9,A,3315.501854,N,11725.619751,W,71.2,146.5,010110,,,A*4A
$GPRMC,191013.9,A,3315.451717,N,11725.577456,W,72.5,145.7,010110,,,A*4F
$GPRMC,191016.9,A,3315.401132,N,11725.537876,W,72.1,146.1,010110,,,A*45
$GPRMC,191019.9,A,3315.353775,N,11725.499506,W,70.8,145.5,010110,,,A*4C
$GPRMC,191022.9,A,3315.303594,N,11725.459272,W,73.4,146.2,010110,,,A*4F
$GPRMC,191025.9,A,3315.252860,N,11725.419706,W,72.5,146.1,010110,,,A*4A
$GPRMC,191028.9,A,3315.203022,N,11725.379522,W,71.4,146.2,010110,,,A*49
$GPRMC,191031.9,A,3315.153630,N,11725.342804,W,70.1,146.4,010110,,,A*41
$GPRMC,191034.9,A,3315.104409,N,11725.301833,W,71.4,145.6,010110,,,A*48
$GPRMC,191037.9,A,3315.057274,N,11725.265942,W,69.3,146.6,010110,,,A*49
$GPRMC,191040.9,A,3315.007901,N,11725.225855,W,70.4,145.8,010110,,,A*44
$GPRMC,191043.9,A,3314.959951,N,11725.187965,W,69.4,146.8,010110,,,A*43
$GPRMC,191046.9,A,3314.911603,N,11725.150901,W,69.1,146.5,010110,,,A*42
$GPRMC,191049.9,A,3314.862787,N,11725.115097,W,69.7,149.8,010110,,,A*46
$GPRMC,191052.9,A,3314.809945,N,11725.084525,W,71.5,157.3,010110,,,A*4B
$GPRMC,191055.9,A,3314.754248,N,11725.058264,W,72.1,159.3,010110,,,A*47
$GPRMC,191058.9,A,3314.695939,N,11725.032585,W,74.4,159.4,010110,,,A*4B
$GPRMC,191101.9,A,3314.637441,N,11725.005969,W,75.2,159.6,010110,,,A*43
$GPRMC,191104.9,A,3314.579410,N,11724.978130,W,74.9,155.7,010110,,,A*4A
$GPRMC,191107.9,A,3314.524742,N,11724.940758,W,75.2,147.6,010110,,,A*4E
$GPRMC,191110.9,A,3314.475155,N,11724.894465,W,74.7,139.9,010110,,,A*4A
$GPRMC,191113.9,A,3314.430957,N,11724.842023,W,74.6,133.6,010110,,,A*4B
$GPRMC,191116.9,A,3314.392712,N,11724.781792,W,76.3,126.3,010110,,,A*45
$GPRMC,191119.9,A,3314.354602,N,11724.719485,W,76.2,126.3,010110,,,A*45
$GPRMC,191122.9,A,3314.324304,N,11724.664418,W,69.3,124.2,010110,,,A*4A
$GPRMC,191125.9,A,3314.289338,N,11724.607311,W,70.0,126.0,010110,,,A*44
$GPRMC,191128.9,A,3314.253659,N,11724.554974,W,68.5,130.0,010110,,,A*4B
$GPRMC,191131.9,A,3314.217343,N,11724.509367,W,66.7,135.6,010110,,,A*42
$GPRMC,191134.9,A,3314.175481,N,11724.462970,W,68.0,136.3,010110,,,A*46
$GPRMC,191137.9,A,3314.133667,N,11724.416301,W,68.6,136.3,010110,,,A*44
$GPRMC,191140.9,A,3314.092799,N,11724.367729,W,69.7,135.3,010110,,,A*42
$GPRMC,191143.9,A,3314.052063,N,11724.318740,W,69.2,136.4,010110,,,A*49
$GPRMC,191146.9,A,3314.010754,N,11724.274866,W,68.2,137.5,010110,,,A*48
$GPRMC,191149.9,A,3313.968570,N,11724.226288,W,68.9,136.5,010110,,,A*45
$GPRMC,191152.9,A,3313.927561,N,11724.180396,W,67.2,137.4,010110,,,A*41
$GPRMC,191155.9,A,3313.886723,N,11724.132452,W,69.0,135.8,010110,,,A*4C
$GPRMC,191158.9,A,3313.844178,N,11724.087793,W,67.9,137.7,010110,,,A*4C
$GPRMC,191201.9,A,3313.802489,N,11724.040537,W,69.1,137.1,010110,,,A*4D
$GPRMC,191204.9,A,3313.758325,N,11723.994379,W,70.0,137.7,010110,,,A*4D
$GPRMC,191207.9,A,3313.717349,N,11723.947635,W,70.1,137.1,010110,,,A*4B
$GPRMC,191210.9,A,3313.674531,N,11723.901675,W,68.5,136.7,010110,,,A*4C
$GPRMC,191213.9,A,3313.631686,N,11723.855012,W,69.5,137.1,010110,,,A*40
$GPRMC,191216.9,A,3313.589889,N,11723.808284,W,68.1,137.1,010110,,,A*44
$GPRMC,191219.9,A,3313.548911,N,11723.762573,W,67.0,137.2,010110,,,A*47
$GPRMC,191222.9,A,3313.507554,N,11723.715857,W,66.5,136.7,010110,,,A*42
$GPRMC,191225.9,A,3313.466509,N,11723.670643,W,66.6,137.1,010110,,,A*46
$GPRMC,191228.9,A,3313.422996,N,11723.624068,W,69.0,137.3,010110,,,A*44
$GPRMC,191231.9,A,3313.379785,N,11723.580515,W,68.5,142.1,010110,,,A*4F
$GPRMC,191234.9,A,3313.331594,N,11723.546602,W,68.5,151.5,010110,,,A*4D
$GPRMC,191237.9,A,3313.278368,N,11723.518491,W,71.2,158.7,010110,,,A*40
$GPRMC,191240.9,A,3313.223091,N,11723.499224,W,68.9,164.3,010110,,,A*43
$GPRMC,191243.9,A,3313.169238,N,11723.483097,W,66.5,165.8,010110,,,A*45
$GPRMC,191246.9,A,3313.116336,N,11723.467209,W,64.5,165.9,010110,,,A*4B
$GPRMC,191249.9,A,3313.063540,N,11723.451203,W,66.3,166.0,010110,,,A*41
$GPRMC,191252.9,A,3313.008447,N,11723.435994,W,66.8,166.3,010110,,,A*4F
$GPRMC,191255.9,A,3312.956280,N,11723.419888,W,65.1,166.3,010110,,,A*4E
$GPRMC,191258.9,A,3312.904029,N,11723.402111,W,66.1,164.3,010110,,,A*47
$GPRMC,191301.9,A,3312.850492,N,11723.381679,W,68.2,159.1,010110,,,A*4A
$GPRMC,191304.9,A,3312.797332,N,11723.351142,W,69.7,153.5,010110,,,A*4E
$GPRMC,191307.9,A,3312.745198,N,11723.316309,W,71.6,151.5,010110,,,A*44
$GPRMC,191310.9,A,3312.691724,N,11723.282956,W,71.7,151.7,010110,,,A*44
$GPRMC,191313.9,A,3312.638565,N,11723.250661,W,72.2,152.4,010110,,,A*41
$GPRMC,191316.9,A,3312.584544,N,11723.215738,W,72.7,151.7,010110,,,A*4A
$GPRMC,191319.9,A,3312.531903,N,11723.181609,W,72.8,151.4,010110,,,A*45
$GPRMC,191322.9,A,3312.475552,N,11723.147539,W,73.9,152.8,010110,,,A*41
$GPRMC,191325.9,A,3312.420951,N,11723.115448,W,73.2,152.3,010110,,,A*49
$GPRMC,191328.9,A,3312.370191,N,11723.081069,W,70.4,149.0,010110,,,A*45
$GPRMC,191331.9,A,3312.320950,N,11723.037829,W,69.7,141.9,010110,,,A*46
$GPRMC,191334.9,A,3312.281550,N,11722.995348,W,65.2,136.3,010110,,,A*4A
$GPRMC,191337.9,A,3312.244520,N,11722.945158,W,67.8,129.8,010110,,,A*44
$GPRMC,191340.9,A,3312.212531,N,11722.887954,W,68.3,123.3,010110,,,A*49
$GPRMC,191343.9,A,3312.187174,N,11722.831314,W,66.2,116.8,010110,,,A*41
$GPRMC,191346.9,A,3312.165900,N,11722.772054,W,66.5,112.9,010110,,,A*4E
$GPRMC,191349.9,A,3312.143782,N,11722.707841,W,68.4,112.0,010110,,,A*49
$GPRMC,191352.9,A,3312.122665,N,11722.644342,W,68.6,112.0,010110,,,A*40
$GPRMC,191355.9,A,3312.099881,N,11722.581878,W,69.3,112.7,010110,,,A*49
$GPRMC,191358.9,A,3312.078677,N,11722.517922,W,69.3,111.8,010110,,,A*41
$GPRMC,191401.9,A,3312.058250,N,11722.454760,W,68.7,112.0,010110,,,A*49
$GPRMC,191404.9,A,3312.036951,N,11722.390916,W,68.3,112.3,010110,,,A*49
$GPRMC,191407.9,A,3312.014735,N,11722.329812,W,68.2,113.6,010110,,,A*44
$GPRMC,191410.9,A,3311.987501,N,11722.273122,W,65.2,120.2,010110,,,A*4A
$GPRMC,191413.9,A,3311.956309,N,11722.221324,W,63.4,126.1,010110,,,A*4D
$GPRMC,191416.9,A,3311.920566,N,11722.173649,W,63.1,133.1,010110,,,A*4D
$GPRMC,191419.9,A,3311.882164,N,11722.132875,W,62.8,138.9,010110,,,A*42
$GPRMC,191422.9,A,3311.838956,N,11722.093322,W,64.0,144.0,010110,,,A*4D
$GPRMC,191425.9,A,3311.792132,N,11722.055170,W,66.6,145.7,010110,,,A*42
$GPRMC,191428.9,A,3311.746458,N,11722.017899,W,66.8,145.7,010110,,,A*49
$GPRMC,191431.9,A,3311.701460,N,11721.979500,W,67.4,144.7,010110,,,A*4A
$GPRMC,191434.9,A,3311.652423,N,11721.938378,W,70.8,145.3,010110,,,A*4C
$GPRMC,191437.9,A,3311.605594,N,11721.900094,W,69.2,145.4,010110,,,A*4F
$GPRMC,191440.9,A,3311.557780,N,11721.861091,W,69.7,145.0,010110,,,A*4E
$GPRMC,191443.9,A,3311.512151,N,11721.822202,W,68.3,144.9,010110,,,A*44
$GPRMC,191446.9,A,3311.464008,N,11721.782272,W,71.1,145.3,010110,,,A*4F
$GPRMC,191449.9,A,3311.413419,N,11721.738317,W,73.5,144.9,010110,,,A*4A
$GPRMC,191452.9,A,3311.363140,N,11721.696700,W,74.0,145.5,010110,,,A*41
$GPRMC,191455.9,A,3311.314403,N,11721.661838,W,70.8,147.7,010110,,,A*44
$GPRMC,191458.9,A,3311.266264,N,11721.623064,W,70.1,145.8,010110,,,A*49
$GPRMC,191501.9,A,3311.216674,N,11721.579010,W,72.6,144.9,010110,,,A*4C
$GPRMC,191504.9,A,3311.166636,N,11721.535964,W,73.0,143.9,010110,,,A*49
$GPRMC,191507.9,A,3311.117070,N,11721.499173,W,71.2,146.4,010110,,,A*49
$GPRMC,191510.9,A,3311.066476,N,11721.459788,W,72.7,146.1,010110,,,A*47
$GPRMC,191513.9,A,3311.016547,N,11721.416773,W,72.8,145.2,010110,,,A*40
$GPRMC,191516.9,A,3310.967603,N,11721.373318,W,71.3,144.7,010110,,,A*49
$GPRMC,191519.9,A,3310.918200,N,11721.331785,W,70.9,144.7,010110,,,A*44
$GPRMC,191522.9,A,3310.870957,N,11721.293118,W,69.3,145.2,010110,,,A*47
$GPRMC,191525.9,A,3310.824250,N,11721.253406,W,68.7,144.6,010110,,,A*4B
$GPRMC,191528.9,A,3310.777454,N,11721.213881,W,67.5,144.9,010110,,,A*48
$GPRMC,191531.9,A,3310.730849,N,11721.176202,W,67.9,145.2,010110,,,A*44
$GPRMC,191534.9,A,3310.685058,N,11721.139623,W,68.1,145.9,010110,,,A*46
$GPRMC,191537.9,A,3310.637918,N,11721.099401,W,68.9,145.4,010110,,,A*4D
$GPRMC,191540.9,A,3310.590998,N,11721.061412,W,69.0,146.8,010110,,,A*49
$GPRMC,191543.9,A,3310.541555,N,11721.024815,W,70.6,147.6,010110,,,A*40
$GPRMC,191546.9,A,3310.492737,N,11720.989386,W,69.0,147.8,010110,,,A*42
$GPRMC,191549.9,A,3310.445340,N,11720.953093,W,67.7,147.9,010110,,,A*4B
$GPRMC,191552.9,A,3310.397177,N,11720.917409,W,67.5,147.5,010110,,,A*46
$GPRMC,191555.9,A,3310.349707,N,11720.882387,W,67.3,147.4,010110,,,A*48
$GPRMC,191558.9,A,3310.301600,N,11720.845553,W,68.3,147.3,010110,,,A*43
$GPRMC,191601.9,A,3310.253312,N,11720.811114,W,68.6,147.7,010110,,,A*4B
$GPRMC,191604.9,A,3310.206128,N,11720.774156,W,68.0,147.5,010110,,,A*4B
$GPRMC,191607.9,A,3310.157738,N,11720.738950,W,68.0,149.0,010110,,,A*45
$GPRMC,191610.9,A,3310.109342,N,11720.706609,W,67.8,151.4,010110,,,A*45
$GPRMC,191613.9,A,3310.055249,N,11720.677356,W,70.2,155.7,010110,,,A*47
$GPRMC,191616.9,A,3310.000208,N,11720.649182,W,71.1,157.5,010110,,,A*43
$GPRMC,191619.9,A,3309.945889,N,11720.622486,W,70.4,157.5,010110,,,A*47
$GPRMC,191622.9,A,3309.890858,N,11720.594987,W,70.2,156.9,010110,,,A*43
$GPRMC,191625.9,A,3309.838420,N,11720.569146,W,69.8,156.1,010110,,,A*48
$GPRMC,191628.9,A,3309.784149,N,11720.541374,W,68.5,157.4,010110,,,A*46
$GPRMC,191631.9,A,3309.732574,N,11720.514980,W,67.6,156.9,010110,,,A*48
$GPRMC,191634.9,A,3309.681719,N,11720.488287,W,66.9,156.3,010110,,,A*41
$GPRMC,191637.9,A,3309.630063,N,11720.460663,W,66.5,156.0,010110,,,A*45
$GPRMC,191640.9,A,3309.580037,N,11720.436603,W,64.4,157.5,010110,,,A*4E
$GPRMC,191643.9,A,3309.531778,N,11720.411271,W,62.2,156.5,010110,,,A*4E
$GPRMC,191646.9,A,3309.485216,N,11720.389125,W,60.5,157.5,010110,,,A*48
$GPRMC,191649.9,A,3309.438538,N,11720.364934,W,60.4,156.5,010110,,,A*41
$GPRMC,191652.9,A,3309.393305,N,11720.343315,W,59.2,157.1,010110,,,A*40
$GPRMC,191655.9,A,3309.345700,N,11720.318016,W,62.2,156.0,010110,,,A*4B
$GPRMC,191658.9,A,3309.299666,N,11720.293757,W,59.8,156.2,010110,,,A*47
$GPRMC,191701.9,A,3309.253791,N,11720.267392,W,60.7,155.5,010110,,,A*42
$GPRMC,191704.9,A,3309.207722,N,11720.240918,W,61.0,155.0,010110,,,A*40
$GPRMC,191707.9,A,3309.162614,N,11720.219117,W,58.9,155.8,010110,,,A*47
$GPRMC,191710.9,A,3309.118212,N,11720.194447,W,58.4,154.7,010110,,,A*4B
$GPRMC,191713.9,A,3309.076242,N,11720.169996,W,58.2,154.1,010110,,,A*47
$GPRMC,191716.9,A,3309.032430,N,11720.143721,W,57.3,154.0,010110,,,A*44
$GPRMC,191719.9,A,3308.990891,N,11720.118176,W,55.5,153.9,010110,,,A*4C
$GPRMC,191722.9,A,3308.950855,N,11720.095718,W,52.0,153.6,010110,,,A*47
$GPRMC,191725.9,A,3308.914680,N,11720.075616,W,49.9,154.5,010110,,,A*40
$GPRMC,191728.9,A,3308.875894,N,11720.056918,W,49.8,159.7,010110,,,A*4E
$GPRMC,191731.9,A,3308.837780,N,11720.042217,W,48.2,165.5,010110,,,A*4D
$GPRMC,191734.9,A,3308.798248,N,11720.033049,W,47.2,169.5,010110,,,A*4F
$GPRMC,191737.9,A,3308.760839,N,11720.030070,W,46.7,175.8,010110,,,A*4A
$GPRMC,191740.9,A,3308.716587,N,11720.026998,W,56.9,176.6,010110,,,A*49
$GPRMC,191743.9,A,3308.664574,N,11720.023196,W,62.4,176.8,010110,,,A*45
$GPRMC,191746.9,A,3308.612103,N,11720.021730,W,61.0,178.8,010110,,,A*44
$GPRMC,191749.9,A,3308.561117,N,11720.017053,W,61.9,174.4,010110,,,A*47
$GPRMC,191752.9,A,3308.511636,N,11720.000884,W,60.2,164.0,010110,,,A*45
$GPRMC,191755.9,A,3308.465055,N,11719.975614,W,61.9,157.1,010110,,,A*4E
$GPRMC,191758.9,A,3308.414744,N,11719.951415,W,64.1,157.8,010110,,,A*43
$GPRMC,191801.9,A,3308.367322,N,11719.929284,W,62.2,158.2,010110,,,A*46
$GPRMC,191804.9,A,3308.319787,N,11719.901660,W,62.4,156.1,010110,,,A*4E
$GPRMC,191807.9,A,3308.273069,N,11719.876250,W,59.6,156.2,010110,,,A*48
$GPRMC,191810.9,A,3308.226467,N,11719.855127,W,58.8,159.9,010110,,,A*4D
$GPRMC,191813.9,A,3308.183496,N,11719.836176,W,55.0,160.3,010110,,,A*48
$GPRMC,191816.9,A,3308.144733,N,11719.824309,W,47.4,166.1,010110,,,A*40
$GPRMC,191819.9,A,3308.111453,N,11719.820888,W,37.8,173.1,010110,,,A*43
$GPRMC,191822.9,A,3308.087615,N,11719.819944,W,26.8,176.3,010110,,,A*49
$GPRMC,191825.9,A,3308.073043,N,11719.818510,W,14.7,170.7,010110,,,A*40
$GPRMC,191834.2,A,3308.062881,N,11719.818096,W,11.4,179.3,010110,,,A*4D
$GPRMC,191837.2,A,3308.053985,N,11719.811829,W,15.1,116.4,010110,,,A*43
$GPRMC,191840.2,A,3308.053286,N,11719.792192,W,22.1,89.0,010110,,,A*71
$GPRMC,191844.2,A,3308.064122,N,11719.758345,W,29.2,73.2,010110,,,A*7D
$GPRMC,191847.9,A,3308.083606,N,11719.720446,W,32.0,68.6,010110,,,A*70
$GPRMC,191850.9,A,3308.092948,N,11719.692163,W,30.3,68.4,010110,,,A*7A
$GPRMC,191853.9,A,3308.107528,N,11719.665689,W,28.0,62.8,010110,,,A*79
$GPRMC,191856.9,A,3308.113095,N,11719.648327,W,17.8,67.8,010110,,,A*75
$GPRMC,191859.9,A,3308.118436,N,11719.633746,W,15.7,67.5,010110,,,A*73
$GPRMC,191902.9,A,3308.123162,N,11719.616098,W,20.0,72.2,010110,,,A*71
$GPRMC,191905.9,A,3308.130516,N,11719.590903,W,25.6,75.0,010110,,,A*73
$GPRMC,191908.9,A,3308.131433,N,11719.561884,W,29.3,86.5,010110,,,A*79
$GPRMC,191911.9,A,3308.130888,N,11719.530436,W,31.1,91.9,010110,,,A*7C
$GPRMC,191914.9,A,3308.127497,N,11719.498769,W,33.2,97.9,010110,,,A*70
$GPRMC,191917.9,A,3308.121501,N,11719.465901,W,34.0,100.9,010110,,,A*43
$GPRMC,191920.9,A,3308.114969,N,11719.431800,W,34.9,101.0,010110,,,A*43
$GPRMC,191923.9,A,3308.108901,N,11719.395647,W,36.7,99.8,010110,,,A*73
$GPRMC,191926.9,A,3308.105129,N,11719.360305,W,37.4,98.4,010110,,,A*7F
$GPRMC,191929.9,A,3308.098423,N,11719.321384,W,37.9,99.6,010110,,,A*78
$GPRMC,191932.9,A,3308.091732,N,11719.284518,W,37.6,101.4,010110,,,A*48
$GPRMC,191935.9,A,3308.085374,N,11719.246327,W,38.1,100.4,010110,,,A*41
$GPRMC,191938.9,A,3308.079101,N,11719.210578,W,36.7,100.9,010110,,,A*45
$GPRMC,191941.9,A,3308.073239,N,11719.173352,W,38.1,100.7,010110,,,A*47
$GPRMC,191944.9,A,3308.068424,N,11719.136007,W,38.0,99.3,010110,,,A*74
$GPRMC,191947.9,A,3308.061443,N,11719.096571,W,41.2,99.2,010110,,,A*7D
$GPRMC,191950.9,A,3308.059845,N,11719.054838,W,42.4,94.6,010110,,,A*78
$GPRMC,191953.9,A,3308.056768,N,11719.012690,W,42.8,95.4,010110,,,A*75
$GPRMC,191956.9,A,3308.053191,N,11718.967997,W,43.8,95.3,010110,,,A*71
$GPRMC,191959.9,A,3308.049776,N,11718.924810,W,43.6,92.5,010110,,,A*7C
$GPRMC,192002.9,A,3308.050523,N,11718.883605,W,42.7,84.6,010110,,,A*70
$GPRMC,192005.9,A,3308.059379,N,11718.845617,W,39.3,75.4,010110,,,A*7A
$GPRMC,192008.9,A,3308.067670,N,11718.813387,W,31.0,71.3,010110,,,A*71
$GPRMC,192011.9,A,3308.074686,N,11718.797893,W,17.7,63.6,010110,,,A*7A
$GPRMC,192014.9,A,3308.079029,N,11718.790114,W,7.6,61.6,010110,,,A*42
$GPRMC,192026.9,A,3308.086625,N,11718.777314,W,13.9,53.4,010110,,,A*7B
$GPRMC,192029.9,A,3308.096685,N,11718.749283,W,29.0,63.2,010110,,,A*78
$GPRMC,192032.9,A,3308.111263,N,11718.719253,W,34.5,59.3,010110,,,A*79
$GPRMC,192035.9,A,3308.131475,N,11718.689394,W,38.6,54.8,010110,,,A*76
$GPRMC,192038.9,A,3308.159221,N,11718.657463,W,44.2,49.3,010110,,,A*76
$GPRMC,192041.9,A,3308.188433,N,11718.625118,W,46.3,47.0,010110,,,A*73
$GPRMC,192044.9,A,3308.217361,N,11718.590310,W,48.2,47.2,010110,,,A*79
$GPRMC,192047.9,A,3308.244535,N,11718.558688,W,46.4,46.5,010110,,,A*75
$GPRMC,192050.9,A,3308.272731,N,11718.523922,W,48.0,46.9,010110,,,A*75
$GPRMC,192053.9,A,3308.298605,N,11718.487163,W,46.7,48.0,010110,,,A*78
$GPRMC,192056.9,A,3308.320775,N,11718.457304,W,36.8,45.2,010110,,,A*70
$GPRMC,192059.9,A,3308.339497,N,11718.441064,W,22.9,36.9,010110,,,A*71
$GPRMC,192102.9,A,3308.342299,N,11718.424838,W,16.0,89.6,010110,,,A*7D
$GPRMC,192105.9,A,3308.331786,N,11718.405450,W,25.4,122.1,010110,,,A*47
$GPRMC,192108.9,A,3308.312083,N,11718.381306,W,32.2,137.4,010110,,,A*47
$GPRMC,192111.9,A,3308.283583,N,11718.356504,W,35.7,148.8,010110,,,A*4B
$GPRMC,192114.9,A,3308.263810,N,11718.349581,W,23.2,164.3,010110,,,A*43
$GPRMC,192117.9,A,3308.253990,N,11718.345966,W,9.0,150.7,010110,,,A*7A
$GPRMC,192120.9,A,3308.253380,N,11718.342843,W,5.6,81.5,010110,,,A*41
$GPRMC,192123.9,A,3308.267851,N,11718.346309,W,17.4,344.7,010110,,,A*4A
$GPRMC,192126.9,A,3308.292191,N,11718.358072,W,29.9,336.7,010110,,,A*45
$GPRMC,192129.9,A,3308.311163,N,11718.372777,W,24.1,322.4,010110,,,A*44
$GPRMC,192132.9,A,3308.325875,N,11718.376229,W,17.8,7.5,010110,,,A*41
$GPRMC,192135.9,A,3308.333667,N,11718.361405,W,19.5,51.6,010110,,,A*71
$GPRMC,192138.9,A,3308.337684,N,11718.338643,W,21.9,80.7,010110,,,A*73
$GPRMC,192141.9,A,3308.337745,N,11718.318012,W,21.0,88.1,010110,,,A*76
$GPRMC,192144.9,A,3308.336705,N,11718.292664,W,23.0,90.6,010110,,,A*7E
$GPRMC,192147.9,A,3308.343635,N,11718.274358,W,22.9,70.6,010110,,,A*79
$GPRMC,192150.9,A,3308.356168,N,11718.251910,W,24.5,53.0,010110,,,A*78
$GPRMC,192153.9,A,3308.372013,N,11718.237731,W,24.6,37.3,010110,,,A*7F
$GPRMC,192156.9,A,3308.391033,N,11718.226481,W,25.1,24.1,010110,,,A*7B
$GPRMC,192159.9,A,3308.413098,N,11718.218414,W,27.7,21.5,010110,,,A*7C
$GPRMC,192203.2,A,3308.436295,N,11718.206780,W,26.9,19.5,010110,,,A*76
$GPRMC,192206.2,A,3308.446451,N,11718.197326,W,11.3,47.3,010110,,,A*7A
$GPRMC,192209.2,A,3308.445915,N,11718.187472,W,15.5,119.3,010110,,,A*44
$GPRMC,192212.2,A,3308.438562,N,11718.169350,W,23.2,106.5,010110,,,A*45
$GPRMC,192215.2,A,3308.435808,N,11718.144101,W,28.0,91.5,010110,,,A*71
$GPRMC,192218.9,A,3308.433963,N,11718.108721,W,26.9,96.3,010110,,,A*77
$GPRMC,192221.9,A,3308.424192,N,11718.086860,W,25.8,123.9,010110,,,A*47
$GPRMC,192224.9,A,3308.408178,N,11718.063479,W,29.8,126.3,010110,,,A*44
$GPRMC,192227.9,A,3308.399012,N,11718.043199,W,25.6,112.0,010110,,,A*4A
$GPRMC,192230.9,A,3308.395371,N,11718.015288,W,25.3,92.7,010110,,,A*7D
