NMEA Sentence Code,UTC Time,Status,Latitude,Latitude Direction,Longitude,Longitude Direction,Speed (knots),Track Angle (degrees true),Date,MagneticVariation,Magnetic Variation Direction,[FAA Mode]-Optional,Checksum
$GPRMC,195049.2,A,3235.022297,N,11705.573358,W,12.6,107.6,210610,,,A*49
$GPRMC,195052.2,A,3235.023214,N,11705.540494,W,28.7,88.4,210610,,,A*72
$GPRMC,195055.2,A,3235.024770,N,11705.505166,W,33.4,88.3,210610,,,A*72
$GPRMC,195058.2,A,3235.025472,N,11705.467231,W,37.5,91.0,210610,,,A*75
$GPRMC,195101.2,A,3235.022947,N,11705.428166,W,38.7,96.2,210610,,,A*76
$GPRMC,195104.2,A,3235.015195,N,11705.389030,W,39.4,103.0,210610,,,A*43
$GPRMC,195107.2,A,3235.006548,N,11705.350297,W,40.4,103.8,210610,,,A*4B
$GPRMC,195110.2,A,3234.997350,N,11705.310195,W,41.3,107.7,210610,,,A*4A
$GPRMC,195113.2,A,3234.979373,N,11705.274959,W,40.9,125.3,210610,,,A*4C
$GPRMC,195117.2,A,3234.943178,N,11705.240153,W,40.6,147.8,210610,,,A*4D
$GPRMC,195120.2,A,3234.912584,N,11705.222414,W,40.5,151.8,210610,,,A*4C
$GPRMC,195123.2,A,3234.876267,N,11705.206509,W,45.9,155.9,210610,,,A*41
$GPRMC,195126.2,A,3234.839886,N,11705.186913,W,48.4,154.3,210610,,,A*4D
$GPRMC,195129.2,A,3234.802978,N,11705.164356,W,51.1,151.2,210610,,,A*44
$GPRMC,195132.2,A,3234.766221,N,11705.137683,W,52.7,147.4,210610,,,A*4B
$GPRMC,195135.2,A,3234.729059,N,11705.105224,W,55.3,142.8,210610,,,A*48
$GPRMC,195138.2,A,3234.692892,N,11705.069611,W,56.3,140.2,210610,,,A*49
$GPRMC,195141.2,A,3234.656865,N,11705.032787,W,54.9,138.4,210610,,,A*46
$GPRMC,195144.2,A,3234.623159,N,11704.995640,W,55.2,138.1,210610,,,A*47
$GPRMC,195147.2,A,3234.588512,N,11704.960505,W,54.1,139.7,210610,,,A*40
$GPRMC,195150.2,A,3234.552356,N,11704.927267,W,54.8,142.2,210610,,,A*47
$GPRMC,195153.2,A,3234.514748,N,11704.893607,W,56.6,144.7,210610,,,A*4E
$GPRMC,195156.2,A,3234.474437,N,11704.861156,W,57.6,146.1,210610,,,A*4C
$GPRMC,195159.2,A,3234.434466,N,11704.830383,W,58.3,147.4,210610,,,A*43
$GPRMC,195202.2,A,3234.393452,N,11704.799060,W,58.1,147.5,210610,,,A*42
$GPRMC,195205.2,A,3234.353488,N,11704.769353,W,56.6,147.7,210610,,,A*49
$GPRMC,195208.2,A,3234.312999,N,11704.739686,W,56.3,147.2,210610,,,A*44
$GPRMC,195211.2,A,3234.273927,N,11704.710666,W,55.2,147.9,210610,,,A*43
$GPRMC,195214.2,A,3234.234384,N,11704.681267,W,56.3,149.3,210610,,,A*4C
$GPRMC,195217.2,A,3234.192471,N,11704.653014,W,57.8,150.1,210610,,,A*44
$GPRMC,195220.2,A,3234.149176,N,11704.623634,W,59.2,150.2,210610,,,A*40
$GPRMC,195223.2,A,3234.105420,N,11704.595477,W,58.4,150.4,210610,,,A*47
$GPRMC,195226.2,A,3234.062279,N,11704.567167,W,58.3,150.3,210610,,,A*41
$GPRMC,195229.2,A,3234.022119,N,11704.539050,W,56.0,149.7,210610,,,A*40
$GPRMC,195232.2,A,3233.983933,N,11704.509232,W,53.3,142.0,210610,,,A*40
$GPRMC,195236.2,A,3233.946566,N,11704.456499,W,51.5,123.0,210610,,,A*4E
$GPRMC,195239.2,A,3233.941940,N,11704.403158,W,51.9,96.6,210610,,,A*73
$GPRMC,195243.2,A,3233.954037,N,11704.330130,W,55.6,72.5,210610,,,A*78
$GPRMC,195246.9,A,3233.978653,N,11704.261464,W,60.9,68.9,210610,,,A*73
$GPRMC,195249.9,A,3233.996228,N,11704.203288,W,63.2,71.4,210610,,,A*79
$GPRMC,195252.9,A,3234.016731,N,11704.143313,W,63.5,68.7,210610,,,A*70
$GPRMC,195255.9,A,3234.034357,N,11704.089314,W,58.9,70.2,210610,,,A*7B
$GPRMC,195258.9,A,3234.052826,N,11704.034483,W,59.2,69.8,210610,,,A*7C
$GPRMC,195301.9,A,3234.067351,N,11703.980817,W,57.8,71.5,210610,,,A*7C
$GPRMC,195304.9,A,3234.083328,N,11703.924238,W,60.1,73.3,210610,,,A*7D
$GPRMC,195307.9,A,3234.092186,N,11703.867533,W,60.3,79.6,210610,,,A*7F
$GPRMC,195310.9,A,3234.095116,N,11703.808287,W,60.2,85.5,210610,,,A*77
$GPRMC,195313.9,A,3234.094738,N,11703.750068,W,59.9,89.3,210610,,,A*75
$GPRMC,195316.9,A,3234.092128,N,11703.689472,W,60.2,91.2,210610,,,A*72
$GPRMC,195319.9,A,3234.089794,N,11703.629915,W,60.3,91.4,210610,,,A*77
$GPRMC,195322.9,A,3234.093255,N,11703.569751,W,60.6,89.6,210610,,,A*7B
$GPRMC,195325.9,A,3234.092321,N,11703.509591,W,60.4,90.4,210610,,,A*7F
$GPRMC,195328.9,A,3234.091712,N,11703.452263,W,59.4,90.6,210610,,,A*78
$GPRMC,195331.9,A,3234.091596,N,11703.392590,W,59.4,90.2,210610,,,A*7A
$GPRMC,195334.2,A,3234.091584,N,11703.346252,W,60.4,90.6,210610,,,A*79
$GPRMC,195337.2,A,3234.090888,N,11703.286574,W,60.2,90.6,210610,,,A*72
$GPRMC,195340.2,A,3234.089740,N,11703.227028,W,59.8,91.8,210610,,,A*79
$GPRMC,195343.9,A,3234.088645,N,11703.154803,W,59.5,90.7,210610,,,A*71
$GPRMC,195346.9,A,3234.089544,N,11703.096263,W,58.9,90.0,210610,,,A*7E
$GPRMC,195349.9,A,3234.090113,N,11703.040184,W,57.7,89.7,210610,,,A*70
$GPRMC,195352.9,A,3234.089703,N,11702.982472,W,56.3,90.1,210610,,,A*74
$GPRMC,195355.9,A,3234.084168,N,11702.927740,W,54.2,94.2,210610,,,A*7C
$GPRMC,195358.9,A,3234.083802,N,11702.880240,W,50.1,91.0,210610,,,A*7A
$GPRMC,195401.9,A,3234.082478,N,11702.829812,W,50.9,91.7,210610,,,A*70
$GPRMC,195404.9,A,3234.081865,N,11702.780680,W,51.4,92.1,210610,,,A*76
$GPRMC,195407.9,A,3234.078847,N,11702.728237,W,52.9,93.0,210610,,,A*77
$GPRMC,195410.9,A,3234.077122,N,11702.676756,W,52.9,91.8,210610,,,A*76
$GPRMC,195413.9,A,3234.077628,N,11702.624112,W,51.4,90.0,210610,,,A*7E
$GPRMC,195416.9,A,3234.076395,N,11702.574407,W,50.2,90.6,210610,,,A*7F
$GPRMC,195419.9,A,3234.076960,N,11702.528558,W,47.7,89.6,210610,,,A*79
$GPRMC,195422.9,A,3234.074116,N,11702.480378,W,46.8,91.6,210610,,,A*7A
$GPRMC,195425.9,A,3234.070725,N,11702.436339,W,42.6,92.7,210610,,,A*7F
$GPRMC,195428.9,A,3234.067446,N,11702.399128,W,36.9,91.9,210610,,,A*73
$GPRMC,195431.9,A,3234.067213,N,11702.371043,W,28.2,93.2,210610,,,A*7A
$GPRMC,195434.9,A,3234.049648,N,11702.357714,W,22.7,142.9,210610,,,A*41
$GPRMC,195437.9,A,3234.030462,N,11702.354223,W,21.7,180.1,210610,,,A*41
$GPRMC,195440.2,A,3234.016762,N,11702.363925,W,22.3,206.0,210610,,,A*4F
$GPRMC,195444.2,A,3234.009077,N,11702.395515,W,25.2,264.3,210610,,,A*41
$GPRMC,195447.9,A,3234.021631,N,11702.421802,W,21.9,296.5,210610,,,A*40
$GPRMC,195450.9,A,3234.050042,N,11702.420511,W,30.3,359.2,210610,,,A*43
$GPRMC,195453.2,A,3234.073549,N,11702.416653,W,33.9,7.8,210610,,,A*4F
$GPRMC,195456.2,A,3234.109148,N,11702.409907,W,43.0,8.5,210610,,,A*4F
$GPRMC,195459.9,A,3234.159031,N,11702.396356,W,48.7,9.2,210610,,,A*44
$GPRMC,195502.9,A,3234.201057,N,11702.391099,W,49.4,6.2,210610,,,A*4F
$GPRMC,195505.9,A,3234.243118,N,11702.384023,W,49.9,8.4,210610,,,A*44
$GPRMC,195508.9,A,3234.285649,N,11702.374923,W,52.8,10.0,210610,,,A*70
$GPRMC,195511.9,A,3234.330319,N,11702.366890,W,53.6,8.4,210610,,,A*4F
$GPRMC,195514.9,A,3234.373577,N,11702.358599,W,52.6,10.1,210610,,,A*77
$GPRMC,195517.9,A,3234.417765,N,11702.349679,W,54.8,9.2,210610,,,A*4E
$GPRMC,195520.9,A,3234.467986,N,11702.340856,W,59.6,10.1,210610,,,A*7C
$GPRMC,195523.9,A,3234.517337,N,11702.328895,W,59.6,10.9,210610,,,A*70
$GPRMC,195526.9,A,3234.566215,N,11702.317902,W,59.1,11.0,210610,,,A*7E
$GPRMC,195529.2,A,3234.604068,N,11702.310544,W,59.5,9.2,210610,,,A*43
$GPRMC,195532.9,A,3234.663839,N,11702.294987,W,60.1,11.6,210610,,,A*72
$GPRMC,195535.9,A,3234.711492,N,11702.283225,W,59.5,11.1,210610,,,A*70
$GPRMC,195538.9,A,3234.759599,N,11702.269904,W,60.1,11.0,210610,,,A*78
$GPRMC,195541.9,A,3234.809440,N,11702.259044,W,59.8,10.7,210610,,,A*72
$GPRMC,195544.2,A,3234.847272,N,11702.250107,W,60.1,11.4,210610,,,A*7F
$GPRMC,195547.9,A,3234.909371,N,11702.237986,W,61.1,10.2,210610,,,A*78
$GPRMC,195550.9,A,3234.959531,N,11702.227185,W,59.7,11.5,210610,,,A*78
$GPRMC,195553.9,A,3235.007535,N,11702.217176,W,59.8,11.4,210610,,,A*7D
$GPRMC,195556.2,A,3235.044222,N,11702.208023,W,57.9,11.8,210610,,,A*79
$GPRMC,195559.9,A,3235.105963,N,11702.193804,W,60.2,9.7,210610,,,A*42
$GPRMC,195602.9,A,3235.156031,N,11702.183526,W,60.6,7.0,210610,,,A*46
$GPRMC,195605.9,A,3235.204446,N,11702.178235,W,60.0,5.4,210610,,,A*40
$GPRMC,195608.9,A,3235.254371,N,11702.173668,W,59.9,4.0,210610,,,A*4A
$GPRMC,195611.9,A,3235.305714,N,11702.171123,W,59.9,1.7,210610,,,A*48
$GPRMC,195614.9,A,3235.355213,N,11702.167941,W,59.4,1.8,210610,,,A*43
$GPRMC,195617.9,A,3235.404892,N,11702.168611,W,59.6,359.9,210610,,,A*48
$GPRMC,195620.9,A,3235.454828,N,11702.169588,W,59.5,359.3,210610,,,A*43
$GPRMC,195623.9,A,3235.504569,N,11702.170153,W,59.1,359.4,210610,,,A*45
$GPRMC,195626.9,A,3235.556152,N,11702.168937,W,60.5,0.2,210610,,,A*4F
$GPRMC,195629.9,A,3235.606170,N,11702.168522,W,59.7,1.0,210610,,,A*45
$GPRMC,195632.9,A,3235.655914,N,11702.169304,W,59.3,0.6,210610,,,A*43
$GPRMC,195635.9,A,3235.704121,N,11702.167840,W,58.8,0.4,210610,,,A*42
$GPRMC,195638.9,A,3235.753854,N,11702.167349,W,59.9,359.4,210610,,,A*4B
$GPRMC,195641.9,A,3235.805271,N,11702.167030,W,61.4,0.3,210610,,,A*47
$GPRMC,195644.9,A,3235.855826,N,11702.167080,W,60.9,359.9,210610,,,A*4D
$GPRMC,195647.9,A,3235.905953,N,11702.165749,W,60.6,0.8,210610,,,A*48
$GPRMC,195650.9,A,3235.955314,N,11702.165635,W,60.1,1.3,210610,,,A*45
$GPRMC,195653.9,A,3236.002420,N,11702.164495,W,56.7,0.5,210610,,,A*43
$GPRMC,195656.9,A,3236.049683,N,11702.163545,W,56.8,0.1,210610,,,A*42
$GPRMC,195659.9,A,3236.096049,N,11702.164586,W,56.1,359.2,210610,,,A*42
$GPRMC,195703.2,A,3236.145241,N,11702.163078,W,52.5,2.5,210610,,,A*4B
$GPRMC,195706.2,A,3236.189053,N,11702.159389,W,50.5,4.8,210610,,,A*42
$GPRMC,195709.2,A,3236.229396,N,11702.154438,W,46.8,6.7,210610,,,A*49
$GPRMC,195712.2,A,3236.264461,N,11702.147335,W,38.8,13.0,210610,,,A*77
$GPRMC,195715.2,A,3236.294772,N,11702.137924,W,37.1,15.6,210610,,,A*75
$GPRMC,195718.9,A,3236.324594,N,11702.132211,W,29.6,6.0,210610,,,A*47
$GPRMC,195721.9,A,3236.324627,N,11702.129758,W,6.1,32.8,210610,,,A*41
$GPRMC,195727.9,A,3236.328157,N,11702.124500,W,6.2,26.3,210610,,,A*44
$GPRMC,195730.9,A,3236.340728,N,11702.118971,W,17.4,16.8,210610,,,A*79
$GPRMC,195733.9,A,3236.353155,N,11702.117673,W,17.7,18.1,210610,,,A*72
$GPRMC,195736.9,A,3236.363746,N,11702.101267,W,20.6,64.9,210610,,,A*70
$GPRMC,195739.9,A,3236.372208,N,11702.076659,W,28.5,70.5,210610,,,A*7A
$GPRMC,195742.9,A,3236.380308,N,11702.045098,W,33.2,72.5,210610,,,A*7E
$GPRMC,195745.9,A,3236.386077,N,11702.011159,W,36.3,79.8,210610,,,A*7B
$GPRMC,195748.9,A,3236.391029,N,11701.971349,W,38.3,80.0,210610,,,A*74
$GPRMC,195751.9,A,3236.397965,N,11701.933746,W,36.6,76.3,210610,,,A*77
$GPRMC,195754.9,A,3236.405948,N,11701.902243,W,32.8,70.8,210610,,,A*74
$GPRMC,195757.9,A,3236.415774,N,11701.876320,W,26.3,66.4,210610,,,A*74
$GPRMC,195800.9,A,3236.421936,N,11701.858729,W,18.7,64.7,210610,,,A*7F
$GPRMC,195803.9,A,3236.429793,N,11701.851587,W,9.2,47.1,210610,,,A*48
$GPRMC,195815.9,A,3236.431572,N,11701.838071,W,13.6,70.1,210610,,,A*73
$GPRMC,195818.9,A,3236.440383,N,11701.819626,W,22.4,66.1,210610,,,A*70
$GPRMC,195821.9,A,3236.448074,N,11701.797273,W,24.2,66.0,210610,,,A*75
$GPRMC,195824.9,A,3236.459303,N,11701.777102,W,24.8,62.5,210610,,,A*73
$GPRMC,195827.9,A,3236.467906,N,11701.755207,W,23.0,63.3,210610,,,A*7C
$GPRMC,195830.9,A,3236.476244,N,11701.742105,W,12.8,59.6,210610,,,A*76
$GPRMC,195833.9,A,3236.480162,N,11701.738266,W,4.4,48.1,210610,,,A*4C
$GPRMC,195839.9,A,3236.476844,N,11701.735405,W,4.5,81.1,210610,,,A*48
$GPRMC,195842.9,A,3236.481494,N,11701.725851,W,12.8,64.2,210610,,,A*73
$GPRMC,195845.9,A,3236.484712,N,11701.712266,W,16.0,67.8,210610,,,A*73
$GPRMC,195848.9,A,3236.488878,N,11701.691754,W,21.5,72.3,210610,,,A*71
$GPRMC,195851.9,A,3236.497472,N,11701.669109,W,25.0,70.5,210610,,,A*7D
$GPRMC,195854.9,A,3236.503233,N,11701.641318,W,30.1,75.8,210610,,,A*72
$GPRMC,195857.9,A,3236.510100,N,11701.609186,W,34.9,77.0,210610,,,A*7F
$GPRMC,195900.9,A,3236.516567,N,11701.573833,W,36.1,77.4,210610,,,A*78
$GPRMC,195903.9,A,3236.525100,N,11701.533615,W,41.3,77.0,210610,,,A*76
$GPRMC,195906.9,A,3236.531463,N,11701.491928,W,43.5,79.2,210610,,,A*76
$GPRMC,195909.9,A,3236.538952,N,11701.448142,W,45.0,79.2,210610,,,A*7C
$GPRMC,195912.9,A,3236.546278,N,11701.403628,W,45.5,79.2,210610,,,A*7D
$GPRMC,195915.9,A,3236.550856,N,11701.357851,W,47.2,85.0,210610,,,A*79
$GPRMC,195918.9,A,3236.551247,N,11701.313033,W,47.8,90.5,210610,,,A*78
$GPRMC,195921.9,A,3236.548170,N,11701.264680,W,49.5,93.3,210610,,,A*74
$GPRMC,195924.9,A,3236.546159,N,11701.214445,W,49.7,92.5,210610,,,A*7D
$GPRMC,195927.9,A,3236.545168,N,11701.166929,W,48.4,88.8,210610,,,A*7A
$GPRMC,195930.9,A,3236.550155,N,11701.119476,W,48.7,82.7,210610,,,A*7F
$GPRMC,195933.9,A,3236.558684,N,11701.074519,W,47.9,75.1,210610,,,A*72
$GPRMC,195936.9,A,3236.573924,N,11701.027989,W,49.8,68.5,210610,,,A*7F
$GPRMC,195939.9,A,3236.589822,N,11700.982398,W,50.7,68.1,210610,,,A*7C
$GPRMC,195942.9,A,3236.605841,N,11700.936027,W,51.2,67.9,210610,,,A*79
$GPRMC,195945.9,A,3236.623796,N,11700.889901,W,50.6,67.1,210610,,,A*7A
$GPRMC,195948.9,A,3236.639330,N,11700.842781,W,50.5,68.0,210610,,,A*78
$GPRMC,195951.9,A,3236.656800,N,11700.795429,W,50.6,67.2,210610,,,A*7B
$GPRMC,195954.9,A,3236.672943,N,11700.753964,W,47.6,62.9,210610,,,A*78
$GPRMC,195957.9,A,3236.691767,N,11700.714157,W,46.5,58.0,210610,,,A*77
$GPRMC,200000.9,A,3236.718309,N,11700.674828,W,49.7,50.8,210610,,,A*74
$GPRMC,200003.9,A,3236.743932,N,11700.637149,W,48.6,50.2,210610,,,A*78
$GPRMC,200006.9,A,3236.770521,N,11700.600189,W,49.0,50.0,210610,,,A*7E
$GPRMC,200009.9,A,3236.795443,N,11700.562969,W,49.4,51.3,210610,,,A*78
$GPRMC,200012.9,A,3236.822509,N,11700.524182,W,50.3,52.0,210610,,,A*7E
$GPRMC,200015.9,A,3236.847847,N,11700.487568,W,48.8,51.1,210610,,,A*75
$GPRMC,200018.9,A,3236.872732,N,11700.449385,W,49.6,52.4,210610,,,A*7D
$GPRMC,200021.9,A,3236.899672,N,11700.409620,W,50.2,51.8,210610,,,A*7A
$GPRMC,200024.9,A,3236.925849,N,11700.371344,W,49.7,51.5,210610,,,A*70
$GPRMC,200027.9,A,3236.950969,N,11700.331377,W,49.8,53.2,210610,,,A*7C
$GPRMC,200030.9,A,3236.971627,N,11700.290258,W,48.8,60.2,210610,,,A*7B
$GPRMC,200033.9,A,3236.987992,N,11700.246869,W,47.2,67.9,210610,,,A*7A
$GPRMC,200036.9,A,3236.999726,N,11700.203205,W,47.3,73.9,210610,,,A*74
$GPRMC,200039.9,A,3237.009161,N,11700.156640,W,47.8,76.2,210610,,,A*7C
$GPRMC,200042.9,A,3237.016925,N,11700.108817,W,49.4,77.7,210610,,,A*77
$GPRMC,200045.9,A,3237.028655,N,11700.057986,W,51.2,75.3,210610,,,A*7E
$GPRMC,200048.9,A,3237.039300,N,11700.010366,W,51.4,73.0,210610,,,A*72
$GPRMC,200051.2,A,3237.050715,N,11659.974886,W,51.7,68.5,210610,,,A*71
$GPRMC,200054.2,A,3237.069105,N,11659.928159,W,49.7,63.8,210610,,,A*74
$GPRMC,200057.9,A,3237.089929,N,11659.874549,W,47.9,62.0,210610,,,A*70
$GPRMC,200100.9,A,3237.116783,N,11659.830801,W,51.3,56.1,210610,,,A*70
$GPRMC,200103.9,A,3237.142785,N,11659.789286,W,51.6,54.6,210610,,,A*7C
$GPRMC,200106.9,A,3237.169369,N,11659.747490,W,52.3,53.4,210610,,,A*76
$GPRMC,200109.9,A,3237.197068,N,11659.706184,W,53.6,53.2,210610,,,A*7D
$GPRMC,200112.9,A,3237.220122,N,11659.665753,W,51.3,54.9,210610,,,A*74
$GPRMC,200115.9,A,3237.245634,N,11659.620789,W,53.3,56.9,210610,,,A*76
$GPRMC,200118.9,A,3237.270064,N,11659.579246,W,52.1,55.0,210610,,,A*7E
$GPRMC,200121.9,A,3237.293391,N,11659.540043,W,51.0,56.4,210610,,,A*78
$GPRMC,200124.9,A,3237.317409,N,11659.495525,W,50.9,56.8,210610,,,A*7E
$GPRMC,200127.9,A,3237.340707,N,11659.453104,W,51.0,55.2,210610,,,A*7E
$GPRMC,200130.9,A,3237.364739,N,11659.411372,W,50.3,53.8,210610,,,A*78
$GPRMC,200133.9,A,3237.390224,N,11659.373983,W,50.1,51.8,210610,,,A*7E
$GPRMC,200136.9,A,3237.416374,N,11659.334184,W,50.7,52.5,210610,,,A*72
$GPRMC,200139.9,A,3237.440504,N,11659.294943,W,48.9,54.6,210610,,,A*75
$GPRMC,200142.9,A,3237.461826,N,11659.255683,W,45.5,57.8,210610,,,A*75
$GPRMC,200145.9,A,3237.478039,N,11659.221043,W,38.7,60.1,210610,,,A*70
$GPRMC,200148.9,A,3237.488599,N,11659.199200,W,24.6,60.8,210610,,,A*7D
$GPRMC,200151.9,A,3237.493789,N,11659.186156,W,10.9,57.3,210610,,,A*75
$GPRMC,200233.9,A,3237.501777,N,11659.178207,W,13.0,25.1,210610,,,A*72
$GPRMC,200236.9,A,3237.518374,N,11659.174517,W,17.8,350.4,210610,,,A*4A
$GPRMC,200239.9,A,3237.537098,N,11659.183068,W,25.5,333.3,210610,,,A*42
$GPRMC,200242.9,A,3237.559606,N,11659.195742,W,32.2,334.9,210610,,,A*43
$GPRMC,200245.9,A,3237.589564,N,11659.210589,W,38.7,338.2,210610,,,A*4D
$GPRMC,200248.9,A,3237.622711,N,11659.224298,W,41.7,341.8,210610,,,A*48
$GPRMC,200251.9,A,3237.655455,N,11659.236139,W,42.5,341.9,210610,,,A*48
$GPRMC,200254.9,A,3237.691088,N,11659.249967,W,44.8,342.4,210610,,,A*4F
$GPRMC,200257.9,A,3237.730482,N,11659.265148,W,47.7,342.6,210610,,,A*4D
$GPRMC,200300.9,A,3237.766699,N,11659.276964,W,45.2,342.8,210610,,,A*48
$GPRMC,200303.9,A,3237.802499,N,11659.287249,W,44.9,348.7,210610,,,A*41
$GPRMC,200306.9,A,3237.837437,N,11659.293233,W,42.7,353.8,210610,,,A*43
$GPRMC,200309.9,A,3237.868952,N,11659.292591,W,37.5,2.1,210610,,,A*48
$GPRMC,200312.9,A,3237.894683,N,11659.290876,W,29.7,6.7,210610,,,A*4B
$GPRMC,200315.2,A,3237.909282,N,11659.288437,W,23.2,9.4,210610,,,A*44
$GPRMC,200318.9,A,3237.925229,N,11659.283738,W,14.8,11.5,210610,,,A*7C
$GPRMC,200322.2,A,3237.930250,N,11659.282272,W,6.5,10.2,210610,,,A*46
$GPRMC,200416.9,A,3237.947451,N,11659.277322,W,12.1,19.2,210610,,,A*7C
$GPRMC,200419.9,A,3237.973734,N,11659.271516,W,24.8,14.9,210610,,,A*79
$GPRMC,200422.9,A,3238.015622,N,11659.268962,W,37.6,4.1,210610,,,A*43
$GPRMC,200425.9,A,3238.050733,N,11659.270039,W,39.9,357.3,210610,,,A*4C
$GPRMC,200428.9,A,3238.084875,N,11659.273947,W,39.6,352.9,210610,,,A*46
$GPRMC,200431.9,A,3238.119009,N,11659.280341,W,41.7,347.7,210610,,,A*4C
$GPRMC,200434.9,A,3238.151805,N,11659.291660,W,41.9,343.0,210610,,,A*4A
$GPRMC,200437.9,A,3238.183476,N,11659.307533,W,41.2,336.6,210610,,,A*4A
$GPRMC,200440.9,A,3238.212654,N,11659.328136,W,40.1,328.4,210610,,,A*40
$GPRMC,200443.9,A,3238.240454,N,11659.347542,W,35.8,327.9,210610,,,A*41
$GPRMC,200446.9,A,3238.262318,N,11659.365370,W,30.2,325.6,210610,,,A*4E
$GPRMC,200449.9,A,3238.279147,N,11659.379239,W,23.7,326.0,210610,,,A*40
$GPRMC,200452.9,A,3238.292946,N,11659.389564,W,17.3,325.3,210610,,,A*45
$GPRMC,200455.9,A,3238.297923,N,11659.397967,W,8.2,323.5,210610,,,A*7B
$GPRMC,200510.9,A,3238.312448,N,11659.408931,W,16.9,323.8,210610,,,A*4C
$GPRMC,200513.9,A,3238.330349,N,11659.422629,W,22.9,326.3,210610,,,A*4E
$GPRMC,200516.9,A,3238.349011,N,11659.436980,W,26.4,326.3,210610,,,A*4B
$GPRMC,200519.9,A,3238.368970,N,11659.450956,W,29.3,329.6,210610,,,A*40
$GPRMC,200522.9,A,3238.389276,N,11659.467747,W,29.4,325.8,210610,,,A*45
$GPRMC,200525.9,A,3238.406902,N,11659.485778,W,28.4,320.6,210610,,,A*40
$GPRMC,200528.9,A,3238.426437,N,11659.504604,W,29.8,318.8,210610,,,A*4E
$GPRMC,200531.9,A,3238.446408,N,11659.522943,W,31.6,319.4,210610,,,A*4E
$GPRMC,200534.9,A,3238.465883,N,11659.546336,W,31.6,314.9,210610,,,A*4F
$GPRMC,200537.9,A,3238.481814,N,11659.568929,W,29.1,309.2,210610,,,A*49
$GPRMC,200540.9,A,3238.494582,N,11659.591687,W,25.1,306.0,210610,,,A*43
$GPRMC,200543.9,A,3238.504984,N,11659.610545,W,20.9,303.1,210610,,,A*4C
