NMEA Sentence Code,UTC Time,Status,Latitude,Latitude Direction,Longitude,Longitude Direction,Speed (knots),Track Angle (degrees true),Date,MagneticVariation,Magnetic Variation Direction,[FAA Mode]-Optional,Checksum
$GPRMC,155524.9,A,3246.490078,N,11712.362148,W,4.8,268.5,021110,,,A*7E
$GPRMC,155545.9,A,3246.493546,N,11712.382320,W,11.5,293.0,021110,,,A*48
$GPRMC,155548.9,A,3246.502810,N,11712.400350,W,14.2,293.0,021110,,,A*4A
$GPRMC,155551.9,A,3246.501366,N,11712.411290,W,8.7,238.4,021110,,,A*7B
$GPRMC,155554.9,A,3246.488729,N,11712.410939,W,12.9,182.7,021110,,,A*4C
$GPRMC,155558.2,A,3246.466992,N,11712.399939,W,27.3,154.8,021110,,,A*4B
$GPRMC,155601.9,A,3246.425028,N,11712.381797,W,40.1,158.8,021110,,,A*4C
$GPRMC,155604.2,A,3246.396519,N,11712.370202,W,44.1,159.5,021110,,,A*45
$GPRMC,155607.2,A,3246.362885,N,11712.356122,W,41.4,160.5,021110,,,A*4A
$GPRMC,155610.9,A,3246.321614,N,11712.338716,W,40.7,160.7,021110,,,A*4F
$GPRMC,155613.9,A,3246.291273,N,11712.320964,W,40.5,152.9,021110,,,A*4C
$GPRMC,155616.9,A,3246.266118,N,11712.303893,W,37.6,149.4,021110,,,A*43
$GPRMC,155619.2,A,3246.249175,N,11712.289448,W,30.6,145.9,021110,,,A*4E
$GPRMC,155622.9,A,3246.226646,N,11712.268528,W,26.1,142.0,021110,,,A*45
$GPRMC,155625.9,A,3246.207510,N,11712.251135,W,30.0,137.2,021110,,,A*45
$GPRMC,155628.2,A,3246.192208,N,11712.232036,W,35.7,130.1,021110,,,A*43
$GPRMC,155631.9,A,3246.166819,N,11712.194168,W,42.1,126.6,021110,,,A*42
$GPRMC,155634.9,A,3246.143545,N,11712.158739,W,44.3,126.6,021110,,,A*42
$GPRMC,155637.9,A,3246.124465,N,11712.124422,W,42.7,125.5,021110,,,A*43
$GPRMC,155640.9,A,3246.105827,N,11712.094624,W,33.4,126.4,021110,,,A*43
$GPRMC,155643.9,A,3246.099170,N,11712.080428,W,17.5,124.4,021110,,,A*41
$GPRMC,155646.9,A,3246.090006,N,11712.066369,W,21.6,126.4,021110,,,A*43
$GPRMC,155649.9,A,3246.073907,N,11712.041163,W,32.4,124.7,021110,,,A*45
$GPRMC,155652.9,A,3246.058452,N,11712.015545,W,32.2,122.5,021110,,,A*48
$GPRMC,155655.9,A,3246.048305,N,11711.988041,W,26.4,118.2,021110,,,A*49
$GPRMC,155658.9,A,3246.038147,N,11711.974598,W,15.4,130.7,021110,,,A*4A
$GPRMC,155701.9,A,3246.032889,N,11711.969169,W,6.6,141.4,021110,,,A*75
$GPRMC,155710.2,A,3246.028620,N,11711.965165,W,8.6,131.4,021110,,,A*71
$GPRMC,155713.2,A,3246.018052,N,11711.952483,W,19.9,136.9,021110,,,A*4E
$GPRMC,155716.0,A,3245.997339,N,11711.938693,W,31.2,153.1,021110,,,A*4F
$GPRMC,155719.9,A,3245.964329,N,11711.920419,W,34.6,157.2,021110,,,A*4B
$GPRMC,155722.9,A,3245.937498,N,11711.907548,W,34.1,157.8,021110,,,A*45
$GPRMC,155725.9,A,3245.908473,N,11711.898917,W,32.3,161.3,021110,,,A*40
$GPRMC,155729.2,A,3245.886088,N,11711.890463,W,25.1,165.9,021110,,,A*4C
$GPRMC,155732.2,A,3245.870036,N,11711.887398,W,19.6,172.0,021110,,,A*48
$GPRMC,155735.9,A,3245.850577,N,11711.884355,W,21.8,174.1,021110,,,A*46
$GPRMC,155738.9,A,3245.829786,N,11711.882606,W,24.9,174.5,021110,,,A*4C
$GPRMC,155741.9,A,3245.807242,N,11711.880736,W,26.6,175.1,021110,,,A*4B
$GPRMC,155744.9,A,3245.779804,N,11711.878627,W,32.9,177.5,021110,,,A*4A
$GPRMC,155747.9,A,3245.750743,N,11711.878929,W,34.9,179.9,021110,,,A*4B
$GPRMC,155750.9,A,3245.717950,N,11711.879296,W,36.9,178.6,021110,,,A*40
$GPRMC,155753.9,A,3245.685042,N,11711.876578,W,39.5,178.6,021110,,,A*48
$GPRMC,155756.9,A,3245.653370,N,11711.876777,W,38.1,179.7,021110,,,A*4C
$GPRMC,155759.9,A,3245.619987,N,11711.879576,W,39.2,180.3,021110,,,A*43
$GPRMC,155802.2,A,3245.594458,N,11711.878291,W,40.7,177.6,021110,,,A*49
$GPRMC,155805.9,A,3245.559482,N,11711.876576,W,34.3,181.6,021110,,,A*4D
$GPRMC,155808.9,A,3245.538287,N,11711.885623,W,27.8,202.5,021110,,,A*49
$GPRMC,155811.2,A,3245.531244,N,11711.903652,W,31.3,238.6,021110,,,A*43
$GPRMC,155815.2,A,3245.542674,N,11711.933924,W,21.5,291.2,021110,,,A*49
$GPRMC,155818.9,A,3245.574106,N,11711.934314,W,23.3,357.0,021110,,,A*4B
$GPRMC,155821.9,A,3245.588206,N,11711.911685,W,24.8,60.5,021110,,,A*75
$GPRMC,155824.9,A,3245.595531,N,11711.869222,W,39.4,75.5,021110,,,A*7C
$GPRMC,155827.9,A,3245.604323,N,11711.825435,W,46.3,74.5,021110,,,A*77
$GPRMC,155830.9,A,3245.616410,N,11711.779174,W,48.8,75.0,021110,,,A*72
$GPRMC,155833.9,A,3245.625115,N,11711.731276,W,49.2,77.3,021110,,,A*76
$GPRMC,155836.9,A,3245.629627,N,11711.682091,W,53.0,84.8,021110,,,A*75
$GPRMC,155839.9,A,3245.630270,N,11711.629935,W,52.6,89.3,021110,,,A*73
$GPRMC,155842.9,A,3245.623137,N,11711.578540,W,52.3,97.7,021110,,,A*7A
$GPRMC,155845.9,A,3245.618385,N,11711.528171,W,52.6,99.1,021110,,,A*70
$GPRMC,155848.9,A,3245.607189,N,11711.475639,W,54.6,100.7,021110,,,A*4E
$GPRMC,155851.9,A,3245.600506,N,11711.423020,W,55.5,98.4,021110,,,A*7E
$GPRMC,155854.9,A,3245.592745,N,11711.366908,W,57.6,99.2,021110,,,A*75
$GPRMC,155857.9,A,3245.583134,N,11711.311552,W,57.1,99.7,021110,,,A*77
$GPRMC,155900.9,A,3245.579896,N,11711.254177,W,57.8,95.6,021110,,,A*77
$GPRMC,155903.9,A,3245.574146,N,11711.198103,W,56.9,96.4,021110,,,A*7C
$GPRMC,155906.9,A,3245.569989,N,11711.142419,W,57.1,94.4,021110,,,A*7C
$GPRMC,155909.9,A,3245.566579,N,11711.085135,W,58.3,93.5,021110,,,A*75
$GPRMC,155912.9,A,3245.564532,N,11711.027621,W,57.1,92.7,021110,,,A*76
$GPRMC,155915.9,A,3245.564845,N,11710.970492,W,57.9,91.3,021110,,,A*73
$GPRMC,155918.9,A,3245.561642,N,11710.914313,W,57.0,92.5,021110,,,A*72
$GPRMC,155921.9,A,3245.561569,N,11710.855339,W,59.1,90.8,021110,,,A*7E
$GPRMC,155924.9,A,3245.558935,N,11710.798841,W,59.1,92.8,021110,,,A*7C
$GPRMC,155927.9,A,3245.554784,N,11710.739583,W,60.3,93.3,021110,,,A*7D
$GPRMC,155930.9,A,3245.554135,N,11710.678036,W,61.1,91.8,021110,,,A*72
$GPRMC,155933.9,A,3245.553455,N,11710.616946,W,61.2,90.4,021110,,,A*7D
$GPRMC,155936.9,A,3245.556838,N,11710.557889,W,59.0,86.1,021110,,,A*75
$GPRMC,155939.9,A,3245.562495,N,11710.500813,W,57.6,82.9,021110,,,A*73
$GPRMC,155942.9,A,3245.570408,N,11710.446221,W,55.2,79.8,021110,,,A*73
$GPRMC,155945.9,A,3245.582627,N,11710.392346,W,56.1,75.4,021110,,,A*78
$GPRMC,155948.9,A,3245.594189,N,11710.341687,W,54.4,74.8,021110,,,A*7D
$GPRMC,155951.9,A,3245.606659,N,11710.287606,W,54.8,75.5,021110,,,A*75
$GPRMC,155954.9,A,3245.617773,N,11710.236734,W,54.9,75.2,021110,,,A*75
$GPRMC,155957.9,A,3245.633330,N,11710.182406,W,55.8,73.9,021110,,,A*70
$GPRMC,160000.9,A,3245.645338,N,11710.129820,W,55.8,75.3,021110,,,A*71
$GPRMC,160003.9,A,3245.657233,N,11710.075897,W,56.5,75.8,021110,,,A*7A
$GPRMC,160006.9,A,3245.668842,N,11710.022173,W,55.8,74.1,021110,,,A*78
$GPRMC,160009.9,A,3245.684346,N,11709.969846,W,55.9,70.7,021110,,,A*78
$GPRMC,160012.9,A,3245.701088,N,11709.917804,W,56.8,66.8,021110,,,A*7A
$GPRMC,160015.9,A,3245.721359,N,11709.868541,W,55.6,62.8,021110,,,A*7C
$GPRMC,160018.2,A,3245.738925,N,11709.831248,W,55.1,60.5,021110,,,A*79
$GPRMC,160021.9,A,3245.766176,N,11709.773323,W,53.3,61.2,021110,,,A*7A
$GPRMC,160024.9,A,3245.789076,N,11709.725956,W,55.5,61.5,021110,,,A*73
$GPRMC,160027.9,A,3245.810380,N,11709.674350,W,58.8,66.5,021110,,,A*7B
$GPRMC,160030.9,A,3245.827370,N,11709.621782,W,58.3,70.9,021110,,,A*7D
$GPRMC,160033.2,A,3245.836943,N,11709.577744,W,59.2,74.7,021110,,,A*7F
$GPRMC,160036.9,A,3245.853515,N,11709.507199,W,60.5,75.3,021110,,,A*74
$GPRMC,160039.9,A,3245.864491,N,11709.451032,W,58.9,74.5,021110,,,A*70
$GPRMC,160042.9,A,3245.879350,N,11709.389946,W,62.4,74.1,021110,,,A*72
$GPRMC,160045.9,A,3245.895652,N,11709.332550,W,62.0,72.7,021110,,,A*7F
$GPRMC,160048.9,A,3245.911880,N,11709.275791,W,61.5,72.5,021110,,,A*77
$GPRMC,160052.2,A,3245.925702,N,11709.211317,W,61.5,74.3,021110,,,A*7D
$GPRMC,160055.9,A,3245.943357,N,11709.140862,W,60.2,73.6,021110,,,A*7F
$GPRMC,160058.9,A,3245.956714,N,11709.084332,W,60.1,74.3,021110,,,A*73
$GPRMC,160101.2,A,3245.969343,N,11709.039723,W,60.8,71.0,021110,,,A*72
$GPRMC,160104.9,A,3245.987109,N,11708.970765,W,58.6,73.3,021110,,,A*73
$GPRMC,160107.9,A,3246.000992,N,11708.916305,W,58.0,73.7,021110,,,A*7F
$GPRMC,160110.9,A,3246.013708,N,11708.864952,W,56.5,72.8,021110,,,A*7F
$GPRMC,160113.9,A,3246.030172,N,11708.808443,W,58.9,71.9,021110,,,A*71
$GPRMC,160116.9,A,3246.050998,N,11708.752240,W,61.7,65.7,021110,,,A*74
$GPRMC,160119.9,A,3246.075953,N,11708.695036,W,63.9,62.7,021110,,,A*79
$GPRMC,160122.9,A,3246.102099,N,11708.636577,W,67.2,62.5,021110,,,A*7B
$GPRMC,160125.9,A,3246.127194,N,11708.578906,W,66.7,63.6,021110,,,A*72
$GPRMC,160128.9,A,3246.149301,N,11708.519023,W,67.0,66.0,021110,,,A*75
$GPRMC,160131.9,A,3246.169697,N,11708.456523,W,68.6,68.8,021110,,,A*75
$GPRMC,160134.9,A,3246.190904,N,11708.395799,W,67.1,68.8,021110,,,A*70
$GPRMC,160137.9,A,3246.209370,N,11708.332569,W,66.4,71.6,021110,,,A*7B
$GPRMC,160140.9,A,3246.225863,N,11708.267753,W,67.5,74.0,021110,,,A*75
$GPRMC,160143.9,A,3246.240347,N,11708.201925,W,67.9,74.3,021110,,,A*78
$GPRMC,160147.2,A,3246.253945,N,11708.134047,W,65.8,75.2,021110,,,A*76
$GPRMC,160150.9,A,3246.270961,N,11708.056607,W,65.3,75.3,021110,,,A*71
$GPRMC,160153.9,A,3246.286260,N,11707.993127,W,66.0,74.5,021110,,,A*7C
$GPRMC,160156.2,A,3246.298699,N,11707.945953,W,65.7,74.8,021110,,,A*76
$GPRMC,160159.2,A,3246.313510,N,11707.886012,W,63.6,73.6,021110,,,A*75
$GPRMC,160202.0,A,3246.327533,N,11707.832112,W,63.5,72.8,021110,,,A*7E
$GPRMC,160205.9,A,3246.349226,N,11707.756515,W,62.5,68.2,021110,,,A*75
$GPRMC,160208.9,A,3246.372217,N,11707.703582,W,59.3,62.9,021110,,,A*73
$GPRMC,160211.9,A,3246.399921,N,11707.648919,W,63.3,58.9,021110,,,A*70
$GPRMC,160214.9,A,3246.425815,N,11707.600393,W,59.5,57.8,021110,,,A*76
$GPRMC,160217.9,A,3246.451361,N,11707.551367,W,60.2,58.3,021110,,,A*7B
$GPRMC,160220.9,A,3246.480345,N,11707.501037,W,61.0,58.1,021110,,,A*77
$GPRMC,160223.9,A,3246.509122,N,11707.450904,W,59.5,57.0,021110,,,A*7B
$GPRMC,160226.9,A,3246.533008,N,11707.402853,W,59.0,58.2,021110,,,A*72
$GPRMC,160229.9,A,3246.559189,N,11707.351376,W,59.3,58.2,021110,,,A*77
$GPRMC,160232.9,A,3246.587220,N,11707.303024,W,58.5,57.4,021110,,,A*73
$GPRMC,160235.9,A,3246.614917,N,11707.252249,W,59.5,56.9,021110,,,A*73
$GPRMC,160238.9,A,3246.639085,N,11707.204569,W,58.1,58.8,021110,,,A*7F
$GPRMC,160241.9,A,3246.661295,N,11707.154498,W,58.5,63.0,021110,,,A*72
$GPRMC,160244.9,A,3246.680179,N,11707.100142,W,60.5,68.9,021110,,,A*73
$GPRMC,160247.9,A,3246.696105,N,11707.044522,W,59.5,72.8,021110,,,A*7F
$GPRMC,160250.9,A,3246.707440,N,11706.986363,W,60.4,78.9,021110,,,A*71
$GPRMC,160253.9,A,3246.712260,N,11706.927003,W,62.3,84.3,021110,,,A*70
$GPRMC,160256.9,A,3246.714457,N,11706.867824,W,61.1,87.5,021110,,,A*7D
$GPRMC,160259.9,A,3246.713480,N,11706.809321,W,59.0,90.3,021110,,,A*73
$GPRMC,160302.9,A,3246.712511,N,11706.753802,W,57.7,90.5,021110,,,A*71
$GPRMC,160305.2,A,3246.713062,N,11706.708791,W,59.1,89.0,021110,,,A*73
$GPRMC,160308.9,A,3246.714253,N,11706.637177,W,57.9,89.4,021110,,,A*73
$GPRMC,160311.9,A,3246.716030,N,11706.580360,W,56.5,88.6,021110,,,A*7B
$GPRMC,160314.9,A,3246.717819,N,11706.526465,W,54.6,89.1,021110,,,A*75
$GPRMC,160317.9,A,3246.718638,N,11706.469793,W,57.5,89.5,021110,,,A*70
$GPRMC,160320.9,A,3246.719215,N,11706.411419,W,58.1,89.0,021110,,,A*7E
$GPRMC,160323.9,A,3246.721256,N,11706.353951,W,58.5,88.9,021110,,,A*7D
$GPRMC,160326.9,A,3246.722636,N,11706.298252,W,56.4,88.7,021110,,,A*76
$GPRMC,160329.9,A,3246.727663,N,11706.241285,W,58.5,85.1,021110,,,A*76
$GPRMC,160332.9,A,3246.731777,N,11706.186997,W,56.1,84.1,021110,,,A*74
$GPRMC,160335.9,A,3246.738152,N,11706.129755,W,57.1,83.6,021110,,,A*7F
$GPRMC,160338.9,A,3246.744231,N,11706.070678,W,58.8,81.3,021110,,,A*7D
$GPRMC,160341.9,A,3246.752255,N,11706.014319,W,57.9,80.2,021110,,,A*78
$GPRMC,160344.9,A,3246.760464,N,11705.959220,W,57.1,81.4,021110,,,A*7F
$GPRMC,160347.9,A,3246.766613,N,11705.902882,W,57.3,81.4,021110,,,A*76
$GPRMC,160350.9,A,3246.779279,N,11705.844196,W,59.1,78.1,021110,,,A*76
$GPRMC,160353.9,A,3246.790258,N,11705.785486,W,58.8,78.4,021110,,,A*7A
$GPRMC,160356.9,A,3246.801418,N,11705.727514,W,58.6,78.5,021110,,,A*77
$GPRMC,160359.9,A,3246.810076,N,11705.672427,W,59.2,78.6,021110,,,A*72
$GPRMC,160402.9,A,3246.818759,N,11705.614075,W,60.5,80.3,021110,,,A*75
$GPRMC,160405.9,A,3246.826092,N,11705.555144,W,61.2,81.8,021110,,,A*76
$GPRMC,160408.9,A,3246.833051,N,11705.495198,W,61.3,83.6,021110,,,A*71
$GPRMC,160411.9,A,3246.834767,N,11705.434437,W,61.8,87.6,021110,,,A*78
$GPRMC,160414.9,A,3246.837482,N,11705.369308,W,64.8,87.4,021110,,,A*75
$GPRMC,160417.9,A,3246.839444,N,11705.306382,W,63.5,87.7,021110,,,A*70
$GPRMC,160420.9,A,3246.839490,N,11705.245507,W,62.5,88.4,021110,,,A*7D
$GPRMC,160423.9,A,3246.839690,N,11705.183434,W,63.1,91.4,021110,,,A*79
$GPRMC,160426.9,A,3246.834936,N,11705.119898,W,63.5,96.1,021110,,,A*7D
$GPRMC,160429.9,A,3246.830097,N,11705.058220,W,62.8,97.6,021110,,,A*73
$GPRMC,160432.9,A,3246.820150,N,11704.997474,W,63.4,98.4,021110,,,A*7E
$GPRMC,160435.9,A,3246.812636,N,11704.936595,W,62.2,99.2,021110,,,A*7A
$GPRMC,160438.9,A,3246.804776,N,11704.877255,W,62.6,99.1,021110,,,A*7D
$GPRMC,160441.9,A,3246.795188,N,11704.814812,W,63.8,99.3,021110,,,A*72
$GPRMC,160444.9,A,3246.787364,N,11704.751287,W,62.8,98.9,021110,,,A*76
$GPRMC,160447.9,A,3246.778614,N,11704.693474,W,58.8,98.7,021110,,,A*75
$GPRMC,160450.9,A,3246.773152,N,11704.636337,W,57.5,98.1,021110,,,A*76
$GPRMC,160454.2,A,3246.763895,N,11704.575948,W,57.4,99.9,021110,,,A*74
$GPRMC,160457.2,A,3246.759496,N,11704.517738,W,57.3,96.1,021110,,,A*7C
$GPRMC,160500.9,A,3246.754475,N,11704.448763,W,55.5,93.6,021110,,,A*77
$GPRMC,160503.9,A,3246.752557,N,11704.393995,W,54.2,91.6,021110,,,A*71
$GPRMC,160506.9,A,3246.748245,N,11704.344511,W,51.2,92.5,021110,,,A*74
$GPRMC,160509.9,A,3246.750609,N,11704.291786,W,53.1,87.8,021110,,,A*73
$GPRMC,160512.9,A,3246.750597,N,11704.237909,W,55.4,88.8,021110,,,A*74
$GPRMC,160515.9,A,3246.751670,N,11704.183887,W,56.4,88.7,021110,,,A*7F
$GPRMC,160518.9,A,3246.756131,N,11704.123014,W,60.8,87.4,021110,,,A*7A
$GPRMC,160521.9,A,3246.758698,N,11704.061614,W,62.4,88.0,021110,,,A*7E
$GPRMC,160524.9,A,3246.758839,N,11704.003288,W,62.4,88.9,021110,,,A*72
$GPRMC,160527.2,A,3246.761937,N,11703.955954,W,61.2,87.1,021110,,,A*7A
$GPRMC,160530.9,A,3246.761987,N,11703.886565,W,58.7,89.4,021110,,,A*79
$GPRMC,160533.9,A,3246.758845,N,11703.827564,W,59.6,96.7,021110,,,A*78
$GPRMC,160536.9,A,3246.747488,N,11703.768448,W,63.4,102.9,021110,,,A*4C
$GPRMC,160539.9,A,3246.733084,N,11703.710642,W,62.2,107.9,021110,,,A*4D
$GPRMC,160542.9,A,3246.714571,N,11703.649850,W,63.7,109.3,021110,,,A*4B
$GPRMC,160545.9,A,3246.697134,N,11703.591585,W,62.6,109.0,021110,,,A*43
$GPRMC,160548.9,A,3246.681080,N,11703.529770,W,64.7,105.7,021110,,,A*40
$GPRMC,160551.9,A,3246.667438,N,11703.466636,W,66.2,102.9,021110,,,A*40
$GPRMC,160554.9,A,3246.655930,N,11703.399999,W,68.0,102.1,021110,,,A*48
$GPRMC,160557.9,A,3246.644393,N,11703.331587,W,70.2,101.6,021110,,,A*46
$GPRMC,160600.9,A,3246.631724,N,11703.266979,W,68.3,102.2,021110,,,A*4C
$GPRMC,160603.2,A,3246.622825,N,11703.215952,W,68.5,101.9,021110,,,A*4B
$GPRMC,160606.2,A,3246.609206,N,11703.151694,W,68.0,105.3,021110,,,A*41
$GPRMC,160609.2,A,3246.592385,N,11703.088703,W,66.3,109.0,021110,,,A*4D
$GPRMC,160612.9,A,3246.569056,N,11703.012212,W,66.8,110.5,021110,,,A*45
$GPRMC,160615.9,A,3246.544688,N,11702.952777,W,66.2,115.0,021110,,,A*48
$GPRMC,160618.9,A,3246.518700,N,11702.898567,W,64.6,118.5,021110,,,A*47
$GPRMC,160621.9,A,3246.491990,N,11702.844112,W,63.5,120.4,021110,,,A*43
$GPRMC,160624.9,A,3246.465058,N,11702.786878,W,65.0,120.0,021110,,,A*43
$GPRMC,160627.2,A,3246.443200,N,11702.746787,W,63.2,121.2,021110,,,A*44
$GPRMC,160630.9,A,3246.405585,N,11702.681120,W,65.6,121.4,021110,,,A*44
$GPRMC,160633.9,A,3246.380720,N,11702.622870,W,64.8,115.4,021110,,,A*4D
$GPRMC,160636.9,A,3246.362823,N,11702.561464,W,65.4,107.4,021110,,,A*4B
$GPRMC,160639.9,A,3246.353905,N,11702.498952,W,64.6,98.1,021110,,,A*7D
$GPRMC,160642.9,A,3246.353542,N,11702.437166,W,62.7,90.1,021110,,,A*7B
$GPRMC,160645.9,A,3246.359384,N,11702.373008,W,64.2,82.9,021110,,,A*7C
$GPRMC,160648.9,A,3246.373870,N,11702.309897,W,65.0,75.7,021110,,,A*7F
$GPRMC,160651.9,A,3246.389804,N,11702.247359,W,65.6,73.8,021110,,,A*7C
$GPRMC,160654.9,A,3246.405252,N,11702.185128,W,63.7,73.8,021110,,,A*7D
$GPRMC,160657.9,A,3246.422033,N,11702.122071,W,65.9,73.6,021110,,,A*78
$GPRMC,160700.9,A,3246.435048,N,11702.063346,W,61.4,76.5,021110,,,A*7D
$GPRMC,160703.9,A,3246.437886,N,11702.004180,W,62.3,86.5,021110,,,A*74
$GPRMC,160706.9,A,3246.436164,N,11701.945049,W,61.7,94.4,021110,,,A*7B
$GPRMC,160709.9,A,3246.425570,N,11701.884530,W,62.1,103.5,021110,,,A*4B
$GPRMC,160712.9,A,3246.407563,N,11701.825229,W,63.4,110.8,021110,,,A*4C
$GPRMC,160715.2,A,3246.389846,N,11701.784376,W,62.0,114.7,021110,,,A*4A
$GPRMC,160718.9,A,3246.360024,N,11701.717766,W,62.9,116.8,021110,,,A*4C
$GPRMC,160721.9,A,3246.333850,N,11701.659862,W,65.7,118.0,021110,,,A*44
$GPRMC,160724.9,A,3246.307560,N,11701.603225,W,65.7,119.0,021110,,,A*4F
$GPRMC,160727.2,A,3246.288834,N,11701.558809,W,63.2,116.7,021110,,,A*4F
$GPRMC,160730.9,A,3246.265182,N,11701.487468,W,63.6,108.8,021110,,,A*49
$GPRMC,160733.9,A,3246.252333,N,11701.425903,W,64.8,102.9,021110,,,A*4C
$GPRMC,160736.0,A,3246.251957,N,11701.381269,W,64.3,92.3,021110,,,A*7C
$GPRMC,160739.0,A,3246.253379,N,11701.317577,W,65.2,87.9,021110,,,A*7E
$GPRMC,160742.9,A,3246.262481,N,11701.230522,W,65.6,81.5,021110,,,A*73
$GPRMC,160745.9,A,3246.279159,N,11701.169022,W,65.7,74.1,021110,,,A*7B
$GPRMC,160748.9,A,3246.298291,N,11701.111078,W,61.6,67.4,021110,,,A*7C
$GPRMC,160751.9,A,3246.332015,N,11701.056412,W,66.1,58.4,021110,,,A*7D
$GPRMC,160754.9,A,3246.357784,N,11701.001402,W,64.3,59.1,021110,,,A*73
$GPRMC,160757.9,A,3246.384067,N,11700.944659,W,65.8,61.5,021110,,,A*74
$GPRMC,160800.9,A,3246.408820,N,11700.888853,W,62.9,63.8,021110,,,A*7D
$GPRMC,160803.9,A,3246.430854,N,11700.831649,W,63.8,65.9,021110,,,A*76
$GPRMC,160806.9,A,3246.452369,N,11700.772619,W,64.9,67.4,021110,,,A*76
$GPRMC,160809.9,A,3246.476390,N,11700.712196,W,66.2,65.6,021110,,,A*76
$GPRMC,160812.9,A,3246.495658,N,11700.653904,W,66.2,67.0,021110,,,A*73
$GPRMC,160815.9,A,3246.517910,N,11700.594008,W,65.3,67.4,021110,,,A*77
$GPRMC,160818.9,A,3246.540620,N,11700.533276,W,66.8,67.1,021110,,,A*7F
$GPRMC,160821.9,A,3246.562778,N,11700.474726,W,65.9,66.2,021110,,,A*7B
$GPRMC,160824.9,A,3246.582244,N,11700.411495,W,67.8,68.1,021110,,,A*7C
$GPRMC,160827.9,A,3246.602824,N,11700.350091,W,66.8,67.6,021110,,,A*73
$GPRMC,160830.9,A,3246.625710,N,11700.288869,W,67.8,67.1,021110,,,A*75
$GPRMC,160833.9,A,3246.648968,N,11700.232360,W,63.4,64.9,021110,,,A*7C
$GPRMC,160836.2,A,3246.670213,N,11700.192380,W,62.7,57.9,021110,,,A*7B
$GPRMC,160839.9,A,3246.701461,N,11700.128707,W,61.0,59.7,021110,,,A*75
$GPRMC,160842.9,A,3246.727240,N,11700.075926,W,61.3,61.8,021110,,,A*7B
$GPRMC,160845.9,A,3246.741792,N,11700.017785,W,62.3,71.1,021110,,,A*7E
$GPRMC,160848.9,A,3246.753868,N,11659.955859,W,64.0,78.6,021110,,,A*7D
$GPRMC,160851.9,A,3246.758544,N,11659.894462,W,62.6,85.7,021110,,,A*76
$GPRMC,160854.9,A,3246.758100,N,11659.834001,W,62.6,91.3,021110,,,A*7D
$GPRMC,160857.2,A,3246.755289,N,11659.786883,W,64.3,92.3,021110,,,A*7E
$GPRMC,160900.9,A,3246.749681,N,11659.714258,W,59.8,94.9,021110,,,A*79
$GPRMC,160903.9,A,3246.748374,N,11659.657988,W,61.3,92.9,021110,,,A*72
$GPRMC,160906.9,A,3246.747181,N,11659.594708,W,61.7,91.9,021110,,,A*7D
$GPRMC,160909.9,A,3246.743963,N,11659.532708,W,60.5,93.2,021110,,,A*74
$GPRMC,160912.9,A,3246.739857,N,11659.472127,W,62.0,92.6,021110,,,A*79
$GPRMC,160916.2,A,3246.738620,N,11659.405722,W,61.7,91.8,021110,,,A*73
$GPRMC,160919.9,A,3246.736473,N,11659.331605,W,60.5,92.3,021110,,,A*72
$GPRMC,160922.9,A,3246.733369,N,11659.269702,W,61.3,93.0,021110,,,A*7C
$GPRMC,160925.9,A,3246.731803,N,11659.210375,W,60.6,91.5,021110,,,A*77
$GPRMC,160928.2,A,3246.734669,N,11659.162923,W,59.6,85.0,021110,,,A*73
$GPRMC,160931.9,A,3246.746841,N,11659.090863,W,59.0,77.9,021110,,,A*7A
$GPRMC,160934.2,A,3246.762564,N,11659.049861,W,59.6,63.7,021110,,,A*73
$GPRMC,160937.2,A,3246.789310,N,11658.999507,W,59.5,54.6,021110,,,A*7E
$GPRMC,160940.2,A,3246.822907,N,11658.954996,W,60.6,44.0,021110,,,A*77
$GPRMC,160943.2,A,3246.863214,N,11658.919513,W,59.7,33.3,021110,,,A*78
$GPRMC,160946.2,A,3246.908268,N,11658.891805,W,60.5,26.0,021110,,,A*7E
$GPRMC,160949.9,A,3246.967784,N,11658.859208,W,62.9,25.3,021110,,,A*79
$GPRMC,160952.9,A,3247.015434,N,11658.830533,W,64.4,25.6,021110,,,A*78
$GPRMC,160955.9,A,3247.061958,N,11658.804847,W,62.4,27.7,021110,,,A*77
$GPRMC,160958.9,A,3247.106506,N,11658.776391,W,60.2,28.4,021110,,,A*7F
$GPRMC,161001.9,A,3247.149676,N,11658.736281,W,62.9,33.5,021110,,,A*72
$GPRMC,161004.9,A,3247.194136,N,11658.704117,W,62.3,32.2,021110,,,A*75
$GPRMC,161007.9,A,3247.237598,N,11658.686826,W,57.6,21.4,021110,,,A*7B
$GPRMC,161010.9,A,3247.286135,N,11658.670416,W,58.4,12.9,021110,,,A*72
$GPRMC,161013.9,A,3247.332660,N,11658.663612,W,56.6,4.2,021110,,,A*4C
$GPRMC,161016.9,A,3247.380810,N,11658.663397,W,57.8,359.9,021110,,,A*4E
$GPRMC,161019.9,A,3247.430814,N,11658.664538,W,59.6,359.9,021110,,,A*4D
$GPRMC,161022.9,A,3247.481324,N,11658.662274,W,60.4,2.7,021110,,,A*45
$GPRMC,161025.9,A,3247.532043,N,11658.656405,W,61.8,6.5,021110,,,A*45
$GPRMC,161028.9,A,3247.584221,N,11658.644412,W,62.5,8.4,021110,,,A*47
$GPRMC,161031.9,A,3247.634923,N,11658.637335,W,61.5,7.3,021110,,,A*43
$GPRMC,161034.9,A,3247.680930,N,11658.627370,W,55.7,8.8,021110,,,A*4A
$GPRMC,161037.9,A,3247.727132,N,11658.625323,W,54.9,7.7,021110,,,A*44
$GPRMC,161040.9,A,3247.772461,N,11658.618142,W,54.8,7.6,021110,,,A*4C
$GPRMC,161043.9,A,3247.820414,N,11658.610291,W,56.6,7.1,021110,,,A*4B
$GPRMC,161046.9,A,3247.864515,N,11658.602023,W,54.3,9.7,021110,,,A*49
$GPRMC,161049.9,A,3247.907477,N,11658.589240,W,53.2,16.0,021110,,,A*7F
$GPRMC,161052.9,A,3247.951527,N,11658.570584,W,54.8,22.1,021110,,,A*70
$GPRMC,161055.9,A,3247.991297,N,11658.544576,W,56.2,29.3,021110,,,A*7C
$GPRMC,161058.9,A,3248.030688,N,11658.513111,W,56.6,34.3,021110,,,A*79
$GPRMC,161101.9,A,3248.070328,N,11658.474827,W,61.1,39.8,021110,,,A*76
$GPRMC,161104.9,A,3248.103167,N,11658.426986,W,61.7,51.0,021110,,,A*72
$GPRMC,161107.9,A,3248.131825,N,11658.376359,W,62.4,57.1,021110,,,A*72
$GPRMC,161110.9,A,3248.153759,N,11658.319697,W,63.0,66.0,021110,,,A*7C
$GPRMC,161113.9,A,3248.173786,N,11658.260067,W,63.2,66.7,021110,,,A*7C
$GPRMC,161116.9,A,3248.180850,N,11658.202720,W,60.3,80.2,021110,,,A*7E
$GPRMC,161119.9,A,3248.181658,N,11658.142484,W,59.9,88.1,021110,,,A*77
$GPRMC,161122.9,A,3248.179579,N,11658.084129,W,58.1,90.4,021110,,,A*74
$GPRMC,161125.9,A,3248.178921,N,11658.027163,W,57.8,90.0,021110,,,A*76
$GPRMC,161128.9,A,3248.181265,N,11657.975765,W,53.9,89.1,021110,,,A*7B
$GPRMC,161131.9,A,3248.179811,N,11657.921978,W,53.8,90.7,021110,,,A*71
$GPRMC,161134.9,A,3248.177451,N,11657.868434,W,54.6,92.0,021110,,,A*77
$GPRMC,161137.2,A,3248.177342,N,11657.826748,W,54.0,90.7,021110,,,A*7B
$GPRMC,161140.9,A,3248.177645,N,11657.762475,W,52.9,90.2,021110,,,A*7A
$GPRMC,161143.9,A,3248.178445,N,11657.711600,W,51.2,90.0,021110,,,A*7A
$GPRMC,161146.9,A,3248.179841,N,11657.660762,W,51.8,88.8,021110,,,A*7F
$GPRMC,161149.9,A,3248.178036,N,11657.605928,W,55.1,90.8,021110,,,A*7E
$GPRMC,161152.9,A,3248.176975,N,11657.551063,W,55.4,91.1,021110,,,A*7D
$GPRMC,161155.9,A,3248.178951,N,11657.497091,W,54.7,89.4,021110,,,A*7A
$GPRMC,161158.9,A,3248.177938,N,11657.440039,W,56.5,91.2,021110,,,A*70
$GPRMC,161201.9,A,3248.176311,N,11657.386856,W,57.6,90.9,021110,,,A*7B
$GPRMC,161204.9,A,3248.177938,N,11657.328793,W,57.5,89.5,021110,,,A*7B
$GPRMC,161207.9,A,3248.178758,N,11657.273393,W,55.8,89.1,021110,,,A*7F
$GPRMC,161210.9,A,3248.178319,N,11657.220206,W,55.6,90.6,021110,,,A*72
$GPRMC,161213.9,A,3248.178110,N,11657.165286,W,56.6,89.8,021110,,,A*75
$GPRMC,161216.9,A,3248.176469,N,11657.109101,W,56.7,91.0,021110,,,A*73
$GPRMC,161219.9,A,3248.176152,N,11657.050422,W,59.1,90.0,021110,,,A*70
$GPRMC,161222.9,A,3248.179016,N,11656.991798,W,59.1,88.0,021110,,,A*78
$GPRMC,161225.9,A,3248.179953,N,11656.938181,W,55.9,88.5,021110,,,A*7B
$GPRMC,161228.9,A,3248.179359,N,11656.883375,W,55.2,90.3,021110,,,A*7A
$GPRMC,161231.9,A,3248.179654,N,11656.828505,W,54.9,90.1,021110,,,A*72
$GPRMC,161234.9,A,3248.177568,N,11656.772986,W,54.0,91.7,021110,,,A*7C
$GPRMC,161237.9,A,3248.178019,N,11656.719258,W,55.1,89.3,021110,,,A*7B
$GPRMC,161240.9,A,3248.178964,N,11656.667521,W,54.6,89.2,021110,,,A*7E
$GPRMC,161243.9,A,3248.177767,N,11656.615097,W,54.9,90.0,021110,,,A*77
$GPRMC,161246.9,A,3248.177835,N,11656.559523,W,56.8,90.0,021110,,,A*78
$GPRMC,161250.2,A,3248.177917,N,11656.496580,W,58.0,89.7,021110,,,A*77
$GPRMC,161253.9,A,3248.177088,N,11656.432512,W,52.1,91.6,021110,,,A*76
$GPRMC,161256.9,A,3248.177961,N,11656.374508,W,55.5,89.9,021110,,,A*76
$GPRMC,161259.9,A,3248.175914,N,11656.321904,W,53.0,91.6,021110,,,A*7C
$GPRMC,161302.9,A,3248.176475,N,11656.270569,W,51.7,90.4,021110,,,A*7E
$GPRMC,161305.9,A,3248.177776,N,11656.219231,W,50.3,89.1,021110,,,A*75
$GPRMC,161308.9,A,3248.179166,N,11656.170106,W,49.9,89.3,021110,,,A*7A
$GPRMC,161311.9,A,3248.180352,N,11656.124423,W,48.4,88.9,021110,,,A*75
$GPRMC,161314.9,A,3248.181427,N,11656.072869,W,51.2,88.9,021110,,,A*7A
$GPRMC,161317.9,A,3248.179342,N,11656.020096,W,53.1,90.6,021110,,,A*72
$GPRMC,161320.9,A,3248.180296,N,11655.968706,W,52.2,89.4,021110,,,A*78
$GPRMC,161323.9,A,3248.177560,N,11655.914616,W,54.2,90.8,021110,,,A*74
$GPRMC,161326.9,A,3248.180017,N,11655.870300,W,48.9,87.7,021110,,,A*72
$GPRMC,161329.9,A,3248.176657,N,11655.821862,W,49.4,91.7,021110,,,A*76
$GPRMC,161332.9,A,3248.177719,N,11655.773412,W,47.6,90.4,021110,,,A*7B
$GPRMC,161335.9,A,3248.177389,N,11655.729878,W,44.9,92.0,021110,,,A*74
$GPRMC,161338.9,A,3248.179603,N,11655.683340,W,47.2,88.0,021110,,,A*72
$GPRMC,161341.9,A,3248.183671,N,11655.636786,W,47.8,85.2,021110,,,A*79
$GPRMC,161344.9,A,3248.187248,N,11655.589620,W,50.1,83.2,021110,,,A*75
$GPRMC,161347.9,A,3248.197345,N,11655.539385,W,51.0,77.6,021110,,,A*75
$GPRMC,161350.9,A,3248.209514,N,11655.489794,W,52.2,71.9,021110,,,A*73
$GPRMC,161353.9,A,3248.227342,N,11655.440099,W,53.0,66.5,021110,,,A*7F
$GPRMC,161356.9,A,3248.248591,N,11655.396167,W,50.5,61.3,021110,,,A*70
$GPRMC,161359.2,A,3248.266358,N,11655.363646,W,50.5,56.0,021110,,,A*72
$GPRMC,161402.9,A,3248.298688,N,11655.317177,W,49.9,49.2,021110,,,A*77
$GPRMC,161405.9,A,3248.328464,N,11655.281904,W,49.2,43.7,021110,,,A*7C
$GPRMC,161408.9,A,3248.361921,N,11655.249784,W,51.3,37.6,021110,,,A*78
$GPRMC,161411.9,A,3248.395504,N,11655.218998,W,49.2,35.2,021110,,,A*79
$GPRMC,161414.9,A,3248.426706,N,11655.195513,W,45.2,30.2,021110,,,A*73
$GPRMC,161417.9,A,3248.462917,N,11655.175377,W,47.0,27.4,021110,,,A*74
$GPRMC,161420.2,A,3248.489686,N,11655.160060,W,47.2,26.9,021110,,,A*76
$GPRMC,161423.9,A,3248.533511,N,11655.134814,W,49.0,27.1,021110,,,A*7C
$GPRMC,161426.9,A,3248.570146,N,11655.111920,W,52.0,28.2,021110,,,A*7F
$GPRMC,161430.2,A,3248.613914,N,11655.080861,W,53.5,28.8,021110,,,A*79
$GPRMC,161433.0,A,3248.649763,N,11655.058108,W,53.1,28.3,021110,,,A*75
$GPRMC,161436.9,A,3248.702325,N,11655.026078,W,53.2,27.2,021110,,,A*73
$GPRMC,161439.9,A,3248.740624,N,11655.000939,W,52.8,28.4,021110,,,A*74
$GPRMC,161442.2,A,3248.770062,N,11654.980775,W,53.7,31.2,021110,,,A*72
$GPRMC,161445.9,A,3248.815244,N,11654.945941,W,51.2,33.7,021110,,,A*74
$GPRMC,161448.9,A,3248.850968,N,11654.913856,W,51.0,37.8,021110,,,A*70
$GPRMC,161451.9,A,3248.880516,N,11654.883668,W,49.0,40.2,021110,,,A*78
$GPRMC,161454.9,A,3248.912162,N,11654.850607,W,48.6,41.9,021110,,,A*7A
$GPRMC,161457.9,A,3248.942847,N,11654.817871,W,50.6,42.1,021110,,,A*7C
$GPRMC,161500.9,A,3248.973007,N,11654.785874,W,49.0,42.2,021110,,,A*7D
$GPRMC,161503.9,A,3249.002968,N,11654.751634,W,50.4,41.9,021110,,,A*77
$GPRMC,161506.9,A,3249.032836,N,11654.719403,W,49.5,41.3,021110,,,A*72
$GPRMC,161509.9,A,3249.065876,N,11654.684997,W,50.6,38.1,021110,,,A*79
$GPRMC,161512.9,A,3249.099056,N,11654.657319,W,49.4,34.4,021110,,,A*7B
$GPRMC,161515.9,A,3249.135062,N,11654.636020,W,49.3,27.9,021110,,,A*7A
$GPRMC,161518.9,A,3249.172093,N,11654.616510,W,48.4,24.3,021110,,,A*71
$GPRMC,161521.9,A,3249.210495,N,11654.597112,W,49.6,23.5,021110,,,A*70
$GPRMC,161524.9,A,3249.247708,N,11654.574632,W,49.6,25.6,021110,,,A*7D
$GPRMC,161527.9,A,3249.284544,N,11654.550677,W,50.2,29.0,021110,,,A*7A
$GPRMC,161530.9,A,3249.319344,N,11654.526063,W,50.0,33.1,021110,,,A*75
$GPRMC,161533.9,A,3249.354200,N,11654.495277,W,49.8,37.4,021110,,,A*71
$GPRMC,161536.9,A,3249.383552,N,11654.462384,W,48.2,43.9,021110,,,A*7E
$GPRMC,161539.9,A,3249.411427,N,11654.430160,W,48.7,44.3,021110,,,A*79
$GPRMC,161542.9,A,3249.440182,N,11654.395593,W,49.0,47.7,021110,,,A*7A
$GPRMC,161545.9,A,3249.467997,N,11654.358673,W,50.2,49.6,021110,,,A*7D
$GPRMC,161548.9,A,3249.491664,N,11654.321544,W,47.7,53.1,021110,,,A*7C
$GPRMC,161551.9,A,3249.512713,N,11654.284331,W,45.4,54.3,021110,,,A*71
$GPRMC,161554.9,A,3249.532170,N,11654.251337,W,39.9,55.4,021110,,,A*7B
$GPRMC,161557.9,A,3249.543311,N,11654.219121,W,34.2,63.1,021110,,,A*74
$GPRMC,161600.9,A,3249.552468,N,11654.193550,W,26.6,64.0,021110,,,A*7E
$GPRMC,161603.9,A,3249.559401,N,11654.176590,W,17.3,65.5,021110,,,A*7D
$GPRMC,161606.9,A,3249.561777,N,11654.171455,W,4.9,55.2,021110,,,A*42
$GPRMC,161615.9,A,3249.559972,N,11654.168357,W,8.3,118.5,021110,,,A*74
$GPRMC,161618.2,A,3249.554140,N,11654.156566,W,18.3,116.3,021110,,,A*46
$GPRMC,161621.9,A,3249.545954,N,11654.132364,W,20.9,109.5,021110,,,A*45
$GPRMC,161624.9,A,3249.541377,N,11654.116030,W,13.4,108.9,021110,,,A*4B
$GPRMC,161627.9,A,3249.537337,N,11654.108836,W,8.8,112.4,021110,,,A*7C
$GPRMC,161630.9,A,3249.535776,N,11654.097034,W,12.7,101.1,021110,,,A*47
$GPRMC,161633.9,A,3249.537249,N,11654.089131,W,8.7,62.8,021110,,,A*42
$GPRMC,161636.9,A,3249.545502,N,11654.083400,W,11.9,26.5,021110,,,A*7C
$GPRMC,161639.9,A,3249.561107,N,11654.077842,W,18.2,18.9,021110,,,A*76
$GPRMC,161642.9,A,3249.575137,N,11654.073329,W,14.8,1.3,021110,,,A*4A
$GPRMC,161645.9,A,3249.582558,N,11654.077926,W,7.5,341.0,021110,,,A*72
$GPRMC,161648.0,A,3249.582339,N,11654.082192,W,5.2,297.3,021110,,,A*76
$GPRMC,161706.9,A,3249.593990,N,11654.092830,W,7.0,296.1,021110,,,A*7E
$GPRMC,161709.9,A,3249.597309,N,11654.098321,W,6.0,309.3,021110,,,A*7A
$GPRMC,161712.9,A,3249.602701,N,11654.102567,W,7.0,333.5,021110,,,A*7B
$GPRMC,161715.9,A,3249.607985,N,11654.106745,W,5.8,320.6,021110,,,A*76
$GPRMC,162010.9,A,3249.594306,N,11654.124296,W,4.5,208.5,021110,,,A*70
$GPRMC,162025.9,A,3249.584784,N,11654.115402,W,6.9,107.2,021110,,,A*75
$GPRMC,162028.9,A,3249.582960,N,11654.107893,W,7.4,101.7,021110,,,A*72
$GPRMC,162031.9,A,3249.582617,N,11654.099141,W,9.1,100.1,021110,,,A*79
$GPRMC,162034.9,A,3249.580927,N,11654.089521,W,9.0,98.2,021110,,,A*43
$GPRMC,162037.9,A,3249.580429,N,11654.082029,W,7.4,98.1,021110,,,A*4C
$GPRMC,162040.9,A,3249.578932,N,11654.079544,W,4.5,128.4,021110,,,A*7B
$GPRMC,162043.9,A,3249.570345,N,11654.080498,W,9.4,185.3,021110,,,A*70
$GPRMC,162046.9,A,3249.559078,N,11654.086526,W,15.6,201.4,021110,,,A*46
$GPRMC,162049.9,A,3249.548011,N,11654.090380,W,9.0,204.1,021110,,,A*70
$GPRMC,162052.9,A,3249.543176,N,11654.093291,W,5.9,206.6,021110,,,A*73
$GPRMC,162055.9,A,3249.540493,N,11654.102598,W,9.2,259.2,021110,,,A*77
$GPRMC,162058.9,A,3249.546720,N,11654.122261,W,20.9,286.8,021110,,,A*4C
$GPRMC,162101.9,A,3249.556439,N,11654.144226,W,24.0,303.2,021110,,,A*43
$GPRMC,162104.9,A,3249.570175,N,11654.158014,W,14.1,316.5,021110,,,A*40
$GPRMC,162110.9,A,3249.577930,N,11654.160394,W,6.9,348.3,021110,,,A*7D
$GPRMC,162113.9,A,3249.589367,N,11654.154809,W,15.6,23.7,021110,,,A*78
$GPRMC,162116.9,A,3249.611764,N,11654.136064,W,31.7,32.5,021110,,,A*7A
$GPRMC,162119.9,A,3249.638874,N,11654.115015,W,38.8,36.4,021110,,,A*74
$GPRMC,162122.9,A,3249.667482,N,11654.085413,W,45.2,43.2,021110,,,A*7D
$GPRMC,162125.9,A,3249.694185,N,11654.052569,W,47.9,46.2,021110,,,A*7E
$GPRMC,162128.9,A,3249.724586,N,11654.014875,W,52.9,46.6,021110,,,A*7C
$GPRMC,162131.9,A,3249.757997,N,11653.970845,W,58.6,47.5,021110,,,A*74
$GPRMC,162134.9,A,3249.789919,N,11653.925674,W,60.3,48.2,021110,,,A*7E
$GPRMC,162137.9,A,3249.827528,N,11653.882783,W,60.0,45.6,021110,,,A*77
$GPRMC,162140.9,A,3249.863888,N,11653.838998,W,62.2,45.4,021110,,,A*77
$GPRMC,162143.9,A,3249.896625,N,11653.797329,W,62.0,44.2,021110,,,A*78
$GPRMC,162146.9,A,3249.937189,N,11653.752887,W,65.6,42.0,021110,,,A*75
$GPRMC,162149.9,A,3249.979741,N,11653.708993,W,67.4,41.3,021110,,,A*79
$GPRMC,162152.9,A,3250.022612,N,11653.665019,W,67.5,41.1,021110,,,A*79
$GPRMC,162155.9,A,3250.063677,N,11653.620690,W,66.8,41.7,021110,,,A*74
$GPRMC,162158.9,A,3250.105848,N,11653.576450,W,66.1,41.6,021110,,,A*7C
$GPRMC,162201.9,A,3250.143460,N,11653.532983,W,65.1,43.1,021110,,,A*72
$GPRMC,162204.2,A,3250.176060,N,11653.499503,W,66.0,41.4,021110,,,A*7F
$GPRMC,162207.2,A,3250.218069,N,11653.456445,W,64.4,41.7,021110,,,A*7B
$GPRMC,162210.2,A,3250.257551,N,11653.415204,W,61.0,41.9,021110,,,A*73
$GPRMC,162213.2,A,3250.295626,N,11653.375696,W,60.6,41.4,021110,,,A*79
$GPRMC,162216.2,A,3250.335349,N,11653.335716,W,63.6,40.2,021110,,,A*72
$GPRMC,162219.9,A,3250.383473,N,11653.285167,W,61.3,41.9,021110,,,A*72
$GPRMC,162222.9,A,3250.421546,N,11653.243430,W,62.8,42.4,021110,,,A*79
$GPRMC,162225.9,A,3250.460449,N,11653.201535,W,61.9,42.3,021110,,,A*72
$GPRMC,162228.9,A,3250.498969,N,11653.160599,W,62.7,42.0,021110,,,A*7B
$GPRMC,162231.9,A,3250.536717,N,11653.121654,W,61.3,42.5,021110,,,A*74
$GPRMC,162234.9,A,3250.571425,N,11653.077978,W,61.7,47.7,021110,,,A*70
$GPRMC,162237.9,A,3250.606123,N,11653.029625,W,62.4,51.9,021110,,,A*76
$GPRMC,162240.9,A,3250.635609,N,11652.978693,W,62.1,57.4,021110,,,A*76
$GPRMC,162243.9,A,3250.658724,N,11652.924846,W,62.0,65.7,021110,,,A*7C
$GPRMC,162246.9,A,3250.679162,N,11652.868179,W,61.8,70.2,021110,,,A*78
$GPRMC,162249.9,A,3250.691753,N,11652.809724,W,61.8,75.1,021110,,,A*7A
$GPRMC,162252.2,A,3250.699977,N,11652.764694,W,62.6,75.6,021110,,,A*7F
$GPRMC,162255.9,A,3250.714705,N,11652.692553,W,59.2,74.2,021110,,,A*75
$GPRMC,162258.9,A,3250.728604,N,11652.635990,W,60.1,72.3,021110,,,A*77
$GPRMC,162301.9,A,3250.747578,N,11652.580519,W,60.7,65.9,021110,,,A*71
$GPRMC,162304.9,A,3250.771712,N,11652.527643,W,60.0,59.6,021110,,,A*79
$GPRMC,162307.9,A,3250.802755,N,11652.479553,W,61.4,53.3,021110,,,A*70
$GPRMC,162310.9,A,3250.834646,N,11652.432982,W,61.0,48.0,021110,,,A*72
$GPRMC,162313.9,A,3250.871609,N,11652.389253,W,60.9,42.8,021110,,,A*71
$GPRMC,162316.9,A,3250.909230,N,11652.351393,W,60.5,40.3,021110,,,A*79
$GPRMC,162319.9,A,3250.946746,N,11652.313864,W,58.7,40.9,021110,,,A*7F
$GPRMC,162322.9,A,3250.984488,N,11652.275967,W,59.5,40.4,021110,,,A*75
$GPRMC,162325.9,A,3251.021649,N,11652.235854,W,60.3,43.0,021110,,,A*74
$GPRMC,162328.9,A,3251.058062,N,11652.192141,W,61.6,47.1,021110,,,A*7A
$GPRMC,162331.9,A,3251.090905,N,11652.143264,W,63.4,52.8,021110,,,A*7B
$GPRMC,162334.9,A,3251.118472,N,11652.092050,W,62.8,59.4,021110,,,A*70
$GPRMC,162337.9,A,3251.143237,N,11652.036065,W,63.3,64.5,021110,,,A*77
$GPRMC,162340.9,A,3251.163231,N,11651.979143,W,63.2,68.5,021110,,,A*7A
$GPRMC,162343.9,A,3251.181456,N,11651.920806,W,61.2,69.5,021110,,,A*75
$GPRMC,162346.9,A,3251.198291,N,11651.865887,W,59.5,69.8,021110,,,A*7D
$GPRMC,162349.9,A,3251.215760,N,11651.810555,W,60.1,68.0,021110,,,A*78
$GPRMC,162352.9,A,3251.230594,N,11651.755200,W,61.1,71.7,021110,,,A*7B
$GPRMC,162355.9,A,3251.240641,N,11651.695199,W,61.3,78.2,021110,,,A*70
$GPRMC,162358.9,A,3251.247103,N,11651.637078,W,60.8,83.7,021110,,,A*76
$GPRMC,162401.9,A,3251.248498,N,11651.576082,W,61.1,90.4,021110,,,A*7F
$GPRMC,162404.9,A,3251.243295,N,11651.515827,W,62.6,96.5,021110,,,A*7B
$GPRMC,162407.9,A,3251.233412,N,11651.452713,W,64.1,98.3,021110,,,A*75
$GPRMC,162410.9,A,3251.225268,N,11651.390905,W,63.7,98.8,021110,,,A*75
$GPRMC,162413.9,A,3251.220517,N,11651.328136,W,64.1,97.4,021110,,,A*75
$GPRMC,162416.9,A,3251.212895,N,11651.266056,W,63.7,98.5,021110,,,A*75
$GPRMC,162419.9,A,3251.205494,N,11651.205703,W,61.8,97.9,021110,,,A*7D
$GPRMC,162422.9,A,3251.199083,N,11651.144344,W,63.5,98.0,021110,,,A*79
$GPRMC,162425.9,A,3251.186660,N,11651.081245,W,66.3,100.0,021110,,,A*40
$GPRMC,162428.9,A,3251.180008,N,11651.015542,W,68.4,98.0,021110,,,A*77
$GPRMC,162431.9,A,3251.173624,N,11650.948515,W,67.9,96.9,021110,,,A*7C
$GPRMC,162434.9,A,3251.171586,N,11650.882858,W,67.2,93.9,021110,,,A*7D
$GPRMC,162437.9,A,3251.167594,N,11650.818252,W,64.6,93.2,021110,,,A*75
$GPRMC,162440.9,A,3251.165771,N,11650.753880,W,64.7,92.2,021110,,,A*7B
$GPRMC,162443.9,A,3251.169844,N,11650.688347,W,66.2,87.3,021110,,,A*78
$GPRMC,162446.9,A,3251.175406,N,11650.624169,W,66.3,84.4,021110,,,A*77
$GPRMC,162449.9,A,3251.183156,N,11650.559171,W,66.9,83.5,021110,,,A*7D
$GPRMC,162452.9,A,3251.188649,N,11650.493601,W,67.3,83.9,021110,,,A*75
$GPRMC,162455.9,A,3251.196256,N,11650.426863,W,68.6,83.0,021110,,,A*70
$GPRMC,162458.9,A,3251.207956,N,11650.361117,W,68.6,76.9,021110,,,A*70
$GPRMC,162501.9,A,3251.225418,N,11650.297025,W,68.9,71.8,021110,,,A*7B
$GPRMC,162504.9,A,3251.247857,N,11650.230386,W,70.6,66.8,021110,,,A*7A
$GPRMC,162507.9,A,3251.276082,N,11650.169982,W,67.5,64.6,021110,,,A*73
$GPRMC,162510.9,A,3251.296577,N,11650.111759,W,64.4,65.3,021110,,,A*75
$GPRMC,162513.9,A,3251.320377,N,11650.055256,W,64.2,66.0,021110,,,A*71
$GPRMC,162516.9,A,3251.337806,N,11649.994289,W,65.5,71.0,021110,,,A*71
$GPRMC,162519.9,A,3251.355732,N,11649.934103,W,63.5,73.0,021110,,,A*7D
$GPRMC,162522.9,A,3251.367943,N,11649.873072,W,62.4,77.2,021110,,,A*7F
$GPRMC,162525.9,A,3251.377015,N,11649.816077,W,59.3,79.4,021110,,,A*72
$GPRMC,162528.9,A,3251.384632,N,11649.760558,W,57.8,83.5,021110,,,A*77
$GPRMC,162531.9,A,3251.388003,N,11649.705253,W,58.1,86.2,021110,,,A*7C
$GPRMC,162534.9,A,3251.389687,N,11649.644442,W,61.3,87.8,021110,,,A*73
$GPRMC,162537.9,A,3251.393633,N,11649.581828,W,62.9,86.9,021110,,,A*77
$GPRMC,162540.9,A,3251.394788,N,11649.520953,W,63.1,87.7,021110,,,A*71
$GPRMC,162543.9,A,3251.397960,N,11649.458530,W,63.4,87.2,021110,,,A*7E
$GPRMC,162546.9,A,3251.400659,N,11649.396297,W,64.2,86.8,021110,,,A*72
$GPRMC,162549.9,A,3251.402434,N,11649.331869,W,65.2,87.8,021110,,,A*70
$GPRMC,162552.9,A,3251.405525,N,11649.269898,W,62.0,87.8,021110,,,A*7B
$GPRMC,162555.9,A,3251.408447,N,11649.209284,W,60.1,87.6,021110,,,A*78
$GPRMC,162558.9,A,3251.410656,N,11649.153377,W,57.1,87.1,021110,,,A*7C
$GPRMC,162601.9,A,3251.410764,N,11649.096131,W,58.5,88.6,021110,,,A*78
$GPRMC,162604.9,A,3251.411415,N,11649.036159,W,60.8,92.2,021110,,,A*74
$GPRMC,162607.9,A,3251.403495,N,11648.976464,W,60.6,99.9,021110,,,A*75
$GPRMC,162610.9,A,3251.391655,N,11648.919871,W,59.3,104.0,021110,,,A*43
$GPRMC,162613.9,A,3251.370603,N,11648.863211,W,61.9,112.3,021110,,,A*49
$GPRMC,162616.9,A,3251.347687,N,11648.810951,W,59.9,114.7,021110,,,A*46
$GPRMC,162619.9,A,3251.314758,N,11648.768292,W,58.4,129.5,021110,,,A*48
$GPRMC,162622.9,A,3251.280571,N,11648.728957,W,56.5,136.4,021110,,,A*43
$GPRMC,162625.9,A,3251.240429,N,11648.693449,W,59.7,143.5,021110,,,A*49
$GPRMC,162628.9,A,3251.196484,N,11648.660940,W,62.1,147.8,021110,,,A*44
$GPRMC,162631.9,A,3251.151869,N,11648.628617,W,61.0,149.3,021110,,,A*4E
$GPRMC,162634.9,A,3251.106554,N,11648.597022,W,61.5,148.5,021110,,,A*4F
$GPRMC,162637.9,A,3251.060715,N,11648.565528,W,65.3,149.9,021110,,,A*47
$GPRMC,162640.9,A,3251.012721,N,11648.533675,W,65.9,149.3,021110,,,A*4D
$GPRMC,162643.9,A,3250.966821,N,11648.497103,W,65.9,144.6,021110,,,A*4B
$GPRMC,162646.9,A,3250.925841,N,11648.452184,W,66.9,136.5,021110,,,A*4C
$GPRMC,162649.9,A,3250.888775,N,11648.402952,W,67.7,132.4,021110,,,A*41
$GPRMC,162652.9,A,3250.852695,N,11648.352584,W,66.9,131.8,021110,,,A*46
$GPRMC,162655.9,A,3250.813402,N,11648.302662,W,68.3,131.9,021110,,,A*43
$GPRMC,162658.9,A,3250.777206,N,11648.252406,W,67.2,130.6,021110,,,A*45
$GPRMC,162701.9,A,3250.742854,N,11648.202084,W,67.1,130.3,021110,,,A*4E
$GPRMC,162704.9,A,3250.708160,N,11648.154092,W,64.9,128.8,021110,,,A*45
$GPRMC,162707.9,A,3250.674626,N,11648.099854,W,66.3,124.0,021110,,,A*47
$GPRMC,162710.9,A,3250.647896,N,11648.047216,W,64.9,118.1,021110,,,A*4D
$GPRMC,162713.9,A,3250.627630,N,11647.987619,W,66.2,112.1,021110,,,A*48
