NMEA Sentence Code,UTC Time,Status,Latitude,Latitude Direction,Longitude,Longitude Direction,Speed (knots),Track Angle (degrees true),Date,MagneticVariation,Magnetic Variation Direction,[FAA Mode]-Optional,Checksum
$GPRMC,165043.5,A,3246.6996,N,11704.0181,W,12.10,28.20,271210,,*14
$GPRMC,165047.5,A,3246.7155,N,11704.0081,W,19.00,29.00,271210,,*1E
$GPRMC,165051.5,A,3246.7382,N,11703.9925,W,27.60,28.10,271210,,*13
$GPRMC,165055.5,A,3246.7666,N,11703.9743,W,29.60,28.00,271210,,*19
$GPRMC,165059.5,A,3246.7942,N,11703.9558,W,27.00,32.00,271210,,*17
$GPRMC,165103.5,A,3246.8162,N,11703.9326,W,24.40,51.20,271210,,*13
$GPRMC,165107.5,A,3246.8273,N,11703.9062,W,22.00,78.70,271210,,*1B
$GPRMC,165111.5,A,3246.8158,N,11703.8785,W,23.10,126.40,271210,,*20
$GPRMC,165115.5,A,3246.7869,N,11703.8780,W,26.30,182.30,271210,,*2B
$GPRMC,165119.5,A,3246.7744,N,11703.9165,W,27.70,243.40,271210,,*27
$GPRMC,165123.5,A,3246.7771,N,11703.9706,W,40.00,270.50,271210,,*2C
$GPRMC,165127.5,A,3246.7762,N,11704.0284,W,44.30,268.30,271210,,*23
$GPRMC,165131.5,A,3246.7755,N,11704.0877,W,46.30,268.80,271210,,*2F
$GPRMC,165135.5,A,3246.7738,N,11704.1507,W,47.60,267.50,271210,,*2D
$GPRMC,165139.5,A,3246.7711,N,11704.2154,W,51.00,267.50,271210,,*2A
$GPRMC,165143.5,A,3246.7681,N,11704.2845,W,53.40,268.10,271210,,*2B
$GPRMC,165147.5,A,3246.7678,N,11704.3587,W,56.40,270.80,271210,,*2E
$GPRMC,165151.5,A,3246.7702,N,11704.4314,W,55.70,272.80,271210,,*2C
$GPRMC,165155.5,A,3246.7748,N,11704.5027,W,50.90,276.30,271210,,*20
$GPRMC,165159.5,A,3246.7818,N,11704.5684,W,49.20,279.40,271210,,*22
$GPRMC,165203.5,A,3246.7912,N,11704.6389,W,56.00,279.10,271210,,*27
$GPRMC,165207.5,A,3246.8035,N,11704.7135,W,57.80,280.60,271210,,*2C
$GPRMC,165211.5,A,3246.8161,N,11704.7886,W,58.00,280.80,271210,,*23
$GPRMC,165215.5,A,3246.8288,N,11704.8618,W,54.40,281.30,271210,,*27
$GPRMC,165219.5,A,3246.8405,N,11704.9312,W,53.50,281.40,271210,,*27
$GPRMC,165223.5,A,3246.8528,N,11705.0019,W,55.40,281.30,271210,,*20
$GPRMC,165227.5,A,3246.8637,N,11705.0737,W,56.50,277.60,271210,,*2C
$GPRMC,165231.5,A,3246.8683,N,11705.1492,W,58.40,271.90,271210,,*2F
$GPRMC,165235.5,A,3246.8661,N,11705.2294,W,62.50,266.40,271210,,*27
$GPRMC,165239.5,A,3246.8595,N,11705.3117,W,63.20,264.00,271210,,*2A
$GPRMC,165243.5,A,3246.8521,N,11705.3922,W,60.90,263.70,271210,,*2E
$GPRMC,165247.5,A,3246.8426,N,11705.4714,W,61.70,262.50,271210,,*2C
$GPRMC,165251.5,A,3246.8345,N,11705.5519,W,62.10,262.20,271210,,*25
$GPRMC,165255.5,A,3246.8236,N,11705.6337,W,63.40,259.70,271210,,*24
$GPRMC,165259.5,A,3246.8103,N,11705.7138,W,62.90,258.80,271210,,*23
$GPRMC,165303.5,A,3246.7964,N,11705.7982,W,63.90,258.40,271210,,*2F
$GPRMC,165307.5,A,3246.7820,N,11705.8807,W,65.00,258.30,271210,,*21
$GPRMC,165311.5,A,3246.7672,N,11705.9645,W,64.80,258.70,271210,,*2B
$GPRMC,165315.5,A,3246.7530,N,11706.0487,W,66.10,260.10,271210,,*2A
$GPRMC,165319.5,A,3246.7416,N,11706.1352,W,67.50,262.70,271210,,*2C
$GPRMC,165323.5,A,3246.7334,N,11706.2229,W,66.40,264.60,271210,,*2B
$GPRMC,165327.5,A,3246.7277,N,11706.3103,W,66.00,267.40,271210,,*26
$GPRMC,165331.5,A,3246.7246,N,11706.3977,W,66.10,268.80,271210,,*2A
$GPRMC,165335.5,A,3246.7230,N,11706.4833,W,64.30,268.90,271210,,*28
$GPRMC,165339.5,A,3246.7224,N,11706.5666,W,63.00,269.10,271210,,*23
$GPRMC,165343.5,A,3246.7215,N,11706.6493,W,62.50,269.00,271210,,*22
$GPRMC,165347.5,A,3246.7201,N,11706.7310,W,61.20,269.40,271210,,*2E
$GPRMC,165351.5,A,3246.7195,N,11706.8120,W,62.50,269.00,271210,,*29
$GPRMC,165355.5,A,3246.7180,N,11706.8937,W,59.70,269.30,271210,,*2E
$GPRMC,165359.5,A,3246.7165,N,11706.9687,W,56.80,267.20,271210,,*23
$GPRMC,165403.5,A,3246.7097,N,11707.0451,W,59.20,260.50,271210,,*23
$GPRMC,165407.5,A,3246.6939,N,11707.1240,W,63.30,254.50,271210,,*23
$GPRMC,165411.5,A,3246.6685,N,11707.2030,W,65.50,245.40,271210,,*2B
$GPRMC,165415.5,A,3246.6322,N,11707.2762,W,64.70,236.90,271210,,*2D
$GPRMC,165419.5,A,3246.5899,N,11707.3471,W,65.70,234.40,271210,,*27
$GPRMC,165423.5,A,3246.5478,N,11707.4164,W,64.40,234.60,271210,,*2B
$GPRMC,165427.5,A,3246.5076,N,11707.4849,W,64.20,236.30,271210,,*22
$GPRMC,165431.5,A,3246.4675,N,11707.5560,W,64.10,238.00,271210,,*28
$GPRMC,165435.5,A,3246.4324,N,11707.6309,W,65.40,240.90,271210,,*25
$GPRMC,165439.5,A,3246.4024,N,11707.7075,W,64.40,249.70,271210,,*25
$GPRMC,165443.5,A,3246.3807,N,11707.7847,W,60.20,252.90,271210,,*29
$GPRMC,165447.5,A,3246.3673,N,11707.8628,W,60.80,260.40,271210,,*2E
$GPRMC,165451.5,A,3246.3866,N,11707.9335,W,52.50,284.70,271210,,*2E
$GPRMC,165455.5,A,3246.4295,N,11707.9846,W,49.90,309.10,271210,,*20
$GPRMC,165459.5,A,3246.5013,N,11708.0368,W,63.60,322.80,271210,,*27
$GPRMC,165503.5,A,3246.5624,N,11708.0854,W,64.60,324.60,271210,,*20
$GPRMC,165507.5,A,3246.6243,N,11708.1328,W,65.50,327.50,271210,,*21
$GPRMC,165511.5,A,3246.6830,N,11708.1779,W,62.20,327.80,271210,,*25
$GPRMC,165515.5,A,3246.7423,N,11708.2204,W,64.00,327.70,271210,,*29
$GPRMC,165519.5,A,3246.8033,N,11708.2676,W,65.90,325.70,271210,,*24
$GPRMC,165523.5,A,3246.8621,N,11708.3224,W,68.80,320.10,271210,,*25
$GPRMC,165527.5,A,3246.9199,N,11708.3843,W,70.70,315.50,271210,,*2B
$GPRMC,165531.5,A,3246.9719,N,11708.4557,W,72.70,309.40,271210,,*23
$GPRMC,165535.5,A,3247.0175,N,11708.5324,W,72.00,305.30,271210,,*2C
$GPRMC,165539.5,A,3247.0647,N,11708.6108,W,72.50,305.20,271210,,*2D
$GPRMC,165543.5,A,3247.1099,N,11708.6858,W,71.10,308.70,271210,,*27
$GPRMC,165547.5,A,3247.1606,N,11708.7554,W,70.00,312.60,271210,,*29
$GPRMC,165551.5,A,3247.2203,N,11708.8143,W,69.40,320.80,271210,,*22
$GPRMC,165555.5,A,3247.2864,N,11708.8678,W,71.90,329.20,271210,,*25
$GPRMC,165559.5,A,3247.3574,N,11708.9116,W,71.80,335.20,271210,,*26
$GPRMC,165603.5,A,3247.4321,N,11708.9438,W,71.40,343.00,271210,,*2D
$GPRMC,165607.5,A,3247.5091,N,11708.9654,W,70.70,349.30,271210,,*23
$GPRMC,165611.5,A,3247.5870,N,11708.9771,W,71.30,356.80,271210,,*25
$GPRMC,165615.5,A,3247.6662,N,11708.9775,W,71.30,2.90,271210,,*28
$GPRMC,165619.5,A,3247.7453,N,11708.9723,W,69.40,3.30,271210,,*23
$GPRMC,165623.5,A,3247.8237,N,11708.9667,W,69.10,2.70,271210,,*20
$GPRMC,165627.5,A,3247.9003,N,11708.9657,W,69.50,358.40,271210,,*28
$GPRMC,165631.5,A,3247.9759,N,11708.9749,W,67.60,350.60,271210,,*2E
$GPRMC,165635.5,A,3248.0487,N,11708.9928,W,66.90,347.10,271210,,*2A
$GPRMC,165639.5,A,3248.1201,N,11709.0108,W,65.60,347.50,271210,,*25
$GPRMC,165643.5,A,3248.1909,N,11709.0296,W,65.70,347.40,271210,,*2F
$GPRMC,165647.5,A,3248.2615,N,11709.0490,W,64.70,347.00,271210,,*2F
$GPRMC,165651.5,A,3248.3325,N,11709.0683,W,65.70,346.60,271210,,*29
$GPRMC,165655.5,A,3248.4046,N,11709.0929,W,67.80,341.10,271210,,*2E
$GPRMC,165659.5,A,3248.4742,N,11709.1280,W,67.70,333.80,271210,,*2B
$GPRMC,165703.5,A,3248.5396,N,11709.1705,W,66.80,330.30,271210,,*27
$GPRMC,165707.5,A,3248.5976,N,11709.2211,W,65.20,321.80,271210,,*26
$GPRMC,165711.5,A,3248.6536,N,11709.2771,W,65.30,320.30,271210,,*22
$GPRMC,165715.5,A,3248.7081,N,11709.3315,W,65.90,320.90,271210,,*29
$GPRMC,165719.5,A,3248.7654,N,11709.3866,W,66.50,320.80,271210,,*2A
$GPRMC,165723.5,A,3248.8227,N,11709.4415,W,65.70,321.50,271210,,*2E
$GPRMC,165727.5,A,3248.8825,N,11709.4928,W,65.80,326.80,271210,,*24
$GPRMC,165731.5,A,3248.9462,N,11709.5366,W,66.30,333.30,271210,,*2B
$GPRMC,165735.5,A,3249.0130,N,11709.5746,W,66.30,333.90,271210,,*29
$GPRMC,165739.5,A,3249.0786,N,11709.6124,W,65.40,333.80,271210,,*2A
$GPRMC,165743.5,A,3249.1432,N,11709.6501,W,64.10,334.00,271210,,*22
$GPRMC,165747.5,A,3249.2076,N,11709.6872,W,64.30,333.70,271210,,*2A
$GPRMC,165751.5,A,3249.2712,N,11709.7245,W,63.70,333.80,271210,,*2B
$GPRMC,165755.5,A,3249.3337,N,11709.7618,W,62.60,333.70,271210,,*2E
$GPRMC,165759.5,A,3249.3963,N,11709.7982,W,62.90,334.10,271210,,*2B
$GPRMC,165803.5,A,3249.4597,N,11709.8344,W,63.80,334.10,271210,,*24
$GPRMC,165807.5,A,3249.5229,N,11709.8715,W,62.70,332.40,271210,,*2E
$GPRMC,165811.5,A,3249.5848,N,11709.9089,W,62.90,332.90,271210,,*24
$GPRMC,165815.5,A,3249.6479,N,11709.9475,W,63.60,332.70,271210,,*2A
$GPRMC,165819.5,A,3249.7107,N,11709.9858,W,63.70,332.60,271210,,*28
$GPRMC,165823.5,A,3249.7736,N,11710.0242,W,62.10,332.70,271210,,*23
$GPRMC,165827.5,A,3249.8339,N,11710.0612,W,59.60,332.20,271210,,*28
$GPRMC,165831.5,A,3249.8930,N,11710.0977,W,60.90,332.70,271210,,*20
$GPRMC,165835.5,A,3249.9544,N,11710.1355,W,62.10,332.70,271210,,*2B
$GPRMC,165839.5,A,3250.0162,N,11710.1732,W,62.70,332.70,271210,,*25
$GPRMC,165843.5,A,3250.0788,N,11710.2108,W,63.10,332.80,271210,,*2E
$GPRMC,165847.5,A,3250.1407,N,11710.2481,W,61.90,333.00,271210,,*28
$GPRMC,165851.5,A,3250.2022,N,11710.2860,W,62.80,332.70,271210,,*28
$GPRMC,165855.5,A,3250.2643,N,11710.3244,W,63.10,332.60,271210,,*29
$GPRMC,165859.5,A,3250.3268,N,11710.3632,W,63.50,332.80,271210,,*26
$GPRMC,165903.5,A,3250.3898,N,11710.4015,W,62.20,332.70,271210,,*20
$GPRMC,165907.5,A,3250.4523,N,11710.4387,W,63.70,333.20,271210,,*26
$GPRMC,165911.5,A,3250.5160,N,11710.4765,W,64.70,333.20,271210,,*2C
$GPRMC,165915.5,A,3250.5809,N,11710.5156,W,65.50,332.80,271210,,*21
$GPRMC,165919.5,A,3250.6464,N,11710.5549,W,66.30,333.40,271210,,*2B
$GPRMC,165923.5,A,3250.7117,N,11710.5943,W,65.60,333.10,271210,,*27
$GPRMC,165927.5,A,3250.7760,N,11710.6330,W,64.60,332.90,271210,,*20
$GPRMC,165931.5,A,3250.8395,N,11710.6719,W,64.50,332.60,271210,,*25
$GPRMC,165935.5,A,3250.9041,N,11710.7116,W,65.30,332.70,271210,,*24
$GPRMC,165939.5,A,3250.9687,N,11710.7510,W,65.30,332.80,271210,,*29
$GPRMC,165943.5,A,3251.0323,N,11710.7907,W,64.20,332.40,271210,,*21
$GPRMC,165947.5,A,3251.0927,N,11710.8284,W,61.80,332.00,271210,,*2F
$GPRMC,165951.5,A,3251.1454,N,11710.8660,W,58.80,330.50,271210,,*23
$GPRMC,165955.5,A,3251.2221,N,11710.9064,W,65.40,332.80,271210,,*2E
$GPRMC,165959.5,A,3251.2880,N,11710.9462,W,66.30,332.60,271210,,*2B
$GPRMC,170003.5,A,3251.3518,N,11710.9860,W,64.80,332.50,271210,,*20
$GPRMC,170007.5,A,3251.4161,N,11711.0255,W,64.20,332.60,271210,,*24
$GPRMC,170011.5,A,3251.4802,N,11711.0651,W,64.80,332.70,271210,,*24
$GPRMC,170015.5,A,3251.5451,N,11711.1038,W,64.70,332.70,271210,,*2C
$GPRMC,170019.5,A,3251.6077,N,11711.1454,W,64.80,329.20,271210,,*2D
$GPRMC,170023.5,A,3251.6680,N,11711.1948,W,66.80,322.70,271210,,*26
$GPRMC,170027.5,A,3251.7268,N,11711.2497,W,68.10,321.30,271210,,*2D
$GPRMC,170031.5,A,3251.7850,N,11711.3058,W,67.50,321.10,271210,,*24
$GPRMC,170035.5,A,3251.8432,N,11711.3616,W,66.40,321.30,271210,,*29
$GPRMC,170039.5,A,3251.9008,N,11711.4160,W,66.00,321.20,271210,,*2D
$GPRMC,170043.5,A,3251.9581,N,11711.4700,W,66.00,321.10,271210,,*27
$GPRMC,170047.5,A,3252.0156,N,11711.5249,W,65.80,321.10,271210,,*25
$GPRMC,170051.5,A,3252.0715,N,11711.5782,W,64.80,321.40,271210,,*25
$GPRMC,170055.5,A,3252.1284,N,11711.6324,W,66.50,321.30,271210,,*2E
$GPRMC,170059.5,A,3252.1858,N,11711.6876,W,65.70,320.60,271210,,*20
$GPRMC,170103.5,A,3252.2419,N,11711.7412,W,64.90,321.30,271210,,*20
$GPRMC,170107.5,A,3252.2985,N,11711.7950,W,64.90,321.20,271210,,*26
$GPRMC,170111.5,A,3252.3563,N,11711.8481,W,66.10,323.30,271210,,*23
$GPRMC,170115.5,A,3252.4172,N,11711.8954,W,64.30,328.30,271210,,*2A
$GPRMC,170119.5,A,3252.4785,N,11711.9353,W,62.90,333.10,271210,,*20
$GPRMC,170123.5,A,3252.5414,N,11711.9685,W,60.80,338.20,271210,,*26
$GPRMC,170127.5,A,3252.6041,N,11711.9920,W,60.80,343.50,271210,,*2E
$GPRMC,170131.5,A,3252.6689,N,11712.0122,W,61.40,345.90,271210,,*2C
$GPRMC,170135.5,A,3252.7369,N,11712.0327,W,64.60,345.70,271210,,*2C
$GPRMC,170139.5,A,3252.8082,N,11712.0547,W,67.00,345.40,271210,,*2F
$GPRMC,170143.5,A,3252.8787,N,11712.0762,W,63.70,345.70,271210,,*25
$GPRMC,170147.5,A,3252.9473,N,11712.0968,W,64.80,345.70,271210,,*24
$GPRMC,170151.5,A,3253.0176,N,11712.1180,W,66.60,345.70,271210,,*28
$GPRMC,170155.5,A,3253.0908,N,11712.1399,W,68.50,345.70,271210,,*2A
$GPRMC,170159.5,A,3253.1648,N,11712.1629,W,69.10,344.60,271210,,*27
$GPRMC,170203.5,A,3253.2364,N,11712.1938,W,66.90,338.50,271210,,*23
$GPRMC,170207.5,A,3253.3037,N,11712.2352,W,67.70,329.00,271210,,*2C
$GPRMC,170211.5,A,3253.3648,N,11712.2848,W,67.40,322.30,271210,,*2E
$GPRMC,170215.5,A,3253.4203,N,11712.3451,W,67.50,314.50,271210,,*21
$GPRMC,170219.5,A,3253.4689,N,11712.4128,W,67.70,307.50,271210,,*27
$GPRMC,170223.5,A,3253.5099,N,11712.4892,W,68.00,299.30,271210,,*28
$GPRMC,170227.5,A,3253.5438,N,11712.5708,W,68.00,295.20,271210,,*23
$GPRMC,170231.5,A,3253.5760,N,11712.6530,W,68.70,295.20,271210,,*27
$GPRMC,170235.5,A,3253.6127,N,11712.7334,W,68.40,299.50,271210,,*2E
$GPRMC,170239.5,A,3253.6543,N,11712.8088,W,66.90,305.10,271210,,*2C
$GPRMC,170243.5,A,3253.6996,N,11712.8759,W,63.90,310.90,271210,,*27
$GPRMC,170247.5,A,3253.7462,N,11712.9336,W,60.90,316.10,271210,,*25
$GPRMC,170251.5,A,3253.7977,N,11712.9875,W,62.90,321.10,271210,,*21
$GPRMC,170255.5,A,3253.8541,N,11713.0395,W,64.60,322.80,271210,,*2D
$GPRMC,170259.5,A,3253.9108,N,11713.0919,W,65.30,322.10,271210,,*2A
$GPRMC,170303.5,A,3253.9668,N,11713.1450,W,63.90,321.30,271210,,*29
$GPRMC,170307.5,A,3254.0216,N,11713.1972,W,62.40,320.80,271210,,*25
$GPRMC,170311.5,A,3254.0749,N,11713.2495,W,63.00,320.30,271210,,*24
$GPRMC,170315.5,A,3254.1300,N,11713.3035,W,64.50,319.70,271210,,*2B
$GPRMC,170319.5,A,3254.1838,N,11713.3577,W,62.80,319.50,271210,,*2D
$GPRMC,170323.5,A,3254.2371,N,11713.4109,W,63.00,320.40,271210,,*29
$GPRMC,170327.5,A,3254.2956,N,11713.4593,W,63.40,328.90,271210,,*24
$GPRMC,170331.5,A,3254.3580,N,11713.4985,W,63.20,332.50,271210,,*2F
$GPRMC,170335.5,A,3254.4193,N,11713.5373,W,62.50,332.20,271210,,*29
$GPRMC,170339.5,A,3254.4765,N,11713.5738,W,59.60,332.40,271210,,*2C
$GPRMC,170343.5,A,3254.5441,N,11713.6117,W,62.80,332.60,271210,,*29
$GPRMC,170347.5,A,3254.6072,N,11713.6489,W,63.10,333.50,271210,,*22
$GPRMC,170351.5,A,3254.6743,N,11713.6856,W,66.80,334.80,271210,,*28
$GPRMC,170355.5,A,3254.7377,N,11713.7241,W,66.90,333.60,271210,,*2B
$GPRMC,170359.5,A,3254.8041,N,11713.7653,W,66.30,332.20,271210,,*26
$GPRMC,170403.5,A,3254.8646,N,11713.8054,W,63.00,329.30,271210,,*2C
$GPRMC,170407.5,A,3254.9204,N,11713.8582,W,64.70,318.40,271210,,*20
$GPRMC,170411.5,A,3254.9687,N,11713.9180,W,62.10,309.90,271210,,*22
$GPRMC,170415.5,A,3255.0121,N,11713.9814,W,62.10,308.20,271210,,*2B
$GPRMC,170419.5,A,3255.0567,N,11714.0448,W,62.50,312.00,271210,,*27
$GPRMC,170423.5,A,3255.1042,N,11714.1031,W,61.50,316.00,271210,,*21
$GPRMC,170427.5,A,3255.1571,N,11714.1575,W,63.10,320.60,271210,,*20
$GPRMC,170431.5,A,3255.2148,N,11714.2075,W,64.40,326.70,271210,,*29
$GPRMC,170435.5,A,3255.2779,N,11714.2523,W,66.60,330.80,271210,,*27
$GPRMC,170439.5,A,3255.3441,N,11714.2912,W,66.40,335.80,271210,,*2B
$GPRMC,170443.5,A,3255.4134,N,11714.3216,W,66.80,341.90,271210,,*26
$GPRMC,170447.5,A,3255.4841,N,11714.3457,W,66.20,344.40,271210,,*28
$GPRMC,170451.5,A,3255.5539,N,11714.3684,W,64.50,344.30,271210,,*22
$GPRMC,170455.5,A,3255.6234,N,11714.3915,W,65.50,344.00,271210,,*2A
$GPRMC,170459.5,A,3255.6950,N,11714.4149,W,66.70,345.70,271210,,*2E
$GPRMC,170503.5,A,3255.7679,N,11714.4354,W,67.70,348.10,271210,,*21
$GPRMC,170507.5,A,3255.8418,N,11714.4514,W,66.30,350.70,271210,,*27
$GPRMC,170511.5,A,3255.9139,N,11714.4638,W,65.30,352.60,271210,,*2A
$GPRMC,170515.5,A,3255.9874,N,11714.4717,W,66.80,356.00,271210,,*28
$GPRMC,170519.5,A,3256.0612,N,11714.4762,W,65.40,356.80,271210,,*25
$GPRMC,170523.5,A,3256.1340,N,11714.4817,W,66.00,356.40,271210,,*29
$GPRMC,170527.5,A,3256.2078,N,11714.4869,W,66.80,356.50,271210,,*26
$GPRMC,170531.5,A,3256.2821,N,11714.4925,W,66.50,356.20,271210,,*26
$GPRMC,170535.5,A,3256.3563,N,11714.5000,W,66.80,354.00,271210,,*2A
$GPRMC,170539.5,A,3256.4304,N,11714.5117,W,67.40,351.60,271210,,*2F
$GPRMC,170543.5,A,3256.5036,N,11714.5247,W,66.70,350.90,271210,,*2B
$GPRMC,170547.5,A,3256.5771,N,11714.5389,W,66.90,351.00,271210,,*2E
$GPRMC,170551.5,A,3256.6496,N,11714.5526,W,65.40,350.90,271210,,*25
$GPRMC,170555.5,A,3256.7210,N,11714.5665,W,64.90,351.30,271210,,*2B
$GPRMC,170559.5,A,3256.7927,N,11714.5798,W,65.60,350.80,271210,,*2F
$GPRMC,170603.5,A,3256.8636,N,11714.5938,W,63.80,350.50,271210,,*22
$GPRMC,170607.5,A,3256.9352,N,11714.6071,W,65.70,350.90,271210,,*22
$GPRMC,170611.5,A,3257.0070,N,11714.6195,W,65.10,351.70,271210,,*2C
$GPRMC,170615.5,A,3257.0779,N,11714.6332,W,65.30,350.90,271210,,*24
$GPRMC,170619.5,A,3257.1478,N,11714.6466,W,63.00,351.50,271210,,*25
$GPRMC,170623.5,A,3257.2161,N,11714.6596,W,60.50,350.00,271210,,*2E
$GPRMC,170627.5,A,3257.2840,N,11714.6732,W,61.20,349.80,271210,,*2A
$GPRMC,170631.5,A,3257.3565,N,11714.6869,W,64.30,351.00,271210,,*22
$GPRMC,170635.5,A,3257.4296,N,11714.6995,W,64.90,351.00,271210,,*22
$GPRMC,170639.5,A,3257.5003,N,11714.7131,W,61.10,349.60,271210,,*24
$GPRMC,170643.5,A,3257.5685,N,11714.7293,W,62.80,347.70,271210,,*2F
$GPRMC,170647.5,A,3257.6363,N,11714.7482,W,62.70,345.40,271210,,*2D
$GPRMC,170651.5,A,3257.7041,N,11714.7707,W,62.20,343.00,271210,,*21
$GPRMC,170655.5,A,3257.7704,N,11714.7956,W,63.40,342.50,271210,,*2A
$GPRMC,170659.5,A,3257.8380,N,11714.8206,W,63.40,342.50,271210,,*20
$GPRMC,170703.5,A,3257.9070,N,11714.8461,W,65.40,342.40,271210,,*23
$GPRMC,170707.5,A,3257.9767,N,11714.8723,W,66.10,342.40,271210,,*25
$GPRMC,170711.5,A,3258.0472,N,11714.8989,W,67.30,342.40,271210,,*2E
$GPRMC,170715.5,A,3258.1184,N,11714.9253,W,66.30,342.50,271210,,*2A
$GPRMC,170719.5,A,3258.1901,N,11714.9530,W,68.60,341.40,271210,,*28
$GPRMC,170723.5,A,3258.2604,N,11714.9797,W,64.30,342.50,271210,,*2C
$GPRMC,170727.5,A,3258.3266,N,11715.0047,W,62.00,342.50,271210,,*2E
$GPRMC,170731.5,A,3258.3933,N,11715.0293,W,62.70,342.40,271210,,*2F
$GPRMC,170735.5,A,3258.4598,N,11715.0540,W,61.50,342.20,271210,,*2F
$GPRMC,170739.5,A,3258.5258,N,11715.0792,W,62.60,342.30,271210,,*25
$GPRMC,170743.5,A,3258.5924,N,11715.1042,W,63.00,342.50,271210,,*22
$GPRMC,170747.5,A,3258.6597,N,11715.1291,W,63.50,342.30,271210,,*2E
$GPRMC,170751.5,A,3258.7262,N,11715.1544,W,61.40,342.20,271210,,*28
$GPRMC,170755.5,A,3258.7931,N,11715.1794,W,64.20,342.30,271210,,*2C
$GPRMC,170759.5,A,3258.8630,N,11715.2052,W,66.10,342.20,271210,,*2F
$GPRMC,170803.5,A,3258.9335,N,11715.2322,W,67.00,342.20,271210,,*2A
$GPRMC,170807.5,A,3259.0040,N,11715.2586,W,66.20,342.40,271210,,*2A
$GPRMC,170811.5,A,3259.0751,N,11715.2818,W,66.50,347.00,271210,,*26
$GPRMC,170815.5,A,3259.1479,N,11715.2956,W,68.00,352.90,271210,,*27
$GPRMC,170819.5,A,3259.2230,N,11715.3075,W,69.30,352.20,271210,,*23
$GPRMC,170823.5,A,3259.3002,N,11715.3199,W,70.00,352.50,271210,,*27
$GPRMC,170827.5,A,3259.3756,N,11715.3321,W,68.40,352.00,271210,,*2C
$GPRMC,170831.5,A,3259.4513,N,11715.3448,W,68.70,352.50,271210,,*21
$GPRMC,170835.5,A,3259.5265,N,11715.3569,W,67.70,352.30,271210,,*29
$GPRMC,170839.5,A,3259.6026,N,11715.3692,W,70.30,352.20,271210,,*27
$GPRMC,170843.5,A,3259.6806,N,11715.3810,W,70.30,352.40,271210,,*22
$GPRMC,170847.5,A,3259.7569,N,11715.3936,W,67.70,352.00,271210,,*20
$GPRMC,170851.5,A,3259.8328,N,11715.4057,W,68.90,352.40,271210,,*27
$GPRMC,170855.5,A,3259.9097,N,11715.4178,W,70.00,352.20,271210,,*2F
$GPRMC,170859.5,A,3259.9868,N,11715.4299,W,69.50,352.30,271210,,*2B
$GPRMC,170903.5,A,3300.0620,N,11715.4419,W,68.70,352.90,271210,,*24
$GPRMC,170907.5,A,3300.1375,N,11715.4541,W,67.90,350.70,271210,,*25
$GPRMC,170911.5,A,3300.2100,N,11715.4768,W,65.70,341.10,271210,,*22
$GPRMC,170915.5,A,3300.2777,N,11715.5113,W,66.60,332.50,271210,,*29
$GPRMC,170919.5,A,3300.3408,N,11715.5578,W,67.70,324.20,271210,,*26
$GPRMC,170923.5,A,3300.3985,N,11715.6149,W,68.00,317.20,271210,,*2A
$GPRMC,170927.5,A,3300.4524,N,11715.6773,W,68.20,316.00,271210,,*20
$GPRMC,170931.5,A,3300.5074,N,11715.7403,W,68.90,316.20,271210,,*2A
$GPRMC,170935.5,A,3300.5636,N,11715.8025,W,68.70,316.20,271210,,*2F
$GPRMC,170939.5,A,3300.6191,N,11715.8662,W,69.80,315.90,271210,,*29
$GPRMC,170943.5,A,3300.6750,N,11715.9304,W,70.20,316.30,271210,,*20
$GPRMC,170947.5,A,3300.7308,N,11715.9944,W,69.10,316.30,271210,,*29
$GPRMC,170951.5,A,3300.7856,N,11716.0571,W,68.20,315.90,271210,,*25
$GPRMC,170955.5,A,3300.8404,N,11716.1191,W,67.80,316.30,271210,,*22
$GPRMC,170959.5,A,3300.8937,N,11716.1823,W,67.50,315.30,271210,,*2D
$GPRMC,171003.5,A,3300.9508,N,11716.2412,W,67.40,321.60,271210,,*25
$GPRMC,171007.5,A,3301.0145,N,11716.2904,W,67.30,328.70,271210,,*21
$GPRMC,171011.5,A,3301.0832,N,11716.3307,W,67.50,335.60,271210,,*2C
$GPRMC,171015.5,A,3301.1570,N,11716.3612,W,69.30,343.40,271210,,*28
$GPRMC,171019.5,A,3301.2307,N,11716.3823,W,69.30,348.70,271210,,*25
$GPRMC,171023.5,A,3301.3052,N,11716.3970,W,68.70,350.60,271210,,*24
$GPRMC,171027.5,A,3301.3802,N,11716.4122,W,68.90,350.20,271210,,*2F
$GPRMC,171031.5,A,3301.4556,N,11716.4308,W,69.50,345.60,271210,,*24
$GPRMC,171035.5,A,3301.5291,N,11716.4587,W,68.60,339.50,271210,,*26
$GPRMC,171039.5,A,3301.5982,N,11716.4953,W,68.10,333.10,271210,,*2F
$GPRMC,171043.5,A,3301.6647,N,11716.5391,W,67.50,330.40,271210,,*2F
$GPRMC,171047.5,A,3301.7296,N,11716.5837,W,67.30,330.70,271210,,*20
$GPRMC,171051.5,A,3301.7944,N,11716.6279,W,67.90,329.90,271210,,*2C
$GPRMC,171055.5,A,3301.8622,N,11716.6720,W,69.40,331.10,271210,,*23
$GPRMC,171059.5,A,3301.9292,N,11716.7180,W,69.00,330.40,271210,,*2C
$GPRMC,171103.5,A,3301.9951,N,11716.7633,W,68.90,330.00,271210,,*25
$GPRMC,171107.5,A,3302.0626,N,11716.8081,W,69.50,330.60,271210,,*2F
$GPRMC,171111.5,A,3302.1307,N,11716.8531,W,69.60,330.80,271210,,*2C
$GPRMC,171115.5,A,3302.1984,N,11716.8977,W,70.20,330.60,271210,,*25
$GPRMC,171119.5,A,3302.2657,N,11716.9434,W,69.00,330.60,271210,,*2A
$GPRMC,171123.5,A,3302.3327,N,11716.9884,W,69.20,330.40,271210,,*27
$GPRMC,171127.5,A,3302.3995,N,11717.0345,W,69.50,330.40,271210,,*29
$GPRMC,171131.5,A,3302.4661,N,11717.0782,W,68.20,331.90,271210,,*28
$GPRMC,171135.5,A,3302.5358,N,11717.1146,W,67.90,337.80,271210,,*2E
$GPRMC,171139.5,A,3302.6078,N,11717.1415,W,69.40,344.10,271210,,*2D
$GPRMC,171143.5,A,3302.6811,N,11717.1628,W,67.90,346.40,271210,,*2F
$GPRMC,171147.5,A,3302.7550,N,11717.1846,W,68.70,345.70,271210,,*25
$GPRMC,171151.5,A,3302.8282,N,11717.2066,W,67.90,345.80,271210,,*22
$GPRMC,171155.5,A,3302.9016,N,11717.2289,W,67.50,345.70,271210,,*28
$GPRMC,171159.5,A,3302.9748,N,11717.2514,W,68.10,345.60,271210,,*21
$GPRMC,171203.5,A,3303.0476,N,11717.2723,W,68.00,346.00,271210,,*29
$GPRMC,171207.5,A,3303.1209,N,11717.2944,W,68.30,345.70,271210,,*2A
$GPRMC,171211.5,A,3303.1941,N,11717.3169,W,67.50,345.80,271210,,*2A
$GPRMC,171215.5,A,3303.2673,N,11717.3388,W,67.60,345.90,271210,,*2C
$GPRMC,171219.5,A,3303.3401,N,11717.3605,W,66.90,345.70,271210,,*26
$GPRMC,171223.5,A,3303.4110,N,11717.3825,W,65.80,345.80,271210,,*2C
$GPRMC,171227.5,A,3303.4824,N,11717.4034,W,66.80,345.80,271210,,*2A
$GPRMC,171231.5,A,3303.5548,N,11717.4259,W,67.40,345.50,271210,,*22
$GPRMC,171235.5,A,3303.6278,N,11717.4476,W,68.00,345.90,271210,,*2D
$GPRMC,171239.5,A,3303.7009,N,11717.4697,W,66.40,345.60,271210,,*2C
$GPRMC,171243.5,A,3303.7738,N,11717.4914,W,67.70,345.90,271210,,*2D
$GPRMC,171247.5,A,3303.8472,N,11717.5136,W,68.50,345.60,271210,,*20
$GPRMC,171251.5,A,3303.9211,N,11717.5355,W,67.40,345.80,271210,,*22
$GPRMC,171255.5,A,3303.9912,N,11717.5560,W,64.80,345.60,271210,,*2F
$GPRMC,171259.5,A,3304.0608,N,11717.5777,W,64.50,345.70,271210,,*21
$GPRMC,171303.5,A,3304.1309,N,11717.5988,W,65.20,345.70,271210,,*22
$GPRMC,171307.5,A,3304.2007,N,11717.6199,W,64.70,345.70,271210,,*27
$GPRMC,171311.5,A,3304.2711,N,11717.6406,W,65.50,345.80,271210,,*2F
$GPRMC,171315.5,A,3304.3422,N,11717.6620,W,65.90,345.80,271210,,*23
$GPRMC,171319.5,A,3304.4129,N,11717.6838,W,64.60,345.70,271210,,*20
$GPRMC,171323.5,A,3304.4824,N,11717.7052,W,64.80,345.50,271210,,*24
$GPRMC,171327.5,A,3304.5525,N,11717.7262,W,65.30,345.70,271210,,*24
$GPRMC,171331.5,A,3304.6236,N,11717.7471,W,66.50,345.80,271210,,*2B
$GPRMC,171335.5,A,3304.6943,N,11717.7688,W,65.30,345.60,271210,,*29
$GPRMC,171339.5,A,3304.7640,N,11717.7892,W,63.60,345.90,271210,,*21
$GPRMC,171343.5,A,3304.8307,N,11717.8094,W,62.30,346.00,271210,,*2A
$GPRMC,171347.5,A,3304.8984,N,11717.8300,W,63.00,345.80,271210,,*28
$GPRMC,171351.5,A,3304.9660,N,11717.8505,W,62.60,345.30,271210,,*24
$GPRMC,171355.5,A,3305.0330,N,11717.8757,W,63.80,339.70,271210,,*2D
$GPRMC,171359.5,A,3305.0992,N,11717.9100,W,66.20,334.10,271210,,*22
$GPRMC,171403.5,A,3305.1640,N,11717.9523,W,66.30,331.10,271210,,*2A
$GPRMC,171407.5,A,3305.2295,N,11717.9959,W,67.90,331.00,271210,,*2A
$GPRMC,171411.5,A,3305.2976,N,11718.0397,W,69.20,331.20,271210,,*22
$GPRMC,171415.5,A,3305.3647,N,11718.0833,W,68.40,331.50,271210,,*2F
$GPRMC,171419.5,A,3305.4309,N,11718.1271,W,68.90,331.30,271210,,*2D
$GPRMC,171423.5,A,3305.4996,N,11718.1712,W,69.00,331.20,271210,,*21
$GPRMC,171427.5,A,3305.5680,N,11718.2148,W,68.80,331.20,271210,,*2F
$GPRMC,171431.5,A,3305.6355,N,11718.2580,W,68.40,331.50,271210,,*2D
$GPRMC,171435.5,A,3305.7019,N,11718.3021,W,68.90,331.10,271210,,*25
$GPRMC,171439.5,A,3305.7672,N,11718.3439,W,65.10,331.40,271210,,*2F
$GPRMC,171443.5,A,3305.8303,N,11718.3857,W,64.70,331.00,271210,,*29
$GPRMC,171447.5,A,3305.8933,N,11718.4264,W,64.50,331.40,271210,,*2F
$GPRMC,171451.5,A,3305.9561,N,11718.4672,W,64.20,331.40,271210,,*26
$GPRMC,171455.5,A,3306.0205,N,11718.5084,W,65.50,331.30,271210,,*22
$GPRMC,171459.5,A,3306.0856,N,11718.5501,W,66.80,331.30,271210,,*24
$GPRMC,171503.5,A,3306.1493,N,11718.5937,W,67.30,330.80,271210,,*27
$GPRMC,171507.5,A,3306.2146,N,11718.6367,W,67.40,331.40,271210,,*2B
$GPRMC,171511.5,A,3306.2782,N,11718.6793,W,66.30,331.40,271210,,*2B
$GPRMC,171515.5,A,3306.3438,N,11718.7213,W,66.90,331.20,271210,,*2C
$GPRMC,171519.5,A,3306.4095,N,11718.7638,W,66.20,331.20,271210,,*22
$GPRMC,171523.5,A,3306.4740,N,11718.8061,W,66.20,331.00,271210,,*23
$GPRMC,171527.5,A,3306.5395,N,11718.8468,W,66.50,332.10,271210,,*22
$GPRMC,171531.5,A,3306.6058,N,11718.8874,W,66.40,333.20,271210,,*26
$GPRMC,171535.5,A,3306.6725,N,11718.9261,W,65.80,333.10,271210,,*2C
$GPRMC,171539.5,A,3306.7387,N,11718.9650,W,66.80,333.50,271210,,*2C
$GPRMC,171543.5,A,3306.8060,N,11719.0047,W,67.20,333.30,271210,,*21
$GPRMC,171547.5,A,3306.8688,N,11719.0452,W,65.70,332.90,271210,,*29
$GPRMC,171551.5,A,3306.9357,N,11719.0827,W,65.50,333.40,271210,,*28
$GPRMC,171555.5,A,3306.9999,N,11719.1216,W,65.10,333.20,271210,,*2F
$GPRMC,171559.5,A,3307.0644,N,11719.1601,W,63.70,333.40,271210,,*20
$GPRMC,171603.5,A,3307.1287,N,11719.1965,W,63.80,333.60,271210,,*26
$GPRMC,171607.5,A,3307.1919,N,11719.2350,W,63.80,332.80,271210,,*2E
$GPRMC,171611.5,A,3307.2543,N,11719.2732,W,64.50,333.20,271210,,*28
$GPRMC,171615.5,A,3307.3180,N,11719.3112,W,62.80,333.90,271210,,*23
$GPRMC,171619.5,A,3307.3808,N,11719.3495,W,64.10,333.30,271210,,*29
$GPRMC,171623.5,A,3307.4450,N,11719.3872,W,64.50,333.60,271210,,*22
$GPRMC,171627.5,A,3307.5097,N,11719.4260,W,65.00,333.00,271210,,*24
$GPRMC,171631.5,A,3307.5746,N,11719.4648,W,65.40,333.30,271210,,*21
$GPRMC,171635.5,A,3307.6385,N,11719.5043,W,64.80,333.40,271210,,*2B
$GPRMC,171639.5,A,3307.7033,N,11719.5430,W,65.00,333.50,271210,,*20
$GPRMC,171643.5,A,3307.7682,N,11719.5817,W,65.90,333.00,271210,,*24
$GPRMC,171647.5,A,3307.8326,N,11719.6222,W,65.50,332.80,271210,,*2E
$GPRMC,171651.5,A,3307.8995,N,11719.6610,W,66.40,333.20,271210,,*27
$GPRMC,171655.5,A,3307.9671,N,11719.6996,W,66.50,334.10,271210,,*23
$GPRMC,171659.5,A,3308.0331,N,11719.7368,W,65.40,335.50,271210,,*25
$GPRMC,171703.5,A,3308.0985,N,11719.7716,W,64.60,336.40,271210,,*22
$GPRMC,171707.5,A,3308.1725,N,11719.8060,W,65.80,337.40,271210,,*24
$GPRMC,171711.5,A,3308.2348,N,11719.8379,W,61.30,336.90,271210,,*27
$GPRMC,171715.5,A,3308.2962,N,11719.8698,W,60.20,336.80,271210,,*2A
$GPRMC,171719.5,A,3308.3579,N,11719.9013,W,60.10,337.30,271210,,*2C
$GPRMC,171723.5,A,3308.4208,N,11719.9333,W,61.80,336.60,271210,,*2E
$GPRMC,171727.5,A,3308.4837,N,11719.9652,W,61.60,337.20,271210,,*25
$GPRMC,171731.5,A,3308.5483,N,11719.9923,W,62.80,345.60,271210,,*25
$GPRMC,171735.5,A,3308.6168,N,11720.0061,W,62.80,355.00,271210,,*29
$GPRMC,171739.5,A,3308.6858,N,11720.0107,W,61.50,357.10,271210,,*23
$GPRMC,171743.5,A,3308.7542,N,11720.0148,W,60.70,357.50,271210,,*25
$GPRMC,171747.5,A,3308.8217,N,11720.0213,W,60.50,350.80,271210,,*2C
$GPRMC,171751.5,A,3308.8878,N,11720.0421,W,62.80,340.30,271210,,*2A
$GPRMC,171755.5,A,3308.9526,N,11720.0756,W,64.00,334.70,271210,,*23
$GPRMC,171759.5,A,3309.0164,N,11720.1139,W,63.80,333.40,271210,,*20
$GPRMC,171803.5,A,3309.0826,N,11720.1521,W,66.10,334.10,271210,,*2C
$GPRMC,171807.5,A,3309.1498,N,11720.1901,W,65.70,334.50,271210,,*2F
$GPRMC,171811.5,A,3309.2149,N,11720.2273,W,65.20,335.50,271210,,*2B
$GPRMC,171815.5,A,3309.2828,N,11720.2641,W,66.40,335.30,271210,,*27
$GPRMC,171819.5,A,3309.3486,N,11720.2995,W,65.10,336.20,271210,,*20
$GPRMC,171823.5,A,3309.4164,N,11720.3340,W,65.70,336.90,271210,,*29
$GPRMC,171827.5,A,3309.4794,N,11720.3656,W,63.70,336.90,271210,,*20
$GPRMC,171831.5,A,3309.5485,N,11720.4008,W,66.40,336.60,271210,,*26
$GPRMC,171835.5,A,3309.6179,N,11720.4350,W,67.10,337.00,271210,,*2A
$GPRMC,171839.5,A,3309.6850,N,11720.4698,W,65.50,337.20,271210,,*21
$GPRMC,171843.5,A,3309.7502,N,11720.5043,W,64.90,336.90,271210,,*21
$GPRMC,171847.5,A,3309.8171,N,11720.5374,W,64.50,337.10,271210,,*28
$GPRMC,171851.5,A,3309.8837,N,11720.5713,W,65.20,336.60,271210,,*21
$GPRMC,171855.5,A,3309.9466,N,11720.6055,W,64.70,335.80,271210,,*23
$GPRMC,171859.5,A,3310.0153,N,11720.6396,W,66.50,336.70,271210,,*2D
$GPRMC,171903.5,A,3310.0868,N,11720.6749,W,67.10,335.40,271210,,*21
$GPRMC,171907.5,A,3310.1519,N,11720.7163,W,65.80,330.40,271210,,*2E
$GPRMC,171911.5,A,3310.2116,N,11720.7601,W,63.10,327.90,271210,,*26
$GPRMC,171915.5,A,3310.2714,N,11720.8052,W,64.40,327.60,271210,,*24
$GPRMC,171919.5,A,3310.3338,N,11720.8507,W,67.20,327.70,271210,,*22
$GPRMC,171923.5,A,3310.3981,N,11720.8990,W,68.30,327.50,271210,,*2D
$GPRMC,171927.5,A,3310.4617,N,11720.9481,W,68.50,327.60,271210,,*27
$GPRMC,171931.5,A,3310.5250,N,11720.9935,W,64.50,328.90,271210,,*28
$GPRMC,171935.5,A,3310.5832,N,11721.0381,W,62.20,328.00,271210,,*27
$GPRMC,171939.5,A,3310.6414,N,11721.0822,W,62.00,326.60,271210,,*28
$GPRMC,171943.5,A,3310.6967,N,11721.1286,W,61.40,325.10,271210,,*2A
$GPRMC,171947.5,A,3310.7525,N,11721.1764,W,62.30,323.40,271210,,*2B
$GPRMC,171951.5,A,3310.8087,N,11721.2250,W,63.30,325.30,271210,,*2F
$GPRMC,171955.5,A,3310.8672,N,11721.2730,W,65.90,324.80,271210,,*22
$GPRMC,171959.5,A,3310.9272,N,11721.3239,W,66.80,325.10,271210,,*2C
$GPRMC,172003.5,A,3310.9884,N,11721.3755,W,67.20,325.00,271210,,*2F
$GPRMC,172007.5,A,3311.0518,N,11721.4260,W,66.50,325.10,271210,,*28
$GPRMC,172011.5,A,3311.1115,N,11721.4760,W,66.70,325.20,271210,,*23
$GPRMC,172015.5,A,3311.1723,N,11721.5270,W,66.30,323.60,271210,,*27
$GPRMC,172019.5,A,3311.2328,N,11721.5766,W,66.50,325.40,271210,,*27
$GPRMC,172023.5,A,3311.2929,N,11721.6272,W,65.70,325.20,271210,,*21
$GPRMC,172027.5,A,3311.3533,N,11721.6773,W,67.70,325.20,271210,,*25
$GPRMC,172031.5,A,3311.4153,N,11721.7282,W,66.60,325.10,271210,,*2E
$GPRMC,172035.5,A,3311.4765,N,11721.7795,W,68.30,325.20,271210,,*22
$GPRMC,172039.5,A,3311.5394,N,11721.8316,W,69.00,325.20,271210,,*27
$GPRMC,172043.5,A,3311.6025,N,11721.8842,W,69.90,325.20,271210,,*23
$GPRMC,172047.5,A,3311.6663,N,11721.9369,W,69.60,325.10,271210,,*2C
$GPRMC,172051.5,A,3311.7270,N,11721.9876,W,64.40,324.90,271210,,*2F
$GPRMC,172055.5,A,3311.7867,N,11722.0370,W,65.60,325.60,271210,,*2D
$GPRMC,172059.5,A,3311.8464,N,11722.0864,W,64.90,325.40,271210,,*23
$GPRMC,172103.5,A,3311.9052,N,11722.1377,W,67.60,324.60,271210,,*2A
$GPRMC,172107.5,A,3311.9552,N,11722.2013,W,67.00,311.20,271210,,*2D
$GPRMC,172111.5,A,3311.9979,N,11722.2702,W,64.30,305.20,271210,,*2D
$GPRMC,172115.5,A,3312.0319,N,11722.3492,W,66.50,295.80,271210,,*22
$GPRMC,172119.5,A,3312.0613,N,11722.4317,W,67.20,291.80,271210,,*2E
$GPRMC,172123.5,A,3312.0897,N,11722.5145,W,66.90,292.40,271210,,*24
$GPRMC,172127.5,A,3312.1166,N,11722.5970,W,67.70,292.00,271210,,*23
$GPRMC,172131.5,A,3312.1448,N,11722.6795,W,67.10,292.70,271210,,*2A
$GPRMC,172135.5,A,3312.1716,N,11722.7624,W,66.80,291.90,271210,,*29
$GPRMC,172139.5,A,3312.2010,N,11722.8450,W,68.00,294.90,271210,,*2A
$GPRMC,172143.5,A,3312.2430,N,11722.9216,W,68.90,305.90,271210,,*24
$GPRMC,172147.5,A,3312.2917,N,11722.9912,W,67.70,314.20,271210,,*2D
$GPRMC,172151.5,A,3312.3501,N,11723.0501,W,69.00,322.50,271210,,*2D
$GPRMC,172155.5,A,3312.4150,N,11723.0974,W,66.50,332.00,271210,,*2E
$GPRMC,172159.5,A,3312.4810,N,11723.1381,W,66.40,332.50,271210,,*2A
$GPRMC,172203.5,A,3312.5482,N,11723.1802,W,69.50,331.90,271210,,*21
$GPRMC,172207.5,A,3312.6167,N,11723.2238,W,69.80,332.20,271210,,*2D
$GPRMC,172211.5,A,3312.6840,N,11723.2660,W,67.30,332.30,271210,,*2B
$GPRMC,172215.5,A,3312.7478,N,11723.3062,W,64.30,332.10,271210,,*2D
$GPRMC,172219.5,A,3312.8113,N,11723.3468,W,64.30,332.00,271210,,*29
$GPRMC,172223.5,A,3312.8780,N,11723.3813,W,66.70,340.90,271210,,*26
$GPRMC,172227.5,A,3312.9488,N,11723.4056,W,66.70,344.90,271210,,*22
$GPRMC,172231.5,A,3313.0219,N,11723.4276,W,68.60,346.10,271210,,*26
$GPRMC,172235.5,A,3313.0950,N,11723.4495,W,68.00,346.10,271210,,*29
$GPRMC,172239.5,A,3313.1688,N,11723.4716,W,68.10,345.80,271210,,*2D
$GPRMC,172243.5,A,3313.2427,N,11723.4933,W,69.30,346.20,271210,,*27
$GPRMC,172247.5,A,3313.3171,N,11723.5165,W,68.30,344.30,271210,,*2C
$GPRMC,172251.5,A,3313.3894,N,11723.5477,W,71.00,337.80,271210,,*2B
$GPRMC,172255.5,A,3313.4558,N,11723.5943,W,69.90,326.60,271210,,*21
$GPRMC,172259.5,A,3313.5130,N,11723.6546,W,69.70,317.10,271210,,*27
$GPRMC,172303.5,A,3313.5696,N,11723.7172,W,69.00,317.10,271210,,*27
$GPRMC,172307.5,A,3313.6263,N,11723.7800,W,68.90,316.60,271210,,*2C
$GPRMC,172311.5,A,3313.6828,N,11723.8422,W,69.70,317.20,271210,,*27
$GPRMC,172315.5,A,3313.7394,N,11723.9055,W,69.80,317.30,271210,,*25
$GPRMC,172319.5,A,3313.7966,N,11723.9682,W,70.10,317.20,271210,,*22
$GPRMC,172323.5,A,3313.8537,N,11724.0320,W,70.50,317.30,271210,,*2A
$GPRMC,172327.5,A,3313.9113,N,11724.0953,W,70.60,317.20,271210,,*21
$GPRMC,172331.5,A,3313.9691,N,11724.1551,W,66.60,321.60,271210,,*22
$GPRMC,172335.5,A,3314.0269,N,11724.2089,W,65.10,322.40,271210,,*2D
$GPRMC,172339.5,A,3314.0843,N,11724.2615,W,64.60,322.30,271210,,*21
$GPRMC,172343.5,A,3314.1407,N,11724.3134,W,63.40,322.80,271210,,*2A
$GPRMC,172347.5,A,3314.1945,N,11724.3631,W,60.80,322.30,271210,,*23
$GPRMC,172351.5,A,3314.2454,N,11724.4117,W,55.60,318.20,271210,,*2E
$GPRMC,172355.5,A,3314.2863,N,11724.4621,W,51.80,309.70,271210,,*2F
$GPRMC,172359.5,A,3314.3222,N,11724.5181,W,54.40,304.80,271210,,*2A
$GPRMC,172403.5,A,3314.3509,N,11724.5847,W,57.90,295.70,271210,,*27
$GPRMC,172407.5,A,3314.3732,N,11724.6589,W,58.60,291.60,271210,,*20
$GPRMC,172411.5,A,3314.3972,N,11724.7326,W,61.00,293.00,271210,,*27
$GPRMC,172415.5,A,3314.4321,N,11724.8050,W,64.30,301.30,271210,,*2A
$GPRMC,172419.5,A,3314.4793,N,11724.8721,W,65.50,312.70,271210,,*2B
$GPRMC,172423.5,A,3314.5321,N,11724.9321,W,64.60,317.80,271210,,*23
$GPRMC,172427.5,A,3314.5972,N,11724.9710,W,62.30,334.80,271210,,*2F
$GPRMC,172431.5,A,3314.6606,N,11725.0020,W,59.80,339.50,271210,,*28
$GPRMC,172435.5,A,3314.7197,N,11725.0287,W,54.90,339.30,271210,,*27
$GPRMC,172439.5,A,3314.7772,N,11725.0543,W,56.00,339.20,271210,,*23
$GPRMC,172443.5,A,3314.8366,N,11725.0824,W,58.60,336.00,271210,,*29
$GPRMC,172447.5,A,3314.8944,N,11725.1189,W,59.00,326.80,271210,,*26
$GPRMC,172451.5,A,3314.9494,N,11725.1619,W,59.10,326.40,271210,,*23
$GPRMC,172455.5,A,3315.0056,N,11725.2058,W,60.40,326.30,271210,,*2D
$GPRMC,172459.5,A,3315.0632,N,11725.2490,W,61.60,326.80,271210,,*2D
$GPRMC,172503.5,A,3315.1198,N,11725.2956,W,62.50,325.60,271210,,*2F
$GPRMC,172507.5,A,3315.1792,N,11725.3397,W,62.10,326.80,271210,,*28
$GPRMC,172511.5,A,3315.2360,N,11725.3860,W,61.50,326.60,271210,,*2F
$GPRMC,172515.5,A,3315.2970,N,11725.4328,W,63.40,326.50,271210,,*20
$GPRMC,172519.5,A,3315.3549,N,11725.4785,W,63.70,326.20,271210,,*2C
$GPRMC,172523.5,A,3315.4164,N,11725.5271,W,65.20,326.30,271210,,*24
$GPRMC,172527.5,A,3315.4762,N,11725.5762,W,65.80,325.90,271210,,*24
$GPRMC,172531.5,A,3315.5375,N,11725.6249,W,66.70,326.20,271210,,*2B
$GPRMC,172535.5,A,3315.5990,N,11725.6735,W,66.60,326.20,271210,,*21
$GPRMC,172539.5,A,3315.6592,N,11725.7227,W,65.60,325.90,271210,,*2C
$GPRMC,172543.5,A,3315.7199,N,11725.7709,W,64.20,326.50,271210,,*2C
$GPRMC,172547.5,A,3315.7766,N,11725.8146,W,59.80,327.00,271210,,*2C
$GPRMC,172551.5,A,3315.8276,N,11725.8571,W,56.60,325.50,271210,,*26
$GPRMC,172555.5,A,3315.8798,N,11725.9061,W,58.90,317.40,271210,,*23
$GPRMC,172559.5,A,3315.9253,N,11725.9652,W,61.20,311.60,271210,,*2F
$GPRMC,172603.5,A,3315.9716,N,11726.0270,W,63.50,311.60,271210,,*2C
$GPRMC,172607.5,A,3316.0199,N,11726.0925,W,67.10,311.10,271210,,*2F
$GPRMC,172611.5,A,3316.0706,N,11726.1598,W,68.30,311.40,271210,,*2B
$GPRMC,172615.5,A,3316.1210,N,11726.2276,W,69.10,311.40,271210,,*2B
$GPRMC,172619.5,A,3316.1705,N,11726.2946,W,65.30,311.30,271210,,*27
$GPRMC,172623.5,A,3316.2184,N,11726.3604,W,65.80,311.40,271210,,*26
$GPRMC,172627.5,A,3316.2675,N,11726.4265,W,66.90,311.40,271210,,*2D
$GPRMC,172631.5,A,3316.3135,N,11726.4895,W,61.00,311.60,271210,,*21
$GPRMC,172635.5,A,3316.3623,N,11726.5473,W,60.90,318.50,271210,,*22
$GPRMC,172639.5,A,3316.4103,N,11726.5912,W,51.60,323.50,271210,,*23
$GPRMC,172643.5,A,3316.4389,N,11726.6148,W,31.20,326.80,271210,,*20
$GPRMC,172647.5,A,3316.4611,N,11726.6298,W,26.40,328.20,271210,,*2A
$GPRMC,172651.5,A,3316.4875,N,11726.6490,W,30.20,329.00,271210,,*2D
$GPRMC,172655.5,A,3316.5216,N,11726.6719,W,38.60,330.80,271210,,*29
$GPRMC,172659.5,A,3316.5642,N,11726.7051,W,47.30,326.20,271210,,*2A
$GPRMC,172703.5,A,3316.6153,N,11726.7436,W,56.20,327.80,271210,,*2F
$GPRMC,172707.5,A,3316.6695,N,11726.7860,W,61.10,326.40,271210,,*23
$GPRMC,172711.5,A,3316.7318,N,11726.8328,W,65.60,327.10,271210,,*2A
$GPRMC,172715.5,A,3316.7947,N,11726.8787,W,64.90,327.70,271210,,*27
$GPRMC,172719.5,A,3316.8534,N,11726.9236,W,61.80,327.30,271210,,*22
$GPRMC,172723.5,A,3316.9113,N,11726.9676,W,63.10,326.80,271210,,*2A
$GPRMC,172727.5,A,3316.9700,N,11727.0155,W,64.30,326.00,271210,,*29
$GPRMC,172731.5,A,3317.0314,N,11727.0636,W,67.00,327.10,271210,,*25
$GPRMC,172735.5,A,3317.0957,N,11727.1113,W,66.10,326.90,271210,,*24
$GPRMC,172739.5,A,3317.1604,N,11727.1602,W,70.20,327.40,271210,,*2F
$GPRMC,172743.5,A,3317.2269,N,11727.2115,W,71.10,327.30,271210,,*29
$GPRMC,172747.5,A,3317.2941,N,11727.2604,W,70.20,328.00,271210,,*25
$GPRMC,172751.5,A,3317.3602,N,11727.3106,W,69.00,328.00,271210,,*25
$GPRMC,172755.5,A,3317.4194,N,11727.3580,W,66.90,327.30,271210,,*2E
$GPRMC,172759.5,A,3317.4836,N,11727.4064,W,68.90,327.50,271210,,*23
$GPRMC,172803.5,A,3317.5505,N,11727.4563,W,71.70,327.70,271210,,*29
$GPRMC,172807.5,A,3317.6211,N,11727.5079,W,72.10,326.50,271210,,*25
$GPRMC,172811.5,A,3317.6802,N,11727.5657,W,66.40,316.00,271210,,*26
$GPRMC,172815.5,A,3317.7316,N,11727.6282,W,65.10,314.00,271210,,*26
$GPRMC,172819.5,A,3317.7821,N,11727.6892,W,64.90,314.80,271210,,*2F
$GPRMC,172823.5,A,3317.8327,N,11727.7492,W,65.20,315.80,271210,,*22
$GPRMC,172827.5,A,3317.8839,N,11727.8100,W,64.20,314.50,271210,,*2E
$GPRMC,172831.5,A,3317.9332,N,11727.8690,W,61.60,314.40,271210,,*26
$GPRMC,172835.5,A,3317.9803,N,11727.9266,W,59.20,314.50,271210,,*29
$GPRMC,172839.5,A,3318.0249,N,11727.9809,W,57.30,314.50,271210,,*2B
$GPRMC,172843.5,A,3318.0682,N,11728.0337,W,55.20,315.00,271210,,*22
$GPRMC,172847.5,A,3318.1128,N,11728.0829,W,57.70,317.10,271210,,*20
$GPRMC,172851.5,A,3318.1613,N,11728.1395,W,64.50,314.40,271210,,*21
$GPRMC,172855.5,A,3318.2114,N,11728.2008,W,63.90,314.50,271210,,*28
$GPRMC,172859.5,A,3318.2622,N,11728.2629,W,65.70,314.50,271210,,*2B
$GPRMC,172903.5,A,3318.3137,N,11728.3253,W,66.90,314.40,271210,,*23
$GPRMC,172907.5,A,3318.3669,N,11728.3890,W,68.00,314.40,271210,,*29
$GPRMC,172911.5,A,3318.4186,N,11728.4524,W,66.80,314.60,271210,,*2E
$GPRMC,172915.5,A,3318.4716,N,11728.5170,W,68.80,314.40,271210,,*2D
$GPRMC,172919.5,A,3318.5235,N,11728.5804,W,65.00,314.10,271210,,*2E
$GPRMC,172923.5,A,3318.5740,N,11728.6414,W,63.80,314.40,271210,,*25
$GPRMC,172927.5,A,3318.6241,N,11728.7021,W,64.10,314.70,271210,,*28
$GPRMC,172931.5,A,3318.6738,N,11728.7620,W,63.60,314.60,271210,,*22
$GPRMC,172935.5,A,3318.7247,N,11728.8174,W,61.30,320.40,271210,,*21
$GPRMC,172939.5,A,3318.7814,N,11728.8609,W,61.00,330.40,271210,,*2E
$GPRMC,172943.5,A,3318.8448,N,11728.8953,W,61.40,340.00,271210,,*2E
$GPRMC,172947.5,A,3318.9174,N,11728.9126,W,62.50,352.00,271210,,*2B
$GPRMC,172951.5,A,3318.9856,N,11728.9200,W,59.20,355.60,271210,,*2C
$GPRMC,172955.5,A,3319.0508,N,11728.9256,W,57.80,355.50,271210,,*22
$GPRMC,172959.5,A,3319.1167,N,11728.9312,W,60.40,355.80,271210,,*26
$GPRMC,173003.5,A,3319.1839,N,11728.9406,W,61.70,350.40,271210,,*2A
$GPRMC,173007.5,A,3319.2516,N,11728.9636,W,64.00,339.50,271210,,*20
$GPRMC,173011.5,A,3319.3183,N,11728.9998,W,68.20,333.60,271210,,*22
$GPRMC,173015.5,A,3319.3797,N,11729.0508,W,69.00,323.20,271210,,*2E
$GPRMC,173019.5,A,3319.4345,N,11729.1148,W,70.20,314.70,271210,,*24
$GPRMC,173023.5,A,3319.4830,N,11729.1863,W,69.80,310.80,271210,,*2D
$GPRMC,173027.5,A,3319.5334,N,11729.2570,W,69.80,311.20,271210,,*20
$GPRMC,173031.5,A,3319.5847,N,11729.3274,W,69.70,311.10,271210,,*26
$GPRMC,173035.5,A,3319.6354,N,11729.3978,W,69.60,310.30,271210,,*2D
$GPRMC,173039.5,A,3319.6838,N,11729.4677,W,66.70,310.30,271210,,*29
$GPRMC,173043.5,A,3319.7326,N,11729.5341,W,67.10,311.40,271210,,*21
$GPRMC,173047.5,A,3319.7823,N,11729.6026,W,69.00,310.90,271210,,*29
$GPRMC,173051.5,A,3319.8326,N,11729.6723,W,68.50,310.90,271210,,*29
$GPRMC,173055.5,A,3319.8820,N,11729.7399,W,67.70,311.20,271210,,*23
$GPRMC,173059.5,A,3319.9310,N,11729.8067,W,66.40,311.00,271210,,*2B
$GPRMC,173103.5,A,3319.9791,N,11729.8723,W,65.80,311.10,271210,,*21
$GPRMC,173107.5,A,3320.0279,N,11729.9394,W,68.10,311.10,271210,,*28
$GPRMC,173111.5,A,3320.0784,N,11730.0084,W,69.70,310.80,271210,,*24
$GPRMC,173115.5,A,3320.1287,N,11730.0783,W,70.00,311.00,271210,,*21
$GPRMC,173119.5,A,3320.1780,N,11730.1458,W,64.90,310.60,271210,,*20
$GPRMC,173123.5,A,3320.2259,N,11730.2110,W,65.80,311.10,271210,,*27
$GPRMC,173127.5,A,3320.2733,N,11730.2757,W,64.40,311.20,271210,,*21
$GPRMC,173131.5,A,3320.3202,N,11730.3401,W,64.00,310.90,271210,,*2F
$GPRMC,173135.5,A,3320.3654,N,11730.4023,W,59.90,310.80,271210,,*29
$GPRMC,173139.5,A,3320.4093,N,11730.4630,W,62.60,310.70,271210,,*23
$GPRMC,173143.5,A,3320.4561,N,11730.5293,W,66.40,309.20,271210,,*21
$GPRMC,173147.5,A,3320.5045,N,11730.5975,W,66.90,311.20,271210,,*20
$GPRMC,173151.5,A,3320.5511,N,11730.6618,W,61.80,310.90,271210,,*28
$GPRMC,173155.5,A,3320.5958,N,11730.7227,W,62.10,311.10,271210,,*27
$GPRMC,173159.5,A,3320.6415,N,11730.7853,W,62.20,311.00,271210,,*27
$GPRMC,173203.5,A,3320.6877,N,11730.8488,W,63.70,310.80,271210,,*2B
$GPRMC,173207.5,A,3320.7331,N,11730.9110,W,61.50,311.10,271210,,*2A
$GPRMC,173211.5,A,3320.7770,N,11730.9716,W,60.00,311.30,271210,,*2A
$GPRMC,173215.5,A,3320.8204,N,11731.0302,W,58.40,311.20,271210,,*20
$GPRMC,173219.5,A,3320.8636,N,11731.0895,W,60.30,311.60,271210,,*24
$GPRMC,173223.5,A,3320.9106,N,11731.1513,W,63.90,312.00,271210,,*26
$GPRMC,173227.5,A,3320.9551,N,11731.2172,W,64.90,309.80,271210,,*21
$GPRMC,173231.5,A,3321.0017,N,11731.2840,W,65.30,309.50,271210,,*27
$GPRMC,173235.5,A,3321.0480,N,11731.3508,W,64.10,309.10,271210,,*2E
$GPRMC,173239.5,A,3321.0936,N,11731.4168,W,63.60,309.40,271210,,*22
$GPRMC,173243.5,A,3321.1398,N,11731.4769,W,60.80,310.60,271210,,*20
$GPRMC,173247.5,A,3321.1819,N,11731.5396,W,61.00,309.70,271210,,*23
$GPRMC,173251.5,A,3321.2228,N,11731.6044,W,60.60,308.80,271210,,*29
$GPRMC,173255.5,A,3321.2652,N,11731.6664,W,60.40,308.80,271210,,*22
$GPRMC,173259.5,A,3321.3076,N,11731.7280,W,60.60,308.80,271210,,*22
$GPRMC,173303.5,A,3321.3487,N,11731.7914,W,61.20,308.70,271210,,*2A
$GPRMC,173307.5,A,3321.3895,N,11731.8549,W,59.60,308.10,271210,,*23
$GPRMC,173311.5,A,3321.4333,N,11731.9172,W,61.50,309.30,271210,,*22
$GPRMC,173315.5,A,3321.4762,N,11731.9810,W,62.80,309.20,271210,,*24
$GPRMC,173319.5,A,3321.5213,N,11732.0461,W,64.90,309.60,271210,,*29
$GPRMC,173323.5,A,3321.5664,N,11732.1146,W,65.70,308.80,271210,,*25
$GPRMC,173327.5,A,3321.6130,N,11732.1830,W,67.10,309.40,271210,,*25
$GPRMC,173331.5,A,3321.6606,N,11732.2517,W,66.30,309.50,271210,,*29
$GPRMC,173335.5,A,3321.7075,N,11732.3186,W,65.60,309.80,271210,,*28
$GPRMC,173339.5,A,3321.7518,N,11732.3855,W,64.40,308.80,271210,,*2F
$GPRMC,173343.5,A,3321.7974,N,11732.4513,W,64.50,309.40,271210,,*20
$GPRMC,173347.5,A,3321.8412,N,11732.5180,W,63.40,308.80,271210,,*22
$GPRMC,173351.5,A,3321.8869,N,11732.5837,W,64.80,310.70,271210,,*2D
$GPRMC,173355.5,A,3321.9338,N,11732.6497,W,65.40,309.40,271210,,*24
$GPRMC,173359.5,A,3321.9806,N,11732.7175,W,66.90,309.60,271210,,*2A
$GPRMC,173403.5,A,3322.0281,N,11732.7864,W,67.40,308.50,271210,,*2A
$GPRMC,173407.5,A,3322.0731,N,11732.8578,W,67.30,305.70,271210,,*27
$GPRMC,173411.5,A,3322.1147,N,11732.9318,W,67.50,303.20,271210,,*22
$GPRMC,173415.5,A,3322.1546,N,11733.0062,W,67.50,302.70,271210,,*21
$GPRMC,173419.5,A,3322.1960,N,11733.0825,W,68.30,302.80,271210,,*28
$GPRMC,173422.5,A,3322.2247,N,11733.1399,W,67.40,301.40,271210,,*27
$GPRMC,173426.5,A,3322.2649,N,11733.2158,W,69.20,301.80,271210,,*21
$GPRMC,173430.5,A,3322.3063,N,11733.2946,W,71.70,302.40,271210,,*2D
$GPRMC,173434.5,A,3322.3485,N,11733.3737,W,70.80,302.30,271210,,*25
$GPRMC,173438.5,A,3322.3913,N,11733.4527,W,70.20,302.90,271210,,*2F
$GPRMC,173442.5,A,3322.4343,N,11733.5303,W,73.70,300.40,271210,,*22
$GPRMC,173446.5,A,3322.4751,N,11733.6040,W,69.10,303.50,271210,,*29
$GPRMC,173450.5,A,3322.5193,N,11733.6773,W,68.60,306.90,271210,,*2F
$GPRMC,173454.5,A,3322.5722,N,11733.7429,W,67.90,314.90,271210,,*29
$GPRMC,173458.5,A,3322.6329,N,11733.8066,W,71.50,318.10,271210,,*26
$GPRMC,173502.5,A,3322.6850,N,11733.8724,W,69.90,314.60,271210,,*22
$GPRMC,173506.5,A,3322.7302,N,11733.9468,W,68.60,304.60,271210,,*2E
$GPRMC,173510.5,A,3322.7656,N,11734.0227,W,67.20,297.30,271210,,*2B
$GPRMC,173514.5,A,3322.7965,N,11734.1035,W,67.40,294.50,271210,,*23
$GPRMC,173518.5,A,3322.8279,N,11734.1845,W,67.80,295.00,271210,,*21
$GPRMC,173522.5,A,3322.8597,N,11734.2670,W,68.70,294.70,271210,,*22
$GPRMC,173526.5,A,3322.8921,N,11734.3500,W,69.30,295.00,271210,,*21
$GPRMC,173530.5,A,3322.9239,N,11734.4330,W,68.40,294.70,271210,,*27
$GPRMC,173534.5,A,3322.9557,N,11734.5153,W,68.30,294.90,271210,,*23
$GPRMC,173538.5,A,3322.9872,N,11734.5982,W,69.90,294.60,271210,,*25
$GPRMC,173542.5,A,3323.0199,N,11734.6837,W,70.60,295.10,271210,,*21
$GPRMC,173546.5,A,3323.0525,N,11734.7676,W,70.30,294.80,271210,,*21
$GPRMC,173550.5,A,3323.0860,N,11734.8523,W,70.50,294.60,271210,,*2E
$GPRMC,173554.5,A,3323.1185,N,11734.9373,W,69.80,294.60,271210,,*2E
$GPRMC,173558.5,A,3323.1518,N,11735.0206,W,68.90,295.90,271210,,*27
$GPRMC,173602.5,A,3323.1928,N,11735.0981,W,67.50,302.60,271210,,*23
$GPRMC,173606.5,A,3323.2389,N,11735.1703,W,65.40,308.20,271210,,*2D
$GPRMC,173610.5,A,3323.2911,N,11735.2324,W,64.40,311.90,271210,,*21
$GPRMC,173614.5,A,3323.3483,N,11735.2870,W,64.70,322.30,271210,,*21
$GPRMC,173618.5,A,3323.4090,N,11735.3333,W,64.30,327.00,271210,,*23
$GPRMC,173622.5,A,3323.4640,N,11735.3795,W,60.70,326.50,271210,,*2D
$GPRMC,173626.5,A,3323.5215,N,11735.4242,W,61.20,326.90,271210,,*2C
$GPRMC,173630.5,A,3323.5795,N,11735.4688,W,62.40,326.90,271210,,*21
$GPRMC,173634.5,A,3323.6400,N,11735.5139,W,63.90,327.00,271210,,*21
$GPRMC,173638.5,A,3323.6995,N,11735.5606,W,64.10,328.90,271210,,*2E
$GPRMC,173642.5,A,3323.7636,N,11735.6027,W,62.80,331.90,271210,,*25
$GPRMC,173646.5,A,3323.8268,N,11735.6387,W,62.30,335.10,271210,,*2F
$GPRMC,173650.5,A,3323.8896,N,11735.6715,W,61.10,336.80,271210,,*27
$GPRMC,173654.5,A,3323.9481,N,11735.7033,W,59.40,336.50,271210,,*29
$GPRMC,173658.5,A,3324.0067,N,11735.7337,W,57.90,337.10,271210,,*26
$GPRMC,173702.5,A,3324.0652,N,11735.7637,W,57.30,336.80,271210,,*2F
$GPRMC,173706.5,A,3324.1215,N,11735.7943,W,56.10,336.20,271210,,*28
$GPRMC,173710.5,A,3324.1783,N,11735.8233,W,55.00,337.00,271210,,*27
$GPRMC,173714.5,A,3324.2400,N,11735.8515,W,56.00,337.20,271210,,*2A
$GPRMC,173718.5,A,3324.3026,N,11735.8798,W,57.70,337.00,271210,,*24
$GPRMC,173722.5,A,3324.3601,N,11735.9107,W,58.80,336.80,271210,,*26
$GPRMC,173726.5,A,3324.4170,N,11735.9401,W,56.50,336.90,271210,,*25
$GPRMC,173730.5,A,3324.4758,N,11735.9687,W,57.10,337.30,271210,,*2C
$GPRMC,173734.5,A,3324.5341,N,11735.9995,W,57.50,336.50,271210,,*2A
$GPRMC,173738.5,A,3324.5925,N,11736.0295,W,57.90,336.80,271210,,*2E
$GPRMC,173742.5,A,3324.6535,N,11736.0602,W,59.00,336.90,271210,,*21
$GPRMC,173746.5,A,3324.7154,N,11736.0908,W,59.90,337.30,271210,,*20
$GPRMC,173750.5,A,3324.7771,N,11736.1223,W,61.20,336.80,271210,,*2F
$GPRMC,173754.5,A,3324.8398,N,11736.1547,W,61.10,336.60,271210,,*2F
$GPRMC,173758.5,A,3324.9025,N,11736.1868,W,61.10,336.50,271210,,*24
$GPRMC,173802.5,A,3324.9644,N,11736.2178,W,58.00,336.80,271210,,*28
$GPRMC,173806.5,A,3325.0228,N,11736.2479,W,58.00,335.30,271210,,*26
$GPRMC,173810.5,A,3325.0828,N,11736.2792,W,58.10,336.30,271210,,*2F
$GPRMC,173814.5,A,3325.1358,N,11736.3133,W,54.50,326.70,271210,,*27
$GPRMC,173818.5,A,3325.1889,N,11736.3547,W,55.70,324.10,271210,,*2C
$GPRMC,173822.5,A,3325.2397,N,11736.3963,W,54.10,325.20,271210,,*2D
$GPRMC,173826.5,A,3325.2918,N,11736.4354,W,55.50,329.80,271210,,*2E
$GPRMC,173830.5,A,3325.3495,N,11736.4674,W,56.70,337.30,271210,,*22
$GPRMC,173834.5,A,3325.4102,N,11736.4956,W,58.40,338.60,271210,,*22
$GPRMC,173838.5,A,3325.4700,N,11736.5259,W,58.40,334.00,271210,,*25
$GPRMC,173842.5,A,3325.5294,N,11736.5645,W,62.40,330.60,271210,,*23
$GPRMC,173846.5,A,3325.5911,N,11736.6070,W,63.80,330.10,271210,,*28
$GPRMC,173850.5,A,3325.6547,N,11736.6510,W,64.70,328.60,271210,,*26
$GPRMC,173854.5,A,3325.7165,N,11736.6972,W,65.70,324.10,271210,,*25
$GPRMC,173858.5,A,3325.7739,N,11736.7518,W,66.30,319.30,271210,,*2C
$GPRMC,173902.5,A,3325.8250,N,11736.8121,W,64.30,313.70,271210,,*2A
$GPRMC,173906.5,A,3325.8752,N,11736.8718,W,63.40,316.50,271210,,*22
$GPRMC,173910.5,A,3325.9343,N,11736.9226,W,64.20,324.30,271210,,*2F
$GPRMC,173914.5,A,3325.9949,N,11736.9694,W,64.60,329.40,271210,,*28
$GPRMC,173918.5,A,3326.0589,N,11737.0107,W,66.30,332.00,271210,,*22
$GPRMC,173922.5,A,3326.1229,N,11737.0536,W,63.70,328.80,271210,,*23
$GPRMC,173926.5,A,3326.1813,N,11737.1038,W,66.50,321.00,271210,,*28
$GPRMC,173930.5,A,3326.2372,N,11737.1641,W,67.90,315.00,271210,,*22
$GPRMC,173934.5,A,3326.2844,N,11737.2330,W,68.00,307.70,271210,,*2A
$GPRMC,173938.5,A,3326.3219,N,11737.3081,W,65.30,302.80,271210,,*29
$GPRMC,173942.5,A,3326.3602,N,11737.3784,W,63.60,303.70,271210,,*25
$GPRMC,173946.5,A,3326.4006,N,11737.4459,W,63.00,304.70,271210,,*21
$GPRMC,173950.5,A,3326.4372,N,11737.5216,W,64.20,303.10,271210,,*2E
$GPRMC,173954.5,A,3326.4792,N,11737.5913,W,64.40,306.50,271210,,*29
$GPRMC,173958.5,A,3326.5313,N,11737.6497,W,63.00,314.80,271210,,*26
$GPRMC,174002.5,A,3326.5791,N,11737.7074,W,60.90,314.90,271210,,*2A
$GPRMC,174006.5,A,3326.6249,N,11737.7612,W,57.40,315.50,271210,,*2F
$GPRMC,174010.5,A,3326.6689,N,11737.8149,W,57.20,314.80,271210,,*2C
$GPRMC,174014.5,A,3326.7128,N,11737.8701,W,56.50,313.20,271210,,*24
$GPRMC,174018.5,A,3326.7554,N,11737.9301,W,60.20,308.90,271210,,*21
$GPRMC,174022.5,A,3326.7928,N,11737.9973,W,61.40,303.50,271210,,*20
$GPRMC,174026.5,A,3326.8281,N,11738.0674,W,63.30,302.20,271210,,*2E
$GPRMC,174030.5,A,3326.8662,N,11738.1394,W,63.10,302.20,271210,,*28
$GPRMC,174034.5,A,3326.9017,N,11738.2130,W,63.80,302.40,271210,,*29
$GPRMC,174038.5,A,3326.9416,N,11738.2824,W,63.50,304.90,271210,,*2A
$GPRMC,174042.5,A,3326.9857,N,11738.3445,W,62.00,309.40,271210,,*20
$GPRMC,174046.5,A,3327.0303,N,11738.4104,W,63.50,308.50,271210,,*25
$GPRMC,174050.5,A,3327.0775,N,11738.4728,W,63.70,311.10,271210,,*21
$GPRMC,174054.5,A,3327.1219,N,11738.5405,W,64.20,306.70,271210,,*24
$GPRMC,174058.5,A,3327.1626,N,11738.6101,W,64.40,304.00,271210,,*21
$GPRMC,174102.5,A,3327.1993,N,11738.6838,W,64.50,300.60,271210,,*2E
$GPRMC,174106.5,A,3327.2346,N,11738.7584,W,64.50,298.20,271210,,*24
$GPRMC,174110.5,A,3327.2669,N,11738.8337,W,64.80,297.20,271210,,*28
$GPRMC,174114.5,A,3327.2989,N,11738.9091,W,64.90,296.70,271210,,*26
$GPRMC,174118.5,A,3327.3332,N,11738.9866,W,65.30,297.70,271210,,*2B
$GPRMC,174122.5,A,3327.3629,N,11739.0588,W,58.90,298.10,271210,,*25
$GPRMC,174126.5,A,3327.3939,N,11739.1272,W,54.70,301.40,271210,,*2A
$GPRMC,174130.5,A,3327.4268,N,11739.1887,W,53.00,304.20,271210,,*26
$GPRMC,174134.5,A,3327.4647,N,11739.2465,W,57.60,308.30,271210,,*27
$GPRMC,174138.5,A,3327.5076,N,11739.3077,W,61.20,308.90,271210,,*23
$GPRMC,174142.5,A,3327.5496,N,11739.3812,W,66.50,305.00,271210,,*2B
$GPRMC,174146.5,A,3327.5880,N,11739.4576,W,66.30,300.10,271210,,*2E
$GPRMC,174150.5,A,3327.6205,N,11739.5360,W,65.70,296.20,271210,,*27
$GPRMC,174154.5,A,3327.6539,N,11739.6131,W,64.80,298.20,271210,,*2E
$GPRMC,174158.5,A,3327.6960,N,11739.6852,W,67.20,305.40,271210,,*24
$GPRMC,174202.5,A,3327.7440,N,11739.7551,W,66.60,308.40,271210,,*21
$GPRMC,174206.5,A,3327.7901,N,11739.8207,W,64.20,309.70,271210,,*22
$GPRMC,174210.5,A,3327.8374,N,11739.8847,W,64.70,310.60,271210,,*20
$GPRMC,174214.5,A,3327.8832,N,11739.9525,W,65.80,309.20,271210,,*27
$GPRMC,174218.5,A,3327.9305,N,11740.0195,W,62.80,310.20,271210,,*22
$GPRMC,174222.5,A,3327.9737,N,11740.0796,W,59.70,310.70,271210,,*29
$GPRMC,174226.5,A,3328.0132,N,11740.1403,W,57.70,307.10,271210,,*28
$GPRMC,174230.5,A,3328.0345,N,11740.2006,W,51.20,296.60,271210,,*22
$GPRMC,174234.5,A,3328.0599,N,11740.2582,W,48.30,297.90,271210,,*2F
$GPRMC,174238.5,A,3328.0894,N,11740.3127,W,48.90,303.70,271210,,*21
$GPRMC,174242.5,A,3328.1287,N,11740.3633,W,53.30,315.80,271210,,*2F
$GPRMC,174246.5,A,3328.1747,N,11740.4087,W,54.50,325.30,271210,,*25
$GPRMC,174250.5,A,3328.2268,N,11740.4465,W,54.70,331.60,271210,,*23
$GPRMC,174254.5,A,3328.2889,N,11740.4692,W,58.30,347.00,271210,,*27
$GPRMC,174258.5,A,3328.3552,N,11740.4771,W,57.70,356.20,271210,,*24
$GPRMC,174302.5,A,3328.4197,N,11740.4749,W,57.80,4.00,271210,,*22
$GPRMC,174306.5,A,3328.4827,N,11740.4644,W,56.70,9.80,271210,,*23
$GPRMC,174310.5,A,3328.5414,N,11740.4475,W,55.00,16.10,271210,,*1A
$GPRMC,174314.5,A,3328.5970,N,11740.4219,W,54.80,22.10,271210,,*13
$GPRMC,174318.5,A,3328.6480,N,11740.3883,W,52.00,31.00,271210,,*1D
$GPRMC,174322.5,A,3328.6954,N,11740.3501,W,51.50,35.50,271210,,*10
$GPRMC,174326.5,A,3328.7429,N,11740.3097,W,53.00,36.20,271210,,*1B
$GPRMC,174330.5,A,3328.7917,N,11740.2684,W,53.20,36.10,271210,,*18
$GPRMC,174334.5,A,3328.8430,N,11740.2254,W,55.80,35.60,271210,,*1A
$GPRMC,174338.5,A,3328.8933,N,11740.1817,W,56.30,36.20,271210,,*19
$GPRMC,174342.5,A,3328.9460,N,11740.1377,W,56.90,35.70,271210,,*1F
$GPRMC,174346.5,A,3328.9965,N,11740.0945,W,53.50,35.20,271210,,*15
$GPRMC,174350.5,A,3329.0418,N,11740.0566,W,49.70,36.00,271210,,*18
$GPRMC,174354.5,A,3329.0882,N,11740.0164,W,52.30,35.80,271210,,*10
$GPRMC,174358.5,A,3329.1362,N,11739.9761,W,52.60,34.30,271210,,*13
$GPRMC,174402.5,A,3329.1867,N,11739.9376,W,52.50,32.10,271210,,*10
$GPRMC,174406.5,A,3329.2373,N,11739.9013,W,55.50,30.80,271210,,*15
$GPRMC,174410.5,A,3329.2908,N,11739.8619,W,55.80,32.20,271210,,*1C
$GPRMC,174414.5,A,3329.3433,N,11739.8218,W,56.40,32.00,271210,,*14
$GPRMC,174418.5,A,3329.3957,N,11739.7822,W,54.60,32.20,271210,,*19
$GPRMC,174422.5,A,3329.4453,N,11739.7446,W,50.60,32.40,271210,,*12
$GPRMC,174426.5,A,3329.4950,N,11739.7077,W,51.90,32.30,271210,,*17
$GPRMC,174430.5,A,3329.5434,N,11739.6714,W,52.80,32.20,271210,,*1E
$GPRMC,174434.5,A,3329.5950,N,11739.6345,W,55.40,29.60,271210,,*10
$GPRMC,174438.5,A,3329.6490,N,11739.6003,W,54.20,26.60,271210,,*17
$GPRMC,174442.5,A,3329.7044,N,11739.5681,W,55.80,24.50,271210,,*13
$GPRMC,174446.5,A,3329.7644,N,11739.5442,W,57.70,18.60,271210,,*1D
$GPRMC,174450.5,A,3329.8269,N,11739.5236,W,57.20,14.70,271210,,*13
$GPRMC,174454.5,A,3329.8906,N,11739.5097,W,58.50,9.70,271210,,*28
$GPRMC,174458.5,A,3329.9560,N,11739.4997,W,59.60,6.00,271210,,*2B
$GPRMC,174502.5,A,3330.0235,N,11739.4951,W,61.30,1.60,271210,,*26
$GPRMC,174506.5,A,3330.0904,N,11739.4972,W,58.50,356.90,271210,,*28
$GPRMC,174510.5,A,3330.1530,N,11739.5027,W,55.80,354.80,271210,,*2E
$GPRMC,174514.5,A,3330.2133,N,11739.5140,W,54.20,350.30,271210,,*2A
$GPRMC,174518.5,A,3330.2726,N,11739.5307,W,54.50,345.10,271210,,*24
$GPRMC,174522.5,A,3330.3330,N,11739.5532,W,57.70,341.20,271210,,*29
$GPRMC,174526.5,A,3330.3950,N,11739.5795,W,59.50,340.10,271210,,*20
$GPRMC,174530.5,A,3330.4572,N,11739.6066,W,59.50,339.60,271210,,*2D
$GPRMC,174534.5,A,3330.5216,N,11739.6346,W,60.20,340.50,271210,,*2C
$GPRMC,174538.5,A,3330.5832,N,11739.6618,W,58.70,340.20,271210,,*2B
$GPRMC,174542.5,A,3330.6439,N,11739.6886,W,59.10,340.10,271210,,*2F
$GPRMC,174546.5,A,3330.7079,N,11739.7150,W,61.20,340.20,271210,,*22
$GPRMC,174550.5,A,3330.7726,N,11739.7421,W,62.10,340.70,271210,,*2E
$GPRMC,174554.5,A,3330.8371,N,11739.7698,W,62.30,340.10,271210,,*27
$GPRMC,174558.5,A,3330.9026,N,11739.7986,W,63.30,340.50,271210,,*2E
$GPRMC,174602.5,A,3330.9665,N,11739.8258,W,61.00,340.20,271210,,*22
$GPRMC,174606.5,A,3331.0311,N,11739.8527,W,62.00,340.50,271210,,*23
$GPRMC,174610.5,A,3331.0980,N,11739.8812,W,65.10,340.90,271210,,*27
$GPRMC,174614.5,A,3331.1663,N,11739.9106,W,65.40,340.10,271210,,*20
$GPRMC,174618.5,A,3331.2350,N,11739.9404,W,66.80,340.40,271210,,*27
$GPRMC,174622.5,A,3331.3050,N,11739.9697,W,66.40,340.10,271210,,*2D
$GPRMC,174626.5,A,3331.3740,N,11739.9993,W,63.80,340.50,271210,,*29
$GPRMC,174630.5,A,3331.4417,N,11740.0281,W,65.90,340.80,271210,,*2D
$GPRMC,174634.5,A,3331.5095,N,11740.0598,W,65.20,334.20,271210,,*2B
$GPRMC,174638.5,A,3331.5735,N,11740.1019,W,66.40,328.50,271210,,*28
$GPRMC,174642.5,A,3331.6301,N,11740.1548,W,65.10,317.80,271210,,*23
$GPRMC,174646.5,A,3331.6828,N,11740.2171,W,68.10,313.00,271210,,*2B
$GPRMC,174650.5,A,3331.7285,N,11740.2858,W,64.10,309.80,271210,,*2D
$GPRMC,174654.5,A,3331.7723,N,11740.3501,W,62.60,311.00,271210,,*20
$GPRMC,174658.5,A,3331.8248,N,11740.4056,W,63.60,323.30,271210,,*28
$GPRMC,174702.5,A,3331.8858,N,11740.4490,W,64.70,334.70,271210,,*27
$GPRMC,174706.5,A,3331.9528,N,11740.4825,W,63.30,340.20,271210,,*2F
$GPRMC,174710.5,A,3332.0258,N,11740.4900,W,64.90,356.80,271210,,*24
$GPRMC,174714.5,A,3332.0964,N,11740.4888,W,63.20,0.90,271210,,*28
$GPRMC,174718.5,A,3332.1665,N,11740.4820,W,60.90,4.20,271210,,*2E
$GPRMC,174722.5,A,3332.2353,N,11740.4733,W,61.80,6.80,271210,,*21
$GPRMC,174726.5,A,3332.3045,N,11740.4614,W,63.30,8.90,271210,,*22
$GPRMC,174730.5,A,3332.3734,N,11740.4472,W,64.80,10.50,271210,,*1F
$GPRMC,174734.5,A,3332.4457,N,11740.4313,W,65.90,10.60,271210,,*19
$GPRMC,174738.5,A,3332.5176,N,11740.4192,W,64.20,6.20,271210,,*20
$GPRMC,174742.5,A,3332.5871,N,11740.4107,W,61.20,6.00,271210,,*28
$GPRMC,174746.5,A,3332.6555,N,11740.3988,W,63.50,9.70,271210,,*21
$GPRMC,174750.5,A,3332.7246,N,11740.3849,W,63.90,8.90,271210,,*2D
$GPRMC,174754.5,A,3332.7964,N,11740.3737,W,66.70,6.40,271210,,*2C
$GPRMC,174758.5,A,3332.8688,N,11740.3664,W,62.70,4.00,271210,,*27
$GPRMC,174802.5,A,3332.9371,N,11740.3624,W,62.00,2.10,271210,,*21
$GPRMC,174806.5,A,3333.0052,N,11740.3619,W,60.10,359.60,271210,,*28
$GPRMC,174810.5,A,3333.0733,N,11740.3641,W,62.60,358.30,271210,,*23
$GPRMC,174814.5,A,3333.1446,N,11740.3660,W,64.80,358.70,271210,,*28
$GPRMC,174818.5,A,3333.2170,N,11740.3682,W,65.30,358.90,271210,,*2F
$GPRMC,174822.5,A,3333.2894,N,11740.3696,W,65.30,359.10,271210,,*29
$GPRMC,174826.5,A,3333.3616,N,11740.3715,W,64.40,358.70,271210,,*23
$GPRMC,174830.5,A,3333.4327,N,11740.3732,W,64.10,358.90,271210,,*2A
$GPRMC,174834.5,A,3333.5035,N,11740.3749,W,62.80,359.10,271210,,*25
$GPRMC,174838.5,A,3333.5733,N,11740.3753,W,62.90,0.50,271210,,*29
$GPRMC,174842.5,A,3333.6425,N,11740.3708,W,62.50,3.70,271210,,*20
$GPRMC,174846.5,A,3333.7119,N,11740.3632,W,61.60,5.50,271210,,*23
$GPRMC,174850.5,A,3333.7792,N,11740.3548,W,59.40,6.30,271210,,*23
$GPRMC,174854.5,A,3333.8451,N,11740.3457,W,59.00,6.60,271210,,*2A
$GPRMC,174858.5,A,3333.9107,N,11740.3364,W,60.10,6.60,271210,,*2D
$GPRMC,174902.5,A,3333.9776,N,11740.3279,W,61.10,5.90,271210,,*23
$GPRMC,174906.5,A,3334.0448,N,11740.3197,W,60.50,6.00,271210,,*2B
$GPRMC,174910.5,A,3334.1106,N,11740.3126,W,58.60,4.90,271210,,*2B
$GPRMC,174914.5,A,3334.1735,N,11740.3079,W,55.70,2.60,271210,,*27
$GPRMC,174918.5,A,3334.2360,N,11740.3060,W,57.50,1.00,271210,,*21
