NMEA Sentence Code,UTC Time,Status,Latitude,Latitude Direction,Longitude,Longitude Direction,Speed (knots),Track Angle (degrees true),Date,MagneticVariation,Magnetic Variation Direction,[FAA Mode]-Optional,Checksum
$GPRMC,012450.410,A,3344.9288,N,11549.4483,W,4.88,033.07,230310,,*1E
$GPRMC,012451.410,A,3344.9301,N,11549.4473,W,5.55,034.90,230310,,*18
$GPRMC,012454.409,A,3344.9339,N,11549.4438,W,5.37,032.85,230310,,*17
$GPRMC,012455.409,A,3344.9352,N,11549.4430,W,5.14,023.02,230310,,*1D
$GPRMC,012456.409,A,3344.9365,N,11549.4425,W,5.16,008.77,230310,,*17
$GPRMC,012457.409,A,3344.9379,N,11549.4424,W,5.00,358.05,230310,,*1E
$GPRMC,012458.409,A,3344.9392,N,11549.4427,W,5.20,340.62,230310,,*1D
$GPRMC,012459.409,A,3344.9405,N,11549.4434,W,5.31,329.66,230310,,*1C
$GPRMC,012500.409,A,3344.9414,N,11549.4445,W,5.35,320.08,230310,,*12
$GPRMC,012501.409,A,3344.9422,N,11549.4458,W,5.23,311.24,230310,,*11
$GPRMC,012509.409,A,3344.9480,N,11549.4514,W,4.39,000.86,230310,,*19
$GPRMC,012510.408,A,3344.9495,N,11549.4510,W,5.65,016.35,230310,,*17
$GPRMC,012511.408,A,3344.9511,N,11549.4501,W,6.39,028.96,230310,,*15
$GPRMC,012512.408,A,3344.9527,N,11549.4488,W,7.37,035.42,230310,,*19
$GPRMC,012513.408,A,3344.9545,N,11549.4471,W,8.92,037.31,230310,,*1C
$GPRMC,012514.408,A,3344.9567,N,11549.4450,W,11.05,036.48,230310,,*21
$GPRMC,012515.408,A,3344.9595,N,11549.4425,W,12.38,034.14,230310,,*29
$GPRMC,012516.408,A,3344.9626,N,11549.4399,W,13.48,034.10,230310,,*23
$GPRMC,012518.408,A,3344.9692,N,11549.4341,W,15.07,035.16,230310,,*2D
$GPRMC,012519.408,A,3344.9728,N,11549.4310,W,16.08,034.98,230310,,*23
$GPRMC,012520.408,A,3344.9764,N,11549.4278,W,16.37,034.15,230310,,*27
$GPRMC,012521.408,A,3344.9803,N,11549.4245,W,17.31,033.85,230310,,*2F
$GPRMC,012524.408,A,3344.9930,N,11549.4136,W,19.27,034.71,230310,,*29
$GPRMC,012525.407,A,3344.9978,N,11549.4098,W,20.05,035.28,230310,,*29
$GPRMC,012526.407,A,3345.0024,N,11549.4056,W,20.61,036.61,230310,,*2C
$GPRMC,012527.407,A,3345.0072,N,11549.4013,W,21.16,036.78,230310,,*26
$GPRMC,012528.407,A,3345.0120,N,11549.3969,W,21.92,036.61,230310,,*28
$GPRMC,012529.407,A,3345.0169,N,11549.3923,W,22.39,037.37,230310,,*2A
$GPRMC,012530.407,A,3345.0219,N,11549.3875,W,23.31,037.77,230310,,*29
$GPRMC,012531.407,A,3345.0270,N,11549.3826,W,23.51,038.41,230310,,*2D
$GPRMC,012533.407,A,3345.0375,N,11549.3722,W,24.51,039.73,230310,,*27
$GPRMC,012534.407,A,3345.0428,N,11549.3669,W,24.73,039.64,230310,,*27
$GPRMC,012535.407,A,3345.0482,N,11549.3616,W,25.16,039.83,230310,,*25
$GPRMC,012536.407,A,3345.0537,N,11549.3561,W,25.67,040.57,230310,,*2B
$GPRMC,012539.407,A,3345.0702,N,11549.3391,W,25.89,041.54,230310,,*2B
$GPRMC,012540.407,A,3345.0755,N,11549.3332,W,26.43,042.33,230310,,*29
$GPRMC,012541.406,A,3345.0810,N,11549.3271,W,26.91,041.90,230310,,*24
$GPRMC,012542.406,A,3345.0868,N,11549.3211,W,27.43,039.85,230310,,*2B
$GPRMC,012543.406,A,3345.0926,N,11549.3152,W,27.13,040.11,230310,,*23
$GPRMC,012544.406,A,3345.0984,N,11549.3092,W,27.25,041.40,230310,,*21
$GPRMC,012545.406,A,3345.1040,N,11549.3031,W,27.32,041.92,230310,,*20
$GPRMC,012546.406,A,3345.1097,N,11549.2970,W,27.21,042.08,230310,,*26
$GPRMC,012548.406,A,3345.1208,N,11549.2853,W,25.73,039.94,230310,,*20
$GPRMC,012549.406,A,3345.1262,N,11549.2801,W,24.89,036.95,230310,,*20
$GPRMC,012550.406,A,3345.1318,N,11549.2755,W,23.84,032.45,230310,,*29
$GPRMC,012551.406,A,3345.1374,N,11549.2712,W,23.84,032.45,230310,,*21
$GPRMC,012554.406,A,3345.1594,N,11549.2652,W,28.42,005.98,230310,,*2C
$GPRMC,012555.406,A,3345.1670,N,11549.2650,W,27.63,001.69,230310,,*20
$GPRMC,012556.405,A,3345.1747,N,11549.2652,W,27.88,359.06,230310,,*25
$GPRMC,012557.405,A,3345.1825,N,11549.2658,W,28.36,356.98,230310,,*27
$GPRMC,012558.405,A,3345.1905,N,11549.2667,W,28.93,354.99,230310,,*2B
$GPRMC,012559.405,A,3345.1986,N,11549.2682,W,29.39,352.46,230310,,*2F
$GPRMC,012600.405,A,3345.2067,N,11549.2702,W,29.91,350.09,230310,,*27
$GPRMC,012601.405,A,3345.2148,N,11549.2725,W,29.89,347.65,230310,,*2A
$GPRMC,012603.405,A,3345.2312,N,11549.2772,W,29.73,347.24,230310,,*27
$GPRMC,012604.405,A,3345.2391,N,11549.2797,W,29.30,346.41,230310,,*25
$GPRMC,012605.405,A,3345.2471,N,11549.2819,W,29.38,348.17,230310,,*21
$GPRMC,012606.405,A,3345.2550,N,11549.2836,W,28.74,350.58,230310,,*26
$GPRMC,012609.405,A,3345.2793,N,11549.2867,W,28.85,001.78,230310,,*2B
$GPRMC,012610.405,A,3345.2872,N,11549.2858,W,29.57,007.32,230310,,*29
$GPRMC,012611.404,A,3345.2957,N,11549.2839,W,29.72,012.71,230310,,*2C
$GPRMC,012612.404,A,3345.3042,N,11549.2810,W,29.75,016.92,230310,,*26
$GPRMC,012613.404,A,3345.3121,N,11549.2774,W,29.79,021.29,230310,,*26
$GPRMC,012614.404,A,3345.3194,N,11549.2732,W,29.53,026.48,230310,,*25
$GPRMC,012615.404,A,3345.3267,N,11549.2684,W,29.93,029.07,230310,,*2F
$GPRMC,012616.404,A,3345.3339,N,11549.2632,W,30.76,028.79,230310,,*20
$GPRMC,012618.404,A,3345.3498,N,11549.2526,W,32.50,029.93,230310,,*27
$GPRMC,012619.404,A,3345.3579,N,11549.2473,W,33.00,029.78,230310,,*28
$GPRMC,012620.404,A,3345.3662,N,11549.2418,W,33.74,028.37,230310,,*2F
$GPRMC,012621.404,A,3345.3746,N,11549.2364,W,34.07,029.02,230310,,*21
$GPRMC,012624.404,A,3345.3995,N,11549.2188,W,34.68,031.00,230310,,*26
$GPRMC,012625.404,A,3345.4077,N,11549.2129,W,34.60,031.83,230310,,*2D
$GPRMC,012626.404,A,3345.4160,N,11549.2069,W,34.34,031.32,230310,,*27
$GPRMC,012627.403,A,3345.4238,N,11549.2007,W,34.12,032.38,230310,,*2A
$GPRMC,012628.403,A,3345.4316,N,11549.1946,W,33.92,033.44,230310,,*22
$GPRMC,012629.403,A,3345.4393,N,11549.1882,W,33.61,033.78,230310,,*24
$GPRMC,012630.403,A,3345.4469,N,11549.1818,W,33.33,035.20,230310,,*21
$GPRMC,012631.403,A,3345.4544,N,11549.1752,W,33.11,036.23,230310,,*2F
$GPRMC,012633.403,A,3345.4692,N,11549.1619,W,32.91,036.23,230310,,*22
$GPRMC,012634.403,A,3345.4766,N,11549.1553,W,32.72,036.13,230310,,*2C
$GPRMC,012635.403,A,3345.4840,N,11549.1489,W,32.44,034.44,230310,,*25
$GPRMC,012636.403,A,3345.4917,N,11549.1429,W,32.54,031.97,230310,,*25
$GPRMC,012639.403,A,3345.5152,N,11549.1262,W,32.68,030.80,230310,,*23
$GPRMC,012640.403,A,3345.5228,N,11549.1205,W,32.84,031.82,230310,,*23
$GPRMC,012641.403,A,3345.5306,N,11549.1147,W,33.04,031.52,230310,,*2E
$GPRMC,012642.402,A,3345.5385,N,11549.1091,W,32.94,029.96,230310,,*24
$GPRMC,012643.402,A,3345.5465,N,11549.1036,W,33.06,029.21,230310,,*27
$GPRMC,012644.402,A,3345.5546,N,11549.0982,W,33.10,028.40,230310,,*26
$GPRMC,012645.402,A,3345.5627,N,11549.0930,W,33.13,027.71,230310,,*24
$GPRMC,012646.402,A,3345.5711,N,11549.0881,W,33.27,025.37,230310,,*2F
$GPRMC,012648.402,A,3345.5882,N,11549.0792,W,33.95,023.37,230310,,*26
$GPRMC,012649.402,A,3345.5969,N,11549.0748,W,34.10,023.21,230310,,*29
$GPRMC,012650.402,A,3345.6056,N,11549.0705,W,33.75,021.96,230310,,*24
$GPRMC,012651.402,A,3345.6144,N,11549.0663,W,34.62,021.90,230310,,*21
$GPRMC,012654.402,A,3345.6414,N,11549.0525,W,35.44,023.96,230310,,*24
$GPRMC,012655.402,A,3345.6504,N,11549.0477,W,35.82,023.51,230310,,*22
$GPRMC,012656.402,A,3345.6595,N,11549.0428,W,36.01,024.00,230310,,*28
$GPRMC,012657.402,A,3345.6686,N,11549.0378,W,36.27,025.09,230310,,*26
$GPRMC,012658.401,A,3345.6777,N,11549.0327,W,36.03,025.81,230310,,*29
$GPRMC,012659.401,A,3345.6868,N,11549.0275,W,36.16,025.24,230310,,*24
$GPRMC,012700.401,A,3345.6960,N,11549.0224,W,36.17,025.51,230310,,*27
$GPRMC,012701.401,A,3345.7049,N,11549.0170,W,36.03,026.60,230310,,*23
$GPRMC,012703.401,A,3345.7226,N,11549.0054,W,36.20,029.73,230310,,*21
$GPRMC,012704.401,A,3345.7311,N,11548.9990,W,36.40,032.05,230310,,*27
$GPRMC,012705.401,A,3345.7396,N,11548.9921,W,36.73,034.46,230310,,*22
$GPRMC,012706.401,A,3345.7480,N,11548.9850,W,37.03,035.64,230310,,*21
$GPRMC,012709.401,A,3345.7738,N,11548.9630,W,37.98,036.09,230310,,*2C
$GPRMC,012710.401,A,3345.7824,N,11548.9555,W,38.02,036.41,230310,,*26
$GPRMC,012711.401,A,3345.7909,N,11548.9479,W,38.01,036.47,230310,,*23
$GPRMC,012712.401,A,3345.7996,N,11548.9404,W,38.06,036.01,230310,,*29
$GPRMC,012713.400,A,3345.8082,N,11548.9329,W,37.99,036.11,230310,,*2A
$GPRMC,012714.400,A,3345.8174,N,11548.9247,W,38.07,035.51,230310,,*23
$GPRMC,012715.400,A,3345.8262,N,11548.9174,W,38.30,033.41,230310,,*26
$GPRMC,012716.400,A,3345.8352,N,11548.9106,W,38.43,032.17,230310,,*24
$GPRMC,012718.400,A,3345.8533,N,11548.8968,W,38.61,032.54,230310,,*2D
$GPRMC,012719.400,A,3345.8624,N,11548.8901,W,38.30,032.18,230310,,*2A
$GPRMC,012720.400,A,3345.8715,N,11548.8834,W,38.13,031.42,230310,,*29
$GPRMC,012721.400,A,3345.8805,N,11548.8768,W,38.02,030.92,230310,,*2C
$GPRMC,012724.400,A,3345.9075,N,11548.8573,W,37.40,030.86,230310,,*23
$GPRMC,012725.400,A,3345.9166,N,11548.8511,W,37.92,028.74,230310,,*2E
$GPRMC,012726.400,A,3345.9258,N,11548.8452,W,37.34,027.39,230310,,*2F
$GPRMC,012727.400,A,3345.9351,N,11548.8399,W,37.44,025.56,230310,,*2A
$GPRMC,012728.399,A,3345.9445,N,11548.8348,W,37.69,023.52,230310,,*21
$GPRMC,012729.399,A,3345.9541,N,11548.8298,W,38.05,023.50,230310,,*2E
$GPRMC,012730.399,A,3345.9637,N,11548.8246,W,38.13,024.67,230310,,*23
$GPRMC,012731.399,A,3345.9733,N,11548.8193,W,37.99,025.84,230310,,*2D
$GPRMC,012733.399,A,3345.9922,N,11548.8077,W,38.40,027.93,230310,,*25
$GPRMC,012734.399,A,3346.0014,N,11548.8016,W,38.21,028.86,230310,,*2F
$GPRMC,012735.399,A,3346.0107,N,11548.7954,W,38.18,030.08,230310,,*28
$GPRMC,012736.399,A,3346.0199,N,11548.7890,W,38.14,030.37,230310,,*25
$GPRMC,012739.399,A,3346.0474,N,11548.7699,W,38.00,030.18,230310,,*23
$GPRMC,012740.399,A,3346.0564,N,11548.7635,W,38.02,030.50,230310,,*25
$GPRMC,012741.399,A,3346.0655,N,11548.7570,W,38.04,031.19,230310,,*2D
$GPRMC,012742.399,A,3346.0744,N,11548.7504,W,37.78,031.68,230310,,*2E
$GPRMC,012743.399,A,3346.0830,N,11548.7433,W,37.62,034.07,230310,,*21
$GPRMC,012744.398,A,3346.0913,N,11548.7361,W,36.84,036.19,230310,,*23
$GPRMC,012745.398,A,3346.0994,N,11548.7284,W,37.12,039.41,230310,,*2B
$GPRMC,012746.398,A,3346.1073,N,11548.7203,W,37.00,041.30,230310,,*2C
$GPRMC,012748.398,A,3346.1227,N,11548.7043,W,36.20,040.19,230310,,*2E
$GPRMC,012749.398,A,3346.1304,N,11548.6967,W,35.99,039.05,230310,,*23
$GPRMC,012750.398,A,3346.1382,N,11548.6892,W,36.01,037.15,230310,,*23
$GPRMC,012751.398,A,3346.1463,N,11548.6821,W,36.07,035.46,230310,,*20
$GPRMC,012754.398,A,3346.1719,N,11548.6617,W,36.64,032.31,230310,,*22
$GPRMC,012755.398,A,3346.1804,N,11548.6551,W,36.78,032.55,230310,,*2E
$GPRMC,012756.398,A,3346.1889,N,11548.6484,W,36.86,032.16,230310,,*27
$GPRMC,012757.398,A,3346.1976,N,11548.6420,W,36.80,031.49,230310,,*26
$GPRMC,012758.398,A,3346.2063,N,11548.6355,W,36.86,032.18,230310,,*23
$GPRMC,012759.397,A,3346.2149,N,11548.6287,W,37.15,032.74,230310,,*2B
$GPRMC,012800.397,A,3346.2236,N,11548.6218,W,37.61,033.73,230310,,*20
$GPRMC,012801.397,A,3346.2321,N,11548.6148,W,37.43,034.52,230310,,*24
$GPRMC,012803.397,A,3346.2492,N,11548.6004,W,37.60,035.82,230310,,*2D
$GPRMC,012804.397,A,3346.2577,N,11548.5930,W,37.71,036.26,230310,,*20
$GPRMC,012805.397,A,3346.2661,N,11548.5856,W,37.58,036.23,230310,,*2A
$GPRMC,012806.397,A,3346.2745,N,11548.5783,W,37.55,036.33,230310,,*25
$GPRMC,012809.397,A,3346.2988,N,11548.5549,W,36.82,041.66,230310,,*2A
$GPRMC,012810.397,A,3346.3062,N,11548.5465,W,37.13,043.98,230310,,*2B
$GPRMC,012811.397,A,3346.3135,N,11548.5376,W,37.49,045.19,230310,,*2C
$GPRMC,012812.397,A,3346.3208,N,11548.5287,W,37.47,044.37,230310,,*2E
$GPRMC,012813.397,A,3346.3282,N,11548.5201,W,37.41,043.29,230310,,*2D
$GPRMC,012814.397,A,3346.3357,N,11548.5114,W,37.47,043.47,230310,,*2A
$GPRMC,012815.396,A,3346.3432,N,11548.5028,W,37.63,043.71,230310,,*23
$GPRMC,012816.396,A,3346.3508,N,11548.4941,W,37.80,043.34,230310,,*23
$GPRMC,012818.396,A,3346.3658,N,11548.4765,W,37.99,044.98,230310,,*2A
$GPRMC,012819.396,A,3346.3731,N,11548.4674,W,38.02,045.80,230310,,*21
$GPRMC,012820.396,A,3346.3804,N,11548.4582,W,38.13,045.87,230310,,*2F
$GPRMC,012821.396,A,3346.3877,N,11548.4491,W,38.28,045.64,230310,,*2C
$GPRMC,012824.396,A,3346.4094,N,11548.4211,W,38.67,048.27,230310,,*24
$GPRMC,012825.396,A,3346.4164,N,11548.4113,W,38.63,049.14,230310,,*2F
$GPRMC,012826.396,A,3346.4233,N,11548.4014,W,38.55,049.50,230310,,*2E
$GPRMC,012827.396,A,3346.4299,N,11548.3922,W,37.94,049.03,230310,,*20
$GPRMC,012828.396,A,3346.4367,N,11548.3829,W,37.86,048.07,230310,,*23
$GPRMC,012829.396,A,3346.4436,N,11548.3735,W,37.68,048.54,230310,,*25
$GPRMC,012830.395,A,3346.4506,N,11548.3642,W,37.55,048.28,230310,,*28
$GPRMC,012831.395,A,3346.4575,N,11548.3550,W,37.49,047.58,230310,,*28
$GPRMC,012833.395,A,3346.4716,N,11548.3367,W,37.47,046.76,230310,,*2C
$GPRMC,012834.395,A,3346.4787,N,11548.3277,W,37.31,046.43,230310,,*24
$GPRMC,012835.395,A,3346.4859,N,11548.3188,W,37.61,045.06,230310,,*2D
$GPRMC,012836.395,A,3346.4933,N,11548.3098,W,37.95,044.72,230310,,*2A
$GPRMC,012839.395,A,3346.5157,N,11548.2836,W,37.70,046.06,230310,,*29
$GPRMC,012840.395,A,3346.5227,N,11548.2747,W,36.92,046.54,230310,,*20
$GPRMC,012841.395,A,3346.5296,N,11548.2658,W,37.22,047.24,230310,,*28
$GPRMC,012842.395,A,3346.5363,N,11548.2567,W,37.16,048.02,230310,,*23
$GPRMC,012843.395,A,3346.5432,N,11548.2476,W,37.28,048.07,230310,,*28
$GPRMC,012844.395,A,3346.5502,N,11548.2384,W,37.17,047.50,230310,,*26
$GPRMC,012845.394,A,3346.5570,N,11548.2293,W,37.22,047.84,230310,,*2B
$GPRMC,012846.394,A,3346.5640,N,11548.2200,W,37.35,047.84,230310,,*24
$GPRMC,012848.394,A,3346.5773,N,11548.2011,W,37.13,050.97,230310,,*29
$GPRMC,012849.394,A,3346.5841,N,11548.1916,W,36.81,051.38,230310,,*25
$GPRMC,012850.394,A,3346.5906,N,11548.1820,W,36.43,051.49,230310,,*23
$GPRMC,012851.394,A,3346.5971,N,11548.1725,W,36.44,050.98,230310,,*22
$GPRMC,012854.394,A,3346.6170,N,11548.1443,W,37.74,048.29,230310,,*2F
$GPRMC,012855.394,A,3346.6240,N,11548.1351,W,37.89,046.82,230310,,*27
$GPRMC,012856.394,A,3346.6314,N,11548.1260,W,38.48,044.71,230310,,*2B
$GPRMC,012857.394,A,3346.6392,N,11548.1171,W,38.55,043.85,230310,,*27
$GPRMC,012858.394,A,3346.6470,N,11548.1082,W,38.40,043.51,230310,,*23
$GPRMC,012859.394,A,3346.6548,N,11548.0995,W,38.20,043.15,230310,,*20
$GPRMC,012900.394,A,3346.6625,N,11548.0909,W,37.97,042.97,230310,,*28
$GPRMC,012901.393,A,3346.6702,N,11548.0823,W,38.09,042.43,230310,,*22
$GPRMC,012903.393,A,3346.6860,N,11548.0649,W,38.43,041.66,230310,,*23
$GPRMC,012904.393,A,3346.6939,N,11548.0561,W,37.66,043.43,230310,,*2D
$GPRMC,012905.393,A,3346.7014,N,11548.0475,W,36.86,043.33,230310,,*27
$GPRMC,012906.393,A,3346.7087,N,11548.0390,W,36.76,044.61,230310,,*2D
$GPRMC,012909.393,A,3346.7312,N,11548.0131,W,37.67,042.70,230310,,*23
$GPRMC,012910.393,A,3346.7389,N,11548.0046,W,37.64,042.09,230310,,*25
$GPRMC,012911.393,A,3346.7469,N,11547.9963,W,37.72,041.16,230310,,*2F
$GPRMC,012912.393,A,3346.7549,N,11547.9882,W,37.78,040.82,230310,,*27
$GPRMC,012913.393,A,3346.7628,N,11547.9802,W,37.17,040.89,230310,,*28
$GPRMC,012914.393,A,3346.7707,N,11547.9722,W,36.71,041.17,230310,,*29
$GPRMC,012915.393,A,3346.7785,N,11547.9642,W,36.60,040.92,230310,,*29
$GPRMC,012916.392,A,3346.7863,N,11547.9562,W,36.43,040.89,230310,,*26
$GPRMC,012918.392,A,3346.8015,N,11547.9406,W,35.30,040.85,230310,,*26
$GPRMC,012919.392,A,3346.8091,N,11547.9330,W,35.42,039.84,230310,,*23
$GPRMC,012920.392,A,3346.8167,N,11547.9256,W,35.52,038.23,230310,,*2D
$GPRMC,012921.392,A,3346.8245,N,11547.9185,W,35.26,037.03,230310,,*2C
$GPRMC,012924.392,A,3346.8476,N,11547.8980,W,33.89,035.00,230310,,*21
$GPRMC,012925.392,A,3346.8551,N,11547.8921,W,31.76,032.48,230310,,*26
$GPRMC,012926.392,A,3346.8630,N,11547.8868,W,31.05,028.90,230310,,*27
$GPRMC,012927.392,A,3346.8701,N,11547.8824,W,29.12,025.92,230310,,*2D
$GPRMC,012928.392,A,3346.8772,N,11547.8787,W,27.75,022.93,230310,,*29
$GPRMC,012929.392,A,3346.8841,N,11547.8756,W,26.81,020.13,230310,,*2B
$GPRMC,012930.392,A,3346.8909,N,11547.8735,W,25.69,016.62,230310,,*2D
$GPRMC,012931.392,A,3346.8978,N,11547.8716,W,24.89,015.20,230310,,*21
$GPRMC,012933.391,A,3346.9105,N,11547.8664,W,24.30,025.14,230310,,*21
$GPRMC,012934.391,A,3346.9162,N,11547.8626,W,24.54,031.70,230310,,*24
$GPRMC,012935.391,A,3346.9218,N,11547.8579,W,24.53,036.30,230310,,*26
$GPRMC,012936.391,A,3346.9271,N,11547.8527,W,24.89,040.58,230310,,*29
$GPRMC,012939.391,A,3346.9433,N,11547.8355,W,26.95,039.69,230310,,*26
$GPRMC,012940.391,A,3346.9493,N,11547.8300,W,27.79,036.86,230310,,*2F
$GPRMC,012941.391,A,3346.9557,N,11547.8247,W,28.00,032.13,230310,,*2C
$GPRMC,012942.391,A,3346.9624,N,11547.8200,W,28.57,029.98,230310,,*20
$GPRMC,012943.391,A,3346.9694,N,11547.8154,W,28.67,027.67,230310,,*25
$GPRMC,012944.391,A,3346.9766,N,11547.8114,W,29.32,025.41,230310,,*2D
$GPRMC,012945.391,A,3346.9839,N,11547.8074,W,29.50,023.41,230310,,*2C
$GPRMC,012946.391,A,3346.9914,N,11547.8038,W,29.60,021.76,230310,,*2C
$GPRMC,012948.390,A,3347.0071,N,11547.7969,W,30.19,021.21,230310,,*27
$GPRMC,012949.390,A,3347.0148,N,11547.7930,W,30.00,024.95,230310,,*23
$GPRMC,012950.390,A,3347.0221,N,11547.7886,W,30.50,028.58,230310,,*23
$GPRMC,012951.390,A,3347.0293,N,11547.7835,W,29.82,032.88,230310,,*22
$GPRMC,012954.390,A,3347.0504,N,11547.7658,W,31.54,036.60,230310,,*2B
$GPRMC,012955.390,A,3347.0578,N,11547.7595,W,32.05,036.33,230310,,*22
$GPRMC,012956.390,A,3347.0652,N,11547.7530,W,32.38,036.57,230310,,*29
$GPRMC,012957.390,A,3347.0726,N,11547.7465,W,32.95,036.27,230310,,*2B
$GPRMC,012958.390,A,3347.0802,N,11547.7401,W,33.33,034.23,230310,,*24
$GPRMC,012959.390,A,3347.0880,N,11547.7340,W,33.33,031.93,230310,,*23
$GPRMC,013000.390,A,3347.0959,N,11547.7284,W,33.39,029.50,230310,,*27
$GPRMC,013001.390,A,3347.1040,N,11547.7232,W,33.66,029.83,230310,,*2F
$GPRMC,013003.389,A,3347.1204,N,11547.7119,W,33.67,030.24,230310,,*29
$GPRMC,013004.389,A,3347.1283,N,11547.7061,W,33.49,031.14,230310,,*21
$GPRMC,013005.389,A,3347.1363,N,11547.7002,W,33.64,032.13,230310,,*21
$GPRMC,013006.389,A,3347.1443,N,11547.6940,W,33.47,034.42,230310,,*2A
$GPRMC,013009.389,A,3347.1676,N,11547.6742,W,33.59,036.54,230310,,*27
$GPRMC,013010.389,A,3347.1752,N,11547.6675,W,34.04,035.99,230310,,*20
$GPRMC,013011.389,A,3347.1828,N,11547.6608,W,34.18,035.80,230310,,*2C
$GPRMC,013012.389,A,3347.1907,N,11547.6541,W,34.50,035.39,230310,,*23
$GPRMC,013013.389,A,3347.1987,N,11547.6475,W,34.64,034.46,230310,,*22
$GPRMC,013014.389,A,3347.2067,N,11547.6413,W,34.45,032.06,230310,,*20
$GPRMC,013015.389,A,3347.2150,N,11547.6352,W,34.89,030.90,230310,,*2B
$GPRMC,013016.389,A,3347.2236,N,11547.6293,W,35.16,029.62,230310,,*25
$GPRMC,013018.388,A,3347.2404,N,11547.6176,W,35.30,031.21,230310,,*2F
$GPRMC,013019.388,A,3347.2490,N,11547.6113,W,36.09,032.82,230310,,*23
$GPRMC,013020.388,A,3347.2570,N,11547.6047,W,35.89,035.12,230310,,*23
$GPRMC,013021.388,A,3347.2651,N,11547.5975,W,36.49,038.05,230310,,*2D
$GPRMC,013024.388,A,3347.2881,N,11547.5736,W,37.27,041.69,230310,,*2F
$GPRMC,013025.388,A,3347.2957,N,11547.5652,W,36.69,043.39,230310,,*2B
$GPRMC,013026.388,A,3347.3031,N,11547.5569,W,36.49,043.24,230310,,*25
$GPRMC,013027.388,A,3347.3098,N,11547.5488,W,34.83,043.57,230310,,*29
$GPRMC,013028.388,A,3347.3161,N,11547.5410,W,33.15,043.59,230310,,*26
$GPRMC,013029.388,A,3347.3218,N,11547.5339,W,30.03,043.95,230310,,*22
$GPRMC,013030.388,A,3347.3276,N,11547.5270,W,29.40,043.61,230310,,*2A
$GPRMC,013031.388,A,3347.3333,N,11547.5209,W,27.04,041.09,230310,,*27
$GPRMC,013033.387,A,3347.3442,N,11547.5101,W,24.69,034.89,230310,,*22
$GPRMC,013034.387,A,3347.3501,N,11547.5060,W,25.11,028.33,230310,,*27
$GPRMC,013035.387,A,3347.3562,N,11547.5027,W,24.18,023.05,230310,,*26
$GPRMC,013036.387,A,3347.3635,N,11547.5001,W,26.25,016.60,230310,,*29
$GPRMC,013039.387,A,3347.3849,N,11547.4962,W,28.20,011.98,230310,,*25
$GPRMC,013040.387,A,3347.3928,N,11547.4946,W,28.99,011.62,230310,,*2C
$GPRMC,013041.387,A,3347.4010,N,11547.4929,W,29.65,011.57,230310,,*25
$GPRMC,013042.387,A,3347.4093,N,11547.4912,W,30.32,011.76,230310,,*2C
$GPRMC,013043.387,A,3347.4178,N,11547.4893,W,31.07,012.25,230310,,*23
$GPRMC,013044.387,A,3347.4265,N,11547.4871,W,31.82,012.46,230310,,*2F
$GPRMC,013045.387,A,3347.4357,N,11547.4850,W,33.01,012.64,230310,,*24
$GPRMC,013046.387,A,3347.4448,N,11547.4825,W,33.68,014.25,230310,,*20
$GPRMC,013048.387,A,3347.4635,N,11547.4762,W,34.94,016.69,230310,,*24
$GPRMC,013049.386,A,3347.4730,N,11547.4728,W,35.53,016.77,230310,,*2B
$GPRMC,013050.386,A,3347.4826,N,11547.4692,W,35.95,017.70,230310,,*27
$GPRMC,013051.386,A,3347.4921,N,11547.4654,W,35.75,019.16,230310,,*2A
$GPRMC,013054.386,A,3347.5185,N,11547.4505,W,35.13,030.47,230310,,*20
$GPRMC,013055.386,A,3347.5267,N,11547.4445,W,33.77,032.76,230310,,*2F
$GPRMC,013056.386,A,3347.5345,N,11547.4382,W,33.16,034.49,230310,,*2C
$GPRMC,013057.386,A,3347.5421,N,11547.4318,W,33.38,034.92,230310,,*21
$GPRMC,013058.386,A,3347.5497,N,11547.4255,W,33.00,034.42,230310,,*2D
$GPRMC,013059.386,A,3347.5572,N,11547.4192,W,32.91,034.48,230310,,*2D
$GPRMC,013100.386,A,3347.5648,N,11547.4129,W,32.84,034.88,230310,,*22
$GPRMC,013101.386,A,3347.5723,N,11547.4067,W,32.83,034.30,230310,,*20
$GPRMC,013103.386,A,3347.5870,N,11547.3947,W,33.09,032.47,230310,,*22
$GPRMC,013104.385,A,3347.5947,N,11547.3888,W,33.52,030.98,230310,,*2F
$GPRMC,013105.385,A,3347.6025,N,11547.3832,W,33.44,029.53,230310,,*29
$GPRMC,013106.385,A,3347.6102,N,11547.3779,W,33.27,028.51,230310,,*28
$GPRMC,013109.385,A,3347.6344,N,11547.3607,W,34.42,034.96,230310,,*2D
$GPRMC,013110.385,A,3347.6420,N,11547.3538,W,34.72,038.23,230310,,*2E
$GPRMC,013111.385,A,3347.6495,N,11547.3463,W,34.93,040.50,230310,,*2A
$GPRMC,013112.385,A,3347.6571,N,11547.3385,W,35.48,041.38,230310,,*25
$GPRMC,013113.385,A,3347.6648,N,11547.3305,W,36.14,041.67,230310,,*25
$GPRMC,013114.385,A,3347.6726,N,11547.3225,W,36.66,041.03,230310,,*2F
$GPRMC,013115.385,A,3347.6803,N,11547.3143,W,37.14,040.34,230310,,*24
$GPRMC,013116.385,A,3347.6881,N,11547.3061,W,37.42,040.83,230310,,*23
$GPRMC,013118.385,A,3347.7024,N,11547.2908,W,38.20,041.86,230310,,*23
$GPRMC,013119.384,A,3347.7105,N,11547.2823,W,38.74,041.18,230310,,*2F
$GPRMC,013120.384,A,3347.7188,N,11547.2736,W,39.22,040.67,230310,,*20
$GPRMC,013121.384,A,3347.7273,N,11547.2649,W,39.55,040.58,230310,,*23
$GPRMC,013124.384,A,3347.7526,N,11547.2377,W,40.62,042.70,230310,,*2B
$GPRMC,013125.384,A,3347.7611,N,11547.2281,W,41.08,043.38,230310,,*25
$GPRMC,013126.384,A,3347.7695,N,11547.2186,W,41.08,043.38,230310,,*2E
$GPRMC,013127.384,A,3347.7779,N,11547.2092,W,41.08,043.38,230310,,*28
$GPRMC,013128.384,A,3347.7859,N,11547.1982,W,42.68,047.23,230310,,*2A
$GPRMC,013129.384,A,3347.7943,N,11547.1874,W,43.58,047.81,230310,,*23
$GPRMC,013130.384,A,3347.8019,N,11547.1763,W,43.21,049.02,230310,,*20
$GPRMC,013131.384,A,3347.8103,N,11547.1654,W,43.34,048.42,230310,,*2F
$GPRMC,013133.384,A,3347.8271,N,11547.1438,W,42.80,046.99,230310,,*25
$GPRMC,013134.384,A,3347.8371,N,11547.1336,W,42.91,043.01,230310,,*2E
$GPRMC,013135.383,A,3347.8467,N,11547.1238,W,43.64,041.80,230310,,*27
$GPRMC,013136.383,A,3347.8561,N,11547.1142,W,44.03,040.54,230310,,*23
$GPRMC,013139.383,A,3347.8860,N,11547.0862,W,44.64,038.98,230310,,*24
$GPRMC,013140.383,A,3347.8960,N,11547.0768,W,44.89,039.30,230310,,*2E
$GPRMC,013141.383,A,3347.9060,N,11547.0672,W,45.43,039.64,230310,,*2B
$GPRMC,013142.383,A,3347.9157,N,11547.0575,W,45.44,040.03,230310,,*21
$GPRMC,013143.383,A,3347.9258,N,11547.0477,W,45.48,039.85,230310,,*23
$GPRMC,013144.383,A,3347.9360,N,11547.0380,W,45.39,039.38,230310,,*21
$GPRMC,013145.383,A,3347.9465,N,11547.0283,W,45.73,038.99,230310,,*24
$GPRMC,013146.383,A,3347.9567,N,11547.0187,W,45.95,038.65,230310,,*28
$GPRMC,013148.383,A,3347.9771,N,11546.9994,W,46.35,038.71,230310,,*2D
$GPRMC,013149.383,A,3347.9872,N,11546.9900,W,46.06,037.85,230310,,*29
$GPRMC,013150.382,A,3347.9965,N,11546.9809,W,45.46,036.93,230310,,*2E
$GPRMC,013151.382,A,3348.0056,N,11546.9722,W,44.01,036.82,230310,,*24
$GPRMC,013154.382,A,3348.0073,N,11546.9524,W,36.19,040.83,230310,,*2E
$GPRMC,013155.382,A,3348.0139,N,11546.9449,W,35.89,039.67,230310,,*24
$GPRMC,013156.382,A,3348.0208,N,11546.9375,W,35.39,040.97,230310,,*24
$GPRMC,013157.382,A,3348.0272,N,11546.9301,W,35.55,041.44,230310,,*2E
$GPRMC,013158.382,A,3348.0345,N,11546.9223,W,35.52,041.69,230310,,*2D
$GPRMC,013159.382,A,3348.0419,N,11546.9146,W,35.24,041.26,230310,,*28
$GPRMC,013200.382,A,3348.0492,N,11546.9072,W,34.25,040.00,230310,,*27
$GPRMC,013201.382,A,3348.0551,N,11546.9004,W,31.23,040.52,230310,,*2D
$GPRMC,013203.382,A,3348.0670,N,11546.8867,W,30.27,043.05,230310,,*27
$GPRMC,013204.382,A,3348.0727,N,11546.8795,W,29.95,044.80,230310,,*2A
$GPRMC,013205.382,A,3348.0787,N,11546.8725,W,29.93,043.60,230310,,*25
$GPRMC,013206.381,A,3348.0849,N,11546.8657,W,30.39,042.55,230310,,*23
$GPRMC,013209.381,A,3348.1027,N,11546.8449,W,30.62,044.04,230310,,*2C
$GPRMC,013210.381,A,3348.1089,N,11546.8375,W,31.09,044.79,230310,,*2E
$GPRMC,013211.381,A,3348.1156,N,11546.8304,W,31.74,043.69,230310,,*26
$GPRMC,013212.381,A,3348.1222,N,11546.8229,W,32.33,044.59,230310,,*2F
$GPRMC,013213.381,A,3348.1287,N,11546.8153,W,32.73,045.03,230310,,*25
$GPRMC,013214.381,A,3348.1364,N,11546.8076,W,33.80,043.32,230310,,*21
$GPRMC,013215.381,A,3348.1435,N,11546.8001,W,34.14,042.88,230310,,*29
$GPRMC,013216.381,A,3348.1508,N,11546.7925,W,34.31,042.94,230310,,*2F
$GPRMC,013218.381,A,3348.1643,N,11546.7765,W,34.64,044.87,230310,,*23
$GPRMC,013219.381,A,3348.1712,N,11546.7684,W,34.77,044.42,230310,,*22
$GPRMC,013220.381,A,3348.1781,N,11546.7601,W,35.09,044.87,230310,,*2E
$GPRMC,013221.380,A,3348.1843,N,11546.7518,W,35.08,046.27,230310,,*2D
$GPRMC,013224.380,A,3348.2051,N,11546.7271,W,34.97,044.08,230310,,*20
$GPRMC,013225.380,A,3348.2122,N,11546.7189,W,35.23,045.04,230310,,*23
$GPRMC,013226.380,A,3348.2192,N,11546.7107,W,35.22,045.03,230310,,*2B
$GPRMC,013227.380,A,3348.2264,N,11546.7025,W,35.15,044.60,230310,,*21
$GPRMC,013228.380,A,3348.2335,N,11546.6942,W,35.30,044.21,230310,,*20
$GPRMC,013229.380,A,3348.2405,N,11546.6862,W,35.28,043.07,230310,,*2C
$GPRMC,013230.380,A,3348.2475,N,11546.6784,W,34.87,041.55,230310,,*25
$GPRMC,013231.380,A,3348.2544,N,11546.6712,W,35.16,039.12,230310,,*2D
$GPRMC,013233.380,A,3348.2699,N,11546.6571,W,34.74,036.64,230310,,*20
$GPRMC,013234.380,A,3348.2782,N,11546.6502,W,35.46,036.22,230310,,*2A
$GPRMC,013235.380,A,3348.2863,N,11546.6430,W,36.69,037.73,230310,,*20
$GPRMC,013236.379,A,3348.2948,N,11546.6350,W,35.51,042.65,230310,,*21
$GPRMC,013239.379,A,3348.3146,N,11546.6084,W,36.04,050.44,230310,,*20
$GPRMC,013240.379,A,3348.3207,N,11546.5993,W,35.79,050.88,230310,,*2D
$GPRMC,013241.379,A,3348.3268,N,11546.5902,W,36.03,050.40,230310,,*27
$GPRMC,013242.379,A,3348.3328,N,11546.5810,W,36.08,050.82,230310,,*26
$GPRMC,013243.379,A,3348.3391,N,11546.5718,W,36.20,050.83,230310,,*29
$GPRMC,013244.379,A,3348.3454,N,11546.5625,W,36.40,051.61,230310,,*24
$GPRMC,013245.379,A,3348.3515,N,11546.5531,W,36.51,051.33,230310,,*20
$GPRMC,013246.379,A,3348.3576,N,11546.5435,W,36.65,051.06,230310,,*22
$GPRMC,013248.379,A,3348.3708,N,11546.5246,W,36.44,048.56,230310,,*2B
$GPRMC,013249.379,A,3348.3778,N,11546.5157,W,36.65,046.42,230310,,*26
$GPRMC,013250.379,A,3348.3848,N,11546.5070,W,36.37,045.92,230310,,*2F
$GPRMC,013251.379,A,3348.3921,N,11546.4983,W,36.85,043.87,230310,,*2F
$GPRMC,013254.378,A,3348.4130,N,11546.4732,W,34.87,047.43,230310,,*2C
$GPRMC,013255.378,A,3348.4191,N,11546.4647,W,33.53,050.88,230310,,*2A
$GPRMC,013256.378,A,3348.4246,N,11546.4560,W,32.73,053.85,230310,,*2B
$GPRMC,013257.378,A,3348.4294,N,11546.4474,W,31.92,055.48,230310,,*2A
$GPRMC,013258.378,A,3348.4342,N,11546.4387,W,31.51,056.28,230310,,*2E
$GPRMC,013259.378,A,3348.4391,N,11546.4298,W,31.43,054.66,230310,,*25
$GPRMC,013300.378,A,3348.4444,N,11546.4214,W,31.01,052.83,230310,,*28
$GPRMC,013301.378,A,3348.4497,N,11546.4134,W,31.35,050.24,230310,,*2E
$GPRMC,013303.378,A,3348.4609,N,11546.3980,W,31.63,048.16,230310,,*22
$GPRMC,013304.378,A,3348.4667,N,11546.3901,W,31.83,047.83,230310,,*29
$GPRMC,013305.378,A,3348.4727,N,11546.3822,W,31.93,047.84,230310,,*2B
$GPRMC,013306.378,A,3348.4785,N,11546.3743,W,31.89,048.02,230310,,*22
$GPRMC,013309.377,A,3348.4955,N,11546.3504,W,31.98,048.64,230310,,*20
$GPRMC,013310.377,A,3348.5014,N,11546.3426,W,31.83,047.87,230310,,*2C
$GPRMC,013311.377,A,3348.5072,N,11546.3347,W,31.86,047.66,230310,,*27
$GPRMC,013312.377,A,3348.5132,N,11546.3268,W,31.98,047.88,230310,,*22
$GPRMC,013313.377,A,3348.5191,N,11546.3189,W,31.84,047.81,230310,,*22
$GPRMC,013314.377,A,3348.5253,N,11546.3109,W,31.60,047.54,230310,,*22
$GPRMC,013315.377,A,3348.5314,N,11546.3032,W,31.64,047.30,230310,,*2E
$GPRMC,013316.377,A,3348.5374,N,11546.2955,W,31.71,047.59,230310,,*29
$GPRMC,013318.377,A,3348.5495,N,11546.2801,W,31.51,046.82,230310,,*2A
$GPRMC,013319.377,A,3348.5556,N,11546.2724,W,31.55,046.16,230310,,*24
$GPRMC,013320.377,A,3348.5621,N,11546.2648,W,31.56,046.06,230310,,*24
$GPRMC,013321.377,A,3348.5682,N,11546.2573,W,31.49,045.72,230310,,*29
$GPRMC,013324.376,A,3348.5866,N,11546.2349,W,31.27,045.29,230310,,*20
$GPRMC,013325.376,A,3348.5930,N,11546.2278,W,31.33,043.37,230310,,*2C
$GPRMC,013326.376,A,3348.5994,N,11546.2207,W,31.15,042.61,230310,,*2F
$GPRMC,013327.376,A,3348.6058,N,11546.2138,W,30.92,042.25,230310,,*25
$GPRMC,013328.376,A,3348.6123,N,11546.2071,W,31.05,041.06,230310,,*26
$GPRMC,013329.376,A,3348.6189,N,11546.2005,W,30.93,040.16,230310,,*2A
$GPRMC,013330.376,A,3348.6254,N,11546.1940,W,30.79,040.00,230310,,*29
$GPRMC,013331.376,A,3348.6319,N,11546.1876,W,30.63,040.12,230310,,*2C
$GPRMC,013333.376,A,3348.6440,N,11546.1745,W,29.23,042.98,230310,,*26
$GPRMC,013334.376,A,3348.6495,N,11546.1680,W,28.25,045.14,230310,,*25
$GPRMC,013335.376,A,3348.6546,N,11546.1618,W,26.50,046.12,230310,,*23
$GPRMC,013336.376,A,3348.6596,N,11546.1562,W,25.05,043.76,230310,,*27
$GPRMC,013339.375,A,3348.6746,N,11546.1420,W,22.61,035.51,230310,,*22
$GPRMC,013340.375,A,3348.6802,N,11546.1381,W,23.39,030.79,230310,,*2C
$GPRMC,013341.375,A,3348.6863,N,11546.1346,W,24.35,025.83,230310,,*2B
$GPRMC,013342.375,A,3348.6924,N,11546.1311,W,24.64,026.31,230310,,*26
$GPRMC,013343.375,A,3348.6987,N,11546.1276,W,24.79,026.02,230310,,*22
$GPRMC,013344.375,A,3348.7051,N,11546.1244,W,25.15,023.83,230310,,*20
$GPRMC,013345.375,A,3348.7118,N,11546.1215,W,25.31,021.73,230310,,*22
$GPRMC,013346.375,A,3348.7187,N,11546.1191,W,25.51,017.03,230310,,*2C
$GPRMC,013348.375,A,3348.7332,N,11546.1154,W,26.35,011.93,230310,,*29
$GPRMC,013349.375,A,3348.7406,N,11546.1139,W,26.72,010.73,230310,,*2F
$GPRMC,013350.375,A,3348.7480,N,11546.1124,W,26.94,011.00,230310,,*28
$GPRMC,013351.375,A,3348.7556,N,11546.1107,W,27.25,012.00,230310,,*2A
$GPRMC,013354.374,A,3348.7786,N,11546.1051,W,27.96,013.84,230310,,*26
$GPRMC,013355.374,A,3348.7864,N,11546.1031,W,28.26,013.34,230310,,*2D
$GPRMC,013356.374,A,3348.7944,N,11546.1015,W,28.81,010.65,230310,,*21
$GPRMC,013357.374,A,3348.8025,N,11546.1004,W,28.99,007.94,230310,,*20
$GPRMC,013358.374,A,3348.8108,N,11546.0997,W,29.35,004.96,230310,,*25
$GPRMC,013359.374,A,3348.8192,N,11546.0993,W,29.72,002.86,230310,,*27
$GPRMC,013400.374,A,3348.8276,N,11546.0989,W,30.06,003.24,230310,,*2C
$GPRMC,013401.374,A,3348.8361,N,11546.0982,W,30.15,004.73,230310,,*26
$GPRMC,013403.374,A,3348.8531,N,11546.0960,W,30.62,007.73,230310,,*28
$GPRMC,013404.374,A,3348.8616,N,11546.0945,W,30.63,009.11,230310,,*25
$GPRMC,013405.374,A,3348.8699,N,11546.0924,W,30.48,012.58,230310,,*2A
$GPRMC,013406.374,A,3348.8780,N,11546.0894,W,30.21,017.95,230310,,*21
$GPRMC,013409.373,A,3348.9005,N,11546.0756,W,30.28,030.67,230310,,*22
$GPRMC,013410.373,A,3348.9079,N,11546.0703,W,30.54,031.80,230310,,*22
$GPRMC,013411.373,A,3348.9151,N,11546.0647,W,30.75,033.42,230310,,*26
$GPRMC,013412.373,A,3348.9224,N,11546.0590,W,31.12,033.35,230310,,*2D
$GPRMC,013413.373,A,3348.9297,N,11546.0533,W,31.48,033.10,230310,,*25
$GPRMC,013414.373,A,3348.9371,N,11546.0476,W,31.54,032.90,230310,,*2F
$GPRMC,013415.373,A,3348.9445,N,11546.0418,W,31.75,032.95,230310,,*20
$GPRMC,013416.373,A,3348.9520,N,11546.0358,W,32.39,034.17,230310,,*25
$GPRMC,013418.373,A,3348.9666,N,11546.0229,W,32.53,037.07,230310,,*23
$GPRMC,013419.373,A,3348.9737,N,11546.0158,W,33.11,039.90,230310,,*25
$GPRMC,013420.373,A,3348.9805,N,11546.0082,W,33.61,043.03,230310,,*27
$GPRMC,013421.373,A,3348.9871,N,11546.0000,W,33.93,045.92,230310,,*2C
$GPRMC,013424.372,A,3349.0052,N,11545.9754,W,31.29,049.23,230310,,*20
$GPRMC,013425.372,A,3349.0106,N,11545.9677,W,30.33,049.93,230310,,*20
$GPRMC,013426.372,A,3349.0161,N,11545.9599,W,30.37,049.78,230310,,*20
$GPRMC,013427.372,A,3349.0216,N,11545.9522,W,30.57,049.35,230310,,*2D
$GPRMC,013428.372,A,3349.0273,N,11545.9447,W,30.64,047.54,230310,,*2A
$GPRMC,013429.372,A,3349.0331,N,11545.9370,W,31.06,047.43,230310,,*2C
$GPRMC,013430.372,A,3349.0392,N,11545.9295,W,31.37,045.85,230310,,*2D
$GPRMC,013431.372,A,3349.0457,N,11545.9223,W,31.80,042.96,230310,,*26
$GPRMC,013433.372,A,3349.0591,N,11545.9083,W,32.16,039.71,230310,,*2E
$GPRMC,013434.372,A,3349.0661,N,11545.9015,W,32.40,038.82,230310,,*24
$GPRMC,013435.372,A,3349.0734,N,11545.8947,W,32.88,037.76,230310,,*2B
$GPRMC,013436.372,A,3349.0807,N,11545.8879,W,33.25,037.53,230310,,*2A
$GPRMC,013439.371,A,3349.1031,N,11545.8663,W,33.81,037.95,230310,,*2B
$GPRMC,013440.371,A,3349.1107,N,11545.8593,W,33.74,037.98,230310,,*2A
$GPRMC,013441.371,A,3349.1182,N,11545.8522,W,33.81,038.57,230310,,*2A
$GPRMC,013442.371,A,3349.1254,N,11545.8452,W,33.85,038.93,230310,,*2B
$GPRMC,013443.371,A,3349.1325,N,11545.8382,W,33.64,038.60,230310,,*24
$GPRMC,013444.371,A,3349.1398,N,11545.8312,W,33.75,038.56,230310,,*29
$GPRMC,013445.371,A,3349.1472,N,11545.8241,W,34.36,038.62,230310,,*2B
$GPRMC,013446.371,A,3349.1544,N,11545.8169,W,33.96,039.15,230310,,*29
$GPRMC,013448.371,A,3349.1689,N,11545.8028,W,33.71,037.89,230310,,*23
$GPRMC,013449.371,A,3349.1764,N,11545.7959,W,33.67,038.11,230310,,*29
$GPRMC,013450.371,A,3349.1838,N,11545.7889,W,34.00,038.53,230310,,*2B
$GPRMC,013451.371,A,3349.1915,N,11545.7820,W,33.76,037.49,230310,,*25
$GPRMC,013454.371,A,3349.2136,N,11545.7625,W,32.53,035.91,230310,,*20
$GPRMC,013455.370,A,3349.2208,N,11545.7564,W,32.59,034.84,230310,,*27
$GPRMC,013456.370,A,3349.2283,N,11545.7504,W,32.47,033.61,230310,,*22
$GPRMC,013457.370,A,3349.2364,N,11545.7447,W,33.19,030.43,230310,,*24
$GPRMC,013458.370,A,3349.2445,N,11545.7396,W,33.21,028.18,230310,,*28
$GPRMC,013459.370,A,3349.2532,N,11545.7348,W,33.73,026.02,230310,,*29
$GPRMC,013500.370,A,3349.2615,N,11545.7302,W,34.62,024.57,230310,,*29
$GPRMC,013501.370,A,3349.2704,N,11545.7255,W,34.86,024.41,230310,,*27
$GPRMC,013503.370,A,3349.2883,N,11545.7160,W,35.66,023.38,230310,,*26
$GPRMC,013504.370,A,3349.2975,N,11545.7114,W,35.85,022.92,230310,,*26
$GPRMC,013505.370,A,3349.3068,N,11545.7067,W,36.21,023.37,230310,,*25
$GPRMC,013506.370,A,3349.3162,N,11545.7018,W,36.61,023.96,230310,,*2A
$GPRMC,013509.370,A,3349.3447,N,11545.6875,W,37.04,022.66,230310,,*29
$GPRMC,013510.369,A,3349.3542,N,11545.6826,W,36.92,023.47,230310,,*27
$GPRMC,013511.369,A,3349.3636,N,11545.6775,W,36.95,023.78,230310,,*24
$GPRMC,013512.369,A,3349.3732,N,11545.6727,W,36.79,022.62,230310,,*2D
$GPRMC,013513.369,A,3349.3828,N,11545.6682,W,36.77,021.56,230310,,*2C
$GPRMC,013514.369,A,3349.3925,N,11545.6635,W,37.03,022.59,230310,,*25
$GPRMC,013515.369,A,3349.4019,N,11545.6585,W,37.07,023.77,230310,,*24
$GPRMC,013516.369,A,3349.4114,N,11545.6534,W,37.11,023.81,230310,,*2F
$GPRMC,013518.369,A,3349.4302,N,11545.6430,W,37.38,024.92,230310,,*2F
$GPRMC,013519.369,A,3349.4396,N,11545.6372,W,37.46,025.32,230310,,*20
$GPRMC,013520.369,A,3349.4491,N,11545.6318,W,37.57,024.01,230310,,*27
$GPRMC,013521.369,A,3349.4588,N,11545.6268,W,37.85,023.38,230310,,*2B
$GPRMC,013524.369,A,3349.4882,N,11545.6120,W,38.55,022.46,230310,,*2C
$GPRMC,013525.369,A,3349.4983,N,11545.6074,W,38.82,021.35,230310,,*20
$GPRMC,013526.368,A,3349.5087,N,11545.6032,W,39.06,019.23,230310,,*2D
$GPRMC,013527.368,A,3349.5193,N,11545.5994,W,39.55,017.57,230310,,*25
$GPRMC,013528.368,A,3349.5301,N,11545.5957,W,39.96,016.71,230310,,*26
$GPRMC,013529.368,A,3349.5410,N,11545.5923,W,40.40,015.74,230310,,*20
$GPRMC,013530.368,A,3349.5521,N,11545.5891,W,40.75,014.81,230310,,*2E
$GPRMC,013531.368,A,3349.5634,N,11545.5859,W,41.09,014.64,230310,,*2D
$GPRMC,013533.368,A,3349.5860,N,11545.5794,W,41.77,014.71,230310,,*23
$GPRMC,013534.368,A,3349.5974,N,11545.5760,W,42.02,014.87,230310,,*23
$GPRMC,013535.368,A,3349.6089,N,11545.5726,W,42.16,014.69,230310,,*2D
$GPRMC,013536.368,A,3349.6203,N,11545.5691,W,42.23,015.09,230310,,*22
$GPRMC,013539.368,A,3349.6548,N,11545.5587,W,42.45,014.65,230310,,*2A
$GPRMC,013540.368,A,3349.6664,N,11545.5557,W,42.60,012.61,230310,,*21
$GPRMC,013541.367,A,3349.6781,N,11545.5537,W,42.42,008.53,230310,,*29
$GPRMC,013542.367,A,3349.6899,N,11545.5530,W,42.24,003.00,230310,,*26
$GPRMC,013543.367,A,3349.7016,N,11545.5531,W,41.73,359.26,230310,,*21
$GPRMC,013544.367,A,3349.7133,N,11545.5539,W,41.81,357.07,230310,,*28
$GPRMC,013545.367,A,3349.7249,N,11545.5551,W,41.71,355.02,230310,,*21
$GPRMC,013546.367,A,3349.7366,N,11545.5563,W,41.93,355.02,230310,,*23
$GPRMC,013548.367,A,3349.7593,N,11545.5585,W,39.82,355.34,230310,,*23
$GPRMC,013549.367,A,3349.7698,N,11545.5599,W,37.68,353.52,230310,,*2B
$GPRMC,013550.367,A,3349.7795,N,11545.5619,W,35.32,350.57,230310,,*2F
$GPRMC,013551.367,A,3349.7885,N,11545.5656,W,32.17,345.64,230310,,*2F
$GPRMC,013554.367,A,3349.8102,N,11545.5758,W,27.35,333.92,230310,,*20
$GPRMC,013555.367,A,3349.8167,N,11545.5804,W,27.16,330.08,230310,,*25
$GPRMC,013556.366,A,3349.8227,N,11545.5850,W,26.47,327.32,230310,,*2B
$GPRMC,013557.366,A,3349.8285,N,11545.5902,W,26.66,323.71,230310,,*24
$GPRMC,013558.366,A,3349.8340,N,11545.5956,W,26.41,321.45,230310,,*22
$GPRMC,013559.366,A,3349.8396,N,11545.6015,W,26.21,320.55,230310,,*23
$GPRMC,013600.366,A,3349.8451,N,11545.6072,W,26.11,318.46,230310,,*2B
$GPRMC,013601.366,A,3349.8504,N,11545.6133,W,26.10,315.82,230310,,*2B
$GPRMC,013603.366,A,3349.8606,N,11545.6263,W,26.57,311.03,230310,,*20
$GPRMC,013604.366,A,3349.8654,N,11545.6333,W,26.87,310.27,230310,,*2E
$GPRMC,013605.366,A,3349.8703,N,11545.6402,W,27.21,311.16,230310,,*27
$GPRMC,013606.366,A,3349.8755,N,11545.6472,W,27.37,312.77,230310,,*23
$GPRMC,013609.366,A,3349.8920,N,11545.6673,W,28.96,317.27,230310,,*27
$GPRMC,013610.366,A,3349.8980,N,11545.6738,W,28.84,319.08,230310,,*2B
$GPRMC,013611.366,A,3349.9040,N,11545.6800,W,28.67,320.30,230310,,*26
$GPRMC,013612.365,A,3349.9104,N,11545.6864,W,28.45,319.91,230310,,*24
$GPRMC,013613.365,A,3349.9162,N,11545.6925,W,27.79,318.70,230310,,*2F
$GPRMC,013614.365,A,3349.9216,N,11545.6988,W,26.89,315.87,230310,,*24
$GPRMC,013615.365,A,3349.9266,N,11545.7052,W,26.03,312.93,230310,,*2D
$GPRMC,013616.365,A,3349.9312,N,11545.7120,W,26.16,310.55,230310,,*24
$GPRMC,013618.365,A,3349.9394,N,11545.7264,W,26.01,303.37,230310,,*27
$GPRMC,013619.365,A,3349.9433,N,11545.7340,W,26.17,302.17,230310,,*2F
$GPRMC,013620.365,A,3349.9471,N,11545.7416,W,26.40,301.52,230310,,*27
$GPRMC,013621.365,A,3349.9510,N,11545.7492,W,26.51,301.94,230310,,*26
$GPRMC,013624.365,A,3349.9634,N,11545.7714,W,26.87,306.25,230310,,*2D
$GPRMC,013625.365,A,3349.9679,N,11545.7784,W,26.71,308.18,230310,,*25
$GPRMC,013626.365,A,3349.9723,N,11545.7850,W,25.42,308.68,230310,,*2A
$GPRMC,013627.364,A,3349.9773,N,11545.7910,W,25.75,315.01,230310,,*2D
$GPRMC,013628.364,A,3349.9825,N,11545.7966,W,25.32,318.65,230310,,*23
$GPRMC,013629.364,A,3349.9879,N,11545.8020,W,25.34,320.09,230310,,*28
$GPRMC,013630.364,A,3349.9934,N,11545.8073,W,25.73,321.47,230310,,*26
$GPRMC,013631.364,A,3349.9993,N,11545.8123,W,26.14,324.02,230310,,*28
$GPRMC,013633.364,A,3350.0114,N,11545.8229,W,26.96,323.47,230310,,*29
$GPRMC,013634.364,A,3350.0175,N,11545.8281,W,27.01,323.88,230310,,*27
$GPRMC,013635.364,A,3350.0236,N,11545.8333,W,27.04,324.52,230310,,*2F
$GPRMC,013636.364,A,3350.0297,N,11545.8385,W,26.77,324.11,230310,,*28
$GPRMC,013639.364,A,3350.0476,N,11545.8553,W,27.08,321.62,230310,,*2B
$GPRMC,013640.364,A,3350.0536,N,11545.8611,W,27.43,320.95,230310,,*23
$GPRMC,013641.364,A,3350.0594,N,11545.8671,W,27.61,319.29,230310,,*21
$GPRMC,013642.364,A,3350.0651,N,11545.8735,W,27.61,316.57,230310,,*2F
$GPRMC,013643.363,A,3350.0704,N,11545.8802,W,27.82,313.81,230310,,*20
$GPRMC,013644.363,A,3350.0754,N,11545.8873,W,27.63,309.78,230310,,*26
$GPRMC,013645.363,A,3350.0796,N,11545.8948,W,27.32,303.62,230310,,*25
$GPRMC,013646.363,A,3350.0831,N,11545.9028,W,27.07,298.48,230310,,*27
$GPRMC,013648.363,A,3350.0890,N,11545.9190,W,26.19,292.18,230310,,*21
$GPRMC,013649.363,A,3350.0915,N,11545.9271,W,25.70,290.44,230310,,*27
$GPRMC,013650.363,A,3350.0938,N,11545.9350,W,25.09,290.16,230310,,*2B
$GPRMC,013651.363,A,3350.0962,N,11545.9428,W,24.56,290.90,230310,,*28
$GPRMC,013654.363,A,3350.1027,N,11545.9639,W,21.51,291.41,230310,,*29
$GPRMC,013655.363,A,3350.1051,N,11545.9705,W,21.39,293.01,230310,,*2F
$GPRMC,013656.363,A,3350.1076,N,11545.9771,W,21.56,294.81,230310,,*2C
$GPRMC,013657.363,A,3350.1104,N,11545.9836,W,21.56,297.54,230310,,*2E
$GPRMC,013658.362,A,3350.1135,N,11545.9899,W,21.77,300.83,230310,,*21
$GPRMC,013659.362,A,3350.1171,N,11545.9961,W,22.22,305.04,230310,,*2F
$GPRMC,013700.362,A,3350.1208,N,11546.0022,W,22.74,306.55,230310,,*2F
$GPRMC,013701.362,A,3350.1247,N,11546.0085,W,23.36,307.16,230310,,*29
$GPRMC,013703.362,A,3350.1337,N,11546.0210,W,25.06,312.81,230310,,*2C
$GPRMC,013704.362,A,3350.1388,N,11546.0270,W,25.60,315.65,230310,,*24
$GPRMC,013705.362,A,3350.1440,N,11546.0328,W,25.61,317.57,230310,,*28
$GPRMC,013706.362,A,3350.1496,N,11546.0385,W,26.33,319.97,230310,,*21
$GPRMC,013709.362,A,3350.1685,N,11546.0540,W,28.08,328.34,230310,,*2C
$GPRMC,013710.362,A,3350.1755,N,11546.0587,W,28.50,330.46,230310,,*22
$GPRMC,013711.362,A,3350.1826,N,11546.0631,W,28.22,332.28,230310,,*29
$GPRMC,013712.362,A,3350.1901,N,11546.0670,W,28.66,335.92,230310,,*2D
$GPRMC,013713.361,A,3350.1977,N,11546.0705,W,28.97,338.85,230310,,*28
$GPRMC,013714.361,A,3350.2056,N,11546.0739,W,29.61,340.14,230310,,*26
$GPRMC,013715.361,A,3350.2136,N,11546.0776,W,30.05,339.13,230310,,*28
$GPRMC,013716.361,A,3350.2214,N,11546.0815,W,30.28,337.12,230310,,*22
$GPRMC,013718.361,A,3350.2365,N,11546.0911,W,30.54,330.36,230310,,*24
$GPRMC,013719.361,A,3350.2435,N,11546.0969,W,30.36,324.90,230310,,*25
$GPRMC,013720.361,A,3350.2502,N,11546.1030,W,30.30,322.60,230310,,*21
$GPRMC,013721.361,A,3350.2568,N,11546.1093,W,30.30,321.29,230310,,*2B
$GPRMC,013724.361,A,3350.2764,N,11546.1283,W,29.66,320.21,230310,,*21
$GPRMC,013725.361,A,3350.2827,N,11546.1346,W,29.56,320.35,230310,,*26
$GPRMC,013726.361,A,3350.2891,N,11546.1408,W,29.59,321.26,230310,,*29
$GPRMC,013727.361,A,3350.2956,N,11546.1470,W,29.54,321.98,230310,,*25
$GPRMC,013728.361,A,3350.3021,N,11546.1531,W,29.62,322.12,230310,,*22
$GPRMC,013729.360,A,3350.3085,N,11546.1592,W,29.66,321.52,230310,,*26
$GPRMC,013730.360,A,3350.3148,N,11546.1656,W,29.79,320.32,230310,,*2C
$GPRMC,013731.360,A,3350.3213,N,11546.1719,W,29.99,321.44,230310,,*24
$GPRMC,013733.360,A,3350.3347,N,11546.1839,W,30.17,323.97,230310,,*29
$GPRMC,013734.360,A,3350.3414,N,11546.1898,W,30.12,324.13,230310,,*2A
$GPRMC,013735.360,A,3350.3482,N,11546.1959,W,30.47,323.05,230310,,*28
$GPRMC,013736.360,A,3350.3551,N,11546.2021,W,30.76,323.35,230310,,*20
$GPRMC,013739.360,A,3350.3757,N,11546.2213,W,31.53,320.65,230310,,*28
$GPRMC,013740.360,A,3350.3824,N,11546.2281,W,31.66,320.22,230310,,*23
$GPRMC,013741.360,A,3350.3892,N,11546.2350,W,31.91,320.13,230310,,*28
$GPRMC,013742.360,A,3350.3960,N,11546.2421,W,32.28,319.33,230310,,*2F
$GPRMC,013743.360,A,3350.4028,N,11546.2493,W,32.48,318.83,230310,,*29
$GPRMC,013744.359,A,3350.4098,N,11546.2565,W,32.92,319.33,230310,,*2A
$GPRMC,013745.359,A,3350.4168,N,11546.2638,W,33.29,319.48,230310,,*23
$GPRMC,013746.359,A,3350.4240,N,11546.2710,W,33.77,320.13,230310,,*2D
$GPRMC,013748.359,A,3350.4386,N,11546.2858,W,34.36,319.72,230310,,*24
$GPRMC,013749.359,A,3350.4459,N,11546.2934,W,34.53,319.35,230310,,*2B
$GPRMC,013750.359,A,3350.4532,N,11546.3011,W,34.74,318.78,230310,,*2D
$GPRMC,013751.359,A,3350.4605,N,11546.3088,W,35.01,318.57,230310,,*25
$GPRMC,013754.359,A,3350.4826,N,11546.3329,W,35.75,318.86,230310,,*28
$GPRMC,013755.359,A,3350.4903,N,11546.3407,W,36.02,319.80,230310,,*20
$GPRMC,013756.359,A,3350.4980,N,11546.3486,W,36.31,319.29,230310,,*22
$GPRMC,013757.359,A,3350.5057,N,11546.3566,W,36.57,319.34,230310,,*22
$GPRMC,013758.359,A,3350.5135,N,11546.3644,W,36.68,320.04,230310,,*2E
$GPRMC,013759.359,A,3350.5214,N,11546.3724,W,37.02,320.02,230310,,*23
$GPRMC,013800.358,A,3350.5294,N,11546.3804,W,37.30,320.06,230310,,*21
$GPRMC,013801.358,A,3350.5376,N,11546.3881,W,37.48,321.97,230310,,*26
$GPRMC,013803.358,A,3350.5549,N,11546.4019,W,36.67,328.42,230310,,*2D
$GPRMC,013804.358,A,3350.5636,N,11546.4074,W,35.34,332.30,230310,,*21
$GPRMC,013805.358,A,3350.5719,N,11546.4124,W,33.14,333.29,230310,,*25
$GPRMC,013806.358,A,3350.5796,N,11546.4172,W,31.34,332.09,230310,,*21
$GPRMC,013809.358,A,3350.6011,N,11546.4335,W,30.52,324.21,230310,,*28
$GPRMC,013810.358,A,3350.6079,N,11546.4399,W,30.93,321.91,230310,,*2B
$GPRMC,013811.358,A,3350.6146,N,11546.4466,W,31.24,319.79,230310,,*20
$GPRMC,013812.358,A,3350.6211,N,11546.4536,W,31.57,318.40,230310,,*29
$GPRMC,013813.358,A,3350.6277,N,11546.4608,W,31.94,317.51,230310,,*26
$GPRMC,013814.358,A,3350.6343,N,11546.4681,W,32.19,317.43,230310,,*23
$GPRMC,013815.357,A,3350.6409,N,11546.4756,W,32.69,317.01,230310,,*2E
$GPRMC,013816.357,A,3350.6476,N,11546.4831,W,32.99,316.91,230310,,*2C
$GPRMC,013818.357,A,3350.6612,N,11546.4984,W,33.60,316.58,230310,,*2F
$GPRMC,013819.357,A,3350.6680,N,11546.5061,W,33.62,316.90,230310,,*20
$GPRMC,013820.357,A,3350.6747,N,11546.5135,W,32.71,317.50,230310,,*2E
$GPRMC,013821.357,A,3350.6817,N,11546.5211,W,33.65,317.31,230310,,*23
$GPRMC,013824.357,A,3350.7018,N,11546.5451,W,34.07,314.25,230310,,*27
$GPRMC,013825.357,A,3350.7081,N,11546.5535,W,33.58,311.94,230310,,*27
$GPRMC,013826.357,A,3350.7141,N,11546.5622,W,33.51,309.95,230310,,*2D
$GPRMC,013827.357,A,3350.7200,N,11546.5709,W,33.35,309.18,230310,,*25
$GPRMC,013828.357,A,3350.7259,N,11546.5798,W,33.45,308.38,230310,,*2A
$GPRMC,013829.357,A,3350.7313,N,11546.5887,W,32.94,306.28,230310,,*27
$GPRMC,013830.356,A,3350.7367,N,11546.5976,W,32.61,305.85,230310,,*2C
$GPRMC,013831.356,A,3350.7419,N,11546.6064,W,32.12,305.45,230310,,*22
$GPRMC,013833.356,A,3350.7521,N,11546.6240,W,31.71,304.35,230310,,*2E
$GPRMC,013834.356,A,3350.7570,N,11546.6328,W,31.41,304.20,230310,,*25
$GPRMC,013835.356,A,3350.7619,N,11546.6416,W,31.27,303.21,230310,,*24
$GPRMC,013836.356,A,3350.7666,N,11546.6503,W,30.72,303.53,230310,,*2E
$GPRMC,013839.356,A,3350.7799,N,11546.6759,W,29.25,301.90,230310,,*2A
$GPRMC,013840.356,A,3350.7842,N,11546.6841,W,28.94,302.13,230310,,*28
$GPRMC,013841.356,A,3350.7884,N,11546.6923,W,28.33,301.81,230310,,*23
$GPRMC,013842.356,A,3350.7925,N,11546.7002,W,27.75,301.78,230310,,*2A
$GPRMC,013843.356,A,3350.7963,N,11546.7081,W,27.20,300.63,230310,,*29
$GPRMC,013844.356,A,3350.8002,N,11546.7158,W,26.78,300.76,230310,,*22
$GPRMC,013845.356,A,3350.8040,N,11546.7234,W,26.40,301.47,230310,,*24
$GPRMC,013846.355,A,3350.8079,N,11546.7308,W,25.86,302.52,230310,,*2E
$GPRMC,013848.355,A,3350.8161,N,11546.7443,W,24.54,308.11,230310,,*23
$GPRMC,013849.355,A,3350.8206,N,11546.7500,W,23.43,313.91,230310,,*25
$GPRMC,013850.355,A,3350.8252,N,11546.7552,W,22.55,317.78,230310,,*2E
$GPRMC,013851.355,A,3350.8297,N,11546.7599,W,21.61,319.80,230310,,*2C
$GPRMC,013854.355,A,3350.8434,N,11546.7740,W,21.63,321.53,230310,,*27
$GPRMC,013855.355,A,3350.8484,N,11546.7784,W,22.24,323.48,230310,,*2D
$GPRMC,013856.355,A,3350.8535,N,11546.7829,W,23.00,324.52,230310,,*26
$GPRMC,013857.355,A,3350.8590,N,11546.7877,W,24.39,324.13,230310,,*2B
$GPRMC,013858.355,A,3350.8647,N,11546.7926,W,25.21,324.42,230310,,*24
$GPRMC,013859.355,A,3350.8705,N,11546.7976,W,25.54,324.56,230310,,*20
$GPRMC,013900.355,A,3350.8765,N,11546.8028,W,26.53,324.17,230310,,*27
$GPRMC,013901.354,A,3350.8824,N,11546.8081,W,26.63,323.03,230310,,*2F
$GPRMC,013903.354,A,3350.8943,N,11546.8184,W,26.58,325.06,230310,,*22
$GPRMC,013904.354,A,3350.9005,N,11546.8233,W,26.61,326.53,230310,,*29
$GPRMC,013905.354,A,3350.9066,N,11546.8279,W,25.90,327.76,230310,,*28
$GPRMC,013906.354,A,3350.9128,N,11546.8321,W,25.66,330.16,230310,,*25
$GPRMC,013909.354,A,3350.9319,N,11546.8445,W,26.35,329.28,230310,,*2F
$GPRMC,013910.354,A,3350.9381,N,11546.8494,W,27.09,326.02,230310,,*23
$GPRMC,013911.354,A,3350.9439,N,11546.8547,W,26.43,322.02,230310,,*22
$GPRMC,013912.354,A,3350.9494,N,11546.8607,W,26.59,317.58,230310,,*23
$GPRMC,013913.354,A,3350.9545,N,11546.8670,W,26.10,314.24,230310,,*2A
$GPRMC,013914.354,A,3350.9593,N,11546.8733,W,25.39,312.77,230310,,*28
$GPRMC,013915.354,A,3350.9638,N,11546.8795,W,24.47,310.58,230310,,*20
$GPRMC,013916.353,A,3350.9683,N,11546.8858,W,24.74,311.14,230310,,*23
$GPRMC,013918.353,A,3350.9773,N,11546.8980,W,24.29,311.28,230310,,*20
$GPRMC,013919.353,A,3350.9818,N,11546.9044,W,24.97,310.30,230310,,*2E
$GPRMC,013920.353,A,3350.9865,N,11546.9109,W,25.67,310.80,230310,,*23
$GPRMC,013921.353,A,3350.9913,N,11546.9175,W,26.27,311.02,230310,,*25
$GPRMC,013924.353,A,3351.0060,N,11546.9377,W,27.07,311.65,230310,,*27
$GPRMC,013925.353,A,3351.0110,N,11546.9445,W,27.14,311.43,230310,,*20
$GPRMC,013926.353,A,3351.0159,N,11546.9513,W,27.01,310.69,230310,,*21
$GPRMC,013927.353,A,3351.0206,N,11546.9583,W,26.97,309.20,230310,,*2B
$GPRMC,013928.353,A,3351.0253,N,11546.9652,W,26.86,309.20,230310,,*2B
$GPRMC,013929.353,A,3351.0302,N,11546.9720,W,26.90,310.35,230310,,*20
$GPRMC,013930.353,A,3351.0351,N,11546.9788,W,27.02,310.83,230310,,*2B
$GPRMC,013931.353,A,3351.0399,N,11546.9857,W,26.93,309.89,230310,,*28
$GPRMC,013933.352,A,3351.0494,N,11546.9996,W,27.05,309.27,230310,,*27
$GPRMC,013934.352,A,3351.0541,N,11547.0067,W,27.07,307.74,230310,,*2C
$GPRMC,013935.352,A,3351.0585,N,11547.0140,W,27.07,306.21,230310,,*20
$GPRMC,013936.352,A,3351.0628,N,11547.0214,W,26.92,304.71,230310,,*2F
$GPRMC,013939.352,A,3351.0756,N,11547.0447,W,28.15,301.53,230310,,*2C
$GPRMC,013940.352,A,3351.0797,N,11547.0528,W,28.40,301.26,230310,,*25
$GPRMC,013941.352,A,3351.0838,N,11547.0609,W,28.40,301.60,230310,,*2C
$GPRMC,013942.352,A,3351.0882,N,11547.0687,W,28.46,304.53,230310,,*2B
$GPRMC,013943.352,A,3351.0929,N,11547.0762,W,27.94,307.32,230310,,*24
$GPRMC,013944.352,A,3351.0979,N,11547.0833,W,27.62,309.57,230310,,*29
$GPRMC,013945.352,A,3351.1029,N,11547.0901,W,27.34,311.43,230310,,*2A
$GPRMC,013946.352,A,3351.1082,N,11547.0967,W,27.26,314.00,230310,,*29
$GPRMC,013948.351,A,3351.1189,N,11547.1100,W,28.01,314.09,230310,,*25
$GPRMC,013949.351,A,3351.1244,N,11547.1169,W,28.72,314.20,230310,,*26
$GPRMC,013950.351,A,3351.1301,N,11547.1240,W,29.31,314.06,230310,,*24
$GPRMC,013951.351,A,3351.1358,N,11547.1312,W,29.74,313.95,230310,,*23
$GPRMC,013954.351,A,3351.1533,N,11547.1529,W,30.36,313.86,230310,,*2F
$GPRMC,013955.351,A,3351.1591,N,11547.1602,W,30.35,313.73,230310,,*25
$GPRMC,013956.351,A,3351.1650,N,11547.1676,W,30.53,313.78,230310,,*20
$GPRMC,013957.351,A,3351.1709,N,11547.1750,W,30.59,313.66,230310,,*2C
$GPRMC,013958.351,A,3351.1767,N,11547.1825,W,30.64,313.08,230310,,*20
$GPRMC,013959.351,A,3351.1825,N,11547.1901,W,30.65,312.18,230310,,*2E
$GPRMC,014000.351,A,3351.1882,N,11547.1977,W,30.58,311.72,230310,,*21
$GPRMC,014001.351,A,3351.1938,N,11547.2054,W,30.39,311.50,230310,,*2C
$GPRMC,014003.350,A,3351.2051,N,11547.2207,W,30.36,311.43,230310,,*23
$GPRMC,014004.350,A,3351.2107,N,11547.2283,W,30.11,311.64,230310,,*2A
$GPRMC,014005.350,A,3351.2162,N,11547.2359,W,29.81,310.69,230310,,*23
$GPRMC,014006.350,A,3351.2216,N,11547.2434,W,29.44,310.24,230310,,*2C
$GPRMC,014009.350,A,3351.2360,N,11547.2673,W,29.45,302.45,230310,,*27
$GPRMC,014010.350,A,3351.2402,N,11547.2758,W,29.20,300.12,230310,,*27
$GPRMC,014011.350,A,3351.2443,N,11547.2844,W,29.48,299.05,230310,,*28
$GPRMC,014012.350,A,3351.2483,N,11547.2932,W,29.79,297.66,230310,,*2E
$GPRMC,014013.350,A,3351.2522,N,11547.3021,W,29.76,297.15,230310,,*24
$GPRMC,014014.350,A,3351.2562,N,11547.3109,W,29.71,298.50,230310,,*25
$GPRMC,014015.350,A,3351.2604,N,11547.3195,W,29.42,299.94,230310,,*2B
$GPRMC,014016.350,A,3351.2647,N,11547.3278,W,29.05,301.75,230310,,*23
$GPRMC,014018.349,A,3351.2741,N,11547.3443,W,29.97,305.56,230310,,*22
$GPRMC,014019.349,A,3351.2790,N,11547.3525,W,30.25,305.66,230310,,*2C
$GPRMC,014020.349,A,3351.2838,N,11547.3608,W,30.30,305.45,230310,,*22
$GPRMC,014021.349,A,3351.2888,N,11547.3689,W,30.20,306.32,230310,,*23
