NMEA Sentence Code,UTC Time,Status,Latitude,Latitude Direction,Longitude,Longitude Direction,Speed (knots),Track Angle (degrees true),Date,MagneticVariation,Magnetic Variation Direction,[FAA Mode]-Optional,Checksum
$GPRMC,144039.9,A,3244.586697,N,11656.063063,W,11.4,261.9,150710,,,A*43
$GPRMC,144042.9,A,3244.579002,N,11656.085772,W,24.2,246.5,150710,,,A*43
$GPRMC,144045.9,A,3244.568873,N,11656.111445,W,29.8,246.7,150710,,,A*44
$GPRMC,144048.9,A,3244.552458,N,11656.141905,W,34.5,241.2,150710,,,A*4A
$GPRMC,144051.9,A,3244.542015,N,11656.172909,W,35.5,243.5,150710,,,A*46
$GPRMC,144054.9,A,3244.521344,N,11656.209031,W,40.2,238.9,150710,,,A*49
$GPRMC,144057.9,A,3244.504265,N,11656.243627,W,37.9,239.9,150710,,,A*4A
$GPRMC,144100.9,A,3244.494005,N,11656.269553,W,31.1,242.1,150710,,,A*47
$GPRMC,144103.9,A,3244.477479,N,11656.296681,W,29.9,235.7,150710,,,A*4D
$GPRMC,144106.9,A,3244.467647,N,11656.312511,W,21.0,231.6,150710,,,A*45
$GPRMC,144109.9,A,3244.462392,N,11656.320010,W,10.3,225.4,150710,,,A*41
$GPRMC,144121.9,A,3244.462127,N,11656.320532,W,5.4,267.9,150710,,,A*7A
$GPRMC,144124.9,A,3244.459576,N,11656.332676,W,15.7,242.7,150710,,,A*4C
$GPRMC,144127.9,A,3244.448782,N,11656.355239,W,24.7,243.4,150710,,,A*48
$GPRMC,144130.9,A,3244.432606,N,11656.382474,W,32.3,240.6,150710,,,A*49
$GPRMC,144133.9,A,3244.417587,N,11656.411573,W,36.4,238.9,150710,,,A*4F
$GPRMC,144136.9,A,3244.399592,N,11656.446854,W,40.4,240.0,150710,,,A*42
$GPRMC,144139.9,A,3244.386321,N,11656.488402,W,44.6,255.4,150710,,,A*46
$GPRMC,144142.9,A,3244.382502,N,11656.533175,W,47.4,266.1,150710,,,A*49
$GPRMC,144145.9,A,3244.381311,N,11656.583967,W,50.4,269.7,150710,,,A*46
$GPRMC,144148.9,A,3244.380142,N,11656.633469,W,51.7,267.5,150710,,,A*4B
$GPRMC,144151.9,A,3244.376544,N,11656.686318,W,53.8,264.1,150710,,,A*4D
$GPRMC,144154.9,A,3244.370409,N,11656.740452,W,56.1,263.1,150710,,,A*4F
$GPRMC,144157.9,A,3244.363767,N,11656.796213,W,58.0,264.1,150710,,,A*45
$GPRMC,144200.9,A,3244.359962,N,11656.854804,W,59.8,265.2,150710,,,A*40
$GPRMC,144203.9,A,3244.357516,N,11656.917129,W,62.0,270.9,150710,,,A*4D
$GPRMC,144206.9,A,3244.365802,N,11656.974796,W,60.0,279.6,150710,,,A*42
$GPRMC,144209.9,A,3244.379442,N,11657.034070,W,61.9,286.6,150710,,,A*43
$GPRMC,144212.9,A,3244.400581,N,11657.089572,W,61.8,294.2,150710,,,A*49
$GPRMC,144215.9,A,3244.427170,N,11657.142606,W,63.0,301.1,150710,,,A*43
$GPRMC,144218.9,A,3244.459908,N,11657.192165,W,64.2,309.4,150710,,,A*47
$GPRMC,144221.9,A,3244.497279,N,11657.237175,W,63.9,315.9,150710,,,A*43
$GPRMC,144224.9,A,3244.539866,N,11657.273932,W,60.9,325.6,150710,,,A*43
$GPRMC,144227.9,A,3244.581612,N,11657.303360,W,55.2,329.0,150710,,,A*42
$GPRMC,144230.9,A,3244.619489,N,11657.325161,W,45.6,332.5,150710,,,A*4B
$GPRMC,144233.9,A,3244.641104,N,11657.342965,W,30.3,326.7,150710,,,A*48
$GPRMC,144236.9,A,3244.654384,N,11657.358509,W,18.5,321.1,150710,,,A*43
$GPRMC,144239.9,A,3244.658163,N,11657.360658,W,4.4,335.3,150710,,,A*7C
$GPRMC,144251.9,A,3244.660837,N,11657.357098,W,4.6,319.2,150710,,,A*72
$GPRMC,144254.9,A,3244.664076,N,11657.362183,W,6.6,318.5,150710,,,A*77
$GPRMC,144257.9,A,3244.668249,N,11657.371312,W,10.9,313.6,150710,,,A*4E
$GPRMC,144300.9,A,3244.676059,N,11657.383167,W,15.6,315.3,150710,,,A*45
$GPRMC,144303.9,A,3244.687426,N,11657.395444,W,20.8,316.0,150710,,,A*4F
$GPRMC,144306.9,A,3244.702626,N,11657.413611,W,26.7,309.1,150710,,,A*49
$GPRMC,144309.9,A,3244.715802,N,11657.438712,W,30.9,301.8,150710,,,A*4B
$GPRMC,144312.9,A,3244.728843,N,11657.470512,W,35.8,294.5,150710,,,A*40
$GPRMC,144315.9,A,3244.740058,N,11657.502789,W,36.9,289.4,150710,,,A*40
$GPRMC,144318.9,A,3244.746507,N,11657.543076,W,41.9,279.0,150710,,,A*4D
$GPRMC,144321.9,A,3244.747518,N,11657.584976,W,42.9,270.1,150710,,,A*41
$GPRMC,144324.9,A,3244.744127,N,11657.630211,W,44.8,263.7,150710,,,A*4A
$GPRMC,144327.9,A,3244.741256,N,11657.678973,W,49.1,266.6,150710,,,A*4A
$GPRMC,144330.9,A,3244.735407,N,11657.725371,W,48.4,260.1,150710,,,A*49
$GPRMC,144333.9,A,3244.722393,N,11657.772472,W,48.6,253.1,150710,,,A*42
$GPRMC,144336.9,A,3244.708967,N,11657.818957,W,49.8,252.2,150710,,,A*4A
$GPRMC,144339.9,A,3244.695639,N,11657.859021,W,43.5,253.0,150710,,,A*4D
$GPRMC,144342.9,A,3244.685900,N,11657.900291,W,42.3,254.7,150710,,,A*46
$GPRMC,144345.9,A,3244.678610,N,11657.941511,W,43.6,257.7,150710,,,A*40
$GPRMC,144348.9,A,3244.674583,N,11657.987480,W,47.2,264.8,150710,,,A*44
$GPRMC,144351.9,A,3244.674224,N,11658.037376,W,48.8,268.2,150710,,,A*46
$GPRMC,144354.9,A,3244.674068,N,11658.083160,W,47.5,269.9,150710,,,A*4B
$GPRMC,144357.9,A,3244.675105,N,11658.131889,W,48.8,271.0,150710,,,A*47
$GPRMC,144400.9,A,3244.677190,N,11658.179157,W,47.7,271.8,150710,,,A*42
$GPRMC,144403.9,A,3244.678819,N,11658.224506,W,45.8,271.8,150710,,,A*40
$GPRMC,144406.9,A,3244.679206,N,11658.269584,W,45.6,270.2,150710,,,A*46
$GPRMC,144409.9,A,3244.675036,N,11658.315935,W,47.6,268.6,150710,,,A*47
$GPRMC,144412.9,A,3244.675915,N,11658.365316,W,50.4,270.2,150710,,,A*40
$GPRMC,144415.9,A,3244.675766,N,11658.418130,W,53.1,269.6,150710,,,A*4C
$GPRMC,144418.9,A,3244.675482,N,11658.467704,W,51.6,269.6,150710,,,A*44
$GPRMC,144421.2,A,3244.677209,N,11658.507661,W,52.0,270.4,150710,,,A*48
$GPRMC,144424.9,A,3244.679301,N,11658.571623,W,53.1,270.8,150710,,,A*4A
$GPRMC,144427.9,A,3244.681700,N,11658.623693,W,52.9,271.1,150710,,,A*45
$GPRMC,144430.9,A,3244.678847,N,11658.674850,W,51.6,268.6,150710,,,A*49
$GPRMC,144433.9,A,3244.678927,N,11658.726232,W,52.0,270.5,150710,,,A*4A
$GPRMC,144436.9,A,3244.680885,N,11658.780287,W,56.1,271.2,150710,,,A*40
$GPRMC,144439.9,A,3244.680271,N,11658.836560,W,56.4,270.5,150710,,,A*41
$GPRMC,144442.9,A,3244.681514,N,11658.892728,W,55.6,270.8,150710,,,A*44
$GPRMC,144445.9,A,3244.683135,N,11658.947553,W,55.8,270.8,150710,,,A*4F
$GPRMC,144448.9,A,3244.682364,N,11659.002898,W,55.4,271.7,150710,,,A*44
$GPRMC,144451.9,A,3244.685636,N,11659.060824,W,60.6,272.7,150710,,,A*4D
$GPRMC,144454.9,A,3244.696437,N,11659.113236,W,54.2,280.7,150710,,,A*4B
$GPRMC,144457.9,A,3244.709911,N,11659.166011,W,54.0,286.8,150710,,,A*48
$GPRMC,144500.9,A,3244.727262,N,11659.214939,W,53.5,293.4,150710,,,A*47
$GPRMC,144503.9,A,3244.745804,N,11659.264351,W,55.4,293.9,150710,,,A*43
$GPRMC,144506.9,A,3244.769413,N,11659.316788,W,58.7,296.2,150710,,,A*46
$GPRMC,144509.9,A,3244.790501,N,11659.366655,W,56.6,295.6,150710,,,A*43
$GPRMC,144512.9,A,3244.810642,N,11659.418984,W,57.8,294.5,150710,,,A*4A
$GPRMC,144515.9,A,3244.831160,N,11659.472955,W,59.2,294.9,150710,,,A*41
$GPRMC,144518.9,A,3244.849745,N,11659.524974,W,57.5,293.3,150710,,,A*47
$GPRMC,144521.9,A,3244.871954,N,11659.576504,W,57.7,294.9,150710,,,A*4B
$GPRMC,144524.9,A,3244.892527,N,11659.628167,W,57.2,295.7,150710,,,A*48
$GPRMC,144527.9,A,3244.911827,N,11659.677310,W,55.5,295.2,150710,,,A*44
$GPRMC,144530.9,A,3244.929484,N,11659.727088,W,54.7,293.5,150710,,,A*48
$GPRMC,144533.9,A,3244.949258,N,11659.774515,W,52.5,294.8,150710,,,A*43
$GPRMC,144536.9,A,3244.963105,N,11659.825538,W,53.6,289.4,150710,,,A*43
$GPRMC,144539.9,A,3244.977110,N,11659.875806,W,55.2,287.4,150710,,,A*44
$GPRMC,144542.9,A,3244.988534,N,11659.933065,W,61.2,284.0,150710,,,A*44
$GPRMC,144545.9,A,3245.001914,N,11659.992962,W,63.3,285.1,150710,,,A*42
$GPRMC,144548.9,A,3245.016082,N,11700.053571,W,63.6,284.9,150710,,,A*44
$GPRMC,144551.9,A,3245.029890,N,11700.114571,W,62.2,285.2,150710,,,A*46
$GPRMC,144554.9,A,3245.045031,N,11700.171475,W,60.7,289.2,150710,,,A*47
$GPRMC,144557.9,A,3245.067203,N,11700.226753,W,61.9,297.6,150710,,,A*45
$GPRMC,144600.9,A,3245.096497,N,11700.278749,W,62.9,307.1,150710,,,A*4D
$GPRMC,144603.2,A,3245.122722,N,11700.315486,W,62.5,309.2,150710,,,A*4D
$GPRMC,144606.2,A,3245.162630,N,11700.357181,W,61.9,312.6,150710,,,A*4B
$GPRMC,144609.2,A,3245.193783,N,11700.405536,W,61.9,303.7,150710,,,A*4A
$GPRMC,144612.9,A,3245.222242,N,11700.470646,W,60.2,294.0,150710,,,A*4E
$GPRMC,144615.9,A,3245.236107,N,11700.527835,W,59.1,284.4,150710,,,A*4B
$GPRMC,144618.9,A,3245.242397,N,11700.584414,W,57.9,275.8,150710,,,A*4C
$GPRMC,144621.9,A,3245.239621,N,11700.641854,W,58.5,265.0,150710,,,A*4A
$GPRMC,144624.9,A,3245.228145,N,11700.697266,W,56.2,255.2,150710,,,A*42
$GPRMC,144627.9,A,3245.213778,N,11700.743837,W,48.0,247.6,150710,,,A*4D
$GPRMC,144630.9,A,3245.195381,N,11700.781614,W,40.3,237.5,150710,,,A*4A
$GPRMC,144633.9,A,3245.186841,N,11700.800854,W,22.5,231.5,150710,,,A*44
$GPRMC,144636.9,A,3245.180389,N,11700.810691,W,14.3,230.6,150710,,,A*4F
$GPRMC,144639.9,A,3245.177908,N,11700.816332,W,9.1,234.1,150710,,,A*7C
$GPRMC,144642.9,A,3245.171983,N,11700.821577,W,7.5,224.4,150710,,,A*78
$GPRMC,144645.9,A,3245.169153,N,11700.826622,W,5.5,224.6,150710,,,A*77
$GPRMC,144648.9,A,3245.163834,N,11700.831441,W,6.9,218.6,150710,,,A*79
$GPRMC,144651.9,A,3245.160123,N,11700.836017,W,7.0,221.5,150710,,,A*7C
$GPRMC,144654.9,A,3245.156485,N,11700.840504,W,6.3,221.8,150710,,,A*7C
$GPRMC,144657.9,A,3245.153295,N,11700.844197,W,5.1,226.1,150710,,,A*78
$GPRMC,144700.9,A,3245.149016,N,11700.848720,W,5.0,225.9,150710,,,A*75
$GPRMC,144703.9,A,3245.146217,N,11700.853212,W,5.7,228.5,150710,,,A*72
$GPRMC,144706.9,A,3245.142377,N,11700.855455,W,6.0,217.2,150710,,,A*78
$GPRMC,144709.9,A,3245.140891,N,11700.861019,W,5.5,230.5,150710,,,A*79
$GPRMC,144724.9,A,3245.129575,N,11700.874713,W,5.5,220.3,150710,,,A*70
$GPRMC,144733.9,A,3245.121586,N,11700.885746,W,8.4,225.4,150710,,,A*72
$GPRMC,144736.9,A,3245.119016,N,11700.889095,W,5.7,229.0,150710,,,A*73
$GPRMC,144739.9,A,3245.114356,N,11700.892588,W,6.1,222.4,150710,,,A*7F
$GPRMC,144742.9,A,3245.110694,N,11700.897953,W,6.5,221.1,150710,,,A*71
$GPRMC,144745.9,A,3245.105944,N,11700.900314,W,6.1,217.3,150710,,,A*75
$GPRMC,144748.9,A,3245.101651,N,11700.903050,W,5.4,212.9,150710,,,A*7E
$GPRMC,144751.9,A,3245.100919,N,11700.906566,W,4.6,230.4,150710,,,A*7F
$GPRMC,144757.9,A,3245.093947,N,11700.912664,W,7.7,228.6,150710,,,A*74
$GPRMC,144800.9,A,3245.082323,N,11700.927760,W,21.1,228.6,150710,,,A*40
$GPRMC,144803.9,A,3245.062308,N,11700.946776,W,31.6,217.8,150710,,,A*40
$GPRMC,144806.9,A,3245.035828,N,11700.970240,W,37.9,218.5,150710,,,A*40
$GPRMC,144809.9,A,3245.002948,N,11700.995986,W,46.8,214.9,150710,,,A*41
$GPRMC,144812.9,A,3244.962087,N,11701.021657,W,51.6,213.4,150710,,,A*49
$GPRMC,144815.9,A,3244.926055,N,11701.052958,W,54.1,217.9,150710,,,A*4E
$GPRMC,144818.9,A,3244.892659,N,11701.091668,W,57.2,226.3,150710,,,A*4C
$GPRMC,144821.9,A,3244.863479,N,11701.137447,W,59.1,236.9,150710,,,A*4C
$GPRMC,144824.9,A,3244.838585,N,11701.190000,W,61.5,241.3,150710,,,A*4A
$GPRMC,144827.9,A,3244.822020,N,11701.247518,W,60.6,252.9,150710,,,A*47
$GPRMC,144830.9,A,3244.813104,N,11701.303220,W,58.0,261.7,150710,,,A*4A
$GPRMC,144833.9,A,3244.814073,N,11701.356596,W,55.0,270.1,150710,,,A*4E
$GPRMC,144836.9,A,3244.815558,N,11701.411166,W,56.1,272.6,150710,,,A*4E
$GPRMC,144839.9,A,3244.820168,N,11701.467107,W,58.5,275.1,150710,,,A*4C
$GPRMC,144842.9,A,3244.824090,N,11701.527831,W,61.6,275.3,150710,,,A*40
$GPRMC,144845.9,A,3244.829699,N,11701.590258,W,64.0,275.3,150710,,,A*4F
$GPRMC,144848.9,A,3244.830322,N,11701.655855,W,65.9,269.4,150710,,,A*40
$GPRMC,144851.9,A,3244.822751,N,11701.719373,W,66.0,263.7,150710,,,A*4E
$GPRMC,144854.9,A,3244.809570,N,11701.780031,W,63.1,255.4,150710,,,A*44
$GPRMC,144857.9,A,3244.794221,N,11701.839910,W,62.3,253.6,150710,,,A*4F
$GPRMC,144900.9,A,3244.777879,N,11701.899243,W,60.6,252.3,150710,,,A*42
$GPRMC,144903.9,A,3244.760851,N,11701.955911,W,61.7,251.5,150710,,,A*45
$GPRMC,144906.9,A,3244.744163,N,11702.012408,W,61.1,251.8,150710,,,A*49
$GPRMC,144909.9,A,3244.730084,N,11702.068529,W,60.7,252.5,150710,,,A*4B
$GPRMC,144912.9,A,3244.714917,N,11702.127687,W,63.7,254.3,150710,,,A*4A
$GPRMC,144915.9,A,3244.703467,N,11702.191271,W,68.5,258.4,150710,,,A*43
$GPRMC,144918.9,A,3244.695477,N,11702.259370,W,68.3,261.4,150710,,,A*4A
$GPRMC,144921.9,A,3244.690344,N,11702.324504,W,67.1,265.5,150710,,,A*44
$GPRMC,144924.9,A,3244.690185,N,11702.389191,W,64.3,269.4,150710,,,A*4D
$GPRMC,144927.9,A,3244.691191,N,11702.451894,W,63.2,270.7,150710,,,A*49
$GPRMC,144930.9,A,3244.692606,N,11702.513766,W,63.1,270.8,150710,,,A*4C
$GPRMC,144933.2,A,3244.692472,N,11702.560873,W,62.0,270.3,150710,,,A*41
$GPRMC,144936.2,A,3244.692288,N,11702.622773,W,62.5,270.6,150710,,,A*4D
$GPRMC,144939.2,A,3244.692789,N,11702.684597,W,62.7,270.5,150710,,,A*43
$GPRMC,144942.2,A,3244.691325,N,11702.745924,W,63.5,263.4,150710,,,A*46
$GPRMC,144945.2,A,3244.679698,N,11702.806679,W,63.1,252.2,150710,,,A*4B
$GPRMC,144948.9,A,3244.653141,N,11702.874771,W,60.1,240.5,150710,,,A*4D
$GPRMC,144951.9,A,3244.618493,N,11702.922415,W,62.1,229.3,150710,,,A*48
$GPRMC,144954.9,A,3244.584735,N,11702.967235,W,59.8,227.9,150710,,,A*44
$GPRMC,144957.9,A,3244.551660,N,11703.009706,W,58.2,227.3,150710,,,A*4A
$GPRMC,145000.9,A,3244.520984,N,11703.051622,W,57.8,227.9,150710,,,A*46
$GPRMC,145003.9,A,3244.487104,N,11703.091210,W,55.2,224.5,150710,,,A*47
$GPRMC,145006.9,A,3244.458096,N,11703.128199,W,49.9,224.2,150710,,,A*4A
$GPRMC,145009.9,A,3244.431527,N,11703.157345,W,44.1,220.1,150710,,,A*4C
$GPRMC,145012.9,A,3244.405747,N,11703.181782,W,39.7,218.2,150710,,,A*45
$GPRMC,145015.9,A,3244.382369,N,11703.204292,W,33.6,218.0,150710,,,A*41
$GPRMC,145018.9,A,3244.362072,N,11703.222887,W,30.9,217.4,150710,,,A*46
$GPRMC,145021.9,A,3244.342005,N,11703.239952,W,29.0,217.5,150710,,,A*4D
$GPRMC,145024.9,A,3244.322102,N,11703.257513,W,28.1,217.7,150710,,,A*4B
$GPRMC,145027.9,A,3244.304724,N,11703.273243,W,26.5,217.8,150710,,,A*4F
$GPRMC,145030.9,A,3244.288476,N,11703.290447,W,26.1,217.9,150710,,,A*42
$GPRMC,145033.9,A,3244.272582,N,11703.303114,W,22.0,215.2,150710,,,A*4A
$GPRMC,145036.9,A,3244.257842,N,11703.316473,W,21.6,218.9,150710,,,A*4A
$GPRMC,145039.9,A,3244.245192,N,11703.328750,W,19.3,216.5,150710,,,A*41
$GPRMC,145042.9,A,3244.231630,N,11703.337659,W,17.3,212.6,150710,,,A*4E
$GPRMC,145045.9,A,3244.220081,N,11703.349641,W,19.1,219.2,150710,,,A*46
$GPRMC,145048.9,A,3244.205456,N,11703.364312,W,25.8,217.5,150710,,,A*41
$GPRMC,145051.9,A,3244.189189,N,11703.379485,W,25.4,218.0,150710,,,A*4A
$GPRMC,145054.9,A,3244.171685,N,11703.395139,W,26.7,218.4,150710,,,A*47
$GPRMC,145057.9,A,3244.151540,N,11703.413413,W,30.5,218.7,150710,,,A*4E
$GPRMC,145100.9,A,3244.130105,N,11703.429504,W,27.9,216.1,150710,,,A*43
$GPRMC,145103.9,A,3244.118585,N,11703.442901,W,16.5,218.2,150710,,,A*41
$GPRMC,145106.9,A,3244.113574,N,11703.445865,W,5.0,207.2,150710,,,A*7C
$GPRMC,145133.9,A,3244.103244,N,11703.456217,W,10.6,221.7,150710,,,A*41
$GPRMC,145136.9,A,3244.088519,N,11703.469252,W,20.0,219.0,150710,,,A*4D
$GPRMC,145139.9,A,3244.068136,N,11703.489151,W,31.4,219.6,150710,,,A*49
$GPRMC,145142.9,A,3244.046211,N,11703.508486,W,33.1,217.4,150710,,,A*43
$GPRMC,145145.9,A,3244.023493,N,11703.530508,W,35.0,220.5,150710,,,A*45
$GPRMC,145148.9,A,3244.004611,N,11703.553503,W,32.9,224.0,150710,,,A*44
$GPRMC,145151.9,A,3243.985554,N,11703.574090,W,31.2,222.9,150710,,,A*44
$GPRMC,145154.9,A,3243.969746,N,11703.592619,W,26.6,224.2,150710,,,A*42
$GPRMC,145157.9,A,3243.956503,N,11703.607657,W,20.5,222.5,150710,,,A*4F
$GPRMC,145200.9,A,3243.949583,N,11703.618931,W,14.9,226.2,150710,,,A*41
$GPRMC,145203.9,A,3243.943505,N,11703.628015,W,14.4,230.8,150710,,,A*4A
$GPRMC,145206.9,A,3243.938320,N,11703.638343,W,13.5,238.6,150710,,,A*43
$GPRMC,145209.9,A,3243.934479,N,11703.643354,W,6.6,226.0,150710,,,A*7F
$GPRMC,145221.9,A,3243.929675,N,11703.650162,W,9.1,240.5,150710,,,A*7F
$GPRMC,145224.9,A,3243.920088,N,11703.662355,W,16.5,233.3,150710,,,A*48
$GPRMC,145227.9,A,3243.909158,N,11703.679276,W,22.2,230.2,150710,,,A*44
$GPRMC,145230.9,A,3243.896158,N,11703.696342,W,24.7,229.6,150710,,,A*4D
$GPRMC,145233.9,A,3243.883015,N,11703.719275,W,29.1,233.9,150710,,,A*4E
$GPRMC,145236.9,A,3243.865162,N,11703.743507,W,33.0,231.3,150710,,,A*4D
$GPRMC,145239.9,A,3243.846553,N,11703.771642,W,37.0,232.7,150710,,,A*45
$GPRMC,145242.9,A,3243.827552,N,11703.802496,W,37.9,236.7,150710,,,A*42
$GPRMC,145245.9,A,3243.807005,N,11703.835219,W,37.9,235.5,150710,,,A*44
$GPRMC,145248.9,A,3243.791994,N,11703.866882,W,36.3,238.4,150710,,,A*41
$GPRMC,145251.9,A,3243.778644,N,11703.896020,W,34.8,241.1,150710,,,A*41
$GPRMC,145254.9,A,3243.764430,N,11703.927538,W,36.0,242.7,150710,,,A*40
$GPRMC,145257.9,A,3243.754154,N,11703.956524,W,33.9,245.5,150710,,,A*45
$GPRMC,145300.9,A,3243.745809,N,11703.986764,W,34.3,247.4,150710,,,A*42
$GPRMC,145303.9,A,3243.733675,N,11704.020927,W,35.5,247.4,150710,,,A*49
$GPRMC,145306.9,A,3243.720851,N,11704.053310,W,35.1,245.3,150710,,,A*4D
$GPRMC,145309.9,A,3243.708370,N,11704.084751,W,35.9,244.9,150710,,,A*48
$GPRMC,145312.9,A,3243.697290,N,11704.119873,W,38.7,248.9,150710,,,A*4F
$GPRMC,145315.9,A,3243.685345,N,11704.156716,W,39.1,248.1,150710,,,A*4A
$GPRMC,145318.9,A,3243.673483,N,11704.191485,W,37.6,246.6,150710,,,A*41
$GPRMC,145321.9,A,3243.663665,N,11704.221391,W,32.3,246.5,150710,,,A*49
$GPRMC,145324.9,A,3243.652216,N,11704.246139,W,26.7,243.6,150710,,,A*48
$GPRMC,145327.9,A,3243.644294,N,11704.263510,W,20.5,240.5,150710,,,A*4A
$GPRMC,145330.9,A,3243.639157,N,11704.277827,W,17.2,242.7,150710,,,A*45
$GPRMC,145333.9,A,3243.634938,N,11704.288947,W,15.7,237.0,150710,,,A*4F
$GPRMC,145336.9,A,3243.625465,N,11704.302577,W,17.2,233.3,150710,,,A*43
$GPRMC,145339.9,A,3243.616831,N,11704.319110,W,17.9,236.6,150710,,,A*45
$GPRMC,145342.9,A,3243.606912,N,11704.333029,W,13.6,227.6,150710,,,A*40
$GPRMC,145403.9,A,3243.602140,N,11704.340733,W,6.0,231.6,150710,,,A*74
$GPRMC,145406.9,A,3243.595625,N,11704.350046,W,13.5,231.8,150710,,,A*43
$GPRMC,145409.9,A,3243.585615,N,11704.364746,W,18.7,230.8,150710,,,A*46
$GPRMC,145412.9,A,3243.573898,N,11704.379373,W,20.5,230.9,150710,,,A*48
$GPRMC,145415.9,A,3243.561256,N,11704.393517,W,22.2,225.9,150710,,,A*45
$GPRMC,145418.9,A,3243.544700,N,11704.410870,W,26.1,225.6,150710,,,A*41
$GPRMC,145421.9,A,3243.532742,N,11704.430360,W,26.4,229.3,150710,,,A*48
$GPRMC,145424.9,A,3243.519487,N,11704.450932,W,26.6,228.5,150710,,,A*40
$GPRMC,145427.9,A,3243.505533,N,11704.468540,W,23.9,228.7,150710,,,A*4A
$GPRMC,145430.9,A,3243.492817,N,11704.489959,W,26.9,232.4,150710,,,A*4E
$GPRMC,145433.9,A,3243.476099,N,11704.514105,W,33.4,231.1,150710,,,A*42
$GPRMC,145436.9,A,3243.454367,N,11704.541008,W,37.2,228.6,150710,,,A*44
$GPRMC,145439.9,A,3243.433414,N,11704.568676,W,36.8,228.8,150710,,,A*48
$GPRMC,145442.9,A,3243.414480,N,11704.595766,W,36.5,228.3,150710,,,A*48
$GPRMC,145445.9,A,3243.392450,N,11704.622183,W,37.4,228.8,150710,,,A*42
$GPRMC,145448.9,A,3243.375300,N,11704.646623,W,30.0,229.7,150710,,,A*46
$GPRMC,145451.9,A,3243.355983,N,11704.670655,W,31.8,225.6,150710,,,A*4D
$GPRMC,145454.9,A,3243.343143,N,11704.688701,W,26.5,228.3,150710,,,A*4F
$GPRMC,145457.9,A,3243.330909,N,11704.709103,W,25.8,230.3,150710,,,A*45
$GPRMC,145500.9,A,3243.315443,N,11704.727414,W,26.5,227.6,150710,,,A*40
$GPRMC,145503.9,A,3243.300468,N,11704.745789,W,25.3,227.7,150710,,,A*49
$GPRMC,145506.9,A,3243.290998,N,11704.758721,W,16.6,227.7,150710,,,A*4D
$GPRMC,145509.9,A,3243.280337,N,11704.769300,W,12.6,217.2,150710,,,A*4B
$GPRMC,145512.9,A,3243.275487,N,11704.774646,W,7.4,216.3,150710,,,A*7A
$GPRMC,145518.9,A,3243.273465,N,11704.782413,W,7.4,237.0,150710,,,A*71
$GPRMC,145521.9,A,3243.266646,N,11704.790954,W,13.1,231.8,150710,,,A*4F
$GPRMC,145524.9,A,3243.250973,N,11704.807473,W,23.3,228.4,150710,,,A*4A
$GPRMC,145527.9,A,3243.237254,N,11704.828347,W,25.6,228.7,150710,,,A*4B
$GPRMC,145530.9,A,3243.221441,N,11704.846122,W,26.6,225.4,150710,,,A*4C
$GPRMC,145533.9,A,3243.206268,N,11704.865009,W,27.5,225.7,150710,,,A*4F
$GPRMC,145536.9,A,3243.189217,N,11704.888755,W,32.2,229.8,150710,,,A*4B
$GPRMC,145539.9,A,3243.171878,N,11704.914205,W,32.7,230.9,150710,,,A*48
$GPRMC,145542.9,A,3243.157782,N,11704.937597,W,28.4,231.6,150710,,,A*41
$GPRMC,145545.9,A,3243.149839,N,11704.956752,W,22.9,237.0,150710,,,A*4D
$GPRMC,145548.9,A,3243.135462,N,11704.973647,W,22.4,231.7,150710,,,A*47
$GPRMC,145551.9,A,3243.124390,N,11704.993135,W,23.1,235.6,150710,,,A*48
$GPRMC,145554.9,A,3243.112138,N,11705.012228,W,23.4,239.6,150710,,,A*4F
$GPRMC,145557.9,A,3243.103489,N,11705.032461,W,21.7,243.0,150710,,,A*40
$GPRMC,145600.9,A,3243.099032,N,11705.048975,W,18.7,249.3,150710,,,A*41
$GPRMC,145603.9,A,3243.092415,N,11705.066266,W,19.8,248.4,150710,,,A*45
$GPRMC,145606.9,A,3243.090803,N,11705.082090,W,16.9,257.0,150710,,,A*4C
$GPRMC,145609.9,A,3243.086485,N,11705.097568,W,15.2,261.4,150710,,,A*49
$GPRMC,145612.9,A,3243.082021,N,11705.114871,W,18.4,256.5,150710,,,A*4C
$GPRMC,145615.9,A,3243.078259,N,11705.134655,W,18.7,261.1,150710,,,A*4A
$GPRMC,145618.9,A,3243.078534,N,11705.150845,W,13.9,267.5,150710,,,A*41
$GPRMC,145621.9,A,3243.075191,N,11705.165406,W,17.6,261.4,150710,,,A*4C
$GPRMC,145624.9,A,3243.072814,N,11705.186292,W,22.2,260.5,150710,,,A*4E
$GPRMC,145627.9,A,3243.070865,N,11705.210302,W,23.3,264.0,150710,,,A*4C
$GPRMC,145630.9,A,3243.073822,N,11705.240666,W,29.0,272.8,150710,,,A*4E
$GPRMC,145633.9,A,3243.074795,N,11705.274156,W,32.4,270.5,150710,,,A*4B
$GPRMC,145636.9,A,3243.076206,N,11705.305996,W,33.0,271.1,150710,,,A*40
$GPRMC,145639.9,A,3243.076203,N,11705.334584,W,30.9,271.5,150710,,,A*49
$GPRMC,145642.9,A,3243.074664,N,11705.367690,W,34.9,268.8,150710,,,A*43
$GPRMC,145645.9,A,3243.077291,N,11705.403939,W,33.4,276.0,150710,,,A*4D
$GPRMC,145648.9,A,3243.076661,N,11705.438152,W,32.3,270.4,150710,,,A*43
$GPRMC,145651.9,A,3243.074194,N,11705.474801,W,36.5,269.4,150710,,,A*49
$GPRMC,145654.9,A,3243.077589,N,11705.520023,W,41.1,275.6,150710,,,A*44
$GPRMC,145657.9,A,3243.084385,N,11705.561874,W,43.3,282.1,150710,,,A*41
$GPRMC,145700.9,A,3243.096513,N,11705.602404,W,45.1,287.2,150710,,,A*47
$GPRMC,145703.9,A,3243.112666,N,11705.644987,W,46.4,294.0,150710,,,A*4A
$GPRMC,145706.9,A,3243.130524,N,11705.688066,W,46.7,293.5,150710,,,A*4D
$GPRMC,145709.9,A,3243.144196,N,11705.730286,W,47.8,291.0,150710,,,A*4B
$GPRMC,145712.9,A,3243.151391,N,11705.776140,W,46.2,277.9,150710,,,A*41
$GPRMC,145715.9,A,3243.151102,N,11705.823902,W,48.4,269.8,150710,,,A*49
$GPRMC,145718.9,A,3243.149869,N,11705.869861,W,48.7,270.2,150710,,,A*42
$GPRMC,145721.9,A,3243.151285,N,11705.915394,W,47.8,271.7,150710,,,A*46
$GPRMC,145724.9,A,3243.149236,N,11705.967913,W,52.1,269.5,150710,,,A*44
$GPRMC,145727.9,A,3243.150352,N,11706.020717,W,54.0,270.8,150710,,,A*4D
$GPRMC,145730.9,A,3243.148947,N,11706.078440,W,56.5,268.9,150710,,,A*4F
$GPRMC,145733.9,A,3243.145149,N,11706.137608,W,57.6,267.4,150710,,,A*43
$GPRMC,145736.9,A,3243.141251,N,11706.196987,W,57.4,263.6,150710,,,A*4F
$GPRMC,145739.9,A,3243.134494,N,11706.250847,W,55.7,257.9,150710,,,A*40
$GPRMC,145742.9,A,3243.120658,N,11706.307201,W,59.0,254.8,150710,,,A*49
$GPRMC,145745.9,A,3243.107795,N,11706.365191,W,59.4,255.3,150710,,,A*4B
$GPRMC,145748.9,A,3243.097110,N,11706.417216,W,56.0,256.4,150710,,,A*44
$GPRMC,145751.9,A,3243.092206,N,11706.465343,W,51.5,263.1,150710,,,A*48
$GPRMC,145754.9,A,3243.090557,N,11706.518202,W,53.1,269.1,150710,,,A*4F
$GPRMC,145757.9,A,3243.090647,N,11706.572135,W,54.4,269.4,150710,,,A*42
$GPRMC,145800.9,A,3243.092350,N,11706.625528,W,54.5,271.4,150710,,,A*4F
$GPRMC,145803.9,A,3243.089536,N,11706.681113,W,54.9,263.6,150710,,,A*4F
$GPRMC,145806.9,A,3243.081438,N,11706.731567,W,52.4,258.4,150710,,,A*41
$GPRMC,145809.9,A,3243.074732,N,11706.783728,W,51.3,260.7,150710,,,A*41
$GPRMC,145812.9,A,3243.067777,N,11706.833582,W,50.9,259.6,150710,,,A*4E
$GPRMC,145815.9,A,3243.059887,N,11706.883605,W,50.7,259.1,150710,,,A*4A
$GPRMC,145818.9,A,3243.051849,N,11706.930560,W,49.2,259.4,150710,,,A*4C
$GPRMC,145821.9,A,3243.044049,N,11706.980141,W,51.6,260.3,150710,,,A*46
$GPRMC,145824.9,A,3243.034371,N,11707.027559,W,49.4,257.2,150710,,,A*4A
$GPRMC,145827.9,A,3243.028275,N,11707.074659,W,48.4,260.7,150710,,,A*44
$GPRMC,145830.9,A,3243.018657,N,11707.126498,W,52.8,256.9,150710,,,A*40
$GPRMC,145833.2,A,3243.010076,N,11707.164745,W,52.5,254.3,150710,,,A*45
$GPRMC,145836.2,A,3242.994212,N,11707.213261,W,51.8,249.6,150710,,,A*43
$GPRMC,145839.2,A,3242.979220,N,11707.261912,W,53.3,249.6,150710,,,A*4D
$GPRMC,145842.9,A,3242.959595,N,11707.322431,W,52.5,247.4,150710,,,A*40
$GPRMC,145845.9,A,3242.945993,N,11707.371734,W,52.1,250.3,150710,,,A*45
$GPRMC,145848.9,A,3242.932696,N,11707.421460,W,53.3,251.5,150710,,,A*46
$GPRMC,145851.9,A,3242.917214,N,11707.472257,W,54.9,251.0,150710,,,A*4B
$GPRMC,145854.9,A,3242.901101,N,11707.521129,W,53.9,249.9,150710,,,A*44
$GPRMC,145857.9,A,3242.886538,N,11707.571819,W,54.8,251.1,150710,,,A*4F
$GPRMC,145900.9,A,3242.871378,N,11707.626192,W,57.8,250.4,150710,,,A*4A
$GPRMC,145903.9,A,3242.857360,N,11707.677188,W,55.0,251.2,150710,,,A*46
$GPRMC,145906.9,A,3242.844771,N,11707.722970,W,48.6,251.2,150710,,,A*41
$GPRMC,145909.9,A,3242.833439,N,11707.761119,W,41.2,249.6,150710,,,A*41
$GPRMC,145913.2,A,3242.825696,N,11707.800171,W,36.7,255.8,150710,,,A*41
$GPRMC,145916.9,A,3242.816758,N,11707.842682,W,36.3,257.7,150710,,,A*48
$GPRMC,145919.9,A,3242.810329,N,11707.877091,W,35.5,260.4,150710,,,A*43
$GPRMC,145922.9,A,3242.808341,N,11707.910348,W,34.0,264.0,150710,,,A*4F
$GPRMC,145925.9,A,3242.804732,N,11707.941971,W,32.7,263.7,150710,,,A*41
$GPRMC,145928.9,A,3242.803186,N,11707.971941,W,30.5,267.3,150710,,,A*42
$GPRMC,145931.9,A,3242.798125,N,11708.002312,W,31.1,264.8,150710,,,A*4D
$GPRMC,145934.9,A,3242.798886,N,11708.029694,W,27.2,271.2,150710,,,A*40
$GPRMC,145937.9,A,3242.800608,N,11708.046862,W,14.2,279.0,150710,,,A*41
$GPRMC,145940.9,A,3242.800759,N,11708.052474,W,5.1,271.0,150710,,,A*71
$GPRMC,145949.9,A,3242.798367,N,11708.062417,W,10.0,270.9,150710,,,A*44
$GPRMC,145952.9,A,3242.800149,N,11708.074059,W,12.9,275.9,150710,,,A*49
$GPRMC,145955.9,A,3242.801885,N,11708.090862,W,15.7,274.3,150710,,,A*4E
$GPRMC,145958.9,A,3242.802065,N,11708.110202,W,16.7,271.8,150710,,,A*4E
$GPRMC,150001.9,A,3242.799615,N,11708.125364,W,15.1,267.5,150710,,,A*4B
$GPRMC,150004.9,A,3242.800168,N,11708.139488,W,15.2,270.2,150710,,,A*46
$GPRMC,150007.9,A,3242.800525,N,11708.155253,W,19.2,272.0,150710,,,A*4E
$GPRMC,150010.9,A,3242.800933,N,11708.178446,W,24.2,272.6,150710,,,A*46
$GPRMC,150013.9,A,3242.800420,N,11708.206201,W,25.3,270.8,150710,,,A*49
$GPRMC,150016.9,A,3242.801973,N,11708.228068,W,21.5,271.3,150710,,,A*4F
$GPRMC,150019.9,A,3242.801704,N,11708.247702,W,19.4,272.0,150710,,,A*46
$GPRMC,150022.9,A,3242.799795,N,11708.271225,W,22.7,265.3,150710,,,A*43
$GPRMC,150025.9,A,3242.799726,N,11708.295107,W,23.5,270.2,150710,,,A*43
$GPRMC,150028.9,A,3242.798644,N,11708.316947,W,17.3,266.4,150710,,,A*4C
$GPRMC,150031.9,A,3242.798251,N,11708.326327,W,6.6,264.2,150710,,,A*7A
$GPRMC,150058.9,A,3242.803338,N,11708.345709,W,11.6,273.8,150710,,,A*41
$GPRMC,150101.9,A,3242.803112,N,11708.364654,W,20.0,270.6,150710,,,A*45
$GPRMC,150104.9,A,3242.799637,N,11708.392770,W,26.8,266.3,150710,,,A*4E
$GPRMC,150107.9,A,3242.797314,N,11708.418259,W,24.1,268.5,150710,,,A*4F
$GPRMC,150110.2,A,3242.796799,N,11708.432503,W,20.2,271.0,150710,,,A*48
$GPRMC,150113.9,A,3242.799967,N,11708.454901,W,17.5,273.3,150710,,,A*4C
$GPRMC,150116.9,A,3242.799761,N,11708.468230,W,12.4,270.4,150710,,,A*47
$GPRMC,150119.9,A,3242.801484,N,11708.476264,W,7.2,274.2,150710,,,A*70
$GPRMC,150122.9,A,3242.800248,N,11708.482954,W,7.8,265.7,150710,,,A*73
$GPRMC,150125.9,A,3242.801180,N,11708.489050,W,7.3,273.5,150710,,,A*7A
$GPRMC,150128.9,A,3242.800502,N,11708.498750,W,6.7,270.2,150710,,,A*7E
$GPRMC,150131.9,A,3242.801451,N,11708.504245,W,6.3,274.4,150710,,,A*73
$GPRMC,150134.9,A,3242.799034,N,11708.512602,W,7.7,257.2,150710,,,A*7D
$GPRMC,150137.9,A,3242.797607,N,11708.526009,W,9.2,262.6,150710,,,A*75
$GPRMC,150140.9,A,3242.796823,N,11708.531489,W,4.5,263.1,150710,,,A*7A
$GPRMC,150143.9,A,3242.797621,N,11708.535813,W,4.9,272.1,150710,,,A*73
$GPRMC,150146.9,A,3242.799396,N,11708.545731,W,9.0,272.0,150710,,,A*7C
$GPRMC,150149.9,A,3242.799041,N,11708.552502,W,5.0,265.3,150710,,,A*77
$GPRMC,150155.9,A,3242.801649,N,11708.559741,W,4.4,269.2,150710,,,A*7C
$GPRMC,150158.9,A,3242.801191,N,11708.566740,W,6.6,269.5,150710,,,A*79
$GPRMC,150201.9,A,3242.800946,N,11708.577899,W,8.9,270.7,150710,,,A*75
$GPRMC,150204.2,A,3242.801140,N,11708.581630,W,5.2,269.8,150710,,,A*71
$GPRMC,150210.2,A,3242.801202,N,11708.589494,W,5.6,272.7,150710,,,A*74
$GPRMC,150213.2,A,3242.801618,N,11708.597534,W,7.8,274.9,150710,,,A*78
$GPRMC,150216.2,A,3242.802330,N,11708.606928,W,9.1,273.8,150710,,,A*7A
$GPRMC,150219.9,A,3242.803815,N,11708.619116,W,9.2,275.2,150710,,,A*77
$GPRMC,150222.9,A,3242.803520,N,11708.628402,W,9.5,271.9,150710,,,A*7E
$GPRMC,150225.9,A,3242.803953,N,11708.638482,W,10.3,268.7,150710,,,A*40
$GPRMC,150228.2,A,3242.803287,N,11708.647254,W,9.9,269.2,150710,,,A*77
$GPRMC,150231.9,A,3242.805105,N,11708.660010,W,8.0,272.8,150710,,,A*74
$GPRMC,150234.9,A,3242.805737,N,11708.669067,W,8.4,271.8,150710,,,A*78
$GPRMC,150237.9,A,3242.806303,N,11708.679161,W,9.7,271.8,150710,,,A*7F
$GPRMC,150240.9,A,3242.810620,N,11708.689006,W,10.0,282.4,150710,,,A*4C
$GPRMC,150243.9,A,3242.813425,N,11708.699421,W,11.1,277.7,150710,,,A*42
$GPRMC,150246.9,A,3242.813601,N,11708.711113,W,10.6,274.7,150710,,,A*43
$GPRMC,150249.9,A,3242.814943,N,11708.721758,W,10.7,279.5,150710,,,A*46
$GPRMC,150252.9,A,3242.817966,N,11708.729547,W,9.4,286.2,150710,,,A*70
$GPRMC,150255.9,A,3242.820776,N,11708.736956,W,8.0,292.2,150710,,,A*7E
$GPRMC,150258.9,A,3242.823112,N,11708.743535,W,7.2,294.4,150710,,,A*72
$GPRMC,150301.9,A,3242.824474,N,11708.750984,W,7.4,289.2,150710,,,A*75
$GPRMC,150304.9,A,3242.827158,N,11708.757488,W,7.2,293.5,150710,,,A*74
$GPRMC,150307.9,A,3242.830366,N,11708.762788,W,7.3,301.2,150710,,,A*77
$GPRMC,150310.9,A,3242.832684,N,11708.770683,W,6.8,295.9,150710,,,A*7E
$GPRMC,150313.9,A,3242.838320,N,11708.776055,W,7.2,310.8,150710,,,A*71
$GPRMC,150316.9,A,3242.843732,N,11708.780069,W,7.7,316.6,150710,,,A*74
$GPRMC,150319.9,A,3242.846912,N,11708.785918,W,6.6,308.9,150710,,,A*78
$GPRMC,150322.9,A,3242.851278,N,11708.789687,W,6.5,313.9,150710,,,A*7D
$GPRMC,150325.9,A,3242.853940,N,11708.794794,W,6.5,310.7,150710,,,A*7A
$GPRMC,150328.9,A,3242.858610,N,11708.800863,W,9.6,313.2,150710,,,A*79
$GPRMC,150331.9,A,3242.865231,N,11708.809506,W,11.2,318.7,150710,,,A*4C
$GPRMC,150334.9,A,3242.874738,N,11708.816148,W,13.4,326.4,150710,,,A*4F
$GPRMC,150337.9,A,3242.886404,N,11708.824000,W,16.1,331.8,150710,,,A*4B
$GPRMC,150340.9,A,3242.898721,N,11708.831411,W,16.3,334.9,150710,,,A*46
$GPRMC,150343.9,A,3242.910406,N,11708.837060,W,16.9,346.1,150710,,,A*41
$GPRMC,150346.9,A,3242.923498,N,11708.839851,W,14.5,348.0,150710,,,A*46
$GPRMC,150349.9,A,3242.934104,N,11708.840427,W,13.2,355.5,150710,,,A*45
$GPRMC,150353.2,A,3242.945590,N,11708.844377,W,12.3,344.1,150710,,,A*48
$GPRMC,150408.0,A,3242.955085,N,11708.843342,W,5.2,3.2,150710,,,A*76
$GPRMC,150411.9,A,3242.966285,N,11708.844237,W,9.6,353.8,150710,,,A*75
$GPRMC,150414.9,A,3242.978072,N,11708.844273,W,11.8,354.0,150710,,,A*4D
$GPRMC,150417.9,A,3242.985803,N,11708.843392,W,8.0,0.6,150710,,,A*7F
$GPRMC,150420.9,A,3242.990085,N,11708.843479,W,5.3,354.1,150710,,,A*70
$GPRMC,150423.9,A,3242.995726,N,11708.845783,W,6.2,350.8,150710,,,A*77
$GPRMC,150426.9,A,3243.006208,N,11708.846174,W,12.1,358.7,150710,,,A*45
$GPRMC,150429.9,A,3243.022956,N,11708.846520,W,19.5,358.6,150710,,,A*47
$GPRMC,150432.9,A,3243.040015,N,11708.847704,W,20.5,357.8,150710,,,A*49
$GPRMC,150435.9,A,3243.058380,N,11708.847391,W,22.5,357.5,150710,,,A*4F
$GPRMC,150438.9,A,3243.078330,N,11708.849474,W,24.4,356.3,150710,,,A*49
$GPRMC,150441.9,A,3243.099684,N,11708.852358,W,26.1,353.0,150710,,,A*40
$GPRMC,150444.9,A,3243.123080,N,11708.854270,W,29.6,354.9,150710,,,A*4C
$GPRMC,150447.9,A,3243.152433,N,11708.860813,W,35.3,350.3,150710,,,A*4B
$GPRMC,150450.2,A,3243.177581,N,11708.866533,W,42.2,347.7,150710,,,A*43
$GPRMC,150453.9,A,3243.222114,N,11708.878511,W,46.1,344.6,150710,,,A*4A
$GPRMC,150456.9,A,3243.258072,N,11708.894171,W,44.1,340.4,150710,,,A*47
$GPRMC,150459.9,A,3243.288559,N,11708.907464,W,36.8,338.6,150710,,,A*42
$GPRMC,150502.9,A,3243.312302,N,11708.918590,W,31.2,338.0,150710,,,A*48
$GPRMC,150505.9,A,3243.336686,N,11708.930413,W,30.5,337.0,150710,,,A*49
$GPRMC,150508.9,A,3243.358656,N,11708.948303,W,28.5,328.0,150710,,,A*4F
$GPRMC,150511.9,A,3243.372493,N,11708.959051,W,22.1,329.1,150710,,,A*4E
$GPRMC,150514.9,A,3243.388461,N,11708.971427,W,22.9,324.1,150710,,,A*49
$GPRMC,150517.9,A,3243.401652,N,11708.983518,W,23.8,321.9,150710,,,A*43
$GPRMC,150520.9,A,3243.419055,N,11709.000861,W,27.9,316.8,150710,,,A*4F
$GPRMC,150524.2,A,3243.435605,N,11709.027320,W,31.3,306.7,150710,,,A*45
$GPRMC,150527.9,A,3243.452795,N,11709.061078,W,33.5,299.4,150710,,,A*48
$GPRMC,150530.2,A,3243.462846,N,11709.085347,W,35.5,294.3,150710,,,A*4E
$GPRMC,150533.9,A,3243.474357,N,11709.131365,W,40.3,285.4,150710,,,A*47
$GPRMC,150536.9,A,3243.476479,N,11709.176668,W,45.1,273.4,150710,,,A*4E
$GPRMC,150539.9,A,3243.473451,N,11709.224003,W,47.6,266.0,150710,,,A*44
$GPRMC,150542.9,A,3243.466168,N,11709.273350,W,49.2,261.9,150710,,,A*40
