NMEA Sentence Code,UTC Time,Status,Latitude,Latitude Direction,Longitude,Longitude Direction,Speed (knots),Track Angle (degrees true),Date,MagneticVariation,Magnetic Variation Direction,[FAA Mode]-Optional,Checksum
$GPRMC,193130.0,A,3334.324032,N,11743.142739,W,10.9,305.3,240410,,,A*42
$GPRMC,193133.0,A,3334.322689,N,11743.159345,W,21.6,258.8,240410,,,A*4B
$GPRMC,193136.0,A,3334.318937,N,11743.182977,W,25.4,258.3,240410,,,A*4D
$GPRMC,193139.0,A,3334.313614,N,11743.206298,W,21.4,251.6,240410,,,A*4A
$GPRMC,193142.0,A,3334.308600,N,11743.223653,W,15.4,246.1,240410,,,A*4B
$GPRMC,193145.0,A,3334.306156,N,11743.232077,W,5.5,244.1,240410,,,A*74
$GPRMC,193212.0,A,3334.301104,N,11743.246440,W,9.8,263.8,240410,,,A*7B
$GPRMC,193215.0,A,3334.292479,N,11743.264942,W,23.6,245.5,240410,,,A*48
$GPRMC,193218.0,A,3334.281772,N,11743.289439,W,29.6,244.3,240410,,,A*40
$GPRMC,193221.0,A,3334.270064,N,11743.318578,W,33.3,244.8,240410,,,A*4C
$GPRMC,193224.0,A,3334.257461,N,11743.349150,W,32.7,243.7,240410,,,A*4A
$GPRMC,193227.0,A,3334.250508,N,11743.374356,W,22.2,251.1,240410,,,A*4B
$GPRMC,193230.0,A,3334.256898,N,11743.388448,W,15.0,307.7,240410,,,A*46
$GPRMC,193233.0,A,3334.274922,N,11743.393090,W,22.5,354.7,240410,,,A*49
$GPRMC,193236.0,A,3334.299631,N,11743.395076,W,30.9,357.4,240410,,,A*43
$GPRMC,193239.0,A,3334.328415,N,11743.395283,W,34.1,0.0,240410,,,A*42
$GPRMC,193242.0,A,3334.356890,N,11743.394921,W,33.3,0.7,240410,,,A*46
$GPRMC,193245.0,A,3334.386838,N,11743.395212,W,36.6,359.4,240410,,,A*48
$GPRMC,193248.0,A,3334.420496,N,11743.395303,W,40.3,0.5,240410,,,A*4D
$GPRMC,193251.0,A,3334.454370,N,11743.395167,W,38.7,0.7,240410,,,A*40
$GPRMC,193254.0,A,3334.486810,N,11743.395313,W,38.3,359.9,240410,,,A*43
$GPRMC,193257.0,A,3334.519603,N,11743.396268,W,38.9,359.3,240410,,,A*45
$GPRMC,193300.0,A,3334.553177,N,11743.396188,W,40.6,1.9,240410,,,A*45
$GPRMC,193303.0,A,3334.587111,N,11743.393392,W,40.0,6.6,240410,,,A*4D
$GPRMC,193306.0,A,3334.621493,N,11743.385516,W,40.9,13.8,240410,,,A*76
$GPRMC,193309.0,A,3334.653242,N,11743.373879,W,37.8,19.3,240410,,,A*7B
$GPRMC,193312.0,A,3334.681443,N,11743.360863,W,35.5,22.9,240410,,,A*7D
$GPRMC,193315.0,A,3334.708922,N,11743.345308,W,36.8,27.0,240410,,,A*73
$GPRMC,193318.0,A,3334.737121,N,11743.326197,W,38.1,32.1,240410,,,A*7A
$GPRMC,193321.0,A,3334.763436,N,11743.304481,W,38.0,36.8,240410,,,A*7C
$GPRMC,193324.0,A,3334.788046,N,11743.281202,W,36.7,39.0,240410,,,A*70
$GPRMC,193327.0,A,3334.810840,N,11743.259043,W,33.5,38.0,240410,,,A*77
$GPRMC,193330.0,A,3334.832853,N,11743.237921,W,33.5,38.5,240410,,,A*73
$GPRMC,193333.0,A,3334.854423,N,11743.216768,W,32.9,39.6,240410,,,A*74
$GPRMC,193336.0,A,3334.872958,N,11743.194771,W,31.3,51.4,240410,,,A*70
$GPRMC,193339.0,A,3334.877305,N,11743.168428,W,29.6,88.0,240410,,,A*78
$GPRMC,193342.0,A,3334.865190,N,11743.142010,W,31.8,128.0,240410,,,A*42
$GPRMC,193345.0,A,3334.839514,N,11743.133058,W,29.1,181.7,240410,,,A*4A
$GPRMC,193348.0,A,3334.819126,N,11743.151691,W,34.6,232.1,240410,,,A*41
$GPRMC,193351.0,A,3334.813875,N,11743.186422,W,34.2,272.0,240410,,,A*4D
$GPRMC,193354.0,A,3334.826697,N,11743.216929,W,34.5,302.1,240410,,,A*40
$GPRMC,193357.0,A,3334.843874,N,11743.247728,W,39.1,303.5,240410,,,A*44
$GPRMC,193400.0,A,3334.863480,N,11743.280135,W,39.2,306.9,240410,,,A*4F
$GPRMC,193404.0,A,3334.891606,N,11743.324699,W,42.2,307.0,240410,,,A*40
$GPRMC,193407.0,A,3334.914146,N,11743.359324,W,44.8,307.9,240410,,,A*40
$GPRMC,193410.0,A,3334.938384,N,11743.395665,W,47.4,309.5,240410,,,A*49
$GPRMC,193413.0,A,3334.964802,N,11743.433157,W,50.2,310.4,240410,,,A*42
$GPRMC,193416.0,A,3334.993227,N,11743.471881,W,52.7,311.9,240410,,,A*4D
$GPRMC,193419.0,A,3335.023716,N,11743.512105,W,55.3,312.0,240410,,,A*4E
$GPRMC,193422.0,A,3335.055727,N,11743.554304,W,56.0,310.5,240410,,,A*43
$GPRMC,193425.0,A,3335.086480,N,11743.596981,W,55.8,310.3,240410,,,A*40
$GPRMC,193428.0,A,3335.117724,N,11743.639769,W,56.1,310.0,240410,,,A*4E
$GPRMC,193431.0,A,3335.147212,N,11743.684473,W,56.2,306.1,240410,,,A*48
$GPRMC,193434.0,A,3335.173338,N,11743.731556,W,56.2,301.6,240410,,,A*4A
$GPRMC,193437.0,A,3335.196223,N,11743.781083,W,57.0,296.7,240410,,,A*42
$GPRMC,193440.0,A,3335.215837,N,11743.833572,W,57.7,292.1,240410,,,A*4D
$GPRMC,193443.0,A,3335.231855,N,11743.888702,W,59.1,287.2,240410,,,A*46
$GPRMC,193446.0,A,3335.244113,N,11743.947196,W,61.3,282.9,240410,,,A*44
$GPRMC,193450.0,A,3335.255532,N,11744.030307,W,64.5,277.3,240410,,,A*43
$GPRMC,193453.0,A,3335.261557,N,11744.095606,W,66.4,276.9,240410,,,A*47
$GPRMC,193456.0,A,3335.267886,N,11744.162649,W,67.7,277.1,240410,,,A*4C
$GPRMC,193459.0,A,3335.274560,N,11744.230306,W,68.2,277.1,240410,,,A*44
$GPRMC,193502.0,A,3335.281425,N,11744.298431,W,68.8,277.0,240410,,,A*4B
$GPRMC,193505.0,A,3335.288191,N,11744.367159,W,69.4,277.1,240410,,,A*49
$GPRMC,193508.0,A,3335.295187,N,11744.436270,W,69.5,277.3,240410,,,A*47
$GPRMC,193511.0,A,3335.302771,N,11744.504872,W,69.4,278.4,240410,,,A*4E
$GPRMC,193514.0,A,3335.313397,N,11744.573143,W,69.0,282.2,240410,,,A*4B
$GPRMC,193517.0,A,3335.328736,N,11744.639266,W,67.3,288.0,240410,,,A*43
$GPRMC,193520.0,A,3335.347538,N,11744.701512,W,65.4,291.5,240410,,,A*44
$GPRMC,193523.0,A,3335.369075,N,11744.760851,W,63.8,294.7,240410,,,A*47
$GPRMC,193526.0,A,3335.391316,N,11744.818806,W,63.4,294.3,240410,,,A*49
$GPRMC,193529.0,A,3335.413430,N,11744.876777,W,64.0,294.6,240410,,,A*4F
$GPRMC,193532.0,A,3335.434771,N,11744.935739,W,64.5,291.2,240410,,,A*4E
$GPRMC,193535.0,A,3335.451538,N,11744.997457,W,65.4,285.6,240410,,,A*47
$GPRMC,193538.0,A,3335.463630,N,11745.061437,W,65.9,281.1,240410,,,A*49
$GPRMC,193541.0,A,3335.473530,N,11745.127686,W,68.5,280.0,240410,,,A*4F
$GPRMC,193544.0,A,3335.483591,N,11745.194624,W,68.1,279.8,240410,,,A*44
$GPRMC,193547.0,A,3335.493091,N,11745.264041,W,72.5,278.9,240410,,,A*45
$GPRMC,193550.0,A,3335.503278,N,11745.336969,W,75.1,279.4,240410,,,A*44
$GPRMC,193553.0,A,3335.515222,N,11745.412009,W,77.4,282.2,240410,,,A*44
$GPRMC,193556.0,A,3335.533148,N,11745.487210,W,79.0,288.9,240410,,,A*47
$GPRMC,193559.0,A,3335.558895,N,11745.559705,W,78.8,296.4,240410,,,A*44
$GPRMC,193602.0,A,3335.592271,N,11745.627140,W,77.6,303.2,240410,,,A*48
$GPRMC,193605.0,A,3335.631073,N,11745.689285,W,77.5,307.8,240410,,,A*46
$GPRMC,193608.0,A,3335.670854,N,11745.750143,W,77.2,307.5,240410,,,A*45
$GPRMC,193611.0,A,3335.710239,N,11745.810779,W,76.7,307.8,240410,,,A*46
$GPRMC,193614.0,A,3335.749784,N,11745.870214,W,75.9,308.6,240410,,,A*48
$GPRMC,193617.0,A,3335.789167,N,11745.928808,W,74.9,308.5,240410,,,A*45
$GPRMC,193620.0,A,3335.827796,N,11745.987101,W,74.0,308.1,240410,,,A*4A
$GPRMC,193623.0,A,3335.864536,N,11746.045414,W,73.1,304.2,240410,,,A*4A
$GPRMC,193626.0,A,3335.894721,N,11746.107841,W,72.3,296.4,240410,,,A*40
$GPRMC,193629.0,A,3335.916859,N,11746.174764,W,71.9,288.0,240410,,,A*4A
$GPRMC,193632.0,A,3335.932930,N,11746.243683,W,71.4,283.0,240410,,,A*41
$GPRMC,193635.0,A,3335.942116,N,11746.314669,W,72.7,276.4,240410,,,A*44
$GPRMC,193638.0,A,3335.947044,N,11746.385248,W,70.6,274.2,240410,,,A*42
$GPRMC,193641.0,A,3335.951563,N,11746.455470,W,69.9,274.9,240410,,,A*40
$GPRMC,193644.0,A,3335.958320,N,11746.524495,W,69.8,279.0,240410,,,A*44
$GPRMC,193647.0,A,3335.971820,N,11746.591282,W,68.8,286.2,240410,,,A*4A
$GPRMC,193650.0,A,3335.990933,N,11746.655625,W,68.4,292.0,240410,,,A*49
$GPRMC,193653.0,A,3336.016114,N,11746.716302,W,67.6,299.1,240410,,,A*42
$GPRMC,193656.0,A,3336.044750,N,11746.774579,W,67.5,300.3,240410,,,A*48
$GPRMC,193659.0,A,3336.072743,N,11746.833038,W,67.5,297.7,240410,,,A*47
$GPRMC,193702.0,A,3336.097131,N,11746.893363,W,67.1,293.6,240410,,,A*46
$GPRMC,193705.0,A,3336.118201,N,11746.955412,W,67.7,289.0,240410,,,A*46
$GPRMC,193708.0,A,3336.134385,N,11747.020087,W,67.6,284.1,240410,,,A*47
$GPRMC,193711.0,A,3336.144946,N,11747.085923,W,67.5,279.1,240410,,,A*44
$GPRMC,193714.0,A,3336.152027,N,11747.152006,W,66.3,275.4,240410,,,A*43
$GPRMC,193717.0,A,3336.157803,N,11747.218753,W,68.5,276.6,240410,,,A*48
$GPRMC,193720.0,A,3336.165827,N,11747.286903,W,68.6,279.7,240410,,,A*4A
$GPRMC,193723.0,A,3336.179753,N,11747.354198,W,68.9,286.8,240410,,,A*4C
$GPRMC,193726.0,A,3336.200254,N,11747.419039,W,69.6,293.1,240410,,,A*41
$GPRMC,193729.0,A,3336.224799,N,11747.481958,W,70.2,294.8,240410,,,A*41
$GPRMC,193732.0,A,3336.250063,N,11747.545270,W,69.9,294.9,240410,,,A*40
$GPRMC,193735.0,A,3336.275384,N,11747.608929,W,70.3,294.9,240410,,,A*45
$GPRMC,193738.0,A,3336.300628,N,11747.673000,W,70.7,294.7,240410,,,A*4C
$GPRMC,193741.0,A,3336.325910,N,11747.737097,W,70.6,294.7,240410,,,A*4F
$GPRMC,193744.0,A,3336.350857,N,11747.801088,W,70.3,294.9,240410,,,A*45
$GPRMC,193747.0,A,3336.375872,N,11747.865119,W,70.7,294.7,240410,,,A*47
$GPRMC,193750.0,A,3336.400977,N,11747.929441,W,70.9,294.7,240410,,,A*4F
$GPRMC,193753.0,A,3336.426417,N,11747.994015,W,71.4,295.0,240410,,,A*4A
$GPRMC,193756.0,A,3336.451960,N,11748.058766,W,71.3,295.0,240410,,,A*40
$GPRMC,193759.0,A,3336.477355,N,11748.123214,W,70.8,295.0,240410,,,A*40
$GPRMC,193802.0,A,3336.502083,N,11748.187024,W,70.0,294.1,240410,,,A*4D
$GPRMC,193805.0,A,3336.525230,N,11748.251025,W,69.7,291.2,240410,,,A*45
$GPRMC,193808.0,A,3336.544240,N,11748.317037,W,70.1,285.8,240410,,,A*49
$GPRMC,193811.0,A,3336.555681,N,11748.386414,W,71.2,279.5,240410,,,A*49
$GPRMC,193814.0,A,3336.565284,N,11748.456903,W,71.6,279.6,240410,,,A*48
$GPRMC,193817.0,A,3336.575715,N,11748.528407,W,72.7,280.1,240410,,,A*45
$GPRMC,193820.0,A,3336.586663,N,11748.600867,W,72.7,280.3,240410,,,A*4C
$GPRMC,193823.0,A,3336.597840,N,11748.671904,W,71.4,281.4,240410,,,A*44
$GPRMC,193826.0,A,3336.613989,N,11748.740727,W,71.0,288.7,240410,,,A*48
$GPRMC,193829.0,A,3336.636590,N,11748.806478,W,70.6,294.9,240410,,,A*44
$GPRMC,193832.0,A,3336.665482,N,11748.868654,W,70.4,302.3,240410,,,A*48
$GPRMC,193835.0,A,3336.699660,N,11748.926056,W,70.3,308.3,240410,,,A*40
$GPRMC,193838.0,A,3336.739184,N,11748.978219,W,69.7,314.5,240410,,,A*4E
$GPRMC,193842.0,A,3336.795631,N,11749.034218,W,61.7,324.0,240410,,,A*43
$GPRMC,193845.0,A,3336.838319,N,11749.065952,W,60.0,329.1,240410,,,A*48
$GPRMC,193849.0,A,3336.902405,N,11749.103917,W,67.7,336.1,240410,,,A*48
$GPRMC,193852.0,A,3336.956561,N,11749.130702,W,71.7,336.8,240410,,,A*44
$GPRMC,193855.0,A,3337.012330,N,11749.158227,W,71.9,336.8,240410,,,A*4B
$GPRMC,193858.0,A,3337.069023,N,11749.186767,W,73.6,336.0,240410,,,A*4C
