NMEA Sentence Code,UTC Time,Status,Latitude,Latitude Direction,Longitude,Longitude Direction,Speed (knots),Track Angle (degrees true),Date,MagneticVariation,Magnetic Variation Direction,[FAA Mode]-Optional,Checksum
$GPRMC,220919.6,A,3252.3419,N,11713.5920,W,36.60,291.90,110410,,*21
$GPRMC,220922.6,A,3252.3469,N,11713.6240,W,35.30,282.20,110410,,*2F
$GPRMC,220925.6,A,3252.3479,N,11713.6576,W,34.60,274.40,110410,,*20
$GPRMC,220928.6,A,3252.3466,N,11713.6910,W,33.60,266.70,110410,,*28
$GPRMC,220931.6,A,3252.3404,N,11713.7239,W,33.80,259.60,110410,,*26
$GPRMC,220934.6,A,3252.3341,N,11713.7558,W,32.50,256.60,110410,,*26
$GPRMC,220937.6,A,3252.3277,N,11713.7862,W,31.70,256.10,110410,,*23
$GPRMC,220940.6,A,3252.3217,N,11713.8142,W,29.10,255.40,110410,,*28
$GPRMC,220943.6,A,3252.3189,N,11713.8390,W,27.70,259.80,110410,,*2A
$GPRMC,220946.6,A,3252.3329,N,11713.8443,W,18.80,272.10,110410,,*2D
$GPRMC,220949.6,A,3252.3391,N,11713.8360,W,5.70,265.20,110410,,*11
$GPRMC,220952.6,A,3252.3569,N,11713.8262,W,8.00,12.20,110410,,*21
$GPRMC,220955.6,A,3252.3719,N,11713.8094,W,10.00,34.20,110410,,*15
$GPRMC,220958.6,A,3252.3804,N,11713.7945,W,12.20,48.60,110410,,*1E
$GPRMC,221008.6,A,3252.2227,N,11713.7840,W,46.80,184.00,110410,,*21
$GPRMC,221011.6,A,3252.1782,N,11713.7846,W,48.70,185.00,110410,,*26
$GPRMC,221014.6,A,3252.1336,N,11713.7872,W,50.20,184.30,110410,,*21
$GPRMC,221017.6,A,3252.0912,N,11713.7911,W,50.30,184.30,110410,,*2A
$GPRMC,221020.6,A,3252.0466,N,11713.7958,W,52.00,185.20,110410,,*2C
$GPRMC,221023.6,A,3252.0027,N,11713.8014,W,52.50,186.00,110410,,*24
$GPRMC,221026.6,A,3251.9544,N,11713.8066,W,55.60,186.30,110410,,*29
$GPRMC,221029.6,A,3251.9012,N,11713.8076,W,60.30,184.80,110410,,*2B
$GPRMC,221032.6,A,3251.8456,N,11713.8089,W,62.80,184.90,110410,,*2C
$GPRMC,221035.6,A,3251.7909,N,11713.8135,W,64.70,184.60,110410,,*23
$GPRMC,221038.6,A,3251.7355,N,11713.8198,W,65.70,185.10,110410,,*2D
$GPRMC,221041.6,A,3251.6806,N,11713.8233,W,65.10,184.60,110410,,*2D
$GPRMC,221044.6,A,3251.6288,N,11713.8286,W,63.90,185.10,110410,,*22
$GPRMC,221047.6,A,3251.5761,N,11713.8366,W,64.50,185.80,110410,,*2D
$GPRMC,221050.6,A,3251.5243,N,11713.8416,W,64.60,185.30,110410,,*26
$GPRMC,221053.6,A,3251.4702,N,11713.8485,W,64.00,185.60,110410,,*2D
$GPRMC,221056.6,A,3251.4181,N,11713.8562,W,62.60,188.60,110410,,*20
$GPRMC,221059.6,A,3251.3644,N,11713.8666,W,62.70,191.60,110410,,*28
$GPRMC,221102.6,A,3251.3128,N,11713.8906,W,62.40,200.80,110410,,*25
$GPRMC,221105.6,A,3251.2676,N,11713.9166,W,61.90,205.40,110410,,*27
$GPRMC,221108.6,A,3251.2237,N,11713.9432,W,60.60,208.30,110410,,*2B
$GPRMC,221111.6,A,3251.1804,N,11713.9735,W,59.40,210.00,110410,,*2C
$GPRMC,221114.6,A,3251.1372,N,11714.0054,W,57.30,211.60,110410,,*23
$GPRMC,221117.6,A,3251.0950,N,11714.0372,W,57.40,212.10,110410,,*2F
$GPRMC,221120.6,A,3251.0563,N,11714.0662,W,57.20,212.00,110410,,*24
$GPRMC,221123.6,A,3251.0162,N,11714.0940,W,59.10,210.20,110410,,*20
$GPRMC,221126.6,A,3250.9728,N,11714.1207,W,59.70,206.30,110410,,*2C
$GPRMC,221129.6,A,3250.9267,N,11714.1439,W,60.70,201.70,110410,,*2F
$GPRMC,221132.6,A,3250.8763,N,11714.1606,W,61.60,194.20,110410,,*21
$GPRMC,221135.6,A,3250.8258,N,11714.1703,W,62.50,188.50,110410,,*25
$GPRMC,221138.6,A,3250.7721,N,11714.1772,W,63.50,187.60,110410,,*27
$GPRMC,221141.6,A,3250.7211,N,11714.1851,W,62.60,187.10,110410,,*24
$GPRMC,221144.6,A,3250.6680,N,11714.1929,W,63.90,187.50,110410,,*28
$GPRMC,221147.6,A,3250.6131,N,11714.2006,W,63.80,185.60,110410,,*21
$GPRMC,221150.6,A,3250.5627,N,11714.2014,W,61.80,181.90,110410,,*2E
$GPRMC,221153.6,A,3250.5110,N,11714.1990,W,61.40,178.60,110410,,*2D
$GPRMC,221156.6,A,3250.4581,N,11714.1821,W,62.80,168.70,110410,,*21
$GPRMC,221159.6,A,3250.4095,N,11714.1599,W,62.60,162.20,110410,,*21
$GPRMC,221202.6,A,3250.3613,N,11714.1376,W,61.90,160.00,110410,,*28
$GPRMC,221205.6,A,3250.3134,N,11714.1149,W,62.00,159.00,110410,,*23
$GPRMC,221208.6,A,3250.2641,N,11714.0928,W,61.40,159.00,110410,,*23
$GPRMC,221211.6,A,3250.2144,N,11714.0715,W,61.30,159.30,110410,,*2D
$GPRMC,221214.6,A,3250.1655,N,11714.0491,W,61.10,159.30,110410,,*21
$GPRMC,221217.6,A,3250.1208,N,11714.0295,W,59.80,159.20,110410,,*2F
$GPRMC,221220.6,A,3250.0707,N,11714.0090,W,60.60,161.20,110410,,*28
$GPRMC,221223.6,A,3250.0199,N,11713.9926,W,63.90,166.70,110410,,*2E
$GPRMC,221226.6,A,3249.9644,N,11713.9827,W,68.00,172.20,110410,,*2F
$GPRMC,221229.6,A,3249.9116,N,11713.9791,W,68.10,175.90,110410,,*2F
$GPRMC,221232.6,A,3249.8542,N,11713.9806,W,69.70,179.40,110410,,*26
$GPRMC,221235.6,A,3249.7952,N,11713.9808,W,70.20,179.40,110410,,*20
$GPRMC,221238.6,A,3249.7393,N,11713.9811,W,68.50,180.00,110410,,*2E
$GPRMC,221241.6,A,3249.6829,N,11713.9785,W,67.20,178.30,110410,,*25
$GPRMC,221244.6,A,3249.6258,N,11713.9703,W,66.60,173.00,110410,,*2F
$GPRMC,221247.6,A,3249.5741,N,11713.9588,W,62.90,168.70,110410,,*25
$GPRMC,221250.6,A,3249.5195,N,11713.9327,W,64.90,159.20,110410,,*2E
$GPRMC,221253.6,A,3249.4686,N,11713.9047,W,65.10,156.10,110410,,*29
$GPRMC,221256.6,A,3249.4240,N,11713.8646,W,64.50,146.20,110410,,*23
$GPRMC,221259.6,A,3249.3811,N,11713.8233,W,64.40,140.80,110410,,*2E
$GPRMC,221302.6,A,3249.3377,N,11713.7811,W,64.10,140.20,110410,,*20
$GPRMC,221305.6,A,3249.2967,N,11713.7402,W,64.20,139.50,110410,,*29
$GPRMC,221308.6,A,3249.2558,N,11713.6976,W,64.80,139.10,110410,,*25
$GPRMC,221311.6,A,3249.2151,N,11713.6537,W,65.60,138.30,110410,,*25
$GPRMC,221314.6,A,3249.1735,N,11713.6102,W,65.20,138.90,110410,,*2B
$GPRMC,221317.6,A,3249.1320,N,11713.5681,W,65.90,139.40,110410,,*20
$GPRMC,221320.6,A,3249.0920,N,11713.5246,W,65.50,138.80,110410,,*21
$GPRMC,221323.6,A,3249.0522,N,11713.4810,W,64.80,139.00,110410,,*21
$GPRMC,221326.6,A,3249.0100,N,11713.4383,W,66.00,139.70,110410,,*2C
$GPRMC,221329.6,A,3248.9674,N,11713.3969,W,66.60,141.10,110410,,*29
$GPRMC,221332.6,A,3248.9216,N,11713.3547,W,68.10,141.90,110410,,*22
$GPRMC,221335.6,A,3248.8736,N,11713.3137,W,69.60,143.80,110410,,*25
$GPRMC,221338.6,A,3248.8240,N,11713.2745,W,70.40,146.40,110410,,*2D
$GPRMC,221341.6,A,3248.7718,N,11713.2390,W,70.70,147.90,110410,,*27
$GPRMC,221344.6,A,3248.7196,N,11713.2046,W,70.90,147.80,110410,,*25
$GPRMC,221347.6,A,3248.6703,N,11713.1710,W,69.60,146.90,110410,,*2D
$GPRMC,221350.6,A,3248.6210,N,11713.1327,W,70.20,146.40,110410,,*2D
$GPRMC,221353.6,A,3248.5741,N,11713.0941,W,69.30,145.80,110410,,*21
$GPRMC,221356.6,A,3248.5246,N,11713.0545,W,69.60,146.00,110410,,*20
$GPRMC,221359.6,A,3248.4777,N,11713.0152,W,69.20,145.00,110410,,*2C
$GPRMC,221402.6,A,3248.4303,N,11712.9755,W,69.70,144.40,110410,,*2B
$GPRMC,221405.6,A,3248.3842,N,11712.9359,W,69.80,144.70,110410,,*21
$GPRMC,221408.6,A,3248.3335,N,11712.8931,W,71.60,145.60,110410,,*25
$GPRMC,221411.6,A,3248.2827,N,11712.8554,W,71.40,148.00,110410,,*22
$GPRMC,221414.6,A,3248.2308,N,11712.8194,W,72.00,149.60,110410,,*29
$GPRMC,221417.6,A,3248.1791,N,11712.7851,W,72.10,151.00,110410,,*2C
$GPRMC,221420.6,A,3248.1260,N,11712.7539,W,71.30,153.00,110410,,*23
$GPRMC,221423.6,A,3248.0716,N,11712.7237,W,72.40,155.00,110410,,*2E
$GPRMC,221426.6,A,3248.0159,N,11712.6955,W,72.60,156.50,110410,,*2C
$GPRMC,221429.6,A,3247.9614,N,11712.6667,W,72.10,156.50,110410,,*22
$GPRMC,221432.6,A,3247.9074,N,11712.6367,W,72.70,154.90,110410,,*25
$GPRMC,221435.6,A,3247.8512,N,11712.6033,W,72.70,153.60,110410,,*2C
$GPRMC,221438.6,A,3247.7974,N,11712.5728,W,72.40,153.80,110410,,*21
$GPRMC,221441.6,A,3247.7435,N,11712.5392,W,71.10,153.60,110410,,*2A
$GPRMC,221444.6,A,3247.6898,N,11712.5084,W,71.80,155.90,110410,,*21
$GPRMC,221447.6,A,3247.6345,N,11712.4814,W,70.60,159.40,110410,,*27
$GPRMC,221450.6,A,3247.5789,N,11712.4606,W,70.00,162.50,110410,,*24
$GPRMC,221453.6,A,3247.5233,N,11712.4437,W,69.40,165.90,110410,,*24
$GPRMC,221456.6,A,3247.4660,N,11712.4329,W,69.70,170.00,110410,,*24
$GPRMC,221459.6,A,3247.4070,N,11712.4222,W,70.80,171.20,110410,,*22
$GPRMC,221502.6,A,3247.3464,N,11712.4166,W,71.70,174.80,110410,,*29
$GPRMC,221505.6,A,3247.2938,N,11712.4215,W,68.60,180.50,110410,,*23
$GPRMC,221508.6,A,3247.2363,N,11712.4281,W,69.40,184.60,110410,,*23
$GPRMC,221511.6,A,3247.1786,N,11712.4383,W,70.50,187.10,110410,,*29
$GPRMC,221514.6,A,3247.1242,N,11712.4473,W,70.30,188.30,110410,,*22
$GPRMC,221517.6,A,3247.0632,N,11712.4570,W,70.90,188.50,110410,,*2D
$GPRMC,221520.6,A,3247.0031,N,11712.4685,W,71.00,188.90,110410,,*21
$GPRMC,221523.6,A,3246.9447,N,11712.4785,W,71.20,188.10,110410,,*24
$GPRMC,221526.6,A,3246.8884,N,11712.4888,W,70.50,188.60,110410,,*20
$GPRMC,221529.6,A,3246.8289,N,11712.4992,W,71.00,188.40,110410,,*24
$GPRMC,221532.6,A,3246.7686,N,11712.5104,W,70.50,188.40,110410,,*28
$GPRMC,221535.6,A,3246.7095,N,11712.5171,W,70.80,184.60,110410,,*2A
$GPRMC,221538.6,A,3246.6524,N,11712.5151,W,69.00,177.10,110410,,*20
$GPRMC,221541.6,A,3246.5943,N,11712.5087,W,66.50,173.40,110410,,*21
$GPRMC,221544.6,A,3246.5367,N,11712.4939,W,69.60,168.70,110410,,*20
$GPRMC,221547.6,A,3246.4750,N,11712.4767,W,71.40,167.70,110410,,*23
$GPRMC,221550.6,A,3246.4163,N,11712.4601,W,72.90,167.40,110410,,*2F
$GPRMC,221553.6,A,3246.3569,N,11712.4431,W,72.40,167.70,110410,,*2A
$GPRMC,221556.6,A,3246.2949,N,11712.4294,W,73.70,168.20,110410,,*21
$GPRMC,221559.6,A,3246.2388,N,11712.4139,W,70.60,167.80,110410,,*2A
$GPRMC,221602.6,A,3246.1816,N,11712.3987,W,70.20,167.20,110410,,*2C
$GPRMC,221605.6,A,3246.1249,N,11712.3834,W,69.70,168.00,110410,,*22
$GPRMC,221608.6,A,3246.0710,N,11712.3668,W,68.60,167.10,110410,,*2E
$GPRMC,221611.6,A,3246.0143,N,11712.3535,W,68.70,167.90,110410,,*24
$GPRMC,221614.6,A,3245.9574,N,11712.3381,W,69.30,167.50,110410,,*2B
$GPRMC,221617.6,A,3245.8996,N,11712.3218,W,69.00,167.90,110410,,*27
$GPRMC,221620.6,A,3245.8430,N,11712.3064,W,69.30,167.30,110410,,*22
$GPRMC,221623.6,A,3245.7870,N,11712.2932,W,68.70,167.60,110410,,*2D
$GPRMC,221626.6,A,3245.7338,N,11712.2823,W,65.80,168.60,110410,,*23
$GPRMC,221629.6,A,3245.6811,N,11712.2716,W,63.50,168.40,110410,,*2D
$GPRMC,221632.6,A,3245.6328,N,11712.2595,W,61.60,167.90,110410,,*2C
$GPRMC,221635.6,A,3245.5805,N,11712.2471,W,64.60,168.90,110410,,*2D
$GPRMC,221638.6,A,3245.5242,N,11712.2342,W,67.10,169.00,110410,,*22
$GPRMC,221641.6,A,3245.4695,N,11712.2206,W,66.90,168.20,110410,,*28
$GPRMC,221644.6,A,3245.4200,N,11712.1995,W,65.10,162.60,110410,,*22
$GPRMC,221647.6,A,3245.3634,N,11712.1689,W,65.60,156.60,110410,,*27
$GPRMC,221650.6,A,3245.3197,N,11712.1354,W,60.80,150.30,110410,,*22
$GPRMC,221653.6,A,3245.2783,N,11712.0942,W,59.40,142.60,110410,,*2F
$GPRMC,221656.6,A,3245.2436,N,11712.0454,W,61.50,134.50,110410,,*25
$GPRMC,221659.6,A,3245.2118,N,11711.9942,W,62.40,130.00,110410,,*20
$GPRMC,221702.6,A,3245.1790,N,11711.9477,W,61.60,131.80,110410,,*29
$GPRMC,221705.6,A,3245.1442,N,11711.9064,W,60.40,136.30,110410,,*2B
$GPRMC,221708.6,A,3245.1067,N,11711.8676,W,59.40,140.30,110410,,*2A
$GPRMC,221711.6,A,3245.0678,N,11711.8333,W,58.70,144.10,110410,,*2B
$GPRMC,221714.6,A,3245.0283,N,11711.7964,W,59.50,144.40,110410,,*2F
$GPRMC,221717.6,A,3244.9881,N,11711.7621,W,59.10,143.20,110410,,*27
$GPRMC,221720.6,A,3244.9506,N,11711.7296,W,57.70,140.90,110410,,*29
$GPRMC,221723.6,A,3244.9159,N,11711.6918,W,58.10,137.20,110410,,*2A
$GPRMC,221726.6,A,3244.8813,N,11711.6500,W,58.70,132.60,110410,,*2B
$GPRMC,221729.6,A,3244.8517,N,11711.6053,W,58.00,127.60,110410,,*2D
$GPRMC,221732.6,A,3244.8258,N,11711.5570,W,58.20,123.00,110410,,*2C
$GPRMC,221735.6,A,3244.8015,N,11711.5080,W,58.40,120.60,110410,,*29
$GPRMC,221738.6,A,3244.7768,N,11711.4594,W,57.90,121.10,110410,,*23
$GPRMC,221741.6,A,3244.7505,N,11711.4075,W,59.30,120.80,110410,,*22
$GPRMC,221744.6,A,3244.7257,N,11711.3561,W,59.60,120.40,110410,,*29
$GPRMC,221747.6,A,3244.7007,N,11711.3095,W,57.90,121.30,110410,,*24
$GPRMC,221750.6,A,3244.6867,N,11711.2743,W,50.60,122.90,110410,,*21
$GPRMC,221753.6,A,3244.6666,N,11711.2352,W,46.30,124.00,110410,,*24
$GPRMC,221756.6,A,3244.6460,N,11711.2015,W,42.80,127.30,110410,,*2A
$GPRMC,221759.6,A,3244.6241,N,11711.1702,W,41.30,129.00,110410,,*27
$GPRMC,221802.6,A,3244.6022,N,11711.1391,W,40.90,130.10,110410,,*2D
$GPRMC,221805.6,A,3244.5796,N,11711.1079,W,41.10,128.70,110410,,*22
$GPRMC,221808.6,A,3244.5601,N,11711.0757,W,40.90,123.00,110410,,*2F
$GPRMC,221811.6,A,3244.5428,N,11711.0409,W,40.10,120.20,110410,,*2F
$GPRMC,221814.6,A,3244.5241,N,11711.0096,W,38.90,125.70,110410,,*26
$GPRMC,221817.6,A,3244.5048,N,11710.9801,W,37.90,130.50,110410,,*29
$GPRMC,221820.6,A,3244.4860,N,11710.9545,W,36.60,131.80,110410,,*21
$GPRMC,221823.6,A,3244.5112,N,11710.9844,W,12.80,135.00,110410,,*27
$GPRMC,221853.6,A,3244.5276,N,11711.0005,W,4.40,111.80,110410,,*11
$GPRMC,221856.6,A,3244.5240,N,11710.9948,W,7.10,124.70,110410,,*16
$GPRMC,221859.6,A,3244.5201,N,11710.9883,W,7.90,125.20,110410,,*16
$GPRMC,221902.6,A,3244.5177,N,11710.9759,W,9.40,107.60,110410,,*14
$GPRMC,221912.6,A,3244.5601,N,11710.9251,W,15.20,34.90,110410,,*1B
$GPRMC,221915.6,A,3244.5608,N,11710.9250,W,5.10,22.10,110410,,*29
$GPRMC,221927.6,A,3244.5662,N,11710.9147,W,7.70,57.30,110410,,*25
$GPRMC,221930.6,A,3244.5698,N,11710.9057,W,10.60,64.20,110410,,*10
$GPRMC,221933.6,A,3244.5769,N,11710.8925,W,12.90,60.20,110410,,*18
$GPRMC,221936.6,A,3244.5900,N,11710.8795,W,15.90,43.90,110410,,*14
$GPRMC,221939.6,A,3244.6069,N,11710.8673,W,19.40,29.20,110410,,*11
$GPRMC,221942.6,A,3244.6300,N,11710.8517,W,24.20,28.40,110410,,*1F
$GPRMC,221945.6,A,3244.6588,N,11710.8318,W,29.30,29.30,110410,,*1D
$GPRMC,221948.6,A,3244.6938,N,11710.8079,W,34.50,29.70,110410,,*1D
$GPRMC,221951.6,A,3244.7340,N,11710.7776,W,42.80,32.90,110410,,*1E
$GPRMC,221954.6,A,3244.7638,N,11710.7490,W,46.00,41.60,110410,,*1D
