NMEA Sentence Code,UTC Time,Status,Latitude,Latitude Direction,Longitude,Longitude Direction,Speed (knots),Track Angle (degrees true),Date,MagneticVariation,Magnetic Variation Direction,[FAA Mode]-Optional,Checksum
$GPRMC,193901.9,A,3307.372161,N,11719.468385,W,7.6,280.8,060710,,,A*79
$GPRMC,193904.9,A,3307.372917,N,11719.476979,W,7.4,276.6,060710,,,A*76
$GPRMC,193907.9,A,3307.372594,N,11719.483311,W,4.4,261.1,060710,,,A*7E
$GPRMC,193928.9,A,3307.380852,N,11719.486503,W,6.5,339.2,060710,,,A*75
$GPRMC,193931.9,A,3307.400908,N,11719.490282,W,15.4,347.8,060710,,,A*45
$GPRMC,193934.9,A,3307.414971,N,11719.498327,W,13.2,322.4,060710,,,A*42
$GPRMC,193937.9,A,3307.421028,N,11719.507129,W,9.1,305.4,060710,,,A*74
$GPRMC,193940.9,A,3307.426098,N,11719.516226,W,9.6,306.8,060710,,,A*7C
$GPRMC,193943.9,A,3307.432052,N,11719.520116,W,8.2,320.0,060710,,,A*70
$GPRMC,193946.9,A,3307.438677,N,11719.522327,W,7.0,335.7,060710,,,A*72
$GPRMC,193949.9,A,3307.443822,N,11719.521729,W,5.2,355.7,060710,,,A*70
$GPRMC,193958.9,A,3307.443543,N,11719.511726,W,5.0,112.8,060710,,,A*7A
$GPRMC,194001.9,A,3307.438980,N,11719.504796,W,8.1,115.7,060710,,,A*7C
$GPRMC,194004.9,A,3307.427857,N,11719.497035,W,12.3,141.5,060710,,,A*43
$GPRMC,194007.9,A,3307.411312,N,11719.493359,W,16.2,167.3,060710,,,A*45
$GPRMC,194010.9,A,3307.393334,N,11719.491957,W,15.1,174.4,060710,,,A*49
$GPRMC,194013.9,A,3307.388601,N,11719.491999,W,7.6,187.9,060710,,,A*74
$GPRMC,194046.9,A,3307.387635,N,11719.491565,W,7.7,178.2,060710,,,A*79
$GPRMC,194049.9,A,3307.370429,N,11719.493148,W,17.7,181.4,060710,,,A*49
$GPRMC,194052.9,A,3307.352879,N,11719.496777,W,15.6,186.0,060710,,,A*45
$GPRMC,194055.9,A,3307.340532,N,11719.496288,W,13.1,163.2,060710,,,A*4E
$GPRMC,194058.9,A,3307.331238,N,11719.489519,W,10.2,139.7,060710,,,A*43
$GPRMC,194101.9,A,3307.328543,N,11719.475788,W,15.9,114.4,060710,,,A*46
$GPRMC,194104.9,A,3307.325881,N,11719.454396,W,22.3,104.2,060710,,,A*4C
$GPRMC,194107.9,A,3307.321466,N,11719.432058,W,22.8,103.0,060710,,,A*41
$GPRMC,194110.9,A,3307.317895,N,11719.408159,W,25.9,103.4,060710,,,A*49
$GPRMC,194113.9,A,3307.311835,N,11719.381892,W,27.0,109.5,060710,,,A*4E
$GPRMC,194116.2,A,3307.301279,N,11719.361680,W,30.6,119.7,060710,,,A*43
$GPRMC,194119.9,A,3307.275568,N,11719.330961,W,34.9,134.1,060710,,,A*44
$GPRMC,194122.9,A,3307.249096,N,11719.306814,W,38.2,141.0,060710,,,A*45
$GPRMC,194125.9,A,3307.222178,N,11719.284184,W,38.7,143.6,060710,,,A*44
$GPRMC,194128.9,A,3307.192883,N,11719.259960,W,42.9,145.7,060710,,,A*4A
$GPRMC,194131.9,A,3307.155724,N,11719.230579,W,53.7,140.2,060710,,,A*4E
$GPRMC,194134.9,A,3307.117953,N,11719.208676,W,52.2,151.0,060710,,,A*42
$GPRMC,194137.9,A,3307.078343,N,11719.183095,W,53.0,153.2,060710,,,A*4A
$GPRMC,194140.9,A,3307.037972,N,11719.161592,W,53.9,153.9,060710,,,A*45
$GPRMC,194143.9,A,3306.996331,N,11719.136781,W,54.1,153.1,060710,,,A*4D
$GPRMC,194146.9,A,3306.955258,N,11719.113180,W,54.7,153.4,060710,,,A*4A
$GPRMC,194149.9,A,3306.913941,N,11719.087710,W,55.1,152.9,060710,,,A*4C
$GPRMC,194152.9,A,3306.873324,N,11719.064803,W,55.3,153.1,060710,,,A*43
$GPRMC,194155.9,A,3306.829360,N,11719.040749,W,57.1,154.8,060710,,,A*42
$GPRMC,194158.9,A,3306.787532,N,11719.016369,W,55.4,154.3,060710,,,A*4C
$GPRMC,194201.9,A,3306.747504,N,11718.990490,W,52.8,152.3,060710,,,A*40
$GPRMC,194204.2,A,3306.718428,N,11718.970391,W,53.1,148.5,060710,,,A*46
$GPRMC,194207.2,A,3306.677159,N,11718.945586,W,55.9,151.9,060710,,,A*42
$GPRMC,194210.2,A,3306.636347,N,11718.920271,W,54.6,153.0,060710,,,A*45
$GPRMC,194213.2,A,3306.596248,N,11718.895476,W,53.6,152.0,060710,,,A*49
$GPRMC,194216.9,A,3306.546673,N,11718.864244,W,55.6,152.6,060710,,,A*4F
$GPRMC,194219.9,A,3306.506892,N,11718.839572,W,55.3,151.8,060710,,,A*47
$GPRMC,194222.9,A,3306.463017,N,11718.810901,W,57.9,150.5,060710,,,A*4F
$GPRMC,194225.9,A,3306.421361,N,11718.787903,W,55.8,153.0,060710,,,A*4A
$GPRMC,194228.9,A,3306.380770,N,11718.761630,W,55.7,150.7,060710,,,A*43
$GPRMC,194231.9,A,3306.341324,N,11718.732923,W,55.0,151.6,060710,,,A*4F
$GPRMC,194234.9,A,3306.300121,N,11718.707600,W,56.2,151.9,060710,,,A*4E
$GPRMC,194237.9,A,3306.256970,N,11718.680042,W,56.6,151.1,060710,,,A*41
$GPRMC,194240.9,A,3306.217550,N,11718.653601,W,56.3,150.1,060710,,,A*41
$GPRMC,194243.2,A,3306.185784,N,11718.631387,W,58.1,149.9,060710,,,A*49
$GPRMC,194246.9,A,3306.131833,N,11718.595283,W,61.3,151.6,060710,,,A*4D
$GPRMC,194249.9,A,3306.087443,N,11718.565681,W,61.9,150.2,060710,,,A*43
$GPRMC,194252.9,A,3306.042030,N,11718.534929,W,62.4,150.8,060710,,,A*4D
$GPRMC,194255.9,A,3305.993976,N,11718.504792,W,64.4,151.7,060710,,,A*42
$GPRMC,194258.9,A,3305.946748,N,11718.473247,W,64.6,150.1,060710,,,A*4D
$GPRMC,194301.9,A,3305.900318,N,11718.442640,W,61.4,151.1,060710,,,A*44
$GPRMC,194304.9,A,3305.858969,N,11718.415054,W,58.4,149.3,060710,,,A*41
$GPRMC,194307.9,A,3305.821474,N,11718.392487,W,48.7,154.1,060710,,,A*43
$GPRMC,194310.9,A,3305.791609,N,11718.369301,W,43.9,150.7,060710,,,A*43
$GPRMC,194313.9,A,3305.759425,N,11718.351297,W,42.4,154.9,060710,,,A*4B
$GPRMC,194316.9,A,3305.727214,N,11718.332531,W,42.1,152.7,060710,,,A*40
$GPRMC,194319.9,A,3305.702814,N,11718.311430,W,36.9,149.0,060710,,,A*45
$GPRMC,194322.9,A,3305.676403,N,11718.294255,W,34.6,152.2,060710,,,A*49
$GPRMC,194325.9,A,3305.651398,N,11718.280858,W,32.5,153.1,060710,,,A*4B
$GPRMC,194328.9,A,3305.628646,N,11718.265047,W,31.8,150.1,060710,,,A*4E
$GPRMC,194331.9,A,3305.603081,N,11718.249124,W,35.7,151.6,060710,,,A*45
$GPRMC,194334.9,A,3305.576410,N,11718.230381,W,37.0,150.0,060710,,,A*4C
$GPRMC,194337.9,A,3305.546457,N,11718.212020,W,38.4,151.3,060710,,,A*4E
$GPRMC,194340.9,A,3305.519314,N,11718.193933,W,37.0,151.2,060710,,,A*4F
$GPRMC,194343.9,A,3305.490623,N,11718.176311,W,40.5,150.8,060710,,,A*42
$GPRMC,194346.9,A,3305.461425,N,11718.155353,W,42.1,149.4,060710,,,A*48
$GPRMC,194349.9,A,3305.426203,N,11718.133354,W,48.0,150.8,060710,,,A*4E
$GPRMC,194352.9,A,3305.389015,N,11718.109776,W,50.1,151.4,060710,,,A*4B
$GPRMC,194355.9,A,3305.351888,N,11718.083488,W,51.4,150.8,060710,,,A*4D
$GPRMC,194358.9,A,3305.316237,N,11718.058989,W,48.2,151.2,060710,,,A*42
$GPRMC,194401.9,A,3305.282706,N,11718.039206,W,43.6,152.0,060710,,,A*47
$GPRMC,194404.9,A,3305.255880,N,11718.022006,W,35.3,153.0,060710,,,A*44
$GPRMC,194407.9,A,3305.240769,N,11718.011861,W,17.7,158.8,060710,,,A*45
$GPRMC,194410.9,A,3305.235742,N,11718.009254,W,6.2,166.4,060710,,,A*79
$GPRMC,194413.9,A,3305.234076,N,11718.007873,W,5.4,140.5,060710,,,A*7A
$GPRMC,194416.9,A,3305.228895,N,11718.004164,W,5.4,165.3,060710,,,A*7A
$GPRMC,194419.9,A,3305.224917,N,11718.004492,W,4.7,171.6,060710,,,A*7C
$GPRMC,194422.9,A,3305.218670,N,11717.999676,W,10.6,145.1,060710,,,A*4B
$GPRMC,194425.9,A,3305.209145,N,11717.991376,W,15.9,147.0,060710,,,A*49
$GPRMC,194428.9,A,3305.190589,N,11717.982008,W,23.7,152.3,060710,,,A*47
$GPRMC,194431.9,A,3305.171424,N,11717.969877,W,26.1,151.5,060710,,,A*45
$GPRMC,194434.9,A,3305.150460,N,11717.957824,W,27.9,151.2,060710,,,A*46
$GPRMC,194437.9,A,3305.130623,N,11717.943983,W,25.8,151.3,060710,,,A*4D
$GPRMC,194440.9,A,3305.115541,N,11717.933490,W,20.1,153.2,060710,,,A*4A
$GPRMC,194443.9,A,3305.104047,N,11717.927219,W,15.4,155.3,060710,,,A*4C
$GPRMC,194446.9,A,3305.095303,N,11717.922080,W,10.4,158.3,060710,,,A*4C
$GPRMC,194449.9,A,3305.090856,N,11717.920829,W,4.7,170.7,060710,,,A*7C
$GPRMC,194504.9,A,3305.090869,N,11717.917703,W,5.2,145.4,060710,,,A*7A
$GPRMC,194507.9,A,3305.086089,N,11717.916922,W,4.6,161.9,060710,,,A*7A
$GPRMC,194510.9,A,3305.081376,N,11717.912806,W,7.4,145.8,060710,,,A*7D
$GPRMC,194513.9,A,3305.071789,N,11717.907068,W,12.7,149.7,060710,,,A*45
$GPRMC,194516.9,A,3305.061953,N,11717.901589,W,13.3,151.0,060710,,,A*4F
$GPRMC,194519.2,A,3305.051694,N,11717.897319,W,16.6,155.0,060710,,,A*49
$GPRMC,194522.2,A,3305.040395,N,11717.888662,W,17.7,151.6,060710,,,A*40
$GPRMC,194525.9,A,3305.022213,N,11717.882692,W,20.5,162.4,060710,,,A*46
$GPRMC,194528.9,A,3304.998458,N,11717.875772,W,27.8,163.2,060710,,,A*41
$GPRMC,194531.9,A,3304.974331,N,11717.866800,W,29.7,163.7,060710,,,A*4F
$GPRMC,194534.9,A,3304.950057,N,11717.860706,W,29.6,166.3,060710,,,A*40
$GPRMC,194537.9,A,3304.927307,N,11717.850424,W,30.1,157.6,060710,,,A*4D
$GPRMC,194540.9,A,3304.899866,N,11717.843558,W,31.8,166.4,060710,,,A*45
$GPRMC,194543.9,A,3304.877055,N,11717.836796,W,28.7,166.9,060710,,,A*46
$GPRMC,194546.9,A,3304.852857,N,11717.832235,W,27.5,169.6,060710,,,A*4B
$GPRMC,194549.9,A,3304.831712,N,11717.825568,W,28.6,165.7,060710,,,A*47
$GPRMC,194552.9,A,3304.807818,N,11717.817547,W,30.3,163.6,060710,,,A*4A
$GPRMC,194555.9,A,3304.779825,N,11717.808479,W,34.8,164.5,060710,,,A*4C
$GPRMC,194558.9,A,3304.750996,N,11717.798510,W,36.8,165.4,060710,,,A*49
$GPRMC,194601.9,A,3304.712400,N,11717.787021,W,44.7,163.4,060710,,,A*47
$GPRMC,194604.9,A,3304.671511,N,11717.773996,W,48.0,162.7,060710,,,A*40
$GPRMC,194607.9,A,3304.632033,N,11717.761385,W,50.4,165.6,060710,,,A*41
$GPRMC,194610.9,A,3304.593480,N,11717.747614,W,50.6,164.8,060710,,,A*47
$GPRMC,194613.9,A,3304.551212,N,11717.736583,W,52.5,166.8,060710,,,A*4F
$GPRMC,194616.9,A,3304.506335,N,11717.726563,W,53.8,168.8,060710,,,A*41
$GPRMC,194619.9,A,3304.464163,N,11717.712835,W,52.2,165.5,060710,,,A*48
$GPRMC,194622.9,A,3304.422213,N,11717.696484,W,52.0,164.0,060710,,,A*4B
$GPRMC,194625.9,A,3304.380415,N,11717.685263,W,51.2,166.0,060710,,,A*4D
$GPRMC,194628.9,A,3304.337523,N,11717.672640,W,52.4,166.1,060710,,,A*41
$GPRMC,194631.9,A,3304.292288,N,11717.660928,W,55.0,167.3,060710,,,A*43
$GPRMC,194634.9,A,3304.252109,N,11717.646767,W,52.4,164.8,060710,,,A*4A
$GPRMC,194637.9,A,3304.209296,N,11717.632560,W,55.0,165.5,060710,,,A*4B
$GPRMC,194640.9,A,3304.163305,N,11717.617833,W,56.3,166.6,060710,,,A*43
$GPRMC,194643.9,A,3304.121499,N,11717.604838,W,52.8,165.7,060710,,,A*40
$GPRMC,194646.9,A,3304.079186,N,11717.592874,W,53.5,166.1,060710,,,A*4F
$GPRMC,194649.9,A,3304.034538,N,11717.580102,W,55.7,165.9,060710,,,A*4C
$GPRMC,194652.9,A,3303.989243,N,11717.566711,W,55.5,166.0,060710,,,A*41
$GPRMC,194655.9,A,3303.945344,N,11717.551521,W,55.6,164.4,060710,,,A*40
$GPRMC,194659.2,A,3303.898902,N,11717.535849,W,52.4,164.9,060710,,,A*47
$GPRMC,194702.9,A,3303.842900,N,11717.519623,W,54.8,166.1,060710,,,A*4A
$GPRMC,194705.9,A,3303.798724,N,11717.507763,W,53.6,166.7,060710,,,A*48
$GPRMC,194708.9,A,3303.756980,N,11717.494572,W,50.6,166.8,060710,,,A*42
$GPRMC,194711.9,A,3303.720960,N,11717.484020,W,45.8,166.8,060710,,,A*4C
$GPRMC,194714.9,A,3303.683480,N,11717.474123,W,45.0,167.3,060710,,,A*4D
$GPRMC,194717.9,A,3303.651993,N,11717.461978,W,41.6,163.5,060710,,,A*4C
$GPRMC,194720.9,A,3303.620717,N,11717.453131,W,40.0,167.6,060710,,,A*48
$GPRMC,194723.9,A,3303.588061,N,11717.444207,W,39.4,167.2,060710,,,A*42
$GPRMC,194726.9,A,3303.560728,N,11717.433731,W,36.7,165.8,060710,,,A*4F
$GPRMC,194729.9,A,3303.529792,N,11717.426728,W,36.2,168.1,060710,,,A*41
$GPRMC,194732.9,A,3303.503488,N,11717.418857,W,33.1,167.6,060710,,,A*4F
$GPRMC,194735.9,A,3303.481613,N,11717.411167,W,29.6,167.0,060710,,,A*4A
$GPRMC,194738.9,A,3303.459284,N,11717.402950,W,28.2,164.5,060710,,,A*45
$GPRMC,194741.9,A,3303.433705,N,11717.398816,W,28.6,167.5,060710,,,A*4B
$GPRMC,194744.9,A,3303.414382,N,11717.391693,W,26.7,166.5,060710,,,A*44
$GPRMC,194747.9,A,3303.391905,N,11717.382846,W,28.4,164.7,060710,,,A*41
$GPRMC,194750.9,A,3303.370330,N,11717.375483,W,27.6,163.8,060710,,,A*4C
$GPRMC,194753.9,A,3303.342896,N,11717.370000,W,30.0,167.0,060710,,,A*4F
$GPRMC,194756.9,A,3303.316755,N,11717.365496,W,30.7,168.2,060710,,,A*4E
$GPRMC,194759.9,A,3303.292523,N,11717.358892,W,30.2,167.2,060710,,,A*43
$GPRMC,194802.9,A,3303.270769,N,11717.351614,W,29.2,165.2,060710,,,A*41
$GPRMC,194805.9,A,3303.248388,N,11717.342112,W,28.8,160.3,060710,,,A*4A
$GPRMC,194808.9,A,3303.220845,N,11717.335606,W,32.1,170.1,060710,,,A*40
$GPRMC,194811.9,A,3303.197032,N,11717.328250,W,30.1,168.0,060710,,,A*4E
$GPRMC,194814.9,A,3303.173829,N,11717.319857,W,28.4,166.0,060710,,,A*4E
$GPRMC,194817.9,A,3303.148017,N,11717.312415,W,31.1,164.8,060710,,,A*46
$GPRMC,194820.9,A,3303.124828,N,11717.304726,W,30.0,164.6,060710,,,A*46
$GPRMC,194823.9,A,3303.100657,N,11717.296398,W,30.1,163.9,060710,,,A*47
$GPRMC,194826.9,A,3303.073179,N,11717.288963,W,33.8,167.4,060710,,,A*4E
$GPRMC,194829.9,A,3303.041286,N,11717.280823,W,36.8,163.8,060710,,,A*43
$GPRMC,194832.9,A,3303.008859,N,11717.270898,W,39.6,164.6,060710,,,A*4B
$GPRMC,194835.9,A,3302.975571,N,11717.259807,W,42.6,163.9,060710,,,A*40
$GPRMC,194838.9,A,3302.935842,N,11717.249290,W,47.1,165.6,060710,,,A*4A
$GPRMC,194841.9,A,3302.896213,N,11717.236385,W,48.0,165.2,060710,,,A*45
$GPRMC,194844.9,A,3302.853356,N,11717.226487,W,49.6,165.9,060710,,,A*41
$GPRMC,194847.9,A,3302.814090,N,11717.214156,W,49.6,166.7,060710,,,A*4D
$GPRMC,194850.9,A,3302.777959,N,11717.203784,W,46.2,166.3,060710,,,A*4D
$GPRMC,194853.9,A,3302.740285,N,11717.193623,W,45.2,167.1,060710,,,A*46
$GPRMC,194856.9,A,3302.708210,N,11717.181910,W,41.2,167.7,060710,,,A*4D
$GPRMC,194859.9,A,3302.678773,N,11717.175107,W,36.1,169.5,060710,,,A*4E
$GPRMC,194902.9,A,3302.650588,N,11717.169504,W,32.3,169.7,060710,,,A*43
$GPRMC,194905.9,A,3302.628111,N,11717.162856,W,29.3,166.4,060710,,,A*48
$GPRMC,194908.9,A,3302.607139,N,11717.153824,W,29.0,164.2,060710,,,A*42
$GPRMC,194911.2,A,3302.585672,N,11717.147386,W,33.8,164.7,060710,,,A*40
$GPRMC,194914.9,A,3302.553292,N,11717.137696,W,34.1,169.0,060710,,,A*48
$GPRMC,194917.9,A,3302.522823,N,11717.123900,W,38.8,160.0,060710,,,A*44
$GPRMC,194920.9,A,3302.496730,N,11717.107022,W,37.2,156.9,060710,,,A*45
$GPRMC,194923.9,A,3302.469393,N,11717.092823,W,32.6,156.2,060710,,,A*45
$GPRMC,194926.9,A,3302.452201,N,11717.080741,W,24.2,150.3,060710,,,A*4E
$GPRMC,194929.9,A,3302.438445,N,11717.071611,W,19.7,152.3,060710,,,A*48
$GPRMC,194932.9,A,3302.423730,N,11717.061348,W,22.0,149.0,060710,,,A*47
$GPRMC,194935.9,A,3302.405493,N,11717.051099,W,27.0,149.7,060710,,,A*40
$GPRMC,194938.9,A,3302.381727,N,11717.034020,W,33.5,149.4,060710,,,A*48
$GPRMC,194941.9,A,3302.355364,N,11717.016876,W,36.2,151.3,060710,,,A*4B
$GPRMC,194944.9,A,3302.328798,N,11716.999980,W,36.7,151.2,060710,,,A*40
$GPRMC,194947.9,A,3302.302325,N,11716.981003,W,37.6,151.0,060710,,,A*40
$GPRMC,194950.9,A,3302.274253,N,11716.961933,W,37.8,149.8,060710,,,A*4D
$GPRMC,194953.9,A,3302.246503,N,11716.943798,W,39.5,151.2,060710,,,A*42
$GPRMC,194956.9,A,3302.215425,N,11716.923914,W,42.0,149.7,060710,,,A*4D
$GPRMC,194959.9,A,3302.183688,N,11716.900816,W,43.8,150.9,060710,,,A*46
$GPRMC,195002.9,A,3302.150692,N,11716.878330,W,45.3,151.0,060710,,,A*41
$GPRMC,195005.9,A,3302.117608,N,11716.855273,W,44.3,150.5,060710,,,A*4A
$GPRMC,195008.9,A,3302.087372,N,11716.833900,W,42.7,150.2,060710,,,A*4D
$GPRMC,195011.9,A,3302.059023,N,11716.813914,W,41.1,149.6,060710,,,A*4F
$GPRMC,195014.9,A,3302.024852,N,11716.793964,W,45.2,151.4,060710,,,A*42
$GPRMC,195017.9,A,3301.991441,N,11716.771825,W,46.8,151.0,060710,,,A*4E
$GPRMC,195020.9,A,3301.958217,N,11716.749021,W,45.4,152.7,060710,,,A*46
$GPRMC,195023.9,A,3301.922022,N,11716.725885,W,47.7,151.4,060710,,,A*41
$GPRMC,195027.2,A,3301.884147,N,11716.698476,W,48.5,148.1,060710,,,A*46
$GPRMC,195030.9,A,3301.840872,N,11716.669285,W,49.0,150.8,060710,,,A*4C
$GPRMC,195033.9,A,3301.804814,N,11716.641195,W,51.9,147.1,060710,,,A*48
$GPRMC,195036.9,A,3301.762420,N,11716.617354,W,53.6,152.4,060710,,,A*49
$GPRMC,195039.9,A,3301.721508,N,11716.591813,W,55.8,151.2,060710,,,A*42
$GPRMC,195042.9,A,3301.683313,N,11716.563399,W,53.6,148.2,060710,,,A*4F
$GPRMC,195045.9,A,3301.642068,N,11716.536467,W,56.3,150.2,060710,,,A*45
$GPRMC,195048.9,A,3301.601862,N,11716.512147,W,55.6,153.1,060710,,,A*4A
$GPRMC,195051.9,A,3301.561044,N,11716.485798,W,55.5,153.3,060710,,,A*41
$GPRMC,195054.9,A,3301.516629,N,11716.465562,W,56.1,157.3,060710,,,A*43
$GPRMC,195057.9,A,3301.471447,N,11716.444585,W,57.7,161.6,060710,,,A*47
$GPRMC,195100.9,A,3301.428008,N,11716.429302,W,54.4,164.4,060710,,,A*42
$GPRMC,195103.2,A,3301.389231,N,11716.422655,W,57.2,169.7,060710,,,A*49
$GPRMC,195106.2,A,3301.342426,N,11716.413288,W,56.9,170.2,060710,,,A*4A
$GPRMC,195109.2,A,3301.296107,N,11716.404427,W,56.6,170.6,060710,,,A*45
$GPRMC,195112.9,A,3301.237647,N,11716.393586,W,57.2,170.8,060710,,,A*44
$GPRMC,195115.9,A,3301.190162,N,11716.382120,W,58.0,168.1,060710,,,A*48
$GPRMC,195118.9,A,3301.145338,N,11716.367971,W,56.8,163.8,060710,,,A*43
$GPRMC,195121.9,A,3301.101535,N,11716.348233,W,57.5,160.1,060710,,,A*44
$GPRMC,195124.9,A,3301.056853,N,11716.326094,W,56.8,157.6,060710,,,A*47
$GPRMC,195127.9,A,3301.010332,N,11716.298304,W,60.1,152.2,060710,,,A*49
$GPRMC,195130.9,A,3300.968919,N,11716.269112,W,59.2,148.9,060710,,,A*49
$GPRMC,195133.9,A,3300.930943,N,11716.234438,W,57.4,143.6,060710,,,A*41
$GPRMC,195136.9,A,3300.893838,N,11716.198465,W,57.0,140.9,060710,,,A*44
$GPRMC,195139.9,A,3300.860913,N,11716.156442,W,58.7,135.0,060710,,,A*4B
$GPRMC,195142.9,A,3300.825453,N,11716.115953,W,59.2,135.0,060710,,,A*41
$GPRMC,195145.9,A,3300.786602,N,11716.075567,W,60.4,138.9,060710,,,A*42
$GPRMC,195148.9,A,3300.754719,N,11716.037173,W,56.8,136.3,060710,,,A*41
$GPRMC,195151.9,A,3300.720014,N,11715.998265,W,57.5,136.3,060710,,,A*47
$GPRMC,195154.9,A,3300.688070,N,11715.961934,W,53.6,136.9,060710,,,A*47
$GPRMC,195157.9,A,3300.656663,N,11715.924951,W,53.9,135.4,060710,,,A*40
$GPRMC,195200.9,A,3300.626452,N,11715.886519,W,53.1,134.3,060710,,,A*41
$GPRMC,195203.9,A,3300.594959,N,11715.850167,W,55.3,135.1,060710,,,A*4F
$GPRMC,195206.9,A,3300.561481,N,11715.811917,W,55.2,135.5,060710,,,A*47
$GPRMC,195209.9,A,3300.527475,N,11715.775096,W,55.3,136.1,060710,,,A*4A
$GPRMC,195212.9,A,3300.496127,N,11715.735949,W,55.3,135.0,060710,,,A*44
$GPRMC,195215.9,A,3300.462411,N,11715.696362,W,56.3,135.5,060710,,,A*45
$GPRMC,195218.9,A,3300.427323,N,11715.657716,W,56.3,135.4,060710,,,A*44
$GPRMC,195221.9,A,3300.394428,N,11715.619423,W,55.6,135.6,060710,,,A*46
$GPRMC,195224.9,A,3300.357915,N,11715.582840,W,56.4,139.7,060710,,,A*4B
$GPRMC,195227.9,A,3300.319339,N,11715.549246,W,57.5,145.3,060710,,,A*42
$GPRMC,195230.9,A,3300.277150,N,11715.520350,W,58.5,150.3,060710,,,A*42
$GPRMC,195233.9,A,3300.230991,N,11715.491885,W,60.3,152.6,060710,,,A*45
$GPRMC,195236.9,A,3300.183289,N,11715.473478,W,58.5,162.3,060710,,,A*40
$GPRMC,195239.9,A,3300.137230,N,11715.460345,W,57.3,168.6,060710,,,A*4F
$GPRMC,195242.9,A,3300.088059,N,11715.449009,W,59.4,169.3,060710,,,A*46
$GPRMC,195245.9,A,3300.032731,N,11715.443971,W,63.6,172.3,060710,,,A*44
$GPRMC,195248.9,A,3259.980542,N,11715.435793,W,63.0,172.7,060710,,,A*43
$GPRMC,195251.9,A,3259.927885,N,11715.429879,W,63.2,174.3,060710,,,A*46
$GPRMC,195254.9,A,3259.877879,N,11715.426828,W,59.1,177.2,060710,,,A*47
$GPRMC,195257.9,A,3259.837420,N,11715.421298,W,52.0,178.0,060710,,,A*41
$GPRMC,195300.9,A,3259.801226,N,11715.416102,W,46.9,175.6,060710,,,A*44
$GPRMC,195303.9,A,3259.769109,N,11715.407637,W,44.3,172.2,060710,,,A*42
$GPRMC,195306.9,A,3259.730589,N,11715.402017,W,45.6,172.7,060710,,,A*47
$GPRMC,195309.9,A,3259.691131,N,11715.393108,W,48.0,170.5,060710,,,A*4E
$GPRMC,195312.9,A,3259.648474,N,11715.385165,W,51.0,170.2,060710,,,A*47
$GPRMC,195315.9,A,3259.598562,N,11715.379682,W,56.0,171.8,060710,,,A*49
$GPRMC,195318.9,A,3259.552793,N,11715.371638,W,55.6,172.7,060710,,,A*4E
$GPRMC,195321.9,A,3259.507725,N,11715.362547,W,55.9,172.2,060710,,,A*4A
$GPRMC,195324.9,A,3259.457306,N,11715.360866,W,57.6,175.1,060710,,,A*4B
$GPRMC,195327.9,A,3259.410387,N,11715.354347,W,57.2,174.0,060710,,,A*49
$GPRMC,195330.9,A,3259.362654,N,11715.346712,W,57.3,173.6,060710,,,A*41
$GPRMC,195333.9,A,3259.319196,N,11715.336471,W,55.9,170.2,060710,,,A*49
$GPRMC,195336.9,A,3259.271068,N,11715.328878,W,57.0,170.0,060710,,,A*40
$GPRMC,195339.9,A,3259.227612,N,11715.318513,W,55.2,171.4,060710,,,A*41
$GPRMC,195342.9,A,3259.179975,N,11715.307363,W,57.5,170.2,060710,,,A*46
$GPRMC,195345.9,A,3259.125893,N,11715.305118,W,60.3,173.0,060710,,,A*4E
$GPRMC,195348.9,A,3259.076826,N,11715.295469,W,60.3,169.9,060710,,,A*43
$GPRMC,195351.9,A,3259.029750,N,11715.280587,W,60.4,165.8,060710,,,A*40
$GPRMC,195354.9,A,3258.981254,N,11715.263005,W,61.5,162.6,060710,,,A*45
$GPRMC,195357.9,A,3258.933377,N,11715.242918,W,61.4,162.2,060710,,,A*4C
$GPRMC,195400.9,A,3258.880281,N,11715.225019,W,63.6,163.2,060710,,,A*40
$GPRMC,195403.9,A,3258.831914,N,11715.205510,W,61.5,161.5,060710,,,A*44
$GPRMC,195406.9,A,3258.784607,N,11715.188093,W,60.4,163.1,060710,,,A*43
$GPRMC,195409.9,A,3258.736664,N,11715.168918,W,60.7,163.1,060710,,,A*47
$GPRMC,195412.9,A,3258.688272,N,11715.150338,W,60.1,161.7,060710,,,A*4B
$GPRMC,195415.9,A,3258.641771,N,11715.131071,W,60.1,161.5,060710,,,A*44
$GPRMC,195418.9,A,3258.590512,N,11715.113790,W,61.4,162.5,060710,,,A*4E
$GPRMC,195421.9,A,3258.543952,N,11715.095475,W,60.0,161.8,060710,,,A*4E
$GPRMC,195424.9,A,3258.498424,N,11715.076274,W,60.6,161.5,060710,,,A*41
$GPRMC,195427.9,A,3258.445945,N,11715.059027,W,64.8,164.2,060710,,,A*49
$GPRMC,195430.9,A,3258.389077,N,11715.039663,W,69.1,162.0,060710,,,A*40
$GPRMC,195433.2,A,3258.347062,N,11715.021856,W,69.5,160.6,060710,,,A*4F
$GPRMC,195436.2,A,3258.289925,N,11715.000155,W,71.0,161.9,060710,,,A*48
$GPRMC,195439.2,A,3258.233192,N,11714.978550,W,71.9,162.5,060710,,,A*42
$GPRMC,195442.2,A,3258.175479,N,11714.957063,W,73.0,162.7,060710,,,A*4E
$GPRMC,195445.2,A,3258.117097,N,11714.935467,W,72.3,162.4,060710,,,A*4C
$GPRMC,195448.9,A,3258.047614,N,11714.908823,W,70.4,162.7,060710,,,A*47
$GPRMC,195451.9,A,3257.994837,N,11714.888142,W,66.4,161.0,060710,,,A*4C
$GPRMC,195454.0,A,3257.961963,N,11714.875121,W,63.4,162.6,060710,,,A*4D
$GPRMC,195457.9,A,3257.896079,N,11714.850402,W,62.3,162.9,060710,,,A*46
$GPRMC,195500.9,A,3257.844293,N,11714.832709,W,62.5,162.6,060710,,,A*49
$GPRMC,195503.9,A,3257.794091,N,11714.815851,W,63.2,162.6,060710,,,A*49
$GPRMC,195506.9,A,3257.742919,N,11714.796528,W,63.2,161.9,060710,,,A*45
$GPRMC,195509.9,A,3257.693771,N,11714.778099,W,62.8,161.9,060710,,,A*43
$GPRMC,195512.9,A,3257.643768,N,11714.759554,W,62.9,163.6,060710,,,A*47
$GPRMC,195515.9,A,3257.592407,N,11714.744472,W,62.5,166.1,060710,,,A*42
$GPRMC,195518.9,A,3257.542183,N,11714.731396,W,60.8,168.0,060710,,,A*44
$GPRMC,195521.9,A,3257.496119,N,11714.718142,W,58.2,168.2,060710,,,A*46
$GPRMC,195524.9,A,3257.444572,N,11714.708766,W,61.6,170.4,060710,,,A*45
$GPRMC,195527.9,A,3257.387186,N,11714.704349,W,64.7,175.9,060710,,,A*48
$GPRMC,195530.9,A,3257.336218,N,11714.689206,W,63.4,170.2,060710,,,A*44
$GPRMC,195533.9,A,3257.283007,N,11714.678904,W,63.1,171.0,060710,,,A*45
$GPRMC,195536.9,A,3257.230387,N,11714.671992,W,62.6,172.4,060710,,,A*44
$GPRMC,195539.9,A,3257.183437,N,11714.661723,W,60.2,170.6,060710,,,A*4F
$GPRMC,195542.9,A,3257.131164,N,11714.651461,W,61.7,170.3,060710,,,A*4E
$GPRMC,195545.9,A,3257.080694,N,11714.641796,W,60.9,171.0,060710,,,A*4D
$GPRMC,195548.9,A,3257.031480,N,11714.630745,W,60.7,170.5,060710,,,A*4F
$GPRMC,195552.2,A,3256.978271,N,11714.620939,W,58.8,171.8,060710,,,A*4E
$GPRMC,195555.9,A,3256.919073,N,11714.609371,W,60.1,170.0,060710,,,A*43
$GPRMC,195558.9,A,3256.864540,N,11714.597676,W,64.8,170.4,060710,,,A*4F
$GPRMC,195601.9,A,3256.808343,N,11714.589481,W,67.7,172.8,060710,,,A*48
$GPRMC,195604.9,A,3256.754893,N,11714.580356,W,66.8,171.8,060710,,,A*44
$GPRMC,195607.9,A,3256.697156,N,11714.567863,W,68.3,170.8,060710,,,A*49
$GPRMC,195610.9,A,3256.643755,N,11714.558490,W,66.3,171.9,060710,,,A*41
$GPRMC,195613.9,A,3256.587275,N,11714.550956,W,67.3,172.1,060710,,,A*4B
$GPRMC,195616.9,A,3256.529870,N,11714.541693,W,66.9,171.4,060710,,,A*4E
$GPRMC,195619.9,A,3256.475669,N,11714.531673,W,66.5,171.1,060710,,,A*4F
$GPRMC,195622.9,A,3256.422681,N,11714.521249,W,65.7,170.6,060710,,,A*48
$GPRMC,195625.9,A,3256.367595,N,11714.512529,W,67.2,172.7,060710,,,A*4A
$GPRMC,195628.9,A,3256.312117,N,11714.502871,W,68.4,173.7,060710,,,A*42
$GPRMC,195631.9,A,3256.252276,N,11714.494881,W,71.0,174.1,060710,,,A*47
$GPRMC,195634.9,A,3256.195067,N,11714.491660,W,69.0,175.5,060710,,,A*40
$GPRMC,195637.9,A,3256.136088,N,11714.492505,W,69.0,178.9,060710,,,A*49
$GPRMC,195640.9,A,3256.076519,N,11714.480892,W,69.3,173.8,060710,,,A*48
$GPRMC,195643.9,A,3256.017081,N,11714.476719,W,70.2,175.3,060710,,,A*49
$GPRMC,195646.9,A,3255.961790,N,11714.475630,W,67.8,175.2,060710,,,A*44
$GPRMC,195649.9,A,3255.903061,N,11714.471252,W,69.6,174.8,060710,,,A*49
$GPRMC,195652.9,A,3255.843211,N,11714.461917,W,69.0,171.9,060710,,,A*4A
$GPRMC,195655.9,A,3255.788752,N,11714.451506,W,67.0,169.5,060710,,,A*43
$GPRMC,195658.9,A,3255.731556,N,11714.435109,W,66.7,166.7,060710,,,A*48
$GPRMC,195701.9,A,3255.678877,N,11714.421591,W,64.0,167.1,060710,,,A*45
$GPRMC,195704.9,A,3255.632586,N,11714.404326,W,59.7,163.6,060710,,,A*4A
$GPRMC,195707.9,A,3255.583846,N,11714.387694,W,61.1,163.7,060710,,,A*4D
$GPRMC,195710.9,A,3255.533265,N,11714.370569,W,62.7,164.6,060710,,,A*41
$GPRMC,195713.9,A,3255.483140,N,11714.353429,W,62.2,164.3,060710,,,A*48
$GPRMC,195716.9,A,3255.428352,N,11714.335714,W,67.4,164.0,060710,,,A*40
$GPRMC,195719.9,A,3255.373187,N,11714.318355,W,68.1,162.6,060710,,,A*48
$GPRMC,195722.9,A,3255.319561,N,11714.294189,W,69.1,159.6,060710,,,A*4F
$GPRMC,195725.9,A,3255.272805,N,11714.263918,W,63.9,153.0,060710,,,A*4D
$GPRMC,195728.9,A,3255.227808,N,11714.231596,W,64.4,148.5,060710,,,A*45
$GPRMC,195731.9,A,3255.185663,N,11714.197645,W,65.7,145.1,060710,,,A*4C
$GPRMC,195734.9,A,3255.140056,N,11714.158427,W,68.7,142.6,060710,,,A*48
$GPRMC,195737.9,A,3255.097655,N,11714.114172,W,66.5,141.0,060710,,,A*41
$GPRMC,195740.9,A,3255.060328,N,11714.068184,W,64.8,135.1,060710,,,A*48
$GPRMC,195743.9,A,3255.026571,N,11714.020488,W,63.3,131.5,060710,,,A*4A
$GPRMC,195746.2,A,3255.000668,N,11713.983528,W,63.4,130.3,060710,,,A*47
$GPRMC,195749.9,A,3254.958799,N,11713.923145,W,63.9,130.5,060710,,,A*47
$GPRMC,195752.2,A,3254.931611,N,11713.886155,W,64.7,130.5,060710,,,A*4E
$GPRMC,195755.2,A,3254.886762,N,11713.844184,W,67.9,141.5,060710,,,A*48
$GPRMC,195758.9,A,3254.828321,N,11713.799352,W,67.8,149.3,060710,,,A*40
$GPRMC,195801.9,A,3254.775158,N,11713.766785,W,71.1,151.9,060710,,,A*4B
$GPRMC,195804.9,A,3254.716669,N,11713.728537,W,75.3,151.7,060710,,,A*47
$GPRMC,195807.9,A,3254.663272,N,11713.694580,W,71.3,151.9,060710,,,A*49
$GPRMC,195811.2,A,3254.608110,N,11713.660514,W,69.2,151.4,060710,,,A*4C
$GPRMC,195814.0,A,3254.563943,N,11713.634042,W,66.8,152.2,060710,,,A*4C
$GPRMC,195817.9,A,3254.500425,N,11713.592714,W,67.5,151.8,060710,,,A*40
$GPRMC,195820.9,A,3254.448900,N,11713.561657,W,68.4,153.1,060710,,,A*4C
$GPRMC,195823.9,A,3254.397983,N,11713.530352,W,69.1,153.8,060710,,,A*48
$GPRMC,195826.9,A,3254.344300,N,11713.499634,W,68.9,153.4,060710,,,A*40
$GPRMC,195829.9,A,3254.293178,N,11713.466125,W,71.4,149.6,060710,,,A*42
$GPRMC,195833.2,A,3254.237110,N,11713.421353,W,75.3,144.7,060710,,,A*4D
$GPRMC,195836.2,A,3254.189222,N,11713.375526,W,74.5,141.4,060710,,,A*4F
$GPRMC,195839.9,A,3254.131136,N,11713.319464,W,73.9,141.3,060710,,,A*4F
$GPRMC,195842.9,A,3254.083954,N,11713.274597,W,73.3,141.4,060710,,,A*4D
$GPRMC,195845.9,A,3254.038354,N,11713.229966,W,72.0,140.2,060710,,,A*4F
$GPRMC,195848.9,A,3253.992798,N,11713.184639,W,71.9,140.3,060710,,,A*42
$GPRMC,195851.9,A,3253.945154,N,11713.140840,W,71.8,141.7,060710,,,A*4A
$GPRMC,195854.9,A,3253.898436,N,11713.093490,W,72.8,140.6,060710,,,A*42
$GPRMC,195857.9,A,3253.848173,N,11713.051817,W,72.9,144.1,060710,,,A*47
$GPRMC,195900.9,A,3253.799601,N,11713.009777,W,72.9,143.5,060710,,,A*42
$GPRMC,195903.9,A,3253.751376,N,11712.963915,W,74.3,139.4,060710,,,A*4E
$GPRMC,195906.9,A,3253.708060,N,11712.913362,W,74.8,136.9,060710,,,A*47
$GPRMC,195909.9,A,3253.670924,N,11712.858701,W,72.4,130.3,060710,,,A*46
$GPRMC,195912.9,A,3253.635826,N,11712.802131,W,70.7,126.5,060710,,,A*44
$GPRMC,195915.9,A,3253.602321,N,11712.744810,W,70.8,123.8,060710,,,A*4B
$GPRMC,195918.9,A,3253.571218,N,11712.683049,W,72.5,120.9,060710,,,A*49
$GPRMC,195921.9,A,3253.544838,N,11712.618098,W,72.4,116.2,060710,,,A*4C
$GPRMC,195924.9,A,3253.520506,N,11712.554342,W,71.5,115.2,060710,,,A*45
$GPRMC,195927.9,A,3253.498659,N,11712.488338,W,70.8,114.4,060710,,,A*4B
$GPRMC,195930.9,A,3253.469309,N,11712.430804,W,68.2,122.1,060710,,,A*47
$GPRMC,195933.9,A,3253.433217,N,11712.374562,W,71.4,127.8,060710,,,A*4D
$GPRMC,195936.9,A,3253.391787,N,11712.325183,W,69.7,135.7,060710,,,A*42
$GPRMC,195939.9,A,3253.344958,N,11712.281626,W,70.4,141.5,060710,,,A*44
$GPRMC,195942.9,A,3253.296348,N,11712.242461,W,70.6,147.3,060710,,,A*41
$GPRMC,195945.9,A,3253.247079,N,11712.208359,W,68.5,150.4,060710,,,A*42
$GPRMC,195948.9,A,3253.187444,N,11712.185402,W,72.3,159.9,060710,,,A*4C
$GPRMC,195951.2,A,3253.147459,N,11712.166006,W,70.6,160.1,060710,,,A*47
$GPRMC,195954.9,A,3253.081622,N,11712.146052,W,65.3,165.0,060710,,,A*4A
$GPRMC,195957.9,A,3253.022635,N,11712.129319,W,70.2,166.4,060710,,,A*41
$GPRMC,200000.9,A,3252.963369,N,11712.113516,W,73.0,164.2,060710,,,A*41
$GPRMC,200003.9,A,3252.900909,N,11712.094336,W,73.7,165.9,060710,,,A*4C
$GPRMC,200006.9,A,3252.842679,N,11712.077790,W,71.3,166.7,060710,,,A*48
$GPRMC,200009.9,A,3252.783578,N,11712.059387,W,72.8,164.7,060710,,,A*43
$GPRMC,200012.9,A,3252.723591,N,11712.042455,W,73.4,165.1,060710,,,A*4C
$GPRMC,200015.9,A,3252.661516,N,11712.025343,W,74.5,166.1,060710,,,A*47
$GPRMC,200018.9,A,3252.602199,N,11712.005372,W,73.7,164.2,060710,,,A*48
$GPRMC,200021.9,A,3252.545342,N,11711.981764,W,73.3,159.7,060710,,,A*4C
$GPRMC,200024.9,A,3252.489771,N,11711.955360,W,71.5,155.9,060710,,,A*43
$GPRMC,200027.9,A,3252.435856,N,11711.922458,W,73.3,151.6,060710,,,A*4E
$GPRMC,200030.9,A,3252.379464,N,11711.888218,W,74.7,153.7,060710,,,A*49
$GPRMC,200033.9,A,3252.329425,N,11711.847882,W,73.8,145.6,060710,,,A*4E
$GPRMC,200036.9,A,3252.286022,N,11711.801412,W,72.4,139.2,060710,,,A*49
$GPRMC,200039.9,A,3252.238422,N,11711.754602,W,72.5,140.2,060710,,,A*44
$GPRMC,200042.9,A,3252.193286,N,11711.707253,W,73.0,138.2,060710,,,A*4F
$GPRMC,200045.2,A,3252.157680,N,11711.672961,W,71.4,140.4,060710,,,A*4F
$GPRMC,200048.9,A,3252.097881,N,11711.619845,W,71.3,142.6,060710,,,A*46
$GPRMC,200051.9,A,3252.052057,N,11711.577215,W,71.3,141.6,060710,,,A*43
$GPRMC,200054.2,A,3252.017592,N,11711.543075,W,73.0,141.5,060710,,,A*41
$GPRMC,200057.9,A,3251.959550,N,11711.482701,W,75.5,140.3,060710,,,A*4B
$GPRMC,200100.9,A,3251.910853,N,11711.434610,W,74.9,140.9,060710,,,A*40
$GPRMC,200103.9,A,3251.859783,N,11711.387853,W,73.8,141.9,060710,,,A*4C
$GPRMC,200106.9,A,3251.816003,N,11711.347899,W,68.8,141.8,060710,,,A*4C
$GPRMC,200109.9,A,3251.769614,N,11711.303831,W,70.6,140.6,060710,,,A*4E
$GPRMC,200112.9,A,3251.725508,N,11711.263755,W,67.5,141.7,060710,,,A*4D
$GPRMC,200115.9,A,3251.682164,N,11711.222891,W,68.9,141.7,060710,,,A*49
$GPRMC,200118.9,A,3251.635933,N,11711.181681,W,69.8,143.7,060710,,,A*45
$GPRMC,200121.9,A,3251.585800,N,11711.142734,W,71.7,148.7,060710,,,A*4B
$GPRMC,200124.9,A,3251.534760,N,11711.111145,W,70.9,152.9,060710,,,A*41
$GPRMC,200127.9,A,3251.480015,N,11711.077990,W,72.2,153.6,060710,,,A*4F
$GPRMC,200130.9,A,3251.427449,N,11711.044831,W,70.1,152.5,060710,,,A*40
$GPRMC,200133.9,A,3251.378499,N,11711.012546,W,67.9,152.6,060710,,,A*40
$GPRMC,200136.2,A,3251.340583,N,11710.987791,W,66.6,151.4,060710,,,A*4C
$GPRMC,200139.9,A,3251.280093,N,11710.952349,W,67.0,153.0,060710,,,A*49
$GPRMC,200142.9,A,3251.230512,N,11710.920981,W,68.2,151.9,060710,,,A*4F
$GPRMC,200145.9,A,3251.177576,N,11710.888812,W,69.5,152.9,060710,,,A*47
$GPRMC,200148.9,A,3251.128285,N,11710.857953,W,68.0,152.9,060710,,,A*49
$GPRMC,200151.9,A,3251.075652,N,11710.827162,W,68.7,152.6,060710,,,A*43
$GPRMC,200154.9,A,3251.025886,N,11710.796142,W,68.6,152.2,060710,,,A*46
$GPRMC,200157.9,A,3250.971073,N,11710.766646,W,71.6,154.7,060710,,,A*49
$GPRMC,200200.9,A,3250.917862,N,11710.733741,W,72.6,153.3,060710,,,A*46
$GPRMC,200203.9,A,3250.864007,N,11710.700010,W,73.3,153.0,060710,,,A*4F
$GPRMC,200206.9,A,3250.808330,N,11710.666554,W,74.7,152.9,060710,,,A*48
$GPRMC,200210.2,A,3250.748136,N,11710.630065,W,74.7,152.1,060710,,,A*47
$GPRMC,200213.9,A,3250.680012,N,11710.588525,W,75.0,153.1,060710,,,A*4B
$GPRMC,200216.9,A,3250.625311,N,11710.552361,W,73.8,152.8,060710,,,A*46
$GPRMC,200219.2,A,3250.581886,N,11710.526253,W,74.3,152.3,060710,,,A*4E
$GPRMC,200222.9,A,3250.514787,N,11710.486571,W,71.7,153.0,060710,,,A*40
$GPRMC,200225.9,A,3250.465570,N,11710.456243,W,67.3,153.2,060710,,,A*40
$GPRMC,200228.9,A,3250.413080,N,11710.427148,W,67.6,153.4,060710,,,A*4B
$GPRMC,200231.9,A,3250.365036,N,11710.397179,W,65.7,152.3,060710,,,A*43
