NMEA Sentence Code,UTC Time,Status,Latitude,Latitude Direction,Longitude,Longitude Direction,Speed (knots),Track Angle (degrees true),Date,MagneticVariation,Magnetic Variation Direction,[FAA Mode]-Optional,Checksum
$GPRMC,235243.53,A,3314.7768,N,11724.0775,W,40.720,149.523,051110,0,W,A*1E
$GPRMC,235246.53,A,3314.7471,N,11724.0556,W,41.945,148.903,051110,0,W,A*10
$GPRMC,235249.53,A,3314.7173,N,11724.0340,W,41.429,148.683,051110,0,W,A*19
$GPRMC,235252.53,A,3314.6874,N,11724.0120,W,41.824,148.811,051110,0,W,A*1C
$GPRMC,235255.53,A,3314.6567,N,11723.9900,W,42.604,148.817,051110,0,W,A*19
$GPRMC,235258.53,A,3314.6257,N,11723.9676,W,43.401,149.564,051110,0,W,A*10
$GPRMC,235301.53,A,3314.5937,N,11723.9447,W,44.568,149.002,051110,0,W,A*1F
$GPRMC,235304.53,A,3314.5616,N,11723.9214,W,44.938,148.961,051110,0,W,A*12
$GPRMC,235307.53,A,3314.5290,N,11723.8978,W,44.723,148.426,051110,0,W,A*11
$GPRMC,235310.53,A,3314.4965,N,11723.8747,W,44.232,149.149,051110,0,W,A*1D
$GPRMC,235313.53,A,3314.4646,N,11723.8519,W,43.755,149.544,051110,0,W,A*13
$GPRMC,235316.53,A,3314.4329,N,11723.8297,W,43.117,148.982,051110,0,W,A*1C
$GPRMC,235319.53,A,3314.4021,N,11723.8077,W,42.415,148.874,051110,0,W,A*1A
$GPRMC,235322.53,A,3314.3719,N,11723.7857,W,41.268,148.472,051110,0,W,A*19
$GPRMC,235325.53,A,3314.3430,N,11723.7641,W,40.262,147.561,051110,0,W,A*18
$GPRMC,235328.53,A,3314.3154,N,11723.7424,W,39.940,145.439,051110,0,W,A*18
$GPRMC,235331.53,A,3314.2882,N,11723.7206,W,40.467,143.350,051110,0,W,A*1D
$GPRMC,235334.53,A,3314.2619,N,11723.6962,W,41.019,140.464,051110,0,W,A*13
$GPRMC,235337.53,A,3314.2361,N,11723.6707,W,40.512,139.326,051110,0,W,A*17
$GPRMC,235340.53,A,3314.2108,N,11723.6443,W,40.221,136.757,051110,0,W,A*13
$GPRMC,235343.53,A,3314.1873,N,11723.6162,W,39.904,134.319,051110,0,W,A*1E
$GPRMC,235346.53,A,3314.1652,N,11723.5879,W,39.241,132.603,051110,0,W,A*14
$GPRMC,235349.53,A,3314.1431,N,11723.5586,W,40.542,132.679,051110,0,W,A*16
$GPRMC,235352.53,A,3314.1204,N,11723.5287,W,40.971,132.905,051110,0,W,A*12
$GPRMC,235355.53,A,3314.0975,N,11723.4991,W,40.028,132.888,051110,0,W,A*15
$GPRMC,235358.53,A,3314.0750,N,11723.4708,W,39.120,132.804,051110,0,W,A*1C
$GPRMC,235401.53,A,3314.0528,N,11723.4429,W,38.708,133.329,051110,0,W,A*12
$GPRMC,235404.53,A,3314.0309,N,11723.4159,W,37.497,134.664,051110,0,W,A*11
$GPRMC,235407.53,A,3314.0097,N,11723.3907,W,33.463,135.614,051110,0,W,A*1B
$GPRMC,235410.53,A,3313.9919,N,11723.3699,W,27.088,134.714,051110,0,W,A*10
$GPRMC,235413.53,A,3313.9795,N,11723.3541,W,16.252,132.792,051110,0,W,A*10
$GPRMC,235416.53,A,3313.9735,N,11723.3465,W,6.557,130.664,051110,0,W,A*21
$GPRMC,235431.53,A,3313.9709,N,11723.3435,W,8.238,132.393,051110,0,W,A*21
$GPRMC,235434.53,A,3313.9657,N,11723.3386,W,10.532,155.894,051110,0,W,A*18
$GPRMC,235437.53,A,3313.9539,N,11723.3419,W,18.268,199.632,051110,0,W,A*13
$GPRMC,235440.53,A,3313.9384,N,11723.3530,W,23.052,208.835,051110,0,W,A*18
$GPRMC,235443.53,A,3313.9202,N,11723.3660,W,26.156,210.200,051110,0,W,A*17
$GPRMC,235446.53,A,3313.8989,N,11723.3816,W,30.881,210.759,051110,0,W,A*19
$GPRMC,235449.53,A,3313.8765,N,11723.3997,W,32.989,214.137,051110,0,W,A*13
$GPRMC,235452.53,A,3313.8533,N,11723.4189,W,33.338,214.419,051110,0,W,A*10
$GPRMC,235455.53,A,3313.8302,N,11723.4377,W,33.412,215.408,051110,0,W,A*1E
$GPRMC,235458.53,A,3313.8074,N,11723.4576,W,33.166,215.671,051110,0,W,A*1C
$GPRMC,235501.53,A,3313.7839,N,11723.4766,W,33.211,211.355,051110,0,W,A*18
$GPRMC,235504.53,A,3313.7593,N,11723.4931,W,33.133,203.833,051110,0,W,A*17
$GPRMC,235507.53,A,3313.7322,N,11723.5047,W,33.771,195.605,051110,0,W,A*16
$GPRMC,235510.53,A,3313.7054,N,11723.5131,W,32.481,191.242,051110,0,W,A*1C
$GPRMC,235513.53,A,3313.6784,N,11723.5182,W,32.016,184.493,051110,0,W,A*18
$GPRMC,235516.53,A,3313.6514,N,11723.5186,W,31.287,178.249,051110,0,W,A*19
$GPRMC,235519.53,A,3313.6245,N,11723.5170,W,31.436,177.336,051110,0,W,A*16
$GPRMC,235522.53,A,3313.5968,N,11723.5158,W,34.175,177.706,051110,0,W,A*13
$GPRMC,235525.53,A,3313.5674,N,11723.5144,W,34.802,177.783,051110,0,W,A*1F
$GPRMC,235528.53,A,3313.5381,N,11723.5119,W,34.644,176.740,051110,0,W,A*17
$GPRMC,235531.53,A,3313.5093,N,11723.5100,W,34.204,176.818,051110,0,W,A*15
$GPRMC,235534.53,A,3313.4805,N,11723.5078,W,33.823,177.201,051110,0,W,A*13
$GPRMC,235537.53,A,3313.4523,N,11723.5067,W,33.631,177.617,051110,0,W,A*19
$GPRMC,235540.53,A,3313.4241,N,11723.5051,W,33.849,176.973,051110,0,W,A*12
$GPRMC,235543.53,A,3313.3957,N,11723.5025,W,35.144,176.256,051110,0,W,A*17
$GPRMC,235546.53,A,3313.3654,N,11723.5004,W,36.665,175.499,051110,0,W,A*1C
$GPRMC,235549.53,A,3313.3345,N,11723.4970,W,38.703,171.332,051110,0,W,A*10
$GPRMC,235552.53,A,3313.3020,N,11723.4868,W,40.294,158.577,051110,0,W,A*1A
$GPRMC,235555.53,A,3313.2710,N,11723.4700,W,39.276,155.988,051110,0,W,A*1A
$GPRMC,235558.53,A,3313.2412,N,11723.4532,W,37.397,154.873,051110,0,W,A*11
$GPRMC,235601.53,A,3313.2135,N,11723.4379,W,35.712,155.662,051110,0,W,A*13
$GPRMC,235604.53,A,3313.1864,N,11723.4235,W,34.891,155.515,051110,0,W,A*17
$GPRMC,235607.53,A,3313.1604,N,11723.4098,W,33.477,156.435,051110,0,W,A*1A
$GPRMC,235610.53,A,3313.1354,N,11723.3962,W,33.162,155.620,051110,0,W,A*13
$GPRMC,235613.53,A,3313.1107,N,11723.3828,W,32.041,156.104,051110,0,W,A*18
$GPRMC,235616.53,A,3313.0878,N,11723.3710,W,29.013,156.299,051110,0,W,A*13
$GPRMC,235619.53,A,3313.0668,N,11723.3600,W,27.444,154.682,051110,0,W,A*17
$GPRMC,235622.53,A,3313.0475,N,11723.3492,W,26.207,156.288,051110,0,W,A*14
$GPRMC,235625.53,A,3313.0283,N,11723.3396,W,24.582,156.224,051110,0,W,A*11
$GPRMC,235628.53,A,3313.0093,N,11723.3303,W,26.048,157.054,051110,0,W,A*16
$GPRMC,235631.53,A,3312.9868,N,11723.3191,W,33.280,156.870,051110,0,W,A*1E
$GPRMC,235634.53,A,3312.9596,N,11723.3048,W,37.129,156.294,051110,0,W,A*16
$GPRMC,235637.53,A,3312.9303,N,11723.2896,W,38.319,156.119,051110,0,W,A*1D
$GPRMC,235640.53,A,3312.9010,N,11723.2743,W,36.609,155.420,051110,0,W,A*1D
$GPRMC,235643.53,A,3312.8738,N,11723.2588,W,35.389,155.694,051110,0,W,A*14
$GPRMC,235646.53,A,3312.8481,N,11723.2454,W,31.417,156.292,051110,0,W,A*15
$GPRMC,235649.53,A,3312.8258,N,11723.2336,W,26.470,156.577,051110,0,W,A*10
$GPRMC,235652.53,A,3312.8085,N,11723.2253,W,20.189,158.772,051110,0,W,A*16
$GPRMC,235655.53,A,3312.7962,N,11723.2201,W,12.836,159.057,051110,0,W,A*14
$GPRMC,235658.53,A,3312.7903,N,11723.2166,W,5.018,158.499,051110,0,W,A*29
$GPRMC,235716.53,A,3312.7841,N,11723.2129,W,12.832,157.421,051110,0,W,A*14
$GPRMC,235719.53,A,3312.7708,N,11723.2066,W,22.402,155.604,051110,0,W,A*18
$GPRMC,235722.53,A,3312.7518,N,11723.1973,W,27.181,158.359,051110,0,W,A*16
$GPRMC,235725.53,A,3312.7286,N,11723.1899,W,29.879,169.287,051110,0,W,A*14
$GPRMC,235728.53,A,3312.7006,N,11723.1899,W,34.737,184.988,051110,0,W,A*1D
$GPRMC,235731.53,A,3312.6708,N,11723.2013,W,38.270,206.428,051110,0,W,A*10
$GPRMC,235734.53,A,3312.6434,N,11723.2207,W,35.538,212.457,051110,0,W,A*15
$GPRMC,235737.53,A,3312.6207,N,11723.2389,W,29.537,215.866,051110,0,W,A*1C
$GPRMC,235740.53,A,3312.6046,N,11723.2522,W,19.183,215.734,051110,0,W,A*1C
$GPRMC,235743.53,A,3312.5944,N,11723.2622,W,12.107,225.048,051110,0,W,A*1C
$GPRMC,235746.53,A,3312.5895,N,11723.2674,W,5.799,210.564,051110,0,W,A*2D
$GPRMC,235801.53,A,3312.5832,N,11723.2751,W,6.255,212.179,051110,0,W,A*26
$GPRMC,235804.53,A,3312.5788,N,11723.2793,W,7.506,212.867,051110,0,W,A*25
$GPRMC,235807.53,A,3312.5735,N,11723.2835,W,7.813,210.164,051110,0,W,A*22
$GPRMC,235810.53,A,3312.5692,N,11723.2885,W,7.383,240.015,051110,0,W,A*23
$GPRMC,235813.53,A,3312.5730,N,11723.2984,W,14.109,319.583,051110,0,W,A*1C
$GPRMC,235816.53,A,3312.5886,N,11723.3074,W,23.926,336.121,051110,0,W,A*1C
$GPRMC,235819.53,A,3312.6108,N,11723.3191,W,28.640,338.500,051110,0,W,A*18
$GPRMC,235822.53,A,3312.6347,N,11723.3201,W,27.075,18.776,051110,0,W,A*2E
$GPRMC,235825.53,A,3312.6512,N,11723.3033,W,24.391,65.854,051110,0,W,A*23
$GPRMC,235828.53,A,3312.6520,N,11723.2788,W,25.765,109.141,051110,0,W,A*11
$GPRMC,235831.53,A,3312.6346,N,11723.2577,W,33.185,145.792,051110,0,W,A*12
$GPRMC,235834.53,A,3312.6053,N,11723.2372,W,42.841,151.014,051110,0,W,A*18
$GPRMC,235837.53,A,3312.5697,N,11723.2147,W,48.523,151.417,051110,0,W,A*16
$GPRMC,235840.53,A,3312.5320,N,11723.1909,W,51.416,151.844,051110,0,W,A*1B
$GPRMC,235843.53,A,3312.4918,N,11723.1670,W,53.832,152.054,051110,0,W,A*1B
$GPRMC,235846.53,A,3312.4506,N,11723.1412,W,55.205,152.032,051110,0,W,A*13
$GPRMC,235849.53,A,3312.4092,N,11723.1161,W,54.664,152.756,051110,0,W,A*12
$GPRMC,235852.53,A,3312.3683,N,11723.0924,W,53.078,153.028,051110,0,W,A*12
$GPRMC,235855.53,A,3312.3294,N,11723.0666,W,51.876,149.563,051110,0,W,A*1B
$GPRMC,235858.53,A,3312.2926,N,11723.0403,W,48.809,149.806,051110,0,W,A*1A
$GPRMC,235901.53,A,3312.2571,N,11723.0182,W,45.609,156.889,051110,0,W,A*1F
$GPRMC,235904.53,A,3312.2232,N,11723.0092,W,36.808,177.199,051110,0,W,A*1A
$GPRMC,235907.53,A,3312.1949,N,11723.0123,W,29.699,187.649,051110,0,W,A*1B
$GPRMC,235910.53,A,3312.1706,N,11723.0170,W,30.244,186.839,051110,0,W,A*1A
$GPRMC,235913.53,A,3312.1453,N,11723.0212,W,30.829,187.109,051110,0,W,A*17
$GPRMC,235916.53,A,3312.1236,N,11723.0263,W,21.979,189.755,051110,0,W,A*14
$GPRMC,235919.53,A,3312.1107,N,11723.0302,W,12.865,198.203,051110,0,W,A*16
$GPRMC,235922.53,A,3312.1006,N,11723.0362,W,13.815,213.686,051110,0,W,A*17
$GPRMC,235925.53,A,3312.0905,N,11723.0461,W,16.140,209.775,051110,0,W,A*15
$GPRMC,235928.53,A,3312.0773,N,11723.0487,W,17.516,163.951,051110,0,W,A*1E
$GPRMC,235931.53,A,3312.0620,N,11723.0378,W,22.430,145.917,051110,0,W,A*13
$GPRMC,235934.53,A,3312.0471,N,11723.0235,W,24.513,144.972,051110,0,W,A*1C
$GPRMC,235937.53,A,3312.0309,N,11723.0085,W,25.239,143.876,051110,0,W,A*12
$GPRMC,235940.53,A,3312.0158,N,11722.9947,W,19.712,142.972,051110,0,W,A*1C
$GPRMC,235943.53,A,3312.0083,N,11722.9873,W,8.382,129.425,051110,0,W,A*21
$GPRMC,235946.53,A,3312.0110,N,11722.9782,W,13.997,60.390,051110,0,W,A*2F
$GPRMC,235949.53,A,3312.0186,N,11722.9653,W,16.052,57.261,051110,0,W,A*2C
$GPRMC,235952.53,A,3312.0279,N,11722.9518,W,17.126,55.929,051110,0,W,A*2F
$GPRMC,235955.53,A,3312.0367,N,11722.9368,W,18.903,55.476,051110,0,W,A*20
$GPRMC,235958.53,A,3312.0458,N,11722.9186,W,21.456,57.233,051110,0,W,A*26
$GPRMC,000001.53,A,3312.0568,N,11722.9018,W,18.241,55.546,061110,0,W,A*2D
$GPRMC,000007.53,A,3312.0660,N,11722.8915,W,9.483,52.820,061110,0,W,A*17
$GPRMC,000010.53,A,3312.0724,N,11722.8817,W,14.233,52.352,061110,0,W,A*2C
$GPRMC,000013.53,A,3312.0795,N,11722.8682,W,17.896,55.280,061110,0,W,A*28
$GPRMC,000016.53,A,3312.0881,N,11722.8550,W,11.720,56.575,061110,0,W,A*21
