NMEA Sentence Code,UTC Time,Status,Latitude,Latitude Direction,Longitude,Longitude Direction,Speed (knots),Track Angle (degrees true),Date,MagneticVariation,Magnetic Variation Direction,[FAA Mode]-Optional,Checksum
$GPRMC,021046.9,A,3307.462012,N,11719.274812,W,30.6,117.7,100610,,,A*46
$GPRMC,021049.9,A,3307.456872,N,11719.247188,W,27.4,105.2,100610,,,A*48
$GPRMC,021052.9,A,3307.450766,N,11719.220896,W,28.5,110.9,100610,,,A*48
$GPRMC,021055.9,A,3307.438763,N,11719.193295,W,30.8,123.1,100610,,,A*4A
$GPRMC,021058.9,A,3307.421612,N,11719.172781,W,30.5,136.4,100610,,,A*4B
$GPRMC,021101.9,A,3307.396752,N,11719.160307,W,30.7,159.2,100610,,,A*4C
$GPRMC,021104.9,A,3307.375007,N,11719.155155,W,25.8,172.4,100610,,,A*44
$GPRMC,021107.9,A,3307.357423,N,11719.155301,W,17.8,188.2,100610,,,A*44
$GPRMC,021110.9,A,3307.349609,N,11719.159764,W,9.0,212.0,100610,,,A*79
$GPRMC,021131.9,A,3307.341322,N,11719.156327,W,4.6,180.4,100610,,,A*75
$GPRMC,021134.9,A,3307.334598,N,11719.159454,W,6.6,203.7,100610,,,A*70
$GPRMC,021137.9,A,3307.330672,N,11719.167088,W,12.7,262.3,100610,,,A*4F
$GPRMC,021140.9,A,3307.333586,N,11719.186052,W,21.9,274.4,100610,,,A*42
$GPRMC,021143.9,A,3307.335364,N,11719.211979,W,25.7,277.3,100610,,,A*4E
$GPRMC,021146.9,A,3307.335353,N,11719.235795,W,21.0,269.7,100610,,,A*4D
$GPRMC,021149.9,A,3307.334460,N,11719.249217,W,9.5,263.5,100610,,,A*77
$GPRMC,021152.9,A,3307.336139,N,11719.253208,W,6.3,278.9,100610,,,A*7C
$GPRMC,021155.9,A,3307.341907,N,11719.262162,W,15.4,304.4,100610,,,A*41
$GPRMC,021158.9,A,3307.356289,N,11719.280276,W,28.7,313.6,100610,,,A*44
$GPRMC,021201.9,A,3307.376229,N,11719.304374,W,35.9,312.9,100610,,,A*41
$GPRMC,021204.9,A,3307.399854,N,11719.332671,W,40.5,314.4,100610,,,A*45
$GPRMC,021207.9,A,3307.425802,N,11719.360160,W,41.4,320.1,100610,,,A*47
$GPRMC,021210.9,A,3307.459104,N,11719.382365,W,46.5,328.9,100610,,,A*48
$GPRMC,021213.9,A,3307.496980,N,11719.407518,W,49.8,330.4,100610,,,A*4C
$GPRMC,021216.9,A,3307.532113,N,11719.429453,W,48.6,332.4,100610,,,A*4B
$GPRMC,021219.9,A,3307.568586,N,11719.453870,W,50.4,331.1,100610,,,A*4E
$GPRMC,021222.9,A,3307.604937,N,11719.479026,W,51.5,330.6,100610,,,A*4C
$GPRMC,021225.9,A,3307.643066,N,11719.503421,W,52.3,332.2,100610,,,A*49
$GPRMC,021228.9,A,3307.683624,N,11719.526957,W,55.1,332.4,100610,,,A*40
$GPRMC,021231.9,A,3307.728888,N,11719.553654,W,61.0,331.9,100610,,,A*46
$GPRMC,021234.9,A,3307.773685,N,11719.581770,W,60.4,333.2,100610,,,A*4A
$GPRMC,021237.9,A,3307.817480,N,11719.610926,W,59.7,330.5,100610,,,A*48
$GPRMC,021240.9,A,3307.862660,N,11719.638444,W,59.1,332.2,100610,,,A*46
$GPRMC,021243.9,A,3307.904744,N,11719.664428,W,57.3,332.7,100610,,,A*49
$GPRMC,021246.9,A,3307.951008,N,11719.689843,W,58.9,334.4,100610,,,A*41
$GPRMC,021249.9,A,3307.996583,N,11719.714489,W,60.7,335.1,100610,,,A*4D
$GPRMC,021252.9,A,3308.043463,N,11719.739179,W,61.3,335.8,100610,,,A*4F
$GPRMC,021255.9,A,3308.087835,N,11719.764255,W,59.9,335.6,100610,,,A*45
$GPRMC,021258.9,A,3308.135885,N,11719.788191,W,61.9,337.1,100610,,,A*4C
$GPRMC,021301.9,A,3308.185161,N,11719.813889,W,64.2,336.5,100610,,,A*4F
$GPRMC,021304.9,A,3308.235804,N,11719.835897,W,63.9,338.0,100610,,,A*44
$GPRMC,021307.9,A,3308.282632,N,11719.862653,W,63.2,336.0,100610,,,A*41
$GPRMC,021310.9,A,3308.330333,N,11719.887989,W,63.0,336.7,100610,,,A*4D
$GPRMC,021313.9,A,3308.378524,N,11719.912336,W,62.8,337.2,100610,,,A*4C
$GPRMC,021316.9,A,3308.428263,N,11719.936041,W,63.5,337.8,100610,,,A*4C
$GPRMC,021319.9,A,3308.475793,N,11719.960796,W,62.5,336.8,100610,,,A*4F
$GPRMC,021322.9,A,3308.523727,N,11719.982600,W,60.6,340.4,100610,,,A*44
$GPRMC,021325.9,A,3308.572826,N,11719.997743,W,60.4,346.7,100610,,,A*4C
$GPRMC,021328.9,A,3308.623732,N,11720.005773,W,60.7,354.2,100610,,,A*42
$GPRMC,021331.9,A,3308.672810,N,11720.008502,W,60.4,356.9,100610,,,A*42
$GPRMC,021334.9,A,3308.723538,N,11720.011532,W,62.1,357.3,100610,,,A*42
$GPRMC,021337.9,A,3308.776010,N,11720.015473,W,61.0,356.7,100610,,,A*49
$GPRMC,021340.9,A,3308.826036,N,11720.019900,W,58.8,352.2,100610,,,A*41
$GPRMC,021343.9,A,3308.873637,N,11720.034508,W,59.9,343.4,100610,,,A*48
$GPRMC,021346.9,A,3308.920077,N,11720.054153,W,61.2,337.3,100610,,,A*40
$GPRMC,021349.9,A,3308.966023,N,11720.082110,W,62.0,334.0,100610,,,A*41
$GPRMC,021352.9,A,3309.013416,N,11720.108509,W,62.2,335.2,100610,,,A*4D
$GPRMC,021355.9,A,3309.059925,N,11720.134769,W,61.2,333.9,100610,,,A*4C
$GPRMC,021358.9,A,3309.106065,N,11720.161608,W,60.7,333.7,100610,,,A*4B
$GPRMC,021402.2,A,3309.152202,N,11720.190730,W,57.3,332.5,100610,,,A*4D
$GPRMC,021405.9,A,3309.208496,N,11720.224922,W,59.3,333.4,100610,,,A*49
$GPRMC,021408.9,A,3309.255899,N,11720.250022,W,61.5,335.4,100610,,,A*4E
$GPRMC,021411.9,A,3309.301835,N,11720.275544,W,59.2,335.4,100610,,,A*4E
$GPRMC,021414.9,A,3309.347656,N,11720.297866,W,59.2,336.9,100610,,,A*4D
$GPRMC,021417.9,A,3309.391883,N,11720.321080,W,56.9,335.5,100610,,,A*44
$GPRMC,021420.9,A,3309.435240,N,11720.344353,W,57.6,337.2,100610,,,A*49
$GPRMC,021423.9,A,3309.479455,N,11720.369188,W,59.9,335.5,100610,,,A*4F
$GPRMC,021426.9,A,3309.528127,N,11720.392360,W,62.5,336.7,100610,,,A*4A
$GPRMC,021429.9,A,3309.577419,N,11720.415599,W,64.1,337.3,100610,,,A*48
$GPRMC,021432.9,A,3309.625658,N,11720.440196,W,64.0,337.4,100610,,,A*4C
$GPRMC,021435.9,A,3309.677160,N,11720.466996,W,65.0,336.8,100610,,,A*40
$GPRMC,021438.9,A,3309.726530,N,11720.491201,W,65.1,337.2,100610,,,A*4E
$GPRMC,021441.9,A,3309.774710,N,11720.517450,W,63.8,336.4,100610,,,A*42
$GPRMC,021444.9,A,3309.823288,N,11720.541684,W,63.7,336.9,100610,,,A*44
$GPRMC,021447.9,A,3309.873301,N,11720.568861,W,64.6,336.3,100610,,,A*40
$GPRMC,021450.9,A,3309.922451,N,11720.592798,W,63.8,337.5,100610,,,A*43
$GPRMC,021453.9,A,3309.972239,N,11720.618356,W,64.8,336.8,100610,,,A*41
$GPRMC,021456.9,A,3310.022098,N,11720.642653,W,64.5,337.1,100610,,,A*43
$GPRMC,021459.9,A,3310.071831,N,11720.669686,W,66.3,335.9,100610,,,A*4E
$GPRMC,021502.9,A,3310.122343,N,11720.697222,W,66.9,334.5,100610,,,A*44
$GPRMC,021505.9,A,3310.171662,N,11720.730472,W,66.9,329.8,100610,,,A*4D
$GPRMC,021508.9,A,3310.216357,N,11720.765344,W,66.1,327.6,100610,,,A*4B
$GPRMC,021511.9,A,3310.261868,N,11720.799424,W,64.6,327.5,100610,,,A*40
$GPRMC,021514.9,A,3310.307415,N,11720.833310,W,64.2,327.8,100610,,,A*44
$GPRMC,021517.9,A,3310.355201,N,11720.867077,W,65.5,328.1,100610,,,A*40
$GPRMC,021520.9,A,3310.400133,N,11720.901123,W,64.6,327.4,100610,,,A*48
$GPRMC,021523.9,A,3310.445689,N,11720.937463,W,66.0,327.2,100610,,,A*4A
$GPRMC,021526.9,A,3310.491162,N,11720.971812,W,63.4,327.6,100610,,,A*49
$GPRMC,021529.9,A,3310.536598,N,11721.005283,W,63.2,328.2,100610,,,A*4F
$GPRMC,021532.9,A,3310.580742,N,11721.038779,W,63.5,328.0,100610,,,A*46
$GPRMC,021535.9,A,3310.625329,N,11721.072900,W,63.7,327.1,100610,,,A*46
$GPRMC,021538.2,A,3310.659694,N,11721.100019,W,63.7,325.5,100610,,,A*4B
$GPRMC,021541.9,A,3310.713788,N,11721.144267,W,63.6,325.0,100610,,,A*42
$GPRMC,021544.9,A,3310.756357,N,11721.181768,W,63.1,324.3,100610,,,A*46
$GPRMC,021547.9,A,3310.801582,N,11721.217212,W,64.6,326.5,100610,,,A*46
$GPRMC,021550.9,A,3310.846876,N,11721.252871,W,65.5,325.4,100610,,,A*4B
$GPRMC,021553.9,A,3310.892154,N,11721.291746,W,66.9,324.8,100610,,,A*4E
$GPRMC,021556.9,A,3310.936797,N,11721.330162,W,65.7,324.5,100610,,,A*47
$GPRMC,021559.9,A,3310.980065,N,11721.366412,W,62.8,324.4,100610,,,A*47
$GPRMC,021603.2,A,3311.026595,N,11721.405884,W,62.9,325.1,100610,,,A*4A
$GPRMC,021606.2,A,3311.071077,N,11721.441869,W,64.3,326.5,100610,,,A*4C
$GPRMC,021609.2,A,3311.115341,N,11721.476814,W,64.7,325.2,100610,,,A*48
$GPRMC,021612.9,A,3311.169675,N,11721.522312,W,63.7,324.6,100610,,,A*4F
$GPRMC,021615.9,A,3311.212698,N,11721.561113,W,64.4,324.2,100610,,,A*40
$GPRMC,021618.9,A,3311.257737,N,11721.597208,W,64.2,325.7,100610,,,A*4A
$GPRMC,021621.9,A,3311.300273,N,11721.633900,W,63.9,324.8,100610,,,A*4A
$GPRMC,021624.9,A,3311.343924,N,11721.667622,W,63.2,325.3,100610,,,A*4E
$GPRMC,021627.9,A,3311.388927,N,11721.703706,W,63.8,325.6,100610,,,A*42
$GPRMC,021630.9,A,3311.431465,N,11721.741106,W,61.0,324.3,100610,,,A*44
$GPRMC,021633.9,A,3311.472974,N,11721.772963,W,60.3,326.2,100610,,,A*47
$GPRMC,021636.9,A,3311.516166,N,11721.808064,W,62.4,325.9,100610,,,A*4B
$GPRMC,021639.9,A,3311.558154,N,11721.843907,W,62.0,326.0,100610,,,A*42
$GPRMC,021642.9,A,3311.598611,N,11721.877953,W,60.8,325.7,100610,,,A*4C
$GPRMC,021645.9,A,3311.640778,N,11721.912578,W,61.4,325.4,100610,,,A*4A
$GPRMC,021648.9,A,3311.684710,N,11721.948761,W,62.3,324.7,100610,,,A*42
$GPRMC,021651.9,A,3311.726896,N,11721.983461,W,61.5,325.5,100610,,,A*40
$GPRMC,021654.9,A,3311.768473,N,11722.018956,W,62.4,324.9,100610,,,A*46
$GPRMC,021657.9,A,3311.811607,N,11722.054647,W,62.1,324.7,100610,,,A*49
$GPRMC,021700.9,A,3311.853639,N,11722.091474,W,63.0,324.4,100610,,,A*49
$GPRMC,021703.9,A,3311.896130,N,11722.128005,W,63.0,321.7,100610,,,A*4A
$GPRMC,021706.9,A,3311.936116,N,11722.170044,W,64.4,316.1,100610,,,A*49
$GPRMC,021709.9,A,3311.969559,N,11722.218842,W,62.4,310.9,100610,,,A*48
$GPRMC,021712.9,A,3311.999773,N,11722.271650,W,64.5,304.1,100610,,,A*4F
$GPRMC,021716.2,A,3312.028959,N,11722.333383,W,65.6,297.5,100610,,,A*47
$GPRMC,021719.9,A,3312.056078,N,11722.407166,W,65.5,293.3,100610,,,A*48
$GPRMC,021722.9,A,3312.074163,N,11722.468396,W,65.6,291.4,100610,,,A*49
$GPRMC,021725.9,A,3312.095021,N,11722.529170,W,65.8,291.3,100610,,,A*41
$GPRMC,021728.9,A,3312.112389,N,11722.590717,W,65.9,289.6,100610,,,A*4B
$GPRMC,021731.9,A,3312.134864,N,11722.648181,W,64.7,292.6,100610,,,A*45
$GPRMC,021734.9,A,3312.156355,N,11722.708386,W,64.2,292.9,100610,,,A*47
$GPRMC,021737.9,A,3312.178520,N,11722.766762,W,65.5,294.7,100610,,,A*44
$GPRMC,021740.9,A,3312.200814,N,11722.826554,W,66.3,293.3,100610,,,A*48
$GPRMC,021743.9,A,3312.223076,N,11722.885960,W,65.5,298.2,100610,,,A*4B
$GPRMC,021746.9,A,3312.254418,N,11722.938793,W,65.7,306.0,100610,,,A*41
$GPRMC,021749.9,A,3312.292838,N,11722.988802,W,66.2,312.5,100610,,,A*40
$GPRMC,021752.9,A,3312.333151,N,11723.032109,W,64.9,318.1,100610,,,A*4A
$GPRMC,021755.9,A,3312.377718,N,11723.069819,W,65.7,326.3,100610,,,A*40
$GPRMC,021758.9,A,3312.425909,N,11723.100279,W,65.2,331.1,100610,,,A*40
$GPRMC,021801.9,A,3312.475159,N,11723.129635,W,64.8,332.4,100610,,,A*41
$GPRMC,021804.9,A,3312.522366,N,11723.158808,W,63.3,332.3,100610,,,A*44
$GPRMC,021807.9,A,3312.566498,N,11723.189510,W,61.0,331.1,100610,,,A*49
$GPRMC,021810.9,A,3312.614046,N,11723.215850,W,62.4,333.7,100610,,,A*42
$GPRMC,021813.9,A,3312.660974,N,11723.243787,W,63.0,332.9,100610,,,A*46
$GPRMC,021816.9,A,3312.706502,N,11723.273311,W,60.8,331.9,100610,,,A*4F
$GPRMC,021819.9,A,3312.753012,N,11723.302961,W,63.0,331.9,100610,,,A*45
$GPRMC,021822.9,A,3312.797696,N,11723.334082,W,62.6,330.9,100610,,,A*48
$GPRMC,021825.9,A,3312.843123,N,11723.362445,W,62.0,333.1,100610,,,A*41
$GPRMC,021828.9,A,3312.893659,N,11723.385925,W,62.5,340.1,100610,,,A*48
$GPRMC,021831.9,A,3312.942900,N,11723.401487,W,60.8,345.2,100610,,,A*49
$GPRMC,021834.9,A,3312.990134,N,11723.416590,W,59.7,345.5,100610,,,A*4F
$GPRMC,021837.9,A,3313.040810,N,11723.430773,W,61.5,345.9,100610,,,A*48
$GPRMC,021840.9,A,3313.090551,N,11723.446043,W,61.3,345.6,100610,,,A*41
$GPRMC,021843.9,A,3313.139265,N,11723.461506,W,60.0,345.4,100610,,,A*41
$GPRMC,021846.9,A,3313.188489,N,11723.474687,W,60.5,345.8,100610,,,A*4D
$GPRMC,021849.9,A,3313.239687,N,11723.490908,W,63.3,345.2,100610,,,A*4A
$GPRMC,021852.9,A,3313.290570,N,11723.505333,W,62.6,346.2,100610,,,A*40
$GPRMC,021855.9,A,3313.339858,N,11723.522575,W,61.7,342.0,100610,,,A*47
$GPRMC,021858.9,A,3313.389653,N,11723.543380,W,63.0,338.6,100610,,,A*41
$GPRMC,021901.9,A,3313.435215,N,11723.574066,W,62.3,328.7,100610,,,A*47
$GPRMC,021904.9,A,3313.476951,N,11723.612296,W,63.0,321.1,100610,,,A*4D
$GPRMC,021907.9,A,3313.516644,N,11723.652200,W,62.9,318.6,100610,,,A*4C
$GPRMC,021910.9,A,3313.555333,N,11723.697167,W,64.2,316.7,100610,,,A*41
$GPRMC,021913.9,A,3313.593887,N,11723.740203,W,64.4,317.2,100610,,,A*44
$GPRMC,021916.9,A,3313.634259,N,11723.784988,W,64.1,317.6,100610,,,A*47
$GPRMC,021919.9,A,3313.673497,N,11723.827195,W,64.4,317.5,100610,,,A*4B
$GPRMC,021922.9,A,3313.711802,N,11723.872318,W,66.9,317.4,100610,,,A*4F
$GPRMC,021925.9,A,3313.752655,N,11723.916986,W,66.6,316.9,100610,,,A*4E
$GPRMC,021928.9,A,3313.792687,N,11723.961540,W,66.6,316.9,100610,,,A*46
$GPRMC,021931.9,A,3313.834011,N,11724.007979,W,68.5,317.0,100610,,,A*49
$GPRMC,021934.2,A,3313.866229,N,11724.043211,W,68.0,317.1,100610,,,A*48
$GPRMC,021937.2,A,3313.908583,N,11724.089787,W,67.1,317.3,100610,,,A*45
$GPRMC,021940.2,A,3313.949650,N,11724.133353,W,65.4,320.1,100610,,,A*41
$GPRMC,021943.2,A,3313.992293,N,11724.174047,W,65.7,321.7,100610,,,A*4E
$GPRMC,021946.9,A,3314.047486,N,11724.224744,W,68.9,322.7,100610,,,A*46
$GPRMC,021949.9,A,3314.092832,N,11724.265771,W,67.5,322.5,100610,,,A*40
$GPRMC,021952.9,A,3314.135946,N,11724.305053,W,66.2,322.0,100610,,,A*47
$GPRMC,021955.9,A,3314.178308,N,11724.345102,W,64.9,322.4,100610,,,A*45
$GPRMC,021958.9,A,3314.222837,N,11724.382888,W,65.5,323.8,100610,,,A*43
$GPRMC,022001.9,A,3314.261039,N,11724.425422,W,62.9,317.1,100610,,,A*47
$GPRMC,022004.9,A,3314.296045,N,11724.470514,W,62.6,311.5,100610,,,A*48
$GPRMC,022007.9,A,3314.325907,N,11724.524539,W,63.5,302.8,100610,,,A*4F
$GPRMC,022010.9,A,3314.350086,N,11724.578380,W,62.3,295.8,100610,,,A*4E
$GPRMC,022013.9,A,3314.368535,N,11724.635801,W,61.2,292.0,100610,,,A*4E
$GPRMC,022016.9,A,3314.386505,N,11724.690246,W,59.1,291.4,100610,,,A*41
$GPRMC,022019.9,A,3314.407055,N,11724.745238,W,60.2,294.4,100610,,,A*4C
$GPRMC,022022.9,A,3314.432400,N,11724.797308,W,60.9,301.3,100610,,,A*4A
$GPRMC,022025.9,A,3314.461950,N,11724.847638,W,61.7,308.1,100610,,,A*43
$GPRMC,022028.9,A,3314.496270,N,11724.892579,W,60.9,314.0,100610,,,A*42
$GPRMC,022031.9,A,3314.537292,N,11724.931558,W,63.5,322.5,100610,,,A*48
$GPRMC,022034.9,A,3314.584298,N,11724.964407,W,64.8,330.2,100610,,,A*4A
$GPRMC,022037.9,A,3314.635097,N,11724.991431,W,66.9,337.0,100610,,,A*44
$GPRMC,022040.9,A,3314.687199,N,11725.014413,W,66.8,339.8,100610,,,A*40
$GPRMC,022043.9,A,3314.740710,N,11725.036928,W,67.0,340.3,100610,,,A*47
$GPRMC,022046.9,A,3314.792773,N,11725.060910,W,67.7,339.5,100610,,,A*4F
$GPRMC,022049.9,A,3314.847015,N,11725.084391,W,67.6,337.4,100610,,,A*47
$GPRMC,022052.9,A,3314.896324,N,11725.117093,W,67.8,329.8,100610,,,A*47
$GPRMC,022055.9,A,3314.942150,N,11725.153490,W,67.7,327.2,100610,,,A*45
$GPRMC,022058.9,A,3314.988433,N,11725.191836,W,67.6,325.7,100610,,,A*46
$GPRMC,022101.9,A,3315.035372,N,11725.228335,W,65.1,326.6,100610,,,A*49
$GPRMC,022104.9,A,3315.080398,N,11725.264719,W,65.8,326.4,100610,,,A*4F
$GPRMC,022107.9,A,3315.127148,N,11725.301452,W,67.1,326.6,100610,,,A*48
$GPRMC,022110.9,A,3315.173349,N,11725.338966,W,66.6,325.8,100610,,,A*47
$GPRMC,022113.9,A,3315.218457,N,11725.374711,W,66.0,326.5,100610,,,A*4C
$GPRMC,022116.9,A,3315.263532,N,11725.412091,W,66.2,326.4,100610,,,A*4C
$GPRMC,022119.9,A,3315.311891,N,11725.447032,W,67.8,327.5,100610,,,A*41
$GPRMC,022122.9,A,3315.359392,N,11725.485000,W,69.5,326.1,100610,,,A*44
$GPRMC,022125.9,A,3315.407431,N,11725.527156,W,72.6,322.7,100610,,,A*41
$GPRMC,022128.9,A,3315.455119,N,11725.560667,W,69.0,327.0,100610,,,A*4C
$GPRMC,022131.9,A,3315.503789,N,11725.599183,W,69.2,326.1,100610,,,A*40
$GPRMC,022134.9,A,3315.554618,N,11725.635686,W,70.3,327.8,100610,,,A*48
$GPRMC,022137.9,A,3315.601481,N,11725.673980,W,68.5,326.4,100610,,,A*43
$GPRMC,022140.9,A,3315.648465,N,11725.711456,W,68.8,325.9,100610,,,A*44
$GPRMC,022143.9,A,3315.695076,N,11725.751215,W,69.5,325.3,100610,,,A*42
$GPRMC,022146.9,A,3315.743577,N,11725.788043,W,68.3,326.4,100610,,,A*4F
$GPRMC,022149.9,A,3315.792558,N,11725.825571,W,68.9,327.1,100610,,,A*43
$GPRMC,022152.9,A,3315.838651,N,11725.862904,W,67.6,325.6,100610,,,A*44
$GPRMC,022155.9,A,3315.883610,N,11725.902585,W,63.0,324.6,100610,,,A*47
$GPRMC,022158.9,A,3315.924102,N,11725.955056,W,70.5,312.7,100610,,,A*48
$GPRMC,022201.9,A,3315.961455,N,11726.008404,W,69.6,310.3,100610,,,A*4D
$GPRMC,022204.9,A,3316.001506,N,11726.062816,W,73.0,311.5,100610,,,A*4A
$GPRMC,022207.9,A,3316.040237,N,11726.116098,W,70.9,311.5,100610,,,A*4F
$GPRMC,022210.9,A,3316.079808,N,11726.169101,W,71.0,311.4,100610,,,A*45
$GPRMC,022213.9,A,3316.117289,N,11726.222077,W,69.6,311.1,100610,,,A*4A
$GPRMC,022216.9,A,3316.156916,N,11726.271885,W,69.2,311.9,100610,,,A*48
$GPRMC,022219.9,A,3316.194401,N,11726.323440,W,68.3,311.4,100610,,,A*4C
$GPRMC,022222.9,A,3316.232649,N,11726.374972,W,68.0,311.8,100610,,,A*44
$GPRMC,022225.9,A,3316.268528,N,11726.426004,W,67.3,310.8,100610,,,A*4D
$GPRMC,022228.9,A,3316.305975,N,11726.475375,W,67.0,311.5,100610,,,A*42
$GPRMC,022231.9,A,3316.343932,N,11726.525555,W,67.1,313.4,100610,,,A*49
$GPRMC,022234.9,A,3316.385232,N,11726.567860,W,65.1,321.0,100610,,,A*47
$GPRMC,022237.9,A,3316.430458,N,11726.603786,W,66.0,326.7,100610,,,A*43
$GPRMC,022240.9,A,3316.479068,N,11726.639343,W,67.9,327.3,100610,,,A*40
$GPRMC,022243.9,A,3316.526581,N,11726.675463,W,67.4,327.7,100610,,,A*4E
$GPRMC,022246.9,A,3316.573025,N,11726.711144,W,67.0,327.4,100610,,,A*44
$GPRMC,022249.9,A,3316.620403,N,11726.748068,W,67.7,326.8,100610,,,A*47
$GPRMC,022252.9,A,3316.670023,N,11726.782240,W,68.2,328.6,100610,,,A*4A
$GPRMC,022255.9,A,3316.718005,N,11726.818000,W,67.8,327.9,100610,,,A*49
$GPRMC,022258.9,A,3316.765268,N,11726.852888,W,66.3,327.8,100610,,,A*4A
$GPRMC,022301.9,A,3316.809835,N,11726.890278,W,65.5,326.8,100610,,,A*4F
$GPRMC,022304.9,A,3316.856652,N,11726.924703,W,64.8,327.9,100610,,,A*44
$GPRMC,022307.9,A,3316.900404,N,11726.959526,W,63.3,326.5,100610,,,A*4A
$GPRMC,022310.9,A,3316.946468,N,11726.995562,W,64.8,327.2,100610,,,A*4E
$GPRMC,022313.9,A,3316.992512,N,11727.029799,W,64.6,327.6,100610,,,A*4B
$GPRMC,022316.9,A,3317.038972,N,11727.066013,W,66.7,327.2,100610,,,A*45
$GPRMC,022319.9,A,3317.086111,N,11727.100494,W,66.0,328.0,100610,,,A*42
$GPRMC,022322.9,A,3317.132685,N,11727.136724,W,66.5,327.1,100610,,,A*48
$GPRMC,022325.9,A,3317.179310,N,11727.174088,W,67.6,326.6,100610,,,A*4A
$GPRMC,022328.9,A,3317.226998,N,11727.212729,W,68.7,326.0,100610,,,A*43
$GPRMC,022331.9,A,3317.276992,N,11727.247257,W,68.9,327.4,100610,,,A*43
$GPRMC,022334.9,A,3317.324101,N,11727.282208,W,67.7,327.8,100610,,,A*4C
$GPRMC,022337.9,A,3317.373259,N,11727.317907,W,68.7,327.9,100610,,,A*44
$GPRMC,022340.9,A,3317.422569,N,11727.353294,W,68.6,328.3,100610,,,A*46
$GPRMC,022343.9,A,3317.470827,N,11727.390048,W,68.3,327.5,100610,,,A*45
$GPRMC,022346.9,A,3317.516523,N,11727.427000,W,67.7,326.9,100610,,,A*49
$GPRMC,022349.9,A,3317.562042,N,11727.464194,W,67.1,326.6,100610,,,A*45
$GPRMC,022352.9,A,3317.611152,N,11727.498827,W,67.5,327.8,100610,,,A*41
$GPRMC,022355.9,A,3317.657386,N,11727.536774,W,66.9,322.7,100610,,,A*44
$GPRMC,022358.9,A,3317.696481,N,11727.584425,W,67.7,314.4,100610,,,A*43
$GPRMC,022401.9,A,3317.735947,N,11727.632489,W,67.6,314.6,100610,,,A*4C
$GPRMC,022404.9,A,3317.776676,N,11727.680954,W,68.9,315.1,100610,,,A*41
$GPRMC,022407.9,A,3317.817270,N,11727.730854,W,68.7,314.3,100610,,,A*4E
$GPRMC,022410.9,A,3317.855897,N,11727.776285,W,65.4,315.3,100610,,,A*46
$GPRMC,022413.9,A,3317.895051,N,11727.825099,W,67.3,315.1,100610,,,A*4A
$GPRMC,022416.9,A,3317.932062,N,11727.870856,W,63.7,314.3,100610,,,A*4B
$GPRMC,022419.9,A,3317.969926,N,11727.916065,W,64.5,314.0,100610,,,A*4C
$GPRMC,022422.9,A,3318.007571,N,11727.961333,W,64.8,314.5,100610,,,A*4C
$GPRMC,022425.9,A,3318.046013,N,11728.009016,W,66.1,313.6,100610,,,A*4C
$GPRMC,022428.9,A,3318.084506,N,11728.056998,W,67.1,314.3,100610,,,A*48
$GPRMC,022431.9,A,3318.123989,N,11728.103199,W,66.3,314.7,100610,,,A*48
$GPRMC,022434.9,A,3318.163566,N,11728.149655,W,67.0,314.8,100610,,,A*40
$GPRMC,022437.9,A,3318.203555,N,11728.198099,W,67.1,314.9,100610,,,A*4C
$GPRMC,022440.9,A,3318.239760,N,11728.245835,W,65.2,313.1,100610,,,A*42
$GPRMC,022443.9,A,3318.278729,N,11728.292754,W,66.1,314.5,100610,,,A*48
$GPRMC,022446.9,A,3318.316985,N,11728.338979,W,66.1,314.1,100610,,,A*48
$GPRMC,022449.9,A,3318.356519,N,11728.386802,W,67.2,314.4,100610,,,A*45
$GPRMC,022452.9,A,3318.395100,N,11728.434701,W,68.0,313.8,100610,,,A*48
$GPRMC,022455.9,A,3318.436308,N,11728.482098,W,68.4,315.3,100610,,,A*48
$GPRMC,022458.9,A,3318.475819,N,11728.530617,W,68.2,314.5,100610,,,A*41
$GPRMC,022501.9,A,3318.514909,N,11728.578262,W,67.0,313.9,100610,,,A*46
$GPRMC,022504.9,A,3318.555636,N,11728.626168,W,67.4,314.5,100610,,,A*4B
$GPRMC,022507.9,A,3318.594222,N,11728.675378,W,67.7,313.9,100610,,,A*49
$GPRMC,022510.9,A,3318.634235,N,11728.723641,W,67.0,314.0,100610,,,A*44
$GPRMC,022513.9,A,3318.671123,N,11728.769362,W,63.5,314.6,100610,,,A*4F
$GPRMC,022516.9,A,3318.710091,N,11728.811813,W,63.9,318.9,100610,,,A*46
$GPRMC,022519.9,A,3318.753071,N,11728.850013,W,65.1,325.5,100610,,,A*41
$GPRMC,022522.9,A,3318.802284,N,11728.881773,W,65.7,333.1,100610,,,A*42
$GPRMC,022525.9,A,3318.853377,N,11728.904314,W,63.7,341.1,100610,,,A*46
$GPRMC,022528.9,A,3318.905228,N,11728.918448,W,63.0,349.0,100610,,,A*4F
$GPRMC,022531.9,A,3318.961753,N,11728.921021,W,65.7,355.9,100610,,,A*48
$GPRMC,022534.9,A,3319.018120,N,11728.926903,W,66.8,355.7,100610,,,A*45
$GPRMC,022537.9,A,3319.071801,N,11728.932448,W,66.2,355.5,100610,,,A*4C
$GPRMC,022540.9,A,3319.125911,N,11728.938618,W,65.3,354.5,100610,,,A*42
$GPRMC,022543.9,A,3319.179986,N,11728.946071,W,65.8,351.2,100610,,,A*4F
$GPRMC,022546.9,A,3319.234948,N,11728.962018,W,66.7,345.3,100610,,,A*43
$GPRMC,022549.9,A,3319.286421,N,11728.985577,W,66.7,336.6,100610,,,A*43
$GPRMC,022552.9,A,3319.332662,N,11729.018200,W,65.2,328.8,100610,,,A*4E
$GPRMC,022555.9,A,3319.378135,N,11729.056449,W,67.3,322.9,100610,,,A*4B
$GPRMC,022558.9,A,3319.417322,N,11729.105002,W,67.0,314.3,100610,,,A*4C
$GPRMC,022601.9,A,3319.454341,N,11729.154344,W,67.0,310.9,100610,,,A*4A
$GPRMC,022604.9,A,3319.490627,N,11729.205466,W,67.4,310.7,100610,,,A*48
$GPRMC,022607.9,A,3319.527850,N,11729.256542,W,67.3,311.5,100610,,,A*4D
$GPRMC,022610.9,A,3319.563479,N,11729.306743,W,65.6,310.9,100610,,,A*41
$GPRMC,022613.9,A,3319.598187,N,11729.354247,W,63.2,311.0,100610,,,A*4E
$GPRMC,022616.9,A,3319.632356,N,11729.400604,W,61.5,311.9,100610,,,A*4F
$GPRMC,022619.9,A,3319.665883,N,11729.445728,W,62.5,313.4,100610,,,A*43
$GPRMC,022622.9,A,3319.698289,N,11729.489538,W,59.6,311.5,100610,,,A*42
$GPRMC,022625.9,A,3319.729814,N,11729.533551,W,59.1,310.3,100610,,,A*4F
$GPRMC,022628.9,A,3319.761999,N,11729.579599,W,59.8,309.9,100610,,,A*4B
$GPRMC,022631.9,A,3319.795416,N,11729.626513,W,61.8,311.3,100610,,,A*41
$GPRMC,022634.9,A,3319.830911,N,11729.672752,W,62.3,311.4,100610,,,A*47
$GPRMC,022637.9,A,3319.864430,N,11729.719422,W,61.8,310.8,100610,,,A*46
$GPRMC,022640.9,A,3319.897953,N,11729.766300,W,61.8,310.0,100610,,,A*45
$GPRMC,022643.9,A,3319.929388,N,11729.813204,W,59.6,309.5,100610,,,A*4E
$GPRMC,022646.9,A,3319.959604,N,11729.855472,W,57.5,310.7,100610,,,A*4F
$GPRMC,022649.9,A,3319.994628,N,11729.898541,W,60.2,312.0,100610,,,A*49
$GPRMC,022652.9,A,3320.029464,N,11729.944666,W,63.5,311.6,100610,,,A*4B
$GPRMC,022655.9,A,3320.064483,N,11729.993919,W,65.5,311.5,100610,,,A*44
$GPRMC,022658.9,A,3320.100156,N,11730.043908,W,65.5,310.9,100610,,,A*46
$GPRMC,022701.9,A,3320.134655,N,11730.093428,W,63.8,310.0,100610,,,A*48
$GPRMC,022704.9,A,3320.169697,N,11730.142424,W,65.1,310.2,100610,,,A*47
$GPRMC,022707.9,A,3320.204622,N,11730.188892,W,63.1,311.4,100610,,,A*44
$GPRMC,022710.9,A,3320.239672,N,11730.235652,W,62.2,311.5,100610,,,A*4D
$GPRMC,022713.9,A,3320.274597,N,11730.282040,W,61.8,311.5,100610,,,A*4F
$GPRMC,022716.9,A,3320.303737,N,11730.326680,W,58.1,309.6,100610,,,A*4F
$GPRMC,022719.9,A,3320.338088,N,11730.370856,W,59.2,312.3,100610,,,A*40
$GPRMC,022722.9,A,3320.371882,N,11730.415079,W,60.1,314.0,100610,,,A*4A
$GPRMC,022725.9,A,3320.403511,N,11730.460182,W,59.6,311.0,100610,,,A*47
$GPRMC,022728.9,A,3320.436840,N,11730.505628,W,59.8,311.2,100610,,,A*4C
$GPRMC,022731.9,A,3320.468631,N,11730.550023,W,59.4,310.4,100610,,,A*41
$GPRMC,022734.9,A,3320.500882,N,11730.595402,W,57.9,311.4,100610,,,A*41
$GPRMC,022737.9,A,3320.530358,N,11730.635916,W,54.5,311.4,100610,,,A*43
$GPRMC,022740.9,A,3320.561111,N,11730.676845,W,54.5,311.5,100610,,,A*49
$GPRMC,022743.9,A,3320.590656,N,11730.717744,W,57.0,310.2,100610,,,A*48
$GPRMC,022746.9,A,3320.624873,N,11730.759203,W,56.5,312.7,100610,,,A*47
$GPRMC,022749.9,A,3320.653657,N,11730.802298,W,56.2,310.2,100610,,,A*43
$GPRMC,022752.9,A,3320.684348,N,11730.844908,W,56.4,311.0,100610,,,A*4D
$GPRMC,022755.9,A,3320.713916,N,11730.887494,W,54.0,311.3,100610,,,A*46
$GPRMC,022758.9,A,3320.740871,N,11730.927840,W,52.4,309.0,100610,,,A*4B
$GPRMC,022801.9,A,3320.771257,N,11730.964858,W,53.0,311.6,100610,,,A*40
$GPRMC,022804.9,A,3320.800587,N,11731.004770,W,53.0,311.6,100610,,,A*4D
$GPRMC,022807.9,A,3320.829388,N,11731.045095,W,51.4,311.4,100610,,,A*41
$GPRMC,022810.9,A,3320.857415,N,11731.082634,W,50.7,311.5,100610,,,A*48
$GPRMC,022813.9,A,3320.882995,N,11731.122314,W,51.0,309.1,100610,,,A*41
$GPRMC,022816.9,A,3320.910678,N,11731.160408,W,48.8,310.1,100610,,,A*46
$GPRMC,022819.9,A,3320.935429,N,11731.195035,W,45.0,310.0,100610,,,A*4C
$GPRMC,022822.9,A,3320.958573,N,11731.226849,W,41.6,309.9,100610,,,A*4A
$GPRMC,022825.9,A,3320.978639,N,11731.258091,W,41.3,307.9,100610,,,A*4D
$GPRMC,022828.9,A,3320.997254,N,11731.283867,W,33.4,309.2,100610,,,A*4E
$GPRMC,022831.9,A,3321.010997,N,11731.306502,W,26.4,309.5,100610,,,A*44
$GPRMC,022834.2,A,3321.019668,N,11731.317668,W,17.8,309.5,100610,,,A*4D
$GPRMC,022837.2,A,3321.028822,N,11731.329258,W,14.7,309.4,100610,,,A*4B
$GPRMC,022840.2,A,3321.036403,N,11731.339720,W,13.0,309.3,100610,,,A*47
$GPRMC,022843.9,A,3321.043707,N,11731.350329,W,9.8,307.7,100610,,,A*71
$GPRMC,022846.9,A,3321.049483,N,11731.357787,W,8.1,312.1,100610,,,A*7C
$GPRMC,022849.9,A,3321.051961,N,11731.364060,W,7.8,305.2,100610,,,A*76
$GPRMC,022852.9,A,3321.056481,N,11731.368464,W,7.1,318.0,100610,,,A*73
$GPRMC,022855.9,A,3321.060208,N,11731.371674,W,5.0,319.7,100610,,,A*78
$GPRMC,022858.9,A,3321.063309,N,11731.375334,W,5.3,312.3,100610,,,A*7F
$GPRMC,022901.9,A,3321.065094,N,11731.380229,W,5.8,301.6,100610,,,A*78
$GPRMC,022904.9,A,3321.066631,N,11731.386646,W,6.2,305.3,100610,,,A*74
$GPRMC,022907.9,A,3321.069605,N,11731.391744,W,6.9,303.7,100610,,,A*73
$GPRMC,022910.9,A,3321.072055,N,11731.397556,W,6.6,302.6,100610,,,A*74
$GPRMC,022913.9,A,3321.076815,N,11731.401361,W,7.0,316.1,100610,,,A*70
$GPRMC,022916.9,A,3321.081279,N,11731.406427,W,6.9,310.4,100610,,,A*74
$GPRMC,022919.9,A,3321.084799,N,11731.410843,W,6.9,313.2,100610,,,A*79
$GPRMC,022922.9,A,3321.088199,N,11731.417130,W,6.9,305.9,100610,,,A*7D
$GPRMC,022925.9,A,3321.092193,N,11731.421393,W,7.1,312.6,100610,,,A*75
$GPRMC,022928.9,A,3321.096229,N,11731.427334,W,7.1,312.3,100610,,,A*70
$GPRMC,022931.9,A,3321.099506,N,11731.433898,W,7.4,299.5,100610,,,A*74
$GPRMC,022934.9,A,3321.104169,N,11731.439622,W,7.7,307.7,100610,,,A*7B
$GPRMC,022937.9,A,3321.108202,N,11731.445766,W,8.4,312.3,100610,,,A*7C
$GPRMC,022940.9,A,3321.114590,N,11731.452624,W,8.8,308.5,100610,,,A*7D
$GPRMC,022943.9,A,3321.118554,N,11731.459741,W,9.0,310.4,100610,,,A*72
$GPRMC,022946.9,A,3321.121818,N,11731.465511,W,7.0,311.0,100610,,,A*7B
$GPRMC,022949.9,A,3321.126919,N,11731.467820,W,5.1,318.6,100610,,,A*72
$GPRMC,022952.9,A,3321.127828,N,11731.474320,W,4.5,286.2,100610,,,A*74
$GPRMC,022958.9,A,3321.131872,N,11731.479405,W,4.8,315.5,100610,,,A*7A
$GPRMC,023001.9,A,3321.134518,N,11731.482788,W,4.9,310.2,100610,,,A*7B
$GPRMC,023004.9,A,3321.137230,N,11731.489377,W,6.0,302.4,100610,,,A*71
$GPRMC,023007.9,A,3321.140714,N,11731.494010,W,5.8,309.4,100610,,,A*7F
$GPRMC,023055.9,A,3321.166706,N,11731.533187,W,5.3,298.9,100610,,,A*73
$GPRMC,023058.9,A,3321.175796,N,11731.547257,W,18.2,301.6,100610,,,A*4B
$GPRMC,023101.9,A,3321.192660,N,11731.571370,W,32.1,308.4,100610,,,A*46
$GPRMC,023104.9,A,3321.213998,N,11731.600484,W,39.3,310.3,100610,,,A*4F
$GPRMC,023107.2,A,3321.232482,N,11731.625995,W,42.8,309.8,100610,,,A*4C
$GPRMC,023110.9,A,3321.262308,N,11731.670477,W,48.0,308.9,100610,,,A*42
$GPRMC,023113.9,A,3321.287387,N,11731.707799,W,49.6,308.5,100610,,,A*44
$GPRMC,023116.9,A,3321.314174,N,11731.750069,W,53.9,307.9,100610,,,A*49
$GPRMC,023119.9,A,3321.344286,N,11731.794015,W,56.5,308.9,100610,,,A*48
$GPRMC,023122.9,A,3321.374836,N,11731.839892,W,58.2,309.0,100610,,,A*4C
$GPRMC,023125.9,A,3321.405575,N,11731.882348,W,57.4,310.2,100610,,,A*4F
$GPRMC,023128.9,A,3321.435715,N,11731.928817,W,59.4,308.5,100610,,,A*45
$GPRMC,023131.9,A,3321.467890,N,11731.976242,W,61.4,309.4,100610,,,A*42
$GPRMC,023134.9,A,3321.501812,N,11732.022168,W,62.2,311.5,100610,,,A*41
$GPRMC,023137.9,A,3321.534123,N,11732.070238,W,62.1,308.4,100610,,,A*44
$GPRMC,023140.9,A,3321.566586,N,11732.116534,W,61.1,310.0,100610,,,A*4C
$GPRMC,023143.9,A,3321.599247,N,11732.165018,W,62.4,309.0,100610,,,A*44
$GPRMC,023146.9,A,3321.632767,N,11732.213786,W,63.6,309.4,100610,,,A*41
$GPRMC,023149.9,A,3321.666133,N,11732.262040,W,62.6,309.3,100610,,,A*45
$GPRMC,023152.9,A,3321.697292,N,11732.310507,W,61.5,308.6,100610,,,A*4F
$GPRMC,023155.9,A,3321.732619,N,11732.359471,W,62.9,308.2,100610,,,A*47
$GPRMC,023158.9,A,3321.764325,N,11732.407570,W,62.9,308.8,100610,,,A*45
$GPRMC,023201.9,A,3321.796987,N,11732.457387,W,63.2,308.6,100610,,,A*4A
$GPRMC,023204.2,A,3321.822553,N,11732.494756,W,61.8,309.3,100610,,,A*4A
$GPRMC,023207.2,A,3321.856469,N,11732.542842,W,64.1,309.3,100610,,,A*4E
$GPRMC,023210.2,A,3321.891260,N,11732.593462,W,66.7,309.2,100610,,,A*4B
$GPRMC,023213.2,A,3321.926902,N,11732.644922,W,67.1,309.2,100610,,,A*4D
$GPRMC,023216.2,A,3321.962507,N,11732.696629,W,66.9,309.2,100610,,,A*43
$GPRMC,023219.9,A,3322.005138,N,11732.759736,W,66.9,308.9,100610,,,A*43
$GPRMC,023222.9,A,3322.042505,N,11732.812586,W,69.2,308.7,100610,,,A*41
$GPRMC,023225.9,A,3322.072393,N,11732.867979,W,67.9,303.6,100610,,,A*4D
$GPRMC,023228.9,A,3322.103740,N,11732.925479,W,68.7,303.5,100610,,,A*45
$GPRMC,023231.9,A,3322.135693,N,11732.981651,W,69.1,303.6,100610,,,A*45
$GPRMC,023234.9,A,3322.166711,N,11733.037955,W,67.1,303.3,100610,,,A*48
$GPRMC,023237.9,A,3322.196292,N,11733.094869,W,67.2,303.2,100610,,,A*4F
$GPRMC,023240.9,A,3322.229270,N,11733.152799,W,69.6,303.9,100610,,,A*4E
$GPRMC,023243.9,A,3322.260205,N,11733.209264,W,68.3,303.0,100610,,,A*45
$GPRMC,023247.2,A,3322.295584,N,11733.271716,W,68.0,304.3,100610,,,A*46
$GPRMC,023250.9,A,3322.332336,N,11733.343365,W,67.8,302.8,100610,,,A*42
$GPRMC,023253.9,A,3322.364729,N,11733.399249,W,68.2,303.8,100610,,,A*44
$GPRMC,023256.9,A,3322.394365,N,11733.455239,W,67.1,302.5,100610,,,A*42
$GPRMC,023259.9,A,3322.425672,N,11733.510261,W,67.5,303.6,100610,,,A*48
$GPRMC,023302.9,A,3322.457065,N,11733.566132,W,66.8,303.5,100610,,,A*49
$GPRMC,023305.9,A,3322.487999,N,11733.621591,W,66.9,303.8,100610,,,A*48
$GPRMC,023308.9,A,3322.518437,N,11733.677192,W,67.2,305.1,100610,,,A*4A
$GPRMC,023311.9,A,3322.555713,N,11733.729102,W,67.3,312.6,100610,,,A*4D
$GPRMC,023314.9,A,3322.597138,N,11733.774869,W,67.3,316.5,100610,,,A*42
$GPRMC,023317.9,A,3322.638862,N,11733.819231,W,66.6,316.8,100610,,,A*4B
$GPRMC,023320.9,A,3322.678029,N,11733.866608,W,67.5,313.6,100610,,,A*43
$GPRMC,023323.9,A,3322.712768,N,11733.918837,W,67.4,307.3,100610,,,A*44
$GPRMC,023326.9,A,3322.741227,N,11733.975942,W,67.4,299.8,100610,,,A*4C
$GPRMC,023329.9,A,3322.767245,N,11734.034974,W,66.7,296.3,100610,,,A*4B
$GPRMC,023332.9,A,3322.790698,N,11734.095919,W,66.3,295.2,100610,,,A*4B
$GPRMC,023335.9,A,3322.812170,N,11734.156872,W,66.3,294.6,100610,,,A*4F
$GPRMC,023338.9,A,3322.836718,N,11734.216570,W,67.0,296.2,100610,,,A*40
$GPRMC,023341.9,A,3322.862629,N,11734.276605,W,66.4,296.8,100610,,,A*44
$GPRMC,023344.9,A,3322.885365,N,11734.337590,W,67.2,294.7,100610,,,A*44
$GPRMC,023347.9,A,3322.907491,N,11734.399002,W,67.4,294.2,100610,,,A*49
$GPRMC,023350.9,A,3322.932208,N,11734.460855,W,68.3,295.2,100610,,,A*4D
$GPRMC,023353.9,A,3322.955202,N,11734.521587,W,68.4,294.1,100610,,,A*46
$GPRMC,023356.9,A,3322.978958,N,11734.584394,W,69.1,294.5,100610,,,A*43
$GPRMC,023359.9,A,3323.003098,N,11734.645595,W,68.5,294.9,100610,,,A*4D
$GPRMC,023402.9,A,3323.028355,N,11734.706718,W,69.1,295.3,100610,,,A*40
$GPRMC,023405.9,A,3323.052023,N,11734.767652,W,66.7,294.6,100610,,,A*4D
$GPRMC,023408.9,A,3323.074225,N,11734.829127,W,67.6,294.1,100610,,,A*47
$GPRMC,023411.9,A,3323.098672,N,11734.890217,W,68.0,295.4,100610,,,A*44
$GPRMC,023414.9,A,3323.123169,N,11734.952841,W,67.5,295.3,100610,,,A*46
$GPRMC,023417.9,A,3323.147613,N,11735.011960,W,66.7,296.9,100610,,,A*4A
$GPRMC,023420.9,A,3323.173349,N,11735.070739,W,66.6,299.8,100610,,,A*49
$GPRMC,023423.9,A,3323.205382,N,11735.125597,W,66.6,305.6,100610,,,A*42
$GPRMC,023426.9,A,3323.240446,N,11735.176698,W,64.3,310.4,100610,,,A*42
$GPRMC,023429.9,A,3323.277304,N,11735.221862,W,63.9,314.6,100610,,,A*49
$GPRMC,023432.9,A,3323.317502,N,11735.265297,W,64.6,318.4,100610,,,A*42
$GPRMC,023435.9,A,3323.361580,N,11735.302627,W,64.7,323.6,100610,,,A*4A
$GPRMC,023438.9,A,3323.405573,N,11735.334945,W,62.6,327.5,100610,,,A*40
$GPRMC,023441.9,A,3323.448970,N,11735.368836,W,61.8,326.7,100610,,,A*4A
$GPRMC,023444.9,A,3323.492279,N,11735.403868,W,63.1,326.4,100610,,,A*43
$GPRMC,023447.9,A,3323.537301,N,11735.438642,W,63.3,326.6,100610,,,A*4E
$GPRMC,023450.9,A,3323.582699,N,11735.474708,W,64.6,326.9,100610,,,A*48
$GPRMC,023453.9,A,3323.628091,N,11735.508172,W,64.9,327.8,100610,,,A*48
$GPRMC,023456.9,A,3323.673457,N,11735.542887,W,64.6,328.1,100610,,,A*49
$GPRMC,023459.9,A,3323.721231,N,11735.575506,W,63.8,330.4,100610,,,A*43
$GPRMC,023502.2,A,3323.757430,N,11735.599110,W,64.1,332.2,100610,,,A*4A
$GPRMC,023505.9,A,3323.815398,N,11735.635111,W,63.3,333.3,100610,,,A*4B
$GPRMC,023508.9,A,3323.864211,N,11735.659692,W,63.9,336.1,100610,,,A*4B
$GPRMC,023511.9,A,3323.915507,N,11735.685311,W,64.2,336.6,100610,,,A*40
$GPRMC,023514.9,A,3323.963174,N,11735.709629,W,62.7,337.1,100610,,,A*4A
$GPRMC,023517.9,A,3324.012211,N,11735.734484,W,64.3,337.8,100610,,,A*41
$GPRMC,023520.9,A,3324.061914,N,11735.757853,W,63.9,337.0,100610,,,A*49
$GPRMC,023523.9,A,3324.112132,N,11735.783039,W,63.1,337.9,100610,,,A*4F
$GPRMC,023526.9,A,3324.157997,N,11735.807421,W,62.0,336.6,100610,,,A*4C
$GPRMC,023529.9,A,3324.205927,N,11735.831785,W,63.7,337.3,100610,,,A*46
$GPRMC,023532.9,A,3324.255341,N,11735.856219,W,62.9,336.4,100610,,,A*4B
$GPRMC,023535.9,A,3324.303279,N,11735.881882,W,63.5,336.2,100610,,,A*4D
$GPRMC,023538.9,A,3324.353132,N,11735.904580,W,64.3,337.8,100610,,,A*40
$GPRMC,023541.9,A,3324.401745,N,11735.929391,W,62.6,336.6,100610,,,A*4D
$GPRMC,023544.9,A,3324.450057,N,11735.953186,W,61.7,337.5,100610,,,A*41
$GPRMC,023547.9,A,3324.498729,N,11735.979298,W,63.3,336.5,100610,,,A*4B
$GPRMC,023550.9,A,3324.546282,N,11736.002774,W,61.3,337.2,100610,,,A*4E
$GPRMC,023553.9,A,3324.595276,N,11736.025141,W,61.8,338.1,100610,,,A*4A
$GPRMC,023556.9,A,3324.640280,N,11736.049462,W,60.1,336.8,100610,,,A*4C
$GPRMC,023559.9,A,3324.687644,N,11736.073865,W,61.5,336.4,100610,,,A*4F
$GPRMC,023602.9,A,3324.734899,N,11736.098018,W,62.3,337.2,100610,,,A*40
$GPRMC,023605.9,A,3324.782410,N,11736.122055,W,61.5,337.0,100610,,,A*49
$GPRMC,023608.9,A,3324.828958,N,11736.144992,W,61.0,337.7,100610,,,A*4A
$GPRMC,023611.9,A,3324.878412,N,11736.169279,W,62.8,337.2,100610,,,A*4B
$GPRMC,023614.9,A,3324.927954,N,11736.193829,W,63.6,337.5,100610,,,A*48
$GPRMC,023617.9,A,3324.975313,N,11736.217454,W,61.4,337.0,100610,,,A*49
$GPRMC,023620.9,A,3325.021286,N,11736.242011,W,60.7,337.3,100610,,,A*4D
$GPRMC,023623.9,A,3325.065537,N,11736.264461,W,59.6,336.7,100610,,,A*4A
$GPRMC,023626.9,A,3325.111401,N,11736.288902,W,60.0,334.4,100610,,,A*4E
$GPRMC,023629.9,A,3325.156899,N,11736.319221,W,61.7,328.7,100610,,,A*44
$GPRMC,023632.9,A,3325.197214,N,11736.354357,W,60.0,324.3,100610,,,A*4B
$GPRMC,023635.9,A,3325.237686,N,11736.388407,W,59.1,325.0,100610,,,A*40
$GPRMC,023638.9,A,3325.279043,N,11736.421039,W,59.1,328.2,100610,,,A*4A
$GPRMC,023641.9,A,3325.321548,N,11736.449078,W,58.9,332.6,100610,,,A*4B
$GPRMC,023644.9,A,3325.368634,N,11736.476391,W,63.5,333.5,100610,,,A*45
$GPRMC,023647.9,A,3325.421446,N,11736.498994,W,66.2,338.6,100610,,,A*4E
$GPRMC,023650.9,A,3325.472361,N,11736.527931,W,67.9,335.2,100610,,,A*45
$GPRMC,023653.9,A,3325.520335,N,11736.560183,W,66.8,330.7,100610,,,A*43
$GPRMC,023656.9,A,3325.569252,N,11736.593097,W,67.5,330.4,100610,,,A*4C
$GPRMC,023659.9,A,3325.616291,N,11736.625804,W,65.7,330.3,100610,,,A*4C
$GPRMC,023702.9,A,3325.663814,N,11736.658383,W,64.8,328.6,100610,,,A*4A
$GPRMC,023705.9,A,3325.708882,N,11736.695436,W,65.5,325.9,100610,,,A*48
$GPRMC,023708.9,A,3325.753663,N,11736.734082,W,65.8,323.5,100610,,,A*4C
$GPRMC,023711.9,A,3325.793856,N,11736.775054,W,63.2,318.6,100610,,,A*49
$GPRMC,023714.9,A,3325.829834,N,11736.819831,W,62.7,314.3,100610,,,A*45
$GPRMC,023717.9,A,3325.867176,N,11736.864694,W,64.1,315.1,100610,,,A*4B
$GPRMC,023720.9,A,3325.909300,N,11736.908330,W,66.7,320.7,100610,,,A*41
$GPRMC,023723.9,A,3325.955732,N,11736.947446,W,68.6,326.9,100610,,,A*44
$GPRMC,023726.9,A,3326.004187,N,11736.982659,W,68.4,329.4,100610,,,A*42
$GPRMC,023729.9,A,3326.055350,N,11737.013968,W,67.5,331.9,100610,,,A*46
$GPRMC,023732.9,A,3326.102858,N,11737.047517,W,66.4,329.7,100610,,,A*4E
$GPRMC,023735.9,A,3326.149785,N,11737.082415,W,66.3,326.7,100610,,,A*4B
$GPRMC,023738.9,A,3326.197657,N,11737.122332,W,70.2,323.3,100610,,,A*45
$GPRMC,023741.9,A,3326.236644,N,11737.169197,W,67.5,313.6,100610,,,A*44
$GPRMC,023744.9,A,3326.271949,N,11737.222566,W,68.6,307.4,100610,,,A*4D
$GPRMC,023747.9,A,3326.301742,N,11737.278303,W,66.7,303.4,100610,,,A*4C
$GPRMC,023750.9,A,3326.331267,N,11737.332819,W,65.1,302.5,100610,,,A*41
$GPRMC,023753.9,A,3326.361546,N,11737.386485,W,65.0,303.7,100610,,,A*47
$GPRMC,023756.9,A,3326.391603,N,11737.443084,W,66.1,303.2,100610,,,A*43
$GPRMC,023759.9,A,3326.421895,N,11737.496198,W,65.3,304.0,100610,,,A*41
$GPRMC,023802.9,A,3326.454109,N,11737.549007,W,66.2,305.6,100610,,,A*4F
$GPRMC,023805.9,A,3326.489270,N,11737.601479,W,66.4,310.3,100610,,,A*40
$GPRMC,023808.9,A,3326.528342,N,11737.649942,W,66.9,314.3,100610,,,A*47
$GPRMC,023811.9,A,3326.567191,N,11737.696833,W,66.2,314.1,100610,,,A*44
$GPRMC,023814.9,A,3326.607821,N,11737.743299,W,67.3,315.2,100610,,,A*47
$GPRMC,023817.9,A,3326.648379,N,11737.791000,W,67.4,315.2,100610,,,A*43
$GPRMC,023820.9,A,3326.687667,N,11737.839750,W,66.9,314.6,100610,,,A*48
$GPRMC,023824.2,A,3326.730149,N,11737.894004,W,68.4,310.5,100610,,,A*44
$GPRMC,023827.9,A,3326.770970,N,11737.961032,W,67.7,305.0,100610,,,A*49
$GPRMC,023830.9,A,3326.799420,N,11738.017407,W,67.0,302.0,100610,,,A*45
$GPRMC,023833.9,A,3326.827120,N,11738.077230,W,68.1,299.1,100610,,,A*41
$GPRMC,023836.9,A,3326.857397,N,11738.134863,W,67.6,301.7,100610,,,A*49
$GPRMC,023839.9,A,3326.887139,N,11738.192006,W,66.9,302.5,100610,,,A*45
$GPRMC,023842.9,A,3326.920113,N,11738.243886,W,64.9,305.4,100610,,,A*46
$GPRMC,023845.9,A,3326.953384,N,11738.295429,W,65.5,308.9,100610,,,A*46
$GPRMC,023848.9,A,3326.989113,N,11738.345743,W,65.0,310.5,100610,,,A*43
$GPRMC,023851.9,A,3327.024474,N,11738.393749,W,64.0,311.1,100610,,,A*45
$GPRMC,023854.9,A,3327.060915,N,11738.443165,W,65.0,310.7,100610,,,A*4E
$GPRMC,023857.9,A,3327.096075,N,11738.494576,W,67.6,309.7,100610,,,A*4B
$GPRMC,023900.9,A,3327.128802,N,11738.546151,W,66.3,306.9,100610,,,A*4E
$GPRMC,023903.9,A,3327.160520,N,11738.599612,W,65.4,305.0,100610,,,A*40
$GPRMC,023906.9,A,3327.191174,N,11738.655275,W,66.1,302.7,100610,,,A*4E
$GPRMC,023909.9,A,3327.218669,N,11738.712271,W,66.4,299.8,100610,,,A*47
$GPRMC,023912.9,A,3327.244580,N,11738.771499,W,67.0,297.3,100610,,,A*45
$GPRMC,023915.9,A,3327.267848,N,11738.831595,W,66.0,296.2,100610,,,A*4D
$GPRMC,023918.9,A,3327.291530,N,11738.888867,W,64.9,296.1,100610,,,A*41
$GPRMC,023921.9,A,3327.316161,N,11738.945527,W,63.6,297.8,100610,,,A*4C
$GPRMC,023924.9,A,3327.340404,N,11739.002144,W,63.9,297.4,100610,,,A*45
$GPRMC,023927.9,A,3327.366087,N,11739.061101,W,66.4,297.5,100610,,,A*40
$GPRMC,023930.9,A,3327.393824,N,11739.117596,W,65.9,300.7,100610,,,A*44
$GPRMC,023933.9,A,3327.424620,N,11739.173305,W,65.4,303.4,100610,,,A*45
$GPRMC,023936.9,A,3327.455466,N,11739.226784,W,64.5,304.7,100610,,,A*4C
$GPRMC,023939.9,A,3327.486848,N,11739.277547,W,63.6,306.1,100610,,,A*44
$GPRMC,023942.9,A,3327.516582,N,11739.330654,W,63.5,305.8,100610,,,A*41
$GPRMC,023946.2,A,3327.551154,N,11739.385152,W,62.8,306.1,100610,,,A*4B
$GPRMC,023949.9,A,3327.587215,N,11739.449884,W,63.5,302.2,100610,,,A*4C
$GPRMC,023952.9,A,3327.608845,N,11739.504456,W,60.2,296.9,100610,,,A*45
$GPRMC,023955.9,A,3327.632637,N,11739.559719,W,61.6,297.2,100610,,,A*4F
$GPRMC,023958.9,A,3327.654626,N,11739.614447,W,61.7,297.0,100610,,,A*43
$GPRMC,024001.9,A,3327.683577,N,11739.666046,W,63.0,303.0,100610,,,A*45
$GPRMC,024004.9,A,3327.717816,N,11739.716061,W,63.3,309.3,100610,,,A*4F
$GPRMC,024007.9,A,3327.752143,N,11739.765431,W,63.7,308.8,100610,,,A*4F
$GPRMC,024010.9,A,3327.786206,N,11739.813742,W,64.1,309.1,100610,,,A*42
$GPRMC,024013.9,A,3327.819574,N,11739.862121,W,62.8,309.4,100610,,,A*45
$GPRMC,024016.9,A,3327.850415,N,11739.911079,W,62.8,308.3,100610,,,A*44
$GPRMC,024019.9,A,3327.885479,N,11739.958713,W,62.4,309.6,100610,,,A*47
$GPRMC,024022.9,A,3327.918868,N,11740.008323,W,64.4,309.4,100610,,,A*47
$GPRMC,024025.9,A,3327.953523,N,11740.057549,W,64.7,309.3,100610,,,A*49
$GPRMC,024028.9,A,3327.987193,N,11740.110082,W,66.4,307.2,100610,,,A*4C
$GPRMC,024031.9,A,3328.018263,N,11740.164470,W,65.8,301.4,100610,,,A*4D
$GPRMC,024034.9,A,3328.043635,N,11740.219909,W,62.9,297.7,100610,,,A*40
$GPRMC,024037.9,A,3328.068327,N,11740.275209,W,62.4,298.5,100610,,,A*4D
$GPRMC,024040.9,A,3328.096069,N,11740.329071,W,62.0,305.3,100610,,,A*47
$GPRMC,024043.9,A,3328.129305,N,11740.375952,W,61.4,312.3,100610,,,A*48
$GPRMC,024046.9,A,3328.171243,N,11740.412311,W,61.9,323.3,100610,,,A*47
$GPRMC,024049.9,A,3328.215986,N,11740.445514,W,61.4,331.5,100610,,,A*42
$GPRMC,024052.9,A,3328.266383,N,11740.462482,W,62.1,344.1,100610,,,A*48
$GPRMC,024055.9,A,3328.317512,N,11740.475642,W,60.4,347.8,100610,,,A*43
$GPRMC,024058.9,A,3328.369608,N,11740.479195,W,62.1,357.3,100610,,,A*43
$GPRMC,024101.9,A,3328.421515,N,11740.477416,W,62.4,2.7,100610,,,A*48
$GPRMC,024104.2,A,3328.460650,N,11740.470695,W,62.5,8.4,100610,,,A*47
$GPRMC,024107.2,A,3328.511982,N,11740.461072,W,63.8,7.4,100610,,,A*4F
$GPRMC,024110.2,A,3328.561060,N,11740.440740,W,62.0,19.7,100610,,,A*7B
$GPRMC,024113.9,A,3328.620122,N,11740.410545,W,62.1,25.1,100610,,,A*78
$GPRMC,024116.9,A,3328.664578,N,11740.380242,W,62.0,31.8,100610,,,A*75
$GPRMC,024119.9,A,3328.708001,N,11740.344368,W,64.4,34.4,100610,,,A*70
$GPRMC,024122.9,A,3328.752604,N,11740.307098,W,64.7,35.4,100610,,,A*7D
$GPRMC,024125.9,A,3328.794996,N,11740.268863,W,63.7,36.0,100610,,,A*70
$GPRMC,024128.9,A,3328.836379,N,11740.233103,W,62.0,36.6,100610,,,A*70
$GPRMC,024131.9,A,3328.881932,N,11740.193719,W,64.8,35.3,100610,,,A*7D
$GPRMC,024134.9,A,3328.925713,N,11740.156502,W,64.3,36.2,100610,,,A*72
$GPRMC,024137.9,A,3328.969808,N,11740.119334,W,64.5,35.7,100610,,,A*74
$GPRMC,024140.9,A,3329.011700,N,11740.081474,W,63.6,36.4,100610,,,A*73
$GPRMC,024143.9,A,3329.054176,N,11740.044451,W,62.5,36.0,100610,,,A*7E
$GPRMC,024146.9,A,3329.097318,N,11740.007086,W,64.7,34.7,100610,,,A*76
$GPRMC,024149.9,A,3329.144428,N,11739.969725,W,68.1,32.6,100610,,,A*7E
$GPRMC,024152.9,A,3329.192198,N,11739.935163,W,68.0,31.6,100610,,,A*7E
$GPRMC,024155.9,A,3329.241916,N,11739.899217,W,68.7,31.1,100610,,,A*7D
$GPRMC,024158.9,A,3329.289567,N,11739.863133,W,67.4,32.2,100610,,,A*72
$GPRMC,024201.9,A,3329.338073,N,11739.827712,W,67.5,32.0,100610,,,A*70
$GPRMC,024204.9,A,3329.384365,N,11739.794593,W,65.5,31.9,100610,,,A*72
$GPRMC,024207.9,A,3329.429860,N,11739.758263,W,65.6,33.2,100610,,,A*7D
$GPRMC,024210.9,A,3329.477415,N,11739.721733,W,67.3,30.5,100610,,,A*73
$GPRMC,024213.9,A,3329.522170,N,11739.687321,W,62.8,32.5,100610,,,A*71
$GPRMC,024216.9,A,3329.566400,N,11739.654204,W,62.7,32.4,100610,,,A*70
$GPRMC,024219.9,A,3329.611867,N,11739.621777,W,64.0,29.6,100610,,,A*7B
$GPRMC,024222.9,A,3329.658000,N,11739.594429,W,62.2,26.2,100610,,,A*7D
$GPRMC,024225.9,A,3329.709867,N,11739.568858,W,65.4,21.8,100610,,,A*73
$GPRMC,024228.9,A,3329.760882,N,11739.548589,W,63.8,17.6,100610,,,A*78
$GPRMC,024231.9,A,3329.813256,N,11739.528023,W,66.0,16.4,100610,,,A*75
$GPRMC,024234.9,A,3329.867420,N,11739.512585,W,66.0,12.8,100610,,,A*7C
$GPRMC,024237.9,A,3329.918816,N,11739.502289,W,63.8,8.7,100610,,,A*4C
$GPRMC,024240.9,A,3329.975086,N,11739.495258,W,66.9,5.5,100610,,,A*4E
$GPRMC,024243.9,A,3330.027985,N,11739.493046,W,64.9,1.5,100610,,,A*4C
$GPRMC,024246.9,A,3330.083783,N,11739.496632,W,64.8,357.4,100610,,,A*4F
$GPRMC,024249.9,A,3330.135691,N,11739.502105,W,62.6,353.4,100610,,,A*4D
$GPRMC,024252.9,A,3330.189321,N,11739.506898,W,64.9,353.1,100610,,,A*4B
$GPRMC,024255.9,A,3330.242681,N,11739.519494,W,65.5,348.5,100610,,,A*4A
$GPRMC,024258.9,A,3330.295472,N,11739.536070,W,66.2,344.4,100610,,,A*49
$GPRMC,024301.9,A,3330.349831,N,11739.555082,W,67.7,342.3,100610,,,A*42
$GPRMC,024304.9,A,3330.403246,N,11739.578223,W,68.0,341.2,100610,,,A*48
$GPRMC,024307.9,A,3330.453362,N,11739.600000,W,65.1,340.2,100610,,,A*4B
$GPRMC,024310.9,A,3330.504729,N,11739.621300,W,64.6,341.2,100610,,,A*42
$GPRMC,024313.9,A,3330.555058,N,11739.642345,W,63.6,340.8,100610,,,A*4C
$GPRMC,024316.9,A,3330.606524,N,11739.665253,W,64.7,339.7,100610,,,A*46
$GPRMC,024319.9,A,3330.656427,N,11739.685586,W,63.3,340.0,100610,,,A*45
$GPRMC,024322.9,A,3330.707683,N,11739.704740,W,64.3,341.0,100610,,,A*42
$GPRMC,024325.9,A,3330.759087,N,11739.727575,W,64.0,340.4,100610,,,A*4F
$GPRMC,024328.9,A,3330.806919,N,11739.748665,W,62.4,340.4,100610,,,A*40
$GPRMC,024331.9,A,3330.857846,N,11739.769099,W,63.6,340.8,100610,,,A*4E
$GPRMC,024334.9,A,3330.906391,N,11739.790269,W,61.8,340.3,100610,,,A*43
$GPRMC,024337.9,A,3330.953258,N,11739.811061,W,61.5,339.9,100610,,,A*41
$GPRMC,024340.9,A,3331.002350,N,11739.832026,W,61.4,339.8,100610,,,A*46
$GPRMC,024343.9,A,3331.050036,N,11739.853565,W,62.5,339.9,100610,,,A*47
$GPRMC,024346.9,A,3331.102563,N,11739.872925,W,65.3,341.1,100610,,,A*4C
$GPRMC,024349.9,A,3331.151439,N,11739.896691,W,64.2,339.9,100610,,,A*46
$GPRMC,024352.9,A,3331.202984,N,11739.918908,W,65.2,340.5,100610,,,A*49
$GPRMC,024355.9,A,3331.252575,N,11739.940161,W,63.7,340.8,100610,,,A*4D
$GPRMC,024358.9,A,3331.303364,N,11739.960830,W,63.6,341.1,100610,,,A*45
$GPRMC,024401.9,A,3331.352306,N,11739.982834,W,62.2,339.7,100610,,,A*4A
$GPRMC,024404.9,A,3331.399633,N,11740.002760,W,61.1,339.6,100610,,,A*4B
$GPRMC,024407.9,A,3331.448399,N,11740.023667,W,61.7,340.1,100610,,,A*4C
$GPRMC,024410.9,A,3331.495557,N,11740.044935,W,60.3,337.8,100610,,,A*4B
$GPRMC,024413.9,A,3331.540803,N,11740.071874,W,60.5,332.4,100610,,,A*40
$GPRMC,024416.9,A,3331.583770,N,11740.103438,W,60.5,327.6,100610,,,A*47
$GPRMC,024419.9,A,3331.624981,N,11740.141278,W,62.4,322.6,100610,,,A*44
$GPRMC,024422.9,A,3331.661220,N,11740.182070,W,59.8,317.0,100610,,,A*4C
$GPRMC,024425.9,A,3331.695608,N,11740.225024,W,60.3,311.0,100610,,,A*46
$GPRMC,024428.9,A,3331.726367,N,11740.272793,W,60.3,309.6,100610,,,A*48
$GPRMC,024431.9,A,3331.760159,N,11740.319165,W,61.4,310.1,100610,,,A*47
$GPRMC,024434.2,A,3331.785480,N,11740.355082,W,61.8,313.2,100610,,,A*4F
$GPRMC,024437.2,A,3331.823577,N,11740.396506,W,62.2,322.0,100610,,,A*49
$GPRMC,024440.2,A,3331.866039,N,11740.430356,W,61.9,330.8,100610,,,A*4C
$GPRMC,024443.2,A,3331.912467,N,11740.456276,W,61.4,339.5,100610,,,A*48
$GPRMC,024446.2,A,3331.961158,N,11740.473142,W,61.8,348.6,100610,,,A*4A
$GPRMC,024449.9,A,3332.023297,N,11740.482491,W,60.7,355.8,100610,,,A*4B
$GPRMC,024452.9,A,3332.074753,N,11740.479197,W,61.0,1.7,100610,,,A*42
$GPRMC,024455.9,A,3332.123457,N,11740.477883,W,58.0,1.1,100610,,,A*4F
$GPRMC,024458.9,A,3332.171969,N,11740.474154,W,59.1,4.3,100610,,,A*42
$GPRMC,024501.9,A,3332.222512,N,11740.466814,W,61.4,7.7,100610,,,A*4D
$GPRMC,024504.9,A,3332.275859,N,11740.455207,W,63.8,10.3,100610,,,A*7C
$GPRMC,024507.9,A,3332.324746,N,11740.443638,W,61.5,11.3,100610,,,A*7A
$GPRMC,024510.9,A,3332.379484,N,11740.429531,W,64.3,12.2,100610,,,A*7E
$GPRMC,024513.9,A,3332.429645,N,11740.415321,W,61.3,10.3,100610,,,A*7E
$GPRMC,024516.9,A,3332.478448,N,11740.411928,W,59.1,1.3,100610,,,A*4E
$GPRMC,024519.9,A,3332.528688,N,11740.417873,W,60.8,352.2,100610,,,A*45
$GPRMC,024522.9,A,3332.579377,N,11740.431488,W,62.3,348.3,100610,,,A*43
$GPRMC,024525.9,A,3332.630455,N,11740.443795,W,63.8,348.3,100610,,,A*4D
$GPRMC,024528.9,A,3332.683319,N,11740.456673,W,64.7,348.6,100610,,,A*47
$GPRMC,024531.9,A,3332.736386,N,11740.470892,W,65.2,348.0,100610,,,A*41
$GPRMC,024534.9,A,3332.790711,N,11740.483774,W,66.2,348.7,100610,,,A*4D
$GPRMC,024537.9,A,3332.845375,N,11740.497655,W,65.9,347.9,100610,,,A*41
$GPRMC,024540.9,A,3332.897438,N,11740.510812,W,63.9,348.4,100610,,,A*47
$GPRMC,024543.9,A,3332.951582,N,11740.524959,W,65.6,347.7,100610,,,A*43
$GPRMC,024546.9,A,3333.005225,N,11740.537487,W,65.0,348.5,100610,,,A*42
$GPRMC,024549.9,A,3333.057163,N,11740.551721,W,65.6,347.8,100610,,,A*40
$GPRMC,024552.9,A,3333.110247,N,11740.564354,W,65.2,348.2,100610,,,A*4C
$GPRMC,024555.9,A,3333.163493,N,11740.579901,W,66.5,345.3,100610,,,A*4E
$GPRMC,024558.9,A,3333.217015,N,11740.600754,W,67.0,339.6,100610,,,A*40
$GPRMC,024601.9,A,3333.266754,N,11740.629630,W,65.8,332.3,100610,,,A*47
$GPRMC,024604.9,A,3333.312411,N,11740.666593,W,65.1,324.6,100610,,,A*48
$GPRMC,024607.9,A,3333.352928,N,11740.708309,W,63.6,317.2,100610,,,A*41
$GPRMC,024610.9,A,3333.387094,N,11740.756745,W,63.8,310.4,100610,,,A*49
$GPRMC,024613.9,A,3333.416784,N,11740.811252,W,65.6,302.1,100610,,,A*42
$GPRMC,024616.9,A,3333.441762,N,11740.866747,W,64.4,296.3,100610,,,A*41
$GPRMC,024619.9,A,3333.460646,N,11740.927210,W,64.7,289.0,100610,,,A*47
$GPRMC,024622.9,A,3333.473079,N,11740.990056,W,63.8,282.9,100610,,,A*41
$GPRMC,024625.9,A,3333.482352,N,11741.054190,W,65.2,280.9,100610,,,A*47
$GPRMC,024628.9,A,3333.492144,N,11741.118134,W,65.0,281.3,100610,,,A*40
$GPRMC,024631.9,A,3333.501729,N,11741.181267,W,65.0,281.7,100610,,,A*4F
$GPRMC,024634.9,A,3333.513418,N,11741.243308,W,64.0,283.2,100610,,,A*4B
$GPRMC,024637.9,A,3333.526854,N,11741.305024,W,63.5,286.3,100610,,,A*42
$GPRMC,024640.9,A,3333.548026,N,11741.364516,W,65.3,293.3,100610,,,A*40
$GPRMC,024643.9,A,3333.573948,N,11741.421329,W,67.2,299.7,100610,,,A*4B
$GPRMC,024646.9,A,3333.605558,N,11741.476238,W,66.5,305.5,100610,,,A*42
$GPRMC,024649.9,A,3333.640816,N,11741.528254,W,66.5,310.8,100610,,,A*42
$GPRMC,024652.9,A,3333.683654,N,11741.570955,W,64.4,320.1,100610,,,A*41
$GPRMC,024655.9,A,3333.730446,N,11741.610683,W,68.2,325.3,100610,,,A*42
$GPRMC,024658.9,A,3333.778468,N,11741.644551,W,67.5,330.0,100610,,,A*4D
$GPRMC,024701.9,A,3333.829797,N,11741.681005,W,69.3,329.9,100610,,,A*4C
$GPRMC,024704.9,A,3333.877507,N,11741.713767,W,66.4,329.4,100610,,,A*45
$GPRMC,024707.9,A,3333.923892,N,11741.750225,W,68.2,325.9,100610,,,A*4A
$GPRMC,024710.9,A,3333.969088,N,11741.794417,W,69.2,321.1,100610,,,A*43
$GPRMC,024713.9,A,3334.012637,N,11741.838358,W,67.5,318.2,100610,,,A*45
$GPRMC,024716.9,A,3334.050208,N,11741.885695,W,65.8,313.9,100610,,,A*43
$GPRMC,024719.9,A,3334.089093,N,11741.932780,W,65.9,313.5,100610,,,A*4D
$GPRMC,024722.9,A,3334.127996,N,11741.978506,W,64.2,314.1,100610,,,A*47
$GPRMC,024725.9,A,3334.162128,N,11742.026132,W,63.0,313.0,100610,,,A*4D
$GPRMC,024728.9,A,3334.200136,N,11742.070519,W,64.1,314.4,100610,,,A*43
$GPRMC,024731.9,A,3334.237201,N,11742.119617,W,66.1,312.2,100610,,,A*49
$GPRMC,024734.9,A,3334.276786,N,11742.167059,W,66.8,313.8,100610,,,A*44
$GPRMC,024737.9,A,3334.316635,N,11742.212336,W,66.7,315.4,100610,,,A*47
$GPRMC,024740.9,A,3334.354816,N,11742.261575,W,66.8,312.4,100610,,,A*43
$GPRMC,024743.9,A,3334.391305,N,11742.312521,W,66.6,309.5,100610,,,A*41
$GPRMC,024746.9,A,3334.422571,N,11742.364397,W,63.6,304.7,100610,,,A*4E
$GPRMC,024749.9,A,3334.451003,N,11742.419125,W,64.3,300.9,100610,,,A*4B
$GPRMC,024753.0,A,3334.475625,N,11742.477468,W,65.1,295.9,100610,,,A*47
$GPRMC,024756.9,A,3334.506117,N,11742.555454,W,65.3,294.1,100610,,,A*4D
$GPRMC,024759.9,A,3334.524735,N,11742.614591,W,64.7,292.0,100610,,,A*48
$GPRMC,024802.9,A,3334.546990,N,11742.674197,W,65.5,293.6,100610,,,A*4C
$GPRMC,024805.2,A,3334.563296,N,11742.721183,W,64.6,291.1,100610,,,A*49
$GPRMC,024808.9,A,3334.592861,N,11742.792985,W,64.6,295.5,100610,,,A*45
$GPRMC,024811.9,A,3334.614196,N,11742.850881,W,64.4,296.2,100610,,,A*43
$GPRMC,024814.9,A,3334.640031,N,11742.908699,W,64.4,298.5,100610,,,A*49
$GPRMC,024817.9,A,3334.667091,N,11742.964598,W,64.7,300.3,100610,,,A*48
$GPRMC,024820.9,A,3334.695444,N,11743.021130,W,65.0,302.1,100610,,,A*44
$GPRMC,024823.9,A,3334.726358,N,11743.077072,W,67.0,303.7,100610,,,A*45
$GPRMC,024826.9,A,3334.755373,N,11743.133133,W,67.1,304.0,100610,,,A*49
$GPRMC,024829.9,A,3334.789337,N,11743.186662,W,67.0,306.7,100610,,,A*4E
$GPRMC,024832.9,A,3334.824481,N,11743.240690,W,68.2,307.9,100610,,,A*40
$GPRMC,024835.2,A,3334.851625,N,11743.279790,W,65.6,309.3,100610,,,A*44
$GPRMC,024838.9,A,3334.896129,N,11743.339736,W,65.0,312.6,100610,,,A*42
$GPRMC,024841.9,A,3334.932273,N,11743.388609,W,64.7,311.4,100610,,,A*4F
$GPRMC,024844.9,A,3334.967428,N,11743.436827,W,64.5,312.2,100610,,,A*45
$GPRMC,024847.9,A,3335.003340,N,11743.484693,W,63.7,312.7,100610,,,A*4D
$GPRMC,024850.9,A,3335.038566,N,11743.532279,W,64.0,311.5,100610,,,A*4C
$GPRMC,024853.9,A,3335.072301,N,11743.579072,W,62.5,311.1,100610,,,A*47
$GPRMC,024856.9,A,3335.107247,N,11743.626316,W,62.3,310.5,100610,,,A*49
$GPRMC,024859.9,A,3335.139264,N,11743.674655,W,61.8,308.4,100610,,,A*4F
$GPRMC,024902.9,A,3335.169151,N,11743.725719,W,63.1,303.3,100610,,,A*4B
$GPRMC,024905.9,A,3335.194611,N,11743.780079,W,63.0,297.8,100610,,,A*45
$GPRMC,024908.9,A,3335.215989,N,11743.839738,W,64.6,293.0,100610,,,A*4E
$GPRMC,024911.9,A,3335.232842,N,11743.899634,W,64.2,287.7,100610,,,A*44
$GPRMC,024914.9,A,3335.245602,N,11743.961058,W,64.0,282.8,100610,,,A*49
$GPRMC,024917.9,A,3335.253198,N,11744.024526,W,64.7,277.7,100610,,,A*48
$GPRMC,024920.9,A,3335.259081,N,11744.089910,W,65.1,275.6,100610,,,A*45
$GPRMC,024923.9,A,3335.265929,N,11744.153369,W,65.0,277.3,100610,,,A*46
$GPRMC,024926.9,A,3335.274001,N,11744.220311,W,67.7,277.9,100610,,,A*47
$GPRMC,024929.9,A,3335.281068,N,11744.288064,W,65.9,276.6,100610,,,A*4C
$GPRMC,024932.9,A,3335.285436,N,11744.351559,W,64.9,276.6,100610,,,A*42
$GPRMC,024935.9,A,3335.291728,N,11744.417765,W,64.6,276.8,100610,,,A*45
$GPRMC,024938.9,A,3335.296489,N,11744.478768,W,63.2,276.0,100610,,,A*48
$GPRMC,024941.9,A,3335.303517,N,11744.541754,W,64.0,279.3,100610,,,A*40
$GPRMC,024944.9,A,3335.314120,N,11744.605079,W,65.0,282.2,100610,,,A*4C
$GPRMC,024947.9,A,3335.329969,N,11744.670303,W,67.0,286.9,100610,,,A*45
$GPRMC,024950.9,A,3335.350863,N,11744.730603,W,65.5,291.7,100610,,,A*49
$GPRMC,024953.9,A,3335.375108,N,11744.784752,W,62.7,295.2,100610,,,A*47
$GPRMC,024956.9,A,3335.396299,N,11744.840459,W,61.9,293.9,100610,,,A*4B
$GPRMC,024959.9,A,3335.417733,N,11744.896486,W,61.9,294.3,100610,,,A*4B
$GPRMC,025002.9,A,3335.438721,N,11744.953645,W,62.9,291.7,100610,,,A*44
$GPRMC,025005.9,A,3335.450705,N,11745.017426,W,65.3,284.1,100610,,,A*4B
$GPRMC,025008.9,A,3335.460171,N,11745.083564,W,66.3,279.8,100610,,,A*42
$GPRMC,025011.9,A,3335.469421,N,11745.149822,W,68.6,280.2,100610,,,A*4C
$GPRMC,025014.9,A,3335.477662,N,11745.218041,W,69.3,278.5,100610,,,A*4D
$GPRMC,025017.9,A,3335.487157,N,11745.288587,W,71.3,278.7,100610,,,A*4D
$GPRMC,025020.9,A,3335.498416,N,11745.353974,W,69.2,280.4,100610,,,A*4C
$GPRMC,025023.9,A,3335.511083,N,11745.423398,W,69.6,283.0,100610,,,A*4C
$GPRMC,025026.9,A,3335.527501,N,11745.487267,W,67.7,288.7,100610,,,A*4F
$GPRMC,025029.9,A,3335.551702,N,11745.549717,W,69.7,295.4,100610,,,A*40
$GPRMC,025032.9,A,3335.580402,N,11745.610990,W,70.2,301.5,100610,,,A*4B
$GPRMC,025035.9,A,3335.614601,N,11745.666512,W,70.3,307.9,100610,,,A*4F
$GPRMC,025038.9,A,3335.652360,N,11745.722224,W,70.7,308.3,100610,,,A*40
$GPRMC,025041.9,A,3335.688650,N,11745.777374,W,70.7,309.4,100610,,,A*4D
$GPRMC,025044.9,A,3335.723943,N,11745.831277,W,68.7,308.2,100610,,,A*44
$GPRMC,025047.9,A,3335.757963,N,11745.884841,W,67.7,307.8,100610,,,A*4D
$GPRMC,025050.9,A,3335.792362,N,11745.936579,W,66.7,308.5,100610,,,A*44
$GPRMC,025053.9,A,3335.826482,N,11745.988775,W,65.9,307.8,100610,,,A*4A
$GPRMC,025056.9,A,3335.861387,N,11746.038970,W,64.9,307.2,100610,,,A*4F
$GPRMC,025059.9,A,3335.891214,N,11746.094203,W,65.2,300.8,100610,,,A*4A
$GPRMC,025102.9,A,3335.914250,N,11746.153680,W,65.5,293.3,100610,,,A*4B
$GPRMC,025105.9,A,3335.930365,N,11746.214615,W,64.6,286.6,100610,,,A*42
$GPRMC,025108.9,A,3335.941570,N,11746.277748,W,65.4,280.7,100610,,,A*43
$GPRMC,025111.9,A,3335.949593,N,11746.342992,W,65.4,277.0,100610,,,A*4F
$GPRMC,025114.9,A,3335.950993,N,11746.407528,W,64.7,273.8,100610,,,A*4B
$GPRMC,025117.9,A,3335.956023,N,11746.470890,W,63.2,275.5,100610,,,A*4B
$GPRMC,025120.9,A,3335.964720,N,11746.531577,W,61.4,280.5,100610,,,A*44
$GPRMC,025123.9,A,3335.978383,N,11746.589337,W,58.8,287.1,100610,,,A*43
$GPRMC,025126.9,A,3335.995353,N,11746.642176,W,56.3,292.8,100610,,,A*43
$GPRMC,025129.9,A,3336.014270,N,11746.690359,W,52.3,297.9,100610,,,A*4F
$GPRMC,025132.9,A,3336.037581,N,11746.734275,W,51.6,303.1,100610,,,A*4F
$GPRMC,025135.9,A,3336.063377,N,11746.777389,W,52.7,303.6,100610,,,A*46
$GPRMC,025138.9,A,3336.083850,N,11746.822733,W,51.1,299.8,100610,,,A*48
$GPRMC,025141.9,A,3336.103808,N,11746.868607,W,52.4,296.2,100610,,,A*49
$GPRMC,025144.9,A,3336.121658,N,11746.917076,W,53.0,292.6,100610,,,A*4B
$GPRMC,025147.9,A,3336.134678,N,11746.967684,W,52.2,288.8,100610,,,A*44
$GPRMC,025150.9,A,3336.147058,N,11747.017883,W,52.4,285.0,100610,,,A*47
$GPRMC,025153.9,A,3336.156641,N,11747.068629,W,53.1,282.7,100610,,,A*48
$GPRMC,025156.9,A,3336.165022,N,11747.122332,W,55.5,278.9,100610,,,A*47
$GPRMC,025159.9,A,3336.169419,N,11747.177773,W,53.5,276.8,100610,,,A*40
$GPRMC,025202.9,A,3336.174090,N,11747.227455,W,48.2,277.8,100610,,,A*49
$GPRMC,025205.9,A,3336.181669,N,11747.271270,W,45.3,283.7,100610,,,A*4E
$GPRMC,025208.9,A,3336.193330,N,11747.317007,W,48.1,289.2,100610,,,A*4A
$GPRMC,025211.9,A,3336.209854,N,11747.361985,W,50.5,294.1,100610,,,A*4B
$GPRMC,025214.9,A,3336.228598,N,11747.405990,W,49.5,296.8,100610,,,A*42
$GPRMC,025217.9,A,3336.248071,N,11747.447916,W,49.1,298.5,100610,,,A*4A
$GPRMC,025220.9,A,3336.269137,N,11747.489197,W,47.9,301.0,100610,,,A*4F
$GPRMC,025223.9,A,3336.286648,N,11747.529459,W,42.7,299.6,100610,,,A*43
$GPRMC,025226.9,A,3336.301241,N,11747.563865,W,36.4,299.3,100610,,,A*4D
$GPRMC,025229.9,A,3336.312404,N,11747.590064,W,27.2,297.2,100610,,,A*4B
$GPRMC,025232.9,A,3336.319862,N,11747.608041,W,18.2,296.5,100610,,,A*49
$GPRMC,025235.9,A,3336.325411,N,11747.617655,W,9.9,294.9,100610,,,A*71
$GPRMC,025351.9,A,3336.336551,N,11747.654423,W,14.0,291.2,100610,,,A*4A
$GPRMC,025354.9,A,3336.344789,N,11747.685050,W,31.9,288.1,100610,,,A*44
$GPRMC,025357.9,A,3336.355697,N,11747.724366,W,42.7,286.7,100610,,,A*47
$GPRMC,025400.9,A,3336.368635,N,11747.770012,W,48.2,287.6,100610,,,A*4A
$GPRMC,025403.9,A,3336.382844,N,11747.817692,W,51.7,289.7,100610,,,A*47
$GPRMC,025406.9,A,3336.396385,N,11747.867575,W,54.1,289.0,100610,,,A*48
$GPRMC,025409.9,A,3336.414465,N,11747.919859,W,56.5,292.1,100610,,,A*45
$GPRMC,025412.9,A,3336.432789,N,11747.974849,W,58.7,291.8,100610,,,A*46
$GPRMC,025415.9,A,3336.452254,N,11748.028962,W,58.5,293.7,100610,,,A*4A
$GPRMC,025418.9,A,3336.469666,N,11748.080541,W,56.6,290.4,100610,,,A*48
$GPRMC,025421.9,A,3336.493626,N,11748.133921,W,62.0,296.2,100610,,,A*41
$GPRMC,025424.9,A,3336.515010,N,11748.191138,W,61.6,294.9,100610,,,A*4C
$GPRMC,025427.9,A,3336.535104,N,11748.247486,W,61.5,292.3,100610,,,A*4E
$GPRMC,025430.9,A,3336.550465,N,11748.306028,W,61.9,286.6,100610,,,A*41
$GPRMC,025433.9,A,3336.562065,N,11748.366692,W,63.0,281.1,100610,,,A*4D
$GPRMC,025436.9,A,3336.572362,N,11748.429917,W,64.5,280.2,100610,,,A*43
$GPRMC,025439.9,A,3336.579302,N,11748.493786,W,63.8,278.4,100610,,,A*4D
$GPRMC,025442.9,A,3336.587668,N,11748.557019,W,64.5,279.5,100610,,,A*4B
