NMEA Sentence Code,UTC Time,Status,Latitude,Latitude Direction,Longitude,Longitude Direction,Speed (knots),Track Angle (degrees true),Date,MagneticVariation,Magnetic Variation Direction,[FAA Mode]-Optional,Checksum
$GPRMC,003748.9,A,3300.697877,N,11705.474005,W,8.0,223.7,250610,,,A*71
$GPRMC,003751.9,A,3300.675626,N,11705.486848,W,22.9,193.3,250610,,,A*4E
$GPRMC,003754.9,A,3300.653506,N,11705.493280,W,26.1,186.5,250610,,,A*4A
$GPRMC,003757.9,A,3300.627009,N,11705.492396,W,28.9,172.6,250610,,,A*49
$GPRMC,003800.9,A,3300.604870,N,11705.483417,W,28.4,162.6,250610,,,A*41
$GPRMC,003803.9,A,3300.581791,N,11705.469622,W,31.5,151.2,250610,,,A*41
$GPRMC,003806.9,A,3300.557842,N,11705.449672,W,34.0,143.1,250610,,,A*49
$GPRMC,003809.9,A,3300.542393,N,11705.426246,W,29.8,130.1,250610,,,A*4F
$GPRMC,003812.9,A,3300.529255,N,11705.403945,W,26.8,127.0,250610,,,A*44
$GPRMC,003815.9,A,3300.515481,N,11705.384776,W,26.1,127.5,250610,,,A*49
$GPRMC,003818.9,A,3300.504170,N,11705.360420,W,28.0,123.6,250610,,,A*4D
$GPRMC,003821.9,A,3300.492077,N,11705.338536,W,23.9,122.2,250610,,,A*43
$GPRMC,003824.9,A,3300.489154,N,11705.322005,W,17.3,105.4,250610,,,A*4C
$GPRMC,003827.9,A,3300.499384,N,11705.310702,W,17.4,45.9,250610,,,A*7F
$GPRMC,003830.9,A,3300.520593,N,11705.293259,W,28.9,39.9,250610,,,A*71
$GPRMC,003833.9,A,3300.543095,N,11705.271499,W,32.7,39.5,250610,,,A*7B
$GPRMC,003836.9,A,3300.567838,N,11705.247570,W,36.0,39.9,250610,,,A*7B
$GPRMC,003839.9,A,3300.590667,N,11705.223307,W,37.2,43.4,250610,,,A*7F
$GPRMC,003842.9,A,3300.614832,N,11705.194848,W,40.2,47.2,250610,,,A*7F
$GPRMC,003845.9,A,3300.633234,N,11705.165032,W,39.8,53.0,250610,,,A*79
$GPRMC,003848.9,A,3300.654101,N,11705.129815,W,41.3,57.3,250610,,,A*76
$GPRMC,003851.9,A,3300.667698,N,11705.094442,W,41.4,65.5,250610,,,A*70
$GPRMC,003854.9,A,3300.677134,N,11705.056398,W,42.1,72.9,250610,,,A*77
$GPRMC,003857.9,A,3300.689285,N,11705.014170,W,43.4,74.1,250610,,,A*74
$GPRMC,003900.9,A,3300.697879,N,11704.974282,W,41.7,74.8,250610,,,A*79
$GPRMC,003903.9,A,3300.702556,N,11704.939673,W,37.0,79.9,250610,,,A*7E
$GPRMC,003906.9,A,3300.702878,N,11704.907368,W,32.9,83.5,250610,,,A*7D
$GPRMC,003909.9,A,3300.708501,N,11704.876156,W,29.9,77.5,250610,,,A*72
$GPRMC,003912.9,A,3300.710194,N,11704.856143,W,18.2,85.9,250610,,,A*77
$GPRMC,003915.9,A,3300.704775,N,11704.845157,W,12.6,135.0,250610,,,A*46
$GPRMC,003918.9,A,3300.691947,N,11704.841028,W,18.7,166.8,250610,,,A*41
$GPRMC,003921.9,A,3300.669301,N,11704.840097,W,26.3,174.2,250610,,,A*41
$GPRMC,003924.9,A,3300.641217,N,11704.838003,W,33.3,174.3,250610,,,A*4F
$GPRMC,003927.9,A,3300.606836,N,11704.838107,W,39.7,179.2,250610,,,A*41
$GPRMC,003930.9,A,3300.569023,N,11704.840238,W,44.4,183.1,250610,,,A*4E
$GPRMC,003933.9,A,3300.528301,N,11704.845797,W,47.4,184.6,250610,,,A*4D
$GPRMC,003936.9,A,3300.483159,N,11704.850565,W,52.7,182.9,250610,,,A*42
$GPRMC,003939.9,A,3300.432526,N,11704.855188,W,57.7,184.3,250610,,,A*40
$GPRMC,003943.2,A,3300.382759,N,11704.861760,W,56.1,187.4,250610,,,A*44
$GPRMC,003946.9,A,3300.325889,N,11704.873377,W,54.8,191.1,250610,,,A*4D
$GPRMC,003949.9,A,3300.272827,N,11704.887928,W,60.1,191.6,250610,,,A*47
$GPRMC,003952.9,A,3300.222322,N,11704.900872,W,59.1,193.6,250610,,,A*4E
$GPRMC,003955.9,A,3300.176756,N,11704.914504,W,58.1,194.3,250610,,,A*46
$GPRMC,003958.9,A,3300.129809,N,11704.931127,W,58.9,195.8,250610,,,A*44
$GPRMC,004001.9,A,3300.084003,N,11704.945173,W,57.6,195.1,250610,,,A*49
$GPRMC,004004.9,A,3300.035040,N,11704.960839,W,59.0,196.0,250610,,,A*4B
$GPRMC,004007.9,A,3259.986817,N,11704.978522,W,59.3,196.7,250610,,,A*44
$GPRMC,004010.9,A,3259.940518,N,11704.994765,W,58.4,195.8,250610,,,A*43
$GPRMC,004013.9,A,3259.892456,N,11705.011412,W,60.4,195.4,250610,,,A*44
$GPRMC,004016.9,A,3259.842928,N,11705.024450,W,61.1,191.8,250610,,,A*44
$GPRMC,004019.9,A,3259.794389,N,11705.032451,W,58.2,189.2,250610,,,A*42
$GPRMC,004022.9,A,3259.748489,N,11705.042070,W,56.5,188.2,250610,,,A*44
$GPRMC,004025.9,A,3259.706987,N,11705.043113,W,52.8,183.3,250610,,,A*4C
$GPRMC,004028.9,A,3259.661680,N,11705.046790,W,53.8,181.6,250610,,,A*47
$GPRMC,004031.9,A,3259.617217,N,11705.044712,W,54.6,177.9,250610,,,A*43
$GPRMC,004034.9,A,3259.571865,N,11705.042054,W,53.2,176.0,250610,,,A*42
$GPRMC,004037.9,A,3259.528957,N,11705.035569,W,51.4,172.5,250610,,,A*43
$GPRMC,004040.9,A,3259.485090,N,11705.024250,W,52.7,169.3,250610,,,A*46
$GPRMC,004043.9,A,3259.443284,N,11705.015834,W,53.0,170.3,250610,,,A*4C
$GPRMC,004046.9,A,3259.398819,N,11705.007821,W,53.7,170.5,250610,,,A*40
$GPRMC,004049.9,A,3259.356826,N,11704.996810,W,51.5,169.3,250610,,,A*4D
$GPRMC,004052.9,A,3259.315646,N,11704.991096,W,47.5,172.6,250610,,,A*41
$GPRMC,004055.9,A,3259.277674,N,11704.986866,W,45.5,175.8,250610,,,A*48
$GPRMC,004058.9,A,3259.241431,N,11704.984203,W,45.5,178.4,250610,,,A*49
$GPRMC,004101.9,A,3259.196820,N,11704.988860,W,50.8,184.5,250610,,,A*49
$GPRMC,004104.9,A,3259.151313,N,11704.997254,W,53.8,188.0,250610,,,A*45
$GPRMC,004107.9,A,3259.106461,N,11705.005181,W,53.2,190.7,250610,,,A*4A
$GPRMC,004110.9,A,3259.063142,N,11705.015951,W,53.2,193.8,250610,,,A*42
$GPRMC,004113.9,A,3259.022321,N,11705.029703,W,51.2,199.2,250610,,,A*47
$GPRMC,004116.9,A,3258.982180,N,11705.050732,W,51.2,202.7,250610,,,A*41
$GPRMC,004119.9,A,3258.945785,N,11705.072406,W,50.7,207.2,250610,,,A*46
$GPRMC,004122.9,A,3258.910490,N,11705.095000,W,49.7,208.9,250610,,,A*4E
$GPRMC,004125.9,A,3258.867745,N,11705.119370,W,52.2,208.0,250610,,,A*44
$GPRMC,004128.9,A,3258.829807,N,11705.146015,W,53.1,208.9,250610,,,A*4B
$GPRMC,004131.9,A,3258.791073,N,11705.169150,W,52.6,207.4,250610,,,A*4D
$GPRMC,004134.9,A,3258.751429,N,11705.193644,W,54.7,206.8,250610,,,A*42
$GPRMC,004137.2,A,3258.717299,N,11705.215286,W,59.6,208.5,250610,,,A*4D
$GPRMC,004140.9,A,3258.661363,N,11705.252143,W,62.6,210.0,250610,,,A*4F
$GPRMC,004143.9,A,3258.614540,N,11705.282913,W,62.7,208.8,250610,,,A*49
$GPRMC,004146.9,A,3258.568649,N,11705.312109,W,61.5,208.1,250610,,,A*4D
$GPRMC,004149.9,A,3258.522405,N,11705.341035,W,62.2,209.1,250610,,,A*4B
$GPRMC,004152.9,A,3258.476713,N,11705.369600,W,60.7,207.8,250610,,,A*4F
$GPRMC,004155.9,A,3258.432340,N,11705.398201,W,60.5,207.6,250610,,,A*4D
$GPRMC,004158.9,A,3258.390264,N,11705.424842,W,58.4,208.1,250610,,,A*47
$GPRMC,004201.9,A,3258.344863,N,11705.454380,W,61.3,208.0,250610,,,A*42
$GPRMC,004204.9,A,3258.301883,N,11705.482597,W,59.3,209.2,250610,,,A*4B
$GPRMC,004207.9,A,3258.258576,N,11705.509746,W,59.0,208.7,250610,,,A*49
$GPRMC,004210.9,A,3258.216732,N,11705.537382,W,58.2,208.8,250610,,,A*4A
$GPRMC,004213.9,A,3258.175163,N,11705.565284,W,57.3,208.9,250610,,,A*42
$GPRMC,004216.9,A,3258.132679,N,11705.592102,W,57.8,208.7,250610,,,A*48
$GPRMC,004219.9,A,3258.090786,N,11705.619949,W,58.0,209.9,250610,,,A*40
$GPRMC,004222.9,A,3258.051223,N,11705.648739,W,55.7,211.3,250610,,,A*4B
$GPRMC,004225.9,A,3258.013243,N,11705.678110,W,54.4,215.2,250610,,,A*45
$GPRMC,004228.9,A,3257.982199,N,11705.714475,W,54.4,228.1,250610,,,A*42
$GPRMC,004231.9,A,3257.954707,N,11705.758619,W,55.8,235.0,250610,,,A*40
$GPRMC,004234.9,A,3257.926026,N,11705.803301,W,55.5,231.3,250610,,,A*43
$GPRMC,004237.9,A,3257.890615,N,11705.846296,W,59.1,225.3,250610,,,A*49
$GPRMC,004240.9,A,3257.857622,N,11705.889624,W,59.8,229.4,250610,,,A*4A
$GPRMC,004243.9,A,3257.826777,N,11705.940002,W,62.8,236.5,250610,,,A*4F
$GPRMC,004246.9,A,3257.803396,N,11705.993478,W,61.5,242.6,250610,,,A*4F
$GPRMC,004249.9,A,3257.783018,N,11706.048496,W,61.0,246.1,250610,,,A*48
$GPRMC,004252.9,A,3257.764793,N,11706.101221,W,58.8,248.3,250610,,,A*47
$GPRMC,004255.9,A,3257.745565,N,11706.153916,W,58.1,247.1,250610,,,A*44
$GPRMC,004258.9,A,3257.728582,N,11706.207564,W,58.5,248.8,250610,,,A*42
$GPRMC,004301.9,A,3257.712253,N,11706.261938,W,57.4,249.2,250610,,,A*4D
$GPRMC,004304.9,A,3257.693103,N,11706.317505,W,58.9,248.5,250610,,,A*40
$GPRMC,004307.9,A,3257.674893,N,11706.369376,W,58.0,247.8,250610,,,A*4A
$GPRMC,004310.9,A,3257.656938,N,11706.422087,W,58.6,249.1,250610,,,A*48
$GPRMC,004313.9,A,3257.639044,N,11706.475772,W,58.4,249.1,250610,,,A*4D
$GPRMC,004316.9,A,3257.621656,N,11706.530204,W,58.5,249.0,250610,,,A*40
$GPRMC,004319.9,A,3257.602559,N,11706.584706,W,58.2,248.3,250610,,,A*4F
$GPRMC,004322.9,A,3257.582749,N,11706.640948,W,59.8,247.7,250610,,,A*40
$GPRMC,004325.9,A,3257.563160,N,11706.696185,W,59.5,248.2,250610,,,A*40
$GPRMC,004328.9,A,3257.546717,N,11706.748898,W,58.7,248.5,250610,,,A*4F
$GPRMC,004331.9,A,3257.529605,N,11706.801250,W,58.2,248.3,250610,,,A*43
$GPRMC,004334.9,A,3257.513403,N,11706.853515,W,57.4,248.8,250610,,,A*48
$GPRMC,004337.9,A,3257.493023,N,11706.908570,W,59.8,247.2,250610,,,A*4F
$GPRMC,004340.9,A,3257.477850,N,11706.962007,W,58.3,249.7,250610,,,A*41
$GPRMC,004343.9,A,3257.459018,N,11707.017797,W,59.7,248.8,250610,,,A*45
$GPRMC,004346.9,A,3257.439382,N,11707.072551,W,59.9,247.9,250610,,,A*4D
$GPRMC,004349.9,A,3257.419077,N,11707.129040,W,61.5,246.8,250610,,,A*44
$GPRMC,004352.9,A,3257.402306,N,11707.184032,W,60.4,248.3,250610,,,A*46
$GPRMC,004355.9,A,3257.383591,N,11707.238714,W,59.6,247.6,250610,,,A*42
$GPRMC,004358.9,A,3257.363473,N,11707.294286,W,59.7,248.1,250610,,,A*4D
$GPRMC,004401.9,A,3257.345403,N,11707.347896,W,59.7,248.5,250610,,,A*45
$GPRMC,004404.9,A,3257.329446,N,11707.404525,W,60.4,251.2,250610,,,A*48
$GPRMC,004407.9,A,3257.313061,N,11707.460960,W,60.0,251.6,250610,,,A*4C
$GPRMC,004410.9,A,3257.300092,N,11707.515999,W,59.4,255.0,250610,,,A*4D
$GPRMC,004413.9,A,3257.290182,N,11707.572041,W,59.2,256.6,250610,,,A*48
$GPRMC,004416.9,A,3257.277545,N,11707.627828,W,59.5,255.7,250610,,,A*4A
$GPRMC,004419.9,A,3257.266634,N,11707.686216,W,61.2,257.2,250610,,,A*47
$GPRMC,004422.9,A,3257.258272,N,11707.743521,W,58.9,258.2,250610,,,A*41
$GPRMC,004425.9,A,3257.248475,N,11707.800549,W,58.5,259.1,250610,,,A*4E
$GPRMC,004428.2,A,3257.242835,N,11707.844759,W,56.6,260.8,250610,,,A*47
$GPRMC,004431.9,A,3257.231362,N,11707.911541,W,57.0,259.2,250610,,,A*44
$GPRMC,004434.9,A,3257.226173,N,11707.968550,W,57.5,262.7,250610,,,A*43
$GPRMC,004437.9,A,3257.221779,N,11708.025682,W,57.7,264.2,250610,,,A*49
$GPRMC,004440.9,A,3257.220998,N,11708.084081,W,58.5,267.1,250610,,,A*4A
$GPRMC,004443.9,A,3257.214809,N,11708.137534,W,57.1,266.3,250610,,,A*4D
$GPRMC,004446.9,A,3257.212759,N,11708.192245,W,56.8,267.6,250610,,,A*46
$GPRMC,004449.9,A,3257.211941,N,11708.246342,W,57.1,268.7,250610,,,A*47
$GPRMC,004452.9,A,3257.209842,N,11708.304186,W,57.8,269.5,250610,,,A*41
$GPRMC,004455.9,A,3257.210083,N,11708.362163,W,58.6,270.4,250610,,,A*48
$GPRMC,004458.9,A,3257.212957,N,11708.417810,W,57.6,271.6,250610,,,A*43
$GPRMC,004501.9,A,3257.215315,N,11708.471438,W,56.4,273.5,250610,,,A*41
$GPRMC,004504.9,A,3257.219149,N,11708.531855,W,59.2,274.9,250610,,,A*43
$GPRMC,004507.9,A,3257.228194,N,11708.585243,W,57.1,279.5,250610,,,A*4C
$GPRMC,004510.9,A,3257.238056,N,11708.641452,W,57.5,282.6,250610,,,A*4A
$GPRMC,004513.9,A,3257.249622,N,11708.697347,W,58.6,285.3,250610,,,A*4C
$GPRMC,004516.9,A,3257.265519,N,11708.751001,W,58.4,290.5,250610,,,A*46
$GPRMC,004519.9,A,3257.285766,N,11708.802397,W,57.4,294.3,250610,,,A*45
$GPRMC,004522.9,A,3257.308530,N,11708.847666,W,56.2,299.1,250610,,,A*4A
$GPRMC,004525.9,A,3257.335155,N,11708.895067,W,56.6,304.0,250610,,,A*4C
$GPRMC,004528.9,A,3257.363181,N,11708.939163,W,55.2,308.0,250610,,,A*42
$GPRMC,004531.9,A,3257.393769,N,11708.981502,W,56.1,311.5,250610,,,A*48
$GPRMC,004534.9,A,3257.426971,N,11709.019381,W,55.5,315.9,250610,,,A*48
$GPRMC,004537.9,A,3257.461952,N,11709.057799,W,56.3,316.9,250610,,,A*48
$GPRMC,004540.9,A,3257.495822,N,11709.097196,W,56.6,315.3,250610,,,A*4C
$GPRMC,004543.9,A,3257.529471,N,11709.139843,W,58.1,312.4,250610,,,A*4E
$GPRMC,004546.9,A,3257.557938,N,11709.179131,W,51.9,310.9,250610,,,A*44
$GPRMC,004549.9,A,3257.585826,N,11709.227620,W,56.7,304.8,250610,,,A*48
$GPRMC,004552.9,A,3257.610217,N,11709.276089,W,56.8,300.5,250610,,,A*42
$GPRMC,004555.9,A,3257.634313,N,11709.325889,W,57.2,299.9,250610,,,A*4F
$GPRMC,004558.9,A,3257.658493,N,11709.378458,W,58.6,299.0,250610,,,A*4D
$GPRMC,004601.9,A,3257.679804,N,11709.428467,W,57.1,297.8,250610,,,A*43
$GPRMC,004604.2,A,3257.698410,N,11709.465361,W,57.2,299.7,250610,,,A*41
$GPRMC,004607.2,A,3257.722761,N,11709.514700,W,57.1,299.7,250610,,,A*40
$GPRMC,004610.2,A,3257.746480,N,11709.563831,W,57.9,299.9,250610,,,A*43
$GPRMC,004613.9,A,3257.776753,N,11709.625380,W,58.3,300.0,250610,,,A*48
$GPRMC,004616.9,A,3257.801838,N,11709.673982,W,57.5,300.8,250610,,,A*4A
$GPRMC,004619.9,A,3257.824005,N,11709.722767,W,57.0,299.5,250610,,,A*4D
$GPRMC,004622.9,A,3257.847577,N,11709.772958,W,57.5,299.0,250610,,,A*47
$GPRMC,004625.9,A,3257.871832,N,11709.823859,W,58.4,298.9,250610,,,A*44
$GPRMC,004628.9,A,3257.894606,N,11709.873185,W,57.3,299.0,250610,,,A*46
$GPRMC,004631.9,A,3257.919322,N,11709.922499,W,57.8,299.3,250610,,,A*4C
$GPRMC,004634.9,A,3257.944739,N,11709.971478,W,56.8,300.1,250610,,,A*44
$GPRMC,004637.9,A,3257.967680,N,11710.021155,W,57.7,298.4,250610,,,A*40
$GPRMC,004640.9,A,3257.989154,N,11710.069943,W,56.1,296.1,250610,,,A*41
$GPRMC,004643.9,A,3258.007457,N,11710.120611,W,56.2,291.8,250610,,,A*4D
$GPRMC,004646.9,A,3258.019823,N,11710.178453,W,57.8,286.0,250610,,,A*44
$GPRMC,004649.9,A,3258.029520,N,11710.233200,W,57.6,281.0,250610,,,A*43
$GPRMC,004652.9,A,3258.034293,N,11710.290745,W,57.0,275.7,250610,,,A*4D
$GPRMC,004655.9,A,3258.036888,N,11710.347654,W,57.9,271.6,250610,,,A*4E
$GPRMC,004658.9,A,3258.035750,N,11710.403774,W,56.0,268.2,250610,,,A*4A
$GPRMC,004701.9,A,3258.031901,N,11710.458295,W,53.4,264.3,250610,,,A*41
$GPRMC,004704.9,A,3258.019685,N,11710.513333,W,55.1,257.0,250610,,,A*4E
$GPRMC,004707.9,A,3258.004790,N,11710.570420,W,57.5,252.4,250610,,,A*43
$GPRMC,004710.9,A,3257.987806,N,11710.624715,W,57.1,249.6,250610,,,A*43
$GPRMC,004713.9,A,3257.963390,N,11710.676424,W,58.2,242.5,250610,,,A*4C
$GPRMC,004716.9,A,3257.939206,N,11710.725190,W,58.2,237.3,250610,,,A*41
$GPRMC,004719.9,A,3257.911353,N,11710.770624,W,57.1,232.9,250610,,,A*4E
$GPRMC,004722.9,A,3257.879615,N,11710.814287,W,57.6,228.3,250610,,,A*48
$GPRMC,004725.9,A,3257.844532,N,11710.854627,W,57.2,223.2,250610,,,A*43
$GPRMC,004728.9,A,3257.807177,N,11710.892368,W,57.6,219.0,250610,,,A*47
$GPRMC,004731.9,A,3257.769551,N,11710.924315,W,55.7,214.6,250610,,,A*46
$GPRMC,004734.9,A,3257.727494,N,11710.954056,W,58.3,208.8,250610,,,A*48
$GPRMC,004737.9,A,3257.683434,N,11710.976905,W,57.0,204.6,250610,,,A*4F
$GPRMC,004740.9,A,3257.639455,N,11711.002345,W,57.8,205.7,250610,,,A*44
$GPRMC,004743.9,A,3257.594665,N,11711.026844,W,58.5,205.7,250610,,,A*4C
$GPRMC,004746.9,A,3257.551096,N,11711.052489,W,58.4,206.2,250610,,,A*43
$GPRMC,004749.9,A,3257.508542,N,11711.078658,W,57.1,206.9,250610,,,A*4B
$GPRMC,004752.9,A,3257.467193,N,11711.106797,W,57.9,211.7,250610,,,A*4B
$GPRMC,004755.9,A,3257.427936,N,11711.139347,W,57.9,215.3,250610,,,A*4A
$GPRMC,004758.9,A,3257.391865,N,11711.175408,W,57.2,220.3,250610,,,A*43
$GPRMC,004801.9,A,3257.355799,N,11711.212254,W,57.9,223.5,250610,,,A*47
$GPRMC,004804.9,A,3257.322041,N,11711.254168,W,57.6,228.2,250610,,,A*4D
$GPRMC,004807.9,A,3257.289682,N,11711.296453,W,58.4,230.3,250610,,,A*41
$GPRMC,004810.9,A,3257.261985,N,11711.345232,W,59.2,236.2,250610,,,A*47
$GPRMC,004813.9,A,3257.234223,N,11711.395736,W,59.9,239.5,250610,,,A*4C
$GPRMC,004816.9,A,3257.212889,N,11711.446559,W,57.8,243.7,250610,,,A*45
$GPRMC,004819.9,A,3257.196838,N,11711.497796,W,57.4,248.5,250610,,,A*47
$GPRMC,004822.9,A,3257.178706,N,11711.550341,W,56.9,248.3,250610,,,A*43
$GPRMC,004825.9,A,3257.159035,N,11711.604597,W,58.2,247.7,250610,,,A*41
$GPRMC,004828.9,A,3257.140938,N,11711.655680,W,56.4,247.6,250610,,,A*48
$GPRMC,004831.9,A,3257.125312,N,11711.709267,W,57.3,249.4,250610,,,A*4E
$GPRMC,004834.9,A,3257.105775,N,11711.764627,W,58.8,248.1,250610,,,A*47
$GPRMC,004837.9,A,3257.087860,N,11711.818247,W,58.8,248.5,250610,,,A*46
$GPRMC,004840.9,A,3257.068706,N,11711.873199,W,59.2,248.5,250610,,,A*4E
$GPRMC,004843.9,A,3257.055125,N,11711.925062,W,57.0,250.4,250610,,,A*47
$GPRMC,004846.9,A,3257.034326,N,11711.979514,W,59.8,247.3,250610,,,A*4E
$GPRMC,004849.9,A,3257.016387,N,11712.035281,W,59.7,247.8,250610,,,A*47
$GPRMC,004852.9,A,3256.999024,N,11712.086934,W,57.9,247.9,250610,,,A*44
$GPRMC,004855.9,A,3256.979018,N,11712.139798,W,58.1,244.8,250610,,,A*4A
$GPRMC,004858.9,A,3256.952894,N,11712.192286,W,59.1,239.8,250610,,,A*42
$GPRMC,004901.9,A,3256.927220,N,11712.241701,W,58.6,237.1,250610,,,A*4E
$GPRMC,004904.9,A,3256.896277,N,11712.292716,W,60.5,235.2,250610,,,A*43
$GPRMC,004907.9,A,3256.868735,N,11712.338547,W,57.4,234.5,250610,,,A*46
$GPRMC,004910.9,A,3256.844012,N,11712.380536,W,53.2,235.2,250610,,,A*4D
$GPRMC,004913.9,A,3256.818746,N,11712.425155,W,54.5,237.1,250610,,,A*49
$GPRMC,004916.9,A,3256.795132,N,11712.474859,W,58.9,242.4,250610,,,A*45
$GPRMC,004919.9,A,3256.778431,N,11712.526146,W,60.1,245.9,250610,,,A*47
$GPRMC,004922.9,A,3256.755411,N,11712.584913,W,62.7,246.7,250610,,,A*4B
$GPRMC,004925.9,A,3256.734293,N,11712.642220,W,62.7,246.8,250610,,,A*4A
$GPRMC,004928.9,A,3256.715401,N,11712.698221,W,62.8,246.0,250610,,,A*48
$GPRMC,004931.9,A,3256.697888,N,11712.749696,W,58.4,246.4,250610,,,A*42
$GPRMC,004934.2,A,3256.680454,N,11712.789694,W,57.9,238.8,250610,,,A*4E
$GPRMC,004937.2,A,3256.652638,N,11712.837603,W,61.0,229.9,250610,,,A*43
$GPRMC,004940.2,A,3256.619247,N,11712.882638,W,61.2,228.1,250610,,,A*4D
$GPRMC,004943.2,A,3256.585595,N,11712.926792,W,59.9,227.4,250610,,,A*44
$GPRMC,004946.0,A,3256.554595,N,11712.966735,W,59.8,229.0,250610,,,A*4D
$GPRMC,004949.9,A,3256.517271,N,11713.033732,W,63.0,240.0,250610,,,A*40
$GPRMC,004952.9,A,3256.496809,N,11713.091174,W,62.6,247.8,250610,,,A*43
$GPRMC,004955.9,A,3256.477281,N,11713.147752,W,61.5,248.3,250610,,,A*4D
$GPRMC,004958.9,A,3256.459908,N,11713.203200,W,61.2,249.1,250610,,,A*43
$GPRMC,005001.9,A,3256.439254,N,11713.258998,W,60.1,243.8,250610,,,A*46
$GPRMC,005004.9,A,3256.412445,N,11713.309412,W,58.7,236.8,250610,,,A*49
$GPRMC,005007.9,A,3256.381397,N,11713.357884,W,60.7,234.6,250610,,,A*40
$GPRMC,005010.9,A,3256.351911,N,11713.407694,W,60.0,236.1,250610,,,A*40
$GPRMC,005013.9,A,3256.324831,N,11713.458501,W,60.8,240.6,250610,,,A*49
$GPRMC,005016.9,A,3256.307861,N,11713.511575,W,60.8,248.9,250610,,,A*40
$GPRMC,005019.9,A,3256.294618,N,11713.569968,W,61.0,253.6,250610,,,A*47
$GPRMC,005022.9,A,3256.286142,N,11713.623254,W,57.8,254.8,250610,,,A*49
$GPRMC,005025.9,A,3256.266697,N,11713.680046,W,58.4,249.2,250610,,,A*42
$GPRMC,005028.9,A,3256.251315,N,11713.730009,W,53.9,247.8,250610,,,A*47
$GPRMC,005031.2,A,3256.237359,N,11713.766316,W,52.3,245.4,250610,,,A*47
$GPRMC,005034.9,A,3256.214374,N,11713.828073,W,55.8,245.5,250610,,,A*4F
$GPRMC,005037.9,A,3256.193332,N,11713.878736,W,55.8,244.6,250610,,,A*43
$GPRMC,005040.9,A,3256.175670,N,11713.931227,W,56.2,246.5,250610,,,A*49
$GPRMC,005043.9,A,3256.158144,N,11713.978782,W,53.7,246.0,250610,,,A*47
$GPRMC,005046.9,A,3256.141846,N,11714.026690,W,51.5,249.4,250610,,,A*4D
$GPRMC,005049.9,A,3256.132372,N,11714.070650,W,46.5,253.4,250610,,,A*48
$GPRMC,005052.9,A,3256.122671,N,11714.112007,W,42.5,256.1,250610,,,A*40
$GPRMC,005055.9,A,3256.113223,N,11714.147798,W,34.4,253.0,250610,,,A*43
$GPRMC,005058.9,A,3256.109684,N,11714.166214,W,17.2,250.9,250610,,,A*43
$GPRMC,005101.9,A,3256.107259,N,11714.173426,W,4.5,232.4,250610,,,A*7B
$GPRMC,005119.9,A,3256.106698,N,11714.175702,W,8.4,258.6,250610,,,A*7A
$GPRMC,005122.9,A,3256.100805,N,11714.194744,W,22.4,250.9,250610,,,A*4C
$GPRMC,005125.9,A,3256.096542,N,11714.216517,W,18.6,259.9,250610,,,A*44
$GPRMC,005128.9,A,3256.099675,N,11714.230812,W,16.7,304.9,250610,,,A*4B
$GPRMC,005131.9,A,3256.119820,N,11714.240997,W,28.2,329.3,250610,,,A*42
$GPRMC,005134.9,A,3256.143944,N,11714.253310,W,30.2,329.5,250610,,,A*43
$GPRMC,005137.9,A,3256.157061,N,11714.265952,W,15.9,325.5,250610,,,A*42
$GPRMC,005231.9,A,3256.170140,N,11714.278542,W,8.7,325.8,250610,,,A*7E
$GPRMC,005234.9,A,3256.181526,N,11714.296082,W,15.6,318.5,250610,,,A*46
$GPRMC,005237.9,A,3256.198032,N,11714.321386,W,30.0,310.4,250610,,,A*4F
$GPRMC,005240.9,A,3256.219316,N,11714.349061,W,33.4,315.9,250610,,,A*4B
$GPRMC,005243.9,A,3256.244573,N,11714.368459,W,35.9,327.8,250610,,,A*42
$GPRMC,005246.9,A,3256.275679,N,11714.382927,W,37.3,339.4,250610,,,A*47
$GPRMC,005250.2,A,3256.308181,N,11714.390094,W,34.3,351.5,250610,,,A*4E
$GPRMC,005253.9,A,3256.343643,N,11714.395158,W,37.3,351.9,250610,,,A*4B
$GPRMC,005256.9,A,3256.375907,N,11714.397296,W,36.9,354.5,250610,,,A*45
$GPRMC,005259.9,A,3256.403554,N,11714.402751,W,32.1,352.2,250610,,,A*4E
$GPRMC,005302.9,A,3256.424100,N,11714.405905,W,25.2,353.9,250610,,,A*46
$GPRMC,005305.9,A,3256.437483,N,11714.409095,W,20.3,350.3,250610,,,A*4C
$GPRMC,005308.9,A,3256.460247,N,11714.411042,W,26.2,357.1,250610,,,A*4C
$GPRMC,005311.9,A,3256.487988,N,11714.409237,W,32.9,1.9,250610,,,A*4A
$GPRMC,005314.9,A,3256.521345,N,11714.406547,W,39.0,5.4,250610,,,A*4D
$GPRMC,005317.9,A,3256.552423,N,11714.401165,W,39.5,10.5,250610,,,A*7E
$GPRMC,005320.9,A,3256.582615,N,11714.391805,W,38.7,17.6,250610,,,A*76
$GPRMC,005323.9,A,3256.614139,N,11714.374404,W,41.3,25.2,250610,,,A*79
$GPRMC,005326.9,A,3256.647365,N,11714.357068,W,43.4,25.3,250610,,,A*7A
$GPRMC,005329.9,A,3256.682669,N,11714.338589,W,44.6,25.1,250610,,,A*71
$GPRMC,005332.9,A,3256.715462,N,11714.317305,W,45.6,26.4,250610,,,A*75
$GPRMC,005335.9,A,3256.751388,N,11714.299748,W,46.9,24.7,250610,,,A*76
$GPRMC,005338.9,A,3256.784202,N,11714.281450,W,43.4,24.9,250610,,,A*75
$GPRMC,005341.9,A,3256.817733,N,11714.261492,W,43.3,26.8,250610,,,A*7D
$GPRMC,005344.9,A,3256.846593,N,11714.241621,W,42.1,31.3,250610,,,A*72
$GPRMC,005347.9,A,3256.873630,N,11714.220279,W,41.0,33.1,250610,,,A*71
$GPRMC,005350.9,A,3256.902478,N,11714.199309,W,40.7,30.9,250610,,,A*74
$GPRMC,005353.9,A,3256.934972,N,11714.179657,W,42.3,27.4,250610,,,A*78
$GPRMC,005356.9,A,3256.964129,N,11714.159920,W,40.4,28.2,250610,,,A*7F
$GPRMC,005359.9,A,3256.994930,N,11714.141149,W,41.4,30.2,250610,,,A*79
$GPRMC,005402.9,A,3257.021745,N,11714.116987,W,39.8,38.5,250610,,,A*7E
$GPRMC,005405.2,A,3257.039450,N,11714.099614,W,34.3,37.0,250610,,,A*73
$GPRMC,005408.9,A,3257.056861,N,11714.084555,W,18.7,29.4,250610,,,A*79
$GPRMC,005411.9,A,3257.063395,N,11714.078434,W,13.6,37.3,250610,,,A*70
$GPRMC,005414.9,A,3257.074061,N,11714.070249,W,15.1,36.3,250610,,,A*7F
$GPRMC,005417.9,A,3257.083734,N,11714.063056,W,11.2,26.8,250610,,,A*70
$GPRMC,005420.9,A,3257.087365,N,11714.060370,W,7.2,31.6,250610,,,A*4B
$GPRMC,005423.9,A,3257.097641,N,11714.050846,W,15.4,36.2,250610,,,A*71
$GPRMC,005426.9,A,3257.112748,N,11714.042862,W,17.7,22.8,250610,,,A*7B
$GPRMC,005429.9,A,3257.126024,N,11714.038499,W,14.4,14.6,250610,,,A*70
$GPRMC,005432.9,A,3257.134427,N,11714.037151,W,10.5,10.0,250610,,,A*77
$GPRMC,005435.9,A,3257.141613,N,11714.034684,W,10.1,16.9,250610,,,A*70
$GPRMC,005438.9,A,3257.157705,N,11714.029518,W,21.1,7.1,250610,,,A*4C
$GPRMC,005441.9,A,3257.178164,N,11714.032731,W,24.9,352.1,250610,,,A*43
$GPRMC,005444.9,A,3257.196679,N,11714.036626,W,22.1,351.5,250610,,,A*47
$GPRMC,005447.9,A,3257.209143,N,11714.037519,W,13.9,354.5,250610,,,A*4E
$GPRMC,005450.9,A,3257.213915,N,11714.040669,W,4.9,354.1,250610,,,A*7E
$GPRMC,005626.9,A,3257.224314,N,11714.056884,W,10.2,286.8,250610,,,A*41
$GPRMC,005629.9,A,3257.221314,N,11714.071957,W,17.8,252.8,250610,,,A*45
$GPRMC,005632.9,A,3257.213483,N,11714.094740,W,24.8,249.6,250610,,,A*40
$GPRMC,005635.9,A,3257.198305,N,11714.131455,W,39.3,246.2,250610,,,A*4B
$GPRMC,005638.9,A,3257.182248,N,11714.168777,W,42.1,244.3,250610,,,A*47
$GPRMC,005641.9,A,3257.166347,N,11714.210258,W,43.5,245.7,250610,,,A*49
$GPRMC,005644.9,A,3257.150506,N,11714.247939,W,42.4,245.0,250610,,,A*43
$GPRMC,005647.9,A,3257.136937,N,11714.286013,W,43.7,244.9,250610,,,A*48
$GPRMC,005650.9,A,3257.122782,N,11714.323446,W,39.1,243.5,250610,,,A*41
$GPRMC,005653.9,A,3257.113835,N,11714.346905,W,23.3,236.9,250610,,,A*4D
$GPRMC,005656.9,A,3257.110124,N,11714.354576,W,6.0,222.7,250610,,,A*76
$GPRMC,005753.9,A,3257.105735,N,11714.374468,W,15.9,257.8,250610,,,A*4A
$GPRMC,005756.9,A,3257.093725,N,11714.406981,W,28.1,247.1,250610,,,A*46
$GPRMC,005759.9,A,3257.078472,N,11714.438843,W,29.7,244.1,250610,,,A*4B
$GPRMC,005802.9,A,3257.066644,N,11714.466989,W,29.6,244.9,250610,,,A*47
$GPRMC,005805.9,A,3257.054851,N,11714.495665,W,29.8,244.0,250610,,,A*4D
$GPRMC,005808.9,A,3257.045643,N,11714.519128,W,26.4,243.7,250610,,,A*45
$GPRMC,005811.9,A,3257.039608,N,11714.536832,W,19.7,243.1,250610,,,A*4F
$GPRMC,005814.9,A,3257.034907,N,11714.548569,W,12.6,243.2,250610,,,A*44
$GPRMC,005817.9,A,3257.032059,N,11714.555886,W,7.2,239.0,250610,,,A*7C
$GPRMC,005839.2,A,3257.030198,N,11714.567640,W,7.5,268.0,250610,,,A*73
$GPRMC,005842.9,A,3257.015369,N,11714.599273,W,24.2,242.6,250610,,,A*42
$GPRMC,005845.9,A,3257.003678,N,11714.627024,W,27.3,244.2,250610,,,A*41
$GPRMC,005848.9,A,3256.992232,N,11714.651235,W,25.2,242.9,250610,,,A*4B
$GPRMC,005851.9,A,3256.982756,N,11714.672699,W,22.8,241.9,250610,,,A*48
$GPRMC,005854.9,A,3256.975938,N,11714.688560,W,18.7,242.9,250610,,,A*46
$GPRMC,005857.9,A,3256.970717,N,11714.699976,W,12.0,236.0,250610,,,A*4F
$GPRMC,005900.9,A,3256.970503,N,11714.705776,W,6.0,239.8,250610,,,A*73
$GPRMC,005903.9,A,3256.967168,N,11714.713755,W,10.9,246.5,250610,,,A*42
$GPRMC,005906.9,A,3256.963853,N,11714.722153,W,8.5,245.1,250610,,,A*72
$GPRMC,005927.9,A,3256.955373,N,11714.736204,W,5.7,255.8,250610,,,A*7E
$GPRMC,005930.9,A,3256.953714,N,11714.745706,W,10.2,257.6,250610,,,A*45
$GPRMC,005933.9,A,3256.949526,N,11714.761552,W,16.0,251.8,250610,,,A*47
$GPRMC,005936.9,A,3256.943585,N,11714.774372,W,14.1,244.0,250610,,,A*4E
$GPRMC,005939.9,A,3256.937350,N,11714.786369,W,13.5,243.1,250610,,,A*4E
$GPRMC,005942.9,A,3256.932052,N,11714.796029,W,10.4,229.6,250610,,,A*49
$GPRMC,005945.9,A,3256.934393,N,11714.799518,W,6.3,256.1,250610,,,A*71
$GPRMC,005948.9,A,3256.932860,N,11714.812714,W,16.1,263.2,250610,,,A*49
$GPRMC,005951.9,A,3256.929078,N,11714.836421,W,28.1,265.3,250610,,,A*43
$GPRMC,005954.9,A,3256.927189,N,11714.869947,W,34.6,268.8,250610,,,A*4C
$GPRMC,005957.9,A,3256.925157,N,11714.906786,W,37.0,269.0,250610,,,A*49
$GPRMC,010000.9,A,3256.928429,N,11714.944767,W,36.2,270.9,250610,,,A*4C
$GPRMC,010003.9,A,3256.928652,N,11714.979569,W,35.6,270.2,250610,,,A*4F
$GPRMC,010006.9,A,3256.927192,N,11715.014796,W,35.3,266.2,250610,,,A*4D
$GPRMC,010009.9,A,3256.928182,N,11715.048708,W,35.7,271.0,250610,,,A*42
$GPRMC,010012.9,A,3256.928608,N,11715.086438,W,37.2,270.3,250610,,,A*4A
$GPRMC,010015.9,A,3256.929933,N,11715.121272,W,36.4,271.0,250610,,,A*4A
$GPRMC,010018.9,A,3256.931103,N,11715.156108,W,36.5,272.4,250610,,,A*4D
$GPRMC,010021.9,A,3256.936578,N,11715.191981,W,38.1,280.1,250610,,,A*48
$GPRMC,010024.9,A,3256.943595,N,11715.231070,W,37.8,285.0,250610,,,A*40
$GPRMC,010027.9,A,3256.953235,N,11715.255611,W,24.4,288.6,250610,,,A*49
$GPRMC,010030.9,A,3256.956481,N,11715.272201,W,15.9,284.1,250610,,,A*47
$GPRMC,010033.9,A,3256.959627,N,11715.282407,W,10.0,289.3,250610,,,A*49
$GPRMC,010036.9,A,3256.961972,N,11715.288488,W,4.8,283.3,250610,,,A*72
$GPRMC,010042.9,A,3256.964580,N,11715.293039,W,8.5,291.7,250610,,,A*77
$GPRMC,010045.9,A,3256.969367,N,11715.309719,W,18.5,290.3,250610,,,A*41
$GPRMC,010048.9,A,3256.972874,N,11715.332091,W,22.2,282.0,250610,,,A*4E
$GPRMC,010051.9,A,3256.974514,N,11715.356520,W,23.8,273.8,250610,,,A*4B
$GPRMC,010054.9,A,3256.972943,N,11715.383173,W,26.7,263.6,250610,,,A*49
$GPRMC,010057.9,A,3256.965793,N,11715.410348,W,28.5,252.0,250610,,,A*40
$GPRMC,010100.9,A,3256.957940,N,11715.439638,W,29.9,250.6,250610,,,A*42
$GPRMC,010103.9,A,3256.948199,N,11715.471156,W,33.3,250.6,250610,,,A*41
$GPRMC,010106.9,A,3256.933214,N,11715.505762,W,36.8,246.6,250610,,,A*44
$GPRMC,010109.9,A,3256.926474,N,11715.532703,W,31.5,250.4,250610,,,A*43
$GPRMC,010112.9,A,3256.916813,N,11715.562454,W,30.8,248.4,250610,,,A*46
$GPRMC,010115.9,A,3256.912649,N,11715.585146,W,25.3,251.7,250610,,,A*4F
$GPRMC,010118.9,A,3256.905579,N,11715.606452,W,22.8,249.4,250610,,,A*4A
$GPRMC,010121.9,A,3256.900163,N,11715.627591,W,22.5,250.6,250610,,,A*40
$GPRMC,010124.9,A,3256.897946,N,11715.645559,W,18.8,256.2,250610,,,A*43
$GPRMC,010127.9,A,3256.897488,N,11715.659269,W,12.9,281.5,250610,,,A*40
$GPRMC,010130.9,A,3256.909540,N,11715.666100,W,18.7,334.0,250610,,,A*4B
$GPRMC,010133.9,A,3256.931389,N,11715.672744,W,27.9,338.5,250610,,,A*48
$GPRMC,010136.9,A,3256.958284,N,11715.680467,W,31.5,344.0,250610,,,A*44
$GPRMC,010139.9,A,3256.984652,N,11715.691672,W,31.3,343.0,250610,,,A*42
$GPRMC,010142.9,A,3257.012189,N,11715.703639,W,33.4,341.2,250610,,,A*48
$GPRMC,010145.9,A,3257.039112,N,11715.714408,W,35.2,338.1,250610,,,A*4F
$GPRMC,010148.9,A,3257.065406,N,11715.724778,W,33.3,339.2,250610,,,A*49
$GPRMC,010151.9,A,3257.091641,N,11715.735911,W,32.7,341.5,250610,,,A*47
$GPRMC,010154.9,A,3257.115936,N,11715.745352,W,30.4,341.3,250610,,,A*4D
$GPRMC,010157.9,A,3257.138515,N,11715.753262,W,27.1,343.0,250610,,,A*4B
$GPRMC,010200.9,A,3257.156555,N,11715.756874,W,23.0,345.9,250610,,,A*44
$GPRMC,010203.2,A,3257.169737,N,11715.762649,W,20.3,344.7,250610,,,A*4E
$GPRMC,010206.2,A,3257.179721,N,11715.767881,W,6.9,342.1,250610,,,A*7C
$GPRMC,010233.9,A,3257.190997,N,11715.770431,W,5.7,347.2,250610,,,A*7F
$GPRMC,010236.9,A,3257.198190,N,11715.774814,W,11.1,340.2,250610,,,A*46
$GPRMC,010239.9,A,3257.208691,N,11715.776870,W,11.9,347.8,250610,,,A*40
$GPRMC,010242.9,A,3257.216851,N,11715.780697,W,9.5,342.8,250610,,,A*7F
$GPRMC,010245.9,A,3257.220773,N,11715.785425,W,5.5,334.4,250610,,,A*7D
$GPRMC,010248.9,A,3257.225589,N,11715.786464,W,5.1,346.2,250610,,,A*73
$GPRMC,010251.9,A,3257.232765,N,11715.785382,W,7.8,359.5,250610,,,A*73
$GPRMC,010254.9,A,3257.236979,N,11715.788273,W,5.6,336.3,250610,,,A*70
$GPRMC,010306.9,A,3257.247228,N,11715.795067,W,5.4,336.7,250610,,,A*72
$GPRMC,010309.9,A,3257.254234,N,11715.796702,W,7.4,343.6,250610,,,A*74
$GPRMC,010312.9,A,3257.259462,N,11715.797706,W,6.1,347.5,250610,,,A*70
$GPRMC,010315.9,A,3257.263554,N,11715.801389,W,5.7,339.9,250610,,,A*79
$GPRMC,010318.9,A,3257.268289,N,11715.801645,W,5.9,351.0,250610,,,A*74
$GPRMC,010321.9,A,3257.272765,N,11715.803119,W,5.6,348.5,250610,,,A*7C
$GPRMC,010324.9,A,3257.278068,N,11715.803845,W,5.9,351.6,250610,,,A*7D
$GPRMC,010327.9,A,3257.282503,N,11715.806369,W,5.8,344.4,250610,,,A*74
$GPRMC,010330.9,A,3257.285975,N,11715.807838,W,5.0,342.3,250610,,,A*7F
$GPRMC,010333.9,A,3257.289150,N,11715.808406,W,4.4,345.2,250610,,,A*72
$GPRMC,010336.9,A,3257.295067,N,11715.807343,W,5.8,2.3,250610,,,A*7A
$GPRMC,010339.9,A,3257.299633,N,11715.810264,W,6.0,342.1,250610,,,A*72
$GPRMC,010342.9,A,3257.304748,N,11715.811337,W,6.2,347.4,250610,,,A*72
$GPRMC,010345.9,A,3257.308457,N,11715.814238,W,5.4,338.9,250610,,,A*7F
$GPRMC,010409.9,A,3257.334465,N,11715.825289,W,10.9,335.4,250610,,,A*4F
$GPRMC,010412.9,A,3257.350344,N,11715.829800,W,20.8,343.8,250610,,,A*4B
$GPRMC,010415.9,A,3257.368125,N,11715.840500,W,22.8,336.7,250610,,,A*4F
$GPRMC,010418.9,A,3257.386385,N,11715.847857,W,22.0,340.8,250610,,,A*44
$GPRMC,010421.9,A,3257.404754,N,11715.854140,W,21.1,343.2,250610,,,A*4D
$GPRMC,010424.9,A,3257.415812,N,11715.858967,W,14.7,342.5,250610,,,A*42
$GPRMC,010427.9,A,3257.426196,N,11715.860887,W,10.8,349.1,250610,,,A*44
$GPRMC,010430.9,A,3257.434196,N,11715.863105,W,9.6,344.7,250610,,,A*7C
$GPRMC,010451.9,A,3257.453646,N,11715.872804,W,5.8,339.7,250610,,,A*70
$GPRMC,010454.9,A,3257.465611,N,11715.877820,W,13.8,337.3,250610,,,A*4C
$GPRMC,010457.9,A,3257.482591,N,11715.884194,W,19.9,340.6,250610,,,A*49
$GPRMC,010500.9,A,3257.500263,N,11715.891306,W,18.3,342.1,250610,,,A*48
$GPRMC,010503.9,A,3257.509482,N,11715.891366,W,11.0,353.8,250610,,,A*4E
$GPRMC,010506.9,A,3257.517821,N,11715.896003,W,13.0,342.7,250610,,,A*4B
$GPRMC,010509.9,A,3257.530201,N,11715.900094,W,15.5,344.3,250610,,,A*48
$GPRMC,010512.9,A,3257.541372,N,11715.904930,W,13.7,345.6,250610,,,A*42
$GPRMC,010515.9,A,3257.548576,N,11715.908189,W,7.0,344.6,250610,,,A*7B
$GPRMC,010742.9,A,3257.567178,N,11715.913273,W,6.9,341.3,250610,,,A*78
$GPRMC,010745.9,A,3257.575137,N,11715.919615,W,9.1,320.7,250610,,,A*7D
$GPRMC,010748.9,A,3257.578658,N,11715.927763,W,7.9,299.0,250610,,,A*7C
$GPRMC,010751.9,A,3257.578939,N,11715.934234,W,5.8,278.4,250610,,,A*71
$GPRMC,010754.9,A,3257.576035,N,11715.943531,W,7.1,259.2,250610,,,A*73
$GPRMC,010757.9,A,3257.573001,N,11715.950503,W,7.2,249.7,250610,,,A*76
$GPRMC,010800.9,A,3257.570989,N,11715.956725,W,6.1,253.5,250610,,,A*7A
$GPRMC,010803.9,A,3257.569081,N,11715.962476,W,5.7,251.6,250610,,,A*76
$GPRMC,010806.9,A,3257.566683,N,11715.968925,W,7.0,252.7,250610,,,A*7E
$GPRMC,010809.9,A,3257.565833,N,11715.977490,W,10.4,261.5,250610,,,A*4A
$GPRMC,010812.9,A,3257.561999,N,11715.990217,W,12.4,258.0,250610,,,A*48
$GPRMC,010815.9,A,3257.559273,N,11716.004229,W,12.7,254.2,250610,,,A*4C
$GPRMC,010818.9,A,3257.550736,N,11716.012097,W,10.1,226.3,250610,,,A*4C
$GPRMC,010821.9,A,3257.550008,N,11716.016410,W,5.0,239.9,250610,,,A*72
$GPRMC,010827.2,A,3257.553714,N,11716.022458,W,5.2,281.1,250610,,,A*74
$GPRMC,010830.9,A,3257.556807,N,11716.030200,W,8.5,293.6,250610,,,A*77
$GPRMC,010833.9,A,3257.561068,N,11716.034255,W,8.2,319.1,250610,,,A*76
$GPRMC,010836.9,A,3257.572383,N,11716.035555,W,12.9,341.9,250610,,,A*44
$GPRMC,010839.9,A,3257.586321,N,11716.040437,W,16.2,344.1,250610,,,A*4D
$GPRMC,010842.9,A,3257.597067,N,11716.045498,W,14.9,345.9,250610,,,A*40
$GPRMC,010845.9,A,3257.613454,N,11716.050440,W,17.0,347.9,250610,,,A*45
$GPRMC,010848.9,A,3257.626961,N,11716.050579,W,16.8,355.0,250610,,,A*4D
$GPRMC,010851.9,A,3257.638493,N,11716.053253,W,13.8,353.0,250610,,,A*45
$GPRMC,010854.9,A,3257.648988,N,11716.054057,W,12.2,1.1,250610,,,A*4F
$GPRMC,010857.9,A,3257.659566,N,11716.053356,W,10.8,7.3,250610,,,A*49
$GPRMC,010900.9,A,3257.662315,N,11716.051779,W,4.5,359.7,250610,,,A*7F
$GPRMC,010903.9,A,3257.664159,N,11716.054206,W,8.7,333.9,250610,,,A*74
$GPRMC,010906.9,A,3257.675820,N,11716.056614,W,15.7,353.1,250610,,,A*41
$GPRMC,010909.9,A,3257.693360,N,11716.056763,W,18.7,7.6,250610,,,A*40
$GPRMC,010912.9,A,3257.701771,N,11716.054432,W,7.6,12.9,250610,,,A*45
$GPRMC,010930.9,A,3257.714812,N,11716.047196,W,7.9,33.4,250610,,,A*43
$GPRMC,010933.9,A,3257.724248,N,11716.044471,W,10.4,25.1,250610,,,A*70
$GPRMC,010936.9,A,3257.733323,N,11716.037988,W,11.2,28.1,250610,,,A*7A
$GPRMC,010939.9,A,3257.742381,N,11716.036945,W,10.7,15.2,250610,,,A*72
$GPRMC,010942.9,A,3257.752085,N,11716.031840,W,13.7,12.3,250610,,,A*7E
$GPRMC,010945.9,A,3257.765682,N,11716.029994,W,14.3,3.5,250610,,,A*48
$GPRMC,010948.9,A,3257.769412,N,11716.040526,W,9.6,300.2,250610,,,A*76
$GPRMC,010951.9,A,3257.768485,N,11716.048009,W,7.5,278.5,250610,,,A*75
$GPRMC,011018.9,A,3257.765149,N,11716.035731,W,5.3,139.2,250610,,,A*7B
$GPRMC,011021.9,A,3257.757520,N,11716.032818,W,7.9,165.5,250610,,,A*7E
$GPRMC,011024.9,A,3257.746025,N,11716.034738,W,12.8,186.3,250610,,,A*4E
$GPRMC,011027.9,A,3257.732765,N,11716.041283,W,17.5,201.4,250610,,,A*49
