NMEA Sentence Code,UTC Time,Status,Latitude,Latitude Direction,Longitude,Longitude Direction,Speed (knots),Track Angle (degrees true),Date,MagneticVariation,Magnetic Variation Direction,[FAA Mode]-Optional,Checksum
$GPRMC,165305.18,A,3314.0388,N,11719.4628,W,37.851,202.847,231010,0,W,A*15
$GPRMC,165308.18,A,3314.0100,N,11719.4777,W,37.929,203.401,231010,0,W,A*10
$GPRMC,165311.18,A,3313.9812,N,11719.4930,W,38.458,203.751,231010,0,W,A*13
$GPRMC,165314.18,A,3313.9519,N,11719.5081,W,39.297,202.796,231010,0,W,A*1C
$GPRMC,165317.18,A,3313.9232,N,11719.5224,W,34.086,202.348,231010,0,W,A*14
$GPRMC,165320.18,A,3313.9004,N,11719.5342,W,23.079,203.591,231010,0,W,A*13
$GPRMC,165323.18,A,3313.8877,N,11719.5404,W,9.532,203.552,231010,0,W,A*25
$GPRMC,165405.18,A,3313.8840,N,11719.5426,W,5.701,203.914,231010,0,W,A*22
$GPRMC,165408.18,A,3313.8766,N,11719.5449,W,13.103,204.640,231010,0,W,A*17
$GPRMC,165411.18,A,3313.8629,N,11719.5519,W,21.338,203.502,231010,0,W,A*18
$GPRMC,165414.18,A,3313.8438,N,11719.5618,W,25.933,200.820,231010,0,W,A*16
$GPRMC,165417.18,A,3313.8207,N,11719.5700,W,30.118,191.839,231010,0,W,A*11
$GPRMC,165420.18,A,3313.7950,N,11719.5719,W,30.518,183.071,231010,0,W,A*18
$GPRMC,165423.18,A,3313.7704,N,11719.5714,W,29.495,178.391,231010,0,W,A*1C
$GPRMC,165426.18,A,3313.7475,N,11719.5717,W,26.058,179.472,231010,0,W,A*1E
$GPRMC,165429.18,A,3313.7282,N,11719.5725,W,22.036,179.413,231010,0,W,A*15
$GPRMC,165432.18,A,3313.7149,N,11719.5741,W,13.484,178.107,231010,0,W,A*17
$GPRMC,165435.18,A,3313.7063,N,11719.5736,W,11.482,179.996,231010,0,W,A*1C
$GPRMC,165438.18,A,3313.6956,N,11719.5741,W,16.346,178.958,231010,0,W,A*14
$GPRMC,165441.18,A,3313.6819,N,11719.5748,W,17.915,179.842,231010,0,W,A*1F
$GPRMC,165444.18,A,3313.6656,N,11719.5751,W,20.928,180.653,231010,0,W,A*15
$GPRMC,165447.18,A,3313.6468,N,11719.5747,W,22.669,179.363,231010,0,W,A*16
$GPRMC,165450.18,A,3313.6285,N,11719.5743,W,21.751,178.633,231010,0,W,A*19
$GPRMC,165453.18,A,3313.6103,N,11719.5740,W,21.340,178.914,231010,0,W,A*1A
$GPRMC,165456.18,A,3313.5913,N,11719.5731,W,22.105,179.355,231010,0,W,A*1D
$GPRMC,165459.18,A,3313.5731,N,11719.5726,W,19.990,178.015,231010,0,W,A*10
$GPRMC,165502.18,A,3313.5554,N,11719.5707,W,17.864,172.111,231010,0,W,A*16
$GPRMC,165505.18,A,3313.5433,N,11719.5724,W,14.569,223.387,231010,0,W,A*19
$GPRMC,165508.18,A,3313.5367,N,11719.5904,W,24.003,250.475,231010,0,W,A*1A
$GPRMC,165511.18,A,3313.5288,N,11719.6185,W,32.185,250.842,231010,0,W,A*10
$GPRMC,165514.18,A,3313.5191,N,11719.6508,W,34.336,250.723,231010,0,W,A*1B
$GPRMC,165517.18,A,3313.5088,N,11719.6860,W,37.604,248.079,231010,0,W,A*14
$GPRMC,165520.18,A,3313.4956,N,11719.7209,W,40.261,245.797,231010,0,W,A*12
$GPRMC,165523.18,A,3313.4817,N,11719.7582,W,41.832,245.402,231010,0,W,A*13
$GPRMC,165526.18,A,3313.4660,N,11719.7982,W,43.184,243.525,231010,0,W,A*10
$GPRMC,165529.18,A,3313.4493,N,11719.8383,W,44.417,241.422,231010,0,W,A*19
$GPRMC,165532.18,A,3313.4306,N,11719.8780,W,45.131,238.381,231010,0,W,A*1F
$GPRMC,165535.18,A,3313.4109,N,11719.9173,W,45.325,237.110,231010,0,W,A*1C
$GPRMC,165538.18,A,3313.3895,N,11719.9560,W,46.534,235.597,231010,0,W,A*10
$GPRMC,165541.18,A,3313.3662,N,11719.9963,W,50.098,235.686,231010,0,W,A*10
$GPRMC,165544.18,A,3313.3414,N,11720.0395,W,52.853,235.364,231010,0,W,A*12
$GPRMC,165547.18,A,3313.3155,N,11720.0840,W,54.380,235.776,231010,0,W,A*16
$GPRMC,165550.18,A,3313.2912,N,11720.1307,W,55.669,239.658,231010,0,W,A*11
$GPRMC,165553.18,A,3313.2691,N,11720.1780,W,55.917,242.425,231010,0,W,A*1F
$GPRMC,165556.18,A,3313.2485,N,11720.2272,W,54.968,245.817,231010,0,W,A*15
$GPRMC,165559.18,A,3313.2299,N,11720.2768,W,53.826,247.920,231010,0,W,A*14
$GPRMC,165602.18,A,3313.2126,N,11720.3256,W,52.867,248.372,231010,0,W,A*11
$GPRMC,165605.18,A,3313.1968,N,11720.3741,W,51.054,248.472,231010,0,W,A*18
$GPRMC,165608.18,A,3313.1809,N,11720.4212,W,49.865,247.505,231010,0,W,A*1A
$GPRMC,165611.18,A,3313.1645,N,11720.4676,W,48.427,246.877,231010,0,W,A*10
$GPRMC,165614.18,A,3313.1496,N,11720.5113,W,44.327,247.548,231010,0,W,A*17
$GPRMC,165617.18,A,3313.1377,N,11720.5492,W,35.747,248.149,231010,0,W,A*1E
$GPRMC,165620.18,A,3313.1280,N,11720.5794,W,27.775,248.130,231010,0,W,A*1A
$GPRMC,165623.18,A,3313.1216,N,11720.6008,W,19.875,248.675,231010,0,W,A*13
$GPRMC,165626.18,A,3313.1171,N,11720.6159,W,14.487,248.401,231010,0,W,A*1C
$GPRMC,165629.18,A,3313.1147,N,11720.6253,W,6.598,248.678,231010,0,W,A*2F
$GPRMC,165702.18,A,3313.1138,N,11720.6285,W,7.554,249.964,231010,0,W,A*26
$GPRMC,165705.18,A,3313.1104,N,11720.6393,W,17.182,248.146,231010,0,W,A*1F
$GPRMC,165708.18,A,3313.1037,N,11720.6588,W,24.528,250.202,231010,0,W,A*11
$GPRMC,165711.18,A,3313.0961,N,11720.6869,W,32.761,251.019,231010,0,W,A*11
$GPRMC,165714.18,A,3313.0867,N,11720.7210,W,38.349,251.328,231010,0,W,A*13
$GPRMC,165717.18,A,3313.0759,N,11720.7609,W,44.540,251.218,231010,0,W,A*18
$GPRMC,165720.18,A,3313.0647,N,11720.8037,W,46.673,251.876,231010,0,W,A*15
$GPRMC,165723.18,A,3313.0523,N,11720.8485,W,46.628,252.116,231010,0,W,A*18
$GPRMC,165726.18,A,3313.0406,N,11720.8921,W,46.411,251.843,231010,0,W,A*1A
$GPRMC,165729.18,A,3313.0289,N,11720.9352,W,43.694,251.993,231010,0,W,A*1D
$GPRMC,165732.18,A,3313.0181,N,11720.9751,W,41.469,252.713,231010,0,W,A*1C
$GPRMC,165735.18,A,3313.0076,N,11721.0149,W,40.553,252.205,231010,0,W,A*1E
$GPRMC,165738.18,A,3312.9975,N,11721.0535,W,40.946,252.339,231010,0,W,A*18
$GPRMC,165741.18,A,3312.9865,N,11721.0916,W,41.448,252.046,231010,0,W,A*12
$GPRMC,165744.18,A,3312.9752,N,11721.1317,W,42.371,251.336,231010,0,W,A*1F
$GPRMC,165747.18,A,3312.9639,N,11721.1729,W,43.286,252.365,231010,0,W,A*14
$GPRMC,165750.18,A,3312.9524,N,11721.2139,W,42.662,252.742,231010,0,W,A*17
$GPRMC,165753.18,A,3312.9418,N,11721.2531,W,42.961,251.418,231010,0,W,A*15
$GPRMC,165756.18,A,3312.9296,N,11721.2957,W,43.887,251.927,231010,0,W,A*15
$GPRMC,165759.18,A,3312.9183,N,11721.3360,W,44.222,252.144,231010,0,W,A*1E
$GPRMC,165802.18,A,3312.9073,N,11721.3757,W,44.046,252.302,231010,0,W,A*11
$GPRMC,165805.18,A,3312.8963,N,11721.4164,W,45.476,252.281,231010,0,W,A*12
$GPRMC,165808.18,A,3312.8848,N,11721.4584,W,45.983,251.964,231010,0,W,A*19
$GPRMC,165811.18,A,3312.8728,N,11721.5014,W,46.473,252.109,231010,0,W,A*14
$GPRMC,165814.18,A,3312.8618,N,11721.5453,W,47.326,253.717,231010,0,W,A*1A
$GPRMC,165817.18,A,3312.8508,N,11721.5916,W,49.860,254.385,231010,0,W,A*18
$GPRMC,165820.18,A,3312.8404,N,11721.6384,W,49.490,255.008,231010,0,W,A*17
$GPRMC,165823.18,A,3312.8297,N,11721.6851,W,49.090,254.517,231010,0,W,A*15
$GPRMC,165826.18,A,3312.8190,N,11721.7335,W,50.944,254.626,231010,0,W,A*15
$GPRMC,165829.18,A,3312.8077,N,11721.7845,W,53.120,255.003,231010,0,W,A*17
$GPRMC,165832.18,A,3312.7958,N,11721.8366,W,52.576,254.475,231010,0,W,A*11
$GPRMC,165835.18,A,3312.7843,N,11721.8865,W,50.243,253.897,231010,0,W,A*11
$GPRMC,165838.18,A,3312.7729,N,11721.9332,W,47.618,253.715,231010,0,W,A*1E
$GPRMC,165841.18,A,3312.7635,N,11721.9737,W,38.370,254.830,231010,0,W,A*11
$GPRMC,165844.18,A,3312.7572,N,11722.0053,W,28.287,257.008,231010,0,W,A*13
$GPRMC,165847.18,A,3312.7538,N,11722.0274,W,18.107,259.701,231010,0,W,A*11
$GPRMC,165850.18,A,3312.7522,N,11722.0381,W,6.397,261.076,231010,0,W,A*2F
$GPRMC,170044.18,A,3312.7503,N,11722.0458,W,8.140,259.230,231010,0,W,A*2B
$GPRMC,170047.18,A,3312.7441,N,11722.0556,W,15.904,213.253,231010,0,W,A*1F
$GPRMC,170050.18,A,3312.7283,N,11722.0585,W,22.038,178.149,231010,0,W,A*1B
$GPRMC,170053.18,A,3312.7059,N,11722.0535,W,31.139,171.230,231010,0,W,A*10
$GPRMC,170056.18,A,3312.6777,N,11722.0452,W,35.737,163.836,231010,0,W,A*1C
$GPRMC,170059.18,A,3312.6477,N,11722.0316,W,38.538,162.047,231010,0,W,A*18
$GPRMC,170102.18,A,3312.6149,N,11722.0168,W,40.791,165.906,231010,0,W,A*11
$GPRMC,170105.18,A,3312.5797,N,11722.0091,W,39.843,171.923,231010,0,W,A*1B
$GPRMC,170108.18,A,3312.5469,N,11722.0027,W,38.862,167.300,231010,0,W,A*17
$GPRMC,170111.18,A,3312.5147,N,11721.9912,W,38.886,162.042,231010,0,W,A*19
$GPRMC,170114.18,A,3312.4813,N,11721.9782,W,41.408,162.547,231010,0,W,A*16
$GPRMC,170117.18,A,3312.4469,N,11721.9647,W,42.930,162.564,231010,0,W,A*18
$GPRMC,170120.18,A,3312.4122,N,11721.9517,W,41.566,162.430,231010,0,W,A*1C
$GPRMC,170123.18,A,3312.3795,N,11721.9383,W,40.556,159.521,231010,0,W,A*12
$GPRMC,170126.18,A,3312.3493,N,11721.9222,W,39.811,157.462,231010,0,W,A*10
$GPRMC,170129.18,A,3312.3192,N,11721.9071,W,37.735,157.528,231010,0,W,A*17
$GPRMC,170132.18,A,3312.2937,N,11721.8922,W,30.940,155.722,231010,0,W,A*14
$GPRMC,170135.18,A,3312.2743,N,11721.8777,W,23.189,143.134,231010,0,W,A*19
$GPRMC,170138.18,A,3312.2634,N,11721.8647,W,14.189,138.200,231010,0,W,A*1B
$GPRMC,170308.18,A,3312.2559,N,11721.8557,W,13.795,137.439,231010,0,W,A*1F
$GPRMC,170311.18,A,3312.2443,N,11721.8414,W,24.519,134.102,231010,0,W,A*17
$GPRMC,170314.18,A,3312.2289,N,11721.8194,W,31.505,125.688,231010,0,W,A*13
$GPRMC,170317.18,A,3312.2129,N,11721.7937,W,32.694,126.377,231010,0,W,A*19
$GPRMC,170320.18,A,3312.1968,N,11721.7671,W,33.273,125.735,231010,0,W,A*13
$GPRMC,170323.18,A,3312.1808,N,11721.7401,W,32.507,125.514,231010,0,W,A*16
$GPRMC,170326.18,A,3312.1648,N,11721.7130,W,33.294,125.878,231010,0,W,A*15
$GPRMC,170329.18,A,3312.1500,N,11721.6845,W,31.622,115.039,231010,0,W,A*1A
$GPRMC,170332.18,A,3312.1459,N,11721.6537,W,32.124,82.628,231010,0,W,A*2E
$GPRMC,170335.18,A,3312.1564,N,11721.6236,W,32.532,57.914,231010,0,W,A*2B
$GPRMC,170338.18,A,3312.1758,N,11721.5982,W,33.485,52.101,231010,0,W,A*29
$GPRMC,170341.18,A,3312.1895,N,11721.5683,W,34.011,78.725,231010,0,W,A*21
$GPRMC,170344.18,A,3312.1888,N,11721.5350,W,33.743,102.014,231010,0,W,A*1D
$GPRMC,170347.18,A,3312.1750,N,11721.5047,W,33.418,129.899,231010,0,W,A*18
$GPRMC,170350.18,A,3312.1542,N,11721.4822,W,33.937,141.168,231010,0,W,A*1C
$GPRMC,170353.18,A,3312.1322,N,11721.4611,W,34.866,140.250,231010,0,W,A*1A
$GPRMC,170356.18,A,3312.1095,N,11721.4391,W,35.304,140.890,231010,0,W,A*15
$GPRMC,170359.18,A,3312.0860,N,11721.4163,W,35.422,140.243,231010,0,W,A*11
$GPRMC,170402.18,A,3312.0615,N,11721.3940,W,35.556,143.444,231010,0,W,A*1A
$GPRMC,170405.18,A,3312.0362,N,11721.3768,W,34.719,154.020,231010,0,W,A*14
$GPRMC,170408.18,A,3312.0100,N,11721.3639,W,33.711,159.580,231010,0,W,A*17
$GPRMC,170411.18,A,3311.9839,N,11721.3534,W,33.000,158.678,231010,0,W,A*1A
$GPRMC,170414.18,A,3311.9583,N,11721.3431,W,32.772,158.983,231010,0,W,A*1F
$GPRMC,170417.18,A,3311.9311,N,11721.3333,W,34.000,159.240,231010,0,W,A*15
$GPRMC,170420.18,A,3311.9040,N,11721.3213,W,34.060,158.578,231010,0,W,A*1E
$GPRMC,170423.18,A,3311.8787,N,11721.3079,W,32.644,153.725,231010,0,W,A*19
$GPRMC,170426.18,A,3311.8560,N,11721.2910,W,30.426,140.341,231010,0,W,A*10
$GPRMC,170429.18,A,3311.8400,N,11721.2697,W,27.905,124.686,231010,0,W,A*1E
$GPRMC,170432.18,A,3311.8304,N,11721.2465,W,22.774,110.447,231010,0,W,A*1D
$GPRMC,170435.18,A,3311.8254,N,11721.2294,W,12.148,112.873,231010,0,W,A*15
$GPRMC,170438.18,A,3311.8235,N,11721.2243,W,8.802,139.362,231010,0,W,A*2B
$GPRMC,170441.18,A,3311.8147,N,11721.2219,W,14.709,174.827,231010,0,W,A*16
$GPRMC,170444.18,A,3311.7997,N,11721.2237,W,19.727,176.872,231010,0,W,A*16
$GPRMC,170447.18,A,3311.7815,N,11721.2240,W,24.487,177.040,231010,0,W,A*11
$GPRMC,170450.18,A,3311.7605,N,11721.2240,W,25.444,177.993,231010,0,W,A*11
