NMEA Sentence Code,UTC Time,Status,Latitude,Latitude Direction,Longitude,Longitude Direction,Speed (knots),Track Angle (degrees true),Date,MagneticVariation,Magnetic Variation Direction,[FAA Mode]-Optional,Checksum
$GPRMC,181810.9,A,3241.539006,N,11710.651438,W,10.2,36.3,010510,,,A*72
$GPRMC,181814.2,A,3241.557069,N,11710.638372,W,20.7,28.8,010510,,,A*78
$GPRMC,181817.9,A,3241.579605,N,11710.624875,W,24.6,28.2,010510,,,A*7E
$GPRMC,181820.2,A,3241.593127,N,11710.616516,W,23.3,27.2,010510,,,A*76
$GPRMC,181823.9,A,3241.607930,N,11710.611283,W,14.7,12.3,010510,,,A*75
$GPRMC,181826.9,A,3241.612634,N,11710.608128,W,10.6,19.8,010510,,,A*70
$GPRMC,181829.9,A,3241.621140,N,11710.602706,W,13.3,30.6,010510,,,A*78
$GPRMC,181832.2,A,3241.631087,N,11710.597376,W,15.8,30.4,010510,,,A*71
$GPRMC,181835.9,A,3241.645465,N,11710.586844,W,17.6,32.3,010510,,,A*75
$GPRMC,181838.9,A,3241.662759,N,11710.579497,W,18.8,27.6,010510,,,A*73
$GPRMC,181841.2,A,3241.673044,N,11710.572588,W,17.7,27.5,010510,,,A*7A
$GPRMC,181844.9,A,3241.684187,N,11710.560656,W,14.7,32.5,010510,,,A*76
$GPRMC,181847.2,A,3241.691924,N,11710.555481,W,13.3,40.6,010510,,,A*70
$GPRMC,181850.9,A,3241.693955,N,11710.548864,W,9.6,85.9,010510,,,A*4A
$GPRMC,181853.9,A,3241.686000,N,11710.529633,W,19.9,112.9,010510,,,A*4E
$GPRMC,181856.9,A,3241.677754,N,11710.510555,W,16.9,115.7,010510,,,A*4C
$GPRMC,181859.9,A,3241.670704,N,11710.502693,W,8.9,137.0,010510,,,A*73
$GPRMC,182033.2,A,3241.662642,N,11710.477826,W,13.5,100.4,010510,,,A*4A
$GPRMC,182036.9,A,3241.647479,N,11710.438460,W,24.4,112.8,010510,,,A*46
$GPRMC,182040.2,A,3241.632094,N,11710.405378,W,29.0,118.1,010510,,,A*43
$GPRMC,182043.9,A,3241.616804,N,11710.373758,W,27.8,119.9,010510,,,A*43
$GPRMC,182046.9,A,3241.609932,N,11710.349634,W,25.8,112.8,010510,,,A*46
$GPRMC,182049.9,A,3241.598433,N,11710.325678,W,27.5,116.7,010510,,,A*48
$GPRMC,182052.9,A,3241.586594,N,11710.300297,W,28.9,117.2,010510,,,A*44
$GPRMC,182055.9,A,3241.575663,N,11710.273915,W,30.3,115.1,010510,,,A*42
$GPRMC,182058.9,A,3241.563406,N,11710.247080,W,30.8,116.9,010510,,,A*4B
$GPRMC,182101.9,A,3241.553041,N,11710.220631,W,29.5,117.5,010510,,,A*47
$GPRMC,182104.9,A,3241.541907,N,11710.195605,W,29.5,118.1,010510,,,A*4B
$GPRMC,182107.9,A,3241.532337,N,11710.168596,W,30.4,113.9,010510,,,A*44
$GPRMC,182110.9,A,3241.518963,N,11710.142708,W,28.8,116.8,010510,,,A*4D
$GPRMC,182113.9,A,3241.506080,N,11710.118174,W,29.0,123.5,010510,,,A*45
$GPRMC,182116.9,A,3241.489899,N,11710.095122,W,29.7,127.1,010510,,,A*46
$GPRMC,182119.9,A,3241.470922,N,11710.073788,W,31.9,128.2,010510,,,A*4B
$GPRMC,182122.9,A,3241.445309,N,11710.048027,W,38.2,131.8,010510,,,A*4C
$GPRMC,182125.9,A,3241.420983,N,11710.018282,W,39.4,128.9,010510,,,A*46
$GPRMC,182128.9,A,3241.398440,N,11709.983733,W,45.8,126.7,010510,,,A*46
$GPRMC,182131.9,A,3241.373476,N,11709.943636,W,50.0,125.1,010510,,,A*4F
$GPRMC,182134.9,A,3241.348276,N,11709.900501,W,52.1,124.5,010510,,,A*42
$GPRMC,182137.9,A,3241.323183,N,11709.860384,W,51.4,126.7,010510,,,A*4F
$GPRMC,182140.9,A,3241.296396,N,11709.818917,W,50.9,128.6,010510,,,A*4A
$GPRMC,182143.9,A,3241.268511,N,11709.780533,W,51.2,129.2,010510,,,A*4A
$GPRMC,182146.9,A,3241.243691,N,11709.739623,W,50.9,124.9,010510,,,A*41
$GPRMC,182149.9,A,3241.220979,N,11709.695690,W,49.9,118.8,010510,,,A*4B
$GPRMC,182152.9,A,3241.207725,N,11709.649502,W,50.6,109.3,010510,,,A*46
$GPRMC,182155.9,A,3241.198457,N,11709.602981,W,47.5,102.5,010510,,,A*42
$GPRMC,182158.9,A,3241.193975,N,11709.556853,W,47.7,94.5,010510,,,A*79
$GPRMC,182201.9,A,3241.194139,N,11709.511013,W,46.6,88.7,010510,,,A*71
$GPRMC,182204.9,A,3241.201833,N,11709.462339,W,47.9,81.4,010510,,,A*72
$GPRMC,182207.9,A,3241.213252,N,11709.417110,W,47.9,72.2,010510,,,A*7E
$GPRMC,182210.9,A,3241.232911,N,11709.373062,W,50.2,62.8,010510,,,A*70
$GPRMC,182213.9,A,3241.254576,N,11709.332056,W,50.0,56.8,010510,,,A*79
$GPRMC,182216.9,A,3241.284461,N,11709.294729,W,52.3,46.9,010510,,,A*75
$GPRMC,182219.9,A,3241.318648,N,11709.259451,W,53.8,41.0,010510,,,A*7E
$GPRMC,182222.9,A,3241.359619,N,11709.226418,W,57.0,37.3,010510,,,A*7C
$GPRMC,182225.9,A,3241.402272,N,11709.193975,W,60.0,33.3,010510,,,A*70
$GPRMC,182228.9,A,3241.439954,N,11709.156714,W,60.7,37.3,010510,,,A*79
$GPRMC,182231.9,A,3241.473689,N,11709.118861,W,58.4,39.5,010510,,,A*77
$GPRMC,182234.9,A,3241.511031,N,11709.080796,W,59.3,39.3,010510,,,A*75
$GPRMC,182237.9,A,3241.546519,N,11709.045232,W,56.5,39.6,010510,,,A*75
$GPRMC,182240.9,A,3241.582972,N,11709.007842,W,57.2,41.2,010510,,,A*7A
$GPRMC,182243.9,A,3241.621073,N,11708.969653,W,59.3,39.0,010510,,,A*77
$GPRMC,182246.9,A,3241.660032,N,11708.933971,W,59.1,37.9,010510,,,A*77
$GPRMC,182249.9,A,3241.696836,N,11708.896764,W,58.0,40.3,010510,,,A*73
$GPRMC,182252.9,A,3241.734714,N,11708.857979,W,59.0,40.5,010510,,,A*77
$GPRMC,182255.9,A,3241.770997,N,11708.821673,W,58.4,39.4,010510,,,A*7B
$GPRMC,182258.9,A,3241.811673,N,11708.784394,W,59.5,39.5,010510,,,A*76
$GPRMC,182301.9,A,3241.843399,N,11708.745165,W,57.8,41.2,010510,,,A*77
$GPRMC,182304.9,A,3241.881489,N,11708.708310,W,56.8,41.4,010510,,,A*74
$GPRMC,182307.9,A,3241.916491,N,11708.672854,W,56.3,39.6,010510,,,A*70
$GPRMC,182310.9,A,3241.952879,N,11708.639324,W,55.8,38.2,010510,,,A*72
$GPRMC,182313.9,A,3241.990996,N,11708.605359,W,56.0,38.0,010510,,,A*73
$GPRMC,182316.9,A,3242.024356,N,11708.574857,W,51.3,33.0,010510,,,A*7A
$GPRMC,182319.9,A,3242.065587,N,11708.566374,W,47.5,9.2,010510,,,A*49
$GPRMC,182322.9,A,3242.108204,N,11708.583055,W,50.2,340.3,010510,,,A*42
$GPRMC,182325.9,A,3242.142012,N,11708.616564,W,51.3,318.9,010510,,,A*41
$GPRMC,182328.9,A,3242.169040,N,11708.663673,W,54.6,307.0,010510,,,A*42
$GPRMC,182331.9,A,3242.188410,N,11708.700064,W,48.3,304.1,010510,,,A*4A
$GPRMC,182334.9,A,3242.213479,N,11708.742854,W,51.6,305.7,010510,,,A*46
$GPRMC,182337.9,A,3242.247433,N,11708.784870,W,55.5,310.2,010510,,,A*40
$GPRMC,182340.9,A,3242.279336,N,11708.816226,W,53.7,323.4,010510,,,A*40
$GPRMC,182343.9,A,3242.319723,N,11708.840045,W,54.2,339.6,010510,,,A*4B
$GPRMC,182346.9,A,3242.362980,N,11708.845178,W,54.1,357.6,010510,,,A*44
$GPRMC,182349.9,A,3242.407131,N,11708.838330,W,51.1,4.4,010510,,,A*4B
$GPRMC,182352.9,A,3242.447040,N,11708.835421,W,46.1,2.5,010510,,,A*49
$GPRMC,182355.9,A,3242.481171,N,11708.827033,W,43.1,14.2,010510,,,A*76
$GPRMC,182358.3,A,3242.504277,N,11708.812137,W,40.4,26.2,010510,,,A*7C
$GPRMC,182401.9,A,3242.533356,N,11708.801949,W,29.0,10.7,010510,,,A*73
$GPRMC,182404.9,A,3242.550452,N,11708.801425,W,17.6,0.8,010510,,,A*42
$GPRMC,182407.9,A,3242.557293,N,11708.801673,W,7.6,357.6,010510,,,A*72
$GPRMC,182410.9,A,3242.559644,N,11708.800390,W,7.2,9.1,010510,,,A*76
$GPRMC,182413.9,A,3242.572681,N,11708.800838,W,15.0,1.4,010510,,,A*40
$GPRMC,182416.9,A,3242.590526,N,11708.802875,W,19.8,358.3,010510,,,A*40
$GPRMC,182419.9,A,3242.606529,N,11708.801381,W,18.9,1.8,010510,,,A*4B
$GPRMC,182422.9,A,3242.615251,N,11708.801960,W,9.1,353.3,010510,,,A*7B
$GPRMC,182428.9,A,3242.625432,N,11708.801326,W,10.0,1.6,010510,,,A*41
$GPRMC,182431.9,A,3242.641643,N,11708.801173,W,19.4,2.3,010510,,,A*46
$GPRMC,182434.9,A,3242.658475,N,11708.801779,W,19.1,358.7,010510,,,A*4D
$GPRMC,182437.9,A,3242.668626,N,11708.800883,W,11.1,0.6,010510,,,A*45
$GPRMC,182513.9,A,3242.682893,N,11708.803863,W,8.1,3.2,010510,,,A*74
$GPRMC,182516.9,A,3242.693722,N,11708.801559,W,12.0,5.7,010510,,,A*4B
$GPRMC,182519.9,A,3242.705493,N,11708.800280,W,13.9,2.8,010510,,,A*41
$GPRMC,182522.9,A,3242.728481,N,11708.806547,W,22.4,349.9,010510,,,A*4D
$GPRMC,182525.9,A,3242.747488,N,11708.812460,W,23.1,351.9,010510,,,A*46
$GPRMC,182528.9,A,3242.766133,N,11708.804569,W,24.4,26.6,010510,,,A*7C
$GPRMC,182531.3,A,3242.771358,N,11708.784565,W,22.4,67.2,010510,,,A*7B
$GPRMC,182534.9,A,3242.777680,N,11708.738409,W,37.1,78.9,010510,,,A*7A
$GPRMC,182537.3,A,3242.780167,N,11708.706307,W,41.3,84.4,010510,,,A*7C
$GPRMC,182540.9,A,3242.781350,N,11708.651949,W,42.7,89.9,010510,,,A*75
$GPRMC,182543.9,A,3242.782151,N,11708.604426,W,47.9,89.8,010510,,,A*78
$GPRMC,182546.9,A,3242.783124,N,11708.551116,W,52.1,89.4,010510,,,A*7B
$GPRMC,182549.9,A,3242.783078,N,11708.498573,W,53.4,89.8,010510,,,A*77
$GPRMC,182552.9,A,3242.785257,N,11708.443695,W,55.4,89.1,010510,,,A*76
$GPRMC,182555.9,A,3242.787097,N,11708.387941,W,57.4,88.9,010510,,,A*7F
$GPRMC,182558.9,A,3242.789325,N,11708.329536,W,59.5,88.8,010510,,,A*70
$GPRMC,182601.9,A,3242.788828,N,11708.269667,W,60.1,89.9,010510,,,A*74
$GPRMC,182604.3,A,3242.788973,N,11708.221586,W,62.7,89.4,010510,,,A*7D
$GPRMC,182607.3,A,3242.788806,N,11708.158738,W,63.9,89.8,010510,,,A*74
$GPRMC,182610.3,A,3242.789020,N,11708.094915,W,64.7,89.6,010510,,,A*78
$GPRMC,182613.9,A,3242.786679,N,11708.021188,W,62.2,91.3,010510,,,A*79
$GPRMC,182616.9,A,3242.789651,N,11707.956089,W,62.8,87.1,010510,,,A*70
$GPRMC,182619.9,A,3242.795260,N,11707.894279,W,62.4,84.1,010510,,,A*79
$GPRMC,182622.9,A,3242.803220,N,11707.833001,W,62.1,80.6,010510,,,A*73
$GPRMC,182625.9,A,3242.813648,N,11707.772629,W,61.7,78.0,010510,,,A*7D
$GPRMC,182628.3,A,3242.824693,N,11707.728148,W,62.5,74.9,010510,,,A*73
$GPRMC,182631.0,A,3242.839501,N,11707.676424,W,62.7,71.5,010510,,,A*72
$GPRMC,182634.9,A,3242.865021,N,11707.599878,W,62.4,69.7,010510,,,A*7F
$GPRMC,182637.9,A,3242.882888,N,11707.542337,W,61.1,70.2,010510,,,A*73
$GPRMC,182640.9,A,3242.903025,N,11707.486672,W,61.3,69.1,010510,,,A*70
$GPRMC,182643.9,A,3242.918126,N,11707.428533,W,61.2,71.4,010510,,,A*74
$GPRMC,182646.9,A,3242.933972,N,11707.369302,W,63.2,74.5,010510,,,A*71
$GPRMC,182649.9,A,3242.947337,N,11707.307804,W,63.2,74.5,010510,,,A*73
$GPRMC,182652.9,A,3242.954858,N,11707.244617,W,64.7,79.1,010510,,,A*78
$GPRMC,182655.9,A,3242.964429,N,11707.181336,W,65.7,79.6,010510,,,A*7C
$GPRMC,182658.9,A,3242.973707,N,11707.117391,W,64.8,80.2,010510,,,A*76
$GPRMC,182701.9,A,3242.986238,N,11707.056182,W,64.6,77.9,010510,,,A*71
$GPRMC,182704.9,A,3242.998230,N,11706.992315,W,65.4,78.3,010510,,,A*79
$GPRMC,182707.9,A,3243.014165,N,11706.929519,W,66.9,74.1,010510,,,A*7F
$GPRMC,182710.9,A,3243.033044,N,11706.866693,W,67.5,70.5,010510,,,A*78
$GPRMC,182713.9,A,3243.050230,N,11706.804608,W,68.3,69.7,010510,,,A*7A
$GPRMC,182716.9,A,3243.072010,N,11706.740824,W,68.5,69.4,010510,,,A*75
$GPRMC,182719.9,A,3243.084703,N,11706.672333,W,69.8,77.3,010510,,,A*7F
$GPRMC,182722.9,A,3243.089401,N,11706.605332,W,69.4,85.8,010510,,,A*70
$GPRMC,182725.9,A,3243.085841,N,11706.537917,W,69.5,90.8,010510,,,A*79
$GPRMC,182728.9,A,3243.088320,N,11706.468185,W,71.0,89.3,010510,,,A*72
$GPRMC,182731.9,A,3243.095453,N,11706.400129,W,69.2,82.2,010510,,,A*7C
$GPRMC,182734.9,A,3243.108054,N,11706.331342,W,70.5,78.4,010510,,,A*79
$GPRMC,182737.9,A,3243.119817,N,11706.266302,W,68.2,76.9,010510,,,A*7F
$GPRMC,182741.3,A,3243.134382,N,11706.192303,W,69.6,78.7,010510,,,A*70
$GPRMC,182744.3,A,3243.143349,N,11706.123341,W,70.8,81.8,010510,,,A*71
$GPRMC,182747.9,A,3243.144467,N,11706.040917,W,69.4,87.8,010510,,,A*7B
$GPRMC,182750.9,A,3243.141759,N,11705.974880,W,67.6,89.9,010510,,,A*77
$GPRMC,182753.9,A,3243.141491,N,11705.906836,W,68.4,90.0,010510,,,A*77
$GPRMC,182756.9,A,3243.139526,N,11705.841243,W,66.0,92.3,010510,,,A*71
$GPRMC,182759.9,A,3243.141323,N,11705.775813,W,66.7,90.7,010510,,,A*74
$GPRMC,182802.9,A,3243.135890,N,11705.712316,W,64.3,93.9,010510,,,A*71
$GPRMC,182805.9,A,3243.113376,N,11705.647465,W,67.4,110.7,010510,,,A*43
$GPRMC,182808.9,A,3243.090781,N,11705.584735,W,67.5,111.5,010510,,,A*40
$GPRMC,182811.9,A,3243.072996,N,11705.522107,W,69.0,105.1,010510,,,A*4D
$GPRMC,182814.9,A,3243.063641,N,11705.456439,W,67.9,97.2,010510,,,A*79
$GPRMC,182817.9,A,3243.066531,N,11705.393757,W,64.1,90.1,010510,,,A*71
$GPRMC,182820.9,A,3243.065486,N,11705.331302,W,63.8,90.9,010510,,,A*71
$GPRMC,182823.9,A,3243.068575,N,11705.268434,W,65.0,89.1,010510,,,A*73
$GPRMC,182826.9,A,3243.068619,N,11705.202440,W,67.2,90.0,010510,,,A*79
$GPRMC,182829.9,A,3243.068607,N,11705.134921,W,68.0,91.0,010510,,,A*79
$GPRMC,182833.3,A,3243.079129,N,11705.064550,W,66.7,80.5,010510,,,A*71
$GPRMC,182836.0,A,3243.103402,N,11705.003610,W,69.3,71.6,010510,,,A*77
$GPRMC,182839.9,A,3243.146221,N,11704.928201,W,69.0,54.1,010510,,,A*71
$GPRMC,182842.9,A,3243.188148,N,11704.873986,W,72.2,48.8,010510,,,A*74
$GPRMC,182845.9,A,3243.229411,N,11704.821036,W,72.3,47.6,010510,,,A*77
$GPRMC,182848.9,A,3243.269739,N,11704.768400,W,72.7,48.4,010510,,,A*7D
$GPRMC,182851.9,A,3243.309632,N,11704.712968,W,73.5,49.5,010510,,,A*75
$GPRMC,182854.9,A,3243.348876,N,11704.659975,W,71.3,49.0,010510,,,A*78
$GPRMC,182857.9,A,3243.389703,N,11704.608349,W,71.9,48.5,010510,,,A*74
$GPRMC,182900.9,A,3243.426733,N,11704.552174,W,72.5,49.6,010510,,,A*7B
$GPRMC,182903.9,A,3243.466082,N,11704.497511,W,72.1,48.7,010510,,,A*7A
$GPRMC,182906.9,A,3243.505492,N,11704.445155,W,70.4,48.4,010510,,,A*71
$GPRMC,182909.9,A,3243.540369,N,11704.392204,W,68.1,51.3,010510,,,A*75
$GPRMC,182912.9,A,3243.578296,N,11704.343119,W,67.3,48.8,010510,,,A*78
$GPRMC,182915.9,A,3243.615718,N,11704.293317,W,65.6,52.0,010510,,,A*70
$GPRMC,182918.9,A,3243.645575,N,11704.239594,W,67.0,58.9,010510,,,A*7B
$GPRMC,182921.9,A,3243.666851,N,11704.179956,W,66.4,66.1,010510,,,A*7E
$GPRMC,182924.9,A,3243.687602,N,11704.120024,W,65.7,67.3,010510,,,A*7F
$GPRMC,182927.9,A,3243.712737,N,11704.060481,W,66.6,66.1,010510,,,A*79
$GPRMC,182930.9,A,3243.734028,N,11703.999728,W,66.7,67.1,010510,,,A*7A
$GPRMC,182933.3,A,3243.752510,N,11703.953140,W,67.4,65.9,010510,,,A*7B
$GPRMC,182936.3,A,3243.775612,N,11703.891174,W,68.7,62.6,010510,,,A*76
$GPRMC,182939.3,A,3243.803044,N,11703.830630,W,69.7,58.5,010510,,,A*75
$GPRMC,182942.3,A,3243.835524,N,11703.773382,W,70.5,54.5,010510,,,A*7D
$GPRMC,182945.3,A,3243.871375,N,11703.718094,W,71.1,50.8,010510,,,A*7D
$GPRMC,182948.9,A,3243.918094,N,11703.651803,W,70.8,49.0,010510,,,A*7A
$GPRMC,182951.9,A,3243.955164,N,11703.599861,W,69.7,49.3,010510,,,A*72
$GPRMC,182954.9,A,3243.994547,N,11703.546012,W,70.8,47.6,010510,,,A*7D
$GPRMC,182957.9,A,3244.038533,N,11703.498184,W,70.9,42.7,010510,,,A*7C
$GPRMC,183000.9,A,3244.083980,N,11703.455703,W,68.8,38.9,010510,,,A*71
$GPRMC,183003.9,A,3244.132018,N,11703.413590,W,70.6,37.5,010510,,,A*7F
$GPRMC,183006.9,A,3244.177699,N,11703.371894,W,68.6,37.5,010510,,,A*77
$GPRMC,183009.9,A,3244.222909,N,11703.331030,W,69.4,37.3,010510,,,A*7A
$GPRMC,183012.9,A,3244.268175,N,11703.289830,W,68.6,37.6,010510,,,A*71
$GPRMC,183016.3,A,3244.316373,N,11703.245147,W,66.9,38.0,010510,,,A*72
$GPRMC,183019.0,A,3244.358755,N,11703.208725,W,67.5,36.5,010510,,,A*79
$GPRMC,183022.9,A,3244.418496,N,11703.149056,W,72.1,41.2,010510,,,A*75
$GPRMC,183025.9,A,3244.461319,N,11703.098970,W,72.6,43.0,010510,,,A*7B
$GPRMC,183028.9,A,3244.498986,N,11703.047711,W,69.6,46.5,010510,,,A*7D
$GPRMC,183031.9,A,3244.537600,N,11702.997061,W,69.5,47.4,010510,,,A*76
$GPRMC,183034.3,A,3244.566180,N,11702.956727,W,69.0,48.1,010510,,,A*75
$GPRMC,183037.9,A,3244.614335,N,11702.895375,W,69.1,47.9,010510,,,A*7D
$GPRMC,183040.9,A,3244.648435,N,11702.840722,W,70.3,54.1,010510,,,A*7D
$GPRMC,183043.9,A,3244.675196,N,11702.778225,W,70.6,65.7,010510,,,A*7B
$GPRMC,183046.9,A,3244.689140,N,11702.711802,W,70.3,77.0,010510,,,A*77
$GPRMC,183049.9,A,3244.691753,N,11702.639926,W,72.5,86.9,010510,,,A*7A
$GPRMC,183052.9,A,3244.688722,N,11702.572877,W,69.8,90.6,010510,,,A*78
$GPRMC,183055.9,A,3244.687431,N,11702.504572,W,69.4,91.1,010510,,,A*72
$GPRMC,183058.9,A,3244.686931,N,11702.436013,W,70.0,90.3,010510,,,A*7E
$GPRMC,183101.9,A,3244.684996,N,11702.366557,W,71.0,90.5,010510,,,A*7C
$GPRMC,183104.9,A,3244.685955,N,11702.294735,W,73.2,89.5,010510,,,A*75
$GPRMC,183107.9,A,3244.692669,N,11702.220291,W,73.5,84.4,010510,,,A*7F
$GPRMC,183110.9,A,3244.702147,N,11702.151233,W,72.9,79.8,010510,,,A*74
$GPRMC,183113.9,A,3244.716773,N,11702.080810,W,72.4,76.4,010510,,,A*7B
$GPRMC,183116.9,A,3244.735783,N,11702.010947,W,73.3,73.2,010510,,,A*7F
$GPRMC,183119.9,A,3244.755620,N,11701.942585,W,73.5,71.8,010510,,,A*7F
$GPRMC,183122.9,A,3244.774169,N,11701.874193,W,73.0,72.4,010510,,,A*73
$GPRMC,183125.3,A,3244.788869,N,11701.821425,W,72.8,72.0,010510,,,A*71
$GPRMC,183128.9,A,3244.811774,N,11701.737663,W,72.4,74.4,010510,,,A*7C
$GPRMC,183131.9,A,3244.823717,N,11701.667244,W,72.5,80.6,010510,,,A*7D
$GPRMC,183135.3,A,3244.826755,N,11701.588212,W,72.0,85.6,010510,,,A*71
$GPRMC,183138.9,A,3244.819099,N,11701.500614,W,72.0,94.6,010510,,,A*7F
$GPRMC,183141.9,A,3244.810306,N,11701.429187,W,72.9,95.8,010510,,,A*7C
$GPRMC,183144.9,A,3244.806019,N,11701.358295,W,70.9,94.2,010510,,,A*7B
$GPRMC,183147.9,A,3244.807790,N,11701.288215,W,71.2,87.4,010510,,,A*75
$GPRMC,183150.9,A,3244.817559,N,11701.217303,W,71.8,78.9,010510,,,A*72
$GPRMC,183153.9,A,3244.838718,N,11701.150611,W,72.4,68.6,010510,,,A*7C
$GPRMC,183156.9,A,3244.871188,N,11701.086996,W,73.2,58.4,010510,,,A*77
$GPRMC,183159.9,A,3244.912971,N,11701.029647,W,74.7,49.8,010510,,,A*7A
$GPRMC,183202.9,A,3244.958819,N,11700.973897,W,76.3,46.8,010510,,,A*7B
$GPRMC,183205.9,A,3245.003488,N,11700.920165,W,75.8,46.6,010510,,,A*7A
$GPRMC,183208.9,A,3245.048501,N,11700.865790,W,76.5,45.8,010510,,,A*77
$GPRMC,183211.9,A,3245.093322,N,11700.811556,W,77.3,45.3,010510,,,A*79
$GPRMC,183214.9,A,3245.138211,N,11700.759274,W,76.0,44.5,010510,,,A*7C
$GPRMC,183217.9,A,3245.184298,N,11700.706830,W,76.3,43.9,010510,,,A*71
$GPRMC,183220.9,A,3245.232855,N,11700.654804,W,77.4,43.0,010510,,,A*7E
$GPRMC,183223.9,A,3245.280491,N,11700.601723,W,77.4,43.1,010510,,,A*7B
$GPRMC,183226.9,A,3245.328618,N,11700.549879,W,76.6,43.0,010510,,,A*73
$GPRMC,183229.9,A,3245.373938,N,11700.497405,W,76.4,43.9,010510,,,A*71
$GPRMC,183232.9,A,3245.417716,N,11700.444017,W,75.2,44.8,010510,,,A*76
$GPRMC,183235.9,A,3245.463960,N,11700.393349,W,73.5,44.9,010510,,,A*78
$GPRMC,183238.9,A,3245.502878,N,11700.341673,W,71.3,47.8,010510,,,A*7E
$GPRMC,183241.9,A,3245.537870,N,11700.289577,W,69.7,50.9,010510,,,A*76
$GPRMC,183244.9,A,3245.575938,N,11700.239947,W,67.0,47.0,010510,,,A*7A
$GPRMC,183247.9,A,3245.616734,N,11700.201908,W,62.4,39.3,010510,,,A*76
$GPRMC,183250.9,A,3245.659947,N,11700.168144,W,61.2,32.3,010510,,,A*73
$GPRMC,183253.9,A,3245.706352,N,11700.142007,W,60.5,24.3,010510,,,A*7A
$GPRMC,183256.9,A,3245.754652,N,11700.123753,W,59.5,16.1,010510,,,A*75
$GPRMC,183259.9,A,3245.807386,N,11700.113399,W,62.5,8.5,010510,,,A*4D
$GPRMC,183302.9,A,3245.863173,N,11700.111102,W,65.3,0.7,010510,,,A*41
$GPRMC,183305.9,A,3245.917748,N,11700.112180,W,66.4,359.4,010510,,,A*4B
$GPRMC,183308.9,A,3245.974138,N,11700.114463,W,67.3,358.7,010510,,,A*48
$GPRMC,183311.9,A,3246.033372,N,11700.112605,W,69.1,1.9,010510,,,A*4C
$GPRMC,183314.9,A,3246.092456,N,11700.108978,W,70.4,3.2,010510,,,A*49
$GPRMC,183317.9,A,3246.151269,N,11700.101509,W,70.2,5.3,010510,,,A*4C
$GPRMC,183320.9,A,3246.208890,N,11700.096124,W,69.6,5.0,010510,,,A*40
$GPRMC,183323.9,A,3246.264031,N,11700.093346,W,68.4,1.0,010510,,,A*4E
$GPRMC,183326.9,A,3246.321883,N,11700.099466,W,71.0,353.5,010510,,,A*48
$GPRMC,183329.9,A,3246.381555,N,11700.111135,W,71.9,350.5,010510,,,A*43
$GPRMC,183332.9,A,3246.440129,N,11700.124969,W,71.0,348.4,010510,,,A*4A
$GPRMC,183335.9,A,3246.496743,N,11700.138951,W,69.5,348.2,010510,,,A*40
$GPRMC,183338.9,A,3246.554055,N,11700.146859,W,70.4,356.0,010510,,,A*46
$GPRMC,183341.9,A,3246.610517,N,11700.142981,W,67.9,7.1,010510,,,A*45
$GPRMC,183344.9,A,3246.663102,N,11700.120713,W,67.7,22.3,010510,,,A*7E
$GPRMC,183347.9,A,3246.708056,N,11700.080170,W,68.8,36.6,010510,,,A*79
$GPRMC,183350.9,A,3246.736640,N,11700.025719,W,67.2,53.5,010510,,,A*70
$GPRMC,183353.9,A,3246.755235,N,11659.960123,W,71.5,68.9,010510,,,A*7E
$GPRMC,183356.9,A,3246.754678,N,11659.897061,W,65.6,83.0,010510,,,A*73
$GPRMC,183359.9,A,3246.755887,N,11659.832714,W,65.4,88.7,010510,,,A*77
$GPRMC,183402.3,A,3246.752751,N,11659.782023,W,66.9,92.1,010510,,,A*73
$GPRMC,183405.9,A,3246.747862,N,11659.699813,W,68.1,93.7,010510,,,A*74
$GPRMC,183408.9,A,3246.746408,N,11659.632883,W,68.5,91.8,010510,,,A*79
$GPRMC,183411.9,A,3246.743142,N,11659.564447,W,70.1,92.5,010510,,,A*78
$GPRMC,183414.9,A,3246.741189,N,11659.494940,W,69.6,91.8,010510,,,A*7D
$GPRMC,183417.9,A,3246.739829,N,11659.425815,W,68.7,91.8,010510,,,A*79
