NMEA Sentence Code,UTC Time,Status,Latitude,Latitude Direction,Longitude,Longitude Direction,Speed (knots),Track Angle (degrees true),Date,MagneticVariation,Magnetic Variation Direction,[FAA Mode]-Optional,Checksum
$GPRMC,181215.800,A,3245.5064,N,11629.0095,W,18.45,317.93,120210,,,A*4B
$GPRMC,181218.790,A,3245.5167,N,11629.0213,W,15.58,318.44,120210,,,A*4A
$GPRMC,181221.780,A,3245.5270,N,11629.0294,W,14.95,334.63,120210,,,A*40
$GPRMC,181224.770,A,3245.5397,N,11629.0343,W,17.13,344.06,120210,,,A*40
$GPRMC,181227.760,A,3245.5533,N,11629.0391,W,17.30,340.00,120210,,,A*46
$GPRMC,181230.751,A,3245.5660,N,11629.0468,W,16.74,321.76,120210,,,A*41
$GPRMC,181233.741,A,3245.5764,N,11629.0585,W,17.23,314.55,120210,,,A*40
$GPRMC,181236.731,A,3245.5877,N,11629.0692,W,17.55,330.19,120210,,,A*45
$GPRMC,181239.721,A,3245.6008,N,11629.0756,W,15.94,345.55,120210,,,A*44
$GPRMC,181242.811,A,3245.6118,N,11629.0767,W,9.21,10.03,120210,,,A*45
$GPRMC,181245.801,A,3245.6165,N,11629.0747,W,5.66,29.14,120210,,,A*48
$GPRMC,181248.791,A,3245.6221,N,11629.0679,W,14.55,60.75,120210,,,A*76
$GPRMC,181251.781,A,3245.6273,N,11629.0505,W,22.32,73.02,120210,,,A*76
$GPRMC,181254.771,A,3245.6326,N,11629.0272,W,26.55,74.54,120210,,,A*7B
$GPRMC,181257.761,A,3245.6388,N,11629.0010,W,28.03,74.95,120210,,,A*7B
$GPRMC,181300.751,A,3245.6445,N,11628.9762,W,22.53,74.04,120210,,,A*70
$GPRMC,181303.741,A,3245.6494,N,11628.9604,W,12.73,49.76,120210,,,A*75
$GPRMC,181306.731,A,3245.6583,N,11628.9556,W,12.65,0.31,120210,,,A*4D
$GPRMC,181309.722,A,3245.6695,N,11628.9612,W,17.12,323.23,120210,,,A*43
$GPRMC,181312.811,A,3245.6835,N,11628.9743,W,23.98,320.99,120210,,,A*40
$GPRMC,181315.801,A,3245.7009,N,11628.9909,W,29.75,320.72,120210,,,A*4C
$GPRMC,181318.792,A,3245.7217,N,11629.0110,W,35.00,320.68,120210,,,A*45
$GPRMC,181321.782,A,3245.7455,N,11629.0340,W,38.92,320.81,120210,,,A*48
$GPRMC,181324.772,A,3245.7718,N,11629.0591,W,41.93,321.35,120210,,,A*43
$GPRMC,181327.762,A,3245.8001,N,11629.0859,W,44.74,322.17,120210,,,A*47
$GPRMC,181330.752,A,3245.8311,N,11629.1124,W,46.64,326.28,120210,,,A*49
$GPRMC,181333.742,A,3245.8650,N,11629.1375,W,49.72,328.71,120210,,,A*47
$GPRMC,181336.732,A,3245.9016,N,11629.1630,W,52.41,329.31,120210,,,A*4B
$GPRMC,181339.722,A,3245.9398,N,11629.1898,W,54.59,329.70,120210,,,A*46
$GPRMC,181342.812,A,3245.9810,N,11629.2176,W,55.86,330.06,120210,,,A*4D
$GPRMC,181345.802,A,3246.0224,N,11629.2452,W,57.94,330.72,120210,,,A*4D
$GPRMC,181348.792,A,3246.0649,N,11629.2736,W,58.82,330.56,120210,,,A*46
$GPRMC,181351.782,A,3246.1077,N,11629.3020,W,59.28,330.95,120210,,,A*4A
$GPRMC,181354.772,A,3246.1507,N,11629.3303,W,59.09,331.07,120210,,,A*49
$GPRMC,181357.763,A,3246.1935,N,11629.3588,W,58.74,329.94,120210,,,A*4A
$GPRMC,181400.753,A,3246.2356,N,11629.3877,W,58.61,329.79,120210,,,A*4A
$GPRMC,181403.743,A,3246.2778,N,11629.4165,W,58.60,330.73,120210,,,A*4E
$GPRMC,181406.733,A,3246.3207,N,11629.4435,W,58.45,333.12,120210,,,A*43
$GPRMC,181409.723,A,3246.3642,N,11629.4683,W,58.31,335.96,120210,,,A*4E
$GPRMC,181412.813,A,3246.4105,N,11629.4910,W,58.44,339.03,120210,,,A*4C
$GPRMC,181415.803,A,3246.4563,N,11629.5101,W,58.70,342.07,120210,,,A*48
$GPRMC,181418.793,A,3246.5030,N,11629.5267,W,58.75,344.49,120210,,,A*4B
$GPRMC,181421.783,A,3246.5505,N,11629.5408,W,58.74,347.81,120210,,,A*4A
$GPRMC,181424.773,A,3246.5982,N,11629.5520,W,58.65,350.54,120210,,,A*46
$GPRMC,181427.763,A,3246.6463,N,11629.5603,W,58.38,352.31,120210,,,A*4E
$GPRMC,181430.753,A,3246.6944,N,11629.5685,W,58.56,352.24,120210,,,A*41
$GPRMC,181433.743,A,3246.7423,N,11629.5761,W,58.50,352.45,120210,,,A*44
$GPRMC,181436.734,A,3246.7905,N,11629.5838,W,58.62,352.44,120210,,,A*4B
$GPRMC,181439.724,A,3246.8388,N,11629.5914,W,58.68,352.36,120210,,,A*45
$GPRMC,181442.813,A,3246.8888,N,11629.5994,W,58.59,352.46,120210,,,A*44
$GPRMC,181445.804,A,3246.9371,N,11629.6071,W,58.53,352.41,120210,,,A*45
$GPRMC,181448.794,A,3246.9853,N,11629.6147,W,58.54,352.41,120210,,,A*46
$GPRMC,181451.784,A,3247.0335,N,11629.6225,W,58.46,352.45,120210,,,A*4C
$GPRMC,181454.774,A,3247.0820,N,11629.6304,W,58.73,352.25,120210,,,A*4B
$GPRMC,181457.764,A,3247.1304,N,11629.6379,W,58.71,352.38,120210,,,A*41
$GPRMC,181500.754,A,3247.1789,N,11629.6456,W,58.53,352.23,120210,,,A*40
$GPRMC,181503.744,A,3247.2246,N,11629.6529,W,52.72,352.49,120210,,,A*4B
$GPRMC,181506.734,A,3247.2663,N,11629.6594,W,49.21,352.51,120210,,,A*49
$GPRMC,181509.724,A,3247.3057,N,11629.6658,W,45.55,352.53,120210,,,A*49
$GPRMC,181512.814,A,3247.3414,N,11629.6716,W,38.00,352.33,120210,,,A*4B
$GPRMC,181515.804,A,3247.3701,N,11629.6764,W,32.31,352.37,120210,,,A*43
$GPRMC,181518.794,A,3247.3948,N,11629.6805,W,26.92,352.27,120210,,,A*4E
$GPRMC,181521.784,A,3247.4134,N,11629.6834,W,18.95,352.28,120210,,,A*46
$GPRMC,181524.775,A,3247.4271,N,11629.6858,W,14.58,352.72,120210,,,A*47
$GPRMC,181527.765,A,3247.4366,N,11629.6873,W,8.29,352.88,120210,,,A*75
$GPRMC,181530.755,A,3247.4417,N,11629.6880,W,4.46,353.41,120210,,,A*7C
$GPRMC,181539.725,A,3247.4486,N,11629.6893,W,5.44,351.67,120210,,,A*7D
$GPRMC,181542.815,A,3247.4545,N,11629.6903,W,6.69,353.61,120210,,,A*73
$GPRMC,181545.805,A,3247.4592,N,11629.6912,W,5.34,351.99,120210,,,A*71
$GPRMC,181548.795,A,3247.4636,N,11629.6918,W,5.33,351.95,120210,,,A*76
$GPRMC,181551.785,A,3247.4676,N,11629.6923,W,4.62,352.28,120210,,,A*73
$GPRMC,181554.775,A,3247.4714,N,11629.6932,W,4.83,351.90,120210,,,A*73
$GPRMC,181557.765,A,3247.4759,N,11629.6939,W,5.82,352.67,120210,,,A*78
$GPRMC,181600.755,A,3247.4810,N,11629.6946,W,5.91,351.71,120210,,,A*76
$GPRMC,181603.746,A,3247.4854,N,11629.6954,W,5.20,352.39,120210,,,A*71
$GPRMC,181606.736,A,3247.4895,N,11629.6962,W,4.80,352.88,120210,,,A*7A
$GPRMC,181609.726,A,3247.4934,N,11629.6968,W,4.52,352.72,120210,,,A*7E
$GPRMC,181612.816,A,3247.4972,N,11629.6974,W,4.41,352.59,120210,,,A*7C
$GPRMC,181615.806,A,3247.5009,N,11629.6978,W,5.80,352.74,120210,,,A*71
$GPRMC,181618.796,A,3247.5057,N,11629.6982,W,5.75,353.32,120210,,,A*7D
$GPRMC,181621.786,A,3247.5100,N,11629.6987,W,5.10,353.06,120210,,,A*74
$GPRMC,181624.776,A,3247.5142,N,11629.6992,W,4.97,353.26,120210,,,A*70
$GPRMC,181627.766,A,3247.5181,N,11629.7001,W,4.57,352.38,120210,,,A*7D
$GPRMC,181630.756,A,3247.5218,N,11629.7009,W,4.49,351.39,120210,,,A*7E
$GPRMC,181633.746,A,3247.5255,N,11629.7016,W,4.78,352.50,120210,,,A*75
$GPRMC,181636.736,A,3247.5299,N,11629.7023,W,5.90,352.00,120210,,,A*73
$GPRMC,181639.726,A,3247.5348,N,11629.7028,W,5.42,352.63,120210,,,A*71
$GPRMC,181642.816,A,3247.5392,N,11629.7037,W,5.18,353.85,120210,,,A*7E
$GPRMC,181645.806,A,3247.5435,N,11629.7040,W,4.79,353.44,120210,,,A*79
$GPRMC,181648.796,A,3247.5475,N,11629.7044,W,4.66,351.84,120210,,,A*72
$GPRMC,181651.787,A,3247.5513,N,11629.7053,W,4.70,352.22,120210,,,A*75
$GPRMC,181654.777,A,3247.5551,N,11629.7061,W,4.55,351.50,120210,,,A*79
$GPRMC,181657.767,A,3247.5588,N,11629.7070,W,4.54,352.55,120210,,,A*78
$GPRMC,181721.787,A,3247.5840,N,11629.7112,W,4.46,352.60,120210,,,A*7F
$GPRMC,181724.777,A,3247.5873,N,11629.7118,W,4.64,350.94,120210,,,A*76
$GPRMC,181727.767,A,3247.5911,N,11629.7125,W,4.78,350.28,120210,,,A*75
$GPRMC,181730.758,A,3247.5949,N,11629.7130,W,4.89,351.92,120210,,,A*78
$GPRMC,181733.748,A,3247.5989,N,11629.7137,W,4.97,352.39,120210,,,A*7C
$GPRMC,181736.738,A,3247.6030,N,11629.7140,W,4.82,351.84,120210,,,A*77
$GPRMC,181739.728,A,3247.6070,N,11629.7144,W,4.57,353.26,120210,,,A*7B
$GPRMC,181742.818,A,3247.6109,N,11629.7151,W,4.84,350.73,120210,,,A*7D
$GPRMC,181745.808,A,3247.6149,N,11629.7161,W,5.07,350.36,120210,,,A*77
$GPRMC,181748.798,A,3247.6193,N,11629.7171,W,5.28,350.59,120210,,,A*7E
$GPRMC,181751.788,A,3247.6234,N,11629.7180,W,5.13,350.43,120210,,,A*74
$GPRMC,181754.778,A,3247.6275,N,11629.7185,W,5.30,349.51,120210,,,A*74
$GPRMC,181757.768,A,3247.6318,N,11629.7196,W,4.96,350.46,120210,,,A*7D
$GPRMC,181827.769,A,3247.6601,N,11629.7250,W,4.53,349.48,120210,,,A*7F
$GPRMC,181830.759,A,3247.6639,N,11629.7262,W,4.90,348.54,120210,,,A*73
$GPRMC,181833.749,A,3247.6679,N,11629.7270,W,5.24,347.90,120210,,,A*7F
$GPRMC,181842.819,A,3247.6785,N,11629.7303,W,4.55,347.02,120210,,,A*78
$GPRMC,181845.809,A,3247.6828,N,11629.7313,W,5.13,348.23,120210,,,A*78
$GPRMC,181848.799,A,3247.6867,N,11629.7324,W,4.47,349.58,120210,,,A*71
$GPRMC,181900.760,A,3247.6997,N,11629.7365,W,4.56,346.99,120210,,,A*73
$GPRMC,181903.750,A,3247.7032,N,11629.7373,W,4.41,346.32,120210,,,A*74
$GPRMC,181906.740,A,3247.7071,N,11629.7385,W,4.98,345.94,120210,,,A*75
$GPRMC,181909.730,A,3247.7114,N,11629.7401,W,5.50,346.63,120210,,,A*7A
$GPRMC,181912.820,A,3247.7160,N,11629.7415,W,5.73,346.48,120210,,,A*70
$GPRMC,181915.810,A,3247.7206,N,11629.7428,W,5.62,346.36,120210,,,A*70
$GPRMC,181918.800,A,3247.7252,N,11629.7446,W,5.72,345.04,120210,,,A*76
$GPRMC,181921.790,A,3247.7300,N,11629.7461,W,5.94,344.80,120210,,,A*7C
$GPRMC,181924.780,A,3247.7347,N,11629.7475,W,5.78,344.04,120210,,,A*70
$GPRMC,181927.770,A,3247.7395,N,11629.7492,W,5.85,344.11,120210,,,A*7C
$GPRMC,181930.760,A,3247.7443,N,11629.7505,W,5.86,344.17,120210,,,A*7D
$GPRMC,181933.750,A,3247.7490,N,11629.7522,W,6.17,343.32,120210,,,A*7D
$GPRMC,181936.740,A,3247.7539,N,11629.7538,W,5.86,343.38,120210,,,A*71
$GPRMC,181939.731,A,3247.7589,N,11629.7554,W,5.90,342.77,120210,,,A*74
$GPRMC,181942.721,A,3247.7640,N,11629.7572,W,7.18,342.62,120210,,,A*7D
$GPRMC,181945.810,A,3247.7702,N,11629.7594,W,7.40,342.81,120210,,,A*78
$GPRMC,181948.800,A,3247.7759,N,11629.7615,W,6.70,343.67,120210,,,A*7B
$GPRMC,181951.791,A,3247.7809,N,11629.7633,W,6.10,341.63,120210,,,A*7A
$GPRMC,181954.781,A,3247.7856,N,11629.7651,W,5.75,340.58,120210,,,A*79
$GPRMC,181957.771,A,3247.7902,N,11629.7670,W,5.89,340.66,120210,,,A*78
$GPRMC,182000.761,A,3247.7949,N,11629.7688,W,5.83,341.26,120210,,,A*76
$GPRMC,182003.751,A,3247.8000,N,11629.7706,W,5.84,341.82,120210,,,A*73
$GPRMC,182006.741,A,3247.8046,N,11629.7723,W,5.68,341.65,120210,,,A*79
$GPRMC,182009.731,A,3247.8095,N,11629.7741,W,6.42,340.47,120210,,,A*71
$GPRMC,182012.721,A,3247.8146,N,11629.7766,W,6.91,340.07,120210,,,A*7A
$GPRMC,182015.811,A,3247.8203,N,11629.7788,W,7.06,339.57,120210,,,A*77
$GPRMC,182018.801,A,3247.8274,N,11629.7820,W,9.84,339.46,120210,,,A*72
$GPRMC,182021.791,A,3247.8349,N,11629.7852,W,9.28,339.84,120210,,,A*7C
$GPRMC,182024.781,A,3247.8425,N,11629.7883,W,10.30,338.81,120210,,,A*4C
$GPRMC,182027.771,A,3247.8519,N,11629.7930,W,14.23,338.56,120210,,,A*4B
$GPRMC,182030.762,A,3247.8656,N,11629.7991,W,19.90,337.63,120210,,,A*40
$GPRMC,182033.752,A,3247.8824,N,11629.8072,W,23.64,337.35,120210,,,A*41
$GPRMC,182036.742,A,3247.9025,N,11629.8178,W,29.20,335.79,120210,,,A*46
$GPRMC,182039.732,A,3247.9268,N,11629.8311,W,34.45,334.88,120210,,,A*48
$GPRMC,182042.722,A,3247.9546,N,11629.8469,W,40.54,333.25,120210,,,A*45
$GPRMC,182045.812,A,3247.9876,N,11629.8678,W,46.86,331.28,120210,,,A*44
$GPRMC,182048.802,A,3248.0229,N,11629.8917,W,50.96,328.90,120210,,,A*45
$GPRMC,182051.792,A,3248.0594,N,11629.9190,W,53.22,326.92,120210,,,A*4C
$GPRMC,182054.782,A,3248.0965,N,11629.9486,W,54.58,325.11,120210,,,A*4A
$GPRMC,182057.772,A,3248.1332,N,11629.9801,W,54.05,322.69,120210,,,A*4C
$GPRMC,182100.762,A,3248.1687,N,11630.0135,W,54.99,320.49,120210,,,A*4F
$GPRMC,182103.752,A,3248.2038,N,11630.0494,W,56.42,317.96,120210,,,A*42
$GPRMC,182106.742,A,3248.2389,N,11630.0868,W,57.13,317.94,120210,,,A*47
$GPRMC,182109.733,A,3248.2744,N,11630.1249,W,57.86,317.74,120210,,,A*41
$GPRMC,182112.723,A,3248.3099,N,11630.1631,W,58.05,317.74,120210,,,A*43
$GPRMC,182115.812,A,3248.3470,N,11630.2028,W,57.98,317.73,120210,,,A*4B
$GPRMC,182118.803,A,3248.3828,N,11630.2409,W,58.18,318.08,120210,,,A*44
$GPRMC,182121.793,A,3248.4188,N,11630.2790,W,58.14,318.09,120210,,,A*42
$GPRMC,182124.783,A,3248.4546,N,11630.3172,W,57.62,318.06,120210,,,A*4A
$GPRMC,182127.773,A,3248.4898,N,11630.3549,W,56.58,317.61,120210,,,A*42
$GPRMC,182130.763,A,3248.5245,N,11630.3931,W,57.26,315.81,120210,,,A*49
$GPRMC,182133.753,A,3248.5575,N,11630.4332,W,57.41,312.77,120210,,,A*4C
$GPRMC,182136.743,A,3248.5889,N,11630.4760,W,58.62,309.31,120210,,,A*43
$GPRMC,182139.733,A,3248.6189,N,11630.5216,W,59.98,306.50,120210,,,A*48
$GPRMC,182142.723,A,3248.6473,N,11630.5709,W,61.40,302.54,120210,,,A*40
$GPRMC,182145.813,A,3248.6738,N,11630.6244,W,59.62,298.25,120210,,,A*47
$GPRMC,182148.803,A,3248.6972,N,11630.6777,W,61.55,295.92,120210,,,A*40
$GPRMC,182151.793,A,3248.7179,N,11630.7337,W,62.40,292.10,120210,,,A*47
$GPRMC,182154.783,A,3248.7358,N,11630.7916,W,62.16,288.50,120210,,,A*47
$GPRMC,182157.773,A,3248.7509,N,11630.8495,W,61.58,285.78,120210,,,A*4E
$GPRMC,182200.764,A,3248.7649,N,11630.9079,W,61.38,285.79,120210,,,A*4E
$GPRMC,182203.754,A,3248.7791,N,11630.9657,W,61.21,285.72,120210,,,A*43
$GPRMC,182206.744,A,3248.7930,N,11631.0232,W,60.53,285.93,120210,,,A*46
$GPRMC,182209.734,A,3248.8067,N,11631.0804,W,59.79,285.86,120210,,,A*43
$GPRMC,182212.724,A,3248.8201,N,11631.1368,W,59.30,285.78,120210,,,A*46
$GPRMC,182215.814,A,3248.8342,N,11631.1942,W,58.43,286.43,120210,,,A*47
$GPRMC,182218.804,A,3248.8488,N,11631.2487,W,57.85,288.96,120210,,,A*4E
$GPRMC,182221.794,A,3248.8655,N,11631.3016,W,57.12,291.90,120210,,,A*4D
$GPRMC,182224.784,A,3248.8843,N,11631.3528,W,56.34,294.97,120210,,,A*4F
$GPRMC,182227.774,A,3248.9053,N,11631.4028,W,58.22,297.74,120210,,,A*4E
$GPRMC,182230.764,A,3248.9293,N,11631.4535,W,60.56,301.68,120210,,,A*45
$GPRMC,182233.754,A,3248.9564,N,11631.5036,W,60.07,302.69,120210,,,A*4B
$GPRMC,182236.744,A,3248.9830,N,11631.5539,W,60.42,301.94,120210,,,A*49
$GPRMC,182239.735,A,3249.0085,N,11631.6049,W,59.34,299.34,120210,,,A*4E
$GPRMC,182242.725,A,3249.0316,N,11631.6565,W,59.40,296.57,120210,,,A*48
$GPRMC,182245.814,A,3249.0536,N,11631.7114,W,59.75,293.98,120210,,,A*45
$GPRMC,182248.805,A,3249.0727,N,11631.7658,W,60.00,291.24,120210,,,A*48
$GPRMC,182251.795,A,3249.0896,N,11631.8217,W,60.42,288.15,120210,,,A*4F
$GPRMC,182254.785,A,3249.1044,N,11631.8790,W,60.34,285.58,120210,,,A*42
$GPRMC,182257.775,A,3249.1166,N,11631.9357,W,59.21,282.82,120210,,,A*4F
$GPRMC,182300.765,A,3249.1265,N,11631.9933,W,60.04,280.28,120210,,,A*4A
$GPRMC,182303.755,A,3249.1344,N,11632.0522,W,60.68,277.51,120210,,,A*42
$GPRMC,182306.745,A,3249.1400,N,11632.1121,W,61.14,274.44,120210,,,A*4A
$GPRMC,182309.735,A,3249.1430,N,11632.1722,W,60.52,271.84,120210,,,A*4E
$GPRMC,182312.725,A,3249.1432,N,11632.2318,W,60.46,268.80,120210,,,A*40
$GPRMC,182315.815,A,3249.1412,N,11632.2921,W,58.38,266.01,120210,,,A*4C
$GPRMC,182318.805,A,3249.1370,N,11632.3491,W,58.15,264.32,120210,,,A*49
$GPRMC,182321.795,A,3249.1317,N,11632.4050,W,56.35,263.64,120210,,,A*42
$GPRMC,182324.785,A,3249.1269,N,11632.4589,W,54.22,264.73,120210,,,A*4A
$GPRMC,182327.776,A,3249.1245,N,11632.5116,W,53.53,269.56,120210,,,A*43
$GPRMC,182330.766,A,3249.1266,N,11632.5654,W,55.53,274.65,120210,,,A*4E
$GPRMC,182333.756,A,3249.1326,N,11632.6200,W,56.47,280.34,120210,,,A*44
$GPRMC,182336.746,A,3249.1431,N,11632.6748,W,57.75,285.59,120210,,,A*46
$GPRMC,182339.736,A,3249.1581,N,11632.7291,W,58.09,291.81,120210,,,A*40
$GPRMC,182342.726,A,3249.1779,N,11632.7812,W,57.74,297.28,120210,,,A*49
$GPRMC,182345.816,A,3249.2021,N,11632.8327,W,58.71,300.59,120210,,,A*4A
$GPRMC,182348.806,A,3249.2272,N,11632.8830,W,59.86,300.78,120210,,,A*45
$GPRMC,182351.796,A,3249.2523,N,11632.9333,W,59.18,300.90,120210,,,A*40
$GPRMC,182354.786,A,3249.2773,N,11632.9833,W,58.86,300.94,120210,,,A*4A
$GPRMC,182357.776,A,3249.3023,N,11633.0326,W,58.24,300.67,120210,,,A*46
$GPRMC,182400.766,A,3249.3268,N,11633.0817,W,57.72,300.30,120210,,,A*48
$GPRMC,182403.756,A,3249.3490,N,11633.1319,W,57.68,294.99,120210,,,A*49
$GPRMC,182406.746,A,3249.3674,N,11633.1846,W,57.83,289.71,120210,,,A*4B
$GPRMC,182409.737,A,3249.3817,N,11633.2389,W,57.87,284.11,120210,,,A*4D
$GPRMC,182412.727,A,3249.3916,N,11633.2945,W,57.77,278.67,120210,,,A*41
$GPRMC,182415.816,A,3249.3969,N,11633.3529,W,57.71,272.79,120210,,,A*47
$GPRMC,182418.807,A,3249.3977,N,11633.4102,W,57.85,269.68,120210,,,A*4E
$GPRMC,182421.797,A,3249.3973,N,11633.4676,W,57.99,269.61,120210,,,A*46
$GPRMC,182424.787,A,3249.3973,N,11633.5250,W,58.02,270.18,120210,,,A*48
$GPRMC,182427.777,A,3249.3974,N,11633.5822,W,58.10,269.73,120210,,,A*4A
$GPRMC,182430.767,A,3249.3971,N,11633.6396,W,57.87,269.35,120210,,,A*4C
$GPRMC,182433.757,A,3249.3966,N,11633.6966,W,57.91,268.80,120210,,,A*47
$GPRMC,182436.747,A,3249.3959,N,11633.7534,W,58.15,269.23,120210,,,A*4E
$GPRMC,182439.737,A,3249.3954,N,11633.8110,W,58.26,269.12,120210,,,A*44
$GPRMC,182442.727,A,3249.3926,N,11633.8682,W,58.59,264.02,120210,,,A*44
$GPRMC,182445.817,A,3249.3850,N,11633.9267,W,58.20,258.51,120210,,,A*46
$GPRMC,182448.807,A,3249.3729,N,11633.9819,W,58.09,252.90,120210,,,A*44
$GPRMC,182451.797,A,3249.3565,N,11634.0355,W,58.28,247.31,120210,,,A*41
$GPRMC,182454.787,A,3249.3355,N,11634.0871,W,58.22,242.23,120210,,,A*41
$GPRMC,182457.778,A,3249.3122,N,11634.1377,W,58.23,240.91,120210,,,A*46
$GPRMC,182500.768,A,3249.2886,N,11634.1883,W,58.52,242.07,120210,,,A*49
$GPRMC,182503.758,A,3249.2677,N,11634.2407,W,58.70,247.37,120210,,,A*4C
$GPRMC,182506.748,A,3249.2515,N,11634.2951,W,58.52,253.37,120210,,,A*44
$GPRMC,182509.738,A,3249.2398,N,11634.3506,W,58.59,259.02,120210,,,A*47
$GPRMC,182512.728,A,3249.2329,N,11634.4074,W,58.63,264.39,120210,,,A*4E
$GPRMC,182515.818,A,3249.2302,N,11634.4670,W,58.61,267.86,120210,,,A*4B
$GPRMC,182518.808,A,3249.2287,N,11634.5246,W,58.52,268.00,120210,,,A*4A
$GPRMC,182521.798,A,3249.2272,N,11634.5821,W,58.90,267.84,120210,,,A*4A
$GPRMC,182524.788,A,3249.2251,N,11634.6400,W,58.57,267.79,120210,,,A*4A
$GPRMC,182527.778,A,3249.2233,N,11634.6980,W,58.96,267.76,120210,,,A*45
$GPRMC,182530.768,A,3249.2217,N,11634.7558,W,58.85,267.68,120210,,,A*41
$GPRMC,182533.758,A,3249.2200,N,11634.8135,W,58.68,268.05,120210,,,A*40
$GPRMC,182536.748,A,3249.2191,N,11634.8714,W,58.68,268.94,120210,,,A*42
$GPRMC,182539.739,A,3249.2187,N,11634.9294,W,58.97,268.80,120210,,,A*45
$GPRMC,182542.729,A,3249.2175,N,11634.9873,W,57.82,268.19,120210,,,A*4D
$GPRMC,182545.818,A,3249.2180,N,11635.0455,W,56.19,272.58,120210,,,A*40
$GPRMC,182548.809,A,3249.2221,N,11635.0999,W,55.04,277.65,120210,,,A*4C
$GPRMC,182551.799,A,3249.2298,N,11635.1528,W,54.50,282.51,120210,,,A*4A
$GPRMC,182554.789,A,3249.2406,N,11635.2062,W,57.79,284.33,120210,,,A*4D
$GPRMC,182557.779,A,3249.2522,N,11635.2614,W,58.16,284.47,120210,,,A*44
$GPRMC,182600.769,A,3249.2637,N,11635.3170,W,57.42,284.50,120210,,,A*4F
$GPRMC,182603.759,A,3249.2755,N,11635.3718,W,56.82,284.60,120210,,,A*4C
$GPRMC,182606.749,A,3249.2875,N,11635.4259,W,56.97,285.06,120210,,,A*47
$GPRMC,182609.739,A,3249.2999,N,11635.4803,W,57.10,285.09,120210,,,A*48
$GPRMC,182612.729,A,3249.3117,N,11635.5349,W,57.22,284.49,120210,,,A*4C
$GPRMC,182615.819,A,3249.3240,N,11635.5915,W,58.01,284.54,120210,,,A*47
$GPRMC,182618.809,A,3249.3362,N,11635.6471,W,58.29,284.10,120210,,,A*4C
$GPRMC,182621.799,A,3249.3479,N,11635.7026,W,58.25,284.21,120210,,,A*44
$GPRMC,182624.789,A,3249.3600,N,11635.7590,W,59.07,284.38,120210,,,A*4D
$GPRMC,182627.780,A,3249.3721,N,11635.8150,W,58.48,284.24,120210,,,A*45
$GPRMC,182630.770,A,3249.3838,N,11635.8709,W,58.47,284.21,120210,,,A*4B
$GPRMC,182633.760,A,3249.3958,N,11635.9264,W,58.82,284.26,120210,,,A*4F
$GPRMC,182636.750,A,3249.4077,N,11635.9827,W,58.97,284.46,120210,,,A*45
$GPRMC,182639.740,A,3249.4197,N,11636.0388,W,58.99,284.40,120210,,,A*48
$GPRMC,182642.730,A,3249.4319,N,11636.0954,W,59.33,284.37,120210,,,A*4D
$GPRMC,182645.820,A,3249.4445,N,11636.1537,W,59.28,284.38,120210,,,A*47
$GPRMC,182648.810,A,3249.4568,N,11636.2104,W,59.34,284.24,120210,,,A*40
$GPRMC,182651.800,A,3249.4687,N,11636.2671,W,59.55,283.67,120210,,,A*49
$GPRMC,182654.790,A,3249.4793,N,11636.3245,W,59.65,281.13,120210,,,A*4E
$GPRMC,182657.780,A,3249.4878,N,11636.3823,W,59.69,277.89,120210,,,A*4A
$GPRMC,182700.770,A,3249.4938,N,11636.4398,W,58.73,275.70,120210,,,A*41
$GPRMC,182703.760,A,3249.4974,N,11636.4966,W,57.94,272.47,120210,,,A*45
$GPRMC,182706.750,A,3249.4985,N,11636.5533,W,58.09,269.87,120210,,,A*4D
$GPRMC,182709.741,A,3249.4974,N,11636.6106,W,58.13,267.12,120210,,,A*44
$GPRMC,182712.731,A,3249.4934,N,11636.6678,W,58.50,264.19,120210,,,A*4C
$GPRMC,182715.721,A,3249.4889,N,11636.7249,W,58.44,265.19,120210,,,A*4E
$GPRMC,182718.811,A,3249.4847,N,11636.7841,W,57.70,264.75,120210,,,A*4C
$GPRMC,182721.801,A,3249.4806,N,11636.8404,W,57.47,264.88,120210,,,A*46
$GPRMC,182724.791,A,3249.4760,N,11636.8970,W,57.73,264.71,120210,,,A*45
$GPRMC,182727.781,A,3249.4718,N,11636.9531,W,56.61,264.56,120210,,,A*47
$GPRMC,182730.771,A,3249.4676,N,11637.0082,W,55.45,265.06,120210,,,A*43
$GPRMC,182733.761,A,3249.4648,N,11637.0628,W,55.14,269.01,120210,,,A*45
$GPRMC,182736.751,A,3249.4662,N,11637.1167,W,55.53,274.27,120210,,,A*4D
$GPRMC,182739.741,A,3249.4721,N,11637.1709,W,55.60,280.34,120210,,,A*42
$GPRMC,182742.731,A,3249.4823,N,11637.2244,W,55.63,285.18,120210,,,A*43
$GPRMC,182745.721,A,3249.4965,N,11637.2763,W,55.11,290.93,120210,,,A*44
$GPRMC,182748.811,A,3249.5153,N,11637.3275,W,54.47,296.32,120210,,,A*45
$GPRMC,182751.801,A,3249.5364,N,11637.3742,W,53.29,301.85,120210,,,A*47
$GPRMC,182754.791,A,3249.5612,N,11637.4170,W,52.65,307.44,120210,,,A*42
$GPRMC,182757.782,A,3249.5895,N,11637.4579,W,54.80,312.28,120210,,,A*4C
$GPRMC,182800.772,A,3249.6219,N,11637.4962,W,55.08,317.71,120210,,,A*4D
$GPRMC,182803.762,A,3249.6571,N,11637.5309,W,54.98,323.49,120210,,,A*44
$GPRMC,182806.752,A,3249.6952,N,11637.5615,W,56.23,328.10,120210,,,A*42
$GPRMC,182809.742,A,3249.7355,N,11637.5911,W,56.72,328.06,120210,,,A*48
$GPRMC,182812.732,A,3249.7756,N,11637.6207,W,56.86,328.04,120210,,,A*44
$GPRMC,182815.722,A,3249.8153,N,11637.6513,W,56.85,325.58,120210,,,A*4B
$GPRMC,182818.812,A,3249.8545,N,11637.6862,W,57.34,321.16,120210,,,A*47
$GPRMC,182821.802,A,3249.8905,N,11637.7234,W,57.27,316.44,120210,,,A*4D
$GPRMC,182824.792,A,3249.9238,N,11637.7640,W,57.65,311.88,120210,,,A*4C
$GPRMC,182827.782,A,3249.9540,N,11637.8081,W,57.79,306.85,120210,,,A*44
$GPRMC,182830.772,A,3249.9813,N,11637.8549,W,57.83,302.36,120210,,,A*4E
$GPRMC,182833.762,A,3250.0054,N,11637.9047,W,58.96,297.32,120210,,,A*4E
$GPRMC,182836.752,A,3250.0267,N,11637.9578,W,59.61,293.23,120210,,,A*4E
$GPRMC,182839.743,A,3250.0456,N,11638.0122,W,59.68,292.18,120210,,,A*48
$GPRMC,182842.733,A,3250.0640,N,11638.0665,W,59.39,292.03,120210,,,A*4C
$GPRMC,182845.723,A,3250.0823,N,11638.1206,W,59.24,292.07,120210,,,A*49
$GPRMC,182848.813,A,3250.1014,N,11638.1761,W,59.19,291.84,120210,,,A*47
$GPRMC,182851.803,A,3250.1197,N,11638.2301,W,58.83,292.35,120210,,,A*4E
$GPRMC,182854.793,A,3250.1379,N,11638.2835,W,58.54,291.54,120210,,,A*4D
$GPRMC,182857.783,A,3250.1550,N,11638.3377,W,58.55,289.37,120210,,,A*43
$GPRMC,182900.773,A,3250.1703,N,11638.3923,W,58.65,287.40,120210,,,A*4D
$GPRMC,182903.763,A,3250.1840,N,11638.4479,W,58.55,284.83,120210,,,A*4D
$GPRMC,182906.753,A,3250.1963,N,11638.5038,W,58.79,284.64,120210,,,A*4C
$GPRMC,182909.743,A,3250.2088,N,11638.5599,W,58.91,284.70,120210,,,A*40
$GPRMC,182912.733,A,3250.2211,N,11638.6164,W,59.05,284.68,120210,,,A*4F
$GPRMC,182915.723,A,3250.2334,N,11638.6729,W,58.85,284.56,120210,,,A*44
$GPRMC,182918.813,A,3250.2461,N,11638.7309,W,59.68,284.75,120210,,,A*46
$GPRMC,182921.803,A,3250.2588,N,11638.7877,W,59.54,284.85,120210,,,A*49
$GPRMC,182924.793,A,3250.2711,N,11638.8436,W,58.26,284.71,120210,,,A*41
$GPRMC,182927.784,A,3250.2833,N,11638.8987,W,57.61,285.22,120210,,,A*47
$GPRMC,182930.774,A,3250.2958,N,11638.9531,W,57.24,284.76,120210,,,A*43
$GPRMC,182933.764,A,3250.3078,N,11639.0077,W,57.13,284.04,120210,,,A*45
$GPRMC,182936.754,A,3250.3180,N,11639.0628,W,56.99,279.63,120210,,,A*49
$GPRMC,182939.744,A,3250.3239,N,11639.1178,W,55.61,274.26,120210,,,A*4D
$GPRMC,182942.734,A,3250.3252,N,11639.1716,W,53.94,268.71,120210,,,A*46
$GPRMC,182945.724,A,3250.3223,N,11639.2246,W,53.33,263.89,120210,,,A*44
$GPRMC,182948.814,A,3250.3157,N,11639.2777,W,52.86,258.73,120210,,,A*40
$GPRMC,182951.804,A,3250.3051,N,11639.3284,W,53.09,255.46,120210,,,A*4B
$GPRMC,182954.794,A,3250.2941,N,11639.3798,W,54.04,255.88,120210,,,A*41
$GPRMC,182957.784,A,3250.2828,N,11639.4317,W,54.58,255.32,120210,,,A*41
$GPRMC,183000.774,A,3250.2714,N,11639.4836,W,54.37,256.27,120210,,,A*42
$GPRMC,183003.764,A,3250.2628,N,11639.5365,W,55.20,262.00,120210,,,A*47
$GPRMC,183006.754,A,3250.2589,N,11639.5915,W,56.99,267.62,120210,,,A*44
$GPRMC,183009.745,A,3250.2593,N,11639.6480,W,57.48,273.47,120210,,,A*4D
$GPRMC,183012.735,A,3250.2649,N,11639.7047,W,58.61,279.58,120210,,,A*4A
$GPRMC,183015.725,A,3250.2753,N,11639.7613,W,58.88,284.73,120210,,,A*4D
$GPRMC,183018.815,A,3250.2888,N,11639.8192,W,59.01,285.37,120210,,,A*45
$GPRMC,183021.805,A,3250.3019,N,11639.8754,W,59.20,285.21,120210,,,A*47
$GPRMC,183024.795,A,3250.3149,N,11639.9319,W,59.01,284.80,120210,,,A*45
$GPRMC,183027.785,A,3250.3264,N,11639.9880,W,58.01,281.78,120210,,,A*43
$GPRMC,183030.775,A,3250.3337,N,11640.0439,W,56.81,275.91,120210,,,A*4E
$GPRMC,183033.765,A,3250.3364,N,11640.0986,W,55.48,270.64,120210,,,A*4A
$GPRMC,183036.755,A,3250.3345,N,11640.1537,W,56.29,264.76,120210,,,A*4A
$GPRMC,183039.745,A,3250.3283,N,11640.2090,W,57.24,260.12,120210,,,A*4E
$GPRMC,183042.735,A,3250.3179,N,11640.2647,W,58.55,255.60,120210,,,A*45
$GPRMC,183045.725,A,3250.3053,N,11640.3209,W,59.29,255.03,120210,,,A*4A
$GPRMC,183048.815,A,3250.2931,N,11640.3786,W,57.75,257.34,120210,,,A*44
$GPRMC,183051.805,A,3250.2838,N,11640.4343,W,57.10,260.91,120210,,,A*47
$GPRMC,183054.795,A,3250.2778,N,11640.4899,W,57.02,265.07,120210,,,A*4A
$GPRMC,183057.786,A,3250.2755,N,11640.5464,W,57.85,269.21,120210,,,A*4C
$GPRMC,183100.776,A,3250.2765,N,11640.6034,W,58.36,273.36,120210,,,A*4B
$GPRMC,183103.766,A,3250.2815,N,11640.6603,W,57.68,277.62,120210,,,A*42
$GPRMC,183106.756,A,3250.2884,N,11640.7168,W,57.98,278.30,120210,,,A*40
$GPRMC,183109.746,A,3250.2954,N,11640.7736,W,57.98,278.20,120210,,,A*4E
$GPRMC,183112.736,A,3250.3022,N,11640.8296,W,57.17,278.14,120210,,,A*4A
$GPRMC,183115.726,A,3250.3094,N,11640.8852,W,56.58,278.40,120210,,,A*48
$GPRMC,183118.816,A,3250.3165,N,11640.9426,W,57.41,278.15,120210,,,A*41
$GPRMC,183121.806,A,3250.3233,N,11640.9987,W,57.60,278.27,120210,,,A*4E
$GPRMC,183124.796,A,3250.3298,N,11641.0549,W,57.37,277.67,120210,,,A*43
$GPRMC,183127.786,A,3250.3351,N,11641.1112,W,57.99,275.20,120210,,,A*4B
$GPRMC,183130.776,A,3250.3386,N,11641.1684,W,58.74,272.49,120210,,,A*44
$GPRMC,183133.766,A,3250.3398,N,11641.2262,W,59.30,270.14,120210,,,A*4D
$GPRMC,183136.756,A,3250.3395,N,11641.2844,W,59.41,269.57,120210,,,A*41
$GPRMC,183139.747,A,3250.3393,N,11641.3429,W,59.00,269.82,120210,,,A*43
$GPRMC,183142.737,A,3250.3389,N,11641.4009,W,58.34,269.84,120210,,,A*42
$GPRMC,183145.727,A,3250.3388,N,11641.4576,W,57.25,269.50,120210,,,A*4E
$GPRMC,183148.817,A,3250.3382,N,11641.5154,W,56.30,269.43,120210,,,A*47
$GPRMC,183151.807,A,3250.3380,N,11641.5710,W,56.79,269.84,120210,,,A*4C
$GPRMC,183154.797,A,3250.3377,N,11641.6266,W,56.36,269.73,120210,,,A*43
$GPRMC,183157.787,A,3250.3375,N,11641.6824,W,56.49,269.66,120210,,,A*43
$GPRMC,183200.777,A,3250.3371,N,11641.7381,W,56.44,269.35,120210,,,A*47
$GPRMC,183203.767,A,3250.3368,N,11641.7938,W,56.39,270.03,120210,,,A*42
$GPRMC,183206.757,A,3250.3369,N,11641.8494,W,57.03,269.83,120210,,,A*49
$GPRMC,183209.747,A,3250.3368,N,11641.9069,W,58.32,269.55,120210,,,A*47
$GPRMC,183212.737,A,3250.3366,N,11641.9649,W,59.64,269.71,120210,,,A*44
$GPRMC,183215.727,A,3250.3363,N,11642.0235,W,59.56,269.92,120210,,,A*4E
$GPRMC,183218.817,A,3250.3355,N,11642.0843,W,59.56,267.85,120210,,,A*49
$GPRMC,183221.807,A,3250.3323,N,11642.1431,W,59.75,264.73,120210,,,A*40
$GPRMC,183224.797,A,3250.3263,N,11642.2012,W,59.09,260.86,120210,,,A*45
$GPRMC,183227.788,A,3250.3172,N,11642.2588,W,58.87,258.00,120210,,,A*4F
$GPRMC,183230.778,A,3250.3068,N,11642.3160,W,59.64,257.58,120210,,,A*41
$GPRMC,183233.768,A,3250.2963,N,11642.3734,W,59.29,257.74,120210,,,A*40
$GPRMC,183236.758,A,3250.2862,N,11642.4298,W,57.95,257.64,120210,,,A*4A
$GPRMC,183239.748,A,3250.2758,N,11642.4854,W,58.07,257.67,120210,,,A*4F
$GPRMC,183242.738,A,3250.2657,N,11642.5416,W,57.90,257.64,120210,,,A*43
$GPRMC,183245.728,A,3250.2556,N,11642.5976,W,58.25,257.62,120210,,,A*4B
$GPRMC,183248.818,A,3250.2448,N,11642.6559,W,58.98,257.69,120210,,,A*4B
$GPRMC,183251.808,A,3250.2341,N,11642.7131,W,59.54,257.56,120210,,,A*4A
$GPRMC,183254.798,A,3250.2235,N,11642.7701,W,58.80,257.82,120210,,,A*4F
$GPRMC,183257.788,A,3250.2128,N,11642.8266,W,58.29,255.48,120210,,,A*4E
$GPRMC,183300.778,A,3250.1989,N,11642.8811,W,57.37,250.87,120210,,,A*4E
$GPRMC,183303.768,A,3250.1814,N,11642.9332,W,56.91,246.42,120210,,,A*41
$GPRMC,183306.758,A,3250.1607,N,11642.9831,W,56.00,241.57,120210,,,A*48
$GPRMC,183309.749,A,3250.1374,N,11643.0305,W,55.59,237.40,120210,,,A*4A
$GPRMC,183312.739,A,3250.1116,N,11643.0756,W,55.33,235.54,120210,,,A*48
$GPRMC,183315.729,A,3250.0857,N,11643.1208,W,55.46,236.51,120210,,,A*48
$GPRMC,183318.819,A,3250.0618,N,11643.1697,W,54.94,244.10,120210,,,A*40
$GPRMC,183321.809,A,3250.0451,N,11643.2199,W,54.76,253.15,120210,,,A*41
$GPRMC,183324.799,A,3250.0348,N,11643.2727,W,55.39,261.66,120210,,,A*41
$GPRMC,183327.789,A,3250.0313,N,11643.3278,W,57.03,270.73,120210,,,A*4C
$GPRMC,183330.779,A,3250.0347,N,11643.3841,W,57.43,276.56,120210,,,A*41
$GPRMC,183333.769,A,3250.0400,N,11643.4403,W,57.64,276.36,120210,,,A*49
$GPRMC,183336.759,A,3250.0454,N,11643.4967,W,58.13,276.39,120210,,,A*41
$GPRMC,183339.749,A,3250.0498,N,11643.5538,W,58.40,273.38,120210,,,A*4A
$GPRMC,183342.739,A,3250.0510,N,11643.6107,W,57.25,269.00,120210,,,A*47
$GPRMC,183345.729,A,3250.0488,N,11643.6670,W,58.22,265.77,120210,,,A*42
$GPRMC,183348.819,A,3250.0450,N,11643.7259,W,57.36,265.69,120210,,,A*4D
$GPRMC,183351.809,A,3250.0419,N,11643.7821,W,57.29,267.61,120210,,,A*48
$GPRMC,183354.799,A,3250.0419,N,11643.8391,W,58.33,272.28,120210,,,A*49
$GPRMC,183357.790,A,3250.0455,N,11643.8965,W,59.32,276.41,120210,,,A*41
$GPRMC,183400.780,A,3250.0527,N,11643.9545,W,59.09,279.88,120210,,,A*4C
$GPRMC,183403.770,A,3250.0614,N,11644.0109,W,57.47,280.76,120210,,,A*42
$GPRMC,183406.760,A,3250.0702,N,11644.0655,W,56.09,280.93,120210,,,A*4E
$GPRMC,183409.750,A,3250.0789,N,11644.1189,W,54.73,281.06,120210,,,A*44
$GPRMC,183412.740,A,3250.0875,N,11644.1712,W,53.41,280.69,120210,,,A*49
$GPRMC,183415.730,A,3250.0956,N,11644.2230,W,54.27,280.47,120210,,,A*44
$GPRMC,183418.720,A,3250.1032,N,11644.2763,W,55.66,277.93,120210,,,A*44
$GPRMC,183421.810,A,3250.1081,N,11644.3347,W,58.30,273.64,120210,,,A*4B
$GPRMC,183424.800,A,3250.1099,N,11644.3925,W,58.22,269.58,120210,,,A*4F
$GPRMC,183427.790,A,3250.1075,N,11644.4499,W,58.58,265.52,120210,,,A*4E
$GPRMC,183430.780,A,3250.1034,N,11644.5077,W,58.85,264.59,120210,,,A*43
$GPRMC,183433.770,A,3250.0989,N,11644.5653,W,58.46,264.89,120210,,,A*43
$GPRMC,183436.760,A,3250.0949,N,11644.6217,W,56.82,264.79,120210,,,A*45
$GPRMC,183439.751,A,3250.0909,N,11644.6767,W,55.55,265.70,120210,,,A*4F
$GPRMC,183442.741,A,3250.0885,N,11644.7316,W,55.64,268.89,120210,,,A*4D
$GPRMC,183445.731,A,3250.0892,N,11644.7860,W,55.11,272.68,120210,,,A*47
$GPRMC,183448.721,A,3250.0923,N,11644.8400,W,54.85,275.77,120210,,,A*40
$GPRMC,183451.811,A,3250.0981,N,11644.8952,W,55.37,278.66,120210,,,A*43
$GPRMC,183454.801,A,3250.1065,N,11644.9481,W,54.93,281.97,120210,,,A*40
$GPRMC,183457.791,A,3250.1172,N,11645.0011,W,55.70,285.92,120210,,,A*4A
$GPRMC,183500.781,A,3250.1310,N,11645.0537,W,55.40,288.07,120210,,,A*4D
$GPRMC,183503.771,A,3250.1453,N,11645.1061,W,56.30,288.32,120210,,,A*44
$GPRMC,183506.761,A,3250.1603,N,11645.1588,W,56.70,288.88,120210,,,A*40
$GPRMC,183509.751,A,3250.1754,N,11645.2119,W,56.98,288.56,120210,,,A*45
$GPRMC,183512.741,A,3250.1906,N,11645.2651,W,56.38,288.73,120210,,,A*41
$GPRMC,183515.731,A,3250.2051,N,11645.3178,W,56.34,288.49,120210,,,A*41
$GPRMC,183518.722,A,3250.2198,N,11645.3702,W,56.56,288.56,120210,,,A*4B
$GPRMC,183521.811,A,3250.2355,N,11645.4250,W,56.97,288.47,120210,,,A*45
$GPRMC,183524.801,A,3250.2505,N,11645.4782,W,57.29,288.54,120210,,,A*4E
$GPRMC,183527.792,A,3250.2659,N,11645.5319,W,57.88,288.68,120210,,,A*41
$GPRMC,183530.782,A,3250.2811,N,11645.5859,W,57.40,288.35,120210,,,A*47
$GPRMC,183533.772,A,3250.2954,N,11645.6398,W,57.05,285.97,120210,,,A*4A
$GPRMC,183536.762,A,3250.3069,N,11645.6939,W,56.04,281.97,120210,,,A*4D
$GPRMC,183539.752,A,3250.3154,N,11645.7480,W,55.60,280.33,120210,,,A*4E
$GPRMC,183542.742,A,3250.3238,N,11645.8022,W,56.48,280.11,120210,,,A*40
$GPRMC,183545.732,A,3250.3321,N,11645.8574,W,57.25,279.97,120210,,,A*4D
$GPRMC,183548.722,A,3250.3405,N,11645.9127,W,56.49,280.49,120210,,,A*4D
$GPRMC,183551.812,A,3250.3490,N,11645.9693,W,56.45,280.31,120210,,,A*4E
$GPRMC,183554.802,A,3250.3575,N,11646.0241,W,56.51,280.04,120210,,,A*42
$GPRMC,183557.792,A,3250.3659,N,11646.0790,W,56.82,280.26,120210,,,A*4D
$GPRMC,183600.782,A,3250.3745,N,11646.1350,W,58.31,280.37,120210,,,A*4E
$GPRMC,183603.772,A,3250.3833,N,11646.1923,W,59.13,280.32,120210,,,A*46
$GPRMC,183606.762,A,3250.3920,N,11646.2491,W,58.90,280.25,120210,,,A*4A
$GPRMC,183609.753,A,3250.4005,N,11646.3066,W,59.43,280.29,120210,,,A*40
$GPRMC,183612.743,A,3250.4095,N,11646.3638,W,59.03,280.02,120210,,,A*42
$GPRMC,183615.733,A,3250.4181,N,11646.4210,W,58.46,280.26,120210,,,A*49
$GPRMC,183618.723,A,3250.4268,N,11646.4774,W,58.16,280.59,120210,,,A*4B
$GPRMC,183621.813,A,3250.4353,N,11646.5349,W,56.46,278.31,120210,,,A*4D
$GPRMC,183624.803,A,3250.4391,N,11646.5892,W,55.29,270.28,120210,,,A*40
$GPRMC,183627.793,A,3250.4367,N,11646.6431,W,54.26,263.01,120210,,,A*4D
$GPRMC,183630.783,A,3250.4286,N,11646.6953,W,53.88,258.27,120210,,,A*42
$GPRMC,183633.773,A,3250.4199,N,11646.7470,W,54.67,258.81,120210,,,A*44
$GPRMC,183636.763,A,3250.4109,N,11646.8017,W,57.47,258.78,120210,,,A*44
$GPRMC,183639.753,A,3250.4014,N,11646.8581,W,58.94,258.68,120210,,,A*4F
$GPRMC,183642.743,A,3250.3919,N,11646.9146,W,58.47,258.82,120210,,,A*45
$GPRMC,183645.733,A,3250.3827,N,11646.9710,W,57.94,259.45,120210,,,A*47
$GPRMC,183648.724,A,3250.3759,N,11647.0280,W,59.18,264.58,120210,,,A*46
$GPRMC,183651.813,A,3250.3739,N,11647.0894,W,60.58,271.31,120210,,,A*49
$GPRMC,183654.803,A,3250.3774,N,11647.1483,W,59.92,276.80,120210,,,A*4E
$GPRMC,183657.794,A,3250.3858,N,11647.2055,W,57.88,283.08,120210,,,A*4E
$GPRMC,183700.784,A,3250.3987,N,11647.2598,W,56.64,288.97,120210,,,A*45
$GPRMC,183703.774,A,3250.4155,N,11647.3118,W,56.90,292.50,120210,,,A*4F
$GPRMC,183706.764,A,3250.4335,N,11647.3636,W,56.70,292.52,120210,,,A*48
$GPRMC,183709.754,A,3250.4512,N,11647.4162,W,58.10,291.61,120210,,,A*4D
$GPRMC,183712.744,A,3250.4698,N,11647.4704,W,61.42,292.51,120210,,,A*4C
$GPRMC,183715.734,A,3250.4898,N,11647.5271,W,63.31,292.73,120210,,,A*42
$GPRMC,183718.724,A,3250.5103,N,11647.5852,W,64.13,292.87,120210,,,A*43
$GPRMC,183721.814,A,3250.5315,N,11647.6448,W,63.22,293.02,120210,,,A*4D
$GPRMC,183724.804,A,3250.5519,N,11647.7017,W,62.24,292.70,120210,,,A*4F
$GPRMC,183727.794,A,3250.5721,N,11647.7577,W,61.78,293.10,120210,,,A*4D
$GPRMC,183730.784,A,3250.5923,N,11647.8141,W,62.44,292.93,120210,,,A*4E
$GPRMC,183733.774,A,3250.6125,N,11647.8705,W,61.73,292.83,120210,,,A*4F
$GPRMC,183736.764,A,3250.6321,N,11647.9265,W,61.41,292.67,120210,,,A*44
$GPRMC,183739.755,A,3250.6521,N,11647.9832,W,62.96,293.00,120210,,,A*4E
$GPRMC,183742.745,A,3250.6736,N,11648.0400,W,62.75,296.07,120210,,,A*43
$GPRMC,183745.735,A,3250.6994,N,11648.0942,W,63.70,302.89,120210,,,A*40
$GPRMC,183748.725,A,3250.7301,N,11648.1449,W,62.93,309.15,120210,,,A*4E
$GPRMC,183751.815,A,3250.7648,N,11648.1924,W,59.74,311.73,120210,,,A*4C
$GPRMC,183754.805,A,3250.7963,N,11648.2346,W,55.84,311.66,120210,,,A*44
$GPRMC,183757.795,A,3250.8268,N,11648.2753,W,55.08,311.74,120210,,,A*49
$GPRMC,183800.785,A,3250.8579,N,11648.3162,W,57.39,311.74,120210,,,A*47
$GPRMC,183803.775,A,3250.8897,N,11648.3589,W,58.33,311.75,120210,,,A*43
$GPRMC,183806.765,A,3250.9222,N,11648.4022,W,58.57,311.78,120210,,,A*4E
$GPRMC,183809.755,A,3250.9555,N,11648.4439,W,58.05,315.94,120210,,,A*4A
$GPRMC,183812.745,A,3250.9923,N,11648.4806,W,57.15,324.15,120210,,,A*49
$GPRMC,183815.735,A,3251.0321,N,11648.5105,W,55.26,328.71,120210,,,A*4E
$GPRMC,183818.726,A,3251.0708,N,11648.5384,W,53.02,329.00,120210,,,A*42
$GPRMC,183821.815,A,3251.1101,N,11648.5667,W,54.58,328.80,120210,,,A*40
$GPRMC,183824.805,A,3251.1496,N,11648.5953,W,56.57,328.85,120210,,,A*4F
$GPRMC,183827.796,A,3251.1901,N,11648.6238,W,55.98,329.11,120210,,,A*43
$GPRMC,183830.786,A,3251.2299,N,11648.6526,W,56.07,327.90,120210,,,A*47
$GPRMC,183833.776,A,3251.2682,N,11648.6834,W,54.65,323.30,120210,,,A*43
$GPRMC,183836.766,A,3251.3030,N,11648.7177,W,54.06,316.84,120210,,,A*4A
$GPRMC,183839.756,A,3251.3338,N,11648.7560,W,53.67,310.14,120210,,,A*40
$GPRMC,183842.746,A,3251.3611,N,11648.7979,W,54.31,304.92,120210,,,A*48
$GPRMC,183845.736,A,3251.3844,N,11648.8434,W,54.06,297.69,120210,,,A*46
$GPRMC,183848.726,A,3251.4032,N,11648.8916,W,53.68,291.97,120210,,,A*41
$GPRMC,183851.816,A,3251.4181,N,11648.9438,W,55.02,285.28,120210,,,A*47
$GPRMC,183854.806,A,3251.4279,N,11648.9975,W,56.76,278.71,120210,,,A*4D
$GPRMC,183857.796,A,3251.4325,N,11649.0533,W,57.13,272.20,120210,,,A*4A
$GPRMC,183900.786,A,3251.4319,N,11649.1103,W,58.96,267.51,120210,,,A*41
$GPRMC,183903.776,A,3251.4295,N,11649.1692,W,59.65,267.02,120210,,,A*4C
$GPRMC,183906.766,A,3251.4270,N,11649.2283,W,60.02,267.04,120210,,,A*49
$GPRMC,183909.757,A,3251.4247,N,11649.2877,W,60.57,267.55,120210,,,A*45
$GPRMC,183912.747,A,3251.4226,N,11649.3480,W,62.47,267.54,120210,,,A*4E
$GPRMC,183915.737,A,3251.4201,N,11649.4105,W,63.04,267.16,120210,,,A*44
$GPRMC,183918.727,A,3251.4178,N,11649.4716,W,61.64,267.46,120210,,,A*40
$GPRMC,183921.817,A,3251.4162,N,11649.5344,W,61.43,268.59,120210,,,A*4B
$GPRMC,183924.807,A,3251.4149,N,11649.5941,W,59.75,267.76,120210,,,A*45
$GPRMC,183927.797,A,3251.4127,N,11649.6526,W,58.93,267.59,120210,,,A*42
$GPRMC,183930.787,A,3251.4107,N,11649.7107,W,58.84,267.49,120210,,,A*46
$GPRMC,183933.777,A,3251.4076,N,11649.7685,W,58.52,264.53,120210,,,A*43
$GPRMC,183936.767,A,3251.4014,N,11649.8263,W,59.30,261.43,120210,,,A*41
$GPRMC,183939.757,A,3251.3922,N,11649.8837,W,59.24,257.32,120210,,,A*4B
$GPRMC,183942.747,A,3251.3806,N,11649.9409,W,59.34,254.57,120210,,,A*40
$GPRMC,183945.737,A,3251.3658,N,11649.9970,W,59.39,250.86,120210,,,A*43
$GPRMC,183948.728,A,3251.3485,N,11650.0514,W,59.30,247.89,120210,,,A*4D
$GPRMC,183951.817,A,3251.3275,N,11650.1063,W,59.42,245.18,120210,,,A*44
$GPRMC,183954.807,A,3251.3067,N,11650.1598,W,59.34,244.82,120210,,,A*43
$GPRMC,183957.798,A,3251.2855,N,11650.2125,W,59.32,245.12,120210,,,A*4E
$GPRMC,184000.788,A,3251.2646,N,11650.2652,W,59.18,244.92,120210,,,A*49
$GPRMC,184003.778,A,3251.2451,N,11650.3190,W,59.35,249.50,120210,,,A*45
$GPRMC,184006.768,A,3251.2305,N,11650.3745,W,59.26,255.31,120210,,,A*41
$GPRMC,184009.758,A,3251.2207,N,11650.4315,W,59.21,261.38,120210,,,A*41
$GPRMC,184012.748,A,3251.2142,N,11650.4894,W,59.33,263.07,120210,,,A*47
$GPRMC,184015.738,A,3251.2083,N,11650.5477,W,59.30,263.05,120210,,,A*4A
$GPRMC,184018.728,A,3251.2026,N,11650.6059,W,59.27,263.47,120210,,,A*42
$GPRMC,184021.818,A,3251.1969,N,11650.6660,W,59.23,264.15,120210,,,A*4D
$GPRMC,184024.808,A,3251.1928,N,11650.7239,W,59.12,266.31,120210,,,A*43
$GPRMC,184027.798,A,3251.1910,N,11650.7823,W,59.29,268.73,120210,,,A*4C
$GPRMC,184030.788,A,3251.1907,N,11650.8410,W,59.11,271.16,120210,,,A*4E
$GPRMC,184033.778,A,3251.1928,N,11650.8988,W,59.24,273.09,120210,,,A*49
$GPRMC,184036.768,A,3251.1966,N,11650.9571,W,59.43,275.23,120210,,,A*43
$GPRMC,184039.759,A,3251.2018,N,11651.0156,W,59.52,277.42,120210,,,A*41
$GPRMC,184042.749,A,3251.2086,N,11651.0736,W,59.50,278.24,120210,,,A*46
$GPRMC,184045.739,A,3251.2154,N,11651.1312,W,59.25,278.03,120210,,,A*4C
$GPRMC,184048.729,A,3251.2224,N,11651.1892,W,59.22,278.41,120210,,,A*46
$GPRMC,184051.819,A,3251.2298,N,11651.2488,W,59.34,278.40,120210,,,A*47
$GPRMC,184054.809,A,3251.2371,N,11651.3066,W,59.47,278.40,120210,,,A*44
$GPRMC,184057.799,A,3251.2441,N,11651.3643,W,59.42,277.95,120210,,,A*46
$GPRMC,184100.789,A,3251.2508,N,11651.4222,W,59.26,278.14,120210,,,A*48
$GPRMC,184103.779,A,3251.2576,N,11651.4797,W,59.12,278.22,120210,,,A*44
$GPRMC,184106.769,A,3251.2637,N,11651.5375,W,58.95,275.81,120210,,,A*45
$GPRMC,184109.759,A,3251.2663,N,11651.5957,W,59.27,269.65,120210,,,A*4D
$GPRMC,184112.749,A,3251.2636,N,11651.6537,W,59.34,264.12,120210,,,A*40
$GPRMC,184115.739,A,3251.2560,N,11651.7119,W,59.36,258.73,120210,,,A*43
$GPRMC,184118.730,A,3251.2442,N,11651.7685,W,59.48,253.22,120210,,,A*42
$GPRMC,184121.819,A,3251.2273,N,11651.8255,W,59.53,249.72,120210,,,A*4A
$GPRMC,184124.809,A,3251.2101,N,11651.8802,W,59.35,249.46,120210,,,A*47
$GPRMC,184127.800,A,3251.1928,N,11651.9350,W,59.36,249.53,120210,,,A*47
$GPRMC,184130.790,A,3251.1754,N,11651.9898,W,59.32,248.28,120210,,,A*44
$GPRMC,184133.780,A,3251.1564,N,11652.0438,W,59.19,245.82,120210,,,A*4F
$GPRMC,184136.770,A,3251.1345,N,11652.0960,W,59.14,241.01,120210,,,A*42
$GPRMC,184139.760,A,3251.1085,N,11652.1455,W,58.96,235.20,120210,,,A*42
$GPRMC,184142.750,A,3251.0785,N,11652.1916,W,58.83,229.80,120210,,,A*42
$GPRMC,184145.740,A,3251.0455,N,11652.2343,W,58.93,224.62,120210,,,A*43
$GPRMC,184148.730,A,3251.0093,N,11652.2737,W,59.12,221.01,120210,,,A*48
$GPRMC,184151.720,A,3250.9723,N,11652.3118,W,59.14,221.26,120210,,,A*4C
$GPRMC,184154.810,A,3250.9347,N,11652.3515,W,59.20,221.72,120210,,,A*4C
$GPRMC,184157.800,A,3250.8976,N,11652.3902,W,59.25,220.84,120210,,,A*40
$GPRMC,184200.790,A,3250.8607,N,11652.4288,W,59.17,222.69,120210,,,A*40
$GPRMC,184203.780,A,3250.8268,N,11652.4710,W,59.17,230.36,120210,,,A*42
$GPRMC,184206.770,A,3250.7973,N,11652.5180,W,59.60,235.88,120210,,,A*48
$GPRMC,184209.761,A,3250.7717,N,11652.5674,W,58.55,241.94,120210,,,A*4E
$GPRMC,184212.751,A,3250.7518,N,11652.6191,W,56.86,248.10,120210,,,A*40
$GPRMC,184215.741,A,3250.7368,N,11652.6716,W,56.09,254.19,120210,,,A*4D
$GPRMC,184218.731,A,3250.7249,N,11652.7256,W,56.67,256.03,120210,,,A*44
$GPRMC,184221.721,A,3250.7135,N,11652.7799,W,57.30,255.87,120210,,,A*4D
$GPRMC,184224.811,A,3250.7010,N,11652.8379,W,59.07,254.94,120210,,,A*4E
$GPRMC,184227.801,A,3250.6866,N,11652.8938,W,60.52,251.21,120210,,,A*4A
$GPRMC,184230.791,A,3250.6681,N,11652.9487,W,59.08,245.68,120210,,,A*48
$GPRMC,184233.781,A,3250.6457,N,11653.0002,W,58.31,239.51,120210,,,A*48
$GPRMC,184236.771,A,3250.6192,N,11653.0472,W,57.32,232.88,120210,,,A*4E
$GPRMC,184239.761,A,3250.5887,N,11653.0901,W,56.73,227.18,120210,,,A*4E
$GPRMC,184242.751,A,3250.5545,N,11653.1292,W,57.93,221.27,120210,,,A*47
$GPRMC,184245.741,A,3250.5185,N,11653.1669,W,58.06,221.73,120210,,,A*4B
$GPRMC,184248.732,A,3250.4820,N,11653.2057,W,58.87,221.63,120210,,,A*45
$GPRMC,184251.722,A,3250.4467,N,11653.2430,W,54.87,221.83,120210,,,A*44
$GPRMC,184254.811,A,3250.4124,N,11653.2792,W,52.63,221.13,120210,,,A*42
$GPRMC,184257.802,A,3250.3802,N,11653.3131,W,52.01,221.70,120210,,,A*46
$GPRMC,184300.792,A,3250.3472,N,11653.3480,W,54.00,222.04,120210,,,A*40
$GPRMC,184303.782,A,3250.3134,N,11653.3839,W,54.87,221.59,120210,,,A*4F
$GPRMC,184306.772,A,3250.2785,N,11653.4207,W,57.10,221.67,120210,,,A*48
$GPRMC,184309.762,A,3250.2432,N,11653.4578,W,56.86,221.57,120210,,,A*4B
$GPRMC,184312.752,A,3250.2078,N,11653.4954,W,58.39,221.99,120210,,,A*42
$GPRMC,184315.742,A,3250.1720,N,11653.5333,W,56.72,221.88,120210,,,A*46
$GPRMC,184318.732,A,3250.1381,N,11653.5691,W,53.23,221.72,120210,,,A*4A
$GPRMC,184321.722,A,3250.1047,N,11653.6043,W,54.03,221.48,120210,,,A*4E
$GPRMC,184324.812,A,3250.0698,N,11653.6412,W,54.72,221.91,120210,,,A*40
$GPRMC,184327.802,A,3250.0356,N,11653.6772,W,54.98,221.60,120210,,,A*4A
$GPRMC,184330.792,A,3250.0012,N,11653.7133,W,55.11,221.52,120210,,,A*4A
$GPRMC,184333.782,A,3249.9668,N,11653.7494,W,54.98,221.76,120210,,,A*4C
$GPRMC,184336.772,A,3249.9325,N,11653.7855,W,54.69,222.19,120210,,,A*4F
$GPRMC,184339.763,A,3249.8995,N,11653.8225,W,54.37,224.17,120210,,,A*41
$GPRMC,184342.753,A,3249.8674,N,11653.8600,W,54.15,225.34,120210,,,A*4D
$GPRMC,184345.743,A,3249.8360,N,11653.8985,W,54.34,227.03,120210,,,A*4C
$GPRMC,184348.733,A,3249.8061,N,11653.9373,W,52.77,228.14,120210,,,A*4E
$GPRMC,184351.723,A,3249.7770,N,11653.9759,W,51.81,228.32,120210,,,A*4D
$GPRMC,184354.813,A,3249.7476,N,11654.0151,W,51.43,228.30,120210,,,A*4D
$GPRMC,184357.803,A,3249.7191,N,11654.0529,W,51.50,228.26,120210,,,A*4D
$GPRMC,184400.793,A,3249.6905,N,11654.0911,W,51.76,228.35,120210,,,A*4B
$GPRMC,184403.783,A,3249.6615,N,11654.1298,W,53.20,228.57,120210,,,A*49
$GPRMC,184406.773,A,3249.6318,N,11654.1693,W,53.49,228.47,120210,,,A*4A
$GPRMC,184409.763,A,3249.6027,N,11654.2083,W,53.02,228.16,120210,,,A*44
$GPRMC,184412.753,A,3249.5733,N,11654.2470,W,53.06,228.42,120210,,,A*41
$GPRMC,184415.743,A,3249.5442,N,11654.2855,W,52.42,228.19,120210,,,A*46
$GPRMC,184418.734,A,3249.5151,N,11654.3240,W,52.74,228.67,120210,,,A*4F
$GPRMC,184421.724,A,3249.4859,N,11654.3627,W,52.80,228.27,120210,,,A*4E
$GPRMC,184424.813,A,3249.4551,N,11654.4034,W,53.62,228.26,120210,,,A*4A
$GPRMC,184427.804,A,3249.4253,N,11654.4424,W,53.07,228.04,120210,,,A*4C
$GPRMC,184430.794,A,3249.3948,N,11654.4803,W,53.38,224.02,120210,,,A*45
$GPRMC,184433.784,A,3249.3618,N,11654.5150,W,52.77,218.93,120210,,,A*4E
$GPRMC,184436.774,A,3249.3265,N,11654.5457,W,51.83,213.59,120210,,,A*4D
$GPRMC,184439.764,A,3249.2900,N,11654.5722,W,51.53,209.29,120210,,,A*4A
$GPRMC,184442.754,A,3249.2515,N,11654.5954,W,52.23,204.78,120210,,,A*4F
$GPRMC,184445.744,A,3249.2115,N,11654.6169,W,53.91,204.29,120210,,,A*44
$GPRMC,184448.734,A,3249.1701,N,11654.6385,W,53.96,204.60,120210,,,A*44
$GPRMC,184451.724,A,3249.1295,N,11654.6625,W,54.98,209.15,120210,,,A*4C
$GPRMC,184454.814,A,3249.0890,N,11654.6930,W,55.63,215.00,120210,,,A*4C
$GPRMC,184457.804,A,3249.0528,N,11654.7260,W,54.47,219.97,120210,,,A*4A
$GPRMC,184500.794,A,3249.0193,N,11654.7610,W,53.27,221.95,120210,,,A*40
$GPRMC,184503.784,A,3248.9860,N,11654.7959,W,54.05,221.78,120210,,,A*49
$GPRMC,184506.774,A,3248.9523,N,11654.8314,W,55.17,221.88,120210,,,A*48
$GPRMC,184509.765,A,3248.9176,N,11654.8682,W,55.60,221.76,120210,,,A*48
$GPRMC,184512.755,A,3248.8832,N,11654.9053,W,55.92,222.14,120210,,,A*48
$GPRMC,184515.745,A,3248.8479,N,11654.9415,W,56.28,218.66,120210,,,A*45
$GPRMC,184518.735,A,3248.8107,N,11654.9740,W,54.87,214.11,120210,,,A*4B
$GPRMC,184521.725,A,3248.7723,N,11655.0019,W,53.47,209.26,120210,,,A*4F
$GPRMC,184524.815,A,3248.7319,N,11655.0276,W,53.80,207.41,120210,,,A*44
$GPRMC,184527.805,A,3248.6922,N,11655.0518,W,53.35,207.25,120210,,,A*46
$GPRMC,184530.795,A,3248.6530,N,11655.0753,W,52.21,207.29,120210,,,A*4C
$GPRMC,184533.785,A,3248.6139,N,11655.0993,W,53.77,206.38,120210,,,A*42
$GPRMC,184536.775,A,3248.5732,N,11655.1230,W,56.10,206.06,120210,,,A*4C
$GPRMC,184539.765,A,3248.5317,N,11655.1472,W,54.71,206.84,120210,,,A*4E
$GPRMC,184542.755,A,3248.4911,N,11655.1719,W,54.89,207.02,120210,,,A*4A
$GPRMC,184545.745,A,3248.4504,N,11655.1975,W,57.06,207.56,120210,,,A*45
$GPRMC,184548.736,A,3248.4090,N,11655.2253,W,57.33,211.66,120210,,,A*4A
$GPRMC,184551.726,A,3248.3692,N,11655.2580,W,57.97,217.85,120210,,,A*4C
$GPRMC,184554.815,A,3248.3318,N,11655.2961,W,57.16,223.90,120210,,,A*48
$GPRMC,184557.806,A,3248.2993,N,11655.3368,W,56.33,229.90,120210,,,A*4F
$GPRMC,184600.796,A,3248.2707,N,11655.3812,W,57.37,235.75,120210,,,A*4E
$GPRMC,184603.786,A,3248.2462,N,11655.4302,W,58.22,242.59,120210,,,A*44
$GPRMC,184606.776,A,3248.2263,N,11655.4820,W,57.26,247.75,120210,,,A*42
$GPRMC,184609.766,A,3248.2108,N,11655.5356,W,57.72,254.26,120210,,,A*4C
$GPRMC,184612.756,A,3248.2001,N,11655.5910,W,57.38,260.41,120210,,,A*4D
$GPRMC,184615.746,A,3248.1947,N,11655.6469,W,57.20,266.05,120210,,,A*4C
$GPRMC,184618.736,A,3248.1933,N,11655.7034,W,57.75,269.66,120210,,,A*42
$GPRMC,184621.726,A,3248.1931,N,11655.7610,W,59.16,269.94,120210,,,A*4D
$GPRMC,184624.816,A,3248.1932,N,11655.8202,W,58.27,269.90,120210,,,A*48
$GPRMC,184627.806,A,3248.1934,N,11655.8775,W,57.49,270.22,120210,,,A*4F
$GPRMC,184630.796,A,3248.1938,N,11655.9340,W,58.50,271.11,120210,,,A*46
$GPRMC,184633.786,A,3248.1949,N,11655.9912,W,58.44,270.97,120210,,,A*45
$GPRMC,184636.776,A,3248.1950,N,11656.0481,W,56.97,270.18,120210,,,A*4D
$GPRMC,184639.767,A,3248.1953,N,11656.1035,W,55.55,269.87,120210,,,A*48
$GPRMC,184642.757,A,3248.1950,N,11656.1586,W,55.69,269.79,120210,,,A*47
$GPRMC,184645.747,A,3248.1948,N,11656.2127,W,55.69,269.20,120210,,,A*48
$GPRMC,184648.737,A,3248.1937,N,11656.2693,W,58.67,268.69,120210,,,A*4D
$GPRMC,184651.727,A,3248.1928,N,11656.3274,W,58.60,269.24,120210,,,A*49
$GPRMC,184654.817,A,3248.1925,N,11656.3860,W,56.55,269.93,120210,,,A*46
$GPRMC,184657.807,A,3248.1923,N,11656.4406,W,54.46,269.82,120210,,,A*49
$GPRMC,184700.797,A,3248.1921,N,11656.4942,W,54.98,269.77,120210,,,A*4A
$GPRMC,184703.787,A,3248.1920,N,11656.5474,W,53.61,270.13,120210,,,A*4B
$GPRMC,184706.777,A,3248.1921,N,11656.6002,W,53.82,270.11,120210,,,A*49
$GPRMC,184709.767,A,3248.1923,N,11656.6542,W,54.52,269.91,120210,,,A*4E
$GPRMC,184712.757,A,3248.1921,N,11656.7076,W,53.69,270.02,120210,,,A*4B
$GPRMC,184715.747,A,3248.1920,N,11656.7606,W,54.22,270.05,120210,,,A*42
$GPRMC,184718.738,A,3248.1922,N,11656.8141,W,54.16,270.30,120210,,,A*4F
$GPRMC,184721.728,A,3248.1917,N,11656.8676,W,54.67,269.81,120210,,,A*45
$GPRMC,184724.817,A,3248.1918,N,11656.9231,W,54.87,269.91,120210,,,A*45
$GPRMC,184727.808,A,3248.1918,N,11656.9766,W,54.56,269.99,120210,,,A*4B
$GPRMC,184730.798,A,3248.1923,N,11657.0303,W,54.88,270.34,120210,,,A*40
$GPRMC,184733.788,A,3248.1923,N,11657.0845,W,55.57,269.84,120210,,,A*4B
$GPRMC,184736.778,A,3248.1924,N,11657.1397,W,56.16,269.88,120210,,,A*49
$GPRMC,184739.768,A,3248.1925,N,11657.1953,W,56.40,269.80,120210,,,A*4F
$GPRMC,184742.758,A,3248.1924,N,11657.2515,W,56.75,270.21,120210,,,A*49
$GPRMC,184745.748,A,3248.1926,N,11657.3075,W,56.88,269.91,120210,,,A*4E
$GPRMC,184748.738,A,3248.1925,N,11657.3626,W,56.33,270.12,120210,,,A*44
$GPRMC,184751.728,A,3248.1926,N,11657.4174,W,55.13,269.93,120210,,,A*49
$GPRMC,184754.818,A,3248.1923,N,11657.4736,W,55.15,269.89,120210,,,A*48
$GPRMC,184757.808,A,3248.1920,N,11657.5281,W,55.83,269.96,120210,,,A*40
$GPRMC,184800.798,A,3248.1921,N,11657.5828,W,56.35,269.98,120210,,,A*43
$GPRMC,184803.788,A,3248.1920,N,11657.6392,W,56.67,269.71,120210,,,A*49
$GPRMC,184806.779,A,3248.1921,N,11657.6948,W,55.80,270.09,120210,,,A*43
$GPRMC,184809.769,A,3248.1921,N,11657.7500,W,55.96,269.36,120210,,,A*4F
$GPRMC,184812.759,A,3248.1912,N,11657.8052,W,56.66,269.48,120210,,,A*4E
$GPRMC,184815.749,A,3248.1908,N,11657.8612,W,57.93,269.70,120210,,,A*41
$GPRMC,184818.739,A,3248.1899,N,11657.9182,W,56.84,269.02,120210,,,A*4F
$GPRMC,184821.729,A,3248.1894,N,11657.9733,W,56.32,269.47,120210,,,A*49
$GPRMC,184824.819,A,3248.1888,N,11658.0297,W,54.07,270.33,120210,,,A*4F
$GPRMC,184827.809,A,3248.1891,N,11658.0832,W,54.62,269.84,120210,,,A*47
$GPRMC,184830.799,A,3248.1887,N,11658.1372,W,55.06,269.24,120210,,,A*47
$GPRMC,184833.789,A,3248.1863,N,11658.1913,W,55.11,263.89,120210,,,A*49
$GPRMC,184836.779,A,3248.1791,N,11658.2448,W,54.69,257.46,120210,,,A*4B
$GPRMC,184839.769,A,3248.1673,N,11658.2973,W,55.59,251.39,120210,,,A*41
$GPRMC,184842.759,A,3248.1501,N,11658.3481,W,55.82,244.53,120210,,,A*47
$GPRMC,184845.749,A,3248.1280,N,11658.3963,W,56.15,237.88,120210,,,A*41
$GPRMC,184848.740,A,3248.1005,N,11658.4414,W,56.63,230.89,120210,,,A*47
$GPRMC,184851.730,A,3248.0688,N,11658.4826,W,56.51,224.34,120210,,,A*45
$GPRMC,184854.819,A,3248.0324,N,11658.5201,W,55.67,217.31,120210,,,A*4A
$GPRMC,184857.810,A,3247.9941,N,11658.5512,W,55.16,211.02,120210,,,A*4A
$GPRMC,184900.800,A,3247.9539,N,11658.5767,W,54.29,204.50,120210,,,A*45
$GPRMC,184903.790,A,3247.9115,N,11658.5962,W,55.35,197.81,120210,,,A*48
$GPRMC,184906.780,A,3247.8665,N,11658.6105,W,56.48,191.90,120210,,,A*48
$GPRMC,184909.770,A,3247.8194,N,11658.6189,W,57.91,187.78,120210,,,A*41
$GPRMC,184912.760,A,3247.7713,N,11658.6268,W,58.01,187.86,120210,,,A*47
$GPRMC,184915.750,A,3247.7232,N,11658.6347,W,57.81,187.14,120210,,,A*45
$GPRMC,184918.740,A,3247.6754,N,11658.6424,W,58.57,187.57,120210,,,A*4C
$GPRMC,184921.730,A,3247.6263,N,11658.6501,W,59.03,187.80,120210,,,A*4C
$GPRMC,184924.720,A,3247.5778,N,11658.6580,W,58.60,187.56,120210,,,A*42
$GPRMC,184927.810,A,3247.5290,N,11658.6657,W,56.61,187.20,120210,,,A*49
$GPRMC,184930.800,A,3247.4825,N,11658.6714,W,55.58,182.69,120210,,,A*4C
$GPRMC,184933.790,A,3247.4367,N,11658.6730,W,55.38,180.73,120210,,,A*4D
$GPRMC,184936.781,A,3247.3905,N,11658.6735,W,56.18,180.40,120210,,,A*45
$GPRMC,184939.771,A,3247.3441,N,11658.6737,W,55.33,181.32,120210,,,A*44
$GPRMC,184942.761,A,3247.2979,N,11658.6778,W,55.70,188.34,120210,,,A*4D
$GPRMC,184945.751,A,3247.2531,N,11658.6900,W,55.01,196.50,120210,,,A*43
$GPRMC,184948.741,A,3247.2102,N,11658.7093,W,55.92,204.10,120210,,,A*4F
$GPRMC,184951.731,A,3247.1688,N,11658.7355,W,57.35,212.52,120210,,,A*41
$GPRMC,184954.721,A,3247.1287,N,11658.7670,W,58.06,213.20,120210,,,A*47
$GPRMC,184957.811,A,3247.0866,N,11658.7986,W,58.26,211.53,120210,,,A*4E
$GPRMC,185009.811,A,3246.9139,N,11658.9025,W,56.78,205.32,120210,,,A*4F
$GPRMC,185012.801,A,3246.8702,N,11658.9292,W,56.02,210.45,120210,,,A*4C
$GPRMC,185015.791,A,3246.8334,N,11658.9609,W,56.40,221.03,120210,,,A*4C
$GPRMC,185018.781,A,3246.8011,N,11658.9997,W,56.09,231.28,120210,,,A*49
$GPRMC,185021.771,A,3246.7747,N,11659.0456,W,57.04,241.08,120210,,,A*46
$GPRMC,185024.761,A,3246.7563,N,11659.0965,W,56.87,252.37,120210,,,A*4F
$GPRMC,185027.751,A,3246.7461,N,11659.1512,W,56.60,262.76,120210,,,A*4E
$GPRMC,185030.741,A,3246.7441,N,11659.2065,W,56.19,271.69,120210,,,A*4F
$GPRMC,185033.731,A,3246.7463,N,11659.2611,W,56.28,272.15,120210,,,A*44
$GPRMC,185036.721,A,3246.7480,N,11659.3172,W,57.46,271.54,120210,,,A*41
$GPRMC,185039.811,A,3246.7496,N,11659.3758,W,57.81,272.15,120210,,,A*46
$GPRMC,185042.801,A,3246.7511,N,11659.4302,W,53.91,271.82,120210,,,A*41
$GPRMC,185045.791,A,3246.7528,N,11659.4841,W,56.40,272.08,120210,,,A*4E
$GPRMC,185048.782,A,3246.7545,N,11659.5399,W,57.89,272.01,120210,,,A*48
$GPRMC,185051.772,A,3246.7562,N,11659.5950,W,54.97,272.11,120210,,,A*48
$GPRMC,185054.762,A,3246.7581,N,11659.6493,W,55.97,273.26,120210,,,A*44
$GPRMC,185057.752,A,3246.7602,N,11659.7037,W,54.23,272.91,120210,,,A*44
$GPRMC,185100.742,A,3246.7625,N,11659.7566,W,52.95,272.63,120210,,,A*44
$GPRMC,185103.732,A,3246.7646,N,11659.8093,W,54.47,272.84,120210,,,A*45
$GPRMC,185106.722,A,3246.7671,N,11659.8639,W,54.87,272.88,120210,,,A*43
$GPRMC,185109.812,A,3246.7672,N,11659.9192,W,53.51,266.87,120210,,,A*42
$GPRMC,185112.802,A,3246.7624,N,11659.9711,W,52.78,260.32,120210,,,A*45
$GPRMC,185115.792,A,3246.7527,N,11700.0224,W,53.92,253.01,120210,,,A*46
$GPRMC,185118.782,A,3246.7375,N,11700.0719,W,53.64,247.13,120210,,,A*4F
$GPRMC,185121.772,A,3246.7177,N,11700.1200,W,54.94,239.95,120210,,,A*49
$GPRMC,185124.762,A,3246.6930,N,11700.1664,W,56.93,237.38,120210,,,A*4D
$GPRMC,185127.753,A,3246.6678,N,11700.2144,W,57.02,239.28,120210,,,A*4F
$GPRMC,185130.743,A,3246.6452,N,11700.2667,W,59.21,246.44,120210,,,A*49
$GPRMC,185133.733,A,3246.6270,N,11700.3196,W,59.20,246.92,120210,,,A*49
$GPRMC,185136.723,A,3246.6074,N,11700.3735,W,59.30,246.88,120210,,,A*4E
$GPRMC,185139.813,A,3246.5869,N,11700.4296,W,59.53,246.75,120210,,,A*46
$GPRMC,185142.803,A,3246.5674,N,11700.4832,W,59.12,246.67,120210,,,A*4B
$GPRMC,185145.793,A,3246.5479,N,11700.5371,W,59.42,246.87,120210,,,A*43
$GPRMC,185148.783,A,3246.5286,N,11700.5914,W,59.15,246.61,120210,,,A*4A
$GPRMC,185151.773,A,3246.5094,N,11700.6444,W,58.35,246.96,120210,,,A*4C
$GPRMC,185154.763,A,3246.4903,N,11700.6966,W,57.28,246.67,120210,,,A*4E
$GPRMC,185157.753,A,3246.4717,N,11700.7485,W,57.50,246.84,120210,,,A*46
$GPRMC,185200.743,A,3246.4529,N,11700.8008,W,58.67,247.03,120210,,,A*42
$GPRMC,185203.733,A,3246.4335,N,11700.8542,W,59.10,246.61,120210,,,A*42
$GPRMC,185206.723,A,3246.4138,N,11700.9074,W,58.65,244.51,120210,,,A*4A
$GPRMC,185209.813,A,3246.3910,N,11700.9603,W,58.83,241.08,120210,,,A*4B
$GPRMC,185212.803,A,3246.3661,N,11701.0104,W,59.83,238.40,120210,,,A*42
$GPRMC,185215.793,A,3246.3401,N,11701.0600,W,58.75,238.70,120210,,,A*4F
$GPRMC,185218.784,A,3246.3151,N,11701.1087,W,57.47,238.65,120210,,,A*46
$GPRMC,185221.774,A,3246.2928,N,11701.1590,W,58.38,246.76,120210,,,A*4B
$GPRMC,185224.764,A,3246.2767,N,11701.2137,W,58.48,255.18,120210,,,A*4D
$GPRMC,185227.754,A,3246.2667,N,11701.2707,W,59.67,260.34,120210,,,A*4D
$GPRMC,185230.744,A,3246.2616,N,11701.3293,W,59.79,267.13,120210,,,A*48
$GPRMC,185233.734,A,3246.2619,N,11701.3884,W,60.62,273.26,120210,,,A*4C
$GPRMC,185236.724,A,3246.2678,N,11701.4476,W,61.09,279.73,120210,,,A*4F
$GPRMC,185239.814,A,3246.2812,N,11701.5080,W,60.93,289.79,120210,,,A*45
$GPRMC,185242.804,A,3246.3020,N,11701.5627,W,61.02,297.99,120210,,,A*43
$GPRMC,185245.794,A,3246.3268,N,11701.6147,W,60.82,300.40,120210,,,A*4C
$GPRMC,185248.784,A,3246.3515,N,11701.6679,W,61.50,297.65,120210,,,A*41
$GPRMC,185251.774,A,3246.3746,N,11701.7217,W,60.88,296.65,120210,,,A*4A
$GPRMC,185254.764,A,3246.3977,N,11701.7743,W,59.73,297.10,120210,,,A*4B
$GPRMC,185257.755,A,3246.4199,N,11701.8270,W,59.28,295.07,120210,,,A*45
$GPRMC,185300.745,A,3246.4370,N,11701.8806,W,57.82,286.33,120210,,,A*42
$GPRMC,185303.735,A,3246.4465,N,11701.9366,W,57.72,277.51,120210,,,A*4C
$GPRMC,185306.725,A,3246.4492,N,11701.9929,W,56.59,269.82,120210,,,A*48
$GPRMC,185309.815,A,3246.4452,N,11702.0509,W,57.70,261.14,120210,,,A*4E
$GPRMC,185312.805,A,3246.4347,N,11702.1060,W,57.72,254.13,120210,,,A*4E
$GPRMC,185315.795,A,3246.4215,N,11702.1609,W,57.75,254.39,120210,,,A*4F
$GPRMC,185318.785,A,3246.4084,N,11702.2161,W,58.24,254.30,120210,,,A*41
$GPRMC,185321.775,A,3246.3952,N,11702.2713,W,58.22,254.49,120210,,,A*4A
$GPRMC,185324.765,A,3246.3819,N,11702.3270,W,58.92,254.30,120210,,,A*44
$GPRMC,185327.755,A,3246.3702,N,11702.3829,W,58.67,259.12,120210,,,A*40
$GPRMC,185330.745,A,3246.3640,N,11702.4404,W,58.93,266.88,120210,,,A*40
$GPRMC,185333.735,A,3246.3647,N,11702.4982,W,59.16,275.75,120210,,,A*4C
$GPRMC,185336.726,A,3246.3733,N,11702.5554,W,58.38,284.05,120210,,,A*4B
$GPRMC,185339.815,A,3246.3891,N,11702.6114,W,58.04,292.70,120210,,,A*45
$GPRMC,185342.805,A,3246.4104,N,11702.6615,W,55.90,300.14,120210,,,A*44
$GPRMC,185345.795,A,3246.4343,N,11702.7083,W,56.00,301.19,120210,,,A*4A
$GPRMC,185348.786,A,3246.4589,N,11702.7564,W,57.61,303.18,120210,,,A*4C
$GPRMC,185351.776,A,3246.4838,N,11702.8050,W,56.94,301.55,120210,,,A*41
$GPRMC,185354.766,A,3246.5081,N,11702.8517,W,54.82,301.66,120210,,,A*4D
$GPRMC,185357.756,A,3246.5319,N,11702.8981,W,55.22,299.58,120210,,,A*4A
$GPRMC,185400.746,A,3246.5538,N,11702.9459,W,55.09,296.54,120210,,,A*48
$GPRMC,185403.736,A,3246.5728,N,11702.9945,W,54.49,294.14,120210,,,A*4C
$GPRMC,185406.726,A,3246.5906,N,11703.0444,W,55.56,291.21,120210,,,A*42
$GPRMC,185409.816,A,3246.6065,N,11703.0979,W,55.92,287.65,120210,,,A*42
$GPRMC,185412.806,A,3246.6198,N,11703.1510,W,57.05,285.27,120210,,,A*40
$GPRMC,185415.796,A,3246.6310,N,11703.2058,W,57.29,282.71,120210,,,A*43
$GPRMC,185418.786,A,3246.6411,N,11703.2619,W,59.12,281.78,120210,,,A*46
$GPRMC,185421.776,A,3246.6512,N,11703.3182,W,58.09,281.93,120210,,,A*4B
$GPRMC,185424.766,A,3246.6612,N,11703.3737,W,57.11,282.02,120210,,,A*49
$GPRMC,185427.757,A,3246.6712,N,11703.4288,W,57.41,281.89,120210,,,A*4A
$GPRMC,185430.747,A,3246.6814,N,11703.4845,W,58.75,282.60,120210,,,A*43
$GPRMC,185436.077,A,3246.7029,N,11703.5849,W,58.43,288.57,120210,,,A*40
$GPRMC,185439.764,A,3246.7236,N,11703.6519,W,58.00,288.37,120210,,,A*4C
$GPRMC,185442.754,A,3246.7385,N,11703.7060,W,57.16,288.43,120210,,,A*4B
$GPRMC,185445.744,A,3246.7534,N,11703.7590,W,56.65,287.68,120210,,,A*48
$GPRMC,185448.735,A,3246.7644,N,11703.8136,W,55.51,280.57,120210,,,A*4F
$GPRMC,185451.725,A,3246.7697,N,11703.8662,W,53.80,272.00,120210,,,A*4B
$GPRMC,185454.814,A,3246.7693,N,11703.9199,W,52.54,268.37,120210,,,A*42
$GPRMC,185457.805,A,3246.7681,N,11703.9716,W,54.24,268.21,120210,,,A*45
$GPRMC,185500.795,A,3246.7666,N,11704.0260,W,56.31,268.29,120210,,,A*4D
$GPRMC,185503.785,A,3246.7658,N,11704.0817,W,57.67,268.42,120210,,,A*47
$GPRMC,185506.775,A,3246.7645,N,11704.1389,W,57.82,268.32,120210,,,A*40
