NMEA Sentence Code,UTC Time,Status,Latitude,Latitude Direction,Longitude,Longitude Direction,Speed (knots),Track Angle (degrees true),Date,MagneticVariation,Magnetic Variation Direction,[FAA Mode]-Optional,Checksum
$GPRMC,204812.9,A,3238.537038,N,11659.660029,W,5.7,251.6,060810,,,A*74
$GPRMC,204815.9,A,3238.538678,N,11659.667792,W,10.8,282.1,060810,,,A*4C
$GPRMC,204818.9,A,3238.549094,N,11659.687751,W,23.3,301.5,060810,,,A*47
$GPRMC,204821.2,A,3238.559795,N,11659.705240,W,26.2,303.3,060810,,,A*4F
$GPRMC,204824.9,A,3238.578423,N,11659.736854,W,29.6,305.3,060810,,,A*4E
$GPRMC,204827.9,A,3238.591222,N,11659.759491,W,28.7,304.6,060810,,,A*45
$GPRMC,204830.9,A,3238.604425,N,11659.783555,W,29.9,303.7,060810,,,A*4A
$GPRMC,204833.9,A,3238.619353,N,11659.811842,W,35.0,303.2,060810,,,A*4D
$GPRMC,204836.9,A,3238.640362,N,11659.846892,W,40.5,305.4,060810,,,A*4E
$GPRMC,204839.9,A,3238.657342,N,11659.878856,W,38.1,303.7,060810,,,A*4E
$GPRMC,204842.9,A,3238.672402,N,11659.910107,W,37.0,300.2,060810,,,A*4C
$GPRMC,204845.9,A,3238.689336,N,11659.939806,W,36.3,302.2,060810,,,A*4C
$GPRMC,204848.9,A,3238.706106,N,11659.969337,W,36.6,302.9,060810,,,A*44
$GPRMC,204851.9,A,3238.717347,N,11700.003208,W,36.5,297.4,060810,,,A*4D
$GPRMC,204854.9,A,3238.732026,N,11700.033532,W,34.5,298.1,060810,,,A*4E
$GPRMC,204857.9,A,3238.749674,N,11700.057341,W,32.2,304.3,060810,,,A*47
$GPRMC,204900.9,A,3238.765439,N,11700.086892,W,33.7,301.7,060810,,,A*4D
$GPRMC,204903.9,A,3238.779860,N,11700.112119,W,32.7,303.4,060810,,,A*45
$GPRMC,204906.9,A,3238.796060,N,11700.142194,W,33.0,300.7,060810,,,A*4F
$GPRMC,204909.9,A,3238.809297,N,11700.173361,W,34.6,300.6,060810,,,A*49
$GPRMC,204912.9,A,3238.823693,N,11700.204472,W,36.8,300.9,060810,,,A*4E
$GPRMC,204915.9,A,3238.841654,N,11700.233069,W,37.7,303.4,060810,,,A*4C
$GPRMC,204918.9,A,3238.865954,N,11700.262860,W,39.8,311.7,060810,,,A*4C
$GPRMC,204921.9,A,3238.889610,N,11700.290302,W,39.1,317.2,060810,,,A*43
$GPRMC,204924.9,A,3238.919778,N,11700.307508,W,38.8,331.1,060810,,,A*4D
$GPRMC,204927.9,A,3238.950817,N,11700.326340,W,41.1,332.7,060810,,,A*4E
$GPRMC,204930.9,A,3238.983222,N,11700.346362,W,42.8,330.3,060810,,,A*40
$GPRMC,204933.2,A,3239.002955,N,11700.365031,W,41.4,321.3,060810,,,A*49
$GPRMC,204936.2,A,3239.029229,N,11700.395516,W,42.3,310.1,060810,,,A*4E
$GPRMC,204939.2,A,3239.050018,N,11700.429909,W,43.0,300.1,060810,,,A*4E
$GPRMC,204942.2,A,3239.065930,N,11700.467983,W,43.2,294.1,060810,,,A*41
$GPRMC,204945.2,A,3239.074690,N,11700.510991,W,44.7,284.4,060810,,,A*47
$GPRMC,204948.9,A,3239.080063,N,11700.567290,W,47.6,276.6,060810,,,A*47
$GPRMC,204951.9,A,3239.084983,N,11700.615745,W,49.6,278.3,060810,,,A*42
$GPRMC,204954.9,A,3239.091556,N,11700.664529,W,49.6,279.1,060810,,,A*4A
$GPRMC,204957.9,A,3239.100863,N,11700.710822,W,48.4,281.2,060810,,,A*48
$GPRMC,205000.2,A,3239.106997,N,11700.747287,W,48.2,281.1,060810,,,A*47
$GPRMC,205003.9,A,3239.113582,N,11700.803151,W,43.4,277.5,060810,,,A*44
$GPRMC,205006.9,A,3239.118968,N,11700.836685,W,31.4,279.3,060810,,,A*47
$GPRMC,205009.9,A,3239.118863,N,11700.857472,W,19.4,270.8,060810,,,A*47
$GPRMC,205012.9,A,3239.120548,N,11700.867159,W,9.4,271.6,060810,,,A*73
$GPRMC,205027.9,A,3239.125229,N,11700.875841,W,7.3,284.4,060810,,,A*72
$GPRMC,205030.2,A,3239.127155,N,11700.886280,W,16.0,287.1,060810,,,A*4B
$GPRMC,205033.9,A,3239.133262,N,11700.913837,W,27.5,283.9,060810,,,A*41
$GPRMC,205036.9,A,3239.148011,N,11700.943241,W,32.1,295.3,060810,,,A*4D
$GPRMC,205039.9,A,3239.166139,N,11700.973434,W,40.1,304.8,060810,,,A*45
$GPRMC,205042.9,A,3239.189691,N,11701.008538,W,44.6,306.5,060810,,,A*48
$GPRMC,205045.9,A,3239.211744,N,11701.045014,W,44.4,306.5,060810,,,A*44
$GPRMC,205048.9,A,3239.233607,N,11701.080494,W,44.6,306.3,060810,,,A*4E
$GPRMC,205051.9,A,3239.256888,N,11701.114908,W,44.7,306.4,060810,,,A*4E
$GPRMC,205054.9,A,3239.272815,N,11701.154240,W,44.3,296.2,060810,,,A*40
$GPRMC,205057.2,A,3239.276583,N,11701.189466,W,44.7,281.5,060810,,,A*49
$GPRMC,205100.9,A,3239.283233,N,11701.242700,W,44.1,276.6,060810,,,A*4D
$GPRMC,205103.9,A,3239.283358,N,11701.282994,W,39.6,269.7,060810,,,A*4F
$GPRMC,205106.9,A,3239.284472,N,11701.315111,W,30.5,270.7,060810,,,A*4A
$GPRMC,205109.9,A,3239.283328,N,11701.342251,W,25.6,268.3,060810,,,A*45
$GPRMC,205112.2,A,3239.282212,N,11701.361877,W,26.6,268.6,060810,,,A*44
$GPRMC,205115.2,A,3239.278570,N,11701.391338,W,31.8,266.5,060810,,,A*4F
$GPRMC,205119.2,A,3239.278403,N,11701.441138,W,36.1,268.4,060810,,,A*4F
$GPRMC,205122.2,A,3239.282641,N,11701.480431,W,39.8,273.9,060810,,,A*46
$GPRMC,205125.2,A,3239.291727,N,11701.519708,W,40.4,284.2,060810,,,A*4B
$GPRMC,205128.9,A,3239.313452,N,11701.566258,W,43.8,295.2,060810,,,A*40
$GPRMC,205132.2,A,3239.339157,N,11701.605750,W,45.3,306.2,060810,,,A*45
$GPRMC,205135.2,A,3239.363677,N,11701.641012,W,46.3,306.7,060810,,,A*4F
$GPRMC,205138.2,A,3239.388344,N,11701.677008,W,46.6,307.9,060810,,,A*46
$GPRMC,205141.2,A,3239.411319,N,11701.713850,W,45.9,306.7,060810,,,A*42
$GPRMC,205144.2,A,3239.432659,N,11701.746691,W,44.6,310.2,060810,,,A*48
$GPRMC,205147.9,A,3239.462147,N,11701.784428,W,40.9,317.1,060810,,,A*4C
$GPRMC,205150.2,A,3239.484714,N,11701.800536,W,39.1,329.2,060810,,,A*4C
$GPRMC,205153.9,A,3239.522666,N,11701.819496,W,38.2,334.3,060810,,,A*41
$GPRMC,205157.2,A,3239.559027,N,11701.837241,W,39.2,336.2,060810,,,A*43
$GPRMC,205200.9,A,3239.594895,N,11701.851657,W,33.6,340.4,060810,,,A*43
$GPRMC,205203.9,A,3239.619346,N,11701.849291,W,29.9,358.3,060810,,,A*4E
$GPRMC,205206.0,A,3239.619330,N,11701.851734,W,19.9,359.6,060810,,,A*47
$GPRMC,205209.9,A,3239.622998,N,11701.848922,W,7.6,30.0,060810,,,A*4A
$GPRMC,205212.9,A,3239.623885,N,11701.844882,W,5.4,45.3,060810,,,A*4A
$GPRMC,205239.2,A,3239.621305,N,11701.853427,W,8.5,335.1,060810,,,A*76
$GPRMC,205242.2,A,3239.633010,N,11701.859184,W,14.1,338.9,060810,,,A*44
$GPRMC,205245.9,A,3239.649556,N,11701.864990,W,16.8,343.0,060810,,,A*4F
$GPRMC,205248.9,A,3239.663852,N,11701.869885,W,16.4,342.7,060810,,,A*41
$GPRMC,205251.0,A,3239.674874,N,11701.870282,W,17.0,352.3,060810,,,A*47
$GPRMC,205254.9,A,3239.689459,N,11701.861393,W,14.6,49.3,060810,,,A*77
$GPRMC,205257.9,A,3239.699069,N,11701.839615,W,25.4,63.1,060810,,,A*7E
$GPRMC,205300.9,A,3239.713369,N,11701.809219,W,31.5,64.0,060810,,,A*74
$GPRMC,205303.9,A,3239.721682,N,11701.779852,W,32.7,66.6,060810,,,A*7E
$GPRMC,205306.0,A,3239.729927,N,11701.757627,W,35.2,63.1,060810,,,A*7A
$GPRMC,205309.9,A,3239.748591,N,11701.710850,W,37.2,62.3,060810,,,A*76
$GPRMC,205312.2,A,3239.760271,N,11701.687129,W,36.3,59.4,060810,,,A*73
$GPRMC,205315.2,A,3239.772793,N,11701.662669,W,29.5,57.7,060810,,,A*73
$GPRMC,205318.9,A,3239.787394,N,11701.634459,W,24.4,54.3,060810,,,A*75
$GPRMC,205321.9,A,3239.799179,N,11701.622824,W,17.3,46.6,060810,,,A*71
$GPRMC,205324.9,A,3239.803143,N,11701.615755,W,10.7,52.4,060810,,,A*78
$GPRMC,205327.2,A,3239.805756,N,11701.611106,W,10.5,48.8,060810,,,A*75
$GPRMC,205330.9,A,3239.817771,N,11701.594862,W,17.7,53.9,060810,,,A*75
$GPRMC,205333.9,A,3239.827789,N,11701.578750,W,23.4,51.9,060810,,,A*78
$GPRMC,205336.2,A,3239.841152,N,11701.558922,W,29.8,49.8,060810,,,A*71
$GPRMC,205339.2,A,3239.859080,N,11701.534213,W,32.1,48.0,060810,,,A*70
$GPRMC,205342.2,A,3239.879746,N,11701.507978,W,32.8,48.5,060810,,,A*79
$GPRMC,205345.9,A,3239.900303,N,11701.478742,W,30.8,52.8,060810,,,A*75
$GPRMC,205348.2,A,3239.911818,N,11701.461179,W,28.7,50.7,060810,,,A*7F
$GPRMC,205351.0,A,3239.925557,N,11701.441300,W,28.4,47.3,060810,,,A*7B
$GPRMC,205354.9,A,3239.949964,N,11701.416461,W,30.9,36.7,060810,,,A*75
$GPRMC,205357.9,A,3239.973900,N,11701.400990,W,32.6,27.5,060810,,,A*76
$GPRMC,205400.2,A,3239.994932,N,11701.392382,W,32.8,16.8,060810,,,A*74
$GPRMC,205403.9,A,3240.029120,N,11701.384288,W,32.8,7.7,060810,,,A*45
$GPRMC,205406.2,A,3240.048627,N,11701.380576,W,31.2,8.1,060810,,,A*4E
$GPRMC,205409.2,A,3240.070508,N,11701.379921,W,28.2,4.8,060810,,,A*41
$GPRMC,205412.9,A,3240.098888,N,11701.379085,W,23.9,4.5,060810,,,A*49
$GPRMC,205415.0,A,3240.108973,N,11701.378638,W,19.2,8.7,060810,,,A*47
$GPRMC,205418.9,A,3240.117056,N,11701.376720,W,8.4,20.8,060810,,,A*46
$GPRMC,205421.9,A,3240.119655,N,11701.375384,W,5.4,31.0,060810,,,A*4B
$GPRMC,205424.9,A,3240.123886,N,11701.373682,W,5.0,19.1,060810,,,A*4D
$GPRMC,205507.9,A,3240.112482,N,11701.388705,W,5.3,268.2,060810,,,A*79
$GPRMC,205510.2,A,3240.106838,N,11701.402408,W,12.3,249.2,060810,,,A*42
$GPRMC,205513.0,A,3240.099536,N,11701.444313,W,31.5,253.2,060810,,,A*44
$GPRMC,205516.9,A,3240.099473,N,11701.486923,W,25.6,273.8,060810,,,A*41
$GPRMC,205519.9,A,3240.109556,N,11701.501638,W,13.9,313.0,060810,,,A*4E
$GPRMC,205522.9,A,3240.128544,N,11701.500931,W,20.8,354.2,060810,,,A*41
$GPRMC,205525.9,A,3240.162377,N,11701.498181,W,36.3,357.8,060810,,,A*48
$GPRMC,205529.2,A,3240.201195,N,11701.496769,W,41.4,1.2,060810,,,A*44
$GPRMC,205532.2,A,3240.237637,N,11701.499377,W,41.6,359.2,060810,,,A*4C
$GPRMC,205535.9,A,3240.283987,N,11701.508496,W,44.7,349.7,060810,,,A*4A
$GPRMC,205538.2,A,3240.311326,N,11701.516625,W,43.4,351.2,060810,,,A*4A
$GPRMC,205541.2,A,3240.346683,N,11701.519214,W,44.1,359.8,060810,,,A*45
$GPRMC,205544.9,A,3240.388895,N,11701.512936,W,42.1,7.3,060810,,,A*45
$GPRMC,205547.9,A,3240.416714,N,11701.505792,W,33.5,8.8,060810,,,A*40
$GPRMC,205550.9,A,3240.431014,N,11701.497651,W,21.0,18.6,060810,,,A*79
$GPRMC,205553.9,A,3240.438445,N,11701.494060,W,12.0,24.9,060810,,,A*74
$GPRMC,205556.9,A,3240.443308,N,11701.490978,W,10.1,27.9,060810,,,A*77
$GPRMC,205559.9,A,3240.451316,N,11701.483699,W,15.4,33.0,060810,,,A*7A
$GPRMC,205602.2,A,3240.458852,N,11701.473208,W,19.9,42.2,060810,,,A*78
$GPRMC,205605.2,A,3240.471675,N,11701.459154,W,22.1,42.8,060810,,,A*77
$GPRMC,205609.2,A,3240.487467,N,11701.443961,W,16.5,32.1,060810,,,A*7B
$GPRMC,205612.9,A,3240.500674,N,11701.446174,W,14.3,344.9,060810,,,A*43
$GPRMC,205615.9,A,3240.518485,N,11701.460326,W,23.2,330.6,060810,,,A*49
$GPRMC,205618.9,A,3240.536981,N,11701.472598,W,27.8,334.9,060810,,,A*44
$GPRMC,205621.9,A,3240.561910,N,11701.482174,W,32.6,338.5,060810,,,A*47
$GPRMC,205624.2,A,3240.582031,N,11701.491967,W,35.1,340.0,060810,,,A*4C
$GPRMC,205627.2,A,3240.610344,N,11701.504163,W,34.5,339.9,060810,,,A*45
$GPRMC,205630.0,A,3240.636899,N,11701.513039,W,33.3,340.6,060810,,,A*46
$GPRMC,205633.9,A,3240.671038,N,11701.528661,W,34.1,340.2,060810,,,A*4E
$GPRMC,205636.9,A,3240.696886,N,11701.541221,W,33.1,339.7,060810,,,A*4C
$GPRMC,205639.9,A,3240.722218,N,11701.551906,W,31.8,334.9,060810,,,A*47
$GPRMC,205642.9,A,3240.741358,N,11701.570626,W,29.9,320.5,060810,,,A*44
$GPRMC,205645.9,A,3240.751487,N,11701.593617,W,27.7,304.1,060810,,,A*4A
$GPRMC,205648.9,A,3240.761727,N,11701.617819,W,27.6,297.9,060810,,,A*40
$GPRMC,205651.9,A,3240.776349,N,11701.642318,W,27.4,302.4,060810,,,A*4A
$GPRMC,205654.9,A,3240.788452,N,11701.666162,W,25.0,305.2,060810,,,A*4D
$GPRMC,205657.9,A,3240.799194,N,11701.677799,W,14.7,316.4,060810,,,A*42
$GPRMC,205700.9,A,3240.806276,N,11701.685762,W,13.7,314.3,060810,,,A*4C
$GPRMC,205703.9,A,3240.814303,N,11701.702105,W,19.9,310.0,060810,,,A*45
$GPRMC,205706.9,A,3240.828407,N,11701.714642,W,20.8,315.9,060810,,,A*48
$GPRMC,205709.9,A,3240.839358,N,11701.723697,W,15.6,321.6,060810,,,A*46
$GPRMC,205712.9,A,3240.844249,N,11701.732079,W,6.4,315.1,060810,,,A*71
$GPRMC,205742.9,A,3240.848662,N,11701.736198,W,7.1,305.6,060810,,,A*7D
$GPRMC,205745.9,A,3240.855666,N,11701.748122,W,16.1,307.0,060810,,,A*4E
$GPRMC,205748.9,A,3240.866628,N,11701.761047,W,17.6,313.7,060810,,,A*44
$GPRMC,205751.9,A,3240.875755,N,11701.772930,W,12.9,312.1,060810,,,A*43
$GPRMC,205754.9,A,3240.879881,N,11701.775058,W,4.8,334.3,060810,,,A*7C
$GPRMC,205757.2,A,3240.885600,N,11701.776269,W,9.3,341.8,060810,,,A*7C
$GPRMC,205800.9,A,3240.896587,N,11701.764916,W,12.6,58.1,060810,,,A*79
$GPRMC,205803.9,A,3240.909408,N,11701.741249,W,23.2,58.9,060810,,,A*73
$GPRMC,205806.9,A,3240.942908,N,11701.705554,W,40.6,47.8,060810,,,A*71
$GPRMC,205809.9,A,3240.971421,N,11701.669191,W,45.6,44.9,060810,,,A*79
$GPRMC,205812.9,A,3240.999635,N,11701.634711,W,47.1,45.0,060810,,,A*79
$GPRMC,205815.2,A,3241.022001,N,11701.609526,W,48.0,44.5,060810,,,A*7E
$GPRMC,205818.2,A,3241.053283,N,11701.574865,W,51.0,43.4,060810,,,A*70
$GPRMC,205821.2,A,3241.085628,N,11701.531938,W,59.3,47.5,060810,,,A*72
$GPRMC,205824.0,A,3241.115313,N,11701.491459,W,64.5,49.8,060810,,,A*7A
$GPRMC,205827.9,A,3241.161595,N,11701.422616,W,65.1,51.7,060810,,,A*79
$GPRMC,205831.2,A,3241.200913,N,11701.367240,W,65.5,49.6,060810,,,A*7E
$GPRMC,205834.2,A,3241.231445,N,11701.319782,W,63.1,50.5,060810,,,A*7C
$GPRMC,205837.2,A,3241.265945,N,11701.273289,W,62.3,48.5,060810,,,A*7A
$GPRMC,205840.0,A,3241.298585,N,11701.230703,W,62.8,47.3,060810,,,A*78
$GPRMC,205843.9,A,3241.344521,N,11701.173544,W,60.1,47.2,060810,,,A*73
$GPRMC,205846.2,A,3241.371064,N,11701.143168,W,58.9,45.4,060810,,,A*71
$GPRMC,205849.2,A,3241.405001,N,11701.104246,W,57.7,45.2,060810,,,A*72
$GPRMC,205852.9,A,3241.450158,N,11701.053393,W,58.5,44.4,060810,,,A*7E
$GPRMC,205855.9,A,3241.486883,N,11701.011373,W,62.3,43.2,060810,,,A*7B
$GPRMC,205858.9,A,3241.516750,N,11700.973441,W,56.0,45.6,060810,,,A*73
$GPRMC,205901.9,A,3241.556670,N,11700.937357,W,56.7,38.8,060810,,,A*7A
$GPRMC,205904.9,A,3241.600253,N,11700.903091,W,58.3,34.6,060810,,,A*7C
$GPRMC,205907.2,A,3241.632544,N,11700.878307,W,60.9,32.7,060810,,,A*73
$GPRMC,205910.9,A,3241.684822,N,11700.842413,W,60.2,29.5,060810,,,A*76
$GPRMC,205913.9,A,3241.735809,N,11700.813407,W,62.4,26.1,060810,,,A*79
$GPRMC,205916.9,A,3241.784018,N,11700.787795,W,63.0,25.0,060810,,,A*73
$GPRMC,205919.2,A,3241.822128,N,11700.767184,W,65.4,25.3,060810,,,A*7F
$GPRMC,205922.9,A,3241.876818,N,11700.736539,W,62.2,24.8,060810,,,A*7A
$GPRMC,205925.9,A,3241.926832,N,11700.712940,W,63.6,21.9,060810,,,A*74
$GPRMC,205928.9,A,3241.976682,N,11700.694288,W,62.4,18.2,060810,,,A*7B
$GPRMC,205932.2,A,3242.034832,N,11700.671707,W,62.4,16.2,060810,,,A*75
$GPRMC,205935.0,A,3242.077929,N,11700.660616,W,60.7,12.4,060810,,,A*7E
$GPRMC,205938.9,A,3242.144000,N,11700.648361,W,61.2,6.6,060810,,,A*45
$GPRMC,205941.9,A,3242.192031,N,11700.642581,W,60.3,4.2,060810,,,A*46
$GPRMC,205944.9,A,3242.243370,N,11700.642887,W,61.2,359.6,060810,,,A*4E
$GPRMC,205950.9,A,3242.347852,N,11700.650622,W,62.5,354.9,060810,,,A*41
$GPRMC,205953.9,A,3242.399443,N,11700.663397,W,61.7,349.4,060810,,,A*46
$GPRMC,205956.9,A,3242.445521,N,11700.679924,W,60.4,345.6,060810,,,A*45
$GPRMC,205959.9,A,3242.493391,N,11700.694905,W,61.3,343.9,060810,,,A*43
$GPRMC,210002.9,A,3242.542223,N,11700.713373,W,62.3,342.2,060810,,,A*49
$GPRMC,210005.9,A,3242.587605,N,11700.736844,W,60.4,339.8,060810,,,A*4C
$GPRMC,210008.9,A,3242.634919,N,11700.756072,W,61.2,340.6,060810,,,A*44
$GPRMC,210011.9,A,3242.682052,N,11700.777896,W,59.2,339.6,060810,,,A*43
$GPRMC,210014.9,A,3242.731559,N,11700.795609,W,60.3,341.5,060810,,,A*42
$GPRMC,210017.9,A,3242.777737,N,11700.814622,W,59.4,341.1,060810,,,A*4F
$GPRMC,210020.2,A,3242.814685,N,11700.829107,W,60.0,341.3,060810,,,A*40
$GPRMC,210023.9,A,3242.875730,N,11700.847212,W,60.4,345.9,060810,,,A*45
$GPRMC,210026.9,A,3242.924699,N,11700.859693,W,61.5,350.4,060810,,,A*4C
$GPRMC,210029.9,A,3242.973936,N,11700.867274,W,60.2,352.7,060810,,,A*4C
$GPRMC,210032.9,A,3243.026685,N,11700.871198,W,61.3,356.5,060810,,,A*49
$GPRMC,210035.9,A,3243.079127,N,11700.870214,W,62.2,0.0,060810,,,A*4A
$GPRMC,210038.9,A,3243.128123,N,11700.868231,W,59.9,1.8,060810,,,A*42
$GPRMC,210041.9,A,3243.180914,N,11700.870502,W,61.2,359.3,060810,,,A*49
$GPRMC,210044.9,A,3243.232160,N,11700.870792,W,60.5,359.8,060810,,,A*4B
$GPRMC,210047.9,A,3243.280916,N,11700.871096,W,59.4,359.3,060810,,,A*4A
$GPRMC,210050.9,A,3243.335099,N,11700.869698,W,61.4,0.6,060810,,,A*4D
$GPRMC,210053.9,A,3243.384792,N,11700.871328,W,60.4,359.4,060810,,,A*43
$GPRMC,210056.9,A,3243.433370,N,11700.872191,W,60.1,0.0,060810,,,A*48
$GPRMC,210059.9,A,3243.484180,N,11700.872370,W,60.9,359.4,060810,,,A*48
$GPRMC,210102.9,A,3243.535255,N,11700.872978,W,61.3,358.0,060810,,,A*4B
$GPRMC,210105.9,A,3243.589179,N,11700.873468,W,63.0,357.9,060810,,,A*4C
$GPRMC,210108.9,A,3243.640557,N,11700.878193,W,62.3,356.4,060810,,,A*4B
$GPRMC,210111.9,A,3243.691331,N,11700.882378,W,60.7,355.8,060810,,,A*42
$GPRMC,210114.9,A,3243.740454,N,11700.889984,W,60.1,353.7,060810,,,A*43
$GPRMC,210117.9,A,3243.791205,N,11700.894255,W,60.5,354.3,060810,,,A*42
$GPRMC,210120.9,A,3243.843704,N,11700.901927,W,61.9,353.0,060810,,,A*48
$GPRMC,210123.2,A,3243.880808,N,11700.909212,W,60.9,352.2,060810,,,A*4B
$GPRMC,210126.9,A,3243.943107,N,11700.917041,W,60.6,352.8,060810,,,A*43
$GPRMC,210129.9,A,3243.993013,N,11700.926211,W,60.6,351.0,060810,,,A*4B
$GPRMC,210132.9,A,3244.043568,N,11700.933711,W,60.6,352.6,060810,,,A*4F
$GPRMC,210135.9,A,3244.094552,N,11700.943302,W,60.8,353.5,060810,,,A*46
$GPRMC,210138.2,A,3244.132881,N,11700.943814,W,61.3,356.9,060810,,,A*41
$GPRMC,210141.0,A,3244.179850,N,11700.945376,W,61.8,358.3,060810,,,A*48
$GPRMC,210144.9,A,3244.241147,N,11700.941911,W,58.4,3.4,060810,,,A*40
$GPRMC,210147.9,A,3244.293572,N,11700.939614,W,60.1,3.2,060810,,,A*43
$GPRMC,210150.9,A,3244.344266,N,11700.935235,W,60.5,2.0,060810,,,A*40
$GPRMC,210153.9,A,3244.395934,N,11700.939644,W,60.5,355.0,060810,,,A*4C
$GPRMC,210156.9,A,3244.442620,N,11700.948911,W,56.7,348.9,060810,,,A*45
$GPRMC,210159.9,A,3244.483514,N,11700.964782,W,53.7,340.1,060810,,,A*4C
$GPRMC,210203.2,A,3244.529120,N,11700.987557,W,51.9,337.1,060810,,,A*42
$GPRMC,210206.2,A,3244.566542,N,11701.009005,W,50.4,335.2,060810,,,A*4D
$GPRMC,210209.2,A,3244.603767,N,11701.029837,W,49.1,334.9,060810,,,A*4B
$GPRMC,210212.2,A,3244.639454,N,11701.050040,W,47.9,335.2,060810,,,A*41
$GPRMC,210215.2,A,3244.676107,N,11701.069161,W,47.3,335.7,060810,,,A*49
$GPRMC,210218.9,A,3244.716365,N,11701.091503,W,44.6,338.4,060810,,,A*41
$GPRMC,210222.2,A,3244.755843,N,11701.103096,W,45.6,349.1,060810,,,A*4A
$GPRMC,210225.0,A,3244.796739,N,11701.098381,W,50.3,6.5,060810,,,A*49
$GPRMC,210228.9,A,3244.851873,N,11701.083001,W,51.3,18.6,060810,,,A*74
$GPRMC,210231.2,A,3244.878213,N,11701.062150,W,49.9,32.4,060810,,,A*73
$GPRMC,210234.9,A,3244.913178,N,11701.022923,W,47.4,42.4,060810,,,A*73
$GPRMC,210237.9,A,3244.945199,N,11700.988619,W,49.7,43.3,060810,,,A*79
$GPRMC,210240.9,A,3244.977037,N,11700.949336,W,53.0,44.4,060810,,,A*74
$GPRMC,210243.9,A,3245.014266,N,11700.909323,W,57.8,43.8,060810,,,A*7B
$GPRMC,210246.9,A,3245.048460,N,11700.869058,W,60.2,46.2,060810,,,A*7E
$GPRMC,210249.2,A,3245.075897,N,11700.834549,W,61.8,45.6,060810,,,A*71
$GPRMC,210252.9,A,3245.123415,N,11700.778529,W,63.9,44.2,060810,,,A*73
$GPRMC,210255.9,A,3245.159269,N,11700.738188,W,60.8,44.4,060810,,,A*7B
$GPRMC,210258.2,A,3245.184320,N,11700.708754,W,58.4,44.3,060810,,,A*75
$GPRMC,210301.0,A,3245.219127,N,11700.669763,W,62.2,43.7,060810,,,A*76
$GPRMC,210304.0,A,3245.257857,N,11700.625745,W,62.8,43.4,060810,,,A*72
$GPRMC,210307.9,A,3245.307697,N,11700.571873,W,62.7,43.5,060810,,,A*78
$GPRMC,210310.9,A,3245.344536,N,11700.531334,W,60.6,43.8,060810,,,A*73
$GPRMC,210313.9,A,3245.384613,N,11700.489384,W,62.1,43.1,060810,,,A*7D
$GPRMC,210316.9,A,3245.417671,N,11700.450898,W,59.1,44.2,060810,,,A*7F
$GPRMC,210320.2,A,3245.455174,N,11700.407589,W,58.4,45.2,060810,,,A*7F
$GPRMC,210323.9,A,3245.494195,N,11700.357519,W,57.2,47.5,060810,,,A*72
$GPRMC,210326.9,A,3245.524504,N,11700.318650,W,56.1,48.8,060810,,,A*74
$GPRMC,210329.9,A,3245.552981,N,11700.281721,W,51.9,47.8,060810,,,A*7D
$GPRMC,210333.2,A,3245.581269,N,11700.242992,W,46.3,47.6,060810,,,A*75
$GPRMC,210336.2,A,3245.604649,N,11700.214956,W,43.0,42.8,060810,,,A*7E
$GPRMC,210339.9,A,3245.645313,N,11700.179475,W,49.9,34.1,060810,,,A*7A
$GPRMC,210342.9,A,3245.685659,N,11700.156597,W,52.4,26.1,060810,,,A*75
$GPRMC,210345.9,A,3245.727435,N,11700.135861,W,54.1,20.1,060810,,,A*77
$GPRMC,210348.9,A,3245.771835,N,11700.121883,W,55.0,13.2,060810,,,A*7F
$GPRMC,210351.9,A,3245.818835,N,11700.113293,W,56.0,6.7,060810,,,A*4F
$GPRMC,210354.9,A,3245.864540,N,11700.114202,W,55.8,359.8,060810,,,A*4C
$GPRMC,210357.9,A,3245.913168,N,11700.113604,W,57.7,358.1,060810,,,A*40
$GPRMC,210400.9,A,3245.960590,N,11700.118288,W,58.2,356.5,060810,,,A*49
$GPRMC,210403.9,A,3246.007941,N,11700.121819,W,56.6,356.6,060810,,,A*40
$GPRMC,210406.9,A,3246.054227,N,11700.122792,W,55.6,0.3,060810,,,A*41
$GPRMC,210409.9,A,3246.103275,N,11700.118441,W,57.7,3.5,060810,,,A*48
$GPRMC,210412.9,A,3246.154393,N,11700.113578,W,60.0,4.6,060810,,,A*4E
$GPRMC,210415.9,A,3246.204285,N,11700.110376,W,59.6,4.4,060810,,,A*4C
$GPRMC,210418.9,A,3246.257422,N,11700.103338,W,62.0,2.8,060810,,,A*40
$GPRMC,210421.9,A,3246.308405,N,11700.105857,W,62.8,356.2,060810,,,A*40
$GPRMC,210424.2,A,3246.347022,N,11700.113431,W,62.2,352.1,060810,,,A*42
$GPRMC,210427.9,A,3246.408464,N,11700.131426,W,61.6,345.5,060810,,,A*43
$GPRMC,210430.9,A,3246.457089,N,11700.145463,W,61.5,345.6,060810,,,A*4A
$GPRMC,210433.9,A,3246.504010,N,11700.163566,W,59.9,344.5,060810,,,A*4B
$GPRMC,210436.9,A,3246.553857,N,11700.177877,W,58.8,346.6,060810,,,A*4E
$GPRMC,210439.9,A,3246.593543,N,11700.189946,W,49.9,346.5,060810,,,A*45
$GPRMC,210442.9,A,3246.631297,N,11700.199095,W,46.4,347.7,060810,,,A*4B
$GPRMC,210445.9,A,3246.665868,N,11700.209968,W,44.5,346.1,060810,,,A*42
$GPRMC,210448.2,A,3246.693585,N,11700.217415,W,44.4,347.4,060810,,,A*4E
$GPRMC,210452.2,A,3246.743661,N,11700.225117,W,42.1,352.6,060810,,,A*43
$GPRMC,210455.9,A,3246.775868,N,11700.233115,W,32.1,351.6,060810,,,A*4C
$GPRMC,210458.2,A,3246.794306,N,11700.231487,W,28.2,1.2,060810,,,A*40
$GPRMC,210501.9,A,3246.794464,N,11700.186963,W,22.7,72.5,060810,,,A*71
$GPRMC,210504.9,A,3246.773692,N,11700.164588,W,22.0,125.4,060810,,,A*46
$GPRMC,210508.2,A,3246.745838,N,11700.164630,W,20.5,180.8,060810,,,A*4E
$GPRMC,210511.2,A,3246.715088,N,11700.191562,W,36.4,217.9,060810,,,A*44
$GPRMC,210514.2,A,3246.689987,N,11700.221325,W,41.0,225.4,060810,,,A*46
$GPRMC,210517.2,A,3246.665339,N,11700.262873,W,47.5,234.2,060810,,,A*42
$GPRMC,210520.9,A,3246.636567,N,11700.321586,W,56.7,241.0,060810,,,A*45
$GPRMC,210523.9,A,3246.611323,N,11700.377871,W,62.6,244.9,060810,,,A*49
$GPRMC,210526.0,A,3246.597355,N,11700.414588,W,62.0,245.5,060810,,,A*4B
$GPRMC,210529.9,A,3246.572666,N,11700.488456,W,58.0,247.8,060810,,,A*42
$GPRMC,210532.9,A,3246.556046,N,11700.535766,W,52.8,247.5,060810,,,A*42
$GPRMC,210535.9,A,3246.539400,N,11700.584568,W,54.0,247.3,060810,,,A*44
$GPRMC,210538.9,A,3246.520133,N,11700.633290,W,53.0,247.2,060810,,,A*4D
$GPRMC,210541.2,A,3246.509022,N,11700.670295,W,52.4,249.8,060810,,,A*41
$GPRMC,210544.9,A,3246.492190,N,11700.728320,W,48.0,251.0,060810,,,A*49
$GPRMC,210547.9,A,3246.483736,N,11700.761584,W,34.5,248.8,060810,,,A*4B
$GPRMC,210550.9,A,3246.483061,N,11700.788591,W,27.4,267.8,060810,,,A*45
$GPRMC,210553.9,A,3246.496123,N,11700.804644,W,21.5,307.2,060810,,,A*4F
$GPRMC,210556.9,A,3246.512462,N,11700.811278,W,18.0,336.0,060810,,,A*47
$GPRMC,210559.9,A,3246.522769,N,11700.812934,W,9.7,353.0,060810,,,A*77
$GPRMC,210620.9,A,3246.542257,N,11700.809597,W,8.7,0.9,060810,,,A*76
$GPRMC,210623.9,A,3246.554249,N,11700.806780,W,13.8,6.0,060810,,,A*4C
$GPRMC,210626.9,A,3246.564940,N,11700.806627,W,13.3,342.7,060810,,,A*4B
$GPRMC,210629.9,A,3246.571401,N,11700.820424,W,19.0,294.4,060810,,,A*4D
$GPRMC,210632.9,A,3246.574764,N,11700.844459,W,23.4,280.4,060810,,,A*42
$GPRMC,210635.9,A,3246.577531,N,11700.868353,W,22.0,278.1,060810,,,A*40
$GPRMC,210638.9,A,3246.578506,N,11700.886186,W,17.6,278.7,060810,,,A*4A
$GPRMC,210641.9,A,3246.581633,N,11700.902610,W,15.9,280.1,060810,,,A*4E
$GPRMC,210708.9,A,3246.584211,N,11700.915237,W,5.8,281.2,060810,,,A*76
$GPRMC,210711.9,A,3246.585539,N,11700.924429,W,10.0,283.4,060810,,,A*41
$GPRMC,210714.9,A,3246.587179,N,11700.941335,W,17.5,279.8,060810,,,A*44
$GPRMC,210717.9,A,3246.590529,N,11700.959633,W,18.0,281.1,060810,,,A*4E
$GPRMC,210720.9,A,3246.591770,N,11700.977742,W,20.1,278.5,060810,,,A*46
$GPRMC,210723.9,A,3246.596119,N,11700.999837,W,24.7,281.3,060810,,,A*44
$GPRMC,210726.9,A,3246.597937,N,11701.025178,W,24.2,281.2,060810,,,A*4D
$GPRMC,210729.9,A,3246.605984,N,11701.048964,W,24.3,293.1,060810,,,A*4D
$GPRMC,210732.9,A,3246.617888,N,11701.062397,W,17.2,306.5,060810,,,A*4F
$GPRMC,210735.2,A,3246.623838,N,11701.067344,W,9.4,319.7,060810,,,A*71
$GPRMC,210738.9,A,3246.632790,N,11701.071851,W,5.5,335.4,060810,,,A*72
$GPRMC,210823.9,A,3246.637078,N,11701.076996,W,5.8,318.1,060810,,,A*79
$GPRMC,210826.9,A,3246.645738,N,11701.088532,W,12.7,305.5,060810,,,A*48
$GPRMC,210829.9,A,3246.647599,N,11701.101414,W,11.8,266.9,060810,,,A*4D
$GPRMC,210832.9,A,3246.635691,N,11701.117515,W,21.5,233.4,060810,,,A*4D
$GPRMC,210836.2,A,3246.616599,N,11701.144153,W,31.4,231.5,060810,,,A*4B
$GPRMC,210839.2,A,3246.598242,N,11701.173241,W,35.2,235.1,060810,,,A*46
$GPRMC,210842.9,A,3246.577808,N,11701.213327,W,37.9,242.0,060810,,,A*48
$GPRMC,210845.9,A,3246.565904,N,11701.249400,W,37.9,247.6,060810,,,A*4F
$GPRMC,210848.9,A,3246.556059,N,11701.283682,W,36.8,248.7,060810,,,A*43
