NMEA Sentence Code,UTC Time,Status,Latitude,Latitude Direction,Longitude,Longitude Direction,Speed (knots),Track Angle (degrees true),Date,MagneticVariation,Magnetic Variation Direction,[FAA Mode]-Optional,Checksum
$GPRMC,193120.1,A,3251.9152,N,11713.4974,W,22.20,41.10,030410,,*19
$GPRMC,193123.1,A,3251.9384,N,11713.4875,W,27.80,22.80,030410,,*10
$GPRMC,193126.1,A,3251.9608,N,11713.4794,W,28.50,10.80,030410,,*17
$GPRMC,193129.1,A,3251.9855,N,11713.4788,W,29.00,0.30,030410,,*2D
$GPRMC,193132.1,A,3252.0096,N,11713.4803,W,27.60,359.10,030410,,*23
$GPRMC,193135.1,A,3252.0333,N,11713.4808,W,28.70,358.90,030410,,*24
$GPRMC,193138.1,A,3252.0565,N,11713.4811,W,27.80,359.40,030410,,*28
$GPRMC,193142.1,A,3252.0834,N,11713.4822,W,21.80,357.60,030410,,*26
$GPRMC,193146.1,A,3252.0942,N,11713.4808,W,4.80,358.70,030410,,*13
$GPRMC,193250.1,A,3252.1023,N,11713.4836,W,7.60,351.60,030410,,*10
$GPRMC,193253.1,A,3252.1178,N,11713.4836,W,17.70,1.20,030410,,*2E
$GPRMC,193256.1,A,3252.1375,N,11713.4846,W,21.00,359.30,030410,,*2E
$GPRMC,193259.1,A,3252.1564,N,11713.4839,W,20.90,7.10,030410,,*2D
$GPRMC,193302.1,A,3252.1736,N,11713.4776,W,21.80,18.50,030410,,*19
$GPRMC,193305.1,A,3252.1898,N,11713.4663,W,22.00,31.40,030410,,*11
$GPRMC,193308.1,A,3252.2023,N,11713.4517,W,22.30,42.40,030410,,*10
$GPRMC,193311.1,A,3252.2158,N,11713.4367,W,22.60,40.00,030410,,*17
$GPRMC,193314.1,A,3252.2305,N,11713.4224,W,20.40,36.20,030410,,*1D
$GPRMC,193317.1,A,3252.2436,N,11713.4158,W,15.40,21.20,030410,,*11
$GPRMC,193456.1,A,3252.2600,N,11713.4211,W,6.60,313.60,030410,,*1C
$GPRMC,193459.1,A,3252.2710,N,11713.4385,W,13.50,302.20,030410,,*2C
$GPRMC,193505.1,A,3252.3155,N,11713.5295,W,42.90,298.60,030410,,*2D
$GPRMC,193508.1,A,3252.3332,N,11713.5740,W,45.10,293.50,030410,,*29
$GPRMC,193511.1,A,3252.3471,N,11713.6194,W,43.60,285.70,030410,,*29
$GPRMC,193515.1,A,3252.3538,N,11713.6750,W,40.10,279.40,030410,,*2B
$GPRMC,193518.1,A,3252.3613,N,11713.7102,W,36.30,286.40,030410,,*2F
$GPRMC,193521.1,A,3252.3850,N,11713.7304,W,32.70,313.30,030410,,*22
$GPRMC,193527.1,A,3252.4886,N,11713.7196,W,57.40,3.00,030410,,*20
$GPRMC,193530.1,A,3252.5409,N,11713.7156,W,61.30,3.10,030410,,*23
$GPRMC,193533.1,A,3252.5932,N,11713.7106,W,61.70,3.50,030410,,*20
$GPRMC,193536.1,A,3252.6451,N,11713.7060,W,60.20,4.00,030410,,*29
$GPRMC,193539.1,A,3252.6952,N,11713.7022,W,59.90,4.50,030410,,*2A
$GPRMC,193542.1,A,3252.7449,N,11713.6976,W,59.50,4.60,030410,,*26
$GPRMC,193545.1,A,3252.7948,N,11713.6917,W,61.30,5.00,030410,,*20
$GPRMC,193548.1,A,3252.8483,N,11713.6868,W,63.70,4.80,030410,,*2E
$GPRMC,193551.1,A,3252.9016,N,11713.6812,W,64.20,4.80,030410,,*20
$GPRMC,193554.1,A,3252.9546,N,11713.6778,W,63.40,4.20,030410,,*2D
$GPRMC,193557.1,A,3253.0080,N,11713.6718,W,64.30,4.20,030410,,*2F
$GPRMC,193602.1,A,3253.0949,N,11713.6639,W,61.30,4.30,030410,,*26
$GPRMC,193605.1,A,3253.1453,N,11713.6587,W,59.80,4.30,030410,,*20
$GPRMC,193608.1,A,3253.1947,N,11713.6542,W,58.80,4.40,030410,,*2A
$GPRMC,193611.1,A,3253.2413,N,11713.6500,W,57.60,4.90,030410,,*27
$GPRMC,193614.1,A,3253.2880,N,11713.6478,W,56.00,3.60,030410,,*25
$GPRMC,193617.1,A,3253.3330,N,11713.6417,W,55.00,4.90,030410,,*25
$GPRMC,193620.1,A,3253.3780,N,11713.6396,W,52.40,3.50,030410,,*28
$GPRMC,193623.1,A,3253.4203,N,11713.6360,W,50.10,3.80,030410,,*21
$GPRMC,193626.1,A,3253.4653,N,11713.6313,W,54.90,4.80,030410,,*2A
$GPRMC,193629.1,A,3253.5151,N,11713.6248,W,61.40,5.60,030410,,*2A
$GPRMC,193632.1,A,3253.5684,N,11713.6156,W,63.40,8.10,030410,,*2B
$GPRMC,193635.1,A,3253.6263,N,11713.6047,W,66.70,10.60,030410,,*1B
$GPRMC,193638.1,A,3253.6785,N,11713.5903,W,65.80,15.10,030410,,*1F
$GPRMC,193641.1,A,3253.7310,N,11713.5695,W,66.10,18.60,030410,,*18
$GPRMC,193644.1,A,3253.7834,N,11713.5473,W,65.70,19.30,030410,,*1B
$GPRMC,193647.1,A,3253.8366,N,11713.5271,W,66.50,18.70,030410,,*1B
$GPRMC,193649.1,A,3253.8721,N,11713.5136,W,66.10,18.30,030410,,*12
$GPRMC,193651.1,A,3253.9069,N,11713.4998,W,66.30,18.40,030410,,*19
$GPRMC,193654.1,A,3253.9602,N,11713.4781,W,67.00,20.20,030410,,*1E
$GPRMC,193657.1,A,3254.0120,N,11713.4545,W,67.30,20.50,030410,,*1A
$GPRMC,193700.1,A,3254.0654,N,11713.4342,W,66.80,15.60,030410,,*13
$GPRMC,193703.1,A,3254.1220,N,11713.4209,W,68.70,10.00,030410,,*1A
$GPRMC,193706.1,A,3254.1782,N,11713.4143,W,68.80,4.70,030410,,*22
$GPRMC,193710.1,A,3254.2564,N,11713.4202,W,68.70,354.60,030410,,*22
$GPRMC,193713.1,A,3254.3115,N,11713.4311,W,67.20,348.50,030410,,*25
$GPRMC,193716.1,A,3254.3662,N,11713.4496,W,68.10,342.40,030410,,*28
$GPRMC,193719.1,A,3254.4174,N,11713.4765,W,67.00,335.20,030410,,*27
$GPRMC,193722.1,A,3254.4663,N,11713.5089,W,66.30,329.20,030410,,*25
$GPRMC,193725.1,A,3254.5112,N,11713.5453,W,66.50,325.10,030410,,*28
$GPRMC,193728.1,A,3254.5565,N,11713.5833,W,66.40,327.30,030410,,*2A
$GPRMC,193732.1,A,3254.6241,N,11713.6273,W,66.80,331.90,030410,,*2F
$GPRMC,193735.1,A,3254.6725,N,11713.6570,W,65.70,332.70,030410,,*2A
$GPRMC,193738.1,A,3254.7226,N,11713.6870,W,66.50,333.40,030410,,*2E
$GPRMC,193741.1,A,3254.7732,N,11713.7169,W,67.00,333.10,030410,,*21
$GPRMC,193747.1,A,3254.8689,N,11713.7762,W,64.90,328.70,030410,,*22
$GPRMC,193750.1,A,3254.9119,N,11713.8134,W,65.60,323.40,030410,,*27
$GPRMC,193753.1,A,3254.9537,N,11713.8574,W,66.20,318.20,030410,,*25
$GPRMC,193756.1,A,3254.9908,N,11713.9077,W,67.50,311.40,030410,,*2E
$GPRMC,193759.1,A,3255.0268,N,11713.9597,W,68.80,309.30,030410,,*23
$GPRMC,193802.1,A,3255.0621,N,11714.0121,W,68.80,309.60,030410,,*29
$GPRMC,193806.1,A,3255.1116,N,11714.0816,W,67.40,314.60,030410,,*2D
$GPRMC,193809.1,A,3255.1553,N,11714.1260,W,67.60,318.90,030410,,*2C
$GPRMC,193812.1,A,3255.1985,N,11714.1672,W,66.70,322.20,030410,,*24
$GPRMC,193815.1,A,3255.2428,N,11714.2049,W,66.70,326.00,030410,,*21
$GPRMC,193818.1,A,3255.2930,N,11714.2402,W,67.30,330.60,030410,,*27
$GPRMC,193821.1,A,3255.3435,N,11714.2708,W,67.80,334.00,030410,,*24
$GPRMC,193824.1,A,3255.3946,N,11714.2965,W,67.70,338.10,030410,,*2F
$GPRMC,193828.1,A,3255.4659,N,11714.3224,W,66.00,342.80,030410,,*28
$GPRMC,193831.1,A,3255.5178,N,11714.3391,W,64.90,343.80,030410,,*20
$GPRMC,193834.1,A,3255.5695,N,11714.3558,W,64.10,343.80,030410,,*2A
$GPRMC,193837.1,A,3255.6206,N,11714.3729,W,63.60,343.80,030410,,*20
$GPRMC,193840.1,A,3255.6718,N,11714.3898,W,63.30,344.00,030410,,*25
$GPRMC,193843.1,A,3255.7234,N,11714.4051,W,64.10,345.30,030410,,*21
$GPRMC,193846.1,A,3255.7769,N,11714.4138,W,64.10,353.10,030410,,*22
$GPRMC,193849.1,A,3255.8321,N,11714.4095,W,66.10,5.20,030410,,*2D
$GPRMC,193852.1,A,3255.8872,N,11714.3948,W,67.50,14.40,030410,,*17
$GPRMC,193855.1,A,3255.9391,N,11714.3702,W,69.00,21.80,030410,,*16
$GPRMC,193858.1,A,3255.9843,N,11714.3335,W,67.60,33.80,030410,,*14
$GPRMC,193901.1,A,3256.0239,N,11714.2872,W,66.40,42.80,030410,,*18
$GPRMC,193904.1,A,3256.0522,N,11714.2280,W,68.80,55.50,030410,,*1E
$GPRMC,193907.1,A,3256.0721,N,11714.1638,W,69.00,65.40,030410,,*13
$GPRMC,193910.1,A,3256.0960,N,11714.0987,W,70.20,66.10,030410,,*18
$GPRMC,193913.1,A,3256.1177,N,11714.0372,W,66.70,67.30,030410,,*15
$GPRMC,193916.1,A,3256.1411,N,11713.9766,W,66.50,66.30,030410,,*19
$GPRMC,193919.1,A,3256.1638,N,11713.9159,W,67.10,65.50,030410,,*15
$GPRMC,193922.1,A,3256.1865,N,11713.8569,W,65.90,65.30,030410,,*11
$GPRMC,193925.1,A,3256.2109,N,11713.7997,W,64.50,64.90,030410,,*12
$GPRMC,193928.1,A,3256.2328,N,11713.7409,W,64.90,65.20,030410,,*12
$GPRMC,193931.1,A,3256.2543,N,11713.6819,W,65.20,67.70,030410,,*10
$GPRMC,193934.1,A,3256.2718,N,11713.6207,W,65.60,71.60,030410,,*1E
$GPRMC,193937.1,A,3256.2891,N,11713.5570,W,66.50,72.80,030410,,*1A
$GPRMC,193940.1,A,3256.3038,N,11713.4940,W,66.30,73.60,030410,,*17
$GPRMC,193942.1,A,3256.3156,N,11713.4529,W,66.20,69.00,030410,,*13
$GPRMC,193944.1,A,3256.3318,N,11713.4157,W,64.30,62.90,030410,,*11
$GPRMC,193947.1,A,3256.3616,N,11713.3625,W,64.90,56.50,030410,,*1D
$GPRMC,193950.1,A,3256.3921,N,11713.3100,W,64.60,55.60,030410,,*1F
$GPRMC,193953.1,A,3256.4208,N,11713.2555,W,65.40,58.20,030410,,*14
$GPRMC,193956.1,A,3256.4464,N,11713.1970,W,66.40,64.60,030410,,*1D
$GPRMC,193959.1,A,3256.4676,N,11713.1371,W,65.40,67.60,030410,,*18
$GPRMC,194002.1,A,3256.4878,N,11713.0766,W,65.60,68.20,030410,,*12
$GPRMC,194005.1,A,3256.5096,N,11713.0167,W,65.40,66.00,030410,,*15
$GPRMC,194008.1,A,3256.5373,N,11712.9618,W,65.10,56.10,030410,,*10
$GPRMC,194011.1,A,3256.5710,N,11712.9127,W,64.80,49.40,030410,,*11
$GPRMC,194014.1,A,3256.6094,N,11712.8655,W,65.30,46.60,030410,,*18
$GPRMC,194017.1,A,3256.6459,N,11712.8176,W,65.10,48.60,030410,,*14
$GPRMC,194020.1,A,3256.6770,N,11712.7648,W,66.00,56.10,030410,,*17
$GPRMC,194023.1,A,3256.7020,N,11712.7046,W,67.00,65.10,030410,,*1E
$GPRMC,194026.1,A,3256.7252,N,11712.6447,W,66.60,67.00,030410,,*1C
$GPRMC,194031.1,A,3256.7582,N,11712.5419,W,66.90,67.90,030410,,*1E
$GPRMC,194034.1,A,3256.7808,N,11712.4799,W,67.60,67.20,030410,,*1B
$GPRMC,194037.1,A,3256.8041,N,11712.4201,W,67.10,63.30,030410,,*14
$GPRMC,194040.1,A,3256.8316,N,11712.3620,W,67.30,58.60,030410,,*1A
$GPRMC,194043.1,A,3256.8624,N,11712.3070,W,66.60,55.40,030410,,*15
$GPRMC,194046.1,A,3256.8951,N,11712.2538,W,66.40,54.20,030410,,*10
$GPRMC,194049.1,A,3256.9253,N,11712.2016,W,64.90,57.00,030410,,*10
$GPRMC,194052.1,A,3256.9527,N,11712.1466,W,65.70,60.70,030410,,*12
$GPRMC,194055.1,A,3256.9778,N,11712.0882,W,64.60,64.00,030410,,*19
$GPRMC,194058.1,A,3256.9985,N,11712.0302,W,63.60,67.40,030410,,*1B
$GPRMC,194101.1,A,3257.0166,N,11711.9711,W,64.40,68.30,030410,,*1A
$GPRMC,194104.1,A,3257.0345,N,11711.9103,W,65.40,69.50,030410,,*1F
$GPRMC,194107.1,A,3257.0555,N,11711.8497,W,65.90,68.80,030410,,*13
$GPRMC,194111.1,A,3257.0821,N,11711.7702,W,65.50,68.50,030410,,*1B
$GPRMC,194114.1,A,3257.1040,N,11711.7075,W,67.10,68.10,030410,,*15
$GPRMC,194117.1,A,3257.1254,N,11711.6467,W,68.20,67.80,030410,,*1D
$GPRMC,194120.1,A,3257.1468,N,11711.5836,W,68.20,68.20,030410,,*1E
$GPRMC,194123.1,A,3257.1664,N,11711.5205,W,67.80,69.00,030410,,*1F
$GPRMC,194126.1,A,3257.1877,N,11711.4590,W,65.90,67.50,030410,,*14
$GPRMC,194129.1,A,3257.2078,N,11711.4019,W,61.50,65.10,030410,,*15
$GPRMC,194131.1,A,3257.2241,N,11711.3669,W,61.50,61.40,030410,,*13
$GPRMC,194133.1,A,3257.2436,N,11711.3331,W,61.30,57.70,030410,,*1F
$GPRMC,194136.1,A,3257.2722,N,11711.2835,W,61.30,54.40,030410,,*12
$GPRMC,194139.1,A,3257.3040,N,11711.2371,W,59.90,49.90,030410,,*14
$GPRMC,194142.1,A,3257.3375,N,11711.1937,W,61.00,46.10,030410,,*13
$GPRMC,194145.1,A,3257.3763,N,11711.1528,W,62.00,41.90,030410,,*19
$GPRMC,194148.1,A,3257.4177,N,11711.1160,W,60.60,37.00,030410,,*14
$GPRMC,194151.1,A,3257.4601,N,11711.0826,W,60.00,33.20,030410,,*10
$GPRMC,194155.1,A,3257.5161,N,11711.0450,W,57.20,28.50,030410,,*12
$GPRMC,194158.1,A,3257.5618,N,11711.0193,W,60.30,26.60,030410,,*14
$GPRMC,194201.1,A,3257.6104,N,11710.9933,W,62.00,25.90,030410,,*15
$GPRMC,194204.1,A,3257.6571,N,11710.9656,W,64.00,24.90,030410,,*1D
$GPRMC,194207.1,A,3257.7052,N,11710.9380,W,65.20,25.30,030410,,*1D
$GPRMC,194210.1,A,3257.7545,N,11710.9087,W,67.00,28.60,030410,,*14
$GPRMC,194213.1,A,3257.8015,N,11710.8731,W,67.10,33.60,030410,,*18
$GPRMC,194216.1,A,3257.8415,N,11710.8283,W,66.90,41.20,030410,,*1D
$GPRMC,194219.1,A,3257.8816,N,11710.7807,W,69.10,46.60,030410,,*10
$GPRMC,194222.1,A,3257.9158,N,11710.7259,W,68.30,53.20,030410,,*18
$GPRMC,194225.1,A,3257.9467,N,11710.6700,W,67.20,58.70,030410,,*1E
$GPRMC,194228.1,A,3257.9718,N,11710.6130,W,64.10,63.40,030410,,*16
$GPRMC,194231.1,A,3257.9915,N,11710.5547,W,63.00,69.40,030410,,*16
$GPRMC,194234.1,A,3258.0051,N,11710.4937,W,64.60,75.30,030410,,*1D
$GPRMC,194236.1,A,3258.0120,N,11710.4531,W,62.70,79.00,030410,,*1A
$GPRMC,194238.1,A,3258.0165,N,11710.4128,W,62.20,82.30,030410,,*1B
$GPRMC,194241.1,A,3258.0178,N,11710.3494,W,64.60,88.50,030410,,*12
$GPRMC,194244.1,A,3258.0161,N,11710.2855,W,63.10,93.70,030410,,*17
$GPRMC,194247.1,A,3258.0087,N,11710.2249,W,60.60,99.00,030410,,*13
$GPRMC,194250.1,A,3257.9957,N,11710.1631,W,63.50,104.20,030410,,*28
$GPRMC,194253.1,A,3257.9810,N,11710.1045,W,61.60,108.50,030410,,*26
$GPRMC,194257.1,A,3257.9538,N,11710.0303,W,62.40,115.00,030410,,*2D
$GPRMC,194300.1,A,3257.9276,N,11709.9733,W,66.20,118.10,030410,,*2B
$GPRMC,194303.1,A,3257.8994,N,11709.9153,W,67.70,118.90,030410,,*22
$GPRMC,194306.1,A,3257.8716,N,11709.8561,W,67.90,118.90,030410,,*29
$GPRMC,194309.1,A,3257.8439,N,11709.7978,W,68.40,119.40,030410,,*2D
$GPRMC,194312.1,A,3257.8147,N,11709.7371,W,69.40,119.40,030410,,*29
$GPRMC,194316.1,A,3257.7759,N,11709.6584,W,69.30,119.90,030410,,*2C
$GPRMC,194319.1,A,3257.7489,N,11709.5990,W,68.90,119.00,030410,,*25
$GPRMC,194322.1,A,3257.7188,N,11709.5403,W,69.20,120.60,030410,,*28
$GPRMC,194325.1,A,3257.6898,N,11709.4817,W,68.20,120.30,030410,,*2A
$GPRMC,194329.1,A,3257.6519,N,11709.4049,W,67.30,119.70,030410,,*21
$GPRMC,194331.1,A,3257.6336,N,11709.3666,W,67.50,119.00,030410,,*2E
$GPRMC,194333.1,A,3257.6159,N,11709.3270,W,67.70,118.70,030410,,*20
$GPRMC,194336.1,A,3257.5884,N,11709.2694,W,67.30,120.60,030410,,*2E
$GPRMC,194339.1,A,3257.5569,N,11709.2123,W,67.80,123.40,030410,,*2E
$GPRMC,194342.1,A,3257.5223,N,11709.1611,W,66.90,129.00,030410,,*20
$GPRMC,194345.1,A,3257.4840,N,11709.1116,W,68.20,132.30,030410,,*25
$GPRMC,194348.1,A,3257.4434,N,11709.0617,W,69.90,135.10,030410,,*2F
$GPRMC,194352.1,A,3257.3870,N,11708.9988,W,70.30,135.00,030410,,*2D
$GPRMC,194354.1,A,3257.3597,N,11708.9656,W,71.30,132.20,030410,,*27
$GPRMC,194356.1,A,3257.3341,N,11708.9294,W,72.30,128.90,030410,,*21
$GPRMC,194359.1,A,3257.3020,N,11708.8706,W,71.80,123.30,030410,,*2C
$GPRMC,194402.1,A,3257.2704,N,11708.8101,W,72.90,121.30,030410,,*24
$GPRMC,194405.1,A,3257.2464,N,11708.7452,W,72.50,113.90,030410,,*2D
$GPRMC,194408.1,A,3257.2256,N,11708.6781,W,72.30,109.10,030410,,*2E
$GPRMC,194411.1,A,3257.2115,N,11708.6100,W,71.10,102.90,030410,,*2F
$GPRMC,194415.1,A,3257.2004,N,11708.5174,W,70.70,96.50,030410,,*1D
$GPRMC,194418.1,A,3257.1969,N,11708.4481,W,70.40,93.60,030410,,*1A
$GPRMC,194421.1,A,3257.1934,N,11708.3788,W,69.30,92.20,030410,,*1F
$GPRMC,194424.1,A,3257.1929,N,11708.3109,W,68.70,90.80,030410,,*14
$GPRMC,194427.1,A,3257.1924,N,11708.2424,W,68.50,89.30,030410,,*10
$GPRMC,194430.1,A,3257.1944,N,11708.1746,W,68.90,87.90,030410,,*1C
$GPRMC,194433.1,A,3257.1972,N,11708.1069,W,69.10,86.80,030410,,*19
$GPRMC,194436.1,A,3257.2014,N,11708.0395,W,69.40,85.30,030410,,*1A
$GPRMC,194439.1,A,3257.2082,N,11707.9719,W,70.20,83.30,030410,,*14
$GPRMC,194442.1,A,3257.2148,N,11707.9020,W,70.70,83.00,030410,,*14
$GPRMC,194445.1,A,3257.2225,N,11707.8315,W,70.50,81.20,030410,,*1D
$GPRMC,194448.1,A,3257.2335,N,11707.7634,W,69.90,79.10,030410,,*19
$GPRMC,194451.1,A,3257.2442,N,11707.6971,W,68.40,78.30,030410,,*16
$GPRMC,194454.1,A,3257.2558,N,11707.6321,W,67.50,77.20,030410,,*16
$GPRMC,194457.1,A,3257.2701,N,11707.5689,W,67.60,75.80,030410,,*14
$GPRMC,194500.1,A,3257.2830,N,11707.5043,W,67.50,74.80,030410,,*18
$GPRMC,194504.1,A,3257.3052,N,11707.4190,W,67.70,72.30,030410,,*10
$GPRMC,194506.1,A,3257.3175,N,11707.3779,W,67.80,70.40,030410,,*1A
$GPRMC,194508.1,A,3257.3307,N,11707.3355,W,68.00,69.50,030410,,*17
$GPRMC,194511.1,A,3257.3526,N,11707.2733,W,67.70,68.50,030410,,*16
$GPRMC,194515.1,A,3257.3807,N,11707.1897,W,67.40,68.30,030410,,*1B
$GPRMC,194517.1,A,3257.3951,N,11707.1485,W,66.90,68.10,030410,,*1A
$GPRMC,194519.1,A,3257.4093,N,11707.1079,W,67.10,67.90,030410,,*1D
$GPRMC,194522.1,A,3257.4291,N,11707.0456,W,67.50,68.30,030410,,*1C
$GPRMC,194525.1,A,3257.4484,N,11706.9876,W,62.50,68.70,030410,,*1E
$GPRMC,194528.1,A,3257.4655,N,11706.9311,W,60.10,69.10,030410,,*16
$GPRMC,194531.1,A,3257.4839,N,11706.8737,W,63.70,68.90,030410,,*17
$GPRMC,194534.1,A,3257.5048,N,11706.8157,W,64.20,68.20,030410,,*14
$GPRMC,194538.1,A,3257.5324,N,11706.7361,W,66.60,68.00,030410,,*1D
$GPRMC,194540.1,A,3257.5466,N,11706.6951,W,67.10,68.00,030410,,*1D
$GPRMC,194542.1,A,3257.5599,N,11706.6536,W,67.40,68.30,030410,,*15
$GPRMC,194545.1,A,3257.5795,N,11706.5911,W,66.40,68.60,030410,,*12
$GPRMC,194548.1,A,3257.6000,N,11706.5302,W,66.40,68.20,030410,,*1B
$GPRMC,194551.1,A,3257.6218,N,11706.4695,W,67.50,68.00,030410,,*10
$GPRMC,194554.1,A,3257.6427,N,11706.4073,W,68.10,68.10,030410,,*1B
$GPRMC,194558.1,A,3257.6702,N,11706.3250,W,67.90,68.30,030410,,*12
$GPRMC,194601.1,A,3257.6923,N,11706.2619,W,68.70,68.50,030410,,*1F
$GPRMC,194604.1,A,3257.7122,N,11706.1999,W,66.10,68.60,030410,,*1D
$GPRMC,194607.1,A,3257.7310,N,11706.1420,W,60.20,68.20,030410,,*13
$GPRMC,194610.1,A,3257.7502,N,11706.0890,W,57.60,66.50,030410,,*1F
$GPRMC,194613.1,A,3257.7683,N,11706.0401,W,51.90,65.50,030410,,*18
$GPRMC,194617.1,A,3257.7934,N,11705.9858,W,46.70,62.20,030410,,*1D
$GPRMC,194620.1,A,3257.8105,N,11705.9461,W,43.30,63.00,030410,,*18
$GPRMC,194623.1,A,3257.8261,N,11705.9127,W,36.00,62.60,030410,,*1B
$GPRMC,194626.1,A,3257.8372,N,11705.8845,W,29.30,64.70,030410,,*1B
$GPRMC,194630.1,A,3257.8467,N,11705.8566,W,20.00,67.80,030410,,*15
$GPRMC,194633.1,A,3257.8528,N,11705.8417,W,15.80,65.90,030410,,*16
$GPRMC,194636.1,A,3257.8585,N,11705.8281,W,15.30,64.80,030410,,*16
$GPRMC,194639.1,A,3257.8628,N,11705.8165,W,9.50,68.50,030410,,*2E
$GPRMC,194703.1,A,3257.8659,N,11705.8060,W,11.00,68.10,030410,,*1C
$GPRMC,194707.1,A,3257.8722,N,11705.7782,W,25.80,75.00,030410,,*13
$GPRMC,194711.1,A,3257.8774,N,11705.7410,W,28.20,82.70,030410,,*17
$GPRMC,194714.1,A,3257.8802,N,11705.7121,W,26.80,83.30,030410,,*1A
$GPRMC,194717.1,A,3257.8824,N,11705.6919,W,18.30,84.90,030410,,*14
$GPRMC,194720.1,A,3257.8849,N,11705.6782,W,13.10,78.80,030410,,*1C
$GPRMC,194748.1,A,3257.8874,N,11705.6635,W,9.70,72.50,030410,,*2B
$GPRMC,194753.1,A,3257.8903,N,11705.6162,W,33.70,82.70,030410,,*11
$GPRMC,194756.1,A,3257.8925,N,11705.5793,W,38.30,84.70,030410,,*12
$GPRMC,194759.1,A,3257.8967,N,11705.5361,W,41.80,85.50,030410,,*14
$GPRMC,194802.1,A,3257.8975,N,11705.4903,W,47.30,90.10,030410,,*14
$GPRMC,194805.1,A,3257.8942,N,11705.4402,W,50.50,94.10,030410,,*1F
$GPRMC,194808.1,A,3257.8891,N,11705.3864,W,56.50,93.60,030410,,*10
$GPRMC,194812.1,A,3257.8964,N,11705.3074,W,61.90,78.80,030410,,*1A
$GPRMC,194815.1,A,3257.9131,N,11705.2480,W,63.50,69.10,030410,,*1D
$GPRMC,194818.1,A,3257.9432,N,11705.1961,W,62.10,56.20,030410,,*1D
$GPRMC,194821.1,A,3257.9737,N,11705.1455,W,61.80,54.40,030410,,*15
$GPRMC,194824.1,A,3258.0027,N,11705.0969,W,60.50,54.50,030410,,*1E
$GPRMC,194827.1,A,3258.0328,N,11705.0494,W,60.80,52.60,030410,,*16
$GPRMC,194831.1,A,3258.0756,N,11704.9900,W,58.30,49.30,030410,,*1B
$GPRMC,194834.1,A,3258.1075,N,11704.9476,W,57.40,47.00,030410,,*10
$GPRMC,194837.1,A,3258.1402,N,11704.9087,W,55.20,43.50,030410,,*18
$GPRMC,194840.1,A,3258.1764,N,11704.8713,W,56.60,42.60,030410,,*15
$GPRMC,194843.1,A,3258.2112,N,11704.8334,W,57.20,44.40,030410,,*12
$GPRMC,194846.1,A,3258.2420,N,11704.7905,W,57.20,52.40,030410,,*13
$GPRMC,194849.1,A,3258.2671,N,11704.7433,W,56.20,55.20,030410,,*12
$GPRMC,194853.1,A,3258.2802,N,11704.6711,W,56.80,77.90,030410,,*10
$GPRMC,194856.1,A,3258.2803,N,11704.6143,W,57.30,89.20,030410,,*15
$GPRMC,194859.1,A,3258.2764,N,11704.5569,W,57.90,93.60,030410,,*1E
$GPRMC,194902.1,A,3258.2716,N,11704.4981,W,58.50,94.40,030410,,*19
$GPRMC,194905.1,A,3258.2664,N,11704.4399,W,58.40,94.60,030410,,*1A
$GPRMC,194908.1,A,3258.2648,N,11704.3853,W,55.00,91.80,030410,,*11
$GPRMC,194912.1,A,3258.2693,N,11704.3112,W,56.40,83.10,030410,,*1D
$GPRMC,194915.1,A,3258.2877,N,11704.2586,W,55.20,68.40,030410,,*13
$GPRMC,194918.1,A,3258.3099,N,11704.2150,W,47.30,57.00,030410,,*12
$GPRMC,194921.1,A,3258.3304,N,11704.1823,W,39.80,50.80,030410,,*1C
$GPRMC,194924.1,A,3258.3522,N,11704.1551,W,37.10,46.20,030410,,*19
$GPRMC,194927.1,A,3258.3745,N,11704.1308,W,33.50,43.00,030410,,*14
$GPRMC,194930.1,A,3258.3924,N,11704.1129,W,26.90,39.00,030410,,*1F
$GPRMC,194933.1,A,3258.4032,N,11704.1010,W,18.20,42.50,030410,,*11
$GPRMC,194936.1,A,3258.4080,N,11704.0965,W,8.50,27.60,030410,,*21
$GPRMC,194942.1,A,3258.4088,N,11704.0960,W,5.00,47.10,030410,,*26
$GPRMC,194945.1,A,3258.4163,N,11704.0876,W,13.90,41.90,030410,,*13
$GPRMC,194948.1,A,3258.4288,N,11704.0723,W,21.40,42.80,030410,,*19
$GPRMC,194951.1,A,3258.4483,N,11704.0506,W,30.90,43.10,030410,,*1C
$GPRMC,194954.1,A,3258.4711,N,11704.0301,W,33.60,37.90,030410,,*17
$GPRMC,194956.1,A,3258.4877,N,11704.0165,W,35.80,33.90,030410,,*16
$GPRMC,194958.1,A,3258.5051,N,11704.0041,W,36.20,30.90,030410,,*18
$GPRMC,195001.1,A,3258.5329,N,11703.9858,W,38.70,28.50,030410,,*10
$GPRMC,195004.1,A,3258.5634,N,11703.9686,W,41.30,27.00,030410,,*11
$GPRMC,195007.1,A,3258.5943,N,11703.9494,W,43.00,27.00,030410,,*1D
$GPRMC,195010.1,A,3258.6261,N,11703.9285,W,42.20,32.50,030410,,*17
$GPRMC,195013.1,A,3258.6512,N,11703.9041,W,39.80,41.90,030410,,*13
$GPRMC,195017.1,A,3258.6742,N,11703.8678,W,31.50,54.90,030410,,*1C
$GPRMC,195020.1,A,3258.6856,N,11703.8394,W,33.80,64.40,030410,,*14
$GPRMC,195023.1,A,3258.6976,N,11703.8057,W,35.10,68.80,030410,,*17
$GPRMC,195026.1,A,3258.7034,N,11703.7787,W,24.50,77.20,030410,,*19
$GPRMC,195029.1,A,3258.7034,N,11703.7626,W,15.10,86.10,030410,,*17
$GPRMC,195100.1,A,3258.6965,N,11703.7507,W,7.20,188.40,030410,,*1B
$GPRMC,195103.1,A,3258.6720,N,11703.7485,W,26.30,186.40,030410,,*20
$GPRMC,195107.1,A,3258.6260,N,11703.7475,W,35.60,179.70,030410,,*2E
$GPRMC,195110.1,A,3258.5955,N,11703.7487,W,34.40,181.00,030410,,*28
$GPRMC,195113.1,A,3258.5668,N,11703.7496,W,35.20,180.80,030410,,*24
$GPRMC,195116.1,A,3258.5357,N,11703.7517,W,36.50,181.60,030410,,*2B
$GPRMC,195119.1,A,3258.5036,N,11703.7523,W,37.10,181.10,030410,,*25
$GPRMC,195122.1,A,3258.4733,N,11703.7524,W,36.90,180.20,030410,,*22
$GPRMC,195125.1,A,3258.4422,N,11703.7521,W,36.60,180.10,030410,,*2F
$GPRMC,195128.1,A,3258.4118,N,11703.7519,W,35.90,180.00,030410,,*28
$GPRMC,195131.1,A,3258.3833,N,11703.7523,W,34.50,180.40,030410,,*27
$GPRMC,195134.1,A,3258.3546,N,11703.7518,W,36.40,179.90,030410,,*2D
$GPRMC,195137.1,A,3258.3208,N,11703.7531,W,38.70,180.80,030410,,*22
$GPRMC,195140.1,A,3258.2884,N,11703.7537,W,38.90,180.40,030410,,*29
$GPRMC,195143.1,A,3258.2578,N,11703.7547,W,36.30,181.60,030410,,*24
$GPRMC,195146.1,A,3258.2268,N,11703.7530,W,36.40,179.40,030410,,*25
$GPRMC,195149.1,A,3258.1967,N,11703.7534,W,35.80,180.30,030410,,*27
$GPRMC,195152.1,A,3258.1662,N,11703.7535,W,37.00,180.50,030410,,*2A
$GPRMC,195155.1,A,3258.1335,N,11703.7530,W,37.40,179.90,030410,,*21
$GPRMC,195158.1,A,3258.1012,N,11703.7536,W,37.50,180.30,030410,,*21
$GPRMC,195202.1,A,3258.0603,N,11703.7558,W,35.90,180.40,030410,,*2B
$GPRMC,195205.1,A,3258.0323,N,11703.7552,W,34.90,179.90,030410,,*2B
$GPRMC,195208.1,A,3258.0012,N,11703.7557,W,37.80,180.10,030410,,*2E
$GPRMC,195211.1,A,3257.9696,N,11703.7541,W,37.30,179.50,030410,,*24
$GPRMC,195214.1,A,3257.9378,N,11703.7538,W,37.30,179.70,030410,,*28
$GPRMC,195217.1,A,3257.9064,N,11703.7550,W,36.50,180.70,030410,,*2A
$GPRMC,195220.1,A,3257.8763,N,11703.7560,W,34.60,180.30,030410,,*29
$GPRMC,195223.1,A,3257.8503,N,11703.7568,W,30.70,180.50,030410,,*25
$GPRMC,195226.1,A,3257.8303,N,11703.7571,W,22.80,180.80,030410,,*2F
$GPRMC,195230.1,A,3257.8070,N,11703.7588,W,21.40,180.40,030410,,*2A
$GPRMC,195233.1,A,3257.7873,N,11703.7574,W,24.90,177.40,030410,,*2E
$GPRMC,195236.1,A,3257.7649,N,11703.7545,W,27.40,178.80,030410,,*23
$GPRMC,195239.1,A,3257.7418,N,11703.7539,W,27.50,179.10,030410,,*28
$GPRMC,195242.1,A,3257.7172,N,11703.7540,W,28.50,179.80,030410,,*25
$GPRMC,195245.1,A,3257.6931,N,11703.7542,W,29.20,179.90,030410,,*29
$GPRMC,195248.1,A,3257.6704,N,11703.7537,W,28.20,180.10,030410,,*21
$GPRMC,195251.1,A,3257.6460,N,11703.7556,W,28.30,180.80,030410,,*27
$GPRMC,195254.1,A,3257.6226,N,11703.7546,W,28.10,179.80,030410,,*23
