NMEA Sentence Code,UTC Time,Status,Latitude,Latitude Direction,Longitude,Longitude Direction,Speed (knots),Track Angle (degrees true),Date,MagneticVariation,Magnetic Variation Direction,[FAA Mode]-Optional,Checksum
$GPRMC,141355.5,A,3246.242488,N,11700.483317,W,8.7,51.9,240910,,,A*4C
$GPRMC,141358.5,A,3246.251287,N,11700.467932,W,21.3,61.1,240910,,,A*79
$GPRMC,141401.5,A,3246.264586,N,11700.445063,W,29.0,52.7,240910,,,A*72
$GPRMC,141404.5,A,3246.283953,N,11700.421584,W,33.1,44.3,240910,,,A*7D
$GPRMC,141407.5,A,3246.307676,N,11700.398675,W,35.9,40.7,240910,,,A*7D
$GPRMC,141410.5,A,3246.330811,N,11700.377015,W,35.3,39.1,240910,,,A*73
$GPRMC,141413.5,A,3246.351801,N,11700.356252,W,31.3,38.4,240910,,,A*74
$GPRMC,141416.5,A,3246.369554,N,11700.338779,W,26.4,39.4,240910,,,A*73
$GPRMC,141419.5,A,3246.384553,N,11700.321796,W,23.2,42.3,240910,,,A*79
$GPRMC,141422.5,A,3246.397470,N,11700.308800,W,20.4,39.1,240910,,,A*73
$GPRMC,141425.5,A,3246.406551,N,11700.292824,W,20.5,63.9,240910,,,A*7B
$GPRMC,141428.5,A,3246.405739,N,11700.269591,W,25.0,86.9,240910,,,A*75
$GPRMC,141431.5,A,3246.405141,N,11700.243945,W,25.0,90.2,240910,,,A*75
$GPRMC,141434.5,A,3246.405414,N,11700.221691,W,22.5,90.3,240910,,,A*74
$GPRMC,141437.5,A,3246.406940,N,11700.203574,W,19.1,86.0,240910,,,A*78
$GPRMC,141440.5,A,3246.405473,N,11700.185044,W,20.3,92.2,240910,,,A*72
$GPRMC,141443.5,A,3246.406481,N,11700.166465,W,19.2,93.0,240910,,,A*7D
$GPRMC,141446.5,A,3246.404527,N,11700.148699,W,18.3,95.5,240910,,,A*79
$GPRMC,141449.5,A,3246.401478,N,11700.129923,W,19.4,99.6,240910,,,A*78
$GPRMC,141452.5,A,3246.400738,N,11700.110268,W,19.8,97.1,240910,,,A*7F
$GPRMC,141455.5,A,3246.398697,N,11700.109847,W,5.8,107.4,240910,,,A*75
$GPRMC,141540.5,A,3246.405760,N,11700.104903,W,6.4,21.1,240910,,,A*49
$GPRMC,141543.5,A,3246.414522,N,11700.102873,W,9.4,11.3,240910,,,A*40
$GPRMC,141546.5,A,3246.429244,N,11700.104413,W,14.9,1.5,240910,,,A*46
$GPRMC,141549.5,A,3246.460706,N,11700.114690,W,29.3,343.1,240910,,,A*4A
$GPRMC,141552.5,A,3246.491735,N,11700.131656,W,36.4,336.0,240910,,,A*49
$GPRMC,141555.5,A,3246.521558,N,11700.148525,W,35.8,335.3,240910,,,A*4B
$GPRMC,141558.5,A,3246.547703,N,11700.164031,W,32.5,335.7,240910,,,A*4A
$GPRMC,141601.5,A,3246.567170,N,11700.175357,W,24.1,337.3,240910,,,A*43
$GPRMC,141604.5,A,3246.578348,N,11700.182365,W,14.6,335.2,240910,,,A*4F
$GPRMC,141607.5,A,3246.584922,N,11700.184382,W,7.3,341.9,240910,,,A*79
$GPRMC,141610.5,A,3246.587497,N,11700.186057,W,4.8,335.9,240910,,,A*7D
$GPRMC,141613.5,A,3246.593695,N,11700.187644,W,6.0,338.3,240910,,,A*73
$GPRMC,141619.5,A,3246.606188,N,11700.193930,W,13.6,332.9,240910,,,A*46
$GPRMC,141622.5,A,3246.624433,N,11700.200806,W,24.2,338.6,240910,,,A*43
$GPRMC,141625.5,A,3246.655376,N,11700.210218,W,36.1,343.4,240910,,,A*4E
$GPRMC,141628.5,A,3246.692804,N,11700.220866,W,45.3,346.3,240910,,,A*42
$GPRMC,141631.5,A,3246.737245,N,11700.234705,W,53.7,345.1,240910,,,A*46
$GPRMC,141634.5,A,3246.784349,N,11700.251185,W,58.5,345.1,240910,,,A*42
$GPRMC,141637.5,A,3246.831955,N,11700.265632,W,57.8,344.8,240910,,,A*41
$GPRMC,141640.5,A,3246.879094,N,11700.281230,W,57.4,345.0,240910,,,A*40
$GPRMC,141643.5,A,3246.926192,N,11700.295779,W,57.9,345.1,240910,,,A*4E
$GPRMC,141646.5,A,3246.974823,N,11700.310617,W,59.9,345.6,240910,,,A*43
$GPRMC,141649.5,A,3247.024116,N,11700.326339,W,60.4,345.2,240910,,,A*41
$GPRMC,141652.5,A,3247.072703,N,11700.341980,W,59.7,346.0,240910,,,A*4B
$GPRMC,141655.5,A,3247.122534,N,11700.354743,W,61.1,348.3,240910,,,A*4B
$GPRMC,141658.5,A,3247.175358,N,11700.364883,W,63.3,350.5,240910,,,A*47
$GPRMC,141701.5,A,3247.227304,N,11700.374028,W,63.6,352.2,240910,,,A*4F
$GPRMC,141704.5,A,3247.280728,N,11700.380390,W,63.6,355.4,240910,,,A*47
$GPRMC,141707.5,A,3247.331330,N,11700.381950,W,61.0,358.2,240910,,,A*4A
$GPRMC,141710.5,A,3247.380397,N,11700.381298,W,59.2,0.2,240910,,,A*43
$GPRMC,141713.5,A,3247.429665,N,11700.379117,W,59.9,2.6,240910,,,A*42
$GPRMC,141716.5,A,3247.479419,N,11700.374370,W,60.8,5.9,240910,,,A*46
$GPRMC,141719.5,A,3247.528995,N,11700.366228,W,61.0,8.1,240910,,,A*46
$GPRMC,141722.5,A,3247.579508,N,11700.355193,W,61.4,10.4,240910,,,A*79
$GPRMC,141725.5,A,3247.629500,N,11700.344303,W,59.2,10.5,240910,,,A*77
$GPRMC,141728.5,A,3247.677485,N,11700.334169,W,57.4,8.5,240910,,,A*45
$GPRMC,141731.5,A,3247.723734,N,11700.328055,W,56.1,5.9,240910,,,A*42
$GPRMC,141734.5,A,3247.768292,N,11700.323058,W,55.2,4.0,240910,,,A*4F
$GPRMC,141737.5,A,3247.816773,N,11700.320591,W,56.2,1.6,240910,,,A*43
$GPRMC,141740.5,A,3247.861931,N,11700.320031,W,55.3,0.6,240910,,,A*47
$GPRMC,141743.5,A,3247.906854,N,11700.317792,W,54.8,1.3,240910,,,A*42
$GPRMC,141746.5,A,3247.954581,N,11700.317652,W,56.4,0.6,240910,,,A*42
$GPRMC,141749.5,A,3248.002441,N,11700.320038,W,55.7,360.0,240910,,,A*48
$GPRMC,141752.5,A,3248.050756,N,11700.319885,W,56.2,0.1,240910,,,A*46
$GPRMC,141755.5,A,3248.097524,N,11700.321516,W,55.4,359.9,240910,,,A*43
$GPRMC,141758.5,A,3248.144463,N,11700.322586,W,55.9,359.5,240910,,,A*48
$GPRMC,141801.5,A,3248.191111,N,11700.321635,W,55.9,0.2,240910,,,A*43
$GPRMC,141804.5,A,3248.237502,N,11700.321871,W,55.7,359.8,240910,,,A*4A
$GPRMC,141807.5,A,3248.282831,N,11700.321345,W,53.8,359.9,240910,,,A*4E
$GPRMC,141810.5,A,3248.325286,N,11700.321355,W,51.6,0.3,240910,,,A*4A
$GPRMC,141813.5,A,3248.370388,N,11700.320448,W,54.4,0.5,240910,,,A*4D
$GPRMC,141816.5,A,3248.416481,N,11700.319916,W,55.0,0.4,240910,,,A*49
$GPRMC,141819.5,A,3248.462503,N,11700.317651,W,54.2,2.6,240910,,,A*4F
$GPRMC,141822.5,A,3248.507772,N,11700.311610,W,53.3,7.8,240910,,,A*4F
$GPRMC,141825.5,A,3248.551552,N,11700.301255,W,53.7,12.4,240910,,,A*73
$GPRMC,141828.5,A,3248.593401,N,11700.287010,W,53.2,17.9,240910,,,A*76
$GPRMC,141831.5,A,3248.635508,N,11700.267184,W,55.4,23.3,240910,,,A*76
$GPRMC,141834.5,A,3248.677404,N,11700.242044,W,56.2,27.9,240910,,,A*79
$GPRMC,141837.5,A,3248.717780,N,11700.212777,W,57.2,30.3,240910,,,A*7D
$GPRMC,141840.5,A,3248.759302,N,11700.184501,W,56.6,30.6,240910,,,A*76
$GPRMC,141843.5,A,3248.800617,N,11700.155699,W,57.4,30.5,240910,,,A*79
$GPRMC,141846.5,A,3248.841809,N,11700.128110,W,57.4,29.8,240910,,,A*71
$GPRMC,141849.5,A,3248.883054,N,11700.102722,W,56.0,26.8,240910,,,A*75
$GPRMC,141852.5,A,3248.926115,N,11700.082585,W,56.2,21.1,240910,,,A*7F
$GPRMC,141855.5,A,3248.970852,N,11700.065561,W,57.1,15.1,240910,,,A*77
$GPRMC,141858.5,A,3249.016387,N,11700.054476,W,55.8,10.0,240910,,,A*7B
$GPRMC,141901.5,A,3249.059894,N,11700.049663,W,53.4,4.5,240910,,,A*44
$GPRMC,141904.5,A,3249.103922,N,11700.047952,W,52.1,0.3,240910,,,A*46
$GPRMC,141907.5,A,3249.146335,N,11700.050092,W,50.3,357.4,240910,,,A*4D
$GPRMC,141910.5,A,3249.190124,N,11700.059963,W,51.4,349.9,240910,,,A*48
$GPRMC,141913.5,A,3249.234281,N,11700.073840,W,52.4,345.2,240910,,,A*46
$GPRMC,141916.5,A,3249.275546,N,11700.088186,W,52.7,341.7,240910,,,A*4F
$GPRMC,141919.5,A,3249.317899,N,11700.106133,W,52.4,341.6,240910,,,A*41
$GPRMC,141922.5,A,3249.359067,N,11700.121478,W,52.1,342.1,240910,,,A*44
$GPRMC,141925.5,A,3249.399982,N,11700.136920,W,51.3,342.2,240910,,,A*49
$GPRMC,141928.5,A,3249.438988,N,11700.149932,W,50.4,346.8,240910,,,A*41
$GPRMC,141931.5,A,3249.479647,N,11700.159668,W,50.2,348.3,240910,,,A*42
$GPRMC,141934.5,A,3249.520834,N,11700.168781,W,49.9,350.3,240910,,,A*4E
$GPRMC,141937.5,A,3249.562340,N,11700.174568,W,49.4,353.6,240910,,,A*40
$GPRMC,141940.5,A,3249.602219,N,11700.177542,W,49.5,356.6,240910,,,A*47
$GPRMC,141943.5,A,3249.643807,N,11700.178947,W,50.2,358.5,240910,,,A*40
$GPRMC,141946.5,A,3249.685864,N,11700.180559,W,50.2,359.3,240910,,,A*49
$GPRMC,141949.5,A,3249.726011,N,11700.179832,W,48.9,359.1,240910,,,A*42
$GPRMC,141952.5,A,3249.765693,N,11700.179949,W,48.4,359.0,240910,,,A*42
$GPRMC,141955.5,A,3249.805668,N,11700.179534,W,47.8,359.6,240910,,,A*4B
$GPRMC,141958.5,A,3249.845342,N,11700.179704,W,47.7,0.4,240910,,,A*4C
$GPRMC,142001.5,A,3249.884911,N,11700.177864,W,47.7,1.7,240910,,,A*4E
$GPRMC,142004.5,A,3249.924529,N,11700.176066,W,47.9,2.4,240910,,,A*42
$GPRMC,142007.5,A,3249.964708,N,11700.174521,W,47.7,2.0,240910,,,A*4A
$GPRMC,142010.5,A,3250.003040,N,11700.171058,W,46.5,2.9,240910,,,A*43
$GPRMC,142013.5,A,3250.041651,N,11700.168981,W,45.7,1.0,240910,,,A*4E
$GPRMC,142016.5,A,3250.078784,N,11700.170349,W,42.1,355.9,240910,,,A*45
$GPRMC,142019.5,A,3250.113527,N,11700.179199,W,40.6,345.7,240910,,,A*41
$GPRMC,142022.5,A,3250.146204,N,11700.194482,W,40.1,336.1,240910,,,A*46
$GPRMC,142025.5,A,3250.169327,N,11700.215443,W,35.6,324.3,240910,,,A*4F
$GPRMC,142028.5,A,3250.186244,N,11700.235551,W,28.5,315.7,240910,,,A*4E
$GPRMC,142031.5,A,3250.199897,N,11700.254160,W,23.8,308.5,240910,,,A*45
$GPRMC,142034.5,A,3250.209024,N,11700.272721,W,20.9,300.9,240910,,,A*4B
$GPRMC,142037.5,A,3250.216549,N,11700.289216,W,17.7,296.5,240910,,,A*45
$GPRMC,142040.5,A,3250.220734,N,11700.305125,W,17.6,289.8,240910,,,A*4C
$GPRMC,142043.5,A,3250.224311,N,11700.322082,W,16.9,284.6,240910,,,A*4C
$GPRMC,142046.5,A,3250.227452,N,11700.338510,W,15.6,281.7,240910,,,A*47
$GPRMC,142049.5,A,3250.228838,N,11700.351744,W,12.7,275.3,240910,,,A*42
$GPRMC,142052.5,A,3250.229222,N,11700.363833,W,12.5,272.1,240910,,,A*41
$GPRMC,142055.5,A,3250.227194,N,11700.376505,W,12.8,265.2,240910,,,A*42
$GPRMC,142058.5,A,3250.227104,N,11700.388481,W,11.2,265.7,240910,,,A*46
$GPRMC,142101.5,A,3250.224864,N,11700.398579,W,10.0,259.2,240910,,,A*49
$GPRMC,142104.5,A,3250.223330,N,11700.409157,W,10.3,260.3,240910,,,A*4E
$GPRMC,142107.5,A,3250.221414,N,11700.419703,W,11.2,259.5,240910,,,A*44
$GPRMC,142110.5,A,3250.219201,N,11700.432142,W,12.2,257.0,240910,,,A*49
$GPRMC,142113.5,A,3250.214340,N,11700.444882,W,11.9,252.7,240910,,,A*4D
$GPRMC,142116.5,A,3250.211486,N,11700.456962,W,11.6,255.7,240910,,,A*44
$GPRMC,142119.5,A,3250.208955,N,11700.468342,W,11.6,254.8,240910,,,A*4B
$GPRMC,142122.5,A,3250.206436,N,11700.481002,W,13.2,254.7,240910,,,A*4C
$GPRMC,142125.5,A,3250.202941,N,11700.496975,W,16.9,257.4,240910,,,A*43
$GPRMC,142128.5,A,3250.197874,N,11700.517548,W,22.3,256.8,240910,,,A*4C
$GPRMC,142131.5,A,3250.192909,N,11700.541411,W,25.7,256.4,240910,,,A*4B
$GPRMC,142134.5,A,3250.188480,N,11700.567407,W,26.8,256.3,240910,,,A*41
$GPRMC,142137.5,A,3250.183825,N,11700.592448,W,26.5,255.1,240910,,,A*47
$GPRMC,142140.5,A,3250.177116,N,11700.616915,W,25.9,252.9,240910,,,A*4F
$GPRMC,142143.5,A,3250.172723,N,11700.639628,W,25.6,256.7,240910,,,A*40
$GPRMC,142146.5,A,3250.168351,N,11700.663341,W,22.7,255.1,240910,,,A*49
$GPRMC,142149.5,A,3250.163778,N,11700.682253,W,19.0,251.6,240910,,,A*43
$GPRMC,142152.5,A,3250.161624,N,11700.694386,W,14.1,253.2,240910,,,A*47
$GPRMC,142155.5,A,3250.162436,N,11700.703527,W,10.9,257.7,240910,,,A*4D
$GPRMC,142158.5,A,3250.162317,N,11700.711691,W,9.7,263.3,240910,,,A*7C
$GPRMC,142201.5,A,3250.162839,N,11700.721694,W,12.0,268.9,240910,,,A*4E
$GPRMC,142204.5,A,3250.160597,N,11700.736476,W,15.5,264.1,240910,,,A*4E
$GPRMC,142207.5,A,3250.159563,N,11700.753182,W,15.5,266.5,240910,,,A*47
$GPRMC,142210.5,A,3250.159535,N,11700.768772,W,16.3,268.0,240910,,,A*4D
$GPRMC,142213.5,A,3250.159740,N,11700.786488,W,17.5,269.8,240910,,,A*46
$GPRMC,142216.5,A,3250.161650,N,11700.805859,W,20.8,273.4,240910,,,A*42
$GPRMC,142219.5,A,3250.163955,N,11700.828520,W,23.7,273.0,240910,,,A*41
$GPRMC,142222.5,A,3250.165952,N,11700.850738,W,22.6,276.1,240910,,,A*48
$GPRMC,142225.5,A,3250.167288,N,11700.872150,W,23.3,275.8,240910,,,A*47
$GPRMC,142228.5,A,3250.168140,N,11700.898117,W,27.6,274.4,240910,,,A*49
$GPRMC,142231.5,A,3250.170615,N,11700.924705,W,27.2,274.6,240910,,,A*4A
$GPRMC,142234.5,A,3250.171346,N,11700.950614,W,26.8,272.6,240910,,,A*42
$GPRMC,142237.5,A,3250.173497,N,11700.979593,W,29.0,273.9,240910,,,A*46
$GPRMC,142240.5,A,3250.176936,N,11701.010648,W,32.2,273.9,240910,,,A*4F
$GPRMC,142243.5,A,3250.178733,N,11701.044648,W,35.4,273.4,240910,,,A*44
$GPRMC,142246.5,A,3250.182153,N,11701.080935,W,38.0,277.0,240910,,,A*40
$GPRMC,142249.5,A,3250.187934,N,11701.119444,W,41.0,279.9,240910,,,A*40
$GPRMC,142252.5,A,3250.198059,N,11701.161851,W,43.9,285.7,240910,,,A*47
$GPRMC,142255.5,A,3250.211439,N,11701.203931,W,45.2,292.5,240910,,,A*49
$GPRMC,142258.5,A,3250.229566,N,11701.242859,W,44.3,299.2,240910,,,A*42
$GPRMC,142301.5,A,3250.250432,N,11701.279686,W,45.4,304.2,240910,,,A*46
$GPRMC,142304.5,A,3250.277490,N,11701.315111,W,46.8,308.7,240910,,,A*4A
$GPRMC,142307.5,A,3250.310966,N,11701.344409,W,48.1,320.0,240910,,,A*4F
$GPRMC,142310.5,A,3250.343998,N,11701.372060,W,48.4,326.9,240910,,,A*4A
$GPRMC,142313.5,A,3250.382147,N,11701.394718,W,51.4,333.8,240910,,,A*43
$GPRMC,142316.5,A,3250.420137,N,11701.417361,W,51.1,334.3,240910,,,A*41
$GPRMC,142319.5,A,3250.459860,N,11701.438898,W,51.5,334.6,240910,,,A*4A
$GPRMC,142322.5,A,3250.497996,N,11701.460964,W,50.0,334.0,240910,,,A*45
$GPRMC,142325.5,A,3250.535675,N,11701.480673,W,49.0,334.7,240910,,,A*41
$GPRMC,142328.5,A,3250.571744,N,11701.501281,W,47.4,334.0,240910,,,A*43
$GPRMC,142331.5,A,3250.606422,N,11701.521069,W,46.0,334.4,240910,,,A*4C
$GPRMC,142334.5,A,3250.638240,N,11701.540110,W,42.9,334.0,240910,,,A*47
$GPRMC,142337.5,A,3250.667729,N,11701.557013,W,39.2,334.1,240910,,,A*46
$GPRMC,142340.5,A,3250.693511,N,11701.571559,W,34.6,334.3,240910,,,A*40
$GPRMC,142343.5,A,3250.714756,N,11701.584744,W,25.8,332.0,240910,,,A*43
$GPRMC,142346.5,A,3250.728711,N,11701.592006,W,18.7,333.1,240910,,,A*4D
$GPRMC,142349.5,A,3250.738506,N,11701.598260,W,14.1,333.1,240910,,,A*45
$GPRMC,142352.5,A,3250.747403,N,11701.604771,W,13.8,331.3,240910,,,A*4E
$GPRMC,142355.5,A,3250.759866,N,11701.613752,W,17.9,328.0,240910,,,A*40
$GPRMC,142358.5,A,3250.773162,N,11701.624189,W,19.7,325.9,240910,,,A*48
$GPRMC,142401.5,A,3250.789030,N,11701.635729,W,22.5,327.4,240910,,,A*49
$GPRMC,142404.5,A,3250.806516,N,11701.647963,W,25.8,326.2,240910,,,A*4D
$GPRMC,142407.5,A,3250.828426,N,11701.666115,W,30.8,323.7,240910,,,A*4E
$GPRMC,142410.5,A,3250.850043,N,11701.687065,W,33.7,319.8,240910,,,A*43
$GPRMC,142413.5,A,3250.870868,N,11701.711136,W,36.0,316.8,240910,,,A*47
$GPRMC,142416.5,A,3250.894213,N,11701.735750,W,37.9,316.7,240910,,,A*49
$GPRMC,142419.5,A,3250.915729,N,11701.764591,W,40.3,311.1,240910,,,A*42
$GPRMC,142422.5,A,3250.937047,N,11701.797912,W,43.1,308.8,240910,,,A*4E
$GPRMC,142425.5,A,3250.958992,N,11701.833615,W,44.5,306.8,240910,,,A*45
$GPRMC,142428.5,A,3250.981483,N,11701.871510,W,47.7,303.6,240910,,,A*4B
$GPRMC,142431.5,A,3251.003360,N,11701.912558,W,48.9,301.8,240910,,,A*4E
$GPRMC,142434.5,A,3251.022898,N,11701.956069,W,49.4,299.6,240910,,,A*41
$GPRMC,142437.5,A,3251.037378,N,11702.002194,W,50.9,295.8,240910,,,A*4C
$GPRMC,142440.5,A,3251.053453,N,11702.047877,W,50.6,293.1,240910,,,A*45
$GPRMC,142443.5,A,3251.064861,N,11702.095274,W,47.8,289.8,240910,,,A*43
$GPRMC,142446.5,A,3251.071337,N,11702.140421,W,45.1,285.0,240910,,,A*4A
$GPRMC,142449.5,A,3251.079767,N,11702.182601,W,43.6,283.6,240910,,,A*43
$GPRMC,142452.5,A,3251.082516,N,11702.223104,W,40.2,281.6,240910,,,A*46
$GPRMC,142455.5,A,3251.087244,N,11702.262689,W,39.9,280.1,240910,,,A*40
$GPRMC,142458.5,A,3251.093980,N,11702.303695,W,42.6,280.1,240910,,,A*43
$GPRMC,142501.5,A,3251.099906,N,11702.346255,W,42.0,280.1,240910,,,A*45
$GPRMC,142504.5,A,3251.106547,N,11702.386698,W,42.3,279.7,240910,,,A*44
$GPRMC,142507.5,A,3251.111838,N,11702.429744,W,44.1,278.6,240910,,,A*42
$GPRMC,142510.5,A,3251.117332,N,11702.471492,W,42.9,279.2,240910,,,A*4D
$GPRMC,142513.5,A,3251.123360,N,11702.514775,W,44.7,279.5,240910,,,A*49
$GPRMC,142516.5,A,3251.132481,N,11702.559840,W,47.2,281.6,240910,,,A*46
$GPRMC,142519.5,A,3251.140287,N,11702.605353,W,46.6,281.2,240910,,,A*4E
$GPRMC,142522.5,A,3251.146105,N,11702.651642,W,47.2,279.8,240910,,,A*45
$GPRMC,142525.5,A,3251.152781,N,11702.697957,W,47.9,280.5,240910,,,A*4C
$GPRMC,142528.5,A,3251.161670,N,11702.743132,W,46.4,281.0,240910,,,A*45
$GPRMC,142531.5,A,3251.169707,N,11702.789426,W,47.4,281.1,240910,,,A*42
$GPRMC,142534.5,A,3251.174567,N,11702.837515,W,49.2,278.6,240910,,,A*4D
$GPRMC,142537.5,A,3251.184145,N,11702.883537,W,48.1,281.9,240910,,,A*41
$GPRMC,142540.5,A,3251.191581,N,11702.932507,W,49.4,280.4,240910,,,A*49
$GPRMC,142543.5,A,3251.197312,N,11702.981011,W,49.2,280.1,240910,,,A*49
$GPRMC,142546.5,A,3251.204323,N,11703.029534,W,49.7,279.9,240910,,,A*44
$GPRMC,142549.5,A,3251.210745,N,11703.078512,W,51.0,280.1,240910,,,A*4A
$GPRMC,142552.5,A,3251.217939,N,11703.129175,W,52.1,279.4,240910,,,A*43
$GPRMC,142555.5,A,3251.225209,N,11703.180890,W,53.4,279.1,240910,,,A*4D
$GPRMC,142558.5,A,3251.232173,N,11703.231672,W,52.2,280.1,240910,,,A*42
$GPRMC,142601.5,A,3251.240697,N,11703.279227,W,50.3,280.9,240910,,,A*46
$GPRMC,142604.5,A,3251.247521,N,11703.328895,W,51.1,279.7,240910,,,A*47
$GPRMC,142607.5,A,3251.254451,N,11703.379271,W,50.9,280.8,240910,,,A*44
$GPRMC,142610.5,A,3251.263191,N,11703.427381,W,50.6,282.1,240910,,,A*49
$GPRMC,142613.5,A,3251.274832,N,11703.477695,W,52.5,282.2,240910,,,A*4B
$GPRMC,142616.5,A,3251.286363,N,11703.528673,W,53.6,282.8,240910,,,A*47
$GPRMC,142619.5,A,3251.294736,N,11703.580473,W,53.1,281.4,240910,,,A*47
$GPRMC,142622.5,A,3251.302638,N,11703.629924,W,50.9,280.7,240910,,,A*48
$GPRMC,142625.5,A,3251.305132,N,11703.680473,W,52.0,273.9,240910,,,A*40
$GPRMC,142628.5,A,3251.306212,N,11703.734546,W,52.3,272.0,240910,,,A*4D
$GPRMC,142631.5,A,3251.302169,N,11703.787339,W,52.6,266.9,240910,,,A*41
$GPRMC,142634.5,A,3251.297894,N,11703.840276,W,53.5,264.1,240910,,,A*44
$GPRMC,142637.5,A,3251.289642,N,11703.892733,W,53.5,259.9,240910,,,A*40
$GPRMC,142640.5,A,3251.278826,N,11703.943573,W,53.5,256.6,240910,,,A*49
$GPRMC,142643.5,A,3251.266579,N,11703.994222,W,54.3,253.8,240910,,,A*41
$GPRMC,142646.5,A,3251.250486,N,11704.045386,W,55.5,249.3,240910,,,A*4A
$GPRMC,142649.5,A,3251.229134,N,11704.096618,W,54.9,245.0,240910,,,A*49
$GPRMC,142652.5,A,3251.207238,N,11704.146106,W,54.3,241.8,240910,,,A*42
$GPRMC,142655.5,A,3251.184200,N,11704.192272,W,52.7,238.2,240910,,,A*49
$GPRMC,142658.5,A,3251.158910,N,11704.236395,W,53.6,234.7,240910,,,A*43
$GPRMC,142701.5,A,3251.131108,N,11704.280702,W,55.0,232.7,240910,,,A*41
$GPRMC,142704.5,A,3251.099763,N,11704.322604,W,54.9,228.2,240910,,,A*44
$GPRMC,142707.5,A,3251.068082,N,11704.363531,W,55.9,227.1,240910,,,A*4C
$GPRMC,142710.5,A,3251.036289,N,11704.403991,W,55.8,227.4,240910,,,A*4B
$GPRMC,142713.5,A,3251.003764,N,11704.445819,W,56.1,227.3,240910,,,A*46
$GPRMC,142716.5,A,3250.970307,N,11704.486599,W,56.4,226.7,240910,,,A*44
$GPRMC,142719.5,A,3250.938850,N,11704.527270,W,56.0,227.2,240910,,,A*44
$GPRMC,142722.5,A,3250.906492,N,11704.568764,W,57.2,226.4,240910,,,A*4C
$GPRMC,142725.5,A,3250.873233,N,11704.610300,W,57.4,226.3,240910,,,A*4E
$GPRMC,142728.5,A,3250.839207,N,11704.651739,W,58.7,226.4,240910,,,A*4A
$GPRMC,142731.5,A,3250.805456,N,11704.695143,W,60.2,227.6,240910,,,A*41
$GPRMC,142734.5,A,3250.773640,N,11704.739181,W,58.9,229.6,240910,,,A*48
$GPRMC,142737.5,A,3250.742389,N,11704.786589,W,59.7,232.9,240910,,,A*4B
$GPRMC,142740.5,A,3250.712984,N,11704.836120,W,60.3,235.3,240910,,,A*49
$GPRMC,142743.5,A,3250.689176,N,11704.885815,W,58.5,240.1,240910,,,A*46
$GPRMC,142746.5,A,3250.666937,N,11704.935065,W,57.8,242.9,240910,,,A*42
$GPRMC,142749.5,A,3250.647381,N,11704.987138,W,58.2,246.4,240910,,,A*45
$GPRMC,142752.5,A,3250.631230,N,11705.040831,W,58.0,249.4,240910,,,A*4B
$GPRMC,142755.5,A,3250.615813,N,11705.094012,W,55.9,250.7,240910,,,A*4E
$GPRMC,142758.5,A,3250.604425,N,11705.144251,W,54.0,253.8,240910,,,A*47
$GPRMC,142801.5,A,3250.593818,N,11705.194405,W,53.4,254.7,240910,,,A*4A
$GPRMC,142804.5,A,3250.583369,N,11705.244447,W,52.7,255.2,240910,,,A*4D
$GPRMC,142807.5,A,3250.572233,N,11705.295463,W,53.9,256.6,240910,,,A*4C
$GPRMC,142810.5,A,3250.561350,N,11705.348134,W,55.6,255.2,240910,,,A*44
$GPRMC,142813.5,A,3250.547249,N,11705.402897,W,57.5,254.7,240910,,,A*46
$GPRMC,142816.5,A,3250.534294,N,11705.457513,W,56.7,254.4,240910,,,A*46
$GPRMC,142819.5,A,3250.521621,N,11705.510581,W,55.7,254.6,240910,,,A*4F
$GPRMC,142822.5,A,3250.509688,N,11705.564079,W,56.0,254.5,240910,,,A*48
$GPRMC,142825.5,A,3250.497198,N,11705.618725,W,55.7,255.1,240910,,,A*48
$GPRMC,142828.5,A,3250.487077,N,11705.672921,W,57.5,258.5,240910,,,A*4B
$GPRMC,142831.5,A,3250.481703,N,11705.728285,W,57.6,262.7,240910,,,A*42
$GPRMC,142834.5,A,3250.479692,N,11705.785160,W,57.6,267.0,240910,,,A*44
$GPRMC,142837.5,A,3250.478924,N,11705.841117,W,56.6,269.1,240910,,,A*4D
$GPRMC,142840.5,A,3250.480742,N,11705.896839,W,54.9,271.8,240910,,,A*46
$GPRMC,142843.5,A,3250.481862,N,11705.948255,W,52.0,271.8,240910,,,A*44
$GPRMC,142846.5,A,3250.483536,N,11705.997621,W,50.2,272.1,240910,,,A*40
$GPRMC,142849.5,A,3250.486196,N,11706.045477,W,49.7,272.7,240910,,,A*4B
$GPRMC,142852.5,A,3250.488487,N,11706.094091,W,49.7,271.7,240910,,,A*49
$GPRMC,142855.5,A,3250.490547,N,11706.141716,W,48.3,271.9,240910,,,A*40
$GPRMC,142858.5,A,3250.494234,N,11706.188527,W,48.4,272.7,240910,,,A*45
$GPRMC,142901.5,A,3250.496398,N,11706.236946,W,50.9,272.2,240910,,,A*41
$GPRMC,142904.5,A,3250.497828,N,11706.289135,W,53.3,272.3,240910,,,A*45
$GPRMC,142907.5,A,3250.502993,N,11706.341481,W,55.3,273.0,240910,,,A*41
$GPRMC,142910.5,A,3250.505823,N,11706.396720,W,56.6,272.0,240910,,,A*4F
$GPRMC,142913.5,A,3250.508260,N,11706.453671,W,58.9,272.1,240910,,,A*47
$GPRMC,142916.5,A,3250.510191,N,11706.512710,W,60.5,272.1,240910,,,A*43
$GPRMC,142919.5,A,3250.511608,N,11706.573824,W,61.1,272.3,240910,,,A*42
$GPRMC,142922.5,A,3250.513580,N,11706.634729,W,62.5,271.3,240910,,,A*4D
$GPRMC,142925.5,A,3250.516067,N,11706.696112,W,62.1,271.7,240910,,,A*45
$GPRMC,142928.5,A,3250.516466,N,11706.756030,W,60.0,270.5,240910,,,A*41
$GPRMC,142931.5,A,3250.517111,N,11706.815355,W,59.0,270.3,240910,,,A*49
$GPRMC,142934.5,A,3250.516279,N,11706.873540,W,59.0,268.6,240910,,,A*4E
$GPRMC,142937.5,A,3250.515819,N,11706.931712,W,59.5,268.8,240910,,,A*4B
$GPRMC,142940.5,A,3250.514856,N,11706.990505,W,59.3,268.9,240910,,,A*49
$GPRMC,142943.5,A,3250.515193,N,11707.048465,W,59.3,269.2,240910,,,A*4B
$GPRMC,142946.5,A,3250.515337,N,11707.107251,W,58.8,269.3,240910,,,A*42
$GPRMC,142949.5,A,3250.514053,N,11707.167452,W,60.7,268.9,240910,,,A*41
$GPRMC,142952.5,A,3250.514051,N,11707.227398,W,60.8,269.5,240910,,,A*4D
$GPRMC,142955.5,A,3250.514272,N,11707.286399,W,59.7,270.0,240910,,,A*4B
$GPRMC,142958.5,A,3250.514730,N,11707.344539,W,58.9,269.4,240910,,,A*45
$GPRMC,143001.5,A,3250.513754,N,11707.401361,W,57.4,269.0,240910,,,A*4F
$GPRMC,143004.5,A,3250.513335,N,11707.457202,W,57.4,269.3,240910,,,A*4D
$GPRMC,143007.5,A,3250.513596,N,11707.514639,W,59.4,270.0,240910,,,A*4E
$GPRMC,143010.5,A,3250.511591,N,11707.574654,W,59.3,269.8,240910,,,A*47
$GPRMC,143013.5,A,3250.509860,N,11707.633734,W,60.3,268.3,240910,,,A*49
$GPRMC,143016.5,A,3250.508546,N,11707.692492,W,59.7,266.9,240910,,,A*4A
$GPRMC,143019.5,A,3250.504870,N,11707.752258,W,59.8,265.5,240910,,,A*4C
$GPRMC,143022.5,A,3250.498236,N,11707.809405,W,57.5,263.1,240910,,,A*46
$GPRMC,143025.5,A,3250.491385,N,11707.864610,W,56.7,262.1,240910,,,A*4E
$GPRMC,143028.5,A,3250.484062,N,11707.920399,W,57.2,260.6,240910,,,A*49
$GPRMC,143031.5,A,3250.477394,N,11707.975740,W,57.6,262.2,240910,,,A*45
$GPRMC,143034.5,A,3250.470691,N,11708.031310,W,56.9,262.1,240910,,,A*4D
$GPRMC,143037.5,A,3250.463369,N,11708.088240,W,58.1,261.8,240910,,,A*44
$GPRMC,143040.5,A,3250.453121,N,11708.146606,W,59.0,261.3,240910,,,A*47
$GPRMC,143043.5,A,3250.447567,N,11708.206428,W,60.4,262.3,240910,,,A*43
$GPRMC,143046.5,A,3250.439595,N,11708.266359,W,62.4,260.8,240910,,,A*4E
$GPRMC,143049.5,A,3250.428825,N,11708.329349,W,63.2,258.2,240910,,,A*4A
$GPRMC,143052.5,A,3250.416583,N,11708.388780,W,62.1,256.9,240910,,,A*41
$GPRMC,143055.5,A,3250.404439,N,11708.447905,W,61.0,256.8,240910,,,A*41
$GPRMC,143058.5,A,3250.392170,N,11708.508897,W,63.3,256.3,240910,,,A*46
$GPRMC,143101.5,A,3250.379717,N,11708.570928,W,65.1,256.2,240910,,,A*46
$GPRMC,143104.5,A,3250.368552,N,11708.632677,W,64.9,256.7,240910,,,A*4C
$GPRMC,143107.5,A,3250.354917,N,11708.696700,W,66.0,256.3,240910,,,A*4D
$GPRMC,143110.5,A,3250.336494,N,11708.780614,W,65.1,256.2,240910,,,A*48
$GPRMC,143113.5,A,3250.325403,N,11708.842085,W,64.5,255.7,240910,,,A*4B
$GPRMC,143116.5,A,3250.311768,N,11708.903886,W,64.5,256.8,240910,,,A*44
$GPRMC,143119.5,A,3250.298822,N,11708.967538,W,65.2,256.8,240910,,,A*46
$GPRMC,143122.5,A,3250.285494,N,11709.030337,W,65.1,256.5,240910,,,A*4E
$GPRMC,143125.5,A,3250.271926,N,11709.094382,W,66.6,256.1,240910,,,A*46
$GPRMC,143128.5,A,3250.260067,N,11709.156664,W,66.2,256.6,240910,,,A*46
$GPRMC,143131.5,A,3250.249879,N,11709.220951,W,66.3,259.9,240910,,,A*48
$GPRMC,143134.5,A,3250.244230,N,11709.283289,W,64.6,264.7,240910,,,A*47
$GPRMC,143137.5,A,3250.246178,N,11709.345056,W,63.5,271.5,240910,,,A*40
$GPRMC,143140.5,A,3250.253784,N,11709.404934,W,61.0,278.0,240910,,,A*45
$GPRMC,143143.5,A,3250.267599,N,11709.459061,W,58.4,284.2,240910,,,A*41
$GPRMC,143146.5,A,3250.284655,N,11709.513553,W,57.9,289.5,240910,,,A*49
$GPRMC,143149.5,A,3250.302560,N,11709.566525,W,58.2,291.6,240910,,,A*41
$GPRMC,143152.5,A,3250.324924,N,11709.615418,W,57.2,297.8,240910,,,A*4C
$GPRMC,143155.5,A,3250.352366,N,11709.661352,W,55.8,304.1,240910,,,A*46
$GPRMC,143158.5,A,3250.382725,N,11709.703317,W,54.7,309.6,240910,,,A*45
$GPRMC,143201.5,A,3250.412351,N,11709.740909,W,50.9,311.3,240910,,,A*47
$GPRMC,143204.5,A,3250.441570,N,11709.776104,W,49.3,312.9,240910,,,A*4A
$GPRMC,143207.5,A,3250.467753,N,11709.810783,W,47.6,311.6,240910,,,A*4F
$GPRMC,143210.5,A,3250.494138,N,11709.845738,W,48.3,311.7,240910,,,A*45
$GPRMC,143213.5,A,3250.522165,N,11709.881183,W,50.0,312.0,240910,,,A*42
$GPRMC,143216.5,A,3250.553354,N,11709.918571,W,53.5,312.9,240910,,,A*46
$GPRMC,143219.5,A,3250.583708,N,11709.959101,W,54.2,311.8,240910,,,A*4D
$GPRMC,143222.5,A,3250.617736,N,11709.997723,W,55.6,314.7,240910,,,A*4D
$GPRMC,143225.5,A,3250.652527,N,11710.037713,W,57.7,314.5,240910,,,A*40
$GPRMC,143228.5,A,3250.680727,N,11710.079093,W,55.0,312.4,240910,,,A*47
$GPRMC,143231.5,A,3250.711984,N,11710.120844,W,55.4,311.7,240910,,,A*4A
$GPRMC,143234.5,A,3250.739965,N,11710.164651,W,56.7,307.3,240910,,,A*43
$GPRMC,143237.5,A,3250.769060,N,11710.210815,W,58.1,303.8,240910,,,A*40
$GPRMC,143240.5,A,3250.789965,N,11710.263197,W,57.5,299.6,240910,,,A*42
$GPRMC,143243.5,A,3250.813755,N,11710.313029,W,56.5,297.1,240910,,,A*4A
$GPRMC,143246.5,A,3250.828345,N,11710.365416,W,55.7,290.9,240910,,,A*45
$GPRMC,143249.5,A,3250.838436,N,11710.419923,W,56.2,287.0,240910,,,A*46
$GPRMC,143252.5,A,3250.849868,N,11710.474552,W,54.9,285.4,240910,,,A*43
$GPRMC,143255.5,A,3250.862240,N,11710.524196,W,51.6,285.7,240910,,,A*4C
$GPRMC,143258.5,A,3250.870910,N,11710.569276,W,48.8,285.7,240910,,,A*4E
$GPRMC,143301.5,A,3250.880757,N,11710.611589,W,43.2,286.4,240910,,,A*4B
$GPRMC,143304.5,A,3250.890687,N,11710.645957,W,35.3,287.1,240910,,,A*49
$GPRMC,143307.5,A,3250.897535,N,11710.669816,W,26.7,288.0,240910,,,A*45
$GPRMC,143310.5,A,3250.905018,N,11710.684646,W,18.8,294.7,240910,,,A*43
$GPRMC,143313.5,A,3250.911294,N,11710.695529,W,13.9,301.7,240910,,,A*4E
$GPRMC,143316.5,A,3250.917315,N,11710.702061,W,9.8,310.2,240910,,,A*7C
$GPRMC,143319.5,A,3250.922600,N,11710.706073,W,8.2,321.0,240910,,,A*78
$GPRMC,143322.5,A,3250.928631,N,11710.711949,W,9.5,312.1,240910,,,A*79
$GPRMC,143325.5,A,3250.934902,N,11710.716078,W,9.6,320.2,240910,,,A*71
$GPRMC,143328.5,A,3250.940237,N,11710.722708,W,10.2,316.9,240910,,,A*47
$GPRMC,143331.5,A,3250.946132,N,11710.728609,W,10.0,315.0,240910,,,A*4D
$GPRMC,143334.5,A,3250.958616,N,11710.729987,W,11.7,320.4,240910,,,A*4A
$GPRMC,143337.5,A,3250.968332,N,11710.735739,W,12.3,332.5,240910,,,A*4A
$GPRMC,143340.5,A,3250.977608,N,11710.741360,W,13.3,329.5,240910,,,A*48
$GPRMC,143343.5,A,3250.985985,N,11710.748605,W,12.6,328.9,240910,,,A*4A
$GPRMC,143346.5,A,3250.994982,N,11710.752763,W,10.9,334.5,240910,,,A*4E
$GPRMC,143349.5,A,3251.000238,N,11710.755143,W,6.4,333.7,240910,,,A*72
$GPRMC,143352.5,A,3251.004080,N,11710.757294,W,4.9,346.8,240910,,,A*74
$GPRMC,143355.5,A,3251.008239,N,11710.762209,W,6.7,318.3,240910,,,A*71
$GPRMC,143358.5,A,3251.014931,N,11710.766650,W,10.2,327.0,240910,,,A*43
$GPRMC,143401.5,A,3251.022360,N,11710.773459,W,11.4,324.1,240910,,,A*49
$GPRMC,143404.5,A,3251.033423,N,11710.779679,W,15.3,330.3,240910,,,A*42
$GPRMC,143407.5,A,3251.045357,N,11710.788554,W,17.7,331.3,240910,,,A*41
$GPRMC,143410.5,A,3251.056542,N,11710.795933,W,15.3,332.4,240910,,,A*44
$GPRMC,143413.5,A,3251.068149,N,11710.803430,W,16.3,330.5,240910,,,A*4B
$GPRMC,143416.5,A,3251.080418,N,11710.812168,W,17.5,331.4,240910,,,A*46
$GPRMC,143419.5,A,3251.090768,N,11710.819817,W,14.2,333.1,240910,,,A*45
$GPRMC,143422.5,A,3251.096318,N,11710.824125,W,8.5,337.0,240910,,,A*71
$GPRMC,143425.5,A,3251.100368,N,11710.826091,W,4.9,335.5,240910,,,A*74
$GPRMC,143428.5,A,3251.107713,N,11710.829747,W,10.4,324.5,240910,,,A*4D
$GPRMC,143431.5,A,3251.121420,N,11710.838452,W,17.6,324.4,240910,,,A*41
$GPRMC,143434.5,A,3251.135498,N,11710.847537,W,17.3,332.5,240910,,,A*4B
$GPRMC,143437.5,A,3251.146974,N,11710.855298,W,15.6,330.4,240910,,,A*46
$GPRMC,143440.5,A,3251.156521,N,11710.862481,W,14.2,332.1,240910,,,A*43
$GPRMC,143443.5,A,3251.169382,N,11710.871179,W,16.8,325.7,240910,,,A*4B
$GPRMC,143446.5,A,3251.184814,N,11710.881309,W,21.4,327.8,240910,,,A*46
$GPRMC,143449.5,A,3251.205446,N,11710.893197,W,26.1,330.5,240910,,,A*47
$GPRMC,143452.5,A,3251.225575,N,11710.906129,W,28.6,331.0,240910,,,A*4B
$GPRMC,143455.5,A,3251.247853,N,11710.919985,W,30.4,332.3,240910,,,A*4A
$GPRMC,143458.5,A,3251.273660,N,11710.933667,W,31.6,332.8,240910,,,A*4D
$GPRMC,143501.5,A,3251.297919,N,11710.947901,W,32.6,332.8,240910,,,A*44
$GPRMC,143504.5,A,3251.323835,N,11710.963369,W,34.7,331.8,240910,,,A*46
$GPRMC,143507.5,A,3251.349163,N,11710.980606,W,36.5,332.2,240910,,,A*4B
$GPRMC,143510.5,A,3251.376513,N,11710.998402,W,35.9,331.7,240910,,,A*44
$GPRMC,143513.5,A,3251.405191,N,11711.015009,W,37.9,332.0,240910,,,A*4E
$GPRMC,143516.5,A,3251.437171,N,11711.032762,W,41.5,332.5,240910,,,A*43
$GPRMC,143519.5,A,3251.468089,N,11711.053230,W,43.3,331.1,240910,,,A*46
$GPRMC,143522.5,A,3251.501062,N,11711.073735,W,43.9,332.5,240910,,,A*4A
$GPRMC,143525.5,A,3251.533750,N,11711.093219,W,42.3,331.8,240910,,,A*4A
$GPRMC,143528.5,A,3251.565867,N,11711.113525,W,43.8,331.1,240910,,,A*4D
$GPRMC,143531.5,A,3251.600657,N,11711.134892,W,45.8,329.9,240910,,,A*4B
$GPRMC,143534.5,A,3251.633978,N,11711.159360,W,47.7,327.4,240910,,,A*4F
$GPRMC,143537.5,A,3251.663909,N,11711.185865,W,45.9,324.7,240910,,,A*4C
$GPRMC,143540.5,A,3251.692134,N,11711.211128,W,44.3,322.6,240910,,,A*46
$GPRMC,143543.5,A,3251.720500,N,11711.237870,W,44.0,321.1,240910,,,A*49
$GPRMC,143546.5,A,3251.749051,N,11711.264596,W,44.4,321.1,240910,,,A*45
$GPRMC,143549.5,A,3251.779245,N,11711.293281,W,47.0,320.8,240910,,,A*48
$GPRMC,143552.5,A,3251.812349,N,11711.324079,W,49.7,321.5,240910,,,A*40
$GPRMC,143555.5,A,3251.846188,N,11711.356952,W,51.1,321.2,240910,,,A*44
$GPRMC,143558.5,A,3251.882196,N,11711.388412,W,52.9,321.3,240910,,,A*4E
$GPRMC,143601.5,A,3251.917430,N,11711.422915,W,54.8,320.7,240910,,,A*4A
$GPRMC,143604.5,A,3251.953297,N,11711.457522,W,55.6,320.9,240910,,,A*4F
$GPRMC,143607.5,A,3251.989625,N,11711.492790,W,55.7,321.4,240910,,,A*49
$GPRMC,143610.5,A,3252.026481,N,11711.526970,W,56.7,322.2,240910,,,A*44
$GPRMC,143613.5,A,3252.062007,N,11711.561118,W,55.5,321.4,240910,,,A*4C
$GPRMC,143616.5,A,3252.097733,N,11711.596200,W,56.5,321.4,240910,,,A*42
$GPRMC,143619.5,A,3252.135667,N,11711.632845,W,58.6,321.6,240910,,,A*4D
$GPRMC,143622.5,A,3252.175376,N,11711.669115,W,59.2,321.6,240910,,,A*43
$GPRMC,143625.5,A,3252.215316,N,11711.705651,W,60.3,322.1,240910,,,A*44
$GPRMC,143628.5,A,3252.252193,N,11711.744174,W,59.9,320.9,240910,,,A*4A
$GPRMC,143631.5,A,3252.292978,N,11711.781232,W,60.4,321.1,240910,,,A*45
$GPRMC,143634.5,A,3252.330175,N,11711.817339,W,57.9,321.6,240910,,,A*48
$GPRMC,143637.5,A,3252.367994,N,11711.850727,W,56.7,323.6,240910,,,A*4B
$GPRMC,143640.5,A,3252.408018,N,11711.881999,W,56.7,327.5,240910,,,A*48
$GPRMC,143643.5,A,3252.449127,N,11711.911997,W,56.6,329.9,240910,,,A*46
$GPRMC,143646.5,A,3252.492469,N,11711.937462,W,57.9,333.8,240910,,,A*4D
$GPRMC,143649.5,A,3252.536816,N,11711.959559,W,58.3,338.0,240910,,,A*4E
$GPRMC,143652.5,A,3252.584955,N,11711.980288,W,60.2,340.9,240910,,,A*48
$GPRMC,143655.5,A,3252.633439,N,11711.997215,W,59.7,344.2,240910,,,A*45
$GPRMC,143658.5,A,3252.679694,N,11712.011470,W,57.1,345.2,240910,,,A*4B
$GPRMC,143701.5,A,3252.725302,N,11712.026168,W,55.9,345.2,240910,,,A*46
$GPRMC,143704.5,A,3252.770517,N,11712.037956,W,55.4,347.2,240910,,,A*4B
$GPRMC,143707.5,A,3252.812194,N,11712.050055,W,53.6,347.1,240910,,,A*40
$GPRMC,143710.5,A,3252.854401,N,11712.061504,W,52.3,345.1,240910,,,A*48
$GPRMC,143713.5,A,3252.896081,N,11712.074283,W,52.1,345.6,240910,,,A*40
$GPRMC,143716.5,A,3252.938749,N,11712.087228,W,52.5,346.0,240910,,,A*4F
$GPRMC,143719.5,A,3252.982037,N,11712.100749,W,53.8,344.7,240910,,,A*4A
$GPRMC,143722.5,A,3253.028057,N,11712.112358,W,54.6,346.5,240910,,,A*42
$GPRMC,143725.5,A,3253.074939,N,11712.123169,W,55.1,350.0,240910,,,A*4B
$GPRMC,143728.5,A,3253.117949,N,11712.130397,W,50.9,351.7,240910,,,A*4F
$GPRMC,143731.5,A,3253.153967,N,11712.138813,W,46.4,348.4,240910,,,A*45
$GPRMC,143734.5,A,3253.191140,N,11712.150237,W,43.9,346.6,240910,,,A*45
$GPRMC,143737.5,A,3253.225107,N,11712.160673,W,40.8,343.6,240910,,,A*49
$GPRMC,143740.5,A,3253.254531,N,11712.173945,W,41.3,341.6,240910,,,A*4E
$GPRMC,143743.5,A,3253.286232,N,11712.190772,W,43.3,337.9,240910,,,A*4D
$GPRMC,143746.5,A,3253.317710,N,11712.209635,W,43.3,334.7,240910,,,A*48
$GPRMC,143749.5,A,3253.349939,N,11712.229843,W,43.0,332.8,240910,,,A*4E
$GPRMC,143752.5,A,3253.378784,N,11712.252262,W,41.8,327.7,240910,,,A*4A
$GPRMC,143755.5,A,3253.403480,N,11712.270020,W,36.4,333.9,240910,,,A*42
$GPRMC,143758.5,A,3253.430889,N,11712.281332,W,34.1,343.0,240910,,,A*4D
$GPRMC,143801.5,A,3253.449690,N,11712.288931,W,24.8,345.1,240910,,,A*49
$GPRMC,143804.5,A,3253.461236,N,11712.292993,W,14.5,345.0,240910,,,A*42
$GPRMC,143825.5,A,3253.467341,N,11712.293794,W,7.5,355.9,240910,,,A*74
$GPRMC,143828.5,A,3253.481650,N,11712.303030,W,18.0,328.9,240910,,,A*44
$GPRMC,143831.5,A,3253.497972,N,11712.317029,W,23.3,322.2,240910,,,A*43
$GPRMC,143834.5,A,3253.510888,N,11712.333647,W,24.3,315.7,240910,,,A*42
$GPRMC,143837.5,A,3253.523103,N,11712.350997,W,21.4,312.1,240910,,,A*4F
$GPRMC,143840.5,A,3253.531236,N,11712.363690,W,16.2,308.5,240910,,,A*4C
$GPRMC,143843.5,A,3253.538003,N,11712.376548,W,16.5,302.4,240910,,,A*4C
$GPRMC,143846.5,A,3253.541296,N,11712.386730,W,9.7,300.0,240910,,,A*71
$GPRMC,143849.5,A,3253.549638,N,11712.390071,W,10.6,341.7,240910,,,A*48
$GPRMC,143852.5,A,3253.560551,N,11712.391216,W,12.1,354.9,240910,,,A*48
$GPRMC,143855.5,A,3253.578866,N,11712.386194,W,17.6,9.1,240910,,,A*41
$GPRMC,143858.5,A,3253.615476,N,11712.365187,W,37.3,24.7,240910,,,A*78
$GPRMC,143901.5,A,3253.643805,N,11712.343860,W,40.4,39.4,240910,,,A*72
$GPRMC,143904.5,A,3253.667134,N,11712.313617,W,40.1,52.3,240910,,,A*7E
$GPRMC,143907.5,A,3253.680945,N,11712.276647,W,41.1,68.3,240910,,,A*75
$GPRMC,143910.5,A,3253.690672,N,11712.239283,W,38.8,72.6,240910,,,A*77
$GPRMC,143913.5,A,3253.691910,N,11712.204670,W,35.3,78.9,240910,,,A*7B
$GPRMC,143916.5,A,3253.693907,N,11712.177519,W,28.9,73.8,240910,,,A*7D
$GPRMC,143919.5,A,3253.687236,N,11712.168501,W,14.1,81.0,240910,,,A*7B
$GPRMC,143952.5,A,3253.685451,N,11712.161785,W,6.9,65.2,240910,,,A*45
$GPRMC,143955.5,A,3253.692849,N,11712.158873,W,9.1,4.4,240910,,,A*7B
$GPRMC,143958.5,A,3253.706799,N,11712.165001,W,17.4,338.3,240910,,,A*4A
$GPRMC,144001.5,A,3253.727004,N,11712.172051,W,23.2,342.8,240910,,,A*4C
$GPRMC,144004.5,A,3253.751548,N,11712.173870,W,27.8,356.0,240910,,,A*4C
$GPRMC,144007.5,A,3253.778463,N,11712.172575,W,30.0,1.1,240910,,,A*4B
$GPRMC,144010.5,A,3253.802408,N,11712.172166,W,29.6,0.7,240910,,,A*4D
$GPRMC,144013.5,A,3253.825263,N,11712.171754,W,29.0,0.1,240910,,,A*44
$GPRMC,144016.5,A,3253.847383,N,11712.170739,W,27.5,359.3,240910,,,A*46
$GPRMC,144019.5,A,3253.868340,N,11712.168737,W,27.2,1.5,240910,,,A*43
$GPRMC,144022.5,A,3253.889648,N,11712.169071,W,27.3,1.0,240910,,,A*49
$GPRMC,144025.5,A,3253.908734,N,11712.164241,W,24.3,12.2,240910,,,A*73
$GPRMC,144028.5,A,3253.925414,N,11712.150971,W,23.6,33.6,240910,,,A*7A
$GPRMC,144031.5,A,3253.938968,N,11712.129750,W,27.0,59.0,240910,,,A*73
$GPRMC,144034.5,A,3253.945449,N,11712.101867,W,31.4,75.5,240910,,,A*7B
$GPRMC,144037.5,A,3253.950301,N,11712.069946,W,34.3,79.4,240910,,,A*75
$GPRMC,144040.5,A,3253.955253,N,11712.036773,W,33.1,79.3,240910,,,A*76
$GPRMC,144043.5,A,3253.961978,N,11712.003606,W,32.8,77.7,240910,,,A*77
$GPRMC,144046.5,A,3253.967311,N,11711.973605,W,32.2,79.1,240910,,,A*7D
$GPRMC,144049.5,A,3253.972454,N,11711.941560,W,32.4,78.6,240910,,,A*71
$GPRMC,144052.5,A,3253.978334,N,11711.909286,W,34.1,78.8,240910,,,A*7E
$GPRMC,144055.5,A,3253.983301,N,11711.876977,W,32.2,78.8,240910,,,A*72
$GPRMC,144058.5,A,3253.988414,N,11711.845557,W,31.0,78.3,240910,,,A*73
$GPRMC,144101.5,A,3253.992831,N,11711.817831,W,28.7,77.5,240910,,,A*72
$GPRMC,144104.5,A,3253.999190,N,11711.792774,W,25.3,75.1,240910,,,A*7D
$GPRMC,144107.5,A,3254.002846,N,11711.771256,W,22.0,76.1,240910,,,A*7F
$GPRMC,144110.5,A,3254.007094,N,11711.759575,W,13.0,59.0,240910,,,A*79
$GPRMC,144119.5,A,3254.005806,N,11711.757923,W,6.1,52.7,240910,,,A*49
$GPRMC,144122.5,A,3254.014949,N,11711.749888,W,11.8,32.1,240910,,,A*7B
$GPRMC,144125.5,A,3254.025128,N,11711.745470,W,12.2,24.1,240910,,,A*78
$GPRMC,144128.5,A,3254.044277,N,11711.756984,W,17.3,347.6,240910,,,A*4A
$GPRMC,144131.5,A,3254.076725,N,11711.782570,W,32.9,327.0,240910,,,A*42
$GPRMC,144134.5,A,3254.098881,N,11711.812097,W,35.7,315.8,240910,,,A*4C
$GPRMC,144137.5,A,3254.116472,N,11711.843198,W,36.1,308.3,240910,,,A*40
$GPRMC,144140.5,A,3254.118751,N,11711.881170,W,33.7,290.3,240910,,,A*47
$GPRMC,144143.5,A,3254.121988,N,11711.912381,W,30.0,278.9,240910,,,A*4B
$GPRMC,144146.5,A,3254.124339,N,11711.939202,W,24.7,275.4,240910,,,A*4A
$GPRMC,144149.5,A,3254.123954,N,11711.954005,W,14.2,276.4,240910,,,A*48
$GPRMC,144152.5,A,3254.128253,N,11711.964911,W,11.0,295.2,240910,,,A*46
$GPRMC,144155.5,A,3254.137506,N,11711.971964,W,11.1,311.3,240910,,,A*43
$GPRMC,144158.5,A,3254.156845,N,11711.966419,W,14.2,10.7,240910,,,A*72
$GPRMC,144201.5,A,3254.181281,N,11711.950500,W,24.7,31.5,240910,,,A*7E
