NMEA Sentence Code,UTC Time,Status,Latitude,Latitude Direction,Longitude,Longitude Direction,Speed (knots),Track Angle (degrees true),Date,MagneticVariation,Magnetic Variation Direction,[FAA Mode]-Optional,Checksum
$GPRMC,185520.68,A,3312.3257,N,11722.9691,W,26.900,16.487,181110,0,W,A*27
$GPRMC,185523.68,A,3312.3399,N,11722.9638,W,12.065,21.715,181110,0,W,A*25
$GPRMC,185529.68,A,3312.3435,N,11722.9525,W,11.613,93.087,181110,0,W,A*20
$GPRMC,185532.68,A,3312.3389,N,11722.9373,W,21.371,108.207,181110,0,W,A*14
$GPRMC,185535.68,A,3312.3304,N,11722.9151,W,25.768,120.161,181110,0,W,A*15
$GPRMC,185538.68,A,3312.3132,N,11722.8976,W,25.504,157.200,181110,0,W,A*1F
$GPRMC,185541.68,A,3312.2909,N,11722.8985,W,27.897,197.169,181110,0,W,A*19
$GPRMC,185544.68,A,3312.2748,N,11722.9189,W,27.367,245.954,181110,0,W,A*1C
$GPRMC,185547.68,A,3312.2754,N,11722.9491,W,31.226,288.735,181110,0,W,A*15
$GPRMC,185550.68,A,3312.2931,N,11722.9782,W,37.772,311.394,181110,0,W,A*13
$GPRMC,185553.68,A,3312.3187,N,11723.0090,W,45.063,317.861,181110,0,W,A*1D
$GPRMC,185556.68,A,3312.3509,N,11723.0397,W,49.685,322.890,181110,0,W,A*14
$GPRMC,185559.68,A,3312.3877,N,11723.0688,W,52.626,327.932,181110,0,W,A*1B
$GPRMC,185602.68,A,3312.4283,N,11723.0968,W,55.799,332.968,181110,0,W,A*18
$GPRMC,185605.68,A,3312.4716,N,11723.1202,W,56.605,337.667,181110,0,W,A*12
$GPRMC,185608.68,A,3312.5157,N,11723.1401,W,54.914,337.205,181110,0,W,A*15
$GPRMC,185611.68,A,3312.5562,N,11723.1629,W,51.958,332.401,181110,0,W,A*1D
$GPRMC,185614.68,A,3312.5935,N,11723.1858,W,49.040,333.232,181110,0,W,A*10
$GPRMC,185617.68,A,3312.6313,N,11723.1994,W,45.613,354.170,181110,0,W,A*17
$GPRMC,185620.68,A,3312.6696,N,11723.1947,W,44.508,11.785,181110,0,W,A*23
$GPRMC,185623.68,A,3312.7052,N,11723.1862,W,42.908,8.511,181110,0,W,A*14
$GPRMC,185626.68,A,3312.7398,N,11723.1835,W,39.299,354.772,181110,0,W,A*14
$GPRMC,185629.68,A,3312.7695,N,11723.1915,W,33.734,340.217,181110,0,W,A*1B
$GPRMC,185632.68,A,3312.7914,N,11723.2026,W,26.520,337.586,181110,0,W,A*11
$GPRMC,185635.68,A,3312.8109,N,11723.2116,W,24.899,340.743,181110,0,W,A*19
$GPRMC,185638.68,A,3312.8294,N,11723.2188,W,22.482,338.437,181110,0,W,A*1B
$GPRMC,185641.68,A,3312.8453,N,11723.2263,W,20.278,339.888,181110,0,W,A*16
$GPRMC,185644.68,A,3312.8598,N,11723.2317,W,16.895,342.273,181110,0,W,A*19
$GPRMC,185647.68,A,3312.8710,N,11723.2362,W,11.634,338.111,181110,0,W,A*12
$GPRMC,185653.68,A,3312.8773,N,11723.2393,W,7.295,326.569,181110,0,W,A*20
$GPRMC,185656.68,A,3312.8873,N,11723.2456,W,17.941,333.352,181110,0,W,A*1D
$GPRMC,185659.68,A,3312.9036,N,11723.2581,W,25.643,327.103,181110,0,W,A*1E
$GPRMC,185702.68,A,3312.9230,N,11723.2726,W,25.979,331.389,181110,0,W,A*1B
$GPRMC,185705.68,A,3312.9391,N,11723.2826,W,17.999,335.997,181110,0,W,A*17
$GPRMC,185708.68,A,3312.9486,N,11723.2871,W,7.693,331.659,181110,0,W,A*24
$GPRMC,185750.68,A,3312.9545,N,11723.2896,W,11.976,336.021,181110,0,W,A*13
$GPRMC,185753.68,A,3312.9682,N,11723.2968,W,22.808,336.956,181110,0,W,A*19
$GPRMC,185756.68,A,3312.9881,N,11723.3074,W,27.816,336.437,181110,0,W,A*14
$GPRMC,185759.68,A,3313.0116,N,11723.3198,W,32.329,335.350,181110,0,W,A*11
$GPRMC,185802.68,A,3313.0381,N,11723.3346,W,35.879,336.169,181110,0,W,A*1F
$GPRMC,185805.68,A,3313.0675,N,11723.3509,W,38.451,335.479,181110,0,W,A*17
$GPRMC,185808.68,A,3313.0968,N,11723.3671,W,37.271,335.422,181110,0,W,A*10
$GPRMC,185811.68,A,3313.1249,N,11723.3823,W,35.946,335.851,181110,0,W,A*1D
$GPRMC,185814.68,A,3313.1533,N,11723.3970,W,37.486,336.378,181110,0,W,A*15
$GPRMC,185817.68,A,3313.1817,N,11723.4124,W,37.410,335.154,181110,0,W,A*13
$GPRMC,185820.68,A,3313.2099,N,11723.4292,W,37.676,334.213,181110,0,W,A*17
$GPRMC,185823.68,A,3313.2387,N,11723.4452,W,38.446,336.031,181110,0,W,A*1C
$GPRMC,185826.68,A,3313.2681,N,11723.4608,W,38.927,335.810,181110,0,W,A*15
$GPRMC,185829.68,A,3313.2987,N,11723.4772,W,40.184,336.255,181110,0,W,A*19
$GPRMC,185832.68,A,3313.3302,N,11723.4912,W,39.007,344.218,181110,0,W,A*15
$GPRMC,185835.68,A,3313.3633,N,11723.4981,W,39.755,354.030,181110,0,W,A*16
$GPRMC,185838.68,A,3313.3963,N,11723.5003,W,38.694,358.123,181110,0,W,A*11
$GPRMC,185841.68,A,3313.4273,N,11723.5011,W,36.648,358.775,181110,0,W,A*1B
$GPRMC,185844.68,A,3313.4568,N,11723.5022,W,35.382,357.503,181110,0,W,A*1F
$GPRMC,185847.68,A,3313.4862,N,11723.5038,W,35.880,358.318,181110,0,W,A*1A
$GPRMC,185850.68,A,3313.5164,N,11723.5051,W,37.098,357.582,181110,0,W,A*14
$GPRMC,185853.68,A,3313.5489,N,11723.5072,W,40.122,357.065,181110,0,W,A*1C
$GPRMC,185856.68,A,3313.5829,N,11723.5098,W,40.342,357.658,181110,0,W,A*17
$GPRMC,185859.68,A,3313.6167,N,11723.5115,W,40.996,358.075,181110,0,W,A*19
$GPRMC,185902.68,A,3313.6510,N,11723.5135,W,41.563,357.950,181110,0,W,A*16
$GPRMC,185905.68,A,3313.6853,N,11723.5132,W,40.972,3.178,181110,0,W,A*11
$GPRMC,185908.68,A,3313.7196,N,11723.5065,W,40.571,11.869,181110,0,W,A*2B
$GPRMC,185911.68,A,3313.7525,N,11723.4947,W,41.287,21.224,181110,0,W,A*28
$GPRMC,185914.68,A,3313.7850,N,11723.4751,W,44.201,30.434,181110,0,W,A*27
$GPRMC,185917.68,A,3313.8184,N,11723.4486,W,47.310,35.128,181110,0,W,A*2D
$GPRMC,185920.68,A,3313.8512,N,11723.4205,W,47.088,35.913,181110,0,W,A*2D
$GPRMC,185923.68,A,3313.8835,N,11723.3929,W,46.327,34.465,181110,0,W,A*2E
$GPRMC,185926.68,A,3313.9144,N,11723.3686,W,40.939,32.561,181110,0,W,A*2F
$GPRMC,185929.68,A,3313.9405,N,11723.3507,W,31.241,29.696,181110,0,W,A*29
$GPRMC,185932.68,A,3313.9632,N,11723.3351,W,32.946,27.751,181110,0,W,A*2B
$GPRMC,185935.68,A,3313.9892,N,11723.3187,W,37.360,25.195,181110,0,W,A*26
$GPRMC,185938.68,A,3314.0194,N,11723.3026,W,41.654,23.290,181110,0,W,A*23
$GPRMC,185941.68,A,3314.0524,N,11723.2855,W,44.356,23.979,181110,0,W,A*21
$GPRMC,185944.68,A,3314.0865,N,11723.2662,W,45.284,25.001,181110,0,W,A*29
$GPRMC,185947.68,A,3314.1199,N,11723.2448,W,44.801,32.706,181110,0,W,A*2B
$GPRMC,185950.68,A,3314.1484,N,11723.2162,W,45.856,48.148,181110,0,W,A*2B
$GPRMC,185953.68,A,3314.1710,N,11723.1782,W,47.334,56.972,181110,0,W,A*2E
$GPRMC,185956.68,A,3314.1921,N,11723.1359,W,49.059,57.291,181110,0,W,A*24
$GPRMC,185959.68,A,3314.2140,N,11723.0937,W,49.977,56.990,181110,0,W,A*2A
$GPRMC,190002.68,A,3314.2367,N,11723.0513,W,50.531,57.436,181110,0,W,A*22
$GPRMC,190005.68,A,3314.2594,N,11723.0089,W,50.208,57.411,181110,0,W,A*21
$GPRMC,190008.68,A,3314.2814,N,11722.9670,W,49.374,57.703,181110,0,W,A*23
$GPRMC,190011.68,A,3314.3050,N,11722.9272,W,48.291,50.280,181110,0,W,A*26
$GPRMC,190014.68,A,3314.3344,N,11722.8956,W,47.428,35.976,181110,0,W,A*23
$GPRMC,190017.68,A,3314.3691,N,11722.8722,W,47.416,28.522,181110,0,W,A*2C
$GPRMC,190020.68,A,3314.4051,N,11722.8504,W,48.142,28.487,181110,0,W,A*26
$GPRMC,190023.68,A,3314.4412,N,11722.8279,W,48.493,28.456,181110,0,W,A*2E
$GPRMC,190026.68,A,3314.4773,N,11722.8066,W,47.299,24.692,181110,0,W,A*26
$GPRMC,190029.68,A,3314.5159,N,11722.7925,W,46.851,10.716,181110,0,W,A*22
$GPRMC,190032.68,A,3314.5562,N,11722.7898,W,47.394,358.312,181110,0,W,A*1F
$GPRMC,190035.68,A,3314.5953,N,11722.7939,W,47.299,357.159,181110,0,W,A*12
$GPRMC,190038.68,A,3314.6345,N,11722.7983,W,47.125,356.712,181110,0,W,A*1C
$GPRMC,190041.68,A,3314.6732,N,11722.8016,W,46.377,358.506,181110,0,W,A*11
$GPRMC,190044.68,A,3314.7118,N,11722.7976,W,46.905,10.730,181110,0,W,A*2C
$GPRMC,190047.68,A,3314.7506,N,11722.7873,W,48.496,12.988,181110,0,W,A*26
$GPRMC,190050.68,A,3314.7903,N,11722.7764,W,48.820,12.713,181110,0,W,A*2D
$GPRMC,190053.68,A,3314.8299,N,11722.7658,W,49.038,12.761,181110,0,W,A*22
$GPRMC,190056.68,A,3314.8695,N,11722.7552,W,48.909,13.230,181110,0,W,A*2C
$GPRMC,190059.68,A,3314.9078,N,11722.7401,W,48.091,25.206,181110,0,W,A*28
$GPRMC,190102.68,A,3314.9413,N,11722.7137,W,48.373,39.364,181110,0,W,A*29
$GPRMC,190105.68,A,3314.9695,N,11722.6798,W,49.005,48.450,181110,0,W,A*25
$GPRMC,190108.68,A,3314.9959,N,11722.6416,W,50.566,47.797,181110,0,W,A*2D
$GPRMC,190111.68,A,3315.0245,N,11722.6025,W,51.639,47.589,181110,0,W,A*2A
$GPRMC,190114.68,A,3315.0542,N,11722.5637,W,52.374,47.702,181110,0,W,A*27
$GPRMC,190117.68,A,3315.0841,N,11722.5237,W,53.341,47.904,181110,0,W,A*21
$GPRMC,190120.68,A,3315.1141,N,11722.4836,W,53.235,47.362,181110,0,W,A*2F
$GPRMC,190123.68,A,3315.1439,N,11722.4437,W,52.994,48.373,181110,0,W,A*25
$GPRMC,190126.68,A,3315.1728,N,11722.4048,W,50.928,47.477,181110,0,W,A*26
$GPRMC,190129.68,A,3315.2004,N,11722.3691,W,47.674,46.025,181110,0,W,A*24
$GPRMC,190132.68,A,3315.2284,N,11722.3380,W,45.638,42.682,181110,0,W,A*24
$GPRMC,190135.68,A,3315.2564,N,11722.3099,W,43.566,38.239,181110,0,W,A*26
$GPRMC,190138.68,A,3315.2852,N,11722.2860,W,41.689,31.852,181110,0,W,A*22
$GPRMC,190141.68,A,3315.3155,N,11722.2663,W,40.839,27.878,181110,0,W,A*25
$GPRMC,190144.68,A,3315.3439,N,11722.2494,W,33.072,22.852,181110,0,W,A*2B
$GPRMC,190147.68,A,3315.3669,N,11722.2386,W,29.807,19.559,181110,0,W,A*24
$GPRMC,190150.68,A,3315.3920,N,11722.2298,W,33.949,17.041,181110,0,W,A*2C
$GPRMC,190153.68,A,3315.4206,N,11722.2218,W,36.331,12.041,181110,0,W,A*2A
$GPRMC,190156.68,A,3315.4514,N,11722.2169,W,38.528,8.452,181110,0,W,A*13
$GPRMC,190159.68,A,3315.4850,N,11722.2111,W,41.270,9.460,181110,0,W,A*1A
$GPRMC,190202.68,A,3315.5208,N,11722.2046,W,44.431,8.312,181110,0,W,A*17
$GPRMC,190205.68,A,3315.5587,N,11722.1983,W,46.489,8.469,181110,0,W,A*19
$GPRMC,190208.68,A,3315.5985,N,11722.1913,W,48.264,8.617,181110,0,W,A*13
$GPRMC,190211.68,A,3315.6392,N,11722.1840,W,49.563,9.097,181110,0,W,A*1D
$GPRMC,190214.68,A,3315.6810,N,11722.1763,W,50.886,8.712,181110,0,W,A*12
$GPRMC,190217.68,A,3315.7235,N,11722.1686,W,51.666,8.752,181110,0,W,A*12
$GPRMC,190220.68,A,3315.7666,N,11722.1611,W,51.882,8.665,181110,0,W,A*1B
$GPRMC,190223.68,A,3315.8093,N,11722.1534,W,51.059,8.838,181110,0,W,A*17
$GPRMC,190226.68,A,3315.8516,N,11722.1460,W,50.751,8.690,181110,0,W,A*18
$GPRMC,190229.68,A,3315.8933,N,11722.1383,W,50.112,8.822,181110,0,W,A*10
$GPRMC,190232.68,A,3315.9343,N,11722.1310,W,48.625,7.817,181110,0,W,A*1F
$GPRMC,190235.68,A,3315.9744,N,11722.1272,W,47.706,1.497,181110,0,W,A*13
$GPRMC,190238.68,A,3316.0132,N,11722.1291,W,47.123,355.442,181110,0,W,A*15
$GPRMC,190241.68,A,3316.0524,N,11722.1369,W,47.525,347.976,181110,0,W,A*15
$GPRMC,190244.68,A,3316.0905,N,11722.1504,W,47.261,342.868,181110,0,W,A*1E
$GPRMC,190247.68,A,3316.1287,N,11722.1668,W,48.920,341.494,181110,0,W,A*19
$GPRMC,190250.68,A,3316.1677,N,11722.1835,W,49.229,340.835,181110,0,W,A*17
$GPRMC,190253.68,A,3316.2064,N,11722.2001,W,49.682,341.438,181110,0,W,A*1A
$GPRMC,190256.68,A,3316.2458,N,11722.2169,W,50.556,341.300,181110,0,W,A*15
$GPRMC,190259.68,A,3316.2860,N,11722.2335,W,51.704,341.903,181110,0,W,A*1B
$GPRMC,190302.68,A,3316.3269,N,11722.2502,W,52.044,341.122,181110,0,W,A*1F
$GPRMC,190305.68,A,3316.3678,N,11722.2667,W,51.687,341.735,181110,0,W,A*16
$GPRMC,190308.68,A,3316.4085,N,11722.2831,W,51.244,341.348,181110,0,W,A*10
$GPRMC,190311.68,A,3316.4485,N,11722.2999,W,50.681,340.962,181110,0,W,A*10
$GPRMC,190314.68,A,3316.4881,N,11722.3161,W,50.493,341.598,181110,0,W,A*1A
$GPRMC,190317.68,A,3316.5276,N,11722.3322,W,48.938,341.139,181110,0,W,A*15
$GPRMC,190320.68,A,3316.5653,N,11722.3470,W,46.799,343.103,181110,0,W,A*12
$GPRMC,190323.68,A,3316.6033,N,11722.3558,W,46.359,355.705,181110,0,W,A*16
$GPRMC,190326.68,A,3316.6413,N,11722.3511,W,45.981,9.990,181110,0,W,A*1C
$GPRMC,190329.68,A,3316.6790,N,11722.3401,W,45.577,13.596,181110,0,W,A*2F
$GPRMC,190332.68,A,3316.7167,N,11722.3320,W,46.677,3.988,181110,0,W,A*1C
$GPRMC,190335.68,A,3316.7563,N,11722.3310,W,47.614,357.106,181110,0,W,A*10
$GPRMC,190338.68,A,3316.7968,N,11722.3335,W,48.701,357.573,181110,0,W,A*11
$GPRMC,190341.68,A,3316.8377,N,11722.3354,W,49.747,357.311,181110,0,W,A*12
$GPRMC,190344.68,A,3316.8790,N,11722.3379,W,50.151,357.216,181110,0,W,A*1A
$GPRMC,190347.68,A,3316.9208,N,11722.3403,W,49.813,357.319,181110,0,W,A*1F
$GPRMC,190350.68,A,3316.9621,N,11722.3423,W,49.154,359.036,181110,0,W,A*1E
$GPRMC,190353.68,A,3317.0027,N,11722.3404,W,48.066,4.598,181110,0,W,A*1B
$GPRMC,190356.68,A,3317.0424,N,11722.3350,W,46.888,5.518,181110,0,W,A*10
$GPRMC,190359.68,A,3317.0810,N,11722.3303,W,45.475,5.683,181110,0,W,A*1E
$GPRMC,190402.68,A,3317.1185,N,11722.3258,W,44.457,5.418,181110,0,W,A*1D
$GPRMC,190405.68,A,3317.1550,N,11722.3204,W,43.516,9.694,181110,0,W,A*16
$GPRMC,190408.68,A,3317.1892,N,11722.3086,W,44.209,19.805,181110,0,W,A*29
$GPRMC,190411.68,A,3317.2233,N,11722.2908,W,44.637,26.419,181110,0,W,A*29
$GPRMC,190414.68,A,3317.2545,N,11722.2674,W,44.833,36.038,181110,0,W,A*22
$GPRMC,190417.68,A,3317.2821,N,11722.2378,W,43.512,44.451,181110,0,W,A*20
$GPRMC,190420.68,A,3317.3050,N,11722.2045,W,41.998,53.245,181110,0,W,A*2F
$GPRMC,190423.68,A,3317.3234,N,11722.1691,W,39.550,60.669,181110,0,W,A*2D
$GPRMC,190426.68,A,3317.3381,N,11722.1342,W,38.568,61.307,181110,0,W,A*2A
$GPRMC,190429.68,A,3317.3533,N,11722.0999,W,38.140,60.928,181110,0,W,A*2F
$GPRMC,190432.68,A,3317.3686,N,11722.0662,W,37.995,60.791,181110,0,W,A*20
$GPRMC,190435.68,A,3317.3836,N,11722.0326,W,37.819,61.084,181110,0,W,A*20
$GPRMC,190438.68,A,3317.3987,N,11721.9989,W,37.578,60.661,181110,0,W,A*25
$GPRMC,190441.68,A,3317.4138,N,11721.9658,W,37.403,60.804,181110,0,W,A*23
$GPRMC,190444.68,A,3317.4287,N,11721.9335,W,37.233,60.835,181110,0,W,A*28
$GPRMC,190447.68,A,3317.4437,N,11721.9009,W,38.155,60.770,181110,0,W,A*28
$GPRMC,190450.68,A,3317.4591,N,11721.8674,W,38.607,60.714,181110,0,W,A*2C
$GPRMC,190453.68,A,3317.4749,N,11721.8337,W,38.949,61.390,181110,0,W,A*26
$GPRMC,190456.68,A,3317.4907,N,11721.7993,W,39.268,60.734,181110,0,W,A*2E
$GPRMC,190459.68,A,3317.5070,N,11721.7650,W,39.731,60.617,181110,0,W,A*20
$GPRMC,190502.68,A,3317.5233,N,11721.7306,W,39.888,61.008,181110,0,W,A*28
$GPRMC,190505.68,A,3317.5391,N,11721.6966,W,38.722,60.920,181110,0,W,A*27
$GPRMC,190508.68,A,3317.5542,N,11721.6645,W,36.084,61.236,181110,0,W,A*24
$GPRMC,190511.68,A,3317.5683,N,11721.6341,W,34.340,61.103,181110,0,W,A*2F
$GPRMC,190514.68,A,3317.5824,N,11721.6049,W,33.230,60.129,181110,0,W,A*2A
$GPRMC,190517.68,A,3317.5959,N,11721.5765,W,32.670,60.946,181110,0,W,A*28
$GPRMC,190520.68,A,3317.6090,N,11721.5483,W,32.444,60.527,181110,0,W,A*26
$GPRMC,190523.68,A,3317.6224,N,11721.5200,W,32.796,61.240,181110,0,W,A*2E
$GPRMC,190526.68,A,3317.6358,N,11721.4916,W,32.906,60.620,181110,0,W,A*28
$GPRMC,190529.68,A,3317.6492,N,11721.4632,W,32.951,60.966,181110,0,W,A*20
$GPRMC,190532.68,A,3317.6623,N,11721.4349,W,32.712,61.289,181110,0,W,A*29
$GPRMC,190535.68,A,3317.6758,N,11721.4060,W,32.764,60.994,181110,0,W,A*2C
$GPRMC,190538.68,A,3317.6891,N,11721.3778,W,32.884,60.660,181110,0,W,A*27
$GPRMC,190541.68,A,3317.7026,N,11721.3497,W,32.518,60.699,181110,0,W,A*20
$GPRMC,190544.68,A,3317.7159,N,11721.3215,W,32.688,60.298,181110,0,W,A*2F
$GPRMC,190547.68,A,3317.7298,N,11721.2938,W,31.915,59.122,181110,0,W,A*27
$GPRMC,190550.68,A,3317.7423,N,11721.2684,W,27.092,60.348,181110,0,W,A*2A
$GPRMC,190553.68,A,3317.7509,N,11721.2497,W,17.284,60.395,181110,0,W,A*26
$GPRMC,190556.68,A,3317.7557,N,11721.2393,W,7.885,66.897,181110,0,W,A*1E
$GPRMC,190605.68,A,3317.7587,N,11721.2339,W,12.822,61.844,181110,0,W,A*26
$GPRMC,190608.68,A,3317.7655,N,11721.2187,W,22.053,59.829,181110,0,W,A*2D
$GPRMC,190611.68,A,3317.7760,N,11721.1961,W,28.603,61.138,181110,0,W,A*2A
$GPRMC,190614.68,A,3317.7883,N,11721.1693,W,33.224,61.794,181110,0,W,A*24
$GPRMC,190617.68,A,3317.8020,N,11721.1391,W,35.649,62.183,181110,0,W,A*24
$GPRMC,190620.68,A,3317.8164,N,11721.1073,W,36.481,60.930,181110,0,W,A*29
$GPRMC,190623.68,A,3317.8316,N,11721.0746,W,37.794,61.380,181110,0,W,A*2B
$GPRMC,190626.68,A,3317.8472,N,11721.0416,W,37.675,60.749,181110,0,W,A*23
$GPRMC,190629.68,A,3317.8627,N,11721.0087,W,37.742,60.591,181110,0,W,A*20
$GPRMC,190632.68,A,3317.8776,N,11720.9758,W,36.779,61.662,181110,0,W,A*25
$GPRMC,190635.68,A,3317.8924,N,11720.9439,W,35.409,61.040,181110,0,W,A*2E
$GPRMC,190638.68,A,3317.9073,N,11720.9137,W,34.018,57.821,181110,0,W,A*2D
$GPRMC,190641.68,A,3317.9234,N,11720.8865,W,32.147,53.082,181110,0,W,A*25
$GPRMC,190644.68,A,3317.9400,N,11720.8624,W,30.946,49.106,181110,0,W,A*27
$GPRMC,190647.68,A,3317.9571,N,11720.8393,W,31.647,45.110,181110,0,W,A*2E
$GPRMC,190650.68,A,3317.9776,N,11720.8186,W,33.233,39.833,181110,0,W,A*2D
$GPRMC,190653.68,A,3318.0011,N,11720.7996,W,34.531,33.868,181110,0,W,A*2E
$GPRMC,190656.68,A,3318.0259,N,11720.7811,W,35.043,33.467,181110,0,W,A*29
$GPRMC,190659.68,A,3318.0504,N,11720.7629,W,33.491,33.325,181110,0,W,A*20
$GPRMC,190702.68,A,3318.0731,N,11720.7452,W,31.712,33.826,181110,0,W,A*27
$GPRMC,190705.68,A,3318.0946,N,11720.7286,W,30.090,33.853,181110,0,W,A*2F
$GPRMC,190708.68,A,3318.1127,N,11720.7147,W,22.320,32.819,181110,0,W,A*26
$GPRMC,190711.68,A,3318.1259,N,11720.7045,W,16.690,32.299,181110,0,W,A*2C
$GPRMC,190714.68,A,3318.1354,N,11720.6981,W,10.833,32.427,181110,0,W,A*27
$GPRMC,190717.68,A,3318.1406,N,11720.6947,W,6.013,33.560,181110,0,W,A*10
$GPRMC,190726.68,A,3318.1455,N,11720.6917,W,9.362,34.679,181110,0,W,A*17
$GPRMC,190729.68,A,3318.1542,N,11720.6849,W,16.011,34.016,181110,0,W,A*23
$GPRMC,190732.68,A,3318.1673,N,11720.6746,W,19.508,33.458,181110,0,W,A*23
$GPRMC,190735.68,A,3318.1826,N,11720.6630,W,22.664,33.465,181110,0,W,A*25
$GPRMC,190738.68,A,3318.1998,N,11720.6494,W,26.120,34.084,181110,0,W,A*2F
$GPRMC,190741.68,A,3318.2193,N,11720.6339,W,29.305,33.162,181110,0,W,A*25
$GPRMC,190744.68,A,3318.2395,N,11720.6183,W,25.944,32.201,181110,0,W,A*23
$GPRMC,190747.68,A,3318.2536,N,11720.6069,W,14.846,33.428,181110,0,W,A*27
$GPRMC,190750.68,A,3318.2641,N,11720.5985,W,17.581,33.654,181110,0,W,A*26
$GPRMC,190753.68,A,3318.2792,N,11720.5870,W,24.195,33.487,181110,0,W,A*2C
$GPRMC,190756.68,A,3318.2978,N,11720.5728,W,28.771,30.664,181110,0,W,A*2D
$GPRMC,190759.68,A,3318.3189,N,11720.5581,W,29.938,30.752,181110,0,W,A*22
$GPRMC,190802.68,A,3318.3414,N,11720.5438,W,30.880,25.619,181110,0,W,A*21
$GPRMC,190805.68,A,3318.3660,N,11720.5305,W,33.391,24.507,181110,0,W,A*2B
$GPRMC,190808.68,A,3318.3923,N,11720.5164,W,35.240,24.445,181110,0,W,A*27
$GPRMC,190811.68,A,3318.4198,N,11720.5019,W,36.260,25.193,181110,0,W,A*25
$GPRMC,190814.68,A,3318.4465,N,11720.4840,W,37.860,32.677,181110,0,W,A*22
$GPRMC,190817.68,A,3318.4718,N,11720.4611,W,39.095,42.890,181110,0,W,A*2E
$GPRMC,190820.68,A,3318.4946,N,11720.4307,W,40.494,53.038,181110,0,W,A*2C
$GPRMC,190823.68,A,3318.5138,N,11720.3953,W,41.941,57.136,181110,0,W,A*2C
$GPRMC,190826.68,A,3318.5326,N,11720.3583,W,43.273,58.041,181110,0,W,A*23
$GPRMC,190829.68,A,3318.5516,N,11720.3207,W,43.879,57.809,181110,0,W,A*29
$GPRMC,190832.68,A,3318.5711,N,11720.2831,W,43.921,57.892,181110,0,W,A*26
$GPRMC,190835.68,A,3318.5916,N,11720.2465,W,44.208,53.789,181110,0,W,A*23
$GPRMC,190838.68,A,3318.6155,N,11720.2141,W,43.205,44.475,181110,0,W,A*2D
$GPRMC,190841.68,A,3318.6422,N,11720.1874,W,41.779,36.283,181110,0,W,A*2C
$GPRMC,190844.68,A,3318.6695,N,11720.1628,W,41.633,40.189,181110,0,W,A*27
$GPRMC,190847.68,A,3318.6944,N,11720.1351,W,41.206,47.642,181110,0,W,A*29
$GPRMC,190850.68,A,3318.7167,N,11720.1038,W,41.832,47.799,181110,0,W,A*21
$GPRMC,190853.68,A,3318.7394,N,11720.0729,W,40.736,48.479,181110,0,W,A*22
$GPRMC,190856.68,A,3318.7619,N,11720.0423,W,40.052,47.805,181110,0,W,A*23
$GPRMC,190859.68,A,3318.7836,N,11720.0126,W,38.475,47.758,181110,0,W,A*26
$GPRMC,190902.68,A,3318.8045,N,11719.9846,W,37.042,48.103,181110,0,W,A*2E
$GPRMC,190905.68,A,3318.8250,N,11719.9564,W,37.413,48.969,181110,0,W,A*26
$GPRMC,190908.68,A,3318.8446,N,11719.9269,W,38.090,54.365,181110,0,W,A*2B
$GPRMC,190911.68,A,3318.8625,N,11719.8949,W,38.752,57.931,181110,0,W,A*2D
$GPRMC,190914.68,A,3318.8791,N,11719.8629,W,36.569,59.414,181110,0,W,A*2F
$GPRMC,190917.68,A,3318.8946,N,11719.8328,W,34.462,58.108,181110,0,W,A*2D
$GPRMC,190920.68,A,3318.9095,N,11719.8044,W,32.201,58.574,181110,0,W,A*2C
$GPRMC,190923.68,A,3318.9188,N,11719.7767,W,30.045,81.811,181110,0,W,A*21
$GPRMC,190926.68,A,3318.9145,N,11719.7488,W,28.221,108.758,181110,0,W,A*1C
$GPRMC,190929.68,A,3318.9052,N,11719.7219,W,30.792,111.169,181110,0,W,A*12
$GPRMC,190932.68,A,3318.8954,N,11719.6928,W,32.749,110.989,181110,0,W,A*1D
$GPRMC,190935.68,A,3318.8847,N,11719.6620,W,34.935,111.124,181110,0,W,A*13
$GPRMC,190938.68,A,3318.8730,N,11719.6296,W,35.532,111.570,181110,0,W,A*17
$GPRMC,190941.68,A,3318.8635,N,11719.5963,W,34.947,101.973,181110,0,W,A*1E
$GPRMC,190944.68,A,3318.8588,N,11719.5622,W,35.658,94.977,181110,0,W,A*2D
$GPRMC,190947.68,A,3318.8574,N,11719.5254,W,37.622,91.971,181110,0,W,A*24
$GPRMC,190950.68,A,3318.8587,N,11719.4869,W,38.543,84.318,181110,0,W,A*21
$GPRMC,190953.68,A,3318.8650,N,11719.4491,W,39.544,77.222,181110,0,W,A*22
