NMEA Sentence Code,UTC Time,Status,Latitude,Latitude Direction,Longitude,Longitude Direction,Speed (knots),Track Angle (degrees true),Date,MagneticVariation,Magnetic Variation Direction,[FAA Mode]-Optional,Checksum
$GPRMC,032003.0,A,3340.050490,N,11749.031256,W,51.4,111.6,300110,,,A*4F
$GPRMC,032006.0,A,3340.034590,N,11748.982931,W,52.8,111.5,300110,,,A*4F
$GPRMC,032009.0,A,3340.017760,N,11748.933384,W,54.2,112.0,300110,,,A*48
$GPRMC,032012.0,A,3340.000761,N,11748.882826,W,55.1,111.8,300110,,,A*44
$GPRMC,032015.0,A,3339.983416,N,11748.831544,W,55.4,111.1,300110,,,A*41
$GPRMC,032018.0,A,3339.966636,N,11748.779608,W,55.9,110.2,300110,,,A*40
$GPRMC,032021.0,A,3339.951508,N,11748.726440,W,56.3,108.2,300110,,,A*44
$GPRMC,032024.0,A,3339.937482,N,11748.672743,W,56.3,106.5,300110,,,A*4B
$GPRMC,032027.0,A,3339.925281,N,11748.618444,W,55.9,105.3,300110,,,A*4A
$GPRMC,032030.0,A,3339.915407,N,11748.563536,W,55.9,102.2,300110,,,A*4A
$GPRMC,032033.0,A,3339.907079,N,11748.507335,W,56.7,99.5,300110,,,A*79
$GPRMC,032036.0,A,3339.898433,N,11748.451743,W,57.1,100.2,300110,,,A*47
$GPRMC,032039.0,A,3339.890213,N,11748.395517,W,57.6,100.1,300110,,,A*4C
$GPRMC,032042.0,A,3339.881812,N,11748.338713,W,57.9,99.8,300110,,,A*7D
$GPRMC,032045.0,A,3339.873569,N,11748.280480,W,59.3,99.6,300110,,,A*77
$GPRMC,032048.0,A,3339.865151,N,11748.221438,W,60.2,99.4,300110,,,A*73
$GPRMC,032051.0,A,3339.857152,N,11748.160440,W,60.7,99.5,300110,,,A*74
$GPRMC,032054.0,A,3339.848690,N,11748.100749,W,59.8,99.8,300110,,,A*72
$GPRMC,032057.0,A,3339.840425,N,11748.042823,W,58.2,99.4,300110,,,A*76
$GPRMC,032100.0,A,3339.832547,N,11747.987110,W,56.4,99.3,300110,,,A*7C
$GPRMC,032103.0,A,3339.825028,N,11747.931523,W,56.4,99.3,300110,,,A*7C
$GPRMC,032106.0,A,3339.817298,N,11747.875670,W,56.3,99.9,300110,,,A*78
$GPRMC,032109.0,A,3339.809322,N,11747.819615,W,57.3,99.2,300110,,,A*7B
$GPRMC,032112.0,A,3339.801323,N,11747.762046,W,59.0,99.6,300110,,,A*72
$GPRMC,032115.0,A,3339.792965,N,11747.704588,W,58.2,100.2,300110,,,A*49
$GPRMC,032118.0,A,3339.784966,N,11747.647845,W,57.0,99.4,300110,,,A*70
$GPRMC,032121.0,A,3339.776990,N,11747.591448,W,57.6,99.3,300110,,,A*76
$GPRMC,032124.0,A,3339.769237,N,11747.535579,W,56.2,99.5,300110,,,A*75
$GPRMC,032127.0,A,3339.761510,N,11747.480334,W,55.8,99.5,300110,,,A*75
$GPRMC,032130.0,A,3339.753715,N,11747.425491,W,56.3,99.3,300110,,,A*7C
$GPRMC,032133.0,A,3339.746259,N,11747.370608,W,55.0,99.3,300110,,,A*73
$GPRMC,032136.0,A,3339.738348,N,11747.317390,W,53.6,100.9,300110,,,A*40
$GPRMC,032139.0,A,3339.727631,N,11747.264986,W,54.4,105.3,300110,,,A*48
$GPRMC,032142.0,A,3339.714880,N,11747.213825,W,55.2,107.8,300110,,,A*46
$GPRMC,032145.0,A,3339.699724,N,11747.160772,W,55.6,110.0,300110,,,A*44
$GPRMC,032148.0,A,3339.682052,N,11747.109339,W,55.2,113.2,300110,,,A*44
$GPRMC,032151.0,A,3339.660613,N,11747.059510,W,56.5,117.5,300110,,,A*4D
$GPRMC,032154.0,A,3339.637383,N,11747.010461,W,56.0,121.6,300110,,,A*4F
$GPRMC,032157.0,A,3339.612044,N,11746.963791,W,55.1,123.6,300110,,,A*43
$GPRMC,032200.0,A,3339.586008,N,11746.918795,W,54.2,124.9,300110,,,A*46
$GPRMC,032203.0,A,3339.560835,N,11746.874066,W,53.7,124.0,300110,,,A*40
$GPRMC,032206.0,A,3339.535719,N,11746.829548,W,53.7,124.5,300110,,,A*40
$GPRMC,032209.0,A,3339.510485,N,11746.785186,W,53.4,123.9,300110,,,A*49
$GPRMC,032212.0,A,3339.485679,N,11746.741749,W,52.0,124.3,300110,,,A*4A
$GPRMC,032215.0,A,3339.461072,N,11746.699318,W,52.1,124.7,300110,,,A*4B
$GPRMC,032218.0,A,3339.436084,N,11746.655937,W,52.8,124.5,300110,,,A*41
$GPRMC,032221.0,A,3339.410649,N,11746.612032,W,53.9,124.8,300110,,,A*4A
$GPRMC,032224.0,A,3339.384694,N,11746.567243,W,55.2,124.3,300110,,,A*46
$GPRMC,032227.0,A,3339.358477,N,11746.521181,W,55.9,124.0,300110,,,A*4C
$GPRMC,032230.0,A,3339.332084,N,11746.474792,W,56.1,124.3,300110,,,A*43
$GPRMC,032233.0,A,3339.306066,N,11746.429651,W,53.8,124.4,300110,,,A*46
$GPRMC,032236.0,A,3339.281109,N,11746.386254,W,52.0,124.4,300110,,,A*4F
$GPRMC,032239.0,A,3339.257215,N,11746.343617,W,50.8,122.8,300110,,,A*4F
$GPRMC,032242.0,A,3339.235271,N,11746.300678,W,50.3,119.8,300110,,,A*48
$GPRMC,032245.0,A,3339.214847,N,11746.256009,W,51.2,116.9,300110,,,A*4F
$GPRMC,032248.0,A,3339.196599,N,11746.210048,W,50.6,114.2,300110,,,A*4E
$GPRMC,032251.0,A,3339.180448,N,11746.163066,W,51.4,111.0,300110,,,A*43
$GPRMC,032254.0,A,3339.166092,N,11746.114509,W,51.6,108.2,300110,,,A*49
$GPRMC,032257.0,A,3339.153700,N,11746.065008,W,51.6,105.3,300110,,,A*4F
$GPRMC,032300.0,A,3339.144153,N,11746.016492,W,49.3,102.0,300110,,,A*41
$GPRMC,032303.0,A,3339.135960,N,11745.968388,W,49.3,100.5,300110,,,A*44
$GPRMC,032306.0,A,3339.128580,N,11745.919726,W,49.5,100.3,300110,,,A*49
$GPRMC,032309.0,A,3339.121205,N,11745.870908,W,49.8,99.7,300110,,,A*71
$GPRMC,032312.0,A,3339.113905,N,11745.821436,W,51.0,100.0,300110,,,A*42
$GPRMC,032315.0,A,3339.106515,N,11745.770627,W,52.1,99.5,300110,,,A*73
$GPRMC,032318.0,A,3339.099049,N,11745.719787,W,50.7,99.9,300110,,,A*79
$GPRMC,032321.0,A,3339.091746,N,11745.670094,W,50.6,99.7,300110,,,A*77
$GPRMC,032324.0,A,3339.084160,N,11745.619959,W,51.3,100.2,300110,,,A*43
$GPRMC,032327.0,A,3339.076536,N,11745.569486,W,51.7,99.9,300110,,,A*7F
$GPRMC,032330.0,A,3339.067966,N,11745.518275,W,52.8,102.4,300110,,,A*4E
$GPRMC,032333.0,A,3339.057196,N,11745.466479,W,53.4,106.0,300110,,,A*46
$GPRMC,032336.0,A,3339.044103,N,11745.415031,W,52.9,108.6,300110,,,A*45
$GPRMC,032339.0,A,3339.029858,N,11745.365268,W,52.7,109.2,300110,,,A*43
$GPRMC,032342.0,A,3339.015268,N,11745.315268,W,53.2,108.8,300110,,,A*41
$GPRMC,032345.0,A,3339.000882,N,11745.265324,W,52.3,109.4,300110,,,A*4E
$GPRMC,032348.0,A,3338.986668,N,11745.216632,W,51.5,109.6,300110,,,A*4E
$GPRMC,032351.0,A,3338.972649,N,11745.169192,W,49.5,109.3,300110,,,A*44
$GPRMC,032354.0,A,3338.959186,N,11745.122843,W,49.2,109.5,300110,,,A*47
$GPRMC,032357.0,A,3338.945557,N,11745.076399,W,49.0,109.2,300110,,,A*48
$GPRMC,032400.0,A,3338.932541,N,11745.030151,W,49.4,108.9,300110,,,A*40
$GPRMC,032403.0,A,3338.919327,N,11744.982636,W,50.8,108.3,300110,,,A*45
$GPRMC,032406.0,A,3338.905658,N,11744.933742,W,52.2,109.1,300110,,,A*43
$GPRMC,032409.0,A,3338.891192,N,11744.883748,W,53.3,109.0,300110,,,A*40
$GPRMC,032412.0,A,3338.877100,N,11744.833582,W,52.9,108.7,300110,,,A*4B
$GPRMC,032415.0,A,3338.862815,N,11744.783663,W,52.4,109.3,300110,,,A*45
$GPRMC,032418.0,A,3338.848291,N,11744.735056,W,51.6,109.0,300110,,,A*49
$GPRMC,032421.0,A,3338.834352,N,11744.686590,W,51.3,109.6,300110,,,A*43
$GPRMC,032424.0,A,3338.820115,N,11744.638004,W,52.1,110.3,300110,,,A*43
$GPRMC,032427.0,A,3338.804565,N,11744.589080,W,52.8,110.4,300110,,,A*4E
$GPRMC,032430.0,A,3338.789397,N,11744.539468,W,53.3,109.4,300110,,,A*42
$GPRMC,032433.0,A,3338.774543,N,11744.488870,W,53.7,109.1,300110,,,A*43
$GPRMC,032436.0,A,3338.760200,N,11744.438845,W,52.3,108.8,300110,,,A*43
$GPRMC,032439.0,A,3338.745955,N,11744.390188,W,51.6,109.4,300110,,,A*46
$GPRMC,032442.0,A,3338.731607,N,11744.341526,W,52.3,109.3,300110,,,A*4C
$GPRMC,032445.0,A,3338.716789,N,11744.291808,W,53.4,110.5,300110,,,A*4C
$GPRMC,032448.0,A,3338.699204,N,11744.242215,W,54.5,115.4,300110,,,A*4D
$GPRMC,032451.0,A,3338.676998,N,11744.194423,W,54.7,122.1,300110,,,A*42
$GPRMC,032454.0,A,3338.652023,N,11744.151283,W,51.1,126.6,300110,,,A*4D
$GPRMC,032457.0,A,3338.622399,N,11744.114475,W,51.0,134.9,300110,,,A*48
$GPRMC,032500.0,A,3338.592584,N,11744.078999,W,49.4,135.2,300110,,,A*4A
$GPRMC,032503.0,A,3338.561640,N,11744.046949,W,49.1,141.4,300110,,,A*4E
$GPRMC,032506.0,A,3338.527638,N,11744.018288,W,50.2,146.2,300110,,,A*41
$GPRMC,032509.0,A,3338.492642,N,11743.990265,W,50.2,145.7,300110,,,A*47
$GPRMC,032512.0,A,3338.457330,N,11743.962097,W,51.3,146.1,300110,,,A*43
$GPRMC,032515.0,A,3338.420555,N,11743.933954,W,53.0,147.2,300110,,,A*40
$GPRMC,032518.0,A,3338.382441,N,11743.904428,W,55.1,146.6,300110,,,A*46
$GPRMC,032521.0,A,3338.343840,N,11743.874007,W,55.4,146.5,300110,,,A*45
$GPRMC,032524.0,A,3338.306061,N,11743.843973,W,54.1,146.1,300110,,,A*44
$GPRMC,032527.0,A,3338.268486,N,11743.813999,W,53.9,146.3,300110,,,A*4F
$GPRMC,032530.0,A,3338.230996,N,11743.784055,W,54.0,145.9,300110,,,A*47
$GPRMC,032533.0,A,3338.193290,N,11743.753795,W,53.6,146.3,300110,,,A*4A
$GPRMC,032536.0,A,3338.156386,N,11743.724616,W,52.0,145.6,300110,,,A*4B
$GPRMC,032539.0,A,3338.120506,N,11743.695739,W,51.3,146.0,300110,,,A*49
$GPRMC,032542.0,A,3338.085418,N,11743.667430,W,50.0,145.9,300110,,,A*4A
$GPRMC,032545.0,A,3338.050777,N,11743.639518,W,49.6,145.3,300110,,,A*4B
$GPRMC,032548.0,A,3338.016908,N,11743.611038,W,48.9,142.7,300110,,,A*42
$GPRMC,032551.0,A,3337.985099,N,11743.580903,W,47.3,139.5,300110,,,A*46
$GPRMC,032554.0,A,3337.956103,N,11743.550623,W,45.7,138.0,300110,,,A*4D
$GPRMC,032557.0,A,3337.928458,N,11743.519407,W,45.6,134.6,300110,,,A*4E
$GPRMC,032600.0,A,3337.901708,N,11743.486094,W,46.5,132.6,300110,,,A*4D
$GPRMC,032603.0,A,3337.875660,N,11743.450794,W,47.4,131.1,300110,,,A*4B
$GPRMC,032606.0,A,3337.848470,N,11743.415560,W,48.6,133.8,300110,,,A*4D
$GPRMC,032609.0,A,3337.819454,N,11743.380432,W,50.2,134.4,300110,,,A*4B
$GPRMC,032612.0,A,3337.788955,N,11743.344840,W,51.7,137.0,300110,,,A*48
$GPRMC,032615.0,A,3337.756693,N,11743.310547,W,52.1,140.5,300110,,,A*42
$GPRMC,032618.0,A,3337.721974,N,11743.277701,W,53.4,142.2,300110,,,A*48
$GPRMC,032621.0,A,3337.685963,N,11743.245208,W,54.2,143.1,300110,,,A*45
$GPRMC,032624.0,A,3337.650470,N,11743.212534,W,52.8,142.2,300110,,,A*43
$GPRMC,032627.0,A,3337.616470,N,11743.180910,W,51.2,142.2,300110,,,A*49
$GPRMC,032630.0,A,3337.582949,N,11743.150072,W,50.3,142.2,300110,,,A*46
$GPRMC,032633.0,A,3337.549962,N,11743.119615,W,49.8,142.6,300110,,,A*46
$GPRMC,032636.0,A,3337.516868,N,11743.089501,W,49.3,143.3,300110,,,A*43
$GPRMC,032639.0,A,3337.483895,N,11743.060090,W,49.3,143.1,300110,,,A*4B
$GPRMC,032642.0,A,3337.450916,N,11743.029684,W,50.5,141.4,300110,,,A*44
$GPRMC,032645.0,A,3337.417804,N,11742.997543,W,51.9,140.8,300110,,,A*47
$GPRMC,032648.0,A,3337.384013,N,11742.964979,W,51.4,142.5,300110,,,A*42
$GPRMC,032651.0,A,3337.350484,N,11742.933844,W,50.5,142.0,300110,,,A*41
$GPRMC,032654.0,A,3337.317231,N,11742.902859,W,51.0,142.6,300110,,,A*43
$GPRMC,032657.0,A,3337.282608,N,11742.871311,W,52.8,142.7,300110,,,A*4B
$GPRMC,032700.0,A,3337.247279,N,11742.839014,W,53.5,142.8,300110,,,A*4A
$GPRMC,032703.0,A,3337.211725,N,11742.806591,W,53.9,142.5,300110,,,A*43
$GPRMC,032706.0,A,3337.175943,N,11742.773706,W,54.4,142.7,300110,,,A*40
$GPRMC,032709.0,A,3337.139665,N,11742.740901,W,54.2,142.4,300110,,,A*40
$GPRMC,032712.0,A,3337.103709,N,11742.708382,W,53.3,142.8,300110,,,A*4F
$GPRMC,032715.0,A,3337.068769,N,11742.676402,W,52.5,143.0,300110,,,A*4B
$GPRMC,032718.0,A,3337.034282,N,11742.644708,W,51.8,142.4,300110,,,A*4C
$GPRMC,032721.0,A,3337.000403,N,11742.612798,W,51.0,141.5,300110,,,A*4E
$GPRMC,032724.0,A,3336.967970,N,11742.580738,W,50.1,139.2,300110,,,A*41
$GPRMC,032727.0,A,3336.937637,N,11742.547525,W,48.8,136.0,300110,,,A*43
$GPRMC,032730.0,A,3336.908654,N,11742.513272,W,49.0,135.6,300110,,,A*44
$GPRMC,032733.0,A,3336.879606,N,11742.478998,W,47.6,135.1,300110,,,A*4B
$GPRMC,032736.0,A,3336.852989,N,11742.447465,W,43.4,135.2,300110,,,A*49
$GPRMC,032739.0,A,3336.826598,N,11742.416244,W,45.7,135.5,300110,,,A*4A
$GPRMC,032742.0,A,3336.798568,N,11742.383123,W,48.1,135.2,300110,,,A*46
$GPRMC,032745.0,A,3336.769148,N,11742.348316,W,50.5,135.1,300110,,,A*44
$GPRMC,032748.0,A,3336.738893,N,11742.312720,W,50.4,135.9,300110,,,A*45
$GPRMC,032751.0,A,3336.710438,N,11742.278813,W,46.4,135.2,300110,,,A*44
$GPRMC,032754.0,A,3336.683218,N,11742.246310,W,46.2,134.8,300110,,,A*46
$GPRMC,032757.0,A,3336.656822,N,11742.213263,W,45.9,131.9,300110,,,A*47
$GPRMC,032800.0,A,3336.631797,N,11742.178014,W,46.7,129.9,300110,,,A*42
$GPRMC,032803.0,A,3336.607471,N,11742.141065,W,46.7,127.6,300110,,,A*42
$GPRMC,032806.0,A,3336.585112,N,11742.103090,W,46.4,124.2,300110,,,A*46
$GPRMC,032809.0,A,3336.564251,N,11742.063219,W,48.3,121.5,300110,,,A*4D
$GPRMC,032812.0,A,3336.544222,N,11742.020240,W,49.9,118.1,300110,,,A*4F
$GPRMC,032815.0,A,3336.524870,N,11741.976044,W,50.4,117.3,300110,,,A*44
$GPRMC,032818.0,A,3336.505684,N,11741.931309,W,50.3,117.1,300110,,,A*43
$GPRMC,032821.0,A,3336.486721,N,11741.887415,W,48.3,116.8,300110,,,A*4A
$GPRMC,032824.0,A,3336.469326,N,11741.845190,W,47.2,115.6,300110,,,A*48
$GPRMC,032827.0,A,3336.452171,N,11741.801377,W,48.7,115.1,300110,,,A*45
$GPRMC,032830.0,A,3336.434421,N,11741.757784,W,48.3,116.7,300110,,,A*46
$GPRMC,032833.0,A,3336.416002,N,11741.715408,W,47.2,117.5,300110,,,A*4C
$GPRMC,032836.0,A,3336.397462,N,11741.673822,W,47.3,119.1,300110,,,A*4B
$GPRMC,032839.0,A,3336.377292,N,11741.632282,W,48.4,120.9,300110,,,A*4C
$GPRMC,032842.0,A,3336.355649,N,11741.590339,W,49.9,122.3,300110,,,A*4C
$GPRMC,032845.0,A,3336.332601,N,11741.548340,W,50.6,123.5,300110,,,A*4D
$GPRMC,032848.0,A,3336.308597,N,11741.506226,W,51.3,125.2,300110,,,A*4B
$GPRMC,032851.0,A,3336.283451,N,11741.465405,W,50.1,127.3,300110,,,A*49
$GPRMC,032854.0,A,3336.257629,N,11741.426595,W,49.5,128.5,300110,,,A*42
$GPRMC,032857.0,A,3336.232320,N,11741.389178,W,48.4,128.7,300110,,,A*49
$GPRMC,032900.0,A,3336.207564,N,11741.351419,W,47.3,128.2,300110,,,A*40
$GPRMC,032903.0,A,3336.184241,N,11741.314390,W,46.5,126.9,300110,,,A*4E
$GPRMC,032906.0,A,3336.162882,N,11741.276435,W,46.3,122.7,300110,,,A*47
$GPRMC,032909.0,A,3336.142399,N,11741.237328,W,46.3,120.4,300110,,,A*44
$GPRMC,032912.0,A,3336.123348,N,11741.196310,W,47.1,117.7,300110,,,A*42
$GPRMC,032915.0,A,3336.105870,N,11741.154292,W,46.8,115.8,300110,,,A*41
$GPRMC,032918.0,A,3336.088982,N,11741.111720,W,47.4,114.9,300110,,,A*44
$GPRMC,032921.0,A,3336.072199,N,11741.068721,W,48.1,115.0,300110,,,A*45
$GPRMC,032924.0,A,3336.054967,N,11741.024711,W,49.7,115.8,300110,,,A*49
$GPRMC,032927.0,A,3336.037184,N,11740.978815,W,51.5,114.9,300110,,,A*4B
$GPRMC,032930.0,A,3336.018616,N,11740.931823,W,53.0,115.7,300110,,,A*4C
$GPRMC,032933.0,A,3336.000210,N,11740.884755,W,51.2,114.9,300110,,,A*4A
$GPRMC,032936.0,A,3335.981501,N,11740.838487,W,51.6,116.3,300110,,,A*4C
$GPRMC,032939.0,A,3335.963354,N,11740.792083,W,50.8,115.0,300110,,,A*49
$GPRMC,032942.0,A,3335.945299,N,11740.746157,W,50.8,115.4,300110,,,A*44
$GPRMC,032945.0,A,3335.927353,N,11740.700316,W,50.0,115.9,300110,,,A*40
$GPRMC,032948.0,A,3335.907736,N,11740.657262,W,48.4,121.3,300110,,,A*49
$GPRMC,032951.0,A,3335.886468,N,11740.616621,W,47.5,122.5,300110,,,A*4C
$GPRMC,032954.0,A,3335.862776,N,11740.579300,W,46.7,128.7,300110,,,A*48
$GPRMC,032957.0,A,3335.836660,N,11740.545137,W,45.7,132.7,300110,,,A*4D
$GPRMC,033000.0,A,3335.809776,N,11740.512900,W,45.6,135.6,300110,,,A*44
$GPRMC,033003.0,A,3335.781256,N,11740.482414,W,45.8,138.7,300110,,,A*4D
$GPRMC,033006.0,A,3335.751466,N,11740.453139,W,46.2,141.8,300110,,,A*4E
$GPRMC,033009.0,A,3335.720801,N,11740.425861,W,46.2,144.9,300110,,,A*4B
$GPRMC,033012.0,A,3335.688473,N,11740.400127,W,46.4,147.7,300110,,,A*4C
$GPRMC,033015.0,A,3335.654358,N,11740.376419,W,47.9,151.1,300110,,,A*47
$GPRMC,033018.0,A,3335.618759,N,11740.355005,W,46.8,154.9,300110,,,A*42
$GPRMC,033021.0,A,3335.581297,N,11740.337464,W,48.0,160.8,300110,,,A*4B
$GPRMC,033024.0,A,3335.542399,N,11740.323900,W,48.5,165.5,300110,,,A*49
$GPRMC,033027.0,A,3335.504593,N,11740.314742,W,44.4,170.5,300110,,,A*41
$GPRMC,033030.0,A,3335.472127,N,11740.309985,W,37.7,174.9,300110,,,A*4A
$GPRMC,033033.0,A,3335.442400,N,11740.307384,W,35.7,176.6,300110,,,A*40
$GPRMC,033036.0,A,3335.413912,N,11740.306565,W,33.5,180.4,300110,,,A*48
$GPRMC,033039.0,A,3335.388379,N,11740.307058,W,30.4,181.2,300110,,,A*4A
$GPRMC,033042.0,A,3335.363518,N,11740.307359,W,30.6,179.7,300110,,,A*40
$GPRMC,033045.0,A,3335.336315,N,11740.307933,W,33.8,180.6,300110,,,A*40
$GPRMC,033048.0,A,3335.308811,N,11740.308511,W,32.3,180.9,300110,,,A*49
$GPRMC,033051.0,A,3335.281286,N,11740.309205,W,32.8,181.1,300110,,,A*44
$GPRMC,033054.0,A,3335.253958,N,11740.309507,W,33.5,180.2,300110,,,A*4D
$GPRMC,033057.0,A,3335.224414,N,11740.310005,W,36.1,180.8,300110,,,A*4F
$GPRMC,033100.0,A,3335.194104,N,11740.310432,W,36.6,180.1,300110,,,A*4E
$GPRMC,033103.0,A,3335.161887,N,11740.310975,W,38.9,180.7,300110,,,A*4C
$GPRMC,033106.0,A,3335.129939,N,11740.311473,W,38.1,181.1,300110,,,A*44
$GPRMC,033109.0,A,3335.098432,N,11740.312107,W,38.6,181.5,300110,,,A*40
$GPRMC,033112.0,A,3335.064168,N,11740.312444,W,42.2,179.8,300110,,,A*42
$GPRMC,033115.0,A,3335.025205,N,11740.312776,W,47.4,179.9,300110,,,A*48
$GPRMC,033118.0,A,3334.985417,N,11740.312243,W,47.8,179.3,300110,,,A*47
$GPRMC,033121.0,A,3334.943185,N,11740.312469,W,49.7,180.2,300110,,,A*41
$GPRMC,033124.0,A,3334.897993,N,11740.314526,W,53.5,181.8,300110,,,A*4D
$GPRMC,033127.0,A,3334.854119,N,11740.315290,W,53.2,180.7,300110,,,A*49
$GPRMC,033130.0,A,3334.809646,N,11740.316120,W,53.0,180.8,300110,,,A*4C
$GPRMC,033133.0,A,3334.767301,N,11740.318599,W,51.0,183.4,300110,,,A*4B
$GPRMC,033136.0,A,3334.733133,N,11740.317533,W,45.5,180.1,300110,,,A*45
$GPRMC,033139.0,A,3334.694775,N,11740.317805,W,46.2,179.7,300110,,,A*4E
$GPRMC,033142.0,A,3334.653252,N,11740.318323,W,49.2,180.6,300110,,,A*41
$GPRMC,033145.0,A,3334.610296,N,11740.319837,W,50.3,180.4,300110,,,A*4D
$GPRMC,033148.0,A,3334.567699,N,11740.320485,W,50.6,180.7,300110,,,A*41
$GPRMC,033151.0,A,3334.525331,N,11740.321748,W,50.7,180.9,300110,,,A*44
$GPRMC,033154.0,A,3334.483250,N,11740.322482,W,50.8,180.6,300110,,,A*4C
$GPRMC,033157.0,A,3334.441103,N,11740.322945,W,50.7,180.5,300110,,,A*4E
$GPRMC,033200.0,A,3334.399555,N,11740.323171,W,50.0,180.7,300110,,,A*41
$GPRMC,033203.0,A,3334.357775,N,11740.323458,W,50.6,180.3,300110,,,A*4C
$GPRMC,033206.0,A,3334.315050,N,11740.323739,W,51.4,180.2,300110,,,A*49
$GPRMC,033209.0,A,3334.271968,N,11740.323769,W,51.5,179.8,300110,,,A*4F
$GPRMC,033212.0,A,3334.226120,N,11740.324629,W,54.2,180.4,300110,,,A*49
$GPRMC,033215.0,A,3334.178049,N,11740.327084,W,56.2,182.0,300110,,,A*4E
$GPRMC,033218.0,A,3334.131514,N,11740.329090,W,55.5,182.8,300110,,,A*44
$GPRMC,033221.0,A,3334.084766,N,11740.334014,W,55.3,185.0,300110,,,A*4F
$GPRMC,033224.0,A,3334.038764,N,11740.339656,W,55.0,185.9,300110,,,A*48
$GPRMC,033227.0,A,3333.991349,N,11740.346476,W,56.1,186.0,300110,,,A*4D
$GPRMC,033230.0,A,3333.945546,N,11740.352280,W,55.1,186.4,300110,,,A*46
$GPRMC,033233.0,A,3333.901818,N,11740.358521,W,53.4,186.8,300110,,,A*4A
$GPRMC,033236.0,A,3333.858097,N,11740.364918,W,52.3,187.1,300110,,,A*4A
$GPRMC,033239.0,A,3333.816131,N,11740.370359,W,50.5,186.1,300110,,,A*4D
$GPRMC,033242.0,A,3333.773250,N,11740.376012,W,51.4,186.0,300110,,,A*42
$GPRMC,033245.0,A,3333.729550,N,11740.381529,W,52.1,185.7,300110,,,A*4A
$GPRMC,033248.0,A,3333.686807,N,11740.386302,W,51.8,185.6,300110,,,A*4F
$GPRMC,033251.0,A,3333.642430,N,11740.391150,W,53.0,184.6,300110,,,A*4F
$GPRMC,033254.0,A,3333.597152,N,11740.394288,W,54.3,182.7,300110,,,A*40
$GPRMC,033257.0,A,3333.551420,N,11740.395505,W,54.9,180.7,300110,,,A*42
$GPRMC,033300.0,A,3333.504951,N,11740.395822,W,55.6,180.1,300110,,,A*4A
$GPRMC,033303.0,A,3333.458828,N,11740.394922,W,55.3,179.8,300110,,,A*44
$GPRMC,033306.0,A,3333.412535,N,11740.394856,W,55.2,179.6,300110,,,A*43
$GPRMC,033309.0,A,3333.365774,N,11740.394716,W,54.9,178.4,300110,,,A*4E
$GPRMC,033312.0,A,3333.320198,N,11740.393192,W,54.4,178.4,300110,,,A*41
$GPRMC,033315.0,A,3333.273774,N,11740.392392,W,55.2,179.1,300110,,,A*45
$GPRMC,033318.0,A,3333.227835,N,11740.391175,W,55.2,179.1,300110,,,A*4B
$GPRMC,033321.0,A,3333.181574,N,11740.389963,W,55.7,178.6,300110,,,A*43
$GPRMC,033324.0,A,3333.134016,N,11740.388736,W,57.3,178.6,300110,,,A*40
$GPRMC,033327.0,A,3333.085689,N,11740.387262,W,58.2,178.5,300110,,,A*4E
$GPRMC,033330.0,A,3333.037062,N,11740.385950,W,58.7,178.9,300110,,,A*43
$GPRMC,033333.0,A,3332.988878,N,11740.384884,W,58.3,179.4,300110,,,A*4E
$GPRMC,033336.0,A,3332.940510,N,11740.385115,W,57.8,180.9,300110,,,A*43
$GPRMC,033339.0,A,3332.892685,N,11740.387031,W,56.9,182.5,300110,,,A*46
$GPRMC,033342.0,A,3332.845175,N,11740.390375,W,56.7,184.1,300110,,,A*41
$GPRMC,033345.0,A,3332.797811,N,11740.395978,W,56.5,186.1,300110,,,A*4F
$GPRMC,033348.0,A,3332.749126,N,11740.403919,W,57.5,188.1,300110,,,A*4C
$GPRMC,033351.0,A,3332.702642,N,11740.411981,W,58.5,189.1,300110,,,A*42
$GPRMC,033354.0,A,3332.654073,N,11740.422029,W,58.6,190.4,300110,,,A*44
$GPRMC,033357.0,A,3332.606673,N,11740.431986,W,59.2,190.6,300110,,,A*4F
$GPRMC,033400.0,A,3332.558280,N,11740.442834,W,58.3,190.8,300110,,,A*48
$GPRMC,033403.0,A,3332.511046,N,11740.453260,W,56.9,190.5,300110,,,A*4C
$GPRMC,033406.0,A,3332.464969,N,11740.463067,W,56.5,190.3,300110,,,A*42
$GPRMC,033409.0,A,3332.418850,N,11740.472863,W,56.8,190.7,300110,,,A*48
$GPRMC,033412.0,A,3332.372451,N,11740.483279,W,56.7,190.5,300110,,,A*46
$GPRMC,033415.0,A,3332.325577,N,11740.493106,W,57.3,189.7,300110,,,A*43
$GPRMC,033418.0,A,3332.277609,N,11740.502203,W,58.4,188.1,300110,,,A*42
$GPRMC,033421.0,A,3332.228517,N,11740.509179,W,60.0,185.8,300110,,,A*40
$GPRMC,033424.0,A,3332.179264,N,11740.513403,W,59.4,182.7,300110,,,A*44
$GPRMC,033427.0,A,3332.129498,N,11740.514459,W,59.8,180.5,300110,,,A*43
$GPRMC,033430.0,A,3332.079506,N,11740.514178,W,60.4,179.3,300110,,,A*47
$GPRMC,033433.0,A,3332.028495,N,11740.511990,W,60.9,177.7,300110,,,A*47
$GPRMC,033436.0,A,3331.975880,N,11740.507182,W,64.0,173.7,300110,,,A*4D
$GPRMC,033439.0,A,3331.922795,N,11740.497622,W,64.7,170.0,300110,,,A*4D
$GPRMC,033442.0,A,3331.875378,N,11740.478461,W,62.8,162.0,300110,,,A*4B
$GPRMC,033445.0,A,3331.834416,N,11740.450393,W,58.3,151.3,300110,,,A*47
$GPRMC,033448.0,A,3331.798862,N,11740.417151,W,55.7,143.2,300110,,,A*48
$GPRMC,033451.0,A,3331.765205,N,11740.378693,W,56.4,135.7,300110,,,A*4A
$GPRMC,033454.0,A,3331.734411,N,11740.335191,W,57.7,130.2,300110,,,A*46
$GPRMC,033457.0,A,3331.703517,N,11740.289984,W,58.4,129.5,300110,,,A*4F
$GPRMC,033500.0,A,3331.672985,N,11740.244907,W,57.4,129.3,300110,,,A*4F
$GPRMC,033503.0,A,3331.642114,N,11740.201772,W,56.3,131.8,300110,,,A*46
$GPRMC,033506.0,A,3331.608642,N,11740.162274,W,56.3,138.6,300110,,,A*4B
$GPRMC,033509.0,A,3331.572370,N,11740.127593,W,55.2,144.5,300110,,,A*4B
$GPRMC,033512.0,A,3331.534128,N,11740.098162,W,53.7,151.1,300110,,,A*40
$GPRMC,033515.0,A,3331.494272,N,11740.074379,W,52.7,154.9,300110,,,A*46
$GPRMC,033518.0,A,3331.453267,N,11740.054283,W,53.4,159.3,300110,,,A*47
$GPRMC,033521.0,A,3331.411080,N,11740.035881,W,54.2,160.6,300110,,,A*41
$GPRMC,033524.0,A,3331.368242,N,11740.017877,W,54.4,160.6,300110,,,A*4E
$GPRMC,033527.0,A,3331.324979,N,11739.999329,W,55.3,159.9,300110,,,A*44
$GPRMC,033530.0,A,3331.281964,N,11739.980782,W,54.5,160.4,300110,,,A*4D
$GPRMC,033533.0,A,3331.239544,N,11739.962747,W,53.4,160.3,300110,,,A*47
$GPRMC,033536.0,A,3331.196932,N,11739.944904,W,54.0,160.5,300110,,,A*41
$GPRMC,033539.0,A,3331.154026,N,11739.926367,W,54.6,160.4,300110,,,A*40
$GPRMC,033542.0,A,3331.112188,N,11739.908282,W,53.1,160.3,300110,,,A*4A
$GPRMC,033545.0,A,3331.070172,N,11739.890217,W,53.3,160.0,300110,,,A*40
$GPRMC,033548.0,A,3331.027980,N,11739.871997,W,54.1,160.0,300110,,,A*43
$GPRMC,033551.0,A,3330.985343,N,11739.853816,W,54.1,160.4,300110,,,A*42
$GPRMC,033554.0,A,3330.942631,N,11739.836068,W,53.6,160.7,300110,,,A*4D
$GPRMC,033557.0,A,3330.901590,N,11739.818512,W,51.9,159.7,300110,,,A*42
$GPRMC,033600.0,A,3330.861402,N,11739.801257,W,51.0,160.4,300110,,,A*40
$GPRMC,033603.0,A,3330.821848,N,11739.784258,W,49.4,160.1,300110,,,A*40
$GPRMC,033606.0,A,3330.783345,N,11739.767823,W,48.4,160.2,300110,,,A*4D
$GPRMC,033609.0,A,3330.745171,N,11739.751368,W,48.9,160.1,300110,,,A*42
$GPRMC,033612.0,A,3330.705713,N,11739.734238,W,51.0,159.8,300110,,,A*4B
$GPRMC,033615.0,A,3330.664298,N,11739.714977,W,53.9,158.2,300110,,,A*4E
$GPRMC,033618.0,A,3330.621024,N,11739.695373,W,55.5,159.5,300110,,,A*4D
$GPRMC,033621.0,A,3330.576215,N,11739.676051,W,56.9,160.0,300110,,,A*48
$GPRMC,033624.0,A,3330.531435,N,11739.656624,W,57.7,160.1,300110,,,A*42
$GPRMC,033627.0,A,3330.486040,N,11739.637216,W,57.8,160.5,300110,,,A*43
$GPRMC,033630.0,A,3330.441298,N,11739.618276,W,57.1,160.5,300110,,,A*4B
$GPRMC,033633.0,A,3330.396768,N,11739.599332,W,56.3,160.3,300110,,,A*41
$GPRMC,033636.0,A,3330.352390,N,11739.580025,W,55.6,159.9,300110,,,A*44
$GPRMC,033639.0,A,3330.308571,N,11739.562272,W,55.3,161.9,300110,,,A*4F
$GPRMC,033642.0,A,3330.263986,N,11739.547753,W,54.7,165.2,300110,,,A*40
$GPRMC,033645.0,A,3330.218681,N,11739.534732,W,55.0,167.5,300110,,,A*43
$GPRMC,033648.0,A,3330.173640,N,11739.524669,W,54.3,170.3,300110,,,A*41
$GPRMC,033651.0,A,3330.127334,N,11739.517543,W,55.3,173.9,300110,,,A*4D
$GPRMC,033654.0,A,3330.078999,N,11739.513907,W,57.1,176.0,300110,,,A*4A
$GPRMC,033657.0,A,3330.029117,N,11739.514193,W,58.2,180.5,300110,,,A*41
$GPRMC,033700.0,A,3329.980329,N,11739.517010,W,57.1,183.5,300110,,,A*49
$GPRMC,033703.0,A,3329.931411,N,11739.523351,W,58.0,187.0,300110,,,A*42
$GPRMC,033706.0,A,3329.885120,N,11739.530327,W,55.0,188.5,300110,,,A*4A
$GPRMC,033709.0,A,3329.837517,N,11739.542467,W,56.8,192.8,300110,,,A*47
$GPRMC,033712.0,A,3329.791696,N,11739.556267,W,55.3,194.7,300110,,,A*46
$GPRMC,033715.0,A,3329.748944,N,11739.572858,W,53.6,199.1,300110,,,A*4D
$GPRMC,033718.0,A,3329.705607,N,11739.592080,W,54.0,201.4,300110,,,A*44
$GPRMC,033721.0,A,3329.663974,N,11739.613408,W,54.3,204.8,300110,,,A*40
$GPRMC,033724.0,A,3329.623021,N,11739.637820,W,54.9,207.6,300110,,,A*4F
$GPRMC,033727.0,A,3329.583191,N,11739.664700,W,53.9,210.6,300110,,,A*45
$GPRMC,033730.0,A,3329.544230,N,11739.693663,W,53.9,212.9,300110,,,A*41
$GPRMC,033733.0,A,3329.509458,N,11739.722380,W,48.7,215.8,300110,,,A*42
$GPRMC,033736.0,A,3329.479286,N,11739.748853,W,41.1,216.4,300110,,,A*4D
$GPRMC,033739.0,A,3329.456630,N,11739.769613,W,31.2,217.7,300110,,,A*49
$GPRMC,033742.0,A,3329.440230,N,11739.785184,W,20.6,218.4,300110,,,A*45
$GPRMC,033745.0,A,3329.429565,N,11739.795845,W,16.4,223.4,300110,,,A*40
$GPRMC,033748.0,A,3329.423812,N,11739.808710,W,14.5,256.5,300110,,,A*4E
$GPRMC,033751.0,A,3329.423563,N,11739.819025,W,6.6,278.6,300110,,,A*73
$GPRMC,033812.0,A,3329.427702,N,11739.825266,W,6.8,283.1,300110,,,A*7D
$GPRMC,034042.0,A,3329.110642,N,11740.052291,W,8.8,219.4,300110,,,A*75
$GPRMC,034045.0,A,3329.094421,N,11740.063426,W,25.0,216.1,300110,,,A*4D
$GPRMC,034048.0,A,3329.073276,N,11740.080967,W,31.6,216.4,300110,,,A*4E
$GPRMC,034051.0,A,3329.049569,N,11740.100636,W,35.7,216.3,300110,,,A*46
$GPRMC,034054.0,A,3329.024179,N,11740.122800,W,39.5,215.6,300110,,,A*4E
$GPRMC,034057.0,A,3328.996021,N,11740.146608,W,40.9,216.6,300110,,,A*45
$GPRMC,034100.0,A,3328.968091,N,11740.171462,W,41.4,216.0,300110,,,A*4C
$GPRMC,034103.0,A,3328.939662,N,11740.195129,W,39.7,215.9,300110,,,A*47
$GPRMC,034106.0,A,3328.912854,N,11740.218027,W,38.1,216.1,300110,,,A*45
$GPRMC,034109.0,A,3328.886670,N,11740.240095,W,37.6,215.9,300110,,,A*49
$GPRMC,034112.0,A,3328.860410,N,11740.261886,W,38.4,216.4,300110,,,A*45
$GPRMC,034115.0,A,3328.833461,N,11740.284381,W,38.7,215.2,300110,,,A*43
$GPRMC,034118.0,A,3328.807254,N,11740.306982,W,39.3,216.6,300110,,,A*49
$GPRMC,034121.0,A,3328.779760,N,11740.330599,W,41.1,215.8,300110,,,A*44
$GPRMC,034124.0,A,3328.751335,N,11740.355141,W,42.3,216.2,300110,,,A*45
$GPRMC,034127.0,A,3328.721699,N,11740.380594,W,43.9,215.9,300110,,,A*45
$GPRMC,034130.0,A,3328.690795,N,11740.406353,W,45.5,214.6,300110,,,A*45
$GPRMC,034133.0,A,3328.658037,N,11740.430498,W,46.3,209.1,300110,,,A*46
$GPRMC,034136.0,A,3328.622858,N,11740.450720,W,46.6,202.3,300110,,,A*45
$GPRMC,034139.0,A,3328.584936,N,11740.466336,W,48.2,199.6,300110,,,A*44
$GPRMC,034142.0,A,3328.547140,N,11740.483289,W,48.2,201.6,300110,,,A*42
$GPRMC,034145.0,A,3328.511377,N,11740.500091,W,43.3,200.3,300110,,,A*4F
$GPRMC,034148.0,A,3328.482010,N,11740.510446,W,31.6,194.5,300110,,,A*4C
$GPRMC,034151.0,A,3328.461911,N,11740.515747,W,21.6,191.1,300110,,,A*46
$GPRMC,034154.0,A,3328.446715,N,11740.518724,W,16.4,188.0,300110,,,A*4B
$GPRMC,034157.0,A,3328.435953,N,11740.520861,W,10.5,188.1,300110,,,A*43
$GPRMC,034200.0,A,3328.429362,N,11740.521626,W,7.2,182.6,300110,,,A*77
$GPRMC,034212.0,A,3328.424788,N,11740.521485,W,4.5,172.4,300110,,,A*7B
$GPRMC,034215.0,A,3328.415188,N,11740.521576,W,15.1,179.3,300110,,,A*4D
$GPRMC,034218.0,A,3328.397953,N,11740.522380,W,22.7,182.1,300110,,,A*4B
$GPRMC,034221.0,A,3328.375575,N,11740.524311,W,27.5,183.4,300110,,,A*48
$GPRMC,034224.0,A,3328.350696,N,11740.526243,W,30.2,182.6,300110,,,A*42
$GPRMC,034227.0,A,3328.323401,N,11740.528878,W,32.9,184.5,300110,,,A*49
$GPRMC,034230.0,A,3328.295813,N,11740.531865,W,33.4,185.8,300110,,,A*48
$GPRMC,034233.0,A,3328.268389,N,11740.535768,W,32.5,186.7,300110,,,A*4B
$GPRMC,034236.0,A,3328.242049,N,11740.539510,W,31.5,187.7,300110,,,A*4A
$GPRMC,034239.0,A,3328.218146,N,11740.543281,W,28.3,189.4,300110,,,A*45
$GPRMC,034242.0,A,3328.199495,N,11740.545192,W,23.0,186.8,300110,,,A*44
$GPRMC,034245.0,A,3328.180915,N,11740.547104,W,22.6,184.4,300110,,,A*4A
$GPRMC,034248.0,A,3328.158895,N,11740.550654,W,26.3,187.6,300110,,,A*4F
$GPRMC,034251.0,A,3328.136261,N,11740.554798,W,28.7,190.1,300110,,,A*40
$GPRMC,034254.0,A,3328.110072,N,11740.564057,W,33.9,198.7,300110,,,A*4C
$GPRMC,034257.0,A,3328.082651,N,11740.577258,W,34.7,204.1,300110,,,A*44
$GPRMC,034300.0,A,3328.059129,N,11740.591204,W,30.6,208.8,300110,,,A*48
$GPRMC,034303.0,A,3328.038427,N,11740.607011,W,27.3,214.6,300110,,,A*4D
$GPRMC,034306.0,A,3328.022049,N,11740.620428,W,21.5,214.0,300110,,,A*42
$GPRMC,034309.0,A,3328.007115,N,11740.632518,W,22.6,213.7,300110,,,A*43
$GPRMC,034312.0,A,3327.990195,N,11740.645856,W,25.3,213.7,300110,,,A*4C
$GPRMC,034315.0,A,3327.971886,N,11740.660184,W,26.5,213.6,300110,,,A*4A
$GPRMC,034318.0,A,3327.953796,N,11740.674391,W,25.8,213.3,300110,,,A*41
$GPRMC,034321.0,A,3327.936700,N,11740.688101,W,25.2,214.0,300110,,,A*41
$GPRMC,034324.0,A,3327.919938,N,11740.702087,W,23.1,214.6,300110,,,A*43
$GPRMC,034327.0,A,3327.908092,N,11740.711401,W,12.0,210.3,300110,,,A*43
$GPRMC,034333.0,A,3327.900895,N,11740.716787,W,9.6,220.0,300110,,,A*77
$GPRMC,034336.0,A,3327.890233,N,11740.726262,W,19.5,216.5,300110,,,A*43
$GPRMC,034339.0,A,3327.876340,N,11740.738050,W,20.8,214.5,300110,,,A*48
$GPRMC,034342.0,A,3327.860727,N,11740.750100,W,23.6,210.2,300110,,,A*42
$GPRMC,034347.0,A,3327.829375,N,11740.764694,W,22.8,193.2,300110,,,A*43
$GPRMC,034350.0,A,3327.815090,N,11740.770377,W,13.9,209.6,300110,,,A*48
$GPRMC,034353.0,A,3327.812968,N,11740.785083,W,17.4,268.7,300110,,,A*4F
$GPRMC,034356.0,A,3327.816207,N,11740.803298,W,18.4,290.2,300110,,,A*48
$GPRMC,034359.0,A,3327.827384,N,11740.814423,W,16.8,333.7,300110,,,A*40
$GPRMC,034402.0,A,3327.841704,N,11740.810706,W,17.6,29.6,300110,,,A*73
$GPRMC,034405.0,A,3327.849925,N,11740.793074,W,20.8,73.8,300110,,,A*7C
$GPRMC,034408.0,A,3327.847832,N,11740.766148,W,30.9,101.0,300110,,,A*40
$GPRMC,034411.0,A,3327.837978,N,11740.733896,W,34.7,112.5,300110,,,A*47
$GPRMC,034414.0,A,3327.826044,N,11740.696585,W,39.7,110.6,300110,,,A*49
$GPRMC,034417.0,A,3327.812699,N,11740.654340,W,45.0,111.2,300110,,,A*43
$GPRMC,034420.0,A,3327.799077,N,11740.609832,W,44.7,110.9,300110,,,A*47
$GPRMC,034423.0,A,3327.789333,N,11740.563393,W,45.2,102.1,300110,,,A*46
$GPRMC,034426.0,A,3327.787005,N,11740.516179,W,45.1,89.6,300110,,,A*79
$GPRMC,034429.0,A,3327.789834,N,11740.469675,W,43.9,82.6,300110,,,A*75
$GPRMC,034432.0,A,3327.799887,N,11740.425921,W,45.2,72.0,300110,,,A*74
$GPRMC,034435.0,A,3327.815470,N,11740.386563,W,42.6,59.8,300110,,,A*7A
$GPRMC,034438.0,A,3327.836336,N,11740.350590,W,42.7,53.0,300110,,,A*77
$GPRMC,034441.0,A,3327.860642,N,11740.318660,W,42.7,46.0,300110,,,A*78
$GPRMC,034444.0,A,3327.888732,N,11740.289390,W,42.0,38.6,300110,,,A*76
$GPRMC,034447.0,A,3327.915557,N,11740.264747,W,38.3,36.6,300110,,,A*7C
$GPRMC,034450.0,A,3327.938953,N,11740.241659,W,34.7,42.7,300110,,,A*7E
$GPRMC,034453.0,A,3327.955881,N,11740.213712,W,35.6,61.7,300110,,,A*70
$GPRMC,034456.0,A,3327.966226,N,11740.181706,W,34.6,73.5,300110,,,A*7F
$GPRMC,034459.0,A,3327.964501,N,11740.142610,W,39.6,96.8,300110,,,A*72
$GPRMC,034502.0,A,3327.953897,N,11740.103996,W,42.2,110.9,300110,,,A*49
$GPRMC,034505.0,A,3327.930024,N,11740.068038,W,48.3,126.9,300110,,,A*44
$GPRMC,034508.0,A,3327.903905,N,11740.027503,W,52.3,127.3,300110,,,A*45
$GPRMC,034511.0,A,3327.877640,N,11739.986656,W,50.4,128.0,300110,,,A*47
$GPRMC,034514.0,A,3327.851448,N,11739.947479,W,49.9,128.6,300110,,,A*4D
$GPRMC,034517.0,A,3327.824814,N,11739.907367,W,52.3,128.2,300110,,,A*41
$GPRMC,034520.0,A,3327.796475,N,11739.864086,W,56.7,128.0,300110,,,A*42
$GPRMC,034523.0,A,3327.766049,N,11739.818381,W,59.4,128.0,300110,,,A*46
$GPRMC,034526.0,A,3327.734601,N,11739.771836,W,60.3,128.3,300110,,,A*47
$GPRMC,034529.0,A,3327.701942,N,11739.724391,W,61.9,128.7,300110,,,A*4F
$GPRMC,034532.0,A,3327.668951,N,11739.676323,W,61.6,129.2,300110,,,A*4D
$GPRMC,034535.0,A,3327.638597,N,11739.627646,W,60.1,125.4,300110,,,A*47
$GPRMC,034538.0,A,3327.616022,N,11739.574633,W,59.9,117.4,300110,,,A*49
$GPRMC,034541.0,A,3327.597801,N,11739.518066,W,60.8,116.7,300110,,,A*41
$GPRMC,034544.0,A,3327.579462,N,11739.460668,W,60.6,118.0,300110,,,A*4C
$GPRMC,034547.0,A,3327.552871,N,11739.409195,W,61.1,122.7,300110,,,A*4A
$GPRMC,034550.0,A,3327.522917,N,11739.358546,W,62.9,124.8,300110,,,A*41
$GPRMC,034553.0,A,3327.491422,N,11739.308401,W,62.2,126.1,300110,,,A*47
$GPRMC,034556.0,A,3327.460709,N,11739.259241,W,60.7,125.6,300110,,,A*42
$GPRMC,034559.0,A,3327.431721,N,11739.211047,W,58.7,124.9,300110,,,A*4E
$GPRMC,034602.0,A,3327.404066,N,11739.163159,W,58.6,124.2,300110,,,A*43
$GPRMC,034605.0,A,3327.377640,N,11739.113632,W,58.7,121.8,300110,,,A*46
$GPRMC,034608.0,A,3327.353438,N,11739.061254,W,60.5,118.0,300110,,,A*4B
$GPRMC,034611.0,A,3327.329924,N,11739.007311,W,61.1,117.1,300110,,,A*45
$GPRMC,034614.0,A,3327.306237,N,11738.953394,W,61.3,117.3,300110,,,A*40
$GPRMC,034617.0,A,3327.283726,N,11738.899014,W,59.6,116.6,300110,,,A*4C
$GPRMC,034620.0,A,3327.262292,N,11738.847334,W,56.3,117.0,300110,,,A*42
$GPRMC,034623.0,A,3327.240843,N,11738.796600,W,57.4,117.3,300110,,,A*43
$GPRMC,034626.0,A,3327.219549,N,11738.747812,W,53.8,118.1,300110,,,A*49
$GPRMC,034629.0,A,3327.197527,N,11738.700227,W,55.5,119.2,300110,,,A*4D
$GPRMC,034632.0,A,3327.174239,N,11738.651710,W,56.4,119.8,300110,,,A*4E
$GPRMC,034635.0,A,3327.150132,N,11738.603139,W,56.8,121.5,300110,,,A*47
$GPRMC,034638.0,A,3327.123279,N,11738.556619,W,56.5,126.2,300110,,,A*49
$GPRMC,034641.0,A,3327.093803,N,11738.511981,W,56.8,128.9,300110,,,A*4F
$GPRMC,034644.0,A,3327.063777,N,11738.468589,W,56.2,130.1,300110,,,A*49
$GPRMC,034647.0,A,3327.033018,N,11738.426807,W,56.1,131.3,300110,,,A*40
$GPRMC,034650.0,A,3327.003098,N,11738.384397,W,54.9,130.2,300110,,,A*4A
$GPRMC,034653.0,A,3326.973272,N,11738.342272,W,55.9,130.3,300110,,,A*40
$GPRMC,034656.0,A,3326.943351,N,11738.299852,W,55.9,130.6,300110,,,A*4C
$GPRMC,034659.0,A,3326.913086,N,11738.257330,W,56.4,130.3,300110,,,A*49
$GPRMC,034702.0,A,3326.885778,N,11738.212003,W,56.9,125.7,300110,,,A*41
$GPRMC,034705.0,A,3326.861273,N,11738.162978,W,57.6,122.3,300110,,,A*4E
$GPRMC,034708.0,A,3326.836286,N,11738.113462,W,58.4,121.0,300110,,,A*46
$GPRMC,034711.0,A,3326.810816,N,11738.063769,W,58.6,121.4,300110,,,A*41
$GPRMC,034714.0,A,3326.785348,N,11738.013311,W,58.9,121.0,300110,,,A*40
$GPRMC,034717.0,A,3326.760726,N,11737.963100,W,57.7,122.4,300110,,,A*41
$GPRMC,034720.0,A,3326.733513,N,11737.915389,W,57.6,127.4,300110,,,A*41
$GPRMC,034723.0,A,3326.702812,N,11737.870936,W,58.4,131.1,300110,,,A*4F
$GPRMC,034726.0,A,3326.669240,N,11737.829204,W,58.1,134.3,300110,,,A*4F
$GPRMC,034729.0,A,3326.634989,N,11737.787885,W,58.0,135.0,300110,,,A*4D
$GPRMC,034732.0,A,3326.601717,N,11737.747908,W,56.0,135.3,300110,,,A*4D
$GPRMC,034735.0,A,3326.568336,N,11737.708580,W,56.4,135.2,300110,,,A*43
$GPRMC,034738.0,A,3326.535013,N,11737.668669,W,57.2,134.9,300110,,,A*4C
$GPRMC,034741.0,A,3326.501503,N,11737.628325,W,56.7,135.0,300110,,,A*44
$GPRMC,034744.0,A,3326.468216,N,11737.587559,W,57.8,133.1,300110,,,A*4E
$GPRMC,034747.0,A,3326.435016,N,11737.544761,W,59.3,132.7,300110,,,A*43
$GPRMC,034750.0,A,3326.408759,N,11737.495335,W,59.7,124.0,300110,,,A*4B
$GPRMC,034753.0,A,3326.381423,N,11737.445878,W,59.6,123.6,300110,,,A*4F
$GPRMC,034756.0,A,3326.354034,N,11737.396135,W,59.9,123.8,300110,,,A*48
$GPRMC,034759.0,A,3326.326789,N,11737.346382,W,59.4,123.8,300110,,,A*4D
$GPRMC,034802.0,A,3326.299893,N,11737.298238,W,57.6,123.7,300110,,,A*4C
$GPRMC,034805.0,A,3326.274073,N,11737.251441,W,55.4,123.7,300110,,,A*43
$GPRMC,034808.0,A,3326.248294,N,11737.206556,W,54.4,125.6,300110,,,A*49
$GPRMC,034811.0,A,3326.219620,N,11737.165700,W,53.1,131.6,300110,,,A*4E
$GPRMC,034814.0,A,3326.188535,N,11737.128564,W,52.5,137.2,300110,,,A*49
$GPRMC,034817.0,A,3326.154709,N,11737.095533,W,52.6,141.8,300110,,,A*4B
$GPRMC,034820.0,A,3326.117860,N,11737.066314,W,53.4,147.9,300110,,,A*43
$GPRMC,034823.0,A,3326.078621,N,11737.040072,W,54.3,151.5,300110,,,A*4F
$GPRMC,034826.0,A,3326.037895,N,11737.015006,W,55.1,152.8,300110,,,A*4E
$GPRMC,034829.0,A,3325.997488,N,11736.990112,W,54.2,152.8,300110,,,A*42
$GPRMC,034832.0,A,3325.958137,N,11736.965107,W,53.1,151.8,300110,,,A*43
$GPRMC,034835.0,A,3325.920032,N,11736.939529,W,53.1,149.4,300110,,,A*4B
$GPRMC,034838.0,A,3325.883746,N,11736.909912,W,53.3,143.9,300110,,,A*48
$GPRMC,034841.0,A,3325.849407,N,11736.877117,W,52.8,140.1,300110,,,A*42
$GPRMC,034844.0,A,3325.817663,N,11736.841400,W,52.5,136.1,300110,,,A*46
$GPRMC,034847.0,A,3325.786930,N,11736.802415,W,54.0,134.6,300110,,,A*4E
$GPRMC,034850.0,A,3325.754352,N,11736.764284,W,55.0,136.8,300110,,,A*45
$GPRMC,034853.0,A,3325.718856,N,11736.728074,W,56.5,141.3,300110,,,A*49
$GPRMC,034856.0,A,3325.680730,N,11736.694137,W,57.9,144.9,300110,,,A*41
$GPRMC,034859.0,A,3325.639934,N,11736.661699,W,59.3,146.4,300110,,,A*44
$GPRMC,034902.0,A,3325.596532,N,11736.630609,W,60.9,149.1,300110,,,A*40
$GPRMC,034905.0,A,3325.551305,N,11736.600665,W,61.9,150.6,300110,,,A*49
$GPRMC,034908.0,A,3325.506015,N,11736.570400,W,62.5,151.0,300110,,,A*49
$GPRMC,034911.0,A,3325.460652,N,11736.540145,W,62.5,152.6,300110,,,A*47
$GPRMC,034914.0,A,3325.413884,N,11736.513063,W,63.2,156.7,300110,,,A*43
$GPRMC,034917.0,A,3325.364485,N,11736.489748,W,63.8,158.9,300110,,,A*4C
$GPRMC,034920.0,A,3325.315295,N,11736.465859,W,64.0,157.7,300110,,,A*4A
$GPRMC,034923.0,A,3325.267528,N,11736.437495,W,64.2,152.9,300110,,,A*4E
$GPRMC,034926.0,A,3325.220174,N,11736.406350,W,65.9,150.5,300110,,,A*4D
$GPRMC,034929.0,A,3325.177735,N,11736.367027,W,65.2,144.3,300110,,,A*4B
$GPRMC,034932.0,A,3325.134849,N,11736.328599,W,63.9,144.0,300110,,,A*47
$GPRMC,034935.0,A,3325.090434,N,11736.295739,W,62.4,150.9,300110,,,A*46
$GPRMC,034938.0,A,3325.042469,N,11736.269944,W,62.7,156.1,300110,,,A*46
$GPRMC,034941.0,A,3324.994481,N,11736.245070,W,63.4,157.6,300110,,,A*49
$GPRMC,034944.0,A,3324.946256,N,11736.220327,W,63.1,156.8,300110,,,A*47
$GPRMC,034947.0,A,3324.898050,N,11736.195779,W,62.5,157.2,300110,,,A*4E
$GPRMC,034950.0,A,3324.850024,N,11736.171589,W,63.1,157.7,300110,,,A*48
$GPRMC,034953.0,A,3324.802408,N,11736.146609,W,62.1,156.8,300110,,,A*46
$GPRMC,034956.0,A,3324.755177,N,11736.122766,W,61.5,157.2,300110,,,A*45
$GPRMC,034959.0,A,3324.707800,N,11736.098893,W,61.4,157.2,300110,,,A*40
$GPRMC,035002.0,A,3324.660644,N,11736.074788,W,61.6,156.4,300110,,,A*4A
$GPRMC,035005.0,A,3324.613332,N,11736.049517,W,62.3,155.7,300110,,,A*41
$GPRMC,035008.0,A,3324.567213,N,11736.024919,W,60.0,156.7,300110,,,A*45
$GPRMC,035011.0,A,3324.520464,N,11736.001267,W,60.6,157.1,300110,,,A*4C
$GPRMC,035014.0,A,3324.474181,N,11735.977937,W,59.4,157.1,300110,,,A*4A
$GPRMC,035017.0,A,3324.428823,N,11735.954949,W,58.8,157.5,300110,,,A*40
$GPRMC,035020.0,A,3324.383855,N,11735.932403,W,58.2,157.1,300110,,,A*4E
$GPRMC,035023.0,A,3324.339611,N,11735.909837,W,57.7,157.3,300110,,,A*49
$GPRMC,035026.0,A,3324.294849,N,11735.887347,W,58.1,157.3,300110,,,A*4B
$GPRMC,035029.0,A,3324.249333,N,11735.864384,W,59.4,157.2,300110,,,A*45
$GPRMC,035032.0,A,3324.203427,N,11735.840848,W,59.6,157.4,300110,,,A*4A
$GPRMC,035035.0,A,3324.157365,N,11735.817854,W,60.0,157.7,300110,,,A*4E
$GPRMC,035038.0,A,3324.112090,N,11735.794886,W,58.9,157.1,300110,,,A*44
$GPRMC,035041.0,A,3324.066665,N,11735.771687,W,59.5,157.0,300110,,,A*4C
$GPRMC,035044.0,A,3324.020598,N,11735.748150,W,60.7,157.2,300110,,,A*47
$GPRMC,035047.0,A,3323.973387,N,11735.724388,W,61.6,156.9,300110,,,A*43
$GPRMC,035050.0,A,3323.925031,N,11735.700077,W,64.0,157.0,300110,,,A*46
$GPRMC,035053.0,A,3323.874325,N,11735.674252,W,67.4,157.1,300110,,,A*47
$GPRMC,035056.0,A,3323.822988,N,11735.646848,W,67.7,155.1,300110,,,A*4D
$GPRMC,035059.0,A,3323.772354,N,11735.617679,W,67.1,153.9,300110,,,A*43
$GPRMC,035102.0,A,3323.723667,N,11735.587736,W,65.3,152.6,300110,,,A*43
$GPRMC,035105.0,A,3323.677102,N,11735.556319,W,63.8,150.3,300110,,,A*4F
$GPRMC,035108.0,A,3323.631370,N,11735.524339,W,63.5,149.4,300110,,,A*42
$GPRMC,035111.0,A,3323.585828,N,11735.491186,W,63.5,148.1,300110,,,A*4D
$GPRMC,035114.0,A,3323.541594,N,11735.456888,W,62.6,146.9,300110,,,A*42
$GPRMC,035117.0,A,3323.498427,N,11735.422951,W,62.2,146.9,300110,,,A*4F
$GPRMC,035120.0,A,3323.455342,N,11735.388803,W,62.2,146.4,300110,,,A*42
$GPRMC,035123.0,A,3323.411682,N,11735.354137,W,63.2,146.8,300110,,,A*4A
$GPRMC,035126.0,A,3323.368079,N,11735.319155,W,62.3,146.1,300110,,,A*40
$GPRMC,035129.0,A,3323.325688,N,11735.283237,W,62.4,142.9,300110,,,A*40
$GPRMC,035132.0,A,3323.285609,N,11735.243179,W,62.4,138.0,300110,,,A*49
$GPRMC,035135.0,A,3323.247938,N,11735.200110,W,62.4,134.4,300110,,,A*4D
$GPRMC,035138.0,A,3323.212462,N,11735.154365,W,62.4,132.1,300110,,,A*43
$GPRMC,035141.0,A,3323.181241,N,11735.103344,W,63.6,125.7,300110,,,A*41
$GPRMC,035144.0,A,3323.152324,N,11735.050005,W,64.2,120.3,300110,,,A*4B
$GPRMC,035147.0,A,3323.127176,N,11734.993035,W,64.8,116.4,300110,,,A*43
$GPRMC,035150.0,A,3323.104006,N,11734.935165,W,64.0,115.0,300110,,,A*45
$GPRMC,035153.0,A,3323.081436,N,11734.877490,W,63.8,114.7,300110,,,A*4C
$GPRMC,035156.0,A,3323.058638,N,11734.820198,W,63.5,115.0,300110,,,A*45
$GPRMC,035159.0,A,3323.036533,N,11734.763384,W,62.5,114.7,300110,,,A*4A
$GPRMC,035202.0,A,3323.014802,N,11734.707143,W,62.0,115.1,300110,,,A*41
$GPRMC,035205.0,A,3322.993121,N,11734.651546,W,61.5,114.9,300110,,,A*45
$GPRMC,035208.0,A,3322.971335,N,11734.596215,W,60.6,115.4,300110,,,A*44
$GPRMC,035211.0,A,3322.949609,N,11734.540970,W,61.8,114.8,300110,,,A*4C
$GPRMC,035214.0,A,3322.927788,N,11734.484528,W,62.8,115.0,300110,,,A*4B
$GPRMC,035217.0,A,3322.905355,N,11734.427231,W,63.5,114.7,300110,,,A*40
$GPRMC,035220.0,A,3322.882991,N,11734.369401,W,64.1,115.0,300110,,,A*45
$GPRMC,035223.0,A,3322.860038,N,11734.310912,W,65.0,114.9,300110,,,A*49
$GPRMC,035226.0,A,3322.837281,N,11734.252393,W,64.5,114.9,300110,,,A*4E
$GPRMC,035229.0,A,3322.814501,N,11734.194115,W,64.5,115.2,300110,,,A*40
$GPRMC,035232.0,A,3322.791807,N,11734.135969,W,64.4,115.0,300110,,,A*48
$GPRMC,035235.0,A,3322.769171,N,11734.077671,W,64.3,114.8,300110,,,A*4F
$GPRMC,035238.0,A,3322.746349,N,11734.019841,W,63.6,115.4,300110,,,A*4C
$GPRMC,035241.0,A,3322.722287,N,11733.963685,W,62.6,119.5,300110,,,A*4A
$GPRMC,035244.0,A,3322.693938,N,11733.912036,W,61.5,126.8,300110,,,A*42
$GPRMC,035247.0,A,3322.661718,N,11733.864279,W,60.7,130.6,300110,,,A*43
$GPRMC,035250.0,A,3322.626504,N,11733.821833,W,60.5,136.6,300110,,,A*48
$GPRMC,035253.0,A,3322.589678,N,11733.780826,W,60.1,137.0,300110,,,A*46
$GPRMC,035256.0,A,3322.553285,N,11733.740054,W,59.5,136.2,300110,,,A*4E
$GPRMC,035259.0,A,3322.518783,N,11733.697377,W,59.1,132.0,300110,,,A*46
$GPRMC,035302.0,A,3322.489065,N,11733.651003,W,58.7,125.0,300110,,,A*44
$GPRMC,035305.0,A,3322.461973,N,11733.602754,W,58.7,123.2,300110,,,A*4C
$GPRMC,035308.0,A,3322.435301,N,11733.553760,W,58.8,122.8,300110,,,A*4B
$GPRMC,035311.0,A,3322.408350,N,11733.504037,W,59.9,122.8,300110,,,A*4E
$GPRMC,035314.0,A,3322.381359,N,11733.453886,W,60.1,122.7,300110,,,A*48
$GPRMC,035317.0,A,3322.353862,N,11733.403570,W,60.6,122.7,300110,,,A*41
$GPRMC,035320.0,A,3322.326338,N,11733.352740,W,60.8,123.1,300110,,,A*48
$GPRMC,035323.0,A,3322.298826,N,11733.301996,W,60.8,122.5,300110,,,A*4D
$GPRMC,035326.0,A,3322.271226,N,11733.251051,W,60.9,122.9,300110,,,A*4E
$GPRMC,035329.0,A,3322.243560,N,11733.200070,W,60.9,122.8,300110,,,A*43
$GPRMC,035332.0,A,3322.215860,N,11733.149175,W,60.8,123.0,300110,,,A*45
$GPRMC,035335.0,A,3322.188159,N,11733.098934,W,60.1,123.1,300110,,,A*4E
$GPRMC,035338.0,A,3322.160901,N,11733.048663,W,60.1,122.9,300110,,,A*49
$GPRMC,035341.0,A,3322.133422,N,11732.998774,W,60.3,123.2,300110,,,A*47
$GPRMC,035344.0,A,3322.105654,N,11732.948090,W,60.8,122.9,300110,,,A*45
$GPRMC,035347.0,A,3322.077777,N,11732.897728,W,60.9,123.3,300110,,,A*4F
$GPRMC,035350.0,A,3322.049466,N,11732.847784,W,60.9,124.3,300110,,,A*4B
$GPRMC,035353.0,A,3322.019170,N,11732.799373,W,60.7,128.7,300110,,,A*49
$GPRMC,035356.0,A,3321.987298,N,11732.752532,W,60.5,128.9,300110,,,A*4C
$GPRMC,035359.0,A,3321.955579,N,11732.705756,W,60.5,129.0,300110,,,A*4E
$GPRMC,035402.0,A,3321.923722,N,11732.659055,W,60.7,129.0,300110,,,A*44
$GPRMC,035405.0,A,3321.891699,N,11732.612003,W,61.0,129.0,300110,,,A*40
$GPRMC,035408.0,A,3321.859382,N,11732.564965,W,61.3,129.2,300110,,,A*4C
$GPRMC,035411.0,A,3321.827467,N,11732.517908,W,60.3,128.8,300110,,,A*44
$GPRMC,035414.0,A,3321.795768,N,11732.471458,W,60.4,129.0,300110,,,A*4C
$GPRMC,035417.0,A,3321.763702,N,11732.424602,W,60.8,129.4,300110,,,A*4F
$GPRMC,035420.0,A,3321.731443,N,11732.377992,W,61.1,129.8,300110,,,A*49
$GPRMC,035423.0,A,3321.698678,N,11732.331010,W,61.8,129.3,300110,,,A*41
$GPRMC,035426.0,A,3321.665652,N,11732.283057,W,63.0,129.2,300110,,,A*4E
$GPRMC,035429.0,A,3321.632256,N,11732.234510,W,63.2,129.2,300110,,,A*4B
$GPRMC,035432.0,A,3321.598890,N,11732.185748,W,63.4,129.0,300110,,,A*40
$GPRMC,035435.0,A,3321.565793,N,11732.136859,W,63.0,129.0,300110,,,A*4A
$GPRMC,035438.0,A,3321.532852,N,11732.088313,W,62.5,128.9,300110,,,A*4A
$GPRMC,035441.0,A,3321.500170,N,11732.040290,W,62.2,129.0,300110,,,A*4D
$GPRMC,035444.0,A,3321.467436,N,11731.992347,W,61.8,129.1,300110,,,A*49
$GPRMC,035447.0,A,3321.434975,N,11731.944646,W,61.8,129.0,300110,,,A*48
$GPRMC,035450.0,A,3321.402283,N,11731.897000,W,61.9,129.0,300110,,,A*43
$GPRMC,035453.0,A,3321.369840,N,11731.849117,W,62.0,129.0,300110,,,A*41
$GPRMC,035456.0,A,3321.336738,N,11731.801104,W,62.9,129.3,300110,,,A*4A
$GPRMC,035459.0,A,3321.303309,N,11731.752120,W,63.8,129.0,300110,,,A*49
$GPRMC,035502.0,A,3321.269398,N,11731.702814,W,64.5,129.3,300110,,,A*41
$GPRMC,035505.0,A,3321.234986,N,11731.652895,W,65.2,129.1,300110,,,A*42
$GPRMC,035508.0,A,3321.200539,N,11731.602760,W,65.2,129.3,300110,,,A*42
$GPRMC,035511.0,A,3321.165876,N,11731.552534,W,65.7,129.3,300110,,,A*4C
$GPRMC,035514.0,A,3321.131222,N,11731.501764,W,65.8,129.1,300110,,,A*4F
$GPRMC,035517.0,A,3321.096514,N,11731.450935,W,65.8,129.0,300110,,,A*4C
$GPRMC,035520.0,A,3321.061958,N,11731.400402,W,65.7,129.4,300110,,,A*43
$GPRMC,035523.0,A,3321.027275,N,11731.349945,W,65.7,129.0,300110,,,A*46
$GPRMC,035526.0,A,3320.992697,N,11731.299110,W,65.8,129.2,300110,,,A*44
$GPRMC,035529.0,A,3320.957903,N,11731.248572,W,65.8,129.2,300110,,,A*4C
$GPRMC,035532.0,A,3320.923277,N,11731.197964,W,65.6,129.1,300110,,,A*4A
$GPRMC,035535.0,A,3320.888458,N,11731.147426,W,65.7,129.2,300110,,,A*42
$GPRMC,035538.0,A,3320.853586,N,11731.097270,W,65.6,129.9,300110,,,A*48
$GPRMC,035541.0,A,3320.818254,N,11731.047532,W,65.6,130.6,300110,,,A*4A
$GPRMC,035544.0,A,3320.782346,N,11730.998061,W,65.7,130.9,300110,,,A*46
$GPRMC,035547.0,A,3320.746387,N,11730.948735,W,65.6,131.2,300110,,,A*40
$GPRMC,035550.0,A,3320.710421,N,11730.899675,W,65.6,131.0,300110,,,A*44
$GPRMC,035553.0,A,3320.674539,N,11730.850490,W,65.4,130.9,300110,,,A*4A
$GPRMC,035556.0,A,3320.638490,N,11730.801547,W,65.5,131.4,300110,,,A*47
$GPRMC,035559.0,A,3320.602403,N,11730.752437,W,65.5,131.2,300110,,,A*42
$GPRMC,035602.0,A,3320.566409,N,11730.703242,W,65.6,131.2,300110,,,A*47
$GPRMC,035605.0,A,3320.530914,N,11730.653816,W,65.7,131.0,300110,,,A*4E
$GPRMC,035608.0,A,3320.494875,N,11730.604470,W,65.8,131.0,300110,,,A*4B
$GPRMC,035611.0,A,3320.458690,N,11730.555114,W,65.8,131.1,300110,,,A*47
$GPRMC,035614.0,A,3320.422817,N,11730.505718,W,65.6,131.0,300110,,,A*4E
$GPRMC,035617.0,A,3320.387075,N,11730.456196,W,65.7,130.8,300110,,,A*46
$GPRMC,035620.0,A,3320.350908,N,11730.407046,W,65.7,131.3,300110,,,A*49
$GPRMC,035623.0,A,3320.314920,N,11730.357831,W,65.8,130.9,300110,,,A*4E
$GPRMC,035626.0,A,3320.278813,N,11730.308746,W,65.8,130.9,300110,,,A*44
$GPRMC,035629.0,A,3320.243259,N,11730.259038,W,65.6,131.0,300110,,,A*4A
$GPRMC,035632.0,A,3320.207864,N,11730.209391,W,65.6,130.8,300110,,,A*48
$GPRMC,035635.0,A,3320.171939,N,11730.159964,W,65.7,131.2,300110,,,A*48
$GPRMC,035638.0,A,3320.135988,N,11730.111026,W,65.6,131.1,300110,,,A*4E
$GPRMC,035641.0,A,3320.100404,N,11730.061433,W,65.5,130.6,300110,,,A*4C
$GPRMC,035644.0,A,3320.064235,N,11730.012354,W,65.6,131.1,300110,,,A*49
$GPRMC,035647.0,A,3320.028155,N,11729.963068,W,65.6,131.0,300110,,,A*4D
$GPRMC,035650.0,A,3319.992225,N,11729.913823,W,65.7,131.0,300110,,,A*4C
$GPRMC,035653.0,A,3319.956636,N,11729.864321,W,65.6,130.6,300110,,,A*4F
$GPRMC,035656.0,A,3319.920846,N,11729.814854,W,65.7,130.8,300110,,,A*43
$GPRMC,035659.0,A,3319.884672,N,11729.765317,W,65.9,131.2,300110,,,A*4A
$GPRMC,035702.0,A,3319.848494,N,11729.716067,W,65.7,131.1,300110,,,A*42
$GPRMC,035705.0,A,3319.812604,N,11729.666706,W,65.6,130.9,300110,,,A*4F
$GPRMC,035708.0,A,3319.776620,N,11729.617385,W,65.7,130.9,300110,,,A*41
$GPRMC,035711.0,A,3319.740634,N,11729.568240,W,65.6,130.8,300110,,,A*4A
$GPRMC,035714.0,A,3319.704968,N,11729.518799,W,65.7,130.9,300110,,,A*4F
$GPRMC,035717.0,A,3319.668813,N,11729.469820,W,65.7,131.0,300110,,,A*48
$GPRMC,035720.0,A,3319.632759,N,11729.420550,W,65.6,131.0,300110,,,A*44
$GPRMC,035723.0,A,3319.596932,N,11729.371118,W,65.7,130.8,300110,,,A*4A
$GPRMC,035726.0,A,3319.561009,N,11729.321692,W,65.7,131.1,300110,,,A*4E
$GPRMC,035729.0,A,3319.525136,N,11729.272275,W,65.4,130.7,300110,,,A*42
$GPRMC,035732.0,A,3319.489275,N,11729.223040,W,65.4,130.9,300110,,,A*45
$GPRMC,035735.0,A,3319.453181,N,11729.174117,W,65.4,131.0,300110,,,A*47
$GPRMC,035738.0,A,3319.417200,N,11729.125168,W,65.5,131.2,300110,,,A*4F
$GPRMC,035741.0,A,3319.379821,N,11729.077512,W,65.8,135.5,300110,,,A*46
$GPRMC,035744.0,A,3319.337888,N,11729.035327,W,65.6,142.4,300110,,,A*43
$GPRMC,035747.0,A,3319.291452,N,11729.000933,W,65.2,150.1,300110,,,A*4D
$GPRMC,035750.0,A,3319.241600,N,11728.974419,W,65.0,158.9,300110,,,A*4F
$GPRMC,035753.0,A,3319.189875,N,11728.955827,W,64.1,165.4,300110,,,A*46
$GPRMC,035756.0,A,3319.138701,N,11728.946226,W,62.1,173.8,300110,,,A*41
$GPRMC,035759.0,A,3319.087030,N,11728.941836,W,62.3,175.9,300110,,,A*47
$GPRMC,035802.0,A,3319.035481,N,11728.937395,W,62.3,175.1,300110,,,A*4A
$GPRMC,035805.0,A,3318.983311,N,11728.932356,W,62.6,175.0,300110,,,A*48
$GPRMC,035808.0,A,3318.930628,N,11728.927256,W,63.9,174.5,300110,,,A*4D
$GPRMC,035811.0,A,3318.876238,N,11728.917464,W,66.4,168.0,300110,,,A*47
$GPRMC,035814.0,A,3318.823510,N,11728.899178,W,66.7,160.4,300110,,,A*4F
$GPRMC,035817.0,A,3318.774463,N,11728.873092,W,65.4,153.3,300110,,,A*42
$GPRMC,035820.0,A,3318.727730,N,11728.839719,W,64.8,146.8,300110,,,A*4D
$GPRMC,035823.0,A,3318.684955,N,11728.799274,W,65.8,138.2,300110,,,A*42
$GPRMC,035826.0,A,3318.645727,N,11728.753821,W,65.4,134.9,300110,,,A*46
$GPRMC,035829.0,A,3318.607098,N,11728.707694,W,65.5,134.1,300110,,,A*44
$GPRMC,035832.0,A,3318.568648,N,11728.661028,W,65.7,134.3,300110,,,A*4F
$GPRMC,035835.0,A,3318.529828,N,11728.614645,W,65.9,134.6,300110,,,A*41
$GPRMC,035838.0,A,3318.491212,N,11728.567994,W,65.8,134.4,300110,,,A*4A
$GPRMC,035841.0,A,3318.452767,N,11728.521284,W,65.8,134.8,300110,,,A*48
$GPRMC,035844.0,A,3318.414226,N,11728.474543,W,66.0,134.3,300110,,,A*42
$GPRMC,035847.0,A,3318.375637,N,11728.427948,W,65.8,134.5,300110,,,A*49
$GPRMC,035850.0,A,3318.337262,N,11728.381428,W,65.6,134.6,300110,,,A*40
$GPRMC,035853.0,A,3318.298867,N,11728.334697,W,65.8,134.4,300110,,,A*4C
$GPRMC,035856.0,A,3318.260437,N,11728.288188,W,65.7,134.5,300110,,,A*46
$GPRMC,035859.0,A,3318.222261,N,11728.241558,W,65.4,134.4,300110,,,A*44
$GPRMC,035902.0,A,3318.183946,N,11728.195219,W,65.2,134.5,300110,,,A*42
$GPRMC,035905.0,A,3318.145665,N,11728.148805,W,65.4,134.5,300110,,,A*40
$GPRMC,035908.0,A,3318.107229,N,11728.102366,W,65.6,134.6,300110,,,A*46
$GPRMC,035911.0,A,3318.068812,N,11728.055776,W,65.6,134.4,300110,,,A*40
$GPRMC,035914.0,A,3318.030578,N,11728.009066,W,65.7,134.2,300110,,,A*41
$GPRMC,035917.0,A,3317.992060,N,11727.962098,W,65.9,134.7,300110,,,A*41
$GPRMC,035920.0,A,3317.953157,N,11727.915322,W,66.3,134.7,300110,,,A*46
$GPRMC,035923.0,A,3317.914136,N,11727.868622,W,66.3,135.0,300110,,,A*49
$GPRMC,035926.0,A,3317.875213,N,11727.822268,W,65.9,135.1,300110,,,A*42
$GPRMC,035929.0,A,3317.836362,N,11727.775955,W,65.9,134.8,300110,,,A*4D
$GPRMC,035932.0,A,3317.797683,N,11727.729375,W,65.9,134.8,300110,,,A*48
$GPRMC,035935.0,A,3317.759158,N,11727.683061,W,65.4,134.8,300110,,,A*46
$GPRMC,035938.0,A,3317.720873,N,11727.637000,W,65.2,134.2,300110,,,A*41
$GPRMC,035941.0,A,3317.683044,N,11727.590535,W,65.4,134.4,300110,,,A*46
$GPRMC,035944.0,A,3317.643482,N,11727.545434,W,65.8,138.2,300110,,,A*4F
$GPRMC,035947.0,A,3317.600450,N,11727.507258,W,64.1,145.9,300110,,,A*47
$GPRMC,035950.0,A,3317.555885,N,11727.472607,W,63.8,147.0,300110,,,A*4E
$GPRMC,035953.0,A,3317.511772,N,11727.438640,W,62.3,147.1,300110,,,A*4C
$GPRMC,035956.0,A,3317.468430,N,11727.405116,W,62.4,146.9,300110,,,A*47
$GPRMC,035959.0,A,3317.424720,N,11727.371169,W,62.7,146.9,300110,,,A*4D
$GPRMC,040002.0,A,3317.381439,N,11727.337705,W,61.3,147.1,300110,,,A*4B
$GPRMC,040005.0,A,3317.338754,N,11727.305800,W,59.8,148.1,300110,,,A*42
$GPRMC,040008.0,A,3317.296869,N,11727.274177,W,59.4,147.7,300110,,,A*40
$GPRMC,040011.0,A,3317.254916,N,11727.242544,W,59.4,147.4,300110,,,A*4D
$GPRMC,040014.0,A,3317.213367,N,11727.210900,W,59.3,147.5,300110,,,A*4A
$GPRMC,040017.0,A,3317.171706,N,11727.179106,W,59.1,147.2,300110,,,A*4A
$GPRMC,040020.0,A,3317.130905,N,11727.146960,W,58.8,146.7,300110,,,A*4E
$GPRMC,040023.0,A,3317.089811,N,11727.115191,W,58.6,147.3,300110,,,A*41
$GPRMC,040026.0,A,3317.048205,N,11727.083824,W,59.5,147.5,300110,,,A*4B
$GPRMC,040029.0,A,3317.006126,N,11727.052035,W,60.1,147.5,300110,,,A*46
$GPRMC,040032.0,A,3316.963580,N,11727.019803,W,60.5,147.5,300110,,,A*49
$GPRMC,040035.0,A,3316.920805,N,11726.987405,W,61.1,147.8,300110,,,A*44
$GPRMC,040038.0,A,3316.877622,N,11726.954505,W,61.9,147.5,300110,,,A*4B
$GPRMC,040041.0,A,3316.833514,N,11726.921554,W,62.3,147.7,300110,,,A*4E
$GPRMC,040044.0,A,3316.789748,N,11726.888326,W,62.1,147.6,300110,,,A*4C
$GPRMC,040047.0,A,3316.746706,N,11726.854928,W,61.2,146.9,300110,,,A*4D
$GPRMC,040050.0,A,3316.704194,N,11726.822228,W,60.1,147.3,300110,,,A*43
$GPRMC,040053.0,A,3316.662085,N,11726.791239,W,58.8,148.2,300110,,,A*4B
$GPRMC,040056.0,A,3316.621442,N,11726.758474,W,58.7,146.6,300110,,,A*49
$GPRMC,040059.0,A,3316.580002,N,11726.726966,W,59.1,147.1,300110,,,A*48
$GPRMC,040102.0,A,3316.537903,N,11726.695429,W,60.0,147.4,300110,,,A*42
$GPRMC,040105.0,A,3316.495608,N,11726.663151,W,60.2,147.4,300110,,,A*49
$GPRMC,040108.0,A,3316.453306,N,11726.631307,W,59.7,147.5,300110,,,A*4D
$GPRMC,040111.0,A,3316.411471,N,11726.599608,W,59.6,147.6,300110,,,A*4D
$GPRMC,040114.0,A,3316.370239,N,11726.566612,W,59.3,145.4,300110,,,A*4C
$GPRMC,040117.0,A,3316.332918,N,11726.527526,W,59.2,137.2,300110,,,A*42
$GPRMC,040120.0,A,3316.298247,N,11726.483631,W,60.7,132.0,300110,,,A*44
$GPRMC,040123.0,A,3316.264962,N,11726.437836,W,61.9,130.7,300110,,,A*44
$GPRMC,040126.0,A,3316.230303,N,11726.391110,W,63.3,131.3,300110,,,A*46
$GPRMC,040129.0,A,3316.195477,N,11726.344188,W,62.7,131.7,300110,,,A*49
$GPRMC,040132.0,A,3316.160705,N,11726.297337,W,62.6,131.4,300110,,,A*44
$GPRMC,040135.0,A,3316.126421,N,11726.250782,W,62.1,131.4,300110,,,A*42
$GPRMC,040138.0,A,3316.092236,N,11726.204539,W,61.5,131.5,300110,,,A*44
$GPRMC,040141.0,A,3316.058603,N,11726.159101,W,60.6,131.2,300110,,,A*4F
$GPRMC,040144.0,A,3316.025449,N,11726.114160,W,60.3,131.2,300110,,,A*47
$GPRMC,040147.0,A,3315.991824,N,11726.069416,W,60.8,131.4,300110,,,A*44
$GPRMC,040150.0,A,3315.958420,N,11726.023842,W,60.8,131.0,300110,,,A*48
$GPRMC,040153.0,A,3315.925117,N,11725.978484,W,60.6,131.0,300110,,,A*4C
$GPRMC,040156.0,A,3315.891638,N,11725.933458,W,60.7,132.2,300110,,,A*43
$GPRMC,040159.0,A,3315.854918,N,11725.892350,W,61.2,138.8,300110,,,A*49
$GPRMC,040202.0,A,3315.813782,N,11725.855240,W,62.1,144.5,300110,,,A*47
$GPRMC,040205.0,A,3315.770451,N,11725.820262,W,63.2,146.1,300110,,,A*41
$GPRMC,040208.0,A,3315.726313,N,11725.785179,W,64.3,146.1,300110,,,A*41
$GPRMC,040211.0,A,3315.681202,N,11725.748909,W,66.0,146.1,300110,,,A*4B
$GPRMC,040214.0,A,3315.634996,N,11725.712779,W,65.7,146.5,300110,,,A*40
$GPRMC,040217.0,A,3315.589226,N,11725.676846,W,65.2,146.4,300110,,,A*42
$GPRMC,040220.0,A,3315.543989,N,11725.641114,W,65.0,146.3,300110,,,A*41
$GPRMC,040223.0,A,3315.499076,N,11725.605483,W,64.4,146.2,300110,,,A*42
$GPRMC,040226.0,A,3315.455028,N,11725.570374,W,62.9,146.4,300110,,,A*4F
$GPRMC,040229.0,A,3315.410684,N,11725.535849,W,63.8,146.2,300110,,,A*43
$GPRMC,040232.0,A,3315.366005,N,11725.500530,W,64.0,146.1,300110,,,A*49
$GPRMC,040235.0,A,3315.321384,N,11725.465104,W,64.4,145.8,300110,,,A*48
$GPRMC,040238.0,A,3315.276358,N,11725.429573,W,65.1,146.3,300110,,,A*47
$GPRMC,040241.0,A,3315.230844,N,11725.393585,W,65.5,146.3,300110,,,A*46
$GPRMC,040244.0,A,3315.185454,N,11725.357400,W,65.3,146.2,300110,,,A*40
$GPRMC,040247.0,A,3315.139847,N,11725.321437,W,65.4,146.3,300110,,,A*49
$GPRMC,040250.0,A,3315.094831,N,11725.285881,W,63.9,146.3,300110,,,A*4D
$GPRMC,040253.0,A,3315.050736,N,11725.250782,W,63.3,146.2,300110,,,A*41
$GPRMC,040256.0,A,3315.007123,N,11725.215805,W,62.7,146.0,300110,,,A*42
$GPRMC,040259.0,A,3314.964064,N,11725.182079,W,60.8,146.0,300110,,,A*41
$GPRMC,040302.0,A,3314.922151,N,11725.148530,W,59.9,146.5,300110,,,A*4B
$GPRMC,040305.0,A,3314.880411,N,11725.117168,W,57.2,147.1,300110,,,A*47
$GPRMC,040308.0,A,3314.838068,N,11725.093431,W,55.9,154.3,300110,,,A*4E
$GPRMC,040311.0,A,3314.796259,N,11725.072027,W,54.4,158.1,300110,,,A*43
$GPRMC,040314.0,A,3314.752664,N,11725.053726,W,54.7,159.6,300110,,,A*44
$GPRMC,040317.0,A,3314.709586,N,11725.034378,W,55.5,159.3,300110,,,A*4E
$GPRMC,040320.0,A,3314.665146,N,11725.014508,W,57.7,159.1,300110,,,A*48
$GPRMC,040323.0,A,3314.619183,N,11724.993909,W,59.1,158.9,300110,,,A*42
$GPRMC,040326.0,A,3314.573350,N,11724.971564,W,59.5,156.1,300110,,,A*4D
$GPRMC,040329.0,A,3314.529996,N,11724.942999,W,59.8,147.9,300110,,,A*46
$GPRMC,040332.0,A,3314.488981,N,11724.909253,W,59.8,143.8,300110,,,A*47
$GPRMC,040335.0,A,3314.451277,N,11724.868739,W,61.5,135.7,300110,,,A*41
$GPRMC,040338.0,A,3314.417509,N,11724.823884,W,61.0,129.3,300110,,,A*4A
$GPRMC,040341.0,A,3314.387860,N,11724.774764,W,60.9,125.2,300110,,,A*41
$GPRMC,040344.0,A,3314.359025,N,11724.725152,W,60.5,124.9,300110,,,A*4F
$GPRMC,040347.0,A,3314.330301,N,11724.675911,W,60.3,124.8,300110,,,A*4A
$GPRMC,040350.0,A,3314.301472,N,11724.626641,W,60.5,125.0,300110,,,A*4E
$GPRMC,040353.0,A,3314.271279,N,11724.578376,W,60.5,128.8,300110,,,A*4A
$GPRMC,040356.0,A,3314.237662,N,11724.533355,W,60.4,134.2,300110,,,A*4B
$GPRMC,040359.0,A,3314.201367,N,11724.491689,W,60.6,136.8,300110,,,A*46
$GPRMC,040402.0,A,3314.164515,N,11724.450374,W,60.7,136.5,300110,,,A*4A
$GPRMC,040405.0,A,3314.127592,N,11724.409226,W,60.5,137.0,300110,,,A*49
$GPRMC,040408.0,A,3314.090710,N,11724.368218,W,60.5,136.8,300110,,,A*45
$GPRMC,040411.0,A,3314.053942,N,11724.326924,W,60.5,136.7,300110,,,A*4A
$GPRMC,040414.0,A,3314.017423,N,11724.285941,W,60.7,136.3,300110,,,A*48
$GPRMC,040417.0,A,3313.980612,N,11724.244863,W,60.4,136.9,300110,,,A*4E
$GPRMC,040420.0,A,3313.943874,N,11724.204012,W,60.3,136.6,300110,,,A*49
$GPRMC,040423.0,A,3313.907177,N,11724.162617,W,60.6,136.5,300110,,,A*46
$GPRMC,040426.0,A,3313.870436,N,11724.121333,W,60.6,136.8,300110,,,A*4B
$GPRMC,040429.0,A,3313.833419,N,11724.080380,W,60.5,137.0,300110,,,A*46
