NMEA Sentence Code,UTC Time,Status,Latitude,Latitude Direction,Longitude,Longitude Direction,Speed (knots),Track Angle (degrees true),Date,MagneticVariation,Magnetic Variation Direction,[FAA Mode]-Optional,Checksum
$GPRMC,023230.2,A,3247.716864,N,11715.119817,W,28.3,75.0,020210,,,A*78
$GPRMC,023233.2,A,3247.723578,N,11715.089549,W,31.0,75.7,020210,,,A*7F
$GPRMC,023236.2,A,3247.730454,N,11715.058758,W,30.9,74.3,020210,,,A*74
$GPRMC,023239.2,A,3247.738173,N,11715.029063,W,31.2,73.7,020210,,,A*73
$GPRMC,023242.9,A,3247.745796,N,11714.990969,W,32.3,74.9,020210,,,A*71
$GPRMC,023245.2,A,3247.752278,N,11714.966913,W,31.6,75.0,020210,,,A*74
$GPRMC,023248.9,A,3247.760221,N,11714.930193,W,32.0,74.9,020210,,,A*71
$GPRMC,023251.2,A,3247.764625,N,11714.907356,W,31.3,76.6,020210,,,A*74
$GPRMC,023254.2,A,3247.771525,N,11714.876174,W,32.8,75.3,020210,,,A*7D
$GPRMC,023257.2,A,3247.777325,N,11714.845302,W,32.7,75.2,020210,,,A*73
$GPRMC,023300.2,A,3247.784838,N,11714.812798,W,33.0,75.1,020210,,,A*7B
$GPRMC,023303.2,A,3247.791768,N,11714.781845,W,32.9,75.2,020210,,,A*77
$GPRMC,023307.2,A,3247.800028,N,11714.737511,W,34.8,74.9,020210,,,A*7B
$GPRMC,023310.2,A,3247.807060,N,11714.704696,W,34.9,75.6,020210,,,A*75
$GPRMC,023313.2,A,3247.815092,N,11714.672364,W,33.9,74.0,020210,,,A*70
$GPRMC,023316.2,A,3247.822736,N,11714.640348,W,33.2,74.6,020210,,,A*7A
$GPRMC,023319.2,A,3247.829466,N,11714.608472,W,32.3,74.7,020210,,,A*7B
$GPRMC,023322.2,A,3247.837455,N,11714.577980,W,32.7,73.7,020210,,,A*74
$GPRMC,023325.2,A,3247.843755,N,11714.545962,W,34.2,74.2,020210,,,A*7F
$GPRMC,023328.2,A,3247.850663,N,11714.514907,W,32.5,74.6,020210,,,A*76
$GPRMC,023332.2,A,3247.857858,N,11714.481818,W,22.2,74.4,020210,,,A*7A
$GPRMC,023335.2,A,3247.862314,N,11714.462665,W,19.9,74.0,020210,,,A*76
$GPRMC,023338.2,A,3247.867795,N,11714.442975,W,22.4,73.0,020210,,,A*7D
$GPRMC,023341.2,A,3247.872311,N,11714.418156,W,27.0,76.3,020210,,,A*7E
$GPRMC,023344.9,A,3247.880300,N,11714.382493,W,30.8,77.1,020210,,,A*78
$GPRMC,023348.2,A,3247.884392,N,11714.352665,W,27.9,76.2,020210,,,A*73
$GPRMC,023351.0,A,3247.891744,N,11714.328023,W,27.8,73.5,020210,,,A*78
$GPRMC,023354.2,A,3247.897903,N,11714.296927,W,28.5,75.3,020210,,,A*7F
$GPRMC,023357.2,A,3247.903376,N,11714.271384,W,26.0,74.0,020210,,,A*7B
$GPRMC,023400.9,A,3247.913194,N,11714.243059,W,25.4,72.1,020210,,,A*78
$GPRMC,023403.9,A,3247.916930,N,11714.219433,W,24.3,75.3,020210,,,A*7C
$GPRMC,023406.2,A,3247.921183,N,11714.201760,W,23.7,74.9,020210,,,A*72
$GPRMC,023409.2,A,3247.925152,N,11714.179145,W,23.0,76.2,020210,,,A*76
$GPRMC,023412.2,A,3247.929999,N,11714.159775,W,18.3,74.7,020210,,,A*74
$GPRMC,023415.2,A,3247.932962,N,11714.149858,W,6.1,67.0,020210,,,A*44
$GPRMC,023439.2,A,3247.936778,N,11714.120195,W,18.5,76.5,020210,,,A*72
$GPRMC,023442.9,A,3247.945688,N,11714.090965,W,22.5,72.8,020210,,,A*72
$GPRMC,023445.2,A,3247.951204,N,11714.072507,W,21.3,66.2,020210,,,A*75
$GPRMC,023448.2,A,3247.956497,N,11714.051448,W,17.3,68.7,020210,,,A*76
$GPRMC,023451.2,A,3247.958534,N,11714.041660,W,8.6,71.7,020210,,,A*42
$GPRMC,023457.2,A,3247.959699,N,11714.035172,W,4.8,78.7,020210,,,A*4D
$GPRMC,023500.9,A,3247.966265,N,11714.022513,W,11.5,52.5,020210,,,A*78
$GPRMC,023503.2,A,3247.973581,N,11714.014129,W,15.7,47.2,020210,,,A*74
$GPRMC,023506.2,A,3247.983734,N,11713.996519,W,21.6,60.2,020210,,,A*72
$GPRMC,023509.2,A,3247.993670,N,11713.974736,W,25.4,63.1,020210,,,A*78
$GPRMC,023512.2,A,3248.003772,N,11713.948745,W,29.3,65.2,020210,,,A*7B
$GPRMC,023515.2,A,3248.015728,N,11713.919044,W,32.9,65.1,020210,,,A*75
$GPRMC,023518.2,A,3248.027822,N,11713.889795,W,32.8,63.8,020210,,,A*71
$GPRMC,023521.2,A,3248.041253,N,11713.859203,W,32.8,62.2,020210,,,A*7B
$GPRMC,023524.2,A,3248.051525,N,11713.831781,W,31.9,63.2,020210,,,A*7B
$GPRMC,023527.2,A,3248.064537,N,11713.802552,W,33.3,63.0,020210,,,A*7B
$GPRMC,023530.2,A,3248.076082,N,11713.772773,W,33.7,63.9,020210,,,A*71
$GPRMC,023533.2,A,3248.089408,N,11713.741011,W,35.3,64.0,020210,,,A*7B
$GPRMC,023536.2,A,3248.103989,N,11713.709634,W,36.5,62.9,020210,,,A*7E
$GPRMC,023539.2,A,3248.119464,N,11713.675792,W,37.6,60.8,020210,,,A*72
$GPRMC,023542.2,A,3248.135443,N,11713.647091,W,28.1,54.3,020210,,,A*75
$GPRMC,023545.9,A,3248.152897,N,11713.622240,W,25.6,48.0,020210,,,A*74
$GPRMC,023548.9,A,3248.169759,N,11713.600591,W,27.3,48.7,020210,,,A*77
$GPRMC,023551.9,A,3248.185008,N,11713.580845,W,28.4,47.1,020210,,,A*70
$GPRMC,023555.2,A,3248.203565,N,11713.557431,W,29.8,47.6,020210,,,A*73
$GPRMC,023558.9,A,3248.227836,N,11713.530320,W,31.1,46.0,020210,,,A*79
$GPRMC,023601.2,A,3248.243384,N,11713.511716,W,33.5,43.4,020210,,,A*78
$GPRMC,023604.9,A,3248.267346,N,11713.482820,W,34.8,45.6,020210,,,A*71
$GPRMC,023607.0,A,3248.277624,N,11713.463129,W,35.1,52.6,020210,,,A*7A
$GPRMC,023610.9,A,3248.296335,N,11713.428954,W,33.4,58.0,020210,,,A*7D
$GPRMC,023613.2,A,3248.303101,N,11713.406120,W,33.1,65.6,020210,,,A*77
$GPRMC,023616.2,A,3248.310263,N,11713.376538,W,32.4,72.3,020210,,,A*7D
$GPRMC,023619.2,A,3248.316365,N,11713.345252,W,32.6,75.7,020210,,,A*79
$GPRMC,023622.9,A,3248.325749,N,11713.307930,W,29.3,73.4,020210,,,A*73
$GPRMC,023625.2,A,3248.330410,N,11713.286806,W,28.2,74.7,020210,,,A*7C
$GPRMC,023628.2,A,3248.335607,N,11713.260973,W,26.5,74.6,020210,,,A*73
$GPRMC,023631.2,A,3248.342311,N,11713.239330,W,20.5,64.7,020210,,,A*7E
$GPRMC,023634.9,A,3248.351183,N,11713.216550,W,21.3,67.9,020210,,,A*7C
$GPRMC,023637.2,A,3248.354696,N,11713.198265,W,24.6,75.4,020210,,,A*78
$GPRMC,023640.9,A,3248.357955,N,11713.170615,W,19.8,78.9,020210,,,A*75
$GPRMC,023643.9,A,3248.361000,N,11713.156599,W,12.8,76.3,020210,,,A*76
$GPRMC,023646.9,A,3248.364373,N,11713.145196,W,12.6,66.7,020210,,,A*73
$GPRMC,023649.2,A,3248.371065,N,11713.140657,W,11.7,27.1,020210,,,A*79
$GPRMC,023652.9,A,3248.383848,N,11713.143029,W,12.8,346.0,020210,,,A*47
$GPRMC,023655.2,A,3248.398112,N,11713.148142,W,21.8,343.2,020210,,,A*47
$GPRMC,023658.0,A,3248.418715,N,11713.156047,W,28.3,344.3,020210,,,A*49
$GPRMC,023701.2,A,3248.437919,N,11713.160363,W,17.4,350.2,020210,,,A*46
$GPRMC,023746.9,A,3248.465300,N,11713.161138,W,11.1,6.4,020210,,,A*43
$GPRMC,023749.2,A,3248.486924,N,11713.165582,W,24.8,353.0,020210,,,A*4F
$GPRMC,023752.2,A,3248.519502,N,11713.170307,W,33.5,353.8,020210,,,A*46
$GPRMC,023755.2,A,3248.549322,N,11713.174357,W,34.9,353.7,020210,,,A*45
$GPRMC,023758.2,A,3248.580621,N,11713.180324,W,36.0,350.8,020210,,,A*43
$GPRMC,023801.2,A,3248.612715,N,11713.188391,W,39.2,348.8,020210,,,A*4C
$GPRMC,023804.2,A,3248.647213,N,11713.194841,W,40.8,350.6,020210,,,A*42
$GPRMC,023807.2,A,3248.682737,N,11713.201130,W,40.3,351.9,020210,,,A*4E
$GPRMC,023810.2,A,3248.718848,N,11713.207427,W,38.9,352.5,020210,,,A*42
$GPRMC,023813.2,A,3248.752272,N,11713.210946,W,40.6,353.0,020210,,,A*44
$GPRMC,023816.9,A,3248.791414,N,11713.222923,W,42.1,342.1,020210,,,A*45
$GPRMC,023819.2,A,3248.817218,N,11713.238789,W,44.7,331.3,020210,,,A*49
$GPRMC,023822.9,A,3248.859204,N,11713.277380,W,49.3,321.4,020210,,,A*44
$GPRMC,023825.9,A,3248.894754,N,11713.311894,W,52.6,321.1,020210,,,A*47
$GPRMC,023828.9,A,3248.927370,N,11713.343018,W,50.3,322.8,020210,,,A*47
$GPRMC,023831.9,A,3248.962772,N,11713.371745,W,50.7,323.9,020210,,,A*42
$GPRMC,023834.9,A,3248.999710,N,11713.402699,W,52.9,323.6,020210,,,A*47
$GPRMC,023837.2,A,3249.029654,N,11713.429279,W,57.5,322.2,020210,,,A*42
$GPRMC,023840.2,A,3249.066769,N,11713.465569,W,57.4,320.7,020210,,,A*4E
$GPRMC,023843.2,A,3249.103026,N,11713.501798,W,56.7,319.4,020210,,,A*47
$GPRMC,023846.9,A,3249.143530,N,11713.545575,W,54.9,319.7,020210,,,A*41
$GPRMC,023849.2,A,3249.171660,N,11713.573309,W,56.6,319.8,020210,,,A*48
$GPRMC,023852.2,A,3249.210388,N,11713.614696,W,60.0,317.9,020210,,,A*48
$GPRMC,023855.2,A,3249.249750,N,11713.655207,W,60.5,318.8,020210,,,A*40
$GPRMC,023858.2,A,3249.287574,N,11713.694329,W,58.1,319.1,020210,,,A*4C
$GPRMC,023901.9,A,3249.331299,N,11713.739471,W,57.4,319.7,020210,,,A*42
$GPRMC,023904.2,A,3249.359127,N,11713.768819,W,59.0,319.2,020210,,,A*4D
$GPRMC,023908.2,A,3249.407105,N,11713.818010,W,58.4,319.6,020210,,,A*45
$GPRMC,023911.2,A,3249.446363,N,11713.856184,W,59.7,322.3,020210,,,A*43
$GPRMC,023914.2,A,3249.490478,N,11713.888957,W,60.9,328.7,020210,,,A*4F
$GPRMC,023917.2,A,3249.538443,N,11713.916208,W,62.3,335.2,020210,,,A*41
$GPRMC,023920.2,A,3249.586203,N,11713.936093,W,61.6,340.7,020210,,,A*41
$GPRMC,023923.2,A,3249.638192,N,11713.950988,W,63.0,347.0,020210,,,A*48
$GPRMC,023926.2,A,3249.690187,N,11713.958567,W,62.6,352.1,020210,,,A*4C
$GPRMC,023929.2,A,3249.743798,N,11713.960019,W,63.0,359.1,020210,,,A*4F
$GPRMC,023932.2,A,3249.795884,N,11713.960705,W,62.8,359.6,020210,,,A*48
$GPRMC,023935.2,A,3249.849060,N,11713.961160,W,61.1,360.0,020210,,,A*41
$GPRMC,023938.9,A,3249.907354,N,11713.958415,W,57.3,0.8,020210,,,A*4F
$GPRMC,023941.9,A,3249.952320,N,11713.959196,W,55.3,357.9,020210,,,A*4F
$GPRMC,023944.2,A,3249.988579,N,11713.962447,W,55.2,354.7,020210,,,A*41
$GPRMC,023947.2,A,3250.033965,N,11713.972101,W,55.4,349.4,020210,,,A*4D
$GPRMC,023950.9,A,3250.089027,N,11713.990640,W,55.7,343.1,020210,,,A*4C
$GPRMC,023953.9,A,3250.134190,N,11714.009861,W,56.6,339.4,020210,,,A*4C
$GPRMC,023956.9,A,3250.179382,N,11714.030376,W,57.4,338.4,020210,,,A*44
$GPRMC,023959.9,A,3250.225232,N,11714.053956,W,58.3,338.5,020210,,,A*4F
$GPRMC,024003.2,A,3250.275644,N,11714.074079,W,57.3,339.7,020210,,,A*48
$GPRMC,024006.9,A,3250.329595,N,11714.097542,W,54.9,340.4,020210,,,A*45
$GPRMC,024009.2,A,3250.362709,N,11714.113053,W,55.8,338.8,020210,,,A*42
$GPRMC,024012.2,A,3250.406553,N,11714.134408,W,57.1,339.1,020210,,,A*4C
$GPRMC,024015.9,A,3250.463055,N,11714.158891,W,57.3,341.0,020210,,,A*4A
$GPRMC,024018.2,A,3250.497825,N,11714.169486,W,55.3,345.6,020210,,,A*40
$GPRMC,024021.2,A,3250.546291,N,11714.177956,W,58.9,351.9,020210,,,A*40
$GPRMC,024024.2,A,3250.596730,N,11714.182104,W,60.7,357.7,020210,,,A*4E
$GPRMC,024027.2,A,3250.648413,N,11714.178124,W,62.3,4.6,020210,,,A*4A
$GPRMC,024030.9,A,3250.712563,N,11714.167873,W,62.8,8.1,020210,,,A*4A
$GPRMC,024034.2,A,3250.766215,N,11714.158344,W,60.0,8.4,020210,,,A*4C
$GPRMC,024037.9,A,3250.831943,N,11714.149109,W,61.5,7.7,020210,,,A*42
$GPRMC,024040.9,A,3250.882437,N,11714.137171,W,63.1,12.0,020210,,,A*77
$GPRMC,024043.9,A,3250.933980,N,11714.120541,W,62.8,17.3,020210,,,A*71
$GPRMC,024046.9,A,3250.978030,N,11714.096295,W,59.0,24.1,020210,,,A*79
$GPRMC,024049.9,A,3251.021007,N,11714.070723,W,57.5,28.3,020210,,,A*73
$GPRMC,024052.9,A,3251.058541,N,11714.045481,W,54.4,30.2,020210,,,A*77
$GPRMC,024055.9,A,3251.099926,N,11714.014937,W,57.8,30.8,020210,,,A*71
$GPRMC,024058.9,A,3251.141820,N,11713.986238,W,58.8,30.1,020210,,,A*78
$GPRMC,024101.9,A,3251.183790,N,11713.957608,W,58.4,29.9,020210,,,A*78
$GPRMC,024104.9,A,3251.227359,N,11713.926407,W,59.5,31.3,020210,,,A*79
$GPRMC,024107.9,A,3251.270708,N,11713.898205,W,59.0,29.6,020210,,,A*71
$GPRMC,024110.9,A,3251.312032,N,11713.874001,W,57.5,25.2,020210,,,A*7B
$GPRMC,024113.9,A,3251.355898,N,11713.854502,W,57.6,19.8,020210,,,A*71
$GPRMC,024117.2,A,3251.408247,N,11713.838593,W,59.0,13.6,020210,,,A*77
$GPRMC,024120.2,A,3251.454126,N,11713.830098,W,56.8,9.1,020210,,,A*43
$GPRMC,024123.2,A,3251.502418,N,11713.825226,W,58.3,4.7,020210,,,A*47
$GPRMC,024126.2,A,3251.553439,N,11713.820236,W,60.6,5.3,020210,,,A*4A
$GPRMC,024129.9,A,3251.613576,N,11713.812888,W,59.1,4.6,020210,,,A*44
$GPRMC,024132.9,A,3251.661271,N,11713.807665,W,58.7,5.2,020210,,,A*40
$GPRMC,024135.9,A,3251.715471,N,11713.802969,W,60.8,4.7,020210,,,A*45
$GPRMC,024138.2,A,3251.755603,N,11713.799720,W,60.9,4.6,020210,,,A*4E
$GPRMC,024141.2,A,3251.806225,N,11713.795379,W,61.4,4.7,020210,,,A*40
$GPRMC,024144.9,A,3251.867655,N,11713.789084,W,59.4,5.2,020210,,,A*49
$GPRMC,024147.9,A,3251.917435,N,11713.781445,W,58.8,6.1,020210,,,A*44
$GPRMC,024150.9,A,3251.966412,N,11713.777981,W,58.7,4.3,020210,,,A*42
$GPRMC,024153.9,A,3252.015584,N,11713.772346,W,58.6,4.5,020210,,,A*42
$GPRMC,024156.9,A,3252.063985,N,11713.768810,W,57.1,4.6,020210,,,A*43
$GPRMC,024200.2,A,3252.114969,N,11713.763751,W,56.1,4.2,020210,,,A*4F
$GPRMC,024203.9,A,3252.173609,N,11713.758412,W,56.9,5.0,020210,,,A*48
$GPRMC,024206.9,A,3252.223060,N,11713.757560,W,57.9,3.1,020210,,,A*4F
$GPRMC,024209.9,A,3252.267347,N,11713.750236,W,57.0,5.3,020210,,,A*48
$GPRMC,024212.2,A,3252.305508,N,11713.747758,W,59.2,3.0,020210,,,A*43
$GPRMC,024215.2,A,3252.354740,N,11713.743537,W,57.7,4.8,020210,,,A*45
$GPRMC,024219.2,A,3252.421265,N,11713.737970,W,58.6,4.6,020210,,,A*42
$GPRMC,024223.2,A,3252.486053,N,11713.730192,W,58.6,5.7,020210,,,A*42
$GPRMC,024226.0,A,3252.529519,N,11713.726571,W,59.7,4.8,020210,,,A*4A
$GPRMC,024229.9,A,3252.594029,N,11713.719524,W,59.3,6.3,020210,,,A*4D
$GPRMC,024232.9,A,3252.647907,N,11713.713914,W,63.1,4.7,020210,,,A*47
$GPRMC,024235.2,A,3252.692914,N,11713.710719,W,65.3,4.4,020210,,,A*46
$GPRMC,024238.2,A,3252.746911,N,11713.704744,W,64.2,5.5,020210,,,A*4B
$GPRMC,024241.2,A,3252.800030,N,11713.700820,W,63.3,4.6,020210,,,A*4F
$GPRMC,024244.9,A,3252.865964,N,11713.692792,W,62.8,7.5,020210,,,A*4C
$GPRMC,024248.2,A,3252.919592,N,11713.687627,W,59.4,5.3,020210,,,A*4F
$GPRMC,024251.9,A,3252.982990,N,11713.682786,W,60.2,5.2,020210,,,A*42
$GPRMC,024254.9,A,3253.034610,N,11713.676679,W,60.6,5.0,020210,,,A*49
$GPRMC,024257.9,A,3253.084296,N,11713.672036,W,60.4,4.6,020210,,,A*47
$GPRMC,024300.9,A,3253.138815,N,11713.669098,W,63.0,3.6,020210,,,A*4D
$GPRMC,024303.9,A,3253.192398,N,11713.663633,W,64.4,4.6,020210,,,A*49
$GPRMC,024307.2,A,3253.250628,N,11713.658523,W,63.6,3.4,020210,,,A*4F
$GPRMC,024310.2,A,3253.301113,N,11713.652795,W,63.2,4.4,020210,,,A*45
$GPRMC,024313.9,A,3253.360721,N,11713.644679,W,60.1,5.8,020210,,,A*44
$GPRMC,024316.9,A,3253.415361,N,11713.641094,W,63.3,4.7,020210,,,A*4B
$GPRMC,024319.9,A,3253.470336,N,11713.636252,W,65.1,3.7,020210,,,A*4E
$GPRMC,024322.9,A,3253.519048,N,11713.631144,W,63.1,4.1,020210,,,A*46
$GPRMC,024325.9,A,3253.571457,N,11713.625086,W,63.0,6.2,020210,,,A*4F
$GPRMC,024329.2,A,3253.630724,N,11713.614235,W,63.1,10.2,020210,,,A*77
$GPRMC,024332.9,A,3253.695207,N,11713.591127,W,64.8,16.5,020210,,,A*7C
$GPRMC,024335.9,A,3253.746106,N,11713.570642,W,64.2,19.3,020210,,,A*7E
$GPRMC,024338.9,A,3253.797714,N,11713.547385,W,66.0,19.6,020210,,,A*75
$GPRMC,024341.9,A,3253.851878,N,11713.525508,W,66.3,19.0,020210,,,A*79
$GPRMC,024344.9,A,3253.901383,N,11713.504525,W,64.8,19.5,020210,,,A*77
$GPRMC,024347.9,A,3253.949899,N,11713.488270,W,62.2,18.2,020210,,,A*70
$GPRMC,024350.9,A,3254.001104,N,11713.469171,W,62.9,18.3,020210,,,A*7E
$GPRMC,024353.2,A,3254.037298,N,11713.455396,W,60.4,18.4,020210,,,A*79
$GPRMC,024356.9,A,3254.096036,N,11713.439015,W,59.3,13.1,020210,,,A*7B
$GPRMC,024359.9,A,3254.148180,N,11713.428392,W,62.0,7.3,020210,,,A*4A
$GPRMC,024402.2,A,3254.189038,N,11713.426931,W,62.9,1.9,020210,,,A*4F
$GPRMC,024405.2,A,3254.243611,N,11713.432355,W,64.5,355.4,020210,,,A*48
$GPRMC,024408.2,A,3254.297787,N,11713.442654,W,64.2,349.7,020210,,,A*48
$GPRMC,024412.2,A,3254.366339,N,11713.467498,W,64.5,340.4,020210,,,A*45
$GPRMC,024415.2,A,3254.415668,N,11713.491515,W,63.5,335.5,020210,,,A*49
$GPRMC,024418.2,A,3254.462018,N,11713.520485,W,62.2,332.1,020210,,,A*43
$GPRMC,024421.2,A,3254.503911,N,11713.554603,W,61.5,326.0,020210,,,A*40
$GPRMC,024424.2,A,3254.542917,N,11713.590403,W,60.7,324.8,020210,,,A*45
$GPRMC,024427.2,A,3254.586270,N,11713.623442,W,60.0,329.4,020210,,,A*4C
$GPRMC,024430.9,A,3254.638316,N,11713.655815,W,59.1,333.7,020210,,,A*4A
$GPRMC,024433.9,A,3254.683571,N,11713.683238,W,58.0,334.2,020210,,,A*42
$GPRMC,024436.9,A,3254.725380,N,11713.708072,W,56.9,334.6,020210,,,A*4F
$GPRMC,024439.9,A,3254.769359,N,11713.733888,W,58.2,333.1,020210,,,A*4C
$GPRMC,024442.9,A,3254.811841,N,11713.757576,W,59.3,333.3,020210,,,A*4E
$GPRMC,024445.9,A,3254.856796,N,11713.787118,W,60.4,330.0,020210,,,A*43
$GPRMC,024448.9,A,3254.898396,N,11713.821313,W,60.2,324.3,020210,,,A*42
$GPRMC,024451.9,A,3254.938558,N,11713.859747,W,60.6,319.5,020210,,,A*43
$GPRMC,024454.9,A,3254.975901,N,11713.902190,W,61.2,314.1,020210,,,A*40
$GPRMC,024457.9,A,3255.004357,N,11713.949855,W,59.7,307.5,020210,,,A*43
$GPRMC,024500.9,A,3255.034610,N,11713.995092,W,58.5,308.3,020210,,,A*4D
$GPRMC,024503.9,A,3255.066102,N,11714.038472,W,57.1,310.7,020210,,,A*48
$GPRMC,024506.9,A,3255.097544,N,11714.082833,W,59.1,313.1,020210,,,A*46
$GPRMC,024509.9,A,3255.132084,N,11714.122985,W,58.9,317.4,020210,,,A*41
$GPRMC,024512.9,A,3255.170767,N,11714.160545,W,58.9,320.5,020210,,,A*44
$GPRMC,024515.9,A,3255.213465,N,11714.194905,W,59.9,325.3,020210,,,A*45
$GPRMC,024518.9,A,3255.255961,N,11714.228147,W,61.9,327.3,020210,,,A*40
$GPRMC,024521.9,A,3255.300637,N,11714.258068,W,62.7,330.9,020210,,,A*4D
$GPRMC,024524.9,A,3255.350059,N,11714.285315,W,63.8,335.6,020210,,,A*4E
$GPRMC,024527.9,A,3255.399862,N,11714.310142,W,64.3,338.0,020210,,,A*42
$GPRMC,024531.2,A,3255.457573,N,11714.331624,W,64.9,343.0,020210,,,A*44
$GPRMC,024534.9,A,3255.523852,N,11714.352269,W,65.0,346.2,020210,,,A*41
$GPRMC,024537.0,A,3255.557722,N,11714.363599,W,62.1,343.7,020210,,,A*4C
$GPRMC,024540.9,A,3255.622829,N,11714.386445,W,60.7,343.4,020210,,,A*4C
$GPRMC,024543.2,A,3255.658193,N,11714.397467,W,58.3,344.0,020210,,,A*4D
$GPRMC,024546.2,A,3255.701175,N,11714.411224,W,55.0,345.0,020210,,,A*4A
$GPRMC,024549.0,A,3255.741350,N,11714.423042,W,52.9,347.0,020210,,,A*49
$GPRMC,024552.2,A,3255.784951,N,11714.433601,W,50.2,350.5,020210,,,A*49
$GPRMC,024555.2,A,3255.824813,N,11714.438291,W,48.2,354.5,020210,,,A*47
$GPRMC,024558.2,A,3255.862095,N,11714.441985,W,45.2,355.5,020210,,,A*42
$GPRMC,024601.2,A,3255.896257,N,11714.438343,W,40.7,6.9,020210,,,A*4D
$GPRMC,024604.2,A,3255.927910,N,11714.428125,W,38.6,12.3,020210,,,A*79
$GPRMC,024607.2,A,3255.950353,N,11714.421884,W,28.3,12.2,020210,,,A*79
$GPRMC,024610.2,A,3255.965421,N,11714.419660,W,19.7,4.5,020210,,,A*42
$GPRMC,024613.2,A,3255.971087,N,11714.419309,W,11.0,9.3,020210,,,A*42
$GPRMC,024616.2,A,3255.979769,N,11714.405145,W,21.6,50.7,020210,,,A*72
$GPRMC,024619.2,A,3255.987662,N,11714.385853,W,21.1,55.1,020210,,,A*73
$GPRMC,024622.2,A,3255.992043,N,11714.375944,W,7.7,53.5,020210,,,A*42
$GPRMC,024632.2,A,3255.999034,N,11714.360105,W,11.9,71.7,020210,,,A*7A
$GPRMC,024635.0,A,3256.008792,N,11714.338309,W,23.5,61.3,020210,,,A*7D
$GPRMC,024638.2,A,3256.023542,N,11714.308352,W,28.7,67.4,020210,,,A*71
$GPRMC,024641.2,A,3256.026302,N,11714.278322,W,28.6,87.4,020210,,,A*76
$GPRMC,024644.2,A,3256.020230,N,11714.252461,W,25.0,98.9,020210,,,A*75
$GPRMC,024647.2,A,3256.021594,N,11714.231691,W,18.2,76.9,020210,,,A*7A
$GPRMC,024650.2,A,3256.025018,N,11714.219500,W,10.8,67.5,020210,,,A*76
$GPRMC,024703.2,A,3256.026043,N,11714.213761,W,5.0,81.0,020210,,,A*42
$GPRMC,024706.0,A,3256.031026,N,11714.196624,W,20.9,73.4,020210,,,A*79
$GPRMC,024709.2,A,3256.045869,N,11714.164324,W,34.4,62.9,020210,,,A*79
$GPRMC,024712.2,A,3256.063788,N,11714.130608,W,39.2,56.8,020210,,,A*70
$GPRMC,024715.2,A,3256.083461,N,11714.095743,W,43.0,59.5,020210,,,A*70
$GPRMC,024718.2,A,3256.101195,N,11714.056284,W,46.9,64.4,020210,,,A*7A
$GPRMC,024721.2,A,3256.118442,N,11714.012579,W,48.1,63.9,020210,,,A*7E
$GPRMC,024724.2,A,3256.137154,N,11713.966724,W,51.2,64.3,020210,,,A*75
$GPRMC,024727.2,A,3256.156064,N,11713.916734,W,55.8,65.3,020210,,,A*7A
$GPRMC,024730.2,A,3256.177218,N,11713.864761,W,58.3,65.1,020210,,,A*76
$GPRMC,024734.2,A,3256.203296,N,11713.794843,W,57.9,64.8,020210,,,A*76
$GPRMC,024737.2,A,3256.225354,N,11713.741601,W,60.1,64.0,020210,,,A*7A
$GPRMC,024740.2,A,3256.245529,N,11713.686009,W,60.9,66.6,020210,,,A*78
$GPRMC,024743.2,A,3256.262979,N,11713.627761,W,61.9,71.2,020210,,,A*76
$GPRMC,024746.2,A,3256.278461,N,11713.569004,W,62.5,73.7,020210,,,A*79
$GPRMC,024749.2,A,3256.294037,N,11713.507617,W,63.6,72.7,020210,,,A*7C
$GPRMC,024752.2,A,3256.312342,N,11713.450226,W,61.9,66.4,020210,,,A*76
$GPRMC,024755.2,A,3256.336049,N,11713.397381,W,61.8,59.6,020210,,,A*70
$GPRMC,024758.9,A,3256.371843,N,11713.333928,W,61.4,56.3,020210,,,A*76
$GPRMC,024801.2,A,3256.395590,N,11713.296258,W,61.0,54.5,020210,,,A*75
$GPRMC,024804.9,A,3256.430685,N,11713.234059,W,62.1,59.2,020210,,,A*77
$GPRMC,024807.2,A,3256.448657,N,11713.189120,W,62.2,64.4,020210,,,A*7E
$GPRMC,024810.2,A,3256.466143,N,11713.135082,W,59.9,67.3,020210,,,A*7F
$GPRMC,024813.2,A,3256.484408,N,11713.079645,W,59.2,68.0,020210,,,A*79
$GPRMC,024817.2,A,3256.509657,N,11713.009505,W,56.9,64.6,020210,,,A*7F
$GPRMC,024820.2,A,3256.534664,N,11712.962651,W,56.1,55.9,020210,,,A*77
$GPRMC,024823.2,A,3256.565807,N,11712.919020,W,56.4,48.6,020210,,,A*71
$GPRMC,024826.2,A,3256.599726,N,11712.879426,W,57.3,45.0,020210,,,A*73
$GPRMC,024829.2,A,3256.634034,N,11712.837369,W,59.2,46.6,020210,,,A*70
$GPRMC,024832.2,A,3256.665094,N,11712.788854,W,60.4,54.7,020210,,,A*74
$GPRMC,024835.2,A,3256.688905,N,11712.738108,W,60.3,62.7,020210,,,A*78
$GPRMC,024838.0,A,3256.708818,N,11712.688015,W,60.2,65.9,020210,,,A*7C
$GPRMC,024841.2,A,3256.728893,N,11712.628184,W,60.7,67.5,020210,,,A*79
$GPRMC,024844.2,A,3256.747560,N,11712.571927,W,61.4,67.7,020210,,,A*7A
$GPRMC,024847.9,A,3256.771332,N,11712.501005,W,62.3,67.8,020210,,,A*73
$GPRMC,024850.2,A,3256.788274,N,11712.457808,W,62.1,65.4,020210,,,A*70
$GPRMC,024853.2,A,3256.811812,N,11712.402494,W,61.5,61.7,020210,,,A*7F
$GPRMC,024856.2,A,3256.838852,N,11712.349629,W,61.3,57.6,020210,,,A*7B
$GPRMC,024859.2,A,3256.867170,N,11712.300943,W,59.9,54.7,020210,,,A*7A
$GPRMC,024903.2,A,3256.902993,N,11712.236054,W,58.8,55.4,020210,,,A*7A
$GPRMC,024906.0,A,3256.928987,N,11712.192048,W,58.3,58.1,020210,,,A*73
$GPRMC,024909.9,A,3256.960510,N,11712.126574,W,57.3,61.4,020210,,,A*7E
$GPRMC,024912.2,A,3256.974480,N,11712.089039,W,56.2,65.8,020210,,,A*72
$GPRMC,024915.9,A,3256.997509,N,11712.027271,W,55.6,67.0,020210,,,A*74
$GPRMC,024918.2,A,3257.010780,N,11711.989689,W,52.8,67.5,020210,,,A*77
$GPRMC,024921.2,A,3257.025778,N,11711.941792,W,50.8,68.3,020210,,,A*78
$GPRMC,024924.2,A,3257.041622,N,11711.896142,W,49.5,67.8,020210,,,A*70
$GPRMC,024927.2,A,3257.055442,N,11711.852875,W,45.8,68.3,020210,,,A*72
$GPRMC,024930.9,A,3257.071588,N,11711.797541,W,47.8,69.8,020210,,,A*7A
$GPRMC,024933.2,A,3257.084949,N,11711.763481,W,49.1,68.3,020210,,,A*72
$GPRMC,024936.2,A,3257.100735,N,11711.718214,W,50.7,68.3,020210,,,A*77
$GPRMC,024939.2,A,3257.115945,N,11711.671758,W,51.9,68.9,020210,,,A*73
$GPRMC,024942.2,A,3257.131703,N,11711.621224,W,56.2,68.4,020210,,,A*7F
$GPRMC,024945.2,A,3257.148858,N,11711.567883,W,58.9,68.3,020210,,,A*73
$GPRMC,024949.2,A,3257.174090,N,11711.494075,W,60.5,68.3,020210,,,A*77
$GPRMC,024952.2,A,3257.195129,N,11711.437380,W,62.6,66.2,020210,,,A*7F
$GPRMC,024955.9,A,3257.226756,N,11711.368779,W,63.1,62.1,020210,,,A*78
$GPRMC,024958.2,A,3257.247519,N,11711.327792,W,61.4,58.0,020210,,,A*71
$GPRMC,025001.0,A,3257.273182,N,11711.284609,W,60.3,54.0,020210,,,A*77
$GPRMC,025004.2,A,3257.307450,N,11711.231220,W,59.8,51.7,020210,,,A*7A
$GPRMC,025007.2,A,3257.341544,N,11711.190195,W,60.0,45.5,020210,,,A*7F
$GPRMC,025010.9,A,3257.389177,N,11711.142029,W,59.7,41.1,020210,,,A*76
$GPRMC,025013.2,A,3257.421584,N,11711.114437,W,60.6,36.3,020210,,,A*72
$GPRMC,025016.9,A,3257.472963,N,11711.074886,W,59.3,32.1,020210,,,A*77
$GPRMC,025019.9,A,3257.516270,N,11711.048650,W,59.2,27.2,020210,,,A*7E
$GPRMC,025022.2,A,3257.552237,N,11711.027270,W,60.3,25.9,020210,,,A*73
$GPRMC,025025.9,A,3257.608350,N,11710.994549,W,60.8,26.0,020210,,,A*7F
$GPRMC,025028.9,A,3257.654768,N,11710.966997,W,61.4,25.8,020210,,,A*70
$GPRMC,025031.9,A,3257.698398,N,11710.941461,W,60.4,26.9,020210,,,A*71
$GPRMC,025034.9,A,3257.743974,N,11710.911867,W,62.6,29.7,020210,,,A*75
$GPRMC,025037.9,A,3257.787797,N,11710.876581,W,63.1,35.3,020210,,,A*77
$GPRMC,025040.2,A,3257.819574,N,11710.845276,W,62.7,40.2,020210,,,A*70
$GPRMC,025043.9,A,3257.867655,N,11710.792060,W,63.0,45.7,020210,,,A*77
$GPRMC,025046.2,A,3257.894165,N,11710.755978,W,63.3,48.7,020210,,,A*74
$GPRMC,025049.2,A,3257.924309,N,11710.705152,W,63.9,55.4,020210,,,A*79
$GPRMC,025052.2,A,3257.952363,N,11710.650919,W,64.2,60.2,020210,,,A*74
$GPRMC,025055.2,A,3257.974437,N,11710.594651,W,62.9,66.1,020210,,,A*71
$GPRMC,025058.2,A,3257.989922,N,11710.535941,W,62.1,72.1,020210,,,A*7F
$GPRMC,025101.9,A,3258.005119,N,11710.461465,W,63.0,77.9,020210,,,A*7D
$GPRMC,025104.9,A,3258.012858,N,11710.400987,W,61.3,81.9,020210,,,A*7C
$GPRMC,025107.2,A,3258.016910,N,11710.354216,W,61.9,85.1,020210,,,A*7E
$GPRMC,025110.9,A,3258.012532,N,11710.279145,W,60.6,94.3,020210,,,A*7C
$GPRMC,025113.2,A,3258.007998,N,11710.233603,W,58.9,96.5,020210,,,A*77
$GPRMC,025116.2,A,3257.996501,N,11710.172668,W,62.2,102.9,020210,,,A*49
$GPRMC,025119.2,A,3257.982461,N,11710.112617,W,63.1,106.9,020210,,,A*4C
$GPRMC,025122.2,A,3257.961143,N,11710.055108,W,62.9,113.6,020210,,,A*45
$GPRMC,025125.2,A,3257.937688,N,11710.001003,W,61.7,118.2,020210,,,A*48
$GPRMC,025128.2,A,3257.912266,N,11709.948950,W,59.8,119.5,020210,,,A*47
$GPRMC,025131.2,A,3257.887977,N,11709.898733,W,57.9,119.1,020210,,,A*45
$GPRMC,025134.2,A,3257.864825,N,11709.849403,W,57.4,119.0,020210,,,A*4B
$GPRMC,025138.2,A,3257.833698,N,11709.783974,W,56.6,119.0,020210,,,A*4A
$GPRMC,025141.2,A,3257.811915,N,11709.735466,W,54.7,118.5,020210,,,A*4A
$GPRMC,025144.2,A,3257.789848,N,11709.688116,W,54.3,119.2,020210,,,A*4F
$GPRMC,025147.2,A,3257.765275,N,11709.640562,W,55.0,118.9,020210,,,A*41
$GPRMC,025150.0,A,3257.746299,N,11709.595128,W,57.5,118.6,020210,,,A*4F
$GPRMC,025153.2,A,3257.717813,N,11709.539677,W,60.7,119.9,020210,,,A*41
$GPRMC,025156.2,A,3257.693181,N,11709.486028,W,61.9,119.1,020210,,,A*45
$GPRMC,025159.2,A,3257.668035,N,11709.430645,W,63.0,118.4,020210,,,A*4F
$GPRMC,025202.2,A,3257.642812,N,11709.375392,W,63.5,118.7,020210,,,A*48
$GPRMC,025205.2,A,3257.615852,N,11709.320778,W,62.9,119.6,020210,,,A*44
$GPRMC,025208.2,A,3257.589025,N,11709.269703,W,61.6,120.9,020210,,,A*4E
$GPRMC,025211.2,A,3257.558800,N,11709.220106,W,60.8,124.3,020210,,,A*4A
$GPRMC,025214.9,A,3257.522145,N,11709.163214,W,61.2,128.4,020210,,,A*45
$GPRMC,025217.2,A,3257.495579,N,11709.128538,W,60.8,131.6,020210,,,A*4C
$GPRMC,025220.2,A,3257.460504,N,11709.086142,W,60.5,134.7,020210,,,A*4D
$GPRMC,025223.2,A,3257.423251,N,11709.044160,W,62.1,136.3,020210,,,A*40
$GPRMC,025226.2,A,3257.385338,N,11709.001055,W,63.0,134.9,020210,,,A*4E
$GPRMC,025229.2,A,3257.350683,N,11708.954117,W,63.3,130.5,020210,,,A*48
$GPRMC,025232.2,A,3257.316995,N,11708.905614,W,62.1,127.4,020210,,,A*4C
$GPRMC,025235.9,A,3257.282783,N,11708.843610,W,60.5,121.6,020210,,,A*40
$GPRMC,025238.2,A,3257.264607,N,11708.802093,W,60.8,118.1,020210,,,A*4B
$GPRMC,025241.2,A,3257.246248,N,11708.748251,W,60.0,113.2,020210,,,A*47
$GPRMC,025244.2,A,3257.230445,N,11708.692746,W,60.4,110.0,020210,,,A*48
$GPRMC,025247.2,A,3257.216386,N,11708.635284,W,60.9,106.0,020210,,,A*4B
$GPRMC,025250.2,A,3257.206501,N,11708.580009,W,58.5,101.4,020210,,,A*4B
$GPRMC,025253.2,A,3257.200756,N,11708.523924,W,56.8,97.5,020210,,,A*7D
$GPRMC,025256.2,A,3257.196234,N,11708.470626,W,55.4,94.7,020210,,,A*71
$GPRMC,025259.2,A,3257.193145,N,11708.414848,W,56.0,93.1,020210,,,A*7C
$GPRMC,025302.2,A,3257.190960,N,11708.360569,W,55.8,91.9,020210,,,A*74
$GPRMC,025305.2,A,3257.190321,N,11708.304526,W,56.6,90.6,020210,,,A*76
$GPRMC,025308.2,A,3257.189199,N,11708.247729,W,58.2,90.3,020210,,,A*76
$GPRMC,025311.2,A,3257.190542,N,11708.189390,W,59.9,88.8,020210,,,A*7B
$GPRMC,025314.2,A,3257.192550,N,11708.130201,W,60.5,87.1,020210,,,A*74
$GPRMC,025317.2,A,3257.196544,N,11708.070068,W,60.6,85.8,020210,,,A*76
$GPRMC,025320.2,A,3257.201685,N,11708.008399,W,61.6,84.8,020210,,,A*73
$GPRMC,025323.2,A,3257.206113,N,11707.947294,W,62.9,84.1,020210,,,A*7B
$GPRMC,025326.2,A,3257.212947,N,11707.886692,W,63.1,82.7,020210,,,A*75
$GPRMC,025329.2,A,3257.223169,N,11707.825444,W,63.0,80.5,020210,,,A*7D
$GPRMC,025332.2,A,3257.230203,N,11707.764137,W,62.6,79.8,020210,,,A*7D
$GPRMC,025335.2,A,3257.240127,N,11707.705059,W,61.7,79.2,020210,,,A*7E
$GPRMC,025338.2,A,3257.250339,N,11707.645263,W,61.6,77.8,020210,,,A*74
$GPRMC,025341.2,A,3257.264418,N,11707.586991,W,61.3,75.6,020210,,,A*7A
$GPRMC,025344.0,A,3257.276000,N,11707.533609,W,61.2,74.7,020210,,,A*72
$GPRMC,025347.2,A,3257.288821,N,11707.469639,W,60.7,74.8,020210,,,A*7F
$GPRMC,025350.2,A,3257.304618,N,11707.411221,W,62.4,72.7,020210,,,A*72
$GPRMC,025353.2,A,3257.321594,N,11707.351932,W,63.5,70.9,020210,,,A*77
$GPRMC,025356.2,A,3257.341470,N,11707.295060,W,63.1,68.8,020210,,,A*74
$GPRMC,025359.2,A,3257.360236,N,11707.235984,W,63.3,68.8,020210,,,A*77
$GPRMC,025402.2,A,3257.382264,N,11707.177864,W,63.8,67.8,020210,,,A*7B
$GPRMC,025405.9,A,3257.406843,N,11707.105550,W,62.5,68.8,020210,,,A*7F
$GPRMC,025408.9,A,3257.428328,N,11707.048206,W,61.2,67.3,020210,,,A*74
$GPRMC,025411.9,A,3257.443164,N,11706.996296,W,58.9,69.0,020210,,,A*75
$GPRMC,025414.9,A,3257.463367,N,11706.941637,W,59.4,67.4,020210,,,A*70
$GPRMC,025417.9,A,3257.481702,N,11706.886716,W,58.8,68.3,020210,,,A*75
$GPRMC,025420.9,A,3257.497683,N,11706.831341,W,58.9,69.4,020210,,,A*73
$GPRMC,025423.9,A,3257.514477,N,11706.777329,W,58.8,69.1,020210,,,A*74
$GPRMC,025426.9,A,3257.530095,N,11706.722382,W,59.8,69.7,020210,,,A*79
$GPRMC,025429.9,A,3257.550635,N,11706.665546,W,61.4,68.1,020210,,,A*70
$GPRMC,025432.9,A,3257.572577,N,11706.608664,W,61.7,67.0,020210,,,A*7A
$GPRMC,025435.9,A,3257.589490,N,11706.553553,W,59.6,68.6,020210,,,A*78
$GPRMC,025438.9,A,3257.609675,N,11706.500236,W,59.0,67.7,020210,,,A*7D
$GPRMC,025441.9,A,3257.630721,N,11706.443945,W,60.6,67.0,020210,,,A*7B
$GPRMC,025444.9,A,3257.646928,N,11706.390354,W,57.8,68.5,020210,,,A*7B
$GPRMC,025447.9,A,3257.660991,N,11706.336310,W,58.1,69.3,020210,,,A*73
$GPRMC,025450.9,A,3257.676250,N,11706.284728,W,54.8,69.8,020210,,,A*7D
$GPRMC,025453.9,A,3257.694246,N,11706.234925,W,53.5,67.7,020210,,,A*76
$GPRMC,025456.9,A,3257.709772,N,11706.189916,W,51.0,67.2,020210,,,A*73
$GPRMC,025500.2,A,3257.727257,N,11706.138295,W,50.1,67.6,020210,,,A*7A
$GPRMC,025503.9,A,3257.745812,N,11706.082329,W,49.4,68.1,020210,,,A*7E
$GPRMC,025506.2,A,3257.760977,N,11706.046868,W,49.5,63.8,020210,,,A*70
$GPRMC,025509.9,A,3257.787309,N,11705.994359,W,49.1,62.4,020210,,,A*7B
$GPRMC,025512.2,A,3257.801226,N,11705.961201,W,47.9,62.8,020210,,,A*7B
$GPRMC,025515.9,A,3257.822417,N,11705.909198,W,46.6,64.8,020210,,,A*77
$GPRMC,025518.9,A,3257.838823,N,11705.872029,W,42.2,63.2,020210,,,A*71
$GPRMC,025522.2,A,3257.855394,N,11705.835415,W,37.1,63.2,020210,,,A*76
$GPRMC,025525.2,A,3257.866988,N,11705.804707,W,35.2,65.1,020210,,,A*70
$GPRMC,025528.2,A,3257.868231,N,11705.769232,W,35.8,77.9,020210,,,A*7C
$GPRMC,025531.2,A,3257.872642,N,11705.735956,W,33.5,81.4,020210,,,A*70
$GPRMC,025534.2,A,3257.872836,N,11705.705852,W,26.5,83.5,020210,,,A*79
$GPRMC,025537.2,A,3257.874680,N,11705.687361,W,17.5,84.1,020210,,,A*7E
$GPRMC,025540.2,A,3257.875134,N,11705.673168,W,14.3,85.4,020210,,,A*76
$GPRMC,025543.2,A,3257.873667,N,11705.659968,W,13.2,109.9,020210,,,A*4C
$GPRMC,025546.9,A,3257.856424,N,11705.651886,W,18.8,158.3,020210,,,A*46
$GPRMC,025549.2,A,3257.843225,N,11705.653133,W,18.7,188.8,020210,,,A*4D
$GPRMC,025552.2,A,3257.828683,N,11705.670232,W,22.2,232.2,020210,,,A*45
$GPRMC,025555.2,A,3257.826829,N,11705.694933,W,17.9,258.6,020210,,,A*47
$GPRMC,025559.2,A,3257.850651,N,11705.719091,W,16.2,308.4,020210,,,A*42
$GPRMC,025602.2,A,3257.860565,N,11705.723314,W,12.0,332.8,020210,,,A*4C
$GPRMC,025605.2,A,3257.895870,N,11705.694425,W,28.7,22.8,020210,,,A*7C
$GPRMC,025608.2,A,3257.935977,N,11705.666039,W,40.2,28.1,020210,,,A*70
$GPRMC,025611.2,A,3257.971126,N,11705.643007,W,40.4,27.6,020210,,,A*70
$GPRMC,025614.2,A,3258.004586,N,11705.621601,W,41.1,27.6,020210,,,A*7F
$GPRMC,025617.2,A,3258.039553,N,11705.599545,W,44.6,26.0,020210,,,A*7C
$GPRMC,025620.2,A,3258.075780,N,11705.577372,W,47.8,27.6,020210,,,A*74
$GPRMC,025623.2,A,3258.116078,N,11705.552599,W,51.5,27.4,020210,,,A*7F
$GPRMC,025626.2,A,3258.155407,N,11705.528178,W,53.3,27.5,020210,,,A*72
$GPRMC,025629.2,A,3258.196743,N,11705.502664,W,54.7,27.9,020210,,,A*7C
$GPRMC,025632.2,A,3258.241242,N,11705.474481,W,58.0,27.7,020210,,,A*77
$GPRMC,025635.2,A,3258.286342,N,11705.447011,W,59.3,27.8,020210,,,A*7A
$GPRMC,025638.2,A,3258.330915,N,11705.418626,W,60.1,27.9,020210,,,A*72
$GPRMC,025641.2,A,3258.377521,N,11705.389455,W,61.9,26.8,020210,,,A*74
$GPRMC,025644.2,A,3258.424977,N,11705.361159,W,63.4,27.3,020210,,,A*75
$GPRMC,025647.2,A,3258.471633,N,11705.331573,W,62.5,27.9,020210,,,A*7A
$GPRMC,025650.2,A,3258.517667,N,11705.302773,W,61.9,27.9,020210,,,A*71
$GPRMC,025654.2,A,3258.580020,N,11705.263077,W,61.2,27.2,020210,,,A*7B
$GPRMC,025657.2,A,3258.623134,N,11705.235656,W,60.5,28.1,020210,,,A*7A
$GPRMC,025700.2,A,3258.667132,N,11705.207919,W,60.4,27.8,020210,,,A*7D
$GPRMC,025703.2,A,3258.711976,N,11705.179796,W,61.2,28.1,020210,,,A*74
$GPRMC,025706.2,A,3258.757111,N,11705.150812,W,61.3,28.1,020210,,,A*73
$GPRMC,025709.2,A,3258.803979,N,11705.121915,W,61.6,27.3,020210,,,A*7C
$GPRMC,025712.2,A,3258.849923,N,11705.092958,W,62.4,28.1,020210,,,A*7B
$GPRMC,025715.2,A,3258.895823,N,11705.063173,W,62.3,28.6,020210,,,A*73
$GPRMC,025718.2,A,3258.939444,N,11705.036239,W,60.9,27.3,020210,,,A*7B
$GPRMC,025721.2,A,3258.983333,N,11705.011683,W,60.7,23.8,020210,,,A*76
$GPRMC,025724.2,A,3259.029810,N,11704.990914,W,60.2,19.4,020210,,,A*71
$GPRMC,025727.2,A,3259.077566,N,11704.974600,W,61.3,15.6,020210,,,A*7B
$GPRMC,025730.2,A,3259.127482,N,11704.960983,W,60.8,11.7,020210,,,A*7C
$GPRMC,025733.2,A,3259.177590,N,11704.951723,W,61.2,7.5,020210,,,A*40
$GPRMC,025736.2,A,3259.230178,N,11704.947567,W,62.7,3.2,020210,,,A*47
$GPRMC,025739.2,A,3259.283635,N,11704.948583,W,63.6,358.8,020210,,,A*4C
$GPRMC,025742.9,A,3259.347622,N,11704.955570,W,63.5,354.4,020210,,,A*47
$GPRMC,025745.9,A,3259.399264,N,11704.966517,W,64.9,349.7,020210,,,A*40
$GPRMC,025748.9,A,3259.450965,N,11704.978048,W,64.3,349.8,020210,,,A*40
$GPRMC,025751.9,A,3259.504379,N,11704.994080,W,66.1,349.3,020210,,,A*42
$GPRMC,025755.2,A,3259.565653,N,11705.002928,W,65.6,352.6,020210,,,A*40
$GPRMC,025758.2,A,3259.621362,N,11705.008038,W,66.5,356.1,020210,,,A*48
$GPRMC,025801.2,A,3259.677049,N,11705.009149,W,66.3,359.9,020210,,,A*45
$GPRMC,025804.2,A,3259.732809,N,11705.005714,W,65.4,3.6,020210,,,A*49
$GPRMC,025807.2,A,3259.786380,N,11704.999145,W,64.6,6.6,020210,,,A*46
$GPRMC,025810.2,A,3259.839795,N,11704.989572,W,64.3,10.0,020210,,,A*7E
$GPRMC,025813.9,A,3259.900224,N,11704.972276,W,61.3,16.1,020210,,,A*77
$GPRMC,025816.9,A,3259.948379,N,11704.954853,W,59.8,17.6,020210,,,A*78
$GPRMC,025819.9,A,3300.002192,N,11704.934770,W,63.6,17.1,020210,,,A*72
$GPRMC,025822.9,A,3300.051717,N,11704.916087,W,61.2,17.5,020210,,,A*7A
$GPRMC,025825.9,A,3300.100934,N,11704.896834,W,62.4,17.6,020210,,,A*78
$GPRMC,025828.9,A,3300.151396,N,11704.878906,W,62.9,15.8,020210,,,A*72
$GPRMC,025831.2,A,3300.190621,N,11704.866710,W,63.4,15.4,020210,,,A*73
$GPRMC,025834.2,A,3300.242834,N,11704.850101,W,63.6,14.7,020210,,,A*73
$GPRMC,025837.2,A,3300.293566,N,11704.835408,W,63.5,12.9,020210,,,A*72
$GPRMC,025840.2,A,3300.346885,N,11704.823085,W,65.0,10.7,020210,,,A*72
$GPRMC,025843.2,A,3300.400528,N,11704.812615,W,65.6,8.7,020210,,,A*4C
$GPRMC,025846.2,A,3300.454522,N,11704.804545,W,64.6,6.4,020210,,,A*4F
$GPRMC,025849.2,A,3300.507919,N,11704.799595,W,63.9,5.3,020210,,,A*49
$GPRMC,025852.2,A,3300.557959,N,11704.793926,W,60.7,5.1,020210,,,A*43
$GPRMC,025855.2,A,3300.608903,N,11704.789353,W,62.0,4.8,020210,,,A*4C
$GPRMC,025858.2,A,3300.661716,N,11704.784214,W,62.7,4.3,020210,,,A*47
$GPRMC,025901.2,A,3300.713723,N,11704.778884,W,63.3,4.8,020210,,,A*46
$GPRMC,025904.2,A,3300.767687,N,11704.772408,W,64.1,5.2,020210,,,A*43
$GPRMC,025907.2,A,3300.823141,N,11704.765132,W,65.0,5.9,020210,,,A*43
$GPRMC,025910.2,A,3300.875636,N,11704.759246,W,64.2,5.2,020210,,,A*46
$GPRMC,025913.2,A,3300.929907,N,11704.752943,W,64.4,5.0,020210,,,A*41
$GPRMC,025916.2,A,3300.983396,N,11704.746242,W,64.0,5.2,020210,,,A*4F
$GPRMC,025919.2,A,3301.035595,N,11704.739665,W,63.1,5.7,020210,,,A*4A
$GPRMC,025922.2,A,3301.087039,N,11704.733276,W,62.5,6.2,020210,,,A*47
$GPRMC,025925.2,A,3301.137561,N,11704.727227,W,61.1,5.7,020210,,,A*42
$GPRMC,025928.2,A,3301.184353,N,11704.724295,W,58.3,5.3,020210,,,A*46
$GPRMC,025931.2,A,3301.230030,N,11704.721191,W,57.3,5.2,020210,,,A*48
$GPRMC,025934.2,A,3301.276925,N,11704.719213,W,57.6,3.6,020210,,,A*47
$GPRMC,025937.2,A,3301.324814,N,11704.719516,W,58.8,0.4,020210,,,A*43
$GPRMC,025940.2,A,3301.373605,N,11704.721327,W,59.6,358.9,020210,,,A*4C
$GPRMC,025943.2,A,3301.424617,N,11704.722313,W,60.6,359.2,020210,,,A*4D
$GPRMC,025946.2,A,3301.472544,N,11704.724337,W,59.4,358.9,020210,,,A*4C
$GPRMC,025949.2,A,3301.524806,N,11704.725248,W,61.0,359.0,020210,,,A*45
$GPRMC,025952.2,A,3301.576514,N,11704.725917,W,61.2,359.4,020210,,,A*41
$GPRMC,025955.2,A,3301.630027,N,11704.723255,W,62.9,0.6,020210,,,A*4C
$GPRMC,025958.2,A,3301.685541,N,11704.720775,W,64.4,0.9,020210,,,A*4A
$GPRMC,030001.2,A,3301.740970,N,11704.718330,W,64.6,2.9,020210,,,A*43
$GPRMC,030004.2,A,3301.803811,N,11704.704610,W,64.9,6.4,020210,,,A*44
$GPRMC,030007.2,A,3301.856430,N,11704.696335,W,63.8,9.5,020210,,,A*48
$GPRMC,030010.2,A,3301.910488,N,11704.683087,W,64.4,11.8,020210,,,A*7F
$GPRMC,030013.2,A,3301.962594,N,11704.667188,W,64.5,15.4,020210,,,A*78
$GPRMC,030016.2,A,3302.011694,N,11704.648018,W,63.6,16.8,020210,,,A*7E
$GPRMC,030019.2,A,3302.060582,N,11704.627252,W,61.8,18.4,020210,,,A*78
$GPRMC,030022.2,A,3302.117269,N,11704.601111,W,63.3,18.4,020210,,,A*7A
$GPRMC,030025.2,A,3302.168354,N,11704.579645,W,64.2,18.4,020210,,,A*76
$GPRMC,030028.2,A,3302.222885,N,11704.555997,W,65.4,19.0,020210,,,A*7D
$GPRMC,030031.9,A,3302.287090,N,11704.529908,W,66.5,20.1,020210,,,A*79
$GPRMC,030034.2,A,3302.328563,N,11704.512545,W,67.5,19.9,020210,,,A*74
$GPRMC,030037.0,A,3302.373084,N,11704.494345,W,63.9,19.3,020210,,,A*7C
$GPRMC,030041.2,A,3302.445188,N,11704.466816,W,63.5,18.3,020210,,,A*7D
$GPRMC,030044.0,A,3302.492688,N,11704.446878,W,65.7,18.7,020210,,,A*7D
$GPRMC,030047.9,A,3302.561375,N,11704.419976,W,66.5,17.9,020210,,,A*78
$GPRMC,030050.2,A,3302.601844,N,11704.403926,W,66.1,18.3,020210,,,A*76
$GPRMC,030053.2,A,3302.654976,N,11704.384439,W,64.7,14.4,020210,,,A*71
$GPRMC,030056.9,A,3302.720089,N,11704.367477,W,64.7,11.1,020210,,,A*73
$GPRMC,030059.9,A,3302.774312,N,11704.360191,W,65.8,6.1,020210,,,A*4E
$GPRMC,030102.9,A,3302.829835,N,11704.361792,W,66.7,359.6,020210,,,A*4E
$GPRMC,030105.9,A,3302.887089,N,11704.367867,W,67.4,355.0,020210,,,A*49
$GPRMC,030108.9,A,3302.939216,N,11704.371994,W,63.8,356.5,020210,,,A*40
$GPRMC,030111.9,A,3302.992993,N,11704.372328,W,63.8,359.8,020210,,,A*43
$GPRMC,030114.9,A,3303.045987,N,11704.368386,W,63.5,3.0,020210,,,A*47
$GPRMC,030117.9,A,3303.100399,N,11704.362800,W,64.1,6.5,020210,,,A*4D
$GPRMC,030120.9,A,3303.156603,N,11704.352341,W,65.6,8.7,020210,,,A*4B
$GPRMC,030124.2,A,3303.217095,N,11704.337229,W,66.7,12.5,020210,,,A*7C
$GPRMC,030127.2,A,3303.269006,N,11704.319561,W,66.4,17.5,020210,,,A*7D
$GPRMC,030130.2,A,3303.320349,N,11704.299928,W,65.5,18.8,020210,,,A*77
$GPRMC,030133.2,A,3303.371563,N,11704.275722,W,65.7,21.5,020210,,,A*7D
$GPRMC,030136.2,A,3303.421109,N,11704.250811,W,65.1,22.1,020210,,,A*7B
$GPRMC,030139.2,A,3303.471350,N,11704.225426,W,65.7,21.8,020210,,,A*79
$GPRMC,030142.2,A,3303.522302,N,11704.200691,W,64.5,20.2,020210,,,A*74
$GPRMC,030145.2,A,3303.572331,N,11704.181294,W,62.4,17.6,020210,,,A*7A
$GPRMC,030148.9,A,3303.633637,N,11704.161610,W,62.6,14.3,020210,,,A*7B
$GPRMC,030152.2,A,3303.689932,N,11704.149423,W,62.3,9.8,020210,,,A*4A
$GPRMC,030155.9,A,3303.749892,N,11704.140169,W,59.9,7.3,020210,,,A*45
$GPRMC,030158.9,A,3303.801731,N,11704.131871,W,61.6,5.5,020210,,,A*4B
$GPRMC,030201.9,A,3303.852727,N,11704.132708,W,61.5,1.0,020210,,,A*45
$GPRMC,030204.2,A,3303.894337,N,11704.131361,W,61.3,359.9,020210,,,A*4D
$GPRMC,030207.2,A,3303.945884,N,11704.131320,W,61.3,357.7,020210,,,A*45
$GPRMC,030210.2,A,3303.996996,N,11704.136079,W,61.4,354.3,020210,,,A*47
$GPRMC,030213.2,A,3304.048737,N,11704.143118,W,63.2,353.1,020210,,,A*49
$GPRMC,030216.9,A,3304.112847,N,11704.151872,W,62.8,353.8,020210,,,A*45
$GPRMC,030220.2,A,3304.170083,N,11704.159426,W,61.4,353.3,020210,,,A*4E
$GPRMC,030223.9,A,3304.230483,N,11704.171156,W,60.0,352.2,020210,,,A*48
$GPRMC,030226.9,A,3304.284534,N,11704.175192,W,62.2,353.5,020210,,,A*45
$GPRMC,030229.9,A,3304.334953,N,11704.182603,W,63.3,353.4,020210,,,A*4B
$GPRMC,030233.2,A,3304.392905,N,11704.192592,W,63.7,353.0,020210,,,A*4E
$GPRMC,030236.9,A,3304.457992,N,11704.202054,W,62.4,353.4,020210,,,A*43
$GPRMC,030239.9,A,3304.513556,N,11704.208271,W,64.1,352.4,020210,,,A*44
$GPRMC,030242.9,A,3304.564790,N,11704.217964,W,63.6,350.0,020210,,,A*47
$GPRMC,030245.9,A,3304.615775,N,11704.230501,W,63.0,347.6,020210,,,A*42
$GPRMC,030248.9,A,3304.667256,N,11704.245726,W,63.7,344.4,020210,,,A*4D
$GPRMC,030251.9,A,3304.712686,N,11704.267048,W,61.5,340.1,020210,,,A*41
$GPRMC,030254.9,A,3304.761446,N,11704.289896,W,62.1,339.9,020210,,,A*44
$GPRMC,030257.9,A,3304.810843,N,11704.309858,W,62.2,339.8,020210,,,A*4E
$GPRMC,030300.9,A,3304.860258,N,11704.336633,W,63.7,336.7,020210,,,A*41
$GPRMC,030303.9,A,3304.905804,N,11704.362825,W,62.4,334.8,020210,,,A*44
$GPRMC,030306.9,A,3304.950874,N,11704.392688,W,61.9,332.6,020210,,,A*46
$GPRMC,030309.9,A,3304.998003,N,11704.423751,W,63.1,331.2,020210,,,A*40
$GPRMC,030312.9,A,3305.040354,N,11704.455067,W,61.6,329.2,020210,,,A*49
$GPRMC,030315.9,A,3305.085005,N,11704.488968,W,62.1,326.4,020210,,,A*4B
$GPRMC,030318.9,A,3305.127928,N,11704.523199,W,61.8,325.4,020210,,,A*46
$GPRMC,030321.9,A,3305.166625,N,11704.556262,W,59.3,323.1,020210,,,A*4D
$GPRMC,030324.9,A,3305.206412,N,11704.590402,W,60.7,322.7,020210,,,A*48
$GPRMC,030327.2,A,3305.239509,N,11704.622474,W,63.8,319.7,020210,,,A*48
$GPRMC,030330.9,A,3305.287959,N,11704.676195,W,64.1,318.3,020210,,,A*49
$GPRMC,030333.9,A,3305.330692,N,11704.721783,W,67.2,318.9,020210,,,A*47
$GPRMC,030336.9,A,3305.373447,N,11704.763509,W,66.3,318.5,020210,,,A*45
$GPRMC,030339.9,A,3305.416517,N,11704.810565,W,67.1,318.1,020210,,,A*4C
$GPRMC,030342.2,A,3305.445885,N,11704.843968,W,65.6,316.6,020210,,,A*40
$GPRMC,030345.2,A,3305.487213,N,11704.886911,W,66.5,318.0,020210,,,A*43
$GPRMC,030348.9,A,3305.535110,N,11704.941293,W,64.9,317.2,020210,,,A*45
$GPRMC,030352.2,A,3305.578802,N,11704.989736,W,65.6,317.7,020210,,,A*43
$GPRMC,030355.9,A,3305.625625,N,11705.041494,W,63.4,317.6,020210,,,A*4D
$GPRMC,030358.9,A,3305.665998,N,11705.085943,W,65.9,317.6,020210,,,A*49
$GPRMC,030401.9,A,3305.707953,N,11705.130020,W,66.2,317.8,020210,,,A*45
$GPRMC,030404.9,A,3305.750303,N,11705.173523,W,66.5,318.5,020210,,,A*49
$GPRMC,030408.2,A,3305.799973,N,11705.218976,W,67.7,320.9,020210,,,A*40
$GPRMC,030411.9,A,3305.851798,N,11705.268894,W,64.2,321.5,020210,,,A*42
$GPRMC,030414.2,A,3305.888249,N,11705.299262,W,65.5,324.5,020210,,,A*4F
$GPRMC,030417.9,A,3305.940632,N,11705.346637,W,62.7,324.4,020210,,,A*49
$GPRMC,030420.9,A,3305.981124,N,11705.378171,W,59.0,327.0,020210,,,A*40
$GPRMC,030423.9,A,3306.027005,N,11705.408551,W,61.7,329.5,020210,,,A*46
$GPRMC,030426.9,A,3306.072842,N,11705.435464,W,62.4,332.2,020210,,,A*4C
$GPRMC,030429.9,A,3306.116993,N,11705.461543,W,62.1,334.4,020210,,,A*4D
$GPRMC,030432.9,A,3306.165391,N,11705.489696,W,63.3,333.3,020210,,,A*45
$GPRMC,030435.9,A,3306.215721,N,11705.519527,W,63.7,333.6,020210,,,A*49
$GPRMC,030438.9,A,3306.263031,N,11705.545650,W,61.3,334.6,020210,,,A*48
$GPRMC,030441.9,A,3306.309638,N,11705.573696,W,60.5,333.8,020210,,,A*45
$GPRMC,030444.9,A,3306.353364,N,11705.597897,W,59.7,335.0,020210,,,A*40
$GPRMC,030447.9,A,3306.398840,N,11705.625084,W,61.0,334.4,020210,,,A*40
$GPRMC,030450.9,A,3306.445902,N,11705.651266,W,60.6,335.1,020210,,,A*48
$GPRMC,030453.9,A,3306.491060,N,11705.680018,W,61.3,333.2,020210,,,A*49
$GPRMC,030456.9,A,3306.537980,N,11705.705984,W,61.5,334.4,020210,,,A*41
$GPRMC,030459.9,A,3306.585329,N,11705.734786,W,62.6,334.1,020210,,,A*45
$GPRMC,030502.9,A,3306.634893,N,11705.761159,W,64.2,335.1,020210,,,A*4E
$GPRMC,030505.9,A,3306.683212,N,11705.789004,W,64.1,333.4,020210,,,A*49
$GPRMC,030508.9,A,3306.732742,N,11705.816919,W,66.1,333.7,020210,,,A*42
$GPRMC,030511.9,A,3306.783039,N,11705.847765,W,68.1,332.8,020210,,,A*4A
$GPRMC,030514.9,A,3306.835514,N,11705.878117,W,68.3,333.3,020210,,,A*40
$GPRMC,030517.9,A,3306.886461,N,11705.908996,W,67.4,333.3,020210,,,A*47
$GPRMC,030520.9,A,3306.933972,N,11705.939025,W,65.8,333.4,020210,,,A*49
$GPRMC,030523.9,A,3306.982989,N,11705.965917,W,65.5,334.2,020210,,,A*49
$GPRMC,030526.9,A,3307.031447,N,11705.990793,W,64.4,334.5,020210,,,A*4C
$GPRMC,030529.9,A,3307.081613,N,11706.020978,W,65.4,333.7,020210,,,A*45
$GPRMC,030532.9,A,3307.130737,N,11706.050037,W,64.7,333.5,020210,,,A*46
$GPRMC,030535.9,A,3307.176342,N,11706.076806,W,63.4,334.3,020210,,,A*4E
$GPRMC,030538.9,A,3307.221821,N,11706.104203,W,62.7,333.7,020210,,,A*46
$GPRMC,030541.9,A,3307.270152,N,11706.134744,W,64.5,333.0,020210,,,A*47
$GPRMC,030544.9,A,3307.318329,N,11706.162415,W,65.1,334.1,020210,,,A*44
$GPRMC,030547.9,A,3307.370547,N,11706.190336,W,67.2,336.1,020210,,,A*4F
$GPRMC,030550.9,A,3307.420636,N,11706.214694,W,66.7,337.9,020210,,,A*41
$GPRMC,030553.9,A,3307.473941,N,11706.237614,W,67.9,341.1,020210,,,A*44
$GPRMC,030556.9,A,3307.529957,N,11706.256202,W,69.1,343.5,020210,,,A*4C
$GPRMC,030559.9,A,3307.588018,N,11706.274470,W,71.1,347.0,020210,,,A*41
$GPRMC,030602.2,A,3307.630496,N,11706.283636,W,69.3,349.7,020210,,,A*4F
$GPRMC,030605.9,A,3307.698418,N,11706.297234,W,68.4,350.3,020210,,,A*4E
$GPRMC,030608.9,A,3307.754519,N,11706.303481,W,68.4,353.7,020210,,,A*41
$GPRMC,030611.9,A,3307.813161,N,11706.307280,W,70.6,356.7,020210,,,A*43
$GPRMC,030614.9,A,3307.873677,N,11706.308038,W,71.8,0.6,020210,,,A*40
$GPRMC,030617.9,A,3307.931481,N,11706.307179,W,70.3,1.6,020210,,,A*4F
$GPRMC,030620.0,A,3307.972892,N,11706.304890,W,70.0,2.3,020210,,,A*43
$GPRMC,030624.2,A,3308.052149,N,11706.303293,W,65.3,1.3,020210,,,A*44
$GPRMC,030627.9,A,3308.116034,N,11706.300794,W,62.1,1.6,020210,,,A*47
$GPRMC,030630.9,A,3308.166006,N,11706.297073,W,59.4,2.3,020210,,,A*4D
$GPRMC,030633.9,A,3308.214584,N,11706.294001,W,59.0,2.8,020210,,,A*4E
$GPRMC,030636.9,A,3308.262569,N,11706.288143,W,59.1,3.6,020210,,,A*4D
$GPRMC,030639.9,A,3308.310408,N,11706.286845,W,58.8,2.5,020210,,,A*4B
$GPRMC,030642.9,A,3308.360657,N,11706.286098,W,60.1,2.0,020210,,,A*47
$GPRMC,030645.9,A,3308.412679,N,11706.280963,W,61.2,3.0,020210,,,A*46
$GPRMC,030648.9,A,3308.463332,N,11706.282521,W,60.2,1.8,020210,,,A*44
$GPRMC,030651.9,A,3308.512680,N,11706.278909,W,59.9,3.4,020210,,,A*4B
$GPRMC,030654.9,A,3308.561554,N,11706.275053,W,60.2,3.5,020210,,,A*4B
$GPRMC,030657.9,A,3308.613684,N,11706.272060,W,61.7,2.5,020210,,,A*42
$GPRMC,030700.9,A,3308.668280,N,11706.268303,W,64.1,2.6,020210,,,A*40
$GPRMC,030703.9,A,3308.719201,N,11706.266348,W,63.6,2.1,020210,,,A*4B
$GPRMC,030706.9,A,3308.770862,N,11706.262318,W,63.4,2.5,020210,,,A*49
$GPRMC,030709.9,A,3308.822685,N,11706.262131,W,62.5,2.7,020210,,,A*42
$GPRMC,030712.9,A,3308.874767,N,11706.257481,W,62.2,2.8,020210,,,A*46
$GPRMC,030715.9,A,3308.926021,N,11706.253717,W,61.7,3.1,020210,,,A*44
$GPRMC,030718.9,A,3308.978543,N,11706.250815,W,62.5,2.1,020210,,,A*4D
$GPRMC,030721.9,A,3309.027967,N,11706.247857,W,60.5,2.2,020210,,,A*4E
$GPRMC,030724.9,A,3309.080020,N,11706.245971,W,61.5,2.6,020210,,,A*4E
$GPRMC,030727.9,A,3309.131095,N,11706.243082,W,61.2,2.7,020210,,,A*4D
$GPRMC,030730.9,A,3309.181195,N,11706.240416,W,61.7,2.9,020210,,,A*40
$GPRMC,030733.9,A,3309.231599,N,11706.238498,W,61.0,2.7,020210,,,A*43
$GPRMC,030736.9,A,3309.285234,N,11706.238545,W,60.9,0.3,020210,,,A*46
$GPRMC,030739.9,A,3309.332188,N,11706.237604,W,58.3,359.7,020210,,,A*43
$GPRMC,030742.9,A,3309.380604,N,11706.239222,W,59.3,357.4,020210,,,A*47
$GPRMC,030745.9,A,3309.430521,N,11706.245853,W,59.5,354.0,020210,,,A*4E
$GPRMC,030748.9,A,3309.479706,N,11706.252365,W,60.1,352.9,020210,,,A*40
$GPRMC,030751.9,A,3309.530254,N,11706.263303,W,61.8,349.4,020210,,,A*4B
$GPRMC,030754.9,A,3309.579066,N,11706.276466,W,60.4,347.6,020210,,,A*41
$GPRMC,030757.9,A,3309.626009,N,11706.292175,W,59.2,345.1,020210,,,A*46
$GPRMC,030800.9,A,3309.677395,N,11706.306559,W,59.8,344.2,020210,,,A*47
$GPRMC,030803.9,A,3309.724252,N,11706.324102,W,58.9,341.0,020210,,,A*44
$GPRMC,030806.9,A,3309.770956,N,11706.343726,W,59.4,339.2,020210,,,A*4F
$GPRMC,030809.9,A,3309.819186,N,11706.367495,W,61.5,336.8,020210,,,A*47
$GPRMC,030812.9,A,3309.863372,N,11706.394968,W,61.5,334.5,020210,,,A*45
$GPRMC,030815.9,A,3309.910048,N,11706.424321,W,64.7,333.7,020210,,,A*44
$GPRMC,030818.9,A,3309.958478,N,11706.451526,W,64.4,334.1,020210,,,A*43
$GPRMC,030821.9,A,3310.008588,N,11706.481038,W,65.0,333.9,020210,,,A*4E
$GPRMC,030824.9,A,3310.058946,N,11706.508594,W,63.9,334.8,020210,,,A*4A
$GPRMC,030827.9,A,3310.106126,N,11706.535629,W,64.3,333.6,020210,,,A*42
$GPRMC,030830.9,A,3310.153463,N,11706.562885,W,63.8,334.1,020210,,,A*46
$GPRMC,030833.9,A,3310.201788,N,11706.590676,W,64.2,334.1,020210,,,A*45
$GPRMC,030836.9,A,3310.249648,N,11706.619630,W,63.5,333.9,020210,,,A*4E
$GPRMC,030839.9,A,3310.297166,N,11706.646486,W,62.9,334.1,020210,,,A*4E
$GPRMC,030842.9,A,3310.343221,N,11706.673442,W,61.3,333.8,020210,,,A*43
$GPRMC,030845.9,A,3310.388992,N,11706.701920,W,61.8,332.8,020210,,,A*47
$GPRMC,030848.9,A,3310.435953,N,11706.729363,W,62.4,333.2,020210,,,A*45
$GPRMC,030851.9,A,3310.482129,N,11706.755522,W,61.6,334.1,020210,,,A*49
$GPRMC,030854.9,A,3310.528193,N,11706.778262,W,60.3,335.2,020210,,,A*46
$GPRMC,030857.9,A,3310.574337,N,11706.807378,W,61.6,333.4,020210,,,A*49
$GPRMC,030900.9,A,3310.620612,N,11706.834067,W,60.4,334.4,020210,,,A*43
$GPRMC,030903.9,A,3310.666297,N,11706.858463,W,59.3,334.8,020210,,,A*40
$GPRMC,030906.9,A,3310.708360,N,11706.884941,W,58.0,333.4,020210,,,A*40
$GPRMC,030909.9,A,3310.752743,N,11706.908627,W,58.0,334.7,020210,,,A*4B
$GPRMC,030912.9,A,3310.793431,N,11706.932979,W,55.9,335.0,020210,,,A*45
$GPRMC,030915.9,A,3310.838725,N,11706.958073,W,58.5,334.3,020210,,,A*46
$GPRMC,030918.9,A,3310.882819,N,11706.985113,W,58.6,334.3,020210,,,A*4E
$GPRMC,030921.9,A,3310.927416,N,11707.009638,W,59.2,334.6,020210,,,A*4B
$GPRMC,030924.9,A,3310.972369,N,11707.036513,W,60.1,334.8,020210,,,A*40
$GPRMC,030927.9,A,3311.017862,N,11707.057753,W,60.2,336.2,020210,,,A*42
$GPRMC,030930.9,A,3311.063431,N,11707.085849,W,62.5,334.0,020210,,,A*43
$GPRMC,030933.9,A,3311.112724,N,11707.112128,W,63.6,335.5,020210,,,A*47
$GPRMC,030936.9,A,3311.163478,N,11707.143761,W,66.9,333.7,020210,,,A*4F
$GPRMC,030939.9,A,3311.213315,N,11707.173745,W,67.4,333.6,020210,,,A*40
$GPRMC,030942.9,A,3311.264794,N,11707.204471,W,66.9,334.2,020210,,,A*49
$GPRMC,030945.9,A,3311.312038,N,11707.231308,W,64.1,334.9,020210,,,A*41
$GPRMC,030948.9,A,3311.360729,N,11707.258545,W,64.8,334.6,020210,,,A*48
$GPRMC,030951.9,A,3311.409978,N,11707.288494,W,65.3,333.8,020210,,,A*41
$GPRMC,030954.9,A,3311.453651,N,11707.313934,W,62.1,334.2,020210,,,A*43
$GPRMC,030957.9,A,3311.501923,N,11707.342873,W,63.2,333.5,020210,,,A*48
$GPRMC,031000.9,A,3311.549420,N,11707.370428,W,62.6,334.9,020210,,,A*4D
$GPRMC,031003.9,A,3311.595712,N,11707.395839,W,62.7,334.5,020210,,,A*47
$GPRMC,031006.9,A,3311.646156,N,11707.424152,W,64.0,334.3,020210,,,A*47
$GPRMC,031009.9,A,3311.694140,N,11707.451312,W,63.1,333.9,020210,,,A*4F
$GPRMC,031012.9,A,3311.737671,N,11707.475724,W,60.6,334.0,020210,,,A*45
$GPRMC,031015.9,A,3311.784316,N,11707.505096,W,61.9,333.2,020210,,,A*4D
$GPRMC,031018.9,A,3311.833292,N,11707.531358,W,62.3,334.1,020210,,,A*45
$GPRMC,031021.9,A,3311.881588,N,11707.559434,W,63.9,334.2,020210,,,A*41
$GPRMC,031024.9,A,3311.928255,N,11707.588753,W,64.6,333.7,020210,,,A*45
$GPRMC,031027.9,A,3311.976276,N,11707.617521,W,65.8,333.8,020210,,,A*4E
$GPRMC,031030.9,A,3312.025013,N,11707.645818,W,65.5,333.9,020210,,,A*49
$GPRMC,031033.9,A,3312.074510,N,11707.674269,W,64.8,332.7,020210,,,A*45
$GPRMC,031036.9,A,3312.125880,N,11707.706397,W,67.1,332.1,020210,,,A*49
$GPRMC,031039.9,A,3312.174687,N,11707.737919,W,67.5,331.4,020210,,,A*47
$GPRMC,031042.9,A,3312.222658,N,11707.770072,W,66.5,330.7,020210,,,A*4D
$GPRMC,031045.9,A,3312.270225,N,11707.802687,W,67.5,330.0,020210,,,A*43
$GPRMC,031048.9,A,3312.318800,N,11707.836748,W,67.7,329.8,020210,,,A*4B
$GPRMC,031051.9,A,3312.370588,N,11707.868196,W,68.3,330.7,020210,,,A*42
$GPRMC,031054.9,A,3312.417881,N,11707.901265,W,66.4,329.6,020210,,,A*44
$GPRMC,031057.9,A,3312.464465,N,11707.938060,W,66.3,328.2,020210,,,A*4A
$GPRMC,031100.9,A,3312.510410,N,11707.969912,W,63.9,328.7,020210,,,A*4B
$GPRMC,031103.2,A,3312.548063,N,11707.994753,W,64.7,329.6,020210,,,A*4E
$GPRMC,031106.2,A,3312.591712,N,11708.029077,W,65.8,328.0,020210,,,A*46
$GPRMC,031109.2,A,3312.638448,N,11708.064664,W,67.3,328.2,020210,,,A*43
$GPRMC,031112.2,A,3312.686655,N,11708.100508,W,68.1,328.0,020210,,,A*47
$GPRMC,031115.2,A,3312.736381,N,11708.136746,W,69.6,328.7,020210,,,A*4A
$GPRMC,031118.9,A,3312.802608,N,11708.180303,W,70.6,329.8,020210,,,A*4E
$GPRMC,031121.9,A,3312.844303,N,11708.216156,W,68.0,327.8,020210,,,A*47
$GPRMC,031124.9,A,3312.888572,N,11708.252288,W,68.5,327.2,020210,,,A*4D
$GPRMC,031127.2,A,3312.926867,N,11708.280428,W,68.9,327.9,020210,,,A*4D
$GPRMC,031130.2,A,3312.978682,N,11708.316427,W,70.9,329.5,020210,,,A*4F
$GPRMC,031133.2,A,3313.030681,N,11708.351464,W,70.4,330.4,020210,,,A*4B
$GPRMC,031136.2,A,3313.081700,N,11708.386661,W,69.6,330.1,020210,,,A*4E
$GPRMC,031139.2,A,3313.132347,N,11708.420163,W,68.6,331.3,020210,,,A*43
$GPRMC,031142.2,A,3313.183312,N,11708.450264,W,67.2,333.0,020210,,,A*4C
$GPRMC,031145.2,A,3313.235599,N,11708.478673,W,67.5,334.3,020210,,,A*4B
$GPRMC,031148.2,A,3313.285066,N,11708.508794,W,67.4,334.4,020210,,,A*40
$GPRMC,031151.2,A,3313.333250,N,11708.536308,W,68.5,335.9,020210,,,A*4D
$GPRMC,031154.2,A,3313.386804,N,11708.563159,W,68.5,337.3,020210,,,A*43
$GPRMC,031157.2,A,3313.441041,N,11708.589085,W,68.5,337.8,020210,,,A*4A
$GPRMC,031200.2,A,3313.495659,N,11708.613782,W,68.3,339.3,020210,,,A*4E
$GPRMC,031203.2,A,3313.548693,N,11708.634887,W,67.0,340.5,020210,,,A*41
$GPRMC,031206.2,A,3313.602896,N,11708.658487,W,67.2,340.3,020210,,,A*40
$GPRMC,031209.2,A,3313.655322,N,11708.679056,W,67.3,340.8,020210,,,A*48
$GPRMC,031212.2,A,3313.710874,N,11708.700913,W,69.0,340.7,020210,,,A*4F
$GPRMC,031215.2,A,3313.768839,N,11708.724449,W,72.0,340.5,020210,,,A*42
$GPRMC,031218.2,A,3313.823998,N,11708.749012,W,71.9,340.0,020210,,,A*4B
$GPRMC,031221.2,A,3313.880315,N,11708.772934,W,71.4,340.1,020210,,,A*4E
$GPRMC,031224.2,A,3313.935477,N,11708.797169,W,70.4,339.7,020210,,,A*45
$GPRMC,031227.2,A,3313.989823,N,11708.821238,W,69.5,340.0,020210,,,A*49
$GPRMC,031230.2,A,3314.043518,N,11708.845105,W,69.6,340.2,020210,,,A*4C
$GPRMC,031233.2,A,3314.098563,N,11708.867935,W,69.4,340.3,020210,,,A*4D
$GPRMC,031236.2,A,3314.155452,N,11708.892944,W,70.4,340.2,020210,,,A*4E
$GPRMC,031239.2,A,3314.212350,N,11708.916331,W,70.8,340.3,020210,,,A*4C
$GPRMC,031242.2,A,3314.262942,N,11708.941592,W,71.4,339.5,020210,,,A*46
$GPRMC,031245.2,A,3314.318937,N,11708.966057,W,72.9,340.1,020210,,,A*42
$GPRMC,031248.2,A,3314.375706,N,11708.989941,W,72.3,340.7,020210,,,A*4B
$GPRMC,031251.0,A,3314.426142,N,11709.011700,W,73.5,340.6,020210,,,A*42
$GPRMC,031254.2,A,3314.483203,N,11709.036706,W,68.9,340.0,020210,,,A*4F
$GPRMC,031257.9,A,3314.547547,N,11709.067015,W,66.6,339.1,020210,,,A*46
$GPRMC,031301.2,A,3314.601865,N,11709.090729,W,65.9,340.6,020210,,,A*46
$GPRMC,031304.9,A,3314.663195,N,11709.119878,W,65.2,338.8,020210,,,A*4B
$GPRMC,031307.2,A,3314.702362,N,11709.136150,W,65.1,340.5,020210,,,A*40
$GPRMC,031311.2,A,3314.771206,N,11709.165004,W,65.6,340.5,020210,,,A*41
$GPRMC,031314.2,A,3314.822678,N,11709.187401,W,65.6,339.7,020210,,,A*41
$GPRMC,031318.2,A,3314.891387,N,11709.216592,W,65.6,339.9,020210,,,A*4E
$GPRMC,031321.9,A,3314.957151,N,11709.247323,W,65.6,339.5,020210,,,A*49
$GPRMC,031324.9,A,3315.009922,N,11709.268238,W,66.0,340.5,020210,,,A*4E
$GPRMC,031327.2,A,3315.048135,N,11709.284622,W,65.3,340.6,020210,,,A*43
$GPRMC,031330.2,A,3315.097807,N,11709.306024,W,65.2,340.2,020210,,,A*41
$GPRMC,031333.2,A,3315.147737,N,11709.328369,W,63.8,340.0,020210,,,A*4A
$GPRMC,031336.9,A,3315.209563,N,11709.355100,W,63.5,340.1,020210,,,A*45
$GPRMC,031339.2,A,3315.245340,N,11709.370728,W,61.1,340.3,020210,,,A*41
$GPRMC,031342.2,A,3315.292816,N,11709.391921,W,61.1,339.1,020210,,,A*4B
$GPRMC,031345.9,A,3315.351073,N,11709.419108,W,61.8,340.0,020210,,,A*40
$GPRMC,031348.2,A,3315.391467,N,11709.434623,W,66.1,341.6,020210,,,A*43
$GPRMC,031351.2,A,3315.445072,N,11709.451835,W,66.7,344.6,020210,,,A*4C
$GPRMC,031354.2,A,3315.498103,N,11709.467464,W,65.6,346.1,020210,,,A*44
$GPRMC,031357.2,A,3315.550300,N,11709.478982,W,64.1,348.8,020210,,,A*49
$GPRMC,031400.2,A,3315.603949,N,11709.489816,W,63.6,350.8,020210,,,A*45
$GPRMC,031404.2,A,3315.676571,N,11709.499109,W,65.4,354.3,020210,,,A*49
$GPRMC,031407.2,A,3315.728817,N,11709.504303,W,64.4,356.1,020210,,,A*41
$GPRMC,031410.2,A,3315.782389,N,11709.507298,W,63.9,358.5,020210,,,A*4B
$GPRMC,031413.2,A,3315.836969,N,11709.504912,W,65.1,0.9,020210,,,A*4A
$GPRMC,031416.2,A,3315.890614,N,11709.500587,W,65.2,3.8,020210,,,A*43
$GPRMC,031419.2,A,3315.944821,N,11709.494622,W,64.7,4.9,020210,,,A*4E
$GPRMC,031422.2,A,3315.996184,N,11709.487996,W,63.0,7.2,020210,,,A*45
$GPRMC,031425.2,A,3316.047355,N,11709.475029,W,62.7,10.4,020210,,,A*7C
$GPRMC,031428.2,A,3316.102862,N,11709.464162,W,63.8,10.8,020210,,,A*72
$GPRMC,031431.9,A,3316.163671,N,11709.447016,W,62.2,15.5,020210,,,A*7A
$GPRMC,031434.2,A,3316.201423,N,11709.433570,W,63.1,16.5,020210,,,A*71
$GPRMC,031437.2,A,3316.250553,N,11709.412885,W,62.1,20.1,020210,,,A*74
$GPRMC,031440.2,A,3316.298042,N,11709.389584,W,61.5,22.7,020210,,,A*7F
$GPRMC,031443.2,A,3316.344126,N,11709.364094,W,60.4,24.3,020210,,,A*7A
$GPRMC,031446.0,A,3316.384868,N,11709.341503,W,60.3,25.7,020210,,,A*7C
$GPRMC,031449.9,A,3316.444888,N,11709.305107,W,61.8,25.7,020210,,,A*75
$GPRMC,031452.9,A,3316.489219,N,11709.279911,W,61.3,25.8,020210,,,A*7D
$GPRMC,031455.9,A,3316.536613,N,11709.252714,W,62.2,25.2,020210,,,A*7B
$GPRMC,031458.9,A,3316.584823,N,11709.225554,W,62.1,25.8,020210,,,A*7D
$GPRMC,031501.9,A,3316.627542,N,11709.198559,W,60.3,26.9,020210,,,A*7A
$GPRMC,031504.9,A,3316.671414,N,11709.171137,W,59.8,27.4,020210,,,A*78
$GPRMC,031507.2,A,3316.709672,N,11709.151396,W,62.3,25.3,020210,,,A*71
$GPRMC,031510.2,A,3316.756432,N,11709.125804,W,62.2,26.1,020210,,,A*78
$GPRMC,031513.2,A,3316.804249,N,11709.096918,W,62.9,26.1,020210,,,A*77
$GPRMC,031516.9,A,3316.864493,N,11709.066819,W,61.8,25.1,020210,,,A*70
$GPRMC,031519.9,A,3316.915371,N,11709.041278,W,64.8,22.2,020210,,,A*7A
$GPRMC,031522.9,A,3316.969398,N,11709.017696,W,67.1,19.5,020210,,,A*7C
$GPRMC,031525.9,A,3317.026893,N,11708.998279,W,67.2,16.3,020210,,,A*78
$GPRMC,031528.2,A,3317.069065,N,11708.985467,W,67.0,14.8,020210,,,A*7A
$GPRMC,031531.0,A,3317.118513,N,11708.972367,W,67.3,11.5,020210,,,A*77
$GPRMC,031534.2,A,3317.180007,N,11708.961286,W,68.1,9.0,020210,,,A*4C
$GPRMC,031537.9,A,3317.247098,N,11708.951416,W,66.7,6.1,020210,,,A*40
$GPRMC,031541.2,A,3317.307938,N,11708.948828,W,64.8,1.5,020210,,,A*4B
$GPRMC,031544.9,A,3317.370410,N,11708.950787,W,61.6,358.7,020210,,,A*47
$GPRMC,031547.9,A,3317.421949,N,11708.952973,W,61.8,357.7,020210,,,A*40
$GPRMC,031550.9,A,3317.474199,N,11708.956181,W,62.1,357.3,020210,,,A*4C
$GPRMC,031553.9,A,3317.528820,N,11708.960651,W,64.4,357.6,020210,,,A*45
$GPRMC,031556.9,A,3317.582518,N,11708.962437,W,66.1,358.2,020210,,,A*4A
$GPRMC,031559.9,A,3317.640194,N,11708.966686,W,67.6,356.9,020210,,,A*47
$GPRMC,031602.9,A,3317.698205,N,11708.971680,W,67.8,356.8,020210,,,A*4B
$GPRMC,031605.9,A,3317.750726,N,11708.974780,W,65.4,357.2,020210,,,A*4C
$GPRMC,031608.9,A,3317.803778,N,11708.976721,W,64.0,357.6,020210,,,A*4B
$GPRMC,031611.9,A,3317.856870,N,11708.978190,W,63.6,358.0,020210,,,A*4E
$GPRMC,031614.9,A,3317.913870,N,11708.983101,W,66.6,357.3,020210,,,A*4E
$GPRMC,031617.9,A,3317.971065,N,11708.987161,W,68.1,357.0,020210,,,A*4D
$GPRMC,031620.9,A,3318.027635,N,11708.990801,W,69.2,356.4,020210,,,A*41
$GPRMC,031623.9,A,3318.088288,N,11708.997574,W,71.8,356.6,020210,,,A*4C
