NMEA Sentence Code,UTC Time,Status,Latitude,Latitude Direction,Longitude,Longitude Direction,Speed (knots),Track Angle (degrees true),Date,MagneticVariation,Magnetic Variation Direction,[FAA Mode]-Optional,Checksum
$GPRMC,235459.9,A,3243.317853,N,11709.607061,W,4.4,320.4,190510,,,A*75
$GPRMC,235502.9,A,3243.326790,N,11709.612023,W,13.8,351.0,190510,,,A*42
$GPRMC,235505.9,A,3243.345528,N,11709.610227,W,20.1,15.7,190510,,,A*78
$GPRMC,235508.9,A,3243.353039,N,11709.596050,W,17.9,65.6,190510,,,A*72
$GPRMC,235511.9,A,3243.355518,N,11709.585975,W,9.5,65.2,190510,,,A*41
$GPRMC,235523.9,A,3243.360090,N,11709.570743,W,4.4,66.8,190510,,,A*47
$GPRMC,235526.9,A,3243.360641,N,11709.567897,W,6.0,84.9,190510,,,A*43
$GPRMC,235553.9,A,3243.368362,N,11709.535921,W,4.6,79.9,190510,,,A*40
$GPRMC,235556.9,A,3243.371500,N,11709.530777,W,5.0,68.1,190510,,,A*48
$GPRMC,235602.9,A,3243.374326,N,11709.523740,W,4.8,72.3,190510,,,A*4B
$GPRMC,235605.9,A,3243.377327,N,11709.516555,W,6.0,67.5,190510,,,A*46
$GPRMC,235608.9,A,3243.381405,N,11709.512454,W,5.2,52.8,190510,,,A*4B
$GPRMC,235611.9,A,3243.384492,N,11709.505280,W,7.7,65.9,190510,,,A*43
$GPRMC,235614.9,A,3243.384497,N,11709.499162,W,6.7,78.2,190510,,,A*4E
$GPRMC,235617.9,A,3243.386848,N,11709.494994,W,6.4,67.8,190510,,,A*4A
$GPRMC,235620.9,A,3243.389892,N,11709.486495,W,10.8,65.9,190510,,,A*71
$GPRMC,235623.9,A,3243.394966,N,11709.469523,W,18.6,70.3,190510,,,A*71
$GPRMC,235626.9,A,3243.401455,N,11709.450522,W,20.8,68.3,190510,,,A*75
$GPRMC,235629.9,A,3243.409497,N,11709.430042,W,22.1,67.4,190510,,,A*7A
$GPRMC,235632.9,A,3243.415412,N,11709.410303,W,20.5,69.1,190510,,,A*79
$GPRMC,235635.9,A,3243.420396,N,11709.391737,W,18.7,75.4,190510,,,A*7F
$GPRMC,235638.9,A,3243.422673,N,11709.378938,W,11.1,81.1,190510,,,A*79
$GPRMC,235644.9,A,3243.424843,N,11709.367571,W,6.2,85.5,190510,,,A*43
$GPRMC,235647.9,A,3243.427217,N,11709.360303,W,9.2,78.3,190510,,,A*47
$GPRMC,235650.9,A,3243.428325,N,11709.348442,W,11.7,85.2,190510,,,A*79
$GPRMC,235653.9,A,3243.430818,N,11709.335342,W,14.2,80.6,190510,,,A*7A
$GPRMC,235656.9,A,3243.432281,N,11709.322570,W,11.8,82.6,190510,,,A*7B
$GPRMC,235659.9,A,3243.433601,N,11709.311785,W,11.9,82.6,190510,,,A*70
$GPRMC,235702.9,A,3243.434426,N,11709.300882,W,9.9,84.5,190510,,,A*4B
$GPRMC,235705.9,A,3243.434773,N,11709.293006,W,10.4,86.3,190510,,,A*71
$GPRMC,235708.9,A,3243.435786,N,11709.278630,W,16.7,85.9,190510,,,A*7D
$GPRMC,235711.9,A,3243.438489,N,11709.259433,W,19.1,82.3,190510,,,A*72
$GPRMC,235714.9,A,3243.438982,N,11709.240969,W,17.4,84.7,190510,,,A*72
$GPRMC,235717.9,A,3243.440416,N,11709.231104,W,8.6,80.7,190510,,,A*43
$GPRMC,235720.9,A,3243.441863,N,11709.224250,W,7.0,77.1,190510,,,A*49
$GPRMC,235723.9,A,3243.442393,N,11709.215746,W,11.1,87.4,190510,,,A*71
$GPRMC,235726.9,A,3243.443496,N,11709.202859,W,11.6,85.8,190510,,,A*79
$GPRMC,235729.9,A,3243.446299,N,11709.192671,W,9.6,81.1,190510,,,A*40
$GPRMC,235732.9,A,3243.445770,N,11709.184895,W,7.5,85.8,190510,,,A*48
$GPRMC,235735.9,A,3243.445918,N,11709.174918,W,12.0,92.0,190510,,,A*7B
$GPRMC,235738.9,A,3243.444337,N,11709.159427,W,15.9,96.5,190510,,,A*71
$GPRMC,235741.9,A,3243.444666,N,11709.140903,W,19.5,94.2,190510,,,A*78
$GPRMC,235744.9,A,3243.443959,N,11709.121004,W,18.4,92.9,190510,,,A*7D
$GPRMC,235747.9,A,3243.439653,N,11709.106961,W,15.1,103.2,190510,,,A*43
$GPRMC,235750.9,A,3243.435156,N,11709.092780,W,17.1,112.1,190510,,,A*47
$GPRMC,235753.2,A,3243.428770,N,11709.077471,W,20.8,115.0,190510,,,A*4C
$GPRMC,235756.9,A,3243.420376,N,11709.052615,W,23.6,111.8,190510,,,A*4E
$GPRMC,235759.9,A,3243.417484,N,11709.047941,W,9.0,120.2,190510,,,A*73
$GPRMC,235802.9,A,3243.412715,N,11709.041596,W,8.3,117.1,190510,,,A*79
$GPRMC,235805.9,A,3243.408569,N,11709.033516,W,9.9,122.7,190510,,,A*7A
$GPRMC,235808.9,A,3243.401227,N,11709.024674,W,11.1,131.4,190510,,,A*42
$GPRMC,235811.9,A,3243.394648,N,11709.016085,W,10.6,133.3,190510,,,A*46
$GPRMC,235814.9,A,3243.386099,N,11709.010580,W,12.8,137.5,190510,,,A*42
$GPRMC,235817.9,A,3243.375688,N,11709.001790,W,15.9,143.1,190510,,,A*49
$GPRMC,235820.9,A,3243.366991,N,11708.993302,W,12.1,144.2,190510,,,A*4F
$GPRMC,235823.9,A,3243.362247,N,11708.988416,W,9.3,146.7,190510,,,A*7F
$GPRMC,235826.9,A,3243.353136,N,11708.981452,W,12.5,149.4,190510,,,A*44
$GPRMC,235829.9,A,3243.340808,N,11708.974990,W,15.3,156.6,190510,,,A*49
$GPRMC,235833.2,A,3243.323883,N,11708.965469,W,18.9,156.0,190510,,,A*45
$GPRMC,235836.2,A,3243.308488,N,11708.957407,W,18.8,157.2,190510,,,A*45
$GPRMC,235839.2,A,3243.295709,N,11708.950828,W,14.8,155.5,190510,,,A*4A
$GPRMC,235842.9,A,3243.283870,N,11708.946309,W,11.0,159.7,190510,,,A*47
$GPRMC,235845.9,A,3243.275233,N,11708.943357,W,11.2,160.4,190510,,,A*41
$GPRMC,235848.9,A,3243.267611,N,11708.939348,W,10.5,161.1,190510,,,A*4A
$GPRMC,235851.9,A,3243.259052,N,11708.938526,W,8.6,166.5,190510,,,A*78
$GPRMC,235854.9,A,3243.252775,N,11708.935105,W,6.1,157.8,190510,,,A*7A
$GPRMC,235857.9,A,3243.249119,N,11708.933889,W,7.6,167.0,190510,,,A*79
$GPRMC,235900.9,A,3243.245304,N,11708.930921,W,6.0,160.8,190510,,,A*70
$GPRMC,235906.9,A,3243.239373,N,11708.931001,W,5.3,161.8,190510,,,A*76
$GPRMC,235912.9,A,3243.225191,N,11708.925636,W,9.0,163.6,190510,,,A*74
$GPRMC,235915.9,A,3243.216294,N,11708.925431,W,11.6,167.5,190510,,,A*48
$GPRMC,235918.9,A,3243.202440,N,11708.922310,W,17.4,164.3,190510,,,A*4D
$GPRMC,235921.9,A,3243.185297,N,11708.915513,W,18.5,155.7,190510,,,A*4E
$GPRMC,235924.9,A,3243.171425,N,11708.909092,W,16.1,163.1,190510,,,A*47
$GPRMC,235927.9,A,3243.162172,N,11708.905794,W,10.9,165.0,190510,,,A*45
$GPRMC,235930.9,A,3243.154132,N,11708.904239,W,9.9,169.6,190510,,,A*73
$GPRMC,235933.9,A,3243.144906,N,11708.902016,W,11.9,167.8,190510,,,A*4E
$GPRMC,235936.9,A,3243.138318,N,11708.899252,W,8.4,167.5,190510,,,A*7C
$GPRMC,235939.9,A,3243.131249,N,11708.897270,W,8.1,164.6,190510,,,A*74
$GPRMC,235942.9,A,3243.128539,N,11708.897208,W,7.1,174.0,190510,,,A*77
$GPRMC,235945.9,A,3243.118725,N,11708.893847,W,11.8,166.2,190510,,,A*46
$GPRMC,235948.9,A,3243.106705,N,11708.893546,W,13.7,172.7,190510,,,A*47
$GPRMC,235951.9,A,3243.097205,N,11708.891578,W,9.5,174.0,190510,,,A*74
$GPRMC,235954.9,A,3243.091102,N,11708.891549,W,8.0,176.2,190510,,,A*75
$GPRMC,235957.9,A,3243.083611,N,11708.891906,W,10.8,180.6,190510,,,A*4B
$GPRMC,000003.9,A,3243.058375,N,11708.889800,W,16.6,175.2,200510,,,A*44
$GPRMC,000006.9,A,3243.043734,N,11708.890080,W,17.3,183.4,200510,,,A*49
$GPRMC,000009.9,A,3243.028183,N,11708.891206,W,18.6,183.4,200510,,,A*46
$GPRMC,000012.9,A,3243.005953,N,11708.894308,W,28.3,184.9,200510,,,A*40
$GPRMC,000015.9,A,3242.981209,N,11708.896519,W,29.7,183.7,200510,,,A*4F
$GPRMC,000018.9,A,3242.957514,N,11708.900241,W,27.2,185.1,200510,,,A*4D
$GPRMC,000021.9,A,3242.937133,N,11708.900613,W,26.3,179.8,200510,,,A*49
$GPRMC,000024.9,A,3242.914383,N,11708.899144,W,27.7,172.8,200510,,,A*4E
$GPRMC,000027.9,A,3242.892392,N,11708.892522,W,26.0,163.1,200510,,,A*42
$GPRMC,000030.9,A,3242.873978,N,11708.882890,W,23.2,155.4,200510,,,A*47
$GPRMC,000033.9,A,3242.863198,N,11708.876512,W,14.4,152.3,200510,,,A*4D
$GPRMC,000036.9,A,3242.855902,N,11708.869845,W,12.8,146.6,200510,,,A*4D
$GPRMC,000039.9,A,3242.844760,N,11708.862015,W,12.0,145.7,200510,,,A*44
$GPRMC,000042.9,A,3242.838217,N,11708.855519,W,10.3,138.7,200510,,,A*40
$GPRMC,000045.9,A,3242.835873,N,11708.850234,W,8.1,131.4,200510,,,A*7E
$GPRMC,000048.9,A,3242.832762,N,11708.844340,W,5.6,127.2,200510,,,A*77
$GPRMC,000054.9,A,3242.827592,N,11708.837284,W,6.3,127.8,200510,,,A*72
$GPRMC,000057.9,A,3242.822589,N,11708.829175,W,12.8,123.9,200510,,,A*47
$GPRMC,000100.9,A,3242.816939,N,11708.817697,W,13.6,121.2,200510,,,A*44
$GPRMC,000103.9,A,3242.811526,N,11708.806795,W,9.6,119.0,200510,,,A*73
$GPRMC,000106.9,A,3242.807920,N,11708.801181,W,6.6,118.7,200510,,,A*76
$GPRMC,000109.9,A,3242.806873,N,11708.795889,W,6.3,112.6,200510,,,A*72
$GPRMC,000112.9,A,3242.803940,N,11708.786149,W,11.6,112.1,200510,,,A*4F
$GPRMC,000115.9,A,3242.800457,N,11708.772398,W,12.6,111.5,200510,,,A*41
$GPRMC,000118.9,A,3242.797127,N,11708.764838,W,8.8,111.1,200510,,,A*78
$GPRMC,000121.9,A,3242.795053,N,11708.756796,W,8.6,104.6,200510,,,A*75
$GPRMC,000124.9,A,3242.793344,N,11708.748097,W,10.2,106.1,200510,,,A*42
$GPRMC,000127.9,A,3242.791874,N,11708.737585,W,10.2,103.0,200510,,,A*41
$GPRMC,000130.9,A,3242.790111,N,11708.727130,W,11.2,99.8,200510,,,A*7C
$GPRMC,000133.9,A,3242.789041,N,11708.715903,W,11.7,94.9,200510,,,A*73
$GPRMC,000136.9,A,3242.787320,N,11708.698785,W,19.4,96.4,200510,,,A*7C
$GPRMC,000139.9,A,3242.786236,N,11708.677559,W,22.3,94.1,200510,,,A*7E
$GPRMC,000142.9,A,3242.786134,N,11708.655147,W,23.9,91.8,200510,,,A*7F
$GPRMC,000145.2,A,3242.784715,N,11708.637484,W,21.8,95.0,200510,,,A*75
$GPRMC,000148.9,A,3242.784425,N,11708.620105,W,13.1,94.0,200510,,,A*70
$GPRMC,000151.9,A,3242.785475,N,11708.608715,W,11.1,88.7,200510,,,A*79
$GPRMC,000154.9,A,3242.784536,N,11708.598798,W,10.5,94.5,200510,,,A*7E
$GPRMC,000157.9,A,3242.785785,N,11708.589574,W,8.3,85.6,200510,,,A*4A
$GPRMC,000200.9,A,3242.785544,N,11708.584422,W,5.8,89.9,200510,,,A*4E
$GPRMC,000209.2,A,3242.787625,N,11708.579511,W,5.4,89.4,200510,,,A*48
$GPRMC,000212.2,A,3242.787878,N,11708.573584,W,5.3,89.1,200510,,,A*40
$GPRMC,000215.2,A,3242.787959,N,11708.568344,W,5.5,89.1,200510,,,A*43
$GPRMC,000218.9,A,3242.787976,N,11708.559538,W,7.7,90.7,200510,,,A*49
$GPRMC,000221.9,A,3242.788088,N,11708.553284,W,6.6,86.7,200510,,,A*49
$GPRMC,000224.9,A,3242.788059,N,11708.549236,W,5.4,89.6,200510,,,A*4D
$GPRMC,000233.9,A,3242.786363,N,11708.535935,W,5.5,100.9,200510,,,A*72
$GPRMC,000236.9,A,3242.788307,N,11708.522376,W,14.0,89.4,200510,,,A*78
$GPRMC,000239.9,A,3242.787254,N,11708.500877,W,23.6,92.6,200510,,,A*7F
$GPRMC,000242.9,A,3242.786742,N,11708.475233,W,24.9,90.9,200510,,,A*7C
$GPRMC,000245.9,A,3242.787722,N,11708.452502,W,22.3,85.0,200510,,,A*7D
$GPRMC,000248.9,A,3242.787185,N,11708.435292,W,15.9,89.4,200510,,,A*72
$GPRMC,000251.9,A,3242.787113,N,11708.419019,W,18.7,89.8,200510,,,A*75
$GPRMC,000254.2,A,3242.788212,N,11708.406506,W,16.2,89.5,200510,,,A*75
$GPRMC,000257.9,A,3242.786458,N,11708.390671,W,10.1,95.7,200510,,,A*7A
$GPRMC,000306.9,A,3242.788945,N,11708.376350,W,6.2,86.1,200510,,,A*4E
$GPRMC,000312.9,A,3242.787816,N,11708.368697,W,5.9,93.1,200510,,,A*4E
$GPRMC,000315.9,A,3242.787741,N,11708.359321,W,10.5,92.5,200510,,,A*73
$GPRMC,000318.9,A,3242.786713,N,11708.344064,W,14.6,93.4,200510,,,A*71
$GPRMC,000321.9,A,3242.786153,N,11708.330006,W,14.1,90.9,200510,,,A*77
$GPRMC,000324.9,A,3242.786212,N,11708.311726,W,20.1,91.6,200510,,,A*7B
$GPRMC,000327.9,A,3242.787176,N,11708.288945,W,23.9,88.8,200510,,,A*7F
$GPRMC,000330.9,A,3242.788187,N,11708.263260,W,27.1,88.0,200510,,,A*75
$GPRMC,000333.9,A,3242.789256,N,11708.234305,W,28.3,88.4,200510,,,A*71
$GPRMC,000336.9,A,3242.789518,N,11708.209029,W,24.0,87.6,200510,,,A*78
$GPRMC,000339.9,A,3242.789192,N,11708.189977,W,17.0,89.6,200510,,,A*76
$GPRMC,000342.9,A,3242.787950,N,11708.177458,W,13.6,92.4,200510,,,A*79
$GPRMC,000345.9,A,3242.790611,N,11708.163067,W,13.0,85.0,200510,,,A*7B
$GPRMC,000348.9,A,3242.789446,N,11708.150622,W,12.9,95.1,200510,,,A*71
$GPRMC,000351.9,A,3242.788608,N,11708.137160,W,14.6,93.4,200510,,,A*7A
$GPRMC,000354.9,A,3242.789741,N,11708.120143,W,18.1,88.9,200510,,,A*79
$GPRMC,000357.9,A,3242.790436,N,11708.099798,W,20.5,88.7,200510,,,A*73
$GPRMC,000400.9,A,3242.790897,N,11708.079817,W,19.8,88.2,200510,,,A*75
$GPRMC,000403.9,A,3242.790466,N,11708.063772,W,13.6,92.6,200510,,,A*78
$GPRMC,000406.9,A,3242.789501,N,11708.055484,W,6.7,81.8,200510,,,A*43
$GPRMC,000418.9,A,3242.789192,N,11708.042704,W,11.9,95.6,200510,,,A*7C
$GPRMC,000421.9,A,3242.787625,N,11708.019104,W,25.3,91.7,200510,,,A*73
$GPRMC,000424.9,A,3242.788536,N,11707.990820,W,27.6,89.2,200510,,,A*7B
$GPRMC,000427.9,A,3242.788220,N,11707.964851,W,26.2,87.5,200510,,,A*79
$GPRMC,000430.9,A,3242.791307,N,11707.939168,W,24.6,85.0,200510,,,A*79
$GPRMC,000433.9,A,3242.793885,N,11707.915457,W,24.1,83.0,200510,,,A*7F
$GPRMC,000436.9,A,3242.797393,N,11707.887222,W,30.0,82.3,200510,,,A*7A
$GPRMC,000439.9,A,3242.801109,N,11707.858455,W,30.8,81.0,200510,,,A*78
$GPRMC,000442.9,A,3242.807354,N,11707.826115,W,33.6,78.5,200510,,,A*7E
$GPRMC,000445.9,A,3242.813326,N,11707.791720,W,38.8,79.7,200510,,,A*7C
$GPRMC,000448.2,A,3242.817004,N,11707.773011,W,27.3,76.5,200510,,,A*7C
$GPRMC,000451.9,A,3242.821040,N,11707.744441,W,22.6,76.3,200510,,,A*79
$GPRMC,000454.9,A,3242.825385,N,11707.726275,W,17.3,73.8,200510,,,A*7A
$GPRMC,000457.9,A,3242.831773,N,11707.717981,W,11.2,66.1,200510,,,A*79
$GPRMC,000500.9,A,3242.833412,N,11707.707968,W,11.6,75.1,200510,,,A*7C
$GPRMC,000503.9,A,3242.837312,N,11707.697674,W,9.3,65.9,200510,,,A*43
$GPRMC,000506.9,A,3242.839381,N,11707.688432,W,11.6,72.7,200510,,,A*78
$GPRMC,000509.9,A,3242.843552,N,11707.675008,W,16.1,70.1,200510,,,A*79
$GPRMC,000512.9,A,3242.848670,N,11707.654989,W,21.6,68.1,200510,,,A*72
$GPRMC,000515.9,A,3242.855345,N,11707.632621,W,24.6,69.9,200510,,,A*7B
$GPRMC,000518.9,A,3242.862795,N,11707.606521,W,28.8,69.2,200510,,,A*76
$GPRMC,000521.9,A,3242.872949,N,11707.577100,W,33.6,68.8,200510,,,A*7F
$GPRMC,000524.9,A,3242.883484,N,11707.542225,W,38.3,70.5,200510,,,A*70
$GPRMC,000527.9,A,3242.895222,N,11707.505786,W,38.9,68.9,200510,,,A*7E
$GPRMC,000530.9,A,3242.905390,N,11707.472655,W,34.4,70.5,200510,,,A*72
$GPRMC,000533.9,A,3242.916175,N,11707.442944,W,31.0,68.7,200510,,,A*7C
$GPRMC,000536.9,A,3242.924200,N,11707.417314,W,27.3,70.7,200510,,,A*7B
$GPRMC,000539.9,A,3242.928578,N,11707.392624,W,25.0,74.1,200510,,,A*7F
$GPRMC,000542.9,A,3242.935054,N,11707.369441,W,24.0,72.8,200510,,,A*7F
$GPRMC,000545.9,A,3242.938456,N,11707.347666,W,23.3,77.4,200510,,,A*75
$GPRMC,000548.9,A,3242.941521,N,11707.326237,W,22.3,78.2,200510,,,A*78
$GPRMC,000551.9,A,3242.944243,N,11707.309118,W,14.8,80.4,200510,,,A*7A
$GPRMC,000554.9,A,3242.945755,N,11707.295553,W,15.3,80.4,200510,,,A*79
$GPRMC,000557.9,A,3242.949523,N,11707.279497,W,16.5,78.6,200510,,,A*7E
$GPRMC,000600.9,A,3242.952137,N,11707.263050,W,20.6,79.2,200510,,,A*73
$GPRMC,000603.9,A,3242.956066,N,11707.239177,W,27.1,79.0,200510,,,A*78
$GPRMC,000606.9,A,3242.962595,N,11707.210655,W,29.4,75.8,200510,,,A*70
$GPRMC,000609.9,A,3242.966227,N,11707.184208,W,25.9,80.7,200510,,,A*73
$GPRMC,000612.9,A,3242.968590,N,11707.160109,W,22.6,81.6,200510,,,A*7C
$GPRMC,000615.9,A,3242.972716,N,11707.141392,W,19.6,79.8,200510,,,A*7E
$GPRMC,000618.9,A,3242.974877,N,11707.124854,W,15.8,78.6,200510,,,A*72
$GPRMC,000621.9,A,3242.976850,N,11707.110927,W,14.4,78.5,200510,,,A*73
$GPRMC,000624.9,A,3242.980290,N,11707.096503,W,12.6,78.1,200510,,,A*7C
$GPRMC,000627.9,A,3242.981397,N,11707.091721,W,4.5,70.5,200510,,,A*45
$GPRMC,000630.9,A,3242.981935,N,11707.086269,W,6.8,79.1,200510,,,A*4C
$GPRMC,000633.9,A,3242.983041,N,11707.074851,W,12.6,80.9,200510,,,A*7E
$GPRMC,000636.9,A,3242.986722,N,11707.061189,W,15.3,76.9,200510,,,A*7F
$GPRMC,000639.9,A,3242.989534,N,11707.046501,W,15.8,77.9,200510,,,A*71
$GPRMC,000642.9,A,3242.992190,N,11707.032299,W,14.7,77.9,200510,,,A*76
$GPRMC,000645.9,A,3242.994448,N,11707.018274,W,14.1,77.9,200510,,,A*7A
$GPRMC,000648.9,A,3242.997916,N,11707.004467,W,13.0,76.9,200510,,,A*7C
$GPRMC,000651.9,A,3243.001583,N,11706.994146,W,12.1,74.9,200510,,,A*76
$GPRMC,000654.9,A,3243.001844,N,11706.980427,W,13.9,80.1,200510,,,A*78
$GPRMC,000657.9,A,3243.004076,N,11706.966861,W,13.9,75.7,200510,,,A*7D
$GPRMC,000700.9,A,3243.005683,N,11706.955534,W,10.4,76.6,200510,,,A*72
$GPRMC,000705.9,A,3243.011835,N,11706.939267,W,11.6,70.4,200510,,,A*7D
$GPRMC,000708.9,A,3243.014588,N,11706.925521,W,16.5,74.9,200510,,,A*7B
$GPRMC,000713.9,A,3243.022097,N,11706.896974,W,20.1,70.5,200510,,,A*73
$GPRMC,000716.9,A,3243.027895,N,11706.878481,W,17.6,68.6,200510,,,A*77
$GPRMC,000720.9,A,3243.032482,N,11706.862288,W,12.1,77.9,200510,,,A*7B
$GPRMC,000723.9,A,3243.034780,N,11706.855105,W,7.1,66.2,200510,,,A*42
$GPRMC,000726.9,A,3243.037447,N,11706.849040,W,8.8,67.2,200510,,,A*46
$GPRMC,000729.9,A,3243.040177,N,11706.838158,W,14.0,70.6,200510,,,A*76
$GPRMC,000732.9,A,3243.045717,N,11706.822780,W,15.5,67.5,200510,,,A*70
$GPRMC,000735.9,A,3243.053224,N,11706.804195,W,21.2,67.0,200510,,,A*76
$GPRMC,000738.9,A,3243.060234,N,11706.780100,W,21.9,70.9,200510,,,A*71
$GPRMC,000741.9,A,3243.064871,N,11706.760822,W,18.6,69.6,200510,,,A*75
$GPRMC,000744.9,A,3243.070894,N,11706.746479,W,13.6,65.8,200510,,,A*71
$GPRMC,000747.9,A,3243.074268,N,11706.734515,W,13.4,72.9,200510,,,A*74
$GPRMC,000750.9,A,3243.076770,N,11706.721387,W,13.8,76.5,200510,,,A*71
$GPRMC,000753.9,A,3243.080226,N,11706.708442,W,14.2,77.4,200510,,,A*75
$GPRMC,000756.9,A,3243.083271,N,11706.694207,W,14.3,79.9,200510,,,A*70
$GPRMC,000759.9,A,3243.084911,N,11706.682587,W,12.8,82.8,200510,,,A*75
$GPRMC,000802.9,A,3243.086376,N,11706.667847,W,16.0,86.6,200510,,,A*71
$GPRMC,000805.9,A,3243.088196,N,11706.644574,W,21.7,85.9,200510,,,A*77
$GPRMC,000808.9,A,3243.088519,N,11706.622102,W,23.5,88.9,200510,,,A*71
$GPRMC,000811.9,A,3243.088230,N,11706.599867,W,18.6,89.2,200510,,,A*7D
$GPRMC,000814.9,A,3243.087625,N,11706.582523,W,20.7,90.9,200510,,,A*79
$GPRMC,000817.9,A,3243.087928,N,11706.555602,W,28.7,91.3,200510,,,A*71
$GPRMC,000820.9,A,3243.086977,N,11706.521966,W,34.2,90.6,200510,,,A*7C
$GPRMC,000823.9,A,3243.086569,N,11706.483894,W,41.0,90.5,200510,,,A*7A
$GPRMC,000826.9,A,3243.089661,N,11706.439800,W,45.1,85.2,200510,,,A*71
$GPRMC,000829.9,A,3243.096690,N,11706.391975,W,50.3,79.5,200510,,,A*7A
$GPRMC,000832.9,A,3243.108098,N,11706.342824,W,52.7,76.1,200510,,,A*7E
$GPRMC,000835.9,A,3243.119027,N,11706.288485,W,56.1,76.8,200510,,,A*76
$GPRMC,000838.9,A,3243.129284,N,11706.233584,W,56.9,78.4,200510,,,A*79
$GPRMC,000841.9,A,3243.138121,N,11706.176127,W,60.5,80.4,200510,,,A*7A
$GPRMC,000844.9,A,3243.140179,N,11706.115287,W,62.8,87.8,200510,,,A*75
$GPRMC,000847.9,A,3243.141221,N,11706.051107,W,65.3,89.4,200510,,,A*7D
$GPRMC,000850.9,A,3243.141949,N,11705.983685,W,67.9,89.6,200510,,,A*7C
$GPRMC,000853.9,A,3243.141473,N,11705.916173,W,68.9,90.4,200510,,,A*7C
$GPRMC,000856.9,A,3243.141793,N,11705.845706,W,71.5,89.2,200510,,,A*7D
$GPRMC,000859.9,A,3243.140029,N,11705.775528,W,70.9,92.1,200510,,,A*73
$GPRMC,000902.9,A,3243.131434,N,11705.706289,W,71.3,101.5,200510,,,A*4E
$GPRMC,000905.9,A,3243.109567,N,11705.640605,W,71.3,111.8,200510,,,A*4A
$GPRMC,000908.9,A,3243.082970,N,11705.577638,W,71.2,114.0,200510,,,A*4A
$GPRMC,000911.9,A,3243.067659,N,11705.510248,W,70.3,101.6,200510,,,A*4D
$GPRMC,000914.9,A,3243.065517,N,11705.439771,W,71.8,92.1,200510,,,A*70
$GPRMC,000917.9,A,3243.065833,N,11705.371015,W,68.6,90.4,200510,,,A*77
$GPRMC,000920.9,A,3243.066238,N,11705.304958,W,67.2,90.0,200510,,,A*7C
$GPRMC,000923.9,A,3243.066297,N,11705.238866,W,67.2,90.7,200510,,,A*7F
$GPRMC,000926.9,A,3243.066389,N,11705.173526,W,66.6,88.9,200510,,,A*73
$GPRMC,000929.9,A,3243.074462,N,11705.108498,W,64.5,80.0,200510,,,A*75
$GPRMC,000932.9,A,3243.088353,N,11705.046704,W,64.5,73.3,200510,,,A*7B
$GPRMC,000935.9,A,3243.109345,N,11704.988491,W,64.8,69.0,200510,,,A*73
$GPRMC,000938.9,A,3243.136594,N,11704.940737,W,58.6,58.9,200510,,,A*79
$GPRMC,000941.9,A,3243.173433,N,11704.895152,W,63.4,49.0,200510,,,A*75
$GPRMC,000944.9,A,3243.210239,N,11704.850232,W,62.4,47.9,200510,,,A*70
$GPRMC,000947.9,A,3243.243564,N,11704.806562,W,58.9,48.2,200510,,,A*7B
$GPRMC,000950.9,A,3243.274336,N,11704.765289,W,55.0,49.9,200510,,,A*7E
$GPRMC,000953.9,A,3243.304972,N,11704.725786,W,54.3,48.2,200510,,,A*77
$GPRMC,000956.9,A,3243.334511,N,11704.685064,W,54.0,49.1,200510,,,A*79
$GPRMC,000959.9,A,3243.363764,N,11704.645384,W,53.8,48.8,200510,,,A*72
$GPRMC,001002.9,A,3243.393434,N,11704.604594,W,55.1,49.0,200510,,,A*79
$GPRMC,001005.9,A,3243.423489,N,11704.562995,W,55.8,48.4,200510,,,A*76
$GPRMC,001008.9,A,3243.454430,N,11704.522093,W,55.6,48.4,200510,,,A*7C
$GPRMC,001011.9,A,3243.486824,N,11704.479581,W,57.0,48.4,200510,,,A*7F
$GPRMC,001014.9,A,3243.516812,N,11704.439415,W,55.6,48.2,200510,,,A*7D
$GPRMC,001017.9,A,3243.549484,N,11704.396404,W,57.0,48.4,200510,,,A*77
$GPRMC,001020.9,A,3243.576746,N,11704.354644,W,55.6,49.2,200510,,,A*79
$GPRMC,001023.9,A,3243.608227,N,11704.311490,W,57.2,52.0,200510,,,A*76
$GPRMC,001026.9,A,3243.634806,N,11704.265211,W,57.4,58.9,200510,,,A*7D
$GPRMC,001029.9,A,3243.657216,N,11704.213674,W,58.6,65.2,200510,,,A*72
$GPRMC,001032.9,A,3243.675323,N,11704.159472,W,60.4,67.1,200510,,,A*7E
$GPRMC,001035.9,A,3243.694977,N,11704.102645,W,61.6,67.5,200510,,,A*72
$GPRMC,001038.9,A,3243.714571,N,11704.046714,W,59.5,67.8,200510,,,A*7D
$GPRMC,001041.9,A,3243.732262,N,11703.992715,W,57.9,68.2,200510,,,A*73
$GPRMC,001044.9,A,3243.750961,N,11703.940584,W,57.8,67.0,200510,,,A*73
$GPRMC,001047.9,A,3243.773000,N,11703.886755,W,60.2,64.4,200510,,,A*73
$GPRMC,001050.9,A,3243.798002,N,11703.834776,W,60.8,60.3,200510,,,A*73
$GPRMC,001053.9,A,3243.825381,N,11703.781889,W,63.3,57.5,200510,,,A*75
$GPRMC,001056.9,A,3243.858924,N,11703.732188,W,65.1,52.7,200510,,,A*7C
$GPRMC,001059.9,A,3243.894818,N,11703.683740,W,64.0,50.5,200510,,,A*74
$GPRMC,001103.2,A,3243.931634,N,11703.630113,W,61.9,49.6,200510,,,A*70
$GPRMC,001106.2,A,3243.966440,N,11703.584848,W,61.8,47.4,200510,,,A*70
$GPRMC,001109.2,A,3244.004012,N,11703.540680,W,64.1,43.5,200510,,,A*7D
$GPRMC,001112.9,A,3244.054313,N,11703.490096,W,64.4,39.5,200510,,,A*7E
$GPRMC,001115.9,A,3244.095707,N,11703.450778,W,63.4,37.6,200510,,,A*74
$GPRMC,001118.9,A,3244.134126,N,11703.414624,W,60.0,37.8,200510,,,A*77
$GPRMC,001121.9,A,3244.176582,N,11703.377805,W,63.0,37.7,200510,,,A*72
$GPRMC,001124.9,A,3244.221487,N,11703.337471,W,66.6,38.0,200510,,,A*72
$GPRMC,001127.9,A,3244.264186,N,11703.296005,W,65.3,38.3,200510,,,A*7C
$GPRMC,001130.9,A,3244.306159,N,11703.258060,W,64.1,37.2,200510,,,A*71
$GPRMC,001133.9,A,3244.348014,N,11703.219052,W,63.7,38.1,200510,,,A*79
$GPRMC,001136.9,A,3244.391087,N,11703.179095,W,65.8,40.8,200510,,,A*73
$GPRMC,001139.9,A,3244.430266,N,11703.133788,W,64.7,46.5,200510,,,A*7D
$GPRMC,001142.9,A,3244.468142,N,11703.084527,W,66.5,48.5,200510,,,A*7D
$GPRMC,001145.9,A,3244.502053,N,11703.036761,W,64.1,48.0,200510,,,A*7C
$GPRMC,001148.9,A,3244.539216,N,11702.991466,W,61.6,46.5,200510,,,A*72
$GPRMC,001151.9,A,3244.571648,N,11702.948716,W,59.8,48.0,200510,,,A*77
$GPRMC,001154.9,A,3244.606080,N,11702.903258,W,62.3,47.8,200510,,,A*77
$GPRMC,001157.9,A,3244.639097,N,11702.857276,W,61.8,50.9,200510,,,A*7D
$GPRMC,001200.9,A,3244.664585,N,11702.802638,W,62.8,62.1,200510,,,A*76
$GPRMC,001203.9,A,3244.680597,N,11702.744743,W,63.0,75.1,200510,,,A*73
$GPRMC,001206.9,A,3244.686470,N,11702.681466,W,63.8,87.1,200510,,,A*71
$GPRMC,001209.9,A,3244.685330,N,11702.620411,W,62.1,91.7,200510,,,A*7C
$GPRMC,001212.9,A,3244.684763,N,11702.561660,W,60.0,91.4,200510,,,A*77
$GPRMC,001215.9,A,3244.684606,N,11702.501394,W,60.8,90.5,200510,,,A*72
$GPRMC,001218.9,A,3244.684118,N,11702.439139,W,63.3,90.6,200510,,,A*73
$GPRMC,001221.9,A,3244.683615,N,11702.376815,W,63.1,90.7,200510,,,A*7C
$GPRMC,001224.9,A,3244.685112,N,11702.314367,W,64.8,88.1,200510,,,A*74
$GPRMC,001227.9,A,3244.689907,N,11702.247734,W,67.6,84.7,200510,,,A*75
$GPRMC,001230.9,A,3244.696955,N,11702.180793,W,68.4,82.5,200510,,,A*76
$GPRMC,001233.9,A,3244.708740,N,11702.114129,W,69.0,77.1,200510,,,A*78
$GPRMC,001236.9,A,3244.724875,N,11702.047504,W,69.7,73.6,200510,,,A*72
$GPRMC,001239.9,A,3244.743223,N,11701.983698,W,67.5,72.1,200510,,,A*7B
$GPRMC,001242.9,A,3244.761596,N,11701.919213,W,68.6,72.1,200510,,,A*76
$GPRMC,001245.9,A,3244.778225,N,11701.854125,W,68.1,72.3,200510,,,A*7D
$GPRMC,001248.9,A,3244.795173,N,11701.789321,W,67.9,72.6,200510,,,A*78
$GPRMC,001251.9,A,3244.811547,N,11701.726293,W,66.0,75.8,200510,,,A*7C
$GPRMC,001254.9,A,3244.818552,N,11701.664932,W,63.2,82.7,200510,,,A*73
$GPRMC,001257.9,A,3244.821112,N,11701.603967,W,61.6,87.3,200510,,,A*7C
$GPRMC,001300.9,A,3244.817751,N,11701.543947,W,60.5,94.3,200510,,,A*7E
$GPRMC,001303.9,A,3244.812043,N,11701.484146,W,61.1,95.5,200510,,,A*7D
$GPRMC,001306.9,A,3244.807647,N,11701.425785,W,58.7,95.8,200510,,,A*7D
$GPRMC,001309.9,A,3244.802861,N,11701.368524,W,59.1,94.7,200510,,,A*73
$GPRMC,001312.9,A,3244.801849,N,11701.310789,W,58.4,89.2,200510,,,A*77
$GPRMC,001315.9,A,3244.806072,N,11701.252989,W,59.7,84.3,200510,,,A*70
$GPRMC,001318.9,A,3244.818804,N,11701.191825,W,63.8,75.0,200510,,,A*7B
$GPRMC,001321.9,A,3244.843104,N,11701.130169,W,68.0,64.7,200510,,,A*78
$GPRMC,001324.9,A,3244.877335,N,11701.076451,W,67.0,52.3,200510,,,A*79
$GPRMC,001327.9,A,3244.914268,N,11701.029610,W,66.6,47.1,200510,,,A*7B
$GPRMC,001330.9,A,3244.953657,N,11700.981713,W,66.8,45.8,200510,,,A*7B
$GPRMC,001333.9,A,3244.991237,N,11700.936446,W,64.8,44.9,200510,,,A*79
$GPRMC,001336.9,A,3245.028309,N,11700.888699,W,64.8,47.0,200510,,,A*74
$GPRMC,001339.9,A,3245.064192,N,11700.844228,W,62.3,46.7,200510,,,A*76
$GPRMC,001342.9,A,3245.100241,N,11700.802344,W,59.8,44.6,200510,,,A*7D
$GPRMC,001345.9,A,3245.134857,N,11700.763145,W,57.4,44.0,200510,,,A*7F
$GPRMC,001348.9,A,3245.170125,N,11700.723178,W,56.8,43.7,200510,,,A*79
$GPRMC,001351.9,A,3245.202984,N,11700.688379,W,54.6,43.2,200510,,,A*7E
$GPRMC,001354.9,A,3245.234254,N,11700.650494,W,53.5,44.6,200510,,,A*7E
$GPRMC,001357.2,A,3245.259018,N,11700.623042,W,52.9,43.5,200510,,,A*75
$GPRMC,001400.9,A,3245.296958,N,11700.580824,W,51.7,43.3,200510,,,A*7C
$GPRMC,001403.9,A,3245.329637,N,11700.542743,W,54.8,44.3,200510,,,A*71
$GPRMC,001406.9,A,3245.362235,N,11700.507103,W,54.0,43.6,200510,,,A*74
$GPRMC,001409.9,A,3245.395320,N,11700.470367,W,54.2,43.3,200510,,,A*70
$GPRMC,001412.9,A,3245.428150,N,11700.434870,W,53.0,43.6,200510,,,A*73
$GPRMC,001415.9,A,3245.457664,N,11700.398409,W,51.2,46.1,200510,,,A*7D
$GPRMC,001418.9,A,3245.485384,N,11700.362703,W,48.9,48.3,200510,,,A*77
$GPRMC,001421.9,A,3245.510121,N,11700.326192,W,48.0,49.1,200510,,,A*79
$GPRMC,001424.9,A,3245.538978,N,11700.287402,W,50.7,49.3,200510,,,A*78
$GPRMC,001427.9,A,3245.567440,N,11700.250778,W,51.2,47.1,200510,,,A*7B
$GPRMC,001430.9,A,3245.604577,N,11700.218966,W,55.0,38.2,200510,,,A*7E
$GPRMC,001433.2,A,3245.631554,N,11700.193460,W,54.9,37.3,200510,,,A*7C
$GPRMC,001436.2,A,3245.673643,N,11700.162394,W,58.9,31.3,200510,,,A*72
$GPRMC,001439.2,A,3245.719731,N,11700.139735,W,59.8,18.4,200510,,,A*79
$GPRMC,001442.2,A,3245.767086,N,11700.125215,W,57.4,12.5,200510,,,A*74
$GPRMC,001445.2,A,3245.814306,N,11700.116944,W,57.2,7.5,200510,,,A*4E
$GPRMC,001448.9,A,3245.874246,N,11700.114624,W,57.6,359.8,200510,,,A*41
$GPRMC,001451.9,A,3245.921375,N,11700.116481,W,57.3,356.7,200510,,,A*43
$GPRMC,001454.9,A,3245.968253,N,11700.119454,W,56.4,356.9,200510,,,A*41
$GPRMC,001457.9,A,3246.017406,N,11700.121708,W,58.3,359.6,200510,,,A*4E
$GPRMC,001500.9,A,3246.065887,N,11700.118698,W,58.1,3.9,200510,,,A*4E
$GPRMC,001503.9,A,3246.114529,N,11700.113000,W,59.1,6.5,200510,,,A*47
$GPRMC,001506.9,A,3246.164722,N,11700.108467,W,58.5,4.9,200510,,,A*48
$GPRMC,001509.9,A,3246.211211,N,11700.103415,W,55.0,5.3,200510,,,A*4E
$GPRMC,001512.9,A,3246.258182,N,11700.103245,W,53.4,0.9,200510,,,A*4E
$GPRMC,001515.9,A,3246.299299,N,11700.105491,W,50.2,356.7,200510,,,A*4F
$GPRMC,001518.9,A,3246.343775,N,11700.109259,W,53.8,352.5,200510,,,A*42
$GPRMC,001521.9,A,3246.388751,N,11700.120085,W,56.0,348.9,200510,,,A*4B
$GPRMC,001524.9,A,3246.434588,N,11700.131536,W,56.1,347.6,200510,,,A*44
$GPRMC,001527.9,A,3246.484317,N,11700.144866,W,59.7,347.7,200510,,,A*4E
$GPRMC,001530.9,A,3246.533504,N,11700.153028,W,60.2,353.2,200510,,,A*4A
$GPRMC,001533.9,A,3246.586511,N,11700.151074,W,63.8,5.6,200510,,,A*45
$GPRMC,001536.9,A,3246.637787,N,11700.136539,W,62.8,18.5,200510,,,A*77
$GPRMC,001539.9,A,3246.679959,N,11700.102420,W,60.5,39.1,200510,,,A*79
$GPRMC,001542.9,A,3246.710438,N,11700.056476,W,61.0,55.0,200510,,,A*7D
$GPRMC,001545.9,A,3246.734439,N,11700.001512,W,62.5,65.1,200510,,,A*78
$GPRMC,001548.9,A,3246.745391,N,11659.943683,W,59.2,78.6,200510,,,A*7B
$GPRMC,001551.9,A,3246.748680,N,11659.887002,W,56.7,87.5,200510,,,A*74
$GPRMC,001554.9,A,3246.745281,N,11659.828975,W,59.1,93.4,200510,,,A*78
$GPRMC,001557.9,A,3246.741047,N,11659.770550,W,61.0,93.8,200510,,,A*78
$GPRMC,001600.9,A,3246.740803,N,11659.706507,W,66.3,90.3,200510,,,A*7F
$GPRMC,001603.9,A,3246.738694,N,11659.642341,W,65.5,90.8,200510,,,A*78
$GPRMC,001606.9,A,3246.738970,N,11659.580049,W,63.0,90.5,200510,,,A*70
$GPRMC,001609.9,A,3246.738748,N,11659.521246,W,59.8,90.1,200510,,,A*79
$GPRMC,001612.9,A,3246.738543,N,11659.461000,W,61.2,91.1,200510,,,A*7F
$GPRMC,001615.9,A,3246.736674,N,11659.402062,W,60.1,92.3,200510,,,A*73
$GPRMC,001618.9,A,3246.735035,N,11659.342062,W,60.8,92.2,200510,,,A*75
$GPRMC,001621.9,A,3246.731268,N,11659.281274,W,63.6,93.0,200510,,,A*74
$GPRMC,001624.9,A,3246.730293,N,11659.221516,W,59.8,91.8,200510,,,A*70
$GPRMC,001627.9,A,3246.731350,N,11659.163904,W,60.4,87.5,200510,,,A*7A
$GPRMC,001630.9,A,3246.739496,N,11659.102374,W,64.3,79.7,200510,,,A*73
$GPRMC,001633.9,A,3246.759913,N,11659.044250,W,62.6,66.8,200510,,,A*70
$GPRMC,001636.9,A,3246.787915,N,11658.992820,W,60.2,55.8,200510,,,A*78
$GPRMC,001639.9,A,3246.821011,N,11658.951076,W,55.7,43.8,200510,,,A*79
$GPRMC,001642.9,A,3246.859746,N,11658.918839,W,57.2,33.6,200510,,,A*7F
$GPRMC,001645.9,A,3246.904215,N,11658.892590,W,57.6,26.1,200510,,,A*78
$GPRMC,001648.9,A,3246.947486,N,11658.869636,W,57.7,25.4,200510,,,A*72
$GPRMC,001651.9,A,3246.991777,N,11658.844026,W,59.0,25.8,200510,,,A*71
$GPRMC,001654.9,A,3247.036792,N,11658.818891,W,59.1,25.9,200510,,,A*77
$GPRMC,001657.9,A,3247.079059,N,11658.790357,W,59.4,30.3,200510,,,A*7A
$GPRMC,001700.9,A,3247.118763,N,11658.758300,W,60.2,33.2,200510,,,A*79
$GPRMC,001703.9,A,3247.164195,N,11658.723869,W,63.9,32.7,200510,,,A*7A
$GPRMC,001706.9,A,3247.213386,N,11658.692544,W,65.2,25.9,200510,,,A*70
$GPRMC,001709.9,A,3247.265906,N,11658.670070,W,65.3,19.7,200510,,,A*72
$GPRMC,001712.9,A,3247.318471,N,11658.660742,W,63.1,7.7,200510,,,A*42
$GPRMC,001715.9,A,3247.372807,N,11658.659827,W,64.2,1.7,200510,,,A*40
$GPRMC,001718.9,A,3247.426739,N,11658.660421,W,64.5,360.0,200510,,,A*4D
$GPRMC,001721.9,A,3247.480618,N,11658.659765,W,64.7,1.3,200510,,,A*45
$GPRMC,001724.9,A,3247.535971,N,11658.657373,W,67.9,4.5,200510,,,A*4C
$GPRMC,001727.9,A,3247.590790,N,11658.648241,W,65.3,7.2,200510,,,A*43
$GPRMC,001730.9,A,3247.642152,N,11658.640580,W,61.0,7.6,200510,,,A*40
$GPRMC,001733.9,A,3247.691615,N,11658.632724,W,60.3,8.2,200510,,,A*49
$GPRMC,001736.9,A,3247.741186,N,11658.626541,W,59.7,7.1,200510,,,A*4B
$GPRMC,001739.9,A,3247.793863,N,11658.617345,W,63.3,8.0,200510,,,A*4A
$GPRMC,001742.9,A,3247.847524,N,11658.607019,W,66.3,9.3,200510,,,A*42
$GPRMC,001745.9,A,3247.902551,N,11658.591173,W,68.1,15.0,200510,,,A*74
$GPRMC,001748.9,A,3247.952503,N,11658.567493,W,66.9,20.9,200510,,,A*70
$GPRMC,001751.9,A,3248.000128,N,11658.532777,W,67.1,31.9,200510,,,A*74
$GPRMC,001754.9,A,3248.043640,N,11658.493193,W,66.2,39.5,200510,,,A*7F
$GPRMC,001757.9,A,3248.081589,N,11658.450531,W,63.9,46.4,200510,,,A*70
$GPRMC,001800.9,A,3248.113551,N,11658.400603,W,63.2,54.6,200510,,,A*7F
$GPRMC,001803.9,A,3248.139698,N,11658.350105,W,60.7,60.9,200510,,,A*7F
$GPRMC,001806.9,A,3248.158060,N,11658.293366,W,59.5,69.9,200510,,,A*74
$GPRMC,001809.9,A,3248.171092,N,11658.237341,W,59.1,75.4,200510,,,A*72
$GPRMC,001812.9,A,3248.177522,N,11658.178576,W,60.4,83.6,200510,,,A*7E
$GPRMC,001815.9,A,3248.177578,N,11658.122697,W,56.1,90.0,200510,,,A*71
$GPRMC,001818.9,A,3248.177096,N,11658.070891,W,49.5,91.1,200510,,,A*7D
$GPRMC,001821.9,A,3248.177069,N,11658.026382,W,44.0,89.5,200510,,,A*78
$GPRMC,001824.9,A,3248.176794,N,11657.986647,W,40.2,90.5,200510,,,A*77
$GPRMC,001827.9,A,3248.176014,N,11657.948549,W,38.3,90.8,200510,,,A*77
$GPRMC,001830.9,A,3248.177634,N,11657.910730,W,37.2,88.7,200510,,,A*7D
$GPRMC,001833.9,A,3248.176755,N,11657.878394,W,31.5,91.6,200510,,,A*74
$GPRMC,001836.2,A,3248.176939,N,11657.858080,W,25.8,87.8,200510,,,A*7B
$GPRMC,001839.9,A,3248.176258,N,11657.837448,W,18.4,92.3,200510,,,A*77
$GPRMC,001842.9,A,3248.175997,N,11657.816054,W,23.4,90.9,200510,,,A*7A
$GPRMC,001845.9,A,3248.175657,N,11657.790603,W,25.7,91.3,200510,,,A*75
$GPRMC,001848.9,A,3248.176022,N,11657.763362,W,28.3,90.8,200510,,,A*72
$GPRMC,001851.9,A,3248.175987,N,11657.732560,W,29.7,91.6,200510,,,A*75
$GPRMC,001854.9,A,3248.175676,N,11657.705688,W,28.0,89.7,200510,,,A*7E
$GPRMC,001857.9,A,3248.174503,N,11657.678211,W,30.4,91.1,200510,,,A*70
$GPRMC,001900.9,A,3248.172582,N,11657.651787,W,25.0,94.1,200510,,,A*78
$GPRMC,001903.9,A,3248.173841,N,11657.630277,W,19.4,88.3,200510,,,A*71
$GPRMC,001906.9,A,3248.173106,N,11657.616424,W,12.3,90.3,200510,,,A*7F
$GPRMC,001909.9,A,3248.175009,N,11657.604742,W,13.1,83.0,200510,,,A*7A
$GPRMC,001912.9,A,3248.175714,N,11657.587082,W,19.0,88.7,200510,,,A*7F
$GPRMC,001915.9,A,3248.175905,N,11657.567391,W,20.3,92.5,200510,,,A*79
$GPRMC,001918.9,A,3248.176063,N,11657.546684,W,23.3,88.1,200510,,,A*70
$GPRMC,001921.9,A,3248.175828,N,11657.517706,W,32.1,89.4,200510,,,A*77
$GPRMC,001924.9,A,3248.176067,N,11657.483803,W,30.2,90.2,200510,,,A*7B
$GPRMC,001927.9,A,3248.176353,N,11657.458162,W,25.2,92.8,200510,,,A*78
$GPRMC,001930.9,A,3248.175272,N,11657.431624,W,27.0,93.2,200510,,,A*7E
$GPRMC,001933.9,A,3248.172567,N,11657.403875,W,28.6,93.7,200510,,,A*7E
$GPRMC,001936.9,A,3248.173012,N,11657.375235,W,29.1,90.2,200510,,,A*75
$GPRMC,001939.9,A,3248.172672,N,11657.348125,W,28.5,90.6,200510,,,A*76
$GPRMC,001942.9,A,3248.172593,N,11657.319481,W,28.6,90.0,200510,,,A*7C
$GPRMC,001945.9,A,3248.171591,N,11657.291562,W,27.7,90.4,200510,,,A*7D
$GPRMC,001948.9,A,3248.171441,N,11657.265846,W,25.7,92.0,200510,,,A*78
$GPRMC,001951.9,A,3248.170545,N,11657.241918,W,23.9,94.3,200510,,,A*75
$GPRMC,001954.9,A,3248.168209,N,11657.221132,W,21.4,96.3,200510,,,A*7D
$GPRMC,001957.9,A,3248.168724,N,11657.201542,W,19.0,92.8,200510,,,A*75
$GPRMC,002000.9,A,3248.166808,N,11657.181777,W,22.2,94.6,200510,,,A*7F
$GPRMC,002003.9,A,3248.166707,N,11657.158868,W,21.5,92.6,200510,,,A*7B
$GPRMC,002006.9,A,3248.165632,N,11657.137703,W,20.6,93.3,200510,,,A*77
$GPRMC,002009.9,A,3248.164239,N,11657.118731,W,19.3,93.5,200510,,,A*73
$GPRMC,002012.9,A,3248.162966,N,11657.098269,W,18.3,94.9,200510,,,A*75
$GPRMC,002015.9,A,3248.161168,N,11657.087301,W,10.2,96.2,200510,,,A*76
$GPRMC,002036.9,A,3248.159931,N,11657.072454,W,10.8,94.6,200510,,,A*79
$GPRMC,002039.9,A,3248.150990,N,11657.063485,W,13.0,147.3,200510,,,A*49
$GPRMC,002042.9,A,3248.134465,N,11657.060983,W,21.4,177.9,200510,,,A*44
$GPRMC,002045.9,A,3248.111481,N,11657.060408,W,28.8,179.6,200510,,,A*44
$GPRMC,002048.9,A,3248.084823,N,11657.062084,W,32.0,180.6,200510,,,A*47
$GPRMC,002051.9,A,3248.058330,N,11657.060408,W,30.8,177.2,200510,,,A*43
$GPRMC,002054.9,A,3248.034752,N,11657.058424,W,26.1,179.0,200510,,,A*4B
$GPRMC,002057.9,A,3248.020999,N,11657.057868,W,13.0,179.8,200510,,,A*40
$GPRMC,002100.9,A,3248.016738,N,11657.058727,W,5.9,191.2,200510,,,A*7A
$GPRMC,002224.9,A,3248.013379,N,11657.050975,W,4.7,123.4,200510,,,A*7A
$GPRMC,002227.9,A,3248.007860,N,11657.030203,W,15.9,103.5,200510,,,A*4E
$GPRMC,002230.9,A,3248.008193,N,11656.986190,W,30.6,89.7,200510,,,A*77
$GPRMC,002233.9,A,3248.008641,N,11656.952889,W,28.4,90.0,200510,,,A*70
$GPRMC,002236.9,A,3248.007826,N,11656.923653,W,27.3,91.1,200510,,,A*72
$GPRMC,002239.9,A,3248.008368,N,11656.896082,W,27.1,89.6,200510,,,A*7A
$GPRMC,002242.9,A,3248.009318,N,11656.871257,W,25.0,87.6,200510,,,A*7E
$GPRMC,002245.9,A,3248.009062,N,11656.846483,W,25.1,92.1,200510,,,A*7E
$GPRMC,002248.9,A,3248.008130,N,11656.821942,W,23.9,91.4,200510,,,A*7D
$GPRMC,002251.9,A,3248.008657,N,11656.799347,W,22.1,91.2,200510,,,A*7F
$GPRMC,002254.9,A,3248.008344,N,11656.777252,W,23.4,91.0,200510,,,A*7E
$GPRMC,002257.9,A,3248.007487,N,11656.752545,W,23.8,91.2,200510,,,A*72
$GPRMC,002300.9,A,3248.009179,N,11656.731033,W,21.4,88.9,200510,,,A*77
$GPRMC,002303.9,A,3248.009267,N,11656.710941,W,19.2,90.3,200510,,,A*79
$GPRMC,002306.9,A,3248.009524,N,11656.697470,W,12.8,86.9,200510,,,A*71
$GPRMC,002309.9,A,3248.008726,N,11656.690484,W,5.1,94.9,200510,,,A*4F
$GPRMC,002342.9,A,3248.007847,N,11656.685416,W,5.3,99.0,200510,,,A*4E
$GPRMC,002345.9,A,3248.008736,N,11656.670014,W,16.7,89.2,200510,,,A*76
$GPRMC,002348.9,A,3248.009022,N,11656.646958,W,24.7,88.8,200510,,,A*76
$GPRMC,002351.9,A,3248.009136,N,11656.615153,W,32.4,89.4,200510,,,A*76
$GPRMC,002354.9,A,3248.009516,N,11656.582231,W,35.1,89.7,200510,,,A*7E
$GPRMC,002357.9,A,3248.010346,N,11656.545236,W,35.9,89.4,200510,,,A*71
$GPRMC,002400.9,A,3248.009115,N,11656.513258,W,32.5,91.1,200510,,,A*74
$GPRMC,002403.9,A,3248.008625,N,11656.481605,W,31.1,90.3,200510,,,A*70
$GPRMC,002406.9,A,3248.009392,N,11656.453030,W,28.0,88.6,200510,,,A*77
$GPRMC,002409.9,A,3248.007894,N,11656.427850,W,26.3,92.0,200510,,,A*76
$GPRMC,002412.9,A,3248.009681,N,11656.399488,W,27.2,87.6,200510,,,A*71
$GPRMC,002415.9,A,3248.009648,N,11656.372653,W,27.7,90.0,200510,,,A*77
