NMEA Sentence Code,UTC Time,Status,Latitude,Latitude Direction,Longitude,Longitude Direction,Speed (knots),Track Angle (degrees true),Date,MagneticVariation,Magnetic Variation Direction,[FAA Mode]-Optional,Checksum
$GPRMC,034502.23,A,3343.1850,N,11622.4215,W,14.271,358.798,311210,0,W,A*1C
$GPRMC,034505.23,A,3343.1999,N,11622.4214,W,19.248,0.157,311210,0,W,A*12
$GPRMC,034508.23,A,3343.2183,N,11622.4216,W,22.384,1.180,311210,0,W,A*1F
$GPRMC,034511.23,A,3343.2365,N,11622.4204,W,19.519,8.871,311210,0,W,A*1A
$GPRMC,034514.23,A,3343.2507,N,11622.4184,W,13.906,1.472,311210,0,W,A*18
$GPRMC,034517.23,A,3343.2580,N,11622.4180,W,6.345,3.583,311210,0,W,A*24
$GPRMC,034529.23,A,3343.2655,N,11622.4061,W,16.523,77.529,311210,0,W,A*28
$GPRMC,034532.23,A,3343.2678,N,11622.3844,W,25.431,86.497,311210,0,W,A*2D
$GPRMC,034535.23,A,3343.2685,N,11622.3550,W,30.539,88.983,311210,0,W,A*2B
$GPRMC,034538.23,A,3343.2698,N,11622.3229,W,32.018,88.248,311210,0,W,A*2B
$GPRMC,034541.23,A,3343.2707,N,11622.2881,W,35.596,88.011,311210,0,W,A*21
$GPRMC,034544.23,A,3343.2712,N,11622.2505,W,36.906,89.679,311210,0,W,A*2E
$GPRMC,034547.23,A,3343.2715,N,11622.2135,W,36.077,89.037,311210,0,W,A*2E
$GPRMC,034550.23,A,3343.2718,N,11622.1760,W,37.494,89.454,311210,0,W,A*29
$GPRMC,034553.23,A,3343.2721,N,11622.1381,W,36.803,89.678,311210,0,W,A*24
$GPRMC,034556.23,A,3343.2728,N,11622.1016,W,36.292,88.960,311210,0,W,A*20
$GPRMC,034559.23,A,3343.2735,N,11622.0663,W,34.218,88.838,311210,0,W,A*2A
$GPRMC,034602.23,A,3343.2746,N,11622.0322,W,33.648,88.294,311210,0,W,A*29
$GPRMC,034605.23,A,3343.2752,N,11621.9999,W,30.404,89.059,311210,0,W,A*20
$GPRMC,034608.23,A,3343.2754,N,11621.9708,W,27.590,89.257,311210,0,W,A*2B
$GPRMC,034611.23,A,3343.2755,N,11621.9457,W,21.413,91.394,311210,0,W,A*20
$GPRMC,034614.23,A,3343.2756,N,11621.9289,W,13.116,89.554,311210,0,W,A*21
$GPRMC,034617.23,A,3343.2753,N,11621.9204,W,4.936,85.870,311210,0,W,A*19
$GPRMC,034650.23,A,3343.2764,N,11621.9130,W,9.883,89.329,311210,0,W,A*13
$GPRMC,034653.23,A,3343.2764,N,11621.8999,W,16.498,89.411,311210,0,W,A*2E
$GPRMC,034656.23,A,3343.2763,N,11621.8791,W,24.355,89.360,311210,0,W,A*2C
$GPRMC,034659.23,A,3343.2766,N,11621.8519,W,29.363,89.911,311210,0,W,A*20
$GPRMC,034702.23,A,3343.2768,N,11621.8210,W,31.793,90.305,311210,0,W,A*2A
$GPRMC,034705.23,A,3343.2764,N,11621.7886,W,32.191,90.132,311210,0,W,A*2A
$GPRMC,034708.23,A,3343.2767,N,11621.7566,W,31.790,89.432,311210,0,W,A*2E
$GPRMC,034711.23,A,3343.2769,N,11621.7238,W,33.012,89.272,311210,0,W,A*29
$GPRMC,034714.23,A,3343.2768,N,11621.6906,W,34.245,90.176,311210,0,W,A*22
$GPRMC,034717.23,A,3343.2767,N,11621.6564,W,32.957,89.891,311210,0,W,A*20
$GPRMC,034720.23,A,3343.2770,N,11621.6246,W,31.067,89.832,311210,0,W,A*25
$GPRMC,034723.23,A,3343.2772,N,11621.5945,W,29.640,89.044,311210,0,W,A*2C
$GPRMC,034726.23,A,3343.2773,N,11621.5640,W,32.416,89.599,311210,0,W,A*2C
$GPRMC,034729.23,A,3343.2781,N,11621.5289,W,37.282,87.886,311210,0,W,A*2C
$GPRMC,034732.23,A,3343.2799,N,11621.4916,W,36.548,86.479,311210,0,W,A*2E
$GPRMC,034735.23,A,3343.2813,N,11621.4561,W,34.208,89.035,311210,0,W,A*2A
$GPRMC,034738.23,A,3343.2815,N,11621.4252,W,27.009,90.385,311210,0,W,A*27
$GPRMC,034741.23,A,3343.2814,N,11621.4032,W,18.073,90.968,311210,0,W,A*24
$GPRMC,034744.23,A,3343.2817,N,11621.3909,W,8.087,86.533,311210,0,W,A*1B
$GPRMC,034756.23,A,3343.2819,N,11621.3785,W,15.907,92.238,311210,0,W,A*28
$GPRMC,034759.23,A,3343.2823,N,11621.3553,W,28.750,89.625,311210,0,W,A*27
$GPRMC,034802.23,A,3343.2825,N,11621.3225,W,35.082,90.007,311210,0,W,A*2C
$GPRMC,034805.23,A,3343.2825,N,11621.2854,W,38.146,90.176,311210,0,W,A*25
$GPRMC,034808.23,A,3343.2828,N,11621.2464,W,38.640,89.679,311210,0,W,A*2B
$GPRMC,034811.23,A,3343.2832,N,11621.2065,W,41.887,89.260,311210,0,W,A*2A
$GPRMC,034814.23,A,3343.2832,N,11621.1636,W,42.356,89.617,311210,0,W,A*2C
$GPRMC,034817.23,A,3343.2832,N,11621.1217,W,42.282,89.623,311210,0,W,A*27
$GPRMC,034820.23,A,3343.2835,N,11621.0784,W,43.720,89.681,311210,0,W,A*2E
$GPRMC,034823.23,A,3343.2841,N,11621.0336,W,45.081,89.900,311210,0,W,A*2F
$GPRMC,034826.23,A,3343.2844,N,11620.9881,W,45.137,89.500,311210,0,W,A*20
$GPRMC,034829.23,A,3343.2846,N,11620.9434,W,44.339,89.861,311210,0,W,A*28
$GPRMC,034832.23,A,3343.2849,N,11620.8989,W,43.857,89.660,311210,0,W,A*2C
$GPRMC,034835.23,A,3343.2850,N,11620.8546,W,44.529,89.797,311210,0,W,A*26
$GPRMC,034838.23,A,3343.2851,N,11620.8096,W,45.571,89.820,311210,0,W,A*2D
$GPRMC,034841.23,A,3343.2855,N,11620.7637,W,46.049,89.782,311210,0,W,A*2F
$GPRMC,034844.23,A,3343.2857,N,11620.7164,W,47.942,89.574,311210,0,W,A*21
$GPRMC,034847.23,A,3343.2860,N,11620.6681,W,47.771,89.389,311210,0,W,A*21
$GPRMC,034850.23,A,3343.2864,N,11620.6203,W,48.044,89.456,311210,0,W,A*26
$GPRMC,034853.23,A,3343.2868,N,11620.5722,W,48.020,89.597,311210,0,W,A*22
$GPRMC,034856.23,A,3343.2871,N,11620.5243,W,47.351,89.711,311210,0,W,A*2B
$GPRMC,034859.23,A,3343.2872,N,11620.4775,W,46.924,89.835,311210,0,W,A*26
$GPRMC,034902.23,A,3343.2874,N,11620.4311,W,45.698,89.307,311210,0,W,A*28
$GPRMC,034905.23,A,3343.2876,N,11620.3862,W,45.081,89.788,311210,0,W,A*28
$GPRMC,034908.23,A,3343.2876,N,11620.3404,W,47.017,89.686,311210,0,W,A*2B
$GPRMC,034911.23,A,3343.2878,N,11620.2940,W,46.529,89.722,311210,0,W,A*27
$GPRMC,034914.23,A,3343.2882,N,11620.2469,W,47.709,89.435,311210,0,W,A*25
$GPRMC,034917.23,A,3343.2886,N,11620.1989,W,47.806,89.490,311210,0,W,A*2D
$GPRMC,034920.23,A,3343.2889,N,11620.1512,W,47.591,89.596,311210,0,W,A*2C
$GPRMC,034923.23,A,3343.2892,N,11620.1032,W,48.177,89.636,311210,0,W,A*28
$GPRMC,034926.23,A,3343.2896,N,11620.0554,W,48.005,89.776,311210,0,W,A*2C
$GPRMC,034929.23,A,3343.2900,N,11620.0076,W,47.586,89.603,311210,0,W,A*2A
$GPRMC,034932.23,A,3343.2902,N,11619.9604,W,47.030,89.739,311210,0,W,A*22
$GPRMC,034935.23,A,3343.2905,N,11619.9130,W,47.653,89.499,311210,0,W,A*28
$GPRMC,034938.23,A,3343.2907,N,11619.8658,W,46.242,89.915,311210,0,W,A*23
$GPRMC,034941.23,A,3343.2909,N,11619.8205,W,45.159,89.706,311210,0,W,A*29
$GPRMC,034944.23,A,3343.2912,N,11619.7745,W,46.259,89.461,311210,0,W,A*2A
$GPRMC,034947.23,A,3343.2916,N,11619.7284,W,46.132,89.611,311210,0,W,A*2E
$GPRMC,034950.23,A,3343.2918,N,11619.6816,W,47.620,89.741,311210,0,W,A*27
$GPRMC,034953.23,A,3343.2921,N,11619.6342,W,46.533,89.646,311210,0,W,A*22
$GPRMC,034956.23,A,3343.2923,N,11619.5886,W,45.133,89.699,311210,0,W,A*20
$GPRMC,034959.23,A,3343.2925,N,11619.5432,W,45.772,89.600,311210,0,W,A*29
$GPRMC,035002.23,A,3343.2927,N,11619.4971,W,46.461,90.466,311210,0,W,A*2E
$GPRMC,035005.23,A,3343.2917,N,11619.4497,W,48.010,92.393,311210,0,W,A*2C
$GPRMC,035008.23,A,3343.2887,N,11619.4016,W,48.548,95.143,311210,0,W,A*24
$GPRMC,035011.23,A,3343.2844,N,11619.3530,W,48.834,95.869,311210,0,W,A*22
$GPRMC,035014.23,A,3343.2802,N,11619.3045,W,48.341,95.432,311210,0,W,A*29
$GPRMC,035017.23,A,3343.2762,N,11619.2563,W,48.820,95.797,311210,0,W,A*23
$GPRMC,035020.23,A,3343.2723,N,11619.2081,W,47.950,95.011,311210,0,W,A*2B
$GPRMC,035023.23,A,3343.2692,N,11619.1612,W,45.657,94.933,311210,0,W,A*2E
$GPRMC,035026.23,A,3343.2661,N,11619.1187,W,40.237,95.009,311210,0,W,A*2A
$GPRMC,035029.23,A,3343.2637,N,11619.0873,W,22.437,93.610,311210,0,W,A*2F
$GPRMC,035032.23,A,3343.2624,N,11619.0712,W,11.213,97.155,311210,0,W,A*2D
$GPRMC,035217.23,A,3343.2615,N,11619.0653,W,4.541,87.311,311210,0,W,A*19
$GPRMC,035220.23,A,3343.2641,N,11619.0557,W,13.747,56.068,311210,0,W,A*28
$GPRMC,035223.23,A,3343.2764,N,11619.0475,W,21.528,12.479,311210,0,W,A*22
$GPRMC,035226.23,A,3343.2984,N,11619.0445,W,30.573,6.574,311210,0,W,A*13
$GPRMC,035229.23,A,3343.3257,N,11619.0391,W,34.752,14.841,311210,0,W,A*2B
$GPRMC,035232.23,A,3343.3529,N,11619.0237,W,37.714,35.491,311210,0,W,A*21
$GPRMC,035235.23,A,3343.3758,N,11618.9956,W,39.602,54.931,311210,0,W,A*2E
$GPRMC,035238.23,A,3343.3892,N,11618.9594,W,38.877,74.424,311210,0,W,A*2E
$GPRMC,035241.23,A,3343.3913,N,11618.9214,W,37.686,95.576,311210,0,W,A*21
$GPRMC,035244.23,A,3343.3841,N,11618.8831,W,40.345,106.987,311210,0,W,A*1D
$GPRMC,035247.23,A,3343.3746,N,11618.8432,W,41.209,106.234,311210,0,W,A*12
$GPRMC,035250.23,A,3343.3650,N,11618.8039,W,40.298,106.094,311210,0,W,A*1C
$GPRMC,035253.23,A,3343.3557,N,11618.7656,W,38.686,105.770,311210,0,W,A*11
$GPRMC,035256.23,A,3343.3467,N,11618.7291,W,37.667,106.221,311210,0,W,A*1B
$GPRMC,035259.23,A,3343.3378,N,11618.6922,W,38.299,105.635,311210,0,W,A*17
$GPRMC,035302.23,A,3343.3292,N,11618.6548,W,39.372,104.653,311210,0,W,A*19
$GPRMC,035305.23,A,3343.3209,N,11618.6160,W,40.164,103.165,311210,0,W,A*1C
$GPRMC,035308.23,A,3343.3140,N,11618.5767,W,40.475,100.997,311210,0,W,A*1E
$GPRMC,035311.23,A,3343.3084,N,11618.5366,W,40.611,98.468,311210,0,W,A*27
$GPRMC,035314.23,A,3343.3039,N,11618.4967,W,40.030,96.615,311210,0,W,A*2D
$GPRMC,035317.23,A,3343.3011,N,11618.4567,W,40.240,93.778,311210,0,W,A*22
$GPRMC,035320.23,A,3343.2998,N,11618.4159,W,41.144,91.359,311210,0,W,A*25
$GPRMC,035323.23,A,3343.2997,N,11618.3741,W,41.855,89.663,311210,0,W,A*2D
$GPRMC,035326.23,A,3343.3001,N,11618.3317,W,42.876,89.637,311210,0,W,A*2B
$GPRMC,035329.23,A,3343.3003,N,11618.2882,W,43.795,89.876,311210,0,W,A*28
$GPRMC,035332.23,A,3343.3003,N,11618.2445,W,43.743,90.044,311210,0,W,A*2F
$GPRMC,035335.23,A,3343.3006,N,11618.2005,W,43.951,89.299,311210,0,W,A*2A
$GPRMC,035338.23,A,3343.3010,N,11618.1564,W,44.167,89.386,311210,0,W,A*24
$GPRMC,035341.23,A,3343.3013,N,11618.1125,W,42.827,89.658,311210,0,W,A*25
$GPRMC,035344.23,A,3343.3015,N,11618.0709,W,40.649,88.762,311210,0,W,A*22
$GPRMC,035347.23,A,3343.3021,N,11618.0314,W,38.377,89.387,311210,0,W,A*27
$GPRMC,035350.23,A,3343.3023,N,11617.9938,W,36.659,89.277,311210,0,W,A*28
$GPRMC,035353.23,A,3343.3024,N,11617.9582,W,34.708,89.894,311210,0,W,A*21
$GPRMC,035356.23,A,3343.3023,N,11617.9258,W,30.307,90.062,311210,0,W,A*25
$GPRMC,035359.23,A,3343.3026,N,11617.8998,W,22.031,87.735,311210,0,W,A*2F
$GPRMC,035402.23,A,3343.3024,N,11617.8823,W,14.102,91.652,311210,0,W,A*26
$GPRMC,035429.23,A,3343.3023,N,11617.8708,W,10.109,90.299,311210,0,W,A*23
$GPRMC,035432.23,A,3343.3024,N,11617.8552,W,21.386,90.319,311210,0,W,A*2D
$GPRMC,035435.23,A,3343.3028,N,11617.8303,W,28.096,88.926,311210,0,W,A*20
$GPRMC,035438.23,A,3343.3032,N,11617.7993,W,33.720,89.179,311210,0,W,A*29
$GPRMC,035441.23,A,3343.3037,N,11617.7631,W,37.257,88.950,311210,0,W,A*26
$GPRMC,035444.23,A,3343.3041,N,11617.7250,W,37.229,89.299,311210,0,W,A*27
$GPRMC,035447.23,A,3343.3044,N,11617.6869,W,38.636,89.661,311210,0,W,A*26
$GPRMC,035450.23,A,3343.3047,N,11617.6474,W,40.057,89.366,311210,0,W,A*2F
$GPRMC,035453.23,A,3343.3051,N,11617.6062,W,42.171,89.722,311210,0,W,A*2B
$GPRMC,035456.23,A,3343.3053,N,11617.5650,W,37.128,90.261,311210,0,W,A*2C
$GPRMC,035459.23,A,3343.3056,N,11617.5343,W,23.847,87.771,311210,0,W,A*26
$GPRMC,035502.23,A,3343.3056,N,11617.5169,W,13.086,90.445,311210,0,W,A*27
$GPRMC,035517.23,A,3343.3063,N,11617.5082,W,7.429,87.477,311210,0,W,A*12
$GPRMC,035520.23,A,3343.3064,N,11617.4932,W,20.418,87.629,311210,0,W,A*2C
$GPRMC,035523.23,A,3343.3068,N,11617.4672,W,29.833,89.239,311210,0,W,A*2F
$GPRMC,035526.23,A,3343.3069,N,11617.4345,W,34.694,90.081,311210,0,W,A*2C
$GPRMC,035529.23,A,3343.3072,N,11617.3982,W,36.273,89.594,311210,0,W,A*29
$GPRMC,035532.23,A,3343.3075,N,11617.3623,W,35.310,89.864,311210,0,W,A*25
$GPRMC,035535.23,A,3343.3076,N,11617.3257,W,36.986,89.163,311210,0,W,A*2E
$GPRMC,035538.23,A,3343.3079,N,11617.2892,W,35.355,89.285,311210,0,W,A*22
$GPRMC,035541.23,A,3343.3083,N,11617.2547,W,33.151,89.201,311210,0,W,A*20
$GPRMC,035544.23,A,3343.3083,N,11617.2234,W,28.451,89.290,311210,0,W,A*21
$GPRMC,035547.23,A,3343.3082,N,11617.1985,W,20.821,90.589,311210,0,W,A*25
$GPRMC,035550.23,A,3343.3081,N,11617.1851,W,7.813,84.492,311210,0,W,A*12
$GPRMC,035605.23,A,3343.3076,N,11617.1761,W,13.914,90.388,311210,0,W,A*2F
$GPRMC,035608.23,A,3343.3073,N,11617.1567,W,25.229,90.531,311210,0,W,A*27
$GPRMC,035611.23,A,3343.3073,N,11617.1271,W,32.248,90.119,311210,0,W,A*20
$GPRMC,035614.23,A,3343.3072,N,11617.0924,W,35.331,89.683,311210,0,W,A*2A
$GPRMC,035617.23,A,3343.3071,N,11617.0565,W,35.959,89.634,311210,0,W,A*2B
$GPRMC,035620.23,A,3343.3074,N,11617.0187,W,38.139,89.852,311210,0,W,A*2F
$GPRMC,035623.23,A,3343.3074,N,11616.9839,W,30.886,90.171,311210,0,W,A*2D
$GPRMC,035626.23,A,3343.3072,N,11616.9575,W,20.797,92.187,311210,0,W,A*2E
$GPRMC,035629.23,A,3343.3067,N,11616.9428,W,11.135,105.654,311210,0,W,A*16
$GPRMC,035632.23,A,3343.2992,N,11616.9365,W,13.549,170.240,311210,0,W,A*1E
$GPRMC,035635.23,A,3343.2830,N,11616.9373,W,22.210,181.639,311210,0,W,A*1A
$GPRMC,035638.23,A,3343.2627,N,11616.9381,W,23.818,180.314,311210,0,W,A*1A
$GPRMC,035641.23,A,3343.2439,N,11616.9385,W,19.233,179.994,311210,0,W,A*13
$GPRMC,035644.23,A,3343.2318,N,11616.9405,W,9.228,211.614,311210,0,W,A*2C
$GPRMC,035647.23,A,3343.2276,N,11616.9485,W,11.080,257.625,311210,0,W,A*17
$GPRMC,035650.23,A,3343.2271,N,11616.9641,W,18.100,269.882,311210,0,W,A*12
$GPRMC,035653.23,A,3343.2274,N,11616.9841,W,19.745,269.848,311210,0,W,A*1A
$GPRMC,035656.23,A,3343.2274,N,11617.0041,W,18.982,269.583,311210,0,W,A*11
$GPRMC,035659.23,A,3343.2275,N,11617.0233,W,16.876,272.008,311210,0,W,A*10
$GPRMC,035702.23,A,3343.2279,N,11617.0383,W,14.251,272.215,311210,0,W,A*1A
$GPRMC,035705.23,A,3343.2286,N,11617.0534,W,14.490,276.623,311210,0,W,A*19
$GPRMC,035708.23,A,3343.2298,N,11617.0635,W,4.971,282.298,311210,0,W,A*25
$GPRMC,035711.23,A,3343.2326,N,11617.0675,W,7.797,325.306,311210,0,W,A*22
$GPRMC,035714.23,A,3343.2408,N,11617.0696,W,12.868,359.921,311210,0,W,A*1E
$GPRMC,035717.23,A,3343.2532,N,11617.0686,W,15.670,2.738,311210,0,W,A*1F
$GPRMC,035720.23,A,3343.2658,N,11617.0691,W,14.033,350.353,311210,0,W,A*1F
$GPRMC,035723.23,A,3343.2747,N,11617.0766,W,12.914,296.248,311210,0,W,A*10
$GPRMC,035726.23,A,3343.2757,N,11617.0901,W,14.230,266.180,311210,0,W,A*18
$GPRMC,035729.23,A,3343.2758,N,11617.1062,W,15.462,268.783,311210,0,W,A*1E
$GPRMC,035732.23,A,3343.2762,N,11617.1208,W,13.182,280.961,311210,0,W,A*1A
$GPRMC,035735.23,A,3343.2792,N,11617.1320,W,9.588,290.768,311210,0,W,A*2A
$GPRMC,035738.23,A,3343.2784,N,11617.1380,W,5.854,215.904,311210,0,W,A*23
$GPRMC,035741.23,A,3343.2737,N,11617.1359,W,7.093,112.452,311210,0,W,A*2A
$GPRMC,035744.23,A,3343.2755,N,11617.1285,W,8.066,57.953,311210,0,W,A*12
$GPRMC,035747.23,A,3343.2775,N,11617.1209,W,5.688,86.031,311210,0,W,A*1D
$GPRMC,040059.23,A,3343.2772,N,11617.1092,W,4.403,93.509,311210,0,W,A*1A
$GPRMC,040102.23,A,3343.2769,N,11617.1035,W,7.907,95.171,311210,0,W,A*15
$GPRMC,040105.23,A,3343.2761,N,11617.0921,W,13.602,92.664,311210,0,W,A*2C
$GPRMC,040108.23,A,3343.2746,N,11617.0789,W,12.132,111.953,311210,0,W,A*1C
$GPRMC,040111.23,A,3343.2671,N,11617.0722,W,9.935,173.851,311210,0,W,A*22
$GPRMC,040235.23,A,3343.2603,N,11617.0717,W,4.636,177.053,311210,0,W,A*2B
$GPRMC,040238.23,A,3343.2526,N,11617.0709,W,13.014,171.827,311210,0,W,A*10
$GPRMC,040241.23,A,3343.2400,N,11617.0697,W,15.140,174.898,311210,0,W,A*1A
$GPRMC,040244.23,A,3343.2301,N,11617.0649,W,12.255,133.107,311210,0,W,A*16
$GPRMC,040247.23,A,3343.2268,N,11617.0511,W,17.172,93.891,311210,0,W,A*2B
$GPRMC,040250.23,A,3343.2268,N,11617.0316,W,20.638,91.766,311210,0,W,A*24
$GPRMC,040253.23,A,3343.2267,N,11617.0102,W,20.806,90.119,311210,0,W,A*23
$GPRMC,040256.23,A,3343.2267,N,11616.9901,W,19.135,90.181,311210,0,W,A*27
$GPRMC,040259.23,A,3343.2270,N,11616.9697,W,20.937,89.936,311210,0,W,A*22
$GPRMC,040302.23,A,3343.2271,N,11616.9512,W,14.116,88.098,311210,0,W,A*22
$GPRMC,040308.23,A,3343.2288,N,11616.9399,W,8.417,48.291,311210,0,W,A*15
$GPRMC,040311.23,A,3343.2389,N,11616.9365,W,17.660,2.463,311210,0,W,A*17
$GPRMC,040314.23,A,3343.2574,N,11616.9361,W,24.367,359.795,311210,0,W,A*17
$GPRMC,040317.23,A,3343.2786,N,11616.9363,W,23.943,0.701,311210,0,W,A*10
$GPRMC,040320.23,A,3343.2964,N,11616.9361,W,16.384,1.579,311210,0,W,A*1F
$GPRMC,040326.23,A,3343.3075,N,11616.9365,W,6.959,352.544,311210,0,W,A*25
$GPRMC,040329.23,A,3343.3145,N,11616.9447,W,16.894,298.507,311210,0,W,A*1E
$GPRMC,040332.23,A,3343.3175,N,11616.9669,W,27.034,272.646,311210,0,W,A*1B
$GPRMC,040335.23,A,3343.3178,N,11616.9981,W,32.372,270.061,311210,0,W,A*1C
$GPRMC,040338.23,A,3343.3174,N,11617.0323,W,34.034,269.385,311210,0,W,A*11
$GPRMC,040341.23,A,3343.3171,N,11617.0663,W,32.068,269.489,311210,0,W,A*1F
$GPRMC,040344.23,A,3343.3168,N,11617.0973,W,28.792,269.701,311210,0,W,A*16
$GPRMC,040347.23,A,3343.3167,N,11617.1250,W,25.406,269.417,311210,0,W,A*16
$GPRMC,040350.23,A,3343.3164,N,11617.1472,W,17.924,268.074,311210,0,W,A*19
$GPRMC,040353.23,A,3343.3160,N,11617.1606,W,8.874,265.165,311210,0,W,A*29
$GPRMC,040402.23,A,3343.3157,N,11617.1699,W,12.095,269.657,311210,0,W,A*1E
$GPRMC,040405.23,A,3343.3154,N,11617.1882,W,23.104,268.339,311210,0,W,A*19
$GPRMC,040408.23,A,3343.3154,N,11617.2165,W,31.860,269.258,311210,0,W,A*18
$GPRMC,040411.23,A,3343.3153,N,11617.2510,W,35.925,270.134,311210,0,W,A*14
$GPRMC,040414.23,A,3343.3155,N,11617.2875,W,35.183,269.716,311210,0,W,A*13
$GPRMC,040417.23,A,3343.3152,N,11617.3240,W,37.095,269.446,311210,0,W,A*18
$GPRMC,040420.23,A,3343.3145,N,11617.3624,W,39.002,269.857,311210,0,W,A*10
$GPRMC,040423.23,A,3343.3139,N,11617.4014,W,36.924,269.403,311210,0,W,A*15
$GPRMC,040426.23,A,3343.3137,N,11617.4362,W,31.611,269.417,311210,0,W,A*17
$GPRMC,040429.23,A,3343.3138,N,11617.4640,W,23.506,269.765,311210,0,W,A*12
$GPRMC,040432.23,A,3343.3135,N,11617.4829,W,14.204,269.094,311210,0,W,A*1C
$GPRMC,040441.23,A,3343.3139,N,11617.4960,W,12.088,271.062,311210,0,W,A*18
$GPRMC,040444.23,A,3343.3138,N,11617.5138,W,22.872,269.756,311210,0,W,A*1F
$GPRMC,040447.23,A,3343.3136,N,11617.5410,W,30.584,269.846,311210,0,W,A*14
$GPRMC,040450.23,A,3343.3131,N,11617.5739,W,34.339,269.157,311210,0,W,A*10
$GPRMC,040453.23,A,3343.3125,N,11617.6102,W,36.166,269.615,311210,0,W,A*10
$GPRMC,040456.23,A,3343.3123,N,11617.6477,W,37.845,269.669,311210,0,W,A*16
$GPRMC,040459.23,A,3343.3118,N,11617.6862,W,38.114,269.760,311210,0,W,A*13
$GPRMC,040502.23,A,3343.3116,N,11617.7246,W,37.808,269.785,311210,0,W,A*1F
$GPRMC,040505.23,A,3343.3113,N,11617.7618,W,35.839,269.419,311210,0,W,A*14
$GPRMC,040508.23,A,3343.3114,N,11617.7969,W,32.685,271.111,311210,0,W,A*1D
$GPRMC,040511.23,A,3343.3115,N,11617.8271,W,27.464,270.455,311210,0,W,A*14
$GPRMC,040514.23,A,3343.3116,N,11617.8492,W,16.398,269.726,311210,0,W,A*10
$GPRMC,040517.23,A,3343.3118,N,11617.8591,W,4.405,265.847,311210,0,W,A*2B
$GPRMC,040538.23,A,3343.3125,N,11617.8649,W,9.916,301.707,311210,0,W,A*24
$GPRMC,040541.23,A,3343.3232,N,11617.8771,W,22.999,314.820,311210,0,W,A*15
$GPRMC,040544.23,A,3343.3398,N,11617.8970,W,30.300,314.629,311210,0,W,A*10
$GPRMC,040547.23,A,3343.3587,N,11617.9209,W,33.645,312.601,311210,0,W,A*14
$GPRMC,040550.23,A,3343.3791,N,11617.9472,W,36.713,312.924,311210,0,W,A*12
$GPRMC,040553.23,A,3343.4004,N,11617.9753,W,37.903,312.458,311210,0,W,A*15
$GPRMC,040556.23,A,3343.4225,N,11618.0031,W,37.037,313.783,311210,0,W,A*1E
$GPRMC,040559.23,A,3343.4445,N,11618.0297,W,37.498,314.508,311210,0,W,A*18
$GPRMC,040602.23,A,3343.4674,N,11618.0572,W,39.755,314.550,311210,0,W,A*18
$GPRMC,040605.23,A,3343.4918,N,11618.0868,W,42.158,314.791,311210,0,W,A*14
$GPRMC,040608.23,A,3343.5171,N,11618.1172,W,42.551,315.071,311210,0,W,A*19
$GPRMC,040611.23,A,3343.5441,N,11618.1465,W,43.902,320.338,311210,0,W,A*17
$GPRMC,040614.23,A,3343.5744,N,11618.1723,W,43.772,327.611,311210,0,W,A*15
$GPRMC,040617.23,A,3343.6056,N,11618.1933,W,41.430,333.211,311210,0,W,A*18
$GPRMC,040620.23,A,3343.6364,N,11618.2100,W,38.784,336.126,311210,0,W,A*15
$GPRMC,040623.23,A,3343.6655,N,11618.2230,W,34.596,343.392,311210,0,W,A*13
$GPRMC,040626.23,A,3343.6924,N,11618.2313,W,31.423,346.736,311210,0,W,A*1A
$GPRMC,040629.23,A,3343.7150,N,11618.2359,W,22.632,352.860,311210,0,W,A*18
$GPRMC,040632.23,A,3343.7287,N,11618.2367,W,11.021,356.389,311210,0,W,A*1A
$GPRMC,040720.23,A,3343.7356,N,11618.2368,W,8.392,345.313,311210,0,W,A*28
$GPRMC,040723.23,A,3343.7442,N,11618.2430,W,14.230,306.475,311210,0,W,A*17
$GPRMC,040726.23,A,3343.7467,N,11618.2588,W,20.373,269.788,311210,0,W,A*1F
$GPRMC,040729.23,A,3343.7462,N,11618.2846,W,29.991,270.206,311210,0,W,A*1E
$GPRMC,040732.23,A,3343.7461,N,11618.3174,W,34.407,270.114,311210,0,W,A*10
$GPRMC,040735.23,A,3343.7458,N,11618.3540,W,37.090,270.096,311210,0,W,A*1C
$GPRMC,040738.23,A,3343.7455,N,11618.3927,W,38.666,269.441,311210,0,W,A*17
$GPRMC,040741.23,A,3343.7450,N,11618.4318,W,39.006,269.838,311210,0,W,A*1E
$GPRMC,040744.23,A,3343.7447,N,11618.4718,W,40.121,269.869,311210,0,W,A*17
$GPRMC,040747.23,A,3343.7444,N,11618.5132,W,42.113,270.060,311210,0,W,A*12
$GPRMC,040750.23,A,3343.7442,N,11618.5557,W,42.050,270.221,311210,0,W,A*14
$GPRMC,040753.23,A,3343.7445,N,11618.5987,W,43.295,271.167,311210,0,W,A*1B
$GPRMC,040756.23,A,3343.7451,N,11618.6425,W,43.105,270.704,311210,0,W,A*15
$GPRMC,040759.23,A,3343.7450,N,11618.6850,W,41.472,269.902,311210,0,W,A*12
$GPRMC,040802.23,A,3343.7448,N,11618.7272,W,42.327,269.576,311210,0,W,A*1A
$GPRMC,040805.23,A,3343.7443,N,11618.7688,W,40.246,269.916,311210,0,W,A*19
$GPRMC,040808.23,A,3343.7444,N,11618.8091,W,40.559,271.060,311210,0,W,A*1A
$GPRMC,040811.23,A,3343.7450,N,11618.8498,W,39.829,270.549,311210,0,W,A*11
$GPRMC,040814.23,A,3343.7459,N,11618.8888,W,37.281,273.265,311210,0,W,A*1C
$GPRMC,040817.23,A,3343.7469,N,11618.9201,W,25.217,270.803,311210,0,W,A*13
$GPRMC,040820.23,A,3343.7487,N,11618.9356,W,11.103,302.837,311210,0,W,A*16
$GPRMC,040823.23,A,3343.7584,N,11618.9382,W,14.518,358.344,311210,0,W,A*15
$GPRMC,040826.23,A,3343.7742,N,11618.9375,W,21.352,359.635,311210,0,W,A*1C
$GPRMC,040829.23,A,3343.7924,N,11618.9387,W,21.116,345.761,311210,0,W,A*1F
$GPRMC,040832.23,A,3343.8096,N,11618.9472,W,23.822,331.179,311210,0,W,A*17
$GPRMC,040835.23,A,3343.8282,N,11618.9592,W,25.755,330.086,311210,0,W,A*11
$GPRMC,040838.23,A,3343.8466,N,11618.9718,W,25.299,330.236,311210,0,W,A*1C
$GPRMC,040841.23,A,3343.8650,N,11618.9829,W,23.839,336.262,311210,0,W,A*19
$GPRMC,040844.23,A,3343.8841,N,11618.9894,W,23.978,352.876,311210,0,W,A*1D
$GPRMC,040847.23,A,3343.9045,N,11618.9887,W,25.009,4.689,311210,0,W,A*16
$GPRMC,040850.23,A,3343.9263,N,11618.9845,W,25.946,8.779,311210,0,W,A*18
$GPRMC,040853.23,A,3343.9477,N,11618.9804,W,25.912,8.648,311210,0,W,A*1F
$GPRMC,040856.23,A,3343.9696,N,11618.9761,W,26.310,8.212,311210,0,W,A*1B
$GPRMC,040859.23,A,3343.9898,N,11618.9725,W,22.783,8.786,311210,0,W,A*16
$GPRMC,040902.23,A,3344.0081,N,11618.9688,W,22.556,7.909,311210,0,W,A*1D
$GPRMC,040905.23,A,3344.0262,N,11618.9683,W,21.384,351.357,311210,0,W,A*15
$GPRMC,040908.23,A,3344.0435,N,11618.9745,W,21.272,331.991,311210,0,W,A*19
$GPRMC,040911.23,A,3344.0595,N,11618.9858,W,23.239,327.183,311210,0,W,A*18
$GPRMC,040914.23,A,3344.0757,N,11618.9984,W,22.223,326.427,311210,0,W,A*11
$GPRMC,040917.23,A,3344.0902,N,11619.0094,W,18.532,330.700,311210,0,W,A*13
$GPRMC,040920.23,A,3344.1029,N,11619.0180,W,17.360,323.282,311210,0,W,A*11
$GPRMC,040923.23,A,3344.1074,N,11619.0324,W,15.400,264.278,311210,0,W,A*12
$GPRMC,040926.23,A,3344.1023,N,11619.0486,W,13.480,252.547,311210,0,W,A*1A
$GPRMC,040935.23,A,3344.0984,N,11619.0628,W,9.055,250.721,311210,0,W,A*2C
$GPRMC,040938.23,A,3344.0967,N,11619.0702,W,8.516,258.625,311210,0,W,A*2B
$GPRMC,040941.23,A,3344.0933,N,11619.0761,W,5.882,205.383,311210,0,W,A*2D
$GPRMC,041256.23,A,3344.0944,N,11619.0698,W,5.608,74.729,311210,0,W,A*1A
$GPRMC,041302.23,A,3344.0959,N,11619.0644,W,4.783,67.387,311210,0,W,A*16
$GPRMC,041305.23,A,3344.1012,N,11619.0615,W,11.568,356.672,311210,0,W,A*1F
$GPRMC,041308.23,A,3344.1149,N,11619.0656,W,20.225,345.791,311210,0,W,A*18
$GPRMC,041311.23,A,3344.1330,N,11619.0719,W,24.029,343.998,311210,0,W,A*1D
$GPRMC,041314.23,A,3344.1530,N,11619.0790,W,26.184,344.722,311210,0,W,A*13
$GPRMC,041317.23,A,3344.1741,N,11619.0856,W,25.159,347.679,311210,0,W,A*1E
$GPRMC,041320.23,A,3344.1942,N,11619.0891,W,23.024,357.421,311210,0,W,A*1F
$GPRMC,041323.23,A,3344.2093,N,11619.0894,W,12.194,2.095,311210,0,W,A*1F
$GPRMC,041329.23,A,3344.2208,N,11619.0873,W,14.673,9.334,311210,0,W,A*17
$GPRMC,041332.23,A,3344.2357,N,11619.0830,W,20.581,15.575,311210,0,W,A*26
$GPRMC,041335.23,A,3344.2541,N,11619.0752,W,25.479,20.878,311210,0,W,A*2E
$GPRMC,041338.23,A,3344.2746,N,11619.0642,W,27.683,28.061,311210,0,W,A*2B
$GPRMC,041341.23,A,3344.2946,N,11619.0492,W,27.972,36.723,311210,0,W,A*2B
$GPRMC,041344.23,A,3344.3124,N,11619.0316,W,27.828,41.529,311210,0,W,A*2E
$GPRMC,041347.23,A,3344.3288,N,11619.0123,W,27.206,47.204,311210,0,W,A*24
$GPRMC,041350.23,A,3344.3443,N,11618.9903,W,29.928,50.477,311210,0,W,A*2C
$GPRMC,041353.23,A,3344.3588,N,11618.9660,W,29.665,56.328,311210,0,W,A*2E
$GPRMC,041356.23,A,3344.3721,N,11618.9395,W,31.035,60.176,311210,0,W,A*23
$GPRMC,041359.23,A,3344.3842,N,11618.9110,W,31.170,65.228,311210,0,W,A*24
$GPRMC,041402.23,A,3344.3948,N,11618.8831,W,29.788,65.860,311210,0,W,A*23
$GPRMC,041405.23,A,3344.4042,N,11618.8556,W,29.053,69.204,311210,0,W,A*29
$GPRMC,041408.23,A,3344.4108,N,11618.8306,W,22.639,74.345,311210,0,W,A*21
$GPRMC,041411.23,A,3344.4154,N,11618.8088,W,23.393,76.052,311210,0,W,A*26
$GPRMC,041414.23,A,3344.4193,N,11618.7861,W,21.643,78.992,311210,0,W,A*29
$GPRMC,041417.23,A,3344.4211,N,11618.7706,W,7.670,79.010,311210,0,W,A*1B
$GPRMC,041423.23,A,3344.4269,N,11618.7638,W,11.419,359.240,311210,0,W,A*13
$GPRMC,041426.23,A,3344.4395,N,11618.7701,W,20.519,331.661,311210,0,W,A*15
$GPRMC,041429.23,A,3344.4567,N,11618.7818,W,27.006,329.834,311210,0,W,A*1D
$GPRMC,041432.23,A,3344.4776,N,11618.7969,W,28.847,329.088,311210,0,W,A*1F
$GPRMC,041435.23,A,3344.4983,N,11618.8119,W,28.523,329.479,311210,0,W,A*19
$GPRMC,041438.23,A,3344.5185,N,11618.8258,W,26.650,332.614,311210,0,W,A*17
$GPRMC,041441.23,A,3344.5391,N,11618.8368,W,27.884,342.047,311210,0,W,A*1D
$GPRMC,041444.23,A,3344.5623,N,11618.8431,W,28.434,351.778,311210,0,W,A*1E
$GPRMC,041447.23,A,3344.5865,N,11618.8449,W,28.520,0.313,311210,0,W,A*14
$GPRMC,041450.23,A,3344.6065,N,11618.8442,W,17.900,3.308,311210,0,W,A*19
$GPRMC,041456.23,A,3344.6175,N,11618.8409,W,8.138,49.761,311210,0,W,A*18
$GPRMC,041459.23,A,3344.6200,N,11618.8264,W,22.551,88.601,311210,0,W,A*22
$GPRMC,041502.23,A,3344.6199,N,11618.7982,W,32.360,89.509,311210,0,W,A*2D
$GPRMC,041505.23,A,3344.6196,N,11618.7621,W,37.771,90.423,311210,0,W,A*23
$GPRMC,041508.23,A,3344.6194,N,11618.7220,W,39.935,89.978,311210,0,W,A*22
$GPRMC,041511.23,A,3344.6193,N,11618.6804,W,42.279,90.473,311210,0,W,A*21
$GPRMC,041514.23,A,3344.6189,N,11618.6377,W,41.885,90.255,311210,0,W,A*28
$GPRMC,041517.23,A,3344.6190,N,11618.5955,W,41.777,89.971,311210,0,W,A*2D
$GPRMC,041520.23,A,3344.6188,N,11618.5537,W,41.034,89.991,311210,0,W,A*26
$GPRMC,041523.23,A,3344.6188,N,11618.5133,W,39.044,90.197,311210,0,W,A*2B
$GPRMC,041526.23,A,3344.6183,N,11618.4724,W,42.073,90.293,311210,0,W,A*2B
$GPRMC,041529.23,A,3344.6178,N,11618.4294,W,43.091,90.110,311210,0,W,A*2B
$GPRMC,041532.23,A,3344.6179,N,11618.3863,W,42.036,90.132,311210,0,W,A*29
$GPRMC,041535.23,A,3344.6171,N,11618.3449,W,39.911,91.637,311210,0,W,A*21
$GPRMC,041538.23,A,3344.6162,N,11618.3063,W,36.722,90.629,311210,0,W,A*2D
$GPRMC,041541.23,A,3344.6173,N,11618.2736,W,26.471,86.631,311210,0,W,A*2F
$GPRMC,041544.23,A,3344.6179,N,11618.2521,W,17.501,92.543,311210,0,W,A*23
$GPRMC,041547.23,A,3344.6172,N,11618.2414,W,6.053,91.501,311210,0,W,A*1B
$GPRMC,041556.23,A,3344.6176,N,11618.2329,W,12.731,84.053,311210,0,W,A*26
$GPRMC,041559.23,A,3344.6251,N,11618.2218,W,16.936,26.740,311210,0,W,A*2C
$GPRMC,041602.23,A,3344.6437,N,11618.2203,W,27.886,0.511,311210,0,W,A*17
$GPRMC,041605.23,A,3344.6709,N,11618.2203,W,35.942,0.171,311210,0,W,A*16
$GPRMC,041608.23,A,3344.7029,N,11618.2209,W,40.361,0.244,311210,0,W,A*19
$GPRMC,041611.23,A,3344.7380,N,11618.2211,W,42.610,0.125,311210,0,W,A*1D
$GPRMC,041614.23,A,3344.7750,N,11618.2211,W,44.611,0.047,311210,0,W,A*13
$GPRMC,041617.23,A,3344.8127,N,11618.2212,W,44.444,0.363,311210,0,W,A*1D
$GPRMC,041620.23,A,3344.8507,N,11618.2212,W,45.790,0.469,311210,0,W,A*19
$GPRMC,041623.23,A,3344.8901,N,11618.2209,W,47.585,0.231,311210,0,W,A*15
$GPRMC,041626.23,A,3344.9304,N,11618.2208,W,48.192,0.104,311210,0,W,A*17
$GPRMC,041629.23,A,3344.9710,N,11618.2208,W,48.418,0.388,311210,0,W,A*18
$GPRMC,041632.23,A,3345.0118,N,11618.2207,W,48.658,0.617,311210,0,W,A*1E
$GPRMC,041635.23,A,3345.0515,N,11618.2205,W,46.193,0.131,311210,0,W,A*1F
$GPRMC,041638.23,A,3345.0901,N,11618.2205,W,46.046,0.386,311210,0,W,A*1C
$GPRMC,041641.23,A,3345.1283,N,11618.2203,W,45.015,0.217,311210,0,W,A*18
$GPRMC,041644.23,A,3345.1661,N,11618.2201,W,45.405,0.298,311210,0,W,A*15
$GPRMC,041647.23,A,3345.2043,N,11618.2201,W,45.102,359.871,311210,0,W,A*13
$GPRMC,041650.23,A,3345.2410,N,11618.2201,W,42.654,0.679,311210,0,W,A*1D
$GPRMC,041653.23,A,3345.2759,N,11618.2195,W,39.824,1.513,311210,0,W,A*15
$GPRMC,041656.23,A,3345.3077,N,11618.2169,W,38.210,7.150,311210,0,W,A*10
$GPRMC,041659.23,A,3345.3395,N,11618.2089,W,39.834,16.051,311210,0,W,A*22
$GPRMC,041702.23,A,3345.3718,N,11618.1963,W,40.630,18.725,311210,0,W,A*2C
$GPRMC,041705.23,A,3345.4028,N,11618.1831,W,38.003,20.150,311210,0,W,A*28
$GPRMC,041708.23,A,3345.4292,N,11618.1707,W,28.602,21.835,311210,0,W,A*21
$GPRMC,041711.23,A,3345.4475,N,11618.1618,W,18.663,20.947,311210,0,W,A*28
$GPRMC,041714.23,A,3345.4572,N,11618.1573,W,6.937,18.209,311210,0,W,A*1E
$GPRMC,041723.23,A,3345.4631,N,11618.1549,W,9.862,21.351,311210,0,W,A*1F
$GPRMC,041726.23,A,3345.4749,N,11618.1483,W,21.645,23.794,311210,0,W,A*2D
$GPRMC,041729.23,A,3345.4944,N,11618.1374,W,29.231,24.731,311210,0,W,A*29
$GPRMC,041732.23,A,3345.5182,N,11618.1243,W,32.204,24.325,311210,0,W,A*28
$GPRMC,041735.23,A,3345.5430,N,11618.1108,W,31.961,23.766,311210,0,W,A*20
$GPRMC,041738.23,A,3345.5660,N,11618.0993,W,25.560,21.602,311210,0,W,A*28
$GPRMC,041741.23,A,3345.5816,N,11618.0927,W,13.708,20.152,311210,0,W,A*2C
$GPRMC,041750.23,A,3345.5928,N,11618.0876,W,5.741,24.581,311210,0,W,A*11
$GPRMC,041753.23,A,3345.5973,N,11618.0808,W,14.014,72.136,311210,0,W,A*29
$GPRMC,041756.23,A,3345.5948,N,11618.0615,W,25.901,104.477,311210,0,W,A*19
$GPRMC,041759.23,A,3345.5869,N,11618.0285,W,40.531,105.665,311210,0,W,A*15
$GPRMC,041802.23,A,3345.5755,N,11617.9842,W,50.468,108.996,311210,0,W,A*11
$GPRMC,041805.23,A,3345.5583,N,11617.9338,W,56.250,115.254,311210,0,W,A*1B
$GPRMC,041808.23,A,3345.5367,N,11617.8809,W,56.868,116.737,311210,0,W,A*10
$GPRMC,041811.23,A,3345.5155,N,11617.8300,W,54.400,115.518,311210,0,W,A*15
$GPRMC,041814.23,A,3345.4964,N,11617.7801,W,53.353,113.469,311210,0,W,A*19
$GPRMC,041817.23,A,3345.4800,N,11617.7307,W,52.242,110.587,311210,0,W,A*16
$GPRMC,041820.23,A,3345.4649,N,11617.6814,W,51.581,109.903,311210,0,W,A*1A
$GPRMC,041823.23,A,3345.4497,N,11617.6322,W,52.201,109.637,311210,0,W,A*12
$GPRMC,041826.23,A,3345.4352,N,11617.5833,W,50.762,109.765,311210,0,W,A*15
$GPRMC,041829.23,A,3345.4207,N,11617.5356,W,50.869,109.735,311210,0,W,A*12
$GPRMC,041832.23,A,3345.4065,N,11617.4884,W,48.819,109.893,311210,0,W,A*16
$GPRMC,041835.23,A,3345.3926,N,11617.4424,W,49.296,109.637,311210,0,W,A*12
$GPRMC,041838.23,A,3345.3788,N,11617.3940,W,53.503,108.256,311210,0,W,A*1F
$GPRMC,041841.23,A,3345.3634,N,11617.3400,W,59.349,109.077,311210,0,W,A*1C
$GPRMC,041844.23,A,3345.3463,N,11617.2829,W,60.271,110.074,311210,0,W,A*14
$GPRMC,041847.23,A,3345.3285,N,11617.2255,W,61.938,111.163,311210,0,W,A*19
$GPRMC,041850.23,A,3345.3087,N,11617.1680,W,61.856,113.062,311210,0,W,A*1B
$GPRMC,041853.23,A,3345.2880,N,11617.1116,W,61.240,114.297,311210,0,W,A*1C
$GPRMC,041856.23,A,3345.2659,N,11617.0557,W,61.882,115.576,311210,0,W,A*1E
$GPRMC,041859.23,A,3345.2429,N,11616.9993,W,63.173,115.620,311210,0,W,A*1D
$GPRMC,041902.23,A,3345.2202,N,11616.9420,W,63.062,115.527,311210,0,W,A*1D
$GPRMC,041905.23,A,3345.1973,N,11616.8851,W,62.877,116.056,311210,0,W,A*12
$GPRMC,041908.23,A,3345.1743,N,11616.8286,W,62.819,115.766,311210,0,W,A*1D
$GPRMC,041911.23,A,3345.1514,N,11616.7715,W,63.589,115.956,311210,0,W,A*1D
$GPRMC,041914.23,A,3345.1281,N,11616.7144,W,63.118,115.904,311210,0,W,A*1A
$GPRMC,041917.23,A,3345.1050,N,11616.6578,W,62.725,115.823,311210,0,W,A*10
$GPRMC,041920.23,A,3345.0822,N,11616.6017,W,62.489,115.892,311210,0,W,A*1B
$GPRMC,041923.23,A,3345.0594,N,11616.5453,W,62.734,115.460,311210,0,W,A*1B
$GPRMC,041926.23,A,3345.0378,N,11616.4886,W,61.999,112.727,311210,0,W,A*12
$GPRMC,041929.23,A,3345.0207,N,11616.4302,W,61.828,106.325,311210,0,W,A*1B
$GPRMC,041932.23,A,3345.0091,N,11616.3703,W,61.556,100.169,311210,0,W,A*16
$GPRMC,041935.23,A,3345.0006,N,11616.3097,W,62.020,99.000,311210,0,W,A*2D
$GPRMC,041938.23,A,3344.9922,N,11616.2483,W,63.203,100.673,311210,0,W,A*16
$GPRMC,041941.23,A,3344.9799,N,11616.1865,W,63.836,106.706,311210,0,W,A*18
$GPRMC,041944.23,A,3344.9620,N,11616.1253,W,64.560,112.661,311210,0,W,A*1D
$GPRMC,041947.23,A,3344.9388,N,11616.0678,W,63.327,119.321,311210,0,W,A*1D
$GPRMC,041950.23,A,3344.9104,N,11616.0152,W,62.624,125.410,311210,0,W,A*1F
$GPRMC,041953.23,A,3344.8780,N,11615.9663,W,61.440,131.425,311210,0,W,A*18
$GPRMC,041956.23,A,3344.8423,N,11615.9225,W,60.073,135.947,311210,0,W,A*19
$GPRMC,041959.23,A,3344.8060,N,11615.8818,W,59.769,135.724,311210,0,W,A*1D
$GPRMC,042002.23,A,3344.7701,N,11615.8404,W,58.803,135.181,311210,0,W,A*1C
$GPRMC,042005.23,A,3344.7361,N,11615.7978,W,59.266,131.813,311210,0,W,A*1E
$GPRMC,042008.23,A,3344.7043,N,11615.7522,W,58.906,127.914,311210,0,W,A*1E
$GPRMC,042011.23,A,3344.6761,N,11615.7044,W,60.437,122.019,311210,0,W,A*10
$GPRMC,042014.23,A,3344.6494,N,11615.6501,W,64.392,119.716,311210,0,W,A*15
$GPRMC,042017.23,A,3344.6217,N,11615.5925,W,65.842,120.373,311210,0,W,A*18
$GPRMC,042020.23,A,3344.5939,N,11615.5371,W,63.956,121.012,311210,0,W,A*14
$GPRMC,042023.23,A,3344.5665,N,11615.4826,W,63.624,120.747,311210,0,W,A*15
$GPRMC,042026.23,A,3344.5394,N,11615.4285,W,63.160,120.913,311210,0,W,A*10
$GPRMC,042029.23,A,3344.5120,N,11615.3740,W,63.495,120.749,311210,0,W,A*17
$GPRMC,042032.23,A,3344.4847,N,11615.3192,W,64.522,120.931,311210,0,W,A*16
$GPRMC,042035.23,A,3344.4572,N,11615.2631,W,64.963,120.811,311210,0,W,A*1F
$GPRMC,042038.23,A,3344.4294,N,11615.2076,W,64.868,120.884,311210,0,W,A*1E
$GPRMC,042041.23,A,3344.4028,N,11615.1514,W,63.810,118.530,311210,0,W,A*16
$GPRMC,042044.23,A,3344.3791,N,11615.0952,W,63.358,115.037,311210,0,W,A*16
$GPRMC,042047.23,A,3344.3578,N,11615.0364,W,64.197,111.988,311210,0,W,A*10
$GPRMC,042050.23,A,3344.3396,N,11614.9775,W,61.203,108.750,311210,0,W,A*14
$GPRMC,042053.23,A,3344.3242,N,11614.9194,W,60.391,106.188,311210,0,W,A*10
$GPRMC,042056.23,A,3344.3117,N,11614.8594,W,62.197,102.901,311210,0,W,A*18
$GPRMC,042059.23,A,3344.3014,N,11614.7986,W,61.483,100.316,311210,0,W,A*18
$GPRMC,042102.23,A,3344.2937,N,11614.7383,W,61.538,97.470,311210,0,W,A*28
$GPRMC,042105.23,A,3344.2888,N,11614.6762,W,62.879,93.978,311210,0,W,A*2A
$GPRMC,042108.23,A,3344.2864,N,11614.6129,W,63.626,92.373,311210,0,W,A*29
$GPRMC,042111.23,A,3344.2867,N,11614.5496,W,63.550,88.170,311210,0,W,A*28
$GPRMC,042114.23,A,3344.2900,N,11614.4866,W,62.882,85.434,311210,0,W,A*24
$GPRMC,042117.23,A,3344.2962,N,11614.4249,W,62.801,82.090,311210,0,W,A*22
$GPRMC,042120.23,A,3344.3053,N,11614.3628,W,62.651,79.190,311210,0,W,A*26
$GPRMC,042123.23,A,3344.3166,N,11614.3014,W,62.396,76.897,311210,0,W,A*24
$GPRMC,042126.23,A,3344.3291,N,11614.2396,W,64.595,76.761,311210,0,W,A*27
$GPRMC,042129.23,A,3344.3417,N,11614.1781,W,61.919,76.498,311210,0,W,A*29
$GPRMC,042132.23,A,3344.3532,N,11614.1174,W,62.952,78.882,311210,0,W,A*2C
$GPRMC,042135.23,A,3344.3604,N,11614.0538,W,65.522,85.503,311210,0,W,A*2A
$GPRMC,042138.23,A,3344.3617,N,11613.9879,W,66.550,92.436,311210,0,W,A*24
$GPRMC,042141.23,A,3344.3564,N,11613.9213,W,66.553,96.847,311210,0,W,A*26
$GPRMC,042144.23,A,3344.3511,N,11613.8568,W,63.594,95.728,311210,0,W,A*20
$GPRMC,042147.23,A,3344.3452,N,11613.7944,W,62.575,96.790,311210,0,W,A*26
$GPRMC,042150.23,A,3344.3392,N,11613.7324,W,62.594,95.940,311210,0,W,A*28
$GPRMC,042153.23,A,3344.3341,N,11613.6712,W,61.097,95.414,311210,0,W,A*2C
$GPRMC,042156.23,A,3344.3292,N,11613.6097,W,62.479,95.326,311210,0,W,A*2D
$GPRMC,042159.23,A,3344.3241,N,11613.5471,W,63.365,95.479,311210,0,W,A*25
$GPRMC,042202.23,A,3344.3189,N,11613.4842,W,63.034,95.552,311210,0,W,A*2D
$GPRMC,042205.23,A,3344.3137,N,11613.4220,W,61.608,95.431,311210,0,W,A*2E
$GPRMC,042208.23,A,3344.3089,N,11613.3611,W,60.867,95.276,311210,0,W,A*25
$GPRMC,042211.23,A,3344.3038,N,11613.3007,W,60.796,95.577,311210,0,W,A*21
$GPRMC,042214.23,A,3344.2986,N,11613.2411,W,59.335,96.670,311210,0,W,A*2B
$GPRMC,042217.23,A,3344.2908,N,11613.1838,W,57.176,100.689,311210,0,W,A*19
$GPRMC,042220.23,A,3344.2816,N,11613.1291,W,54.601,102.738,311210,0,W,A*17
$GPRMC,042223.23,A,3344.2688,N,11613.0797,W,48.427,110.073,311210,0,W,A*1F
$GPRMC,042226.23,A,3344.2540,N,11613.0411,W,37.949,115.259,311210,0,W,A*12
$GPRMC,042229.23,A,3344.2419,N,11613.0140,W,25.096,117.663,311210,0,W,A*16
$GPRMC,042232.23,A,3344.2355,N,11612.9997,W,12.034,117.623,311210,0,W,A*11
$GPRMC,042314.23,A,3344.2324,N,11612.9928,W,8.613,117.129,311210,0,W,A*23
$GPRMC,042317.23,A,3344.2342,N,11612.9833,W,13.456,45.091,311210,0,W,A*26
$GPRMC,042320.23,A,3344.2479,N,11612.9802,W,21.976,357.668,311210,0,W,A*11
$GPRMC,042323.23,A,3344.2690,N,11612.9814,W,26.528,359.046,311210,0,W,A*14
$GPRMC,042326.23,A,3344.2941,N,11612.9828,W,32.117,358.638,311210,0,W,A*1E
$GPRMC,042329.23,A,3344.3224,N,11612.9842,W,35.258,359.515,311210,0,W,A*16
$GPRMC,042332.23,A,3344.3535,N,11612.9849,W,37.612,0.933,311210,0,W,A*1F
$GPRMC,042335.23,A,3344.3866,N,11612.9852,W,40.778,0.442,311210,0,W,A*1F
$GPRMC,042338.23,A,3344.4216,N,11612.9861,W,41.912,358.983,311210,0,W,A*15
$GPRMC,042341.23,A,3344.4561,N,11612.9871,W,40.863,359.090,311210,0,W,A*11
$GPRMC,042344.23,A,3344.4884,N,11612.9881,W,32.409,359.320,311210,0,W,A*10
$GPRMC,042347.23,A,3344.5096,N,11612.9889,W,18.508,359.483,311210,0,W,A*17
$GPRMC,042350.23,A,3344.5204,N,11612.9891,W,7.427,2.681,311210,0,W,A*2E
$GPRMC,042411.23,A,3344.5254,N,11612.9896,W,10.901,358.174,311210,0,W,A*10
$GPRMC,042414.23,A,3344.5404,N,11612.9905,W,24.655,358.255,311210,0,W,A*14
$GPRMC,042417.23,A,3344.5653,N,11612.9914,W,33.124,359.046,311210,0,W,A*11
$GPRMC,042420.23,A,3344.5944,N,11612.9920,W,35.707,359.103,311210,0,W,A*1A
$GPRMC,042423.23,A,3344.6255,N,11612.9927,W,37.949,359.603,311210,0,W,A*17
$GPRMC,042426.23,A,3344.6566,N,11612.9928,W,36.521,359.845,311210,0,W,A*15
$GPRMC,042429.23,A,3344.6880,N,11612.9934,W,38.676,359.011,311210,0,W,A*14
$GPRMC,042432.23,A,3344.7211,N,11612.9943,W,39.886,358.715,311210,0,W,A*1F
$GPRMC,042435.23,A,3344.7540,N,11612.9957,W,38.625,358.584,311210,0,W,A*12
$GPRMC,042438.23,A,3344.7866,N,11612.9966,W,39.190,359.280,311210,0,W,A*1E
$GPRMC,042441.23,A,3344.8198,N,11612.9969,W,39.991,0.262,311210,0,W,A*12
$GPRMC,042444.23,A,3344.8526,N,11612.9968,W,38.558,0.422,311210,0,W,A*1D
$GPRMC,042447.23,A,3344.8851,N,11612.9970,W,39.073,0.080,311210,0,W,A*1B
$GPRMC,042450.23,A,3344.9182,N,11612.9970,W,39.873,0.012,311210,0,W,A*18
$GPRMC,042453.23,A,3344.9521,N,11612.9970,W,40.644,0.078,311210,0,W,A*1E
$GPRMC,042456.23,A,3344.9864,N,11612.9969,W,40.706,0.292,311210,0,W,A*1E
$GPRMC,042459.23,A,3345.0206,N,11612.9970,W,40.507,0.056,311210,0,W,A*16
$GPRMC,042502.23,A,3345.0538,N,11612.9973,W,38.516,359.699,311210,0,W,A*15
$GPRMC,042505.23,A,3345.0858,N,11612.9979,W,37.985,359.162,311210,0,W,A*19
$GPRMC,042508.23,A,3345.1185,N,11612.9984,W,40.367,0.141,311210,0,W,A*16
