NMEA Sentence Code,UTC Time,Status,Latitude,Latitude Direction,Longitude,Longitude Direction,Speed (knots),Track Angle (degrees true),Date,MagneticVariation,Magnetic Variation Direction,[FAA Mode]-Optional,Checksum
$GPRMC,170544.000,A,3310.6431,N,11721.1066,W,61.10,145.50,261210,,,A*4E
$GPRMC,170547.000,A,3310.6010,N,11721.0729,W,61.30,146.90,261210,,,A*4A
$GPRMC,170550.000,A,3310.5581,N,11721.0408,W,60.90,147.80,261210,,,A*49
$GPRMC,170553.000,A,3310.5155,N,11721.0084,W,60.80,147.60,261210,,,A*48
$GPRMC,170556.000,A,3310.4728,N,11720.9761,W,60.10,147.80,261210,,,A*43
$GPRMC,170559.000,A,3310.4308,N,11720.9441,W,59.50,147.40,261210,,,A*49
$GPRMC,170602.000,A,3310.3887,N,11720.9125,W,59.60,147.90,261210,,,A*46
$GPRMC,170605.000,A,3310.3466,N,11720.8805,W,59.90,147.20,261210,,,A*4C
$GPRMC,170608.000,A,3310.3042,N,11720.8487,W,60.00,147.70,261210,,,A*43
$GPRMC,170611.000,A,3310.2617,N,11720.8168,W,60.20,147.70,261210,,,A*4A
$GPRMC,170614.000,A,3310.2191,N,11720.7849,W,60.40,147.90,261210,,,A*4B
$GPRMC,170617.000,A,3310.1764,N,11720.7530,W,60.40,148.30,261210,,,A*41
$GPRMC,170620.000,A,3310.1325,N,11720.7229,W,60.40,151.00,261210,,,A*40
$GPRMC,170623.000,A,3310.0877,N,11720.6951,W,60.60,154.10,261210,,,A*4D
$GPRMC,170626.000,A,3310.0414,N,11720.6704,W,60.90,156.80,261210,,,A*4B
$GPRMC,170629.000,A,3309.9945,N,11720.6466,W,61.00,156.90,261210,,,A*42
$GPRMC,170632.000,A,3309.9475,N,11720.6228,W,61.10,156.70,261210,,,A*45
$GPRMC,170635.000,A,3309.9008,N,11720.5991,W,60.80,156.90,261210,,,A*40
$GPRMC,170638.000,A,3309.8541,N,11720.5756,W,60.60,156.90,261210,,,A*4F
$GPRMC,170641.000,A,3309.8074,N,11720.5520,W,60.70,156.90,261210,,,A*40
$GPRMC,170644.000,A,3309.7607,N,11720.5282,W,60.90,156.60,261210,,,A*46
$GPRMC,170647.000,A,3309.7140,N,11720.5043,W,60.90,156.90,261210,,,A*41
$GPRMC,170650.000,A,3309.6672,N,11720.4805,W,60.90,156.80,261210,,,A*4A
$GPRMC,170653.000,A,3309.6205,N,11720.4567,W,60.80,157.00,261210,,,A*4C
$GPRMC,170656.000,A,3309.5737,N,11720.4330,W,60.70,156.70,261210,,,A*43
$GPRMC,170659.000,A,3309.5271,N,11720.4091,W,60.70,156.80,261210,,,A*4C
$GPRMC,170702.000,A,3309.4805,N,11720.3854,W,60.80,156.90,261210,,,A*43
$GPRMC,170705.000,A,3309.4339,N,11720.3618,W,60.90,156.90,261210,,,A*47
$GPRMC,170708.000,A,3309.3871,N,11720.3379,W,61.00,156.90,261210,,,A*40
$GPRMC,170711.000,A,3309.3403,N,11720.3141,W,61.00,156.80,261210,,,A*49
$GPRMC,170714.000,A,3309.2936,N,11720.2897,W,61.20,155.40,261210,,,A*48
$GPRMC,170717.000,A,3309.2475,N,11720.2636,W,61.10,154.10,261210,,,A*43
$GPRMC,170720.000,A,3309.2018,N,11720.2368,W,61.10,154.10,261210,,,A*46
$GPRMC,170723.000,A,3309.1559,N,11720.2104,W,60.80,154.00,261210,,,A*47
$GPRMC,170726.000,A,3309.1099,N,11720.1839,W,61.30,154.20,261210,,,A*47
$GPRMC,170729.000,A,3309.0646,N,11720.1578,W,60.50,154.00,261210,,,A*40
$GPRMC,170732.000,A,3309.0192,N,11720.1314,W,60.60,154.00,261210,,,A*4B
$GPRMC,170735.000,A,3308.9736,N,11720.1049,W,60.60,154.00,261210,,,A*47
$GPRMC,170738.000,A,3308.9279,N,11720.0783,W,60.80,154.60,261210,,,A*4C
$GPRMC,170741.000,A,3308.8810,N,11720.0552,W,60.70,160.00,261210,,,A*46
$GPRMC,170744.000,A,3308.8324,N,11720.0396,W,60.60,167.80,261210,,,A*4F
$GPRMC,170747.000,A,3308.7824,N,11720.0308,W,60.60,174.50,261210,,,A*40
$GPRMC,170750.000,A,3308.7323,N,11720.0274,W,60.30,177.50,261210,,,A*46
$GPRMC,170753.000,A,3308.6822,N,11720.0247,W,59.60,177.30,261210,,,A*47
$GPRMC,170756.000,A,3308.6326,N,11720.0220,W,59.30,177.20,261210,,,A*48
$GPRMC,170759.000,A,3308.5829,N,11720.0182,W,60.00,174.80,261210,,,A*4B
$GPRMC,170802.000,A,3308.5341,N,11720.0053,W,60.10,163.70,261210,,,A*4A
$GPRMC,170805.000,A,3308.4867,N,11719.9848,W,60.80,157.20,261210,,,A*49
$GPRMC,170808.000,A,3308.4402,N,11719.9607,W,61.20,156.80,261210,,,A*4E
$GPRMC,170811.000,A,3308.3934,N,11719.9365,W,61.30,157.00,261210,,,A*40
$GPRMC,170814.000,A,3308.3466,N,11719.9124,W,61.20,156.80,261210,,,A*40
$GPRMC,170817.000,A,3308.2996,N,11719.8885,W,61.10,157.00,261210,,,A*49
$GPRMC,170820.000,A,3308.2528,N,11719.8645,W,61.00,156.90,261210,,,A*4F
$GPRMC,170823.000,A,3308.2060,N,11719.8408,W,60.80,157.10,261210,,,A*4E
$GPRMC,170826.000,A,3308.1596,N,11719.8172,W,60.40,156.80,261210,,,A*48
$GPRMC,170829.000,A,3308.1132,N,11719.7939,W,60.50,156.90,261210,,,A*45
$GPRMC,170832.000,A,3308.0667,N,11719.7701,W,60.60,156.70,261210,,,A*41
$GPRMC,170835.000,A,3308.0201,N,11719.7460,W,60.80,156.20,261210,,,A*4D
$GPRMC,170838.000,A,3307.9744,N,11719.7203,W,60.60,154.60,261210,,,A*49
$GPRMC,170841.000,A,3307.9288,N,11719.6930,W,61.20,153.10,261210,,,A*4D
$GPRMC,170844.000,A,3307.8833,N,11719.6658,W,60.90,153.30,261210,,,A*4A
$GPRMC,170847.000,A,3307.8381,N,11719.6384,W,60.70,153.20,261210,,,A*40
$GPRMC,170850.000,A,3307.7928,N,11719.6115,W,60.70,153.30,261210,,,A*4B
$GPRMC,170853.000,A,3307.7477,N,11719.5844,W,60.50,153.20,261210,,,A*42
$GPRMC,170856.000,A,3307.7025,N,11719.5574,W,60.50,153.30,261210,,,A*4B
$GPRMC,170859.000,A,3307.6573,N,11719.5303,W,60.60,153.20,261210,,,A*47
$GPRMC,170902.000,A,3307.6121,N,11719.5030,W,60.60,153.30,261210,,,A*49
$GPRMC,170905.000,A,3307.5668,N,11719.4761,W,60.60,153.30,261210,,,A*45
$GPRMC,170908.000,A,3307.5216,N,11719.4491,W,60.60,153.40,261210,,,A*4E
$GPRMC,170911.000,A,3307.4764,N,11719.4219,W,60.60,153.30,261210,,,A*46
$GPRMC,170914.000,A,3307.4312,N,11719.3950,W,60.60,153.10,261210,,,A*45
$GPRMC,170917.000,A,3307.3860,N,11719.3675,W,60.60,153.30,261210,,,A*45
$GPRMC,170920.000,A,3307.3411,N,11719.3406,W,59.80,153.10,261210,,,A*4B
$GPRMC,170923.000,A,3307.2957,N,11719.3134,W,60.70,153.00,261210,,,A*46
$GPRMC,170926.000,A,3307.2506,N,11719.2866,W,60.80,153.40,261210,,,A*4F
$GPRMC,170929.000,A,3307.2053,N,11719.2594,W,60.80,153.30,261210,,,A*42
$GPRMC,170932.000,A,3307.1601,N,11719.2320,W,60.80,152.90,261210,,,A*48
$GPRMC,170935.000,A,3307.1149,N,11719.2048,W,60.70,153.30,261210,,,A*4D
$GPRMC,170938.000,A,3307.0699,N,11719.1775,W,60.80,152.80,261210,,,A*44
$GPRMC,170941.000,A,3307.0248,N,11719.1506,W,60.60,153.40,261210,,,A*47
$GPRMC,170944.000,A,3306.9797,N,11719.1234,W,60.60,153.10,261210,,,A*4E
$GPRMC,170947.000,A,3306.9345,N,11719.0961,W,60.50,153.10,261210,,,A*4F
$GPRMC,170950.000,A,3306.8894,N,11719.0692,W,60.60,153.30,261210,,,A*4D
$GPRMC,170953.000,A,3306.8439,N,11719.0422,W,60.50,153.40,261210,,,A*48
$GPRMC,170956.000,A,3306.7986,N,11719.0154,W,60.50,153.90,261210,,,A*42
$GPRMC,170959.000,A,3306.7535,N,11718.9887,W,60.50,153.20,261210,,,A*4D
$GPRMC,171002.000,A,3306.7084,N,11718.9617,W,60.60,153.10,261210,,,A*43
$GPRMC,171005.000,A,3306.6635,N,11718.9345,W,60.50,153.10,261210,,,A*48
$GPRMC,171008.000,A,3306.6183,N,11718.9077,W,60.60,153.30,261210,,,A*4C
$GPRMC,171011.000,A,3306.5732,N,11718.8807,W,60.10,153.30,261210,,,A*42
$GPRMC,171014.000,A,3306.5282,N,11718.8533,W,60.50,152.80,261210,,,A*4D
$GPRMC,171017.000,A,3306.4834,N,11718.8251,W,60.60,151.50,261210,,,A*46
$GPRMC,171020.000,A,3306.4388,N,11718.7964,W,60.70,151.60,261210,,,A*4E
$GPRMC,171023.000,A,3306.3942,N,11718.7674,W,60.80,151.20,261210,,,A*43
$GPRMC,171026.000,A,3306.3497,N,11718.7383,W,60.70,151.40,261210,,,A*47
$GPRMC,171029.000,A,3306.3051,N,11718.7091,W,60.70,151.10,261210,,,A*43
$GPRMC,171032.000,A,3306.2608,N,11718.6800,W,60.50,151.00,261210,,,A*40
$GPRMC,171035.000,A,3306.2165,N,11718.6512,W,60.10,151.10,261210,,,A*40
$GPRMC,171038.000,A,3306.1723,N,11718.6227,W,60.30,151.40,261210,,,A*4C
$GPRMC,171041.000,A,3306.1280,N,11718.5937,W,60.70,151.20,261210,,,A*45
$GPRMC,171044.000,A,3306.0835,N,11718.5647,W,60.70,151.30,261210,,,A*4C
$GPRMC,171047.000,A,3306.0390,N,11718.5357,W,60.70,151.40,261210,,,A*48
$GPRMC,171050.000,A,3305.9947,N,11718.5067,W,60.60,151.20,261210,,,A*43
$GPRMC,171053.000,A,3305.9502,N,11718.4777,W,60.80,151.30,261210,,,A*45
$GPRMC,171056.000,A,3305.9054,N,11718.4488,W,61.00,151.40,261210,,,A*4B
$GPRMC,171059.000,A,3305.8608,N,11718.4196,W,61.10,151.20,261210,,,A*47
$GPRMC,171102.000,A,3305.8160,N,11718.3903,W,61.30,151.10,261210,,,A*43
$GPRMC,171105.000,A,3305.7712,N,11718.3612,W,61.30,151.20,261210,,,A*44
$GPRMC,171108.000,A,3305.7264,N,11718.3319,W,61.10,151.10,261210,,,A*42
$GPRMC,171111.000,A,3305.6817,N,11718.3029,W,61.10,151.60,261210,,,A*42
$GPRMC,171114.000,A,3305.6369,N,11718.2740,W,60.80,151.40,261210,,,A*46
$GPRMC,171117.000,A,3305.5922,N,11718.2451,W,60.90,151.20,261210,,,A*47
$GPRMC,171120.000,A,3305.5479,N,11718.2160,W,60.90,151.20,261210,,,A*47
$GPRMC,171123.000,A,3305.5034,N,11718.1871,W,60.70,151.30,261210,,,A*4C
$GPRMC,171126.000,A,3305.4590,N,11718.1579,W,60.60,151.20,261210,,,A*46
$GPRMC,171129.000,A,3305.4147,N,11718.1291,W,60.70,151.40,261210,,,A*41
$GPRMC,171132.000,A,3305.3702,N,11718.1003,W,60.50,151.20,261210,,,A*46
$GPRMC,171135.000,A,3305.3262,N,11718.0714,W,60.20,151.00,261210,,,A*47
$GPRMC,171138.000,A,3305.2822,N,11718.0425,W,60.20,151.20,261210,,,A*46
$GPRMC,171141.000,A,3305.2380,N,11718.0137,W,60.30,151.30,261210,,,A*4D
$GPRMC,171144.000,A,3305.1940,N,11717.9849,W,60.30,151.20,261210,,,A*4A
$GPRMC,171147.000,A,3305.1497,N,11717.9562,W,60.50,151.30,261210,,,A*4D
$GPRMC,171150.000,A,3305.1054,N,11717.9276,W,60.30,151.60,261210,,,A*41
$GPRMC,171153.000,A,3305.0603,N,11717.9017,W,60.00,155.60,261210,,,A*45
$GPRMC,171156.000,A,3305.0134,N,11717.8805,W,60.10,161.10,261210,,,A*48
$GPRMC,171159.000,A,3304.9659,N,11717.8629,W,60.10,164.70,261210,,,A*40
$GPRMC,171202.000,A,3304.9175,N,11717.8483,W,60.20,165.90,261210,,,A*4A
$GPRMC,171205.000,A,3304.8687,N,11717.8339,W,60.50,165.70,261210,,,A*49
$GPRMC,171208.000,A,3304.8199,N,11717.8195,W,60.40,166.00,261210,,,A*4D
$GPRMC,171211.000,A,3304.7710,N,11717.8050,W,60.60,165.80,261210,,,A*4C
$GPRMC,171214.000,A,3304.7222,N,11717.7902,W,60.70,165.70,261210,,,A*42
$GPRMC,171217.000,A,3304.6731,N,11717.7758,W,60.70,165.90,261210,,,A*48
$GPRMC,171220.000,A,3304.6242,N,11717.7613,W,60.40,165.70,261210,,,A*4E
$GPRMC,171223.000,A,3304.5755,N,11717.7467,W,60.30,165.70,261210,,,A*4B
$GPRMC,171226.000,A,3304.5265,N,11717.7320,W,60.60,165.90,261210,,,A*47
$GPRMC,171229.000,A,3304.4776,N,11717.7172,W,60.60,165.60,261210,,,A*44
$GPRMC,171232.000,A,3304.4286,N,11717.7022,W,60.50,165.80,261210,,,A*4D
$GPRMC,171235.000,A,3304.3797,N,11717.6877,W,60.50,165.70,261210,,,A*4E
$GPRMC,171238.000,A,3304.3302,N,11717.6728,W,60.90,165.90,261210,,,A*4C
$GPRMC,171241.000,A,3304.2812,N,11717.6583,W,60.80,165.70,261210,,,A*45
$GPRMC,171244.000,A,3304.2323,N,11717.6434,W,60.60,165.70,261210,,,A*4A
$GPRMC,171247.000,A,3304.1830,N,11717.6284,W,60.70,165.80,261210,,,A*40
$GPRMC,171250.000,A,3304.1341,N,11717.6139,W,60.70,165.80,261210,,,A*4E
$GPRMC,171253.000,A,3304.0851,N,11717.5994,W,60.50,165.80,261210,,,A*48
$GPRMC,171256.000,A,3304.0363,N,11717.5847,W,60.70,165.70,261210,,,A*45
$GPRMC,171259.000,A,3303.9872,N,11717.5698,W,60.60,165.70,261210,,,A*42
$GPRMC,171302.000,A,3303.9379,N,11717.5547,W,60.80,165.80,261210,,,A*4D
$GPRMC,171305.000,A,3303.8883,N,11717.5401,W,60.60,165.70,261210,,,A*47
$GPRMC,171308.000,A,3303.8393,N,11717.5251,W,60.60,165.80,261210,,,A*4C
$GPRMC,171311.000,A,3303.7902,N,11717.5102,W,60.70,165.80,261210,,,A*4D
$GPRMC,171314.000,A,3303.7412,N,11717.4954,W,60.50,165.80,261210,,,A*4C
$GPRMC,171317.000,A,3303.6921,N,11717.4806,W,60.80,166.00,261210,,,A*43
$GPRMC,171320.000,A,3303.6426,N,11717.4658,W,60.90,165.80,261210,,,A*42
$GPRMC,171323.000,A,3303.5931,N,11717.4506,W,61.10,165.60,261210,,,A*46
$GPRMC,171326.000,A,3303.5437,N,11717.4355,W,60.90,165.90,261210,,,A*4E
$GPRMC,171329.000,A,3303.4939,N,11717.4209,W,61.00,166.00,261210,,,A*49
$GPRMC,171332.000,A,3303.4449,N,11717.4061,W,60.80,165.80,261210,,,A*47
$GPRMC,171335.000,A,3303.3954,N,11717.3910,W,60.80,165.80,261210,,,A*4E
$GPRMC,171338.000,A,3303.3462,N,11717.3765,W,60.80,165.80,261210,,,A*47
$GPRMC,171341.000,A,3303.2968,N,11717.3619,W,61.10,166.30,261210,,,A*45
$GPRMC,171344.000,A,3303.2468,N,11717.3486,W,60.70,167.20,261210,,,A*4E
$GPRMC,171347.000,A,3303.1974,N,11717.3338,W,60.70,165.60,261210,,,A*4A
$GPRMC,171350.000,A,3303.1482,N,11717.3190,W,60.60,165.90,261210,,,A*46
$GPRMC,171353.000,A,3303.0994,N,11717.3044,W,60.60,165.70,261210,,,A*48
$GPRMC,171356.000,A,3303.0505,N,11717.2897,W,60.60,165.80,261210,,,A*41
$GPRMC,171359.000,A,3303.0016,N,11717.2748,W,60.30,165.60,261210,,,A*4F
$GPRMC,171402.000,A,3302.9528,N,11717.2601,W,60.30,165.70,261210,,,A*4B
$GPRMC,171405.000,A,3302.9041,N,11717.2447,W,60.40,164.60,261210,,,A*41
$GPRMC,171408.000,A,3302.8555,N,11717.2291,W,60.50,165.20,261210,,,A*44
$GPRMC,171411.000,A,3302.8067,N,11717.2140,W,60.30,165.70,261210,,,A*44
$GPRMC,171414.000,A,3302.7580,N,11717.1993,W,60.10,165.80,261210,,,A*4A
$GPRMC,171417.000,A,3302.7092,N,11717.1846,W,60.20,165.80,261210,,,A*45
$GPRMC,171420.000,A,3302.6605,N,11717.1701,W,60.10,165.80,261210,,,A*47
$GPRMC,171423.000,A,3302.6116,N,11717.1554,W,60.90,165.50,261210,,,A*46
$GPRMC,171426.000,A,3302.5628,N,11717.1390,W,60.80,162.60,261210,,,A*41
$GPRMC,171429.000,A,3302.5152,N,11717.1188,W,60.40,157.90,261210,,,A*4A
$GPRMC,171432.000,A,3302.4690,N,11717.0945,W,60.20,154.70,261210,,,A*4B
$GPRMC,171435.000,A,3302.4246,N,11717.0656,W,60.70,150.60,261210,,,A*4E
$GPRMC,171438.000,A,3302.3805,N,11717.0357,W,60.40,150.50,261210,,,A*4D
$GPRMC,171441.000,A,3302.3366,N,11717.0060,W,60.60,150.70,261210,,,A*4A
$GPRMC,171444.000,A,3302.2926,N,11716.9763,W,60.70,150.30,261210,,,A*49
$GPRMC,171447.000,A,3302.2486,N,11716.9465,W,60.60,150.60,261210,,,A*4C
$GPRMC,171450.000,A,3302.2044,N,11716.9172,W,60.60,150.60,261210,,,A*43
$GPRMC,171453.000,A,3302.1603,N,11716.8875,W,60.90,150.10,261210,,,A*41
$GPRMC,171456.000,A,3302.1165,N,11716.8575,W,60.40,150.20,261210,,,A*40
$GPRMC,171459.000,A,3302.0726,N,11716.8278,W,60.60,150.70,261210,,,A*42
$GPRMC,171502.000,A,3302.0287,N,11716.7984,W,60.70,150.60,261210,,,A*44
$GPRMC,171504.000,A,3301.9992,N,11716.7786,W,61.10,150.60,261210,,,A*4C
$GPRMC,171508.000,A,3301.9402,N,11716.7392,W,61.00,150.70,261210,,,A*45
$GPRMC,171511.000,A,3301.8959,N,11716.7097,W,60.30,151.00,261210,,,A*4D
$GPRMC,171514.000,A,3301.8516,N,11716.6801,W,61.20,150.40,261210,,,A*4C
$GPRMC,171517.000,A,3301.8071,N,11716.6499,W,61.30,149.90,261210,,,A*42
$GPRMC,171520.000,A,3301.7623,N,11716.6202,W,61.10,150.40,261210,,,A*4B
$GPRMC,171523.000,A,3301.7179,N,11716.5903,W,61.10,150.50,261210,,,A*48
$GPRMC,171526.000,A,3301.6733,N,11716.5603,W,61.30,150.40,261210,,,A*48
$GPRMC,171529.000,A,3301.6285,N,11716.5298,W,61.60,149.70,261210,,,A*47
$GPRMC,171532.000,A,3301.5837,N,11716.5010,W,61.00,152.20,261210,,,A*46
$GPRMC,171535.000,A,3301.5378,N,11716.4752,W,61.10,155.70,261210,,,A*42
$GPRMC,171538.000,A,3301.4902,N,11716.4547,W,60.80,160.90,261210,,,A*4F
$GPRMC,171541.000,A,3301.4417,N,11716.4388,W,60.30,166.70,261210,,,A*4E
$GPRMC,171544.000,A,3301.3924,N,11716.4278,W,60.40,170.10,261210,,,A*49
$GPRMC,171547.000,A,3301.3425,N,11716.4183,W,60.50,170.70,261210,,,A*46
$GPRMC,171550.000,A,3301.2928,N,11716.4087,W,60.60,170.40,261210,,,A*44
$GPRMC,171553.000,A,3301.2427,N,11716.3985,W,60.50,170.30,261210,,,A*4D
$GPRMC,171556.000,A,3301.1929,N,11716.3868,W,60.60,167.10,261210,,,A*4D
$GPRMC,171559.000,A,3301.1442,N,11716.3712,W,60.60,162.90,261210,,,A*4D
$GPRMC,171602.000,A,3301.0965,N,11716.3512,W,60.50,158.20,261210,,,A*4A
$GPRMC,171605.000,A,3301.0503,N,11716.3267,W,60.60,154.40,261210,,,A*4D
$GPRMC,171608.000,A,3301.0055,N,11716.2985,W,60.50,150.50,261210,,,A*46
$GPRMC,171611.000,A,3300.9627,N,11716.2656,W,60.70,145.20,261210,,,A*45
$GPRMC,171614.000,A,3300.9217,N,11716.2291,W,60.90,141.30,261210,,,A*43
$GPRMC,171617.000,A,3300.8832,N,11716.1893,W,61.10,137.00,261210,,,A*4C
$GPRMC,171620.000,A,3300.8460,N,11716.1475,W,61.10,136.10,261210,,,A*47
$GPRMC,171623.000,A,3300.8092,N,11716.1054,W,60.90,136.00,261210,,,A*42
$GPRMC,171626.000,A,3300.7724,N,11716.0636,W,60.90,136.10,261210,,,A*40
$GPRMC,171629.000,A,3300.7357,N,11716.0218,W,60.80,135.80,261210,,,A*4C
$GPRMC,171633.000,A,3300.6872,N,11715.9658,W,60.60,135.70,261210,,,A*41
$GPRMC,171636.000,A,3300.6508,N,11715.9238,W,60.40,135.80,261210,,,A*4B
$GPRMC,171639.000,A,3300.6147,N,11715.8822,W,59.90,136.00,261210,,,A*47
$GPRMC,171642.000,A,3300.5788,N,11715.8406,W,59.90,135.80,261210,,,A*4C
$GPRMC,171645.000,A,3300.5431,N,11715.7990,W,59.60,135.50,261210,,,A*45
$GPRMC,171648.000,A,3300.5075,N,11715.7575,W,59.50,135.70,261210,,,A*4A
$GPRMC,171651.000,A,3300.4716,N,11715.7161,W,59.80,135.90,261210,,,A*43
$GPRMC,171654.000,A,3300.4354,N,11715.6746,W,60.20,135.90,261210,,,A*46
$GPRMC,171657.000,A,3300.3990,N,11715.6330,W,60.30,136.00,261210,,,A*4E
$GPRMC,171700.000,A,3300.3618,N,11715.5923,W,60.50,138.40,261210,,,A*45
$GPRMC,171703.000,A,3300.3217,N,11715.5559,W,60.40,144.20,261210,,,A*40
$GPRMC,171706.000,A,3300.2787,N,11715.5246,W,60.60,150.50,261210,,,A*41
$GPRMC,171709.000,A,3300.2335,N,11715.4985,W,60.00,156.30,261210,,,A*40
$GPRMC,171712.000,A,3300.1858,N,11715.4792,W,60.60,163.50,261210,,,A*47
$GPRMC,171715.000,A,3300.1375,N,11715.4653,W,60.70,169.20,261210,,,A*44
$GPRMC,171718.000,A,3300.0877,N,11715.4568,W,61.00,172.70,261210,,,A*43
$GPRMC,171721.000,A,3300.0371,N,11715.4493,W,61.20,172.30,261210,,,A*47
$GPRMC,171724.000,A,3259.9863,N,11715.4411,W,61.40,172.50,261210,,,A*44
$GPRMC,171727.000,A,3259.9354,N,11715.4334,W,61.30,173.00,261210,,,A*4B
$GPRMC,171730.000,A,3259.8847,N,11715.4261,W,61.30,173.10,261210,,,A*45
$GPRMC,171733.000,A,3259.8338,N,11715.4188,W,61.10,172.90,261210,,,A*4A
$GPRMC,171736.000,A,3259.7833,N,11715.4111,W,60.90,172.60,261210,,,A*46
$GPRMC,171739.000,A,3259.7330,N,11715.4031,W,60.80,172.40,261210,,,A*41
$GPRMC,171742.000,A,3259.6826,N,11715.3952,W,60.70,172.40,261210,,,A*44
$GPRMC,171745.000,A,3259.6324,N,11715.3873,W,60.70,172.30,261210,,,A*4F
$GPRMC,171748.000,A,3259.5822,N,11715.3794,W,60.70,172.60,261210,,,A*4F
$GPRMC,171751.000,A,3259.5320,N,11715.3716,W,60.70,172.50,261210,,,A*47
$GPRMC,171754.000,A,3259.4818,N,11715.3637,W,60.70,172.10,261210,,,A*45
$GPRMC,171757.000,A,3259.4317,N,11715.3558,W,60.70,172.50,261210,,,A*4C
$GPRMC,171800.000,A,3259.3815,N,11715.3481,W,60.70,172.80,261210,,,A*47
$GPRMC,171803.000,A,3259.3312,N,11715.3405,W,60.70,172.60,261210,,,A*4A
$GPRMC,171806.000,A,3259.2811,N,11715.3325,W,60.70,172.40,261210,,,A*41
$GPRMC,171809.000,A,3259.2309,N,11715.3246,W,60.70,172.40,261210,,,A*48
$GPRMC,171812.000,A,3259.1805,N,11715.3166,W,60.90,172.30,261210,,,A*4E
$GPRMC,171815.000,A,3259.1302,N,11715.3085,W,60.80,172.10,261210,,,A*4A
$GPRMC,171818.000,A,3259.0801,N,11715.2984,W,61.00,168.30,261210,,,A*47
$GPRMC,171821.000,A,3259.0307,N,11715.2843,W,61.00,164.40,261210,,,A*41
$GPRMC,171824.000,A,3258.9819,N,11715.2666,W,61.20,162.30,261210,,,A*42
$GPRMC,171827.000,A,3258.9334,N,11715.2479,W,61.10,162.30,261210,,,A*4A
$GPRMC,171830.000,A,3258.8849,N,11715.2295,W,61.00,162.20,261210,,,A*48
$GPRMC,171833.000,A,3258.8365,N,11715.2113,W,60.20,162.70,261210,,,A*45
$GPRMC,171836.000,A,3258.7882,N,11715.1931,W,60.90,162.40,261210,,,A*4E
$GPRMC,171839.000,A,3258.7400,N,11715.1748,W,60.70,162.40,261210,,,A*49
$GPRMC,171842.000,A,3258.6915,N,11715.1565,W,61.20,162.40,261210,,,A*44
$GPRMC,171845.000,A,3258.6436,N,11715.1386,W,60.70,162.30,261210,,,A*47
$GPRMC,171848.000,A,3258.5955,N,11715.1204,W,60.30,162.30,261210,,,A*4E
$GPRMC,171851.000,A,3258.5478,N,11715.1021,W,60.00,162.40,261210,,,A*45
$GPRMC,171854.000,A,3258.4999,N,11715.0840,W,60.10,162.40,261210,,,A*4C
$GPRMC,171857.000,A,3258.4519,N,11715.0661,W,60.20,162.40,261210,,,A*45
$GPRMC,171900.000,A,3258.4039,N,11715.0479,W,60.40,162.40,261210,,,A*4C
$GPRMC,171903.000,A,3258.3558,N,11715.0299,W,60.40,162.50,261210,,,A*43
$GPRMC,171906.000,A,3258.3078,N,11715.0120,W,60.50,162.50,261210,,,A*41
$GPRMC,171909.000,A,3258.2596,N,11714.9939,W,60.40,162.30,261210,,,A*45
$GPRMC,171912.000,A,3258.2116,N,11714.9757,W,60.00,162.40,261210,,,A*46
$GPRMC,171915.000,A,3258.1637,N,11714.9578,W,59.90,162.30,261210,,,A*4D
$GPRMC,171918.000,A,3258.1160,N,11714.9397,W,60.00,162.60,261210,,,A*44
$GPRMC,171921.000,A,3258.0682,N,11714.9216,W,60.00,162.50,261210,,,A*4F
$GPRMC,171924.000,A,3258.0202,N,11714.9037,W,60.20,162.30,261210,,,A*43
$GPRMC,171927.000,A,3257.9721,N,11714.8857,W,60.40,162.50,261210,,,A*4D
$GPRMC,171930.000,A,3257.9241,N,11714.8674,W,60.40,162.20,261210,,,A*40
$GPRMC,171933.000,A,3257.8760,N,11714.8491,W,60.40,162.20,261210,,,A*4D
$GPRMC,171936.000,A,3257.8280,N,11714.8309,W,60.50,162.50,261210,,,A*43
$GPRMC,171939.000,A,3257.7799,N,11714.8128,W,60.40,162.30,261210,,,A*48
$GPRMC,171942.000,A,3257.7318,N,11714.7947,W,60.50,162.50,261210,,,A*40
$GPRMC,171945.000,A,3257.6835,N,11714.7770,W,60.60,163.40,261210,,,A*4B
$GPRMC,171948.000,A,3257.6347,N,11714.7609,W,60.60,165.30,261210,,,A*46
$GPRMC,171951.000,A,3257.5855,N,11714.7466,W,60.60,167.20,261210,,,A*4D
$GPRMC,171954.000,A,3257.5358,N,11714.7343,W,60.70,169.00,261210,,,A*43
$GPRMC,171957.000,A,3257.4858,N,11714.7238,W,60.60,170.50,261210,,,A*4B
$GPRMC,172000.000,A,3257.4358,N,11714.7144,W,60.50,171.20,261210,,,A*45
$GPRMC,172003.000,A,3257.3857,N,11714.7053,W,60.60,171.10,261210,,,A*42
$GPRMC,172006.000,A,3257.3356,N,11714.6959,W,60.60,170.90,261210,,,A*46
$GPRMC,172009.000,A,3257.2855,N,11714.6864,W,60.70,171.00,261210,,,A*46
$GPRMC,172012.000,A,3257.2353,N,11714.6769,W,60.60,170.90,261210,,,A*4A
$GPRMC,172015.000,A,3257.1851,N,11714.6675,W,60.60,171.00,261210,,,A*43
$GPRMC,172018.000,A,3257.1352,N,11714.6581,W,60.80,171.00,261210,,,A*40
$GPRMC,172021.000,A,3257.0850,N,11714.6487,W,61.10,171.30,261210,,,A*4E
$GPRMC,172024.000,A,3257.0344,N,11714.6393,W,61.40,170.90,261210,,,A*49
$GPRMC,172027.000,A,3256.9838,N,11714.6294,W,61.70,170.50,261210,,,A*4B
$GPRMC,172030.000,A,3256.9330,N,11714.6199,W,61.90,171.00,261210,,,A*4A
$GPRMC,172033.000,A,3256.8821,N,11714.6103,W,61.70,170.90,261210,,,A*46
$GPRMC,172036.000,A,3256.8317,N,11714.6006,W,61.40,171.00,261210,,,A*42
$GPRMC,172039.000,A,3256.7813,N,11714.5912,W,61.20,170.90,261210,,,A*4C
$GPRMC,172042.000,A,3256.7310,N,11714.5819,W,61.10,171.10,261210,,,A*48
$GPRMC,172045.000,A,3256.6807,N,11714.5726,W,60.90,171.00,261210,,,A*48
$GPRMC,172048.000,A,3256.6305,N,11714.5632,W,60.70,171.00,261210,,,A*46
$GPRMC,172051.000,A,3256.5803,N,11714.5541,W,60.70,171.60,261210,,,A*41
$GPRMC,172054.000,A,3256.5302,N,11714.5453,W,60.50,171.50,261210,,,A*4D
$GPRMC,172057.000,A,3256.4801,N,11714.5363,W,60.60,171.20,261210,,,A*47
$GPRMC,172100.000,A,3256.4299,N,11714.5271,W,60.70,171.60,261210,,,A*48
$GPRMC,172103.000,A,3256.3797,N,11714.5189,W,60.70,173.20,261210,,,A*45
$GPRMC,172106.000,A,3256.3292,N,11714.5126,W,60.70,174.90,261210,,,A*49
$GPRMC,172109.000,A,3256.2786,N,11714.5080,W,60.70,176.40,261210,,,A*45
$GPRMC,172112.000,A,3256.2279,N,11714.5044,W,60.70,176.70,261210,,,A*41
$GPRMC,172115.000,A,3256.1774,N,11714.5007,W,60.80,176.50,261210,,,A*47
$GPRMC,172118.000,A,3256.1267,N,11714.4969,W,60.60,176.40,261210,,,A*42
$GPRMC,172121.000,A,3256.0760,N,11714.4933,W,60.80,176.60,261210,,,A*48
$GPRMC,172124.000,A,3256.0253,N,11714.4895,W,60.60,176.10,261210,,,A*4C
$GPRMC,172127.000,A,3255.9748,N,11714.4848,W,60.70,175.00,261210,,,A*49
$GPRMC,172130.000,A,3255.9246,N,11714.4791,W,60.50,174.00,261210,,,A*4C
$GPRMC,172133.000,A,3255.8742,N,11714.4722,W,61.00,173.00,261210,,,A*44
$GPRMC,172136.000,A,3255.8244,N,11714.4630,W,60.40,170.20,261210,,,A*44
$GPRMC,172139.000,A,3255.7748,N,11714.4519,W,60.00,168.50,261210,,,A*4F
$GPRMC,172142.000,A,3255.7259,N,11714.4396,W,59.60,167.20,261210,,,A*43
$GPRMC,172145.000,A,3255.6776,N,11714.4255,W,59.70,165.20,261210,,,A*40
$GPRMC,172148.000,A,3255.6294,N,11714.4098,W,59.80,164.30,261210,,,A*48
$GPRMC,172151.000,A,3255.5814,N,11714.3936,W,60.00,164.40,261210,,,A*4E
$GPRMC,172154.000,A,3255.5331,N,11714.3777,W,60.20,164.40,261210,,,A*4E
$GPRMC,172157.000,A,3255.4847,N,11714.3617,W,60.40,164.40,261210,,,A*47
$GPRMC,172200.000,A,3255.4363,N,11714.3456,W,60.30,164.00,261210,,,A*4F
$GPRMC,172203.000,A,3255.3884,N,11714.3276,W,60.40,160.90,261210,,,A*47
$GPRMC,172206.000,A,3255.3415,N,11714.3061,W,60.20,157.10,261210,,,A*48
$GPRMC,172209.000,A,3255.2956,N,11714.2815,W,60.20,154.70,261210,,,A*43
$GPRMC,172212.000,A,3255.2514,N,11714.2531,W,59.80,151.00,261210,,,A*4A
$GPRMC,172215.000,A,3255.2088,N,11714.2211,W,60.50,146.80,261210,,,A*41
$GPRMC,172218.000,A,3255.1671,N,11714.1866,W,60.40,143.90,261210,,,A*43
$GPRMC,172221.000,A,3255.1267,N,11714.1488,W,61.00,140.90,261210,,,A*40
$GPRMC,172224.000,A,3255.0893,N,11714.1075,W,61.20,136.30,261210,,,A*4A
$GPRMC,172227.000,A,3255.0538,N,11714.0644,W,61.30,132.70,261210,,,A*41
$GPRMC,172230.000,A,3255.0203,N,11714.0184,W,61.30,130.00,261210,,,A*46
$GPRMC,172233.000,A,3254.9872,N,11713.9718,W,61.50,130.00,261210,,,A*4A
$GPRMC,172236.000,A,3254.9542,N,11713.9255,W,61.50,130.60,261210,,,A*4B
$GPRMC,172239.000,A,3254.9179,N,11713.8831,W,60.90,138.30,261210,,,A*41
$GPRMC,172242.000,A,3254.8779,N,11713.8451,W,60.90,144.00,261210,,,A*48
$GPRMC,172245.000,A,3254.8355,N,11713.8118,W,61.20,149.00,261210,,,A*4A
$GPRMC,172248.000,A,3254.7910,N,11713.7831,W,60.60,152.10,261210,,,A*40
$GPRMC,172251.000,A,3254.7464,N,11713.7547,W,60.50,151.60,261210,,,A*4D
$GPRMC,172254.000,A,3254.7020,N,11713.7257,W,60.50,150.90,261210,,,A*44
$GPRMC,172257.000,A,3254.6576,N,11713.6970,W,60.50,151.60,261210,,,A*41
$GPRMC,172300.000,A,3254.6130,N,11713.6685,W,60.80,152.00,261210,,,A*49
$GPRMC,172303.000,A,3254.5682,N,11713.6403,W,61.00,151.90,261210,,,A*48
$GPRMC,172306.000,A,3254.5234,N,11713.6119,W,61.30,152.10,261210,,,A*42
$GPRMC,172309.000,A,3254.4780,N,11713.5836,W,61.60,152.10,261210,,,A*44
$GPRMC,172312.000,A,3254.4322,N,11713.5554,W,62.10,152.80,261210,,,A*46
$GPRMC,172315.000,A,3254.3866,N,11713.5282,W,60.80,152.60,261210,,,A*44
$GPRMC,172318.000,A,3254.3420,N,11713.5003,W,60.50,151.70,261210,,,A*43
$GPRMC,172321.000,A,3254.2986,N,11713.4710,W,60.50,148.30,261210,,,A*41
$GPRMC,172324.000,A,3254.2562,N,11713.4384,W,60.10,145.40,261210,,,A*45
$GPRMC,172327.000,A,3254.2158,N,11713.4030,W,60.40,142.20,261210,,,A*43
$GPRMC,172330.000,A,3254.1769,N,11713.3650,W,60.10,140.50,261210,,,A*45
$GPRMC,172333.000,A,3254.1381,N,11713.3277,W,60.10,140.40,261210,,,A*44
$GPRMC,172336.000,A,3254.0994,N,11713.2901,W,60.30,140.40,261210,,,A*47
$GPRMC,172339.000,A,3254.0605,N,11713.2525,W,60.30,140.70,261210,,,A*46
$GPRMC,172342.000,A,3254.0215,N,11713.2150,W,60.30,140.70,261210,,,A*49
$GPRMC,172345.000,A,3253.9824,N,11713.1774,W,60.40,140.90,261210,,,A*42
$GPRMC,172348.000,A,3253.9431,N,11713.1401,W,60.30,141.20,261210,,,A*4B
$GPRMC,172351.000,A,3253.9036,N,11713.1030,W,60.50,141.30,261210,,,A*41
$GPRMC,172354.000,A,3253.8645,N,11713.0657,W,60.50,141.30,261210,,,A*41
$GPRMC,172357.000,A,3253.8250,N,11713.0287,W,60.40,142.40,261210,,,A*4E
$GPRMC,172400.000,A,3253.7856,N,11712.9915,W,60.50,140.50,261210,,,A*42
$GPRMC,172403.000,A,3253.7479,N,11712.9522,W,60.50,137.10,261210,,,A*4C
$GPRMC,172406.000,A,3253.7120,N,11712.9106,W,60.70,133.90,261210,,,A*4C
$GPRMC,172409.000,A,3253.6782,N,11712.8655,W,60.80,130.40,261210,,,A*4D
$GPRMC,172412.000,A,3253.6460,N,11712.8180,W,60.90,127.70,261210,,,A*43
$GPRMC,172415.000,A,3253.6171,N,11712.7677,W,60.80,122.90,261210,,,A*4B
$GPRMC,172418.000,A,3253.5906,N,11712.7162,W,60.90,119.40,261210,,,A*4A
$GPRMC,172421.000,A,3253.5667,N,11712.6630,W,60.80,116.20,261210,,,A*41
$GPRMC,172424.000,A,3253.5451,N,11712.6086,W,60.60,115.00,261210,,,A*47
$GPRMC,172427.000,A,3253.5240,N,11712.5539,W,61.00,114.50,261210,,,A*43
$GPRMC,172430.000,A,3253.5016,N,11712.5006,W,59.80,118.20,261210,,,A*45
$GPRMC,172433.000,A,3253.4750,N,11712.4494,W,60.00,122.50,261210,,,A*40
$GPRMC,172436.000,A,3253.4452,N,11712.4009,W,59.90,129.00,261210,,,A*49
$GPRMC,172439.000,A,3253.4122,N,11712.3564,W,60.10,134.10,261210,,,A*42
$GPRMC,172442.000,A,3253.3760,N,11712.3153,W,60.40,137.80,261210,,,A*46
$GPRMC,172445.000,A,3253.3368,N,11712.2784,W,60.30,145.00,261210,,,A*4A
$GPRMC,172448.000,A,3253.2949,N,11712.2460,W,60.40,148.30,261210,,,A*4F
$GPRMC,172451.000,A,3253.2508,N,11712.2178,W,59.70,152.90,261210,,,A*4A
$GPRMC,172454.000,A,3253.2043,N,11712.1947,W,61.80,159.90,261210,,,A*4D
$GPRMC,172457.000,A,3253.1564,N,11712.1761,W,60.30,162.80,261210,,,A*44
$GPRMC,172500.000,A,3253.1079,N,11712.1605,W,60.70,165.90,261210,,,A*4F
$GPRMC,172503.000,A,3253.0588,N,11712.1462,W,60.80,165.90,261210,,,A*4A
$GPRMC,172506.000,A,3253.0098,N,11712.1321,W,60.80,165.70,261210,,,A*45
$GPRMC,172509.000,A,3252.9608,N,11712.1175,W,60.80,165.10,261210,,,A*48
$GPRMC,172512.000,A,3252.9117,N,11712.1027,W,60.80,165.70,261210,,,A*4B
$GPRMC,172515.000,A,3252.8627,N,11712.0882,W,60.60,165.70,261210,,,A*41
$GPRMC,172518.000,A,3252.8135,N,11712.0736,W,60.90,165.90,261210,,,A*49
$GPRMC,172521.000,A,3252.7643,N,11712.0588,W,60.90,165.60,261210,,,A*42
$GPRMC,172524.000,A,3252.7150,N,11712.0437,W,61.00,165.50,261210,,,A*4C
$GPRMC,172527.000,A,3252.6658,N,11712.0289,W,60.90,165.60,261210,,,A*49
$GPRMC,172530.000,A,3252.6167,N,11712.0138,W,60.90,164.50,261210,,,A*4F
$GPRMC,172533.000,A,3252.5682,N,11711.9963,W,60.80,161.30,261210,,,A*4D
$GPRMC,172536.000,A,3252.5207,N,11711.9753,W,60.80,158.30,261210,,,A*46
$GPRMC,172539.000,A,3252.4748,N,11711.9505,W,60.40,154.40,261210,,,A*40
$GPRMC,172542.000,A,3252.4301,N,11711.9223,W,60.50,151.00,261210,,,A*46
$GPRMC,172545.000,A,3252.3868,N,11711.8910,W,60.60,147.10,261210,,,A*4D
$GPRMC,172548.000,A,3252.3451,N,11711.8570,W,60.50,143.80,261210,,,A*42
$GPRMC,172551.000,A,3252.3051,N,11711.8203,W,60.70,141.30,261210,,,A*46
$GPRMC,172554.000,A,3252.2657,N,11711.7825,W,60.80,141.20,261210,,,A*4D
$GPRMC,172557.000,A,3252.2262,N,11711.7448,W,60.90,141.20,261210,,,A*4A
$GPRMC,172600.000,A,3252.1864,N,11711.7069,W,61.20,141.30,261210,,,A*48
$GPRMC,172603.000,A,3252.1464,N,11711.6689,W,61.30,141.80,261210,,,A*44
$GPRMC,172606.000,A,3252.1064,N,11711.6308,W,61.10,141.10,261210,,,A*42
$GPRMC,172609.000,A,3252.0668,N,11711.5925,W,61.10,141.20,261210,,,A*43
$GPRMC,172612.000,A,3252.0270,N,11711.5543,W,60.70,141.70,261210,,,A*4A
$GPRMC,172615.000,A,3251.9871,N,11711.5160,W,61.00,141.10,261210,,,A*49
$GPRMC,172618.000,A,3251.9475,N,11711.4782,W,60.60,141.20,261210,,,A*43
$GPRMC,172621.000,A,3251.9079,N,11711.4408,W,60.50,141.30,261210,,,A*42
$GPRMC,172624.000,A,3251.8685,N,11711.4034,W,60.40,141.30,261210,,,A*49
$GPRMC,172627.000,A,3251.8292,N,11711.3661,W,60.30,141.40,261210,,,A*49
$GPRMC,172630.000,A,3251.7901,N,11711.3287,W,60.20,140.80,261210,,,A*41
$GPRMC,172633.000,A,3251.7510,N,11711.2913,W,60.30,141.40,261210,,,A*45
$GPRMC,172636.000,A,3251.7117,N,11711.2540,W,60.50,141.30,261210,,,A*48
$GPRMC,172639.000,A,3251.6724,N,11711.2173,W,60.10,141.90,261210,,,A*4A
$GPRMC,172642.000,A,3251.6319,N,11711.1819,W,60.60,144.80,261210,,,A*49
$GPRMC,172645.000,A,3251.5897,N,11711.1492,W,60.50,147.90,261210,,,A*4E
$GPRMC,172648.000,A,3251.5460,N,11711.1193,W,61.00,150.60,261210,,,A*4E
$GPRMC,172651.000,A,3251.5013,N,11711.0915,W,60.80,151.70,261210,,,A*48
$GPRMC,172654.000,A,3251.4556,N,11711.0647,W,61.10,152.90,261210,,,A*45
$GPRMC,172657.000,A,3251.4101,N,11711.0378,W,61.30,152.80,261210,,,A*4A
$GPRMC,172700.000,A,3251.3648,N,11711.0098,W,61.30,152.50,261210,,,A*44
$GPRMC,172703.000,A,3251.3197,N,11710.9820,W,61.30,152.70,261210,,,A*43
$GPRMC,172706.000,A,3251.2739,N,11710.9540,W,61.30,152.60,261210,,,A*4F
$GPRMC,172709.000,A,3251.2284,N,11710.9264,W,61.10,152.70,261210,,,A*41
$GPRMC,172712.000,A,3251.1831,N,11710.8987,W,60.90,152.80,261210,,,A*4D
$GPRMC,172715.000,A,3251.1378,N,11710.8712,W,60.70,152.50,261210,,,A*4D
$GPRMC,172718.000,A,3251.0926,N,11710.8435,W,60.80,152.70,261210,,,A*4B
$GPRMC,172721.000,A,3251.0475,N,11710.8160,W,60.80,152.90,261210,,,A*41
$GPRMC,172724.000,A,3251.0025,N,11710.7886,W,60.80,152.80,261210,,,A*4A
$GPRMC,172727.000,A,3250.9575,N,11710.7611,W,61.00,152.80,261210,,,A*48
$GPRMC,172730.000,A,3250.9129,N,11710.7337,W,60.30,152.80,261210,,,A*40
$GPRMC,172733.000,A,3250.8684,N,11710.7064,W,60.30,152.80,261210,,,A*47
$GPRMC,172736.000,A,3250.8234,N,11710.6793,W,60.50,152.70,261210,,,A*4A
$GPRMC,172739.000,A,3250.7787,N,11710.6518,W,60.50,152.60,261210,,,A*47
$GPRMC,172742.000,A,3250.7338,N,11710.6244,W,60.40,152.90,261210,,,A*4B
$GPRMC,172745.000,A,3250.6892,N,11710.5971,W,60.30,152.80,261210,,,A*4E
$GPRMC,172748.000,A,3250.6447,N,11710.5698,W,60.20,152.60,261210,,,A*40
$GPRMC,172751.000,A,3250.6002,N,11710.5425,W,60.20,152.60,261210,,,A*49
$GPRMC,172754.000,A,3250.5552,N,11710.5158,W,60.30,153.20,261210,,,A*44
$GPRMC,172757.000,A,3250.5103,N,11710.4894,W,60.20,153.50,261210,,,A*49
$GPRMC,172800.000,A,3250.4656,N,11710.4619,W,60.30,152.50,261210,,,A*49
$GPRMC,172803.000,A,3250.4212,N,11710.4346,W,60.30,152.70,261210,,,A*43
$GPRMC,172806.000,A,3250.3763,N,11710.4076,W,60.60,153.20,261210,,,A*43
$GPRMC,172809.000,A,3250.3310,N,11710.3804,W,61.00,153.00,261210,,,A*43
$GPRMC,172812.000,A,3250.2864,N,11710.3528,W,60.80,152.60,261210,,,A*4D
$GPRMC,172815.000,A,3250.2424,N,11710.3246,W,60.90,152.80,261210,,,A*42
$GPRMC,172818.000,A,3250.1979,N,11710.2969,W,60.80,152.80,261210,,,A*4F
$GPRMC,172821.000,A,3250.1525,N,11710.2692,W,61.00,153.10,261210,,,A*4A
$GPRMC,172824.000,A,3250.1078,N,11710.2415,W,60.90,152.60,261210,,,A*41
$GPRMC,172827.000,A,3250.0627,N,11710.2140,W,60.80,152.60,261210,,,A*4B
$GPRMC,172830.000,A,3250.0170,N,11710.1862,W,61.70,152.60,261210,,,A*4C
$GPRMC,172833.000,A,3249.9722,N,11710.1586,W,60.70,152.40,261210,,,A*4B
$GPRMC,172836.000,A,3249.9269,N,11710.1310,W,60.90,152.70,261210,,,A*40
$GPRMC,172839.000,A,3249.8819,N,11710.1032,W,60.50,152.30,261210,,,A*48
$GPRMC,172842.000,A,3249.8370,N,11710.0757,W,60.70,152.70,261210,,,A*43
$GPRMC,172845.000,A,3249.7917,N,11710.0483,W,60.90,152.90,261210,,,A*4A
$GPRMC,172848.000,A,3249.7466,N,11710.0210,W,61.30,152.70,261210,,,A*45
$GPRMC,172851.000,A,3249.7015,N,11709.9936,W,60.60,152.90,261210,,,A*49
$GPRMC,172855.000,A,3249.6412,N,11709.9572,W,60.80,152.70,261210,,,A*43
$GPRMC,172858.000,A,3249.5961,N,11709.9297,W,60.60,152.90,261210,,,A*48
$GPRMC,172901.000,A,3249.5511,N,11709.9027,W,60.30,152.90,261210,,,A*42
$GPRMC,172904.000,A,3249.5059,N,11709.8755,W,60.70,153.10,261210,,,A*40
$GPRMC,172907.000,A,3249.4604,N,11709.8484,W,60.70,153.40,261210,,,A*46
$GPRMC,172910.000,A,3249.4150,N,11709.8220,W,60.80,154.10,261210,,,A*43
$GPRMC,172913.000,A,3249.3693,N,11709.7961,W,60.90,154.00,261210,,,A*4E
$GPRMC,172916.000,A,3249.3237,N,11709.7695,W,60.40,153.60,261210,,,A*49
$GPRMC,172919.000,A,3249.2783,N,11709.7427,W,60.80,153.60,261210,,,A*4A
$GPRMC,172922.000,A,3249.2327,N,11709.7162,W,60.60,153.70,261210,,,A*43
$GPRMC,172925.000,A,3249.1871,N,11709.6899,W,60.40,153.90,261210,,,A*4F
$GPRMC,172928.000,A,3249.1418,N,11709.6635,W,60.60,153.90,261210,,,A*4B
$GPRMC,172931.000,A,3249.0962,N,11709.6370,W,60.60,154.00,261210,,,A*48
$GPRMC,172934.000,A,3249.0505,N,11709.6107,W,60.30,154.20,261210,,,A*45
$GPRMC,172937.000,A,3249.0052,N,11709.5845,W,59.80,153.50,261210,,,A*4C
$GPRMC,172940.000,A,3248.9598,N,11709.5581,W,60.40,153.60,261210,,,A*47
$GPRMC,172943.000,A,3248.9147,N,11709.5305,W,60.60,151.60,261210,,,A*48
$GPRMC,172946.000,A,3248.8716,N,11709.4988,W,60.60,146.40,261210,,,A*44
$GPRMC,172949.000,A,3248.8294,N,11709.4641,W,60.50,144.30,261210,,,A*48
$GPRMC,172952.000,A,3248.7885,N,11709.4263,W,61.10,141.90,261210,,,A*49
$GPRMC,172955.000,A,3248.7489,N,11709.3874,W,61.20,140.80,261210,,,A*46
$GPRMC,172958.000,A,3248.7093,N,11709.3487,W,61.10,140.80,261210,,,A*47
$GPRMC,173001.000,A,3248.6699,N,11709.3102,W,61.10,140.90,261210,,,A*47
$GPRMC,173004.000,A,3248.6303,N,11709.2719,W,61.10,140.80,261210,,,A*48
$GPRMC,173007.000,A,3248.5918,N,11709.2333,W,59.70,140.70,261210,,,A*46
$GPRMC,173010.000,A,3248.5512,N,11709.1971,W,60.70,143.70,261210,,,A*40
$GPRMC,173013.000,A,3248.5097,N,11709.1648,W,59.90,147.50,261210,,,A*4C
$GPRMC,173016.000,A,3248.4645,N,11709.1363,W,60.30,152.60,261210,,,A*4A
$GPRMC,173019.000,A,3248.4177,N,11709.1130,W,60.70,158.20,261210,,,A*4D
$GPRMC,173022.000,A,3248.3698,N,11709.0935,W,60.60,163.10,261210,,,A*42
$GPRMC,173025.000,A,3248.3211,N,11709.0780,W,59.80,165.20,261210,,,A*41
$GPRMC,173028.000,A,3248.2716,N,11709.0657,W,60.60,167.20,261210,,,A*42
$GPRMC,173031.000,A,3248.2222,N,11709.0528,W,60.60,167.20,261210,,,A*43
$GPRMC,173034.000,A,3248.1727,N,11709.0396,W,60.70,167.30,261210,,,A*46
$GPRMC,173037.000,A,3248.1234,N,11709.0266,W,60.70,167.40,261210,,,A*4B
$GPRMC,173040.000,A,3248.0741,N,11709.0135,W,60.60,167.10,261210,,,A*4C
$GPRMC,173043.000,A,3248.0247,N,11709.0001,W,60.60,167.10,261210,,,A*4A
$GPRMC,173046.000,A,3247.9746,N,11708.9890,W,60.80,170.70,261210,,,A*4B
$GPRMC,173049.000,A,3247.9241,N,11708.9815,W,60.80,175.30,261210,,,A*4A
$GPRMC,173052.000,A,3247.8739,N,11708.9789,W,60.70,179.70,261210,,,A*46
$GPRMC,173326.000,A,3245.7092,N,11707.6365,W,57.40,167.00,261210,,,A*44
$GPRMC,173329.000,A,3245.6638,N,11707.6235,W,56.70,167.00,261210,,,A*4A
$GPRMC,173332.000,A,3245.6200,N,11707.6109,W,56.40,166.50,261210,,,A*44
$GPRMC,173335.000,A,3245.5758,N,11707.5967,W,57.00,165.30,261210,,,A*4B
$GPRMC,173338.000,A,3245.5292,N,11707.5814,W,58.60,164.70,261210,,,A*4C
$GPRMC,173341.000,A,3245.4820,N,11707.5664,W,59.50,165.50,261210,,,A*48
$GPRMC,173344.000,A,3245.4340,N,11707.5509,W,60.00,166.10,261210,,,A*40
$GPRMC,173347.000,A,3245.3836,N,11707.5337,W,62.90,164.50,261210,,,A*48
$GPRMC,173350.000,A,3245.3331,N,11707.5157,W,62.40,163.50,261210,,,A*4C
$GPRMC,173353.000,A,3245.2838,N,11707.5004,W,60.40,165.00,261210,,,A*4A
$GPRMC,173356.000,A,3245.2358,N,11707.4845,W,58.50,164.70,261210,,,A*42
$GPRMC,173359.000,A,3245.1889,N,11707.4685,W,58.20,164.10,261210,,,A*4A
$GPRMC,173402.000,A,3245.1422,N,11707.4522,W,57.60,164.10,261210,,,A*4B
$GPRMC,173405.000,A,3245.0964,N,11707.4368,W,56.40,165.00,261210,,,A*49
$GPRMC,173408.000,A,3245.0512,N,11707.4223,W,55.50,164.80,261210,,,A*4C
$GPRMC,173411.000,A,3245.0076,N,11707.4060,W,54.10,161.70,261210,,,A*49
$GPRMC,173414.000,A,3244.9656,N,11707.3889,W,51.60,160.10,261210,,,A*4D
$GPRMC,173417.000,A,3244.9273,N,11707.3715,W,47.60,157.50,261210,,,A*40
$GPRMC,173420.000,A,3244.8945,N,11707.3543,W,41.40,155.90,261210,,,A*40
$GPRMC,173423.000,A,3244.8735,N,11707.3485,W,23.90,182.00,261210,,,A*4B
