NMEA Sentence Code,UTC Time,Status,Latitude,Latitude Direction,Longitude,Longitude Direction,Speed (knots),Track Angle (degrees true),Date,MagneticVariation,Magnetic Variation Direction,[FAA Mode]-Optional,Checksum
$GPRMC,195520.000,A,3313.2610,N,11723.6706,W,5.10,13.70,200910,,,A*4B
$GPRMC,195523.000,A,3313.2686,N,11723.6681,W,13.10,15.70,200910,,,A*78
$GPRMC,195526.000,A,3313.2822,N,11723.6630,W,19.20,19.10,200910,,,A*74
$GPRMC,195529.000,A,3313.2972,N,11723.6578,W,17.50,13.10,200910,,,A*73
$GPRMC,195532.000,A,3313.3120,N,11723.6594,W,17.30,350.50,200910,,,A*43
$GPRMC,195535.000,A,3313.3271,N,11723.6651,W,19.00,340.60,200910,,,A*46
$GPRMC,195538.000,A,3313.3412,N,11723.6724,W,17.50,333.80,200910,,,A*4A
$GPRMC,195541.000,A,3313.3499,N,11723.6790,W,11.70,322.90,200910,,,A*4D
$GPRMC,195550.000,A,3313.3533,N,11723.6808,W,3.80,294.80,200910,,,A*73
$GPRMC,195553.000,A,3313.3460,N,11723.6963,W,19.40,230.80,200910,,,A*42
$GPRMC,195556.000,A,3313.3353,N,11723.7130,W,22.00,229.70,200910,,,A*44
$GPRMC,195559.000,A,3313.3230,N,11723.7309,W,23.40,230.00,200910,,,A*4D
$GPRMC,195602.000,A,3313.3102,N,11723.7494,W,23.80,229.10,200910,,,A*44
$GPRMC,195605.000,A,3313.2986,N,11723.7666,W,21.80,229.80,200910,,,A*42
$GPRMC,195608.000,A,3313.2870,N,11723.7833,W,21.70,230.50,200910,,,A*43
$GPRMC,195611.000,A,3313.2763,N,11723.8007,W,21.50,235.80,200910,,,A*4C
$GPRMC,195614.000,A,3313.2690,N,11723.8207,W,22.00,250.60,200910,,,A*4D
$GPRMC,195617.000,A,3313.2657,N,11723.8437,W,23.60,262.90,200910,,,A*49
$GPRMC,195620.000,A,3313.2677,N,11723.8669,W,23.30,279.00,200910,,,A*40
$GPRMC,195623.000,A,3313.2739,N,11723.8885,W,23.10,289.50,200910,,,A*4C
$GPRMC,195626.000,A,3313.2861,N,11723.9067,W,23.40,312.60,200910,,,A*4B
$GPRMC,195629.000,A,3313.3002,N,11723.9233,W,24.10,315.80,200910,,,A*40
$GPRMC,195632.000,A,3313.3143,N,11723.9396,W,23.30,316.70,200910,,,A*49
$GPRMC,195635.000,A,3313.3281,N,11723.9557,W,22.90,316.50,200910,,,A*41
$GPRMC,195638.000,A,3313.3421,N,11723.9709,W,22.60,317.30,200910,,,A*41
$GPRMC,195641.000,A,3313.3557,N,11723.9857,W,21.40,317.30,200910,,,A*4A
$GPRMC,195644.000,A,3313.3687,N,11723.9999,W,20.40,316.90,200910,,,A*48
$GPRMC,195647.000,A,3313.3812,N,11724.0138,W,20.60,316.90,200910,,,A*46
$GPRMC,195650.000,A,3313.3942,N,11724.0280,W,21.20,318.80,200910,,,A*4E
$GPRMC,195653.000,A,3313.4074,N,11724.0426,W,21.60,317.30,200910,,,A*4C
$GPRMC,195656.000,A,3313.4206,N,11724.0572,W,21.00,316.70,200910,,,A*4D
$GPRMC,195659.000,A,3313.4318,N,11724.0697,W,14.20,317.90,200910,,,A*4F
$GPRMC,195705.000,A,3313.4405,N,11724.0738,W,10.10,12.00,200910,,,A*70
$GPRMC,195708.000,A,3313.4487,N,11724.0666,W,15.80,45.70,200910,,,A*74
$GPRMC,195711.000,A,3313.4589,N,11724.0540,W,19.50,47.00,200910,,,A*70
$GPRMC,195714.000,A,3313.4701,N,11724.0394,W,20.40,47.80,200910,,,A*7B
$GPRMC,195717.000,A,3313.4817,N,11724.0245,W,20.50,47.70,200910,,,A*73
$GPRMC,195720.000,A,3313.4933,N,11724.0096,W,20.40,46.50,200910,,,A*7E
$GPRMC,195723.000,A,3313.5048,N,11723.9948,W,20.10,46.90,200910,,,A*74
$GPRMC,195726.000,A,3313.5158,N,11723.9806,W,18.80,47.80,200910,,,A*78
$GPRMC,195729.000,A,3313.5267,N,11723.9666,W,19.20,47.60,200910,,,A*75
$GPRMC,195732.000,A,3313.5379,N,11723.9523,W,20.20,47.10,200910,,,A*7E
$GPRMC,195735.000,A,3313.5498,N,11723.9373,W,21.10,46.60,200910,,,A*76
$GPRMC,195738.000,A,3313.5620,N,11723.9220,W,21.10,46.80,200910,,,A*73
$GPRMC,195741.000,A,3313.5741,N,11723.9068,W,21.00,46.70,200910,,,A*7B
$GPRMC,195744.000,A,3313.5857,N,11723.8917,W,19.80,47.50,200910,,,A*76
$GPRMC,195747.000,A,3313.5960,N,11723.8781,W,16.20,47.00,200910,,,A*71
$GPRMC,195750.000,A,3313.6017,N,11723.8710,W,6.60,40.60,200910,,,A*41
$GPRMC,195753.000,A,3313.6031,N,11723.8666,W,5.50,82.90,200910,,,A*47
$GPRMC,195756.000,A,3313.5972,N,11723.8576,W,15.80,133.20,200910,,,A*41
$GPRMC,195759.000,A,3313.5854,N,11723.8452,W,20.20,135.00,200910,,,A*44
$GPRMC,195802.000,A,3313.5714,N,11723.8295,W,21.70,136.90,200910,,,A*4D
$GPRMC,195805.000,A,3313.5579,N,11723.8144,W,21.50,135.80,200910,,,A*4C
$GPRMC,195808.000,A,3313.5447,N,11723.7997,W,21.50,137.10,200910,,,A*4F
$GPRMC,195811.000,A,3313.5313,N,11723.7850,W,21.30,137.80,200910,,,A*44
$GPRMC,195814.000,A,3313.5180,N,11723.7710,W,20.80,138.80,200910,,,A*47
$GPRMC,195817.000,A,3313.5052,N,11723.7570,W,20.30,138.70,200910,,,A*4A
$GPRMC,195820.000,A,3313.4926,N,11723.7441,W,20.20,140.10,200910,,,A*4E
$GPRMC,195823.000,A,3313.4796,N,11723.7306,W,20.10,139.80,200910,,,A*48
$GPRMC,195826.000,A,3313.4662,N,11723.7173,W,21.50,139.50,200910,,,A*4F
$GPRMC,195829.000,A,3313.4528,N,11723.7041,W,20.90,140.00,200910,,,A*4B
$GPRMC,195832.000,A,3313.4397,N,11723.6910,W,20.70,141.20,200910,,,A*42
$GPRMC,195835.000,A,3313.4263,N,11723.6778,W,20.90,140.90,200910,,,A*4B
$GPRMC,195838.000,A,3313.4127,N,11723.6650,W,21.60,143.40,200910,,,A*4E
$GPRMC,195841.000,A,3313.3978,N,11723.6543,W,22.00,151.90,200910,,,A*4F
$GPRMC,195844.000,A,3313.3809,N,11723.6450,W,22.70,156.20,200910,,,A*45
$GPRMC,195847.000,A,3313.3632,N,11723.6368,W,23.00,160.50,200910,,,A*48
$GPRMC,195850.000,A,3313.3449,N,11723.6314,W,22.70,166.00,200910,,,A*4E
$GPRMC,195853.000,A,3313.3272,N,11723.6276,W,21.30,170.50,200910,,,A*43
$GPRMC,195856.000,A,3313.3108,N,11723.6255,W,20.00,172.30,200910,,,A*4F
$GPRMC,195859.000,A,3313.2948,N,11723.6231,W,20.10,172.70,200910,,,A*4A
$GPRMC,195902.000,A,3313.2771,N,11723.6203,W,21.20,172.40,200910,,,A*41
$GPRMC,195905.000,A,3313.2595,N,11723.6178,W,21.80,172.70,200910,,,A*48
$GPRMC,195908.000,A,3313.2414,N,11723.6155,W,22.10,172.70,200910,,,A*48
$GPRMC,195911.000,A,3313.2234,N,11723.6128,W,21.60,172.80,200910,,,A*45
$GPRMC,195914.000,A,3313.2060,N,11723.6107,W,21.20,172.90,200910,,,A*4B
$GPRMC,195917.000,A,3313.1889,N,11723.6085,W,21.00,172.80,200910,,,A*4C
$GPRMC,195920.000,A,3313.1716,N,11723.6061,W,21.00,172.80,200910,,,A*4B
$GPRMC,195923.000,A,3313.1535,N,11723.6036,W,21.70,173.10,200910,,,A*46
$GPRMC,195926.000,A,3313.1347,N,11723.6005,W,22.60,172.70,200910,,,A*45
$GPRMC,195929.000,A,3313.1151,N,11723.5968,W,23.00,170.60,200910,,,A*4A
$GPRMC,195932.000,A,3313.0970,N,11723.5908,W,22.50,163.30,200910,,,A*4F
$GPRMC,195935.000,A,3313.0796,N,11723.5830,W,21.90,157.40,200910,,,A*4B
$GPRMC,195938.000,A,3313.0631,N,11723.5737,W,21.20,151.60,200910,,,A*4D
$GPRMC,195941.000,A,3313.0478,N,11723.5627,W,21.00,147.10,200910,,,A*4E
$GPRMC,195944.000,A,3313.0336,N,11723.5507,W,20.90,142.10,200910,,,A*4A
$GPRMC,195947.000,A,3313.0201,N,11723.5371,W,21.00,138.20,200910,,,A*4D
$GPRMC,195950.000,A,3313.0076,N,11723.5220,W,21.50,135.00,200910,,,A*46
$GPRMC,195953.000,A,3312.9947,N,11723.5049,W,23.40,132.50,200910,,,A*4A
$GPRMC,195956.000,A,3312.9814,N,11723.4877,W,23.70,132.70,200910,,,A*4D
$GPRMC,195959.000,A,3312.9679,N,11723.4699,W,24.00,132.90,200910,,,A*47
$GPRMC,200002.000,A,3312.9554,N,11723.4522,W,23.40,129.20,200910,,,A*42
$GPRMC,200005.000,A,3312.9453,N,11723.4318,W,22.20,114.10,200910,,,A*46
$GPRMC,200008.000,A,3312.9385,N,11723.4116,W,21.10,106.40,200910,,,A*4D
$GPRMC,200011.000,A,3312.9351,N,11723.3912,W,20.70,99.50,200910,,,A*76
$GPRMC,200014.000,A,3312.9377,N,11723.3722,W,18.80,80.30,200910,,,A*70
$GPRMC,200017.000,A,3312.9418,N,11723.3548,W,17.80,71.40,200910,,,A*75
$GPRMC,200020.000,A,3312.9465,N,11723.3392,W,15.60,68.70,200910,,,A*7D
$GPRMC,200023.000,A,3312.9507,N,11723.3278,W,12.30,66.30,200910,,,A*76
$GPRMC,200026.000,A,3312.9535,N,11723.3198,W,9.50,68.70,200910,,,A*49
$GPRMC,200035.000,A,3312.9534,N,11723.3172,W,4.70,74.00,200910,,,A*4B
$GPRMC,200038.000,A,3312.9584,N,11723.3053,W,10.00,56.30,200910,,,A*7E
$GPRMC,200041.000,A,3312.9695,N,11723.3023,W,16.50,359.80,200910,,,A*40
$GPRMC,200044.000,A,3312.9835,N,11723.3069,W,18.60,344.80,200910,,,A*4E
$GPRMC,200047.000,A,3313.0048,N,11723.3180,W,28.50,337.10,200910,,,A*4C
$GPRMC,200050.000,A,3313.0303,N,11723.3320,W,34.00,335.40,200910,,,A*41
$GPRMC,200053.000,A,3313.0564,N,11723.3462,W,34.20,335.50,200910,,,A*47
$GPRMC,200056.000,A,3313.0818,N,11723.3599,W,32.90,336.20,200910,,,A*48
$GPRMC,200059.000,A,3313.1066,N,11723.3728,W,31.70,335.90,200910,,,A*4A
$GPRMC,200102.000,A,3313.1307,N,11723.3858,W,31.90,335.90,200910,,,A*47
$GPRMC,200105.000,A,3313.1568,N,11723.3998,W,35.10,336.30,200910,,,A*47
$GPRMC,200108.000,A,3313.1856,N,11723.4147,W,38.20,336.50,200910,,,A*4F
$GPRMC,200111.000,A,3313.2159,N,11723.4306,W,40.20,336.00,200910,,,A*4F
$GPRMC,200114.000,A,3313.2467,N,11723.4468,W,40.30,336.40,200910,,,A*48
$GPRMC,200117.000,A,3313.2781,N,11723.4632,W,41.30,336.50,200910,,,A*4D
$GPRMC,200120.000,A,3313.3105,N,11723.4795,W,41.50,338.70,200910,,,A*44
$GPRMC,200123.000,A,3313.3446,N,11723.4911,W,43.10,348.10,200910,,,A*40
$GPRMC,200126.000,A,3313.3799,N,11723.4958,W,42.70,356.70,200910,,,A*47
$GPRMC,200129.000,A,3313.4146,N,11723.4972,W,40.80,357.80,200910,,,A*40
$GPRMC,200132.000,A,3313.4472,N,11723.4981,W,38.10,357.80,200910,,,A*42
