NMEA Sentence Code,UTC Time,Status,Latitude,Latitude Direction,Longitude,Longitude Direction,Speed (knots),Track Angle (degrees true),Date,MagneticVariation,Magnetic Variation Direction,[FAA Mode]-Optional,Checksum
$GPRMC,044558.000,A,3340.0423,N,11748.9963,W,66.58,111.80,161110,,,A*49
$GPRMC,044601.000,A,3340.0217,N,11748.9348,W,66.59,111.80,161110,,,A*45
$GPRMC,044604.000,A,3340.0001,N,11748.8733,W,66.59,112.15,161110,,,A*43
$GPRMC,044607.000,A,3339.9805,N,11748.8106,W,67.55,110.39,161110,,,A*4A
$GPRMC,044610.000,A,3339.9615,N,11748.7475,W,68.04,108.28,161110,,,A*4F
$GPRMC,044613.000,A,3339.9451,N,11748.6828,W,68.52,105.82,161110,,,A*45
$GPRMC,044616.000,A,3339.9300,N,11748.6165,W,69.01,104.77,161110,,,A*4F
$GPRMC,044619.000,A,3339.9181,N,11748.5495,W,69.01,102.30,161110,,,A*47
$GPRMC,044622.000,A,3339.9084,N,11748.4820,W,68.52,99.84,161110,,,A*73
$GPRMC,044625.000,A,3339.9004,N,11748.4124,W,69.50,98.44,161110,,,A*7F
$GPRMC,044628.000,A,3339.8914,N,11748.3448,W,69.01,99.49,161110,,,A*7B
$GPRMC,044631.000,A,3339.8827,N,11748.2760,W,69.50,99.49,161110,,,A*7E
$GPRMC,044634.000,A,3339.8749,N,11748.2074,W,69.50,99.14,161110,,,A*76
$GPRMC,044637.000,A,3339.8643,N,11748.1388,W,69.01,99.84,161110,,,A*70
$GPRMC,044640.000,A,3339.8543,N,11748.0713,W,69.01,100.20,161110,,,A*4B
$GPRMC,044643.000,A,3339.8437,N,11748.0046,W,68.52,100.20,161110,,,A*4A
$GPRMC,044646.000,A,3339.8341,N,11747.9374,W,68.04,99.84,161110,,,A*71
$GPRMC,044649.000,A,3339.8251,N,11747.8698,W,68.04,98.79,161110,,,A*7B
$GPRMC,044652.000,A,3339.8151,N,11747.8031,W,67.55,99.49,161110,,,A*7E
$GPRMC,044655.000,A,3339.8057,N,11747.7378,W,66.09,99.84,161110,,,A*76
$GPRMC,044658.000,A,3339.7977,N,11747.6721,W,65.61,98.44,161110,,,A*76
$GPRMC,044701.000,A,3339.7893,N,11747.6084,W,65.61,99.49,161110,,,A*74
$GPRMC,044704.000,A,3339.7813,N,11747.5450,W,65.61,99.49,161110,,,A*77
$GPRMC,044707.000,A,3339.7713,N,11747.4797,W,66.58,99.49,161110,,,A*7B
$GPRMC,044710.000,A,3339.7607,N,11747.4150,W,66.09,99.49,161110,,,A*70
$GPRMC,044713.000,A,3339.7517,N,11747.3506,W,66.09,99.84,161110,,,A*70
$GPRMC,044716.000,A,3339.7417,N,11747.2837,W,67.07,102.30,161110,,,A*49
$GPRMC,044719.000,A,3339.7266,N,11747.2190,W,67.07,106.88,161110,,,A*45
$GPRMC,044722.000,A,3339.7085,N,11747.1546,W,67.55,110.74,161110,,,A*4D
$GPRMC,044725.000,A,3339.6847,N,11747.0934,W,67.07,117.42,161110,,,A*40
$GPRMC,044728.000,A,3339.6574,N,11747.0352,W,65.61,120.23,161110,,,A*4B
$GPRMC,044731.000,A,3339.6287,N,11746.9795,W,65.61,121.64,161110,,,A*4D
$GPRMC,044734.000,A,3339.5975,N,11746.9248,W,66.09,124.10,161110,,,A*43
$GPRMC,044737.000,A,3339.5669,N,11746.8704,W,66.09,124.10,161110,,,A*4E
$GPRMC,044740.000,A,3339.5357,N,11746.8166,W,65.61,124.80,161110,,,A*40
$GPRMC,044743.000,A,3339.5038,N,11746.7635,W,65.61,124.10,161110,,,A*4E
$GPRMC,044746.000,A,3339.4742,N,11746.7082,W,66.09,122.70,161110,,,A*47
$GPRMC,044749.000,A,3339.4440,N,11746.6528,W,66.58,123.75,161110,,,A*4D
$GPRMC,044752.000,A,3339.4121,N,11746.5974,W,67.55,124.45,161110,,,A*4B
$GPRMC,044755.000,A,3339.3799,N,11746.5414,W,69.01,124.45,161110,,,A*4A
$GPRMC,044758.000,A,3339.3468,N,11746.4841,W,67.55,124.80,161110,,,A*41
$GPRMC,044801.000,A,3339.3149,N,11746.4281,W,68.04,124.10,161110,,,A*40
$GPRMC,044804.000,A,3339.2827,N,11746.3725,W,68.04,124.10,161110,,,A*49
$GPRMC,044807.000,A,3339.2521,N,11746.3145,W,68.52,121.99,161110,,,A*46
$GPRMC,044810.000,A,3339.2248,N,11746.2547,W,68.53,116.72,161110,,,A*4F
$GPRMC,044813.000,A,3339.1997,N,11746.1925,W,68.52,113.20,161110,,,A*4E
$GPRMC,044816.000,A,3339.1787,N,11746.1288,W,68.52,108.98,161110,,,A*41
$GPRMC,044819.000,A,3339.1614,N,11746.0638,W,68.04,106.52,161110,,,A*40
$GPRMC,044822.000,A,3339.1482,N,11745.9975,W,68.04,101.95,161110,,,A*45
$GPRMC,044825.000,A,3339.1385,N,11745.9302,W,68.52,100.20,161110,,,A*44
$GPRMC,044828.000,A,3339.1282,N,11745.8629,W,68.52,100.20,161110,,,A*42
$GPRMC,044831.000,A,3339.1182,N,11745.7947,W,69.01,99.84,161110,,,A*79
$GPRMC,044834.000,A,3339.1076,N,11745.7274,W,68.52,100.20,161110,,,A*45
$GPRMC,044837.000,A,3339.0973,N,11745.6602,W,68.04,100.55,161110,,,A*4E
$GPRMC,044840.000,A,3339.0889,N,11745.5932,W,68.04,99.84,161110,,,A*78
$GPRMC,044843.000,A,3339.0783,N,11745.5266,W,68.52,101.60,161110,,,A*4D
$GPRMC,044846.000,A,3339.0651,N,11745.4593,W,68.52,106.17,161110,,,A*4D
$GPRMC,044849.000,A,3339.0471,N,11745.3943,W,68.52,107.93,161110,,,A*49
$GPRMC,044852.000,A,3339.0281,N,11745.3299,W,68.52,109.34,161110,,,A*45
$GPRMC,044855.000,A,3339.0088,N,11745.2656,W,68.52,109.34,161110,,,A*4F
$GPRMC,044858.000,A,3338.9911,N,11745.2025,W,66.58,108.98,161110,,,A*42
$GPRMC,044901.000,A,3338.9728,N,11745.1371,W,68.53,109.34,161110,,,A*48
$GPRMC,044904.000,A,3338.9534,N,11745.0721,W,68.53,109.34,161110,,,A*42
$GPRMC,044907.000,A,3338.9338,N,11745.0068,W,68.52,110.04,161110,,,A*4B
$GPRMC,044910.000,A,3338.9142,N,11744.9427,W,68.52,109.34,161110,,,A*4E
$GPRMC,044913.000,A,3338.8952,N,11744.8780,W,68.52,108.98,161110,,,A*4D
$GPRMC,044916.000,A,3338.8762,N,11744.8140,W,67.55,109.69,161110,,,A*48
$GPRMC,044919.000,A,3338.8559,N,11744.7496,W,69.01,109.34,161110,,,A*4B
$GPRMC,044922.000,A,3338.8385,N,11744.6843,W,68.52,108.63,161110,,,A*45
$GPRMC,044925.000,A,3338.8212,N,11744.6193,W,68.52,108.63,161110,,,A*49
$GPRMC,044928.000,A,3338.8035,N,11744.5549,W,68.52,108.28,161110,,,A*4C
$GPRMC,044931.000,A,3338.7845,N,11744.4899,W,68.52,109.34,161110,,,A*49
$GPRMC,044934.000,A,3338.7661,N,11744.4252,W,68.04,108.98,161110,,,A*4D
$GPRMC,044937.000,A,3338.7481,N,11744.3608,W,66.61,108.98,161110,,,A*43
$GPRMC,044940.000,A,3338.7297,N,11744.3000,W,62.70,109.69,161110,,,A*47
$GPRMC,044943.000,A,3338.7140,N,11744.2427,W,60.26,108.28,161110,,,A*48
$GPRMC,044946.000,A,3338.6982,N,11744.1883,W,56.86,110.04,161110,,,A*43
$GPRMC,044949.000,A,3338.6763,N,11744.1394,W,55.44,121.64,161110,,,A*49
$GPRMC,044952.000,A,3338.6490,N,11744.0943,W,54.92,129.02,161110,,,A*4F
$GPRMC,044954.000,A,3338.6277,N,11744.0682,W,54.43,135.70,161110,,,A*40
$GPRMC,044958.000,A,3338.5785,N,11744.0251,W,55.40,145.20,161110,,,A*4D
$GPRMC,045001.000,A,3338.5376,N,11743.9939,W,57.35,146.25,161110,,,A*4C
$GPRMC,045004.000,A,3338.4967,N,11743.9620,W,59.29,146.25,161110,,,A*46
$GPRMC,045007.000,A,3338.4555,N,11743.9295,W,60.26,146.60,161110,,,A*46
$GPRMC,045009.000,A,3338.4269,N,11743.9079,W,60.75,146.95,161110,,,A*4C
$GPRMC,045013.000,A,3338.3689,N,11743.8638,W,60.75,146.95,161110,,,A*48
$GPRMC,045016.000,A,3338.3264,N,11743.8304,W,61.72,146.25,161110,,,A*4D
$GPRMC,045019.000,A,3338.2830,N,11743.7959,W,62.69,146.60,161110,,,A*4D
$GPRMC,045022.000,A,3338.2379,N,11743.7615,W,64.64,146.60,161110,,,A*4F
$GPRMC,045025.000,A,3338.1926,N,11743.7248,W,66.58,146.25,161110,,,A*4B
$GPRMC,045028.000,A,3338.1468,N,11743.6878,W,67.55,146.25,161110,,,A*45
$GPRMC,045031.000,A,3338.0999,N,11743.6492,W,68.52,146.25,161110,,,A*4F
$GPRMC,045034.000,A,3338.0525,N,11743.6112,W,68.52,145.90,161110,,,A*41
$GPRMC,045037.000,A,3338.0068,N,11743.5709,W,68.07,141.33,161110,,,A*4C
$GPRMC,045040.000,A,3337.9634,N,11743.5268,W,68.04,138.87,161110,,,A*45
$GPRMC,045043.000,A,3337.9219,N,11743.4792,W,68.55,135.70,161110,,,A*4D
$GPRMC,045046.000,A,3337.8807,N,11743.4313,W,68.53,135.35,161110,,,A*46
$GPRMC,045049.000,A,3337.8398,N,11743.3826,W,69.01,135.35,161110,,,A*48
$GPRMC,045052.000,A,3337.7986,N,11743.3347,W,69.01,136.05,161110,,,A*44
$GPRMC,045055.000,A,3337.7555,N,11743.2896,W,68.52,139.92,161110,,,A*41
$GPRMC,045058.000,A,3337.7101,N,11743.2478,W,68.52,142.38,161110,,,A*49
$GPRMC,045101.000,A,3337.6663,N,11743.2069,W,67.55,142.03,161110,,,A*42
$GPRMC,045104.000,A,3337.6222,N,11743.1651,W,67.55,142.03,161110,,,A*48
$GPRMC,045107.000,A,3337.5784,N,11743.1229,W,67.55,141.68,161110,,,A*44
$GPRMC,045110.000,A,3337.5337,N,11743.0814,W,68.04,142.03,161110,,,A*4E
$GPRMC,045113.000,A,3337.4896,N,11743.0392,W,68.04,141.68,161110,,,A*47
$GPRMC,045116.000,A,3337.4442,N,11742.9971,W,68.52,142.03,161110,,,A*45
$GPRMC,045119.000,A,3337.3988,N,11742.9549,W,68.52,142.03,161110,,,A*41
$GPRMC,045122.000,A,3337.3538,N,11742.9130,W,69.01,142.38,161110,,,A*4B
$GPRMC,045125.000,A,3337.3061,N,11742.8722,W,69.01,142.73,161110,,,A*4E
$GPRMC,045128.000,A,3337.2617,N,11742.8303,W,68.04,142.03,161110,,,A*41
$GPRMC,045131.000,A,3337.2179,N,11742.7885,W,67.55,142.38,161110,,,A*4F
$GPRMC,045134.000,A,3337.1719,N,11742.7476,W,67.55,142.03,161110,,,A*41
$GPRMC,045137.000,A,3337.1281,N,11742.7058,W,67.55,141.68,161110,,,A*40
$GPRMC,045140.000,A,3337.0828,N,11742.6636,W,68.52,142.03,161110,,,A*41
$GPRMC,045143.000,A,3337.0377,N,11742.6221,W,68.04,142.38,161110,,,A*4A
$GPRMC,045146.000,A,3336.9930,N,11742.5799,W,68.52,140.98,161110,,,A*40
$GPRMC,045149.000,A,3336.9489,N,11742.5349,W,67.55,137.46,161110,,,A*42
$GPRMC,045152.000,A,3336.9083,N,11742.4869,W,68.04,135.35,161110,,,A*43
$GPRMC,045155.000,A,3336.8671,N,11742.4393,W,68.52,135.35,161110,,,A*43
$GPRMC,045158.000,A,3336.8259,N,11742.3907,W,69.50,135.70,161110,,,A*42
$GPRMC,045201.000,A,3336.7838,N,11742.3421,W,69.52,135.70,161110,,,A*44
$GPRMC,045204.000,A,3336.7429,N,11742.2938,W,68.04,136.05,161110,,,A*4A
$GPRMC,045207.000,A,3336.7023,N,11742.2471,W,67.07,135.70,161110,,,A*4A
$GPRMC,045210.000,A,3336.6640,N,11742.1988,W,66.58,131.48,161110,,,A*42
$GPRMC,045213.000,A,3336.6283,N,11742.1473,W,67.07,127.62,161110,,,A*47
$GPRMC,045216.000,A,3336.5955,N,11742.0936,W,66.58,123.75,161110,,,A*45
$GPRMC,045219.000,A,3336.5658,N,11742.0379,W,65.61,119.88,161110,,,A*4B
$GPRMC,045222.000,A,3336.5398,N,11741.9806,W,66.09,117.07,161110,,,A*47
$GPRMC,045225.000,A,3336.5147,N,11741.9217,W,66.58,117.42,161110,,,A*4F
$GPRMC,045228.000,A,3336.4889,N,11741.8622,W,67.55,117.77,161110,,,A*41
$GPRMC,045231.000,A,3336.4629,N,11741.8013,W,68.52,116.72,161110,,,A*45
$GPRMC,045234.000,A,3336.4374,N,11741.7405,W,68.52,117.07,161110,,,A*42
$GPRMC,045237.000,A,3336.4101,N,11741.6800,W,68.53,118.48,161110,,,A*4C
$GPRMC,045240.000,A,3336.3821,N,11741.6208,W,68.04,120.94,161110,,,A*4A
$GPRMC,045243.000,A,3336.3518,N,11741.5631,W,68.53,123.40,161110,,,A*4B
$GPRMC,045246.000,A,3336.3196,N,11741.5062,W,69.50,125.51,161110,,,A*48
$GPRMC,045249.000,A,3336.2845,N,11741.4498,W,70.95,127.62,161110,,,A*42
$GPRMC,045252.000,A,3336.2478,N,11741.3951,W,69.50,129.38,161110,,,A*45
$GPRMC,045255.000,A,3336.2115,N,11741.3411,W,69.01,127.97,161110,,,A*4A
$GPRMC,045258.000,A,3336.1774,N,11741.2854,W,69.01,123.75,161110,,,A*41
$GPRMC,045301.000,A,3336.1471,N,11741.2271,W,69.01,119.88,161110,,,A*4C
$GPRMC,045304.000,A,3336.1201,N,11741.1666,W,68.52,116.02,161110,,,A*43
$GPRMC,045307.000,A,3336.0953,N,11741.1045,W,68.52,115.31,161110,,,A*49
$GPRMC,045310.000,A,3336.0718,N,11741.0430,W,68.52,114.96,161110,,,A*45
$GPRMC,045313.000,A,3336.0476,N,11740.9812,W,68.04,114.96,161110,,,A*4A
$GPRMC,045316.000,A,3336.0238,N,11740.9194,W,68.04,114.96,161110,,,A*44
$GPRMC,045319.000,A,3335.9994,N,11740.8573,W,68.52,115.31,161110,,,A*4F
$GPRMC,045322.000,A,3335.9752,N,11740.7958,W,68.04,115.31,161110,,,A*4A
$GPRMC,045325.000,A,3335.9508,N,11740.7343,W,68.04,114.96,161110,,,A*4C
$GPRMC,045328.000,A,3335.9250,N,11740.6735,W,68.04,118.83,161110,,,A*47
$GPRMC,045331.000,A,3335.8948,N,11740.6162,W,68.04,124.80,161110,,,A*44
$GPRMC,045334.000,A,3335.8597,N,11740.5625,W,68.53,131.84,161110,,,A*4A
$GPRMC,045337.000,A,3335.8201,N,11740.5126,W,69.02,135.35,161110,,,A*4E
$GPRMC,045340.000,A,3335.7779,N,11740.4659,W,69.01,138.16,161110,,,A*4A
$GPRMC,045343.000,A,3335.7309,N,11740.4228,W,69.98,142.38,161110,,,A*49
$GPRMC,045346.000,A,3335.6820,N,11740.3842,W,69.50,147.30,161110,,,A*45
$GPRMC,045349.000,A,3335.6305,N,11740.3510,W,69.50,152.93,161110,,,A*41
$GPRMC,045352.000,A,3335.5748,N,11740.3272,W,70.47,162.07,161110,,,A*46
$GPRMC,045355.000,A,3335.5182,N,11740.3092,W,69.50,167.34,161110,,,A*46
$GPRMC,045358.000,A,3335.4622,N,11740.3011,W,68.52,175.78,161110,,,A*44
$GPRMC,045401.000,A,3335.4058,N,11740.2995,W,68.52,180.35,161110,,,A*43
$GPRMC,045404.000,A,3335.3479,N,11740.2995,W,69.01,180.70,161110,,,A*40
$GPRMC,045407.000,A,3335.2903,N,11740.3005,W,68.52,181.05,161110,,,A*47
$GPRMC,045410.000,A,3335.2330,N,11740.3014,W,69.01,180.70,161110,,,A*4F
$GPRMC,045413.000,A,3335.1757,N,11740.3024,W,68.53,180.70,161110,,,A*4F
$GPRMC,045416.000,A,3335.1191,N,11740.3037,W,67.07,180.70,161110,,,A*4A
$GPRMC,045419.000,A,3335.0640,N,11740.3047,W,65.61,180.70,161110,,,A*4A
$GPRMC,045422.000,A,3335.0090,N,11740.3053,W,66.59,180.35,161110,,,A*45
$GPRMC,045425.000,A,3334.9536,N,11740.3056,W,66.59,180.70,161110,,,A*47
$GPRMC,045428.000,A,3334.8970,N,11740.3066,W,68.04,180.70,161110,,,A*40
$GPRMC,045431.000,A,3334.8407,N,11740.3072,W,67.56,180.70,161110,,,A*48
$GPRMC,045434.000,A,3334.7843,N,11740.3085,W,68.04,181.05,161110,,,A*4D
$GPRMC,045437.000,A,3334.7274,N,11740.3092,W,68.04,180.70,161110,,,A*45
$GPRMC,045440.000,A,3334.6697,N,11740.3101,W,69.50,180.35,161110,,,A*47
$GPRMC,045443.000,A,3334.6105,N,11740.3108,W,71.44,180.70,161110,,,A*4C
$GPRMC,045446.000,A,3334.5507,N,11740.3121,W,72.90,180.70,161110,,,A*4D
$GPRMC,045449.000,A,3334.4905,N,11740.3130,W,71.93,180.70,161110,,,A*4D
$GPRMC,045452.000,A,3334.4303,N,11740.3143,W,70.96,180.70,161110,,,A*4B
$GPRMC,045455.000,A,3334.3723,N,11740.3153,W,69.50,181.05,161110,,,A*4D
$GPRMC,045458.000,A,3334.3144,N,11740.3159,W,69.02,180.70,161110,,,A*49
$GPRMC,045501.000,A,3334.2565,N,11740.3162,W,69.50,180.70,161110,,,A*4D
$GPRMC,045504.000,A,3334.1982,N,11740.3179,W,69.98,181.41,161110,,,A*43
$GPRMC,045507.000,A,3334.1396,N,11740.3207,W,70.95,183.16,161110,,,A*40
$GPRMC,045510.000,A,3334.0807,N,11740.3259,W,70.47,185.27,161110,,,A*44
$GPRMC,045513.000,A,3334.0228,N,11740.3327,W,69.98,186.33,161110,,,A*44
$GPRMC,045516.000,A,3333.9642,N,11740.3404,W,69.98,186.33,161110,,,A*41
$GPRMC,045519.000,A,3333.9069,N,11740.3478,W,69.98,185.98,161110,,,A*48
$GPRMC,045522.000,A,3333.8483,N,11740.3552,W,69.98,185.98,161110,,,A*48
$GPRMC,045525.000,A,3333.7907,N,11740.3623,W,69.01,185.98,161110,,,A*44
$GPRMC,045528.000,A,3333.7338,N,11740.3693,W,68.04,185.98,161110,,,A*40
$GPRMC,045531.000,A,3333.6774,N,11740.3758,W,67.07,184.92,161110,,,A*44
$GPRMC,045534.000,A,3333.6217,N,11740.3806,W,67.07,183.16,161110,,,A*4E
$GPRMC,045537.000,A,3333.5657,N,11740.3832,W,67.07,181.41,161110,,,A*49
$GPRMC,045540.000,A,3333.5104,N,11740.3832,W,66.09,179.30,161110,,,A*46
$GPRMC,045543.000,A,3333.4547,N,11740.3825,W,66.58,178.95,161110,,,A*4B
$GPRMC,045546.000,A,3333.3987,N,11740.3813,W,67.07,178.59,161110,,,A*47
$GPRMC,045549.000,A,3333.3427,N,11740.3796,W,67.07,179.30,161110,,,A*43
$GPRMC,045552.000,A,3333.2870,N,11740.3790,W,67.07,178.59,161110,,,A*4E
$GPRMC,045555.000,A,3333.2313,N,11740.3774,W,67.07,178.59,161110,,,A*4D
$GPRMC,045558.000,A,3333.1753,N,11740.3758,W,67.07,178.95,161110,,,A*4D
$GPRMC,045601.000,A,3333.1196,N,11740.3745,W,66.09,178.95,161110,,,A*4E
$GPRMC,045604.000,A,3333.0649,N,11740.3735,W,65.61,178.95,161110,,,A*45
$GPRMC,045607.000,A,3333.0105,N,11740.3726,W,65.61,179.30,161110,,,A*45
$GPRMC,045610.000,A,3332.9548,N,11740.3732,W,68.04,182.46,161110,,,A*48
$GPRMC,045613.000,A,3332.8969,N,11740.3771,W,71.44,184.57,161110,,,A*48
$GPRMC,045616.000,A,3332.8358,N,11740.3838,W,74.84,185.62,161110,,,A*49
$GPRMC,045619.000,A,3332.7730,N,11740.3922,W,75.82,187.38,161110,,,A*43
$GPRMC,045622.000,A,3332.7112,N,11740.4028,W,74.85,188.79,161110,,,A*45
$GPRMC,045625.000,A,3332.6500,N,11740.4147,W,74.85,189.84,161110,,,A*4F
$GPRMC,045628.000,A,3332.5889,N,11740.4282,W,74.36,190.55,161110,,,A*4B
$GPRMC,045631.000,A,3332.5293,N,11740.4418,W,71.93,190.55,161110,,,A*4D
$GPRMC,045634.000,A,3332.4701,N,11740.4540,W,70.96,189.49,161110,,,A*4A
$GPRMC,045637.000,A,3332.4112,N,11740.4656,W,71.93,189.84,161110,,,A*4C
$GPRMC,045640.000,A,3332.3523,N,11740.4781,W,71.93,190.20,161110,,,A*40
$GPRMC,045643.000,A,3332.2934,N,11740.4904,W,71.93,188.79,161110,,,A*4E
$GPRMC,045646.000,A,3332.2339,N,11740.4991,W,71.95,185.27,161110,,,A*40
$GPRMC,045649.000,A,3332.1743,N,11740.5045,W,71.95,182.81,161110,,,A*4F
$GPRMC,045652.000,A,3332.1145,N,11740.5065,W,71.95,180.35,161110,,,A*4A
$GPRMC,045655.000,A,3332.0559,N,11740.5055,W,69.02,177.89,161110,,,A*4E
$GPRMC,045658.000,A,3331.9992,N,11740.5016,W,67.55,174.73,161110,,,A*4F
$GPRMC,045701.000,A,3331.9432,N,11740.4913,W,68.04,168.05,161110,,,A*4F
$GPRMC,045704.000,A,3331.8885,N,11740.4701,W,69.01,159.61,161110,,,A*42
$GPRMC,045707.000,A,3331.8357,N,11740.4382,W,71.93,150.47,161110,,,A*45
$GPRMC,045710.000,A,3331.7887,N,11740.3961,W,71.93,140.98,161110,,,A*49
$GPRMC,045713.000,A,3331.7482,N,11740.3433,W,72.41,132.19,161110,,,A*49
$GPRMC,045716.000,A,3331.7105,N,11740.2866,W,70.96,129.38,161110,,,A*4A
$GPRMC,045721.000,A,3331.6474,N,11740.1959,W,70.47,131.48,161110,,,A*40
$GPRMC,045724.000,A,3331.6049,N,11740.1473,W,70.47,138.16,161110,,,A*48
$GPRMC,045727.000,A,3331.5583,N,11740.1054,W,69.98,144.84,161110,,,A*40
$GPRMC,045730.000,A,3331.5068,N,11740.0703,W,69.50,152.23,161110,,,A*4C
$GPRMC,045733.000,A,3331.4530,N,11740.0433,W,68.52,158.55,161110,,,A*4E
$GPRMC,045736.000,A,3331.4006,N,11740.0214,W,67.55,160.31,161110,,,A*49
$GPRMC,045739.000,A,3331.3468,N,11739.9982,W,68.04,159.61,161110,,,A*4A
$GPRMC,045742.000,A,3331.2914,N,11739.9735,W,70.47,159.26,161110,,,A*4E
$GPRMC,045745.000,A,3331.2345,N,11739.9493,W,71.93,159.61,161110,,,A*43
$GPRMC,045748.000,A,3331.1788,N,11739.9239,W,72.41,160.31,161110,,,A*4D
$GPRMC,045751.000,A,3331.1215,N,11739.9001,W,72.90,160.31,161110,,,A*41
$GPRMC,045754.000,A,3331.0642,N,11739.8750,W,72.90,159.96,161110,,,A*46
$GPRMC,045757.000,A,3331.0066,N,11739.8505,W,72.41,160.31,161110,,,A*4C
$GPRMC,045800.000,A,3330.9490,N,11739.8257,W,72.90,160.31,161110,,,A*48
$GPRMC,045803.000,A,3330.8923,N,11739.8016,W,71.44,160.31,161110,,,A*42
$GPRMC,045806.000,A,3330.8350,N,11739.7778,W,72.41,160.66,161110,,,A*4D
$GPRMC,045809.000,A,3330.7781,N,11739.7539,W,72.90,160.66,161110,,,A*4E
$GPRMC,045812.000,A,3330.7192,N,11739.7292,W,73.87,160.66,161110,,,A*41
$GPRMC,045815.000,A,3330.6606,N,11739.7037,W,74.36,160.31,161110,,,A*4F
$GPRMC,045818.000,A,3330.6014,N,11739.6789,W,74.84,159.96,161110,,,A*4A
$GPRMC,045821.000,A,3330.5425,N,11739.6532,W,74.84,160.31,161110,,,A*40
$GPRMC,045824.000,A,3330.4845,N,11739.6284,W,74.36,160.66,161110,,,A*4F
$GPRMC,045827.000,A,3330.4263,N,11739.6036,W,74.36,160.31,161110,,,A*4B
$GPRMC,045830.000,A,3330.3677,N,11739.5785,W,74.36,159.96,161110,,,A*40
$GPRMC,045833.000,A,3330.3091,N,11739.5544,W,73.87,162.07,161110,,,A*4F
$GPRMC,045836.000,A,3330.2499,N,11739.5348,W,74.36,165.94,161110,,,A*4D
$GPRMC,045839.000,A,3330.1916,N,11739.5209,W,73.88,170.51,161110,,,A*40
$GPRMC,045842.000,A,3330.1308,N,11739.5103,W,74.36,172.97,161110,,,A*4A
$GPRMC,045845.000,A,3330.0684,N,11739.5055,W,75.81,177.19,161110,,,A*41
$GPRMC,045848.000,A,3330.0030,N,11739.5061,W,77.28,181.76,161110,,,A*43
$GPRMC,045851.000,A,3329.9396,N,11739.5113,W,74.36,186.33,161110,,,A*4B
$GPRMC,045854.000,A,3329.8807,N,11739.5222,W,70.95,190.20,161110,,,A*45
$GPRMC,045857.000,A,3329.8234,N,11739.5370,W,69.50,193.71,161110,,,A*4C
$GPRMC,045900.000,A,3329.7674,N,11739.5557,W,69.98,197.58,161110,,,A*48
$GPRMC,045903.000,A,3329.7124,N,11739.5788,W,69.98,201.45,161110,,,A*49
$GPRMC,045906.000,A,3329.6593,N,11739.6056,W,68.52,203.55,161110,,,A*46
$GPRMC,045909.000,A,3329.6094,N,11739.6368,W,67.07,208.48,161110,,,A*4D
$GPRMC,045912.000,A,3329.5611,N,11739.6699,W,67.07,211.64,161110,,,A*42
$GPRMC,045915.000,A,3329.5128,N,11739.7060,W,68.04,212.34,161110,,,A*43
$GPRMC,045918.000,A,3329.4636,N,11739.7420,W,69.50,211.99,161110,,,A*43
$GPRMC,045921.000,A,3329.4134,N,11739.7797,W,71.44,212.34,161110,,,A*4B
$GPRMC,045924.000,A,3329.3619,N,11739.8177,W,72.41,212.34,161110,,,A*40
$GPRMC,045927.000,A,3329.3107,N,11739.8569,W,72.41,212.34,161110,,,A*40
$GPRMC,045930.000,A,3329.2585,N,11739.8962,W,72.90,212.70,161110,,,A*42
$GPRMC,045933.000,A,3329.2083,N,11739.9348,W,71.93,212.70,161110,,,A*41
$GPRMC,045936.000,A,3329.1578,N,11739.9744,W,72.42,213.40,161110,,,A*43
$GPRMC,045939.000,A,3329.1073,N,11740.0153,W,73.38,215.16,161110,,,A*4C
$GPRMC,045942.000,A,3329.0577,N,11740.0581,W,73.38,216.21,161110,,,A*4C
$GPRMC,045945.000,A,3329.0085,N,11740.0999,W,72.41,215.86,161110,,,A*47
$GPRMC,045948.000,A,3328.9599,N,11740.1418,W,71.93,215.86,161110,,,A*43
$GPRMC,045951.000,A,3328.9116,N,11740.1840,W,71.93,215.86,161110,,,A*49
$GPRMC,045954.000,A,3328.8630,N,11740.2261,W,72.41,215.86,161110,,,A*48
$GPRMC,045957.000,A,3328.8131,N,11740.2683,W,72.90,215.51,161110,,,A*43
$GPRMC,050000.000,A,3328.7638,N,11740.3108,W,72.90,215.51,161110,,,A*48
$GPRMC,050003.000,A,3328.7143,N,11740.3529,W,72.90,215.51,161110,,,A*47
$GPRMC,050006.000,A,3328.6650,N,11740.3941,W,72.42,211.99,161110,,,A*4B
$GPRMC,050009.000,A,3328.6138,N,11740.4286,W,71.44,206.37,161110,,,A*4D
$GPRMC,050012.000,A,3328.5585,N,11740.4553,W,71.44,199.69,161110,,,A*47
$GPRMC,050015.000,A,3328.5009,N,11740.4723,W,70.47,192.66,161110,,,A*42
$GPRMC,050018.000,A,3328.4455,N,11740.4833,W,66.10,186.68,161110,,,A*43
$GPRMC,050021.000,A,3328.3908,N,11740.4881,W,65.61,181.76,161110,,,A*4F
$GPRMC,050024.000,A,3328.3361,N,11740.4855,W,66.10,174.38,161110,,,A*43
$GPRMC,050027.000,A,3328.2814,N,11740.4765,W,67.07,169.10,161110,,,A*45
$GPRMC,050030.000,A,3328.2270,N,11740.4582,W,67.55,161.72,161110,,,A*4B
$GPRMC,050033.000,A,3328.1768,N,11740.4286,W,67.55,151.52,161110,,,A*45
$GPRMC,050036.000,A,3328.1336,N,11740.3893,W,66.12,139.22,161110,,,A*4D
$GPRMC,050039.000,A,3328.0940,N,11740.3423,W,66.10,130.43,161110,,,A*43
$GPRMC,050042.000,A,3328.0622,N,11740.2882,W,66.59,122.34,161110,,,A*4C
$GPRMC,050045.000,A,3328.0361,N,11740.2297,W,66.12,116.37,161110,,,A*4C
$GPRMC,050048.000,A,3328.0107,N,11740.1711,W,65.61,118.83,161110,,,A*4D
$GPRMC,050051.000,A,3327.9820,N,11740.1157,W,65.64,125.16,161110,,,A*4C
$GPRMC,050054.000,A,3327.9489,N,11740.0636,W,66.09,128.32,161110,,,A*44
$GPRMC,050057.000,A,3327.9138,N,11740.0127,W,67.58,128.67,161110,,,A*4A
$GPRMC,050100.000,A,3327.8771,N,11739.9596,W,69.01,129.38,161110,,,A*43
$GPRMC,050103.000,A,3327.8407,N,11739.9068,W,68.52,129.02,161110,,,A*48
$GPRMC,050106.000,A,3327.8040,N,11739.8547,W,67.55,129.02,161110,,,A*4B
$GPRMC,050109.000,A,3327.7690,N,11739.8032,W,66.58,129.02,161110,,,A*4B
$GPRMC,050112.000,A,3327.7348,N,11739.7520,W,65.61,129.38,161110,,,A*48
$GPRMC,050115.000,A,3327.7004,N,11739.7005,W,67.07,129.02,161110,,,A*4D
$GPRMC,050118.000,A,3327.6656,N,11739.6480,W,67.56,125.51,161110,,,A*46
$GPRMC,050121.000,A,3327.6370,N,11739.5904,W,67.09,116.37,161110,,,A*45
$GPRMC,050124.000,A,3327.6122,N,11739.5302,W,67.56,116.72,161110,,,A*42
$GPRMC,050127.000,A,3327.5868,N,11739.4704,W,66.58,118.12,161110,,,A*41
$GPRMC,050130.000,A,3327.5588,N,11739.4134,W,66.59,122.70,161110,,,A*4D
$GPRMC,050133.000,A,3327.5276,N,11739.3577,W,67.55,125.16,161110,,,A*46
$GPRMC,050136.000,A,3327.4938,N,11739.3027,W,68.52,125.86,161110,,,A*42
$GPRMC,050139.000,A,3327.4603,N,11739.2473,W,69.01,125.86,161110,,,A*49
$GPRMC,050142.000,A,3327.4265,N,11739.1920,W,68.53,124.45,161110,,,A*41
$GPRMC,050145.000,A,3327.3953,N,11739.1353,W,68.07,121.64,161110,,,A*46
$GPRMC,050148.000,A,3327.3663,N,11739.0764,W,68.07,118.83,161110,,,A*45
$GPRMC,050151.000,A,3327.3396,N,11739.0162,W,69.04,117.42,161110,,,A*42
$GPRMC,050154.000,A,3327.3129,N,11738.9548,W,69.02,117.42,161110,,,A*43
$GPRMC,050157.000,A,3327.2865,N,11738.8930,W,69.99,117.07,161110,,,A*41
$GPRMC,050200.000,A,3327.2591,N,11738.8312,W,70.49,116.72,161110,,,A*4A
$GPRMC,050203.000,A,3327.2324,N,11738.7684,W,70.47,116.72,161110,,,A*4A
$GPRMC,050206.000,A,3327.2047,N,11738.7056,W,71.45,118.83,161110,,,A*43
$GPRMC,050209.000,A,3327.1751,N,11738.6438,W,70.95,120.94,161110,,,A*43
$GPRMC,050212.000,A,3327.1432,N,11738.5856,W,68.55,123.75,161110,,,A*41
$GPRMC,050215.000,A,3327.1107,N,11738.5302,W,68.04,126.21,161110,,,A*4F
$GPRMC,050218.000,A,3327.0766,N,11738.4774,W,67.07,128.32,161110,,,A*46
$GPRMC,050221.000,A,3327.0406,N,11738.4269,W,66.61,130.78,161110,,,A*46
$GPRMC,050224.000,A,3327.0039,N,11738.3764,W,67.07,130.43,161110,,,A*4D
$GPRMC,050227.000,A,3326.9675,N,11738.3258,W,67.55,130.78,161110,,,A*4D
$GPRMC,050230.000,A,3326.9311,N,11738.2747,W,67.07,130.08,161110,,,A*46
$GPRMC,050233.000,A,3326.9002,N,11738.2215,W,64.18,123.05,161110,,,A*44
$GPRMC,050236.000,A,3326.8703,N,11738.1681,W,63.67,121.64,161110,,,A*46
$GPRMC,050239.000,A,3326.8423,N,11738.1134,W,64.18,121.29,161110,,,A*47
$GPRMC,050242.000,A,3326.8137,N,11738.0593,W,64.64,121.29,161110,,,A*48
$GPRMC,050245.000,A,3326.7857,N,11738.0043,W,64.15,121.29,161110,,,A*41
$GPRMC,050248.000,A,3326.7573,N,11737.9492,W,64.67,123.75,161110,,,A*47
$GPRMC,050251.000,A,3326.7261,N,11737.8971,W,65.12,127.62,161110,,,A*4B
$GPRMC,050254.000,A,3326.6910,N,11737.8479,W,64.64,131.13,161110,,,A*46
$GPRMC,050257.000,A,3326.6514,N,11737.8012,W,67.07,134.30,161110,,,A*46
$GPRMC,050300.000,A,3326.6118,N,11737.7523,W,69.98,134.65,161110,,,A*4D
$GPRMC,050303.000,A,3326.5694,N,11737.7030,W,70.01,135.00,161110,,,A*43
$GPRMC,050306.000,A,3326.5278,N,11737.6538,W,69.50,135.00,161110,,,A*40
$GPRMC,050309.000,A,3326.4883,N,11737.6048,W,68.52,134.30,161110,,,A*43
$GPRMC,050312.000,A,3326.4506,N,11737.5534,W,69.01,129.73,161110,,,A*48
$GPRMC,050315.000,A,3326.4174,N,11737.4961,W,70.47,124.45,161110,,,A*41
$GPRMC,050318.000,A,3326.3840,N,11737.4381,W,70.96,123.40,161110,,,A*4F
$GPRMC,050321.000,A,3326.3502,N,11737.3786,W,71.95,123.40,161110,,,A*48
$GPRMC,050324.000,A,3326.3164,N,11737.3184,W,72.92,123.05,161110,,,A*48
$GPRMC,050327.000,A,3326.2835,N,11737.2576,W,72.41,123.75,161110,,,A*46
$GPRMC,050330.000,A,3326.2491,N,11737.1996,W,70.53,128.32,161110,,,A*4A
$GPRMC,050333.000,A,3326.2114,N,11737.1465,W,69.01,131.84,161110,,,A*4A
$GPRMC,050336.000,A,3326.1696,N,11737.1005,W,68.04,138.16,161110,,,A*45
$GPRMC,050339.000,A,3326.1226,N,11737.0632,W,67.07,146.25,161110,,,A*43
$GPRMC,050342.000,A,3326.0734,N,11737.0297,W,67.55,150.12,161110,,,A*47
$GPRMC,050345.000,A,3326.0235,N,11736.9968,W,69.02,150.82,161110,,,A*42
$GPRMC,050348.000,A,3325.9733,N,11736.9637,W,68.04,150.47,161110,,,A*4D
$GPRMC,050351.000,A,3325.9240,N,11736.9299,W,68.04,148.01,161110,,,A*4F
$GPRMC,050354.000,A,3325.8796,N,11736.8906,W,66.09,142.03,161110,,,A*42
$GPRMC,050357.000,A,3325.8400,N,11736.8462,W,66.09,135.70,161110,,,A*46
$GPRMC,050400.000,A,3325.8027,N,11736.7986,W,67.07,133.59,161110,,,A*48
$GPRMC,050403.000,A,3325.7608,N,11736.7519,W,68.52,138.52,161110,,,A*4A
$GPRMC,050406.000,A,3325.7161,N,11736.7085,W,67.55,142.03,161110,,,A*46
$GPRMC,050409.000,A,3325.6688,N,11736.6708,W,67.07,146.25,161110,,,A*4C
$GPRMC,050412.000,A,3325.6215,N,11736.6360,W,66.09,149.41,161110,,,A*4E
$GPRMC,050415.000,A,3325.5738,N,11736.6035,W,65.61,150.12,161110,,,A*40
$GPRMC,050418.000,A,3325.5265,N,11736.5707,W,66.10,150.47,161110,,,A*40
$GPRMC,050421.000,A,3325.4789,N,11736.5375,W,66.58,150.82,161110,,,A*48
$GPRMC,050424.000,A,3325.4287,N,11736.5086,W,67.07,155.04,161110,,,A*49
$GPRMC,050427.000,A,3325.3765,N,11736.4828,W,67.55,157.85,161110,,,A*45
$GPRMC,050430.000,A,3325.3247,N,11736.4577,W,68.04,157.15,161110,,,A*43
$GPRMC,050433.000,A,3325.2726,N,11736.4268,W,69.01,151.52,161110,,,A*4B
$GPRMC,050436.000,A,3325.2230,N,11736.3888,W,70.49,144.49,161110,,,A*45
$GPRMC,050439.000,A,3325.1744,N,11736.3476,W,70.95,144.14,161110,,,A*4B
$GPRMC,050442.000,A,3325.1261,N,11736.3084,W,69.01,146.25,161110,,,A*49
$GPRMC,050445.000,A,3325.0730,N,11736.2778,W,69.98,155.74,161110,,,A*4D
$GPRMC,050448.000,A,3325.0193,N,11736.2504,W,69.02,157.15,161110,,,A*40
$GPRMC,050451.000,A,3324.9658,N,11736.2224,W,69.98,157.15,161110,,,A*46
$GPRMC,050454.000,A,3324.9121,N,11736.1951,W,69.98,157.15,161110,,,A*40
$GPRMC,050457.000,A,3324.8570,N,11736.1680,W,70.95,157.50,161110,,,A*45
$GPRMC,050500.000,A,3324.8039,N,11736.1404,W,70.47,157.15,161110,,,A*4E
$GPRMC,050503.000,A,3324.7486,N,11736.1130,W,71.93,157.15,161110,,,A*48
$GPRMC,050506.000,A,3324.6916,N,11736.0853,W,73.38,157.15,161110,,,A*46
$GPRMC,050509.000,A,3324.6346,N,11736.0570,W,73.38,157.15,161110,,,A*4A
$GPRMC,050512.000,A,3324.5786,N,11736.0284,W,72.41,157.15,161110,,,A*48
$GPRMC,050515.000,A,3324.5255,N,11736.0016,W,70.47,157.15,161110,,,A*49
$GPRMC,050518.000,A,3324.4721,N,11735.9736,W,69.99,156.80,161110,,,A*4A
$GPRMC,050521.000,A,3324.4170,N,11735.9456,W,70.95,157.15,161110,,,A*4E
$GPRMC,050524.000,A,3324.3617,N,11735.9189,W,71.44,157.85,161110,,,A*49
$GPRMC,050527.000,A,3324.3076,N,11735.8919,W,71.93,157.15,161110,,,A*48
$GPRMC,050530.000,A,3324.2516,N,11735.8636,W,72.41,157.15,161110,,,A*42
$GPRMC,050533.000,A,3324.1963,N,11735.8343,W,71.93,157.15,161110,,,A*47
$GPRMC,050536.000,A,3324.1409,N,11735.8072,W,71.93,157.50,161110,,,A*43
$GPRMC,050539.000,A,3324.0859,N,11735.7786,W,72.41,156.80,161110,,,A*47
$GPRMC,050542.000,A,3324.0289,N,11735.7499,W,73.39,156.80,161110,,,A*4F
$GPRMC,050545.000,A,3323.9716,N,11735.7223,W,73.38,157.85,161110,,,A*47
$GPRMC,050548.000,A,3323.9156,N,11735.6949,W,73.38,157.50,161110,,,A*46
$GPRMC,050551.000,A,3323.8602,N,11735.6675,W,73.87,156.80,161110,,,A*41
$GPRMC,050554.000,A,3323.8065,N,11735.6360,W,71.93,154.69,161110,,,A*40
$GPRMC,050557.000,A,3323.7518,N,11735.6038,W,72.90,152.93,161110,,,A*4E
$GPRMC,050600.000,A,3323.6970,N,11735.5700,W,72.90,151.17,161110,,,A*4C
$GPRMC,050603.000,A,3323.6449,N,11735.5343,W,70.95,150.12,161110,,,A*48
$GPRMC,050606.000,A,3323.5963,N,11735.4989,W,68.53,148.01,161110,,,A*4E
$GPRMC,050609.000,A,3323.5477,N,11735.4622,W,68.53,147.30,161110,,,A*4A
$GPRMC,050612.000,A,3323.5001,N,11735.4249,W,69.52,146.95,161110,,,A*42
$GPRMC,050615.000,A,3323.4511,N,11735.3872,W,70.47,146.95,161110,,,A*49
$GPRMC,050618.000,A,3323.4016,N,11735.3489,W,70.95,146.95,161110,,,A*41
$GPRMC,050621.000,A,3323.3526,N,11735.3100,W,70.47,145.55,161110,,,A*4E
$GPRMC,050624.000,A,3323.3047,N,11735.2681,W,71.44,142.38,161110,,,A*48
$GPRMC,050627.000,A,3323.2612,N,11735.2211,W,71.44,136.76,161110,,,A*48
$GPRMC,050630.000,A,3323.2207,N,11735.1699,W,71.93,131.84,161110,,,A*49
$GPRMC,050633.000,A,3323.1840,N,11735.1130,W,72.90,126.56,161110,,,A*4D
$GPRMC,050636.000,A,3323.1515,N,11735.0521,W,72.90,119.88,161110,,,A*4F
$GPRMC,050639.000,A,3323.1228,N,11734.9881,W,73.38,116.72,161110,,,A*4F
$GPRMC,050642.000,A,3323.0968,N,11734.9211,W,73.38,115.31,161110,,,A*4A
$GPRMC,050645.000,A,3323.0713,N,11734.8548,W,72.41,114.96,161110,,,A*46
$GPRMC,050648.000,A,3323.0456,N,11734.7895,W,71.93,114.96,161110,,,A*47
$GPRMC,050651.000,A,3323.0202,N,11734.7245,W,71.93,114.96,161110,,,A*4F
$GPRMC,050654.000,A,3322.9950,N,11734.6595,W,71.93,114.96,161110,,,A*45
$GPRMC,050657.000,A,3322.9696,N,11734.5948,W,71.45,114.96,161110,,,A*47
$GPRMC,050700.000,A,3322.9448,N,11734.5307,W,70.96,114.96,161110,,,A*4B
$GPRMC,050703.000,A,3322.9204,N,11734.4670,W,69.99,114.96,161110,,,A*45
$GPRMC,050706.000,A,3322.8959,N,11734.4039,W,69.50,114.96,161110,,,A*4C
$GPRMC,050709.000,A,3322.8721,N,11734.3411,W,68.52,114.96,161110,,,A*48
$GPRMC,050712.000,A,3322.8480,N,11734.2790,W,68.53,114.96,161110,,,A*40
$GPRMC,050715.000,A,3322.8241,N,11734.2172,W,68.53,114.96,161110,,,A*46
$GPRMC,050718.000,A,3322.7997,N,11734.1554,W,68.53,114.96,161110,,,A*47
$GPRMC,050721.000,A,3322.7755,N,11734.0936,W,69.02,115.31,161110,,,A*4D
$GPRMC,050724.000,A,3322.7514,N,11734.0315,W,68.53,114.96,161110,,,A*4D
$GPRMC,050727.000,A,3322.7260,N,11733.9710,W,67.09,120.23,161110,,,A*4C
$GPRMC,050730.000,A,3322.6957,N,11733.9150,W,66.10,124.80,161110,,,A*42
$GPRMC,050733.000,A,3322.6613,N,11733.8635,W,65.12,130.08,161110,,,A*4F
$GPRMC,050736.000,A,3322.6227,N,11733.8168,W,66.09,135.70,161110,,,A*45
$GPRMC,050739.000,A,3322.5821,N,11733.7714,W,66.58,136.76,161110,,,A*46
$GPRMC,050742.000,A,3322.5412,N,11733.7264,W,67.07,135.35,161110,,,A*4B
$GPRMC,050745.000,A,3322.5036,N,11733.6765,W,68.52,129.73,161110,,,A*4B
$GPRMC,050748.000,A,3322.4711,N,11733.6195,W,69.98,123.05,161110,,,A*40
$GPRMC,050751.000,A,3322.4382,N,11733.5603,W,71.93,123.05,161110,,,A*4F
$GPRMC,050754.000,A,3322.4054,N,11733.5001,W,71.93,123.05,161110,,,A*46
$GPRMC,050757.000,A,3322.3732,N,11733.4409,W,69.50,123.05,161110,,,A*4E
$GPRMC,050800.000,A,3322.3420,N,11733.3842,W,67.07,123.05,161110,,,A*4B
$GPRMC,050803.000,A,3322.3117,N,11733.3282,W,67.07,123.05,161110,,,A*4F
$GPRMC,050806.000,A,3322.2808,N,11733.2722,W,68.04,123.05,161110,,,A*4E
$GPRMC,050809.000,A,3322.2499,N,11733.2153,W,68.53,123.05,161110,,,A*47
$GPRMC,050812.000,A,3322.2187,N,11733.1580,W,67.56,123.05,161110,,,A*44
$GPRMC,050815.000,A,3322.1878,N,11733.1013,W,68.04,123.05,161110,,,A*4E
$GPRMC,050818.000,A,3322.1566,N,11733.0443,W,68.52,123.05,161110,,,A*42
$GPRMC,050821.000,A,3322.1250,N,11732.9871,W,69.50,123.05,161110,,,A*4C
$GPRMC,050824.000,A,3322.0929,N,11732.9281,W,71.44,123.05,161110,,,A*44
$GPRMC,050827.000,A,3322.0600,N,11732.8689,W,71.45,123.75,161110,,,A*48
$GPRMC,050830.000,A,3322.0256,N,11732.8116,W,70.47,126.56,161110,,,A*4F
$GPRMC,050833.000,A,3321.9886,N,11732.7572,W,69.98,129.38,161110,,,A*45
$GPRMC,050836.000,A,3321.9506,N,11732.7038,W,70.47,129.73,161110,,,A*4B
$GPRMC,050839.000,A,3321.9129,N,11732.6504,W,69.01,129.02,161110,,,A*4A
$GPRMC,050842.000,A,3321.8772,N,11732.5986,W,67.55,129.38,161110,,,A*4C
$GPRMC,050845.000,A,3321.8402,N,11732.5477,W,67.55,130.08,161110,,,A*47
$GPRMC,050848.000,A,3321.8041,N,11732.4956,W,67.55,129.02,161110,,,A*44
$GPRMC,050851.000,A,3321.7691,N,11732.4431,W,68.04,129.02,161110,,,A*4F
$GPRMC,050854.000,A,3321.7340,N,11732.3897,W,69.50,129.02,161110,,,A*44
$GPRMC,050857.000,A,3321.6970,N,11732.3346,W,70.96,129.38,161110,,,A*43
$GPRMC,050900.000,A,3321.6596,N,11732.2802,W,70.95,129.38,161110,,,A*4D
$GPRMC,050903.000,A,3321.6220,N,11732.2249,W,71.44,129.02,161110,,,A*45
$GPRMC,050906.000,A,3321.5853,N,11732.1692,W,70.95,128.67,161110,,,A*43
$GPRMC,050909.000,A,3321.5479,N,11732.1145,W,70.47,129.38,161110,,,A*41
$GPRMC,050912.000,A,3321.5106,N,11732.0604,W,69.50,129.73,161110,,,A*44
$GPRMC,050915.000,A,3321.4733,N,11732.0076,W,69.98,129.02,161110,,,A*43
$GPRMC,050918.000,A,3321.4366,N,11731.9523,W,71.44,128.67,161110,,,A*4F
$GPRMC,050921.000,A,3321.3989,N,11731.8966,W,71.93,129.02,161110,,,A*4D
$GPRMC,050924.000,A,3321.3609,N,11731.8409,W,72.41,129.02,161110,,,A*47
$GPRMC,050927.000,A,3321.3223,N,11731.7849,W,73.38,129.38,161110,,,A*49
$GPRMC,050930.000,A,3321.2827,N,11731.7282,W,73.87,129.38,161110,,,A*49
$GPRMC,050933.000,A,3321.2447,N,11731.6697,W,74.84,127.97,161110,,,A*4E
$GPRMC,050936.000,A,3321.2064,N,11731.6117,W,73.87,128.67,161110,,,A*45
$GPRMC,050939.000,A,3321.1678,N,11731.5554,W,72.41,129.02,161110,,,A*4B
$GPRMC,050942.000,A,3321.1305,N,11731.5007,W,69.99,129.02,161110,,,A*44
$GPRMC,050945.000,A,3321.0935,N,11731.4466,W,69.50,129.38,161110,,,A*45
$GPRMC,050948.000,A,3321.0568,N,11731.3922,W,70.47,129.02,161110,,,A*41
$GPRMC,050951.000,A,3321.0191,N,11731.3378,W,71.44,129.38,161110,,,A*45
$GPRMC,050954.000,A,3320.9824,N,11731.2821,W,71.93,129.02,161110,,,A*4A
$GPRMC,050957.000,A,3320.9444,N,11731.2268,W,71.44,129.73,161110,,,A*48
$GPRMC,051000.000,A,3320.9068,N,11731.1717,W,71.93,129.38,161110,,,A*43
$GPRMC,051003.000,A,3320.8678,N,11731.1160,W,72.90,129.38,161110,,,A*40
$GPRMC,051006.000,A,3320.8295,N,11731.0617,W,70.95,130.08,161110,,,A*48
$GPRMC,051009.000,A,3320.7903,N,11731.0092,W,69.98,131.13,161110,,,A*49
$GPRMC,051012.000,A,3320.7523,N,11730.9570,W,69.98,131.13,161110,,,A*4C
$GPRMC,051015.000,A,3320.7140,N,11730.9039,W,71.44,130.78,161110,,,A*46
$GPRMC,051018.000,A,3320.6744,N,11730.8505,W,72.41,130.78,161110,,,A*45
$GPRMC,051021.000,A,3320.6364,N,11730.7951,W,72.90,130.08,161110,,,A*40
$GPRMC,051024.000,A,3320.5952,N,11730.7404,W,73.38,131.13,161110,,,A*4C
$GPRMC,051027.000,A,3320.5553,N,11730.6857,W,72.41,130.78,161110,,,A*4A
$GPRMC,051030.000,A,3320.5154,N,11730.6316,W,72.41,130.78,161110,,,A*41
$GPRMC,051033.000,A,3320.4752,N,11730.5776,W,72.90,131.13,161110,,,A*42
$GPRMC,051036.000,A,3320.4353,N,11730.5222,W,73.38,130.78,161110,,,A*49
$GPRMC,051039.000,A,3320.3953,N,11730.4665,W,73.38,130.78,161110,,,A*4D
$GPRMC,051042.000,A,3320.3558,N,11730.4121,W,72.90,130.78,161110,,,A*42
$GPRMC,051045.000,A,3320.3139,N,11730.3597,W,71.93,130.43,161110,,,A*40
$GPRMC,051048.000,A,3320.2743,N,11730.3056,W,72.41,131.48,161110,,,A*49
$GPRMC,051051.000,A,3320.2347,N,11730.2509,W,72.41,130.78,161110,,,A*4D
$GPRMC,051054.000,A,3320.1948,N,11730.1955,W,73.87,130.78,161110,,,A*43
$GPRMC,051057.000,A,3320.1543,N,11730.1389,W,75.33,131.13,161110,,,A*49
$GPRMC,051100.000,A,3320.1140,N,11730.0825,W,74.36,130.78,161110,,,A*49
$GPRMC,051103.000,A,3320.0725,N,11730.0269,W,73.87,130.43,161110,,,A*49
$GPRMC,051106.000,A,3320.0320,N,11729.9728,W,72.90,131.13,161110,,,A*4F
$GPRMC,051109.000,A,3319.9927,N,11729.9181,W,72.41,130.78,161110,,,A*4B
$GPRMC,051112.000,A,3319.9541,N,11729.8637,W,71.44,130.78,161110,,,A*40
$GPRMC,051115.000,A,3319.9151,N,11729.8102,W,70.47,131.13,161110,,,A*4D
$GPRMC,051118.000,A,3319.8781,N,11729.7587,W,67.55,130.78,161110,,,A*45
$GPRMC,051121.000,A,3319.8414,N,11729.7079,W,68.04,130.78,161110,,,A*4F
$GPRMC,051124.000,A,3319.8047,N,11729.6561,W,69.01,130.78,161110,,,A*41
$GPRMC,051127.000,A,3319.7664,N,11729.6033,W,69.98,130.78,161110,,,A*48
$GPRMC,051130.000,A,3319.7278,N,11729.5508,W,69.50,131.13,161110,,,A*41
$GPRMC,051133.000,A,3319.6889,N,11729.4996,W,69.98,131.13,161110,,,A*49
$GPRMC,051136.000,A,3319.6512,N,11729.4465,W,70.47,130.43,161110,,,A*4C
$GPRMC,051139.000,A,3319.6126,N,11729.3937,W,69.98,131.48,161110,,,A*4D
$GPRMC,051142.000,A,3319.5739,N,11729.3413,W,70.47,130.78,161110,,,A*49
$GPRMC,051145.000,A,3319.5350,N,11729.2888,W,70.47,130.78,161110,,,A*4A
$GPRMC,051148.000,A,3319.4970,N,11729.2360,W,70.95,130.78,161110,,,A*4C
$GPRMC,051151.000,A,3319.4587,N,11729.1820,W,70.95,130.78,161110,,,A*4C
$GPRMC,051154.000,A,3319.4204,N,11729.1282,W,70.47,130.78,161110,,,A*48
$GPRMC,051157.000,A,3319.3802,N,11729.0777,W,69.98,135.35,161110,,,A*48
$GPRMC,051200.000,A,3319.3322,N,11729.0342,W,70.47,143.09,161110,,,A*46
$GPRMC,051203.000,A,3319.2791,N,11728.9991,W,72.41,152.58,161110,,,A*44
$GPRMC,051206.000,A,3319.2238,N,11728.9715,W,72.42,162.77,161110,,,A*48
$GPRMC,051209.000,A,3319.1655,N,11728.9550,W,71.44,170.86,161110,,,A*40
$GPRMC,051212.000,A,3319.1066,N,11728.9483,W,70.47,175.43,161110,,,A*4D
$GPRMC,051215.000,A,3319.0490,N,11728.9428,W,69.50,175.43,161110,,,A*49
$GPRMC,051218.000,A,3318.9904,N,11728.9367,W,70.95,175.08,161110,,,A*4E
$GPRMC,051221.000,A,3318.9302,N,11728.9309,W,72.90,175.08,161110,,,A*47
$GPRMC,051224.000,A,3318.8700,N,11728.9190,W,71.95,166.29,161110,,,A*40
$GPRMC,051227.000,A,3318.8118,N,11728.8978,W,72.90,159.96,161110,,,A*4D
$GPRMC,051230.000,A,3318.7574,N,11728.8665,W,72.42,149.77,161110,,,A*48
$GPRMC,051233.000,A,3318.7072,N,11728.8263,W,73.38,143.79,161110,,,A*42
$GPRMC,051236.000,A,3318.6631,N,11728.7767,W,72.41,134.65,161110,,,A*4B
$GPRMC,051239.000,A,3318.6212,N,11728.7256,W,71.44,134.65,161110,,,A*40
$GPRMC,051242.000,A,3318.5807,N,11728.6757,W,69.50,134.65,161110,,,A*48
$GPRMC,051245.000,A,3318.5404,N,11728.6258,W,69.50,133.95,161110,,,A*42
$GPRMC,051248.000,A,3318.4999,N,11728.5762,W,69.01,134.65,161110,,,A*44
$GPRMC,051251.000,A,3318.4600,N,11728.5273,W,69.01,134.30,161110,,,A*46
$GPRMC,051254.000,A,3318.4188,N,11728.4774,W,70.95,134.65,161110,,,A*42
$GPRMC,051257.000,A,3318.3747,N,11728.4269,W,73.88,136.05,161110,,,A*41
$GPRMC,051300.000,A,3318.3309,N,11728.3738,W,76.31,134.65,161110,,,A*49
$GPRMC,051303.000,A,3318.2862,N,11728.3184,W,78.73,133.95,161110,,,A*4C
$GPRMC,051306.000,A,3318.2388,N,11728.2614,W,80.67,133.95,161110,,,A*4B
$GPRMC,051309.000,A,3318.1922,N,11728.2054,W,78.73,134.30,161110,,,A*45
$GPRMC,051312.000,A,3318.1468,N,11728.1504,W,77.76,133.95,161110,,,A*4D
$GPRMC,051315.000,A,3318.1024,N,11728.0944,W,77.76,133.59,161110,,,A*4F
$GPRMC,051318.000,A,3318.0560,N,11728.0381,W,78.24,134.30,161110,,,A*45
$GPRMC,051321.000,A,3318.0097,N,11727.9817,W,79.70,134.65,161110,,,A*40
$GPRMC,051324.000,A,3317.9624,N,11727.9248,W,80.67,134.65,161110,,,A*4D
$GPRMC,051327.000,A,3317.9147,N,11727.8675,W,80.67,134.65,161110,,,A*47
$GPRMC,051330.000,A,3317.8681,N,11727.8111,W,80.19,134.65,161110,,,A*41
$GPRMC,051333.000,A,3317.8220,N,11727.7545,W,79.22,134.65,161110,,,A*49
$GPRMC,051336.000,A,3317.7754,N,11727.7001,W,77.78,134.65,161110,,,A*41
$GPRMC,051339.000,A,3317.7303,N,11727.6451,W,77.76,134.65,161110,,,A*46
$GPRMC,051342.000,A,3317.6859,N,11727.5910,W,75.81,134.65,161110,,,A*4E
$GPRMC,051345.000,A,3317.6402,N,11727.5395,W,74.84,137.81,161110,,,A*41
$GPRMC,051348.000,A,3317.5887,N,11727.4964,W,74.85,147.66,161110,,,A*44
$GPRMC,051351.000,A,3317.5359,N,11727.4577,W,73.39,147.66,161110,,,A*4A
$GPRMC,051354.000,A,3317.4854,N,11727.4188,W,72.90,147.66,161110,,,A*4E
$GPRMC,051357.000,A,3317.4335,N,11727.3792,W,74.36,148.01,161110,,,A*4F
$GPRMC,051400.000,A,3317.3801,N,11727.3406,W,75.81,149.06,161110,,,A*44
$GPRMC,051403.000,A,3317.3273,N,11727.3007,W,74.38,147.30,161110,,,A*45
$GPRMC,051406.000,A,3317.2752,N,11727.2617,W,72.90,147.66,161110,,,A*46
$GPRMC,051409.000,A,3317.2237,N,11727.2228,W,72.90,147.30,161110,,,A*44
$GPRMC,051412.000,A,3317.1725,N,11727.1832,W,73.38,147.30,161110,,,A*4A
$GPRMC,051415.000,A,3317.1204,N,11727.1433,W,73.88,147.66,161110,,,A*4E
$GPRMC,051418.000,A,3317.0679,N,11727.1040,W,74.84,147.66,161110,,,A*47
$GPRMC,051421.000,A,3317.0145,N,11727.0638,W,75.33,147.30,161110,,,A*43
$GPRMC,051424.000,A,3316.9610,N,11727.0239,W,74.84,147.66,161110,,,A*42
$GPRMC,051427.000,A,3316.9083,N,11726.9833,W,75.33,147.30,161110,,,A*4B
$GPRMC,051430.000,A,3316.8555,N,11726.9424,W,75.33,147.66,161110,,,A*4B
$GPRMC,051433.000,A,3316.8027,N,11726.9032,W,73.90,148.01,161110,,,A*4A
$GPRMC,051436.000,A,3316.7493,N,11726.8645,W,75.33,149.06,161110,,,A*45
$GPRMC,051439.000,A,3316.6958,N,11726.8262,W,74.85,148.71,161110,,,A*4D
$GPRMC,051442.000,A,3316.6443,N,11726.7883,W,69.99,147.30,161110,,,A*47
$GPRMC,051445.000,A,3316.5986,N,11726.7538,W,60.26,147.66,161110,,,A*44
$GPRMC,051448.000,A,3316.5574,N,11726.7239,W,53.46,151.52,161110,,,A*48
$GPRMC,051451.000,A,3316.5236,N,11726.7020,W,39.85,152.58,161110,,,A*41
$GPRMC,051454.000,A,3316.4966,N,11726.6859,W,34.02,152.58,161110,,,A*4E
$GPRMC,051457.000,A,3316.4725,N,11726.6714,W,31.59,155.39,161110,,,A*49
$GPRMC,051500.000,A,3316.4499,N,11726.6653,W,27.22,172.62,161110,,,A*4C
$GPRMC,051503.000,A,3316.4290,N,11726.6650,W,23.33,180.70,161110,,,A*49
$GPRMC,051506.000,A,3316.4145,N,11726.6659,W,17.01,182.46,161110,,,A*4F
$GPRMC,051509.000,A,3316.4065,N,11726.6688,W,11.66,201.80,161110,,,A*4A
$GPRMC,051512.000,A,3316.3981,N,11726.6724,W,11.66,187.73,161110,,,A*42
$GPRMC,051515.000,A,3316.3862,N,11726.6717,W,13.61,168.40,161110,,,A*4D
$GPRMC,051819.000,A,3316.3730,N,11726.6724,W,7.78,151.88,161110,,,A*77
$GPRMC,051822.000,A,3316.3640,N,11726.6647,W,19.44,141.68,161110,,,A*42
$GPRMC,051825.000,A,3316.3514,N,11726.6515,W,18.95,135.00,161110,,,A*43
$GPRMC,051828.000,A,3316.3437,N,11726.6383,W,15.55,121.64,161110,,,A*41
$GPRMC,051831.000,A,3316.3357,N,11726.6228,W,18.47,121.29,161110,,,A*4F
$GPRMC,051834.000,A,3316.3295,N,11726.6074,W,16.52,111.09,161110,,,A*45
$GPRMC,051837.000,A,3316.3289,N,11726.5913,W,15.55,87.89,161110,,,A*72
$GPRMC,051840.000,A,3316.3318,N,11726.5765,W,15.55,75.94,161110,,,A*75
$GPRMC,051843.000,A,3316.3286,N,11726.5578,W,24.86,112.15,161110,,,A*4B
$GPRMC,051846.000,A,3316.3157,N,11726.5317,W,36.95,126.56,161110,,,A*4F
$GPRMC,051849.000,A,3316.2945,N,11726.4986,W,45.21,128.32,161110,,,A*4E
$GPRMC,051852.000,A,3316.2671,N,11726.4587,W,55.44,129.38,161110,,,A*48
$GPRMC,051855.000,A,3316.2352,N,11726.4130,W,63.67,129.02,161110,,,A*4E
$GPRMC,051858.000,A,3316.2005,N,11726.3602,W,70.95,128.32,161110,,,A*4E
$GPRMC,051901.000,A,3316.1622,N,11726.3038,W,73.87,130.08,161110,,,A*4C
$GPRMC,051904.000,A,3316.1226,N,11726.2488,W,72.41,131.13,161110,,,A*47
$GPRMC,051907.000,A,3316.0827,N,11726.1947,W,72.41,131.13,161110,,,A*43
$GPRMC,051910.000,A,3316.0428,N,11726.1403,W,72.90,131.48,161110,,,A*49
$GPRMC,051913.000,A,3316.0029,N,11726.0863,W,71.93,131.48,161110,,,A*44
$GPRMC,051916.000,A,3315.9629,N,11726.0325,W,71.47,131.13,161110,,,A*43
$GPRMC,051919.000,A,3315.9240,N,11725.9791,W,70.98,131.13,161110,,,A*45
$GPRMC,051922.000,A,3315.8854,N,11725.9273,W,69.02,132.54,161110,,,A*41
$GPRMC,051925.000,A,3315.8442,N,11725.8822,W,66.58,139.92,161110,,,A*43
$GPRMC,051928.000,A,3315.7969,N,11725.8449,W,68.52,146.25,161110,,,A*44
$GPRMC,051931.000,A,3315.7489,N,11725.8072,W,68.52,146.25,161110,,,A*43
$GPRMC,051934.000,A,3315.7013,N,11725.7699,W,67.55,146.25,161110,,,A*45
$GPRMC,051937.000,A,3315.6549,N,11725.7329,W,66.58,146.25,161110,,,A*4F
$GPRMC,051940.000,A,3315.6089,N,11725.6962,W,66.09,146.25,161110,,,A*46
$GPRMC,051943.000,A,3315.5629,N,11725.6601,W,66.09,146.25,161110,,,A*40
$GPRMC,051946.000,A,3315.5172,N,11725.6237,W,66.09,146.25,161110,,,A*4D
$GPRMC,051949.000,A,3315.4711,N,11725.5864,W,66.09,146.25,161110,,,A*4F
$GPRMC,051952.000,A,3315.4254,N,11725.5504,W,66.09,146.60,161110,,,A*4B
$GPRMC,051955.000,A,3315.3797,N,11725.5150,W,65.61,146.95,161110,,,A*43
$GPRMC,051958.000,A,3315.3331,N,11725.4792,W,66.09,147.30,161110,,,A*4C
$GPRMC,052001.000,A,3315.2870,N,11725.4432,W,65.61,146.95,161110,,,A*4F
$GPRMC,052004.000,A,3315.2410,N,11725.4071,W,67.07,146.60,161110,,,A*4B
$GPRMC,052007.000,A,3315.1940,N,11725.3698,W,69.01,145.90,161110,,,A*41
$GPRMC,052010.000,A,3315.1448,N,11725.3308,W,71.44,146.25,161110,,,A*4B
$GPRMC,052013.000,A,3315.0942,N,11725.2913,W,72.41,146.25,161110,,,A*49
$GPRMC,052016.000,A,3315.0437,N,11725.2517,W,72.90,146.25,161110,,,A*47
$GPRMC,052019.000,A,3314.9938,N,11725.2114,W,72.41,146.25,161110,,,A*49
$GPRMC,052022.000,A,3314.9433,N,11725.1715,W,72.41,146.60,161110,,,A*42
$GPRMC,052025.000,A,3314.8927,N,11725.1319,W,72.41,147.30,161110,,,A*40
$GPRMC,052028.000,A,3314.8400,N,11725.0969,W,72.90,154.69,161110,,,A*4B
$GPRMC,052031.000,A,3314.7836,N,11725.0695,W,72.90,159.26,161110,,,A*4F
$GPRMC,052034.000,A,3314.7260,N,11725.0447,W,72.90,159.61,161110,,,A*4D
$GPRMC,052037.000,A,3314.6678,N,11725.0177,W,73.87,159.61,161110,,,A*43
$GPRMC,052040.000,A,3314.6092,N,11724.9903,W,74.36,157.50,161110,,,A*43
$GPRMC,052043.000,A,3314.5532,N,11724.9591,W,73.87,150.47,161110,,,A*47
$GPRMC,052046.000,A,3314.5020,N,11724.9192,W,73.38,142.38,161110,,,A*4C
$GPRMC,052049.000,A,3314.4556,N,11724.8719,W,73.87,137.11,161110,,,A*4F
$GPRMC,052052.000,A,3314.4164,N,11724.8165,W,72.41,127.27,161110,,,A*42
$GPRMC,052055.000,A,3314.3810,N,11724.7576,W,73.38,125.16,161110,,,A*4E
$GPRMC,052058.000,A,3314.3452,N,11724.6974,W,74.36,124.80,161110,,,A*41
$GPRMC,052101.000,A,3314.3092,N,11724.6369,W,74.36,125.51,161110,,,A*4F
$GPRMC,052104.000,A,3314.2728,N,11724.5777,W,73.88,128.67,161110,,,A*4F
$GPRMC,052107.000,A,3314.2310,N,11724.5233,W,74.85,136.05,161110,,,A*47
$GPRMC,052110.000,A,3314.1853,N,11724.4721,W,75.82,136.76,161110,,,A*4B
$GPRMC,052113.000,A,3314.1393,N,11724.4206,W,76.31,136.76,161110,,,A*44
$GPRMC,052116.000,A,3314.0926,N,11724.3681,W,77.27,136.41,161110,,,A*4A
$GPRMC,052119.000,A,3314.0449,N,11724.3150,W,79.22,136.76,161110,,,A*45
$GPRMC,052122.000,A,3313.9967,N,11724.2610,W,77.76,136.76,161110,,,A*4F
$GPRMC,052125.000,A,3313.9503,N,11724.2085,W,75.81,136.05,161110,,,A*42
$GPRMC,052128.000,A,3313.9056,N,11724.1560,W,74.84,136.05,161110,,,A*43
$GPRMC,052131.000,A,3313.8608,N,11724.1049,W,74.36,136.41,161110,,,A*40
$GPRMC,052134.000,A,3313.8151,N,11724.0547,W,73.88,137.11,161110,,,A*42
$GPRMC,052137.000,A,3313.7701,N,11724.0051,W,72.90,137.11,161110,,,A*47
$GPRMC,052140.000,A,3313.7260,N,11723.9562,W,71.93,137.11,161110,,,A*4E
$GPRMC,052143.000,A,3313.6819,N,11723.9076,W,71.47,137.11,161110,,,A*41
$GPRMC,052146.000,A,3313.6384,N,11723.8590,W,70.96,136.76,161110,,,A*4A
$GPRMC,052149.000,A,3313.5956,N,11723.8113,W,70.47,137.46,161110,,,A*42
$GPRMC,052152.000,A,3313.5528,N,11723.7634,W,70.47,137.11,161110,,,A*42
$GPRMC,052155.000,A,3313.5100,N,11723.7160,W,69.99,137.11,161110,,,A*46
$GPRMC,052158.000,A,3313.4675,N,11723.6687,W,70.47,137.11,161110,,,A*4B
$GPRMC,052201.000,A,3313.4241,N,11723.6217,W,69.98,137.46,161110,,,A*42
$GPRMC,052204.000,A,3313.3787,N,11723.5783,W,69.50,144.84,161110,,,A*4A
$GPRMC,052207.000,A,3313.3282,N,11723.5426,W,70.47,152.23,161110,,,A*41
$GPRMC,052210.000,A,3313.2741,N,11723.5155,W,70.98,161.37,161110,,,A*4A
$GPRMC,052213.000,A,3313.2174,N,11723.4962,W,71.45,165.94,161110,,,A*48
$GPRMC,052216.000,A,3313.1605,N,11723.4795,W,70.47,165.94,161110,,,A*4A
$GPRMC,052219.000,A,3313.1032,N,11723.4621,W,70.47,165.94,161110,,,A*49
$GPRMC,052222.000,A,3313.0462,N,11723.4450,W,70.95,165.94,161110,,,A*4A
$GPRMC,052225.000,A,3312.9879,N,11723.4283,W,71.44,166.29,161110,,,A*43
$GPRMC,052228.000,A,3312.9297,N,11723.4112,W,71.93,165.94,161110,,,A*40
$GPRMC,052231.000,A,3312.8721,N,11723.3906,W,72.42,161.02,161110,,,A*4F
$GPRMC,052234.000,A,3312.8167,N,11723.3623,W,72.90,152.93,161110,,,A*41
$GPRMC,052237.000,A,3312.7626,N,11723.3285,W,73.88,152.23,161110,,,A*44
$GPRMC,052240.000,A,3312.7079,N,11723.2941,W,73.87,151.88,161110,,,A*47
$GPRMC,052243.000,A,3312.6532,N,11723.2593,W,74.85,152.23,161110,,,A*4B
$GPRMC,052246.000,A,3312.5982,N,11723.2249,W,74.36,151.88,161110,,,A*40
$GPRMC,052249.000,A,3312.5434,N,11723.1908,W,73.38,152.58,161110,,,A*45
$GPRMC,052252.000,A,3312.4894,N,11723.1570,W,72.90,151.88,161110,,,A*46
$GPRMC,052255.000,A,3312.4363,N,11723.1232,W,71.93,151.88,161110,,,A*43
$GPRMC,052258.000,A,3312.3851,N,11723.0894,W,69.50,149.77,161110,,,A*4B
$GPRMC,052301.000,A,3312.3365,N,11723.0514,W,69.98,143.09,161110,,,A*48
$GPRMC,052304.000,A,3312.2914,N,11723.0067,W,70.95,137.81,161110,,,A*47
$GPRMC,052307.000,A,3312.2522,N,11722.9548,W,70.01,129.38,161110,,,A*4D
$GPRMC,052310.000,A,3312.2177,N,11722.8982,W,70.01,123.05,161110,,,A*40
$GPRMC,052313.000,A,3312.1888,N,11722.8383,W,69.99,117.42,161110,,,A*4F
$GPRMC,052316.000,A,3312.1656,N,11722.7746,W,69.50,112.50,161110,,,A*46
$GPRMC,052319.000,A,3312.1430,N,11722.7105,W,69.98,112.50,161110,,,A*4E
$GPRMC,052322.000,A,3312.1212,N,11722.6465,W,70.47,112.15,161110,,,A*49
$GPRMC,052325.000,A,3312.0990,N,11722.5818,W,69.99,112.15,161110,,,A*40
$GPRMC,052328.000,A,3312.0767,N,11722.5174,W,69.98,112.15,161110,,,A*49
$GPRMC,052331.000,A,3312.0545,N,11722.4531,W,70.49,112.15,161110,,,A*43
$GPRMC,052334.000,A,3312.0320,N,11722.3877,W,71.47,112.15,161110,,,A*44
$GPRMC,052337.000,A,3312.0082,N,11722.3224,W,71.45,114.61,161110,,,A*47
$GPRMC,052340.000,A,3311.9783,N,11722.2609,W,71.45,121.29,161110,,,A*4B
$GPRMC,052343.000,A,3311.9441,N,11722.2033,W,69.98,127.27,161110,,,A*4B
$GPRMC,052346.000,A,3311.9055,N,11722.1531,W,67.07,133.95,161110,,,A*4F
$GPRMC,052349.000,A,3311.8624,N,11722.1099,W,67.07,141.68,161110,,,A*41
$GPRMC,052352.000,A,3311.8154,N,11722.0707,W,68.52,144.84,161110,,,A*42
$GPRMC,052355.000,A,3311.7681,N,11722.0321,W,68.52,145.90,161110,,,A*41
$GPRMC,052358.000,A,3311.7204,N,11721.9931,W,69.98,145.20,161110,,,A*48
$GPRMC,052401.000,A,3311.6728,N,11721.9526,W,69.98,144.84,161110,,,A*4C
$GPRMC,052404.000,A,3311.6242,N,11721.9126,W,70.96,145.90,161110,,,A*46
$GPRMC,052407.000,A,3311.5756,N,11721.8737,W,70.95,145.55,161110,,,A*4B
$GPRMC,052410.000,A,3311.5273,N,11721.8331,W,70.47,145.55,161110,,,A*42
$GPRMC,052413.000,A,3311.4784,N,11721.7945,W,69.99,144.84,161110,,,A*4D
$GPRMC,052416.000,A,3311.4304,N,11721.7546,W,70.47,145.20,161110,,,A*4F
$GPRMC,052419.000,A,3311.3809,N,11721.7140,W,72.42,144.84,161110,,,A*4B
$GPRMC,052422.000,A,3311.3307,N,11721.6725,W,72.92,145.20,161110,,,A*40
$GPRMC,052425.000,A,3311.2808,N,11721.6313,W,72.44,145.20,161110,,,A*48
$GPRMC,052428.000,A,3311.2318,N,11721.5905,W,71.45,145.20,161110,,,A*43
$GPRMC,052431.000,A,3311.1829,N,11721.5499,W,71.45,145.20,161110,,,A*49
$GPRMC,052434.000,A,3311.1346,N,11721.5097,W,70.96,144.84,161110,,,A*44
$GPRMC,052437.000,A,3311.0860,N,11721.4691,W,70.95,144.84,161110,,,A*4B
$GPRMC,052440.000,A,3311.0378,N,11721.4289,W,70.47,145.20,161110,,,A*44
$GPRMC,052443.000,A,3310.9898,N,11721.3893,W,69.98,145.20,161110,,,A*46
$GPRMC,052446.000,A,3310.9415,N,11721.3494,W,70.47,144.84,161110,,,A*44
$GPRMC,052449.000,A,3310.8936,N,11721.3098,W,69.98,145.55,161110,,,A*49
$GPRMC,052452.000,A,3310.8456,N,11721.2702,W,68.52,145.55,161110,,,A*4A
$GPRMC,052455.000,A,3310.7993,N,11721.2316,W,68.04,145.55,161110,,,A*44
$GPRMC,052458.000,A,3310.7532,N,11721.1936,W,68.04,145.20,161110,,,A*47
$GPRMC,052501.000,A,3310.7079,N,11721.1550,W,67.55,145.20,161110,,,A*47
$GPRMC,052504.000,A,3310.6612,N,11721.1167,W,68.52,144.84,161110,,,A*4F
$GPRMC,052507.000,A,3310.6132,N,11721.0771,W,69.98,145.55,161110,,,A*43
$GPRMC,052510.000,A,3310.5624,N,11721.0385,W,72.41,147.30,161110,,,A*46
$GPRMC,052513.000,A,3310.5122,N,11721.0005,W,70.95,148.01,161110,,,A*49
$GPRMC,052516.000,A,3310.4623,N,11720.9625,W,69.99,147.66,161110,,,A*4D
$GPRMC,052519.000,A,3310.4140,N,11720.9255,W,69.02,147.30,161110,,,A*42
$GPRMC,052522.000,A,3310.3654,N,11720.8885,W,69.50,147.66,161110,,,A*4D
$GPRMC,052525.000,A,3310.3168,N,11720.8514,W,69.99,147.66,161110,,,A*42
$GPRMC,052528.000,A,3310.2675,N,11720.8141,W,70.49,147.66,161110,,,A*44
$GPRMC,052531.000,A,3310.2183,N,11720.7771,W,69.04,147.66,161110,,,A*49
$GPRMC,052534.000,A,3310.1687,N,11720.7411,W,67.55,148.71,161110,,,A*4A
$GPRMC,052537.000,A,3310.1201,N,11720.7095,W,64.64,152.23,161110,,,A*46
$GPRMC,052540.000,A,3310.0718,N,11720.6812,W,64.16,155.39,161110,,,A*45
$GPRMC,052543.000,A,3310.0223,N,11720.6561,W,64.64,156.45,161110,,,A*4F
$GPRMC,052546.000,A,3309.9727,N,11720.6310,W,65.12,157.15,161110,,,A*4E
$GPRMC,052549.000,A,3309.9222,N,11720.6059,W,65.13,156.80,161110,,,A*43
$GPRMC,052552.000,A,3309.8726,N,11720.5804,W,64.64,156.80,161110,,,A*4B
$GPRMC,052555.000,A,3309.8230,N,11720.5557,W,63.66,157.15,161110,,,A*4D
$GPRMC,052558.000,A,3309.7744,N,11720.5309,W,63.18,157.50,161110,,,A*4C
$GPRMC,052601.000,A,3309.7268,N,11720.5067,W,62.69,156.80,161110,,,A*48
$GPRMC,052604.000,A,3309.6779,N,11720.4816,W,63.66,156.80,161110,,,A*48
$GPRMC,052607.000,A,3309.6299,N,11720.4556,W,64.15,156.45,161110,,,A*43
$GPRMC,052610.000,A,3309.5810,N,11720.4305,W,64.15,156.45,161110,,,A*4D
$GPRMC,052613.000,A,3309.5301,N,11720.4053,W,65.12,157.15,161110,,,A*47
$GPRMC,052616.000,A,3309.4803,N,11720.3793,W,63.66,157.15,161110,,,A*43
$GPRMC,052619.000,A,3309.4326,N,11720.3555,W,62.69,156.80,161110,,,A*4B
$GPRMC,052622.000,A,3309.3863,N,11720.3307,W,61.72,156.80,161110,,,A*46
$GPRMC,052625.000,A,3309.3377,N,11720.3081,W,60.75,157.15,161110,,,A*49
$GPRMC,052628.000,A,3309.2910,N,11720.2853,W,60.75,156.09,161110,,,A*44
$GPRMC,052631.000,A,3309.2456,N,11720.2589,W,60.75,154.69,161110,,,A*4D
$GPRMC,052634.000,A,3309.2022,N,11720.2328,W,61.73,153.98,161110,,,A*4C
$GPRMC,052637.000,A,3309.1552,N,11720.2042,W,64.64,152.93,161110,,,A*48
$GPRMC,052640.000,A,3309.1027,N,11720.1752,W,69.01,154.34,161110,,,A*4F
$GPRMC,052643.000,A,3309.0502,N,11720.1437,W,70.47,153.63,161110,,,A*40
$GPRMC,052646.000,A,3308.9971,N,11720.1134,W,70.95,153.98,161110,,,A*48
$GPRMC,052649.000,A,3308.9434,N,11720.0812,W,72.41,153.28,161110,,,A*47
$GPRMC,052652.000,A,3308.8842,N,11720.0535,W,74.36,160.31,161110,,,A*47
$GPRMC,052655.000,A,3308.8220,N,11720.0352,W,75.33,168.75,161110,,,A*45
$GPRMC,052658.000,A,3308.7609,N,11720.0252,W,74.84,175.78,161110,,,A*45
$GPRMC,052701.000,A,3308.6991,N,11720.0204,W,73.41,175.43,161110,,,A*42
$GPRMC,052704.000,A,3308.6379,N,11720.0162,W,71.93,177.54,161110,,,A*41
$GPRMC,052707.000,A,3308.5787,N,11720.0111,W,71.44,173.67,161110,,,A*4E
$GPRMC,052710.000,A,3308.5217,N,11719.9959,W,71.44,165.23,161110,,,A*44
$GPRMC,052713.000,A,3308.4683,N,11719.9699,W,69.50,156.80,161110,,,A*49
$GPRMC,052716.000,A,3308.4133,N,11719.9428,W,70.95,157.15,161110,,,A*44
$GPRMC,052719.000,A,3308.3579,N,11719.9151,W,72.41,156.80,161110,,,A*4B
$GPRMC,052722.000,A,3308.3016,N,11719.8865,W,73.38,156.80,161110,,,A*4F
$GPRMC,052725.000,A,3308.2449,N,11719.8582,W,73.87,157.15,161110,,,A*4A
$GPRMC,052728.000,A,3308.1870,N,11719.8289,W,75.33,157.50,161110,,,A*46
$GPRMC,052731.000,A,3308.1291,N,11719.7996,W,75.33,157.15,161110,,,A*40
$GPRMC,052734.000,A,3308.0711,N,11719.7716,W,73.87,157.50,161110,,,A*47
$GPRMC,052737.000,A,3308.0145,N,11719.7426,W,73.87,156.80,161110,,,A*4F
$GPRMC,052740.000,A,3307.9578,N,11719.7124,W,74.84,155.04,161110,,,A*4F
$GPRMC,052743.000,A,3307.9031,N,11719.6783,W,74.84,153.63,161110,,,A*49
$GPRMC,052746.000,A,3307.8474,N,11719.6448,W,74.84,153.28,161110,,,A*43
$GPRMC,052749.000,A,3307.7918,N,11719.6110,W,75.33,152.93,161110,,,A*40
$GPRMC,052752.000,A,3307.7348,N,11719.5765,W,76.30,152.58,161110,,,A*45
$GPRMC,052755.000,A,3307.6810,N,11719.5411,W,75.33,152.58,161110,,,A*45
$GPRMC,052758.000,A,3307.6241,N,11719.5054,W,76.30,152.58,161110,,,A*43
$GPRMC,052801.000,A,3307.5668,N,11719.4710,W,75.81,152.93,161110,,,A*44
$GPRMC,052804.000,A,3307.5114,N,11719.4372,W,75.33,152.93,161110,,,A*44
$GPRMC,052807.000,A,3307.4551,N,11719.4027,W,75.33,153.28,161110,,,A*41
$GPRMC,052810.000,A,3307.3984,N,11719.3702,W,74.36,154.34,161110,,,A*4D
$GPRMC,052813.000,A,3307.3450,N,11719.3371,W,73.38,153.98,161110,,,A*42
$GPRMC,052816.000,A,3307.2900,N,11719.3046,W,73.38,152.93,161110,,,A*43
$GPRMC,052819.000,A,3307.2336,N,11719.2730,W,73.38,153.63,161110,,,A*4A
$GPRMC,052822.000,A,3307.1789,N,11719.2405,W,72.90,153.63,161110,,,A*47
$GPRMC,052825.000,A,3307.1274,N,11719.2099,W,69.98,154.34,161110,,,A*41
$GPRMC,052828.000,A,3307.0782,N,11719.1797,W,67.07,153.63,161110,,,A*46
$GPRMC,052831.000,A,3307.0260,N,11719.1517,W,67.07,153.63,161110,,,A*4D
$GPRMC,052834.000,A,3306.9758,N,11719.1217,W,67.55,153.28,161110,,,A*41
$GPRMC,052837.000,A,3306.9253,N,11719.0908,W,68.52,152.93,161110,,,A*41
$GPRMC,052840.000,A,3306.8741,N,11719.0593,W,69.01,152.58,161110,,,A*48
$GPRMC,052843.000,A,3306.8233,N,11719.0265,W,69.50,152.23,161110,,,A*4D
$GPRMC,052846.000,A,3306.7721,N,11718.9959,W,69.50,152.58,161110,,,A*41
$GPRMC,052849.000,A,3306.7206,N,11718.9634,W,70.47,152.58,161110,,,A*44
$GPRMC,052852.000,A,3306.6668,N,11718.9341,W,70.47,153.28,161110,,,A*42
$GPRMC,052855.000,A,3306.6131,N,11718.9026,W,70.95,153.28,161110,,,A*43
$GPRMC,052858.000,A,3306.5600,N,11718.8717,W,70.47,153.28,161110,,,A*43
$GPRMC,052901.000,A,3306.5085,N,11718.8401,W,70.47,152.58,161110,,,A*47
$GPRMC,052904.000,A,3306.4576,N,11718.8063,W,69.50,151.52,161110,,,A*4D
$GPRMC,052907.000,A,3306.4068,N,11718.7745,W,69.01,151.88,161110,,,A*4B
$GPRMC,052910.000,A,3306.3559,N,11718.7403,W,69.50,151.17,161110,,,A*4E
$GPRMC,052913.000,A,3306.3057,N,11718.7065,W,70.47,150.82,161110,,,A*41
$GPRMC,052916.000,A,3306.2532,N,11718.6724,W,71.44,151.17,161110,,,A*4F
$GPRMC,052919.000,A,3306.2001,N,11718.6377,W,72.41,151.88,161110,,,A*47
$GPRMC,052922.000,A,3306.1454,N,11718.6039,W,73.38,151.88,161110,,,A*4E
$GPRMC,052925.000,A,3306.0942,N,11718.5681,W,70.95,151.52,161110,,,A*47
$GPRMC,052928.000,A,3306.0450,N,11718.5360,W,67.07,151.17,161110,,,A*42
$GPRMC,052931.000,A,3305.9990,N,11718.5034,W,64.15,150.82,161110,,,A*4E
$GPRMC,052934.000,A,3305.9526,N,11718.4761,W,60.75,151.88,161110,,,A*45
$GPRMC,052937.000,A,3305.9105,N,11718.4490,W,57.83,151.88,161110,,,A*43
$GPRMC,052940.000,A,3305.8689,N,11718.4217,W,56.86,151.88,161110,,,A*4C
$GPRMC,052943.000,A,3305.8268,N,11718.3972,W,56.86,152.23,161110,,,A*49
$GPRMC,052946.000,A,3305.7865,N,11718.3715,W,56.37,150.82,161110,,,A*48
$GPRMC,052949.000,A,3305.7453,N,11718.3438,W,56.37,150.47,161110,,,A*4B
$GPRMC,052952.000,A,3305.7074,N,11718.3135,W,55.89,149.06,161110,,,A*43
$GPRMC,052955.000,A,3305.6639,N,11718.2875,W,57.35,150.47,161110,,,A*4E
$GPRMC,052958.000,A,3305.6198,N,11718.2595,W,58.80,150.47,161110,,,A*4D
$GPRMC,053001.000,A,3305.5754,N,11718.2311,W,60.75,150.47,161110,,,A*47
$GPRMC,053004.000,A,3305.5278,N,11718.1990,W,65.61,150.12,161110,,,A*49
$GPRMC,053007.000,A,3305.4753,N,11718.1674,W,69.98,151.52,161110,,,A*4D
$GPRMC,053010.000,A,3305.4209,N,11718.1333,W,72.90,151.52,161110,,,A*45
$GPRMC,053013.000,A,3305.3665,N,11718.0976,W,73.87,151.17,161110,,,A*43
$GPRMC,053016.000,A,3305.3137,N,11718.0631,W,72.90,151.17,161110,,,A*4D
$GPRMC,053019.000,A,3305.2580,N,11718.0277,W,73.87,151.52,161110,,,A*4B
$GPRMC,053022.000,A,3305.2027,N,11717.9914,W,74.84,151.17,161110,,,A*46
$GPRMC,053025.000,A,3305.1496,N,11717.9553,W,73.87,151.17,161110,,,A*47
$GPRMC,053028.000,A,3305.0945,N,11717.9212,W,74.36,152.58,161110,,,A*4F
