NMEA Sentence Code,UTC Time,Status,Latitude,Latitude Direction,Longitude,Longitude Direction,Speed (knots),Track Angle (degrees true),Date,MagneticVariation,Magnetic Variation Direction,[FAA Mode]-Optional,Checksum
$GPRMC,194327.000,A,7019.6303,N,14936.3324,W,21.38,270.00,280910,,,A*4F
$GPRMC,194330.000,A,7019.6313,N,14936.3852,W,21.87,271.05,280910,,,A*42
$GPRMC,194333.000,A,7019.6322,N,14936.4383,W,21.38,271.76,280910,,,A*43
$GPRMC,194336.000,A,7019.6326,N,14936.4901,W,20.90,270.35,280910,,,A*47
$GPRMC,194339.000,A,7019.6332,N,14936.5400,W,20.90,270.70,280910,,,A*41
$GPRMC,194342.000,A,7019.6338,N,14936.5915,W,20.41,271.05,280910,,,A*41
$GPRMC,194345.000,A,7019.6342,N,14936.6395,W,17.98,271.41,280910,,,A*4A
$GPRMC,194348.000,A,7019.6351,N,14936.6797,W,16.52,271.41,280910,,,A*44
$GPRMC,194351.000,A,7019.6351,N,14936.7190,W,17.01,271.05,280910,,,A*4B
$GPRMC,194354.000,A,7019.6351,N,14936.7614,W,17.01,269.65,280910,,,A*4A
$GPRMC,194357.000,A,7019.6348,N,14936.8010,W,15.55,268.95,280910,,,A*41
$GPRMC,194400.000,A,7019.6335,N,14936.8348,W,13.61,263.32,280910,,,A*47
$GPRMC,194403.000,A,7019.6255,N,14936.8583,W,11.18,227.11,280910,,,A*4F
$GPRMC,194406.000,A,7019.6161,N,14936.8683,W,12.15,186.33,280910,,,A*4B
$GPRMC,194409.000,A,7019.6068,N,14936.8667,W,11.66,176.84,280910,,,A*42
$GPRMC,194412.000,A,7019.5971,N,14936.8651,W,11.66,180.70,280910,,,A*4D
$GPRMC,194415.000,A,7019.5840,N,14936.8670,W,12.64,190.20,280910,,,A*4F
$GPRMC,194418.000,A,7019.5769,N,14936.8815,W,12.15,204.26,280910,,,A*45
$GPRMC,194421.000,A,7019.5682,N,14936.8937,W,11.66,199.34,280910,,,A*49
$GPRMC,194424.000,A,7019.5595,N,14936.8999,W,11.18,189.14,280910,,,A*47
$GPRMC,194427.000,A,7019.5498,N,14936.9021,W,11.18,182.81,280910,,,A*44
$GPRMC,194430.000,A,7019.5411,N,14936.9024,W,10.69,182.46,280910,,,A*4A
$GPRMC,194433.000,A,7019.5318,N,14936.9021,W,11.18,181.05,280910,,,A*41
$GPRMC,194436.000,A,7019.5225,N,14936.9015,W,11.18,180.00,280910,,,A*48
$GPRMC,194439.000,A,7019.5131,N,14936.8999,W,10.21,180.00,280910,,,A*46
$GPRMC,194442.000,A,7019.5048,N,14936.8989,W,8.80,182.46,280910,,,A*76
$GPRMC,194445.000,A,7019.4961,N,14936.8982,W,11.18,178.59,280910,,,A*4B
$GPRMC,194448.000,A,7019.4864,N,14936.8970,W,11.66,178.24,280910,,,A*4C
$GPRMC,194451.000,A,7019.4758,N,14936.8947,W,11.66,178.59,280910,,,A*4A
$GPRMC,194454.000,A,7019.4661,N,14936.8928,W,11.18,178.95,280910,,,A*44
$GPRMC,194457.000,A,7019.4555,N,14936.8889,W,12.15,177.19,280910,,,A*4C
$GPRMC,194500.000,A,7019.4449,N,14936.8889,W,13.12,179.65,280910,,,A*40
$GPRMC,194503.000,A,7019.4336,N,14936.8889,W,13.61,180.35,280910,,,A*4B
$GPRMC,194506.000,A,7019.4224,N,14936.8886,W,13.12,180.35,280910,,,A*47
$GPRMC,194509.000,A,7019.4114,N,14936.8847,W,12.64,179.30,280910,,,A*46
$GPRMC,194512.000,A,7019.4008,N,14936.8809,W,12.15,168.40,280910,,,A*4B
$GPRMC,194515.000,A,7019.3912,N,14936.8722,W,11.66,153.63,280910,,,A*41
$GPRMC,194518.000,A,7019.3850,N,14936.8532,W,11.18,128.32,280910,,,A*49
$GPRMC,194521.000,A,7019.3834,N,14936.8316,W,11.18,119.88,280910,,,A*42
$GPRMC,194524.000,A,7019.3780,N,14936.8213,W,7.84,175.08,280910,,,A*73
$GPRMC,194527.000,A,7019.3683,N,14936.8210,W,11.18,183.16,280910,,,A*45
$GPRMC,194530.000,A,7019.3570,N,14936.8191,W,10.21,174.73,280910,,,A*46
$GPRMC,194536.000,A,7019.3519,N,14936.8136,W,4.37,152.58,280910,,,A*7D
$GPRMC,194539.000,A,7019.3464,N,14936.8126,W,9.23,172.27,280910,,,A*7A
$GPRMC,194542.000,A,7019.3387,N,14936.8120,W,10.21,173.67,280910,,,A*45
$GPRMC,194545.000,A,7019.3223,N,14936.8052,W,17.98,170.16,280910,,,A*49
$GPRMC,194548.000,A,7019.3068,N,14936.7978,W,19.44,172.62,280910,,,A*49
$GPRMC,194551.000,A,7019.2875,N,14936.7904,W,22.84,174.38,280910,,,A*42
$GPRMC,194554.000,A,7019.2659,N,14936.7820,W,25.27,172.97,280910,,,A*4D
$GPRMC,194557.000,A,7019.2392,N,14936.7685,W,29.16,171.91,280910,,,A*46
$GPRMC,194600.000,A,7019.2151,N,14936.7586,W,29.16,171.56,280910,,,A*41
$GPRMC,194603.000,A,7019.1910,N,14936.7473,W,29.65,171.21,280910,,,A*43
$GPRMC,194606.000,A,7019.1662,N,14936.7354,W,29.65,170.86,280910,,,A*42
$GPRMC,194609.000,A,7019.1420,N,14936.7241,W,31.10,171.56,280910,,,A*4B
$GPRMC,194612.000,A,7019.1147,N,14936.7135,W,31.59,171.91,280910,,,A*43
$GPRMC,194615.000,A,7019.0886,N,14936.7045,W,32.07,174.38,280910,,,A*49
$GPRMC,194618.000,A,7019.0616,N,14936.6980,W,33.05,176.48,280910,,,A*44
$GPRMC,194621.000,A,7019.0316,N,14936.6935,W,34.02,178.59,280910,,,A*4B
$GPRMC,194624.000,A,7019.0030,N,14936.6903,W,34.02,178.24,280910,,,A*46
$GPRMC,194627.000,A,7018.9747,N,14936.6877,W,34.02,178.24,280910,,,A*48
$GPRMC,194630.000,A,7018.9460,N,14936.6848,W,34.02,178.59,280910,,,A*4E
$GPRMC,194633.000,A,7018.9180,N,14936.6819,W,34.02,177.89,280910,,,A*40
$GPRMC,194636.000,A,7018.8897,N,14936.6774,W,34.02,177.19,280910,,,A*46
$GPRMC,194639.000,A,7018.8620,N,14936.6707,W,34.02,174.02,280910,,,A*46
$GPRMC,194642.000,A,7018.8340,N,14936.6578,W,34.50,170.86,280910,,,A*4C
$GPRMC,194645.000,A,7018.8057,N,14936.6430,W,34.50,170.51,280910,,,A*49
$GPRMC,194648.000,A,7018.7777,N,14936.6295,W,34.50,170.86,280910,,,A*4D
$GPRMC,194651.000,A,7018.7490,N,14936.6166,W,34.50,170.51,280910,,,A*4A
$GPRMC,194654.000,A,7018.7210,N,14936.6034,W,34.50,170.86,280910,,,A*4D
$GPRMC,194657.000,A,7018.6927,N,14936.5893,W,34.99,170.51,280910,,,A*49
$GPRMC,194700.000,A,7018.6641,N,14936.5754,W,35.48,171.21,280910,,,A*4A
$GPRMC,194703.000,A,7018.6351,N,14936.5625,W,35.48,172.27,280910,,,A*4F
$GPRMC,194706.000,A,7018.6055,N,14936.5522,W,36.45,173.32,280910,,,A*42
$GPRMC,194709.000,A,7018.5743,N,14936.5419,W,39.36,174.73,280910,,,A*4E
$GPRMC,194712.000,A,7018.5447,N,14936.5300,W,38.41,172.27,280910,,,A*4A
$GPRMC,194715.000,A,7018.5154,N,14936.5207,W,35.96,173.32,280910,,,A*4E
$GPRMC,194718.000,A,7018.4874,N,14936.5130,W,34.99,175.08,280910,,,A*4F
$GPRMC,194721.000,A,7018.4635,N,14936.5175,W,33.53,175.08,280910,,,A*4E
$GPRMC,194724.000,A,7018.4352,N,14936.5101,W,33.05,175.43,280910,,,A*40
$GPRMC,194727.000,A,7018.4082,N,14936.5033,W,32.56,175.78,280910,,,A*42
$GPRMC,194730.000,A,7018.3824,N,14936.4978,W,30.15,170.16,280910,,,A*48
$GPRMC,194733.000,A,7018.3605,N,14936.4779,W,26.73,154.34,280910,,,A*48
$GPRMC,194736.000,A,7018.3444,N,14936.4396,W,24.79,135.00,280910,,,A*47
$GPRMC,194739.000,A,7018.3345,N,14936.3829,W,26.73,108.63,280910,,,A*45
$GPRMC,194742.000,A,7018.3313,N,14936.3170,W,27.70,94.57,280910,,,A*7E
$GPRMC,194745.000,A,7018.3306,N,14936.2455,W,29.65,90.35,280910,,,A*74
$GPRMC,194748.000,A,7018.3303,N,14936.1724,W,28.19,90.35,280910,,,A*70
$GPRMC,194751.000,A,7018.3296,N,14936.1055,W,25.78,92.11,280910,,,A*7A
$GPRMC,194754.000,A,7018.3277,N,14936.0456,W,23.33,100.20,280910,,,A*47
$GPRMC,194757.000,A,7018.3210,N,14935.9948,W,22.36,117.77,280910,,,A*4D
$GPRMC,194800.000,A,7018.3110,N,14935.9549,W,19.93,126.56,280910,,,A*48
$GPRMC,194803.000,A,7018.3045,N,14935.9120,W,19.93,112.15,280910,,,A*41
$GPRMC,194806.000,A,7018.2968,N,14935.8689,W,20.41,121.99,280910,,,A*47
$GPRMC,194809.000,A,7018.2852,N,14935.8309,W,21.38,138.16,280910,,,A*4D
$GPRMC,194812.000,A,7018.2727,N,14935.8029,W,17.98,150.47,280910,,,A*4E
$GPRMC,194815.000,A,7018.2592,N,14935.7843,W,17.50,160.66,280910,,,A*4A
$GPRMC,194818.000,A,7018.2463,N,14935.7720,W,14.09,166.29,280910,,,A*40
$GPRMC,194937.000,A,7018.2286,N,14935.7685,W,3.89,194.77,280910,,,A*77
$GPRMC,194940.000,A,7018.2205,N,14935.7656,W,7.29,178.24,280910,,,A*78
$GPRMC,194943.000,A,7018.2141,N,14935.7656,W,7.78,182.81,280910,,,A*76
$GPRMC,194946.000,A,7018.2073,N,14935.7672,W,7.78,183.87,280910,,,A*72
$GPRMC,194949.000,A,7018.1993,N,14935.7666,W,11.18,179.30,280910,,,A*44
$GPRMC,194952.000,A,7018.1893,N,14935.7672,W,13.61,180.00,280910,,,A*43
$GPRMC,194955.000,A,7018.1771,N,14935.7662,W,15.07,179.65,280910,,,A*45
$GPRMC,194958.000,A,7018.1642,N,14935.7659,W,15.55,179.30,280910,,,A*46
$GPRMC,195001.000,A,7018.1513,N,14935.7659,W,15.07,179.65,280910,,,A*42
$GPRMC,195004.000,A,7018.1388,N,14935.7637,W,14.58,174.02,280910,,,A*4C
$GPRMC,195007.000,A,7018.1278,N,14935.7537,W,13.61,158.55,280910,,,A*43
$GPRMC,195010.000,A,7018.1182,N,14935.7405,W,13.12,153.98,280910,,,A*4D
$GPRMC,195013.000,A,7018.1085,N,14935.7254,W,13.12,152.58,280910,,,A*47
$GPRMC,195016.000,A,7018.0979,N,14935.7135,W,12.64,158.91,280910,,,A*42
$GPRMC,195019.000,A,7018.0876,N,14935.7041,W,12.64,164.53,280910,,,A*40
$GPRMC,195022.000,A,7018.0776,N,14935.6945,W,12.15,168.40,280910,,,A*43
$GPRMC,195025.000,A,7018.0680,N,14935.6890,W,11.66,170.16,280910,,,A*48
$GPRMC,195028.000,A,7018.0590,N,14935.6858,W,11.18,173.32,280910,,,A*4F
$GPRMC,195031.000,A,7018.0493,N,14935.6826,W,11.18,173.32,280910,,,A*4C
$GPRMC,195034.000,A,7018.0409,N,14935.6829,W,10.21,180.00,280910,,,A*43
$GPRMC,195037.000,A,7018.0329,N,14935.6822,W,9.23,180.35,280910,,,A*72
$GPRMC,195040.000,A,7018.0258,N,14935.6903,W,10.21,190.90,280910,,,A*43
$GPRMC,195043.000,A,7018.0187,N,14935.6958,W,8.26,193.01,280910,,,A*7A
$GPRMC,195046.000,A,7018.0123,N,14935.6980,W,8.26,191.60,280910,,,A*71
$GPRMC,195049.000,A,7018.0049,N,14935.7025,W,9.23,189.49,280910,,,A*72
$GPRMC,195052.000,A,7017.9968,N,14935.7054,W,10.69,194.06,280910,,,A*43
$GPRMC,195055.000,A,7017.9881,N,14935.7164,W,13.12,202.50,280910,,,A*40
$GPRMC,195058.000,A,7017.9778,N,14935.7341,W,15.07,214.80,280910,,,A*49
$GPRMC,195101.000,A,7017.9672,N,14935.7598,W,17.01,222.89,280910,,,A*45
$GPRMC,195104.000,A,7017.9572,N,14935.7907,W,17.98,227.81,280910,,,A*44
$GPRMC,195107.000,A,7017.9486,N,14935.8258,W,17.01,235.55,280910,,,A*49
$GPRMC,195110.000,A,7017.9412,N,14935.8618,W,16.52,237.30,280910,,,A*44
$GPRMC,195113.000,A,7017.9363,N,14935.8966,W,14.58,253.83,280910,,,A*42
$GPRMC,195116.000,A,7017.9360,N,14935.9291,W,12.64,279.49,280910,,,A*41
$GPRMC,195119.000,A,7017.9424,N,14935.9587,W,13.12,310.08,280910,,,A*42
$GPRMC,195122.000,A,7017.9518,N,14935.9796,W,13.12,335.74,280910,,,A*4A
$GPRMC,195125.000,A,7017.9624,N,14935.9883,W,13.61,345.59,280910,,,A*46
$GPRMC,195128.000,A,7017.9740,N,14935.9896,W,14.58,354.38,280910,,,A*46
$GPRMC,195131.000,A,7017.9859,N,14935.9896,W,15.07,358.95,280910,,,A*49
$GPRMC,195134.000,A,7017.9984,N,14935.9883,W,15.07,359.30,280910,,,A*47
$GPRMC,195137.000,A,7018.0104,N,14935.9877,W,14.09,359.65,280910,,,A*46
$GPRMC,195140.000,A,7018.0216,N,14935.9880,W,13.61,359.30,280910,,,A*47
$GPRMC,195143.000,A,7018.0326,N,14935.9890,W,12.64,358.95,280910,,,A*4D
$GPRMC,195146.000,A,7018.0429,N,14935.9893,W,11.66,359.65,280910,,,A*4C
$GPRMC,195149.000,A,7018.0532,N,14935.9893,W,11.18,00.35,280910,,,A*7B
$GPRMC,195152.000,A,7018.0628,N,14935.9906,W,11.18,357.19,280910,,,A*4B
$GPRMC,195155.000,A,7018.0728,N,14935.9919,W,12.64,354.73,280910,,,A*44
$GPRMC,195158.000,A,7018.0834,N,14935.9944,W,12.64,356.48,280910,,,A*49
$GPRMC,195201.000,A,7018.0931,N,14935.9951,W,12.64,357.54,280910,,,A*4A
$GPRMC,195204.000,A,7018.1040,N,14935.9964,W,13.12,357.19,280910,,,A*4E
$GPRMC,195207.000,A,7018.1143,N,14936.0002,W,13.12,356.84,280910,,,A*49
$GPRMC,195210.000,A,7018.1249,N,14936.0028,W,12.15,355.78,280910,,,A*48
$GPRMC,195213.000,A,7018.1346,N,14936.0044,W,11.18,356.84,280910,,,A*41
$GPRMC,195216.000,A,7018.1436,N,14936.0041,W,10.21,00.35,280910,,,A*70
$GPRMC,195219.000,A,7018.1529,N,14936.0054,W,11.18,00.35,280910,,,A*7F
$GPRMC,195222.000,A,7018.1616,N,14936.0031,W,11.18,13.01,280910,,,A*7E
$GPRMC,195225.000,A,7018.1710,N,14935.9977,W,10.69,10.90,280910,,,A*73
$GPRMC,195228.000,A,7018.1800,N,14935.9906,W,10.69,18.28,280910,,,A*7D
$GPRMC,195231.000,A,7018.1887,N,14935.9819,W,10.69,18.98,280910,,,A*7E
$GPRMC,195234.000,A,7018.1970,N,14935.9713,W,11.66,18.63,280910,,,A*7D
$GPRMC,195237.000,A,7018.2054,N,14935.9590,W,11.18,23.20,280910,,,A*7D
$GPRMC,195240.000,A,7018.2141,N,14935.9468,W,11.18,29.53,280910,,,A*70
$GPRMC,195243.000,A,7018.2228,N,14935.9343,W,12.64,21.80,280910,,,A*7F
$GPRMC,195246.000,A,7018.2344,N,14935.9252,W,15.55,11.95,280910,,,A*72
$GPRMC,195249.000,A,7018.2498,N,14935.9240,W,20.41,02.81,280910,,,A*7C
$GPRMC,195252.000,A,7018.2685,N,14935.9230,W,23.81,357.89,280910,,,A*4B
$GPRMC,195255.000,A,7018.2878,N,14935.9285,W,23.33,350.16,280910,,,A*46
$GPRMC,195258.000,A,7018.3055,N,14935.9526,W,23.33,332.23,280910,,,A*41
$GPRMC,195301.000,A,7018.3226,N,14935.9877,W,25.29,324.14,280910,,,A*4D
$GPRMC,195304.000,A,7018.3306,N,14936.0485,W,23.83,298.12,280910,,,A*46
$GPRMC,195307.000,A,7018.3313,N,14936.1200,W,28.19,272.46,280910,,,A*46
$GPRMC,195310.000,A,7018.3322,N,14936.1901,W,29.65,270.35,280910,,,A*44
$GPRMC,195313.000,A,7018.3322,N,14936.2635,W,30.13,270.35,280910,,,A*45
$GPRMC,195316.000,A,7018.3329,N,14936.3350,W,29.16,271.76,280910,,,A*47
$GPRMC,195319.000,A,7018.3370,N,14936.4032,W,26.73,280.90,280910,,,A*4E
$GPRMC,195322.000,A,7018.3509,N,14936.4592,W,27.70,313.24,280910,,,A*47
$GPRMC,195325.000,A,7018.3708,N,14936.4959,W,28.19,330.12,280910,,,A*4C
$GPRMC,195328.000,A,7018.3943,N,14936.5023,W,29.16,351.91,280910,,,A*47
$GPRMC,195331.000,A,7018.4185,N,14936.5069,W,30.62,355.08,280910,,,A*4B
$GPRMC,195334.000,A,7018.4436,N,14936.5123,W,31.10,355.08,280910,,,A*48
$GPRMC,195337.000,A,7018.4700,N,14936.5194,W,31.59,355.08,280910,,,A*4C
$GPRMC,195340.000,A,7018.4964,N,14936.5262,W,32.56,354.73,280910,,,A*4B
$GPRMC,195343.000,A,7018.5237,N,14936.5329,W,33.53,355.08,280910,,,A*43
$GPRMC,195346.000,A,7018.5521,N,14936.5403,W,34.02,355.08,280910,,,A*4A
$GPRMC,195349.000,A,7018.5804,N,14936.5484,W,34.50,354.73,280910,,,A*4A
$GPRMC,195352.000,A,7018.6090,N,14936.5571,W,34.50,353.32,280910,,,A*4F
$GPRMC,195355.000,A,7018.6377,N,14936.5667,W,34.50,353.32,280910,,,A*46
$GPRMC,195358.000,A,7018.6666,N,14936.5780,W,35.48,352.62,280910,,,A*4A
$GPRMC,195401.000,A,7018.6959,N,14936.5925,W,35.48,351.21,280910,,,A*47
$GPRMC,195404.000,A,7018.7246,N,14936.6066,W,35.48,350.51,280910,,,A*4D
$GPRMC,195407.000,A,7018.7539,N,14936.6227,W,35.48,350.16,280910,,,A*45
$GPRMC,195410.000,A,7018.7828,N,14936.6404,W,35.96,349.80,280910,,,A*4D
$GPRMC,195413.000,A,7018.8115,N,14936.6562,W,35.48,350.51,280910,,,A*40
$GPRMC,195416.000,A,7018.8401,N,14936.6675,W,34.99,350.86,280910,,,A*47
$GPRMC,195419.000,A,7018.8694,N,14936.6710,W,35.48,353.67,280910,,,A*45
$GPRMC,195422.000,A,7018.8987,N,14936.6778,W,36.45,357.19,280910,,,A*4D
$GPRMC,195425.000,A,7018.9280,N,14936.6803,W,34.99,358.24,280910,,,A*46
$GPRMC,195428.000,A,7018.9570,N,14936.6829,W,34.99,357.89,280910,,,A*43
$GPRMC,195431.000,A,7018.9862,N,14936.6855,W,35.48,358.59,280910,,,A*41
$GPRMC,195434.000,A,7019.0152,N,14936.6868,W,35.48,358.95,280910,,,A*48
$GPRMC,195437.000,A,7019.0445,N,14936.6897,W,34.50,357.54,280910,,,A*42
$GPRMC,195440.000,A,7019.0728,N,14936.6942,W,34.52,355.43,280910,,,A*45
$GPRMC,195443.000,A,7019.1015,N,14936.7042,W,34.50,352.62,280910,,,A*40
$GPRMC,195446.000,A,7019.1304,N,14936.7154,W,34.99,351.91,280910,,,A*4A
$GPRMC,195449.000,A,7019.1581,N,14936.7267,W,34.02,351.56,280910,,,A*44
$GPRMC,195452.000,A,7019.1845,N,14936.7408,W,32.07,350.86,280910,,,A*4B
$GPRMC,195455.000,A,7019.2109,N,14936.7531,W,32.07,351.56,280910,,,A*49
$GPRMC,195458.000,A,7019.2367,N,14936.7634,W,30.62,351.21,280910,,,A*49
$GPRMC,195501.000,A,7019.2621,N,14936.7727,W,31.10,353.32,280910,,,A*44
$GPRMC,195504.000,A,7019.2878,N,14936.7824,W,30.13,352.62,280910,,,A*49
$GPRMC,195507.000,A,7019.3097,N,14936.7920,W,26.24,351.91,280910,,,A*4B
$GPRMC,195510.000,A,7019.3274,N,14936.8049,W,19.44,338.55,280910,,,A*46
$GPRMC,195513.000,A,7019.3397,N,14936.8303,W,18.95,312.54,280910,,,A*40
$GPRMC,195516.000,A,7019.3471,N,14936.8767,W,20.41,286.52,280910,,,A*44
$GPRMC,195519.000,A,7019.3496,N,14936.9262,W,16.52,274.57,280910,,,A*4C
$GPRMC,195522.000,A,7019.3512,N,14936.9581,W,10.74,284.41,280910,,,A*49
$GPRMC,195528.000,A,7019.3545,N,14936.9810,W,8.26,295.66,280910,,,A*7F
$GPRMC,195531.000,A,7019.3596,N,14936.9987,W,11.66,318.16,280910,,,A*49
$GPRMC,195534.000,A,7019.3699,N,14937.0157,W,18.49,335.04,280910,,,A*45
$GPRMC,195537.000,A,7019.3860,N,14937.0376,W,23.33,335.74,280910,,,A*4D
$GPRMC,195540.000,A,7019.4060,N,14937.0659,W,27.70,335.04,280910,,,A*4E
$GPRMC,195543.000,A,7019.4275,N,14937.0959,W,29.16,336.80,280910,,,A*45
$GPRMC,195546.000,A,7019.4494,N,14937.1239,W,28.67,335.74,280910,,,A*4A
$GPRMC,195549.000,A,7019.4707,N,14937.1532,W,28.20,333.63,280910,,,A*43
$GPRMC,195552.000,A,7019.4919,N,14937.1841,W,27.70,332.58,280910,,,A*42
$GPRMC,195555.000,A,7019.5115,N,14937.2146,W,26.24,332.93,280910,,,A*4A
$GPRMC,195558.000,A,7019.5312,N,14937.2426,W,25.76,335.74,280910,,,A*4B
$GPRMC,195601.000,A,7019.5502,N,14937.2652,W,24.30,338.20,280910,,,A*4D
$GPRMC,195604.000,A,7019.5685,N,14937.2835,W,22.84,340.66,280910,,,A*4F
$GPRMC,195607.000,A,7019.5843,N,14937.2996,W,18.95,342.42,280910,,,A*4D
$GPRMC,195610.000,A,7019.5981,N,14937.2977,W,17.01,353.32,280910,,,A*4E
$GPRMC,195613.000,A,7019.6084,N,14937.2945,W,12.19,03.52,280910,,,A*7F
$GPRMC,195628.000,A,7019.6213,N,14937.2983,W,6.39,321.68,280910,,,A*7C
$GPRMC,195652.000,A,7019.6242,N,14937.2980,W,4.37,32.34,280910,,,A*42
$GPRMC,195655.000,A,7019.6258,N,14937.2838,W,6.80,73.48,280910,,,A*4C
$GPRMC,195658.000,A,7019.6268,N,14937.2574,W,10.69,84.02,280910,,,A*71
$GPRMC,195701.000,A,7019.6274,N,14937.2133,W,18.47,90.35,280910,,,A*73
$GPRMC,195704.000,A,7019.6280,N,14937.1628,W,20.90,90.00,280910,,,A*74
$GPRMC,195707.000,A,7019.6284,N,14937.1116,W,19.44,89.65,280910,,,A*71
$GPRMC,195710.000,A,7019.6287,N,14937.0669,W,17.50,91.05,280910,,,A*7E
$GPRMC,195713.000,A,7019.6287,N,14937.0263,W,16.04,92.11,280910,,,A*75
$GPRMC,195716.000,A,7019.6293,N,14936.9925,W,14.09,91.05,280910,,,A*7D
$GPRMC,195719.000,A,7019.6297,N,14936.9629,W,12.64,92.11,280910,,,A*7E
$GPRMC,195722.000,A,7019.6271,N,14936.9314,W,11.66,89.65,280910,,,A*7D
$GPRMC,195725.000,A,7019.6258,N,14936.9011,W,11.66,89.30,280910,,,A*77
$GPRMC,195728.000,A,7019.6264,N,14936.8706,W,12.15,88.59,280910,,,A*7C
$GPRMC,195731.000,A,7019.6261,N,14936.8358,W,13.61,90.35,280910,,,A*7F
$GPRMC,195734.000,A,7019.6268,N,14936.8049,W,12.64,89.65,280910,,,A*79
$GPRMC,195737.000,A,7019.6277,N,14936.7724,W,13.61,89.30,280910,,,A*73
$GPRMC,195740.000,A,7019.6277,N,14936.7380,W,14.09,90.70,280910,,,A*7C
$GPRMC,195743.000,A,7019.6277,N,14936.7003,W,15.07,90.00,280910,,,A*7F
$GPRMC,195746.000,A,7019.6287,N,14936.6613,W,16.04,90.00,280910,,,A*73
$GPRMC,195749.000,A,7019.6300,N,14936.6208,W,17.50,90.70,280910,,,A*7B
$GPRMC,195752.000,A,7019.6303,N,14936.5767,W,18.47,91.05,280910,,,A*77
$GPRMC,195755.000,A,7019.6297,N,14936.5291,W,19.44,90.70,280910,,,A*71
$GPRMC,195758.000,A,7019.6284,N,14936.4789,W,19.93,92.46,280910,,,A*7E
$GPRMC,195801.000,A,7019.6277,N,14936.4228,W,21.87,91.41,280910,,,A*75
$GPRMC,195804.000,A,7019.6274,N,14936.3707,W,22.36,90.70,280910,,,A*76
$GPRMC,195807.000,A,7019.6280,N,14936.3163,W,22.84,90.35,280910,,,A*72
$GPRMC,195810.000,A,7019.6264,N,14936.2552,W,22.84,92.11,280910,,,A*7D
$GPRMC,195813.000,A,7019.6258,N,14936.1998,W,22.36,91.76,280910,,,A*73
$GPRMC,195816.000,A,7019.6264,N,14936.1470,W,21.87,90.35,280910,,,A*7D
$GPRMC,195819.000,A,7019.6261,N,14936.0929,W,21.87,90.70,280910,,,A*76
$GPRMC,195822.000,A,7019.6271,N,14936.0479,W,18.47,88.95,280910,,,A*73
$GPRMC,195825.000,A,7019.6274,N,14936.0138,W,11.66,92.81,280910,,,A*75
$GPRMC,195828.000,A,7019.6280,N,14935.9870,W,12.64,85.08,280910,,,A*7A
$GPRMC,195831.000,A,7019.6293,N,14935.9536,W,15.07,80.86,280910,,,A*7E
$GPRMC,195834.000,A,7019.6293,N,14935.9091,W,18.47,90.00,280910,,,A*75
$GPRMC,195837.000,A,7019.6255,N,14935.8560,W,20.92,100.20,280910,,,A*4F
$GPRMC,195840.000,A,7019.6213,N,14935.8045,W,20.99,100.20,280910,,,A*44
$GPRMC,195843.000,A,7019.6165,N,14935.7556,W,22.84,107.93,280910,,,A*4C
$GPRMC,195846.000,A,7019.6097,N,14935.7022,W,24.30,111.80,280910,,,A*4F
$GPRMC,195849.000,A,7019.6020,N,14935.6475,W,24.79,111.80,280910,,,A*46
$GPRMC,195852.000,A,7019.5939,N,14935.5921,W,24.30,111.80,280910,,,A*4C
$GPRMC,195855.000,A,7019.5868,N,14935.5416,W,19.44,111.45,280910,,,A*43
$GPRMC,195858.000,A,7019.5820,N,14935.5071,W,9.72,110.39,280910,,,A*79
$GPRMC,195904.000,A,7019.5791,N,14935.4875,W,7.29,108.98,280910,,,A*7B
$GPRMC,195907.000,A,7019.5769,N,14935.4627,W,12.15,98.79,280910,,,A*7A
$GPRMC,195910.000,A,7019.5769,N,14935.4273,W,16.04,83.67,280910,,,A*78
$GPRMC,195913.000,A,7019.5788,N,14935.3832,W,19.44,77.34,280910,,,A*7A
$GPRMC,195916.000,A,7019.5827,N,14935.3311,W,23.83,75.59,280910,,,A*74
$GPRMC,195919.000,A,7019.5875,N,14935.2722,W,25.27,76.29,280910,,,A*75
$GPRMC,195922.000,A,7019.5920,N,14935.2091,W,26.73,76.99,280910,,,A*7A
$GPRMC,195925.000,A,7019.5962,N,14935.1360,W,29.16,77.70,280910,,,A*7F
$GPRMC,195928.000,A,7019.6013,N,14935.0652,W,30.13,78.40,280910,,,A*7A
$GPRMC,195931.000,A,7019.6055,N,14934.9918,W,30.13,80.51,280910,,,A*7E
$GPRMC,195934.000,A,7019.6091,N,14934.9172,W,31.10,84.73,280910,,,A*71
$GPRMC,195937.000,A,7019.6110,N,14934.8396,W,31.10,87.19,280910,,,A*7C
$GPRMC,195940.000,A,7019.6123,N,14934.7633,W,31.10,89.65,280910,,,A*7C
$GPRMC,195943.000,A,7019.6126,N,14934.6861,W,31.59,93.16,280910,,,A*70
$GPRMC,195946.000,A,7019.6120,N,14934.6091,W,31.10,92.46,280910,,,A*7D
$GPRMC,195949.000,A,7019.6110,N,14934.5325,W,30.62,92.46,280910,,,A*7A
$GPRMC,195952.000,A,7019.6107,N,14934.4575,W,30.62,92.11,280910,,,A*76
$GPRMC,195955.000,A,7019.6087,N,14934.3796,W,31.10,93.16,280910,,,A*72
$GPRMC,195958.000,A,7019.6078,N,14934.3027,W,31.10,92.46,280910,,,A*76
$GPRMC,200001.000,A,7019.6071,N,14934.2306,W,28.19,92.81,280910,,,A*7E
$GPRMC,200004.000,A,7019.6071,N,14934.1749,W,21.38,92.81,280910,,,A*7D
$GPRMC,200007.000,A,7019.6052,N,14934.1260,W,18.95,90.70,280910,,,A*70
$GPRMC,200010.000,A,7019.6052,N,14934.0790,W,19.44,91.76,280910,,,A*77
$GPRMC,200013.000,A,7019.6046,N,14934.0311,W,20.41,92.81,280910,,,A*78
$GPRMC,200016.000,A,7019.6036,N,14933.9799,W,21.87,92.81,280910,,,A*7B
$GPRMC,200019.000,A,7019.6029,N,14933.9200,W,25.27,92.46,280910,,,A*7A
$GPRMC,200022.000,A,7019.6017,N,14933.8531,W,28.19,92.81,280910,,,A*70
$GPRMC,200025.000,A,7019.5997,N,14933.7771,W,30.13,92.11,280910,,,A*76
$GPRMC,200028.000,A,7019.5994,N,14933.6999,W,31.10,92.11,280910,,,A*73
$GPRMC,200031.000,A,7019.5984,N,14933.6213,W,32.07,92.81,280910,,,A*7F
$GPRMC,200034.000,A,7019.5968,N,14933.5405,W,33.05,92.81,280910,,,A*79
$GPRMC,200037.000,A,7019.5955,N,14933.4591,W,33.05,92.46,280910,,,A*72
$GPRMC,200040.000,A,7019.5939,N,14933.3757,W,33.53,92.81,280910,,,A*7F
$GPRMC,200043.000,A,7019.5920,N,14933.2924,W,33.53,93.16,280910,,,A*70
$GPRMC,200046.000,A,7019.5920,N,14933.2122,W,33.53,92.11,280910,,,A*7D
$GPRMC,200049.000,A,7019.5901,N,14933.1279,W,34.02,92.81,280910,,,A*75
$GPRMC,200052.000,A,7019.5881,N,14933.0452,W,34.02,93.52,280910,,,A*77
$GPRMC,200055.000,A,7019.5868,N,14932.9615,W,34.02,92.81,280910,,,A*71
$GPRMC,200058.000,A,7019.5846,N,14932.8801,W,34.02,93.52,280910,,,A*75
$GPRMC,200101.000,A,7019.5823,N,14932.7948,W,34.02,93.52,280910,,,A*78
$GPRMC,200104.000,A,7019.5775,N,14932.7117,W,34.02,95.27,280910,,,A*77
$GPRMC,200107.000,A,7019.5765,N,14932.6268,W,34.50,93.52,280910,,,A*7C
$GPRMC,200110.000,A,7019.5727,N,14932.5412,W,34.99,95.27,280910,,,A*75
$GPRMC,200113.000,A,7019.5691,N,14932.4539,W,34.99,98.44,280910,,,A*7B
$GPRMC,200116.000,A,7019.5662,N,14932.3680,W,34.99,99.49,280910,,,A*78
$GPRMC,200119.000,A,7019.5614,N,14932.2840,W,34.50,99.49,280910,,,A*70
$GPRMC,200122.000,A,7019.5560,N,14932.2003,W,35.00,99.49,280910,,,A*73
$GPRMC,200125.000,A,7019.5508,N,14932.1150,W,35.48,99.14,280910,,,A*7A
$GPRMC,200128.000,A,7019.5466,N,14932.0281,W,35.96,99.49,280910,,,A*7B
$GPRMC,200131.000,A,7019.5415,N,14931.9406,W,34.99,99.49,280910,,,A*7A
$GPRMC,200134.000,A,7019.5363,N,14931.8546,W,35.48,99.49,280910,,,A*70
$GPRMC,200137.000,A,7019.5315,N,14931.7684,W,35.48,99.49,280910,,,A*70
$GPRMC,200140.000,A,7019.5267,N,14931.6818,W,35.48,100.20,280910,,,A*40
$GPRMC,200143.000,A,7019.5218,N,14931.5962,W,34.99,99.49,280910,,,A*77
$GPRMC,200146.000,A,7019.5167,N,14931.5105,W,34.99,99.14,280910,,,A*78
$GPRMC,200149.000,A,7019.5115,N,14931.4256,W,34.99,99.49,280910,,,A*7E
$GPRMC,200152.000,A,7019.5067,N,14931.3412,W,34.52,98.09,280910,,,A*73
$GPRMC,200155.000,A,7019.5025,N,14931.2576,W,34.50,99.14,280910,,,A*7F
$GPRMC,200158.000,A,7019.4974,N,14931.1732,W,34.99,101.60,280910,,,A*49
$GPRMC,200201.000,A,7019.4906,N,14931.0902,W,34.50,103.71,280910,,,A*48
$GPRMC,200204.000,A,7019.4835,N,14931.0097,W,33.53,103.71,280910,,,A*4D
$GPRMC,200207.000,A,7019.4768,N,14930.9341,W,30.13,103.71,280910,,,A*4E
$GPRMC,200210.000,A,7019.4716,N,14930.8687,W,24.30,102.66,280910,,,A*4C
$GPRMC,200213.000,A,7019.4678,N,14930.8143,W,20.90,101.25,280910,,,A*43
$GPRMC,200216.000,A,7019.4645,N,14930.7738,W,15.55,104.06,280910,,,A*46
$GPRMC,200219.000,A,7019.4616,N,14930.7416,W,11.66,106.17,280910,,,A*46
$GPRMC,200222.000,A,7019.4597,N,14930.7188,W,8.75,101.60,280910,,,A*7B
$GPRMC,200228.000,A,7019.4575,N,14930.6982,W,4.86,104.77,280910,,,A*7D
$GPRMC,200231.000,A,7019.4552,N,14930.6805,W,9.72,104.41,280910,,,A*7D
$GPRMC,200234.000,A,7019.4539,N,14930.6592,W,7.78,101.25,280910,,,A*75
$GPRMC,200443.000,A,7019.4507,N,14930.6254,W,5.83,100.20,280910,,,A*71
$GPRMC,200446.000,A,7019.4478,N,14930.5958,W,10.21,104.41,280910,,,A*46
$GPRMC,200449.000,A,7019.4433,N,14930.5485,W,18.95,104.41,280910,,,A*4C
$GPRMC,200452.000,A,7019.4394,N,14930.4980,W,22.36,103.71,280910,,,A*41
$GPRMC,200455.000,A,7019.4349,N,14930.4407,W,25.76,103.36,280910,,,A*44
$GPRMC,200458.000,A,7019.4295,N,14930.3750,W,27.70,104.77,280910,,,A*49
$GPRMC,200501.000,A,7019.4227,N,14930.3093,W,28.19,108.28,280910,,,A*43
$GPRMC,200504.000,A,7019.4127,N,14930.2437,W,28.67,116.37,280910,,,A*46
$GPRMC,200507.000,A,7019.4021,N,14930.1838,W,27.22,117.77,280910,,,A*49
$GPRMC,200510.000,A,7019.3873,N,14930.1285,W,27.70,127.62,280910,,,A*4B
$GPRMC,200513.000,A,7019.3699,N,14930.0750,W,29.16,135.70,280910,,,A*40
$GPRMC,200516.000,A,7019.3506,N,14930.0261,W,28.67,139.57,280910,,,A*49
$GPRMC,200519.000,A,7019.3323,N,14929.9801,W,28.67,138.87,280910,,,A*46
$GPRMC,200522.000,A,7019.3139,N,14929.9321,W,29.16,137.81,280910,,,A*40
$GPRMC,200525.000,A,7019.2975,N,14929.8784,W,29.65,131.84,280910,,,A*4B
$GPRMC,200528.000,A,7019.2830,N,14929.8204,W,29.65,124.10,280910,,,A*42
$GPRMC,200531.000,A,7019.2698,N,14929.7590,W,29.65,123.05,280910,,,A*40
$GPRMC,200534.000,A,7019.2573,N,14929.6975,W,29.65,122.70,280910,,,A*46
$GPRMC,200537.000,A,7019.2437,N,14929.6370,W,29.16,122.70,280910,,,A*4F
$GPRMC,200540.000,A,7019.2318,N,14929.5781,W,28.67,121.99,280910,,,A*4F
$GPRMC,200543.000,A,7019.2183,N,14929.5179,W,28.67,122.34,280910,,,A*49
$GPRMC,200546.000,A,7019.2061,N,14929.4574,W,28.19,122.34,280910,,,A*40
$GPRMC,200549.000,A,7019.1939,N,14929.3972,W,28.67,121.99,280910,,,A*48
$GPRMC,200552.000,A,7019.1823,N,14929.3338,W,29.16,116.02,280910,,,A*4D
$GPRMC,200555.000,A,7019.1729,N,14929.2665,W,30.13,109.69,280910,,,A*4D
$GPRMC,200558.000,A,7019.1658,N,14929.1938,W,31.59,100.55,280910,,,A*4A
$GPRMC,200601.000,A,7019.1623,N,14929.1159,W,32.07,95.27,280910,,,A*76
$GPRMC,200604.000,A,7019.1639,N,14929.0354,W,33.05,85.78,280910,,,A*7E
$GPRMC,200607.000,A,7019.1671,N,14928.9562,W,33.05,81.21,280910,,,A*72
$GPRMC,200610.000,A,7019.1710,N,14928.8735,W,33.05,81.56,280910,,,A*73
$GPRMC,200613.000,A,7019.1752,N,14928.7937,W,33.53,80.86,280910,,,A*7A
$GPRMC,200616.000,A,7019.1794,N,14928.7119,W,34.02,81.91,280910,,,A*75
$GPRMC,200619.000,A,7019.1839,N,14928.6295,W,34.02,80.86,280910,,,A*73
$GPRMC,200622.000,A,7019.1881,N,14928.5462,W,34.50,81.21,280910,,,A*7E
$GPRMC,200625.000,A,7019.1926,N,14928.4615,W,34.50,81.56,280910,,,A*76
$GPRMC,200628.000,A,7019.1961,N,14928.3788,W,33.53,82.62,280910,,,A*7A
$GPRMC,200631.000,A,7019.1993,N,14928.2961,W,33.53,85.78,280910,,,A*7B
$GPRMC,200634.000,A,7019.1964,N,14928.2114,W,34.50,97.73,280910,,,A*70
$GPRMC,200637.000,A,7019.1919,N,14928.1258,W,35.48,99.14,280910,,,A*76
$GPRMC,200640.000,A,7019.1871,N,14928.0395,W,35.48,99.49,280910,,,A*70
$GPRMC,200643.000,A,7019.1823,N,14927.9533,W,35.96,99.84,280910,,,A*7A
$GPRMC,200646.000,A,7019.1771,N,14927.8654,W,35.96,99.84,280910,,,A*74
$GPRMC,200649.000,A,7019.1720,N,14927.7792,W,35.00,100.90,280910,,,A*40
$GPRMC,200652.000,A,7019.1649,N,14927.6964,W,34.50,105.82,280910,,,A*40
$GPRMC,200655.000,A,7019.1559,N,14927.6176,W,34.02,108.28,280910,,,A*44
$GPRMC,200658.000,A,7019.1459,N,14927.5416,W,33.53,110.39,280910,,,A*42
$GPRMC,200701.000,A,7019.1362,N,14927.4602,W,34.02,108.98,280910,,,A*47
$GPRMC,200704.000,A,7019.1272,N,14927.3807,W,33.53,108.98,280910,,,A*4D
$GPRMC,200707.000,A,7019.1179,N,14927.3041,W,33.53,108.63,280910,,,A*48
$GPRMC,200710.000,A,7019.1089,N,14927.2249,W,33.53,108.98,280910,,,A*4F
$GPRMC,200713.000,A,7019.0999,N,14927.1477,W,33.53,109.34,280910,,,A*4A
$GPRMC,200716.000,A,7019.0912,N,14927.0694,W,34.50,108.63,280910,,,A*45
$GPRMC,200719.000,A,7019.0818,N,14926.9877,W,34.99,109.34,280910,,,A*4C
$GPRMC,200722.000,A,7019.0722,N,14926.9059,W,35.48,109.34,280910,,,A*4B
$GPRMC,200725.000,A,7019.0619,N,14926.8235,W,35.96,110.39,280910,,,A*4A
$GPRMC,200728.000,A,7019.0506,N,14926.7411,W,36.45,115.31,280910,,,A*45
$GPRMC,200731.000,A,7019.0374,N,14926.6604,W,36.45,117.07,280910,,,A*4E
$GPRMC,200734.000,A,7019.0236,N,14926.5812,W,36.45,117.07,280910,,,A*46
$GPRMC,200737.000,A,7019.0104,N,14926.5023,W,35.96,116.72,280910,,,A*43
$GPRMC,200740.000,A,7018.9969,N,14926.4228,W,35.96,117.07,280910,,,A*43
$GPRMC,200743.000,A,7018.9830,N,14926.3453,W,35.48,117.42,280910,,,A*42
$GPRMC,200746.000,A,7018.9705,N,14926.2674,W,35.48,116.37,280910,,,A*4B
$GPRMC,200749.000,A,7018.9573,N,14926.1898,W,35.96,116.37,280910,,,A*4B
$GPRMC,200752.000,A,7018.9438,N,14926.1116,W,35.48,116.72,280910,,,A*42
$GPRMC,200755.000,A,7018.9312,N,14926.0343,W,34.50,117.07,280910,,,A*42
$GPRMC,200758.000,A,7018.9180,N,14925.9587,W,33.53,117.07,280910,,,A*46
$GPRMC,200801.000,A,7018.9074,N,14925.8927,W,30.13,114.96,280910,,,A*44
$GPRMC,200804.000,A,7018.8987,N,14925.8274,W,26.73,108.63,280910,,,A*4E
$GPRMC,200807.000,A,7018.8926,N,14925.7704,W,20.41,103.71,280910,,,A*44
$GPRMC,200810.000,A,7018.8894,N,14925.7298,W,13.61,103.36,280910,,,A*4B
$GPRMC,200813.000,A,7018.8871,N,14925.7057,W,7.29,103.36,280910,,,A*7B
$GPRMC,200922.000,A,7018.8749,N,14925.6594,W,4.37,105.12,280910,,,A*7B
$GPRMC,200925.000,A,7018.8746,N,14925.6436,W,7.54,76.99,280910,,,A*4A
$GPRMC,200928.000,A,7018.8784,N,14925.6130,W,12.64,68.20,280910,,,A*70
$GPRMC,200931.000,A,7018.8855,N,14925.5554,W,24.30,70.66,280910,,,A*71
$GPRMC,200934.000,A,7018.8923,N,14925.4946,W,27.22,71.37,280910,,,A*7F
$GPRMC,200937.000,A,7018.9000,N,14925.4283,W,29.65,71.02,280910,,,A*7C
$GPRMC,200940.000,A,7018.9084,N,14925.3568,W,31.10,70.66,280910,,,A*7D
$GPRMC,200943.000,A,7018.9177,N,14925.2815,W,32.56,70.31,280910,,,A*76
$GPRMC,200946.000,A,7018.9270,N,14925.2046,W,33.53,69.96,280910,,,A*78
$GPRMC,200949.000,A,7018.9367,N,14925.1263,W,34.02,68.55,280910,,,A*7B
$GPRMC,200952.000,A,7018.9496,N,14925.0504,W,34.99,61.52,280910,,,A*73
$GPRMC,200955.000,A,7018.9647,N,14924.9783,W,34.50,54.49,280910,,,A*76
$GPRMC,200958.000,A,7018.9830,N,14924.9123,W,34.50,46.76,280910,,,A*76
$GPRMC,201001.000,A,7019.0036,N,14924.8544,W,34.50,40.43,280910,,,A*70
$GPRMC,201004.000,A,7019.0262,N,14924.8026,W,34.50,35.51,280910,,,A*76
$GPRMC,201007.000,A,7019.0493,N,14924.7568,W,32.56,32.70,280910,,,A*79
$GPRMC,201010.000,A,7019.0767,N,14924.7192,W,34.02,26.37,280910,,,A*77
$GPRMC,201013.000,A,7019.1031,N,14924.6819,W,34.02,24.96,280910,,,A*73
$GPRMC,201016.000,A,7019.1282,N,14924.6468,W,33.05,24.61,280910,,,A*7E
$GPRMC,201019.000,A,7019.1523,N,14924.6130,W,31.59,24.61,280910,,,A*7E
$GPRMC,201022.000,A,7019.1752,N,14924.5798,W,30.62,24.96,280910,,,A*74
$GPRMC,201025.000,A,7019.1967,N,14924.5470,W,29.65,25.31,280910,,,A*7D
$GPRMC,201028.000,A,7019.2170,N,14924.5151,W,29.16,26.02,280910,,,A*7C
$GPRMC,201031.000,A,7019.2376,N,14924.4817,W,27.22,28.48,280910,,,A*73
$GPRMC,201034.000,A,7019.2563,N,14924.4511,W,26.24,28.12,280910,,,A*77
$GPRMC,201037.000,A,7019.2737,N,14924.4228,W,22.38,39.38,280910,,,A*7B
$GPRMC,201040.000,A,7019.2859,N,14924.3899,W,18.95,43.95,280910,,,A*7F
$GPRMC,201043.000,A,7019.2943,N,14924.3600,W,14.58,52.73,280910,,,A*7D
$GPRMC,201046.000,A,7019.3007,N,14924.3355,W,11.70,52.73,280910,,,A*7A
$GPRMC,201049.000,A,7019.3059,N,14924.3140,W,10.21,57.66,280910,,,A*7C
$GPRMC,201052.000,A,7019.3100,N,14924.2950,W,8.75,57.30,280910,,,A*48
$GPRMC,201055.000,A,7019.3139,N,14924.2776,W,8.26,57.66,280910,,,A*4A
$GPRMC,201058.000,A,7019.3178,N,14924.2518,W,13.61,62.58,280910,,,A*7A
$GPRMC,201101.000,A,7019.3232,N,14924.2168,W,17.50,67.15,280910,,,A*73
$GPRMC,201104.000,A,7019.3284,N,14924.1723,W,20.90,73.12,280910,,,A*7B
$GPRMC,201107.000,A,7019.3332,N,14924.1189,W,23.81,76.29,280910,,,A*7C
$GPRMC,201110.000,A,7019.3361,N,14924.0545,W,27.22,82.97,280910,,,A*7A
$GPRMC,201113.000,A,7019.3377,N,14923.9857,W,28.67,87.54,280910,,,A*7A
$GPRMC,201116.000,A,7019.3345,N,14923.9103,W,30.62,98.09,280910,,,A*7C
$GPRMC,201119.000,A,7019.3294,N,14923.8379,W,31.10,105.47,280910,,,A*4B
$GPRMC,201122.000,A,7019.3200,N,14923.7636,W,34.02,114.61,280910,,,A*4D
$GPRMC,201125.000,A,7019.3055,N,14923.6854,W,37.91,120.59,280910,,,A*46
$GPRMC,201128.000,A,7019.2901,N,14923.5994,W,39.85,116.72,280910,,,A*4B
$GPRMC,201131.000,A,7019.2801,N,14923.5000,W,40.83,103.71,280910,,,A*49
$GPRMC,201134.000,A,7019.2727,N,14923.4021,W,40.83,102.30,280910,,,A*41
$GPRMC,201137.000,A,7019.2656,N,14923.3059,W,39.85,101.95,280910,,,A*49
$GPRMC,201140.000,A,7019.2589,N,14923.2113,W,39.36,102.30,280910,,,A*42
$GPRMC,201143.000,A,7019.2521,N,14923.1173,W,37.91,101.95,280910,,,A*49
$GPRMC,201146.000,A,7019.2450,N,14923.0275,W,36.93,102.30,280910,,,A*40
$GPRMC,201149.000,A,7019.2386,N,14922.9386,W,36.93,103.01,280910,,,A*45
$GPRMC,201152.000,A,7019.2322,N,14922.8501,W,36.45,102.30,280910,,,A*41
$GPRMC,201155.000,A,7019.2260,N,14922.7629,W,35.96,101.95,280910,,,A*46
$GPRMC,201158.000,A,7019.2196,N,14922.6757,W,35.96,101.95,280910,,,A*48
$GPRMC,201201.000,A,7019.2145,N,14922.5904,W,35.96,101.95,280910,,,A*42
$GPRMC,201204.000,A,7019.2083,N,14922.5022,W,36.46,99.84,280910,,,A*7F
$GPRMC,201207.000,A,7019.2045,N,14922.4140,W,36.46,95.62,280910,,,A*76
$GPRMC,201210.000,A,7019.2022,N,14922.3232,W,36.93,93.16,280910,,,A*7D
$GPRMC,201213.000,A,7019.2019,N,14922.2302,W,37.91,90.00,280910,,,A*72
$GPRMC,201216.000,A,7019.2042,N,14922.1378,W,38.39,85.78,280910,,,A*71
$GPRMC,201219.000,A,7019.2074,N,14922.0451,W,38.39,84.02,280910,,,A*7A
$GPRMC,201222.000,A,7019.2106,N,14921.9515,W,38.39,84.02,280910,,,A*7D
$GPRMC,201225.000,A,7019.2151,N,14921.8585,W,38.39,83.67,280910,,,A*74
$GPRMC,201228.000,A,7019.2170,N,14921.7619,W,38.88,83.32,280910,,,A*79
$GPRMC,201231.000,A,7019.2206,N,14921.6673,W,38.88,83.67,280910,,,A*7E
$GPRMC,201234.000,A,7019.2244,N,14921.5707,W,39.36,84.38,280910,,,A*75
$GPRMC,201237.000,A,7019.2283,N,14921.4732,W,39.36,83.67,280910,,,A*77
$GPRMC,201240.000,A,7019.2318,N,14921.3750,W,39.85,84.38,280910,,,A*72
$GPRMC,201243.000,A,7019.2354,N,14921.2778,W,39.36,83.32,280910,,,A*77
$GPRMC,201246.000,A,7019.2396,N,14921.1819,W,38.88,83.67,280910,,,A*73
$GPRMC,201249.000,A,7019.2431,N,14921.0860,W,38.88,83.67,280910,,,A*79
$GPRMC,201252.000,A,7019.2466,N,14920.9907,W,38.39,84.38,280910,,,A*7E
$GPRMC,201255.000,A,7019.2502,N,14920.8964,W,37.91,83.32,280910,,,A*7E
$GPRMC,201258.000,A,7019.2534,N,14920.8043,W,37.42,83.32,280910,,,A*74
$GPRMC,201301.000,A,7019.2566,N,14920.7133,W,37.42,84.02,280910,,,A*73
$GPRMC,201304.000,A,7019.2602,N,14920.6209,W,37.91,83.32,280910,,,A*76
$GPRMC,201307.000,A,7019.2637,N,14920.5272,W,37.42,84.02,280910,,,A*76
$GPRMC,201310.000,A,7019.2663,N,14920.4342,W,37.91,84.02,280910,,,A*7C
$GPRMC,201313.000,A,7019.2701,N,14920.3425,W,37.91,84.38,280910,,,A*72
$GPRMC,201316.000,A,7019.2734,N,14920.2504,W,37.91,85.43,280910,,,A*7F
$GPRMC,201319.000,A,7019.2762,N,14920.1571,W,36.93,84.02,280910,,,A*75
$GPRMC,201324.000,A,7019.2833,N,14920.0080,W,37.42,84.02,280910,,,A*77
$GPRMC,201327.000,A,7019.2869,N,14919.9157,W,37.91,83.32,280910,,,A*79
$GPRMC,201330.000,A,7019.2904,N,14919.8227,W,37.91,83.67,280910,,,A*70
$GPRMC,201333.000,A,7019.2940,N,14919.7296,W,38.39,83.67,280910,,,A*7B
$GPRMC,201336.000,A,7019.2981,N,14919.6357,W,37.91,83.67,280910,,,A*73
$GPRMC,201339.000,A,7019.3007,N,14919.5404,W,38.39,85.43,280910,,,A*75
$GPRMC,201342.000,A,7019.3023,N,14919.4451,W,39.36,88.59,280910,,,A*76
$GPRMC,201345.000,A,7019.3007,N,14919.3482,W,38.88,94.57,280910,,,A*79
$GPRMC,201348.000,A,7019.2959,N,14919.2526,W,38.89,100.90,280910,,,A*4F
$GPRMC,201351.000,A,7019.2875,N,14919.1567,W,40.34,106.88,280910,,,A*48
$GPRMC,201354.000,A,7019.2759,N,14919.0640,W,39.86,113.20,280910,,,A*4A
$GPRMC,201357.000,A,7019.2602,N,14918.9755,W,41.79,118.48,280910,,,A*41
$GPRMC,201400.000,A,7019.2441,N,14918.8867,W,40.82,118.12,280910,,,A*44
$GPRMC,201403.000,A,7019.2276,N,14918.7988,W,40.82,119.18,280910,,,A*41
$GPRMC,201406.000,A,7019.2116,N,14918.7113,W,40.34,119.53,280910,,,A*49
$GPRMC,201409.000,A,7019.1942,N,14918.6263,W,39.85,120.23,280910,,,A*40
$GPRMC,201412.000,A,7019.1771,N,14918.5416,W,39.85,121.29,280910,,,A*48
$GPRMC,201415.000,A,7019.1594,N,14918.4586,W,39.85,121.99,280910,,,A*44
$GPRMC,201418.000,A,7019.1456,N,14918.3801,W,38.39,120.23,280910,,,A*45
$GPRMC,201421.000,A,7019.1285,N,14918.2967,W,39.36,120.59,280910,,,A*44
$GPRMC,201424.000,A,7019.1131,N,14918.2133,W,38.88,118.83,280910,,,A*4C
$GPRMC,201427.000,A,7019.0999,N,14918.1303,W,38.88,117.07,280910,,,A*45
$GPRMC,201430.000,A,7019.0863,N,14918.0408,W,39.85,112.50,280910,,,A*41
$GPRMC,201433.000,A,7019.0770,N,14917.9462,W,40.34,105.82,280910,,,A*48
$GPRMC,201436.000,A,7019.0686,N,14917.8483,W,41.31,101.25,280910,,,A*46
$GPRMC,201439.000,A,7019.0629,N,14917.7479,W,40.82,99.14,280910,,,A*7D
$GPRMC,201442.000,A,7019.0583,N,14917.6488,W,40.82,98.79,280910,,,A*77
$GPRMC,201445.000,A,7019.0532,N,14917.5509,W,40.34,99.14,280910,,,A*76
$GPRMC,201448.000,A,7019.0487,N,14917.4528,W,39.86,99.49,280910,,,A*79
$GPRMC,201451.000,A,7019.0442,N,14917.3546,W,38.88,98.79,280910,,,A*7A
$GPRMC,201454.000,A,7019.0394,N,14917.2603,W,39.36,97.73,280910,,,A*71
$GPRMC,201457.000,A,7019.0361,N,14917.1660,W,38.88,93.16,280910,,,A*7D
$GPRMC,201500.000,A,7019.0352,N,14917.0691,W,39.36,89.30,280910,,,A*7A
$GPRMC,201503.000,A,7019.0394,N,14916.9722,W,40.34,81.21,280910,,,A*76
$GPRMC,201506.000,A,7019.0480,N,14916.8760,W,41.31,74.18,280910,,,A*72
$GPRMC,201509.000,A,7019.0600,N,14916.7810,W,41.31,68.55,280910,,,A*74
$GPRMC,201512.000,A,7019.0751,N,14916.6854,W,42.28,65.74,280910,,,A*7F
$GPRMC,201515.000,A,7019.0909,N,14916.5931,W,41.31,63.98,280910,,,A*75
$GPRMC,201518.000,A,7019.1053,N,14916.5026,W,39.36,64.34,280910,,,A*79
$GPRMC,201521.000,A,7019.1172,N,14916.4173,W,37.91,67.85,280910,,,A*7B
$GPRMC,201524.000,A,7019.1259,N,14916.3295,W,37.42,75.59,280910,,,A*74
$GPRMC,201527.000,A,7019.1304,N,14916.2380,W,37.42,84.02,280910,,,A*7A
$GPRMC,201530.000,A,7019.1311,N,14916.1463,W,36.93,88.95,280910,,,A*7E
$GPRMC,201533.000,A,7019.1263,N,14916.0575,W,36.45,100.55,280910,,,A*48
$GPRMC,201536.000,A,7019.1156,N,14915.9686,W,37.42,109.69,280910,,,A*4D
$GPRMC,201539.000,A,7019.1012,N,14915.8875,W,37.91,120.94,280910,,,A*47
$GPRMC,201542.000,A,7019.0838,N,14915.8080,W,38.88,128.32,280910,,,A*4B
$GPRMC,201545.000,A,7019.0622,N,14915.7395,W,38.39,134.65,280910,,,A*44
$GPRMC,201548.000,A,7019.0384,N,14915.6757,W,38.39,138.52,280910,,,A*43
$GPRMC,201551.000,A,7019.0136,N,14915.6136,W,38.39,138.87,280910,,,A*49
$GPRMC,201554.000,A,7018.9901,N,14915.5531,W,37.42,139.57,280910,,,A*47
$GPRMC,201557.000,A,7018.9679,N,14915.4949,W,36.93,138.52,280910,,,A*4F
$GPRMC,201600.000,A,7018.9441,N,14915.4360,W,36.93,138.16,280910,,,A*46
$GPRMC,201603.000,A,7018.9216,N,14915.3751,W,36.45,133.59,280910,,,A*4B
$GPRMC,201606.000,A,7018.9016,N,14915.3062,W,37.42,130.08,280910,,,A*4A
$GPRMC,201609.000,A,7018.8865,N,14915.2271,W,37.42,117.07,280910,,,A*43
$GPRMC,201612.000,A,7018.8746,N,14915.1411,W,37.42,109.34,280910,,,A*4B
$GPRMC,201615.000,A,7018.8662,N,14915.0523,W,38.39,104.41,280910,,,A*46
$GPRMC,201618.000,A,7018.8633,N,14914.9586,W,37.91,91.41,280910,,,A*78
$GPRMC,201621.000,A,7018.8643,N,14914.8634,W,39.36,86.48,280910,,,A*72
$GPRMC,201624.000,A,7018.8713,N,14914.7703,W,38.88,74.53,280910,,,A*7A
$GPRMC,201627.000,A,7018.8820,N,14914.6812,W,39.36,68.20,280910,,,A*75
$GPRMC,201630.000,A,7018.8952,N,14914.5907,W,39.85,66.45,280910,,,A*74
$GPRMC,201633.000,A,7018.9087,N,14914.5013,W,39.85,66.09,280910,,,A*73
$GPRMC,201636.000,A,7018.9222,N,14914.4111,W,39.36,66.80,280910,,,A*70
$GPRMC,201639.000,A,7018.9351,N,14914.3217,W,39.36,67.50,280910,,,A*74
$GPRMC,201642.000,A,7018.9470,N,14914.2325,W,38.88,68.91,280910,,,A*7B
$GPRMC,201645.000,A,7018.9582,N,14914.1440,W,38.39,69.96,280910,,,A*7B
$GPRMC,201648.000,A,7018.9692,N,14914.0558,W,37.91,70.31,280910,,,A*75
$GPRMC,201651.000,A,7018.9788,N,14913.9689,W,36.45,70.66,280910,,,A*7C
$GPRMC,201654.000,A,7018.9895,N,14913.8849,W,36.95,69.61,280910,,,A*7B
$GPRMC,201657.000,A,7019.0004,N,14913.7999,W,35.96,70.31,280910,,,A*7E
$GPRMC,201700.000,A,7019.0104,N,14913.7169,W,35.48,69.61,280910,,,A*75
$GPRMC,201703.000,A,7019.0207,N,14913.6358,W,34.99,69.26,280910,,,A*79
$GPRMC,201706.000,A,7019.0307,N,14913.5530,W,34.99,70.31,280910,,,A*78
$GPRMC,201709.000,A,7019.0406,N,14913.4723,W,34.99,69.96,280910,,,A*75
$GPRMC,201712.000,A,7019.0506,N,14913.3915,W,35.48,70.31,280910,,,A*7A
$GPRMC,201715.000,A,7019.0596,N,14913.3065,W,35.96,75.23,280910,,,A*7F
$GPRMC,201718.000,A,7019.0657,N,14913.2196,W,36.45,79.45,280910,,,A*71
$GPRMC,201721.000,A,7019.0706,N,14913.1311,W,36.45,81.91,280910,,,A*7E
$GPRMC,201724.000,A,7019.0735,N,14913.0448,W,35.48,85.08,280910,,,A*7B
$GPRMC,201727.000,A,7019.0722,N,14912.9547,W,35.96,92.81,280910,,,A*7C
$GPRMC,201730.000,A,7019.0696,N,14912.8652,W,36.45,95.98,280910,,,A*70
$GPRMC,201733.000,A,7019.0670,N,14912.7761,W,35.96,96.33,280910,,,A*7A
$GPRMC,201736.000,A,7019.0645,N,14912.6882,W,34.99,95.98,280910,,,A*76
$GPRMC,201739.000,A,7019.0619,N,14912.6032,W,34.50,95.98,280910,,,A*76
$GPRMC,201742.000,A,7019.0574,N,14912.5160,W,35.48,96.68,280910,,,A*73
$GPRMC,201745.000,A,7019.0561,N,14912.4326,W,34.99,95.62,280910,,,A*75
$GPRMC,201748.000,A,7019.0538,N,14912.3470,W,34.99,95.62,280910,,,A*77
$GPRMC,201751.000,A,7019.0464,N,14912.2582,W,35.48,98.44,280910,,,A*7E
$GPRMC,201754.000,A,7019.0429,N,14912.1710,W,35.96,97.73,280910,,,A*70
$GPRMC,201758.000,A,7019.0371,N,14912.0541,W,36.45,98.44,280910,,,A*77
$GPRMC,201800.000,A,7019.0329,N,14911.9943,W,36.93,98.79,280910,,,A*79
$GPRMC,201805.000,A,7019.0246,N,14911.8414,W,39.36,96.68,280910,,,A*74
$GPRMC,201808.000,A,7019.0139,N,14911.7516,W,38.41,103.36,280910,,,A*49
$GPRMC,201811.000,A,7019.0040,N,14911.6592,W,37.92,107.58,280910,,,A*4E
$GPRMC,201814.000,A,7018.9920,N,14911.5710,W,37.91,111.80,280910,,,A*46
$GPRMC,201817.000,A,7018.9798,N,14911.4851,W,37.91,113.55,280910,,,A*49
$GPRMC,201820.000,A,7018.9615,N,14911.4036,W,38.88,119.88,280910,,,A*4D
$GPRMC,201823.000,A,7018.9451,N,14911.3228,W,38.88,121.29,280910,,,A*46
$GPRMC,201826.000,A,7018.9286,N,14911.2398,W,38.88,120.23,280910,,,A*4F
$GPRMC,201829.000,A,7018.9122,N,14911.1564,W,39.36,120.59,280910,,,A*42
$GPRMC,201832.000,A,7018.8961,N,14911.0734,W,39.36,120.23,280910,,,A*4D
$GPRMC,201835.000,A,7018.8797,N,14910.9894,W,39.85,120.23,280910,,,A*48
$GPRMC,201838.000,A,7018.8617,N,14910.9076,W,39.36,120.59,280910,,,A*4D
$GPRMC,201841.000,A,7018.8450,N,14910.8246,W,39.36,120.23,280910,,,A*4F
$GPRMC,201844.000,A,7018.8285,N,14910.7409,W,38.89,120.94,280910,,,A*4F
$GPRMC,201847.000,A,7018.8121,N,14910.6604,W,37.91,121.29,280910,,,A*4E
$GPRMC,201850.000,A,7018.7967,N,14910.5826,W,36.45,118.83,280910,,,A*42
$GPRMC,201853.000,A,7018.7848,N,14910.5014,W,36.45,108.28,280910,,,A*44
$GPRMC,201856.000,A,7018.7767,N,14910.4097,W,38.88,104.77,280910,,,A*40
$GPRMC,201859.000,A,7018.7754,N,14910.3177,W,37.91,92.81,280910,,,A*77
$GPRMC,201902.000,A,7018.7738,N,14910.2227,W,38.39,92.11,280910,,,A*71
$GPRMC,201905.000,A,7018.7725,N,14910.1271,W,38.88,91.76,280910,,,A*72
$GPRMC,201908.000,A,7018.7709,N,14910.0273,W,40.34,91.41,280910,,,A*7E
$GPRMC,201911.000,A,7018.7693,N,14909.9253,W,41.31,92.11,280910,,,A*75
$GPRMC,201914.000,A,7018.7693,N,14909.8252,W,42.28,92.46,280910,,,A*79
$GPRMC,201917.000,A,7018.7680,N,14909.7212,W,42.77,92.11,280910,,,A*7B
$GPRMC,201920.000,A,7018.7667,N,14909.6153,W,43.25,91.76,280910,,,A*75
$GPRMC,201923.000,A,7018.7654,N,14909.5091,W,43.25,91.76,280910,,,A*7A
$GPRMC,201926.000,A,7018.7642,N,14909.4016,W,43.25,92.11,280910,,,A*74
$GPRMC,201929.000,A,7018.7626,N,14909.2932,W,43.74,92.11,280910,,,A*74
$GPRMC,201932.000,A,7018.7613,N,14909.1863,W,43.74,91.76,280910,,,A*7C
$GPRMC,201935.000,A,7018.7603,N,14909.0794,W,43.74,92.11,280910,,,A*7E
$GPRMC,201938.000,A,7018.7587,N,14908.9716,W,43.74,92.46,280910,,,A*7C
$GPRMC,201941.000,A,7018.7571,N,14908.8638,W,43.74,92.46,280910,,,A*77
$GPRMC,201944.000,A,7018.7558,N,14908.7563,W,44.22,91.76,280910,,,A*7F
$GPRMC,201947.000,A,7018.7548,N,14908.6475,W,44.71,92.46,280910,,,A*7C
$GPRMC,201950.000,A,7018.7542,N,14908.5374,W,45.20,91.76,280910,,,A*70
$GPRMC,201954.000,A,7018.7523,N,14908.3865,W,45.68,91.76,280910,,,A*72
$GPRMC,201957.000,A,7018.7510,N,14908.2738,W,45.20,92.46,280910,,,A*7B
$GPRMC,202000.000,A,7018.7497,N,14908.1637,W,44.22,92.11,280910,,,A*71
$GPRMC,202003.000,A,7018.7484,N,14908.0562,W,42.77,92.11,280910,,,A*74
$GPRMC,202006.000,A,7018.7468,N,14907.9542,W,40.34,91.76,280910,,,A*70
$GPRMC,202009.000,A,7018.7455,N,14907.8602,W,34.50,92.46,280910,,,A*76
$GPRMC,202012.000,A,7018.7445,N,14907.7865,W,26.26,91.05,280910,,,A*7B
$GPRMC,202015.000,A,7018.7429,N,14907.7398,W,18.49,103.01,280910,,,A*45
$GPRMC,202018.000,A,7018.7371,N,14907.7180,W,14.58,130.43,280910,,,A*43
$GPRMC,202021.000,A,7018.7294,N,14907.6867,W,17.50,125.86,280910,,,A*44
$GPRMC,202024.000,A,7018.7201,N,14907.6475,W,19.93,120.94,280910,,,A*45
$GPRMC,202027.000,A,7018.7111,N,14907.6027,W,23.33,123.75,280910,,,A*48
$GPRMC,202030.000,A,7018.6998,N,14907.5528,W,24.79,123.75,280910,,,A*46
$GPRMC,202033.000,A,7018.6892,N,14907.5049,W,22.36,121.29,280910,,,A*4A
$GPRMC,202036.000,A,7018.6814,N,14907.4566,W,21.87,116.72,280910,,,A*4B
$GPRMC,202039.000,A,7018.6818,N,14907.4131,W,17.50,85.43,280910,,,A*78
$GPRMC,202041.000,A,7018.6831,N,14907.3845,W,18.47,79.10,280910,,,A*7D
$GPRMC,202045.000,A,7018.6879,N,14907.3156,W,25.29,78.75,280910,,,A*7A
$GPRMC,202052.000,A,7018.7001,N,14907.1505,W,31.59,79.45,280910,,,A*7A
$GPRMC,202053.000,A,7018.7017,N,14907.1251,W,32.07,79.45,280910,,,A*72
$GPRMC,202056.000,A,7018.7072,N,14907.0472,W,33.05,79.10,280910,,,A*71
$GPRMC,202133.000,A,7018.6602,N,14906.1569,W,33.05,116.37,280910,,,A*45
$GPRMC,202139.000,A,7018.6242,N,14906.0191,W,34.02,120.94,280910,,,A*41
$GPRMC,202142.000,A,7018.6093,N,14905.9467,W,34.02,121.29,280910,,,A*42
$GPRMC,202145.000,A,7018.5942,N,14905.8759,W,34.02,121.29,280910,,,A*4C
$GPRMC,202148.000,A,7018.5801,N,14905.8025,W,34.50,120.23,280910,,,A*47
$GPRMC,202151.000,A,7018.5646,N,14905.7291,W,34.99,121.29,280910,,,A*4E
$GPRMC,202154.000,A,7018.5511,N,14905.6574,W,33.53,120.59,280910,,,A*40
$GPRMC,202157.000,A,7018.5372,N,14905.5878,W,32.07,121.29,280910,,,A*44
$GPRMC,202200.000,A,7018.5241,N,14905.5235,W,30.13,120.94,280910,,,A*47
$GPRMC,202201.000,A,7018.5199,N,14905.5029,W,29.16,121.99,280910,,,A*4E
$GPRMC,202208.000,A,7018.5018,N,14905.4076,W,10.21,121.64,280910,,,A*48
$GPRMC,202211.000,A,7018.4980,N,14905.3876,W,8.26,120.59,280910,,,A*77
$GPRMC,202214.000,A,7018.4925,N,14905.3619,W,13.61,121.29,280910,,,A*45
$GPRMC,202217.000,A,7018.4886,N,14905.3403,W,8.32,119.88,280910,,,A*7B
$GPRMC,202220.000,A,7018.4848,N,14905.3204,W,11.22,120.94,280910,,,A*42
$GPRMC,202223.000,A,7018.4790,N,14905.2937,W,13.61,120.59,280910,,,A*45
$GPRMC,202226.000,A,7018.4745,N,14905.2624,W,14.58,109.69,280910,,,A*40
$GPRMC,202229.000,A,7018.4735,N,14905.2299,W,12.64,89.65,280910,,,A*76
$GPRMC,202232.000,A,7018.4726,N,14905.2006,W,11.18,110.04,280910,,,A*44
$GPRMC,202235.000,A,7018.4661,N,14905.1807,W,12.15,151.17,280910,,,A*42
$GPRMC,202238.000,A,7018.4568,N,14905.1659,W,12.15,150.12,280910,,,A*44
$GPRMC,202241.000,A,7018.4491,N,14905.1430,W,15.10,124.80,280910,,,A*4A
$GPRMC,202244.000,A,7018.4407,N,14905.1047,W,22.84,121.29,280910,,,A*4B
$GPRMC,202247.000,A,7018.4297,N,14905.0510,W,27.22,120.59,280910,,,A*4E
$GPRMC,202250.000,A,7018.4178,N,14904.9905,W,29.16,120.59,280910,,,A*43
$GPRMC,202253.000,A,7018.4046,N,14904.9251,W,31.59,120.23,280910,,,A*49
$GPRMC,202256.000,A,7018.3911,N,14904.8569,W,33.05,120.23,280910,,,A*46
$GPRMC,202259.000,A,7018.3770,N,14904.7851,W,34.02,120.94,280910,,,A*45
$GPRMC,202302.000,A,7018.3625,N,14904.7114,W,34.99,120.59,280910,,,A*40
$GPRMC,202305.000,A,7018.3473,N,14904.6367,W,35.96,120.94,280910,,,A*4E
$GPRMC,202308.000,A,7018.3319,N,14904.5614,W,35.96,120.94,280910,,,A*4A
$GPRMC,202311.000,A,7018.3168,N,14904.4855,W,35.96,120.94,280910,,,A*4C
$GPRMC,202314.000,A,7018.3013,N,14904.4089,W,35.96,120.59,280910,,,A*4C
$GPRMC,202317.000,A,7018.2859,N,14904.3329,W,36.46,121.64,280910,,,A*47
$GPRMC,202320.000,A,7018.2704,N,14904.2560,W,35.96,120.94,280910,,,A*4E
$GPRMC,202323.000,A,7018.2553,N,14904.1797,W,35.96,120.94,280910,,,A*44
$GPRMC,202326.000,A,7018.2405,N,14904.1047,W,35.96,120.59,280910,,,A*48
$GPRMC,202329.000,A,7018.2247,N,14904.0287,W,36.45,120.94,280910,,,A*44
$GPRMC,202332.000,A,7018.2089,N,14903.9505,W,36.93,120.23,280910,,,A*4A
$GPRMC,202335.000,A,7018.1932,N,14903.8720,W,36.93,120.59,280910,,,A*4E
$GPRMC,202338.000,A,7018.1777,N,14903.7935,W,37.42,120.59,280910,,,A*44
$GPRMC,202341.000,A,7018.1620,N,14903.7140,W,37.91,120.94,280910,,,A*4C
$GPRMC,202344.000,A,7018.1459,N,14903.6338,W,37.91,120.59,280910,,,A*48
$GPRMC,202347.000,A,7018.1294,N,14903.5533,W,38.39,120.94,280910,,,A*4E
$GPRMC,202350.000,A,7018.1130,N,14903.4726,W,37.91,120.94,280910,,,A*4F
$GPRMC,202353.000,A,7018.0969,N,14903.3937,W,36.93,120.94,280910,,,A*43
$GPRMC,202356.000,A,7018.0815,N,14903.3158,W,36.93,120.94,280910,,,A*4D
$GPRMC,202359.000,A,7018.0660,N,14903.2382,W,36.45,120.94,280910,,,A*41
$GPRMC,202402.000,A,7018.0506,N,14903.1603,W,36.45,120.59,280910,,,A*45
$GPRMC,202405.000,A,7018.0348,N,14903.0837,W,36.45,120.59,280910,,,A*46
$GPRMC,202408.000,A,7018.0197,N,14903.0065,W,36.45,120.23,280910,,,A*49
$GPRMC,202411.000,A,7018.0039,N,14902.9280,W,36.93,120.94,280910,,,A*42
$GPRMC,202414.000,A,7017.9881,N,14902.8507,W,36.93,120.94,280910,,,A*43
$GPRMC,202417.000,A,7017.9724,N,14902.7719,W,37.42,120.59,280910,,,A*4E
$GPRMC,202420.000,A,7017.9566,N,14902.6920,W,37.91,120.59,280910,,,A*45
$GPRMC,202423.000,A,7017.9415,N,14902.6145,W,35.96,120.94,280910,,,A*4C
$GPRMC,202426.000,A,7017.9270,N,14902.5398,W,34.02,120.59,280910,,,A*40
$GPRMC,202429.000,A,7017.9138,N,14902.4716,W,30.62,120.94,280910,,,A*40
$GPRMC,202432.000,A,7017.9016,N,14902.4117,W,26.73,123.05,280910,,,A*4C
$GPRMC,202435.000,A,7017.8935,N,14902.3721,W,19.93,120.94,280910,,,A*4F
$GPRMC,202438.000,A,7017.8845,N,14902.3280,W,22.36,120.59,280910,,,A*4C
$GPRMC,202441.000,A,7017.8745,N,14902.2759,W,26.73,120.94,280910,,,A*49
$GPRMC,202444.000,A,7017.8623,N,14902.2160,W,28.19,120.59,280910,,,A*42
$GPRMC,202447.000,A,7017.8501,N,14902.1548,W,29.65,120.23,280910,,,A*48
$GPRMC,202450.000,A,7017.8378,N,14902.0924,W,29.16,120.94,280910,,,A*49
$GPRMC,202453.000,A,7017.8262,N,14902.0319,W,28.19,121.29,280910,,,A*4D
$GPRMC,202456.000,A,7017.8147,N,14901.9775,W,25.76,123.75,280910,,,A*47
$GPRMC,202459.000,A,7017.8066,N,14901.9379,W,19.44,127.27,280910,,,A*4F
$GPRMC,202502.000,A,7017.7992,N,14901.9070,W,16.04,126.56,280910,,,A*4B
$GPRMC,202517.000,A,7017.7995,N,14901.9051,W,9.23,111.80,280910,,,A*7F
$GPRMC,202520.000,A,7017.7966,N,14901.8784,W,16.55,102.66,280910,,,A*4C
$GPRMC,202523.000,A,7017.7947,N,14901.8314,W,20.41,95.98,280910,,,A*7F
$GPRMC,202526.000,A,7017.7928,N,14901.7715,W,25.78,94.92,280910,,,A*7D
$GPRMC,202529.000,A,7017.7905,N,14901.7039,W,28.67,95.27,280910,,,A*78
$GPRMC,202532.000,A,7017.7883,N,14901.6292,W,32.07,96.68,280910,,,A*7A
$GPRMC,202535.000,A,7017.7844,N,14901.5504,W,33.05,96.68,280910,,,A*7E
$GPRMC,202538.000,A,7017.7812,N,14901.4686,W,33.53,97.03,280910,,,A*77
$GPRMC,202541.000,A,7017.7767,N,14901.3872,W,33.53,98.44,280910,,,A*7A
$GPRMC,202544.000,A,7017.7731,N,14901.3051,W,34.02,97.38,280910,,,A*72
$GPRMC,202547.000,A,7017.7696,N,14901.2214,W,34.99,96.33,280910,,,A*77
$GPRMC,202550.000,A,7017.7670,N,14901.1352,W,35.48,94.57,280910,,,A*74
$GPRMC,202553.000,A,7017.7638,N,14901.0473,W,35.96,93.16,280910,,,A*7F
$GPRMC,202556.000,A,7017.7616,N,14900.9594,W,35.96,92.81,280910,,,A*79
$GPRMC,202559.000,A,7017.7596,N,14900.8703,W,36.46,93.52,280910,,,A*71
$GPRMC,202602.000,A,7017.7574,N,14900.7802,W,36.93,93.52,280910,,,A*79
$GPRMC,202605.000,A,7017.7554,N,14900.6887,W,36.93,93.52,280910,,,A*70
$GPRMC,202608.000,A,7017.7535,N,14900.5977,W,36.93,93.52,280910,,,A*77
$GPRMC,202611.000,A,7017.7516,N,14900.5069,W,36.45,93.52,280910,,,A*73
$GPRMC,202614.000,A,7017.7496,N,14900.4177,W,36.45,94.22,280910,,,A*70
$GPRMC,202617.000,A,7017.7477,N,14900.3276,W,36.95,93.87,280910,,,A*7C
$GPRMC,202620.000,A,7017.7455,N,14900.2365,W,36.45,92.81,280910,,,A*70
$GPRMC,202623.000,A,7017.7435,N,14900.1467,W,36.45,94.22,280910,,,A*7C
$GPRMC,202626.000,A,7017.7413,N,14900.0589,W,35.96,96.33,280910,,,A*72
$GPRMC,202629.000,A,7017.7371,N,14859.9716,W,35.48,98.79,280910,,,A*7D
$GPRMC,202632.000,A,7017.7319,N,14859.8854,W,35.48,101.25,280910,,,A*49
$GPRMC,202635.000,A,7017.7258,N,14859.7997,W,35.96,102.30,280910,,,A*4F
$GPRMC,202638.000,A,7017.7194,N,14859.7148,W,35.48,102.30,280910,,,A*48
$GPRMC,202641.000,A,7017.7136,N,14859.6321,W,33.53,102.66,280910,,,A*4D
$GPRMC,202644.000,A,7017.7075,N,14859.5532,W,32.07,103.71,280910,,,A*4E
$GPRMC,202647.000,A,7017.7023,N,14859.4805,W,29.65,103.71,280910,,,A*48
$GPRMC,202650.000,A,7017.6978,N,14859.4171,W,26.24,101.95,280910,,,A*40
$GPRMC,202653.000,A,7017.6952,N,14859.3591,W,23.33,100.55,280910,,,A*48
$GPRMC,202656.000,A,7017.6907,N,14859.3060,W,19.44,96.68,280910,,,A*7F
$GPRMC,202659.000,A,7017.6888,N,14859.2609,W,16.52,96.68,280910,,,A*76
$GPRMC,202702.000,A,7017.6862,N,14859.2268,W,10.21,95.62,280910,,,A*75
$GPRMC,202705.000,A,7017.6891,N,14859.2123,W,5.83,56.60,280910,,,A*43
$GPRMC,202717.000,A,7017.6901,N,14859.2204,W,2.43,277.03,280910,,,A*71
$GPRMC,202720.000,A,7017.6911,N,14859.2326,W,6.39,261.56,280910,,,A*7B
$GPRMC,202723.000,A,7017.6907,N,14859.2558,W,10.21,272.46,280910,,,A*4D
$GPRMC,202726.000,A,7017.6917,N,14859.2848,W,14.13,275.62,280910,,,A*41
$GPRMC,202729.000,A,7017.6940,N,14859.3231,W,16.52,280.20,280910,,,A*42
$GPRMC,202732.000,A,7017.6965,N,14859.3720,W,20.41,281.60,280910,,,A*48
$GPRMC,202735.000,A,7017.6998,N,14859.4212,W,20.90,280.55,280910,,,A*45
$GPRMC,202738.000,A,7017.7036,N,14859.4737,W,22.36,283.71,280910,,,A*4D
$GPRMC,202741.000,A,7017.7078,N,14859.5278,W,22.36,284.06,280910,,,A*41
$GPRMC,202744.000,A,7017.7123,N,14859.5799,W,21.87,281.95,280910,,,A*47
$GPRMC,202745.000,A,7017.7136,N,14859.5979,W,21.89,281.95,280910,,,A*4C
$GPRMC,202750.000,A,7017.7197,N,14859.6871,W,22.36,281.60,280910,,,A*44
$GPRMC,202753.000,A,7017.7229,N,14859.7412,W,22.84,280.55,280910,,,A*47
$GPRMC,202756.000,A,7017.7265,N,14859.7978,W,23.81,281.25,280910,,,A*49
$GPRMC,202759.000,A,7017.7307,N,14859.8554,W,24.30,281.25,280910,,,A*43
$GPRMC,202802.000,A,7017.7352,N,14859.9156,W,24.79,280.90,280910,,,A*47
$GPRMC,202805.000,A,7017.7387,N,14859.9819,W,26.73,278.79,280910,,,A*42
$GPRMC,202808.000,A,7017.7422,N,14900.0492,W,27.72,277.73,280910,,,A*49
$GPRMC,202811.000,A,7017.7455,N,14900.1200,W,28.67,275.98,280910,,,A*41
$GPRMC,202814.000,A,7017.7477,N,14900.1908,W,29.66,273.52,280910,,,A*47
$GPRMC,202817.000,A,7017.7493,N,14900.2629,W,29.65,274.22,280910,,,A*42
$GPRMC,202820.000,A,7017.7519,N,14900.3366,W,29.65,273.52,280910,,,A*4A
$GPRMC,202823.000,A,7017.7532,N,14900.4094,W,29.65,273.87,280910,,,A*41
$GPRMC,202826.000,A,7017.7548,N,14900.4821,W,29.65,273.87,280910,,,A*4F
$GPRMC,202829.000,A,7017.7558,N,14900.5548,W,30.13,272.81,280910,,,A*4C
$GPRMC,202832.000,A,7017.7570,N,14900.6282,W,30.15,273.87,280910,,,A*4F
$GPRMC,202835.000,A,7017.7583,N,14900.7035,W,30.13,273.87,280910,,,A*4D
$GPRMC,202838.000,A,7017.7603,N,14900.7785,W,30.62,273.87,280910,,,A*41
$GPRMC,202841.000,A,7017.7622,N,14900.8535,W,30.62,273.87,280910,,,A*4A
$GPRMC,202844.000,A,7017.7638,N,14900.9272,W,29.16,273.16,280910,,,A*42
$GPRMC,202847.000,A,7017.7648,N,14900.9958,W,28.19,272.81,280910,,,A*44
$GPRMC,202850.000,A,7017.7664,N,14901.0673,W,28.69,274.22,280910,,,A*4A
$GPRMC,202853.000,A,7017.7677,N,14901.1397,W,29.18,273.87,280910,,,A*4A
$GPRMC,202856.000,A,7017.7699,N,14901.2124,W,29.65,275.98,280910,,,A*44
$GPRMC,202859.000,A,7017.7725,N,14901.2845,W,29.65,277.03,280910,,,A*43
$GPRMC,202902.000,A,7017.7757,N,14901.3569,W,29.65,277.73,280910,,,A*4C
$GPRMC,202905.000,A,7017.7793,N,14901.4303,W,29.65,277.73,280910,,,A*4E
$GPRMC,202908.000,A,7017.7822,N,14901.5015,W,29.16,277.38,280910,,,A*48
$GPRMC,202911.000,A,7017.7854,N,14901.5735,W,29.65,276.68,280910,,,A*44
$GPRMC,202914.000,A,7017.7876,N,14901.6444,W,29.65,276.33,280910,,,A*49
$GPRMC,202917.000,A,7017.7905,N,14901.7148,W,28.69,275.62,280910,,,A*4D
$GPRMC,202920.000,A,7017.7928,N,14901.7840,W,28.69,275.27,280910,,,A*46
$GPRMC,202923.000,A,7017.7953,N,14901.8507,W,26.24,277.73,280910,,,A*4C
$GPRMC,202926.000,A,7017.8002,N,14901.9086,W,24.30,288.28,280910,,,A*4F
$GPRMC,202929.000,A,7017.8073,N,14901.9662,W,25.76,286.88,280910,,,A*4D
$GPRMC,202932.000,A,7017.8214,N,14902.0271,W,31.10,301.99,280910,,,A*43
$GPRMC,202935.000,A,7017.8356,N,14902.0908,W,30.13,300.94,280910,,,A*48
$GPRMC,202938.000,A,7017.8481,N,14902.1539,W,29.16,300.94,280910,,,A*4A
$GPRMC,202941.000,A,7017.8607,N,14902.2160,W,29.65,300.94,280910,,,A*47
$GPRMC,202944.000,A,7017.8729,N,14902.2771,W,28.19,300.59,280910,,,A*42
$GPRMC,202947.000,A,7017.8845,N,14902.3325,W,24.79,299.88,280910,,,A*47
$GPRMC,202950.000,A,7017.8932,N,14902.3766,W,19.93,300.59,280910,,,A*44
$GPRMC,202953.000,A,7017.9022,N,14902.4230,W,24.38,301.64,280910,,,A*4F
$GPRMC,202956.000,A,7017.9138,N,14902.4773,W,27.22,301.99,280910,,,A*48
$GPRMC,202959.000,A,7017.9254,N,14902.5353,W,27.70,299.53,280910,,,A*48
$GPRMC,203002.000,A,7017.9373,N,14902.5942,W,27.70,300.94,280910,,,A*4A
$GPRMC,203005.000,A,7017.9492,N,14902.6528,W,28.19,300.94,280910,,,A*46
$GPRMC,203008.000,A,7017.9611,N,14902.7130,W,29.16,301.29,280910,,,A*47
$GPRMC,203011.000,A,7017.9733,N,14902.7754,W,30.13,300.59,280910,,,A*41
$GPRMC,203014.000,A,7017.9865,N,14902.8398,W,30.13,300.94,280910,,,A*42
$GPRMC,203017.000,A,7018.0004,N,14902.9038,W,30.62,300.59,280910,,,A*47
$GPRMC,203020.000,A,7018.0136,N,14902.9685,W,30.63,300.59,280910,,,A*42
$GPRMC,203023.000,A,7018.0268,N,14903.0313,W,30.62,301.64,280910,,,A*45
$GPRMC,203026.000,A,7018.0400,N,14903.0956,W,30.13,300.94,280910,,,A*4B
$GPRMC,203029.000,A,7018.0528,N,14903.1581,W,29.16,300.94,280910,,,A*45
$GPRMC,203032.000,A,7018.0638,N,14903.2167,W,26.73,300.59,280910,,,A*4F
$GPRMC,203035.000,A,7018.0744,N,14903.2711,W,25.27,300.23,280910,,,A*4A
$GPRMC,203038.000,A,7018.0847,N,14903.3226,W,24.30,300.59,280910,,,A*41
$GPRMC,203041.000,A,7018.0950,N,14903.3744,W,24.30,300.59,280910,,,A*49
$GPRMC,203044.000,A,7018.1056,N,14903.4262,W,24.79,300.59,280910,,,A*49
$GPRMC,203047.000,A,7018.1162,N,14903.4793,W,25.27,301.64,280910,,,A*42
$GPRMC,203050.000,A,7018.1269,N,14903.5331,W,25.76,300.23,280910,,,A*47
$GPRMC,203053.000,A,7018.1375,N,14903.5875,W,25.76,300.94,280910,,,A*4F
$GPRMC,203056.000,A,7018.1488,N,14903.6425,W,27.22,301.29,280910,,,A*41
$GPRMC,203059.000,A,7018.1600,N,14903.6988,W,26.73,300.59,280910,,,A*45
$GPRMC,203102.000,A,7018.1713,N,14903.7558,W,26.24,300.23,280910,,,A*46
$GPRMC,203105.000,A,7018.1822,N,14903.8121,W,27.22,301.29,280910,,,A*45
$GPRMC,203108.000,A,7018.1941,N,14903.8710,W,28.67,300.94,280910,,,A*41
$GPRMC,203111.000,A,7018.2067,N,14903.9328,W,29.65,300.94,280910,,,A*4A
$GPRMC,203114.000,A,7018.2189,N,14903.9949,W,29.65,300.59,280910,,,A*42
$GPRMC,203117.000,A,7018.2315,N,14904.0571,W,28.67,300.94,280910,,,A*4D
$GPRMC,203120.000,A,7018.2437,N,14904.1179,W,28.67,300.94,280910,,,A*43
$GPRMC,203123.000,A,7018.2559,N,14904.1790,W,29.16,300.94,280910,,,A*4F
$GPRMC,203126.000,A,7018.2682,N,14904.2402,W,28.67,300.23,280910,,,A*4F
$GPRMC,203129.000,A,7018.2804,N,14904.3017,W,28.67,300.59,280910,,,A*4C
