NMEA Sentence Code,UTC Time,Status,Latitude,Latitude Direction,Longitude,Longitude Direction,Speed (knots),Track Angle (degrees true),Date,MagneticVariation,Magnetic Variation Direction,[FAA Mode]-Optional,Checksum
$GPRMC,192213.2,A,3307.375149,N,11716.408608,W,17.9,267.6,060710,,,A*46
$GPRMC,192216.2,A,3307.374132,N,11716.419977,W,9.3,259.2,060710,,,A*75
$GPRMC,192219.2,A,3307.381673,N,11716.424134,W,9.1,346.4,060710,,,A*78
$GPRMC,192222.2,A,3307.392308,N,11716.427616,W,13.9,333.9,060710,,,A*43
$GPRMC,192225.2,A,3307.418542,N,11716.433181,W,28.2,345.4,060710,,,A*4A
$GPRMC,192228.2,A,3307.441508,N,11716.445785,W,31.8,335.5,060710,,,A*42
$GPRMC,192232.2,A,3307.472921,N,11716.472999,W,31.9,318.8,060710,,,A*4A
$GPRMC,192235.2,A,3307.491587,N,11716.493678,W,26.3,320.4,060710,,,A*44
$GPRMC,192238.2,A,3307.505793,N,11716.508545,W,21.5,320.8,060710,,,A*41
$GPRMC,192241.2,A,3307.515711,N,11716.517089,W,8.0,322.5,060710,,,A*7E
$GPRMC,192354.2,A,3307.523536,N,11716.525339,W,5.7,297.4,060710,,,A*74
$GPRMC,192357.9,A,3307.515279,N,11716.553702,W,22.0,243.2,060710,,,A*45
$GPRMC,192400.2,A,3307.498467,N,11716.575684,W,36.2,230.1,060710,,,A*4D
$GPRMC,192403.2,A,3307.474967,N,11716.607442,W,42.6,226.8,060710,,,A*46
$GPRMC,192406.2,A,3307.448421,N,11716.637650,W,44.5,221.7,060710,,,A*4C
$GPRMC,192409.9,A,3307.413125,N,11716.675039,W,45.2,222.0,060710,,,A*4A
$GPRMC,192413.2,A,3307.381683,N,11716.708508,W,46.0,221.7,060710,,,A*44
$GPRMC,192416.9,A,3307.344230,N,11716.747883,W,49.5,221.3,060710,,,A*44
$GPRMC,192419.9,A,3307.315470,N,11716.779385,W,47.9,221.3,060710,,,A*4F
$GPRMC,192423.2,A,3307.280813,N,11716.812257,W,46.5,221.1,060710,,,A*4A
$GPRMC,192426.2,A,3307.255452,N,11716.843345,W,43.8,228.3,060710,,,A*4B
$GPRMC,192429.2,A,3307.232984,N,11716.878601,W,44.6,236.0,060710,,,A*4B
$GPRMC,192432.9,A,3307.210783,N,11716.927463,W,47.2,243.5,060710,,,A*4E
$GPRMC,192435.0,A,3307.201649,N,11716.957824,W,47.4,249.3,060710,,,A*45
$GPRMC,192438.2,A,3307.196957,N,11717.011700,W,53.6,265.2,060710,,,A*4C
$GPRMC,192441.9,A,3307.193531,N,11717.079795,W,56.1,268.7,060710,,,A*48
$GPRMC,192444.9,A,3307.193985,N,11717.133969,W,52.1,270.3,060710,,,A*45
$GPRMC,192447.9,A,3307.194606,N,11717.185086,W,50.8,270.5,060710,,,A*4D
$GPRMC,192450.9,A,3307.192575,N,11717.235469,W,50.3,268.0,060710,,,A*40
$GPRMC,192453.9,A,3307.192554,N,11717.283000,W,44.8,269.3,060710,,,A*4A
$GPRMC,192456.9,A,3307.199299,N,11717.317052,W,36.0,277.5,060710,,,A*4D
$GPRMC,192459.9,A,3307.205007,N,11717.341256,W,25.5,281.7,060710,,,A*48
$GPRMC,192502.9,A,3307.210374,N,11717.359768,W,18.0,284.0,060710,,,A*4C
$GPRMC,192505.9,A,3307.211533,N,11717.370575,W,9.3,275.4,060710,,,A*73
$GPRMC,192508.9,A,3307.213336,N,11717.374097,W,5.5,280.3,060710,,,A*75
$GPRMC,192541.9,A,3307.217859,N,11717.380514,W,8.5,291.7,060710,,,A*72
$GPRMC,192544.9,A,3307.219430,N,11717.397081,W,17.6,284.2,060710,,,A*49
$GPRMC,192547.9,A,3307.225817,N,11717.419773,W,24.4,292.6,060710,,,A*46
$GPRMC,192550.9,A,3307.240062,N,11717.440699,W,29.3,298.0,060710,,,A*46
$GPRMC,192553.2,A,3307.251775,N,11717.462471,W,34.1,302.5,060710,,,A*42
$GPRMC,192556.9,A,3307.274059,N,11717.499037,W,37.3,305.6,060710,,,A*45
$GPRMC,192559.9,A,3307.292644,N,11717.529538,W,38.6,307.7,060710,,,A*41
$GPRMC,192603.2,A,3307.319428,N,11717.561841,W,41.8,313.7,060710,,,A*46
$GPRMC,192606.2,A,3307.342460,N,11717.594919,W,44.3,305.7,060710,,,A*4E
$GPRMC,192609.2,A,3307.362859,N,11717.633396,W,45.9,299.5,060710,,,A*4B
$GPRMC,192612.9,A,3307.382836,N,11717.683841,W,46.4,293.5,060710,,,A*43
$GPRMC,192615.9,A,3307.394697,N,11717.726077,W,45.0,287.8,060710,,,A*4A
$GPRMC,192618.9,A,3307.400047,N,11717.768183,W,42.3,282.0,060710,,,A*4F
$GPRMC,192621.9,A,3307.407139,N,11717.806163,W,39.0,281.9,060710,,,A*46
$GPRMC,192624.9,A,3307.413679,N,11717.842406,W,38.6,281.0,060710,,,A*4D
$GPRMC,192627.9,A,3307.418824,N,11717.884343,W,42.1,279.7,060710,,,A*45
$GPRMC,192630.9,A,3307.425890,N,11717.922062,W,37.3,281.5,060710,,,A*4A
$GPRMC,192633.9,A,3307.431687,N,11717.955830,W,33.2,282.2,060710,,,A*4A
$GPRMC,192636.9,A,3307.439055,N,11717.984285,W,30.6,283.5,060710,,,A*47
$GPRMC,192639.2,A,3307.440941,N,11718.006018,W,29.9,277.4,060710,,,A*46
$GPRMC,192642.9,A,3307.443280,N,11718.035141,W,21.7,278.4,060710,,,A*40
$GPRMC,192645.9,A,3307.443540,N,11718.044339,W,11.6,275.4,060710,,,A*48
$GPRMC,192704.2,A,3307.447255,N,11718.065327,W,15.0,280.4,060710,,,A*44
$GPRMC,192708.2,A,3307.451726,N,11718.090045,W,20.5,279.3,060710,,,A*41
$GPRMC,192711.2,A,3307.454606,N,11718.117905,W,27.4,276.4,060710,,,A*42
$GPRMC,192714.2,A,3307.456584,N,11718.150301,W,33.4,272.9,060710,,,A*4D
$GPRMC,192717.2,A,3307.455706,N,11718.185496,W,34.8,268.9,060710,,,A*44
$GPRMC,192721.2,A,3307.450463,N,11718.234764,W,37.1,262.4,060710,,,A*4E
$GPRMC,192724.2,A,3307.444963,N,11718.272698,W,39.4,255.9,060710,,,A*41
$GPRMC,192727.2,A,3307.436563,N,11718.311802,W,42.4,253.2,060710,,,A*43
$GPRMC,192730.0,A,3307.425140,N,11718.346135,W,40.9,249.0,060710,,,A*49
$GPRMC,192733.0,A,3307.410605,N,11718.385804,W,45.3,248.0,060710,,,A*40
$GPRMC,192736.2,A,3307.395751,N,11718.432718,W,45.9,249.0,060710,,,A*4F
$GPRMC,192739.2,A,3307.382822,N,11718.474178,W,44.7,249.1,060710,,,A*41
$GPRMC,192743.2,A,3307.364889,N,11718.533023,W,47.3,248.7,060710,,,A*48
$GPRMC,192746.2,A,3307.350667,N,11718.576932,W,48.2,249.6,060710,,,A*42
$GPRMC,192749.2,A,3307.338945,N,11718.621391,W,45.8,252.9,060710,,,A*4C
$GPRMC,192752.2,A,3307.330261,N,11718.661986,W,40.6,256.6,060710,,,A*4B
$GPRMC,192755.2,A,3307.326971,N,11718.694551,W,31.8,262.8,060710,,,A*4C
$GPRMC,192758.2,A,3307.325174,N,11718.719988,W,24.6,265.3,060710,,,A*45
$GPRMC,192801.2,A,3307.324616,N,11718.738543,W,15.9,270.5,060710,,,A*43
$GPRMC,192804.2,A,3307.324699,N,11718.753191,W,13.0,271.8,060710,,,A*44
$GPRMC,192807.2,A,3307.324709,N,11718.764544,W,10.4,270.3,060710,,,A*4A
$GPRMC,192843.9,A,3307.326348,N,11718.772990,W,6.2,275.3,060710,,,A*74
$GPRMC,192846.9,A,3307.328954,N,11718.795818,W,19.3,275.1,060710,,,A*4D
$GPRMC,192849.9,A,3307.331418,N,11718.820557,W,24.5,274.3,060710,,,A*43
$GPRMC,192852.9,A,3307.333624,N,11718.849412,W,28.8,271.8,060710,,,A*46
$GPRMC,192855.9,A,3307.333987,N,11718.882087,W,34.0,270.9,060710,,,A*4D
$GPRMC,192858.9,A,3307.331927,N,11718.920814,W,38.3,269.0,060710,,,A*4D
$GPRMC,192901.9,A,3307.333274,N,11718.951205,W,36.1,273.3,060710,,,A*47
$GPRMC,192904.9,A,3307.331259,N,11718.991523,W,38.2,269.0,060710,,,A*45
$GPRMC,192907.9,A,3307.329099,N,11719.031656,W,39.9,268.4,060710,,,A*4D
$GPRMC,192910.9,A,3307.330541,N,11719.067691,W,39.0,272.1,060710,,,A*4C
$GPRMC,192913.9,A,3307.334080,N,11719.105702,W,38.7,273.2,060710,,,A*49
$GPRMC,192916.9,A,3307.332113,N,11719.146483,W,38.1,269.6,060710,,,A*45
