NMEA Sentence Code,UTC Time,Status,Latitude,Latitude Direction,Longitude,Longitude Direction,Speed (knots),Track Angle (degrees true),Date,MagneticVariation,Magnetic Variation Direction,[FAA Mode]-Optional,Checksum
$GPRMC,005908.7,A,3333.716543,N,11710.591744,W,21.0,237.1,290310,,,A*4C
$GPRMC,005911.7,A,3333.701300,N,11710.611278,W,27.2,228.3,290310,,,A*4A
$GPRMC,005914.7,A,3333.677102,N,11710.632105,W,33.4,218.7,290310,,,A*43
$GPRMC,005917.7,A,3333.653631,N,11710.651541,W,34.8,215.9,290310,,,A*48
$GPRMC,005920.7,A,3333.629813,N,11710.671862,W,34.1,216.2,290310,,,A*40
$GPRMC,005923.7,A,3333.606776,N,11710.690883,W,33.2,213.1,290310,,,A*40
$GPRMC,005926.7,A,3333.582724,N,11710.703025,W,30.8,197.7,290310,,,A*42
$GPRMC,005929.7,A,3333.557721,N,11710.709381,W,30.2,185.6,290310,,,A*4F
$GPRMC,005932.7,A,3333.532718,N,11710.708832,W,29.9,176.7,290310,,,A*40
$GPRMC,005935.7,A,3333.508524,N,11710.701962,W,29.8,161.9,290310,,,A*47
$GPRMC,005938.7,A,3333.485157,N,11710.691294,W,30.2,157.8,290310,,,A*42
$GPRMC,005941.7,A,3333.461446,N,11710.679310,W,30.1,156.4,290310,,,A*46
$GPRMC,005944.7,A,3333.442099,N,11710.667486,W,22.3,156.0,290310,,,A*46
$GPRMC,005947.7,A,3333.428820,N,11710.663888,W,15.4,165.1,290310,,,A*47
$GPRMC,005950.7,A,3333.415958,N,11710.662545,W,15.2,178.0,290310,,,A*47
$GPRMC,005953.7,A,3333.405696,N,11710.661496,W,8.8,180.8,290310,,,A*7D
$GPRMC,005956.7,A,3333.399727,N,11710.661389,W,7.5,177.3,290310,,,A*79
$GPRMC,005959.7,A,3333.392360,N,11710.663392,W,9.9,207.7,290310,,,A*70
$GPRMC,010002.7,A,3333.389211,N,11710.675683,W,13.7,258.1,290310,,,A*45
$GPRMC,010005.7,A,3333.389172,N,11710.694112,W,17.9,267.9,290310,,,A*4A
$GPRMC,010008.7,A,3333.388023,N,11710.711199,W,15.7,264.8,290310,,,A*42
$GPRMC,010011.7,A,3333.387968,N,11710.725640,W,14.9,266.9,290310,,,A*4B
$GPRMC,010014.7,A,3333.387077,N,11710.746364,W,20.9,266.6,290310,,,A*47
$GPRMC,010017.7,A,3333.385570,N,11710.770606,W,23.6,264.9,290310,,,A*41
$GPRMC,010020.7,A,3333.383568,N,11710.794096,W,24.7,264.3,290310,,,A*43
$GPRMC,010023.7,A,3333.380946,N,11710.820417,W,26.6,265.2,290310,,,A*4D
$GPRMC,010026.7,A,3333.379785,N,11710.847231,W,27.0,266.8,290310,,,A*42
$GPRMC,010029.7,A,3333.378740,N,11710.875058,W,27.3,268.3,290310,,,A*4F
$GPRMC,010032.7,A,3333.380386,N,11710.901661,W,26.7,275.5,290310,,,A*4D
$GPRMC,010035.7,A,3333.387660,N,11710.922780,W,25.0,293.1,290310,,,A*47
$GPRMC,010038.7,A,3333.403038,N,11710.937310,W,22.8,313.4,290310,,,A*40
$GPRMC,010041.7,A,3333.423774,N,11710.924466,W,17.8,1.2,290310,,,A*47
$GPRMC,010044.7,A,3333.428279,N,11710.903294,W,15.3,51.3,290310,,,A*72
$GPRMC,010047.7,A,3333.405474,N,11710.871519,W,24.8,121.3,290310,,,A*4C
$GPRMC,010050.7,A,3333.373021,N,11710.851824,W,36.9,146.2,290310,,,A*4B
$GPRMC,010053.7,A,3333.327116,N,11710.862169,W,45.8,180.1,290310,,,A*40
$GPRMC,010056.7,A,3333.286514,N,11710.864922,W,47.9,182.2,290310,,,A*4A
$GPRMC,010059.7,A,3333.244831,N,11710.868625,W,50.5,184.3,290310,,,A*48
$GPRMC,010102.7,A,3333.199235,N,11710.874059,W,56.0,186.0,290310,,,A*48
$GPRMC,010105.7,A,3333.150828,N,11710.883201,W,57.4,188.3,290310,,,A*43
$GPRMC,010108.7,A,3333.102945,N,11710.891433,W,57.5,188.1,290310,,,A*44
$GPRMC,010111.7,A,3333.055373,N,11710.898905,W,56.9,186.3,290310,,,A*40
$GPRMC,010114.7,A,3333.008531,N,11710.902788,W,54.9,181.0,290310,,,A*42
$GPRMC,010117.7,A,3332.963404,N,11710.900970,W,53.1,175.2,290310,,,A*4E
$GPRMC,010120.7,A,3332.919543,N,11710.893893,W,53.1,170.5,290310,,,A*40
$GPRMC,010123.7,A,3332.875995,N,11710.883113,W,53.1,167.3,290310,,,A*4F
$GPRMC,010126.7,A,3332.832609,N,11710.867057,W,54.7,160.3,290310,,,A*4E
$GPRMC,010129.7,A,3332.789979,N,11710.846439,W,55.1,156.8,290310,,,A*40
$GPRMC,010132.7,A,3332.748904,N,11710.820751,W,55.3,151.2,290310,,,A*4F
$GPRMC,010135.7,A,3332.710718,N,11710.789825,W,55.2,144.2,290310,,,A*43
$GPRMC,010138.7,A,3332.674335,N,11710.755504,W,55.6,140.6,290310,,,A*4D
$GPRMC,010141.7,A,3332.640281,N,11710.717609,W,55.7,136.8,290310,,,A*4C
$GPRMC,010144.7,A,3332.608688,N,11710.679283,W,53.3,134.3,290310,,,A*4C
$GPRMC,010147.7,A,3332.579336,N,11710.643696,W,51.1,134.7,290310,,,A*47
$GPRMC,010150.7,A,3332.549306,N,11710.616303,W,46.6,139.7,290310,,,A*44
$GPRMC,010153.7,A,3332.520519,N,11710.589601,W,44.3,145.8,290310,,,A*41
$GPRMC,010156.7,A,3332.489197,N,11710.563765,W,43.7,149.6,290310,,,A*42
$GPRMC,010159.7,A,3332.459319,N,11710.543632,W,40.7,149.9,290310,,,A*49
$GPRMC,010202.7,A,3332.430332,N,11710.523066,W,40.7,149.6,290310,,,A*4C
$GPRMC,010205.7,A,3332.399452,N,11710.501212,W,44.9,149.6,290310,,,A*45
$GPRMC,010208.7,A,3332.366477,N,11710.478152,W,45.7,149.3,290310,,,A*4D
$GPRMC,010211.7,A,3332.332960,N,11710.455188,W,46.1,150.0,290310,,,A*49
$GPRMC,010214.7,A,3332.299137,N,11710.430963,W,50.3,147.3,290310,,,A*48
$GPRMC,010220.7,A,3332.214883,N,11710.372441,W,61.5,150.7,290310,,,A*46
$GPRMC,010223.7,A,3332.171701,N,11710.344064,W,58.7,151.1,290310,,,A*49
$GPRMC,010228.7,A,3332.101674,N,11710.297634,W,58.4,150.8,290310,,,A*41
$GPRMC,010231.7,A,3332.057078,N,11710.267504,W,62.7,150.2,290310,,,A*4E
$GPRMC,010235.7,A,3331.995166,N,11710.223282,W,65.6,149.6,290310,,,A*43
$GPRMC,010238.7,A,3331.948737,N,11710.191808,W,64.6,150.4,290310,,,A*45
$GPRMC,010241.7,A,3331.901450,N,11710.160011,W,64.7,150.8,290310,,,A*47
$GPRMC,010244.7,A,3331.854520,N,11710.129188,W,64.9,150.7,290310,,,A*48
$GPRMC,010247.7,A,3331.806918,N,11710.098415,W,64.9,151.2,290310,,,A*45
$GPRMC,010250.7,A,3331.760008,N,11710.068776,W,64.4,150.9,290310,,,A*4A
$GPRMC,010253.7,A,3331.712292,N,11710.036128,W,64.5,150.4,290310,,,A*47
$GPRMC,010256.7,A,3331.664393,N,11710.003986,W,65.4,151.0,290310,,,A*4D
$GPRMC,010259.7,A,3331.616066,N,11709.971822,W,65.7,151.2,290310,,,A*44
$GPRMC,010302.7,A,3331.567643,N,11709.940231,W,65.5,151.2,290310,,,A*47
$GPRMC,010305.7,A,3331.519817,N,11709.907242,W,65.7,150.6,290310,,,A*46
$GPRMC,010308.7,A,3331.472151,N,11709.874745,W,65.8,151.0,290310,,,A*43
$GPRMC,010311.7,A,3331.424603,N,11709.842879,W,65.3,151.0,290310,,,A*46
$GPRMC,010314.7,A,3331.378186,N,11709.812798,W,64.5,151.1,290310,,,A*44
$GPRMC,010317.7,A,3331.331602,N,11709.781158,W,64.3,150.6,290310,,,A*4E
$GPRMC,010320.7,A,3331.285827,N,11709.750258,W,63.6,150.6,290310,,,A*40
$GPRMC,010323.7,A,3331.239907,N,11709.720274,W,62.4,150.6,290310,,,A*4D
$GPRMC,010326.7,A,3331.195069,N,11709.690879,W,61.4,150.9,290310,,,A*4D
$GPRMC,010329.7,A,3331.150656,N,11709.659764,W,61.0,150.4,290310,,,A*4E
$GPRMC,010332.7,A,3331.104842,N,11709.630230,W,61.5,150.7,290310,,,A*43
$GPRMC,010335.7,A,3331.060521,N,11709.600285,W,61.5,150.4,290310,,,A*41
$GPRMC,010338.7,A,3331.016675,N,11709.569627,W,61.4,150.7,290310,,,A*4D
$GPRMC,010341.7,A,3330.972299,N,11709.539470,W,61.7,150.6,290310,,,A*48
$GPRMC,010344.7,A,3330.927718,N,11709.510835,W,61.3,151.1,290310,,,A*45
$GPRMC,010347.7,A,3330.883212,N,11709.482504,W,61.6,152.9,290310,,,A*4D
$GPRMC,010350.7,A,3330.835482,N,11709.456774,W,61.9,156.5,290310,,,A*42
$GPRMC,010353.7,A,3330.786529,N,11709.434344,W,62.4,159.0,290310,,,A*41
$GPRMC,010356.7,A,3330.737559,N,11709.412245,W,63.1,159.1,290310,,,A*48
$GPRMC,010359.7,A,3330.687735,N,11709.389470,W,63.6,159.4,290310,,,A*42
$GPRMC,010402.7,A,3330.637991,N,11709.367274,W,63.6,159.3,290310,,,A*45
$GPRMC,010405.7,A,3330.588993,N,11709.344397,W,63.1,159.0,290310,,,A*4E
$GPRMC,010408.7,A,3330.538211,N,11709.321010,W,64.1,159.2,290310,,,A*43
$GPRMC,010411.7,A,3330.488847,N,11709.298405,W,64.2,159.2,290310,,,A*48
$GPRMC,010414.7,A,3330.439711,N,11709.275639,W,63.0,159.1,290310,,,A*43
$GPRMC,010417.7,A,3330.391385,N,11709.254226,W,62.4,158.8,290310,,,A*48
$GPRMC,010420.7,A,3330.342735,N,11709.232557,W,62.3,159.1,290310,,,A*43
$GPRMC,010423.7,A,3330.293438,N,11709.210499,W,63.5,159.3,290310,,,A*45
$GPRMC,010426.7,A,3330.243415,N,11709.187804,W,63.9,159.1,290310,,,A*49
$GPRMC,010429.7,A,3330.194233,N,11709.164086,W,64.2,158.6,290310,,,A*48
$GPRMC,010432.7,A,3330.142812,N,11709.141816,W,66.1,159.3,290310,,,A*43
$GPRMC,010435.7,A,3330.092001,N,11709.118075,W,65.1,158.3,290310,,,A*41
$GPRMC,010438.7,A,3330.041907,N,11709.092957,W,65.2,157.1,290310,,,A*49
$GPRMC,010441.7,A,3329.994676,N,11709.064055,W,64.5,153.5,290310,,,A*43
$GPRMC,010444.7,A,3329.947997,N,11709.032542,W,63.6,150.6,290310,,,A*4C
$GPRMC,010447.7,A,3329.902236,N,11709.001026,W,64.3,147.7,290310,,,A*4C
$GPRMC,010450.7,A,3329.857380,N,11708.965499,W,64.2,145.2,290310,,,A*4B
$GPRMC,010453.7,A,3329.813931,N,11708.927521,W,64.4,142.7,290310,,,A*48
$GPRMC,010456.7,A,3329.772491,N,11708.886450,W,64.8,140.4,290310,,,A*42
$GPRMC,010459.7,A,3329.730352,N,11708.845271,W,66.3,140.4,290310,,,A*40
$GPRMC,010502.7,A,3329.686751,N,11708.804235,W,65.7,143.4,290310,,,A*45
$GPRMC,010505.7,A,3329.641298,N,11708.767948,W,64.5,149.2,290310,,,A*4D
$GPRMC,010508.7,A,3329.594260,N,11708.737482,W,64.1,153.0,290310,,,A*4F
$GPRMC,010511.7,A,3329.545279,N,11708.712126,W,63.8,159.0,290310,,,A*4B
$GPRMC,010514.7,A,3329.493968,N,11708.691465,W,65.3,161.8,290310,,,A*49
$GPRMC,010517.7,A,3329.441558,N,11708.671611,W,65.8,162.2,290310,,,A*47
$GPRMC,010520.7,A,3329.389253,N,11708.651987,W,65.7,162.3,290310,,,A*40
$GPRMC,010523.7,A,3329.337497,N,11708.633141,W,65.1,163.2,290310,,,A*48
$GPRMC,010526.7,A,3329.284501,N,11708.614776,W,65.8,163.5,290310,,,A*43
$GPRMC,010529.7,A,3329.231405,N,11708.596312,W,65.9,163.8,290310,,,A*44
$GPRMC,010532.7,A,3329.177919,N,11708.577563,W,65.7,163.5,290310,,,A*43
$GPRMC,010535.7,A,3329.125553,N,11708.559171,W,65.1,163.4,290310,,,A*4D
$GPRMC,010538.7,A,3329.073408,N,11708.540030,W,66.0,163.1,290310,,,A*46
$GPRMC,010541.7,A,3329.021289,N,11708.520752,W,65.0,163.1,290310,,,A*46
$GPRMC,010544.7,A,3328.970037,N,11708.502555,W,64.1,163.1,290310,,,A*4D
$GPRMC,010547.7,A,3328.918738,N,11708.485818,W,63.6,164.2,290310,,,A*46
$GPRMC,010550.7,A,3328.868886,N,11708.468367,W,62.9,163.7,290310,,,A*40
$GPRMC,010553.7,A,3328.818764,N,11708.448294,W,63.4,161.7,290310,,,A*46
$GPRMC,010556.7,A,3328.768121,N,11708.429754,W,63.4,162.4,290310,,,A*42
$GPRMC,010559.7,A,3328.718021,N,11708.410786,W,63.4,162.8,290310,,,A*42
$GPRMC,010602.7,A,3328.667186,N,11708.391883,W,63.7,162.8,290310,,,A*4D
$GPRMC,010605.7,A,3328.615687,N,11708.374966,W,64.8,163.6,290310,,,A*4F
$GPRMC,010608.7,A,3328.563756,N,11708.355447,W,66.2,163.4,290310,,,A*4A
$GPRMC,010611.7,A,3328.510377,N,11708.336171,W,66.2,163.2,290310,,,A*42
$GPRMC,010614.7,A,3328.458466,N,11708.316410,W,65.0,163.4,290310,,,A*4A
$GPRMC,010617.7,A,3328.407057,N,11708.298777,W,64.0,163.2,290310,,,A*47
$GPRMC,010620.7,A,3328.356320,N,11708.280661,W,63.0,163.1,290310,,,A*48
$GPRMC,010623.7,A,3328.306150,N,11708.262412,W,63.3,162.9,290310,,,A*4B
$GPRMC,010626.7,A,3328.255404,N,11708.245038,W,63.8,163.4,290310,,,A*43
$GPRMC,010629.7,A,3328.203992,N,11708.227860,W,63.5,164.7,290310,,,A*45
$GPRMC,010632.7,A,3328.152930,N,11708.214184,W,62.8,168.1,290310,,,A*45
$GPRMC,010635.7,A,3328.101080,N,11708.204504,W,63.7,171.7,290310,,,A*4B
$GPRMC,010638.7,A,3328.048411,N,11708.197357,W,63.5,173.9,290310,,,A*41
$GPRMC,010641.7,A,3327.995691,N,11708.191497,W,63.0,178.2,290310,,,A*4B
$GPRMC,010644.7,A,3327.942873,N,11708.190349,W,63.2,181.4,290310,,,A*41
$GPRMC,010647.7,A,3327.889272,N,11708.192287,W,64.1,182.4,290310,,,A*49
$GPRMC,010650.7,A,3327.835441,N,11708.194998,W,64.3,183.2,290310,,,A*48
$GPRMC,010653.7,A,3327.781384,N,11708.197264,W,63.9,180.8,290310,,,A*4A
$GPRMC,010656.7,A,3327.728185,N,11708.194884,W,64.0,176.7,290310,,,A*40
$GPRMC,010659.7,A,3327.675585,N,11708.189321,W,63.5,175.5,290310,,,A*49
$GPRMC,010702.7,A,3327.622176,N,11708.185111,W,63.3,175.7,290310,,,A*45
$GPRMC,010705.7,A,3327.569422,N,11708.180074,W,63.8,174.9,290310,,,A*49
$GPRMC,010708.7,A,3327.516512,N,11708.174934,W,64.6,175.2,290310,,,A*4B
$GPRMC,010711.7,A,3327.462729,N,11708.169585,W,65.0,175.0,290310,,,A*44
$GPRMC,010714.7,A,3327.408587,N,11708.164035,W,64.6,174.8,290310,,,A*46
$GPRMC,010717.7,A,3327.355471,N,11708.159279,W,63.8,175.4,290310,,,A*42
$GPRMC,010720.7,A,3327.302216,N,11708.156421,W,63.9,175.7,290310,,,A*45
$GPRMC,010723.7,A,3327.249543,N,11708.152514,W,64.0,175.5,290310,,,A*40
$GPRMC,010726.7,A,3327.195649,N,11708.145878,W,64.6,174.8,290310,,,A*45
$GPRMC,010729.7,A,3327.141433,N,11708.140308,W,63.9,175.5,290310,,,A*41
$GPRMC,010732.7,A,3327.085648,N,11708.133386,W,65.3,180.8,290310,,,A*45
$GPRMC,010735.7,A,3327.030138,N,11708.131179,W,66.0,182.3,290310,,,A*45
$GPRMC,010738.7,A,3326.974895,N,11708.137673,W,65.4,188.2,290310,,,A*49
$GPRMC,010741.7,A,3326.921592,N,11708.147848,W,64.9,190.6,290310,,,A*4D
$GPRMC,010744.7,A,3326.868229,N,11708.162651,W,65.3,194.1,290310,,,A*4A
$GPRMC,010747.7,A,3326.814937,N,11708.179770,W,65.8,195.1,290310,,,A*44
$GPRMC,010750.7,A,3326.760886,N,11708.196673,W,66.2,195.0,290310,,,A*4E
$GPRMC,010753.7,A,3326.707137,N,11708.215196,W,67.5,195.3,290310,,,A*4E
$GPRMC,010756.7,A,3326.652475,N,11708.231949,W,67.7,194.7,290310,,,A*42
$GPRMC,010759.7,A,3326.598195,N,11708.250452,W,67.5,195.1,290310,,,A*46
$GPRMC,010802.7,A,3326.544473,N,11708.267982,W,66.2,195.1,290310,,,A*49
$GPRMC,010805.7,A,3326.492144,N,11708.285729,W,65.1,196.8,290310,,,A*4C
$GPRMC,010808.7,A,3326.440662,N,11708.305571,W,65.1,199.0,290310,,,A*4C
$GPRMC,010811.7,A,3326.389818,N,11708.328476,W,64.5,200.7,290310,,,A*4D
$GPRMC,010814.7,A,3326.340406,N,11708.352799,W,63.8,202.6,290310,,,A*48
$GPRMC,010817.7,A,3326.291213,N,11708.378609,W,64.1,204.5,290310,,,A*4F
$GPRMC,010820.7,A,3326.243143,N,11708.405981,W,63.7,206.1,290310,,,A*47
$GPRMC,010823.7,A,3326.195744,N,11708.435101,W,64.6,208.2,290310,,,A*45
$GPRMC,010826.7,A,3326.148335,N,11708.466338,W,65.0,210.1,290310,,,A*41
$GPRMC,010829.7,A,3326.101865,N,11708.499751,W,65.2,211.9,290310,,,A*4D
$GPRMC,010832.7,A,3326.056334,N,11708.535036,W,65.4,213.8,290310,,,A*4F
$GPRMC,010835.7,A,3326.011436,N,11708.572012,W,65.7,215.8,290310,,,A*4E
$GPRMC,010838.7,A,3325.967232,N,11708.610872,W,65.8,216.8,290310,,,A*4F
$GPRMC,010841.7,A,3325.924321,N,11708.651991,W,66.5,218.8,290310,,,A*4C
$GPRMC,010844.7,A,3325.882379,N,11708.695251,W,67.1,220.9,290310,,,A*49
$GPRMC,010847.7,A,3325.840754,N,11708.740818,W,67.2,222.4,290310,,,A*4D
$GPRMC,010850.7,A,3325.801466,N,11708.787059,W,66.5,224.7,290310,,,A*49
$GPRMC,010853.7,A,3325.761289,N,11708.835149,W,67.6,225.4,290310,,,A*42
$GPRMC,010856.7,A,3325.721721,N,11708.882640,W,67.1,225.3,290310,,,A*46
$GPRMC,010859.7,A,3325.682252,N,11708.929425,W,66.3,224.7,290310,,,A*47
$GPRMC,010902.7,A,3325.643284,N,11708.972438,W,64.9,222.3,290310,,,A*46
$GPRMC,010905.7,A,3325.602281,N,11709.014557,W,64.0,218.7,290310,,,A*45
$GPRMC,010908.7,A,3325.559773,N,11709.054196,W,63.7,216.8,290310,,,A*41
$GPRMC,010911.7,A,3325.515353,N,11709.089171,W,64.7,212.5,290310,,,A*40
$GPRMC,010914.7,A,3325.469370,N,11709.122963,W,64.4,210.2,290310,,,A*43
$GPRMC,010917.7,A,3325.423201,N,11709.155640,W,64.8,210.3,290310,,,A*4A
$GPRMC,010920.7,A,3325.376465,N,11709.188743,W,65.6,210.4,290310,,,A*47
$GPRMC,010923.7,A,3325.329070,N,11709.221788,W,65.3,210.2,290310,,,A*4A
$GPRMC,010926.7,A,3325.282166,N,11709.254508,W,65.4,210.1,290310,,,A*45
$GPRMC,010929.7,A,3325.235326,N,11709.286732,W,64.6,210.1,290310,,,A*47
$GPRMC,010932.7,A,3325.188472,N,11709.319196,W,65.1,210.7,290310,,,A*41
$GPRMC,010935.7,A,3325.141744,N,11709.352189,W,65.0,211.3,290310,,,A*40
$GPRMC,010938.7,A,3325.095238,N,11709.385743,W,65.0,211.6,290310,,,A*44
$GPRMC,010941.7,A,3325.048968,N,11709.419462,W,64.7,211.7,290310,,,A*41
$GPRMC,010944.7,A,3325.002859,N,11709.453462,W,65.1,211.7,290310,,,A*40
$GPRMC,010947.7,A,3324.956506,N,11709.487467,W,65.3,211.6,290310,,,A*42
$GPRMC,010950.7,A,3324.910126,N,11709.521177,W,65.2,211.6,290310,,,A*48
$GPRMC,010953.7,A,3324.864119,N,11709.555078,W,64.4,211.5,290310,,,A*4C
$GPRMC,010956.7,A,3324.818987,N,11709.588264,W,63.5,211.7,290310,,,A*46
$GPRMC,010959.7,A,3324.773965,N,11709.621237,W,63.1,211.7,290310,,,A*45
$GPRMC,011002.7,A,3324.729018,N,11709.654477,W,64.2,211.7,290310,,,A*4B
$GPRMC,011005.7,A,3324.683059,N,11709.688052,W,65.0,211.6,290310,,,A*48
$GPRMC,011008.7,A,3324.637020,N,11709.722386,W,64.7,211.6,290310,,,A*49
$GPRMC,011011.7,A,3324.591134,N,11709.756361,W,64.7,211.6,290310,,,A*40
$GPRMC,011014.7,A,3324.544863,N,11709.790593,W,65.8,211.8,290310,,,A*47
$GPRMC,011017.7,A,3324.497891,N,11709.825385,W,66.1,212.1,290310,,,A*46
$GPRMC,011020.7,A,3324.451984,N,11709.861017,W,65.2,213.7,290310,,,A*42
$GPRMC,011023.7,A,3324.406962,N,11709.897454,W,65.1,214.6,290310,,,A*44
$GPRMC,011026.7,A,3324.361979,N,11709.935144,W,66.5,215.3,290310,,,A*43
$GPRMC,011029.7,A,3324.316516,N,11709.973858,W,66.7,215.1,290310,,,A*4F
$GPRMC,011032.7,A,3324.271510,N,11710.011598,W,64.8,215.3,290310,,,A*48
$GPRMC,011035.7,A,3324.227446,N,11710.048641,W,65.0,215.2,290310,,,A*4D
$GPRMC,011038.7,A,3324.182838,N,11710.086349,W,66.5,215.8,290310,,,A*4A
$GPRMC,011041.7,A,3324.137453,N,11710.124154,W,65.6,213.8,290310,,,A*4A
$GPRMC,011044.7,A,3324.092271,N,11710.158704,W,62.0,211.8,290310,,,A*4C
$GPRMC,011047.7,A,3324.048227,N,11710.190356,W,61.3,210.5,290310,,,A*40
$GPRMC,011050.7,A,3324.003929,N,11710.220693,W,61.9,209.5,290310,,,A*4A
$GPRMC,011053.7,A,3323.958222,N,11710.250872,W,63.0,208.5,290310,,,A*45
$GPRMC,011056.7,A,3323.911720,N,11710.280282,W,63.5,207.2,290310,,,A*4F
$GPRMC,011059.7,A,3323.863709,N,11710.308977,W,64.0,206.0,290310,,,A*4E
$GPRMC,011102.7,A,3323.816536,N,11710.335921,W,61.3,204.9,290310,,,A*4D
$GPRMC,011105.7,A,3323.769524,N,11710.361097,W,61.5,203.7,290310,,,A*44
$GPRMC,011108.7,A,3323.722625,N,11710.384639,W,60.9,201.4,290310,,,A*41
$GPRMC,011111.7,A,3323.674396,N,11710.405668,W,62.8,199.1,290310,,,A*48
$GPRMC,011114.7,A,3323.623967,N,11710.424810,W,64.1,196.4,290310,,,A*4C
$GPRMC,011117.7,A,3323.572266,N,11710.441900,W,64.5,194.5,290310,,,A*46
$GPRMC,011120.7,A,3323.519968,N,11710.456694,W,64.4,192.7,290310,,,A*4B
$GPRMC,011123.7,A,3323.467282,N,11710.469036,W,64.6,190.5,290310,,,A*4F
$GPRMC,011126.7,A,3323.414087,N,11710.480244,W,65.9,189.0,290310,,,A*4A
$GPRMC,011129.7,A,3323.359820,N,11710.487468,W,64.3,185.8,290310,,,A*4E
$GPRMC,011132.7,A,3323.305094,N,11710.491482,W,67.1,182.0,290310,,,A*47
$GPRMC,011135.7,A,3323.249319,N,11710.492299,W,67.5,180.2,290310,,,A*44
$GPRMC,011138.7,A,3323.193274,N,11710.490972,W,67.0,178.8,290310,,,A*43
$GPRMC,011141.7,A,3323.137093,N,11710.486534,W,68.6,175.7,290310,,,A*4A
$GPRMC,011144.7,A,3323.078449,N,11710.479034,W,70.9,173.4,290310,,,A*40
$GPRMC,011147.7,A,3323.019664,N,11710.469204,W,71.2,171.3,290310,,,A*46
$GPRMC,011150.7,A,3322.960888,N,11710.456532,W,71.4,168.7,290310,,,A*4E
$GPRMC,011153.7,A,3322.903155,N,11710.440350,W,70.4,166.7,290310,,,A*4B
$GPRMC,011156.7,A,3322.848914,N,11710.421954,W,67.7,162.9,290310,,,A*4B
$GPRMC,011159.7,A,3322.794742,N,11710.401704,W,67.3,161.5,290310,,,A*45
$GPRMC,011202.7,A,3322.742261,N,11710.378145,W,67.3,158.5,290310,,,A*47
$GPRMC,011205.7,A,3322.690860,N,11710.353338,W,66.6,156.6,290310,,,A*4D
$GPRMC,011208.7,A,3322.643126,N,11710.324536,W,64.9,153.5,290310,,,A*46
$GPRMC,011211.7,A,3322.595504,N,11710.294322,W,65.2,151.3,290310,,,A*45
$GPRMC,011214.7,A,3322.548882,N,11710.262563,W,65.6,149.6,290310,,,A*41
$GPRMC,011217.7,A,3322.503781,N,11710.228994,W,64.4,147.4,290310,,,A*44
$GPRMC,011220.7,A,3322.460677,N,11710.191889,W,63.9,144.3,290310,,,A*4E
$GPRMC,011223.7,A,3322.419435,N,11710.153438,W,63.5,142.0,290310,,,A*46
$GPRMC,011226.7,A,3322.377655,N,11710.112826,W,65.2,139.4,290310,,,A*47
$GPRMC,011229.7,A,3322.336330,N,11710.068594,W,66.0,137.7,290310,,,A*4F
$GPRMC,011232.7,A,3322.296018,N,11710.024970,W,64.7,137.5,290310,,,A*4E
$GPRMC,011235.7,A,3322.257946,N,11709.985334,W,60.6,138.1,290310,,,A*48
$GPRMC,011238.7,A,3322.222218,N,11709.943099,W,60.7,137.5,290310,,,A*43
$GPRMC,011241.7,A,3322.183950,N,11709.900724,W,62.5,138.8,290310,,,A*46
$GPRMC,011244.7,A,3322.142646,N,11709.861462,W,62.9,141.6,290310,,,A*4D
$GPRMC,011247.7,A,3322.101138,N,11709.824712,W,63.7,143.8,290310,,,A*41
$GPRMC,011250.7,A,3322.058674,N,11709.790950,W,64.2,145.8,290310,,,A*49
$GPRMC,011253.7,A,3322.012226,N,11709.758053,W,64.7,148.0,290310,,,A*49
$GPRMC,011256.7,A,3321.965379,N,11709.727068,W,65.0,150.5,290310,,,A*47
$GPRMC,011259.7,A,3321.917359,N,11709.698465,W,64.8,152.4,290310,,,A*49
$GPRMC,011302.7,A,3321.867884,N,11709.671762,W,65.3,155.2,290310,,,A*43
$GPRMC,011305.7,A,3321.816434,N,11709.647379,W,65.6,157.6,290310,,,A*4D
$GPRMC,011308.7,A,3321.766978,N,11709.626078,W,62.5,160.0,290310,,,A*4E
$GPRMC,011311.7,A,3321.720512,N,11709.606317,W,59.0,162.3,290310,,,A*40
$GPRMC,011314.7,A,3321.674455,N,11709.591230,W,59.7,165.1,290310,,,A*4C
$GPRMC,011317.7,A,3321.625961,N,11709.576110,W,61.5,167.0,290310,,,A*43
$GPRMC,011320.7,A,3321.575360,N,11709.563564,W,62.7,168.6,290310,,,A*41
$GPRMC,011323.7,A,3321.524077,N,11709.552981,W,63.1,170.8,290310,,,A*46
$GPRMC,011326.7,A,3321.472207,N,11709.546816,W,62.8,173.6,290310,,,A*4B
$GPRMC,011329.7,A,3321.420646,N,11709.541535,W,62.1,176.3,290310,,,A*40
$GPRMC,011332.7,A,3321.369215,N,11709.538622,W,61.6,177.7,290310,,,A*48
$GPRMC,011335.7,A,3321.318974,N,11709.541184,W,61.4,180.9,290310,,,A*44
$GPRMC,011338.7,A,3321.267561,N,11709.544237,W,61.8,181.5,290310,,,A*47
$GPRMC,011341.7,A,3321.216214,N,11709.545418,W,62.1,180.7,290310,,,A*49
$GPRMC,011344.7,A,3321.165239,N,11709.548491,W,61.8,181.5,290310,,,A*41
$GPRMC,011347.7,A,3321.115131,N,11709.549234,W,61.2,181.1,290310,,,A*48
$GPRMC,011350.7,A,3321.064682,N,11709.550111,W,60.7,180.8,290310,,,A*46
$GPRMC,011353.7,A,3321.013761,N,11709.551373,W,61.7,180.9,290310,,,A*4E
$GPRMC,011356.7,A,3320.962425,N,11709.551214,W,61.8,180.8,290310,,,A*48
$GPRMC,011359.7,A,3320.909811,N,11709.551433,W,62.0,181.0,290310,,,A*40
$GPRMC,011402.7,A,3320.859047,N,11709.553815,W,60.9,181.2,290310,,,A*45
$GPRMC,011405.7,A,3320.807753,N,11709.554868,W,60.8,180.9,290310,,,A*4D
$GPRMC,011408.7,A,3320.757918,N,11709.556512,W,60.1,181.4,290310,,,A*4C
$GPRMC,011411.7,A,3320.707747,N,11709.557428,W,60.2,180.7,290310,,,A*4D
$GPRMC,011414.7,A,3320.658204,N,11709.556888,W,60.1,181.2,290310,,,A*41
$GPRMC,011417.7,A,3320.608063,N,11709.557403,W,60.7,180.6,290310,,,A*49
$GPRMC,011420.7,A,3320.557252,N,11709.558013,W,61.2,180.7,290310,,,A*4B
$GPRMC,011423.7,A,3320.507070,N,11709.558641,W,60.6,180.9,290310,,,A*45
$GPRMC,011426.7,A,3320.455262,N,11709.558550,W,60.4,181.0,290310,,,A*4E
$GPRMC,011429.7,A,3320.405117,N,11709.559499,W,60.0,180.7,290310,,,A*42
$GPRMC,011432.7,A,3320.354649,N,11709.560195,W,60.5,180.7,290310,,,A*41
$GPRMC,011435.7,A,3320.305446,N,11709.561123,W,60.4,181.0,290310,,,A*44
$GPRMC,011438.7,A,3320.256038,N,11709.561640,W,59.7,181.0,290310,,,A*48
$GPRMC,011441.7,A,3320.206039,N,11709.561792,W,59.7,180.8,290310,,,A*45
$GPRMC,011444.7,A,3320.156768,N,11709.563610,W,59.4,180.9,290310,,,A*4E
$GPRMC,011447.7,A,3320.105995,N,11709.564491,W,60.3,180.8,290310,,,A*47
$GPRMC,011450.7,A,3320.055624,N,11709.566094,W,61.0,180.8,290310,,,A*41
$GPRMC,011453.7,A,3320.003265,N,11709.566980,W,62.2,181.0,290310,,,A*44
$GPRMC,011456.7,A,3319.951274,N,11709.567917,W,62.7,180.5,290310,,,A*4B
$GPRMC,011459.7,A,3319.898701,N,11709.568385,W,62.4,180.9,290310,,,A*46
$GPRMC,011502.7,A,3319.846416,N,11709.570052,W,62.1,180.9,290310,,,A*4A
$GPRMC,011505.7,A,3319.796245,N,11709.570712,W,61.7,180.3,290310,,,A*43
$GPRMC,011508.7,A,3319.743701,N,11709.569257,W,62.4,178.4,290310,,,A*4F
$GPRMC,011511.7,A,3319.692355,N,11709.564339,W,62.4,175.8,290310,,,A*4A
$GPRMC,011514.7,A,3319.639920,N,11709.557238,W,62.5,173.5,290310,,,A*4C
$GPRMC,011517.7,A,3319.588203,N,11709.548728,W,62.2,171.7,290310,,,A*41
$GPRMC,011520.7,A,3319.535418,N,11709.537096,W,63.7,168.8,290310,,,A*46
$GPRMC,011523.7,A,3319.483620,N,11709.523685,W,63.4,166.9,290310,,,A*4D
$GPRMC,011526.7,A,3319.432594,N,11709.507055,W,62.6,164.3,290310,,,A*48
$GPRMC,011529.7,A,3319.384932,N,11709.484899,W,61.7,161.1,290310,,,A*4A
$GPRMC,011532.7,A,3319.336874,N,11709.462668,W,61.9,158.6,290310,,,A*41
$GPRMC,011535.7,A,3319.288519,N,11709.441045,W,60.4,157.8,290310,,,A*41
$GPRMC,011538.7,A,3319.242807,N,11709.414901,W,60.3,154.6,290310,,,A*4B
$GPRMC,011541.7,A,3319.198417,N,11709.388320,W,60.5,153.0,290310,,,A*40
$GPRMC,011544.7,A,3319.153497,N,11709.360618,W,60.6,152.2,290310,,,A*42
$GPRMC,011547.7,A,3319.109823,N,11709.334401,W,59.9,153.1,290310,,,A*41
$GPRMC,011550.7,A,3319.064690,N,11709.306287,W,60.1,152.8,290310,,,A*48
$GPRMC,011553.7,A,3319.019340,N,11709.279929,W,60.2,153.6,290310,,,A*43
$GPRMC,011556.7,A,3318.973541,N,11709.252096,W,61.0,153.2,290310,,,A*46
$GPRMC,011559.7,A,3318.928834,N,11709.224217,W,61.1,152.7,290310,,,A*47
$GPRMC,011602.7,A,3318.883382,N,11709.196708,W,60.7,153.7,290310,,,A*4B
$GPRMC,011605.7,A,3318.836945,N,11709.171196,W,61.6,156.1,290310,,,A*48
$GPRMC,011608.7,A,3318.788325,N,11709.145812,W,62.3,158.3,290310,,,A*4B
$GPRMC,011611.7,A,3318.740470,N,11709.119938,W,62.1,159.6,290310,,,A*46
$GPRMC,011614.7,A,3318.691153,N,11709.099609,W,61.8,162.4,290310,,,A*4E
$GPRMC,011617.7,A,3318.638716,N,11709.084477,W,63.1,165.6,290310,,,A*40
$GPRMC,011620.7,A,3318.586860,N,11709.068983,W,63.3,167.8,290310,,,A*46
$GPRMC,011623.7,A,3318.532779,N,11709.055249,W,63.5,169.1,290310,,,A*4F
$GPRMC,011626.7,A,3318.479162,N,11709.044849,W,63.2,171.5,290310,,,A*48
$GPRMC,011629.7,A,3318.427171,N,11709.037238,W,62.9,173.7,290310,,,A*4C
$GPRMC,011632.7,A,3318.373862,N,11709.034292,W,63.4,178.1,290310,,,A*49
$GPRMC,011635.7,A,3318.321333,N,11709.032436,W,63.1,177.2,290310,,,A*41
$GPRMC,011638.7,A,3318.268519,N,11709.030794,W,62.9,177.5,290310,,,A*49
$GPRMC,011641.7,A,3318.215873,N,11709.026949,W,63.0,177.2,290310,,,A*4A
$GPRMC,011644.7,A,3318.163174,N,11709.024809,W,63.1,177.8,290310,,,A*4F
$GPRMC,011647.7,A,3318.110175,N,11709.023121,W,63.5,177.4,290310,,,A*45
$GPRMC,011650.7,A,3318.056774,N,11709.020405,W,63.8,177.8,290310,,,A*46
$GPRMC,011653.7,A,3318.003508,N,11709.017690,W,64.2,177.2,290310,,,A*41
$GPRMC,011656.7,A,3317.950298,N,11709.015003,W,64.3,177.1,290310,,,A*46
$GPRMC,011659.7,A,3317.897734,N,11709.013295,W,63.0,177.8,290310,,,A*46
$GPRMC,011702.7,A,3317.845206,N,11709.009885,W,62.1,177.3,290310,,,A*49
$GPRMC,011705.7,A,3317.793493,N,11709.007046,W,62.1,177.8,290310,,,A*42
$GPRMC,011708.7,A,3317.739790,N,11709.004386,W,63.9,177.9,290310,,,A*4B
$GPRMC,011711.7,A,3317.686950,N,11709.001098,W,63.8,176.7,290310,,,A*43
$GPRMC,011714.7,A,3317.633883,N,11708.996380,W,63.3,177.2,290310,,,A*44
$GPRMC,011717.7,A,3317.580324,N,11708.993351,W,64.0,178.2,290310,,,A*48
$GPRMC,011720.7,A,3317.526765,N,11708.989537,W,63.8,177.3,290310,,,A*4D
$GPRMC,011723.7,A,3317.473310,N,11708.984359,W,63.8,177.1,290310,,,A*48
$GPRMC,011726.7,A,3317.419602,N,11708.979413,W,64.2,176.7,290310,,,A*46
$GPRMC,011729.7,A,3317.364639,N,11708.974904,W,64.3,177.6,290310,,,A*4B
$GPRMC,011732.7,A,3317.310111,N,11708.973946,W,65.1,180.7,290310,,,A*44
$GPRMC,011735.7,A,3317.255758,N,11708.976096,W,65.7,183.0,290310,,,A*4B
$GPRMC,011738.7,A,3317.200894,N,11708.982100,W,66.1,185.5,290310,,,A*4A
$GPRMC,011741.7,A,3317.146983,N,11708.990394,W,65.2,188.4,290310,,,A*42
$GPRMC,011744.7,A,3317.093512,N,11709.003054,W,64.9,191.5,290310,,,A*44
$GPRMC,011747.7,A,3317.041328,N,11709.017322,W,64.6,193.9,290310,,,A*41
$GPRMC,011750.7,A,3316.989972,N,11709.034562,W,63.3,196.1,290310,,,A*42
$GPRMC,011753.7,A,3316.941467,N,11709.053805,W,61.3,199.0,290310,,,A*4D
$GPRMC,011756.7,A,3316.893431,N,11709.075886,W,60.2,202.3,290310,,,A*48
$GPRMC,011759.7,A,3316.847710,N,11709.100201,W,59.7,204.6,290310,,,A*44
$GPRMC,011802.7,A,3316.802926,N,11709.125811,W,59.8,205.8,290310,,,A*43
$GPRMC,011805.7,A,3316.757937,N,11709.152042,W,60.0,206.2,290310,,,A*4E
$GPRMC,011808.7,A,3316.713028,N,11709.177813,W,60.0,205.7,290310,,,A*49
$GPRMC,011811.7,A,3316.667891,N,11709.203769,W,60.4,206.1,290310,,,A*4A
$GPRMC,011814.7,A,3316.622534,N,11709.230574,W,60.4,206.1,290310,,,A*42
$GPRMC,011817.7,A,3316.577481,N,11709.256839,W,60.0,206.2,290310,,,A*4E
$GPRMC,011820.7,A,3316.532433,N,11709.282672,W,60.3,205.8,290310,,,A*40
$GPRMC,011823.7,A,3316.486749,N,11709.308485,W,61.2,206.1,290310,,,A*40
$GPRMC,011826.7,A,3316.441230,N,11709.334590,W,60.5,205.5,290310,,,A*4E
$GPRMC,011829.7,A,3316.395419,N,11709.360673,W,61.5,206.2,290310,,,A*48
$GPRMC,011832.7,A,3316.348913,N,11709.387220,W,62.0,204.7,290310,,,A*4F
$GPRMC,011835.7,A,3316.301215,N,11709.412235,W,62.7,203.2,290310,,,A*42
$GPRMC,011838.7,A,3316.253303,N,11709.434905,W,61.7,201.1,290310,,,A*41
$GPRMC,011841.7,A,3316.204502,N,11709.455337,W,62.7,198.2,290310,,,A*45
$GPRMC,011844.7,A,3316.154255,N,11709.473941,W,63.1,196.8,290310,,,A*4F
$GPRMC,011847.7,A,3316.103825,N,11709.489327,W,62.1,193.7,290310,,,A*47
$GPRMC,011850.7,A,3316.054062,N,11709.502756,W,61.4,192.2,290310,,,A*4B
$GPRMC,011853.7,A,3316.003632,N,11709.513474,W,60.3,189.7,290310,,,A*43
$GPRMC,011856.7,A,3315.953838,N,11709.523143,W,60.0,187.9,290310,,,A*4C
$GPRMC,011859.7,A,3315.903420,N,11709.528683,W,60.0,185.8,290310,,,A*40
$GPRMC,011902.7,A,3315.854466,N,11709.530365,W,57.3,181.9,290310,,,A*48
$GPRMC,011905.7,A,3315.807463,N,11709.531938,W,56.0,181.4,290310,,,A*40
$GPRMC,011908.7,A,3315.761579,N,11709.532832,W,54.7,180.6,290310,,,A*46
$GPRMC,011911.7,A,3315.717088,N,11709.531440,W,53.1,178.6,290310,,,A*48
$GPRMC,011914.7,A,3315.672642,N,11709.528791,W,51.6,176.7,290310,,,A*42
$GPRMC,011917.7,A,3315.629883,N,11709.523495,W,51.8,173.7,290310,,,A*4B
$GPRMC,011920.7,A,3315.587223,N,11709.515256,W,52.0,171.9,290310,,,A*43
$GPRMC,011923.7,A,3315.543832,N,11709.505747,W,52.9,170.4,290310,,,A*43
$GPRMC,011926.7,A,3315.499865,N,11709.496320,W,54.8,168.4,290310,,,A*42
$GPRMC,011929.7,A,3315.453710,N,11709.484462,W,56.0,167.5,290310,,,A*40
$GPRMC,011932.7,A,3315.408291,N,11709.468796,W,56.7,164.3,290310,,,A*40
$GPRMC,011935.7,A,3315.362405,N,11709.451523,W,58.6,162.2,290310,,,A*49
$GPRMC,011938.7,A,3315.314520,N,11709.431370,W,60.4,160.6,290310,,,A*4A
$GPRMC,011941.7,A,3315.267841,N,11709.410409,W,60.6,160.0,290310,,,A*45
$GPRMC,011944.7,A,3315.221693,N,11709.389198,W,60.0,159.8,290310,,,A*4D
$GPRMC,011947.7,A,3315.174323,N,11709.368295,W,59.7,159.7,290310,,,A*40
$GPRMC,011950.7,A,3315.127486,N,11709.347947,W,59.5,159.3,290310,,,A*47
$GPRMC,011953.7,A,3315.079010,N,11709.327429,W,60.4,159.5,290310,,,A*4B
$GPRMC,011956.7,A,3315.031252,N,11709.308441,W,60.9,159.9,290310,,,A*44
$GPRMC,011959.7,A,3314.984178,N,11709.287828,W,60.7,159.3,290310,,,A*47
$GPRMC,012002.7,A,3314.934892,N,11709.267129,W,61.9,160.1,290310,,,A*44
$GPRMC,012005.7,A,3314.886332,N,11709.247674,W,61.6,160.9,290310,,,A*40
$GPRMC,012008.7,A,3314.838062,N,11709.228137,W,61.9,161.1,290310,,,A*41
$GPRMC,012011.7,A,3314.788133,N,11709.206685,W,62.9,161.1,290310,,,A*49
$GPRMC,012014.7,A,3314.737855,N,11709.186423,W,63.2,161.3,290310,,,A*4C
$GPRMC,012017.7,A,3314.689643,N,11709.165896,W,61.6,160.0,290310,,,A*49
$GPRMC,012020.7,A,3314.639895,N,11709.146106,W,62.3,160.3,290310,,,A*47
$GPRMC,012023.7,A,3314.591077,N,11709.127688,W,62.5,161.4,290310,,,A*47
$GPRMC,012026.7,A,3314.540286,N,11709.106611,W,63.2,161.2,290310,,,A*41
$GPRMC,012029.7,A,3314.490224,N,11709.085293,W,63.9,160.1,290310,,,A*47
$GPRMC,012032.7,A,3314.438408,N,11709.064106,W,64.3,162.2,290310,,,A*4B
$GPRMC,012035.7,A,3314.388677,N,11709.042273,W,63.9,161.3,290310,,,A*40
$GPRMC,012038.7,A,3314.338860,N,11709.021199,W,63.4,160.4,290310,,,A*47
$GPRMC,012041.7,A,3314.289885,N,11708.999427,W,62.5,159.4,290310,,,A*48
$GPRMC,012044.7,A,3314.240610,N,11708.977915,W,63.1,160.1,290310,,,A*4C
$GPRMC,012047.7,A,3314.190738,N,11708.954561,W,63.9,160.2,290310,,,A*4F
$GPRMC,012050.7,A,3314.142016,N,11708.933751,W,63.1,160.2,290310,,,A*45
$GPRMC,012053.7,A,3314.092892,N,11708.914600,W,62.2,160.7,290310,,,A*49
