NMEA Sentence Code,UTC Time,Status,Latitude,Latitude Direction,Longitude,Longitude Direction,Speed (knots),Track Angle (degrees true),Date,MagneticVariation,Magnetic Variation Direction,[FAA Mode]-Optional,Checksum
$GPRMC,014523.2,A,3347.635544,N,11729.970637,W,52.1,149.2,231210,,,A*42
$GPRMC,014527.2,A,3347.589383,N,11729.937217,W,49.3,148.9,231210,,,A*48
$GPRMC,014530.9,A,3347.548353,N,11729.905975,W,49.0,147.3,231210,,,A*4D
$GPRMC,014534.2,A,3347.511047,N,11729.876372,W,50.0,147.3,231210,,,A*48
$GPRMC,014537.9,A,3347.463615,N,11729.841503,W,53.7,146.3,231210,,,A*44
$GPRMC,014540.9,A,3347.425490,N,11729.812363,W,53.8,146.7,231210,,,A*44
$GPRMC,014543.9,A,3347.386862,N,11729.783129,W,54.3,147.0,231210,,,A*49
$GPRMC,014546.9,A,3347.349611,N,11729.755430,W,52.5,146.6,231210,,,A*44
$GPRMC,014549.9,A,3347.312024,N,11729.724806,W,52.9,146.9,231210,,,A*49
$GPRMC,014552.9,A,3347.276637,N,11729.697337,W,52.2,147.4,231210,,,A*43
$GPRMC,014555.9,A,3347.238836,N,11729.670295,W,52.4,148.1,231210,,,A*4D
$GPRMC,014558.9,A,3347.205056,N,11729.640754,W,49.6,146.9,231210,,,A*45
$GPRMC,014601.9,A,3347.174350,N,11729.615056,W,45.9,147.0,231210,,,A*44
$GPRMC,014604.9,A,3347.141668,N,11729.592742,W,43.5,147.5,231210,,,A*48
$GPRMC,014607.0,A,3347.121718,N,11729.576528,W,42.0,148.2,231210,,,A*4A
$GPRMC,014610.2,A,3347.090925,N,11729.553461,W,39.6,147.6,231210,,,A*4F
$GPRMC,014613.2,A,3347.063079,N,11729.530520,W,39.9,147.4,231210,,,A*4C
$GPRMC,014616.9,A,3347.028084,N,11729.507231,W,39.8,148.6,231210,,,A*40
$GPRMC,014619.0,A,3347.010495,N,11729.494480,W,37.7,152.0,231210,,,A*42
$GPRMC,014622.9,A,3346.971777,N,11729.467269,W,40.3,150.7,231210,,,A*4F
$GPRMC,014625.9,A,3346.940356,N,11729.452200,W,40.6,153.6,231210,,,A*43
$GPRMC,014628.9,A,3346.910507,N,11729.433014,W,40.2,152.2,231210,,,A*48
$GPRMC,014631.9,A,3346.882552,N,11729.412645,W,39.3,152.6,231210,,,A*40
$GPRMC,014634.9,A,3346.851563,N,11729.396419,W,40.4,154.3,231210,,,A*43
$GPRMC,014637.9,A,3346.821475,N,11729.377668,W,41.3,152.7,231210,,,A*4E
$GPRMC,014640.9,A,3346.789037,N,11729.360019,W,42.0,153.9,231210,,,A*48
$GPRMC,014643.9,A,3346.758058,N,11729.338916,W,43.1,153.0,231210,,,A*4C
$GPRMC,014646.9,A,3346.725633,N,11729.318299,W,43.9,152.7,231210,,,A*48
$GPRMC,014649.9,A,3346.692016,N,11729.297202,W,44.0,152.8,231210,,,A*4E
$GPRMC,014652.9,A,3346.660309,N,11729.276597,W,42.3,152.8,231210,,,A*45
$GPRMC,014655.9,A,3346.629750,N,11729.258211,W,40.5,153.1,231210,,,A*4E
$GPRMC,014658.9,A,3346.597793,N,11729.242836,W,40.6,154.3,231210,,,A*48
$GPRMC,014701.9,A,3346.567971,N,11729.224272,W,40.2,153.4,231210,,,A*46
$GPRMC,014704.9,A,3346.537472,N,11729.204947,W,41.9,153.2,231210,,,A*4B
$GPRMC,014707.9,A,3346.502829,N,11729.183002,W,46.1,152.9,231210,,,A*4D
$GPRMC,014710.9,A,3346.468512,N,11729.163811,W,45.3,152.9,231210,,,A*46
$GPRMC,014713.9,A,3346.436131,N,11729.145573,W,44.9,153.6,231210,,,A*43
$GPRMC,014716.9,A,3346.400545,N,11729.122776,W,47.6,152.3,231210,,,A*4A
$GPRMC,014719.9,A,3346.365776,N,11729.098329,W,47.4,149.5,231210,,,A*43
$GPRMC,014722.0,A,3346.343292,N,11729.080228,W,48.1,146.8,231210,,,A*48
$GPRMC,014725.2,A,3346.305463,N,11729.049884,W,49.4,144.2,231210,,,A*42
$GPRMC,014728.2,A,3346.274184,N,11729.019051,W,47.9,140.8,231210,,,A*4C
$GPRMC,014731.0,A,3346.246521,N,11728.991767,W,47.1,141.2,231210,,,A*45
$GPRMC,014734.9,A,3346.215789,N,11728.949599,W,43.8,134.0,231210,,,A*44
$GPRMC,014737.9,A,3346.194210,N,11728.920271,W,40.8,130.3,231210,,,A*42
$GPRMC,014740.9,A,3346.174901,N,11728.890434,W,38.1,126.7,231210,,,A*4F
$GPRMC,014743.9,A,3346.156977,N,11728.861504,W,35.6,126.7,231210,,,A*4B
$GPRMC,014746.9,A,3346.139637,N,11728.832215,W,37.7,125.7,231210,,,A*4D
$GPRMC,014749.9,A,3346.121704,N,11728.800714,W,39.4,124.6,231210,,,A*42
$GPRMC,014752.9,A,3346.100717,N,11728.768031,W,41.6,127.5,231210,,,A*45
$GPRMC,014755.9,A,3346.077576,N,11728.734334,W,43.3,129.3,231210,,,A*46
$GPRMC,014758.9,A,3346.049094,N,11728.698812,W,46.4,133.8,231210,,,A*45
$GPRMC,014801.9,A,3346.022749,N,11728.666695,W,46.3,136.4,231210,,,A*42
$GPRMC,014804.9,A,3345.992570,N,11728.633651,W,48.5,138.2,231210,,,A*46
$GPRMC,014807.9,A,3345.961618,N,11728.604540,W,47.8,140.5,231210,,,A*49
$GPRMC,014810.9,A,3345.931107,N,11728.576658,W,47.2,141.5,231210,,,A*44
$GPRMC,014813.9,A,3345.889755,N,11728.543616,W,50.9,144.6,231210,,,A*43
$GPRMC,014816.2,A,3345.864767,N,11728.522887,W,50.3,142.5,231210,,,A*41
$GPRMC,014819.9,A,3345.823677,N,11728.481632,W,52.4,138.7,231210,,,A*44
$GPRMC,014822.9,A,3345.794400,N,11728.447408,W,50.3,135.3,231210,,,A*40
$GPRMC,014825.9,A,3345.768722,N,11728.406664,W,50.0,130.1,231210,,,A*4E
$GPRMC,014828.9,A,3345.743795,N,11728.371745,W,48.9,128.2,231210,,,A*49
$GPRMC,014831.9,A,3345.718999,N,11728.331462,W,50.4,124.3,231210,,,A*46
$GPRMC,014834.9,A,3345.697786,N,11728.289869,W,49.4,120.7,231210,,,A*48
$GPRMC,014837.9,A,3345.678341,N,11728.247067,W,50.4,116.7,231210,,,A*4C
$GPRMC,014840.9,A,3345.662983,N,11728.202947,W,49.6,112.4,231210,,,A*44
$GPRMC,014843.9,A,3345.646280,N,11728.156037,W,50.7,111.7,231210,,,A*4C
$GPRMC,014846.9,A,3345.636597,N,11728.110706,W,49.4,107.7,231210,,,A*44
$GPRMC,014849.9,A,3345.618331,N,11728.059089,W,52.2,109.3,231210,,,A*47
$GPRMC,014853.2,A,3345.604267,N,11728.007970,W,49.1,109.4,231210,,,A*42
$GPRMC,014856.0,A,3345.586257,N,11727.962798,W,51.5,115.6,231210,,,A*40
$GPRMC,014859.9,A,3345.557928,N,11727.903289,W,51.2,119.8,231210,,,A*4E
$GPRMC,014902.9,A,3345.535617,N,11727.859680,W,50.9,123.4,231210,,,A*4A
$GPRMC,014905.9,A,3345.512514,N,11727.820948,W,50.0,126.8,231210,,,A*4D
$GPRMC,014908.9,A,3345.483626,N,11727.779835,W,52.0,128.1,231210,,,A*46
$GPRMC,014911.9,A,3345.456542,N,11727.738532,W,52.9,128.3,231210,,,A*43
$GPRMC,014914.9,A,3345.429873,N,11727.697275,W,53.4,128.1,231210,,,A*4F
$GPRMC,014917.9,A,3345.401123,N,11727.654309,W,53.9,127.8,231210,,,A*44
$GPRMC,014920.9,A,3345.373589,N,11727.612985,W,53.0,128.6,231210,,,A*42
$GPRMC,014924.2,A,3345.341477,N,11727.566303,W,54.3,128.6,231210,,,A*4C
$GPRMC,014927.9,A,3345.304365,N,11727.512018,W,55.0,129.7,231210,,,A*49
$GPRMC,014930.9,A,3345.282033,N,11727.481286,W,51.5,132.7,231210,,,A*45
$GPRMC,014933.9,A,3345.249905,N,11727.444332,W,51.4,137.5,231210,,,A*4C
$GPRMC,014936.9,A,3345.216589,N,11727.409288,W,52.7,139.0,231210,,,A*49
$GPRMC,014939.9,A,3345.182393,N,11727.380077,W,50.2,144.5,231210,,,A*49
$GPRMC,014942.9,A,3345.147406,N,11727.357345,W,49.1,148.6,231210,,,A*4B
$GPRMC,014945.9,A,3345.112870,N,11727.330117,W,49.4,148.0,231210,,,A*46
$GPRMC,014948.9,A,3345.081009,N,11727.307125,W,47.7,148.7,231210,,,A*49
$GPRMC,014951.9,A,3345.045075,N,11727.281446,W,49.6,147.5,231210,,,A*4F
$GPRMC,014954.9,A,3345.011610,N,11727.253244,W,49.0,143.5,231210,,,A*47
$GPRMC,014957.9,A,3344.978358,N,11727.221389,W,49.3,140.4,231210,,,A*4E
$GPRMC,015000.9,A,3344.944406,N,11727.181404,W,53.6,136.4,231210,,,A*43
$GPRMC,015003.9,A,3344.912763,N,11727.141351,W,54.7,132.6,231210,,,A*48
$GPRMC,015006.9,A,3344.885061,N,11727.101334,W,54.7,128.3,231210,,,A*4E
$GPRMC,015009.9,A,3344.858861,N,11727.058402,W,54.5,124.6,231210,,,A*4D
$GPRMC,015012.9,A,3344.837340,N,11727.012651,W,54.2,120.6,231210,,,A*4F
$GPRMC,015015.9,A,3344.813741,N,11726.965230,W,53.3,119.9,231210,,,A*43
$GPRMC,015018.9,A,3344.792654,N,11726.920603,W,51.4,119.3,231210,,,A*47
$GPRMC,015021.9,A,3344.774167,N,11726.874498,W,51.9,117.0,231210,,,A*42
$GPRMC,015024.9,A,3344.754370,N,11726.829133,W,50.6,118.3,231210,,,A*4F
$GPRMC,015027.9,A,3344.733191,N,11726.785290,W,49.0,120.2,231210,,,A*47
$GPRMC,015030.9,A,3344.713369,N,11726.742246,W,47.3,119.1,231210,,,A*42
$GPRMC,015033.2,A,3344.698982,N,11726.711367,W,46.9,118.9,231210,,,A*41
$GPRMC,015036.0,A,3344.681298,N,11726.672281,W,47.9,118.8,231210,,,A*43
$GPRMC,015039.9,A,3344.653405,N,11726.614433,W,51.2,119.0,231210,,,A*42
$GPRMC,015042.9,A,3344.633225,N,11726.569068,W,52.2,118.9,231210,,,A*44
$GPRMC,015045.9,A,3344.612562,N,11726.524555,W,52.4,118.0,231210,,,A*49
$GPRMC,015048.9,A,3344.593341,N,11726.478415,W,52.9,114.9,231210,,,A*4C
$GPRMC,015051.9,A,3344.578049,N,11726.429767,W,52.4,111.7,231210,,,A*4E
$GPRMC,015054.9,A,3344.563380,N,11726.381307,W,51.8,110.5,231210,,,A*4C
$GPRMC,015057.9,A,3344.551928,N,11726.330780,W,51.2,107.4,231210,,,A*4A
$GPRMC,015100.9,A,3344.542783,N,11726.282083,W,51.4,103.4,231210,,,A*4A
$GPRMC,015103.2,A,3344.534026,N,11726.241316,W,52.7,103.5,231210,,,A*4A
$GPRMC,015106.2,A,3344.523167,N,11726.188062,W,55.9,104.0,231210,,,A*40
$GPRMC,015109.2,A,3344.516272,N,11726.136517,W,54.8,102.6,231210,,,A*4C
$GPRMC,015112.2,A,3344.509586,N,11726.081905,W,54.8,101.1,231210,,,A*42
$GPRMC,015115.9,A,3344.497574,N,11726.016044,W,53.0,102.6,231210,,,A*4C
$GPRMC,015118.9,A,3344.478650,N,11725.960698,W,55.4,108.6,231210,,,A*41
$GPRMC,015121.9,A,3344.462919,N,11725.907432,W,56.4,111.6,231210,,,A*4A
$GPRMC,015124.9,A,3344.441494,N,11725.856639,W,55.4,116.5,231210,,,A*4D
$GPRMC,015127.9,A,3344.418398,N,11725.808198,W,52.3,119.9,231210,,,A*4D
$GPRMC,015130.9,A,3344.395568,N,11725.765717,W,49.8,122.6,231210,,,A*43
$GPRMC,015133.9,A,3344.372512,N,11725.726564,W,48.5,125.5,231210,,,A*4D
$GPRMC,015136.9,A,3344.346575,N,11725.687926,W,47.7,127.4,231210,,,A*40
$GPRMC,015139.9,A,3344.323615,N,11725.652167,W,46.5,127.8,231210,,,A*43
$GPRMC,015142.9,A,3344.300439,N,11725.614985,W,49.0,126.8,231210,,,A*4F
$GPRMC,015145.9,A,3344.275315,N,11725.573440,W,50.8,126.8,231210,,,A*44
$GPRMC,015148.9,A,3344.247870,N,11725.533110,W,54.1,127.4,231210,,,A*44
$GPRMC,015151.9,A,3344.217758,N,11725.491239,W,55.6,128.6,231210,,,A*46
$GPRMC,015154.9,A,3344.190585,N,11725.445210,W,57.1,127.1,231210,,,A*42
$GPRMC,015157.9,A,3344.160064,N,11725.397187,W,59.1,127.5,231210,,,A*4B
$GPRMC,015200.9,A,3344.131309,N,11725.353256,W,59.0,127.4,231210,,,A*41
$GPRMC,015203.9,A,3344.100634,N,11725.301634,W,60.5,124.0,231210,,,A*44
$GPRMC,015206.9,A,3344.074357,N,11725.251296,W,59.4,120.8,231210,,,A*4C
$GPRMC,015209.9,A,3344.050339,N,11725.199262,W,58.1,117.0,231210,,,A*49
$GPRMC,015212.9,A,3344.034806,N,11725.144606,W,57.7,112.8,231210,,,A*44
$GPRMC,015215.9,A,3344.016796,N,11725.091862,W,58.1,110.9,231210,,,A*4A
$GPRMC,015218.9,A,3344.002660,N,11725.033753,W,59.7,106.7,231210,,,A*41
$GPRMC,015221.9,A,3343.998482,N,11724.981812,W,58.4,100.3,231210,,,A*43
$GPRMC,015224.9,A,3343.993518,N,11724.920797,W,61.3,95.1,231210,,,A*74
$GPRMC,015227.9,A,3343.989213,N,11724.860708,W,60.8,93.5,231210,,,A*7B
$GPRMC,015230.9,A,3343.989458,N,11724.801797,W,59.6,90.2,231210,,,A*75
$GPRMC,015233.9,A,3343.993345,N,11724.739325,W,60.7,87.9,231210,,,A*79
$GPRMC,015236.9,A,3343.992861,N,11724.677887,W,60.7,88.0,231210,,,A*7E
$GPRMC,015239.9,A,3343.997590,N,11724.623440,W,59.0,85.8,231210,,,A*79
$GPRMC,015242.9,A,3343.996149,N,11724.562687,W,59.7,88.2,231210,,,A*7B
$GPRMC,015245.9,A,3343.999914,N,11724.495891,W,62.4,89.9,231210,,,A*72
$GPRMC,015248.9,A,3344.001729,N,11724.435481,W,61.4,93.7,231210,,,A*71
$GPRMC,015251.9,A,3343.992266,N,11724.373915,W,62.1,99.6,231210,,,A*7B
$GPRMC,015254.9,A,3343.982097,N,11724.314002,W,60.2,103.2,231210,,,A*4A
$GPRMC,015257.9,A,3343.964054,N,11724.256373,W,58.8,109.0,231210,,,A*45
$GPRMC,015300.9,A,3343.945395,N,11724.202307,W,57.9,112.8,231210,,,A*45
$GPRMC,015303.2,A,3343.928828,N,11724.161800,W,56.4,116.1,231210,,,A*40
$GPRMC,015306.9,A,3343.901690,N,11724.098078,W,58.6,118.3,231210,,,A*48
$GPRMC,015309.9,A,3343.877897,N,11724.046453,W,58.3,118.5,231210,,,A*43
$GPRMC,015312.9,A,3343.854726,N,11723.994841,W,59.1,117.0,231210,,,A*4A
$GPRMC,015315.9,A,3343.835762,N,11723.942235,W,58.5,113.4,231210,,,A*4D
$GPRMC,015318.9,A,3343.821586,N,11723.889902,W,56.9,109.1,231210,,,A*48
$GPRMC,015321.9,A,3343.811272,N,11723.837663,W,56.4,104.9,231210,,,A*48
$GPRMC,015324.0,A,3343.807277,N,11723.803391,W,53.7,101.4,231210,,,A*47
$GPRMC,015327.9,A,3343.800479,N,11723.730432,W,56.5,95.6,231210,,,A*7A
$GPRMC,015330.9,A,3343.799845,N,11723.673204,W,56.5,92.1,231210,,,A*75
$GPRMC,015333.9,A,3343.796881,N,11723.619181,W,55.9,90.6,231210,,,A*79
$GPRMC,015336.9,A,3343.798029,N,11723.561933,W,57.6,90.0,231210,,,A*7E
$GPRMC,015339.9,A,3343.797044,N,11723.502959,W,58.0,91.2,231210,,,A*76
$GPRMC,015342.9,A,3343.795179,N,11723.445442,W,57.2,93.3,231210,,,A*7C
$GPRMC,015345.9,A,3343.791027,N,11723.389048,W,55.6,96.1,231210,,,A*7D
$GPRMC,015348.0,A,3343.786945,N,11723.350065,W,56.4,98.3,231210,,,A*74
$GPRMC,015352.2,A,3343.774216,N,11723.271860,W,54.4,101.4,231210,,,A*46
$GPRMC,015355.2,A,3343.766252,N,11723.219598,W,52.6,101.4,231210,,,A*42
$GPRMC,015358.0,A,3343.747865,N,11723.168720,W,56.2,105.8,231210,,,A*4C
$GPRMC,015401.9,A,3343.737938,N,11723.099696,W,53.4,102.8,231210,,,A*47
$GPRMC,015404.2,A,3343.728928,N,11723.061991,W,52.2,104.6,231210,,,A*46
$GPRMC,015407.2,A,3343.718398,N,11723.010738,W,52.6,103.9,231210,,,A*40
$GPRMC,015410.2,A,3343.709935,N,11722.960850,W,52.7,103.0,231210,,,A*4D
$GPRMC,015413.2,A,3343.697974,N,11722.908542,W,53.8,103.8,231210,,,A*4B
$GPRMC,015416.2,A,3343.689667,N,11722.855485,W,54.7,102.8,231210,,,A*46
$GPRMC,015419.2,A,3343.677692,N,11722.802555,W,54.9,103.5,231210,,,A*4E
$GPRMC,015422.2,A,3343.666915,N,11722.749773,W,54.1,103.6,231210,,,A*4B
$GPRMC,015425.2,A,3343.657146,N,11722.696574,W,54.1,102.8,231210,,,A*49
$GPRMC,015428.2,A,3343.646801,N,11722.643835,W,53.6,103.1,231210,,,A*46
$GPRMC,015431.2,A,3343.635518,N,11722.592809,W,53.2,104.6,231210,,,A*4B
$GPRMC,015434.2,A,3343.621255,N,11722.540397,W,54.3,106.7,231210,,,A*43
$GPRMC,015437.2,A,3343.602087,N,11722.486287,W,56.5,110.8,231210,,,A*4B
$GPRMC,015440.2,A,3343.584281,N,11722.433512,W,56.9,112.7,231210,,,A*46
$GPRMC,015443.2,A,3343.564665,N,11722.384403,W,54.5,115.1,231210,,,A*40
$GPRMC,015446.2,A,3343.543923,N,11722.337121,W,53.4,118.3,231210,,,A*49
$GPRMC,015449.9,A,3343.519500,N,11722.281059,W,52.7,119.7,231210,,,A*4A
$GPRMC,015452.9,A,3343.496419,N,11722.235655,W,53.4,122.2,231210,,,A*45
$GPRMC,015455.9,A,3343.471525,N,11722.191132,W,52.3,124.6,231210,,,A*4A
$GPRMC,015458.9,A,3343.444407,N,11722.148905,W,52.6,126.8,231210,,,A*41
$GPRMC,015501.9,A,3343.413718,N,11722.105758,W,54.3,129.6,231210,,,A*4E
$GPRMC,015504.9,A,3343.385253,N,11722.065060,W,54.2,131.0,231210,,,A*4C
$GPRMC,015507.9,A,3343.354070,N,11722.025572,W,55.2,133.9,231210,,,A*48
$GPRMC,015510.9,A,3343.321001,N,11721.989756,W,54.9,136.3,231210,,,A*47
$GPRMC,015513.9,A,3343.287355,N,11721.953576,W,55.4,138.3,231210,,,A*4E
$GPRMC,015516.9,A,3343.252362,N,11721.919678,W,54.6,140.7,231210,,,A*4C
$GPRMC,015519.9,A,3343.216628,N,11721.887440,W,54.0,141.8,231210,,,A*4F
$GPRMC,015522.9,A,3343.180343,N,11721.854862,W,53.4,143.6,231210,,,A*4E
$GPRMC,015526.2,A,3343.140238,N,11721.823181,W,54.1,145.9,231210,,,A*4F
$GPRMC,015529.9,A,3343.092840,N,11721.788368,W,53.8,150.2,231210,,,A*4A
$GPRMC,015532.9,A,3343.054546,N,11721.762339,W,53.4,150.5,231210,,,A*4A
$GPRMC,015535.9,A,3343.015561,N,11721.738421,W,52.2,153.5,231210,,,A*48
$GPRMC,015538.9,A,3342.975678,N,11721.719854,W,51.2,156.3,231210,,,A*4D
$GPRMC,015541.9,A,3342.935202,N,11721.700669,W,50.4,159.4,231210,,,A*49
$GPRMC,015544.9,A,3342.897642,N,11721.683743,W,49.4,159.6,231210,,,A*4C
$GPRMC,015547.9,A,3342.858945,N,11721.667927,W,48.3,162.2,231210,,,A*48
$GPRMC,015550.9,A,3342.820466,N,11721.657384,W,46.8,164.3,231210,,,A*4F
$GPRMC,015553.9,A,3342.783054,N,11721.646245,W,45.9,166.0,231210,,,A*40
$GPRMC,015556.9,A,3342.745293,N,11721.636241,W,46.5,167.4,231210,,,A*4F
$GPRMC,015559.9,A,3342.708042,N,11721.625040,W,46.7,168.0,231210,,,A*4F
$GPRMC,015602.9,A,3342.669157,N,11721.613830,W,48.5,165.4,231210,,,A*4E
$GPRMC,015605.9,A,3342.630477,N,11721.600817,W,48.5,162.9,231210,,,A*4F
$GPRMC,015608.9,A,3342.590100,N,11721.583290,W,50.2,160.2,231210,,,A*44
$GPRMC,015611.9,A,3342.550877,N,11721.563961,W,50.5,157.2,231210,,,A*41
$GPRMC,015614.9,A,3342.512544,N,11721.542174,W,50.5,154.4,231210,,,A*45
$GPRMC,015617.9,A,3342.474848,N,11721.518467,W,51.7,150.8,231210,,,A*45
$GPRMC,015620.9,A,3342.437551,N,11721.490187,W,53.4,147.4,231210,,,A*42
$GPRMC,015623.9,A,3342.398989,N,11721.461068,W,53.3,145.9,231210,,,A*4C
$GPRMC,015626.9,A,3342.360368,N,11721.424512,W,56.0,141.5,231210,,,A*4C
$GPRMC,015629.9,A,3342.326379,N,11721.389831,W,54.8,138.5,231210,,,A*49
$GPRMC,015632.9,A,3342.291879,N,11721.351799,W,55.9,135.6,231210,,,A*43
$GPRMC,015635.9,A,3342.262586,N,11721.311484,W,54.1,131.6,231210,,,A*43
$GPRMC,015638.9,A,3342.232549,N,11721.267647,W,56.0,128.3,231210,,,A*4B
$GPRMC,015641.9,A,3342.204452,N,11721.224888,W,54.7,127.8,231210,,,A*40
$GPRMC,015644.9,A,3342.174673,N,11721.178018,W,57.3,127.9,231210,,,A*4D
$GPRMC,015647.9,A,3342.143443,N,11721.133334,W,56.9,128.6,231210,,,A*42
$GPRMC,015650.9,A,3342.115847,N,11721.094484,W,54.1,129.3,231210,,,A*41
$GPRMC,015653.9,A,3342.085734,N,11721.050725,W,56.1,128.6,231210,,,A*47
$GPRMC,015656.9,A,3342.058588,N,11721.007006,W,55.6,128.0,231210,,,A*41
$GPRMC,015659.9,A,3342.028189,N,11720.963288,W,57.3,129.1,231210,,,A*45
$GPRMC,015702.9,A,3341.997584,N,11720.916250,W,58.3,128.9,231210,,,A*4C
$GPRMC,015705.9,A,3341.968598,N,11720.871652,W,57.5,128.0,231210,,,A*40
$GPRMC,015708.9,A,3341.938689,N,11720.823752,W,60.0,128.6,231210,,,A*4A
$GPRMC,015711.9,A,3341.907255,N,11720.778271,W,59.2,129.5,231210,,,A*44
$GPRMC,015714.9,A,3341.877859,N,11720.733410,W,58.2,128.5,231210,,,A*4F
$GPRMC,015717.9,A,3341.844623,N,11720.686382,W,59.4,129.2,231210,,,A*4D
$GPRMC,015720.9,A,3341.815016,N,11720.639225,W,59.0,127.7,231210,,,A*4A
$GPRMC,015723.9,A,3341.783449,N,11720.592792,W,59.6,128.5,231210,,,A*47
$GPRMC,015726.9,A,3341.753924,N,11720.547738,W,59.2,127.8,231210,,,A*47
$GPRMC,015729.9,A,3341.723607,N,11720.500864,W,60.1,128.5,231210,,,A*4F
$GPRMC,015732.9,A,3341.691309,N,11720.458309,W,58.7,131.2,231210,,,A*48
$GPRMC,015735.9,A,3341.657283,N,11720.413504,W,59.3,132.9,231210,,,A*4F
$GPRMC,015738.9,A,3341.622254,N,11720.371596,W,57.2,134.4,231210,,,A*46
$GPRMC,015741.9,A,3341.587262,N,11720.331170,W,57.3,136.8,231210,,,A*46
$GPRMC,015744.9,A,3341.551929,N,11720.290058,W,58.6,136.9,231210,,,A*46
$GPRMC,015747.9,A,3341.513043,N,11720.252098,W,60.3,139.9,231210,,,A*45
$GPRMC,015750.9,A,3341.474605,N,11720.216322,W,59.5,141.6,231210,,,A*49
$GPRMC,015753.9,A,3341.433761,N,11720.179340,W,60.4,142.3,231210,,,A*49
$GPRMC,015756.9,A,3341.396783,N,11720.144607,W,59.1,142.7,231210,,,A*4B
$GPRMC,015759.9,A,3341.354103,N,11720.106985,W,60.9,142.5,231210,,,A*47
$GPRMC,015802.9,A,3341.312657,N,11720.071449,W,61.1,143.0,231210,,,A*43
$GPRMC,015805.9,A,3341.271791,N,11720.031659,W,62.1,141.8,231210,,,A*45
$GPRMC,015808.9,A,3341.231863,N,11719.993082,W,61.0,141.7,231210,,,A*48
$GPRMC,015811.9,A,3341.193447,N,11719.958895,W,57.3,143.4,231210,,,A*4F
$GPRMC,015816.9,A,3341.126280,N,11719.899983,W,58.7,142.7,231210,,,A*48
$GPRMC,015819.9,A,3341.088632,N,11719.866528,W,57.5,143.2,231210,,,A*4B
$GPRMC,015822.9,A,3341.051143,N,11719.831702,W,57.3,143.0,231210,,,A*4A
$GPRMC,015825.9,A,3341.012535,N,11719.798098,W,57.3,143.6,231210,,,A*41
$GPRMC,015828.9,A,3340.969290,N,11719.756503,W,60.1,142.2,231210,,,A*46
$GPRMC,015831.2,A,3340.940049,N,11719.731283,W,57.7,142.5,231210,,,A*43
$GPRMC,015834.9,A,3340.890554,N,11719.691634,W,57.8,144.6,231210,,,A*41
$GPRMC,015837.9,A,3340.853840,N,11719.658075,W,57.3,144.2,231210,,,A*4C
$GPRMC,015840.9,A,3340.817080,N,11719.620243,W,57.0,142.8,231210,,,A*4F
$GPRMC,015843.9,A,3340.780844,N,11719.580035,W,59.4,137.7,231210,,,A*40
$GPRMC,015846.9,A,3340.744332,N,11719.546046,W,57.1,139.3,231210,,,A*48
$GPRMC,015849.9,A,3340.709584,N,11719.509307,W,56.0,137.5,231210,,,A*40
$GPRMC,015852.9,A,3340.676622,N,11719.471482,W,55.5,135.1,231210,,,A*48
$GPRMC,015855.9,A,3340.646248,N,11719.432807,W,55.1,133.4,231210,,,A*45
$GPRMC,015858.9,A,3340.615713,N,11719.392108,W,55.2,130.5,231210,,,A*4F
$GPRMC,015901.9,A,3340.585891,N,11719.348335,W,56.4,128.2,231210,,,A*4D
$GPRMC,015904.9,A,3340.554858,N,11719.302579,W,57.7,126.6,231210,,,A*49
$GPRMC,015907.9,A,3340.529419,N,11719.257186,W,56.3,123.4,231210,,,A*4E
$GPRMC,015910.9,A,3340.504724,N,11719.210795,W,55.2,121.7,231210,,,A*4E
$GPRMC,015913.9,A,3340.481185,N,11719.163737,W,54.9,120.0,231210,,,A*4F
$GPRMC,015916.9,A,3340.457578,N,11719.117204,W,54.8,118.0,231210,,,A*4B
$GPRMC,015919.2,A,3340.442324,N,11719.080387,W,53.5,116.2,231210,,,A*47
$GPRMC,015922.2,A,3340.423070,N,11719.031449,W,53.6,115.3,231210,,,A*44
$GPRMC,015925.2,A,3340.403328,N,11718.981714,W,54.9,116.5,231210,,,A*4A
$GPRMC,015928.2,A,3340.383855,N,11718.932451,W,54.2,116.4,231210,,,A*49
$GPRMC,015931.2,A,3340.363164,N,11718.882833,W,55.5,117.6,231210,,,A*43
$GPRMC,015934.9,A,3340.337137,N,11718.822559,W,54.7,117.4,231210,,,A*40
$GPRMC,015938.2,A,3340.312719,N,11718.768569,W,55.5,119.4,231210,,,A*45
$GPRMC,015941.9,A,3340.282183,N,11718.709630,W,55.7,120.8,231210,,,A*41
$GPRMC,015944.9,A,3340.254587,N,11718.661880,W,56.2,122.3,231210,,,A*4A
$GPRMC,015948.2,A,3340.228886,N,11718.611462,W,53.9,122.8,231210,,,A*48
$GPRMC,015951.9,A,3340.198449,N,11718.555951,W,52.7,123.9,231210,,,A*4D
$GPRMC,015954.9,A,3340.174154,N,11718.513955,W,51.0,124.7,231210,,,A*48
$GPRMC,015957.9,A,3340.150162,N,11718.475435,W,48.9,126.0,231210,,,A*46
$GPRMC,020000.9,A,3340.125881,N,11718.437096,W,48.7,126.7,231210,,,A*4F
$GPRMC,020003.9,A,3340.101288,N,11718.395519,W,49.2,126.7,231210,,,A*40
$GPRMC,020006.9,A,3340.077932,N,11718.361308,W,47.4,127.9,231210,,,A*45
$GPRMC,020009.9,A,3340.050905,N,11718.323683,W,49.1,128.8,231210,,,A*4E
$GPRMC,020012.9,A,3340.023620,N,11718.286023,W,49.9,130.7,231210,,,A*44
$GPRMC,020015.9,A,3339.993882,N,11718.246218,W,52.3,131.3,231210,,,A*4A
$GPRMC,020018.9,A,3339.956736,N,11718.202031,W,55.7,133.0,231210,,,A*45
$GPRMC,020021.9,A,3339.927150,N,11718.161891,W,53.6,132.9,231210,,,A*44
$GPRMC,020024.9,A,3339.894628,N,11718.121141,W,54.1,134.6,231210,,,A*49
$GPRMC,020027.9,A,3339.865520,N,11718.086227,W,51.6,135.1,231210,,,A*44
$GPRMC,020030.9,A,3339.849170,N,11718.052086,W,48.6,134.9,231210,,,A*4C
$GPRMC,020033.9,A,3339.839678,N,11718.038315,W,49.1,135.0,231210,,,A*4C
$GPRMC,020036.2,A,3339.812690,N,11718.018267,W,50.3,136.1,231210,,,A*43
$GPRMC,020039.2,A,3339.755993,N,11717.954767,W,53.3,138.2,231210,,,A*49
$GPRMC,020042.9,A,3339.719513,N,11717.911717,W,53.6,139.3,231210,,,A*41
$GPRMC,020045.9,A,3339.706505,N,11717.902001,W,53.2,139.2,231210,,,A*48
$GPRMC,020048.9,A,3339.672092,N,11717.865701,W,51.9,139.6,231210,,,A*46
$GPRMC,020051.9,A,3339.630343,N,11717.827531,W,56.8,141.6,231210,,,A*49
$GPRMC,020054.9,A,3339.591361,N,11717.787122,W,57.3,141.3,231210,,,A*48
$GPRMC,020057.9,A,3339.550380,N,11717.748527,W,57.2,143.2,231210,,,A*49
$GPRMC,020100.9,A,3339.511895,N,11717.715127,W,55.4,144.7,231210,,,A*4A
$GPRMC,020103.9,A,3339.472221,N,11717.683744,W,56.2,145.5,231210,,,A*43
$GPRMC,020106.9,A,3339.427762,N,11717.650189,W,58.5,147.2,231210,,,A*41
$GPRMC,020109.9,A,3339.388112,N,11717.619917,W,57.8,147.2,231210,,,A*4D
$GPRMC,020112.9,A,3339.344035,N,11717.588607,W,58.5,149.7,231210,,,A*4F
$GPRMC,020115.9,A,3339.299279,N,11717.558353,W,60.7,151.4,231210,,,A*49
$GPRMC,020118.9,A,3339.251911,N,11717.528269,W,63.3,151.7,231210,,,A*4E
$GPRMC,020121.9,A,3339.205345,N,11717.497053,W,64.0,150.6,231210,,,A*44
$GPRMC,020124.9,A,3339.159411,N,11717.464843,W,64.6,150.5,231210,,,A*4D
$GPRMC,020127.9,A,3339.113574,N,11717.433259,W,64.8,149.9,231210,,,A*4B
$GPRMC,020130.9,A,3339.064384,N,11717.399760,W,66.9,149.8,231210,,,A*4F
$GPRMC,020133.9,A,3339.015441,N,11717.366514,W,66.8,150.5,231210,,,A*41
$GPRMC,020136.9,A,3338.968091,N,11717.333976,W,66.1,150.0,231210,,,A*4B
$GPRMC,020139.9,A,3338.916277,N,11717.300606,W,68.3,151.0,231210,,,A*42
$GPRMC,020142.9,A,3338.866308,N,11717.266870,W,67.7,150.6,231210,,,A*43
$GPRMC,020145.9,A,3338.820682,N,11717.235978,W,65.4,150.4,231210,,,A*4D
$GPRMC,020148.9,A,3338.773138,N,11717.202234,W,67.5,149.9,231210,,,A*4E
$GPRMC,020151.9,A,3338.723121,N,11717.167628,W,68.4,150.3,231210,,,A*4E
$GPRMC,020154.9,A,3338.671617,N,11717.134598,W,69.3,150.7,231210,,,A*43
$GPRMC,020157.9,A,3338.623511,N,11717.101453,W,67.7,150.7,231210,,,A*48
$GPRMC,020200.9,A,3338.572937,N,11717.066750,W,68.8,150.0,231210,,,A*41
$GPRMC,020203.9,A,3338.525413,N,11717.032210,W,66.4,149.6,231210,,,A*47
$GPRMC,020206.9,A,3338.476047,N,11717.000368,W,66.6,150.5,231210,,,A*46
$GPRMC,020209.9,A,3338.429178,N,11716.968889,W,65.4,150.6,231210,,,A*4E
$GPRMC,020212.9,A,3338.380636,N,11716.936363,W,65.6,150.6,231210,,,A*4B
$GPRMC,020215.9,A,3338.330874,N,11716.903892,W,66.1,151.0,231210,,,A*4F
$GPRMC,020218.9,A,3338.285998,N,11716.871572,W,64.1,150.0,231210,,,A*4A
$GPRMC,020221.9,A,3338.241222,N,11716.841374,W,63.8,150.5,231210,,,A*4A
$GPRMC,020224.9,A,3338.191577,N,11716.809009,W,66.1,151.3,231210,,,A*48
$GPRMC,020227.9,A,3338.144807,N,11716.775359,W,65.0,149.9,231210,,,A*4A
$GPRMC,020230.9,A,3338.098193,N,11716.744056,W,63.8,150.4,231210,,,A*4D
$GPRMC,020233.9,A,3338.052566,N,11716.711450,W,63.2,150.0,231210,,,A*4A
$GPRMC,020236.9,A,3338.006715,N,11716.681392,W,61.3,149.5,231210,,,A*47
$GPRMC,020239.9,A,3337.964233,N,11716.648866,W,61.1,148.6,231210,,,A*4E
$GPRMC,020242.9,A,3337.920570,N,11716.616724,W,61.7,147.9,231210,,,A*46
$GPRMC,020245.9,A,3337.873805,N,11716.583135,W,62.9,148.1,231210,,,A*4A
$GPRMC,020248.9,A,3337.828711,N,11716.551529,W,62.1,148.9,231210,,,A*45
$GPRMC,020251.9,A,3337.784358,N,11716.518617,W,61.4,148.4,231210,,,A*45
$GPRMC,020254.9,A,3337.742309,N,11716.486297,W,60.1,147.7,231210,,,A*4C
$GPRMC,020257.9,A,3337.699601,N,11716.454971,W,59.3,148.0,231210,,,A*49
$GPRMC,020300.9,A,3337.659316,N,11716.423489,W,58.2,147.3,231210,,,A*43
$GPRMC,020303.9,A,3337.621898,N,11716.392640,W,56.2,146.6,231210,,,A*42
$GPRMC,020306.9,A,3337.581445,N,11716.362411,W,57.6,146.8,231210,,,A*40
$GPRMC,020309.9,A,3337.539527,N,11716.327954,W,60.2,146.4,231210,,,A*48
$GPRMC,020312.9,A,3337.498779,N,11716.295825,W,59.6,146.5,231210,,,A*41
$GPRMC,020315.9,A,3337.456900,N,11716.260979,W,60.1,144.5,231210,,,A*49
$GPRMC,020318.9,A,3337.416370,N,11716.225917,W,58.8,144.9,231210,,,A*4A
$GPRMC,020321.9,A,3337.376441,N,11716.193173,W,58.7,145.0,231210,,,A*47
$GPRMC,020324.9,A,3337.336017,N,11716.157959,W,59.4,144.5,231210,,,A*4F
$GPRMC,020327.9,A,3337.297990,N,11716.122769,W,58.6,143.4,231210,,,A*4A
$GPRMC,020330.9,A,3337.255884,N,11716.087081,W,59.6,144.1,231210,,,A*4A
$GPRMC,020333.2,A,3337.225828,N,11716.061324,W,59.1,143.8,231210,,,A*4E
$GPRMC,020336.2,A,3337.187589,N,11716.027123,W,59.5,143.0,231210,,,A*4D
$GPRMC,020339.2,A,3337.147948,N,11715.991458,W,59.2,142.7,231210,,,A*40
$GPRMC,020342.9,A,3337.099392,N,11715.948035,W,58.8,142.5,231210,,,A*4A
$GPRMC,020345.9,A,3337.057978,N,11715.913090,W,60.4,143.4,231210,,,A*47
$GPRMC,020348.9,A,3337.022303,N,11715.877213,W,58.5,142.3,231210,,,A*48
$GPRMC,020351.9,A,3336.980657,N,11715.841589,W,60.1,143.3,231210,,,A*4B
$GPRMC,020354.9,A,3336.940500,N,11715.804111,W,60.6,142.6,231210,,,A*44
$GPRMC,020357.9,A,3336.901416,N,11715.769963,W,59.7,143.1,231210,,,A*40
$GPRMC,020400.9,A,3336.860544,N,11715.731473,W,61.4,142.6,231210,,,A*4A
$GPRMC,020403.9,A,3336.820917,N,11715.695960,W,60.1,143.1,231210,,,A*45
$GPRMC,020406.9,A,3336.781819,N,11715.661141,W,59.8,143.2,231210,,,A*4B
$GPRMC,020409.9,A,3336.740432,N,11715.622901,W,60.8,143.4,231210,,,A*4B
$GPRMC,020412.2,A,3336.710698,N,11715.594928,W,59.0,142.8,231210,,,A*47
$GPRMC,020415.9,A,3336.663602,N,11715.552935,W,58.3,143.1,231210,,,A*41
$GPRMC,020418.9,A,3336.625241,N,11715.515231,W,58.7,142.1,231210,,,A*44
$GPRMC,020421.9,A,3336.584547,N,11715.478135,W,59.4,142.4,231210,,,A*4D
$GPRMC,020424.9,A,3336.548199,N,11715.443104,W,57.8,142.6,231210,,,A*45
$GPRMC,020427.9,A,3336.507995,N,11715.407271,W,58.6,142.1,231210,,,A*4E
$GPRMC,020430.9,A,3336.471686,N,11715.374397,W,57.6,142.3,231210,,,A*42
$GPRMC,020433.9,A,3336.430620,N,11715.338761,W,60.7,142.8,231210,,,A*43
$GPRMC,020436.9,A,3336.392078,N,11715.301915,W,59.4,142.8,231210,,,A*4C
$GPRMC,020439.9,A,3336.348940,N,11715.267039,W,61.0,143.6,231210,,,A*40
$GPRMC,020442.9,A,3336.309206,N,11715.230689,W,61.2,143.3,231210,,,A*48
$GPRMC,020445.9,A,3336.269547,N,11715.192083,W,60.3,141.8,231210,,,A*44
$GPRMC,020448.9,A,3336.230145,N,11715.156388,W,60.5,142.1,231210,,,A*4F
$GPRMC,020451.9,A,3336.184271,N,11715.115133,W,66.0,143.6,231210,,,A*4F
$GPRMC,020454.9,A,3336.141408,N,11715.074472,W,67.6,142.7,231210,,,A*4A
$GPRMC,020457.9,A,3336.092613,N,11715.033036,W,69.7,143.7,231210,,,A*47
$GPRMC,020500.9,A,3336.049477,N,11714.992700,W,67.0,141.9,231210,,,A*46
$GPRMC,020503.9,A,3336.004908,N,11714.951711,W,66.5,141.9,231210,,,A*42
$GPRMC,020506.9,A,3335.960931,N,11714.909577,W,66.0,142.3,231210,,,A*46
$GPRMC,020509.9,A,3335.919143,N,11714.871996,W,65.0,142.6,231210,,,A*41
$GPRMC,020512.9,A,3335.878002,N,11714.831912,W,64.9,142.1,231210,,,A*4E
$GPRMC,020515.9,A,3335.834720,N,11714.791718,W,66.0,143.0,231210,,,A*4C
$GPRMC,020518.9,A,3335.788484,N,11714.751058,W,66.4,143.4,231210,,,A*4B
$GPRMC,020521.9,A,3335.747119,N,11714.712997,W,65.2,142.5,231210,,,A*4B
$GPRMC,020524.9,A,3335.702485,N,11714.674700,W,66.8,143.5,231210,,,A*46
$GPRMC,020527.9,A,3335.656738,N,11714.632682,W,67.8,142.4,231210,,,A*48
$GPRMC,020530.9,A,3335.612294,N,11714.588278,W,69.5,142.1,231210,,,A*48
$GPRMC,020533.9,A,3335.567049,N,11714.546772,W,68.7,142.4,231210,,,A*43
$GPRMC,020536.9,A,3335.523057,N,11714.505398,W,67.8,140.4,231210,,,A*4C
$GPRMC,020539.9,A,3335.477758,N,11714.459377,W,69.2,137.9,231210,,,A*4B
$GPRMC,020542.9,A,3335.437461,N,11714.411867,W,68.9,134.3,231210,,,A*4F
$GPRMC,020545.0,A,3335.409921,N,11714.378269,W,69.3,134.9,231210,,,A*48
$GPRMC,020548.9,A,3335.360279,N,11714.308813,W,69.1,132.1,231210,,,A*4E
$GPRMC,020551.9,A,3335.323646,N,11714.257513,W,68.3,131.7,231210,,,A*49
$GPRMC,020554.9,A,3335.283465,N,11714.207703,W,69.1,133.1,231210,,,A*45
$GPRMC,020557.9,A,3335.246259,N,11714.156857,W,69.0,131.4,231210,,,A*49
$GPRMC,020600.9,A,3335.207718,N,11714.109278,W,67.1,133.4,231210,,,A*4D
$GPRMC,020603.9,A,3335.170572,N,11714.059887,W,66.2,133.0,231210,,,A*4B
$GPRMC,020606.9,A,3335.131368,N,11714.013207,W,65.8,136.3,231210,,,A*45
$GPRMC,020609.9,A,3335.092923,N,11713.964469,W,66.8,134.7,231210,,,A*42
$GPRMC,020612.9,A,3335.054050,N,11713.918974,W,66.2,136.5,231210,,,A*4F
$GPRMC,020615.9,A,3335.016652,N,11713.867761,W,67.4,131.8,231210,,,A*44
$GPRMC,020618.9,A,3334.978849,N,11713.817640,W,67.2,133.2,231210,,,A*46
$GPRMC,020621.9,A,3334.943383,N,11713.765990,W,67.2,132.2,231210,,,A*40
$GPRMC,020624.9,A,3334.904291,N,11713.717732,W,67.4,133.1,231210,,,A*43
$GPRMC,020628.2,A,3334.862505,N,11713.665242,W,67.0,133.3,231210,,,A*4F
$GPRMC,020631.2,A,3334.822256,N,11713.613857,W,68.1,132.9,231210,,,A*48
$GPRMC,020634.9,A,3334.777544,N,11713.558463,W,65.9,132.8,231210,,,A*4E
$GPRMC,020637.9,A,3334.742491,N,11713.510451,W,65.1,131.5,231210,,,A*49
$GPRMC,020640.9,A,3334.706076,N,11713.459566,W,67.1,130.9,231210,,,A*42
$GPRMC,020643.9,A,3334.665686,N,11713.410330,W,67.2,132.7,231210,,,A*4B
$GPRMC,020646.9,A,3334.625633,N,11713.362876,W,65.8,133.9,231210,,,A*48
$GPRMC,020649.9,A,3334.589294,N,11713.315570,W,65.5,131.4,231210,,,A*42
$GPRMC,020652.9,A,3334.552994,N,11713.263299,W,66.7,129.7,231210,,,A*4E
$GPRMC,020655.9,A,3334.519498,N,11713.216724,W,62.9,131.3,231210,,,A*41
$GPRMC,020658.9,A,3334.483853,N,11713.171073,W,63.3,132.8,231210,,,A*41
$GPRMC,020701.9,A,3334.449208,N,11713.127364,W,63.2,133.9,231210,,,A*49
$GPRMC,020704.2,A,3334.421715,N,11713.091050,W,62.5,131.5,231210,,,A*40
$GPRMC,020707.2,A,3334.386366,N,11713.044641,W,63.0,132.3,231210,,,A*46
$GPRMC,020710.2,A,3334.352023,N,11712.998037,W,62.2,131.8,231210,,,A*4E
$GPRMC,020713.2,A,3334.318131,N,11712.951652,W,62.5,132.3,231210,,,A*4E
$GPRMC,020716.2,A,3334.282706,N,11712.905705,W,62.4,132.7,231210,,,A*4C
$GPRMC,020719.9,A,3334.242197,N,11712.850926,W,60.4,132.0,231210,,,A*41
$GPRMC,020722.9,A,3334.204375,N,11712.803393,W,63.1,133.0,231210,,,A*40
$GPRMC,020725.9,A,3334.173328,N,11712.757498,W,60.7,130.8,231210,,,A*40
$GPRMC,020728.9,A,3334.137530,N,11712.710636,W,62.0,131.4,231210,,,A*4F
$GPRMC,020731.9,A,3334.099707,N,11712.664028,W,63.5,132.9,231210,,,A*45
$GPRMC,020734.9,A,3334.067487,N,11712.621374,W,60.8,131.6,231210,,,A*43
$GPRMC,020737.9,A,3334.032870,N,11712.575593,W,60.6,132.9,231210,,,A*4B
$GPRMC,020740.9,A,3334.001842,N,11712.529642,W,61.1,131.9,231210,,,A*49
$GPRMC,020743.9,A,3333.968269,N,11712.483891,W,61.1,131.7,231210,,,A*47
$GPRMC,020746.9,A,3333.932451,N,11712.439290,W,61.1,132.4,231210,,,A*4A
$GPRMC,020749.9,A,3333.895430,N,11712.391523,W,63.6,132.7,231210,,,A*42
$GPRMC,020752.9,A,3333.856904,N,11712.346503,W,63.8,134.0,231210,,,A*4A
$GPRMC,020755.9,A,3333.822962,N,11712.298651,W,63.4,132.2,231210,,,A*40
$GPRMC,020758.9,A,3333.786998,N,11712.251236,W,63.1,132.9,231210,,,A*47
$GPRMC,020801.9,A,3333.750498,N,11712.206964,W,62.6,133.7,231210,,,A*45
$GPRMC,020804.9,A,3333.719873,N,11712.162792,W,61.0,131.9,231210,,,A*4B
$GPRMC,020807.9,A,3333.686490,N,11712.116357,W,60.3,132.0,231210,,,A*48
$GPRMC,020810.9,A,3333.651927,N,11712.074190,W,59.8,133.5,231210,,,A*4C
$GPRMC,020813.2,A,3333.652831,N,11712.073418,W,59.4,132.5,231210,,,A*4E
$GPRMC,020816.9,A,3333.595231,N,11711.991711,W,69.5,129.6,231210,,,A*45
$GPRMC,020819.9,A,3333.555317,N,11711.943559,W,63.1,132.4,231210,,,A*44
$GPRMC,020822.9,A,3333.515565,N,11711.895266,W,64.1,134.7,231210,,,A*48
$GPRMC,020825.9,A,3333.482399,N,11711.848649,W,62.5,132.1,231210,,,A*4E
$GPRMC,020828.9,A,3333.449630,N,11711.803176,W,61.2,130.5,231210,,,A*44
$GPRMC,020831.9,A,3333.415769,N,11711.756642,W,60.9,129.6,231210,,,A*46
$GPRMC,020834.9,A,3333.384451,N,11711.708324,W,59.8,128.4,231210,,,A*42
$GPRMC,020837.2,A,3333.362096,N,11711.672643,W,58.9,127.6,231210,,,A*48
$GPRMC,020840.9,A,3333.323333,N,11711.612309,W,62.2,125.6,231210,,,A*47
$GPRMC,020844.2,A,3333.289469,N,11711.553184,W,67.1,127.0,231210,,,A*42
$GPRMC,020847.0,A,3333.260616,N,11711.502140,W,67.5,124.6,231210,,,A*43
$GPRMC,020850.9,A,3333.223165,N,11711.433797,W,64.9,122.4,231210,,,A*4C
$GPRMC,020853.9,A,3333.190720,N,11711.374451,W,67.8,122.4,231210,,,A*4C
$GPRMC,020856.9,A,3333.161449,N,11711.320523,W,65.6,123.1,231210,,,A*46
$GPRMC,020859.9,A,3333.132097,N,11711.264233,W,65.9,122.6,231210,,,A*46
$GPRMC,020902.9,A,3333.103157,N,11711.209100,W,65.7,122.4,231210,,,A*42
$GPRMC,020905.2,A,3333.080435,N,11711.167158,W,65.7,123.1,231210,,,A*47
$GPRMC,020908.0,A,3333.071564,N,11711.125407,W,61.3,120.2,231210,,,A*4A
$GPRMC,020911.9,A,3333.030802,N,11711.053154,W,62.0,120.8,231210,,,A*4A
$GPRMC,020914.9,A,3333.001480,N,11710.997754,W,64.5,123.7,231210,,,A*42
$GPRMC,020917.9,A,3332.967443,N,11710.947008,W,63.0,128.1,231210,,,A*4A
$GPRMC,020920.9,A,3332.936234,N,11710.899814,W,60.9,129.9,231210,,,A*48
$GPRMC,020923.9,A,3332.898642,N,11710.854764,W,61.5,135.4,231210,,,A*4F
$GPRMC,020926.9,A,3332.862493,N,11710.812791,W,61.6,138.3,231210,,,A*40
$GPRMC,020929.9,A,3332.818372,N,11710.774320,W,63.3,142.9,231210,,,A*4B
$GPRMC,020932.9,A,3332.774518,N,11710.737657,W,64.8,146.6,231210,,,A*4B
$GPRMC,020935.9,A,3332.725796,N,11710.704542,W,66.6,150.4,231210,,,A*42
$GPRMC,020938.9,A,3332.676781,N,11710.671605,W,65.9,150.4,231210,,,A*41
$GPRMC,020941.9,A,3332.630333,N,11710.640244,W,64.3,150.5,231210,,,A*49
$GPRMC,020944.9,A,3332.586479,N,11710.609142,W,62.8,148.7,231210,,,A*45
$GPRMC,020947.9,A,3332.539177,N,11710.581690,W,64.3,151.2,231210,,,A*42
$GPRMC,020950.9,A,3332.493941,N,11710.554094,W,62.4,151.7,231210,,,A*46
$GPRMC,020953.9,A,3332.444642,N,11710.523621,W,62.8,151.5,231210,,,A*45
$GPRMC,020956.9,A,3332.399961,N,11710.494551,W,61.5,151.8,231210,,,A*43
$GPRMC,020959.9,A,3332.353080,N,11710.462577,W,64.5,151.6,231210,,,A*4A
$GPRMC,021002.9,A,3332.308311,N,11710.431751,W,63.9,150.8,231210,,,A*4D
$GPRMC,021005.9,A,3332.261406,N,11710.399176,W,63.1,150.9,231210,,,A*4A
$GPRMC,021008.9,A,3332.215945,N,11710.371202,W,61.4,151.2,231210,,,A*45
$GPRMC,021011.9,A,3332.173713,N,11710.341998,W,59.8,150.8,231210,,,A*44
$GPRMC,021014.9,A,3332.130033,N,11710.312768,W,60.2,150.6,231210,,,A*4A
$GPRMC,021017.9,A,3332.086064,N,11710.281158,W,60.6,150.0,231210,,,A*4B
$GPRMC,021020.9,A,3332.037746,N,11710.252266,W,62.6,151.1,231210,,,A*40
$GPRMC,021023.9,A,3331.993467,N,11710.221121,W,61.9,150.7,231210,,,A*48
$GPRMC,021026.9,A,3331.946285,N,11710.188016,W,64.8,150.2,231210,,,A*4B
$GPRMC,021029.9,A,3331.899658,N,11710.157019,W,65.0,150.7,231210,,,A*42
$GPRMC,021032.9,A,3331.853951,N,11710.124710,W,65.0,150.1,231210,,,A*44
$GPRMC,021035.9,A,3331.807019,N,11710.093901,W,65.1,151.1,231210,,,A*44
$GPRMC,021038.9,A,3331.760491,N,11710.064010,W,63.5,150.5,231210,,,A*45
$GPRMC,021041.9,A,3331.715340,N,11710.033364,W,63.9,151.0,231210,,,A*48
$GPRMC,021044.9,A,3331.669947,N,11710.004499,W,63.1,151.3,231210,,,A*40
$GPRMC,021047.9,A,3331.620348,N,11709.969902,W,64.9,151.0,231210,,,A*42
$GPRMC,021050.9,A,3331.575025,N,11709.939766,W,63.1,150.1,231210,,,A*49
$GPRMC,021053.9,A,3331.528330,N,11709.911124,W,63.0,151.1,231210,,,A*4F
$GPRMC,021056.9,A,3331.484690,N,11709.880892,W,61.3,150.4,231210,,,A*4A
$GPRMC,021059.9,A,3331.435814,N,11709.849588,W,63.1,150.6,231210,,,A*4C
$GPRMC,021102.9,A,3331.388718,N,11709.819255,W,63.2,151.5,231210,,,A*42
$GPRMC,021105.9,A,3331.345159,N,11709.787785,W,62.3,150.1,231210,,,A*42
$GPRMC,021108.0,A,3331.314250,N,11709.766204,W,62.2,151.1,231210,,,A*4B
$GPRMC,021111.9,A,3331.256445,N,11709.725499,W,61.7,151.1,231210,,,A*4C
$GPRMC,021114.9,A,3331.211556,N,11709.696134,W,62.3,150.7,231210,,,A*42
$GPRMC,021117.9,A,3331.167632,N,11709.666455,W,60.5,151.7,231210,,,A*4A
$GPRMC,021120.9,A,3331.122166,N,11709.636956,W,62.7,150.6,231210,,,A*42
$GPRMC,021123.9,A,3331.077439,N,11709.606559,W,62.4,151.3,231210,,,A*48
$GPRMC,021126.2,A,3331.041655,N,11709.583268,W,62.7,151.4,231210,,,A*44
$GPRMC,021129.9,A,3330.985469,N,11709.545512,W,62.9,149.7,231210,,,A*49
$GPRMC,021132.9,A,3330.941635,N,11709.515799,W,61.5,150.5,231210,,,A*41
$GPRMC,021135.9,A,3330.896273,N,11709.486856,W,61.3,152.4,231210,,,A*49
$GPRMC,021138.9,A,3330.848605,N,11709.458763,W,61.9,155.0,231210,,,A*41
$GPRMC,021141.9,A,3330.802074,N,11709.437307,W,61.9,158.2,231210,,,A*41
$GPRMC,021144.9,A,3330.750361,N,11709.413569,W,64.1,158.9,231210,,,A*45
$GPRMC,021148.2,A,3330.695590,N,11709.387284,W,66.1,159.4,231210,,,A*42
$GPRMC,021151.9,A,3330.632038,N,11709.358683,W,65.5,159.3,231210,,,A*4A
$GPRMC,021154.9,A,3330.582714,N,11709.337474,W,63.8,159.4,231210,,,A*41
$GPRMC,021157.9,A,3330.534221,N,11709.315782,W,61.8,159.0,231210,,,A*40
$GPRMC,021200.9,A,3330.487282,N,11709.296059,W,60.4,159.6,231210,,,A*41
$GPRMC,021203.9,A,3330.439497,N,11709.274134,W,59.3,159.1,231210,,,A*49
$GPRMC,021206.9,A,3330.395088,N,11709.253208,W,58.5,158.4,231210,,,A*4D
$GPRMC,021209.9,A,3330.347232,N,11709.231131,W,60.3,158.8,231210,,,A*42
$GPRMC,021212.9,A,3330.298170,N,11709.209767,W,61.3,159.5,231210,,,A*4D
$GPRMC,021215.9,A,3330.252212,N,11709.187590,W,61.2,158.6,231210,,,A*47
$GPRMC,021218.9,A,3330.203961,N,11709.164609,W,62.3,158.4,231210,,,A*4F
$GPRMC,021221.9,A,3330.153024,N,11709.142874,W,63.6,159.4,231210,,,A*4E
$GPRMC,021224.9,A,3330.104428,N,11709.118996,W,63.5,158.5,231210,,,A*40
$GPRMC,021227.9,A,3330.056028,N,11709.094102,W,63.8,156.7,231210,,,A*40
$GPRMC,021230.2,A,3330.018766,N,11709.073548,W,62.9,155.4,231210,,,A*49
$GPRMC,021233.2,A,3329.975290,N,11709.046275,W,60.4,152.0,231210,,,A*4F
$GPRMC,021236.9,A,3329.921027,N,11709.010927,W,61.4,150.0,231210,,,A*42
$GPRMC,021239.9,A,3329.878011,N,11708.978527,W,62.2,148.1,231210,,,A*42
$GPRMC,021242.9,A,3329.838427,N,11708.944327,W,60.7,144.0,231210,,,A*48
$GPRMC,021245.9,A,3329.796523,N,11708.906772,W,61.0,143.4,231210,,,A*46
$GPRMC,021248.9,A,3329.757909,N,11708.868425,W,62.2,141.3,231210,,,A*4E
$GPRMC,021251.9,A,3329.720526,N,11708.831390,W,57.9,139.9,231210,,,A*4A
$GPRMC,021254.9,A,3329.681873,N,11708.793390,W,58.8,143.5,231210,,,A*40
$GPRMC,021257.9,A,3329.643710,N,11708.763271,W,55.0,148.0,231210,,,A*4D
$GPRMC,021300.9,A,3329.603511,N,11708.737623,W,54.3,152.4,231210,,,A*46
$GPRMC,021303.9,A,3329.564080,N,11708.715481,W,51.0,156.5,231210,,,A*43
$GPRMC,021306.2,A,3329.532250,N,11708.702153,W,52.5,160.6,231210,,,A*4D
$GPRMC,021309.9,A,3329.481522,N,11708.681653,W,53.2,162.6,231210,,,A*4B
$GPRMC,021312.9,A,3329.437825,N,11708.666739,W,52.8,162.4,231210,,,A*4B
$GPRMC,021315.2,A,3329.405240,N,11708.654658,W,52.5,162.7,231210,,,A*46
$GPRMC,021318.9,A,3329.354585,N,11708.634161,W,52.4,161.7,231210,,,A*44
$GPRMC,021321.9,A,3329.307900,N,11708.621629,W,54.8,163.5,231210,,,A*4C
$GPRMC,021324.9,A,3329.264588,N,11708.608417,W,54.6,164.1,231210,,,A*48
$GPRMC,021327.9,A,3329.221514,N,11708.590837,W,56.4,162.9,231210,,,A*4D
$GPRMC,021330.9,A,3329.175095,N,11708.575333,W,57.3,163.5,231210,,,A*4A
$GPRMC,021333.9,A,3329.128602,N,11708.558547,W,58.3,162.6,231210,,,A*4E
$GPRMC,021336.9,A,3329.082387,N,11708.542137,W,58.6,163.4,231210,,,A*4C
$GPRMC,021339.9,A,3329.035921,N,11708.524114,W,58.1,162.8,231210,,,A*42
$GPRMC,021342.9,A,3328.990370,N,11708.507086,W,58.2,163.0,231210,,,A*46
$GPRMC,021345.9,A,3328.941037,N,11708.489281,W,59.2,163.6,231210,,,A*48
$GPRMC,021348.9,A,3328.891718,N,11708.472513,W,60.6,164.2,231210,,,A*46
$GPRMC,021351.9,A,3328.844704,N,11708.453642,W,59.4,162.5,231210,,,A*46
$GPRMC,021354.9,A,3328.797234,N,11708.438200,W,60.0,163.8,231210,,,A*49
$GPRMC,021357.9,A,3328.751261,N,11708.420567,W,59.1,162.9,231210,,,A*44
$GPRMC,021400.9,A,3328.700648,N,11708.402682,W,60.1,163.2,231210,,,A*42
$GPRMC,021403.9,A,3328.656105,N,11708.385999,W,58.4,163.0,231210,,,A*4C
$GPRMC,021406.9,A,3328.607955,N,11708.369875,W,59.5,163.5,231210,,,A*44
$GPRMC,021410.2,A,3328.558030,N,11708.350728,W,57.6,162.7,231210,,,A*48
$GPRMC,021413.9,A,3328.503186,N,11708.328408,W,57.8,160.0,231210,,,A*47
$GPRMC,021416.9,A,3328.460428,N,11708.317546,W,54.1,163.7,231210,,,A*4E
$GPRMC,021419.9,A,3328.419464,N,11708.301983,W,52.2,163.3,231210,,,A*44
$GPRMC,021422.9,A,3328.375545,N,11708.286343,W,54.1,163.5,231210,,,A*48
$GPRMC,021425.9,A,3328.334725,N,11708.270486,W,53.2,163.6,231210,,,A*4E
$GPRMC,021428.0,A,3328.305014,N,11708.260002,W,54.7,163.4,231210,,,A*44
$GPRMC,021431.9,A,3328.249809,N,11708.242357,W,52.4,164.4,231210,,,A*49
$GPRMC,021434.9,A,3328.208765,N,11708.228875,W,51.7,165.1,231210,,,A*4F
$GPRMC,021437.9,A,3328.163763,N,11708.214817,W,52.6,168.3,231210,,,A*42
$GPRMC,021440.9,A,3328.123017,N,11708.204796,W,50.6,169.5,231210,,,A*40
$GPRMC,021443.9,A,3328.085626,N,11708.197798,W,47.6,171.8,231210,,,A*4F
$GPRMC,021446.9,A,3328.044698,N,11708.190858,W,48.5,172.9,231210,,,A*48
$GPRMC,021449.9,A,3328.008010,N,11708.184747,W,45.8,175.0,231210,,,A*43
$GPRMC,021452.9,A,3327.968858,N,11708.184053,W,45.3,178.6,231210,,,A*4F
$GPRMC,021455.9,A,3327.935644,N,11708.181576,W,43.5,180.0,231210,,,A*45
$GPRMC,021458.9,A,3327.889543,N,11708.185398,W,46.8,181.9,231210,,,A*48
$GPRMC,021501.9,A,3327.848341,N,11708.188151,W,47.9,182.9,231210,,,A*45
$GPRMC,021504.9,A,3327.810671,N,11708.189294,W,47.8,180.8,231210,,,A*42
$GPRMC,021507.9,A,3327.763143,N,11708.192753,W,49.6,179.1,231210,,,A*47
$GPRMC,021510.9,A,3327.727145,N,11708.186680,W,47.6,175.8,231210,,,A*46
$GPRMC,021513.9,A,3327.689617,N,11708.181872,W,46.3,174.2,231210,,,A*4B
$GPRMC,021516.9,A,3327.648988,N,11708.176691,W,48.6,174.3,231210,,,A*4B
$GPRMC,021519.9,A,3327.611931,N,11708.171805,W,46.0,174.4,231210,,,A*41
$GPRMC,021522.9,A,3327.578473,N,11708.163584,W,43.3,172.9,231210,,,A*44
$GPRMC,021525.9,A,3327.539430,N,11708.160034,W,44.3,174.3,231210,,,A*47
$GPRMC,021528.9,A,3327.501804,N,11708.155375,W,44.5,172.8,231210,,,A*41
$GPRMC,021531.9,A,3327.463649,N,11708.150811,W,46.5,173.3,231210,,,A*4F
$GPRMC,021534.9,A,3327.413131,N,11708.149715,W,49.9,174.8,231210,,,A*49
$GPRMC,021537.9,A,3327.359198,N,11708.146905,W,55.8,174.9,231210,,,A*4D
$GPRMC,021557.2,A,3327.319151,N,11708.032909,W,60.3,184.5,231210,,,A*41
$GPRMC,021600.2,A,3327.269522,N,11708.038585,W,58.5,187.7,231210,,,A*48
$GPRMC,021603.2,A,3327.220888,N,11708.047278,W,59.8,191.4,231210,,,A*4E
$GPRMC,021606.2,A,3327.172131,N,11708.059928,W,60.8,194.6,231210,,,A*48
$GPRMC,021609.2,A,3327.122545,N,11708.075619,W,61.4,195.2,231210,,,A*4E
$GPRMC,021630.2,A,3326.561784,N,11708.253233,W,60.5,197.1,231210,,,A*42
$GPRMC,021633.2,A,3326.506864,N,11708.278054,W,60.5,199.0,231210,,,A*44
$GPRMC,021636.2,A,3326.454954,N,11708.302490,W,60.4,200.7,231210,,,A*40
$GPRMC,021639.2,A,3326.403321,N,11708.327393,W,60.6,202.4,231210,,,A*45
$GPRMC,021642.2,A,3326.351395,N,11708.352255,W,61.5,203.6,231210,,,A*4E
$GPRMC,021645.2,A,3326.297784,N,11708.378395,W,62.0,205.3,231210,,,A*46
$GPRMC,021648.2,A,3326.243713,N,11708.404720,W,62.0,206.7,231210,,,A*4D
$GPRMC,021651.2,A,3326.195195,N,11708.433578,W,62.1,208.7,231210,,,A*41
$GPRMC,021654.9,A,3326.135489,N,11708.471606,W,61.0,208.2,231210,,,A*46
$GPRMC,021657.9,A,3326.090492,N,11708.503445,W,59.8,212.3,231210,,,A*49
$GPRMC,021700.9,A,3326.042788,N,11708.541439,W,63.5,214.1,231210,,,A*40
$GPRMC,021703.9,A,3325.998133,N,11708.580726,W,62.1,216.0,231210,,,A*4E
$GPRMC,021706.9,A,3325.956243,N,11708.618412,W,60.9,217.3,231210,,,A*43
$GPRMC,021709.9,A,3325.916923,N,11708.658607,W,61.2,220.1,231210,,,A*4B
$GPRMC,021712.9,A,3325.875538,N,11708.700406,W,63.5,221.1,231210,,,A*48
$GPRMC,021715.9,A,3325.836275,N,11708.744908,W,62.9,223.3,231210,,,A*48
$GPRMC,021718.9,A,3325.799599,N,11708.789991,W,62.8,225.1,231210,,,A*4E
$GPRMC,021721.9,A,3325.763579,N,11708.832204,W,61.8,224.7,231210,,,A*43
$GPRMC,021724.9,A,3325.726414,N,11708.876182,W,62.1,224.9,231210,,,A*44
$GPRMC,021727.9,A,3325.692773,N,11708.918578,W,60.7,225.7,231210,,,A*48
$GPRMC,021730.9,A,3325.654667,N,11708.964115,W,61.5,224.1,231210,,,A*40
$GPRMC,021733.9,A,3325.616892,N,11709.000440,W,59.7,221.1,231210,,,A*42
$GPRMC,021736.9,A,3325.577066,N,11709.041866,W,60.3,217.5,231210,,,A*42
$GPRMC,021739.9,A,3325.532302,N,11709.079742,W,62.0,213.6,231210,,,A*49
$GPRMC,021742.9,A,3325.488255,N,11709.114818,W,60.2,211.8,231210,,,A*40
$GPRMC,021745.9,A,3325.443431,N,11709.145122,W,60.5,210.3,231210,,,A*4D
$GPRMC,021748.9,A,3325.397466,N,11709.177433,W,62.9,210.6,231210,,,A*43
$GPRMC,021751.9,A,3325.351887,N,11709.207993,W,63.1,210.3,231210,,,A*4D
$GPRMC,021754.9,A,3325.305600,N,11709.240076,W,62.9,210.2,231210,,,A*41
$GPRMC,021757.9,A,3325.261171,N,11709.270891,W,62.5,210.0,231210,,,A*4C
$GPRMC,021800.9,A,3325.216725,N,11709.302359,W,62.5,210.6,231210,,,A*4B
$GPRMC,021803.9,A,3325.171596,N,11709.334960,W,62.0,211.4,231210,,,A*43
$GPRMC,021806.9,A,3325.127743,N,11709.369813,W,61.9,212.7,231210,,,A*48
$GPRMC,021809.9,A,3325.078479,N,11709.404116,W,64.8,211.1,231210,,,A*47
$GPRMC,021812.9,A,3325.034197,N,11709.437008,W,63.5,211.6,231210,,,A*43
$GPRMC,021815.9,A,3324.987328,N,11709.469742,W,64.0,211.2,231210,,,A*46
$GPRMC,021818.9,A,3324.943283,N,11709.503562,W,63.5,211.5,231210,,,A*4B
$GPRMC,021821.9,A,3324.896918,N,11709.534207,W,63.4,210.9,231210,,,A*4D
$GPRMC,021824.9,A,3324.851806,N,11709.567978,W,63.2,211.3,231210,,,A*45
$GPRMC,021827.9,A,3324.806810,N,11709.600734,W,63.5,212.0,231210,,,A*40
$GPRMC,021830.9,A,3324.763687,N,11709.632668,W,62.5,211.8,231210,,,A*49
$GPRMC,021833.9,A,3324.703815,N,11709.673861,W,62.7,211.0,231210,,,A*41
$GPRMC,021836.2,A,3324.685369,N,11709.694581,W,62.6,212.0,231210,,,A*48
$GPRMC,021839.9,A,3324.632787,N,11709.730432,W,61.6,211.1,231210,,,A*43
$GPRMC,021842.9,A,3324.584691,N,11709.763665,W,63.2,211.2,231210,,,A*44
$GPRMC,021845.9,A,3324.542126,N,11709.794394,W,61.6,211.0,231210,,,A*45
$GPRMC,021848.9,A,3324.496643,N,11709.828756,W,62.8,212.0,231210,,,A*48
$GPRMC,021851.9,A,3324.443444,N,11709.867570,W,62.5,213.9,231210,,,A*45
$GPRMC,021854.0,A,3324.383578,N,11709.916016,W,63.7,215.0,231210,,,A*42
$GPRMC,021857.2,A,3324.353181,N,11709.920173,W,63.4,215.4,231210,,,A*4C
$GPRMC,021900.2,A,3324.317103,N,11709.955650,W,63.3,215.1,231210,,,A*43
$GPRMC,021903.2,A,3324.287774,N,11709.997526,W,63.5,215.2,231210,,,A*47
$GPRMC,021906.2,A,3324.234608,N,11710.025474,W,63.4,215.4,231210,,,A*49
$GPRMC,021910.2,A,3324.182961,N,11710.078972,W,63.4,214.1,231210,,,A*47
$GPRMC,021913.2,A,3324.144633,N,11710.117275,W,63.5,213.3,231210,,,A*46
$GPRMC,021916.9,A,3324.089539,N,11710.161997,W,64.3,214.6,231210,,,A*44
$GPRMC,021919.9,A,3324.041272,N,11710.193052,W,65.9,209.1,231210,,,A*4A
$GPRMC,021922.9,A,3323.994751,N,11710.225768,W,64.6,208.3,231210,,,A*4D
$GPRMC,021925.9,A,3323.951580,N,11710.256822,W,63.0,209.6,231210,,,A*4D
$GPRMC,021928.9,A,3323.905294,N,11710.286381,W,63.2,208.4,231210,,,A*4D
$GPRMC,021931.9,A,3323.855434,N,11710.314615,W,64.5,206.5,231210,,,A*40
$GPRMC,021934.2,A,3323.818739,N,11710.335395,W,64.0,205.0,231210,,,A*44
$GPRMC,021937.2,A,3323.770350,N,11710.361442,W,63.5,203.9,231210,,,A*4C
$GPRMC,021940.2,A,3323.722078,N,11710.386076,W,63.2,202.1,231210,,,A*46
$GPRMC,021943.2,A,3323.672863,N,11710.407748,W,63.2,199.8,231210,,,A*4F
$GPRMC,021946.0,A,3323.626220,N,11710.422226,W,63.2,197.7,231210,,,A*4F
$GPRMC,021949.9,A,3323.557784,N,11710.445369,W,65.0,195.0,231210,,,A*4D
$GPRMC,021952.9,A,3323.508485,N,11710.459982,W,61.9,193.1,231210,,,A*47
$GPRMC,021955.9,A,3323.454024,N,11710.470717,W,65.0,189.9,231210,,,A*40
$GPRMC,021958.9,A,3323.402340,N,11710.480420,W,63.1,188.9,231210,,,A*41
$GPRMC,022001.9,A,3323.350075,N,11710.489581,W,63.2,187.1,231210,,,A*45
$GPRMC,022004.9,A,3323.294615,N,11710.492846,W,65.3,183.7,231210,,,A*40
$GPRMC,022007.9,A,3323.242396,N,11710.494211,W,64.8,180.9,231210,,,A*4F
$GPRMC,022010.2,A,3323.202479,N,11710.494065,W,63.4,179.2,231210,,,A*47
$GPRMC,022013.9,A,3323.142653,N,11710.491175,W,62.6,176.9,231210,,,A*40
$GPRMC,022016.9,A,3323.085137,N,11710.482980,W,65.8,174.2,231210,,,A*4A
$GPRMC,022019.9,A,3323.036506,N,11710.473887,W,61.9,172.2,231210,,,A*40
$GPRMC,022022.9,A,3322.985599,N,11710.466915,W,62.5,170.7,231210,,,A*48
$GPRMC,022025.9,A,3322.934655,N,11710.454424,W,62.9,167.9,231210,,,A*4C
$GPRMC,022028.9,A,3322.882880,N,11710.441135,W,62.4,166.8,231210,,,A*47
$GPRMC,022031.9,A,3322.830537,N,11710.422746,W,64.2,164.0,231210,,,A*4A
$GPRMC,022034.9,A,3322.784665,N,11710.403458,W,61.4,160.8,231210,,,A*4B
$GPRMC,022037.9,A,3322.734242,N,11710.380782,W,62.8,159.2,231210,,,A*45
$GPRMC,022040.9,A,3322.684056,N,11710.353335,W,63.9,155.8,231210,,,A*48
$GPRMC,022043.9,A,3322.631938,N,11710.325455,W,65.8,154.5,231210,,,A*4F
$GPRMC,022046.9,A,3322.586997,N,11710.296341,W,63.2,152.0,231210,,,A*44
$GPRMC,022049.9,A,3322.539156,N,11710.264250,W,64.6,150.2,231210,,,A*45
$GPRMC,022052.9,A,3322.493930,N,11710.230692,W,64.4,147.2,231210,,,A*49
$GPRMC,022055.9,A,3322.446793,N,11710.197952,W,66.2,148.5,231210,,,A*40
$GPRMC,022058.9,A,3322.408013,N,11710.157227,W,64.1,142.7,231210,,,A*44
$GPRMC,022101.9,A,3322.364546,N,11710.120078,W,65.0,143.5,231210,,,A*4A
$GPRMC,022104.9,A,3322.326682,N,11710.077307,W,64.8,139.3,231210,,,A*48
$GPRMC,022107.9,A,3322.288716,N,11710.036445,W,62.9,138.3,231210,,,A*40
$GPRMC,022110.9,A,3322.248222,N,11709.990559,W,65.1,137.6,231210,,,A*4C
$GPRMC,022113.9,A,3322.209451,N,11709.948984,W,63.9,138.3,231210,,,A*45
$GPRMC,022116.9,A,3322.169709,N,11709.907952,W,63.1,140.1,231210,,,A*4E
$GPRMC,022119.9,A,3322.127839,N,11709.870219,W,63.3,143.2,231210,,,A*40
$GPRMC,022122.9,A,3322.083341,N,11709.832506,W,63.7,144.8,231210,,,A*45
$GPRMC,022125.9,A,3322.036394,N,11709.795839,W,65.0,147.8,231210,,,A*45
$GPRMC,022128.9,A,3321.993877,N,11709.759708,W,63.8,148.5,231210,,,A*4A
$GPRMC,022131.9,A,3321.949126,N,11709.727653,W,64.6,151.8,231210,,,A*42
$GPRMC,022134.9,A,3321.899524,N,11709.699026,W,64.3,154.5,231210,,,A*40
$GPRMC,022137.9,A,3321.849961,N,11709.676079,W,63.4,157.7,231210,,,A*49
$GPRMC,022140.9,A,3321.802360,N,11709.650796,W,63.2,158.2,231210,,,A*43
$GPRMC,022143.0,A,3321.767643,N,11709.634024,W,63.7,160.1,231210,,,A*40
$GPRMC,022146.9,A,3321.703007,N,11709.609486,W,62.0,163.0,231210,,,A*4E
$GPRMC,022149.9,A,3321.652325,N,11709.590711,W,64.6,164.7,231210,,,A*49
$GPRMC,022152.9,A,3321.602673,N,11709.577000,W,63.4,167.9,231210,,,A*46
$GPRMC,022155.9,A,3321.551962,N,11709.564045,W,63.5,169.9,231210,,,A*47
$GPRMC,022158.9,A,3321.497918,N,11709.556015,W,65.2,172.8,231210,,,A*42
$GPRMC,022201.9,A,3321.444520,N,11709.549288,W,64.5,174.8,231210,,,A*4C
$GPRMC,022204.9,A,3321.391882,N,11709.546768,W,63.5,177.3,231210,,,A*48
$GPRMC,022207.9,A,3321.339073,N,11709.544463,W,62.8,179.2,231210,,,A*46
$GPRMC,022210.9,A,3321.285265,N,11709.545430,W,65.0,180.4,231210,,,A*4B
$GPRMC,022213.9,A,3321.230853,N,11709.545101,W,64.8,180.0,231210,,,A*43
$GPRMC,022216.9,A,3321.178315,N,11709.547497,W,64.4,180.7,231210,,,A*43
$GPRMC,022219.0,A,3321.140917,N,11709.548823,W,65.3,181.1,231210,,,A*4B
$GPRMC,022222.0,A,3321.086631,N,11709.549618,W,65.1,181.2,231210,,,A*45
$GPRMC,022229.2,A,3320.958478,N,11709.550729,W,64.4,180.6,231210,,,A*42
$GPRMC,022232.9,A,3320.893454,N,11709.553509,W,64.5,181.1,231210,,,A*4F
$GPRMC,022235.9,A,3320.840411,N,11709.553290,W,64.1,180.2,231210,,,A*46
$GPRMC,022238.9,A,3320.786292,N,11709.553717,W,64.4,179.9,231210,,,A*41
$GPRMC,022241.9,A,3320.733812,N,11709.554134,W,64.3,181.1,231210,,,A*4B
$GPRMC,022244.2,A,3320.691696,N,11709.555662,W,63.1,183.0,231210,,,A*4D
$GPRMC,022248.2,A,3320.620232,N,11709.555893,W,64.8,179.7,231210,,,A*4D
$GPRMC,022251.0,A,3320.568148,N,11709.556535,W,64.4,181.2,231210,,,A*4A
$GPRMC,022254.9,A,3320.495335,N,11709.557825,W,65.6,181.3,231210,,,A*42
$GPRMC,022257.9,A,3320.442090,N,11709.557821,W,64.7,180.8,231210,,,A*49
$GPRMC,022300.9,A,3320.390032,N,11709.559886,W,63.8,181.4,231210,,,A*4C
$GPRMC,022303.9,A,3320.338444,N,11709.559877,W,63.2,180.9,231210,,,A*40
$GPRMC,022306.9,A,3320.285663,N,11709.562192,W,63.8,181.0,231210,,,A*4D
$GPRMC,022309.9,A,3320.230007,N,11709.561829,W,64.6,180.5,231210,,,A*4F
$GPRMC,022312.9,A,3320.176615,N,11709.561734,W,65.6,180.6,231210,,,A*40
$GPRMC,022315.9,A,3320.123214,N,11709.562562,W,64.5,180.9,231210,,,A*4D
$GPRMC,022318.9,A,3320.068503,N,11709.565320,W,65.8,181.2,231210,,,A*4E
$GPRMC,022321.9,A,3320.012546,N,11709.564252,W,65.3,180.0,231210,,,A*45
$GPRMC,022324.9,A,3319.956040,N,11709.565853,W,65.6,180.8,231210,,,A*47
$GPRMC,022327.9,A,3319.903945,N,11709.567868,W,64.4,181.7,231210,,,A*4F
$GPRMC,022330.9,A,3319.850334,N,11709.569759,W,64.6,181.7,231210,,,A*43
$GPRMC,022333.0,A,3319.813794,N,11709.570815,W,63.0,181.8,231210,,,A*41
$GPRMC,022336.9,A,3319.744788,N,11709.570079,W,63.5,178.5,231210,,,A*41
$GPRMC,022339.9,A,3319.692704,N,11709.564505,W,64.3,175.4,231210,,,A*46
$GPRMC,022342.9,A,3319.633457,N,11709.555791,W,66.8,172.9,231210,,,A*4A
$GPRMC,022345.9,A,3319.580208,N,11709.545342,W,65.0,170.6,231210,,,A*47
$GPRMC,022348.9,A,3319.527424,N,11709.533626,W,64.7,168.4,231210,,,A*44
$GPRMC,022351.9,A,3319.471223,N,11709.521047,W,66.5,167.7,231210,,,A*41
$GPRMC,022354.9,A,3319.419318,N,11709.501145,W,64.5,163.2,231210,,,A*41
$GPRMC,022357.9,A,3319.371857,N,11709.480562,W,62.7,159.9,231210,,,A*44
$GPRMC,022400.9,A,3319.325088,N,11709.459960,W,62.1,157.7,231210,,,A*46
$GPRMC,022403.9,A,3319.277495,N,11709.433890,W,62.9,155.1,231210,,,A*45
$GPRMC,022406.9,A,3319.228483,N,11709.405406,W,64.9,153.5,231210,,,A*4F
$GPRMC,022409.9,A,3319.181918,N,11709.375949,W,62.5,151.1,231210,,,A*45
$GPRMC,022412.2,A,3319.084377,N,11709.384652,W,63.7,151.3,231210,,,A*49
$GPRMC,022415.2,A,3319.064757,N,11709.339620,W,64.8,150.7,231210,,,A*48
$GPRMC,022418.2,A,3319.030883,N,11709.300827,W,65.6,151.1,231210,,,A*49
$GPRMC,022421.2,A,3318.989318,N,11709.266074,W,65.6,152.0,231210,,,A*4D
$GPRMC,022424.9,A,3318.929569,N,11709.228208,W,65.8,152.2,231210,,,A*46
$GPRMC,022427.9,A,3318.886570,N,11709.195456,W,64.7,152.2,231210,,,A*4F
$GPRMC,022430.9,A,3318.837096,N,11709.166585,W,65.5,154.3,231210,,,A*49
$GPRMC,022433.9,A,3318.788903,N,11709.140147,W,64.1,155.6,231210,,,A*4B
$GPRMC,022436.9,A,3318.737296,N,11709.117910,W,64.0,159.2,231210,,,A*4C
$GPRMC,022439.9,A,3318.690390,N,11709.098351,W,60.2,161.8,231210,,,A*46
$GPRMC,022442.9,A,3318.633254,N,11709.079017,W,65.6,164.1,231210,,,A*49
$GPRMC,022451.2,A,3318.486171,N,11709.045373,W,65.3,172.3,231210,,,A*46
$GPRMC,022454.2,A,3318.432027,N,11709.038319,W,65.1,174.4,231210,,,A*4B
$GPRMC,022457.2,A,3318.376446,N,11709.032753,W,65.2,176.8,231210,,,A*41
$GPRMC,022500.9,A,3318.310007,N,11709.029356,W,64.0,177.1,231210,,,A*48
$GPRMC,022503.9,A,3318.255590,N,11709.025423,W,64.5,177.0,231210,,,A*4D
$GPRMC,022506.9,A,3318.201300,N,11709.024692,W,64.8,178.1,231210,,,A*4C
$GPRMC,022509.9,A,3318.143380,N,11709.019027,W,67.3,176.8,231210,,,A*47
$GPRMC,022512.9,A,3318.091634,N,11709.014630,W,65.4,176.4,231210,,,A*4D
$GPRMC,022515.9,A,3318.035087,N,11709.011219,W,65.8,177.4,231210,,,A*4D
$GPRMC,022518.9,A,3317.984559,N,11709.007161,W,64.5,176.2,231210,,,A*4A
$GPRMC,022521.9,A,3317.937309,N,11709.002298,W,62.3,176.3,231210,,,A*4A
$GPRMC,022524.9,A,3317.878849,N,11708.999308,W,64.8,176.5,231210,,,A*43
$GPRMC,022527.9,A,3317.822401,N,11708.996501,W,66.1,177.7,231210,,,A*47
$GPRMC,022530.9,A,3317.768424,N,11708.995985,W,65.7,178.4,231210,,,A*4D
$GPRMC,022533.9,A,3317.714550,N,11708.991756,W,65.4,177.5,231210,,,A*4E
$GPRMC,022536.9,A,3317.659336,N,11708.987358,W,65.2,177.0,231210,,,A*4B
$GPRMC,022539.2,A,3317.616703,N,11708.984237,W,65.1,176.7,231210,,,A*48
$GPRMC,022543.2,A,3317.544270,N,11708.979155,W,65.3,176.8,231210,,,A*48
$GPRMC,022546.9,A,3317.470245,N,11708.978586,W,68.4,177.5,231210,,,A*4B
$GPRMC,022549.2,A,3317.428602,N,11708.975767,W,67.6,177.6,231210,,,A*4B
$GPRMC,022552.9,A,3317.359830,N,11708.971379,W,67.6,177.9,231210,,,A*44
$GPRMC,022556.2,A,3317.298925,N,11708.971799,W,64.9,181.1,231210,,,A*45
$GPRMC,022559.2,A,3317.244465,N,11708.976554,W,65.7,183.6,231210,,,A*4C
$GPRMC,022602.9,A,3317.174148,N,11708.987156,W,66.9,187.4,231210,,,A*43
$GPRMC,022605.9,A,3317.119638,N,11708.999617,W,65.2,190.7,231210,,,A*4F
$GPRMC,022608.9,A,3317.065556,N,11709.013889,W,65.8,192.8,231210,,,A*47
$GPRMC,022611.9,A,3317.011706,N,11709.029031,W,65.4,194.7,231210,,,A*4C
$GPRMC,022614.9,A,3316.960205,N,11709.049336,W,65.6,198.2,231210,,,A*48
$GPRMC,022617.9,A,3316.907207,N,11709.073188,W,67.3,200.4,231210,,,A*45
$GPRMC,022620.9,A,3316.855570,N,11709.096779,W,66.1,202.0,231210,,,A*46
$GPRMC,022623.9,A,3316.801666,N,11709.122607,W,67.6,204.1,231210,,,A*47
$GPRMC,022626.9,A,3316.752421,N,11709.152331,W,66.4,206.0,231210,,,A*4D
$GPRMC,022629.9,A,3316.706798,N,11709.182637,W,64.4,207.9,231210,,,A*46
$GPRMC,022632.9,A,3316.657893,N,11709.212651,W,65.4,206.6,231210,,,A*48
$GPRMC,022635.9,A,3316.605672,N,11709.237594,W,66.4,205.0,231210,,,A*42
$GPRMC,022638.9,A,3316.555475,N,11709.264944,W,66.9,205.1,231210,,,A*47
$GPRMC,022641.9,A,3316.503196,N,11709.296049,W,68.5,206.2,231210,,,A*49
$GPRMC,022644.9,A,3316.452359,N,11709.323536,W,67.4,204.8,231210,,,A*4C
$GPRMC,022647.9,A,3316.405325,N,11709.354967,W,65.8,206.3,231210,,,A*49
$GPRMC,022650.9,A,3316.355525,N,11709.382753,W,66.3,204.9,231210,,,A*49
$GPRMC,022653.9,A,3316.303787,N,11709.409362,W,66.7,203.1,231210,,,A*4A
$GPRMC,022656.9,A,3316.252092,N,11709.434434,W,66.5,201.2,231210,,,A*40
$GPRMC,022659.9,A,3316.200207,N,11709.455019,W,66.3,198.7,231210,,,A*4A
$GPRMC,022702.9,A,3316.147785,N,11709.474558,W,66.0,196.8,231210,,,A*4B
$GPRMC,022705.9,A,3316.097012,N,11709.491605,W,63.8,194.5,231210,,,A*4B
$GPRMC,022708.9,A,3316.045354,N,11709.505617,W,64.7,192.2,231210,,,A*4E
$GPRMC,022711.9,A,3315.991813,N,11709.516505,W,64.3,189.6,231210,,,A*45
$GPRMC,022714.9,A,3315.938455,N,11709.524616,W,64.5,187.3,231210,,,A*40
$GPRMC,022717.9,A,3315.885374,N,11709.529446,W,63.9,184.9,231210,,,A*48
$GPRMC,022720.9,A,3315.828993,N,11709.536495,W,66.0,183.8,231210,,,A*42
$GPRMC,022733.2,A,3315.925493,N,11709.166826,W,72.3,95.8,231210,,,A*7F
$GPRMC,022736.9,A,3315.799847,N,11709.241380,W,56.2,151.5,231210,,,A*4F
$GPRMC,022739.9,A,3315.727370,N,11709.254222,W,63.7,167.0,231210,,,A*44
$GPRMC,022746.2,A,3315.371624,N,11709.462238,W,65.9,162.9,231210,,,A*48
$GPRMC,022749.2,A,3315.324699,N,11709.439571,W,65.6,160.7,231210,,,A*46
$GPRMC,022752.2,A,3315.273162,N,11709.418193,W,65.9,160.1,231210,,,A*4E
$GPRMC,022755.2,A,3315.222843,N,11709.396124,W,65.6,160.0,231210,,,A*44
$GPRMC,022758.2,A,3315.171980,N,11709.373841,W,65.5,160.0,231210,,,A*40
$GPRMC,022801.2,A,3315.120241,N,11709.352022,W,65.4,160.3,231210,,,A*4D
$GPRMC,022804.2,A,3315.068979,N,11709.329999,W,65.6,160.0,231210,,,A*41
$GPRMC,022807.2,A,3315.017944,N,11709.307761,W,65.5,160.1,231210,,,A*43
