NMEA Sentence Code,UTC Time,Status,Latitude,Latitude Direction,Longitude,Longitude Direction,Speed (knots),Track Angle (degrees true),Date,MagneticVariation,Magnetic Variation Direction,[FAA Mode]-Optional,Checksum
$GPRMC,164712.4,A,3311.7366,N,11722.6182,W,18.90,324.70,110210,,*2D
$GPRMC,164715.4,A,3311.7482,N,11722.6283,W,14.80,325.10,110210,,*2F
$GPRMC,164718.4,A,3311.7558,N,11722.6335,W,9.00,332.70,110210,,*1C
$GPRMC,164721.4,A,3311.7593,N,11722.6370,W,9.90,324.70,110210,,*1E
$GPRMC,164724.4,A,3311.7659,N,11722.6426,W,11.00,321.90,110210,,*21
$GPRMC,164727.4,A,3311.7765,N,11722.6518,W,19.10,324.80,110210,,*2D
$GPRMC,164730.4,A,3311.7892,N,11722.6628,W,18.60,324.90,110210,,*2B
$GPRMC,164733.4,A,3311.8004,N,11722.6720,W,13.70,328.40,110210,,*22
$GPRMC,164736.4,A,3311.8086,N,11722.6765,W,9.30,337.80,110210,,*11
$GPRMC,164739.4,A,3311.8119,N,11722.6753,W,8.50,26.50,110210,,*25
$GPRMC,164742.4,A,3311.8167,N,11722.6669,W,12.50,51.50,110210,,*13
$GPRMC,164745.4,A,3311.8247,N,11722.6513,W,19.80,55.10,110210,,*1D
$GPRMC,164748.4,A,3311.8340,N,11722.6346,W,21.20,55.00,110210,,*10
$GPRMC,164751.4,A,3311.8444,N,11722.6162,W,22.50,54.20,110210,,*18
$GPRMC,164754.4,A,3311.8550,N,11722.5973,W,22.50,57.60,110210,,*15
$GPRMC,164757.4,A,3311.8652,N,11722.5783,W,23.10,56.90,110210,,*1D
$GPRMC,164800.4,A,3311.8761,N,11722.5590,W,23.60,55.40,110210,,*18
$GPRMC,164803.4,A,3311.8872,N,11722.5401,W,23.30,55.40,110210,,*1A
$GPRMC,164806.4,A,3311.8985,N,11722.5210,W,24.00,54.70,110210,,*16
$GPRMC,164809.4,A,3311.9100,N,11722.5018,W,23.50,54.80,110210,,*1A
$GPRMC,164812.4,A,3311.9217,N,11722.4826,W,23.70,54.70,110210,,*1C
$GPRMC,164815.4,A,3311.9330,N,11722.4632,W,23.30,55.30,110210,,*15
$GPRMC,164818.4,A,3311.9435,N,11722.4448,W,20.70,57.30,110210,,*10
$GPRMC,164821.4,A,3311.9510,N,11722.4298,W,14.20,58.20,110210,,*1B
$GPRMC,164836.4,A,3311.9588,N,11722.4119,W,14.70,65.90,110210,,*16
$GPRMC,164839.4,A,3311.9668,N,11722.3922,W,23.90,64.40,110210,,*15
$GPRMC,164842.4,A,3311.9760,N,11722.3683,W,28.80,66.90,110210,,*11
$GPRMC,164845.4,A,3311.9823,N,11722.3409,W,29.60,83.60,110210,,*15
$GPRMC,164848.4,A,3311.9802,N,11722.3105,W,33.50,101.20,110210,,*25
$GPRMC,164851.4,A,3311.9682,N,11722.2813,W,32.80,117.50,110210,,*28
$GPRMC,164854.4,A,3311.9548,N,11722.2529,W,31.60,121.10,110210,,*20
$GPRMC,164857.4,A,3311.9412,N,11722.2273,W,28.20,123.90,110210,,*23
$GPRMC,164900.4,A,3311.9298,N,11722.2069,W,22.80,124.90,110210,,*2A
$GPRMC,164903.4,A,3311.9244,N,11722.1975,W,11.40,124.50,110210,,*2F
$GPRMC,164906.4,A,3311.9234,N,11722.1974,W,6.00,126.20,110210,,*1B
$GPRMC,164909.4,A,3311.9157,N,11722.1858,W,14.60,130.10,110210,,*2C
$GPRMC,164912.4,A,3311.8998,N,11722.1655,W,29.70,133.60,110210,,*24
$GPRMC,164915.4,A,3311.8799,N,11722.1433,W,35.60,138.90,110210,,*26
$GPRMC,164918.4,A,3311.8548,N,11722.1185,W,42.10,142.20,110210,,*2C
$GPRMC,164921.4,A,3311.8246,N,11722.0913,W,48.60,143.50,110210,,*22
$GPRMC,164924.4,A,3311.7905,N,11722.0622,W,52.00,144.50,110210,,*23
$GPRMC,164927.4,A,3311.7534,N,11722.0309,W,55.40,144.90,110210,,*2D
$GPRMC,164930.4,A,3311.7150,N,11721.9978,W,57.30,144.00,110210,,*27
$GPRMC,164933.4,A,3311.6763,N,11721.9644,W,57.80,144.40,110210,,*2C
$GPRMC,164936.4,A,3311.6365,N,11721.9309,W,58.30,144.80,110210,,*2F
$GPRMC,164939.4,A,3311.5961,N,11721.8974,W,58.60,145.20,110210,,*22
$GPRMC,164942.4,A,3311.5557,N,11721.8642,W,58.80,145.00,110210,,*21
$GPRMC,164945.4,A,3311.5155,N,11721.8307,W,58.50,145.20,110210,,*2B
$GPRMC,164948.4,A,3311.4756,N,11721.7973,W,58.70,145.10,110210,,*25
$GPRMC,164951.4,A,3311.4352,N,11721.7636,W,58.90,145.10,110210,,*2D
$GPRMC,164954.4,A,3311.3948,N,11721.7300,W,59.20,145.20,110210,,*27
$GPRMC,164957.4,A,3311.3540,N,11721.6959,W,59.70,145.10,110210,,*21
$GPRMC,165000.4,A,3311.3135,N,11721.6625,W,59.20,145.10,110210,,*2C
$GPRMC,165003.4,A,3311.2730,N,11721.6290,W,59.50,145.10,110210,,*20
$GPRMC,165006.4,A,3311.2322,N,11721.5952,W,59.50,145.00,110210,,*25
$GPRMC,165009.4,A,3311.1915,N,11721.5613,W,59.70,145.00,110210,,*2F
$GPRMC,165012.4,A,3311.1508,N,11721.5274,W,59.80,145.10,110210,,*2E
$GPRMC,165015.4,A,3311.1094,N,11721.4936,W,60.20,145.00,110210,,*24
$GPRMC,165018.4,A,3311.0683,N,11721.4598,W,60.00,145.10,110210,,*23
$GPRMC,165021.4,A,3311.0273,N,11721.4252,W,60.00,144.90,110210,,*2A
$GPRMC,165024.4,A,3310.9862,N,11721.3912,W,59.80,145.30,110210,,*2C
$GPRMC,165027.4,A,3310.9452,N,11721.3574,W,60.10,145.20,110210,,*2E
$GPRMC,165030.4,A,3310.9042,N,11721.3231,W,59.70,145.10,110210,,*24
$GPRMC,165033.4,A,3310.8631,N,11721.2891,W,59.90,144.90,110210,,*22
$GPRMC,165036.4,A,3310.8219,N,11721.2550,W,60.10,145.20,110210,,*21
$GPRMC,165039.4,A,3310.7807,N,11721.2207,W,59.90,145.10,110210,,*20
$GPRMC,165042.4,A,3310.7395,N,11721.1859,W,60.60,145.10,110210,,*2B
$GPRMC,165045.4,A,3310.6978,N,11721.1512,W,61.10,145.00,110210,,*21
$GPRMC,165048.4,A,3310.6557,N,11721.1165,W,61.20,145.40,110210,,*2E
$GPRMC,165051.4,A,3310.6134,N,11721.0826,W,61.60,146.30,110210,,*28
$GPRMC,165054.4,A,3310.5705,N,11721.0497,W,61.90,147.60,110210,,*27
$GPRMC,165057.4,A,3310.5268,N,11721.0172,W,61.30,146.80,110210,,*21
$GPRMC,165100.4,A,3310.4842,N,11720.9834,W,61.40,146.40,110210,,*29
$GPRMC,165103.4,A,3310.4421,N,11720.9511,W,58.60,147.60,110210,,*22
$GPRMC,165106.4,A,3310.4013,N,11720.9203,W,57.80,147.80,110210,,*29
$GPRMC,165109.4,A,3310.3608,N,11720.8895,W,57.70,147.60,110210,,*28
$GPRMC,165112.4,A,3310.3198,N,11720.8586,W,58.50,147.60,110210,,*2E
$GPRMC,165115.4,A,3310.2784,N,11720.8279,W,58.40,147.80,110210,,*2B
$GPRMC,165118.4,A,3310.2369,N,11720.7967,W,59.20,147.20,110210,,*27
$GPRMC,165121.4,A,3310.1955,N,11720.7662,W,58.90,147.80,110210,,*21
$GPRMC,165124.4,A,3310.1535,N,11720.7351,W,59.90,149.70,110210,,*2B
$GPRMC,165127.4,A,3310.1094,N,11720.7062,W,60.80,152.80,110210,,*2B
$GPRMC,165130.4,A,3310.0638,N,11720.6802,W,60.40,155.70,110210,,*27
$GPRMC,165133.4,A,3310.0181,N,11720.6570,W,59.40,157.00,110210,,*26
$GPRMC,165136.4,A,3309.9717,N,11720.6337,W,60.20,156.80,110210,,*2B
$GPRMC,165139.4,A,3309.9254,N,11720.6105,W,60.70,156.90,110210,,*21
$GPRMC,165142.4,A,3309.8791,N,11720.5869,W,60.20,156.90,110210,,*25
$GPRMC,165145.4,A,3309.8331,N,11720.5634,W,59.80,157.00,110210,,*22
$GPRMC,165148.4,A,3309.7872,N,11720.5402,W,60.00,156.70,110210,,*2F
$GPRMC,165151.4,A,3309.7409,N,11720.5168,W,59.80,156.90,110210,,*22
$GPRMC,165154.4,A,3309.6958,N,11720.4939,W,57.80,156.90,110210,,*2C
$GPRMC,165157.4,A,3309.6513,N,11720.4715,W,58.70,156.80,110210,,*2D
$GPRMC,165200.4,A,3309.6058,N,11720.4485,W,58.40,156.90,110210,,*2E
$GPRMC,165203.4,A,3309.5609,N,11720.4259,W,57.90,156.70,110210,,*27
$GPRMC,165206.4,A,3309.5165,N,11720.4031,W,57.20,156.90,110210,,*26
$GPRMC,165209.4,A,3309.4721,N,11720.3805,W,58.60,156.80,110210,,*2C
$GPRMC,165212.4,A,3309.4270,N,11720.3576,W,58.70,156.90,110210,,*2E
$GPRMC,165215.4,A,3309.3818,N,11720.3343,W,59.00,156.80,110210,,*2D
$GPRMC,165218.4,A,3309.3368,N,11720.3112,W,57.60,156.60,110210,,*2C
$GPRMC,165221.4,A,3309.2924,N,11720.2873,W,60.00,154.10,110210,,*2D
$GPRMC,165224.4,A,3309.2466,N,11720.2601,W,62.20,153.30,110210,,*2D
$GPRMC,165227.4,A,3309.2002,N,11720.2331,W,62.70,154.10,110210,,*2E
$GPRMC,165230.4,A,3309.1533,N,11720.2059,W,62.90,154.10,110210,,*2F
$GPRMC,165233.4,A,3309.1062,N,11720.1792,W,62.60,154.30,110210,,*23
$GPRMC,165236.4,A,3309.0592,N,11720.1508,W,63.00,154.10,110210,,*29
$GPRMC,165239.4,A,3309.0122,N,11720.1237,W,62.30,154.10,110210,,*20
$GPRMC,165242.4,A,3308.9648,N,11720.0973,W,62.20,155.30,110210,,*27
$GPRMC,165245.4,A,3308.9173,N,11720.0721,W,62.00,156.20,110210,,*26
$GPRMC,165248.4,A,3308.8690,N,11720.0492,W,62.30,162.10,110210,,*2C
$GPRMC,165251.4,A,3308.8186,N,11720.0340,W,62.30,168.20,110210,,*25
$GPRMC,165254.4,A,3308.7672,N,11720.0271,W,61.70,176.40,110210,,*2E
$GPRMC,165257.4,A,3308.7161,N,11720.0251,W,63.20,178.70,110210,,*20
$GPRMC,165300.4,A,3308.6645,N,11720.0228,W,61.70,177.40,110210,,*26
$GPRMC,165303.4,A,3308.6134,N,11720.0199,W,61.00,176.50,110210,,*2A
$GPRMC,165306.4,A,3308.5629,N,11720.0119,W,60.80,168.60,110210,,*2A
$GPRMC,165309.4,A,3308.5139,N,11719.9953,W,61.40,159.50,110210,,*2A
$GPRMC,165312.4,A,3308.4660,N,11719.9716,W,62.30,156.90,110210,,*22
$GPRMC,165315.4,A,3308.4181,N,11719.9472,W,62.20,156.90,110210,,*2D
$GPRMC,165318.4,A,3308.3706,N,11719.9230,W,62.30,156.90,110210,,*2F
$GPRMC,165321.4,A,3308.3227,N,11719.8989,W,62.40,156.90,110210,,*2C
$GPRMC,165324.4,A,3308.2747,N,11719.8748,W,62.80,157.00,110210,,*2C
$GPRMC,165327.4,A,3308.2267,N,11719.8503,W,62.50,156.90,110210,,*20
$GPRMC,165330.4,A,3308.1785,N,11719.8258,W,62.30,157.00,110210,,*2B
$GPRMC,165333.4,A,3308.1307,N,11719.8013,W,62.30,156.90,110210,,*23
$GPRMC,165336.4,A,3308.0830,N,11719.7770,W,62.00,156.90,110210,,*26
$GPRMC,165339.4,A,3308.0353,N,11719.7528,W,62.10,156.50,110210,,*25
$GPRMC,165342.4,A,3307.9879,N,11719.7270,W,62.30,154.70,110210,,*24
$GPRMC,165345.4,A,3307.9410,N,11719.6998,W,62.40,153.50,110210,,*2E
$GPRMC,165348.4,A,3307.8949,N,11719.6722,W,61.80,153.30,110210,,*25
$GPRMC,165351.4,A,3307.8492,N,11719.6450,W,61.30,153.30,110210,,*2B
$GPRMC,165354.4,A,3307.8039,N,11719.6176,W,61.50,153.20,110210,,*2D
$GPRMC,165357.4,A,3307.7580,N,11719.5901,W,61.50,153.20,110210,,*2D
$GPRMC,165400.4,A,3307.7121,N,11719.5629,W,60.90,153.30,110210,,*2E
$GPRMC,165403.4,A,3307.6672,N,11719.5360,W,59.90,153.20,110210,,*2E
$GPRMC,165406.4,A,3307.6228,N,11719.5096,W,59.90,153.40,110210,,*2C
$GPRMC,165409.4,A,3307.5778,N,11719.4835,W,59.80,153.50,110210,,*20
$GPRMC,165412.4,A,3307.5332,N,11719.4567,W,59.40,153.20,110210,,*21
$GPRMC,165415.4,A,3307.4889,N,11719.4300,W,59.70,153.30,110210,,*29
$GPRMC,165418.4,A,3307.4446,N,11719.4032,W,59.20,153.30,110210,,*2C
$GPRMC,165421.4,A,3307.4008,N,11719.3767,W,58.80,153.10,110210,,*21
$GPRMC,165424.4,A,3307.3571,N,11719.3501,W,59.20,153.20,110210,,*22
$GPRMC,165427.4,A,3307.3128,N,11719.3229,W,59.90,152.70,110210,,*2B
$GPRMC,165430.4,A,3307.2692,N,11719.2965,W,58.30,153.30,110210,,*26
$GPRMC,165433.4,A,3307.2267,N,11719.2713,W,55.60,153.20,110210,,*2D
$GPRMC,165436.4,A,3307.1869,N,11719.2475,W,51.40,153.20,110210,,*2A
$GPRMC,165439.4,A,3307.1505,N,11719.2258,W,47.40,153.20,110210,,*2C
$GPRMC,165442.4,A,3307.1159,N,11719.2047,W,47.00,153.20,110210,,*25
$GPRMC,165445.4,A,3307.0812,N,11719.1840,W,44.60,153.50,110210,,*2B
$GPRMC,165448.4,A,3307.0491,N,11719.1648,W,41.30,153.20,110210,,*20
$GPRMC,165451.4,A,3307.0195,N,11719.1473,W,37.80,153.40,110210,,*2F
$GPRMC,165454.4,A,3306.9930,N,11719.1314,W,34.10,154.10,110210,,*2B
$GPRMC,165457.4,A,3306.9717,N,11719.1190,W,25.80,153.20,110210,,*20
$GPRMC,165500.4,A,3306.9555,N,11719.1090,W,17.80,153.40,110210,,*21
$GPRMC,165503.4,A,3306.9456,N,11719.1031,W,8.50,151.80,110210,,*16
$GPRMC,165506.4,A,3306.9408,N,11719.1000,W,7.10,153.10,110210,,*1A
$GPRMC,165509.4,A,3306.9357,N,11719.0970,W,6.70,150.80,110210,,*1A
$GPRMC,165512.4,A,3306.9315,N,11719.0943,W,5.10,153.30,110210,,*1B
$GPRMC,165515.4,A,3306.9279,N,11719.0923,W,5.10,153.70,110210,,*15
$GPRMC,165518.4,A,3306.9228,N,11719.0894,W,7.70,153.40,110210,,*16
$GPRMC,165521.4,A,3306.9175,N,11719.0868,W,5.60,153.20,110210,,*11
$GPRMC,165524.4,A,3306.9133,N,11719.0845,W,7.30,153.90,110210,,*15
$GPRMC,165527.4,A,3306.9062,N,11719.0800,W,11.90,153.30,110210,,*25
$GPRMC,165530.4,A,3306.8970,N,11719.0743,W,15.00,152.90,110210,,*26
$GPRMC,165533.4,A,3306.8867,N,11719.0680,W,12.70,153.20,110210,,*26
$GPRMC,165536.4,A,3306.8773,N,11719.0622,W,13.50,153.30,110210,,*23
$GPRMC,165539.4,A,3306.8648,N,11719.0544,W,18.10,152.80,110210,,*23
$GPRMC,165542.4,A,3306.8530,N,11719.0471,W,14.60,153.30,110210,,*25
$GPRMC,165545.4,A,3306.8426,N,11719.0410,W,13.90,153.20,110210,,*2A
$GPRMC,165548.4,A,3306.8312,N,11719.0345,W,16.00,153.40,110210,,*2A
$GPRMC,165551.4,A,3306.8193,N,11719.0274,W,15.60,153.40,110210,,*2F
$GPRMC,165554.4,A,3306.8077,N,11719.0203,W,15.70,153.40,110210,,*20
$GPRMC,165557.4,A,3306.7952,N,11719.0131,W,18.90,153.40,110210,,*23
$GPRMC,165600.4,A,3306.7805,N,11719.0039,W,21.30,153.50,110210,,*29
$GPRMC,165603.4,A,3306.7632,N,11718.9935,W,24.50,153.10,110210,,*2A
$GPRMC,165606.4,A,3306.7447,N,11718.9835,W,26.10,158.20,110210,,*20
$GPRMC,165609.4,A,3306.7281,N,11718.9728,W,23.60,153.20,110210,,*29
$GPRMC,165612.4,A,3306.7096,N,11718.9617,W,26.20,153.40,110210,,*2D
$GPRMC,165615.4,A,3306.6907,N,11718.9502,W,24.50,153.00,110210,,*2C
$GPRMC,165618.4,A,3306.6736,N,11718.9396,W,22.40,153.30,110210,,*22
$GPRMC,165621.4,A,3306.6576,N,11718.9304,W,20.50,153.30,110210,,*26
$GPRMC,165624.4,A,3306.6432,N,11718.9216,W,18.10,153.40,110210,,*28
$GPRMC,165628.4,A,3306.6246,N,11718.9103,W,18.40,153.20,110210,,*25
$GPRMC,165631.4,A,3306.6089,N,11718.9012,W,21.80,153.80,110210,,*21
$GPRMC,165634.4,A,3306.5890,N,11718.8892,W,29.70,153.40,110210,,*2D
$GPRMC,165637.4,A,3306.5650,N,11718.8742,W,33.90,153.20,110210,,*2D
$GPRMC,165640.4,A,3306.5376,N,11718.8578,W,38.90,152.90,110210,,*26
$GPRMC,165643.4,A,3306.5085,N,11718.8397,W,38.80,152.10,110210,,*24
$GPRMC,165646.4,A,3306.4809,N,11718.8222,W,35.80,151.40,110210,,*28
$GPRMC,165649.4,A,3306.4548,N,11718.8052,W,37.00,151.20,110210,,*26
$GPRMC,165652.4,A,3306.4263,N,11718.7868,W,41.30,151.40,110210,,*28
$GPRMC,165655.4,A,3306.3952,N,11718.7661,W,43.50,151.30,110210,,*25
$GPRMC,165658.4,A,3306.3620,N,11718.7447,W,46.10,151.20,110210,,*24
$GPRMC,165701.4,A,3306.3278,N,11718.7226,W,47.20,151.40,110210,,*25
$GPRMC,165704.4,A,3306.2926,N,11718.6999,W,48.80,151.20,110210,,*2C
$GPRMC,165707.4,A,3306.2563,N,11718.6764,W,50.00,151.50,110210,,*28
$GPRMC,165710.4,A,3306.2197,N,11718.6524,W,50.30,150.90,110210,,*29
$GPRMC,165713.4,A,3306.1826,N,11718.6280,W,51.00,151.20,110210,,*2B
$GPRMC,165716.4,A,3306.1449,N,11718.6035,W,50.60,151.40,110210,,*26
$GPRMC,165719.4,A,3306.1078,N,11718.5794,W,51.50,151.30,110210,,*25
$GPRMC,165722.4,A,3306.0697,N,11718.5543,W,52.40,151.30,110210,,*21
$GPRMC,165725.4,A,3306.0325,N,11718.5303,W,49.00,151.30,110210,,*26
$GPRMC,165728.4,A,3305.9972,N,11718.5073,W,47.60,151.30,110210,,*25
$GPRMC,165731.4,A,3305.9621,N,11718.4848,W,47.60,151.10,110210,,*27
$GPRMC,165734.4,A,3305.9273,N,11718.4621,W,46.90,151.40,110210,,*2B
$GPRMC,165737.4,A,3305.8922,N,11718.4392,W,48.90,151.20,110210,,*23
$GPRMC,165740.4,A,3305.8566,N,11718.4159,W,48.10,151.20,110210,,*22
$GPRMC,165743.4,A,3305.8206,N,11718.3927,W,50.60,151.20,110210,,*28
$GPRMC,165746.4,A,3305.7836,N,11718.3686,W,51.40,151.30,110210,,*2D
$GPRMC,165749.4,A,3305.7456,N,11718.3436,W,52.90,151.20,110210,,*2E
$GPRMC,165752.4,A,3305.7062,N,11718.3177,W,54.80,151.20,110210,,*20
$GPRMC,165755.4,A,3305.6652,N,11718.2911,W,56.60,151.50,110210,,*21
$GPRMC,165758.4,A,3305.6241,N,11718.2648,W,55.30,151.30,110210,,*29
$GPRMC,165801.4,A,3305.5841,N,11718.2388,W,54.10,151.50,110210,,*2F
$GPRMC,165804.4,A,3305.5449,N,11718.2134,W,52.40,151.10,110210,,*2C
$GPRMC,165807.4,A,3305.5076,N,11718.1889,W,49.70,151.10,110210,,*22
$GPRMC,165810.4,A,3305.4725,N,11718.1661,W,45.90,151.40,110210,,*2B
$GPRMC,165813.4,A,3305.4405,N,11718.1452,W,43.00,151.40,110210,,*24
$GPRMC,165816.4,A,3305.4093,N,11718.1254,W,41.80,152.00,110210,,*27
$GPRMC,165819.4,A,3305.3804,N,11718.1056,W,38.50,151.20,110210,,*2B
$GPRMC,165822.4,A,3305.3522,N,11718.0872,W,38.30,151.30,110210,,*22
$GPRMC,165825.4,A,3305.3247,N,11718.0695,W,37.90,151.30,110210,,*23
$GPRMC,165828.4,A,3305.2977,N,11718.0521,W,35.20,151.40,110210,,*25
$GPRMC,165832.4,A,3305.2641,N,11718.0297,W,33.50,151.30,110210,,*28
$GPRMC,165835.4,A,3305.2421,N,11718.0155,W,27.00,151.30,110210,,*26
$GPRMC,165838.4,A,3305.2222,N,11718.0025,W,28.00,151.50,110210,,*21
$GPRMC,165841.4,A,3305.2015,N,11717.9892,W,28.60,151.30,110210,,*2B
$GPRMC,165844.4,A,3305.1795,N,11717.9748,W,31.10,150.70,110210,,*20
$GPRMC,165847.4,A,3305.1567,N,11717.9601,W,31.70,151.40,110210,,*24
$GPRMC,165850.4,A,3305.1328,N,11717.9446,W,33.80,151.40,110210,,*23
$GPRMC,165853.4,A,3305.1073,N,11717.9280,W,35.00,151.80,110210,,*23
$GPRMC,165856.4,A,3305.0824,N,11717.9129,W,32.20,154.20,110210,,*27
$GPRMC,165859.4,A,3305.0593,N,11717.9004,W,29.20,156.20,110210,,*2F
$GPRMC,165902.4,A,3305.0379,N,11717.8902,W,27.40,158.80,110210,,*20
$GPRMC,165905.4,A,3305.0174,N,11717.8811,W,26.00,160.40,110210,,*29
$GPRMC,165908.4,A,3304.9992,N,11717.8740,W,20.40,161.90,110210,,*29
$GPRMC,165911.4,A,3304.9840,N,11717.8687,W,17.50,163.40,110210,,*2F
$GPRMC,165914.4,A,3304.9694,N,11717.8638,W,20.70,165.10,110210,,*2C
$GPRMC,165917.4,A,3304.9507,N,11717.8581,W,25.60,165.80,110210,,*2A
$GPRMC,165920.4,A,3304.9274,N,11717.8507,W,30.10,165.80,110210,,*20
$GPRMC,165923.4,A,3304.9042,N,11717.8437,W,26.40,166.30,110210,,*2C
$GPRMC,165926.4,A,3304.8829,N,11717.8371,W,25.30,165.90,110210,,*25
$GPRMC,165929.4,A,3304.8641,N,11717.8315,W,21.40,165.50,110210,,*27
$GPRMC,165932.4,A,3304.8516,N,11717.8278,W,11.50,166.10,110210,,*23
$GPRMC,165935.4,A,3304.8441,N,11717.8255,W,7.40,164.90,110210,,*14
$GPRMC,165938.4,A,3304.8385,N,11717.8239,W,5.90,168.10,110210,,*17
$GPRMC,165950.4,A,3304.8299,N,11717.8216,W,9.00,166.00,110210,,*12
$GPRMC,165953.4,A,3304.8204,N,11717.8187,W,13.10,165.50,110210,,*22
$GPRMC,165956.4,A,3304.8056,N,11717.8141,W,20.10,165.80,110210,,*25
$GPRMC,165959.4,A,3304.7886,N,11717.8092,W,23.20,165.60,110210,,*21
$GPRMC,170002.4,A,3304.7681,N,11717.8026,W,26.50,165.60,110210,,*26
$GPRMC,170005.4,A,3304.7456,N,11717.7966,W,29.80,169.30,110210,,*20
$GPRMC,170008.4,A,3304.7271,N,11717.7902,W,22.80,165.80,110210,,*20
$GPRMC,170011.4,A,3304.7105,N,11717.7848,W,18.70,165.70,110210,,*2E
$GPRMC,170014.4,A,3304.6986,N,11717.7815,W,10.70,165.70,110210,,*29
$GPRMC,170017.4,A,3304.6910,N,11717.7795,W,8.10,165.80,110210,,*12
$GPRMC,170020.4,A,3304.6844,N,11717.7774,W,9.70,165.60,110210,,*10
$GPRMC,170023.4,A,3304.6739,N,11717.7745,W,16.10,165.70,110210,,*2D
$GPRMC,170026.4,A,3304.6581,N,11717.7694,W,21.60,165.80,110210,,*28
$GPRMC,170029.4,A,3304.6379,N,11717.7629,W,28.10,165.80,110210,,*2E
$GPRMC,170032.4,A,3304.6154,N,11717.7567,W,26.10,165.80,110210,,*2E
$GPRMC,170036.4,A,3304.5876,N,11717.7483,W,26.50,165.80,110210,,*2F
$GPRMC,170039.4,A,3304.5669,N,11717.7420,W,26.00,165.90,110210,,*2D
$GPRMC,170042.4,A,3304.5455,N,11717.7356,W,27.40,165.80,110210,,*2E
$GPRMC,170045.4,A,3304.5243,N,11717.7290,W,26.40,165.70,110210,,*2D
$GPRMC,170048.4,A,3304.5033,N,11717.7228,W,25.60,165.70,110210,,*27
$GPRMC,170051.4,A,3304.4839,N,11717.7170,W,23.20,165.80,110210,,*2F
$GPRMC,170054.4,A,3304.4643,N,11717.7115,W,25.20,166.00,110210,,*27
$GPRMC,170057.4,A,3304.4434,N,11717.7053,W,26.20,165.60,110210,,*23
$GPRMC,170100.4,A,3304.4236,N,11717.6995,W,22.30,165.70,110210,,*22
$GPRMC,170103.4,A,3304.4066,N,11717.6946,W,20.30,165.70,110210,,*2A
$GPRMC,170106.4,A,3304.3906,N,11717.6897,W,18.10,165.60,110210,,*22
$GPRMC,170109.4,A,3304.3771,N,11717.6854,W,16.60,166.00,110210,,*20
$GPRMC,170112.4,A,3304.3647,N,11717.6814,W,15.40,165.80,110210,,*20
$GPRMC,170115.4,A,3304.3532,N,11717.6783,W,13.10,165.60,110210,,*2A
$GPRMC,170118.4,A,3304.3430,N,11717.6750,W,12.80,165.90,110210,,*2D
$GPRMC,170121.4,A,3304.3329,N,11717.6719,W,11.60,165.90,110210,,*28
$GPRMC,170124.4,A,3304.3242,N,11717.6692,W,10.20,165.60,110210,,*29
$GPRMC,170127.4,A,3304.3173,N,11717.6670,W,7.30,164.40,110210,,*13
$GPRMC,170130.4,A,3304.3119,N,11717.6654,W,5.90,168.90,110210,,*16
$GPRMC,170145.4,A,3304.3044,N,11717.6637,W,6.80,165.80,110210,,*16
$GPRMC,170148.4,A,3304.2979,N,11717.6614,W,9.60,166.00,110210,,*16
$GPRMC,170151.4,A,3304.2878,N,11717.6584,W,14.10,165.70,110210,,*2B
$GPRMC,170154.4,A,3304.2755,N,11717.6550,W,14.70,165.60,110210,,*20
$GPRMC,170157.4,A,3304.2637,N,11717.6514,W,14.00,165.80,110210,,*2F
$GPRMC,170200.4,A,3304.2526,N,11717.6480,W,12.50,165.70,110210,,*2D
$GPRMC,170203.4,A,3304.2431,N,11717.6450,W,11.40,165.60,110210,,*27
$GPRMC,170206.4,A,3304.2345,N,11717.6420,W,9.90,165.70,110210,,*14
$GPRMC,170209.4,A,3304.2294,N,11717.6404,W,4.40,165.60,110210,,*11
$GPRMC,170212.4,A,3304.2250,N,11717.6391,W,6.60,165.40,110210,,*1A
$GPRMC,170215.4,A,3304.2205,N,11717.6378,W,4.90,169.90,110210,,*16
$GPRMC,170224.4,A,3304.2095,N,11717.6347,W,5.90,165.90,110210,,*1E
$GPRMC,170227.4,A,3304.2048,N,11717.6336,W,5.50,166.00,110210,,*1D
$GPRMC,170230.4,A,3304.2002,N,11717.6323,W,5.70,165.90,110210,,*19
$GPRMC,170233.4,A,3304.1956,N,11717.6310,W,5.70,165.90,110210,,*11
$GPRMC,170236.4,A,3304.1905,N,11717.6295,W,7.10,165.80,110210,,*1B
$GPRMC,170239.4,A,3304.1828,N,11717.6272,W,10.10,165.90,110210,,*24
$GPRMC,170242.4,A,3304.1722,N,11717.6239,W,16.20,165.90,110210,,*27
$GPRMC,170245.4,A,3304.1581,N,11717.6197,W,18.40,165.80,110210,,*25
$GPRMC,170248.4,A,3304.1416,N,11717.6146,W,21.00,165.80,110210,,*25
$GPRMC,170251.4,A,3304.1234,N,11717.6092,W,23.60,165.70,110210,,*28
$GPRMC,170254.4,A,3304.1029,N,11717.6027,W,26.40,165.70,110210,,*2A
$GPRMC,170257.4,A,3304.0805,N,11717.5958,W,29.60,165.70,110210,,*21
$GPRMC,170300.4,A,3304.0563,N,11717.5881,W,30.10,165.80,110210,,*2A
$GPRMC,170303.4,A,3304.0329,N,11717.5815,W,27.60,165.80,110210,,*2D
$GPRMC,170306.4,A,3304.0101,N,11717.5745,W,28.90,165.70,110210,,*25
$GPRMC,170309.4,A,3303.9876,N,11717.5678,W,27.00,165.80,110210,,*2B
$GPRMC,170312.4,A,3303.9670,N,11717.5615,W,24.70,165.70,110210,,*29
$GPRMC,170315.4,A,3303.9464,N,11717.5554,W,26.50,165.90,110210,,*21
$GPRMC,170318.4,A,3303.9244,N,11717.5490,W,27.40,165.80,110210,,*20
$GPRMC,170321.4,A,3303.9013,N,11717.5419,W,29.10,165.30,110210,,*2B
$GPRMC,170324.4,A,3303.8767,N,11717.5343,W,30.90,165.80,110210,,*28
$GPRMC,170327.4,A,3303.8510,N,11717.5269,W,32.70,165.80,110210,,*2C
$GPRMC,170330.4,A,3303.8235,N,11717.5188,W,36.00,165.90,110210,,*24
$GPRMC,170333.4,A,3303.7948,N,11717.5101,W,34.50,165.90,110210,,*2F
$GPRMC,170336.4,A,3303.7668,N,11717.5017,W,35.40,165.80,110210,,*20
$GPRMC,170339.4,A,3303.7390,N,11717.4933,W,33.70,165.80,110210,,*26
$GPRMC,170342.4,A,3303.7119,N,11717.4852,W,33.40,165.50,110210,,*21
$GPRMC,170345.4,A,3303.6847,N,11717.4773,W,33.90,165.70,110210,,*26
$GPRMC,170348.4,A,3303.6580,N,11717.4695,W,31.80,165.60,110210,,*26
$GPRMC,170351.4,A,3303.6309,N,11717.4612,W,35.10,165.90,110210,,*24
$GPRMC,170354.4,A,3303.6025,N,11717.4526,W,34.80,165.70,110210,,*2E
$GPRMC,170357.4,A,3303.5751,N,11717.4442,W,33.70,165.80,110210,,*2E
$GPRMC,170400.4,A,3303.5463,N,11717.4357,W,37.00,165.70,110210,,*26
$GPRMC,170403.4,A,3303.5171,N,11717.4271,W,34.80,165.80,110210,,*22
$GPRMC,170406.4,A,3303.4901,N,11717.4190,W,31.00,165.90,110210,,*29
$GPRMC,170409.4,A,3303.4654,N,11717.4111,W,31.60,165.80,110210,,*27
$GPRMC,170412.4,A,3303.4402,N,11717.4036,W,30.30,166.00,110210,,*27
$GPRMC,170415.4,A,3303.4168,N,11717.3963,W,27.50,165.50,110210,,*21
$GPRMC,170418.4,A,3303.3962,N,11717.3902,W,23.60,165.80,110210,,*24
$GPRMC,170421.4,A,3303.3778,N,11717.3845,W,22.40,165.80,110210,,*2A
$GPRMC,170424.4,A,3303.3598,N,11717.3790,W,21.90,165.80,110210,,*2A
$GPRMC,170427.4,A,3303.3413,N,11717.3736,W,24.00,165.80,110210,,*2B
$GPRMC,170430.4,A,3303.3207,N,11717.3674,W,27.90,165.80,110210,,*23
$GPRMC,170433.4,A,3303.2962,N,11717.3602,W,32.00,165.10,110210,,*2C
$GPRMC,170436.4,A,3303.2708,N,11717.3525,W,30.40,165.70,110210,,*2D
$GPRMC,170439.4,A,3303.2457,N,11717.3451,W,30.20,165.70,110210,,*2F
$GPRMC,170442.4,A,3303.2217,N,11717.3378,W,30.60,165.70,110210,,*29
$GPRMC,170445.4,A,3303.1965,N,11717.3301,W,33.30,165.90,110210,,*25
$GPRMC,170448.4,A,3303.1677,N,11717.3214,W,38.00,165.70,110210,,*27
$GPRMC,170451.4,A,3303.1353,N,11717.3117,W,42.60,165.80,110210,,*28
$GPRMC,170454.4,A,3303.1004,N,11717.3012,W,43.30,165.80,110210,,*2C
$GPRMC,170457.4,A,3303.0651,N,11717.2904,W,44.60,165.80,110210,,*25
$GPRMC,170500.4,A,3303.0281,N,11717.2792,W,46.90,165.60,110210,,*2D
$GPRMC,170503.4,A,3302.9905,N,11717.2677,W,46.20,165.90,110210,,*2F
$GPRMC,170506.4,A,3302.9524,N,11717.2559,W,47.30,165.60,110210,,*25
$GPRMC,170509.4,A,3302.9146,N,11717.2446,W,47.10,165.70,110210,,*26
$GPRMC,170512.4,A,3302.8764,N,11717.2330,W,48.00,165.90,110210,,*2D
$GPRMC,170515.4,A,3302.8381,N,11717.2213,W,46.30,165.70,110210,,*26
$GPRMC,170518.4,A,3302.8010,N,11717.2102,W,44.20,165.80,110210,,*2F
$GPRMC,170521.4,A,3302.7664,N,11717.1999,W,41.20,165.90,110210,,*22
$GPRMC,170524.4,A,3302.7342,N,11717.1903,W,38.60,165.70,110210,,*21
$GPRMC,170527.4,A,3302.7058,N,11717.1817,W,30.50,165.70,110210,,*25
$GPRMC,170530.4,A,3302.6852,N,11717.1755,W,22.00,165.70,110210,,*2F
$GPRMC,170533.4,A,3302.6690,N,11717.1707,W,18.90,165.70,110210,,*2B
$GPRMC,170536.4,A,3302.6541,N,11717.1663,W,18.50,165.90,110210,,*20
$GPRMC,170539.4,A,3302.6388,N,11717.1617,W,19.30,165.90,110210,,*28
$GPRMC,170542.4,A,3302.6238,N,11717.1572,W,15.90,165.30,110210,,*22
$GPRMC,170545.4,A,3302.6138,N,11717.1544,W,9.90,163.90,110210,,*12
$GPRMC,170551.4,A,3302.6076,N,11717.1530,W,4.70,165.00,110210,,*13
$GPRMC,170554.4,A,3302.6000,N,11717.1506,W,10.50,165.60,110210,,*23
$GPRMC,170557.4,A,3302.5917,N,11717.1480,W,8.40,165.20,110210,,*1F
$GPRMC,170606.4,A,3302.5823,N,11717.1445,W,7.70,163.90,110210,,*16
$GPRMC,170609.4,A,3302.5733,N,11717.1415,W,13.50,163.10,110210,,*2D
$GPRMC,170612.4,A,3302.5594,N,11717.1365,W,20.30,162.40,110210,,*2A
$GPRMC,170615.4,A,3302.5417,N,11717.1293,W,24.60,160.60,110210,,*2E
$GPRMC,170618.4,A,3302.5218,N,11717.1204,W,27.50,158.80,110210,,*21
$GPRMC,170621.4,A,3302.4992,N,11717.1093,W,30.70,156.60,110210,,*2B
$GPRMC,170624.4,A,3302.4760,N,11717.0964,W,30.20,154.30,110210,,*2F
$GPRMC,170627.4,A,3302.4530,N,11717.0827,W,32.10,152.00,110210,,*29
$GPRMC,170630.4,A,3302.4287,N,11717.0668,W,34.60,150.70,110210,,*25
$GPRMC,170633.4,A,3302.4030,N,11717.0499,W,36.40,150.60,110210,,*25
$GPRMC,170636.4,A,3302.3766,N,11717.0320,W,36.30,150.40,110210,,*23
$GPRMC,170639.4,A,3302.3490,N,11717.0137,W,38.60,150.40,110210,,*29
$GPRMC,170642.4,A,3302.3225,N,11716.9952,W,34.70,150.50,110210,,*22
$GPRMC,170645.4,A,3302.2991,N,11716.9797,W,29.60,150.40,110210,,*2B
$GPRMC,170648.4,A,3302.2805,N,11716.9673,W,22.70,152.80,110210,,*25
$GPRMC,170651.4,A,3302.2706,N,11716.9608,W,11.50,155.40,110210,,*24
$GPRMC,170654.4,A,3302.2679,N,11716.9587,W,7.20,150.30,110210,,*1E
$GPRMC,170657.4,A,3302.2624,N,11716.9549,W,7.30,150.70,110210,,*12
$GPRMC,170700.4,A,3302.2547,N,11716.9496,W,12.30,150.70,110210,,*20
$GPRMC,170703.4,A,3302.2422,N,11716.9414,W,21.20,150.60,110210,,*2B
$GPRMC,170706.4,A,3302.2253,N,11716.9297,W,26.40,150.40,110210,,*20
$GPRMC,170709.4,A,3302.2049,N,11716.9159,W,30.20,150.50,110210,,*27
$GPRMC,170712.4,A,3302.1826,N,11716.9008,W,31.60,150.70,110210,,*2D
$GPRMC,170715.4,A,3302.1588,N,11716.8849,W,33.90,150.30,110210,,*26
$GPRMC,170718.4,A,3302.1336,N,11716.8679,W,34.90,150.30,110210,,*22
$GPRMC,170721.4,A,3302.1073,N,11716.8501,W,37.20,150.60,110210,,*2B
$GPRMC,170724.4,A,3302.0795,N,11716.8312,W,38.90,150.50,110210,,*23
$GPRMC,170727.4,A,3302.0511,N,11716.8123,W,39.80,150.50,110210,,*2E
$GPRMC,170730.4,A,3302.0210,N,11716.7921,W,42.30,150.30,110210,,*2A
$GPRMC,170733.4,A,3301.9892,N,11716.7709,W,44.10,150.70,110210,,*27
$GPRMC,170736.4,A,3301.9579,N,11716.7500,W,42.90,150.40,110210,,*2C
$GPRMC,170739.4,A,3301.9269,N,11716.7293,W,42.00,150.50,110210,,*20
$GPRMC,170742.4,A,3301.8955,N,11716.7081,W,45.00,150.20,110210,,*28
$GPRMC,170745.4,A,3301.8629,N,11716.6862,W,44.60,150.50,110210,,*2F
$GPRMC,170748.4,A,3301.8301,N,11716.6643,W,45.20,150.50,110210,,*25
$GPRMC,170751.4,A,3301.7963,N,11716.6415,W,48.60,151.20,110210,,*22
$GPRMC,170754.4,A,3301.7609,N,11716.6174,W,48.70,150.40,110210,,*20
$GPRMC,170757.4,A,3301.7255,N,11716.5936,W,48.80,150.50,110210,,*2D
$GPRMC,170800.4,A,3301.6896,N,11716.5697,W,49.90,150.40,110210,,*21
$GPRMC,170803.4,A,3301.6529,N,11716.5448,W,50.70,150.40,110210,,*2D
$GPRMC,170806.4,A,3301.6161,N,11716.5199,W,50.90,150.10,110210,,*22
$GPRMC,170809.4,A,3301.5798,N,11716.4965,W,48.60,152.30,110210,,*22
$GPRMC,170812.4,A,3301.5435,N,11716.4771,W,47.50,157.00,110210,,*2D
$GPRMC,170815.4,A,3301.5076,N,11716.4608,W,44.80,160.00,110210,,*2C
$GPRMC,170818.4,A,3301.4736,N,11716.4471,W,41.50,163.50,110210,,*21
$GPRMC,170821.4,A,3301.4417,N,11716.4369,W,38.40,166.20,110210,,*28
$GPRMC,170824.4,A,3301.4117,N,11716.4289,W,35.80,169.10,110210,,*2A
$GPRMC,170827.4,A,3301.3830,N,11716.4232,W,33.50,170.30,110210,,*23
$GPRMC,170830.4,A,3301.3573,N,11716.4182,W,28.60,170.20,110210,,*2F
$GPRMC,170833.4,A,3301.3354,N,11716.4138,W,25.30,170.50,110210,,*21
$GPRMC,170836.4,A,3301.3153,N,11716.4100,W,22.70,170.60,110210,,*2A
$GPRMC,170839.4,A,3301.2974,N,11716.4064,W,21.10,170.60,110210,,*2F
$GPRMC,170842.4,A,3301.2804,N,11716.4030,W,18.50,170.60,110210,,*2A
$GPRMC,170845.4,A,3301.2685,N,11716.4004,W,10.30,170.30,110210,,*26
$GPRMC,170848.4,A,3301.2612,N,11716.3992,W,9.70,170.50,110210,,*1E
$GPRMC,170851.4,A,3301.2499,N,11716.3970,W,17.80,170.70,110210,,*29
$GPRMC,170854.4,A,3301.2330,N,11716.3936,W,22.20,170.00,110210,,*21
$GPRMC,170857.4,A,3301.2112,N,11716.3887,W,30.70,168.80,110210,,*2C
$GPRMC,170900.4,A,3301.1857,N,11716.3822,W,32.40,166.90,110210,,*25
$GPRMC,170903.4,A,3301.1588,N,11716.3742,W,34.80,164.30,110210,,*22
$GPRMC,170906.4,A,3301.1295,N,11716.3635,W,39.20,161.70,110210,,*2B
$GPRMC,170909.4,A,3301.0979,N,11716.3496,W,40.30,158.50,110210,,*20
$GPRMC,170912.4,A,3301.0673,N,11716.3341,W,40.10,155.90,110210,,*21
$GPRMC,170915.4,A,3301.0375,N,11716.3170,W,38.60,153.00,110210,,*22
$GPRMC,170918.4,A,3301.0098,N,11716.2991,W,37.60,150.40,110210,,*21
$GPRMC,170921.4,A,3300.9824,N,11716.2799,W,39.30,147.50,110210,,*26
$GPRMC,170924.4,A,3300.9536,N,11716.2569,W,42.40,144.50,110210,,*28
$GPRMC,170927.4,A,3300.9258,N,11716.2319,W,40.50,141.70,110210,,*21
$GPRMC,170930.4,A,3300.9011,N,11716.2074,W,36.60,138.80,110210,,*23
$GPRMC,170933.4,A,3300.8791,N,11716.1835,W,35.20,136.50,110210,,*24
$GPRMC,170936.4,A,3300.8578,N,11716.1598,W,35.00,136.30,110210,,*2A
$GPRMC,170939.4,A,3300.8369,N,11716.1353,W,35.10,136.00,110210,,*20
$GPRMC,170942.4,A,3300.8160,N,11716.1112,W,34.30,136.00,110210,,*23
$GPRMC,170945.4,A,3300.7958,N,11716.0882,W,32.50,136.20,110210,,*2B
$GPRMC,170948.4,A,3300.7769,N,11716.0669,W,30.40,136.20,110210,,*22
$GPRMC,170951.4,A,3300.7600,N,11716.0474,W,26.90,136.10,110210,,*23
$GPRMC,170954.4,A,3300.7427,N,11716.0275,W,30.20,135.90,110210,,*21
$GPRMC,170957.4,A,3300.7250,N,11716.0072,W,27.70,136.10,110210,,*29
$GPRMC,171000.4,A,3300.7112,N,11715.9915,W,18.70,135.70,110210,,*2D
$GPRMC,171003.4,A,3300.7014,N,11715.9800,W,15.80,135.90,110210,,*20
$GPRMC,171006.4,A,3300.6919,N,11715.9692,W,16.30,136.20,110210,,*25
$GPRMC,171009.4,A,3300.6814,N,11715.9576,W,18.50,137.60,110210,,*22
$GPRMC,171012.4,A,3300.6675,N,11715.9412,W,25.50,135.80,110210,,*20
$GPRMC,171015.4,A,3300.6513,N,11715.9237,W,26.80,138.20,110210,,*2C
$GPRMC,171018.4,A,3300.6323,N,11715.9011,W,31.00,136.00,110210,,*20
$GPRMC,171021.4,A,3300.6112,N,11715.8764,W,36.40,136.00,110210,,*2D
$GPRMC,171024.4,A,3300.5892,N,11715.8512,W,35.00,136.10,110210,,*2F
$GPRMC,171027.4,A,3300.5681,N,11715.8271,W,35.80,135.40,110210,,*2C
$GPRMC,171030.4,A,3300.5464,N,11715.8011,W,36.30,135.20,110210,,*29
$GPRMC,171033.4,A,3300.5249,N,11715.7760,W,36.30,135.20,110210,,*2D
$GPRMC,171036.4,A,3300.5036,N,11715.7511,W,36.20,135.80,110210,,*2D
$GPRMC,171039.4,A,3300.4807,N,11715.7249,W,40.50,136.10,110210,,*2F
$GPRMC,171042.4,A,3300.4550,N,11715.6953,W,44.20,136.20,110210,,*2D
$GPRMC,171045.4,A,3300.4287,N,11715.6655,W,44.50,136.00,110210,,*2B
$GPRMC,171048.4,A,3300.4022,N,11715.6354,W,43.10,136.10,110210,,*2D
$GPRMC,171051.4,A,3300.3764,N,11715.6060,W,43.20,137.30,110210,,*23
$GPRMC,171054.4,A,3300.3487,N,11715.5773,W,44.80,141.70,110210,,*26
$GPRMC,171057.4,A,3300.3180,N,11715.5503,W,46.90,144.90,110210,,*2A
$GPRMC,171100.4,A,3300.2832,N,11715.5254,W,49.90,149.90,110210,,*2F
$GPRMC,171103.4,A,3300.2446,N,11715.5034,W,52.80,156.00,110210,,*2B
$GPRMC,171106.4,A,3300.2053,N,11715.4850,W,49.20,160.90,110210,,*29
$GPRMC,171109.4,A,3300.1662,N,11715.4714,W,49.80,165.70,110210,,*2F
$GPRMC,171112.4,A,3300.1249,N,11715.4612,W,50.50,170.90,110210,,*20
$GPRMC,171115.4,A,3300.0831,N,11715.4542,W,49.20,172.40,110210,,*25
$GPRMC,171118.4,A,3300.0436,N,11715.4487,W,45.80,172.40,110210,,*2D
$GPRMC,171121.4,A,3300.0069,N,11715.4430,W,42.90,172.60,110210,,*21
$GPRMC,171124.4,A,3259.9707,N,11715.4374,W,43.50,172.50,110210,,*26
$GPRMC,171127.4,A,3259.9351,N,11715.4321,W,42.90,173.20,110210,,*29
$GPRMC,171130.4,A,3259.8999,N,11715.4267,W,42.00,172.90,110210,,*20
$GPRMC,171133.4,A,3259.8656,N,11715.4216,W,40.50,173.00,110210,,*26
$GPRMC,171136.4,A,3259.8316,N,11715.4166,W,41.90,172.80,110210,,*22
$GPRMC,171139.4,A,3259.7962,N,11715.4114,W,43.40,172.70,110210,,*2E
$GPRMC,171142.4,A,3259.7594,N,11715.4058,W,45.90,172.40,110210,,*26
$GPRMC,171145.4,A,3259.7202,N,11715.3996,W,49.00,172.70,110210,,*23
$GPRMC,171148.4,A,3259.6790,N,11715.3934,W,49.80,172.60,110210,,*20
$GPRMC,171151.4,A,3259.6376,N,11715.3866,W,49.40,172.30,110210,,*2B
$GPRMC,171154.4,A,3259.5966,N,11715.3801,W,50.90,172.30,110210,,*22
$GPRMC,171157.4,A,3259.5539,N,11715.3733,W,52.00,172.40,110210,,*25
$GPRMC,171200.4,A,3259.5100,N,11715.3673,W,53.20,172.40,110210,,*2C
$GPRMC,171203.4,A,3259.4668,N,11715.3600,W,52.00,172.30,110210,,*27
$GPRMC,171206.4,A,3259.4242,N,11715.3534,W,50.60,173.30,110210,,*2F
$GPRMC,171209.4,A,3259.3820,N,11715.3471,W,51.40,173.00,110210,,*29
$GPRMC,171212.4,A,3259.3386,N,11715.3404,W,53.30,172.40,110210,,*26
$GPRMC,171215.4,A,3259.2953,N,11715.3331,W,50.80,172.40,110210,,*2B
$GPRMC,171218.4,A,3259.2532,N,11715.3264,W,50.90,172.30,110210,,*2A
$GPRMC,171221.4,A,3259.2114,N,11715.3200,W,49.90,172.30,110210,,*2A
$GPRMC,171224.4,A,3259.1701,N,11715.3137,W,50.40,173.40,110210,,*2A
$GPRMC,171227.4,A,3259.1273,N,11715.3072,W,52.80,172.20,110210,,*20
$GPRMC,171230.4,A,3259.0839,N,11715.2986,W,52.20,169.50,110210,,*27
$GPRMC,171233.4,A,3259.0407,N,11715.2862,W,53.40,165.30,110210,,*23
$GPRMC,171236.4,A,3258.9971,N,11715.2710,W,56.00,162.60,110210,,*2B
$GPRMC,171239.4,A,3258.9521,N,11715.2539,W,57.50,162.20,110210,,*24
$GPRMC,171242.4,A,3258.9059,N,11715.2362,W,58.50,162.30,110210,,*24
$GPRMC,171245.4,A,3258.8593,N,11715.2184,W,58.50,162.40,110210,,*2C
$GPRMC,171248.4,A,3258.8125,N,11715.2007,W,59.50,162.50,110210,,*22
$GPRMC,171251.4,A,3258.7648,N,11715.1828,W,60.50,162.20,110210,,*22
$GPRMC,171254.4,A,3258.7163,N,11715.1646,W,61.10,162.50,110210,,*2D
$GPRMC,171257.4,A,3258.6681,N,11715.1464,W,60.80,162.40,110210,,*2F
$GPRMC,171300.4,A,3258.6197,N,11715.1283,W,60.40,162.40,110210,,*2F
$GPRMC,171303.4,A,3258.5720,N,11715.1102,W,59.40,162.30,110210,,*22
$GPRMC,171306.4,A,3258.5252,N,11715.0923,W,58.30,162.40,110210,,*2C
$GPRMC,171309.4,A,3258.4793,N,11715.0747,W,57.30,162.30,110210,,*2E
$GPRMC,171312.4,A,3258.4333,N,11715.0576,W,58.50,162.50,110210,,*25
$GPRMC,171315.4,A,3258.3859,N,11715.0399,W,59.80,162.50,110210,,*29
$GPRMC,171318.4,A,3258.3382,N,11715.0219,W,60.10,162.50,110210,,*23
$GPRMC,171321.4,A,3258.2900,N,11715.0037,W,60.90,162.20,110210,,*29
$GPRMC,171324.4,A,3258.2415,N,11714.9855,W,61.50,162.30,110210,,*2D
$GPRMC,171327.4,A,3258.1925,N,11714.9670,W,61.70,162.50,110210,,*2E
$GPRMC,171330.4,A,3258.1434,N,11714.9486,W,61.90,162.30,110210,,*26
$GPRMC,171333.4,A,3258.0943,N,11714.9300,W,61.50,162.40,110210,,*2B
$GPRMC,171336.4,A,3258.0461,N,11714.9120,W,60.30,162.30,110210,,*23
$GPRMC,171339.4,A,3257.9976,N,11714.8944,W,61.90,164.40,110210,,*20
$GPRMC,171342.4,A,3257.9505,N,11714.8762,W,59.70,162.50,110210,,*2C
$GPRMC,171345.4,A,3257.9029,N,11714.8583,W,60.10,162.20,110210,,*26
$GPRMC,171348.4,A,3257.8551,N,11714.8400,W,59.70,162.30,110210,,*27
$GPRMC,171351.4,A,3257.8089,N,11714.8226,W,57.60,162.60,110210,,*27
$GPRMC,171354.4,A,3257.7630,N,11714.8052,W,57.80,162.40,110210,,*24
$GPRMC,171357.4,A,3257.7168,N,11714.7877,W,58.90,162.40,110210,,*23
$GPRMC,171400.4,A,3257.6694,N,11714.7709,W,59.70,164.10,110210,,*29
$GPRMC,171403.4,A,3257.6211,N,11714.7554,W,60.10,165.80,110210,,*2D
$GPRMC,171406.4,A,3257.5722,N,11714.7417,W,60.00,167.60,110210,,*25
$GPRMC,171409.4,A,3257.5233,N,11714.7299,W,59.20,169.90,110210,,*26
$GPRMC,171412.4,A,3257.4742,N,11714.7198,W,59.80,170.80,110210,,*2F
$GPRMC,171415.4,A,3257.4248,N,11714.7108,W,58.70,171.30,110210,,*2A
$GPRMC,171418.4,A,3257.3764,N,11714.7021,W,58.20,171.10,110210,,*26
$GPRMC,171421.4,A,3257.3286,N,11714.6932,W,57.40,171.00,110210,,*27
$GPRMC,171424.4,A,3257.2826,N,11714.6845,W,54.50,170.90,110210,,*28
$GPRMC,171427.4,A,3257.2376,N,11714.6761,W,54.90,171.10,110210,,*29
$GPRMC,171430.4,A,3257.1926,N,11714.6677,W,53.00,171.10,110210,,*2B
$GPRMC,171433.4,A,3257.1488,N,11714.6594,W,54.10,170.80,110210,,*21
$GPRMC,171436.4,A,3257.1039,N,11714.6509,W,54.20,171.00,110210,,*24
$GPRMC,171439.4,A,3257.0589,N,11714.6423,W,55.60,171.10,110210,,*29
$GPRMC,171442.4,A,3257.0123,N,11714.6336,W,57.00,170.80,110210,,*2E
$GPRMC,171445.4,A,3256.9648,N,11714.6243,W,57.70,171.00,110210,,*26
$GPRMC,171448.4,A,3256.9168,N,11714.6158,W,59.20,170.70,110210,,*2A
$GPRMC,171451.4,A,3256.8674,N,11714.6060,W,59.40,170.90,110210,,*2B
$GPRMC,171454.4,A,3256.8188,N,11714.5966,W,58.80,171.10,110210,,*22
$GPRMC,171457.4,A,3256.7701,N,11714.5873,W,59.60,170.90,110210,,*2A
$GPRMC,171500.4,A,3256.7200,N,11714.5781,W,61.30,171.00,110210,,*29
$GPRMC,171503.4,A,3256.6688,N,11714.5687,W,62.60,171.00,110210,,*2E
$GPRMC,171506.4,A,3256.6170,N,11714.5590,W,62.60,171.30,110210,,*2D
$GPRMC,171509.4,A,3256.5655,N,11714.5497,W,62.60,171.50,110210,,*21
$GPRMC,171512.4,A,3256.5141,N,11714.5405,W,62.00,171.20,110210,,*23
$GPRMC,171515.4,A,3256.4624,N,11714.5305,W,63.00,169.40,110210,,*28
$GPRMC,171518.4,A,3256.4129,N,11714.5227,W,60.60,171.90,110210,,*2F
$GPRMC,171521.4,A,3256.3630,N,11714.5151,W,60.30,173.60,110210,,*27
$GPRMC,171524.4,A,3256.3127,N,11714.5093,W,60.80,175.10,110210,,*26
$GPRMC,171527.4,A,3256.2621,N,11714.5053,W,61.30,176.80,110210,,*29
$GPRMC,171530.4,A,3256.2107,N,11714.5015,W,61.90,176.50,110210,,*29
$GPRMC,171533.4,A,3256.1593,N,11714.4976,W,61.90,176.40,110210,,*2C
$GPRMC,171536.4,A,3256.1076,N,11714.4939,W,62.40,176.60,110210,,*20
$GPRMC,171539.4,A,3256.0556,N,11714.4907,W,62.70,176.40,110210,,*25
$GPRMC,171542.4,A,3256.0036,N,11714.4864,W,62.40,175.70,110210,,*2D
$GPRMC,171545.4,A,3255.9519,N,11714.4811,W,62.30,174.70,110210,,*2C
$GPRMC,171548.4,A,3255.9002,N,11714.4744,W,62.30,173.30,110210,,*22
$GPRMC,171551.4,A,3255.8484,N,11714.4658,W,62.10,171.00,110210,,*2E
$GPRMC,171554.4,A,3255.7970,N,11714.4556,W,62.40,169.40,110210,,*27
$GPRMC,171557.4,A,3255.7460,N,11714.4436,W,62.00,167.60,110210,,*27
$GPRMC,171600.4,A,3255.6959,N,11714.4295,W,61.80,165.90,110210,,*29
$GPRMC,171603.4,A,3255.6471,N,11714.4136,W,59.90,164.60,110210,,*23
$GPRMC,171606.4,A,3255.5991,N,11714.3975,W,60.40,164.30,110210,,*2C
$GPRMC,171609.4,A,3255.5503,N,11714.3810,W,60.90,164.30,110210,,*2B
$GPRMC,171612.4,A,3255.5015,N,11714.3646,W,60.80,164.40,110210,,*28
$GPRMC,171615.4,A,3255.4527,N,11714.3484,W,60.30,164.50,110210,,*2C
$GPRMC,171618.4,A,3255.4046,N,11714.3320,W,60.00,162.00,110210,,*2A
$GPRMC,171621.4,A,3255.3570,N,11714.3118,W,61.20,158.50,110210,,*21
$GPRMC,171624.4,A,3255.3108,N,11714.2878,W,60.30,154.60,110210,,*2E
$GPRMC,171627.4,A,3255.2658,N,11714.2602,W,61.20,151.10,110210,,*2F
$GPRMC,171630.4,A,3255.2223,N,11714.2295,W,60.50,147.80,110210,,*23
$GPRMC,171633.4,A,3255.1799,N,11714.1957,W,61.40,144.40,110210,,*2E
$GPRMC,171636.4,A,3255.1397,N,11714.1590,W,60.70,140.60,110210,,*22
$GPRMC,171639.4,A,3255.1018,N,11714.1197,W,60.10,137.30,110210,,*29
$GPRMC,171642.4,A,3255.0656,N,11714.0786,W,59.80,136.30,110210,,*2D
$GPRMC,171645.4,A,3255.0342,N,11714.0367,W,57.10,130.70,110210,,*24
$GPRMC,171648.4,A,3255.0036,N,11713.9937,W,57.70,130.40,110210,,*2D
$GPRMC,171651.4,A,3254.9719,N,11713.9493,W,58.80,130.50,110210,,*25
$GPRMC,171654.4,A,3254.9385,N,11713.9051,W,60.40,134.50,110210,,*28
$GPRMC,171657.4,A,3254.9014,N,11713.8646,W,60.30,140.30,110210,,*23
$GPRMC,171700.4,A,3254.8613,N,11713.8291,W,59.40,146.20,110210,,*24
$GPRMC,171703.4,A,3254.8181,N,11713.7986,W,60.50,151.80,110210,,*2E
$GPRMC,171706.4,A,3254.7734,N,11713.7704,W,60.80,151.90,110210,,*24
$GPRMC,171709.4,A,3254.7287,N,11713.7422,W,61.30,151.90,110210,,*2B
$GPRMC,171712.4,A,3254.6837,N,11713.7140,W,61.60,152.20,110210,,*2D
$GPRMC,171715.4,A,3254.6378,N,11713.6849,W,62.40,152.10,110210,,*29
$GPRMC,171718.4,A,3254.5917,N,11713.6559,W,62.50,151.80,110210,,*23
$GPRMC,171721.4,A,3254.5466,N,11713.6276,W,61.70,151.70,110210,,*26
$GPRMC,171724.4,A,3254.5008,N,11713.5988,W,61.30,152.30,110210,,*25
$GPRMC,171727.4,A,3254.4554,N,11713.5709,W,61.40,152.70,110210,,*2F
$GPRMC,171730.4,A,3254.4096,N,11713.5440,W,61.70,154.10,110210,,*2F
$GPRMC,171733.4,A,3254.3634,N,11713.5179,W,61.20,153.10,110210,,*28
$GPRMC,171736.4,A,3254.3186,N,11713.4891,W,61.10,150.20,110210,,*2E
$GPRMC,171739.4,A,3254.2752,N,11713.4575,W,61.30,146.50,110210,,*2A
$GPRMC,171742.4,A,3254.2336,N,11713.4227,W,60.50,144.20,110210,,*22
$GPRMC,171745.4,A,3254.1938,N,11713.3840,W,61.30,140.70,110210,,*28
$GPRMC,171748.4,A,3254.1550,N,11713.3461,W,60.40,140.40,110210,,*2D
$GPRMC,171751.4,A,3254.1170,N,11713.3093,W,57.40,140.50,110210,,*2F
$GPRMC,171754.4,A,3254.0802,N,11713.2733,W,57.40,140.30,110210,,*2D
$GPRMC,171757.4,A,3254.0436,N,11713.2374,W,56.50,140.60,110210,,*27
$GPRMC,171800.4,A,3254.0069,N,11713.2019,W,56.90,141.00,110210,,*27
$GPRMC,171803.4,A,3253.9699,N,11713.1662,W,57.00,141.10,110210,,*23
$GPRMC,171806.4,A,3253.9330,N,11713.1311,W,56.00,141.70,110210,,*26
$GPRMC,171809.4,A,3253.8957,N,11713.0963,W,57.30,142.20,110210,,*29
$GPRMC,171812.4,A,3253.8576,N,11713.0615,W,57.60,142.50,110210,,*20
$GPRMC,171815.4,A,3253.8204,N,11713.0277,W,54.30,142.50,110210,,*23
$GPRMC,171818.4,A,3253.7852,N,11712.9937,W,55.80,139.10,110210,,*2D
$GPRMC,171821.4,A,3253.7499,N,11712.9558,W,58.50,136.70,110210,,*20
$GPRMC,171824.4,A,3253.7140,N,11712.9149,W,59.70,136.10,110210,,*25
$GPRMC,171827.4,A,3253.6804,N,11712.8707,W,60.60,130.50,110210,,*2A
$GPRMC,171830.4,A,3253.6491,N,11712.8239,W,60.30,127.10,110210,,*23
$GPRMC,171833.4,A,3253.6202,N,11712.7751,W,60.70,123.60,110210,,*2F
$GPRMC,171836.4,A,3253.5930,N,11712.7236,W,62.10,119.80,110210,,*24
$GPRMC,171839.4,A,3253.5680,N,11712.6686,W,62.90,116.40,110210,,*2A
$GPRMC,171842.4,A,3253.5455,N,11712.6118,W,62.90,114.60,110210,,*2C
$GPRMC,171845.4,A,3253.5236,N,11712.5551,W,62.40,114.80,110210,,*21
$GPRMC,171848.4,A,3253.5002,N,11712.4995,W,62.20,119.10,110210,,*2E
$GPRMC,171851.4,A,3253.4739,N,11712.4467,W,62.40,122.90,110210,,*2E
$GPRMC,171854.4,A,3253.4436,N,11712.3971,W,60.90,125.90,110210,,*22
$GPRMC,171857.4,A,3253.4088,N,11712.3523,W,62.10,134.30,110210,,*2B
$GPRMC,171900.4,A,3253.3707,N,11712.3101,W,62.00,139.60,110210,,*22
$GPRMC,171903.4,A,3253.3298,N,11712.2725,W,62.20,143.90,110210,,*23
$GPRMC,171906.4,A,3253.2861,N,11712.2390,W,62.30,149.70,110210,,*24
$GPRMC,171909.4,A,3253.2402,N,11712.2109,W,61.60,155.30,110210,,*2F
$GPRMC,171912.4,A,3253.1928,N,11712.1878,W,61.80,159.50,110210,,*2B
$GPRMC,171915.4,A,3253.1427,N,11712.1704,W,63.00,166.40,110210,,*2D
$GPRMC,171918.4,A,3253.0912,N,11712.1563,W,62.80,166.40,110210,,*20
$GPRMC,171921.4,A,3253.0402,N,11712.1414,W,62.30,165.70,110210,,*2C
$GPRMC,171924.4,A,3252.9898,N,11712.1265,W,61.90,165.70,110210,,*27
$GPRMC,171927.4,A,3252.9395,N,11712.1113,W,62.30,165.50,110210,,*2B
$GPRMC,171930.4,A,3252.8889,N,11712.0957,W,62.80,165.70,110210,,*2A
$GPRMC,171933.4,A,3252.8382,N,11712.0812,W,62.60,166.20,110210,,*21
$GPRMC,171936.4,A,3252.7873,N,11712.0653,W,62.50,165.70,110210,,*20
$GPRMC,171939.4,A,3252.7367,N,11712.0499,W,62.00,165.50,110210,,*22
$GPRMC,171942.4,A,3252.6867,N,11712.0348,W,61.70,165.60,110210,,*28
$GPRMC,171945.4,A,3252.6369,N,11712.0199,W,61.30,165.50,110210,,*23
$GPRMC,171948.4,A,3252.5877,N,11712.0032,W,61.50,162.70,110210,,*2A
$GPRMC,171951.4,A,3252.5391,N,11711.9834,W,61.70,159.20,110210,,*2A
$GPRMC,171954.4,A,3252.4914,N,11711.9600,W,61.10,156.00,110210,,*2B
$GPRMC,171957.4,A,3252.4457,N,11711.9329,W,61.70,151.90,110210,,*24
$GPRMC,172000.4,A,3252.4015,N,11711.9026,W,61.30,148.60,110210,,*21
$GPRMC,172003.4,A,3252.3589,N,11711.8694,W,61.20,144.80,110210,,*28
$GPRMC,172006.4,A,3252.3176,N,11711.8326,W,62.20,141.70,110210,,*2C
$GPRMC,172009.4,A,3252.2771,N,11711.7941,W,61.70,141.20,110210,,*24
$GPRMC,172012.4,A,3252.2368,N,11711.7555,W,62.30,141.10,110210,,*2F
$GPRMC,172015.4,A,3252.1964,N,11711.7166,W,62.40,141.10,110210,,*2E
$GPRMC,172018.4,A,3252.1555,N,11711.6776,W,62.90,141.30,110210,,*24
$GPRMC,172021.4,A,3252.1148,N,11711.6393,W,62.20,141.10,110210,,*20
$GPRMC,172024.4,A,3252.0745,N,11711.6008,W,61.90,141.10,110210,,*26
$GPRMC,172027.4,A,3252.0336,N,11711.5616,W,62.80,141.20,110210,,*2E
$GPRMC,172030.4,A,3251.9929,N,11711.5230,W,62.90,141.30,110210,,*26
$GPRMC,172033.4,A,3251.9518,N,11711.4842,W,63.00,141.40,110210,,*2A
$GPRMC,172036.4,A,3251.9105,N,11711.4452,W,63.10,141.30,110210,,*2C
$GPRMC,172039.4,A,3251.8696,N,11711.4066,W,63.40,141.10,110210,,*2B
$GPRMC,172042.4,A,3251.8284,N,11711.3673,W,63.20,141.30,110210,,*21
$GPRMC,172045.4,A,3251.7874,N,11711.3280,W,63.30,141.30,110210,,*25
$GPRMC,172048.4,A,3251.7463,N,11711.2888,W,63.10,141.30,110210,,*23
$GPRMC,172051.4,A,3251.7054,N,11711.2497,W,62.80,142.20,110210,,*23
$GPRMC,172054.4,A,3251.6639,N,11711.2104,W,63.30,142.60,110210,,*2B
$GPRMC,172057.4,A,3251.6209,N,11711.1742,W,62.90,146.00,110210,,*21
$GPRMC,172100.4,A,3251.5767,N,11711.1414,W,61.40,149.80,110210,,*25
$GPRMC,172103.4,A,3251.5333,N,11711.1131,W,57.90,152.40,110210,,*2F
$GPRMC,172106.4,A,3251.4903,N,11711.0874,W,58.40,152.70,110210,,*2A
$GPRMC,172109.4,A,3251.4463,N,11711.0601,W,59.80,152.60,110210,,*2E
$GPRMC,172112.4,A,3251.4019,N,11711.0331,W,59.20,152.70,110210,,*20
$GPRMC,172115.4,A,3251.3580,N,11711.0061,W,59.00,152.70,110210,,*21
$GPRMC,172118.4,A,3251.3143,N,11710.9791,W,58.30,152.80,110210,,*2A
$GPRMC,172121.4,A,3251.2706,N,11710.9526,W,59.20,152.60,110210,,*26
$GPRMC,172124.4,A,3251.2276,N,11710.9264,W,56.80,152.80,110210,,*2B
$GPRMC,172127.4,A,3251.1858,N,11710.9011,W,56.40,152.80,110210,,*21
$GPRMC,172130.4,A,3251.1439,N,11710.8752,W,56.60,152.70,110210,,*20
$GPRMC,172133.4,A,3251.1016,N,11710.8495,W,57.10,152.60,110210,,*25
$GPRMC,172136.4,A,3251.0588,N,11710.8230,W,58.70,152.80,110210,,*2D
$GPRMC,172139.4,A,3251.0151,N,11710.7964,W,59.40,152.80,110210,,*25
$GPRMC,172142.4,A,3250.9702,N,11710.7692,W,60.50,152.60,110210,,*22
$GPRMC,172145.4,A,3250.9249,N,11710.7414,W,61.00,152.80,110210,,*29
$GPRMC,172148.4,A,3250.8796,N,11710.7139,W,61.10,152.80,110210,,*29
$GPRMC,172151.4,A,3250.8344,N,11710.6861,W,60.80,152.60,110210,,*29
$GPRMC,172154.4,A,3250.7893,N,11710.6586,W,61.60,152.80,110210,,*27
$GPRMC,172157.4,A,3250.7440,N,11710.6313,W,60.10,152.50,110210,,*27
$GPRMC,172200.4,A,3250.7000,N,11710.6042,W,59.30,152.80,110210,,*24
$GPRMC,172203.4,A,3250.6555,N,11710.5772,W,61.60,152.60,110210,,*24
$GPRMC,172206.4,A,3250.6090,N,11710.5488,W,63.00,152.90,110210,,*20
$GPRMC,172209.4,A,3250.5621,N,11710.5208,W,62.40,154.00,110210,,*24
$GPRMC,172212.4,A,3250.5156,N,11710.4943,W,61.60,154.30,110210,,*2E
$GPRMC,172215.4,A,3250.4694,N,11710.4681,W,60.80,154.20,110210,,*2E
$GPRMC,172218.4,A,3250.4245,N,11710.4413,W,59.80,152.60,110210,,*2A
$GPRMC,172221.4,A,3250.3806,N,11710.4141,W,59.00,152.50,110210,,*23
$GPRMC,172224.4,A,3250.3371,N,11710.3876,W,57.40,152.80,110210,,*20
$GPRMC,172227.4,A,3250.2959,N,11710.3624,W,53.40,153.20,110210,,*24
$GPRMC,172230.4,A,3250.2566,N,11710.3409,W,50.70,157.20,110210,,*2B
$GPRMC,172233.4,A,3250.2181,N,11710.3211,W,48.90,154.60,110210,,*2A
$GPRMC,172236.4,A,3250.1823,N,11710.2994,W,47.80,152.50,110210,,*21
$GPRMC,172239.4,A,3250.1472,N,11710.2777,W,47.20,152.80,110210,,*22
$GPRMC,172242.4,A,3250.1124,N,11710.2566,W,46.70,152.80,110210,,*2E
$GPRMC,172245.4,A,3250.0778,N,11710.2357,W,46.00,153.00,110210,,*2D
$GPRMC,172248.4,A,3250.0439,N,11710.2170,W,43.70,156.00,110210,,*26
$GPRMC,172251.4,A,3250.0133,N,11710.1996,W,38.40,152.20,110210,,*2B
$GPRMC,172254.4,A,3249.9904,N,11710.1872,W,27.70,154.30,110210,,*22
$GPRMC,172257.4,A,3249.9705,N,11710.1845,W,24.80,176.40,110210,,*21
$GPRMC,172300.4,A,3249.9572,N,11710.2032,W,22.40,225.40,110210,,*24
$GPRMC,172303.4,A,3249.9592,N,11710.2252,W,20.80,275.60,110210,,*24
$GPRMC,172306.4,A,3249.9725,N,11710.2377,W,18.00,324.80,110210,,*21
$GPRMC,172309.4,A,3249.9864,N,11710.2391,W,16.10,10.00,110210,,*1F
$GPRMC,172312.4,A,3249.9981,N,11710.2325,W,14.50,40.70,110210,,*14
$GPRMC,172315.4,A,3250.0055,N,11710.2209,W,13.80,65.00,110210,,*17
$GPRMC,172318.4,A,3250.0050,N,11710.2045,W,18.60,98.60,110210,,*14
$GPRMC,172321.4,A,3250.0015,N,11710.1840,W,21.50,101.90,110210,,*26
$GPRMC,172324.4,A,3249.9973,N,11710.1620,W,22.80,101.50,110210,,*21
$GPRMC,172327.4,A,3249.9933,N,11710.1386,W,25.80,100.10,110210,,*2D
$GPRMC,172330.4,A,3249.9891,N,11710.1107,W,30.80,100.60,110210,,*2A
$GPRMC,172333.4,A,3249.9837,N,11710.0785,W,34.10,101.70,110210,,*25
$GPRMC,172336.4,A,3249.9777,N,11710.0452,W,34.30,101.70,110210,,*20
$GPRMC,172339.4,A,3249.9714,N,11710.0108,W,34.90,102.40,110210,,*2A
$GPRMC,172342.4,A,3249.9649,N,11709.9769,W,35.20,103.10,110210,,*21
$GPRMC,172345.4,A,3249.9585,N,11709.9440,W,33.40,101.10,110210,,*2F
$GPRMC,172348.4,A,3249.9536,N,11709.9098,W,35.50,97.80,110210,,*1B
