NMEA Sentence Code,UTC Time,Status,Latitude,Latitude Direction,Longitude,Longitude Direction,Speed (knots),Track Angle (degrees true),Date,MagneticVariation,Magnetic Variation Direction,[FAA Mode]-Optional,Checksum
$GPRMC,000629.1,A,3325.612721,N,11737.170613,W,17.8,16.7,251210,,,A*7C
$GPRMC,000632.1,A,3325.625859,N,11737.161371,W,19.6,20.8,251210,,,A*79
$GPRMC,000635.1,A,3325.644123,N,11737.152833,W,21.5,20.5,251210,,,A*75
$GPRMC,000638.1,A,3325.661998,N,11737.145238,W,22.9,19.4,251210,,,A*74
$GPRMC,000641.1,A,3325.678000,N,11737.139597,W,21.5,17.5,251210,,,A*73
$GPRMC,000644.1,A,3325.696130,N,11737.133844,W,20.7,19.9,251210,,,A*7C
$GPRMC,000647.1,A,3325.709466,N,11737.124862,W,18.3,32.7,251210,,,A*74
$GPRMC,000650.1,A,3325.720820,N,11737.111443,W,18.6,41.6,251210,,,A*7E
$GPRMC,000653.1,A,3325.731286,N,11737.096521,W,20.4,45.2,251210,,,A*79
$GPRMC,000656.1,A,3325.744266,N,11737.080176,W,21.9,42.3,251210,,,A*7B
$GPRMC,000659.1,A,3325.757709,N,11737.065461,W,21.5,42.7,251210,,,A*7A
$GPRMC,000702.1,A,3325.772498,N,11737.050859,W,22.2,43.7,251210,,,A*7D
$GPRMC,000705.1,A,3325.787541,N,11737.041601,W,18.9,24.9,251210,,,A*7B
$GPRMC,000708.1,A,3325.797305,N,11737.038757,W,12.5,14.5,251210,,,A*74
$GPRMC,000811.1,A,3325.798733,N,11737.026248,W,9.4,87.1,251210,,,A*4C
$GPRMC,000814.1,A,3325.799960,N,11737.016903,W,8.4,81.7,251210,,,A*46
$GPRMC,000817.1,A,3325.801078,N,11737.011271,W,6.9,83.8,251210,,,A*4C
$GPRMC,000829.1,A,3325.806653,N,11737.030135,W,6.7,285.7,251210,,,A*7C
$GPRMC,000832.1,A,3325.808967,N,11737.040597,W,10.2,289.6,251210,,,A*44
$GPRMC,000835.1,A,3325.812636,N,11737.061633,W,19.8,282.0,251210,,,A*43
$GPRMC,000838.1,A,3325.818746,N,11737.088668,W,25.8,283.0,251210,,,A*45
$GPRMC,000841.1,A,3325.823364,N,11737.116892,W,26.6,283.5,251210,,,A*42
$GPRMC,000844.1,A,3325.827198,N,11737.145274,W,26.4,283.8,251210,,,A*49
$GPRMC,000847.1,A,3325.830423,N,11737.165624,W,17.5,282.8,251210,,,A*48
$GPRMC,000850.1,A,3325.833162,N,11737.177419,W,9.5,296.0,251210,,,A*70
$GPRMC,000853.1,A,3325.833326,N,11737.182955,W,6.4,279.3,251210,,,A*72
$GPRMC,000856.1,A,3325.835969,N,11737.195786,W,13.4,280.8,251210,,,A*4F
$GPRMC,000859.1,A,3325.841020,N,11737.216187,W,19.5,282.6,251210,,,A*4F
$GPRMC,000902.1,A,3325.844543,N,11737.230953,W,14.5,293.1,251210,,,A*4A
$GPRMC,000905.1,A,3325.847116,N,11737.237612,W,6.6,308.8,251210,,,A*7D
$GPRMC,000908.1,A,3325.847014,N,11737.242501,W,5.8,291.9,251210,,,A*7D
$GPRMC,000911.1,A,3325.851491,N,11737.251601,W,11.7,288.8,251210,,,A*49
$GPRMC,000914.1,A,3325.857456,N,11737.265149,W,16.0,294.8,251210,,,A*40
$GPRMC,000917.1,A,3325.866260,N,11737.280410,W,18.7,307.2,251210,,,A*48
$GPRMC,000920.1,A,3325.880829,N,11737.295498,W,21.5,320.9,251210,,,A*41
$GPRMC,000923.1,A,3325.896929,N,11737.310060,W,24.3,322.1,251210,,,A*42
$GPRMC,000926.1,A,3325.914706,N,11737.330901,W,29.4,307.7,251210,,,A*48
$GPRMC,000929.1,A,3325.928302,N,11737.358985,W,32.1,295.6,251210,,,A*4E
$GPRMC,000932.1,A,3325.935697,N,11737.390714,W,33.0,285.3,251210,,,A*47
$GPRMC,000935.1,A,3325.941482,N,11737.421909,W,31.8,281.9,251210,,,A*4E
$GPRMC,000938.1,A,3325.942809,N,11737.454075,W,32.4,275.5,251210,,,A*47
$GPRMC,000941.1,A,3325.939441,N,11737.487656,W,34.6,265.1,251210,,,A*4D
$GPRMC,000944.1,A,3325.933545,N,11737.521125,W,33.6,259.7,251210,,,A*47
$GPRMC,000947.1,A,3325.929195,N,11737.554367,W,32.8,265.1,251210,,,A*46
$GPRMC,000950.1,A,3325.931980,N,11737.589487,W,34.4,275.1,251210,,,A*47
$GPRMC,000953.1,A,3325.937643,N,11737.623210,W,34.3,278.7,251210,,,A*45
$GPRMC,000956.1,A,3325.944455,N,11737.658337,W,36.3,281.0,251210,,,A*4A
$GPRMC,000959.1,A,3325.950878,N,11737.694298,W,35.1,281.9,251210,,,A*4F
$GPRMC,001002.1,A,3325.956630,N,11737.729437,W,34.5,281.3,251210,,,A*46
$GPRMC,001005.1,A,3325.961555,N,11737.761088,W,33.0,282.3,251210,,,A*48
$GPRMC,001008.1,A,3325.969334,N,11737.793930,W,31.8,281.7,251210,,,A*46
$GPRMC,001011.1,A,3325.971805,N,11737.819054,W,25.9,278.6,251210,,,A*4B
$GPRMC,001014.1,A,3325.976337,N,11737.837430,W,17.9,283.4,251210,,,A*4E
$GPRMC,001143.5,A,3325.983602,N,11738.030011,W,23.4,291.2,251210,,,A*48
$GPRMC,001146.5,A,3325.992495,N,11738.052257,W,25.6,298.2,251210,,,A*48
$GPRMC,001149.5,A,3326.011078,N,11738.076461,W,31.7,312.1,251210,,,A*40
$GPRMC,001152.5,A,3326.030641,N,11738.099410,W,32.4,313.2,251210,,,A*40
$GPRMC,001155.5,A,3326.047825,N,11738.121970,W,31.1,313.2,251210,,,A*44
$GPRMC,001158.5,A,3326.066490,N,11738.144468,W,31.6,314.1,251210,,,A*4C
$GPRMC,001201.5,A,3326.087673,N,11738.169113,W,34.4,313.6,251210,,,A*42
$GPRMC,001204.5,A,3326.107726,N,11738.194604,W,35.8,313.7,251210,,,A*40
$GPRMC,001207.5,A,3326.129730,N,11738.221753,W,36.9,313.7,251210,,,A*44
$GPRMC,001210.5,A,3326.151706,N,11738.249325,W,37.4,313.5,251210,,,A*4D
$GPRMC,001213.5,A,3326.173440,N,11738.277118,W,38.6,313.4,251210,,,A*42
$GPRMC,001216.5,A,3326.195983,N,11738.304973,W,38.8,313.5,251210,,,A*42
$GPRMC,001219.5,A,3326.217908,N,11738.332627,W,38.6,313.6,251210,,,A*41
$GPRMC,001222.5,A,3326.240026,N,11738.360085,W,38.9,313.7,251210,,,A*49
$GPRMC,001225.5,A,3326.262801,N,11738.388355,W,38.8,313.5,251210,,,A*48
$GPRMC,001228.5,A,3326.286012,N,11738.416547,W,40.6,315.7,251210,,,A*45
$GPRMC,001231.5,A,3326.310367,N,11738.445373,W,41.5,315.2,251210,,,A*42
$GPRMC,001234.5,A,3326.334938,N,11738.475138,W,42.0,313.8,251210,,,A*45
$GPRMC,001237.5,A,3326.359531,N,11738.504195,W,41.2,314.5,251210,,,A*43
$GPRMC,001240.5,A,3326.383082,N,11738.534344,W,41.1,314.0,251210,,,A*42
$GPRMC,001243.5,A,3326.405227,N,11738.564534,W,41.1,311.8,251210,,,A*4C
$GPRMC,001246.5,A,3326.423033,N,11738.594502,W,37.1,308.3,251210,,,A*42
$GPRMC,001249.5,A,3326.437749,N,11738.620157,W,30.8,306.4,251210,,,A*4D
$GPRMC,001252.5,A,3326.449948,N,11738.641745,W,25.0,305.5,251210,,,A*4D
$GPRMC,001255.5,A,3326.458894,N,11738.658129,W,20.3,306.1,251210,,,A*4F
$GPRMC,001258.5,A,3326.465757,N,11738.670741,W,15.6,307.4,251210,,,A*49
$GPRMC,001301.5,A,3326.474579,N,11738.683441,W,17.5,305.4,251210,,,A*46
$GPRMC,001304.5,A,3326.485003,N,11738.700109,W,21.7,302.3,251210,,,A*41
$GPRMC,001307.5,A,3326.497398,N,11738.722870,W,26.8,303.4,251210,,,A*49
$GPRMC,001310.5,A,3326.511043,N,11738.746326,W,27.7,303.5,251210,,,A*40
$GPRMC,001313.5,A,3326.525897,N,11738.772610,W,31.6,303.8,251210,,,A*49
$GPRMC,001316.5,A,3326.545755,N,11738.800738,W,34.3,307.2,251210,,,A*44
$GPRMC,001319.5,A,3326.563642,N,11738.828411,W,35.8,307.1,251210,,,A*43
$GPRMC,001322.5,A,3326.584835,N,11738.857894,W,39.0,308.9,251210,,,A*46
$GPRMC,001325.5,A,3326.605949,N,11738.888994,W,40.3,309.5,251210,,,A*42
$GPRMC,001328.5,A,3326.629675,N,11738.920097,W,42.1,311.0,251210,,,A*44
$GPRMC,001331.5,A,3326.656991,N,11738.955114,W,43.0,311.9,251210,,,A*40
$GPRMC,001334.5,A,3326.680684,N,11738.988448,W,43.3,312.2,251210,,,A*42
$GPRMC,001337.5,A,3326.705727,N,11739.020562,W,43.7,313.7,251210,,,A*46
$GPRMC,001340.5,A,3326.731996,N,11739.052363,W,44.0,315.3,251210,,,A*45
$GPRMC,001343.5,A,3326.757880,N,11739.082195,W,44.2,315.5,251210,,,A*42
$GPRMC,001346.5,A,3326.787260,N,11739.114496,W,45.6,316.7,251210,,,A*42
$GPRMC,001349.5,A,3326.813704,N,11739.145109,W,45.6,316.3,251210,,,A*4B
$GPRMC,001352.5,A,3326.842325,N,11739.177493,W,46.3,316.2,251210,,,A*42
$GPRMC,001355.5,A,3326.870764,N,11739.209441,W,47.1,315.1,251210,,,A*43
$GPRMC,001358.5,A,3326.896349,N,11739.246946,W,49.4,308.7,251210,,,A*4D
$GPRMC,001401.5,A,3326.919135,N,11739.286403,W,48.2,305.3,251210,,,A*47
$GPRMC,001404.5,A,3326.942567,N,11739.326220,W,47.7,304.9,251210,,,A*42
$GPRMC,001407.5,A,3326.964954,N,11739.364300,W,46.0,305.1,251210,,,A*43
$GPRMC,001410.5,A,3326.984889,N,11739.401342,W,44.9,304.5,251210,,,A*46
$GPRMC,001413.5,A,3327.006563,N,11739.438608,W,46.0,304.5,251210,,,A*44
$GPRMC,001416.5,A,3327.029892,N,11739.477764,W,48.0,304.7,251210,,,A*43
$GPRMC,001419.5,A,3327.053154,N,11739.516225,W,47.4,305.1,251210,,,A*48
$GPRMC,001422.5,A,3327.073278,N,11739.555992,W,46.4,302.2,251210,,,A*4A
$GPRMC,001425.5,A,3327.090926,N,11739.594360,W,44.9,298.9,251210,,,A*4C
$GPRMC,001428.5,A,3327.106736,N,11739.633017,W,44.1,297.1,251210,,,A*42
$GPRMC,001431.5,A,3327.123480,N,11739.672816,W,45.2,296.2,251210,,,A*4F
$GPRMC,001434.5,A,3327.139818,N,11739.712380,W,42.9,297.5,251210,,,A*45
$GPRMC,001437.5,A,3327.155849,N,11739.750841,W,42.7,297.1,251210,,,A*42
$GPRMC,001440.5,A,3327.171754,N,11739.788598,W,42.7,297.1,251210,,,A*4B
$GPRMC,001443.5,A,3327.187108,N,11739.825365,W,41.9,298.2,251210,,,A*43
$GPRMC,001446.5,A,3327.204456,N,11739.861885,W,41.2,299.5,251210,,,A*48
$GPRMC,001449.5,A,3327.222792,N,11739.896479,W,40.8,302.6,251210,,,A*44
$GPRMC,001452.5,A,3327.242542,N,11739.926640,W,40.1,307.1,251210,,,A*4E
$GPRMC,001455.5,A,3327.263159,N,11739.957425,W,41.4,307.0,251210,,,A*46
$GPRMC,001458.5,A,3327.284056,N,11739.989229,W,39.2,308.1,251210,,,A*42
$GPRMC,001501.5,A,3327.303828,N,11740.018231,W,35.3,308.9,251210,,,A*43
$GPRMC,001504.5,A,3327.319484,N,11740.042555,W,29.0,308.9,251210,,,A*43
$GPRMC,001507.5,A,3327.333601,N,11740.063636,W,27.5,307.6,251210,,,A*49
$GPRMC,001510.5,A,3327.346904,N,11740.086759,W,30.1,305.7,251210,,,A*45
$GPRMC,001513.5,A,3327.363646,N,11740.112759,W,34.5,306.4,251210,,,A*44
$GPRMC,001516.5,A,3327.384040,N,11740.144122,W,38.7,305.9,251210,,,A*41
$GPRMC,001519.5,A,3327.405187,N,11740.177293,W,41.1,306.1,251210,,,A*40
$GPRMC,001522.5,A,3327.427178,N,11740.211410,W,42.8,306.4,251210,,,A*49
$GPRMC,001525.5,A,3327.449026,N,11740.246215,W,43.5,306.1,251210,,,A*44
$GPRMC,001528.5,A,3327.471647,N,11740.282638,W,44.6,306.2,251210,,,A*47
$GPRMC,001531.5,A,3327.492520,N,11740.317927,W,44.1,306.1,251210,,,A*48
$GPRMC,001534.5,A,3327.514177,N,11740.353707,W,43.4,305.9,251210,,,A*41
$GPRMC,001537.5,A,3327.533131,N,11740.387732,W,41.6,305.7,251210,,,A*44
$GPRMC,001540.5,A,3327.553300,N,11740.419308,W,40.6,306.4,251210,,,A*4E
$GPRMC,001543.5,A,3327.571696,N,11740.450044,W,39.1,305.5,251210,,,A*4A
$GPRMC,001546.5,A,3327.590480,N,11740.481793,W,38.8,305.8,251210,,,A*41
$GPRMC,001549.5,A,3327.611298,N,11740.513597,W,39.6,306.3,251210,,,A*40
$GPRMC,001552.5,A,3327.631797,N,11740.545547,W,39.9,306.2,251210,,,A*42
$GPRMC,001555.5,A,3327.649373,N,11740.576790,W,39.6,305.0,251210,,,A*42
$GPRMC,001558.5,A,3327.667127,N,11740.609873,W,39.3,304.4,251210,,,A*49
$GPRMC,001601.5,A,3327.685692,N,11740.640938,W,37.7,305.8,251210,,,A*47
$GPRMC,001604.5,A,3327.702411,N,11740.668008,W,33.7,307.2,251210,,,A*49
$GPRMC,001607.5,A,3327.716575,N,11740.686841,W,25.7,311.0,251210,,,A*4B
$GPRMC,001610.5,A,3327.729188,N,11740.704771,W,23.2,310.5,251210,,,A*47
$GPRMC,001613.5,A,3327.741735,N,11740.721845,W,24.2,312.9,251210,,,A*4C
$GPRMC,001616.5,A,3327.759503,N,11740.738701,W,26.8,323.2,251210,,,A*41
$GPRMC,001619.5,A,3327.778347,N,11740.751774,W,26.7,334.6,251210,,,A*4B
$GPRMC,001622.5,A,3327.801330,N,11740.757192,W,27.1,351.9,251210,,,A*41
$GPRMC,001625.5,A,3327.827587,N,11740.754353,W,30.6,8.7,251210,,,A*44
$GPRMC,001628.5,A,3327.854690,N,11740.746391,W,32.6,14.5,251210,,,A*78
$GPRMC,001631.5,A,3327.881022,N,11740.725960,W,35.5,31.4,251210,,,A*74
$GPRMC,001634.5,A,3327.905313,N,11740.706143,W,34.7,32.9,251210,,,A*78
$GPRMC,001637.5,A,3327.927703,N,11740.688213,W,33.5,33.9,251210,,,A*7B
$GPRMC,001640.5,A,3327.951073,N,11740.671273,W,32.3,32.7,251210,,,A*72
$GPRMC,001643.5,A,3327.972951,N,11740.654510,W,32.0,33.2,251210,,,A*7B
$GPRMC,001646.5,A,3327.995211,N,11740.634347,W,33.2,35.9,251210,,,A*74
$GPRMC,001649.5,A,3328.019634,N,11740.616581,W,33.2,34.4,251210,,,A*7A
$GPRMC,001652.5,A,3328.040255,N,11740.597950,W,31.7,34.2,251210,,,A*74
$GPRMC,001655.5,A,3328.062652,N,11740.580376,W,31.0,32.6,251210,,,A*7D
$GPRMC,001658.5,A,3328.085273,N,11740.564986,W,30.6,27.8,251210,,,A*7C
$GPRMC,001701.5,A,3328.107485,N,11740.552423,W,29.4,23.8,251210,,,A*7C
$GPRMC,001704.5,A,3328.133671,N,11740.544146,W,31.6,15.0,251210,,,A*70
$GPRMC,001707.5,A,3328.161126,N,11740.536728,W,32.2,10.9,251210,,,A*71
$GPRMC,001710.5,A,3328.188016,N,11740.532767,W,32.8,5.8,251210,,,A*42
$GPRMC,001713.5,A,3328.215985,N,11740.531626,W,33.3,3.7,251210,,,A*41
$GPRMC,001716.5,A,3328.244588,N,11740.529272,W,33.8,3.2,251210,,,A*43
$GPRMC,001719.5,A,3328.272701,N,11740.528303,W,34.6,4.2,251210,,,A*42
$GPRMC,001722.5,A,3328.302999,N,11740.525497,W,35.3,4.5,251210,,,A*47
$GPRMC,001725.5,A,3328.330867,N,11740.522777,W,33.4,4.7,251210,,,A*48
$GPRMC,001728.5,A,3328.358925,N,11740.518624,W,31.3,6.0,251210,,,A*42
$GPRMC,001731.5,A,3328.381594,N,11740.516258,W,27.7,4.1,251210,,,A*49
$GPRMC,001734.5,A,3328.399617,N,11740.514746,W,22.5,5.6,251210,,,A*44
$GPRMC,001737.5,A,3328.417747,N,11740.507208,W,22.5,15.5,251210,,,A*7D
$GPRMC,001740.5,A,3328.432649,N,11740.497706,W,22.0,24.4,251210,,,A*70
$GPRMC,001743.5,A,3328.451333,N,11740.484978,W,24.7,27.1,251210,,,A*7C
$GPRMC,001746.5,A,3328.479599,N,11740.455778,W,34.4,32.4,251210,,,A*74
$GPRMC,001749.5,A,3328.499731,N,11740.434808,W,32.8,25.6,251210,,,A*74
$GPRMC,001752.5,A,3328.524642,N,11740.425164,W,32.5,17.7,251210,,,A*72
$GPRMC,001755.5,A,3328.549436,N,11740.422709,W,29.3,12.1,251210,,,A*7A
$GPRMC,001758.5,A,3328.568606,N,11740.417960,W,21.9,11.0,251210,,,A*72
$GPRMC,001801.5,A,3328.580179,N,11740.417284,W,14.9,9.1,251210,,,A*47
$GPRMC,001804.5,A,3328.587189,N,11740.415554,W,13.5,13.8,251210,,,A*7B
$GPRMC,001807.5,A,3328.603314,N,11740.409919,W,21.1,16.7,251210,,,A*76
$GPRMC,001810.5,A,3328.628992,N,11740.394869,W,34.9,25.0,251210,,,A*73
$GPRMC,001813.5,A,3328.660721,N,11740.374479,W,41.5,29.1,251210,,,A*7A
$GPRMC,001816.5,A,3328.691745,N,11740.350922,W,43.1,33.5,251210,,,A*7F
$GPRMC,001819.5,A,3328.722146,N,11740.325511,W,44.4,33.8,251210,,,A*7D
$GPRMC,001822.5,A,3328.754779,N,11740.298466,W,47.2,35.4,251210,,,A*77
$GPRMC,001825.5,A,3328.788694,N,11740.272811,W,48.6,34.3,251210,,,A*76
$GPRMC,001828.5,A,3328.821502,N,11740.244067,W,48.4,35.3,251210,,,A*74
$GPRMC,001831.5,A,3328.854318,N,11740.215163,W,49.6,35.9,251210,,,A*7B
$GPRMC,001834.5,A,3328.889034,N,11740.184438,W,51.2,36.1,251210,,,A*75
$GPRMC,001837.5,A,3328.924821,N,11740.154122,W,52.8,35.8,251210,,,A*7C
$GPRMC,001840.5,A,3328.960679,N,11740.122874,W,53.5,36.1,251210,,,A*72
$GPRMC,001843.5,A,3328.997226,N,11740.090709,W,54.3,36.3,251210,,,A*79
$GPRMC,001846.5,A,3329.034906,N,11740.059351,W,54.0,35.6,251210,,,A*7D
$GPRMC,001849.5,A,3329.072399,N,11740.027484,W,54.2,35.6,251210,,,A*78
$GPRMC,001852.5,A,3329.109023,N,11739.995608,W,53.7,35.1,251210,,,A*70
$GPRMC,001855.5,A,3329.147830,N,11739.966719,W,53.8,32.1,251210,,,A*72
$GPRMC,001858.5,A,3329.185308,N,11739.938747,W,54.4,32.0,251210,,,A*7B
$GPRMC,001901.5,A,3329.224751,N,11739.909562,W,56.6,32.5,251210,,,A*74
$GPRMC,001904.5,A,3329.264427,N,11739.879689,W,56.1,31.8,251210,,,A*7E
$GPRMC,001907.5,A,3329.305489,N,11739.849645,W,56.9,31.7,251210,,,A*7B
$GPRMC,001910.5,A,3329.347621,N,11739.817522,W,58.9,32.0,251210,,,A*78
$GPRMC,001913.5,A,3329.390049,N,11739.787334,W,58.1,31.5,251210,,,A*70
$GPRMC,001916.5,A,3329.432326,N,11739.756054,W,59.0,31.8,251210,,,A*74
$GPRMC,001919.5,A,3329.474232,N,11739.724994,W,58.8,32.0,251210,,,A*7F
$GPRMC,001922.5,A,3329.516500,N,11739.695014,W,59.0,32.2,251210,,,A*75
$GPRMC,001925.5,A,3329.558951,N,11739.663450,W,60.8,32.0,251210,,,A*7D
$GPRMC,001928.5,A,3329.601433,N,11739.632098,W,60.1,30.2,251210,,,A*7B
$GPRMC,001931.5,A,3329.647109,N,11739.602649,W,61.2,26.6,251210,,,A*75
$GPRMC,001934.5,A,3329.694001,N,11739.576636,W,61.2,24.6,251210,,,A*7D
$GPRMC,001937.5,A,3329.741542,N,11739.554879,W,61.0,20.8,251210,,,A*78
$GPRMC,001940.5,A,3329.791442,N,11739.538318,W,61.8,16.6,251210,,,A*71
$GPRMC,001943.5,A,3329.842920,N,11739.522572,W,62.6,13.6,251210,,,A*73
$GPRMC,001946.5,A,3329.893676,N,11739.510735,W,62.2,10.3,251210,,,A*74
$GPRMC,001949.5,A,3329.946693,N,11739.501264,W,62.9,7.5,251210,,,A*43
$GPRMC,001952.5,A,3329.997559,N,11739.496921,W,61.0,3.7,251210,,,A*49
$GPRMC,001955.5,A,3330.049141,N,11739.497073,W,60.9,0.2,251210,,,A*40
$GPRMC,001958.5,A,3330.101375,N,11739.499643,W,61.4,357.8,251210,,,A*49
$GPRMC,002001.5,A,3330.151533,N,11739.504378,W,60.4,355.4,251210,,,A*49
$GPRMC,002004.5,A,3330.204861,N,11739.513502,W,62.4,351.9,251210,,,A*43
$GPRMC,002007.5,A,3330.257353,N,11739.526684,W,63.1,347.4,251210,,,A*49
$GPRMC,002010.5,A,3330.308655,N,11739.543735,W,63.5,343.7,251210,,,A*4C
$GPRMC,002013.5,A,3330.359359,N,11739.564139,W,63.8,341.3,251210,,,A*46
$GPRMC,002016.5,A,3330.408705,N,11739.585164,W,63.8,340.6,251210,,,A*4E
$GPRMC,002019.5,A,3330.458819,N,11739.606090,W,63.4,340.1,251210,,,A*4F
$GPRMC,002022.5,A,3330.508443,N,11739.626251,W,62.8,340.7,251210,,,A*46
$GPRMC,002025.5,A,3330.556657,N,11739.648308,W,62.5,339.5,251210,,,A*49
$GPRMC,002028.5,A,3330.605981,N,11739.668968,W,62.0,340.2,251210,,,A*47
$GPRMC,002031.5,A,3330.653898,N,11739.690381,W,61.4,339.8,251210,,,A*4C
$GPRMC,002034.5,A,3330.700376,N,11739.710712,W,60.7,339.6,251210,,,A*4E
$GPRMC,002037.5,A,3330.748317,N,11739.731005,W,61.5,340.3,251210,,,A*4C
$GPRMC,002040.5,A,3330.794530,N,11739.750015,W,60.6,340.5,251210,,,A*4C
$GPRMC,002043.5,A,3330.841634,N,11739.768947,W,60.8,340.4,251210,,,A*45
$GPRMC,002046.5,A,3330.887073,N,11739.789831,W,60.3,339.9,251210,,,A*48
$GPRMC,002049.5,A,3330.934662,N,11739.809055,W,61.5,340.8,251210,,,A*4D
$GPRMC,002052.5,A,3330.983586,N,11739.830053,W,63.1,340.1,251210,,,A*41
$GPRMC,002055.5,A,3331.034703,N,11739.852044,W,63.1,340.3,251210,,,A*4D
$GPRMC,002058.5,A,3331.084726,N,11739.872930,W,62.7,340.8,251210,,,A*48
$GPRMC,002101.5,A,3331.135069,N,11739.894454,W,62.8,340.3,251210,,,A*41
$GPRMC,002104.5,A,3331.184574,N,11739.916102,W,62.9,340.1,251210,,,A*49
$GPRMC,002107.5,A,3331.235131,N,11739.937115,W,64.2,340.6,251210,,,A*49
$GPRMC,002110.5,A,3331.286937,N,11739.959674,W,66.0,340.1,251210,,,A*46
$GPRMC,002113.5,A,3331.337981,N,11739.983151,W,65.9,339.6,251210,,,A*47
$GPRMC,002116.5,A,3331.389686,N,11740.004985,W,65.8,340.3,251210,,,A*4C
$GPRMC,002119.5,A,3331.441976,N,11740.027360,W,65.4,339.8,251210,,,A*49
$GPRMC,002122.5,A,3331.491430,N,11740.050348,W,64.0,337.7,251210,,,A*4D
$GPRMC,002125.5,A,3331.538660,N,11740.077112,W,63.1,332.6,251210,,,A*45
$GPRMC,002128.5,A,3331.585018,N,11740.110368,W,64.4,327.4,251210,,,A*4C
$GPRMC,002131.5,A,3331.627220,N,11740.149369,W,64.5,320.7,251210,,,A*4E
$GPRMC,002134.5,A,3331.663345,N,11740.193339,W,63.7,314.5,251210,,,A*4B
$GPRMC,002137.5,A,3331.697479,N,11740.240905,W,63.4,310.5,251210,,,A*44
$GPRMC,002140.5,A,3331.730479,N,11740.290996,W,63.0,309.3,251210,,,A*45
$GPRMC,002143.5,A,3331.764118,N,11740.339837,W,62.8,310.0,251210,,,A*4F
$GPRMC,002146.5,A,3331.800111,N,11740.385399,W,62.3,315.6,251210,,,A*4E
$GPRMC,002149.5,A,3331.842815,N,11740.423925,W,63.2,325.7,251210,,,A*4E
$GPRMC,002152.5,A,3331.890557,N,11740.455168,W,64.8,334.2,251210,,,A*48
$GPRMC,002155.5,A,3331.945324,N,11740.478353,W,66.2,342.3,251210,,,A*49
$GPRMC,002158.5,A,3332.001702,N,11740.491214,W,67.5,350.8,251210,,,A*45
$GPRMC,002201.5,A,3332.052380,N,11740.492047,W,62.8,357.1,251210,,,A*43
$GPRMC,002204.5,A,3332.092704,N,11740.489637,W,51.3,0.2,251210,,,A*40
$GPRMC,002207.5,A,3332.129244,N,11740.486915,W,46.1,2.6,251210,,,A*41
$GPRMC,002210.5,A,3332.166608,N,11740.483340,W,44.9,3.6,251210,,,A*44
$GPRMC,002213.5,A,3332.200836,N,11740.479702,W,41.7,4.4,251210,,,A*4E
$GPRMC,002216.5,A,3332.236342,N,11740.475020,W,40.8,6.2,251210,,,A*47
$GPRMC,002219.5,A,3332.268948,N,11740.471371,W,39.8,6.2,251210,,,A*4E
$GPRMC,002222.5,A,3332.301435,N,11740.465664,W,40.7,7.8,251210,,,A*41
$GPRMC,002225.5,A,3332.336094,N,11740.459244,W,43.1,9.6,251210,,,A*41
$GPRMC,002228.5,A,3332.373910,N,11740.450014,W,45.6,10.5,251210,,,A*7C
$GPRMC,002231.5,A,3332.411845,N,11740.441565,W,45.7,10.6,251210,,,A*77
$GPRMC,002234.5,A,3332.450846,N,11740.432946,W,45.8,10.1,251210,,,A*75
$GPRMC,002237.5,A,3332.489152,N,11740.424642,W,46.0,9.4,251210,,,A*44
$GPRMC,002240.5,A,3332.523649,N,11740.418968,W,42.0,7.8,251210,,,A*46
$GPRMC,002243.5,A,3332.554990,N,11740.414631,W,39.4,7.6,251210,,,A*47
$GPRMC,002246.5,A,3332.587631,N,11740.409575,W,38.9,7.8,251210,,,A*45
$GPRMC,002249.5,A,3332.622580,N,11740.404821,W,42.4,7.3,251210,,,A*45
$GPRMC,002252.5,A,3332.662154,N,11740.395719,W,46.4,9.5,251210,,,A*41
$GPRMC,002255.5,A,3332.702996,N,11740.387161,W,47.5,9.6,251210,,,A*4E
$GPRMC,002258.5,A,3332.738066,N,11740.381459,W,42.7,7.9,251210,,,A*42
$GPRMC,002301.5,A,3332.764993,N,11740.376370,W,33.0,8.0,251210,,,A*46
$GPRMC,002304.5,A,3332.788264,N,11740.372902,W,28.3,7.3,251210,,,A*4C
$GPRMC,002307.5,A,3332.807274,N,11740.370271,W,24.8,6.8,251210,,,A*46
$GPRMC,002310.5,A,3332.825143,N,11740.368903,W,22.3,5.1,251210,,,A*47
$GPRMC,002313.5,A,3332.840238,N,11740.367209,W,17.9,8.1,251210,,,A*47
$GPRMC,002316.5,A,3332.847911,N,11740.365170,W,9.8,6.5,251210,,,A*7E
$GPRMC,002331.5,A,3332.854859,N,11740.365974,W,4.7,16.1,251210,,,A*4F
$GPRMC,002334.5,A,3332.859965,N,11740.365923,W,6.2,7.3,251210,,,A*7E
$GPRMC,002337.5,A,3332.865858,N,11740.366134,W,7.6,2.1,251210,,,A*72
$GPRMC,002340.5,A,3332.873228,N,11740.365971,W,9.1,4.2,251210,,,A*7E
$GPRMC,002343.5,A,3332.882200,N,11740.364760,W,10.9,4.5,251210,,,A*41
$GPRMC,002346.5,A,3332.895888,N,11740.363355,W,15.2,5.6,251210,,,A*41
$GPRMC,002349.5,A,3332.909316,N,11740.362176,W,17.1,4.3,251210,,,A*41
$GPRMC,002352.5,A,3332.926951,N,11740.361341,W,19.9,4.3,251210,,,A*4C
$GPRMC,002355.5,A,3332.944986,N,11740.360900,W,21.3,3.2,251210,,,A*4C
$GPRMC,002358.5,A,3332.960936,N,11740.360814,W,20.2,0.5,251210,,,A*4C
$GPRMC,002401.5,A,3332.979063,N,11740.361332,W,23.4,359.7,251210,,,A*40
$GPRMC,002404.5,A,3333.003264,N,11740.361366,W,28.0,359.9,251210,,,A*45
$GPRMC,002407.5,A,3333.030005,N,11740.362112,W,31.5,358.5,251210,,,A*41
$GPRMC,002410.5,A,3333.057637,N,11740.362678,W,33.8,359.1,251210,,,A*40
$GPRMC,002413.5,A,3333.085217,N,11740.363788,W,34.4,358.0,251210,,,A*4E
$GPRMC,002416.5,A,3333.112780,N,11740.364055,W,34.6,359.2,251210,,,A*4E
$GPRMC,002419.5,A,3333.141308,N,11740.363402,W,35.0,359.4,251210,,,A*43
$GPRMC,002422.5,A,3333.170431,N,11740.364272,W,35.5,359.2,251210,,,A*41
$GPRMC,002425.5,A,3333.199507,N,11740.365012,W,35.9,359.1,251210,,,A*4F
$GPRMC,002428.5,A,3333.232247,N,11740.366836,W,37.8,358.4,251210,,,A*49
$GPRMC,002431.5,A,3333.265209,N,11740.366413,W,38.7,0.1,251210,,,A*49
$GPRMC,002434.5,A,3333.298572,N,11740.366367,W,40.4,359.8,251210,,,A*4B
$GPRMC,002437.5,A,3333.335135,N,11740.368451,W,44.0,359.2,251210,,,A*4F
$GPRMC,002440.5,A,3333.374508,N,11740.368772,W,46.8,360.0,251210,,,A*40
$GPRMC,002443.5,A,3333.415381,N,11740.369578,W,49.2,359.5,251210,,,A*47
$GPRMC,002446.5,A,3333.458423,N,11740.371125,W,51.4,359.0,251210,,,A*4B
$GPRMC,002449.5,A,3333.502991,N,11740.372435,W,52.2,359.3,251210,,,A*4F
$GPRMC,002452.5,A,3333.543863,N,11740.372143,W,50.5,359.4,251210,,,A*4A
$GPRMC,002455.5,A,3333.587509,N,11740.370487,W,51.2,1.2,251210,,,A*45
$GPRMC,002458.5,A,3333.633371,N,11740.367711,W,53.7,3.0,251210,,,A*40
$GPRMC,002501.5,A,3333.680729,N,11740.363410,W,54.5,4.1,251210,,,A*49
$GPRMC,002504.5,A,3333.725711,N,11740.358559,W,53.5,5.3,251210,,,A*49
$GPRMC,002507.5,A,3333.768496,N,11740.353530,W,51.4,5.2,251210,,,A*49
$GPRMC,002510.5,A,3333.811390,N,11740.349332,W,51.7,4.8,251210,,,A*48
$GPRMC,002513.5,A,3333.854702,N,11740.343973,W,52.1,5.8,251210,,,A*44
$GPRMC,002516.5,A,3333.899673,N,11740.339952,W,51.5,5.1,251210,,,A*47
$GPRMC,002519.5,A,3333.941732,N,11740.336889,W,48.0,4.3,251210,,,A*4E
$GPRMC,002522.5,A,3333.980236,N,11740.332229,W,45.6,5.2,251210,,,A*45
$GPRMC,002525.5,A,3334.014247,N,11740.326921,W,42.7,5.7,251210,,,A*42
$GPRMC,002528.5,A,3334.045485,N,11740.322469,W,39.2,4.6,251210,,,A*4F
$GPRMC,002531.5,A,3334.078334,N,11740.318467,W,38.9,5.0,251210,,,A*4E
$GPRMC,002534.5,A,3334.110574,N,11740.314578,W,39.1,4.7,251210,,,A*4A
$GPRMC,002537.5,A,3334.142878,N,11740.312104,W,37.7,2.7,251210,,,A*48
$GPRMC,002540.5,A,3334.173000,N,11740.311130,W,32.9,0.9,251210,,,A*4E
$GPRMC,002543.5,A,3334.191799,N,11740.309414,W,23.4,359.8,251210,,,A*4F
$GPRMC,002546.5,A,3334.208020,N,11740.309685,W,21.3,0.5,251210,,,A*41
$GPRMC,002549.5,A,3334.226618,N,11740.308457,W,24.0,1.7,251210,,,A*46
$GPRMC,002552.5,A,3334.249433,N,11740.307487,W,28.5,0.8,251210,,,A*4B
$GPRMC,002555.5,A,3334.273095,N,11740.307187,W,28.9,358.9,251210,,,A*4B
$GPRMC,002558.5,A,3334.298260,N,11740.305585,W,31.0,0.0,251210,,,A*49
$GPRMC,002601.5,A,3334.325931,N,11740.305020,W,33.8,0.4,251210,,,A*4A
$GPRMC,002604.5,A,3334.355832,N,11740.303427,W,37.2,1.2,251210,,,A*46
$GPRMC,002607.5,A,3334.390211,N,11740.303426,W,40.2,1.1,251210,,,A*45
$GPRMC,002610.5,A,3334.426398,N,11740.303672,W,42.2,1.1,251210,,,A*48
$GPRMC,002613.5,A,3334.463831,N,11740.302700,W,44.6,0.4,251210,,,A*41
$GPRMC,002616.5,A,3334.503745,N,11740.302748,W,48.5,0.6,251210,,,A*4E
$GPRMC,002619.5,A,3334.545179,N,11740.302079,W,49.7,0.3,251210,,,A*49
$GPRMC,002622.5,A,3334.588583,N,11740.300753,W,51.0,0.1,251210,,,A*40
$GPRMC,002625.5,A,3334.631797,N,11740.300747,W,52.4,0.9,251210,,,A*4B
$GPRMC,002628.5,A,3334.675903,N,11740.299742,W,53.5,1.4,251210,,,A*4D
$GPRMC,002631.5,A,3334.722046,N,11740.298403,W,54.7,0.9,251210,,,A*40
$GPRMC,002634.5,A,3334.769317,N,11740.299064,W,56.1,0.3,251210,,,A*47
$GPRMC,002637.5,A,3334.817750,N,11740.298783,W,57.4,0.7,251210,,,A*4A
$GPRMC,002640.5,A,3334.865848,N,11740.297488,W,58.2,1.5,251210,,,A*44
$GPRMC,002643.5,A,3334.913826,N,11740.297373,W,58.5,0.5,251210,,,A*4A
$GPRMC,002646.5,A,3334.961050,N,11740.297112,W,55.5,0.9,251210,,,A*47
$GPRMC,002649.5,A,3335.004808,N,11740.295060,W,52.8,1.1,251210,,,A*43
$GPRMC,002652.5,A,3335.048034,N,11740.293633,W,52.4,0.8,251210,,,A*44
$GPRMC,002655.5,A,3335.092813,N,11740.293023,W,53.9,1.1,251210,,,A*4A
$GPRMC,002658.5,A,3335.136856,N,11740.292767,W,53.9,1.2,251210,,,A*4C
$GPRMC,002701.5,A,3335.183758,N,11740.291935,W,54.8,0.7,251210,,,A*46
$GPRMC,002704.5,A,3335.228624,N,11740.292256,W,53.8,1.1,251210,,,A*46
$GPRMC,002707.5,A,3335.274201,N,11740.291614,W,54.2,0.6,251210,,,A*45
$GPRMC,002710.5,A,3335.319727,N,11740.290883,W,54.4,0.8,251210,,,A*41
$GPRMC,002713.5,A,3335.366207,N,11740.290675,W,55.2,0.6,251210,,,A*43
$GPRMC,002716.5,A,3335.413614,N,11740.290079,W,56.4,0.4,251210,,,A*48
$GPRMC,002719.5,A,3335.460562,N,11740.291433,W,56.7,357.5,251210,,,A*49
$GPRMC,002722.5,A,3335.505884,N,11740.296589,W,55.4,353.2,251210,,,A*42
$GPRMC,002725.5,A,3335.552724,N,11740.307335,W,57.2,347.5,251210,,,A*4C
$GPRMC,002728.5,A,3335.598454,N,11740.326218,W,58.3,341.4,251210,,,A*47
$GPRMC,002731.5,A,3335.643757,N,11740.350036,W,58.2,336.1,251210,,,A*41
$GPRMC,002734.5,A,3335.686854,N,11740.378015,W,59.3,330.2,251210,,,A*4F
$GPRMC,002737.5,A,3335.727584,N,11740.410695,W,59.2,325.8,251210,,,A*4E
$GPRMC,002740.5,A,3335.767587,N,11740.446006,W,59.8,322.3,251210,,,A*40
$GPRMC,002743.5,A,3335.804558,N,11740.483381,W,58.6,319.7,251210,,,A*4D
$GPRMC,002746.5,A,3335.841278,N,11740.522928,W,58.1,316.7,251210,,,A*47
$GPRMC,002749.5,A,3335.874433,N,11740.564859,W,57.9,312.7,251210,,,A*41
$GPRMC,002752.5,A,3335.903305,N,11740.608867,W,57.3,307.8,251210,,,A*4D
$GPRMC,002755.5,A,3335.928934,N,11740.655016,W,55.8,303.7,251210,,,A*4F
$GPRMC,002758.5,A,3335.947565,N,11740.698199,W,50.0,298.5,251210,,,A*48
$GPRMC,002801.5,A,3335.965645,N,11740.741497,W,48.9,297.0,251210,,,A*4E
$GPRMC,002804.5,A,3335.982078,N,11740.785152,W,48.3,295.8,251210,,,A*4E
$GPRMC,002807.5,A,3335.996918,N,11740.826578,W,46.1,295.3,251210,,,A*4A
$GPRMC,002810.5,A,3336.013852,N,11740.867889,W,44.8,296.0,251210,,,A*49
$GPRMC,002813.5,A,3336.030533,N,11740.906967,W,44.8,297.5,251210,,,A*42
$GPRMC,002816.5,A,3336.045385,N,11740.945717,W,44.6,295.7,251210,,,A*4E
$GPRMC,002819.5,A,3336.060758,N,11740.986468,W,44.9,294.9,251210,,,A*46
$GPRMC,002822.5,A,3336.077390,N,11741.028739,W,46.8,295.3,251210,,,A*4B
$GPRMC,002825.5,A,3336.094154,N,11741.073285,W,49.4,294.2,251210,,,A*44
$GPRMC,002828.5,A,3336.111570,N,11741.120469,W,51.5,294.2,251210,,,A*4C
$GPRMC,002831.5,A,3336.129163,N,11741.167408,W,52.9,295.0,251210,,,A*41
$GPRMC,002834.5,A,3336.151218,N,11741.216399,W,54.3,298.0,251210,,,A*4F
$GPRMC,002837.5,A,3336.175023,N,11741.263641,W,56.5,301.8,251210,,,A*4F
$GPRMC,002840.5,A,3336.201569,N,11741.310896,W,58.3,304.8,251210,,,A*48
$GPRMC,002843.5,A,3336.231938,N,11741.357902,W,59.3,307.9,251210,,,A*4C
$GPRMC,002846.5,A,3336.263139,N,11741.404655,W,60.3,308.8,251210,,,A*4F
$GPRMC,002849.5,A,3336.292836,N,11741.451229,W,59.7,307.6,251210,,,A*48
$GPRMC,002852.5,A,3336.322446,N,11741.498416,W,58.9,306.4,251210,,,A*40
$GPRMC,002855.5,A,3336.350058,N,11741.546631,W,58.9,304.4,251210,,,A*4E
$GPRMC,002858.5,A,3336.375831,N,11741.594674,W,58.3,302.1,251210,,,A*44
$GPRMC,002901.5,A,3336.400223,N,11741.645222,W,58.2,300.0,251210,,,A*4F
$GPRMC,002904.5,A,3336.423823,N,11741.696659,W,59.0,298.2,251210,,,A*46
$GPRMC,002907.5,A,3336.447225,N,11741.750106,W,60.1,297.2,251210,,,A*49
$GPRMC,002910.5,A,3336.470340,N,11741.804030,W,60.1,297.4,251210,,,A*45
$GPRMC,002913.5,A,3336.493323,N,11741.856865,W,60.5,297.8,251210,,,A*49
$GPRMC,002916.5,A,3336.517002,N,11741.909422,W,59.7,297.8,251210,,,A*4D
$GPRMC,002919.5,A,3336.538694,N,11741.960589,W,57.9,297.1,251210,,,A*40
$GPRMC,002922.5,A,3336.560105,N,11742.010735,W,56.3,298.0,251210,,,A*47
$GPRMC,002925.5,A,3336.582701,N,11742.058959,W,55.3,300.2,251210,,,A*47
$GPRMC,002928.5,A,3336.606246,N,11742.103589,W,54.4,303.3,251210,,,A*49
$GPRMC,002931.5,A,3336.633500,N,11742.147984,W,54.7,306.9,251210,,,A*4F
$GPRMC,002934.5,A,3336.663048,N,11742.190974,W,57.1,310.2,251210,,,A*4A
$GPRMC,002937.5,A,3336.696190,N,11742.233697,W,58.5,313.6,251210,,,A*43
$GPRMC,002940.5,A,3336.732213,N,11742.275537,W,59.6,315.8,251210,,,A*45
$GPRMC,002943.5,A,3336.769876,N,11742.319720,W,61.1,315.2,251210,,,A*48
$GPRMC,002946.5,A,3336.807269,N,11742.362566,W,60.1,315.9,251210,,,A*48
$GPRMC,002949.5,A,3336.843297,N,11742.404906,W,59.7,315.5,251210,,,A*4B
$GPRMC,002952.5,A,3336.878236,N,11742.445578,W,58.2,315.6,251210,,,A*45
$GPRMC,002955.5,A,3336.912150,N,11742.486798,W,57.9,315.5,251210,,,A*48
$GPRMC,002958.5,A,3336.947494,N,11742.526471,W,58.4,316.0,251210,,,A*43
$GPRMC,003001.5,A,3336.984016,N,11742.564662,W,58.3,318.8,251210,,,A*41
$GPRMC,003004.5,A,3337.022391,N,11742.602304,W,58.6,321.5,251210,,,A*48
$GPRMC,003007.5,A,3337.064072,N,11742.638506,W,60.6,322.5,251210,,,A*42
$GPRMC,003010.5,A,3337.104918,N,11742.676079,W,61.3,322.4,251210,,,A*44
$GPRMC,003013.5,A,3337.144373,N,11742.713686,W,60.8,322.1,251210,,,A*4F
$GPRMC,003016.5,A,3337.185403,N,11742.751230,W,61.4,322.1,251210,,,A*45
$GPRMC,003019.5,A,3337.226368,N,11742.789655,W,63.0,322.1,251210,,,A*4E
$GPRMC,003022.5,A,3337.270319,N,11742.830404,W,65.9,321.8,251210,,,A*4D
$GPRMC,003025.5,A,3337.314681,N,11742.871485,W,67.0,322.2,251210,,,A*43
$GPRMC,003028.5,A,3337.359576,N,11742.912168,W,66.7,322.6,251210,,,A*4C
$GPRMC,003031.5,A,3337.402087,N,11742.952323,W,65.1,322.1,251210,,,A*4D
$GPRMC,003034.5,A,3337.446008,N,11742.991275,W,62.8,322.8,251210,,,A*45
$GPRMC,003037.5,A,3337.487881,N,11743.029734,W,60.8,322.3,251210,,,A*40
$GPRMC,003040.5,A,3337.527954,N,11743.066674,W,60.2,322.6,251210,,,A*43
$GPRMC,003043.5,A,3337.566988,N,11743.102389,W,60.2,322.6,251210,,,A*40
$GPRMC,003046.5,A,3337.606154,N,11743.138547,W,60.5,322.5,251210,,,A*40
$GPRMC,003049.5,A,3337.648397,N,11743.177070,W,63.1,322.8,251210,,,A*48
$GPRMC,003052.5,A,3337.688613,N,11743.216478,W,63.3,322.0,251210,,,A*45
$GPRMC,003055.5,A,3337.732936,N,11743.256006,W,64.6,322.8,251210,,,A*49
$GPRMC,003058.5,A,3337.774523,N,11743.294688,W,63.2,321.5,251210,,,A*4D
$GPRMC,003101.5,A,3337.812788,N,11743.334896,W,61.4,318.3,251210,,,A*4E
$GPRMC,003104.5,A,3337.848069,N,11743.376822,W,59.7,315.6,251210,,,A*45
$GPRMC,003107.5,A,3337.882332,N,11743.415922,W,57.3,315.4,251210,,,A*46
$GPRMC,003110.5,A,3337.916218,N,11743.456398,W,57.8,315.6,251210,,,A*40
$GPRMC,003113.5,A,3337.950202,N,11743.497301,W,58.8,315.6,251210,,,A*48
$GPRMC,003116.5,A,3337.986279,N,11743.538782,W,59.4,317.6,251210,,,A*4E
$GPRMC,003119.5,A,3338.027226,N,11743.577135,W,61.0,321.8,251210,,,A*43
$GPRMC,003122.5,A,3338.071059,N,11743.613463,W,62.2,325.6,251210,,,A*4E
$GPRMC,003125.5,A,3338.113468,N,11743.646581,W,61.1,326.7,251210,,,A*45
$GPRMC,003128.5,A,3338.156613,N,11743.680455,W,61.1,326.8,251210,,,A*4A
$GPRMC,003131.5,A,3338.199184,N,11743.713812,W,61.0,326.8,251210,,,A*4D
$GPRMC,003134.5,A,3338.240925,N,11743.745927,W,59.3,326.8,251210,,,A*40
$GPRMC,003137.5,A,3338.282245,N,11743.777620,W,58.7,327.3,251210,,,A*46
$GPRMC,003140.5,A,3338.322682,N,11743.810087,W,58.5,326.2,251210,,,A*45
$GPRMC,003143.5,A,3338.364427,N,11743.842442,W,59.0,326.7,251210,,,A*42
$GPRMC,003146.5,A,3338.405952,N,11743.875053,W,60.4,327.4,251210,,,A*44
$GPRMC,003149.5,A,3338.445992,N,11743.907429,W,59.3,325.9,251210,,,A*4C
$GPRMC,003152.5,A,3338.485762,N,11743.939613,W,58.4,325.6,251210,,,A*44
$GPRMC,003155.5,A,3338.527070,N,11743.972523,W,59.1,325.8,251210,,,A*4B
$GPRMC,003158.5,A,3338.567674,N,11744.005449,W,59.0,325.7,251210,,,A*4D
$GPRMC,003201.5,A,3338.613884,N,11744.041211,W,60.8,326.1,251210,,,A*4F
$GPRMC,003204.5,A,3338.654787,N,11744.077513,W,60.4,325.8,251210,,,A*43
$GPRMC,003207.5,A,3338.693811,N,11744.111076,W,60.1,326.0,251210,,,A*42
$GPRMC,003210.5,A,3338.734167,N,11744.143721,W,59.0,326.3,251210,,,A*4A
$GPRMC,003213.5,A,3338.774151,N,11744.175362,W,58.4,326.7,251210,,,A*4F
$GPRMC,003216.5,A,3338.816016,N,11744.208823,W,58.3,326.1,251210,,,A*45
$GPRMC,003219.5,A,3338.856161,N,11744.241099,W,58.3,326.2,251210,,,A*48
$GPRMC,003222.5,A,3338.896186,N,11744.273713,W,57.4,326.3,251210,,,A*48
$GPRMC,003225.5,A,3338.935722,N,11744.305334,W,58.0,326.2,251210,,,A*44
$GPRMC,003228.5,A,3338.977792,N,11744.338169,W,59.8,326.3,251210,,,A*48
$GPRMC,003231.5,A,3339.019000,N,11744.370933,W,59.6,326.4,251210,,,A*4E
$GPRMC,003234.5,A,3339.059861,N,11744.404463,W,58.7,326.4,251210,,,A*4C
$GPRMC,003237.5,A,3339.098019,N,11744.434452,W,56.4,326.6,251210,,,A*4B
$GPRMC,003240.5,A,3339.136826,N,11744.465090,W,56.1,326.5,251210,,,A*42
$GPRMC,003243.5,A,3339.177280,N,11744.496307,W,56.7,326.6,251210,,,A*46
$GPRMC,003246.5,A,3339.216315,N,11744.527106,W,56.2,326.0,251210,,,A*41
$GPRMC,003249.5,A,3339.257330,N,11744.560535,W,58.5,326.4,251210,,,A*46
$GPRMC,003252.5,A,3339.298986,N,11744.592931,W,59.2,326.5,251210,,,A*4A
$GPRMC,003255.5,A,3339.340853,N,11744.626392,W,59.2,326.6,251210,,,A*4C
$GPRMC,003258.5,A,3339.383111,N,11744.659045,W,59.5,327.2,251210,,,A*42
$GPRMC,003301.5,A,3339.424447,N,11744.689853,W,59.0,327.9,251210,,,A*4F
$GPRMC,003304.5,A,3339.467667,N,11744.722399,W,59.2,327.9,251210,,,A*42
$GPRMC,003307.5,A,3339.507758,N,11744.752657,W,58.1,327.0,251210,,,A*40
$GPRMC,003310.5,A,3339.548431,N,11744.785457,W,58.8,326.3,251210,,,A*42
$GPRMC,003313.5,A,3339.589132,N,11744.817736,W,58.8,326.3,251210,,,A*4A
$GPRMC,003316.5,A,3339.630876,N,11744.851212,W,59.1,326.2,251210,,,A*4F
$GPRMC,003319.5,A,3339.671918,N,11744.883990,W,59.0,326.0,251210,,,A*41
$GPRMC,003322.5,A,3339.711712,N,11744.915417,W,57.8,326.0,251210,,,A*40
$GPRMC,003325.5,A,3339.750483,N,11744.946037,W,56.0,326.2,251210,,,A*42
$GPRMC,003328.5,A,3339.790382,N,11744.979020,W,56.6,325.5,251210,,,A*4D
$GPRMC,003331.5,A,3339.830443,N,11745.012316,W,57.4,325.1,251210,,,A*4E
$GPRMC,003334.5,A,3339.871285,N,11745.045823,W,58.1,325.3,251210,,,A*45
$GPRMC,003337.5,A,3339.910010,N,11745.080346,W,59.0,324.9,251210,,,A*44
$GPRMC,003340.5,A,3339.951851,N,11745.113778,W,59.9,325.9,251210,,,A*46
$GPRMC,003343.5,A,3339.993754,N,11745.146744,W,60.7,326.4,251210,,,A*44
$GPRMC,003346.5,A,3340.037883,N,11745.180781,W,62.0,326.3,251210,,,A*4C
$GPRMC,003349.5,A,3340.082078,N,11745.217089,W,62.8,325.8,251210,,,A*43
$GPRMC,003352.5,A,3340.128093,N,11745.252848,W,63.9,329.4,251210,,,A*49
$GPRMC,003355.5,A,3340.177110,N,11745.281438,W,62.9,335.5,251210,,,A*46
$GPRMC,003358.5,A,3340.225301,N,11745.302474,W,61.0,340.5,251210,,,A*47
$GPRMC,003401.5,A,3340.270433,N,11745.315537,W,58.3,346.2,251210,,,A*42
$GPRMC,003404.5,A,3340.319287,N,11745.327478,W,58.9,349.6,251210,,,A*4A
$GPRMC,003407.5,A,3340.368181,N,11745.336793,W,58.4,349.7,251210,,,A*40
$GPRMC,003410.5,A,3340.415963,N,11745.346162,W,56.6,350.8,251210,,,A*4B
$GPRMC,003413.5,A,3340.462290,N,11745.357804,W,57.1,346.6,251210,,,A*49
$GPRMC,003416.5,A,3340.509324,N,11745.375555,W,59.0,341.3,251210,,,A*4A
$GPRMC,003419.5,A,3340.555348,N,11745.398835,W,60.4,336.2,251210,,,A*41
$GPRMC,003422.5,A,3340.602242,N,11745.427959,W,62.8,331.0,251210,,,A*40
$GPRMC,003425.5,A,3340.650678,N,11745.467395,W,68.7,324.3,251210,,,A*41
$GPRMC,003428.5,A,3340.696848,N,11745.513839,W,70.7,318.3,251210,,,A*42
$GPRMC,003431.5,A,3340.736015,N,11745.561832,W,68.0,315.2,251210,,,A*4D
$GPRMC,003434.5,A,3340.775807,N,11745.608151,W,65.4,316.1,251210,,,A*4D
$GPRMC,003437.5,A,3340.814411,N,11745.653338,W,64.6,316.3,251210,,,A*4F
$GPRMC,003440.5,A,3340.852000,N,11745.695294,W,63.0,316.7,251210,,,A*41
$GPRMC,003443.5,A,3340.888444,N,11745.738033,W,63.3,316.5,251210,,,A*49
$GPRMC,003446.5,A,3340.931565,N,11745.781581,W,64.5,320.4,251210,,,A*46
$GPRMC,003449.5,A,3340.975872,N,11745.819013,W,63.5,325.3,251210,,,A*47
$GPRMC,003452.5,A,3341.021126,N,11745.850757,W,62.3,329.7,251210,,,A*49
$GPRMC,003455.5,A,3341.066196,N,11745.879738,W,61.9,331.2,251210,,,A*41
$GPRMC,003458.5,A,3341.112384,N,11745.909512,W,62.6,331.4,251210,,,A*49
$GPRMC,003501.5,A,3341.158771,N,11745.939962,W,61.5,331.2,251210,,,A*4A
$GPRMC,003504.5,A,3341.204657,N,11745.969538,W,61.9,331.3,251210,,,A*4B
$GPRMC,003507.5,A,3341.250112,N,11745.999426,W,62.6,331.2,251210,,,A*43
$GPRMC,003510.5,A,3341.296650,N,11746.030139,W,63.4,331.5,251210,,,A*48
$GPRMC,003513.5,A,3341.344065,N,11746.060327,W,63.4,331.7,251210,,,A*4F
$GPRMC,003516.5,A,3341.390775,N,11746.090000,W,63.1,331.7,251210,,,A*49
$GPRMC,003519.5,A,3341.436834,N,11746.120256,W,62.8,331.2,251210,,,A*41
$GPRMC,003522.5,A,3341.482461,N,11746.150360,W,62.1,331.4,251210,,,A*46
$GPRMC,003525.5,A,3341.528523,N,11746.180859,W,62.0,331.5,251210,,,A*4B
$GPRMC,003528.5,A,3341.573417,N,11746.210467,W,61.0,330.7,251210,,,A*45
$GPRMC,003531.5,A,3341.617815,N,11746.238878,W,60.9,330.9,251210,,,A*4C
$GPRMC,003534.5,A,3341.663402,N,11746.270295,W,60.8,330.9,251210,,,A*44
$GPRMC,003537.5,A,3341.706658,N,11746.299073,W,59.8,331.3,251210,,,A*44
$GPRMC,003540.5,A,3341.751403,N,11746.328546,W,60.5,331.9,251210,,,A*4F
$GPRMC,003543.5,A,3341.795943,N,11746.358138,W,61.0,331.5,251210,,,A*4F
$GPRMC,003546.5,A,3341.839861,N,11746.386811,W,61.8,331.5,251210,,,A*4B
$GPRMC,003549.5,A,3341.885059,N,11746.415672,W,62.4,331.8,251210,,,A*44
$GPRMC,003552.5,A,3341.929791,N,11746.444676,W,62.5,331.4,251210,,,A*47
$GPRMC,003555.5,A,3341.974912,N,11746.475150,W,61.9,331.5,251210,,,A*42
$GPRMC,003558.5,A,3342.019113,N,11746.503871,W,59.6,331.2,251210,,,A*4E
$GPRMC,003601.5,A,3342.062316,N,11746.532074,W,58.2,331.4,251210,,,A*46
$GPRMC,003604.5,A,3342.103074,N,11746.558159,W,56.2,331.3,251210,,,A*49
$GPRMC,003607.5,A,3342.144546,N,11746.584392,W,55.0,331.9,251210,,,A*42
$GPRMC,003610.5,A,3342.184850,N,11746.610285,W,55.5,332.3,251210,,,A*47
$GPRMC,003613.5,A,3342.227688,N,11746.638553,W,57.4,331.2,251210,,,A*42
$GPRMC,003616.5,A,3342.270095,N,11746.666218,W,56.2,331.7,251210,,,A*4E
$GPRMC,003619.5,A,3342.312332,N,11746.692774,W,56.8,332.8,251210,,,A*48
$GPRMC,003622.5,A,3342.355705,N,11746.719893,W,58.2,331.5,251210,,,A*4D
$GPRMC,003625.5,A,3342.397371,N,11746.749091,W,58.4,329.2,251210,,,A*44
$GPRMC,003628.5,A,3342.438501,N,11746.779708,W,57.3,327.8,251210,,,A*42
$GPRMC,003631.5,A,3342.479667,N,11746.812955,W,58.9,325.6,251210,,,A*41
$GPRMC,003634.5,A,3342.520118,N,11746.848209,W,58.5,324.1,251210,,,A*41
$GPRMC,003637.5,A,3342.558457,N,11746.883601,W,57.2,322.2,251210,,,A*45
$GPRMC,003640.5,A,3342.594642,N,11746.918977,W,57.2,320.6,251210,,,A*48
$GPRMC,003643.5,A,3342.631893,N,11746.956245,W,59.1,319.3,251210,,,A*47
$GPRMC,003646.5,A,3342.667376,N,11746.995077,W,59.1,317.8,251210,,,A*48
$GPRMC,003649.5,A,3342.702451,N,11747.035046,W,57.7,316.0,251210,,,A*46
$GPRMC,003652.5,A,3342.735794,N,11747.075253,W,55.4,314.4,251210,,,A*47
$GPRMC,003655.5,A,3342.767108,N,11747.115004,W,53.8,312.4,251210,,,A*4F
$GPRMC,003658.5,A,3342.795062,N,11747.153577,W,51.9,310.8,251210,,,A*4C
$GPRMC,003701.5,A,3342.823833,N,11747.193822,W,51.9,310.1,251210,,,A*47
$GPRMC,003704.5,A,3342.852678,N,11747.235459,W,54.0,309.9,251210,,,A*46
$GPRMC,003707.5,A,3342.882513,N,11747.277524,W,54.9,309.8,251210,,,A*43
$GPRMC,003710.5,A,3342.912487,N,11747.320232,W,55.2,309.4,251210,,,A*44
$GPRMC,003713.5,A,3342.941903,N,11747.362544,W,55.7,309.7,251210,,,A*46
$GPRMC,003716.5,A,3342.972374,N,11747.405184,W,55.8,310.2,251210,,,A*45
$GPRMC,003719.5,A,3343.001718,N,11747.448110,W,55.7,309.8,251210,,,A*41
$GPRMC,003722.5,A,3343.031663,N,11747.489984,W,54.2,309.2,251210,,,A*41
$GPRMC,003725.5,A,3343.060002,N,11747.530888,W,53.0,309.3,251210,,,A*49
$GPRMC,003728.5,A,3343.087846,N,11747.571495,W,51.6,310.0,251210,,,A*4F
$GPRMC,003731.5,A,3343.114243,N,11747.608664,W,48.3,310.2,251210,,,A*4D
$GPRMC,003734.5,A,3343.139728,N,11747.643714,W,44.6,309.9,251210,,,A*4C
$GPRMC,003737.5,A,3343.160997,N,11747.675544,W,39.6,309.5,251210,,,A*4D
$GPRMC,003740.5,A,3343.180186,N,11747.702407,W,34.9,309.6,251210,,,A*4D
$GPRMC,003743.5,A,3343.198027,N,11747.728531,W,33.6,309.0,251210,,,A*4F
$GPRMC,003746.5,A,3343.217240,N,11747.756387,W,36.7,309.3,251210,,,A*48
$GPRMC,003749.5,A,3343.238795,N,11747.786529,W,39.9,310.0,251210,,,A*42
$GPRMC,003752.5,A,3343.260594,N,11747.817674,W,40.7,309.2,251210,,,A*40
$GPRMC,003755.5,A,3343.280996,N,11747.848241,W,39.1,309.8,251210,,,A*4D
$GPRMC,003758.5,A,3343.301381,N,11747.877280,W,37.5,310.3,251210,,,A*4C
$GPRMC,003801.5,A,3343.321608,N,11747.905552,W,36.5,309.9,251210,,,A*46
$GPRMC,003804.5,A,3343.339917,N,11747.931451,W,34.3,309.8,251210,,,A*4B
$GPRMC,003807.5,A,3343.358554,N,11747.956731,W,34.1,310.3,251210,,,A*41
$GPRMC,003810.5,A,3343.377940,N,11747.984732,W,36.4,309.0,251210,,,A*43
$GPRMC,003813.5,A,3343.398033,N,11748.014167,W,38.1,309.7,251210,,,A*49
$GPRMC,003816.5,A,3343.419257,N,11748.044128,W,39.5,310.0,251210,,,A*46
$GPRMC,003819.5,A,3343.440596,N,11748.075905,W,41.2,309.3,251210,,,A*49
$GPRMC,003822.5,A,3343.462120,N,11748.108733,W,40.8,309.1,251210,,,A*41
$GPRMC,003825.5,A,3343.484159,N,11748.140335,W,40.3,309.3,251210,,,A*47
$GPRMC,003828.5,A,3343.504129,N,11748.171419,W,39.6,307.8,251210,,,A*41
$GPRMC,003831.5,A,3343.524873,N,11748.203025,W,40.5,307.9,251210,,,A*4C
$GPRMC,003834.5,A,3343.545595,N,11748.235037,W,41.7,308.5,251210,,,A*4D
$GPRMC,003837.5,A,3343.568069,N,11748.268665,W,42.7,308.8,251210,,,A*40
$GPRMC,003840.5,A,3343.590050,N,11748.302884,W,43.2,308.5,251210,,,A*48
$GPRMC,003843.5,A,3343.612996,N,11748.336501,W,43.0,308.8,251210,,,A*49
$GPRMC,003846.5,A,3343.633629,N,11748.367311,W,37.8,309.1,251210,,,A*44
$GPRMC,003849.5,A,3343.651213,N,11748.392983,W,33.1,310.0,251210,,,A*4D
$GPRMC,003852.5,A,3343.668306,N,11748.416908,W,31.5,309.9,251210,,,A*47
$GPRMC,003855.5,A,3343.685281,N,11748.442044,W,31.9,309.4,251210,,,A*4C
$GPRMC,003858.5,A,3343.700096,N,11748.464008,W,28.4,309.7,251210,,,A*43
$GPRMC,003901.5,A,3343.714308,N,11748.484944,W,26.3,309.5,251210,,,A*4B
$GPRMC,003904.5,A,3343.727422,N,11748.504594,W,26.2,308.6,251210,,,A*4A
$GPRMC,003907.5,A,3343.742254,N,11748.524934,W,27.4,309.5,251210,,,A*4C
$GPRMC,003910.5,A,3343.758353,N,11748.546098,W,27.1,310.5,251210,,,A*41
$GPRMC,003913.5,A,3343.773155,N,11748.567702,W,27.1,311.2,251210,,,A*4E
$GPRMC,003916.5,A,3343.787720,N,11748.587102,W,26.0,310.7,251210,,,A*48
$GPRMC,003919.5,A,3343.801584,N,11748.607106,W,27.2,310.5,251210,,,A*44
$GPRMC,003922.5,A,3343.816147,N,11748.628213,W,28.3,310.0,251210,,,A*40
$GPRMC,003925.5,A,3343.830941,N,11748.650482,W,29.5,309.5,251210,,,A*46
$GPRMC,003928.5,A,3343.848403,N,11748.674848,W,32.2,309.3,251210,,,A*48
$GPRMC,003931.5,A,3343.867221,N,11748.701988,W,35.4,309.7,251210,,,A*40
$GPRMC,003934.5,A,3343.886158,N,11748.730235,W,36.3,309.4,251210,,,A*4F
$GPRMC,003937.5,A,3343.904770,N,11748.758951,W,37.8,308.4,251210,,,A*47
$GPRMC,003940.5,A,3343.925565,N,11748.789464,W,38.6,309.1,251210,,,A*40
$GPRMC,003943.5,A,3343.945837,N,11748.819051,W,38.9,309.9,251210,,,A*4C
$GPRMC,003946.5,A,3343.966029,N,11748.847559,W,37.3,310.6,251210,,,A*4B
$GPRMC,003949.5,A,3343.986865,N,11748.875860,W,37.1,311.2,251210,,,A*4B
$GPRMC,003952.5,A,3344.008634,N,11748.904009,W,39.1,313.1,251210,,,A*4C
$GPRMC,003955.5,A,3344.031771,N,11748.933737,W,39.5,311.9,251210,,,A*41
$GPRMC,003958.5,A,3344.052565,N,11748.962186,W,37.9,311.2,251210,,,A*4F
$GPRMC,004001.5,A,3344.072897,N,11748.991335,W,38.6,308.9,251210,,,A*4A
$GPRMC,004004.5,A,3344.092507,N,11749.021967,W,39.7,306.7,251210,,,A*4B
