NMEA Sentence Code,UTC Time,Status,Latitude,Latitude Direction,Longitude,Longitude Direction,Speed (knots),Track Angle (degrees true),Date,MagneticVariation,Magnetic Variation Direction,[FAA Mode]-Optional,Checksum
$GPRMC,151600.000,A,3340.0601,N,11539.8740,W,51.34,264.83,180110,,*24
$GPRMC,151603.000,A,3340.0563,N,11539.9249,W,50.99,264.75,180110,,*22
$GPRMC,151606.000,A,3340.0524,N,11539.9758,W,51.18,264.83,180110,,*20
$GPRMC,151609.000,A,3340.0485,N,11540.0268,W,51.06,264.45,180110,,*21
$GPRMC,151612.000,A,3340.0447,N,11540.0773,W,50.73,264.90,180110,,*21
$GPRMC,151615.000,A,3340.0411,N,11540.1278,W,50.46,265.01,180110,,*25
$GPRMC,151618.000,A,3340.0374,N,11540.1778,W,50.14,264.66,180110,,*2E
$GPRMC,151621.000,A,3340.0337,N,11540.2273,W,49.55,264.89,180110,,*22
$GPRMC,151624.000,A,3340.0302,N,11540.2766,W,49.34,264.96,180110,,*29
$GPRMC,151627.000,A,3340.0266,N,11540.3257,W,49.27,264.90,180110,,*2B
$GPRMC,151630.000,A,3340.0231,N,11540.3745,W,48.84,264.87,180110,,*27
$GPRMC,151633.000,A,3340.0197,N,11540.4230,W,48.48,264.87,180110,,*2B
$GPRMC,151636.000,A,3340.0162,N,11540.4711,W,48.16,264.79,180110,,*28
$GPRMC,151639.000,A,3340.0126,N,11540.5188,W,47.94,264.97,180110,,*25
$GPRMC,151642.000,A,3340.0091,N,11540.5662,W,47.65,264.95,180110,,*2B
$GPRMC,151645.000,A,3340.0058,N,11540.6134,W,47.28,264.96,180110,,*24
$GPRMC,151648.000,A,3340.0024,N,11540.6599,W,46.61,264.86,180110,,*2C
$GPRMC,151651.000,A,3339.9990,N,11540.7063,W,47.15,265.15,180110,,*2D
$GPRMC,151654.000,A,3339.9954,N,11540.7529,W,47.48,264.85,180110,,*2B
$GPRMC,151657.000,A,3339.9918,N,11540.7997,W,47.64,264.81,180110,,*23
$GPRMC,151700.000,A,3339.9881,N,11540.8472,W,48.26,264.95,180110,,*24
$GPRMC,151703.000,A,3339.9843,N,11540.8950,W,48.59,264.64,180110,,*22
$GPRMC,151706.000,A,3339.9806,N,11540.9433,W,49.12,264.75,180110,,*21
$GPRMC,151709.000,A,3339.9768,N,11540.9920,W,49.01,264.22,180110,,*26
$GPRMC,151712.000,A,3339.9720,N,11541.0409,W,49.49,262.83,180110,,*2F
$GPRMC,151715.000,A,3339.9662,N,11541.0899,W,49.78,261.17,180110,,*26
$GPRMC,151718.000,A,3339.9593,N,11541.1389,W,50.26,260.08,180110,,*21
$GPRMC,151721.000,A,3339.9516,N,11541.1884,W,50.98,259.24,180110,,*21
$GPRMC,151724.000,A,3339.9434,N,11541.2385,W,51.89,259.13,180110,,*29
$GPRMC,151727.000,A,3339.9350,N,11541.2895,W,52.80,258.61,180110,,*2B
$GPRMC,151730.000,A,3339.9266,N,11541.3411,W,52.40,259.47,180110,,*21
$GPRMC,151733.000,A,3339.9187,N,11541.3914,W,50.68,259.21,180110,,*2E
$GPRMC,151736.000,A,3339.9107,N,11541.4411,W,51.03,258.76,180110,,*23
$GPRMC,151739.000,A,3339.9025,N,11541.4913,W,51.67,258.75,180110,,*23
$GPRMC,151742.000,A,3339.8941,N,11541.5421,W,52.21,259.03,180110,,*29
$GPRMC,151745.000,A,3339.8860,N,11541.5935,W,52.81,259.17,180110,,*2B
$GPRMC,151748.000,A,3339.8775,N,11541.6452,W,53.01,258.83,180110,,*27
$GPRMC,151751.000,A,3339.8691,N,11541.6971,W,52.99,259.05,180110,,*27
$GPRMC,151754.000,A,3339.8608,N,11541.7490,W,52.85,259.25,180110,,*2E
$GPRMC,151757.000,A,3339.8539,N,11541.8017,W,52.82,261.05,180110,,*26
$GPRMC,151800.000,A,3339.8471,N,11541.8541,W,52.81,259.83,180110,,*26
$GPRMC,151803.000,A,3339.8391,N,11541.9058,W,52.43,259.24,180110,,*23
$GPRMC,151806.000,A,3339.8306,N,11541.9567,W,51.99,258.67,180110,,*23
$GPRMC,151809.000,A,3339.8224,N,11542.0075,W,51.89,259.30,180110,,*23
$GPRMC,151812.000,A,3339.8142,N,11542.0582,W,51.82,259.14,180110,,*2A
$GPRMC,151815.000,A,3339.8058,N,11542.1090,W,51.97,258.73,180110,,*24
$GPRMC,151818.000,A,3339.7974,N,11542.1598,W,51.96,258.96,180110,,*26
$GPRMC,151821.000,A,3339.7892,N,11542.2108,W,52.07,259.28,180110,,*24
$GPRMC,151824.000,A,3339.7808,N,11542.2619,W,52.28,258.93,180110,,*29
$GPRMC,151827.000,A,3339.7726,N,11542.3133,W,52.32,259.52,180110,,*20
$GPRMC,151830.000,A,3339.7645,N,11542.3646,W,52.32,258.95,180110,,*2D
$GPRMC,151833.000,A,3339.7560,N,11542.4157,W,52.20,258.83,180110,,*2E
$GPRMC,151836.000,A,3339.7477,N,11542.4669,W,52.13,258.91,180110,,*25
$GPRMC,151839.000,A,3339.7394,N,11542.5179,W,51.91,259.13,180110,,*25
$GPRMC,151842.000,A,3339.7313,N,11542.5688,W,51.91,259.44,180110,,*2D
$GPRMC,151845.000,A,3339.7228,N,11542.6196,W,52.05,258.66,180110,,*27
$GPRMC,151848.000,A,3339.7143,N,11542.6706,W,52.14,258.67,180110,,*2A
$GPRMC,151851.000,A,3339.7059,N,11542.7218,W,52.25,259.20,180110,,*23
$GPRMC,151854.000,A,3339.6977,N,11542.7730,W,52.10,259.06,180110,,*2F
$GPRMC,151857.000,A,3339.6894,N,11542.8240,W,52.02,259.10,180110,,*29
$GPRMC,151900.000,A,3339.6811,N,11542.8750,W,51.93,258.92,180110,,*23
$GPRMC,151903.000,A,3339.6728,N,11542.9260,W,52.09,258.96,180110,,*26
$GPRMC,151906.000,A,3339.6645,N,11542.9770,W,52.03,258.92,180110,,*23
$GPRMC,151909.000,A,3339.6562,N,11543.0280,W,52.07,259.01,180110,,*27
$GPRMC,151912.000,A,3339.6479,N,11543.0789,W,51.71,258.95,180110,,*24
$GPRMC,151915.000,A,3339.6396,N,11543.1292,W,51.13,259.15,180110,,*26
$GPRMC,151918.000,A,3339.6321,N,11543.1794,W,50.92,260.55,180110,,*22
$GPRMC,151921.000,A,3339.6254,N,11543.2296,W,51.01,261.54,180110,,*24
$GPRMC,151924.000,A,3339.6197,N,11543.2801,W,51.12,263.41,180110,,*2D
$GPRMC,151927.000,A,3339.6154,N,11543.3309,W,51.22,264.62,180110,,*26
$GPRMC,151930.000,A,3339.6121,N,11543.3820,W,51.33,266.24,180110,,*22
$GPRMC,151933.000,A,3339.6100,N,11543.4332,W,51.00,267.59,180110,,*26
$GPRMC,151936.000,A,3339.6091,N,11543.4845,W,51.45,269.46,180110,,*20
$GPRMC,151939.000,A,3339.6093,N,11543.5357,W,51.29,270.22,180110,,*24
$GPRMC,151942.000,A,3339.6096,N,11543.5869,W,51.16,270.16,180110,,*20
$GPRMC,151945.000,A,3339.6099,N,11543.6380,W,51.22,270.18,180110,,*2E
$GPRMC,151948.000,A,3339.6102,N,11543.6891,W,51.15,270.35,180110,,*20
$GPRMC,151951.000,A,3339.6106,N,11543.7401,W,51.15,270.05,180110,,*2B
$GPRMC,151954.000,A,3339.6107,N,11543.7913,W,51.20,270.31,180110,,*20
$GPRMC,151957.000,A,3339.6111,N,11543.8424,W,51.17,269.98,180110,,*2D
$GPRMC,152000.000,A,3339.6113,N,11543.8936,W,51.18,270.22,180110,,*2F
$GPRMC,152003.000,A,3339.6116,N,11543.9448,W,51.19,270.18,180110,,*24
$GPRMC,152006.000,A,3339.6119,N,11543.9959,W,51.20,270.09,180110,,*29
$GPRMC,152009.000,A,3339.6121,N,11544.0471,W,51.11,270.14,180110,,*2A
$GPRMC,152012.000,A,3339.6125,N,11544.0982,W,51.17,270.29,180110,,*2D
$GPRMC,152015.000,A,3339.6127,N,11544.1494,W,51.16,270.19,180110,,*21
$GPRMC,152018.000,A,3339.6128,N,11544.2005,W,51.22,270.10,180110,,*22
$GPRMC,152021.000,A,3339.6130,N,11544.2516,W,51.18,270.18,180110,,*27
$GPRMC,152024.000,A,3339.6133,N,11544.3027,W,51.25,270.12,180110,,*23
$GPRMC,152027.000,A,3339.6134,N,11544.3540,W,51.32,270.03,180110,,*25
$GPRMC,152030.000,A,3339.6135,N,11544.4053,W,51.32,270.05,180110,,*24
$GPRMC,152033.000,A,3339.6137,N,11544.4565,W,51.24,270.35,180110,,*21
$GPRMC,152036.000,A,3339.6140,N,11544.5077,W,51.19,270.15,180110,,*2F
$GPRMC,152039.000,A,3339.6142,N,11544.5589,W,51.16,270.19,180110,,*25
$GPRMC,152042.000,A,3339.6147,N,11544.6102,W,51.20,270.30,180110,,*26
$GPRMC,152045.000,A,3339.6151,N,11544.6616,W,51.20,270.13,180110,,*25
$GPRMC,152048.000,A,3339.6153,N,11544.7128,W,51.21,270.05,180110,,*27
$GPRMC,152051.000,A,3339.6156,N,11544.7641,W,51.20,270.35,180110,,*20
$GPRMC,152054.000,A,3339.6160,N,11544.8153,W,51.20,270.17,180110,,*2B
$GPRMC,152057.000,A,3339.6162,N,11544.8666,W,51.21,270.02,180110,,*2E
$GPRMC,152100.000,A,3339.6163,N,11544.9178,W,51.14,269.97,180110,,*27
$GPRMC,152103.000,A,3339.6166,N,11544.9689,W,51.16,270.24,180110,,*2A
$GPRMC,152106.000,A,3339.6169,N,11545.0202,W,51.26,270.52,180110,,*2D
$GPRMC,152109.000,A,3339.6173,N,11545.0715,W,51.32,270.21,180110,,*2B
$GPRMC,152112.000,A,3339.6174,N,11545.1227,W,51.22,269.91,180110,,*21
$GPRMC,152115.000,A,3339.6175,N,11545.1739,W,51.13,270.00,180110,,*2F
$GPRMC,152118.000,A,3339.6177,N,11545.2251,W,51.16,270.15,180110,,*29
$GPRMC,152121.000,A,3339.6180,N,11545.2763,W,51.21,270.09,180110,,*26
$GPRMC,152124.000,A,3339.6181,N,11545.3275,W,51.19,269.98,180110,,*2A
$GPRMC,152127.000,A,3339.6181,N,11545.3786,W,51.19,270.00,180110,,*29
$GPRMC,152130.000,A,3339.6184,N,11545.4297,W,51.19,270.24,180110,,*2E
$GPRMC,152133.000,A,3339.6183,N,11545.4808,W,51.25,269.63,180110,,*22
$GPRMC,152136.000,A,3339.6187,N,11545.5319,W,51.23,270.47,180110,,*21
$GPRMC,152139.000,A,3339.6189,N,11545.5830,W,51.22,270.18,180110,,*2B
$GPRMC,152142.000,A,3339.6191,N,11545.6341,W,51.17,270.15,180110,,*2B
$GPRMC,152145.000,A,3339.6194,N,11545.6852,W,51.20,270.29,180110,,*2B
$GPRMC,152148.000,A,3339.6196,N,11545.7364,W,51.23,270.18,180110,,*2A
$GPRMC,152151.000,A,3339.6198,N,11545.7875,W,51.22,270.12,180110,,*2C
$GPRMC,152154.000,A,3339.6199,N,11545.8386,W,51.18,270.09,180110,,*23
$GPRMC,152157.000,A,3339.6201,N,11545.8898,W,51.18,270.04,180110,,*2B
$GPRMC,152200.000,A,3339.6202,N,11545.9409,W,51.21,270.05,180110,,*27
$GPRMC,152203.000,A,3339.6203,N,11545.9920,W,51.21,270.21,180110,,*25
$GPRMC,152207.000,A,3339.6205,N,11546.0602,W,51.21,270.06,180110,,*27
$GPRMC,152210.000,A,3339.6206,N,11546.1113,W,51.22,270.00,180110,,*21
$GPRMC,152213.000,A,3339.6206,N,11546.1625,W,51.18,270.13,180110,,*2B
$GPRMC,152216.000,A,3339.6207,N,11546.2136,W,51.25,269.83,180110,,*26
$GPRMC,152219.000,A,3339.6209,N,11546.2648,W,51.22,270.34,180110,,*2A
$GPRMC,152222.000,A,3339.6212,N,11546.3160,W,51.20,270.33,180110,,*21
$GPRMC,152225.000,A,3339.6213,N,11546.3671,W,51.20,269.99,180110,,*28
$GPRMC,152228.000,A,3339.6214,N,11546.4183,W,51.21,270.00,180110,,*26
$GPRMC,152231.000,A,3339.6215,N,11546.4695,W,51.26,270.02,180110,,*2A
$GPRMC,152234.000,A,3339.6217,N,11546.5207,W,51.26,270.17,180110,,*27
$GPRMC,152237.000,A,3339.6218,N,11546.5719,W,51.19,270.24,180110,,*2D
$GPRMC,152240.000,A,3339.6220,N,11546.6230,W,51.13,269.91,180110,,*27
$GPRMC,152243.000,A,3339.6221,N,11546.6740,W,51.12,270.27,180110,,*23
$GPRMC,152246.000,A,3339.6224,N,11546.7251,W,51.15,270.30,180110,,*26
$GPRMC,152249.000,A,3339.6225,N,11546.7763,W,51.27,270.06,180110,,*28
$GPRMC,152252.000,A,3339.6226,N,11546.8276,W,51.29,270.03,180110,,*24
$GPRMC,152255.000,A,3339.6228,N,11546.8787,W,51.15,270.08,180110,,*22
$GPRMC,152258.000,A,3339.6228,N,11546.9298,W,51.15,270.16,180110,,*2A
$GPRMC,152300.000,A,3339.6229,N,11546.9639,W,51.24,270.15,180110,,*29
$GPRMC,152303.000,A,3339.6231,N,11547.0152,W,51.30,270.15,180110,,*24
$GPRMC,152306.000,A,3339.6232,N,11547.0663,W,51.07,269.89,180110,,*2E
$GPRMC,152309.000,A,3339.6232,N,11547.1173,W,51.09,270.14,180110,,*24
$GPRMC,152312.000,A,3339.6234,N,11547.1684,W,51.23,270.29,180110,,*21
$GPRMC,152315.000,A,3339.6236,N,11547.2196,W,51.23,270.14,180110,,*2D
$GPRMC,152318.000,A,3339.6238,N,11547.2707,W,51.12,270.35,180110,,*21
$GPRMC,152321.000,A,3339.6240,N,11547.3217,W,51.09,270.14,180110,,*28
$GPRMC,152324.000,A,3339.6240,N,11547.3728,W,51.06,269.97,180110,,*28
$GPRMC,152327.000,A,3339.6241,N,11547.4238,W,51.02,270.19,180110,,*23
$GPRMC,152330.000,A,3339.6243,N,11547.4748,W,50.99,270.16,180110,,*29
$GPRMC,152333.000,A,3339.6244,N,11547.5257,W,51.04,270.00,180110,,*25
$GPRMC,152336.000,A,3339.6244,N,11547.5767,W,51.08,270.22,180110,,*2A
$GPRMC,152339.000,A,3339.6246,N,11547.6278,W,51.12,270.28,180110,,*2E
$GPRMC,152342.000,A,3339.6248,N,11547.6789,W,51.12,270.15,180110,,*29
$GPRMC,152345.000,A,3339.6250,N,11547.7300,W,51.16,270.26,180110,,*27
$GPRMC,152348.000,A,3339.6251,N,11547.7811,W,51.16,270.17,180110,,*22
$GPRMC,152351.000,A,3339.6253,N,11547.8322,W,51.15,270.27,180110,,*2C
$GPRMC,152354.000,A,3339.6254,N,11547.8833,W,51.11,270.03,180110,,*27
$GPRMC,152357.000,A,3339.6255,N,11547.9343,W,51.00,270.17,180110,,*2D
$GPRMC,152400.000,A,3339.6255,N,11547.9853,W,50.98,270.08,180110,,*2C
$GPRMC,152403.000,A,3339.6257,N,11548.0363,W,51.24,270.10,180110,,*2C
$GPRMC,152406.000,A,3339.6258,N,11548.0878,W,51.83,270.07,180110,,*2C
$GPRMC,152409.000,A,3339.6260,N,11548.1397,W,52.19,270.12,180110,,*27
$GPRMC,152412.000,A,3339.6262,N,11548.1909,W,50.83,270.24,180110,,*26
$GPRMC,152415.000,A,3339.6263,N,11548.2416,W,50.86,270.15,180110,,*27
$GPRMC,152418.000,A,3339.6264,N,11548.2925,W,51.06,269.98,180110,,*24
$GPRMC,152421.000,A,3339.6264,N,11548.3436,W,51.22,270.20,180110,,*2D
$GPRMC,152424.000,A,3339.6265,N,11548.3947,W,51.26,270.22,180110,,*24
$GPRMC,152427.000,A,3339.6268,N,11548.4460,W,51.28,270.15,180110,,*2F
$GPRMC,152430.000,A,3339.6269,N,11548.4972,W,51.29,270.14,180110,,*26
$GPRMC,152433.000,A,3339.6271,N,11548.5483,W,51.22,270.52,180110,,*27
$GPRMC,152436.000,A,3339.6276,N,11548.5995,W,51.13,270.84,180110,,*26
$GPRMC,152439.000,A,3339.6290,N,11548.6504,W,51.13,272.65,180110,,*2B
$GPRMC,152442.000,A,3339.6318,N,11548.7013,W,51.24,274.23,180110,,*24
$GPRMC,152445.000,A,3339.6352,N,11548.7522,W,51.26,274.61,180110,,*2E
$GPRMC,152448.000,A,3339.6388,N,11548.8032,W,51.28,274.61,180110,,*21
$GPRMC,152451.000,A,3339.6422,N,11548.8541,W,51.28,274.34,180110,,*2F
$GPRMC,152454.000,A,3339.6455,N,11548.9051,W,51.34,274.45,180110,,*24
$GPRMC,152457.000,A,3339.6490,N,11548.9561,W,51.28,274.59,180110,,*28
$GPRMC,152500.000,A,3339.6524,N,11549.0070,W,51.14,274.25,180110,,*2C
$GPRMC,152503.000,A,3339.6557,N,11549.0579,W,51.11,274.66,180110,,*25
$GPRMC,152506.000,A,3339.6593,N,11549.1089,W,51.26,274.57,180110,,*25
$GPRMC,152509.000,A,3339.6628,N,11549.1599,W,51.27,274.51,180110,,*2A
$GPRMC,152512.000,A,3339.6662,N,11549.2108,W,51.23,274.52,180110,,*26
$GPRMC,152515.000,A,3339.6695,N,11549.2617,W,51.17,274.48,180110,,*2C
$GPRMC,152518.000,A,3339.6729,N,11549.3126,W,51.18,274.52,180110,,*27
$GPRMC,152521.000,A,3339.6763,N,11549.3635,W,51.22,274.62,180110,,*2C
$GPRMC,152524.000,A,3339.6797,N,11549.4145,W,51.32,274.43,180110,,*27
$GPRMC,152527.000,A,3339.6831,N,11549.4656,W,51.27,274.66,180110,,*21
$GPRMC,152530.000,A,3339.6866,N,11549.5165,W,51.17,274.64,180110,,*22
$GPRMC,152533.000,A,3339.6900,N,11549.5674,W,51.21,274.44,180110,,*20
$GPRMC,152536.000,A,3339.6934,N,11549.6184,W,51.26,274.57,180110,,*2C
$GPRMC,152539.000,A,3339.6968,N,11549.6695,W,51.29,274.45,180110,,*21
$GPRMC,152542.000,A,3339.7002,N,11549.7205,W,51.22,274.50,180110,,*2A
$GPRMC,152545.000,A,3339.7036,N,11549.7715,W,51.25,274.40,180110,,*28
$GPRMC,152548.000,A,3339.7069,N,11549.8226,W,51.23,274.74,180110,,*24
$GPRMC,152551.000,A,3339.7103,N,11549.8738,W,51.27,274.57,180110,,*2E
$GPRMC,152554.000,A,3339.7137,N,11549.9247,W,51.18,274.54,180110,,*2F
$GPRMC,152557.000,A,3339.7171,N,11549.9756,W,51.23,274.48,180110,,*2E
$GPRMC,152600.000,A,3339.7204,N,11550.0267,W,51.25,274.26,180110,,*26
$GPRMC,152603.000,A,3339.7237,N,11550.0777,W,51.22,274.50,180110,,*27
$GPRMC,152606.000,A,3339.7271,N,11550.1287,W,51.23,274.28,180110,,*25
$GPRMC,152609.000,A,3339.7303,N,11550.1797,W,51.15,274.39,180110,,*2F
$GPRMC,152612.000,A,3339.7337,N,11550.2307,W,51.21,274.64,180110,,*23
$GPRMC,152615.000,A,3339.7370,N,11550.2818,W,51.22,274.52,180110,,*24
$GPRMC,152618.000,A,3339.7405,N,11550.3329,W,51.27,274.65,180110,,*25
$GPRMC,152621.000,A,3339.7438,N,11550.3840,W,51.30,274.30,180110,,*23
$GPRMC,152624.000,A,3339.7471,N,11550.4352,W,51.25,274.71,180110,,*25
$GPRMC,152627.000,A,3339.7505,N,11550.4862,W,51.05,274.55,180110,,*28
$GPRMC,152630.000,A,3339.7539,N,11550.5370,W,50.92,274.47,180110,,*24
$GPRMC,152633.000,A,3339.7572,N,11550.5878,W,51.06,274.46,180110,,*26
$GPRMC,152636.000,A,3339.7606,N,11550.6388,W,51.24,274.61,180110,,*21
$GPRMC,152639.000,A,3339.7641,N,11550.6899,W,51.27,274.60,180110,,*24
$GPRMC,152642.000,A,3339.7675,N,11550.7409,W,51.17,274.55,180110,,*2E
$GPRMC,152645.000,A,3339.7709,N,11550.7919,W,51.21,274.41,180110,,*2F
$GPRMC,152648.000,A,3339.7742,N,11550.8430,W,51.18,274.66,180110,,*2B
$GPRMC,152651.000,A,3339.7776,N,11550.8940,W,51.20,274.27,180110,,*20
$GPRMC,152654.000,A,3339.7809,N,11550.9449,W,51.19,274.69,180110,,*27
$GPRMC,152657.000,A,3339.7845,N,11550.9959,W,51.20,274.75,180110,,*27
$GPRMC,152700.000,A,3339.7879,N,11551.0469,W,51.22,274.48,180110,,*21
$GPRMC,152703.000,A,3339.7912,N,11551.0979,W,51.20,274.70,180110,,*2B
$GPRMC,152706.000,A,3339.7946,N,11551.1489,W,51.18,274.47,180110,,*23
$GPRMC,152709.000,A,3339.7980,N,11551.1998,W,51.08,274.68,180110,,*27
$GPRMC,152712.000,A,3339.8014,N,11551.2506,W,50.92,274.65,180110,,*21
$GPRMC,152715.000,A,3339.8048,N,11551.3013,W,50.93,274.73,180110,,*29
$GPRMC,152718.000,A,3339.8082,N,11551.3520,W,50.97,274.41,180110,,*22
$GPRMC,152721.000,A,3339.8114,N,11551.4028,W,51.05,274.21,180110,,*20
$GPRMC,152724.000,A,3339.8147,N,11551.4537,W,51.15,274.57,180110,,*28
$GPRMC,152727.000,A,3339.8181,N,11551.5047,W,51.28,274.46,180110,,*2C
$GPRMC,152730.000,A,3339.8215,N,11551.5559,W,51.48,274.63,180110,,*2F
$GPRMC,152733.000,A,3339.8249,N,11551.6072,W,51.40,274.48,180110,,*2B
$GPRMC,152736.000,A,3339.8283,N,11551.6583,W,51.25,274.44,180110,,*2C
$GPRMC,152739.000,A,3339.8316,N,11551.7093,W,51.24,274.33,180110,,*2A
$GPRMC,152742.000,A,3339.8349,N,11551.7603,W,51.19,274.59,180110,,*21
$GPRMC,152745.000,A,3339.8383,N,11551.8113,W,51.15,274.56,180110,,*2A
$GPRMC,152748.000,A,3339.8417,N,11551.8622,W,51.09,274.47,180110,,*25
$GPRMC,152751.000,A,3339.8449,N,11551.9130,W,51.01,274.53,180110,,*2E
$GPRMC,152754.000,A,3339.8484,N,11551.9638,W,50.96,274.63,180110,,*29
$GPRMC,152757.000,A,3339.8518,N,11552.0146,W,51.01,274.65,180110,,*23
$GPRMC,152800.000,A,3339.8551,N,11552.0655,W,51.14,274.48,180110,,*2D
$GPRMC,152803.000,A,3339.8585,N,11552.1165,W,51.26,274.45,180110,,*2E
$GPRMC,152806.000,A,3339.8618,N,11552.1676,W,51.44,274.43,180110,,*2B
$GPRMC,152809.000,A,3339.8653,N,11552.2190,W,51.68,274.51,180110,,*2A
$GPRMC,152812.000,A,3339.8686,N,11552.2704,W,51.45,274.55,180110,,*28
$GPRMC,152815.000,A,3339.8720,N,11552.3214,W,51.07,274.39,180110,,*2B
$GPRMC,152818.000,A,3339.8752,N,11552.3723,W,51.02,274.20,180110,,*2F
$GPRMC,152821.000,A,3339.8786,N,11552.4232,W,51.21,274.71,180110,,*2B
$GPRMC,152824.000,A,3339.8822,N,11552.4743,W,51.34,274.80,180110,,*26
$GPRMC,152827.000,A,3339.8855,N,11552.5253,W,51.11,274.36,180110,,*2A
$GPRMC,152830.000,A,3339.8889,N,11552.5761,W,50.95,274.48,180110,,*2D
$GPRMC,152833.000,A,3339.8922,N,11552.6268,W,50.98,274.28,180110,,*2A
$GPRMC,152836.000,A,3339.8955,N,11552.6777,W,51.19,274.52,180110,,*21
$GPRMC,152839.000,A,3339.8989,N,11552.7288,W,51.25,274.68,180110,,*2D
$GPRMC,152842.000,A,3339.9023,N,11552.7797,W,51.13,274.34,180110,,*2E
$GPRMC,152845.000,A,3339.9056,N,11552.8307,W,51.11,274.58,180110,,*21
$GPRMC,152848.000,A,3339.9090,N,11552.8816,W,51.15,274.55,180110,,*24
$GPRMC,152851.000,A,3339.9124,N,11552.9326,W,51.25,274.49,180110,,*25
$GPRMC,152854.000,A,3339.9158,N,11552.9837,W,51.24,274.54,180110,,*2D
$GPRMC,152857.000,A,3339.9192,N,11553.0347,W,51.22,274.42,180110,,*2D
$GPRMC,152900.000,A,3339.9226,N,11553.0857,W,51.15,274.82,180110,,*20
$GPRMC,152903.000,A,3339.9260,N,11553.1365,W,50.85,274.50,180110,,*2D
$GPRMC,152906.000,A,3339.9294,N,11553.1871,W,50.77,274.74,180110,,*26
$GPRMC,152909.000,A,3339.9332,N,11553.2377,W,50.94,275.47,180110,,*26
$GPRMC,152912.000,A,3339.9381,N,11553.2883,W,51.08,277.40,180110,,*25
$GPRMC,152915.000,A,3339.9441,N,11553.3389,W,51.06,278.70,180110,,*2B
$GPRMC,152918.000,A,3339.9515,N,11553.3892,W,51.17,280.78,180110,,*28
$GPRMC,152921.000,A,3339.9598,N,11553.4393,W,51.16,281.43,180110,,*22
$GPRMC,152924.000,A,3339.9686,N,11553.4893,W,51.12,281.74,180110,,*20
$GPRMC,152927.000,A,3339.9774,N,11553.5391,W,51.10,281.74,180110,,*25
$GPRMC,152930.000,A,3339.9861,N,11553.5891,W,51.11,281.76,180110,,*20
$GPRMC,152933.000,A,3339.9948,N,11553.6390,W,51.10,281.63,180110,,*25
$GPRMC,152936.000,A,3340.0035,N,11553.6890,W,51.09,281.66,180110,,*22
$GPRMC,152939.000,A,3340.0122,N,11553.7389,W,51.03,281.81,180110,,*2B
$GPRMC,152942.000,A,3340.0208,N,11553.7887,W,50.98,281.57,180110,,*21
$GPRMC,152945.000,A,3340.0294,N,11553.8386,W,51.01,281.55,180110,,*25
$GPRMC,152948.000,A,3340.0380,N,11553.8885,W,51.04,281.64,180110,,*23
$GPRMC,152951.000,A,3340.0466,N,11553.9385,W,51.02,281.53,180110,,*2C
$GPRMC,152954.000,A,3340.0553,N,11553.9885,W,51.10,281.82,180110,,*2A
$GPRMC,152957.000,A,3340.0639,N,11554.0384,W,51.06,281.67,180110,,*2E
$GPRMC,153000.000,A,3340.0725,N,11554.0884,W,51.11,281.60,180110,,*22
$GPRMC,153003.000,A,3340.0811,N,11554.1383,W,51.11,281.66,180110,,*22
$GPRMC,153006.000,A,3340.0897,N,11554.1885,W,51.45,281.43,180110,,*22
$GPRMC,153009.000,A,3340.0982,N,11554.2392,W,51.82,281.36,180110,,*2F
$GPRMC,153012.000,A,3340.1069,N,11554.2898,W,51.44,281.58,180110,,*2B
$GPRMC,153015.000,A,3340.1156,N,11554.3399,W,50.94,281.56,180110,,*28
$GPRMC,153018.000,A,3340.1241,N,11554.3898,W,50.91,281.52,180110,,*2B
$GPRMC,153021.000,A,3340.1327,N,11554.4398,W,51.19,281.58,180110,,*27
$GPRMC,153024.000,A,3340.1412,N,11554.4899,W,51.14,281.55,180110,,*29
$GPRMC,153027.000,A,3340.1498,N,11554.5400,W,51.09,281.57,180110,,*2B
$GPRMC,153030.000,A,3340.1586,N,11554.5901,W,51.28,281.72,180110,,*2B
$GPRMC,153033.000,A,3340.1672,N,11554.6403,W,51.19,281.50,180110,,*2E
$GPRMC,153036.000,A,3340.1759,N,11554.6905,W,51.12,281.62,180110,,*22
$GPRMC,153039.000,A,3340.1848,N,11554.7406,W,51.16,281.75,180110,,*2F
$GPRMC,153042.000,A,3340.1935,N,11554.7908,W,51.24,281.67,180110,,*29
$GPRMC,153045.000,A,3340.2024,N,11554.8410,W,51.26,282.10,180110,,*2E
$GPRMC,153048.000,A,3340.2109,N,11554.8913,W,51.17,281.20,180110,,*21
$GPRMC,153051.000,A,3340.2195,N,11554.9413,W,51.12,281.72,180110,,*22
$GPRMC,153054.000,A,3340.2282,N,11554.9914,W,51.22,282.14,180110,,*28
$GPRMC,153057.000,A,3340.2369,N,11555.0413,W,50.83,281.76,180110,,*20
$GPRMC,153100.000,A,3340.2455,N,11555.0907,W,50.37,281.88,180110,,*2D
$GPRMC,153103.000,A,3340.2542,N,11555.1399,W,50.48,282.36,180110,,*2B
$GPRMC,153106.000,A,3340.2629,N,11555.1895,W,51.06,281.33,180110,,*2A
$GPRMC,153109.000,A,3340.2711,N,11555.2396,W,51.11,281.36,180110,,*27
$GPRMC,153112.000,A,3340.2796,N,11555.2897,W,51.11,281.52,180110,,*2A
$GPRMC,153115.000,A,3340.2882,N,11555.3396,W,51.07,281.92,180110,,*27
$GPRMC,153118.000,A,3340.2968,N,11555.3897,W,51.15,281.48,180110,,*21
$GPRMC,153121.000,A,3340.3053,N,11555.4397,W,51.09,281.58,180110,,*2B
$GPRMC,153124.000,A,3340.3140,N,11555.4896,W,50.93,281.74,180110,,*2B
$GPRMC,153127.000,A,3340.3225,N,11555.5397,W,51.05,281.27,180110,,*2B
$GPRMC,153130.000,A,3340.3311,N,11555.5897,W,51.12,281.72,180110,,*26
$GPRMC,153133.000,A,3340.3397,N,11555.6398,W,51.07,282.03,180110,,*2D
$GPRMC,153136.000,A,3340.3484,N,11555.6898,W,51.02,281.45,180110,,*22
$GPRMC,153139.000,A,3340.3569,N,11555.7396,W,51.07,281.71,180110,,*29
$GPRMC,153142.000,A,3340.3656,N,11555.7896,W,51.16,281.75,180110,,*25
$GPRMC,153145.000,A,3340.3742,N,11555.8396,W,50.91,281.67,180110,,*2F
$GPRMC,153148.000,A,3340.3826,N,11555.8890,W,50.22,281.48,180110,,*27
$GPRMC,153151.000,A,3340.3909,N,11555.9380,W,49.91,281.51,180110,,*20
$GPRMC,153154.000,A,3340.3992,N,11555.9868,W,49.80,281.68,180110,,*20
$GPRMC,153157.000,A,3340.4077,N,11556.0355,W,49.62,281.54,180110,,*2A
$GPRMC,153200.000,A,3340.4160,N,11556.0838,W,49.30,281.71,180110,,*2C
$GPRMC,153203.000,A,3340.4243,N,11556.1319,W,49.16,281.88,180110,,*26
$GPRMC,153206.000,A,3340.4326,N,11556.1799,W,48.95,281.38,180110,,*2C
$GPRMC,153209.000,A,3340.4407,N,11556.2277,W,48.69,281.72,180110,,*2C
$GPRMC,153212.000,A,3340.4490,N,11556.2752,W,48.37,281.65,180110,,*27
$GPRMC,153215.000,A,3340.4569,N,11556.3223,W,48.07,281.55,180110,,*25
$GPRMC,153218.000,A,3340.4650,N,11556.3693,W,48.03,281.66,180110,,*2A
$GPRMC,153221.000,A,3340.4731,N,11556.4162,W,47.82,282.02,180110,,*2F
$GPRMC,153224.000,A,3340.4811,N,11556.4628,W,47.54,281.27,180110,,*21
$GPRMC,153227.000,A,3340.4888,N,11556.5093,W,47.37,281.35,180110,,*23
$GPRMC,153230.000,A,3340.4968,N,11556.5556,W,47.27,281.62,180110,,*25
$GPRMC,153233.000,A,3340.5047,N,11556.6015,W,46.24,281.73,180110,,*20
$GPRMC,153236.000,A,3340.5124,N,11556.6468,W,46.44,281.52,180110,,*2A
$GPRMC,153239.000,A,3340.5204,N,11556.6929,W,47.77,281.45,180110,,*2B
$GPRMC,153242.000,A,3340.5282,N,11556.7404,W,49.04,281.06,180110,,*27
$GPRMC,153245.000,A,3340.5363,N,11556.7891,W,50.18,281.63,180110,,*28
$GPRMC,153248.000,A,3340.5453,N,11556.8388,W,50.96,281.92,180110,,*25
$GPRMC,153251.000,A,3340.5543,N,11556.8893,W,51.27,281.40,180110,,*28
$GPRMC,153254.000,A,3340.5628,N,11556.9389,W,49.86,281.57,180110,,*26
$GPRMC,153257.000,A,3340.5713,N,11556.9878,W,49.99,281.44,180110,,*25
$GPRMC,153300.000,A,3340.5797,N,11557.0370,W,50.23,281.53,180110,,*2E
$GPRMC,153303.000,A,3340.5882,N,11557.0863,W,50.33,281.63,180110,,*2D
$GPRMC,153306.000,A,3340.5970,N,11557.1358,W,50.72,281.92,180110,,*2D
$GPRMC,153309.000,A,3340.6057,N,11557.1856,W,50.96,281.88,180110,,*29
$GPRMC,153312.000,A,3340.6144,N,11557.2357,W,51.16,281.90,180110,,*29
$GPRMC,153315.000,A,3340.6231,N,11557.2858,W,51.28,281.62,180110,,*2B
$GPRMC,153318.000,A,3340.6316,N,11557.3362,W,51.25,281.22,180110,,*28
$GPRMC,153321.000,A,3340.6401,N,11557.3863,W,51.10,281.34,180110,,*28
$GPRMC,153324.000,A,3340.6485,N,11557.4365,W,51.08,281.67,180110,,*24
$GPRMC,153327.000,A,3340.6571,N,11557.4864,W,51.07,281.50,180110,,*2C
$GPRMC,153330.000,A,3340.6656,N,11557.5364,W,51.09,281.63,180110,,*28
$GPRMC,153333.000,A,3340.6741,N,11557.5864,W,51.15,281.54,180110,,*2E
$GPRMC,153336.000,A,3340.6828,N,11557.6364,W,51.03,281.43,180110,,*22
$GPRMC,153339.000,A,3340.6915,N,11557.6865,W,51.31,281.74,180110,,*2D
$GPRMC,153342.000,A,3340.7000,N,11557.7368,W,51.46,281.47,180110,,*2A
$GPRMC,153345.000,A,3340.7085,N,11557.7871,W,51.26,281.22,180110,,*26
$GPRMC,153348.000,A,3340.7169,N,11557.8372,W,51.08,281.26,180110,,*27
$GPRMC,153351.000,A,3340.7253,N,11557.8872,W,50.99,281.67,180110,,*22
$GPRMC,153354.000,A,3340.7339,N,11557.9372,W,51.08,281.79,180110,,*26
$GPRMC,153357.000,A,3340.7428,N,11557.9872,W,51.10,281.87,180110,,*21
$GPRMC,153400.000,A,3340.7513,N,11558.0372,W,51.07,281.62,180110,,*2D
$GPRMC,153403.000,A,3340.7601,N,11558.0872,W,51.05,281.69,180110,,*2C
$GPRMC,153406.000,A,3340.7688,N,11558.1372,W,51.19,281.66,180110,,*20
$GPRMC,153409.000,A,3340.7772,N,11558.1873,W,51.13,281.52,180110,,*2C
$GPRMC,153412.000,A,3340.7857,N,11558.2373,W,51.07,281.71,180110,,*22
$GPRMC,153415.000,A,3340.7945,N,11558.2873,W,51.02,281.62,180110,,*2B
$GPRMC,153418.000,A,3340.8030,N,11558.3374,W,51.23,281.38,180110,,*23
$GPRMC,153421.000,A,3340.8112,N,11558.3876,W,51.35,280.82,180110,,*26
$GPRMC,153424.000,A,3340.8184,N,11558.4383,W,51.40,278.07,180110,,*22
$GPRMC,153427.000,A,3340.8234,N,11558.4893,W,51.27,275.61,180110,,*2F
$GPRMC,153430.000,A,3340.8262,N,11558.5404,W,51.29,272.30,180110,,*24
$GPRMC,153433.000,A,3340.8266,N,11558.5916,W,51.17,269.49,180110,,*24
$GPRMC,153436.000,A,3340.8250,N,11558.6424,W,50.69,267.09,180110,,*29
$GPRMC,153439.000,A,3340.8225,N,11558.6927,W,50.73,266.66,180110,,*29
$GPRMC,153442.000,A,3340.8200,N,11558.7434,W,51.06,266.69,180110,,*20
$GPRMC,153445.000,A,3340.8174,N,11558.7945,W,51.32,266.62,180110,,*20
$GPRMC,153448.000,A,3340.8149,N,11558.8457,W,51.54,266.84,180110,,*2A
$GPRMC,153451.000,A,3340.8125,N,11558.8971,W,51.59,266.80,180110,,*28
$GPRMC,153454.000,A,3340.8098,N,11558.9485,W,51.63,266.76,180110,,*2D
$GPRMC,153457.000,A,3340.8072,N,11558.9998,W,51.27,266.62,180110,,*2E
$GPRMC,153500.000,A,3340.8045,N,11559.0510,W,51.30,266.41,180110,,*2A
$GPRMC,153503.000,A,3340.8019,N,11559.1022,W,51.51,266.88,180110,,*27
$GPRMC,153506.000,A,3340.7993,N,11559.1535,W,51.58,266.44,180110,,*2C
$GPRMC,153509.000,A,3340.7968,N,11559.2049,W,51.42,267.01,180110,,*21
$GPRMC,153512.000,A,3340.7944,N,11559.2563,W,51.59,266.89,180110,,*23
$GPRMC,153515.000,A,3340.7918,N,11559.3080,W,51.77,266.71,180110,,*2F
$GPRMC,153518.000,A,3340.7893,N,11559.3597,W,52.05,266.54,180110,,*22
$GPRMC,153521.000,A,3340.7867,N,11559.4120,W,52.87,266.62,180110,,*23
$GPRMC,153524.000,A,3340.7842,N,11559.4651,W,53.85,266.94,180110,,*2A
$GPRMC,153527.000,A,3340.7817,N,11559.5192,W,54.64,266.54,180110,,*24
$GPRMC,153530.000,A,3340.7790,N,11559.5740,W,55.33,266.67,180110,,*28
$GPRMC,153533.000,A,3340.7767,N,11559.6296,W,56.12,267.23,180110,,*2F
$GPRMC,153536.000,A,3340.7759,N,11559.6861,W,56.91,271.14,180110,,*2D
$GPRMC,153539.000,A,3340.7795,N,11559.7432,W,57.68,277.28,180110,,*27
$GPRMC,153542.000,A,3340.7883,N,11559.8003,W,58.51,283.05,180110,,*2B
$GPRMC,153545.000,A,3340.8007,N,11559.8576,W,59.27,285.00,180110,,*23
$GPRMC,153548.000,A,3340.8139,N,11559.9151,W,59.98,284.99,180110,,*27
$GPRMC,153551.000,A,3340.8272,N,11559.9734,W,60.73,284.99,180110,,*29
$GPRMC,153554.000,A,3340.8404,N,11600.0320,W,60.63,284.74,180110,,*2E
$GPRMC,153557.000,A,3340.8533,N,11600.0902,W,59.93,284.68,180110,,*2A
$GPRMC,153600.000,A,3340.8662,N,11600.1478,W,59.49,284.95,180110,,*28
$GPRMC,153603.000,A,3340.8788,N,11600.2050,W,58.82,284.59,180110,,*25
$GPRMC,153606.000,A,3340.8913,N,11600.2615,W,58.12,284.82,180110,,*24
$GPRMC,153609.000,A,3340.9037,N,11600.3173,W,57.49,284.83,180110,,*23
$GPRMC,153612.000,A,3340.9160,N,11600.3724,W,56.69,284.72,180110,,*23
$GPRMC,153615.000,A,3340.9280,N,11600.4268,W,55.95,285.05,180110,,*22
$GPRMC,153618.000,A,3340.9399,N,11600.4801,W,54.50,284.98,180110,,*2E
$GPRMC,153621.000,A,3340.9515,N,11600.5320,W,53.38,284.95,180110,,*2B
$GPRMC,153624.000,A,3340.9628,N,11600.5833,W,52.99,284.64,180110,,*2E
$GPRMC,153627.000,A,3340.9740,N,11600.6344,W,52.80,284.56,180110,,*23
$GPRMC,153630.000,A,3340.9853,N,11600.6854,W,52.99,284.93,180110,,*23
$GPRMC,153633.000,A,3340.9966,N,11600.7366,W,53.09,284.82,180110,,*24
$GPRMC,153636.000,A,3341.0079,N,11600.7879,W,53.14,284.81,180110,,*24
$GPRMC,153639.000,A,3341.0192,N,11600.8393,W,53.31,284.53,180110,,*27
$GPRMC,153642.000,A,3341.0306,N,11600.8908,W,53.28,284.78,180110,,*2D
$GPRMC,153645.000,A,3341.0418,N,11600.9423,W,53.42,284.74,180110,,*27
$GPRMC,153648.000,A,3341.0532,N,11600.9936,W,52.72,284.73,180110,,*2F
$GPRMC,153651.000,A,3341.0646,N,11601.0445,W,52.31,284.85,180110,,*28
$GPRMC,153654.000,A,3341.0758,N,11601.0948,W,51.58,284.74,180110,,*21
$GPRMC,153657.000,A,3341.0867,N,11601.1445,W,51.29,284.71,180110,,*23
$GPRMC,153700.000,A,3341.0977,N,11601.1941,W,51.42,284.73,180110,,*26
$GPRMC,153703.000,A,3341.1087,N,11601.2439,W,51.56,284.88,180110,,*22
$GPRMC,153706.000,A,3341.1197,N,11601.2937,W,51.59,284.65,180110,,*28
$GPRMC,153709.000,A,3341.1305,N,11601.3437,W,51.73,284.67,180110,,*28
$GPRMC,153712.000,A,3341.1416,N,11601.3940,W,52.40,284.56,180110,,*2B
$GPRMC,153715.000,A,3341.1530,N,11601.4452,W,53.54,285.04,180110,,*22
$GPRMC,153718.000,A,3341.1650,N,11601.4975,W,54.88,285.64,180110,,*22
$GPRMC,153721.000,A,3341.1780,N,11601.5507,W,55.87,286.79,180110,,*2D
$GPRMC,153724.000,A,3341.1920,N,11601.6044,W,56.53,287.21,180110,,*2B
$GPRMC,153727.000,A,3341.2057,N,11601.6586,W,56.70,286.92,180110,,*21
$GPRMC,153730.000,A,3341.2196,N,11601.7123,W,55.74,287.30,180110,,*2F
$GPRMC,153733.000,A,3341.2331,N,11601.7648,W,54.06,287.13,180110,,*2C
$GPRMC,153736.000,A,3341.2462,N,11601.8155,W,52.42,287.03,180110,,*2B
$GPRMC,153739.000,A,3341.2588,N,11601.8648,W,50.80,286.82,180110,,*2E
$GPRMC,153742.000,A,3341.2711,N,11601.9125,W,49.58,287.15,180110,,*2F
$GPRMC,153745.000,A,3341.2832,N,11601.9598,W,49.63,286.76,180110,,*28
$GPRMC,153748.000,A,3341.2952,N,11602.0076,W,50.21,286.68,180110,,*2C
$GPRMC,153751.000,A,3341.3075,N,11602.0558,W,50.50,287.04,180110,,*2D
$GPRMC,153754.000,A,3341.3198,N,11602.1042,W,50.84,286.93,180110,,*23
$GPRMC,153757.000,A,3341.3324,N,11602.1529,W,50.98,287.04,180110,,*2F
$GPRMC,153800.000,A,3341.3448,N,11602.2017,W,51.16,286.74,180110,,*25
$GPRMC,153803.000,A,3341.3573,N,11602.2508,W,51.38,286.98,180110,,*2A
$GPRMC,153806.000,A,3341.3698,N,11602.2997,W,51.08,286.87,180110,,*2E
$GPRMC,153809.000,A,3341.3823,N,11602.3486,W,51.23,287.00,180110,,*24
$GPRMC,153812.000,A,3341.3949,N,11602.3977,W,51.63,286.78,180110,,*2A
$GPRMC,153815.000,A,3341.4074,N,11602.4473,W,52.03,286.81,180110,,*20
$GPRMC,153818.000,A,3341.4202,N,11602.4972,W,52.39,286.96,180110,,*2D
$GPRMC,153821.000,A,3341.4331,N,11602.5474,W,52.54,286.98,180110,,*29
$GPRMC,153824.000,A,3341.4458,N,11602.5972,W,51.99,287.07,180110,,*2A
$GPRMC,153827.000,A,3341.4584,N,11602.6466,W,51.38,286.75,180110,,*2D
$GPRMC,153830.000,A,3341.4708,N,11602.6953,W,50.60,287.03,180110,,*2A
$GPRMC,153833.000,A,3341.4832,N,11602.7433,W,50.13,287.29,180110,,*29
$GPRMC,153836.000,A,3341.4955,N,11602.7911,W,50.15,286.83,180110,,*26
$GPRMC,153839.000,A,3341.5077,N,11602.8391,W,50.50,286.87,180110,,*29
$GPRMC,153842.000,A,3341.5199,N,11602.8875,W,50.20,286.74,180110,,*2E
$GPRMC,153845.000,A,3341.5323,N,11602.9355,W,50.50,287.68,180110,,*29
$GPRMC,153848.000,A,3341.5467,N,11602.9831,W,50.95,291.68,180110,,*24
$GPRMC,153851.000,A,3341.5642,N,11603.0298,W,51.48,295.87,180110,,*2C
$GPRMC,153854.000,A,3341.5848,N,11603.0754,W,50.81,300.44,180110,,*2E
$GPRMC,153857.000,A,3341.6069,N,11603.1187,W,50.80,301.35,180110,,*2A
$GPRMC,153900.000,A,3341.6294,N,11603.1626,W,51.76,301.18,180110,,*22
$GPRMC,153903.000,A,3341.6519,N,11603.2071,W,51.68,301.00,180110,,*22
$GPRMC,153906.000,A,3341.6741,N,11603.2505,W,50.88,301.14,180110,,*24
$GPRMC,153909.000,A,3341.6964,N,11603.2943,W,51.73,301.23,180110,,*2D
$GPRMC,153912.000,A,3341.7191,N,11603.3389,W,52.55,301.30,180110,,*2C
$GPRMC,153915.000,A,3341.7418,N,11603.3835,W,51.08,301.00,180110,,*2B
$GPRMC,153918.000,A,3341.7639,N,11603.4268,W,51.02,301.39,180110,,*22
$GPRMC,153921.000,A,3341.7862,N,11603.4707,W,51.80,301.06,180110,,*22
$GPRMC,153924.000,A,3341.8085,N,11603.5147,W,51.47,301.31,180110,,*25
$GPRMC,153927.000,A,3341.8310,N,11603.5591,W,52.26,301.29,180110,,*2B
$GPRMC,153930.000,A,3341.8540,N,11603.6037,W,52.32,301.39,180110,,*20
$GPRMC,153933.000,A,3341.8768,N,11603.6488,W,53.14,300.83,180110,,*2E
$GPRMC,153936.000,A,3341.8987,N,11603.6944,W,51.84,299.72,180110,,*2D
$GPRMC,153939.000,A,3341.9192,N,11603.7396,W,51.07,297.32,180110,,*2A
$GPRMC,153942.000,A,3341.9370,N,11603.7851,W,49.62,293.65,180110,,*24
$GPRMC,153945.000,A,3341.9522,N,11603.8311,W,49.48,290.79,180110,,*24
$GPRMC,153948.000,A,3341.9657,N,11603.8781,W,49.78,288.08,180110,,*29
$GPRMC,153951.000,A,3341.9777,N,11603.9259,W,50.05,285.53,180110,,*22
$GPRMC,153954.000,A,3341.9875,N,11603.9747,W,50.26,282.35,180110,,*26
$GPRMC,153957.000,A,3341.9951,N,11604.0240,W,50.39,279.41,180110,,*27
$GPRMC,154000.000,A,3342.0011,N,11604.0742,W,50.68,277.14,180110,,*21
$GPRMC,154003.000,A,3342.0051,N,11604.1249,W,50.85,274.69,180110,,*23
$GPRMC,154006.000,A,3342.0083,N,11604.1759,W,50.91,274.82,180110,,*2D
$GPRMC,154009.000,A,3342.0117,N,11604.2266,W,51.01,274.60,180110,,*20
$GPRMC,154012.000,A,3342.0151,N,11604.2779,W,51.77,274.51,180110,,*20
$GPRMC,154015.000,A,3342.0187,N,11604.3299,W,52.47,274.95,180110,,*2E
$GPRMC,154018.000,A,3342.0224,N,11604.3824,W,52.73,274.95,180110,,*22
$GPRMC,154021.000,A,3342.0259,N,11604.4345,W,52.29,274.94,180110,,*27
$GPRMC,154024.000,A,3342.0297,N,11604.4862,W,51.59,274.84,180110,,*2B
$GPRMC,154027.000,A,3342.0333,N,11604.5373,W,51.12,274.96,180110,,*21
$GPRMC,154030.000,A,3342.0370,N,11604.5880,W,50.68,274.98,180110,,*25
$GPRMC,154033.000,A,3342.0406,N,11604.6382,W,50.28,274.88,180110,,*2F
$GPRMC,154036.000,A,3342.0442,N,11604.6883,W,50.39,274.64,180110,,*22
$GPRMC,154039.000,A,3342.0477,N,11604.7375,W,47.76,274.51,180110,,*23
$GPRMC,154042.000,A,3342.0506,N,11604.7855,W,48.61,273.23,180110,,*2A
$GPRMC,154045.000,A,3342.0520,N,11604.8346,W,49.50,270.56,180110,,*2D
$GPRMC,154048.000,A,3342.0509,N,11604.8834,W,48.59,266.53,180110,,*2F
$GPRMC,154051.000,A,3342.0473,N,11604.9320,W,49.24,264.91,180110,,*23
$GPRMC,154054.000,A,3342.0433,N,11604.9800,W,48.70,264.74,180110,,*20
$GPRMC,154057.000,A,3342.0392,N,11605.0287,W,49.37,264.60,180110,,*25
$GPRMC,154100.000,A,3342.0350,N,11605.0777,W,49.73,264.39,180110,,*2E
$GPRMC,154103.000,A,3342.0300,N,11605.1276,W,50.61,262.60,180110,,*2C
$GPRMC,154106.000,A,3342.0242,N,11605.1769,W,49.53,261.18,180110,,*20
$GPRMC,154109.000,A,3342.0172,N,11605.2263,W,50.42,260.66,180110,,*23
$GPRMC,154112.000,A,3342.0105,N,11605.2761,W,49.26,261.23,180110,,*24
$GPRMC,154115.000,A,3342.0042,N,11605.3241,W,48.94,260.68,180110,,*21
$GPRMC,154118.000,A,3341.9975,N,11605.3727,W,49.67,260.70,180110,,*2A
$GPRMC,154121.000,A,3341.9907,N,11605.4223,W,50.68,261.10,180110,,*23
$GPRMC,154124.000,A,3341.9841,N,11605.4723,W,49.68,260.90,180110,,*21
$GPRMC,154127.000,A,3341.9775,N,11605.5207,W,49.20,260.57,180110,,*2F
$GPRMC,154130.000,A,3341.9708,N,11605.5697,W,50.04,261.02,180110,,*21
$GPRMC,154133.000,A,3341.9641,N,11605.6194,W,50.06,260.59,180110,,*24
$GPRMC,154136.000,A,3341.9575,N,11605.6677,W,49.13,261.00,180110,,*2E
$GPRMC,154139.000,A,3341.9509,N,11605.7164,W,48.79,260.64,180110,,*20
$GPRMC,154142.000,A,3341.9444,N,11605.7646,W,49.25,260.92,180110,,*22
$GPRMC,154145.000,A,3341.9379,N,11605.8132,W,48.74,260.70,180110,,*2E
$GPRMC,154148.000,A,3341.9311,N,11605.8617,W,49.57,260.31,180110,,*28
$GPRMC,154151.000,A,3341.9243,N,11605.9109,W,50.14,261.00,180110,,*23
$GPRMC,154154.000,A,3341.9180,N,11605.9598,W,49.64,261.39,180110,,*23
$GPRMC,154157.000,A,3341.9128,N,11606.0094,W,50.43,264.27,180110,,*26
$GPRMC,154200.000,A,3341.9103,N,11606.0600,W,50.36,268.07,180110,,*29
$GPRMC,154203.000,A,3341.9106,N,11606.1107,W,51.06,271.84,180110,,*2F
$GPRMC,154206.000,A,3341.9137,N,11606.1619,W,51.72,275.62,180110,,*2F
$GPRMC,154209.000,A,3341.9196,N,11606.2129,W,51.28,279.13,180110,,*29
$GPRMC,154212.000,A,3341.9285,N,11606.2633,W,51.93,282.99,180110,,*28
$GPRMC,154215.000,A,3341.9383,N,11606.3143,W,52.77,282.51,180110,,*24
$GPRMC,154218.000,A,3341.9481,N,11606.3661,W,53.60,282.78,180110,,*27
$GPRMC,154221.000,A,3341.9580,N,11606.4185,W,54.09,282.62,180110,,*24
$GPRMC,154224.000,A,3341.9681,N,11606.4717,W,54.93,283.14,180110,,*2D
$GPRMC,154227.000,A,3341.9785,N,11606.5251,W,54.69,282.73,180110,,*28
$GPRMC,154230.000,A,3341.9886,N,11606.5779,W,53.91,283.09,180110,,*21
$GPRMC,154233.000,A,3341.9984,N,11606.6300,W,53.18,282.55,180110,,*21
$GPRMC,154236.000,A,3342.0081,N,11606.6815,W,52.50,282.81,180110,,*29
$GPRMC,154239.000,A,3342.0177,N,11606.7322,W,51.80,282.38,180110,,*2C
$GPRMC,154242.000,A,3342.0270,N,11606.7823,W,51.15,283.14,180110,,*2D
$GPRMC,154245.000,A,3342.0367,N,11606.8317,W,50.54,283.22,180110,,*2F
$GPRMC,154248.000,A,3342.0462,N,11606.8803,W,49.40,282.93,180110,,*28
$GPRMC,154251.000,A,3342.0553,N,11606.9276,W,47.88,282.83,180110,,*21
$GPRMC,154254.000,A,3342.0638,N,11606.9735,W,46.58,282.25,180110,,*28
$GPRMC,154257.000,A,3342.0722,N,11607.0188,W,46.27,283.05,180110,,*22
$GPRMC,154300.000,A,3342.0810,N,11607.0647,W,48.24,282.87,180110,,*2D
$GPRMC,154303.000,A,3342.0901,N,11607.1128,W,50.32,282.48,180110,,*2D
$GPRMC,154306.000,A,3342.0993,N,11607.1624,W,51.05,282.60,180110,,*27
$GPRMC,154309.000,A,3342.1086,N,11607.2121,W,50.75,282.65,180110,,*26
$GPRMC,154312.000,A,3342.1179,N,11607.2616,W,50.72,282.72,180110,,*2F
$GPRMC,154315.000,A,3342.1275,N,11607.3111,W,51.01,283.04,180110,,*23
$GPRMC,154318.000,A,3342.1371,N,11607.3610,W,51.30,282.78,180110,,*25
$GPRMC,154321.000,A,3342.1464,N,11607.4112,W,51.57,282.62,180110,,*24
$GPRMC,154324.000,A,3342.1559,N,11607.4616,W,51.74,282.95,180110,,*24
$GPRMC,154327.000,A,3342.1654,N,11607.5121,W,51.89,282.50,180110,,*20
$GPRMC,154330.000,A,3342.1748,N,11607.5628,W,52.10,282.70,180110,,*25
$GPRMC,154333.000,A,3342.1847,N,11607.6137,W,52.33,283.50,180110,,*2E
$GPRMC,154336.000,A,3342.1959,N,11607.6643,W,52.35,286.30,180110,,*24
$GPRMC,154339.000,A,3342.2097,N,11607.7135,W,51.61,290.29,180110,,*29
$GPRMC,154342.000,A,3342.2251,N,11607.7615,W,50.85,291.47,180110,,*2A
$GPRMC,154345.000,A,3342.2410,N,11607.8083,W,50.14,292.08,180110,,*28
$GPRMC,154348.000,A,3342.2566,N,11607.8545,W,49.42,291.63,180110,,*2F
$GPRMC,154351.000,A,3342.2718,N,11607.9002,W,48.81,291.54,180110,,*21
$GPRMC,154354.000,A,3342.2871,N,11607.9453,W,49.01,291.93,180110,,*26
$GPRMC,154357.000,A,3342.3022,N,11607.9915,W,50.14,290.59,180110,,*2E
$GPRMC,154400.000,A,3342.3164,N,11608.0389,W,50.56,288.85,180110,,*2F
$GPRMC,154403.000,A,3342.3301,N,11608.0865,W,50.39,288.98,180110,,*21
$GPRMC,154406.000,A,3342.3437,N,11608.1341,W,50.29,288.69,180110,,*25
$GPRMC,154409.000,A,3342.3572,N,11608.1816,W,50.11,288.92,180110,,*2C
$GPRMC,154412.000,A,3342.3710,N,11608.2291,W,50.10,288.60,180110,,*2A
$GPRMC,154415.000,A,3342.3844,N,11608.2767,W,50.29,288.46,180110,,*21
$GPRMC,154418.000,A,3342.3980,N,11608.3247,W,50.87,288.56,180110,,*26
$GPRMC,154421.000,A,3342.4118,N,11608.3734,W,51.67,288.58,180110,,*22
$GPRMC,154424.000,A,3342.4258,N,11608.4227,W,52.15,288.76,180110,,*2A
$GPRMC,154427.000,A,3342.4397,N,11608.4719,W,51.37,288.70,180110,,*26
$GPRMC,154430.000,A,3342.4533,N,11608.5199,W,50.21,288.68,180110,,*28
$GPRMC,154433.000,A,3342.4665,N,11608.5671,W,49.64,288.47,180110,,*2E
$GPRMC,154436.000,A,3342.4796,N,11608.6142,W,49.72,288.64,180110,,*24
$GPRMC,154439.000,A,3342.4929,N,11608.6614,W,49.98,288.69,180110,,*2C
$GPRMC,154442.000,A,3342.5062,N,11608.7090,W,50.45,288.43,180110,,*2C
$GPRMC,154445.000,A,3342.5196,N,11608.7569,W,50.58,288.38,180110,,*22
$GPRMC,154448.000,A,3342.5332,N,11608.8052,W,50.75,288.40,180110,,*21
$GPRMC,154451.000,A,3342.5470,N,11608.8534,W,50.97,288.92,180110,,*2E
$GPRMC,154454.000,A,3342.5611,N,11608.9016,W,51.06,289.15,180110,,*2D
$GPRMC,154457.000,A,3342.5754,N,11608.9499,W,51.17,289.31,180110,,*2B
$GPRMC,154500.000,A,3342.5900,N,11608.9983,W,51.42,289.73,180110,,*27
$GPRMC,154503.000,A,3342.6048,N,11609.0468,W,51.54,290.00,180110,,*29
$GPRMC,154506.000,A,3342.6195,N,11609.0953,W,51.54,289.69,180110,,*2F
$GPRMC,154509.000,A,3342.6341,N,11609.1437,W,51.24,290.03,180110,,*26
$GPRMC,154512.000,A,3342.6487,N,11609.1919,W,51.01,289.67,180110,,*2D
$GPRMC,154515.000,A,3342.6632,N,11609.2397,W,50.66,289.89,180110,,*29
$GPRMC,154518.000,A,3342.6775,N,11609.2872,W,50.40,289.65,180110,,*20
$GPRMC,154521.000,A,3342.6917,N,11609.3345,W,50.06,289.68,180110,,*21
$GPRMC,154524.000,A,3342.7059,N,11609.3815,W,49.99,289.93,180110,,*22
$GPRMC,154527.000,A,3342.7201,N,11609.4283,W,49.73,290.20,180110,,*28
$GPRMC,154530.000,A,3342.7342,N,11609.4748,W,49.50,289.64,180110,,*23
$GPRMC,154533.000,A,3342.7480,N,11609.5214,W,49.72,289.62,180110,,*22
$GPRMC,154536.000,A,3342.7622,N,11609.5683,W,50.05,289.87,180110,,*24
$GPRMC,154539.000,A,3342.7765,N,11609.6154,W,50.08,289.95,180110,,*29
$GPRMC,154542.000,A,3342.7906,N,11609.6626,W,50.15,289.56,180110,,*2F
$GPRMC,154545.000,A,3342.8046,N,11609.7097,W,50.05,289.78,180110,,*2A
$GPRMC,154548.000,A,3342.8189,N,11609.7569,W,50.21,289.84,180110,,*24
$GPRMC,154551.000,A,3342.8331,N,11609.8038,W,49.56,289.84,180110,,*2B
$GPRMC,154554.000,A,3342.8470,N,11609.8502,W,49.27,289.64,180110,,*28
$GPRMC,154557.000,A,3342.8609,N,11609.8965,W,48.93,289.97,180110,,*28
$GPRMC,154600.000,A,3342.8748,N,11609.9421,W,48.04,289.61,180110,,*26
$GPRMC,154603.000,A,3342.8871,N,11609.9863,W,44.84,287.32,180110,,*26
$GPRMC,154606.000,A,3342.8967,N,11610.0278,W,42.10,283.84,180110,,*26
$GPRMC,154609.000,A,3342.9043,N,11610.0677,W,39.86,282.20,180110,,*20
$GPRMC,154612.000,A,3342.9109,N,11610.1044,W,35.31,282.07,180110,,*27
$GPRMC,154615.000,A,3342.9164,N,11610.1376,W,32.72,280.88,180110,,*2C
$GPRMC,154618.000,A,3342.9210,N,11610.1679,W,29.70,279.35,180110,,*23
$GPRMC,154621.000,A,3342.9242,N,11610.1958,W,27.16,276.32,180110,,*24
$GPRMC,154624.000,A,3342.9260,N,11610.2213,W,25.07,274.12,180110,,*24
$GPRMC,154627.000,A,3342.9269,N,11610.2448,W,23.31,273.39,180110,,*2B
$GPRMC,154630.000,A,3342.9279,N,11610.2655,W,19.52,275.40,180110,,*26
$GPRMC,154633.000,A,3342.9297,N,11610.2816,W,14.66,280.85,180110,,*25
$GPRMC,154636.000,A,3342.9326,N,11610.2934,W,10.56,290.06,180110,,*27
$GPRMC,154639.000,A,3342.9354,N,11610.3013,W,7.98,296.19,180110,,*1C
$GPRMC,154642.000,A,3342.9392,N,11610.3064,W,6.43,317.79,180110,,*13
$GPRMC,154651.000,A,3342.9466,N,11610.3081,W,5.24,3.77,180110,,*1C
$GPRMC,154654.000,A,3342.9518,N,11610.3054,W,7.26,36.08,180110,,*27
$GPRMC,154657.000,A,3342.9567,N,11610.2997,W,9.53,41.92,180110,,*24
$GPRMC,154700.000,A,3342.9627,N,11610.2926,W,9.72,44.05,180110,,*22
$GPRMC,154703.000,A,3342.9698,N,11610.2840,W,12.59,43.82,180110,,*1F
$GPRMC,154706.000,A,3342.9771,N,11610.2749,W,12.51,45.35,180110,,*18
$GPRMC,154709.000,A,3342.9851,N,11610.2648,W,14.35,46.15,180110,,*1F
$GPRMC,154712.000,A,3342.9938,N,11610.2541,W,14.69,44.53,180110,,*18
$GPRMC,154715.000,A,3343.0021,N,11610.2441,W,13.41,44.66,180110,,*1C
$GPRMC,154718.000,A,3343.0099,N,11610.2350,W,12.82,41.62,180110,,*1A
$GPRMC,154721.000,A,3343.0181,N,11610.2264,W,12.98,41.91,180110,,*19
$GPRMC,154724.000,A,3343.0251,N,11610.2182,W,10.26,46.10,180110,,*10
$GPRMC,154727.000,A,3343.0304,N,11610.2113,W,8.87,44.87,180110,,*24
$GPRMC,154730.000,A,3343.0367,N,11610.2089,W,8.35,348.62,180110,,*18
$GPRMC,154733.000,A,3343.0425,N,11610.2130,W,7.58,311.99,180110,,*15
$GPRMC,154736.000,A,3343.0463,N,11610.2186,W,6.60,307.04,180110,,*16
$GPRMC,154739.000,A,3343.0500,N,11610.2244,W,7.59,308.19,180110,,*18
$GPRMC,154742.000,A,3343.0540,N,11610.2307,W,8.01,307.11,180110,,*13
$GPRMC,154745.000,A,3343.0581,N,11610.2375,W,8.73,307.89,180110,,*18
