NMEA Sentence Code,UTC Time,Status,Latitude,Latitude Direction,Longitude,Longitude Direction,Speed (knots),Track Angle (degrees true),Date,MagneticVariation,Magnetic Variation Direction,[FAA Mode]-Optional,Checksum
$GPRMC,152141.8,A,3247.332436,N,11655.082273,W,40.5,165.2,180510,,,A*41
$GPRMC,152144.8,A,3247.300489,N,11655.072986,W,38.5,168.2,180510,,,A*4D
$GPRMC,152147.8,A,3247.278487,N,11655.070563,W,20.3,172.9,180510,,,A*44
$GPRMC,152150.8,A,3247.266896,N,11655.069149,W,7.3,174.1,180510,,,A*7E
$GPRMC,152211.8,A,3247.263467,N,11655.069797,W,7.5,176.2,180510,,,A*7D
$GPRMC,152214.8,A,3247.255241,N,11655.063131,W,15.2,132.7,180510,,,A*4E
$GPRMC,152217.8,A,3247.253726,N,11655.042181,W,24.8,85.7,180510,,,A*72
$GPRMC,152220.8,A,3247.255074,N,11655.014333,W,31.3,88.7,180510,,,A*7A
$GPRMC,152223.8,A,3247.251513,N,11654.980268,W,37.6,105.6,180510,,,A*45
$GPRMC,152226.9,A,3247.242110,N,11654.942668,W,38.4,107.2,180510,,,A*45
$GPRMC,152229.2,A,3247.233319,N,11654.913824,W,40.3,110.8,180510,,,A*4A
$GPRMC,152232.9,A,3247.210441,N,11654.874310,W,39.7,127.4,180510,,,A*4E
$GPRMC,152235.2,A,3247.191271,N,11654.850490,W,42.1,130.8,180510,,,A*44
$GPRMC,152238.2,A,3247.166810,N,11654.817798,W,42.3,126.7,180510,,,A*4E
$GPRMC,152241.2,A,3247.160366,N,11654.776827,W,43.4,95.6,180510,,,A*71
$GPRMC,152244.2,A,3247.160150,N,11654.732501,W,45.5,86.4,180510,,,A*7D
$GPRMC,152247.2,A,3247.163683,N,11654.686870,W,46.8,82.9,180510,,,A*76
$GPRMC,152250.2,A,3247.169604,N,11654.640498,W,47.4,81.2,180510,,,A*70
$GPRMC,152253.2,A,3247.175965,N,11654.595602,W,44.9,80.4,180510,,,A*75
$GPRMC,152256.2,A,3247.183455,N,11654.552571,W,45.1,75.3,180510,,,A*7F
$GPRMC,152259.2,A,3247.194770,N,11654.509602,W,45.8,70.4,180510,,,A*70
$GPRMC,152302.2,A,3247.208464,N,11654.468274,W,44.5,67.9,180510,,,A*7B
$GPRMC,152305.2,A,3247.221070,N,11654.431070,W,38.2,67.7,180510,,,A*7E
$GPRMC,152308.2,A,3247.231484,N,11654.399676,W,28.6,69.2,180510,,,A*76
$GPRMC,152311.2,A,3247.237110,N,11654.379882,W,15.7,89.6,180510,,,A*7E
$GPRMC,152314.2,A,3247.229852,N,11654.370079,W,15.3,168.7,180510,,,A*45
$GPRMC,152317.2,A,3247.210100,N,11654.371809,W,25.2,181.7,180510,,,A*49
$GPRMC,152320.2,A,3247.186443,N,11654.372548,W,30.7,180.1,180510,,,A*4E
$GPRMC,152323.2,A,3247.158395,N,11654.372827,W,35.1,180.1,180510,,,A*45
$GPRMC,152326.2,A,3247.125380,N,11654.372394,W,41.0,179.7,180510,,,A*4F
$GPRMC,152329.2,A,3247.091794,N,11654.373471,W,41.1,180.5,180510,,,A*47
$GPRMC,152332.2,A,3247.056838,N,11654.373324,W,42.4,180.5,180510,,,A*4E
$GPRMC,152335.2,A,3247.020732,N,11654.373648,W,44.1,180.0,180510,,,A*44
$GPRMC,152338.2,A,3246.984036,N,11654.373472,W,43.4,180.3,180510,,,A*46
$GPRMC,152341.2,A,3246.947779,N,11654.373289,W,44.1,180.2,180510,,,A*4A
$GPRMC,152344.2,A,3246.912667,N,11654.373013,W,41.6,180.2,180510,,,A*42
$GPRMC,152347.2,A,3246.878369,N,11654.373442,W,38.2,180.3,180510,,,A*4C
$GPRMC,152350.2,A,3246.849486,N,11654.373140,W,29.8,179.9,180510,,,A*4F
$GPRMC,152353.2,A,3246.829553,N,11654.373206,W,18.6,176.6,180510,,,A*4E
$GPRMC,152356.2,A,3246.821746,N,11654.373206,W,5.2,180.3,180510,,,A*71
$GPRMC,152400.2,A,3246.810960,N,11654.373339,W,15.1,181.7,180510,,,A*47
$GPRMC,152403.2,A,3246.791849,N,11654.373735,W,24.4,182.2,180510,,,A*41
$GPRMC,152406.9,A,3246.760400,N,11654.374709,W,32.2,182.2,180510,,,A*49
$GPRMC,152409.9,A,3246.729203,N,11654.374690,W,37.4,181.3,180510,,,A*4E
$GPRMC,152412.9,A,3246.694787,N,11654.371439,W,40.5,179.9,180510,,,A*42
$GPRMC,152415.9,A,3246.658718,N,11654.374773,W,41.9,182.8,180510,,,A*43
$GPRMC,152418.9,A,3246.624052,N,11654.376198,W,42.3,185.9,180510,,,A*42
$GPRMC,152421.9,A,3246.590022,N,11654.388678,W,42.0,202.0,180510,,,A*4D
$GPRMC,152424.9,A,3246.567168,N,11654.408466,W,36.7,215.6,180510,,,A*49
$GPRMC,152427.9,A,3246.544013,N,11654.429200,W,34.4,214.9,180510,,,A*4C
$GPRMC,152430.9,A,3246.521262,N,11654.444611,W,31.0,199.2,180510,,,A*4E
$GPRMC,152433.2,A,3246.499483,N,11654.446741,W,32.1,183.0,180510,,,A*40
$GPRMC,152436.9,A,3246.463914,N,11654.438248,W,35.2,165.9,180510,,,A*48
$GPRMC,152439.9,A,3246.436285,N,11654.427653,W,34.4,161.8,180510,,,A*46
$GPRMC,152442.9,A,3246.407772,N,11654.416593,W,36.7,164.4,180510,,,A*40
$GPRMC,152445.9,A,3246.379376,N,11654.411584,W,33.3,169.5,180510,,,A*45
$GPRMC,152448.9,A,3246.352069,N,11654.417691,W,33.5,196.4,180510,,,A*4A
$GPRMC,152451.9,A,3246.328172,N,11654.435044,W,33.9,215.3,180510,,,A*49
$GPRMC,152454.9,A,3246.307557,N,11654.456789,W,33.6,222.5,180510,,,A*4C
$GPRMC,152457.9,A,3246.288582,N,11654.482058,W,34.4,224.4,180510,,,A*41
$GPRMC,152500.9,A,3246.265231,N,11654.503702,W,34.7,219.5,180510,,,A*42
$GPRMC,152503.9,A,3246.242675,N,11654.527170,W,34.7,220.9,180510,,,A*43
$GPRMC,152506.9,A,3246.222126,N,11654.549997,W,34.7,222.7,180510,,,A*44
$GPRMC,152509.9,A,3246.203478,N,11654.573488,W,33.6,225.5,180510,,,A*4F
$GPRMC,152512.9,A,3246.179932,N,11654.595440,W,34.9,223.0,180510,,,A*4F
$GPRMC,152515.9,A,3246.156185,N,11654.619145,W,36.0,219.2,180510,,,A*46
$GPRMC,152518.9,A,3246.129990,N,11654.636268,W,36.4,209.2,180510,,,A*4B
$GPRMC,152521.9,A,3246.105810,N,11654.655174,W,32.1,211.7,180510,,,A*40
$GPRMC,152524.9,A,3246.085206,N,11654.673705,W,31.1,219.3,180510,,,A*4A
$GPRMC,152527.9,A,3246.075425,N,11654.698969,W,29.0,250.3,180510,,,A*45
$GPRMC,152530.9,A,3246.070966,N,11654.726657,W,27.3,255.2,180510,,,A*43
$GPRMC,152533.9,A,3246.061331,N,11654.747977,W,26.4,241.7,180510,,,A*44
$GPRMC,152536.9,A,3246.050356,N,11654.773823,W,29.2,246.2,180510,,,A*4E
$GPRMC,152539.9,A,3246.036561,N,11654.795024,W,26.8,231.3,180510,,,A*40
$GPRMC,152542.9,A,3246.018047,N,11654.812472,W,27.5,218.7,180510,,,A*45
$GPRMC,152545.9,A,3246.005329,N,11654.832148,W,27.6,235.5,180510,,,A*45
$GPRMC,152548.9,A,3245.999125,N,11654.858818,W,27.9,254.1,180510,,,A*45
$GPRMC,152551.9,A,3245.986204,N,11654.882389,W,27.5,231.2,180510,,,A*4B
$GPRMC,152554.9,A,3245.960564,N,11654.898680,W,32.1,203.2,180510,,,A*41
$GPRMC,152557.9,A,3245.934899,N,11654.902110,W,32.0,185.0,180510,,,A*4E
$GPRMC,152600.9,A,3245.907871,N,11654.899002,W,32.0,177.8,180510,,,A*4D
$GPRMC,152603.9,A,3245.883241,N,11654.899343,W,29.2,180.4,180510,,,A*40
$GPRMC,152606.9,A,3245.865443,N,11654.898714,W,20.7,182.5,180510,,,A*41
$GPRMC,152609.9,A,3245.854131,N,11654.907319,W,16.2,217.2,180510,,,A*4A
$GPRMC,152612.9,A,3245.856408,N,11654.919105,W,10.3,288.8,180510,,,A*46
$GPRMC,152615.9,A,3245.870471,N,11654.923155,W,13.8,353.6,180510,,,A*46
$GPRMC,152618.9,A,3245.883419,N,11654.921787,W,14.1,0.0,180510,,,A*4F
$GPRMC,152621.9,A,3245.895814,N,11654.920393,W,14.3,2.8,180510,,,A*4B
$GPRMC,152624.9,A,3245.906293,N,11654.917144,W,13.9,6.9,180510,,,A*44
$GPRMC,152627.9,A,3245.917265,N,11654.920517,W,11.3,345.4,180510,,,A*49
$GPRMC,152630.9,A,3245.921938,N,11654.925538,W,8.9,301.8,180510,,,A*7F
$GPRMC,152633.9,A,3245.923318,N,11654.934485,W,6.9,253.1,180510,,,A*70
$GPRMC,152639.9,A,3245.916679,N,11654.940926,W,5.2,239.9,180510,,,A*75
$GPRMC,152745.9,A,3245.913143,N,11654.933659,W,5.3,172.5,180510,,,A*76
$GPRMC,152748.9,A,3245.899051,N,11654.928894,W,13.0,156.8,180510,,,A*40
$GPRMC,152751.9,A,3245.887321,N,11654.922191,W,16.3,159.5,180510,,,A*41
$GPRMC,152754.9,A,3245.869022,N,11654.921386,W,19.4,177.5,180510,,,A*47
$GPRMC,152757.9,A,3245.855383,N,11654.913882,W,17.2,145.2,180510,,,A*43
$GPRMC,152800.9,A,3245.852564,N,11654.905547,W,5.6,111.8,180510,,,A*79
$GPRMC,152806.9,A,3245.855014,N,11654.900300,W,4.7,69.8,180510,,,A*44
$GPRMC,152809.9,A,3245.862548,N,11654.892419,W,9.9,45.9,180510,,,A*4A
$GPRMC,152812.9,A,3245.883522,N,11654.893025,W,22.4,3.0,180510,,,A*46
$GPRMC,152815.9,A,3245.914098,N,11654.894484,W,31.5,359.6,180510,,,A*4B
$GPRMC,152818.9,A,3245.944053,N,11654.895093,W,33.9,359.4,180510,,,A*4B
$GPRMC,152821.9,A,3245.971795,N,11654.889058,W,34.6,14.9,180510,,,A*7F
$GPRMC,152824.9,A,3245.995078,N,11654.868603,W,35.6,42.4,180510,,,A*7C
$GPRMC,152827.9,A,3246.003951,N,11654.833585,W,35.9,69.6,180510,,,A*7F
$GPRMC,152830.9,A,3246.016495,N,11654.804438,W,33.8,55.0,180510,,,A*75
$GPRMC,152833.2,A,3246.035373,N,11654.786222,W,37.2,47.8,180510,,,A*7E
$GPRMC,152836.2,A,3246.053692,N,11654.754377,W,39.6,63.3,180510,,,A*78
$GPRMC,152839.2,A,3246.071242,N,11654.721908,W,37.4,57.6,180510,,,A*70
$GPRMC,152842.9,A,3246.081883,N,11654.675877,W,39.1,69.3,180510,,,A*75
$GPRMC,152845.9,A,3246.099701,N,11654.644659,W,37.2,58.0,180510,,,A*72
$GPRMC,152848.9,A,3246.132463,N,11654.625914,W,40.3,33.0,180510,,,A*75
$GPRMC,152851.9,A,3246.167599,N,11654.605160,W,46.1,34.5,180510,,,A*76
$GPRMC,152854.9,A,3246.200038,N,11654.571390,W,50.6,41.5,180510,,,A*70
$GPRMC,152857.9,A,3246.228027,N,11654.540762,W,47.8,41.6,180510,,,A*77
$GPRMC,152900.9,A,3246.258175,N,11654.506597,W,49.5,43.5,180510,,,A*7D
$GPRMC,152903.9,A,3246.287837,N,11654.471726,W,49.4,42.5,180510,,,A*7A
$GPRMC,152906.9,A,3246.316249,N,11654.439109,W,47.2,44.1,180510,,,A*78
$GPRMC,152909.9,A,3246.351230,N,11654.414013,W,45.7,30.2,180510,,,A*78
$GPRMC,152912.9,A,3246.388382,N,11654.408669,W,42.8,4.2,180510,,,A*47
$GPRMC,152915.9,A,3246.423516,N,11654.417978,W,42.1,346.9,180510,,,A*4B
$GPRMC,152918.9,A,3246.458019,N,11654.433754,W,42.4,340.9,180510,,,A*45
$GPRMC,152921.9,A,3246.488695,N,11654.443154,W,38.0,349.0,180510,,,A*48
$GPRMC,152924.9,A,3246.516637,N,11654.441701,W,36.7,5.2,180510,,,A*47
$GPRMC,152927.9,A,3246.543948,N,11654.428617,W,38.1,26.1,180510,,,A*70
$GPRMC,152930.9,A,3246.568619,N,11654.406021,W,36.6,37.2,180510,,,A*71
$GPRMC,152933.9,A,3246.595153,N,11654.384741,W,35.9,30.7,180510,,,A*7B
$GPRMC,152936.9,A,3246.624260,N,11654.372308,W,36.3,17.9,180510,,,A*76
$GPRMC,152939.9,A,3246.654608,N,11654.370604,W,36.7,3.7,180510,,,A*40
$GPRMC,152942.9,A,3246.687483,N,11654.368703,W,39.1,2.4,180510,,,A*47
$GPRMC,152945.9,A,3246.722068,N,11654.371680,W,40.3,359.2,180510,,,A*4A
$GPRMC,152948.9,A,3246.748679,N,11654.368503,W,35.1,5.6,180510,,,A*43
$GPRMC,152951.9,A,3246.781313,N,11654.370869,W,37.0,359.7,180510,,,A*47
$GPRMC,152954.9,A,3246.804158,N,11654.370253,W,24.9,359.3,180510,,,A*41
$GPRMC,152957.9,A,3246.815234,N,11654.370964,W,12.0,354.8,180510,,,A*4E
$GPRMC,153006.9,A,3246.823233,N,11654.372563,W,5.6,1.0,180510,,,A*72
$GPRMC,153009.9,A,3246.830986,N,11654.368618,W,14.5,12.8,180510,,,A*77
$GPRMC,153012.9,A,3246.852331,N,11654.369602,W,26.2,1.3,180510,,,A*4A
$GPRMC,153015.9,A,3246.882225,N,11654.370955,W,36.9,359.8,180510,,,A*4E
$GPRMC,153018.9,A,3246.919680,N,11654.369423,W,45.2,0.9,180510,,,A*4E
$GPRMC,153021.9,A,3246.961698,N,11654.369493,W,49.9,0.9,180510,,,A*4E
$GPRMC,153024.9,A,3247.004276,N,11654.369781,W,51.6,359.8,180510,,,A*4C
$GPRMC,153027.9,A,3247.049730,N,11654.368521,W,53.9,0.6,180510,,,A*44
$GPRMC,153030.9,A,3247.093580,N,11654.369730,W,50.5,359.9,180510,,,A*40
$GPRMC,153033.9,A,3247.134196,N,11654.370091,W,49.3,359.7,180510,,,A*48
$GPRMC,153036.9,A,3247.168683,N,11654.369597,W,41.8,359.3,180510,,,A*4B
$GPRMC,153039.9,A,3247.199598,N,11654.367396,W,34.3,1.5,180510,,,A*4B
$GPRMC,153042.9,A,3247.220369,N,11654.367864,W,23.1,0.0,180510,,,A*48
$GPRMC,153045.9,A,3247.233001,N,11654.369648,W,15.0,355.4,180510,,,A*4D
$GPRMC,153048.9,A,3247.240200,N,11654.369970,W,9.9,355.9,180510,,,A*7A
$GPRMC,153051.9,A,3247.242151,N,11654.380373,W,13.6,277.3,180510,,,A*46
$GPRMC,153054.9,A,3247.238382,N,11654.401327,W,23.7,254.7,180510,,,A*4A
$GPRMC,153057.9,A,3247.228065,N,11654.427864,W,31.8,249.2,180510,,,A*4F
$GPRMC,153100.9,A,3247.215947,N,11654.461505,W,37.3,247.5,180510,,,A*47
$GPRMC,153103.9,A,3247.203140,N,11654.496817,W,38.4,247.5,180510,,,A*42
$GPRMC,153106.9,A,3247.188571,N,11654.533329,W,40.1,249.0,180510,,,A*48
$GPRMC,153109.9,A,3247.180961,N,11654.573343,W,40.8,257.2,180510,,,A*4E
$GPRMC,153112.9,A,3247.175504,N,11654.612950,W,41.4,258.8,180510,,,A*45
$GPRMC,153115.9,A,3247.171589,N,11654.654852,W,41.6,262.5,180510,,,A*44
$GPRMC,153118.9,A,3247.165903,N,11654.693775,W,40.4,261.2,180510,,,A*44
$GPRMC,153121.9,A,3247.160010,N,11654.733695,W,40.6,263.8,180510,,,A*4E
$GPRMC,153124.9,A,3247.156343,N,11654.773362,W,39.6,266.1,180510,,,A*40
$GPRMC,153127.9,A,3247.162695,N,11654.812739,W,39.8,284.2,180510,,,A*49
$GPRMC,153130.9,A,3247.183230,N,11654.846161,W,38.9,304.6,180510,,,A*4C
$GPRMC,153133.9,A,3247.203642,N,11654.875469,W,38.0,309.4,180510,,,A*4E
$GPRMC,153136.9,A,3247.222250,N,11654.899479,W,35.1,308.1,180510,,,A*44
$GPRMC,153139.9,A,3247.237681,N,11654.931860,W,36.4,294.8,180510,,,A*4B
$GPRMC,153142.9,A,3247.252229,N,11654.962858,W,34.6,294.6,180510,,,A*41
$GPRMC,153145.9,A,3247.256441,N,11654.994597,W,30.9,281.6,180510,,,A*42
$GPRMC,153148.9,A,3247.257222,N,11655.022801,W,25.7,273.1,180510,,,A*4A
$GPRMC,153151.9,A,3247.256433,N,11655.039916,W,14.6,266.6,180510,,,A*48
$GPRMC,153154.9,A,3247.258994,N,11655.045403,W,5.4,286.7,180510,,,A*7C
$GPRMC,153206.2,A,3247.259632,N,11655.051821,W,7.1,264.5,180510,,,A*71
$GPRMC,153209.2,A,3247.258266,N,11655.061626,W,10.9,285.1,180510,,,A*45
$GPRMC,153212.2,A,3247.267735,N,11655.067547,W,14.4,351.9,180510,,,A*4B
$GPRMC,153215.2,A,3247.282145,N,11655.069431,W,18.8,354.1,180510,,,A*45
$GPRMC,153218.9,A,3247.305294,N,11655.073505,W,23.4,349.2,180510,,,A*44
$GPRMC,153221.9,A,3247.325308,N,11655.077430,W,25.8,348.7,180510,,,A*45
$GPRMC,153224.9,A,3247.350044,N,11655.085927,W,30.1,345.4,180510,,,A*4C
$GPRMC,153227.9,A,3247.377416,N,11655.094556,W,33.3,344.0,180510,,,A*47
$GPRMC,153230.9,A,3247.401542,N,11655.108496,W,33.8,331.8,180510,,,A*4F
$GPRMC,153233.9,A,3247.423576,N,11655.130402,W,36.1,319.7,180510,,,A*44
$GPRMC,153236.9,A,3247.444681,N,11655.153179,W,34.9,316.4,180510,,,A*41
$GPRMC,153239.9,A,3247.465672,N,11655.180758,W,35.9,314.0,180510,,,A*4D
$GPRMC,153242.9,A,3247.488831,N,11655.205459,W,36.3,318.6,180510,,,A*44
$GPRMC,153245.9,A,3247.517435,N,11655.222627,W,37.0,332.8,180510,,,A*46
$GPRMC,153248.9,A,3247.542186,N,11655.234436,W,30.7,336.5,180510,,,A*4A
$GPRMC,153251.9,A,3247.556602,N,11655.243051,W,19.9,336.4,180510,,,A*4D
$GPRMC,153254.9,A,3247.561392,N,11655.245285,W,4.5,342.2,180510,,,A*78
$GPRMC,153327.2,A,3247.563132,N,11655.253707,W,11.8,291.8,180510,,,A*48
$GPRMC,153330.2,A,3247.564016,N,11655.274229,W,22.6,266.8,180510,,,A*44
$GPRMC,153333.2,A,3247.558977,N,11655.291189,W,16.5,228.8,180510,,,A*4A
$GPRMC,153336.9,A,3247.539996,N,11655.296091,W,18.9,183.8,180510,,,A*43
$GPRMC,153339.9,A,3247.523777,N,11655.300487,W,17.7,214.0,180510,,,A*4F
$GPRMC,153342.2,A,3247.522324,N,11655.313938,W,17.5,269.3,180510,,,A*4B
$GPRMC,153345.2,A,3247.522830,N,11655.342438,W,30.8,270.2,180510,,,A*4A
$GPRMC,153348.2,A,3247.522833,N,11655.373168,W,30.4,270.4,180510,,,A*4C
$GPRMC,153351.2,A,3247.523117,N,11655.399676,W,20.7,270.5,180510,,,A*45
$GPRMC,153354.2,A,3247.522677,N,11655.413561,W,8.1,264.9,180510,,,A*75
$GPRMC,153536.9,A,3247.518560,N,11655.402311,W,7.3,89.7,180510,,,A*43
$GPRMC,153539.9,A,3247.521417,N,11655.370312,W,25.9,88.8,180510,,,A*72
$GPRMC,153542.9,A,3247.521505,N,11655.337225,W,28.7,89.9,180510,,,A*79
$GPRMC,153545.9,A,3247.521684,N,11655.309407,W,26.0,90.2,180510,,,A*75
$GPRMC,153548.9,A,3247.523129,N,11655.295929,W,12.0,75.1,180510,,,A*70
$GPRMC,153551.9,A,3247.529681,N,11655.287906,W,12.1,50.4,180510,,,A*7A
$GPRMC,153554.9,A,3247.548748,N,11655.284251,W,16.2,11.7,180510,,,A*77
$GPRMC,153557.9,A,3247.556590,N,11655.286172,W,10.3,0.7,180510,,,A*4B
$GPRMC,153600.9,A,3247.562157,N,11655.280641,W,10.6,64.8,180510,,,A*7B
$GPRMC,153603.9,A,3247.561421,N,11655.263100,W,16.3,90.6,180510,,,A*76
$GPRMC,153606.9,A,3247.559231,N,11655.255300,W,7.8,112.7,180510,,,A*79
$GPRMC,153609.9,A,3247.552316,N,11655.245097,W,14.6,142.1,180510,,,A*4A
$GPRMC,153612.9,A,3247.534770,N,11655.235486,W,23.4,155.5,180510,,,A*43
$GPRMC,153615.9,A,3247.511851,N,11655.223238,W,30.9,154.9,180510,,,A*49
$GPRMC,153618.9,A,3247.486006,N,11655.202355,W,38.0,143.1,180510,,,A*47
$GPRMC,153621.9,A,3247.462446,N,11655.174791,W,40.2,135.3,180510,,,A*47
$GPRMC,153624.9,A,3247.437689,N,11655.147671,W,40.5,136.8,180510,,,A*43
$GPRMC,153627.9,A,3247.410359,N,11655.117595,W,43.6,140.4,180510,,,A*4C
$GPRMC,153630.9,A,3247.377460,N,11655.097475,W,43.5,156.2,180510,,,A*45
$GPRMC,153633.9,A,3247.340895,N,11655.084688,W,43.8,163.7,180510,,,A*48
$GPRMC,153636.9,A,3247.308003,N,11655.075708,W,37.5,166.5,180510,,,A*48
$GPRMC,153639.9,A,3247.282037,N,11655.070588,W,30.3,169.5,180510,,,A*42
$GPRMC,153642.9,A,3247.268443,N,11655.069213,W,16.1,169.9,180510,,,A*4A
$GPRMC,153645.9,A,3247.261359,N,11655.068624,W,5.1,172.7,180510,,,A*7F
$GPRMC,153751.9,A,3247.255750,N,11655.061377,W,7.3,113.3,180510,,,A*78
$GPRMC,153754.9,A,3247.247864,N,11655.041214,W,21.0,109.5,180510,,,A*4A
$GPRMC,153757.9,A,3247.255200,N,11655.005424,W,32.4,89.0,180510,,,A*7D
$GPRMC,153800.9,A,3247.250554,N,11654.965540,W,39.2,98.5,180510,,,A*76
$GPRMC,153803.9,A,3247.239187,N,11654.925360,W,42.5,107.8,180510,,,A*41
$GPRMC,153806.9,A,3247.216090,N,11654.887301,W,45.5,125.7,180510,,,A*48
$GPRMC,153809.9,A,3247.189353,N,11654.852458,W,48.1,130.1,180510,,,A*46
$GPRMC,153812.9,A,3247.165250,N,11654.811369,W,50.4,120.7,180510,,,A*45
$GPRMC,153815.9,A,3247.156872,N,11654.761060,W,51.6,98.2,180510,,,A*7E
$GPRMC,153818.9,A,3247.159374,N,11654.710525,W,51.5,87.4,180510,,,A*78
$GPRMC,153821.9,A,3247.165359,N,11654.657235,W,53.4,83.0,180510,,,A*75
$GPRMC,153824.9,A,3247.172805,N,11654.607516,W,51.3,80.3,180510,,,A*72
$GPRMC,153827.9,A,3247.180608,N,11654.556119,W,52.7,77.8,180510,,,A*77
$GPRMC,153830.9,A,3247.192125,N,11654.506286,W,49.8,72.9,180510,,,A*7B
$GPRMC,153833.9,A,3247.205632,N,11654.465776,W,41.7,69.0,180510,,,A*7E
$GPRMC,153836.9,A,3247.219635,N,11654.434098,W,35.4,65.2,180510,,,A*7C
$GPRMC,153839.9,A,3247.226113,N,11654.409801,W,26.9,70.1,180510,,,A*72
$GPRMC,153842.9,A,3247.234018,N,11654.386952,W,22.8,67.8,180510,,,A*7A
$GPRMC,153845.9,A,3247.236662,N,11654.370897,W,14.3,88.8,180510,,,A*7A
$GPRMC,153848.9,A,3247.218016,N,11654.372409,W,23.7,180.1,180510,,,A*47
$GPRMC,153851.9,A,3247.191748,N,11654.372478,W,32.4,181.5,180510,,,A*41
$GPRMC,153854.9,A,3247.156383,N,11654.371192,W,40.9,179.4,180510,,,A*40
$GPRMC,153857.9,A,3247.120284,N,11654.372391,W,44.9,181.3,180510,,,A*42
$GPRMC,153900.9,A,3247.084385,N,11654.372793,W,44.3,180.6,180510,,,A*46
$GPRMC,153903.9,A,3247.046086,N,11654.372724,W,43.0,179.9,180510,,,A*4A
$GPRMC,153906.9,A,3247.014150,N,11654.371564,W,37.2,178.6,180510,,,A*48
$GPRMC,153909.9,A,3246.984865,N,11654.371189,W,35.4,179.9,180510,,,A*44
$GPRMC,153912.9,A,3246.956525,N,11654.372033,W,33.9,180.2,180510,,,A*4D
$GPRMC,153915.9,A,3246.929209,N,11654.373201,W,33.5,182.5,180510,,,A*40
$GPRMC,153918.9,A,3246.900670,N,11654.372105,W,33.3,180.0,180510,,,A*4B
$GPRMC,153921.9,A,3246.873654,N,11654.372801,W,30.6,179.9,180510,,,A*46
$GPRMC,153924.9,A,3246.850491,N,11654.372993,W,25.7,181.2,180510,,,A*4A
$GPRMC,153927.9,A,3246.832367,N,11654.373520,W,22.0,182.0,180510,,,A*47
$GPRMC,153930.9,A,3246.825345,N,11654.372359,W,7.6,168.9,180510,,,A*72
$GPRMC,153936.9,A,3246.815791,N,11654.373817,W,12.7,190.3,180510,,,A*42
$GPRMC,153939.9,A,3246.796119,N,11654.373739,W,23.4,182.6,180510,,,A*4B
$GPRMC,153942.9,A,3246.770713,N,11654.374266,W,32.1,180.7,180510,,,A*4D
$GPRMC,153945.9,A,3246.741401,N,11654.377046,W,37.8,185.8,180510,,,A*4D
$GPRMC,153948.9,A,3246.705294,N,11654.375943,W,42.1,180.0,180510,,,A*42
$GPRMC,153951.9,A,3246.668755,N,11654.376086,W,41.7,180.4,180510,,,A*4A
$GPRMC,153954.9,A,3246.635782,N,11654.376126,W,38.8,181.4,180510,,,A*46
$GPRMC,153957.9,A,3246.605986,N,11654.383258,W,36.3,195.6,180510,,,A*4E
$GPRMC,154000.9,A,3246.578847,N,11654.399260,W,37.3,208.4,180510,,,A*43
$GPRMC,154003.9,A,3246.557360,N,11654.421139,W,34.7,218.3,180510,,,A*49
$GPRMC,154006.9,A,3246.535141,N,11654.437249,W,31.6,207.8,180510,,,A*4B
$GPRMC,154009.9,A,3246.507253,N,11654.444095,W,33.5,187.5,180510,,,A*45
$GPRMC,154012.9,A,3246.477722,N,11654.441661,W,35.2,172.5,180510,,,A*49
$GPRMC,154015.9,A,3246.450477,N,11654.432830,W,34.9,163.7,180510,,,A*4E
$GPRMC,154018.9,A,3246.421371,N,11654.422236,W,38.0,166.4,180510,,,A*4A
$GPRMC,154021.9,A,3246.386354,N,11654.414620,W,43.0,170.7,180510,,,A*43
$GPRMC,154024.9,A,3246.351877,N,11654.418114,W,43.3,191.0,180510,,,A*41
$GPRMC,154027.9,A,3246.317342,N,11654.441709,W,47.9,214.0,180510,,,A*4B
$GPRMC,154030.9,A,3246.291054,N,11654.475137,W,45.7,223.2,180510,,,A*40
$GPRMC,154033.9,A,3246.263516,N,11654.506461,W,46.1,222.8,180510,,,A*40
$GPRMC,154036.9,A,3246.234802,N,11654.535892,W,44.8,221.4,180510,,,A*4B
$GPRMC,154039.9,A,3246.207040,N,11654.567302,W,45.5,222.2,180510,,,A*46
$GPRMC,154042.9,A,3246.182476,N,11654.597654,W,45.4,222.8,180510,,,A*47
$GPRMC,154045.9,A,3246.149888,N,11654.625300,W,46.0,215.7,180510,,,A*48
$GPRMC,154048.9,A,3246.116271,N,11654.649715,W,46.8,212.8,180510,,,A*49
$GPRMC,154051.9,A,3246.082514,N,11654.674552,W,43.4,215.9,180510,,,A*49
$GPRMC,154054.9,A,3246.070532,N,11654.709238,W,38.3,246.8,180510,,,A*49
$GPRMC,154057.9,A,3246.062166,N,11654.742176,W,35.0,245.8,180510,,,A*47
$GPRMC,154100.9,A,3246.047613,N,11654.772636,W,34.5,243.9,180510,,,A*45
$GPRMC,154103.2,A,3246.039750,N,11654.793709,W,29.2,240.6,180510,,,A*47
$GPRMC,154106.2,A,3246.018204,N,11654.811259,W,30.0,214.3,180510,,,A*4E
$GPRMC,154109.2,A,3246.000157,N,11654.832621,W,32.1,232.7,180510,,,A*44
$GPRMC,154112.9,A,3245.992477,N,11654.864405,W,26.0,254.0,180510,,,A*47
$GPRMC,154115.9,A,3245.987943,N,11654.883016,W,21.0,241.7,180510,,,A*45
$GPRMC,154118.9,A,3245.968386,N,11654.895348,W,23.7,210.3,180510,,,A*40
$GPRMC,154121.9,A,3245.955993,N,11654.900031,W,10.1,198.9,180510,,,A*45
$GPRMC,154130.9,A,3245.957700,N,11654.901533,W,4.5,355.5,180510,,,A*7B
$GPRMC,154139.9,A,3245.955109,N,11654.898121,W,5.3,174.8,180510,,,A*72
$GPRMC,154142.9,A,3245.943847,N,11654.900014,W,15.5,180.9,180510,,,A*40
$GPRMC,154145.9,A,3245.923283,N,11654.899824,W,25.3,182.3,180510,,,A*44
$GPRMC,154148.9,A,3245.895940,N,11654.898360,W,33.0,180.5,180510,,,A*4B
$GPRMC,154151.9,A,3245.863421,N,11654.901891,W,38.3,182.2,180510,,,A*49
$GPRMC,154154.9,A,3245.833195,N,11654.902017,W,33.7,181.8,180510,,,A*40
$GPRMC,154157.9,A,3245.807803,N,11654.903211,W,32.3,182.8,180510,,,A*41
$GPRMC,154200.9,A,3245.783904,N,11654.903032,W,29.1,181.5,180510,,,A*40
$GPRMC,154203.9,A,3245.765102,N,11654.904042,W,20.5,180.5,180510,,,A*49
$GPRMC,154206.9,A,3245.751512,N,11654.904548,W,12.5,181.1,180510,,,A*45
$GPRMC,154209.9,A,3245.744616,N,11654.904394,W,8.7,181.6,180510,,,A*70
$GPRMC,154212.9,A,3245.738897,N,11654.904056,W,5.6,187.4,180510,,,A*73
$GPRMC,154215.9,A,3245.733687,N,11654.908874,W,11.4,231.2,180510,,,A*4B
$GPRMC,154218.9,A,3245.727653,N,11654.926038,W,22.5,252.9,180510,,,A*49
$GPRMC,154221.9,A,3245.728043,N,11654.955291,W,31.5,266.6,180510,,,A*44
$GPRMC,154224.9,A,3245.727116,N,11654.994838,W,38.8,267.9,180510,,,A*41
$GPRMC,154227.9,A,3245.727592,N,11655.034252,W,37.5,270.3,180510,,,A*40
$GPRMC,154230.9,A,3245.729157,N,11655.072049,W,39.8,269.6,180510,,,A*41
$GPRMC,154233.9,A,3245.728724,N,11655.112141,W,40.9,267.2,180510,,,A*4A
$GPRMC,154236.9,A,3245.726544,N,11655.151822,W,39.2,268.7,180510,,,A*41
$GPRMC,154239.9,A,3245.727597,N,11655.187593,W,33.5,274.6,180510,,,A*4C
$GPRMC,154242.9,A,3245.734790,N,11655.209625,W,19.6,293.3,180510,,,A*4B
$GPRMC,154321.9,A,3245.734100,N,11655.215847,W,7.2,266.7,180510,,,A*72
$GPRMC,154324.9,A,3245.728207,N,11655.226578,W,14.7,218.7,180510,,,A*41
$GPRMC,154327.9,A,3245.708694,N,11655.229447,W,22.8,182.7,180510,,,A*46
$GPRMC,154330.9,A,3245.689305,N,11655.225750,W,20.8,170.5,180510,,,A*41
$GPRMC,154333.9,A,3245.675226,N,11655.221781,W,17.2,161.5,180510,,,A*47
$GPRMC,154336.9,A,3245.664041,N,11655.213019,W,16.0,145.5,180510,,,A*43
$GPRMC,154339.9,A,3245.649140,N,11655.200734,W,18.2,149.8,180510,,,A*44
$GPRMC,154342.9,A,3245.636562,N,11655.200061,W,17.0,177.6,180510,,,A*4D
$GPRMC,154345.9,A,3245.622038,N,11655.207617,W,19.5,206.2,180510,,,A*4F
$GPRMC,154348.9,A,3245.607715,N,11655.217384,W,17.0,211.4,180510,,,A*48
$GPRMC,154351.9,A,3245.598986,N,11655.225766,W,13.6,205.7,180510,,,A*4C
$GPRMC,154354.9,A,3245.590417,N,11655.222206,W,11.0,135.5,180510,,,A*46
$GPRMC,154357.9,A,3245.583401,N,11655.215572,W,11.9,166.5,180510,,,A*4F
$GPRMC,154400.9,A,3245.569902,N,11655.215866,W,17.8,185.2,180510,,,A*45
$GPRMC,154403.9,A,3245.555365,N,11655.218056,W,14.4,183.8,180510,,,A*47
$GPRMC,154557.9,A,3245.545807,N,11655.217543,W,7.1,183.6,180510,,,A*7E
$GPRMC,154600.9,A,3245.541914,N,11655.221141,W,4.8,238.3,180510,,,A*77
$GPRMC,154603.9,A,3245.546551,N,11655.224847,W,5.0,330.0,180510,,,A*77
$GPRMC,154606.9,A,3245.559276,N,11655.224165,W,12.4,0.2,180510,,,A*47
$GPRMC,154609.9,A,3245.573201,N,11655.224755,W,13.9,358.4,180510,,,A*41
$GPRMC,154612.9,A,3245.584281,N,11655.223265,W,10.2,359.2,180510,,,A*45
$GPRMC,154615.9,A,3245.588251,N,11655.224662,W,6.8,342.8,180510,,,A*7A
$GPRMC,154618.9,A,3245.601302,N,11655.223905,W,14.5,13.4,180510,,,A*7E
$GPRMC,154621.9,A,3245.614955,N,11655.214311,W,18.1,35.3,180510,,,A*78
$GPRMC,154624.9,A,3245.626799,N,11655.203956,W,17.4,25.8,180510,,,A*7D
$GPRMC,154627.9,A,3245.642866,N,11655.200376,W,17.0,5.5,180510,,,A*43
$GPRMC,154630.9,A,3245.656650,N,11655.203280,W,18.0,342.0,180510,,,A*4A
$GPRMC,154633.9,A,3245.670034,N,11655.213488,W,19.1,325.1,180510,,,A*46
$GPRMC,154636.9,A,3245.685607,N,11655.220439,W,19.9,342.7,180510,,,A*4A
$GPRMC,154639.9,A,3245.703886,N,11655.226204,W,22.4,351.2,180510,,,A*41
$GPRMC,154642.9,A,3245.717960,N,11655.225573,W,17.1,1.2,180510,,,A*40
$GPRMC,154645.9,A,3245.723626,N,11655.226782,W,5.5,341.3,180510,,,A*73
$GPRMC,154736.9,A,3245.728590,N,11655.224610,W,5.6,8.4,180510,,,A*71
$GPRMC,154739.9,A,3245.741779,N,11655.228487,W,12.8,339.3,180510,,,A*4A
$GPRMC,154742.9,A,3245.756540,N,11655.254177,W,29.8,302.6,180510,,,A*4C
$GPRMC,154745.9,A,3245.774454,N,11655.285836,W,37.3,307.7,180510,,,A*4F
$GPRMC,154748.9,A,3245.799920,N,11655.311154,W,40.5,321.0,180510,,,A*4B
$GPRMC,154751.9,A,3245.832336,N,11655.333287,W,45.5,329.6,180510,,,A*46
$GPRMC,154754.9,A,3245.870691,N,11655.356928,W,50.7,331.6,180510,,,A*4F
$GPRMC,154757.9,A,3245.911934,N,11655.376996,W,53.4,336.1,180510,,,A*4D
$GPRMC,154800.9,A,3245.949874,N,11655.400789,W,51.3,334.0,180510,,,A*48
$GPRMC,154803.9,A,3245.987779,N,11655.422224,W,49.6,331.7,180510,,,A*47
$GPRMC,154806.9,A,3246.020123,N,11655.452740,W,52.5,322.2,180510,,,A*42
$GPRMC,154809.9,A,3246.054974,N,11655.484245,W,52.5,320.5,180510,,,A*4A
$GPRMC,154812.9,A,3246.085512,N,11655.520902,W,51.8,314.9,180510,,,A*42
$GPRMC,154815.9,A,3246.111874,N,11655.561899,W,50.3,305.9,180510,,,A*48
$GPRMC,154818.9,A,3246.127679,N,11655.603190,W,45.3,292.2,180510,,,A*44
$GPRMC,154821.9,A,3246.133971,N,11655.639158,W,33.1,279.3,180510,,,A*46
$GPRMC,154824.9,A,3246.134518,N,11655.660926,W,16.7,275.4,180510,,,A*40
$GPRMC,154827.9,A,3246.134264,N,11655.668462,W,10.2,276.3,180510,,,A*4D
$GPRMC,154830.9,A,3246.135741,N,11655.686154,W,21.8,270.7,180510,,,A*42
$GPRMC,154833.9,A,3246.135998,N,11655.713599,W,30.2,271.8,180510,,,A*47
$GPRMC,154836.9,A,3246.137168,N,11655.747241,W,36.2,270.4,180510,,,A*4F
$GPRMC,154839.9,A,3246.136676,N,11655.786272,W,40.4,270.1,180510,,,A*46
$GPRMC,154842.9,A,3246.135885,N,11655.827214,W,43.2,270.5,180510,,,A*4E
$GPRMC,154845.9,A,3246.142346,N,11655.871823,W,45.9,279.0,180510,,,A*41
$GPRMC,154848.9,A,3246.150465,N,11655.915551,W,45.4,283.5,180510,,,A*4F
$GPRMC,154851.9,A,3246.163758,N,11655.958387,W,45.6,289.3,180510,,,A*40
$GPRMC,154854.9,A,3246.183419,N,11656.002803,W,50.3,299.0,180510,,,A*4C
$GPRMC,154857.9,A,3246.209437,N,11656.043363,W,52.6,305.9,180510,,,A*40
$GPRMC,154900.9,A,3246.236134,N,11656.089985,W,55.3,305.3,180510,,,A*45
$GPRMC,154903.9,A,3246.259888,N,11656.134356,W,53.9,300.7,180510,,,A*4F
$GPRMC,154906.9,A,3246.277904,N,11656.181021,W,50.8,293.6,180510,,,A*46
$GPRMC,154909.9,A,3246.290179,N,11656.224234,W,47.1,287.2,180510,,,A*46
$GPRMC,154912.9,A,3246.293964,N,11656.270878,W,47.8,275.4,180510,,,A*4A
$GPRMC,154915.9,A,3246.296678,N,11656.319162,W,48.6,275.2,180510,,,A*41
$GPRMC,154918.9,A,3246.306249,N,11656.366902,W,49.1,281.0,180510,,,A*4B
$GPRMC,154921.9,A,3246.325562,N,11656.409700,W,47.4,299.4,180510,,,A*4A
$GPRMC,154924.9,A,3246.349664,N,11656.447461,W,47.7,306.6,180510,,,A*48
$GPRMC,154927.9,A,3246.374991,N,11656.477064,W,42.6,315.4,180510,,,A*46
$GPRMC,154930.9,A,3246.404846,N,11656.502798,W,44.1,324.9,180510,,,A*42
$GPRMC,154933.9,A,3246.443899,N,11656.518880,W,48.1,340.2,180510,,,A*48
$GPRMC,154936.9,A,3246.489737,N,11656.533959,W,54.7,340.9,180510,,,A*4C
$GPRMC,154939.9,A,3246.532241,N,11656.552788,W,54.2,339.5,180510,,,A*44
$GPRMC,154942.9,A,3246.573402,N,11656.573005,W,53.7,337.3,180510,,,A*47
$GPRMC,154945.9,A,3246.620078,N,11656.599461,W,59.9,334.1,180510,,,A*4B
$GPRMC,154948.9,A,3246.662701,N,11656.629486,W,60.1,332.7,180510,,,A*4A
$GPRMC,154951.9,A,3246.707210,N,11656.656840,W,58.1,332.2,180510,,,A*45
$GPRMC,154954.9,A,3246.749075,N,11656.689282,W,58.2,325.4,180510,,,A*4E
$GPRMC,154957.9,A,3246.779917,N,11656.729918,W,58.5,311.0,180510,,,A*44
$GPRMC,155000.9,A,3246.801753,N,11656.777721,W,56.0,298.2,180510,,,A*46
$GPRMC,155003.9,A,3246.818388,N,11656.826542,W,51.3,289.4,180510,,,A*41
$GPRMC,155006.9,A,3246.825126,N,11656.867898,W,39.4,280.6,180510,,,A*41
$GPRMC,155009.9,A,3246.824655,N,11656.887214,W,15.6,275.0,180510,,,A*4C
$GPRMC,155042.9,A,3246.825928,N,11656.899207,W,9.2,266.4,180510,,,A*75
$GPRMC,155045.9,A,3246.824199,N,11656.927400,W,28.9,268.0,180510,,,A*46
$GPRMC,155048.9,A,3246.823796,N,11656.963992,W,38.3,269.9,180510,,,A*40
$GPRMC,155051.9,A,3246.823733,N,11657.005745,W,40.8,270.8,180510,,,A*46
$GPRMC,155054.9,A,3246.824424,N,11657.038504,W,28.3,270.0,180510,,,A*45
$GPRMC,155057.9,A,3246.825979,N,11657.051260,W,8.7,279.1,180510,,,A*76
$GPRMC,155103.9,A,3246.825804,N,11657.063883,W,17.4,265.8,180510,,,A*42
$GPRMC,155106.9,A,3246.825287,N,11657.091541,W,28.9,269.9,180510,,,A*44
$GPRMC,155109.9,A,3246.825861,N,11657.127062,W,37.4,269.5,180510,,,A*4E
$GPRMC,155112.9,A,3246.826169,N,11657.168377,W,42.9,269.6,180510,,,A*46
$GPRMC,155115.9,A,3246.826079,N,11657.212796,W,45.0,270.5,180510,,,A*41
$GPRMC,155118.9,A,3246.826644,N,11657.258062,W,45.5,270.1,180510,,,A*47
$GPRMC,155121.9,A,3246.825897,N,11657.302153,W,43.2,269.9,180510,,,A*42
$GPRMC,155124.9,A,3246.826919,N,11657.344753,W,40.6,271.5,180510,,,A*45
$GPRMC,155127.9,A,3246.825247,N,11657.381804,W,36.0,270.1,180510,,,A*43
$GPRMC,155130.9,A,3246.827619,N,11657.411685,W,28.2,272.8,180510,,,A*47
$GPRMC,155133.9,A,3246.827117,N,11657.430311,W,18.1,270.9,180510,,,A*45
$GPRMC,155136.9,A,3246.827126,N,11657.443101,W,10.3,271.3,180510,,,A*44
$GPRMC,155221.9,A,3246.825914,N,11657.461669,W,12.5,272.2,180510,,,A*45
$GPRMC,155224.9,A,3246.826894,N,11657.486825,W,23.3,270.6,180510,,,A*47
$GPRMC,155227.9,A,3246.827007,N,11657.512319,W,25.4,270.5,180510,,,A*4D
$GPRMC,155230.9,A,3246.826585,N,11657.535818,W,25.0,270.3,180510,,,A*48
$GPRMC,155233.9,A,3246.826027,N,11657.561618,W,28.9,270.1,180510,,,A*4F
$GPRMC,155236.9,A,3246.824461,N,11657.592010,W,30.0,268.7,180510,,,A*43
$GPRMC,155239.9,A,3246.826691,N,11657.623424,W,30.4,271.5,180510,,,A*47
$GPRMC,155242.9,A,3246.826406,N,11657.649438,W,27.9,270.1,180510,,,A*48
$GPRMC,155245.9,A,3246.825210,N,11657.676629,W,25.6,269.6,180510,,,A*41
$GPRMC,155248.9,A,3246.824861,N,11657.696437,W,18.4,271.5,180510,,,A*44
$GPRMC,155251.9,A,3246.824166,N,11657.707148,W,9.1,273.1,180510,,,A*75
$GPRMC,155306.9,A,3246.824966,N,11657.720002,W,9.8,266.1,180510,,,A*79
$GPRMC,155309.9,A,3246.823371,N,11657.732535,W,11.8,262.1,180510,,,A*42
$GPRMC,155312.9,A,3246.823850,N,11657.758886,W,26.7,271.6,180510,,,A*47
$GPRMC,155315.9,A,3246.825149,N,11657.789767,W,31.7,272.5,180510,,,A*4D
$GPRMC,155318.9,A,3246.824480,N,11657.822951,W,33.9,268.7,180510,,,A*41
$GPRMC,155321.9,A,3246.823763,N,11657.858189,W,35.2,271.3,180510,,,A*43
$GPRMC,155324.9,A,3246.824290,N,11657.890434,W,33.3,271.2,180510,,,A*49
$GPRMC,155327.9,A,3246.824675,N,11657.922903,W,32.3,269.7,180510,,,A*49
$GPRMC,155330.9,A,3246.823698,N,11657.953664,W,30.7,269.6,180510,,,A*44
$GPRMC,155333.2,A,3246.824452,N,11657.976121,W,30.0,270.7,180510,,,A*40
$GPRMC,155336.2,A,3246.825543,N,11658.004200,W,27.7,270.5,180510,,,A*45
$GPRMC,155339.2,A,3246.825495,N,11658.028137,W,21.1,270.1,180510,,,A*4D
$GPRMC,155342.9,A,3246.825216,N,11658.053034,W,19.8,270.0,180510,,,A*4A
$GPRMC,155345.9,A,3246.825846,N,11658.073176,W,20.5,271.2,180510,,,A*43
$GPRMC,155348.9,A,3246.824640,N,11658.096477,W,23.4,269.2,180510,,,A*43
$GPRMC,155351.9,A,3246.824609,N,11658.117893,W,22.0,272.2,180510,,,A*47
$GPRMC,155354.9,A,3246.823440,N,11658.140615,W,24.7,268.4,180510,,,A*44
$GPRMC,155357.9,A,3246.825381,N,11658.166169,W,22.6,274.7,180510,,,A*4A
$GPRMC,155400.9,A,3246.827209,N,11658.186014,W,21.8,274.2,180510,,,A*41
$GPRMC,155403.9,A,3246.826934,N,11658.210100,W,24.8,269.8,180510,,,A*4D
$GPRMC,155406.9,A,3246.827859,N,11658.235725,W,26.5,272.2,180510,,,A*4A
$GPRMC,155409.9,A,3246.828887,N,11658.266300,W,30.3,271.2,180510,,,A*4E
$GPRMC,155412.9,A,3246.829011,N,11658.295646,W,30.1,270.2,180510,,,A*4A
$GPRMC,155415.9,A,3246.827747,N,11658.328077,W,34.1,269.6,180510,,,A*4C
$GPRMC,155418.9,A,3246.827621,N,11658.361753,W,35.2,269.5,180510,,,A*4D
$GPRMC,155421.9,A,3246.827992,N,11658.398969,W,37.5,271.3,180510,,,A*4B
$GPRMC,155424.9,A,3246.828107,N,11658.434790,W,36.4,273.3,180510,,,A*4E
$GPRMC,155427.9,A,3246.835879,N,11658.470845,W,36.0,287.4,180510,,,A*4E
$GPRMC,155430.9,A,3246.853575,N,11658.498614,W,36.2,302.6,180510,,,A*49
$GPRMC,155433.9,A,3246.869598,N,11658.527576,W,33.8,302.5,180510,,,A*4E
$GPRMC,155436.9,A,3246.886728,N,11658.555114,W,33.4,306.0,180510,,,A*4B
$GPRMC,155439.9,A,3246.900715,N,11658.582682,W,34.2,303.0,180510,,,A*43
$GPRMC,155442.9,A,3246.915178,N,11658.611881,W,33.6,301.8,180510,,,A*4B
$GPRMC,155445.9,A,3246.929694,N,11658.638945,W,31.3,303.5,180510,,,A*4C
$GPRMC,155448.9,A,3246.942156,N,11658.661785,W,28.4,303.2,180510,,,A*43
$GPRMC,155451.9,A,3246.954097,N,11658.684264,W,24.3,303.5,180510,,,A*4D
$GPRMC,155454.9,A,3246.963195,N,11658.700292,W,17.1,305.0,180510,,,A*4A
$GPRMC,155457.9,A,3246.970141,N,11658.711461,W,15.2,304.0,180510,,,A*48
$GPRMC,155500.9,A,3246.976767,N,11658.724234,W,17.6,302.4,180510,,,A*4B
$GPRMC,155503.9,A,3246.985092,N,11658.744817,W,22.4,301.7,180510,,,A*40
$GPRMC,155506.9,A,3246.991888,N,11658.763973,W,22.3,280.5,180510,,,A*48
$GPRMC,155509.9,A,3246.983691,N,11658.785777,W,25.9,243.3,180510,,,A*44
$GPRMC,155512.9,A,3246.971180,N,11658.811249,W,30.0,240.8,180510,,,A*4B
$GPRMC,155515.9,A,3246.960407,N,11658.838626,W,31.6,246.1,180510,,,A*48
$GPRMC,155518.9,A,3246.950529,N,11658.867795,W,30.9,249.2,180510,,,A*4A
$GPRMC,155521.2,A,3246.943945,N,11658.882634,W,20.9,241.8,180510,,,A*4D
$GPRMC,155524.2,A,3246.938723,N,11658.893169,W,10.9,244.2,180510,,,A*49
$GPRMC,155527.2,A,3246.936975,N,11658.899534,W,5.8,246.1,180510,,,A*7B
$GPRMC,155530.2,A,3246.932860,N,11658.907252,W,10.9,238.0,180510,,,A*40
$GPRMC,155533.9,A,3246.925290,N,11658.923611,W,16.5,238.7,180510,,,A*43
$GPRMC,155536.2,A,3246.912507,N,11658.933404,W,25.5,206.6,180510,,,A*4B
$GPRMC,155539.2,A,3246.891515,N,11658.945520,W,29.7,205.8,180510,,,A*48
$GPRMC,155542.2,A,3246.867724,N,11658.960286,W,32.4,210.1,180510,,,A*45
$GPRMC,155545.2,A,3246.848370,N,11658.974445,W,23.4,214.5,180510,,,A*46
$GPRMC,155549.2,A,3246.831501,N,11658.990336,W,15.7,216.6,180510,,,A*4A
$GPRMC,155552.9,A,3246.823890,N,11659.001504,W,12.1,239.7,180510,,,A*47
$GPRMC,155555.9,A,3246.821105,N,11659.002157,W,4.7,219.2,180510,,,A*70
$GPRMC,155613.9,A,3246.806610,N,11659.017118,W,9.6,227.5,180510,,,A*7E
$GPRMC,155616.9,A,3246.799031,N,11659.031055,W,19.7,231.4,180510,,,A*4D
$GPRMC,155619.9,A,3246.786974,N,11659.049058,W,25.7,235.6,180510,,,A*4F
$GPRMC,155622.9,A,3246.774684,N,11659.076788,W,32.4,244.5,180510,,,A*4C
$GPRMC,155625.9,A,3246.763173,N,11659.111049,W,37.3,248.2,180510,,,A*41
$GPRMC,155628.9,A,3246.754406,N,11659.151208,W,41.9,256.6,180510,,,A*4C
$GPRMC,155631.9,A,3246.748756,N,11659.194550,W,42.0,260.9,180510,,,A*4C
$GPRMC,155634.9,A,3246.748701,N,11659.244881,W,50.7,269.7,180510,,,A*47
$GPRMC,155637.9,A,3246.750790,N,11659.297087,W,52.5,272.2,180510,,,A*4A
$GPRMC,155640.9,A,3246.750342,N,11659.343583,W,46.1,269.9,180510,,,A*48
$GPRMC,155643.9,A,3246.751814,N,11659.389895,W,47.3,270.3,180510,,,A*4F
$GPRMC,155646.9,A,3246.752427,N,11659.438304,W,50.8,271.9,180510,,,A*4D
$GPRMC,155649.9,A,3246.755410,N,11659.490687,W,53.4,273.0,180510,,,A*49
$GPRMC,155652.9,A,3246.755503,N,11659.543027,W,51.2,270.6,180510,,,A*42
$GPRMC,155655.9,A,3246.756221,N,11659.589991,W,49.4,271.8,180510,,,A*43
$GPRMC,155658.9,A,3246.758404,N,11659.639171,W,49.4,273.2,180510,,,A*47
$GPRMC,155701.9,A,3246.759718,N,11659.691745,W,53.1,272.4,180510,,,A*4F
$GPRMC,155704.2,A,3246.761689,N,11659.732219,W,54.2,271.8,180510,,,A*4C
$GPRMC,155707.2,A,3246.763102,N,11659.787475,W,58.2,272.4,180510,,,A*48
$GPRMC,155710.2,A,3246.765498,N,11659.846476,W,60.6,272.9,180510,,,A*4D
$GPRMC,155713.2,A,3246.766807,N,11659.907782,W,61.4,268.7,180510,,,A*4D
$GPRMC,155716.2,A,3246.762894,N,11659.968616,W,62.2,261.5,180510,,,A*4D
$GPRMC,155719.9,A,3246.749965,N,11700.042359,W,62.6,255.9,180510,,,A*42
$GPRMC,155722.9,A,3246.728703,N,11700.098834,W,62.6,245.4,180510,,,A*48
$GPRMC,155725.9,A,3246.701539,N,11700.153080,W,63.6,237.9,180510,,,A*47
$GPRMC,155728.9,A,3246.668382,N,11700.206331,W,64.1,232.8,180510,,,A*4C
$GPRMC,155731.2,A,3246.645445,N,11700.250358,W,68.3,239.9,180510,,,A*44
$GPRMC,155734.2,A,3246.624858,N,11700.317243,W,70.8,247.5,180510,,,A*48
$GPRMC,155737.9,A,3246.598171,N,11700.400236,W,73.5,248.2,180510,,,A*43
$GPRMC,155740.9,A,3246.574333,N,11700.466797,W,73.1,247.2,180510,,,A*40
$GPRMC,155743.9,A,3246.551706,N,11700.533680,W,73.6,247.6,180510,,,A*43
$GPRMC,155746.9,A,3246.528694,N,11700.601535,W,74.8,247.9,180510,,,A*4B
$GPRMC,155749.9,A,3246.505074,N,11700.669101,W,73.4,247.6,180510,,,A*4A
$GPRMC,155752.2,A,3246.486382,N,11700.719814,W,72.6,246.8,180510,,,A*4C
$GPRMC,155755.9,A,3246.456555,N,11700.805505,W,77.2,246.4,180510,,,A*43
$GPRMC,155758.9,A,3246.430297,N,11700.872803,W,73.8,245.4,180510,,,A*41
$GPRMC,155801.9,A,3246.405718,N,11700.937229,W,70.1,244.7,180510,,,A*4C
$GPRMC,155804.2,A,3246.384953,N,11700.983234,W,69.6,241.1,180510,,,A*42
$GPRMC,155807.9,A,3246.348286,N,11701.056807,W,71.3,240.9,180510,,,A*46
$GPRMC,155810.9,A,3246.316029,N,11701.118106,W,72.3,238.8,180510,,,A*42
$GPRMC,155814.2,A,3246.288388,N,11701.183758,W,67.9,244.9,180510,,,A*48
$GPRMC,155817.9,A,3246.268631,N,11701.252806,W,57.3,251.9,180510,,,A*4F
$GPRMC,155820.9,A,3246.261053,N,11701.307195,W,55.4,260.4,180510,,,A*48
$GPRMC,155823.9,A,3246.258402,N,11701.359924,W,54.3,266.5,180510,,,A*49
$GPRMC,155826.9,A,3246.261927,N,11701.414010,W,53.1,273.6,180510,,,A*4E
$GPRMC,155829.9,A,3246.267981,N,11701.466549,W,53.2,277.3,180510,,,A*45
$GPRMC,155832.9,A,3246.283225,N,11701.520364,W,55.7,287.1,180510,,,A*44
$GPRMC,155835.9,A,3246.302294,N,11701.569312,W,53.9,296.0,180510,,,A*44
$GPRMC,155838.9,A,3246.324831,N,11701.614937,W,53.9,297.8,180510,,,A*45
$GPRMC,155841.2,A,3246.340833,N,11701.652134,W,53.1,297.0,180510,,,A*49
$GPRMC,155844.9,A,3246.369128,N,11701.724142,W,63.9,295.2,180510,,,A*45
$GPRMC,155847.9,A,3246.392957,N,11701.781141,W,64.2,296.5,180510,,,A*46
$GPRMC,155850.9,A,3246.418829,N,11701.838694,W,66.5,297.2,180510,,,A*4C
$GPRMC,155853.9,A,3246.437840,N,11701.902242,W,69.6,287.9,180510,,,A*4C
$GPRMC,155856.9,A,3246.447372,N,11701.973904,W,73.8,277.1,180510,,,A*49
$GPRMC,155859.9,A,3246.445715,N,11702.046268,W,72.9,267.0,180510,,,A*4C
$GPRMC,155902.9,A,3246.433344,N,11702.114787,W,70.2,259.8,180510,,,A*4C
$GPRMC,155905.9,A,3246.415796,N,11702.184625,W,72.5,255.0,180510,,,A*45
$GPRMC,155908.9,A,3246.396979,N,11702.251494,W,72.9,253.2,180510,,,A*40
$GPRMC,155911.9,A,3246.377013,N,11702.322103,W,74.3,251.8,180510,,,A*48
$GPRMC,155914.9,A,3246.361670,N,11702.393354,W,72.9,256.1,180510,,,A*41
$GPRMC,155917.9,A,3246.357546,N,11702.464703,W,72.4,267.6,180510,,,A*40
$GPRMC,155920.9,A,3246.362444,N,11702.536289,W,72.5,276.7,180510,,,A*40
$GPRMC,155923.2,A,3246.376058,N,11702.589998,W,69.9,286.2,180510,,,A*47
$GPRMC,155926.9,A,3246.406840,N,11702.672538,W,73.7,296.2,180510,,,A*4D
$GPRMC,155929.9,A,3246.442641,N,11702.736171,W,75.4,301.7,180510,,,A*4A
$GPRMC,155932.9,A,3246.475338,N,11702.799211,W,76.1,301.1,180510,,,A*4F
$GPRMC,155935.9,A,3246.510110,N,11702.863261,W,76.4,301.6,180510,,,A*4D
$GPRMC,155938.9,A,3246.542727,N,11702.927206,W,75.0,299.8,180510,,,A*4C
$GPRMC,155941.9,A,3246.566877,N,11702.991840,W,72.2,294.8,180510,,,A*43
$GPRMC,155944.9,A,3246.590132,N,11703.061159,W,74.7,291.4,180510,,,A*4B
$GPRMC,155947.9,A,3246.609378,N,11703.129512,W,73.9,287.5,180510,,,A*4E
$GPRMC,155950.9,A,3246.626134,N,11703.207290,W,79.6,283.8,180510,,,A*41
$GPRMC,155953.9,A,3246.640915,N,11703.281893,W,77.9,283.0,180510,,,A*47
$GPRMC,155956.9,A,3246.653837,N,11703.356556,W,76.7,282.3,180510,,,A*43
$GPRMC,155959.9,A,3246.671011,N,11703.431279,W,78.3,283.6,180510,,,A*42
$GPRMC,160002.9,A,3246.685232,N,11703.506106,W,78.9,284.0,180510,,,A*4E
$GPRMC,160005.9,A,3246.705538,N,11703.583195,W,80.5,286.9,180510,,,A*4A
$GPRMC,160008.9,A,3246.726393,N,11703.657862,W,79.1,288.1,180510,,,A*4E
$GPRMC,160011.9,A,3246.748075,N,11703.730611,W,77.5,289.0,180510,,,A*45
$GPRMC,160014.9,A,3246.765205,N,11703.801899,W,74.5,286.2,180510,,,A*47
$GPRMC,160017.9,A,3246.771582,N,11703.873656,W,73.4,274.2,180510,,,A*4A
$GPRMC,160020.9,A,3246.768458,N,11703.945176,W,72.5,268.1,180510,,,A*4F
$GPRMC,160023.9,A,3246.767022,N,11704.016931,W,72.9,268.2,180510,,,A*46
$GPRMC,160026.9,A,3246.764138,N,11704.091353,W,73.6,267.1,180510,,,A*49
$GPRMC,160029.9,A,3246.759310,N,11704.162000,W,72.7,266.5,180510,,,A*4D
$GPRMC,160032.2,A,3246.759922,N,11704.220110,W,74.7,268.9,180510,,,A*46
$GPRMC,160035.2,A,3246.760172,N,11704.294154,W,75.7,269.6,180510,,,A*46
$GPRMC,160038.2,A,3246.761319,N,11704.368324,W,75.6,271.8,180510,,,A*44
$GPRMC,160041.9,A,3246.765477,N,11704.461266,W,76.6,273.9,180510,,,A*43
$GPRMC,160044.9,A,3246.770436,N,11704.538195,W,78.6,276.0,180510,,,A*47
$GPRMC,160047.9,A,3246.781416,N,11704.612798,W,75.7,279.0,180510,,,A*4B
$GPRMC,160050.9,A,3246.795209,N,11704.690541,W,79.4,279.8,180510,,,A*4B
$GPRMC,160053.9,A,3246.805980,N,11704.766829,W,78.7,280.0,180510,,,A*43
$GPRMC,160056.9,A,3246.817439,N,11704.842089,W,75.6,278.3,180510,,,A*49
$GPRMC,160100.2,A,3246.830392,N,11704.925590,W,76.4,279.2,180510,,,A*4F
$GPRMC,160103.0,A,3246.844221,N,11704.994016,W,77.1,281.7,180510,,,A*43
$GPRMC,160106.9,A,3246.864416,N,11705.091812,W,76.3,281.4,180510,,,A*4E
$GPRMC,160109.9,A,3246.868159,N,11705.165824,W,76.2,274.7,180510,,,A*44
$GPRMC,160112.9,A,3246.863866,N,11705.240820,W,77.2,267.2,180510,,,A*46
$GPRMC,160115.9,A,3246.856303,N,11705.316975,W,77.7,264.0,180510,,,A*48
$GPRMC,160118.9,A,3246.848824,N,11705.392501,W,77.2,264.2,180510,,,A*40
$GPRMC,160121.9,A,3246.842824,N,11705.466775,W,73.7,264.1,180510,,,A*4F
$GPRMC,160125.2,A,3246.836034,N,11705.540267,W,66.6,263.0,180510,,,A*4A
