NMEA Sentence Code,UTC Time,Status,Latitude,Latitude Direction,Longitude,Longitude Direction,Speed (knots),Track Angle (degrees true),Date,MagneticVariation,Magnetic Variation Direction,[FAA Mode]-Optional,Checksum
$GPRMC,010845.000,A,3256.0165,N,11714.1799,W,13.22,346.7,201110,,*1A
$GPRMC,010848.000,A,3256.0258,N,11714.1830,W,10.95,344.3,201110,,*1F
$GPRMC,010851.000,A,3256.0355,N,11714.1851,W,14.38,3.4,201110,,*18
$GPRMC,010854.000,A,3256.0440,N,11714.1750,W,18.40,58.9,201110,,*20
$GPRMC,010857.000,A,3256.0531,N,11714.1539,W,27.78,60.4,201110,,*28
$GPRMC,010900.000,A,3256.0682,N,11714.1258,W,36.30,56.3,201110,,*2E
$GPRMC,010903.000,A,3256.0856,N,11714.0914,W,41.51,59.3,201110,,*20
$GPRMC,010906.000,A,3256.1021,N,11714.0535,W,41.58,62.8,201110,,*29
$GPRMC,010909.000,A,3256.1175,N,11714.0148,W,43.02,65.0,201110,,*2A
$GPRMC,010912.000,A,3256.1332,N,11713.9736,W,46.72,65.4,201110,,*26
$GPRMC,010915.000,A,3256.1501,N,11713.9296,W,50.10,65.7,201110,,*28
$GPRMC,010918.000,A,3256.1684,N,11713.8823,W,54.42,65.5,201110,,*2F
$GPRMC,010921.000,A,3256.1880,N,11713.8324,W,55.69,65.3,201110,,*2D
$GPRMC,010924.000,A,3256.2075,N,11713.7840,W,52.06,64.0,201110,,*23
$GPRMC,010927.000,A,3256.2268,N,11713.7393,W,49.29,62.7,201110,,*2D
$GPRMC,010930.000,A,3256.2452,N,11713.6957,W,49.17,63.9,201110,,*25
$GPRMC,010933.000,A,3256.2606,N,11713.6521,W,46.78,68.3,201110,,*2F
$GPRMC,010936.000,A,3256.2714,N,11713.6092,W,45.69,71.7,201110,,*2A
$GPRMC,010939.000,A,3256.2813,N,11713.5651,W,47.37,73.0,201110,,*2B
$GPRMC,010942.000,A,3256.2919,N,11713.5206,W,47.17,73.4,201110,,*2C
$GPRMC,010945.000,A,3256.3044,N,11713.4770,W,47.23,69.7,201110,,*21
$GPRMC,010948.000,A,3256.3214,N,11713.4341,W,48.85,63.7,201110,,*24
$GPRMC,010951.000,A,3256.3420,N,11713.3922,W,49.61,58.3,201110,,*22
$GPRMC,010954.000,A,3256.3663,N,11713.3504,W,53.22,55.5,201110,,*2D
$GPRMC,010957.000,A,3256.3926,N,11713.3042,W,59.89,55.9,201110,,*20
$GPRMC,011000.000,A,3256.4217,N,11713.2518,W,64.41,57.9,201110,,*27
$GPRMC,011003.000,A,3256.4461,N,11713.1939,W,63.33,64.9,201110,,*2D
$GPRMC,011006.000,A,3256.4661,N,11713.1361,W,62.03,67.4,201110,,*21
$GPRMC,011009.000,A,3256.4856,N,11713.0802,W,59.37,67.7,201110,,*27
$GPRMC,011012.000,A,3256.5051,N,11713.0263,W,57.41,66.3,201110,,*24
$GPRMC,011015.000,A,3256.5289,N,11712.9770,W,56.01,59.5,201110,,*24
$GPRMC,011018.000,A,3256.5566,N,11712.9338,W,53.42,51.6,201110,,*2E
$GPRMC,011021.000,A,3256.5880,N,11712.8943,W,55.82,46.9,201110,,*25
$GPRMC,011024.000,A,3256.6206,N,11712.8537,W,57.12,46.6,201110,,*2C
$GPRMC,011027.000,A,3256.6519,N,11712.8112,W,55.72,49.7,201110,,*2F
$GPRMC,011030.000,A,3256.6773,N,11712.7676,W,52.19,56.8,201110,,*26
$GPRMC,011033.000,A,3256.6965,N,11712.7233,W,48.81,64.1,201110,,*2B
$GPRMC,011036.000,A,3256.7114,N,11712.6795,W,45.82,67.4,201110,,*21
$GPRMC,011039.000,A,3256.7258,N,11712.6391,W,43.26,67.1,201110,,*28
$GPRMC,011042.000,A,3256.7391,N,11712.6026,W,37.82,66.6,201110,,*24
$GPRMC,011045.000,A,3256.7504,N,11712.5694,W,35.67,67.7,201110,,*2C
$GPRMC,011048.000,A,3256.7617,N,11712.5361,W,36.87,67.7,201110,,*22
$GPRMC,011051.000,A,3256.7733,N,11712.5026,W,35.83,67.5,201110,,*28
$GPRMC,011054.000,A,3256.7849,N,11712.4695,W,37.67,66.5,201110,,*29
$GPRMC,011057.000,A,3256.7989,N,11712.4343,W,40.41,64.2,201110,,*28
$GPRMC,011100.000,A,3256.8145,N,11712.3998,W,37.82,61.4,201110,,*2B
$GPRMC,011103.000,A,3256.8300,N,11712.3690,W,36.02,58.8,201110,,*23
$GPRMC,011106.000,A,3256.8461,N,11712.3383,W,38.31,56.5,201110,,*2C
$GPRMC,011109.000,A,3256.8640,N,11712.3064,W,39.38,55.1,201110,,*27
$GPRMC,011112.000,A,3256.8827,N,11712.2746,W,40.79,54.8,201110,,*27
$GPRMC,011115.000,A,3256.9023,N,11712.2414,W,39.28,55.0,201110,,*2A
$GPRMC,011118.000,A,3256.9198,N,11712.2106,W,35.24,56.4,201110,,*27
$GPRMC,011121.000,A,3256.9348,N,11712.1829,W,32.27,58.1,201110,,*2A
$GPRMC,011124.000,A,3256.9493,N,11712.1535,W,36.60,60.8,201110,,*2B
$GPRMC,011127.000,A,3256.9638,N,11712.1193,W,40.42,62.8,201110,,*20
$GPRMC,011130.000,A,3256.9786,N,11712.0815,W,43.87,65.2,201110,,*23
$GPRMC,011133.000,A,3256.9920,N,11712.0407,W,43.62,68.1,201110,,*28
$GPRMC,011136.000,A,3257.0054,N,11711.9999,W,45.43,68.5,201110,,*2E
$GPRMC,011139.000,A,3257.0197,N,11711.9570,W,46.95,68.1,201110,,*28
$GPRMC,011142.000,A,3257.0341,N,11711.9135,W,46.98,68.3,201110,,*27
$GPRMC,011145.000,A,3257.0480,N,11711.8706,W,46.28,68.4,201110,,*21
$GPRMC,011148.000,A,3257.0625,N,11711.8265,W,49.24,68.7,201110,,*21
$GPRMC,011151.000,A,3257.0777,N,11711.7795,W,51.85,68.8,201110,,*27
$GPRMC,011154.000,A,3257.0939,N,11711.7313,W,53.71,68.5,201110,,*28
$GPRMC,011157.000,A,3257.1109,N,11711.6808,W,55.96,68.4,201110,,*2F
$GPRMC,011200.000,A,3257.1284,N,11711.6283,W,57.78,68.1,201110,,*26
$GPRMC,011203.000,A,3257.1462,N,11711.5755,W,56.37,68.4,201110,,*29
$GPRMC,011206.000,A,3257.1629,N,11711.5243,W,54.03,68.3,201110,,*21
$GPRMC,011209.000,A,3257.1795,N,11711.4755,W,52.72,67.9,201110,,*2E
$GPRMC,011212.000,A,3257.1971,N,11711.4275,W,51.91,65.5,201110,,*27
$GPRMC,011215.000,A,3257.2168,N,11711.3823,W,51.84,62.3,201110,,*28
$GPRMC,011218.000,A,3257.2387,N,11711.3388,W,51.10,58.8,201110,,*23
$GPRMC,011221.000,A,3257.2623,N,11711.2968,W,51.71,55.4,201110,,*21
$GPRMC,011224.000,A,3257.2889,N,11711.2563,W,51.28,51.5,201110,,*24
$GPRMC,011227.000,A,3257.3176,N,11711.2186,W,50.02,48.1,201110,,*25
$GPRMC,011230.000,A,3257.3461,N,11711.1843,W,46.80,44.7,201110,,*24
$GPRMC,011233.000,A,3257.3750,N,11711.1535,W,46.60,41.8,201110,,*2E
$GPRMC,011236.000,A,3257.4049,N,11711.1252,W,45.32,38.2,201110,,*25
$GPRMC,011239.000,A,3257.4356,N,11711.0999,W,43.67,35.1,201110,,*22
$GPRMC,011242.000,A,3257.4665,N,11711.0769,W,43.71,32.2,201110,,*29
$GPRMC,011245.000,A,3257.4982,N,11711.0560,W,43.21,29.0,201110,,*2E
$GPRMC,011248.000,A,3257.5299,N,11711.0370,W,42.32,26.7,201110,,*2F
$GPRMC,011251.000,A,3257.5625,N,11711.0185,W,44.61,26.0,201110,,*2B
$GPRMC,011254.000,A,3257.5966,N,11710.9991,W,46.91,26.0,201110,,*2E
$GPRMC,011257.000,A,3257.6326,N,11710.9786,W,48.70,26.0,201110,,*29
$GPRMC,011300.000,A,3257.6694,N,11710.9575,W,48.06,26.0,201110,,*29
$GPRMC,011303.000,A,3257.7059,N,11710.9358,W,50.23,26.4,201110,,*2F
$GPRMC,011306.000,A,3257.7440,N,11710.9118,W,50.52,29.5,201110,,*28
$GPRMC,011309.000,A,3257.7795,N,11710.8852,W,50.91,33.0,201110,,*2B
$GPRMC,011312.000,A,3257.8128,N,11710.8549,W,48.94,38.1,201110,,*2F
$GPRMC,011315.000,A,3257.8434,N,11710.8231,W,49.61,42.0,201110,,*2F
$GPRMC,011318.000,A,3257.8711,N,11710.7887,W,46.50,46.2,201110,,*25
$GPRMC,011321.000,A,3257.8935,N,11710.7574,W,38.42,49.3,201110,,*22
$GPRMC,011324.000,A,3257.9139,N,11710.7266,W,42.27,50.9,201110,,*2A
$GPRMC,011327.000,A,3257.9361,N,11710.6904,W,47.78,55.4,201110,,*2F
$GPRMC,011330.000,A,3257.9567,N,11710.6482,W,50.39,59.9,201110,,*28
$GPRMC,011333.000,A,3257.9752,N,11710.6016,W,51.51,64.9,201110,,*27
$GPRMC,011336.000,A,3257.9900,N,11710.5529,W,53.32,70.0,201110,,*2A
$GPRMC,011339.000,A,3258.0024,N,11710.5012,W,55.09,74.6,201110,,*2D
$GPRMC,011342.000,A,3258.0116,N,11710.4483,W,53.44,79.4,201110,,*2C
$GPRMC,011345.000,A,3258.0170,N,11710.3968,W,51.52,83.8,201110,,*28
$GPRMC,011348.000,A,3258.0190,N,11710.3459,W,52.01,88.3,201110,,*21
$GPRMC,011351.000,A,3258.0172,N,11710.2943,W,51.74,92.6,201110,,*2D
$GPRMC,011354.000,A,3258.0126,N,11710.2434,W,51.85,96.9,201110,,*21
$GPRMC,011357.000,A,3258.0042,N,11710.1932,W,52.12,101.1,201110,,*13
$GPRMC,011400.000,A,3257.9923,N,11710.1427,W,54.44,105.8,201110,,*1F
$GPRMC,011403.000,A,3257.9772,N,11710.0918,W,55.28,110.1,201110,,*10
$GPRMC,011406.000,A,3257.9583,N,11710.0412,W,56.28,114.9,201110,,*11
$GPRMC,011409.000,A,3257.9362,N,11709.9931,W,54.96,118.6,201110,,*1E
$GPRMC,011412.000,A,3257.9134,N,11709.9459,W,56.18,119.6,201110,,*13
$GPRMC,011415.000,A,3257.8900,N,11709.8975,W,57.11,119.5,201110,,*13
$GPRMC,011418.000,A,3257.8665,N,11709.8481,W,57.76,119.6,201110,,*16
$GPRMC,011421.000,A,3257.8423,N,11709.7982,W,58.21,119.8,201110,,*1E
$GPRMC,011424.000,A,3257.8181,N,11709.7479,W,58.73,119.7,201110,,*17
$GPRMC,011427.000,A,3257.7937,N,11709.6975,W,58.50,119.6,201110,,*1E
$GPRMC,011430.000,A,3257.7697,N,11709.6473,W,58.63,119.4,201110,,*14
$GPRMC,011433.000,A,3257.7457,N,11709.5968,W,58.88,119.7,201110,,*1B
$GPRMC,011436.000,A,3257.7215,N,11709.5470,W,58.35,119.8,201110,,*13
$GPRMC,011439.000,A,3257.6976,N,11709.4969,W,58.46,119.6,201110,,*1D
$GPRMC,011442.000,A,3257.6737,N,11709.4471,W,58.56,119.8,201110,,*11
$GPRMC,011445.000,A,3257.6482,N,11709.3970,W,59.30,120.9,201110,,*1A
$GPRMC,011448.000,A,3257.6233,N,11709.3462,W,58.80,120.3,201110,,*15
$GPRMC,011451.000,A,3257.5991,N,11709.2964,W,58.26,120.1,201110,,*19
$GPRMC,011454.000,A,3257.5740,N,11709.2482,W,55.99,122.7,201110,,*16
$GPRMC,011457.000,A,3257.5475,N,11709.2045,W,52.98,126.3,201110,,*19
$GPRMC,011500.000,A,3257.5197,N,11709.1632,W,53.92,129.3,201110,,*12
$GPRMC,011503.000,A,3257.4899,N,11709.1231,W,53.06,132.2,201110,,*16
$GPRMC,011506.000,A,3257.4592,N,11709.0863,W,53.52,135.4,201110,,*19
$GPRMC,011509.000,A,3257.4258,N,11709.0486,W,56.54,136.4,201110,,*10
$GPRMC,011512.000,A,3257.3914,N,11709.0097,W,55.88,135.3,201110,,*1C
$GPRMC,011515.000,A,3257.3602,N,11708.9691,W,54.73,131.9,201110,,*10
$GPRMC,011518.000,A,3257.3318,N,11708.9275,W,54.37,128.1,201110,,*1D
$GPRMC,011521.000,A,3257.3059,N,11708.8837,W,54.60,124.5,201110,,*16
$GPRMC,011524.000,A,3257.2827,N,11708.8379,W,53.42,120.4,201110,,*10
$GPRMC,011527.000,A,3257.2624,N,11708.7914,W,52.60,116.9,201110,,*19
$GPRMC,011530.000,A,3257.2451,N,11708.7458,W,49.47,113.8,201110,,*11
$GPRMC,011533.000,A,3257.2311,N,11708.7014,W,47.82,110.4,201110,,*15
$GPRMC,011536.000,A,3257.2192,N,11708.6573,W,46.49,107.4,201110,,*1C
$GPRMC,011539.000,A,3257.2108,N,11708.6141,W,43.55,103.7,201110,,*1A
$GPRMC,011542.000,A,3257.2039,N,11708.5727,W,42.77,100.7,201110,,*12
$GPRMC,011545.000,A,3257.1989,N,11708.5298,W,43.46,97.6,201110,,*28
$GPRMC,011548.000,A,3257.1958,N,11708.4877,W,43.12,95.3,201110,,*25
$GPRMC,011551.000,A,3257.1934,N,11708.4435,W,46.42,93.8,201110,,*20
$GPRMC,011554.000,A,3257.1911,N,11708.3966,W,48.06,93.8,201110,,*20
$GPRMC,011557.000,A,3257.1888,N,11708.3484,W,49.26,92.6,201110,,*2F
$GPRMC,011600.000,A,3257.1883,N,11708.2993,W,49.92,90.9,201110,,*2D
$GPRMC,011603.000,A,3257.1887,N,11708.2495,W,50.83,89.7,201110,,*2F
$GPRMC,011606.000,A,3257.1897,N,11708.1990,W,51.57,88.5,201110,,*2B
$GPRMC,011609.000,A,3257.1916,N,11708.1477,W,52.51,87.6,201110,,*21
$GPRMC,011612.000,A,3257.1940,N,11708.0952,W,53.72,86.6,201110,,*22
$GPRMC,011615.000,A,3257.1977,N,11708.0414,W,54.80,85.4,201110,,*25
$GPRMC,011618.000,A,3257.2020,N,11707.9869,W,55.79,84.3,201110,,*21
$GPRMC,011621.000,A,3257.2078,N,11707.9310,W,56.91,83.2,201110,,*20
$GPRMC,011624.000,A,3257.2143,N,11707.8751,W,57.78,82.0,201110,,*29
$GPRMC,011627.000,A,3257.2222,N,11707.8187,W,58.05,80.6,201110,,*22
$GPRMC,011630.000,A,3257.2304,N,11707.7622,W,58.19,79.9,201110,,*22
$GPRMC,011633.000,A,3257.2398,N,11707.7061,W,57.59,78.7,201110,,*21
$GPRMC,011636.000,A,3257.2496,N,11707.6519,W,53.97,78.2,201110,,*25
$GPRMC,011639.000,A,3257.2590,N,11707.6017,W,50.52,76.8,201110,,*28
$GPRMC,011642.000,A,3257.2693,N,11707.5534,W,50.04,75.8,201110,,*23
$GPRMC,011645.000,A,3257.2801,N,11707.5051,W,50.92,74.7,201110,,*26
$GPRMC,011648.000,A,3257.2913,N,11707.4590,W,44.65,73.9,201110,,*24
$GPRMC,011651.000,A,3257.3016,N,11707.4201,W,39.12,72.2,201110,,*2E
$GPRMC,011654.000,A,3257.3119,N,11707.3851,W,37.87,71.3,201110,,*2D
$GPRMC,011657.000,A,3257.3231,N,11707.3483,W,41.48,70.5,201110,,*21
$GPRMC,011700.000,A,3257.3357,N,11707.3082,W,45.69,69.4,201110,,*28
$GPRMC,011703.000,A,3257.3507,N,11707.2651,W,48.63,66.9,201110,,*24
$GPRMC,011706.000,A,3257.3654,N,11707.2190,W,51.22,68.6,201110,,*22
$GPRMC,011709.000,A,3257.3809,N,11707.1724,W,50.60,67.7,201110,,*28
$GPRMC,011712.000,A,3257.3964,N,11707.1267,W,50.68,68.2,201110,,*28
$GPRMC,011715.000,A,3257.4106,N,11707.0787,W,52.07,71.3,201110,,*2C
$GPRMC,011718.000,A,3257.4226,N,11707.0311,W,48.77,73.1,201110,,*27
$GPRMC,011721.000,A,3257.4328,N,11706.9871,W,43.55,75.9,201110,,*22
$GPRMC,011724.000,A,3257.4388,N,11706.9469,W,39.67,81.0,201110,,*26
$GPRMC,011727.000,A,3257.4407,N,11706.9098,W,37.28,86.0,201110,,*2D
$GPRMC,011730.000,A,3257.4406,N,11706.8740,W,36.44,90.0,201110,,*25
$GPRMC,011733.000,A,3257.4399,N,11706.8394,W,32.59,90.3,201110,,*21
$GPRMC,011736.000,A,3257.4417,N,11706.8119,W,22.40,81.5,201110,,*2D
$GPRMC,011739.000,A,3257.4460,N,11706.7932,W,19.70,74.1,201110,,*29
$GPRMC,011742.000,A,3257.4508,N,11706.7740,W,21.00,71.9,201110,,*20
$GPRMC,011745.000,A,3257.4579,N,11706.7584,W,15.75,54.1,201110,,*21
$GPRMC,011748.000,A,3257.4661,N,11706.7488,W,13.38,54.0,201110,,*25
$GPRMC,011751.000,A,3257.4652,N,11706.7344,W,19.18,109.7,201110,,*1C
$GPRMC,011754.000,A,3257.4544,N,11706.7142,W,27.72,118.9,201110,,*16
$GPRMC,011757.000,A,3257.4401,N,11706.6877,W,33.09,121.1,201110,,*10
$GPRMC,011800.000,A,3257.4251,N,11706.6603,W,28.24,122.7,201110,,*13
$GPRMC,011803.000,A,3257.4137,N,11706.6423,W,16.15,126.2,201110,,*1D
$GPRMC,011806.000,A,3257.4071,N,11706.6329,W,10.11,128.8,201110,,*10
$GPRMC,011812.000,A,3257.4006,N,11706.6251,W,7.51,134.2,201110,,*2E
$GPRMC,011815.000,A,3257.3939,N,11706.6174,W,13.14,134.4,201110,,*1D
$GPRMC,011818.000,A,3257.3833,N,11706.6042,W,21.06,135.8,201110,,*10
$GPRMC,011821.000,A,3257.3675,N,11706.5876,W,27.77,140.0,201110,,*10
$GPRMC,011824.000,A,3257.3465,N,11706.5701,W,31.62,145.4,201110,,*1B
$GPRMC,011827.000,A,3257.3231,N,11706.5543,W,30.83,151.0,201110,,*14
$GPRMC,011830.000,A,3257.3000,N,11706.5419,W,28.30,156.1,201110,,*1B
$GPRMC,011833.000,A,3257.2782,N,11706.5332,W,27.44,160.7,201110,,*15
$GPRMC,011836.000,A,3257.2552,N,11706.5248,W,29.39,161.9,201110,,*18
$GPRMC,011839.000,A,3257.2333,N,11706.5171,W,26.19,162.7,201110,,*1F
$GPRMC,011842.000,A,3257.2111,N,11706.5101,W,28.96,163.5,201110,,*1C
$GPRMC,011845.000,A,3257.1873,N,11706.5012,W,29.63,162.7,201110,,*1E
$GPRMC,011848.000,A,3257.1653,N,11706.4931,W,25.07,163.4,201110,,*1A
$GPRMC,011851.000,A,3257.1452,N,11706.4868,W,24.47,165.4,201110,,*1F
$GPRMC,011854.000,A,3257.1264,N,11706.4806,W,23.75,163.9,201110,,*1C
$GPRMC,011857.000,A,3257.1079,N,11706.4739,W,22.28,163.5,201110,,*17
$GPRMC,011900.000,A,3257.0924,N,11706.4668,W,16.34,153.6,201110,,*1B
$GPRMC,011903.000,A,3257.0803,N,11706.4625,W,16.87,159.5,201110,,*14
$GPRMC,011906.000,A,3257.0603,N,11706.4555,W,29.87,163.0,201110,,*1B
$GPRMC,011909.000,A,3257.0361,N,11706.4476,W,29.83,163.8,201110,,*19
$GPRMC,011912.000,A,3257.0104,N,11706.4398,W,33.46,166.0,201110,,*1A
$GPRMC,011915.000,A,3256.9820,N,11706.4316,W,34.01,165.8,201110,,*13
$GPRMC,011918.000,A,3256.9546,N,11706.4242,W,31.76,166.9,201110,,*14
$GPRMC,011921.000,A,3256.9294,N,11706.4185,W,29.61,168.6,201110,,*10
$GPRMC,011924.000,A,3256.9049,N,11706.4141,W,28.75,173.3,201110,,*14
$GPRMC,011927.000,A,3256.8834,N,11706.4136,W,21.94,180.6,201110,,*1B
$GPRMC,011930.000,A,3256.8691,N,11706.4157,W,13.23,186.9,201110,,*1F
$GPRMC,011933.000,A,3256.8617,N,11706.4177,W,6.43,190.0,201110,,*2C
$GPRMC,011939.000,A,3256.8499,N,11706.4231,W,16.77,198.4,201110,,*19
$GPRMC,011942.000,A,3256.8334,N,11706.4326,W,26.10,204.8,201110,,*1A
$GPRMC,011945.000,A,3256.8105,N,11706.4466,W,32.72,207.6,201110,,*12
$GPRMC,011948.000,A,3256.7831,N,11706.4638,W,39.23,208.5,201110,,*14
$GPRMC,011951.000,A,3256.7514,N,11706.4847,W,45.65,209.0,201110,,*1D
$GPRMC,011954.000,A,3256.7148,N,11706.5066,W,49.06,206.8,201110,,*11
$GPRMC,011957.000,A,3256.6759,N,11706.5281,W,51.25,204.6,201110,,*1A
$GPRMC,012000.000,A,3256.6343,N,11706.5492,W,55.41,203.1,201110,,*1F
$GPRMC,012003.000,A,3256.5893,N,11706.5703,W,58.34,201.9,201110,,*17
$GPRMC,012006.000,A,3256.5437,N,11706.5906,W,56.26,200.3,201110,,*1D
$GPRMC,012009.000,A,3256.4989,N,11706.6081,W,55.18,198.2,201110,,*13
$GPRMC,012012.000,A,3256.4555,N,11706.6231,W,53.29,196.2,201110,,*17
$GPRMC,012015.000,A,3256.4123,N,11706.6366,W,53.59,194.8,201110,,*19
$GPRMC,012018.000,A,3256.3682,N,11706.6498,W,54.87,194.2,201110,,*17
$GPRMC,012021.000,A,3256.3244,N,11706.6632,W,53.30,194.5,201110,,*1D
$GPRMC,012024.000,A,3256.2807,N,11706.6766,W,55.21,194.3,201110,,*14
$GPRMC,012027.000,A,3256.2354,N,11706.6902,W,57.16,194.1,201110,,*12
$GPRMC,012030.000,A,3256.1887,N,11706.7044,W,57.79,194.3,201110,,*13
$GPRMC,012033.000,A,3256.1417,N,11706.7186,W,58.01,194.2,201110,,*1B
$GPRMC,012036.000,A,3256.0945,N,11706.7329,W,57.65,194.2,201110,,*1F
$GPRMC,012039.000,A,3256.0491,N,11706.7466,W,54.05,194.2,201110,,*1D
$GPRMC,012042.000,A,3256.0071,N,11706.7591,W,50.24,194.3,201110,,*14
$GPRMC,012045.000,A,3255.9679,N,11706.7708,W,46.94,194.2,201110,,*18
$GPRMC,012048.000,A,3255.9308,N,11706.7819,W,44.04,194.3,201110,,*13
$GPRMC,012051.000,A,3255.8949,N,11706.7931,W,45.46,194.3,201110,,*19
$GPRMC,012054.000,A,3255.8573,N,11706.8046,W,47.38,194.1,201110,,*16
$GPRMC,012057.000,A,3255.8188,N,11706.8161,W,47.26,194.3,201110,,*1C
$GPRMC,012100.000,A,3255.7816,N,11706.8277,W,46.07,194.3,201110,,*18
$GPRMC,012103.000,A,3255.7441,N,11706.8386,W,45.13,193.9,201110,,*11
$GPRMC,012106.000,A,3255.7083,N,11706.8490,W,43.70,193.8,201110,,*1C
$GPRMC,012109.000,A,3255.6725,N,11706.8589,W,44.22,193.3,201110,,*1B
$GPRMC,012112.000,A,3255.6370,N,11706.8689,W,43.24,192.8,201110,,*1D
$GPRMC,012115.000,A,3255.6012,N,11706.8787,W,43.81,192.3,201110,,*16
$GPRMC,012118.000,A,3255.5659,N,11706.8872,W,42.96,191.8,201110,,*1B
$GPRMC,012121.000,A,3255.5311,N,11706.8957,W,42.37,191.5,201110,,*18
$GPRMC,012124.000,A,3255.4959,N,11706.9036,W,44.80,190.6,201110,,*1D
$GPRMC,012127.000,A,3255.4583,N,11706.9113,W,45.71,190.2,201110,,*18
$GPRMC,012130.000,A,3255.4211,N,11706.9197,W,44.60,190.3,201110,,*1E
$GPRMC,012133.000,A,3255.3846,N,11706.9271,W,43.80,189.5,201110,,*1E
$GPRMC,012136.000,A,3255.3481,N,11706.9343,W,44.70,188.9,201110,,*19
$GPRMC,012139.000,A,3255.3115,N,11706.9409,W,44.65,188.8,201110,,*12
$GPRMC,012142.000,A,3255.2733,N,11706.9475,W,46.16,188.2,201110,,*1A
$GPRMC,012145.000,A,3255.2355,N,11706.9541,W,44.73,188.7,201110,,*1B
$GPRMC,012148.000,A,3255.1987,N,11706.9608,W,45.01,188.5,201110,,*18
$GPRMC,012151.000,A,3255.1611,N,11706.9671,W,45.50,188.0,201110,,*1F
$GPRMC,012154.000,A,3255.1222,N,11706.9722,W,47.93,186.5,201110,,*1F
$GPRMC,012157.000,A,3255.0812,N,11706.9771,W,50.50,184.8,201110,,*14
$GPRMC,012200.000,A,3255.0376,N,11706.9809,W,55.02,184.4,201110,,*12
$GPRMC,012203.000,A,3254.9904,N,11706.9859,W,57.20,185.2,201110,,*16
$GPRMC,012206.000,A,3254.9434,N,11706.9911,W,56.44,185.4,201110,,*15
$GPRMC,012209.000,A,3254.8969,N,11706.9958,W,56.42,184.7,201110,,*17
$GPRMC,012212.000,A,3254.8486,N,11706.9989,W,58.49,183.2,201110,,*1A
$GPRMC,012215.000,A,3254.8007,N,11707.0011,W,57.40,182.2,201110,,*17
$GPRMC,012218.000,A,3254.7532,N,11707.0031,W,55.80,182.0,201110,,*18
$GPRMC,012221.000,A,3254.7074,N,11707.0045,W,55.75,181.3,201110,,*1C
$GPRMC,012224.000,A,3254.6611,N,11707.0051,W,55.12,180.6,201110,,*1D
$GPRMC,012227.000,A,3254.6146,N,11707.0045,W,56.83,179.3,201110,,*16
$GPRMC,012230.000,A,3254.5672,N,11707.0034,W,56.94,178.7,201110,,*16
$GPRMC,012233.000,A,3254.5188,N,11707.0022,W,57.81,178.6,201110,,*14
$GPRMC,012236.000,A,3254.4709,N,11707.0008,W,58.20,178.8,201110,,*1D
$GPRMC,012239.000,A,3254.4221,N,11706.9999,W,58.45,179.3,201110,,*1D
$GPRMC,012242.000,A,3254.3730,N,11707.0000,W,58.87,179.9,201110,,*16
$GPRMC,012245.000,A,3254.3245,N,11706.9996,W,56.85,179.7,201110,,*1A
$GPRMC,012248.000,A,3254.2775,N,11706.9994,W,54.78,179.8,201110,,*1D
$GPRMC,012251.000,A,3254.2324,N,11706.9996,W,55.07,180.6,201110,,*16
$GPRMC,012254.000,A,3254.1857,N,11707.0006,W,55.68,181.0,201110,,*19
$GPRMC,012257.000,A,3254.1403,N,11707.0015,W,53.72,180.5,201110,,*1C
$GPRMC,012300.000,A,3254.0942,N,11707.0016,W,55.75,180.0,201110,,*11
$GPRMC,012303.000,A,3254.0471,N,11707.0016,W,57.50,179.9,201110,,*15
$GPRMC,012306.000,A,3253.9982,N,11707.0015,W,58.97,179.8,201110,,*19
$GPRMC,012309.000,A,3253.9492,N,11707.0009,W,58.96,179.6,201110,,*18
$GPRMC,012312.000,A,3253.8995,N,11706.9996,W,59.23,178.6,201110,,*10
$GPRMC,012315.000,A,3253.8495,N,11706.9959,W,60.60,175.8,201110,,*17
$GPRMC,012318.000,A,3253.7996,N,11706.9895,W,58.68,173.1,201110,,*16
$GPRMC,012321.000,A,3253.7520,N,11706.9800,W,57.85,170.2,201110,,*1D
$GPRMC,012324.000,A,3253.7051,N,11706.9678,W,57.75,167.2,201110,,*13
$GPRMC,012327.000,A,3253.6595,N,11706.9533,W,54.73,165.4,201110,,*11
$GPRMC,012330.000,A,3253.6186,N,11706.9399,W,47.97,164.7,201110,,*1D
$GPRMC,012333.000,A,3253.5812,N,11706.9275,W,45.61,164.2,201110,,*14
$GPRMC,012336.000,A,3253.5458,N,11706.9150,W,43.48,162.8,201110,,*16
$GPRMC,012339.000,A,3253.5115,N,11706.9020,W,42.58,161.7,201110,,*1F
$GPRMC,012342.000,A,3253.4767,N,11706.8878,W,44.77,162.0,201110,,*1A
$GPRMC,012345.000,A,3253.4420,N,11706.8738,W,41.25,160.0,201110,,*16
$GPRMC,012348.000,A,3253.4123,N,11706.8600,W,36.25,158.3,201110,,*1F
$GPRMC,012351.000,A,3253.3839,N,11706.8464,W,38.70,157.5,201110,,*15
$GPRMC,012354.000,A,3253.3531,N,11706.8311,W,37.57,157.8,201110,,*17
$GPRMC,012357.000,A,3253.3278,N,11706.8174,W,29.16,155.9,201110,,*16
$GPRMC,012400.000,A,3253.3122,N,11706.8084,W,15.25,155.3,201110,,*14
$GPRMC,012403.000,A,3253.3022,N,11706.8024,W,13.41,153.9,201110,,*14
$GPRMC,012406.000,A,3253.2939,N,11706.7973,W,10.44,154.1,201110,,*1E
$GPRMC,012409.000,A,3253.2891,N,11706.7949,W,6.03,159.2,201110,,*21
$GPRMC,012412.000,A,3253.2795,N,11706.7915,W,16.42,161.7,201110,,*13
$GPRMC,012415.000,A,3253.2643,N,11706.7840,W,21.10,157.0,201110,,*1E
$GPRMC,012418.000,A,3253.2490,N,11706.7750,W,19.11,154.1,201110,,*19
$GPRMC,012421.000,A,3253.2353,N,11706.7663,W,18.01,153.1,201110,,*1D
$GPRMC,012424.000,A,3253.2216,N,11706.7582,W,18.11,153.6,201110,,*12
$GPRMC,012427.000,A,3253.2063,N,11706.7491,W,22.62,153.8,201110,,*11
$GPRMC,012430.000,A,3253.1880,N,11706.7377,W,28.03,153.0,201110,,*1B
$GPRMC,012433.000,A,3253.1649,N,11706.7244,W,32.92,153.6,201110,,*17
$GPRMC,012436.000,A,3253.1377,N,11706.7093,W,37.52,153.8,201110,,*15
$GPRMC,012439.000,A,3253.1076,N,11706.6920,W,41.37,153.3,201110,,*11
$GPRMC,012442.000,A,3253.0755,N,11706.6733,W,43.53,153.9,201110,,*1C
$GPRMC,012445.000,A,3253.0418,N,11706.6554,W,45.70,156.8,201110,,*11
$GPRMC,012448.000,A,3253.0048,N,11706.6388,W,47.47,159.1,201110,,*1A
$GPRMC,012451.000,A,3252.9674,N,11706.6248,W,45.28,163.5,201110,,*18
$GPRMC,012454.000,A,3252.9316,N,11706.6185,W,40.96,174.1,201110,,*1C
$GPRMC,012457.000,A,3252.9013,N,11706.6216,W,30.94,185.6,201110,,*1C
$GPRMC,012500.000,A,3252.8804,N,11706.6282,W,23.98,195.0,201110,,*14
$GPRMC,012503.000,A,3252.8633,N,11706.6395,W,25.38,209.0,201110,,*10
$GPRMC,012506.000,A,3252.8479,N,11706.6582,W,28.31,226.9,201110,,*19
$GPRMC,012509.000,A,3252.8369,N,11706.6860,W,31.20,246.0,201110,,*16
$GPRMC,012512.000,A,3252.8341,N,11706.7202,W,36.08,264.0,201110,,*14
$GPRMC,012515.000,A,3252.8341,N,11706.7587,W,39.17,267.8,201110,,*13
$GPRMC,012518.000,A,3252.8338,N,11706.7981,W,38.05,268.6,201110,,*19
$GPRMC,012521.000,A,3252.8333,N,11706.8366,W,38.61,269.0,201110,,*11
$GPRMC,012524.000,A,3252.8329,N,11706.8746,W,35.44,269.4,201110,,*17
$GPRMC,012527.000,A,3252.8323,N,11706.9029,W,19.46,267.0,201110,,*17
$GPRMC,012530.000,A,3252.8319,N,11706.9218,W,21.36,270.7,201110,,*15
$GPRMC,012533.000,A,3252.8332,N,11706.9411,W,15.10,272.6,201110,,*10
$GPRMC,012539.000,A,3252.8344,N,11706.9542,W,12.04,277.3,201110,,*1E
$GPRMC,012542.000,A,3252.8348,N,11706.9674,W,13.25,272.9,201110,,*15
$GPRMC,012545.000,A,3252.8346,N,11706.9762,W,4.88,271.3,201110,,*22
$GPRMC,012554.000,A,3252.8320,N,11706.9659,W,19.04,93.1,201110,,*2F
$GPRMC,012557.000,A,3252.8316,N,11706.9409,W,25.78,91.9,201110,,*20
$GPRMC,012600.000,A,3252.8313,N,11706.9147,W,27.30,89.9,201110,,*2C
$GPRMC,012603.000,A,3252.8312,N,11706.8839,W,33.32,90.3,201110,,*2A
$GPRMC,012606.000,A,3252.8310,N,11706.8479,W,37.79,90.4,201110,,*29
$GPRMC,012609.000,A,3252.8311,N,11706.8092,W,38.43,89.7,201110,,*2B
$GPRMC,012612.000,A,3252.8311,N,11706.7725,W,35.86,90.3,201110,,*2D
$GPRMC,012615.000,A,3252.8295,N,11706.7347,W,39.31,92.9,201110,,*2F
$GPRMC,012618.000,A,3252.8265,N,11706.6948,W,39.96,95.5,201110,,*2F
$GPRMC,012621.000,A,3252.8202,N,11706.6560,W,41.25,103.7,201110,,*19
$GPRMC,012624.000,A,3252.8037,N,11706.6180,W,44.91,120.0,201110,,*1E
$GPRMC,012627.000,A,3252.7801,N,11706.5812,W,49.37,126.5,201110,,*1C
$GPRMC,012630.000,A,3252.7505,N,11706.5425,W,54.84,133.1,201110,,*1F
$GPRMC,012633.000,A,3252.7108,N,11706.5122,W,56.83,149.1,201110,,*1F
$GPRMC,012636.000,A,3252.6665,N,11706.4939,W,53.73,160.5,201110,,*11
$GPRMC,012639.000,A,3252.6239,N,11706.4826,W,48.81,166.1,201110,,*19
$GPRMC,012642.000,A,3252.5872,N,11706.4758,W,41.69,169.6,201110,,*12
$GPRMC,012645.000,A,3252.5536,N,11706.4711,W,39.64,171.6,201110,,*1E
$GPRMC,012648.000,A,3252.5199,N,11706.4660,W,43.43,172.4,201110,,*1C
$GPRMC,012651.000,A,3252.4817,N,11706.4623,W,47.92,174.8,201110,,*1F
$GPRMC,012654.000,A,3252.4421,N,11706.4607,W,46.81,177.9,201110,,*14
$GPRMC,012657.000,A,3252.4021,N,11706.4608,W,48.20,179.6,201110,,*18
$GPRMC,012700.000,A,3252.3624,N,11706.4612,W,47.30,180.5,201110,,*1F
$GPRMC,012703.000,A,3252.3217,N,11706.4622,W,49.76,181.6,201110,,*15
$GPRMC,012706.000,A,3252.2796,N,11706.4651,W,50.08,183.8,201110,,*14
$GPRMC,012709.000,A,3252.2375,N,11706.4706,W,50.37,186.4,201110,,*14
$GPRMC,012712.000,A,3252.1954,N,11706.4770,W,50.37,187.8,201110,,*18
$GPRMC,012715.000,A,3252.1547,N,11706.4860,W,48.29,191.1,201110,,*17
$GPRMC,012718.000,A,3252.1158,N,11706.4969,W,48.91,193.9,201110,,*11
$GPRMC,012721.000,A,3252.0771,N,11706.5102,W,48.10,196.6,201110,,*10
$GPRMC,012724.000,A,3252.0386,N,11706.5255,W,48.82,199.0,201110,,*1A
$GPRMC,012727.000,A,3252.0002,N,11706.5433,W,50.68,201.6,201110,,*19
$GPRMC,012730.000,A,3251.9615,N,11706.5637,W,50.44,204.5,201110,,*1B
$GPRMC,012733.000,A,3251.9241,N,11706.5857,W,48.74,206.9,201110,,*11
$GPRMC,012736.000,A,3251.8888,N,11706.6085,W,47.57,207.5,201110,,*1D
$GPRMC,012739.000,A,3251.8586,N,11706.6273,W,34.51,206.8,201110,,*14
$GPRMC,012742.000,A,3251.8358,N,11706.6410,W,29.32,207.6,201110,,*18
$GPRMC,012745.000,A,3251.8148,N,11706.6548,W,30.50,207.9,201110,,*13
$GPRMC,012748.000,A,3251.7932,N,11706.6688,W,29.48,208.0,201110,,*1C
$GPRMC,012751.000,A,3251.7721,N,11706.6819,W,28.51,208.0,201110,,*17
$GPRMC,012754.000,A,3251.7507,N,11706.6954,W,30.59,207.7,201110,,*15
$GPRMC,012757.000,A,3251.7272,N,11706.7105,W,32.26,208.2,201110,,*1E
$GPRMC,012800.000,A,3251.7039,N,11706.7253,W,30.70,207.9,201110,,*1B
$GPRMC,012803.000,A,3251.6822,N,11706.7390,W,28.98,207.4,201110,,*17
$GPRMC,012806.000,A,3251.6603,N,11706.7525,W,29.65,206.9,201110,,*18
$GPRMC,012809.000,A,3251.6377,N,11706.7657,W,29.63,206.6,201110,,*1E
$GPRMC,012812.000,A,3251.6153,N,11706.7782,W,29.35,205.3,201110,,*1C
$GPRMC,012815.000,A,3251.5930,N,11706.7898,W,30.12,203.4,201110,,*1D
$GPRMC,012818.000,A,3251.5696,N,11706.8010,W,30.42,201.6,201110,,*11
$GPRMC,012821.000,A,3251.5447,N,11706.8111,W,32.29,200.0,201110,,*1D
$GPRMC,012824.000,A,3251.5195,N,11706.8210,W,31.33,198.6,201110,,*1C
$GPRMC,012827.000,A,3251.4951,N,11706.8307,W,29.96,197.3,201110,,*15
$GPRMC,012830.000,A,3251.4714,N,11706.8391,W,29.57,195.7,201110,,*18
$GPRMC,012833.000,A,3251.4474,N,11706.8471,W,30.02,196.0,201110,,*1B
$GPRMC,012836.000,A,3251.4235,N,11706.8549,W,29.51,196.2,201110,,*1B
$GPRMC,012839.000,A,3251.3997,N,11706.8629,W,30.85,195.2,201110,,*17
$GPRMC,012842.000,A,3251.3739,N,11706.8717,W,33.54,196.5,201110,,*16
$GPRMC,012845.000,A,3251.3463,N,11706.8811,W,35.70,196.3,201110,,*12
$GPRMC,012848.000,A,3251.3176,N,11706.8905,W,35.94,195.6,201110,,*16
$GPRMC,012851.000,A,3251.2885,N,11706.9003,W,37.14,195.6,201110,,*1E
$GPRMC,012854.000,A,3251.2582,N,11706.9103,W,37.40,195.4,201110,,*13
$GPRMC,012857.000,A,3251.2273,N,11706.9204,W,39.16,195.6,201110,,*12
$GPRMC,012900.000,A,3251.1952,N,11706.9313,W,40.04,195.6,201110,,*10
