NMEA Sentence Code,UTC Time,Status,Latitude,Latitude Direction,Longitude,Longitude Direction,Speed (knots),Track Angle (degrees true),Date,MagneticVariation,Magnetic Variation Direction,[FAA Mode]-Optional,Checksum
$GPRMC,034449.7,A,3344.079988,N,11749.041741,W,55.4,123.7,010210,,,A*4E
$GPRMC,034452.7,A,3344.053039,N,11748.997440,W,54.8,127.4,010210,,,A*44
$GPRMC,034455.7,A,3344.025413,N,11748.958301,W,52.7,131.6,010210,,,A*43
$GPRMC,034458.7,A,3343.996484,N,11748.922258,W,50.9,132.8,010210,,,A*47
$GPRMC,034501.7,A,3343.970979,N,11748.887557,W,49.3,131.0,010210,,,A*42
$GPRMC,034504.7,A,3343.943366,N,11748.849451,W,49.5,130.4,010210,,,A*45
$GPRMC,034507.7,A,3343.916697,N,11748.810514,W,50.8,129.5,010210,,,A*4D
$GPRMC,034510.7,A,3343.888847,N,11748.769359,W,52.4,129.8,010210,,,A*43
$GPRMC,034513.7,A,3343.861358,N,11748.727646,W,53.7,128.8,010210,,,A*40
$GPRMC,034516.7,A,3343.832062,N,11748.685112,W,54.5,129.4,010210,,,A*4E
$GPRMC,034519.7,A,3343.802118,N,11748.643556,W,55.0,129.9,010210,,,A*49
$GPRMC,034522.7,A,3343.772357,N,11748.602825,W,54.4,130.8,010210,,,A*40
$GPRMC,034525.7,A,3343.742839,N,11748.561092,W,54.5,130.5,010210,,,A*49
$GPRMC,034528.7,A,3343.712718,N,11748.520190,W,55.1,130.4,010210,,,A*4F
$GPRMC,034531.7,A,3343.682589,N,11748.477583,W,55.0,129.9,010210,,,A*44
$GPRMC,034534.7,A,3343.652587,N,11748.434870,W,55.2,129.5,010210,,,A*4A
$GPRMC,034537.7,A,3343.623260,N,11748.390363,W,57.0,128.7,010210,,,A*42
$GPRMC,034540.7,A,3343.592351,N,11748.344897,W,57.3,129.3,010210,,,A*47
$GPRMC,034543.7,A,3343.561942,N,11748.299822,W,57.5,128.7,010210,,,A*4C
$GPRMC,034546.7,A,3343.532037,N,11748.255837,W,57.7,128.2,010210,,,A*47
$GPRMC,034549.7,A,3343.502257,N,11748.210006,W,58.8,128.5,010210,,,A*43
$GPRMC,034552.7,A,3343.472692,N,11748.164857,W,58.0,128.5,010210,,,A*46
$GPRMC,034555.7,A,3343.442245,N,11748.118856,W,58.3,128.9,010210,,,A*49
$GPRMC,034558.7,A,3343.410798,N,11748.072909,W,58.7,129.6,010210,,,A*4A
$GPRMC,034601.7,A,3343.379380,N,11748.026862,W,58.8,129.5,010210,,,A*41
$GPRMC,034604.7,A,3343.349012,N,11747.983057,W,59.4,129.6,010210,,,A*46
$GPRMC,034607.7,A,3343.317119,N,11747.937667,W,59.4,129.8,010210,,,A*40
$GPRMC,034610.7,A,3343.285747,N,11747.892511,W,58.9,129.8,010210,,,A*41
$GPRMC,034613.7,A,3343.253657,N,11747.846477,W,59.2,129.8,010210,,,A*4B
$GPRMC,034616.7,A,3343.221836,N,11747.801597,W,58.6,130.1,010210,,,A*4A
$GPRMC,034619.7,A,3343.190705,N,11747.757520,W,57.7,130.1,010210,,,A*4D
$GPRMC,034622.7,A,3343.161752,N,11747.713743,W,56.2,129.1,010210,,,A*42
$GPRMC,034625.7,A,3343.129243,N,11747.668566,W,56.5,129.8,010210,,,A*4A
$GPRMC,034628.7,A,3343.099485,N,11747.625846,W,56.8,129.8,010210,,,A*4A
$GPRMC,034631.7,A,3343.069082,N,11747.581550,W,56.8,129.8,010210,,,A*49
$GPRMC,034634.7,A,3343.039924,N,11747.538026,W,56.6,129.5,010210,,,A*49
$GPRMC,034637.7,A,3343.009114,N,11747.494634,W,57.3,129.5,010210,,,A*44
$GPRMC,034640.7,A,3342.978661,N,11747.450776,W,57.9,129.6,010210,,,A*49
$GPRMC,034643.7,A,3342.946782,N,11747.406514,W,58.0,129.9,010210,,,A*47
$GPRMC,034646.7,A,3342.915904,N,11747.363706,W,56.8,129.6,010210,,,A*48
$GPRMC,034649.7,A,3342.886433,N,11747.319740,W,56.6,129.7,010210,,,A*45
$GPRMC,034652.7,A,3342.856138,N,11747.275765,W,56.8,130.0,010210,,,A*41
$GPRMC,034655.7,A,3342.826074,N,11747.232716,W,56.8,129.8,010210,,,A*4F
$GPRMC,034658.7,A,3342.795151,N,11747.188145,W,56.8,130.1,010210,,,A*40
$GPRMC,034701.7,A,3342.764245,N,11747.145048,W,56.6,131.4,010210,,,A*42
$GPRMC,034704.7,A,3342.732617,N,11747.104738,W,56.9,133.0,010210,,,A*4B
$GPRMC,034707.7,A,3342.700989,N,11747.066127,W,56.7,134.8,010210,,,A*4D
$GPRMC,034710.7,A,3342.666485,N,11747.025614,W,57.3,136.5,010210,,,A*41
$GPRMC,034713.7,A,3342.632734,N,11746.987903,W,55.2,137.1,010210,,,A*45
$GPRMC,034716.7,A,3342.597675,N,11746.952520,W,54.9,139.7,010210,,,A*4F
$GPRMC,034719.7,A,3342.562747,N,11746.917424,W,54.6,140.8,010210,,,A*40
$GPRMC,034722.7,A,3342.528700,N,11746.884119,W,51.7,141.8,010210,,,A*40
$GPRMC,034725.7,A,3342.493749,N,11746.854305,W,52.0,143.6,010210,,,A*41
$GPRMC,034728.7,A,3342.456859,N,11746.824396,W,53.7,146.2,010210,,,A*41
$GPRMC,034731.7,A,3342.418135,N,11746.794874,W,54.5,147.4,010210,,,A*41
$GPRMC,034734.7,A,3342.378418,N,11746.765802,W,54.9,148.7,010210,,,A*40
$GPRMC,034737.7,A,3342.339093,N,11746.738276,W,54.7,149.9,010210,,,A*41
$GPRMC,034740.7,A,3342.301398,N,11746.713474,W,53.8,151.0,010210,,,A*47
$GPRMC,034743.7,A,3342.261893,N,11746.687414,W,53.0,151.6,010210,,,A*47
$GPRMC,034746.7,A,3342.223391,N,11746.663912,W,51.5,151.6,010210,,,A*4B
$GPRMC,034749.7,A,3342.185094,N,11746.639548,W,51.6,152.0,010210,,,A*47
$GPRMC,034752.7,A,3342.146731,N,11746.615533,W,52.0,151.3,010210,,,A*4D
$GPRMC,034755.7,A,3342.107146,N,11746.591734,W,53.6,152.1,010210,,,A*45
$GPRMC,034758.7,A,3342.067829,N,11746.565941,W,53.3,151.9,010210,,,A*46
$GPRMC,034801.7,A,3342.028403,N,11746.541495,W,52.8,151.5,010210,,,A*4E
$GPRMC,034804.7,A,3341.990131,N,11746.517045,W,53.1,152.0,010210,,,A*42
$GPRMC,034807.7,A,3341.952596,N,11746.490378,W,52.4,151.1,010210,,,A*43
$GPRMC,034810.7,A,3341.913596,N,11746.466272,W,53.4,151.5,010210,,,A*47
$GPRMC,034813.7,A,3341.874458,N,11746.439998,W,54.8,151.5,010210,,,A*49
$GPRMC,034816.7,A,3341.834564,N,11746.414302,W,54.0,151.3,010210,,,A*4E
$GPRMC,034819.7,A,3341.794871,N,11746.389896,W,54.2,151.7,010210,,,A*4E
$GPRMC,034822.7,A,3341.755141,N,11746.363952,W,54.1,152.7,010210,,,A*4C
$GPRMC,034825.7,A,3341.712666,N,11746.338828,W,54.8,152.9,010210,,,A*4F
$GPRMC,034828.7,A,3341.671883,N,11746.312685,W,54.7,152.4,010210,,,A*40
$GPRMC,034831.7,A,3341.631002,N,11746.283012,W,56.7,150.8,010210,,,A*40
$GPRMC,034834.7,A,3341.592519,N,11746.257347,W,54.7,151.3,010210,,,A*42
$GPRMC,034837.7,A,3341.553135,N,11746.229743,W,54.1,151.1,010210,,,A*4B
$GPRMC,034840.7,A,3341.513942,N,11746.203682,W,54.3,151.0,010210,,,A*40
$GPRMC,034843.7,A,3341.475392,N,11746.175271,W,53.9,151.0,010210,,,A*42
$GPRMC,034846.7,A,3341.438406,N,11746.146991,W,53.7,151.5,010210,,,A*4A
$GPRMC,034849.7,A,3341.400524,N,11746.122888,W,52.3,151.5,010210,,,A*41
$GPRMC,034852.7,A,3341.361194,N,11746.098022,W,52.6,151.3,010210,,,A*4F
$GPRMC,034855.7,A,3341.321900,N,11746.072236,W,53.1,151.5,010210,,,A*4A
$GPRMC,034858.7,A,3341.284201,N,11746.047770,W,53.2,151.9,010210,,,A*4D
$GPRMC,034901.7,A,3341.246564,N,11746.022681,W,52.0,151.0,010210,,,A*4C
$GPRMC,034904.7,A,3341.207522,N,11745.997834,W,53.3,151.3,010210,,,A*4B
$GPRMC,034907.7,A,3341.168303,N,11745.971149,W,54.5,150.9,010210,,,A*46
$GPRMC,034910.7,A,3341.127498,N,11745.944541,W,55.5,151.4,010210,,,A*49
$GPRMC,034913.7,A,3341.085730,N,11745.917770,W,56.3,151.6,010210,,,A*43
$GPRMC,034916.7,A,3341.045018,N,11745.890715,W,56.4,150.3,010210,,,A*49
$GPRMC,034919.7,A,3341.004703,N,11745.862297,W,55.5,149.2,010210,,,A*47
$GPRMC,034922.7,A,3340.966877,N,11745.833686,W,54.6,147.4,010210,,,A*45
$GPRMC,034925.7,A,3340.930382,N,11745.802799,W,54.5,144.7,010210,,,A*4E
$GPRMC,034928.7,A,3340.896875,N,11745.769660,W,53.6,140.3,010210,,,A*4C
$GPRMC,034931.7,A,3340.864427,N,11745.734117,W,53.3,137.6,010210,,,A*4D
$GPRMC,034934.7,A,3340.834398,N,11745.698389,W,51.6,136.0,010210,,,A*4C
$GPRMC,034937.7,A,3340.804751,N,11745.664350,W,51.3,136.2,010210,,,A*4D
$GPRMC,034940.7,A,3340.773707,N,11745.628147,W,53.0,136.5,010210,,,A*4B
$GPRMC,034943.7,A,3340.740993,N,11745.592227,W,51.9,136.7,010210,,,A*45
$GPRMC,034946.7,A,3340.710436,N,11745.557210,W,50.1,136.2,010210,,,A*46
$GPRMC,034949.7,A,3340.680587,N,11745.523381,W,50.1,136.6,010210,,,A*44
$GPRMC,034952.7,A,3340.649068,N,11745.489734,W,50.7,138.8,010210,,,A*42
$GPRMC,034955.7,A,3340.614226,N,11745.458838,W,52.5,144.0,010210,,,A*49
$GPRMC,034958.7,A,3340.577532,N,11745.430936,W,52.1,148.6,010210,,,A*4F
$GPRMC,035001.7,A,3340.537319,N,11745.407369,W,53.4,154.0,010210,,,A*4B
$GPRMC,035004.7,A,3340.493843,N,11745.387587,W,54.2,159.8,010210,,,A*48
$GPRMC,035007.7,A,3340.452002,N,11745.374394,W,53.2,164.6,010210,,,A*44
$GPRMC,035010.7,A,3340.411973,N,11745.364973,W,50.7,168.5,010210,,,A*41
$GPRMC,035013.7,A,3340.371053,N,11745.357057,W,49.5,170.4,010210,,,A*45
$GPRMC,035016.7,A,3340.330387,N,11745.348192,W,49.3,169.8,010210,,,A*4B
$GPRMC,035019.7,A,3340.289467,N,11745.340019,W,49.2,169.2,010210,,,A*4F
$GPRMC,035022.7,A,3340.248581,N,11745.331219,W,49.3,168.3,010210,,,A*46
$GPRMC,035025.7,A,3340.207694,N,11745.316589,W,50.7,162.5,010210,,,A*46
$GPRMC,035028.7,A,3340.166675,N,11745.297331,W,53.3,157.7,010210,,,A*4E
$GPRMC,035031.7,A,3340.125909,N,11745.274315,W,54.6,152.8,010210,,,A*46
$GPRMC,035034.7,A,3340.087481,N,11745.246361,W,54.6,148.8,010210,,,A*4E
$GPRMC,035037.7,A,3340.049486,N,11745.216311,W,54.7,146.1,010210,,,A*4C
$GPRMC,035040.7,A,3340.013007,N,11745.185936,W,53.3,145.7,010210,,,A*4E
$GPRMC,035043.7,A,3339.976209,N,11745.154997,W,53.0,146.2,010210,,,A*47
$GPRMC,035046.7,A,3339.941795,N,11745.127452,W,51.9,146.8,010210,,,A*47
$GPRMC,035049.7,A,3339.908427,N,11745.102400,W,49.9,146.9,010210,,,A*47
$GPRMC,035052.7,A,3339.874457,N,11745.075491,W,48.3,146.9,010210,,,A*42
$GPRMC,035055.7,A,3339.840086,N,11745.050265,W,50.4,146.8,010210,,,A*4F
$GPRMC,035058.7,A,3339.803474,N,11745.023349,W,50.0,147.5,010210,,,A*4F
$GPRMC,035101.7,A,3339.769522,N,11744.994180,W,50.4,147.0,010210,,,A*41
$GPRMC,035104.7,A,3339.735230,N,11744.968241,W,49.2,146.5,010210,,,A*4E
$GPRMC,035107.7,A,3339.702994,N,11744.942003,W,47.4,146.3,010210,,,A*4E
$GPRMC,035110.7,A,3339.668593,N,11744.916193,W,47.4,147.0,010210,,,A*45
$GPRMC,035113.7,A,3339.637139,N,11744.890158,W,46.9,145.1,010210,,,A*4F
$GPRMC,035116.7,A,3339.604543,N,11744.862056,W,48.8,145.9,010210,,,A*46
$GPRMC,035119.7,A,3339.568503,N,11744.833219,W,50.6,146.2,010210,,,A*46
$GPRMC,035122.7,A,3339.532794,N,11744.806677,W,51.4,146.7,010210,,,A*41
$GPRMC,035125.7,A,3339.497915,N,11744.777292,W,52.4,146.2,010210,,,A*4F
$GPRMC,035128.7,A,3339.461718,N,11744.748430,W,52.0,146.9,010210,,,A*45
$GPRMC,035131.7,A,3339.428025,N,11744.718815,W,51.3,144.2,010210,,,A*4E
$GPRMC,035134.7,A,3339.390560,N,11744.689323,W,52.6,145.3,010210,,,A*4A
$GPRMC,035137.7,A,3339.353119,N,11744.657981,W,53.8,145.4,010210,,,A*45
$GPRMC,035140.7,A,3339.316246,N,11744.627723,W,53.7,146.2,010210,,,A*46
$GPRMC,035143.7,A,3339.277507,N,11744.597268,W,54.4,146.3,010210,,,A*46
$GPRMC,035146.7,A,3339.240470,N,11744.567478,W,53.9,146.4,010210,,,A*43
$GPRMC,035149.7,A,3339.202822,N,11744.537539,W,52.5,145.6,010210,,,A*4C
$GPRMC,035152.7,A,3339.166662,N,11744.508210,W,51.5,145.3,010210,,,A*4B
$GPRMC,035155.7,A,3339.130525,N,11744.480399,W,51.5,146.3,010210,,,A*4D
$GPRMC,035158.7,A,3339.094577,N,11744.453798,W,51.0,148.4,010210,,,A*4F
$GPRMC,035201.7,A,3339.061102,N,11744.429002,W,48.5,148.8,010210,,,A*44
$GPRMC,035204.7,A,3339.025330,N,11744.404874,W,47.5,149.6,010210,,,A*44
$GPRMC,035207.7,A,3338.991033,N,11744.380838,W,47.4,148.9,010210,,,A*4C
$GPRMC,035210.7,A,3338.955994,N,11744.355156,W,49.3,148.4,010210,,,A*4B
$GPRMC,035213.7,A,3338.920564,N,11744.328643,W,49.6,149.1,010210,,,A*41
$GPRMC,035216.7,A,3338.883886,N,11744.305869,W,49.1,152.8,010210,,,A*40
$GPRMC,035219.7,A,3338.845301,N,11744.285868,W,49.2,156.0,010210,,,A*46
$GPRMC,035222.7,A,3338.809487,N,11744.268292,W,46.9,157.8,010210,,,A*4E
$GPRMC,035225.7,A,3338.774351,N,11744.251294,W,45.6,158.5,010210,,,A*42
$GPRMC,035228.7,A,3338.739201,N,11744.236030,W,45.0,159.2,010210,,,A*4F
$GPRMC,035231.7,A,3338.703232,N,11744.218431,W,46.1,158.0,010210,,,A*46
$GPRMC,035234.7,A,3338.667751,N,11744.198399,W,46.9,151.8,010210,,,A*47
$GPRMC,035237.7,A,3338.634593,N,11744.171233,W,47.9,141.9,010210,,,A*49
$GPRMC,035240.7,A,3338.603996,N,11744.138262,W,48.6,137.0,010210,,,A*45
$GPRMC,035243.7,A,3338.575962,N,11744.104531,W,47.9,135.6,010210,,,A*45
$GPRMC,035246.7,A,3338.548240,N,11744.070816,W,48.5,135.3,010210,,,A*49
$GPRMC,035249.7,A,3338.519779,N,11744.038561,W,47.2,138.0,010210,,,A*4A
$GPRMC,035252.7,A,3338.487210,N,11744.015089,W,45.5,154.5,010210,,,A*4A
$GPRMC,035255.7,A,3338.452895,N,11744.004020,W,42.1,166.9,010210,,,A*4F
$GPRMC,035258.7,A,3338.420527,N,11744.008480,W,37.9,181.7,010210,,,A*4C
$GPRMC,035301.7,A,3338.396287,N,11744.011148,W,27.4,183.1,010210,,,A*47
$GPRMC,035304.7,A,3338.380197,N,11744.013019,W,17.7,179.3,010210,,,A*47
$GPRMC,035307.7,A,3338.370332,N,11744.014407,W,11.2,180.8,010210,,,A*44
$GPRMC,035310.7,A,3338.363688,N,11744.015779,W,9.0,185.6,010210,,,A*7F
$GPRMC,035313.7,A,3338.354195,N,11744.014627,W,11.6,164.7,010210,,,A*49
$GPRMC,035316.7,A,3338.347512,N,11744.003418,W,15.7,116.6,010210,,,A*4C
$GPRMC,035319.7,A,3338.345382,N,11743.981404,W,24.2,93.6,010210,,,A*7C
$GPRMC,035322.7,A,3338.343382,N,11743.950526,W,31.7,94.5,010210,,,A*7A
$GPRMC,035325.7,A,3338.341166,N,11743.915000,W,35.9,93.7,010210,,,A*78
$GPRMC,035328.7,A,3338.339142,N,11743.874916,W,38.7,93.2,010210,,,A*72
$GPRMC,035331.7,A,3338.337829,N,11743.835462,W,40.8,93.4,010210,,,A*7D
$GPRMC,035334.7,A,3338.335581,N,11743.792511,W,43.3,93.5,010210,,,A*7B
$GPRMC,035337.7,A,3338.333481,N,11743.747958,W,44.2,94.0,010210,,,A*72
$GPRMC,035340.7,A,3338.330033,N,11743.702024,W,44.7,93.8,010210,,,A*75
$GPRMC,035343.7,A,3338.327173,N,11743.656113,W,45.7,94.1,010210,,,A*7F
$GPRMC,035346.7,A,3338.325263,N,11743.610281,W,46.3,94.2,010210,,,A*74
$GPRMC,035349.7,A,3338.322269,N,11743.563076,W,47.4,93.6,010210,,,A*7E
$GPRMC,035352.7,A,3338.319314,N,11743.513620,W,48.6,94.9,010210,,,A*70
$GPRMC,035355.7,A,3338.316397,N,11743.466099,W,48.4,93.2,010210,,,A*7A
$GPRMC,035358.7,A,3338.312736,N,11743.416941,W,48.7,94.4,010210,,,A*75
$GPRMC,035401.7,A,3338.309359,N,11743.369615,W,48.1,93.7,010210,,,A*7A
$GPRMC,035404.7,A,3338.305962,N,11743.321509,W,47.6,94.5,010210,,,A*7E
$GPRMC,035407.7,A,3338.302513,N,11743.274439,W,47.1,94.5,010210,,,A*74
$GPRMC,035410.7,A,3338.300121,N,11743.227257,W,46.6,94.1,010210,,,A*7F
$GPRMC,035413.7,A,3338.299729,N,11743.181401,W,46.6,89.6,010210,,,A*72
$GPRMC,035416.7,A,3338.306102,N,11743.137323,W,45.5,82.5,010210,,,A*7D
$GPRMC,035419.7,A,3338.313717,N,11743.093923,W,43.2,75.8,010210,,,A*75
$GPRMC,035422.7,A,3338.326234,N,11743.055450,W,41.0,68.2,010210,,,A*7A
$GPRMC,035425.7,A,3338.341280,N,11743.020615,W,37.7,61.3,010210,,,A*7C
$GPRMC,035428.7,A,3338.356376,N,11742.991475,W,31.5,57.1,010210,,,A*7A
$GPRMC,035431.7,A,3338.369152,N,11742.974891,W,20.7,44.0,010210,,,A*76
$GPRMC,035434.7,A,3338.376117,N,11742.967076,W,11.7,39.9,010210,,,A*7E
$GPRMC,035525.7,A,3338.385316,N,11742.952559,W,9.1,63.1,010210,,,A*46
$GPRMC,035528.7,A,3338.397210,N,11742.935948,W,16.2,59.2,010210,,,A*75
$GPRMC,035531.7,A,3338.416723,N,11742.913840,W,24.6,52.4,010210,,,A*73
$GPRMC,035534.7,A,3338.448424,N,11742.883296,W,39.5,43.5,010210,,,A*7E
$GPRMC,035537.7,A,3338.474699,N,11742.855907,W,40.7,43.3,010210,,,A*74
$GPRMC,035540.7,A,3338.503551,N,11742.828035,W,43.0,40.3,010210,,,A*77
$GPRMC,035543.7,A,3338.530678,N,11742.800836,W,42.7,38.3,010210,,,A*74
$GPRMC,035546.7,A,3338.559698,N,11742.775164,W,42.5,38.5,010210,,,A*77
$GPRMC,035549.7,A,3338.587967,N,11742.749929,W,41.0,37.8,010210,,,A*7E
$GPRMC,035552.7,A,3338.614033,N,11742.725829,W,39.2,38.4,010210,,,A*70
$GPRMC,035555.7,A,3338.637848,N,11742.701366,W,37.5,37.9,010210,,,A*7F
$GPRMC,035558.7,A,3338.663742,N,11742.680541,W,36.2,35.3,010210,,,A*73
$GPRMC,035601.7,A,3338.685410,N,11742.664613,W,30.4,29.9,010210,,,A*79
$GPRMC,035604.7,A,3338.697768,N,11742.658189,W,20.5,25.1,010210,,,A*7C
$GPRMC,035607.7,A,3338.706504,N,11742.654506,W,17.9,22.9,010210,,,A*76
$GPRMC,035610.7,A,3338.723862,N,11742.645371,W,25.2,23.6,010210,,,A*78
$GPRMC,035613.7,A,3338.747034,N,11742.632249,W,31.1,23.9,010210,,,A*71
$GPRMC,035616.7,A,3338.771768,N,11742.616248,W,35.0,29.1,010210,,,A*7F
$GPRMC,035619.7,A,3338.797875,N,11742.595649,W,38.8,33.4,010210,,,A*7D
$GPRMC,035622.7,A,3338.827656,N,11742.571323,W,42.0,35.3,010210,,,A*79
$GPRMC,035625.7,A,3338.858080,N,11742.546443,W,43.7,36.2,010210,,,A*7A
$GPRMC,035628.7,A,3338.886910,N,11742.522068,W,42.4,35.9,010210,,,A*71
$GPRMC,035631.7,A,3338.915684,N,11742.497847,W,43.0,36.0,010210,,,A*75
$GPRMC,035634.7,A,3338.944461,N,11742.473274,W,43.1,34.2,010210,,,A*7C
$GPRMC,035637.7,A,3338.974620,N,11742.449138,W,42.2,35.3,010210,,,A*7B
$GPRMC,035640.7,A,3339.004271,N,11742.424544,W,42.7,34.3,010210,,,A*74
$GPRMC,035643.7,A,3339.033851,N,11742.400642,W,43.0,34.8,010210,,,A*75
$GPRMC,035646.7,A,3339.063820,N,11742.375627,W,43.9,35.6,010210,,,A*73
$GPRMC,035649.7,A,3339.093474,N,11742.350524,W,43.2,34.7,010210,,,A*72
