NMEA Sentence Code,UTC Time,Status,Latitude,Latitude Direction,Longitude,Longitude Direction,Speed (knots),Track Angle (degrees true),Date,MagneticVariation,Magnetic Variation Direction,[FAA Mode]-Optional,Checksum
$GPRMC,043057.000,A,3346.7638,N,11627.7769,W,22.84,107.93,230810,,,A*45
$GPRMC,043100.000,A,3346.7555,N,11627.7537,W,23.33,109.69,230810,,,A*41
$GPRMC,043103.000,A,3346.7503,N,11627.7328,W,21.87,109.34,230810,,,A*4C
$GPRMC,043106.000,A,3346.7448,N,11627.7115,W,22.84,109.34,230810,,,A*4B
$GPRMC,043109.000,A,3346.7384,N,11627.6893,W,23.33,107.93,230810,,,A*4B
$GPRMC,043112.000,A,3346.7326,N,11627.6661,W,23.81,106.88,230810,,,A*48
$GPRMC,043115.000,A,3346.7262,N,11627.6433,W,23.81,107.93,230810,,,A*40
$GPRMC,043118.000,A,3346.7194,N,11627.6208,W,23.81,108.63,230810,,,A*49
$GPRMC,043121.000,A,3346.7130,N,11627.5982,W,23.83,109.34,230810,,,A*46
$GPRMC,043124.000,A,3346.7056,N,11627.5767,W,24.30,114.96,230810,,,A*4C
$GPRMC,043127.000,A,3346.6966,N,11627.5538,W,24.79,114.96,230810,,,A*41
$GPRMC,043130.000,A,3346.6882,N,11627.5316,W,24.79,113.91,230810,,,A*46
$GPRMC,043133.000,A,3346.6798,N,11627.5087,W,24.30,113.20,230810,,,A*4D
$GPRMC,043136.000,A,3346.6718,N,11627.4875,W,24.30,113.91,230810,,,A*4E
$GPRMC,043139.000,A,3346.6628,N,11627.4640,W,27.22,116.72,230810,,,A*43
$GPRMC,043142.000,A,3346.6521,N,11627.4389,W,29.18,118.12,230810,,,A*4A
$GPRMC,043145.000,A,3346.6405,N,11627.4132,W,29.18,117.07,230810,,,A*43
$GPRMC,043148.000,A,3346.6296,N,11627.3868,W,29.16,115.31,230810,,,A*4A
$GPRMC,043151.000,A,3346.6190,N,11627.3597,W,29.66,113.91,230810,,,A*41
$GPRMC,043154.000,A,3346.6096,N,11627.3324,W,29.65,110.74,230810,,,A*46
$GPRMC,043157.000,A,3346.6016,N,11627.3050,W,28.67,108.28,230810,,,A*4E
$GPRMC,043200.000,A,3346.5952,N,11627.2777,W,28.19,105.47,230810,,,A*4B
$GPRMC,043203.000,A,3346.5894,N,11627.2500,W,28.67,103.01,230810,,,A*4C
$GPRMC,043206.000,A,3346.5862,N,11627.2213,W,29.65,98.79,230810,,,A*7A
$GPRMC,043209.000,A,3346.5829,N,11627.1904,W,31.59,98.79,230810,,,A*72
$GPRMC,043212.000,A,3346.5784,N,11627.1595,W,31.59,101.95,230810,,,A*47
$GPRMC,043215.000,A,3346.5710,N,11627.1296,W,31.59,108.98,230810,,,A*4D
$GPRMC,043218.000,A,3346.5604,N,11627.1000,W,32.07,116.37,230810,,,A*4B
$GPRMC,043221.000,A,3346.5469,N,11627.0723,W,32.07,122.34,230810,,,A*4B
$GPRMC,043224.000,A,3346.5321,N,11627.0456,W,32.07,123.75,230810,,,A*40
$GPRMC,043227.000,A,3346.5176,N,11627.0189,W,31.59,123.40,230810,,,A*4A
$GPRMC,043230.000,A,3346.5038,N,11626.9931,W,29.65,124.10,230810,,,A*40
$GPRMC,043233.000,A,3346.4893,N,11626.9687,W,30.13,127.27,230810,,,A*47
$GPRMC,043236.000,A,3346.4735,N,11626.9452,W,30.62,130.08,230810,,,A*46
$GPRMC,043239.000,A,3346.4555,N,11626.9236,W,31.10,135.35,230810,,,A*46
$GPRMC,043242.000,A,3346.4365,N,11626.9040,W,30.13,140.27,230810,,,A*4F
$GPRMC,043245.000,A,3346.4162,N,11626.8859,W,28.67,144.84,230810,,,A*4B
$GPRMC,043248.000,A,3346.3966,N,11626.8698,W,28.19,148.01,230810,,,A*46
$GPRMC,043251.000,A,3346.3776,N,11626.8573,W,24.79,152.58,230810,,,A*4A
$GPRMC,043254.000,A,3346.3625,N,11626.8489,W,17.98,156.80,230810,,,A*42
$GPRMC,043257.000,A,3346.3541,N,11626.8447,W,7.78,157.50,230810,,,A*71
$GPRMC,043300.000,A,3346.3505,N,11626.8428,W,4.86,152.93,230810,,,A*73
$GPRMC,043303.000,A,3346.3412,N,11626.8383,W,15.55,159.26,230810,,,A*4A
$GPRMC,043306.000,A,3346.3235,N,11626.8315,W,25.78,162.42,230810,,,A*45
$GPRMC,043309.000,A,3346.3013,N,11626.8235,W,29.16,164.18,230810,,,A*42
$GPRMC,043312.000,A,3346.2772,N,11626.8158,W,29.65,164.88,230810,,,A*4C
$GPRMC,043315.000,A,3346.2527,N,11626.8080,W,30.62,165.59,230810,,,A*4F
$GPRMC,043318.000,A,3346.2279,N,11626.8010,W,32.07,165.94,230810,,,A*47
$GPRMC,043321.000,A,3346.2018,N,11626.7936,W,32.56,166.29,230810,,,A*4B
$GPRMC,043324.000,A,3346.1758,N,11626.7852,W,32.07,164.88,230810,,,A*40
$GPRMC,043327.000,A,3346.1500,N,11626.7743,W,31.10,159.26,230810,,,A*4C
$GPRMC,043330.000,A,3346.1268,N,11626.7630,W,30.13,157.50,230810,,,A*4B
$GPRMC,043333.000,A,3346.1040,N,11626.7504,W,30.62,155.04,230810,,,A*41
$GPRMC,043336.000,A,3346.0815,N,11626.7376,W,29.16,153.28,230810,,,A*4D
$GPRMC,043339.000,A,3346.0599,N,11626.7237,W,29.16,152.93,230810,,,A*4E
$GPRMC,043342.000,A,3346.0387,N,11626.7105,W,29.16,152.93,230810,,,A*49
$GPRMC,043345.000,A,3346.0155,N,11626.6964,W,31.10,152.93,230810,,,A*42
$GPRMC,043348.000,A,3345.9913,N,11626.6822,W,32.07,152.58,230810,,,A*4E
$GPRMC,043351.000,A,3345.9685,N,11626.6671,W,31.10,152.93,230810,,,A*4C
$GPRMC,043354.000,A,3345.9460,N,11626.6526,W,30.62,151.88,230810,,,A*4C
$GPRMC,043357.000,A,3345.9231,N,11626.6381,W,31.10,151.17,230810,,,A*44
$GPRMC,043400.000,A,3345.9003,N,11626.6230,W,30.62,151.88,230810,,,A*4B
$GPRMC,043403.000,A,3345.8771,N,11626.6098,W,31.12,152.58,230810,,,A*43
$GPRMC,043406.000,A,3345.8539,N,11626.5956,W,31.59,152.23,230810,,,A*43
$GPRMC,043409.000,A,3345.8301,N,11626.5811,W,32.56,153.28,230810,,,A*45
$GPRMC,043412.000,A,3345.8056,N,11626.5663,W,33.05,152.93,230810,,,A*43
$GPRMC,043415.000,A,3345.7818,N,11626.5509,W,31.59,150.82,230810,,,A*4F
$GPRMC,043418.000,A,3345.7590,N,11626.5364,W,30.13,149.06,230810,,,A*49
$GPRMC,043421.000,A,3345.7384,N,11626.5190,W,29.65,145.90,230810,,,A*43
$GPRMC,043424.000,A,3345.7184,N,11626.5013,W,29.30,141.68,230810,,,A*4D
$GPRMC,043427.000,A,3345.6997,N,11626.4833,W,28.67,139.57,230810,,,A*4E
$GPRMC,043430.000,A,3345.6817,N,11626.4640,W,28.67,138.16,230810,,,A*4F
$GPRMC,043433.000,A,3345.6663,N,11626.4450,W,27.22,134.30,230810,,,A*44
$GPRMC,043436.000,A,3345.6508,N,11626.4247,W,27.22,131.84,230810,,,A*45
$GPRMC,043439.000,A,3345.6373,N,11626.4051,W,25.76,129.38,230810,,,A*48
$GPRMC,043442.000,A,3345.6244,N,11626.3848,W,24.79,128.67,230810,,,A*43
$GPRMC,043445.000,A,3345.6112,N,11626.3661,W,23.81,129.38,230810,,,A*4A
$GPRMC,043448.000,A,3345.6006,N,11626.3510,W,17.50,129.38,230810,,,A*4D
$GPRMC,043457.000,A,3345.5935,N,11626.3404,W,8.75,129.02,230810,,,A*7D
$GPRMC,043500.000,A,3345.5871,N,11626.3294,W,17.50,128.67,230810,,,A*4B
$GPRMC,043503.000,A,3345.5761,N,11626.3133,W,23.33,129.02,230810,,,A*48
$GPRMC,043506.000,A,3345.5626,N,11626.2934,W,28.19,129.02,230810,,,A*42
$GPRMC,043509.000,A,3345.5472,N,11626.2705,W,30.62,129.02,230810,,,A*47
$GPRMC,043512.000,A,3345.5304,N,11626.2454,W,32.56,129.02,230810,,,A*49
$GPRMC,043515.000,A,3345.5131,N,11626.2203,W,33.05,128.67,230810,,,A*4B
$GPRMC,043518.000,A,3345.4963,N,11626.1959,W,30.62,129.73,230810,,,A*49
$GPRMC,043521.000,A,3345.4818,N,11626.1733,W,26.24,124.80,230810,,,A*48
$GPRMC,043524.000,A,3345.4702,N,11626.1547,W,18.47,128.32,230810,,,A*45
$GPRMC,043533.000,A,3345.4622,N,11626.1424,W,1.46,129.38,230810,,,A*76
$GPRMC,043536.000,A,3345.4587,N,11626.1370,W,13.12,116.37,230810,,,A*48
$GPRMC,043539.000,A,3345.4561,N,11626.1199,W,21.41,90.70,230810,,,A*71
$GPRMC,043542.000,A,3345.4561,N,11626.0958,W,26.24,89.65,230810,,,A*71
$GPRMC,043545.000,A,3345.4558,N,11626.0681,W,28.67,90.70,230810,,,A*72
$GPRMC,043548.000,A,3345.4558,N,11626.0375,W,31.10,89.65,230810,,,A*75
$GPRMC,043551.000,A,3345.4564,N,11626.0050,W,33.05,90.35,230810,,,A*7D
$GPRMC,043554.000,A,3345.4564,N,11625.9706,W,34.50,90.70,230810,,,A*70
$GPRMC,043557.000,A,3345.4564,N,11625.9352,W,35.96,88.95,230810,,,A*7F
$GPRMC,043600.000,A,3345.4564,N,11625.8994,W,35.48,91.05,230810,,,A*7D
$GPRMC,043603.000,A,3345.4561,N,11625.8643,W,35.00,90.70,230810,,,A*71
$GPRMC,043606.000,A,3345.4561,N,11625.8296,W,34.56,89.30,230810,,,A*76
$GPRMC,043609.000,A,3345.4570,N,11625.7942,W,35.53,89.30,230810,,,A*70
$GPRMC,043612.000,A,3345.4574,N,11625.7588,W,35.48,88.95,230810,,,A*70
$GPRMC,043615.000,A,3345.4583,N,11625.7237,W,34.52,88.24,230810,,,A*7C
$GPRMC,043618.000,A,3345.4587,N,11625.6892,W,33.55,88.95,230810,,,A*7B
$GPRMC,043621.000,A,3345.4593,N,11625.6574,W,32.58,88.24,230810,,,A*77
$GPRMC,043624.000,A,3345.4609,N,11625.6252,W,33.05,82.97,230810,,,A*7A
$GPRMC,043627.000,A,3345.4651,N,11625.5924,W,33.05,81.21,230810,,,A*73
$GPRMC,043630.000,A,3345.4680,N,11625.5618,W,23.81,87.19,230810,,,A*79
$GPRMC,043633.000,A,3345.4683,N,11625.5486,W,7.29,90.70,230810,,,A*41
$GPRMC,043636.000,A,3345.4683,N,11625.5370,W,16.04,90.35,230810,,,A*74
$GPRMC,043639.000,A,3345.4683,N,11625.5177,W,21.87,90.00,230810,,,A*77
$GPRMC,043642.000,A,3345.4683,N,11625.4913,W,29.16,89.30,230810,,,A*7B
$GPRMC,043645.000,A,3345.4686,N,11625.4610,W,31.10,88.95,230810,,,A*74
$GPRMC,043648.000,A,3345.4693,N,11625.4292,W,33.05,88.59,230810,,,A*75
$GPRMC,043651.000,A,3345.4696,N,11625.3947,W,34.99,90.00,230810,,,A*7B
$GPRMC,043654.000,A,3345.4696,N,11625.3597,W,34.99,90.00,230810,,,A*7F
$GPRMC,043657.000,A,3345.4696,N,11625.3239,W,35.96,90.00,230810,,,A*71
$GPRMC,043700.000,A,3345.4696,N,11625.2876,W,35.48,90.00,230810,,,A*71
$GPRMC,043703.000,A,3345.4696,N,11625.2525,W,35.48,90.35,230810,,,A*7F
$GPRMC,043706.000,A,3345.4696,N,11625.2167,W,35.48,90.00,230810,,,A*7E
$GPRMC,043709.000,A,3345.4696,N,11625.1823,W,33.05,90.35,230810,,,A*72
$GPRMC,043712.000,A,3345.4696,N,11625.1501,W,31.10,91.05,230810,,,A*71
$GPRMC,043715.000,A,3345.4690,N,11625.1186,W,31.59,91.41,230810,,,A*76
$GPRMC,043718.000,A,3345.4686,N,11625.0874,W,30.62,90.70,230810,,,A*73
$GPRMC,043721.000,A,3345.4686,N,11625.0571,W,31.10,90.35,230810,,,A*74
$GPRMC,043724.000,A,3345.4683,N,11625.0252,W,32.56,90.35,230810,,,A*73
$GPRMC,043727.000,A,3345.4683,N,11624.9921,W,34.50,90.00,230810,,,A*71
$GPRMC,043730.000,A,3345.4683,N,11624.9573,W,34.02,90.00,230810,,,A*7B
$GPRMC,043733.000,A,3345.4680,N,11624.9242,W,32.56,90.00,230810,,,A*79
$GPRMC,043736.000,A,3345.4680,N,11624.8910,W,34.02,90.00,230810,,,A*76
$GPRMC,043739.000,A,3345.4680,N,11624.8559,W,35.96,89.30,230810,,,A*7F
$GPRMC,043742.000,A,3345.4683,N,11624.8209,W,34.50,89.30,230810,,,A*79
$GPRMC,043745.000,A,3345.4683,N,11624.7867,W,33.53,89.65,230810,,,A*77
$GPRMC,043748.000,A,3345.4680,N,11624.7539,W,32.07,90.70,230810,,,A*73
$GPRMC,043751.000,A,3345.4680,N,11624.7220,W,32.07,90.00,230810,,,A*73
$GPRMC,043754.000,A,3345.4680,N,11624.6899,W,33.05,89.30,230810,,,A*77
$GPRMC,043757.000,A,3345.4686,N,11624.6567,W,33.05,89.30,230810,,,A*7E
$GPRMC,043800.000,A,3345.4683,N,11624.6242,W,32.56,90.00,230810,,,A*7A
$GPRMC,043803.000,A,3345.4677,N,11624.5910,W,32.56,89.65,230810,,,A*76
$GPRMC,043806.000,A,3345.4677,N,11624.5595,W,31.10,90.00,230810,,,A*78
$GPRMC,043809.000,A,3345.4677,N,11624.5286,W,30.13,89.65,230810,,,A*7B
$GPRMC,043812.000,A,3345.4680,N,11624.4990,W,29.65,90.00,230810,,,A*76
$GPRMC,043815.000,A,3345.4677,N,11624.4687,W,30.62,90.00,230810,,,A*7F
$GPRMC,043818.000,A,3345.4677,N,11624.4369,W,32.56,90.35,230810,,,A*74
$GPRMC,043821.000,A,3345.4667,N,11624.4034,W,34.99,92.11,230810,,,A*75
$GPRMC,043824.000,A,3345.4664,N,11624.3690,W,34.02,91.41,230810,,,A*78
$GPRMC,043827.000,A,3345.4664,N,11624.3358,W,31.59,90.00,230810,,,A*75
$GPRMC,043830.000,A,3345.4661,N,11624.3049,W,31.10,89.65,230810,,,A*73
$GPRMC,043833.000,A,3345.4661,N,11624.2743,W,31.10,90.00,230810,,,A*77
$GPRMC,043836.000,A,3345.4661,N,11624.2431,W,31.59,90.00,230810,,,A*79
$GPRMC,043839.000,A,3345.4664,N,11624.2109,W,32.56,90.00,230810,,,A*71
$GPRMC,043842.000,A,3345.4661,N,11624.1791,W,31.10,89.30,230810,,,A*76
$GPRMC,043845.000,A,3345.4667,N,11624.1485,W,30.13,89.30,230810,,,A*73
$GPRMC,043848.000,A,3345.4667,N,11624.1185,W,29.65,90.35,230810,,,A*7F
$GPRMC,043851.000,A,3345.4667,N,11624.0889,W,29.65,90.35,230810,,,A*73
$GPRMC,043854.000,A,3345.4667,N,11624.0590,W,29.65,89.65,230810,,,A*7E
$GPRMC,043857.000,A,3345.4664,N,11624.0287,W,30.13,90.00,230810,,,A*7D
$GPRMC,043900.000,A,3345.4667,N,11623.9988,W,29.65,90.70,230810,,,A*79
$GPRMC,043903.000,A,3345.4664,N,11623.9695,W,30.13,90.00,230810,,,A*74
$GPRMC,043906.000,A,3345.4667,N,11623.9389,W,31.10,90.35,230810,,,A*7E
$GPRMC,043909.000,A,3345.4664,N,11623.9084,W,30.13,90.00,230810,,,A*78
$GPRMC,043912.000,A,3345.4664,N,11623.8791,W,29.16,90.00,230810,,,A*7D
$GPRMC,043915.000,A,3345.4667,N,11623.8491,W,30.13,89.65,230810,,,A*7C
$GPRMC,043918.000,A,3345.4670,N,11623.8186,W,31.10,89.65,230810,,,A*76
$GPRMC,043921.000,A,3345.4670,N,11623.7873,W,31.10,89.65,230810,,,A*70
$GPRMC,043924.000,A,3345.4667,N,11623.7555,W,32.07,90.35,230810,,,A*72
$GPRMC,043927.000,A,3345.4667,N,11623.7236,W,31.59,90.00,230810,,,A*7D
$GPRMC,043930.000,A,3345.4667,N,11623.6921,W,31.10,90.35,230810,,,A*7C
$GPRMC,043933.000,A,3345.4670,N,11623.6615,W,29.65,89.30,230810,,,A*77
$GPRMC,043936.000,A,3345.4673,N,11623.6354,W,22.36,89.65,230810,,,A*7C
$GPRMC,043939.000,A,3345.4673,N,11623.6184,W,12.15,91.41,230810,,,A*71
$GPRMC,043951.000,A,3345.4673,N,11623.6100,W,7.29,91.41,230810,,,A*48
$GPRMC,043954.000,A,3345.4673,N,11623.5981,W,14.58,89.65,230810,,,A*74
$GPRMC,043957.000,A,3345.4670,N,11623.5810,W,19.44,89.65,230810,,,A*7D
$GPRMC,044000.000,A,3345.4670,N,11623.5595,W,22.84,88.95,230810,,,A*7B
$GPRMC,044003.000,A,3345.4673,N,11623.5356,W,24.30,89.65,230810,,,A*75
$GPRMC,044006.000,A,3345.4673,N,11623.5122,W,22.36,90.00,230810,,,A*7A
$GPRMC,044009.000,A,3345.4677,N,11623.4893,W,23.81,90.00,230810,,,A*7E
$GPRMC,044012.000,A,3345.4680,N,11623.4648,W,24.79,89.30,230810,,,A*7F
$GPRMC,044015.000,A,3345.4677,N,11623.4388,W,27.22,90.70,230810,,,A*78
$GPRMC,044018.000,A,3345.4680,N,11623.4095,W,30.62,89.30,230810,,,A*7C
$GPRMC,044021.000,A,3345.4683,N,11623.3786,W,30.13,89.30,230810,,,A*71
$GPRMC,044024.000,A,3345.4683,N,11623.3486,W,29.65,89.65,230810,,,A*7E
$GPRMC,044027.000,A,3345.4686,N,11623.3197,W,28.67,90.00,230810,,,A*75
$GPRMC,044030.000,A,3345.4686,N,11623.2917,W,28.67,89.65,230810,,,A*79
$GPRMC,044033.000,A,3345.4683,N,11623.2617,W,31.10,90.00,230810,,,A*73
$GPRMC,044036.000,A,3345.4683,N,11623.2292,W,34.02,89.30,230810,,,A*72
$GPRMC,044039.000,A,3345.4686,N,11623.1951,W,34.03,90.00,230810,,,A*75
$GPRMC,044042.000,A,3345.4686,N,11623.1613,W,33.53,90.00,230810,,,A*72
$GPRMC,044045.000,A,3345.4690,N,11623.1295,W,30.62,89.65,230810,,,A*72
$GPRMC,044048.000,A,3345.4693,N,11623.0992,W,29.65,88.95,230810,,,A*70
$GPRMC,044051.000,A,3345.4696,N,11623.0693,W,30.13,89.30,230810,,,A*74
$GPRMC,044054.000,A,3345.4699,N,11623.0384,W,31.10,90.35,230810,,,A*72
$GPRMC,044057.000,A,3345.4696,N,11623.0065,W,32.07,89.65,230810,,,A*7A
$GPRMC,044100.000,A,3345.4699,N,11622.9743,W,32.58,89.65,230810,,,A*77
$GPRMC,044103.000,A,3345.4696,N,11622.9412,W,34.03,90.70,230810,,,A*78
$GPRMC,044106.000,A,3345.4702,N,11622.9077,W,33.05,89.30,230810,,,A*7B
$GPRMC,044109.000,A,3345.4706,N,11622.8742,W,34.02,89.65,230810,,,A*70
$GPRMC,044112.000,A,3345.4709,N,11622.8417,W,32.07,90.00,230810,,,A*7E
$GPRMC,044115.000,A,3345.4709,N,11622.8089,W,33.53,90.00,230810,,,A*7A
$GPRMC,044118.000,A,3345.4709,N,11622.7754,W,33.53,89.65,230810,,,A*74
$GPRMC,044121.000,A,3345.4712,N,11622.7416,W,33.53,89.30,230810,,,A*71
$GPRMC,044124.000,A,3345.4712,N,11622.7088,W,33.05,89.65,230810,,,A*74
$GPRMC,044127.000,A,3345.4712,N,11622.6759,W,32.56,89.65,230810,,,A*7A
$GPRMC,044130.000,A,3345.4715,N,11622.6438,W,32.09,89.65,230810,,,A*75
$GPRMC,044133.000,A,3345.4715,N,11622.6125,W,30.15,89.65,230810,,,A*70
$GPRMC,044136.000,A,3345.4719,N,11622.5820,W,31.59,89.30,230810,,,A*7F
$GPRMC,044139.000,A,3345.4722,N,11622.5504,W,32.07,88.95,230810,,,A*75
$GPRMC,044142.000,A,3345.4725,N,11622.5192,W,31.10,89.30,230810,,,A*7E
$GPRMC,044145.000,A,3345.4728,N,11622.4880,W,29.65,89.30,230810,,,A*74
$GPRMC,044148.000,A,3345.4731,N,11622.4619,W,22.36,89.65,230810,,,A*72
$GPRMC,044151.000,A,3345.4731,N,11622.4436,W,13.12,89.65,230810,,,A*71
$GPRMC,044157.000,A,3345.4735,N,11622.4365,W,1.46,86.84,230810,,,A*40
$GPRMC,044200.000,A,3345.4731,N,11622.4304,W,9.23,90.70,230810,,,A*45
$GPRMC,044203.000,A,3345.4735,N,11622.4152,W,17.98,90.35,230810,,,A*7D
$GPRMC,044206.000,A,3345.4735,N,11622.3946,W,22.84,90.35,230810,,,A*79
$GPRMC,044209.000,A,3345.4738,N,11622.3699,W,25.76,88.95,230810,,,A*7F
$GPRMC,044212.000,A,3345.4735,N,11622.3399,W,30.13,90.00,230810,,,A*7F
$GPRMC,044215.000,A,3345.4738,N,11622.3093,W,31.59,90.70,230810,,,A*74
$GPRMC,044218.000,A,3345.4738,N,11622.2765,W,33.53,88.95,230810,,,A*7C
$GPRMC,044221.000,A,3345.4738,N,11622.2421,W,34.99,89.65,230810,,,A*7A
$GPRMC,044224.000,A,3345.4735,N,11622.2067,W,35.48,90.70,230810,,,A*75
$GPRMC,044227.000,A,3345.4735,N,11622.1709,W,36.93,88.59,230810,,,A*7D
$GPRMC,044230.000,A,3345.4741,N,11622.1342,W,36.45,89.30,230810,,,A*76
$GPRMC,044233.000,A,3345.4744,N,11622.0982,W,35.48,89.65,230810,,,A*79
$GPRMC,044235.000,A,3345.4744,N,11622.0747,W,34.99,89.65,230810,,,A*75
$GPRMC,044239.000,A,3345.4741,N,11622.0287,W,34.02,89.65,230810,,,A*77
$GPRMC,044242.000,A,3345.4741,N,11621.9952,W,33.53,89.65,230810,,,A*71
$GPRMC,044245.000,A,3345.4751,N,11621.9611,W,34.02,88.59,230810,,,A*72
$GPRMC,044248.000,A,3345.4741,N,11621.9276,W,34.02,90.00,230810,,,A*7E
$GPRMC,044251.000,A,3345.4744,N,11621.8932,W,34.02,89.30,230810,,,A*72
$GPRMC,044254.000,A,3345.4767,N,11621.8587,W,34.02,87.54,230810,,,A*78
$GPRMC,044257.000,A,3345.4780,N,11621.8256,W,33.53,88.24,230810,,,A*72
$GPRMC,044300.000,A,3345.4767,N,11621.7940,W,32.07,89.65,230810,,,A*7F
$GPRMC,044303.000,A,3345.4760,N,11621.7622,W,31.10,91.05,230810,,,A*7A
$GPRMC,044306.000,A,3345.4767,N,11621.7322,W,31.10,89.65,230810,,,A*72
$GPRMC,044309.000,A,3345.4764,N,11621.7007,W,30.62,90.00,230810,,,A*75
$GPRMC,044312.000,A,3345.4760,N,11621.6692,W,31.59,90.00,230810,,,A*79
$GPRMC,044315.000,A,3345.4760,N,11621.6383,W,31.10,90.00,230810,,,A*76
$GPRMC,044318.000,A,3345.4757,N,11621.6070,W,31.59,90.70,230810,,,A*7A
$GPRMC,044321.000,A,3345.4754,N,11621.5748,W,32.07,89.65,230810,,,A*78
$GPRMC,044324.000,A,3345.4757,N,11621.5427,W,31.10,88.95,230810,,,A*7F
$GPRMC,044327.000,A,3345.4773,N,11621.5124,W,30.62,87.19,230810,,,A*73
$GPRMC,044330.000,A,3345.4776,N,11621.4821,W,30.13,88.24,230810,,,A*7A
$GPRMC,044333.000,A,3345.4773,N,11621.4545,W,26.73,90.35,230810,,,A*7B
$GPRMC,044336.000,A,3345.4783,N,11621.4284,W,23.33,90.00,230810,,,A*7C
$GPRMC,044339.000,A,3345.4776,N,11621.4078,W,17.50,89.30,230810,,,A*71
$GPRMC,044342.000,A,3345.4773,N,11621.3952,W,7.78,91.41,230810,,,A*4A
$GPRMC,044354.000,A,3345.4767,N,11621.3898,W,1.46,93.16,230810,,,A*44
$GPRMC,044357.000,A,3345.4773,N,11621.3801,W,11.18,95.98,230810,,,A*78
$GPRMC,044400.000,A,3345.4776,N,11621.3611,W,19.93,88.95,230810,,,A*7D
$GPRMC,044403.000,A,3345.4780,N,11621.3357,W,25.76,91.76,230810,,,A*71
$GPRMC,044406.000,A,3345.4786,N,11621.3061,W,29.65,91.41,230810,,,A*7E
$GPRMC,044409.000,A,3345.4802,N,11621.2739,W,31.59,89.65,230810,,,A*70
$GPRMC,044412.000,A,3345.4799,N,11621.2424,W,32.07,90.00,230810,,,A*7B
$GPRMC,044415.000,A,3345.4793,N,11621.2108,W,32.56,90.00,230810,,,A*79
$GPRMC,044418.000,A,3345.4793,N,11621.1783,W,32.56,89.65,230810,,,A*79
$GPRMC,044421.000,A,3345.4793,N,11621.1448,W,33.53,89.30,230810,,,A*73
$GPRMC,044424.000,A,3345.4793,N,11621.1120,W,32.07,90.70,230810,,,A*71
$GPRMC,044427.000,A,3345.4793,N,11621.0795,W,31.59,89.65,230810,,,A*7F
$GPRMC,044430.000,A,3345.4799,N,11621.0483,W,31.10,89.30,230810,,,A*7A
$GPRMC,044433.000,A,3345.4793,N,11621.0174,W,31.10,90.00,230810,,,A*75
$GPRMC,044436.000,A,3345.4789,N,11620.9858,W,32.07,90.00,230810,,,A*71
$GPRMC,044439.000,A,3345.4789,N,11620.9533,W,33.05,90.35,230810,,,A*7B
$GPRMC,044442.000,A,3345.4793,N,11620.9189,W,34.99,89.30,230810,,,A*76
$GPRMC,044445.000,A,3345.4793,N,11620.8828,W,36.45,91.05,230810,,,A*7E
$GPRMC,044448.000,A,3345.4796,N,11620.8455,W,37.42,89.65,230810,,,A*79
$GPRMC,044451.000,A,3345.4793,N,11620.8072,W,37.91,90.00,230810,,,A*70
$GPRMC,044454.000,A,3345.4793,N,11620.7695,W,36.93,89.65,230810,,,A*7D
$GPRMC,044457.000,A,3345.4789,N,11620.7319,W,37.42,89.65,230810,,,A*79
$GPRMC,044500.000,A,3345.4786,N,11620.6955,W,35.96,90.35,230810,,,A*70
$GPRMC,044503.000,A,3345.4789,N,11620.6611,W,34.03,90.35,230810,,,A*7E
$GPRMC,044506.000,A,3345.4783,N,11620.6270,W,34.02,91.05,230810,,,A*71
$GPRMC,044509.000,A,3345.4776,N,11620.5928,W,34.02,90.70,230810,,,A*72
$GPRMC,044512.000,A,3345.4773,N,11620.5587,W,33.53,91.76,230810,,,A*70
$GPRMC,044515.000,A,3345.4776,N,11620.5246,W,34.02,90.35,230810,,,A*7D
$GPRMC,044518.000,A,3345.4783,N,11620.4908,W,34.02,91.05,230810,,,A*78
$GPRMC,044521.000,A,3345.4786,N,11620.4567,W,33.53,90.00,230810,,,A*75
$GPRMC,044524.000,A,3345.4799,N,11620.4235,W,32.56,88.59,230810,,,A*7F
$GPRMC,044527.000,A,3345.4799,N,11620.3917,W,31.59,90.70,230810,,,A*7E
$GPRMC,044530.000,A,3345.4799,N,11620.3604,W,31.10,91.05,230810,,,A*7B
$GPRMC,044533.000,A,3345.4802,N,11620.3286,W,31.59,88.95,230810,,,A*77
$GPRMC,044536.000,A,3345.4799,N,11620.2970,W,33.55,89.30,230810,,,A*7C
$GPRMC,044539.000,A,3345.4805,N,11620.2632,W,34.02,88.95,230810,,,A*7B
$GPRMC,044542.000,A,3345.4815,N,11620.2282,W,35.00,89.30,230810,,,A*74
$GPRMC,044545.000,A,3345.4822,N,11620.1931,W,35.00,89.65,230810,,,A*77
$GPRMC,044548.000,A,3345.4828,N,11620.1586,W,34.99,88.95,230810,,,A*7F
$GPRMC,044551.000,A,3345.4838,N,11620.1245,W,34.02,89.65,230810,,,A*72
$GPRMC,044554.000,A,3345.4834,N,11620.0901,W,34.02,90.35,230810,,,A*7C
$GPRMC,044557.000,A,3345.4844,N,11620.0576,W,32.56,88.59,230810,,,A*70
$GPRMC,044600.000,A,3345.4844,N,11620.0254,W,31.59,88.59,230810,,,A*7A
$GPRMC,044603.000,A,3345.4854,N,11619.9945,W,30.13,88.95,230810,,,A*7F
$GPRMC,044606.000,A,3345.4860,N,11619.9639,W,30.13,88.95,230810,,,A*79
$GPRMC,044609.000,A,3345.4870,N,11619.9337,W,31.59,88.95,230810,,,A*73
$GPRMC,044612.000,A,3345.4876,N,11619.9018,W,32.07,88.95,230810,,,A*79
$GPRMC,044615.000,A,3345.4883,N,11619.8696,W,33.05,89.30,230810,,,A*78
$GPRMC,044618.000,A,3345.4883,N,11619.8361,W,33.05,89.30,230810,,,A*78
$GPRMC,044621.000,A,3345.4876,N,11619.8036,W,32.07,89.65,230810,,,A*7A
$GPRMC,044624.000,A,3345.4883,N,11619.7721,W,30.62,89.30,230810,,,A*7A
$GPRMC,044627.000,A,3345.4889,N,11619.7425,W,29.18,89.30,230810,,,A*71
$GPRMC,044630.000,A,3345.4889,N,11619.7141,W,28.19,90.35,230810,,,A*7D
$GPRMC,044633.000,A,3345.4889,N,11619.6855,W,27.72,90.00,230810,,,A*77
$GPRMC,044636.000,A,3345.4892,N,11619.6581,W,27.72,89.30,230810,,,A*77
$GPRMC,044639.000,A,3345.4892,N,11619.6301,W,28.69,88.59,230810,,,A*7D
$GPRMC,044642.000,A,3345.4899,N,11619.6008,W,29.65,89.30,230810,,,A*73
$GPRMC,044645.000,A,3345.4899,N,11619.5699,W,32.07,89.65,230810,,,A*77
$GPRMC,044648.000,A,3345.4905,N,11619.5381,W,31.59,90.00,230810,,,A*71
$GPRMC,044651.000,A,3345.4908,N,11619.5062,W,31.59,88.95,230810,,,A*7F
$GPRMC,044654.000,A,3345.4915,N,11619.4744,W,32.09,88.59,230810,,,A*72
$GPRMC,044657.000,A,3345.4918,N,11619.4422,W,32.58,89.30,230810,,,A*75
$GPRMC,044700.000,A,3345.4918,N,11619.4093,W,33.05,88.95,230810,,,A*7F
$GPRMC,044703.000,A,3345.4928,N,11619.3772,W,32.56,88.59,230810,,,A*77
$GPRMC,044706.000,A,3345.4931,N,11619.3450,W,31.60,90.35,230810,,,A*7C
$GPRMC,044709.000,A,3345.4934,N,11619.3131,W,32.56,90.35,230810,,,A*72
$GPRMC,044712.000,A,3345.4947,N,11619.2799,W,33.05,90.00,230810,,,A*78
$GPRMC,044715.000,A,3345.4941,N,11619.2471,W,33.05,90.00,230810,,,A*7C
$GPRMC,044718.000,A,3345.4950,N,11619.2120,W,34.50,88.95,230810,,,A*72
$GPRMC,044721.000,A,3345.4963,N,11619.1766,W,34.99,88.59,230810,,,A*7A
$GPRMC,044724.000,A,3345.4976,N,11619.1435,W,33.53,87.89,230810,,,A*7D
$GPRMC,044727.000,A,3345.4976,N,11619.1113,W,32.07,89.30,230810,,,A*73
$GPRMC,044730.000,A,3345.4941,N,11619.0810,W,31.59,92.46,230810,,,A*79
$GPRMC,044733.000,A,3345.4931,N,11619.0498,W,31.59,90.70,230810,,,A*76
$GPRMC,044736.000,A,3345.4921,N,11619.0176,W,32.56,90.35,230810,,,A*7A
$GPRMC,044739.000,A,3345.4928,N,11618.9848,W,34.02,90.35,230810,,,A*77
$GPRMC,044742.000,A,3345.4921,N,11618.9510,W,34.02,90.70,230810,,,A*73
$GPRMC,044745.000,A,3345.4921,N,11618.9166,W,34.99,90.70,230810,,,A*73
$GPRMC,044748.000,A,3345.4915,N,11618.8808,W,34.99,90.70,230810,,,A*79
$GPRMC,044751.000,A,3345.4905,N,11618.8477,W,33.53,90.70,230810,,,A*75
$GPRMC,044754.000,A,3345.4908,N,11618.8149,W,32.56,90.35,230810,,,A*70
$GPRMC,044757.000,A,3345.4902,N,11618.7817,W,33.05,90.70,230810,,,A*72
$GPRMC,044800.000,A,3345.4902,N,11618.7492,W,33.53,90.35,230810,,,A*7C
$GPRMC,044803.000,A,3345.4905,N,11618.7151,W,33.53,90.35,230810,,,A*72
$GPRMC,044806.000,A,3345.4896,N,11618.6835,W,32.56,91.05,230810,,,A*70
$GPRMC,044809.000,A,3345.4896,N,11618.6504,W,33.05,90.70,230810,,,A*74
$GPRMC,044812.000,A,3345.4889,N,11618.6179,W,33.05,90.70,230810,,,A*7E
$GPRMC,044815.000,A,3345.4883,N,11618.5850,W,33.53,90.00,230810,,,A*76
$GPRMC,044818.000,A,3345.4886,N,11618.5503,W,34.99,90.35,230810,,,A*72
$GPRMC,044821.000,A,3345.4883,N,11618.5149,W,34.99,90.35,230810,,,A*77
$GPRMC,044824.000,A,3345.4896,N,11618.4808,W,34.02,89.30,230810,,,A*74
$GPRMC,044827.000,A,3345.4873,N,11618.4470,W,34.50,90.70,230810,,,A*74
$GPRMC,044830.000,A,3345.4873,N,11618.4125,W,34.50,91.05,230810,,,A*74
$GPRMC,044833.000,A,3345.4867,N,11618.3794,W,32.07,90.70,230810,,,A*7E
$GPRMC,044836.000,A,3345.4860,N,11618.3478,W,31.10,90.00,230810,,,A*7F
$GPRMC,044839.000,A,3345.4863,N,11618.3166,W,31.59,90.70,230810,,,A*73
$GPRMC,044842.000,A,3345.4867,N,11618.2857,W,30.62,89.30,230810,,,A*74
$GPRMC,044845.000,A,3345.4860,N,11618.2555,W,29.65,93.16,230810,,,A*7B
$GPRMC,044848.000,A,3345.4825,N,11618.2287,W,26.73,99.49,230810,,,A*77
$GPRMC,044851.000,A,3345.4757,N,11618.2049,W,24.80,110.04,230810,,,A*42
$GPRMC,044854.000,A,3345.4693,N,11618.1834,W,17.50,109.34,230810,,,A*49
$GPRMC,044857.000,A,3345.4641,N,11618.1714,W,11.66,137.81,230810,,,A*48
$GPRMC,044900.000,A,3345.4532,N,11618.1734,W,16.04,198.28,230810,,,A*4B
$GPRMC,044903.000,A,3345.4368,N,11618.1805,W,23.33,200.74,230810,,,A*45
$GPRMC,044906.000,A,3345.4171,N,11618.1888,W,26.73,198.28,230810,,,A*45
$GPRMC,044909.000,A,3345.3965,N,11618.1975,W,26.24,198.63,230810,,,A*4E
$GPRMC,044912.000,A,3345.3759,N,11618.2062,W,26.24,199.34,230810,,,A*4A
$GPRMC,044915.000,A,3345.3547,N,11618.2143,W,27.23,198.63,230810,,,A*47
$GPRMC,044918.000,A,3345.3318,N,11618.2233,W,29.66,196.17,230810,,,A*40
$GPRMC,044921.000,A,3345.3071,N,11618.2297,W,31.59,189.49,230810,,,A*48
$GPRMC,044924.000,A,3345.2810,N,11618.2332,W,32.07,183.52,230810,,,A*45
$GPRMC,044927.000,A,3345.2540,N,11618.2342,W,33.05,180.35,230810,,,A*48
$GPRMC,044930.000,A,3345.2259,N,11618.2342,W,33.05,180.00,230810,,,A*47
$GPRMC,044933.000,A,3345.1983,N,11618.2345,W,33.05,180.00,230810,,,A*4C
$GPRMC,044936.000,A,3345.1712,N,11618.2345,W,32.07,180.35,230810,,,A*4A
$GPRMC,044939.000,A,3345.1455,N,11618.2352,W,29.65,180.00,230810,,,A*4B
$GPRMC,044942.000,A,3345.1207,N,11618.2352,W,29.65,180.35,230810,,,A*40
$GPRMC,044945.000,A,3345.0956,N,11618.2355,W,30.13,180.00,230810,,,A*41
$GPRMC,044948.000,A,3345.0698,N,11618.2355,W,32.07,180.00,230810,,,A*46
$GPRMC,044951.000,A,3345.0415,N,11618.2358,W,34.02,180.00,230810,,,A*47
$GPRMC,044954.000,A,3345.0119,N,11618.2361,W,35.48,180.35,230810,,,A*48
$GPRMC,044957.000,A,3344.9826,N,11618.2358,W,34.99,180.00,230810,,,A*47
$GPRMC,045000.000,A,3344.9514,N,11618.2361,W,36.93,180.70,230810,,,A*44
$GPRMC,045003.000,A,3344.9205,N,11618.2374,W,37.42,181.76,230810,,,A*4E
$GPRMC,045006.000,A,3344.8893,N,11618.2371,W,36.93,179.65,230810,,,A*42
$GPRMC,045009.000,A,3344.8593,N,11618.2361,W,35.00,180.00,230810,,,A*4D
$GPRMC,045012.000,A,3344.8297,N,11618.2361,W,34.99,180.00,230810,,,A*45
$GPRMC,045015.000,A,3344.8014,N,11618.2365,W,34.50,180.00,230810,,,A*4A
$GPRMC,045018.000,A,3344.7721,N,11618.2368,W,34.99,180.00,230810,,,A*41
$GPRMC,045021.000,A,3344.7444,N,11618.2371,W,32.07,179.65,230810,,,A*47
$GPRMC,045024.000,A,3344.7187,N,11618.2365,W,30.13,178.24,230810,,,A*4E
$GPRMC,045027.000,A,3344.6949,N,11618.2358,W,27.70,178.24,230810,,,A*4B
$GPRMC,045030.000,A,3344.6727,N,11618.2361,W,25.27,180.35,230810,,,A*46
$GPRMC,045033.000,A,3344.6530,N,11618.2361,W,21.87,180.35,230810,,,A*4F
$GPRMC,045036.000,A,3344.6353,N,11618.2361,W,22.84,180.00,230810,,,A*4F
$GPRMC,045039.000,A,3344.6144,N,11618.2358,W,27.22,179.65,230810,,,A*42
$GPRMC,045042.000,A,3344.5909,N,11618.2361,W,29.16,180.70,230810,,,A*4D
$GPRMC,045045.000,A,3344.5668,N,11618.2361,W,28.67,180.00,230810,,,A*42
$GPRMC,045048.000,A,3344.5433,N,11618.2368,W,27.22,180.35,230810,,,A*42
$GPRMC,045051.000,A,3344.5211,N,11618.2368,W,26.24,180.00,230810,,,A*4D
$GPRMC,045054.000,A,3344.4998,N,11618.2365,W,24.80,179.65,230810,,,A*47
$GPRMC,045057.000,A,3344.4805,N,11618.2368,W,20.41,180.35,230810,,,A*46
$GPRMC,045100.000,A,3344.4660,N,11618.2371,W,14.58,180.35,230810,,,A*4F
$GPRMC,045103.000,A,3344.4560,N,11618.2374,W,8.26,180.00,230810,,,A*78
$GPRMC,045133.000,A,3344.4490,N,11618.2374,W,8.75,180.70,230810,,,A*74
$GPRMC,045136.000,A,3344.4380,N,11618.2371,W,16.04,180.70,230810,,,A*4B
$GPRMC,045139.000,A,3344.4226,N,11618.2371,W,20.41,180.00,230810,,,A*4A
$GPRMC,045142.000,A,3344.4036,N,11618.2368,W,25.27,179.65,230810,,,A*4D
$GPRMC,045145.000,A,3344.3807,N,11618.2368,W,29.16,180.00,230810,,,A*4C
$GPRMC,045148.000,A,3344.3550,N,11618.2365,W,32.56,180.35,230810,,,A*4B
$GPRMC,045151.000,A,3344.3270,N,11618.2365,W,34.50,180.35,230810,,,A*46
$GPRMC,045154.000,A,3344.2974,N,11618.2365,W,34.99,180.00,230810,,,A*4E
$GPRMC,045157.000,A,3344.2687,N,11618.2368,W,34.02,180.35,230810,,,A*47
$GPRMC,045200.000,A,3344.2401,N,11618.2371,W,34.50,180.35,230810,,,A*45
$GPRMC,045203.000,A,3344.2118,N,11618.2374,W,33.53,179.65,230810,,,A*49
$GPRMC,045206.000,A,3344.1838,N,11618.2371,W,33.53,180.35,230810,,,A*42
$GPRMC,045209.000,A,3344.1564,N,11618.2371,W,32.56,180.00,230810,,,A*4B
$GPRMC,045212.000,A,3344.1290,N,11618.2371,W,33.05,180.35,230810,,,A*4C
$GPRMC,045215.000,A,3344.1014,N,11618.2374,W,33.53,180.35,230810,,,A*43
$GPRMC,045218.000,A,3344.0730,N,11618.2377,W,34.50,180.35,230810,,,A*49
$GPRMC,045221.000,A,3344.0437,N,11618.2377,W,35.48,179.65,230810,,,A*4C
$GPRMC,045224.000,A,3344.0135,N,11618.2377,W,36.45,179.65,230810,,,A*40
$GPRMC,045227.000,A,3343.9823,N,11618.2377,W,37.42,180.00,230810,,,A*40
$GPRMC,045230.000,A,3343.9517,N,11618.2381,W,35.48,180.35,230810,,,A*4B
$GPRMC,045233.000,A,3343.9230,N,11618.2377,W,34.02,179.30,230810,,,A*4F
$GPRMC,045236.000,A,3343.8963,N,11618.2377,W,31.59,180.70,230810,,,A*4F
$GPRMC,045239.000,A,3343.8715,N,11618.2381,W,29.65,180.70,230810,,,A*40
$GPRMC,045242.000,A,3343.8480,N,11618.2377,W,26.73,180.35,230810,,,A*43
$GPRMC,045245.000,A,3343.8258,N,11618.2377,W,27.22,180.35,230810,,,A*42
$GPRMC,045248.000,A,3343.8036,N,11618.2384,W,25.76,180.00,230810,,,A*4C
$GPRMC,045251.000,A,3343.7840,N,11618.2384,W,21.87,180.00,230810,,,A*48
$GPRMC,045254.000,A,3343.7660,N,11618.2384,W,21.87,180.35,230810,,,A*47
$GPRMC,045257.000,A,3343.7467,N,11618.2384,W,24.30,180.70,230810,,,A*49
$GPRMC,045300.000,A,3343.7248,N,11618.2377,W,27.70,177.19,230810,,,A*4D
$GPRMC,045303.000,A,3343.7010,N,11618.2349,W,30.62,172.62,230810,,,A*40
$GPRMC,045306.000,A,3343.6752,N,11618.2294,W,31.59,166.64,230810,,,A*4E
$GPRMC,045309.000,A,3343.6488,N,11618.2207,W,33.53,162.77,230810,,,A*41
$GPRMC,045312.000,A,3343.6224,N,11618.2094,W,33.05,159.61,230810,,,A*4F
$GPRMC,045315.000,A,3343.5973,N,11618.1962,W,32.56,155.04,230810,,,A*49
$GPRMC,045318.000,A,3343.5735,N,11618.1808,W,33.05,150.82,230810,,,A*49
$GPRMC,045321.000,A,3343.5474,N,11618.1592,W,35.96,145.20,230810,,,A*4B
$GPRMC,045324.000,A,3343.5217,N,11618.1348,W,37.91,141.33,230810,,,A*4F
$GPRMC,045327.000,A,3343.4995,N,11618.1090,W,37.91,135.00,230810,,,A*49
$GPRMC,045330.000,A,3343.4766,N,11618.0816,W,38.88,134.65,230810,,,A*4F
$GPRMC,045333.000,A,3343.4538,N,11618.0540,W,39.85,134.65,230810,,,A*47
$GPRMC,045336.000,A,3343.4299,N,11618.0250,W,39.86,135.00,230810,,,A*49
$GPRMC,045339.000,A,3343.4074,N,11617.9973,W,38.88,134.30,230810,,,A*46
$GPRMC,045342.000,A,3343.3852,N,11617.9703,W,37.91,134.65,230810,,,A*4F
$GPRMC,045345.000,A,3343.3633,N,11617.9436,W,36.93,134.65,230810,,,A*47
$GPRMC,045348.000,A,3343.3421,N,11617.9175,W,36.45,133.95,230810,,,A*4A
$GPRMC,045351.000,A,3343.3212,N,11617.8917,W,35.96,134.30,230810,,,A*4C
$GPRMC,045354.000,A,3343.3002,N,11617.8666,W,34.99,135.00,230810,,,A*4F
$GPRMC,045357.000,A,3343.2796,N,11617.8425,W,34.50,136.05,230810,,,A*41
$GPRMC,045400.000,A,3343.2594,N,11617.8184,W,34.03,135.35,230810,,,A*4C
$GPRMC,045403.000,A,3343.2384,N,11617.7952,W,34.52,139.22,230810,,,A*4A
$GPRMC,045406.000,A,3343.2153,N,11617.7733,W,36.95,143.79,230810,,,A*44
$GPRMC,045409.000,A,3343.1885,N,11617.7521,W,40.35,149.41,230810,,,A*41
$GPRMC,045412.000,A,3343.1586,N,11617.7331,W,40.35,154.69,230810,,,A*44
$GPRMC,045415.000,A,3343.1277,N,11617.7176,W,39.36,159.96,230810,,,A*4B
$GPRMC,045418.000,A,3343.0975,N,11617.7070,W,35.96,168.40,230810,,,A*46
$GPRMC,045421.000,A,3343.0707,N,11617.7015,W,28.19,172.62,230810,,,A*44
$GPRMC,045424.000,A,3343.0511,N,11617.6993,W,18.95,176.13,230810,,,A*47
$GPRMC,045427.000,A,3343.0389,N,11617.6986,W,11.66,177.54,230810,,,A*40
$GPRMC,045430.000,A,3343.0305,N,11617.6983,W,8.75,178.59,230810,,,A*7F
$GPRMC,045439.000,A,3343.0234,N,11617.6983,W,2.43,180.35,230810,,,A*77
$GPRMC,045442.000,A,3343.0163,N,11617.6986,W,13.61,180.00,230810,,,A*49
$GPRMC,045445.000,A,3343.0038,N,11617.6986,W,16.04,180.00,230810,,,A*47
$GPRMC,045448.000,A,3342.9887,N,11617.6989,W,19.93,180.35,230810,,,A*46
$GPRMC,045451.000,A,3342.9719,N,11617.6989,W,19.93,180.70,230810,,,A*47
$GPRMC,045454.000,A,3342.9555,N,11617.6989,W,18.95,180.00,230810,,,A*48
$GPRMC,045457.000,A,3342.9420,N,11617.6989,W,15.55,180.35,230810,,,A*4F
$GPRMC,045500.000,A,3342.9272,N,11617.6993,W,19.44,180.35,230810,,,A*4A
$GPRMC,045503.000,A,3342.9095,N,11617.6993,W,23.35,179.65,230810,,,A*4E
$GPRMC,045506.000,A,3342.8889,N,11617.6993,W,25.76,179.30,230810,,,A*4E
$GPRMC,045509.000,A,3342.8664,N,11617.6993,W,28.19,180.00,230810,,,A*4D
$GPRMC,045512.000,A,3342.8425,N,11617.6989,W,28.19,179.30,230810,,,A*4E
$GPRMC,045515.000,A,3342.8194,N,11617.6983,W,26.24,177.54,230810,,,A*40
$GPRMC,045518.000,A,3342.7994,N,11617.6964,W,23.33,174.02,230810,,,A*40
$GPRMC,045521.000,A,3342.7811,N,11617.6938,W,20.41,172.97,230810,,,A*43
$GPRMC,045524.000,A,3342.7653,N,11617.6912,W,19.44,172.97,230810,,,A*49
$GPRMC,045527.000,A,3342.7473,N,11617.6893,W,23.81,175.78,230810,,,A*44
$GPRMC,045530.000,A,3342.7251,N,11617.6880,W,29.16,178.95,230810,,,A*4C
$GPRMC,045533.000,A,3342.6993,N,11617.6880,W,32.07,180.00,230810,,,A*4A
$GPRMC,045536.000,A,3342.6732,N,11617.6877,W,31.12,180.00,230810,,,A*45
$GPRMC,045539.000,A,3342.6465,N,11617.6877,W,32.07,179.30,230810,,,A*49
$GPRMC,045542.000,A,3342.6192,N,11617.6870,W,33.53,179.65,230810,,,A*4F
$GPRMC,045545.000,A,3342.5908,N,11617.6870,W,34.50,180.00,230810,,,A*41
$GPRMC,045548.000,A,3342.5616,N,11617.6867,W,35.48,177.54,230810,,,A*4B
$GPRMC,045551.000,A,3342.5316,N,11617.6838,W,35.48,174.38,230810,,,A*45
$GPRMC,045554.000,A,3342.5026,N,11617.6809,W,34.99,176.13,230810,,,A*44
$GPRMC,045557.000,A,3342.4734,N,11617.6796,W,35.48,178.59,230810,,,A*46
$GPRMC,045600.000,A,3342.4431,N,11617.6793,W,36.45,179.30,230810,,,A*44
$GPRMC,045603.000,A,3342.4122,N,11617.6790,W,37.42,180.00,230810,,,A*40
$GPRMC,045606.000,A,3342.3807,N,11617.6790,W,37.91,180.00,230810,,,A*42
$GPRMC,045609.000,A,3342.3485,N,11617.6803,W,38.88,184.22,230810,,,A*4D
$GPRMC,045612.000,A,3342.3160,N,11617.6845,W,39.36,188.44,230810,,,A*43
$GPRMC,045615.000,A,3342.2831,N,11617.6909,W,39.85,189.84,230810,,,A*44
$GPRMC,045618.000,A,3342.2503,N,11617.6967,W,39.85,185.98,230810,,,A*4C
$GPRMC,045621.000,A,3342.2178,N,11617.6993,W,38.39,182.11,230810,,,A*45
$GPRMC,045624.000,A,3342.1866,N,11617.6996,W,35.96,179.30,230810,,,A*4F
$GPRMC,045627.000,A,3342.1573,N,11617.6989,W,34.02,179.30,230810,,,A*47
$GPRMC,045630.000,A,3342.1299,N,11617.6989,W,32.07,179.65,230810,,,A*41
$GPRMC,045633.000,A,3342.1032,N,11617.6989,W,32.07,179.65,230810,,,A*41
$GPRMC,045636.000,A,3342.0765,N,11617.6986,W,32.07,179.30,230810,,,A*4F
$GPRMC,045639.000,A,3342.0495,N,11617.6986,W,33.53,179.65,230810,,,A*4C
$GPRMC,045642.000,A,3342.0205,N,11617.6983,W,35.48,179.65,230810,,,A*46
$GPRMC,045645.000,A,3341.9902,N,11617.6980,W,36.93,179.65,230810,,,A*41
$GPRMC,045648.000,A,3341.9590,N,11617.6977,W,37.92,180.00,230810,,,A*46
$GPRMC,045651.000,A,3341.9275,N,11617.6977,W,36.93,180.00,230810,,,A*42
$GPRMC,045654.000,A,3341.8975,N,11617.6973,W,34.99,179.65,230810,,,A*44
$GPRMC,045657.000,A,3341.8686,N,11617.6973,W,34.50,180.00,230810,,,A*44
$GPRMC,045700.000,A,3341.8393,N,11617.6970,W,35.00,179.30,230810,,,A*44
$GPRMC,045703.000,A,3341.8100,N,11617.6970,W,35.48,179.65,230810,,,A*43
$GPRMC,045706.000,A,3341.7797,N,11617.6964,W,37.42,179.65,230810,,,A*4C
$GPRMC,045709.000,A,3341.7485,N,11617.6967,W,37.91,180.00,230810,,,A*4B
$GPRMC,045712.000,A,3341.7167,N,11617.6973,W,37.91,181.76,230810,,,A*4D
$GPRMC,045715.000,A,3341.6845,N,11617.6993,W,39.36,183.52,230810,,,A*4B
$GPRMC,045718.000,A,3341.6510,N,11617.7022,W,40.82,184.57,230810,,,A*4A
$GPRMC,045721.000,A,3341.6172,N,11617.7060,W,40.82,185.27,230810,,,A*40
$GPRMC,045724.000,A,3341.5834,N,11617.7099,W,38.39,184.92,230810,,,A*4B
$GPRMC,045727.000,A,3341.5528,N,11617.7134,W,35.96,185.98,230810,,,A*4D
$GPRMC,045730.000,A,3341.5226,N,11617.7163,W,36.45,183.16,230810,,,A*4D
$GPRMC,045733.000,A,3341.4917,N,11617.7163,W,38.39,177.54,230810,,,A*4E
$GPRMC,045736.000,A,3341.4595,N,11617.7121,W,38.88,171.91,230810,,,A*4E
$GPRMC,045739.000,A,3341.4286,N,11617.7051,W,36.93,167.70,230810,,,A*4E
$GPRMC,045742.000,A,3341.3990,N,11617.6983,W,35.96,171.56,230810,,,A*4B
$GPRMC,045745.000,A,3341.3694,N,11617.6944,W,36.45,176.48,230810,,,A*49
$GPRMC,045748.000,A,3341.3388,N,11617.6932,W,36.45,178.59,230810,,,A*43
$GPRMC,045751.000,A,3341.3072,N,11617.6932,W,38.39,180.00,230810,,,A*43
$GPRMC,045754.000,A,3341.2751,N,11617.6932,W,37.42,179.65,230810,,,A*47
$GPRMC,045757.000,A,3341.2448,N,11617.6928,W,34.50,179.65,230810,,,A*44
$GPRMC,045800.000,A,3341.2174,N,11617.6932,W,31.59,180.35,230810,,,A*47
$GPRMC,045803.000,A,3341.1917,N,11617.6932,W,29.65,180.00,230810,,,A*4A
$GPRMC,045806.000,A,3341.1685,N,11617.6935,W,26.24,179.65,230810,,,A*43
$GPRMC,045809.000,A,3341.1508,N,11617.6938,W,18.47,180.35,230810,,,A*4C
$GPRMC,045812.000,A,3341.1386,N,11617.6938,W,13.12,180.35,230810,,,A*4D
$GPRMC,045815.000,A,3341.1247,N,11617.6941,W,19.44,180.35,230810,,,A*41
$GPRMC,045818.000,A,3341.1061,N,11617.6944,W,25.27,180.00,230810,,,A*43
$GPRMC,045821.000,A,3341.0845,N,11617.6944,W,25.76,179.65,230810,,,A*47
$GPRMC,045824.000,A,3341.0626,N,11617.6944,W,26.73,180.35,230810,,,A*4C
$GPRMC,045827.000,A,3341.0401,N,11617.6948,W,28.20,180.00,230810,,,A*4A
$GPRMC,045830.000,A,3341.0156,N,11617.6948,W,30.15,179.65,230810,,,A*41
$GPRMC,045833.000,A,3340.9908,N,11617.6944,W,29.65,178.59,230810,,,A*44
$GPRMC,045836.000,A,3340.9664,N,11617.6935,W,29.65,178.24,230810,,,A*48
$GPRMC,045839.000,A,3340.9406,N,11617.6932,W,31.59,179.65,230810,,,A*44
$GPRMC,045842.000,A,3340.9142,N,11617.6932,W,31.59,181.41,230810,,,A*4C
$GPRMC,045845.000,A,3340.8879,N,11617.6941,W,31.60,181.41,230810,,,A*45
$GPRMC,045848.000,A,3340.8618,N,11617.6944,W,31.12,180.00,230810,,,A*45
$GPRMC,045851.000,A,3340.8364,N,11617.6944,W,30.13,180.35,230810,,,A*45
$GPRMC,045854.000,A,3340.8112,N,11617.6944,W,30.62,180.00,230810,,,A*43
$GPRMC,045857.000,A,3340.7852,N,11617.6941,W,31.59,180.00,230810,,,A*4E
$GPRMC,045900.000,A,3340.7594,N,11617.6944,W,30.13,180.00,230810,,,A*40
$GPRMC,045903.000,A,3340.7343,N,11617.6941,W,29.65,180.00,230810,,,A*43
$GPRMC,045906.000,A,3340.7095,N,11617.6944,W,30.13,180.35,230810,,,A*44
$GPRMC,045909.000,A,3340.6848,N,11617.6941,W,30.13,180.00,230810,,,A*41
$GPRMC,045912.000,A,3340.6590,N,11617.6944,W,31.59,181.05,230810,,,A*4D
$GPRMC,045915.000,A,3340.6320,N,11617.6957,W,32.56,182.81,230810,,,A*46
$GPRMC,045918.000,A,3340.6059,N,11617.6977,W,30.62,184.92,230810,,,A*45
$GPRMC,045921.000,A,3340.5821,N,11617.7006,W,26.73,185.27,230810,,,A*4D
$GPRMC,045924.000,A,3340.5608,N,11617.7028,W,24.79,184.22,230810,,,A*4D
$GPRMC,045927.000,A,3340.5396,N,11617.7038,W,25.27,181.05,230810,,,A*47
$GPRMC,045930.000,A,3340.5190,N,11617.7041,W,23.81,180.35,230810,,,A*43
$GPRMC,045933.000,A,3340.5023,N,11617.7031,W,18.47,179.30,230810,,,A*4F
$GPRMC,045936.000,A,3340.4881,N,11617.7028,W,17.01,180.35,230810,,,A*4D
$GPRMC,045939.000,A,3340.4743,N,11617.7031,W,15.55,181.76,230810,,,A*4E
$GPRMC,045942.000,A,3340.4630,N,11617.7070,W,12.64,214.80,230810,,,A*41
$GPRMC,045945.000,A,3340.4601,N,11617.7205,W,15.55,264.38,230810,,,A*45
$GPRMC,045948.000,A,3340.4604,N,11617.7418,W,21.87,270.70,230810,,,A*46
$GPRMC,045951.000,A,3340.4607,N,11617.7653,W,23.81,270.35,230810,,,A*45
$GPRMC,045954.000,A,3340.4607,N,11617.7907,W,26.24,270.00,230810,,,A*42
$GPRMC,045957.000,A,3340.4611,N,11617.8177,W,27.70,270.00,230810,,,A*46
$GPRMC,050000.000,A,3340.4611,N,11617.8457,W,27.22,269.30,230810,,,A*42
$GPRMC,050003.000,A,3340.4604,N,11617.8724,W,27.22,266.48,230810,,,A*42
$GPRMC,050006.000,A,3340.4572,N,11617.8991,W,27.22,260.16,230810,,,A*48
$GPRMC,050009.000,A,3340.4520,N,11617.9259,W,27.70,254.53,230810,,,A*4F
$GPRMC,050012.000,A,3340.4443,N,11617.9503,W,26.73,247.50,230810,,,A*4A
$GPRMC,050015.000,A,3340.4343,N,11617.9738,W,26.73,240.82,230810,,,A*48
$GPRMC,050018.000,A,3340.4228,N,11617.9960,W,25.76,234.14,230810,,,A*40
$GPRMC,050021.000,A,3340.4099,N,11618.0157,W,23.81,230.98,230810,,,A*46
$GPRMC,050024.000,A,3340.3989,N,11618.0321,W,17.98,233.09,230810,,,A*4B
$GPRMC,050027.000,A,3340.3912,N,11618.0456,W,15.55,237.66,230810,,,A*43
$GPRMC,050030.000,A,3340.3845,N,11618.0585,W,14.58,238.71,230810,,,A*4C
$GPRMC,050033.000,A,3340.3799,N,11618.0675,W,8.75,239.77,230810,,,A*78
$GPRMC,050051.000,A,3340.3761,N,11618.0787,W,9.72,246.80,230810,,,A*71
$GPRMC,050054.000,A,3340.3722,N,11618.0907,W,15.07,249.61,230810,,,A*4A
$GPRMC,050057.000,A,3340.3680,N,11618.1058,W,17.01,254.18,230810,,,A*44
$GPRMC,050100.000,A,3340.3642,N,11618.1238,W,19.44,256.64,230810,,,A*4B
$GPRMC,050103.000,A,3340.3613,N,11618.1428,W,18.95,261.56,230810,,,A*43
$GPRMC,050106.000,A,3340.3600,N,11618.1618,W,18.95,266.84,230810,,,A*4D
$GPRMC,050109.000,A,3340.3600,N,11618.1805,W,18.47,270.00,230810,,,A*44
$GPRMC,050112.000,A,3340.3600,N,11618.1985,W,16.04,270.70,230810,,,A*49
$GPRMC,050115.000,A,3340.3606,N,11618.2110,W,11.18,285.12,230810,,,A*4B
$GPRMC,050118.000,A,3340.3671,N,11618.2171,W,11.66,349.45,230810,,,A*4B
$GPRMC,050121.000,A,3340.3780,N,11618.2178,W,15.07,358.95,230810,,,A*49
$GPRMC,050124.000,A,3340.3909,N,11618.2181,W,15.07,358.24,230810,,,A*4F
$GPRMC,050127.000,A,3340.4031,N,11618.2181,W,14.58,358.95,230810,,,A*48
$GPRMC,050130.000,A,3340.4163,N,11618.2178,W,17.01,00.35,230810,,,A*75
$GPRMC,050133.000,A,3340.4308,N,11618.2175,W,17.50,359.30,230810,,,A*4A
$GPRMC,050136.000,A,3340.4443,N,11618.2178,W,14.58,358.59,230810,,,A*4F
$GPRMC,050139.000,A,3340.4553,N,11618.2175,W,14.09,359.30,230810,,,A*47
$GPRMC,050142.000,A,3340.4688,N,11618.2178,W,18.01,00.35,230810,,,A*7D
$GPRMC,050145.000,A,3340.4846,N,11618.2175,W,17.50,00.00,230810,,,A*76
$GPRMC,050148.000,A,3340.4971,N,11618.2178,W,14.13,01.41,230810,,,A*73
$GPRMC,050151.000,A,3340.5097,N,11618.2178,W,15.07,00.00,230810,,,A*7B
$GPRMC,050154.000,A,3340.5229,N,11618.2181,W,16.52,00.35,230810,,,A*7A
$GPRMC,050157.000,A,3340.5361,N,11618.2175,W,12.64,00.35,230810,,,A*7E
$GPRMC,050200.000,A,3340.5422,N,11618.2175,W,5.35,00.35,230810,,,A*4D
$GPRMC,050203.000,A,3340.5489,N,11618.2171,W,11.18,00.00,230810,,,A*77
$GPRMC,050206.000,A,3340.5602,N,11618.2175,W,15.07,358.95,230810,,,A*4F
$GPRMC,050209.000,A,3340.5734,N,11618.2178,W,15.55,01.05,230810,,,A*78
$GPRMC,050212.000,A,3340.5863,N,11618.2175,W,15.55,01.05,230810,,,A*72
$GPRMC,050215.000,A,3340.5995,N,11618.2168,W,15.07,00.00,230810,,,A*72
$GPRMC,050218.000,A,3340.6117,N,11618.2165,W,15.07,359.65,230810,,,A*4F
$GPRMC,050221.000,A,3340.6242,N,11618.2165,W,14.58,00.00,230810,,,A*71
$GPRMC,050224.000,A,3340.6368,N,11618.2165,W,15.07,358.95,230810,,,A*44
$GPRMC,050227.000,A,3340.6500,N,11618.2168,W,15.55,357.89,230810,,,A*47
$GPRMC,050230.000,A,3340.6619,N,11618.2175,W,11.70,358.24,230810,,,A*4D
$GPRMC,050233.000,A,3340.6712,N,11618.2171,W,10.21,03.16,230810,,,A*79
$GPRMC,050236.000,A,3340.6780,N,11618.2168,W,4.37,03.87,230810,,,A*45
$GPRMC,050239.000,A,3340.6819,N,11618.2143,W,6.80,33.05,230810,,,A*4B
$GPRMC,050242.000,A,3340.6844,N,11618.2068,W,9.72,78.40,230810,,,A*4B
$GPRMC,050245.000,A,3340.6851,N,11618.1937,W,14.09,86.84,230810,,,A*71
$GPRMC,050248.000,A,3340.6848,N,11618.1779,W,17.01,88.59,230810,,,A*75
$GPRMC,050252.000,A,3340.6841,N,11618.1537,W,18.47,91.76,230810,,,A*77
$GPRMC,050255.000,A,3340.6835,N,11618.1354,W,18.47,92.46,230810,,,A*70
$GPRMC,050258.000,A,3340.6841,N,11618.1164,W,19.93,91.76,230810,,,A*77
$GPRMC,050301.000,A,3340.6841,N,11618.0955,W,21.38,91.05,230810,,,A*7F
$GPRMC,050304.000,A,3340.6857,N,11618.0723,W,23.33,89.30,230810,,,A*74
$GPRMC,050307.000,A,3340.6851,N,11618.0478,W,24.30,88.24,230810,,,A*7C
$GPRMC,050310.000,A,3340.6841,N,11618.0221,W,24.79,88.24,230810,,,A*7C
$GPRMC,050313.000,A,3340.6864,N,11617.9973,W,24.30,86.13,230810,,,A*75
$GPRMC,050316.000,A,3340.6860,N,11617.9725,W,24.30,88.95,230810,,,A*79
$GPRMC,050319.000,A,3340.6860,N,11617.9477,W,23.81,90.70,230810,,,A*7D
$GPRMC,050322.000,A,3340.6851,N,11617.9252,W,22.36,91.41,230810,,,A*78
$GPRMC,050325.000,A,3340.6848,N,11617.9027,W,21.87,89.65,230810,,,A*71
$GPRMC,050328.000,A,3340.6848,N,11617.8808,W,21.87,88.95,230810,,,A*76
$GPRMC,050331.000,A,3340.6851,N,11617.8592,W,21.38,88.95,230810,,,A*7C
$GPRMC,050334.000,A,3340.6848,N,11617.8377,W,21.87,89.65,230810,,,A*76
$GPRMC,050337.000,A,3340.6854,N,11617.8142,W,23.33,88.24,230810,,,A*75
$GPRMC,050340.000,A,3340.6860,N,11617.7907,W,22.84,87.89,230810,,,A*71
$GPRMC,050343.000,A,3340.6857,N,11617.7694,W,20.90,91.05,230810,,,A*77
$GPRMC,050346.000,A,3340.6848,N,11617.7504,W,18.47,91.41,230810,,,A*77
$GPRMC,050349.000,A,3340.6838,N,11617.7353,W,13.61,90.00,230810,,,A*70
$GPRMC,050351.000,A,3340.6835,N,11617.7269,W,11.66,91.05,230810,,,A*7D
$GPRMC,050355.000,A,3340.6841,N,11617.7131,W,9.23,93.87,230810,,,A*44
$GPRMC,050401.000,A,3340.6828,N,11617.7038,W,2.43,107.23,230810,,,A*7A
$GPRMC,050404.000,A,3340.6799,N,11617.6986,W,7.29,133.59,230810,,,A*74
$GPRMC,050407.000,A,3340.6725,N,11617.6967,W,10.21,174.73,230810,,,A*4A
$GPRMC,050410.000,A,3340.6606,N,11617.6973,W,14.58,182.46,230810,,,A*4C
$GPRMC,050413.000,A,3340.6471,N,11617.6977,W,17.50,179.30,230810,,,A*47
$GPRMC,050416.000,A,3340.6310,N,11617.6980,W,19.93,180.35,230810,,,A*48
$GPRMC,050419.000,A,3340.6133,N,11617.6996,W,20.41,182.81,230810,,,A*4B
$GPRMC,050422.000,A,3340.5962,N,11617.7015,W,21.38,185.27,230810,,,A*4B
$GPRMC,050425.000,A,3340.5776,N,11617.7025,W,22.36,184.92,230810,,,A*46
$GPRMC,050428.000,A,3340.5583,N,11617.7044,W,24.30,183.87,230810,,,A*47
$GPRMC,050431.000,A,3340.5383,N,11617.7054,W,23.81,181.76,230810,,,A*49
$GPRMC,050434.000,A,3340.5203,N,11617.7047,W,19.44,174.73,230810,,,A*48
$GPRMC,050437.000,A,3340.5055,N,11617.7031,W,15.07,172.27,230810,,,A*47
$GPRMC,050440.000,A,3340.4942,N,11617.7012,W,13.61,172.27,230810,,,A*4E
$GPRMC,050443.000,A,3340.4820,N,11617.6996,W,15.55,178.24,230810,,,A*44
$GPRMC,050446.000,A,3340.4704,N,11617.6999,W,8.75,181.76,230810,,,A*78
$GPRMC,050452.000,A,3340.4633,N,11617.6989,W,7.29,166.99,230810,,,A*77
$GPRMC,050455.000,A,3340.4553,N,11617.6922,W,13.12,133.59,230810,,,A*45
$GPRMC,050458.000,A,3340.4520,N,11617.6783,W,16.04,95.27,230810,,,A*7F
$GPRMC,050501.000,A,3340.4517,N,11617.6584,W,21.38,89.30,230810,,,A*73
$GPRMC,050504.000,A,3340.4524,N,11617.6355,W,23.83,85.78,230810,,,A*7E
$GPRMC,050507.000,A,3340.4533,N,11617.6108,W,24.79,88.59,230810,,,A*7D
$GPRMC,050510.000,A,3340.4537,N,11617.5847,W,26.24,88.95,230810,,,A*74
$GPRMC,050513.000,A,3340.4543,N,11617.5580,W,27.22,90.00,230810,,,A*70
$GPRMC,050516.000,A,3340.4540,N,11617.5306,W,27.70,90.00,230810,,,A*79
$GPRMC,050519.000,A,3340.4537,N,11617.5023,W,27.70,90.35,230810,,,A*74
$GPRMC,050521.000,A,3340.4537,N,11617.4843,W,26.73,90.35,230810,,,A*72
$GPRMC,050525.000,A,3340.4530,N,11617.4489,W,25.76,90.00,230810,,,A*7B
$GPRMC,050528.000,A,3340.4530,N,11617.4231,W,25.76,90.70,230810,,,A*74
$GPRMC,050531.000,A,3340.4533,N,11617.3986,W,25.27,87.89,230810,,,A*7B
$GPRMC,050534.000,A,3340.4553,N,11617.3726,W,26.24,85.08,230810,,,A*77
$GPRMC,050537.000,A,3340.4578,N,11617.3459,W,27.22,83.67,230810,,,A*7E
$GPRMC,050540.000,A,3340.4601,N,11617.3172,W,29.16,83.67,230810,,,A*76
$GPRMC,050543.000,A,3340.4591,N,11617.2844,W,31.59,87.19,230810,,,A*7D
$GPRMC,050546.000,A,3340.4604,N,11617.2519,W,31.59,90.00,230810,,,A*7C
$GPRMC,050549.000,A,3340.4604,N,11617.2213,W,30.13,90.35,230810,,,A*77
$GPRMC,050552.000,A,3340.4601,N,11617.1914,W,29.65,90.35,230810,,,A*7E
$GPRMC,050555.000,A,3340.4598,N,11617.1614,W,29.65,90.70,230810,,,A*74
$GPRMC,050558.000,A,3340.4611,N,11617.1325,W,30.13,90.00,230810,,,A*72
$GPRMC,050601.000,A,3340.4611,N,11617.1025,W,31.10,89.65,230810,,,A*77
$GPRMC,050604.000,A,3340.4617,N,11617.0710,W,31.59,88.95,230810,,,A*77
$GPRMC,050607.000,A,3340.4620,N,11617.0401,W,31.59,88.95,230810,,,A*73
$GPRMC,050610.000,A,3340.4620,N,11617.0079,W,32.07,88.95,230810,,,A*76
$GPRMC,050613.000,A,3340.4601,N,11616.9725,W,34.50,90.70,230810,,,A*76
$GPRMC,050616.000,A,3340.4601,N,11616.9377,W,35.48,91.41,230810,,,A*7B
$GPRMC,050619.000,A,3340.4569,N,11616.9010,W,35.96,97.73,230810,,,A*7F
$GPRMC,050622.000,A,3340.4517,N,11616.8666,W,35.96,103.71,230810,,,A*46
$GPRMC,050625.000,A,3340.4440,N,11616.8325,W,35.48,107.58,230810,,,A*4C
$GPRMC,050629.000,A,3340.4295,N,11616.7887,W,35.96,115.31,230810,,,A*4D
$GPRMC,050632.000,A,3340.4163,N,11616.7568,W,35.48,117.77,230810,,,A*42
$GPRMC,050635.000,A,3340.4009,N,11616.7292,W,33.05,124.45,230810,,,A*44
$GPRMC,050638.000,A,3340.3851,N,11616.7047,W,31.10,128.67,230810,,,A*4B
$GPRMC,050641.000,A,3340.3677,N,11616.6822,W,30.13,134.65,230810,,,A*48
$GPRMC,050644.000,A,3340.3497,N,11616.6609,W,30.13,135.00,230810,,,A*44
$GPRMC,050647.000,A,3340.3326,N,11616.6390,W,30.62,130.78,230810,,,A*43
$GPRMC,050650.000,A,3340.3165,N,11616.6139,W,31.59,126.56,230810,,,A*43
$GPRMC,050653.000,A,3340.3017,N,11616.5872,W,32.56,122.70,230810,,,A*4D
$GPRMC,050656.000,A,3340.2876,N,11616.5583,W,33.53,119.88,230810,,,A*4E
$GPRMC,050659.000,A,3340.2760,N,11616.5286,W,33.05,114.96,230810,,,A*4A
$GPRMC,050702.000,A,3340.2686,N,11616.4990,W,32.07,107.58,230810,,,A*42
$GPRMC,050705.000,A,3340.2609,N,11616.4678,W,33.05,103.36,230810,,,A*44
$GPRMC,050708.000,A,3340.2557,N,11616.4347,W,34.02,97.73,230810,,,A*75
$GPRMC,050711.000,A,3340.2535,N,11616.4015,W,33.05,92.81,230810,,,A*75
$GPRMC,050714.000,A,3340.2531,N,11616.3696,W,32.07,90.00,230810,,,A*76
$GPRMC,050717.000,A,3340.2535,N,11616.3381,W,30.62,90.00,230810,,,A*73
$GPRMC,050720.000,A,3340.2538,N,11616.3085,W,28.19,89.65,230810,,,A*73
$GPRMC,050723.000,A,3340.2541,N,11616.2843,W,22.38,90.00,230810,,,A*7F
$GPRMC,050726.000,A,3340.2541,N,11616.2609,W,24.79,90.35,230810,,,A*7F
$GPRMC,050729.000,A,3340.2541,N,11616.2348,W,26.24,90.00,230810,,,A*7C
$GPRMC,050732.000,A,3340.2544,N,11616.2087,W,25.76,90.00,230810,,,A*77
$GPRMC,050735.000,A,3340.2544,N,11616.1839,W,23.81,89.65,230810,,,A*7B
$GPRMC,050738.000,A,3340.2547,N,11616.1608,W,21.87,88.59,230810,,,A*73
$GPRMC,050741.000,A,3340.2544,N,11616.1459,W,11.66,98.09,230810,,,A*70
$GPRMC,050744.000,A,3340.2509,N,11616.1356,W,13.12,123.75,230810,,,A*4F
$GPRMC,050747.000,A,3340.2457,N,11616.1234,W,15.55,107.58,230810,,,A*4F
$GPRMC,050750.000,A,3340.2473,N,11616.1089,W,15.55,58.71,230810,,,A*7B
$GPRMC,050753.000,A,3340.2580,N,11616.1038,W,13.61,03.87,230810,,,A*79
$GPRMC,050756.000,A,3340.2686,N,11616.1105,W,15.07,313.24,230810,,,A*4B
$GPRMC,050759.000,A,3340.2692,N,11616.1244,W,14.58,249.96,230810,,,A*4B
$GPRMC,050802.000,A,3340.2634,N,11616.1398,W,17.50,246.45,230810,,,A*4C
$GPRMC,050805.000,A,3340.2599,N,11616.1579,W,19.93,264.73,230810,,,A*42
$GPRMC,050808.000,A,3340.2592,N,11616.1797,W,23.33,269.30,230810,,,A*4F
$GPRMC,050811.000,A,3340.2596,N,11616.2068,W,28.67,270.70,230810,,,A*41
$GPRMC,050814.000,A,3340.2599,N,11616.2367,W,31.10,272.11,230810,,,A*4A
$GPRMC,050817.000,A,3340.2605,N,11616.2686,W,32.07,270.70,230810,,,A*45
$GPRMC,050820.000,A,3340.2612,N,11616.3017,W,33.53,269.65,230810,,,A*44
$GPRMC,050823.000,A,3340.2609,N,11616.3358,W,35.48,269.30,230810,,,A*49
$GPRMC,050826.000,A,3340.2605,N,11616.3729,W,37.42,270.00,230810,,,A*41
$GPRMC,050829.000,A,3340.2628,N,11616.4102,W,37.42,273.52,230810,,,A*4D
$GPRMC,050832.000,A,3340.2663,N,11616.4466,W,37.42,278.79,230810,,,A*4D
$GPRMC,050835.000,A,3340.2728,N,11616.4823,W,35.96,284.77,230810,,,A*4F
$GPRMC,050838.000,A,3340.2818,N,11616.5167,W,36.93,289.34,230810,,,A*4A
$GPRMC,050841.000,A,3340.2930,N,11616.5505,W,37.42,295.66,230810,,,A*48
$GPRMC,050844.000,A,3340.3085,N,11616.5830,W,35.96,301.64,230810,,,A*45
$GPRMC,050847.000,A,3340.3259,N,11616.6133,W,35.96,306.21,230810,,,A*4A
$GPRMC,050850.000,A,3340.3449,N,11616.6410,W,36.45,311.84,230810,,,A*4B
$GPRMC,050853.000,A,3340.3658,N,11616.6670,W,35.96,315.00,230810,,,A*4B
$GPRMC,050856.000,A,3340.3867,N,11616.6928,W,35.96,311.13,230810,,,A*48
$GPRMC,050859.000,A,3340.4057,N,11616.7221,W,37.42,305.51,230810,,,A*40
$GPRMC,050902.000,A,3340.4231,N,11616.7536,W,37.91,300.59,230810,,,A*4F
$GPRMC,050905.000,A,3340.4376,N,11616.7874,W,36.93,294.61,230810,,,A*45
$GPRMC,050908.000,A,3340.4488,N,11616.8199,W,34.02,289.34,230810,,,A*4D
$GPRMC,050911.000,A,3340.4575,N,11616.8515,W,32.56,286.17,230810,,,A*4F
$GPRMC,050914.000,A,3340.4630,N,11616.8824,W,31.10,280.55,230810,,,A*46
$GPRMC,050917.000,A,3340.4665,N,11616.9123,W,30.13,276.33,230810,,,A*41
$GPRMC,050920.000,A,3340.4688,N,11616.9432,W,31.59,272.46,230810,,,A*4A
$GPRMC,050923.000,A,3340.4685,N,11616.9764,W,33.05,269.65,230810,,,A*44
$GPRMC,050926.000,A,3340.4691,N,11617.0089,W,32.07,270.35,230810,,,A*46
$GPRMC,050929.000,A,3340.4688,N,11617.0407,W,31.59,270.35,230810,,,A*4B
$GPRMC,050932.000,A,3340.4688,N,11617.0732,W,33.53,269.30,230810,,,A*41
$GPRMC,050935.000,A,3340.4685,N,11617.1070,W,34.99,270.00,230810,,,A*41
$GPRMC,050938.000,A,3340.4681,N,11617.1431,W,36.93,270.00,230810,,,A*41
$GPRMC,050941.000,A,3340.4678,N,11617.1811,W,38.88,270.00,230810,,,A*43
$GPRMC,050944.000,A,3340.4681,N,11617.2210,W,40.34,270.00,230810,,,A*40
$GPRMC,050947.000,A,3340.4675,N,11617.2602,W,38.39,269.30,230810,,,A*46
$GPRMC,050950.000,A,3340.4675,N,11617.2989,W,38.88,270.00,230810,,,A*4D
$GPRMC,050953.000,A,3340.4665,N,11617.3381,W,38.39,266.48,230810,,,A*4D
$GPRMC,050956.000,A,3340.4636,N,11617.3761,W,39.36,264.73,230810,,,A*40
$GPRMC,050959.000,A,3340.4617,N,11617.4157,W,38.39,268.24,230810,,,A*48
$GPRMC,051002.000,A,3340.4614,N,11617.4530,W,37.42,268.95,230810,,,A*41
$GPRMC,051005.000,A,3340.4611,N,11617.4901,W,36.45,269.65,230810,,,A*45
$GPRMC,051008.000,A,3340.4617,N,11617.5255,W,34.99,270.70,230810,,,A*4A
$GPRMC,051011.000,A,3340.4617,N,11617.5596,W,33.53,270.00,230810,,,A*4C
$GPRMC,051014.000,A,3340.4623,N,11617.5914,W,30.62,270.00,230810,,,A*49
$GPRMC,051017.000,A,3340.4620,N,11617.6204,W,27.22,270.00,230810,,,A*42
$GPRMC,051020.000,A,3340.4620,N,11617.6452,W,23.33,270.35,230810,,,A*41
$GPRMC,051023.000,A,3340.4623,N,11617.6674,W,20.41,273.87,230810,,,A*4B
$GPRMC,051026.000,A,3340.4633,N,11617.6838,W,13.61,276.68,230810,,,A*4F
$GPRMC,051029.000,A,3340.4697,N,11617.6925,W,14.58,350.16,230810,,,A*42
$GPRMC,051032.000,A,3340.4842,N,11617.6932,W,19.44,359.65,230810,,,A*45
$GPRMC,051035.000,A,3340.5052,N,11617.6928,W,27.70,00.35,230810,,,A*71
$GPRMC,051038.000,A,3340.5293,N,11617.6922,W,30.62,00.70,230810,,,A*7D
$GPRMC,051041.000,A,3340.5567,N,11617.6906,W,33.53,03.52,230810,,,A*7B
$GPRMC,051044.000,A,3340.5853,N,11617.6874,W,34.99,04.92,230810,,,A*7A
$GPRMC,051047.000,A,3340.6143,N,11617.6851,W,34.02,03.87,230810,,,A*74
$GPRMC,051050.000,A,3340.6432,N,11617.6838,W,35.48,00.00,230810,,,A*7D
$GPRMC,051053.000,A,3340.6722,N,11617.6835,W,34.03,00.35,230810,,,A*79
$GPRMC,051056.000,A,3340.7015,N,11617.6835,W,35.96,359.65,230810,,,A*49
$GPRMC,051059.000,A,3340.7317,N,11617.6838,W,36.93,00.00,230810,,,A*70
$GPRMC,051102.000,A,3340.7633,N,11617.6835,W,37.91,00.35,230810,,,A*74
$GPRMC,051105.000,A,3340.7955,N,11617.6835,W,39.36,00.35,230810,,,A*7F
$GPRMC,051108.000,A,3340.8293,N,11617.6838,W,40.34,00.00,230810,,,A*7B
$GPRMC,051111.000,A,3340.8640,N,11617.6841,W,41.79,00.00,230810,,,A*7F
$GPRMC,051114.000,A,3340.8988,N,11617.6841,W,41.79,00.35,230810,,,A*77
$GPRMC,051117.000,A,3340.9326,N,11617.6838,W,40.82,359.65,230810,,,A*4A
$GPRMC,051120.000,A,3340.9680,N,11617.6835,W,40.82,00.35,230810,,,A*70
$GPRMC,051123.000,A,3341.0015,N,11617.6819,W,40.34,02.11,230810,,,A*76
$GPRMC,051126.000,A,3341.0337,N,11617.6809,W,37.91,01.05,230810,,,A*78
$GPRMC,051129.000,A,3341.0639,N,11617.6822,W,35.49,357.54,230810,,,A*46
$GPRMC,051132.000,A,3341.0935,N,11617.6829,W,35.96,359.30,230810,,,A*4A
$GPRMC,051135.000,A,3341.1235,N,11617.6825,W,35.96,00.35,230810,,,A*71
$GPRMC,051138.000,A,3341.1540,N,11617.6825,W,36.93,359.65,230810,,,A*45
$GPRMC,051141.000,A,3341.1859,N,11617.6829,W,38.88,359.65,230810,,,A*46
$GPRMC,051144.000,A,3341.2184,N,11617.6829,W,39.85,359.30,230810,,,A*45
$GPRMC,051147.000,A,3341.2522,N,11617.6832,W,40.34,00.00,230810,,,A*7C
$GPRMC,051150.000,A,3341.2844,N,11617.6832,W,39.36,00.35,230810,,,A*7D
$GPRMC,051153.000,A,3341.3179,N,11617.6835,W,39.85,00.00,230810,,,A*71
$GPRMC,051156.000,A,3341.3507,N,11617.6832,W,38.88,359.65,230810,,,A*4E
$GPRMC,051159.000,A,3341.3838,N,11617.6851,W,39.85,354.38,230810,,,A*4C
$GPRMC,051202.000,A,3341.4160,N,11617.6919,W,39.85,348.75,230810,,,A*4B
$GPRMC,051205.000,A,3341.4489,N,11617.6999,W,39.85,348.75,230810,,,A*46
$GPRMC,051208.000,A,3341.4807,N,11617.7041,W,38.39,355.78,230810,,,A*4B
$GPRMC,051211.000,A,3341.5132,N,11617.7054,W,38.88,01.41,230810,,,A*7B
$GPRMC,051214.000,A,3341.5464,N,11617.7028,W,39.36,05.27,230810,,,A*73
$GPRMC,051217.000,A,3341.5795,N,11617.6989,W,40.34,05.27,230810,,,A*72
$GPRMC,051220.000,A,3341.6120,N,11617.6954,W,39.36,05.27,230810,,,A*71
$GPRMC,051223.000,A,3341.6439,N,11617.6915,W,37.42,05.62,230810,,,A*76
$GPRMC,051226.000,A,3341.6742,N,11617.6883,W,34.99,03.87,230810,,,A*7A
$GPRMC,051229.000,A,3341.7025,N,11617.6861,W,34.02,02.46,230810,,,A*70
$GPRMC,051232.000,A,3341.7318,N,11617.6854,W,34.50,01.05,230810,,,A*72
$GPRMC,051235.000,A,3341.7620,N,11617.6851,W,36.93,359.65,230810,,,A*4B
$GPRMC,051238.000,A,3341.7933,N,11617.6851,W,37.91,00.00,230810,,,A*74
$GPRMC,051241.000,A,3341.8254,N,11617.6857,W,39.36,359.30,230810,,,A*46
$GPRMC,051244.000,A,3341.8586,N,11617.6861,W,40.34,00.00,230810,,,A*7E
$GPRMC,051247.000,A,3341.8905,N,11617.6864,W,36.93,359.65,230810,,,A*4F
$GPRMC,051250.000,A,3341.9188,N,11617.6864,W,33.05,359.65,230810,,,A*4F
$GPRMC,051253.000,A,3341.9452,N,11617.6861,W,29.65,359.30,230810,,,A*46
$GPRMC,051256.000,A,3341.9664,N,11617.6861,W,22.36,00.00,230810,,,A*75
$GPRMC,051259.000,A,3341.9793,N,11617.6861,W,9.72,00.35,230810,,,A*4C
$GPRMC,051305.000,A,3341.9844,N,11617.6861,W,6.32,00.70,230810,,,A*4B
$GPRMC,051308.000,A,3341.9941,N,11617.6857,W,15.55,359.65,230810,,,A*4F
$GPRMC,051311.000,A,3342.0099,N,11617.6861,W,22.36,359.30,230810,,,A*45
$GPRMC,051314.000,A,3342.0308,N,11617.6861,W,27.22,00.00,230810,,,A*77
$GPRMC,051317.000,A,3342.0553,N,11617.6861,W,31.10,00.00,230810,,,A*7A
$GPRMC,051320.000,A,3342.0829,N,11617.6864,W,34.99,359.65,230810,,,A*43
$GPRMC,051323.000,A,3342.1129,N,11617.6867,W,37.42,359.30,230810,,,A*4E
$GPRMC,051326.000,A,3342.1447,N,11617.6870,W,38.39,359.65,230810,,,A*43
$GPRMC,051329.000,A,3342.1772,N,11617.6874,W,38.39,00.00,230810,,,A*71
$GPRMC,051332.000,A,3342.2088,N,11617.6870,W,36.93,00.35,230810,,,A*76
$GPRMC,051335.000,A,3342.2397,N,11617.6857,W,36.93,04.57,230810,,,A*79
$GPRMC,051338.000,A,3342.2703,N,11617.6816,W,37.42,08.09,230810,,,A*72
$GPRMC,051341.000,A,3342.3002,N,11617.6751,W,35.96,10.55,230810,,,A*7C
$GPRMC,051344.000,A,3342.3292,N,11617.6703,W,34.99,05.98,230810,,,A*7E
$GPRMC,051347.000,A,3342.3581,N,11617.6677,W,34.99,03.52,230810,,,A*7A
$GPRMC,051350.000,A,3342.3874,N,11617.6671,W,34.50,00.35,230810,,,A*7A
$GPRMC,051353.000,A,3342.4161,N,11617.6668,W,34.50,359.65,230810,,,A*41
$GPRMC,051356.000,A,3342.4450,N,11617.6671,W,34.99,358.95,230810,,,A*40
$GPRMC,051359.000,A,3342.4746,N,11617.6680,W,35.96,359.30,230810,,,A*45
$GPRMC,051402.000,A,3342.5049,N,11617.6693,W,36.93,355.43,230810,,,A*49
$GPRMC,051405.000,A,3342.5361,N,11617.6732,W,38.39,354.38,230810,,,A*4E
$GPRMC,051408.000,A,3342.5680,N,11617.6754,W,37.91,358.24,230810,,,A*45
$GPRMC,051411.000,A,3342.5999,N,11617.6764,W,37.42,359.30,230810,,,A*43
$GPRMC,051414.000,A,3342.6301,N,11617.6771,W,35.96,358.95,230810,,,A*4F
