NMEA Sentence Code,UTC Time,Status,Latitude,Latitude Direction,Longitude,Longitude Direction,Speed (knots),Track Angle (degrees true),Date,MagneticVariation,Magnetic Variation Direction,[FAA Mode]-Optional,Checksum
$GPRMC,151911.000,A,3254.1199,N,11709.2498,W,5.00,82.90,171010,,,A*49
$GPRMC,151914.000,A,3254.1199,N,11709.2406,W,13.20,91.30,171010,,,A*76
$GPRMC,151917.000,A,3254.1196,N,11709.2241,W,19.40,90.50,171010,,,A*74
$GPRMC,151920.000,A,3254.1196,N,11709.2028,W,23.20,89.40,171010,,,A*7B
$GPRMC,151923.000,A,3254.1199,N,11709.1783,W,25.90,89.40,171010,,,A*7F
$GPRMC,151926.000,A,3254.1201,N,11709.1516,W,27.70,89.40,171010,,,A*7A
$GPRMC,151929.000,A,3254.1205,N,11709.1237,W,28.50,89.00,171010,,,A*7C
$GPRMC,151932.000,A,3254.1210,N,11709.0954,W,28.30,89.10,171010,,,A*7A
$GPRMC,151935.000,A,3254.1212,N,11709.0680,W,26.90,89.40,171010,,,A*78
$GPRMC,151938.000,A,3254.1215,N,11709.0431,W,21.90,89.30,171010,,,A*7A
$GPRMC,151941.000,A,3254.1215,N,11709.0259,W,14.50,89.40,171010,,,A*71
$GPRMC,151944.000,A,3254.1216,N,11709.0101,W,17.00,89.60,171010,,,A*7D
$GPRMC,151947.000,A,3254.1219,N,11708.9887,W,23.70,89.50,171010,,,A*7D
$GPRMC,151950.000,A,3254.1222,N,11708.9631,W,27.50,89.10,171010,,,A*72
$GPRMC,151953.000,A,3254.1226,N,11708.9354,W,27.90,89.00,171010,,,A*7E
$GPRMC,151956.000,A,3254.1229,N,11708.9085,W,26.00,90.00,171010,,,A*7B
$GPRMC,151959.000,A,3254.1226,N,11708.8845,W,22.90,90.30,171010,,,A*70
$GPRMC,152002.000,A,3254.1225,N,11708.8662,W,19.80,89.70,171010,,,A*79
$GPRMC,152005.000,A,3254.1230,N,11708.8454,W,21.80,88.30,171010,,,A*73
$GPRMC,152008.000,A,3254.1256,N,11708.8230,W,24.20,74.40,171010,,,A*71
$GPRMC,152011.000,A,3254.1330,N,11708.7999,W,25.90,66.90,171010,,,A*7B
$GPRMC,152014.000,A,3254.1436,N,11708.7766,W,27.50,58.30,171010,,,A*78
$GPRMC,152017.000,A,3254.1559,N,11708.7535,W,27.60,56.60,171010,,,A*7F
$GPRMC,152020.000,A,3254.1682,N,11708.7320,W,26.00,55.50,171010,,,A*7B
$GPRMC,152023.000,A,3254.1747,N,11708.7172,W,15.40,64.00,171010,,,A*76
$GPRMC,152029.000,A,3254.1775,N,11708.7035,W,8.70,113.60,171010,,,A*77
$GPRMC,152032.000,A,3254.1701,N,11708.6941,W,18.10,141.70,171010,,,A*44
$GPRMC,152035.000,A,3254.1549,N,11708.6814,W,25.30,146.30,171010,,,A*43
$GPRMC,152038.000,A,3254.1354,N,11708.6666,W,29.50,150.60,171010,,,A*47
$GPRMC,152041.000,A,3254.1123,N,11708.6529,W,32.10,156.30,171010,,,A*4E
$GPRMC,152044.000,A,3254.0850,N,11708.6405,W,35.50,160.60,171010,,,A*4B
$GPRMC,152047.000,A,3254.0560,N,11708.6279,W,37.70,158.70,171010,,,A*41
$GPRMC,152050.000,A,3254.0276,N,11708.6123,W,38.40,150.40,171010,,,A*4C
$GPRMC,152053.000,A,3254.0011,N,11708.5900,W,38.70,139.30,171010,,,A*4D
$GPRMC,152056.000,A,3253.9774,N,11708.5631,W,39.80,135.20,171010,,,A*4C
$GPRMC,152059.000,A,3253.9599,N,11708.5293,W,41.30,119.60,171010,,,A*40
$GPRMC,152102.000,A,3253.9429,N,11708.4925,W,43.00,118.60,171010,,,A*42
$GPRMC,152105.000,A,3253.9259,N,11708.4547,W,43.60,117.60,171010,,,A*45
$GPRMC,152108.000,A,3253.9093,N,11708.4167,W,43.60,117.50,171010,,,A*49
$GPRMC,152111.000,A,3253.8924,N,11708.3776,W,45.20,117.30,171010,,,A*40
$GPRMC,152114.000,A,3253.8753,N,11708.3380,W,45.30,117.10,171010,,,A*45
$GPRMC,152117.000,A,3253.8575,N,11708.2990,W,44.80,118.00,171010,,,A*4E
$GPRMC,152120.000,A,3253.8414,N,11708.2602,W,43.20,117.00,171010,,,A*4A
$GPRMC,152123.000,A,3253.8251,N,11708.2237,W,40.90,117.90,171010,,,A*4D
$GPRMC,152126.000,A,3253.8080,N,11708.1890,W,40.10,121.90,171010,,,A*4F
$GPRMC,152129.000,A,3253.7894,N,11708.1570,W,39.20,127.80,171010,,,A*4B
$GPRMC,152132.000,A,3253.7687,N,11708.1278,W,38.30,133.40,171010,,,A*4B
$GPRMC,152135.000,A,3253.7461,N,11708.1014,W,37.60,136.60,171010,,,A*43
$GPRMC,152138.000,A,3253.7229,N,11708.0765,W,37.40,137.20,171010,,,A*43
$GPRMC,152141.000,A,3253.7004,N,11708.0534,W,33.70,143.40,171010,,,A*44
$GPRMC,152144.000,A,3253.6777,N,11708.0375,W,28.80,155.90,171010,,,A*4F
$GPRMC,152147.000,A,3253.6586,N,11708.0295,W,20.10,163.90,171010,,,A*4B
$GPRMC,152150.000,A,3253.6453,N,11708.0259,W,12.20,170.50,171010,,,A*48
$GPRMC,152153.000,A,3253.6373,N,11708.0240,W,8.30,168.00,171010,,,A*70
$GPRMC,152208.000,A,3253.6353,N,11708.0250,W,2.50,180.80,171010,,,A*7C
$GPRMC,152211.000,A,3253.6261,N,11708.0221,W,12.60,152.20,171010,,,A*45
$GPRMC,152214.000,A,3253.6188,N,11708.0113,W,15.60,108.00,171010,,,A*4C
$GPRMC,152217.000,A,3253.6178,N,11707.9933,W,21.60,89.70,171010,,,A*74
$GPRMC,152220.000,A,3253.6178,N,11707.9685,W,28.20,89.50,171010,,,A*7D
$GPRMC,152223.000,A,3253.6186,N,11707.9383,W,31.60,88.00,171010,,,A*74
$GPRMC,152226.000,A,3253.6194,N,11707.9058,W,33.50,89.20,171010,,,A*75
$GPRMC,152229.000,A,3253.6197,N,11707.8717,W,35.10,89.60,171010,,,A*72
$GPRMC,152232.000,A,3253.6200,N,11707.8359,W,36.90,89.30,171010,,,A*75
$GPRMC,152235.000,A,3253.6203,N,11707.7984,W,38.90,89.30,171010,,,A*7A
$GPRMC,152238.000,A,3253.6208,N,11707.7590,W,40.10,89.20,171010,,,A*73
$GPRMC,152241.000,A,3253.6212,N,11707.7192,W,40.20,89.30,171010,,,A*72
$GPRMC,152244.000,A,3253.6216,N,11707.6793,W,40.00,89.60,171010,,,A*72
$GPRMC,152247.000,A,3253.6218,N,11707.6395,W,40.30,89.60,171010,,,A*7E
$GPRMC,152250.000,A,3253.6220,N,11707.5996,W,40.30,89.90,171010,,,A*76
$GPRMC,152253.000,A,3253.6217,N,11707.5596,W,40.40,90.50,171010,,,A*7E
$GPRMC,152256.000,A,3253.6216,N,11707.5196,W,40.20,89.80,171010,,,A*7D
$GPRMC,152259.000,A,3253.6219,N,11707.4800,W,39.50,89.30,171010,,,A*78
$GPRMC,152302.000,A,3253.6223,N,11707.4411,W,38.80,89.40,171010,,,A*79
$GPRMC,152305.000,A,3253.6227,N,11707.4023,W,39.30,89.20,171010,,,A*73
$GPRMC,152308.000,A,3253.6231,N,11707.3634,W,39.00,89.40,171010,,,A*7B
$GPRMC,152311.000,A,3253.6236,N,11707.3258,W,36.60,89.30,171010,,,A*74
$GPRMC,152314.000,A,3253.6240,N,11707.2911,W,32.90,89.60,171010,,,A*79
$GPRMC,152317.000,A,3253.6242,N,11707.2622,W,25.20,89.40,171010,,,A*78
$GPRMC,152320.000,A,3253.6246,N,11707.2416,W,17.00,89.30,171010,,,A*79
$GPRMC,152323.000,A,3253.6248,N,11707.2276,W,10.90,89.00,171010,,,A*79
$GPRMC,152326.000,A,3253.6252,N,11707.2161,W,14.20,89.00,171010,,,A*7D
$GPRMC,152329.000,A,3253.6255,N,11707.1994,W,19.70,89.50,171010,,,A*79
$GPRMC,152332.000,A,3253.6255,N,11707.1788,W,21.80,90.50,171010,,,A*7C
$GPRMC,152335.000,A,3253.6251,N,11707.1549,W,26.30,92.20,171010,,,A*79
$GPRMC,152338.000,A,3253.6239,N,11707.1282,W,27.50,95.30,171010,,,A*7B
$GPRMC,152341.000,A,3253.6201,N,11707.1011,W,28.60,102.30,171010,,,A*45
$GPRMC,152344.000,A,3253.6136,N,11707.0730,W,30.00,108.00,171010,,,A*44
$GPRMC,152347.000,A,3253.6057,N,11707.0442,W,31.50,108.10,171010,,,A*42
$GPRMC,152350.000,A,3253.5973,N,11707.0132,W,34.20,106.20,171010,,,A*45
$GPRMC,152353.000,A,3253.5902,N,11706.9793,W,36.00,101.00,171010,,,A*40
$GPRMC,152356.000,A,3253.5864,N,11706.9442,W,35.40,93.80,171010,,,A*7E
$GPRMC,152359.000,A,3253.5859,N,11706.9091,W,35.30,88.00,171010,,,A*70
$GPRMC,152402.000,A,3253.5877,N,11706.8765,W,30.20,83.60,171010,,,A*71
$GPRMC,152405.000,A,3253.5916,N,11706.8503,W,25.40,78.80,171010,,,A*7A
$GPRMC,152408.000,A,3253.5944,N,11706.8318,W,16.90,83.90,171010,,,A*74
$GPRMC,152411.000,A,3253.5895,N,11706.8202,W,14.60,139.80,171010,,,A*47
$GPRMC,152414.000,A,3253.5762,N,11706.8128,W,20.20,162.00,171010,,,A*4B
$GPRMC,152417.000,A,3253.5594,N,11706.8102,W,20.00,187.40,171010,,,A*46
$GPRMC,152420.000,A,3253.5445,N,11706.8194,W,20.80,227.50,171010,,,A*40
$GPRMC,152423.000,A,3253.5390,N,11706.8384,W,21.10,274.40,171010,,,A*40
$GPRMC,152426.000,A,3253.5471,N,11706.8580,W,24.70,317.40,171010,,,A*48
$GPRMC,152429.000,A,3253.5668,N,11706.8715,W,30.40,336.00,171010,,,A*42
$GPRMC,152432.000,A,3253.5922,N,11706.8841,W,34.70,337.60,171010,,,A*47
$GPRMC,152435.000,A,3253.6231,N,11706.8965,W,40.90,342.00,171010,,,A*44
$GPRMC,152438.000,A,3253.6585,N,11706.9089,W,45.80,344.10,171010,,,A*48
$GPRMC,152441.000,A,3253.6969,N,11706.9208,W,49.20,346.20,171010,,,A*44
$GPRMC,152444.000,A,3253.7380,N,11706.9322,W,52.10,347.90,171010,,,A*47
$GPRMC,152447.000,A,3253.7817,N,11706.9419,W,54.60,350.30,171010,,,A*43
$GPRMC,152450.000,A,3253.8272,N,11706.9506,W,55.70,351.70,171010,,,A*49
$GPRMC,152453.000,A,3253.8733,N,11706.9573,W,56.00,354.80,171010,,,A*46
$GPRMC,152456.000,A,3253.9198,N,11706.9608,W,55.80,357.20,171010,,,A*48
$GPRMC,152459.000,A,3253.9658,N,11706.9621,W,54.80,358.40,171010,,,A*4F
$GPRMC,152502.000,A,3254.0111,N,11706.9625,W,54.30,359.00,171010,,,A*4E
$GPRMC,152505.000,A,3254.0570,N,11706.9626,W,54.10,358.80,171010,,,A*42
$GPRMC,152508.000,A,3254.1017,N,11706.9627,W,53.50,00.10,171010,,,A*7F
$GPRMC,152511.000,A,3254.1464,N,11706.9629,W,53.00,359.30,171010,,,A*41
$GPRMC,152514.000,A,3254.1909,N,11706.9631,W,53.50,359.70,171010,,,A*4A
$GPRMC,152517.000,A,3254.2364,N,11706.9635,W,54.30,359.80,171010,,,A*41
$GPRMC,152520.000,A,3254.2819,N,11706.9637,W,54.20,359.90,171010,,,A*46
$GPRMC,152523.000,A,3254.3274,N,11706.9637,W,54.30,00.10,171010,,,A*73
$GPRMC,152526.000,A,3254.3729,N,11706.9634,W,54.50,359.70,171010,,,A*47
$GPRMC,152529.000,A,3254.4184,N,11706.9639,W,54.90,359.60,171010,,,A*4E
$GPRMC,152532.000,A,3254.4644,N,11706.9642,W,55.40,359.50,171010,,,A*4C
$GPRMC,152535.000,A,3254.5108,N,11706.9647,W,55.60,359.50,171010,,,A*42
$GPRMC,152538.000,A,3254.5573,N,11706.9646,W,56.00,01.30,171010,,,A*7B
$GPRMC,152541.000,A,3254.6041,N,11706.9632,W,56.30,01.80,171010,,,A*79
$GPRMC,152544.000,A,3254.6512,N,11706.9618,W,56.70,00.90,171010,,,A*73
$GPRMC,152547.000,A,3254.6985,N,11706.9609,W,56.80,01.00,171010,,,A*75
$GPRMC,152550.000,A,3254.7459,N,11706.9596,W,57.00,01.60,171010,,,A*74
$GPRMC,152553.000,A,3254.7934,N,11706.9577,W,57.10,02.40,171010,,,A*7E
$GPRMC,152556.000,A,3254.8407,N,11706.9553,W,56.40,02.40,171010,,,A*7B
$GPRMC,152559.000,A,3254.8877,N,11706.9523,W,56.50,03.30,171010,,,A*7F
$GPRMC,152602.000,A,3254.9348,N,11706.9490,W,56.70,03.60,171010,,,A*7A
$GPRMC,152605.000,A,3254.9819,N,11706.9455,W,56.80,03.60,171010,,,A*74
$GPRMC,152608.000,A,3255.0293,N,11706.9420,W,56.90,03.70,171010,,,A*7B
$GPRMC,152611.000,A,3255.0766,N,11706.9386,W,56.90,04.10,171010,,,A*76
$GPRMC,152614.000,A,3255.1237,N,11706.9342,W,56.90,05.00,171010,,,A*7B
$GPRMC,152617.000,A,3255.1709,N,11706.9276,W,57.10,06.60,171010,,,A*7A
$GPRMC,152620.000,A,3255.2183,N,11706.9203,W,57.20,07.40,171010,,,A*7B
$GPRMC,152623.000,A,3255.2660,N,11706.9131,W,57.10,07.60,171010,,,A*71
$GPRMC,152626.000,A,3255.3130,N,11706.9051,W,56.60,08.10,171010,,,A*7E
$GPRMC,152629.000,A,3255.3594,N,11706.8965,W,55.90,09.20,171010,,,A*7A
$GPRMC,152632.000,A,3255.4048,N,11706.8874,W,55.00,09.20,171010,,,A*7B
$GPRMC,152635.000,A,3255.4493,N,11706.8773,W,54.50,10.20,171010,,,A*7A
$GPRMC,152638.000,A,3255.4947,N,11706.8682,W,55.10,10.00,171010,,,A*7B
$GPRMC,152641.000,A,3255.5397,N,11706.8565,W,55.40,11.70,171010,,,A*7A
$GPRMC,152644.000,A,3255.5847,N,11706.8446,W,55.50,12.00,171010,,,A*7C
$GPRMC,152647.000,A,3255.6300,N,11706.8324,W,55.80,12.80,171010,,,A*72
$GPRMC,152650.000,A,3255.6753,N,11706.8195,W,56.10,13.40,171010,,,A*79
$GPRMC,152653.000,A,3255.7209,N,11706.8062,W,56.20,13.70,171010,,,A*78
$GPRMC,152656.000,A,3255.7663,N,11706.7927,W,56.40,14.30,171010,,,A*77
$GPRMC,152659.000,A,3255.8119,N,11706.7786,W,56.50,14.60,171010,,,A*7C
$GPRMC,152702.000,A,3255.8575,N,11706.7651,W,56.20,14.10,171010,,,A*76
$GPRMC,152705.000,A,3255.9029,N,11706.7514,W,56.10,14.20,171010,,,A*7E
$GPRMC,152708.000,A,3255.9484,N,11706.7378,W,55.70,14.30,171010,,,A*78
$GPRMC,152711.000,A,3255.9936,N,11706.7242,W,56.20,14.20,171010,,,A*7B
$GPRMC,152714.000,A,3256.0390,N,11706.7105,W,56.20,14.30,171010,,,A*73
$GPRMC,152717.000,A,3256.0845,N,11706.6967,W,56.40,14.40,171010,,,A*7F
$GPRMC,152720.000,A,3256.1303,N,11706.6827,W,57.00,14.40,171010,,,A*73
$GPRMC,152723.000,A,3256.1764,N,11706.6689,W,56.70,14.30,171010,,,A*7E
$GPRMC,152726.000,A,3256.2220,N,11706.6551,W,56.20,14.40,171010,,,A*79
$GPRMC,152729.000,A,3256.2680,N,11706.6412,W,57.40,14.40,171010,,,A*79
$GPRMC,152732.000,A,3256.3147,N,11706.6267,W,57.90,14.90,171010,,,A*7A
$GPRMC,152735.000,A,3256.3611,N,11706.6120,W,57.80,14.90,171010,,,A*78
$GPRMC,152738.000,A,3256.4079,N,11706.5976,W,57.90,15.00,171010,,,A*7B
$GPRMC,152741.000,A,3256.4548,N,11706.5825,W,58.60,16.00,171010,,,A*76
$GPRMC,152744.000,A,3256.5011,N,11706.5657,W,58.10,17.90,171010,,,A*7F
$GPRMC,152747.000,A,3256.5453,N,11706.5473,W,56.80,19.80,171010,,,A*72
$GPRMC,152750.000,A,3256.5899,N,11706.5269,W,56.80,22.00,171010,,,A*73
$GPRMC,152753.000,A,3256.6376,N,11706.5028,W,58.10,24.90,171010,,,A*76
$GPRMC,152756.000,A,3256.6841,N,11706.4766,W,57.80,26.90,171010,,,A*74
$GPRMC,152759.000,A,3256.7278,N,11706.4492,W,57.70,29.00,171010,,,A*7B
$GPRMC,152802.000,A,3256.7697,N,11706.4209,W,57.90,29.80,171010,,,A*7D
$GPRMC,152805.000,A,3256.8113,N,11706.3921,W,57.40,30.40,171010,,,A*71
$GPRMC,152808.000,A,3256.8527,N,11706.3636,W,57.00,29.70,171010,,,A*79
$GPRMC,152811.000,A,3256.8936,N,11706.3356,W,56.60,30.20,171010,,,A*74
$GPRMC,152814.000,A,3256.9346,N,11706.3075,W,57.00,30.00,171010,,,A*7A
$GPRMC,152817.000,A,3256.9759,N,11706.2796,W,57.20,29.80,171010,,,A*7A
$GPRMC,152820.000,A,3257.0176,N,11706.2516,W,57.70,29.90,171010,,,A*73
$GPRMC,152823.000,A,3257.0595,N,11706.2232,W,58.20,29.70,171010,,,A*7C
$GPRMC,152826.000,A,3257.1018,N,11706.1949,W,57.10,29.10,171010,,,A*76
$GPRMC,152829.000,A,3257.1426,N,11706.1684,W,55.10,28.70,171010,,,A*7B
$GPRMC,152832.000,A,3257.1830,N,11706.1427,W,53.80,27.40,171010,,,A*72
$GPRMC,152835.000,A,3257.2228,N,11706.1190,W,53.50,26.50,171010,,,A*71
$GPRMC,152838.000,A,3257.2631,N,11706.0956,W,53.50,25.90,171010,,,A*7C
$GPRMC,152841.000,A,3257.3030,N,11706.0719,W,53.90,27.20,171010,,,A*74
$GPRMC,152844.000,A,3257.3435,N,11706.0470,W,55.10,28.00,171010,,,A*7F
$GPRMC,152847.000,A,3257.3846,N,11706.0211,W,56.30,27.90,171010,,,A*72
$GPRMC,152850.000,A,3257.4263,N,11705.9949,W,56.70,27.80,171010,,,A*77
$GPRMC,152853.000,A,3257.4681,N,11705.9687,W,56.40,27.70,171010,,,A*7D
$GPRMC,152857.000,A,3257.5236,N,11705.9345,W,55.70,27.30,171010,,,A*7F
$GPRMC,152900.000,A,3257.5645,N,11705.9093,W,55.10,27.40,171010,,,A*75
$GPRMC,152903.000,A,3257.6056,N,11705.8833,W,55.70,28.10,171010,,,A*7E
$GPRMC,152906.000,A,3257.6465,N,11705.8567,W,55.90,28.70,171010,,,A*7B
$GPRMC,152909.000,A,3257.6878,N,11705.8304,W,56.00,28.50,171010,,,A*7F
$GPRMC,152912.000,A,3257.7287,N,11705.8031,W,56.10,28.50,171010,,,A*7A
$GPRMC,152915.000,A,3257.7701,N,11705.7767,W,56.10,28.00,171010,,,A*78
$GPRMC,152918.000,A,3257.8114,N,11705.7501,W,55.80,28.00,171010,,,A*70
$GPRMC,152921.000,A,3257.8524,N,11705.7235,W,55.20,27.90,171010,,,A*71
$GPRMC,152924.000,A,3257.8926,N,11705.6977,W,54.40,28.30,171010,,,A*74
$GPRMC,152927.000,A,3257.9333,N,11705.6711,W,55.50,28.20,171010,,,A*77
$GPRMC,152930.000,A,3257.9744,N,11705.6447,W,55.70,27.70,171010,,,A*7D
$GPRMC,152933.000,A,3258.0158,N,11705.6187,W,55.80,27.90,171010,,,A*7B
$GPRMC,152935.000,A,3258.0432,N,11705.6012,W,55.60,27.90,171010,,,A*77
$GPRMC,152939.000,A,3258.0977,N,11705.5667,W,55.50,27.90,171010,,,A*73
$GPRMC,152942.000,A,3258.1384,N,11705.5408,W,55.20,28.10,171010,,,A*73
$GPRMC,152945.000,A,3258.1789,N,11705.5152,W,54.60,27.90,171010,,,A*75
$GPRMC,152948.000,A,3258.2188,N,11705.4901,W,53.80,27.80,171010,,,A*7B
$GPRMC,152951.000,A,3258.2583,N,11705.4651,W,53.30,28.60,171010,,,A*7C
$GPRMC,152954.000,A,3258.2971,N,11705.4397,W,53.00,28.70,171010,,,A*75
$GPRMC,152957.000,A,3258.3362,N,11705.4147,W,53.40,28.40,171010,,,A*77
$GPRMC,153000.000,A,3258.3757,N,11705.3896,W,54.10,28.40,171010,,,A*7F
$GPRMC,153003.000,A,3258.4158,N,11705.3642,W,54.70,28.20,171010,,,A*75
$GPRMC,153006.000,A,3258.4561,N,11705.3388,W,54.80,28.00,171010,,,A*70
$GPRMC,153009.000,A,3258.4964,N,11705.3133,W,54.50,27.80,171010,,,A*7E
$GPRMC,153012.000,A,3258.5368,N,11705.2881,W,54.80,28.00,171010,,,A*78
$GPRMC,153015.000,A,3258.5772,N,11705.2625,W,54.40,28.40,171010,,,A*78
$GPRMC,153018.000,A,3258.6170,N,11705.2367,W,54.30,28.90,171010,,,A*7B
$GPRMC,153021.000,A,3258.6568,N,11705.2107,W,54.40,28.60,171010,,,A*70
$GPRMC,153024.000,A,3258.6965,N,11705.1851,W,54.00,28.10,171010,,,A*7E
$GPRMC,153027.000,A,3258.7360,N,11705.1605,W,53.70,27.70,171010,,,A*75
$GPRMC,153030.000,A,3258.7750,N,11705.1355,W,53.10,28.20,171010,,,A*78
$GPRMC,153033.000,A,3258.8145,N,11705.1104,W,54.10,28.20,171010,,,A*77
$GPRMC,153036.000,A,3258.8545,N,11705.0852,W,54.30,28.00,171010,,,A*7D
$GPRMC,153039.000,A,3258.8946,N,11705.0600,W,54.50,28.00,171010,,,A*72
$GPRMC,153042.000,A,3258.9347,N,11705.0354,W,54.00,26.60,171010,,,A*7D
$GPRMC,153045.000,A,3258.9754,N,11705.0120,W,54.20,24.70,171010,,,A*7C
$GPRMC,153048.000,A,3259.0179,N,11704.9923,W,54.60,19.50,171010,,,A*7B
$GPRMC,153051.000,A,3259.0610,N,11704.9759,W,54.20,15.50,171010,,,A*70
$GPRMC,153054.000,A,3259.1042,N,11704.9622,W,54.00,14.30,171010,,,A*7D
$GPRMC,153057.000,A,3259.1482,N,11704.9528,W,53.80,09.00,171010,,,A*7F
$GPRMC,153100.000,A,3259.1929,N,11704.9464,W,53.70,06.10,171010,,,A*78
$GPRMC,153103.000,A,3259.2379,N,11704.9443,W,53.80,00.20,171010,,,A*78
$GPRMC,153106.000,A,3259.2832,N,11704.9459,W,54.00,357.00,171010,,,A*4E
$GPRMC,153109.000,A,3259.3286,N,11704.9499,W,54.90,354.90,171010,,,A*4A
$GPRMC,153112.000,A,3259.3731,N,11704.9587,W,54.00,350.00,171010,,,A*43
$GPRMC,153115.000,A,3259.4174,N,11704.9682,W,53.80,349.80,171010,,,A*4D
$GPRMC,153118.000,A,3259.4619,N,11704.9772,W,54.00,350.40,171010,,,A*49
$GPRMC,153121.000,A,3259.5064,N,11704.9856,W,54.00,350.70,171010,,,A*44
$GPRMC,153124.000,A,3259.5499,N,11704.9934,W,52.40,352.10,171010,,,A*44
$GPRMC,153127.000,A,3259.5910,N,11704.9971,W,48.90,358.40,171010,,,A*43
$GPRMC,153130.000,A,3259.6301,N,11704.9977,W,46.30,01.00,171010,,,A*75
$GPRMC,153133.000,A,3259.6674,N,11704.9963,W,43.90,03.40,171010,,,A*7D
$GPRMC,153136.000,A,3259.7034,N,11704.9934,W,42.00,05.10,171010,,,A*72
$GPRMC,153139.000,A,3259.7376,N,11704.9896,W,40.20,06.50,171010,,,A*76
$GPRMC,153142.000,A,3259.7684,N,11704.9854,W,36.20,07.40,171010,,,A*7D
$GPRMC,153145.000,A,3259.7925,N,11704.9788,W,27.80,12.40,171010,,,A*7E
$GPRMC,153148.000,A,3259.8120,N,11704.9739,W,21.50,13.20,171010,,,A*77
$GPRMC,153151.000,A,3259.8239,N,11704.9706,W,11.70,15.60,171010,,,A*7B
$GPRMC,153157.000,A,3259.8283,N,11704.9695,W,3.30,16.00,171010,,,A*45
$GPRMC,153200.000,A,3259.8346,N,11704.9673,W,12.40,16.20,171010,,,A*71
$GPRMC,153203.000,A,3259.8465,N,11704.9644,W,16.30,07.10,171010,,,A*70
$GPRMC,153206.000,A,3259.8595,N,11704.9671,W,15.70,336.20,171010,,,A*48
$GPRMC,153209.000,A,3259.8694,N,11704.9764,W,15.30,320.90,171010,,,A*48
$GPRMC,153210.000,A,3259.8731,N,11704.9816,W,18.40,314.60,171010,,,A*46
$GPRMC,153216.000,A,3259.9002,N,11705.0315,W,31.90,305.50,171010,,,A*43
$GPRMC,153219.000,A,3259.9178,N,11705.0613,W,36.90,305.00,171010,,,A*41
$GPRMC,153222.000,A,3259.9370,N,11705.0936,W,40.10,306.90,171010,,,A*48
$GPRMC,153225.000,A,3259.9586,N,11705.1263,W,41.50,308.60,171010,,,A*4E
$GPRMC,153228.000,A,3259.9815,N,11705.1590,W,42.90,311.00,171010,,,A*4E
$GPRMC,153231.000,A,3300.0056,N,11705.1916,W,43.90,311.00,171010,,,A*4E
$GPRMC,153234.000,A,3300.0301,N,11705.2248,W,45.30,311.40,171010,,,A*41
$GPRMC,153237.000,A,3300.0552,N,11705.2585,W,46.00,311.70,171010,,,A*47
$GPRMC,153240.000,A,3300.0808,N,11705.2936,W,46.30,311.10,171010,,,A*44
$GPRMC,153243.000,A,3300.1067,N,11705.3286,W,47.10,311.10,171010,,,A*45
$GPRMC,153246.000,A,3300.1327,N,11705.3647,W,47.40,311.00,171010,,,A*4A
$GPRMC,153249.000,A,3300.1588,N,11705.3983,W,46.30,312.80,171010,,,A*4C
$GPRMC,153252.000,A,3300.1860,N,11705.4269,W,44.10,317.00,171010,,,A*48
$GPRMC,153255.000,A,3300.2124,N,11705.4527,W,39.00,322.30,171010,,,A*46
$GPRMC,153258.000,A,3300.2360,N,11705.4739,W,31.70,324.20,171010,,,A*4C
$GPRMC,153301.000,A,3300.2567,N,11705.4920,W,29.80,323.70,171010,,,A*42
$GPRMC,153304.000,A,3300.2784,N,11705.5103,W,31.30,324.90,171010,,,A*4B
$GPRMC,153307.000,A,3300.2992,N,11705.5265,W,29.80,325.50,171010,,,A*4D
$GPRMC,153310.000,A,3300.3204,N,11705.5440,W,31.00,325.60,171010,,,A*4D
$GPRMC,153313.000,A,3300.3418,N,11705.5611,W,31.40,325.00,171010,,,A*41
$GPRMC,153316.000,A,3300.3639,N,11705.5802,W,33.80,323.80,171010,,,A*49
$GPRMC,153319.000,A,3300.3871,N,11705.6005,W,35.40,323.20,171010,,,A*48
$GPRMC,153322.000,A,3300.4119,N,11705.6217,W,37.20,323.40,171010,,,A*43
$GPRMC,153325.000,A,3300.4384,N,11705.6454,W,39.90,323.50,171010,,,A*47
$GPRMC,153328.000,A,3300.4655,N,11705.6696,W,40.40,323.30,171010,,,A*4A
$GPRMC,153331.000,A,3300.4931,N,11705.6938,W,41.30,323.10,171010,,,A*40
$GPRMC,153334.000,A,3300.5207,N,11705.7174,W,41.60,323.10,171010,,,A*4E
$GPRMC,153337.000,A,3300.5477,N,11705.7426,W,41.50,321.90,171010,,,A*47
$GPRMC,153340.000,A,3300.5734,N,11705.7700,W,41.50,316.80,171010,,,A*41
$GPRMC,153343.000,A,3300.5988,N,11705.7994,W,42.40,313.90,171010,,,A*4E
$GPRMC,153346.000,A,3300.6227,N,11705.8321,W,43.70,309.00,171010,,,A*4D
$GPRMC,153349.000,A,3300.6441,N,11705.8672,W,43.30,304.00,171010,,,A*4E
$GPRMC,153352.000,A,3300.6634,N,11705.9034,W,43.70,300.80,171010,,,A*49
$GPRMC,153355.000,A,3300.6809,N,11705.9414,W,43.00,296.90,171010,,,A*40
$GPRMC,153358.000,A,3300.6968,N,11705.9797,W,43.00,295.70,171010,,,A*4E
$GPRMC,153401.000,A,3300.7121,N,11706.0179,W,42.50,295.70,171010,,,A*49
$GPRMC,153404.000,A,3300.7284,N,11706.0540,W,41.70,298.80,171010,,,A*4D
$GPRMC,153407.000,A,3300.7484,N,11706.0878,W,41.70,307.00,171010,,,A*41
$GPRMC,153410.000,A,3300.7698,N,11706.1208,W,41.90,309.10,171010,,,A*45
$GPRMC,153413.000,A,3300.7930,N,11706.1490,W,40.30,314.20,171010,,,A*48
$GPRMC,153416.000,A,3300.8170,N,11706.1719,W,37.70,319.70,171010,,,A*40
$GPRMC,153419.000,A,3300.8364,N,11706.1907,W,28.00,320.40,171010,,,A*49
$GPRMC,153422.000,A,3300.8519,N,11706.2083,W,20.70,309.40,171010,,,A*4F
$GPRMC,153425.000,A,3300.8624,N,11706.2193,W,11.20,339.70,171010,,,A*42
$GPRMC,153428.000,A,3300.8725,N,11706.2169,W,15.80,34.20,171010,,,A*7F
$GPRMC,153431.000,A,3300.8860,N,11706.2049,W,24.00,35.80,171010,,,A*7B
$GPRMC,153434.000,A,3300.9049,N,11706.1886,W,30.10,35.30,171010,,,A*7B
$GPRMC,153437.000,A,3300.9263,N,11706.1703,W,32.00,35.30,171010,,,A*73
$GPRMC,153440.000,A,3300.9481,N,11706.1517,W,32.50,35.90,171010,,,A*71
$GPRMC,153443.000,A,3300.9704,N,11706.1338,W,32.30,33.40,171010,,,A*7A
$GPRMC,153446.000,A,3300.9930,N,11706.1188,W,31.40,28.70,171010,,,A*72
