NMEA Sentence Code,UTC Time,Status,Latitude,Latitude Direction,Longitude,Longitude Direction,Speed (knots),Track Angle (degrees true),Date,MagneticVariation,Magnetic Variation Direction,[FAA Mode]-Optional,Checksum
$GPRMC,071827.8,A,3237.3021,N,11659.0541,W,13.90,252.30,301210,,*21
$GPRMC,071830.8,A,3237.3024,N,11659.0618,W,6.90,284.40,301210,,*15
$GPRMC,071833.8,A,3237.3095,N,11659.0698,W,14.20,314.30,301210,,*23
$GPRMC,071836.8,A,3237.3303,N,11659.0752,W,25.90,343.10,301210,,*24
$GPRMC,071839.8,A,3237.3558,N,11659.0851,W,31.50,340.70,301210,,*23
$GPRMC,071842.8,A,3237.3836,N,11659.0972,W,34.80,339.40,301210,,*2F
$GPRMC,071845.8,A,3237.4128,N,11659.1090,W,36.60,339.70,301210,,*22
$GPRMC,071848.8,A,3237.4387,N,11659.1235,W,34.40,336.90,301210,,*24
$GPRMC,071851.8,A,3237.4619,N,11659.1373,W,29.20,334.70,301210,,*2B
$GPRMC,071854.8,A,3237.4790,N,11659.1479,W,21.30,334.10,301210,,*2C
$GPRMC,071857.8,A,3237.4885,N,11659.1537,W,10.60,333.90,301210,,*27
$GPRMC,071936.8,A,3237.4964,N,11659.1601,W,6.60,303.40,301210,,*10
$GPRMC,071939.8,A,3237.5061,N,11659.1689,W,12.70,309.80,301210,,*20
$GPRMC,071942.8,A,3237.5240,N,11659.1822,W,20.50,321.70,301210,,*24
$GPRMC,071945.8,A,3237.5607,N,11659.1993,W,36.20,334.70,301210,,*2B
$GPRMC,071948.8,A,3237.5938,N,11659.2143,W,40.50,339.80,301210,,*27
$GPRMC,071951.8,A,3237.6287,N,11659.2269,W,42.50,341.70,301210,,*2A
$GPRMC,071954.8,A,3237.6633,N,11659.2387,W,43.00,343.20,301210,,*26
$GPRMC,071957.8,A,3237.6963,N,11659.2518,W,41.90,342.30,301210,,*24
$GPRMC,072000.8,A,3237.7291,N,11659.2649,W,41.30,342.50,301210,,*20
$GPRMC,072003.8,A,3237.7606,N,11659.2761,W,40.10,343.50,301210,,*20
$GPRMC,072006.8,A,3237.7934,N,11659.2852,W,39.60,348.00,301210,,*23
$GPRMC,072009.8,A,3237.8264,N,11659.2910,W,38.20,355.00,301210,,*23
$GPRMC,072012.8,A,3237.8580,N,11659.2928,W,34.80,1.00,301210,,*2B
$GPRMC,072015.8,A,3237.8850,N,11659.2912,W,31.30,3.60,301210,,*2F
$GPRMC,072018.8,A,3237.9078,N,11659.2886,W,24.80,6.90,301210,,*28
$GPRMC,072021.8,A,3237.9210,N,11659.2855,W,16.10,12.10,301210,,*15
$GPRMC,072024.8,A,3237.9301,N,11659.2830,W,15.80,11.70,301210,,*1D
$GPRMC,072027.8,A,3237.9461,N,11659.2787,W,23.60,10.30,301210,,*12
$GPRMC,072030.8,A,3237.9685,N,11659.2736,W,30.50,10.60,301210,,*12
$GPRMC,072033.8,A,3237.9962,N,11659.2691,W,34.50,6.20,301210,,*2C
$GPRMC,072036.8,A,3238.0262,N,11659.2670,W,36.10,1.70,301210,,*2F
$GPRMC,072039.8,A,3238.0558,N,11659.2678,W,35.60,356.80,301210,,*2C
$GPRMC,072042.8,A,3238.0853,N,11659.2705,W,35.90,353.60,301210,,*29
$GPRMC,072045.8,A,3238.1149,N,11659.2784,W,36.60,347.00,301210,,*2B
$GPRMC,072048.8,A,3238.1483,N,11659.2905,W,39.30,342.40,301210,,*29
$GPRMC,072051.8,A,3238.1809,N,11659.3054,W,40.20,337.70,301210,,*2D
$GPRMC,072054.8,A,3238.2092,N,11659.3259,W,39.70,329.50,301210,,*28
$GPRMC,072057.8,A,3238.2359,N,11659.3467,W,36.40,325.90,301210,,*28
$GPRMC,072100.8,A,3238.2605,N,11659.3658,W,34.40,326.60,301210,,*27
$GPRMC,072103.8,A,3238.2817,N,11659.3832,W,30.60,323.90,301210,,*27
$GPRMC,072106.8,A,3238.2980,N,11659.3987,W,23.80,323.80,301210,,*2F
$GPRMC,072109.8,A,3238.3081,N,11659.4078,W,13.40,328.70,301210,,*2C
$GPRMC,072215.8,A,3238.3187,N,11659.4182,W,9.90,308.70,301210,,*15
$GPRMC,072218.8,A,3238.3216,N,11659.4309,W,13.30,272.00,301210,,*28
$GPRMC,072221.8,A,3238.3155,N,11659.4485,W,18.70,246.00,301210,,*2D
$GPRMC,072224.8,A,3238.2994,N,11659.4708,W,29.10,229.20,301210,,*25
$GPRMC,072227.8,A,3238.2779,N,11659.4958,W,36.90,224.50,301210,,*2C
$GPRMC,072230.8,A,3238.2530,N,11659.5231,W,40.40,221.90,301210,,*25
$GPRMC,072233.8,A,3238.2268,N,11659.5504,W,41.00,221.40,301210,,*25
$GPRMC,072236.8,A,3238.2001,N,11659.5771,W,41.60,221.60,301210,,*29
$GPRMC,072239.8,A,3238.1734,N,11659.6055,W,43.20,221.90,301210,,*2F
$GPRMC,072242.8,A,3238.1459,N,11659.6346,W,42.90,221.30,301210,,*2A
$GPRMC,072245.8,A,3238.1199,N,11659.6615,W,42.70,221.60,301210,,*2C
$GPRMC,072248.8,A,3238.0935,N,11659.6899,W,42.60,221.60,301210,,*25
$GPRMC,072251.8,A,3238.0673,N,11659.7183,W,43.00,222.40,301210,,*25
$GPRMC,072254.8,A,3238.0409,N,11659.7476,W,43.60,224.40,301210,,*20
$GPRMC,072257.8,A,3238.0169,N,11659.7777,W,42.40,229.30,301210,,*2B
$GPRMC,072300.8,A,3237.9952,N,11659.8116,W,42.60,234.50,301210,,*28
$GPRMC,072303.8,A,3237.9768,N,11659.8474,W,41.30,238.90,301210,,*2B
$GPRMC,072306.8,A,3237.9592,N,11659.8822,W,40.80,238.30,301210,,*26
$GPRMC,072309.8,A,3237.9408,N,11659.9176,W,41.00,237.00,301210,,*27
$GPRMC,072312.8,A,3237.9194,N,11659.9502,W,41.00,231.40,301210,,*28
$GPRMC,072315.8,A,3237.8978,N,11659.9796,W,41.40,228.10,301210,,*22
$GPRMC,072318.8,A,3237.8741,N,11700.0093,W,41.50,227.30,301210,,*21
$GPRMC,072321.8,A,3237.8522,N,11700.0382,W,40.60,227.70,301210,,*29
$GPRMC,072324.8,A,3237.8294,N,11700.0663,W,39.50,227.00,301210,,*26
$GPRMC,072327.8,A,3237.8078,N,11700.0950,W,38.80,227.60,301210,,*20
$GPRMC,072330.8,A,3237.7857,N,11700.1234,W,39.50,226.70,301210,,*28
$GPRMC,072333.8,A,3237.7630,N,11700.1521,W,40.80,227.30,301210,,*21
$GPRMC,072336.8,A,3237.7389,N,11700.1823,W,42.00,226.60,301210,,*22
$GPRMC,072339.8,A,3237.7151,N,11700.2119,W,42.00,225.20,301210,,*2E
$GPRMC,072342.8,A,3237.6902,N,11700.2408,W,41.40,225.60,301210,,*2B
$GPRMC,072345.8,A,3237.6657,N,11700.2704,W,41.60,227.00,301210,,*2A
$GPRMC,072348.8,A,3237.6421,N,11700.3015,W,42.40,227.90,301210,,*2A
$GPRMC,072351.8,A,3237.6193,N,11700.3321,W,40.90,228.90,301210,,*2A
$GPRMC,072354.8,A,3237.5976,N,11700.3623,W,39.70,230.00,301210,,*28
$GPRMC,072357.8,A,3237.5793,N,11700.3928,W,39.20,235.60,301210,,*2C
$GPRMC,072400.8,A,3237.5626,N,11700.4268,W,39.30,241.50,301210,,*2F
$GPRMC,072403.8,A,3237.5474,N,11700.4620,W,39.70,245.20,301210,,*26
$GPRMC,072406.8,A,3237.5331,N,11700.4980,W,40.20,245.90,301210,,*20
$GPRMC,072409.8,A,3237.5202,N,11700.5369,W,42.20,247.40,301210,,*2F
$GPRMC,072412.8,A,3237.5059,N,11700.5768,W,43.50,248.40,301210,,*25
$GPRMC,072415.8,A,3237.4922,N,11700.6175,W,43.40,247.40,301210,,*21
$GPRMC,072418.8,A,3237.4785,N,11700.6565,W,43.40,248.00,301210,,*21
$GPRMC,072421.8,A,3237.4640,N,11700.6959,W,43.20,246.50,301210,,*2D
$GPRMC,072424.8,A,3237.4545,N,11700.7330,W,42.50,250.70,301210,,*29
$GPRMC,072427.8,A,3237.4458,N,11700.7721,W,41.40,255.90,301210,,*2A
$GPRMC,072430.8,A,3237.4380,N,11700.8125,W,41.80,260.10,301210,,*21
$GPRMC,072433.8,A,3237.4321,N,11700.8529,W,40.70,261.30,301210,,*2C
$GPRMC,072436.8,A,3237.4284,N,11700.8923,W,41.20,263.20,301210,,*26
$GPRMC,072439.8,A,3237.4237,N,11700.9318,W,40.30,263.40,301210,,*24
$GPRMC,072442.8,A,3237.4190,N,11700.9718,W,40.20,262.20,301210,,*24
$GPRMC,072445.8,A,3237.4145,N,11701.0113,W,40.30,262.50,301210,,*28
$GPRMC,072448.8,A,3237.4120,N,11701.0479,W,38.60,263.70,301210,,*26
$GPRMC,072451.8,A,3237.4092,N,11701.0855,W,37.50,268.40,301210,,*20
$GPRMC,072454.8,A,3237.4100,N,11701.1219,W,37.50,269.40,301210,,*2D
$GPRMC,072457.8,A,3237.4087,N,11701.1591,W,37.80,269.30,301210,,*2D
$GPRMC,072500.8,A,3237.4084,N,11701.1969,W,37.90,268.90,301210,,*2C
$GPRMC,072503.8,A,3237.4078,N,11701.2349,W,38.70,269.40,301210,,*2A
$GPRMC,072506.8,A,3237.4085,N,11701.2730,W,38.80,273.20,301210,,*25
$GPRMC,072509.8,A,3237.4125,N,11701.3119,W,40.10,276.00,301210,,*2C
$GPRMC,072512.8,A,3237.4210,N,11701.3500,W,40.00,283.70,301210,,*23
$GPRMC,072515.8,A,3237.4339,N,11701.3867,W,40.00,292.10,301210,,*24
$GPRMC,072518.8,A,3237.4467,N,11701.4224,W,39.10,294.10,301210,,*26
$GPRMC,072521.8,A,3237.4611,N,11701.4582,W,39.60,296.60,301210,,*26
$GPRMC,072524.8,A,3237.4752,N,11701.4922,W,39.00,296.70,301210,,*24
$GPRMC,072527.8,A,3237.4909,N,11701.5263,W,39.30,297.30,301210,,*2E
$GPRMC,072530.8,A,3237.5076,N,11701.5614,W,41.00,297.30,301210,,*20
$GPRMC,072533.8,A,3237.5235,N,11701.5983,W,41.90,295.80,301210,,*27
$GPRMC,072536.8,A,3237.5379,N,11701.6364,W,42.60,289.90,301210,,*2B
$GPRMC,072539.8,A,3237.5496,N,11701.6768,W,43.10,288.40,301210,,*20
$GPRMC,072542.8,A,3237.5586,N,11701.7193,W,44.30,285.00,301210,,*23
$GPRMC,072545.8,A,3237.5642,N,11701.7638,W,44.80,282.60,301210,,*23
$GPRMC,072548.8,A,3237.5713,N,11701.8074,W,44.60,280.70,301210,,*27
$GPRMC,072551.8,A,3237.5785,N,11701.8498,W,44.40,281.70,301210,,*25
$GPRMC,072554.8,A,3237.5853,N,11701.8922,W,42.90,280.70,301210,,*22
$GPRMC,072557.8,A,3237.5952,N,11701.9309,W,41.90,288.70,301210,,*28
$GPRMC,072600.8,A,3237.6081,N,11701.9684,W,40.40,296.20,301210,,*2B
$GPRMC,072603.8,A,3237.6247,N,11702.0026,W,39.30,301.20,301210,,*22
$GPRMC,072606.8,A,3237.6419,N,11702.0352,W,38.50,301.90,301210,,*26
$GPRMC,072609.8,A,3237.6567,N,11702.0689,W,38.40,296.90,301210,,*2C
$GPRMC,072612.8,A,3237.6691,N,11702.1046,W,38.20,289.10,301210,,*28
$GPRMC,072615.8,A,3237.6786,N,11702.1411,W,38.70,286.30,301210,,*26
$GPRMC,072618.8,A,3237.6857,N,11702.1780,W,38.40,281.70,301210,,*23
$GPRMC,072621.8,A,3237.6882,N,11702.2144,W,38.20,277.40,301210,,*20
$GPRMC,072624.8,A,3237.6896,N,11702.2527,W,38.50,276.00,301210,,*23
$GPRMC,072627.8,A,3237.6918,N,11702.2907,W,37.90,276.00,301210,,*2A
$GPRMC,072630.8,A,3237.6948,N,11702.3257,W,35.10,276.50,301210,,*29
$GPRMC,072633.8,A,3237.7006,N,11702.3583,W,34.30,280.80,301210,,*21
$GPRMC,072636.8,A,3237.7070,N,11702.3914,W,33.40,281.90,301210,,*27
$GPRMC,072639.8,A,3237.7129,N,11702.4223,W,31.60,283.40,301210,,*22
$GPRMC,072642.8,A,3237.7186,N,11702.4525,W,32.20,285.30,301210,,*2C
$GPRMC,072645.8,A,3237.7250,N,11702.4827,W,31.80,285.80,301210,,*2E
$GPRMC,072648.8,A,3237.7320,N,11702.5124,W,30.30,286.10,301210,,*2E
$GPRMC,072651.8,A,3237.7375,N,11702.5394,W,28.10,284.80,301210,,*2F
$GPRMC,072654.8,A,3237.7428,N,11702.5647,W,24.40,286.20,301210,,*2F
$GPRMC,072657.8,A,3237.7513,N,11702.5841,W,20.70,304.50,301210,,*26
$GPRMC,072700.8,A,3237.7694,N,11702.5969,W,27.00,330.10,301210,,*21
$GPRMC,072703.8,A,3237.7905,N,11702.6108,W,31.60,331.50,301210,,*2D
$GPRMC,072706.8,A,3237.8151,N,11702.6264,W,35.00,332.70,301210,,*24
$GPRMC,072709.8,A,3237.8416,N,11702.6433,W,37.40,330.60,301210,,*2C
$GPRMC,072712.8,A,3237.8702,N,11702.6620,W,40.90,330.40,301210,,*2F
$GPRMC,072715.8,A,3237.9019,N,11702.6827,W,44.90,331.30,301210,,*2F
$GPRMC,072718.8,A,3237.9370,N,11702.7041,W,47.80,331.20,301210,,*24
$GPRMC,072721.8,A,3237.9736,N,11702.7277,W,51.30,330.40,301210,,*24
$GPRMC,072724.8,A,3238.0112,N,11702.7560,W,53.60,326.70,301210,,*25
$GPRMC,072727.8,A,3238.0487,N,11702.7863,W,54.70,324.50,301210,,*27
$GPRMC,072730.8,A,3238.0838,N,11702.8191,W,52.70,321.90,301210,,*2D
$GPRMC,072733.8,A,3238.1185,N,11702.8526,W,53.30,318.30,301210,,*2D
$GPRMC,072736.8,A,3238.1515,N,11702.8881,W,53.80,315.50,301210,,*25
$GPRMC,072739.8,A,3238.1824,N,11702.9263,W,53.10,312.20,301210,,*2B
$GPRMC,072742.8,A,3238.2115,N,11702.9662,W,53.80,309.10,301210,,*2A
$GPRMC,072745.8,A,3238.2388,N,11703.0096,W,55.30,305.00,301210,,*2E
$GPRMC,072748.8,A,3238.2645,N,11703.0548,W,55.40,304.90,301210,,*2E
$GPRMC,072751.8,A,3238.2906,N,11703.0994,W,55.40,305.30,301210,,*28
$GPRMC,072754.8,A,3238.3169,N,11703.1440,W,55.20,304.50,301210,,*29
$GPRMC,072757.8,A,3238.3429,N,11703.1891,W,55.00,304.50,301210,,*29
$GPRMC,072800.8,A,3238.3688,N,11703.2334,W,54.90,307.40,301210,,*20
$GPRMC,072803.8,A,3238.3993,N,11703.2749,W,55.50,312.80,301210,,*2D
$GPRMC,072806.8,A,3238.4311,N,11703.3146,W,54.80,313.80,301210,,*2A
$GPRMC,072809.8,A,3238.4691,N,11703.3476,W,55.40,324.00,301210,,*2F
$GPRMC,072812.8,A,3238.5072,N,11703.3770,W,56.20,329.30,301210,,*21
$GPRMC,072815.8,A,3238.5488,N,11703.4039,W,58.50,331.70,301210,,*2E
$GPRMC,072818.8,A,3238.5915,N,11703.4285,W,57.00,334.30,301210,,*24
$GPRMC,072821.8,A,3238.6348,N,11703.4528,W,56.80,334.30,301210,,*26
$GPRMC,072824.8,A,3238.6774,N,11703.4769,W,57.00,334.40,301210,,*21
$GPRMC,072827.8,A,3238.7199,N,11703.5010,W,55.20,334.80,301210,,*22
$GPRMC,072830.8,A,3238.7622,N,11703.5287,W,57.40,327.80,301210,,*29
$GPRMC,072833.8,A,3238.8020,N,11703.5609,W,57.70,323.90,301210,,*25
$GPRMC,072836.8,A,3238.8378,N,11703.5976,W,55.90,318.40,301210,,*20
$GPRMC,072839.8,A,3238.8721,N,11703.6386,W,59.30,314.80,301210,,*27
$GPRMC,072842.8,A,3238.9012,N,11703.6824,W,56.70,307.80,301210,,*27
$GPRMC,072845.8,A,3238.9283,N,11703.7281,W,56.50,304.60,301210,,*21
$GPRMC,072848.8,A,3238.9483,N,11703.7761,W,53.90,297.90,301210,,*2C
$GPRMC,072851.8,A,3238.9694,N,11703.8248,W,55.30,296.60,301210,,*23
$GPRMC,072854.8,A,3238.9901,N,11703.8744,W,57.50,296.50,301210,,*2B
$GPRMC,072857.8,A,3239.0125,N,11703.9246,W,57.60,298.00,301210,,*20
$GPRMC,072900.8,A,3239.0360,N,11703.9729,W,56.50,300.10,301210,,*2F
$GPRMC,072903.8,A,3239.0638,N,11704.0205,W,55.50,306.00,301210,,*25
$GPRMC,072906.8,A,3239.0922,N,11704.0638,W,56.50,310.80,301210,,*22
$GPRMC,072909.8,A,3239.1237,N,11704.1051,W,56.10,313.20,301210,,*26
$GPRMC,072912.8,A,3239.1597,N,11704.1427,W,56.70,318.80,301210,,*23
$GPRMC,072915.8,A,3239.1954,N,11704.1785,W,56.40,321.30,301210,,*2E
$GPRMC,072918.8,A,3239.2327,N,11704.2118,W,55.40,322.80,301210,,*24
$GPRMC,072921.8,A,3239.2690,N,11704.2450,W,54.00,322.40,301210,,*27
$GPRMC,072924.8,A,3239.3053,N,11704.2768,W,54.20,322.60,301210,,*22
$GPRMC,072927.8,A,3239.3420,N,11704.3096,W,55.50,322.20,301210,,*24
$GPRMC,072930.8,A,3239.3787,N,11704.3439,W,56.40,322.40,301210,,*29
$GPRMC,072933.8,A,3239.4161,N,11704.3782,W,56.90,322.20,301210,,*2B
$GPRMC,072936.8,A,3239.4537,N,11704.4125,W,57.10,322.50,301210,,*2B
$GPRMC,072939.8,A,3239.4921,N,11704.4470,W,57.80,322.70,301210,,*21
$GPRMC,072942.8,A,3239.5298,N,11704.4814,W,57.10,322.00,301210,,*25
$GPRMC,072945.8,A,3239.5674,N,11704.5154,W,57.10,323.20,301210,,*2B
$GPRMC,072948.8,A,3239.6056,N,11704.5486,W,56.90,323.80,301210,,*2A
$GPRMC,072951.8,A,3239.6440,N,11704.5823,W,57.10,323.30,301210,,*20
$GPRMC,072954.8,A,3239.6816,N,11704.6157,W,57.10,322.50,301210,,*24
$GPRMC,072957.8,A,3239.7190,N,11704.6491,W,56.30,323.00,301210,,*29
$GPRMC,073000.8,A,3239.7583,N,11704.6810,W,56.20,326.60,301210,,*22
$GPRMC,073003.8,A,3239.8003,N,11704.7101,W,56.40,330.70,301210,,*2B
$GPRMC,073006.8,A,3239.8421,N,11704.7330,W,55.40,335.40,301210,,*2F
$GPRMC,073009.8,A,3239.8859,N,11704.7533,W,56.30,340.50,301210,,*21
$GPRMC,073012.8,A,3239.9310,N,11704.7714,W,56.80,341.70,301210,,*23
$GPRMC,073015.8,A,3239.9769,N,11704.7884,W,56.60,342.30,301210,,*21
$GPRMC,073018.8,A,3240.0218,N,11704.8052,W,55.90,342.70,301210,,*2C
$GPRMC,073021.8,A,3240.0636,N,11704.8223,W,53.40,340.50,301210,,*21
$GPRMC,073024.8,A,3240.1077,N,11704.8386,W,54.70,341.80,301210,,*20
$GPRMC,073027.8,A,3240.1512,N,11704.8548,W,54.30,341.60,301210,,*2B
$GPRMC,073030.8,A,3240.1946,N,11704.8720,W,54.80,341.10,301210,,*20
$GPRMC,073033.8,A,3240.2388,N,11704.8892,W,55.00,341.50,301210,,*23
$GPRMC,073036.8,A,3240.2809,N,11704.9060,W,54.10,341.50,301210,,*20
$GPRMC,073039.8,A,3240.3251,N,11704.9226,W,55.30,341.90,301210,,*26
$GPRMC,073042.8,A,3240.3690,N,11704.9391,W,55.50,342.90,301210,,*2B
$GPRMC,073045.8,A,3240.4123,N,11704.9555,W,54.10,342.00,301210,,*26
$GPRMC,073048.8,A,3240.4524,N,11704.9706,W,48.40,342.70,301210,,*23
$GPRMC,073051.8,A,3240.4884,N,11704.9850,W,45.60,343.40,301210,,*2D
$GPRMC,073054.8,A,3240.5231,N,11704.9957,W,42.40,345.80,301210,,*24
$GPRMC,073057.8,A,3240.5542,N,11705.0043,W,37.60,346.80,301210,,*23
$GPRMC,073100.8,A,3240.5815,N,11705.0126,W,32.60,345.80,301210,,*2B
$GPRMC,073103.8,A,3240.6035,N,11705.0196,W,27.70,346.80,301210,,*2C
$GPRMC,073106.8,A,3240.6227,N,11705.0252,W,22.50,344.10,301210,,*2F
$GPRMC,073109.8,A,3240.6388,N,11705.0292,W,16.50,357.40,301210,,*28
$GPRMC,073112.8,A,3240.6495,N,11705.0236,W,14.40,29.80,301210,,*12
$GPRMC,073115.8,A,3240.6577,N,11705.0100,W,18.40,51.50,301210,,*10
$GPRMC,073118.8,A,3240.6724,N,11704.9879,W,29.00,52.30,301210,,*15
$GPRMC,073121.8,A,3240.6876,N,11704.9643,W,30.70,50.90,301210,,*17
$GPRMC,073124.8,A,3240.7033,N,11704.9394,W,31.20,52.50,301210,,*1F
$GPRMC,073127.8,A,3240.7191,N,11704.9147,W,32.30,51.80,301210,,*15
$GPRMC,073130.8,A,3240.7352,N,11704.8901,W,32.00,52.20,301210,,*1F
$GPRMC,073133.8,A,3240.7519,N,11704.8653,W,31.50,49.80,301210,,*1B
$GPRMC,073136.8,A,3240.7693,N,11704.8411,W,32.20,48.80,301210,,*1E
$GPRMC,073139.8,A,3240.7853,N,11704.8176,W,30.30,52.60,301210,,*11
$GPRMC,073142.8,A,3240.7987,N,11704.7932,W,29.60,60.50,301210,,*1D
$GPRMC,073145.8,A,3240.8081,N,11704.7645,W,31.40,71.60,301210,,*1D
$GPRMC,073148.8,A,3240.8165,N,11704.7346,W,31.50,71.50,301210,,*1F
$GPRMC,073151.8,A,3240.8247,N,11704.7045,W,31.20,71.80,301210,,*1E
$GPRMC,073154.8,A,3240.8327,N,11704.6768,W,26.70,72.00,301210,,*1D
$GPRMC,073157.8,A,3240.8389,N,11704.6545,W,21.70,69.80,301210,,*12
$GPRMC,073200.8,A,3240.8436,N,11704.6382,W,14.70,63.40,301210,,*1D
$GPRMC,073227.8,A,3240.8437,N,11704.6335,W,4.60,116.90,301210,,*1B
$GPRMC,073230.8,A,3240.8486,N,11704.6159,W,19.50,75.20,301210,,*1F
