NMEA Sentence Code,UTC Time,Status,Latitude,Latitude Direction,Longitude,Longitude Direction,Speed (knots),Track Angle (degrees true),Date,MagneticVariation,Magnetic Variation Direction,[FAA Mode]-Optional,Checksum
$GPRMC,025441.8,A,3241.4265,N,11704.9191,W,36.50,250.80,211110,,*20
$GPRMC,025444.8,A,3241.4171,N,11704.9525,W,35.60,252.20,211110,,*20
$GPRMC,025447.8,A,3241.4083,N,11704.9857,W,35.30,250.90,211110,,*2B
$GPRMC,025450.8,A,3241.3996,N,11705.0181,W,36.10,253.30,211110,,*25
$GPRMC,025453.8,A,3241.3916,N,11705.0493,W,32.80,253.70,211110,,*21
$GPRMC,025456.8,A,3241.3848,N,11705.0744,W,27.00,253.00,211110,,*2C
$GPRMC,025459.8,A,3241.3808,N,11705.0872,W,17.10,254.00,211110,,*28
$GPRMC,025502.8,A,3241.3793,N,11705.0913,W,5.30,252.50,211110,,*1E
$GPRMC,025520.8,A,3241.3775,N,11705.0986,W,7.30,247.60,211110,,*1F
$GPRMC,025523.8,A,3241.3728,N,11705.1155,W,20.30,251.00,211110,,*27
$GPRMC,025526.8,A,3241.3667,N,11705.1412,W,29.10,252.40,211110,,*22
$GPRMC,025529.8,A,3241.3593,N,11705.1714,W,33.30,252.40,211110,,*29
$GPRMC,025532.8,A,3241.3500,N,11705.2045,W,35.40,252.60,211110,,*2A
$GPRMC,025535.8,A,3241.3410,N,11705.2381,W,36.50,251.40,211110,,*25
$GPRMC,025538.8,A,3241.3306,N,11705.2712,W,36.40,251.40,211110,,*27
$GPRMC,025541.8,A,3241.3210,N,11705.3047,W,36.30,251.00,211110,,*2A
$GPRMC,025544.8,A,3241.3123,N,11705.3388,W,36.00,252.40,211110,,*28
$GPRMC,025547.8,A,3241.3016,N,11705.3736,W,36.50,251.60,211110,,*29
$GPRMC,025550.8,A,3241.2913,N,11705.4085,W,37.10,251.30,211110,,*2A
$GPRMC,025553.8,A,3241.2808,N,11705.4429,W,37.50,251.60,211110,,*21
$GPRMC,025556.8,A,3241.2707,N,11705.4779,W,37.80,251.30,211110,,*2A
$GPRMC,025559.8,A,3241.2607,N,11705.5138,W,38.80,252.20,211110,,*2B
$GPRMC,025602.8,A,3241.2516,N,11705.5507,W,38.80,253.80,211110,,*26
$GPRMC,025605.8,A,3241.2432,N,11705.5859,W,36.20,254.40,211110,,*2F
$GPRMC,025608.8,A,3241.2381,N,11705.6140,W,27.10,257.50,211110,,*2E
$GPRMC,025611.8,A,3241.2337,N,11705.6317,W,18.40,257.10,211110,,*26
$GPRMC,025614.8,A,3241.2318,N,11705.6406,W,8.80,259.50,211110,,*1E
$GPRMC,025617.8,A,3241.2327,N,11705.6461,W,9.90,279.20,211110,,*15
$GPRMC,025620.8,A,3241.2395,N,11705.6591,W,19.20,304.30,211110,,*26
$GPRMC,025623.8,A,3241.2554,N,11705.6781,W,30.30,315.80,211110,,*2C
$GPRMC,025626.8,A,3241.2752,N,11705.6989,W,33.10,318.50,211110,,*2A
$GPRMC,025629.8,A,3241.2991,N,11705.7131,W,31.80,336.60,211110,,*2A
$GPRMC,025632.8,A,3241.3230,N,11705.7182,W,28.80,350.00,211110,,*27
$GPRMC,025635.8,A,3241.3433,N,11705.7180,W,23.20,356.00,211110,,*20
$GPRMC,025638.8,A,3241.3551,N,11705.7153,W,16.20,3.40,211110,,*27
$GPRMC,025641.8,A,3241.3655,N,11705.7090,W,15.50,18.80,211110,,*12
$GPRMC,025644.8,A,3241.3811,N,11705.7022,W,20.20,24.30,211110,,*15
$GPRMC,025647.8,A,3241.3969,N,11705.6886,W,23.90,35.80,211110,,*1C
$GPRMC,025650.8,A,3241.4134,N,11705.6740,W,23.90,35.90,211110,,*19
$GPRMC,025654.8,A,3241.4351,N,11705.6502,W,23.70,40.10,211110,,*1C
$GPRMC,025655.8,A,3241.4374,N,11705.6486,W,18.70,38.10,211110,,*10
$GPRMC,025658.8,A,3241.4407,N,11705.6482,W,5.80,24.10,211110,,*24
$GPRMC,025704.8,A,3241.4458,N,11705.6457,W,9.70,22.80,211110,,*22
$GPRMC,025707.8,A,3241.4551,N,11705.6486,W,10.00,344.90,211110,,*28
$GPRMC,025710.8,A,3241.4730,N,11705.6589,W,21.50,340.50,211110,,*2A
$GPRMC,025713.8,A,3241.5020,N,11705.6684,W,32.10,347.80,211110,,*2C
$GPRMC,025716.8,A,3241.5340,N,11705.6737,W,40.70,355.40,211110,,*29
$GPRMC,025719.8,A,3241.5705,N,11705.6761,W,44.80,356.30,211110,,*2F
$GPRMC,025722.8,A,3241.6076,N,11705.6778,W,46.70,358.40,211110,,*2B
$GPRMC,025725.8,A,3241.6489,N,11705.6795,W,49.60,359.10,211110,,*21
$GPRMC,025728.8,A,3241.6933,N,11705.6815,W,52.50,358.70,211110,,*29
$GPRMC,025731.8,A,3241.7380,N,11705.6820,W,54.10,359.50,211110,,*25
$GPRMC,025734.8,A,3241.7830,N,11705.6819,W,54.70,0.10,211110,,*27
$GPRMC,025737.8,A,3241.8272,N,11705.6821,W,51.80,359.30,211110,,*2B
$GPRMC,025740.8,A,3241.8668,N,11705.6816,W,47.80,0.10,211110,,*2A
$GPRMC,025743.8,A,3241.9059,N,11705.6809,W,46.20,0.60,211110,,*2E
$GPRMC,025746.8,A,3241.9415,N,11705.6799,W,45.70,0.20,211110,,*23
$GPRMC,025749.8,A,3241.9815,N,11705.6792,W,47.60,0.60,211110,,*2C
$GPRMC,025752.8,A,3242.0228,N,11705.6793,W,49.90,360.00,211110,,*2B
$GPRMC,025755.8,A,3242.0659,N,11705.6790,W,51.10,0.40,211110,,*2D
$GPRMC,025758.8,A,3242.1084,N,11705.6781,W,51.10,0.60,211110,,*25
$GPRMC,025801.8,A,3242.1497,N,11705.6780,W,49.80,359.40,211110,,*2C
$GPRMC,025804.8,A,3242.1902,N,11705.6806,W,47.90,355.30,211110,,*2D
$GPRMC,025807.8,A,3242.2292,N,11705.6873,W,48.30,351.20,211110,,*2D
$GPRMC,025810.8,A,3242.2692,N,11705.6973,W,48.70,347.20,211110,,*2D
$GPRMC,025813.8,A,3242.3089,N,11705.7109,W,49.30,342.10,211110,,*24
$GPRMC,025816.8,A,3242.3462,N,11705.7295,W,47.30,337.70,211110,,*2C
$GPRMC,025819.8,A,3242.3798,N,11705.7487,W,45.80,332.20,211110,,*29
$GPRMC,025822.8,A,3242.4129,N,11705.7705,W,46.30,328.90,211110,,*2B
$GPRMC,025825.8,A,3242.4452,N,11705.7976,W,48.20,324.10,211110,,*24
$GPRMC,025828.8,A,3242.4775,N,11705.8279,W,49.10,321.60,211110,,*24
$GPRMC,025831.8,A,3242.5096,N,11705.8581,W,50.00,321.80,211110,,*20
$GPRMC,025834.8,A,3242.5443,N,11705.8912,W,52.10,321.50,211110,,*21
$GPRMC,025837.8,A,3242.5784,N,11705.9235,W,51.70,321.30,211110,,*26
$GPRMC,025840.8,A,3242.6137,N,11705.9551,W,52.60,321.80,211110,,*27
$GPRMC,025843.8,A,3242.6485,N,11705.9872,W,53.20,322.70,211110,,*2D
$GPRMC,025846.8,A,3242.6827,N,11706.0172,W,51.80,323.90,211110,,*28
$GPRMC,025849.8,A,3242.7182,N,11706.0474,W,52.20,325.70,211110,,*22
$GPRMC,025852.8,A,3242.7556,N,11706.0743,W,51.90,331.80,211110,,*20
$GPRMC,025855.8,A,3242.7977,N,11706.0911,W,52.00,342.00,211110,,*27
$GPRMC,025858.8,A,3242.8402,N,11706.1044,W,52.90,344.50,211110,,*28
$GPRMC,025901.8,A,3242.8811,N,11706.1188,W,51.50,344.20,211110,,*22
$GPRMC,025904.8,A,3242.9234,N,11706.1295,W,50.60,350.40,211110,,*25
$GPRMC,025907.8,A,3242.9662,N,11706.1342,W,50.80,356.10,211110,,*27
$GPRMC,025910.8,A,3243.0082,N,11706.1377,W,50.10,356.30,211110,,*2C
$GPRMC,025913.8,A,3243.0508,N,11706.1440,W,49.30,347.90,211110,,*2B
$GPRMC,025916.8,A,3243.0873,N,11706.1631,W,48.10,331.10,211110,,*21
$GPRMC,025919.8,A,3243.1185,N,11706.1937,W,48.10,319.60,211110,,*2B
$GPRMC,025922.8,A,3243.1408,N,11706.2338,W,48.20,304.30,211110,,*2F
$GPRMC,025925.8,A,3243.1471,N,11706.2823,W,49.20,279.70,211110,,*29
$GPRMC,025928.8,A,3243.1461,N,11706.3328,W,51.50,266.10,211110,,*22
$GPRMC,025931.8,A,3243.1310,N,11706.3795,W,50.40,250.10,211110,,*2C
$GPRMC,025934.8,A,3243.1153,N,11706.4275,W,51.80,250.90,211110,,*25
$GPRMC,025937.8,A,3243.1041,N,11706.4768,W,50.40,256.40,211110,,*2B
$GPRMC,025940.8,A,3243.1036,N,11706.5307,W,53.80,268.10,211110,,*20
$GPRMC,025943.8,A,3243.1024,N,11706.5843,W,55.30,268.90,211110,,*2E
$GPRMC,025946.8,A,3243.1013,N,11706.6403,W,57.50,267.70,211110,,*21
$GPRMC,025949.8,A,3243.0945,N,11706.7002,W,61.20,259.00,211110,,*29
$GPRMC,025952.8,A,3243.0849,N,11706.7584,W,60.80,258.70,211110,,*28
$GPRMC,025955.8,A,3243.0758,N,11706.8168,W,59.80,259.50,211110,,*20
$GPRMC,025958.8,A,3243.0664,N,11706.8751,W,60.80,259.60,211110,,*26
$GPRMC,030001.8,A,3243.0569,N,11706.9346,W,61.10,259.00,211110,,*24
$GPRMC,030004.8,A,3243.0471,N,11706.9940,W,60.80,259.20,211110,,*2F
$GPRMC,030007.8,A,3243.0380,N,11707.0526,W,59.70,259.20,211110,,*24
$GPRMC,030010.8,A,3243.0288,N,11707.1102,W,58.60,258.20,211110,,*29
$GPRMC,030013.8,A,3243.0168,N,11707.1663,W,58.90,254.40,211110,,*22
$GPRMC,030016.8,A,3242.9998,N,11707.2219,W,59.70,249.90,211110,,*2C
$GPRMC,030019.8,A,3242.9829,N,11707.2759,W,58.50,249.50,211110,,*26
$GPRMC,030022.8,A,3242.9662,N,11707.3285,W,57.00,249.80,211110,,*2D
$GPRMC,030025.8,A,3242.9494,N,11707.3809,W,55.30,249.80,211110,,*2E
$GPRMC,030028.8,A,3242.9331,N,11707.4322,W,55.10,249.60,211110,,*22
$GPRMC,030031.8,A,3242.9170,N,11707.4830,W,55.10,250.10,211110,,*2A
$GPRMC,030034.8,A,3242.9009,N,11707.5341,W,55.80,249.70,211110,,*2B
$GPRMC,030037.8,A,3242.8844,N,11707.5856,W,55.50,249.40,211110,,*2B
$GPRMC,030040.8,A,3242.8680,N,11707.6378,W,57.30,249.30,211110,,*2A
$GPRMC,030043.8,A,3242.8519,N,11707.6892,W,56.10,249.80,211110,,*2D
$GPRMC,030046.8,A,3242.8383,N,11707.7422,W,56.40,253.80,211110,,*25
$GPRMC,030049.8,A,3242.8259,N,11707.7968,W,57.70,255.70,211110,,*24
$GPRMC,030052.8,A,3242.8162,N,11707.8524,W,57.60,259.60,211110,,*22
$GPRMC,030055.8,A,3242.8090,N,11707.9085,W,57.60,262.70,211110,,*2F
$GPRMC,030058.8,A,3242.8046,N,11707.9651,W,57.00,265.00,211110,,*20
$GPRMC,030101.8,A,3242.8021,N,11708.0215,W,57.20,267.70,211110,,*29
$GPRMC,030104.8,A,3242.8013,N,11708.0775,W,56.80,268.90,211110,,*24
$GPRMC,030107.8,A,3242.8008,N,11708.1335,W,55.80,268.60,211110,,*20
$GPRMC,030110.8,A,3242.8009,N,11708.1876,W,55.30,269.70,211110,,*20
$GPRMC,030113.8,A,3242.8023,N,11708.2426,W,54.40,269.70,211110,,*27
$GPRMC,030116.8,A,3242.8014,N,11708.2965,W,55.50,269.80,211110,,*23
$GPRMC,030119.8,A,3242.8006,N,11708.3519,W,55.60,269.60,211110,,*24
$GPRMC,030122.8,A,3242.7995,N,11708.4069,W,55.80,269.40,211110,,*29
$GPRMC,030125.8,A,3242.8002,N,11708.4626,W,56.00,270.50,211110,,*29
$GPRMC,030128.8,A,3242.8007,N,11708.5171,W,53.60,271.90,211110,,*2B
$GPRMC,030131.8,A,3242.8027,N,11708.5698,W,53.40,272.40,211110,,*2D
$GPRMC,030134.8,A,3242.8050,N,11708.6220,W,51.50,273.30,211110,,*29
$GPRMC,030137.8,A,3242.8078,N,11708.6724,W,50.50,274.70,211110,,*23
$GPRMC,030140.8,A,3242.8155,N,11708.7207,W,49.00,281.80,211110,,*20
$GPRMC,030143.8,A,3242.8277,N,11708.7657,W,47.30,289.20,211110,,*2E
$GPRMC,030146.8,A,3242.8544,N,11708.8020,W,46.40,308.50,211110,,*2C
$GPRMC,030149.8,A,3242.8861,N,11708.8308,W,44.90,321.30,211110,,*22
$GPRMC,030152.8,A,3242.9241,N,11708.8433,W,45.00,342.70,211110,,*27
$GPRMC,030155.8,A,3242.9622,N,11708.8462,W,45.60,356.20,211110,,*23
$GPRMC,030158.8,A,3243.0024,N,11708.8469,W,47.90,357.10,211110,,*22
$GPRMC,030201.8,A,3243.0438,N,11708.8487,W,45.90,356.90,211110,,*2F
$GPRMC,030204.8,A,3243.0810,N,11708.8511,W,45.90,356.40,211110,,*2F
$GPRMC,030207.8,A,3243.1199,N,11708.8556,W,47.10,350.90,211110,,*27
$GPRMC,030210.8,A,3243.1591,N,11708.8639,W,48.10,350.00,211110,,*21
$GPRMC,030213.8,A,3243.2003,N,11708.8752,W,50.70,345.90,211110,,*21
$GPRMC,030216.8,A,3243.2422,N,11708.8893,W,52.50,341.40,211110,,*28
$GPRMC,030219.8,A,3243.2837,N,11708.9078,W,53.40,337.90,211110,,*2F
$GPRMC,030222.8,A,3243.3248,N,11708.9306,W,54.40,333.30,211110,,*27
$GPRMC,030225.8,A,3243.3644,N,11708.9560,W,54.10,330.50,211110,,*2E
$GPRMC,030228.8,A,3243.4005,N,11708.9860,W,53.40,323.60,211110,,*29
$GPRMC,030231.8,A,3243.4292,N,11709.0211,W,49.90,311.70,211110,,*2F
$GPRMC,030234.8,A,3243.4517,N,11709.0617,W,48.90,301.40,211110,,*21
$GPRMC,030237.8,A,3243.4664,N,11709.1051,W,46.80,290.40,211110,,*26
$GPRMC,030240.8,A,3243.4729,N,11709.1505,W,47.50,277.90,211110,,*22
$GPRMC,030243.8,A,3243.4705,N,11709.1970,W,47.60,267.20,211110,,*28
$GPRMC,030246.8,A,3243.4649,N,11709.2434,W,47.50,262.80,211110,,*26
$GPRMC,030249.8,A,3243.4597,N,11709.2897,W,47.10,262.70,211110,,*27
$GPRMC,030252.8,A,3243.4544,N,11709.3358,W,45.90,262.70,211110,,*20
$GPRMC,030255.8,A,3243.4485,N,11709.3800,W,44.60,262.90,211110,,*2D
$GPRMC,030258.8,A,3243.4423,N,11709.4236,W,45.50,256.90,211110,,*21
$GPRMC,030301.8,A,3243.4314,N,11709.4668,W,45.50,251.70,211110,,*29
$GPRMC,030304.8,A,3243.4152,N,11709.5076,W,45.60,245.20,211110,,*27
$GPRMC,030307.8,A,3243.3988,N,11709.5492,W,47.30,244.20,211110,,*24
$GPRMC,030310.8,A,3243.3830,N,11709.5923,W,47.60,250.60,211110,,*23
$GPRMC,030313.8,A,3243.3716,N,11709.6380,W,46.90,255.50,211110,,*23
$GPRMC,030316.8,A,3243.3652,N,11709.6841,W,46.00,261.90,211110,,*23
$GPRMC,030319.8,A,3243.3670,N,11709.7321,W,47.10,270.90,211110,,*20
$GPRMC,030322.8,A,3243.3796,N,11709.7790,W,47.90,284.00,211110,,*25
$GPRMC,030325.8,A,3243.4036,N,11709.8230,W,49.60,297.20,211110,,*29
$GPRMC,030328.8,A,3243.4299,N,11709.8629,W,49.70,308.10,211110,,*2A
$GPRMC,030331.8,A,3243.4624,N,11709.8955,W,49.20,318.40,211110,,*25
$GPRMC,030334.8,A,3243.4929,N,11709.9249,W,47.70,321.10,211110,,*21
$GPRMC,030337.8,A,3243.5231,N,11709.9532,W,45.60,321.20,211110,,*2A
$GPRMC,030340.8,A,3243.5515,N,11709.9799,W,44.20,321.70,211110,,*28
$GPRMC,030343.8,A,3243.5802,N,11710.0062,W,45.10,321.80,211110,,*2F
$GPRMC,030346.8,A,3243.6109,N,11710.0347,W,46.30,322.30,211110,,*26
$GPRMC,030349.8,A,3243.6419,N,11710.0622,W,47.70,323.30,211110,,*2F
$GPRMC,030352.8,A,3243.6758,N,11710.0906,W,50.30,323.60,211110,,*2D
$GPRMC,030355.8,A,3243.7094,N,11710.1208,W,49.50,323.10,211110,,*21
$GPRMC,030358.8,A,3243.7423,N,11710.1495,W,47.70,323.50,211110,,*2E
$GPRMC,030401.8,A,3243.7742,N,11710.1762,W,47.90,323.70,211110,,*26
$GPRMC,030404.8,A,3243.8075,N,11710.2053,W,49.50,323.50,211110,,*29
$GPRMC,030407.8,A,3243.8422,N,11710.2350,W,49.10,323.40,211110,,*29
$GPRMC,030410.8,A,3243.8753,N,11710.2634,W,48.20,323.10,211110,,*2A
$GPRMC,030413.8,A,3243.9078,N,11710.2923,W,50.20,323.70,211110,,*20
$GPRMC,030416.8,A,3243.9416,N,11710.3222,W,50.60,323.30,211110,,*22
$GPRMC,030419.8,A,3243.9745,N,11710.3522,W,49.80,323.10,211110,,*2B
$GPRMC,030422.8,A,3244.0073,N,11710.3807,W,48.40,323.60,211110,,*2F
$GPRMC,030425.8,A,3244.0404,N,11710.4093,W,49.70,323.80,211110,,*22
$GPRMC,030428.8,A,3244.0750,N,11710.4395,W,52.50,323.50,211110,,*2D
$GPRMC,030431.8,A,3244.1108,N,11710.4711,W,53.60,323.60,211110,,*26
$GPRMC,030434.8,A,3244.1473,N,11710.5039,W,54.50,323.30,211110,,*27
$GPRMC,030437.8,A,3244.1846,N,11710.5347,W,53.20,323.10,211110,,*26
$GPRMC,030440.8,A,3244.2207,N,11710.5659,W,53.50,323.50,211110,,*23
$GPRMC,030443.8,A,3244.2564,N,11710.5984,W,53.50,323.30,211110,,*2B
$GPRMC,030446.8,A,3244.2925,N,11710.6295,W,54.70,323.40,211110,,*2D
$GPRMC,030449.8,A,3244.3297,N,11710.6613,W,55.20,323.90,211110,,*22
$GPRMC,030452.8,A,3244.3666,N,11710.6939,W,55.60,323.80,211110,,*20
$GPRMC,030455.8,A,3244.4033,N,11710.7264,W,55.00,323.50,211110,,*2F
$GPRMC,030458.8,A,3244.4403,N,11710.7593,W,55.40,322.00,211110,,*2A
$GPRMC,030501.8,A,3244.4748,N,11710.7965,W,56.30,316.20,211110,,*2F
$GPRMC,030504.8,A,3244.5050,N,11710.8393,W,55.90,306.40,211110,,*27
$GPRMC,030507.8,A,3244.5301,N,11710.8860,W,55.80,299.00,211110,,*26
$GPRMC,030510.8,A,3244.5520,N,11710.9342,W,54.10,298.60,211110,,*20
$GPRMC,030513.8,A,3244.5740,N,11710.9805,W,54.20,298.80,211110,,*22
$GPRMC,030516.8,A,3244.5951,N,11711.0269,W,52.10,298.80,211110,,*24
$GPRMC,030519.8,A,3244.6157,N,11711.0714,W,51.30,298.50,211110,,*25
$GPRMC,030522.8,A,3244.6363,N,11711.1163,W,53.00,299.20,211110,,*28
$GPRMC,030525.8,A,3244.6583,N,11711.1629,W,55.00,299.70,211110,,*2D
$GPRMC,030528.8,A,3244.6806,N,11711.2115,W,55.40,298.60,211110,,*2F
$GPRMC,030531.8,A,3244.7029,N,11711.2598,W,55.10,298.90,211110,,*28
$GPRMC,030534.8,A,3244.7253,N,11711.3081,W,55.70,298.70,211110,,*26
$GPRMC,030537.8,A,3244.7480,N,11711.3560,W,55.70,298.70,211110,,*27
$GPRMC,030540.8,A,3244.7711,N,11711.4048,W,55.70,298.80,211110,,*2B
$GPRMC,030543.8,A,3244.7937,N,11711.4530,W,55.20,298.80,211110,,*2D
$GPRMC,030546.8,A,3244.8167,N,11711.5010,W,56.50,298.70,211110,,*27
$GPRMC,030549.8,A,3244.8397,N,11711.5498,W,57.30,301.50,211110,,*25
$GPRMC,030552.8,A,3244.8654,N,11711.5966,W,57.30,304.60,211110,,*2F
$GPRMC,030555.8,A,3244.8949,N,11711.6417,W,57.60,309.00,211110,,*2D
$GPRMC,030558.8,A,3244.9275,N,11711.6846,W,58.30,313.30,211110,,*2F
$GPRMC,030601.8,A,3244.9616,N,11711.7241,W,56.80,317.00,211110,,*2F
$GPRMC,030604.8,A,3244.9972,N,11711.7593,W,55.70,322.60,211110,,*23
$GPRMC,030607.8,A,3245.0352,N,11711.7919,W,55.80,323.50,211110,,*23
$GPRMC,030610.8,A,3245.0723,N,11711.8241,W,54.80,323.30,211110,,*29
$GPRMC,030613.8,A,3245.1069,N,11711.8544,W,49.80,323.60,211110,,*29
$GPRMC,030616.8,A,3245.1378,N,11711.8837,W,44.80,319.10,211110,,*25
$GPRMC,030619.8,A,3245.1650,N,11711.9136,W,45.00,316.60,211110,,*2D
$GPRMC,030622.8,A,3245.1910,N,11711.9455,W,44.80,312.30,211110,,*26
$GPRMC,030625.8,A,3245.2155,N,11711.9798,W,47.00,310.60,211110,,*25
$GPRMC,030628.8,A,3245.2416,N,11712.0163,W,50.60,310.20,211110,,*26
$GPRMC,030631.8,A,3245.2698,N,11712.0560,W,53.60,310.20,211110,,*2E
$GPRMC,030634.8,A,3245.2995,N,11712.0962,W,54.50,312.40,211110,,*27
$GPRMC,030637.8,A,3245.3344,N,11712.1319,W,55.90,322.60,211110,,*28
$GPRMC,030640.8,A,3245.3733,N,11712.1625,W,55.90,328.10,211110,,*2B
$GPRMC,030643.8,A,3245.4157,N,11712.1874,W,55.30,337.30,211110,,*27
$GPRMC,030646.8,A,3245.4643,N,11712.2025,W,59.70,347.60,211110,,*25
$GPRMC,030649.8,A,3245.5130,N,11712.2146,W,59.40,348.20,211110,,*24
$GPRMC,030652.8,A,3245.5597,N,11712.2260,W,57.60,347.90,211110,,*28
$GPRMC,030655.8,A,3245.6046,N,11712.2369,W,54.50,348.20,211110,,*29
$GPRMC,030658.8,A,3245.6490,N,11712.2461,W,53.00,349.10,211110,,*24
$GPRMC,030701.8,A,3245.6909,N,11712.2571,W,52.20,347.40,211110,,*2C
$GPRMC,030704.8,A,3245.7338,N,11712.2694,W,54.70,347.80,211110,,*27
$GPRMC,030707.8,A,3245.7809,N,11712.2811,W,56.70,347.70,211110,,*23
$GPRMC,030710.8,A,3245.8269,N,11712.2934,W,56.30,347.60,211110,,*25
$GPRMC,030713.8,A,3245.8720,N,11712.3048,W,56.00,347.00,211110,,*28
$GPRMC,030716.8,A,3245.9178,N,11712.3172,W,54.80,347.60,211110,,*23
$GPRMC,030719.8,A,3245.9608,N,11712.3275,W,52.30,347.90,211110,,*2A
$GPRMC,030722.8,A,3246.0022,N,11712.3392,W,50.80,347.60,211110,,*28
$GPRMC,030725.8,A,3246.0439,N,11712.3495,W,49.70,348.00,211110,,*2F
$GPRMC,030728.8,A,3246.0859,N,11712.3593,W,50.80,347.80,211110,,*2F
$GPRMC,030731.8,A,3246.1279,N,11712.3702,W,52.30,347.80,211110,,*2D
$GPRMC,030734.8,A,3246.1701,N,11712.3812,W,52.10,347.80,211110,,*2E
$GPRMC,030737.8,A,3246.2125,N,11712.3920,W,51.60,347.80,211110,,*2A
$GPRMC,030740.8,A,3246.2543,N,11712.4028,W,50.70,348.10,211110,,*2E
$GPRMC,030743.8,A,3246.2959,N,11712.4137,W,51.60,347.90,211110,,*22
$GPRMC,030746.8,A,3246.3376,N,11712.4240,W,50.90,347.80,211110,,*2D
$GPRMC,030749.8,A,3246.3785,N,11712.4346,W,50.50,347.60,211110,,*2F
$GPRMC,030752.8,A,3246.4203,N,11712.4456,W,51.70,347.80,211110,,*22
$GPRMC,030755.8,A,3246.4627,N,11712.4567,W,53.40,347.60,211110,,*2B
$GPRMC,030758.8,A,3246.5050,N,11712.4678,W,51.00,347.70,211110,,*2B
$GPRMC,030801.8,A,3246.5463,N,11712.4780,W,50.60,348.00,211110,,*25
$GPRMC,030804.8,A,3246.5878,N,11712.4887,W,50.80,347.90,211110,,*26
$GPRMC,030807.8,A,3246.6300,N,11712.4991,W,52.00,350.00,211110,,*21
$GPRMC,030810.8,A,3246.6732,N,11712.5059,W,52.30,353.90,211110,,*27
$GPRMC,030813.8,A,3246.7164,N,11712.5071,W,51.70,0.10,211110,,*20
$GPRMC,030816.8,A,3246.7587,N,11712.5020,W,51.60,7.60,211110,,*29
$GPRMC,030819.8,A,3246.8009,N,11712.4949,W,51.50,8.60,211110,,*21
$GPRMC,030822.8,A,3246.8436,N,11712.4879,W,52.70,8.30,211110,,*27
$GPRMC,030825.8,A,3246.8876,N,11712.4784,W,53.30,8.40,211110,,*27
$GPRMC,030828.8,A,3246.9320,N,11712.4714,W,53.00,8.70,211110,,*2A
$GPRMC,030831.8,A,3246.9749,N,11712.4634,W,52.60,8.70,211110,,*2D
$GPRMC,030834.8,A,3247.0197,N,11712.4557,W,53.50,8.60,211110,,*20
$GPRMC,030837.8,A,3247.0641,N,11712.4478,W,53.30,8.40,211110,,*27
$GPRMC,030840.8,A,3247.1065,N,11712.4398,W,51.90,8.20,211110,,*21
$GPRMC,030843.8,A,3247.1488,N,11712.4322,W,51.50,9.00,211110,,*2B
$GPRMC,030846.8,A,3247.1911,N,11712.4234,W,50.20,9.70,211110,,*24
$GPRMC,030849.8,A,3247.2315,N,11712.4158,W,48.50,7.50,211110,,*2D
$GPRMC,030852.8,A,3247.2715,N,11712.4112,W,48.00,4.20,211110,,*2C
$GPRMC,030855.8,A,3247.3121,N,11712.4091,W,48.00,2.60,211110,,*23
$GPRMC,030858.8,A,3247.3523,N,11712.4080,W,47.50,0.30,211110,,*25
$GPRMC,030901.8,A,3247.3941,N,11712.4094,W,48.70,357.70,211110,,*2D
$GPRMC,030904.8,A,3247.4348,N,11712.4133,W,49.50,354.30,211110,,*24
$GPRMC,030907.8,A,3247.4763,N,11712.4204,W,49.70,351.80,211110,,*21
$GPRMC,030910.8,A,3247.5170,N,11712.4282,W,50.40,349.60,211110,,*20
$GPRMC,030913.8,A,3247.5579,N,11712.4389,W,50.20,346.70,211110,,*2C
$GPRMC,030916.8,A,3247.5996,N,11712.4515,W,50.80,344.80,211110,,*20
$GPRMC,030919.8,A,3247.6429,N,11712.4671,W,52.30,341.60,211110,,*26
$GPRMC,030922.8,A,3247.6841,N,11712.4851,W,52.90,338.60,211110,,*24
$GPRMC,030925.8,A,3247.7257,N,11712.5059,W,55.10,336.50,211110,,*2C
$GPRMC,030928.8,A,3247.7664,N,11712.5287,W,52.90,334.20,211110,,*2E
$GPRMC,030931.8,A,3247.8059,N,11712.5504,W,50.30,335.70,211110,,*21
$GPRMC,030934.8,A,3247.8431,N,11712.5704,W,46.80,335.40,211110,,*23
$GPRMC,030937.8,A,3247.8738,N,11712.5860,W,41.00,335.90,211110,,*25
$GPRMC,030940.8,A,3247.9011,N,11712.6018,W,38.20,332.40,211110,,*2A
$GPRMC,030943.8,A,3247.9273,N,11712.6235,W,37.90,323.30,211110,,*21
$GPRMC,030946.8,A,3247.9510,N,11712.6504,W,39.50,316.10,211110,,*25
$GPRMC,030949.8,A,3247.9598,N,11712.6898,W,40.10,296.90,211110,,*29
$GPRMC,030952.8,A,3247.9729,N,11712.7238,W,36.90,294.40,211110,,*2C
$GPRMC,030955.8,A,3247.9880,N,11712.7559,W,35.50,302.70,211110,,*25
$GPRMC,030958.8,A,3248.0067,N,11712.7820,W,35.50,314.00,211110,,*2C
$GPRMC,031001.8,A,3248.0276,N,11712.8076,W,35.20,314.60,211110,,*2F
$GPRMC,031004.8,A,3248.0475,N,11712.8313,W,31.30,314.20,211110,,*2E
$GPRMC,031007.8,A,3248.0642,N,11712.8523,W,26.60,312.90,211110,,*20
$GPRMC,031010.8,A,3248.0782,N,11712.8691,W,21.20,314.70,211110,,*2A
$GPRMC,031013.8,A,3248.0890,N,11712.8821,W,15.40,314.90,211110,,*2F
$GPRMC,031016.8,A,3248.0965,N,11712.8908,W,10.40,315.20,211110,,*24
$GPRMC,031019.8,A,3248.1015,N,11712.8967,W,6.30,314.70,211110,,*19
$GPRMC,031043.8,A,3248.1105,N,11712.9079,W,10.70,310.70,211110,,*26
$GPRMC,031046.8,A,3248.1179,N,11712.9210,W,17.80,295.90,211110,,*2F
$GPRMC,031049.8,A,3248.1239,N,11712.9398,W,21.20,289.10,211110,,*2C
$GPRMC,031052.8,A,3248.1301,N,11712.9652,W,26.70,285.80,211110,,*28
$GPRMC,031055.8,A,3248.1384,N,11712.9922,W,29.10,287.00,211110,,*29
$GPRMC,031058.8,A,3248.1439,N,11713.0244,W,32.60,284.00,211110,,*28
$GPRMC,031101.8,A,3248.1481,N,11713.0576,W,33.30,277.60,211110,,*2E
$GPRMC,031104.8,A,3248.1512,N,11713.0918,W,35.50,274.00,211110,,*21
$GPRMC,031107.8,A,3248.1513,N,11713.1284,W,37.80,267.00,211110,,*21
$GPRMC,031110.8,A,3248.1480,N,11713.1654,W,38.10,261.40,211110,,*21
$GPRMC,031113.8,A,3248.1424,N,11713.2032,W,38.20,256.80,211110,,*22
$GPRMC,031116.8,A,3248.1356,N,11713.2396,W,37.60,256.50,211110,,*2E
$GPRMC,031119.8,A,3248.1285,N,11713.2754,W,37.10,257.20,211110,,*25
$GPRMC,031122.8,A,3248.1214,N,11713.3113,W,37.00,257.70,211110,,*25
$GPRMC,031125.8,A,3248.1140,N,11713.3486,W,39.20,256.90,211110,,*2A
$GPRMC,031128.8,A,3248.1061,N,11713.3878,W,40.20,256.00,211110,,*2F
$GPRMC,031131.8,A,3248.0976,N,11713.4260,W,40.20,255.70,211110,,*29
$GPRMC,031134.8,A,3248.0892,N,11713.4643,W,40.30,255.40,211110,,*20
$GPRMC,031137.8,A,3248.0805,N,11713.5016,W,38.70,254.50,211110,,*21
$GPRMC,031140.8,A,3248.0724,N,11713.5372,W,36.30,255.20,211110,,*20
$GPRMC,031143.8,A,3248.0652,N,11713.5693,W,33.00,255.20,211110,,*2F
$GPRMC,031146.8,A,3248.0582,N,11713.6010,W,32.40,255.20,211110,,*2F
$GPRMC,031149.8,A,3248.0518,N,11713.6308,W,30.00,255.40,211110,,*29
$GPRMC,031152.8,A,3248.0458,N,11713.6589,W,27.90,255.40,211110,,*26
$GPRMC,031155.8,A,3248.0407,N,11713.6856,W,27.80,256.80,211110,,*2A
$GPRMC,031158.8,A,3248.0348,N,11713.7126,W,28.80,255.60,211110,,*26
$GPRMC,031201.8,A,3248.0292,N,11713.7419,W,29.60,256.30,211110,,*2F
$GPRMC,031204.8,A,3248.0215,N,11713.7715,W,30.90,254.90,211110,,*25
$GPRMC,031207.8,A,3248.0157,N,11713.8004,W,31.30,255.50,211110,,*2D
$GPRMC,031210.8,A,3248.0094,N,11713.8316,W,31.20,254.90,211110,,*29
$GPRMC,031213.8,A,3248.0026,N,11713.8612,W,30.50,256.00,211110,,*2F
$GPRMC,031216.8,A,3247.9962,N,11713.8904,W,30.60,256.00,211110,,*2E
$GPRMC,031219.8,A,3247.9897,N,11713.9213,W,31.10,255.70,211110,,*24
$GPRMC,031222.8,A,3247.9817,N,11713.9501,W,30.70,255.00,211110,,*20
$GPRMC,031225.8,A,3247.9771,N,11713.9768,W,27.70,257.30,211110,,*22
$GPRMC,031228.8,A,3247.9728,N,11713.9986,W,24.20,261.60,211110,,*2B
$GPRMC,031231.8,A,3247.9708,N,11714.0210,W,22.30,265.50,211110,,*2B
$GPRMC,031234.8,A,3247.9697,N,11714.0388,W,15.70,262.50,211110,,*2E
$GPRMC,031237.8,A,3247.9680,N,11714.0513,W,8.50,257.60,211110,,*14
$GPRMC,031240.8,A,3247.9673,N,11714.0575,W,5.10,264.10,211110,,*16
$GPRMC,031243.8,A,3247.9671,N,11714.0588,W,4.50,266.90,211110,,*1A
$GPRMC,031249.8,A,3247.9630,N,11714.0662,W,10.20,248.80,211110,,*2D
$GPRMC,031252.8,A,3247.9581,N,11714.0780,W,14.60,247.80,211110,,*2C
$GPRMC,031255.8,A,3247.9538,N,11714.0909,W,12.10,245.90,211110,,*24
$GPRMC,031258.8,A,3247.9507,N,11714.0988,W,7.70,240.80,211110,,*1A
$GPRMC,031301.8,A,3247.9474,N,11714.1114,W,16.40,256.10,211110,,*23
$GPRMC,031304.8,A,3247.9422,N,11714.1332,W,22.20,252.80,211110,,*2F
$GPRMC,031307.8,A,3247.9361,N,11714.1590,W,26.80,254.40,211110,,*26
$GPRMC,031310.8,A,3247.9305,N,11714.1856,W,27.70,255.50,211110,,*2B
$GPRMC,031313.8,A,3247.9247,N,11714.2120,W,25.60,255.50,211110,,*27
$GPRMC,031316.8,A,3247.9196,N,11714.2355,W,23.50,255.20,211110,,*2F
$GPRMC,031319.8,A,3247.9150,N,11714.2568,W,22.60,255.40,211110,,*26
$GPRMC,031322.8,A,3247.9111,N,11714.2777,W,21.10,256.10,211110,,*25
$GPRMC,031325.8,A,3247.9060,N,11714.2990,W,23.20,255.50,211110,,*24
$GPRMC,031328.8,A,3247.9000,N,11714.3239,W,26.60,253.50,211110,,*21
$GPRMC,031331.8,A,3247.8953,N,11714.3492,W,25.20,254.80,211110,,*2D
$GPRMC,031334.8,A,3247.8897,N,11714.3751,W,27.50,257.70,211110,,*24
$GPRMC,031337.8,A,3247.8857,N,11714.3993,W,22.20,260.00,211110,,*2A
$GPRMC,031340.8,A,3247.8833,N,11714.4120,W,11.90,266.90,211110,,*2B
$GPRMC,031343.8,A,3247.8893,N,11714.4198,W,11.50,326.80,211110,,*29
$GPRMC,031346.8,A,3247.9043,N,11714.4243,W,19.30,340.00,211110,,*2B
$GPRMC,031349.8,A,3247.9244,N,11714.4319,W,24.60,342.00,211110,,*26
$GPRMC,031352.8,A,3247.9441,N,11714.4383,W,22.30,344.90,211110,,*20
$GPRMC,031355.8,A,3247.9605,N,11714.4418,W,19.10,348.10,211110,,*2E
$GPRMC,031358.8,A,3247.9715,N,11714.4449,W,13.60,347.70,211110,,*23
$GPRMC,031401.8,A,3247.9756,N,11714.4464,W,4.70,344.70,211110,,*14
$GPRMC,031516.8,A,3247.9883,N,11714.4494,W,6.10,327.50,211110,,*18
$GPRMC,031519.8,A,3248.0016,N,11714.4538,W,13.90,333.50,211110,,*2B
$GPRMC,031522.8,A,3248.0175,N,11714.4579,W,15.30,343.90,211110,,*25
$GPRMC,031525.8,A,3248.0293,N,11714.4619,W,12.50,342.60,211110,,*23
$GPRMC,031534.8,A,3248.0420,N,11714.4656,W,5.20,342.10,211110,,*10
$GPRMC,031537.8,A,3248.0468,N,11714.4678,W,7.50,339.90,211110,,*12
$GPRMC,031540.8,A,3248.0546,N,11714.4702,W,10.00,348.80,211110,,*27
$GPRMC,031543.8,A,3248.0716,N,11714.4771,W,18.40,341.30,211110,,*29
$GPRMC,031546.8,A,3248.0932,N,11714.4845,W,22.80,344.40,211110,,*2B
$GPRMC,031549.8,A,3248.1124,N,11714.4901,W,23.90,345.80,211110,,*26
$GPRMC,031552.8,A,3248.1321,N,11714.4950,W,21.70,346.10,211110,,*29
$GPRMC,031555.8,A,3248.1469,N,11714.4983,W,15.00,354.70,211110,,*2E
$GPRMC,031604.8,A,3248.1589,N,11714.5035,W,11.40,345.40,211110,,*20
$GPRMC,031607.8,A,3248.1711,N,11714.5067,W,16.40,347.10,211110,,*27
$GPRMC,031610.8,A,3248.1869,N,11714.5109,W,19.80,345.20,211110,,*2A
$GPRMC,031613.8,A,3248.2080,N,11714.5167,W,23.80,345.20,211110,,*24
$GPRMC,031616.8,A,3248.2272,N,11714.5231,W,24.20,344.20,211110,,*22
$GPRMC,031619.8,A,3248.2469,N,11714.5291,W,24.00,345.50,211110,,*2F
