NMEA Sentence Code,UTC Time,Status,Latitude,Latitude Direction,Longitude,Longitude Direction,Speed (knots),Track Angle (degrees true),Date,MagneticVariation,Magnetic Variation Direction,[FAA Mode]-Optional,Checksum
$GPRMC,011900.2,A,3344.077166,N,11749.029741,W,37.8,124.0,230110,,,A*4F
$GPRMC,011903.2,A,3344.059906,N,11749.000923,W,33.8,128.2,230110,,,A*45
$GPRMC,011906.2,A,3344.044193,N,11748.977401,W,28.0,130.3,230110,,,A*47
$GPRMC,011909.2,A,3344.030139,N,11748.958707,W,22.8,132.2,230110,,,A*42
$GPRMC,011912.2,A,3344.018093,N,11748.943281,W,20.6,132.8,230110,,,A*44
$GPRMC,011916.2,A,3344.002120,N,11748.922007,W,23.2,133.1,230110,,,A*46
$GPRMC,011919.2,A,3343.987653,N,11748.903294,W,28.0,132.3,230110,,,A*48
$GPRMC,011922.2,A,3343.971301,N,11748.880568,W,30.8,129.1,230110,,,A*4C
$GPRMC,011925.2,A,3343.952876,N,11748.852967,W,39.4,127.2,230110,,,A*45
$GPRMC,011928.2,A,3343.930537,N,11748.819552,W,44.3,128.2,230110,,,A*43
$GPRMC,011931.2,A,3343.905896,N,11748.784037,W,45.7,129.1,230110,,,A*41
$GPRMC,011934.9,A,3343.875888,N,11748.740704,W,46.0,129.1,230110,,,A*4D
$GPRMC,011937.9,A,3343.851577,N,11748.703854,W,47.7,128.4,230110,,,A*4A
$GPRMC,011940.9,A,3343.823854,N,11748.666752,W,48.8,132.3,230110,,,A*44
$GPRMC,011943.9,A,3343.799366,N,11748.631136,W,47.0,129.7,230110,,,A*4C
$GPRMC,011946.9,A,3343.772476,N,11748.594838,W,47.9,131.4,230110,,,A*42
$GPRMC,011949.9,A,3343.750070,N,11748.558881,W,46.1,129.6,230110,,,A*4F
$GPRMC,011952.9,A,3343.725451,N,11748.523072,W,46.7,129.2,230110,,,A*4A
$GPRMC,011955.9,A,3343.702750,N,11748.489796,W,42.5,129.7,230110,,,A*45
$GPRMC,011958.9,A,3343.680078,N,11748.456855,W,41.5,130.4,230110,,,A*44
$GPRMC,012001.9,A,3343.658506,N,11748.424974,W,42.1,129.2,230110,,,A*45
$GPRMC,012004.9,A,3343.635156,N,11748.392666,W,42.8,129.0,230110,,,A*47
$GPRMC,012007.9,A,3343.610840,N,11748.357749,W,45.5,129.1,230110,,,A*43
$GPRMC,012010.9,A,3343.586612,N,11748.320310,W,47.8,128.4,230110,,,A*43
$GPRMC,012013.9,A,3343.559324,N,11748.280541,W,51.4,129.3,230110,,,A*46
$GPRMC,012016.9,A,3343.533110,N,11748.239102,W,52.6,127.5,230110,,,A*42
$GPRMC,012019.9,A,3343.504111,N,11748.197974,W,52.5,129.2,230110,,,A*4C
$GPRMC,012022.9,A,3343.477792,N,11748.158221,W,50.2,128.0,230110,,,A*42
$GPRMC,012025.9,A,3343.453682,N,11748.120772,W,48.4,128.2,230110,,,A*42
$GPRMC,012028.9,A,3343.427269,N,11748.083371,W,48.6,129.4,230110,,,A*47
$GPRMC,012031.9,A,3343.400974,N,11748.045136,W,50.0,129.2,230110,,,A*4F
$GPRMC,012034.9,A,3343.374654,N,11748.006320,W,50.2,129.7,230110,,,A*46
$GPRMC,012037.9,A,3343.348428,N,11747.966497,W,50.0,129.0,230110,,,A*4D
$GPRMC,012040.9,A,3343.321479,N,11747.930159,W,47.5,130.0,230110,,,A*49
$GPRMC,012043.9,A,3343.297637,N,11747.898042,W,44.1,131.5,230110,,,A*45
$GPRMC,012046.9,A,3343.274942,N,11747.863128,W,44.5,129.3,230110,,,A*42
$GPRMC,012049.9,A,3343.251825,N,11747.829189,W,44.0,130.1,230110,,,A*40
$GPRMC,012052.9,A,3343.228619,N,11747.793880,W,45.3,129.9,230110,,,A*49
$GPRMC,012055.9,A,3343.203698,N,11747.759574,W,46.4,129.7,230110,,,A*44
$GPRMC,012058.9,A,3343.178523,N,11747.724379,W,46.3,130.2,230110,,,A*4E
$GPRMC,012101.9,A,3343.152289,N,11747.686271,W,48.1,129.5,230110,,,A*4F
$GPRMC,012104.2,A,3343.133137,N,11747.658367,W,46.4,129.9,230110,,,A*42
$GPRMC,012107.2,A,3343.108496,N,11747.622927,W,46.8,129.9,230110,,,A*48
$GPRMC,012110.0,A,3343.085039,N,11747.589335,W,47.6,129.7,230110,,,A*43
$GPRMC,012113.9,A,3343.050367,N,11747.540938,W,49.1,130.1,230110,,,A*4C
$GPRMC,012116.9,A,3343.023517,N,11747.503772,W,50.0,129.4,230110,,,A*4F
$GPRMC,012119.9,A,3342.995458,N,11747.463293,W,50.9,130.4,230110,,,A*43
$GPRMC,012122.9,A,3342.970770,N,11747.425903,W,49.4,129.2,230110,,,A*42
$GPRMC,012125.9,A,3342.943271,N,11747.386737,W,51.8,130.2,230110,,,A*4B
$GPRMC,012128.9,A,3342.913214,N,11747.347352,W,53.5,132.1,230110,,,A*44
$GPRMC,012131.9,A,3342.886889,N,11747.305386,W,53.1,129.1,230110,,,A*4E
$GPRMC,012134.9,A,3342.857642,N,11747.261854,W,55.5,130.3,230110,,,A*41
$GPRMC,012137.9,A,3342.825888,N,11747.222157,W,55.8,131.8,230110,,,A*45
$GPRMC,012140.9,A,3342.796470,N,11747.180293,W,55.1,130.4,230110,,,A*4D
$GPRMC,012143.9,A,3342.764473,N,11747.138348,W,57.5,132.3,230110,,,A*47
$GPRMC,012146.9,A,3342.732196,N,11747.097048,W,56.6,133.9,230110,,,A*41
$GPRMC,012149.9,A,3342.699537,N,11747.057333,W,54.7,135.5,230110,,,A*4B
$GPRMC,012152.9,A,3342.669994,N,11747.022401,W,48.5,136.6,230110,,,A*40
$GPRMC,012155.9,A,3342.643023,N,11746.992238,W,46.4,138.3,230110,,,A*41
$GPRMC,012158.9,A,3342.614248,N,11746.960584,W,46.3,139.4,230110,,,A*4D
$GPRMC,012201.9,A,3342.584734,N,11746.930991,W,45.3,141.1,230110,,,A*42
$GPRMC,012204.9,A,3342.556345,N,11746.902516,W,45.0,140.9,230110,,,A*42
$GPRMC,012207.9,A,3342.525883,N,11746.874209,W,46.5,143.2,230110,,,A*43
$GPRMC,012210.9,A,3342.492985,N,11746.846085,W,48.4,145.1,230110,,,A*42
$GPRMC,012213.9,A,3342.457404,N,11746.818186,W,50.8,146.3,230110,,,A*41
$GPRMC,012216.9,A,3342.420817,N,11746.786658,W,52.5,146.2,230110,,,A*48
$GPRMC,012219.9,A,3342.382558,N,11746.758865,W,54.2,147.8,230110,,,A*47
$GPRMC,012222.9,A,3342.340022,N,11746.731593,W,56.4,149.4,230110,,,A*44
$GPRMC,012225.9,A,3342.300227,N,11746.703993,W,55.4,151.0,230110,,,A*43
$GPRMC,012228.9,A,3342.261123,N,11746.677495,W,54.7,150.7,230110,,,A*42
$GPRMC,012231.9,A,3342.219039,N,11746.652242,W,55.5,151.7,230110,,,A*46
$GPRMC,012234.9,A,3342.177839,N,11746.625505,W,54.8,151.1,230110,,,A*4E
$GPRMC,012237.9,A,3342.137956,N,11746.599174,W,56.1,151.3,230110,,,A*4E
$GPRMC,012240.9,A,3342.097206,N,11746.571370,W,57.4,152.0,230110,,,A*4F
$GPRMC,012243.9,A,3342.053409,N,11746.541830,W,59.3,150.9,230110,,,A*43
$GPRMC,012247.2,A,3342.005794,N,11746.510348,W,58.7,150.7,230110,,,A*43
$GPRMC,012250.9,A,3341.952313,N,11746.476310,W,59.0,152.7,230110,,,A*45
$GPRMC,012253.9,A,3341.911344,N,11746.449306,W,57.0,151.2,230110,,,A*40
$GPRMC,012256.9,A,3341.869751,N,11746.422490,W,55.3,151.5,230110,,,A*48
$GPRMC,012259.9,A,3341.833131,N,11746.399535,W,51.1,152.1,230110,,,A*40
$GPRMC,012302.9,A,3341.795438,N,11746.375057,W,51.7,151.0,230110,,,A*47
$GPRMC,012305.9,A,3341.756388,N,11746.351183,W,52.2,151.9,230110,,,A*42
$GPRMC,012308.9,A,3341.719700,N,11746.326159,W,50.7,151.6,230110,,,A*4F
$GPRMC,012311.9,A,3341.684048,N,11746.303237,W,47.0,152.6,230110,,,A*47
$GPRMC,012314.9,A,3341.656178,N,11746.281462,W,41.0,150.8,230110,,,A*48
$GPRMC,012317.9,A,3341.625241,N,11746.263270,W,41.8,152.3,230110,,,A*4E
$GPRMC,012320.9,A,3341.594923,N,11746.242845,W,41.6,151.0,230110,,,A*4D
$GPRMC,012323.9,A,3341.564699,N,11746.221652,W,41.5,150.8,230110,,,A*48
$GPRMC,012326.9,A,3341.534439,N,11746.201480,W,41.9,150.4,230110,,,A*4F
$GPRMC,012329.9,A,3341.502468,N,11746.180738,W,43.2,151.6,230110,,,A*41
$GPRMC,012332.9,A,3341.468985,N,11746.159971,W,45.4,151.3,230110,,,A*4A
$GPRMC,012335.9,A,3341.433415,N,11746.136706,W,47.6,151.7,230110,,,A*44
$GPRMC,012338.9,A,3341.397377,N,11746.116077,W,47.6,152.0,230110,,,A*44
$GPRMC,012341.2,A,3341.371319,N,11746.097507,W,47.8,150.0,230110,,,A*47
$GPRMC,012344.9,A,3341.328044,N,11746.068801,W,49.2,151.7,230110,,,A*47
$GPRMC,012347.9,A,3341.291646,N,11746.045063,W,50.1,151.9,230110,,,A*45
$GPRMC,012350.9,A,3341.251916,N,11746.020784,W,51.9,152.3,230110,,,A*48
$GPRMC,012353.9,A,3341.215903,N,11745.996610,W,50.4,152.1,230110,,,A*4A
$GPRMC,012356.9,A,3341.179492,N,11745.971935,W,51.3,151.4,230110,,,A*42
$GPRMC,012359.9,A,3341.142074,N,11745.945993,W,51.7,150.9,230110,,,A*4A
$GPRMC,012402.9,A,3341.103466,N,11745.919993,W,52.3,151.4,230110,,,A*43
$GPRMC,012405.9,A,3341.063571,N,11745.895799,W,52.1,151.7,230110,,,A*44
$GPRMC,012408.9,A,3341.027335,N,11745.874481,W,48.8,153.4,230110,,,A*49
$GPRMC,012411.9,A,3340.992775,N,11745.850053,W,47.9,149.2,230110,,,A*49
$GPRMC,012414.9,A,3340.962476,N,11745.822143,W,46.6,145.0,230110,,,A*46
$GPRMC,012417.9,A,3340.931943,N,11745.797055,W,44.8,144.8,230110,,,A*4A
$GPRMC,012420.9,A,3340.902352,N,11745.768681,W,44.8,141.4,230110,,,A*42
$GPRMC,012423.9,A,3340.875430,N,11745.737965,W,45.1,136.1,230110,,,A*41
$GPRMC,012426.9,A,3340.849724,N,11745.706931,W,45.6,135.7,230110,,,A*4C
$GPRMC,012429.9,A,3340.820626,N,11745.674921,W,46.4,137.6,230110,,,A*48
$GPRMC,012433.2,A,3340.790810,N,11745.641386,W,42.9,137.3,230110,,,A*4A
$GPRMC,012436.2,A,3340.764951,N,11745.611462,W,43.7,136.3,230110,,,A*46
$GPRMC,012439.2,A,3340.738686,N,11745.581111,W,43.3,136.2,230110,,,A*4B
$GPRMC,012442.2,A,3340.712809,N,11745.551777,W,41.5,136.4,230110,,,A*4F
$GPRMC,012445.2,A,3340.687427,N,11745.523443,W,42.8,137.5,230110,,,A*4A
$GPRMC,012448.9,A,3340.653399,N,11745.487315,W,45.3,138.9,230110,,,A*43
$GPRMC,012451.9,A,3340.618076,N,11745.459345,W,50.5,145.2,230110,,,A*43
$GPRMC,012454.9,A,3340.583755,N,11745.433526,W,49.7,148.3,230110,,,A*48
$GPRMC,012457.9,A,3340.547152,N,11745.408861,W,49.9,152.7,230110,,,A*45
$GPRMC,012500.9,A,3340.507745,N,11745.389409,W,51.0,159.6,230110,,,A*44
$GPRMC,012503.9,A,3340.466050,N,11745.374200,W,52.4,162.9,230110,,,A*4F
$GPRMC,012506.2,A,3340.435449,N,11745.364377,W,50.0,166.2,230110,,,A*42
$GPRMC,012509.9,A,3340.382103,N,11745.354780,W,52.5,171.9,230110,,,A*43
$GPRMC,012512.9,A,3340.337457,N,11745.346484,W,53.8,170.5,230110,,,A*46
$GPRMC,012515.9,A,3340.295051,N,11745.337861,W,52.3,169.6,230110,,,A*4A
$GPRMC,012518.9,A,3340.250746,N,11745.325524,W,54.3,167.4,230110,,,A*4A
$GPRMC,012521.9,A,3340.208913,N,11745.309523,W,52.7,162.7,230110,,,A*4E
$GPRMC,012524.9,A,3340.170102,N,11745.290010,W,52.1,157.5,230110,,,A*49
$GPRMC,012527.9,A,3340.130754,N,11745.267512,W,51.6,154.3,230110,,,A*45
$GPRMC,012530.9,A,3340.093751,N,11745.241830,W,50.4,148.9,230110,,,A*43
$GPRMC,012533.9,A,3340.061888,N,11745.213473,W,47.6,146.9,230110,,,A*40
$GPRMC,012536.2,A,3340.035809,N,11745.194745,W,46.4,146.0,230110,,,A*46
$GPRMC,012539.9,A,3339.994974,N,11745.165515,W,46.6,149.0,230110,,,A*41
$GPRMC,012542.9,A,3339.963358,N,11745.138815,W,46.5,146.4,230110,,,A*4C
$GPRMC,012545.9,A,3339.932125,N,11745.112151,W,47.2,145.5,230110,,,A*42
$GPRMC,012548.9,A,3339.898829,N,11745.087299,W,47.4,147.1,230110,,,A*41
$GPRMC,012551.9,A,3339.863864,N,11745.060209,W,49.7,147.1,230110,,,A*49
$GPRMC,012554.9,A,3339.827437,N,11745.032504,W,50.1,147.1,230110,,,A*45
$GPRMC,012557.9,A,3339.793451,N,11745.005409,W,49.3,147.6,230110,,,A*43
$GPRMC,012600.9,A,3339.759700,N,11744.980194,W,49.3,147.3,230110,,,A*42
$GPRMC,012603.9,A,3339.722816,N,11744.950678,W,51.9,146.2,230110,,,A*4E
$GPRMC,012606.9,A,3339.685751,N,11744.924377,W,53.0,147.5,230110,,,A*4F
$GPRMC,012609.9,A,3339.648062,N,11744.895243,W,53.5,146.6,230110,,,A*4C
$GPRMC,012612.2,A,3339.619854,N,11744.870690,W,52.5,144.3,230110,,,A*43
$GPRMC,012615.9,A,3339.571878,N,11744.832174,W,56.5,146.3,230110,,,A*41
$GPRMC,012618.9,A,3339.531617,N,11744.799949,W,57.3,146.7,230110,,,A*44
$GPRMC,012621.9,A,3339.493216,N,11744.768856,W,54.9,146.3,230110,,,A*4E
$GPRMC,012624.9,A,3339.456978,N,11744.743127,W,50.8,147.9,230110,,,A*49
$GPRMC,012627.9,A,3339.423432,N,11744.713328,W,49.3,143.5,230110,,,A*48
$GPRMC,012630.9,A,3339.392027,N,11744.687858,W,47.7,145.7,230110,,,A*4D
$GPRMC,012633.9,A,3339.357224,N,11744.659243,W,49.0,145.9,230110,,,A*42
$GPRMC,012637.2,A,3339.320380,N,11744.628208,W,49.7,146.3,230110,,,A*45
$GPRMC,012640.9,A,3339.278026,N,11744.594761,W,49.2,149.0,230110,,,A*4A
$GPRMC,012643.9,A,3339.240723,N,11744.563998,W,52.9,147.0,230110,,,A*4F
$GPRMC,012646.9,A,3339.204222,N,11744.533817,W,53.1,146.8,230110,,,A*4D
$GPRMC,012649.9,A,3339.166545,N,11744.506670,W,52.1,148.1,230110,,,A*4C
$GPRMC,012652.9,A,3339.129303,N,11744.473188,W,53.1,145.3,230110,,,A*44
$GPRMC,012655.9,A,3339.092805,N,11744.444056,W,53.3,146.6,230110,,,A*4D
$GPRMC,012658.9,A,3339.058092,N,11744.418729,W,50.0,147.1,230110,,,A*40
$GPRMC,012701.9,A,3339.020716,N,11744.390045,W,51.9,146.7,230110,,,A*4C
$GPRMC,012704.9,A,3338.986525,N,11744.361282,W,51.4,146.0,230110,,,A*42
$GPRMC,012707.9,A,3338.952900,N,11744.335274,W,49.4,145.7,230110,,,A*46
$GPRMC,012710.9,A,3338.917425,N,11744.306467,W,50.4,146.3,230110,,,A*40
$GPRMC,012713.9,A,3338.879706,N,11744.274636,W,52.6,146.6,230110,,,A*4F
$GPRMC,012716.9,A,3338.843223,N,11744.251096,W,52.2,148.3,230110,,,A*45
$GPRMC,012719.9,A,3338.806763,N,11744.218996,W,53.4,146.0,230110,,,A*44
$GPRMC,012722.9,A,3338.769424,N,11744.185075,W,54.7,144.8,230110,,,A*47
$GPRMC,012725.9,A,3338.734293,N,11744.160902,W,52.8,147.0,230110,,,A*42
$GPRMC,012728.9,A,3338.696885,N,11744.130280,W,52.2,146.8,230110,,,A*4C
$GPRMC,012731.2,A,3338.669092,N,11744.108871,W,49.2,145.9,230110,,,A*46
$GPRMC,012734.9,A,3338.629682,N,11744.076897,W,46.6,146.7,230110,,,A*4D
$GPRMC,012737.9,A,3338.598607,N,11744.051367,W,46.2,146.6,230110,,,A*4E
$GPRMC,012740.9,A,3338.565868,N,11744.026117,W,47.0,147.1,230110,,,A*4B
$GPRMC,012743.9,A,3338.531524,N,11744.001213,W,47.7,147.8,230110,,,A*40
$GPRMC,012746.9,A,3338.498666,N,11743.975568,W,47.3,147.3,230110,,,A*4B
$GPRMC,012749.9,A,3338.464867,N,11743.948371,W,46.8,146.1,230110,,,A*41
$GPRMC,012752.9,A,3338.432265,N,11743.924922,W,46.1,147.7,230110,,,A*48
$GPRMC,012755.9,A,3338.401513,N,11743.901960,W,44.8,146.8,230110,,,A*4D
$GPRMC,012758.9,A,3338.368676,N,11743.873938,W,46.8,146.1,230110,,,A*4A
$GPRMC,012801.9,A,3338.337149,N,11743.849272,W,45.7,146.0,230110,,,A*49
$GPRMC,012804.2,A,3338.311897,N,11743.828720,W,47.4,146.1,230110,,,A*4C
$GPRMC,012807.9,A,3338.272063,N,11743.796915,W,46.0,146.9,230110,,,A*4C
$GPRMC,012810.9,A,3338.239218,N,11743.773041,W,46.2,147.7,230110,,,A*45
$GPRMC,012813.9,A,3338.204568,N,11743.746780,W,48.1,146.5,230110,,,A*4A
$GPRMC,012816.9,A,3338.172037,N,11743.717736,W,48.3,145.2,230110,,,A*4D
$GPRMC,012819.9,A,3338.140170,N,11743.689409,W,47.6,145.5,230110,,,A*45
$GPRMC,012822.9,A,3338.107836,N,11743.665398,W,45.5,146.0,230110,,,A*4F
$GPRMC,012825.9,A,3338.075505,N,11743.641112,W,45.7,146.6,230110,,,A*43
$GPRMC,012828.9,A,3338.045731,N,11743.616142,W,43.7,145.5,230110,,,A*49
$GPRMC,012831.9,A,3338.016556,N,11743.588031,W,44.6,143.0,230110,,,A*40
$GPRMC,012834.9,A,3337.987768,N,11743.559087,W,45.2,139.6,230110,,,A*4B
$GPRMC,012837.9,A,3337.957433,N,11743.529334,W,46.4,139.5,230110,,,A*42
$GPRMC,012840.9,A,3337.929627,N,11743.498824,W,44.8,136.8,230110,,,A*41
$GPRMC,012843.9,A,3337.903800,N,11743.467038,W,45.0,135.5,230110,,,A*43
$GPRMC,012846.9,A,3337.875871,N,11743.432761,W,47.1,136.2,230110,,,A*4C
$GPRMC,012849.9,A,3337.848456,N,11743.399916,W,45.7,135.4,230110,,,A*4D
$GPRMC,012852.9,A,3337.820205,N,11743.367103,W,47.7,135.4,230110,,,A*46
$GPRMC,012855.9,A,3337.791956,N,11743.335813,W,47.5,136.7,230110,,,A*44
$GPRMC,012858.9,A,3337.759133,N,11743.303315,W,49.0,141.0,230110,,,A*42
$GPRMC,012901.9,A,3337.727256,N,11743.273005,W,49.4,142.0,230110,,,A*45
$GPRMC,012904.9,A,3337.695983,N,11743.242434,W,49.5,141.2,230110,,,A*4F
$GPRMC,012907.2,A,3337.669108,N,11743.215883,W,52.7,140.6,230110,,,A*40
$GPRMC,012910.9,A,3337.626117,N,11743.176070,W,54.3,143.5,230110,,,A*48
$GPRMC,012913.9,A,3337.590839,N,11743.142712,W,52.8,142.3,230110,,,A*4E
$GPRMC,012916.9,A,3337.557455,N,11743.112471,W,49.1,142.8,230110,,,A*4D
$GPRMC,012919.9,A,3337.527260,N,11743.085497,W,45.0,144.1,230110,,,A*40
$GPRMC,012922.9,A,3337.496813,N,11743.060893,W,43.7,145.3,230110,,,A*4C
$GPRMC,012925.9,A,3337.471586,N,11743.035198,W,41.4,142.4,230110,,,A*40
$GPRMC,012928.9,A,3337.444278,N,11743.010146,W,39.2,141.9,230110,,,A*4E
$GPRMC,012931.9,A,3337.424168,N,11742.987546,W,33.1,139.8,230110,,,A*47
$GPRMC,012934.9,A,3337.404525,N,11742.970211,W,29.1,141.7,230110,,,A*4B
$GPRMC,012937.9,A,3337.383695,N,11742.954367,W,29.2,145.6,230110,,,A*48
$GPRMC,012940.9,A,3337.363661,N,11742.936196,W,30.5,142.9,230110,,,A*42
$GPRMC,012943.9,A,3337.343319,N,11742.918057,W,31.1,143.3,230110,,,A*47
$GPRMC,012946.9,A,3337.320859,N,11742.897419,W,33.3,141.2,230110,,,A*43
$GPRMC,012949.9,A,3337.300872,N,11742.878693,W,31.1,142.4,230110,,,A*43
$GPRMC,012952.9,A,3337.281348,N,11742.859722,W,30.0,141.7,230110,,,A*4B
$GPRMC,012955.9,A,3337.264361,N,11742.841773,W,27.6,140.5,230110,,,A*42
$GPRMC,012958.9,A,3337.245804,N,11742.826066,W,24.6,143.9,230110,,,A*4A
$GPRMC,013001.9,A,3337.231580,N,11742.812930,W,20.6,144.7,230110,,,A*4C
$GPRMC,013004.9,A,3337.217606,N,11742.802304,W,19.1,147.6,230110,,,A*43
$GPRMC,013007.9,A,3337.206438,N,11742.792679,W,16.5,143.9,230110,,,A*46
$GPRMC,013010.9,A,3337.195230,N,11742.784480,W,14.8,147.3,230110,,,A*45
$GPRMC,013013.9,A,3337.191777,N,11742.776697,W,8.0,133.3,230110,,,A*7B
$GPRMC,013016.9,A,3337.186314,N,11742.774199,W,6.7,151.7,230110,,,A*7B
$GPRMC,013019.9,A,3337.183178,N,11742.771695,W,5.5,146.4,230110,,,A*73
$GPRMC,013022.9,A,3337.179455,N,11742.768938,W,5.7,145.9,230110,,,A*78
$GPRMC,013025.9,A,3337.174775,N,11742.764698,W,6.7,145.8,230110,,,A*78
$GPRMC,013028.9,A,3337.171098,N,11742.760451,W,7.9,133.5,230110,,,A*74
$GPRMC,013031.9,A,3337.165692,N,11742.753916,W,8.9,134.4,230110,,,A*72
$GPRMC,013034.9,A,3337.159452,N,11742.748917,W,11.3,138.3,230110,,,A*44
$GPRMC,013037.9,A,3337.147925,N,11742.740227,W,14.8,146.7,230110,,,A*46
$GPRMC,013040.9,A,3337.140070,N,11742.730600,W,12.6,139.8,230110,,,A*41
$GPRMC,013043.9,A,3337.132723,N,11742.722655,W,12.5,140.8,230110,,,A*48
$GPRMC,013046.9,A,3337.125481,N,11742.717469,W,9.8,150.6,230110,,,A*73
$GPRMC,013049.9,A,3337.120138,N,11742.714093,W,8.2,146.2,230110,,,A*74
$GPRMC,013052.9,A,3337.115860,N,11742.707073,W,7.8,134.9,230110,,,A*7B
$GPRMC,013055.9,A,3337.109472,N,11742.702777,W,9.6,141.1,230110,,,A*72
$GPRMC,013058.9,A,3337.101015,N,11742.695045,W,13.2,142.6,230110,,,A*40
$GPRMC,013101.9,A,3337.093533,N,11742.684341,W,14.6,136.8,230110,,,A*4F
$GPRMC,013104.9,A,3337.083022,N,11742.674333,W,14.0,143.1,230110,,,A*49
$GPRMC,013107.9,A,3337.073385,N,11742.666349,W,14.8,142.4,230110,,,A*49
$GPRMC,013110.9,A,3337.061092,N,11742.655476,W,18.7,141.0,230110,,,A*46
$GPRMC,013113.9,A,3337.046190,N,11742.646422,W,18.4,147.6,230110,,,A*43
$GPRMC,013116.9,A,3337.035138,N,11742.635650,W,19.0,141.7,230110,,,A*41
$GPRMC,013119.9,A,3337.021163,N,11742.622895,W,21.7,142.0,230110,,,A*4C
$GPRMC,013122.9,A,3337.008379,N,11742.608186,W,21.9,139.1,230110,,,A*46
$GPRMC,013125.9,A,3336.995188,N,11742.594795,W,21.8,142.2,230110,,,A*4D
$GPRMC,013128.9,A,3336.980098,N,11742.581549,W,22.0,142.3,230110,,,A*49
$GPRMC,013131.9,A,3336.967144,N,11742.569099,W,20.4,141.2,230110,,,A*42
$GPRMC,013134.9,A,3336.956161,N,11742.557206,W,19.6,137.5,230110,,,A*45
$GPRMC,013137.9,A,3336.941646,N,11742.542551,W,22.0,137.9,230110,,,A*41
$GPRMC,013140.9,A,3336.931918,N,11742.525384,W,21.1,131.2,230110,,,A*42
$GPRMC,013143.9,A,3336.919033,N,11742.511142,W,20.3,136.7,230110,,,A*45
$GPRMC,013146.9,A,3336.905894,N,11742.499337,W,18.8,136.8,230110,,,A*46
$GPRMC,013149.9,A,3336.896137,N,11742.483518,W,21.3,130.8,230110,,,A*45
$GPRMC,013152.9,A,3336.882107,N,11742.465610,W,27.6,133.2,230110,,,A*40
$GPRMC,013155.9,A,3336.863064,N,11742.443999,W,29.4,134.9,230110,,,A*46
$GPRMC,013158.9,A,3336.845396,N,11742.423352,W,27.8,137.4,230110,,,A*46
$GPRMC,013201.9,A,3336.827956,N,11742.407157,W,24.9,138.4,230110,,,A*47
$GPRMC,013204.9,A,3336.815821,N,11742.388586,W,25.7,131.7,230110,,,A*4F
$GPRMC,013207.9,A,3336.798754,N,11742.370054,W,26.2,136.1,230110,,,A*41
$GPRMC,013210.9,A,3336.782102,N,11742.350672,W,27.2,134.7,230110,,,A*4C
$GPRMC,013213.9,A,3336.766086,N,11742.329293,W,30.4,132.9,230110,,,A*45
$GPRMC,013216.9,A,3336.745901,N,11742.305455,W,32.7,135.3,230110,,,A*49
$GPRMC,013219.9,A,3336.726177,N,11742.282906,W,33.9,133.8,230110,,,A*4D
$GPRMC,013222.9,A,3336.706070,N,11742.258228,W,36.6,136.3,230110,,,A*45
$GPRMC,013225.9,A,3336.683696,N,11742.230677,W,38.3,134.3,230110,,,A*49
$GPRMC,013228.9,A,3336.658090,N,11742.204876,W,39.9,136.1,230110,,,A*41
$GPRMC,013231.9,A,3336.637942,N,11742.174760,W,38.4,132.6,230110,,,A*45
$GPRMC,013234.9,A,3336.617423,N,11742.149238,W,35.7,132.5,230110,,,A*43
$GPRMC,013237.9,A,3336.603865,N,11742.119038,W,34.8,125.9,230110,,,A*48
$GPRMC,013240.9,A,3336.583923,N,11742.090655,W,38.4,124.9,230110,,,A*4C
$GPRMC,013243.9,A,3336.566680,N,11742.057939,W,39.7,121.6,230110,,,A*44
$GPRMC,013246.9,A,3336.550770,N,11742.023352,W,39.7,120.3,230110,,,A*4A
$GPRMC,013249.9,A,3336.534486,N,11741.988971,W,40.9,119.3,230110,,,A*47
$GPRMC,013252.9,A,3336.515627,N,11741.950930,W,44.7,119.0,230110,,,A*4E
$GPRMC,013255.9,A,3336.500200,N,11741.908325,W,45.2,115.9,230110,,,A*4E
$GPRMC,013258.9,A,3336.481993,N,11741.873796,W,41.0,119.2,230110,,,A*4A
$GPRMC,013301.9,A,3336.469335,N,11741.833947,W,43.3,113.5,230110,,,A*4D
$GPRMC,013304.9,A,3336.451001,N,11741.795776,W,41.5,118.2,230110,,,A*40
$GPRMC,013307.9,A,3336.437060,N,11741.762249,W,38.2,118.3,230110,,,A*4D
$GPRMC,013310.9,A,3336.422424,N,11741.727943,W,39.1,117.5,230110,,,A*40
$GPRMC,013313.9,A,3336.409401,N,11741.691876,W,39.1,116.3,230110,,,A*41
$GPRMC,013316.9,A,3336.396620,N,11741.660678,W,35.5,117.8,230110,,,A*48
$GPRMC,013319.9,A,3336.377356,N,11741.630239,W,36.3,123.3,230110,,,A*41
$GPRMC,013322.9,A,3336.358698,N,11741.601905,W,36.1,125.2,230110,,,A*40
$GPRMC,013325.9,A,3336.346899,N,11741.570276,W,36.0,120.7,230110,,,A*4C
$GPRMC,013328.9,A,3336.327695,N,11741.540070,W,37.4,126.0,230110,,,A*47
$GPRMC,013331.9,A,3336.311872,N,11741.507908,W,37.4,122.2,230110,,,A*4E
$GPRMC,013334.2,A,3336.296570,N,11741.485228,W,37.7,126.7,230110,,,A*41
$GPRMC,013337.2,A,3336.278149,N,11741.457058,W,34.2,127.7,230110,,,A*41
$GPRMC,013340.0,A,3336.262029,N,11741.432843,W,34.3,128.8,230110,,,A*4F
$GPRMC,013343.2,A,3336.241160,N,11741.404045,W,36.5,130.3,230110,,,A*4E
$GPRMC,013346.9,A,3336.218439,N,11741.365934,W,39.5,129.0,230110,,,A*4E
$GPRMC,013349.9,A,3336.196421,N,11741.335588,W,40.8,129.8,230110,,,A*48
$GPRMC,013352.9,A,3336.176499,N,11741.302116,W,41.0,125.6,230110,,,A*43
$GPRMC,013355.9,A,3336.154317,N,11741.269001,W,40.1,125.7,230110,,,A*4F
$GPRMC,013358.9,A,3336.138909,N,11741.234910,W,38.0,121.0,230110,,,A*41
$GPRMC,013401.9,A,3336.125853,N,11741.204043,W,34.9,118.5,230110,,,A*4E
$GPRMC,013404.9,A,3336.115767,N,11741.173499,W,31.3,115.0,230110,,,A*47
$GPRMC,013407.9,A,3336.103239,N,11741.147944,W,30.0,118.5,230110,,,A*4D
$GPRMC,013410.9,A,3336.093441,N,11741.123150,W,26.7,116.6,230110,,,A*48
$GPRMC,013413.9,A,3336.085576,N,11741.098332,W,27.6,114.8,230110,,,A*42
$GPRMC,013416.9,A,3336.075363,N,11741.070601,W,30.8,113.3,230110,,,A*4D
$GPRMC,013419.9,A,3336.064477,N,11741.042010,W,31.2,116.3,230110,,,A*49
$GPRMC,013422.9,A,3336.054554,N,11741.015338,W,28.8,116.4,230110,,,A*4C
$GPRMC,013425.9,A,3336.042684,N,11740.989965,W,28.2,117.7,230110,,,A*45
$GPRMC,013428.9,A,3336.033245,N,11740.965383,W,26.5,115.7,230110,,,A*4C
$GPRMC,013431.9,A,3336.023703,N,11740.944357,W,24.8,116.4,230110,,,A*47
$GPRMC,013434.9,A,3336.016448,N,11740.919740,W,26.3,113.1,230110,,,A*4B
$GPRMC,013437.9,A,3336.007076,N,11740.894876,W,26.7,115.0,230110,,,A*4C
$GPRMC,013440.9,A,3335.999038,N,11740.868633,W,28.3,111.8,230110,,,A*41
$GPRMC,013443.9,A,3335.986391,N,11740.842922,W,30.2,117.3,230110,,,A*4E
$GPRMC,013446.9,A,3335.973347,N,11740.813525,W,33.7,117.7,230110,,,A*47
$GPRMC,013449.9,A,3335.962640,N,11740.782459,W,34.0,115.5,230110,,,A*47
$GPRMC,013452.9,A,3335.950725,N,11740.753474,W,32.4,114.8,230110,,,A*43
$GPRMC,013455.9,A,3335.940264,N,11740.725810,W,30.1,114.1,230110,,,A*44
$GPRMC,013458.9,A,3335.931630,N,11740.701114,W,26.1,114.1,230110,,,A*46
$GPRMC,013501.9,A,3335.918380,N,11740.677260,W,28.1,120.4,230110,,,A*42
$GPRMC,013504.9,A,3335.905446,N,11740.654879,W,27.2,122.0,230110,,,A*4F
$GPRMC,013507.9,A,3335.891161,N,11740.630980,W,29.8,124.9,230110,,,A*4E
$GPRMC,013510.9,A,3335.876610,N,11740.605713,W,29.0,126.3,230110,,,A*42
$GPRMC,013513.9,A,3335.860872,N,11740.586667,W,26.6,133.6,230110,,,A*4E
$GPRMC,013516.9,A,3335.848028,N,11740.566378,W,25.9,129.7,230110,,,A*45
$GPRMC,013519.9,A,3335.834694,N,11740.548540,W,23.3,131.9,230110,,,A*4A
$GPRMC,013522.9,A,3335.824185,N,11740.532408,W,21.3,132.5,230110,,,A*49
$GPRMC,013525.9,A,3335.810440,N,11740.516728,W,22.6,134.8,230110,,,A*4F
$GPRMC,013528.9,A,3335.794507,N,11740.502284,W,23.7,139.8,230110,,,A*48
$GPRMC,013531.9,A,3335.781938,N,11740.487362,W,20.3,135.4,230110,,,A*46
$GPRMC,013534.9,A,3335.767655,N,11740.472624,W,22.7,137.7,230110,,,A*45
$GPRMC,013537.9,A,3335.752316,N,11740.455668,W,25.8,138.4,230110,,,A*4B
$GPRMC,013540.9,A,3335.736777,N,11740.440947,W,23.3,141.6,230110,,,A*4D
$GPRMC,013543.9,A,3335.718389,N,11740.427921,W,24.6,145.8,230110,,,A*4E
$GPRMC,013546.9,A,3335.702081,N,11740.413369,W,25.6,146.1,230110,,,A*41
$GPRMC,013549.9,A,3335.681808,N,11740.399443,W,26.6,149.2,230110,,,A*48
$GPRMC,013552.9,A,3335.661242,N,11740.386338,W,27.0,150.4,230110,,,A*44
$GPRMC,013555.9,A,3335.642168,N,11740.371689,W,27.6,148.3,230110,,,A*46
$GPRMC,013558.9,A,3335.623601,N,11740.360252,W,25.0,155.1,230110,,,A*4C
$GPRMC,013601.9,A,3335.607307,N,11740.352092,W,20.8,156.4,230110,,,A*42
$GPRMC,013604.9,A,3335.589361,N,11740.343332,W,22.2,159.1,230110,,,A*49
$GPRMC,013607.9,A,3335.568699,N,11740.334689,W,25.2,162.3,230110,,,A*4F
$GPRMC,013610.9,A,3335.548128,N,11740.328934,W,25.1,166.2,230110,,,A*44
$GPRMC,013613.9,A,3335.529908,N,11740.324407,W,23.4,168.0,230110,,,A*44
$GPRMC,013616.9,A,3335.511370,N,11740.320052,W,23.0,167.9,230110,,,A*4D
$GPRMC,013619.9,A,3335.488325,N,11740.314654,W,27.4,169.1,230110,,,A*42
$GPRMC,013622.9,A,3335.464478,N,11740.311045,W,27.6,172.6,230110,,,A*4B
$GPRMC,013625.9,A,3335.442567,N,11740.308461,W,26.4,174.2,230110,,,A*4C
$GPRMC,013628.9,A,3335.423370,N,11740.306969,W,25.5,178.3,230110,,,A*42
$GPRMC,013631.2,A,3335.405791,N,11740.307560,W,27.4,179.4,230110,,,A*4F
$GPRMC,013634.9,A,3335.372064,N,11740.309757,W,32.2,182.5,230110,,,A*44
$GPRMC,013637.9,A,3335.347026,N,11740.308523,W,30.0,179.2,230110,,,A*44
$GPRMC,013640.9,A,3335.322978,N,11740.310083,W,28.2,180.9,230110,,,A*45
$GPRMC,013643.9,A,3335.299359,N,11740.313165,W,29.9,184.2,230110,,,A*41
$GPRMC,013646.9,A,3335.273387,N,11740.312459,W,31.6,180.8,230110,,,A*40
$GPRMC,013649.9,A,3335.246161,N,11740.311872,W,32.1,180.4,230110,,,A*4D
$GPRMC,013652.9,A,3335.222330,N,11740.310337,W,29.7,179.1,230110,,,A*47
$GPRMC,013655.9,A,3335.197126,N,11740.310664,W,30.2,180.2,230110,,,A*43
$GPRMC,013658.9,A,3335.168413,N,11740.310914,W,32.7,180.8,230110,,,A*48
$GPRMC,013701.2,A,3335.147637,N,11740.311776,W,32.0,180.5,230110,,,A*46
$GPRMC,013704.2,A,3335.119059,N,11740.311645,W,34.9,180.7,230110,,,A*4A
$GPRMC,013707.2,A,3335.090613,N,11740.313756,W,34.6,183.6,230110,,,A*4D
$GPRMC,013710.2,A,3335.061605,N,11740.316725,W,35.0,184.6,230110,,,A*43
$GPRMC,013713.2,A,3335.030138,N,11740.321299,W,35.5,185.5,230110,,,A*4C
$GPRMC,013716.2,A,3335.001738,N,11740.325107,W,31.7,187.6,230110,,,A*4A
$GPRMC,013719.9,A,3334.970384,N,11740.335536,W,33.1,201.4,230110,,,A*4F
$GPRMC,013722.9,A,3334.945782,N,11740.354061,W,34.4,210.9,230110,,,A*4C
$GPRMC,013725.9,A,3334.923670,N,11740.367671,W,29.9,207.9,230110,,,A*47
$GPRMC,013728.9,A,3334.902525,N,11740.377982,W,26.1,198.0,230110,,,A*43
$GPRMC,013731.9,A,3334.876535,N,11740.373795,W,32.6,169.1,230110,,,A*49
$GPRMC,013734.9,A,3334.848655,N,11740.363708,W,34.1,163.4,230110,,,A*4F
$GPRMC,013737.9,A,3334.825493,N,11740.356540,W,26.8,166.6,230110,,,A*4A
$GPRMC,013740.2,A,3334.816388,N,11740.356604,W,16.0,193.5,230110,,,A*4D
$GPRMC,013743.9,A,3334.808561,N,11740.373100,W,16.3,247.8,230110,,,A*4B
$GPRMC,013746.9,A,3334.810061,N,11740.388541,W,13.0,272.2,230110,,,A*4D
$GPRMC,013755.9,A,3334.810610,N,11740.399824,W,5.2,284.5,230110,,,A*7A
$GPRMC,013758.9,A,3334.812130,N,11740.410082,W,12.8,281.6,230110,,,A*48
$GPRMC,013801.9,A,3334.814672,N,11740.430187,W,20.4,282.0,230110,,,A*42
$GPRMC,013804.9,A,3334.818717,N,11740.449671,W,24.6,281.7,230110,,,A*4B
$GPRMC,013807.9,A,3334.825871,N,11740.477157,W,28.6,285.0,230110,,,A*48
$GPRMC,013810.9,A,3334.831239,N,11740.509273,W,32.7,284.6,230110,,,A*4D
$GPRMC,013813.9,A,3334.839016,N,11740.542073,W,34.3,284.9,230110,,,A*49
$GPRMC,013816.9,A,3334.846894,N,11740.570977,W,30.7,286.3,230110,,,A*42
$GPRMC,013819.9,A,3334.855638,N,11740.600887,W,31.3,286.7,230110,,,A*4C
$GPRMC,013822.9,A,3334.860378,N,11740.631272,W,32.7,281.1,230110,,,A*47
$GPRMC,013825.9,A,3334.863874,N,11740.663183,W,32.0,278.5,230110,,,A*4B
$GPRMC,013828.9,A,3334.864442,N,11740.695045,W,32.5,273.8,230110,,,A*49
$GPRMC,013831.9,A,3334.864867,N,11740.726880,W,33.3,270.4,230110,,,A*4A
$GPRMC,013834.9,A,3334.862899,N,11740.760903,W,34.6,264.8,230110,,,A*4B
$GPRMC,013837.9,A,3334.859737,N,11740.793812,W,33.4,260.7,230110,,,A*48
$GPRMC,013840.2,A,3334.854278,N,11740.817893,W,32.4,254.1,230110,,,A*4A
$GPRMC,013843.9,A,3334.841305,N,11740.854450,W,30.7,249.3,230110,,,A*46
$GPRMC,013846.9,A,3334.830817,N,11740.885097,W,32.5,245.2,230110,,,A*43
$GPRMC,013849.9,A,3334.817220,N,11740.912746,W,32.9,240.1,230110,,,A*49
$GPRMC,013852.9,A,3334.800772,N,11740.942174,W,34.9,235.3,230110,,,A*43
$GPRMC,013855.9,A,3334.782024,N,11740.969694,W,34.7,231.1,230110,,,A*4D
$GPRMC,013858.9,A,3334.759583,N,11740.995439,W,36.6,224.5,230110,,,A*4B
$GPRMC,013901.9,A,3334.736365,N,11741.022338,W,39.3,220.7,230110,,,A*4F
$GPRMC,013904.9,A,3334.707170,N,11741.043595,W,39.6,213.1,230110,,,A*4B
$GPRMC,013907.9,A,3334.678258,N,11741.065548,W,40.1,211.9,230110,,,A*4F
$GPRMC,013910.9,A,3334.647190,N,11741.085741,W,41.9,210.6,230110,,,A*40
$GPRMC,013913.9,A,3334.617291,N,11741.108944,W,42.8,213.0,230110,,,A*4C
$GPRMC,013916.9,A,3334.590663,N,11741.132582,W,39.6,217.8,230110,,,A*4D
$GPRMC,013919.9,A,3334.566634,N,11741.155467,W,38.1,221.6,230110,,,A*4F
$GPRMC,013922.9,A,3334.545859,N,11741.184074,W,38.3,228.1,230110,,,A*45
$GPRMC,013925.9,A,3334.525923,N,11741.211928,W,37.7,233.3,230110,,,A*44
$GPRMC,013928.9,A,3334.509173,N,11741.245219,W,38.8,239.3,230110,,,A*48
$GPRMC,013931.9,A,3334.494460,N,11741.280724,W,39.7,243.4,230110,,,A*44
$GPRMC,013934.9,A,3334.484798,N,11741.318609,W,38.8,251.5,230110,,,A*46
$GPRMC,013937.9,A,3334.475056,N,11741.356558,W,38.5,254.4,230110,,,A*4A
$GPRMC,013940.9,A,3334.471937,N,11741.392753,W,35.2,262.2,230110,,,A*48
$GPRMC,013943.9,A,3334.471326,N,11741.423067,W,32.1,264.6,230110,,,A*4A
$GPRMC,013946.9,A,3334.469475,N,11741.458578,W,38.3,264.7,230110,,,A*49
$GPRMC,013949.9,A,3334.466573,N,11741.499801,W,41.2,265.7,230110,,,A*4E
$GPRMC,013952.9,A,3334.464522,N,11741.541085,W,41.1,265.9,230110,,,A*4F
$GPRMC,013955.9,A,3334.463796,N,11741.581107,W,38.9,267.6,230110,,,A*4E
$GPRMC,013958.9,A,3334.463883,N,11741.620427,W,39.8,267.3,230110,,,A*42
$GPRMC,014001.9,A,3334.459820,N,11741.659795,W,40.9,264.9,230110,,,A*42
$GPRMC,014004.9,A,3334.457239,N,11741.700183,W,40.1,265.7,230110,,,A*40
$GPRMC,014007.9,A,3334.455834,N,11741.737520,W,35.9,266.3,230110,,,A*42
$GPRMC,014010.9,A,3334.453551,N,11741.770899,W,32.1,265.0,230110,,,A*4F
$GPRMC,014014.2,A,3334.447887,N,11741.805749,W,33.9,261.4,230110,,,A*45
$GPRMC,014017.0,A,3334.440525,N,11741.835068,W,33.6,256.2,230110,,,A*4C
$GPRMC,014020.9,A,3334.427114,N,11741.878374,W,35.9,247.6,230110,,,A*4C
$GPRMC,014023.9,A,3334.413764,N,11741.912102,W,36.5,242.3,230110,,,A*48
$GPRMC,014026.9,A,3334.401162,N,11741.940350,W,31.5,239.0,230110,,,A*44
$GPRMC,014029.9,A,3334.388406,N,11741.964164,W,28.9,237.9,230110,,,A*4A
$GPRMC,014032.9,A,3334.378245,N,11741.983818,W,23.5,235.8,230110,,,A*41
$GPRMC,014035.9,A,3334.371617,N,11741.996173,W,13.8,235.5,230110,,,A*4F
$GPRMC,014038.9,A,3334.370115,N,11742.002451,W,6.2,242.7,230110,,,A*78
$GPRMC,014135.9,A,3334.365028,N,11742.011524,W,6.7,251.5,230110,,,A*7B
$GPRMC,014138.9,A,3334.351435,N,11742.023492,W,13.4,204.4,230110,,,A*42
$GPRMC,014141.9,A,3334.329760,N,11742.019116,W,24.5,163.3,230110,,,A*40
$GPRMC,014144.9,A,3334.301468,N,11742.012704,W,32.7,166.5,230110,,,A*4C
$GPRMC,014147.9,A,3334.274480,N,11742.006563,W,33.4,171.0,230110,,,A*4D
$GPRMC,014150.9,A,3334.250175,N,11742.003699,W,27.8,175.3,230110,,,A*4F
$GPRMC,014153.9,A,3334.231631,N,11742.001914,W,21.1,176.5,230110,,,A*4E
$GPRMC,014156.9,A,3334.220749,N,11742.000748,W,12.8,179.4,230110,,,A*44
$GPRMC,014159.9,A,3334.216444,N,11742.002539,W,6.4,186.5,230110,,,A*7E
$GPRMC,014226.9,A,3334.210873,N,11742.000979,W,7.2,174.8,230110,,,A*76
$GPRMC,014230.2,A,3334.189456,N,11742.005150,W,19.8,191.8,230110,,,A*4A
$GPRMC,014234.2,A,3334.152561,N,11742.014727,W,29.4,196.4,230110,,,A*4F
$GPRMC,014238.2,A,3334.112712,N,11742.034453,W,34.6,204.5,230110,,,A*44
$GPRMC,014241.9,A,3334.074149,N,11742.056901,W,39.1,206.5,230110,,,A*4E
$GPRMC,014244.9,A,3334.046677,N,11742.073972,W,36.0,207.2,230110,,,A*4B
$GPRMC,014247.9,A,3334.018922,N,11742.089950,W,37.0,204.5,230110,,,A*4C
$GPRMC,014250.9,A,3333.991830,N,11742.101241,W,35.1,197.8,230110,,,A*4A
$GPRMC,014253.9,A,3333.966430,N,11742.111500,W,31.8,197.1,230110,,,A*4A
$GPRMC,014256.9,A,3333.943089,N,11742.118692,W,26.6,195.0,230110,,,A*44
$GPRMC,014259.9,A,3333.925481,N,11742.124447,W,19.7,193.5,230110,,,A*4C
$GPRMC,014302.9,A,3333.918586,N,11742.128895,W,9.5,197.2,230110,,,A*74
$GPRMC,014317.9,A,3333.906957,N,11742.130010,W,12.4,199.0,230110,,,A*44
$GPRMC,014320.9,A,3333.889717,N,11742.139149,W,22.4,205.6,230110,,,A*4B
$GPRMC,014323.9,A,3333.868262,N,11742.147641,W,28.3,203.5,230110,,,A*4E
$GPRMC,014326.9,A,3333.844161,N,11742.161205,W,32.0,203.5,230110,,,A*4D
$GPRMC,014329.9,A,3333.815368,N,11742.177006,W,35.3,202.9,230110,,,A*42
$GPRMC,014332.2,A,3333.794176,N,11742.187741,W,35.1,202.5,230110,,,A*4D
$GPRMC,014335.9,A,3333.760388,N,11742.203258,W,34.5,198.4,230110,,,A*4F
$GPRMC,014338.9,A,3333.732455,N,11742.214233,W,34.1,193.1,230110,,,A*43
$GPRMC,014341.9,A,3333.705159,N,11742.217357,W,33.9,183.7,230110,,,A*48
$GPRMC,014344.9,A,3333.671634,N,11742.215140,W,37.8,176.4,230110,,,A*49
$GPRMC,014348.2,A,3333.635517,N,11742.211100,W,40.0,169.1,230110,,,A*4F
$GPRMC,014351.9,A,3333.595099,N,11742.200528,W,40.6,165.8,230110,,,A*4B
$GPRMC,014354.9,A,3333.565967,N,11742.187428,W,38.9,158.2,230110,,,A*40
$GPRMC,014357.9,A,3333.539000,N,11742.169030,W,37.6,150.8,230110,,,A*4D
$GPRMC,014400.9,A,3333.515840,N,11742.146121,W,37.6,143.4,230110,,,A*48
