NMEA Sentence Code,UTC Time,Status,Latitude,Latitude Direction,Longitude,Longitude Direction,Speed (knots),Track Angle (degrees true),Date,MagneticVariation,Magnetic Variation Direction,[FAA Mode]-Optional,Checksum
$GPRMC,195540.209,A,3335.0502,N,11713.8662,W,49.88,312.26,020310,,*21
$GPRMC,195542.209,A,3335.0689,N,11713.8908,W,49.80,312.28,020310,,*26
$GPRMC,195543.209,A,3335.0783,N,11713.9030,W,49.73,312.25,020310,,*2E
$GPRMC,195544.209,A,3335.0878,N,11713.9152,W,49.72,312.36,020310,,*24
$GPRMC,195545.209,A,3335.0971,N,11713.9274,W,49.65,311.96,020310,,*25
$GPRMC,195548.209,A,3335.1251,N,11713.9641,W,49.64,312.66,020310,,*2F
$GPRMC,195549.209,A,3335.1344,N,11713.9762,W,49.64,312.54,020310,,*2A
$GPRMC,195550.209,A,3335.1437,N,11713.9884,W,49.76,312.31,020310,,*26
$GPRMC,195551.209,A,3335.1530,N,11714.0007,W,49.89,312.21,020310,,*2D
$GPRMC,195552.209,A,3335.1624,N,11714.0130,W,50.04,312.10,020310,,*22
$GPRMC,195553.208,A,3335.1719,N,11714.0253,W,50.20,312.31,020310,,*2E
$GPRMC,195554.208,A,3335.1814,N,11714.0377,W,50.43,312.33,020310,,*2B
$GPRMC,195555.208,A,3335.1908,N,11714.0501,W,50.56,312.24,020310,,*23
$GPRMC,195557.208,A,3335.2098,N,11714.0751,W,50.99,312.45,020310,,*21
$GPRMC,195558.208,A,3335.2194,N,11714.0877,W,51.28,312.37,020310,,*26
$GPRMC,195559.208,A,3335.2291,N,11714.1003,W,51.53,312.30,020310,,*20
$GPRMC,195600.208,A,3335.2388,N,11714.1130,W,51.74,312.39,020310,,*2B
$GPRMC,195603.208,A,3335.2682,N,11714.1512,W,52.27,312.39,020310,,*26
$GPRMC,195604.208,A,3335.2779,N,11714.1641,W,52.44,312.37,020310,,*2A
$GPRMC,195605.208,A,3335.2878,N,11714.1770,W,52.59,312.38,020310,,*25
$GPRMC,195606.208,A,3335.2977,N,11714.1899,W,52.64,312.37,020310,,*21
$GPRMC,195607.208,A,3335.3077,N,11714.2028,W,52.79,312.49,020310,,*2C
$GPRMC,195608.207,A,3335.3177,N,11714.2157,W,52.82,312.57,020310,,*2F
$GPRMC,195609.207,A,3335.3278,N,11714.2286,W,52.88,312.51,020310,,*21
$GPRMC,195610.207,A,3335.3379,N,11714.2416,W,52.88,312.48,020310,,*2E
$GPRMC,195612.207,A,3335.3578,N,11714.2676,W,53.11,312.30,020310,,*21
$GPRMC,195613.207,A,3335.3677,N,11714.2807,W,53.31,312.23,020310,,*24
$GPRMC,195614.207,A,3335.3777,N,11714.2939,W,53.65,312.23,020310,,*2F
$GPRMC,195615.207,A,3335.3879,N,11714.3071,W,54.04,312.37,020310,,*2E
$GPRMC,195618.207,A,3335.4187,N,11714.3475,W,55.44,312.49,020310,,*20
$GPRMC,195619.207,A,3335.4292,N,11714.3611,W,55.78,312.54,020310,,*25
$GPRMC,195620.207,A,3335.4398,N,11714.3748,W,56.22,312.64,020310,,*26
$GPRMC,195621.207,A,3335.4506,N,11714.3885,W,56.57,313.41,020310,,*2C
$GPRMC,195622.207,A,3335.4616,N,11714.4022,W,56.75,314.53,020310,,*2B
$GPRMC,195623.206,A,3335.4728,N,11714.4156,W,56.74,316.16,020310,,*27
$GPRMC,195624.206,A,3335.4843,N,11714.4285,W,56.19,317.20,020310,,*20
$GPRMC,195625.206,A,3335.4958,N,11714.4411,W,55.84,318.24,020310,,*2D
$GPRMC,195627.206,A,3335.5193,N,11714.4651,W,55.18,320.31,020310,,*2D
$GPRMC,195628.206,A,3335.5312,N,11714.4767,W,54.68,321.09,020310,,*21
$GPRMC,195629.206,A,3335.5431,N,11714.4879,W,54.32,321.83,020310,,*2B
$GPRMC,195630.206,A,3335.5551,N,11714.4987,W,54.12,322.86,020310,,*20
$GPRMC,195633.206,A,3335.5904,N,11714.5311,W,53.23,322.56,020310,,*23
$GPRMC,195634.206,A,3335.6020,N,11714.5418,W,53.09,322.64,020310,,*2F
$GPRMC,195635.206,A,3335.6139,N,11714.5524,W,52.92,322.75,020310,,*2A
$GPRMC,195636.206,A,3335.6257,N,11714.5630,W,52.78,322.54,020310,,*23
$GPRMC,195637.206,A,3335.6373,N,11714.5736,W,52.59,322.33,020310,,*20
$GPRMC,195638.206,A,3335.6488,N,11714.5843,W,52.41,322.52,020310,,*2F
$GPRMC,195639.205,A,3335.6604,N,11714.5948,W,52.35,322.59,020310,,*29
$GPRMC,195640.205,A,3335.6719,N,11714.6053,W,52.17,322.31,020310,,*24
$GPRMC,195642.205,A,3335.6948,N,11714.6263,W,51.68,322.33,020310,,*24
$GPRMC,195643.205,A,3335.7061,N,11714.6368,W,51.44,322.53,020310,,*24
$GPRMC,195644.205,A,3335.7174,N,11714.6472,W,51.10,322.38,020310,,*26
$GPRMC,195645.205,A,3335.7286,N,11714.6575,W,50.86,322.57,020310,,*28
$GPRMC,195648.205,A,3335.7621,N,11714.6880,W,49.45,322.28,020310,,*24
$GPRMC,195649.205,A,3335.7731,N,11714.6980,W,49.99,323.11,020310,,*2E
$GPRMC,195650.205,A,3335.7843,N,11714.7079,W,49.65,322.65,020310,,*23
$GPRMC,195651.205,A,3335.7954,N,11714.7179,W,49.53,322.45,020310,,*23
$GPRMC,195652.205,A,3335.8063,N,11714.7279,W,49.57,322.08,020310,,*2C
$GPRMC,195653.205,A,3335.8172,N,11714.7379,W,49.54,322.28,020310,,*2C
$GPRMC,195654.204,A,3335.8280,N,11714.7479,W,49.49,322.42,020310,,*23
$GPRMC,195655.204,A,3335.8389,N,11714.7580,W,49.51,322.56,020310,,*21
$GPRMC,195657.204,A,3335.8606,N,11714.7780,W,49.32,322.38,020310,,*2E
$GPRMC,195658.204,A,3335.8714,N,11714.7879,W,49.01,322.52,020310,,*26
$GPRMC,195659.204,A,3335.8822,N,11714.7978,W,48.60,322.57,020310,,*2E
$GPRMC,195700.204,A,3335.8928,N,11714.8075,W,48.19,322.75,020310,,*2D
$GPRMC,195703.204,A,3335.9244,N,11714.8365,W,47.78,322.54,020310,,*27
$GPRMC,195704.204,A,3335.9350,N,11714.8461,W,47.92,322.82,020310,,*28
$GPRMC,195705.204,A,3335.9456,N,11714.8557,W,47.90,322.64,020310,,*26
$GPRMC,195706.204,A,3335.9562,N,11714.8652,W,47.43,322.41,020310,,*2C
$GPRMC,195707.204,A,3335.9666,N,11714.8747,W,46.84,322.65,020310,,*23
$GPRMC,195708.204,A,3335.9770,N,11714.8840,W,46.33,323.07,020310,,*2B
$GPRMC,195709.204,A,3335.9872,N,11714.8932,W,46.24,322.73,020310,,*27
$GPRMC,195710.203,A,3335.9975,N,11714.9026,W,46.45,322.51,020310,,*24
$GPRMC,195712.203,A,3336.0180,N,11714.9214,W,46.71,322.70,020310,,*29
$GPRMC,195713.203,A,3336.0284,N,11714.9308,W,46.66,322.34,020310,,*25
$GPRMC,195714.203,A,3336.0387,N,11714.9403,W,46.54,322.26,020310,,*2E
$GPRMC,195715.203,A,3336.0490,N,11714.9497,W,46.48,322.63,020310,,*2F
$GPRMC,195718.203,A,3336.0805,N,11714.9780,W,47.34,322.45,020310,,*29
$GPRMC,195719.203,A,3336.0910,N,11714.9877,W,47.91,322.50,020310,,*21
$GPRMC,195720.203,A,3336.1017,N,11714.9974,W,48.62,322.39,020310,,*2A
$GPRMC,195721.203,A,3336.1126,N,11715.0073,W,49.34,322.68,020310,,*28
$GPRMC,195722.203,A,3336.1237,N,11715.0174,W,50.04,322.59,020310,,*27
$GPRMC,195723.203,A,3336.1348,N,11715.0275,W,50.63,322.68,020310,,*2E
$GPRMC,195724.203,A,3336.1461,N,11715.0377,W,51.13,322.63,020310,,*2B
$GPRMC,195725.202,A,3336.1574,N,11715.0481,W,51.21,322.56,020310,,*27
$GPRMC,195727.202,A,3336.1799,N,11715.0687,W,50.32,322.48,020310,,*2C
$GPRMC,195728.202,A,3336.1911,N,11715.0789,W,50.33,322.54,020310,,*2E
$GPRMC,195729.202,A,3336.2023,N,11715.0891,W,50.63,322.63,020310,,*23
$GPRMC,195730.202,A,3336.2135,N,11715.0993,W,50.91,322.66,020310,,*26
$GPRMC,195733.202,A,3336.2478,N,11715.1306,W,52.40,322.65,020310,,*23
$GPRMC,195734.202,A,3336.2595,N,11715.1412,W,52.71,322.75,020310,,*27
$GPRMC,195735.202,A,3336.2712,N,11715.1519,W,52.61,322.50,020310,,*27
$GPRMC,195736.202,A,3336.2828,N,11715.1625,W,52.02,322.29,020310,,*25
$GPRMC,195737.202,A,3336.2943,N,11715.1729,W,51.53,322.57,020310,,*2B
$GPRMC,195738.202,A,3336.3056,N,11715.1833,W,51.22,322.51,020310,,*2C
$GPRMC,195739.202,A,3336.3169,N,11715.1937,W,51.18,322.39,020310,,*22
$GPRMC,195740.201,A,3336.3281,N,11715.2041,W,51.31,322.55,020310,,*20
$GPRMC,195742.201,A,3336.3511,N,11715.2250,W,51.77,322.59,020310,,*20
$GPRMC,195743.201,A,3336.3626,N,11715.2355,W,51.95,322.49,020310,,*2F
$GPRMC,195744.201,A,3336.3742,N,11715.2460,W,51.98,322.42,020310,,*2C
$GPRMC,195745.201,A,3336.3857,N,11715.2566,W,51.93,322.45,020310,,*2D
$GPRMC,195748.201,A,3336.4198,N,11715.2881,W,51.45,322.39,020310,,*29
$GPRMC,195749.201,A,3336.4310,N,11715.2985,W,51.42,322.75,020310,,*20
$GPRMC,195750.201,A,3336.4424,N,11715.3089,W,51.47,322.55,020310,,*2B
$GPRMC,195751.201,A,3336.4538,N,11715.3193,W,51.55,322.60,020310,,*29
$GPRMC,195752.201,A,3336.4651,N,11715.3297,W,51.66,322.49,020310,,*2A
$GPRMC,195753.201,A,3336.4765,N,11715.3402,W,51.74,322.68,020310,,*27
$GPRMC,195754.201,A,3336.4880,N,11715.3506,W,51.86,322.86,020310,,*2C
$GPRMC,195755.201,A,3336.4995,N,11715.3610,W,51.85,322.76,020310,,*20
$GPRMC,195757.200,A,3336.5224,N,11715.3820,W,51.65,322.64,020310,,*23
$GPRMC,195758.200,A,3336.5338,N,11715.3924,W,51.55,322.58,020310,,*29
$GPRMC,195759.200,A,3336.5453,N,11715.4028,W,51.55,322.55,020310,,*2D
$GPRMC,195800.200,A,3336.5567,N,11715.4132,W,51.49,322.57,020310,,*2D
$GPRMC,195803.200,A,3336.5912,N,11715.4445,W,51.67,322.42,020310,,*2D
$GPRMC,195804.200,A,3336.6026,N,11715.4550,W,51.75,322.61,020310,,*20
$GPRMC,195805.200,A,3336.6142,N,11715.4654,W,51.80,322.73,020310,,*2C
$GPRMC,195806.200,A,3336.6257,N,11715.4759,W,51.88,322.67,020310,,*29
$GPRMC,195807.200,A,3336.6371,N,11715.4864,W,51.73,322.51,020310,,*2D
$GPRMC,195808.200,A,3336.6484,N,11715.4969,W,51.31,322.41,020310,,*24
$GPRMC,195809.200,A,3336.6597,N,11715.5073,W,50.77,322.56,020310,,*20
$GPRMC,195810.200,A,3336.6709,N,11715.5175,W,50.27,322.66,020310,,*2C
$GPRMC,195812.199,A,3336.6929,N,11715.5378,W,49.38,322.37,020310,,*2C
$GPRMC,195813.199,A,3336.7038,N,11715.5477,W,49.38,322.92,020310,,*22
$GPRMC,195814.199,A,3336.7147,N,11715.5577,W,49.63,322.87,020310,,*27
$GPRMC,195815.199,A,3336.7257,N,11715.5677,W,49.90,322.52,020310,,*23
$GPRMC,195818.199,A,3336.7593,N,11715.5978,W,50.18,323.07,020310,,*28
$GPRMC,195819.199,A,3336.7703,N,11715.6079,W,50.02,321.96,020310,,*28
$GPRMC,195820.199,A,3336.7811,N,11715.6182,W,50.06,321.76,020310,,*21
$GPRMC,195821.199,A,3336.7920,N,11715.6286,W,50.41,321.71,020310,,*20
$GPRMC,195822.199,A,3336.8030,N,11715.6391,W,50.76,320.83,020310,,*2B
$GPRMC,195823.199,A,3336.8140,N,11715.6499,W,51.05,320.32,020310,,*2C
$GPRMC,195824.199,A,3336.8250,N,11715.6608,W,51.23,320.79,020310,,*28
$GPRMC,195825.199,A,3336.8362,N,11715.6715,W,51.61,321.74,020310,,*2E
$GPRMC,195827.198,A,3336.8591,N,11715.6928,W,52.38,322.27,020310,,*2D
$GPRMC,195828.198,A,3336.8706,N,11715.7035,W,52.75,322.67,020310,,*27
$GPRMC,195829.198,A,3336.8823,N,11715.7143,W,53.08,322.43,020310,,*23
$GPRMC,195830.198,A,3336.8940,N,11715.7252,W,53.47,322.52,020310,,*27
$GPRMC,195833.198,A,3336.9297,N,11715.7580,W,54.33,322.62,020310,,*2B
$GPRMC,195834.198,A,3336.9418,N,11715.7690,W,54.60,322.62,020310,,*29
$GPRMC,195835.198,A,3336.9539,N,11715.7801,W,54.84,322.65,020310,,*21
$GPRMC,195836.198,A,3336.9660,N,11715.7912,W,55.03,322.68,020310,,*2D
$GPRMC,195837.198,A,3336.9782,N,11715.8024,W,55.23,322.46,020310,,*2C
$GPRMC,195838.198,A,3336.9905,N,11715.8136,W,55.47,322.52,020310,,*27
$GPRMC,195839.198,A,3337.0029,N,11715.8248,W,55.59,322.67,020310,,*2A
$GPRMC,195840.198,A,3337.0153,N,11715.8360,W,55.77,322.60,020310,,*28
$GPRMC,195842.197,A,3337.0402,N,11715.8585,W,55.96,322.86,020310,,*2E
$GPRMC,195843.197,A,3337.0527,N,11715.8696,W,55.97,323.31,020310,,*24
$GPRMC,195844.197,A,3337.0652,N,11715.8808,W,55.89,323.57,020310,,*24
$GPRMC,195845.197,A,3337.0777,N,11715.8918,W,55.96,323.72,020310,,*2A
$GPRMC,195848.197,A,3337.1153,N,11715.9251,W,55.52,323.46,020310,,*2E
$GPRMC,195849.197,A,3337.1276,N,11715.9360,W,54.80,323.35,020310,,*22
$GPRMC,195850.197,A,3337.1397,N,11715.9469,W,54.08,322.71,020310,,*2B
$GPRMC,195851.197,A,3337.1517,N,11715.9577,W,53.43,322.64,020310,,*26
$GPRMC,195852.197,A,3337.1635,N,11715.9684,W,52.68,322.68,020310,,*2D
$GPRMC,195853.197,A,3337.1751,N,11715.9789,W,51.88,322.68,020310,,*2E
$GPRMC,195854.197,A,3337.1865,N,11715.9894,W,51.20,322.80,020310,,*26
$GPRMC,195855.197,A,3337.1977,N,11715.9997,W,50.86,322.42,020310,,*24
$GPRMC,195857.196,A,3337.2203,N,11716.0204,W,51.36,322.94,020310,,*26
$GPRMC,195858.196,A,3337.2318,N,11716.0306,W,51.72,323.36,020310,,*28
$GPRMC,195859.196,A,3337.2434,N,11716.0410,W,52.20,323.48,020310,,*2D
$GPRMC,195900.196,A,3337.2550,N,11716.0514,W,52.58,322.74,020310,,*27
$GPRMC,195903.196,A,3337.2904,N,11716.0831,W,52.90,323.29,020310,,*2E
$GPRMC,195904.196,A,3337.3022,N,11716.0937,W,52.91,323.56,020310,,*2B
$GPRMC,195905.196,A,3337.3141,N,11716.1040,W,53.18,324.10,020310,,*23
$GPRMC,195906.196,A,3337.3262,N,11716.1141,W,53.33,323.93,020310,,*27
$GPRMC,195907.196,A,3337.3383,N,11716.1245,W,53.55,324.23,020310,,*23
$GPRMC,195908.196,A,3337.3506,N,11716.1348,W,53.67,324.26,020310,,*2F
$GPRMC,195909.196,A,3337.3627,N,11716.1452,W,53.32,323.93,020310,,*2B
$GPRMC,195910.196,A,3337.3748,N,11716.1556,W,53.51,324.30,020310,,*25
$GPRMC,195912.196,A,3337.3990,N,11716.1762,W,53.25,324.53,020310,,*2F
$GPRMC,195913.195,A,3337.4111,N,11716.1864,W,53.17,324.53,020310,,*23
$GPRMC,195914.195,A,3337.4232,N,11716.1966,W,53.25,324.77,020310,,*22
$GPRMC,195915.195,A,3337.4353,N,11716.2068,W,53.20,324.91,020310,,*2C
$GPRMC,195918.195,A,3337.4718,N,11716.2373,W,53.46,325.11,020310,,*2A
$GPRMC,195919.195,A,3337.4840,N,11716.2475,W,53.52,325.52,020310,,*2A
$GPRMC,195920.195,A,3337.4963,N,11716.2577,W,53.60,325.53,020310,,*23
$GPRMC,195921.195,A,3337.5086,N,11716.2678,W,53.51,325.41,020310,,*2C
$GPRMC,195922.195,A,3337.5208,N,11716.2780,W,53.47,325.49,020310,,*22
$GPRMC,195923.195,A,3337.5329,N,11716.2880,W,53.23,325.42,020310,,*27
$GPRMC,195924.195,A,3337.5452,N,11716.2980,W,53.16,325.76,020310,,*2B
$GPRMC,195925.195,A,3337.5575,N,11716.3079,W,53.20,326.19,020310,,*2F
$GPRMC,195927.195,A,3337.5822,N,11716.3276,W,53.45,325.98,020310,,*26
$GPRMC,195928.194,A,3337.5946,N,11716.3375,W,53.48,326.09,020310,,*2F
$GPRMC,195929.194,A,3337.6070,N,11716.3474,W,53.48,326.25,020310,,*29
$GPRMC,195930.194,A,3337.6194,N,11716.3572,W,53.49,326.80,020310,,*23
$GPRMC,195933.194,A,3337.6568,N,11716.3864,W,53.44,327.03,020310,,*2A
$GPRMC,195934.194,A,3337.6693,N,11716.3960,W,53.32,327.04,020310,,*29
$GPRMC,195935.194,A,3337.6817,N,11716.4057,W,53.28,326.97,020310,,*20
$GPRMC,195936.194,A,3337.6941,N,11716.4155,W,53.26,326.47,020310,,*21
$GPRMC,195937.194,A,3337.7065,N,11716.4252,W,53.26,326.82,020310,,*23
$GPRMC,195938.194,A,3337.7190,N,11716.4348,W,53.33,327.28,020310,,*28
$GPRMC,195939.194,A,3337.7315,N,11716.4444,W,53.39,327.34,020310,,*2A
$GPRMC,195940.194,A,3337.7440,N,11716.4540,W,53.49,327.43,020310,,*21
$GPRMC,195942.194,A,3337.7692,N,11716.4731,W,53.52,327.51,020310,,*23
$GPRMC,195943.194,A,3337.7818,N,11716.4826,W,53.49,327.72,020310,,*2C
$GPRMC,195944.193,A,3337.7944,N,11716.4921,W,53.39,327.81,020310,,*29
$GPRMC,195945.193,A,3337.8070,N,11716.5016,W,53.38,327.82,020310,,*27
$GPRMC,195948.193,A,3337.8448,N,11716.5297,W,53.31,328.22,020310,,*22
$GPRMC,195949.193,A,3337.8575,N,11716.5390,W,53.32,328.28,020310,,*23
$GPRMC,195950.193,A,3337.8702,N,11716.5483,W,53.39,328.53,020310,,*2B
$GPRMC,195951.193,A,3337.8830,N,11716.5575,W,53.52,328.95,020310,,*2B
$GPRMC,195952.193,A,3337.8958,N,11716.5667,W,53.54,328.98,020310,,*2C
$GPRMC,195953.193,A,3337.9085,N,11716.5760,W,53.47,328.86,020310,,*2E
$GPRMC,195954.193,A,3337.9213,N,11716.5852,W,53.45,328.87,020310,,*29
$GPRMC,195955.193,A,3337.9341,N,11716.5944,W,53.43,329.12,020310,,*23
$GPRMC,195957.193,A,3337.9597,N,11716.6127,W,53.37,329.14,020310,,*27
$GPRMC,195958.193,A,3337.9725,N,11716.6219,W,53.26,329.31,020310,,*2A
$GPRMC,195959.192,A,3337.9854,N,11716.6309,W,53.22,329.63,020310,,*20
$GPRMC,200000.192,A,3337.9982,N,11716.6400,W,53.33,329.51,020310,,*2F
$GPRMC,200003.192,A,3338.0368,N,11716.6670,W,53.38,329.68,020310,,*20
$GPRMC,200004.192,A,3338.0497,N,11716.6760,W,53.37,329.85,020310,,*2C
$GPRMC,200005.192,A,3338.0625,N,11716.6850,W,53.45,330.21,020310,,*29
$GPRMC,200006.192,A,3338.0754,N,11716.6938,W,53.45,330.20,020310,,*23
$GPRMC,200007.192,A,3338.0882,N,11716.7024,W,53.32,330.32,020310,,*20
$GPRMC,200008.192,A,3338.1010,N,11716.7110,W,53.38,330.62,020310,,*24
$GPRMC,200009.192,A,3338.1139,N,11716.7195,W,53.52,330.73,020310,,*2E
$GPRMC,200010.192,A,3338.1266,N,11716.7281,W,53.58,330.60,020310,,*21
$GPRMC,200012.192,A,3338.1526,N,11716.7457,W,53.60,329.99,020310,,*28
$GPRMC,200013.192,A,3338.1655,N,11716.7545,W,53.71,330.25,020310,,*23
$GPRMC,200014.191,A,3338.1786,N,11716.7633,W,53.59,330.44,020310,,*27
$GPRMC,200015.191,A,3338.1916,N,11716.7721,W,53.44,330.31,020310,,*2D
$GPRMC,200018.191,A,3338.2305,N,11716.7982,W,53.44,331.01,020310,,*2E
$GPRMC,200019.191,A,3338.2435,N,11716.8067,W,53.55,330.85,020310,,*2B
$GPRMC,200020.191,A,3338.2565,N,11716.8154,W,53.49,330.22,020310,,*24
$GPRMC,200021.191,A,3338.2695,N,11716.8240,W,53.62,330.58,020310,,*2B
$GPRMC,200022.191,A,3338.2827,N,11716.8327,W,53.81,330.67,020310,,*2E
$GPRMC,200023.191,A,3338.2959,N,11716.8414,W,53.78,330.91,020310,,*2F
$GPRMC,200024.191,A,3338.3090,N,11716.8500,W,53.71,330.84,020310,,*2C
$GPRMC,200025.191,A,3338.3219,N,11716.8588,W,53.52,330.25,020310,,*24
$GPRMC,200027.191,A,3338.3479,N,11716.8764,W,53.41,330.20,020310,,*21
$GPRMC,200028.191,A,3338.3610,N,11716.8853,W,53.32,330.17,020310,,*28
$GPRMC,200029.191,A,3338.3740,N,11716.8940,W,53.38,330.61,020310,,*25
$GPRMC,200030.190,A,3338.3867,N,11716.9027,W,53.56,330.54,020310,,*21
$GPRMC,200033.190,A,3338.4254,N,11716.9294,W,53.57,330.66,020310,,*25
$GPRMC,200034.190,A,3338.4383,N,11716.9380,W,53.50,331.15,020310,,*2F
$GPRMC,200035.190,A,3338.4512,N,11716.9467,W,53.37,330.82,020310,,*20
$GPRMC,200036.190,A,3338.4640,N,11716.9553,W,53.25,330.75,020310,,*2A
$GPRMC,200037.190,A,3338.4769,N,11716.9640,W,53.24,330.25,020310,,*24
$GPRMC,200038.190,A,3338.4898,N,11716.9728,W,53.28,330.43,020310,,*29
$GPRMC,200039.190,A,3338.5028,N,11716.9816,W,53.31,330.65,020310,,*24
$GPRMC,200040.190,A,3338.5159,N,11716.9904,W,53.49,330.29,020310,,*28
$GPRMC,200042.190,A,3338.5418,N,11717.0078,W,53.60,330.46,020310,,*22
$GPRMC,200043.190,A,3338.5548,N,11717.0167,W,53.94,330.66,020310,,*21
$GPRMC,200044.190,A,3338.5679,N,11717.0254,W,53.74,330.13,020310,,*28
$GPRMC,200045.189,A,3338.5807,N,11717.0343,W,53.20,330.08,020310,,*2A
$GPRMC,200048.189,A,3338.6193,N,11717.0603,W,53.40,330.80,020310,,*27
$GPRMC,200049.189,A,3338.6324,N,11717.0691,W,53.52,330.06,020310,,*2E
$GPRMC,200050.189,A,3338.6451,N,11717.0779,W,53.39,330.11,020310,,*2F
$GPRMC,200051.189,A,3338.6579,N,11717.0867,W,53.41,330.46,020310,,*28
$GPRMC,200052.189,A,3338.6711,N,11717.0953,W,53.66,330.67,020310,,*27
$GPRMC,200053.189,A,3338.6840,N,11717.1041,W,53.60,330.56,020310,,*22
$GPRMC,200054.189,A,3338.6969,N,11717.1128,W,53.62,330.80,020310,,*28
$GPRMC,200055.189,A,3338.7102,N,11717.1215,W,53.80,330.92,020310,,*2F
$GPRMC,200057.189,A,3338.7367,N,11717.1390,W,53.48,330.44,020310,,*2F
$GPRMC,200058.189,A,3338.7498,N,11717.1477,W,53.63,330.83,020310,,*2B
$GPRMC,200059.189,A,3338.7630,N,11717.1564,W,53.70,330.80,020310,,*28
$GPRMC,200100.188,A,3338.7764,N,11717.1650,W,53.76,330.93,020310,,*24
$GPRMC,200103.188,A,3338.8162,N,11717.1912,W,53.78,330.53,020310,,*23
$GPRMC,200104.188,A,3338.8286,N,11717.2000,W,53.69,330.96,020310,,*2D
$GPRMC,200105.188,A,3338.8428,N,11717.2086,W,53.73,330.70,020310,,*23
$GPRMC,200106.188,A,3338.8562,N,11717.2173,W,53.75,330.61,020310,,*22
$GPRMC,200107.188,A,3338.8691,N,11717.2261,W,53.54,330.52,020310,,*2F
$GPRMC,200108.188,A,3338.8821,N,11717.2348,W,53.48,330.64,020310,,*27
$GPRMC,200109.188,A,3338.8951,N,11717.2435,W,53.64,330.78,020310,,*2E
$GPRMC,200110.188,A,3338.9073,N,11717.2524,W,53.56,330.48,020310,,*2D
$GPRMC,200112.188,A,3338.9325,N,11717.2699,W,53.54,330.85,020310,,*29
$GPRMC,200113.188,A,3338.9452,N,11717.2787,W,53.97,330.35,020310,,*25
$GPRMC,200114.188,A,3338.9583,N,11717.2876,W,53.89,330.35,020310,,*21
$GPRMC,200115.188,A,3338.9713,N,11717.2964,W,53.72,330.31,020310,,*29
$GPRMC,200118.187,A,3339.0102,N,11717.3226,W,53.57,330.90,020310,,*25
$GPRMC,200119.187,A,3339.0230,N,11717.3314,W,53.54,330.51,020310,,*28
$GPRMC,200120.187,A,3339.0356,N,11717.3403,W,53.43,330.12,020310,,*23
$GPRMC,200121.187,A,3339.0482,N,11717.3492,W,53.29,330.36,020310,,*2E
$GPRMC,200122.187,A,3339.0608,N,11717.3580,W,53.18,330.86,020310,,*26
$GPRMC,200123.187,A,3339.0735,N,11717.3667,W,53.43,331.01,020310,,*22
$GPRMC,200124.187,A,3339.0861,N,11717.3755,W,53.44,330.47,020310,,*2F
$GPRMC,200125.187,A,3339.0989,N,11717.3844,W,53.60,330.30,020310,,*20
$GPRMC,200127.187,A,3339.1244,N,11717.4023,W,53.69,330.52,020310,,*2A
$GPRMC,200128.187,A,3339.1374,N,11717.4111,W,53.63,330.50,020310,,*2F
$GPRMC,200129.187,A,3339.1502,N,11717.4198,W,53.60,330.55,020310,,*2E
$GPRMC,200130.187,A,3339.1631,N,11717.4286,W,53.57,330.25,020310,,*2A
$GPRMC,200133.186,A,3339.2017,N,11717.4549,W,53.28,330.49,020310,,*2F
$GPRMC,200134.186,A,3339.2142,N,11717.4637,W,53.29,330.35,020310,,*29
$GPRMC,200135.186,A,3339.2271,N,11717.4725,W,53.48,330.44,020310,,*28
$GPRMC,200136.186,A,3339.2400,N,11717.4813,W,53.51,330.46,020310,,*2B
$GPRMC,200137.186,A,3339.2530,N,11717.4900,W,53.43,330.30,020310,,*29
$GPRMC,200138.186,A,3339.2659,N,11717.4989,W,53.40,330.33,020310,,*2B
$GPRMC,200139.186,A,3339.2791,N,11717.5076,W,53.44,330.20,020310,,*21
$GPRMC,200140.186,A,3339.2922,N,11717.5164,W,53.60,330.18,020310,,*26
$GPRMC,200142.186,A,3339.3179,N,11717.5346,W,53.62,329.44,020310,,*22
$GPRMC,200143.186,A,3339.3306,N,11717.5438,W,53.63,329.12,020310,,*25
$GPRMC,200144.186,A,3339.3434,N,11717.5530,W,53.61,328.57,020310,,*2F
$GPRMC,200145.186,A,3339.3559,N,11717.5625,W,53.60,327.91,020310,,*27
$GPRMC,200148.185,A,3339.3933,N,11717.5912,W,53.51,327.29,020310,,*23
$GPRMC,200149.185,A,3339.4057,N,11717.6009,W,53.44,326.99,020310,,*20
$GPRMC,200150.185,A,3339.4182,N,11717.6106,W,53.46,326.82,020310,,*27
$GPRMC,200151.185,A,3339.4306,N,11717.6204,W,53.50,326.69,020310,,*2B
$GPRMC,200152.185,A,3339.4429,N,11717.6303,W,53.58,326.23,020310,,*22
$GPRMC,200153.185,A,3339.4552,N,11717.6404,W,53.71,325.52,020310,,*20
$GPRMC,200154.185,A,3339.4674,N,11717.6507,W,53.75,325.15,020310,,*25
$GPRMC,200155.185,A,3339.4795,N,11717.6610,W,53.81,324.99,020310,,*21
$GPRMC,200157.185,A,3339.5039,N,11717.6820,W,53.82,324.54,020310,,*2C
$GPRMC,200158.185,A,3339.5162,N,11717.6925,W,53.65,324.27,020310,,*25
$GPRMC,200159.185,A,3339.5283,N,11717.7029,W,53.37,323.85,020310,,*24
$GPRMC,200200.185,A,3339.5403,N,11717.7134,W,53.47,323.46,020310,,*20
$GPRMC,200203.184,A,3339.5758,N,11717.7456,W,53.40,322.78,020310,,*25
$GPRMC,200204.184,A,3339.5874,N,11717.7564,W,53.45,322.96,020310,,*26
$GPRMC,200205.184,A,3339.5992,N,11717.7672,W,53.52,322.83,020310,,*28
$GPRMC,200206.184,A,3339.6108,N,11717.7782,W,53.57,322.43,020310,,*24
$GPRMC,200207.184,A,3339.6224,N,11717.7892,W,53.50,321.85,020310,,*28
$GPRMC,200208.184,A,3339.6341,N,11717.8003,W,53.51,321.66,020310,,*26
$GPRMC,200209.184,A,3339.6457,N,11717.8114,W,53.60,321.25,020310,,*25
$GPRMC,200210.184,A,3339.6573,N,11717.8226,W,53.62,320.92,020310,,*27
$GPRMC,200212.184,A,3339.6801,N,11717.8455,W,53.55,320.16,020310,,*27
$GPRMC,200213.184,A,3339.6915,N,11717.8570,W,53.50,320.07,020310,,*21
$GPRMC,200214.184,A,3339.7030,N,11717.8685,W,53.43,319.89,020310,,*2E
$GPRMC,200215.184,A,3339.7142,N,11717.8801,W,53.42,319.54,020310,,*28
$GPRMC,200218.183,A,3339.7478,N,11717.9151,W,53.23,318.35,020310,,*22
$GPRMC,200219.183,A,3339.7587,N,11717.9270,W,53.06,317.65,020310,,*2F
$GPRMC,200220.183,A,3339.7697,N,11717.9389,W,53.24,317.87,020310,,*2C
$GPRMC,200221.183,A,3339.7806,N,11717.9508,W,53.19,317.59,020310,,*29
$GPRMC,200222.183,A,3339.7915,N,11717.9629,W,53.29,316.86,020310,,*29
$GPRMC,200223.183,A,3339.8021,N,11717.9751,W,53.14,315.84,020310,,*28
$GPRMC,200224.183,A,3339.8126,N,11717.9876,W,53.06,315.01,020310,,*2D
$GPRMC,200225.183,A,3339.8228,N,11718.0002,W,53.07,314.86,020310,,*23
$GPRMC,200227.183,A,3339.8447,N,11718.0250,W,53.17,314.73,020310,,*20
$GPRMC,200228.183,A,3339.8551,N,11718.0376,W,53.21,314.41,020310,,*28
$GPRMC,200229.183,A,3339.8656,N,11718.0502,W,53.22,314.62,020310,,*2A
$GPRMC,200230.183,A,3339.8760,N,11718.0628,W,53.16,314.50,020310,,*2B
$GPRMC,200233.182,A,3339.9073,N,11718.1008,W,53.24,314.15,020310,,*28
$GPRMC,200234.182,A,3339.9176,N,11718.1135,W,53.08,313.95,020310,,*25
$GPRMC,200235.182,A,3339.9278,N,11718.1262,W,52.91,313.74,020310,,*26
$GPRMC,200236.182,A,3339.9379,N,11718.1391,W,52.94,312.84,020310,,*23
$GPRMC,200237.182,A,3339.9479,N,11718.1520,W,52.80,312.60,020310,,*26
$GPRMC,200238.182,A,3339.9580,N,11718.1649,W,52.77,312.83,020310,,*27
$GPRMC,200239.182,A,3339.9679,N,11718.1777,W,52.73,312.65,020310,,*23
$GPRMC,200240.182,A,3339.9778,N,11718.1908,W,52.81,312.04,020310,,*21
$GPRMC,200242.182,A,3339.9972,N,11718.2172,W,52.80,311.04,020310,,*23
$GPRMC,200243.182,A,3340.0069,N,11718.2305,W,52.81,310.70,020310,,*27
$GPRMC,200244.182,A,3340.0165,N,11718.2438,W,52.91,310.77,020310,,*22
$GPRMC,200245.182,A,3340.0261,N,11718.2572,W,53.04,310.54,020310,,*27
$GPRMC,200248.181,A,3340.0546,N,11718.2979,W,53.22,309.48,020310,,*2D
$GPRMC,200249.181,A,3340.0640,N,11718.3117,W,53.37,309.18,020310,,*29
$GPRMC,200250.181,A,3340.0734,N,11718.3255,W,53.46,308.98,020310,,*29
$GPRMC,200251.181,A,3340.0827,N,11718.3394,W,53.56,308.66,020310,,*29
$GPRMC,200252.181,A,3340.0920,N,11718.3534,W,53.65,308.30,020310,,*23
$GPRMC,200253.181,A,3340.1012,N,11718.3675,W,53.74,307.84,020310,,*2D
$GPRMC,200254.181,A,3340.1103,N,11718.3816,W,53.76,307.57,020310,,*2C
$GPRMC,200255.181,A,3340.1194,N,11718.3958,W,53.74,307.43,020310,,*2F
$GPRMC,200257.181,A,3340.1373,N,11718.4242,W,53.30,306.87,020310,,*28
$GPRMC,200258.181,A,3340.1459,N,11718.4383,W,52.33,306.09,020310,,*20
$GPRMC,200259.181,A,3340.1547,N,11718.4525,W,53.03,306.51,020310,,*2A
$GPRMC,200300.181,A,3340.1635,N,11718.4667,W,53.15,306.20,020310,,*25
$GPRMC,200303.181,A,3340.1893,N,11718.5101,W,53.43,304.96,020310,,*2E
$GPRMC,200304.180,A,3340.1978,N,11718.5247,W,53.46,304.67,020310,,*26
$GPRMC,200305.180,A,3340.2062,N,11718.5394,W,53.38,304.37,020310,,*25
$GPRMC,200306.180,A,3340.2146,N,11718.5541,W,53.37,304.17,020310,,*22
$GPRMC,200307.180,A,3340.2228,N,11718.5688,W,53.28,303.76,020310,,*20
$GPRMC,200308.180,A,3340.2310,N,11718.5836,W,53.31,303.63,020310,,*22
$GPRMC,200309.180,A,3340.2393,N,11718.5984,W,53.35,303.59,020310,,*2D
$GPRMC,200310.180,A,3340.2474,N,11718.6133,W,53.42,303.12,020310,,*23
$GPRMC,200312.180,A,3340.2635,N,11718.6434,W,53.61,302.32,020310,,*26
$GPRMC,200313.180,A,3340.2714,N,11718.6586,W,53.54,301.93,020310,,*23
$GPRMC,200314.180,A,3340.2793,N,11718.6737,W,53.47,301.82,020310,,*21
$GPRMC,200315.180,A,3340.2870,N,11718.6889,W,53.40,301.51,020310,,*21
$GPRMC,200318.180,A,3340.3099,N,11718.7347,W,53.40,300.39,020310,,*25
$GPRMC,200319.179,A,3340.3175,N,11718.7501,W,53.41,300.26,020310,,*2A
$GPRMC,200320.179,A,3340.3249,N,11718.7656,W,53.50,300.05,020310,,*2C
$GPRMC,200321.179,A,3340.3324,N,11718.7811,W,53.62,299.83,020310,,*24
$GPRMC,200322.179,A,3340.3396,N,11718.7968,W,53.61,299.04,020310,,*2D
$GPRMC,200323.179,A,3340.3468,N,11718.8126,W,53.59,298.87,020310,,*26
$GPRMC,200324.179,A,3340.3539,N,11718.8283,W,53.54,298.79,020310,,*24
$GPRMC,200325.179,A,3340.3609,N,11718.8441,W,53.45,298.35,020310,,*25
$GPRMC,200327.179,A,3340.3745,N,11718.8757,W,53.25,297.55,020310,,*25
$GPRMC,200328.179,A,3340.3813,N,11718.8916,W,53.34,297.60,020310,,*2B
$GPRMC,200329.179,A,3340.3881,N,11718.9075,W,53.49,297.18,020310,,*29
$GPRMC,200330.179,A,3340.3947,N,11718.9235,W,53.64,296.90,020310,,*22
$GPRMC,200333.179,A,3340.4143,N,11718.9718,W,53.55,295.80,020310,,*20
$GPRMC,200334.178,A,3340.4207,N,11718.9880,W,53.50,295.48,020310,,*2A
$GPRMC,200335.178,A,3340.4271,N,11719.0042,W,53.51,295.53,020310,,*2F
$GPRMC,200336.178,A,3340.4334,N,11719.0203,W,53.52,295.33,020310,,*2E
$GPRMC,200337.178,A,3340.4398,N,11719.0364,W,53.48,295.55,020310,,*22
$GPRMC,200338.178,A,3340.4462,N,11719.0526,W,53.55,295.42,020310,,*25
$GPRMC,200339.178,A,3340.4526,N,11719.0687,W,53.53,295.53,020310,,*2B
$GPRMC,200340.178,A,3340.4591,N,11719.0848,W,53.44,296.05,020310,,*22
$GPRMC,200342.178,A,3340.4726,N,11719.1166,W,53.60,297.03,020310,,*2B
$GPRMC,200343.178,A,3340.4795,N,11719.1325,W,53.49,297.86,020310,,*21
$GPRMC,200344.178,A,3340.4866,N,11719.1481,W,53.55,298.82,020310,,*2A
$GPRMC,200345.178,A,3340.4939,N,11719.1637,W,53.63,299.36,020310,,*24
$GPRMC,200348.178,A,3340.5167,N,11719.2096,W,53.60,301.64,020310,,*21
$GPRMC,200349.178,A,3340.5246,N,11719.2247,W,53.50,302.10,020310,,*2D
$GPRMC,200350.177,A,3340.5327,N,11719.2395,W,53.40,302.99,020310,,*22
$GPRMC,200351.177,A,3340.5410,N,11719.2543,W,53.39,303.72,020310,,*27
$GPRMC,200352.177,A,3340.5495,N,11719.2689,W,53.51,304.55,020310,,*20
$GPRMC,200353.177,A,3340.5581,N,11719.2833,W,53.39,305.46,020310,,*27
$GPRMC,200354.177,A,3340.5669,N,11719.2976,W,53.41,306.19,020310,,*23
$GPRMC,200355.177,A,3340.5758,N,11719.3118,W,53.49,306.77,020310,,*20
$GPRMC,200357.177,A,3340.5943,N,11719.3398,W,53.61,308.17,020310,,*2E
$GPRMC,200358.177,A,3340.6038,N,11719.3536,W,53.53,309.06,020310,,*25
$GPRMC,200359.177,A,3340.6133,N,11719.3673,W,53.58,309.57,020310,,*23
$GPRMC,200400.177,A,3340.6230,N,11719.3809,W,53.59,309.95,020310,,*24
$GPRMC,200403.177,A,3340.6529,N,11719.4209,W,53.39,312.60,020310,,*23
$GPRMC,200404.177,A,3340.6631,N,11719.4338,W,53.36,313.13,020310,,*27
$GPRMC,200405.176,A,3340.6735,N,11719.4467,W,53.47,313.94,020310,,*26
$GPRMC,200406.176,A,3340.6840,N,11719.4593,W,53.40,314.59,020310,,*23
$GPRMC,200407.176,A,3340.6948,N,11719.4717,W,53.60,315.87,020310,,*25
$GPRMC,200408.176,A,3340.7058,N,11719.4840,W,53.61,316.13,020310,,*21
$GPRMC,200409.176,A,3340.7169,N,11719.4963,W,53.66,316.53,020310,,*20
$GPRMC,200410.176,A,3340.7280,N,11719.5083,W,53.65,317.13,020310,,*2C
$GPRMC,200412.176,A,3340.7506,N,11719.5318,W,53.44,319.11,020310,,*29
$GPRMC,200413.176,A,3340.7621,N,11719.5432,W,53.45,319.92,020310,,*2B
$GPRMC,200414.176,A,3340.7736,N,11719.5545,W,53.38,320.34,020310,,*26
$GPRMC,200415.176,A,3340.7853,N,11719.5656,W,53.32,321.13,020310,,*24
$GPRMC,200418.176,A,3340.8208,N,11719.5981,W,53.39,322.34,020310,,*2A
$GPRMC,200419.176,A,3340.8326,N,11719.6088,W,53.33,322.52,020310,,*2F
$GPRMC,200420.175,A,3340.8446,N,11719.6194,W,53.33,322.92,020310,,*27
$GPRMC,200421.175,A,3340.8565,N,11719.6301,W,53.39,322.76,020310,,*28
$GPRMC,200422.175,A,3340.8684,N,11719.6408,W,53.34,322.78,020310,,*2A
$GPRMC,200423.175,A,3340.8804,N,11719.6513,W,53.37,323.57,020310,,*29
$GPRMC,200424.175,A,3340.8925,N,11719.6616,W,53.33,324.40,020310,,*2F
$GPRMC,200425.175,A,3340.9046,N,11719.6718,W,53.25,324.85,020310,,*22
$GPRMC,200427.175,A,3340.9287,N,11719.6926,W,53.40,323.57,020310,,*27
$GPRMC,200428.175,A,3340.9407,N,11719.7032,W,53.32,322.97,020310,,*23
$GPRMC,200429.175,A,3340.9525,N,11719.7139,W,53.29,322.69,020310,,*22
$GPRMC,200430.175,A,3340.9644,N,11719.7247,W,53.35,322.48,020310,,*2A
$GPRMC,200433.175,A,3340.9997,N,11719.7573,W,53.33,322.51,020310,,*26
$GPRMC,200434.175,A,3341.0116,N,11719.7680,W,53.30,322.99,020310,,*20
$GPRMC,200435.175,A,3341.0234,N,11719.7787,W,53.25,322.72,020310,,*25
$GPRMC,200436.174,A,3341.0353,N,11719.7895,W,53.23,322.68,020310,,*26
$GPRMC,200437.174,A,3341.0472,N,11719.8002,W,53.26,322.91,020310,,*29
$GPRMC,200438.174,A,3341.0591,N,11719.8108,W,53.31,323.05,020310,,*2B
$GPRMC,200439.174,A,3341.0710,N,11719.8215,W,53.44,323.18,020310,,*20
$GPRMC,200440.174,A,3341.0831,N,11719.8321,W,53.59,323.31,020310,,*23
$GPRMC,200442.174,A,3341.1075,N,11719.8535,W,53.54,322.52,020310,,*22
$GPRMC,200443.174,A,3341.1193,N,11719.8644,W,53.45,322.50,020310,,*2D
$GPRMC,200444.174,A,3341.1310,N,11719.8753,W,53.32,322.62,020310,,*25
$GPRMC,200445.174,A,3341.1428,N,11719.8860,W,53.35,323.01,020310,,*24
$GPRMC,200448.174,A,3341.1781,N,11719.9183,W,53.27,322.88,020310,,*2F
$GPRMC,200449.174,A,3341.1899,N,11719.9290,W,53.45,322.71,020310,,*2B
$GPRMC,200450.174,A,3341.2017,N,11719.9398,W,53.53,322.76,020310,,*27
$GPRMC,200451.173,A,3341.2135,N,11719.9506,W,53.58,322.75,020310,,*29
$GPRMC,200452.173,A,3341.2254,N,11719.9614,W,53.58,322.67,020310,,*2D
$GPRMC,200453.173,A,3341.2373,N,11719.9722,W,53.45,322.62,020310,,*25
$GPRMC,200454.173,A,3341.2490,N,11719.9831,W,53.36,322.58,020310,,*28
$GPRMC,200455.173,A,3341.2607,N,11719.9939,W,53.31,322.68,020310,,*28
$GPRMC,200457.173,A,3341.2842,N,11720.0154,W,53.26,322.68,020310,,*23
$GPRMC,200458.173,A,3341.2961,N,11720.0260,W,53.32,322.65,020310,,*20
$GPRMC,200459.173,A,3341.3079,N,11720.0367,W,53.33,322.43,020310,,*23
$GPRMC,200500.173,A,3341.3197,N,11720.0475,W,53.26,322.67,020310,,*29
$GPRMC,200503.173,A,3341.3554,N,11720.0793,W,53.31,322.30,020310,,*2E
$GPRMC,200504.173,A,3341.3671,N,11720.0902,W,53.26,322.18,020310,,*27
$GPRMC,200505.173,A,3341.3788,N,11720.1012,W,53.29,322.32,020310,,*2F
$GPRMC,200506.173,A,3341.3905,N,11720.1120,W,53.19,322.47,020310,,*26
$GPRMC,200507.172,A,3341.4022,N,11720.1229,W,53.33,322.48,020310,,*20
$GPRMC,200508.172,A,3341.4139,N,11720.1337,W,53.27,322.66,020310,,*23
$GPRMC,200509.172,A,3341.4258,N,11720.1444,W,53.37,322.79,020310,,*2A
$GPRMC,200510.172,A,3341.4377,N,11720.1551,W,53.48,322.74,020310,,*2E
$GPRMC,200512.172,A,3341.4614,N,11720.1767,W,53.46,322.25,020310,,*21
$GPRMC,200513.172,A,3341.4732,N,11720.1875,W,53.40,322.28,020310,,*22
$GPRMC,200514.172,A,3341.4849,N,11720.1984,W,53.29,322.31,020310,,*2E
$GPRMC,200515.172,A,3341.4966,N,11720.2093,W,53.30,322.09,020310,,*2C
$GPRMC,200518.172,A,3341.5313,N,11720.2429,W,53.56,319.95,020310,,*20
$GPRMC,200519.172,A,3341.5427,N,11720.2544,W,53.52,319.82,020310,,*29
$GPRMC,200520.172,A,3341.5540,N,11720.2660,W,53.71,319.19,020310,,*25
$GPRMC,200521.172,A,3341.5653,N,11720.2778,W,53.77,318.76,020310,,*23
$GPRMC,200522.171,A,3341.5764,N,11720.2897,W,53.52,318.09,020310,,*27
$GPRMC,200523.171,A,3341.5874,N,11720.3017,W,53.37,317.61,020310,,*2B
$GPRMC,200524.171,A,3341.5982,N,11720.3139,W,53.38,316.92,020310,,*2B
$GPRMC,200525.171,A,3341.6089,N,11720.3262,W,53.57,316.26,020310,,*20
$GPRMC,200527.171,A,3341.6300,N,11720.3512,W,53.49,315.30,020310,,*2B
$GPRMC,200528.171,A,3341.6405,N,11720.3639,W,53.59,314.88,020310,,*2F
$GPRMC,200529.171,A,3341.6508,N,11720.3766,W,53.60,314.36,020310,,*26
$GPRMC,200530.171,A,3341.6610,N,11720.3895,W,53.59,313.89,020310,,*2E
$GPRMC,200533.171,A,3341.6912,N,11720.4287,W,53.25,312.34,020310,,*22
$GPRMC,200534.171,A,3341.7011,N,11720.4418,W,53.24,311.91,020310,,*23
$GPRMC,200535.171,A,3341.7109,N,11720.4551,W,53.27,311.36,020310,,*28
$GPRMC,200536.171,A,3341.7206,N,11720.4685,W,53.50,310.88,020310,,*29
$GPRMC,200537.170,A,3341.7303,N,11720.4820,W,53.55,310.26,020310,,*2D
$GPRMC,200538.170,A,3341.7398,N,11720.4958,W,53.70,309.28,020310,,*2F
$GPRMC,200539.170,A,3341.7492,N,11720.5099,W,53.75,308.25,020310,,*2F
$GPRMC,200540.170,A,3341.7583,N,11720.5241,W,53.68,307.41,020310,,*26
$GPRMC,200542.170,A,3341.7763,N,11720.5527,W,53.36,307.43,020310,,*26
$GPRMC,200543.170,A,3341.7857,N,11720.5668,W,53.18,308.47,020310,,*20
$GPRMC,200544.170,A,3341.7950,N,11720.5808,W,53.32,308.32,020310,,*23
$GPRMC,200545.170,A,3341.8043,N,11720.5949,W,53.22,308.18,020310,,*2B
$GPRMC,200548.170,A,3341.8318,N,11720.6371,W,53.16,308.16,020310,,*20
$GPRMC,200549.170,A,3341.8410,N,11720.6510,W,52.47,307.41,020310,,*27
$GPRMC,200550.170,A,3341.8502,N,11720.6650,W,53.11,308.03,020310,,*21
$GPRMC,200551.170,A,3341.8596,N,11720.6790,W,53.43,308.29,020310,,*2F
$GPRMC,200552.170,A,3341.8689,N,11720.6929,W,53.44,308.54,020310,,*20
$GPRMC,200553.169,A,3341.8784,N,11720.7068,W,53.55,308.71,020310,,*2F
$GPRMC,200554.169,A,3341.8879,N,11720.7208,W,53.61,308.52,020310,,*27
$GPRMC,200555.169,A,3341.8971,N,11720.7348,W,53.47,308.41,020310,,*2C
$GPRMC,200557.169,A,3341.9157,N,11720.7626,W,53.16,308.55,020310,,*2F
$GPRMC,200558.169,A,3341.9249,N,11720.7765,W,53.17,308.60,020310,,*2D
$GPRMC,200559.169,A,3341.9340,N,11720.7904,W,53.16,308.50,020310,,*2F
$GPRMC,200600.169,A,3341.9431,N,11720.8042,W,53.12,308.26,020310,,*20
$GPRMC,200603.169,A,3341.9705,N,11720.8461,W,53.37,308.27,020310,,*24
$GPRMC,200604.169,A,3341.9801,N,11720.8601,W,53.52,308.43,020310,,*2D
$GPRMC,200605.169,A,3341.9894,N,11720.8740,W,53.46,308.48,020310,,*2A
$GPRMC,200606.169,A,3341.9985,N,11720.8879,W,53.39,308.53,020310,,*2F
$GPRMC,200607.169,A,3342.0076,N,11720.9018,W,53.31,308.30,020310,,*22
$GPRMC,200608.168,A,3342.0167,N,11720.9157,W,53.24,308.40,020310,,*24
$GPRMC,200609.168,A,3342.0260,N,11720.9295,W,53.21,308.62,020310,,*29
$GPRMC,200610.168,A,3342.0352,N,11720.9434,W,53.27,308.64,020310,,*2C
$GPRMC,200612.168,A,3342.0536,N,11720.9711,W,53.32,308.71,020310,,*2E
$GPRMC,200613.168,A,3342.0628,N,11720.9849,W,53.41,308.65,020310,,*20
$GPRMC,200614.168,A,3342.0720,N,11720.9988,W,53.42,308.53,020310,,*24
$GPRMC,200615.168,A,3342.0812,N,11721.0128,W,53.38,308.51,020310,,*2E
$GPRMC,200618.168,A,3342.1088,N,11721.0546,W,53.23,308.13,020310,,*29
$GPRMC,200619.168,A,3342.1180,N,11721.0685,W,53.24,308.33,020310,,*28
$GPRMC,200620.168,A,3342.1273,N,11721.0823,W,53.27,308.90,020310,,*25
$GPRMC,200621.168,A,3342.1367,N,11721.0961,W,53.40,309.49,020310,,*23
$GPRMC,200622.168,A,3342.1462,N,11721.1098,W,53.53,309.94,020310,,*2E
$GPRMC,200623.168,A,3342.1558,N,11721.1235,W,53.57,310.10,020310,,*22
$GPRMC,200624.167,A,3342.1654,N,11721.1372,W,53.63,309.87,020310,,*26
$GPRMC,200625.167,A,3342.1749,N,11721.1509,W,53.44,309.49,020310,,*27
$GPRMC,200627.167,A,3342.1935,N,11721.1785,W,53.44,308.85,020310,,*27
$GPRMC,200628.167,A,3342.2028,N,11721.1924,W,53.30,308.58,020310,,*28
$GPRMC,200629.167,A,3342.2119,N,11721.2063,W,53.27,308.39,020310,,*22
$GPRMC,200630.167,A,3342.2209,N,11721.2203,W,53.33,308.15,020310,,*27
$GPRMC,200633.167,A,3342.2487,N,11721.2620,W,53.57,308.75,020310,,*25
$GPRMC,200634.167,A,3342.2581,N,11721.2758,W,53.76,309.53,020310,,*2D
$GPRMC,200635.167,A,3342.2676,N,11721.2895,W,53.51,309.82,020310,,*20
$GPRMC,200636.167,A,3342.2773,N,11721.3030,W,53.30,311.00,020310,,*25
$GPRMC,200637.167,A,3342.2873,N,11721.3162,W,53.19,312.67,020310,,*24
$GPRMC,200638.167,A,3342.2974,N,11721.3291,W,53.05,313.23,020310,,*2E
$GPRMC,200639.166,A,3342.3079,N,11721.3419,W,53.39,314.11,020310,,*24
$GPRMC,200640.166,A,3342.3187,N,11721.3544,W,53.50,315.23,020310,,*2C
$GPRMC,200642.166,A,3342.3406,N,11721.3788,W,53.54,317.58,020310,,*2A
$GPRMC,200643.166,A,3342.3517,N,11721.3905,W,53.28,318.98,020310,,*29
$GPRMC,200644.166,A,3342.3630,N,11721.4018,W,53.16,319.87,020310,,*28
$GPRMC,200645.166,A,3342.3745,N,11721.4129,W,53.04,320.82,020310,,*25
$GPRMC,200648.166,A,3342.4100,N,11721.4452,W,53.30,323.75,020310,,*2D
$GPRMC,200649.166,A,3342.4222,N,11721.4555,W,53.43,325.16,020310,,*2E
$GPRMC,200650.166,A,3342.4343,N,11721.4657,W,53.32,324.33,020310,,*21
$GPRMC,200651.166,A,3342.4468,N,11721.4755,W,53.15,327.37,020310,,*2F
$GPRMC,200652.166,A,3342.4594,N,11721.4844,W,53.24,328.29,020310,,*23
$GPRMC,200653.166,A,3342.4721,N,11721.4934,W,53.30,329.21,020310,,*24
$GPRMC,200654.165,A,3342.4850,N,11721.5021,W,53.21,329.88,020310,,*26
$GPRMC,200655.165,A,3342.4980,N,11721.5106,W,53.34,330.81,020310,,*2A
$GPRMC,200657.165,A,3342.5247,N,11721.5269,W,53.37,333.04,020310,,*2E
$GPRMC,200658.165,A,3342.5381,N,11721.5345,W,53.36,334.34,020310,,*20
$GPRMC,200659.165,A,3342.5516,N,11721.5418,W,53.31,335.46,020310,,*25
$GPRMC,200700.165,A,3342.5653,N,11721.5488,W,53.23,336.27,020310,,*24
$GPRMC,200703.165,A,3342.6068,N,11721.5683,W,53.49,339.77,020310,,*25
$GPRMC,200704.165,A,3342.6210,N,11721.5741,W,53.55,340.67,020310,,*22
$GPRMC,200705.165,A,3342.6352,N,11721.5800,W,53.42,341.50,020310,,*2D
$GPRMC,200706.165,A,3342.6496,N,11721.5854,W,53.37,342.99,020310,,*24
$GPRMC,200707.165,A,3342.6638,N,11721.5906,W,53.17,343.51,020310,,*22
$GPRMC,200708.165,A,3342.6781,N,11721.5954,W,53.00,344.18,020310,,*25
$GPRMC,200709.165,A,3342.6927,N,11721.5998,W,53.66,345.81,020310,,*27
$GPRMC,200710.164,A,3342.7074,N,11721.6038,W,53.39,346.55,020310,,*20
$GPRMC,200712.164,A,3342.7367,N,11721.6112,W,53.54,347.51,020310,,*24
$GPRMC,200713.164,A,3342.7513,N,11721.6149,W,53.58,347.46,020310,,*24
$GPRMC,200714.164,A,3342.7658,N,11721.6187,W,53.41,347.18,020310,,*2E
$GPRMC,200715.164,A,3342.7803,N,11721.6226,W,53.36,346.93,020310,,*25
$GPRMC,200718.164,A,3342.8234,N,11721.6346,W,53.40,345.92,020310,,*2D
$GPRMC,200719.164,A,3342.8378,N,11721.6390,W,53.64,345.14,020310,,*26
$GPRMC,200720.164,A,3342.8522,N,11721.6437,W,53.94,344.74,020310,,*27
$GPRMC,200721.164,A,3342.8667,N,11721.6486,W,54.02,343.90,020310,,*2B
$GPRMC,200722.164,A,3342.8811,N,11721.6536,W,53.68,342.98,020310,,*2F
$GPRMC,200723.164,A,3342.8954,N,11721.6589,W,53.70,342.29,020310,,*29
$GPRMC,200724.164,A,3342.9097,N,11721.6645,W,53.48,341.12,020310,,*2A
$GPRMC,200725.163,A,3342.9238,N,11721.6701,W,53.58,341.20,020310,,*2A
$GPRMC,200727.163,A,3342.9520,N,11721.6817,W,53.25,339.66,020310,,*29
$GPRMC,200728.163,A,3342.9659,N,11721.6881,W,53.37,338.67,020310,,*27
$GPRMC,200729.163,A,3342.9797,N,11721.6948,W,53.42,337.36,020310,,*28
$GPRMC,200730.163,A,3342.9934,N,11721.7017,W,53.58,337.06,020310,,*2D
$GPRMC,200733.163,A,3343.0339,N,11721.7239,W,53.43,335.13,020310,,*23
$GPRMC,200734.163,A,3343.0472,N,11721.7317,W,53.40,334.31,020310,,*23
$GPRMC,200735.163,A,3343.0605,N,11721.7396,W,53.13,333.21,020310,,*29
$GPRMC,200736.163,A,3343.0736,N,11721.7477,W,52.99,332.78,020310,,*2D
$GPRMC,200737.163,A,3343.0869,N,11721.7559,W,53.22,332.05,020310,,*2F
$GPRMC,200738.163,A,3343.0999,N,11721.7645,W,53.25,330.93,020310,,*2A
$GPRMC,200739.163,A,3343.1129,N,11721.7733,W,53.41,330.53,020310,,*27
$GPRMC,200740.163,A,3343.1259,N,11721.7822,W,53.61,329.76,020310,,*2F
$GPRMC,200742.162,A,3343.1515,N,11721.8008,W,53.34,328.38,020310,,*27
$GPRMC,200743.162,A,3343.1640,N,11721.8104,W,53.43,327.67,020310,,*2D
$GPRMC,200744.162,A,3343.1764,N,11721.8202,W,53.37,326.84,020310,,*27
$GPRMC,200745.162,A,3343.1888,N,11721.8301,W,53.34,326.19,020310,,*2E
$GPRMC,200748.162,A,3343.2255,N,11721.8606,W,53.58,324.01,020310,,*29
$GPRMC,200749.162,A,3343.2375,N,11721.8713,W,53.47,323.05,020310,,*23
$GPRMC,200750.162,A,3343.2493,N,11721.8821,W,53.12,321.54,020310,,*2C
$GPRMC,200751.162,A,3343.2610,N,11721.8931,W,53.44,321.49,020310,,*2B
$GPRMC,200752.162,A,3343.2727,N,11721.9042,W,53.55,320.78,020310,,*22
$GPRMC,200753.162,A,3343.2842,N,11721.9155,W,53.45,320.22,020310,,*26
$GPRMC,200754.162,A,3343.2955,N,11721.9270,W,53.41,319.77,020310,,*2C
$GPRMC,200755.162,A,3343.3067,N,11721.9387,W,53.32,318.79,020310,,*26
$GPRMC,200757.161,A,3343.3286,N,11721.9626,W,53.47,317.43,020310,,*20
$GPRMC,200758.161,A,3343.3395,N,11721.9748,W,53.48,316.68,020310,,*22
$GPRMC,200759.161,A,3343.3502,N,11721.9872,W,53.57,315.95,020310,,*22
$GPRMC,200800.161,A,3343.3606,N,11721.9999,W,53.55,314.83,020310,,*26
$GPRMC,200803.161,A,3343.3912,N,11722.0390,W,53.46,313.01,020310,,*29
$GPRMC,200804.161,A,3343.4011,N,11722.0523,W,53.33,312.57,020310,,*2D
$GPRMC,200805.161,A,3343.4110,N,11722.0657,W,53.39,311.88,020310,,*27
$GPRMC,200806.161,A,3343.4207,N,11722.0791,W,53.37,310.98,020310,,*24
$GPRMC,200807.161,A,3343.4303,N,11722.0927,W,53.39,309.71,020310,,*22
$GPRMC,200808.161,A,3343.4398,N,11722.1065,W,53.50,309.11,020310,,*28
$GPRMC,200809.161,A,3343.4492,N,11722.1205,W,53.54,308.73,020310,,*21
$GPRMC,200810.161,A,3343.4584,N,11722.1345,W,53.52,308.08,020310,,*20
$GPRMC,200812.160,A,3343.4761,N,11722.1629,W,53.45,306.45,020310,,*24
$GPRMC,200813.160,A,3343.4849,N,11722.1772,W,53.35,305.74,020310,,*29
$GPRMC,200814.160,A,3343.4935,N,11722.1917,W,53.21,305.20,020310,,*2D
$GPRMC,200815.160,A,3343.5019,N,11722.2063,W,53.09,304.49,020310,,*27
$GPRMC,200818.160,A,3343.5258,N,11722.2510,W,53.52,301.73,020310,,*2E
$GPRMC,200819.160,A,3343.5336,N,11722.2662,W,53.60,301.52,020310,,*22
$GPRMC,200820.160,A,3343.5413,N,11722.2816,W,53.61,300.99,020310,,*22
$GPRMC,200821.160,A,3343.5487,N,11722.2971,W,53.51,299.69,020310,,*23
$GPRMC,200822.160,A,3343.5560,N,11722.3127,W,53.43,298.81,020310,,*26
$GPRMC,200823.160,A,3343.5627,N,11722.3287,W,53.39,297.93,020310,,*2F
$GPRMC,200824.160,A,3343.5695,N,11722.3445,W,53.30,297.26,020310,,*2E
$GPRMC,200825.160,A,3343.5762,N,11722.3604,W,53.31,296.82,020310,,*2F
$GPRMC,200827.159,A,3343.5890,N,11722.3925,W,53.44,295.53,020310,,*24
$GPRMC,200828.159,A,3343.5952,N,11722.4087,W,53.50,294.79,020310,,*2E
$GPRMC,200829.159,A,3343.6012,N,11722.4251,W,53.54,294.13,020310,,*20
$GPRMC,200830.159,A,3343.6070,N,11722.4415,W,53.55,293.24,020310,,*28
$GPRMC,200833.159,A,3343.6235,N,11722.4912,W,53.45,291.15,020310,,*23
$GPRMC,200834.159,A,3343.6286,N,11722.5080,W,53.41,290.24,020310,,*28
$GPRMC,200835.159,A,3343.6336,N,11722.5248,W,53.38,289.58,020310,,*28
$GPRMC,200836.159,A,3343.6383,N,11722.5417,W,53.42,289.01,020310,,*28
$GPRMC,200837.159,A,3343.6429,N,11722.5588,W,53.48,288.23,020310,,*22
$GPRMC,200838.159,A,3343.6472,N,11722.5759,W,53.59,287.56,020310,,*20
$GPRMC,200839.159,A,3343.6514,N,11722.5930,W,53.60,286.85,020310,,*24
$GPRMC,200840.159,A,3343.6554,N,11722.6102,W,53.50,286.07,020310,,*2D
$GPRMC,200842.158,A,3343.6628,N,11722.6448,W,53.42,284.32,020310,,*2A
$GPRMC,200843.158,A,3343.6663,N,11722.6621,W,53.43,283.82,020310,,*24
$GPRMC,200844.158,A,3343.6697,N,11722.6796,W,53.96,283.49,020310,,*2A
$GPRMC,200845.158,A,3343.6731,N,11722.6970,W,53.64,283.20,020310,,*22
$GPRMC,200848.158,A,3343.6833,N,11722.7493,W,53.65,283.74,020310,,*23
$GPRMC,200849.158,A,3343.6868,N,11722.7667,W,53.56,283.97,020310,,*28
$GPRMC,200850.158,A,3343.6903,N,11722.7840,W,53.38,283.88,020310,,*21
$GPRMC,200851.158,A,3343.6937,N,11722.8013,W,53.36,283.36,020310,,*2D
$GPRMC,200852.158,A,3343.6971,N,11722.8186,W,53.36,283.42,020310,,*22
$GPRMC,200853.158,A,3343.7005,N,11722.8359,W,53.46,283.48,020310,,*25
$GPRMC,200854.158,A,3343.7039,N,11722.8534,W,53.72,283.28,020310,,*21
$GPRMC,200855.158,A,3343.7073,N,11722.8708,W,53.73,283.43,020310,,*2F
$GPRMC,200857.158,A,3343.7142,N,11722.9055,W,53.50,283.59,020310,,*2A
$GPRMC,200858.157,A,3343.7176,N,11722.9228,W,53.42,283.76,020310,,*2B
$GPRMC,200859.157,A,3343.7211,N,11722.9401,W,53.44,283.50,020310,,*27
$GPRMC,200900.157,A,3343.7245,N,11722.9575,W,53.59,283.19,020310,,*28
$GPRMC,200903.157,A,3343.7347,N,11723.0095,W,53.49,283.66,020310,,*22
$GPRMC,200904.157,A,3343.7383,N,11723.0268,W,53.52,283.89,020310,,*26
$GPRMC,200905.157,A,3343.7418,N,11723.0441,W,53.64,283.86,020310,,*25
$GPRMC,200906.157,A,3343.7454,N,11723.0615,W,53.62,283.88,020310,,*25
$GPRMC,200907.157,A,3343.7489,N,11723.0788,W,53.57,283.65,020310,,*24
$GPRMC,200908.157,A,3343.7523,N,11723.0961,W,53.49,283.22,020310,,*2F
$GPRMC,200909.157,A,3343.7555,N,11723.1134,W,53.27,282.86,020310,,*21
$GPRMC,200910.157,A,3343.7589,N,11723.1306,W,53.18,283.47,020310,,*2B
$GPRMC,200912.157,A,3343.7658,N,11723.1651,W,53.33,283.39,020310,,*21
$GPRMC,200913.156,A,3343.7692,N,11723.1824,W,53.47,283.41,020310,,*27
$GPRMC,200914.156,A,3343.7726,N,11723.1997,W,53.52,283.42,020310,,*20
$GPRMC,200915.156,A,3343.7761,N,11723.2170,W,53.53,283.69,020310,,*28
$GPRMC,200918.156,A,3343.7864,N,11723.2687,W,53.05,283.51,020310,,*28
$GPRMC,200919.156,A,3343.7897,N,11723.2859,W,53.14,283.42,020310,,*2A
$GPRMC,200920.156,A,3343.7931,N,11723.3032,W,53.18,283.40,020310,,*27
$GPRMC,200921.156,A,3343.7963,N,11723.3205,W,53.32,282.37,020310,,*2E
$GPRMC,200922.156,A,3343.7991,N,11723.3380,W,53.42,281.09,020310,,*25
$GPRMC,200923.156,A,3343.8018,N,11723.3556,W,53.66,280.16,020310,,*27
$GPRMC,200924.156,A,3343.8041,N,11723.3732,W,53.75,279.20,020310,,*2D
$GPRMC,200925.156,A,3343.8063,N,11723.3909,W,53.66,278.16,020310,,*2C
$GPRMC,200927.156,A,3343.8096,N,11723.4264,W,53.35,275.91,020310,,*27
$GPRMC,200928.155,A,3343.8109,N,11723.4441,W,53.35,274.95,020310,,*28
$GPRMC,200929.155,A,3343.8120,N,11723.4618,W,53.26,274.28,020310,,*28
$GPRMC,200930.155,A,3343.8128,N,11723.4795,W,53.30,273.31,020310,,*24
$GPRMC,200933.155,A,3343.8136,N,11723.5329,W,53.42,269.99,020310,,*26
$GPRMC,200934.155,A,3343.8135,N,11723.5507,W,53.54,269.60,020310,,*29
$GPRMC,200935.155,A,3343.8134,N,11723.5685,W,53.57,269.71,020310,,*23
$GPRMC,200936.155,A,3343.8133,N,11723.5864,W,53.60,269.62,020310,,*20
$GPRMC,200937.155,A,3343.8132,N,11723.6042,W,53.55,269.47,020310,,*2E
$GPRMC,200938.155,A,3343.8135,N,11723.6218,W,53.58,269.37,020310,,*21
$GPRMC,200939.155,A,3343.8135,N,11723.6396,W,53.41,269.79,020310,,*25
$GPRMC,200940.155,A,3343.8136,N,11723.6573,W,53.30,270.11,020310,,*25
$GPRMC,200942.155,A,3343.8137,N,11723.6928,W,53.31,270.74,020310,,*26
$GPRMC,200943.155,A,3343.8140,N,11723.7106,W,53.75,272.13,020310,,*21
$GPRMC,200944.154,A,3343.8148,N,11723.7286,W,53.54,273.68,020310,,*2A
$GPRMC,200945.154,A,3343.8160,N,11723.7467,W,53.98,274.71,020310,,*27
$GPRMC,200948.154,A,3343.8213,N,11723.7999,W,53.77,278.74,020310,,*29
$GPRMC,200949.154,A,3343.8240,N,11723.8175,W,53.59,280.41,020310,,*26
$GPRMC,200950.154,A,3343.8271,N,11723.8349,W,53.39,281.75,020310,,*21
$GPRMC,200951.154,A,3343.8304,N,11723.8522,W,53.27,282.44,020310,,*26
$GPRMC,200952.154,A,3343.8339,N,11723.8694,W,53.15,284.06,020310,,*24
$GPRMC,200953.154,A,3343.8377,N,11723.8865,W,53.28,285.36,020310,,*23
$GPRMC,200954.154,A,3343.8418,N,11723.9035,W,53.48,286.58,020310,,*2B
$GPRMC,200955.154,A,3343.8463,N,11723.9205,W,53.58,288.10,020310,,*24
$GPRMC,200957.154,A,3343.8564,N,11723.9543,W,53.57,290.73,020310,,*26
$GPRMC,200958.154,A,3343.8619,N,11723.9708,W,53.50,291.89,020310,,*2E
$GPRMC,200959.153,A,3343.8677,N,11723.9872,W,53.38,292.99,020310,,*2E
$GPRMC,201000.153,A,3343.8737,N,11724.0034,W,53.38,294.69,020310,,*22
$GPRMC,201003.153,A,3343.8943,N,11724.0508,W,53.49,298.22,020310,,*23
$GPRMC,201004.153,A,3343.9017,N,11724.0664,W,53.46,299.04,020310,,*2E
$GPRMC,201005.153,A,3343.9091,N,11724.0819,W,53.45,299.18,020310,,*2B
$GPRMC,201006.153,A,3343.9165,N,11724.0973,W,53.49,299.36,020310,,*2F
$GPRMC,201007.153,A,3343.9237,N,11724.1127,W,53.38,299.21,020310,,*22
$GPRMC,201008.153,A,3343.9309,N,11724.1281,W,53.23,298.81,020310,,*2F
$GPRMC,201009.153,A,3343.9380,N,11724.1436,W,53.29,298.48,020310,,*2A
$GPRMC,201010.153,A,3343.9449,N,11724.1592,W,53.76,297.57,020310,,*24
$GPRMC,201012.153,A,3343.9578,N,11724.1913,W,53.57,294.70,020310,,*25
$GPRMC,201013.153,A,3343.9639,N,11724.2076,W,53.44,293.45,020310,,*28
$GPRMC,201014.153,A,3343.9696,N,11724.2240,W,53.20,292.18,020310,,*26
$GPRMC,201015.152,A,3343.9751,N,11724.2405,W,53.23,290.86,020310,,*2D
$GPRMC,201018.152,A,3343.9891,N,11724.2912,W,53.17,286.65,020310,,*25
$GPRMC,201019.152,A,3343.9932,N,11724.3083,W,53.21,285.84,020310,,*25
$GPRMC,201020.152,A,3343.9972,N,11724.3255,W,53.44,284.96,020310,,*23
$GPRMC,201021.152,A,3344.0008,N,11724.3429,W,53.62,283.57,020310,,*2B
$GPRMC,201022.152,A,3344.0040,N,11724.3604,W,53.67,282.17,020310,,*29
$GPRMC,201023.152,A,3344.0069,N,11724.3779,W,53.70,280.90,020310,,*23
$GPRMC,201024.152,A,3344.0094,N,11724.3955,W,53.64,279.51,020310,,*28
$GPRMC,201025.152,A,3344.0116,N,11724.4132,W,53.51,278.05,020310,,*2A
$GPRMC,201027.152,A,3344.0149,N,11724.4486,W,53.36,275.38,020310,,*2A
$GPRMC,201028.152,A,3344.0159,N,11724.4663,W,53.30,274.08,020310,,*29
$GPRMC,201029.152,A,3344.0168,N,11724.4840,W,53.35,273.26,020310,,*2B
$GPRMC,201030.151,A,3344.0172,N,11724.5018,W,53.39,271.87,020310,,*2A
$GPRMC,201033.151,A,3344.0167,N,11724.5553,W,53.65,268.47,020310,,*2A
$GPRMC,201034.151,A,3344.0163,N,11724.5732,W,53.66,268.41,020310,,*29
$GPRMC,201035.151,A,3344.0158,N,11724.5910,W,53.68,268.14,020310,,*20
$GPRMC,201036.151,A,3344.0153,N,11724.6088,W,53.50,268.10,020310,,*2C
$GPRMC,201037.151,A,3344.0150,N,11724.6266,W,53.38,268.55,020310,,*23
$GPRMC,201038.151,A,3344.0146,N,11724.6443,W,53.29,268.40,020310,,*2E
$GPRMC,201039.151,A,3344.0141,N,11724.6621,W,53.26,268.15,020310,,*21
$GPRMC,201040.151,A,3344.0136,N,11724.6798,W,53.36,267.98,020310,,*27
$GPRMC,201042.151,A,3344.0130,N,11724.7156,W,53.58,268.44,020310,,*20
$GPRMC,201043.151,A,3344.0125,N,11724.7335,W,53.56,268.13,020310,,*2E
$GPRMC,201044.151,A,3344.0120,N,11724.7514,W,53.55,267.84,020310,,*2B
$GPRMC,201045.150,A,3344.0115,N,11724.7693,W,53.53,268.10,020310,,*25
$GPRMC,201048.150,A,3344.0101,N,11724.8228,W,53.43,267.96,020310,,*26
$GPRMC,201049.150,A,3344.0095,N,11724.8406,W,53.39,268.04,020310,,*28
$GPRMC,201050.150,A,3344.0090,N,11724.8584,W,53.42,268.36,020310,,*23
$GPRMC,201051.150,A,3344.0088,N,11724.8762,W,53.32,269.92,020310,,*29
$GPRMC,201052.150,A,3344.0091,N,11724.8939,W,53.68,271.45,020310,,*2E
$GPRMC,201053.150,A,3344.0097,N,11724.9118,W,53.74,272.63,020310,,*29
$GPRMC,201054.150,A,3344.0108,N,11724.9293,W,53.11,274.49,020310,,*24
$GPRMC,201055.150,A,3344.0120,N,11724.9469,W,53.58,275.25,020310,,*2A
$GPRMC,201057.150,A,3344.0153,N,11724.9824,W,53.31,277.75,020310,,*21
$GPRMC,201058.150,A,3344.0177,N,11724.9999,W,53.20,280.05,020310,,*20
$GPRMC,201059.150,A,3344.0205,N,11725.0175,W,53.22,280.83,020310,,*29
$GPRMC,201100.150,A,3344.0235,N,11725.0349,W,53.41,281.76,020310,,*24
$GPRMC,201103.149,A,3344.0347,N,11725.0863,W,53.33,285.94,020310,,*25
$GPRMC,201104.149,A,3344.0389,N,11725.1034,W,53.19,286.80,020310,,*25
$GPRMC,201105.149,A,3344.0436,N,11725.1204,W,53.14,287.87,020310,,*2D
$GPRMC,201106.149,A,3344.0485,N,11725.1372,W,52.95,289.41,020310,,*2A
$GPRMC,201107.149,A,3344.0535,N,11725.1538,W,52.91,290.87,020310,,*2F
$GPRMC,201108.149,A,3344.0589,N,11725.1702,W,52.98,292.11,020310,,*28
$GPRMC,201109.149,A,3344.0647,N,11725.1864,W,52.83,293.31,020310,,*2E
$GPRMC,201110.149,A,3344.0708,N,11725.2024,W,52.80,294.83,020310,,*2E
$GPRMC,201112.149,A,3344.0843,N,11725.2336,W,53.12,297.41,020310,,*2B
$GPRMC,201113.149,A,3344.0915,N,11725.2491,W,53.11,298.98,020310,,*2A
$GPRMC,201114.149,A,3344.0990,N,11725.2644,W,53.41,300.26,020310,,*2A
$GPRMC,201115.149,A,3344.1068,N,11725.2797,W,53.87,301.11,020310,,*24
$GPRMC,201118.148,A,3344.1322,N,11725.3245,W,53.95,305.34,020310,,*2E
$GPRMC,201119.148,A,3344.1412,N,11725.3387,W,53.53,306.69,020310,,*25
$GPRMC,201120.148,A,3344.1503,N,11725.3528,W,53.13,307.34,020310,,*20
$GPRMC,201121.148,A,3344.1594,N,11725.3667,W,53.08,307.49,020310,,*27
$GPRMC,201122.148,A,3344.1685,N,11725.3808,W,53.16,307.35,020310,,*24
$GPRMC,201123.148,A,3344.1777,N,11725.3948,W,53.31,307.57,020310,,*2D
$GPRMC,201124.148,A,3344.1881,N,11725.4085,W,53.45,307.36,020310,,*27
$GPRMC,201125.148,A,3344.1972,N,11725.4226,W,53.50,307.26,020310,,*25
$GPRMC,201127.148,A,3344.2153,N,11725.4509,W,53.55,307.21,020310,,*27
$GPRMC,201128.148,A,3344.2245,N,11725.4649,W,53.48,307.28,020310,,*2E
$GPRMC,201129.148,A,3344.2336,N,11725.4790,W,53.30,307.48,020310,,*26
$GPRMC,201130.148,A,3344.2427,N,11725.4930,W,53.15,307.78,020310,,*29
$GPRMC,201133.147,A,3344.2696,N,11725.5353,W,53.20,306.94,020310,,*26
$GPRMC,201134.147,A,3344.2785,N,11725.5496,W,53.27,307.29,020310,,*2C
$GPRMC,201135.147,A,3344.2874,N,11725.5637,W,53.40,307.21,020310,,*2C
$GPRMC,201136.147,A,3344.2963,N,11725.5780,W,53.63,307.17,020310,,*21
$GPRMC,201137.147,A,3344.3052,N,11725.5923,W,53.58,307.19,020310,,*2B
$GPRMC,201138.147,A,3344.3143,N,11725.6065,W,53.55,307.30,020310,,*2B
$GPRMC,201139.147,A,3344.3233,N,11725.6207,W,53.48,307.70,020310,,*20
$GPRMC,201140.147,A,3344.3324,N,11725.6349,W,53.44,307.56,020310,,*2A
$GPRMC,201142.147,A,3344.3505,N,11725.6632,W,53.44,307.15,020310,,*23
$GPRMC,201143.147,A,3344.3594,N,11725.6774,W,53.36,307.05,020310,,*2D
$GPRMC,201144.147,A,3344.3684,N,11725.6916,W,53.37,307.30,020310,,*25
$GPRMC,201145.147,A,3344.3774,N,11725.7057,W,53.42,307.02,020310,,*24
$GPRMC,201148.146,A,3344.4037,N,11725.7490,W,53.49,304.62,020310,,*2E
$GPRMC,201149.146,A,3344.4121,N,11725.7638,W,53.52,303.45,020310,,*21
$GPRMC,201150.146,A,3344.4202,N,11725.7787,W,53.49,302.38,020310,,*2F
$GPRMC,201151.146,A,3344.4280,N,11725.7939,W,53.48,301.23,020310,,*27
$GPRMC,201152.146,A,3344.4356,N,11725.8091,W,53.48,300.62,020310,,*2E
$GPRMC,201154.146,A,3344.4503,N,11725.8403,W,53.56,298.68,020310,,*24
$GPRMC,201155.146,A,3344.4573,N,11725.8562,W,53.59,297.43,020310,,*2D
$GPRMC,201157.146,A,3344.4703,N,11725.8882,W,53.66,295.24,020310,,*26
$GPRMC,201158.146,A,3344.4764,N,11725.9045,W,53.71,294.24,020310,,*2D
$GPRMC,201159.146,A,3344.4823,N,11725.9210,W,53.73,293.41,020310,,*24
$GPRMC,201200.146,A,3344.4880,N,11725.9376,W,53.56,291.88,020310,,*23
$GPRMC,201203.145,A,3344.5032,N,11725.9879,W,53.37,289.07,020310,,*2E
$GPRMC,201204.145,A,3344.5079,N,11726.0048,W,53.50,288.07,020310,,*26
$GPRMC,201205.145,A,3344.5123,N,11726.0219,W,53.59,287.34,020310,,*29
$GPRMC,201206.145,A,3344.5166,N,11726.0390,W,53.72,286.42,020310,,*22
$GPRMC,201207.145,A,3344.5205,N,11726.0563,W,53.51,285.21,020310,,*28
$GPRMC,201208.145,A,3344.5243,N,11726.0735,W,53.63,284.89,020310,,*26
$GPRMC,201209.145,A,3344.5277,N,11726.0909,W,53.40,283.28,020310,,*2C
$GPRMC,201210.145,A,3344.5308,N,11726.1084,W,53.40,282.21,020310,,*28
$GPRMC,201212.145,A,3344.5364,N,11726.1435,W,53.43,280.97,020310,,*22
$GPRMC,201213.145,A,3344.5392,N,11726.1610,W,53.48,280.90,020310,,*23
$GPRMC,201214.145,A,3344.5420,N,11726.1786,W,53.51,281.21,020310,,*27
$GPRMC,201215.145,A,3344.5449,N,11726.1961,W,53.46,281.23,020310,,*2A
$GPRMC,201218.144,A,3344.5533,N,11726.2485,W,53.38,281.08,020310,,*2E
$GPRMC,201219.144,A,3344.5561,N,11726.2659,W,53.49,281.35,020310,,*23
$GPRMC,201220.144,A,3344.5591,N,11726.2834,W,53.51,281.58,020310,,*21
$GPRMC,201221.144,A,3344.5622,N,11726.3009,W,53.53,282.34,020310,,*27
$GPRMC,201222.144,A,3344.5657,N,11726.3182,W,53.56,283.68,020310,,*29
$GPRMC,201223.144,A,3344.5694,N,11726.3354,W,53.42,284.65,020310,,*21
$GPRMC,201224.144,A,3344.5733,N,11726.3525,W,53.28,285.75,020310,,*26
$GPRMC,201225.144,A,3344.5775,N,11726.3695,W,53.28,287.11,020310,,*2D
$GPRMC,201227.144,A,3344.5869,N,11726.4032,W,53.49,289.22,020310,,*28
$GPRMC,201228.144,A,3344.5920,N,11726.4200,W,53.56,290.08,020310,,*26
$GPRMC,201229.144,A,3344.5973,N,11726.4367,W,53.65,290.97,020310,,*27
$GPRMC,201230.144,A,3344.6030,N,11726.4532,W,53.55,292.19,020310,,*23
$GPRMC,201233.143,A,3344.6212,N,11726.5018,W,53.33,295.18,020310,,*2F
$GPRMC,201234.143,A,3344.6277,N,11726.5177,W,53.35,296.19,020310,,*27
$GPRMC,201235.143,A,3344.6346,N,11726.5334,W,53.37,297.53,020310,,*2D
$GPRMC,201236.143,A,3344.6416,N,11726.5491,W,53.51,298.33,020310,,*2D
$GPRMC,201237.143,A,3344.6488,N,11726.5647,W,53.59,298.67,020310,,*2B
$GPRMC,201238.143,A,3344.6559,N,11726.5804,W,53.68,298.71,020310,,*25
$GPRMC,201239.143,A,3344.6629,N,11726.5962,W,53.58,298.02,020310,,*26
$GPRMC,201240.143,A,3344.6698,N,11726.6120,W,53.45,297.51,020310,,*2A
$GPRMC,201242.143,A,3344.6834,N,11726.6436,W,53.29,297.09,020310,,*25
$GPRMC,201243.143,A,3344.6902,N,11726.6594,W,53.34,297.15,020310,,*28
$GPRMC,201244.143,A,3344.6970,N,11726.6751,W,53.39,297.35,020310,,*2E
$GPRMC,201245.143,A,3344.7040,N,11726.6909,W,53.41,297.92,020310,,*25
$GPRMC,201248.142,A,3344.7255,N,11726.7379,W,53.65,298.32,020310,,*20
$GPRMC,201249.142,A,3344.7327,N,11726.7536,W,53.53,298.13,020310,,*2E
$GPRMC,201250.142,A,3344.7398,N,11726.7692,W,53.34,298.34,020310,,*2B
$GPRMC,201251.142,A,3344.7469,N,11726.7848,W,53.25,298.58,020310,,*20
$GPRMC,201252.142,A,3344.7541,N,11726.8003,W,53.27,298.62,020310,,*2B
$GPRMC,201253.142,A,3344.7613,N,11726.8159,W,53.36,298.37,020310,,*20
$GPRMC,201254.142,A,3344.7685,N,11726.8316,W,53.47,298.56,020310,,*20
$GPRMC,201255.142,A,3344.7757,N,11726.8472,W,53.53,298.71,020310,,*2A
$GPRMC,201257.142,A,3344.7903,N,11726.8784,W,53.48,298.88,020310,,*21
$GPRMC,201258.142,A,3344.7975,N,11726.8939,W,53.43,299.00,020310,,*2D
$GPRMC,201259.142,A,3344.8049,N,11726.9094,W,53.40,299.26,020310,,*2D
$GPRMC,201300.142,A,3344.8123,N,11726.9249,W,53.36,299.75,020310,,*28
$GPRMC,201303.142,A,3344.8347,N,11726.9712,W,53.49,299.49,020310,,*27
$GPRMC,201304.141,A,3344.8419,N,11726.9867,W,53.55,299.09,020310,,*2B
$GPRMC,201305.141,A,3344.8492,N,11727.0023,W,53.55,299.18,020310,,*29
$GPRMC,201306.141,A,3344.8567,N,11727.0177,W,53.40,299.96,020310,,*23
$GPRMC,201307.141,A,3344.8644,N,11727.0329,W,53.30,301.36,020310,,*24
$GPRMC,201308.141,A,3344.8724,N,11727.0478,W,53.25,302.74,020310,,*2E
$GPRMC,201309.141,A,3344.8807,N,11727.0625,W,53.33,304.15,020310,,*2D
$GPRMC,201310.141,A,3344.8894,N,11727.0770,W,53.41,305.50,020310,,*2B
$GPRMC,201312.141,A,3344.9075,N,11727.1053,W,53.49,308.27,020310,,*2D
$GPRMC,201313.141,A,3344.9171,N,11727.1188,W,53.61,310.11,020310,,*28
$GPRMC,201314.141,A,3344.9269,N,11727.1321,W,53.45,310.91,020310,,*2A
$GPRMC,201315.141,A,3344.9369,N,11727.1452,W,53.25,311.91,020310,,*2E
$GPRMC,201318.141,A,3344.9682,N,11727.1832,W,53.20,315.51,020310,,*24
$GPRMC,201319.140,A,3344.9791,N,11727.1954,W,53.45,316.95,020310,,*2E
$GPRMC,201320.140,A,3344.9904,N,11727.2071,W,53.51,318.76,020310,,*2D
$GPRMC,201321.140,A,3345.0020,N,11727.2185,W,53.47,320.36,020310,,*29
$GPRMC,201322.140,A,3345.0138,N,11727.2295,W,53.59,321.51,020310,,*2F
$GPRMC,201323.140,A,3345.0258,N,11727.2403,W,53.54,322.50,020310,,*2D
$GPRMC,201324.140,A,3345.0392,N,11727.2503,W,53.40,324.09,020310,,*23
$GPRMC,201325.140,A,3345.0511,N,11727.2605,W,53.37,325.29,020310,,*29
$GPRMC,201327.140,A,3345.0764,N,11727.2794,W,53.39,327.88,020310,,*25
$GPRMC,201328.140,A,3345.0890,N,11727.2888,W,53.27,328.38,020310,,*27
