NMEA Sentence Code,UTC Time,Status,Latitude,Latitude Direction,Longitude,Longitude Direction,Speed (knots),Track Angle (degrees true),Date,MagneticVariation,Magnetic Variation Direction,[FAA Mode]-Optional,Checksum
$GPRMC,143533.000,A,3340.0537,N,11749.0403,W,57.00,111.83,220310,,,A*4D
$GPRMC,143536.000,A,3340.0363,N,11748.9883,W,55.02,111.96,220310,,,A*47
$GPRMC,143539.000,A,3340.0195,N,11748.9385,W,53.41,112.11,220310,,,A*43
$GPRMC,143542.000,A,3340.0031,N,11748.8895,W,52.24,111.95,220310,,,A*46
$GPRMC,143545.000,A,3339.9869,N,11748.8413,W,51.88,111.76,220310,,,A*49
$GPRMC,143548.000,A,3339.9712,N,11748.7927,W,52.58,110.63,220310,,,A*49
$GPRMC,143551.000,A,3339.9564,N,11748.7426,W,54.06,108.59,220310,,,A*43
$GPRMC,143554.000,A,3339.9428,N,11748.6906,W,54.26,106.29,220310,,,A*4A
$GPRMC,143557.000,A,3339.9309,N,11748.6381,W,55.52,104.65,220310,,,A*40
$GPRMC,143600.000,A,3339.9199,N,11748.5829,W,57.27,102.11,220310,,,A*45
$GPRMC,143603.000,A,3339.9112,N,11748.5275,W,56.05,100.04,220310,,,A*41
$GPRMC,143606.000,A,3339.9034,N,11748.4726,W,55.07,99.70,220310,,,A*70
$GPRMC,143609.000,A,3339.8959,N,11748.4167,W,59.32,99.34,220310,,,A*75
$GPRMC,143612.000,A,3339.8875,N,11748.3556,W,63.76,99.53,220310,,,A*79
$GPRMC,143615.000,A,3339.8785,N,11748.2909,W,66.88,99.24,220310,,,A*7D
$GPRMC,143618.000,A,3339.8703,N,11748.2232,W,69.21,97.83,220310,,,A*72
$GPRMC,143621.000,A,3339.8616,N,11748.1542,W,69.29,99.49,220310,,,A*7E
$GPRMC,143624.000,A,3339.8521,N,11748.0868,W,67.51,99.63,220310,,,A*71
$GPRMC,143627.000,A,3339.8430,N,11748.0218,W,64.86,99.34,220310,,,A*75
$GPRMC,143630.000,A,3339.8340,N,11747.9582,W,64.50,99.60,220310,,,A*7B
$GPRMC,143633.000,A,3339.8249,N,11747.8940,W,65.87,99.63,220310,,,A*7B
$GPRMC,143636.000,A,3339.8157,N,11747.8280,W,68.19,99.50,220310,,,A*7F
$GPRMC,143639.000,A,3339.8061,N,11747.7598,W,70.37,99.57,220310,,,A*77
$GPRMC,143642.000,A,3339.7961,N,11747.6897,W,72.14,100.08,220310,,,A*46
$GPRMC,143645.000,A,3339.7862,N,11747.6186,W,71.38,99.55,220310,,,A*7E
$GPRMC,143648.000,A,3339.7763,N,11747.5488,W,70.78,99.52,220310,,,A*77
$GPRMC,143651.000,A,3339.7666,N,11747.4795,W,70.34,99.46,220310,,,A*78
$GPRMC,143654.000,A,3339.7567,N,11747.4097,W,71.35,99.56,220310,,,A*7B
$GPRMC,143657.000,A,3339.7466,N,11747.3392,W,70.91,99.91,220310,,,A*7D
$GPRMC,143700.000,A,3339.7347,N,11747.2709,W,68.82,103.89,220310,,,A*4D
$GPRMC,143703.000,A,3339.7192,N,11747.2059,W,66.88,108.06,220310,,,A*4E
$GPRMC,143706.000,A,3339.7005,N,11747.1447,W,64.67,111.74,220310,,,A*42
$GPRMC,143709.000,A,3339.6784,N,11747.0849,W,65.91,115.75,220310,,,A*4C
$GPRMC,143712.000,A,3339.6533,N,11747.0279,W,63.62,119.53,220310,,,A*43
$GPRMC,143715.000,A,3339.6257,N,11746.9746,W,63.18,123.38,220310,,,A*49
$GPRMC,143718.000,A,3339.5959,N,11746.9218,W,64.87,123.43,220310,,,A*41
$GPRMC,143721.000,A,3339.5659,N,11746.8661,W,67.71,123.02,220310,,,A*40
$GPRMC,143724.000,A,3339.5333,N,11746.8092,W,69.97,124.34,220310,,,A*42
$GPRMC,143727.000,A,3339.4996,N,11746.7515,W,71.01,124.57,220310,,,A*43
$GPRMC,143730.000,A,3339.4665,N,11746.6921,W,72.09,122.72,220310,,,A*46
$GPRMC,143733.000,A,3339.4325,N,11746.6314,W,74.19,124.29,220310,,,A*47
$GPRMC,143736.000,A,3339.3970,N,11746.5697,W,75.26,124.31,220310,,,A*46
$GPRMC,143739.000,A,3339.3611,N,11746.5075,W,75.90,124.63,220310,,,A*41
$GPRMC,143742.000,A,3339.3246,N,11746.4448,W,77.21,124.54,220310,,,A*4C
$GPRMC,143745.000,A,3339.2878,N,11746.3805,W,78.53,124.37,220310,,,A*40
$GPRMC,143748.000,A,3339.2509,N,11746.3146,W,80.16,122.00,220310,,,A*4C
$GPRMC,143751.000,A,3339.2178,N,11746.2438,W,81.42,116.60,220310,,,A*4A
$GPRMC,143754.000,A,3339.1902,N,11746.1701,W,79.72,112.11,220310,,,A*45
$GPRMC,143757.000,A,3339.1679,N,11746.0960,W,78.18,107.52,220310,,,A*43
$GPRMC,143800.000,A,3339.1509,N,11746.0210,W,76.19,103.14,220310,,,A*4F
$GPRMC,143803.000,A,3339.1393,N,11745.9499,W,69.18,99.92,220310,,,A*77
$GPRMC,143806.000,A,3339.1300,N,11745.8836,W,65.83,99.78,220310,,,A*7A
$GPRMC,143809.000,A,3339.1208,N,11745.8202,W,63.78,100.20,220310,,,A*4F
$GPRMC,143812.000,A,3339.1116,N,11745.7574,W,63.62,99.99,220310,,,A*78
$GPRMC,143815.000,A,3339.1027,N,11745.6950,W,63.64,100.14,220310,,,A*45
$GPRMC,143818.000,A,3339.0937,N,11745.6316,W,65.55,99.16,220310,,,A*7E
$GPRMC,143821.000,A,3339.0845,N,11745.5668,W,65.43,99.92,220310,,,A*74
$GPRMC,143824.000,A,3339.0743,N,11745.5032,W,64.90,102.35,220310,,,A*40
$GPRMC,143827.000,A,3339.0606,N,11745.4409,W,64.82,106.77,220310,,,A*4F
$GPRMC,143830.000,A,3339.0439,N,11745.3799,W,63.58,108.82,220310,,,A*4E
$GPRMC,143833.000,A,3339.0265,N,11745.3210,W,62.31,109.39,220310,,,A*49
$GPRMC,143836.000,A,3339.0092,N,11745.2617,W,63.69,109.24,220310,,,A*44
$GPRMC,143839.000,A,3338.9916,N,11745.2022,W,62.87,109.43,220310,,,A*46
$GPRMC,143842.000,A,3338.9744,N,11745.1438,W,62.08,109.17,220310,,,A*49
$GPRMC,143845.000,A,3338.9572,N,11745.0852,W,62.49,109.47,220310,,,A*48
$GPRMC,143848.000,A,3338.9396,N,11745.0257,W,64.58,109.45,220310,,,A*42
$GPRMC,143851.000,A,3338.9215,N,11744.9644,W,65.02,109.29,220310,,,A*4A
$GPRMC,143854.000,A,3338.9037,N,11744.9035,W,64.38,109.09,220310,,,A*47
$GPRMC,143857.000,A,3338.8860,N,11744.8423,W,64.80,108.81,220310,,,A*4F
$GPRMC,143900.000,A,3338.8682,N,11744.7807,W,64.94,109.21,220310,,,A*45
$GPRMC,143903.000,A,3338.8510,N,11744.7210,W,61.94,108.79,220310,,,A*4B
$GPRMC,143906.000,A,3338.8344,N,11744.6629,W,61.27,108.99,220310,,,A*40
$GPRMC,143909.000,A,3338.8179,N,11744.6058,W,59.74,108.82,220310,,,A*44
$GPRMC,143912.000,A,3338.8020,N,11744.5495,W,59.98,108.65,220310,,,A*4E
$GPRMC,143915.000,A,3338.7859,N,11744.4931,W,59.46,108.95,220310,,,A*4E
$GPRMC,143918.000,A,3338.7696,N,11744.4367,W,60.13,109.20,220310,,,A*42
$GPRMC,143921.000,A,3338.7529,N,11744.3803,W,59.61,109.52,220310,,,A*4B
$GPRMC,143924.000,A,3338.7365,N,11744.3249,W,58.49,109.02,220310,,,A*4A
$GPRMC,143927.000,A,3338.7203,N,11744.2692,W,59.67,109.11,220310,,,A*44
$GPRMC,143930.000,A,3338.7037,N,11744.2121,W,62.25,109.18,220310,,,A*4F
$GPRMC,143933.000,A,3338.6848,N,11744.1547,W,61.43,115.60,220310,,,A*4B
$GPRMC,143936.000,A,3338.6577,N,11744.1029,W,61.24,127.51,220310,,,A*40
$GPRMC,143939.000,A,3338.6224,N,11744.0595,W,60.68,139.15,220310,,,A*4B
$GPRMC,143942.000,A,3338.5817,N,11744.0251,W,57.94,146.87,220310,,,A*45
$GPRMC,143945.000,A,3338.5425,N,11743.9942,W,55.48,145.93,220310,,,A*4D
$GPRMC,143948.000,A,3338.5043,N,11743.9639,W,55.49,146.00,220310,,,A*4F
$GPRMC,143951.000,A,3338.4644,N,11743.9330,W,57.52,146.61,220310,,,A*44
$GPRMC,143954.000,A,3338.4235,N,11743.9014,W,59.34,146.31,220310,,,A*4D
$GPRMC,143957.000,A,3338.3819,N,11743.8689,W,59.18,146.41,220310,,,A*47
$GPRMC,144000.000,A,3338.3409,N,11743.8362,W,59.25,146.07,220310,,,A*4A
$GPRMC,144003.000,A,3338.2992,N,11743.8035,W,60.50,146.69,220310,,,A*46
$GPRMC,144006.000,A,3338.2556,N,11743.7694,W,63.60,146.51,220310,,,A*4E
$GPRMC,144009.000,A,3338.2107,N,11743.7339,W,64.48,146.44,220310,,,A*4A
$GPRMC,144012.000,A,3338.1648,N,11743.6979,W,66.23,146.50,220310,,,A*4A
$GPRMC,144015.000,A,3338.1186,N,11743.6612,W,65.47,146.39,220310,,,A*44
$GPRMC,144018.000,A,3338.0728,N,11743.6247,W,66.02,146.03,220310,,,A*45
$GPRMC,144021.000,A,3338.0276,N,11743.5879,W,64.95,144.17,220310,,,A*4E
$GPRMC,144024.000,A,3337.9848,N,11743.5475,W,65.29,139.82,220310,,,A*4A
$GPRMC,144027.000,A,3337.9452,N,11743.5046,W,63.08,136.12,220310,,,A*49
$GPRMC,144030.000,A,3337.9079,N,11743.4608,W,62.41,135.60,220310,,,A*45
$GPRMC,144033.000,A,3337.8705,N,11743.4168,W,63.67,135.39,220310,,,A*43
$GPRMC,144036.000,A,3337.8327,N,11743.3723,W,63.79,135.48,220310,,,A*45
$GPRMC,144039.000,A,3337.7944,N,11743.3276,W,64.90,136.74,220310,,,A*43
$GPRMC,144042.000,A,3337.7522,N,11743.2847,W,68.21,142.44,220310,,,A*4C
$GPRMC,144045.000,A,3337.7051,N,11743.2429,W,71.56,142.44,220310,,,A*46
$GPRMC,144048.000,A,3337.6568,N,11743.1977,W,73.68,142.16,220310,,,A*48
$GPRMC,144051.000,A,3337.6072,N,11743.1522,W,74.75,142.29,220310,,,A*45
$GPRMC,144054.000,A,3337.5570,N,11743.1061,W,75.63,142.40,220310,,,A*4F
$GPRMC,144057.000,A,3337.5067,N,11743.0588,W,76.64,140.82,220310,,,A*44
$GPRMC,144100.000,A,3337.4559,N,11743.0105,W,78.09,142.08,220310,,,A*4A
$GPRMC,144103.000,A,3337.4036,N,11742.9624,W,79.86,142.37,220310,,,A*43
$GPRMC,144106.000,A,3337.3503,N,11742.9131,W,81.35,142.43,220310,,,A*4D
$GPRMC,144109.000,A,3337.2959,N,11742.8635,W,81.75,142.55,220310,,,A*41
$GPRMC,144112.000,A,3337.2421,N,11742.8143,W,80.28,142.84,220310,,,A*4A
$GPRMC,144115.000,A,3337.1896,N,11742.7676,W,75.59,143.07,220310,,,A*46
$GPRMC,144118.000,A,3337.1413,N,11742.7235,W,68.96,142.39,220310,,,A*4A
$GPRMC,144121.000,A,3337.0968,N,11742.6827,W,66.28,142.55,220310,,,A*49
$GPRMC,144124.000,A,3337.0526,N,11742.6421,W,67.50,142.36,220310,,,A*4B
$GPRMC,144127.000,A,3337.0076,N,11742.6004,W,69.00,141.88,220310,,,A*46
$GPRMC,144130.000,A,3336.9626,N,11742.5558,W,71.09,138.47,220310,,,A*49
$GPRMC,144133.000,A,3336.9187,N,11742.5062,W,73.59,135.50,220310,,,A*46
$GPRMC,144136.000,A,3336.8747,N,11742.4544,W,74.99,135.23,220310,,,A*47
$GPRMC,144139.000,A,3336.8299,N,11742.4016,W,75.98,135.30,220310,,,A*4E
$GPRMC,144142.000,A,3336.7846,N,11742.3482,W,77.08,135.49,220310,,,A*4E
$GPRMC,144145.000,A,3336.7388,N,11742.2944,W,75.45,135.25,220310,,,A*47
$GPRMC,144148.000,A,3336.6948,N,11742.2419,W,73.74,135.13,220310,,,A*49
$GPRMC,144151.000,A,3336.6524,N,11742.1883,W,74.07,131.09,220310,,,A*47
$GPRMC,144154.000,A,3336.6137,N,11742.1302,W,74.00,126.69,220310,,,A*41
$GPRMC,144157.000,A,3336.5794,N,11742.0703,W,71.64,122.19,220310,,,A*4E
$GPRMC,144200.000,A,3336.5492,N,11742.0081,W,71.63,118.40,220310,,,A*45
$GPRMC,144203.000,A,3336.5218,N,11741.9437,W,73.05,117.07,220310,,,A*4F
$GPRMC,144206.000,A,3336.4945,N,11741.8795,W,70.77,117.31,220310,,,A*41
$GPRMC,144209.000,A,3336.4684,N,11741.8182,W,67.97,116.83,220310,,,A*4C
$GPRMC,144212.000,A,3336.4437,N,11741.7588,W,65.43,116.88,220310,,,A*4D
$GPRMC,144215.000,A,3336.4192,N,11741.7011,W,64.48,117.52,220310,,,A*49
$GPRMC,144218.000,A,3336.3939,N,11741.6453,W,62.35,120.15,220310,,,A*42
$GPRMC,144221.000,A,3336.3671,N,11741.5918,W,63.93,121.75,220310,,,A*40
$GPRMC,144224.000,A,3336.3373,N,11741.5363,W,68.05,123.87,220310,,,A*4F
$GPRMC,144227.000,A,3336.3038,N,11741.4795,W,71.63,126.12,220310,,,A*4D
$GPRMC,144230.000,A,3336.2671,N,11741.4218,W,73.34,126.86,220310,,,A*4C
$GPRMC,144233.000,A,3336.2289,N,11741.3649,W,72.52,128.80,220310,,,A*42
$GPRMC,144236.000,A,3336.1927,N,11741.3092,W,68.90,126.21,220310,,,A*4B
$GPRMC,144239.000,A,3336.1612,N,11741.2538,W,65.64,122.60,220310,,,A*4E
$GPRMC,144242.000,A,3336.1344,N,11741.1986,W,62.75,118.32,220310,,,A*47
$GPRMC,144245.000,A,3336.1112,N,11741.1434,W,61.31,115.39,220310,,,A*40
$GPRMC,144248.000,A,3336.0901,N,11741.0891,W,58.79,114.98,220310,,,A*48
$GPRMC,144251.000,A,3336.0698,N,11741.0369,W,57.85,115.08,220310,,,A*47
$GPRMC,144254.000,A,3336.0494,N,11740.9845,W,58.76,115.13,220310,,,A*48
$GPRMC,144257.000,A,3336.0291,N,11740.9322,W,57.54,114.84,220310,,,A*42
$GPRMC,144300.000,A,3336.0088,N,11740.8798,W,59.17,115.03,220310,,,A*48
$GPRMC,144303.000,A,3335.9875,N,11740.8256,W,60.69,115.27,220310,,,A*49
$GPRMC,144306.000,A,3335.9658,N,11740.7709,W,60.65,115.35,220310,,,A*42
$GPRMC,144309.000,A,3335.9447,N,11740.7171,W,58.64,114.92,220310,,,A*4E
$GPRMC,144312.000,A,3335.9229,N,11740.6643,W,58.66,118.75,220310,,,A*4A
$GPRMC,144315.000,A,3335.8975,N,11740.6152,W,57.72,124.32,220310,,,A*4F
$GPRMC,144318.000,A,3335.8676,N,11740.5691,W,58.89,130.06,220310,,,A*4C
$GPRMC,144321.000,A,3335.8337,N,11740.5255,W,60.40,134.23,220310,,,A*47
$GPRMC,144324.000,A,3335.7972,N,11740.4838,W,60.20,137.62,220310,,,A*46
$GPRMC,144327.000,A,3335.7580,N,11740.4444,W,62.49,140.97,220310,,,A*44
$GPRMC,144330.000,A,3335.7160,N,11740.4072,W,61.74,144.98,220310,,,A*4F
$GPRMC,144333.000,A,3335.6721,N,11740.3739,W,62.03,149.42,220310,,,A*48
$GPRMC,144336.000,A,3335.6256,N,11740.3454,W,62.68,155.33,220310,,,A*46
$GPRMC,144339.000,A,3335.5770,N,11740.3233,W,60.73,161.57,220310,,,A*41
$GPRMC,144342.000,A,3335.5284,N,11740.3077,W,59.62,167.25,220310,,,A*48
$GPRMC,144345.000,A,3335.4790,N,11740.2981,W,60.11,173.26,220310,,,A*47
$GPRMC,144348.000,A,3335.4276,N,11740.2943,W,61.39,178.96,220310,,,A*42
$GPRMC,144351.000,A,3335.3769,N,11740.2956,W,59.43,180.79,220310,,,A*42
$GPRMC,144354.000,A,3335.3270,N,11740.2967,W,59.38,180.62,220310,,,A*4E
$GPRMC,144357.000,A,3335.2771,N,11740.2979,W,60.00,180.60,220310,,,A*44
$GPRMC,144400.000,A,3335.2269,N,11740.2989,W,60.18,180.43,220310,,,A*4A
$GPRMC,144403.000,A,3335.1757,N,11740.3001,W,61.80,180.89,220310,,,A*4C
$GPRMC,144406.000,A,3335.1241,N,11740.3011,W,62.08,180.60,220310,,,A*4E
$GPRMC,144409.000,A,3335.0721,N,11740.3021,W,61.58,180.84,220310,,,A*4C
$GPRMC,144412.000,A,3335.0211,N,11740.3029,W,60.52,180.59,220310,,,A*43
$GPRMC,144415.000,A,3334.9706,N,11740.3038,W,60.81,180.81,220310,,,A*44
$GPRMC,144418.000,A,3334.9195,N,11740.3047,W,61.74,180.79,220310,,,A*41
$GPRMC,144421.000,A,3334.8682,N,11740.3056,W,61.22,180.59,220310,,,A*4A
$GPRMC,144424.000,A,3334.8167,N,11740.3065,W,61.33,180.71,220310,,,A*49
$GPRMC,144427.000,A,3334.7660,N,11740.3077,W,60.08,180.63,220310,,,A*4C
$GPRMC,144430.000,A,3334.7158,N,11740.3085,W,60.05,180.74,220310,,,A*40
$GPRMC,144433.000,A,3334.6658,N,11740.3093,W,59.73,180.71,220310,,,A*4C
$GPRMC,144436.000,A,3334.6159,N,11740.3102,W,59.85,180.55,220310,,,A*49
$GPRMC,144439.000,A,3334.5654,N,11740.3108,W,60.90,180.47,220310,,,A*48
$GPRMC,144442.000,A,3334.5148,N,11740.3115,W,60.23,180.80,220310,,,A*41
$GPRMC,144445.000,A,3334.4652,N,11740.3122,W,58.51,180.59,220310,,,A*45
$GPRMC,144448.000,A,3334.4163,N,11740.3129,W,59.30,180.65,220310,,,A*4F
$GPRMC,144451.000,A,3334.3657,N,11740.3138,W,61.29,180.95,220310,,,A*4C
$GPRMC,144454.000,A,3334.3143,N,11740.3147,W,61.71,180.72,220310,,,A*47
$GPRMC,144457.000,A,3334.2626,N,11740.3155,W,61.52,180.48,220310,,,A*4A
$GPRMC,144500.000,A,3334.2119,N,11740.3162,W,59.90,180.85,220310,,,A*42
$GPRMC,144503.000,A,3334.1616,N,11740.3177,W,60.52,182.25,220310,,,A*42
$GPRMC,144506.000,A,3334.1113,N,11740.3211,W,60.28,183.97,220310,,,A*43
$GPRMC,144509.000,A,3334.0610,N,11740.3265,W,60.77,185.71,220310,,,A*4E
$GPRMC,144512.000,A,3334.0106,N,11740.3329,W,60.82,186.15,220310,,,A*46
$GPRMC,144515.000,A,3333.9605,N,11740.3395,W,60.10,185.93,220310,,,A*4A
$GPRMC,144518.000,A,3333.9110,N,11740.3458,W,59.17,186.07,220310,,,A*41
$GPRMC,144521.000,A,3333.8613,N,11740.3521,W,60.64,186.07,220310,,,A*4F
$GPRMC,144524.000,A,3333.8107,N,11740.3587,W,61.01,186.15,220310,,,A*45
$GPRMC,144527.000,A,3333.7608,N,11740.3651,W,59.24,186.12,220310,,,A*42
$GPRMC,144530.000,A,3333.7111,N,11740.3716,W,60.53,185.82,220310,,,A*49
$GPRMC,144533.000,A,3333.6609,N,11740.3770,W,60.49,184.58,220310,,,A*48
$GPRMC,144536.000,A,3333.6101,N,11740.3811,W,61.39,182.99,220310,,,A*47
$GPRMC,144539.000,A,3333.5588,N,11740.3834,W,61.23,181.07,220310,,,A*46
$GPRMC,144542.000,A,3333.5083,N,11740.3836,W,60.03,179.26,220310,,,A*41
$GPRMC,144545.000,A,3333.4581,N,11740.3826,W,60.86,179.11,220310,,,A*48
$GPRMC,144548.000,A,3333.4071,N,11740.3816,W,61.95,178.62,220310,,,A*4A
$GPRMC,144551.000,A,3333.3531,N,11740.3800,W,67.03,178.65,220310,,,A*4D
$GPRMC,144554.000,A,3333.2959,N,11740.3786,W,68.93,178.91,220310,,,A*47
$GPRMC,144557.000,A,3333.2379,N,11740.3774,W,69.59,178.96,220310,,,A*41
$GPRMC,144600.000,A,3333.1805,N,11740.3759,W,67.59,178.74,220310,,,A*4E
$GPRMC,144603.000,A,3333.1242,N,11740.3745,W,67.16,178.86,220310,,,A*4F
$GPRMC,144606.000,A,3333.0686,N,11740.3731,W,65.12,178.69,220310,,,A*43
$GPRMC,144609.000,A,3333.0151,N,11740.3718,W,63.65,179.08,220310,,,A*4A
$GPRMC,144612.000,A,3332.9621,N,11740.3714,W,63.89,180.37,220310,,,A*4C
$GPRMC,144615.000,A,3332.9084,N,11740.3727,W,63.88,182.18,220310,,,A*4C
$GPRMC,144618.000,A,3332.8561,N,11740.3761,W,61.49,183.82,220310,,,A*41
$GPRMC,144621.000,A,3332.8060,N,11740.3812,W,59.16,186.08,220310,,,A*42
$GPRMC,144624.000,A,3332.7566,N,11740.3881,W,60.41,187.23,220310,,,A*41
$GPRMC,144627.000,A,3332.7057,N,11740.3969,W,62.60,189.19,220310,,,A*44
$GPRMC,144630.000,A,3332.6544,N,11740.4075,W,61.43,190.02,220310,,,A*47
$GPRMC,144633.000,A,3332.6043,N,11740.4183,W,60.97,190.32,220310,,,A*45
$GPRMC,144636.000,A,3332.5544,N,11740.4295,W,60.64,190.27,220310,,,A*4D
$GPRMC,144639.000,A,3332.5042,N,11740.4404,W,61.71,190.48,220310,,,A*43
$GPRMC,144642.000,A,3332.4536,N,11740.4518,W,61.46,190.59,220310,,,A*40
$GPRMC,144645.000,A,3332.4029,N,11740.4633,W,62.24,190.37,220310,,,A*49
$GPRMC,144648.000,A,3332.3513,N,11740.4746,W,63.60,190.05,220310,,,A*4C
$GPRMC,144651.000,A,3332.2990,N,11740.4856,W,62.73,189.20,220310,,,A*40
$GPRMC,144654.000,A,3332.2477,N,11740.4938,W,61.38,186.58,220310,,,A*44
$GPRMC,144657.000,A,3332.1969,N,11740.4998,W,60.68,184.51,220310,,,A*43
$GPRMC,144700.000,A,3332.1466,N,11740.5032,W,59.98,182.37,220310,,,A*49
$GPRMC,144703.000,A,3332.0965,N,11740.5043,W,60.22,179.83,220310,,,A*43
$GPRMC,144706.000,A,3332.0458,N,11740.5031,W,61.81,178.05,220310,,,A*47
$GPRMC,144709.000,A,3331.9945,N,11740.4991,W,61.84,174.82,220310,,,A*47
$GPRMC,144712.000,A,3331.9436,N,11740.4903,W,61.06,167.51,220310,,,A*49
$GPRMC,144715.000,A,3331.8959,N,11740.4727,W,58.75,159.00,220310,,,A*44
$GPRMC,144718.000,A,3331.8520,N,11740.4480,W,57.65,151.53,220310,,,A*45
$GPRMC,144721.000,A,3331.8129,N,11740.4166,W,56.51,143.41,220310,,,A*49
$GPRMC,144724.000,A,3331.7778,N,11740.3800,W,56.07,136.06,220310,,,A*4D
$GPRMC,144727.000,A,3331.7462,N,11740.3376,W,58.14,130.00,220310,,,A*40
$GPRMC,144730.000,A,3331.7151,N,11740.2910,W,60.63,129.24,220310,,,A*4D
$GPRMC,144733.000,A,3331.6835,N,11740.2440,W,60.12,129.40,220310,,,A*48
$GPRMC,144736.000,A,3331.6513,N,11740.1977,W,60.00,132.06,220310,,,A*45
$GPRMC,144739.000,A,3331.6155,N,11740.1547,W,60.96,138.65,220310,,,A*43
$GPRMC,144742.000,A,3331.5757,N,11740.1167,W,61.12,144.23,220310,,,A*4A
$GPRMC,144745.000,A,3331.5321,N,11740.0832,W,62.09,150.11,220310,,,A*4D
$GPRMC,144748.000,A,3331.4865,N,11740.0556,W,60.43,156.12,220310,,,A*4C
$GPRMC,144751.000,A,3331.4396,N,11740.0339,W,59.76,160.28,220310,,,A*4C
$GPRMC,144754.000,A,3331.3917,N,11740.0137,W,61.17,160.21,220310,,,A*44
$GPRMC,144757.000,A,3331.3426,N,11739.9929,W,62.53,160.37,220310,,,A*4C
$GPRMC,144800.000,A,3331.2941,N,11739.9722,W,61.05,160.19,220310,,,A*45
$GPRMC,144803.000,A,3331.2462,N,11739.9519,W,60.87,160.46,220310,,,A*41
$GPRMC,144806.000,A,3331.1983,N,11739.9316,W,60.78,160.11,220310,,,A*4E
$GPRMC,144809.000,A,3331.1501,N,11739.9111,W,61.33,160.43,220310,,,A*4B
$GPRMC,144812.000,A,3331.1017,N,11739.8905,W,61.17,160.20,220310,,,A*4C
$GPRMC,144815.000,A,3331.0539,N,11739.8697,W,60.96,160.30,220310,,,A*4E
$GPRMC,144818.000,A,3331.0065,N,11739.8497,W,59.53,160.33,220310,,,A*4D
$GPRMC,144821.000,A,3330.9600,N,11739.8298,W,58.43,160.22,220310,,,A*43
$GPRMC,144824.000,A,3330.9142,N,11739.8102,W,59.21,160.30,220310,,,A*41
$GPRMC,144827.000,A,3330.8667,N,11739.7900,W,61.01,160.27,220310,,,A*49
$GPRMC,144830.000,A,3330.8189,N,11739.7696,W,61.15,160.19,220310,,,A*40
$GPRMC,144833.000,A,3330.7704,N,11739.7489,W,61.91,160.28,220310,,,A*4D
$GPRMC,144836.000,A,3330.7221,N,11739.7282,W,61.34,160.18,220310,,,A*4B
$GPRMC,144839.000,A,3330.6737,N,11739.7075,W,61.69,160.33,220310,,,A*4C
$GPRMC,144842.000,A,3330.6248,N,11739.6868,W,62.56,160.37,220310,,,A*43
$GPRMC,144845.000,A,3330.5749,N,11739.6656,W,63.99,160.37,220310,,,A*42
$GPRMC,144848.000,A,3330.5250,N,11739.6442,W,62.92,160.17,220310,,,A*4D
$GPRMC,144851.000,A,3330.4761,N,11739.6234,W,61.26,160.19,220310,,,A*46
$GPRMC,144854.000,A,3330.4282,N,11739.6031,W,60.62,160.63,220310,,,A*40
$GPRMC,144857.000,A,3330.3805,N,11739.5827,W,60.88,160.14,220310,,,A*49
$GPRMC,144900.000,A,3330.3318,N,11739.5619,W,63.34,160.14,220310,,,A*4A
$GPRMC,144903.000,A,3330.2811,N,11739.5421,W,63.63,164.27,220310,,,A*45
$GPRMC,144906.000,A,3330.2297,N,11739.5270,W,63.12,167.02,220310,,,A*44
$GPRMC,144909.000,A,3330.1780,N,11739.5151,W,62.44,170.61,220310,,,A*4A
$GPRMC,144912.000,A,3330.1259,N,11739.5071,W,63.41,174.09,220310,,,A*4C
$GPRMC,144915.000,A,3330.0726,N,11739.5029,W,65.11,178.36,220310,,,A*49
$GPRMC,144918.000,A,3330.0169,N,11739.5040,W,67.41,181.92,220310,,,A*49
$GPRMC,144921.000,A,3329.9611,N,11739.5078,W,66.92,184.49,220310,,,A*4D
$GPRMC,144924.000,A,3329.9043,N,11739.5158,W,68.55,187.89,220310,,,A*40
$GPRMC,144927.000,A,3329.8488,N,11739.5280,W,66.49,191.77,220310,,,A*42
$GPRMC,144930.000,A,3329.7953,N,11739.5437,W,65.37,195.18,220310,,,A*4D
$GPRMC,144933.000,A,3329.7431,N,11739.5631,W,64.33,198.56,220310,,,A*41
$GPRMC,144936.000,A,3329.6937,N,11739.5857,W,62.12,201.93,220310,,,A*4F
$GPRMC,144939.000,A,3329.6465,N,11739.6110,W,62.05,205.22,220310,,,A*4B
$GPRMC,144942.000,A,3329.5999,N,11739.6403,W,63.33,208.89,220310,,,A*45
$GPRMC,144945.000,A,3329.5540,N,11739.6730,W,64.33,211.50,220310,,,A*42
$GPRMC,144948.000,A,3329.5087,N,11739.7076,W,64.23,212.31,220310,,,A*40
$GPRMC,144951.000,A,3329.4641,N,11739.7414,W,62.06,211.75,220310,,,A*47
$GPRMC,144954.000,A,3329.4212,N,11739.7740,W,59.89,211.98,220310,,,A*4E
$GPRMC,144957.000,A,3329.3798,N,11739.8055,W,58.18,212.18,220310,,,A*43
$GPRMC,145000.000,A,3329.3393,N,11739.8359,W,57.01,212.05,220310,,,A*42
$GPRMC,145003.000,A,3329.2976,N,11739.8673,W,62.42,211.73,220310,,,A*4F
$GPRMC,145006.000,A,3329.2498,N,11739.9017,W,70.67,210.49,220310,,,A*4E
$GPRMC,145009.000,A,3329.1976,N,11739.9397,W,74.31,212.10,220310,,,A*4D
$GPRMC,145012.000,A,3329.1448,N,11739.9799,W,74.97,212.65,220310,,,A*43
$GPRMC,145015.000,A,3329.0930,N,11740.0219,W,74.83,215.34,220310,,,A*4B
$GPRMC,145018.000,A,3329.0425,N,11740.0657,W,74.36,215.81,220310,,,A*41
$GPRMC,145021.000,A,3328.9924,N,11740.1091,W,73.99,215.70,220310,,,A*4E
$GPRMC,145024.000,A,3328.9424,N,11740.1523,W,74.07,215.71,220310,,,A*4B
$GPRMC,145027.000,A,3328.8922,N,11740.1957,W,73.98,215.80,220310,,,A*42
$GPRMC,145030.000,A,3328.8424,N,11740.2387,W,73.63,215.90,220310,,,A*4E
$GPRMC,145033.000,A,3328.7928,N,11740.2818,W,72.87,215.78,220310,,,A*43
$GPRMC,145036.000,A,3328.7438,N,11740.3242,W,71.98,216.20,220310,,,A*4D
$GPRMC,145039.000,A,3328.6958,N,11740.3660,W,70.18,215.75,220310,,,A*46
$GPRMC,145042.000,A,3328.6476,N,11740.4044,W,68.78,210.70,220310,,,A*43
$GPRMC,145045.000,A,3328.5974,N,11740.4356,W,67.46,204.69,220310,,,A*47
$GPRMC,145048.000,A,3328.5448,N,11740.4603,W,67.76,198.52,220310,,,A*40
$GPRMC,145051.000,A,3328.4907,N,11740.4779,W,66.58,192.41,220310,,,A*46
$GPRMC,145054.000,A,3328.4367,N,11740.4883,W,64.43,186.53,220310,,,A*4B
$GPRMC,145057.000,A,3328.3826,N,11740.4921,W,66.11,180.89,220310,,,A*4C
$GPRMC,145100.000,A,3328.3270,N,11740.4887,W,67.44,174.83,220310,,,A*4B
$GPRMC,145103.000,A,3328.2716,N,11740.4783,W,66.63,168.11,220310,,,A*45
$GPRMC,145106.000,A,3328.2189,N,11740.4587,W,64.66,159.02,220310,,,A*41
$GPRMC,145109.000,A,3328.1710,N,11740.4297,W,63.62,149.69,220310,,,A*42
$GPRMC,145112.000,A,3328.1286,N,11740.3926,W,62.79,140.19,220310,,,A*41
$GPRMC,145115.000,A,3328.0914,N,11740.3481,W,63.17,131.46,220310,,,A*42
$GPRMC,145118.000,A,3328.0604,N,11740.2966,W,62.84,122.06,220310,,,A*49
$GPRMC,145121.000,A,3328.0349,N,11740.2406,W,63.23,116.55,220310,,,A*49
$GPRMC,145124.000,A,3328.0117,N,11740.1833,W,63.16,117.61,220310,,,A*4C
$GPRMC,145127.000,A,3327.9857,N,11740.1276,W,64.23,123.13,220310,,,A*4C
$GPRMC,145130.000,A,3327.9537,N,11740.0754,W,65.20,129.05,220310,,,A*4A
$GPRMC,145133.000,A,3327.9187,N,11740.0240,W,67.31,128.99,220310,,,A*40
$GPRMC,145136.000,A,3327.8830,N,11739.9710,W,69.05,128.95,220310,,,A*43
$GPRMC,145139.000,A,3327.8460,N,11739.9166,W,71.34,129.53,220310,,,A*42
$GPRMC,145142.000,A,3327.8077,N,11739.8608,W,73.21,129.20,220310,,,A*40
$GPRMC,145145.000,A,3327.7686,N,11739.8036,W,74.72,129.49,220310,,,A*45
$GPRMC,145148.000,A,3327.7286,N,11739.7456,W,75.74,129.40,220310,,,A*4F
$GPRMC,145151.000,A,3327.6887,N,11739.6869,W,75.22,128.64,220310,,,A*48
$GPRMC,145154.000,A,3327.6517,N,11739.6277,W,72.15,122.93,220310,,,A*4D
$GPRMC,145157.000,A,3327.6239,N,11739.5656,W,69.82,115.62,220310,,,A*4F
$GPRMC,145200.000,A,3327.5982,N,11739.5024,W,70.86,116.63,220310,,,A*4B
$GPRMC,145203.000,A,3327.5705,N,11739.4392,W,72.60,119.86,220310,,,A*48
$GPRMC,145206.000,A,3327.5374,N,11739.3775,W,73.87,125.05,220310,,,A*49
$GPRMC,145209.000,A,3327.5008,N,11739.3170,W,74.80,126.12,220310,,,A*48
$GPRMC,145212.000,A,3327.4643,N,11739.2564,W,74.45,125.64,220310,,,A*41
$GPRMC,145215.000,A,3327.4282,N,11739.1963,W,74.01,125.15,220310,,,A*41
$GPRMC,145218.000,A,3327.3942,N,11739.1350,W,73.85,122.03,220310,,,A*4D
$GPRMC,145221.000,A,3327.3628,N,11739.0712,W,74.76,119.29,220310,,,A*4C
$GPRMC,145224.000,A,3327.3335,N,11739.0054,W,74.53,117.29,220310,,,A*4C
$GPRMC,145227.000,A,3327.3049,N,11738.9394,W,74.51,117.54,220310,,,A*48
$GPRMC,145230.000,A,3327.2765,N,11738.8733,W,74.39,116.85,220310,,,A*4D
$GPRMC,145233.000,A,3327.2485,N,11738.8071,W,74.23,116.85,220310,,,A*49
$GPRMC,145236.000,A,3327.2206,N,11738.7417,W,72.85,117.40,220310,,,A*48
$GPRMC,145239.000,A,3327.1924,N,11738.6785,W,70.96,119.32,220310,,,A*4D
$GPRMC,145242.000,A,3327.1620,N,11738.6184,W,69.29,122.41,220310,,,A*4D
$GPRMC,145245.000,A,3327.1300,N,11738.5610,W,69.03,124.81,220310,,,A*46
$GPRMC,145248.000,A,3327.0954,N,11738.5058,W,69.29,127.85,220310,,,A*44
$GPRMC,145251.000,A,3327.0589,N,11738.4522,W,69.03,129.81,220310,,,A*4B
$GPRMC,145254.000,A,3327.0218,N,11738.4005,W,67.40,130.56,220310,,,A*4A
$GPRMC,145257.000,A,3326.9857,N,11738.3506,W,65.40,130.35,220310,,,A*46
$GPRMC,145300.000,A,3326.9503,N,11738.3015,W,65.57,130.49,220310,,,A*43
$GPRMC,145303.000,A,3326.9153,N,11738.2511,W,65.74,127.87,220310,,,A*44
$GPRMC,145306.000,A,3326.8842,N,11738.1969,W,67.24,121.81,220310,,,A*4E
$GPRMC,145309.000,A,3326.8551,N,11738.1395,W,67.42,121.28,220310,,,A*44
$GPRMC,145312.000,A,3326.8258,N,11738.0821,W,67.10,121.40,220310,,,A*4C
$GPRMC,145315.000,A,3326.7972,N,11738.0261,W,64.47,121.05,220310,,,A*49
$GPRMC,145318.000,A,3326.7700,N,11737.9722,W,61.77,121.36,220310,,,A*4D
$GPRMC,145321.000,A,3326.7420,N,11737.9215,W,60.88,126.04,220310,,,A*40
$GPRMC,145324.000,A,3326.7098,N,11737.8738,W,62.42,131.07,220310,,,A*48
$GPRMC,145327.000,A,3326.6725,N,11737.8286,W,64.07,135.05,220310,,,A*4A
$GPRMC,145330.000,A,3326.6342,N,11737.7831,W,65.09,134.49,220310,,,A*46
$GPRMC,145333.000,A,3326.5954,N,11737.7366,W,67.28,134.88,220310,,,A*4E
$GPRMC,145336.000,A,3326.5554,N,11737.6893,W,67.32,134.98,220310,,,A*4D
$GPRMC,145339.000,A,3326.5161,N,11737.6424,W,65.89,134.48,220310,,,A*4F
$GPRMC,145342.000,A,3326.4782,N,11737.5958,W,64.21,132.84,220310,,,A*49
$GPRMC,145345.000,A,3326.4442,N,11737.5470,W,63.41,127.06,220310,,,A*49
$GPRMC,145348.000,A,3326.4144,N,11737.4954,W,62.90,123.20,220310,,,A*40
$GPRMC,145351.000,A,3326.3857,N,11737.4432,W,63.01,123.52,220310,,,A*45
$GPRMC,145354.000,A,3326.3568,N,11737.3905,W,63.55,123.45,220310,,,A*48
$GPRMC,145357.000,A,3326.3276,N,11737.3377,W,63.47,123.30,220310,,,A*4D
$GPRMC,145400.000,A,3326.2984,N,11737.2841,W,64.90,123.31,220310,,,A*4C
$GPRMC,145403.000,A,3326.2684,N,11737.2301,W,64.61,123.98,220310,,,A*42
$GPRMC,145406.000,A,3326.2366,N,11737.1795,W,62.36,130.02,220310,,,A*41
$GPRMC,145409.000,A,3326.2008,N,11737.1342,W,62.11,136.13,220310,,,A*48
$GPRMC,145412.000,A,3326.1612,N,11737.0940,W,62.29,141.89,220310,,,A*4D
$GPRMC,145415.000,A,3326.1174,N,11737.0582,W,64.01,148.26,220310,,,A*4F
$GPRMC,145418.000,A,3326.0702,N,11737.0264,W,64.86,150.94,220310,,,A*44
$GPRMC,145421.000,A,3326.0225,N,11736.9948,W,65.00,150.58,220310,,,A*4C
$GPRMC,145424.000,A,3325.9751,N,11736.9635,W,64.42,150.83,220310,,,A*41
$GPRMC,145427.000,A,3325.9295,N,11736.9321,W,62.21,147.83,220310,,,A*4A
$GPRMC,145430.000,A,3325.8879,N,11736.8970,W,60.20,141.77,220310,,,A*44
$GPRMC,145433.000,A,3325.8510,N,11736.8585,W,57.34,136.36,220310,,,A*47
$GPRMC,145436.000,A,3325.8182,N,11736.8184,W,56.39,133.71,220310,,,A*42
$GPRMC,145439.000,A,3325.7853,N,11736.7775,W,58.26,134.46,220310,,,A*43
$GPRMC,145442.000,A,3325.7486,N,11736.7363,W,62.54,139.29,220310,,,A*40
$GPRMC,145445.000,A,3325.7061,N,11736.6971,W,66.66,144.70,220310,,,A*41
$GPRMC,145448.000,A,3325.6581,N,11736.6591,W,70.60,147.46,220310,,,A*43
$GPRMC,145451.000,A,3325.6066,N,11736.6227,W,71.68,150.47,220310,,,A*43
$GPRMC,145454.000,A,3325.5549,N,11736.5877,W,71.01,150.28,220310,,,A*47
$GPRMC,145457.000,A,3325.5031,N,11736.5530,W,70.96,150.44,220310,,,A*45
$GPRMC,145500.000,A,3325.4512,N,11736.5194,W,70.41,153.65,220310,,,A*43
$GPRMC,145503.000,A,3325.3969,N,11736.4914,W,71.43,158.33,220310,,,A*4D
$GPRMC,145506.000,A,3325.3405,N,11736.4650,W,73.14,158.02,220310,,,A*42
$GPRMC,145509.000,A,3325.2843,N,11736.4346,W,74.25,152.30,220310,,,A*4E
$GPRMC,145512.000,A,3325.2315,N,11736.3960,W,74.78,145.63,220310,,,A*4D
$GPRMC,145515.000,A,3325.1803,N,11736.3522,W,75.74,144.19,220310,,,A*4E
$GPRMC,145518.000,A,3325.1286,N,11736.3084,W,76.17,146.95,220310,,,A*4D
$GPRMC,145521.000,A,3325.0725,N,11736.2741,W,74.82,156.96,220310,,,A*49
$GPRMC,145524.000,A,3325.0142,N,11736.2449,W,76.76,157.14,220310,,,A*42
$GPRMC,145527.000,A,3324.9547,N,11736.2152,W,77.26,157.37,220310,,,A*42
$GPRMC,145530.000,A,3324.8953,N,11736.1855,W,76.41,156.94,220310,,,A*49
$GPRMC,145533.000,A,3324.8367,N,11736.1575,W,74.80,159.23,220310,,,A*44
$GPRMC,145536.000,A,3324.7792,N,11736.1302,W,72.73,157.09,220310,,,A*4A
$GPRMC,145539.000,A,3324.7240,N,11736.1025,W,70.26,156.94,220310,,,A*4E
$GPRMC,145542.000,A,3324.6707,N,11736.0758,W,68.16,157.11,220310,,,A*4F
$GPRMC,145545.000,A,3324.6180,N,11736.0493,W,68.38,157.00,220310,,,A*49
$GPRMC,145548.000,A,3324.5659,N,11736.0231,W,67.18,157.29,220310,,,A*4C
$GPRMC,145551.000,A,3324.5132,N,11735.9968,W,70.11,157.08,220310,,,A*4F
$GPRMC,145554.000,A,3324.4573,N,11735.9683,W,75.64,156.45,220310,,,A*4F
$GPRMC,145557.000,A,3324.3978,N,11735.9364,W,79.83,156.18,220310,,,A*4D
$GPRMC,145600.000,A,3324.3363,N,11735.9054,W,79.22,157.42,220310,,,A*49
$GPRMC,145603.000,A,3324.2758,N,11735.8752,W,77.60,157.15,220310,,,A*4D
$GPRMC,145606.000,A,3324.2157,N,11735.8451,W,77.64,157.19,220310,,,A*49
$GPRMC,145609.000,A,3324.1566,N,11735.8157,W,75.54,157.37,220310,,,A*4D
$GPRMC,145612.000,A,3324.0984,N,11735.7865,W,75.86,157.21,220310,,,A*49
$GPRMC,145615.000,A,3324.0397,N,11735.7569,W,77.40,156.95,220310,,,A*41
$GPRMC,145618.000,A,3323.9796,N,11735.7268,W,78.99,157.23,220310,,,A*46
$GPRMC,145621.000,A,3323.9187,N,11735.6962,W,78.81,156.97,220310,,,A*4D
$GPRMC,145624.000,A,3323.8581,N,11735.6654,W,77.58,156.62,220310,,,A*40
$GPRMC,145627.000,A,3323.7991,N,11735.6335,W,76.90,154.41,220310,,,A*45
$GPRMC,145630.000,A,3323.7421,N,11735.5993,W,75.60,152.25,220310,,,A*48
$GPRMC,145633.000,A,3323.6881,N,11735.5641,W,72.55,150.90,220310,,,A*41
$GPRMC,145636.000,A,3323.6363,N,11735.5285,W,71.70,149.78,220310,,,A*45
$GPRMC,145639.000,A,3323.5857,N,11735.4918,W,70.99,148.12,220310,,,A*40
$GPRMC,145642.000,A,3323.5361,N,11735.4538,W,70.21,147.14,220310,,,A*46
$GPRMC,145645.000,A,3323.4873,N,11735.4160,W,69.85,146.99,220310,,,A*43
$GPRMC,145648.000,A,3323.4387,N,11735.3779,W,69.68,146.91,220310,,,A*4C
$GPRMC,145651.000,A,3323.3897,N,11735.3397,W,70.33,147.08,220310,,,A*4A
$GPRMC,145654.000,A,3323.3408,N,11735.3008,W,70.43,145.47,220310,,,A*4E
$GPRMC,145657.000,A,3323.2941,N,11735.2582,W,70.51,140.12,220310,,,A*4C
$GPRMC,145700.000,A,3323.2509,N,11735.2104,W,70.85,134.99,220310,,,A*4C
$GPRMC,145703.000,A,3323.2110,N,11735.1579,W,71.36,129.81,220310,,,A*42
$GPRMC,145706.000,A,3323.1750,N,11735.1010,W,72.01,124.74,220310,,,A*4C
$GPRMC,145709.000,A,3323.1430,N,11735.0400,W,72.35,119.77,220310,,,A*48
$GPRMC,145712.000,A,3323.1160,N,11734.9763,W,71.93,115.24,220310,,,A*49
$GPRMC,145715.000,A,3323.0908,N,11734.9111,W,72.37,115.03,220310,,,A*42
$GPRMC,145718.000,A,3323.0654,N,11734.8452,W,73.19,114.96,220310,,,A*4A
$GPRMC,145721.000,A,3323.0397,N,11734.7781,W,74.58,114.96,220310,,,A*4A
$GPRMC,145724.000,A,3323.0135,N,11734.7103,W,75.02,114.99,220310,,,A*48
$GPRMC,145727.000,A,3322.9877,N,11734.6435,W,72.88,114.94,220310,,,A*45
$GPRMC,145730.000,A,3322.9625,N,11734.5780,W,72.23,114.75,220310,,,A*4A
$GPRMC,145733.000,A,3322.9374,N,11734.5123,W,72.51,114.95,220310,,,A*4C
$GPRMC,145736.000,A,3322.9124,N,11734.4472,W,72.01,114.91,220310,,,A*4F
$GPRMC,145739.000,A,3322.8869,N,11734.3814,W,73.54,115.06,220310,,,A*44
$GPRMC,145742.000,A,3322.8610,N,11734.3148,W,73.78,114.81,220310,,,A*48
$GPRMC,145745.000,A,3322.8353,N,11734.2482,W,73.42,114.68,220310,,,A*41
$GPRMC,145748.000,A,3322.8097,N,11734.1821,W,73.15,114.78,220310,,,A*42
$GPRMC,145751.000,A,3322.7841,N,11734.1163,W,72.39,115.06,220310,,,A*4E
$GPRMC,145754.000,A,3322.7590,N,11734.0519,W,70.61,114.83,220310,,,A*41
$GPRMC,145757.000,A,3322.7342,N,11733.9888,W,69.86,115.96,220310,,,A*44
$GPRMC,145800.000,A,3322.7058,N,11733.9289,W,68.97,122.98,220310,,,A*41
$GPRMC,145803.000,A,3322.6715,N,11733.8746,W,68.38,129.92,220310,,,A*4E
$GPRMC,145806.000,A,3322.6319,N,11733.8257,W,68.71,136.50,220310,,,A*4B
$GPRMC,145809.000,A,3322.5895,N,11733.7792,W,69.48,136.59,220310,,,A*49
$GPRMC,145812.000,A,3322.5468,N,11733.7317,W,70.23,135.91,220310,,,A*46
$GPRMC,145815.000,A,3322.5067,N,11733.6804,W,70.97,129.40,220310,,,A*4C
$GPRMC,145818.000,A,3322.4719,N,11733.6229,W,71.67,123.00,220310,,,A*4B
$GPRMC,145821.000,A,3322.4392,N,11733.5627,W,72.29,123.22,220310,,,A*46
$GPRMC,145824.000,A,3322.4063,N,11733.5025,W,71.96,123.02,220310,,,A*4F
$GPRMC,145827.000,A,3322.3737,N,11733.4425,W,71.38,122.97,220310,,,A*41
$GPRMC,145830.000,A,3322.3412,N,11733.3829,W,71.62,122.93,220310,,,A*4F
$GPRMC,145833.000,A,3322.3086,N,11733.3229,W,71.90,123.00,220310,,,A*49
$GPRMC,145836.000,A,3322.2759,N,11733.2629,W,71.67,123.03,220310,,,A*46
$GPRMC,145839.000,A,3322.2434,N,11733.2033,W,71.48,123.06,220310,,,A*44
$GPRMC,145842.000,A,3322.2107,N,11733.1434,W,72.06,123.25,220310,,,A*45
$GPRMC,145845.000,A,3322.1780,N,11733.0834,W,71.40,122.82,220310,,,A*48
$GPRMC,145848.000,A,3322.1453,N,11733.0236,W,72.00,123.19,220310,,,A*44
$GPRMC,145851.000,A,3322.1127,N,11732.9636,W,71.55,122.91,220310,,,A*44
$GPRMC,145854.000,A,3322.0803,N,11732.9045,W,70.39,123.30,220310,,,A*4C
$GPRMC,145857.000,A,3322.0481,N,11732.8463,W,69.92,123.98,220310,,,A*43
$GPRMC,145900.000,A,3322.0130,N,11732.7901,W,70.81,128.46,220310,,,A*4B
$GPRMC,145903.000,A,3321.9750,N,11732.7350,W,72.23,129.14,220310,,,A*40
$GPRMC,145906.000,A,3321.9367,N,11732.6792,W,72.24,129.11,220310,,,A*4C
$GPRMC,145909.000,A,3321.8995,N,11732.6251,W,68.19,129.32,220310,,,A*4B
$GPRMC,145912.000,A,3321.8643,N,11732.5738,W,66.32,129.26,220310,,,A*4E
$GPRMC,145915.000,A,3321.8291,N,11732.5225,W,66.61,129.32,220310,,,A*48
$GPRMC,145918.000,A,3321.7940,N,11732.4713,W,66.92,129.25,220310,,,A*46
$GPRMC,145921.000,A,3321.7586,N,11732.4199,W,66.78,129.23,220310,,,A*4C
$GPRMC,145924.000,A,3321.7239,N,11732.3692,W,65.21,129.13,220310,,,A*4D
$GPRMC,145927.000,A,3321.6891,N,11732.3183,W,67.38,129.11,220310,,,A*48
$GPRMC,145930.000,A,3321.6532,N,11732.2658,W,68.23,129.18,220310,,,A*46
$GPRMC,145933.000,A,3321.6174,N,11732.2136,W,66.96,129.01,220310,,,A*44
$GPRMC,145936.000,A,3321.5820,N,11732.1617,W,67.62,129.03,220310,,,A*45
$GPRMC,145939.000,A,3321.5461,N,11732.1093,W,67.71,129.12,220310,,,A*4B
$GPRMC,145942.000,A,3321.5102,N,11732.0567,W,68.61,129.17,220310,,,A*43
$GPRMC,145945.000,A,3321.4736,N,11732.0034,W,69.47,129.18,220310,,,A*4D
$GPRMC,145948.000,A,3321.4372,N,11731.9502,W,68.08,129.23,220310,,,A*4C
$GPRMC,145951.000,A,3321.4015,N,11731.8984,W,67.16,129.47,220310,,,A*47
$GPRMC,145954.000,A,3321.3666,N,11731.8476,W,65.02,129.10,220310,,,A*42
$GPRMC,145957.000,A,3321.3330,N,11731.7984,W,63.02,129.14,220310,,,A*4A
$GPRMC,150000.000,A,3321.2998,N,11731.7499,W,63.06,129.25,220310,,,A*4B
$GPRMC,150003.000,A,3321.2665,N,11731.7012,W,63.32,129.26,220310,,,A*46
$GPRMC,150006.000,A,3321.2330,N,11731.6525,W,63.66,129.34,220310,,,A*44
$GPRMC,150009.000,A,3321.1992,N,11731.6032,W,64.50,129.32,220310,,,A*4D
$GPRMC,150012.000,A,3321.1645,N,11731.5526,W,66.77,129.10,220310,,,A*46
$GPRMC,150015.000,A,3321.1290,N,11731.5006,W,66.91,129.05,220310,,,A*46
$GPRMC,150018.000,A,3321.0947,N,11731.4501,W,63.69,128.91,220310,,,A*46
$GPRMC,150021.000,A,3321.0618,N,11731.4021,W,61.24,129.32,220310,,,A*4D
$GPRMC,150024.000,A,3321.0294,N,11731.3550,W,60.86,129.36,220310,,,A*41
$GPRMC,150027.000,A,3320.9976,N,11731.3086,W,60.23,129.24,220310,,,A*4F
$GPRMC,150030.000,A,3320.9659,N,11731.2624,W,59.62,129.31,220310,,,A*4F
$GPRMC,150033.000,A,3320.9348,N,11731.2169,W,59.31,128.95,220310,,,A*4E
$GPRMC,150036.000,A,3320.9039,N,11731.1716,W,58.38,129.30,220310,,,A*45
$GPRMC,150039.000,A,3320.8734,N,11731.1274,W,56.73,129.37,220310,,,A*46
$GPRMC,150042.000,A,3320.8438,N,11731.0849,W,54.82,130.04,220310,,,A*44
$GPRMC,150045.000,A,3320.8144,N,11731.0438,W,54.20,130.61,220310,,,A*4C
$GPRMC,150048.000,A,3320.7846,N,11731.0026,W,55.66,130.76,220310,,,A*4B
$GPRMC,150051.000,A,3320.7533,N,11730.9595,W,59.26,130.88,220310,,,A*40
$GPRMC,150054.000,A,3320.7202,N,11730.9140,W,61.71,130.86,220310,,,A*4B
$GPRMC,150057.000,A,3320.6857,N,11730.8667,W,63.96,130.81,220310,,,A*4C
$GPRMC,150100.000,A,3320.6501,N,11730.8177,W,66.28,130.98,220310,,,A*4F
$GPRMC,150103.000,A,3320.6131,N,11730.7669,W,68.63,130.71,220310,,,A*4A
$GPRMC,150106.000,A,3320.5750,N,11730.7145,W,70.24,131.02,220310,,,A*4B
$GPRMC,150109.000,A,3320.5363,N,11730.6614,W,70.81,130.87,220310,,,A*41
$GPRMC,150112.000,A,3320.4975,N,11730.6080,W,71.32,130.87,220310,,,A*45
$GPRMC,150115.000,A,3320.4581,N,11730.5540,W,72.02,130.99,220310,,,A*40
$GPRMC,150118.000,A,3320.4188,N,11730.5001,W,71.72,130.88,220310,,,A*44
$GPRMC,150121.000,A,3320.3799,N,11730.4467,W,70.49,130.79,220310,,,A*4D
$GPRMC,150124.000,A,3320.3418,N,11730.3942,W,68.80,131.00,220310,,,A*4C
$GPRMC,150127.000,A,3320.3040,N,11730.3428,W,69.38,132.00,220310,,,A*46
$GPRMC,150130.000,A,3320.2640,N,11730.2909,W,71.67,131.86,220310,,,A*46
$GPRMC,150133.000,A,3320.2241,N,11730.2364,W,73.65,130.73,220310,,,A*4A
$GPRMC,150136.000,A,3320.1835,N,11730.1803,W,75.32,131.02,220310,,,A*4F
$GPRMC,150139.000,A,3320.1415,N,11730.1228,W,77.79,130.89,220310,,,A*42
$GPRMC,150142.000,A,3320.0982,N,11730.0633,W,80.13,130.86,220310,,,A*48
$GPRMC,150145.000,A,3320.0538,N,11730.0021,W,82.30,130.91,220310,,,A*42
$GPRMC,150148.000,A,3320.0084,N,11729.9394,W,83.46,130.39,220310,,,A*43
$GPRMC,150151.000,A,3319.9637,N,11729.8760,W,82.38,129.95,220310,,,A*4E
$GPRMC,150154.000,A,3319.9190,N,11729.8139,W,82.38,131.05,220310,,,A*4B
$GPRMC,150157.000,A,3319.8739,N,11729.7518,W,82.63,130.71,220310,,,A*48
$GPRMC,150200.000,A,3319.8293,N,11729.6901,W,81.11,130.57,220310,,,A*4B
$GPRMC,150203.000,A,3319.7848,N,11729.6289,W,81.71,131.15,220310,,,A*41
$GPRMC,150206.000,A,3319.7398,N,11729.5673,W,82.21,130.78,220310,,,A*4C
$GPRMC,150209.000,A,3319.6949,N,11729.5057,W,81.64,130.94,220310,,,A*44
$GPRMC,150212.000,A,3319.6504,N,11729.4445,W,81.23,130.97,220310,,,A*4D
$GPRMC,150215.000,A,3319.6060,N,11729.3836,W,80.93,130.97,220310,,,A*48
$GPRMC,150218.000,A,3319.5618,N,11729.3230,W,80.49,130.87,220310,,,A*45
$GPRMC,150221.000,A,3319.5181,N,11729.2629,W,79.48,130.70,220310,,,A*4A
$GPRMC,150224.000,A,3319.4750,N,11729.2037,W,77.86,130.86,220310,,,A*48
$GPRMC,150227.000,A,3319.4328,N,11729.1459,W,76.02,130.86,220310,,,A*42
$GPRMC,150230.000,A,3319.3917,N,11729.0909,W,71.85,133.36,220310,,,A*4C
$GPRMC,150233.000,A,3319.3484,N,11729.0439,W,69.34,141.63,220310,,,A*40
$GPRMC,150236.000,A,3319.3009,N,11729.0062,W,67.58,149.93,220310,,,A*4D
$GPRMC,150239.000,A,3319.2509,N,11728.9774,W,66.07,157.71,220310,,,A*46
$GPRMC,150242.000,A,3319.1988,N,11728.9574,W,65.01,165.70,220310,,,A*4B
$GPRMC,150245.000,A,3319.1457,N,11728.9460,W,65.06,172.80,220310,,,A*49
$GPRMC,150248.000,A,3319.0914,N,11728.9412,W,65.49,175.80,220310,,,A*46
$GPRMC,150251.000,A,3319.0366,N,11728.9368,W,66.19,175.26,220310,,,A*41
$GPRMC,150254.000,A,3318.9809,N,11728.9320,W,67.34,175.73,220310,,,A*4C
$GPRMC,150257.000,A,3318.9250,N,11728.9270,W,66.86,174.57,220310,,,A*42
$GPRMC,150300.000,A,3318.8703,N,11728.9172,W,65.82,167.22,220310,,,A*45
$GPRMC,150303.000,A,3318.8179,N,11728.8987,W,65.19,159.87,220310,,,A*4E
$GPRMC,150306.000,A,3318.7681,N,11728.8726,W,65.06,152.51,220310,,,A*4F
$GPRMC,150309.000,A,3318.7216,N,11728.8388,W,65.22,144.77,220310,,,A*4F
$GPRMC,150312.000,A,3318.6788,N,11728.7973,W,66.74,137.44,220310,,,A*43
$GPRMC,150315.000,A,3318.6391,N,11728.7495,W,68.20,134.06,220310,,,A*47
$GPRMC,150318.000,A,3318.5987,N,11728.7000,W,70.34,134.49,220310,,,A*4B
$GPRMC,150321.000,A,3318.5572,N,11728.6490,W,71.98,134.37,220310,,,A*45
$GPRMC,150324.000,A,3318.5147,N,11728.5971,W,73.54,134.41,220310,,,A*40
$GPRMC,150327.000,A,3318.4713,N,11728.5442,W,75.04,134.27,220310,,,A*4B
$GPRMC,150330.000,A,3318.4274,N,11728.4905,W,75.59,134.47,220310,,,A*48
$GPRMC,150333.000,A,3318.3827,N,11728.4361,W,77.06,134.39,220310,,,A*49
$GPRMC,150336.000,A,3318.3373,N,11728.3809,W,77.97,134.57,220310,,,A*44
$GPRMC,150339.000,A,3318.2917,N,11728.3253,W,78.12,134.25,220310,,,A*40
$GPRMC,150342.000,A,3318.2460,N,11728.2695,W,78.33,134.45,220310,,,A*4B
$GPRMC,150345.000,A,3318.2001,N,11728.2139,W,77.96,134.47,220310,,,A*4C
$GPRMC,150348.000,A,3318.1544,N,11728.1584,W,78.29,134.45,220310,,,A*4E
$GPRMC,150351.000,A,3318.1085,N,11728.1025,W,78.60,134.33,220310,,,A*4C
$GPRMC,150354.000,A,3318.0627,N,11728.0469,W,77.82,134.66,220310,,,A*48
$GPRMC,150357.000,A,3318.0176,N,11727.9922,W,76.96,134.32,220310,,,A*49
$GPRMC,150400.000,A,3317.9730,N,11727.9380,W,75.86,134.67,220310,,,A*4E
$GPRMC,150403.000,A,3317.9289,N,11727.8848,W,74.74,134.40,220310,,,A*4D
$GPRMC,150406.000,A,3317.8858,N,11727.8323,W,73.66,134.53,220310,,,A*4F
$GPRMC,150409.000,A,3317.8425,N,11727.7796,W,74.49,134.06,220310,,,A*49
$GPRMC,150412.000,A,3317.7989,N,11727.7265,W,74.98,134.83,220310,,,A*4F
$GPRMC,150415.000,A,3317.7544,N,11727.6738,W,75.17,136.01,220310,,,A*47
$GPRMC,150418.000,A,3317.7094,N,11727.6214,W,74.96,134.65,220310,,,A*41
$GPRMC,150421.000,A,3317.6656,N,11727.5685,W,73.75,135.30,220310,,,A*46
$GPRMC,150424.000,A,3317.6195,N,11727.5212,W,72.74,143.35,220310,,,A*45
$GPRMC,150427.000,A,3317.5688,N,11727.4817,W,72.29,147.68,220310,,,A*44
$GPRMC,150430.000,A,3317.5177,N,11727.4433,W,72.25,147.26,220310,,,A*49
$GPRMC,150433.000,A,3317.4670,N,11727.4048,W,72.07,147.47,220310,,,A*44
$GPRMC,150436.000,A,3317.4160,N,11727.3664,W,72.53,147.20,220310,,,A*48
$GPRMC,150439.000,A,3317.3647,N,11727.3275,W,73.36,147.46,220310,,,A*44
$GPRMC,150442.000,A,3317.3125,N,11727.2882,W,74.32,147.51,220310,,,A*4D
$GPRMC,150445.000,A,3317.2597,N,11727.2482,W,75.55,147.45,220310,,,A*4F
$GPRMC,150448.000,A,3317.2058,N,11727.2073,W,77.40,147.51,220310,,,A*4D
$GPRMC,150451.000,A,3317.1505,N,11727.1655,W,79.06,147.47,220310,,,A*41
$GPRMC,150454.000,A,3317.0942,N,11727.1229,W,80.39,147.50,220310,,,A*49
$GPRMC,150457.000,A,3317.0376,N,11727.0801,W,79.91,147.60,220310,,,A*41
$GPRMC,150500.000,A,3316.9813,N,11727.0375,W,79.68,147.34,220310,,,A*4D
$GPRMC,150503.000,A,3316.9255,N,11726.9953,W,78.12,147.47,220310,,,A*48
$GPRMC,150506.000,A,3316.8716,N,11726.9544,W,76.03,147.31,220310,,,A*4B
$GPRMC,150509.000,A,3316.8179,N,11726.9136,W,77.08,147.56,220310,,,A*41
$GPRMC,150512.000,A,3316.7636,N,11726.8726,W,76.90,147.37,220310,,,A*49
$GPRMC,150515.000,A,3316.7095,N,11726.8315,W,76.32,147.35,220310,,,A*4F
$GPRMC,150518.000,A,3316.6568,N,11726.7914,W,72.85,147.41,220310,,,A*4B
$GPRMC,150521.000,A,3316.6075,N,11726.7540,W,66.36,147.51,220310,,,A*49
$GPRMC,150524.000,A,3316.5635,N,11726.7207,W,60.31,147.50,220310,,,A*49
$GPRMC,150527.000,A,3316.5223,N,11726.6896,W,56.93,147.47,220310,,,A*41
$GPRMC,150530.000,A,3316.4829,N,11726.6595,W,56.87,147.35,220310,,,A*48
$GPRMC,150533.000,A,3316.4432,N,11726.6294,W,57.20,147.42,220310,,,A*47
$GPRMC,150536.000,A,3316.4030,N,11726.5988,W,57.14,147.26,220310,,,A*44
$GPRMC,150539.000,A,3316.3641,N,11726.5663,W,57.48,141.72,220310,,,A*48
$GPRMC,150542.000,A,3316.3276,N,11726.5277,W,60.55,135.34,220310,,,A*4C
$GPRMC,150545.000,A,3316.2922,N,11726.4820,W,64.25,131.37,220310,,,A*4D
$GPRMC,150548.000,A,3316.2560,N,11726.4329,W,67.12,131.46,220310,,,A*49
$GPRMC,150551.000,A,3316.2188,N,11726.3825,W,67.24,131.49,220310,,,A*49
$GPRMC,150554.000,A,3316.1814,N,11726.3317,W,68.82,131.26,220310,,,A*43
$GPRMC,150557.000,A,3316.1429,N,11726.2790,W,70.83,131.27,220310,,,A*41
$GPRMC,150600.000,A,3316.1033,N,11726.2252,W,72.67,131.39,220310,,,A*43
$GPRMC,150603.000,A,3316.0626,N,11726.1701,W,74.37,131.28,220310,,,A*40
$GPRMC,150606.000,A,3316.0214,N,11726.1141,W,75.12,131.27,220310,,,A*4B
$GPRMC,150609.000,A,3315.9798,N,11726.0577,W,75.35,131.45,220310,,,A*4E
$GPRMC,150612.000,A,3315.9383,N,11726.0015,W,74.73,131.47,220310,,,A*4A
$GPRMC,150615.000,A,3315.8975,N,11725.9468,W,72.07,131.63,220310,,,A*48
$GPRMC,150618.000,A,3315.8565,N,11725.8974,W,69.37,138.54,220310,,,A*4D
$GPRMC,150621.000,A,3315.8098,N,11725.8554,W,71.33,146.22,220310,,,A*4B
$GPRMC,150624.000,A,3315.7599,N,11725.8160,W,71.66,146.03,220310,,,A*45
$GPRMC,150627.000,A,3315.7099,N,11725.7766,W,72.08,146.41,220310,,,A*41
$GPRMC,150630.000,A,3315.6596,N,11725.7370,W,72.63,146.30,220310,,,A*44
$GPRMC,150633.000,A,3315.6085,N,11725.6969,W,73.85,146.56,220310,,,A*4A
$GPRMC,150636.000,A,3315.5567,N,11725.6561,W,74.91,146.25,220310,,,A*47
$GPRMC,150639.000,A,3315.5041,N,11725.6147,W,75.89,146.39,220310,,,A*4C
$GPRMC,150642.000,A,3315.4515,N,11725.5730,W,75.59,145.97,220310,,,A*4A
$GPRMC,150645.000,A,3315.3986,N,11725.5310,W,76.40,146.28,220310,,,A*46
$GPRMC,150648.000,A,3315.3448,N,11725.4882,W,78.07,146.25,220310,,,A*45
$GPRMC,150651.000,A,3315.2913,N,11725.4459,W,75.07,146.38,220310,,,A*44
$GPRMC,150654.000,A,3315.2404,N,11725.4058,W,71.63,146.42,220310,,,A*44
$GPRMC,150657.000,A,3315.1909,N,11725.3665,W,71.00,146.24,220310,,,A*4E
$GPRMC,150700.000,A,3315.1425,N,11725.3282,W,68.50,146.20,220310,,,A*4A
$GPRMC,150703.000,A,3315.0960,N,11725.2913,W,66.01,146.43,220310,,,A*49
$GPRMC,150706.000,A,3315.0512,N,11725.2558,W,63.51,146.35,220310,,,A*47
$GPRMC,150709.000,A,3315.0071,N,11725.2210,W,63.35,146.20,220310,,,A*45
$GPRMC,150712.000,A,3314.9636,N,11725.1865,W,62.43,146.22,220310,,,A*4B
$GPRMC,150715.000,A,3314.9205,N,11725.1525,W,61.61,146.38,220310,,,A*49
$GPRMC,150718.000,A,3314.8780,N,11725.1192,W,60.55,147.50,220310,,,A*4C
$GPRMC,150721.000,A,3314.8342,N,11725.0909,W,59.36,154.98,220310,,,A*4E
$GPRMC,150724.000,A,3314.7884,N,11725.0693,W,59.00,159.69,220310,,,A*4F
$GPRMC,150727.000,A,3314.7424,N,11725.0487,W,59.54,159.12,220310,,,A*40
$GPRMC,150730.000,A,3314.6960,N,11725.0282,W,58.85,159.35,220310,,,A*41
$GPRMC,150733.000,A,3314.6495,N,11725.0076,W,60.27,159.41,220310,,,A*4C
$GPRMC,150736.000,A,3314.6020,N,11724.9859,W,61.29,157.95,220310,,,A*46
$GPRMC,150739.000,A,3314.5553,N,11724.9593,W,62.87,150.50,220310,,,A*49
$GPRMC,150742.000,A,3314.5105,N,11724.9256,W,63.92,144.37,220310,,,A*4D
$GPRMC,150745.000,A,3314.4693,N,11724.8859,W,63.05,138.00,220310,,,A*46
$GPRMC,150748.000,A,3314.4331,N,11724.8424,W,60.59,131.44,220310,,,A*43
$GPRMC,150751.000,A,3314.4029,N,11724.7967,W,55.66,125.84,220310,,,A*47
$GPRMC,150754.000,A,3314.3774,N,11724.7529,W,52.19,124.91,220310,,,A*46
$GPRMC,150757.000,A,3314.3531,N,11724.7112,W,50.56,124.85,220310,,,A*46
$GPRMC,150800.000,A,3314.3286,N,11724.6690,W,52.58,124.85,220310,,,A*40
$GPRMC,150803.000,A,3314.3030,N,11724.6252,W,55.07,124.84,220310,,,A*4A
$GPRMC,150806.000,A,3314.2756,N,11724.5799,W,56.74,128.12,220310,,,A*4C
$GPRMC,150809.000,A,3314.2445,N,11724.5370,W,57.32,133.67,220310,,,A*4A
$GPRMC,150812.000,A,3314.2107,N,11724.4976,W,56.68,136.57,220310,,,A*46
$GPRMC,150815.000,A,3314.1763,N,11724.4590,W,56.45,136.33,220310,,,A*4F
$GPRMC,150818.000,A,3314.1425,N,11724.4210,W,55.54,136.87,220310,,,A*40
$GPRMC,150821.000,A,3314.1087,N,11724.3832,W,55.11,136.49,220310,,,A*48
$GPRMC,150824.000,A,3314.0755,N,11724.3458,W,54.75,136.66,220310,,,A*4A
$GPRMC,150827.000,A,3314.0415,N,11724.3076,W,58.02,136.56,220310,,,A*49
$GPRMC,150830.000,A,3314.0053,N,11724.2670,W,60.84,136.55,220310,,,A*4E
$GPRMC,150833.000,A,3313.9679,N,11724.2251,W,61.85,136.63,220310,,,A*4F
$GPRMC,150836.000,A,3313.9304,N,11724.1831,W,60.67,136.68,220310,,,A*4C
$GPRMC,150839.000,A,3313.8942,N,11724.1428,W,58.57,136.59,220310,,,A*44
$GPRMC,150842.000,A,3313.8590,N,11724.1032,W,57.41,136.81,220310,,,A*49
$GPRMC,150845.000,A,3313.8243,N,11724.0650,W,55.83,137.10,220310,,,A*41
$GPRMC,150848.000,A,3313.7902,N,11724.0273,W,56.13,137.06,220310,,,A*45
$GPRMC,150851.000,A,3313.7558,N,11723.9892,W,56.34,137.00,220310,,,A*46
$GPRMC,150854.000,A,3313.7211,N,11723.9507,W,57.66,136.80,220310,,,A*47
$GPRMC,150857.000,A,3313.6851,N,11723.9110,W,59.73,136.94,220310,,,A*46
$GPRMC,150900.000,A,3313.6483,N,11723.8700,W,60.72,136.95,220310,,,A*4A
$GPRMC,150903.000,A,3313.6114,N,11723.8292,W,59.88,136.92,220310,,,A*44
$GPRMC,150906.000,A,3313.5754,N,11723.7894,W,57.31,137.05,220310,,,A*40
$GPRMC,150909.000,A,3313.5417,N,11723.7520,W,53.46,136.92,220310,,,A*42
$GPRMC,150912.000,A,3313.5097,N,11723.7165,W,52.31,136.99,220310,,,A*4B
$GPRMC,150915.000,A,3313.4772,N,11723.6808,W,54.06,137.26,220310,,,A*45
$GPRMC,150918.000,A,3313.4437,N,11723.6437,W,56.03,136.99,220310,,,A*48
$GPRMC,150921.000,A,3313.4092,N,11723.6061,W,55.52,138.83,220310,,,A*4C
$GPRMC,150924.000,A,3313.3725,N,11723.5722,W,56.25,145.25,220310,,,A*43
$GPRMC,150927.000,A,3313.3325,N,11723.5433,W,56.89,151.69,220310,,,A*4C
$GPRMC,150930.000,A,3313.2883,N,11723.5195,W,59.38,158.78,220310,,,A*49
$GPRMC,150933.000,A,3313.2405,N,11723.5016,W,60.91,165.11,220310,,,A*4A
$GPRMC,150936.000,A,3313.1901,N,11723.4868,W,62.41,165.91,220310,,,A*42
$GPRMC,150939.000,A,3313.1399,N,11723.4720,W,61.15,165.64,220310,,,A*4D
$GPRMC,150942.000,A,3313.0912,N,11723.4576,W,59.03,165.83,220310,,,A*4D
$GPRMC,150945.000,A,3313.0432,N,11723.4435,W,58.68,165.98,220310,,,A*45
$GPRMC,150948.000,A,3312.9962,N,11723.4297,W,58.33,165.80,220310,,,A*41
$GPRMC,150951.000,A,3312.9474,N,11723.4147,W,62.76,164.06,220310,,,A*4A
$GPRMC,150954.000,A,3312.8951,N,11723.3967,W,67.07,163.96,220310,,,A*44
$GPRMC,150957.000,A,3312.8413,N,11723.3745,W,68.24,156.97,220310,,,A*4B
$GPRMC,151000.000,A,3312.7894,N,11723.3439,W,69.76,152.18,220310,,,A*40
$GPRMC,151003.000,A,3312.7373,N,11723.3111,W,71.05,152.15,220310,,,A*4E
$GPRMC,151006.000,A,3312.6843,N,11723.2777,W,72.04,152.10,220310,,,A*42
$GPRMC,151009.000,A,3312.6304,N,11723.2438,W,73.43,152.55,220310,,,A*4E
$GPRMC,151012.000,A,3312.5753,N,11723.2111,W,73.61,153.33,220310,,,A*4E
$GPRMC,151015.000,A,3312.5205,N,11723.1769,W,74.34,152.04,220310,,,A*47
$GPRMC,151018.000,A,3312.4655,N,11723.1424,W,73.71,152.34,220310,,,A*45
$GPRMC,151021.000,A,3312.4117,N,11723.1085,W,72.06,151.91,220310,,,A*4C
$GPRMC,151024.000,A,3312.3598,N,11723.0732,W,71.38,146.79,220310,,,A*49
$GPRMC,151027.000,A,3312.3121,N,11723.0312,W,70.96,140.28,220310,,,A*4D
$GPRMC,151030.000,A,3312.2690,N,11722.9829,W,70.58,133.49,220310,,,A*4D
$GPRMC,151033.000,A,3312.2321,N,11722.9303,W,68.04,127.22,220310,,,A*4A
$GPRMC,151036.000,A,3312.2005,N,11722.8731,W,67.81,120.29,220310,,,A*40
$GPRMC,151039.000,A,3312.1748,N,11722.8133,W,66.96,114.76,220310,,,A*4C
$GPRMC,151042.000,A,3312.1542,N,11722.7524,W,65.09,112.25,220310,,,A*40
$GPRMC,151045.000,A,3312.1343,N,11722.6921,W,65.23,112.06,220310,,,A*41
$GPRMC,151048.000,A,3312.1139,N,11722.6313,W,66.24,111.74,220310,,,A*4A
$GPRMC,151051.000,A,3312.0933,N,11722.5701,W,66.21,111.97,220310,,,A*4D
$GPRMC,151054.000,A,3312.0730,N,11722.5091,W,66.00,112.19,220310,,,A*4D
$GPRMC,151057.000,A,3312.0525,N,11722.4474,W,67.31,112.03,220310,,,A*4E
$GPRMC,151100.000,A,3312.0317,N,11722.3859,W,65.79,112.19,220310,,,A*4B
$GPRMC,151103.000,A,3312.0110,N,11722.3273,W,62.40,114.43,220310,,,A*4B
$GPRMC,151106.000,A,3311.9864,N,11722.2728,W,61.76,121.65,220310,,,A*40
$GPRMC,151109.000,A,3311.9576,N,11722.2231,W,60.07,127.01,220310,,,A*4F
$GPRMC,151112.000,A,3311.9254,N,11722.1783,W,59.21,132.77,220310,,,A*46
$GPRMC,151115.000,A,3311.8899,N,11722.1384,W,58.46,138.59,220310,,,A*4E
$GPRMC,151118.000,A,3311.8513,N,11722.1023,W,59.16,144.14,220310,,,A*44
$GPRMC,151121.000,A,3311.8098,N,11722.0677,W,62.32,144.90,220310,,,A*4C
$GPRMC,151124.000,A,3311.7665,N,11722.0317,W,64.40,144.84,220310,,,A*47
$GPRMC,151127.000,A,3311.7220,N,11721.9951,W,64.09,145.17,220310,,,A*45
$GPRMC,151130.000,A,3311.6784,N,11721.9592,W,62.70,145.23,220310,,,A*45
$GPRMC,151133.000,A,3311.6366,N,11721.9249,W,58.99,144.94,220310,,,A*4C
$GPRMC,151136.000,A,3311.5974,N,11721.8925,W,56.82,145.10,220310,,,A*4A
$GPRMC,151139.000,A,3311.5585,N,11721.8608,W,56.55,145.07,220310,,,A*4B
$GPRMC,151142.000,A,3311.5204,N,11721.8293,W,55.16,144.77,220310,,,A*4D
$GPRMC,151145.000,A,3311.4839,N,11721.7991,W,52.52,144.97,220310,,,A*40
$GPRMC,151148.000,A,3311.4485,N,11721.7697,W,51.48,144.88,220310,,,A*49
$GPRMC,151151.000,A,3311.4129,N,11721.7403,W,52.77,145.05,220310,,,A*46
$GPRMC,151154.000,A,3311.3759,N,11721.7098,W,55.73,145.23,220310,,,A*44
$GPRMC,151157.000,A,3311.3362,N,11721.6771,W,59.53,145.09,220310,,,A*4C
$GPRMC,151200.000,A,3311.2940,N,11721.6421,W,63.22,145.22,220310,,,A*46
$GPRMC,151203.000,A,3311.2495,N,11721.6064,W,64.48,146.35,220310,,,A*4B
$GPRMC,151206.000,A,3311.2060,N,11721.5714,W,61.13,145.38,220310,,,A*46
$GPRMC,151209.000,A,3311.1651,N,11721.5380,W,57.91,145.29,220310,,,A*48
$GPRMC,151212.000,A,3311.1259,N,11721.5056,W,57.38,145.28,220310,,,A*44
$GPRMC,151215.000,A,3311.0862,N,11721.4728,W,58.07,145.04,220310,,,A*42
$GPRMC,151218.000,A,3311.0465,N,11721.4400,W,58.87,145.08,220310,,,A*49
$GPRMC,151221.000,A,3311.0050,N,11721.4056,W,62.04,145.01,220310,,,A*4D
$GPRMC,151224.000,A,3310.9620,N,11721.3700,W,62.76,145.22,220310,,,A*46
$GPRMC,151227.000,A,3310.9186,N,11721.3323,W,65.96,142.98,220310,,,A*44
$GPRMC,151230.000,A,3310.8727,N,11721.2930,W,68.49,145.14,220310,,,A*4B
$GPRMC,151233.000,A,3310.8249,N,11721.2533,W,70.24,144.96,220310,,,A*43
$GPRMC,151236.000,A,3310.7762,N,11721.2130,W,71.52,145.20,220310,,,A*4E
$GPRMC,151239.000,A,3310.7273,N,11721.1725,W,70.98,144.90,220310,,,A*48
$GPRMC,151242.000,A,3310.6786,N,11721.1320,W,71.37,144.96,220310,,,A*49
$GPRMC,151245.000,A,3310.6295,N,11721.0916,W,71.72,145.83,220310,,,A*43
$GPRMC,151248.000,A,3310.5787,N,11721.0523,W,73.32,147.57,220310,,,A*4C
$GPRMC,151251.000,A,3310.5261,N,11721.0127,W,75.15,147.73,220310,,,A*4C
$GPRMC,151254.000,A,3310.4723,N,11720.9723,W,76.35,147.59,220310,,,A*48
$GPRMC,151257.000,A,3310.4182,N,11720.9313,W,75.80,147.43,220310,,,A*47
$GPRMC,151300.000,A,3310.3648,N,11720.8912,W,75.18,147.67,220310,,,A*4F
$GPRMC,151303.000,A,3310.3121,N,11720.8515,W,73.99,147.60,220310,,,A*47
$GPRMC,151306.000,A,3310.2610,N,11720.8130,W,71.48,147.64,220310,,,A*4F
$GPRMC,151309.000,A,3310.2113,N,11720.7755,W,69.35,147.79,220310,,,A*41
$GPRMC,151312.000,A,3310.1635,N,11720.7401,W,65.74,148.74,220310,,,A*42
$GPRMC,151315.000,A,3310.1171,N,11720.7089,W,62.69,151.65,220310,,,A*45
$GPRMC,151318.000,A,3310.0717,N,11720.6821,W,59.44,154.94,220310,,,A*48
$GPRMC,151321.000,A,3310.0272,N,11720.6588,W,58.63,156.89,220310,,,A*40
$GPRMC,151324.000,A,3309.9814,N,11720.6357,W,60.59,156.72,220310,,,A*4C
$GPRMC,151327.000,A,3309.9349,N,11720.6123,W,60.82,156.67,220310,,,A*4F
$GPRMC,151330.000,A,3309.8883,N,11720.5887,W,60.66,156.74,220310,,,A*49
$GPRMC,151333.000,A,3309.8416,N,11720.5650,W,60.90,157.04,220310,,,A*41
$GPRMC,151336.000,A,3309.7957,N,11720.5420,W,58.62,156.86,220310,,,A*4B
$GPRMC,151339.000,A,3309.7514,N,11720.5196,W,57.35,156.86,220310,,,A*4A
$GPRMC,151342.000,A,3309.7071,N,11720.4972,W,58.49,156.72,220310,,,A*4C
$GPRMC,151345.000,A,3309.6622,N,11720.4745,W,58.64,156.87,220310,,,A*45
$GPRMC,151348.000,A,3309.6167,N,11720.4513,W,60.21,156.70,220310,,,A*4D
$GPRMC,151351.000,A,3309.5703,N,11720.4278,W,60.69,157.01,220310,,,A*43
$GPRMC,151354.000,A,3309.5240,N,11720.4043,W,59.66,156.70,220310,,,A*4C
$GPRMC,151357.000,A,3309.4792,N,11720.3815,W,57.36,156.81,220310,,,A*4D
$GPRMC,151400.000,A,3309.4350,N,11720.3591,W,58.35,156.94,220310,,,A*4B
$GPRMC,151403.000,A,3309.3903,N,11720.3365,W,58.54,156.70,220310,,,A*43
$GPRMC,151406.000,A,3309.3453,N,11720.3137,W,58.70,156.88,220310,,,A*4A
$GPRMC,151409.000,A,3309.3060,N,11720.2935,W,45.69,155.91,220310,,,A*45
$GPRMC,151412.000,A,3309.2724,N,11720.2752,W,44.51,155.18,220310,,,A*4D
$GPRMC,151415.000,A,3309.2372,N,11720.2554,W,48.64,154.02,220310,,,A*49
$GPRMC,151418.000,A,3309.2007,N,11720.2342,W,48.70,153.96,220310,,,A*4B
$GPRMC,151421.000,A,3309.1647,N,11720.2134,W,47.37,154.31,220310,,,A*45
$GPRMC,151424.000,A,3309.1311,N,11720.1942,W,43.05,154.09,220310,,,A*42
$GPRMC,151427.000,A,3309.0990,N,11720.1750,W,42.92,153.46,220310,,,A*4D
$GPRMC,151430.000,A,3309.0658,N,11720.1558,W,44.34,153.88,220310,,,A*42
$GPRMC,151433.000,A,3309.0334,N,11720.1371,W,42.52,154.05,220310,,,A*47
$GPRMC,151436.000,A,3309.0025,N,11720.1194,W,40.03,154.13,220310,,,A*49
$GPRMC,151439.000,A,3308.9725,N,11720.1030,W,38.37,154.09,220310,,,A*45
$GPRMC,151442.000,A,3308.9440,N,11720.0866,W,38.80,153.92,220310,,,A*4A
$GPRMC,151445.000,A,3308.9141,N,11720.0694,W,40.89,154.95,220310,,,A*4C
$GPRMC,151448.000,A,3308.8814,N,11720.0535,W,44.54,159.76,220310,,,A*45
$GPRMC,151451.000,A,3308.8435,N,11720.0395,W,49.07,165.40,220310,,,A*4F
$GPRMC,151454.000,A,3308.8026,N,11720.0296,W,50.91,171.05,220310,,,A*4D
$GPRMC,151457.000,A,3308.7594,N,11720.0248,W,53.05,176.71,220310,,,A*44
$GPRMC,151500.000,A,3308.7142,N,11720.0223,W,54.56,177.04,220310,,,A*47
$GPRMC,151503.000,A,3308.6681,N,11720.0199,W,55.15,177.59,220310,,,A*41
$GPRMC,151506.000,A,3308.6219,N,11720.0175,W,55.05,177.01,220310,,,A*4F
$GPRMC,151509.000,A,3308.5762,N,11720.0127,W,54.44,171.44,220310,,,A*4E
$GPRMC,151512.000,A,3308.5327,N,11720.0015,W,51.42,164.17,220310,,,A*40
$GPRMC,151515.000,A,3308.4942,N,11719.9851,W,45.42,157.61,220310,,,A*40
$GPRMC,151518.000,A,3308.4619,N,11719.9687,W,39.65,156.82,220310,,,A*4B
$GPRMC,151521.000,A,3308.4345,N,11719.9547,W,33.12,156.62,220310,,,A*46
$GPRMC,151524.000,A,3308.4098,N,11719.9422,W,32.42,157.16,220310,,,A*44
$GPRMC,151527.000,A,3308.3845,N,11719.9293,W,34.36,156.67,220310,,,A*46
$GPRMC,151530.000,A,3308.3568,N,11719.9151,W,38.07,157.13,220310,,,A*43
$GPRMC,151533.000,A,3308.3265,N,11719.8996,W,40.85,156.88,220310,,,A*4E
$GPRMC,151536.000,A,3308.2957,N,11719.8839,W,39.25,156.55,220310,,,A*40
$GPRMC,151539.000,A,3308.2664,N,11719.8690,W,36.70,157.10,220310,,,A*42
$GPRMC,151542.000,A,3308.2416,N,11719.8566,W,29.37,156.90,220310,,,A*47
$GPRMC,151545.000,A,3308.2203,N,11719.8457,W,26.72,156.26,220310,,,A*42
$GPRMC,151548.000,A,3308.2034,N,11719.8369,W,16.51,156.61,220310,,,A*42
$GPRMC,151551.000,A,3308.1956,N,11719.8329,W,6.87,156.32,220310,,,A*7C
$GPRMC,151554.000,A,3308.1918,N,11719.8309,W,6.07,155.22,220310,,,A*7B
$GPRMC,151557.000,A,3308.1845,N,11719.8269,W,14.29,156.26,220310,,,A*4E
$GPRMC,151600.000,A,3308.1696,N,11719.8194,W,24.02,157.01,220310,,,A*40
$GPRMC,151603.000,A,3308.1498,N,11719.8094,W,25.30,156.79,220310,,,A*40
$GPRMC,151606.000,A,3308.1317,N,11719.8003,W,21.48,157.05,220310,,,A*4A
$GPRMC,151609.000,A,3308.1163,N,11719.7924,W,19.03,156.91,220310,,,A*4F
$GPRMC,151612.000,A,3308.1016,N,11719.7850,W,19.36,156.56,220310,,,A*49
$GPRMC,151615.000,A,3308.0864,N,11719.7772,W,20.97,156.80,220310,,,A*47
$GPRMC,151618.000,A,3308.0684,N,11719.7680,W,26.95,156.71,220310,,,A*4C
$GPRMC,151621.000,A,3308.0462,N,11719.7567,W,28.84,156.70,220310,,,A*49
$GPRMC,151624.000,A,3308.0251,N,11719.7457,W,25.27,156.08,220310,,,A*43
$GPRMC,151627.000,A,3308.0072,N,11719.7362,W,22.49,155.49,220310,,,A*4B
$GPRMC,151630.000,A,3307.9903,N,11719.7269,W,23.03,155.00,220310,,,A*4C
$GPRMC,151633.000,A,3307.9717,N,11719.7164,W,26.16,154.37,220310,,,A*4E
$GPRMC,151636.000,A,3307.9512,N,11719.7045,W,27.92,153.69,220310,,,A*4F
$GPRMC,151639.000,A,3307.9311,N,11719.6925,W,26.43,153.04,220310,,,A*4D
$GPRMC,151642.000,A,3307.9109,N,11719.6804,W,28.63,152.73,220310,,,A*45
$GPRMC,151645.000,A,3307.8883,N,11719.6668,W,31.14,153.10,220310,,,A*40
$GPRMC,151648.000,A,3307.8653,N,11719.6530,W,30.18,153.06,220310,,,A*4A
$GPRMC,151651.000,A,3307.8416,N,11719.6386,W,33.75,153.07,220310,,,A*43
$GPRMC,151654.000,A,3307.8147,N,11719.6223,W,38.25,153.26,220310,,,A*44
$GPRMC,151657.000,A,3307.7842,N,11719.6040,W,42.96,153.23,220310,,,A*43
$GPRMC,151700.000,A,3307.7512,N,11719.5842,W,45.69,153.24,220310,,,A*41
