NMEA Sentence Code,UTC Time,Status,Latitude,Latitude Direction,Longitude,Longitude Direction,Speed (knots),Track Angle (degrees true),Date,MagneticVariation,Magnetic Variation Direction,[FAA Mode]-Optional,Checksum
$GPRMC,143711.1,A,3250.226542,N,11700.312111,W,17.0,295.3,280910,,,A*42
$GPRMC,143714.1,A,3250.232242,N,11700.329064,W,17.8,293.2,280910,,,A*41
$GPRMC,143717.1,A,3250.234803,N,11700.344921,W,17.0,285.8,280910,,,A*4D
$GPRMC,143720.1,A,3250.235610,N,11700.360061,W,15.8,279.8,280910,,,A*46
$GPRMC,143723.1,A,3250.237558,N,11700.374810,W,14.1,276.7,280910,,,A*4B
$GPRMC,143726.1,A,3250.236223,N,11700.389288,W,13.3,270.2,280910,,,A*4B
$GPRMC,143729.1,A,3250.232381,N,11700.402452,W,13.0,262.0,280910,,,A*4E
$GPRMC,143732.1,A,3250.228382,N,11700.414117,W,11.1,257.4,280910,,,A*4E
$GPRMC,143735.1,A,3250.223171,N,11700.423450,W,7.3,251.6,280910,,,A*7F
$GPRMC,143741.1,A,3250.222290,N,11700.431391,W,4.7,252.0,280910,,,A*7A
$GPRMC,143744.1,A,3250.220943,N,11700.437197,W,6.8,257.2,280910,,,A*70
$GPRMC,143747.1,A,3250.218596,N,11700.447126,W,10.3,258.1,280910,,,A*41
$GPRMC,143750.1,A,3250.214107,N,11700.460084,W,13.7,254.7,280910,,,A*46
$GPRMC,143753.1,A,3250.210294,N,11700.474279,W,15.3,255.0,280910,,,A*49
$GPRMC,143756.1,A,3250.205909,N,11700.491199,W,17.5,255.0,280910,,,A*45
$GPRMC,143759.1,A,3250.203263,N,11700.508500,W,18.0,256.6,280910,,,A*41
$GPRMC,143802.1,A,3250.199268,N,11700.526380,W,18.4,255.6,280910,,,A*4E
$GPRMC,143805.1,A,3250.197188,N,11700.542730,W,16.7,255.2,280910,,,A*4E
$GPRMC,143808.1,A,3250.193968,N,11700.558681,W,16.5,256.9,280910,,,A*4B
$GPRMC,143811.1,A,3250.190248,N,11700.574640,W,17.0,257.2,280910,,,A*44
$GPRMC,143814.1,A,3250.187445,N,11700.592143,W,17.9,258.9,280910,,,A*4D
$GPRMC,143817.1,A,3250.183365,N,11700.611284,W,18.8,257.6,280910,,,A*41
$GPRMC,143820.1,A,3250.181867,N,11700.628435,W,17.3,261.9,280910,,,A*46
$GPRMC,143823.1,A,3250.178264,N,11700.643940,W,15.8,257.6,280910,,,A*4B
$GPRMC,143826.1,A,3250.174572,N,11700.658177,W,15.3,256.0,280910,,,A*48
$GPRMC,143829.1,A,3250.172268,N,11700.674262,W,16.9,261.6,280910,,,A*4F
$GPRMC,143832.1,A,3250.167005,N,11700.694565,W,19.2,260.1,280910,,,A*44
$GPRMC,143835.1,A,3250.166684,N,11700.712486,W,19.4,262.1,280910,,,A*4A
$GPRMC,143838.1,A,3250.163948,N,11700.730921,W,17.7,261.3,280910,,,A*41
$GPRMC,143841.1,A,3250.163232,N,11700.749789,W,14.6,263.5,280910,,,A*4D
$GPRMC,143844.1,A,3250.163359,N,11700.765345,W,15.7,268.5,280910,,,A*45
$GPRMC,143847.1,A,3250.164564,N,11700.781293,W,18.1,272.6,280910,,,A*4A
$GPRMC,143850.1,A,3250.165814,N,11700.802812,W,21.6,275.6,280910,,,A*4A
$GPRMC,143853.1,A,3250.165977,N,11700.826449,W,23.9,274.0,280910,,,A*43
$GPRMC,143856.1,A,3250.172529,N,11700.850677,W,26.8,279.1,280910,,,A*41
$GPRMC,143859.1,A,3250.173030,N,11700.880685,W,29.0,277.8,280910,,,A*42
$GPRMC,143902.1,A,3250.171931,N,11700.915098,W,32.7,276.8,280910,,,A*4C
$GPRMC,143905.1,A,3250.171658,N,11700.951986,W,36.2,275.6,280910,,,A*41
$GPRMC,143908.1,A,3250.171739,N,11700.993958,W,37.5,275.0,280910,,,A*47
$GPRMC,143911.1,A,3250.174625,N,11701.030734,W,38.1,276.8,280910,,,A*43
$GPRMC,143914.1,A,3250.178393,N,11701.071226,W,41.7,277.7,280910,,,A*47
$GPRMC,143917.1,A,3250.185933,N,11701.114681,W,45.4,281.4,280910,,,A*40
$GPRMC,143920.1,A,3250.197340,N,11701.159180,W,46.9,285.7,280910,,,A*4F
$GPRMC,143923.1,A,3250.210581,N,11701.204983,W,49.8,289.1,280910,,,A*4F
$GPRMC,143926.1,A,3250.232110,N,11701.249788,W,52.0,296.8,280910,,,A*4F
$GPRMC,143929.1,A,3250.262515,N,11701.288173,W,51.9,306.2,280910,,,A*43
$GPRMC,143932.1,A,3250.293729,N,11701.327165,W,51.4,310.3,280910,,,A*42
$GPRMC,143935.1,A,3250.324965,N,11701.362885,W,51.3,314.1,280910,,,A*49
$GPRMC,143938.1,A,3250.360289,N,11701.398943,W,53.5,315.5,280910,,,A*42
$GPRMC,143941.1,A,3250.400827,N,11701.428707,W,53.6,318.8,280910,,,A*42
$GPRMC,143944.1,A,3250.439033,N,11701.459185,W,54.5,320.8,280910,,,A*45
$GPRMC,143947.1,A,3250.489757,N,11701.469151,W,56.1,332.7,280910,,,A*48
$GPRMC,143950.1,A,3250.533969,N,11701.484359,W,55.4,335.5,280910,,,A*47
$GPRMC,143953.1,A,3250.574780,N,11701.505348,W,54.7,335.9,280910,,,A*48
$GPRMC,143956.1,A,3250.615427,N,11701.526555,W,51.9,335.7,280910,,,A*49
$GPRMC,143959.1,A,3250.654519,N,11701.549012,W,51.0,336.0,280910,,,A*4D
$GPRMC,144002.1,A,3250.691111,N,11701.569001,W,49.1,335.7,280910,,,A*44
$GPRMC,144005.1,A,3250.727028,N,11701.589871,W,45.3,335.2,280910,,,A*4E
$GPRMC,144008.1,A,3250.756700,N,11701.608004,W,41.1,334.1,280910,,,A*4C
$GPRMC,144011.1,A,3250.784960,N,11701.625193,W,38.2,333.3,280910,,,A*4B
$GPRMC,144014.1,A,3250.808475,N,11701.642908,W,34.7,331.8,280910,,,A*47
$GPRMC,144017.1,A,3250.830154,N,11701.659369,W,32.5,331.2,280910,,,A*40
$GPRMC,144020.1,A,3250.844672,N,11701.681375,W,26.4,321.5,280910,,,A*4E
$GPRMC,144023.1,A,3250.857229,N,11701.692333,W,21.4,322.5,280910,,,A*41
$GPRMC,144026.1,A,3250.869082,N,11701.706917,W,21.0,318.9,280910,,,A*4B
$GPRMC,144029.1,A,3250.882845,N,11701.716778,W,20.9,315.9,280910,,,A*41
$GPRMC,144032.1,A,3250.897822,N,11701.727047,W,20.2,316.5,280910,,,A*43
$GPRMC,144035.1,A,3250.907080,N,11701.742244,W,19.4,314.6,280910,,,A*43
$GPRMC,144038.1,A,3250.920685,N,11701.759045,W,24.3,313.9,280910,,,A*40
$GPRMC,144041.1,A,3250.935993,N,11701.779541,W,28.8,310.9,280910,,,A*45
$GPRMC,144044.1,A,3250.951584,N,11701.801805,W,30.6,309.7,280910,,,A*44
$GPRMC,144047.1,A,3250.966196,N,11701.829183,W,32.1,306.3,280910,,,A*47
$GPRMC,144050.1,A,3250.981807,N,11701.857468,W,33.6,305.2,280910,,,A*44
$GPRMC,144053.1,A,3250.997128,N,11701.887645,W,35.1,300.8,280910,,,A*4A
$GPRMC,144056.1,A,3251.008414,N,11701.920596,W,35.3,297.2,280910,,,A*4D
$GPRMC,144059.1,A,3251.023906,N,11701.951008,W,34.8,296.9,280910,,,A*41
$GPRMC,144102.1,A,3251.032033,N,11701.991454,W,39.0,291.6,280910,,,A*4D
$GPRMC,144105.1,A,3251.046678,N,11702.031825,W,42.7,291.7,280910,,,A*40
$GPRMC,144108.1,A,3251.057725,N,11702.080805,W,48.8,286.6,280910,,,A*4E
$GPRMC,144111.1,A,3251.068122,N,11702.128012,W,46.6,284.5,280910,,,A*47
$GPRMC,144114.1,A,3251.078023,N,11702.171667,W,44.7,282.4,280910,,,A*4F
$GPRMC,144117.1,A,3251.082742,N,11702.212637,W,42.7,280.1,280910,,,A*4B
$GPRMC,144120.1,A,3251.088544,N,11702.256196,W,43.5,280.6,280910,,,A*49
$GPRMC,144123.1,A,3251.091063,N,11702.303312,W,41.7,280.2,280910,,,A*49
$GPRMC,144126.1,A,3251.097132,N,11702.347348,W,43.1,279.7,280910,,,A*47
$GPRMC,144129.1,A,3251.102863,N,11702.391556,W,43.6,279.7,280910,,,A*4D
$GPRMC,144132.1,A,3251.107672,N,11702.434219,W,44.0,279.0,280910,,,A*4E
$GPRMC,144135.1,A,3251.114290,N,11702.481693,W,46.2,279.7,280910,,,A*4C
$GPRMC,144138.1,A,3251.119134,N,11702.528591,W,47.2,279.2,280910,,,A*46
$GPRMC,144141.1,A,3251.125429,N,11702.574068,W,46.7,278.9,280910,,,A*4A
$GPRMC,144150.1,A,3251.149094,N,11702.718311,W,53.2,281.2,280910,,,A*4B
$GPRMC,144153.1,A,3251.160403,N,11702.764361,W,54.2,280.8,280910,,,A*49
$GPRMC,144156.1,A,3251.171880,N,11702.816453,W,54.4,283.3,280910,,,A*49
$GPRMC,144159.1,A,3251.185009,N,11702.865293,W,53.6,284.4,280910,,,A*4F
$GPRMC,144202.1,A,3251.194709,N,11702.917743,W,54.1,283.1,280910,,,A*4B
$GPRMC,144205.1,A,3251.204459,N,11702.968175,W,53.2,282.3,280910,,,A*4C
$GPRMC,144208.1,A,3251.215144,N,11703.021533,W,54.1,282.5,280910,,,A*49
$GPRMC,144211.1,A,3251.221701,N,11703.082294,W,57.4,281.4,280910,,,A*46
$GPRMC,144214.1,A,3251.226097,N,11703.149240,W,61.0,279.4,280910,,,A*45
$GPRMC,144217.1,A,3251.232160,N,11703.202595,W,58.4,279.0,280910,,,A*43
$GPRMC,144220.1,A,3251.240295,N,11703.258697,W,57.9,278.3,280910,,,A*45
$GPRMC,144223.1,A,3251.247368,N,11703.311677,W,55.0,276.2,280910,,,A*44
$GPRMC,144226.1,A,3251.253059,N,11703.364124,W,52.9,277.2,280910,,,A*49
$GPRMC,144229.1,A,3251.260007,N,11703.413821,W,51.1,279.1,280910,,,A*40
$GPRMC,144232.1,A,3251.269257,N,11703.459862,W,50.6,278.9,280910,,,A*42
$GPRMC,144235.1,A,3251.277260,N,11703.502302,W,49.2,280.4,280910,,,A*4A
$GPRMC,144238.1,A,3251.284601,N,11703.553864,W,49.9,280.3,280910,,,A*4B
$GPRMC,144241.1,A,3251.290905,N,11703.601419,W,49.0,279.2,280910,,,A*47
$GPRMC,144244.1,A,3251.295785,N,11703.649700,W,47.8,276.7,280910,,,A*4A
$GPRMC,144247.1,A,3251.306117,N,11703.678971,W,41.6,276.9,280910,,,A*43
$GPRMC,144250.1,A,3251.305681,N,11703.719104,W,42.1,271.6,280910,,,A*4E
$GPRMC,144253.1,A,3251.306391,N,11703.758302,W,42.1,268.9,280910,,,A*4C
$GPRMC,144256.1,A,3251.304909,N,11703.800438,W,42.4,267.3,280910,,,A*4C
$GPRMC,144259.1,A,3251.296533,N,11703.849336,W,44.4,263.2,280910,,,A*4B
$GPRMC,144302.1,A,3251.286968,N,11703.898506,W,45.2,260.0,280910,,,A*48
$GPRMC,144305.1,A,3251.279856,N,11703.939457,W,46.1,256.8,280910,,,A*41
$GPRMC,144308.1,A,3251.267632,N,11703.984442,W,48.5,253.3,280910,,,A*49
$GPRMC,144311.1,A,3251.252123,N,11704.031796,W,51.6,250.2,280910,,,A*43
$GPRMC,144314.1,A,3251.235666,N,11704.078905,W,52.5,248.4,280910,,,A*47
$GPRMC,144317.1,A,3251.213397,N,11704.132164,W,55.5,243.9,280910,,,A*4A
$GPRMC,144320.1,A,3251.191040,N,11704.180048,W,55.5,240.4,280910,,,A*46
$GPRMC,144323.1,A,3251.164405,N,11704.227547,W,56.5,236.4,280910,,,A*4C
$GPRMC,144326.1,A,3251.135176,N,11704.274208,W,57.2,232.9,280910,,,A*49
$GPRMC,144329.1,A,3251.103464,N,11704.318005,W,57.9,229.9,280910,,,A*40
$GPRMC,144332.1,A,3251.067597,N,11704.363474,W,60.3,227.6,280910,,,A*45
$GPRMC,144335.1,A,3251.033063,N,11704.410452,W,61.2,227.6,280910,,,A*4A
$GPRMC,144338.1,A,3250.996414,N,11704.455800,W,60.5,227.2,280910,,,A*4C
$GPRMC,144341.1,A,3250.961985,N,11704.498575,W,60.0,226.8,280910,,,A*4F
$GPRMC,144344.1,A,3250.927570,N,11704.542733,W,60.2,226.8,280910,,,A*4A
$GPRMC,144347.1,A,3250.893693,N,11704.585533,W,59.4,226.7,280910,,,A*43
$GPRMC,144350.1,A,3250.858299,N,11704.629738,W,60.3,226.8,280910,,,A*42
$GPRMC,144353.1,A,3250.825641,N,11704.671818,W,59.1,227.5,280910,,,A*4E
$GPRMC,144356.1,A,3250.793445,N,11704.713947,W,58.9,228.2,280910,,,A*40
$GPRMC,144359.1,A,3250.762318,N,11704.759721,W,60.3,231.4,280910,,,A*41
$GPRMC,144402.1,A,3250.729329,N,11704.808373,W,61.8,234.2,280910,,,A*44
$GPRMC,144405.1,A,3250.701653,N,11704.859346,W,61.6,238.0,280910,,,A*43
$GPRMC,144408.1,A,3250.674203,N,11704.912688,W,61.2,241.2,280910,,,A*4D
$GPRMC,144411.1,A,3250.651008,N,11704.968571,W,61.2,244.4,280910,,,A*40
$GPRMC,144414.1,A,3250.630984,N,11705.023876,W,60.9,247.3,280910,,,A*4C
$GPRMC,144417.1,A,3250.618201,N,11705.077340,W,60.9,252.1,280910,,,A*4A
$GPRMC,144420.1,A,3250.604242,N,11705.135185,W,60.8,254.7,280910,,,A*49
$GPRMC,144423.1,A,3250.594071,N,11705.193000,W,60.9,255.8,280910,,,A*4D
$GPRMC,144426.1,A,3250.579798,N,11705.252574,W,61.4,255.5,280910,,,A*42
$GPRMC,144429.1,A,3250.566103,N,11705.311614,W,61.7,255.3,280910,,,A*41
$GPRMC,144432.1,A,3250.551947,N,11705.371191,W,61.6,254.9,280910,,,A*41
$GPRMC,144435.1,A,3250.538502,N,11705.429263,W,61.2,255.0,280910,,,A*4C
$GPRMC,144438.1,A,3250.526239,N,11705.487961,W,60.0,255.4,280910,,,A*4B
$GPRMC,144441.1,A,3250.511760,N,11705.545251,W,60.5,254.9,280910,,,A*46
$GPRMC,144444.1,A,3250.499935,N,11705.604490,W,61.1,255.5,280910,,,A*49
$GPRMC,144447.1,A,3250.487699,N,11705.662186,W,61.2,257.4,280910,,,A*4E
$GPRMC,144450.1,A,3250.480627,N,11705.723218,W,62.8,261.7,280910,,,A*45
$GPRMC,144453.1,A,3250.476476,N,11705.785734,W,63.8,265.2,280910,,,A*4E
$GPRMC,144456.1,A,3250.477926,N,11705.846407,W,62.4,270.4,280910,,,A*4E
$GPRMC,144459.1,A,3250.481800,N,11705.906478,W,61.9,272.6,280910,,,A*4E
$GPRMC,144502.1,A,3250.486472,N,11705.965449,W,61.3,273.4,280910,,,A*41
$GPRMC,144505.1,A,3250.490198,N,11706.024093,W,61.3,272.9,280910,,,A*40
$GPRMC,144508.1,A,3250.493301,N,11706.085059,W,62.2,272.3,280910,,,A*49
$GPRMC,144511.1,A,3250.497002,N,11706.146095,W,61.5,273.2,280910,,,A*4F
$GPRMC,144514.1,A,3250.499572,N,11706.206045,W,61.6,272.6,280910,,,A*4A
$GPRMC,144517.1,A,3250.503076,N,11706.266226,W,60.7,273.0,280910,,,A*4C
$GPRMC,144520.1,A,3250.505337,N,11706.326497,W,60.6,272.7,280910,,,A*46
$GPRMC,144523.1,A,3250.506496,N,11706.388041,W,61.2,271.9,280910,,,A*49
$GPRMC,144526.1,A,3250.507267,N,11706.449401,W,61.5,271.7,280910,,,A*46
$GPRMC,144529.1,A,3250.507761,N,11706.510005,W,60.1,271.3,280910,,,A*46
$GPRMC,144532.1,A,3250.513193,N,11706.564501,W,57.8,272.5,280910,,,A*48
$GPRMC,144535.1,A,3250.515464,N,11706.623205,W,59.7,272.0,280910,,,A*43
$GPRMC,144538.1,A,3250.518158,N,11706.681952,W,59.8,273.1,280910,,,A*47
$GPRMC,144541.1,A,3250.519952,N,11706.742144,W,62.0,272.9,280910,,,A*42
$GPRMC,144544.1,A,3250.521429,N,11706.804460,W,63.8,271.1,280910,,,A*41
$GPRMC,144547.1,A,3250.522076,N,11706.867692,W,63.4,270.5,280910,,,A*4C
$GPRMC,144550.1,A,3250.521058,N,11706.931836,W,63.6,269.8,280910,,,A*40
$GPRMC,144553.1,A,3250.521668,N,11706.995387,W,65.3,270.2,280910,,,A*48
$GPRMC,144556.1,A,3250.521308,N,11707.061035,W,65.7,270.5,280910,,,A*44
$GPRMC,144559.1,A,3250.519101,N,11707.126913,W,66.6,269.1,280910,,,A*4A
$GPRMC,144602.1,A,3250.517725,N,11707.193416,W,67.1,269.4,280910,,,A*4C
$GPRMC,144605.1,A,3250.517019,N,11707.260280,W,67.7,269.0,280910,,,A*47
$GPRMC,144608.1,A,3250.516268,N,11707.325863,W,66.7,268.7,280910,,,A*4F
$GPRMC,144611.1,A,3250.513239,N,11707.393007,W,67.3,267.7,280910,,,A*4B
$GPRMC,144614.1,A,3250.512579,N,11707.456212,W,64.1,269.1,280910,,,A*4D
$GPRMC,144617.1,A,3250.511218,N,11707.518683,W,64.1,269.4,280910,,,A*4F
$GPRMC,144620.1,A,3250.511725,N,11707.579918,W,62.6,269.6,280910,,,A*49
$GPRMC,144623.1,A,3250.509323,N,11707.642836,W,62.2,268.2,280910,,,A*46
$GPRMC,144626.1,A,3250.505906,N,11707.704216,W,61.9,267.1,280910,,,A*4D
$GPRMC,144629.1,A,3250.501697,N,11707.765779,W,62.4,265.7,280910,,,A*40
$GPRMC,144632.1,A,3250.495157,N,11707.829024,W,62.9,263.6,280910,,,A*4F
$GPRMC,144635.1,A,3250.486411,N,11707.891890,W,63.2,261.4,280910,,,A*43
$GPRMC,144638.1,A,3250.480648,N,11707.952879,W,64.3,261.2,280910,,,A*4F
$GPRMC,144641.1,A,3250.472410,N,11708.015296,W,64.2,261.0,280910,,,A*4E
$GPRMC,144644.1,A,3250.464743,N,11708.076744,W,62.7,261.4,280910,,,A*41
$GPRMC,144647.1,A,3250.457810,N,11708.138827,W,61.1,261.3,280910,,,A*48
$GPRMC,144650.1,A,3250.451120,N,11708.194291,W,57.8,261.4,280910,,,A*48
$GPRMC,144653.1,A,3250.444131,N,11708.249403,W,56.8,260.8,280910,,,A*4D
$GPRMC,144656.1,A,3250.436844,N,11708.301501,W,54.0,258.5,280910,,,A*44
$GPRMC,144659.1,A,3250.429031,N,11708.350706,W,52.2,257.0,280910,,,A*40
$GPRMC,144702.1,A,3250.418949,N,11708.402305,W,54.0,257.0,280910,,,A*48
$GPRMC,144705.1,A,3250.407219,N,11708.455978,W,56.7,256.5,280910,,,A*4C
$GPRMC,144708.1,A,3250.395026,N,11708.511467,W,58.3,256.5,280910,,,A*4B
$GPRMC,144711.1,A,3250.383159,N,11708.566270,W,57.2,256.0,280910,,,A*46
$GPRMC,144714.1,A,3250.372489,N,11708.619333,W,56.3,255.9,280910,,,A*42
$GPRMC,144717.1,A,3250.361091,N,11708.672896,W,56.6,255.6,280910,,,A*4D
$GPRMC,144720.1,A,3250.349675,N,11708.726325,W,55.8,256.1,280910,,,A*45
$GPRMC,144723.1,A,3250.337157,N,11708.782913,W,58.5,255.9,280910,,,A*42
$GPRMC,144726.1,A,3250.325561,N,11708.838924,W,58.0,256.1,280910,,,A*41
$GPRMC,144729.1,A,3250.314441,N,11708.895126,W,58.4,256.6,280910,,,A*41
$GPRMC,144732.1,A,3250.300950,N,11708.952055,W,58.6,255.5,280910,,,A*4E
$GPRMC,144735.1,A,3250.289948,N,11709.006708,W,57.9,256.1,280910,,,A*41
$GPRMC,144738.1,A,3250.278282,N,11709.062105,W,57.5,255.8,280910,,,A*40
$GPRMC,144741.1,A,3250.268368,N,11709.115217,W,56.1,256.0,280910,,,A*45
$GPRMC,144744.1,A,3250.257923,N,11709.169706,W,57.4,256.4,280910,,,A*47
$GPRMC,144747.1,A,3250.249481,N,11709.224190,W,57.6,259.8,280910,,,A*4C
$GPRMC,144750.1,A,3250.246382,N,11709.279326,W,57.3,265.3,280910,,,A*47
$GPRMC,144753.1,A,3250.247177,N,11709.334944,W,57.9,269.3,280910,,,A*4D
$GPRMC,144756.1,A,3250.249822,N,11709.389988,W,55.3,272.1,280910,,,A*49
$GPRMC,144759.1,A,3250.254344,N,11709.437447,W,49.9,273.7,280910,,,A*4D
$GPRMC,144802.1,A,3250.262441,N,11709.475953,W,43.5,277.2,280910,,,A*42
$GPRMC,144805.1,A,3250.276294,N,11709.510065,W,40.6,286.3,280910,,,A*4F
$GPRMC,144808.1,A,3250.290316,N,11709.548531,W,42.3,291.8,280910,,,A*42
$GPRMC,144811.1,A,3250.306879,N,11709.587280,W,44.8,295.5,280910,,,A*4C
$GPRMC,144814.1,A,3250.327153,N,11709.628387,W,47.9,300.9,280910,,,A*48
$GPRMC,144817.1,A,3250.350820,N,11709.669697,W,50.9,304.3,280910,,,A*4F
$GPRMC,144820.1,A,3250.378865,N,11709.707586,W,49.9,308.1,280910,,,A*4C
$GPRMC,144823.1,A,3250.409648,N,11709.742882,W,49.3,311.5,280910,,,A*41
$GPRMC,144826.1,A,3250.438477,N,11709.778450,W,48.9,312.2,280910,,,A*4D
$GPRMC,144829.1,A,3250.466771,N,11709.813274,W,49.0,311.5,280910,,,A*42
$GPRMC,144832.1,A,3250.497828,N,11709.848790,W,48.2,312.7,280910,,,A*46
$GPRMC,144835.1,A,3250.522103,N,11709.880455,W,43.6,312.7,280910,,,A*4F
$GPRMC,144838.1,A,3250.547594,N,11709.913679,W,45.6,311.7,280910,,,A*49
$GPRMC,144841.1,A,3250.571960,N,11709.949600,W,48.8,310.9,280910,,,A*48
$GPRMC,144844.1,A,3250.601486,N,11709.983955,W,48.5,311.8,280910,,,A*48
$GPRMC,144847.1,A,3250.629898,N,11710.018404,W,49.1,313.8,280910,,,A*4F
$GPRMC,144850.1,A,3250.660925,N,11710.053947,W,50.0,314.4,280910,,,A*44
$GPRMC,144853.1,A,3250.684711,N,11710.084305,W,43.5,314.5,280910,,,A*44
$GPRMC,144856.1,A,3250.708923,N,11710.114591,W,42.8,314.4,280910,,,A*45
$GPRMC,144859.1,A,3250.729823,N,11710.145969,W,41.0,311.1,280910,,,A*4C
$GPRMC,144902.1,A,3250.747550,N,11710.176601,W,40.3,308.7,280910,,,A*4F
$GPRMC,144905.1,A,3250.766548,N,11710.210553,W,40.5,305.4,280910,,,A*4D
$GPRMC,144908.1,A,3250.783122,N,11710.246362,W,44.4,301.0,280910,,,A*41
$GPRMC,144911.1,A,3250.797725,N,11710.290674,W,50.4,295.2,280910,,,A*4F
$GPRMC,144914.1,A,3250.814053,N,11710.337353,W,53.1,290.9,280910,,,A*4C
$GPRMC,144917.1,A,3250.827587,N,11710.391332,W,54.9,285.8,280910,,,A*42
$GPRMC,144920.1,A,3250.834461,N,11710.446227,W,56.0,282.0,280910,,,A*41
$GPRMC,144923.1,A,3250.842232,N,11710.503492,W,57.5,280.7,280910,,,A*4A
$GPRMC,144926.1,A,3250.848505,N,11710.563302,W,59.5,279.4,280910,,,A*45
$GPRMC,144929.1,A,3250.854505,N,11710.622552,W,60.0,277.5,280910,,,A*42
$GPRMC,144932.1,A,3250.854928,N,11710.681583,W,58.8,274.3,280910,,,A*48
$GPRMC,144935.1,A,3250.855895,N,11710.739213,W,56.3,271.2,280910,,,A*44
$GPRMC,144938.1,A,3250.854377,N,11710.796733,W,55.3,269.1,280910,,,A*44
$GPRMC,144941.1,A,3250.846647,N,11710.855500,W,55.9,264.3,280910,,,A*48
$GPRMC,144944.1,A,3250.841380,N,11710.909738,W,59.6,261.5,280910,,,A*45
$GPRMC,144947.1,A,3250.833019,N,11710.968301,W,60.5,260.8,280910,,,A*4C
$GPRMC,144950.1,A,3250.825634,N,11711.026011,W,60.0,261.0,280910,,,A*48
$GPRMC,144953.1,A,3250.817634,N,11711.085183,W,61.6,261.3,280910,,,A*4D
$GPRMC,144956.1,A,3250.809698,N,11711.145741,W,61.4,261.4,280910,,,A*41
$GPRMC,144959.1,A,3250.801539,N,11711.204935,W,60.5,260.5,280910,,,A*45
$GPRMC,145002.1,A,3250.793416,N,11711.262849,W,58.1,260.2,280910,,,A*49
$GPRMC,145005.1,A,3250.785733,N,11711.317620,W,57.0,260.8,280910,,,A*4B
$GPRMC,145008.1,A,3250.778014,N,11711.372528,W,56.3,260.4,280910,,,A*40
$GPRMC,145011.1,A,3250.772591,N,11711.425686,W,55.6,261.3,280910,,,A*48
$GPRMC,145014.1,A,3250.765873,N,11711.477978,W,54.0,261.3,280910,,,A*44
$GPRMC,145017.1,A,3250.758983,N,11711.531323,W,54.6,261.4,280910,,,A*41
$GPRMC,145020.1,A,3250.752259,N,11711.585972,W,55.5,261.3,280910,,,A*47
$GPRMC,145023.1,A,3250.746089,N,11711.639720,W,55.1,263.3,280910,,,A*45
$GPRMC,145026.1,A,3250.746395,N,11711.690465,W,53.8,267.9,280910,,,A*4E
$GPRMC,145029.1,A,3250.747806,N,11711.742078,W,52.5,269.9,280910,,,A*45
$GPRMC,145032.1,A,3250.751437,N,11711.790454,W,50.7,273.7,280910,,,A*46
$GPRMC,145035.1,A,3250.759452,N,11711.837794,W,51.0,278.2,280910,,,A*4F
$GPRMC,145038.1,A,3250.770650,N,11711.886484,W,52.9,281.4,280910,,,A*4B
$GPRMC,145041.1,A,3250.780771,N,11711.936509,W,54.0,281.9,280910,,,A*44
$GPRMC,145044.1,A,3250.790337,N,11711.987481,W,52.9,282.4,280910,,,A*4C
$GPRMC,145047.1,A,3250.800418,N,11712.040184,W,53.6,282.5,280910,,,A*4D
$GPRMC,145050.1,A,3250.808882,N,11712.091968,W,52.6,282.6,280910,,,A*48
$GPRMC,145053.1,A,3250.816648,N,11712.145169,W,51.9,281.1,280910,,,A*45
$GPRMC,145056.1,A,3250.821766,N,11712.195648,W,50.2,277.8,280910,,,A*4A
$GPRMC,145059.1,A,3250.824518,N,11712.243913,W,48.6,273.4,280910,,,A*47
$GPRMC,145102.1,A,3250.821700,N,11712.293330,W,46.8,266.9,280910,,,A*49
$GPRMC,145105.1,A,3250.816634,N,11712.336883,W,42.7,261.5,280910,,,A*41
$GPRMC,145108.1,A,3250.812690,N,11712.371211,W,35.6,259.2,280910,,,A*49
$GPRMC,145111.1,A,3250.808063,N,11712.399853,W,31.4,256.0,280910,,,A*41
$GPRMC,145114.1,A,3250.802258,N,11712.426360,W,27.5,253.3,280910,,,A*4C
$GPRMC,145117.1,A,3250.795922,N,11712.448169,W,23.0,249.2,280910,,,A*40
$GPRMC,145120.1,A,3250.789647,N,11712.467018,W,19.7,248.2,280910,,,A*40
$GPRMC,145123.1,A,3250.783555,N,11712.484998,W,19.4,247.1,280910,,,A*4A
$GPRMC,145126.1,A,3250.775904,N,11712.502256,W,19.1,244.1,280910,,,A*4E
$GPRMC,145129.1,A,3250.769034,N,11712.519195,W,19.0,243.8,280910,,,A*4F
$GPRMC,145132.1,A,3250.764038,N,11712.531613,W,14.0,237.9,280910,,,A*48
$GPRMC,145135.1,A,3250.759997,N,11712.541423,W,12.0,241.0,280910,,,A*45
$GPRMC,145138.1,A,3250.754869,N,11712.553069,W,14.3,245.0,280910,,,A*4D
$GPRMC,145141.1,A,3250.747997,N,11712.568865,W,16.6,244.0,280910,,,A*4B
$GPRMC,145144.1,A,3250.740093,N,11712.584233,W,16.5,241.4,280910,,,A*4D
$GPRMC,145147.1,A,3250.735244,N,11712.596812,W,15.1,242.8,280910,,,A*46
$GPRMC,145150.1,A,3250.730447,N,11712.610409,W,15.5,245.3,280910,,,A*43
$GPRMC,145153.1,A,3250.722330,N,11712.627537,W,18.3,243.9,280910,,,A*4B
$GPRMC,145156.1,A,3250.713692,N,11712.645493,W,20.0,242.8,280910,,,A*42
$GPRMC,145159.1,A,3250.703355,N,11712.667491,W,23.7,244.4,280910,,,A*4E
$GPRMC,145202.1,A,3250.694340,N,11712.689028,W,24.4,243.3,280910,,,A*4A
$GPRMC,145205.1,A,3250.685055,N,11712.710769,W,25.0,242.8,280910,,,A*46
$GPRMC,145208.1,A,3250.675449,N,11712.733637,W,25.5,242.8,280910,,,A*43
$GPRMC,145211.1,A,3250.663789,N,11712.758396,W,28.7,243.8,280910,,,A*4E
$GPRMC,145214.1,A,3250.650630,N,11712.789965,W,34.0,245.1,280910,,,A*47
$GPRMC,145217.1,A,3250.638243,N,11712.823320,W,37.2,244.4,280910,,,A*4B
$GPRMC,145220.1,A,3250.623870,N,11712.856975,W,35.2,243.7,280910,,,A*41
$GPRMC,145223.1,A,3250.607808,N,11712.890892,W,35.8,241.8,280910,,,A*4E
$GPRMC,145226.1,A,3250.593090,N,11712.921373,W,33.4,241.0,280910,,,A*41
$GPRMC,145229.1,A,3250.579885,N,11712.948418,W,31.8,239.7,280910,,,A*45
$GPRMC,145232.1,A,3250.568191,N,11712.974801,W,29.2,241.1,280910,,,A*42
$GPRMC,145235.1,A,3250.556792,N,11712.997718,W,26.2,241.7,280910,,,A*4E
$GPRMC,145238.1,A,3250.544647,N,11713.019874,W,26.2,240.1,280910,,,A*45
$GPRMC,145241.1,A,3250.533815,N,11713.044296,W,26.8,241.8,280910,,,A*4E
$GPRMC,145244.1,A,3250.524126,N,11713.066935,W,26.7,241.3,280910,,,A*42
$GPRMC,145247.1,A,3250.512472,N,11713.089437,W,24.5,241.0,280910,,,A*4D
$GPRMC,145250.1,A,3250.503321,N,11713.110157,W,23.9,241.0,280910,,,A*43
$GPRMC,145253.1,A,3250.493878,N,11713.130574,W,23.0,240.9,280910,,,A*49
$GPRMC,145256.1,A,3250.485642,N,11713.148142,W,20.5,240.8,280910,,,A*45
$GPRMC,145259.1,A,3250.476724,N,11713.164264,W,18.4,237.7,280910,,,A*4B
$GPRMC,145302.1,A,3250.471336,N,11713.176498,W,13.7,240.5,280910,,,A*48
$GPRMC,145305.1,A,3250.466975,N,11713.187144,W,12.2,241.5,280910,,,A*4B
$GPRMC,145308.1,A,3250.461893,N,11713.198018,W,11.9,241.1,280910,,,A*42
$GPRMC,145311.1,A,3250.457524,N,11713.208135,W,11.1,242.9,280910,,,A*49
$GPRMC,145314.1,A,3250.453824,N,11713.218749,W,12.0,246.4,280910,,,A*42
$GPRMC,145317.1,A,3250.448974,N,11713.232945,W,16.6,246.9,280910,,,A*4A
$GPRMC,145320.1,A,3250.444023,N,11713.249058,W,18.1,248.2,280910,,,A*4C
$GPRMC,145323.1,A,3250.439599,N,11713.263954,W,17.2,248.7,280910,,,A*45
$GPRMC,145326.1,A,3250.433897,N,11713.278902,W,15.7,247.5,280910,,,A*4A
$GPRMC,145329.1,A,3250.430927,N,11713.293165,W,14.7,252.7,280910,,,A*47
$GPRMC,145332.1,A,3250.426081,N,11713.309848,W,18.6,254.9,280910,,,A*4E
$GPRMC,145335.1,A,3250.423469,N,11713.328631,W,20.0,257.1,280910,,,A*4B
$GPRMC,145338.1,A,3250.418433,N,11713.349064,W,19.6,254.3,280910,,,A*4D
$GPRMC,145341.1,A,3250.416330,N,11713.367868,W,21.3,258.7,280910,,,A*47
$GPRMC,145344.1,A,3250.411591,N,11713.387560,W,22.1,253.7,280910,,,A*49
$GPRMC,145347.1,A,3250.406277,N,11713.413184,W,26.7,257.3,280910,,,A*45
$GPRMC,145350.1,A,3250.400138,N,11713.441023,W,29.2,257.0,280910,,,A*4F
$GPRMC,145353.1,A,3250.394947,N,11713.467950,W,27.6,258.0,280910,,,A*4A
$GPRMC,145356.1,A,3250.391388,N,11713.494272,W,27.6,259.3,280910,,,A*46
$GPRMC,145359.1,A,3250.385368,N,11713.524026,W,30.6,258.0,280910,,,A*4F
$GPRMC,145402.1,A,3250.379074,N,11713.557845,W,34.7,259.5,280910,,,A*43
$GPRMC,145405.1,A,3250.372985,N,11713.594216,W,36.9,259.2,280910,,,A*40
$GPRMC,145408.1,A,3250.366493,N,11713.631803,W,36.6,258.4,280910,,,A*48
$GPRMC,145411.1,A,3250.359881,N,11713.665675,W,34.4,256.4,280910,,,A*43
$GPRMC,145414.1,A,3250.354035,N,11713.694696,W,30.4,255.7,280910,,,A*4B
$GPRMC,145417.1,A,3250.350548,N,11713.722673,W,29.5,258.7,280910,,,A*40
$GPRMC,145420.1,A,3250.346886,N,11713.752334,W,30.4,260.5,280910,,,A*4D
$GPRMC,145423.1,A,3250.342739,N,11713.781016,W,28.8,260.3,280910,,,A*4F
$GPRMC,145426.1,A,3250.338787,N,11713.807608,W,26.3,262.8,280910,,,A*46
$GPRMC,145429.1,A,3250.339727,N,11713.829006,W,23.4,266.0,280910,,,A*48
$GPRMC,145432.1,A,3250.338828,N,11713.848685,W,19.2,267.1,280910,,,A*46
$GPRMC,145435.1,A,3250.338991,N,11713.862947,W,14.7,271.0,280910,,,A*45
$GPRMC,145438.1,A,3250.340922,N,11713.877962,W,17.2,277.0,280910,,,A*4C
$GPRMC,145441.1,A,3250.343121,N,11713.897568,W,21.2,278.2,280910,,,A*4A
$GPRMC,145444.1,A,3250.345288,N,11713.922061,W,25.1,278.3,280910,,,A*4C
$GPRMC,145447.1,A,3250.348788,N,11713.943820,W,23.2,278.4,280910,,,A*4F
$GPRMC,145450.1,A,3250.350343,N,11713.965239,W,21.2,274.4,280910,,,A*4B
$GPRMC,145453.1,A,3250.351686,N,11713.986114,W,20.6,272.2,280910,,,A*41
$GPRMC,145456.1,A,3250.351508,N,11714.008661,W,24.1,269.5,280910,,,A*42
$GPRMC,145459.1,A,3250.351600,N,11714.034322,W,26.5,270.3,280910,,,A*43
$GPRMC,145502.1,A,3250.353206,N,11714.060596,W,27.4,274.5,280910,,,A*46
$GPRMC,145505.1,A,3250.359755,N,11714.087563,W,27.7,287.6,280910,,,A*47
$GPRMC,145508.1,A,3250.374145,N,11714.113877,W,30.7,299.6,280910,,,A*4F
$GPRMC,145511.1,A,3250.397275,N,11714.138526,W,34.5,311.7,280910,,,A*4C
$GPRMC,145514.1,A,3250.429764,N,11714.161728,W,40.7,322.2,280910,,,A*4A
$GPRMC,145517.1,A,3250.479813,N,11714.161527,W,44.2,343.0,280910,,,A*4A
$GPRMC,145520.1,A,3250.515683,N,11714.170367,W,43.4,348.2,280910,,,A*48
$GPRMC,145523.1,A,3250.553849,N,11714.176102,W,44.9,352.9,280910,,,A*4C
$GPRMC,145526.1,A,3250.592242,N,11714.179069,W,47.0,357.1,280910,,,A*41
$GPRMC,145529.1,A,3250.632197,N,11714.177639,W,47.5,2.3,280910,,,A*45
$GPRMC,145532.1,A,3250.671393,N,11714.173237,W,48.7,6.0,280910,,,A*4A
$GPRMC,145535.1,A,3250.711558,N,11714.165802,W,48.1,7.6,280910,,,A*41
$GPRMC,145538.1,A,3250.752312,N,11714.158893,W,47.9,7.7,280910,,,A*43
$GPRMC,145541.1,A,3250.791966,N,11714.152036,W,49.9,8.0,280910,,,A*40
$GPRMC,145544.1,A,3250.836470,N,11714.144388,W,54.9,8.6,280910,,,A*46
$GPRMC,145547.1,A,3250.885841,N,11714.131584,W,58.4,12.2,280910,,,A*75
$GPRMC,145550.1,A,3250.933670,N,11714.116521,W,60.7,17.9,280910,,,A*7F
$GPRMC,145553.1,A,3250.979100,N,11714.094698,W,59.9,23.2,280910,,,A*70
$GPRMC,145556.1,A,3251.024481,N,11714.068047,W,60.2,28.8,280910,,,A*7E
$GPRMC,145559.1,A,3251.067900,N,11714.036644,W,60.9,30.4,280910,,,A*72
$GPRMC,145602.1,A,3251.110646,N,11714.006519,W,59.0,30.7,280910,,,A*7B
$GPRMC,145605.1,A,3251.151081,N,11713.977282,W,56.9,30.2,280910,,,A*7A
$GPRMC,145608.1,A,3251.194143,N,11713.947696,W,58.0,30.4,280910,,,A*72
$GPRMC,145611.1,A,3251.236197,N,11713.918585,W,57.8,30.3,280910,,,A*73
$GPRMC,145614.1,A,3251.277756,N,11713.891176,W,55.8,26.7,280910,,,A*71
$GPRMC,145617.1,A,3251.318744,N,11713.869841,W,54.1,23.9,280910,,,A*70
$GPRMC,145620.1,A,3251.360559,N,11713.852156,W,52.6,18.4,280910,,,A*76
$GPRMC,145623.1,A,3251.403530,N,11713.837286,W,53.8,15.1,280910,,,A*72
$GPRMC,145626.1,A,3251.448779,N,11713.826910,W,54.4,9.1,280910,,,A*45
$GPRMC,145629.1,A,3251.495128,N,11713.820625,W,55.2,6.6,280910,,,A*48
$GPRMC,145632.1,A,3251.541376,N,11713.817295,W,55.6,4.3,280910,,,A*4B
$GPRMC,145635.1,A,3251.590531,N,11713.812118,W,59.2,4.7,280910,,,A*4A
$GPRMC,145638.1,A,3251.641270,N,11713.805988,W,59.9,4.7,280910,,,A*46
$GPRMC,145641.1,A,3251.693490,N,11713.801150,W,61.1,4.4,280910,,,A*46
$GPRMC,145644.1,A,3251.745879,N,11713.796068,W,62.2,4.5,280910,,,A*48
$GPRMC,145647.1,A,3251.799064,N,11713.791029,W,62.3,4.8,280910,,,A*40
$GPRMC,145650.1,A,3251.851800,N,11713.785693,W,63.3,4.4,280910,,,A*48
$GPRMC,145653.1,A,3251.903629,N,11713.780983,W,63.0,4.1,280910,,,A*45
$GPRMC,145656.1,A,3251.955131,N,11713.776363,W,61.9,5.1,280910,,,A*4A
$GPRMC,145659.1,A,3252.005907,N,11713.770801,W,61.1,5.1,280910,,,A*46
$GPRMC,145702.1,A,3252.057487,N,11713.765990,W,59.6,4.4,280910,,,A*4E
$GPRMC,145705.1,A,3252.105694,N,11713.762753,W,56.3,4.8,280910,,,A*4F
$GPRMC,145708.1,A,3252.142694,N,11713.762041,W,48.2,3.5,280910,,,A*41
$GPRMC,145711.1,A,3252.178494,N,11713.759382,W,44.8,4.4,280910,,,A*46
$GPRMC,145714.1,A,3252.211716,N,11713.754562,W,43.1,5.0,280910,,,A*48
$GPRMC,145717.1,A,3252.246975,N,11713.751293,W,41.6,4.2,280910,,,A*48
$GPRMC,145720.1,A,3252.279847,N,11713.748856,W,38.5,3.6,280910,,,A*45
$GPRMC,145723.1,A,3252.310794,N,11713.746315,W,36.2,5.4,280910,,,A*46
$GPRMC,145726.1,A,3252.338059,N,11713.743570,W,32.5,4.5,280910,,,A*4C
$GPRMC,145729.1,A,3252.359124,N,11713.740981,W,26.5,3.4,280910,,,A*4D
$GPRMC,145732.1,A,3252.377316,N,11713.739350,W,23.5,2.3,280910,,,A*43
$GPRMC,145735.1,A,3252.396639,N,11713.738002,W,25.0,3.4,280910,,,A*43
$GPRMC,145738.1,A,3252.417184,N,11713.735750,W,24.0,5.1,280910,,,A*4E
$GPRMC,145741.1,A,3252.436063,N,11713.733846,W,23.6,2.7,280910,,,A*45
$GPRMC,145744.1,A,3252.458470,N,11713.732321,W,27.2,4.9,280910,,,A*4D
$GPRMC,145747.1,A,3252.485194,N,11713.729291,W,32.8,5.9,280910,,,A*4E
$GPRMC,145750.1,A,3252.515132,N,11713.726888,W,34.6,4.5,280910,,,A*44
$GPRMC,145753.1,A,3252.544096,N,11713.724383,W,34.5,4.2,280910,,,A*4A
$GPRMC,145756.1,A,3252.568543,N,11713.722354,W,29.6,2.6,280910,,,A*4D
$GPRMC,145759.1,A,3252.594528,N,11713.719819,W,31.0,5.3,280910,,,A*4B
$GPRMC,145802.1,A,3252.622591,N,11713.716520,W,34.6,4.7,280910,,,A*48
$GPRMC,145805.1,A,3252.652551,N,11713.712760,W,36.4,6.2,280910,,,A*41
$GPRMC,145808.1,A,3252.684366,N,11713.709584,W,38.6,5.0,280910,,,A*4A
$GPRMC,145811.1,A,3252.717926,N,11713.706486,W,40.6,5.2,280910,,,A*46
$GPRMC,145814.1,A,3252.751996,N,11713.702698,W,40.7,5.6,280910,,,A*46
$GPRMC,145817.1,A,3252.787828,N,11713.699426,W,42.2,4.6,280910,,,A*48
$GPRMC,145820.1,A,3252.822623,N,11713.697430,W,40.1,4.4,280910,,,A*43
$GPRMC,145823.1,A,3252.852863,N,11713.693243,W,37.7,6.5,280910,,,A*4E
$GPRMC,145826.1,A,3252.884446,N,11713.690463,W,38.4,4.8,280910,,,A*4F
$GPRMC,145829.1,A,3252.911754,N,11713.688632,W,33.0,3.2,280910,,,A*40
$GPRMC,145832.1,A,3252.933304,N,11713.685608,W,27.4,5.0,280910,,,A*4A
$GPRMC,145835.1,A,3252.959587,N,11713.683960,W,31.1,4.7,280910,,,A*4F
$GPRMC,145838.1,A,3252.987245,N,11713.680667,W,34.9,5.5,280910,,,A*4D
$GPRMC,145841.1,A,3253.018511,N,11713.676229,W,40.5,7.2,280910,,,A*46
$GPRMC,145844.1,A,3253.056805,N,11713.672011,W,45.1,6.3,280910,,,A*4D
$GPRMC,145847.1,A,3253.099597,N,11713.667117,W,48.9,6.5,280910,,,A*4B
$GPRMC,145850.1,A,3253.141145,N,11713.662219,W,50.7,5.8,280910,,,A*43
$GPRMC,145853.1,A,3253.184293,N,11713.656666,W,52.8,5.3,280910,,,A*4C
$GPRMC,145856.1,A,3253.229159,N,11713.653346,W,53.1,4.8,280910,,,A*48
$GPRMC,145859.1,A,3253.273402,N,11713.648920,W,53.0,4.6,280910,,,A*4C
$GPRMC,145902.1,A,3253.318821,N,11713.645838,W,54.4,4.2,280910,,,A*40
$GPRMC,145905.1,A,3253.360061,N,11713.641575,W,49.5,4.3,280910,,,A*48
$GPRMC,145908.1,A,3253.398821,N,11713.638927,W,46.9,3.9,280910,,,A*45
$GPRMC,145911.1,A,3253.436505,N,11713.634764,W,45.9,5.3,280910,,,A*4F
$GPRMC,145914.1,A,3253.475731,N,11713.629965,W,46.7,6.3,280910,,,A*45
$GPRMC,145917.1,A,3253.513747,N,11713.624651,W,46.5,6.1,280910,,,A*43
$GPRMC,145920.1,A,3253.551716,N,11713.619439,W,47.6,6.2,280910,,,A*46
$GPRMC,145923.1,A,3253.591565,N,11713.613913,W,48.2,7.3,280910,,,A*4B
$GPRMC,145926.1,A,3253.632802,N,11713.604849,W,49.7,10.5,280910,,,A*74
$GPRMC,145929.1,A,3253.673554,N,11713.591113,W,50.6,17.2,280910,,,A*70
$GPRMC,145932.1,A,3253.714073,N,11713.573077,W,52.1,22.5,280910,,,A*71
$GPRMC,145935.1,A,3253.750139,N,11713.554797,W,45.6,22.1,280910,,,A*70
$GPRMC,145938.1,A,3253.783243,N,11713.539483,W,41.6,21.7,280910,,,A*71
$GPRMC,145941.1,A,3253.812478,N,11713.525683,W,37.7,21.5,280910,,,A*7B
$GPRMC,145944.1,A,3253.838479,N,11713.511801,W,36.2,23.5,280910,,,A*72
$GPRMC,145947.1,A,3253.863807,N,11713.497625,W,34.0,25.8,280910,,,A*76
$GPRMC,145950.1,A,3253.889136,N,11713.484598,W,32.0,23.1,280910,,,A*71
$GPRMC,145953.1,A,3253.908374,N,11713.470285,W,25.3,30.8,280910,,,A*70
$GPRMC,145956.1,A,3253.919791,N,11713.461010,W,14.2,32.9,280910,,,A*74
$GPRMC,145959.1,A,3253.925002,N,11713.455294,W,7.8,37.0,280910,,,A*44
$GPRMC,150002.1,A,3253.928606,N,11713.451975,W,4.6,35.8,280910,,,A*4F
$GPRMC,150056.1,A,3253.936746,N,11713.443086,W,6.4,47.6,280910,,,A*49
$GPRMC,150059.1,A,3253.941323,N,11713.437877,W,7.5,43.7,280910,,,A*41
$GPRMC,150102.1,A,3253.944999,N,11713.433734,W,5.9,41.5,280910,,,A*42
$GPRMC,150108.1,A,3253.950211,N,11713.429180,W,4.9,39.7,280910,,,A*48
$GPRMC,150111.1,A,3253.953477,N,11713.425067,W,5.7,41.0,280910,,,A*46
$GPRMC,150114.1,A,3253.957720,N,11713.421848,W,5.4,37.3,280910,,,A*46
$GPRMC,150117.1,A,3253.961967,N,11713.418491,W,6.1,36.8,280910,,,A*43
$GPRMC,150120.1,A,3253.964580,N,11713.415020,W,5.7,44.4,280910,,,A*48
$GPRMC,150123.1,A,3253.967313,N,11713.411195,W,5.5,44.4,280910,,,A*4D
$GPRMC,150126.1,A,3253.970304,N,11713.407418,W,5.0,41.1,280910,,,A*4A
$GPRMC,150147.1,A,3253.983126,N,11713.393531,W,4.7,40.5,280910,,,A*40
$GPRMC,150150.1,A,3253.986250,N,11713.390761,W,4.5,41.6,280910,,,A*45
$GPRMC,150153.1,A,3253.989450,N,11713.389030,W,4.6,38.9,280910,,,A*46
$GPRMC,150159.1,A,3253.995255,N,11713.385652,W,5.4,13.3,280910,,,A*4C
$GPRMC,150202.1,A,3254.001264,N,11713.387999,W,6.3,347.0,280910,,,A*7F
$GPRMC,150205.1,A,3254.012165,N,11713.397805,W,11.4,322.0,280910,,,A*4F
$GPRMC,150208.1,A,3254.031034,N,11713.413944,W,13.7,326.8,280910,,,A*44
$GPRMC,150211.1,A,3254.036482,N,11713.419783,W,4.7,323.8,280910,,,A*7E
$GPRMC,150350.1,A,3254.050440,N,11713.427333,W,6.5,14.9,280910,,,A*40
$GPRMC,150353.1,A,3254.057881,N,11713.419982,W,10.8,38.3,280910,,,A*76
$GPRMC,150356.1,A,3254.067414,N,11713.407363,W,17.0,49.1,280910,,,A*71
$GPRMC,150359.1,A,3254.077830,N,11713.391284,W,19.1,51.8,280910,,,A*7A
$GPRMC,150402.1,A,3254.086496,N,11713.376721,W,15.7,53.1,280910,,,A*7F
$GPRMC,150405.1,A,3254.093521,N,11713.364693,W,13.3,53.0,280910,,,A*79
$GPRMC,150408.1,A,3254.101061,N,11713.352363,W,15.2,53.5,280910,,,A*72
$GPRMC,150411.1,A,3254.110833,N,11713.336239,W,21.1,55.5,280910,,,A*7B
$GPRMC,150414.1,A,3254.121721,N,11713.319945,W,20.4,51.0,280910,,,A*78
$GPRMC,150417.1,A,3254.129145,N,11713.308352,W,15.6,51.0,280910,,,A*7F
$GPRMC,150420.1,A,3254.133740,N,11713.300700,W,10.6,51.3,280910,,,A*7E
$GPRMC,150423.1,A,3254.142010,N,11713.289665,W,14.4,53.0,280910,,,A*7C
$GPRMC,150426.1,A,3254.137594,N,11713.271561,W,14.8,100.4,280910,,,A*4D
$GPRMC,150429.1,A,3254.130816,N,11713.254162,W,19.6,121.4,280910,,,A*42
$GPRMC,150432.1,A,3254.114933,N,11713.236434,W,28.2,133.3,280910,,,A*48
$GPRMC,150435.1,A,3254.091322,N,11713.215690,W,33.7,138.0,280910,,,A*43
$GPRMC,150438.1,A,3254.068117,N,11713.192565,W,37.6,139.9,280910,,,A*44
$GPRMC,150441.1,A,3254.042160,N,11713.168950,W,40.4,140.4,280910,,,A*4C
$GPRMC,150444.1,A,3254.014993,N,11713.144038,W,40.1,141.2,280910,,,A*45
$GPRMC,150447.1,A,3253.992047,N,11713.121097,W,34.4,139.5,280910,,,A*4E
$GPRMC,150450.1,A,3253.974724,N,11713.102321,W,28.4,140.5,280910,,,A*4E
$GPRMC,150453.1,A,3253.958272,N,11713.086444,W,23.6,140.6,280910,,,A*46
$GPRMC,150456.1,A,3253.948054,N,11713.076850,W,16.1,140.8,280910,,,A*4D
$GPRMC,150459.1,A,3253.942151,N,11713.070241,W,8.3,144.6,280910,,,A*77
$GPRMC,150520.1,A,3253.937066,N,11713.065921,W,11.3,140.3,280910,,,A*4F
$GPRMC,150523.1,A,3253.927308,N,11713.056531,W,13.6,137.0,280910,,,A*4F
$GPRMC,150526.1,A,3253.921464,N,11713.043700,W,13.4,110.8,280910,,,A*4A
$GPRMC,150529.1,A,3253.926949,N,11713.029537,W,17.6,59.7,280910,,,A*7F
$GPRMC,150532.1,A,3253.942374,N,11713.011630,W,28.0,46.0,280910,,,A*7F
$GPRMC,150535.1,A,3253.961545,N,11712.993541,W,29.4,34.4,280910,,,A*7E
$GPRMC,150538.1,A,3253.985462,N,11712.978644,W,32.7,29.1,280910,,,A*7E
$GPRMC,150541.1,A,3254.011933,N,11712.962817,W,34.5,28.8,280910,,,A*75
$GPRMC,150544.1,A,3254.036025,N,11712.943465,W,35.7,37.9,280910,,,A*7D
$GPRMC,150547.1,A,3254.058080,N,11712.915556,W,38.6,49.1,280910,,,A*76
$GPRMC,150550.1,A,3254.073500,N,11712.880775,W,39.7,63.3,280910,,,A*70
$GPRMC,150553.1,A,3254.083382,N,11712.843401,W,39.4,77.4,280910,,,A*7E
$GPRMC,150556.1,A,3254.090621,N,11712.803778,W,39.7,81.3,280910,,,A*71
$GPRMC,150559.1,A,3254.094645,N,11712.763968,W,39.8,85.9,280910,,,A*7F
$GPRMC,150602.1,A,3254.092001,N,11712.724502,W,38.9,97.0,280910,,,A*7B
$GPRMC,150605.1,A,3254.084288,N,11712.688240,W,37.8,106.4,280910,,,A*4D
$GPRMC,150608.1,A,3254.067407,N,11712.656180,W,38.3,119.8,280910,,,A*46
$GPRMC,150611.1,A,3254.052010,N,11712.625314,W,36.0,119.2,280910,,,A*46
$GPRMC,150614.1,A,3254.038873,N,11712.594816,W,34.5,112.2,280910,,,A*4E
$GPRMC,150617.1,A,3254.031778,N,11712.560467,W,34.9,98.9,280910,,,A*75
$GPRMC,150620.1,A,3254.031390,N,11712.526964,W,34.1,86.5,280910,,,A*74
$GPRMC,150623.1,A,3254.034379,N,11712.493306,W,34.6,82.3,280910,,,A*71
$GPRMC,150626.1,A,3254.038589,N,11712.458307,W,35.9,81.7,280910,,,A*7E
$GPRMC,150629.1,A,3254.042616,N,11712.421528,W,37.8,81.3,280910,,,A*7B
$GPRMC,150632.1,A,3254.048773,N,11712.385537,W,34.4,79.8,280910,,,A*7D
$GPRMC,150635.1,A,3254.053591,N,11712.356945,W,27.8,77.4,280910,,,A*75
$GPRMC,150638.1,A,3254.055863,N,11712.340411,W,16.7,76.6,280910,,,A*7B
$GPRMC,150641.1,A,3254.057986,N,11712.331115,W,9.0,68.3,280910,,,A*49
$GPRMC,150644.1,A,3254.057701,N,11712.324478,W,11.5,85.6,280910,,,A*7D
$GPRMC,150647.1,A,3254.059634,N,11712.305981,W,20.1,84.5,280910,,,A*7B
$GPRMC,150650.1,A,3254.061574,N,11712.276213,W,31.0,83.1,280910,,,A*76
