NMEA Sentence Code,UTC Time,Status,Latitude,Latitude Direction,Longitude,Longitude Direction,Speed (knots),Track Angle (degrees true),Date,MagneticVariation,Magnetic Variation Direction,[FAA Mode]-Optional,Checksum
$GPRMC,231704.2,A,3249.330673,N,11707.913078,W,21.4,86.8,190710,,,A*78
$GPRMC,231707.2,A,3249.332476,N,11707.887170,W,29.7,89.3,190710,,,A*74
$GPRMC,231710.2,A,3249.332896,N,11707.854493,W,34.6,89.3,190710,,,A*7B
$GPRMC,231713.2,A,3249.333385,N,11707.818911,W,36.9,89.7,190710,,,A*76
$GPRMC,231716.2,A,3249.333928,N,11707.782292,W,35.6,89.1,190710,,,A*78
$GPRMC,231719.9,A,3249.335060,N,11707.742950,W,30.5,86.3,190710,,,A*7D
$GPRMC,231722.9,A,3249.337762,N,11707.714319,W,31.3,86.2,190710,,,A*70
$GPRMC,231725.9,A,3249.334566,N,11707.702016,W,14.3,86.6,190710,,,A*7A
$GPRMC,231728.9,A,3249.334879,N,11707.696982,W,5.2,85.6,190710,,,A*4E
$GPRMC,231740.9,A,3249.335786,N,11707.689029,W,9.1,103.5,190710,,,A*7B
$GPRMC,231743.9,A,3249.336103,N,11707.668887,W,21.7,93.6,190710,,,A*74
$GPRMC,231746.9,A,3249.335486,N,11707.641866,W,26.1,93.2,190710,,,A*7B
$GPRMC,231749.9,A,3249.336022,N,11707.614426,W,25.9,89.5,190710,,,A*72
$GPRMC,231752.9,A,3249.336213,N,11707.591821,W,22.6,88.0,190710,,,A*71
$GPRMC,231755.9,A,3249.335257,N,11707.574320,W,17.2,89.6,190710,,,A*71
$GPRMC,231758.9,A,3249.333326,N,11707.564579,W,10.3,94.4,190710,,,A*7E
$GPRMC,231801.9,A,3249.332319,N,11707.554963,W,10.5,92.4,190710,,,A*74
$GPRMC,231804.9,A,3249.333449,N,11707.544453,W,8.5,85.4,190710,,,A*42
$GPRMC,231807.9,A,3249.333118,N,11707.538899,W,5.9,89.0,190710,,,A*48
$GPRMC,231822.9,A,3249.334029,N,11707.521400,W,11.3,90.9,190710,,,A*71
$GPRMC,231825.9,A,3249.332307,N,11707.504342,W,18.9,93.7,190710,,,A*77
$GPRMC,231828.9,A,3249.333317,N,11707.478039,W,25.5,88.8,190710,,,A*78
$GPRMC,231831.9,A,3249.334689,N,11707.444938,W,32.6,89.5,190710,,,A*7B
$GPRMC,231834.9,A,3249.336255,N,11707.409454,W,36.3,88.2,190710,,,A*70
$GPRMC,231837.9,A,3249.336964,N,11707.370905,W,40.4,87.3,190710,,,A*72
$GPRMC,231840.9,A,3249.338905,N,11707.332037,W,40.1,85.9,190710,,,A*78
$GPRMC,231843.9,A,3249.341747,N,11707.291733,W,40.7,84.7,190710,,,A*7F
$GPRMC,231846.9,A,3249.343629,N,11707.250345,W,41.3,86.7,190710,,,A*7E
$GPRMC,231849.9,A,3249.344743,N,11707.210511,W,40.3,87.8,190710,,,A*77
$GPRMC,231852.9,A,3249.343148,N,11707.174194,W,39.5,89.5,190710,,,A*74
$GPRMC,231855.9,A,3249.342762,N,11707.134083,W,41.1,90.3,190710,,,A*7A
$GPRMC,231858.9,A,3249.335325,N,11707.097142,W,35.5,103.7,190710,,,A*4C
$GPRMC,231901.9,A,3249.327550,N,11707.067873,W,29.7,111.4,190710,,,A*4D
$GPRMC,231904.9,A,3249.318819,N,11707.048943,W,17.7,123.4,190710,,,A*47
$GPRMC,231907.9,A,3249.312930,N,11707.041992,W,6.3,134.6,190710,,,A*71
$GPRMC,231925.9,A,3249.312250,N,11707.039639,W,4.4,127.8,190710,,,A*74
$GPRMC,231931.9,A,3249.309128,N,11707.035908,W,5.2,131.6,190710,,,A*78
$GPRMC,232031.9,A,3249.278032,N,11707.008941,W,6.3,148.4,190710,,,A*72
$GPRMC,232034.9,A,3249.277932,N,11707.004306,W,5.7,149.1,190710,,,A*77
$GPRMC,232043.9,A,3249.269143,N,11707.000016,W,5.3,150.7,190710,,,A*7A
$GPRMC,232046.2,A,3249.265984,N,11706.996757,W,5.8,135.7,190710,,,A*76
$GPRMC,232049.9,A,3249.258619,N,11706.993761,W,7.3,155.9,190710,,,A*76
$GPRMC,232052.9,A,3249.248622,N,11706.992885,W,9.0,168.9,190710,,,A*72
$GPRMC,232055.9,A,3249.227184,N,11706.983797,W,22.2,165.9,190710,,,A*4D
$GPRMC,232058.9,A,3249.193732,N,11706.976505,W,38.0,167.4,190710,,,A*42
$GPRMC,232101.9,A,3249.157639,N,11706.966002,W,43.8,168.7,190710,,,A*46
$GPRMC,232104.9,A,3249.117608,N,11706.954251,W,48.0,167.0,190710,,,A*4B
$GPRMC,232107.9,A,3249.071682,N,11706.943825,W,52.3,167.5,190710,,,A*49
$GPRMC,232110.9,A,3249.028871,N,11706.931790,W,54.7,168.3,190710,,,A*4E
$GPRMC,232113.9,A,3248.983323,N,11706.921045,W,57.0,169.0,190710,,,A*40
$GPRMC,232116.9,A,3248.930678,N,11706.910843,W,60.9,170.3,190710,,,A*4C
$GPRMC,232119.9,A,3248.879448,N,11706.902736,W,61.8,171.1,190710,,,A*43
$GPRMC,232122.9,A,3248.829059,N,11706.892880,W,62.2,170.7,190710,,,A*4E
$GPRMC,232125.9,A,3248.777560,N,11706.885460,W,62.3,172.0,190710,,,A*42
$GPRMC,232128.9,A,3248.725676,N,11706.878672,W,62.4,173.1,190710,,,A*48
$GPRMC,232131.9,A,3248.675465,N,11706.869138,W,60.5,172.3,190710,,,A*4D
$GPRMC,232134.9,A,3248.623889,N,11706.862600,W,59.2,173.4,190710,,,A*49
$GPRMC,232137.0,A,3248.591346,N,11706.856980,W,57.3,172.7,190710,,,A*4C
$GPRMC,232140.9,A,3248.532390,N,11706.847520,W,54.8,172.9,190710,,,A*47
$GPRMC,232143.9,A,3248.487028,N,11706.841265,W,55.5,172.7,190710,,,A*49
$GPRMC,232146.9,A,3248.442395,N,11706.834131,W,54.8,172.7,190710,,,A*4C
$GPRMC,232149.9,A,3248.397011,N,11706.825671,W,55.2,172.1,190710,,,A*4D
$GPRMC,232152.9,A,3248.350857,N,11706.819508,W,55.5,173.2,190710,,,A*41
$GPRMC,232155.9,A,3248.302349,N,11706.813444,W,57.3,173.1,190710,,,A*41
$GPRMC,232158.9,A,3248.257656,N,11706.805675,W,54.6,172.3,190710,,,A*44
$GPRMC,232201.9,A,3248.211298,N,11706.800397,W,55.2,174.1,190710,,,A*42
$GPRMC,232204.9,A,3248.168879,N,11706.791108,W,54.3,171.0,190710,,,A*48
$GPRMC,232207.9,A,3248.122935,N,11706.783236,W,54.7,172.2,190710,,,A*44
$GPRMC,232210.9,A,3248.074769,N,11706.778657,W,55.8,173.8,190710,,,A*45
$GPRMC,232213.9,A,3248.027933,N,11706.769748,W,56.5,173.0,190710,,,A*48
$GPRMC,232216.9,A,3247.979804,N,11706.762308,W,58.4,172.0,190710,,,A*40
$GPRMC,232219.9,A,3247.929637,N,11706.754159,W,62.0,172.6,190710,,,A*4C
$GPRMC,232222.9,A,3247.875137,N,11706.747391,W,65.6,174.2,190710,,,A*4C
$GPRMC,232225.9,A,3247.818732,N,11706.740769,W,67.9,174.7,190710,,,A*4F
$GPRMC,232228.9,A,3247.760355,N,11706.734467,W,68.2,174.9,190710,,,A*43
$GPRMC,232231.9,A,3247.703010,N,11706.731138,W,69.1,177.5,190710,,,A*4B
$GPRMC,232234.9,A,3247.647775,N,11706.730867,W,65.0,183.2,190710,,,A*48
$GPRMC,232237.9,A,3247.595508,N,11706.737644,W,63.6,187.4,190710,,,A*45
$GPRMC,232240.9,A,3247.544720,N,11706.749278,W,62.7,192.7,190710,,,A*44
$GPRMC,232243.9,A,3247.498731,N,11706.764757,W,57.0,196.9,190710,,,A*4B
$GPRMC,232246.9,A,3247.458043,N,11706.780872,W,51.6,197.5,190710,,,A*4F
$GPRMC,232249.9,A,3247.419283,N,11706.796347,W,49.7,197.8,190710,,,A*44
$GPRMC,232252.9,A,3247.381689,N,11706.812311,W,50.2,199.5,190710,,,A*48
$GPRMC,232255.9,A,3247.343446,N,11706.827330,W,47.9,198.0,190710,,,A*4C
$GPRMC,232258.9,A,3247.307823,N,11706.841107,W,44.4,197.7,190710,,,A*4E
$GPRMC,232301.2,A,3247.281620,N,11706.850187,W,42.0,196.8,190710,,,A*4E
$GPRMC,232304.9,A,3247.237254,N,11706.863203,W,45.3,191.8,190710,,,A*46
$GPRMC,232307.9,A,3247.197405,N,11706.870608,W,48.1,187.7,190710,,,A*44
$GPRMC,232311.2,A,3247.153492,N,11706.874012,W,48.1,182.2,190710,,,A*47
$GPRMC,232314.9,A,3247.101836,N,11706.872839,W,52.1,176.9,190710,,,A*40
$GPRMC,232317.9,A,3247.061315,N,11706.871313,W,47.8,176.2,190710,,,A*48
$GPRMC,232320.9,A,3247.022012,N,11706.864795,W,47.8,170.9,190710,,,A*4C
$GPRMC,232323.9,A,3246.983657,N,11706.853999,W,47.2,167.7,190710,,,A*4F
$GPRMC,232326.9,A,3246.945221,N,11706.844324,W,47.3,169.1,190710,,,A*46
$GPRMC,232329.9,A,3246.907025,N,11706.834594,W,45.4,167.3,190710,,,A*4A
$GPRMC,232332.9,A,3246.871523,N,11706.824411,W,43.8,166.7,190710,,,A*41
$GPRMC,232335.9,A,3246.834000,N,11706.814660,W,44.3,166.4,190710,,,A*4B
$GPRMC,232338.9,A,3246.799187,N,11706.804696,W,43.6,166.9,190710,,,A*47
$GPRMC,232341.9,A,3246.764359,N,11706.791364,W,44.9,160.1,190710,,,A*47
$GPRMC,232344.9,A,3246.734927,N,11706.766066,W,43.7,143.9,190710,,,A*4D
$GPRMC,232347.9,A,3246.714051,N,11706.730706,W,43.8,125.3,190710,,,A*43
$GPRMC,232350.9,A,3246.699152,N,11706.690970,W,43.9,114.4,190710,,,A*43
$GPRMC,232353.9,A,3246.690983,N,11706.646221,W,46.4,106.5,190710,,,A*43
$GPRMC,232356.9,A,3246.692542,N,11706.600011,W,45.8,90.0,190710,,,A*72
$GPRMC,232359.9,A,3246.697455,N,11706.558097,W,36.8,82.9,190710,,,A*71
$GPRMC,232402.9,A,3246.702763,N,11706.528864,W,26.4,81.7,190710,,,A*70
$GPRMC,232405.9,A,3246.705963,N,11706.508181,W,21.3,81.5,190710,,,A*7C
$GPRMC,232408.9,A,3246.706492,N,11706.491787,W,16.1,83.5,190710,,,A*74
$GPRMC,232411.9,A,3246.706180,N,11706.480072,W,12.8,86.4,190710,,,A*7E
$GPRMC,232414.9,A,3246.706178,N,11706.468384,W,11.4,88.7,190710,,,A*72
$GPRMC,232417.9,A,3246.707367,N,11706.460324,W,8.0,82.0,190710,,,A*4F
$GPRMC,232420.9,A,3246.706339,N,11706.453784,W,8.0,89.2,190710,,,A*46
$GPRMC,232423.9,A,3246.708848,N,11706.441287,W,11.4,86.9,190710,,,A*7B
$GPRMC,232426.9,A,3246.710649,N,11706.429116,W,11.6,85.1,190710,,,A*74
$GPRMC,232429.9,A,3246.711776,N,11706.417682,W,11.0,86.0,190710,,,A*74
$GPRMC,232432.9,A,3246.712337,N,11706.404875,W,13.5,81.4,190710,,,A*7C
$GPRMC,232435.9,A,3246.712232,N,11706.389756,W,14.4,88.3,190710,,,A*7B
$GPRMC,232438.9,A,3246.714301,N,11706.371162,W,18.8,90.6,190710,,,A*7B
$GPRMC,232441.9,A,3246.712889,N,11706.351908,W,18.5,90.3,190710,,,A*76
$GPRMC,232444.9,A,3246.710938,N,11706.328873,W,18.9,89.0,190710,,,A*7E
$GPRMC,232447.9,A,3246.711693,N,11706.310248,W,17.9,87.1,190710,,,A*7B
$GPRMC,232450.9,A,3246.712567,N,11706.292680,W,17.7,87.0,190710,,,A*72
$GPRMC,232453.9,A,3246.715657,N,11706.273295,W,19.7,84.4,190710,,,A*70
$GPRMC,232456.9,A,3246.718800,N,11706.247568,W,27.1,85.9,190710,,,A*71
$GPRMC,232459.9,A,3246.720473,N,11706.220814,W,26.6,85.1,190710,,,A*74
$GPRMC,232502.9,A,3246.725970,N,11706.193748,W,28.0,84.1,190710,,,A*74
$GPRMC,232505.9,A,3246.728334,N,11706.164593,W,29.4,84.2,190710,,,A*7E
$GPRMC,232508.9,A,3246.731586,N,11706.135590,W,28.0,80.2,190710,,,A*72
$GPRMC,232511.9,A,3246.735140,N,11706.111812,W,24.2,79.1,190710,,,A*7A
$GPRMC,232514.9,A,3246.735249,N,11706.103407,W,9.4,78.9,190710,,,A*4E
$GPRMC,232517.9,A,3246.737186,N,11706.095249,W,7.0,79.4,190710,,,A*4B
$GPRMC,232520.9,A,3246.740025,N,11706.088678,W,6.5,50.6,190710,,,A*40
$GPRMC,232523.9,A,3246.742607,N,11706.071081,W,17.0,74.5,190710,,,A*71
$GPRMC,232526.9,A,3246.744557,N,11706.050260,W,22.9,80.7,190710,,,A*7C
$GPRMC,232529.9,A,3246.747982,N,11706.027987,W,19.7,75.5,190710,,,A*78
$GPRMC,232532.9,A,3246.750501,N,11706.013912,W,14.7,77.8,190710,,,A*7A
$GPRMC,232535.9,A,3246.750785,N,11706.000318,W,14.1,80.2,190710,,,A*75
$GPRMC,232538.9,A,3246.753431,N,11705.989746,W,13.5,71.2,190710,,,A*7E
$GPRMC,232541.9,A,3246.757651,N,11705.970266,W,19.5,79.1,190710,,,A*70
$GPRMC,232544.9,A,3246.760857,N,11705.951493,W,19.8,81.9,190710,,,A*74
$GPRMC,232547.9,A,3246.763514,N,11705.930738,W,20.2,80.4,190710,,,A*77
$GPRMC,232550.9,A,3246.767460,N,11705.914323,W,13.8,78.1,190710,,,A*77
$GPRMC,232553.9,A,3246.766182,N,11705.904032,W,9.8,83.2,190710,,,A*42
$GPRMC,232556.9,A,3246.768262,N,11705.898134,W,6.9,74.8,190710,,,A*4B
$GPRMC,232559.9,A,3246.768931,N,11705.891976,W,6.2,80.5,190710,,,A*43
$GPRMC,232603.2,A,3246.771021,N,11705.883042,W,10.7,81.8,190710,,,A*77
$GPRMC,232606.2,A,3246.772804,N,11705.870605,W,12.3,79.0,190710,,,A*7E
$GPRMC,232609.2,A,3246.774704,N,11705.861894,W,8.0,77.7,190710,,,A*4F
$GPRMC,232612.9,A,3246.776755,N,11705.849239,W,13.1,88.5,190710,,,A*76
$GPRMC,232615.9,A,3246.780792,N,11705.830403,W,18.4,78.9,190710,,,A*7F
$GPRMC,232618.9,A,3246.786175,N,11705.810623,W,20.9,78.8,190710,,,A*7E
$GPRMC,232621.9,A,3246.786275,N,11705.790909,W,20.4,79.9,190710,,,A*7A
$GPRMC,232624.9,A,3246.788414,N,11705.769855,W,21.8,83.7,190710,,,A*78
$GPRMC,232627.2,A,3246.790394,N,11705.753539,W,20.9,82.5,190710,,,A*7B
$GPRMC,232630.2,A,3246.794490,N,11705.737151,W,16.5,80.9,190710,,,A*75
$GPRMC,232633.9,A,3246.797225,N,11705.722954,W,13.4,80.2,190710,,,A*70
$GPRMC,232636.9,A,3246.800683,N,11705.710133,W,15.4,80.6,190710,,,A*76
$GPRMC,232639.9,A,3246.803086,N,11705.686673,W,23.0,83.4,190710,,,A*74
$GPRMC,232642.9,A,3246.809326,N,11705.660115,W,28.5,79.6,190710,,,A*7D
$GPRMC,232645.9,A,3246.812849,N,11705.630407,W,30.6,80.7,190710,,,A*7C
$GPRMC,232648.9,A,3246.818663,N,11705.596593,W,32.7,81.6,190710,,,A*7D
$GPRMC,232651.9,A,3246.824098,N,11705.564736,W,32.5,80.7,190710,,,A*7A
$GPRMC,232654.9,A,3246.826815,N,11705.534892,W,30.6,83.4,190710,,,A*75
$GPRMC,232657.9,A,3246.828666,N,11705.504787,W,29.0,87.7,190710,,,A*73
$GPRMC,232700.9,A,3246.831838,N,11705.466033,W,37.4,85.8,190710,,,A*76
$GPRMC,232703.9,A,3246.833275,N,11705.426787,W,36.6,85.2,190710,,,A*71
$GPRMC,232706.9,A,3246.837140,N,11705.389970,W,35.3,83.3,190710,,,A*70
$GPRMC,232709.9,A,3246.838275,N,11705.355369,W,37.3,86.2,190710,,,A*70
$GPRMC,232712.9,A,3246.840099,N,11705.316833,W,40.0,86.4,190710,,,A*73
$GPRMC,232715.9,A,3246.842489,N,11705.275625,W,42.9,87.4,190710,,,A*74
$GPRMC,232718.9,A,3246.843795,N,11705.229294,W,46.2,89.0,190710,,,A*74
$GPRMC,232721.9,A,3246.841521,N,11705.184513,W,46.4,93.4,190710,,,A*74
$GPRMC,232724.9,A,3246.840658,N,11705.142749,W,41.3,94.6,190710,,,A*7F
$GPRMC,232727.9,A,3246.834942,N,11705.104888,W,37.7,99.3,190710,,,A*76
$GPRMC,232730.9,A,3246.831627,N,11705.070150,W,35.0,98.6,190710,,,A*76
$GPRMC,232733.9,A,3246.828128,N,11705.036875,W,32.7,98.9,190710,,,A*76
$GPRMC,232736.9,A,3246.824683,N,11705.005582,W,31.9,99.0,190710,,,A*79
$GPRMC,232739.9,A,3246.819577,N,11704.973655,W,33.0,100.0,190710,,,A*4A
$GPRMC,232742.9,A,3246.814367,N,11704.939599,W,35.8,102.6,190710,,,A*4B
$GPRMC,232745.9,A,3246.806967,N,11704.903800,W,37.3,101.5,190710,,,A*48
$GPRMC,232748.9,A,3246.801461,N,11704.866743,W,38.7,99.5,190710,,,A*78
$GPRMC,232751.9,A,3246.796176,N,11704.828364,W,40.4,99.3,190710,,,A*73
$GPRMC,232754.9,A,3246.791170,N,11704.788255,W,42.4,99.1,190710,,,A*71
$GPRMC,232757.9,A,3246.783654,N,11704.744407,W,46.1,102.3,190710,,,A*41
$GPRMC,232800.9,A,3246.776676,N,11704.699481,W,47.3,100.2,190710,,,A*49
$GPRMC,232803.9,A,3246.771158,N,11704.653190,W,48.6,98.8,190710,,,A*75
$GPRMC,232806.9,A,3246.763033,N,11704.603761,W,50.3,100.0,190710,,,A*46
$GPRMC,232809.9,A,3246.760934,N,11704.556816,W,49.0,97.0,190710,,,A*7C
$GPRMC,232812.9,A,3246.757480,N,11704.506245,W,49.6,95.1,190710,,,A*7C
$GPRMC,232815.9,A,3246.754664,N,11704.459882,W,48.9,95.0,190710,,,A*75
$GPRMC,232818.9,A,3246.752187,N,11704.409627,W,50.9,93.6,190710,,,A*79
$GPRMC,232821.9,A,3246.749365,N,11704.360084,W,50.4,92.6,190710,,,A*7C
$GPRMC,232824.9,A,3246.749501,N,11704.307754,W,52.1,90.1,190710,,,A*74
$GPRMC,232827.9,A,3246.750191,N,11704.255749,W,51.7,89.8,190710,,,A*7C
$GPRMC,232830.9,A,3246.752828,N,11704.207507,W,49.7,89.0,190710,,,A*7D
$GPRMC,232833.9,A,3246.752821,N,11704.157855,W,51.0,89.1,190710,,,A*74
$GPRMC,232836.9,A,3246.757402,N,11704.107094,W,52.5,87.5,190710,,,A*75
$GPRMC,232839.9,A,3246.760694,N,11704.053383,W,54.6,88.0,190710,,,A*79
$GPRMC,232842.9,A,3246.763305,N,11703.998525,W,54.9,87.7,190710,,,A*7F
$GPRMC,232845.2,A,3246.763899,N,11703.957802,W,52.7,87.9,190710,,,A*70
$GPRMC,232848.9,A,3246.764285,N,11703.896058,W,51.3,90.3,190710,,,A*76
$GPRMC,232851.9,A,3246.761696,N,11703.844795,W,53.5,94.4,190710,,,A*73
$GPRMC,232854.9,A,3246.754361,N,11703.790123,W,57.7,100.1,190710,,,A*4F
$GPRMC,232857.9,A,3246.740668,N,11703.734586,W,59.0,106.5,190710,,,A*4B
$GPRMC,232900.9,A,3246.724247,N,11703.679975,W,59.0,109.9,190710,,,A*48
$GPRMC,232903.9,A,3246.705440,N,11703.625979,W,58.6,111.0,190710,,,A*4B
$GPRMC,232906.9,A,3246.689132,N,11703.569664,W,59.0,108.7,190710,,,A*4B
$GPRMC,232909.9,A,3246.674883,N,11703.515696,W,56.2,106.4,190710,,,A*43
$GPRMC,232912.9,A,3246.664497,N,11703.460285,W,58.6,103.0,190710,,,A*4F
$GPRMC,232915.9,A,3246.653674,N,11703.407773,W,56.2,102.9,190710,,,A*4C
$GPRMC,232918.9,A,3246.644329,N,11703.353059,W,53.5,102.7,190710,,,A*4F
$GPRMC,232921.9,A,3246.637630,N,11703.301960,W,53.1,101.4,190710,,,A*4C
$GPRMC,232924.9,A,3246.630146,N,11703.245852,W,55.0,101.1,190710,,,A*4B
$GPRMC,232927.9,A,3246.619134,N,11703.193294,W,55.7,102.8,190710,,,A*43
$GPRMC,232930.9,A,3246.607268,N,11703.140127,W,56.4,105.8,190710,,,A*42
$GPRMC,232933.2,A,3246.596048,N,11703.101452,W,55.4,105.9,190710,,,A*41
$GPRMC,232936.2,A,3246.578604,N,11703.048300,W,57.4,111.4,190710,,,A*4C
$GPRMC,232939.2,A,3246.559795,N,11702.995863,W,56.8,114.5,190710,,,A*46
$GPRMC,232942.2,A,3246.539053,N,11702.945933,W,55.3,117.3,190710,,,A*45
$GPRMC,232945.2,A,3246.516774,N,11702.898827,W,55.2,119.9,190710,,,A*4D
$GPRMC,232948.9,A,3246.487349,N,11702.842854,W,53.8,122.4,190710,,,A*42
$GPRMC,232951.9,A,3246.463053,N,11702.800097,W,52.3,123.5,190710,,,A*43
$GPRMC,232954.9,A,3246.440227,N,11702.759196,W,49.6,121.9,190710,,,A*44
$GPRMC,232957.9,A,3246.419951,N,11702.713709,W,52.6,121.9,190710,,,A*45
$GPRMC,233000.9,A,3246.397151,N,11702.668619,W,52.0,121.0,190710,,,A*44
$GPRMC,233003.9,A,3246.376808,N,11702.624074,W,51.6,115.7,190710,,,A*4D
$GPRMC,233006.9,A,3246.362699,N,11702.574328,W,54.3,108.5,190710,,,A*49
$GPRMC,233009.9,A,3246.352560,N,11702.518666,W,57.7,101.8,190710,,,A*46
$GPRMC,233012.9,A,3246.347185,N,11702.459946,W,59.5,93.6,190710,,,A*76
$GPRMC,233015.9,A,3246.350092,N,11702.399920,W,60.2,85.9,190710,,,A*7E
$GPRMC,233018.9,A,3246.364568,N,11702.340430,W,61.9,76.9,190710,,,A*7A
$GPRMC,233021.9,A,3246.381072,N,11702.277830,W,64.8,74.2,190710,,,A*71
$GPRMC,233024.9,A,3246.394595,N,11702.215385,W,64.8,75.0,190710,,,A*7E
$GPRMC,233027.9,A,3246.407631,N,11702.154744,W,63.2,75.6,190710,,,A*79
$GPRMC,233030.9,A,3246.419069,N,11702.097264,W,59.4,76.7,190710,,,A*7F
$GPRMC,233033.9,A,3246.426846,N,11702.041428,W,58.0,80.9,190710,,,A*72
$GPRMC,233036.9,A,3246.428469,N,11701.985974,W,55.2,88.0,190710,,,A*70
$GPRMC,233039.9,A,3246.423179,N,11701.938404,W,48.4,98.6,190710,,,A*71
$GPRMC,233042.9,A,3246.403448,N,11701.903606,W,40.2,120.8,190710,,,A*42
$GPRMC,233045.9,A,3246.383061,N,11701.878527,W,34.2,124.0,190710,,,A*47
$GPRMC,233048.9,A,3246.375808,N,11701.849532,W,31.3,100.5,190710,,,A*45
$GPRMC,233051.9,A,3246.379204,N,11701.822823,W,27.7,81.0,190710,,,A*79
$GPRMC,233054.9,A,3246.392851,N,11701.796153,W,29.8,63.3,190710,,,A*73
$GPRMC,233057.9,A,3246.410042,N,11701.767257,W,33.8,62.2,190710,,,A*75
$GPRMC,233100.9,A,3246.422010,N,11701.735243,W,34.5,74.7,190710,,,A*7A
$GPRMC,233103.9,A,3246.425898,N,11701.705883,W,30.7,79.5,190710,,,A*7A
$GPRMC,233106.9,A,3246.428704,N,11701.679186,W,23.5,81.3,190710,,,A*7F
$GPRMC,233109.9,A,3246.429728,N,11701.667910,W,9.0,73.7,190710,,,A*43
$GPRMC,233118.9,A,3246.428619,N,11701.663261,W,4.4,79.7,190710,,,A*4B
$GPRMC,233121.9,A,3246.428170,N,11701.659067,W,4.9,95.7,190710,,,A*4B
$GPRMC,233124.9,A,3246.423010,N,11701.649353,W,11.2,127.6,190710,,,A*41
$GPRMC,233127.9,A,3246.409310,N,11701.643415,W,18.2,160.9,190710,,,A*43
$GPRMC,233130.9,A,3246.389753,N,11701.638906,W,26.0,166.5,190710,,,A*4F
$GPRMC,233133.9,A,3246.363852,N,11701.628120,W,32.5,162.4,190710,,,A*4E
$GPRMC,233136.9,A,3246.335156,N,11701.615998,W,37.0,158.6,190710,,,A*4B
$GPRMC,233139.9,A,3246.303467,N,11701.600354,W,39.7,154.0,190710,,,A*4B
$GPRMC,233142.9,A,3246.279187,N,11701.582314,W,33.8,150.3,190710,,,A*4F
$GPRMC,233145.9,A,3246.258684,N,11701.568511,W,27.0,145.2,190710,,,A*40
$GPRMC,233148.9,A,3246.245230,N,11701.554367,W,20.0,140.3,190710,,,A*41
$GPRMC,233151.9,A,3246.239809,N,11701.548019,W,6.1,146.6,190710,,,A*73
$GPRMC,233215.9,A,3246.233358,N,11701.540043,W,5.5,137.3,190710,,,A*76
$GPRMC,233218.9,A,3246.221714,N,11701.529747,W,16.3,138.2,190710,,,A*42
$GPRMC,233221.9,A,3246.207605,N,11701.517855,W,21.3,141.8,190710,,,A*4C
$GPRMC,233224.9,A,3246.194112,N,11701.503462,W,20.8,141.9,190710,,,A*47
$GPRMC,233227.9,A,3246.177481,N,11701.497327,W,18.8,155.2,190710,,,A*49
$GPRMC,233230.9,A,3246.172114,N,11701.495466,W,7.1,160.9,190710,,,A*79
$GPRMC,233233.9,A,3246.169955,N,11701.491252,W,6.2,144.2,190710,,,A*77
$GPRMC,233236.9,A,3246.161508,N,11701.483429,W,12.1,144.9,190710,,,A*4A
$GPRMC,233239.9,A,3246.147395,N,11701.473571,W,20.0,147.0,190710,,,A*4A
$GPRMC,233242.9,A,3246.131555,N,11701.464489,W,20.9,149.8,190710,,,A*42
$GPRMC,233245.9,A,3246.117229,N,11701.454404,W,18.9,150.6,190710,,,A*46
$GPRMC,233248.9,A,3246.104827,N,11701.445140,W,17.1,152.1,190710,,,A*4A
$GPRMC,233251.9,A,3246.092204,N,11701.437801,W,17.0,153.5,190710,,,A*4A
$GPRMC,233254.9,A,3246.083013,N,11701.431448,W,12.9,158.3,190710,,,A*4D
$GPRMC,233309.9,A,3246.083409,N,11701.430607,W,7.7,146.8,190710,,,A*7D
$GPRMC,233312.9,A,3246.078139,N,11701.425567,W,6.3,138.1,190710,,,A*71
$GPRMC,233324.9,A,3246.069003,N,11701.419832,W,7.5,148.5,190710,,,A*7A
$GPRMC,233327.9,A,3246.061470,N,11701.422430,W,10.3,198.6,190710,,,A*49
$GPRMC,233330.9,A,3246.047620,N,11701.431884,W,20.4,214.3,190710,,,A*4B
$GPRMC,233333.9,A,3246.032724,N,11701.447148,W,23.1,222.9,190710,,,A*4E
$GPRMC,233336.9,A,3246.013168,N,11701.457951,W,23.1,213.7,190710,,,A*4B
$GPRMC,233339.9,A,3245.996128,N,11701.471618,W,23.0,213.3,190710,,,A*44
$GPRMC,233342.9,A,3245.976179,N,11701.483750,W,24.4,203.2,190710,,,A*41
$GPRMC,233345.9,A,3245.958716,N,11701.501959,W,27.6,220.7,190710,,,A*4C
$GPRMC,233348.9,A,3245.943949,N,11701.523773,W,27.2,228.7,190710,,,A*45
$GPRMC,233351.9,A,3245.933240,N,11701.537385,W,19.8,223.6,190710,,,A*4D
$GPRMC,233354.9,A,3245.927042,N,11701.546546,W,12.6,225.6,190710,,,A*41
$GPRMC,233357.9,A,3245.922001,N,11701.552869,W,6.4,221.1,190710,,,A*71
