NMEA Sentence Code,UTC Time,Status,Latitude,Latitude Direction,Longitude,Longitude Direction,Speed (knots),Track Angle (degrees true),Date,MagneticVariation,Magnetic Variation Direction,[FAA Mode]-Optional,Checksum
$GPRMC,193034.000,A,3300.3280,N,11649.3780,W,24.30,266.00,261210,,,A*4F
$GPRMC,193036.000,A,3300.3233,N,11649.4009,W,32.07,258.90,261210,,,A*43
$GPRMC,193040.000,A,3300.3133,N,11649.4544,W,40.82,255.70,261210,,,A*46
$GPRMC,193043.000,A,3300.3031,N,11649.4952,W,42.77,250.80,261210,,,A*4F
$GPRMC,193046.000,A,3300.2879,N,11649.5334,W,42.28,243.60,261210,,,A*42
$GPRMC,193049.000,A,3300.2656,N,11649.5768,W,48.11,239.30,261210,,,A*4B
$GPRMC,193052.000,A,3300.2440,N,11649.6176,W,46.65,238.30,261210,,,A*42
$GPRMC,193055.000,A,3300.2257,N,11649.6533,W,43.74,238.20,261210,,,A*44
$GPRMC,193058.000,A,3300.2085,N,11649.6862,W,41.79,238.60,261210,,,A*46
$GPRMC,193101.000,A,3300.1886,N,11649.7247,W,45.20,238.60,261210,,,A*47
$GPRMC,193105.000,A,3300.1669,N,11649.7665,W,45.20,237.70,261210,,,A*46
$GPRMC,193108.000,A,3300.1470,N,11649.8043,W,45.20,237.40,261210,,,A*4F
$GPRMC,193112.000,A,3300.1163,N,11649.8638,W,45.20,240.50,261210,,,A*48
$GPRMC,193115.000,A,3300.0989,N,11649.9065,W,45.20,248.40,261210,,,A*44
$GPRMC,193118.000,A,3300.0930,N,11649.9474,W,43.74,260.00,261210,,,A*46
$GPRMC,193121.000,A,3300.0894,N,11649.9906,W,44.22,264.40,261210,,,A*4F
$GPRMC,193124.000,A,3300.0827,N,11650.0292,W,41.31,258.10,261210,,,A*48
$GPRMC,193127.000,A,3300.0677,N,11650.0721,W,45.20,243.60,261210,,,A*44
$GPRMC,193130.000,A,3300.0439,N,11650.1052,W,45.20,228.20,261210,,,A*41
$GPRMC,193133.000,A,3300.0153,N,11650.1338,W,44.71,224.00,261210,,,A*4F
$GPRMC,193137.000,A,3259.9836,N,11650.1744,W,39.85,231.50,261210,,,A*4A
$GPRMC,193140.000,A,3259.9681,N,11650.2065,W,37.91,242.90,261210,,,A*4C
$GPRMC,193143.000,A,3259.9507,N,11650.2397,W,37.91,233.00,261210,,,A*43
$GPRMC,193146.000,A,3259.9310,N,11650.2658,W,39.36,229.30,261210,,,A*4B
$GPRMC,193149.000,A,3259.9114,N,11650.3000,W,40.82,240.30,261210,,,A*46
$GPRMC,193152.000,A,3259.9001,N,11650.3406,W,41.79,254.00,261210,,,A*48
$GPRMC,193155.000,A,3259.8961,N,11650.3835,W,42.28,262.30,261210,,,A*4C
$GPRMC,193159.000,A,3259.8904,N,11650.4418,W,44.22,263.40,261210,,,A*4D
$GPRMC,193202.000,A,3259.8878,N,11650.4812,W,42.77,264.30,261210,,,A*4A
$GPRMC,193205.000,A,3259.8825,N,11650.5268,W,45.68,263.20,261210,,,A*4C
$GPRMC,193208.000,A,3259.8795,N,11650.5712,W,46.65,264.90,261210,,,A*4F
$GPRMC,193211.000,A,3259.8788,N,11650.6157,W,44.22,267.70,261210,,,A*43
$GPRMC,193214.000,A,3259.8809,N,11650.6576,W,42.77,275.00,261210,,,A*45
$GPRMC,193217.000,A,3259.8882,N,11650.6969,W,42.28,283.20,261210,,,A*46
$GPRMC,193220.000,A,3259.8947,N,11650.7400,W,42.28,282.70,261210,,,A*4D
$GPRMC,193223.000,A,3259.9017,N,11650.7841,W,42.28,278.10,261210,,,A*49
$GPRMC,193226.000,A,3259.9010,N,11650.8266,W,42.77,266.40,261210,,,A*4B
$GPRMC,193229.000,A,3259.8976,N,11650.8685,W,41.79,266.60,261210,,,A*4A
$GPRMC,193231.000,A,3259.8967,N,11650.8955,W,41.79,269.70,261210,,,A*4F
$GPRMC,193235.000,A,3259.8978,N,11650.9471,W,38.39,269.20,261210,,,A*40
$GPRMC,193238.000,A,3259.8924,N,11650.9835,W,36.45,256.00,261210,,,A*43
$GPRMC,193241.000,A,3259.8801,N,11651.0193,W,37.91,245.30,261210,,,A*4F
$GPRMC,193244.000,A,3259.8682,N,11651.0540,W,36.93,251.80,261210,,,A*48
$GPRMC,193247.000,A,3259.8626,N,11651.0883,W,35.48,262.90,261210,,,A*43
$GPRMC,193250.000,A,3259.8612,N,11651.1230,W,35.96,270.00,261210,,,A*48
$GPRMC,193253.000,A,3259.8632,N,11651.1596,W,35.96,275.80,261210,,,A*4F
$GPRMC,193256.000,A,3259.8682,N,11651.1901,W,32.56,277.20,261210,,,A*40
$GPRMC,193300.000,A,3259.8714,N,11651.2252,W,34.02,272.90,261210,,,A*4B
$GPRMC,193304.000,A,3259.8688,N,11651.2783,W,32.56,264.90,261210,,,A*42
$GPRMC,193307.000,A,3259.8659,N,11651.3084,W,31.59,264.90,261210,,,A*40
$GPRMC,193310.000,A,3259.8691,N,11651.3405,W,32.07,277.40,261210,,,A*48
$GPRMC,193312.000,A,3259.8719,N,11651.3620,W,32.56,279.40,261210,,,A*44
$GPRMC,193316.000,A,3259.8824,N,11651.3913,W,32.09,292.80,261210,,,A*4D
$GPRMC,193319.000,A,3259.8940,N,11651.4277,W,28.67,287.20,261210,,,A*42
$GPRMC,193322.000,A,3259.9005,N,11651.4547,W,28.67,280.70,261210,,,A*45
$GPRMC,193325.000,A,3259.9027,N,11651.4845,W,28.67,278.10,261210,,,A*4C
$GPRMC,193328.000,A,3259.9088,N,11651.5141,W,27.70,279.30,261210,,,A*42
$GPRMC,193331.000,A,3259.9115,N,11651.5412,W,27.22,279.10,261210,,,A*49
$GPRMC,193334.000,A,3259.9147,N,11651.5677,W,29.16,281.30,261210,,,A*46
$GPRMC,193338.000,A,3259.9243,N,11651.6084,W,33.05,288.80,261210,,,A*4F
$GPRMC,193341.000,A,3259.9330,N,11651.6364,W,32.07,289.90,261210,,,A*4A
$GPRMC,193344.000,A,3259.9431,N,11651.6620,W,34.50,291.90,261210,,,A*41
$GPRMC,193348.000,A,3259.9579,N,11651.7117,W,33.05,289.80,261210,,,A*4D
$GPRMC,193351.000,A,3259.9711,N,11651.7383,W,30.62,299.50,261210,,,A*48
$GPRMC,193354.000,A,3259.9918,N,11651.7588,W,31.59,324.00,261210,,,A*4C
$GPRMC,193357.000,A,3300.0128,N,11651.7720,W,26.73,335.70,261210,,,A*49
$GPRMC,193400.000,A,3300.0319,N,11651.7799,W,24.30,338.70,261210,,,A*46
$GPRMC,193404.000,A,3300.0522,N,11651.7860,W,23.81,338.80,261210,,,A*47
$GPRMC,193407.000,A,3300.0711,N,11651.7953,W,24.30,338.30,261210,,,A*41
$GPRMC,193410.000,A,3300.0954,N,11651.8109,W,26.73,336.10,261210,,,A*49
$GPRMC,193414.000,A,3300.1185,N,11651.8187,W,27.72,339.70,261210,,,A*47
$GPRMC,193417.000,A,3300.1466,N,11651.8324,W,28.19,335.20,261210,,,A*4C
$GPRMC,193420.000,A,3300.1671,N,11651.8418,W,27.70,331.30,261210,,,A*41
$GPRMC,193423.000,A,3300.1864,N,11651.8586,W,29.16,322.80,261210,,,A*49
$GPRMC,193426.000,A,3300.2013,N,11651.8769,W,27.22,315.60,261210,,,A*47
$GPRMC,193429.000,A,3300.2192,N,11651.8984,W,29.65,318.60,261210,,,A*4D
$GPRMC,193431.000,A,3300.2332,N,11651.9094,W,28.67,327.90,261210,,,A*45
$GPRMC,193435.000,A,3300.2561,N,11651.9218,W,27.72,340.50,261210,,,A*41
$GPRMC,193438.000,A,3300.2781,N,11651.9289,W,27.70,343.90,261210,,,A*45
$GPRMC,193441.000,A,3300.3012,N,11651.9364,W,30.63,347.40,261210,,,A*48
$GPRMC,193444.000,A,3300.3269,N,11651.9409,W,33.06,357.30,261210,,,A*49
$GPRMC,193448.000,A,3300.3705,N,11651.9373,W,33.53,07.60,261210,,,A*73
$GPRMC,193451.000,A,3300.3973,N,11651.9326,W,32.56,08.40,261210,,,A*7D
$GPRMC,193454.000,A,3300.4229,N,11651.9285,W,32.56,01.00,261210,,,A*7E
$GPRMC,193457.000,A,3300.4485,N,11651.9293,W,32.56,353.10,261210,,,A*4F
$GPRMC,193500.000,A,3300.4758,N,11651.9400,W,34.50,342.30,261210,,,A*41
$GPRMC,193503.000,A,3300.5048,N,11651.9557,W,36.93,336.20,261210,,,A*49
$GPRMC,193506.000,A,3300.5337,N,11651.9704,W,37.42,336.30,261210,,,A*4F
$GPRMC,193510.000,A,3300.5664,N,11651.9840,W,36.93,343.40,261210,,,A*4C
$GPRMC,193513.000,A,3300.6049,N,11651.9912,W,35.96,355.90,261210,,,A*4F
$GPRMC,193516.000,A,3300.6350,N,11651.9898,W,34.99,01.60,261210,,,A*71
$GPRMC,193519.000,A,3300.6660,N,11651.9897,W,35.96,01.20,261210,,,A*7D
$GPRMC,193522.000,A,3300.6951,N,11651.9891,W,34.99,01.80,261210,,,A*7A
$GPRMC,193525.000,A,3300.7238,N,11651.9903,W,34.50,359.80,261210,,,A*49
$GPRMC,193528.000,A,3300.7504,N,11651.9890,W,32.07,00.70,261210,,,A*73
$GPRMC,193531.000,A,3300.7763,N,11651.9898,W,31.59,00.10,261210,,,A*7E
$GPRMC,193534.000,A,3300.8022,N,11651.9897,W,30.13,00.80,261210,,,A*7F
$GPRMC,193537.000,A,3300.8255,N,11651.9879,W,27.70,01.80,261210,,,A*7C
$GPRMC,193541.000,A,3300.8510,N,11651.9910,W,21.38,353.40,261210,,,A*47
$GPRMC,193544.000,A,3300.8639,N,11651.9901,W,16.52,359.30,261210,,,A*4F
$GPRMC,193547.000,A,3300.8766,N,11651.9906,W,15.07,358.40,261210,,,A*45
$GPRMC,193551.000,A,3300.8861,N,11651.9938,W,11.18,333.80,261210,,,A*4C
$GPRMC,193554.000,A,3300.8917,N,11652.0052,W,10.21,277.20,261210,,,A*46
$GPRMC,193558.000,A,3300.8912,N,11652.0300,W,20.41,268.10,261210,,,A*43
$GPRMC,193601.000,A,3300.8907,N,11652.0523,W,24.30,269.80,261210,,,A*45
$GPRMC,193604.000,A,3300.8911,N,11652.0750,W,24.79,269.70,261210,,,A*43
$GPRMC,193607.000,A,3300.8919,N,11652.1034,W,26.73,270.30,261210,,,A*48
$GPRMC,193610.000,A,3300.8916,N,11652.1356,W,31.12,270.70,261210,,,A*43
$GPRMC,193613.000,A,3300.8918,N,11652.1681,W,33.05,266.80,261210,,,A*4D
$GPRMC,193616.000,A,3300.8901,N,11652.1994,W,35.48,266.50,261210,,,A*49
$GPRMC,193619.000,A,3300.8920,N,11652.2398,W,38.39,272.90,261210,,,A*42
$GPRMC,193623.000,A,3300.8933,N,11652.3003,W,46.66,271.10,261210,,,A*41
$GPRMC,193626.000,A,3300.8939,N,11652.3480,W,47.63,270.80,261210,,,A*4D
$GPRMC,193628.000,A,3300.8940,N,11652.3799,W,48.12,270.40,261210,,,A*43
$GPRMC,193632.000,A,3300.8942,N,11652.4440,W,49.08,270.20,261210,,,A*46
$GPRMC,193635.000,A,3300.8936,N,11652.5036,W,49.08,268.80,261210,,,A*45
$GPRMC,193639.000,A,3300.8939,N,11652.5563,W,48.11,270.50,261210,,,A*4E
$GPRMC,193642.000,A,3300.8944,N,11652.6040,W,47.63,270.30,261210,,,A*43
$GPRMC,193645.000,A,3300.8951,N,11652.6467,W,46.17,270.80,261210,,,A*48
$GPRMC,193648.000,A,3300.8958,N,11652.7026,W,41.31,270.60,261210,,,A*41
$GPRMC,193651.000,A,3300.8953,N,11652.7355,W,32.56,271.40,261210,,,A*43
$GPRMC,193654.000,A,3300.8965,N,11652.7576,W,21.87,272.10,261210,,,A*4C
$GPRMC,193657.000,A,3300.8889,N,11652.7743,W,18.47,242.20,261210,,,A*4E
$GPRMC,193700.000,A,3300.8747,N,11652.7808,W,19.44,205.20,261210,,,A*41
$GPRMC,193703.000,A,3300.8459,N,11652.7764,W,28.67,181.90,261210,,,A*4C
$GPRMC,193706.000,A,3300.8133,N,11652.7771,W,37.42,180.20,261210,,,A*47
$GPRMC,193709.000,A,3300.7768,N,11652.7724,W,41.79,177.30,261210,,,A*4F
$GPRMC,193712.000,A,3300.7406,N,11652.7716,W,43.74,179.40,261210,,,A*49
$GPRMC,193715.000,A,3300.7046,N,11652.7736,W,43.74,180.80,261210,,,A*46
$GPRMC,193718.000,A,3300.6680,N,11652.7731,W,43.25,179.90,261210,,,A*42
$GPRMC,193721.000,A,3300.6321,N,11652.7738,W,42.77,180.40,261210,,,A*42
$GPRMC,193724.000,A,3300.6074,N,11652.7761,W,39.85,180.90,261210,,,A*44
$GPRMC,193727.000,A,3300.5668,N,11652.7749,W,37.42,179.60,261210,,,A*49
$GPRMC,193730.000,A,3300.5394,N,11652.7764,W,31.10,181.90,261210,,,A*4F
$GPRMC,193733.000,A,3300.5202,N,11652.7736,W,22.84,179.00,261210,,,A*44
$GPRMC,193736.000,A,3300.5063,N,11652.7778,W,17.50,198.50,261210,,,A*4B
$GPRMC,193739.000,A,3300.5013,N,11652.7870,W,11.18,232.50,261210,,,A*4D
$GPRMC,193743.000,A,3300.5028,N,11652.8232,W,24.30,271.20,261210,,,A*47
$GPRMC,193745.000,A,3300.5035,N,11652.8398,W,26.73,270.10,261210,,,A*4B
$GPRMC,193750.000,A,3300.5044,N,11652.8869,W,34.50,270.10,261210,,,A*4E
$GPRMC,193753.000,A,3300.5046,N,11652.9224,W,35.96,271.00,261210,,,A*46
$GPRMC,193756.000,A,3300.5052,N,11652.9619,W,39.85,270.90,261210,,,A*4A
$GPRMC,193759.000,A,3300.5049,N,11653.0043,W,41.79,270.60,261210,,,A*4D
$GPRMC,193803.000,A,3300.5060,N,11653.0629,W,45.68,270.30,261210,,,A*4D
$GPRMC,193806.000,A,3300.5058,N,11653.1081,W,46.66,270.60,261210,,,A*4E
$GPRMC,193809.000,A,3300.5061,N,11653.1528,W,46.17,270.60,261210,,,A*4B
$GPRMC,193813.000,A,3300.5065,N,11653.2109,W,47.14,270.60,261210,,,A*42
$GPRMC,193817.000,A,3300.5070,N,11653.2783,W,48.60,270.40,261210,,,A*48
$GPRMC,193821.000,A,3300.5069,N,11653.3395,W,50.06,270.10,261210,,,A*4B
$GPRMC,193826.000,A,3300.5073,N,11653.4259,W,49.57,270.60,261210,,,A*4A
$GPRMC,193829.000,A,3300.5077,N,11653.4752,W,49.08,270.60,261210,,,A*45
$GPRMC,193832.000,A,3300.5081,N,11653.5238,W,49.09,270.30,261210,,,A*4A
$GPRMC,193835.000,A,3300.5083,N,11653.5727,W,49.08,270.20,261210,,,A*44
$GPRMC,193838.000,A,3300.5086,N,11653.6212,W,49.08,270.50,261210,,,A*4B
$GPRMC,193841.000,A,3300.5089,N,11653.6701,W,49.08,270.30,261210,,,A*4B
$GPRMC,193845.000,A,3300.5091,N,11653.7345,W,49.08,270.30,261210,,,A*43
$GPRMC,193848.000,A,3300.5095,N,11653.7829,W,48.60,270.60,261210,,,A*41
$GPRMC,193850.000,A,3300.5097,N,11653.8151,W,48.11,270.70,261210,,,A*44
$GPRMC,193854.000,A,3300.5103,N,11653.8750,W,47.63,270.70,261210,,,A*41
$GPRMC,193857.000,A,3300.5105,N,11653.9369,W,48.60,269.90,261210,,,A*41
$GPRMC,193859.000,A,3300.5104,N,11653.9683,W,48.11,270.10,261210,,,A*49
$GPRMC,193904.000,A,3300.5111,N,11654.0525,W,51.03,269.50,261210,,,A*42
$GPRMC,193908.000,A,3300.5117,N,11654.1066,W,49.57,270.00,261210,,,A*4E
$GPRMC,193910.000,A,3300.5112,N,11654.1509,W,48.60,270.40,261210,,,A*4F
$GPRMC,193915.000,A,3300.5122,N,11654.2153,W,43.25,272.10,261210,,,A*4C
$GPRMC,193918.000,A,3300.5166,N,11654.2563,W,41.79,279.60,261210,,,A*41
$GPRMC,193921.000,A,3300.5340,N,11654.2875,W,37.91,300.80,261210,,,A*41
$GPRMC,193924.000,A,3300.5593,N,11654.3124,W,38.39,317.80,261210,,,A*4B
$GPRMC,193926.000,A,3300.5816,N,11654.3292,W,44.71,324.10,261210,,,A*49
$GPRMC,193928.000,A,3300.5991,N,11654.3442,W,44.71,323.80,261210,,,A*4C
$GPRMC,193933.000,A,3300.6609,N,11654.3978,W,47.14,324.00,261210,,,A*40
$GPRMC,193936.000,A,3300.6939,N,11654.4244,W,46.17,324.40,261210,,,A*4C
$GPRMC,193938.000,A,3300.7160,N,11654.4435,W,45.20,323.70,261210,,,A*44
$GPRMC,193942.000,A,3300.7538,N,11654.4756,W,39.85,323.30,261210,,,A*46
$GPRMC,193945.000,A,3300.7743,N,11654.4957,W,28.67,321.10,261210,,,A*4C
$GPRMC,193948.000,A,3300.7870,N,11654.5085,W,14.58,314.80,261210,,,A*45
$GPRMC,193950.000,A,3300.7886,N,11654.5172,W,13.12,274.50,261210,,,A*4F
$GPRMC,193954.000,A,3300.7740,N,11654.5380,W,22.84,225.10,261210,,,A*4C
$GPRMC,193958.000,A,3300.7528,N,11654.5652,W,30.13,226.30,261210,,,A*4A
$GPRMC,194001.000,A,3300.7323,N,11654.5904,W,35.48,226.40,261210,,,A*45
$GPRMC,194004.000,A,3300.7113,N,11654.6199,W,39.36,228.20,261210,,,A*43
$GPRMC,194005.000,A,3300.7022,N,11654.6288,W,40.82,225.10,261210,,,A*4D
$GPRMC,194010.000,A,3300.6596,N,11654.6801,W,44.71,226.70,261210,,,A*44
$GPRMC,194013.000,A,3300.6324,N,11654.7147,W,47.63,226.90,261210,,,A*4C
$GPRMC,194016.000,A,3300.6063,N,11654.7510,W,47.63,228.60,261210,,,A*4E
$GPRMC,194019.000,A,3300.5794,N,11654.7864,W,48.60,230.00,261210,,,A*40
$GPRMC,194022.000,A,3300.5566,N,11654.8253,W,47.63,236.00,261210,,,A*4C
$GPRMC,194023.000,A,3300.5522,N,11654.8408,W,48.11,244.60,261210,,,A*4C
$GPRMC,194028.000,A,3300.5389,N,11654.9165,W,45.20,264.70,261210,,,A*43
$GPRMC,194031.000,A,3300.5448,N,11654.9621,W,45.68,278.80,261210,,,A*48
$GPRMC,194034.000,A,3300.5644,N,11655.0074,W,49.57,292.70,261210,,,A*46
$GPRMC,194036.000,A,3300.5771,N,11655.0383,W,50.54,293.80,261210,,,A*4D
$GPRMC,194041.000,A,3300.5973,N,11655.1178,W,50.06,282.70,261210,,,A*4E
$GPRMC,194044.000,A,3300.6009,N,11655.1649,W,47.63,272.30,261210,,,A*47
$GPRMC,194047.000,A,3300.5982,N,11655.2009,W,47.64,264.90,261210,,,A*46
$GPRMC,194048.000,A,3300.5891,N,11655.2306,W,51.03,253.20,261210,,,A*4F
$GPRMC,194053.000,A,3300.5579,N,11655.3041,W,50.06,242.90,261210,,,A*40
$GPRMC,194056.000,A,3300.5393,N,11655.3489,W,50.06,243.30,261210,,,A*4C
$GPRMC,194059.000,A,3300.5228,N,11655.3942,W,49.08,249.60,261210,,,A*41
$GPRMC,194102.000,A,3300.5164,N,11655.4423,W,48.60,264.20,261210,,,A*4C
$GPRMC,194105.000,A,3300.5189,N,11655.4901,W,47.63,278.00,261210,,,A*46
$GPRMC,194108.000,A,3300.5322,N,11655.5377,W,51.03,287.70,261210,,,A*44
$GPRMC,194111.000,A,3300.5576,N,11655.5775,W,50.06,302.50,261210,,,A*47
$GPRMC,194114.000,A,3300.5814,N,11655.6178,W,50.54,301.40,261210,,,A*46
$GPRMC,194117.000,A,3300.5963,N,11655.6620,W,48.60,293.50,261210,,,A*4B
$GPRMC,194120.000,A,3300.6119,N,11655.7086,W,49.08,290.60,261210,,,A*4D
$GPRMC,194123.000,A,3300.6266,N,11655.7565,W,50.06,290.70,261210,,,A*4A
$GPRMC,194126.000,A,3300.6400,N,11655.8006,W,49.57,289.80,261210,,,A*4D
$GPRMC,194129.000,A,3300.6523,N,11655.8450,W,49.08,286.30,261210,,,A*4B
$GPRMC,194132.000,A,3300.6617,N,11655.8951,W,50.54,279.70,261210,,,A*4C
$GPRMC,194135.000,A,3300.6646,N,11655.9450,W,50.54,273.20,261210,,,A*4D
$GPRMC,194137.000,A,3300.6642,N,11655.9798,W,51.03,270.60,261210,,,A*48
$GPRMC,194141.000,A,3300.6648,N,11656.0303,W,50.54,270.60,261210,,,A*4C
$GPRMC,194144.000,A,3300.6639,N,11656.0984,W,52.49,269.40,261210,,,A*4E
$GPRMC,194147.000,A,3300.6614,N,11656.1480,W,51.51,265.90,261210,,,A*41
$GPRMC,194150.000,A,3300.6588,N,11656.1998,W,51.51,266.20,261210,,,A*4D
$GPRMC,194153.000,A,3300.6533,N,11656.2504,W,51.51,264.10,261210,,,A*45
$GPRMC,194156.000,A,3300.6499,N,11656.3010,W,51.51,266.30,261210,,,A*40
$GPRMC,194159.000,A,3300.6479,N,11656.3521,W,51.51,266.10,261210,,,A*44
$GPRMC,194202.000,A,3300.6460,N,11656.4031,W,51.03,265.90,261210,,,A*4E
$GPRMC,194205.000,A,3300.6426,N,11656.4525,W,49.08,264.80,261210,,,A*49
$GPRMC,194208.000,A,3300.6404,N,11656.4993,W,48.60,268.80,261210,,,A*46
$GPRMC,194211.000,A,3300.6437,N,11656.5478,W,48.60,278.30,261210,,,A*4D
$GPRMC,194214.000,A,3300.6531,N,11656.5947,W,48.60,282.90,261210,,,A*41
$GPRMC,194217.000,A,3300.6624,N,11656.6408,W,48.11,283.00,261210,,,A*4E
$GPRMC,194220.000,A,3300.6714,N,11656.6873,W,48.60,280.10,261210,,,A*4C
$GPRMC,194223.000,A,3300.6754,N,11656.7331,W,48.60,275.90,261210,,,A*45
$GPRMC,194226.000,A,3300.6807,N,11656.7806,W,48.60,276.40,261210,,,A*48
$GPRMC,194229.000,A,3300.6841,N,11656.8283,W,49.08,276.20,261210,,,A*44
$GPRMC,194232.000,A,3300.6911,N,11656.8745,W,48.11,284.30,261210,,,A*40
$GPRMC,194235.000,A,3300.7062,N,11656.9200,W,49.57,290.40,261210,,,A*4F
$GPRMC,194238.000,A,3300.7191,N,11656.9657,W,49.57,289.10,261210,,,A*44
$GPRMC,194241.000,A,3300.7338,N,11657.0122,W,50.54,289.40,261210,,,A*48
$GPRMC,194244.000,A,3300.7475,N,11657.0595,W,50.06,287.10,261210,,,A*47
$GPRMC,194246.000,A,3300.7551,N,11657.0935,W,51.03,283.20,261210,,,A*47
$GPRMC,194250.000,A,3300.7529,N,11657.1538,W,44.22,262.10,261210,,,A*44
$GPRMC,194253.000,A,3300.7424,N,11657.1860,W,44.22,250.20,261210,,,A*49
$GPRMC,194257.000,A,3300.7023,N,11657.2436,W,47.63,221.20,261210,,,A*42
$GPRMC,194300.000,A,3300.6702,N,11657.2679,W,46.17,211.00,261210,,,A*4E
$GPRMC,194303.000,A,3300.6277,N,11657.2787,W,50.54,193.30,261210,,,A*40
$GPRMC,194305.000,A,3300.6005,N,11657.2847,W,50.54,190.80,261210,,,A*4A
$GPRMC,194309.000,A,3300.5447,N,11657.2981,W,51.03,192.80,261210,,,A*4D
$GPRMC,194312.000,A,3300.5000,N,11657.3108,W,53.46,195.60,261210,,,A*42
$GPRMC,194315.000,A,3300.4592,N,11657.3255,W,51.51,197.00,261210,,,A*41
$GPRMC,194318.000,A,3300.4171,N,11657.3425,W,52.49,197.80,261210,,,A*46
$GPRMC,194321.000,A,3300.3765,N,11657.3612,W,52.49,198.30,261210,,,A*4A
$GPRMC,194324.000,A,3300.3349,N,11657.3789,W,52.49,199.90,261210,,,A*4D
$GPRMC,194327.000,A,3300.2948,N,11657.3994,W,51.51,204.70,261210,,,A*45
$GPRMC,194330.000,A,3300.2597,N,11657.4248,W,49.57,209.40,261210,,,A*41
$GPRMC,194333.000,A,3300.2317,N,11657.4398,W,49.08,205.50,261210,,,A*47
$GPRMC,194336.000,A,3300.1971,N,11657.4619,W,48.11,204.90,261210,,,A*43
$GPRMC,194339.000,A,3300.1598,N,11657.4769,W,47.63,196.10,261210,,,A*4B
$GPRMC,194343.000,A,3300.0945,N,11657.4869,W,51.03,187.70,261210,,,A*43
$GPRMC,194346.000,A,3300.0538,N,11657.4967,W,50.54,190.50,261210,,,A*48
$GPRMC,194349.000,A,3300.0103,N,11657.5056,W,52.00,191.60,261210,,,A*40
$GPRMC,194352.000,A,3259.9699,N,11657.5213,W,50.06,197.50,261210,,,A*48
$GPRMC,194356.000,A,3259.9429,N,11657.5564,W,44.22,217.40,261210,,,A*4B
$GPRMC,194359.000,A,3259.9220,N,11657.6126,W,44.71,247.80,261210,,,A*45
$GPRMC,194403.000,A,3259.9132,N,11657.6580,W,46.65,259.90,261210,,,A*4C
$GPRMC,194406.000,A,3259.9026,N,11657.7218,W,50.54,259.40,261210,,,A*42
$GPRMC,194409.000,A,3259.8958,N,11657.7744,W,53.94,260.10,261210,,,A*40
$GPRMC,194411.000,A,3259.8921,N,11657.8094,W,53.94,261.50,261210,,,A*47
$GPRMC,194415.000,A,3259.8834,N,11657.8791,W,52.97,260.30,261210,,,A*41
$GPRMC,194418.000,A,3259.8723,N,11657.9306,W,52.49,253.80,261210,,,A*46
$GPRMC,194420.000,A,3259.8615,N,11657.9636,W,53.46,249.30,261210,,,A*41
$GPRMC,194424.000,A,3259.8392,N,11658.0273,W,52.49,247.10,261210,,,A*4E
$GPRMC,194427.000,A,3259.8206,N,11658.0736,W,52.49,244.50,261210,,,A*42
$GPRMC,194430.000,A,3259.8007,N,11658.1217,W,52.49,245.60,261210,,,A*42
$GPRMC,194433.000,A,3259.7911,N,11658.1701,W,50.06,256.60,261210,,,A*49
$GPRMC,194436.000,A,3259.7835,N,11658.2197,W,51.03,261.30,261210,,,A*44
$GPRMC,194439.000,A,3259.7776,N,11658.2695,W,50.54,261.40,261210,,,A*42
$GPRMC,194442.000,A,3259.7676,N,11658.3205,W,51.51,255.00,261210,,,A*44
$GPRMC,194445.000,A,3259.7554,N,11658.3675,W,51.03,252.40,261210,,,A*47
$GPRMC,194447.000,A,3259.7469,N,11658.3974,W,50.54,251.30,261210,,,A*43
$GPRMC,194451.000,A,3259.7289,N,11658.4618,W,52.00,251.40,261210,,,A*4A
$GPRMC,194454.000,A,3259.7108,N,11658.5076,W,51.03,243.90,261210,,,A*44
$GPRMC,194457.000,A,3259.6872,N,11658.5516,W,51.51,235.30,261210,,,A*4D
$GPRMC,194500.000,A,3259.6604,N,11658.5921,W,52.00,231.90,261210,,,A*40
$GPRMC,194503.000,A,3259.6342,N,11658.6304,W,51.51,232.10,261210,,,A*46
$GPRMC,194506.000,A,3259.6057,N,11658.6708,W,52.97,228.20,261210,,,A*4D
$GPRMC,194509.000,A,3259.5750,N,11658.7044,W,51.04,219.30,261210,,,A*45
$GPRMC,194512.000,A,3259.5362,N,11658.7316,W,52.49,208.50,261210,,,A*42
$GPRMC,194515.000,A,3259.4985,N,11658.7531,W,52.01,204.10,261210,,,A*40
$GPRMC,194518.000,A,3259.4557,N,11658.7606,W,52.49,189.70,261210,,,A*45
$GPRMC,194521.000,A,3259.4111,N,11658.7658,W,53.94,182.80,261210,,,A*47
$GPRMC,194524.000,A,3259.3690,N,11658.7594,W,50.06,170.60,261210,,,A*43
$GPRMC,194527.000,A,3259.3268,N,11658.7409,W,51.03,156.90,261210,,,A*49
$GPRMC,194531.000,A,3259.2845,N,11658.7016,W,48.11,137.00,261210,,,A*45
$GPRMC,194534.000,A,3259.2602,N,11658.6623,W,49.08,126.60,261210,,,A*43
$GPRMC,194537.000,A,3259.2359,N,11658.6225,W,48.11,125.90,261210,,,A*4C
$GPRMC,194540.000,A,3259.2115,N,11658.5837,W,48.11,128.90,261210,,,A*41
$GPRMC,194543.000,A,3259.1827,N,11658.5534,W,48.11,139.40,261210,,,A*4A
$GPRMC,194546.000,A,3259.1465,N,11658.5284,W,50.06,150.60,261210,,,A*4B
$GPRMC,194549.000,A,3259.1064,N,11658.5079,W,51.03,159.30,261210,,,A*49
$GPRMC,194552.000,A,3259.0627,N,11658.4961,W,52.00,168.00,261210,,,A*43
$GPRMC,194554.000,A,3259.0377,N,11658.4912,W,49.57,169.30,261210,,,A*4B
$GPRMC,194558.000,A,3258.9817,N,11658.4812,W,51.51,171.00,261210,,,A*46
$GPRMC,194601.000,A,3258.9404,N,11658.4746,W,50.07,170.30,261210,,,A*49
$GPRMC,194604.000,A,3258.8985,N,11658.4658,W,50.54,169.10,261210,,,A*4B
$GPRMC,194608.000,A,3258.8437,N,11658.4527,W,48.60,169.10,261210,,,A*46
$GPRMC,194611.000,A,3258.8053,N,11658.4432,W,46.65,169.00,261210,,,A*47
$GPRMC,194614.000,A,3258.7716,N,11658.4325,W,41.31,165.00,261210,,,A*40
$GPRMC,194617.000,A,3258.7415,N,11658.4218,W,33.53,162.60,261210,,,A*4C
$GPRMC,194620.000,A,3258.7227,N,11658.4187,W,21.38,177.10,261210,,,A*47
$GPRMC,194623.000,A,3258.7101,N,11658.4290,W,17.50,218.50,261210,,,A*43
$GPRMC,194626.000,A,3258.7044,N,11658.4512,W,24.30,253.50,261210,,,A*42
$GPRMC,194629.000,A,3258.7009,N,11658.4825,W,31.10,260.30,261210,,,A*4D
$GPRMC,194632.000,A,3258.6962,N,11658.5166,W,35.96,261.40,261210,,,A*41
$GPRMC,194635.000,A,3258.6918,N,11658.5536,W,37.91,262.00,261210,,,A*48
$GPRMC,194638.000,A,3258.6873,N,11658.5907,W,38.39,262.40,261210,,,A*4E
$GPRMC,194641.000,A,3258.6812,N,11658.6301,W,39.85,260.40,261210,,,A*4C
$GPRMC,194643.000,A,3258.6764,N,11658.6574,W,41.79,258.80,261210,,,A*4F
$GPRMC,194647.000,A,3258.6675,N,11658.7122,W,42.77,261.00,261210,,,A*43
$GPRMC,194650.000,A,3258.6649,N,11658.7574,W,45.68,266.70,261210,,,A*44
$GPRMC,194653.000,A,3258.6641,N,11658.8012,W,43.74,270.70,261210,,,A*49
$GPRMC,194656.000,A,3258.6674,N,11658.8441,W,44.22,276.50,261210,,,A*48
$GPRMC,194659.000,A,3258.6742,N,11658.8869,W,45.20,280.40,261210,,,A*4E
$GPRMC,194701.000,A,3258.6811,N,11658.9161,W,46.17,283.50,261210,,,A*4E
$GPRMC,194705.000,A,3258.6904,N,11658.9668,W,48.12,284.10,261210,,,A*49
$GPRMC,194708.000,A,3258.6993,N,11659.0145,W,49.09,283.60,261210,,,A*41
$GPRMC,194711.000,A,3258.7051,N,11659.0601,W,45.29,278.20,261210,,,A*46
$GPRMC,194714.000,A,3258.7085,N,11659.1024,W,40.93,275.10,261210,,,A*40
$GPRMC,194718.000,A,3258.7116,N,11659.1663,W,41.31,273.90,261210,,,A*45
$GPRMC,194721.000,A,3258.7139,N,11659.2088,W,41.79,272.50,261210,,,A*43
$GPRMC,194724.000,A,3258.7104,N,11659.2446,W,37.91,260.10,261210,,,A*4E
$GPRMC,194726.000,A,3258.7040,N,11659.2698,W,39.36,251.50,261210,,,A*49
$GPRMC,194730.000,A,3258.6865,N,11659.3048,W,38.89,234.80,261210,,,A*41
$GPRMC,194733.000,A,3258.6598,N,11659.3436,W,37.42,235.00,261210,,,A*41
$GPRMC,194736.000,A,3258.6460,N,11659.3793,W,39.36,251.20,261210,,,A*43
$GPRMC,194739.000,A,3258.6417,N,11659.4206,W,40.34,261.50,261210,,,A*4A
$GPRMC,194742.000,A,3258.6371,N,11659.4632,W,42.77,260.40,261210,,,A*47
$GPRMC,194745.000,A,3258.6264,N,11659.5057,W,43.74,253.80,261210,,,A*4F
$GPRMC,194748.000,A,3258.6155,N,11659.5426,W,40.82,251.50,261210,,,A*44
$GPRMC,194751.000,A,3258.6060,N,11659.5778,W,38.89,257.20,261210,,,A*46
$GPRMC,194754.000,A,3258.6020,N,11659.6125,W,39.85,263.10,261210,,,A*43
$GPRMC,194757.000,A,3258.5984,N,11659.6533,W,40.82,262.40,261210,,,A*4A
$GPRMC,194800.000,A,3258.5964,N,11659.6934,W,40.34,264.60,261210,,,A*4B
$GPRMC,194803.000,A,3258.5901,N,11659.7332,W,39.36,259.70,261210,,,A*45
$GPRMC,194806.000,A,3258.5789,N,11659.7768,W,43.74,253.40,261210,,,A*47
$GPRMC,194809.000,A,3258.5686,N,11659.8154,W,40.82,256.80,261210,,,A*43
$GPRMC,194812.000,A,3258.5622,N,11659.8573,W,42.77,260.10,261210,,,A*42
$GPRMC,194815.000,A,3258.5687,N,11659.8957,W,41.31,276.00,261210,,,A*47
$GPRMC,194818.000,A,3258.5712,N,11659.9322,W,38.88,274.10,261210,,,A*41
$GPRMC,194821.000,A,3258.5717,N,11659.9701,W,38.88,264.60,261210,,,A*4D
$GPRMC,194824.000,A,3258.5601,N,11700.0109,W,42.28,247.50,261210,,,A*41
$GPRMC,194827.000,A,3258.5386,N,11700.0462,W,43.74,234.70,261210,,,A*4E
$GPRMC,194830.000,A,3258.5143,N,11700.0784,W,44.22,230.00,261210,,,A*4F
$GPRMC,194833.000,A,3258.4909,N,11700.1140,W,42.77,232.50,261210,,,A*45
$GPRMC,194836.000,A,3258.4729,N,11700.1451,W,40.82,233.90,261210,,,A*4C
$GPRMC,194840.000,A,3258.4462,N,11700.1896,W,41.31,235.40,261210,,,A*44
$GPRMC,194843.000,A,3258.4271,N,11700.2242,W,40.34,238.10,261210,,,A*4F
$GPRMC,194846.000,A,3258.4164,N,11700.2639,W,41.31,247.20,261210,,,A*4A
$GPRMC,194849.000,A,3258.4035,N,11700.3049,W,43.25,250.30,261210,,,A*40
$GPRMC,194852.000,A,3258.3966,N,11700.3476,W,42.28,254.90,261210,,,A*48
$GPRMC,194855.000,A,3258.3881,N,11700.3756,W,36.45,250.80,261210,,,A*4B
$GPRMC,194858.000,A,3258.3760,N,11700.4093,W,35.48,250.40,261210,,,A*4D
$GPRMC,194901.000,A,3258.3693,N,11700.4395,W,34.50,252.00,261210,,,A*46
$GPRMC,194904.000,A,3258.3589,N,11700.4746,W,37.42,255.90,261210,,,A*4F
$GPRMC,194907.000,A,3258.3557,N,11700.5134,W,37.91,269.30,261210,,,A*46
$GPRMC,194910.000,A,3258.3568,N,11700.5498,W,38.88,267.70,261210,,,A*42
$GPRMC,194913.000,A,3258.3530,N,11700.5902,W,39.38,261.30,261210,,,A*4A
$GPRMC,194916.000,A,3258.3477,N,11700.6282,W,39.36,262.10,261210,,,A*42
$GPRMC,194919.000,A,3258.3452,N,11700.6658,W,39.36,263.00,261210,,,A*49
$GPRMC,194922.000,A,3258.3360,N,11700.7067,W,42.28,254.00,261210,,,A*4B
$GPRMC,194925.000,A,3258.3184,N,11700.7477,W,43.25,241.10,261210,,,A*48
$GPRMC,194927.000,A,3258.3042,N,11700.7700,W,43.74,235.20,261210,,,A*46
$GPRMC,194931.000,A,3258.2758,N,11700.8163,W,41.31,233.60,261210,,,A*41
$GPRMC,194934.000,A,3258.2572,N,11700.8473,W,36.93,234.70,261210,,,A*44
$GPRMC,194937.000,A,3258.2369,N,11700.8772,W,37.42,233.50,261210,,,A*41
$GPRMC,194940.000,A,3258.2217,N,11700.9115,W,37.42,238.60,261210,,,A*47
$GPRMC,194943.000,A,3258.2049,N,11700.9302,W,29.16,232.30,261210,,,A*48
$GPRMC,194946.000,A,3258.1979,N,11700.9448,W,17.01,238.40,261210,,,A*4B
$GPRMC,194949.000,A,3258.1999,N,11700.9566,W,13.12,279.30,261210,,,A*43
$GPRMC,194952.000,A,3258.2107,N,11700.9671,W,17.98,322.50,261210,,,A*4F
$GPRMC,194955.000,A,3258.2293,N,11700.9753,W,25.27,335.40,261210,,,A*45
$GPRMC,194958.000,A,3258.2560,N,11700.9833,W,33.53,342.80,261210,,,A*42
$GPRMC,195001.000,A,3258.2894,N,11700.9925,W,38.88,344.50,261210,,,A*40
$GPRMC,195004.000,A,3258.3240,N,11701.0037,W,39.85,344.80,261210,,,A*44
$GPRMC,195007.000,A,3258.3544,N,11701.0113,W,36.93,341.70,261210,,,A*41
$GPRMC,195010.000,A,3258.3800,N,11701.0289,W,34.02,324.60,261210,,,A*42
$GPRMC,195013.000,A,3258.3990,N,11701.0601,W,37.91,306.80,261210,,,A*4A
$GPRMC,195016.000,A,3258.4144,N,11701.0945,W,40.34,298.40,261210,,,A*43
$GPRMC,195019.000,A,3258.4275,N,11701.1337,W,42.77,296.80,261210,,,A*44
$GPRMC,195022.000,A,3258.4417,N,11701.1717,W,42.28,295.00,261210,,,A*49
$GPRMC,195025.000,A,3258.4551,N,11701.2125,W,44.22,292.80,261210,,,A*4A
$GPRMC,195028.000,A,3258.4695,N,11701.2540,W,45.68,294.10,261210,,,A*4B
$GPRMC,195031.000,A,3258.4868,N,11701.2940,W,43.74,295.00,261210,,,A*48
$GPRMC,195034.000,A,3258.5090,N,11701.3281,W,40.82,306.20,261210,,,A*47
$GPRMC,195037.000,A,3258.5309,N,11701.3537,W,37.91,316.60,261210,,,A*4A
$GPRMC,195040.000,A,3258.5506,N,11701.3741,W,39.85,321.50,261210,,,A*4C
$GPRMC,195042.000,A,3258.5778,N,11701.3848,W,36.93,337.10,261210,,,A*48
$GPRMC,195046.000,A,3258.6072,N,11701.3914,W,35.48,349.70,261210,,,A*40
$GPRMC,195049.000,A,3258.6420,N,11701.3921,W,32.07,354.80,261210,,,A*45
$GPRMC,195052.000,A,3258.6636,N,11701.3956,W,22.84,355.20,261210,,,A*4B
$GPRMC,195055.000,A,3258.6785,N,11701.3964,W,16.04,356.90,261210,,,A*43
$GPRMC,195131.000,A,3258.6772,N,11701.3968,W,2.92,21.60,261210,,,A*42
$GPRMC,195133.000,A,3258.6822,N,11701.3975,W,8.75,345.30,261210,,,A*71
$GPRMC,195137.000,A,3258.6909,N,11701.4103,W,12.64,301.30,261210,,,A*48
$GPRMC,195140.000,A,3258.6958,N,11701.4291,W,17.98,289.40,261210,,,A*44
$GPRMC,195143.000,A,3258.6940,N,11701.4722,W,32.56,272.80,261210,,,A*4E
$GPRMC,195146.000,A,3258.6928,N,11701.5132,W,39.36,273.00,261210,,,A*47
$GPRMC,195149.000,A,3258.6922,N,11701.5592,W,42.77,271.90,261210,,,A*4E
$GPRMC,195152.000,A,3258.6933,N,11701.5951,W,35.96,271.50,261210,,,A*44
$GPRMC,195155.000,A,3258.6938,N,11701.6197,W,25.76,270.10,261210,,,A*43
$GPRMC,195158.000,A,3258.6934,N,11701.6409,W,21.87,269.70,261210,,,A*44
$GPRMC,195201.000,A,3258.6934,N,11701.6508,W,10.69,266.30,261210,,,A*42
$GPRMC,195210.000,A,3258.6917,N,11701.6601,W,4.37,288.20,261210,,,A*76
$GPRMC,195213.000,A,3258.6938,N,11701.6757,W,12.64,284.30,261210,,,A*46
$GPRMC,195216.000,A,3258.6967,N,11701.6976,W,19.93,281.20,261210,,,A*43
$GPRMC,195219.000,A,3258.6969,N,11701.7335,W,30.13,273.70,261210,,,A*45
$GPRMC,195222.000,A,3258.6926,N,11701.7812,W,40.34,269.20,261210,,,A*44
$GPRMC,195225.000,A,3258.6942,N,11701.8278,W,44.22,272.10,261210,,,A*42
$GPRMC,195227.000,A,3258.6969,N,11701.8541,W,43.25,273.10,261210,,,A*45
$GPRMC,195231.000,A,3258.7001,N,11701.9115,W,44.71,271.90,261210,,,A*4C
$GPRMC,195234.000,A,3258.7006,N,11701.9568,W,44.22,271.80,261210,,,A*47
$GPRMC,195237.000,A,3258.7027,N,11701.9954,W,42.28,272.80,261210,,,A*4B
$GPRMC,195240.000,A,3258.7063,N,11702.0368,W,43.25,274.40,261210,,,A*42
$GPRMC,195243.000,A,3258.7080,N,11702.0831,W,44.22,272.20,261210,,,A*4B
$GPRMC,195246.000,A,3258.7048,N,11702.1307,W,44.71,268.60,261210,,,A*4C
$GPRMC,195249.000,A,3258.6983,N,11702.1769,W,46.17,260.80,261210,,,A*44
$GPRMC,195252.000,A,3258.6909,N,11702.2210,W,45.20,254.70,261210,,,A*4B
$GPRMC,195255.000,A,3258.6767,N,11702.2568,W,44.22,244.60,261210,,,A*41
$GPRMC,195258.000,A,3258.6559,N,11702.2909,W,44.22,232.70,261210,,,A*48
$GPRMC,195301.000,A,3258.6288,N,11702.3222,W,44.71,223.40,261210,,,A*48
$GPRMC,195304.000,A,3258.5991,N,11702.3520,W,46.65,215.60,261210,,,A*48
$GPRMC,195307.000,A,3258.5666,N,11702.3757,W,46.17,210.30,261210,,,A*4B
$GPRMC,195310.000,A,3258.5349,N,11702.3995,W,44.71,213.40,261210,,,A*43
$GPRMC,195313.000,A,3258.5032,N,11702.4269,W,44.71,221.50,261210,,,A*40
$GPRMC,195316.000,A,3258.4778,N,11702.4602,W,44.22,230.80,261210,,,A*4F
$GPRMC,195319.000,A,3258.4691,N,11702.5051,W,44.22,253.90,261210,,,A*43
$GPRMC,195322.000,A,3258.4685,N,11702.5481,W,41.79,270.90,261210,,,A*4D
$GPRMC,195325.000,A,3258.4761,N,11702.5899,W,43.25,284.60,261210,,,A*4B
$GPRMC,195328.000,A,3258.4949,N,11702.6294,W,44.22,298.70,261210,,,A*4A
$GPRMC,195331.000,A,3258.5179,N,11702.6616,W,43.25,306.80,261210,,,A*4F
$GPRMC,195334.000,A,3258.5410,N,11702.6952,W,43.74,305.40,261210,,,A*44
$GPRMC,195337.000,A,3258.5618,N,11702.7291,W,42.28,304.60,261210,,,A*43
$GPRMC,195341.000,A,3258.5797,N,11702.7686,W,44.22,300.00,261210,,,A*48
$GPRMC,195344.000,A,3258.6026,N,11702.8185,W,45.20,298.20,261210,,,A*49
$GPRMC,195347.000,A,3258.6230,N,11702.8566,W,45.68,299.50,261210,,,A*4C
$GPRMC,195350.000,A,3258.6430,N,11702.8995,W,47.63,299.30,261210,,,A*43
$GPRMC,195352.000,A,3258.6516,N,11702.9276,W,45.68,297.20,261210,,,A*45
$GPRMC,195355.000,A,3258.6673,N,11702.9673,W,42.28,292.00,261210,,,A*47
$GPRMC,195359.000,A,3258.6738,N,11703.0212,W,41.31,277.90,261210,,,A*47
$GPRMC,195402.000,A,3258.6775,N,11703.0613,W,40.34,274.80,261210,,,A*44
$GPRMC,195405.000,A,3258.6791,N,11703.1006,W,39.36,274.20,261210,,,A*4C
$GPRMC,195408.000,A,3258.6837,N,11703.1439,W,42.77,276.90,261210,,,A*4A
$GPRMC,195411.000,A,3258.6884,N,11703.1816,W,41.31,277.80,261210,,,A*4A
$GPRMC,195414.000,A,3258.6954,N,11703.2216,W,42.28,279.70,261210,,,A*40
$GPRMC,195417.000,A,3258.7009,N,11703.2621,W,40.82,278.20,261210,,,A*45
$GPRMC,195420.000,A,3258.7030,N,11703.2923,W,39.85,278.50,261210,,,A*48
$GPRMC,195423.000,A,3258.7120,N,11703.3383,W,38.88,284.70,261210,,,A*47
$GPRMC,195426.000,A,3258.7243,N,11703.3691,W,36.45,293.90,261210,,,A*45
$GPRMC,195429.000,A,3258.7374,N,11703.4014,W,36.45,296.90,261210,,,A*46
$GPRMC,195432.000,A,3258.7544,N,11703.4292,W,36.45,303.50,261210,,,A*44
$GPRMC,195436.000,A,3258.7818,N,11703.4735,W,40.82,312.10,261210,,,A*42
$GPRMC,195439.000,A,3258.8063,N,11703.5011,W,39.85,318.30,261210,,,A*47
$GPRMC,195443.000,A,3258.8412,N,11703.5360,W,41.31,322.40,261210,,,A*43
$GPRMC,195446.000,A,3258.8651,N,11703.5625,W,37.91,320.80,261210,,,A*42
$GPRMC,195449.000,A,3258.8893,N,11703.5831,W,35.96,322.60,261210,,,A*4F
$GPRMC,195452.000,A,3258.9142,N,11703.6058,W,37.91,322.10,261210,,,A*47
$GPRMC,195455.000,A,3258.9425,N,11703.6304,W,39.85,322.20,261210,,,A*46
$GPRMC,195458.000,A,3258.9679,N,11703.6520,W,35.96,323.30,261210,,,A*4E
$GPRMC,195501.000,A,3258.9844,N,11703.6712,W,24.30,315.10,261210,,,A*4B
$GPRMC,195504.000,A,3258.9942,N,11703.6829,W,13.61,313.90,261210,,,A*40
$GPRMC,195519.000,A,3259.0014,N,11703.6895,W,2.43,298.70,261210,,,A*75
$GPRMC,195522.000,A,3259.0065,N,11703.6966,W,13.12,308.70,261210,,,A*4A
$GPRMC,195525.000,A,3259.0156,N,11703.7129,W,20.90,308.60,261210,,,A*45
$GPRMC,195528.000,A,3259.0288,N,11703.7331,W,27.70,306.80,261210,,,A*4A
$GPRMC,195532.000,A,3259.0503,N,11703.7651,W,33.53,310.40,261210,,,A*49
$GPRMC,195535.000,A,3259.0725,N,11703.7929,W,37.91,315.60,261210,,,A*45
$GPRMC,195538.000,A,3259.0961,N,11703.8145,W,34.50,320.40,261210,,,A*41
$GPRMC,195541.000,A,3259.1148,N,11703.8358,W,33.05,318.30,261210,,,A*48
$GPRMC,195544.000,A,3259.1360,N,11703.8572,W,35.48,319.00,261210,,,A*46
$GPRMC,195547.000,A,3259.1606,N,11703.8816,W,39.36,320.10,261210,,,A*41
$GPRMC,195550.000,A,3259.1845,N,11703.9075,W,39.85,316.90,261210,,,A*47
$GPRMC,195552.000,A,3259.2000,N,11703.9266,W,39.36,315.00,261210,,,A*4D
$GPRMC,195556.000,A,3259.2320,N,11703.9667,W,41.79,311.10,261210,,,A*4C
$GPRMC,195600.000,A,3259.2608,N,11704.0135,W,42.77,306.80,261210,,,A*4F
$GPRMC,195603.000,A,3259.2792,N,11704.0394,W,42.77,308.20,261210,,,A*43
$GPRMC,195606.000,A,3259.3020,N,11704.0710,W,42.77,308.50,261210,,,A*46
$GPRMC,195609.000,A,3259.3242,N,11704.1048,W,43.25,308.30,261210,,,A*44
$GPRMC,195612.000,A,3259.3518,N,11704.1478,W,42.77,308.60,261210,,,A*42
$GPRMC,195615.000,A,3259.3716,N,11704.1846,W,41.79,306.30,261210,,,A*4E
$GPRMC,195619.000,A,3259.3895,N,11704.2174,W,37.91,304.70,261210,,,A*4C
$GPRMC,195622.000,A,3259.4089,N,11704.2542,W,33.53,302.80,261210,,,A*44
$GPRMC,195625.000,A,3259.4219,N,11704.2814,W,32.07,301.50,261210,,,A*48
$GPRMC,195628.000,A,3259.4363,N,11704.3081,W,29.65,304.60,261210,,,A*44
$GPRMC,195631.000,A,3259.4518,N,11704.3266,W,23.81,303.40,261210,,,A*48
$GPRMC,195634.000,A,3259.4511,N,11704.3462,W,18.95,269.80,261210,,,A*4A
$GPRMC,195635.000,A,3259.4453,N,11704.3541,W,22.84,246.80,261210,,,A*48
$GPRMC,195640.000,A,3259.4170,N,11704.4003,W,34.99,235.80,261210,,,A*45
$GPRMC,195643.000,A,3259.4038,N,11704.4225,W,36.46,236.60,261210,,,A*40
$GPRMC,195646.000,A,3259.3855,N,11704.4519,W,36.95,231.70,261210,,,A*41
$GPRMC,195649.000,A,3259.3645,N,11704.4780,W,36.45,224.50,261210,,,A*48
$GPRMC,195651.000,A,3259.3485,N,11704.4927,W,36.45,218.50,261210,,,A*43
$GPRMC,195655.000,A,3259.3061,N,11704.5187,W,37.42,204.50,261210,,,A*41
$GPRMC,195658.000,A,3259.2731,N,11704.5319,W,40.82,196.90,261210,,,A*42
$GPRMC,195701.000,A,3259.2423,N,11704.5416,W,39.36,192.10,261210,,,A*4A
$GPRMC,195704.000,A,3259.2114,N,11704.5397,W,34.02,178.90,261210,,,A*46
$GPRMC,195707.000,A,3259.1923,N,11704.5394,W,28.69,179.90,261210,,,A*48
$GPRMC,195711.000,A,3259.1670,N,11704.5379,W,19.44,177.30,261210,,,A*4C
$GPRMC,195714.000,A,3259.1534,N,11704.5356,W,21.38,173.80,261210,,,A*48
$GPRMC,195717.000,A,3259.1296,N,11704.5354,W,28.69,180.70,261210,,,A*48
$GPRMC,195720.000,A,3259.1060,N,11704.5377,W,28.20,185.40,261210,,,A*4D
$GPRMC,195724.000,A,3259.0765,N,11704.5419,W,26.26,189.10,261210,,,A*44
$GPRMC,195727.000,A,3259.0554,N,11704.5471,W,24.80,193.40,261210,,,A*49
$GPRMC,195730.000,A,3259.0400,N,11704.5521,W,18.47,196.90,261210,,,A*47
$GPRMC,195731.000,A,3259.0316,N,11704.5546,W,15.55,195.60,261210,,,A*45
$GPRMC,195736.000,A,3259.0202,N,11704.5606,W,8.75,202.40,261210,,,A*70
$GPRMC,195739.000,A,3259.0151,N,11704.5647,W,8.75,207.50,261210,,,A*7B
$GPRMC,195742.000,A,3259.0043,N,11704.5699,W,15.55,202.80,261210,,,A*40
$GPRMC,195745.000,A,3258.9882,N,11704.5783,W,21.38,206.40,261210,,,A*44
$GPRMC,195748.000,A,3258.9704,N,11704.5879,W,25.76,206.70,261210,,,A*4F
$GPRMC,195752.000,A,3258.9443,N,11704.6034,W,26.73,206.80,261210,,,A*4F
$GPRMC,195756.000,A,3258.9173,N,11704.6191,W,26.75,206.40,261210,,,A*49
$GPRMC,195759.000,A,3258.8974,N,11704.6310,W,26.73,208.20,261210,,,A*4D
$GPRMC,195802.000,A,3258.8807,N,11704.6429,W,22.84,211.80,261210,,,A*4A
$GPRMC,195805.000,A,3258.8674,N,11704.6535,W,19.93,216.10,261210,,,A*4B
$GPRMC,195808.000,A,3258.8541,N,11704.6676,W,13.61,219.50,261210,,,A*4B
$GPRMC,195811.000,A,3258.8451,N,11704.6725,W,9.23,213.90,261210,,,A*7F
$GPRMC,195814.000,A,3258.8413,N,11704.6760,W,4.86,221.20,261210,,,A*75
$GPRMC,195818.000,A,3258.8386,N,11704.6812,W,7.78,229.30,261210,,,A*73
$GPRMC,195834.000,A,3258.8345,N,11704.6936,W,7.29,304.80,261210,,,A*74
$GPRMC,195837.000,A,3258.8387,N,11704.7047,W,11.18,304.00,261210,,,A*4A
$GPRMC,195840.000,A,3258.8469,N,11704.7104,W,10.69,331.20,261210,,,A*48
$GPRMC,195844.000,A,3258.8552,N,11704.7152,W,5.35,334.00,261210,,,A*7C
$GPRMC,195847.000,A,3258.8571,N,11704.7193,W,7.78,279.90,261210,,,A*79
$GPRMC,195851.000,A,3258.8563,N,11704.7333,W,11.18,272.30,261210,,,A*45
$GPRMC,195854.000,A,3258.8591,N,11704.7453,W,11.66,284.40,261210,,,A*4B
$GPRMC,195857.000,A,3258.8618,N,11704.7577,W,12.19,280.60,261210,,,A*40
$GPRMC,195900.000,A,3258.8628,N,11704.7689,W,10.21,272.50,261210,,,A*45
