NMEA Sentence Code,UTC Time,Status,Latitude,Latitude Direction,Longitude,Longitude Direction,Speed (knots),Track Angle (degrees true),Date,MagneticVariation,Magnetic Variation Direction,[FAA Mode]-Optional,Checksum
$GPRMC,051734.2,A,3307.173647,N,11706.074182,W,48.6,333.4,190710,,,A*47
$GPRMC,051737.2,A,3307.211137,N,11706.095692,W,50.6,334.0,190710,,,A*40
$GPRMC,051740.2,A,3307.248163,N,11706.118881,W,50.2,333.1,190710,,,A*47
$GPRMC,051743.2,A,3307.285264,N,11706.140394,W,49.8,333.8,190710,,,A*48
$GPRMC,051746.2,A,3307.321825,N,11706.162137,W,50.5,333.7,190710,,,A*4C
$GPRMC,051749.2,A,3307.360763,N,11706.183731,W,51.5,336.1,190710,,,A*46
$GPRMC,051752.2,A,3307.400465,N,11706.204047,W,52.5,337.8,190710,,,A*49
$GPRMC,051755.2,A,3307.441365,N,11706.222378,W,52.4,340.2,190710,,,A*4C
$GPRMC,051758.2,A,3307.481951,N,11706.239230,W,51.9,341.1,190710,,,A*4B
$GPRMC,051801.2,A,3307.524324,N,11706.254556,W,51.7,343.3,190710,,,A*4C
$GPRMC,051804.2,A,3307.565361,N,11706.266944,W,51.1,346.2,190710,,,A*41
$GPRMC,051807.2,A,3307.608337,N,11706.276547,W,52.5,348.2,190710,,,A*4E
$GPRMC,051810.2,A,3307.652942,N,11706.286030,W,54.4,350.2,190710,,,A*4B
$GPRMC,051813.0,A,3307.694614,N,11706.293914,W,58.1,351.0,190710,,,A*4D
$GPRMC,051816.2,A,3307.744769,N,11706.302486,W,56.4,352.9,190710,,,A*43
$GPRMC,051819.2,A,3307.795472,N,11706.306930,W,58.9,356.5,190710,,,A*46
$GPRMC,051822.2,A,3307.845763,N,11706.308142,W,58.6,359.3,190710,,,A*4A
$GPRMC,051825.2,A,3307.894688,N,11706.308214,W,59.3,0.3,190710,,,A*4E
$GPRMC,051829.2,A,3307.960365,N,11706.305610,W,59.3,3.1,190710,,,A*42
$GPRMC,051832.2,A,3308.008732,N,11706.302096,W,58.7,2.5,190710,,,A*49
$GPRMC,051835.2,A,3308.058785,N,11706.299945,W,60.3,2.4,190710,,,A*4D
$GPRMC,051838.2,A,3308.108619,N,11706.296377,W,60.1,2.4,190710,,,A*46
$GPRMC,051842.2,A,3308.173803,N,11706.292183,W,60.6,3.9,190710,,,A*44
$GPRMC,051845.2,A,3308.222708,N,11706.289089,W,59.7,2.7,190710,,,A*45
$GPRMC,051848.2,A,3308.273361,N,11706.286627,W,60.4,2.7,190710,,,A*43
$GPRMC,051851.2,A,3308.322769,N,11706.283137,W,59.7,2.5,190710,,,A*4A
$GPRMC,051854.9,A,3308.382720,N,11706.279341,W,59.4,2.1,190710,,,A*42
$GPRMC,051857.2,A,3308.421319,N,11706.276813,W,59.8,2.0,190710,,,A*44
$GPRMC,051900.2,A,3308.470607,N,11706.273387,W,59.5,2.4,190710,,,A*43
$GPRMC,051903.2,A,3308.519704,N,11706.272203,W,59.5,3.0,190710,,,A*45
$GPRMC,051906.2,A,3308.569408,N,11706.270039,W,59.3,2.5,190710,,,A*43
$GPRMC,051909.2,A,3308.618518,N,11706.267969,W,59.0,2.3,190710,,,A*46
$GPRMC,051912.2,A,3308.668656,N,11706.266080,W,59.7,2.0,190710,,,A*49
$GPRMC,051915.2,A,3308.719128,N,11706.264709,W,59.4,2.5,190710,,,A*45
$GPRMC,051918.2,A,3308.768007,N,11706.262404,W,59.0,2.2,190710,,,A*49
$GPRMC,051921.2,A,3308.816714,N,11706.259857,W,58.9,2.5,190710,,,A*4D
$GPRMC,051924.2,A,3308.866655,N,11706.258111,W,58.7,2.6,190710,,,A*4C
$GPRMC,051927.2,A,3308.915011,N,11706.254468,W,58.7,2.7,190710,,,A*4A
$GPRMC,051930.2,A,3308.963905,N,11706.251799,W,58.6,2.9,190710,,,A*46
$GPRMC,051933.2,A,3309.013164,N,11706.249361,W,58.7,2.5,190710,,,A*42
$GPRMC,051936.2,A,3309.063184,N,11706.247409,W,59.2,2.6,190710,,,A*4E
$GPRMC,051939.2,A,3309.112614,N,11706.243553,W,59.0,2.9,190710,,,A*4F
$GPRMC,051942.2,A,3309.161240,N,11706.240340,W,58.5,2.9,190710,,,A*41
$GPRMC,051945.2,A,3309.208677,N,11706.236453,W,58.1,3.3,190710,,,A*41
$GPRMC,051948.2,A,3309.257513,N,11706.234732,W,57.7,1.8,190710,,,A*41
$GPRMC,051951.2,A,3309.306023,N,11706.233501,W,57.4,0.6,190710,,,A*43
$GPRMC,051954.9,A,3309.367517,N,11706.236838,W,58.1,358.2,190710,,,A*4A
$GPRMC,051957.2,A,3309.404280,N,11706.237502,W,58.0,357.7,190710,,,A*47
$GPRMC,052000.2,A,3309.451453,N,11706.243224,W,57.8,354.1,190710,,,A*45
$GPRMC,052003.2,A,3309.500699,N,11706.251721,W,56.3,351.6,190710,,,A*4C
$GPRMC,052006.2,A,3309.548462,N,11706.262739,W,57.9,349.2,190710,,,A*4C
$GPRMC,052009.2,A,3309.597517,N,11706.275731,W,58.4,347.1,190710,,,A*43
$GPRMC,052012.2,A,3309.644515,N,11706.290153,W,58.7,344.1,190710,,,A*4F
$GPRMC,052016.2,A,3309.705171,N,11706.314406,W,58.5,341.1,190710,,,A*46
$GPRMC,052019.2,A,3309.752282,N,11706.334831,W,58.7,339.6,190710,,,A*44
$GPRMC,052022.2,A,3309.799486,N,11706.355993,W,59.3,337.0,190710,,,A*4A
$GPRMC,052025.2,A,3309.843529,N,11706.382237,W,58.7,334.7,190710,,,A*4F
$GPRMC,052028.0,A,3309.881044,N,11706.404727,W,57.0,333.9,190710,,,A*4C
$GPRMC,052031.2,A,3309.928090,N,11706.433817,W,58.7,334.2,190710,,,A*41
$GPRMC,052034.2,A,3309.971132,N,11706.461065,W,58.5,333.5,190710,,,A*49
$GPRMC,052037.2,A,3310.016918,N,11706.489355,W,59.6,333.5,190710,,,A*4E
$GPRMC,052040.2,A,3310.062599,N,11706.515662,W,60.4,334.3,190710,,,A*44
$GPRMC,052043.2,A,3310.106301,N,11706.541127,W,59.1,333.9,190710,,,A*46
$GPRMC,052046.2,A,3310.151212,N,11706.567175,W,60.6,334.1,190710,,,A*43
$GPRMC,052049.2,A,3310.196535,N,11706.593685,W,60.9,334.2,190710,,,A*4A
$GPRMC,052052.2,A,3310.241437,N,11706.619708,W,60.5,333.7,190710,,,A*41
$GPRMC,052055.2,A,3310.288174,N,11706.647597,W,61.4,333.9,190710,,,A*40
$GPRMC,052058.2,A,3310.333762,N,11706.673055,W,60.2,333.9,190710,,,A*46
$GPRMC,052101.2,A,3310.377386,N,11706.696343,W,59.0,334.6,190710,,,A*4A
$GPRMC,052104.2,A,3310.423334,N,11706.722878,W,60.2,334.4,190710,,,A*47
$GPRMC,052107.2,A,3310.469157,N,11706.748019,W,60.0,334.4,190710,,,A*4C
$GPRMC,052110.2,A,3310.515779,N,11706.773669,W,61.8,334.5,190710,,,A*4B
$GPRMC,052113.2,A,3310.561588,N,11706.799435,W,60.0,334.9,190710,,,A*4D
$GPRMC,052116.2,A,3310.607177,N,11706.825751,W,59.6,334.2,190710,,,A*41
$GPRMC,052119.2,A,3310.652579,N,11706.853292,W,60.3,333.8,190710,,,A*4D
$GPRMC,052122.2,A,3310.696354,N,11706.879640,W,57.6,333.8,190710,,,A*46
$GPRMC,052125.2,A,3310.740649,N,11706.904178,W,58.4,334.7,190710,,,A*40
$GPRMC,052128.2,A,3310.785159,N,11706.929034,W,58.9,334.0,190710,,,A*4E
$GPRMC,052131.2,A,3310.829006,N,11706.955094,W,58.2,334.1,190710,,,A*4F
$GPRMC,052134.2,A,3310.872636,N,11706.980360,W,57.6,334.1,190710,,,A*4A
$GPRMC,052137.2,A,3310.916086,N,11707.005230,W,58.2,334.4,190710,,,A*48
$GPRMC,052140.2,A,3310.957844,N,11707.029679,W,57.2,334.0,190710,,,A*47
$GPRMC,052143.2,A,3311.001000,N,11707.053764,W,58.5,334.0,190710,,,A*4F
$GPRMC,052146.2,A,3311.046408,N,11707.079682,W,60.0,334.1,190710,,,A*4B
$GPRMC,052149.2,A,3311.092456,N,11707.105761,W,60.3,334.3,190710,,,A*41
$GPRMC,052152.2,A,3311.139108,N,11707.131715,W,59.7,334.6,190710,,,A*4A
$GPRMC,052155.2,A,3311.183665,N,11707.157712,W,59.7,333.8,190710,,,A*4E
$GPRMC,052158.2,A,3311.228507,N,11707.183524,W,61.0,334.1,190710,,,A*4A
$GPRMC,052201.2,A,3311.274068,N,11707.210520,W,60.9,333.9,190710,,,A*4A
$GPRMC,052204.2,A,3311.320859,N,11707.237482,W,61.1,334.6,190710,,,A*48
$GPRMC,052207.2,A,3311.367674,N,11707.263886,W,60.2,334.4,190710,,,A*40
$GPRMC,052210.2,A,3311.413817,N,11707.290565,W,61.7,334.1,190710,,,A*44
$GPRMC,052213.2,A,3311.459540,N,11707.317000,W,60.9,333.7,190710,,,A*40
$GPRMC,052216.2,A,3311.507021,N,11707.344305,W,61.2,334.1,190710,,,A*46
$GPRMC,052219.2,A,3311.552951,N,11707.369750,W,60.9,335.1,190710,,,A*47
$GPRMC,052222.0,A,3311.592111,N,11707.391949,W,60.5,334.2,190710,,,A*42
$GPRMC,052225.2,A,3311.642490,N,11707.421070,W,60.9,333.9,190710,,,A*4A
$GPRMC,052229.2,A,3311.703602,N,11707.457810,W,60.7,333.9,190710,,,A*4A
$GPRMC,052232.2,A,3311.747970,N,11707.485420,W,60.4,334.1,190710,,,A*46
$GPRMC,052235.0,A,3311.792037,N,11707.508424,W,60.5,334.1,190710,,,A*40
$GPRMC,052238.2,A,3311.838103,N,11707.536787,W,59.2,333.9,190710,,,A*43
$GPRMC,052241.2,A,3311.883437,N,11707.562648,W,60.0,334.2,190710,,,A*48
$GPRMC,052244.2,A,3311.928550,N,11707.588162,W,60.0,334.2,190710,,,A*46
$GPRMC,052247.2,A,3311.973667,N,11707.614253,W,59.6,334.2,190710,,,A*47
$GPRMC,052250.2,A,3312.019115,N,11707.641371,W,60.6,332.8,190710,,,A*42
$GPRMC,052253.2,A,3312.064779,N,11707.668530,W,60.6,333.0,190710,,,A*46
$GPRMC,052256.2,A,3312.109629,N,11707.696244,W,61.2,332.3,190710,,,A*4F
$GPRMC,052259.2,A,3312.152294,N,11707.723749,W,60.2,331.1,190710,,,A*4B
$GPRMC,052302.2,A,3312.195883,N,11707.750999,W,60.5,331.0,190710,,,A*42
$GPRMC,052305.9,A,3312.248868,N,11707.787749,W,60.2,330.9,190710,,,A*4E
$GPRMC,052308.2,A,3312.282212,N,11707.808997,W,59.7,330.2,190710,,,A*48
$GPRMC,052311.2,A,3312.326410,N,11707.838532,W,60.3,329.5,190710,,,A*4A
$GPRMC,052314.2,A,3312.370288,N,11707.869074,W,60.1,329.0,190710,,,A*4F
$GPRMC,052317.2,A,3312.413013,N,11707.899955,W,60.2,328.1,190710,,,A*48
$GPRMC,052320.2,A,3312.456407,N,11707.932071,W,60.8,327.5,190710,,,A*42
$GPRMC,052323.2,A,3312.499512,N,11707.963485,W,60.3,328.4,190710,,,A*49
$GPRMC,052326.2,A,3312.541765,N,11707.995303,W,60.0,327.9,190710,,,A*4B
$GPRMC,052329.9,A,3312.594722,N,11708.033743,W,59.6,328.0,190710,,,A*44
$GPRMC,052332.2,A,3312.626518,N,11708.056194,W,59.6,329.3,190710,,,A*49
$GPRMC,052335.0,A,3312.664705,N,11708.086056,W,59.5,327.3,190710,,,A*4B
$GPRMC,052338.2,A,3312.710049,N,11708.120255,W,60.0,327.9,190710,,,A*40
$GPRMC,052342.2,A,3312.767244,N,11708.163800,W,60.2,327.9,190710,,,A*4D
$GPRMC,052345.0,A,3312.806255,N,11708.193909,W,60.0,328.2,190710,,,A*41
$GPRMC,052348.2,A,3312.852421,N,11708.226837,W,59.9,328.3,190710,,,A*49
$GPRMC,052351.2,A,3312.894477,N,11708.257623,W,59.6,328.0,190710,,,A*49
$GPRMC,052354.2,A,3312.937515,N,11708.288998,W,59.6,328.4,190710,,,A*48
$GPRMC,052357.2,A,3312.979071,N,11708.321682,W,60.0,327.8,190710,,,A*4F
$GPRMC,052401.2,A,3313.035943,N,11708.362477,W,60.1,328.4,190710,,,A*4E
$GPRMC,052404.2,A,3313.079599,N,11708.392096,W,59.7,329.8,190710,,,A*4D
$GPRMC,052407.2,A,3313.123449,N,11708.422761,W,60.6,329.5,190710,,,A*49
$GPRMC,052410.0,A,3313.165249,N,11708.448974,W,60.6,332.6,190710,,,A*46
$GPRMC,052413.2,A,3313.216346,N,11708.478770,W,62.4,334.0,190710,,,A*47
$GPRMC,052416.0,A,3313.256962,N,11708.502604,W,59.1,334.1,190710,,,A*4A
$GPRMC,052419.2,A,3313.306167,N,11708.529723,W,60.5,335.1,190710,,,A*4C
$GPRMC,052422.2,A,3313.352161,N,11708.554187,W,59.5,337.0,190710,,,A*48
$GPRMC,052425.9,A,3313.407737,N,11708.582679,W,59.7,337.1,190710,,,A*48
$GPRMC,052428.9,A,3313.454561,N,11708.602907,W,60.3,338.8,190710,,,A*47
$GPRMC,052431.9,A,3313.499986,N,11708.622386,W,59.3,339.9,190710,,,A*40
$GPRMC,052434.2,A,3313.535648,N,11708.638928,W,59.4,339.6,190710,,,A*49
$GPRMC,052437.0,A,3313.577647,N,11708.658121,W,59.5,339.9,190710,,,A*48
$GPRMC,052440.2,A,3313.627124,N,11708.681092,W,58.5,339.8,190710,,,A*43
$GPRMC,052443.0,A,3313.668469,N,11708.699046,W,58.4,339.5,190710,,,A*49
$GPRMC,052446.2,A,3313.719653,N,11708.720004,W,59.9,340.1,190710,,,A*41
$GPRMC,052450.2,A,3313.782494,N,11708.746507,W,59.1,341.1,190710,,,A*42
$GPRMC,052453.9,A,3313.838015,N,11708.770696,W,58.4,340.5,190710,,,A*46
$GPRMC,052456.9,A,3313.885805,N,11708.790883,W,58.7,339.9,190710,,,A*49
$GPRMC,052459.9,A,3313.930963,N,11708.809431,W,58.7,340.2,190710,,,A*47
$GPRMC,052502.0,A,3313.964048,N,11708.822065,W,59.7,339.6,190710,,,A*47
$GPRMC,052505.9,A,3314.025290,N,11708.852483,W,59.3,339.1,190710,,,A*4D
$GPRMC,052508.9,A,3314.072845,N,11708.871596,W,58.9,340.0,190710,,,A*40
$GPRMC,052511.9,A,3314.118901,N,11708.890712,W,59.3,340.0,190710,,,A*4E
$GPRMC,052514.9,A,3314.164847,N,11708.910302,W,59.0,340.2,190710,,,A*4E
$GPRMC,052517.9,A,3314.209862,N,11708.928356,W,58.9,340.4,190710,,,A*46
$GPRMC,052520.9,A,3314.254769,N,11708.948208,W,58.7,339.8,190710,,,A*4E
$GPRMC,052523.9,A,3314.304718,N,11708.969681,W,59.7,339.5,190710,,,A*45
$GPRMC,052527.2,A,3314.355732,N,11708.991546,W,59.2,339.8,190710,,,A*41
$GPRMC,052531.2,A,3314.417377,N,11709.017964,W,58.7,340.2,190710,,,A*48
$GPRMC,052534.9,A,3314.476867,N,11709.045720,W,59.6,339.5,190710,,,A*4B
$GPRMC,052537.9,A,3314.522245,N,11709.065161,W,58.8,340.0,190710,,,A*47
$GPRMC,052540.9,A,3314.568321,N,11709.083047,W,58.8,340.4,190710,,,A*43
$GPRMC,052543.9,A,3314.612516,N,11709.098028,W,58.0,340.4,190710,,,A*47
$GPRMC,052546.9,A,3314.657887,N,11709.122391,W,60.3,338.1,190710,,,A*45
$GPRMC,052549.9,A,3314.702914,N,11709.140787,W,59.0,340.1,190710,,,A*41
$GPRMC,052552.9,A,3314.752743,N,11709.161670,W,60.7,338.7,190710,,,A*4C
$GPRMC,052555.9,A,3314.800574,N,11709.179895,W,60.6,341.3,190710,,,A*42
$GPRMC,052558.9,A,3314.848550,N,11709.199448,W,60.6,339.9,190710,,,A*42
$GPRMC,052601.9,A,3314.897965,N,11709.225017,W,61.4,338.9,190710,,,A*4D
$GPRMC,052604.9,A,3314.943964,N,11709.245303,W,59.5,339.1,190710,,,A*42
$GPRMC,052607.9,A,3314.988617,N,11709.261264,W,58.8,341.6,190710,,,A*4F
$GPRMC,052610.9,A,3315.033507,N,11709.280558,W,59.6,340.7,190710,,,A*4B
$GPRMC,052613.9,A,3315.081543,N,11709.301966,W,60.2,340.0,190710,,,A*41
$GPRMC,052616.9,A,3315.129016,N,11709.322687,W,60.4,340.5,190710,,,A*40
$GPRMC,052620.2,A,3315.182567,N,11709.346478,W,61.4,340.4,190710,,,A*4C
$GPRMC,052623.9,A,3315.239253,N,11709.369977,W,59.4,339.5,190710,,,A*4C
$GPRMC,052626.9,A,3315.287769,N,11709.391844,W,60.7,340.7,190710,,,A*43
$GPRMC,052629.9,A,3315.333760,N,11709.413273,W,60.6,340.2,190710,,,A*4C
$GPRMC,052632.9,A,3315.384536,N,11709.435790,W,61.6,339.8,190710,,,A*42
$GPRMC,052635.2,A,3315.417667,N,11709.447112,W,58.9,342.7,190710,,,A*4B
$GPRMC,052638.2,A,3315.461913,N,11709.459724,W,58.6,345.2,190710,,,A*4A
$GPRMC,052641.2,A,3315.509983,N,11709.473252,W,58.9,347.5,190710,,,A*44
$GPRMC,052644.2,A,3315.559305,N,11709.482530,W,60.0,350.9,190710,,,A*45
$GPRMC,052647.2,A,3315.609571,N,11709.493246,W,60.7,350.9,190710,,,A*44
$GPRMC,052650.2,A,3315.662003,N,11709.501611,W,61.2,353.3,190710,,,A*4E
$GPRMC,052653.2,A,3315.712921,N,11709.505255,W,61.6,355.7,190710,,,A*44
$GPRMC,052656.2,A,3315.763078,N,11709.513246,W,61.3,354.1,190710,,,A*45
$GPRMC,052659.2,A,3315.811786,N,11709.511352,W,60.1,0.3,190710,,,A*43
$GPRMC,052702.9,A,3315.876694,N,11709.512080,W,62.8,0.7,190710,,,A*44
$GPRMC,052705.9,A,3315.924480,N,11709.504775,W,60.7,3.9,190710,,,A*48
$GPRMC,052709.2,A,3315.978565,N,11709.500397,W,60.2,3.4,190710,,,A*48
$GPRMC,052712.2,A,3316.027525,N,11709.491522,W,59.8,8.5,190710,,,A*4D
$GPRMC,052715.2,A,3316.075710,N,11709.479316,W,58.4,11.6,190710,,,A*78
$GPRMC,052718.2,A,3316.121902,N,11709.465573,W,57.1,13.4,190710,,,A*7A
$GPRMC,052721.2,A,3316.166695,N,11709.448543,W,57.2,16.5,190710,,,A*79
$GPRMC,052724.0,A,3316.209156,N,11709.431584,W,56.9,17.9,190710,,,A*7E
$GPRMC,052727.2,A,3316.257046,N,11709.411465,W,56.2,19.4,190710,,,A*70
$GPRMC,052730.0,A,3316.296210,N,11709.392456,W,56.2,22.2,190710,,,A*7A
$GPRMC,052733.9,A,3316.353547,N,11709.360173,W,57.5,25.2,190710,,,A*73
$GPRMC,052736.2,A,3316.387830,N,11709.340714,W,58.5,25.7,190710,,,A*76
$GPRMC,052739.9,A,3316.441689,N,11709.307824,W,59.2,26.6,190710,,,A*78
$GPRMC,052742.2,A,3316.475346,N,11709.287796,W,58.8,25.9,190710,,,A*76
$GPRMC,052746.2,A,3316.535455,N,11709.255106,W,59.6,25.5,190710,,,A*71
$GPRMC,052749.2,A,3316.580747,N,11709.228816,W,59.5,26.0,190710,,,A*77
$GPRMC,052753.2,A,3316.637577,N,11709.192885,W,58.6,26.9,190710,,,A*71
$GPRMC,052756.2,A,3316.682844,N,11709.168057,W,59.2,26.1,190710,,,A*78
$GPRMC,052759.2,A,3316.727469,N,11709.143718,W,58.9,25.7,190710,,,A*70
$GPRMC,052802.2,A,3316.771680,N,11709.118429,W,59.6,25.8,190710,,,A*79
$GPRMC,052805.2,A,3316.817143,N,11709.092946,W,59.5,26.2,190710,,,A*74
$GPRMC,052808.2,A,3316.862256,N,11709.069615,W,60.1,23.3,190710,,,A*7B
$GPRMC,052811.2,A,3316.909054,N,11709.046434,W,60.2,22.2,190710,,,A*70
$GPRMC,052814.2,A,3316.956432,N,11709.025023,W,60.2,20.2,190710,,,A*7E
$GPRMC,052818.2,A,3317.020682,N,11709.000882,W,60.2,16.0,190710,,,A*71
$GPRMC,052822.2,A,3317.086549,N,11708.980758,W,59.2,13.7,190710,,,A*70
$GPRMC,052825.2,A,3317.133416,N,11708.969367,W,58.3,11.2,190710,,,A*7B
$GPRMC,052828.2,A,3317.180865,N,11708.960005,W,58.7,9.0,190710,,,A*47
$GPRMC,052831.2,A,3317.229463,N,11708.953954,W,58.8,5.7,190710,,,A*4C
$GPRMC,052834.2,A,3317.278330,N,11708.949254,W,58.4,3.4,190710,,,A*45
$GPRMC,052837.2,A,3317.327274,N,11708.947844,W,59.0,1.5,190710,,,A*4F
$GPRMC,052841.2,A,3317.393654,N,11708.949068,W,59.1,358.7,190710,,,A*43
$GPRMC,052844.2,A,3317.444631,N,11708.952117,W,59.9,357.2,190710,,,A*49
$GPRMC,052847.2,A,3317.494989,N,11708.955906,W,59.8,357.4,190710,,,A*43
$GPRMC,052850.2,A,3317.545562,N,11708.958597,W,59.7,357.4,190710,,,A*47
$GPRMC,052853.2,A,3317.596268,N,11708.961098,W,60.2,357.5,190710,,,A*49
$GPRMC,052856.2,A,3317.646582,N,11708.963275,W,60.0,358.2,190710,,,A*48
$GPRMC,052859.2,A,3317.696405,N,11708.965832,W,59.8,357.7,190710,,,A*43
$GPRMC,052902.2,A,3317.747869,N,11708.968901,W,60.3,356.8,190710,,,A*44
$GPRMC,052905.0,A,3317.794429,N,11708.972900,W,60.7,357.1,190710,,,A*41
$GPRMC,052908.2,A,3317.848757,N,11708.977993,W,60.7,356.3,190710,,,A*46
$GPRMC,052912.2,A,3317.912726,N,11708.980562,W,59.4,358.0,190710,,,A*4B
$GPRMC,052915.0,A,3317.959593,N,11708.984887,W,60.8,357.3,190710,,,A*45
$GPRMC,052918.2,A,3318.014580,N,11708.989074,W,60.9,357.6,190710,,,A*4A
$GPRMC,052921.2,A,3318.065324,N,11708.991258,W,61.0,357.4,190710,,,A*41
$GPRMC,052925.2,A,3318.132603,N,11708.993448,W,60.4,357.5,190710,,,A*47
$GPRMC,052928.9,A,3318.194683,N,11708.998416,W,60.7,356.7,190710,,,A*45
$GPRMC,052931.2,A,3318.234282,N,11709.001240,W,60.7,357.4,190710,,,A*45
$GPRMC,052934.2,A,3318.284715,N,11709.002639,W,60.8,357.8,190710,,,A*4A
$GPRMC,052937.9,A,3318.350152,N,11709.005690,W,61.7,357.4,190710,,,A*49
$GPRMC,052940.2,A,3318.387973,N,11709.008609,W,60.6,356.6,190710,,,A*4D
$GPRMC,052943.2,A,3318.438592,N,11709.014759,W,60.4,355.0,190710,,,A*40
$GPRMC,052946.2,A,3318.487544,N,11709.023805,W,60.3,353.1,190710,,,A*48
$GPRMC,052949.2,A,3318.536652,N,11709.031746,W,59.9,351.2,190710,,,A*42
$GPRMC,052952.2,A,3318.586689,N,11709.043842,W,59.9,348.7,190710,,,A*46
$GPRMC,052955.2,A,3318.635808,N,11709.058506,W,58.3,346.5,190710,,,A*4D
$GPRMC,052958.2,A,3318.682606,N,11709.073792,W,57.6,344.2,190710,,,A*45
$GPRMC,053001.2,A,3318.728493,N,11709.092545,W,58.7,341.7,190710,,,A*47
$GPRMC,053004.2,A,3318.775604,N,11709.111995,W,60.6,340.0,190710,,,A*41
$GPRMC,053007.2,A,3318.824081,N,11709.133732,W,60.4,337.9,190710,,,A*4A
$GPRMC,053010.2,A,3318.870182,N,11709.158962,W,60.3,335.2,190710,,,A*47
$GPRMC,053013.2,A,3318.913923,N,11709.184719,W,60.9,332.7,190710,,,A*48
$GPRMC,053016.2,A,3318.958981,N,11709.212081,W,62.1,332.3,190710,,,A*4E
$GPRMC,053019.2,A,3319.005403,N,11709.240114,W,63.5,332.1,190710,,,A*4B
$GPRMC,053022.2,A,3319.052678,N,11709.269701,W,64.8,331.9,190710,,,A*47
$GPRMC,053025.9,A,3319.112430,N,11709.307460,W,65.8,331.9,190710,,,A*4C
$GPRMC,053028.9,A,3319.160786,N,11709.339775,W,67.2,331.1,190710,,,A*40
$GPRMC,053031.9,A,3319.215034,N,11709.373337,W,70.3,331.8,190710,,,A*45
$GPRMC,053034.2,A,3319.254566,N,11709.397696,W,70.0,333.0,190710,,,A*41
$GPRMC,053037.2,A,3319.306869,N,11709.427819,W,71.5,336.6,190710,,,A*44
$GPRMC,053040.2,A,3319.362945,N,11709.454410,W,71.9,338.4,190710,,,A*48
$GPRMC,053043.2,A,3319.419428,N,11709.478634,W,72.2,340.8,190710,,,A*47
$GPRMC,053047.2,A,3319.493048,N,11709.505294,W,69.8,344.0,190710,,,A*4A
$GPRMC,053050.2,A,3319.551205,N,11709.520367,W,70.7,348.3,190710,,,A*4A
$GPRMC,053053.2,A,3319.608059,N,11709.532163,W,70.3,350.8,190710,,,A*4E
$GPRMC,053057.2,A,3319.685412,N,11709.545130,W,71.0,353.6,190710,,,A*4D
$GPRMC,053100.2,A,3319.743054,N,11709.549118,W,70.1,356.9,190710,,,A*4F
$GPRMC,053103.2,A,3319.800961,N,11709.551719,W,68.7,359.0,190710,,,A*4C
$GPRMC,053106.2,A,3319.856118,N,11709.550227,W,67.3,0.5,190710,,,A*44
$GPRMC,053109.2,A,3319.911196,N,11709.548544,W,66.2,1.1,190710,,,A*41
$GPRMC,053112.2,A,3319.966470,N,11709.547439,W,65.6,0.9,190710,,,A*4C
$GPRMC,053115.2,A,3320.021829,N,11709.547770,W,65.1,0.3,190710,,,A*48
$GPRMC,053118.2,A,3320.073212,N,11709.546808,W,62.9,0.4,190710,,,A*49
$GPRMC,053121.2,A,3320.124127,N,11709.547484,W,61.6,0.2,190710,,,A*46
$GPRMC,053124.2,A,3320.175844,N,11709.546250,W,60.9,1.0,190710,,,A*48
$GPRMC,053127.2,A,3320.226768,N,11709.544107,W,61.2,1.3,190710,,,A*45
$GPRMC,053130.2,A,3320.277284,N,11709.544500,W,59.8,0.3,190710,,,A*43
$GPRMC,053133.2,A,3320.327164,N,11709.542173,W,60.2,0.9,190710,,,A*45
$GPRMC,053136.2,A,3320.376989,N,11709.540789,W,60.1,0.8,190710,,,A*4C
$GPRMC,053139.2,A,3320.427074,N,11709.538826,W,60.4,1.9,190710,,,A*4B
$GPRMC,053142.2,A,3320.478814,N,11709.536148,W,62.8,1.1,190710,,,A*4A
$GPRMC,053145.0,A,3320.525830,N,11709.534397,W,63.1,0.7,190710,,,A*4D
$GPRMC,053148.2,A,3320.581278,N,11709.535323,W,62.6,0.2,190710,,,A*47
$GPRMC,053151.2,A,3320.634890,N,11709.534127,W,63.7,1.3,190710,,,A*49
$GPRMC,053155.2,A,3320.704537,N,11709.533739,W,63.2,1.1,190710,,,A*46
$GPRMC,053158.2,A,3320.758839,N,11709.532578,W,64.3,1.4,190710,,,A*44
$GPRMC,053201.2,A,3320.812569,N,11709.531737,W,64.1,0.7,190710,,,A*48
$GPRMC,053204.2,A,3320.865615,N,11709.531522,W,63.6,0.3,190710,,,A*47
$GPRMC,053207.2,A,3320.919657,N,11709.530553,W,64.2,1.1,190710,,,A*4F
$GPRMC,053211.2,A,3320.990156,N,11709.530263,W,63.1,359.5,190710,,,A*45
$GPRMC,053214.2,A,3321.043877,N,11709.529451,W,62.9,0.6,190710,,,A*46
$GPRMC,053217.2,A,3321.095420,N,11709.527505,W,61.5,0.9,190710,,,A*4E
$GPRMC,053220.2,A,3321.146005,N,11709.525227,W,60.7,1.4,190710,,,A*4C
$GPRMC,053223.2,A,3321.195062,N,11709.524624,W,58.9,1.0,190710,,,A*47
$GPRMC,053226.9,A,3321.255020,N,11709.523491,W,59.2,0.8,190710,,,A*48
$GPRMC,053229.2,A,3321.292018,N,11709.523328,W,56.8,0.5,190710,,,A*41
$GPRMC,053233.2,A,3321.353257,N,11709.522667,W,55.2,359.9,190710,,,A*4A
$GPRMC,053236.2,A,3321.401155,N,11709.523955,W,56.2,358.6,190710,,,A*4C
$GPRMC,053239.2,A,3321.448626,N,11709.526896,W,56.9,356.3,190710,,,A*46
$GPRMC,053242.2,A,3321.496794,N,11709.532590,W,57.8,354.1,190710,,,A*4F
$GPRMC,053245.2,A,3321.545406,N,11709.541687,W,59.3,351.4,190710,,,A*4B
$GPRMC,053248.2,A,3321.594362,N,11709.551461,W,60.2,349.2,190710,,,A*40
$GPRMC,053251.9,A,3321.656001,N,11709.566159,W,60.0,347.6,190710,,,A*4A
$GPRMC,053254.2,A,3321.692927,N,11709.578037,W,61.1,344.6,190710,,,A*44
$GPRMC,053258.2,A,3321.759661,N,11709.600816,W,61.0,342.3,190710,,,A*46
$GPRMC,053301.2,A,3321.806551,N,11709.621036,W,61.8,339.9,190710,,,A*49
$GPRMC,053304.2,A,3321.853745,N,11709.644715,W,60.6,337.4,190710,,,A*42
$GPRMC,053308.2,A,3321.914358,N,11709.677470,W,59.8,334.8,190710,,,A*4F
$GPRMC,053311.2,A,3321.958991,N,11709.703342,W,58.6,333.2,190710,,,A*46
$GPRMC,053314.2,A,3322.001017,N,11709.729554,W,56.5,330.5,190710,,,A*42
$GPRMC,053317.2,A,3322.041449,N,11709.758330,W,55.8,329.1,190710,,,A*4A
$GPRMC,053320.2,A,3322.079491,N,11709.788868,W,54.6,326.1,190710,,,A*4B
$GPRMC,053323.2,A,3322.117292,N,11709.820052,W,55.4,324.4,190710,,,A*4C
$GPRMC,053326.2,A,3322.154890,N,11709.853356,W,56.9,322.4,190710,,,A*4D
$GPRMC,053329.2,A,3322.192644,N,11709.889581,W,58.9,320.0,190710,,,A*4C
$GPRMC,053332.2,A,3322.230360,N,11709.928659,W,60.0,318.1,190710,,,A*4A
$GPRMC,053335.2,A,3322.267563,N,11709.968954,W,60.0,318.1,190710,,,A*4C
$GPRMC,053338.2,A,3322.304778,N,11710.008752,W,60.2,318.0,190710,,,A*41
$GPRMC,053341.2,A,3322.341652,N,11710.048834,W,59.8,317.7,190710,,,A*44
$GPRMC,053345.2,A,3322.391948,N,11710.101019,W,60.1,318.8,190710,,,A*41
$GPRMC,053348.9,A,3322.439545,N,11710.146686,W,60.3,322.3,190710,,,A*40
$GPRMC,053351.2,A,3322.471225,N,11710.175075,W,61.1,324.0,190710,,,A*42
$GPRMC,053354.2,A,3322.513970,N,11710.209759,W,61.4,326.3,190710,,,A*4C
$GPRMC,053357.2,A,3322.557770,N,11710.242191,W,62.6,328.7,190710,,,A*47
$GPRMC,053400.2,A,3322.602548,N,11710.273620,W,63.5,330.7,190710,,,A*4C
$GPRMC,053403.2,A,3322.649948,N,11710.303600,W,64.7,333.2,190710,,,A*4B
$GPRMC,053406.2,A,3322.698635,N,11710.331626,W,64.3,335.6,190710,,,A*44
$GPRMC,053409.2,A,3322.747662,N,11710.356746,W,63.5,338.0,190710,,,A*46
$GPRMC,053412.2,A,3322.797109,N,11710.378438,W,62.8,340.4,190710,,,A*4A
$GPRMC,053415.2,A,3322.846866,N,11710.397793,W,64.2,342.7,190710,,,A*40
$GPRMC,053418.2,A,3322.898898,N,11710.416481,W,65.5,344.2,190710,,,A*44
$GPRMC,053421.2,A,3322.951854,N,11710.432234,W,64.2,347.6,190710,,,A*45
$GPRMC,053424.2,A,3323.004244,N,11710.445978,W,63.2,349.1,190710,,,A*4E
$GPRMC,053427.2,A,3323.056399,N,11710.456281,W,62.3,351.2,190710,,,A*4E
$GPRMC,053430.2,A,3323.108012,N,11710.464220,W,62.3,353.3,190710,,,A*4B
$GPRMC,053433.2,A,3323.159253,N,11710.468755,W,61.2,356.4,190710,,,A*40
$GPRMC,053436.2,A,3323.209683,N,11710.470641,W,60.0,358.0,190710,,,A*4E
$GPRMC,053439.2,A,3323.258991,N,11710.469589,W,60.5,0.7,190710,,,A*4A
$GPRMC,053442.2,A,3323.309575,N,11710.467205,W,61.0,2.6,190710,,,A*4F
$GPRMC,053445.2,A,3323.360743,N,11710.463020,W,61.5,4.8,190710,,,A*4C
$GPRMC,053448.2,A,3323.410685,N,11710.457345,W,58.1,7.1,190710,,,A*49
$GPRMC,053451.2,A,3323.457669,N,11710.449469,W,57.9,8.5,190710,,,A*4A
$GPRMC,053454.2,A,3323.506188,N,11710.439806,W,58.6,10.5,190710,,,A*79
$GPRMC,053457.2,A,3323.553594,N,11710.427124,W,58.3,12.9,190710,,,A*7E
$GPRMC,053500.2,A,3323.601591,N,11710.412240,W,59.8,15.1,190710,,,A*7E
$GPRMC,053503.2,A,3323.649214,N,11710.393290,W,61.0,18.1,190710,,,A*76
$GPRMC,053506.2,A,3323.699298,N,11710.376632,W,60.2,18.0,190710,,,A*7F
$GPRMC,053509.2,A,3323.747357,N,11710.357653,W,59.7,19.1,190710,,,A*7B
$GPRMC,053512.2,A,3323.792086,N,11710.334222,W,60.4,23.9,190710,,,A*79
$GPRMC,053515.2,A,3323.835848,N,11710.309438,W,60.3,25.5,190710,,,A*78
$GPRMC,053518.2,A,3323.880675,N,11710.281496,W,60.3,26.3,190710,,,A*7B
$GPRMC,053521.2,A,3323.925133,N,11710.252608,W,60.3,27.9,190710,,,A*7A
$GPRMC,053524.2,A,3323.969262,N,11710.223133,W,60.9,28.4,190710,,,A*71
$GPRMC,053527.2,A,3324.013465,N,11710.193527,W,61.0,29.4,190710,,,A*70
$GPRMC,053530.2,A,3324.057171,N,11710.162262,W,60.6,31.3,190710,,,A*77
$GPRMC,053533.2,A,3324.099179,N,11710.128762,W,60.9,32.1,190710,,,A*7B
$GPRMC,053536.2,A,3324.142602,N,11710.095159,W,61.1,33.3,190710,,,A*71
$GPRMC,053539.2,A,3324.184252,N,11710.058754,W,60.9,34.4,190710,,,A*76
$GPRMC,053542.2,A,3324.225935,N,11710.023297,W,60.9,35.3,190710,,,A*78
$GPRMC,053545.9,A,3324.277457,N,11709.981369,W,61.6,34.6,190710,,,A*79
$GPRMC,053548.2,A,3324.309415,N,11709.953455,W,61.5,36.5,190710,,,A*74
$GPRMC,053551.2,A,3324.350922,N,11709.917671,W,61.3,35.5,190710,,,A*78
$GPRMC,053554.2,A,3324.392585,N,11709.882123,W,61.5,35.8,190710,,,A*74
$GPRMC,053557.2,A,3324.434099,N,11709.847083,W,61.5,34.1,190710,,,A*7E
$GPRMC,053600.2,A,3324.476634,N,11709.813548,W,61.6,32.7,190710,,,A*78
$GPRMC,053603.2,A,3324.520419,N,11709.781260,W,61.7,31.6,190710,,,A*7E
$GPRMC,053606.9,A,3324.574970,N,11709.742560,W,61.4,31.3,190710,,,A*7D
$GPRMC,053609.9,A,3324.620475,N,11709.711714,W,61.7,30.1,190710,,,A*7F
$GPRMC,053612.9,A,3324.662012,N,11709.677926,W,60.0,31.9,190710,,,A*77
$GPRMC,053615.9,A,3324.705248,N,11709.646440,W,60.5,30.7,190710,,,A*78
$GPRMC,053618.2,A,3324.738817,N,11709.623065,W,61.1,31.5,190710,,,A*76
$GPRMC,053622.2,A,3324.796239,N,11709.580601,W,60.5,32.2,190710,,,A*72
$GPRMC,053625.2,A,3324.838320,N,11709.548684,W,59.6,31.9,190710,,,A*7F
$GPRMC,053628.2,A,3324.881114,N,11709.517677,W,59.1,31.6,190710,,,A*7B
$GPRMC,053631.2,A,3324.922585,N,11709.486764,W,59.0,31.7,190710,,,A*7D
$GPRMC,053634.9,A,3324.974569,N,11709.448461,W,59.1,31.5,190710,,,A*75
$GPRMC,053637.9,A,3325.016624,N,11709.416692,W,59.4,31.4,190710,,,A*71
$GPRMC,053640.9,A,3325.058679,N,11709.384381,W,59.7,31.7,190710,,,A*78
$GPRMC,053643.9,A,3325.100801,N,11709.352929,W,59.3,32.0,190710,,,A*75
$GPRMC,053646.9,A,3325.146373,N,11709.324555,W,60.7,29.7,190710,,,A*79
$GPRMC,053649.9,A,3325.189325,N,11709.290993,W,61.0,31.3,190710,,,A*75
$GPRMC,053652.9,A,3325.233895,N,11709.261356,W,61.8,30.5,190710,,,A*7F
$GPRMC,053655.9,A,3325.277757,N,11709.231079,W,61.6,30.1,190710,,,A*78
$GPRMC,053658.9,A,3325.322500,N,11709.201013,W,60.9,30.6,190710,,,A*72
$GPRMC,053701.9,A,3325.368905,N,11709.170580,W,63.0,28.6,190710,,,A*71
$GPRMC,053704.9,A,3325.411435,N,11709.138960,W,61.6,30.5,190710,,,A*73
$GPRMC,053707.9,A,3325.454210,N,11709.107461,W,61.0,31.4,190710,,,A*76
$GPRMC,053710.9,A,3325.497170,N,11709.077638,W,60.3,31.2,190710,,,A*76
$GPRMC,053713.9,A,3325.540241,N,11709.043526,W,60.8,33.5,190710,,,A*7A
$GPRMC,053716.2,A,3325.571616,N,11709.016633,W,60.5,37.2,190710,,,A*79
$GPRMC,053719.9,A,3325.621192,N,11708.972543,W,59.3,37.3,190710,,,A*73
$GPRMC,053722.2,A,3325.648945,N,11708.942551,W,59.9,41.8,190710,,,A*7D
$GPRMC,053725.2,A,3325.684561,N,11708.899244,W,59.3,44.5,190710,,,A*76
$GPRMC,053728.2,A,3325.719646,N,11708.857265,W,59.0,45.2,190710,,,A*7C
$GPRMC,053731.2,A,3325.754547,N,11708.814889,W,59.0,45.6,190710,,,A*74
$GPRMC,053734.2,A,3325.789159,N,11708.773151,W,58.5,45.3,190710,,,A*79
$GPRMC,053737.9,A,3325.830787,N,11708.720620,W,59.7,43.9,190710,,,A*71
$GPRMC,053740.2,A,3325.856948,N,11708.689257,W,58.9,44.4,190710,,,A*74
$GPRMC,053743.2,A,3325.894220,N,11708.650613,W,58.8,41.3,190710,,,A*7F
$GPRMC,053746.2,A,3325.932132,N,11708.613737,W,59.2,39.5,190710,,,A*75
$GPRMC,053749.2,A,3325.971017,N,11708.576664,W,59.7,38.1,190710,,,A*7C
$GPRMC,053752.2,A,3326.010538,N,11708.540896,W,59.9,35.9,190710,,,A*7E
$GPRMC,053755.2,A,3326.051184,N,11708.506174,W,60.3,34.2,190710,,,A*72
$GPRMC,053758.2,A,3326.093035,N,11708.473910,W,60.5,32.9,190710,,,A*78
$GPRMC,053801.2,A,3326.135747,N,11708.441744,W,60.9,31.4,190710,,,A*78
$GPRMC,053804.2,A,3326.180258,N,11708.412496,W,61.5,28.5,190710,,,A*76
$GPRMC,053807.2,A,3326.225987,N,11708.384159,W,61.5,26.6,190710,,,A*73
$GPRMC,053810.2,A,3326.272189,N,11708.358403,W,61.3,24.7,190710,,,A*7F
$GPRMC,053813.2,A,3326.319023,N,11708.333869,W,61.1,23.0,190710,,,A*7E
$GPRMC,053816.2,A,3326.366253,N,11708.311281,W,61.2,21.2,190710,,,A*79
$GPRMC,053819.2,A,3326.414620,N,11708.290280,W,60.9,19.8,190710,,,A*76
$GPRMC,053822.2,A,3326.463062,N,11708.271768,W,60.5,17.6,190710,,,A*7E
$GPRMC,053825.2,A,3326.512636,N,11708.256471,W,60.6,15.7,190710,,,A*77
$GPRMC,053828.2,A,3326.561749,N,11708.241251,W,60.1,15.6,190710,,,A*73
$GPRMC,053831.2,A,3326.611790,N,11708.225903,W,60.2,15.4,190710,,,A*74
$GPRMC,053834.2,A,3326.661647,N,11708.210162,W,60.4,15.1,190710,,,A*77
$GPRMC,053837.2,A,3326.708600,N,11708.194954,W,59.9,15.3,190710,,,A*7E
$GPRMC,053840.2,A,3326.755091,N,11708.178001,W,59.1,15.4,190710,,,A*7C
$GPRMC,053843.2,A,3326.802323,N,11708.163017,W,59.5,14.9,190710,,,A*7D
$GPRMC,053846.2,A,3326.850393,N,11708.148201,W,60.0,14.7,190710,,,A*79
$GPRMC,053849.2,A,3326.898641,N,11708.132767,W,59.7,13.8,190710,,,A*75
$GPRMC,053852.2,A,3326.946220,N,11708.120436,W,59.0,11.2,190710,,,A*75
$GPRMC,053856.2,A,3327.013564,N,11708.109016,W,60.9,7.1,190710,,,A*44
$GPRMC,053859.2,A,3327.065462,N,11708.105029,W,61.6,2.7,190710,,,A*40
$GPRMC,053902.2,A,3327.116228,N,11708.105102,W,60.9,359.5,190710,,,A*4B
$GPRMC,053905.2,A,3327.170020,N,11708.109217,W,61.6,356.0,190710,,,A*49
$GPRMC,053908.2,A,3327.222156,N,11708.114492,W,62.2,355.0,190710,,,A*43
$GPRMC,053911.2,A,3327.273427,N,11708.121048,W,61.6,354.7,190710,,,A*48
$GPRMC,053914.2,A,3327.325478,N,11708.127652,W,62.4,354.0,190710,,,A*48
$GPRMC,053917.2,A,3327.377981,N,11708.133983,W,62.8,354.6,190710,,,A*4B
$GPRMC,053920.2,A,3327.429779,N,11708.139420,W,62.4,354.6,190710,,,A*48
$GPRMC,053923.2,A,3327.480373,N,11708.145168,W,61.7,354.2,190710,,,A*40
$GPRMC,053926.2,A,3327.532226,N,11708.150857,W,62.3,353.9,190710,,,A*46
$GPRMC,053929.2,A,3327.584265,N,11708.158395,W,62.0,353.2,190710,,,A*46
$GPRMC,053932.2,A,3327.634715,N,11708.163707,W,61.5,354.2,190710,,,A*40
$GPRMC,053935.2,A,3327.686036,N,11708.167886,W,61.3,354.7,190710,,,A*49
$GPRMC,053938.2,A,3327.739150,N,11708.174838,W,61.8,354.9,190710,,,A*42
$GPRMC,053941.2,A,3327.789907,N,11708.177313,W,61.6,358.7,190710,,,A*40
$GPRMC,053944.2,A,3327.836510,N,11708.172647,W,60.2,2.2,190710,,,A*49
$GPRMC,053947.2,A,3327.886699,N,11708.169516,W,61.0,2.0,190710,,,A*4F
$GPRMC,053950.2,A,3327.937447,N,11708.168484,W,60.8,360.0,190710,,,A*46
$GPRMC,053953.2,A,3327.988928,N,11708.169755,W,60.8,357.9,190710,,,A*46
$GPRMC,053956.2,A,3328.039642,N,11708.172348,W,60.6,357.1,190710,,,A*48
$GPRMC,053959.2,A,3328.091139,N,11708.178961,W,60.3,353.0,190710,,,A*45
$GPRMC,054002.2,A,3328.140440,N,11708.188335,W,59.8,350.7,190710,,,A*42
$GPRMC,054005.2,A,3328.190364,N,11708.198862,W,60.1,348.1,190710,,,A*4D
$GPRMC,054008.2,A,3328.238837,N,11708.213353,W,60.5,345.3,190710,,,A*4E
$GPRMC,054011.2,A,3328.287677,N,11708.231419,W,60.0,343.3,190710,,,A*42
$GPRMC,054014.2,A,3328.335235,N,11708.249958,W,59.2,343.4,190710,,,A*45
$GPRMC,054017.2,A,3328.382519,N,11708.268614,W,58.6,343.3,190710,,,A*45
$GPRMC,054020.2,A,3328.430045,N,11708.285864,W,58.8,343.7,190710,,,A*43
$GPRMC,054023.2,A,3328.478518,N,11708.303467,W,59.5,342.9,190710,,,A*42
$GPRMC,054026.2,A,3328.526235,N,11708.321735,W,59.5,343.1,190710,,,A*48
$GPRMC,054029.2,A,3328.573432,N,11708.339550,W,59.1,343.0,190710,,,A*4B
$GPRMC,054032.2,A,3328.621137,N,11708.356533,W,59.3,343.3,190710,,,A*48
$GPRMC,054035.2,A,3328.668599,N,11708.372861,W,58.5,343.6,190710,,,A*4C
$GPRMC,054038.2,A,3328.715465,N,11708.389624,W,58.8,343.3,190710,,,A*4B
$GPRMC,054041.2,A,3328.762606,N,11708.406233,W,59.3,343.5,190710,,,A*4C
$GPRMC,054044.2,A,3328.810052,N,11708.423642,W,58.2,343.6,190710,,,A*42
$GPRMC,054047.2,A,3328.858338,N,11708.440773,W,59.8,342.9,190710,,,A*41
$GPRMC,054050.2,A,3328.906757,N,11708.458615,W,60.8,343.0,190710,,,A*4A
$GPRMC,054053.2,A,3328.955657,N,11708.475427,W,60.4,343.0,190710,,,A*4E
$GPRMC,054056.2,A,3329.004802,N,11708.493731,W,60.7,343.0,190710,,,A*46
$GPRMC,054059.2,A,3329.053303,N,11708.510748,W,60.4,342.7,190710,,,A*40
$GPRMC,054102.2,A,3329.101294,N,11708.528732,W,60.9,342.8,190710,,,A*42
$GPRMC,054105.2,A,3329.150146,N,11708.547685,W,60.8,343.0,190710,,,A*41
$GPRMC,054108.2,A,3329.198610,N,11708.565850,W,60.7,342.7,190710,,,A*43
$GPRMC,054111.2,A,3329.247850,N,11708.583055,W,60.4,343.6,190710,,,A*46
$GPRMC,054114.2,A,3329.296624,N,11708.600988,W,60.7,343.2,190710,,,A*44
$GPRMC,054117.2,A,3329.343929,N,11708.617859,W,60.2,343.2,190710,,,A*42
$GPRMC,054120.2,A,3329.392086,N,11708.633963,W,60.1,343.7,190710,,,A*4E
$GPRMC,054123.2,A,3329.441390,N,11708.651250,W,61.9,342.6,190710,,,A*46
$GPRMC,054126.2,A,3329.491831,N,11708.671287,W,62.0,342.9,190710,,,A*43
$GPRMC,054129.2,A,3329.540923,N,11708.689466,W,61.8,341.3,190710,,,A*4F
$GPRMC,054132.2,A,3329.588296,N,11708.713124,W,60.8,334.8,190710,,,A*4D
$GPRMC,054135.2,A,3329.633713,N,11708.740184,W,60.9,331.8,190710,,,A*49
$GPRMC,054138.2,A,3329.677179,N,11708.771644,W,61.4,326.3,190710,,,A*46
$GPRMC,054141.2,A,3329.717618,N,11708.809715,W,62.6,319.1,190710,,,A*45
$GPRMC,054144.2,A,3329.760519,N,11708.849133,W,64.0,321.6,190710,,,A*48
$GPRMC,054147.2,A,3329.802638,N,11708.889001,W,64.2,320.9,190710,,,A*40
$GPRMC,054150.2,A,3329.844237,N,11708.927490,W,61.8,323.5,190710,,,A*46
$GPRMC,054153.2,A,3329.886066,N,11708.961694,W,60.6,326.3,190710,,,A*45
$GPRMC,054156.2,A,3329.928533,N,11708.993887,W,60.7,328.6,190710,,,A*4B
$GPRMC,054159.9,A,3329.982158,N,11709.031026,W,61.0,330.3,190710,,,A*4F
$GPRMC,054202.2,A,3330.016911,N,11709.052426,W,60.6,333.1,190710,,,A*47
$GPRMC,054205.2,A,3330.062701,N,11709.077530,W,60.4,335.9,190710,,,A*41
$GPRMC,054208.2,A,3330.111023,N,11709.101923,W,62.2,337.1,190710,,,A*4E
$GPRMC,054211.2,A,3330.158611,N,11709.124138,W,60.5,338.3,190710,,,A*41
$GPRMC,054214.2,A,3330.205462,N,11709.143943,W,59.2,339.3,190710,,,A*40
$GPRMC,054217.2,A,3330.253390,N,11709.162732,W,59.4,340.2,190710,,,A*48
$GPRMC,054220.2,A,3330.298633,N,11709.182521,W,59.2,339.2,190710,,,A*41
$GPRMC,054223.2,A,3330.344830,N,11709.204932,W,60.0,338.8,190710,,,A*4F
$GPRMC,054226.2,A,3330.392629,N,11709.225356,W,60.5,339.5,190710,,,A*45
$GPRMC,054229.2,A,3330.439349,N,11709.247040,W,60.6,339.1,190710,,,A*48
$GPRMC,054232.2,A,3330.487364,N,11709.268427,W,61.4,339.1,190710,,,A*43
$GPRMC,054235.2,A,3330.535100,N,11709.290904,W,61.5,338.9,190710,,,A*4F
$GPRMC,054238.2,A,3330.583037,N,11709.312956,W,61.6,339.4,190710,,,A*49
$GPRMC,054241.2,A,3330.631310,N,11709.335075,W,62.1,339.2,190710,,,A*44
$GPRMC,054244.2,A,3330.680092,N,11709.357203,W,62.4,339.2,190710,,,A*40
$GPRMC,054247.2,A,3330.728514,N,11709.379132,W,62.0,339.5,190710,,,A*45
$GPRMC,054250.2,A,3330.777201,N,11709.401286,W,61.1,339.0,190710,,,A*49
$GPRMC,054253.2,A,3330.823797,N,11709.422795,W,59.5,338.5,190710,,,A*43
$GPRMC,054256.2,A,3330.869006,N,11709.446901,W,59.2,335.8,190710,,,A*41
$GPRMC,054259.2,A,3330.913636,N,11709.473797,W,59.5,332.8,190710,,,A*40
$GPRMC,054302.2,A,3330.957154,N,11709.502921,W,59.4,329.4,190710,,,A*4F
$GPRMC,054305.2,A,3331.001317,N,11709.531967,W,60.4,330.4,190710,,,A*46
$GPRMC,054308.2,A,3331.046186,N,11709.562462,W,60.9,330.6,190710,,,A*43
$GPRMC,054311.2,A,3331.090871,N,11709.591346,W,60.9,330.7,190710,,,A*4D
$GPRMC,054314.2,A,3331.135803,N,11709.620926,W,60.9,330.7,190710,,,A*46
$GPRMC,054317.2,A,3331.179353,N,11709.649921,W,59.9,330.5,190710,,,A*43
$GPRMC,054320.2,A,3331.222881,N,11709.678789,W,60.2,330.4,190710,,,A*40
$GPRMC,054323.2,A,3331.265983,N,11709.708554,W,59.5,330.7,190710,,,A*49
$GPRMC,054326.2,A,3331.309346,N,11709.737201,W,60.0,330.6,190710,,,A*41
$GPRMC,054329.2,A,3331.353111,N,11709.766511,W,59.7,330.4,190710,,,A*4C
$GPRMC,054332.2,A,3331.397455,N,11709.795578,W,60.2,331.3,190710,,,A*41
$GPRMC,054335.2,A,3331.440323,N,11709.824787,W,59.3,330.7,190710,,,A*44
$GPRMC,054338.2,A,3331.483575,N,11709.854157,W,59.0,330.2,190710,,,A*49
$GPRMC,054341.2,A,3331.526462,N,11709.883448,W,59.1,329.8,190710,,,A*4C
$GPRMC,054344.2,A,3331.570290,N,11709.912440,W,60.0,330.9,190710,,,A*42
$GPRMC,054347.2,A,3331.613007,N,11709.940771,W,59.4,331.6,190710,,,A*4D
$GPRMC,054350.2,A,3331.656318,N,11709.969979,W,59.9,330.8,190710,,,A*48
$GPRMC,054353.2,A,3331.700839,N,11709.998727,W,59.8,331.1,190710,,,A*43
$GPRMC,054356.2,A,3331.743670,N,11710.029148,W,59.3,330.9,190710,,,A*44
$GPRMC,054359.2,A,3331.788210,N,11710.057694,W,59.1,330.8,190710,,,A*42
$GPRMC,054402.2,A,3331.830273,N,11710.085209,W,58.7,330.6,190710,,,A*44
$GPRMC,054405.2,A,3331.872712,N,11710.113884,W,58.9,330.8,190710,,,A*46
$GPRMC,054408.2,A,3331.916529,N,11710.143546,W,59.8,331.0,190710,,,A*4D
$GPRMC,054411.2,A,3331.959360,N,11710.171597,W,59.3,330.5,190710,,,A*47
$GPRMC,054414.2,A,3332.002672,N,11710.201610,W,60.8,330.4,190710,,,A*48
$GPRMC,054417.2,A,3332.046293,N,11710.230759,W,60.7,330.5,190710,,,A*40
$GPRMC,054420.2,A,3332.090986,N,11710.259557,W,60.4,331.2,190710,,,A*46
$GPRMC,054423.2,A,3332.134296,N,11710.287678,W,59.3,331.0,190710,,,A*42
$GPRMC,054426.2,A,3332.178458,N,11710.316688,W,59.4,330.8,190710,,,A*43
$GPRMC,054430.2,A,3332.234577,N,11710.355400,W,58.9,330.8,190710,,,A*4A
$GPRMC,054433.2,A,3332.278401,N,11710.384501,W,59.4,330.5,190710,,,A*4C
$GPRMC,054436.2,A,3332.321219,N,11710.412901,W,59.2,331.0,190710,,,A*4D
$GPRMC,054439.2,A,3332.364465,N,11710.442234,W,58.6,330.4,190710,,,A*46
$GPRMC,054442.2,A,3332.407302,N,11710.470980,W,58.2,330.9,190710,,,A*42
$GPRMC,054445.2,A,3332.448738,N,11710.497914,W,57.0,331.0,190710,,,A*42
$GPRMC,054448.2,A,3332.490119,N,11710.525765,W,57.8,330.4,190710,,,A*42
$GPRMC,054452.2,A,3332.546887,N,11710.564726,W,59.4,330.7,190710,,,A*4E
$GPRMC,054455.2,A,3332.590450,N,11710.592834,W,59.2,330.8,190710,,,A*48
$GPRMC,054458.2,A,3332.633589,N,11710.621987,W,60.0,330.5,190710,,,A*4D
$GPRMC,054501.2,A,3332.678159,N,11710.651211,W,61.3,331.2,190710,,,A*41
$GPRMC,054504.2,A,3332.722235,N,11710.680206,W,60.1,331.1,190710,,,A*49
$GPRMC,054507.2,A,3332.765797,N,11710.709257,W,59.9,330.1,190710,,,A*43
$GPRMC,054510.2,A,3332.807008,N,11710.741133,W,60.0,325.9,190710,,,A*4D
$GPRMC,054513.2,A,3332.846992,N,11710.776096,W,60.1,322.7,190710,,,A*43
$GPRMC,054516.2,A,3332.886478,N,11710.813455,W,60.7,320.8,190710,,,A*4F
$GPRMC,054519.2,A,3332.923452,N,11710.853737,W,60.1,316.7,190710,,,A*49
$GPRMC,054522.2,A,3332.957525,N,11710.896993,W,59.7,312.6,190710,,,A*43
$GPRMC,054525.2,A,3332.989862,N,11710.942313,W,60.0,309.6,190710,,,A*44
$GPRMC,054528.2,A,3333.019950,N,11710.990376,W,59.3,304.6,190710,,,A*40
$GPRMC,054531.2,A,3333.046429,N,11711.038476,W,56.8,303.2,190710,,,A*4B
$GPRMC,054534.0,A,3333.069894,N,11711.080397,W,54.1,300.8,190710,,,A*42
$GPRMC,054537.2,A,3333.093552,N,11711.131704,W,53.9,300.2,190710,,,A*41
$GPRMC,054540.2,A,3333.116049,N,11711.178226,W,55.1,300.6,190710,,,A*40
$GPRMC,054543.2,A,3333.142069,N,11711.228553,W,55.5,301.5,190710,,,A*45
$GPRMC,054546.2,A,3333.165997,N,11711.274987,W,53.8,301.7,190710,,,A*48
$GPRMC,054549.2,A,3333.189670,N,11711.320528,W,53.7,301.8,190710,,,A*4A
$GPRMC,054552.2,A,3333.213235,N,11711.366026,W,54.6,301.7,190710,,,A*45
$GPRMC,054556.2,A,3333.244780,N,11711.427632,W,53.8,301.0,190710,,,A*47
$GPRMC,054559.9,A,3333.276623,N,11711.487465,W,58.0,302.1,190710,,,A*41
$GPRMC,054602.2,A,3333.298574,N,11711.526066,W,60.4,303.9,190710,,,A*4D
$GPRMC,054605.9,A,3333.333246,N,11711.588897,W,61.9,304.9,190710,,,A*4E
$GPRMC,054608.9,A,3333.365520,N,11711.640898,W,63.4,306.4,190710,,,A*4F
$GPRMC,054611.9,A,3333.405083,N,11711.699136,W,65.6,307.9,190710,,,A*4B
$GPRMC,054614.2,A,3333.430452,N,11711.735915,W,62.9,309.2,190710,,,A*48
$GPRMC,054617.2,A,3333.464584,N,11711.784379,W,62.6,309.2,190710,,,A*45
$GPRMC,054621.2,A,3333.504021,N,11711.843051,W,61.3,311.0,190710,,,A*4D
$GPRMC,054624.9,A,3333.545749,N,11711.894901,W,60.6,312.8,190710,,,A*46
$GPRMC,054627.2,A,3333.570871,N,11711.928623,W,59.8,312.0,190710,,,A*49
$GPRMC,054630.9,A,3333.611143,N,11711.983200,W,61.0,312.0,190710,,,A*4F
$GPRMC,054633.9,A,3333.645339,N,11712.027803,W,61.1,313.0,190710,,,A*4F
$GPRMC,054636.9,A,3333.680603,N,11712.072409,W,61.6,313.0,190710,,,A*4E
$GPRMC,054639.9,A,3333.713801,N,11712.113835,W,58.9,312.7,190710,,,A*40
$GPRMC,054642.9,A,3333.746037,N,11712.157797,W,58.7,312.5,190710,,,A*4A
$GPRMC,054645.9,A,3333.776453,N,11712.199333,W,57.9,312.4,190710,,,A*40
$GPRMC,054648.2,A,3333.800861,N,11712.232658,W,57.3,311.3,190710,,,A*41
$GPRMC,054651.9,A,3333.842676,N,11712.285863,W,59.5,313.0,190710,,,A*4F
$GPRMC,054654.9,A,3333.876094,N,11712.328579,W,57.9,312.5,190710,,,A*41
$GPRMC,054657.9,A,3333.908292,N,11712.370778,W,57.0,312.2,190710,,,A*4E
$GPRMC,054700.9,A,3333.940094,N,11712.412649,W,55.5,311.8,190710,,,A*4B
$GPRMC,054703.2,A,3333.963327,N,11712.443762,W,55.4,312.3,190710,,,A*4C
$GPRMC,054706.2,A,3333.994268,N,11712.484737,W,56.5,312.2,190710,,,A*43
$GPRMC,054709.2,A,3334.026074,N,11712.526781,W,57.2,311.8,190710,,,A*4F
$GPRMC,054712.2,A,3334.057523,N,11712.569126,W,57.7,311.8,190710,,,A*41
$GPRMC,054715.2,A,3334.089698,N,11712.612706,W,57.8,311.3,190710,,,A*49
$GPRMC,054718.9,A,3334.128723,N,11712.665583,W,58.3,311.8,190710,,,A*44
$GPRMC,054721.9,A,3334.161161,N,11712.707647,W,58.2,312.7,190710,,,A*40
$GPRMC,054725.2,A,3334.196859,N,11712.753848,W,57.8,311.3,190710,,,A*47
$GPRMC,054728.9,A,3334.239681,N,11712.810351,W,60.8,312.5,190710,,,A*46
$GPRMC,054731.9,A,3334.272137,N,11712.855349,W,59.3,312.0,190710,,,A*47
$GPRMC,054734.9,A,3334.304957,N,11712.897087,W,57.1,312.6,190710,,,A*49
$GPRMC,054737.9,A,3334.335907,N,11712.937108,W,56.8,312.4,190710,,,A*4A
$GPRMC,054740.9,A,3334.368227,N,11712.979397,W,57.1,312.6,190710,,,A*4F
$GPRMC,054743.9,A,3334.401749,N,11713.022258,W,57.0,312.1,190710,,,A*4B
$GPRMC,054746.9,A,3334.432345,N,11713.064462,W,56.8,311.8,190710,,,A*48
$GPRMC,054749.9,A,3334.464676,N,11713.105063,W,57.4,312.4,190710,,,A*40
$GPRMC,054752.9,A,3334.497306,N,11713.147118,W,57.4,312.0,190710,,,A*4B
$GPRMC,054755.9,A,3334.528640,N,11713.189438,W,56.6,312.0,190710,,,A*48
$GPRMC,054758.9,A,3334.561302,N,11713.229213,W,57.3,312.8,190710,,,A*41
$GPRMC,054801.2,A,3334.586112,N,11713.262036,W,55.5,312.1,190710,,,A*44
$GPRMC,054804.9,A,3334.622292,N,11713.311426,W,56.2,311.8,190710,,,A*42
$GPRMC,054807.9,A,3334.653668,N,11713.353908,W,56.7,312.0,190710,,,A*4F
$GPRMC,054811.2,A,3334.690788,N,11713.400660,W,57.9,312.5,190710,,,A*49
$GPRMC,054814.9,A,3334.731409,N,11713.455304,W,59.0,311.8,190710,,,A*49
$GPRMC,054818.2,A,3334.766697,N,11713.501701,W,57.0,311.1,190710,,,A*4F
$GPRMC,054821.9,A,3334.809054,N,11713.556536,W,61.2,312.7,190710,,,A*47
$GPRMC,054824.9,A,3334.844544,N,11713.601137,W,60.1,313.3,190710,,,A*4C
$GPRMC,054827.9,A,3334.876569,N,11713.645833,W,59.9,312.0,190710,,,A*4C
$GPRMC,054830.9,A,3334.911660,N,11713.686646,W,58.3,315.3,190710,,,A*4C
$GPRMC,054833.9,A,3334.942970,N,11713.731477,W,57.4,310.8,190710,,,A*4C
$GPRMC,054836.9,A,3334.974694,N,11713.775429,W,59.4,312.1,190710,,,A*47
$GPRMC,054839.9,A,3335.007516,N,11713.813879,W,54.2,313.8,190710,,,A*48
$GPRMC,054842.9,A,3335.039753,N,11713.856084,W,58.8,312.9,190710,,,A*47
$GPRMC,054845.9,A,3335.071325,N,11713.897949,W,57.0,312.0,190710,,,A*42
$GPRMC,054848.9,A,3335.102110,N,11713.938639,W,57.8,312.5,190710,,,A*4F
$GPRMC,054851.9,A,3335.135897,N,11713.984435,W,58.2,312.4,190710,,,A*48
$GPRMC,054854.9,A,3335.168550,N,11714.027072,W,57.6,312.1,190710,,,A*4D
$GPRMC,054857.9,A,3335.201378,N,11714.070031,W,58.1,312.3,190710,,,A*41
$GPRMC,054900.9,A,3335.232736,N,11714.114301,W,58.6,311.8,190710,,,A*40
$GPRMC,054903.9,A,3335.267321,N,11714.157141,W,59.3,312.7,190710,,,A*48
$GPRMC,054906.9,A,3335.298913,N,11714.202807,W,59.8,311.2,190710,,,A*43
$GPRMC,054909.9,A,3335.335888,N,11714.245946,W,61.2,312.9,190710,,,A*47
$GPRMC,054912.9,A,3335.370231,N,11714.292957,W,61.9,311.9,190710,,,A*46
$GPRMC,054915.9,A,3335.402179,N,11714.334721,W,60.0,312.8,190710,,,A*44
$GPRMC,054918.9,A,3335.437647,N,11714.381746,W,61.9,312.7,190710,,,A*4D
$GPRMC,054922.2,A,3335.476580,N,11714.424137,W,62.5,317.3,190710,,,A*44
$GPRMC,054925.2,A,3335.516777,N,11714.466378,W,63.2,321.3,190710,,,A*42
$GPRMC,054928.9,A,3335.567736,N,11714.513135,W,62.7,322.9,190710,,,A*42
$GPRMC,054931.9,A,3335.609734,N,11714.551406,W,62.6,322.8,190710,,,A*40
$GPRMC,054934.9,A,3335.650371,N,11714.590505,W,62.4,322.1,190710,,,A*48
$GPRMC,054937.9,A,3335.692458,N,11714.628110,W,60.7,323.0,190710,,,A*48
$GPRMC,054940.9,A,3335.733318,N,11714.664703,W,61.4,322.5,190710,,,A*4B
$GPRMC,054943.9,A,3335.773101,N,11714.703559,W,61.4,321.4,190710,,,A*49
$GPRMC,054946.9,A,3335.812727,N,11714.738913,W,60.1,323.1,190710,,,A*4F
$GPRMC,054949.9,A,3335.853206,N,11714.776907,W,61.5,322.2,190710,,,A*4B
$GPRMC,054952.9,A,3335.893648,N,11714.814437,W,60.8,322.4,190710,,,A*4C
$GPRMC,054955.9,A,3335.934362,N,11714.849292,W,61.1,323.0,190710,,,A*46
$GPRMC,054958.9,A,3335.974026,N,11714.887320,W,60.6,322.1,190710,,,A*40
$GPRMC,055001.9,A,3336.015400,N,11714.924266,W,61.2,322.4,190710,,,A*42
$GPRMC,055004.9,A,3336.055660,N,11714.961841,W,61.2,322.5,190710,,,A*48
$GPRMC,055007.9,A,3336.096822,N,11714.998558,W,60.9,323.0,190710,,,A*41
$GPRMC,055010.9,A,3336.137649,N,11715.035928,W,62.3,322.7,190710,,,A*44
$GPRMC,055013.9,A,3336.179294,N,11715.073145,W,62.9,322.9,190710,,,A*4C
$GPRMC,055016.9,A,3336.219860,N,11715.110946,W,62.1,321.9,190710,,,A*49
$GPRMC,055019.9,A,3336.262279,N,11715.148688,W,63.0,323.5,190710,,,A*46
$GPRMC,055022.9,A,3336.304312,N,11715.185123,W,62.3,322.8,190710,,,A*4A
$GPRMC,055025.9,A,3336.345856,N,11715.222356,W,62.1,322.2,190710,,,A*45
$GPRMC,055028.9,A,3336.384015,N,11715.257529,W,59.7,321.9,190710,,,A*40
$GPRMC,055031.9,A,3336.424707,N,11715.296720,W,61.3,322.2,190710,,,A*40
$GPRMC,055034.9,A,3336.466710,N,11715.336038,W,62.0,321.9,190710,,,A*48
$GPRMC,055037.0,A,3336.493830,N,11715.360728,W,60.9,322.1,190710,,,A*40
$GPRMC,055040.9,A,3336.547706,N,11715.409399,W,61.9,322.4,190710,,,A*49
$GPRMC,055043.9,A,3336.589351,N,11715.448284,W,62.8,322.6,190710,,,A*46
$GPRMC,055046.9,A,3336.632682,N,11715.485370,W,63.2,322.7,190710,,,A*4A
$GPRMC,055049.9,A,3336.671767,N,11715.524623,W,62.7,321.2,190710,,,A*43
$GPRMC,055052.9,A,3336.714155,N,11715.562832,W,62.9,322.7,190710,,,A*48
$GPRMC,055056.2,A,3336.759151,N,11715.604531,W,61.9,321.6,190710,,,A*46
$GPRMC,055059.9,A,3336.807996,N,11715.650542,W,61.4,323.1,190710,,,A*48
$GPRMC,055102.9,A,3336.848823,N,11715.687201,W,60.5,322.8,190710,,,A*41
$GPRMC,055105.9,A,3336.887512,N,11715.724771,W,59.5,322.1,190710,,,A*43
$GPRMC,055108.0,A,3336.914892,N,11715.749500,W,59.6,321.8,190710,,,A*4F
$GPRMC,055111.9,A,3336.967949,N,11715.794669,W,60.5,322.9,190710,,,A*4A
$GPRMC,055114.9,A,3337.009480,N,11715.832611,W,61.3,322.3,190710,,,A*46
$GPRMC,055117.9,A,3337.048909,N,11715.869617,W,61.5,322.1,190710,,,A*40
$GPRMC,055120.9,A,3337.092351,N,11715.907625,W,63.3,322.4,190710,,,A*4D
$GPRMC,055123.9,A,3337.131796,N,11715.946349,W,62.1,321.9,190710,,,A*4E
$GPRMC,055127.2,A,3337.178463,N,11715.986100,W,62.8,323.0,190710,,,A*44
$GPRMC,055130.9,A,3337.229432,N,11716.035226,W,62.2,322.0,190710,,,A*44
$GPRMC,055133.9,A,3337.273051,N,11716.072560,W,62.9,323.4,190710,,,A*41
$GPRMC,055136.9,A,3337.314670,N,11716.110167,W,63.0,323.8,190710,,,A*43
$GPRMC,055140.2,A,3337.362751,N,11716.151309,W,63.5,324.0,190710,,,A*4F
$GPRMC,055143.2,A,3337.405957,N,11716.188088,W,63.0,324.6,190710,,,A*4F
$GPRMC,055146.9,A,3337.456922,N,11716.232667,W,61.5,325.0,190710,,,A*40
$GPRMC,055149.2,A,3337.488792,N,11716.258283,W,59.0,325.5,190710,,,A*4B
$GPRMC,055152.9,A,3337.539199,N,11716.298250,W,57.8,326.3,190710,,,A*4D
$GPRMC,055155.9,A,3337.579312,N,11716.331210,W,57.4,325.8,190710,,,A*4D
$GPRMC,055158.9,A,3337.619564,N,11716.361234,W,57.1,327.0,190710,,,A*4E
$GPRMC,055201.2,A,3337.651789,N,11716.385488,W,58.2,326.9,190710,,,A*48
$GPRMC,055204.0,A,3337.690116,N,11716.414406,W,58.3,326.8,190710,,,A*4B
$GPRMC,055207.2,A,3337.734469,N,11716.448324,W,59.0,327.9,190710,,,A*44
$GPRMC,055210.2,A,3337.776523,N,11716.482772,W,60.0,327.5,190710,,,A*4C
$GPRMC,055214.2,A,3337.834809,N,11716.525789,W,61.5,328.7,190710,,,A*45
$GPRMC,055217.2,A,3337.877374,N,11716.557856,W,60.9,328.5,190710,,,A*47
$GPRMC,055221.2,A,3337.935433,N,11716.600595,W,60.5,329.0,190710,,,A*4A
$GPRMC,055224.9,A,3337.989452,N,11716.639700,W,61.1,329.6,190710,,,A*43
$GPRMC,055227.9,A,3338.031881,N,11716.669629,W,60.1,329.8,190710,,,A*47
$GPRMC,055230.9,A,3338.076840,N,11716.698083,W,59.7,331.1,190710,,,A*4B
$GPRMC,055233.9,A,3338.118130,N,11716.726941,W,58.0,330.3,190710,,,A*49
$GPRMC,055236.9,A,3338.158315,N,11716.755031,W,57.1,329.7,190710,,,A*45
$GPRMC,055239.9,A,3338.202250,N,11716.782284,W,58.7,330.7,190710,,,A*41
$GPRMC,055242.9,A,3338.244055,N,11716.810138,W,57.2,330.6,190710,,,A*43
$GPRMC,055245.9,A,3338.285580,N,11716.838110,W,57.8,330.8,190710,,,A*40
$GPRMC,055248.9,A,3338.326261,N,11716.868248,W,56.8,329.7,190710,,,A*40
$GPRMC,055251.9,A,3338.368924,N,11716.897265,W,58.2,330.7,190710,,,A*4B
$GPRMC,055254.9,A,3338.408675,N,11716.922398,W,56.9,330.6,190710,,,A*4C
$GPRMC,055257.9,A,3338.451643,N,11716.952537,W,58.2,330.7,190710,,,A*46
$GPRMC,055300.9,A,3338.493568,N,11716.978483,W,57.2,331.1,190710,,,A*4F
$GPRMC,055303.9,A,3338.535216,N,11717.006842,W,57.0,330.6,190710,,,A*4B
$GPRMC,055306.9,A,3338.576645,N,11717.035370,W,57.1,329.9,190710,,,A*47
$GPRMC,055309.9,A,3338.618802,N,11717.063820,W,57.9,330.8,190710,,,A*42
$GPRMC,055312.9,A,3338.662347,N,11717.092608,W,57.8,330.3,190710,,,A*4F
$GPRMC,055315.9,A,3338.703456,N,11717.120596,W,57.9,329.9,190710,,,A*46
$GPRMC,055318.9,A,3338.744986,N,11717.149202,W,58.4,329.9,190710,,,A*4F
$GPRMC,055321.9,A,3338.788367,N,11717.178856,W,61.3,330.1,190710,,,A*44
$GPRMC,055324.9,A,3338.833270,N,11717.209730,W,61.2,330.3,190710,,,A*40
$GPRMC,055327.9,A,3338.878487,N,11717.241267,W,61.7,330.4,190710,,,A*4B
$GPRMC,055330.9,A,3338.923108,N,11717.273869,W,61.9,330.2,190710,,,A*4D
$GPRMC,055333.9,A,3338.967055,N,11717.303280,W,61.1,329.6,190710,,,A*48
$GPRMC,055336.9,A,3339.014154,N,11717.333642,W,62.3,330.2,190710,,,A*45
$GPRMC,055339.9,A,3339.058290,N,11717.362727,W,60.6,330.4,190710,,,A*4E
$GPRMC,055342.9,A,3339.101401,N,11717.392355,W,61.5,330.6,190710,,,A*4F
$GPRMC,055345.0,A,3339.131596,N,11717.411631,W,60.7,330.5,190710,,,A*46
$GPRMC,055348.9,A,3339.189631,N,11717.453051,W,60.5,329.7,190710,,,A*41
$GPRMC,055351.9,A,3339.234339,N,11717.483428,W,61.5,330.5,190710,,,A*4D
$GPRMC,055354.9,A,3339.280477,N,11717.512546,W,61.6,329.4,190710,,,A*40
$GPRMC,055357.2,A,3339.314069,N,11717.536524,W,61.5,329.2,190710,,,A*48
$GPRMC,055400.2,A,3339.357780,N,11717.569111,W,61.5,327.1,190710,,,A*4F
$GPRMC,055403.2,A,3339.401149,N,11717.602284,W,61.8,327.1,190710,,,A*47
$GPRMC,055406.2,A,3339.444455,N,11717.636590,W,62.0,325.5,190710,,,A*43
$GPRMC,055409.2,A,3339.486254,N,11717.670819,W,62.5,324.9,190710,,,A*43
$GPRMC,055412.2,A,3339.528111,N,11717.706215,W,62.3,323.7,190710,,,A*47
$GPRMC,055415.2,A,3339.569449,N,11717.743302,W,62.6,322.2,190710,,,A*4A
$GPRMC,055418.2,A,3339.610264,N,11717.780596,W,61.5,322.2,190710,,,A*47
$GPRMC,055421.2,A,3339.650375,N,11717.819216,W,62.0,320.9,190710,,,A*47
$GPRMC,055424.2,A,3339.691297,N,11717.858292,W,61.4,320.2,190710,,,A*47
$GPRMC,055428.2,A,3339.743135,N,11717.911628,W,61.5,319.3,190710,,,A*4D
$GPRMC,055431.2,A,3339.780566,N,11717.954457,W,61.3,317.3,190710,,,A*4B
$GPRMC,055434.2,A,3339.818098,N,11717.996035,W,60.6,316.7,190710,,,A*4B
$GPRMC,055437.2,A,3339.854630,N,11718.038637,W,60.8,315.7,190710,,,A*4F
$GPRMC,055440.2,A,3339.889695,N,11718.080971,W,60.6,313.9,190710,,,A*48
$GPRMC,055443.2,A,3339.923825,N,11718.124247,W,59.6,313.2,190710,,,A*4F
$GPRMC,055446.2,A,3339.958232,N,11718.169416,W,59.3,312.4,190710,,,A*43
$GPRMC,055449.2,A,3339.991836,N,11718.213375,W,58.9,311.1,190710,,,A*46
$GPRMC,055452.2,A,3340.024536,N,11718.258103,W,60.2,310.6,190710,,,A*42
$GPRMC,055455.2,A,3340.056980,N,11718.304583,W,60.8,309.3,190710,,,A*42
$GPRMC,055458.2,A,3340.088912,N,11718.352288,W,61.1,308.4,190710,,,A*46
$GPRMC,055501.2,A,3340.120506,N,11718.401230,W,61.6,307.0,190710,,,A*4F
$GPRMC,055504.2,A,3340.151579,N,11718.451112,W,62.5,306.0,190710,,,A*43
$GPRMC,055507.2,A,3340.182368,N,11718.501767,W,62.2,305.0,190710,,,A*4C
$GPRMC,055510.2,A,3340.211698,N,11718.553082,W,62.6,304.2,190710,,,A*45
$GPRMC,055513.2,A,3340.240959,N,11718.605370,W,62.6,302.9,190710,,,A*43
$GPRMC,055516.2,A,3340.269089,N,11718.657631,W,62.7,302.1,190710,,,A*47
$GPRMC,055519.2,A,3340.296076,N,11718.710840,W,62.5,300.7,190710,,,A*44
$GPRMC,055522.2,A,3340.322596,N,11718.764935,W,62.6,299.9,190710,,,A*45
$GPRMC,055525.2,A,3340.348686,N,11718.819917,W,63.5,299.2,190710,,,A*40
$GPRMC,055528.9,A,3340.378946,N,11718.888072,W,63.7,298.5,190710,,,A*40
$GPRMC,055532.2,A,3340.404531,N,11718.949392,W,62.9,295.2,190710,,,A*44
$GPRMC,055535.0,A,3340.424792,N,11719.000781,W,63.1,295.5,190710,,,A*45
$GPRMC,055538.2,A,3340.448496,N,11719.062859,W,63.0,295.2,190710,,,A*4F
$GPRMC,055541.9,A,3340.478721,N,11719.132096,W,64.3,297.7,190710,,,A*4A
$GPRMC,055544.2,A,3340.498859,N,11719.175458,W,63.4,299.9,190710,,,A*4F
$GPRMC,055547.2,A,3340.526830,N,11719.228798,W,63.1,303.4,190710,,,A*49
$GPRMC,055550.2,A,3340.556384,N,11719.280528,W,62.9,305.4,190710,,,A*48
$GPRMC,055553.2,A,3340.586390,N,11719.328758,W,62.9,307.9,190710,,,A*4A
$GPRMC,055556.2,A,3340.620306,N,11719.378039,W,62.8,310.3,190710,,,A*47
$GPRMC,055559.2,A,3340.655322,N,11719.424391,W,62.6,313.2,190710,,,A*4F
$GPRMC,055602.2,A,3340.692112,N,11719.469179,W,62.7,314.9,190710,,,A*48
$GPRMC,055605.2,A,3340.729173,N,11719.511521,W,61.8,317.8,190710,,,A*40
$GPRMC,055608.2,A,3340.769344,N,11719.552356,W,62.4,321.1,190710,,,A*4D
$GPRMC,055611.2,A,3340.810429,N,11719.590548,W,62.1,322.4,190710,,,A*4C
$GPRMC,055614.2,A,3340.851568,N,11719.628169,W,60.9,322.7,190710,,,A*46
$GPRMC,055617.0,A,3340.889192,N,11719.662610,W,61.5,322.8,190710,,,A*46
$GPRMC,055620.2,A,3340.932478,N,11719.702999,W,61.0,322.1,190710,,,A*45
$GPRMC,055623.2,A,3340.973571,N,11719.740022,W,61.2,323.2,190710,,,A*44
$GPRMC,055626.2,A,3341.014738,N,11719.777149,W,61.6,322.9,190710,,,A*41
$GPRMC,055629.2,A,3341.054881,N,11719.814296,W,60.8,322.2,190710,,,A*48
$GPRMC,055632.2,A,3341.095237,N,11719.849894,W,60.3,323.2,190710,,,A*42
$GPRMC,055635.2,A,3341.136488,N,11719.887939,W,61.4,322.5,190710,,,A*4B
$GPRMC,055638.2,A,3341.178362,N,11719.926122,W,61.0,322.6,190710,,,A*40
$GPRMC,055641.2,A,3341.218756,N,11719.961362,W,60.4,322.9,190710,,,A*47
$GPRMC,055644.2,A,3341.260205,N,11720.000358,W,61.6,322.2,190710,,,A*4B
$GPRMC,055647.2,A,3341.300897,N,11720.037729,W,61.7,322.6,190710,,,A*4D
$GPRMC,055650.2,A,3341.340224,N,11720.072917,W,60.6,323.3,190710,,,A*4B
$GPRMC,055653.2,A,3341.382123,N,11720.110720,W,61.8,323.0,190710,,,A*41
$GPRMC,055656.2,A,3341.422209,N,11720.146239,W,61.1,323.5,190710,,,A*40
$GPRMC,055659.2,A,3341.462494,N,11720.182678,W,61.0,322.7,190710,,,A*42
$GPRMC,055702.2,A,3341.503829,N,11720.222666,W,61.3,321.1,190710,,,A*41
$GPRMC,055705.0,A,3341.540219,N,11720.260150,W,61.8,319.6,190710,,,A*49
$GPRMC,055708.2,A,3341.582834,N,11720.302751,W,61.1,318.3,190710,,,A*42
$GPRMC,055711.2,A,3341.619529,N,11720.344588,W,61.8,315.8,190710,,,A*41
$GPRMC,055714.2,A,3341.655813,N,11720.389226,W,62.5,313.8,190710,,,A*42
$GPRMC,055717.2,A,3341.691577,N,11720.435292,W,62.5,312.4,190710,,,A*44
$GPRMC,055720.2,A,3341.725576,N,11720.482304,W,62.3,310.4,190710,,,A*49
$GPRMC,055724.2,A,3341.771031,N,11720.547386,W,62.7,309.3,190710,,,A*43
$GPRMC,055727.2,A,3341.802709,N,11720.595656,W,61.9,308.8,190710,,,A*47
$GPRMC,055730.2,A,3341.834085,N,11720.643821,W,60.8,308.4,190710,,,A*4D
$GPRMC,055733.2,A,3341.865526,N,11720.692307,W,61.4,308.5,190710,,,A*49
$GPRMC,055736.2,A,3341.896710,N,11720.740133,W,61.4,308.4,190710,,,A*4D
$GPRMC,055739.2,A,3341.928360,N,11720.788495,W,61.8,308.1,190710,,,A*41
$GPRMC,055742.2,A,3341.960093,N,11720.836187,W,61.1,308.6,190710,,,A*4C
$GPRMC,055745.2,A,3341.993287,N,11720.883396,W,61.4,308.8,190710,,,A*47
$GPRMC,055749.2,A,3342.037368,N,11720.947076,W,61.0,308.1,190710,,,A*46
$GPRMC,055752.2,A,3342.068910,N,11720.995062,W,61.4,308.6,190710,,,A*4A
$GPRMC,055755.2,A,3342.101224,N,11721.042639,W,61.6,308.7,190710,,,A*46
$GPRMC,055759.2,A,3342.144360,N,11721.105966,W,62.6,309.4,190710,,,A*4C
$GPRMC,055802.9,A,3342.183533,N,11721.166570,W,62.3,308.7,190710,,,A*44
$GPRMC,055805.9,A,3342.215634,N,11721.214812,W,61.8,309.1,190710,,,A*4B
$GPRMC,055808.9,A,3342.249384,N,11721.262272,W,61.8,309.2,190710,,,A*4F
$GPRMC,055811.9,A,3342.283011,N,11721.311488,W,63.2,311.3,190710,,,A*48
$GPRMC,055814.2,A,3342.311601,N,11721.345624,W,63.0,314.8,190710,,,A*42
$GPRMC,055817.0,A,3342.344125,N,11721.384664,W,61.6,317.7,190710,,,A*43
$GPRMC,055820.2,A,3342.387484,N,11721.425984,W,60.8,322.3,190710,,,A*44
$GPRMC,055823.2,A,3342.429220,N,11721.462405,W,61.8,324.5,190710,,,A*4A
$GPRMC,055826.2,A,3342.471988,N,11721.497070,W,61.0,328.4,190710,,,A*42
$GPRMC,055829.2,A,3342.516755,N,11721.526013,W,60.5,333.1,190710,,,A*46
$GPRMC,055832.2,A,3342.562447,N,11721.550658,W,61.0,337.2,190710,,,A*44
$GPRMC,055835.9,A,3342.622273,N,11721.578795,W,62.1,339.2,190710,,,A*48
$GPRMC,055838.2,A,3342.660041,N,11721.592530,W,61.8,343.7,190710,,,A*40
$GPRMC,055841.9,A,3342.721772,N,11721.610555,W,63.3,348.3,190710,,,A*4A
$GPRMC,055844.2,A,3342.761785,N,11721.620972,W,62.8,346.8,190710,,,A*4D
$GPRMC,055847.2,A,3342.813112,N,11721.635233,W,62.5,345.6,190710,,,A*46
$GPRMC,055851.2,A,3342.879290,N,11721.656284,W,61.4,343.7,190710,,,A*48
$GPRMC,055854.9,A,3342.940147,N,11721.680661,W,63.2,340.7,190710,,,A*47
$GPRMC,055857.2,A,3342.978284,N,11721.700240,W,63.5,338.4,190710,,,A*4D
$GPRMC,055900.2,A,3343.025139,N,11721.724314,W,61.8,335.4,190710,,,A*4F
$GPRMC,055903.2,A,3343.070601,N,11721.751878,W,61.3,333.3,190710,,,A*49
$GPRMC,055906.2,A,3343.114902,N,11721.782760,W,61.7,330.3,190710,,,A*4C
$GPRMC,055909.2,A,3343.158973,N,11721.816229,W,61.5,328.0,190710,,,A*4F
$GPRMC,055912.2,A,3343.201314,N,11721.849802,W,60.9,325.4,190710,,,A*4C
$GPRMC,055915.2,A,3343.243498,N,11721.885927,W,61.4,323.0,190710,,,A*46
$GPRMC,055918.2,A,3343.283387,N,11721.924734,W,61.7,319.9,190710,,,A*4B
$GPRMC,055921.2,A,3343.322619,N,11721.965427,W,62.5,317.9,190710,,,A*42
$GPRMC,055924.2,A,3343.360756,N,11722.008592,W,62.1,315.4,190710,,,A*4E
$GPRMC,055927.2,A,3343.396972,N,11722.055117,W,61.9,312.6,190710,,,A*43
$GPRMC,055930.2,A,3343.430359,N,11722.101276,W,61.7,310.4,190710,,,A*47
$GPRMC,055933.2,A,3343.461581,N,11722.148464,W,62.0,307.2,190710,,,A*4F
$GPRMC,055936.2,A,3343.491258,N,11722.199244,W,62.1,304.5,190710,,,A*4B
$GPRMC,055939.2,A,3343.519497,N,11722.251235,W,62.7,302.0,190710,,,A*44
$GPRMC,055942.2,A,3343.545965,N,11722.304485,W,61.8,299.6,190710,,,A*44
$GPRMC,055945.2,A,3343.569339,N,11722.358676,W,61.8,297.3,190710,,,A*42
$GPRMC,055948.2,A,3343.591480,N,11722.414083,W,62.0,294.4,190710,,,A*41
$GPRMC,055951.2,A,3343.611356,N,11722.470581,W,61.4,291.4,190710,,,A*49
$GPRMC,055954.2,A,3343.629763,N,11722.528861,W,62.0,289.8,190710,,,A*48
$GPRMC,055957.2,A,3343.645606,N,11722.588139,W,62.4,286.5,190710,,,A*4B
