NMEA Sentence Code,UTC Time,Status,Latitude,Latitude Direction,Longitude,Longitude Direction,Speed (knots),Track Angle (degrees true),Date,MagneticVariation,Magnetic Variation Direction,[FAA Mode]-Optional,Checksum
$GPRMC,181017.0,A,3305.654717,N,11718.615222,W,28.1,207.3,310710,,,A*46
$GPRMC,181020.0,A,3305.633124,N,11718.625718,W,27.7,199.8,310710,,,A*4C
$GPRMC,181023.0,A,3305.611788,N,11718.636148,W,27.4,206.1,310710,,,A*41
$GPRMC,181026.0,A,3305.591787,N,11718.651055,W,28.3,218.5,310710,,,A*4F
$GPRMC,181029.0,A,3305.574932,N,11718.671347,W,28.3,231.2,310710,,,A*45
$GPRMC,181032.0,A,3305.561658,N,11718.693782,W,26.7,236.9,310710,,,A*4F
$GPRMC,181035.0,A,3305.549392,N,11718.716066,W,26.6,236.7,310710,,,A*4F
$GPRMC,181038.0,A,3305.537686,N,11718.738748,W,26.2,241.4,310710,,,A*4B
$GPRMC,181041.0,A,3305.530990,N,11718.755631,W,12.3,246.6,310710,,,A*4D
$GPRMC,181044.0,A,3305.526831,N,11718.769712,W,18.2,251.6,310710,,,A*47
$GPRMC,181047.0,A,3305.520959,N,11718.788768,W,23.1,250.2,310710,,,A*41
$GPRMC,181050.0,A,3305.513871,N,11718.812475,W,26.1,251.8,310710,,,A*41
$GPRMC,181053.0,A,3305.507841,N,11718.835081,W,21.0,251.9,310710,,,A*49
$GPRMC,181056.0,A,3305.503727,N,11718.849449,W,10.6,247.3,310710,,,A*45
$GPRMC,181059.0,A,3305.497146,N,11718.854483,W,11.3,182.0,310710,,,A*40
$GPRMC,181102.0,A,3305.483022,N,11718.849394,W,18.9,162.3,310710,,,A*4A
$GPRMC,181105.0,A,3305.466858,N,11718.842489,W,22.4,162.5,310710,,,A*41
$GPRMC,181108.0,A,3305.446689,N,11718.834799,W,27.0,162.2,310710,,,A*49
$GPRMC,181111.0,A,3305.423688,N,11718.825168,W,29.9,162.2,310710,,,A*4C
$GPRMC,181114.0,A,3305.398465,N,11718.815336,W,32.2,162.5,310710,,,A*43
$GPRMC,181117.0,A,3305.372459,N,11718.805273,W,32.6,162.4,310710,,,A*4F
$GPRMC,181120.0,A,3305.345772,N,11718.795497,W,33.9,162.8,310710,,,A*4D
$GPRMC,181123.0,A,3305.317915,N,11718.784920,W,35.7,162.0,310710,,,A*47
$GPRMC,181126.0,A,3305.289797,N,11718.773846,W,34.9,161.9,310710,,,A*4C
$GPRMC,181129.0,A,3305.262731,N,11718.763753,W,32.9,163.0,310710,,,A*4D
$GPRMC,181132.0,A,3305.237125,N,11718.754253,W,32.0,162.9,310710,,,A*44
$GPRMC,181135.0,A,3305.211250,N,11718.744300,W,32.9,162.0,310710,,,A*40
$GPRMC,181138.0,A,3305.184311,N,11718.733613,W,34.8,160.8,310710,,,A*4C
$GPRMC,181141.0,A,3305.156669,N,11718.722061,W,34.6,158.8,310710,,,A*41
$GPRMC,181144.0,A,3305.130977,N,11718.708090,W,33.5,153.0,310710,,,A*45
$GPRMC,181147.0,A,3305.106779,N,11718.691504,W,33.4,148.1,310710,,,A*40
$GPRMC,181150.0,A,3305.084450,N,11718.672956,W,32.1,142.5,310710,,,A*49
$GPRMC,181153.0,A,3305.063373,N,11718.652528,W,33.6,139.5,310710,,,A*48
$GPRMC,181156.0,A,3305.041964,N,11718.629691,W,34.7,137.6,310710,,,A*47
$GPRMC,181159.0,A,3305.021362,N,11718.606657,W,32.3,136.4,310710,,,A*44
$GPRMC,181202.0,A,3305.003428,N,11718.586003,W,28.4,136.2,310710,,,A*46
$GPRMC,181205.0,A,3304.988328,N,11718.568506,W,22.4,135.6,310710,,,A*40
$GPRMC,181208.0,A,3304.979942,N,11718.557578,W,10.8,130.1,310710,,,A*4F
$GPRMC,181211.0,A,3304.975677,N,11718.551462,W,5.9,134.8,310710,,,A*76
$GPRMC,181214.0,A,3304.972147,N,11718.547706,W,8.0,138.0,310710,,,A*76
$GPRMC,181217.0,A,3304.964628,N,11718.540273,W,13.0,141.4,310710,,,A*4C
$GPRMC,181220.0,A,3304.956986,N,11718.532699,W,10.2,135.8,310710,,,A*49
$GPRMC,181223.0,A,3304.953677,N,11718.526111,W,9.6,102.3,310710,,,A*7F
$GPRMC,181226.0,A,3304.956396,N,11718.514684,W,15.0,56.2,310710,,,A*75
$GPRMC,181229.0,A,3304.964993,N,11718.500965,W,18.7,53.8,310710,,,A*74
$GPRMC,181232.0,A,3304.974199,N,11718.486079,W,18.6,54.3,310710,,,A*7B
$GPRMC,181235.0,A,3304.984111,N,11718.470111,W,20.6,56.6,310710,,,A*79
$GPRMC,181238.0,A,3304.993775,N,11718.450457,W,25.1,64.5,310710,,,A*73
$GPRMC,181241.0,A,3305.002176,N,11718.424708,W,29.9,71.8,310710,,,A*7F
$GPRMC,181244.0,A,3305.009865,N,11718.395735,W,30.5,72.6,310710,,,A*70
$GPRMC,181247.0,A,3305.017744,N,11718.366340,W,31.4,72.2,310710,,,A*7E
$GPRMC,181250.0,A,3305.026102,N,11718.336431,W,31.3,72.0,310710,,,A*7F
$GPRMC,181253.0,A,3305.033802,N,11718.306835,W,30.9,73.6,310710,,,A*76
$GPRMC,181256.0,A,3305.039557,N,11718.277339,W,29.6,82.1,310710,,,A*7A
$GPRMC,181259.0,A,3305.041896,N,11718.247566,W,30.6,86.3,310710,,,A*7B
$GPRMC,181302.0,A,3305.042080,N,11718.216768,W,31.3,90.8,310710,,,A*78
$GPRMC,181305.0,A,3305.042049,N,11718.185260,W,31.3,90.0,310710,,,A*76
$GPRMC,181308.0,A,3305.042160,N,11718.154854,W,30.3,90.1,310710,,,A*70
$GPRMC,181311.0,A,3305.042334,N,11718.124443,W,31.0,90.4,310710,,,A*71
$GPRMC,181314.0,A,3305.042193,N,11718.093056,W,32.0,90.5,310710,,,A*74
$GPRMC,181317.0,A,3305.042067,N,11718.060794,W,32.9,90.3,310710,,,A*77
$GPRMC,181320.0,A,3305.042044,N,11718.027738,W,33.2,90.5,310710,,,A*7B
$GPRMC,181323.0,A,3305.041795,N,11717.995471,W,32.1,90.8,310710,,,A*7E
$GPRMC,181326.0,A,3305.041240,N,11717.964335,W,30.6,92.6,310710,,,A*76
$GPRMC,181329.0,A,3305.041712,N,11717.933009,W,32.6,86.3,310710,,,A*77
$GPRMC,181332.0,A,3305.045067,N,11717.899947,W,33.9,81.2,310710,,,A*76
$GPRMC,181335.0,A,3305.050000,N,11717.869088,W,28.1,77.4,310710,,,A*7C
$GPRMC,181338.0,A,3305.055568,N,11717.843027,W,26.6,75.0,310710,,,A*7D
$GPRMC,181341.0,A,3305.060579,N,11717.820210,W,18.4,77.6,310710,,,A*7D
$GPRMC,181344.0,A,3305.063340,N,11717.811384,W,4.6,57.4,310710,,,A*46
$GPRMC,181432.0,A,3305.068166,N,11717.806405,W,10.1,77.3,310710,,,A*72
$GPRMC,181435.0,A,3305.072232,N,11717.792671,W,15.7,67.8,310710,,,A*76
$GPRMC,181438.0,A,3305.075264,N,11717.780480,W,11.6,90.3,310710,,,A*76
$GPRMC,181441.0,A,3305.068075,N,11717.773308,W,12.5,168.6,310710,,,A*4E
$GPRMC,181444.0,A,3305.052367,N,11717.775028,W,22.1,193.2,310710,,,A*42
$GPRMC,181447.0,A,3305.031805,N,11717.784015,W,28.3,202.5,310710,,,A*4F
$GPRMC,181450.0,A,3305.008201,N,11717.795824,W,31.0,201.7,310710,,,A*4D
$GPRMC,181453.0,A,3304.983133,N,11717.806118,W,31.9,194.4,310710,,,A*41
$GPRMC,181456.0,A,3304.956544,N,11717.811047,W,32.4,184.4,310710,,,A*4A
$GPRMC,181459.0,A,3304.929180,N,11717.810967,W,33.2,175.0,310710,,,A*46
$GPRMC,181502.0,A,3304.901057,N,11717.805248,W,33.8,166.4,310710,,,A*46
$GPRMC,181505.0,A,3304.873892,N,11717.796639,W,32.8,164.3,310710,,,A*47
$GPRMC,181508.0,A,3304.847914,N,11717.788411,W,31.4,165.8,310710,,,A*40
$GPRMC,181511.0,A,3304.822764,N,11717.780757,W,30.4,165.4,310710,,,A*46
$GPRMC,181514.0,A,3304.797920,N,11717.772997,W,30.6,165.7,310710,,,A*42
$GPRMC,181517.0,A,3304.772399,N,11717.765408,W,31.6,165.4,310710,,,A*4D
$GPRMC,181520.0,A,3304.745732,N,11717.757034,W,33.5,165.2,310710,,,A*45
$GPRMC,181523.0,A,3304.716951,N,11717.748273,W,36.2,165.4,310710,,,A*40
$GPRMC,181526.0,A,3304.687206,N,11717.739417,W,36.5,165.8,310710,,,A*4C
$GPRMC,181529.0,A,3304.657637,N,11717.730525,W,36.3,165.7,310710,,,A*48
$GPRMC,181532.0,A,3304.628151,N,11717.721624,W,36.0,165.4,310710,,,A*4F
$GPRMC,181535.0,A,3304.599060,N,11717.712481,W,35.7,165.2,310710,,,A*4D
$GPRMC,181538.0,A,3304.569873,N,11717.702644,W,35.8,163.4,310710,,,A*40
$GPRMC,181541.0,A,3304.541708,N,11717.692555,W,34.4,163.3,310710,,,A*46
$GPRMC,181544.0,A,3304.515101,N,11717.682940,W,32.4,163.2,310710,,,A*43
$GPRMC,181547.0,A,3304.489296,N,11717.673872,W,32.2,163.9,310710,,,A*4A
$GPRMC,181550.0,A,3304.462343,N,11717.666137,W,33.9,168.8,310710,,,A*4C
$GPRMC,181553.0,A,3304.433372,N,11717.660349,W,36.0,171.3,310710,,,A*4B
$GPRMC,181556.0,A,3304.402524,N,11717.654530,W,37.9,170.1,310710,,,A*4D
$GPRMC,181559.0,A,3304.371029,N,11717.647374,W,38.6,167.0,310710,,,A*4A
$GPRMC,181602.0,A,3304.339783,N,11717.637698,W,38.1,164.6,310710,,,A*4E
$GPRMC,181605.0,A,3304.308562,N,11717.627634,W,38.6,164.6,310710,,,A*46
$GPRMC,181608.0,A,3304.276752,N,11717.617450,W,39.8,164.6,310710,,,A*4E
$GPRMC,181611.0,A,3304.244420,N,11717.607040,W,39.8,164.6,310710,,,A*45
$GPRMC,181614.0,A,3304.213033,N,11717.596755,W,37.2,164.4,310710,,,A*4A
$GPRMC,181617.0,A,3304.184807,N,11717.587441,W,33.1,164.7,310710,,,A*49
$GPRMC,181620.0,A,3304.158517,N,11717.578525,W,32.1,162.9,310710,,,A*4A
$GPRMC,181623.0,A,3304.130834,N,11717.569437,W,35.5,164.7,310710,,,A*42
$GPRMC,181626.0,A,3304.101924,N,11717.560264,W,35.2,165.0,310710,,,A*4D
$GPRMC,181629.0,A,3304.072888,N,11717.551237,W,36.7,164.8,310710,,,A*4B
$GPRMC,181632.0,A,3304.043478,N,11717.541852,W,34.7,164.6,310710,,,A*44
$GPRMC,181635.0,A,3304.016612,N,11717.532714,W,33.0,162.5,310710,,,A*41
$GPRMC,181638.0,A,3303.991663,N,11717.522264,W,29.9,158.1,310710,,,A*47
$GPRMC,181641.0,A,3303.970538,N,11717.511401,W,25.0,155.0,310710,,,A*47
$GPRMC,181644.0,A,3303.955551,N,11717.502967,W,15.0,154.8,310710,,,A*4F
$GPRMC,181656.0,A,3303.945080,N,11717.501413,W,7.0,196.4,310710,,,A*78
$GPRMC,181659.0,A,3303.941444,N,11717.508841,W,11.2,266.5,310710,,,A*45
$GPRMC,181702.0,A,3303.947904,N,11717.519130,W,14.9,330.3,310710,,,A*40
$GPRMC,181705.0,A,3303.963185,N,11717.526126,W,22.6,340.3,310710,,,A*46
$GPRMC,181708.0,A,3303.984597,N,11717.534650,W,29.1,341.3,310710,,,A*4D
$GPRMC,181711.0,A,3304.011058,N,11717.545191,W,35.7,341.0,310710,,,A*45
$GPRMC,181714.0,A,3304.042175,N,11717.557448,W,41.0,342.2,310710,,,A*4F
$GPRMC,181717.0,A,3304.076872,N,11717.569885,W,44.3,344.1,310710,,,A*46
$GPRMC,181720.0,A,3304.112641,N,11717.581487,W,44.8,345.4,310710,,,A*48
$GPRMC,181723.0,A,3304.150704,N,11717.593647,W,47.9,345.1,310710,,,A*47
$GPRMC,181726.0,A,3304.190347,N,11717.605979,W,49.8,345.5,310710,,,A*48
$GPRMC,181729.0,A,3304.231482,N,11717.618798,W,50.9,345.7,310710,,,A*47
$GPRMC,181732.0,A,3304.272598,N,11717.631300,W,49.7,345.9,310710,,,A*46
$GPRMC,181735.0,A,3304.313249,N,11717.643572,W,49.9,345.7,310710,,,A*4A
$GPRMC,181738.0,A,3304.354048,N,11717.655978,W,50.7,345.8,310710,,,A*4F
$GPRMC,181741.0,A,3304.394995,N,11717.668526,W,50.4,345.6,310710,,,A*40
$GPRMC,181744.0,A,3304.436126,N,11717.681009,W,50.6,345.7,310710,,,A*46
$GPRMC,181747.0,A,3304.477382,N,11717.693571,W,51.2,345.7,310710,,,A*40
$GPRMC,181750.0,A,3304.519195,N,11717.706225,W,51.2,346.0,310710,,,A*44
$GPRMC,181753.0,A,3304.560979,N,11717.718808,W,51.3,346.0,310710,,,A*48
$GPRMC,181756.0,A,3304.602691,N,11717.731360,W,51.2,345.8,310710,,,A*47
$GPRMC,181759.0,A,3304.644933,N,11717.744099,W,52.8,346.3,310710,,,A*4B
$GPRMC,181802.0,A,3304.687570,N,11717.756853,W,52.1,346.0,310710,,,A*49
$GPRMC,181805.0,A,3304.729488,N,11717.769582,W,51.2,345.9,310710,,,A*4A
$GPRMC,181808.0,A,3304.771041,N,11717.781963,W,51.1,346.0,310710,,,A*47
$GPRMC,181811.0,A,3304.812283,N,11717.794164,W,50.6,345.9,310710,,,A*4E
$GPRMC,181814.0,A,3304.852257,N,11717.806415,W,49.4,346.9,310710,,,A*48
$GPRMC,181817.0,A,3304.893021,N,11717.815986,W,49.2,350.3,310710,,,A*4B
$GPRMC,181820.0,A,3304.933176,N,11717.824128,W,47.8,350.2,310710,,,A*4C
$GPRMC,181823.0,A,3304.971000,N,11717.831843,W,43.5,350.7,310710,,,A*45
$GPRMC,181826.0,A,3305.004092,N,11717.837571,W,37.5,353.1,310710,,,A*4D
$GPRMC,181829.0,A,3305.034264,N,11717.842062,W,32.9,354.3,310710,,,A*43
$GPRMC,181832.0,A,3305.053730,N,11717.844546,W,17.1,353.3,310710,,,A*41
$GPRMC,181835.0,A,3305.063484,N,11717.849666,W,13.5,313.6,310710,,,A*44
$GPRMC,181838.0,A,3305.063569,N,11717.866222,W,20.1,261.7,310710,,,A*43
$GPRMC,181841.0,A,3305.058029,N,11717.890528,W,26.9,256.3,310710,,,A*4E
$GPRMC,181844.0,A,3305.052927,N,11717.913169,W,18.7,259.4,310710,,,A*46
$GPRMC,181847.0,A,3305.051072,N,11717.923735,W,5.2,258.4,310710,,,A*7B
$GPRMC,181947.0,A,3305.039203,N,11717.930932,W,12.8,169.9,310710,,,A*4B
$GPRMC,181950.0,A,3305.026346,N,11717.923971,W,20.4,150.2,310710,,,A*4A
$GPRMC,181953.0,A,3305.007104,N,11717.911620,W,29.3,150.9,310710,,,A*41
$GPRMC,181956.0,A,3304.981400,N,11717.895527,W,37.8,152.2,310710,,,A*47
$GPRMC,181959.0,A,3304.950343,N,11717.877145,W,44.4,154.4,310710,,,A*40
$GPRMC,182002.0,A,3304.913992,N,11717.858220,W,48.8,158.3,310710,,,A*43
$GPRMC,182005.0,A,3304.874418,N,11717.841931,W,50.5,162.9,310710,,,A*4F
$GPRMC,182008.0,A,3304.832842,N,11717.827749,W,52.2,164.4,310710,,,A*4C
$GPRMC,182011.0,A,3304.790125,N,11717.813894,W,52.7,165.0,310710,,,A*43
$GPRMC,182014.0,A,3304.748242,N,11717.800818,W,50.9,165.3,310710,,,A*48
$GPRMC,182017.0,A,3304.706565,N,11717.787953,W,51.5,165.4,310710,,,A*47
$GPRMC,182020.0,A,3304.664396,N,11717.774852,W,52.5,165.6,310710,,,A*41
$GPRMC,182023.0,A,3304.620866,N,11717.761887,W,53.9,165.7,310710,,,A*46
$GPRMC,182026.0,A,3304.576067,N,11717.748439,W,56.0,165.7,310710,,,A*44
$GPRMC,182029.0,A,3304.529721,N,11717.734700,W,57.6,165.9,310710,,,A*4F
$GPRMC,182032.0,A,3304.483133,N,11717.720643,W,56.7,165.6,310710,,,A*4D
$GPRMC,182035.0,A,3304.437531,N,11717.706853,W,55.5,165.8,310710,,,A*47
$GPRMC,182038.0,A,3304.392712,N,11717.693471,W,54.7,165.8,310710,,,A*43
$GPRMC,182041.0,A,3304.348377,N,11717.680113,W,54.6,165.7,310710,,,A*40
$GPRMC,182044.0,A,3304.303671,N,11717.666686,W,55.2,165.9,310710,,,A*41
$GPRMC,182047.0,A,3304.258916,N,11717.653263,W,55.0,165.8,310710,,,A*49
$GPRMC,182050.0,A,3304.214182,N,11717.639684,W,54.7,165.6,310710,,,A*4B
$GPRMC,182053.0,A,3304.169803,N,11717.626337,W,54.6,165.8,310710,,,A*4D
$GPRMC,182056.0,A,3304.125544,N,11717.613165,W,54.4,165.8,310710,,,A*4F
$GPRMC,182059.0,A,3304.081410,N,11717.599838,W,54.4,165.6,310710,,,A*41
$GPRMC,182102.0,A,3304.036694,N,11717.586285,W,55.9,165.8,310710,,,A*4C
$GPRMC,182105.0,A,3303.990903,N,11717.572449,W,57.1,165.8,310710,,,A*4F
$GPRMC,182108.0,A,3303.943954,N,11717.558157,W,58.4,165.6,310710,,,A*48
$GPRMC,182111.0,A,3303.897336,N,11717.544799,W,56.8,169.6,310710,,,A*41
$GPRMC,182114.0,A,3303.851053,N,11717.531205,W,56.6,165.7,310710,,,A*4F
$GPRMC,182117.0,A,3303.805006,N,11717.517159,W,56.3,165.8,310710,,,A*49
$GPRMC,182120.0,A,3303.759080,N,11717.503098,W,56.2,165.7,310710,,,A*42
$GPRMC,182123.0,A,3303.714049,N,11717.489559,W,54.9,165.7,310710,,,A*4F
$GPRMC,182126.0,A,3303.669453,N,11717.476031,W,55.0,165.7,310710,,,A*4D
$GPRMC,182129.0,A,3303.625162,N,11717.462527,W,54.6,165.7,310710,,,A*4D
$GPRMC,182132.0,A,3303.581011,N,11717.449165,W,54.1,165.8,310710,,,A*4C
$GPRMC,182135.0,A,3303.536787,N,11717.435772,W,54.8,165.6,310710,,,A*43
$GPRMC,182138.0,A,3303.492151,N,11717.422299,W,55.2,165.8,310710,,,A*4F
$GPRMC,182141.0,A,3303.447213,N,11717.408771,W,55.4,166.0,310710,,,A*4A
$GPRMC,182144.0,A,3303.401757,N,11717.395217,W,55.9,165.7,310710,,,A*47
$GPRMC,182147.0,A,3303.356751,N,11717.381649,W,54.9,165.8,310710,,,A*43
$GPRMC,182150.0,A,3303.312822,N,11717.368568,W,53.3,166.2,310710,,,A*4D
$GPRMC,182153.0,A,3303.270300,N,11717.355683,W,51.7,165.7,310710,,,A*48
$GPRMC,182156.0,A,3303.229036,N,11717.343191,W,50.3,165.6,310710,,,A*40
$GPRMC,182159.0,A,3303.189007,N,11717.331151,W,49.0,165.9,310710,,,A*49
$GPRMC,182202.0,A,3303.151059,N,11717.320223,W,43.6,167.6,310710,,,A*4D
$GPRMC,182205.0,A,3303.118619,N,11717.312423,W,37.4,169.7,310710,,,A*4C
$GPRMC,182208.0,A,3303.090219,N,11717.307187,W,33.4,170.8,310710,,,A*48
$GPRMC,182211.0,A,3303.063009,N,11717.302007,W,32.8,170.9,310710,,,A*4F
$GPRMC,182214.0,A,3303.036953,N,11717.297501,W,30.0,172.8,310710,,,A*4B
$GPRMC,182217.0,A,3303.014073,N,11717.295208,W,26.0,176.5,310710,,,A*41
$GPRMC,182220.0,A,3302.994635,N,11717.294313,W,21.3,178.1,310710,,,A*45
$GPRMC,182223.0,A,3302.980076,N,11717.293971,W,14.6,178.6,310710,,,A*4F
$GPRMC,182226.0,A,3302.970038,N,11717.293543,W,9.9,178.1,310710,,,A*76
$GPRMC,182302.0,A,3302.957998,N,11717.294313,W,10.9,177.0,310710,,,A*45
$GPRMC,182305.0,A,3302.947668,N,11717.293755,W,13.3,178.3,310710,,,A*47
$GPRMC,182308.0,A,3302.934741,N,11717.293242,W,16.2,178.4,310710,,,A*44
$GPRMC,182311.0,A,3302.923078,N,11717.293317,W,12.7,177.2,310710,,,A*4E
$GPRMC,182314.0,A,3302.914345,N,11717.292613,W,9.7,175.4,310710,,,A*7C
$GPRMC,182317.0,A,3302.906487,N,11717.289103,W,11.8,143.2,310710,,,A*4C
$GPRMC,182320.0,A,3302.904073,N,11717.276122,W,16.8,96.7,310710,,,A*7D
$GPRMC,182323.0,A,3302.902748,N,11717.256066,W,22.3,95.2,310710,,,A*7E
$GPRMC,182326.0,A,3302.901355,N,11717.236080,W,18.3,94.3,310710,,,A*77
$GPRMC,182329.0,A,3302.900367,N,11717.226847,W,7.9,94.1,310710,,,A*4C
$GPRMC,182353.0,A,3302.900047,N,11717.199936,W,4.9,94.5,310710,,,A*47
$GPRMC,182356.0,A,3302.898375,N,11717.204462,W,15.8,96.3,310710,,,A*7E
$GPRMC,182359.0,A,3302.897417,N,11717.187906,W,20.1,95.3,310710,,,A*76
$GPRMC,182402.0,A,3302.896723,N,11717.168242,W,21.1,96.1,310710,,,A*70
$GPRMC,182405.0,A,3302.894714,N,11717.148055,W,19.6,97.2,310710,,,A*79
$GPRMC,182408.0,A,3302.892710,N,11717.127431,W,22.7,96.5,310710,,,A*76
$GPRMC,182411.0,A,3302.890210,N,11717.103779,W,24.7,95.9,310710,,,A*79
$GPRMC,182414.0,A,3302.887065,N,11717.078849,W,27.1,102.7,310710,,,A*4F
$GPRMC,182417.0,A,3302.879536,N,11717.050978,W,31.4,113.5,310710,,,A*47
$GPRMC,182420.0,A,3302.866307,N,11717.022930,W,33.0,123.0,310710,,,A*40
$GPRMC,182423.0,A,3302.850294,N,11716.995194,W,34.0,124.1,310710,,,A*4E
$GPRMC,182426.0,A,3302.834042,N,11716.966609,W,35.8,123.6,310710,,,A*46
$GPRMC,182429.0,A,3302.818055,N,11716.934709,W,37.7,116.5,310710,,,A*4F
$GPRMC,182432.0,A,3302.808087,N,11716.899867,W,36.5,102.3,310710,,,A*4A
$GPRMC,182435.0,A,3302.805301,N,11716.866846,W,29.6,90.1,310710,,,A*7B
$GPRMC,182438.0,A,3302.807089,N,11716.843329,W,17.7,78.9,310710,,,A*70
$GPRMC,182441.0,A,3302.808655,N,11716.833613,W,8.3,78.0,310710,,,A*4E
$GPRMC,182444.0,A,3302.810249,N,11716.825818,W,9.4,77.6,310710,,,A*46
$GPRMC,182447.0,A,3302.814160,N,11716.811153,W,19.7,69.7,310710,,,A*74
$GPRMC,182450.0,A,3302.821701,N,11716.792022,W,22.4,62.3,310710,,,A*72
$GPRMC,182453.0,A,3302.833099,N,11716.771020,W,26.8,55.4,310710,,,A*70
$GPRMC,182456.0,A,3302.846887,N,11716.748389,W,28.6,53.9,310710,,,A*71
$GPRMC,182459.0,A,3302.861114,N,11716.725562,W,28.7,53.8,310710,,,A*70
$GPRMC,182502.0,A,3302.875767,N,11716.701774,W,29.7,53.9,310710,,,A*7B
$GPRMC,182505.0,A,3302.889841,N,11716.679213,W,27.0,54.2,310710,,,A*7B
$GPRMC,182508.0,A,3302.902469,N,11716.656054,W,28.2,61.2,310710,,,A*75
$GPRMC,182511.0,A,3302.911979,N,11716.629958,W,30.0,71.7,310710,,,A*71
$GPRMC,182514.0,A,3302.917795,N,11716.599552,W,32.2,82.3,310710,,,A*78
$GPRMC,182517.0,A,3302.920425,N,11716.566098,W,35.5,85.8,310710,,,A*78
$GPRMC,182520.0,A,3302.922761,N,11716.530245,W,35.9,85.9,310710,,,A*71
$GPRMC,182523.0,A,3302.923850,N,11716.494387,W,36.6,89.7,310710,,,A*70
$GPRMC,182526.0,A,3302.918964,N,11716.457841,W,38.4,106.1,310710,,,A*49
$GPRMC,182529.0,A,3302.905235,N,11716.422018,W,40.7,119.3,310710,,,A*43
$GPRMC,182532.0,A,3302.884832,N,11716.390516,W,39.0,132.9,310710,,,A*43
$GPRMC,182535.0,A,3302.858798,N,11716.367346,W,38.2,149.3,310710,,,A*44
$GPRMC,182538.0,A,3302.829664,N,11716.350202,W,39.5,154.8,310710,,,A*49
$GPRMC,182541.0,A,3302.799309,N,11716.333390,W,40.1,154.3,310710,,,A*43
$GPRMC,182544.0,A,3302.770748,N,11716.315410,W,37.3,146.9,310710,,,A*40
$GPRMC,182547.0,A,3302.747368,N,11716.292166,W,35.8,134.8,310710,,,A*46
$GPRMC,182550.0,A,3302.729823,N,11716.266014,W,31.7,123.1,310710,,,A*47
$GPRMC,182553.0,A,3302.718958,N,11716.240526,W,25.2,115.1,310710,,,A*4E
$GPRMC,182556.0,A,3302.714148,N,11716.220832,W,19.1,102.8,310710,,,A*43
$GPRMC,182559.0,A,3302.711656,N,11716.201490,W,20.1,97.4,310710,,,A*7D
$GPRMC,182602.0,A,3302.710881,N,11716.183481,W,17.3,89.8,310710,,,A*79
$GPRMC,182605.0,A,3302.712380,N,11716.165562,W,16.6,83.1,310710,,,A*75
$GPRMC,182608.0,A,3302.714882,N,11716.151234,W,12.6,78.4,310710,,,A*71
$GPRMC,182611.0,A,3302.717228,N,11716.141120,W,7.9,72.5,310710,,,A*47
$GPRMC,182626.0,A,3302.721583,N,11716.130353,W,12.5,73.7,310710,,,A*7B
$GPRMC,182629.0,A,3302.727269,N,11716.114622,W,19.9,65.3,310710,,,A*70
$GPRMC,182632.0,A,3302.735270,N,11716.095270,W,22.0,63.5,310710,,,A*7B
$GPRMC,182635.0,A,3302.743840,N,11716.075591,W,22.8,62.4,310710,,,A*7A
$GPRMC,182638.0,A,3302.752854,N,11716.054886,W,23.4,63.9,310710,,,A*7B
$GPRMC,182641.0,A,3302.760252,N,11716.033522,W,23.3,71.4,310710,,,A*73
$GPRMC,182644.0,A,3302.764970,N,11716.010735,W,24.1,80.1,310710,,,A*72
$GPRMC,182647.0,A,3302.767094,N,11715.985282,W,27.9,88.5,310710,,,A*79
$GPRMC,182650.0,A,3302.767004,N,11715.955485,W,31.9,92.0,310710,,,A*73
$GPRMC,182653.0,A,3302.766300,N,11715.922277,W,34.2,91.8,310710,,,A*78
$GPRMC,182656.0,A,3302.763996,N,11715.888190,W,34.7,94.8,310710,,,A*76
$GPRMC,182659.0,A,3302.762601,N,11715.852081,W,37.1,92.7,310710,,,A*73
$GPRMC,182702.0,A,3302.761107,N,11715.814216,W,38.9,93.0,310710,,,A*71
$GPRMC,182705.0,A,3302.759500,N,11715.775054,W,39.2,92.9,310710,,,A*70
$GPRMC,182708.0,A,3302.758127,N,11715.737341,W,36.8,92.9,310710,,,A*79
$GPRMC,182711.0,A,3302.756490,N,11715.702614,W,32.5,92.9,310710,,,A*7C
$GPRMC,182714.0,A,3302.755299,N,11715.673486,W,25.4,93.5,310710,,,A*71
$GPRMC,182717.0,A,3302.754527,N,11715.654636,W,14.0,93.5,310710,,,A*7B
$GPRMC,182720.0,A,3302.753800,N,11715.639971,W,18.5,95.0,310710,,,A*7D
$GPRMC,182723.0,A,3302.753491,N,11715.615937,W,26.5,91.3,310710,,,A*7C
$GPRMC,182726.0,A,3302.752751,N,11715.593341,W,20.1,92.6,310710,,,A*75
$GPRMC,182729.0,A,3302.755077,N,11715.575231,W,17.8,69.6,310710,,,A*79
$GPRMC,182732.0,A,3302.766493,N,11715.566013,W,16.7,11.7,310710,,,A*7D
$GPRMC,182735.0,A,3302.785898,N,11715.566873,W,25.5,357.3,310710,,,A*49
$GPRMC,182738.0,A,3302.808560,N,11715.567728,W,26.4,359.7,310710,,,A*4C
$GPRMC,182741.0,A,3302.829996,N,11715.568286,W,24.3,359.4,310710,,,A*4C
$GPRMC,182744.0,A,3302.849369,N,11715.569277,W,20.9,358.0,310710,,,A*41
$GPRMC,182747.0,A,3302.865070,N,11715.569408,W,15.9,5.5,310710,,,A*41
$GPRMC,182750.0,A,3302.874054,N,11715.564052,W,11.3,65.6,310710,,,A*7C
$GPRMC,182753.0,A,3302.875045,N,11715.551509,W,13.1,86.2,310710,,,A*7A
$GPRMC,182756.0,A,3302.875721,N,11715.540319,W,8.0,84.0,310710,,,A*46
$GPRMC,182805.0,A,3302.875128,N,11715.532951,W,5.2,120.2,310710,,,A*71
$GPRMC,182808.0,A,3302.869940,N,11715.530226,W,8.9,173.5,310710,,,A*79
$GPRMC,182811.0,A,3302.859920,N,11715.530160,W,13.3,182.3,310710,,,A*4D
$GPRMC,182814.0,A,3302.849758,N,11715.530527,W,10.9,182.5,310710,,,A*40
$GPRMC,182826.0,A,3302.840711,N,11715.528812,W,6.8,132.3,310710,,,A*7C
$GPRMC,182829.0,A,3302.838543,N,11715.520590,W,10.7,92.7,310710,,,A*71
$GPRMC,182832.0,A,3302.838370,N,11715.509259,W,11.1,92.0,310710,,,A*74
$GPRMC,182835.0,A,3302.837880,N,11715.501052,W,6.5,92.6,310710,,,A*4D
$GPRMC,182838.0,A,3302.837613,N,11715.493362,W,10.0,91.4,310710,,,A*7D
$GPRMC,182841.0,A,3302.837621,N,11715.482222,W,11.8,87.7,310710,,,A*7A
$GPRMC,182844.0,A,3302.838038,N,11715.470228,W,11.8,87.4,310710,,,A*7A
$GPRMC,182847.0,A,3302.838393,N,11715.460195,W,8.1,88.7,310710,,,A*42
$GPRMC,182850.0,A,3302.838403,N,11715.453023,W,7.7,90.0,310710,,,A*41
$GPRMC,182853.0,A,3302.838254,N,11715.442160,W,12.9,91.3,310710,,,A*78
$GPRMC,182856.0,A,3302.838073,N,11715.429120,W,12.8,91.3,310710,,,A*72
$GPRMC,182859.0,A,3302.837784,N,11715.417100,W,10.8,91.3,310710,,,A*70
$GPRMC,182911.0,A,3302.837130,N,11715.407846,W,5.2,93.3,310710,,,A*42
$GPRMC,182914.0,A,3302.836796,N,11715.399830,W,9.1,91.5,310710,,,A*46
$GPRMC,182917.0,A,3302.836705,N,11715.392804,W,4.7,90.0,310710,,,A*4C
$GPRMC,182929.0,A,3302.835792,N,11715.384979,W,5.6,122.2,310710,,,A*7A
$GPRMC,182932.0,A,3302.831367,N,11715.383752,W,5.6,183.6,310710,,,A*75
$GPRMC,183047.0,A,3302.820836,N,11715.387162,W,4.6,257.4,310710,,,A*78
$GPRMC,183056.0,A,3302.827419,N,11715.395173,W,6.5,349.0,310710,,,A*76
$GPRMC,183059.0,A,3302.832747,N,11715.396692,W,6.6,339.1,310710,,,A*7B
$GPRMC,183102.0,A,3302.834050,N,11715.402868,W,5.3,265.2,310710,,,A*7F
$GPRMC,183105.0,A,3302.824862,N,11715.405131,W,10.6,175.5,310710,,,A*46
$GPRMC,183108.0,A,3302.815578,N,11715.403793,W,11.8,172.3,310710,,,A*49
$GPRMC,183111.0,A,3302.804526,N,11715.403159,W,13.7,179.5,310710,,,A*4A
$GPRMC,183114.0,A,3302.793191,N,11715.403330,W,13.5,180.0,310710,,,A*4A
$GPRMC,183117.0,A,3302.782250,N,11715.403441,W,12.1,180.0,310710,,,A*43
$GPRMC,183120.0,A,3302.773011,N,11715.403607,W,9.6,180.9,310710,,,A*7A
$GPRMC,183123.0,A,3302.766602,N,11715.404065,W,6.4,188.5,310710,,,A*75
$GPRMC,183126.0,A,3302.761439,N,11715.405171,W,5.6,191.3,310710,,,A*77
$GPRMC,183132.0,A,3302.756699,N,11715.414304,W,12.7,263.6,310710,,,A*42
$GPRMC,183135.0,A,3302.756888,N,11715.434712,W,23.5,272.4,310710,,,A*48
$GPRMC,183138.0,A,3302.757685,N,11715.460637,W,26.5,273.0,310710,,,A*40
$GPRMC,183141.0,A,3302.758904,N,11715.486874,W,25.0,273.1,310710,,,A*41
$GPRMC,183144.0,A,3302.759835,N,11715.509531,W,19.8,272.8,310710,,,A*43
$GPRMC,183147.0,A,3302.760934,N,11715.527429,W,16.2,274.8,310710,,,A*4D
$GPRMC,183150.0,A,3302.761997,N,11715.542643,W,14.0,274.5,310710,,,A*43
$GPRMC,183153.0,A,3302.762586,N,11715.553676,W,8.7,273.9,310710,,,A*78
$GPRMC,183211.0,A,3302.765598,N,11715.564539,W,10.4,320.9,310710,,,A*44
$GPRMC,183214.0,A,3302.778920,N,11715.566948,W,20.4,0.1,310710,,,A*40
$GPRMC,183217.0,A,3302.799598,N,11715.567351,W,27.4,359.4,310710,,,A*4D
$GPRMC,183220.0,A,3302.823750,N,11715.567708,W,29.3,359.5,310710,,,A*41
$GPRMC,183223.0,A,3302.848838,N,11715.568100,W,30.0,359.0,310710,,,A*41
$GPRMC,183226.0,A,3302.874575,N,11715.569694,W,32.2,354.9,310710,,,A*40
$GPRMC,183229.0,A,3302.901624,N,11715.573758,W,31.8,350.7,310710,,,A*42
$GPRMC,183232.0,A,3302.927014,N,11715.579929,W,30.5,346.2,310710,,,A*45
$GPRMC,183235.0,A,3302.951511,N,11715.587980,W,30.9,343.9,310710,,,A*43
$GPRMC,183238.0,A,3302.976503,N,11715.596696,W,31.3,344.1,310710,,,A*44
$GPRMC,183241.0,A,3302.999373,N,11715.604516,W,24.8,344.6,310710,,,A*41
$GPRMC,183244.0,A,3303.015974,N,11715.610315,W,17.7,343.8,310710,,,A*43
$GPRMC,183247.0,A,3303.028658,N,11715.614675,W,13.5,344.2,310710,,,A*43
$GPRMC,183250.0,A,3303.036938,N,11715.617511,W,7.5,345.6,310710,,,A*71
$GPRMC,183317.0,A,3303.048221,N,11715.621318,W,8.3,342.7,310710,,,A*7C
$GPRMC,183320.0,A,3303.058553,N,11715.624849,W,16.4,343.4,310710,,,A*4B
$GPRMC,183323.0,A,3303.073399,N,11715.630019,W,17.8,343.8,310710,,,A*48
$GPRMC,183326.0,A,3303.085967,N,11715.634123,W,14.6,344.2,310710,,,A*43
$GPRMC,183329.0,A,3303.098467,N,11715.638121,W,16.0,344.9,310710,,,A*4C
$GPRMC,183332.0,A,3303.114072,N,11715.643054,W,23.0,344.7,310710,,,A*44
$GPRMC,183335.0,A,3303.136276,N,11715.650482,W,29.4,343.7,310710,,,A*41
$GPRMC,183338.0,A,3303.160074,N,11715.658982,W,29.4,343.5,310710,,,A*48
$GPRMC,183341.0,A,3303.184309,N,11715.667340,W,30.3,343.8,310710,,,A*4F
$GPRMC,183344.0,A,3303.208557,N,11715.675975,W,29.9,343.8,310710,,,A*4D
$GPRMC,183347.0,A,3303.232029,N,11715.684153,W,28.6,343.4,310710,,,A*4B
$GPRMC,183350.0,A,3303.255346,N,11715.692642,W,29.5,343.5,310710,,,A*45
$GPRMC,183353.0,A,3303.280763,N,11715.701282,W,32.9,344.1,310710,,,A*4B
$GPRMC,183356.0,A,3303.307390,N,11715.710319,W,33.4,344.4,310710,,,A*42
$GPRMC,183359.0,A,3303.334573,N,11715.719422,W,33.8,344.1,310710,,,A*49
$GPRMC,183402.0,A,3303.360030,N,11715.728308,W,29.1,343.7,310710,,,A*4D
$GPRMC,183405.0,A,3303.381998,N,11715.735636,W,25.8,345.3,310710,,,A*4D
$GPRMC,183408.0,A,3303.403233,N,11715.741877,W,27.3,347.6,310710,,,A*41
$GPRMC,183411.0,A,3303.427519,N,11715.747404,W,30.1,350.5,310710,,,A*4F
$GPRMC,183414.0,A,3303.452473,N,11715.751704,W,29.1,352.7,310710,,,A*49
$GPRMC,183417.0,A,3303.473804,N,11715.754993,W,23.1,353.9,310710,,,A*45
$GPRMC,183420.0,A,3303.489734,N,11715.756673,W,14.8,356.2,310710,,,A*48
$GPRMC,183423.0,A,3303.497723,N,11715.757276,W,4.6,357.8,310710,,,A*76
$GPRMC,183535.0,A,3303.517998,N,11715.758237,W,21.9,0.2,310710,,,A*4E
$GPRMC,183538.0,A,3303.539410,N,11715.758146,W,28.7,0.5,310710,,,A*47
$GPRMC,183541.0,A,3303.566459,N,11715.758166,W,34.9,359.7,310710,,,A*42
$GPRMC,183544.0,A,3303.597866,N,11715.758393,W,39.4,359.6,310710,,,A*40
$GPRMC,183547.0,A,3303.632597,N,11715.758478,W,42.7,0.0,310710,,,A*48
$GPRMC,183550.0,A,3303.669139,N,11715.758468,W,43.8,0.2,310710,,,A*4D
$GPRMC,183553.0,A,3303.706261,N,11715.758081,W,44.7,0.8,310710,,,A*49
$GPRMC,183556.0,A,3303.743693,N,11715.756094,W,44.0,4.4,310710,,,A*41
$GPRMC,183559.0,A,3303.779622,N,11715.751759,W,42.1,7.4,310710,,,A*48
$GPRMC,183602.0,A,3303.811413,N,11715.746524,W,34.8,8.0,310710,,,A*49
$GPRMC,183605.0,A,3303.837062,N,11715.742244,W,27.8,7.9,310710,,,A*49
$GPRMC,183608.0,A,3303.858702,N,11715.737889,W,25.5,11.7,310710,,,A*73
$GPRMC,183611.0,A,3303.877816,N,11715.733926,W,19.9,7.1,310710,,,A*4E
$GPRMC,183614.0,A,3303.890094,N,11715.732105,W,10.8,6.7,310710,,,A*47
$GPRMC,183638.0,A,3303.897816,N,11715.731014,W,5.5,7.1,310710,,,A*70
$GPRMC,183647.0,A,3303.904229,N,11715.721770,W,7.7,90.0,310710,,,A*4E
$GPRMC,183650.0,A,3303.904455,N,11715.712386,W,9.4,87.1,310710,,,A*42
$GPRMC,183653.0,A,3303.904561,N,11715.702921,W,9.3,88.5,310710,,,A*4D
$GPRMC,183656.0,A,3303.904563,N,11715.695227,W,6.3,90.3,310710,,,A*48
$GPRMC,183659.0,A,3303.904181,N,11715.688151,W,8.0,95.3,310710,,,A*49
$GPRMC,183702.0,A,3303.903509,N,11715.680164,W,7.9,95.4,310710,,,A*4A
$GPRMC,183705.0,A,3303.902906,N,11715.672540,W,7.5,95.2,310710,,,A*4A
$GPRMC,183708.0,A,3303.902300,N,11715.665213,W,7.2,95.2,310710,,,A*4B
$GPRMC,183711.0,A,3303.901631,N,11715.658690,W,5.2,95.5,310710,,,A*43
$GPRMC,183735.0,A,3303.899657,N,11715.646700,W,6.1,90.3,310710,,,A*41
$GPRMC,183738.0,A,3303.899657,N,11715.637910,W,10.2,91.2,310710,,,A*71
$GPRMC,183741.0,A,3303.899262,N,11715.626468,W,12.4,94.8,310710,,,A*74
$GPRMC,183744.0,A,3303.897950,N,11715.614328,W,12.1,96.6,310710,,,A*7E
$GPRMC,183747.0,A,3303.896838,N,11715.604385,W,9.2,97.4,310710,,,A*4F
$GPRMC,183750.0,A,3303.894193,N,11715.596163,W,8.8,120.4,310710,,,A*77
$GPRMC,183753.0,A,3303.887607,N,11715.594015,W,8.3,189.1,310710,,,A*73
$GPRMC,183756.0,A,3303.881877,N,11715.595197,W,5.3,183.2,310710,,,A*77
