NMEA Sentence Code,UTC Time,Status,Latitude,Latitude Direction,Longitude,Longitude Direction,Speed (knots),Track Angle (degrees true),Date,MagneticVariation,Magnetic Variation Direction,[FAA Mode]-Optional,Checksum
$GPRMC,224120.4,A,3241.5208,N,11704.5922,W,30.20,250.70,251010,,*20
$GPRMC,224123.4,A,3241.5123,N,11704.6171,W,26.70,250.20,251010,,*23
$GPRMC,224126.4,A,3241.5079,N,11704.6348,W,15.50,254.60,251010,,*22
$GPRMC,224129.4,A,3241.5053,N,11704.6454,W,7.60,253.20,251010,,*1C
$GPRMC,224132.4,A,3241.5037,N,11704.6509,W,5.90,252.60,251010,,*15
$GPRMC,224135.4,A,3241.5021,N,11704.6590,W,9.60,257.50,251010,,*10
$GPRMC,224138.4,A,3241.4988,N,11704.6703,W,11.90,250.40,251010,,*2E
$GPRMC,224141.4,A,3241.4898,N,11704.6969,W,24.10,249.00,251010,,*20
$GPRMC,224144.4,A,3241.4827,N,11704.7213,W,28.50,252.60,251010,,*22
$GPRMC,224147.4,A,3241.4756,N,11704.7483,W,28.80,252.40,251010,,*28
$GPRMC,224150.4,A,3241.4676,N,11704.7800,W,32.60,253.60,251010,,*2C
$GPRMC,224153.4,A,3241.4565,N,11704.8150,W,35.80,252.00,251010,,*23
$GPRMC,224156.4,A,3241.4473,N,11704.8479,W,35.50,251.30,251010,,*23
$GPRMC,224159.4,A,3241.4344,N,11704.8869,W,38.50,250.90,251010,,*24
$GPRMC,224202.4,A,3241.4260,N,11704.9182,W,38.10,251.50,251010,,*2A
$GPRMC,224205.4,A,3241.4175,N,11704.9567,W,38.40,252.60,251010,,*20
$GPRMC,224208.4,A,3241.4074,N,11704.9915,W,36.40,251.80,251010,,*27
$GPRMC,224211.4,A,3241.3995,N,11705.0212,W,31.40,252.30,251010,,*25
$GPRMC,224214.4,A,3241.3920,N,11705.0481,W,28.50,251.60,251010,,*2D
$GPRMC,224217.4,A,3241.3855,N,11705.0701,W,24.60,250.20,251010,,*2C
$GPRMC,224220.4,A,3241.3864,N,11705.0750,W,8.60,252.00,251010,,*10
$GPRMC,224223.4,A,3241.3837,N,11705.0809,W,4.60,251.70,251010,,*1E
$GPRMC,224259.4,A,3241.3797,N,11705.0885,W,4.90,251.20,251010,,*18
$GPRMC,224302.4,A,3241.3778,N,11705.0956,W,6.80,254.40,251010,,*19
$GPRMC,224305.4,A,3241.3750,N,11705.1118,W,13.00,259.50,251010,,*27
$GPRMC,224308.4,A,3241.3708,N,11705.1304,W,17.00,255.20,251010,,*27
$GPRMC,224311.4,A,3241.3645,N,11705.1548,W,24.30,255.70,251010,,*2F
$GPRMC,224314.4,A,3241.3564,N,11705.1821,W,29.30,250.60,251010,,*21
$GPRMC,224317.4,A,3241.3488,N,11705.2098,W,28.50,250.80,251010,,*21
$GPRMC,224320.4,A,3241.3407,N,11705.2377,W,30.90,250.40,251010,,*29
$GPRMC,224323.4,A,3241.3332,N,11705.2626,W,26.50,251.70,251010,,*23
$GPRMC,224326.4,A,3241.3273,N,11705.2837,W,19.70,251.60,251010,,*23
$GPRMC,224329.4,A,3241.3231,N,11705.2988,W,12.30,252.10,251010,,*24
$GPRMC,224332.4,A,3241.3208,N,11705.3085,W,9.60,250.80,251010,,*15
$GPRMC,224414.4,A,3241.3185,N,11705.3215,W,5.40,272.10,251010,,*1C
$GPRMC,224417.4,A,3241.3168,N,11705.3334,W,9.50,263.60,251010,,*14
$GPRMC,224420.4,A,3241.3087,N,11705.3603,W,19.40,256.50,251010,,*24
$GPRMC,224423.4,A,3241.2974,N,11705.3950,W,29.10,251.40,251010,,*2A
$GPRMC,224426.4,A,3241.2897,N,11705.4238,W,30.10,252.50,251010,,*2B
$GPRMC,224429.4,A,3241.2806,N,11705.4542,W,32.10,251.50,251010,,*27
$GPRMC,224432.4,A,3241.2727,N,11705.4855,W,32.70,252.10,251010,,*2B
$GPRMC,224435.4,A,3241.2629,N,11705.5209,W,33.60,252.70,251010,,*27
$GPRMC,224438.4,A,3241.2535,N,11705.5529,W,32.10,251.70,251010,,*24
$GPRMC,224441.4,A,3241.2454,N,11705.5817,W,30.50,251.40,251010,,*29
$GPRMC,224444.4,A,3241.2402,N,11705.6012,W,19.40,252.80,251010,,*24
$GPRMC,224447.4,A,3241.2362,N,11705.6170,W,14.00,254.10,251010,,*25
$GPRMC,224450.4,A,3241.2324,N,11705.6260,W,9.60,247.10,251010,,*1B
$GPRMC,224453.4,A,3241.2299,N,11705.6324,W,5.10,252.60,251010,,*16
$GPRMC,224514.4,A,3241.2324,N,11705.6456,W,9.30,283.80,251010,,*1D
$GPRMC,224517.4,A,3241.2406,N,11705.6575,W,12.80,304.40,251010,,*2A
$GPRMC,224520.4,A,3241.2588,N,11705.6787,W,26.70,311.30,251010,,*2D
$GPRMC,224523.4,A,3241.2821,N,11705.6986,W,30.30,328.60,251010,,*23
$GPRMC,224526.4,A,3241.3046,N,11705.7117,W,27.30,339.40,251010,,*2B
$GPRMC,224529.4,A,3241.3256,N,11705.7167,W,25.40,351.70,251010,,*28
$GPRMC,224532.4,A,3241.3466,N,11705.7162,W,25.80,3.80,251010,,*25
$GPRMC,224535.4,A,3241.3673,N,11705.7098,W,26.40,15.90,251010,,*19
$GPRMC,224538.4,A,3241.3866,N,11705.6986,W,25.30,26.00,251010,,*14
$GPRMC,224541.4,A,3241.4017,N,11705.6851,W,20.50,35.50,251010,,*1C
$GPRMC,224544.4,A,3241.4158,N,11705.6748,W,19.90,31.20,251010,,*11
$GPRMC,224547.4,A,3241.4271,N,11705.6705,W,15.70,19.50,251010,,*1C
$GPRMC,224550.4,A,3241.4390,N,11705.6678,W,15.10,15.50,251010,,*15
$GPRMC,224629.4,A,3241.4137,N,11705.6501,W,8.20,69.90,251010,,*22
$GPRMC,224632.4,A,3241.4406,N,11705.6522,W,14.50,35.90,251010,,*1D
$GPRMC,224635.4,A,3241.4500,N,11705.6475,W,12.70,5.90,251010,,*29
$GPRMC,224638.4,A,3241.4629,N,11705.6543,W,17.90,337.80,251010,,*20
$GPRMC,224641.4,A,3241.4806,N,11705.6633,W,23.90,340.60,251010,,*20
$GPRMC,224644.4,A,3241.5038,N,11705.6711,W,29.20,348.00,251010,,*2F
$GPRMC,224647.4,A,3241.5340,N,11705.6759,W,36.20,354.10,251010,,*2E
$GPRMC,224650.4,A,3241.5669,N,11705.6796,W,40.90,356.70,251010,,*2B
$GPRMC,224653.4,A,3241.6025,N,11705.6818,W,44.80,358.50,251010,,*25
$GPRMC,224656.4,A,3241.6413,N,11705.6830,W,48.50,358.30,251010,,*2C
$GPRMC,224659.4,A,3241.6824,N,11705.6838,W,51.10,359.90,251010,,*24
$GPRMC,224702.4,A,3241.7257,N,11705.6835,W,51.90,0.50,251010,,*22
$GPRMC,224705.4,A,3241.7697,N,11705.6828,W,52.10,0.00,251010,,*2F
$GPRMC,224708.4,A,3241.8132,N,11705.6840,W,52.00,358.20,251010,,*26
$GPRMC,224711.4,A,3241.8593,N,11705.6844,W,55.90,0.30,251010,,*24
$GPRMC,224714.4,A,3241.9062,N,11705.6841,W,57.10,359.80,251010,,*20
$GPRMC,224717.4,A,3241.9549,N,11705.6848,W,59.80,359.30,251010,,*2A
$GPRMC,224720.4,A,3242.0058,N,11705.6847,W,61.30,0.20,251010,,*20
$GPRMC,224723.4,A,3242.0578,N,11705.6839,W,62.00,0.60,251010,,*29
$GPRMC,224726.4,A,3242.1099,N,11705.6836,W,62.40,0.30,251010,,*29
$GPRMC,224729.4,A,3242.1621,N,11705.6844,W,62.50,357.80,251010,,*2D
$GPRMC,224732.4,A,3242.2142,N,11705.6896,W,62.90,353.30,251010,,*2A
$GPRMC,224735.4,A,3242.2664,N,11705.7015,W,63.80,347.00,251010,,*2A
$GPRMC,224738.4,A,3242.3175,N,11705.7209,W,64.30,341.50,251010,,*21
$GPRMC,224741.4,A,3242.3654,N,11705.7469,W,62.50,333.30,251010,,*28
$GPRMC,224744.4,A,3242.4101,N,11705.7772,W,61.20,328.20,251010,,*2B
$GPRMC,224747.4,A,3242.4517,N,11705.8121,W,61.30,322.00,251010,,*2D
$GPRMC,224750.4,A,3242.4924,N,11705.8501,W,62.70,321.20,251010,,*27
$GPRMC,224753.4,A,3242.5329,N,11705.8891,W,62.40,321.20,251010,,*25
$GPRMC,224756.4,A,3242.5735,N,11705.9275,W,62.80,321.40,251010,,*22
$GPRMC,224759.4,A,3242.6148,N,11705.9664,W,63.50,321.30,251010,,*2D
$GPRMC,224802.4,A,3242.6570,N,11706.0061,W,64.40,321.00,251010,,*2F
$GPRMC,224805.4,A,3242.6993,N,11706.0464,W,65.00,321.20,251010,,*2F
$GPRMC,224808.4,A,3242.7443,N,11706.0839,W,66.40,328.00,251010,,*2B
$GPRMC,224811.4,A,3242.7923,N,11706.1146,W,65.90,334.50,251010,,*2E
$GPRMC,224814.4,A,3242.8436,N,11706.1390,W,65.50,341.20,251010,,*2D
$GPRMC,224817.4,A,3242.8961,N,11706.1574,W,65.70,345.10,251010,,*28
$GPRMC,224820.4,A,3242.9510,N,11706.1669,W,66.80,353.70,251010,,*25
$GPRMC,224823.4,A,3243.0078,N,11706.1700,W,67.70,0.70,251010,,*20
$GPRMC,224826.4,A,3243.0644,N,11706.1672,W,68.70,3.80,251010,,*2B
$GPRMC,224829.4,A,3243.1225,N,11706.1635,W,69.60,3.20,251010,,*2F
$GPRMC,224832.4,A,3243.1820,N,11706.1592,W,70.90,3.30,251010,,*22
$GPRMC,224835.4,A,3243.2406,N,11706.1553,W,70.90,3.70,251010,,*27
$GPRMC,224838.4,A,3243.2995,N,11706.1502,W,70.40,4.00,251010,,*24
$GPRMC,224841.4,A,3243.3573,N,11706.1472,W,69.50,1.50,251010,,*20
$GPRMC,224844.4,A,3243.4144,N,11706.1502,W,68.10,355.00,251010,,*26
$GPRMC,224847.4,A,3243.4694,N,11706.1602,W,66.10,348.10,251010,,*2F
$GPRMC,224850.4,A,3243.5219,N,11706.1798,W,65.60,340.40,251010,,*22
$GPRMC,224853.4,A,3243.5724,N,11706.2039,W,64.50,336.20,251010,,*20
$GPRMC,224856.4,A,3243.6192,N,11706.2322,W,61.80,331.40,251010,,*2D
$GPRMC,224859.4,A,3243.6586,N,11706.2625,W,56.20,324.80,251010,,*27
$GPRMC,224902.4,A,3243.6954,N,11706.2955,W,54.60,321.00,251010,,*28
$GPRMC,224905.4,A,3243.7266,N,11706.3314,W,52.20,315.10,251010,,*2E
$GPRMC,224908.4,A,3243.7545,N,11706.3703,W,51.70,307.60,251010,,*25
$GPRMC,224911.4,A,3243.7792,N,11706.4132,W,52.10,303.70,251010,,*26
$GPRMC,224914.4,A,3243.8037,N,11706.4569,W,52.70,304.20,251010,,*2A
$GPRMC,224917.4,A,3243.8291,N,11706.4989,W,53.40,307.10,251010,,*27
$GPRMC,224920.4,A,3243.8555,N,11706.5418,W,54.40,306.70,251010,,*28
$GPRMC,224923.4,A,3243.8865,N,11706.5852,W,56.10,312.00,251010,,*22
$GPRMC,224926.4,A,3243.9208,N,11706.6222,W,55.30,319.00,251010,,*23
$GPRMC,224929.4,A,3243.9596,N,11706.6514,W,55.20,330.10,251010,,*25
$GPRMC,224932.4,A,3244.0004,N,11706.6748,W,54.70,338.40,251010,,*2D
$GPRMC,224935.4,A,3244.0434,N,11706.6923,W,54.20,343.20,251010,,*21
$GPRMC,224938.4,A,3244.0884,N,11706.7049,W,55.10,346.70,251010,,*2D
$GPRMC,224941.4,A,3244.1328,N,11706.7160,W,53.10,347.00,251010,,*25
$GPRMC,224944.4,A,3244.1742,N,11706.7263,W,50.00,348.00,251010,,*25
$GPRMC,224947.4,A,3244.2148,N,11706.7361,W,49.20,348.10,251010,,*21
$GPRMC,224950.4,A,3244.2535,N,11706.7463,W,48.30,347.50,251010,,*27
$GPRMC,224953.4,A,3244.2931,N,11706.7578,W,50.30,346.80,251010,,*22
$GPRMC,224956.4,A,3244.3360,N,11706.7666,W,51.70,352.50,251010,,*29
$GPRMC,224959.4,A,3244.3792,N,11706.7692,W,52.10,2.10,251010,,*23
$GPRMC,225002.4,A,3244.4227,N,11706.7630,W,52.20,10.40,251010,,*14
$GPRMC,225005.4,A,3244.4651,N,11706.7475,W,52.90,18.10,251010,,*13
$GPRMC,225008.4,A,3244.5031,N,11706.7232,W,52.10,28.30,251010,,*13
$GPRMC,225011.4,A,3244.5378,N,11706.6940,W,49.90,37.00,251010,,*15
$GPRMC,225014.4,A,3244.5709,N,11706.6638,W,50.20,36.20,251010,,*12
$GPRMC,225017.4,A,3244.6041,N,11706.6337,W,50.80,37.20,251010,,*18
$GPRMC,225020.4,A,3244.6390,N,11706.6028,W,52.10,35.70,251010,,*12
$GPRMC,225023.4,A,3244.6750,N,11706.5736,W,53.70,30.10,251010,,*16
$GPRMC,225026.4,A,3244.7150,N,11706.5497,W,54.00,22.90,251010,,*17
$GPRMC,225029.4,A,3244.7576,N,11706.5333,W,52.60,16.00,251010,,*1F
$GPRMC,225032.4,A,3244.8019,N,11706.5234,W,53.60,9.80,251010,,*27
$GPRMC,225035.4,A,3244.8468,N,11706.5224,W,54.50,359.10,251010,,*28
$GPRMC,225038.4,A,3244.8940,N,11706.5223,W,56.60,0.50,251010,,*2F
$GPRMC,225041.4,A,3244.9433,N,11706.5229,W,59.20,0.30,251010,,*2E
$GPRMC,225044.4,A,3244.9929,N,11706.5230,W,60.30,359.80,251010,,*2A
$GPRMC,225047.4,A,3245.0451,N,11706.5225,W,62.60,359.60,251010,,*2E
$GPRMC,225050.4,A,3245.0981,N,11706.5231,W,63.70,359.80,251010,,*23
$GPRMC,225058.4,A,3245.2417,N,11706.5237,W,64.30,0.10,251010,,*28
$GPRMC,225101.4,A,3245.2951,N,11706.5241,W,64.10,359.90,251010,,*2E
$GPRMC,225104.4,A,3245.3478,N,11706.5250,W,62.90,359.30,251010,,*28
$GPRMC,225107.4,A,3245.3998,N,11706.5257,W,62.00,358.60,251010,,*22
$GPRMC,225110.4,A,3245.4509,N,11706.5263,W,61.10,359.50,251010,,*20
$GPRMC,225113.4,A,3245.5018,N,11706.5266,W,60.40,358.70,251010,,*25
$GPRMC,225116.4,A,3245.5520,N,11706.5287,W,60.30,357.70,251010,,*29
$GPRMC,225119.4,A,3245.6028,N,11706.5307,W,60.20,356.90,251010,,*2F
$GPRMC,225122.4,A,3245.6530,N,11706.5341,W,60.50,356.00,251010,,*27
$GPRMC,225125.4,A,3245.7030,N,11706.5379,W,60.30,355.90,251010,,*23
$GPRMC,225128.4,A,3245.7543,N,11706.5427,W,61.90,354.40,251010,,*24
$GPRMC,225131.4,A,3245.8056,N,11706.5487,W,62.20,353.60,251010,,*25
$GPRMC,225134.4,A,3245.8566,N,11706.5587,W,62.10,348.80,251010,,*20
$GPRMC,225137.4,A,3245.9070,N,11706.5764,W,63.30,339.50,251010,,*27
$GPRMC,225140.4,A,3245.9554,N,11706.6024,W,63.20,333.30,251010,,*29
$GPRMC,225143.4,A,3246.0018,N,11706.6341,W,63.90,329.80,251010,,*26
$GPRMC,225146.4,A,3246.0483,N,11706.6659,W,64.70,330.10,251010,,*21
$GPRMC,225149.4,A,3246.0973,N,11706.6952,W,65.20,336.10,251010,,*2A
$GPRMC,225152.4,A,3246.1476,N,11706.7191,W,63.00,340.90,251010,,*22
$GPRMC,225155.4,A,3246.1985,N,11706.7366,W,63.00,346.10,251010,,*20
$GPRMC,225158.4,A,3246.2496,N,11706.7488,W,62.20,351.10,251010,,*23
$GPRMC,225201.4,A,3246.3011,N,11706.7556,W,62.30,355.90,251010,,*29
$GPRMC,225204.4,A,3246.3508,N,11706.7538,W,59.70,0.80,251010,,*27
$GPRMC,225207.4,A,3246.4024,N,11706.7402,W,63.00,12.60,251010,,*13
$GPRMC,225210.4,A,3246.4520,N,11706.7201,W,61.20,18.10,251010,,*1C
$GPRMC,225213.4,A,3246.5003,N,11706.7033,W,60.40,14.80,251010,,*1B
$GPRMC,225216.4,A,3246.5504,N,11706.6947,W,61.30,5.70,251010,,*2E
$GPRMC,225219.4,A,3246.6041,N,11706.6992,W,65.90,355.10,251010,,*20
$GPRMC,225222.4,A,3246.6600,N,11706.7085,W,66.10,351.40,251010,,*2F
$GPRMC,225225.4,A,3246.7128,N,11706.7296,W,66.10,344.20,251010,,*26
$GPRMC,225228.4,A,3246.7645,N,11706.7490,W,64.30,343.90,251010,,*2B
$GPRMC,225231.4,A,3246.8156,N,11706.7674,W,63.70,343.90,251010,,*22
$GPRMC,225234.4,A,3246.8665,N,11706.7859,W,62.90,343.30,251010,,*24
$GPRMC,225237.4,A,3246.9170,N,11706.8041,W,61.90,343.60,251010,,*2D
$GPRMC,225240.4,A,3246.9670,N,11706.8213,W,62.10,343.90,251010,,*2B
$GPRMC,225243.4,A,3247.0171,N,11706.8379,W,62.30,345.20,251010,,*24
$GPRMC,225246.4,A,3247.0666,N,11706.8506,W,61.90,350.80,251010,,*29
$GPRMC,225249.4,A,3247.1175,N,11706.8577,W,62.00,355.00,251010,,*23
$GPRMC,225252.4,A,3247.1697,N,11706.8589,W,63.00,0.40,251010,,*25
$GPRMC,225255.4,A,3247.2227,N,11706.8514,W,63.20,9.30,251010,,*26
$GPRMC,225258.4,A,3247.2746,N,11706.8379,W,63.80,15.20,251010,,*12
$GPRMC,225301.4,A,3247.3261,N,11706.8196,W,64.40,17.30,251010,,*15
$GPRMC,225304.4,A,3247.3766,N,11706.7987,W,63.90,18.20,251010,,*11
$GPRMC,225307.4,A,3247.4277,N,11706.7794,W,64.20,17.80,251010,,*15
$GPRMC,225310.4,A,3247.4782,N,11706.7596,W,63.60,17.80,251010,,*1F
$GPRMC,225313.4,A,3247.5285,N,11706.7416,W,62.40,17.20,251010,,*1F
$GPRMC,225316.4,A,3247.5791,N,11706.7263,W,63.00,12.40,251010,,*18
$GPRMC,225319.4,A,3247.6310,N,11706.7143,W,63.80,9.80,251010,,*26
$GPRMC,225322.4,A,3247.6837,N,11706.7117,W,62.30,2.70,251010,,*2F
$GPRMC,225325.4,A,3247.7326,N,11706.7159,W,60.40,355.90,251010,,*22
$GPRMC,225328.4,A,3247.7828,N,11706.7220,W,60.40,355.20,251010,,*2C
$GPRMC,225331.4,A,3247.8334,N,11706.7275,W,60.60,354.50,251010,,*29
$GPRMC,225334.4,A,3247.8843,N,11706.7329,W,61.60,354.70,251010,,*2C
$GPRMC,225337.4,A,3247.9359,N,11706.7386,W,61.80,354.80,251010,,*2A
$GPRMC,225340.4,A,3247.9874,N,11706.7453,W,62.80,354.80,251010,,*22
$GPRMC,225343.4,A,3248.0395,N,11706.7511,W,62.80,354.50,251010,,*29
$GPRMC,225346.4,A,3248.0915,N,11706.7564,W,63.00,354.80,251010,,*28
$GPRMC,225349.4,A,3248.1437,N,11706.7617,W,63.00,354.50,251010,,*21
$GPRMC,225352.4,A,3248.1963,N,11706.7679,W,62.20,353.70,251010,,*29
$GPRMC,225355.4,A,3248.2479,N,11706.7748,W,61.40,352.90,251010,,*22
$GPRMC,225358.4,A,3248.2986,N,11706.7827,W,61.20,352.50,251010,,*2E
$GPRMC,225401.4,A,3248.3497,N,11706.7906,W,61.50,352.80,251010,,*21
$GPRMC,225404.4,A,3248.4008,N,11706.7982,W,61.40,352.60,251010,,*22
$GPRMC,225407.4,A,3248.4518,N,11706.8061,W,61.40,352.80,251010,,*20
$GPRMC,225410.4,A,3248.5023,N,11706.8137,W,60.40,352.80,251010,,*29
$GPRMC,225413.4,A,3248.5528,N,11706.8213,W,60.50,352.50,251010,,*2D
$GPRMC,225416.4,A,3248.6037,N,11706.8291,W,61.70,352.80,251010,,*24
$GPRMC,225419.4,A,3248.6554,N,11706.8367,W,62.00,352.70,251010,,*28
$GPRMC,225422.4,A,3248.7066,N,11706.8446,W,62.00,352.60,251010,,*20
$GPRMC,225425.4,A,3248.7575,N,11706.8525,W,61.70,352.60,251010,,*20
$GPRMC,225428.4,A,3248.8090,N,11706.8608,W,62.00,352.00,251010,,*22
$GPRMC,225431.4,A,3248.8605,N,11706.8697,W,62.40,351.40,251010,,*25
$GPRMC,225434.4,A,3248.9118,N,11706.8787,W,62.20,350.90,251010,,*20
$GPRMC,225437.4,A,3248.9627,N,11706.8887,W,61.50,350.10,251010,,*2B
$GPRMC,225440.4,A,3249.0127,N,11706.8993,W,59.40,349.80,251010,,*2B
$GPRMC,225443.4,A,3249.0607,N,11706.9100,W,57.50,349.30,251010,,*2A
$GPRMC,225446.4,A,3249.1074,N,11706.9203,W,56.10,349.40,251010,,*2E
$GPRMC,225449.4,A,3249.1527,N,11706.9302,W,55.40,349.60,251010,,*26
$GPRMC,225452.4,A,3249.1989,N,11706.9406,W,56.30,349.30,251010,,*26
$GPRMC,225455.4,A,3249.2452,N,11706.9511,W,56.80,349.30,251010,,*25
$GPRMC,225458.4,A,3249.2913,N,11706.9612,W,56.50,349.40,251010,,*2A
$GPRMC,225501.4,A,3249.3385,N,11706.9719,W,58.20,349.60,251010,,*22
$GPRMC,225504.4,A,3249.3870,N,11706.9824,W,59.30,349.10,251010,,*20
$GPRMC,225507.4,A,3249.4376,N,11706.9935,W,61.60,350.30,251010,,*2C
$GPRMC,225510.4,A,3249.4871,N,11707.0043,W,60.20,349.50,251010,,*2D
$GPRMC,225513.4,A,3249.5366,N,11707.0144,W,60.10,349.30,251010,,*21
$GPRMC,225516.4,A,3249.5863,N,11707.0252,W,60.40,349.60,251010,,*2E
$GPRMC,225519.4,A,3249.6365,N,11707.0366,W,61.50,349.60,251010,,*29
$GPRMC,225522.4,A,3249.6868,N,11707.0482,W,61.30,349.10,251010,,*2B
$GPRMC,225525.4,A,3249.7375,N,11707.0602,W,60.90,348.80,251010,,*23
$GPRMC,225528.4,A,3249.7867,N,11707.0707,W,60.80,348.90,251010,,*22
$GPRMC,225531.4,A,3249.8363,N,11707.0818,W,59.80,349.30,251010,,*2A
$GPRMC,225534.4,A,3249.8853,N,11707.0930,W,61.70,349.40,251010,,*2F
$GPRMC,225537.4,A,3249.9360,N,11707.1047,W,62.40,349.40,251010,,*2E
$GPRMC,225540.4,A,3249.9875,N,11707.1172,W,63.30,347.80,251010,,*22
$GPRMC,225543.4,A,3250.0389,N,11707.1325,W,62.70,343.40,251010,,*25
$GPRMC,225546.4,A,3250.0887,N,11707.1540,W,63.20,338.30,251010,,*2F
$GPRMC,225549.4,A,3250.1378,N,11707.1776,W,64.10,337.50,251010,,*20
$GPRMC,225552.4,A,3250.1877,N,11707.2016,W,64.20,337.90,251010,,*23
$GPRMC,225555.4,A,3250.2387,N,11707.2215,W,64.00,343.80,251010,,*22
$GPRMC,225558.4,A,3250.2907,N,11707.2359,W,63.90,350.10,251010,,*21
$GPRMC,225601.4,A,3250.3428,N,11707.2440,W,64.00,353.90,251010,,*25
$GPRMC,225604.4,A,3250.3956,N,11707.2459,W,64.20,0.30,251010,,*21
$GPRMC,225607.4,A,3250.4483,N,11707.2408,W,62.60,7.70,251010,,*25
$GPRMC,225610.4,A,3250.4996,N,11707.2304,W,62.60,10.50,251010,,*15
$GPRMC,225613.4,A,3250.5482,N,11707.2118,W,61.10,19.10,251010,,*19
$GPRMC,225616.4,A,3250.5953,N,11707.1885,W,61.10,22.90,251010,,*13
$GPRMC,225619.4,A,3250.6417,N,11707.1628,W,61.10,26.50,251010,,*13
$GPRMC,225622.4,A,3250.6854,N,11707.1336,W,60.80,28.50,251010,,*1C
$GPRMC,225625.4,A,3250.7299,N,11707.1042,W,60.80,28.90,251010,,*1D
$GPRMC,225628.4,A,3250.7735,N,11707.0768,W,60.00,28.80,251010,,*14
$GPRMC,225631.4,A,3250.8179,N,11707.0495,W,60.20,27.20,251010,,*1B
$GPRMC,225634.4,A,3250.8625,N,11707.0230,W,60.60,24.00,251010,,*1C
$GPRMC,225637.4,A,3250.9092,N,11706.9991,W,60.90,19.20,251010,,*1F
$GPRMC,225640.4,A,3250.9573,N,11706.9807,W,60.90,17.00,251010,,*17
$GPRMC,225643.4,A,3251.0064,N,11706.9638,W,61.00,15.80,251010,,*1F
$GPRMC,225646.4,A,3251.0546,N,11706.9475,W,60.00,15.90,251010,,*14
$GPRMC,225649.4,A,3251.1041,N,11706.9316,W,61.30,15.10,251010,,*10
$GPRMC,225652.4,A,3251.1535,N,11706.9154,W,61.80,15.20,251010,,*10
$GPRMC,225655.4,A,3251.2045,N,11706.8985,W,62.50,16.10,251010,,*1D
$GPRMC,225658.4,A,3251.2536,N,11706.8783,W,62.80,19.40,251010,,*1E
$GPRMC,225701.4,A,3251.3030,N,11706.8556,W,63.00,24.30,251010,,*1B
$GPRMC,225704.4,A,3251.3505,N,11706.8289,W,63.10,27.00,251010,,*19
$GPRMC,225707.4,A,3251.3956,N,11706.8015,W,62.20,27.20,251010,,*17
$GPRMC,225710.4,A,3251.4418,N,11706.7736,W,62.30,26.70,251010,,*1D
$GPRMC,225713.4,A,3251.4886,N,11706.7455,W,62.20,24.40,251010,,*13
$GPRMC,225716.4,A,3251.5365,N,11706.7215,W,61.80,22.00,251010,,*18
$GPRMC,225719.4,A,3251.5851,N,11706.7001,W,62.30,19.40,251010,,*18
$GPRMC,225722.4,A,3251.6341,N,11706.6787,W,62.40,19.60,251010,,*14
$GPRMC,225725.4,A,3251.6830,N,11706.6578,W,62.40,19.80,251010,,*12
$GPRMC,225728.4,A,3251.7320,N,11706.6360,W,62.10,20.90,251010,,*15
$GPRMC,225731.4,A,3251.7802,N,11706.6135,W,60.80,22.50,251010,,*11
$GPRMC,225734.4,A,3251.8272,N,11706.5902,W,60.90,23.60,251010,,*1A
$GPRMC,225737.4,A,3251.8736,N,11706.5665,W,59.60,23.20,251010,,*13
$GPRMC,225740.4,A,3251.9193,N,11706.5435,W,59.80,23.30,251010,,*13
$GPRMC,225743.4,A,3251.9651,N,11706.5196,W,60.30,23.80,251010,,*1F
$GPRMC,225746.4,A,3252.0116,N,11706.4966,W,60.00,21.20,251010,,*19
$GPRMC,225749.4,A,3252.0585,N,11706.4767,W,59.90,18.40,251010,,*18
$GPRMC,225752.4,A,3252.1059,N,11706.4597,W,59.30,16.20,251010,,*18
$GPRMC,225755.4,A,3252.1532,N,11706.4456,W,58.30,13.60,251010,,*1B
$GPRMC,225758.4,A,3252.2007,N,11706.4342,W,57.70,10.40,251010,,*1E
$GPRMC,225801.4,A,3252.2478,N,11706.4261,W,56.80,7.20,251010,,*2F
$GPRMC,225804.4,A,3252.2939,N,11706.4223,W,55.80,4.90,251010,,*2F
$GPRMC,225807.4,A,3252.3395,N,11706.4197,W,56.20,3.70,251010,,*2D
$GPRMC,225810.4,A,3252.3867,N,11706.4177,W,56.40,2.10,251010,,*22
$GPRMC,225813.4,A,3252.4332,N,11706.4173,W,57.10,359.40,251010,,*25
$GPRMC,225816.4,A,3252.4809,N,11706.4188,W,57.60,357.10,251010,,*2B
$GPRMC,225819.4,A,3252.5291,N,11706.4227,W,57.70,355.20,251010,,*28
$GPRMC,225822.4,A,3252.5778,N,11706.4285,W,57.80,353.00,251010,,*21
$GPRMC,225825.4,A,3252.6257,N,11706.4358,W,57.70,351.30,251010,,*22
$GPRMC,225828.4,A,3252.6733,N,11706.4461,W,57.90,349.50,251010,,*24
$GPRMC,225831.4,A,3252.7203,N,11706.4567,W,57.40,345.90,251010,,*21
$GPRMC,225834.4,A,3252.7673,N,11706.4708,W,57.30,344.80,251010,,*2B
$GPRMC,225837.4,A,3252.8135,N,11706.4867,W,57.40,342.70,251010,,*2A
$GPRMC,225840.4,A,3252.8592,N,11706.5052,W,57.70,340.80,251010,,*22
$GPRMC,225843.4,A,3252.9047,N,11706.5257,W,57.50,338.40,251010,,*2B
$GPRMC,225846.4,A,3252.9491,N,11706.5479,W,57.00,336.40,251010,,*20
$GPRMC,225849.4,A,3252.9927,N,11706.5714,W,57.40,335.10,251010,,*25
$GPRMC,225852.4,A,3253.0350,N,11706.5964,W,56.90,333.40,251010,,*2B
$GPRMC,225855.4,A,3253.0759,N,11706.6208,W,56.40,333.20,251010,,*28
$GPRMC,225858.4,A,3253.1190,N,11706.6465,W,57.30,332.80,251010,,*27
$GPRMC,225901.4,A,3253.1627,N,11706.6730,W,57.10,332.90,251010,,*21
$GPRMC,225904.4,A,3253.2049,N,11706.6985,W,56.70,332.70,251010,,*20
$GPRMC,225907.4,A,3253.2477,N,11706.7245,W,57.80,332.60,251010,,*23
$GPRMC,225910.4,A,3253.2903,N,11706.7496,W,57.30,333.80,251010,,*27
$GPRMC,225913.4,A,3253.3324,N,11706.7745,W,56.50,334.00,251010,,*2F
$GPRMC,225916.4,A,3253.3746,N,11706.7988,W,56.00,335.10,251010,,*20
$GPRMC,225919.4,A,3253.4179,N,11706.8205,W,56.10,337.30,251010,,*22
$GPRMC,225922.4,A,3253.4620,N,11706.8416,W,57.00,339.00,251010,,*28
$GPRMC,225925.4,A,3253.5073,N,11706.8614,W,57.60,340.60,251010,,*20
$GPRMC,225928.4,A,3253.5531,N,11706.8794,W,57.30,342.20,251010,,*24
$GPRMC,225931.4,A,3253.5985,N,11706.8956,W,56.30,343.80,251010,,*25
$GPRMC,225934.4,A,3253.6445,N,11706.9114,W,58.00,344.70,251010,,*28
$GPRMC,225937.4,A,3253.6916,N,11706.9257,W,58.40,345.70,251010,,*21
$GPRMC,225940.4,A,3253.7387,N,11706.9387,W,58.60,348.30,251010,,*25
$GPRMC,225943.4,A,3253.7861,N,11706.9489,W,57.10,350.90,251010,,*27
$GPRMC,225946.4,A,3253.8331,N,11706.9577,W,57.40,352.40,251010,,*29
$GPRMC,225949.4,A,3253.8804,N,11706.9646,W,57.00,354.00,251010,,*2C
$GPRMC,225952.4,A,3253.9284,N,11706.9675,W,57.20,358.00,251010,,*2B
$GPRMC,225955.4,A,3253.9768,N,11706.9682,W,57.70,359.20,251010,,*25
$GPRMC,225958.4,A,3254.0248,N,11706.9681,W,56.90,359.70,251010,,*28
$GPRMC,230001.4,A,3254.0718,N,11706.9687,W,56.40,359.80,251010,,*2D
$GPRMC,230004.4,A,3254.1186,N,11706.9684,W,54.60,359.60,251010,,*25
$GPRMC,230007.4,A,3254.1638,N,11706.9682,W,53.80,0.10,251010,,*23
$GPRMC,230010.4,A,3254.2084,N,11706.9678,W,53.00,0.20,251010,,*29
$GPRMC,230013.4,A,3254.2538,N,11706.9683,W,55.20,358.70,251010,,*23
$GPRMC,230016.4,A,3254.3008,N,11706.9698,W,57.50,358.50,251010,,*2C
$GPRMC,230019.4,A,3254.3496,N,11706.9706,W,59.30,359.50,251010,,*2F
$GPRMC,230022.4,A,3254.3996,N,11706.9713,W,60.20,359.70,251010,,*27
$GPRMC,230025.4,A,3254.4500,N,11706.9713,W,60.40,360.00,251010,,*2F
$GPRMC,230028.4,A,3254.5004,N,11706.9712,W,59.90,0.10,251010,,*20
$GPRMC,230031.4,A,3254.5498,N,11706.9713,W,59.50,1.30,251010,,*27
$GPRMC,230034.4,A,3254.5995,N,11706.9689,W,59.50,2.30,251010,,*23
$GPRMC,230037.4,A,3254.6490,N,11706.9669,W,59.40,1.10,251010,,*25
$GPRMC,230040.4,A,3254.6984,N,11706.9654,W,59.50,1.00,251010,,*23
$GPRMC,230043.4,A,3254.7481,N,11706.9643,W,59.60,0.70,251010,,*2A
$GPRMC,230046.4,A,3254.7985,N,11706.9625,W,60.20,2.30,251010,,*2E
$GPRMC,230049.4,A,3254.8491,N,11706.9600,W,60.70,2.40,251010,,*23
$GPRMC,230052.4,A,3254.8996,N,11706.9568,W,61.50,3.50,251010,,*2D
$GPRMC,230055.4,A,3254.9509,N,11706.9529,W,61.60,3.90,251010,,*2B
$GPRMC,230058.4,A,3255.0032,N,11706.9486,W,61.80,3.60,251010,,*26
$GPRMC,230101.4,A,3255.0548,N,11706.9448,W,61.80,3.90,251010,,*2E
$GPRMC,230104.4,A,3255.1068,N,11706.9402,W,62.20,4.90,251010,,*2D
$GPRMC,230107.4,A,3255.1600,N,11706.9340,W,63.60,5.90,251010,,*23
$GPRMC,230110.4,A,3255.2132,N,11706.9260,W,63.60,6.70,251010,,*2E
$GPRMC,230113.4,A,3255.2665,N,11706.9175,W,63.90,8.10,251010,,*28
$GPRMC,230116.4,A,3255.3183,N,11706.9078,W,62.80,8.60,251010,,*28
$GPRMC,230119.4,A,3255.3705,N,11706.8982,W,62.80,9.00,251010,,*25
$GPRMC,230122.4,A,3255.4228,N,11706.8867,W,63.80,10.40,251010,,*17
$GPRMC,230125.4,A,3255.4745,N,11706.8755,W,63.40,10.50,251010,,*1D
$GPRMC,230128.4,A,3255.5266,N,11706.8632,W,63.50,11.30,251010,,*13
$GPRMC,230131.4,A,3255.5794,N,11706.8502,W,64.20,11.80,251010,,*18
$GPRMC,230134.4,A,3255.6319,N,11706.8372,W,64.50,12.20,251010,,*10
$GPRMC,230137.4,A,3255.6845,N,11706.8225,W,65.40,13.30,251010,,*12
$GPRMC,230140.4,A,3255.7386,N,11706.8084,W,65.60,13.70,251010,,*18
$GPRMC,230143.4,A,3255.7912,N,11706.7921,W,64.90,14.30,251010,,*18
$GPRMC,230146.4,A,3255.8421,N,11706.7754,W,63.10,14.90,251010,,*16
$GPRMC,230149.4,A,3255.8936,N,11706.7582,W,63.10,15.60,251010,,*15
$GPRMC,230152.4,A,3255.9444,N,11706.7432,W,62.30,14.70,251010,,*1F
$GPRMC,230155.4,A,3255.9941,N,11706.7272,W,61.50,15.60,251010,,*17
$GPRMC,230158.4,A,3256.0424,N,11706.7103,W,60.20,15.90,251010,,*12
$GPRMC,230201.4,A,3256.0899,N,11706.6957,W,57.90,15.90,251010,,*10
$GPRMC,230204.4,A,3256.1345,N,11706.6826,W,53.90,15.40,251010,,*10
$GPRMC,230207.4,A,3256.1765,N,11706.6683,W,51.00,14.50,251010,,*1F
$GPRMC,230210.4,A,3256.2158,N,11706.6557,W,48.60,14.80,251010,,*1B
$GPRMC,230213.4,A,3256.2549,N,11706.6450,W,48.00,14.10,251010,,*15
$GPRMC,230216.4,A,3256.2935,N,11706.6326,W,49.80,15.20,251010,,*1A
$GPRMC,230219.4,A,3256.3348,N,11706.6197,W,52.00,14.50,251010,,*18
$GPRMC,230222.4,A,3256.3782,N,11706.6065,W,54.00,15.40,251010,,*18
$GPRMC,230225.4,A,3256.4228,N,11706.5916,W,55.10,15.60,251010,,*11
$GPRMC,230228.4,A,3256.4669,N,11706.5767,W,55.30,15.80,251010,,*19
$GPRMC,230231.4,A,3256.5095,N,11706.5591,W,55.50,18.40,251010,,*19
$GPRMC,230234.4,A,3256.5529,N,11706.5401,W,55.60,20.40,251010,,*1E
$GPRMC,230237.4,A,3256.5980,N,11706.5189,W,56.40,22.10,251010,,*11
$GPRMC,230240.4,A,3256.6407,N,11706.4965,W,54.40,25.10,251010,,*1E
$GPRMC,230243.4,A,3256.6796,N,11706.4719,W,53.20,29.50,251010,,*1A
$GPRMC,230246.4,A,3256.7174,N,11706.4448,W,52.40,32.70,251010,,*1C
$GPRMC,230249.4,A,3256.7514,N,11706.4135,W,50.80,41.30,251010,,*10
$GPRMC,230252.4,A,3256.7767,N,11706.3766,W,46.60,53.30,251010,,*11
$GPRMC,230255.4,A,3256.7888,N,11706.3384,W,38.10,68.10,251010,,*14
$GPRMC,230258.4,A,3256.7974,N,11706.3071,W,30.30,73.10,251010,,*12
$GPRMC,230301.4,A,3256.7998,N,11706.2790,W,29.50,86.00,251010,,*11
$GPRMC,230304.4,A,3256.7884,N,11706.2558,W,28.20,116.80,251010,,*28
$GPRMC,230307.4,A,3256.7742,N,11706.2260,W,35.70,113.00,251010,,*26
$GPRMC,230310.4,A,3256.7655,N,11706.1891,W,38.50,104.10,251010,,*28
$GPRMC,230313.4,A,3256.7635,N,11706.1458,W,42.50,88.40,251010,,*19
$GPRMC,230316.4,A,3256.7709,N,11706.1044,W,43.40,73.80,251010,,*13
$GPRMC,230319.4,A,3256.7832,N,11706.0628,W,45.30,68.90,251010,,*1C
$GPRMC,230322.4,A,3256.7975,N,11706.0198,W,46.30,70.00,251010,,*19
$GPRMC,230325.4,A,3256.8082,N,11705.9748,W,45.70,78.10,251010,,*1F
$GPRMC,230328.4,A,3256.8134,N,11705.9289,W,46.70,82.50,251010,,*14
$GPRMC,230331.4,A,3256.8174,N,11705.8833,W,45.60,84.50,251010,,*16
$GPRMC,230334.4,A,3256.8200,N,11705.8387,W,45.40,87.80,251010,,*1B
$GPRMC,230337.4,A,3256.8191,N,11705.7935,W,45.50,93.20,251010,,*11
$GPRMC,230340.4,A,3256.8158,N,11705.7485,W,45.30,96.40,251010,,*17
$GPRMC,230343.4,A,3256.8109,N,11705.7042,W,44.40,97.50,251010,,*19
$GPRMC,230346.4,A,3256.8067,N,11705.6600,W,45.70,96.40,251010,,*16
$GPRMC,230349.4,A,3256.8015,N,11705.6148,W,45.60,96.40,251010,,*16
$GPRMC,230352.4,A,3256.7969,N,11705.5703,W,46.00,97.00,251010,,*1B
$GPRMC,230355.4,A,3256.7918,N,11705.5256,W,46.60,96.60,251010,,*1E
$GPRMC,230358.4,A,3256.7869,N,11705.4808,W,45.20,97.40,251010,,*10
$GPRMC,230401.4,A,3256.7813,N,11705.4361,W,45.60,97.70,251010,,*15
$GPRMC,230404.4,A,3256.7761,N,11705.3914,W,45.70,97.20,251010,,*11
$GPRMC,230407.4,A,3256.7709,N,11705.3474,W,44.90,97.50,251010,,*1F
$GPRMC,230410.4,A,3256.7663,N,11705.3035,W,44.70,97.20,251010,,*1C
$GPRMC,230413.4,A,3256.7607,N,11705.2585,W,45.30,97.50,251010,,*10
$GPRMC,230416.4,A,3256.7565,N,11705.2127,W,45.80,97.10,251010,,*11
$GPRMC,230419.4,A,3256.7511,N,11705.1689,W,45.20,98.10,251010,,*18
$GPRMC,230422.4,A,3256.7462,N,11705.1281,W,39.10,97.40,251010,,*1B
$GPRMC,230425.4,A,3256.7436,N,11705.0964,W,29.10,95.20,251010,,*19
$GPRMC,230428.4,A,3256.7408,N,11705.0755,W,18.50,98.70,251010,,*1B
$GPRMC,230431.4,A,3256.7400,N,11705.0646,W,10.20,96.60,251010,,*18
$GPRMC,230434.4,A,3256.7397,N,11705.0594,W,4.50,102.00,251010,,*10
$GPRMC,230455.4,A,3256.7387,N,11705.0543,W,6.40,98.40,251010,,*29
$GPRMC,230458.4,A,3256.7379,N,11705.0388,W,18.70,95.30,251010,,*12
$GPRMC,230501.4,A,3256.7363,N,11705.0129,W,26.30,94.30,251010,,*15
$GPRMC,230504.4,A,3256.7347,N,11704.9775,W,33.50,91.70,251010,,*12
$GPRMC,230507.4,A,3256.7352,N,11704.9375,W,39.20,85.30,251010,,*1D
$GPRMC,230510.4,A,3256.7384,N,11704.8982,W,40.50,81.90,251010,,*14
$GPRMC,230513.4,A,3256.7458,N,11704.8571,W,42.60,77.00,251010,,*10
$GPRMC,230516.4,A,3256.7562,N,11704.8163,W,42.10,71.20,251010,,*19
$GPRMC,230519.4,A,3256.7679,N,11704.7776,W,39.10,65.70,251010,,*1E
$GPRMC,230522.4,A,3256.7814,N,11704.7454,W,32.90,61.90,251010,,*19
$GPRMC,230525.4,A,3256.7933,N,11704.7216,W,24.90,61.00,251010,,*14
$GPRMC,230528.4,A,3256.8015,N,11704.7060,W,18.30,58.90,251010,,*1E
$GPRMC,230531.4,A,3256.8045,N,11704.7028,W,5.50,54.50,251010,,*25
$GPRMC,230549.4,A,3256.8057,N,11704.7016,W,8.00,42.50,251010,,*2B
$GPRMC,230552.4,A,3256.8133,N,11704.6897,W,17.20,54.10,251010,,*1D
$GPRMC,230555.4,A,3256.8268,N,11704.6661,W,30.00,54.50,251010,,*13
$GPRMC,230558.4,A,3256.8426,N,11704.6399,W,34.30,54.50,251010,,*17
$GPRMC,230601.4,A,3256.8600,N,11704.6102,W,37.00,53.50,251010,,*19
$GPRMC,230604.4,A,3256.8784,N,11704.5798,W,37.40,55.10,251010,,*11
$GPRMC,230607.4,A,3256.8961,N,11704.5487,W,38.70,57.70,251010,,*12
$GPRMC,230610.4,A,3256.9127,N,11704.5148,W,39.80,60.80,251010,,*1C
$GPRMC,230613.4,A,3256.9287,N,11704.4796,W,40.60,63.00,251010,,*19
$GPRMC,230616.4,A,3256.9428,N,11704.4423,W,40.90,67.40,251010,,*1D
$GPRMC,230619.4,A,3256.9547,N,11704.4035,W,41.30,70.80,251010,,*18
$GPRMC,230622.4,A,3256.9648,N,11704.3643,W,41.40,74.60,251010,,*11
$GPRMC,230625.4,A,3256.9741,N,11704.3238,W,42.70,78.10,251010,,*1D
$GPRMC,230628.4,A,3256.9816,N,11704.2827,W,42.60,78.60,251010,,*1E
$GPRMC,230631.4,A,3256.9895,N,11704.2419,W,41.80,77.30,251010,,*1B
$GPRMC,230634.4,A,3256.9981,N,11704.2030,W,41.50,74.40,251010,,*1C
$GPRMC,230637.4,A,3257.0075,N,11704.1639,W,41.40,72.10,251010,,*1B
$GPRMC,230640.4,A,3257.0184,N,11704.1270,W,38.90,68.80,251010,,*1C
$GPRMC,230643.4,A,3257.0299,N,11704.0930,W,37.70,67.50,251010,,*1D
$GPRMC,230646.4,A,3257.0429,N,11704.0604,W,36.70,65.00,251010,,*1B
$GPRMC,230649.4,A,3257.0554,N,11704.0289,W,36.00,63.50,251010,,*1A
$GPRMC,230652.4,A,3257.0684,N,11703.9963,W,35.50,65.40,251010,,*1E
$GPRMC,230655.4,A,3257.0795,N,11703.9645,W,33.40,69.60,251010,,*1A
$GPRMC,230658.4,A,3257.0883,N,11703.9346,W,31.00,73.70,251010,,*15
$GPRMC,230701.4,A,3257.0958,N,11703.9044,W,31.30,75.50,251010,,*19
$GPRMC,230704.4,A,3257.1002,N,11703.8762,W,28.30,79.50,251010,,*1D
$GPRMC,230707.4,A,3257.1033,N,11703.8495,W,25.70,82.00,251010,,*1F
$GPRMC,230710.4,A,3257.1067,N,11703.8258,W,23.00,84.10,251010,,*19
$GPRMC,230713.4,A,3257.1069,N,11703.8005,W,25.60,90.30,251010,,*19
$GPRMC,230716.4,A,3257.1071,N,11703.7760,W,22.90,89.90,251010,,*14
$GPRMC,230719.4,A,3257.1079,N,11703.7578,W,18.90,81.00,251010,,*10
$GPRMC,230910.4,A,3257.1066,N,11703.7507,W,9.00,92.80,251010,,*22
$GPRMC,230913.4,A,3257.1073,N,11703.7258,W,20.00,90.00,251010,,*19
$GPRMC,230916.4,A,3257.1072,N,11703.6923,W,29.50,87.00,251010,,*11
$GPRMC,230919.4,A,3257.1101,N,11703.6567,W,32.80,81.60,251010,,*10
$GPRMC,230922.4,A,3257.1169,N,11703.6262,W,32.40,72.00,251010,,*12
$GPRMC,230925.4,A,3257.1274,N,11703.5964,W,32.80,66.90,251010,,*14
$GPRMC,230928.4,A,3257.1406,N,11703.5678,W,33.80,57.70,251010,,*15
$GPRMC,230931.4,A,3257.1586,N,11703.5404,W,35.10,49.30,251010,,*19
$GPRMC,230934.4,A,3257.1782,N,11703.5140,W,35.60,47.80,251010,,*1D
$GPRMC,230937.4,A,3257.1978,N,11703.4886,W,34.00,47.60,251010,,*1E
$GPRMC,230940.4,A,3257.2158,N,11703.4684,W,26.60,43.70,251010,,*1B
$GPRMC,230943.4,A,3257.2263,N,11703.4570,W,14.20,44.50,251010,,*1B
$GPRMC,231001.4,A,3257.2337,N,11703.4494,W,5.30,32.80,251010,,*23
$GPRMC,231004.4,A,3257.2408,N,11703.4500,W,8.90,334.80,251010,,*13
$GPRMC,231007.4,A,3257.2470,N,11703.4545,W,9.30,316.50,251010,,*18
$GPRMC,231010.4,A,3257.2531,N,11703.4596,W,9.60,330.80,251010,,*18
$GPRMC,231013.4,A,3257.2610,N,11703.4620,W,10.00,350.10,251010,,*24
