NMEA Sentence Code,UTC Time,Status,Latitude,Latitude Direction,Longitude,Longitude Direction,Speed (knots),Track Angle (degrees true),Date,MagneticVariation,Magnetic Variation Direction,[FAA Mode]-Optional,Checksum
$GPRMC,024858.5,A,3252.3046,N,11714.1845,W,46.20,87.40,220410,,*14
$GPRMC,024901.5,A,3252.3080,N,11714.1351,W,44.80,86.70,220410,,*17
$GPRMC,024904.5,A,3252.3038,N,11714.1018,W,36.40,92.20,220410,,*16
$GPRMC,024907.5,A,3252.3022,N,11714.0745,W,28.30,93.20,220410,,*19
$GPRMC,024910.5,A,3252.2996,N,11714.0511,W,20.30,93.70,220410,,*16
$GPRMC,024913.5,A,3252.2998,N,11714.0402,W,9.80,90.50,220410,,*29
$GPRMC,025049.5,A,3252.2990,N,11714.0166,W,7.50,83.30,220410,,*26
$GPRMC,025052.5,A,3252.3033,N,11713.9894,W,13.30,74.60,220410,,*19
$GPRMC,025055.5,A,3252.3112,N,11713.9448,W,25.20,67.30,220410,,*12
$GPRMC,025058.5,A,3252.3168,N,11713.8779,W,41.00,73.90,220410,,*1D
$GPRMC,025101.5,A,3252.3272,N,11713.8218,W,43.30,74.60,220410,,*13
$GPRMC,025104.5,A,3252.3346,N,11713.7602,W,44.50,76.10,220410,,*14
$GPRMC,025107.5,A,3252.3413,N,11713.7048,W,42.80,80.90,220410,,*12
$GPRMC,025110.5,A,3252.3392,N,11713.6594,W,41.80,90.00,220410,,*14
$GPRMC,025113.5,A,3252.3327,N,11713.6175,W,41.80,99.60,220410,,*1D
$GPRMC,025116.5,A,3252.3219,N,11713.5771,W,42.20,106.50,220410,,*28
$GPRMC,025119.5,A,3252.3033,N,11713.5284,W,39.40,116.00,220410,,*2C
$GPRMC,025122.5,A,3252.2889,N,11713.4975,W,34.10,119.60,220410,,*29
$GPRMC,025125.5,A,3252.2749,N,11713.4738,W,28.80,121.90,220410,,*2A
$GPRMC,025128.5,A,3252.2654,N,11713.4538,W,23.00,118.10,220410,,*29
$GPRMC,025131.5,A,3252.2597,N,11713.4403,W,16.10,114.80,220410,,*26
$GPRMC,025134.5,A,3252.2590,N,11713.4307,W,10.30,97.40,220410,,*15
$GPRMC,025137.5,A,3252.2604,N,11713.4252,W,5.80,73.70,220410,,*2F
$GPRMC,025149.5,A,3252.2555,N,11713.4173,W,11.40,125.00,220410,,*2D
$GPRMC,025152.5,A,3252.2460,N,11713.4024,W,17.50,125.80,220410,,*2C
$GPRMC,025155.5,A,3252.2368,N,11713.3820,W,22.20,120.60,220410,,*25
$GPRMC,025158.5,A,3252.2269,N,11713.3593,W,25.60,115.00,220410,,*2E
$GPRMC,025201.5,A,3252.2204,N,11713.3296,W,27.40,105.20,220410,,*2B
$GPRMC,025204.5,A,3252.2141,N,11713.3032,W,28.20,101.40,220410,,*2B
$GPRMC,025207.5,A,3252.2175,N,11713.2710,W,31.40,88.20,220410,,*11
$GPRMC,025210.5,A,3252.2207,N,11713.2379,W,31.70,82.00,220410,,*11
$GPRMC,025213.5,A,3252.2289,N,11713.2105,W,29.50,71.90,220410,,*13
$GPRMC,025216.5,A,3252.2408,N,11713.1881,W,26.80,63.30,220410,,*14
$GPRMC,025219.5,A,3252.2495,N,11713.1645,W,25.20,61.20,220410,,*13
$GPRMC,025222.5,A,3252.2604,N,11713.1457,W,24.30,58.60,220410,,*1E
$GPRMC,025225.5,A,3252.2687,N,11713.1269,W,18.70,61.00,220410,,*1E
$GPRMC,025228.5,A,3252.2726,N,11713.1185,W,10.20,61.90,220410,,*1C
$GPRMC,025246.5,A,3252.2768,N,11713.1113,W,9.10,53.80,220410,,*2A
$GPRMC,025249.5,A,3252.2858,N,11713.0974,W,17.40,52.90,220410,,*1B
$GPRMC,025252.5,A,3252.2966,N,11713.0769,W,22.90,56.80,220410,,*11
$GPRMC,025255.5,A,3252.3044,N,11713.0443,W,29.90,68.20,220410,,*19
$GPRMC,025258.5,A,3252.3124,N,11713.0054,W,35.40,74.30,220410,,*1D
$GPRMC,025301.5,A,3252.3203,N,11712.9690,W,36.40,75.60,220410,,*17
$GPRMC,025304.5,A,3252.3283,N,11712.9370,W,33.00,75.10,220410,,*17
$GPRMC,025307.5,A,3252.3348,N,11712.9092,W,28.60,75.90,220410,,*19
$GPRMC,025310.5,A,3252.3390,N,11712.8833,W,24.90,77.10,220410,,*11
$GPRMC,025313.5,A,3252.3436,N,11712.8668,W,17.00,74.80,220410,,*1A
$GPRMC,025316.5,A,3252.3461,N,11712.8579,W,9.80,76.10,220410,,*22
$GPRMC,025428.5,A,3252.3529,N,11712.8577,W,4.90,8.60,220410,,*19
$GPRMC,025431.5,A,3252.3604,N,11712.8524,W,8.20,17.60,220410,,*22
$GPRMC,025434.5,A,3252.3693,N,11712.8341,W,13.30,40.40,220410,,*17
$GPRMC,025437.5,A,3252.3815,N,11712.8087,W,20.10,47.00,220410,,*1C
$GPRMC,025440.5,A,3252.3916,N,11712.7781,W,23.10,54.80,220410,,*19
$GPRMC,025443.5,A,3252.3957,N,11712.7155,W,30.80,71.90,220410,,*1D
$GPRMC,025446.5,A,3252.4027,N,11712.6751,W,29.30,71.20,220410,,*1A
$GPRMC,025449.5,A,3252.4093,N,11712.6460,W,25.20,71.60,220410,,*12
$GPRMC,025452.5,A,3252.4118,N,11712.6248,W,21.60,80.80,220410,,*16
$GPRMC,025455.5,A,3252.4157,N,11712.6106,W,14.80,80.20,220410,,*11
$GPRMC,025458.5,A,3252.4161,N,11712.6056,W,6.60,82.80,220410,,*28
$GPRMC,025507.5,A,3252.4160,N,11712.5931,W,9.80,72.20,220410,,*2D
$GPRMC,025510.5,A,3252.4216,N,11712.5753,W,17.50,68.50,220410,,*1D
$GPRMC,025513.5,A,3252.4274,N,11712.5399,W,30.30,75.90,220410,,*1B
$GPRMC,025516.5,A,3252.4330,N,11712.5037,W,33.90,79.70,220410,,*13
$GPRMC,025519.5,A,3252.4371,N,11712.4689,W,35.10,80.40,220410,,*10
$GPRMC,025522.5,A,3252.4381,N,11712.4320,W,35.70,84.20,220410,,*15
$GPRMC,025525.5,A,3252.4420,N,11712.3924,W,38.60,82.40,220410,,*1B
$GPRMC,025528.5,A,3252.4471,N,11712.3501,W,41.10,81.10,220410,,*16
$GPRMC,025531.5,A,3252.4552,N,11712.3089,W,44.00,80.10,220410,,*1E
$GPRMC,025534.5,A,3252.4626,N,11712.2637,W,45.40,80.60,220410,,*1B
$GPRMC,025537.5,A,3252.4720,N,11712.2202,W,44.00,80.00,220410,,*1E
$GPRMC,025540.5,A,3252.4769,N,11712.1795,W,40.10,80.90,220410,,*17
$GPRMC,025543.5,A,3252.4799,N,11712.1434,W,37.00,82.90,220410,,*10
$GPRMC,025546.5,A,3252.4794,N,11712.1067,W,37.10,91.60,220410,,*16
$GPRMC,025549.5,A,3252.4699,N,11712.0722,W,37.50,105.10,220410,,*2D
$GPRMC,025552.5,A,3252.4562,N,11712.0390,W,35.00,112.50,220410,,*28
$GPRMC,025555.5,A,3252.4452,N,11712.0055,W,36.80,113.60,220410,,*2E
$GPRMC,025558.5,A,3252.4280,N,11711.9702,W,41.20,118.60,220410,,*24
$GPRMC,025601.5,A,3252.4067,N,11711.9381,W,41.20,127.30,220410,,*26
$GPRMC,025604.5,A,3252.3833,N,11711.9101,W,39.70,134.70,220410,,*2B
$GPRMC,025607.5,A,3252.3583,N,11711.8857,W,39.60,139.10,220410,,*2F
$GPRMC,025610.5,A,3252.3302,N,11711.8589,W,42.00,140.20,220410,,*2F
$GPRMC,025613.5,A,3252.3012,N,11711.8307,W,43.20,138.80,220410,,*28
$GPRMC,025616.5,A,3252.2753,N,11711.8045,W,43.50,139.20,220410,,*27
$GPRMC,025619.5,A,3252.2481,N,11711.7781,W,42.90,138.00,220410,,*2A
$GPRMC,025622.5,A,3252.2217,N,11711.7484,W,43.30,138.70,220410,,*21
$GPRMC,025625.5,A,3252.1919,N,11711.7193,W,45.30,141.30,220410,,*2F
$GPRMC,025628.5,A,3252.1633,N,11711.6916,W,44.10,140.50,220410,,*25
$GPRMC,025631.5,A,3252.1362,N,11711.6621,W,44.60,139.60,220410,,*2D
$GPRMC,025634.5,A,3252.1056,N,11711.6315,W,46.30,141.20,220410,,*22
$GPRMC,025637.5,A,3252.0743,N,11711.6031,W,47.30,141.90,220410,,*2C
$GPRMC,025640.5,A,3252.0442,N,11711.5744,W,46.60,140.80,220410,,*2C
$GPRMC,025643.5,A,3252.0132,N,11711.5452,W,48.10,141.40,220410,,*2D
$GPRMC,025646.5,A,3251.9807,N,11711.5149,W,48.70,140.80,220410,,*29
$GPRMC,025649.5,A,3251.9507,N,11711.4860,W,46.20,141.60,220410,,*2C
$GPRMC,025652.5,A,3251.9234,N,11711.4609,W,42.40,140.80,220410,,*2D
$GPRMC,025655.5,A,3251.8947,N,11711.4333,W,44.90,139.80,220410,,*2D
$GPRMC,025658.5,A,3251.8637,N,11711.4041,W,48.00,140.00,220410,,*2D
$GPRMC,025701.5,A,3251.8295,N,11711.3703,W,53.90,140.00,220410,,*29
$GPRMC,025704.5,A,3251.7910,N,11711.3343,W,58.00,141.20,220410,,*24
$GPRMC,025707.5,A,3251.7539,N,11711.2985,W,56.90,141.10,220410,,*25
$GPRMC,025710.5,A,3251.7180,N,11711.2633,W,56.30,140.80,220410,,*25
$GPRMC,025713.5,A,3251.6821,N,11711.2284,W,55.60,141.40,220410,,*26
$GPRMC,025716.5,A,3251.6475,N,11711.1945,W,56.10,142.10,220410,,*29
$GPRMC,025719.5,A,3251.6068,N,11711.1613,W,56.90,143.80,220410,,*22
$GPRMC,025722.5,A,3251.5647,N,11711.1334,W,55.20,149.30,220410,,*2B
$GPRMC,025725.5,A,3251.5208,N,11711.1100,W,55.10,151.90,220410,,*26
$GPRMC,025728.5,A,3251.4803,N,11711.0843,W,55.30,152.30,220410,,*2F
$GPRMC,025731.5,A,3251.4389,N,11711.0599,W,55.40,153.30,220410,,*22
$GPRMC,025734.5,A,3251.3959,N,11711.0327,W,56.30,153.10,220410,,*22
$GPRMC,025737.5,A,3251.3547,N,11711.0074,W,55.80,153.30,220410,,*2D
$GPRMC,025740.5,A,3251.3134,N,11710.9829,W,55.90,152.50,220410,,*23
$GPRMC,025743.5,A,3251.2720,N,11710.9571,W,56.20,153.40,220410,,*2A
$GPRMC,025746.5,A,3251.2298,N,11710.9287,W,56.90,152.90,220410,,*20
$GPRMC,025749.5,A,3251.1864,N,11710.9040,W,57.30,153.40,220410,,*2B
$GPRMC,025752.5,A,3251.1415,N,11710.8769,W,58.60,153.00,220410,,*28
$GPRMC,025755.5,A,3251.0991,N,11710.8502,W,59.00,152.80,220410,,*2E
$GPRMC,025758.5,A,3251.0540,N,11710.8225,W,61.00,152.80,220410,,*2A
$GPRMC,025801.5,A,3251.0076,N,11710.7952,W,62.30,153.00,220410,,*24
$GPRMC,025804.5,A,3250.9593,N,11710.7640,W,63.50,152.50,220410,,*28
$GPRMC,025807.5,A,3250.9120,N,11710.7353,W,63.70,152.80,220410,,*2F
$GPRMC,025810.5,A,3250.8664,N,11710.7082,W,62.20,153.50,220410,,*28
$GPRMC,025813.5,A,3250.8204,N,11710.6803,W,61.80,152.90,220410,,*2D
$GPRMC,025816.5,A,3250.7750,N,11710.6526,W,61.30,152.80,220410,,*23
$GPRMC,025819.5,A,3250.7300,N,11710.6245,W,61.10,152.50,220410,,*20
$GPRMC,025822.5,A,3250.6843,N,11710.5964,W,61.40,152.60,220410,,*28
$GPRMC,025825.5,A,3250.6387,N,11710.5675,W,61.90,152.10,220410,,*29
$GPRMC,025828.5,A,3250.5906,N,11710.5411,W,62.90,155.30,220410,,*22
$GPRMC,025831.5,A,3250.5454,N,11710.5136,W,61.40,153.50,220410,,*2E
$GPRMC,025834.5,A,3250.5016,N,11710.4844,W,60.20,152.40,220410,,*23
$GPRMC,025837.5,A,3250.4600,N,11710.4560,W,58.80,151.40,220410,,*29
$GPRMC,025840.5,A,3250.4165,N,11710.4282,W,59.50,152.00,220410,,*2D
$GPRMC,025843.5,A,3250.3702,N,11710.4048,W,59.80,152.40,220410,,*23
$GPRMC,025846.5,A,3250.3264,N,11710.3769,W,60.10,152.50,220410,,*22
$GPRMC,025849.5,A,3250.2825,N,11710.3483,W,60.10,152.20,220410,,*23
$GPRMC,025852.5,A,3250.2381,N,11710.3219,W,59.70,152.40,220410,,*23
$GPRMC,025855.5,A,3250.1938,N,11710.2946,W,60.30,153.00,220410,,*24
$GPRMC,025858.5,A,3250.1491,N,11710.2678,W,59.90,152.90,220410,,*2D
$GPRMC,025901.5,A,3250.1054,N,11710.2413,W,58.70,152.20,220410,,*26
$GPRMC,025904.5,A,3250.0639,N,11710.2156,W,56.70,152.30,220410,,*24
$GPRMC,025907.5,A,3250.0217,N,11710.1888,W,56.90,152.40,220410,,*2F
$GPRMC,025910.5,A,3249.9786,N,11710.1639,W,56.30,153.40,220410,,*2A
$GPRMC,025913.5,A,3249.9370,N,11710.1395,W,55.30,152.70,220410,,*26
$GPRMC,025916.5,A,3249.8961,N,11710.1152,W,54.80,152.90,220410,,*25
$GPRMC,025919.5,A,3249.8559,N,11710.0892,W,54.40,152.80,220410,,*24
$GPRMC,025922.5,A,3249.8166,N,11710.0649,W,54.60,151.90,220410,,*2C
$GPRMC,025925.5,A,3249.7759,N,11710.0412,W,53.60,153.20,220410,,*2C
$GPRMC,025928.5,A,3249.7362,N,11710.0179,W,52.40,153.20,220410,,*26
$GPRMC,025931.5,A,3249.6992,N,11709.9948,W,50.20,153.60,220410,,*21
$GPRMC,025934.5,A,3249.6628,N,11709.9727,W,48.90,152.10,220410,,*29
$GPRMC,025937.5,A,3249.6259,N,11709.9476,W,51.30,152.50,220410,,*29
$GPRMC,025940.5,A,3249.5873,N,11709.9246,W,52.20,153.20,220410,,*29
$GPRMC,025943.5,A,3249.5489,N,11709.8997,W,52.30,152.30,220410,,*24
$GPRMC,025946.5,A,3249.5100,N,11709.8772,W,51.60,153.80,220410,,*2C
$GPRMC,025949.5,A,3249.4687,N,11709.8532,W,54.20,154.20,220410,,*20
$GPRMC,025952.5,A,3249.4281,N,11709.8311,W,54.30,154.80,220410,,*24
$GPRMC,025955.5,A,3249.3855,N,11709.8080,W,55.30,155.70,220410,,*23
$GPRMC,025958.5,A,3249.3439,N,11709.7834,W,55.80,154.10,220410,,*2C
$GPRMC,030001.5,A,3249.3033,N,11709.7580,W,55.40,152.60,220410,,*2C
$GPRMC,030004.5,A,3249.2618,N,11709.7342,W,55.90,154.20,220410,,*20
$GPRMC,030007.5,A,3249.2207,N,11709.7104,W,56.30,154.80,220410,,*2A
$GPRMC,030010.5,A,3249.1776,N,11709.6863,W,57.90,154.40,220410,,*22
$GPRMC,030013.5,A,3249.1331,N,11709.6610,W,59.00,153.70,220410,,*2F
$GPRMC,030016.5,A,3249.0865,N,11709.6359,W,60.10,154.40,220410,,*26
$GPRMC,030019.5,A,3249.0399,N,11709.6102,W,60.40,154.90,220410,,*25
$GPRMC,030022.5,A,3248.9948,N,11709.5850,W,59.60,154.60,220410,,*29
$GPRMC,030025.5,A,3248.9496,N,11709.5619,W,58.80,155.00,220410,,*2B
$GPRMC,030028.5,A,3248.9060,N,11709.5346,W,59.10,152.70,220410,,*2C
$GPRMC,030031.5,A,3248.8648,N,11709.5001,W,60.50,148.10,220410,,*2A
$GPRMC,030034.5,A,3248.8221,N,11709.4662,W,60.20,143.90,220410,,*22
$GPRMC,030037.5,A,3248.7844,N,11709.4282,W,59.10,141.30,220410,,*2C
$GPRMC,030040.5,A,3248.7457,N,11709.3913,W,60.10,140.70,220410,,*29
$GPRMC,030043.5,A,3248.7064,N,11709.3545,W,59.70,141.60,220410,,*2D
$GPRMC,030046.5,A,3248.6661,N,11709.3187,W,59.70,143.30,220410,,*27
$GPRMC,030049.5,A,3248.6278,N,11709.2835,W,58.60,143.20,220410,,*24
$GPRMC,030052.5,A,3248.5898,N,11709.2495,W,57.30,142.90,220410,,*2F
$GPRMC,030055.5,A,3248.5527,N,11709.2168,W,55.20,143.70,220410,,*2A
$GPRMC,030058.5,A,3248.5144,N,11709.1872,W,53.70,144.70,220410,,*23
$GPRMC,030101.5,A,3248.4718,N,11709.1932,W,48.00,159.80,220410,,*2B
$GPRMC,030104.5,A,3248.4318,N,11709.1960,W,45.30,168.70,220410,,*2E
$GPRMC,030107.5,A,3248.3765,N,11709.2325,W,55.50,191.90,220410,,*23
$GPRMC,030110.5,A,3248.3269,N,11709.2529,W,58.50,195.00,220410,,*26
$GPRMC,030113.5,A,3248.2783,N,11709.2724,W,60.80,196.10,220410,,*2E
$GPRMC,030116.5,A,3248.2293,N,11709.2909,W,59.80,197.40,220410,,*20
$GPRMC,030119.5,A,3248.1816,N,11709.3087,W,58.90,196.80,220410,,*28
$GPRMC,030122.5,A,3248.1348,N,11709.3257,W,59.40,197.30,220410,,*29
$GPRMC,030125.5,A,3248.0876,N,11709.3436,W,59.10,197.70,220410,,*29
$GPRMC,030128.5,A,3248.0412,N,11709.3603,W,59.50,196.90,220410,,*25
$GPRMC,030131.5,A,3247.9923,N,11709.3779,W,60.60,196.90,220410,,*21
$GPRMC,030134.5,A,3247.9424,N,11709.3951,W,60.60,196.40,220410,,*27
$GPRMC,030137.5,A,3247.8972,N,11709.4117,W,56.00,196.20,220410,,*23
$GPRMC,030140.5,A,3247.8525,N,11709.4262,W,54.50,196.10,220410,,*28
$GPRMC,030143.5,A,3247.8097,N,11709.4404,W,53.20,196.70,220410,,*27
$GPRMC,030146.5,A,3247.7730,N,11709.4565,W,50.90,198.50,220410,,*25
$GPRMC,030149.5,A,3247.7313,N,11709.4696,W,51.40,196.10,220410,,*26
$GPRMC,030152.5,A,3247.6903,N,11709.4836,W,51.50,195.50,220410,,*24
$GPRMC,030155.5,A,3247.6491,N,11709.4989,W,54.00,195.90,220410,,*2C
$GPRMC,030158.5,A,3247.5996,N,11709.5177,W,60.80,197.30,220410,,*27
$GPRMC,030201.5,A,3247.5501,N,11709.5360,W,63.60,197.00,220410,,*20
$GPRMC,030204.5,A,3247.4989,N,11709.5551,W,64.70,198.30,220410,,*26
$GPRMC,030207.5,A,3247.4459,N,11709.5746,W,65.80,197.30,220410,,*20
$GPRMC,030210.5,A,3247.3943,N,11709.5939,W,63.50,197.20,220410,,*2B
$GPRMC,030213.5,A,3247.3438,N,11709.6130,W,63.60,198.20,220410,,*27
$GPRMC,030216.5,A,3247.2936,N,11709.6329,W,63.20,198.30,220410,,*2F
$GPRMC,030219.5,A,3247.2425,N,11709.6518,W,63.10,197.50,220410,,*21
$GPRMC,030222.5,A,3247.1935,N,11709.6688,W,61.40,197.30,220410,,*2D
$GPRMC,030225.5,A,3247.1479,N,11709.6830,W,58.40,195.90,220410,,*20
$GPRMC,030228.5,A,3247.1019,N,11709.6973,W,57.10,195.40,220410,,*2E
$GPRMC,030231.5,A,3247.0558,N,11709.7110,W,56.60,194.80,220410,,*20
$GPRMC,030234.5,A,3247.0107,N,11709.7269,W,56.20,195.50,220410,,*2E
$GPRMC,030237.5,A,3246.9658,N,11709.7412,W,55.40,195.60,220410,,*24
$GPRMC,030240.5,A,3246.9216,N,11709.7567,W,55.30,195.20,220410,,*2A
$GPRMC,030243.5,A,3246.8753,N,11709.7681,W,55.90,192.10,220410,,*29
$GPRMC,030246.5,A,3246.8293,N,11709.7775,W,53.60,187.70,220410,,*24
$GPRMC,030249.5,A,3246.7832,N,11709.7842,W,54.70,184.20,220410,,*2E
$GPRMC,030252.5,A,3246.7371,N,11709.7838,W,53.10,178.10,220410,,*24
$GPRMC,030255.5,A,3246.6945,N,11709.7791,W,51.50,173.70,220410,,*28
$GPRMC,030258.5,A,3246.6548,N,11709.7707,W,49.60,168.10,220410,,*2D
$GPRMC,030301.5,A,3246.6125,N,11709.7588,W,52.10,165.00,220410,,*2B
$GPRMC,030304.5,A,3246.5720,N,11709.7403,W,51.30,160.80,220410,,*20
$GPRMC,030308.5,A,3246.5166,N,11709.7153,W,53.10,161.10,220410,,*20
$GPRMC,030311.5,A,3246.4750,N,11709.6965,W,53.00,160.50,220410,,*22
$GPRMC,030314.5,A,3246.4346,N,11709.6797,W,52.10,164.50,220410,,*23
$GPRMC,030317.5,A,3246.3925,N,11709.6661,W,51.70,168.90,220410,,*25
$GPRMC,030320.5,A,3246.3497,N,11709.6624,W,50.00,174.00,220410,,*26
$GPRMC,030323.5,A,3246.3110,N,11709.6665,W,48.30,181.20,220410,,*28
$GPRMC,030326.5,A,3246.2728,N,11709.6757,W,46.90,185.70,220410,,*24
$GPRMC,030329.5,A,3246.2283,N,11709.7024,W,49.40,192.30,220410,,*2D
$GPRMC,030332.5,A,3246.1828,N,11709.7136,W,51.20,192.10,220410,,*20
$GPRMC,030335.5,A,3246.1406,N,11709.7232,W,52.30,191.60,220410,,*26
$GPRMC,030338.5,A,3246.0956,N,11709.7354,W,54.10,191.50,220410,,*24
$GPRMC,030341.5,A,3246.0502,N,11709.7466,W,54.80,191.20,220410,,*2F
$GPRMC,030344.5,A,3246.0050,N,11709.7562,W,55.90,191.90,220410,,*26
$GPRMC,030347.5,A,3245.9591,N,11709.7684,W,57.60,192.90,220410,,*22
$GPRMC,030350.5,A,3245.9108,N,11709.7829,W,58.90,193.40,220410,,*25
$GPRMC,030353.5,A,3245.8637,N,11709.7951,W,58.30,193.20,220410,,*2E
$GPRMC,030356.5,A,3245.8175,N,11709.8092,W,57.50,192.50,220410,,*2C
$GPRMC,030359.5,A,3245.7725,N,11709.8166,W,55.50,188.90,220410,,*20
$GPRMC,030402.5,A,3245.7275,N,11709.8232,W,54.90,187.60,220410,,*26
$GPRMC,030405.5,A,3245.6778,N,11709.8147,W,57.00,177.10,220410,,*2B
$GPRMC,030408.5,A,3245.6345,N,11709.8028,W,57.40,174.10,220410,,*23
$GPRMC,030411.5,A,3245.5946,N,11709.7818,W,56.30,168.50,220410,,*2A
$GPRMC,030414.5,A,3245.5692,N,11709.7501,W,48.10,153.40,220410,,*28
$GPRMC,030417.5,A,3245.5442,N,11709.7203,W,43.90,142.50,220410,,*23
$GPRMC,030420.5,A,3245.5166,N,11709.6867,W,45.50,138.30,220410,,*2C
$GPRMC,030423.5,A,3245.4891,N,11709.6555,W,46.60,138.20,220410,,*22
$GPRMC,030426.5,A,3245.4586,N,11709.6190,W,48.90,139.20,220410,,*21
$GPRMC,030429.5,A,3245.4259,N,11709.5870,W,50.50,143.10,220410,,*24
$GPRMC,030432.5,A,3245.3896,N,11709.5589,W,52.20,146.80,220410,,*22
$GPRMC,030435.5,A,3245.3509,N,11709.5356,W,52.20,151.50,220410,,*21
$GPRMC,030438.5,A,3245.3088,N,11709.5265,W,51.50,161.80,220410,,*2B
$GPRMC,030441.5,A,3245.2676,N,11709.5148,W,50.70,164.00,220410,,*21
$GPRMC,030444.5,A,3245.2290,N,11709.5003,W,48.00,159.50,220410,,*23
$GPRMC,030447.5,A,3245.1972,N,11709.4786,W,44.00,150.80,220410,,*27
$GPRMC,030450.5,A,3245.1693,N,11709.4568,W,40.10,145.80,220410,,*22
$GPRMC,030453.5,A,3245.1460,N,11709.4278,W,38.50,136.30,220410,,*2D
$GPRMC,030456.5,A,3245.1238,N,11709.3974,W,39.30,133.10,220410,,*23
$GPRMC,030459.5,A,3245.1010,N,11709.3744,W,36.10,140.30,220410,,*22
$GPRMC,030502.5,A,3245.0767,N,11709.3528,W,36.00,143.20,220410,,*20
$GPRMC,030505.5,A,3245.0497,N,11709.3447,W,33.80,157.70,220410,,*2E
$GPRMC,030508.5,A,3245.0241,N,11709.3407,W,31.70,166.10,220410,,*23
$GPRMC,030511.5,A,3244.9990,N,11709.3454,W,27.10,181.90,220410,,*22
$GPRMC,030514.5,A,3244.9785,N,11709.3578,W,24.80,195.90,220410,,*2D
$GPRMC,030517.5,A,3244.9705,N,11709.3633,W,14.80,203.60,220410,,*2A
$GPRMC,030520.5,A,3244.9675,N,11709.3684,W,9.10,203.90,220410,,*1E
$GPRMC,030526.5,A,3244.9752,N,11709.3828,W,6.40,225.20,220410,,*11
$GPRMC,030529.5,A,3244.9687,N,11709.3872,W,8.60,206.70,220410,,*10
$GPRMC,030532.5,A,3244.9591,N,11709.3890,W,10.00,195.90,220410,,*2A
$GPRMC,030535.5,A,3244.9375,N,11709.3853,W,18.70,176.60,220410,,*23
$GPRMC,030538.5,A,3244.9201,N,11709.3851,W,18.70,183.20,220410,,*20
$GPRMC,030541.5,A,3244.9084,N,11709.3811,W,12.60,164.10,220410,,*24
$GPRMC,030544.5,A,3244.9019,N,11709.3651,W,13.30,121.10,220410,,*2A
$GPRMC,030547.5,A,3244.9008,N,11709.3413,W,20.40,98.60,220410,,*1E
$GPRMC,030550.5,A,3244.9009,N,11709.3195,W,20.50,91.20,220410,,*1E
$GPRMC,030553.5,A,3244.9008,N,11709.2958,W,22.20,88.90,220410,,*12
$GPRMC,030556.5,A,3244.9009,N,11709.2710,W,25.20,87.90,220410,,*1C
$GPRMC,030559.5,A,3244.9013,N,11709.2469,W,24.90,87.60,220410,,*10
$GPRMC,030602.5,A,3244.9019,N,11709.2282,W,18.00,87.00,220410,,*14
$GPRMC,030605.5,A,3244.9022,N,11709.2175,W,11.10,85.50,220410,,*1F
$GPRMC,030705.5,A,3244.9103,N,11709.2067,W,6.10,64.80,220410,,*2A
$GPRMC,030708.5,A,3244.9097,N,11709.1938,W,8.90,79.20,220410,,*2B
$GPRMC,030711.5,A,3244.9088,N,11709.1630,W,19.30,87.00,220410,,*13
$GPRMC,030715.5,A,3244.9098,N,11709.1325,W,19.80,85.30,220410,,*1D
$GPRMC,030718.5,A,3244.9093,N,11709.1085,W,20.30,88.90,220410,,*14
$GPRMC,030721.5,A,3244.9089,N,11709.0866,W,20.20,92.10,220410,,*13
$GPRMC,030724.5,A,3244.9084,N,11709.0675,W,19.20,91.00,220410,,*1F
$GPRMC,030727.5,A,3244.9066,N,11709.0471,W,20.40,93.50,220410,,*1D
$GPRMC,030730.5,A,3244.9071,N,11709.0277,W,19.90,91.00,220410,,*1D
$GPRMC,030733.5,A,3244.9051,N,11709.0047,W,21.80,91.90,220410,,*1E
$GPRMC,030736.5,A,3244.9059,N,11708.9861,W,19.70,94.00,220410,,*1F
$GPRMC,030739.5,A,3244.9048,N,11708.9682,W,19.00,92.40,220410,,*16
$GPRMC,030742.5,A,3244.9073,N,11708.9488,W,17.70,87.00,220410,,*13
$GPRMC,030745.5,A,3244.9062,N,11708.9325,W,18.10,88.80,220410,,*1A
$GPRMC,030748.5,A,3244.9034,N,11708.9156,W,18.20,89.50,220410,,*1D
$GPRMC,030751.5,A,3244.9030,N,11708.8993,W,17.40,91.30,220410,,*17
$GPRMC,030754.5,A,3244.9014,N,11708.8811,W,18.20,91.80,220410,,*1D
$GPRMC,030757.5,A,3244.9027,N,11708.8633,W,17.60,88.50,220410,,*1E
$GPRMC,030800.5,A,3244.9028,N,11708.8465,W,17.00,90.10,220410,,*16
$GPRMC,030803.5,A,3244.9012,N,11708.8305,W,16.70,93.60,220410,,*1F
$GPRMC,030806.5,A,3244.9025,N,11708.8167,W,13.30,92.20,220410,,*1C
$GPRMC,030809.5,A,3244.9025,N,11708.8065,W,7.80,92.90,220410,,*25
$GPRMC,030836.5,A,3244.8955,N,11708.7923,W,7.60,93.20,220410,,*26
$GPRMC,030839.5,A,3244.8998,N,11708.7738,W,15.50,88.60,220410,,*12
$GPRMC,030842.5,A,3244.9002,N,11708.7540,W,19.20,89.40,220410,,*10
$GPRMC,030845.5,A,3244.9015,N,11708.7317,W,21.00,89.30,220410,,*1B
$GPRMC,030848.5,A,3244.8990,N,11708.7085,W,23.20,91.40,220410,,*15
$GPRMC,030851.5,A,3244.9007,N,11708.6839,W,25.60,88.60,220410,,*1D
$GPRMC,030854.5,A,3244.8994,N,11708.6574,W,25.40,90.50,220410,,*16
$GPRMC,030857.5,A,3244.8978,N,11708.6312,W,25.60,90.00,220410,,*16
$GPRMC,030900.5,A,3244.9002,N,11708.6060,W,25.40,88.20,220410,,*1F
$GPRMC,030903.5,A,3244.9027,N,11708.5802,W,25.50,88.10,220410,,*16
$GPRMC,030906.5,A,3244.9007,N,11708.5559,W,24.30,92.30,220410,,*1C
$GPRMC,030909.5,A,3244.9051,N,11708.5361,W,21.70,91.70,220410,,*1B
$GPRMC,030912.5,A,3244.9064,N,11708.5100,W,23.20,88.00,220410,,*1A
$GPRMC,030915.5,A,3244.9071,N,11708.4884,W,21.60,87.30,220410,,*17
$GPRMC,030919.5,A,3244.9053,N,11708.4571,W,22.00,90.10,220410,,*1D
$GPRMC,030922.5,A,3244.9038,N,11708.4342,W,21.60,92.60,220410,,*1E
$GPRMC,030925.5,A,3244.9042,N,11708.4123,W,21.50,88.80,220410,,*17
$GPRMC,030928.5,A,3244.9060,N,11708.3939,W,20.40,89.10,220410,,*16
$GPRMC,030931.5,A,3244.9033,N,11708.3770,W,18.40,92.10,220410,,*1A
$GPRMC,030934.5,A,3244.9045,N,11708.3629,W,14.30,86.10,220410,,*1D
$GPRMC,030937.5,A,3244.9050,N,11708.3520,W,11.30,83.50,220410,,*14
$GPRMC,030940.5,A,3244.9040,N,11708.3454,W,8.40,89.00,220410,,*27
$GPRMC,030943.5,A,3244.9036,N,11708.3357,W,9.20,92.40,220410,,*28
$GPRMC,030946.5,A,3244.8997,N,11708.3298,W,7.80,128.00,220410,,*1C
$GPRMC,030949.5,A,3244.8965,N,11708.3273,W,7.00,137.00,220410,,*1D
$GPRMC,030952.5,A,3244.8831,N,11708.3300,W,12.20,178.10,220410,,*2E
$GPRMC,030955.5,A,3244.8686,N,11708.3334,W,14.70,186.80,220410,,*27
$GPRMC,030958.5,A,3244.8556,N,11708.3351,W,14.80,185.80,220410,,*2B
$GPRMC,031001.5,A,3244.8378,N,11708.3369,W,17.40,186.60,220410,,*2C
$GPRMC,031004.5,A,3244.8115,N,11708.3374,W,19.80,180.60,220410,,*28
$GPRMC,031007.5,A,3244.7881,N,11708.3358,W,18.70,182.20,220410,,*26
$GPRMC,031010.5,A,3244.7699,N,11708.3384,W,18.50,187.40,220410,,*27
$GPRMC,031013.5,A,3244.7565,N,11708.3397,W,15.70,185.00,220410,,*2F
$GPRMC,031016.5,A,3244.7469,N,11708.3402,W,8.80,193.50,220410,,*1D
$GPRMC,031019.5,A,3244.7424,N,11708.3396,W,5.70,192.20,220410,,*15
$GPRMC,031025.5,A,3244.7345,N,11708.3386,W,6.30,164.30,220410,,*14
$GPRMC,031028.5,A,3244.7252,N,11708.3361,W,11.80,168.30,220410,,*26
$GPRMC,031031.5,A,3244.7092,N,11708.3360,W,16.30,179.50,220410,,*2B
$GPRMC,031034.5,A,3244.6937,N,11708.3339,W,19.10,174.30,220410,,*23
$GPRMC,031037.5,A,3244.6764,N,11708.3340,W,20.10,175.30,220410,,*2D
$GPRMC,031040.5,A,3244.6589,N,11708.3352,W,20.80,180.90,220410,,*26
$GPRMC,031043.5,A,3244.6411,N,11708.3365,W,21.00,179.80,220410,,*2F
$GPRMC,031046.5,A,3244.6230,N,11708.3383,W,21.70,181.80,220410,,*27
$GPRMC,031049.5,A,3244.6060,N,11708.3371,W,21.80,179.50,220410,,*27
$GPRMC,031052.5,A,3244.5876,N,11708.3382,W,22.40,185.50,220410,,*21
$GPRMC,031055.5,A,3244.5687,N,11708.3423,W,23.10,186.40,220410,,*2C
$GPRMC,031058.5,A,3244.5510,N,11708.3404,W,22.10,180.60,220410,,*2C
$GPRMC,031101.5,A,3244.5322,N,11708.3427,W,20.30,181.10,220410,,*21
$GPRMC,031104.5,A,3244.5171,N,11708.3412,W,18.50,179.00,220410,,*2D
$GPRMC,031107.5,A,3244.5018,N,11708.3409,W,19.30,181.80,220410,,*22
$GPRMC,031110.5,A,3244.4843,N,11708.3416,W,20.40,180.50,220410,,*2C
$GPRMC,031113.5,A,3244.4702,N,11708.3436,W,17.70,184.00,220410,,*21
$GPRMC,031116.5,A,3244.4618,N,11708.3422,W,12.90,181.20,220410,,*27
$GPRMC,031119.5,A,3244.4578,N,11708.3475,W,8.20,207.60,220410,,*16
$GPRMC,031123.5,A,3244.4561,N,11708.3400,W,6.70,155.10,220410,,*1D
$GPRMC,031126.5,A,3244.4591,N,11708.3237,W,10.10,106.90,220410,,*2A
$GPRMC,031129.5,A,3244.4592,N,11708.3100,W,14.40,92.40,220410,,*11
$GPRMC,031132.5,A,3244.4597,N,11708.2935,W,16.20,90.00,220410,,*13
$GPRMC,031135.5,A,3244.4604,N,11708.2731,W,17.80,89.50,220410,,*11
$GPRMC,031138.5,A,3244.4612,N,11708.2538,W,18.80,89.40,220410,,*1E
$GPRMC,031141.5,A,3244.4609,N,11708.2371,W,15.90,92.20,220410,,*11
$GPRMC,031144.5,A,3244.4589,N,11708.2219,W,15.00,95.90,220410,,*15
$GPRMC,031147.5,A,3244.4585,N,11708.2099,W,14.50,92.50,220410,,*1F
$GPRMC,031150.5,A,3244.4583,N,11708.1901,W,19.50,88.30,220410,,*14
$GPRMC,031153.5,A,3244.4591,N,11708.1644,W,22.40,87.90,220410,,*16
$GPRMC,031156.5,A,3244.4585,N,11708.1403,W,22.40,88.00,220410,,*11
$GPRMC,031159.5,A,3244.4573,N,11708.1208,W,20.00,88.10,220410,,*1D
$GPRMC,031202.5,A,3244.4575,N,11708.0986,W,22.80,88.00,220410,,*11
$GPRMC,031205.5,A,3244.4593,N,11708.0785,W,20.40,88.20,220410,,*1F
$GPRMC,031208.5,A,3244.4601,N,11708.0579,W,21.40,84.80,220410,,*1C
$GPRMC,031211.5,A,3244.4602,N,11708.0406,W,19.20,88.80,220410,,*1F
$GPRMC,031214.5,A,3244.4607,N,11708.0316,W,12.50,87.30,220410,,*11
$GPRMC,031217.5,A,3244.4601,N,11708.0293,W,8.50,86.50,220410,,*24
$GPRMC,031220.5,A,3244.4636,N,11708.0163,W,14.70,66.20,220410,,*1E
$GPRMC,031223.5,A,3244.4688,N,11708.0007,W,17.00,71.70,220410,,*1C
$GPRMC,031226.5,A,3244.4711,N,11707.9795,W,19.20,79.50,220410,,*14
$GPRMC,031229.5,A,3244.4686,N,11707.9604,W,18.50,94.10,220410,,*1C
$GPRMC,031232.5,A,3244.4684,N,11707.9397,W,19.30,92.80,220410,,*13
$GPRMC,031235.5,A,3244.4701,N,11707.9176,W,21.20,87.80,220410,,*1B
$GPRMC,031238.5,A,3244.4738,N,11707.8959,W,22.40,81.20,220410,,*11
$GPRMC,031241.5,A,3244.4717,N,11707.8742,W,21.30,89.50,220410,,*1D
$GPRMC,031244.5,A,3244.4711,N,11707.8562,W,21.00,87.80,220410,,*1E
$GPRMC,031247.5,A,3244.4706,N,11707.8381,W,21.00,88.00,220410,,*17
$GPRMC,031250.5,A,3244.4697,N,11707.8261,W,17.30,89.80,220410,,*18
$GPRMC,031253.5,A,3244.4693,N,11707.8087,W,9.80,81.80,220410,,*29
$GPRMC,031256.5,A,3244.4691,N,11707.8063,W,8.00,83.40,220410,,*23
$GPRMC,031259.5,A,3244.4663,N,11707.7993,W,8.60,97.20,220410,,*2D
$GPRMC,031302.5,A,3244.4655,N,11707.7908,W,8.10,98.60,220410,,*29
$GPRMC,031305.5,A,3244.4647,N,11707.7822,W,8.90,96.10,220410,,*25
$GPRMC,031308.5,A,3244.4632,N,11707.7707,W,9.20,95.40,220410,,*2E
$GPRMC,031311.5,A,3244.4628,N,11707.7706,W,6.40,120.00,220410,,*1E
$GPRMC,031314.5,A,3244.4600,N,11707.7586,W,7.90,120.20,220410,,*15
$GPRMC,031317.5,A,3244.4538,N,11707.7552,W,7.30,145.00,220410,,*1C
$GPRMC,031320.5,A,3244.4431,N,11707.7572,W,8.50,175.20,220410,,*1A
$GPRMC,031323.5,A,3244.4324,N,11707.7585,W,10.30,173.30,220410,,*2A
$GPRMC,031326.5,A,3244.4199,N,11707.7580,W,13.40,178.50,220410,,*27
$GPRMC,031329.5,A,3244.4074,N,11707.7568,W,15.40,182.50,220410,,*2F
$GPRMC,031332.5,A,3244.3934,N,11707.7580,W,16.00,181.30,220410,,*2B
$GPRMC,031335.5,A,3244.3789,N,11707.7573,W,16.30,178.20,220410,,*2C
$GPRMC,031338.5,A,3244.3676,N,11707.7588,W,14.20,183.50,220410,,*24
$GPRMC,031341.5,A,3244.3608,N,11707.7607,W,8.30,202.00,220410,,*14
$GPRMC,031344.5,A,3244.3581,N,11707.7701,W,7.10,245.90,220410,,*13
$GPRMC,031347.5,A,3244.3578,N,11707.7788,W,8.90,265.00,220410,,*1B
$GPRMC,031350.5,A,3244.3570,N,11707.7896,W,9.70,269.50,220410,,*13
$GPRMC,031353.5,A,3244.3580,N,11707.8018,W,11.10,270.10,220410,,*2D
$GPRMC,031356.5,A,3244.3598,N,11707.8119,W,10.00,278.20,220410,,*2A
$GPRMC,031359.5,A,3244.3574,N,11707.8169,W,7.50,261.40,220410,,*1D
$GPRMC,031414.5,A,3244.3693,N,11707.8195,W,7.70,14.90,220410,,*25
$GPRMC,031417.5,A,3244.3801,N,11707.8169,W,11.30,19.30,220410,,*14
$GPRMC,031420.5,A,3244.3989,N,11707.8176,W,16.60,2.00,220410,,*24
$GPRMC,031423.5,A,3244.4133,N,11707.8180,W,15.10,1.50,220410,,*22
$GPRMC,031426.5,A,3244.4253,N,11707.8171,W,13.40,3.80,220410,,*20
