NMEA Sentence Code,UTC Time,Status,Latitude,Latitude Direction,Longitude,Longitude Direction,Speed (knots),Track Angle (degrees true),Date,MagneticVariation,Magnetic Variation Direction,[FAA Mode]-Optional,Checksum
$GPRMC,193410.9,A,3347.632601,N,11729.974393,W,59.3,149.0,040610,,,A*47
$GPRMC,193413.9,A,3347.590307,N,11729.942250,W,60.0,147.6,040610,,,A*46
$GPRMC,193416.9,A,3347.549464,N,11729.908788,W,59.1,146.0,040610,,,A*47
$GPRMC,193419.9,A,3347.509362,N,11729.877782,W,56.0,147.2,040610,,,A*43
$GPRMC,193422.9,A,3347.469499,N,11729.847981,W,57.7,147.3,040610,,,A*46
$GPRMC,193425.9,A,3347.429307,N,11729.815185,W,60.1,146.6,040610,,,A*48
$GPRMC,193428.9,A,3347.387471,N,11729.781330,W,61.6,147.0,040610,,,A*4F
$GPRMC,193431.9,A,3347.342582,N,11729.746847,W,63.1,147.4,040610,,,A*42
$GPRMC,193434.2,A,3347.307757,N,11729.720237,W,62.3,147.2,040610,,,A*4F
$GPRMC,193437.2,A,3347.262948,N,11729.686196,W,63.2,147.1,040610,,,A*48
$GPRMC,193440.2,A,3347.218280,N,11729.651666,W,63.7,147.0,040610,,,A*4C
$GPRMC,193443.2,A,3347.173978,N,11729.616923,W,63.2,147.2,040610,,,A*47
$GPRMC,193446.2,A,3347.130032,N,11729.583391,W,61.6,147.2,040610,,,A*48
$GPRMC,193449.9,A,3347.077448,N,11729.542892,W,60.9,147.4,040610,,,A*4A
$GPRMC,193452.9,A,3347.034108,N,11729.511282,W,59.9,148.6,040610,,,A*4C
$GPRMC,193455.9,A,3346.992030,N,11729.483670,W,58.6,150.8,040610,,,A*4F
$GPRMC,193458.9,A,3346.949701,N,11729.455262,W,58.3,151.6,040610,,,A*47
$GPRMC,193501.9,A,3346.905903,N,11729.428160,W,58.6,152.7,040610,,,A*42
$GPRMC,193504.9,A,3346.863689,N,11729.402566,W,56.9,152.7,040610,,,A*40
$GPRMC,193507.9,A,3346.824370,N,11729.377224,W,55.0,152.4,040610,,,A*4E
$GPRMC,193510.9,A,3346.781509,N,11729.352869,W,57.2,153.0,040610,,,A*41
$GPRMC,193513.9,A,3346.738203,N,11729.327421,W,59.4,153.2,040610,,,A*45
$GPRMC,193516.9,A,3346.696454,N,11729.301248,W,56.6,153.0,040610,,,A*43
$GPRMC,193519.9,A,3346.654017,N,11729.273736,W,56.6,152.8,040610,,,A*40
$GPRMC,193522.9,A,3346.611523,N,11729.249094,W,56.4,153.5,040610,,,A*43
$GPRMC,193525.9,A,3346.569308,N,11729.223093,W,57.9,152.9,040610,,,A*4D
$GPRMC,193528.9,A,3346.526564,N,11729.199397,W,58.3,153.7,040610,,,A*48
$GPRMC,193531.9,A,3346.479513,N,11729.174364,W,59.9,154.3,040610,,,A*4C
$GPRMC,193534.9,A,3346.438751,N,11729.147261,W,58.0,153.1,040610,,,A*41
$GPRMC,193537.9,A,3346.393815,N,11729.119476,W,60.1,152.8,040610,,,A*42
$GPRMC,193540.9,A,3346.350982,N,11729.088979,W,60.1,148.8,040610,,,A*42
$GPRMC,193543.9,A,3346.309583,N,11729.055654,W,60.0,145.5,040610,,,A*41
$GPRMC,193546.9,A,3346.269144,N,11729.018999,W,61.2,141.1,040610,,,A*48
$GPRMC,193549.2,A,3346.240384,N,11728.986512,W,60.5,136.4,040610,,,A*4A
$GPRMC,193552.9,A,3346.199465,N,11728.933611,W,60.8,132.4,040610,,,A*43
$GPRMC,193555.9,A,3346.161834,N,11728.884396,W,66.4,132.7,040610,,,A*45
$GPRMC,193558.9,A,3346.132427,N,11728.832331,W,63.5,125.8,040610,,,A*4D
$GPRMC,193601.9,A,3346.104567,N,11728.780172,W,62.8,125.3,040610,,,A*46
$GPRMC,193604.9,A,3346.074422,N,11728.732431,W,63.7,129.9,040610,,,A*46
$GPRMC,193607.9,A,3346.036424,N,11728.685607,W,65.7,134.1,040610,,,A*4D
$GPRMC,193610.9,A,3345.996300,N,11728.642375,W,65.4,139.1,040610,,,A*4F
$GPRMC,193613.9,A,3345.949700,N,11728.599534,W,66.9,143.2,040610,,,A*4C
$GPRMC,193616.9,A,3345.904316,N,11728.561898,W,65.4,144.3,040610,,,A*47
$GPRMC,193619.9,A,3345.862130,N,11728.524062,W,63.6,143.0,040610,,,A*43
$GPRMC,193622.9,A,3345.823547,N,11728.485635,W,62.1,139.6,040610,,,A*49
$GPRMC,193625.9,A,3345.786360,N,11728.444220,W,61.0,135.1,040610,,,A*49
$GPRMC,193628.9,A,3345.756196,N,11728.400571,W,57.7,129.1,040610,,,A*4E
$GPRMC,193631.9,A,3345.727272,N,11728.351420,W,59.2,125.8,040610,,,A*41
$GPRMC,193634.9,A,3345.702582,N,11728.304837,W,58.1,122.6,040610,,,A*4A
$GPRMC,193637.9,A,3345.680187,N,11728.252607,W,57.3,117.3,040610,,,A*42
$GPRMC,193640.9,A,3345.657793,N,11728.200708,W,57.0,114.3,040610,,,A*42
$GPRMC,193643.9,A,3345.643643,N,11728.147391,W,57.4,108.7,040610,,,A*41
$GPRMC,193646.9,A,3345.629063,N,11728.093717,W,57.3,108.9,040610,,,A*47
$GPRMC,193649.9,A,3345.612643,N,11728.039933,W,57.9,110.0,040610,,,A*46
$GPRMC,193652.9,A,3345.592050,N,11727.983457,W,59.6,114.0,040610,,,A*4E
$GPRMC,193655.9,A,3345.569405,N,11727.928087,W,60.3,114.2,040610,,,A*4C
$GPRMC,193658.9,A,3345.540937,N,11727.875806,W,62.8,122.3,040610,,,A*43
$GPRMC,193701.9,A,3345.513879,N,11727.826443,W,61.1,124.5,040610,,,A*42
$GPRMC,193704.9,A,3345.480008,N,11727.778876,W,62.0,128.3,040610,,,A*44
$GPRMC,193707.9,A,3345.446245,N,11727.727441,W,64.1,127.7,040610,,,A*48
$GPRMC,193710.9,A,3345.414088,N,11727.678750,W,64.3,127.7,040610,,,A*40
$GPRMC,193713.9,A,3345.381550,N,11727.628631,W,63.5,128.1,040610,,,A*43
$GPRMC,193716.9,A,3345.349670,N,11727.578334,W,62.7,128.1,040610,,,A*46
$GPRMC,193719.9,A,3345.317600,N,11727.530613,W,60.2,129.6,040610,,,A*48
$GPRMC,193722.9,A,3345.284386,N,11727.484800,W,59.1,132.6,040610,,,A*41
$GPRMC,193725.9,A,3345.248790,N,11727.444774,W,58.9,137.9,040610,,,A*46
$GPRMC,193728.9,A,3345.211114,N,11727.406825,W,58.7,141.5,040610,,,A*43
$GPRMC,193731.9,A,3345.169616,N,11727.374075,W,58.9,146.2,040610,,,A*43
$GPRMC,193734.9,A,3345.129941,N,11727.343426,W,57.3,148.3,040610,,,A*43
$GPRMC,193737.9,A,3345.090760,N,11727.313989,W,56.4,148.4,040610,,,A*42
$GPRMC,193740.9,A,3345.049725,N,11727.284473,W,56.8,147.8,040610,,,A*4F
$GPRMC,193743.9,A,3345.008030,N,11727.252723,W,58.3,144.7,040610,,,A*4E
$GPRMC,193746.9,A,3344.969950,N,11727.218006,W,58.4,141.0,040610,,,A*40
$GPRMC,193749.9,A,3344.935383,N,11727.178147,W,58.4,136.0,040610,,,A*43
$GPRMC,193752.9,A,3344.904257,N,11727.135358,W,57.8,131.4,040610,,,A*46
$GPRMC,193755.9,A,3344.873205,N,11727.089573,W,59.8,127.5,040610,,,A*46
$GPRMC,193758.9,A,3344.844652,N,11727.038741,W,61.3,123.0,040610,,,A*41
$GPRMC,193801.9,A,3344.818668,N,11726.983921,W,62.8,119.6,040610,,,A*45
$GPRMC,193804.9,A,3344.792893,N,11726.929144,W,63.8,119.0,040610,,,A*4B
$GPRMC,193807.9,A,3344.767041,N,11726.873238,W,63.5,118.9,040610,,,A*46
$GPRMC,193810.9,A,3344.742746,N,11726.817141,W,64.6,118.1,040610,,,A*44
$GPRMC,193813.9,A,3344.716676,N,11726.760636,W,65.0,119.1,040610,,,A*4A
$GPRMC,193816.9,A,3344.691435,N,11726.702002,W,65.3,117.5,040610,,,A*48
$GPRMC,193819.9,A,3344.663777,N,11726.642673,W,68.5,119.1,040610,,,A*4B
$GPRMC,193822.9,A,3344.635443,N,11726.585028,W,68.0,119.4,040610,,,A*44
$GPRMC,193825.9,A,3344.609860,N,11726.522800,W,68.8,116.9,040610,,,A*44
$GPRMC,193828.9,A,3344.588092,N,11726.461007,W,68.4,113.1,040610,,,A*4E
$GPRMC,193831.9,A,3344.567233,N,11726.397624,W,68.8,111.3,040610,,,A*4B
$GPRMC,193834.9,A,3344.551750,N,11726.330348,W,69.1,106.4,040610,,,A*40
$GPRMC,193837.9,A,3344.537514,N,11726.265901,W,67.8,103.0,040610,,,A*41
$GPRMC,193840.9,A,3344.523525,N,11726.199963,W,66.1,102.7,040610,,,A*4C
$GPRMC,193843.9,A,3344.514577,N,11726.137530,W,63.7,100.6,040610,,,A*42
$GPRMC,193846.9,A,3344.503605,N,11726.076566,W,62.0,103.0,040610,,,A*43
$GPRMC,193849.9,A,3344.493205,N,11726.019817,W,61.4,104.4,040610,,,A*46
$GPRMC,193852.9,A,3344.474347,N,11725.960293,W,61.9,110.8,040610,,,A*44
$GPRMC,193855.9,A,3344.453717,N,11725.904344,W,61.5,113.7,040610,,,A*4E
$GPRMC,193858.9,A,3344.430429,N,11725.846993,W,62.5,117.8,040610,,,A*47
$GPRMC,193901.9,A,3344.404049,N,11725.793020,W,62.6,120.6,040610,,,A*40
$GPRMC,193904.9,A,3344.377817,N,11725.741006,W,61.1,123.5,040610,,,A*4A
$GPRMC,193907.9,A,3344.348664,N,11725.695410,W,60.1,127.3,040610,,,A*47
$GPRMC,193910.9,A,3344.316416,N,11725.643687,W,63.2,126.7,040610,,,A*4F
$GPRMC,193913.9,A,3344.285511,N,11725.592244,W,64.1,126.1,040610,,,A*47
$GPRMC,193916.9,A,3344.251738,N,11725.543001,W,64.6,127.3,040610,,,A*49
$GPRMC,193919.9,A,3344.215471,N,11725.486312,W,68.8,126.7,040610,,,A*46
$GPRMC,193922.9,A,3344.180837,N,11725.431610,W,69.0,126.9,040610,,,A*43
$GPRMC,193925.9,A,3344.145366,N,11725.377322,W,69.3,128.1,040610,,,A*46
$GPRMC,193928.9,A,3344.111030,N,11725.320376,W,69.3,125.8,040610,,,A*4D
$GPRMC,193931.9,A,3344.079056,N,11725.262671,W,70.3,122.0,040610,,,A*48
$GPRMC,193934.9,A,3344.052520,N,11725.198903,W,70.1,116.0,040610,,,A*49
$GPRMC,193937.9,A,3344.029602,N,11725.135802,W,69.3,111.6,040610,,,A*49
$GPRMC,193940.9,A,3344.011969,N,11725.069019,W,69.2,107.1,040610,,,A*4B
$GPRMC,193943.9,A,3344.001305,N,11725.005865,W,65.6,101.8,040610,,,A*47
$GPRMC,193946.9,A,3343.995470,N,11724.942387,W,65.0,97.4,040610,,,A*7C
$GPRMC,193949.9,A,3343.991620,N,11724.880366,W,63.2,93.3,040610,,,A*77
$GPRMC,193952.9,A,3343.992138,N,11724.817413,W,62.2,90.0,040610,,,A*7A
$GPRMC,193955.9,A,3343.993599,N,11724.755498,W,61.0,88.3,040610,,,A*72
$GPRMC,193958.9,A,3343.994422,N,11724.698306,W,58.7,88.5,040610,,,A*72
$GPRMC,194001.9,A,3343.997136,N,11724.638528,W,59.7,88.6,040610,,,A*71
$GPRMC,194004.9,A,3343.999656,N,11724.578543,W,60.6,86.8,040610,,,A*7A
$GPRMC,194007.9,A,3343.998821,N,11724.518523,W,61.4,89.2,040610,,,A*70
$GPRMC,194010.9,A,3343.998626,N,11724.459020,W,60.1,92.0,040610,,,A*71
$GPRMC,194013.9,A,3343.991760,N,11724.397878,W,61.0,97.3,040610,,,A*7E
$GPRMC,194016.9,A,3343.981511,N,11724.335744,W,62.7,101.0,040610,,,A*4F
$GPRMC,194019.9,A,3343.970457,N,11724.276482,W,61.0,103.6,040610,,,A*42
$GPRMC,194022.9,A,3343.952180,N,11724.215773,W,63.0,110.1,040610,,,A*4A
$GPRMC,194025.9,A,3343.929012,N,11724.159633,W,63.0,116.4,040610,,,A*46
$GPRMC,194028.9,A,3343.902270,N,11724.103758,W,63.1,119.0,040610,,,A*4D
$GPRMC,194031.9,A,3343.877761,N,11724.051358,W,60.7,118.8,040610,,,A*4D
$GPRMC,194034.9,A,3343.857195,N,11723.998127,W,60.7,114.8,040610,,,A*4A
$GPRMC,194037.9,A,3343.835978,N,11723.940371,W,62.4,110.8,040610,,,A*47
$GPRMC,194040.9,A,3343.818967,N,11723.882136,W,61.1,107.4,040610,,,A*44
$GPRMC,194043.9,A,3343.805830,N,11723.822435,W,61.8,102.6,040610,,,A*4A
$GPRMC,194046.9,A,3343.798031,N,11723.762606,W,61.9,98.9,040610,,,A*78
$GPRMC,194049.9,A,3343.796841,N,11723.702894,W,59.8,93.8,040610,,,A*75
$GPRMC,194052.9,A,3343.794101,N,11723.641883,W,60.2,91.3,040610,,,A*79
$GPRMC,194055.9,A,3343.795561,N,11723.582895,W,59.8,90.2,040610,,,A*76
$GPRMC,194058.9,A,3343.797184,N,11723.521855,W,62.2,89.1,040610,,,A*7A
$GPRMC,194101.9,A,3343.795915,N,11723.459076,W,62.9,91.7,040610,,,A*76
$GPRMC,194104.9,A,3343.789502,N,11723.394151,W,64.2,96.1,040610,,,A*7A
$GPRMC,194107.9,A,3343.781024,N,11723.333521,W,62.8,99.5,040610,,,A*79
$GPRMC,194110.9,A,3343.769121,N,11723.273849,W,61.7,102.4,040610,,,A*45
$GPRMC,194113.9,A,3343.758840,N,11723.214385,W,60.3,101.9,040610,,,A*4B
$GPRMC,194116.9,A,3343.746034,N,11723.156717,W,59.4,104.2,040610,,,A*43
$GPRMC,194119.9,A,3343.734569,N,11723.095583,W,61.6,103.0,040610,,,A*49
$GPRMC,194122.9,A,3343.720234,N,11723.038921,W,59.6,105.5,040610,,,A*40
$GPRMC,194125.9,A,3343.708730,N,11722.980409,W,59.4,103.5,040610,,,A*44
$GPRMC,194128.9,A,3343.698872,N,11722.919946,W,61.3,102.8,040610,,,A*4E
$GPRMC,194131.9,A,3343.685135,N,11722.860962,W,61.3,103.6,040610,,,A*46
$GPRMC,194134.9,A,3343.672550,N,11722.800658,W,62.1,104.6,040610,,,A*4A
$GPRMC,194137.9,A,3343.662813,N,11722.742695,W,60.6,102.2,040610,,,A*4D
$GPRMC,194140.9,A,3343.651567,N,11722.683170,W,60.4,103.3,040610,,,A*41
$GPRMC,194143.9,A,3343.638521,N,11722.626887,W,59.0,105.3,040610,,,A*49
$GPRMC,194146.9,A,3343.626624,N,11722.569795,W,58.7,105.6,040610,,,A*42
$GPRMC,194149.9,A,3343.610760,N,11722.513366,W,59.3,109.0,040610,,,A*43
$GPRMC,194152.9,A,3343.592043,N,11722.460186,W,58.7,112.4,040610,,,A*44
$GPRMC,194155.9,A,3343.573785,N,11722.405236,W,59.6,112.5,040610,,,A*4B
$GPRMC,194158.9,A,3343.551041,N,11722.350871,W,61.6,116.6,040610,,,A*4B
$GPRMC,194201.9,A,3343.522679,N,11722.295547,W,64.9,119.8,040610,,,A*46
$GPRMC,194204.9,A,3343.492844,N,11722.240321,W,65.6,122.4,040610,,,A*4D
$GPRMC,194207.9,A,3343.463039,N,11722.185128,W,66.2,124.4,040610,,,A*42
$GPRMC,194210.9,A,3343.431632,N,11722.134643,W,63.8,127.4,040610,,,A*42
$GPRMC,194213.9,A,3343.399037,N,11722.085753,W,62.5,129.4,040610,,,A*4E
$GPRMC,194216.9,A,3343.365008,N,11722.036799,W,62.6,131.8,040610,,,A*4C
$GPRMC,194219.9,A,3343.326681,N,11721.994132,W,61.1,136.2,040610,,,A*4F
$GPRMC,194222.9,A,3343.286870,N,11721.951418,W,60.8,137.8,040610,,,A*4B
$GPRMC,194225.9,A,3343.245555,N,11721.914242,W,60.9,142.6,040610,,,A*4C
$GPRMC,194228.9,A,3343.205760,N,11721.876959,W,60.4,142.2,040610,,,A*4C
$GPRMC,194231.9,A,3343.162405,N,11721.842248,W,61.9,145.6,040610,,,A*45
$GPRMC,194234.9,A,3343.120797,N,11721.807691,W,61.7,147.9,040610,,,A*4C
$GPRMC,194237.9,A,3343.073360,N,11721.780007,W,63.0,151.9,040610,,,A*4F
$GPRMC,194240.9,A,3343.029620,N,11721.752154,W,61.1,153.0,040610,,,A*41
$GPRMC,194243.9,A,3342.981394,N,11721.728194,W,61.0,156.3,040610,,,A*44
$GPRMC,194246.9,A,3342.934715,N,11721.709250,W,60.9,159.2,040610,,,A*4C
$GPRMC,194249.9,A,3342.887059,N,11721.684919,W,61.0,160.0,040610,,,A*47
$GPRMC,194252.9,A,3342.838756,N,11721.664988,W,61.4,162.7,040610,,,A*46
$GPRMC,194255.9,A,3342.788756,N,11721.648169,W,60.8,165.1,040610,,,A*40
$GPRMC,194258.9,A,3342.741575,N,11721.634828,W,59.3,166.1,040610,,,A*4E
$GPRMC,194301.9,A,3342.693585,N,11721.623267,W,59.2,167.4,040610,,,A*40
$GPRMC,194304.9,A,3342.641741,N,11721.612313,W,61.9,170.2,040610,,,A*40
$GPRMC,194307.9,A,3342.592308,N,11721.593071,W,62.5,162.4,040610,,,A*40
$GPRMC,194310.9,A,3342.546791,N,11721.564560,W,61.8,155.7,040610,,,A*4F
$GPRMC,194313.9,A,3342.498264,N,11721.536110,W,62.5,154.4,040610,,,A*49
$GPRMC,194316.9,A,3342.450989,N,11721.509838,W,61.8,153.5,040610,,,A*47
$GPRMC,194319.9,A,3342.410119,N,11721.476047,W,59.6,147.1,040610,,,A*40
$GPRMC,194322.9,A,3342.369959,N,11721.439465,W,60.7,142.5,040610,,,A*48
$GPRMC,194325.9,A,3342.328398,N,11721.397250,W,62.0,139.9,040610,,,A*4B
$GPRMC,194328.9,A,3342.291549,N,11721.352670,W,62.5,135.3,040610,,,A*43
$GPRMC,194331.9,A,3342.258186,N,11721.310223,W,60.9,132.5,040610,,,A*42
$GPRMC,194334.2,A,3342.233281,N,11721.273396,W,62.2,128.9,040610,,,A*40
$GPRMC,194337.2,A,3342.200305,N,11721.225710,W,60.6,130.2,040610,,,A*43
$GPRMC,194340.9,A,3342.160579,N,11721.165070,W,62.2,128.7,040610,,,A*4C
$GPRMC,194343.9,A,3342.127717,N,11721.113987,W,64.3,127.6,040610,,,A*4F
$GPRMC,194346.9,A,3342.095477,N,11721.064811,W,63.0,128.7,040610,,,A*42
$GPRMC,194349.9,A,3342.060030,N,11721.015103,W,64.1,129.5,040610,,,A*49
$GPRMC,194352.9,A,3342.030160,N,11720.964753,W,63.4,127.5,040610,,,A*43
$GPRMC,194355.9,A,3341.996302,N,11720.915262,W,64.1,128.1,040610,,,A*4C
$GPRMC,194358.9,A,3341.961100,N,11720.864161,W,64.6,128.7,040610,,,A*4F
$GPRMC,194401.9,A,3341.925773,N,11720.812045,W,64.6,128.7,040610,,,A*40
$GPRMC,194404.9,A,3341.892253,N,11720.760313,W,64.8,128.9,040610,,,A*45
$GPRMC,194407.9,A,3341.858712,N,11720.709738,W,64.6,129.0,040610,,,A*44
$GPRMC,194410.9,A,3341.825778,N,11720.658379,W,64.9,127.8,040610,,,A*49
$GPRMC,194413.9,A,3341.792948,N,11720.607660,W,65.5,128.0,040610,,,A*49
$GPRMC,194416.9,A,3341.757741,N,11720.555122,W,66.9,128.5,040610,,,A*4D
$GPRMC,194419.9,A,3341.724307,N,11720.504630,W,65.6,129.1,040610,,,A*49
$GPRMC,194422.9,A,3341.688897,N,11720.454178,W,65.7,129.9,040610,,,A*42
$GPRMC,194425.9,A,3341.648053,N,11720.403836,W,68.6,133.4,040610,,,A*42
$GPRMC,194428.9,A,3341.612139,N,11720.361939,W,64.6,135.4,040610,,,A*4A
$GPRMC,194431.9,A,3341.569401,N,11720.313618,W,67.2,136.7,040610,,,A*4D
$GPRMC,194434.9,A,3341.529178,N,11720.269521,W,65.2,138.4,040610,,,A*4D
$GPRMC,194437.9,A,3341.487328,N,11720.226873,W,64.5,140.0,040610,,,A*40
$GPRMC,194440.9,A,3341.444792,N,11720.188684,W,63.0,143.1,040610,,,A*4B
$GPRMC,194443.9,A,3341.401623,N,11720.152177,W,61.5,144.3,040610,,,A*4C
$GPRMC,194446.9,A,3341.361071,N,11720.114839,W,59.4,143.0,040610,,,A*46
$GPRMC,194449.9,A,3341.323868,N,11720.080805,W,58.0,143.7,040610,,,A*4E
$GPRMC,194452.9,A,3341.283946,N,11720.046258,W,58.7,142.8,040610,,,A*43
$GPRMC,194455.9,A,3341.243899,N,11720.008667,W,61.0,142.3,040610,,,A*4F
$GPRMC,194458.9,A,3341.203790,N,11719.971065,W,62.0,142.5,040610,,,A*4C
$GPRMC,194501.9,A,3341.161722,N,11719.934207,W,62.5,142.9,040610,,,A*41
$GPRMC,194504.9,A,3341.119265,N,11719.895778,W,63.3,142.8,040610,,,A*4C
$GPRMC,194507.9,A,3341.076040,N,11719.855881,W,63.5,142.5,040610,,,A*4C
$GPRMC,194510.9,A,3341.036279,N,11719.817374,W,62.3,141.8,040610,,,A*48
$GPRMC,194513.9,A,3340.995415,N,11719.780887,W,62.8,143.1,040610,,,A*40
$GPRMC,194516.9,A,3340.952624,N,11719.743986,W,64.1,143.4,040610,,,A*4B
$GPRMC,194519.9,A,3340.907461,N,11719.703099,W,66.1,142.8,040610,,,A*4B
$GPRMC,194522.9,A,3340.864724,N,11719.662021,W,65.4,142.5,040610,,,A*4B
$GPRMC,194525.9,A,3340.822671,N,11719.623466,W,64.8,142.8,040610,,,A*4D
$GPRMC,194528.9,A,3340.777254,N,11719.581784,W,68.2,144.0,040610,,,A*40
$GPRMC,194531.9,A,3340.734344,N,11719.543595,W,66.3,140.9,040610,,,A*41
$GPRMC,194534.9,A,3340.696105,N,11719.500081,W,65.2,137.5,040610,,,A*43
$GPRMC,194537.9,A,3340.657437,N,11719.454190,W,65.4,135.1,040610,,,A*48
$GPRMC,194540.9,A,3340.621585,N,11719.405871,W,64.4,132.8,040610,,,A*4C
$GPRMC,194543.9,A,3340.588479,N,11719.361510,W,62.7,130.2,040610,,,A*4F
$GPRMC,194546.9,A,3340.556460,N,11719.310827,W,62.5,126.7,040610,,,A*4E
$GPRMC,194549.9,A,3340.527830,N,11719.259572,W,61.3,124.5,040610,,,A*4A
$GPRMC,194552.9,A,3340.498756,N,11719.205644,W,62.6,122.4,040610,,,A*44
$GPRMC,194555.9,A,3340.473266,N,11719.154986,W,60.7,120.5,040610,,,A*46
$GPRMC,194558.9,A,3340.448535,N,11719.101845,W,61.8,117.9,040610,,,A*4A
$GPRMC,194601.9,A,3340.425148,N,11719.048387,W,61.8,116.3,040610,,,A*42
$GPRMC,194604.9,A,3340.401483,N,11718.990573,W,63.3,116.8,040610,,,A*41
$GPRMC,194607.9,A,3340.379068,N,11718.932143,W,64.4,116.2,040610,,,A*4E
$GPRMC,194610.9,A,3340.355579,N,11718.875789,W,62.3,117.1,040610,,,A*42
$GPRMC,194613.9,A,3340.332441,N,11718.822664,W,62.3,117.7,040610,,,A*4C
$GPRMC,194616.9,A,3340.306340,N,11718.768046,W,62.0,120.3,040610,,,A*4C
$GPRMC,194619.9,A,3340.282727,N,11718.715904,W,60.8,120.0,040610,,,A*47
$GPRMC,194622.9,A,3340.256608,N,11718.665402,W,60.2,121.6,040610,,,A*4A
$GPRMC,194625.9,A,3340.232182,N,11718.615852,W,58.9,120.6,040610,,,A*45
$GPRMC,194628.9,A,3340.200962,N,11718.562677,W,62.0,123.5,040610,,,A*45
$GPRMC,194631.9,A,3340.171683,N,11718.511261,W,62.0,124.2,040610,,,A*4F
$GPRMC,194634.9,A,3340.139861,N,11718.460742,W,63.4,126.1,040610,,,A*43
$GPRMC,194637.9,A,3340.108694,N,11718.409348,W,65.1,126.0,040610,,,A*45
$GPRMC,194640.9,A,3340.075012,N,11718.355789,W,66.4,127.5,040610,,,A*43
$GPRMC,194643.9,A,3340.038192,N,11718.305437,W,66.4,130.0,040610,,,A*40
$GPRMC,194646.9,A,3340.002315,N,11718.252368,W,66.3,129.8,040610,,,A*48
$GPRMC,194649.9,A,3339.966933,N,11718.203932,W,64.7,131.9,040610,,,A*43
$GPRMC,194652.9,A,3339.929618,N,11718.153521,W,65.8,131.8,040610,,,A*43
$GPRMC,194655.9,A,3339.893885,N,11718.108852,W,63.4,134.1,040610,,,A*4F
$GPRMC,194658.9,A,3339.857628,N,11718.064696,W,61.8,135.0,040610,,,A*40
$GPRMC,194701.9,A,3339.817898,N,11718.020551,W,64.1,136.2,040610,,,A*49
$GPRMC,194704.2,A,3339.785521,N,11717.985463,W,65.1,137.2,040610,,,A*45
$GPRMC,194707.2,A,3339.744713,N,11717.941827,W,64.5,138.4,040610,,,A*40
$GPRMC,194710.2,A,3339.703802,N,11717.899562,W,64.2,139.5,040610,,,A*45
$GPRMC,194713.2,A,3339.662478,N,11717.857896,W,64.5,140.2,040610,,,A*4B
$GPRMC,194716.2,A,3339.620881,N,11717.817252,W,64.8,141.6,040610,,,A*4C
$GPRMC,194719.9,A,3339.569416,N,11717.768287,W,64.8,142.2,040610,,,A*4C
$GPRMC,194722.9,A,3339.526769,N,11717.727576,W,65.0,143.0,040610,,,A*4C
$GPRMC,194725.9,A,3339.478849,N,11717.691794,W,66.7,146.4,040610,,,A*4B
$GPRMC,194728.9,A,3339.432877,N,11717.655928,W,65.6,147.2,040610,,,A*41
$GPRMC,194731.9,A,3339.387682,N,11717.618358,W,64.6,146.5,040610,,,A*47
$GPRMC,194734.9,A,3339.345064,N,11717.587306,W,63.7,148.9,040610,,,A*48
$GPRMC,194737.9,A,3339.298729,N,11717.553917,W,63.5,148.7,040610,,,A*4B
$GPRMC,194740.9,A,3339.252481,N,11717.523195,W,62.8,149.7,040610,,,A*44
$GPRMC,194743.9,A,3339.207191,N,11717.492454,W,61.2,150.1,040610,,,A*47
$GPRMC,194746.9,A,3339.161192,N,11717.462484,W,63.1,151.1,040610,,,A*40
$GPRMC,194749.9,A,3339.114515,N,11717.432256,W,64.3,150.6,040610,,,A*49
$GPRMC,194752.9,A,3339.068803,N,11717.401430,W,64.0,149.9,040610,,,A*41
$GPRMC,194755.9,A,3339.022807,N,11717.369543,W,64.4,149.7,040610,,,A*4A
$GPRMC,194758.9,A,3338.979329,N,11717.336304,W,62.6,147.6,040610,,,A*42
$GPRMC,194801.9,A,3338.934601,N,11717.306401,W,63.4,149.9,040610,,,A*44
$GPRMC,194804.9,A,3338.890153,N,11717.278084,W,62.7,150.6,040610,,,A*4A
$GPRMC,194807.9,A,3338.842252,N,11717.247766,W,64.6,150.5,040610,,,A*47
$GPRMC,194810.9,A,3338.791320,N,11717.217420,W,66.6,151.9,040610,,,A*4F
$GPRMC,194813.9,A,3338.741862,N,11717.184549,W,67.4,150.8,040610,,,A*48
$GPRMC,194816.9,A,3338.695076,N,11717.148597,W,67.7,148.2,040610,,,A*4B
$GPRMC,194819.9,A,3338.648593,N,11717.114713,W,67.6,149.8,040610,,,A*47
$GPRMC,194822.9,A,3338.595479,N,11717.080566,W,70.8,151.0,040610,,,A*4C
$GPRMC,194825.9,A,3338.543952,N,11717.046694,W,69.6,153.5,040610,,,A*41
$GPRMC,194828.9,A,3338.491755,N,11717.014083,W,69.2,151.4,040610,,,A*4B
$GPRMC,194831.9,A,3338.446601,N,11716.980363,W,65.3,148.3,040610,,,A*43
$GPRMC,194834.9,A,3338.402104,N,11716.944464,W,65.9,147.7,040610,,,A*4D
$GPRMC,194837.9,A,3338.349061,N,11716.917916,W,67.1,152.2,040610,,,A*41
$GPRMC,194840.9,A,3338.300282,N,11716.885735,W,67.3,151.4,040610,,,A*41
$GPRMC,194843.9,A,3338.250035,N,11716.851512,W,68.4,150.3,040610,,,A*48
$GPRMC,194846.9,A,3338.205495,N,11716.816891,W,66.7,148.6,040610,,,A*47
$GPRMC,194849.9,A,3338.155886,N,11716.782636,W,68.0,149.2,040610,,,A*4D
$GPRMC,194852.9,A,3338.106255,N,11716.750863,W,68.3,151.1,040610,,,A*4D
$GPRMC,194855.9,A,3338.054744,N,11716.718739,W,68.2,152.0,040610,,,A*46
$GPRMC,194858.9,A,3338.005973,N,11716.687064,W,66.3,149.8,040610,,,A*40
$GPRMC,194901.9,A,3337.960910,N,11716.647389,W,65.2,145.8,040610,,,A*4F
$GPRMC,194904.9,A,3337.915919,N,11716.611887,W,63.2,147.7,040610,,,A*4C
$GPRMC,194907.9,A,3337.870339,N,11716.586512,W,61.1,151.6,040610,,,A*4E
$GPRMC,194910.9,A,3337.826122,N,11716.555027,W,62.0,149.1,040610,,,A*42
$GPRMC,194913.9,A,3337.780975,N,11716.524640,W,62.9,149.0,040610,,,A*41
$GPRMC,194916.9,A,3337.737459,N,11716.491013,W,64.0,148.9,040610,,,A*43
$GPRMC,194919.9,A,3337.692022,N,11716.458575,W,64.1,148.2,040610,,,A*40
$GPRMC,194922.9,A,3337.647239,N,11716.420845,W,64.7,145.9,040610,,,A*49
$GPRMC,194925.9,A,3337.605704,N,11716.383886,W,63.4,146.6,040610,,,A*4A
$GPRMC,194928.9,A,3337.559439,N,11716.345828,W,64.7,145.9,040610,,,A*46
$GPRMC,194931.9,A,3337.514942,N,11716.309903,W,62.8,145.3,040610,,,A*45
$GPRMC,194934.9,A,3337.475760,N,11716.277236,W,60.2,144.8,040610,,,A*4F
$GPRMC,194937.9,A,3337.432369,N,11716.239896,W,63.5,144.8,040610,,,A*4C
$GPRMC,194940.9,A,3337.388997,N,11716.205156,W,62.9,145.5,040610,,,A*4A
$GPRMC,194943.9,A,3337.343773,N,11716.167464,W,65.0,144.8,040610,,,A*4B
$GPRMC,194946.9,A,3337.298015,N,11716.127387,W,66.5,144.6,040610,,,A*48
$GPRMC,194949.9,A,3337.252613,N,11716.085631,W,67.6,143.2,040610,,,A*41
$GPRMC,194952.9,A,3337.207074,N,11716.046319,W,67.6,143.5,040610,,,A*4B
$GPRMC,194955.9,A,3337.162152,N,11716.004326,W,68.7,142.6,040610,,,A*4F
$GPRMC,194958.9,A,3337.116898,N,11715.963759,W,68.1,142.3,040610,,,A*4A
$GPRMC,195001.9,A,3337.071678,N,11715.923811,W,68.6,142.7,040610,,,A*4A
$GPRMC,195004.9,A,3337.025595,N,11715.881458,W,67.6,142.9,040610,,,A*47
$GPRMC,195007.9,A,3336.983556,N,11715.842476,W,64.7,142.2,040610,,,A*45
$GPRMC,195010.9,A,3336.944075,N,11715.801909,W,63.6,139.5,040610,,,A*43
$GPRMC,195013.9,A,3336.899992,N,11715.762440,W,64.1,142.5,040610,,,A*47
$GPRMC,195016.9,A,3336.856130,N,11715.724049,W,64.7,142.9,040610,,,A*44
$GPRMC,195019.9,A,3336.812804,N,11715.686020,W,64.9,143.1,040610,,,A*44
$GPRMC,195022.9,A,3336.772121,N,11715.647625,W,64.2,142.1,040610,,,A*4F
$GPRMC,195025.9,A,3336.727080,N,11715.606926,W,66.5,143.7,040610,,,A*49
$GPRMC,195028.9,A,3336.687874,N,11715.568564,W,63.4,142.3,040610,,,A*4C
$GPRMC,195031.9,A,3336.643688,N,11715.531263,W,64.6,143.8,040610,,,A*42
$GPRMC,195034.9,A,3336.600998,N,11715.492047,W,65.2,142.7,040610,,,A*49
$GPRMC,195037.9,A,3336.558645,N,11715.452801,W,63.5,142.4,040610,,,A*4F
$GPRMC,195040.9,A,3336.515815,N,11715.415478,W,62.2,143.3,040610,,,A*4C
$GPRMC,195043.9,A,3336.473719,N,11715.376243,W,62.7,142.6,040610,,,A*40
$GPRMC,195046.9,A,3336.431039,N,11715.335556,W,65.1,142.3,040610,,,A*46
$GPRMC,195049.9,A,3336.389967,N,11715.300616,W,62.0,143.2,040610,,,A*48
$GPRMC,195052.9,A,3336.349190,N,11715.262006,W,62.2,142.0,040610,,,A*4D
$GPRMC,195055.9,A,3336.307302,N,11715.222483,W,62.5,141.8,040610,,,A*48
$GPRMC,195058.9,A,3336.264584,N,11715.184850,W,62.0,142.7,040610,,,A*4D
$GPRMC,195101.9,A,3336.221609,N,11715.147924,W,63.3,142.6,040610,,,A*49
$GPRMC,195104.9,A,3336.180591,N,11715.108262,W,65.3,142.6,040610,,,A*42
$GPRMC,195107.9,A,3336.137856,N,11715.065439,W,65.7,142.0,040610,,,A*4B
$GPRMC,195110.9,A,3336.093136,N,11715.029715,W,64.4,143.5,040610,,,A*4E
$GPRMC,195113.9,A,3336.048817,N,11714.987743,W,66.7,142.7,040610,,,A*4C
$GPRMC,195116.9,A,3336.004221,N,11714.947012,W,66.8,142.7,040610,,,A*4E
$GPRMC,195119.9,A,3335.960154,N,11714.904307,W,67.3,142.0,040610,,,A*45
$GPRMC,195122.9,A,3335.916544,N,11714.865651,W,66.1,142.1,040610,,,A*4B
$GPRMC,195125.9,A,3335.873883,N,11714.826856,W,66.3,142.7,040610,,,A*42
$GPRMC,195128.9,A,3335.828095,N,11714.784208,W,68.6,142.4,040610,,,A*40
$GPRMC,195131.9,A,3335.782980,N,11714.740754,W,69.8,141.3,040610,,,A*45
$GPRMC,195134.9,A,3335.733016,N,11714.699499,W,70.7,143.7,040610,,,A*4A
$GPRMC,195137.9,A,3335.685641,N,11714.655740,W,70.3,142.7,040610,,,A*43
$GPRMC,195140.9,A,3335.639365,N,11714.615915,W,70.0,143.8,040610,,,A*40
$GPRMC,195143.9,A,3335.592997,N,11714.571897,W,70.2,142.5,040610,,,A*42
$GPRMC,195146.9,A,3335.546974,N,11714.530055,W,69.3,142.5,040610,,,A*49
$GPRMC,195149.9,A,3335.503173,N,11714.489224,W,67.5,142.1,040610,,,A*43
$GPRMC,195152.9,A,3335.461856,N,11714.445877,W,67.7,138.3,040610,,,A*43
$GPRMC,195155.9,A,3335.424134,N,11714.399019,W,66.8,134.0,040610,,,A*4F
$GPRMC,195158.9,A,3335.388593,N,11714.351682,W,66.7,132.9,040610,,,A*4A
$GPRMC,195201.9,A,3335.350478,N,11714.299427,W,67.5,131.9,040610,,,A*4C
$GPRMC,195204.9,A,3335.310354,N,11714.248746,W,68.5,132.6,040610,,,A*4F
$GPRMC,195207.9,A,3335.271531,N,11714.197428,W,68.2,132.4,040610,,,A*40
$GPRMC,195210.9,A,3335.232841,N,11714.148923,W,67.6,132.7,040610,,,A*47
$GPRMC,195213.9,A,3335.194842,N,11714.097672,W,68.0,131.9,040610,,,A*44
$GPRMC,195216.9,A,3335.157270,N,11714.047797,W,66.1,132.5,040610,,,A*42
$GPRMC,195219.9,A,3335.119758,N,11713.999027,W,66.2,132.7,040610,,,A*48
$GPRMC,195222.9,A,3335.081593,N,11713.950276,W,66.6,132.0,040610,,,A*45
$GPRMC,195225.9,A,3335.042262,N,11713.900927,W,67.5,134.2,040610,,,A*48
$GPRMC,195228.9,A,3335.002277,N,11713.852470,W,67.3,133.5,040610,,,A*4A
$GPRMC,195231.9,A,3334.967850,N,11713.805523,W,65.4,132.2,040610,,,A*40
$GPRMC,195234.9,A,3334.931655,N,11713.758352,W,65.9,132.6,040610,,,A*43
$GPRMC,195237.9,A,3334.896552,N,11713.708481,W,66.3,131.1,040610,,,A*49
$GPRMC,195240.9,A,3334.859260,N,11713.659635,W,67.6,132.4,040610,,,A*46
$GPRMC,195243.9,A,3334.819000,N,11713.606245,W,70.8,132.1,040610,,,A*41
$GPRMC,195246.9,A,3334.780205,N,11713.556642,W,69.1,131.8,040610,,,A*42
$GPRMC,195249.9,A,3334.737419,N,11713.503427,W,70.3,132.7,040610,,,A*4D
$GPRMC,195252.9,A,3334.695711,N,11713.449375,W,71.7,133.3,040610,,,A*4A
$GPRMC,195255.9,A,3334.657543,N,11713.396370,W,70.8,132.1,040610,,,A*4B
$GPRMC,195258.9,A,3334.616715,N,11713.343752,W,71.9,132.3,040610,,,A*4C
$GPRMC,195301.9,A,3334.576363,N,11713.290521,W,71.6,131.9,040610,,,A*4E
$GPRMC,195304.9,A,3334.537097,N,11713.239435,W,69.5,133.0,040610,,,A*40
$GPRMC,195307.9,A,3334.500597,N,11713.187296,W,69.6,131.4,040610,,,A*4E
$GPRMC,195310.9,A,3334.460415,N,11713.135177,W,70.5,131.9,040610,,,A*47
$GPRMC,195313.9,A,3334.422748,N,11713.082464,W,67.5,130.9,040610,,,A*44
$GPRMC,195316.9,A,3334.382153,N,11713.033725,W,68.4,132.9,040610,,,A*40
$GPRMC,195319.9,A,3334.343511,N,11712.985305,W,67.4,132.5,040610,,,A*40
$GPRMC,195322.9,A,3334.304576,N,11712.937168,W,66.9,133.2,040610,,,A*40
$GPRMC,195325.9,A,3334.267876,N,11712.886488,W,66.8,132.8,040610,,,A*44
$GPRMC,195328.9,A,3334.230470,N,11712.836359,W,66.9,132.1,040610,,,A*49
$GPRMC,195331.9,A,3334.193307,N,11712.788088,W,66.5,132.6,040610,,,A*42
$GPRMC,195334.9,A,3334.157350,N,11712.737413,W,66.3,131.5,040610,,,A*49
$GPRMC,195337.9,A,3334.120275,N,11712.689077,W,66.7,131.6,040610,,,A*49
$GPRMC,195340.9,A,3334.082670,N,11712.638257,W,67.0,131.4,040610,,,A*4F
$GPRMC,195343.9,A,3334.046972,N,11712.588859,W,66.4,131.4,040610,,,A*40
$GPRMC,195346.9,A,3334.007974,N,11712.538255,W,67.9,132.0,040610,,,A*40
$GPRMC,195349.9,A,3333.968896,N,11712.487767,W,68.2,132.6,040610,,,A*46
$GPRMC,195352.9,A,3333.931857,N,11712.440271,W,65.2,133.2,040610,,,A*4C
$GPRMC,195355.9,A,3333.895575,N,11712.393627,W,63.7,133.2,040610,,,A*44
$GPRMC,195358.9,A,3333.858986,N,11712.346231,W,64.9,132.9,040610,,,A*40
$GPRMC,195401.9,A,3333.821197,N,11712.296254,W,66.4,132.6,040610,,,A*42
$GPRMC,195404.9,A,3333.785129,N,11712.244834,W,67.4,131.1,040610,,,A*45
$GPRMC,195407.9,A,3333.745877,N,11712.196498,W,66.5,132.7,040610,,,A*4B
$GPRMC,195410.9,A,3333.710629,N,11712.150004,W,64.9,132.1,040610,,,A*4B
$GPRMC,195413.9,A,3333.672668,N,11712.101417,W,66.5,132.6,040610,,,A*43
$GPRMC,195416.9,A,3333.634649,N,11712.052009,W,67.8,132.0,040610,,,A*41
$GPRMC,195419.9,A,3333.598199,N,11712.001422,W,67.0,132.3,040610,,,A*41
$GPRMC,195422.9,A,3333.559785,N,11711.953332,W,68.0,133.2,040610,,,A*4B
$GPRMC,195425.9,A,3333.520616,N,11711.903612,W,67.3,133.2,040610,,,A*47
$GPRMC,195428.9,A,3333.483698,N,11711.853989,W,67.0,131.7,040610,,,A*49
$GPRMC,195431.9,A,3333.447313,N,11711.803513,W,66.5,130.7,040610,,,A*40
$GPRMC,195434.9,A,3333.412864,N,11711.751949,W,66.7,129.3,040610,,,A*4B
$GPRMC,195437.9,A,3333.378211,N,11711.698794,W,67.6,128.1,040610,,,A*42
$GPRMC,195440.9,A,3333.344011,N,11711.644467,W,68.4,126.5,040610,,,A*46
$GPRMC,195443.9,A,3333.312177,N,11711.588993,W,68.4,124.9,040610,,,A*4C
$GPRMC,195446.9,A,3333.278271,N,11711.533155,W,68.9,125.2,040610,,,A*44
$GPRMC,195449.2,A,3333.253265,N,11711.487642,W,69.6,122.4,040610,,,A*4C
$GPRMC,195452.9,A,3333.215919,N,11711.415168,W,69.5,121.8,040610,,,A*47
$GPRMC,195455.9,A,3333.187087,N,11711.356093,W,68.6,121.7,040610,,,A*4E
$GPRMC,195458.9,A,3333.157904,N,11711.298450,W,67.2,121.5,040610,,,A*4D
$GPRMC,195501.9,A,3333.128538,N,11711.242514,W,65.6,122.2,040610,,,A*4F
$GPRMC,195504.9,A,3333.099702,N,11711.187909,W,64.8,122.0,040610,,,A*4D
$GPRMC,195507.9,A,3333.071558,N,11711.133381,W,63.9,122.0,040610,,,A*46
$GPRMC,195510.9,A,3333.042581,N,11711.080802,W,63.5,122.4,040610,,,A*45
$GPRMC,195513.9,A,3333.014697,N,11711.025268,W,63.9,122.1,040610,,,A*41
$GPRMC,195516.9,A,3332.984142,N,11710.972484,W,64.0,125.7,040610,,,A*4B
$GPRMC,195519.9,A,3332.951607,N,11710.921397,W,65.6,128.0,040610,,,A*44
$GPRMC,195522.9,A,3332.915604,N,11710.874330,W,64.3,131.9,040610,,,A*46
$GPRMC,195525.9,A,3332.872442,N,11710.828505,W,68.8,136.9,040610,,,A*48
$GPRMC,195528.9,A,3332.829679,N,11710.787527,W,66.2,142.3,040610,,,A*46
$GPRMC,195531.9,A,3332.784459,N,11710.749094,W,65.3,145.8,040610,,,A*47
$GPRMC,195534.9,A,3332.741418,N,11710.715208,W,62.7,147.8,040610,,,A*41
$GPRMC,195537.9,A,3332.689958,N,11710.686033,W,65.6,151.8,040610,,,A*4E
$GPRMC,195540.9,A,3332.644545,N,11710.653453,W,65.4,150.5,040610,,,A*4B
$GPRMC,195543.9,A,3332.594991,N,11710.622281,W,66.2,151.6,040610,,,A*4B
$GPRMC,195546.9,A,3332.549810,N,11710.589808,W,63.8,150.8,040610,,,A*4F
$GPRMC,195549.9,A,3332.501434,N,11710.559963,W,64.4,151.8,040610,,,A*4D
$GPRMC,195552.9,A,3332.456288,N,11710.529292,W,63.8,150.7,040610,,,A*42
$GPRMC,195555.9,A,3332.409819,N,11710.497638,W,65.4,151.1,040610,,,A*40
$GPRMC,195558.9,A,3332.362444,N,11710.466185,W,64.4,150.9,040610,,,A*44
$GPRMC,195601.9,A,3332.312989,N,11710.437023,W,64.7,151.5,040610,,,A*47
$GPRMC,195604.2,A,3332.277146,N,11710.412704,W,65.4,150.8,040610,,,A*4B
$GPRMC,195607.2,A,3332.230128,N,11710.380372,W,65.1,150.8,040610,,,A*4F
$GPRMC,195610.9,A,3332.172990,N,11710.341163,W,63.7,150.3,040610,,,A*48
$GPRMC,195613.9,A,3332.124980,N,11710.309844,W,64.1,151.0,040610,,,A*4A
$GPRMC,195616.9,A,3332.081315,N,11710.279453,W,61.1,151.1,040610,,,A*4F
$GPRMC,195619.9,A,3332.036882,N,11710.250663,W,60.0,150.7,040610,,,A*44
$GPRMC,195622.9,A,3331.992967,N,11710.220650,W,59.0,150.5,040610,,,A*4D
$GPRMC,195625.9,A,3331.951739,N,11710.191581,W,58.7,150.9,040610,,,A*4C
$GPRMC,195628.9,A,3331.908311,N,11710.165292,W,57.6,152.5,040610,,,A*4D
$GPRMC,195631.9,A,3331.866286,N,11710.138017,W,55.9,150.6,040610,,,A*48
$GPRMC,195634.9,A,3331.830565,N,11710.110476,W,53.0,149.2,040610,,,A*4E
$GPRMC,195637.9,A,3331.793694,N,11710.084365,W,52.2,151.3,040610,,,A*44
$GPRMC,195640.9,A,3331.754528,N,11710.060920,W,54.0,153.3,040610,,,A*4C
$GPRMC,195643.9,A,3331.713453,N,11710.035423,W,54.3,152.4,040610,,,A*4A
$GPRMC,195646.9,A,3331.671658,N,11710.009653,W,56.1,151.0,040610,,,A*4E
$GPRMC,195649.9,A,3331.629293,N,11709.982204,W,57.3,150.7,040610,,,A*4E
$GPRMC,195652.9,A,3331.586449,N,11709.953230,W,58.6,149.6,040610,,,A*4B
$GPRMC,195655.9,A,3331.546065,N,11709.923973,W,58.9,150.7,040610,,,A*47
$GPRMC,195658.9,A,3331.502290,N,11709.896313,W,57.9,151.6,040610,,,A*4E
$GPRMC,195701.9,A,3331.461708,N,11709.866554,W,56.2,150.6,040610,,,A*42
$GPRMC,195704.9,A,3331.418411,N,11709.841468,W,58.2,151.5,040610,,,A*45
$GPRMC,195707.9,A,3331.376451,N,11709.814353,W,57.2,150.9,040610,,,A*40
$GPRMC,195710.9,A,3331.332526,N,11709.784674,W,60.4,150.2,040610,,,A*48
$GPRMC,195713.9,A,3331.288494,N,11709.751945,W,62.1,148.9,040610,,,A*43
$GPRMC,195716.9,A,3331.242301,N,11709.721842,W,62.9,150.5,040610,,,A*47
$GPRMC,195719.9,A,3331.193130,N,11709.690967,W,64.1,151.6,040610,,,A*46
$GPRMC,195722.9,A,3331.148841,N,11709.662221,W,61.8,151.9,040610,,,A*40
$GPRMC,195725.9,A,3331.104484,N,11709.631528,W,61.4,152.3,040610,,,A*47
$GPRMC,195728.9,A,3331.060749,N,11709.604474,W,59.8,151.9,040610,,,A*4B
$GPRMC,195731.9,A,3331.019855,N,11709.573667,W,55.2,150.1,040610,,,A*43
$GPRMC,195734.9,A,3330.977979,N,11709.540661,W,59.7,148.3,040610,,,A*4D
$GPRMC,195737.9,A,3330.930850,N,11709.513532,W,60.4,152.0,040610,,,A*45
$GPRMC,195740.9,A,3330.885704,N,11709.487204,W,59.8,153.2,040610,,,A*4F
$GPRMC,195743.9,A,3330.842128,N,11709.460402,W,59.2,153.7,040610,,,A*49
$GPRMC,195746.9,A,3330.793005,N,11709.437343,W,61.5,156.6,040610,,,A*49
$GPRMC,195749.9,A,3330.743905,N,11709.416486,W,62.6,159.4,040610,,,A*42
$GPRMC,195752.9,A,3330.695097,N,11709.395487,W,60.3,158.2,040610,,,A*4D
$GPRMC,195755.9,A,3330.646806,N,11709.373949,W,60.6,159.0,040610,,,A*45
$GPRMC,195758.9,A,3330.601659,N,11709.351041,W,60.0,159.1,040610,,,A*49
$GPRMC,195801.9,A,3330.553421,N,11709.330101,W,59.8,159.7,040610,,,A*45
$GPRMC,195804.9,A,3330.508590,N,11709.308673,W,57.8,159.5,040610,,,A*40
$GPRMC,195807.9,A,3330.464765,N,11709.289295,W,58.2,159.7,040610,,,A*43
$GPRMC,195810.9,A,3330.417797,N,11709.267502,W,58.4,159.0,040610,,,A*44
$GPRMC,195813.9,A,3330.372429,N,11709.247986,W,58.0,159.6,040610,,,A*45
$GPRMC,195816.9,A,3330.328639,N,11709.228038,W,56.4,159.1,040610,,,A*44
$GPRMC,195819.9,A,3330.285570,N,11709.208143,W,54.8,158.7,040610,,,A*45
$GPRMC,195822.9,A,3330.243415,N,11709.187994,W,52.6,159.0,040610,,,A*4D
$GPRMC,195825.9,A,3330.203521,N,11709.171006,W,52.9,159.9,040610,,,A*45
$GPRMC,195828.9,A,3330.160892,N,11709.151872,W,54.1,159.3,040610,,,A*46
$GPRMC,195831.9,A,3330.117394,N,11709.132992,W,55.3,159.6,040610,,,A*4F
$GPRMC,195834.9,A,3330.074692,N,11709.111492,W,56.9,158.5,040610,,,A*4A
$GPRMC,195838.2,A,3330.026770,N,11709.085656,W,57.9,155.8,040610,,,A*40
$GPRMC,195841.9,A,3329.974103,N,11709.055938,W,56.5,152.5,040610,,,A*4C
$GPRMC,195844.9,A,3329.931851,N,11709.028630,W,57.3,150.3,040610,,,A*48
$GPRMC,195847.9,A,3329.889252,N,11708.998655,W,58.8,149.7,040610,,,A*48
$GPRMC,195850.9,A,3329.849439,N,11708.965926,W,59.0,145.9,040610,,,A*4B
$GPRMC,195853.9,A,3329.808255,N,11708.932013,W,59.0,144.2,040610,,,A*46
$GPRMC,195856.9,A,3329.772367,N,11708.894531,W,58.5,140.8,040610,,,A*43
$GPRMC,195859.9,A,3329.732512,N,11708.857466,W,59.9,140.9,040610,,,A*4C
$GPRMC,195902.9,A,3329.694515,N,11708.819317,W,59.9,140.9,040610,,,A*42
$GPRMC,195905.9,A,3329.653219,N,11708.782781,W,59.7,145.0,040610,,,A*41
$GPRMC,195908.9,A,3329.612840,N,11708.753208,W,56.9,150.2,040610,,,A*40
$GPRMC,195911.9,A,3329.570122,N,11708.729772,W,56.1,155.4,040610,,,A*4C
$GPRMC,195914.9,A,3329.527586,N,11708.708779,W,55.1,159.4,040610,,,A*46
$GPRMC,195917.9,A,3329.482442,N,11708.694121,W,55.2,161.6,040610,,,A*47
$GPRMC,195920.9,A,3329.439566,N,11708.676369,W,54.9,161.5,040610,,,A*4F
$GPRMC,195923.2,A,3329.405268,N,11708.664602,W,55.8,162.3,040610,,,A*4F
$GPRMC,195926.9,A,3329.352166,N,11708.644767,W,54.9,161.6,040610,,,A*4F
$GPRMC,195929.9,A,3329.308550,N,11708.627848,W,54.3,162.8,040610,,,A*4E
$GPRMC,195933.2,A,3329.259352,N,11708.612099,W,54.6,165.4,040610,,,A*43
$GPRMC,195936.2,A,3329.217556,N,11708.597138,W,51.5,163.3,040610,,,A*4D
$GPRMC,195939.2,A,3329.176917,N,11708.582525,W,50.2,163.0,040610,,,A*46
$GPRMC,195942.2,A,3329.136478,N,11708.568763,W,49.1,163.4,040610,,,A*41
$GPRMC,195945.2,A,3329.099845,N,11708.556406,W,41.0,164.5,040610,,,A*42
$GPRMC,195948.9,A,3329.065676,N,11708.544462,W,31.4,165.5,040610,,,A*4A
$GPRMC,195951.9,A,3329.043579,N,11708.539567,W,28.3,169.4,040610,,,A*46
$GPRMC,195954.9,A,3329.021569,N,11708.535923,W,26.6,171.2,040610,,,A*42
$GPRMC,195957.9,A,3328.996185,N,11708.532358,W,28.9,171.2,040610,,,A*43
$GPRMC,200000.9,A,3328.970748,N,11708.527930,W,28.3,171.2,040610,,,A*42
$GPRMC,200003.9,A,3328.953625,N,11708.526588,W,21.7,175.0,040610,,,A*4F
$GPRMC,200006.9,A,3328.936070,N,11708.522351,W,22.3,174.0,040610,,,A*4F
$GPRMC,200009.9,A,3328.917912,N,11708.521306,W,21.5,177.2,040610,,,A*4B
$GPRMC,200012.9,A,3328.899629,N,11708.519710,W,21.2,179.1,040610,,,A*43
$GPRMC,200015.9,A,3328.885504,N,11708.520505,W,17.6,180.3,040610,,,A*4C
$GPRMC,200018.9,A,3328.870946,N,11708.519962,W,18.4,169.6,040610,,,A*49
$GPRMC,200021.9,A,3328.861321,N,11708.507452,W,17.2,132.7,040610,,,A*4F
$GPRMC,200024.9,A,3328.853746,N,11708.490659,W,20.0,119.5,040610,,,A*45
$GPRMC,200027.9,A,3328.843920,N,11708.471218,W,20.8,119.0,040610,,,A*4A
$GPRMC,200030.2,A,3328.837225,N,11708.456216,W,21.6,117.6,040610,,,A*46
$GPRMC,200033.2,A,3328.831303,N,11708.443004,W,15.3,118.6,040610,,,A*4E
$GPRMC,200036.9,A,3328.827321,N,11708.431803,W,8.7,114.3,040610,,,A*7C
$GPRMC,200039.2,A,3328.825821,N,11708.427514,W,6.7,106.5,040610,,,A*76
$GPRMC,200112.0,A,3328.815708,N,11708.407191,W,15.8,118.8,040610,,,A*4F
$GPRMC,200115.9,A,3328.805689,N,11708.386016,W,20.3,121.3,040610,,,A*44
$GPRMC,200118.9,A,3328.796362,N,11708.369321,W,20.2,123.0,040610,,,A*4A
$GPRMC,200121.9,A,3328.789354,N,11708.349583,W,21.4,117.7,040610,,,A*40
$GPRMC,200124.9,A,3328.779662,N,11708.332345,W,19.8,123.9,040610,,,A*44
$GPRMC,200127.9,A,3328.773782,N,11708.316136,W,13.3,116.0,040610,,,A*4C
$GPRMC,200130.9,A,3328.769491,N,11708.307969,W,10.0,121.4,040610,,,A*42
$GPRMC,200133.9,A,3328.767659,N,11708.302023,W,9.4,116.0,040610,,,A*77
$GPRMC,200136.9,A,3328.760269,N,11708.289589,W,16.1,121.4,040610,,,A*4E
$GPRMC,200139.9,A,3328.750834,N,11708.270889,W,20.6,119.2,040610,,,A*44
$GPRMC,200142.9,A,3328.737674,N,11708.252438,W,24.9,123.3,040610,,,A*46
$GPRMC,200145.9,A,3328.725854,N,11708.230510,W,28.9,121.2,040610,,,A*4E
$GPRMC,200148.9,A,3328.714129,N,11708.201033,W,32.8,119.6,040610,,,A*41
$GPRMC,200151.9,A,3328.703362,N,11708.170839,W,34.7,117.3,040610,,,A*47
$GPRMC,200154.9,A,3328.685624,N,11708.139381,W,36.3,121.7,040610,,,A*48
$GPRMC,200157.9,A,3328.669389,N,11708.110285,W,35.9,122.5,040610,,,A*4D
$GPRMC,200200.9,A,3328.652463,N,11708.078601,W,38.3,122.8,040610,,,A*4A
$GPRMC,200203.9,A,3328.634581,N,11708.045403,W,39.5,123.2,040610,,,A*46
$GPRMC,200206.9,A,3328.618494,N,11708.011645,W,38.4,121.0,040610,,,A*49
$GPRMC,200209.9,A,3328.601693,N,11707.983287,W,34.6,124.1,040610,,,A*46
$GPRMC,200212.9,A,3328.585628,N,11707.955703,W,33.9,123.1,040610,,,A*4E
$GPRMC,200215.9,A,3328.569800,N,11707.922992,W,36.4,121.5,040610,,,A*47
$GPRMC,200218.9,A,3328.555140,N,11707.894437,W,33.1,120.7,040610,,,A*45
$GPRMC,200221.9,A,3328.542961,N,11707.867912,W,27.7,116.0,040610,,,A*45
$GPRMC,200224.9,A,3328.535847,N,11707.843133,W,26.6,110.3,040610,,,A*4D
$GPRMC,200227.9,A,3328.530685,N,11707.817282,W,25.6,106.2,040610,,,A*46
$GPRMC,200230.9,A,3328.524751,N,11707.792436,W,27.4,105.4,040610,,,A*43
$GPRMC,200233.9,A,3328.522784,N,11707.765257,W,22.9,94.3,040610,,,A*71
$GPRMC,200236.9,A,3328.518764,N,11707.752331,W,13.7,115.0,040610,,,A*41
$GPRMC,200239.9,A,3328.509011,N,11707.745700,W,16.4,147.5,040610,,,A*4F
$GPRMC,200242.9,A,3328.490535,N,11707.735296,W,24.7,151.4,040610,,,A*48
$GPRMC,200245.9,A,3328.466905,N,11707.722411,W,30.5,146.1,040610,,,A*42
$GPRMC,200248.9,A,3328.446498,N,11707.702355,W,33.3,138.6,040610,,,A*4A
$GPRMC,200251.9,A,3328.428293,N,11707.674372,W,36.2,129.1,040610,,,A*41
$GPRMC,200254.9,A,3328.408737,N,11707.642812,W,40.3,126.1,040610,,,A*4A
$GPRMC,200257.9,A,3328.390259,N,11707.606824,W,42.2,121.4,040610,,,A*46
$GPRMC,200300.9,A,3328.372219,N,11707.567449,W,44.1,122.9,040610,,,A*45
$GPRMC,200303.9,A,3328.355065,N,11707.532450,W,42.2,120.2,040610,,,A*4E
$GPRMC,200306.9,A,3328.340097,N,11707.496915,W,41.2,120.7,040610,,,A*47
$GPRMC,200309.9,A,3328.317854,N,11707.462274,W,43.0,126.1,040610,,,A*4A
$GPRMC,200312.9,A,3328.290192,N,11707.429757,W,45.1,132.7,040610,,,A*42
$GPRMC,200315.9,A,3328.267595,N,11707.394740,W,44.9,131.9,040610,,,A*4D
$GPRMC,200318.9,A,3328.243814,N,11707.362504,W,42.6,132.0,040610,,,A*4A
$GPRMC,200321.9,A,3328.219851,N,11707.331268,W,41.9,131.5,040610,,,A*4F
$GPRMC,200324.9,A,3328.197349,N,11707.302642,W,38.3,133.3,040610,,,A*41
$GPRMC,200327.9,A,3328.177092,N,11707.277955,W,33.8,134.1,040610,,,A*46
$GPRMC,200330.9,A,3328.159683,N,11707.255214,W,29.5,133.7,040610,,,A*43
$GPRMC,200333.9,A,3328.147012,N,11707.238073,W,21.5,133.2,040610,,,A*44
$GPRMC,200336.9,A,3328.137982,N,11707.227750,W,12.9,137.2,040610,,,A*46
$GPRMC,200339.9,A,3328.132380,N,11707.220821,W,9.6,133.3,040610,,,A*7A
$GPRMC,200342.9,A,3328.125531,N,11707.211281,W,14.6,131.8,040610,,,A*4B
$GPRMC,200345.9,A,3328.112789,N,11707.194624,W,23.8,132.3,040610,,,A*4E
$GPRMC,200348.9,A,3328.099399,N,11707.174718,W,28.9,131.4,040610,,,A*4A
$GPRMC,200351.9,A,3328.081467,N,11707.150382,W,32.7,132.2,040610,,,A*4C
$GPRMC,200354.9,A,3328.059188,N,11707.124058,W,36.7,133.1,040610,,,A*49
$GPRMC,200357.9,A,3328.041087,N,11707.094889,W,38.2,129.2,040610,,,A*40
$GPRMC,200400.9,A,3328.018370,N,11707.065133,W,38.8,132.9,040610,,,A*4F
$GPRMC,200403.9,A,3327.997453,N,11707.036217,W,39.2,131.1,040610,,,A*48
$GPRMC,200406.9,A,3327.974218,N,11707.006081,W,40.5,131.1,040610,,,A*4E
$GPRMC,200409.9,A,3327.950863,N,11706.976519,W,39.6,131.9,040610,,,A*4F
$GPRMC,200412.9,A,3327.929734,N,11706.947859,W,38.1,130.7,040610,,,A*44
$GPRMC,200415.9,A,3327.908601,N,11706.915890,W,39.9,130.7,040610,,,A*4C
$GPRMC,200418.9,A,3327.887704,N,11706.887148,W,38.7,130.5,040610,,,A*48
$GPRMC,200421.9,A,3327.863659,N,11706.857358,W,40.6,131.7,040610,,,A*42
$GPRMC,200424.9,A,3327.842714,N,11706.825706,W,42.0,130.8,040610,,,A*4C
$GPRMC,200427.9,A,3327.817476,N,11706.795973,W,41.6,133.6,040610,,,A*48
$GPRMC,200430.9,A,3327.793996,N,11706.766399,W,40.9,133.3,040610,,,A*47
$GPRMC,200433.9,A,3327.770080,N,11706.735048,W,42.4,131.5,040610,,,A*45
$GPRMC,200436.9,A,3327.747941,N,11706.702051,W,42.8,130.3,040610,,,A*47
$GPRMC,200439.9,A,3327.724177,N,11706.669602,W,43.6,131.9,040610,,,A*48
$GPRMC,200442.9,A,3327.701152,N,11706.639666,W,41.4,132.8,040610,,,A*41
$GPRMC,200445.9,A,3327.679379,N,11706.608046,W,41.0,130.4,040610,,,A*4F
$GPRMC,200448.9,A,3327.657231,N,11706.580100,W,37.0,133.5,040610,,,A*40
$GPRMC,200451.9,A,3327.636035,N,11706.556559,W,32.5,134.8,040610,,,A*40
$GPRMC,200454.9,A,3327.619896,N,11706.535865,W,26.9,133.0,040610,,,A*48
$GPRMC,200457.9,A,3327.606311,N,11706.515553,W,26.7,130.1,040610,,,A*47
$GPRMC,200500.9,A,3327.590999,N,11706.494334,W,29.4,131.3,040610,,,A*42
$GPRMC,200503.9,A,3327.574489,N,11706.472851,W,29.5,132.0,040610,,,A*46
$GPRMC,200506.9,A,3327.557465,N,11706.448544,W,31.0,130.2,040610,,,A*4C
$GPRMC,200509.9,A,3327.540385,N,11706.424808,W,31.4,130.7,040610,,,A*42
$GPRMC,200512.9,A,3327.524017,N,11706.402861,W,28.0,130.6,040610,,,A*44
$GPRMC,200515.9,A,3327.507962,N,11706.382770,W,29.3,133.1,040610,,,A*4F
