NMEA Sentence Code,UTC Time,Status,Latitude,Latitude Direction,Longitude,Longitude Direction,Speed (knots),Track Angle (degrees true),Date,MagneticVariation,Magnetic Variation Direction,[FAA Mode]-Optional,Checksum
$GPRMC,022556.0,A,3245.707732,N,11713.463117,W,6.1,92.5,060810,,,A*49
$GPRMC,022559.0,A,3245.707305,N,11713.456826,W,5.4,95.4,060810,,,A*4B
$GPRMC,022602.0,A,3245.706098,N,11713.453155,W,4.7,126.6,060810,,,A*71
$GPRMC,022605.0,A,3245.696313,N,11713.450092,W,16.6,179.5,060810,,,A*4C
$GPRMC,022608.0,A,3245.681734,N,11713.449056,W,17.0,165.6,060810,,,A*4F
$GPRMC,022611.0,A,3245.672855,N,11713.435970,W,19.2,110.3,060810,,,A*4E
$GPRMC,022614.0,A,3245.667992,N,11713.411840,W,27.8,100.8,060810,,,A*4C
$GPRMC,022617.0,A,3245.662829,N,11713.382163,W,32.3,100.9,060810,,,A*40
$GPRMC,022620.0,A,3245.657760,N,11713.349223,W,34.5,99.1,060810,,,A*79
$GPRMC,022623.0,A,3245.653679,N,11713.313787,W,37.3,95.6,060810,,,A*7D
$GPRMC,022626.0,A,3245.651883,N,11713.275872,W,37.9,90.3,060810,,,A*7F
$GPRMC,022629.0,A,3245.653095,N,11713.236675,W,38.0,84.3,060810,,,A*70
$GPRMC,022632.0,A,3245.657071,N,11713.199721,W,35.7,82.0,060810,,,A*7D
$GPRMC,022635.0,A,3245.660886,N,11713.164341,W,35.8,82.8,060810,,,A*79
$GPRMC,022638.0,A,3245.664778,N,11713.128182,W,37.5,82.2,060810,,,A*7E
$GPRMC,022641.0,A,3245.669008,N,11713.091720,W,36.1,82.5,060810,,,A*72
$GPRMC,022644.0,A,3245.672986,N,11713.056904,W,34.9,81.9,060810,,,A*74
$GPRMC,022647.0,A,3245.677090,N,11713.022856,W,34.5,82.1,060810,,,A*7E
$GPRMC,022650.0,A,3245.680939,N,11712.990016,W,32.2,82.1,060810,,,A*76
$GPRMC,022653.0,A,3245.684382,N,11712.959429,W,30.3,82.5,060810,,,A*71
$GPRMC,022656.0,A,3245.687749,N,11712.929329,W,31.9,82.2,060810,,,A*78
$GPRMC,022659.0,A,3245.691279,N,11712.897153,W,33.0,82.7,060810,,,A*73
$GPRMC,022702.0,A,3245.694729,N,11712.864896,W,33.0,82.8,060810,,,A*7A
$GPRMC,022705.0,A,3245.698227,N,11712.831955,W,34.1,82.9,060810,,,A*73
$GPRMC,022708.0,A,3245.702054,N,11712.796962,W,36.8,82.2,060810,,,A*7C
$GPRMC,022711.0,A,3245.706857,N,11712.760551,W,37.6,80.2,060810,,,A*73
$GPRMC,022714.0,A,3245.714300,N,11712.723763,W,38.3,73.8,060810,,,A*74
$GPRMC,022717.0,A,3245.724917,N,11712.688936,W,37.4,68.5,060810,,,A*79
$GPRMC,022720.0,A,3245.738835,N,11712.655317,W,38.4,59.8,060810,,,A*78
$GPRMC,022723.0,A,3245.757787,N,11712.624121,W,38.8,51.0,060810,,,A*79
$GPRMC,022726.0,A,3245.778834,N,11712.596787,W,36.1,45.6,060810,,,A*72
$GPRMC,022729.0,A,3245.800706,N,11712.574146,W,33.1,38.4,060810,,,A*79
$GPRMC,022732.0,A,3245.824438,N,11712.554945,W,34.6,32.3,060810,,,A*7F
$GPRMC,022735.0,A,3245.849941,N,11712.538998,W,33.4,25.2,060810,,,A*78
$GPRMC,022738.0,A,3245.875771,N,11712.527089,W,32.2,18.5,060810,,,A*7E
$GPRMC,022741.0,A,3245.902300,N,11712.519097,W,33.0,10.6,060810,,,A*79
$GPRMC,022744.0,A,3245.929884,N,11712.514762,W,32.9,6.3,060810,,,A*48
$GPRMC,022747.0,A,3245.956838,N,11712.513334,W,31.3,0.9,060810,,,A*41
$GPRMC,022750.0,A,3245.983176,N,11712.514249,W,30.3,0.1,060810,,,A*49
$GPRMC,022753.0,A,3246.008241,N,11712.514978,W,30.3,0.3,060810,,,A*4F
$GPRMC,022756.0,A,3246.034377,N,11712.515451,W,31.2,0.0,060810,,,A*45
$GPRMC,022759.0,A,3246.061095,N,11712.515557,W,32.5,1.5,060810,,,A*42
$GPRMC,022802.0,A,3246.089208,N,11712.512263,W,33.4,11.0,060810,,,A*70
$GPRMC,022805.0,A,3246.115530,N,11712.502662,W,32.4,23.9,060810,,,A*72
$GPRMC,022808.0,A,3246.138450,N,11712.486710,W,31.6,36.0,060810,,,A*72
$GPRMC,022811.0,A,3246.157639,N,11712.466221,W,30.9,46.7,060810,,,A*79
$GPRMC,022814.0,A,3246.171768,N,11712.443132,W,28.1,58.2,060810,,,A*70
$GPRMC,022817.0,A,3246.183064,N,11712.419571,W,25.9,59.6,060810,,,A*79
$GPRMC,022820.0,A,3246.193713,N,11712.400123,W,19.1,53.9,060810,,,A*72
$GPRMC,022823.0,A,3246.199705,N,11712.389858,W,8.4,55.9,060810,,,A*4C
$GPRMC,022832.0,A,3246.206834,N,11712.376114,W,12.0,58.7,060810,,,A*79
$GPRMC,022835.0,A,3246.212482,N,11712.364602,W,15.1,59.6,060810,,,A*7F
$GPRMC,022838.0,A,3246.218419,N,11712.353508,W,12.7,48.3,060810,,,A*73
$GPRMC,022841.0,A,3246.226460,N,11712.344204,W,13.8,42.9,060810,,,A*7D
$GPRMC,022844.0,A,3246.237608,N,11712.347523,W,12.6,357.2,060810,,,A*46
$GPRMC,022847.0,A,3246.260908,N,11712.364838,W,26.3,334.2,060810,,,A*49
$GPRMC,022850.0,A,3246.284600,N,11712.377678,W,29.7,335.6,060810,,,A*44
$GPRMC,022853.0,A,3246.316095,N,11712.395330,W,40.2,339.7,060810,,,A*45
$GPRMC,022859.0,A,3246.382681,N,11712.424273,W,40.0,345.2,060810,,,A*46
$GPRMC,022902.0,A,3246.414646,N,11712.437082,W,38.1,345.8,060810,,,A*40
$GPRMC,022905.0,A,3246.447091,N,11712.447870,W,39.6,346.5,060810,,,A*47
$GPRMC,022908.0,A,3246.480324,N,11712.457918,W,40.4,347.4,060810,,,A*4E
$GPRMC,022911.0,A,3246.513833,N,11712.467247,W,41.8,347.7,060810,,,A*4C
$GPRMC,022914.0,A,3246.549407,N,11712.475625,W,43.8,349.6,060810,,,A*43
$GPRMC,022917.0,A,3246.587135,N,11712.485100,W,46.8,348.0,060810,,,A*4B
$GPRMC,022920.0,A,3246.627507,N,11712.495822,W,49.9,349.0,060810,,,A*44
$GPRMC,022923.0,A,3246.670702,N,11712.503919,W,52.3,355.1,060810,,,A*49
$GPRMC,022926.0,A,3246.715479,N,11712.505182,W,53.4,1.0,060810,,,A*48
$GPRMC,022929.0,A,3246.759881,N,11712.500414,W,52.5,7.6,060810,,,A*4B
$GPRMC,022932.0,A,3246.803245,N,11712.492327,W,51.5,8.6,060810,,,A*42
$GPRMC,022935.0,A,3246.845606,N,11712.484426,W,51.2,8.7,060810,,,A*43
$GPRMC,022938.0,A,3246.888049,N,11712.476415,W,51.5,9.3,060810,,,A*4D
$GPRMC,022941.0,A,3246.930998,N,11712.468509,W,52.0,8.9,060810,,,A*4A
$GPRMC,022944.0,A,3246.972586,N,11712.460970,W,50.6,8.4,060810,,,A*49
$GPRMC,022947.0,A,3247.013667,N,11712.453492,W,50.0,8.6,060810,,,A*4C
$GPRMC,022950.0,A,3247.055904,N,11712.447538,W,50.2,7.1,060810,,,A*4C
$GPRMC,022953.0,A,3247.096032,N,11712.440482,W,49.5,8.0,060810,,,A*4A
$GPRMC,022956.0,A,3247.139071,N,11712.432289,W,51.7,9.4,060810,,,A*4A
$GPRMC,022959.0,A,3247.180808,N,11712.424766,W,49.8,8.5,060810,,,A*44
$GPRMC,023002.0,A,3247.221630,N,11712.418716,W,48.7,6.5,060810,,,A*47
$GPRMC,023005.0,A,3247.264146,N,11712.415205,W,48.7,4.9,060810,,,A*43
$GPRMC,023008.0,A,3247.305719,N,11712.412012,W,48.0,2.3,060810,,,A*4C
$GPRMC,023011.0,A,3247.346551,N,11712.411041,W,50.1,0.1,060810,,,A*40
$GPRMC,023014.0,A,3247.389676,N,11712.412510,W,51.6,357.0,060810,,,A*44
$GPRMC,023017.0,A,3247.433769,N,11712.416709,W,53.5,354.8,060810,,,A*4A
$GPRMC,023020.0,A,3247.478958,N,11712.423770,W,55.5,351.7,060810,,,A*49
$GPRMC,023023.0,A,3247.525551,N,11712.433622,W,57.4,348.7,060810,,,A*4A
$GPRMC,023026.0,A,3247.573006,N,11712.446698,W,59.1,345.6,060810,,,A*4F
$GPRMC,023029.0,A,3247.621119,N,11712.462665,W,60.0,342.7,060810,,,A*42
$GPRMC,023032.0,A,3247.668874,N,11712.482027,W,60.5,339.5,060810,,,A*42
$GPRMC,023035.0,A,3247.715997,N,11712.504985,W,61.3,336.4,060810,,,A*45
$GPRMC,023038.0,A,3247.762934,N,11712.531449,W,62.9,333.4,060810,,,A*46
$GPRMC,023041.0,A,3247.810897,N,11712.560542,W,64.9,333.2,060810,,,A*44
$GPRMC,023044.0,A,3247.859727,N,11712.589943,W,65.6,332.9,060810,,,A*46
$GPRMC,023047.0,A,3247.908306,N,11712.619851,W,64.9,333.6,060810,,,A*4F
$GPRMC,023050.0,A,3247.956211,N,11712.647476,W,62.1,334.4,060810,,,A*4C
$GPRMC,023053.0,A,3248.003128,N,11712.673582,W,62.1,335.2,060810,,,A*4A
$GPRMC,023056.0,A,3248.050457,N,11712.699196,W,62.3,336.0,060810,,,A*42
$GPRMC,023059.0,A,3248.097490,N,11712.724140,W,61.3,335.5,060810,,,A*44
$GPRMC,023102.0,A,3248.143124,N,11712.750081,W,60.1,333.4,060810,,,A*42
$GPRMC,023105.0,A,3248.187765,N,11712.777842,W,60.8,331.1,060810,,,A*42
$GPRMC,023108.0,A,3248.231851,N,11712.808238,W,61.4,329.4,060810,,,A*48
$GPRMC,023111.0,A,3248.275901,N,11712.839831,W,61.6,328.3,060810,,,A*41
$GPRMC,023114.0,A,3248.319574,N,11712.872550,W,61.8,327.2,060810,,,A*44
$GPRMC,023117.0,A,3248.362654,N,11712.906336,W,61.8,326.2,060810,,,A*4F
$GPRMC,023120.0,A,3248.405437,N,11712.941067,W,62.5,325.5,060810,,,A*44
$GPRMC,023123.0,A,3248.448433,N,11712.976674,W,63.3,324.9,060810,,,A*40
$GPRMC,023126.0,A,3248.491988,N,11713.013226,W,64.6,324.9,060810,,,A*46
$GPRMC,023129.0,A,3248.536765,N,11713.050235,W,66.1,325.7,060810,,,A*47
$GPRMC,023132.0,A,3248.582895,N,11713.087214,W,66.9,326.2,060810,,,A*45
$GPRMC,023135.0,A,3248.629518,N,11713.124284,W,67.2,326.1,060810,,,A*40
$GPRMC,023138.0,A,3248.675995,N,11713.161384,W,67.0,326.0,060810,,,A*4E
$GPRMC,023141.0,A,3248.722381,N,11713.198172,W,66.3,326.5,060810,,,A*46
$GPRMC,023144.0,A,3248.768795,N,11713.233507,W,65.7,328.1,060810,,,A*45
$GPRMC,023147.0,A,3248.815432,N,11713.267217,W,65.2,328.9,060810,,,A*47
$GPRMC,023150.0,A,3248.862138,N,11713.300792,W,65.5,328.4,060810,,,A*4C
$GPRMC,023153.0,A,3248.908555,N,11713.335966,W,66.4,326.4,060810,,,A*42
$GPRMC,023156.0,A,3248.953930,N,11713.372477,W,65.6,325.4,060810,,,A*4A
$GPRMC,023159.0,A,3248.999303,N,11713.409824,W,66.7,325.0,060810,,,A*4E
$GPRMC,023202.0,A,3249.044885,N,11713.448965,W,67.8,322.8,060810,,,A*4E
$GPRMC,023205.0,A,3249.088983,N,11713.491804,W,68.2,319.0,060810,,,A*49
$GPRMC,023208.0,A,3249.131788,N,11713.536940,W,68.0,318.9,060810,,,A*45
$GPRMC,023211.0,A,3249.174244,N,11713.581172,W,67.0,318.9,060810,,,A*43
$GPRMC,023214.0,A,3249.216170,N,11713.624206,W,65.6,319.2,060810,,,A*47
$GPRMC,023217.0,A,3249.256692,N,11713.666124,W,62.3,318.9,060810,,,A*46
$GPRMC,023220.0,A,3249.294179,N,11713.705029,W,57.8,318.9,060810,,,A*4B
$GPRMC,023223.0,A,3249.329868,N,11713.741968,W,56.0,319.1,060810,,,A*4A
$GPRMC,023226.0,A,3249.365165,N,11713.778042,W,56.2,319.1,060810,,,A*4A
$GPRMC,023229.0,A,3249.400699,N,11713.814594,W,56.8,319.0,060810,,,A*45
$GPRMC,023232.0,A,3249.437306,N,11713.850598,W,56.8,322.6,060810,,,A*4A
$GPRMC,023235.0,A,3249.476315,N,11713.881995,W,56.3,328.7,060810,,,A*47
$GPRMC,023238.0,A,3249.518132,N,11713.908840,W,57.8,334.1,060810,,,A*4C
$GPRMC,023241.0,A,3249.562944,N,11713.931230,W,58.8,339.5,060810,,,A*47
$GPRMC,023244.0,A,3249.610595,N,11713.948832,W,60.4,345.5,060810,,,A*4E
$GPRMC,023247.0,A,3249.660645,N,11713.960178,W,61.7,351.9,060810,,,A*42
$GPRMC,023250.0,A,3249.710597,N,11713.965061,W,59.5,357.9,060810,,,A*4D
$GPRMC,023253.0,A,3249.760763,N,11713.965011,W,60.4,0.1,060810,,,A*45
$GPRMC,023256.0,A,3249.810883,N,11713.964769,W,59.2,360.0,060810,,,A*48
$GPRMC,023259.0,A,3249.859445,N,11713.964523,W,57.2,0.0,060810,,,A*4B
$GPRMC,023302.0,A,3249.906887,N,11713.964055,W,56.2,0.5,060810,,,A*4D
$GPRMC,023305.0,A,3249.953920,N,11713.964387,W,56.4,358.1,060810,,,A*46
$GPRMC,023308.0,A,3250.001048,N,11713.968964,W,56.9,352.3,060810,,,A*44
$GPRMC,023311.0,A,3250.047635,N,11713.979409,W,56.9,345.9,060810,,,A*48
$GPRMC,023314.0,A,3250.092960,N,11713.995995,W,56.1,340.5,060810,,,A*41
$GPRMC,023317.0,A,3250.136218,N,11714.015176,W,54.4,339.3,060810,,,A*45
$GPRMC,023320.0,A,3250.178043,N,11714.033804,W,53.4,339.3,060810,,,A*48
$GPRMC,023323.0,A,3250.220851,N,11714.052930,W,55.7,339.2,060810,,,A*4B
$GPRMC,023326.0,A,3250.264972,N,11714.072946,W,57.0,339.0,060810,,,A*4A
$GPRMC,023329.0,A,3250.309088,N,11714.092791,W,55.6,339.0,060810,,,A*4D
$GPRMC,023332.0,A,3250.351928,N,11714.112269,W,55.1,339.2,060810,,,A*47
$GPRMC,023335.0,A,3250.395747,N,11714.131948,W,56.9,339.2,060810,,,A*4D
$GPRMC,023338.0,A,3250.440509,N,11714.151949,W,57.2,340.4,060810,,,A*42
$GPRMC,023341.0,A,3250.486476,N,11714.168445,W,57.9,345.8,060810,,,A*46
$GPRMC,023344.0,A,3250.534718,N,11714.179624,W,59.8,351.6,060810,,,A*41
$GPRMC,023347.0,A,3250.584893,N,11714.185061,W,60.9,357.5,060810,,,A*4F
$GPRMC,023350.0,A,3250.635833,N,11714.184060,W,60.9,3.9,060810,,,A*44
$GPRMC,023353.0,A,3250.685564,N,11714.177693,W,58.6,7.5,060810,,,A*49
$GPRMC,023356.0,A,3250.733117,N,11714.170270,W,56.1,7.4,060810,,,A*46
$GPRMC,023359.0,A,3250.779511,N,11714.162440,W,56.3,7.6,060810,,,A*43
$GPRMC,023402.0,A,3250.826413,N,11714.154720,W,56.6,7.7,060810,,,A*48
$GPRMC,023405.0,A,3250.872349,N,11714.145572,W,55.1,11.5,060810,,,A*72
$GPRMC,023408.0,A,3250.916595,N,11714.132044,W,54.3,16.6,060810,,,A*7C
$GPRMC,023411.0,A,3250.958890,N,11714.113677,W,54.1,22.5,060810,,,A*75
$GPRMC,023414.0,A,3250.999961,N,11714.090855,W,54.3,26.7,060810,,,A*72
$GPRMC,023417.0,A,3251.040086,N,11714.064945,W,54.9,29.6,060810,,,A*72
$GPRMC,023420.0,A,3251.079904,N,11714.037365,W,55.5,29.8,060810,,,A*72
$GPRMC,023423.0,A,3251.120595,N,11714.009066,W,56.9,30.2,060810,,,A*78
$GPRMC,023426.0,A,3251.162033,N,11713.980033,W,58.2,30.2,060810,,,A*78
$GPRMC,023429.0,A,3251.204391,N,11713.950079,W,60.1,30.5,060810,,,A*73
$GPRMC,023432.0,A,3251.248582,N,11713.919014,W,62.4,30.3,060810,,,A*72
$GPRMC,023435.0,A,3251.294804,N,11713.888452,W,63.8,26.6,060810,,,A*77
$GPRMC,023438.0,A,3251.343766,N,11713.863347,W,63.8,20.3,060810,,,A*7F
$GPRMC,023441.0,A,3251.394761,N,11713.844759,W,64.2,14.3,060810,,,A*78
$GPRMC,023444.0,A,3251.448251,N,11713.832292,W,65.5,8.1,060810,,,A*47
$GPRMC,023447.0,A,3251.502830,N,11713.825910,W,65.4,4.6,060810,,,A*4B
$GPRMC,023450.0,A,3251.555968,N,11713.820800,W,62.5,5.2,060810,,,A*45
$GPRMC,023453.0,A,3251.608374,N,11713.814886,W,63.6,6.3,060810,,,A*43
$GPRMC,023456.0,A,3251.662075,N,11713.808665,W,65.4,5.2,060810,,,A*40
$GPRMC,023459.0,A,3251.717393,N,11713.803087,W,67.5,5.0,060810,,,A*47
$GPRMC,023502.0,A,3251.773951,N,11713.797581,W,67.8,4.9,060810,,,A*4A
$GPRMC,023505.0,A,3251.829777,N,11713.792270,W,66.7,4.5,060810,,,A*49
$GPRMC,023508.0,A,3251.885351,N,11713.787236,W,66.6,4.3,060810,,,A*43
$GPRMC,023511.0,A,3251.940466,N,11713.782212,W,66.0,4.6,060810,,,A*40
$GPRMC,023514.0,A,3251.995092,N,11713.777087,W,65.4,4.5,060810,,,A*42
$GPRMC,023517.0,A,3252.049789,N,11713.771957,W,66.5,4.7,060810,,,A*45
$GPRMC,023520.0,A,3252.105741,N,11713.766687,W,67.2,4.3,060810,,,A*4A
$GPRMC,023523.0,A,3252.161710,N,11713.761602,W,67.2,4.4,060810,,,A*42
$GPRMC,023526.0,A,3252.218419,N,11713.756327,W,68.3,4.5,060810,,,A*49
$GPRMC,023529.0,A,3252.274718,N,11713.751131,W,66.8,4.7,060810,,,A*4B
$GPRMC,023532.0,A,3252.330285,N,11713.745846,W,66.9,4.8,060810,,,A*43
$GPRMC,023535.0,A,3252.385090,N,11713.740465,W,65.1,5.0,060810,,,A*46
$GPRMC,023538.0,A,3252.438109,N,11713.735109,W,62.6,4.8,060810,,,A*4F
$GPRMC,023541.0,A,3252.490189,N,11713.729979,W,62.0,4.6,060810,,,A*41
$GPRMC,023544.0,A,3252.541121,N,11713.725106,W,60.5,4.8,060810,,,A*4E
$GPRMC,023547.0,A,3252.591503,N,11713.720112,W,60.9,4.7,060810,,,A*47
$GPRMC,023550.0,A,3252.642202,N,11713.715158,W,61.1,4.9,060810,,,A*45
$GPRMC,023553.0,A,3252.693145,N,11713.710053,W,61.0,4.8,060810,,,A*45
$GPRMC,023556.0,A,3252.744457,N,11713.704853,W,61.8,4.8,060810,,,A*48
$GPRMC,023559.0,A,3252.795614,N,11713.700111,W,60.9,4.6,060810,,,A*4B
$GPRMC,023602.0,A,3252.845804,N,11713.695232,W,59.7,4.6,060810,,,A*40
$GPRMC,023605.0,A,3252.895776,N,11713.690294,W,60.9,4.7,060810,,,A*4C
$GPRMC,023608.0,A,3252.947031,N,11713.685647,W,61.7,4.2,060810,,,A*4F
$GPRMC,023611.0,A,3252.998449,N,11713.681030,W,61.8,4.5,060810,,,A*44
$GPRMC,023614.0,A,3253.050206,N,11713.676293,W,62.2,4.2,060810,,,A*4D
$GPRMC,023617.0,A,3253.102260,N,11713.671691,W,62.8,4.5,060810,,,A*44
$GPRMC,023620.0,A,3253.154971,N,11713.666808,W,63.2,4.4,060810,,,A*4A
$GPRMC,023623.0,A,3253.208393,N,11713.661623,W,65.4,4.8,060810,,,A*49
$GPRMC,023626.0,A,3253.263522,N,11713.656257,W,66.5,4.6,060810,,,A*42
$GPRMC,023629.0,A,3253.319152,N,11713.651062,W,66.6,4.4,060810,,,A*40
$GPRMC,023632.0,A,3253.374319,N,11713.645464,W,66.1,5.2,060810,,,A*4B
$GPRMC,023635.0,A,3253.430435,N,11713.638856,W,68.4,5.6,060810,,,A*4A
$GPRMC,023638.0,A,3253.487706,N,11713.632740,W,67.9,4.7,060810,,,A*48
$GPRMC,023641.0,A,3253.543661,N,11713.627349,W,66.3,4.5,060810,,,A*4F
$GPRMC,023644.0,A,3253.598747,N,11713.620826,W,65.4,7.2,060810,,,A*4C
$GPRMC,023647.0,A,3253.652069,N,11713.609259,W,64.9,13.0,060810,,,A*73
$GPRMC,023650.0,A,3253.705295,N,11713.591738,W,66.3,17.6,060810,,,A*7D
$GPRMC,023653.0,A,3253.757917,N,11713.570480,W,66.0,19.2,060810,,,A*7E
$GPRMC,023656.0,A,3253.810014,N,11713.549081,W,65.8,18.8,060810,,,A*72
$GPRMC,023659.0,A,3253.862106,N,11713.528185,W,65.5,18.5,060810,,,A*78
$GPRMC,023702.0,A,3253.914545,N,11713.507595,W,65.8,18.0,060810,,,A*74
$GPRMC,023705.0,A,3253.966755,N,11713.487106,W,65.8,18.4,060810,,,A*76
$GPRMC,023708.0,A,3254.019138,N,11713.466150,W,65.8,18.4,060810,,,A*7C
$GPRMC,023711.0,A,3254.071990,N,11713.446808,W,65.7,15.4,060810,,,A*74
$GPRMC,023714.0,A,3254.125631,N,11713.433194,W,64.6,8.4,060810,,,A*47
$GPRMC,023717.0,A,3254.179035,N,11713.427456,W,64.2,2.5,060810,,,A*4E
$GPRMC,023720.0,A,3254.232517,N,11713.428079,W,63.9,356.4,060810,,,A*4A
$GPRMC,023723.0,A,3254.285469,N,11713.436010,W,63.9,350.1,060810,,,A*4E
$GPRMC,023726.0,A,3254.337611,N,11713.450193,W,63.7,344.5,060810,,,A*4B
$GPRMC,023729.0,A,3254.388189,N,11713.470882,W,63.8,338.1,060810,,,A*4D
$GPRMC,023732.0,A,3254.436434,N,11713.498231,W,63.7,331.4,060810,,,A*41
$GPRMC,023735.0,A,3254.482011,N,11713.531433,W,64.0,326.2,060810,,,A*4C
$GPRMC,023738.0,A,3254.525845,N,11713.567975,W,63.9,324.6,060810,,,A*40
$GPRMC,023741.0,A,3254.568738,N,11713.604064,W,62.9,325.5,060810,,,A*4E
$GPRMC,023744.0,A,3254.613528,N,11713.637262,W,63.2,331.9,060810,,,A*40
$GPRMC,023747.0,A,3254.660915,N,11713.666053,W,63.6,334.1,060810,,,A*48
$GPRMC,023750.0,A,3254.708792,N,11713.694086,W,63.8,333.8,060810,,,A*45
$GPRMC,023753.0,A,3254.756157,N,11713.723366,W,63.6,332.0,060810,,,A*45
$GPRMC,023756.0,A,3254.802928,N,11713.752927,W,63.1,332.1,060810,,,A*41
$GPRMC,023759.0,A,3254.849266,N,11713.782946,W,63.4,330.2,060810,,,A*4E
$GPRMC,023802.0,A,3254.893734,N,11713.817300,W,63.5,323.6,060810,,,A*46
$GPRMC,023805.0,A,3254.934714,N,11713.857261,W,63.6,318.0,060810,,,A*40
$GPRMC,023808.0,A,3254.972055,N,11713.901970,W,63.4,312.1,060810,,,A*4D
$GPRMC,023811.0,A,3255.005864,N,11713.950748,W,63.6,308.6,060810,,,A*48
$GPRMC,023814.0,A,3255.038872,N,11714.000240,W,63.3,309.0,060810,,,A*40
$GPRMC,023817.0,A,3255.072978,N,11714.048469,W,63.6,311.9,060810,,,A*42
$GPRMC,023820.0,A,3255.109705,N,11714.094074,W,63.6,315.7,060810,,,A*4C
$GPRMC,023823.0,A,3255.149028,N,11714.136510,W,63.7,319.8,060810,,,A*4F
$GPRMC,023826.0,A,3255.190619,N,11714.176018,W,63.9,323.1,060810,,,A*4D
$GPRMC,023829.0,A,3255.234390,N,11714.212555,W,63.8,326.2,060810,,,A*41
$GPRMC,023832.0,A,3255.279612,N,11714.246074,W,63.6,330.5,060810,,,A*44
$GPRMC,023835.0,A,3255.326695,N,11714.275173,W,63.6,334.1,060810,,,A*41
$GPRMC,023838.0,A,3255.375249,N,11714.300615,W,63.6,338.1,060810,,,A*47
$GPRMC,023841.0,A,3255.425206,N,11714.321813,W,63.3,342.2,060810,,,A*40
$GPRMC,023844.0,A,3255.475817,N,11714.339214,W,63.3,344.2,060810,,,A*48
$GPRMC,023847.0,A,3255.526848,N,11714.356273,W,63.6,344.4,060810,,,A*4D
$GPRMC,023850.0,A,3255.577956,N,11714.373191,W,63.5,343.9,060810,,,A*40
$GPRMC,023853.0,A,3255.628859,N,11714.390878,W,63.5,343.3,060810,,,A*4D
$GPRMC,023856.0,A,3255.679857,N,11714.408440,W,63.7,344.4,060810,,,A*41
$GPRMC,023859.0,A,3255.730910,N,11714.424383,W,62.5,345.7,060810,,,A*47
$GPRMC,023902.0,A,3255.781277,N,11714.438188,W,61.8,348.4,060810,,,A*4C
$GPRMC,023905.0,A,3255.831686,N,11714.449141,W,61.0,350.3,060810,,,A*40
$GPRMC,023908.0,A,3255.882207,N,11714.458189,W,61.0,352.0,060810,,,A*4D
$GPRMC,023911.0,A,3255.932475,N,11714.465280,W,59.9,354.0,060810,,,A*4C
$GPRMC,023914.0,A,3255.981985,N,11714.470550,W,58.7,355.6,060810,,,A*45
$GPRMC,023917.0,A,3256.029905,N,11714.473990,W,57.1,357.0,060810,,,A*48
$GPRMC,023920.0,A,3256.077901,N,11714.477048,W,58.1,356.5,060810,,,A*40
$GPRMC,023923.0,A,3256.126673,N,11714.480463,W,58.9,356.7,060810,,,A*43
$GPRMC,023926.0,A,3256.176077,N,11714.483887,W,59.3,356.6,060810,,,A*4E
$GPRMC,023929.0,A,3256.225370,N,11714.487302,W,59.1,356.7,060810,,,A*41
$GPRMC,023932.0,A,3256.274696,N,11714.490777,W,59.1,356.5,060810,,,A*40
$GPRMC,023935.0,A,3256.324120,N,11714.494579,W,59.1,355.5,060810,,,A*42
$GPRMC,023938.0,A,3256.373345,N,11714.500132,W,59.1,353.6,060810,,,A*4E
$GPRMC,023941.0,A,3256.422497,N,11714.507208,W,59.1,352.2,060810,,,A*43
$GPRMC,023944.0,A,3256.471333,N,11714.515843,W,59.1,351.2,060810,,,A*4C
$GPRMC,023947.0,A,3256.520191,N,11714.524654,W,59.0,351.6,060810,,,A*4F
$GPRMC,023950.0,A,3256.569198,N,11714.533414,W,59.2,350.9,060810,,,A*41
$GPRMC,023953.0,A,3256.617998,N,11714.542819,W,59.2,351.0,060810,,,A*4F
$GPRMC,023956.0,A,3256.666788,N,11714.551977,W,59.0,351.0,060810,,,A*4A
$GPRMC,023959.0,A,3256.715606,N,11714.561095,W,59.1,351.2,060810,,,A*42
$GPRMC,024002.0,A,3256.764610,N,11714.570082,W,59.1,351.1,060810,,,A*46
$GPRMC,024005.0,A,3256.813523,N,11714.579049,W,59.1,351.2,060810,,,A*40
$GPRMC,024008.0,A,3256.862233,N,11714.588227,W,59.1,351.0,060810,,,A*4B
$GPRMC,024011.0,A,3256.911149,N,11714.597415,W,59.1,351.2,060810,,,A*43
$GPRMC,024014.0,A,3256.959899,N,11714.606297,W,59.1,351.3,060810,,,A*48
$GPRMC,024017.0,A,3257.008795,N,11714.615389,W,59.3,351.0,060810,,,A*49
$GPRMC,024020.0,A,3257.057789,N,11714.625433,W,59.5,350.0,060810,,,A*48
$GPRMC,024023.0,A,3257.106672,N,11714.635586,W,59.5,350.3,060810,,,A*46
$GPRMC,024026.0,A,3257.155714,N,11714.645429,W,59.7,350.6,060810,,,A*40
$GPRMC,024029.0,A,3257.204811,N,11714.654833,W,59.5,350.8,060810,,,A*49
$GPRMC,024032.0,A,3257.253807,N,11714.664293,W,59.4,350.8,060810,,,A*44
$GPRMC,024035.0,A,3257.302723,N,11714.673582,W,59.2,350.8,060810,,,A*48
$GPRMC,024038.0,A,3257.351574,N,11714.682956,W,59.1,350.8,060810,,,A*4B
$GPRMC,024041.0,A,3257.400351,N,11714.692320,W,58.8,350.8,060810,,,A*45
$GPRMC,024044.0,A,3257.449164,N,11714.701398,W,59.3,351.2,060810,,,A*40
$GPRMC,024047.0,A,3257.498052,N,11714.710641,W,59.2,350.4,060810,,,A*4C
$GPRMC,024050.0,A,3257.546845,N,11714.720851,W,59.2,349.8,060810,,,A*4E
$GPRMC,024053.0,A,3257.595341,N,11714.731673,W,59.2,348.2,060810,,,A*49
$GPRMC,024056.0,A,3257.643430,N,11714.744995,W,59.2,345.5,060810,,,A*4A
$GPRMC,024059.0,A,3257.691275,N,11714.760375,W,59.3,344.0,060810,,,A*4A
$GPRMC,024102.0,A,3257.738599,N,11714.777775,W,59.5,342.4,060810,,,A*44
$GPRMC,024105.0,A,3257.785963,N,11714.795629,W,59.3,342.2,060810,,,A*48
$GPRMC,024108.0,A,3257.833121,N,11714.813648,W,59.2,342.6,060810,,,A*4A
$GPRMC,024111.0,A,3257.880423,N,11714.831532,W,59.4,342.3,060810,,,A*40
$GPRMC,024114.0,A,3257.927782,N,11714.849340,W,59.3,342.3,060810,,,A*4A
$GPRMC,024117.0,A,3257.974958,N,11714.867239,W,59.3,342.3,060810,,,A*45
$GPRMC,024120.0,A,3258.022242,N,11714.885223,W,59.4,342.5,060810,,,A*42
$GPRMC,024123.0,A,3258.069524,N,11714.902956,W,59.1,342.2,060810,,,A*4C
$GPRMC,024126.0,A,3258.116835,N,11714.921051,W,59.5,342.3,060810,,,A*47
$GPRMC,024129.0,A,3258.164124,N,11714.938899,W,59.2,342.4,060810,,,A*40
$GPRMC,024132.0,A,3258.211237,N,11714.956828,W,59.2,342.0,060810,,,A*4C
$GPRMC,024135.0,A,3258.258227,N,11714.974812,W,59.0,342.4,060810,,,A*48
$GPRMC,024138.0,A,3258.305064,N,11714.992278,W,58.8,342.5,060810,,,A*4F
$GPRMC,024141.0,A,3258.351918,N,11715.009976,W,59.1,342.5,060810,,,A*45
$GPRMC,024144.0,A,3258.399031,N,11715.027518,W,59.2,342.4,060810,,,A*4C
$GPRMC,024147.0,A,3258.446066,N,11715.045195,W,59.1,342.6,060810,,,A*4C
$GPRMC,024150.0,A,3258.493106,N,11715.062882,W,59.2,342.3,060810,,,A*49
$GPRMC,024153.0,A,3258.540209,N,11715.080781,W,59.2,342.5,060810,,,A*4F
$GPRMC,024156.0,A,3258.587362,N,11715.098569,W,59.2,342.4,060810,,,A*41
$GPRMC,024159.0,A,3258.634266,N,11715.116528,W,58.9,342.4,060810,,,A*48
$GPRMC,024202.0,A,3258.681143,N,11715.133939,W,58.7,342.5,060810,,,A*4B
$GPRMC,024205.0,A,3258.727952,N,11715.151597,W,58.9,342.4,060810,,,A*4A
$GPRMC,024208.0,A,3258.774934,N,11715.169098,W,59.0,342.3,060810,,,A*4F
$GPRMC,024211.0,A,3258.821828,N,11715.186811,W,58.9,342.4,060810,,,A*43
$GPRMC,024214.0,A,3258.868768,N,11715.204518,W,59.0,342.3,060810,,,A*42
$GPRMC,024217.0,A,3258.915692,N,11715.222326,W,59.0,342.4,060810,,,A*46
$GPRMC,024220.0,A,3258.962599,N,11715.239898,W,59.1,342.3,060810,,,A*48
$GPRMC,024223.0,A,3259.009712,N,11715.257540,W,59.1,342.5,060810,,,A*49
$GPRMC,024226.0,A,3259.057132,N,11715.273900,W,59.1,345.7,060810,,,A*48
$GPRMC,024229.0,A,3259.105457,N,11715.286197,W,59.2,349.9,060810,,,A*4A
$GPRMC,024232.0,A,3259.154453,N,11715.294439,W,59.1,353.0,060810,,,A*43
$GPRMC,024235.0,A,3259.203520,N,11715.301716,W,59.2,352.7,060810,,,A*46
$GPRMC,024238.0,A,3259.252607,N,11715.309336,W,59.1,352.2,060810,,,A*41
$GPRMC,024241.0,A,3259.301737,N,11715.317402,W,59.2,352.0,060810,,,A*44
$GPRMC,024244.0,A,3259.350645,N,11715.325907,W,59.1,351.5,060810,,,A*4D
$GPRMC,024247.0,A,3259.399654,N,11715.334612,W,59.2,351.5,060810,,,A*43
$GPRMC,024250.0,A,3259.448706,N,11715.342664,W,59.3,352.4,060810,,,A*4B
$GPRMC,024253.0,A,3259.497705,N,11715.350575,W,58.8,352.2,060810,,,A*45
$GPRMC,024256.0,A,3259.545595,N,11715.357962,W,57.2,352.7,060810,,,A*48
$GPRMC,024259.0,A,3259.592881,N,11715.365229,W,56.8,352.4,060810,,,A*48
$GPRMC,024302.0,A,3259.639672,N,11715.372889,W,56.6,351.7,060810,,,A*4F
$GPRMC,024305.0,A,3259.686881,N,11715.381272,W,57.7,351.5,060810,,,A*4E
$GPRMC,024308.0,A,3259.735382,N,11715.389621,W,59.2,352.2,060810,,,A*47
$GPRMC,024311.0,A,3259.785206,N,11715.397547,W,61.1,352.3,060810,,,A*4C
$GPRMC,024314.0,A,3259.836794,N,11715.405880,W,62.9,352.3,060810,,,A*41
$GPRMC,024317.0,A,3259.889339,N,11715.414495,W,63.7,352.2,060810,,,A*43
$GPRMC,024320.0,A,3259.942185,N,11715.422989,W,64.3,352.5,060810,,,A*45
$GPRMC,024323.0,A,3259.995690,N,11715.431383,W,64.7,352.5,060810,,,A*49
$GPRMC,024326.0,A,3300.049276,N,11715.439621,W,64.1,352.6,060810,,,A*45
$GPRMC,024329.0,A,3300.101928,N,11715.447858,W,62.9,352.2,060810,,,A*44
$GPRMC,024332.0,A,3300.153198,N,11715.457615,W,61.7,348.9,060810,,,A*41
$GPRMC,024335.0,A,3300.203537,N,11715.472954,W,63.2,342.8,060810,,,A*40
$GPRMC,024338.0,A,3300.253376,N,11715.495047,W,63.3,336.5,060810,,,A*46
$GPRMC,024341.0,A,3300.300393,N,11715.522898,W,62.7,330.7,060810,,,A*42
$GPRMC,024344.0,A,3300.344172,N,11715.556513,W,62.4,324.4,060810,,,A*42
$GPRMC,024347.0,A,3300.385622,N,11715.596293,W,65.4,318.5,060810,,,A*44
$GPRMC,024350.0,A,3300.425956,N,11715.642174,W,67.7,315.9,060810,,,A*43
$GPRMC,024353.0,A,3300.466913,N,11715.689504,W,68.5,315.9,060810,,,A*4F
$GPRMC,024356.0,A,3300.507916,N,11715.736697,W,67.7,316.2,060810,,,A*40
$GPRMC,024359.0,A,3300.548622,N,11715.782955,W,67.2,316.6,060810,,,A*43
$GPRMC,024402.0,A,3300.589742,N,11715.829656,W,68.1,316.1,060810,,,A*49
$GPRMC,024405.0,A,3300.630099,N,11715.876658,W,67.1,315.4,060810,,,A*43
$GPRMC,024408.0,A,3300.669542,N,11715.923469,W,66.2,315.3,060810,,,A*45
$GPRMC,024411.0,A,3300.708817,N,11715.968842,W,64.8,316.2,060810,,,A*46
$GPRMC,024414.0,A,3300.747698,N,11716.013400,W,64.4,316.2,060810,,,A*41
$GPRMC,024417.0,A,3300.786286,N,11716.057848,W,64.1,315.9,060810,,,A*49
$GPRMC,024420.0,A,3300.824779,N,11716.102386,W,64.7,316.2,060810,,,A*49
$GPRMC,024423.0,A,3300.863914,N,11716.147286,W,65.4,316.2,060810,,,A*4E
$GPRMC,024426.0,A,3300.903790,N,11716.191960,W,65.5,317.5,060810,,,A*41
$GPRMC,024429.0,A,3300.945388,N,11716.233893,W,65.3,322.2,060810,,,A*40
$GPRMC,024432.0,A,3300.990027,N,11716.271612,W,65.6,326.7,060810,,,A*41
$GPRMC,024435.0,A,3301.037100,N,11716.304839,W,65.4,331.6,060810,,,A*46
$GPRMC,024438.0,A,3301.086209,N,11716.333188,W,64.8,336.5,060810,,,A*45
$GPRMC,024441.0,A,3301.136435,N,11716.355905,W,64.3,341.2,060810,,,A*49
$GPRMC,024444.0,A,3301.188457,N,11716.373628,W,65.2,346.3,060810,,,A*4F
$GPRMC,024447.0,A,3301.242359,N,11716.385768,W,65.8,350.9,060810,,,A*4B
$GPRMC,024450.0,A,3301.296930,N,11716.395419,W,66.1,351.2,060810,,,A*45
$GPRMC,024453.0,A,3301.350672,N,11716.405342,W,63.9,350.8,060810,,,A*45
$GPRMC,024456.0,A,3301.402801,N,11716.415465,W,63.0,350.0,060810,,,A*48
$GPRMC,024459.0,A,3301.454524,N,11716.427746,W,63.4,346.6,060810,,,A*48
$GPRMC,024502.0,A,3301.505207,N,11716.444966,W,63.1,341.6,060810,,,A*4F
$GPRMC,024505.0,A,3301.554709,N,11716.467230,W,63.6,337.0,060810,,,A*4E
$GPRMC,024508.0,A,3301.602763,N,11716.494211,W,63.6,332.6,060810,,,A*43
$GPRMC,024511.0,A,3301.649048,N,11716.524748,W,63.2,330.6,060810,,,A*4F
$GPRMC,024514.0,A,3301.694866,N,11716.555532,W,62.9,330.6,060810,,,A*4D
$GPRMC,024517.0,A,3301.740496,N,11716.585988,W,62.4,330.9,060810,,,A*47
$GPRMC,024520.0,A,3301.785833,N,11716.616435,W,62.4,330.4,060810,,,A*46
$GPRMC,024523.0,A,3301.831229,N,11716.647198,W,62.9,330.5,060810,,,A*4E
$GPRMC,024526.0,A,3301.877117,N,11716.678243,W,63.5,330.5,060810,,,A*43
$GPRMC,024529.0,A,3301.923509,N,11716.709439,W,63.9,330.5,060810,,,A*47
$GPRMC,024532.0,A,3301.969530,N,11716.740393,W,62.8,330.5,060810,,,A*43
$GPRMC,024535.0,A,3302.015431,N,11716.771438,W,63.6,330.5,060810,,,A*4E
$GPRMC,024538.0,A,3302.061999,N,11716.802654,W,64.4,330.4,060810,,,A*48
$GPRMC,024541.0,A,3302.109212,N,11716.834428,W,65.5,330.5,060810,,,A*4C
$GPRMC,024544.0,A,3302.157301,N,11716.866745,W,66.5,330.6,060810,,,A*4E
$GPRMC,024547.0,A,3302.205774,N,11716.899636,W,67.0,330.0,060810,,,A*48
$GPRMC,024550.0,A,3302.254690,N,11716.932712,W,67.8,330.6,060810,,,A*48
$GPRMC,024553.0,A,3302.304333,N,11716.966091,W,67.9,330.5,060810,,,A*4C
$GPRMC,024556.0,A,3302.353656,N,11716.999288,W,67.9,330.7,060810,,,A*45
$GPRMC,024559.0,A,3302.403042,N,11717.032264,W,67.5,330.9,060810,,,A*42
$GPRMC,024602.0,A,3302.451657,N,11717.064556,W,65.9,330.9,060810,,,A*41
$GPRMC,024605.0,A,3302.500213,N,11717.094309,W,64.5,335.1,060810,,,A*44
$GPRMC,024608.0,A,3302.549448,N,11717.118449,W,63.2,340.1,060810,,,A*48
$GPRMC,024611.0,A,3302.599310,N,11717.137062,W,61.9,344.5,060810,,,A*4E
$GPRMC,024614.0,A,3302.648751,N,11717.152250,W,60.8,346.0,060810,,,A*42
$GPRMC,024617.0,A,3302.697561,N,11717.166522,W,59.6,346.0,060810,,,A*43
$GPRMC,024620.0,A,3302.745318,N,11717.180614,W,58.5,345.8,060810,,,A*46
$GPRMC,024623.0,A,3302.792190,N,11717.194640,W,57.5,345.9,060810,,,A*47
$GPRMC,024626.0,A,3302.839268,N,11717.208490,W,59.1,345.9,060810,,,A*4B
$GPRMC,024629.0,A,3302.887241,N,11717.222879,W,58.9,345.6,060810,,,A*4F
$GPRMC,024632.0,A,3302.934945,N,11717.237373,W,59.0,345.5,060810,,,A*4D
$GPRMC,024635.0,A,3302.983214,N,11717.252078,W,59.8,345.7,060810,,,A*48
$GPRMC,024638.0,A,3303.031821,N,11717.266627,W,60.1,346.0,060810,,,A*44
$GPRMC,024641.0,A,3303.080566,N,11717.280955,W,60.3,346.3,060810,,,A*4D
$GPRMC,024644.0,A,3303.129761,N,11717.295082,W,60.4,346.7,060810,,,A*4B
$GPRMC,024647.0,A,3303.178041,N,11717.308792,W,58.6,346.4,060810,,,A*40
$GPRMC,024650.0,A,3303.224859,N,11717.322642,W,57.9,346.2,060810,,,A*4F
$GPRMC,024653.0,A,3303.272377,N,11717.336583,W,59.2,346.0,060810,,,A*44
$GPRMC,024656.0,A,3303.320936,N,11717.351016,W,60.7,345.9,060810,,,A*45
$GPRMC,024659.0,A,3303.370604,N,11717.365847,W,61.6,345.9,060810,,,A*4A
$GPRMC,024702.0,A,3303.420599,N,11717.380834,W,61.0,345.8,060810,,,A*48
$GPRMC,024705.0,A,3303.469859,N,11717.395640,W,60.4,345.7,060810,,,A*40
$GPRMC,024708.0,A,3303.518307,N,11717.410164,W,59.6,346.0,060810,,,A*4D
$GPRMC,024711.0,A,3303.566625,N,11717.424492,W,59.9,345.8,060810,,,A*46
$GPRMC,024714.0,A,3303.615797,N,11717.439072,W,61.1,345.8,060810,,,A*49
$GPRMC,024717.0,A,3303.665530,N,11717.453953,W,61.6,345.8,060810,,,A*43
$GPRMC,024720.0,A,3303.714917,N,11717.468945,W,60.5,345.5,060810,,,A*49
$GPRMC,024723.0,A,3303.763604,N,11717.483509,W,59.8,346.0,060810,,,A*47
$GPRMC,024726.0,A,3303.811863,N,11717.497847,W,59.2,346.0,060810,,,A*4F
$GPRMC,024729.0,A,3303.859660,N,11717.512044,W,59.0,345.7,060810,,,A*40
$GPRMC,024732.0,A,3303.908016,N,11717.526196,W,60.1,346.7,060810,,,A*49
$GPRMC,024735.0,A,3303.958463,N,11717.540253,W,63.1,346.5,060810,,,A*46
$GPRMC,024738.0,A,3304.010550,N,11717.555215,W,64.9,346.3,060810,,,A*47
$GPRMC,024741.0,A,3304.063519,N,11717.570594,W,65.7,346.2,060810,,,A*47
$GPRMC,024744.0,A,3304.116959,N,11717.586591,W,66.2,345.9,060810,,,A*4B
$GPRMC,024747.0,A,3304.170778,N,11717.602936,W,66.9,345.7,060810,,,A*4E
$GPRMC,024750.0,A,3304.225249,N,11717.619567,W,67.4,345.5,060810,,,A*40
$GPRMC,024753.0,A,3304.279981,N,11717.636118,W,67.7,345.9,060810,,,A*4B
$GPRMC,024756.0,A,3304.334670,N,11717.652775,W,67.1,345.6,060810,,,A*41
$GPRMC,024759.0,A,3304.388719,N,11717.669376,W,66.6,345.7,060810,,,A*4F
$GPRMC,024802.0,A,3304.442593,N,11717.685580,W,66.5,345.7,060810,,,A*41
$GPRMC,024805.0,A,3304.496805,N,11717.702609,W,67.9,344.9,060810,,,A*43
$GPRMC,024808.0,A,3304.551447,N,11717.719818,W,67.4,345.5,060810,,,A*4A
$GPRMC,024811.0,A,3304.606048,N,11717.736772,W,67.4,345.3,060810,,,A*40
$GPRMC,024814.0,A,3304.660247,N,11717.752976,W,66.6,345.8,060810,,,A*48
$GPRMC,024817.0,A,3304.713553,N,11717.768858,W,65.4,345.7,060810,,,A*46
$GPRMC,024820.0,A,3304.766216,N,11717.784825,W,65.1,345.8,060810,,,A*44
$GPRMC,024823.0,A,3304.818833,N,11717.800707,W,64.9,346.1,060810,,,A*43
$GPRMC,024826.0,A,3304.871956,N,11717.816624,W,66.1,345.8,060810,,,A*4C
$GPRMC,024829.0,A,3304.925595,N,11717.833029,W,66.6,345.6,060810,,,A*45
$GPRMC,024832.0,A,3304.979245,N,11717.849238,W,65.7,345.3,060810,,,A*44
$GPRMC,024835.0,A,3305.031073,N,11717.868319,W,64.1,340.4,060810,,,A*44
$GPRMC,024838.0,A,3305.080469,N,11717.891865,W,63.7,335.7,060810,,,A*4A
$GPRMC,024841.0,A,3305.129292,N,11717.920828,W,67.3,331.8,060810,,,A*4D
$GPRMC,024844.0,A,3305.176964,N,11717.951687,W,61.6,331.6,060810,,,A*40
$GPRMC,024847.0,A,3305.221172,N,11717.979257,W,59.7,333.2,060810,,,A*42
$GPRMC,024850.0,A,3305.266995,N,11718.007133,W,63.3,331.9,060810,,,A*4C
$GPRMC,024853.0,A,3305.313890,N,11718.038450,W,65.0,330.4,060810,,,A*4D
$GPRMC,024856.0,A,3305.362856,N,11718.070516,W,67.2,331.1,060810,,,A*4F
$GPRMC,024859.0,A,3305.411427,N,11718.102596,W,65.2,331.2,060810,,,A*44
$GPRMC,024902.0,A,3305.457974,N,11718.133038,W,62.3,331.4,060810,,,A*41
$GPRMC,024905.0,A,3305.503352,N,11718.162805,W,61.5,331.2,060810,,,A*49
$GPRMC,024908.0,A,3305.547176,N,11718.191532,W,58.2,331.3,060810,,,A*49
$GPRMC,024911.0,A,3305.588483,N,11718.218282,W,54.7,331.4,060810,,,A*4D
$GPRMC,024914.0,A,3305.627122,N,11718.243508,W,51.7,331.5,060810,,,A*4F
$GPRMC,024917.0,A,3305.665100,N,11718.268362,W,52.6,331.2,060810,,,A*4C
$GPRMC,024920.0,A,3305.703950,N,11718.293538,W,53.8,331.6,060810,,,A*42
$GPRMC,024923.0,A,3305.742652,N,11718.318643,W,51.6,331.4,060810,,,A*4A
$GPRMC,024926.0,A,3305.779646,N,11718.342642,W,50.1,331.6,060810,,,A*48
$GPRMC,024929.0,A,3305.816298,N,11718.366098,W,49.8,331.9,060810,,,A*4F
$GPRMC,024932.0,A,3305.853486,N,11718.390163,W,51.3,331.4,060810,,,A*4E
$GPRMC,024935.0,A,3305.891846,N,11718.415354,W,53.5,331.1,060810,,,A*4A
$GPRMC,024938.0,A,3305.931159,N,11718.441058,W,54.0,331.5,060810,,,A*43
$GPRMC,024941.0,A,3305.970497,N,11718.466822,W,53.7,331.2,060810,,,A*48
$GPRMC,024944.0,A,3306.009221,N,11718.492687,W,52.6,331.5,060810,,,A*4F
$GPRMC,024947.0,A,3306.050146,N,11718.516817,W,56.2,335.2,060810,,,A*4B
