NMEA Sentence Code,UTC Time,Status,Latitude,Latitude Direction,Longitude,Longitude Direction,Speed (knots),Track Angle (degrees true),Date,MagneticVariation,Magnetic Variation Direction,[FAA Mode]-Optional,Checksum
$GPRMC,024318.9,A,3247.485708,N,11657.739795,W,30.9,358.9,170410,,,A*41
$GPRMC,024321.9,A,3247.508986,N,11657.739313,W,27.1,1.4,170410,,,A*41
$GPRMC,024324.9,A,3247.528426,N,11657.737239,W,24.8,3.7,170410,,,A*4D
$GPRMC,024327.9,A,3247.544982,N,11657.735748,W,15.9,359.9,170410,,,A*47
$GPRMC,024330.9,A,3247.551288,N,11657.734080,W,6.6,4.9,170410,,,A*70
$GPRMC,024336.9,A,3247.553554,N,11657.735884,W,4.4,357.1,170410,,,A*72
$GPRMC,024339.9,A,3247.565391,N,11657.735988,W,16.3,2.0,170410,,,A*4C
$GPRMC,024342.9,A,3247.585804,N,11657.736809,W,23.6,0.5,170410,,,A*46
$GPRMC,024345.9,A,3247.604373,N,11657.737632,W,19.9,1.6,170410,,,A*43
$GPRMC,024348.9,A,3247.614616,N,11657.736293,W,11.5,1.1,170410,,,A*44
$GPRMC,024351.2,A,3247.618817,N,11657.736334,W,6.9,5.6,170410,,,A*71
$GPRMC,024403.9,A,3247.637947,N,11657.733330,W,15.6,358.0,170410,,,A*42
$GPRMC,024406.2,A,3247.651011,N,11657.733754,W,20.6,355.3,170410,,,A*48
$GPRMC,024409.2,A,3247.664915,N,11657.735712,W,17.8,358.7,170410,,,A*4B
$GPRMC,024412.2,A,3247.681125,N,11657.737081,W,20.6,357.7,170410,,,A*4B
$GPRMC,024415.2,A,3247.700149,N,11657.738487,W,24.0,359.7,170410,,,A*4F
$GPRMC,024418.2,A,3247.722092,N,11657.739252,W,26.7,0.6,170410,,,A*41
$GPRMC,024421.9,A,3247.752572,N,11657.736732,W,29.8,0.0,170410,,,A*46
$GPRMC,024424.9,A,3247.778883,N,11657.738145,W,31.4,358.4,170410,,,A*4F
$GPRMC,024427.9,A,3247.801221,N,11657.739027,W,30.2,358.6,170410,,,A*4E
$GPRMC,024430.9,A,3247.832683,N,11657.738384,W,34.0,358.8,170410,,,A*47
$GPRMC,024433.2,A,3247.853967,N,11657.738503,W,33.0,1.1,170410,,,A*45
$GPRMC,024436.9,A,3247.888027,N,11657.739285,W,32.6,0.0,170410,,,A*4F
$GPRMC,024439.0,A,3247.905135,N,11657.739062,W,31.2,359.8,170410,,,A*44
$GPRMC,024442.9,A,3247.937280,N,11657.739404,W,29.7,359.8,170410,,,A*45
$GPRMC,024445.9,A,3247.961458,N,11657.736620,W,29.3,1.6,170410,,,A*4D
$GPRMC,024448.9,A,3247.983816,N,11657.737015,W,27.3,0.6,170410,,,A*44
$GPRMC,024451.9,A,3248.002268,N,11657.735021,W,20.2,0.8,170410,,,A*4D
$GPRMC,024454.9,A,3248.013162,N,11657.736083,W,13.2,356.6,170410,,,A*44
$GPRMC,024457.9,A,3248.023060,N,11657.737981,W,12.0,355.5,170410,,,A*4E
$GPRMC,024500.9,A,3248.036389,N,11657.739136,W,16.6,356.2,170410,,,A*41
$GPRMC,024503.9,A,3248.056899,N,11657.740298,W,24.7,358.1,170410,,,A*4A
$GPRMC,024506.9,A,3248.081068,N,11657.740983,W,29.4,359.8,170410,,,A*44
$GPRMC,024509.9,A,3248.109508,N,11657.739762,W,32.3,357.9,170410,,,A*44
$GPRMC,024512.9,A,3248.138182,N,11657.740881,W,35.6,357.6,170410,,,A*4B
$GPRMC,024515.9,A,3248.170471,N,11657.743280,W,38.5,356.9,170410,,,A*41
$GPRMC,024518.2,A,3248.196598,N,11657.743472,W,41.3,359.8,170410,,,A*44
$GPRMC,024521.9,A,3248.241922,N,11657.741502,W,43.2,1.9,170410,,,A*49
$GPRMC,024524.9,A,3248.279944,N,11657.732941,W,47.3,14.5,170410,,,A*75
$GPRMC,024527.9,A,3248.317815,N,11657.715177,W,49.4,18.5,170410,,,A*77
$GPRMC,024531.2,A,3248.366269,N,11657.705987,W,52.1,5.9,170410,,,A*45
$GPRMC,024534.9,A,3248.423461,N,11657.703317,W,54.7,359.7,170410,,,A*42
$GPRMC,024537.0,A,3248.450226,N,11657.704525,W,50.0,0.9,170410,,,A*4B
$GPRMC,024540.9,A,3248.497648,N,11657.706315,W,43.5,359.9,170410,,,A*4A
$GPRMC,024543.9,A,3248.533402,N,11657.707828,W,43.3,358.3,170410,,,A*43
$GPRMC,024546.9,A,3248.570242,N,11657.708969,W,44.6,358.0,170410,,,A*49
$GPRMC,024549.9,A,3248.607936,N,11657.710465,W,45.8,359.0,170410,,,A*4B
$GPRMC,024552.9,A,3248.648248,N,11657.709450,W,48.4,1.5,170410,,,A*4C
$GPRMC,024555.2,A,3248.681589,N,11657.708586,W,53.8,0.4,170410,,,A*42
$GPRMC,024558.2,A,3248.728864,N,11657.708013,W,56.9,2.9,170410,,,A*41
$GPRMC,024601.9,A,3248.785501,N,11657.701018,W,56.7,7.0,170410,,,A*4C
$GPRMC,024604.2,A,3248.822659,N,11657.692946,W,56.3,11.3,170410,,,A*77
$GPRMC,024607.9,A,3248.878542,N,11657.679480,W,56.2,12.6,170410,,,A*7C
$GPRMC,024610.9,A,3248.924572,N,11657.668027,W,55.2,12.5,170410,,,A*78
$GPRMC,024613.9,A,3248.969881,N,11657.656094,W,54.7,11.9,170410,,,A*7D
$GPRMC,024616.9,A,3249.012665,N,11657.645721,W,52.7,11.1,170410,,,A*7D
$GPRMC,024619.9,A,3249.056673,N,11657.635569,W,54.4,9.1,170410,,,A*40
$GPRMC,024622.9,A,3249.101935,N,11657.629805,W,55.7,4.9,170410,,,A*4B
$GPRMC,024625.9,A,3249.146055,N,11657.626510,W,55.8,1.2,170410,,,A*47
$GPRMC,024628.2,A,3249.182100,N,11657.628875,W,57.1,358.0,170410,,,A*4E
$GPRMC,024631.9,A,3249.240030,N,11657.634678,W,56.3,354.5,170410,,,A*46
$GPRMC,024634.9,A,3249.284693,N,11657.642782,W,53.4,351.9,170410,,,A*4A
$GPRMC,024637.9,A,3249.328313,N,11657.653116,W,53.7,348.9,170410,,,A*43
$GPRMC,024640.1,A,3249.360285,N,11657.661223,W,55.9,346.3,170410,,,A*41
$GPRMC,024643.9,A,3249.420815,N,11657.680570,W,56.3,345.6,170410,,,A*4B
$GPRMC,024646.9,A,3249.464401,N,11657.691458,W,55.1,347.9,170410,,,A*40
$GPRMC,024649.9,A,3249.511653,N,11657.700935,W,57.6,351.7,170410,,,A*4A
$GPRMC,024652.9,A,3249.559125,N,11657.705046,W,56.8,354.9,170410,,,A*46
$GPRMC,024655.9,A,3249.606582,N,11657.709663,W,57.2,357.3,170410,,,A*4E
$GPRMC,024658.9,A,3249.656591,N,11657.710608,W,57.6,359.6,170410,,,A*4E
$GPRMC,024701.9,A,3249.700709,N,11657.709123,W,54.2,1.0,170410,,,A*4B
$GPRMC,024704.9,A,3249.744726,N,11657.708474,W,53.4,359.4,170410,,,A*4E
$GPRMC,024707.9,A,3249.792042,N,11657.708657,W,55.2,359.3,170410,,,A*47
$GPRMC,024710.9,A,3249.838422,N,11657.707979,W,54.8,0.5,170410,,,A*42
$GPRMC,024713.2,A,3249.873146,N,11657.709548,W,55.6,358.5,170410,,,A*43
$GPRMC,024716.2,A,3249.918858,N,11657.711003,W,55.5,358.7,170410,,,A*4E
$GPRMC,024719.9,A,3249.974469,N,11657.713474,W,54.3,357.9,170410,,,A*4E
$GPRMC,024722.9,A,3250.017927,N,11657.712030,W,53.2,359.7,170410,,,A*46
$GPRMC,024725.2,A,3250.052764,N,11657.713607,W,52.3,358.4,170410,,,A*43
$GPRMC,024728.9,A,3250.110869,N,11657.716935,W,55.0,358.6,170410,,,A*4D
$GPRMC,024731.9,A,3250.161822,N,11657.719393,W,58.4,358.0,170410,,,A*4A
$GPRMC,024734.9,A,3250.211544,N,11657.719140,W,57.5,359.6,170410,,,A*43
$GPRMC,024737.9,A,3250.257581,N,11657.719541,W,56.9,0.1,170410,,,A*4B
$GPRMC,024740.9,A,3250.306300,N,11657.720068,W,58.0,0.3,170410,,,A*40
$GPRMC,024743.2,A,3250.343536,N,11657.716994,W,58.8,5.1,170410,,,A*4A
$GPRMC,024746.9,A,3250.403476,N,11657.705801,W,57.8,12.1,170410,,,A*74
$GPRMC,024749.9,A,3250.452304,N,11657.690138,W,59.6,16.2,170410,,,A*74
$GPRMC,024752.9,A,3250.502658,N,11657.672099,W,61.1,17.4,170410,,,A*7B
$GPRMC,024755.9,A,3250.546760,N,11657.649843,W,59.0,21.6,170410,,,A*7C
$GPRMC,024758.9,A,3250.583754,N,11657.621861,W,56.2,29.3,170410,,,A*71
$GPRMC,024801.9,A,3250.625378,N,11657.591932,W,61.8,32.6,170410,,,A*79
$GPRMC,024804.9,A,3250.669345,N,11657.554195,W,65.1,39.8,170410,,,A*7E
$GPRMC,024807.9,A,3250.708580,N,11657.509612,W,62.8,45.2,170410,,,A*7B
$GPRMC,024810.9,A,3250.742883,N,11657.466664,W,60.1,45.9,170410,,,A*74
$GPRMC,024813.9,A,3250.778464,N,11657.423482,W,60.0,46.7,170410,,,A*7C
$GPRMC,024816.9,A,3250.810992,N,11657.381922,W,58.2,46.4,170410,,,A*7E
$GPRMC,024819.9,A,3250.842897,N,11657.340270,W,56.8,46.6,170410,,,A*75
$GPRMC,024822.9,A,3250.876362,N,11657.298517,W,57.0,46.3,170410,,,A*75
$GPRMC,024825.9,A,3250.909052,N,11657.258117,W,56.7,46.9,170410,,,A*7F
$GPRMC,024828.9,A,3250.940419,N,11657.216331,W,55.8,47.4,170410,,,A*78
$GPRMC,024831.9,A,3250.974495,N,11657.177204,W,56.4,45.2,170410,,,A*7B
$GPRMC,024834.2,A,3250.999749,N,11657.147176,W,55.8,44.5,170410,,,A*78
$GPRMC,024837.2,A,3251.035489,N,11657.109354,W,58.1,41.5,170410,,,A*73
$GPRMC,024840.2,A,3251.072221,N,11657.072327,W,57.4,40.5,170410,,,A*76
$GPRMC,024843.9,A,3251.117180,N,11657.026353,W,58.0,40.7,170410,,,A*7F
$GPRMC,024846.9,A,3251.152733,N,11656.988846,W,58.2,40.2,170410,,,A*71
$GPRMC,024849.9,A,3251.191479,N,11656.950924,W,59.5,40.1,170410,,,A*79
$GPRMC,024852.9,A,3251.227751,N,11656.913323,W,57.7,42.9,170410,,,A*78
$GPRMC,024855.9,A,3251.258109,N,11656.869319,W,58.7,51.3,170410,,,A*7E
$GPRMC,024858.2,A,3251.278150,N,11656.832313,W,58.6,59.4,170410,,,A*7C
$GPRMC,024901.9,A,3251.305829,N,11656.767297,W,60.1,67.3,170410,,,A*72
$GPRMC,024904.9,A,3251.319612,N,11656.711463,W,60.9,76.7,170410,,,A*7C
$GPRMC,024907.9,A,3251.327758,N,11656.650084,W,62.3,82.6,170410,,,A*76
$GPRMC,024910.9,A,3251.332558,N,11656.588864,W,61.6,84.2,170410,,,A*72
$GPRMC,024913.9,A,3251.336976,N,11656.527161,W,61.1,83.8,170410,,,A*76
$GPRMC,024916.9,A,3251.343493,N,11656.468858,W,59.5,83.0,170410,,,A*79
$GPRMC,024919.9,A,3251.349357,N,11656.410560,W,57.6,82.5,170410,,,A*73
$GPRMC,024922.9,A,3251.358385,N,11656.352245,W,57.3,79.5,170410,,,A*74
$GPRMC,024925.9,A,3251.372671,N,11656.300070,W,56.9,73.3,170410,,,A*71
$GPRMC,024928.9,A,3251.386314,N,11656.247482,W,56.0,71.3,170410,,,A*71
$GPRMC,024931.9,A,3251.402164,N,11656.197895,W,55.3,68.4,170410,,,A*7C
$GPRMC,024934.9,A,3251.418004,N,11656.146907,W,54.8,69.0,170410,,,A*7C
$GPRMC,024937.9,A,3251.434219,N,11656.095566,W,56.0,70.1,170410,,,A*78
$GPRMC,024941.2,A,3251.452941,N,11656.038777,W,55.7,68.2,170410,,,A*7F
$GPRMC,024944.9,A,3251.474286,N,11655.974990,W,56.7,69.7,170410,,,A*77
$GPRMC,024947.9,A,3251.491961,N,11655.921387,W,58.2,68.8,170410,,,A*74
$GPRMC,024950.2,A,3251.504005,N,11655.880021,W,59.1,69.4,170410,,,A*75
$GPRMC,024953.9,A,3251.523781,N,11655.814820,W,58.7,69.8,170410,,,A*7C
$GPRMC,024956.9,A,3251.540581,N,11655.759246,W,59.3,69.8,170410,,,A*77
$GPRMC,024959.9,A,3251.559043,N,11655.702671,W,60.6,69.7,170410,,,A*75
$GPRMC,025002.9,A,3251.575305,N,11655.647547,W,58.7,70.7,170410,,,A*78
$GPRMC,025005.9,A,3251.592227,N,11655.595354,W,54.6,69.1,170410,,,A*7C
$GPRMC,025008.9,A,3251.608230,N,11655.547668,W,51.5,65.6,170410,,,A*7F
$GPRMC,025011.9,A,3251.628305,N,11655.504639,W,47.6,60.9,170410,,,A*7F
$GPRMC,025014.9,A,3251.652496,N,11655.471466,W,43.1,52.2,170410,,,A*78
$GPRMC,025017.9,A,3251.677215,N,11655.440454,W,40.7,46.5,170410,,,A*75
$GPRMC,025020.9,A,3251.699283,N,11655.415507,W,34.6,40.6,170410,,,A*7E
$GPRMC,025023.9,A,3251.716960,N,11655.400509,W,21.2,34.8,170410,,,A*7A
$GPRMC,025026.9,A,3251.728780,N,11655.391059,W,13.4,34.2,170410,,,A*70
$GPRMC,025029.9,A,3251.734948,N,11655.387824,W,7.3,22.7,170410,,,A*4D
$GPRMC,025035.9,A,3251.743924,N,11655.385412,W,6.0,16.4,170410,,,A*47
$GPRMC,025102.9,A,3251.753787,N,11655.375734,W,11.9,36.7,170410,,,A*72
$GPRMC,025105.9,A,3251.767787,N,11655.363398,W,18.2,41.4,170410,,,A*76
$GPRMC,025108.9,A,3251.776620,N,11655.347179,W,19.1,62.1,170410,,,A*7A
$GPRMC,025111.9,A,3251.778807,N,11655.326934,W,22.3,80.7,170410,,,A*71
$GPRMC,025114.9,A,3251.782065,N,11655.300058,W,27.7,80.1,170410,,,A*7D
$GPRMC,025117.9,A,3251.787073,N,11655.268190,W,31.8,79.4,170410,,,A*7D
$GPRMC,025120.2,A,3251.791593,N,11655.242665,W,33.2,80.5,170410,,,A*74
$GPRMC,025123.2,A,3251.796698,N,11655.209399,W,32.6,79.4,170410,,,A*73
$GPRMC,025126.0,A,3251.800464,N,11655.180035,W,32.1,81.3,170410,,,A*75
$GPRMC,025129.9,A,3251.803045,N,11655.152035,W,14.8,82.2,170410,,,A*77
$GPRMC,025132.9,A,3251.803262,N,11655.145794,W,5.0,80.1,170410,,,A*49
$GPRMC,025141.9,A,3251.804157,N,11655.139287,W,7.4,82.1,170410,,,A*47
$GPRMC,025144.9,A,3251.808128,N,11655.128412,W,10.6,74.8,170410,,,A*78
$GPRMC,025147.9,A,3251.810878,N,11655.116184,W,15.7,75.0,170410,,,A*74
$GPRMC,025150.9,A,3251.810610,N,11655.094377,W,20.6,82.4,170410,,,A*7C
$GPRMC,025153.9,A,3251.815153,N,11655.078172,W,17.6,77.5,170410,,,A*70
$GPRMC,025156.2,A,3251.819600,N,11655.068601,W,15.1,60.7,170410,,,A*70
$GPRMC,025159.0,A,3251.827969,N,11655.068968,W,12.5,0.6,170410,,,A*44
$GPRMC,025202.2,A,3251.844247,N,11655.071072,W,20.5,352.5,170410,,,A*45
$GPRMC,025205.2,A,3251.868723,N,11655.073745,W,27.7,0.6,170410,,,A*48
$GPRMC,025208.2,A,3251.894969,N,11655.066261,W,32.8,21.9,170410,,,A*76
$GPRMC,025211.2,A,3251.918610,N,11655.051114,W,30.9,32.2,170410,,,A*75
$GPRMC,025214.2,A,3251.937161,N,11655.033346,W,27.9,44.3,170410,,,A*7B
$GPRMC,025217.9,A,3251.956538,N,11655.009209,W,28.9,48.8,170410,,,A*77
$GPRMC,025220.9,A,3251.974564,N,11654.986785,W,31.4,47.3,170410,,,A*75
$GPRMC,025223.2,A,3251.988584,N,11654.967069,W,33.6,47.5,170410,,,A*7C
$GPRMC,025226.0,A,3252.006732,N,11654.944366,W,34.6,46.8,170410,,,A*7E
$GPRMC,025230.2,A,3252.037614,N,11654.911774,W,34.7,33.6,170410,,,A*76
$GPRMC,025233.9,A,3252.074128,N,11654.895230,W,35.0,16.7,170410,,,A*79
$GPRMC,025236.9,A,3252.100862,N,11654.891960,W,32.3,4.2,170410,,,A*41
$GPRMC,025239.9,A,3252.128677,N,11654.894557,W,33.8,359.2,170410,,,A*42
$GPRMC,025242.9,A,3252.160642,N,11654.894845,W,36.3,0.9,170410,,,A*40
$GPRMC,025245.9,A,3252.192818,N,11654.893414,W,38.3,0.4,170410,,,A*47
$GPRMC,025248.2,A,3252.216162,N,11654.895233,W,38.5,356.1,170410,,,A*4C
$GPRMC,025251.9,A,3252.249868,N,11654.890946,W,35.6,11.1,170410,,,A*74
$GPRMC,025254.2,A,3252.273346,N,11654.880421,W,38.8,22.6,170410,,,A*7D
$GPRMC,025257.2,A,3252.297069,N,11654.857366,W,37.4,44.6,170410,,,A*77
$GPRMC,025300.1,A,3252.313879,N,11654.831713,W,35.8,56.5,170410,,,A*7B
$GPRMC,025303.9,A,3252.332302,N,11654.795779,W,31.8,60.3,170410,,,A*7E
$GPRMC,025306.9,A,3252.345473,N,11654.769312,W,31.0,60.1,170410,,,A*7A
$GPRMC,025310.2,A,3252.358538,N,11654.741367,W,28.8,62.9,170410,,,A*76
$GPRMC,025313.9,A,3252.370459,N,11654.714048,W,24.2,61.0,170410,,,A*70
$GPRMC,025316.9,A,3252.379984,N,11654.693289,W,24.8,59.1,170410,,,A*70
$GPRMC,025319.2,A,3252.389559,N,11654.676695,W,26.0,53.0,170410,,,A*74
$GPRMC,025322.9,A,3252.404707,N,11654.655990,W,21.9,44.6,170410,,,A*79
$GPRMC,025325.2,A,3252.413963,N,11654.644959,W,19.7,44.7,170410,,,A*7E
$GPRMC,025328.2,A,3252.425610,N,11654.633679,W,18.1,35.6,170410,,,A*70
$GPRMC,025331.2,A,3252.440121,N,11654.624477,W,19.4,29.8,170410,,,A*73
$GPRMC,025334.2,A,3252.453863,N,11654.617085,W,16.5,22.7,170410,,,A*78
$GPRMC,025337.2,A,3252.463993,N,11654.612480,W,13.6,21.2,170410,,,A*72
$GPRMC,025340.9,A,3252.476363,N,11654.607695,W,13.4,17.0,170410,,,A*7F
$GPRMC,025343.2,A,3252.483816,N,11654.605224,W,12.3,10.8,170410,,,A*71
$GPRMC,025346.9,A,3252.496573,N,11654.602389,W,12.5,13.6,170410,,,A*7F
$GPRMC,025349.9,A,3252.507325,N,11654.597030,W,14.9,21.3,170410,,,A*7C
$GPRMC,025353.2,A,3252.523528,N,11654.593023,W,20.1,14.1,170410,,,A*7C
$GPRMC,025356.9,A,3252.547895,N,11654.586272,W,24.0,11.9,170410,,,A*71
$GPRMC,025359.9,A,3252.572181,N,11654.580465,W,29.5,12.8,170410,,,A*78
$GPRMC,025402.9,A,3252.594426,N,11654.567549,W,29.3,30.1,170410,,,A*78
$GPRMC,025405.2,A,3252.607868,N,11654.551045,W,31.9,42.0,170410,,,A*70
$GPRMC,025408.9,A,3252.621259,N,11654.515102,W,31.9,59.3,170410,,,A*71
$GPRMC,025411.2,A,3252.637467,N,11654.496401,W,32.7,38.3,170410,,,A*78
$GPRMC,025414.9,A,3252.668256,N,11654.474593,W,34.4,27.8,170410,,,A*7E
$GPRMC,025417.9,A,3252.694090,N,11654.458194,W,34.0,28.9,170410,,,A*71
$GPRMC,025420.9,A,3252.719560,N,11654.444136,W,34.7,27.0,170410,,,A*7F
$GPRMC,025423.2,A,3252.738799,N,11654.431717,W,34.4,35.3,170410,,,A*74
$GPRMC,025426.9,A,3252.765127,N,11654.403668,W,38.5,44.7,170410,,,A*76
$GPRMC,025429.2,A,3252.780457,N,11654.375566,W,42.9,55.8,170410,,,A*7E
$GPRMC,025432.2,A,3252.798757,N,11654.337356,W,42.6,60.2,170410,,,A*7E
$GPRMC,025435.9,A,3252.820000,N,11654.291775,W,40.8,60.4,170410,,,A*79
$GPRMC,025438.9,A,3252.836832,N,11654.259034,W,39.4,59.5,170410,,,A*75
$GPRMC,025441.2,A,3252.851253,N,11654.233780,W,40.4,56.7,170410,,,A*7B
$GPRMC,025444.0,A,3252.870529,N,11654.203597,W,40.9,53.3,170410,,,A*7E
$GPRMC,025447.9,A,3252.896604,N,11654.160982,W,39.3,54.5,170410,,,A*7B
$GPRMC,025450.9,A,3252.913763,N,11654.132807,W,36.5,55.4,170410,,,A*73
$GPRMC,025453.9,A,3252.932099,N,11654.102642,W,39.3,56.7,170410,,,A*74
$GPRMC,025456.2,A,3252.942794,N,11654.075448,W,39.9,63.3,170410,,,A*76
$GPRMC,025459.2,A,3252.951706,N,11654.035829,W,40.4,74.1,170410,,,A*78
$GPRMC,025502.2,A,3252.960488,N,11653.997517,W,38.7,73.7,170410,,,A*7B
$GPRMC,025506.2,A,3252.973349,N,11653.948659,W,36.7,72.9,170410,,,A*7D
$GPRMC,025509.2,A,3252.979625,N,11653.917103,W,31.0,81.0,170410,,,A*70
$GPRMC,025512.9,A,3252.985446,N,11653.878999,W,30.4,77.6,170410,,,A*7C
$GPRMC,025515.2,A,3252.988916,N,11653.858856,W,28.8,77.7,170410,,,A*71
$GPRMC,025518.2,A,3253.006073,N,11653.831338,W,35.1,50.5,170410,,,A*76
$GPRMC,025521.2,A,3253.033257,N,11653.808881,W,38.6,37.6,170410,,,A*75
$GPRMC,025524.2,A,3253.061686,N,11653.787841,W,40.8,33.5,170410,,,A*7D
$GPRMC,025528.2,A,3253.100707,N,11653.756286,W,40.2,33.7,170410,,,A*7A
$GPRMC,025531.2,A,3253.128938,N,11653.732059,W,42.4,43.0,170410,,,A*7C
$GPRMC,025534.2,A,3253.151495,N,11653.702579,W,40.1,44.6,170410,,,A*7F
$GPRMC,025537.2,A,3253.176033,N,11653.676710,W,39.2,42.2,170410,,,A*71
$GPRMC,025540.9,A,3253.205698,N,11653.644792,W,38.5,39.6,170410,,,A*7F
$GPRMC,025543.2,A,3253.226089,N,11653.626775,W,39.6,38.5,170410,,,A*7D
$GPRMC,025546.0,A,3253.247758,N,11653.597136,W,42.9,50.4,170410,,,A*72
$GPRMC,025549.9,A,3253.278531,N,11653.554541,W,42.6,48.2,170410,,,A*7E
$GPRMC,025552.0,A,3253.294162,N,11653.535577,W,40.4,46.9,170410,,,A*7A
$GPRMC,025555.2,A,3253.322925,N,11653.508108,W,40.4,36.9,170410,,,A*7D
$GPRMC,025558.2,A,3253.350290,N,11653.487187,W,38.1,31.6,170410,,,A*73
$GPRMC,025601.0,A,3253.379488,N,11653.478117,W,38.2,12.3,170410,,,A*74
$GPRMC,025604.9,A,3253.416232,N,11653.472137,W,34.7,5.8,170410,,,A*4D
$GPRMC,025607.1,A,3253.436454,N,11653.478237,W,34.0,348.4,170410,,,A*4A
$GPRMC,025611.2,A,3253.469645,N,11653.476893,W,30.2,11.0,170410,,,A*71
$GPRMC,025614.2,A,3253.493059,N,11653.469748,W,27.1,10.7,170410,,,A*7E
$GPRMC,025617.9,A,3253.520012,N,11653.467212,W,26.4,4.8,170410,,,A*4A
$GPRMC,025620.9,A,3253.544885,N,11653.463619,W,29.5,3.3,170410,,,A*43
$GPRMC,025623.2,A,3253.564936,N,11653.461351,W,30.4,8.1,170410,,,A*4B
$GPRMC,025626.9,A,3253.595746,N,11653.447714,W,31.4,23.8,170410,,,A*72
$GPRMC,025629.2,A,3253.613336,N,11653.434570,W,31.7,32.9,170410,,,A*7E
$GPRMC,025632.0,A,3253.637231,N,11653.421725,W,32.3,21.4,170410,,,A*78
$GPRMC,025635.2,A,3253.664855,N,11653.415081,W,33.0,11.5,170410,,,A*7D
$GPRMC,025638.2,A,3253.691411,N,11653.409294,W,32.9,11.8,170410,,,A*78
$GPRMC,025641.2,A,3253.718606,N,11653.403144,W,34.9,9.5,170410,,,A*44
$GPRMC,025644.9,A,3253.755019,N,11653.395823,W,36.8,6.7,170410,,,A*45
$GPRMC,025647.9,A,3253.786604,N,11653.390645,W,38.0,8.8,170410,,,A*4E
$GPRMC,025650.2,A,3253.808824,N,11653.384543,W,35.6,11.2,170410,,,A*7F
$GPRMC,025653.2,A,3253.836661,N,11653.372981,W,34.1,23.1,170410,,,A*71
$GPRMC,025656.2,A,3253.863161,N,11653.357009,W,34.7,26.8,170410,,,A*77
$GPRMC,025659.2,A,3253.890940,N,11653.338584,W,37.5,25.9,170410,,,A*75
$GPRMC,025702.2,A,3253.917461,N,11653.324138,W,34.2,20.0,170410,,,A*7C
$GPRMC,025705.2,A,3253.945388,N,11653.299961,W,37.5,34.8,170410,,,A*76
$GPRMC,025708.9,A,3253.976288,N,11653.271172,W,37.6,36.9,170410,,,A*7D
$GPRMC,025711.9,A,3253.999931,N,11653.246566,W,37.7,38.4,170410,,,A*7A
$GPRMC,025714.2,A,3254.018023,N,11653.228595,W,35.1,39.5,170410,,,A*79
$GPRMC,025717.0,A,3254.042545,N,11653.210582,W,35.2,32.3,170410,,,A*71
$GPRMC,025720.2,A,3254.069409,N,11653.191040,W,36.0,30.9,170410,,,A*7F
$GPRMC,025723.2,A,3254.099418,N,11653.173937,W,38.6,27.5,170410,,,A*74
$GPRMC,025726.2,A,3254.127398,N,11653.155080,W,38.3,29.8,170410,,,A*7D
$GPRMC,025729.2,A,3254.153862,N,11653.137539,W,37.6,27.5,170410,,,A*75
$GPRMC,025732.2,A,3254.180195,N,11653.117185,W,37.0,32.2,170410,,,A*74
$GPRMC,025735.2,A,3254.208073,N,11653.097266,W,38.7,31.4,170410,,,A*73
$GPRMC,025738.2,A,3254.236395,N,11653.076990,W,39.0,31.8,170410,,,A*7F
$GPRMC,025741.2,A,3254.264018,N,11653.056150,W,40.4,28.4,170410,,,A*78
$GPRMC,025744.2,A,3254.294231,N,11653.035354,W,42.4,22.1,170410,,,A*75
$GPRMC,025748.2,A,3254.340725,N,11653.023883,W,42.8,7.5,170410,,,A*48
$GPRMC,025751.9,A,3254.385829,N,11653.026691,W,43.9,355.3,170410,,,A*4B
$GPRMC,025754.9,A,3254.422771,N,11653.036510,W,46.5,350.8,170410,,,A*4A
$GPRMC,025757.9,A,3254.462550,N,11653.041384,W,46.4,352.5,170410,,,A*49
$GPRMC,025800.9,A,3254.501832,N,11653.047845,W,44.6,351.2,170410,,,A*4D
$GPRMC,025803.2,A,3254.528355,N,11653.053071,W,39.3,351.3,170410,,,A*40
$GPRMC,025806.2,A,3254.560523,N,11653.058440,W,39.2,352.1,170410,,,A*43
$GPRMC,025809.2,A,3254.591838,N,11653.062752,W,36.3,352.3,170410,,,A*40
$GPRMC,025812.2,A,3254.621643,N,11653.066815,W,36.1,351.8,170410,,,A*42
$GPRMC,025815.2,A,3254.652108,N,11653.072166,W,37.9,350.8,170410,,,A*49
$GPRMC,025818.2,A,3254.684389,N,11653.077847,W,41.0,351.4,170410,,,A*4E
$GPRMC,025821.9,A,3254.726976,N,11653.086292,W,44.3,351.2,170410,,,A*40
$GPRMC,025824.2,A,3254.755855,N,11653.090404,W,45.7,353.0,170410,,,A*41
$GPRMC,025827.2,A,3254.795467,N,11653.094350,W,48.3,357.8,170410,,,A*44
$GPRMC,025830.9,A,3254.844317,N,11653.094301,W,48.7,2.5,170410,,,A*44
$GPRMC,025833.9,A,3254.884735,N,11653.091627,W,48.3,3.3,170410,,,A*48
$GPRMC,025836.9,A,3254.924132,N,11653.088341,W,47.3,3.8,170410,,,A*4E
$GPRMC,025839.2,A,3254.954022,N,11653.085519,W,47.3,3.3,170410,,,A*40
$GPRMC,025842.2,A,3254.992375,N,11653.082220,W,47.5,2.8,170410,,,A*41
$GPRMC,025845.0,A,3255.025210,N,11653.078024,W,43.0,5.1,170410,,,A*4E
$GPRMC,025848.9,A,3255.070324,N,11653.070340,W,41.1,7.5,170410,,,A*40
$GPRMC,025851.2,A,3255.097102,N,11653.070966,W,39.2,8.2,170410,,,A*46
$GPRMC,025854.2,A,3255.127814,N,11653.056554,W,39.2,21.6,170410,,,A*71
$GPRMC,025857.9,A,3255.155243,N,11653.018979,W,40.4,52.6,170410,,,A*71
$GPRMC,025900.2,A,3255.165601,N,11652.991385,W,40.1,64.5,170410,,,A*7B
$GPRMC,025903.2,A,3255.176618,N,11652.952170,W,41.3,70.1,170410,,,A*77
$GPRMC,025906.0,A,3255.186222,N,11652.915276,W,41.7,72.7,170410,,,A*74
$GPRMC,025910.2,A,3255.198853,N,11652.857383,W,42.6,72.6,170410,,,A*7D
$GPRMC,025913.2,A,3255.211279,N,11652.818119,W,42.0,67.7,170410,,,A*77
$GPRMC,025916.2,A,3255.227844,N,11652.781485,W,40.7,61.0,170410,,,A*78
$GPRMC,025919.9,A,3255.247399,N,11652.740521,W,40.0,62.3,170410,,,A*74
