NMEA Sentence Code,UTC Time,Status,Latitude,Latitude Direction,Longitude,Longitude Direction,Speed (knots),Track Angle (degrees true),Date,MagneticVariation,Magnetic Variation Direction,[FAA Mode]-Optional,Checksum
$GPRMC,011223.9,A,3344.075914,N,11749.029548,W,57.5,124.7,260110,,,A*43
$GPRMC,011226.9,A,3344.047512,N,11748.981829,W,57.6,128.4,260110,,,A*41
$GPRMC,011229.9,A,3344.016050,N,11748.940794,W,57.0,132.1,260110,,,A*45
$GPRMC,011232.9,A,3343.983858,N,11748.899369,W,57.6,131.8,260110,,,A*42
$GPRMC,011235.9,A,3343.952274,N,11748.853830,W,59.9,130.7,260110,,,A*43
$GPRMC,011238.9,A,3343.918653,N,11748.807114,W,61.2,130.5,260110,,,A*4D
$GPRMC,011241.9,A,3343.888112,N,11748.756972,W,60.2,127.2,260110,,,A*4A
$GPRMC,011244.9,A,3343.857517,N,11748.711029,W,60.2,128.0,260110,,,A*45
$GPRMC,011247.9,A,3343.823182,N,11748.663698,W,61.8,130.3,260110,,,A*44
$GPRMC,011250.9,A,3343.789389,N,11748.615305,W,62.2,129.0,260110,,,A*46
$GPRMC,011253.9,A,3343.757202,N,11748.566741,W,61.4,129.6,260110,,,A*44
$GPRMC,011256.9,A,3343.724572,N,11748.520320,W,60.0,130.2,260110,,,A*4D
$GPRMC,011259.9,A,3343.693141,N,11748.476679,W,57.4,129.9,260110,,,A*43
$GPRMC,011302.9,A,3343.661564,N,11748.433874,W,57.8,131.2,260110,,,A*4E
$GPRMC,011305.9,A,3343.631597,N,11748.389428,W,57.1,129.2,260110,,,A*43
$GPRMC,011308.9,A,3343.602616,N,11748.345400,W,56.0,129.0,260110,,,A*4C
$GPRMC,011311.9,A,3343.573987,N,11748.301738,W,55.8,128.1,260110,,,A*45
$GPRMC,011314.9,A,3343.544415,N,11748.256421,W,58.1,128.0,260110,,,A*4F
$GPRMC,011317.2,A,3343.522232,N,11748.221333,W,57.9,127.1,260110,,,A*49
$GPRMC,011320.9,A,3343.484556,N,11748.164893,W,58.6,128.9,260110,,,A*4A
$GPRMC,011323.9,A,3343.455689,N,11748.121293,W,56.6,128.8,260110,,,A*40
$GPRMC,011326.9,A,3343.426745,N,11748.074809,W,57.9,127.6,260110,,,A*47
$GPRMC,011329.9,A,3343.392574,N,11748.030446,W,59.2,131.1,260110,,,A*42
$GPRMC,011332.9,A,3343.364144,N,11747.985079,W,56.7,129.6,260110,,,A*42
$GPRMC,011335.9,A,3343.333380,N,11747.942394,W,56.0,130.4,260110,,,A*4B
$GPRMC,011338.9,A,3343.302191,N,11747.903416,W,53.7,131.7,260110,,,A*4E
$GPRMC,011341.9,A,3343.272403,N,11747.861814,W,55.9,130.4,260110,,,A*49
$GPRMC,011344.9,A,3343.243205,N,11747.817323,W,57.0,129.0,260110,,,A*47
$GPRMC,011347.9,A,3343.212791,N,11747.775420,W,56.0,130.3,260110,,,A*4D
$GPRMC,011350.9,A,3343.182804,N,11747.732641,W,56.6,129.2,260110,,,A*4B
$GPRMC,011353.9,A,3343.151822,N,11747.686226,W,58.5,129.3,260110,,,A*45
$GPRMC,011356.9,A,3343.121371,N,11747.641927,W,57.3,129.2,260110,,,A*43
$GPRMC,011359.9,A,3343.089905,N,11747.598254,W,57.5,130.0,260110,,,A*42
$GPRMC,011402.9,A,3343.059353,N,11747.553738,W,58.1,129.1,260110,,,A*45
$GPRMC,011405.9,A,3343.028213,N,11747.510108,W,58.0,129.5,260110,,,A*46
$GPRMC,011408.9,A,3342.995726,N,11747.462955,W,60.7,128.9,260110,,,A*43
$GPRMC,011411.9,A,3342.964782,N,11747.415596,W,61.3,128.9,260110,,,A*4D
$GPRMC,011414.9,A,3342.934357,N,11747.366895,W,60.8,128.5,260110,,,A*4A
$GPRMC,011417.9,A,3342.900156,N,11747.319856,W,62.3,130.1,260110,,,A*4E
$GPRMC,011420.9,A,3342.864936,N,11747.272124,W,62.8,130.6,260110,,,A*4B
$GPRMC,011423.9,A,3342.831823,N,11747.225627,W,60.4,130.3,260110,,,A*40
$GPRMC,011426.9,A,3342.802201,N,11747.178542,W,58.7,129.2,260110,,,A*45
$GPRMC,011429.9,A,3342.768838,N,11747.135838,W,57.9,132.2,260110,,,A*4B
$GPRMC,011432.9,A,3342.737861,N,11747.093336,W,55.9,132.4,260110,,,A*4B
$GPRMC,011435.9,A,3342.706011,N,11747.052579,W,56.3,134.5,260110,,,A*4F
$GPRMC,011438.9,A,3342.671629,N,11747.012878,W,56.6,137.2,260110,,,A*47
$GPRMC,011441.9,A,3342.637084,N,11746.975309,W,57.2,138.1,260110,,,A*47
$GPRMC,011444.9,A,3342.597671,N,11746.939737,W,58.6,141.2,260110,,,A*40
$GPRMC,011447.9,A,3342.559635,N,11746.901600,W,58.5,140.7,260110,,,A*48
$GPRMC,011450.9,A,3342.521099,N,11746.866576,W,58.8,142.7,260110,,,A*4C
$GPRMC,011453.9,A,3342.481903,N,11746.833641,W,58.5,144.6,260110,,,A*43
$GPRMC,011456.9,A,3342.440542,N,11746.799909,W,58.8,145.6,260110,,,A*42
$GPRMC,011459.9,A,3342.400047,N,11746.767897,W,58.6,147.5,260110,,,A*41
$GPRMC,011502.9,A,3342.358358,N,11746.738193,W,59.3,148.6,260110,,,A*46
$GPRMC,011505.9,A,3342.311173,N,11746.707347,W,62.6,150.8,260110,,,A*4A
$GPRMC,011508.9,A,3342.264526,N,11746.680486,W,61.9,152.3,260110,,,A*41
$GPRMC,011511.9,A,3342.219139,N,11746.651569,W,61.4,151.4,260110,,,A*4C
$GPRMC,011514.9,A,3342.174825,N,11746.621706,W,60.9,151.6,260110,,,A*47
$GPRMC,011517.9,A,3342.130673,N,11746.588419,W,61.4,150.0,260110,,,A*4F
$GPRMC,011520.9,A,3342.086527,N,11746.560677,W,60.9,150.6,260110,,,A*43
$GPRMC,011523.9,A,3342.042287,N,11746.530993,W,61.4,150.7,260110,,,A*48
$GPRMC,011526.2,A,3342.006203,N,11746.507930,W,62.2,151.8,260110,,,A*4C
$GPRMC,011529.9,A,3341.948735,N,11746.471098,W,62.6,152.7,260110,,,A*4B
$GPRMC,011532.9,A,3341.904697,N,11746.443215,W,60.5,152.6,260110,,,A*46
$GPRMC,011535.9,A,3341.861788,N,11746.414024,W,59.9,151.0,260110,,,A*4D
$GPRMC,011538.9,A,3341.817939,N,11746.386013,W,60.5,151.5,260110,,,A*4E
$GPRMC,011541.9,A,3341.774634,N,11746.356496,W,60.6,151.0,260110,,,A*4A
$GPRMC,011544.9,A,3341.728771,N,11746.328130,W,61.0,151.9,260110,,,A*48
$GPRMC,011547.9,A,3341.683537,N,11746.298929,W,61.6,151.8,260110,,,A*46
$GPRMC,011550.9,A,3341.639050,N,11746.268932,W,61.8,150.0,260110,,,A*47
$GPRMC,011553.9,A,3341.594472,N,11746.240343,W,62.6,150.2,260110,,,A*4D
$GPRMC,011556.9,A,3341.546474,N,11746.209910,W,62.9,151.1,260110,,,A*4D
$GPRMC,011559.9,A,3341.501832,N,11746.180464,W,61.1,152.3,260110,,,A*49
$GPRMC,011602.9,A,3341.457134,N,11746.151531,W,61.2,151.6,260110,,,A*41
$GPRMC,011605.9,A,3341.415369,N,11746.122134,W,58.9,151.7,260110,,,A*4F
$GPRMC,011608.2,A,3341.382119,N,11746.099031,W,59.2,149.8,260110,,,A*4C
$GPRMC,011611.9,A,3341.328905,N,11746.065816,W,59.0,151.7,260110,,,A*40
$GPRMC,011614.9,A,3341.286470,N,11746.037826,W,58.1,151.6,260110,,,A*4A
$GPRMC,011617.9,A,3341.244284,N,11746.009463,W,57.3,151.1,260110,,,A*40
$GPRMC,011620.9,A,3341.201798,N,11745.981649,W,57.8,151.1,260110,,,A*46
$GPRMC,011623.9,A,3341.157784,N,11745.954944,W,58.7,152.3,260110,,,A*43
$GPRMC,011626.9,A,3341.115517,N,11745.928107,W,57.8,152.0,260110,,,A*4F
$GPRMC,011629.9,A,3341.073405,N,11745.900251,W,57.6,152.1,260110,,,A*46
$GPRMC,011632.9,A,3341.034446,N,11745.871956,W,54.8,149.9,260110,,,A*4C
$GPRMC,011635.9,A,3340.997013,N,11745.846393,W,53.5,150.4,260110,,,A*46
$GPRMC,011638.9,A,3340.957842,N,11745.815520,W,55.3,146.3,260110,,,A*43
$GPRMC,011641.9,A,3340.918245,N,11745.781299,W,57.9,142.8,260110,,,A*4B
$GPRMC,011644.9,A,3340.881183,N,11745.743723,W,58.6,139.4,260110,,,A*4C
$GPRMC,011647.9,A,3340.847468,N,11745.703033,W,58.2,136.3,260110,,,A*4B
$GPRMC,011650.9,A,3340.809278,N,11745.662943,W,60.1,137.1,260110,,,A*43
$GPRMC,011653.9,A,3340.774889,N,11745.621058,W,58.8,135.2,260110,,,A*46
$GPRMC,011656.9,A,3340.741794,N,11745.579876,W,56.7,136.3,260110,,,A*4F
$GPRMC,011659.9,A,3340.707136,N,11745.544455,W,54.4,138.3,260110,,,A*40
$GPRMC,011702.9,A,3340.675244,N,11745.510644,W,52.5,138.6,260110,,,A*4C
$GPRMC,011705.9,A,3340.643294,N,11745.474526,W,53.3,137.9,260110,,,A*40
$GPRMC,011708.9,A,3340.603594,N,11745.447720,W,54.0,146.0,260110,,,A*41
$GPRMC,011711.9,A,3340.567754,N,11745.416999,W,53.2,146.8,260110,,,A*43
$GPRMC,011714.9,A,3340.524432,N,11745.393873,W,55.4,155.4,260110,,,A*43
$GPRMC,011717.9,A,3340.479425,N,11745.373322,W,55.9,160.8,260110,,,A*49
$GPRMC,011720.9,A,3340.434219,N,11745.363370,W,55.4,168.6,260110,,,A*40
$GPRMC,011723.9,A,3340.385697,N,11745.354799,W,56.5,170.6,260110,,,A*40
$GPRMC,011726.9,A,3340.339274,N,11745.345469,W,56.3,171.3,260110,,,A*45
$GPRMC,011729.9,A,3340.295172,N,11745.335019,W,55.8,169.7,260110,,,A*49
$GPRMC,011732.9,A,3340.248138,N,11745.324796,W,57.4,167.1,260110,,,A*4B
$GPRMC,011735.9,A,3340.204466,N,11745.304719,W,58.8,159.4,260110,,,A*44
$GPRMC,011738.9,A,3340.158870,N,11745.280373,W,61.2,155.4,260110,,,A*41
$GPRMC,011741.9,A,3340.113406,N,11745.252147,W,61.9,150.4,260110,,,A*49
$GPRMC,011744.9,A,3340.070395,N,11745.220268,W,59.4,148.3,260110,,,A*46
$GPRMC,011747.1,A,3340.040264,N,11745.197859,W,59.6,145.9,260110,,,A*43
$GPRMC,011750.2,A,3339.995994,N,11745.160901,W,60.7,145.6,260110,,,A*4D
$GPRMC,011753.9,A,3339.944540,N,11745.124253,W,59.4,148.1,260110,,,A*43
$GPRMC,011756.9,A,3339.903191,N,11745.091808,W,58.6,147.0,260110,,,A*4B
$GPRMC,011759.9,A,3339.863969,N,11745.056986,W,58.2,146.1,260110,,,A*44
$GPRMC,011802.9,A,3339.823094,N,11745.025555,W,57.4,147.0,260110,,,A*45
$GPRMC,011805.9,A,3339.783850,N,11744.997878,W,55.8,148.6,260110,,,A*43
$GPRMC,011808.9,A,3339.745633,N,11744.967913,W,54.5,147.2,260110,,,A*4B
$GPRMC,011811.9,A,3339.709595,N,11744.935158,W,55.0,144.6,260110,,,A*47
$GPRMC,011814.9,A,3339.673841,N,11744.905040,W,54.0,145.7,260110,,,A*40
$GPRMC,011817.9,A,3339.634508,N,11744.877224,W,54.5,147.0,260110,,,A*44
$GPRMC,011820.2,A,3339.601781,N,11744.854300,W,56.3,146.1,260110,,,A*4C
$GPRMC,011823.9,A,3339.552604,N,11744.816303,W,56.9,146.7,260110,,,A*44
$GPRMC,011826.9,A,3339.515072,N,11744.784801,W,55.9,146.9,260110,,,A*45
$GPRMC,011829.9,A,3339.475945,N,11744.754031,W,56.3,146.2,260110,,,A*44
$GPRMC,011833.2,A,3339.428625,N,11744.720475,W,58.7,147.5,260110,,,A*4E
$GPRMC,011836.2,A,3339.388857,N,11744.686036,W,56.4,145.5,260110,,,A*4C
$GPRMC,011839.2,A,3339.351379,N,11744.657607,W,51.4,146.6,260110,,,A*4F
$GPRMC,011842.9,A,3339.309703,N,11744.623500,W,49.4,147.5,260110,,,A*40
$GPRMC,011845.9,A,3339.280140,N,11744.597222,W,47.0,146.5,260110,,,A*46
$GPRMC,011848.9,A,3339.246128,N,11744.571861,W,47.7,147.2,260110,,,A*4B
$GPRMC,011851.9,A,3339.213110,N,11744.544102,W,47.7,145.3,260110,,,A*41
$GPRMC,011854.9,A,3339.177764,N,11744.516621,W,50.3,145.8,260110,,,A*48
$GPRMC,011857.9,A,3339.143809,N,11744.489632,W,51.0,145.8,260110,,,A*4F
$GPRMC,011900.9,A,3339.107885,N,11744.459182,W,53.2,145.7,260110,,,A*46
$GPRMC,011903.9,A,3339.071663,N,11744.429806,W,53.9,146.2,260110,,,A*4C
$GPRMC,011906.9,A,3339.032380,N,11744.399093,W,56.1,146.6,260110,,,A*47
$GPRMC,011909.9,A,3338.993825,N,11744.366078,W,57.0,146.1,260110,,,A*4D
$GPRMC,011912.9,A,3338.950665,N,11744.335207,W,58.2,147.6,260110,,,A*45
$GPRMC,011915.9,A,3338.911448,N,11744.305951,W,56.5,148.2,260110,,,A*43
$GPRMC,011918.9,A,3338.871512,N,11744.271595,W,57.0,146.3,260110,,,A*4A
$GPRMC,011921.9,A,3338.832134,N,11744.240056,W,55.0,146.0,260110,,,A*4E
$GPRMC,011924.9,A,3338.797275,N,11744.210634,W,50.8,146.6,260110,,,A*41
$GPRMC,011927.9,A,3338.765646,N,11744.182037,W,47.4,145.5,260110,,,A*4C
$GPRMC,011930.9,A,3338.733695,N,11744.160315,W,44.6,147.9,260110,,,A*47
$GPRMC,011933.2,A,3338.711500,N,11744.142286,W,40.3,145.6,260110,,,A*47
$GPRMC,011936.9,A,3338.684890,N,11744.123687,W,29.8,149.1,260110,,,A*4D
$GPRMC,011939.2,A,3338.674311,N,11744.115343,W,21.6,148.8,260110,,,A*42
$GPRMC,011942.9,A,3338.663946,N,11744.104358,W,12.6,146.6,260110,,,A*41
$GPRMC,011945.9,A,3338.659316,N,11744.099265,W,8.3,146.9,260110,,,A*7B
$GPRMC,011948.9,A,3338.654770,N,11744.093698,W,7.7,142.2,260110,,,A*77
$GPRMC,011952.2,A,3338.648319,N,11744.086701,W,10.8,142.0,260110,,,A*4F
$GPRMC,011955.0,A,3338.633853,N,11744.079271,W,20.4,148.7,260110,,,A*43
$GPRMC,011958.9,A,3338.614803,N,11744.068666,W,19.9,150.7,260110,,,A*4B
$GPRMC,012001.9,A,3338.598581,N,11744.057674,W,22.8,149.9,260110,,,A*4D
$GPRMC,012004.9,A,3338.581311,N,11744.040316,W,26.4,144.3,260110,,,A*47
$GPRMC,012007.9,A,3338.562404,N,11744.026092,W,26.0,147.1,260110,,,A*40
$GPRMC,012010.9,A,3338.545749,N,11744.011493,W,23.8,147.1,260110,,,A*45
$GPRMC,012013.9,A,3338.530420,N,11744.002352,W,23.0,148.8,260110,,,A*4E
$GPRMC,012016.9,A,3338.512540,N,11743.988443,W,24.5,146.3,260110,,,A*40
$GPRMC,012019.9,A,3338.499023,N,11743.976723,W,22.6,147.0,260110,,,A*4E
$GPRMC,012022.9,A,3338.481795,N,11743.964852,W,22.7,149.1,260110,,,A*41
$GPRMC,012026.2,A,3338.463854,N,11743.950720,W,23.0,143.8,260110,,,A*48
$GPRMC,012029.9,A,3338.442453,N,11743.935019,W,24.2,148.2,260110,,,A*4E
$GPRMC,012032.9,A,3338.428487,N,11743.923408,W,22.0,146.1,260110,,,A*4B
$GPRMC,012035.9,A,3338.412071,N,11743.910057,W,24.5,145.4,260110,,,A*43
$GPRMC,012038.9,A,3338.395674,N,11743.893811,W,25.2,145.8,260110,,,A*4F
$GPRMC,012041.9,A,3338.380003,N,11743.879721,W,21.9,145.7,260110,,,A*4B
$GPRMC,012044.9,A,3338.364487,N,11743.867903,W,20.8,147.3,260110,,,A*4B
$GPRMC,012047.9,A,3338.349709,N,11743.858278,W,19.6,149.6,260110,,,A*46
$GPRMC,012051.2,A,3338.334941,N,11743.847888,W,17.9,145.2,260110,,,A*40
$GPRMC,012054.2,A,3338.322799,N,11743.836810,W,20.1,145.5,260110,,,A*45
$GPRMC,012057.9,A,3338.300544,N,11743.823063,W,26.9,149.4,260110,,,A*44
$GPRMC,012100.9,A,3338.278373,N,11743.805445,W,29.9,146.0,260110,,,A*4B
$GPRMC,012103.9,A,3338.258760,N,11743.789816,W,27.7,147.4,260110,,,A*48
$GPRMC,012106.9,A,3338.239817,N,11743.775445,W,27.1,145.6,260110,,,A*4A
$GPRMC,012109.9,A,3338.221484,N,11743.760680,W,25.8,145.3,260110,,,A*4B
$GPRMC,012112.9,A,3338.207965,N,11743.746487,W,21.5,147.2,260110,,,A*4C
$GPRMC,012115.9,A,3338.197914,N,11743.737214,W,15.0,149.2,260110,,,A*41
$GPRMC,012118.9,A,3338.187431,N,11743.730501,W,14.1,149.4,260110,,,A*45
$GPRMC,012121.9,A,3338.175587,N,11743.725695,W,14.9,151.4,260110,,,A*45
$GPRMC,012124.9,A,3338.162065,N,11743.715530,W,19.9,144.7,260110,,,A*4A
$GPRMC,012127.9,A,3338.148915,N,11743.699391,W,23.7,143.1,260110,,,A*41
$GPRMC,012130.9,A,3338.130390,N,11743.685131,W,24.4,145.9,260110,,,A*40
$GPRMC,012133.9,A,3338.114226,N,11743.672548,W,21.4,148.9,260110,,,A*43
$GPRMC,012136.9,A,3338.100634,N,11743.663466,W,18.0,152.3,260110,,,A*46
$GPRMC,012139.9,A,3338.088989,N,11743.650982,W,19.2,145.6,260110,,,A*46
$GPRMC,012142.9,A,3338.074612,N,11743.638849,W,21.3,149.3,260110,,,A*4F
$GPRMC,012145.9,A,3338.062534,N,11743.624227,W,21.3,144.2,260110,,,A*4B
$GPRMC,012148.9,A,3338.048151,N,11743.614309,W,19.5,145.2,260110,,,A*4B
$GPRMC,012151.9,A,3338.035500,N,11743.601595,W,21.1,140.2,260110,,,A*44
$GPRMC,012154.9,A,3338.017430,N,11743.586199,W,25.8,141.6,260110,,,A*4F
$GPRMC,012157.9,A,3337.996668,N,11743.571040,W,27.6,144.4,260110,,,A*4A
$GPRMC,012200.9,A,3337.982403,N,11743.552139,W,26.9,138.5,260110,,,A*4B
$GPRMC,012203.2,A,3337.969679,N,11743.537736,W,26.1,136.6,260110,,,A*46
$GPRMC,012206.2,A,3337.954469,N,11743.520914,W,24.3,136.7,260110,,,A*47
$GPRMC,012209.2,A,3337.940309,N,11743.505020,W,23.8,135.8,260110,,,A*45
$GPRMC,012212.2,A,3337.925728,N,11743.488129,W,24.9,135.6,260110,,,A*4F
$GPRMC,012215.2,A,3337.909379,N,11743.471188,W,24.9,135.7,260110,,,A*4A
$GPRMC,012218.9,A,3337.892929,N,11743.450770,W,21.7,135.4,260110,,,A*4A
$GPRMC,012221.9,A,3337.885017,N,11743.436554,W,17.1,128.0,260110,,,A*4D
$GPRMC,012224.9,A,3337.875156,N,11743.424855,W,16.8,134.2,260110,,,A*4B
$GPRMC,012227.9,A,3337.859103,N,11743.413738,W,22.6,139.5,260110,,,A*45
$GPRMC,012230.9,A,3337.843167,N,11743.396235,W,26.1,135.6,260110,,,A*44
$GPRMC,012233.9,A,3337.829698,N,11743.376556,W,26.0,132.4,260110,,,A*44
$GPRMC,012236.9,A,3337.816008,N,11743.356784,W,23.8,134.9,260110,,,A*4B
$GPRMC,012239.9,A,3337.802727,N,11743.341907,W,20.6,138.5,260110,,,A*45
$GPRMC,012242.9,A,3337.792305,N,11743.327847,W,17.8,137.6,260110,,,A*48
$GPRMC,012245.9,A,3337.781081,N,11743.320264,W,16.1,143.3,260110,,,A*40
$GPRMC,012248.9,A,3337.770561,N,11743.309184,W,16.7,140.8,260110,,,A*40
$GPRMC,012251.9,A,3337.760008,N,11743.298252,W,16.7,139.3,260110,,,A*47
$GPRMC,012254.9,A,3337.747488,N,11743.288399,W,17.3,142.1,260110,,,A*47
$GPRMC,012257.9,A,3337.736658,N,11743.277098,W,19.2,140.3,260110,,,A*40
$GPRMC,012300.9,A,3337.722246,N,11743.261604,W,22.1,141.2,260110,,,A*42
$GPRMC,012303.9,A,3337.706043,N,11743.250059,W,22.9,143.4,260110,,,A*40
$GPRMC,012306.2,A,3337.691849,N,11743.236206,W,29.0,139.4,260110,,,A*44
$GPRMC,012309.0,A,3337.672716,N,11743.221307,W,31.3,142.9,260110,,,A*4C
$GPRMC,012312.9,A,3337.645128,N,11743.196081,W,31.8,144.3,260110,,,A*45
$GPRMC,012315.9,A,3337.624033,N,11743.177513,W,32.4,143.3,260110,,,A*47
$GPRMC,012318.9,A,3337.600721,N,11743.158042,W,33.7,144.6,260110,,,A*44
$GPRMC,012321.9,A,3337.579190,N,11743.137884,W,34.7,141.9,260110,,,A*49
$GPRMC,012324.9,A,3337.555616,N,11743.116546,W,36.0,141.7,260110,,,A*40
$GPRMC,012327.9,A,3337.536752,N,11743.089583,W,35.5,138.3,260110,,,A*45
$GPRMC,012330.9,A,3337.509406,N,11743.068463,W,36.8,143.9,260110,,,A*45
$GPRMC,012333.9,A,3337.482260,N,11743.048466,W,38.5,145.0,260110,,,A*49
$GPRMC,012336.9,A,3337.457465,N,11743.025189,W,39.3,141.8,260110,,,A*43
$GPRMC,012339.9,A,3337.430736,N,11743.000230,W,41.1,141.9,260110,,,A*42
$GPRMC,012342.9,A,3337.405706,N,11742.974613,W,37.4,142.2,260110,,,A*49
$GPRMC,012345.9,A,3337.384623,N,11742.953468,W,33.0,143.1,260110,,,A*4F
$GPRMC,012348.9,A,3337.361239,N,11742.934750,W,33.2,142.9,260110,,,A*44
$GPRMC,012351.9,A,3337.339963,N,11742.916570,W,32.2,143.7,260110,,,A*4B
$GPRMC,012354.9,A,3337.318248,N,11742.893500,W,34.3,139.8,260110,,,A*41
$GPRMC,012357.9,A,3337.297979,N,11742.872917,W,31.6,140.9,260110,,,A*47
$GPRMC,012400.9,A,3337.281179,N,11742.857909,W,23.7,146.4,260110,,,A*4C
$GPRMC,012403.9,A,3337.268703,N,11742.847679,W,16.9,151.7,260110,,,A*47
$GPRMC,012406.9,A,3337.261970,N,11742.843364,W,8.8,150.9,260110,,,A*7D
$GPRMC,012415.9,A,3337.255082,N,11742.835813,W,4.7,155.5,260110,,,A*7C
$GPRMC,012418.9,A,3337.251799,N,11742.832467,W,6.7,142.9,260110,,,A*78
$GPRMC,012421.9,A,3337.248765,N,11742.827048,W,5.8,144.7,260110,,,A*70
$GPRMC,012424.9,A,3337.245333,N,11742.821553,W,9.1,134.3,260110,,,A*70
$GPRMC,012427.9,A,3337.237792,N,11742.812073,W,13.9,134.9,260110,,,A*47
$GPRMC,012430.9,A,3337.229258,N,11742.802852,W,12.6,137.4,260110,,,A*47
$GPRMC,012433.9,A,3337.225570,N,11742.796362,W,6.0,143.3,260110,,,A*78
$GPRMC,012436.9,A,3337.219793,N,11742.796174,W,6.7,148.0,260110,,,A*77
$GPRMC,012439.9,A,3337.213984,N,11742.790081,W,10.6,137.7,260110,,,A*4E
$GPRMC,012442.9,A,3337.201809,N,11742.784837,W,12.7,148.3,260110,,,A*4A
$GPRMC,012445.9,A,3337.196288,N,11742.775287,W,13.9,134.8,260110,,,A*43
$GPRMC,012448.9,A,3337.188024,N,11742.764357,W,13.6,136.9,260110,,,A*45
$GPRMC,012451.9,A,3337.179883,N,11742.759344,W,9.0,149.8,260110,,,A*7E
$GPRMC,012454.9,A,3337.180189,N,11742.754436,W,4.4,142.4,260110,,,A*7F
$GPRMC,012457.9,A,3337.175009,N,11742.751554,W,8.0,143.9,260110,,,A*7B
$GPRMC,012500.9,A,3337.166140,N,11742.743917,W,14.9,139.4,260110,,,A*4A
$GPRMC,012503.9,A,3337.150271,N,11742.734025,W,21.7,143.0,260110,,,A*44
$GPRMC,012506.9,A,3337.135411,N,11742.718329,W,23.1,139.9,260110,,,A*43
$GPRMC,012509.9,A,3337.118176,N,11742.704188,W,24.2,142.4,260110,,,A*46
$GPRMC,012512.9,A,3337.098541,N,11742.691861,W,26.9,145.1,260110,,,A*4D
$GPRMC,012515.9,A,3337.081330,N,11742.671742,W,29.8,140.2,260110,,,A*4A
$GPRMC,012518.9,A,3337.057397,N,11742.654824,W,32.7,143.6,260110,,,A*4B
$GPRMC,012521.9,A,3337.035661,N,11742.634490,W,34.2,142.4,260110,,,A*4C
$GPRMC,012524.9,A,3337.013409,N,11742.609968,W,35.5,139.9,260110,,,A*42
$GPRMC,012527.9,A,3336.991251,N,11742.586994,W,37.0,140.0,260110,,,A*4F
$GPRMC,012530.9,A,3336.965795,N,11742.561850,W,39.8,138.7,260110,,,A*41
$GPRMC,012533.9,A,3336.940410,N,11742.533737,W,40.1,137.0,260110,,,A*4D
$GPRMC,012536.9,A,3336.916772,N,11742.507229,W,38.9,136.7,260110,,,A*40
$GPRMC,012539.9,A,3336.894691,N,11742.482418,W,37.0,136.8,260110,,,A*49
$GPRMC,012542.9,A,3336.873389,N,11742.458133,W,36.3,134.4,260110,,,A*47
$GPRMC,012545.9,A,3336.851434,N,11742.430348,W,39.0,134.0,260110,,,A*49
$GPRMC,012548.9,A,3336.828294,N,11742.400319,W,41.5,133.3,260110,,,A*4F
$GPRMC,012551.9,A,3336.803495,N,11742.371664,W,41.5,135.3,260110,,,A*41
$GPRMC,012554.9,A,3336.778102,N,11742.341705,W,43.0,135.2,260110,,,A*4F
$GPRMC,012557.9,A,3336.751309,N,11742.311205,W,44.6,136.5,260110,,,A*4B
$GPRMC,012600.9,A,3336.724107,N,11742.280227,W,44.3,136.8,260110,,,A*45
$GPRMC,012603.9,A,3336.696114,N,11742.250959,W,43.4,137.5,260110,,,A*4F
$GPRMC,012606.9,A,3336.670691,N,11742.219814,W,44.9,134.3,260110,,,A*42
$GPRMC,012609.9,A,3336.648880,N,11742.183914,W,46.9,130.4,260110,,,A*48
$GPRMC,012612.9,A,3336.623108,N,11742.146102,W,50.5,128.5,260110,,,A*43
$GPRMC,012615.9,A,3336.592843,N,11742.104429,W,53.6,127.6,260110,,,A*4D
$GPRMC,012618.9,A,3336.572838,N,11742.057259,W,53.2,121.5,260110,,,A*45
$GPRMC,012621.9,A,3336.550758,N,11742.009980,W,53.6,118.7,260110,,,A*4E
$GPRMC,012624.9,A,3336.530435,N,11741.960606,W,54.8,117.4,260110,,,A*44
$GPRMC,012627.9,A,3336.509622,N,11741.912835,W,53.5,116.3,260110,,,A*4E
$GPRMC,012630.9,A,3336.489824,N,11741.864740,W,54.0,115.8,260110,,,A*4E
$GPRMC,012633.2,A,3336.474422,N,11741.827461,W,52.4,116.6,260110,,,A*46
$GPRMC,012636.9,A,3336.449145,N,11741.772015,W,50.6,118.1,260110,,,A*43
$GPRMC,012639.9,A,3336.431566,N,11741.726379,W,52.8,117.6,260110,,,A*4A
$GPRMC,012642.9,A,3336.408678,N,11741.680415,W,53.9,119.3,260110,,,A*4B
$GPRMC,012645.9,A,3336.384353,N,11741.633495,W,55.0,120.9,260110,,,A*4C
$GPRMC,012648.9,A,3336.359881,N,11741.589139,W,51.9,121.8,260110,,,A*49
$GPRMC,012651.9,A,3336.337242,N,11741.549394,W,48.6,124.1,260110,,,A*4E
$GPRMC,012654.9,A,3336.314585,N,11741.509906,W,46.8,124.9,260110,,,A*4B
$GPRMC,012657.9,A,3336.287843,N,11741.473927,W,48.0,129.3,260110,,,A*4A
$GPRMC,012700.9,A,3336.264481,N,11741.435745,W,47.9,127.4,260110,,,A*41
$GPRMC,012703.2,A,3336.244076,N,11741.405243,W,51.6,129.4,260110,,,A*41
$GPRMC,012706.9,A,3336.209225,N,11741.354880,W,53.5,127.9,260110,,,A*46
$GPRMC,012709.9,A,3336.184681,N,11741.314114,W,51.3,126.9,260110,,,A*40
$GPRMC,012712.9,A,3336.162635,N,11741.270222,W,50.9,122.9,260110,,,A*47
$GPRMC,012715.9,A,3336.143182,N,11741.225767,W,49.5,118.8,260110,,,A*40
$GPRMC,012718.9,A,3336.120171,N,11741.182698,W,49.3,120.1,260110,,,A*4F
$GPRMC,012721.9,A,3336.104535,N,11741.137823,W,49.1,115.6,260110,,,A*44
$GPRMC,012724.9,A,3336.086661,N,11741.091399,W,51.3,114.7,260110,,,A*44
$GPRMC,012727.9,A,3336.067185,N,11741.046861,W,50.6,115.9,260110,,,A*48
$GPRMC,012730.9,A,3336.049659,N,11741.003083,W,47.5,116.1,260110,,,A*4F
$GPRMC,012733.9,A,3336.033779,N,11740.961335,W,45.8,115.1,260110,,,A*4C
$GPRMC,012736.9,A,3336.020152,N,11740.920421,W,45.1,113.6,260110,,,A*4B
$GPRMC,012739.9,A,3336.002850,N,11740.876814,W,48.9,115.1,260110,,,A*43
$GPRMC,012742.9,A,3335.985637,N,11740.830916,W,51.1,114.2,260110,,,A*46
$GPRMC,012745.9,A,3335.964277,N,11740.784450,W,52.0,117.3,260110,,,A*41
$GPRMC,012748.9,A,3335.947715,N,11740.737478,W,50.9,114.8,260110,,,A*4D
$GPRMC,012751.9,A,3335.927837,N,11740.692062,W,49.7,116.3,260110,,,A*42
$GPRMC,012754.9,A,3335.908198,N,11740.650920,W,47.9,119.5,260110,,,A*4E
$GPRMC,012757.9,A,3335.886044,N,11740.611788,W,48.2,124.1,260110,,,A*4D
$GPRMC,012800.9,A,3335.861407,N,11740.573005,W,50.2,128.4,260110,,,A*4F
$GPRMC,012803.9,A,3335.827207,N,11740.537344,W,52.7,135.6,260110,,,A*47
$GPRMC,012806.9,A,3335.797636,N,11740.501219,W,50.0,135.1,260110,,,A*4E
$GPRMC,012809.9,A,3335.764334,N,11740.470099,W,49.0,140.8,260110,,,A*44
$GPRMC,012812.9,A,3335.733242,N,11740.440539,W,47.1,141.9,260110,,,A*4F
$GPRMC,012815.9,A,3335.701435,N,11740.413171,W,46.7,145.0,260110,,,A*4B
$GPRMC,012818.9,A,3335.669290,N,11740.386227,W,47.7,148.3,260110,,,A*44
$GPRMC,012821.9,A,3335.632204,N,11740.362254,W,49.3,152.4,260110,,,A*45
$GPRMC,012824.9,A,3335.594099,N,11740.342123,W,49.3,157.5,260110,,,A*4C
$GPRMC,012827.9,A,3335.557385,N,11740.327914,W,46.8,163.3,260110,,,A*44
$GPRMC,012830.9,A,3335.520151,N,11740.316565,W,46.4,166.8,260110,,,A*43
$GPRMC,012833.9,A,3335.481720,N,11740.310136,W,43.5,172.5,260110,,,A*42
$GPRMC,012836.9,A,3335.446376,N,11740.306996,W,41.1,175.8,260110,,,A*42
$GPRMC,012839.9,A,3335.414694,N,11740.305075,W,39.5,179.5,260110,,,A*4E
$GPRMC,012842.9,A,3335.383513,N,11740.305456,W,35.9,181.4,260110,,,A*44
$GPRMC,012845.9,A,3335.355389,N,11740.306318,W,34.5,180.7,260110,,,A*4C
$GPRMC,012848.9,A,3335.324809,N,11740.306218,W,36.4,180.5,260110,,,A*44
$GPRMC,012851.0,A,3335.300981,N,11740.306108,W,37.0,180.5,260110,,,A*45
$GPRMC,012854.2,A,3335.266602,N,11740.306684,W,39.6,180.0,260110,,,A*49
$GPRMC,012857.9,A,3335.223696,N,11740.307109,W,41.7,181.6,260110,,,A*47
$GPRMC,012900.9,A,3335.189289,N,11740.309802,W,41.9,180.6,260110,,,A*4E
$GPRMC,012903.9,A,3335.156447,N,11740.309505,W,41.5,180.9,260110,,,A*42
$GPRMC,012906.9,A,3335.119704,N,11740.310052,W,42.1,181.0,260110,,,A*48
$GPRMC,012909.9,A,3335.084468,N,11740.313543,W,41.5,185.6,260110,,,A*48
$GPRMC,012912.9,A,3335.050677,N,11740.317818,W,40.2,185.8,260110,,,A*48
$GPRMC,012915.9,A,3335.019573,N,11740.320525,W,36.9,185.6,260110,,,A*46
$GPRMC,012918.9,A,3334.992901,N,11740.324775,W,34.5,190.4,260110,,,A*42
$GPRMC,012921.9,A,3334.966367,N,11740.335910,W,34.0,204.2,260110,,,A*49
$GPRMC,012924.9,A,3334.942759,N,11740.352001,W,33.3,210.5,260110,,,A*4D
$GPRMC,012927.9,A,3334.919873,N,11740.368612,W,30.1,208.9,260110,,,A*4E
$GPRMC,012930.9,A,3334.896550,N,11740.376357,W,28.2,188.2,260110,,,A*43
$GPRMC,012933.9,A,3334.872390,N,11740.370660,W,26.6,168.9,260110,,,A*48
$GPRMC,012936.9,A,3334.860539,N,11740.367269,W,17.3,164.5,260110,,,A*47
$GPRMC,012939.9,A,3334.857669,N,11740.365906,W,6.6,160.0,260110,,,A*7E
$GPRMC,012945.9,A,3334.851802,N,11740.359718,W,7.7,158.8,260110,,,A*7D
$GPRMC,012948.9,A,3334.839590,N,11740.355814,W,14.4,160.0,260110,,,A*45
$GPRMC,012951.9,A,3334.826317,N,11740.353596,W,14.6,180.0,260110,,,A*47
$GPRMC,012954.9,A,3334.815422,N,11740.360658,W,13.1,218.0,260110,,,A*40
$GPRMC,012957.9,A,3334.809295,N,11740.374595,W,16.7,255.5,260110,,,A*4C
$GPRMC,013000.9,A,3334.809495,N,11740.391406,W,13.9,269.0,260110,,,A*41
$GPRMC,013003.9,A,3334.810826,N,11740.399453,W,5.7,271.3,260110,,,A*75
$GPRMC,013027.9,A,3334.813370,N,11740.403416,W,5.1,286.5,260110,,,A*75
$GPRMC,013030.9,A,3334.814100,N,11740.418165,W,15.8,281.3,260110,,,A*43
$GPRMC,013033.9,A,3334.815933,N,11740.438579,W,20.3,282.0,260110,,,A*4F
$GPRMC,013036.9,A,3334.824436,N,11740.458963,W,24.7,289.3,260110,,,A*49
$GPRMC,013039.9,A,3334.828484,N,11740.488328,W,29.2,285.2,260110,,,A*4E
$GPRMC,013042.9,A,3334.834844,N,11740.517468,W,32.2,285.4,260110,,,A*47
$GPRMC,013045.9,A,3334.843056,N,11740.550810,W,35.8,285.2,260110,,,A*40
$GPRMC,013048.9,A,3334.852510,N,11740.585337,W,37.0,286.9,260110,,,A*4E
$GPRMC,013051.9,A,3334.861600,N,11740.622237,W,39.2,284.8,260110,,,A*44
$GPRMC,013054.9,A,3334.867178,N,11740.661964,W,39.7,280.3,260110,,,A*4F
$GPRMC,013057.9,A,3334.868582,N,11740.701819,W,40.5,272.4,260110,,,A*48
$GPRMC,013100.9,A,3334.866514,N,11740.744343,W,42.1,266.8,260110,,,A*40
$GPRMC,013103.2,A,3334.863183,N,11740.776709,W,42.5,264.0,260110,,,A*42
$GPRMC,013106.2,A,3334.854955,N,11740.817764,W,41.9,255.9,260110,,,A*47
$GPRMC,013109.2,A,3334.843907,N,11740.857399,W,41.5,249.2,260110,,,A*41
$GPRMC,013112.9,A,3334.822466,N,11740.903444,W,40.7,241.1,260110,,,A*42
$GPRMC,013115.9,A,3334.806945,N,11740.931561,W,29.2,234.6,260110,,,A*47
$GPRMC,013118.9,A,3334.799777,N,11740.945370,W,12.5,232.9,260110,,,A*4F
$GPRMC,013121.9,A,3334.793065,N,11740.949638,W,6.9,204.2,260110,,,A*79
$GPRMC,013124.9,A,3334.790130,N,11740.948355,W,4.4,181.8,260110,,,A*7A
$GPRMC,013133.9,A,3334.790382,N,11740.955733,W,10.1,249.3,260110,,,A*43
$GPRMC,013136.9,A,3334.781882,N,11740.970938,W,22.3,237.2,260110,,,A*44
$GPRMC,013139.9,A,3334.762274,N,11740.994233,W,32.2,227.6,260110,,,A*4A
$GPRMC,013142.9,A,3334.732345,N,11741.019687,W,41.0,218.1,260110,,,A*4B
$GPRMC,013145.9,A,3334.701437,N,11741.043894,W,44.0,212.8,260110,,,A*4B
$GPRMC,013148.9,A,3334.667494,N,11741.069359,W,48.0,211.4,260110,,,A*4F
$GPRMC,013151.9,A,3334.627015,N,11741.096001,W,51.6,210.3,260110,,,A*48
$GPRMC,013154.9,A,3334.592322,N,11741.126142,W,51.3,216.1,260110,,,A*4A
$GPRMC,013157.9,A,3334.563221,N,11741.159291,W,49.5,224.6,260110,,,A*49
$GPRMC,013200.9,A,3334.535571,N,11741.197689,W,50.3,231.2,260110,,,A*48
$GPRMC,013203.9,A,3334.512394,N,11741.237836,W,49.2,236.3,260110,,,A*4F
$GPRMC,013206.9,A,3334.494513,N,11741.281022,W,46.3,243.5,260110,,,A*46
$GPRMC,013209.9,A,3334.484047,N,11741.321603,W,41.3,249.7,260110,,,A*4D
$GPRMC,013212.9,A,3334.481222,N,11741.354990,W,34.1,258.8,260110,,,A*4B
$GPRMC,013215.9,A,3334.475492,N,11741.385657,W,29.5,258.0,260110,,,A*42
$GPRMC,013218.9,A,3334.470575,N,11741.407882,W,19.9,258.9,260110,,,A*4F
$GPRMC,013221.9,A,3334.470673,N,11741.419611,W,8.7,265.7,260110,,,A*75
$GPRMC,013233.9,A,3334.470459,N,11741.426349,W,11.1,263.6,260110,,,A*41
$GPRMC,013236.9,A,3334.471783,N,11741.446108,W,21.9,268.5,260110,,,A*43
$GPRMC,013239.9,A,3334.469516,N,11741.472828,W,28.6,266.2,260110,,,A*48
$GPRMC,013242.9,A,3334.469781,N,11741.503989,W,33.6,267.9,260110,,,A*45
$GPRMC,013245.9,A,3334.468647,N,11741.539998,W,37.6,266.6,260110,,,A*4B
$GPRMC,013248.9,A,3334.465965,N,11741.581267,W,40.9,265.9,260110,,,A*4F
$GPRMC,013251.9,A,3334.461005,N,11741.625239,W,43.6,265.0,260110,,,A*4F
$GPRMC,013254.9,A,3334.457069,N,11741.667930,W,44.5,265.0,260110,,,A*45
$GPRMC,013257.9,A,3334.453704,N,11741.712955,W,43.7,266.0,260110,,,A*48
$GPRMC,013300.9,A,3334.453747,N,11741.755429,W,42.8,267.5,260110,,,A*43
$GPRMC,013303.9,A,3334.450313,N,11741.796415,W,41.5,263.2,260110,,,A*4B
$GPRMC,013306.9,A,3334.443288,N,11741.835086,W,40.2,256.0,260110,,,A*45
$GPRMC,013309.9,A,3334.431963,N,11741.872287,W,37.4,249.9,260110,,,A*40
$GPRMC,013312.9,A,3334.416691,N,11741.905999,W,36.0,243.4,260110,,,A*4A
$GPRMC,013315.9,A,3334.402628,N,11741.937622,W,33.6,242.7,260110,,,A*45
$GPRMC,013318.9,A,3334.387705,N,11741.962710,W,27.0,238.2,260110,,,A*47
$GPRMC,013321.9,A,3334.377148,N,11741.982635,W,22.1,236.2,260110,,,A*4F
$GPRMC,013324.9,A,3334.365924,N,11741.997340,W,16.9,227.7,260110,,,A*42
$GPRMC,013354.9,A,3334.369712,N,11742.005445,W,6.8,251.2,260110,,,A*75
$GPRMC,013357.9,A,3334.363748,N,11742.015604,W,15.2,240.5,260110,,,A*4A
$GPRMC,013400.9,A,3334.354295,N,11742.024813,W,14.2,211.4,260110,,,A*40
$GPRMC,013403.9,A,3334.334457,N,11742.023016,W,20.9,164.7,260110,,,A*49
$GPRMC,013406.9,A,3334.312751,N,11742.012137,W,26.5,161.3,260110,,,A*46
$GPRMC,013409.9,A,3334.287681,N,11742.006407,W,30.4,168.0,260110,,,A*47
$GPRMC,013412.9,A,3334.257176,N,11742.000860,W,35.2,173.6,260110,,,A*4B
$GPRMC,013415.9,A,3334.232669,N,11742.001113,W,27.2,180.6,260110,,,A*45
$GPRMC,013418.9,A,3334.216512,N,11742.002621,W,17.6,182.1,260110,,,A*46
$GPRMC,013515.9,A,3334.191017,N,11742.002621,W,15.0,185.6,260110,,,A*42
$GPRMC,013518.2,A,3334.170477,N,11742.009867,W,26.2,196.5,260110,,,A*4D
$GPRMC,013521.0,A,3334.141524,N,11742.019312,W,31.7,200.3,260110,,,A*41
$GPRMC,013524.2,A,3334.110848,N,11742.034569,W,30.0,203.5,260110,,,A*43
$GPRMC,013527.9,A,3334.090381,N,11742.045790,W,18.7,202.8,260110,,,A*4F
$GPRMC,013530.9,A,3334.082873,N,11742.052074,W,14.2,210.4,260110,,,A*41
$GPRMC,013533.9,A,3334.065189,N,11742.061209,W,22.0,207.8,260110,,,A*42
$GPRMC,013536.9,A,3334.047162,N,11742.073280,W,26.4,208.9,260110,,,A*4E
$GPRMC,013539.9,A,3334.021762,N,11742.086585,W,32.0,204.5,260110,,,A*4E
$GPRMC,013542.9,A,3333.995729,N,11742.097113,W,31.9,198.6,260110,,,A*48
$GPRMC,013545.9,A,3333.972535,N,11742.106397,W,31.4,196.8,260110,,,A*43
$GPRMC,013548.9,A,3333.948613,N,11742.114080,W,31.2,196.0,260110,,,A*48
$GPRMC,013551.9,A,3333.922369,N,11742.122981,W,32.2,196.9,260110,,,A*43
$GPRMC,013554.9,A,3333.896930,N,11742.132937,W,32.7,200.4,260110,,,A*46
$GPRMC,013558.2,A,3333.866982,N,11742.148842,W,34.9,203.8,260110,,,A*4E
$GPRMC,013601.9,A,3333.833839,N,11742.169733,W,36.2,205.2,260110,,,A*44
$GPRMC,013604.9,A,3333.803669,N,11742.183268,W,37.7,203.2,260110,,,A*44
$GPRMC,013607.9,A,3333.776728,N,11742.195059,W,35.4,199.8,260110,,,A*42
$GPRMC,013610.9,A,3333.754009,N,11742.203205,W,27.5,196.3,260110,,,A*41
$GPRMC,013613.9,A,3333.729689,N,11742.211620,W,29.4,192.1,260110,,,A*4F
$GPRMC,013616.2,A,3333.707772,N,11742.215321,W,33.4,186.4,260110,,,A*43
$GPRMC,013619.9,A,3333.665048,N,11742.214694,W,42.2,176.0,260110,,,A*4D
$GPRMC,013622.2,A,3333.634266,N,11742.210521,W,45.6,169.4,260110,,,A*44
$GPRMC,013625.9,A,3333.587718,N,11742.195299,W,47.0,161.1,260110,,,A*4C
$GPRMC,013628.9,A,3333.552309,N,11742.176097,W,46.9,155.0,260110,,,A*42
