NMEA Sentence Code,UTC Time,Status,Latitude,Latitude Direction,Longitude,Longitude Direction,Speed (knots),Track Angle (degrees true),Date,MagneticVariation,Magnetic Variation Direction,[FAA Mode]-Optional,Checksum
$GPRMC,231502.000,A,3307.2903,N,11719.1554,W,7.60,90.90,200810,,,A*44
$GPRMC,231508.000,A,3307.2925,N,11719.1490,W,5.50,36.18,200810,,,A*4E
$GPRMC,231511.000,A,3307.2986,N,11719.1471,W,7.66,4.06,200810,,,A*79
$GPRMC,231514.000,A,3307.3049,N,11719.1460,W,6.04,5.61,200810,,,A*72
$GPRMC,231535.000,A,3307.3088,N,11719.1452,W,5.79,19.48,200810,,,A*42
$GPRMC,231538.000,A,3307.3149,N,11719.1369,W,11.37,65.31,200810,,,A*76
$GPRMC,231541.000,A,3307.3177,N,11719.1154,W,24.03,85.42,200810,,,A*72
$GPRMC,231544.000,A,3307.3178,N,11719.0889,W,26.39,90.65,200810,,,A*7A
$GPRMC,231547.000,A,3307.3170,N,11719.0606,W,30.75,90.56,200810,,,A*77
$GPRMC,231550.000,A,3307.3174,N,11719.0284,W,34.00,88.05,200810,,,A*72
$GPRMC,231553.000,A,3307.3183,N,11718.9938,W,33.34,88.14,200810,,,A*7D
$GPRMC,231556.000,A,3307.3174,N,11718.9602,W,30.56,91.79,200810,,,A*72
$GPRMC,231559.000,A,3307.3161,N,11718.9318,W,25.37,91.64,200810,,,A*78
$GPRMC,231602.000,A,3307.3157,N,11718.9072,W,24.18,88.90,200810,,,A*70
$GPRMC,231605.000,A,3307.3155,N,11718.8829,W,23.75,90.57,200810,,,A*7C
$GPRMC,231608.000,A,3307.3149,N,11718.8602,W,22.24,92.01,200810,,,A*7F
$GPRMC,231611.000,A,3307.3142,N,11718.8385,W,22.20,91.56,200810,,,A*73
$GPRMC,231614.000,A,3307.3136,N,11718.8188,W,16.53,90.48,200810,,,A*77
$GPRMC,231617.000,A,3307.3184,N,11718.8043,W,16.41,48.42,200810,,,A*77
$GPRMC,231620.000,A,3307.3322,N,11718.7992,W,17.63,2.03,200810,,,A*4D
$GPRMC,231623.000,A,3307.3501,N,11718.7993,W,21.44,2.43,200810,,,A*4C
$GPRMC,231626.000,A,3307.3708,N,11718.7975,W,24.08,9.29,200810,,,A*40
$GPRMC,231629.000,A,3307.3926,N,11718.7925,W,26.19,11.51,200810,,,A*7C
$GPRMC,231632.000,A,3307.4156,N,11718.7897,W,26.43,0.24,200810,,,A*4B
$GPRMC,231635.000,A,3307.4377,N,11718.7930,W,25.93,349.37,200810,,,A*43
$GPRMC,231638.000,A,3307.4586,N,11718.8008,W,24.71,339.34,200810,,,A*42
$GPRMC,231641.000,A,3307.4773,N,11718.8122,W,24.49,330.28,200810,,,A*42
$GPRMC,231644.000,A,3307.4940,N,11718.8270,W,25.81,320.26,200810,,,A*47
$GPRMC,231647.000,A,3307.5099,N,11718.8464,W,27.51,309.59,200810,,,A*47
$GPRMC,231650.000,A,3307.5217,N,11718.8685,W,24.69,298.96,200810,,,A*4A
$GPRMC,231653.000,A,3307.5294,N,11718.8907,W,22.74,288.99,200810,,,A*43
$GPRMC,231656.000,A,3307.5335,N,11718.9125,W,21.02,287.43,200810,,,A*4F
$GPRMC,231659.000,A,3307.5388,N,11718.9332,W,21.89,286.74,200810,,,A*44
$GPRMC,231702.000,A,3307.5448,N,11718.9556,W,24.40,288.94,200810,,,A*44
$GPRMC,231705.000,A,3307.5529,N,11718.9788,W,24.69,299.16,200810,,,A*45
$GPRMC,231708.000,A,3307.5656,N,11718.9996,W,26.46,311.49,200810,,,A*46
$GPRMC,231711.000,A,3307.5809,N,11719.0164,W,20.61,321.36,200810,,,A*4F
$GPRMC,231714.000,A,3307.5917,N,11719.0252,W,12.05,329.11,200810,,,A*4C
$GPRMC,231717.000,A,3307.6009,N,11719.0315,W,15.25,333.83,200810,,,A*4D
$GPRMC,231720.000,A,3307.6167,N,11719.0392,W,23.88,336.24,200810,,,A*45
$GPRMC,231723.000,A,3307.6382,N,11719.0498,W,29.10,336.36,200810,,,A*4A
$GPRMC,231726.000,A,3307.6628,N,11719.0618,W,32.25,337.40,200810,,,A*4C
$GPRMC,231729.000,A,3307.6879,N,11719.0739,W,31.37,337.70,200810,,,A*48
$GPRMC,231732.000,A,3307.7127,N,11719.0856,W,31.10,337.99,200810,,,A*45
$GPRMC,231735.000,A,3307.7372,N,11719.0975,W,30.47,337.01,200810,,,A*42
$GPRMC,231738.000,A,3307.7606,N,11719.1093,W,29.43,340.26,200810,,,A*40
$GPRMC,231741.000,A,3307.7836,N,11719.1154,W,26.80,354.05,200810,,,A*4D
$GPRMC,231744.000,A,3307.8056,N,11719.1149,W,27.15,5.35,200810,,,A*4C
$GPRMC,231747.000,A,3307.8281,N,11719.1087,W,27.90,17.66,200810,,,A*7C
$GPRMC,231750.000,A,3307.8493,N,11719.0967,W,27.41,29.84,200810,,,A*74
$GPRMC,231753.000,A,3307.8676,N,11719.0785,W,27.45,44.21,200810,,,A*7C
$GPRMC,231756.000,A,3307.8836,N,11719.0578,W,28.17,46.24,200810,,,A*7C
$GPRMC,231759.000,A,3307.9021,N,11719.0380,W,29.18,37.70,200810,,,A*74
$GPRMC,231802.000,A,3307.9192,N,11719.0202,W,23.30,34.59,200810,,,A*7F
$GPRMC,231805.000,A,3307.9303,N,11719.0068,W,15.86,54.23,200810,,,A*7F
$GPRMC,231808.000,A,3307.9320,N,11718.9927,W,16.10,94.20,200810,,,A*7A
$GPRMC,231811.000,A,3307.9258,N,11718.9737,W,23.31,114.90,200810,,,A*44
$GPRMC,231814.000,A,3307.9125,N,11718.9531,W,26.33,128.78,200810,,,A*42
$GPRMC,231817.000,A,3307.8956,N,11718.9339,W,27.62,138.29,200810,,,A*42
$GPRMC,231820.000,A,3307.8753,N,11718.9184,W,29.69,150.16,200810,,,A*4E
$GPRMC,231823.000,A,3307.8516,N,11718.9065,W,30.54,162.75,200810,,,A*42
$GPRMC,231826.000,A,3307.8253,N,11718.9014,W,31.68,175.50,200810,,,A*48
$GPRMC,231829.000,A,3307.7991,N,11718.9003,W,29.64,176.74,200810,,,A*4B
$GPRMC,231832.000,A,3307.7757,N,11718.8934,W,27.58,156.11,200810,,,A*49
$GPRMC,231835.000,A,3307.7546,N,11718.8837,W,26.15,164.04,200810,,,A*43
$GPRMC,231838.000,A,3307.7329,N,11718.8828,W,25.85,185.59,200810,,,A*42
$GPRMC,231841.000,A,3307.7123,N,11718.8899,W,24.70,196.26,200810,,,A*4F
$GPRMC,231844.000,A,3307.6925,N,11718.8956,W,24.36,186.64,200810,,,A*42
$GPRMC,231847.000,A,3307.6716,N,11718.8959,W,25.26,174.81,200810,,,A*46
$GPRMC,231850.000,A,3307.6503,N,11718.8902,W,26.79,163.39,200810,,,A*44
$GPRMC,231853.000,A,3307.6291,N,11718.8800,W,27.06,156.89,200810,,,A*4C
$GPRMC,231856.000,A,3307.6084,N,11718.8708,W,25.51,163.93,200810,,,A*45
$GPRMC,231859.000,A,3307.5877,N,11718.8655,W,24.69,170.52,200810,,,A*41
$GPRMC,231902.000,A,3307.5678,N,11718.8597,W,23.44,159.73,200810,,,A*42
$GPRMC,231905.000,A,3307.5513,N,11718.8488,W,21.49,143.81,200810,,,A*4D
$GPRMC,231908.000,A,3307.5387,N,11718.8358,W,18.47,135.72,200810,,,A*48
$GPRMC,231911.000,A,3307.5303,N,11718.8262,W,11.94,131.55,200810,,,A*42
$GPRMC,231914.000,A,3307.5284,N,11718.8156,W,10.15,74.64,200810,,,A*77
$GPRMC,231917.000,A,3307.5360,N,11718.8102,W,9.46,8.24,200810,,,A*7F
$GPRMC,231956.000,A,3307.5493,N,11718.8179,W,7.90,300.91,200810,,,A*7D
$GPRMC,231959.000,A,3307.5508,N,11718.8274,W,9.71,276.02,200810,,,A*74
$GPRMC,232002.000,A,3307.5537,N,11718.8391,W,13.70,304.97,200810,,,A*44
$GPRMC,232005.000,A,3307.5648,N,11718.8501,W,19.40,323.17,200810,,,A*43
$GPRMC,232008.000,A,3307.5796,N,11718.8607,W,19.73,338.22,200810,,,A*45
$GPRMC,232011.000,A,3307.5978,N,11718.8637,W,21.03,352.96,200810,,,A*4F
$GPRMC,232014.000,A,3307.6156,N,11718.8680,W,23.19,343.16,200810,,,A*40
$GPRMC,232017.000,A,3307.6378,N,11718.8764,W,26.48,337.78,200810,,,A*4C
$GPRMC,232020.000,A,3307.6576,N,11718.8871,W,25.89,340.55,200810,,,A*4A
$GPRMC,232023.000,A,3307.6788,N,11718.8924,W,25.74,353.30,200810,,,A*48
$GPRMC,232026.000,A,3307.6998,N,11718.8925,W,24.80,4.02,200810,,,A*49
$GPRMC,232029.000,A,3307.7209,N,11718.8879,W,26.05,14.66,200810,,,A*70
$GPRMC,232032.000,A,3307.7416,N,11718.8811,W,24.92,10.95,200810,,,A*78
$GPRMC,232035.000,A,3307.7621,N,11718.8806,W,25.40,350.75,200810,,,A*48
$GPRMC,232038.000,A,3307.7810,N,11718.8909,W,25.99,331.14,200810,,,A*43
$GPRMC,232041.000,A,3307.8006,N,11718.9005,W,24.54,348.58,200810,,,A*4F
$GPRMC,232044.000,A,3307.8222,N,11718.9016,W,26.50,358.61,200810,,,A*41
$GPRMC,232047.000,A,3307.8450,N,11718.9033,W,27.13,350.64,200810,,,A*4D
$GPRMC,232050.000,A,3307.8672,N,11718.9107,W,28.26,339.89,200810,,,A*4A
$GPRMC,232053.000,A,3307.8881,N,11718.9242,W,29.00,328.69,200810,,,A*42
$GPRMC,232056.000,A,3307.9069,N,11718.9413,W,27.71,318.01,200810,,,A*4F
$GPRMC,232059.000,A,3307.9204,N,11718.9619,W,24.83,304.23,200810,,,A*42
$GPRMC,232102.000,A,3307.9289,N,11718.9799,W,16.89,305.19,200810,,,A*42
$GPRMC,232105.000,A,3307.9392,N,11718.9888,W,14.69,340.17,200810,,,A*42
$GPRMC,232108.000,A,3307.9484,N,11718.9964,W,13.24,301.95,200810,,,A*4D
$GPRMC,232111.000,A,3307.9458,N,11719.0092,W,14.29,233.40,200810,,,A*4E
$GPRMC,232114.000,A,3307.9336,N,11719.0208,W,20.53,217.84,200810,,,A*41
$GPRMC,232117.000,A,3307.9178,N,11719.0342,W,23.91,216.63,200810,,,A*40
$GPRMC,232120.000,A,3307.9003,N,11719.0494,W,26.20,217.69,200810,,,A*41
$GPRMC,232123.000,A,3307.8829,N,11719.0659,W,25.78,225.33,200810,,,A*40
$GPRMC,232126.000,A,3307.8676,N,11719.0838,W,25.13,225.03,200810,,,A*46
$GPRMC,232129.000,A,3307.8512,N,11719.1001,W,25.26,214.43,200810,,,A*4B
$GPRMC,232132.000,A,3307.8314,N,11719.1126,W,27.15,203.06,200810,,,A*40
$GPRMC,232135.000,A,3307.8084,N,11719.1211,W,29.11,191.10,200810,,,A*4F
$GPRMC,232138.000,A,3307.7845,N,11719.1239,W,26.23,182.07,200810,,,A*48
$GPRMC,232141.000,A,3307.7661,N,11719.1230,W,18.29,173.21,200810,,,A*4A
$GPRMC,232144.000,A,3307.7547,N,11719.1204,W,9.48,179.16,200810,,,A*76
$GPRMC,232241.000,A,3307.7508,N,11719.1144,W,5.02,130.31,200810,,,A*76
$GPRMC,232244.000,A,3307.7433,N,11719.1092,W,15.47,154.37,200810,,,A*44
$GPRMC,232247.000,A,3307.7266,N,11719.1013,W,23.96,157.89,200810,,,A*47
$GPRMC,232250.000,A,3307.7056,N,11719.0910,W,29.04,156.98,200810,,,A*4B
$GPRMC,232253.000,A,3307.6819,N,11719.0791,W,30.86,156.98,200810,,,A*4F
$GPRMC,232256.000,A,3307.6575,N,11719.0668,W,31.64,156.62,200810,,,A*42
$GPRMC,232259.000,A,3307.6334,N,11719.0545,W,30.59,156.71,200810,,,A*4F
$GPRMC,232302.000,A,3307.6101,N,11719.0428,W,29.89,156.79,200810,,,A*43
$GPRMC,232305.000,A,3307.5872,N,11719.0307,W,29.09,153.91,200810,,,A*4B
$GPRMC,232308.000,A,3307.5671,N,11719.0151,W,29.06,140.18,200810,,,A*46
$GPRMC,232311.000,A,3307.5507,N,11718.9943,W,28.45,128.47,200810,,,A*4D
$GPRMC,232314.000,A,3307.5385,N,11718.9702,W,28.42,116.31,200810,,,A*44
$GPRMC,232317.000,A,3307.5299,N,11718.9431,W,29.14,109.70,200810,,,A*41
$GPRMC,232320.000,A,3307.5235,N,11718.9148,W,28.94,105.82,200810,,,A*40
$GPRMC,232323.000,A,3307.5171,N,11718.8868,W,28.90,109.26,200810,,,A*4C
$GPRMC,232326.000,A,3307.5063,N,11718.8605,W,29.63,120.78,200810,,,A*43
$GPRMC,232329.000,A,3307.4898,N,11718.8374,W,30.32,134.78,200810,,,A*4B
$GPRMC,232332.000,A,3307.4683,N,11718.8191,W,31.65,149.63,200810,,,A*4F
$GPRMC,232335.000,A,3307.4429,N,11718.8071,W,32.00,162.93,200810,,,A*43
$GPRMC,232338.000,A,3307.4160,N,11718.8021,W,32.19,176.69,200810,,,A*4B
$GPRMC,232341.000,A,3307.3896,N,11718.8065,W,31.33,191.34,200810,,,A*48
$GPRMC,232344.000,A,3307.3651,N,11718.8131,W,27.89,189.05,200810,,,A*45
$GPRMC,232347.000,A,3307.3455,N,11718.8158,W,19.34,182.53,200810,,,A*4C
$GPRMC,232350.000,A,3307.3342,N,11718.8167,W,8.83,181.50,200810,,,A*7B
$GPRMC,232511.000,A,3307.3267,N,11718.8292,W,15.48,252.22,200810,,,A*44
$GPRMC,232514.000,A,3307.3272,N,11718.8522,W,27.62,273.24,200810,,,A*45
$GPRMC,232517.000,A,3307.3282,N,11718.8842,W,34.82,271.33,200810,,,A*4A
$GPRMC,232520.000,A,3307.3290,N,11718.9224,W,39.37,271.38,200810,,,A*4E
$GPRMC,232523.000,A,3307.3292,N,11718.9628,W,40.02,271.00,200810,,,A*44
$GPRMC,232526.000,A,3307.3296,N,11719.0023,W,39.17,269.07,200810,,,A*44
$GPRMC,232529.000,A,3307.3287,N,11719.0387,W,32.36,268.26,200810,,,A*4C
$GPRMC,232532.000,A,3307.3289,N,11719.0644,W,21.01,270.83,200810,,,A*42
$GPRMC,232535.000,A,3307.3298,N,11719.0795,W,11.67,272.19,200810,,,A*4A
$GPRMC,232538.000,A,3307.3304,N,11719.0883,W,9.38,272.39,200810,,,A*7A
$GPRMC,232541.000,A,3307.3307,N,11719.0961,W,8.09,271.53,200810,,,A*76
$GPRMC,232544.000,A,3307.3309,N,11719.1051,W,10.88,270.92,200810,,,A*4A
$GPRMC,232547.000,A,3307.3310,N,11719.1131,W,4.51,269.51,200810,,,A*70
$GPRMC,232635.000,A,3307.3313,N,11719.1151,W,9.07,274.78,200810,,,A*7A
$GPRMC,232638.000,A,3307.3321,N,11719.1300,W,18.30,272.60,200810,,,A*4B
$GPRMC,232641.000,A,3307.3328,N,11719.1512,W,22.82,270.94,200810,,,A*40
$GPRMC,232644.000,A,3307.3333,N,11719.1764,W,26.70,271.83,200810,,,A*42
$GPRMC,232647.000,A,3307.3342,N,11719.2050,W,29.97,272.19,200810,,,A*42
$GPRMC,232650.000,A,3307.3352,N,11719.2365,W,32.13,271.75,200810,,,A*4F
$GPRMC,232653.000,A,3307.3360,N,11719.2687,W,32.26,271.44,200810,,,A*40
$GPRMC,232656.000,A,3307.3366,N,11719.3017,W,32.80,271.53,200810,,,A*47
$GPRMC,232659.000,A,3307.3373,N,11719.3336,W,31.12,271.30,200810,,,A*41
$GPRMC,232702.000,A,3307.3381,N,11719.3640,W,30.17,272.98,200810,,,A*42
$GPRMC,232705.000,A,3307.3421,N,11719.3923,W,26.52,288.38,200810,,,A*4B
$GPRMC,232708.000,A,3307.3513,N,11719.4142,W,22.65,308.63,200810,,,A*49
$GPRMC,232711.000,A,3307.3669,N,11719.4225,W,18.90,354.16,200810,,,A*45
$GPRMC,232714.000,A,3307.3819,N,11719.4174,W,18.26,28.95,200810,,,A*70
$GPRMC,232717.000,A,3307.3904,N,11719.4023,W,19.51,66.30,200810,,,A*79
$GPRMC,232720.000,A,3307.3902,N,11719.3877,W,7.93,92.68,200810,,,A*42
$GPRMC,232726.000,A,3307.3852,N,11719.3862,W,4.68,121.58,200810,,,A*79
$GPRMC,232729.000,A,3307.3773,N,11719.3761,W,19.29,134.49,200810,,,A*4B
$GPRMC,232732.000,A,3307.3601,N,11719.3632,W,24.75,151.30,200810,,,A*48
$GPRMC,232735.000,A,3307.3418,N,11719.3512,W,24.41,150.62,200810,,,A*45
$GPRMC,232738.000,A,3307.3264,N,11719.3402,W,21.17,150.03,200810,,,E*40
$GPRMC,232741.000,A,3307.3153,N,11719.3286,W,14.94,141.52,200810,,,A*4E
$GPRMC,232744.000,A,3307.3138,N,11719.3275,W,5.75,141.81,200810,,,A*7B
$GPRMC,232747.000,A,3307.3107,N,11719.3254,W,5.02,147.86,200810,,,A*76
$GPRMC,232750.000,A,3307.3071,N,11719.3231,W,6.10,153.24,200810,,,A*7E
$GPRMC,232753.000,A,3307.3022,N,11719.3200,W,7.24,153.55,200810,,,A*79
$GPRMC,232756.000,A,3307.2966,N,11719.3165,W,8.28,153.55,200810,,,A*77
$GPRMC,232759.000,A,3307.2896,N,11719.3123,W,10.01,153.23,200810,,,A*47
$GPRMC,232802.000,A,3307.2820,N,11719.3076,W,10.45,152.45,200810,,,A*4B
$GPRMC,232805.000,A,3307.2742,N,11719.3028,W,10.71,153.25,200810,,,A*4C
$GPRMC,232808.000,A,3307.2664,N,11719.2981,W,10.14,152.13,200810,,,A*48
$GPRMC,232811.000,A,3307.2591,N,11719.2937,W,9.48,152.60,200810,,,A*71
$GPRMC,232814.000,A,3307.2521,N,11719.2894,W,9.78,152.31,200810,,,A*70
$GPRMC,232817.000,A,3307.2438,N,11719.2844,W,13.49,152.38,200810,,,A*47
$GPRMC,232820.000,A,3307.2317,N,11719.2771,W,18.46,152.89,200810,,,A*4E
$GPRMC,232823.000,A,3307.2162,N,11719.2680,W,21.81,152.98,200810,,,A*43
$GPRMC,232826.000,A,3307.1996,N,11719.2582,W,21.76,153.26,200810,,,A*4B
$GPRMC,232829.000,A,3307.1835,N,11719.2486,W,20.97,152.75,200810,,,A*40
$GPRMC,232832.000,A,3307.1682,N,11719.2392,W,20.01,152.77,200810,,,A*47
$GPRMC,232835.000,A,3307.1531,N,11719.2301,W,20.30,152.79,200810,,,A*4D
$GPRMC,232838.000,A,3307.1381,N,11719.2213,W,19.73,153.11,200810,,,A*4D
$GPRMC,232841.000,A,3307.1229,N,11719.2123,W,20.44,153.11,200810,,,A*4E
$GPRMC,232844.000,A,3307.1075,N,11719.2030,W,21.23,152.93,200810,,,A*48
$GPRMC,232847.000,A,3307.0915,N,11719.1933,W,21.57,153.21,200810,,,A*47
$GPRMC,232850.000,A,3307.0752,N,11719.1834,W,21.93,153.05,200810,,,A*44
$GPRMC,232853.000,A,3307.0591,N,11719.1736,W,21.36,152.49,200810,,,A*41
$GPRMC,232856.000,A,3307.0429,N,11719.1638,W,21.90,153.07,200810,,,A*4E
$GPRMC,232859.000,A,3307.0267,N,11719.1541,W,21.12,153.24,200810,,,A*4B
$GPRMC,232902.000,A,3307.0112,N,11719.1450,W,20.29,153.11,200810,,,A*4B
$GPRMC,232905.000,A,3306.9963,N,11719.1361,W,19.99,152.99,200810,,,A*4F
$GPRMC,232908.000,A,3306.9821,N,11719.1276,W,16.97,152.84,200810,,,A*4F
$GPRMC,232911.000,A,3306.9708,N,11719.1207,W,14.62,153.31,200810,,,A*42
$GPRMC,232914.000,A,3306.9603,N,11719.1145,W,13.98,153.66,200810,,,A*48
$GPRMC,232917.000,A,3306.9503,N,11719.1086,W,13.54,152.84,200810,,,A*4B
$GPRMC,232920.000,A,3306.9403,N,11719.1026,W,13.60,152.78,200810,,,A*40
$GPRMC,232923.000,A,3306.9295,N,11719.0961,W,16.53,153.28,200810,,,A*40
$GPRMC,232926.000,A,3306.9155,N,11719.0878,W,20.84,153.52,200810,,,A*41
$GPRMC,232929.000,A,3306.8989,N,11719.0779,W,22.65,153.14,200810,,,A*47
$GPRMC,232932.000,A,3306.8824,N,11719.0679,W,22.00,152.79,200810,,,A*43
$GPRMC,232935.000,A,3306.8653,N,11719.0576,W,23.80,153.34,200810,,,A*47
$GPRMC,232938.000,A,3306.8472,N,11719.0467,W,24.41,153.00,200810,,,A*47
$GPRMC,232941.000,A,3306.8292,N,11719.0356,W,24.12,152.67,200810,,,A*42
$GPRMC,232944.000,A,3306.8116,N,11719.0251,W,23.38,153.25,200810,,,A*46
$GPRMC,232947.000,A,3306.7945,N,11719.0149,W,22.55,152.64,200810,,,A*40
$GPRMC,232950.000,A,3306.7782,N,11719.0051,W,21.27,152.96,200810,,,A*40
$GPRMC,232953.000,A,3306.7625,N,11718.9958,W,21.01,153.50,200810,,,A*48
$GPRMC,232956.000,A,3306.7472,N,11718.9867,W,19.97,152.93,200810,,,A*4A
$GPRMC,232959.000,A,3306.7325,N,11718.9778,W,20.76,153.02,200810,,,A*4D
$GPRMC,233002.000,A,3306.7156,N,11718.9677,W,23.75,153.36,200810,,,A*44
$GPRMC,233005.000,A,3306.6972,N,11718.9568,W,24.89,153.52,200810,,,A*47
$GPRMC,233008.000,A,3306.6791,N,11718.9459,W,23.70,152.75,200810,,,A*4F
$GPRMC,233011.000,A,3306.6620,N,11718.9354,W,22.33,152.96,200810,,,A*4D
$GPRMC,233014.000,A,3306.6447,N,11718.9252,W,24.32,153.60,200810,,,A*43
$GPRMC,233017.000,A,3306.6253,N,11718.9135,W,27.58,153.12,200810,,,A*4B
$GPRMC,233020.000,A,3306.6035,N,11718.9005,W,30.41,153.50,200810,,,A*47
$GPRMC,233023.000,A,3306.5798,N,11718.8862,W,32.95,153.24,200810,,,A*47
$GPRMC,233026.000,A,3306.5546,N,11718.8709,W,34.36,152.70,200810,,,A*4E
$GPRMC,233029.000,A,3306.5279,N,11718.8554,W,35.65,152.50,200810,,,A*45
$GPRMC,233032.000,A,3306.5006,N,11718.8389,W,36.44,152.26,200810,,,A*42
$GPRMC,233035.000,A,3306.4734,N,11718.8225,W,35.53,151.87,200810,,,A*48
$GPRMC,233038.000,A,3306.4472,N,11718.8062,W,35.01,151.69,200810,,,A*42
$GPRMC,233041.000,A,3306.4215,N,11718.7901,W,34.81,151.55,200810,,,A*4E
$GPRMC,233044.000,A,3306.3958,N,11718.7737,W,35.23,151.30,200810,,,A*4F
$GPRMC,233047.000,A,3306.3699,N,11718.7569,W,36.02,151.74,200810,,,A*47
$GPRMC,233050.000,A,3306.3428,N,11718.7394,W,37.01,151.06,200810,,,A*4A
$GPRMC,233053.000,A,3306.3166,N,11718.7220,W,35.10,151.05,200810,,,A*49
$GPRMC,233056.000,A,3306.2912,N,11718.7054,W,34.15,151.31,200810,,,A*44
$GPRMC,233059.000,A,3306.2665,N,11718.6891,W,32.96,150.69,200810,,,A*45
$GPRMC,233102.000,A,3306.2437,N,11718.6736,W,29.59,150.58,200810,,,A*46
$GPRMC,233105.000,A,3306.2227,N,11718.6608,W,28.17,151.25,200810,,,A*4A
$GPRMC,233108.000,A,3306.2025,N,11718.6475,W,27.05,148.16,200810,,,A*4B
$GPRMC,233111.000,A,3306.1829,N,11718.6340,W,27.45,151.25,200810,,,A*49
$GPRMC,233114.000,A,3306.1622,N,11718.6201,W,28.67,151.02,200810,,,A*47
$GPRMC,233117.000,A,3306.1400,N,11718.6055,W,30.55,151.42,200810,,,A*49
$GPRMC,233120.000,A,3306.1165,N,11718.5895,W,32.56,150.89,200810,,,A*4B
$GPRMC,233123.000,A,3306.0918,N,11718.5733,W,34.09,150.91,200810,,,A*4D
$GPRMC,233126.000,A,3306.0661,N,11718.5565,W,34.95,150.89,200810,,,A*44
$GPRMC,233129.000,A,3306.0405,N,11718.5407,W,35.47,150.77,200810,,,A*41
$GPRMC,233132.000,A,3306.0148,N,11718.5246,W,34.92,151.03,200810,,,A*4F
$GPRMC,233135.000,A,3305.9891,N,11718.5087,W,35.59,151.34,200810,,,A*42
$GPRMC,233138.000,A,3305.9636,N,11718.4923,W,34.03,150.82,200810,,,A*48
$GPRMC,233141.000,A,3305.9390,N,11718.4767,W,33.02,151.48,200810,,,A*40
$GPRMC,233144.000,A,3305.9153,N,11718.4618,W,31.87,151.22,200810,,,A*42
$GPRMC,233147.000,A,3305.8924,N,11718.4473,W,31.37,150.98,200810,,,A*4C
$GPRMC,233150.000,A,3305.8699,N,11718.4325,W,30.96,151.25,200810,,,A*4A
$GPRMC,233153.000,A,3305.8476,N,11718.4176,W,30.16,150.77,200810,,,A*40
$GPRMC,233156.000,A,3305.8275,N,11718.4046,W,25.41,150.96,200810,,,A*4B
$GPRMC,233159.000,A,3305.8108,N,11718.3934,W,20.40,151.20,200810,,,A*4E
$GPRMC,233202.000,A,3305.7995,N,11718.3855,W,14.46,150.50,200810,,,A*41
$GPRMC,233205.000,A,3305.7891,N,11718.3784,W,14.58,150.74,200810,,,A*49
$GPRMC,233208.000,A,3305.7782,N,11718.3709,W,16.26,150.56,200810,,,A*47
$GPRMC,233211.000,A,3305.7652,N,11718.3623,W,19.05,151.04,200810,,,A*42
$GPRMC,233214.000,A,3305.7504,N,11718.3527,W,22.03,151.10,200810,,,A*4B
$GPRMC,233217.000,A,3305.7323,N,11718.3411,W,26.77,151.03,200810,,,A*4A
$GPRMC,233220.000,A,3305.7112,N,11718.3275,W,30.39,151.27,200810,,,A*41
$GPRMC,233223.000,A,3305.6876,N,11718.3122,W,33.27,151.05,200810,,,A*45
$GPRMC,233226.000,A,3305.6627,N,11718.2959,W,33.98,150.99,200810,,,A*4F
$GPRMC,233229.000,A,3305.6378,N,11718.2796,W,34.16,151.23,200810,,,A*43
$GPRMC,233232.000,A,3305.6127,N,11718.2634,W,33.80,150.99,200810,,,A*40
$GPRMC,233235.000,A,3305.5882,N,11718.2476,W,33.12,151.36,200810,,,A*49
$GPRMC,233238.000,A,3305.5639,N,11718.2318,W,32.83,150.88,200810,,,A*48
$GPRMC,233241.000,A,3305.5393,N,11718.2157,W,34.35,151.10,200810,,,A*41
$GPRMC,233244.000,A,3305.5132,N,11718.1986,W,35.64,151.30,200810,,,A*4D
$GPRMC,233247.000,A,3305.4870,N,11718.1813,W,36.12,151.30,200810,,,A*4F
$GPRMC,233250.000,A,3305.4598,N,11718.1646,W,36.66,151.33,200810,,,A*4C
$GPRMC,233253.000,A,3305.4327,N,11718.1476,W,36.54,151.37,200810,,,A*49
$GPRMC,233256.000,A,3305.4055,N,11718.1302,W,37.05,151.41,200810,,,A*4A
$GPRMC,233259.000,A,3305.3784,N,11718.1125,W,36.73,151.10,200810,,,A*4A
$GPRMC,233302.000,A,3305.3516,N,11718.0951,W,36.30,151.45,200810,,,A*41
$GPRMC,233305.000,A,3305.3250,N,11718.0779,W,36.47,151.55,200810,,,A*46
$GPRMC,233308.000,A,3305.2981,N,11718.0604,W,36.75,151.49,200810,,,A*4A
$GPRMC,233311.000,A,3305.2711,N,11718.0428,W,36.77,151.22,200810,,,A*46
$GPRMC,233314.000,A,3305.2443,N,11718.0252,W,36.05,151.11,200810,,,A*49
$GPRMC,233317.000,A,3305.2184,N,11718.0080,W,35.20,151.23,200810,,,A*4C
$GPRMC,233320.000,A,3305.1927,N,11717.9910,W,34.74,150.76,200810,,,A*4D
$GPRMC,233323.000,A,3305.1680,N,11717.9742,W,33.00,150.45,200810,,,A*41
$GPRMC,233326.000,A,3305.1469,N,11717.9595,W,28.03,150.43,200810,,,A*46
$GPRMC,233329.000,A,3305.1268,N,11717.9467,W,26.92,151.19,200810,,,A*4A
$GPRMC,233332.000,A,3305.1087,N,11717.9356,W,22.36,151.38,200810,,,A*4F
$GPRMC,233335.000,A,3305.0959,N,11717.9284,W,13.22,152.64,200810,,,A*40
$GPRMC,233338.000,A,3305.0871,N,11717.9219,W,11.53,152.21,200810,,,A*47
$GPRMC,233341.000,A,3305.0782,N,11717.9164,W,12.23,153.08,200810,,,A*4D
$GPRMC,233344.000,A,3305.0700,N,11717.9109,W,11.31,155.52,200810,,,A*40
$GPRMC,233347.000,A,3305.0621,N,11717.9062,W,9.37,152.06,200810,,,A*74
$GPRMC,233356.000,A,3305.0499,N,11717.8991,W,10.43,160.58,200810,,,A*40
$GPRMC,233359.000,A,3305.0377,N,11717.8929,W,14.51,159.02,200810,,,A*49
$GPRMC,233402.000,A,3305.0264,N,11717.8883,W,14.87,159.93,200810,,,A*41
$GPRMC,233405.000,A,3305.0134,N,11717.8824,W,17.11,160.43,200810,,,A*46
$GPRMC,233408.000,A,3304.9979,N,11717.8761,W,22.44,161.43,200810,,,A*4B
$GPRMC,233411.000,A,3304.9779,N,11717.8673,W,25.52,160.51,200810,,,A*4D
$GPRMC,233414.000,A,3304.9580,N,11717.8605,W,23.74,165.26,200810,,,A*4A
$GPRMC,233417.000,A,3304.9386,N,11717.8552,W,23.65,166.33,200810,,,A*4F
$GPRMC,233420.000,A,3304.9202,N,11717.8500,W,21.61,165.22,200810,,,A*44
$GPRMC,233423.000,A,3304.9040,N,11717.8465,W,18.38,167.56,200810,,,A*46
$GPRMC,233426.000,A,3304.8895,N,11717.8426,W,17.75,168.32,200810,,,A*4E
$GPRMC,233429.000,A,3304.8731,N,11717.8367,W,21.34,166.98,200810,,,A*4C
$GPRMC,233432.000,A,3304.8539,N,11717.8309,W,24.62,165.92,200810,,,A*4B
$GPRMC,233435.000,A,3304.8327,N,11717.8242,W,26.93,167.40,200810,,,A*4A
$GPRMC,233438.000,A,3304.8085,N,11717.8163,W,31.00,166.00,200810,,,A*45
$GPRMC,233441.000,A,3304.7826,N,11717.8076,W,31.74,165.68,200810,,,A*4E
$GPRMC,233444.000,A,3304.7566,N,11717.7987,W,31.06,165.86,200810,,,A*4F
$GPRMC,233447.000,A,3304.7311,N,11717.7895,W,30.89,165.80,200810,,,A*48
$GPRMC,233450.000,A,3304.7052,N,11717.7813,W,31.84,165.77,200810,,,A*40
$GPRMC,233453.000,A,3304.6785,N,11717.7726,W,32.39,166.13,200810,,,A*42
$GPRMC,233456.000,A,3304.6518,N,11717.7642,W,32.90,166.13,200810,,,A*41
$GPRMC,233459.000,A,3304.6240,N,11717.7560,W,35.20,165.94,200810,,,A*47
$GPRMC,233502.000,A,3304.5948,N,11717.7464,W,35.08,165.76,200810,,,A*4B
$GPRMC,233505.000,A,3304.5670,N,11717.7383,W,34.14,165.72,200810,,,A*4E
$GPRMC,233508.000,A,3304.5391,N,11717.7300,W,35.21,166.40,200810,,,A*47
$GPRMC,233511.000,A,3304.5098,N,11717.7217,W,36.25,167.05,200810,,,A*45
$GPRMC,233514.000,A,3304.4800,N,11717.7148,W,36.89,167.04,200810,,,A*46
$GPRMC,233517.000,A,3304.4506,N,11717.7065,W,35.23,166.09,200810,,,A*4F
$GPRMC,233520.000,A,3304.4234,N,11717.6984,W,32.73,165.80,200810,,,A*4A
$GPRMC,233523.000,A,3304.3973,N,11717.6891,W,31.79,164.46,200810,,,A*41
$GPRMC,233526.000,A,3304.3729,N,11717.6811,W,29.70,165.24,200810,,,A*48
$GPRMC,233529.000,A,3304.3493,N,11717.6752,W,28.71,165.45,200810,,,A*4A
$GPRMC,233532.000,A,3304.3272,N,11717.6703,W,27.05,165.93,200810,,,A*4A
$GPRMC,233535.000,A,3304.3058,N,11717.6641,W,25.92,165.71,200810,,,A*40
$GPRMC,233538.000,A,3304.2850,N,11717.6585,W,26.94,166.39,200810,,,A*4D
$GPRMC,233541.000,A,3304.2613,N,11717.6514,W,31.07,166.46,200810,,,A*46
$GPRMC,233544.000,A,3304.2349,N,11717.6428,W,33.09,165.85,200810,,,A*47
$GPRMC,233547.000,A,3304.2069,N,11717.6340,W,35.19,165.76,200810,,,A*47
$GPRMC,233550.000,A,3304.1785,N,11717.6265,W,35.09,165.92,200810,,,A*4A
$GPRMC,233553.000,A,3304.1492,N,11717.6172,W,37.20,165.78,200810,,,A*44
$GPRMC,233556.000,A,3304.1180,N,11717.6073,W,39.11,165.19,200810,,,A*4C
$GPRMC,233559.000,A,3304.0857,N,11717.5969,W,39.96,165.53,200810,,,A*41
$GPRMC,233602.000,A,3304.0528,N,11717.5871,W,40.83,165.69,200810,,,A*42
$GPRMC,233605.000,A,3304.0191,N,11717.5768,W,41.96,165.57,200810,,,A*4C
$GPRMC,233608.000,A,3303.9845,N,11717.5661,W,42.38,166.29,200810,,,A*4A
$GPRMC,233611.000,A,3303.9506,N,11717.5559,W,40.92,165.86,200810,,,A*44
$GPRMC,233614.000,A,3303.9180,N,11717.5487,W,40.64,167.81,200810,,,A*45
$GPRMC,233617.000,A,3303.8829,N,11717.5401,W,43.32,167.25,200810,,,A*4D
$GPRMC,233620.000,A,3303.8481,N,11717.5293,W,41.26,165.68,200810,,,A*46
$GPRMC,233623.000,A,3303.8153,N,11717.5205,W,41.52,165.44,200810,,,A*4D
$GPRMC,233626.000,A,3303.7819,N,11717.5118,W,41.78,165.86,200810,,,A*49
$GPRMC,233629.000,A,3303.7484,N,11717.5020,W,40.52,165.82,200810,,,A*49
$GPRMC,233632.000,A,3303.7173,N,11717.4926,W,35.54,165.68,200810,,,A*40
$GPRMC,233635.000,A,3303.6912,N,11717.4850,W,30.96,165.55,200810,,,A*4C
$GPRMC,233638.000,A,3303.6670,N,11717.4778,W,29.19,165.76,200810,,,A*41
$GPRMC,233641.000,A,3303.6455,N,11717.4713,W,25.56,165.56,200810,,,A*42
$GPRMC,233644.000,A,3303.6253,N,11717.4653,W,25.53,165.32,200810,,,A*45
$GPRMC,233647.000,A,3303.6052,N,11717.4591,W,24.76,165.49,200810,,,A*42
$GPRMC,233650.000,A,3303.5861,N,11717.4534,W,23.47,165.64,200810,,,A*4A
$GPRMC,233653.000,A,3303.5664,N,11717.4472,W,25.62,165.27,200810,,,A*47
$GPRMC,233656.000,A,3303.5452,N,11717.4408,W,26.72,165.57,200810,,,A*4D
$GPRMC,233659.000,A,3303.5231,N,11717.4342,W,28.09,165.61,200810,,,A*4F
$GPRMC,233702.000,A,3303.4997,N,11717.4270,W,30.04,165.22,200810,,,A*45
$GPRMC,233705.000,A,3303.4751,N,11717.4195,W,30.25,165.63,200810,,,A*48
$GPRMC,233708.000,A,3303.4513,N,11717.4124,W,28.83,165.73,200810,,,A*4F
$GPRMC,233711.000,A,3303.4280,N,11717.4055,W,28.80,165.65,200810,,,A*49
$GPRMC,233714.000,A,3303.4050,N,11717.3985,W,28.39,165.76,200810,,,A*40
$GPRMC,233717.000,A,3303.3817,N,11717.3917,W,29.07,165.52,200810,,,A*4E
$GPRMC,233720.000,A,3303.3583,N,11717.3844,W,28.76,165.32,200810,,,A*4C
$GPRMC,233723.000,A,3303.3347,N,11717.3770,W,29.54,165.37,200810,,,A*4D
$GPRMC,233726.000,A,3303.3103,N,11717.3696,W,30.68,166.00,200810,,,A*43
$GPRMC,233729.000,A,3303.2855,N,11717.3621,W,30.21,165.28,200810,,,A*4F
$GPRMC,233732.000,A,3303.2615,N,11717.3551,W,29.23,165.64,200810,,,A*49
$GPRMC,233735.000,A,3303.2382,N,11717.3481,W,28.40,165.47,200810,,,A*4C
$GPRMC,233738.000,A,3303.2148,N,11717.3409,W,30.23,165.79,200810,,,A*44
$GPRMC,233741.000,A,3303.1890,N,11717.3338,W,33.34,166.60,200810,,,A*4E
$GPRMC,233744.000,A,3303.1605,N,11717.3262,W,36.82,166.75,200810,,,A*4B
$GPRMC,233747.000,A,3303.1284,N,11717.3166,W,40.84,165.99,200810,,,A*44
$GPRMC,233750.000,A,3303.0947,N,11717.3060,W,41.07,165.44,200810,,,A*4A
$GPRMC,233753.000,A,3303.0616,N,11717.2954,W,40.32,165.09,200810,,,A*43
$GPRMC,233756.000,A,3303.0311,N,11717.2862,W,34.17,165.81,200810,,,A*44
$GPRMC,233759.000,A,3303.0075,N,11717.2794,W,25.90,166.47,200810,,,A*4A
$GPRMC,233802.000,A,3302.9866,N,11717.2733,W,26.62,165.42,200810,,,A*4C
$GPRMC,233805.000,A,3302.9642,N,11717.2665,W,28.93,166.01,200810,,,A*45
$GPRMC,233808.000,A,3302.9403,N,11717.2593,W,30.17,165.46,200810,,,A*40
$GPRMC,233811.000,A,3302.9158,N,11717.2518,W,31.00,165.73,200810,,,A*41
$GPRMC,233814.000,A,3302.8899,N,11717.2436,W,32.51,165.50,200810,,,A*4A
$GPRMC,233817.000,A,3302.8634,N,11717.2358,W,32.50,165.50,200810,,,A*4E
$GPRMC,233820.000,A,3302.8379,N,11717.2284,W,30.94,165.80,200810,,,A*41
$GPRMC,233823.000,A,3302.8133,N,11717.2214,W,30.17,166.12,200810,,,A*44
$GPRMC,233826.000,A,3302.7885,N,11717.2142,W,31.18,166.12,200810,,,A*44
$GPRMC,233829.000,A,3302.7619,N,11717.2065,W,34.00,165.97,200810,,,A*46
$GPRMC,233832.000,A,3302.7335,N,11717.1982,W,35.27,166.20,200810,,,A*4F
$GPRMC,233835.000,A,3302.7062,N,11717.1900,W,31.11,165.81,200810,,,A*4A
$GPRMC,233838.000,A,3302.6820,N,11717.1829,W,28.75,166.19,200810,,,A*4A
$GPRMC,233841.000,A,3302.6609,N,11717.1767,W,23.44,165.59,200810,,,A*4A
$GPRMC,233844.000,A,3302.6443,N,11717.1716,W,19.15,165.18,200810,,,A*4D
$GPRMC,233847.000,A,3302.6283,N,11717.1667,W,21.74,164.90,200810,,,A*4E
$GPRMC,233850.000,A,3302.6090,N,11717.1597,W,24.54,165.91,200810,,,A*43
$GPRMC,233853.000,A,3302.5896,N,11717.1535,W,22.95,163.85,200810,,,A*4D
$GPRMC,233856.000,A,3302.5723,N,11717.1472,W,20.69,163.35,200810,,,A*41
$GPRMC,233859.000,A,3302.5569,N,11717.1418,W,18.73,161.89,200810,,,A*4B
$GPRMC,233902.000,A,3302.5430,N,11717.1358,W,16.86,160.69,200810,,,A*41
$GPRMC,233905.000,A,3302.5305,N,11717.1300,W,15.24,159.12,200810,,,A*47
$GPRMC,233908.000,A,3302.5186,N,11717.1241,W,17.19,158.30,200810,,,A*4A
$GPRMC,233911.000,A,3302.5040,N,11717.1171,W,20.48,157.51,200810,,,A*41
$GPRMC,233914.000,A,3302.4876,N,11717.1082,W,22.01,154.88,200810,,,A*4D
$GPRMC,233917.000,A,3302.4704,N,11717.0980,W,23.31,153.53,200810,,,A*4D
$GPRMC,233920.000,A,3302.4527,N,11717.0871,W,23.83,152.23,200810,,,A*4A
$GPRMC,233923.000,A,3302.4342,N,11717.0750,W,25.87,150.87,200810,,,A*4E
$GPRMC,233926.000,A,3302.4144,N,11717.0621,W,27.64,151.20,200810,,,A*4B
$GPRMC,233929.000,A,3302.3932,N,11717.0485,W,29.63,150.93,200810,,,A*46
$GPRMC,233932.000,A,3302.3711,N,11717.0326,W,32.03,150.04,200810,,,A*4F
$GPRMC,233935.000,A,3302.3468,N,11717.0161,W,34.54,150.83,200810,,,A*4F
$GPRMC,233938.000,A,3302.3210,N,11716.9983,W,36.37,150.44,200810,,,A*4B
$GPRMC,233941.000,A,3302.2941,N,11716.9793,W,38.06,150.13,200810,,,A*4A
$GPRMC,233944.000,A,3302.2658,N,11716.9599,W,39.76,150.11,200810,,,A*44
$GPRMC,233947.000,A,3302.2364,N,11716.9395,W,41.27,150.03,200810,,,A*4F
$GPRMC,233950.000,A,3302.2059,N,11716.9185,W,42.62,149.97,200810,,,A*40
$GPRMC,233953.000,A,3302.1742,N,11716.8972,W,44.17,150.28,200810,,,A*44
$GPRMC,233956.000,A,3302.1416,N,11716.8751,W,45.18,150.16,200810,,,A*4F
$GPRMC,233959.000,A,3302.1083,N,11716.8526,W,46.25,150.39,200810,,,A*4A
$GPRMC,234002.000,A,3302.0741,N,11716.8297,W,47.32,150.18,200810,,,A*4B
$GPRMC,234005.000,A,3302.0396,N,11716.8063,W,47.18,150.14,200810,,,A*4F
$GPRMC,234008.000,A,3302.0059,N,11716.7835,W,45.60,150.23,200810,,,A*4F
$GPRMC,234011.000,A,3301.9729,N,11716.7614,W,45.10,150.31,200810,,,A*44
$GPRMC,234014.000,A,3301.9401,N,11716.7394,W,44.95,150.38,200810,,,A*40
$GPRMC,234017.000,A,3301.9077,N,11716.7177,W,44.14,150.27,200810,,,A*4E
$GPRMC,234020.000,A,3301.8758,N,11716.6960,W,44.26,150.07,200810,,,A*4D
$GPRMC,234023.000,A,3301.8434,N,11716.6740,W,44.72,150.24,200810,,,A*4B
$GPRMC,234026.000,A,3301.8103,N,11716.6525,W,45.70,150.41,200810,,,A*4E
$GPRMC,234029.000,A,3301.7761,N,11716.6306,W,46.82,149.55,200810,,,A*48
$GPRMC,234032.000,A,3301.7409,N,11716.6086,W,47.00,150.59,200810,,,A*4B
$GPRMC,234035.000,A,3301.7069,N,11716.5856,W,46.55,150.26,200810,,,A*41
$GPRMC,234038.000,A,3301.6729,N,11716.5625,W,47.63,150.21,200810,,,A*47
$GPRMC,234041.000,A,3301.6373,N,11716.5384,W,49.98,150.12,200810,,,A*46
$GPRMC,234044.000,A,3301.6006,N,11716.5137,W,50.51,150.77,200810,,,A*46
$GPRMC,234047.000,A,3301.5624,N,11716.4914,W,50.95,154.37,200810,,,A*40
$GPRMC,234050.000,A,3301.5240,N,11716.4725,W,46.77,158.27,200810,,,A*4A
$GPRMC,234053.000,A,3301.4892,N,11716.4575,W,43.36,161.43,200810,,,A*42
$GPRMC,234056.000,A,3301.4546,N,11716.4454,W,42.82,164.91,200810,,,A*45
$GPRMC,234059.000,A,3301.4197,N,11716.4360,W,42.61,167.98,200810,,,A*45
$GPRMC,234102.000,A,3301.3838,N,11716.4284,W,43.90,170.42,200810,,,A*44
$GPRMC,234105.000,A,3301.3466,N,11716.4218,W,45.63,170.61,200810,,,A*4A
$GPRMC,234108.000,A,3301.3087,N,11716.4149,W,45.64,170.66,200810,,,A*4B
$GPRMC,234111.000,A,3301.2709,N,11716.4078,W,45.72,170.41,200810,,,A*42
$GPRMC,234114.000,A,3301.2329,N,11716.4007,W,46.51,170.32,200810,,,A*4F
$GPRMC,234117.000,A,3301.1943,N,11716.3923,W,47.58,167.78,200810,,,A*41
$GPRMC,234120.000,A,3301.1550,N,11716.3809,W,49.26,164.75,200810,,,A*4B
$GPRMC,234123.000,A,3301.1150,N,11716.3653,W,49.19,160.93,200810,,,A*4D
$GPRMC,234126.000,A,3301.0771,N,11716.3477,W,47.92,157.52,200810,,,A*4C
$GPRMC,234129.000,A,3301.0411,N,11716.3278,W,47.11,153.74,200810,,,A*44
$GPRMC,234132.000,A,3301.0067,N,11716.3059,W,46.67,150.06,200810,,,A*4C
$GPRMC,234135.000,A,3300.9732,N,11716.2815,W,47.23,147.65,200810,,,A*47
$GPRMC,234138.000,A,3300.9412,N,11716.2551,W,46.85,143.67,200810,,,A*4D
$GPRMC,234141.000,A,3300.9107,N,11716.2262,W,47.12,140.41,200810,,,A*4D
$GPRMC,234144.000,A,3300.8813,N,11716.1951,W,47.12,136.72,200810,,,A*4C
$GPRMC,234147.000,A,3300.8531,N,11716.1619,W,47.82,135.89,200810,,,A*4F
$GPRMC,234150.000,A,3300.8245,N,11716.1287,W,47.92,135.95,200810,,,A*42
$GPRMC,234153.000,A,3300.7958,N,11716.0942,W,49.64,135.56,200810,,,A*42
$GPRMC,234156.000,A,3300.7662,N,11716.0585,W,50.95,135.31,200810,,,A*41
$GPRMC,234159.000,A,3300.7358,N,11716.0223,W,51.56,135.44,200810,,,A*45
$GPRMC,234202.000,A,3300.7053,N,11715.9861,W,51.46,135.35,200810,,,A*41
$GPRMC,234205.000,A,3300.6749,N,11715.9500,W,51.02,135.57,200810,,,A*45
$GPRMC,234208.000,A,3300.6449,N,11715.9153,W,50.07,136.23,200810,,,A*4D
$GPRMC,234211.000,A,3300.6152,N,11715.8816,W,48.72,136.42,200810,,,A*4F
$GPRMC,234214.000,A,3300.5860,N,11715.8481,W,49.16,136.20,200810,,,A*44
$GPRMC,234217.000,A,3300.5559,N,11715.8140,W,50.58,135.89,200810,,,A*4A
$GPRMC,234220.000,A,3300.5255,N,11715.7792,W,50.67,135.78,200810,,,A*41
$GPRMC,234223.000,A,3300.4949,N,11715.7443,W,50.99,135.83,200810,,,A*4F
$GPRMC,234226.000,A,3300.4639,N,11715.7091,W,51.55,136.02,200810,,,A*42
$GPRMC,234229.000,A,3300.4327,N,11715.6737,W,51.67,135.87,200810,,,A*42
$GPRMC,234232.000,A,3300.4014,N,11715.6382,W,51.96,136.39,200810,,,A*49
$GPRMC,234235.000,A,3300.3693,N,11715.6029,W,52.39,137.59,200810,,,A*43
$GPRMC,234238.000,A,3300.3359,N,11715.5697,W,52.05,142.74,200810,,,A*4F
$GPRMC,234241.000,A,3300.3005,N,11715.5407,W,50.23,147.80,200810,,,A*48
$GPRMC,234244.000,A,3300.2646,N,11715.5176,W,48.39,152.77,200810,,,A*40
$GPRMC,234247.000,A,3300.2276,N,11715.4979,W,48.14,157.15,200810,,,A*4C
$GPRMC,234250.000,A,3300.1896,N,11715.4821,W,48.04,162.26,200810,,,A*46
$GPRMC,234253.000,A,3300.1504,N,11715.4702,W,48.77,166.63,200810,,,A*4C
$GPRMC,234256.000,A,3300.1099,N,11715.4621,W,49.35,171.70,200810,,,A*4B
$GPRMC,234259.000,A,3300.0685,N,11715.4563,W,50.28,172.43,200810,,,A*4C
$GPRMC,234302.000,A,3300.0265,N,11715.4504,W,50.83,172.23,200810,,,A*4F
$GPRMC,234305.000,A,3259.9844,N,11715.4443,W,50.28,172.43,200810,,,A*40
$GPRMC,234308.000,A,3259.9433,N,11715.4385,W,49.16,172.71,200810,,,A*48
$GPRMC,234311.000,A,3259.9019,N,11715.4317,W,51.18,171.17,200810,,,A*43
$GPRMC,234314.000,A,3259.8590,N,11715.4246,W,52.46,172.49,200810,,,A*46
$GPRMC,234317.000,A,3259.8153,N,11715.4182,W,53.15,172.77,200810,,,A*4F
$GPRMC,234320.000,A,3259.7711,N,11715.4117,W,53.68,172.52,200810,,,A*45
$GPRMC,234323.000,A,3259.7265,N,11715.4047,W,54.00,172.33,200810,,,A*4A
$GPRMC,234326.000,A,3259.6817,N,11715.3977,W,54.22,172.44,200810,,,A*4C
$GPRMC,234329.000,A,3259.6365,N,11715.3907,W,54.91,172.43,200810,,,A*45
$GPRMC,234332.000,A,3259.5905,N,11715.3836,W,56.20,172.55,200810,,,A*4C
$GPRMC,234335.000,A,3259.5436,N,11715.3764,W,56.80,172.49,200810,,,A*49
$GPRMC,234338.000,A,3259.4962,N,11715.3687,W,57.58,172.16,200810,,,A*4B
$GPRMC,234341.000,A,3259.4480,N,11715.3610,W,58.61,172.22,200810,,,A*48
$GPRMC,234344.000,A,3259.3991,N,11715.3534,W,59.30,172.83,200810,,,A*4C
$GPRMC,234347.000,A,3259.3497,N,11715.3462,W,59.75,172.83,200810,,,A*47
$GPRMC,234350.000,A,3259.2999,N,11715.3384,W,60.09,172.37,200810,,,A*42
$GPRMC,234353.000,A,3259.2508,N,11715.3305,W,58.69,172.19,200810,,,A*4D
$GPRMC,234356.000,A,3259.2026,N,11715.3229,W,57.83,172.60,200810,,,A*4B
$GPRMC,234359.000,A,3259.1548,N,11715.3156,W,57.78,172.58,200810,,,A*4E
$GPRMC,234402.000,A,3259.1067,N,11715.3075,W,58.29,170.62,200810,,,A*4F
$GPRMC,234405.000,A,3259.0586,N,11715.2959,W,59.35,166.98,200810,,,A*4B
$GPRMC,234408.000,A,3259.0102,N,11715.2807,W,60.47,163.56,200810,,,A*4C
$GPRMC,234411.000,A,3258.9617,N,11715.2624,W,61.01,162.21,200810,,,A*42
$GPRMC,234414.000,A,3258.9133,N,11715.2437,W,60.72,162.21,200810,,,A*43
$GPRMC,234417.000,A,3258.8647,N,11715.2249,W,61.03,162.09,200810,,,A*47
$GPRMC,234420.000,A,3258.8164,N,11715.2063,W,60.32,162.12,200810,,,A*46
$GPRMC,234423.000,A,3258.7689,N,11715.1880,W,59.32,162.28,200810,,,A*4B
$GPRMC,234426.000,A,3258.7220,N,11715.1701,W,58.70,162.51,200810,,,A*46
$GPRMC,234429.000,A,3258.6756,N,11715.1525,W,57.70,162.46,200810,,,A*41
$GPRMC,234432.000,A,3258.6299,N,11715.1354,W,57.17,162.50,200810,,,A*4B
$GPRMC,234435.000,A,3258.5848,N,11715.1183,W,56.20,162.43,200810,,,A*46
$GPRMC,234438.000,A,3258.5405,N,11715.1016,W,54.89,162.52,200810,,,A*42
$GPRMC,234441.000,A,3258.4975,N,11715.0853,W,53.28,162.18,200810,,,A*4D
$GPRMC,234444.000,A,3258.4551,N,11715.0691,W,53.59,162.52,200810,,,A*4A
$GPRMC,234447.000,A,3258.4120,N,11715.0530,W,54.48,162.54,200810,,,A*42
$GPRMC,234450.000,A,3258.3681,N,11715.0365,W,55.54,162.36,200810,,,A*41
$GPRMC,234453.000,A,3258.3236,N,11715.0198,W,56.32,162.40,200810,,,A*48
$GPRMC,234456.000,A,3258.2788,N,11715.0028,W,56.64,162.27,200810,,,A*44
$GPRMC,234459.000,A,3258.2338,N,11714.9858,W,56.33,162.36,200810,,,A*41
$GPRMC,234502.000,A,3258.1895,N,11714.9692,W,55.24,162.57,200810,,,A*4B
$GPRMC,234505.000,A,3258.1461,N,11714.9531,W,53.88,162.61,200810,,,A*44
$GPRMC,234508.000,A,3258.1037,N,11714.9373,W,52.76,162.53,200810,,,A*4F
$GPRMC,234511.000,A,3258.0622,N,11714.9217,W,52.02,162.33,200810,,,A*42
$GPRMC,234514.000,A,3258.0210,N,11714.9062,W,51.85,162.29,200810,,,A*45
$GPRMC,234517.000,A,3257.9800,N,11714.8907,W,51.50,162.30,200810,,,A*40
$GPRMC,234520.000,A,3257.9393,N,11714.8755,W,51.38,162.48,200810,,,A*4D
$GPRMC,234523.000,A,3257.8979,N,11714.8599,W,52.55,162.16,200810,,,A*40
$GPRMC,234526.000,A,3257.8559,N,11714.8439,W,53.01,162.16,200810,,,A*40
$GPRMC,234529.000,A,3257.8136,N,11714.8280,W,53.45,162.41,200810,,,A*44
$GPRMC,234532.000,A,3257.7709,N,11714.8120,W,53.96,162.26,200810,,,A*4D
$GPRMC,234535.000,A,3257.7278,N,11714.7958,W,54.29,162.34,200810,,,A*41
$GPRMC,234538.000,A,3257.6849,N,11714.7798,W,53.66,162.93,200810,,,A*46
$GPRMC,234541.000,A,3257.6419,N,11714.7652,W,53.80,164.71,200810,,,A*44
$GPRMC,234544.000,A,3257.5981,N,11714.7522,W,54.62,166.89,200810,,,A*44
$GPRMC,234547.000,A,3257.5530,N,11714.7405,W,55.55,168.05,200810,,,A*4A
$GPRMC,234550.000,A,3257.5070,N,11714.7295,W,55.98,169.26,200810,,,A*43
$GPRMC,234553.000,A,3257.4608,N,11714.7202,W,55.98,171.06,200810,,,A*4D
$GPRMC,234556.000,A,3257.4143,N,11714.7121,W,56.07,171.35,200810,,,A*47
$GPRMC,234559.000,A,3257.3681,N,11714.7036,W,55.72,170.73,200810,,,A*43
$GPRMC,234602.000,A,3257.3221,N,11714.6949,W,55.39,170.68,200810,,,A*45
$GPRMC,234605.000,A,3257.2764,N,11714.6867,W,55.15,171.19,200810,,,A*43
$GPRMC,234608.000,A,3257.2308,N,11714.6786,W,54.90,170.93,200810,,,A*4F
$GPRMC,234611.000,A,3257.1856,N,11714.6704,W,54.41,171.05,200810,,,A*4C
$GPRMC,234614.000,A,3257.1419,N,11714.6624,W,51.27,170.77,200810,,,A*4C
$GPRMC,234617.000,A,3257.1010,N,11714.6548,W,48.48,170.86,200810,,,A*44
$GPRMC,234620.000,A,3257.0616,N,11714.6476,W,47.18,170.77,200810,,,A*49
$GPRMC,234623.000,A,3257.0231,N,11714.6406,W,46.30,170.83,200810,,,A*4C
$GPRMC,234626.000,A,3256.9850,N,11714.6330,W,47.17,169.96,200810,,,A*46
$GPRMC,234629.000,A,3256.9457,N,11714.6248,W,48.94,170.43,200810,,,A*48
$GPRMC,234632.000,A,3256.9048,N,11714.6169,W,50.62,170.47,200810,,,A*4C
$GPRMC,234635.000,A,3256.8620,N,11714.6089,W,53.38,170.72,200810,,,A*47
$GPRMC,234638.000,A,3256.8168,N,11714.6007,W,56.26,171.15,200810,,,A*4D
$GPRMC,234641.000,A,3256.7690,N,11714.5920,W,58.78,170.85,200810,,,A*4E
$GPRMC,234644.000,A,3256.7208,N,11714.5830,W,58.06,171.11,200810,,,A*4B
$GPRMC,234647.000,A,3256.6722,N,11714.5741,W,59.23,171.13,200810,,,A*49
$GPRMC,234650.000,A,3256.6232,N,11714.5652,W,59.80,171.03,200810,,,A*40
$GPRMC,234653.000,A,3256.5738,N,11714.5562,W,59.72,171.43,200810,,,A*46
$GPRMC,234656.000,A,3256.5243,N,11714.5476,W,59.62,171.59,200810,,,A*44
$GPRMC,234659.000,A,3256.4755,N,11714.5389,W,58.62,171.19,200810,,,A*4A
$GPRMC,234702.000,A,3256.4273,N,11714.5302,W,57.96,171.36,200810,,,A*4E
$GPRMC,234705.000,A,3256.3791,N,11714.5222,W,58.64,172.77,200810,,,A*40
$GPRMC,234708.000,A,3256.3300,N,11714.5158,W,59.34,174.58,200810,,,A*40
$GPRMC,234711.000,A,3256.2802,N,11714.5114,W,59.92,176.06,200810,,,A*4D
$GPRMC,234714.000,A,3256.2305,N,11714.5083,W,59.48,177.10,200810,,,A*4A
$GPRMC,234717.000,A,3256.1807,N,11714.5049,W,59.75,176.32,200810,,,A*4A
$GPRMC,234720.000,A,3256.1310,N,11714.5012,W,59.39,176.56,200810,,,A*47
$GPRMC,234723.000,A,3256.0814,N,11714.4979,W,59.26,176.66,200810,,,A*42
$GPRMC,234726.000,A,3256.0323,N,11714.4942,W,58.66,176.02,200810,,,A*47
$GPRMC,234729.000,A,3255.9836,N,11714.4897,W,58.90,174.94,200810,,,A*40
$GPRMC,234732.000,A,3255.9343,N,11714.4846,W,59.07,174.73,200810,,,A*49
$GPRMC,234735.000,A,3255.8857,N,11714.4781,W,58.12,172.81,200810,,,A*4B
$GPRMC,234738.000,A,3255.8372,N,11714.4701,W,58.96,171.19,200810,,,A*4C
$GPRMC,234741.000,A,3255.7892,N,11714.4595,W,58.57,169.62,200810,,,A*4F
$GPRMC,234744.000,A,3255.7421,N,11714.4479,W,57.11,168.19,200810,,,A*4D
$GPRMC,234747.000,A,3255.6960,N,11714.4350,W,56.75,166.29,200810,,,A*45
$GPRMC,234750.000,A,3255.6492,N,11714.4188,W,57.09,164.95,200810,,,A*4B
$GPRMC,234753.000,A,3255.6028,N,11714.4028,W,57.40,164.53,200810,,,A*41
$GPRMC,234756.000,A,3255.5565,N,11714.3870,W,57.15,164.19,200810,,,A*47
$GPRMC,234759.000,A,3255.5103,N,11714.3710,W,57.83,163.93,200810,,,A*4F
$GPRMC,234802.000,A,3255.4633,N,11714.3553,W,58.44,164.67,200810,,,A*46
$GPRMC,234805.000,A,3255.4162,N,11714.3393,W,59.32,163.28,200810,,,A*44
$GPRMC,234808.000,A,3255.3694,N,11714.3206,W,59.83,160.13,200810,,,A*4C
$GPRMC,234811.000,A,3255.3226,N,11714.2985,W,60.60,156.39,200810,,,A*42
$GPRMC,234814.000,A,3255.2768,N,11714.2720,W,60.88,152.52,200810,,,A*47
$GPRMC,234817.000,A,3255.2333,N,11714.2428,W,59.26,149.18,200810,,,A*4F
$GPRMC,234820.000,A,3255.1918,N,11714.2111,W,59.94,145.83,200810,,,A*43
$GPRMC,234823.000,A,3255.1510,N,11714.1754,W,61.03,142.13,200810,,,A*4B
$GPRMC,234826.000,A,3255.1119,N,11714.1357,W,61.65,138.61,200810,,,A*4C
$GPRMC,234829.000,A,3255.0753,N,11714.0946,W,59.86,135.32,200810,,,A*4C
$GPRMC,234832.000,A,3255.0416,N,11714.0519,W,58.65,131.77,200810,,,A*4B
$GPRMC,234835.000,A,3255.0102,N,11714.0087,W,57.24,130.15,200810,,,A*41
$GPRMC,234838.000,A,3254.9790,N,11713.9654,W,58.30,130.26,200810,,,A*45
$GPRMC,234841.000,A,3254.9473,N,11713.9219,W,58.05,131.95,200810,,,A*47
$GPRMC,234844.000,A,3254.9133,N,11713.8813,W,57.84,137.72,200810,,,A*4B
$GPRMC,234847.000,A,3254.8762,N,11713.8446,W,58.02,143.25,200810,,,A*47
$GPRMC,234850.000,A,3254.8356,N,11713.8131,W,58.06,149.03,200810,,,A*4D
$GPRMC,234853.000,A,3254.7928,N,11713.7861,W,57.93,152.34,200810,,,A*4C
$GPRMC,234856.000,A,3254.7501,N,11713.7600,W,56.80,152.30,200810,,,A*40
$GPRMC,234859.000,A,3254.7095,N,11713.7349,W,52.11,152.21,200810,,,A*43
$GPRMC,234902.000,A,3254.6741,N,11713.7128,W,45.38,152.05,200810,,,A*4D
$GPRMC,234905.000,A,3254.6420,N,11713.6930,W,41.21,152.46,200810,,,A*45
$GPRMC,234908.000,A,3254.6128,N,11713.6749,W,37.50,152.25,200810,,,A*47
$GPRMC,234911.000,A,3254.5849,N,11713.6584,W,36.66,153.54,200810,,,A*42
$GPRMC,234914.000,A,3254.5579,N,11713.6423,W,35.76,152.49,200810,,,A*4A
$GPRMC,234917.000,A,3254.5313,N,11713.6260,W,35.86,152.24,200810,,,A*46
$GPRMC,234920.000,A,3254.5046,N,11713.6094,W,36.23,152.15,200810,,,A*46
$GPRMC,234923.000,A,3254.4778,N,11713.5930,W,35.23,152.34,200810,,,A*4A
$GPRMC,234926.000,A,3254.4531,N,11713.5777,W,31.10,151.98,200810,,,A*4C
$GPRMC,234929.000,A,3254.4319,N,11713.5655,W,28.34,156.32,200810,,,A*47
$GPRMC,234932.000,A,3254.4100,N,11713.5549,W,30.12,157.71,200810,,,A*42
$GPRMC,234935.000,A,3254.3865,N,11713.5437,W,31.17,156.86,200810,,,A*4D
$GPRMC,234938.000,A,3254.3627,N,11713.5314,W,31.27,155.51,200810,,,A*44
$GPRMC,234941.000,A,3254.3421,N,11713.5210,W,21.94,158.05,200810,,,A*4E
$GPRMC,234944.000,A,3254.3311,N,11713.5161,W,13.63,156.04,200810,,,A*4C
$GPRMC,234947.000,A,3254.3213,N,11713.5120,W,13.19,159.88,200810,,,A*4F
$GPRMC,234950.000,A,3254.3118,N,11713.5086,W,12.10,161.37,200810,,,A*4B
$GPRMC,234953.000,A,3254.3022,N,11713.5051,W,13.48,161.38,200810,,,A*49
$GPRMC,234956.000,A,3254.2919,N,11713.5014,W,12.35,161.59,200810,,,A*41
$GPRMC,234959.000,A,3254.2829,N,11713.4978,W,11.71,163.90,200810,,,A*4A
$GPRMC,235002.000,A,3254.2728,N,11713.4934,W,14.58,162.48,200810,,,A*40
$GPRMC,235005.000,A,3254.2615,N,11713.4883,W,14.65,166.46,200810,,,A*41
$GPRMC,235008.000,A,3254.2502,N,11713.4848,W,13.78,165.93,200810,,,A*4E
$GPRMC,235011.000,A,3254.2382,N,11713.4819,W,13.93,167.18,200810,,,A*48
$GPRMC,235014.000,A,3254.2278,N,11713.4802,W,12.66,170.18,200810,,,A*4E
$GPRMC,235017.000,A,3254.2182,N,11713.4792,W,12.49,170.49,200810,,,A*44
$GPRMC,235020.000,A,3254.2083,N,11713.4776,W,12.67,172.27,200810,,,A*4C
$GPRMC,235023.000,A,3254.1972,N,11713.4765,W,14.46,173.56,200810,,,A*4B
$GPRMC,235026.000,A,3254.1851,N,11713.4751,W,15.40,175.02,200810,,,A*49
$GPRMC,235029.000,A,3254.1725,N,11713.4742,W,14.77,175.76,200810,,,A*4E
$GPRMC,235032.000,A,3254.1608,N,11713.4737,W,12.95,177.69,200810,,,A*4E
$GPRMC,235035.000,A,3254.1514,N,11713.4734,W,9.51,178.23,200810,,,A*77
$GPRMC,235038.000,A,3254.1440,N,11713.4732,W,9.61,178.67,200810,,,A*7F
$GPRMC,235041.000,A,3254.1359,N,11713.4731,W,10.54,179.00,200810,,,A*43
$GPRMC,235044.000,A,3254.1264,N,11713.4728,W,11.14,180.56,200810,,,A*41
$GPRMC,235047.000,A,3254.1176,N,11713.4726,W,9.11,181.95,200810,,,A*7E
$GPRMC,235050.000,A,3254.1104,N,11713.4727,W,8.66,182.79,200810,,,A*7C
$GPRMC,235053.000,A,3254.1033,N,11713.4728,W,8.12,184.57,200810,,,A*7C
$GPRMC,235056.000,A,3254.0975,N,11713.4731,W,6.56,185.25,200810,,,A*71
$GPRMC,235059.000,A,3254.0919,N,11713.4734,W,7.64,184.41,200810,,,A*72
$GPRMC,235102.000,A,3254.0836,N,11713.4739,W,11.31,185.54,200810,,,A*4E
$GPRMC,235105.000,A,3254.0743,N,11713.4753,W,10.77,187.07,200810,,,A*4F
$GPRMC,235108.000,A,3254.0653,N,11713.4769,W,10.57,188.26,200810,,,A*45
$GPRMC,235111.000,A,3254.0569,N,11713.4785,W,10.06,188.96,200810,,,A*4A
$GPRMC,235114.000,A,3254.0485,N,11713.4802,W,10.67,189.19,200810,,,A*4D
$GPRMC,235117.000,A,3254.0376,N,11713.4825,W,15.14,190.15,200810,,,A*45
$GPRMC,235120.000,A,3254.0246,N,11713.4855,W,14.98,192.10,200810,,,A*46
$GPRMC,235123.000,A,3254.0133,N,11713.4887,W,12.71,193.40,200810,,,A*4E
$GPRMC,235126.000,A,3254.0032,N,11713.4915,W,11.54,195.00,200810,,,A*47
$GPRMC,235129.000,A,3253.9941,N,11713.4943,W,9.96,196.16,200810,,,A*7B
$GPRMC,235132.000,A,3253.9866,N,11713.4970,W,8.84,196.45,200810,,,A*71
$GPRMC,235135.000,A,3253.9789,N,11713.4998,W,10.41,197.33,200810,,,A*4E
$GPRMC,235138.000,A,3253.9704,N,11713.5031,W,10.60,197.79,200810,,,A*40
$GPRMC,235141.000,A,3253.9610,N,11713.5066,W,13.25,197.24,200810,,,A*42
$GPRMC,235144.000,A,3253.9499,N,11713.5107,W,13.88,197.19,200810,,,A*4B
$GPRMC,235147.000,A,3253.9384,N,11713.5150,W,14.52,197.77,200810,,,A*49
$GPRMC,235150.000,A,3253.9274,N,11713.5193,W,13.04,198.07,200810,,,A*42
$GPRMC,235153.000,A,3253.9177,N,11713.5229,W,11.33,197.40,200810,,,A*49
$GPRMC,235156.000,A,3253.9096,N,11713.5260,W,9.75,197.64,200810,,,A*72
$GPRMC,235159.000,A,3253.9014,N,11713.5290,W,11.57,197.93,200810,,,A*49
$GPRMC,235202.000,A,3253.8905,N,11713.5332,W,15.51,197.91,200810,,,A*45
$GPRMC,235205.000,A,3253.8779,N,11713.5380,W,15.93,198.15,200810,,,A*43
$GPRMC,235208.000,A,3253.8658,N,11713.5428,W,14.19,198.13,200810,,,A*4C
$GPRMC,235211.000,A,3253.8553,N,11713.5467,W,12.74,197.73,200810,,,A*43
$GPRMC,235214.000,A,3253.8451,N,11713.5504,W,12.77,197.91,200810,,,A*4E
$GPRMC,235217.000,A,3253.8347,N,11713.5541,W,13.73,198.17,200810,,,A*48
$GPRMC,235220.000,A,3253.8239,N,11713.5582,W,14.44,199.17,200810,,,A*49
$GPRMC,235223.000,A,3253.8124,N,11713.5631,W,15.08,201.21,200810,,,A*40
$GPRMC,235226.000,A,3253.8003,N,11713.5684,W,15.59,199.98,200810,,,A*4B
$GPRMC,235229.000,A,3253.7880,N,11713.5729,W,14.88,198.69,200810,,,A*4C
$GPRMC,235232.000,A,3253.7762,N,11713.5772,W,14.60,198.55,200810,,,A*42
$GPRMC,235235.000,A,3253.7649,N,11713.5820,W,14.28,198.41,200810,,,A*4C
$GPRMC,235238.000,A,3253.7538,N,11713.5861,W,13.08,197.48,200810,,,A*42
$GPRMC,235241.000,A,3253.7436,N,11713.5900,W,13.67,199.90,200810,,,A*47
$GPRMC,235244.000,A,3253.7315,N,11713.5955,W,16.22,202.16,200810,,,A*4F
$GPRMC,235247.000,A,3253.7194,N,11713.6006,W,14.12,198.51,200810,,,A*49
$GPRMC,235250.000,A,3253.7111,N,11713.6037,W,7.11,198.80,200810,,,A*7D
$GPRMC,235302.000,A,3253.6981,N,11713.6093,W,8.81,197.92,200810,,,A*7F
$GPRMC,235305.000,A,3253.6895,N,11713.6124,W,12.63,196.91,200810,,,A*44
$GPRMC,235308.000,A,3253.6774,N,11713.6164,W,16.14,196.23,200810,,,A*40
$GPRMC,235311.000,A,3253.6642,N,11713.6207,W,16.68,195.44,200810,,,A*43
$GPRMC,235314.000,A,3253.6509,N,11713.6251,W,16.32,194.47,200810,,,A*44
$GPRMC,235317.000,A,3253.6381,N,11713.6290,W,16.55,192.66,200810,,,A*48
$GPRMC,235320.000,A,3253.6244,N,11713.6327,W,17.53,191.91,200810,,,A*45
$GPRMC,235323.000,A,3253.6103,N,11713.6359,W,16.56,190.07,200810,,,A*45
$GPRMC,235326.000,A,3253.5970,N,11713.6383,W,15.31,188.68,200810,,,A*4A
$GPRMC,235329.000,A,3253.5852,N,11713.6404,W,13.45,187.87,200810,,,A*47
$GPRMC,235332.000,A,3253.5747,N,11713.6418,W,11.27,187.07,200810,,,A*45
$GPRMC,235335.000,A,3253.5666,N,11713.6431,W,9.77,186.88,200810,,,A*71
$GPRMC,235338.000,A,3253.5590,N,11713.6440,W,8.41,185.97,200810,,,A*79
$GPRMC,235341.000,A,3253.5527,N,11713.6445,W,7.55,185.33,200810,,,A*7A
$GPRMC,235344.000,A,3253.5440,N,11713.6454,W,13.08,185.48,200810,,,A*4E
$GPRMC,235347.000,A,3253.5309,N,11713.6468,W,17.40,185.28,200810,,,A*46
$GPRMC,235350.000,A,3253.5155,N,11713.6485,W,18.74,185.13,200810,,,A*48
$GPRMC,235353.000,A,3253.5002,N,11713.6501,W,17.11,185.10,200810,,,A*4A
$GPRMC,235356.000,A,3253.4868,N,11713.6514,W,14.82,184.14,200810,,,A*42
$GPRMC,235359.000,A,3253.4759,N,11713.6525,W,11.92,184.72,200810,,,A*46
$GPRMC,235402.000,A,3253.4665,N,11713.6533,W,11.33,185.07,200810,,,A*4E
$GPRMC,235405.000,A,3253.4568,N,11713.6545,W,11.90,186.46,200810,,,A*49
$GPRMC,235408.000,A,3253.4457,N,11713.6556,W,14.86,185.69,200810,,,A*47
$GPRMC,235411.000,A,3253.4307,N,11713.6574,W,20.36,185.86,200810,,,A*40
$GPRMC,235414.000,A,3253.4134,N,11713.6589,W,20.40,185.15,200810,,,A*4E
$GPRMC,235417.000,A,3253.3965,N,11713.6609,W,19.92,185.99,200810,,,A*4C
$GPRMC,235420.000,A,3253.3810,N,11713.6628,W,17.49,185.99,200810,,,A*40
$GPRMC,235423.000,A,3253.3677,N,11713.6644,W,14.62,184.66,200810,,,A*4D
$GPRMC,235426.000,A,3253.3579,N,11713.6655,W,9.00,185.57,200810,,,A*7E
$GPRMC,235429.000,A,3253.3524,N,11713.6661,W,5.24,186.12,200810,,,A*76
$GPRMC,235432.000,A,3253.3479,N,11713.6667,W,7.83,185.54,200810,,,A*7D
$GPRMC,235435.000,A,3253.3398,N,11713.6677,W,11.30,185.03,200810,,,A*4E
$GPRMC,235438.000,A,3253.3284,N,11713.6692,W,14.77,185.88,200810,,,A*41
$GPRMC,235441.000,A,3253.3165,N,11713.6706,W,13.82,185.21,200810,,,A*41
$GPRMC,235444.000,A,3253.3058,N,11713.6717,W,10.54,184.77,200810,,,A*41
$GPRMC,235447.000,A,3253.2985,N,11713.6720,W,5.95,185.48,200810,,,A*7A
$GPRMC,235453.000,A,3253.2904,N,11713.6723,W,5.00,184.95,200810,,,A*78
$GPRMC,235456.000,A,3253.2851,N,11713.6728,W,10.15,186.23,200810,,,A*48
$GPRMC,235459.000,A,3253.2740,N,11713.6739,W,14.17,185.25,200810,,,A*4B
$GPRMC,235502.000,A,3253.2625,N,11713.6750,W,12.34,184.49,200810,,,A*45
$GPRMC,235505.000,A,3253.2529,N,11713.6754,W,10.20,184.03,200810,,,A*40
$GPRMC,235508.000,A,3253.2442,N,11713.6755,W,9.16,183.53,200810,,,A*7F
$GPRMC,235511.000,A,3253.2360,N,11713.6760,W,10.20,187.67,200810,,,A*48
$GPRMC,235514.000,A,3253.2285,N,11713.6779,W,9.89,198.84,200810,,,A*77
$GPRMC,235517.000,A,3253.2180,N,11713.6790,W,12.37,183.07,200810,,,A*4B
$GPRMC,235520.000,A,3253.2066,N,11713.6800,W,12.19,185.29,200810,,,A*46
$GPRMC,235523.000,A,3253.1968,N,11713.6813,W,11.14,184.45,200810,,,A*46
$GPRMC,235526.000,A,3253.1866,N,11713.6827,W,13.06,184.96,200810,,,A*44
$GPRMC,235529.000,A,3253.1749,N,11713.6843,W,14.32,185.09,200810,,,A*4C
$GPRMC,235532.000,A,3253.1641,N,11713.6858,W,11.87,184.48,200810,,,A*4A
$GPRMC,235535.000,A,3253.1553,N,11713.6869,W,9.36,186.21,200810,,,A*71
$GPRMC,235538.000,A,3253.1484,N,11713.6878,W,7.70,185.93,200810,,,A*71
$GPRMC,235541.000,A,3253.1416,N,11713.6884,W,7.76,183.34,200810,,,A*7A
$GPRMC,235544.000,A,3253.1359,N,11713.6888,W,5.54,184.90,200810,,,A*74
$GPRMC,235547.000,A,3253.1318,N,11713.6889,W,4.94,178.69,200810,,,A*7B
$GPRMC,235553.000,A,3253.1251,N,11713.6882,W,5.42,183.21,200810,,,A*7B
$GPRMC,235556.000,A,3253.1181,N,11713.6888,W,9.99,184.55,200810,,,A*74
$GPRMC,235559.000,A,3253.1105,N,11713.6898,W,8.79,186.55,200810,,,A*7B
$GPRMC,235602.000,A,3253.1029,N,11713.6908,W,9.21,186.58,200810,,,A*70
$GPRMC,235605.000,A,3253.0955,N,11713.6919,W,7.91,186.66,200810,,,A*7C
$GPRMC,235608.000,A,3253.0886,N,11713.6919,W,4.96,186.79,200810,,,A*74
$GPRMC,235629.000,A,3253.0668,N,11713.6927,W,6.06,186.20,200810,,,A*73
$GPRMC,235632.000,A,3253.0603,N,11713.6938,W,10.17,187.24,200810,,,A*48
$GPRMC,235635.000,A,3253.0490,N,11713.6949,W,15.32,185.26,200810,,,A*43
$GPRMC,235638.000,A,3253.0343,N,11713.6966,W,20.48,185.52,200810,,,A*42
$GPRMC,235641.000,A,3253.0156,N,11713.6987,W,23.19,184.58,200810,,,A*49
$GPRMC,235644.000,A,3252.9954,N,11713.7006,W,23.37,184.84,200810,,,A*42
$GPRMC,235647.000,A,3252.9761,N,11713.7024,W,22.09,184.42,200810,,,A*4F
$GPRMC,235650.000,A,3252.9575,N,11713.7043,W,22.48,184.70,200810,,,A*4B
$GPRMC,235653.000,A,3252.9393,N,11713.7065,W,21.64,184.78,200810,,,A*47
$GPRMC,235656.000,A,3252.9210,N,11713.7089,W,23.30,185.71,200810,,,A*41
$GPRMC,235659.000,A,3252.9011,N,11713.7110,W,23.18,185.02,200810,,,A*42
$GPRMC,235702.000,A,3252.8824,N,11713.7128,W,21.54,185.07,200810,,,A*46
$GPRMC,235705.000,A,3252.8657,N,11713.7144,W,18.33,184.40,200810,,,A*48
$GPRMC,235708.000,A,3252.8511,N,11713.7155,W,15.68,184.04,200810,,,A*47
$GPRMC,235711.000,A,3252.8379,N,11713.7166,W,17.62,185.31,200810,,,A*48
$GPRMC,235714.000,A,3252.8204,N,11713.7187,W,23.87,185.11,200810,,,A*47
$GPRMC,235717.000,A,3252.7997,N,11713.7211,W,24.40,184.87,200810,,,A*44
$GPRMC,235720.000,A,3252.7795,N,11713.7235,W,23.65,185.12,200810,,,A*47
$GPRMC,235723.000,A,3252.7599,N,11713.7259,W,23.24,184.79,200810,,,A*49
$GPRMC,235726.000,A,3252.7394,N,11713.7277,W,24.56,185.36,200810,,,A*43
$GPRMC,235729.000,A,3252.7164,N,11713.7294,W,29.04,184.95,200810,,,A*4E
$GPRMC,235732.000,A,3252.6899,N,11713.7319,W,31.01,184.68,200810,,,A*44
$GPRMC,235735.000,A,3252.6626,N,11713.7348,W,34.67,184.73,200810,,,A*42
$GPRMC,235738.000,A,3252.6320,N,11713.7374,W,36.98,184.99,200810,,,A*45
$GPRMC,235741.000,A,3252.6007,N,11713.7409,W,37.96,184.56,200810,,,A*4C
$GPRMC,235744.000,A,3252.5685,N,11713.7432,W,37.88,184.34,200810,,,A*45
$GPRMC,235747.000,A,3252.5369,N,11713.7476,W,37.83,188.94,200810,,,A*4C
$GPRMC,235750.000,A,3252.5052,N,11713.7537,W,37.92,189.48,200810,,,A*45
$GPRMC,235753.000,A,3252.4738,N,11713.7598,W,37.74,189.19,200810,,,A*45
$GPRMC,235756.000,A,3252.4431,N,11713.7664,W,37.01,194.76,200810,,,A*4D
$GPRMC,235759.000,A,3252.4147,N,11713.7831,W,36.21,214.35,200810,,,A*47
$GPRMC,235802.000,A,3252.3926,N,11713.8075,W,35.49,226.46,200810,,,A*41
$GPRMC,235805.000,A,3252.3746,N,11713.8330,W,31.86,225.82,200810,,,A*40
$GPRMC,235808.000,A,3252.3545,N,11713.8496,W,28.00,201.98,200810,,,A*4C
$GPRMC,235811.000,A,3252.3338,N,11713.8531,W,22.91,178.05,200810,,,A*4F
$GPRMC,235814.000,A,3252.3216,N,11713.8490,W,10.03,166.89,200810,,,A*4C
$GPRMC,235829.000,A,3252.3111,N,11713.8566,W,16.87,240.46,200810,,,A*40
$GPRMC,235832.000,A,3252.3077,N,11713.8789,W,24.64,262.76,200810,,,A*47
$GPRMC,235835.000,A,3252.3070,N,11713.9046,W,25.57,266.41,200810,,,A*43
$GPRMC,235838.000,A,3252.3070,N,11713.9303,W,26.02,269.19,200810,,,A*4D
$GPRMC,235841.000,A,3252.3074,N,11713.9566,W,27.24,270.00,200810,,,A*47
$GPRMC,235844.000,A,3252.3077,N,11713.9855,W,30.16,269.77,200810,,,A*43
$GPRMC,235847.000,A,3252.3080,N,11714.0176,W,33.36,270.19,200810,,,A*4F
$GPRMC,235850.000,A,3252.3084,N,11714.0524,W,35.76,270.99,200810,,,A*44
$GPRMC,235853.000,A,3252.3089,N,11714.0890,W,36.47,268.75,200810,,,A*42
$GPRMC,235856.000,A,3252.3096,N,11714.1254,W,35.93,270.75,200810,,,A*49
$GPRMC,235859.000,A,3252.3106,N,11714.1603,W,35.78,271.18,200810,,,A*47
$GPRMC,235902.000,A,3252.3123,N,11714.1947,W,36.10,271.59,200810,,,A*48
$GPRMC,235905.000,A,3252.3129,N,11714.2308,W,38.18,268.22,200810,,,A*45
$GPRMC,235908.000,A,3252.3105,N,11714.2699,W,39.31,263.33,200810,,,A*4A
$GPRMC,235911.000,A,3252.3034,N,11714.3078,W,38.85,252.29,200810,,,A*4E
$GPRMC,235914.000,A,3252.2900,N,11714.3433,W,39.94,241.40,200810,,,A*43
$GPRMC,235917.000,A,3252.2724,N,11714.3766,W,38.47,235.30,200810,,,A*40
$GPRMC,235920.000,A,3252.2539,N,11714.4050,W,34.24,230.45,200810,,,A*41
$GPRMC,235923.000,A,3252.2357,N,11714.4287,W,30.76,227.44,200810,,,A*40
$GPRMC,235926.000,A,3252.2212,N,11714.4500,W,25.35,238.37,200810,,,A*44
$GPRMC,235929.000,A,3252.2131,N,11714.4701,W,21.68,246.88,200810,,,A*4B
$GPRMC,235932.000,A,3252.2078,N,11714.4905,W,22.49,259.96,200810,,,A*46
$GPRMC,235935.000,A,3252.2071,N,11714.5132,W,25.53,274.86,200810,,,A*47
$GPRMC,235938.000,A,3252.2108,N,11714.5347,W,18.36,278.74,200810,,,A*49
$GPRMC,235941.000,A,3252.2066,N,11714.5462,W,15.73,237.41,200810,,,A*4F
$GPRMC,235944.000,A,3252.1880,N,11714.5496,W,25.02,190.49,200810,,,A*41
$GPRMC,235947.000,A,3252.1653,N,11714.5538,W,27.70,190.43,200810,,,A*4A
$GPRMC,235950.000,A,3252.1408,N,11714.5579,W,28.54,190.55,200810,,,A*4B
$GPRMC,235953.000,A,3252.1163,N,11714.5630,W,29.53,190.19,200810,,,A*40
$GPRMC,235956.000,A,3252.0919,N,11714.5685,W,29.42,190.47,200810,,,A*44
$GPRMC,235959.000,A,3252.0677,N,11714.5736,W,28.42,190.19,200810,,,A*4F
$GPRMC,000002.000,A,3252.0470,N,11714.5783,W,21.72,191.35,210810,,,A*43
$GPRMC,000005.000,A,3252.0325,N,11714.5823,W,14.59,192.25,210810,,,A*4B
$GPRMC,000008.000,A,3252.0247,N,11714.5841,W,6.50,186.83,210810,,,A*74
$GPRMC,000014.000,A,3252.0145,N,11714.5886,W,13.65,196.32,210810,,,A*4A
$GPRMC,000017.000,A,3252.0012,N,11714.5920,W,17.08,192.03,210810,,,A*4E
$GPRMC,000020.000,A,3251.9869,N,11714.5946,W,16.93,191.73,210810,,,A*43
$GPRMC,000023.000,A,3251.9704,N,11714.5987,W,22.52,191.64,210810,,,A*45
$GPRMC,000026.000,A,3251.9487,N,11714.6036,W,28.63,188.93,210810,,,A*40
$GPRMC,000029.000,A,3251.9217,N,11714.6070,W,33.60,184.54,210810,,,A*4C
$GPRMC,000032.000,A,3251.8907,N,11714.6071,W,36.49,178.92,210810,,,A*4B
$GPRMC,000035.000,A,3251.8594,N,11714.6043,W,37.75,174.00,210810,,,A*42
$GPRMC,000038.000,A,3251.8272,N,11714.5979,W,38.70,170.14,210810,,,A*48
$GPRMC,000041.000,A,3251.7936,N,11714.5896,W,42.05,169.68,210810,,,A*4E
$GPRMC,000044.000,A,3251.7589,N,11714.5827,W,40.15,169.90,210810,,,A*4D
$GPRMC,000047.000,A,3251.7279,N,11714.5776,W,36.09,176.06,210810,,,A*40
$GPRMC,000050.000,A,3251.6977,N,11714.5817,W,36.97,193.34,210810,,,A*47
$GPRMC,000053.000,A,3251.6695,N,11714.6043,W,38.31,218.41,210810,,,A*4D
$GPRMC,000056.000,A,3251.6490,N,11714.6340,W,40.58,236.62,210810,,,A*42
$GPRMC,000059.000,A,3251.6420,N,11714.6747,W,40.58,260.83,210810,,,A*49
$GPRMC,000102.000,A,3251.6389,N,11714.7148,W,38.64,259.66,210810,,,A*4B
$GPRMC,000105.000,A,3251.6287,N,11714.7494,W,35.69,244.13,210810,,,A*49
$GPRMC,000108.000,A,3251.6083,N,11714.7760,W,35.96,221.48,210810,,,A*47
$GPRMC,000111.000,A,3251.5807,N,11714.7918,W,35.37,198.43,210810,,,A*48
$GPRMC,000114.000,A,3251.5487,N,11714.7958,W,37.29,182.21,210810,,,A*4F
$GPRMC,000117.000,A,3251.5172,N,11714.7936,W,38.12,172.51,210810,,,A*44
$GPRMC,000120.000,A,3251.4872,N,11714.7836,W,37.76,162.09,210810,,,A*48
$GPRMC,000123.000,A,3251.4564,N,11714.7694,W,38.94,160.49,210810,,,A*42
