NMEA Sentence Code,UTC Time,Status,Latitude,Latitude Direction,Longitude,Longitude Direction,Speed (knots),Track Angle (degrees true),Date,MagneticVariation,Magnetic Variation Direction,[FAA Mode]-Optional,Checksum
$GPRMC,215130.4,A,3314.4294,N,11724.8329,W,68.50,131.30,261210,,*23
$GPRMC,215134.4,A,3314.3852,N,11724.7602,W,67.60,124.90,261210,,*21
$GPRMC,215138.4,A,3314.3424,N,11724.6868,W,67.00,124.80,261210,,*24
$GPRMC,215142.4,A,3314.2994,N,11724.6142,W,66.70,125.60,261210,,*26
$GPRMC,215146.4,A,3314.2531,N,11724.5460,W,65.00,133.10,261210,,*23
$GPRMC,215150.4,A,3314.2032,N,11724.4877,W,62.30,136.70,261210,,*2E
$GPRMC,215154.4,A,3314.1527,N,11724.4315,W,61.80,136.90,261210,,*21
$GPRMC,215158.4,A,3314.1022,N,11724.3742,W,62.90,136.70,261210,,*20
$GPRMC,215202.4,A,3314.0510,N,11724.3172,W,63.30,136.60,261210,,*26
$GPRMC,215206.4,A,3313.9998,N,11724.2600,W,63.80,136.80,261210,,*26
$GPRMC,215210.4,A,3313.9473,N,11724.2010,W,65.70,136.70,261210,,*28
$GPRMC,215214.4,A,3313.8944,N,11724.1412,W,65.50,136.90,261210,,*2D
$GPRMC,215218.4,A,3313.8408,N,11724.0820,W,66.30,136.90,261210,,*2D
$GPRMC,215222.4,A,3313.7868,N,11724.0220,W,66.60,137.10,261210,,*27
$GPRMC,215226.4,A,3313.7329,N,11723.9624,W,65.90,137.00,261210,,*2E
$GPRMC,215230.4,A,3313.6789,N,11723.9031,W,66.00,137.20,261210,,*2C
$GPRMC,215234.4,A,3313.6256,N,11723.8439,W,65.00,136.90,261210,,*2B
$GPRMC,215238.4,A,3313.5732,N,11723.7853,W,64.90,137.00,261210,,*2C
$GPRMC,215242.4,A,3313.5207,N,11723.7268,W,64.50,137.40,261210,,*28
$GPRMC,215246.4,A,3313.4678,N,11723.6689,W,64.00,136.70,261210,,*2C
$GPRMC,215250.4,A,3313.4147,N,11723.6105,W,65.20,138.90,261210,,*20
$GPRMC,215254.4,A,3313.3558,N,11723.5590,W,66.10,149.20,261210,,*2F
$GPRMC,215258.4,A,3313.2896,N,11723.5206,W,66.90,158.80,261210,,*27
$GPRMC,215302.4,A,3313.2184,N,11723.4966,W,66.10,165.90,261210,,*28
$GPRMC,215306.4,A,3313.1464,N,11723.4756,W,66.60,165.70,261210,,*20
$GPRMC,215310.4,A,3313.0749,N,11723.4547,W,66.20,165.80,261210,,*23
$GPRMC,215314.4,A,3313.0037,N,11723.4330,W,65.90,166.00,261210,,*2C
$GPRMC,215318.4,A,3312.9331,N,11723.4120,W,65.30,165.60,261210,,*21
$GPRMC,215322.4,A,3312.8638,N,11723.3874,W,65.10,160.10,261210,,*2A
$GPRMC,215326.4,A,3312.7978,N,11723.3533,W,64.20,155.60,261210,,*27
$GPRMC,215330.4,A,3312.7326,N,11723.3103,W,66.30,151.90,261210,,*2E
$GPRMC,215334.4,A,3312.6663,N,11723.2697,W,66.60,152.50,261210,,*2E
$GPRMC,215338.4,A,3312.6023,N,11723.2267,W,66.00,152.00,261210,,*28
$GPRMC,215342.4,A,3312.5366,N,11723.1855,W,66.60,152.40,261210,,*2E
$GPRMC,215346.4,A,3312.4725,N,11723.1473,W,63.50,152.40,261210,,*26
$GPRMC,215350.4,A,3312.4125,N,11723.1081,W,61.20,151.80,261210,,*24
$GPRMC,215354.4,A,3312.3520,N,11723.0647,W,63.10,145.40,261210,,*23
$GPRMC,215358.4,A,3312.2977,N,11723.0122,W,62.40,136.90,261210,,*29
$GPRMC,215402.4,A,3312.2506,N,11722.9518,W,61.40,129.10,261210,,*2B
$GPRMC,215406.4,A,3312.2111,N,11722.8842,W,62.30,121.20,261210,,*21
$GPRMC,215410.4,A,3312.1790,N,11722.8111,W,63.00,115.40,261210,,*26
$GPRMC,215414.4,A,3312.1519,N,11722.7339,W,63.20,112.30,261210,,*24
$GPRMC,215418.4,A,3312.1253,N,11722.6550,W,63.60,111.70,261210,,*2A
$GPRMC,215422.4,A,3312.0992,N,11722.5777,W,63.70,112.40,261210,,*21
$GPRMC,215426.4,A,3312.0733,N,11722.4996,W,64.10,112.10,261210,,*24
$GPRMC,215430.4,A,3312.0476,N,11722.4219,W,62.70,112.10,261210,,*2D
$GPRMC,215434.4,A,3312.0211,N,11722.3459,W,61.50,112.90,261210,,*22
$GPRMC,215438.4,A,3311.9887,N,11722.2730,W,61.60,122.10,261210,,*24
$GPRMC,215442.4,A,3311.9485,N,11722.2071,W,63.50,130.30,261210,,*25
$GPRMC,215446.4,A,3311.8986,N,11722.1461,W,64.20,137.60,261210,,*2A
$GPRMC,215450.4,A,3311.8429,N,11722.0948,W,61.60,145.10,261210,,*21
$GPRMC,215454.4,A,3311.7854,N,11722.0472,W,64.70,145.10,261210,,*2C
$GPRMC,215458.4,A,3311.7229,N,11721.9968,W,68.40,145.20,261210,,*20
$GPRMC,215502.4,A,3311.6604,N,11721.9450,W,68.80,146.10,261210,,*2E
$GPRMC,215506.4,A,3311.5986,N,11721.8937,W,67.30,145.00,261210,,*27
$GPRMC,215510.4,A,3311.5371,N,11721.8427,W,67.60,145.60,261210,,*2D
$GPRMC,215514.4,A,3311.4761,N,11721.7919,W,66.50,144.80,261210,,*2F
$GPRMC,215518.4,A,3311.4158,N,11721.7421,W,65.00,145.00,261210,,*26
$GPRMC,215522.4,A,3311.3560,N,11721.6916,W,65.40,145.10,261210,,*2A
$GPRMC,215526.4,A,3311.3009,N,11721.6462,W,57.10,145.20,261210,,*2D
$GPRMC,215530.4,A,3311.2500,N,11721.6045,W,55.10,145.60,261210,,*20
$GPRMC,215534.4,A,3311.2008,N,11721.5639,W,53.00,145.40,261210,,*22
$GPRMC,215538.4,A,3311.1517,N,11721.5225,W,55.20,144.50,261210,,*2B
$GPRMC,215542.4,A,3311.0969,N,11721.4772,W,61.00,145.30,261210,,*26
$GPRMC,215546.4,A,3311.0402,N,11721.4316,W,62.30,146.10,261210,,*25
$GPRMC,215550.4,A,3310.9829,N,11721.3856,W,62.00,145.30,261210,,*25
$GPRMC,215554.4,A,3310.9265,N,11721.3386,W,61.40,145.10,261210,,*20
$GPRMC,215558.4,A,3310.8694,N,11721.2910,W,65.30,146.10,261210,,*23
$GPRMC,215602.4,A,3310.8119,N,11721.2435,W,62.80,145.10,261210,,*28
$GPRMC,215606.4,A,3310.7546,N,11721.1950,W,64.10,144.50,261210,,*2A
$GPRMC,215610.4,A,3310.6965,N,11721.1467,W,64.10,145.30,261210,,*2F
$GPRMC,215614.4,A,3310.6373,N,11721.0984,W,66.00,146.20,261210,,*26
$GPRMC,215618.4,A,3310.5762,N,11721.0511,W,64.80,147.10,261210,,*25
$GPRMC,215622.4,A,3310.5139,N,11721.0045,W,65.70,147.60,261210,,*29
$GPRMC,215626.4,A,3310.4527,N,11720.9596,W,64.50,147.80,261210,,*29
$GPRMC,215630.4,A,3310.3928,N,11720.9140,W,63.70,147.40,261210,,*2C
$GPRMC,215634.4,A,3310.3326,N,11720.8679,W,63.70,147.80,261210,,*2C
$GPRMC,215638.4,A,3310.2734,N,11720.8228,W,63.30,147.40,261210,,*2E
$GPRMC,215642.4,A,3310.2134,N,11720.7794,W,62.70,147.60,261210,,*2F
$GPRMC,215646.4,A,3310.1529,N,11720.7376,W,62.60,150.00,261210,,*29
$GPRMC,215650.4,A,3310.0921,N,11720.6980,W,64.00,153.80,261210,,*22
$GPRMC,215654.4,A,3310.0273,N,11720.6621,W,64.50,156.00,261210,,*26
$GPRMC,215658.4,A,3309.9594,N,11720.6270,W,65.70,156.30,261210,,*25
$GPRMC,215702.4,A,3309.8940,N,11720.5932,W,64.90,157.10,261210,,*2D
$GPRMC,215706.4,A,3309.8261,N,11720.5615,W,64.70,158.30,261210,,*28
$GPRMC,215710.4,A,3309.7593,N,11720.5278,W,65.10,156.90,261210,,*26
$GPRMC,215714.4,A,3309.6914,N,11720.4918,W,67.60,156.50,261210,,*25
$GPRMC,215718.4,A,3309.6211,N,11720.4568,W,68.70,157.30,261210,,*25
$GPRMC,215722.4,A,3309.5519,N,11720.4213,W,67.40,156.70,261210,,*22
$GPRMC,215726.4,A,3309.4833,N,11720.3861,W,66.80,156.90,261210,,*29
$GPRMC,215730.4,A,3309.4156,N,11720.3506,W,66.20,156.90,261210,,*22
$GPRMC,215734.4,A,3309.3491,N,11720.3180,W,64.30,157.00,261210,,*2E
$GPRMC,215738.4,A,3309.2849,N,11720.2809,W,63.70,155.10,261210,,*23
$GPRMC,215742.4,A,3309.2214,N,11720.2455,W,63.20,154.40,261210,,*28
$GPRMC,215746.4,A,3309.1583,N,11720.2092,W,62.80,154.10,261210,,*27
$GPRMC,215750.4,A,3309.0983,N,11720.1745,W,60.90,153.50,261210,,*23
$GPRMC,215754.4,A,3309.0389,N,11720.1409,W,59.40,154.80,261210,,*21
$GPRMC,215758.4,A,3308.9786,N,11720.1058,W,60.80,154.30,261210,,*23
$GPRMC,215802.4,A,3308.9169,N,11720.0724,W,61.70,154.70,261210,,*23
$GPRMC,215806.4,A,3308.8487,N,11720.0443,W,63.60,164.80,261210,,*2E
$GPRMC,215810.4,A,3308.7808,N,11720.0308,W,62.50,175.60,261210,,*29
$GPRMC,215814.4,A,3308.7112,N,11720.0261,W,62.60,176.90,261210,,*2E
$GPRMC,215818.4,A,3308.6429,N,11720.0222,W,60.80,177.40,261210,,*29
$GPRMC,215822.4,A,3308.5759,N,11720.0163,W,60.40,170.30,261210,,*2D
$GPRMC,215826.4,A,3308.5098,N,11719.9965,W,60.80,163.30,261210,,*20
$GPRMC,215830.4,A,3308.4480,N,11719.9646,W,60.00,157.60,261210,,*2F
$GPRMC,215834.4,A,3308.3879,N,11719.9322,W,59.90,156.50,261210,,*20
$GPRMC,215838.4,A,3308.3264,N,11719.9002,W,60.00,156.40,261210,,*29
$GPRMC,215842.4,A,3308.2643,N,11719.8681,W,60.40,156.80,261210,,*20
$GPRMC,215846.4,A,3308.2032,N,11719.8350,W,60.90,155.30,261210,,*28
$GPRMC,215850.4,A,3308.1413,N,11719.8035,W,60.70,156.70,261210,,*22
$GPRMC,215854.4,A,3308.0761,N,11719.7717,W,62.90,157.10,261210,,*22
$GPRMC,215858.4,A,3308.0116,N,11719.7377,W,63.00,156.20,261210,,*20
$GPRMC,215902.4,A,3307.9479,N,11719.7000,W,64.00,153.50,261210,,*22
$GPRMC,215906.4,A,3307.8845,N,11719.6625,W,64.10,153.30,261210,,*23
$GPRMC,215910.4,A,3307.8200,N,11719.6250,W,65.50,153.20,261210,,*2D
$GPRMC,215914.4,A,3307.7565,N,11719.5860,W,64.80,153.30,261210,,*25
$GPRMC,215918.4,A,3307.6920,N,11719.5465,W,64.60,152.90,261210,,*29
$GPRMC,215922.4,A,3307.6306,N,11719.5090,W,61.70,153.30,261210,,*2F
$GPRMC,215926.4,A,3307.5690,N,11719.4725,W,62.60,152.70,261210,,*2D
$GPRMC,215930.4,A,3307.5073,N,11719.4356,W,62.70,152.90,261210,,*2E
$GPRMC,215934.4,A,3307.4443,N,11719.3980,W,63.40,153.40,261210,,*24
$GPRMC,215938.4,A,3307.3802,N,11719.3607,W,64.30,153.80,261210,,*2A
$GPRMC,215942.4,A,3307.3176,N,11719.3211,W,63.50,152.80,261210,,*2E
$GPRMC,215946.4,A,3307.2528,N,11719.2843,W,64.50,153.80,261210,,*2E
$GPRMC,215950.4,A,3307.1885,N,11719.2466,W,64.90,154.00,261210,,*28
$GPRMC,215954.4,A,3307.1231,N,11719.2058,W,65.30,152.80,261210,,*25
$GPRMC,215958.4,A,3307.0587,N,11719.1668,W,64.30,153.00,261210,,*2C
$GPRMC,220002.4,A,3306.9948,N,11719.1284,W,64.50,153.30,261210,,*28
$GPRMC,220006.4,A,3306.9304,N,11719.0901,W,64.70,153.10,261210,,*29
$GPRMC,220010.4,A,3306.8654,N,11719.0526,W,64.90,153.30,261210,,*2A
$GPRMC,220014.4,A,3306.8004,N,11719.0138,W,65.70,153.40,261210,,*2E
$GPRMC,220018.4,A,3306.7350,N,11718.9747,W,65.40,153.10,261210,,*2F
$GPRMC,220022.4,A,3306.6701,N,11718.9357,W,64.90,153.30,261210,,*2C
$GPRMC,220026.4,A,3306.6061,N,11718.8966,W,65.10,153.40,261210,,*2E
$GPRMC,220030.4,A,3306.5410,N,11718.8576,W,65.70,153.20,261210,,*25
$GPRMC,220034.4,A,3306.4763,N,11718.8164,W,66.10,151.70,261210,,*22
$GPRMC,220038.4,A,3306.4117,N,11718.7757,W,65.70,151.60,261210,,*26
$GPRMC,220042.4,A,3306.3487,N,11718.7322,W,64.90,150.60,261210,,*28
$GPRMC,220046.4,A,3306.2842,N,11718.6917,W,64.60,151.40,261210,,*29
$GPRMC,220050.4,A,3306.2221,N,11718.6524,W,62.10,151.10,261210,,*29
$GPRMC,220054.4,A,3306.1615,N,11718.6123,W,62.80,151.10,261210,,*27
$GPRMC,220058.4,A,3306.1004,N,11718.5713,W,63.30,151.10,261210,,*21
$GPRMC,220102.4,A,3306.0375,N,11718.5315,W,63.40,151.60,261210,,*29
$GPRMC,220106.4,A,3305.9779,N,11718.4925,W,62.40,151.50,261210,,*25
$GPRMC,220110.4,A,3305.9165,N,11718.4533,W,62.90,151.20,261210,,*28
$GPRMC,220114.4,A,3305.8552,N,11718.4122,W,63.70,151.40,261210,,*20
$GPRMC,220118.4,A,3305.7894,N,11718.3693,W,67.00,151.60,261210,,*2F
$GPRMC,220122.4,A,3305.7246,N,11718.3258,W,67.40,150.90,261210,,*2A
$GPRMC,220126.4,A,3305.6592,N,11718.2818,W,67.20,151.10,261210,,*21
$GPRMC,220130.4,A,3305.5934,N,11718.2405,W,67.80,151.40,261210,,*2A
$GPRMC,220134.4,A,3305.5281,N,11718.1985,W,66.10,151.70,261210,,*26
$GPRMC,220138.4,A,3305.4642,N,11718.1560,W,64.60,151.00,261210,,*25
$GPRMC,220142.4,A,3305.4011,N,11718.1161,W,66.90,151.40,261210,,*24
$GPRMC,220146.4,A,3305.3354,N,11718.0738,W,67.20,151.10,261210,,*21
$GPRMC,220150.4,A,3305.2714,N,11718.0314,W,65.70,151.30,261210,,*28
$GPRMC,220154.4,A,3305.2068,N,11717.9888,W,66.70,151.00,261210,,*28
$GPRMC,220158.4,A,3305.1395,N,11717.9463,W,68.30,151.50,261210,,*20
$GPRMC,220202.4,A,3305.0716,N,11717.9045,W,68.20,154.80,261210,,*2B
$GPRMC,220206.4,A,3305.0013,N,11717.8715,W,65.90,162.40,261210,,*21
$GPRMC,220210.4,A,3304.9308,N,11717.8486,W,63.20,165.60,261210,,*26
$GPRMC,220214.4,A,3304.8624,N,11717.8281,W,63.90,166.00,261210,,*27
$GPRMC,220218.4,A,3304.7931,N,11717.8080,W,64.40,165.70,261210,,*22
$GPRMC,220222.4,A,3304.7225,N,11717.7868,W,66.60,165.90,261210,,*2A
$GPRMC,220226.4,A,3304.6498,N,11717.7652,W,65.90,166.50,261210,,*2B
$GPRMC,220230.4,A,3304.5800,N,11717.7436,W,63.70,165.70,261210,,*2B
$GPRMC,220234.4,A,3304.5116,N,11717.7235,W,64.20,167.30,261210,,*20
$GPRMC,220238.4,A,3304.4491,N,11717.7044,W,58.80,166.20,261210,,*26
$GPRMC,220242.4,A,3304.3847,N,11717.6841,W,62.30,165.70,261210,,*23
$GPRMC,220246.4,A,3304.3153,N,11717.6635,W,65.20,165.80,261210,,*2F
$GPRMC,220250.4,A,3304.2434,N,11717.6417,W,67.90,165.50,261210,,*2B
$GPRMC,220254.4,A,3304.1708,N,11717.6202,W,66.90,165.70,261210,,*21
$GPRMC,220258.4,A,3304.1010,N,11717.5992,W,64.40,165.80,261210,,*22
$GPRMC,220302.4,A,3304.0330,N,11717.5789,W,61.80,166.00,261210,,*2A
$GPRMC,220306.4,A,3303.9658,N,11717.5589,W,62.50,166.00,261210,,*27
$GPRMC,220310.4,A,3303.8968,N,11717.5375,W,64.00,165.30,261210,,*2B
$GPRMC,220314.4,A,3303.8302,N,11717.5179,W,61.80,166.00,261210,,*2A
$GPRMC,220318.4,A,3303.7625,N,11717.4976,W,62.90,166.00,261210,,*2D
$GPRMC,220322.4,A,3303.6949,N,11717.4776,W,63.40,166.30,261210,,*21
$GPRMC,220326.4,A,3303.6253,N,11717.4559,W,65.60,165.70,261210,,*29
$GPRMC,220330.4,A,3303.5551,N,11717.4352,W,65.20,165.80,261210,,*2E
$GPRMC,220334.4,A,3303.4848,N,11717.4142,W,65.60,165.80,261210,,*29
$GPRMC,220338.4,A,3303.4139,N,11717.3926,W,64.70,165.80,261210,,*27
$GPRMC,220342.4,A,3303.3452,N,11717.3721,W,63.50,165.90,261210,,*28
$GPRMC,220346.4,A,3303.2770,N,11717.3513,W,63.00,166.00,261210,,*22
$GPRMC,220350.4,A,3303.2088,N,11717.3312,W,63.40,165.70,261210,,*22
$GPRMC,220354.4,A,3303.1407,N,11717.3104,W,63.10,165.70,261210,,*26
$GPRMC,220358.4,A,3303.0719,N,11717.2905,W,64.40,165.90,261210,,*23
$GPRMC,220402.4,A,3303.0014,N,11717.2691,W,65.10,165.70,261210,,*29
$GPRMC,220406.4,A,3302.9303,N,11717.2475,W,66.50,165.40,261210,,*2C
$GPRMC,220410.4,A,3302.8575,N,11717.2256,W,68.40,165.60,261210,,*27
$GPRMC,220414.4,A,3302.7843,N,11717.2037,W,66.60,165.90,261210,,*22
$GPRMC,220419.4,A,3302.6969,N,11717.1765,W,64.80,165.50,261210,,*24
$GPRMC,220423.4,A,3302.6253,N,11717.1553,W,65.70,165.40,261210,,*27
$GPRMC,220427.4,A,3302.5555,N,11717.1315,W,65.00,162.60,261210,,*27
$GPRMC,220431.4,A,3302.4892,N,11717.0990,W,64.90,155.90,261210,,*22
$GPRMC,220435.4,A,3302.4246,N,11717.0583,W,64.40,150.40,261210,,*2E
$GPRMC,220439.4,A,3302.3619,N,11717.0161,W,64.00,149.90,261210,,*22
$GPRMC,220443.4,A,3302.3004,N,11716.9741,W,64.30,149.40,261210,,*27
$GPRMC,220447.4,A,3302.2369,N,11716.9317,W,65.10,149.70,261210,,*2D
$GPRMC,220451.4,A,3302.1741,N,11716.8886,W,65.10,149.40,261210,,*26
$GPRMC,220455.4,A,3302.1091,N,11716.8454,W,66.50,150.60,261210,,*26
$GPRMC,220459.4,A,3302.0461,N,11716.8023,W,65.30,150.70,261210,,*20
$GPRMC,220503.4,A,3301.9827,N,11716.7620,W,63.20,150.70,261210,,*27
$GPRMC,220507.4,A,3301.9223,N,11716.7224,W,62.00,152.10,261210,,*2A
$GPRMC,220511.4,A,3301.8607,N,11716.6822,W,62.60,150.60,261210,,*20
$GPRMC,220515.4,A,3301.7995,N,11716.6407,W,63.60,150.40,261210,,*27
$GPRMC,220519.4,A,3301.7381,N,11716.5991,W,64.00,150.10,261210,,*21
$GPRMC,220523.4,A,3301.6736,N,11716.5570,W,66.20,150.90,261210,,*2A
$GPRMC,220527.4,A,3301.6116,N,11716.5147,W,64.00,150.80,261210,,*2B
$GPRMC,220531.4,A,3301.5482,N,11716.4784,W,64.70,155.70,261210,,*22
$GPRMC,220535.4,A,3301.4770,N,11716.4476,W,67.30,161.70,261210,,*27
$GPRMC,220539.4,A,3301.4039,N,11716.4272,W,66.20,169.30,261210,,*2F
$GPRMC,220543.4,A,3301.3340,N,11716.4123,W,61.30,170.50,261210,,*27
$GPRMC,220547.4,A,3301.2665,N,11716.3981,W,61.80,170.20,261210,,*2B
$GPRMC,220551.4,A,3301.1981,N,11716.3831,W,62.40,167.30,261210,,*28
$GPRMC,220555.4,A,3301.1298,N,11716.3610,W,64.40,162.70,261210,,*25
$GPRMC,220559.4,A,3301.0628,N,11716.3289,W,65.90,155.00,261210,,*2C
$GPRMC,220603.4,A,3300.9967,N,11716.2895,W,66.10,151.20,261210,,*27
$GPRMC,220607.4,A,3300.9362,N,11716.2392,W,66.90,142.60,261210,,*2E
$GPRMC,220611.4,A,3300.8802,N,11716.1812,W,67.10,136.60,261210,,*2F
$GPRMC,220615.4,A,3300.8275,N,11716.1205,W,64.50,135.90,261210,,*26
$GPRMC,220619.4,A,3300.7773,N,11716.0629,W,61.80,136.00,261210,,*2F
$GPRMC,220623.4,A,3300.7278,N,11716.0064,W,62.80,136.50,261210,,*21
$GPRMC,220627.4,A,3300.6767,N,11715.9476,W,64.90,135.90,261210,,*2A
$GPRMC,220631.4,A,3300.6245,N,11715.8885,W,65.60,135.80,261210,,*26
$GPRMC,220635.4,A,3300.5719,N,11715.8288,W,66.10,135.60,261210,,*20
$GPRMC,220639.4,A,3300.5197,N,11715.7680,W,64.90,135.70,261210,,*24
$GPRMC,220643.4,A,3300.4679,N,11715.7083,W,65.20,136.10,261210,,*25
$GPRMC,220647.4,A,3300.4158,N,11715.6483,W,65.20,136.00,261210,,*21
$GPRMC,220651.4,A,3300.3620,N,11715.5893,W,65.80,140.20,261210,,*2E
$GPRMC,220655.4,A,3300.3031,N,11715.5386,W,64.30,148.10,261210,,*22
$GPRMC,220659.4,A,3300.2416,N,11715.4986,W,62.70,154.40,261210,,*2F
$GPRMC,220703.4,A,3300.1741,N,11715.4712,W,63.00,164.20,261210,,*23
$GPRMC,220707.4,A,3300.1039,N,11715.4550,W,63.00,171.30,261210,,*2E
$GPRMC,220711.4,A,3300.0339,N,11715.4445,W,61.10,172.30,261210,,*2E
$GPRMC,220715.4,A,3259.9683,N,11715.4351,W,57.20,172.50,261210,,*28
$GPRMC,220719.4,A,3259.9070,N,11715.4260,W,53.60,172.70,261210,,*2F
$GPRMC,220723.4,A,3259.8473,N,11715.4169,W,55.20,173.30,261210,,*2D
$GPRMC,220727.4,A,3259.7832,N,11715.4076,W,60.60,173.00,261210,,*21
$GPRMC,220731.4,A,3259.7128,N,11715.3969,W,66.00,172.50,261210,,*20
$GPRMC,220735.4,A,3259.6388,N,11715.3854,W,67.10,172.40,261210,,*23
$GPRMC,220739.4,A,3259.5651,N,11715.3735,W,66.70,172.50,261210,,*23
$GPRMC,220743.4,A,3259.4919,N,11715.3620,W,66.70,172.30,261210,,*2F
$GPRMC,220747.4,A,3259.4191,N,11715.3508,W,66.70,172.40,261210,,*2D
$GPRMC,220751.4,A,3259.3460,N,11715.3395,W,65.50,172.70,261210,,*26
$GPRMC,220755.4,A,3259.2737,N,11715.3279,W,65.90,172.60,261210,,*2C
$GPRMC,220759.4,A,3259.2003,N,11715.3168,W,67.10,172.40,261210,,*2B
$GPRMC,220803.4,A,3259.1261,N,11715.3046,W,67.60,171.90,261210,,*2A
$GPRMC,220807.4,A,3259.0522,N,11715.2876,W,68.50,165.80,261210,,*2D
$GPRMC,220811.4,A,3258.9783,N,11715.2618,W,69.50,162.70,261210,,*24
$GPRMC,220815.4,A,3258.9036,N,11715.2338,W,70.70,162.40,261210,,*27
$GPRMC,220819.4,A,3258.8297,N,11715.2051,W,70.00,162.20,261210,,*2E
$GPRMC,220823.4,A,3258.7551,N,11715.1776,W,69.80,162.40,261210,,*22
$GPRMC,220827.4,A,3258.6823,N,11715.1502,W,68.20,162.30,261210,,*22
$GPRMC,220831.4,A,3258.6106,N,11715.1225,W,67.40,162.10,261210,,*22
$GPRMC,220835.4,A,3258.5396,N,11715.0959,W,67.10,162.50,261210,,*2E
$GPRMC,220839.4,A,3258.4687,N,11715.0695,W,66.10,162.10,261210,,*2C
$GPRMC,220843.4,A,3258.3975,N,11715.0430,W,66.80,162.50,261210,,*24
$GPRMC,220847.4,A,3258.3269,N,11715.0165,W,66.30,162.20,261210,,*2F
$GPRMC,220851.4,A,3258.2563,N,11714.9892,W,67.20,162.40,261210,,*2B
$GPRMC,220855.4,A,3258.1856,N,11714.9627,W,65.10,162.10,261210,,*23
$GPRMC,220859.4,A,3258.1137,N,11714.9356,W,67.20,162.20,261210,,*20
$GPRMC,220903.4,A,3258.0422,N,11714.9085,W,67.30,162.30,261210,,*23
$GPRMC,220907.4,A,3257.9708,N,11714.8817,W,66.30,162.30,261210,,*29
$GPRMC,220911.4,A,3257.9010,N,11714.8557,W,65.90,162.30,261210,,*20
$GPRMC,220915.4,A,3257.8310,N,11714.8294,W,66.40,162.40,261210,,*27
$GPRMC,220919.4,A,3257.7604,N,11714.8027,W,66.10,162.40,261210,,*2B
$GPRMC,220923.4,A,3257.6897,N,11714.7763,W,66.70,163.30,261210,,*2F
$GPRMC,220927.4,A,3257.6180,N,11714.7529,W,67.60,166.00,261210,,*2E
$GPRMC,220931.4,A,3257.5457,N,11714.7335,W,65.10,168.50,261210,,*20
$GPRMC,220935.4,A,3257.4738,N,11714.7182,W,66.10,170.70,261210,,*29
$GPRMC,220939.4,A,3257.4010,N,11714.7045,W,65.80,171.00,261210,,*2E
$GPRMC,220943.4,A,3257.3288,N,11714.6915,W,65.70,171.00,261210,,*25
$GPRMC,220947.4,A,3257.2571,N,11714.6778,W,65.80,171.00,261210,,*2B
$GPRMC,220951.4,A,3257.1844,N,11714.6639,W,66.10,171.00,261210,,*2A
$GPRMC,220955.4,A,3257.1121,N,11714.6507,W,65.70,170.90,261210,,*27
$GPRMC,220959.4,A,3257.0404,N,11714.6368,W,65.10,170.80,261210,,*20
$GPRMC,221003.4,A,3256.9689,N,11714.6231,W,65.80,171.00,261210,,*25
$GPRMC,221007.4,A,3256.8947,N,11714.6100,W,67.90,170.80,261210,,*26
$GPRMC,221011.4,A,3256.8199,N,11714.5959,W,68.90,171.00,261210,,*2B
$GPRMC,221015.4,A,3256.7431,N,11714.5813,W,70.00,170.50,261210,,*2C
$GPRMC,221019.4,A,3256.6651,N,11714.5664,W,70.40,171.00,261210,,*2B
$GPRMC,221023.4,A,3256.5885,N,11714.5521,W,69.50,171.20,261210,,*2F
$GPRMC,221027.4,A,3256.5127,N,11714.5388,W,69.90,171.10,261210,,*20
$GPRMC,221031.4,A,3256.4355,N,11714.5245,W,70.50,171.10,261210,,*25
$GPRMC,221035.4,A,3256.3572,N,11714.5124,W,70.50,173.80,261210,,*2A
$GPRMC,221039.4,A,3256.2793,N,11714.5036,W,70.50,176.10,261210,,*24
$GPRMC,221043.4,A,3256.2007,N,11714.4983,W,70.70,176.50,261210,,*23
$GPRMC,221047.4,A,3256.1217,N,11714.4939,W,71.40,176.60,261210,,*27
$GPRMC,221051.4,A,3256.0429,N,11714.4885,W,70.90,176.30,261210,,*25
$GPRMC,221055.4,A,3255.9645,N,11714.4817,W,70.90,175.20,261210,,*2A
$GPRMC,221059.4,A,3255.8862,N,11714.4717,W,71.50,173.20,261210,,*28
$GPRMC,221103.4,A,3255.8074,N,11714.4560,W,71.90,169.90,261210,,*27
$GPRMC,221107.4,A,3255.7300,N,11714.4374,W,70.00,167.00,261210,,*20
$GPRMC,221111.4,A,3255.6534,N,11714.4145,W,71.40,164.80,261210,,*29
$GPRMC,221115.4,A,3255.5776,N,11714.3889,W,70.50,164.20,261210,,*2E
$GPRMC,221119.4,A,3255.5024,N,11714.3639,W,69.90,164.20,261210,,*23
$GPRMC,221123.4,A,3255.4276,N,11714.3386,W,70.00,162.90,261210,,*23
$GPRMC,221127.4,A,3255.3552,N,11714.3084,W,68.90,158.90,261210,,*29
$GPRMC,221131.4,A,3255.2859,N,11714.2691,W,69.20,152.10,261210,,*22
$GPRMC,221135.4,A,3255.2201,N,11714.2240,W,68.30,147.30,261210,,*2F
$GPRMC,221139.4,A,3255.1584,N,11714.1733,W,66.60,143.90,261210,,*2D
$GPRMC,221143.4,A,3255.1029,N,11714.1168,W,65.20,138.10,261210,,*29
$GPRMC,221147.4,A,3255.0523,N,11714.0560,W,65.10,131.80,261210,,*2D
$GPRMC,221151.4,A,3255.0048,N,11713.9899,W,66.00,130.50,261210,,*29
$GPRMC,221155.4,A,3254.9554,N,11713.9225,W,68.50,131.10,261210,,*2E
$GPRMC,221159.4,A,3254.8997,N,11713.8600,W,68.70,140.30,261210,,*24
$GPRMC,221203.4,A,3254.8371,N,11713.8067,W,69.20,147.70,261210,,*2A
$GPRMC,221207.4,A,3254.7712,N,11713.7630,W,67.10,152.40,261210,,*21
$GPRMC,221211.4,A,3254.7049,N,11713.7241,W,67.30,152.30,261210,,*28
$GPRMC,221215.4,A,3254.6384,N,11713.6826,W,67.70,151.80,261210,,*29
$GPRMC,221219.4,A,3254.5716,N,11713.6407,W,67.10,151.70,261210,,*2F
$GPRMC,221223.4,A,3254.5058,N,11713.5987,W,67.30,151.70,261210,,*2F
$GPRMC,221227.4,A,3254.4399,N,11713.5584,W,67.60,153.10,261210,,*2A
$GPRMC,221231.4,A,3254.3726,N,11713.5198,W,67.60,153.10,261210,,*23
$GPRMC,221235.4,A,3254.3073,N,11713.4775,W,66.40,149.10,261210,,*2C
$GPRMC,221239.4,A,3254.2450,N,11713.4292,W,67.10,145.50,261210,,*24
$GPRMC,221243.4,A,3254.1855,N,11713.3721,W,68.20,141.30,261210,,*27
$GPRMC,221250.4,A,3254.0831,N,11713.2708,W,67.70,140.50,261210,,*21
$GPRMC,221251.4,A,3254.0694,N,11713.2570,W,67.10,140.50,261210,,*2A
$GPRMC,221255.4,A,3254.0125,N,11713.2003,W,67.10,139.60,261210,,*2F
$GPRMC,221259.4,A,3253.9539,N,11713.1463,W,65.60,141.60,261210,,*2F
$GPRMC,221303.4,A,3253.8967,N,11713.0927,W,64.80,142.40,261210,,*25
$GPRMC,221307.4,A,3253.8393,N,11713.0401,W,65.40,142.70,261210,,*27
$GPRMC,221311.4,A,3253.7814,N,11712.9871,W,66.00,140.30,261210,,*29
$GPRMC,221315.4,A,3253.7277,N,11712.9283,W,65.80,135.30,261210,,*2C
$GPRMC,221319.4,A,3253.6778,N,11712.8631,W,65.90,129.80,261210,,*20
$GPRMC,221323.4,A,3253.6322,N,11712.7937,W,66.90,125.30,261210,,*20
$GPRMC,221327.4,A,3253.5921,N,11712.7197,W,66.30,120.10,261210,,*21
$GPRMC,221331.4,A,3253.5595,N,11712.6413,W,66.20,115.10,261210,,*2A
$GPRMC,221335.4,A,3253.5291,N,11712.5623,W,65.60,114.40,261210,,*2C
$GPRMC,221338.4,A,3253.5036,N,11712.5036,W,65.40,117.50,261210,,*2C
$GPRMC,221339.4,A,3253.4964,N,11712.4856,W,63.10,118.30,261210,,*27
$GPRMC,221343.4,A,3253.4582,N,11712.4144,W,63.80,126.10,261210,,*22
$GPRMC,221347.4,A,3253.4106,N,11712.3496,W,65.30,134.20,261210,,*2E
$GPRMC,221351.4,A,3253.3554,N,11712.2915,W,66.00,140.60,261210,,*2D
$GPRMC,221355.4,A,3253.2967,N,11712.2409,W,62.50,143.90,261210,,*29
$GPRMC,221359.4,A,3253.2338,N,11712.2024,W,62.10,154.40,261210,,*21
$GPRMC,221403.4,A,3253.1684,N,11712.1723,W,62.90,157.70,261210,,*23
$GPRMC,221407.4,A,3253.0966,N,11712.1531,W,64.90,165.40,261210,,*20
$GPRMC,221411.4,A,3253.0277,N,11712.1316,W,63.90,165.30,261210,,*2F
$GPRMC,221415.4,A,3252.9578,N,11712.1110,W,64.80,165.30,261210,,*29
$GPRMC,221419.4,A,3252.8883,N,11712.0892,W,64.60,165.50,261210,,*27
$GPRMC,221423.4,A,3252.8167,N,11712.0684,W,66.40,165.60,261210,,*27
$GPRMC,221427.4,A,3252.7450,N,11712.0470,W,66.10,165.60,261210,,*21
$GPRMC,221431.4,A,3252.6738,N,11712.0250,W,65.50,165.60,261210,,*29
$GPRMC,221435.4,A,3252.6032,N,11712.0026,W,65.70,163.50,261210,,*24
$GPRMC,221439.4,A,3252.5337,N,11711.9750,W,66.10,159.30,261210,,*2B
$GPRMC,221443.4,A,3252.4648,N,11711.9407,W,69.30,155.40,261210,,*2D
$GPRMC,221447.4,A,3252.4004,N,11711.8974,W,67.20,148.60,261210,,*2E
$GPRMC,221451.4,A,3252.3398,N,11711.8479,W,66.00,144.30,261210,,*22
$GPRMC,221455.4,A,3252.2821,N,11711.7931,W,66.20,141.20,261210,,*26
$GPRMC,221459.4,A,3252.2250,N,11711.7384,W,65.90,141.30,261210,,*2B
$GPRMC,221503.4,A,3252.1679,N,11711.6831,W,66.00,140.90,261210,,*2C
$GPRMC,221507.4,A,3252.1085,N,11711.6272,W,67.40,141.00,261210,,*2D
$GPRMC,221511.4,A,3252.0489,N,11711.5705,W,68.30,141.20,261210,,*2F
$GPRMC,221515.4,A,3251.9894,N,11711.5144,W,67.80,141.20,261210,,*26
$GPRMC,221519.4,A,3251.9309,N,11711.4583,W,67.10,141.00,261210,,*20
$GPRMC,221523.4,A,3251.8730,N,11711.4034,W,66.20,140.70,261210,,*2B
$GPRMC,221527.4,A,3251.8148,N,11711.3477,W,67.00,141.10,261210,,*26
$GPRMC,221531.4,A,3251.7563,N,11711.2929,W,67.50,141.60,261210,,*26
$GPRMC,221535.4,A,3251.6976,N,11711.2368,W,67.30,140.90,261210,,*2C
$GPRMC,221539.4,A,3251.6394,N,11711.1839,W,64.60,143.80,261210,,*2E
$GPRMC,221543.4,A,3251.5788,N,11711.1378,W,64.60,149.60,261210,,*23
$GPRMC,221547.4,A,3251.5154,N,11711.0975,W,64.50,152.80,261210,,*21
$GPRMC,221551.4,A,3251.4514,N,11711.0588,W,64.50,152.70,261210,,*26
$GPRMC,221555.4,A,3251.3874,N,11711.0201,W,64.50,152.50,261210,,*2A
$GPRMC,221559.4,A,3251.3239,N,11710.9812,W,64.30,152.70,261210,,*21
