NMEA Sentence Code,UTC Time,Status,Latitude,Latitude Direction,Longitude,Longitude Direction,Speed (knots),Track Angle (degrees true),Date,MagneticVariation,Magnetic Variation Direction,[FAA Mode]-Optional,Checksum
$GPRMC,001500.3,A,3307.599304,N,11707.275255,W,32.2,294.2,070510,,,A*41
$GPRMC,001503.3,A,3307.610991,N,11707.303992,W,32.4,297.4,070510,,,A*45
$GPRMC,001506.3,A,3307.624949,N,11707.329370,W,28.1,307.3,070510,,,A*4D
$GPRMC,001509.3,A,3307.639135,N,11707.346464,W,23.0,317.5,070510,,,A*4B
$GPRMC,001512.3,A,3307.654628,N,11707.359948,W,23.1,325.8,070510,,,A*41
$GPRMC,001515.3,A,3307.673240,N,11707.371309,W,25.3,335.0,070510,,,A*41
$GPRMC,001518.3,A,3307.695235,N,11707.379011,W,27.6,346.1,070510,,,A*46
$GPRMC,001521.3,A,3307.719265,N,11707.382795,W,29.3,354.8,070510,,,A*42
$GPRMC,001524.3,A,3307.743060,N,11707.383288,W,27.2,359.8,070510,,,A*45
$GPRMC,001527.3,A,3307.761009,N,11707.383344,W,19.5,359.7,070510,,,A*4D
$GPRMC,001530.3,A,3307.774608,N,11707.383039,W,14.7,1.8,070510,,,A*4F
$GPRMC,001533.3,A,3307.784881,N,11707.381830,W,11.7,8.5,070510,,,A*4E
$GPRMC,001536.3,A,3307.793647,N,11707.379640,W,8.7,10.5,070510,,,A*46
$GPRMC,001539.3,A,3307.799631,N,11707.377362,W,5.0,15.2,070510,,,A*41
$GPRMC,001633.3,A,3307.811385,N,11707.370564,W,5.6,34.7,070510,,,A*4A
$GPRMC,001636.3,A,3307.816966,N,11707.365049,W,9.1,44.0,070510,,,A*4A
$GPRMC,001639.3,A,3307.830812,N,11707.353896,W,18.7,37.5,070510,,,A*7B
$GPRMC,001642.3,A,3307.845873,N,11707.341140,W,19.9,38.3,070510,,,A*75
$GPRMC,001645.3,A,3307.858223,N,11707.329373,W,17.3,39.5,070510,,,A*7E
$GPRMC,001648.3,A,3307.867483,N,11707.320595,W,11.9,38.5,070510,,,A*79
$GPRMC,001651.3,A,3307.874915,N,11707.314530,W,10.8,33.6,070510,,,A*71
$GPRMC,001654.3,A,3307.883809,N,11707.308314,W,12.7,29.9,070510,,,A*74
$GPRMC,001657.3,A,3307.893122,N,11707.302571,W,12.0,28.0,070510,,,A*76
$GPRMC,001700.3,A,3307.902278,N,11707.296902,W,12.9,28.1,070510,,,A*7C
$GPRMC,001703.3,A,3307.913818,N,11707.289745,W,15.7,27.0,070510,,,A*77
$GPRMC,001706.3,A,3307.926734,N,11707.282851,W,17.7,22.4,070510,,,A*77
$GPRMC,001709.3,A,3307.938488,N,11707.278320,W,11.9,19.5,070510,,,A*7A
$GPRMC,001824.3,A,3307.956491,N,11707.280029,W,11.9,318.0,070510,,,A*40
$GPRMC,001827.3,A,3307.962911,N,11707.300465,W,25.9,285.7,070510,,,A*41
$GPRMC,001830.3,A,3307.969014,N,11707.331975,W,33.6,284.4,070510,,,A*44
$GPRMC,001833.3,A,3307.978380,N,11707.365526,W,35.8,289.0,070510,,,A*43
$GPRMC,001836.3,A,3307.990640,N,11707.399452,W,37.0,293.5,070510,,,A*4C
$GPRMC,001839.3,A,3308.004314,N,11707.432646,W,36.9,295.8,070510,,,A*4E
$GPRMC,001842.3,A,3308.017687,N,11707.463628,W,32.6,295.7,070510,,,A*47
$GPRMC,001845.3,A,3308.026496,N,11707.486079,W,21.9,293.7,070510,,,A*42
$GPRMC,001848.3,A,3308.033691,N,11707.504514,W,20.6,294.7,070510,,,A*42
$GPRMC,001851.3,A,3308.042263,N,11707.524607,W,24.2,296.8,070510,,,A*4B
$GPRMC,001854.3,A,3308.052466,N,11707.549647,W,29.7,295.3,070510,,,A*43
$GPRMC,001857.3,A,3308.062581,N,11707.580159,W,34.4,290.3,070510,,,A*4C
$GPRMC,001900.3,A,3308.072986,N,11707.617012,W,39.9,288.1,070510,,,A*4D
$GPRMC,001903.3,A,3308.082542,N,11707.656520,W,41.6,285.7,070510,,,A*4F
$GPRMC,001906.3,A,3308.089679,N,11707.697221,W,42.1,281.9,070510,,,A*4F
$GPRMC,001909.3,A,3308.096356,N,11707.737909,W,42.0,280.6,070510,,,A*43
$GPRMC,001912.3,A,3308.102847,N,11707.779598,W,43.2,280.5,070510,,,A*40
$GPRMC,001915.3,A,3308.109776,N,11707.822382,W,44.8,281.0,070510,,,A*44
$GPRMC,001918.3,A,3308.116807,N,11707.867633,W,47.3,280.7,070510,,,A*4E
$GPRMC,001921.3,A,3308.124087,N,11707.914960,W,49.1,280.7,070510,,,A*45
$GPRMC,001924.3,A,3308.131849,N,11707.963336,W,50.3,281.1,070510,,,A*4A
$GPRMC,001927.3,A,3308.141351,N,11708.013263,W,51.5,285.1,070510,,,A*4F
$GPRMC,001930.3,A,3308.155434,N,11708.061627,W,51.7,289.9,070510,,,A*4F
$GPRMC,001933.3,A,3308.173040,N,11708.108934,W,53.0,294.9,070510,,,A*45
$GPRMC,001936.3,A,3308.193177,N,11708.156632,W,54.0,297.3,070510,,,A*47
$GPRMC,001939.3,A,3308.213910,N,11708.203969,W,53.2,297.2,070510,,,A*4C
$GPRMC,001942.3,A,3308.233685,N,11708.250070,W,51.8,297.2,070510,,,A*4E
$GPRMC,001945.3,A,3308.252896,N,11708.294577,W,49.4,297.2,070510,,,A*4D
$GPRMC,001948.3,A,3308.271436,N,11708.337284,W,48.0,297.2,070510,,,A*41
$GPRMC,001951.3,A,3308.289312,N,11708.378820,W,47.0,297.2,070510,,,A*4F
$GPRMC,001954.3,A,3308.307006,N,11708.419379,W,45.7,297.4,070510,,,A*4F
$GPRMC,001957.3,A,3308.324617,N,11708.459294,W,45.6,296.9,070510,,,A*40
$GPRMC,002000.3,A,3308.341985,N,11708.500104,W,47.1,296.1,070510,,,A*45
$GPRMC,002003.3,A,3308.356841,N,11708.544650,W,49.0,290.4,070510,,,A*43
$GPRMC,002006.3,A,3308.366986,N,11708.591546,W,49.0,283.7,070510,,,A*42
$GPRMC,002009.3,A,3308.372090,N,11708.639962,W,49.3,276.5,070510,,,A*46
$GPRMC,002012.3,A,3308.373950,N,11708.689950,W,51.0,272.9,070510,,,A*40
$GPRMC,002015.3,A,3308.374878,N,11708.741489,W,51.9,271.9,070510,,,A*4D
$GPRMC,002018.3,A,3308.375611,N,11708.792300,W,50.9,271.8,070510,,,A*48
$GPRMC,002021.3,A,3308.376391,N,11708.842403,W,50.4,271.9,070510,,,A*46
$GPRMC,002024.3,A,3308.377361,N,11708.892209,W,50.4,272.4,070510,,,A*42
$GPRMC,002027.3,A,3308.378814,N,11708.943085,W,51.9,272.1,070510,,,A*45
$GPRMC,002030.3,A,3308.379861,N,11708.995548,W,53.4,272.0,070510,,,A*41
$GPRMC,002033.3,A,3308.379435,N,11709.048673,W,53.3,268.6,070510,,,A*46
$GPRMC,002036.3,A,3308.376449,N,11709.103171,W,55.2,265.3,070510,,,A*43
$GPRMC,002039.3,A,3308.369715,N,11709.157914,W,55.9,260.4,070510,,,A*4B
$GPRMC,002042.3,A,3308.358112,N,11709.212672,W,56.0,255.2,070510,,,A*43
$GPRMC,002045.3,A,3308.344024,N,11709.266163,W,56.3,252.6,070510,,,A*49
$GPRMC,002048.3,A,3308.329969,N,11709.319484,W,56.6,252.7,070510,,,A*4E
$GPRMC,002051.3,A,3308.316058,N,11709.372813,W,56.3,252.6,070510,,,A*4A
$GPRMC,002054.3,A,3308.302091,N,11709.423981,W,53.4,252.1,070510,,,A*43
$GPRMC,002057.3,A,3308.289200,N,11709.473100,W,51.6,253.7,070510,,,A*4B
$GPRMC,002100.3,A,3308.276075,N,11709.522679,W,52.5,253.2,070510,,,A*41
$GPRMC,002103.3,A,3308.263051,N,11709.573649,W,53.4,253.1,070510,,,A*44
$GPRMC,002106.3,A,3308.251797,N,11709.625730,W,54.4,256.7,070510,,,A*46
$GPRMC,002109.3,A,3308.243880,N,11709.679161,W,55.0,261.9,070510,,,A*47
$GPRMC,002112.3,A,3308.239893,N,11709.732825,W,54.9,265.5,070510,,,A*45
$GPRMC,002115.3,A,3308.236607,N,11709.787340,W,55.5,266.4,070510,,,A*47
$GPRMC,002118.3,A,3308.233532,N,11709.842520,W,56.0,266.3,070510,,,A*4D
$GPRMC,002121.3,A,3308.230278,N,11709.898077,W,56.3,266.2,070510,,,A*4F
$GPRMC,002124.3,A,3308.226639,N,11709.953952,W,56.5,266.1,070510,,,A*41
$GPRMC,002127.3,A,3308.223412,N,11710.009859,W,56.4,266.0,070510,,,A*48
$GPRMC,002130.3,A,3308.219784,N,11710.065796,W,56.7,265.8,070510,,,A*45
$GPRMC,002133.3,A,3308.216811,N,11710.121675,W,56.6,266.1,070510,,,A*4C
$GPRMC,002136.3,A,3308.214026,N,11710.177638,W,56.7,266.3,070510,,,A*4E
$GPRMC,002139.3,A,3308.211342,N,11710.233390,W,56.3,266.3,070510,,,A*45
$GPRMC,002142.3,A,3308.208707,N,11710.288815,W,56.1,267.2,070510,,,A*40
$GPRMC,002145.3,A,3308.209651,N,11710.344693,W,57.1,272.8,070510,,,A*4A
$GPRMC,002148.3,A,3308.217517,N,11710.399416,W,56.2,281.4,070510,,,A*44
$GPRMC,002151.3,A,3308.231460,N,11710.452984,W,56.0,289.3,070510,,,A*42
$GPRMC,002154.3,A,3308.249777,N,11710.503505,W,55.0,292.6,070510,,,A*41
$GPRMC,002157.3,A,3308.267420,N,11710.554424,W,54.9,292.4,070510,,,A*45
$GPRMC,002200.3,A,3308.285596,N,11710.604375,W,54.7,293.1,070510,,,A*4B
$GPRMC,002203.3,A,3308.304111,N,11710.654808,W,55.5,293.3,070510,,,A*4E
$GPRMC,002206.3,A,3308.322839,N,11710.705293,W,55.7,293.3,070510,,,A*43
$GPRMC,002209.3,A,3308.341194,N,11710.755818,W,55.5,293.3,070510,,,A*49
$GPRMC,002212.3,A,3308.359034,N,11710.806259,W,55.1,292.8,070510,,,A*49
$GPRMC,002215.3,A,3308.376801,N,11710.856049,W,54.1,293.1,070510,,,A*42
$GPRMC,002218.3,A,3308.394599,N,11710.904999,W,53.7,293.0,070510,,,A*4D
$GPRMC,002221.3,A,3308.412248,N,11710.954120,W,53.8,293.1,070510,,,A*44
$GPRMC,002224.3,A,3308.429863,N,11711.002848,W,52.9,293.3,070510,,,A*44
$GPRMC,002227.3,A,3308.446859,N,11711.050994,W,52.4,293.0,070510,,,A*4E
$GPRMC,002230.3,A,3308.463767,N,11711.098792,W,52.5,293.3,070510,,,A*43
$GPRMC,002233.3,A,3308.481595,N,11711.147691,W,54.2,293.2,070510,,,A*42
$GPRMC,002236.3,A,3308.499809,N,11711.197919,W,55.7,293.4,070510,,,A*46
$GPRMC,002239.3,A,3308.518351,N,11711.249593,W,56.9,293.3,070510,,,A*43
$GPRMC,002242.3,A,3308.538910,N,11711.300680,W,57.7,296.9,070510,,,A*4F
$GPRMC,002245.3,A,3308.563087,N,11711.350618,W,57.5,302.0,070510,,,A*42
$GPRMC,002248.3,A,3308.592018,N,11711.396683,W,57.6,307.4,070510,,,A*4D
$GPRMC,002251.3,A,3308.624105,N,11711.439169,W,57.3,313.1,070510,,,A*42
$GPRMC,002254.3,A,3308.657471,N,11711.478442,W,55.6,315.4,070510,,,A*48
$GPRMC,002257.3,A,3308.690183,N,11711.516289,W,54.3,315.4,070510,,,A*44
$GPRMC,002300.3,A,3308.722842,N,11711.554231,W,54.6,315.8,070510,,,A*47
$GPRMC,002303.3,A,3308.755625,N,11711.591999,W,54.7,315.6,070510,,,A*44
$GPRMC,002306.3,A,3308.787606,N,11711.629635,W,54.1,315.4,070510,,,A*42
$GPRMC,002309.3,A,3308.819909,N,11711.667110,W,54.1,315.3,070510,,,A*48
$GPRMC,002312.3,A,3308.852378,N,11711.705002,W,54.4,315.4,070510,,,A*44
$GPRMC,002315.3,A,3308.885357,N,11711.743614,W,55.5,315.3,070510,,,A*40
$GPRMC,002318.3,A,3308.918528,N,11711.782567,W,55.7,315.3,070510,,,A*4E
$GPRMC,002321.3,A,3308.951757,N,11711.821200,W,56.1,315.5,070510,,,A*40
$GPRMC,002324.3,A,3308.985857,N,11711.860100,W,57.0,315.6,070510,,,A*46
$GPRMC,002327.3,A,3309.020114,N,11711.899854,W,57.5,315.7,070510,,,A*46
$GPRMC,002330.3,A,3309.054832,N,11711.939997,W,57.7,315.7,070510,,,A*49
$GPRMC,002333.3,A,3309.088747,N,11711.979556,W,56.4,315.8,070510,,,A*4E
$GPRMC,002336.3,A,3309.122365,N,11712.018622,W,56.7,315.5,070510,,,A*4D
$GPRMC,002339.3,A,3309.156788,N,11712.058571,W,58.3,315.6,070510,,,A*4E
$GPRMC,002342.3,A,3309.191917,N,11712.099589,W,59.3,315.5,070510,,,A*49
$GPRMC,002345.3,A,3309.226918,N,11712.141182,W,59.6,315.4,070510,,,A*41
$GPRMC,002348.3,A,3309.262346,N,11712.182691,W,60.0,315.6,070510,,,A*49
$GPRMC,002351.3,A,3309.298194,N,11712.224115,W,60.2,315.7,070510,,,A*4E
$GPRMC,002354.3,A,3309.334484,N,11712.266174,W,61.0,315.8,070510,,,A*45
$GPRMC,002357.3,A,3309.370754,N,11712.307763,W,61.0,316.5,070510,,,A*40
$GPRMC,002400.3,A,3309.407705,N,11712.348455,W,60.9,318.1,070510,,,A*49
$GPRMC,002403.3,A,3309.446040,N,11712.387848,W,61.3,320.0,070510,,,A*4B
$GPRMC,002406.3,A,3309.485622,N,11712.425632,W,61.1,322.0,070510,,,A*4F
$GPRMC,002409.3,A,3309.525827,N,11712.461917,W,60.9,323.5,070510,,,A*45
$GPRMC,002412.3,A,3309.566473,N,11712.496528,W,60.5,325.0,070510,,,A*42
$GPRMC,002415.3,A,3309.607871,N,11712.530320,W,60.8,325.4,070510,,,A*45
$GPRMC,002418.3,A,3309.648818,N,11712.564127,W,58.9,325.7,070510,,,A*41
$GPRMC,002421.3,A,3309.686517,N,11712.595969,W,55.0,325.5,070510,,,A*41
$GPRMC,002424.3,A,3309.723488,N,11712.625888,W,52.8,325.8,070510,,,A*49
$GPRMC,002427.3,A,3309.758377,N,11712.654643,W,50.5,325.3,070510,,,A*4A
$GPRMC,002430.3,A,3309.791195,N,11712.681352,W,45.5,326.0,070510,,,A*4E
$GPRMC,002433.3,A,3309.817289,N,11712.702336,W,35.8,326.6,070510,,,A*46
$GPRMC,002436.3,A,3309.839881,N,11712.720907,W,32.8,325.8,070510,,,A*4F
$GPRMC,002439.3,A,3309.862395,N,11712.738974,W,33.1,325.8,070510,,,A*45
$GPRMC,002442.3,A,3309.886372,N,11712.758404,W,35.6,325.6,070510,,,A*49
$GPRMC,002445.3,A,3309.910466,N,11712.778243,W,34.2,325.6,070510,,,A*40
$GPRMC,002448.3,A,3309.932744,N,11712.796526,W,32.7,325.3,070510,,,A*4C
$GPRMC,002451.3,A,3309.955896,N,11712.815338,W,34.3,325.5,070510,,,A*4C
$GPRMC,002454.3,A,3309.980178,N,11712.835086,W,36.0,325.2,070510,,,A*4A
$GPRMC,002457.3,A,3310.005132,N,11712.856010,W,36.8,324.5,070510,,,A*4F
$GPRMC,002500.3,A,3310.029675,N,11712.878085,W,36.3,321.7,070510,,,A*4A
$GPRMC,002503.3,A,3310.051541,N,11712.900157,W,32.9,318.8,070510,,,A*49
$GPRMC,002506.3,A,3310.069603,N,11712.921222,W,30.1,315.7,070510,,,A*48
$GPRMC,002509.3,A,3310.085935,N,11712.941974,W,28.3,312.8,070510,,,A*42
$GPRMC,002512.3,A,3310.100664,N,11712.962819,W,26.6,310.0,070510,,,A*45
$GPRMC,002515.3,A,3310.114500,N,11712.983991,W,27.6,306.9,070510,,,A*47
$GPRMC,002518.3,A,3310.128270,N,11713.007238,W,29.0,304.1,070510,,,A*4B
$GPRMC,002521.3,A,3310.140880,N,11713.031601,W,28.7,301.6,070510,,,A*45
$GPRMC,002524.3,A,3310.152661,N,11713.056668,W,28.4,299.0,070510,,,A*49
$GPRMC,002527.3,A,3310.162896,N,11713.081065,W,27.4,296.0,070510,,,A*4E
$GPRMC,002530.3,A,3310.171374,N,11713.103154,W,23.3,293.8,070510,,,A*4B
$GPRMC,002533.3,A,3310.178661,N,11713.124017,W,23.0,291.6,070510,,,A*4C
$GPRMC,002536.3,A,3310.186129,N,11713.147162,W,26.1,290.8,070510,,,A*4E
$GPRMC,002539.3,A,3310.194742,N,11713.173889,W,29.9,290.9,070510,,,A*44
$GPRMC,002542.3,A,3310.203871,N,11713.203462,W,32.8,291.4,070510,,,A*40
$GPRMC,002545.3,A,3310.214108,N,11713.235373,W,34.7,291.0,070510,,,A*49
$GPRMC,002548.3,A,3310.223892,N,11713.266006,W,30.9,291.0,070510,,,A*47
$GPRMC,002551.3,A,3310.232013,N,11713.291047,W,25.2,291.4,070510,,,A*48
$GPRMC,002554.3,A,3310.239737,N,11713.312482,W,22.7,294.0,070510,,,A*43
$GPRMC,002557.3,A,3310.247529,N,11713.331364,W,20.3,297.8,070510,,,A*47
$GPRMC,002600.3,A,3310.255012,N,11713.348273,W,18.0,300.0,070510,,,A*4E
$GPRMC,002603.3,A,3310.262917,N,11713.363691,W,18.9,303.1,070510,,,A*4F
$GPRMC,002606.3,A,3310.273332,N,11713.381040,W,22.8,305.8,070510,,,A*46
$GPRMC,002609.3,A,3310.285973,N,11713.400242,W,25.4,309.3,070510,,,A*4D
$GPRMC,002612.3,A,3310.300632,N,11713.418917,W,25.6,313.3,070510,,,A*4A
$GPRMC,002615.3,A,3310.317516,N,11713.436775,W,26.4,317.4,070510,,,A*4A
$GPRMC,002618.3,A,3310.335230,N,11713.453739,W,27.4,321.3,070510,,,A*4C
$GPRMC,002621.3,A,3310.354653,N,11713.469699,W,28.4,325.6,070510,,,A*4C
$GPRMC,002624.3,A,3310.376309,N,11713.485027,W,30.7,329.4,070510,,,A*46
$GPRMC,002627.3,A,3310.400146,N,11713.501128,W,33.5,330.2,070510,,,A*46
$GPRMC,002630.3,A,3310.425385,N,11713.518249,W,35.3,330.0,070510,,,A*44
$GPRMC,002633.3,A,3310.452114,N,11713.536394,W,37.6,330.1,070510,,,A*46
$GPRMC,002636.3,A,3310.480843,N,11713.555721,W,39.6,330.3,070510,,,A*44
$GPRMC,002639.3,A,3310.510429,N,11713.575799,W,40.7,330.3,070510,,,A*4D
$GPRMC,002642.3,A,3310.539680,N,11713.595160,W,39.3,330.6,070510,,,A*4A
$GPRMC,002645.3,A,3310.567603,N,11713.613905,W,37.8,330.4,070510,,,A*4C
$GPRMC,002648.3,A,3310.595092,N,11713.632567,W,38.0,330.7,070510,,,A*4D
$GPRMC,002651.3,A,3310.623340,N,11713.651299,W,38.6,330.6,070510,,,A*43
$GPRMC,002654.3,A,3310.652079,N,11713.670643,W,39.8,330.2,070510,,,A*42
$GPRMC,002657.3,A,3310.681978,N,11713.691013,W,41.5,330.3,070510,,,A*48
$GPRMC,002700.3,A,3310.713458,N,11713.712272,W,43.6,330.2,070510,,,A*41
$GPRMC,002703.3,A,3310.746622,N,11713.734276,W,45.7,330.4,070510,,,A*4C
$GPRMC,002706.3,A,3310.781046,N,11713.757311,W,47.6,330.3,070510,,,A*47
$GPRMC,002709.3,A,3310.816188,N,11713.781137,W,49.2,330.4,070510,,,A*4A
$GPRMC,002712.3,A,3310.852453,N,11713.805476,W,49.9,330.4,070510,,,A*4B
$GPRMC,002715.3,A,3310.888566,N,11713.829978,W,49.0,330.1,070510,,,A*4D
$GPRMC,002718.3,A,3310.923855,N,11713.853583,W,48.0,330.4,070510,,,A*4C
$GPRMC,002721.3,A,3310.958792,N,11713.877169,W,48.1,330.6,070510,,,A*4B
$GPRMC,002724.3,A,3310.994135,N,11713.900706,W,48.7,330.5,070510,,,A*4E
$GPRMC,002727.3,A,3311.030411,N,11713.924984,W,50.0,330.7,070510,,,A*46
$GPRMC,002730.3,A,3311.066582,N,11713.950270,W,50.7,328.8,070510,,,A*4A
$GPRMC,002733.3,A,3311.101937,N,11713.978479,W,51.8,324.6,070510,,,A*42
$GPRMC,002736.3,A,3311.135922,N,11714.011005,W,52.9,320.2,070510,,,A*48
$GPRMC,002739.3,A,3311.168605,N,11714.046080,W,53.0,318.1,070510,,,A*4A
$GPRMC,002742.3,A,3311.195354,N,11714.083431,W,48.0,311.0,070510,,,A*40
$GPRMC,002745.3,A,3311.217044,N,11714.118927,W,42.7,306.9,070510,,,A*47
$GPRMC,002748.3,A,3311.236349,N,11714.151683,W,37.4,305.5,070510,,,A*45
$GPRMC,002751.3,A,3311.252458,N,11714.180067,W,34.0,305.3,070510,,,A*49
$GPRMC,002754.3,A,3311.268109,N,11714.207445,W,33.8,305.1,070510,,,A*41
$GPRMC,002757.3,A,3311.284208,N,11714.234987,W,34.4,305.2,070510,,,A*49
$GPRMC,002800.3,A,3311.300968,N,11714.264299,W,37.0,304.6,070510,,,A*47
$GPRMC,002803.3,A,3311.319077,N,11714.295474,W,38.3,304.8,070510,,,A*42
$GPRMC,002806.3,A,3311.336869,N,11714.326281,W,37.5,304.9,070510,,,A*40
$GPRMC,002809.3,A,3311.354310,N,11714.356078,W,36.8,305.5,070510,,,A*4C
$GPRMC,002812.3,A,3311.371641,N,11714.384884,W,34.0,305.5,070510,,,A*4E
$GPRMC,002815.3,A,3311.387033,N,11714.410358,W,30.9,305.1,070510,,,A*4A
$GPRMC,002818.3,A,3311.400370,N,11714.433506,W,27.7,305.0,070510,,,A*4E
$GPRMC,002821.3,A,3311.413569,N,11714.456404,W,29.0,304.9,070510,,,A*49
$GPRMC,002824.3,A,3311.427753,N,11714.480438,W,29.6,305.2,070510,,,A*48
$GPRMC,002827.3,A,3311.441298,N,11714.503791,W,28.5,305.0,070510,,,A*43
$GPRMC,002830.3,A,3311.454326,N,11714.527356,W,29.5,304.5,070510,,,A*49
$GPRMC,002833.3,A,3311.469463,N,11714.552993,W,33.0,305.0,070510,,,A*49
$GPRMC,002836.3,A,3311.486171,N,11714.581008,W,35.7,305.0,070510,,,A*4F
$GPRMC,002839.3,A,3311.503511,N,11714.611038,W,37.7,305.0,070510,,,A*45
$GPRMC,002842.3,A,3311.521388,N,11714.642129,W,38.5,305.2,070510,,,A*47
$GPRMC,002845.3,A,3311.540574,N,11714.674088,W,39.9,305.2,070510,,,A*40
$GPRMC,002848.3,A,3311.559435,N,11714.706795,W,40.1,304.9,070510,,,A*42
$GPRMC,002851.3,A,3311.578193,N,11714.738849,W,39.3,305.3,070510,,,A*44
$GPRMC,002854.3,A,3311.596313,N,11714.769674,W,37.8,305.0,070510,,,A*49
$GPRMC,002857.3,A,3311.614431,N,11714.800711,W,39.1,305.0,070510,,,A*41
$GPRMC,002900.3,A,3311.634238,N,11714.834045,W,42.6,305.0,070510,,,A*45
$GPRMC,002903.3,A,3311.655519,N,11714.870145,W,45.3,303.7,070510,,,A*47
$GPRMC,002906.3,A,3311.674023,N,11714.910788,W,48.3,298.2,070510,,,A*46
$GPRMC,002909.3,A,3311.689137,N,11714.956637,W,51.1,291.6,070510,,,A*4F
$GPRMC,002912.3,A,3311.701141,N,11715.006261,W,52.9,286.2,070510,,,A*46
$GPRMC,002915.3,A,3311.706004,N,11715.060545,W,54.8,276.0,070510,,,A*4D
$GPRMC,002918.3,A,3311.705942,N,11715.115741,W,55.4,268.1,070510,,,A*4E
$GPRMC,002921.3,A,3311.699583,N,11715.170737,W,56.4,261.5,070510,,,A*4D
$GPRMC,002924.3,A,3311.691998,N,11715.226321,W,57.1,260.8,070510,,,A*4D
$GPRMC,002927.3,A,3311.683441,N,11715.282600,W,57.9,260.4,070510,,,A*48
$GPRMC,002930.3,A,3311.674890,N,11715.339349,W,57.6,260.4,070510,,,A*40
$GPRMC,002933.3,A,3311.666741,N,11715.395860,W,57.6,260.8,070510,,,A*49
$GPRMC,002936.3,A,3311.660128,N,11715.453328,W,59.1,263.8,070510,,,A*43
$GPRMC,002939.3,A,3311.657717,N,11715.512614,W,60.0,269.0,070510,,,A*45
$GPRMC,002942.3,A,3311.658787,N,11715.571728,W,59.2,271.7,070510,,,A*42
$GPRMC,002945.3,A,3311.660182,N,11715.630037,W,59.1,271.7,070510,,,A*41
$GPRMC,002948.3,A,3311.661718,N,11715.688446,W,59.0,271.7,070510,,,A*48
$GPRMC,002951.3,A,3311.662639,N,11715.747020,W,59.0,271.2,070510,,,A*42
$GPRMC,002954.3,A,3311.663240,N,11715.804180,W,57.5,270.0,070510,,,A*47
$GPRMC,002957.3,A,3311.659584,N,11715.859778,W,56.1,265.2,070510,,,A*48
$GPRMC,003000.3,A,3311.652457,N,11715.914372,W,55.2,259.6,070510,,,A*4B
$GPRMC,003003.3,A,3311.640399,N,11715.967685,W,54.8,254.2,070510,,,A*45
$GPRMC,003006.3,A,3311.624227,N,11716.019379,W,55.3,248.4,070510,,,A*42
$GPRMC,003009.3,A,3311.604696,N,11716.070580,W,56.6,245.4,070510,,,A*45
$GPRMC,003012.3,A,3311.583693,N,11716.122052,W,58.1,244.5,070510,,,A*43
$GPRMC,003015.3,A,3311.562813,N,11716.174331,W,58.3,244.7,070510,,,A*48
$GPRMC,003018.3,A,3311.541486,N,11716.226786,W,58.6,244.9,070510,,,A*43
$GPRMC,003021.3,A,3311.519799,N,11716.280262,W,59.8,244.7,070510,,,A*4B
$GPRMC,003024.3,A,3311.497696,N,11716.333452,W,59.4,243.4,070510,,,A*43
$GPRMC,003027.3,A,3311.474318,N,11716.384881,W,58.6,241.2,070510,,,A*47
$GPRMC,003030.3,A,3311.450264,N,11716.434292,W,56.5,239.4,070510,,,A*4D
$GPRMC,003033.3,A,3311.425792,N,11716.482794,W,56.9,238.6,070510,,,A*41
$GPRMC,003036.3,A,3311.400546,N,11716.532279,W,58.6,239.2,070510,,,A*40
$GPRMC,003039.3,A,3311.375563,N,11716.582928,W,59.2,240.0,070510,,,A*40
$GPRMC,003042.3,A,3311.351091,N,11716.633109,W,58.3,240.1,070510,,,A*41
$GPRMC,003045.3,A,3311.327083,N,11716.682993,W,58.4,240.3,070510,,,A*40
$GPRMC,003048.3,A,3311.302842,N,11716.733018,W,58.2,240.3,070510,,,A*48
$GPRMC,003051.3,A,3311.279724,N,11716.782916,W,57.5,241.1,070510,,,A*44
$GPRMC,003054.3,A,3311.255918,N,11716.832626,W,57.5,240.0,070510,,,A*46
$GPRMC,003057.3,A,3311.231176,N,11716.882049,W,57.9,239.3,070510,,,A*42
$GPRMC,003100.3,A,3311.205807,N,11716.931490,W,58.4,238.6,070510,,,A*46
$GPRMC,003103.3,A,3311.180427,N,11716.981126,W,58.9,238.7,070510,,,A*4A
$GPRMC,003106.3,A,3311.155034,N,11717.031217,W,58.7,238.6,070510,,,A*4C
$GPRMC,003109.3,A,3311.129959,N,11717.080718,W,58.2,238.9,070510,,,A*40
$GPRMC,003112.3,A,3311.104975,N,11717.129710,W,57.5,239.1,070510,,,A*40
$GPRMC,003115.3,A,3311.081922,N,11717.178733,W,56.7,242.3,070510,,,A*41
$GPRMC,003118.3,A,3311.062617,N,11717.229046,W,56.3,246.3,070510,,,A*4A
$GPRMC,003121.3,A,3311.045969,N,11717.280577,W,55.8,250.3,070510,,,A*48
$GPRMC,003124.3,A,3311.032904,N,11717.333347,W,56.1,254.5,070510,,,A*42
$GPRMC,003127.3,A,3311.023349,N,11717.387568,W,56.0,258.4,070510,,,A*4A
$GPRMC,003130.3,A,3311.016794,N,11717.441694,W,55.7,262.3,070510,,,A*49
$GPRMC,003133.3,A,3311.013222,N,11717.495630,W,55.1,265.2,070510,,,A*40
$GPRMC,003136.3,A,3311.010333,N,11717.549685,W,54.5,265.9,070510,,,A*47
$GPRMC,003139.3,A,3311.007531,N,11717.602307,W,52.9,265.6,070510,,,A*4C
$GPRMC,003142.3,A,3311.004685,N,11717.652499,W,50.0,265.8,070510,,,A*4F
$GPRMC,003145.3,A,3311.001772,N,11717.702190,W,50.9,265.7,070510,,,A*4A
$GPRMC,003148.3,A,3310.997107,N,11717.755373,W,54.9,265.1,070510,,,A*4B
$GPRMC,003151.3,A,3310.993251,N,11717.812447,W,58.7,265.9,070510,,,A*41
$GPRMC,003154.3,A,3310.987794,N,11717.871830,W,60.2,263.3,070510,,,A*46
$GPRMC,003157.3,A,3310.977687,N,11717.931852,W,61.1,257.5,070510,,,A*4B
$GPRMC,003200.3,A,3310.963023,N,11717.990337,W,61.1,252.2,070510,,,A*46
$GPRMC,003203.3,A,3310.944834,N,11718.047490,W,61.0,249.4,070510,,,A*45
$GPRMC,003206.3,A,3310.926100,N,11718.103585,W,60.4,248.6,070510,,,A*48
$GPRMC,003209.3,A,3310.907229,N,11718.159116,W,59.9,248.9,070510,,,A*45
$GPRMC,003212.3,A,3310.888764,N,11718.214788,W,60.1,249.2,070510,,,A*46
$GPRMC,003215.3,A,3310.869999,N,11718.270856,W,60.6,248.7,070510,,,A*4F
$GPRMC,003218.3,A,3310.851374,N,11718.326665,W,60.2,248.5,070510,,,A*4A
$GPRMC,003221.3,A,3310.832976,N,11718.381664,W,59.6,248.5,070510,,,A*4F
$GPRMC,003224.3,A,3310.815221,N,11718.436545,W,59.0,249.7,070510,,,A*48
$GPRMC,003227.3,A,3310.802014,N,11718.492561,W,59.2,255.2,070510,,,A*4B
$GPRMC,003230.3,A,3310.795754,N,11718.552221,W,60.8,263.5,070510,,,A*43
$GPRMC,003233.3,A,3310.794789,N,11718.612958,W,62.2,270.8,070510,,,A*44
$GPRMC,003236.3,A,3310.800190,N,11718.675063,W,63.6,277.6,070510,,,A*41
$GPRMC,003239.3,A,3310.809143,N,11718.737781,W,64.2,279.7,070510,,,A*49
$GPRMC,003242.3,A,3310.817600,N,11718.800925,W,64.3,279.0,070510,,,A*47
$GPRMC,003245.3,A,3310.825255,N,11718.863354,W,63.3,278.3,070510,,,A*49
$GPRMC,003248.3,A,3310.832553,N,11718.924547,W,62.2,278.9,070510,,,A*4F
$GPRMC,003251.3,A,3310.842120,N,11718.983787,W,61.4,282.1,070510,,,A*4B
$GPRMC,003254.3,A,3310.855261,N,11719.041502,W,60.8,285.8,070510,,,A*44
$GPRMC,003257.3,A,3310.871273,N,11719.098544,W,60.8,288.8,070510,,,A*49
$GPRMC,003300.3,A,3310.888168,N,11719.154523,W,59.9,290.0,070510,,,A*4F
$GPRMC,003303.3,A,3310.905353,N,11719.210594,W,60.3,290.0,070510,,,A*4D
$GPRMC,003306.3,A,3310.922036,N,11719.266147,W,59.1,289.7,070510,,,A*41
$GPRMC,003309.3,A,3310.935367,N,11719.322043,W,58.5,283.5,070510,,,A*46
$GPRMC,003312.3,A,3310.941072,N,11719.379161,W,57.3,275.0,070510,,,A*42
$GPRMC,003315.3,A,3310.941015,N,11719.435857,W,56.6,268.5,070510,,,A*4A
$GPRMC,003318.3,A,3310.933682,N,11719.491784,W,56.6,259.6,070510,,,A*44
$GPRMC,003321.3,A,3310.921813,N,11719.546630,W,56.8,255.4,070510,,,A*4E
$GPRMC,003324.3,A,3310.908871,N,11719.601801,W,57.5,255.0,070510,,,A*40
$GPRMC,003327.3,A,3310.896079,N,11719.657466,W,58.3,254.8,070510,,,A*4B
$GPRMC,003330.3,A,3310.884656,N,11719.713084,W,57.7,257.8,070510,,,A*44
$GPRMC,003333.3,A,3310.877658,N,11719.768610,W,57.7,263.0,070510,,,A*4D
$GPRMC,003336.3,A,3310.875800,N,11719.826719,W,59.4,268.7,070510,,,A*45
$GPRMC,003339.3,A,3310.876101,N,11719.886687,W,60.8,271.1,070510,,,A*45
$GPRMC,003342.3,A,3310.877463,N,11719.947588,W,60.9,270.6,070510,,,A*4E
$GPRMC,003345.3,A,3310.877170,N,11720.007708,W,60.4,269.5,070510,,,A*45
$GPRMC,003348.3,A,3310.876796,N,11720.067531,W,60.2,269.6,070510,,,A*4C
$GPRMC,003351.3,A,3310.876664,N,11720.126447,W,59.3,269.7,070510,,,A*46
$GPRMC,003354.3,A,3310.876543,N,11720.184569,W,58.4,269.9,070510,,,A*48
$GPRMC,003357.3,A,3310.876228,N,11720.241928,W,58.0,269.6,070510,,,A*49
$GPRMC,003400.3,A,3310.876346,N,11720.299509,W,58.6,269.7,070510,,,A*48
$GPRMC,003403.3,A,3310.876063,N,11720.357934,W,58.9,269.8,070510,,,A*4E
$GPRMC,003406.3,A,3310.875907,N,11720.416268,W,58.8,269.5,070510,,,A*4F
$GPRMC,003409.3,A,3310.876183,N,11720.474162,W,58.8,270.3,070510,,,A*44
$GPRMC,003412.3,A,3310.874677,N,11720.532014,W,58.2,266.9,070510,,,A*44
$GPRMC,003415.3,A,3310.867625,N,11720.590254,W,57.8,260.4,070510,,,A*46
$GPRMC,003418.3,A,3310.855785,N,11720.646312,W,57.5,254.8,070510,,,A*4C
$GPRMC,003421.3,A,3310.839462,N,11720.700586,W,57.4,249.6,070510,,,A*4D
$GPRMC,003424.3,A,3310.818898,N,11720.753040,W,57.4,243.5,070510,,,A*42
$GPRMC,003427.3,A,3310.794604,N,11720.802421,W,57.2,238.1,070510,,,A*47
$GPRMC,003430.3,A,3310.767234,N,11720.848936,W,56.1,234.1,070510,,,A*41
$GPRMC,003433.3,A,3310.740067,N,11720.892925,W,54.7,233.6,070510,,,A*42
$GPRMC,003436.3,A,3310.712530,N,11720.936214,W,53.7,233.4,070510,,,A*44
$GPRMC,003439.3,A,3310.686705,N,11720.976970,W,50.0,233.1,070510,,,A*4F
$GPRMC,003442.3,A,3310.663292,N,11721.013665,W,45.0,232.5,070510,,,A*42
$GPRMC,003445.3,A,3310.643537,N,11721.045799,W,38.2,232.8,070510,,,A*4B
$GPRMC,003448.3,A,3310.628749,N,11721.070148,W,28.0,232.7,070510,,,A*40
$GPRMC,003451.3,A,3310.618690,N,11721.086964,W,18.7,232.9,070510,,,A*4B
$GPRMC,003454.3,A,3310.613352,N,11721.096609,W,10.4,231.6,070510,,,A*4C
$GPRMC,003533.3,A,3310.612511,N,11721.101243,W,5.5,239.5,070510,,,A*77
$GPRMC,003536.3,A,3310.607584,N,11721.109934,W,12.1,237.5,070510,,,A*45
$GPRMC,003539.3,A,3310.599424,N,11721.119878,W,13.4,211.6,070510,,,A*4E
$GPRMC,003542.3,A,3310.587491,N,11721.120828,W,15.1,173.2,070510,,,A*4C
$GPRMC,003545.3,A,3310.572125,N,11721.118839,W,18.8,172.0,070510,,,A*47
$GPRMC,003548.3,A,3310.554744,N,11721.115950,W,21.1,169.5,070510,,,A*40
$GPRMC,003551.3,A,3310.536145,N,11721.109736,W,23.7,160.6,070510,,,A*46
$GPRMC,003554.3,A,3310.519979,N,11721.096374,W,22.8,136.4,070510,,,A*43
$GPRMC,003557.3,A,3310.513546,N,11721.075795,W,21.7,102.1,070510,,,A*42
$GPRMC,003600.3,A,3310.512578,N,11721.052315,W,23.7,90.7,070510,,,A*78
$GPRMC,003603.3,A,3310.509493,N,11721.027894,W,25.4,103.4,070510,,,A*48
$GPRMC,003606.3,A,3310.496070,N,11721.005198,W,28.7,131.7,070510,,,A*4A
$GPRMC,003609.3,A,3310.473715,N,11720.985120,W,35.7,143.3,070510,,,A*44
$GPRMC,003612.3,A,3310.447087,N,11720.962829,W,40.4,145.5,070510,,,A*4D
$GPRMC,003615.3,A,3310.417049,N,11720.938405,W,45.2,145.3,070510,,,A*45
$GPRMC,003618.3,A,3310.383202,N,11720.911551,W,50.2,146.1,070510,,,A*41
$GPRMC,003621.3,A,3310.346047,N,11720.883758,W,52.9,147.5,070510,,,A*4C
$GPRMC,003624.3,A,3310.308251,N,11720.855426,W,53.3,147.8,070510,,,A*41
$GPRMC,003627.3,A,3310.271191,N,11720.828005,W,52.1,148.1,070510,,,A*48
$GPRMC,003630.3,A,3310.234300,N,11720.801201,W,51.3,148.6,070510,,,A*4E
$GPRMC,003633.3,A,3310.198808,N,11720.774567,W,50.2,148.0,070510,,,A*47
$GPRMC,003636.3,A,3310.163074,N,11720.748955,W,49.8,149.0,070510,,,A*44
$GPRMC,003639.3,A,3310.126552,N,11720.724453,W,50.1,151.0,070510,,,A*42
$GPRMC,003642.3,A,3310.088032,N,11720.701043,W,52.1,153.3,070510,,,A*49
$GPRMC,003645.3,A,3310.048213,N,11720.678592,W,53.2,155.4,070510,,,A*46
$GPRMC,003648.3,A,3310.007158,N,11720.657183,W,54.3,156.8,070510,,,A*4C
$GPRMC,003651.3,A,3309.965957,N,11720.635397,W,55.1,156.6,070510,,,A*48
$GPRMC,003654.3,A,3309.923401,N,11720.613519,W,55.7,156.9,070510,,,A*4C
$GPRMC,003657.3,A,3309.880630,N,11720.591647,W,56.1,156.8,070510,,,A*42
$GPRMC,003700.3,A,3309.837572,N,11720.569623,W,56.1,156.8,070510,,,A*4D
$GPRMC,003703.3,A,3309.794437,N,11720.548304,W,55.9,157.3,070510,,,A*4A
$GPRMC,003706.3,A,3309.751621,N,11720.526826,W,55.7,156.7,070510,,,A*4B
$GPRMC,003709.3,A,3309.709248,N,11720.504347,W,55.7,155.8,070510,,,A*42
$GPRMC,003712.3,A,3309.666313,N,11720.481321,W,57.0,156.1,070510,,,A*4C
$GPRMC,003715.3,A,3309.621437,N,11720.458016,W,58.5,156.5,070510,,,A*44
$GPRMC,003718.3,A,3309.576687,N,11720.434613,W,58.9,156.6,070510,,,A*47
$GPRMC,003721.3,A,3309.531705,N,11720.411478,W,58.8,156.7,070510,,,A*4D
$GPRMC,003724.3,A,3309.486413,N,11720.388622,W,58.7,157.0,070510,,,A*42
$GPRMC,003727.3,A,3309.440923,N,11720.365904,W,59.1,156.9,070510,,,A*42
$GPRMC,003730.3,A,3309.395690,N,11720.342825,W,59.3,156.8,070510,,,A*48
$GPRMC,003733.3,A,3309.349733,N,11720.319422,W,59.7,156.8,070510,,,A*43
$GPRMC,003736.3,A,3309.303562,N,11720.295798,W,60.2,156.5,070510,,,A*4B
$GPRMC,003739.3,A,3309.257653,N,11720.270521,W,60.3,154.6,070510,,,A*4E
$GPRMC,003742.3,A,3309.212881,N,11720.244746,W,59.5,154.0,070510,,,A*4C
$GPRMC,003745.3,A,3309.168284,N,11720.219015,W,59.2,154.1,070510,,,A*45
$GPRMC,003748.3,A,3309.123811,N,11720.193803,W,58.9,154.6,070510,,,A*42
$GPRMC,003751.3,A,3309.080147,N,11720.168860,W,57.1,154.2,070510,,,A*4A
$GPRMC,003754.3,A,3309.037281,N,11720.143976,W,57.4,154.0,070510,,,A*42
$GPRMC,003757.3,A,3308.993879,N,11720.118638,W,58.3,154.1,070510,,,A*48
$GPRMC,003800.3,A,3308.949999,N,11720.093417,W,58.9,154.2,070510,,,A*49
$GPRMC,003803.3,A,3308.905847,N,11720.068735,W,58.1,155.9,070510,,,A*45
$GPRMC,003806.3,A,3308.859500,N,11720.048813,W,58.6,162.0,070510,,,A*45
$GPRMC,003809.3,A,3308.813084,N,11720.036070,W,56.9,169.5,070510,,,A*46
$GPRMC,003812.3,A,3308.766786,N,11720.030338,W,55.6,176.4,070510,,,A*4E
$GPRMC,003815.3,A,3308.719033,N,11720.029201,W,57.6,178.4,070510,,,A*47
$GPRMC,003818.3,A,3308.669688,N,11720.026620,W,58.7,177.3,070510,,,A*44
$GPRMC,003821.3,A,3308.621348,N,11720.024351,W,57.6,177.4,070510,,,A*43
$GPRMC,003824.3,A,3308.575413,N,11720.018825,W,55.4,172.4,070510,,,A*4F
$GPRMC,003827.3,A,3308.531030,N,11720.006623,W,54.7,164.6,070510,,,A*49
$GPRMC,003830.3,A,3308.488424,N,11719.988265,W,54.6,158.3,070510,,,A*45
$GPRMC,003833.3,A,3308.446311,N,11719.967082,W,54.8,157.3,070510,,,A*4E
$GPRMC,003836.3,A,3308.404061,N,11719.945694,W,55.4,157.0,070510,,,A*46
$GPRMC,003839.3,A,3308.361468,N,11719.923378,W,56.3,156.4,070510,,,A*46
$GPRMC,003842.3,A,3308.317411,N,11719.900946,W,57.6,156.7,070510,,,A*44
$GPRMC,003845.3,A,3308.272485,N,11719.878036,W,58.5,156.8,070510,,,A*4F
$GPRMC,003848.3,A,3308.227126,N,11719.854716,W,59.4,156.6,070510,,,A*4B
$GPRMC,003851.3,A,3308.181299,N,11719.831023,W,60.3,156.3,070510,,,A*41
$GPRMC,003854.3,A,3308.135259,N,11719.806330,W,60.7,155.7,070510,,,A*41
$GPRMC,003857.3,A,3308.088831,N,11719.781964,W,60.7,156.4,070510,,,A*4A
$GPRMC,003900.3,A,3308.042848,N,11719.758139,W,60.1,156.5,070510,,,A*42
$GPRMC,003903.3,A,3307.997261,N,11719.733848,W,60.0,155.6,070510,,,A*4D
$GPRMC,003906.3,A,3307.952210,N,11719.708304,W,59.4,153.9,070510,,,A*4B
$GPRMC,003909.3,A,3307.908294,N,11719.681880,W,59.1,153.1,070510,,,A*4D
$GPRMC,003912.3,A,3307.863888,N,11719.655282,W,59.9,153.3,070510,,,A*47
$GPRMC,003915.3,A,3307.819170,N,11719.628654,W,59.8,153.5,070510,,,A*41
$GPRMC,003918.3,A,3307.774528,N,11719.602274,W,59.7,153.2,070510,,,A*47
$GPRMC,003921.3,A,3307.730504,N,11719.575439,W,59.2,152.9,070510,,,A*40
$GPRMC,003924.3,A,3307.686363,N,11719.547748,W,59.5,151.9,070510,,,A*4E
$GPRMC,003927.3,A,3307.642060,N,11719.520823,W,59.2,152.9,070510,,,A*42
$GPRMC,003930.3,A,3307.598052,N,11719.494061,W,59.6,153.0,070510,,,A*4D
$GPRMC,003933.3,A,3307.553332,N,11719.467075,W,60.2,153.0,070510,,,A*4B
$GPRMC,003936.3,A,3307.508192,N,11719.441156,W,60.2,154.7,070510,,,A*4C
$GPRMC,003939.3,A,3307.462533,N,11719.415086,W,60.3,154.1,070510,,,A*4B
$GPRMC,003942.3,A,3307.417846,N,11719.388443,W,60.2,153.5,070510,,,A*46
$GPRMC,003945.3,A,3307.373630,N,11719.361617,W,59.9,153.4,070510,,,A*4F
$GPRMC,003948.3,A,3307.328818,N,11719.335236,W,59.5,153.8,070510,,,A*4E
$GPRMC,003951.3,A,3307.285297,N,11719.309082,W,58.5,153.2,070510,,,A*44
$GPRMC,003954.3,A,3307.242389,N,11719.282911,W,58.1,153.2,070510,,,A*41
$GPRMC,003957.3,A,3307.199071,N,11719.257100,W,58.3,153.4,070510,,,A*47
$GPRMC,004000.3,A,3307.155392,N,11719.230725,W,58.7,153.2,070510,,,A*47
$GPRMC,004003.3,A,3307.111900,N,11719.204636,W,58.6,153.2,070510,,,A*40
$GPRMC,004006.3,A,3307.068314,N,11719.178601,W,58.4,153.2,070510,,,A*4B
$GPRMC,004009.3,A,3307.024578,N,11719.152630,W,58.6,153.2,070510,,,A*48
$GPRMC,004012.3,A,3306.981050,N,11719.126529,W,58.3,153.4,070510,,,A*41
$GPRMC,004015.3,A,3306.937765,N,11719.100832,W,58.0,153.3,070510,,,A*4D
$GPRMC,004018.3,A,3306.894542,N,11719.075015,W,58.0,153.5,070510,,,A*47
$GPRMC,004021.3,A,3306.850866,N,11719.048989,W,58.4,153.3,070510,,,A*4E
$GPRMC,004024.3,A,3306.806955,N,11719.022639,W,58.8,153.4,070510,,,A*4A
$GPRMC,004027.3,A,3306.762811,N,11718.996551,W,58.9,153.5,070510,,,A*4F
$GPRMC,004030.3,A,3306.719044,N,11718.970376,W,58.5,153.2,070510,,,A*4D
$GPRMC,004033.3,A,3306.679523,N,11718.946627,W,49.6,154.2,070510,,,A*4D
$GPRMC,004036.3,A,3306.647262,N,11718.927727,W,41.1,154.5,070510,,,A*49
$GPRMC,004039.3,A,3306.620046,N,11718.911349,W,35.8,153.8,070510,,,A*4A
$GPRMC,004042.3,A,3306.594118,N,11718.895350,W,35.8,153.1,070510,,,A*4C
$GPRMC,004045.3,A,3306.566385,N,11718.879044,W,38.5,153.0,070510,,,A*45
$GPRMC,004048.3,A,3306.536345,N,11718.860811,W,41.6,152.6,070510,,,A*4B
$GPRMC,004051.3,A,3306.504383,N,11718.841088,W,44.0,152.3,070510,,,A*45
$GPRMC,004054.3,A,3306.471471,N,11718.820268,W,45.3,151.5,070510,,,A*45
$GPRMC,004057.3,A,3306.438974,N,11718.799103,W,44.5,151.3,070510,,,A*41
$GPRMC,004100.3,A,3306.405787,N,11718.777397,W,45.8,151.2,070510,,,A*4C
$GPRMC,004103.3,A,3306.371657,N,11718.755002,W,47.3,151.0,070510,,,A*43
$GPRMC,004106.3,A,3306.336477,N,11718.732034,W,48.8,151.5,070510,,,A*40
$GPRMC,004109.3,A,3306.300330,N,11718.708337,W,49.9,151.2,070510,,,A*40
$GPRMC,004112.3,A,3306.262881,N,11718.684111,W,51.3,151.3,070510,,,A*4F
$GPRMC,004115.3,A,3306.224775,N,11718.659710,W,52.1,151.4,070510,,,A*4F
$GPRMC,004118.3,A,3306.186431,N,11718.634583,W,53.2,151.4,070510,,,A*4B
$GPRMC,004121.3,A,3306.147017,N,11718.608983,W,53.6,151.7,070510,,,A*48
$GPRMC,004124.3,A,3306.108628,N,11718.583881,W,52.8,151.4,070510,,,A*43
$GPRMC,004127.3,A,3306.069540,N,11718.558426,W,53.0,151.1,070510,,,A*40
$GPRMC,004130.3,A,3306.030666,N,11718.533295,W,53.2,151.4,070510,,,A*49
$GPRMC,004133.3,A,3305.991410,N,11718.507590,W,54.3,151.3,070510,,,A*4C
$GPRMC,004136.3,A,3305.952023,N,11718.481283,W,54.5,151.1,070510,,,A*4C
$GPRMC,004139.3,A,3305.911936,N,11718.454670,W,54.8,150.9,070510,,,A*4D
$GPRMC,004142.3,A,3305.871256,N,11718.428107,W,55.3,151.1,070510,,,A*44
$GPRMC,004145.3,A,3305.830180,N,11718.401144,W,56.3,150.9,070510,,,A*48
$GPRMC,004148.3,A,3305.788425,N,11718.373564,W,57.6,150.8,070510,,,A*42
$GPRMC,004151.3,A,3305.745807,N,11718.346029,W,58.2,151.1,070510,,,A*4E
$GPRMC,004154.3,A,3305.702556,N,11718.318160,W,59.0,151.6,070510,,,A*42
$GPRMC,004157.3,A,3305.659102,N,11718.289897,W,59.6,151.0,070510,,,A*43
$GPRMC,004200.3,A,3305.615412,N,11718.261270,W,59.5,151.2,070510,,,A*4A
$GPRMC,004203.3,A,3305.571946,N,11718.232661,W,59.1,151.0,070510,,,A*40
$GPRMC,004206.3,A,3305.528675,N,11718.204529,W,58.8,151.1,070510,,,A*45
$GPRMC,004209.3,A,3305.485150,N,11718.176548,W,58.7,151.2,070510,,,A*41
$GPRMC,004212.3,A,3305.442296,N,11718.148487,W,58.5,151.4,070510,,,A*42
$GPRMC,004215.3,A,3305.399856,N,11718.120520,W,58.0,151.1,070510,,,A*40
$GPRMC,004218.3,A,3305.358039,N,11718.093018,W,57.4,151.2,070510,,,A*4E
$GPRMC,004221.3,A,3305.315522,N,11718.065581,W,58.2,151.2,070510,,,A*47
$GPRMC,004224.3,A,3305.272367,N,11718.037721,W,59.4,151.3,070510,,,A*4C
$GPRMC,004227.3,A,3305.228506,N,11718.009112,W,60.0,151.3,070510,,,A*44
$GPRMC,004230.3,A,3305.184187,N,11717.980571,W,60.5,151.3,070510,,,A*49
$GPRMC,004233.3,A,3305.139692,N,11717.952032,W,60.7,151.4,070510,,,A*47
$GPRMC,004236.3,A,3305.095137,N,11717.923283,W,60.8,152.3,070510,,,A*48
$GPRMC,004239.3,A,3305.049104,N,11717.897468,W,60.5,155.5,070510,,,A*47
$GPRMC,004242.3,A,3305.001083,N,11717.876429,W,60.7,161.0,070510,,,A*43
$GPRMC,004245.3,A,3304.951749,N,11717.860404,W,60.7,165.2,070510,,,A*46
$GPRMC,004248.3,A,3304.902930,N,11717.845932,W,60.3,165.8,070510,,,A*4C
$GPRMC,004251.3,A,3304.854945,N,11717.831428,W,59.6,165.6,070510,,,A*40
$GPRMC,004254.3,A,3304.806857,N,11717.816791,W,59.8,165.9,070510,,,A*45
$GPRMC,004257.3,A,3304.758200,N,11717.801663,W,60.2,164.5,070510,,,A*4D
$GPRMC,004300.3,A,3304.709578,N,11717.786085,W,60.1,165.0,070510,,,A*4B
$GPRMC,004303.3,A,3304.661319,N,11717.771365,W,59.8,165.8,070510,,,A*48
$GPRMC,004306.3,A,3304.613458,N,11717.757135,W,59.3,165.9,070510,,,A*43
$GPRMC,004309.3,A,3304.565895,N,11717.742718,W,59.0,165.7,070510,,,A*43
$GPRMC,004312.3,A,3304.518260,N,11717.728617,W,58.8,165.9,070510,,,A*46
$GPRMC,004315.3,A,3304.470838,N,11717.713975,W,58.7,165.8,070510,,,A*44
$GPRMC,004318.3,A,3304.423355,N,11717.699755,W,58.7,166.0,070510,,,A*4B
$GPRMC,004321.3,A,3304.375988,N,11717.685674,W,59.2,165.8,070510,,,A*4F
$GPRMC,004324.3,A,3304.327921,N,11717.671543,W,59.5,166.0,070510,,,A*4E
$GPRMC,004327.3,A,3304.279379,N,11717.657153,W,59.9,165.8,070510,,,A*46
$GPRMC,004330.3,A,3304.230947,N,11717.642666,W,60.2,165.7,070510,,,A*41
$GPRMC,004333.3,A,3304.181820,N,11717.627938,W,60.3,165.7,070510,,,A*4D
$GPRMC,004336.3,A,3304.133017,N,11717.613351,W,60.3,165.9,070510,,,A*41
$GPRMC,004339.3,A,3304.084392,N,11717.599002,W,59.9,166.1,070510,,,A*42
$GPRMC,004342.3,A,3304.036340,N,11717.584184,W,60.3,165.5,070510,,,A*4C
$GPRMC,004345.3,A,3303.987479,N,11717.569271,W,60.3,165.8,070510,,,A*45
$GPRMC,004348.3,A,3303.938962,N,11717.554879,W,59.9,165.9,070510,,,A*46
$GPRMC,004351.3,A,3303.890836,N,11717.540612,W,59.6,166.2,070510,,,A*4C
$GPRMC,004354.3,A,3303.843206,N,11717.526521,W,58.5,165.9,070510,,,A*47
$GPRMC,004357.3,A,3303.796733,N,11717.512096,W,58.2,165.6,070510,,,A*46
$GPRMC,004400.3,A,3303.749786,N,11717.497836,W,58.3,165.9,070510,,,A*4F
$GPRMC,004403.3,A,3303.702756,N,11717.483881,W,58.9,165.4,070510,,,A*40
$GPRMC,004406.3,A,3303.655347,N,11717.469339,W,59.3,165.6,070510,,,A*47
$GPRMC,004409.3,A,3303.606955,N,11717.454690,W,60.0,165.6,070510,,,A*46
$GPRMC,004412.3,A,3303.558021,N,11717.439821,W,61.1,165.7,070510,,,A*40
$GPRMC,004415.3,A,3303.509039,N,11717.425103,W,61.0,165.8,070510,,,A*40
$GPRMC,004418.3,A,3303.460298,N,11717.410409,W,59.8,166.0,070510,,,A*4B
$GPRMC,004421.3,A,3303.413308,N,11717.396562,W,58.0,166.1,070510,,,A*40
$GPRMC,004424.3,A,3303.368213,N,11717.382884,W,55.5,165.8,070510,,,A*47
$GPRMC,004427.3,A,3303.324007,N,11717.369366,W,55.1,165.6,070510,,,A*43
$GPRMC,004430.3,A,3303.280390,N,11717.356462,W,54.0,166.5,070510,,,A*48
$GPRMC,004433.3,A,3303.236869,N,11717.344415,W,53.9,166.9,070510,,,A*4A
$GPRMC,004436.3,A,3303.193313,N,11717.331766,W,54.3,166.4,070510,,,A*40
$GPRMC,004439.3,A,3303.148599,N,11717.318479,W,55.6,165.8,070510,,,A*40
$GPRMC,004442.3,A,3303.102817,N,11717.304970,W,56.4,165.9,070510,,,A*40
$GPRMC,004445.3,A,3303.056629,N,11717.291087,W,57.0,165.9,070510,,,A*4D
$GPRMC,004448.3,A,3303.010271,N,11717.277160,W,57.1,165.7,070510,,,A*44
$GPRMC,004451.3,A,3302.964090,N,11717.262872,W,56.7,165.6,070510,,,A*42
$GPRMC,004454.3,A,3302.918698,N,11717.249002,W,56.1,165.8,070510,,,A*4C
$GPRMC,004457.3,A,3302.873268,N,11717.235430,W,56.0,165.8,070510,,,A*47
$GPRMC,004500.3,A,3302.828615,N,11717.222060,W,54.5,166.2,070510,,,A*4D
$GPRMC,004503.3,A,3302.785083,N,11717.209618,W,53.0,166.1,070510,,,A*4E
$GPRMC,004506.3,A,3302.742944,N,11717.196493,W,53.0,165.6,070510,,,A*42
$GPRMC,004509.3,A,3302.699851,N,11717.183173,W,53.8,165.7,070510,,,A*49
$GPRMC,004512.3,A,3302.655757,N,11717.170164,W,54.6,166.0,070510,,,A*4D
$GPRMC,004515.3,A,3302.611792,N,11717.156881,W,54.1,165.7,070510,,,A*46
$GPRMC,004518.3,A,3302.571100,N,11717.144033,W,50.3,164.4,070510,,,A*45
$GPRMC,004521.3,A,3302.533858,N,11717.129350,W,45.7,161.2,070510,,,A*43
$GPRMC,004524.3,A,3302.499649,N,11717.113350,W,43.7,157.3,070510,,,A*42
$GPRMC,004527.3,A,3302.467957,N,11717.095680,W,42.9,155.1,070510,,,A*48
$GPRMC,004530.3,A,3302.437028,N,11717.076220,W,42.8,152.1,070510,,,A*4F
$GPRMC,004533.3,A,3302.406936,N,11717.055669,W,41.5,150.7,070510,,,A*4A
$GPRMC,004536.3,A,3302.377435,N,11717.035475,W,40.9,150.7,070510,,,A*44
$GPRMC,004539.3,A,3302.348026,N,11717.015721,W,40.8,151.0,070510,,,A*46
$GPRMC,004542.3,A,3302.316940,N,11716.996198,W,43.3,152.2,070510,,,A*46
$GPRMC,004545.3,A,3302.284457,N,11716.974864,W,45.7,150.9,070510,,,A*4D
$GPRMC,004548.3,A,3302.250995,N,11716.952565,W,46.3,150.7,070510,,,A*4B
$GPRMC,004551.3,A,3302.217498,N,11716.929709,W,46.5,150.4,070510,,,A*41
$GPRMC,004554.3,A,3302.183600,N,11716.906685,W,47.3,150.6,070510,,,A*44
$GPRMC,004557.3,A,3302.148626,N,11716.883292,W,48.4,150.5,070510,,,A*41
$GPRMC,004600.3,A,3302.113040,N,11716.859546,W,49.1,150.5,070510,,,A*45
$GPRMC,004603.3,A,3302.077713,N,11716.835943,W,48.5,150.6,070510,,,A*41
$GPRMC,004606.3,A,3302.042402,N,11716.812184,W,48.8,150.5,070510,,,A*49
$GPRMC,004609.3,A,3302.006930,N,11716.788083,W,49.3,150.6,070510,,,A*49
$GPRMC,004612.3,A,3301.970858,N,11716.763566,W,50.1,150.5,070510,,,A*45
$GPRMC,004615.3,A,3301.934765,N,11716.739236,W,49.6,150.5,070510,,,A*41
$GPRMC,004618.3,A,3301.899061,N,11716.715024,W,49.5,150.3,070510,,,A*43
$GPRMC,004621.3,A,3301.862997,N,11716.690583,W,49.7,149.7,070510,,,A*47
$GPRMC,004624.3,A,3301.826508,N,11716.665951,W,50.4,150.5,070510,,,A*40
$GPRMC,004627.3,A,3301.789548,N,11716.641414,W,50.9,150.9,070510,,,A*46
$GPRMC,004630.3,A,3301.751766,N,11716.617168,W,51.3,152.2,070510,,,A*44
$GPRMC,004633.3,A,3301.712598,N,11716.595624,W,50.9,155.3,070510,,,A*48
$GPRMC,004636.3,A,3301.675186,N,11716.575897,W,48.2,156.4,070510,,,A*48
$GPRMC,004639.3,A,3301.638574,N,11716.560883,W,45.1,163.3,070510,,,A*49
$GPRMC,004642.3,A,3301.605892,N,11716.550181,W,37.7,164.8,070510,,,A*49
$GPRMC,004645.3,A,3301.585202,N,11716.543327,W,20.7,166.8,070510,,,A*4E
