NMEA Sentence Code,UTC Time,Status,Latitude,Latitude Direction,Longitude,Longitude Direction,Speed (knots),Track Angle (degrees true),Date,MagneticVariation,Magnetic Variation Direction,[FAA Mode]-Optional,Checksum
$GPRMC,014156.4,A,3240.821609,N,11710.626684,W,4.5,25.9,020110,,,A*4D
$GPRMC,014159.4,A,3240.828673,N,11710.621295,W,7.7,34.9,020110,,,A*44
$GPRMC,014202.4,A,3240.836370,N,11710.612921,W,12.4,38.9,020110,,,A*7F
$GPRMC,014205.4,A,3240.846089,N,11710.605845,W,12.2,34.1,020110,,,A*7D
$GPRMC,014208.4,A,3240.851987,N,11710.609945,W,7.0,351.0,020110,,,A*7B
$GPRMC,014211.4,A,3240.858113,N,11710.616726,W,8.1,330.1,020110,,,A*72
$GPRMC,014214.4,A,3240.864698,N,11710.619601,W,6.5,331.4,020110,,,A*79
$GPRMC,014247.4,A,3240.886994,N,11710.631690,W,8.4,315.6,020110,,,A*79
$GPRMC,014250.4,A,3240.899718,N,11710.645722,W,16.9,309.5,020110,,,A*4C
$GPRMC,014253.4,A,3240.914739,N,11710.660757,W,20.3,318.0,020110,,,A*47
$GPRMC,014256.4,A,3240.933117,N,11710.678630,W,25.3,322.1,020110,,,A*49
$GPRMC,014259.4,A,3240.953211,N,11710.695348,W,26.9,324.2,020110,,,A*40
$GPRMC,014302.4,A,3240.972899,N,11710.710404,W,26.3,330.6,020110,,,A*4E
$GPRMC,014305.4,A,3240.994531,N,11710.717253,W,25.2,347.3,020110,,,A*4A
$GPRMC,014308.4,A,3241.013998,N,11710.720343,W,23.6,352.6,020110,,,A*48
$GPRMC,014311.4,A,3241.033558,N,11710.724999,W,22.8,349.4,020110,,,A*4C
$GPRMC,014314.4,A,3241.050252,N,11710.734989,W,21.9,333.6,020110,,,A*4C
$GPRMC,014317.4,A,3241.066141,N,11710.749647,W,22.5,322.5,020110,,,A*40
$GPRMC,014320.4,A,3241.077268,N,11710.761454,W,16.7,313.8,020110,,,A*4C
$GPRMC,014323.4,A,3241.085849,N,11710.770905,W,13.1,315.3,020110,,,A*4C
$GPRMC,014326.4,A,3241.095254,N,11710.779026,W,13.5,324.8,020110,,,A*42
$GPRMC,014329.4,A,3241.104891,N,11710.785423,W,13.1,333.1,020110,,,A*4E
$GPRMC,014332.4,A,3241.114613,N,11710.789215,W,12.7,342.5,020110,,,A*4B
$GPRMC,014335.4,A,3241.129163,N,11710.792796,W,14.9,351.3,020110,,,A*4A
$GPRMC,014338.4,A,3241.139972,N,11710.791080,W,13.6,357.3,020110,,,A*43
$GPRMC,014341.4,A,3241.148366,N,11710.792188,W,10.9,351.7,020110,,,A*40
$GPRMC,014344.4,A,3241.151524,N,11710.792613,W,7.8,354.8,020110,,,A*75
$GPRMC,014426.4,A,3241.165712,N,11710.774060,W,7.7,48.5,020110,,,A*40
$GPRMC,014429.4,A,3241.179748,N,11710.762015,W,13.5,38.7,020110,,,A*7A
$GPRMC,014432.4,A,3241.199680,N,11710.744749,W,22.8,38.0,020110,,,A*79
$GPRMC,014435.4,A,3241.221834,N,11710.732672,W,25.6,29.3,020110,,,A*7D
$GPRMC,014438.4,A,3241.246188,N,11710.720938,W,26.6,28.3,020110,,,A*7F
$GPRMC,014441.4,A,3241.268187,N,11710.709172,W,25.5,25.2,020110,,,A*73
$GPRMC,014444.4,A,3241.284641,N,11710.699183,W,21.8,25.1,020110,,,A*75
$GPRMC,014447.4,A,3241.296231,N,11710.694296,W,14.9,16.7,020110,,,A*7D
$GPRMC,014450.4,A,3241.303336,N,11710.690191,W,9.6,12.6,020110,,,A*46
$GPRMC,014517.4,A,3241.318997,N,11710.686368,W,8.1,28.0,020110,,,A*45
$GPRMC,014520.4,A,3241.328207,N,11710.679753,W,11.3,28.6,020110,,,A*70
$GPRMC,014523.4,A,3241.338797,N,11710.672895,W,13.4,27.4,020110,,,A*78
$GPRMC,014526.4,A,3241.350968,N,11710.665770,W,16.6,31.7,020110,,,A*7C
$GPRMC,014529.4,A,3241.364411,N,11710.659031,W,15.9,25.6,020110,,,A*72
$GPRMC,014532.4,A,3241.376398,N,11710.652631,W,15.7,24.3,020110,,,A*7A
$GPRMC,014535.4,A,3241.389449,N,11710.646200,W,16.8,25.1,020110,,,A*7A
$GPRMC,014538.4,A,3241.402894,N,11710.638827,W,17.4,25.8,020110,,,A*7D
$GPRMC,014541.4,A,3241.413852,N,11710.631938,W,15.9,25.6,020110,,,A*7E
$GPRMC,014544.4,A,3241.425835,N,11710.624650,W,16.6,29.2,020110,,,A*7E
$GPRMC,014547.4,A,3241.440540,N,11710.617873,W,18.0,23.7,020110,,,A*79
$GPRMC,014550.4,A,3241.452803,N,11710.610614,W,16.9,24.2,020110,,,A*7B
$GPRMC,014553.4,A,3241.464125,N,11710.603443,W,15.7,23.1,020110,,,A*7B
$GPRMC,014556.4,A,3241.476058,N,11710.594823,W,15.7,27.1,020110,,,A*75
$GPRMC,014559.4,A,3241.490046,N,11710.588223,W,16.4,26.4,020110,,,A*7E
$GPRMC,014602.4,A,3241.502780,N,11710.579832,W,17.2,26.7,020110,,,A*74
$GPRMC,014605.4,A,3241.515763,N,11710.573547,W,15.2,26.3,020110,,,A*7B
$GPRMC,014608.4,A,3241.525445,N,11710.567271,W,12.9,22.9,020110,,,A*77
$GPRMC,014611.4,A,3241.530688,N,11710.564697,W,6.3,29.6,020110,,,A*4C
$GPRMC,014620.4,A,3241.534921,N,11710.560905,W,4.8,24.2,020110,,,A*46
$GPRMC,014623.4,A,3241.539795,N,11710.557288,W,7.1,30.4,020110,,,A*4A
$GPRMC,014626.4,A,3241.548835,N,11710.553177,W,11.4,26.4,020110,,,A*7E
$GPRMC,014629.4,A,3241.560818,N,11710.548659,W,13.5,22.3,020110,,,A*75
$GPRMC,014632.4,A,3241.569584,N,11710.544116,W,12.0,23.8,020110,,,A*70
$GPRMC,014635.4,A,3241.576859,N,11710.538557,W,10.2,19.8,020110,,,A*77
$GPRMC,014638.4,A,3241.583267,N,11710.535268,W,9.0,21.5,020110,,,A*4D
$GPRMC,014641.4,A,3241.585984,N,11710.533256,W,6.8,20.9,020110,,,A*42
$GPRMC,014644.4,A,3241.590878,N,11710.529846,W,7.6,23.5,020110,,,A*41
$GPRMC,014647.4,A,3241.595911,N,11710.527250,W,9.0,27.8,020110,,,A*4B
$GPRMC,014650.4,A,3241.602660,N,11710.523757,W,8.3,20.1,020110,,,A*43
$GPRMC,014653.4,A,3241.608813,N,11710.520444,W,6.3,16.9,020110,,,A*41
$GPRMC,014656.4,A,3241.611947,N,11710.518410,W,5.0,16.0,020110,,,A*4F
$GPRMC,014659.4,A,3241.617024,N,11710.518819,W,4.8,14.1,020110,,,A*45
$GPRMC,014702.4,A,3241.618616,N,11710.516430,W,4.6,22.1,020110,,,A*40
$GPRMC,014705.4,A,3241.623346,N,11710.515192,W,5.2,21.0,020110,,,A*46
$GPRMC,014714.4,A,3241.626003,N,11710.505808,W,5.2,42.1,020110,,,A*4E
$GPRMC,014717.4,A,3241.631739,N,11710.501003,W,8.0,36.3,020110,,,A*4C
$GPRMC,014720.4,A,3241.638761,N,11710.496177,W,8.7,30.5,020110,,,A*46
$GPRMC,014723.4,A,3241.642336,N,11710.494848,W,4.9,20.7,020110,,,A*48
$GPRMC,014747.4,A,3241.657058,N,11710.481994,W,5.5,71.4,020110,,,A*4B
$GPRMC,014750.4,A,3241.658242,N,11710.475098,W,6.8,76.3,020110,,,A*4B
$GPRMC,014753.4,A,3241.658371,N,11710.464163,W,9.4,83.8,020110,,,A*4E
$GPRMC,014756.4,A,3241.655737,N,11710.444343,W,15.4,89.8,020110,,,A*75
$GPRMC,014759.4,A,3241.643023,N,11710.415806,W,23.9,106.3,020110,,,A*44
$GPRMC,014802.4,A,3241.627902,N,11710.387394,W,26.7,113.3,020110,,,A*4E
$GPRMC,014805.4,A,3241.612288,N,11710.359201,W,28.1,115.9,020110,,,A*4C
$GPRMC,014808.4,A,3241.598479,N,11710.329456,W,29.6,115.7,020110,,,A*43
$GPRMC,014811.4,A,3241.587596,N,11710.300423,W,30.8,116.5,020110,,,A*4B
$GPRMC,014814.4,A,3241.574423,N,11710.270778,W,31.4,117.0,020110,,,A*4F
$GPRMC,014817.4,A,3241.562863,N,11710.243763,W,30.4,115.4,020110,,,A*4E
$GPRMC,014820.4,A,3241.550160,N,11710.216892,W,29.7,120.0,020110,,,A*49
$GPRMC,014823.4,A,3241.538566,N,11710.189356,W,30.2,118.3,020110,,,A*45
$GPRMC,014826.4,A,3241.526769,N,11710.162416,W,29.7,116.8,020110,,,A*4C
$GPRMC,014829.4,A,3241.514254,N,11710.136850,W,28.4,119.0,020110,,,A*43
$GPRMC,014832.4,A,3241.494796,N,11710.113236,W,31.5,132.5,020110,,,A*43
$GPRMC,014835.4,A,3241.472634,N,11710.091718,W,33.4,137.8,020110,,,A*4C
$GPRMC,014838.4,A,3241.450803,N,11710.065732,W,34.5,136.8,020110,,,A*4F
$GPRMC,014841.4,A,3241.430379,N,11710.037252,W,34.3,132.1,020110,,,A*4E
$GPRMC,014844.4,A,3241.412597,N,11710.006773,W,34.3,128.5,020110,,,A*46
$GPRMC,014847.4,A,3241.395440,N,11709.980981,W,34.0,127.9,020110,,,A*4A
$GPRMC,014850.4,A,3241.377167,N,11709.950464,W,36.0,125.5,020110,,,A*47
$GPRMC,014853.4,A,3241.360103,N,11709.916897,W,36.5,121.8,020110,,,A*4E
$GPRMC,014856.4,A,3241.342183,N,11709.883929,W,37.3,122.2,020110,,,A*44
$GPRMC,014859.4,A,3241.322020,N,11709.854885,W,37.7,125.9,020110,,,A*40
$GPRMC,014902.4,A,3241.303265,N,11709.824782,W,37.2,128.0,020110,,,A*41
$GPRMC,014905.4,A,3241.282906,N,11709.794869,W,38.1,129.1,020110,,,A*42
$GPRMC,014908.4,A,3241.263243,N,11709.762951,W,38.4,127.2,020110,,,A*41
$GPRMC,014911.4,A,3241.245713,N,11709.731932,W,38.2,123.2,020110,,,A*4C
$GPRMC,014914.4,A,3241.229453,N,11709.696110,W,40.6,117.3,020110,,,A*4D
$GPRMC,014917.4,A,3241.214161,N,11709.655507,W,42.0,110.9,020110,,,A*40
$GPRMC,014920.4,A,3241.203335,N,11709.611650,W,44.5,102.1,020110,,,A*48
$GPRMC,014923.4,A,3241.197208,N,11709.569660,W,44.2,96.4,020110,,,A*7B
$GPRMC,014926.4,A,3241.194913,N,11709.525911,W,43.1,93.1,020110,,,A*79
$GPRMC,014929.4,A,3241.198266,N,11709.486327,W,41.9,86.8,020110,,,A*73
$GPRMC,014932.4,A,3241.210467,N,11709.446384,W,42.0,74.9,020110,,,A*7E
$GPRMC,014935.4,A,3241.222625,N,11709.406894,W,42.0,71.1,020110,,,A*7F
$GPRMC,014938.4,A,3241.238718,N,11709.367819,W,43.9,64.4,020110,,,A*7A
$GPRMC,014941.4,A,3241.258250,N,11709.330164,W,43.6,56.5,020110,,,A*75
$GPRMC,014944.4,A,3241.279310,N,11709.295524,W,44.4,54.7,020110,,,A*7D
$GPRMC,014947.4,A,3241.304810,N,11709.264554,W,44.4,48.0,020110,,,A*7D
$GPRMC,014950.4,A,3241.330017,N,11709.237505,W,42.6,44.4,020110,,,A*7D
$GPRMC,014953.4,A,3241.360537,N,11709.211255,W,44.0,40.2,020110,,,A*78
$GPRMC,014956.4,A,3241.388152,N,11709.187180,W,42.9,39.5,020110,,,A*7D
$GPRMC,014959.4,A,3241.413097,N,11709.157824,W,43.5,40.4,020110,,,A*77
$GPRMC,015002.4,A,3241.441467,N,11709.131171,W,44.7,39.5,020110,,,A*7E
$GPRMC,015005.4,A,3241.471534,N,11709.104653,W,43.9,39.1,020110,,,A*71
$GPRMC,015008.4,A,3241.498057,N,11709.078449,W,42.1,40.0,020110,,,A*7E
$GPRMC,015011.4,A,3241.524072,N,11709.051249,W,42.4,40.3,020110,,,A*7C
$GPRMC,015014.4,A,3241.553246,N,11709.024066,W,44.1,40.1,020110,,,A*70
$GPRMC,015017.4,A,3241.582127,N,11708.994858,W,45.0,41.0,020110,,,A*7D
$GPRMC,015020.4,A,3241.609991,N,11708.965697,W,44.6,41.3,020110,,,A*7B
$GPRMC,015023.4,A,3241.639393,N,11708.935871,W,44.3,40.2,020110,,,A*75
$GPRMC,015026.4,A,3241.667071,N,11708.909476,W,43.4,39.1,020110,,,A*7D
$GPRMC,015029.4,A,3241.696446,N,11708.883057,W,44.2,39.3,020110,,,A*7B
$GPRMC,015032.4,A,3241.727068,N,11708.854029,W,45.2,39.4,020110,,,A*77
$GPRMC,015035.4,A,3241.754234,N,11708.825260,W,44.7,40.9,020110,,,A*71
$GPRMC,015038.4,A,3241.784622,N,11708.794314,W,44.8,41.1,020110,,,A*73
$GPRMC,015041.4,A,3241.813626,N,11708.764843,W,44.7,40.8,020110,,,A*79
$GPRMC,015044.4,A,3241.843261,N,11708.737919,W,44.8,41.0,020110,,,A*70
$GPRMC,015047.4,A,3241.873448,N,11708.708995,W,46.2,39.6,020110,,,A*74
$GPRMC,015050.4,A,3241.905212,N,11708.680021,W,47.6,38.9,020110,,,A*77
$GPRMC,015053.4,A,3241.938977,N,11708.649683,W,48.1,39.1,020110,,,A*78
$GPRMC,015056.4,A,3241.969855,N,11708.621327,W,46.4,37.8,020110,,,A*71
$GPRMC,015059.4,A,3241.998109,N,11708.594747,W,43.0,36.6,020110,,,A*71
$GPRMC,015102.4,A,3242.026775,N,11708.576165,W,38.8,26.9,020110,,,A*7C
$GPRMC,015105.4,A,3242.058686,N,11708.567062,W,37.5,13.7,020110,,,A*73
$GPRMC,015108.4,A,3242.088468,N,11708.567460,W,35.0,1.4,020110,,,A*40
$GPRMC,015111.4,A,3242.118572,N,11708.580753,W,35.3,345.4,020110,,,A*40
$GPRMC,015114.4,A,3242.147686,N,11708.623906,W,42.5,311.9,020110,,,A*49
$GPRMC,015117.4,A,3242.170835,N,11708.660851,W,45.7,306.2,020110,,,A*44
$GPRMC,015120.4,A,3242.193410,N,11708.701005,W,48.8,304.6,020110,,,A*4D
$GPRMC,015123.4,A,3242.216024,N,11708.741180,W,49.5,305.9,020110,,,A*49
$GPRMC,015126.4,A,3242.243357,N,11708.780667,W,50.3,311.3,020110,,,A*49
$GPRMC,015129.4,A,3242.274438,N,11708.813293,W,49.3,322.9,020110,,,A*44
$GPRMC,015132.4,A,3242.310896,N,11708.836273,W,49.8,336.9,020110,,,A*42
$GPRMC,015135.4,A,3242.353894,N,11708.849428,W,54.2,348.4,020110,,,A*42
$GPRMC,015138.4,A,3242.396380,N,11708.849486,W,53.6,358.9,020110,,,A*43
$GPRMC,015141.4,A,3242.442211,N,11708.850377,W,54.3,359.3,020110,,,A*42
$GPRMC,015144.4,A,3242.488975,N,11708.851694,W,53.9,358.4,020110,,,A*4A
$GPRMC,015147.4,A,3242.535338,N,11708.852270,W,55.8,358.9,020110,,,A*4A
$GPRMC,015150.4,A,3242.583871,N,11708.853042,W,57.4,358.8,020110,,,A*4A
$GPRMC,015153.4,A,3242.631971,N,11708.853527,W,58.0,359.3,020110,,,A*45
$GPRMC,015156.4,A,3242.678575,N,11708.853797,W,56.8,359.2,020110,,,A*4B
$GPRMC,015159.4,A,3242.725231,N,11708.854795,W,56.0,359.2,020110,,,A*47
$GPRMC,015202.4,A,3242.770207,N,11708.854840,W,54.1,0.0,020110,,,A*46
$GPRMC,015205.4,A,3242.812234,N,11708.854015,W,52.5,0.7,020110,,,A*47
$GPRMC,015208.4,A,3242.855671,N,11708.852225,W,51.8,1.3,020110,,,A*40
$GPRMC,015211.4,A,3242.897374,N,11708.852031,W,51.5,0.1,020110,,,A*4F
$GPRMC,015214.4,A,3242.942601,N,11708.854414,W,52.6,359.9,020110,,,A*46
$GPRMC,015217.4,A,3242.984368,N,11708.854841,W,51.2,0.8,020110,,,A*40
$GPRMC,015220.4,A,3243.023517,N,11708.854832,W,50.1,0.4,020110,,,A*45
$GPRMC,015223.4,A,3243.064458,N,11708.856649,W,48.5,359.3,020110,,,A*4A
$GPRMC,015226.4,A,3243.104810,N,11708.857420,W,48.9,357.6,020110,,,A*43
$GPRMC,015229.4,A,3243.145009,N,11708.863144,W,47.9,353.8,020110,,,A*4C
$GPRMC,015232.4,A,3243.185822,N,11708.871135,W,49.2,350.8,020110,,,A*48
$GPRMC,015235.4,A,3243.224751,N,11708.882115,W,48.0,345.6,020110,,,A*4B
$GPRMC,015238.4,A,3243.259267,N,11708.896848,W,46.5,341.2,020110,,,A*43
$GPRMC,015241.4,A,3243.297059,N,11708.913876,W,45.0,339.4,020110,,,A*4E
$GPRMC,015244.4,A,3243.330671,N,11708.930840,W,42.9,335.9,020110,,,A*40
$GPRMC,015247.4,A,3243.361986,N,11708.948227,W,41.7,333.3,020110,,,A*45
$GPRMC,015250.4,A,3243.390594,N,11708.967643,W,39.5,328.2,020110,,,A*4F
$GPRMC,015253.4,A,3243.416383,N,11708.992117,W,39.8,319.5,020110,,,A*41
$GPRMC,015256.4,A,3243.437103,N,11709.020807,W,38.5,312.0,020110,,,A*46
$GPRMC,015259.4,A,3243.457505,N,11709.053508,W,39.8,305.0,020110,,,A*41
$GPRMC,015302.4,A,3243.471692,N,11709.084758,W,37.1,297.8,020110,,,A*4F
$GPRMC,015305.4,A,3243.481686,N,11709.125066,W,41.4,286.0,020110,,,A*4E
$GPRMC,015308.4,A,3243.486258,N,11709.165502,W,41.8,277.5,020110,,,A*47
$GPRMC,015311.4,A,3243.487305,N,11709.210080,W,44.2,271.4,020110,,,A*41
$GPRMC,015314.4,A,3243.488046,N,11709.254124,W,43.9,272.6,020110,,,A*4D
$GPRMC,015317.4,A,3243.496185,N,11709.290969,W,40.1,285.0,020110,,,A*43
$GPRMC,015320.4,A,3243.513846,N,11709.328595,W,43.2,295.2,020110,,,A*43
$GPRMC,015323.4,A,3243.537344,N,11709.360900,W,42.7,303.3,020110,,,A*48
$GPRMC,015326.4,A,3243.573455,N,11709.357020,W,38.3,326.3,020110,,,A*4B
$GPRMC,015329.4,A,3243.612405,N,11709.345799,W,39.0,355.9,020110,,,A*4F
$GPRMC,015332.4,A,3243.654803,N,11709.337670,W,44.1,6.9,020110,,,A*40
$GPRMC,015335.4,A,3243.691806,N,11709.326071,W,43.5,12.6,020110,,,A*75
$GPRMC,015338.4,A,3243.725582,N,11709.314263,W,42.6,15.8,020110,,,A*7C
$GPRMC,015341.4,A,3243.751463,N,11709.291464,W,40.8,24.4,020110,,,A*70
$GPRMC,015344.4,A,3243.784506,N,11709.275539,W,41.4,21.8,020110,,,A*78
$GPRMC,015347.4,A,3243.818946,N,11709.264950,W,40.7,16.3,020110,,,A*77
$GPRMC,015350.4,A,3243.856026,N,11709.257751,W,41.4,7.4,020110,,,A*4E
$GPRMC,015353.4,A,3243.893591,N,11709.258471,W,43.5,358.1,020110,,,A*4C
$GPRMC,015356.4,A,3243.932715,N,11709.270577,W,46.8,346.5,020110,,,A*43
$GPRMC,015359.4,A,3243.969932,N,11709.290866,W,47.4,336.3,020110,,,A*46
$GPRMC,015402.4,A,3244.005224,N,11709.312128,W,47.6,334.3,020110,,,A*4F
$GPRMC,015405.4,A,3244.042556,N,11709.330725,W,47.5,338.2,020110,,,A*4C
$GPRMC,015408.4,A,3244.080827,N,11709.341695,W,46.8,347.2,020110,,,A*4C
$GPRMC,015411.4,A,3244.121346,N,11709.344335,W,47.5,356.1,020110,,,A*47
$GPRMC,015414.4,A,3244.164414,N,11709.344941,W,49.3,359.1,020110,,,A*4D
$GPRMC,015417.4,A,3244.207210,N,11709.345215,W,49.0,360.0,020110,,,A*49
$GPRMC,015420.4,A,3244.248311,N,11709.345779,W,50.0,356.7,020110,,,A*43
$GPRMC,015423.4,A,3244.289457,N,11709.349217,W,49.2,355.4,020110,,,A*43
$GPRMC,015426.4,A,3244.336261,N,11709.354264,W,52.2,354.1,020110,,,A*46
$GPRMC,015429.4,A,3244.377542,N,11709.361612,W,51.3,352.0,020110,,,A*4C
$GPRMC,015432.4,A,3244.416780,N,11709.366552,W,48.4,353.6,020110,,,A*42
$GPRMC,015435.4,A,3244.455296,N,11709.372002,W,46.2,355.6,020110,,,A*4B
$GPRMC,015438.4,A,3244.494978,N,11709.373155,W,46.9,358.7,020110,,,A*45
$GPRMC,015441.4,A,3244.535662,N,11709.371738,W,47.9,1.7,020110,,,A*44
$GPRMC,015444.4,A,3244.575170,N,11709.367060,W,47.7,5.0,020110,,,A*41
$GPRMC,015447.4,A,3244.614786,N,11709.363366,W,45.4,4.6,020110,,,A*4E
$GPRMC,015450.4,A,3244.648037,N,11709.362484,W,42.6,0.4,020110,,,A*45
$GPRMC,015453.4,A,3244.682710,N,11709.366537,W,43.1,357.4,020110,,,A*48
$GPRMC,015456.4,A,3244.719485,N,11709.368850,W,44.1,357.7,020110,,,A*47
$GPRMC,015459.4,A,3244.758244,N,11709.372803,W,45.3,356.8,020110,,,A*46
$GPRMC,015502.4,A,3244.796609,N,11709.374457,W,43.5,2.2,020110,,,A*45
$GPRMC,015505.4,A,3244.827973,N,11709.370441,W,40.2,10.7,020110,,,A*74
$GPRMC,015508.4,A,3244.859453,N,11709.362833,W,39.7,12.6,020110,,,A*7D
$GPRMC,015511.4,A,3244.889691,N,11709.353971,W,38.1,14.3,020110,,,A*75
$GPRMC,015514.4,A,3244.919839,N,11709.343911,W,38.2,15.6,020110,,,A*74
$GPRMC,015517.4,A,3244.953532,N,11709.330317,W,40.1,19.1,020110,,,A*70
$GPRMC,015520.4,A,3244.985521,N,11709.317881,W,40.9,18.2,020110,,,A*76
$GPRMC,015523.4,A,3245.018990,N,11709.308061,W,40.7,14.9,020110,,,A*7E
$GPRMC,015526.4,A,3245.050851,N,11709.305477,W,38.0,9.2,020110,,,A*4A
$GPRMC,015529.4,A,3245.085927,N,11709.326713,W,40.3,344.3,020110,,,A*4A
$GPRMC,015532.4,A,3245.110814,N,11709.351857,W,42.0,323.7,020110,,,A*47
$GPRMC,015535.4,A,3245.133704,N,11709.382921,W,41.0,310.4,020110,,,A*41
$GPRMC,015538.4,A,3245.152573,N,11709.414308,W,40.0,307.3,020110,,,A*40
$GPRMC,015541.4,A,3245.173861,N,11709.445036,W,40.5,313.5,020110,,,A*4F
$GPRMC,015544.4,A,3245.199095,N,11709.471913,W,42.0,319.0,020110,,,A*4C
$GPRMC,015547.4,A,3245.231193,N,11709.498858,W,46.8,323.3,020110,,,A*46
$GPRMC,015550.4,A,3245.265342,N,11709.522095,W,46.2,328.3,020110,,,A*47
$GPRMC,015553.4,A,3245.304648,N,11709.535863,W,45.8,339.0,020110,,,A*40
$GPRMC,015556.4,A,3245.359795,N,11709.546965,W,54.5,340.6,020110,,,A*4A
$GPRMC,015559.4,A,3245.406964,N,11709.568660,W,58.0,334.2,020110,,,A*40
$GPRMC,015602.4,A,3245.447024,N,11709.598228,W,59.5,327.3,020110,,,A*45
$GPRMC,015605.4,A,3245.481796,N,11709.635289,W,58.1,318.7,020110,,,A*44
$GPRMC,015608.4,A,3245.518245,N,11709.676081,W,58.8,316.4,020110,,,A*4A
$GPRMC,015611.4,A,3245.554308,N,11709.716153,W,58.2,316.3,020110,,,A*46
$GPRMC,015614.4,A,3245.591120,N,11709.754880,W,58.0,320.0,020110,,,A*47
$GPRMC,015617.4,A,3245.635875,N,11709.786372,W,58.6,328.4,020110,,,A*43
$GPRMC,015620.4,A,3245.681263,N,11709.808363,W,58.2,336.0,020110,,,A*43
$GPRMC,015623.4,A,3245.728550,N,11709.808047,W,56.9,351.3,020110,,,A*47
$GPRMC,015626.4,A,3245.777588,N,11709.809831,W,58.2,357.9,020110,,,A*4C
$GPRMC,015629.4,A,3245.829927,N,11709.802768,W,60.7,6.3,020110,,,A*45
$GPRMC,015632.4,A,3245.878582,N,11709.790281,W,60.5,12.3,020110,,,A*79
$GPRMC,015635.4,A,3245.926703,N,11709.776910,W,57.6,12.8,020110,,,A*78
$GPRMC,015638.4,A,3245.974860,N,11709.763932,W,56.8,12.1,020110,,,A*7A
$GPRMC,015641.4,A,3246.018385,N,11709.751280,W,55.0,12.3,020110,,,A*7E
$GPRMC,015644.4,A,3246.063404,N,11709.737948,W,56.0,12.5,020110,,,A*73
$GPRMC,015647.4,A,3246.106145,N,11709.724831,W,54.9,12.5,020110,,,A*74
$GPRMC,015650.4,A,3246.150574,N,11709.712252,W,55.5,12.3,020110,,,A*76
$GPRMC,015653.4,A,3246.195633,N,11709.699909,W,56.2,12.7,020110,,,A*7B
$GPRMC,015656.4,A,3246.239698,N,11709.685838,W,55.8,12.7,020110,,,A*7D
$GPRMC,015659.4,A,3246.284944,N,11709.674816,W,55.5,12.0,020110,,,A*72
$GPRMC,015702.4,A,3246.329728,N,11709.663878,W,55.3,11.0,020110,,,A*74
$GPRMC,015705.4,A,3246.374881,N,11709.659021,W,55.6,3.6,020110,,,A*4A
$GPRMC,015708.4,A,3246.421666,N,11709.659741,W,55.8,356.8,020110,,,A*45
$GPRMC,015711.4,A,3246.468140,N,11709.668790,W,56.1,349.3,020110,,,A*42
$GPRMC,015714.4,A,3246.512535,N,11709.684718,W,55.5,342.3,020110,,,A*43
$GPRMC,015717.4,A,3246.556513,N,11709.704660,W,55.7,340.4,020110,,,A*44
$GPRMC,015720.4,A,3246.598345,N,11709.725671,W,55.0,339.3,020110,,,A*4A
$GPRMC,015723.4,A,3246.640877,N,11709.744804,W,54.1,342.1,020110,,,A*40
$GPRMC,015726.4,A,3246.682631,N,11709.757623,W,52.1,347.2,020110,,,A*4E
$GPRMC,015729.4,A,3246.725689,N,11709.766831,W,53.0,352.2,020110,,,A*45
$GPRMC,015732.4,A,3246.770714,N,11709.770981,W,52.7,356.7,020110,,,A*40
$GPRMC,015735.4,A,3246.814067,N,11709.770807,W,52.4,2.1,020110,,,A*41
$GPRMC,015738.4,A,3246.858491,N,11709.764656,W,52.4,7.4,020110,,,A*46
$GPRMC,015741.4,A,3246.900724,N,11709.754872,W,52.7,11.8,020110,,,A*7A
$GPRMC,015744.4,A,3246.940916,N,11709.740067,W,51.6,16.3,020110,,,A*73
$GPRMC,015747.4,A,3246.980790,N,11709.723864,W,51.2,19.2,020110,,,A*78
$GPRMC,015750.4,A,3247.020265,N,11709.707299,W,51.4,18.7,020110,,,A*7F
$GPRMC,015753.4,A,3247.060771,N,11709.689942,W,52.7,19.4,020110,,,A*70
$GPRMC,015756.4,A,3247.102277,N,11709.672663,W,52.7,19.2,020110,,,A*7D
$GPRMC,015759.4,A,3247.145050,N,11709.656683,W,54.4,19.3,020110,,,A*7A
$GPRMC,015802.4,A,3247.187421,N,11709.639072,W,55.3,18.5,020110,,,A*77
$GPRMC,015805.4,A,3247.231474,N,11709.621483,W,56.1,19.1,020110,,,A*79
$GPRMC,015808.4,A,3247.278912,N,11709.604537,W,56.6,17.5,020110,,,A*70
$GPRMC,015811.4,A,3247.323408,N,11709.588499,W,56.3,17.8,020110,,,A*7B
$GPRMC,015814.4,A,3247.369223,N,11709.573519,W,56.9,17.2,020110,,,A*72
$GPRMC,015817.4,A,3247.418447,N,11709.556415,W,57.6,17.2,020110,,,A*70
$GPRMC,015820.4,A,3247.465521,N,11709.539710,W,58.2,17.4,020110,,,A*7D
$GPRMC,015823.4,A,3247.511911,N,11709.523206,W,60.1,17.1,020110,,,A*77
$GPRMC,015826.4,A,3247.556277,N,11709.506394,W,56.9,17.0,020110,,,A*7B
$GPRMC,015829.4,A,3247.599024,N,11709.492756,W,53.7,16.5,020110,,,A*7A
$GPRMC,015832.4,A,3247.640035,N,11709.478592,W,51.4,17.6,020110,,,A*7A
$GPRMC,015835.4,A,3247.680935,N,11709.463874,W,51.3,17.0,020110,,,A*76
$GPRMC,015838.4,A,3247.722365,N,11709.448857,W,52.3,18.0,020110,,,A*79
$GPRMC,015841.4,A,3247.765246,N,11709.432241,W,53.4,17.1,020110,,,A*7C
$GPRMC,015844.4,A,3247.808808,N,11709.415834,W,52.9,17.4,020110,,,A*79
$GPRMC,015847.4,A,3247.851148,N,11709.399757,W,55.2,17.8,020110,,,A*72
$GPRMC,015850.4,A,3247.896562,N,11709.382841,W,57.0,17.7,020110,,,A*7E
$GPRMC,015853.4,A,3247.941574,N,11709.366033,W,56.5,17.6,020110,,,A*73
$GPRMC,015856.4,A,3247.987499,N,11709.347680,W,57.1,17.8,020110,,,A*78
$GPRMC,015859.4,A,3248.036582,N,11709.329843,W,57.1,18.1,020110,,,A*7F
$GPRMC,015902.4,A,3248.079608,N,11709.312778,W,56.1,18.8,020110,,,A*7D
$GPRMC,015905.4,A,3248.121021,N,11709.295118,W,54.4,18.8,020110,,,A*72
$GPRMC,015908.4,A,3248.162346,N,11709.279389,W,52.9,17.9,020110,,,A*77
$GPRMC,015911.4,A,3248.202808,N,11709.265754,W,52.8,17.8,020110,,,A*72
$GPRMC,015914.4,A,3248.248625,N,11709.249611,W,54.5,17.4,020110,,,A*71
$GPRMC,015917.4,A,3248.289280,N,11709.235992,W,53.3,17.0,020110,,,A*7E
$GPRMC,015920.4,A,3248.330866,N,11709.219586,W,54.5,19.9,020110,,,A*7A
$GPRMC,015923.4,A,3248.372562,N,11709.201544,W,55.2,21.8,020110,,,A*7D
$GPRMC,015926.4,A,3248.416959,N,11709.178521,W,55.4,24.7,020110,,,A*7B
$GPRMC,015929.4,A,3248.459236,N,11709.158291,W,53.0,22.6,020110,,,A*76
$GPRMC,015932.4,A,3248.500658,N,11709.146351,W,49.7,14.1,020110,,,A*71
$GPRMC,015935.4,A,3248.543011,N,11709.145235,W,49.4,4.6,020110,,,A*4F
$GPRMC,015938.4,A,3248.588496,N,11709.162211,W,54.1,348.3,020110,,,A*4A
$GPRMC,015941.4,A,3248.630543,N,11709.182742,W,54.6,341.9,020110,,,A*44
$GPRMC,015944.4,A,3248.650902,N,11709.219512,W,48.0,323.2,020110,,,A*4C
$GPRMC,015947.4,A,3248.682316,N,11709.270898,W,55.4,313.6,020110,,,A*40
$GPRMC,015950.4,A,3248.715066,N,11709.311291,W,55.5,317.8,020110,,,A*43
$GPRMC,015953.4,A,3248.750194,N,11709.349376,W,55.8,319.7,020110,,,A*44
$GPRMC,015956.4,A,3248.786500,N,11709.385872,W,56.1,321.0,020110,,,A*4A
$GPRMC,015959.4,A,3248.820924,N,11709.421855,W,55.4,319.3,020110,,,A*4E
$GPRMC,020002.4,A,3248.857647,N,11709.459190,W,56.8,322.0,020110,,,A*4E
$GPRMC,020005.4,A,3248.897067,N,11709.492717,W,57.7,326.2,020110,,,A*47
$GPRMC,020008.4,A,3248.943318,N,11709.523208,W,62.1,331.2,020110,,,A*4F
$GPRMC,020011.4,A,3248.990439,N,11709.552542,W,63.2,332.8,020110,,,A*49
$GPRMC,020014.4,A,3249.039307,N,11709.581368,W,64.7,333.6,020110,,,A*40
$GPRMC,020017.4,A,3249.089873,N,11709.608997,W,65.0,334.4,020110,,,A*4B
$GPRMC,020020.4,A,3249.138685,N,11709.635948,W,63.9,333.7,020110,,,A*44
$GPRMC,020023.4,A,3249.187442,N,11709.663953,W,63.4,333.9,020110,,,A*40
$GPRMC,020026.4,A,3249.234147,N,11709.691172,W,62.2,334.2,020110,,,A*43
$GPRMC,020029.4,A,3249.278698,N,11709.719075,W,61.1,333.9,020110,,,A*4A
$GPRMC,020032.4,A,3249.323501,N,11709.745535,W,60.1,333.9,020110,,,A*45
$GPRMC,020035.4,A,3249.366235,N,11709.772003,W,58.6,332.7,020110,,,A*44
$GPRMC,020038.4,A,3249.409242,N,11709.798606,W,58.5,332.6,020110,,,A*42
$GPRMC,020041.4,A,3249.454432,N,11709.824422,W,59.9,334.1,020110,,,A*45
$GPRMC,020044.4,A,3249.499296,N,11709.851876,W,60.5,333.2,020110,,,A*44
$GPRMC,020047.4,A,3249.545760,N,11709.878778,W,60.8,333.2,020110,,,A*4C
$GPRMC,020050.4,A,3249.590162,N,11709.905375,W,60.1,332.7,020110,,,A*49
$GPRMC,020053.4,A,3249.635518,N,11709.932606,W,60.4,332.7,020110,,,A*4F
$GPRMC,020056.4,A,3249.679308,N,11709.960604,W,60.3,332.2,020110,,,A*42
$GPRMC,020059.4,A,3249.724672,N,11709.987552,W,60.1,332.6,020110,,,A*43
$GPRMC,020102.4,A,3249.769454,N,11710.014873,W,60.4,332.9,020110,,,A*4C
$GPRMC,020105.4,A,3249.814125,N,11710.041692,W,61.3,333.1,020110,,,A*43
$GPRMC,020108.4,A,3249.859936,N,11710.069916,W,61.2,332.7,020110,,,A*42
$GPRMC,020111.4,A,3249.906483,N,11710.097491,W,63.0,332.9,020110,,,A*4F
$GPRMC,020114.4,A,3249.953012,N,11710.125809,W,64.0,332.8,020110,,,A*45
$GPRMC,020117.4,A,3249.999173,N,11710.155433,W,63.9,332.0,020110,,,A*42
$GPRMC,020120.4,A,3250.044613,N,11710.183150,W,62.3,332.8,020110,,,A*4E
$GPRMC,020123.4,A,3250.090916,N,11710.210351,W,63.4,332.8,020110,,,A*42
$GPRMC,020126.4,A,3250.138998,N,11710.240170,W,64.1,332.7,020110,,,A*4B
$GPRMC,020129.4,A,3250.184668,N,11710.268971,W,64.5,332.7,020110,,,A*44
$GPRMC,020132.4,A,3250.232740,N,11710.297886,W,65.1,332.7,020110,,,A*47
$GPRMC,020135.4,A,3250.280209,N,11710.326581,W,63.5,332.8,020110,,,A*4D
$GPRMC,020138.4,A,3250.327293,N,11710.356241,W,64.3,332.5,020110,,,A*4F
$GPRMC,020141.4,A,3250.373111,N,11710.384335,W,62.8,332.9,020110,,,A*45
$GPRMC,020144.4,A,3250.418395,N,11710.412378,W,62.4,332.8,020110,,,A*48
$GPRMC,020147.4,A,3250.464545,N,11710.439715,W,63.2,333.0,020110,,,A*43
$GPRMC,020150.4,A,3250.510567,N,11710.467373,W,62.9,333.4,020110,,,A*46
$GPRMC,020153.4,A,3250.556763,N,11710.494493,W,62.7,333.7,020110,,,A*49
$GPRMC,020156.4,A,3250.601855,N,11710.522911,W,61.9,332.7,020110,,,A*40
$GPRMC,020159.4,A,3250.646709,N,11710.550997,W,61.9,332.6,020110,,,A*40
$GPRMC,020202.4,A,3250.693445,N,11710.577796,W,61.3,333.3,020110,,,A*4A
$GPRMC,020205.4,A,3250.738448,N,11710.604635,W,61.1,333.2,020110,,,A*4C
$GPRMC,020208.4,A,3250.783494,N,11710.630963,W,59.5,333.2,020110,,,A*44
$GPRMC,020211.4,A,3250.825999,N,11710.657150,W,58.2,332.7,020110,,,A*44
$GPRMC,020214.4,A,3250.869793,N,11710.684277,W,58.4,332.8,020110,,,A*4C
$GPRMC,020217.4,A,3250.910974,N,11710.710227,W,58.1,333.0,020110,,,A*42
$GPRMC,020220.4,A,3250.953073,N,11710.736413,W,58.9,332.7,020110,,,A*44
$GPRMC,020223.4,A,3250.996753,N,11710.762987,W,59.9,333.1,020110,,,A*4C
$GPRMC,020226.4,A,3251.040199,N,11710.790377,W,60.0,333.2,020110,,,A*42
$GPRMC,020229.4,A,3251.086097,N,11710.816553,W,60.3,333.1,020110,,,A*49
$GPRMC,020232.4,A,3251.128640,N,11710.842756,W,59.1,333.0,020110,,,A*45
$GPRMC,020235.4,A,3251.173350,N,11710.869821,W,59.8,333.0,020110,,,A*47
$GPRMC,020238.4,A,3251.217011,N,11710.896605,W,60.1,332.9,020110,,,A*4E
$GPRMC,020241.4,A,3251.261135,N,11710.922830,W,59.8,333.2,020110,,,A*49
$GPRMC,020244.4,A,3251.305170,N,11710.948984,W,58.9,332.8,020110,,,A*47
$GPRMC,020247.4,A,3251.347168,N,11710.976268,W,59.1,332.8,020110,,,A*46
$GPRMC,020250.4,A,3251.391815,N,11711.003869,W,59.4,333.1,020110,,,A*44
$GPRMC,020253.4,A,3251.436441,N,11711.032498,W,60.3,332.6,020110,,,A*4B
$GPRMC,020256.4,A,3251.481620,N,11711.058768,W,60.7,332.9,020110,,,A*4C
$GPRMC,020259.4,A,3251.525775,N,11711.085431,W,61.0,333.3,020110,,,A*4F
$GPRMC,020302.4,A,3251.569389,N,11711.113092,W,60.8,331.9,020110,,,A*4D
$GPRMC,020305.4,A,3251.611621,N,11711.142018,W,59.9,329.1,020110,,,A*4D
$GPRMC,020308.4,A,3251.655245,N,11711.176420,W,62.5,324.8,020110,,,A*4E
$GPRMC,020311.4,A,3251.698045,N,11711.214315,W,64.0,322.1,020110,,,A*4F
$GPRMC,020314.4,A,3251.739421,N,11711.253631,W,63.7,321.4,020110,,,A*40
$GPRMC,020317.4,A,3251.781511,N,11711.294184,W,64.2,321.1,020110,,,A*47
$GPRMC,020320.4,A,3251.822538,N,11711.334649,W,64.1,320.8,020110,,,A*48
$GPRMC,020323.4,A,3251.863465,N,11711.374346,W,63.8,320.8,020110,,,A*47
$GPRMC,020326.4,A,3251.904176,N,11711.413152,W,62.9,320.9,020110,,,A*45
$GPRMC,020329.4,A,3251.944672,N,11711.452339,W,62.3,321.1,020110,,,A*44
$GPRMC,020332.4,A,3251.985511,N,11711.490976,W,63.0,321.4,020110,,,A*4D
$GPRMC,020335.4,A,3252.026268,N,11711.529517,W,63.4,321.5,020110,,,A*4D
$GPRMC,020338.4,A,3252.067987,N,11711.567930,W,62.7,321.8,020110,,,A*43
$GPRMC,020341.4,A,3252.108589,N,11711.606337,W,62.5,321.7,020110,,,A*43
$GPRMC,020344.4,A,3252.148337,N,11711.645506,W,62.8,321.1,020110,,,A*49
$GPRMC,020347.4,A,3252.189893,N,11711.684865,W,63.8,320.8,020110,,,A*4E
$GPRMC,020350.4,A,3252.231508,N,11711.724739,W,63.8,320.5,020110,,,A*47
$GPRMC,020353.4,A,3252.271850,N,11711.763247,W,62.0,321.0,020110,,,A*42
$GPRMC,020356.4,A,3252.311836,N,11711.802265,W,61.9,320.7,020110,,,A*44
$GPRMC,020359.4,A,3252.353117,N,11711.840674,W,62.3,322.4,020110,,,A*4D
$GPRMC,020402.4,A,3252.395053,N,11711.876324,W,61.8,325.5,020110,,,A*44
$GPRMC,020405.4,A,3252.439386,N,11711.908611,W,61.7,328.8,020110,,,A*4D
$GPRMC,020408.4,A,3252.484884,N,11711.936254,W,61.3,333.3,020110,,,A*42
$GPRMC,020411.4,A,3252.532768,N,11711.961942,W,62.3,336.5,020110,,,A*45
$GPRMC,020414.4,A,3252.581236,N,11711.983532,W,61.3,340.2,020110,,,A*44
$GPRMC,020417.4,A,3252.630645,N,11712.001821,W,61.8,343.9,020110,,,A*42
$GPRMC,020420.4,A,3252.681382,N,11712.016668,W,62.3,345.1,020110,,,A*41
$GPRMC,020423.4,A,3252.731892,N,11712.030977,W,62.5,345.6,020110,,,A*46
$GPRMC,020426.4,A,3252.782731,N,11712.046570,W,62.5,345.4,020110,,,A*45
$GPRMC,020429.4,A,3252.839698,N,11712.063933,W,64.4,345.1,020110,,,A*49
$GPRMC,020432.4,A,3252.887894,N,11712.079324,W,62.8,345.3,020110,,,A*4B
$GPRMC,020435.4,A,3252.935648,N,11712.094419,W,62.2,345.4,020110,,,A*4C
$GPRMC,020438.4,A,3252.988710,N,11712.109898,W,63.4,345.2,020110,,,A*4A
$GPRMC,020441.4,A,3253.039954,N,11712.124142,W,62.6,345.6,020110,,,A*4E
$GPRMC,020444.4,A,3253.090850,N,11712.139263,W,62.8,345.2,020110,,,A*4B
$GPRMC,020447.4,A,3253.140724,N,11712.155988,W,61.2,344.3,020110,,,A*45
$GPRMC,020450.4,A,3253.186967,N,11712.171944,W,58.5,342.4,020110,,,A*4A
$GPRMC,020453.4,A,3253.233273,N,11712.192520,W,57.6,337.9,020110,,,A*4A
$GPRMC,020456.4,A,3253.276585,N,11712.216349,W,56.9,333.4,020110,,,A*41
$GPRMC,020459.4,A,3253.319241,N,11712.246049,W,57.8,328.3,020110,,,A*42
$GPRMC,020502.4,A,3253.359300,N,11712.279524,W,58.7,324.1,020110,,,A*41
$GPRMC,020505.4,A,3253.394895,N,11712.315003,W,56.6,318.7,020110,,,A*4D
$GPRMC,020508.4,A,3253.429173,N,11712.354914,W,57.4,313.7,020110,,,A*42
$GPRMC,020511.4,A,3253.460428,N,11712.398198,W,58.3,309.8,020110,,,A*4C
$GPRMC,020514.4,A,3253.489803,N,11712.446402,W,59.2,304.4,020110,,,A*48
$GPRMC,020517.4,A,3253.515125,N,11712.493476,W,57.9,301.0,020110,,,A*4D
$GPRMC,020520.4,A,3253.537167,N,11712.546269,W,58.8,295.8,020110,,,A*44
$GPRMC,020523.4,A,3253.558505,N,11712.600410,W,60.2,294.9,020110,,,A*46
$GPRMC,020526.4,A,3253.580879,N,11712.656354,W,62.0,294.8,020110,,,A*45
$GPRMC,020529.4,A,3253.605025,N,11712.710642,W,62.1,297.4,020110,,,A*4A
$GPRMC,020532.4,A,3253.633856,N,11712.763520,W,63.4,301.9,020110,,,A*4D
$GPRMC,020535.4,A,3253.664447,N,11712.813578,W,63.5,304.6,020110,,,A*4A
$GPRMC,020538.4,A,3253.695376,N,11712.863597,W,62.3,308.4,020110,,,A*43
$GPRMC,020541.4,A,3253.729640,N,11712.911238,W,61.4,311.7,020110,,,A*42
$GPRMC,020544.4,A,3253.767037,N,11712.952387,W,61.2,316.4,020110,,,A*4B
$GPRMC,020547.4,A,3253.805340,N,11712.991907,W,60.5,319.3,020110,,,A*43
$GPRMC,020550.4,A,3253.845986,N,11713.029242,W,61.9,321.8,020110,,,A*4D
$GPRMC,020553.4,A,3253.888925,N,11713.066970,W,63.6,322.4,020110,,,A*45
$GPRMC,020556.4,A,3253.931797,N,11713.106040,W,63.3,322.2,020110,,,A*4A
$GPRMC,020559.4,A,3253.974266,N,11713.146479,W,64.5,321.6,020110,,,A*43
$GPRMC,020602.4,A,3254.016103,N,11713.185936,W,64.5,321.5,020110,,,A*4E
$GPRMC,020605.4,A,3254.058269,N,11713.225881,W,64.3,320.7,020110,,,A*4D
$GPRMC,020608.4,A,3254.099445,N,11713.266486,W,64.3,320.8,020110,,,A*46
$GPRMC,020611.4,A,3254.141528,N,11713.306686,W,64.4,321.2,020110,,,A*49
$GPRMC,020614.4,A,3254.180449,N,11713.345117,W,62.8,320.1,020110,,,A*47
$GPRMC,020617.4,A,3254.219547,N,11713.384140,W,61.0,319.8,020110,,,A*4F
$GPRMC,020620.4,A,3254.257889,N,11713.422328,W,59.5,319.8,020110,,,A*47
$GPRMC,020623.4,A,3254.296364,N,11713.456892,W,57.1,323.2,020110,,,A*41
$GPRMC,020626.4,A,3254.339130,N,11713.484064,W,55.9,330.1,020110,,,A*46
$GPRMC,020629.4,A,3254.380221,N,11713.509560,W,55.7,332.2,020110,,,A*42
$GPRMC,020632.4,A,3254.419391,N,11713.533632,W,55.4,332.3,020110,,,A*4A
$GPRMC,020635.4,A,3254.459869,N,11713.558844,W,55.5,332.2,020110,,,A*47
$GPRMC,020638.4,A,3254.501104,N,11713.584318,W,56.2,332.4,020110,,,A*45
$GPRMC,020641.4,A,3254.544092,N,11713.608315,W,56.0,333.8,020110,,,A*41
$GPRMC,020644.4,A,3254.586023,N,11713.634148,W,56.5,332.6,020110,,,A*4F
$GPRMC,020647.4,A,3254.628987,N,11713.659686,W,57.6,333.5,020110,,,A*42
$GPRMC,020650.4,A,3254.673174,N,11713.684502,W,57.9,335.1,020110,,,A*4C
$GPRMC,020653.4,A,3254.717333,N,11713.707765,W,57.5,334.8,020110,,,A*40
$GPRMC,020656.4,A,3254.758904,N,11713.731087,W,56.3,333.9,020110,,,A*4F
$GPRMC,020659.4,A,3254.800667,N,11713.758074,W,57.4,332.6,020110,,,A*43
$GPRMC,020702.4,A,3254.842336,N,11713.784671,W,56.9,331.7,020110,,,A*47
$GPRMC,020705.4,A,3254.882720,N,11713.813689,W,56.1,326.6,020110,,,A*46
$GPRMC,020708.4,A,3254.920690,N,11713.848250,W,56.7,321.9,020110,,,A*48
$GPRMC,020711.4,A,3254.952960,N,11713.884585,W,54.9,315.4,020110,,,A*4C
$GPRMC,020714.4,A,3254.983784,N,11713.925030,W,54.4,310.8,020110,,,A*44
$GPRMC,020717.4,A,3255.012522,N,11713.966835,W,55.4,309.5,020110,,,A*47
$GPRMC,020720.4,A,3255.043181,N,11714.010600,W,55.6,308.9,020110,,,A*42
$GPRMC,020723.4,A,3255.071862,N,11714.052662,W,55.5,310.0,020110,,,A*45
$GPRMC,020726.4,A,3255.104447,N,11714.093028,W,56.6,313.8,020110,,,A*46
$GPRMC,020729.4,A,3255.139365,N,11714.128681,W,56.9,318.0,020110,,,A*48
$GPRMC,020732.4,A,3255.177567,N,11714.165753,W,58.6,320.9,020110,,,A*48
$GPRMC,020735.4,A,3255.217499,N,11714.200245,W,60.4,323.9,020110,,,A*42
$GPRMC,020738.4,A,3255.260037,N,11714.233043,W,61.3,327.3,020110,,,A*43
$GPRMC,020741.4,A,3255.305072,N,11714.262044,W,61.1,331.7,020110,,,A*4C
$GPRMC,020744.4,A,3255.352407,N,11714.288376,W,62.1,334.6,020110,,,A*4C
$GPRMC,020747.4,A,3255.402071,N,11714.310533,W,61.8,339.4,020110,,,A*4A
$GPRMC,020750.4,A,3255.450709,N,11714.329006,W,61.0,342.8,020110,,,A*42
$GPRMC,020753.4,A,3255.498995,N,11714.346970,W,60.0,343.4,020110,,,A*43
$GPRMC,020756.4,A,3255.546388,N,11714.362293,W,59.3,344.2,020110,,,A*4A
$GPRMC,020759.4,A,3255.593706,N,11714.378918,W,60.1,343.5,020110,,,A*44
$GPRMC,020802.4,A,3255.640236,N,11714.395067,W,58.0,344.1,020110,,,A*45
$GPRMC,020805.4,A,3255.683935,N,11714.408927,W,55.8,344.3,020110,,,A*4C
$GPRMC,020808.4,A,3255.726709,N,11714.421032,W,51.4,346.0,020110,,,A*41
$GPRMC,020811.4,A,3255.766803,N,11714.427446,W,48.1,348.4,020110,,,A*4E
$GPRMC,020814.4,A,3255.805279,N,11714.433747,W,46.2,353.1,020110,,,A*43
$GPRMC,020817.4,A,3255.841934,N,11714.437137,W,42.5,355.1,020110,,,A*42
$GPRMC,020820.4,A,3255.874997,N,11714.439061,W,38.8,357.5,020110,,,A*43
$GPRMC,020823.4,A,3255.905929,N,11714.437036,W,38.7,4.7,020110,,,A*46
$GPRMC,020826.4,A,3255.933169,N,11714.428453,W,35.1,12.1,020110,,,A*79
$GPRMC,020829.4,A,3255.957053,N,11714.422686,W,29.8,10.5,020110,,,A*7E
$GPRMC,020832.4,A,3255.969385,N,11714.418035,W,20.6,9.5,020110,,,A*49
$GPRMC,020835.4,A,3255.970170,N,11714.414730,W,11.4,24.9,020110,,,A*73
$GPRMC,020838.4,A,3255.977780,N,11714.400928,W,20.1,52.8,020110,,,A*75
$GPRMC,020841.4,A,3255.988450,N,11714.379711,W,23.1,55.3,020110,,,A*77
$GPRMC,020844.4,A,3255.998077,N,11714.365591,W,19.0,52.6,020110,,,A*7F
$GPRMC,020859.4,A,3255.995965,N,11714.367401,W,5.3,62.8,020110,,,A*4D
$GPRMC,020902.4,A,3256.007861,N,11714.347213,W,19.1,60.2,020110,,,A*76
$GPRMC,020905.4,A,3256.024269,N,11714.320365,W,28.0,59.2,020110,,,A*7A
$GPRMC,020908.4,A,3256.033199,N,11714.292297,W,28.1,68.2,020110,,,A*7A
$GPRMC,020911.4,A,3256.033449,N,11714.262235,W,28.3,81.3,020110,,,A*79
$GPRMC,020914.4,A,3256.027150,N,11714.246723,W,16.2,89.0,020110,,,A*77
$GPRMC,020917.4,A,3256.028285,N,11714.231524,W,13.0,79.9,020110,,,A*74
$GPRMC,020920.4,A,3256.029180,N,11714.224787,W,6.4,80.1,020110,,,A*46
$GPRMC,020938.4,A,3256.027430,N,11714.214257,W,7.4,63.6,020110,,,A*4F
$GPRMC,020941.4,A,3256.032956,N,11714.199934,W,17.5,61.2,020110,,,A*76
$GPRMC,020944.4,A,3256.041790,N,11714.179955,W,22.6,62.4,020110,,,A*7A
$GPRMC,020947.4,A,3256.052130,N,11714.157412,W,26.6,61.6,020110,,,A*70
$GPRMC,020950.4,A,3256.064403,N,11714.131488,W,30.5,57.6,020110,,,A*74
$GPRMC,020953.4,A,3256.080493,N,11714.102061,W,36.0,58.2,020110,,,A*7F
$GPRMC,020956.4,A,3256.096620,N,11714.066711,W,41.0,62.9,020110,,,A*76
$GPRMC,020959.4,A,3256.112380,N,11714.026435,W,46.7,64.2,020110,,,A*77
$GPRMC,021002.4,A,3256.130265,N,11713.981333,W,50.4,64.3,020110,,,A*7C
$GPRMC,021005.4,A,3256.147618,N,11713.934259,W,51.8,65.0,020110,,,A*79
$GPRMC,021008.4,A,3256.166902,N,11713.886581,W,52.9,64.7,020110,,,A*7D
$GPRMC,021011.4,A,3256.184149,N,11713.835003,W,53.9,65.9,020110,,,A*77
$GPRMC,021014.4,A,3256.204332,N,11713.786089,W,53.5,65.3,020110,,,A*74
$GPRMC,021017.4,A,3256.223936,N,11713.739630,W,54.0,62.9,020110,,,A*73
$GPRMC,021020.4,A,3256.241586,N,11713.692344,W,52.6,64.5,020110,,,A*78
$GPRMC,021023.4,A,3256.259101,N,11713.644964,W,52.7,67.6,020110,,,A*7B
$GPRMC,021026.4,A,3256.273813,N,11713.597334,W,53.2,72.4,020110,,,A*7C
$GPRMC,021029.4,A,3256.286659,N,11713.547218,W,53.3,73.3,020110,,,A*7C
$GPRMC,021032.4,A,3256.298534,N,11713.496922,W,53.8,72.2,020110,,,A*75
$GPRMC,021035.4,A,3256.315510,N,11713.448124,W,54.0,66.6,020110,,,A*73
$GPRMC,021038.4,A,3256.335670,N,11713.400819,W,53.1,59.8,020110,,,A*76
$GPRMC,021041.4,A,3256.360174,N,11713.357369,W,52.9,55.7,020110,,,A*78
$GPRMC,021044.4,A,3256.385598,N,11713.314365,W,52.5,55.2,020110,,,A*72
$GPRMC,021047.4,A,3256.410101,N,11713.272296,W,51.9,56.0,020110,,,A*7C
$GPRMC,021050.4,A,3256.431223,N,11713.228875,W,50.8,60.5,020110,,,A*72
$GPRMC,021053.4,A,3256.447997,N,11713.183213,W,51.1,67.1,020110,,,A*77
$GPRMC,021056.4,A,3256.464708,N,11713.136197,W,51.2,67.3,020110,,,A*7B
$GPRMC,021059.4,A,3256.479872,N,11713.088734,W,49.9,68.3,020110,,,A*7C
$GPRMC,021102.4,A,3256.494535,N,11713.044045,W,47.3,68.3,020110,,,A*7B
$GPRMC,021105.4,A,3256.509709,N,11713.001124,W,47.3,67.0,020110,,,A*7F
$GPRMC,021108.4,A,3256.527028,N,11712.958731,W,46.6,61.6,020110,,,A*78
$GPRMC,021111.4,A,3256.546017,N,11712.920831,W,44.4,59.8,020110,,,A*7E
$GPRMC,021114.4,A,3256.563749,N,11712.887399,W,39.9,58.4,020110,,,A*7F
$GPRMC,021117.4,A,3256.580383,N,11712.856900,W,34.8,57.7,020110,,,A*75
$GPRMC,021120.4,A,3256.593497,N,11712.834326,W,25.0,55.0,020110,,,A*76
$GPRMC,021123.4,A,3256.604261,N,11712.823168,W,16.4,36.3,020110,,,A*7B
$GPRMC,021126.4,A,3256.614419,N,11712.824959,W,10.6,357.5,020110,,,A*4D
$GPRMC,021129.4,A,3256.630255,N,11712.842620,W,21.4,319.4,020110,,,A*40
$GPRMC,021132.4,A,3256.645881,N,11712.861173,W,26.9,313.5,020110,,,A*4A
$GPRMC,021135.4,A,3256.663320,N,11712.885992,W,31.7,308.3,020110,,,A*40
$GPRMC,021138.4,A,3256.677803,N,11712.912531,W,31.4,302.5,020110,,,A*47
$GPRMC,021141.4,A,3256.688863,N,11712.936615,W,26.7,297.7,020110,,,A*46
$GPRMC,021144.4,A,3256.696949,N,11712.956491,W,22.2,295.9,020110,,,A*40
$GPRMC,021147.4,A,3256.703536,N,11712.977004,W,21.9,293.5,020110,,,A*43
$GPRMC,021150.4,A,3256.710719,N,11712.994968,W,18.1,297.9,020110,,,A*4C
$GPRMC,021153.4,A,3256.715398,N,11713.006399,W,12.1,296.4,020110,,,A*46
$GPRMC,021156.4,A,3256.719908,N,11713.012327,W,8.0,320.1,020110,,,A*7F
$GPRMC,021159.4,A,3256.726995,N,11713.008944,W,12.0,23.5,020110,,,A*73
$GPRMC,021202.4,A,3256.740013,N,11712.996946,W,21.0,38.3,020110,,,A*78
$GPRMC,021205.4,A,3256.755637,N,11712.980754,W,24.9,42.7,020110,,,A*74
$GPRMC,021208.4,A,3256.772050,N,11712.961072,W,28.1,47.9,020110,,,A*78
