NMEA Sentence Code,UTC Time,Status,Latitude,Latitude Direction,Longitude,Longitude Direction,Speed (knots),Track Angle (degrees true),Date,MagneticVariation,Magnetic Variation Direction,[FAA Mode]-Optional,Checksum
$GPRMC,011417.9,A,3344.080393,N,11749.036039,W,54.3,123.4,130110,,,A*47
$GPRMC,011420.9,A,3344.054003,N,11748.993063,W,53.2,127.6,130110,,,A*48
$GPRMC,011423.9,A,3344.023977,N,11748.949907,W,56.0,130.4,130110,,,A*4E
$GPRMC,011426.9,A,3343.990567,N,11748.909873,W,56.2,133.5,130110,,,A*46
$GPRMC,011429.9,A,3343.959857,N,11748.869341,W,54.4,132.0,130110,,,A*4F
$GPRMC,011432.9,A,3343.930039,N,11748.830244,W,52.1,131.1,130110,,,A*43
$GPRMC,011435.9,A,3343.903811,N,11748.791471,W,49.0,129.5,130110,,,A*44
$GPRMC,011438.9,A,3343.881273,N,11748.754520,W,47.2,128.7,130110,,,A*4F
$GPRMC,011441.9,A,3343.854790,N,11748.716786,W,50.5,129.0,130110,,,A*4E
$GPRMC,011444.9,A,3343.824975,N,11748.673853,W,55.4,129.5,130110,,,A*4D
$GPRMC,011447.9,A,3343.795597,N,11748.630582,W,57.0,129.2,130110,,,A*4C
$GPRMC,011450.9,A,3343.763941,N,11748.584343,W,59.8,130.2,130110,,,A*4D
$GPRMC,011453.9,A,3343.730581,N,11748.537438,W,61.1,129.8,130110,,,A*4B
$GPRMC,011456.9,A,3343.698315,N,11748.490302,W,61.1,129.5,130110,,,A*49
$GPRMC,011459.9,A,3343.665694,N,11748.443261,W,62.0,129.5,130110,,,A*40
$GPRMC,011502.9,A,3343.632812,N,11748.394885,W,62.8,128.9,130110,,,A*45
$GPRMC,011505.9,A,3343.599623,N,11748.347049,W,62.1,128.9,130110,,,A*43
$GPRMC,011508.9,A,3343.568040,N,11748.296835,W,60.7,127.5,130110,,,A*4A
$GPRMC,011511.9,A,3343.536979,N,11748.251275,W,57.6,127.9,130110,,,A*46
$GPRMC,011514.9,A,3343.507218,N,11748.205123,W,58.4,127.6,130110,,,A*4E
$GPRMC,011517.9,A,3343.478310,N,11748.157680,W,58.4,127.4,130110,,,A*45
$GPRMC,011520.9,A,3343.448963,N,11748.113974,W,57.2,129.1,130110,,,A*4A
$GPRMC,011523.9,A,3343.417021,N,11748.070092,W,57.6,129.9,130110,,,A*45
$GPRMC,011526.9,A,3343.386642,N,11748.025815,W,58.1,129.2,130110,,,A*48
$GPRMC,011529.9,A,3343.355428,N,11747.984905,W,56.7,130.4,130110,,,A*4C
$GPRMC,011532.9,A,3343.324223,N,11747.940105,W,57.6,130.2,130110,,,A*4B
$GPRMC,011535.9,A,3343.293204,N,11747.893815,W,58.1,129.3,130110,,,A*42
$GPRMC,011538.9,A,3343.261845,N,11747.848901,W,58.3,129.6,130110,,,A*48
$GPRMC,011541.9,A,3343.228985,N,11747.801340,W,58.7,129.6,130110,,,A*40
$GPRMC,011544.9,A,3343.196799,N,11747.757813,W,57.5,130.3,130110,,,A*41
$GPRMC,011547.9,A,3343.166937,N,11747.714472,W,58.0,129.5,130110,,,A*4F
$GPRMC,011550.9,A,3343.135906,N,11747.670618,W,58.1,130.0,130110,,,A*4C
$GPRMC,011553.9,A,3343.104602,N,11747.623655,W,59.8,129.9,130110,,,A*40
$GPRMC,011556.9,A,3343.073065,N,11747.576597,W,59.0,129.5,130110,,,A*49
$GPRMC,011559.9,A,3343.041176,N,11747.531671,W,59.1,129.3,130110,,,A*4B
$GPRMC,011603.2,A,3343.005925,N,11747.481073,W,59.3,129.6,130110,,,A*4B
$GPRMC,011606.2,A,3342.974193,N,11747.436415,W,59.1,129.8,130110,,,A*41
$GPRMC,011609.2,A,3342.942230,N,11747.390858,W,59.7,129.8,130110,,,A*49
$GPRMC,011612.9,A,3342.904152,N,11747.334690,W,58.7,129.4,130110,,,A*44
$GPRMC,011615.9,A,3342.873083,N,11747.292569,W,58.2,130.7,130110,,,A*49
$GPRMC,011618.9,A,3342.841126,N,11747.246286,W,59.5,129.3,130110,,,A*4E
$GPRMC,011621.9,A,3342.811246,N,11747.202018,W,58.6,129.4,130110,,,A*44
$GPRMC,011624.9,A,3342.778436,N,11747.157599,W,58.8,130.9,130110,,,A*44
$GPRMC,011627.9,A,3342.746868,N,11747.113962,W,57.7,132.2,130110,,,A*4C
$GPRMC,011630.9,A,3342.713163,N,11747.070720,W,58.0,133.9,130110,,,A*46
$GPRMC,011633.9,A,3342.677142,N,11747.030138,W,58.7,136.8,130110,,,A*4D
$GPRMC,011636.9,A,3342.641763,N,11746.990872,W,58.0,138.0,130110,,,A*4C
$GPRMC,011639.9,A,3342.605317,N,11746.953079,W,57.6,139.4,130110,,,A*44
$GPRMC,011642.9,A,3342.569144,N,11746.917148,W,57.6,140.8,130110,,,A*44
$GPRMC,011645.9,A,3342.531816,N,11746.879535,W,58.4,141.4,130110,,,A*47
$GPRMC,011648.9,A,3342.492548,N,11746.843395,W,58.8,144.1,130110,,,A*4D
$GPRMC,011651.9,A,3342.451429,N,11746.810650,W,59.1,145.7,130110,,,A*49
$GPRMC,011654.9,A,3342.409688,N,11746.780238,W,58.7,147.8,130110,,,A*4E
$GPRMC,011657.9,A,3342.363518,N,11746.749038,W,60.3,149.7,130110,,,A*45
$GPRMC,011700.9,A,3342.324426,N,11746.720819,W,59.0,151.0,130110,,,A*4A
$GPRMC,011703.9,A,3342.282097,N,11746.693879,W,58.8,151.6,130110,,,A*4A
$GPRMC,011706.9,A,3342.237566,N,11746.665009,W,61.0,151.3,130110,,,A*4B
$GPRMC,011709.9,A,3342.190565,N,11746.635350,W,64.6,151.7,130110,,,A*44
$GPRMC,011712.9,A,3342.140569,N,11746.602554,W,66.1,151.2,130110,,,A*49
$GPRMC,011715.9,A,3342.093827,N,11746.570555,W,65.0,151.0,130110,,,A*41
$GPRMC,011718.9,A,3342.044222,N,11746.538716,W,65.4,151.4,130110,,,A*40
$GPRMC,011721.9,A,3341.997779,N,11746.508784,W,64.3,151.4,130110,,,A*4B
$GPRMC,011724.9,A,3341.950815,N,11746.478370,W,63.5,151.1,130110,,,A*4D
$GPRMC,011727.9,A,3341.905074,N,11746.448708,W,63.0,151.4,130110,,,A*49
$GPRMC,011730.9,A,3341.858735,N,11746.417526,W,64.1,150.2,130110,,,A*41
$GPRMC,011733.9,A,3341.811336,N,11746.385264,W,64.5,150.3,130110,,,A*40
$GPRMC,011736.9,A,3341.764413,N,11746.354617,W,63.0,151.4,130110,,,A*40
$GPRMC,011739.9,A,3341.719233,N,11746.321798,W,63.4,150.5,130110,,,A*41
$GPRMC,011742.9,A,3341.671687,N,11746.293755,W,64.6,152.2,130110,,,A*40
$GPRMC,011745.9,A,3341.624285,N,11746.261689,W,64.3,150.7,130110,,,A*4E
$GPRMC,011748.9,A,3341.577667,N,11746.229778,W,63.5,149.8,130110,,,A*4B
$GPRMC,011751.9,A,3341.533098,N,11746.199780,W,61.8,150.9,130110,,,A*4C
$GPRMC,011754.9,A,3341.488574,N,11746.172076,W,60.7,151.5,130110,,,A*47
$GPRMC,011757.9,A,3341.444593,N,11746.143126,W,61.4,151.5,130110,,,A*49
$GPRMC,011800.9,A,3341.399818,N,11746.114096,W,59.4,151.1,130110,,,A*4A
$GPRMC,011803.2,A,3341.366516,N,11746.091553,W,58.4,151.3,130110,,,A*42
$GPRMC,011806.9,A,3341.313953,N,11746.056703,W,56.9,150.6,130110,,,A*48
$GPRMC,011809.9,A,3341.274269,N,11746.031851,W,53.9,151.7,130110,,,A*49
$GPRMC,011812.9,A,3341.236902,N,11746.008091,W,52.8,151.4,130110,,,A*4E
$GPRMC,011815.9,A,3341.196482,N,11745.983200,W,55.6,151.4,130110,,,A*4F
$GPRMC,011818.9,A,3341.154881,N,11745.954697,W,57.0,151.0,130110,,,A*43
$GPRMC,011821.9,A,3341.111373,N,11745.925468,W,58.7,151.3,130110,,,A*41
$GPRMC,011824.9,A,3341.067102,N,11745.897578,W,59.7,151.9,130110,,,A*43
$GPRMC,011827.9,A,3341.021327,N,11745.867415,W,62.3,150.4,130110,,,A*42
$GPRMC,011830.9,A,3340.975693,N,11745.834348,W,63.3,148.3,130110,,,A*41
$GPRMC,011833.9,A,3340.931771,N,11745.799389,W,62.9,143.7,130110,,,A*4E
$GPRMC,011836.9,A,3340.892110,N,11745.759032,W,63.8,139.4,130110,,,A*43
$GPRMC,011839.2,A,3340.860929,N,11745.726399,W,63.9,138.7,130110,,,A*41
$GPRMC,011842.2,A,3340.821678,N,11745.678120,W,65.2,136.1,130110,,,A*4C
$GPRMC,011845.9,A,3340.774126,N,11745.622319,W,65.0,135.7,130110,,,A*43
$GPRMC,011848.9,A,3340.736433,N,11745.579775,W,62.3,136.7,130110,,,A*4D
$GPRMC,011851.9,A,3340.698888,N,11745.536317,W,61.5,136.4,130110,,,A*41
$GPRMC,011854.9,A,3340.660204,N,11745.494503,W,63.0,138.4,130110,,,A*4E
$GPRMC,011857.9,A,3340.618852,N,11745.455456,W,63.1,142.9,130110,,,A*46
$GPRMC,011900.9,A,3340.575674,N,11745.424706,W,60.4,150.0,130110,,,A*4B
$GPRMC,011903.9,A,3340.530381,N,11745.398855,W,61.9,155.9,130110,,,A*4F
$GPRMC,011906.9,A,3340.480996,N,11745.379225,W,62.7,162.2,130110,,,A*4C
$GPRMC,011909.9,A,3340.426970,N,11745.361435,W,64.8,166.9,130110,,,A*4F
$GPRMC,011912.9,A,3340.375181,N,11745.350692,W,63.3,169.7,130110,,,A*42
$GPRMC,011915.9,A,3340.325182,N,11745.341474,W,63.6,170.4,130110,,,A*47
$GPRMC,011918.9,A,3340.269050,N,11745.328866,W,66.8,169.0,130110,,,A*4A
$GPRMC,011921.9,A,3340.216707,N,11745.313383,W,64.6,164.5,130110,,,A*41
$GPRMC,011924.9,A,3340.168316,N,11745.290515,W,62.1,157.5,130110,,,A*48
$GPRMC,011927.9,A,3340.123986,N,11745.265377,W,60.3,152.2,130110,,,A*4D
$GPRMC,011930.9,A,3340.079105,N,11745.231693,W,61.2,147.1,130110,,,A*4F
$GPRMC,011933.2,A,3340.047137,N,11745.204661,W,61.1,144.4,130110,,,A*45
$GPRMC,011936.2,A,3340.003174,N,11745.168802,W,61.7,145.8,130110,,,A*4E
$GPRMC,011939.2,A,3339.961807,N,11745.136907,W,59.1,146.3,130110,,,A*45
$GPRMC,011942.2,A,3339.920831,N,11745.104209,W,58.5,146.4,130110,,,A*4F
$GPRMC,011945.2,A,3339.880180,N,11745.072229,W,58.7,146.7,130110,,,A*43
$GPRMC,011948.9,A,3339.829463,N,11745.033568,W,57.7,148.4,130110,,,A*4B
$GPRMC,011951.9,A,3339.789092,N,11744.999964,W,58.0,147.2,130110,,,A*45
$GPRMC,011954.9,A,3339.747969,N,11744.972201,W,57.6,147.7,130110,,,A*4E
$GPRMC,011957.9,A,3339.707908,N,11744.939165,W,58.7,145.4,130110,,,A*4F
$GPRMC,012000.9,A,3339.665434,N,11744.905832,W,60.3,146.3,130110,,,A*4F
$GPRMC,012003.9,A,3339.624599,N,11744.873060,W,59.5,146.9,130110,,,A*46
$GPRMC,012006.2,A,3339.591499,N,11744.846275,W,62.6,146.3,130110,,,A*45
$GPRMC,012009.9,A,3339.537097,N,11744.803375,W,63.7,146.5,130110,,,A*41
$GPRMC,012012.9,A,3339.492560,N,11744.766865,W,64.8,145.4,130110,,,A*44
$GPRMC,012015.2,A,3339.460259,N,11744.742374,W,62.0,146.0,130110,,,A*4C
$GPRMC,012018.9,A,3339.407912,N,11744.698122,W,62.1,145.4,130110,,,A*4E
$GPRMC,012021.9,A,3339.362945,N,11744.661376,W,64.7,145.5,130110,,,A*46
$GPRMC,012025.2,A,3339.314810,N,11744.620098,W,64.2,144.7,130110,,,A*49
$GPRMC,012028.9,A,3339.260466,N,11744.576912,W,62.6,146.0,130110,,,A*4C
$GPRMC,012031.9,A,3339.218729,N,11744.542978,W,61.6,145.9,130110,,,A*41
$GPRMC,012034.9,A,3339.176554,N,11744.507812,W,61.9,146.2,130110,,,A*4C
$GPRMC,012037.9,A,3339.132827,N,11744.474780,W,61.7,146.3,130110,,,A*48
$GPRMC,012040.9,A,3339.091963,N,11744.440777,W,59.5,145.3,130110,,,A*44
$GPRMC,012043.9,A,3339.053329,N,11744.409143,W,55.8,145.0,130110,,,A*43
$GPRMC,012046.9,A,3339.016093,N,11744.380420,W,53.4,146.1,130110,,,A*4B
$GPRMC,012049.9,A,3338.983049,N,11744.352019,W,49.7,145.2,130110,,,A*4E
$GPRMC,012052.9,A,3338.949420,N,11744.329110,W,47.3,147.7,130110,,,A*40
$GPRMC,012055.9,A,3338.914668,N,11744.302484,W,48.1,147.3,130110,,,A*49
$GPRMC,012058.9,A,3338.884772,N,11744.280297,W,42.0,147.1,130110,,,A*40
$GPRMC,012101.9,A,3338.856573,N,11744.259575,W,38.8,147.1,130110,,,A*4B
$GPRMC,012104.9,A,3338.831685,N,11744.237679,W,36.0,145.5,130110,,,A*42
$GPRMC,012107.9,A,3338.807352,N,11744.218406,W,35.9,145.2,130110,,,A*41
$GPRMC,012110.9,A,3338.783513,N,11744.198849,W,35.2,145.2,130110,,,A*40
$GPRMC,012113.9,A,3338.762303,N,11744.182007,W,29.7,145.3,130110,,,A*4B
$GPRMC,012116.9,A,3338.745271,N,11744.169514,W,24.9,146.5,130110,,,A*4B
$GPRMC,012119.9,A,3338.731321,N,11744.154743,W,22.1,144.6,130110,,,A*42
$GPRMC,012122.9,A,3338.715065,N,11744.142393,W,23.2,145.6,130110,,,A*42
$GPRMC,012125.9,A,3338.700136,N,11744.131168,W,21.3,148.3,130110,,,A*4F
$GPRMC,012129.2,A,3338.687448,N,11744.120734,W,14.8,139.8,130110,,,A*45
$GPRMC,012132.0,A,3338.675637,N,11744.110437,W,17.7,142.7,130110,,,A*46
$GPRMC,012135.9,A,3338.657830,N,11744.095756,W,19.2,143.2,130110,,,A*46
$GPRMC,012138.9,A,3338.645953,N,11744.087745,W,15.1,147.0,130110,,,A*44
$GPRMC,012141.9,A,3338.635827,N,11744.081417,W,13.3,147.8,130110,,,A*41
$GPRMC,012144.9,A,3338.625934,N,11744.072371,W,14.4,146.0,130110,,,A*44
$GPRMC,012147.9,A,3338.615571,N,11744.063568,W,14.0,147.7,130110,,,A*45
$GPRMC,012150.9,A,3338.607748,N,11744.057508,W,13.5,147.3,130110,,,A*4F
$GPRMC,012153.9,A,3338.597521,N,11744.051623,W,12.9,149.5,130110,,,A*42
$GPRMC,012156.9,A,3338.588601,N,11744.044557,W,11.4,146.2,130110,,,A*4A
$GPRMC,012159.9,A,3338.580011,N,11744.036605,W,12.3,145.7,130110,,,A*49
$GPRMC,012202.9,A,3338.570364,N,11744.030518,W,11.8,148.1,130110,,,A*40
$GPRMC,012205.9,A,3338.561114,N,11744.025564,W,12.9,149.9,130110,,,A*46
$GPRMC,012208.9,A,3338.550858,N,11744.018123,W,15.2,147.1,130110,,,A*4B
$GPRMC,012211.9,A,3338.542656,N,11744.009192,W,14.0,143.7,130110,,,A*4B
$GPRMC,012214.9,A,3338.531707,N,11744.002237,W,14.1,148.2,130110,,,A*47
$GPRMC,012217.9,A,3338.522237,N,11743.994930,W,14.7,144.3,130110,,,A*46
$GPRMC,012220.9,A,3338.509985,N,11743.986322,W,15.6,148.1,130110,,,A*4D
$GPRMC,012223.9,A,3338.500239,N,11743.979084,W,13.8,149.3,130110,,,A*4F
$GPRMC,012226.9,A,3338.488724,N,11743.970665,W,15.4,147.8,130110,,,A*4D
$GPRMC,012229.9,A,3338.479558,N,11743.960225,W,13.2,143.7,130110,,,A*4F
$GPRMC,012232.9,A,3338.473708,N,11743.955431,W,8.9,148.0,130110,,,A*70
$GPRMC,012235.9,A,3338.466793,N,11743.952353,W,7.7,151.0,130110,,,A*7C
$GPRMC,012238.9,A,3338.461546,N,11743.948264,W,9.9,150.0,130110,,,A*73
$GPRMC,012241.9,A,3338.452490,N,11743.941747,W,14.2,146.4,130110,,,A*4E
$GPRMC,012244.9,A,3338.441400,N,11743.932879,W,15.5,147.5,130110,,,A*40
$GPRMC,012247.9,A,3338.430451,N,11743.921624,W,16.1,146.9,130110,,,A*4F
$GPRMC,012250.9,A,3338.418830,N,11743.912088,W,15.7,143.8,130110,,,A*49
$GPRMC,012253.9,A,3338.409659,N,11743.903874,W,13.5,143.1,130110,,,A*4D
$GPRMC,012256.9,A,3338.404169,N,11743.900014,W,10.1,145.9,130110,,,A*45
$GPRMC,012259.9,A,3338.398532,N,11743.894437,W,7.9,141.6,130110,,,A*7E
$GPRMC,012302.9,A,3338.391329,N,11743.892406,W,8.8,152.4,130110,,,A*7E
$GPRMC,012305.9,A,3338.384072,N,11743.884370,W,10.5,145.3,130110,,,A*44
$GPRMC,012308.9,A,3338.378067,N,11743.879688,W,8.2,144.8,130110,,,A*7A
$GPRMC,012311.9,A,3338.374061,N,11743.874067,W,6.4,139.7,130110,,,A*7F
$GPRMC,012314.9,A,3338.369864,N,11743.872302,W,5.3,153.0,130110,,,A*72
$GPRMC,012317.9,A,3338.365574,N,11743.871016,W,6.0,154.4,130110,,,A*77
$GPRMC,012320.9,A,3338.360487,N,11743.868084,W,7.2,148.3,130110,,,A*71
$GPRMC,012323.9,A,3338.356991,N,11743.864619,W,5.5,145.6,130110,,,A*7E
$GPRMC,012326.9,A,3338.353658,N,11743.860420,W,5.0,144.5,130110,,,A*7F
$GPRMC,012329.9,A,3338.348916,N,11743.857686,W,6.0,146.7,130110,,,A*76
$GPRMC,012332.9,A,3338.345014,N,11743.854540,W,6.6,147.3,130110,,,A*73
$GPRMC,012335.2,A,3338.340260,N,11743.851721,W,8.0,154.0,130110,,,A*72
$GPRMC,012338.2,A,3338.333518,N,11743.846087,W,8.8,147.1,130110,,,A*75
$GPRMC,012341.9,A,3338.323770,N,11743.837783,W,9.7,144.1,130110,,,A*75
$GPRMC,012344.9,A,3338.315136,N,11743.830166,W,12.7,145.4,130110,,,A*45
$GPRMC,012347.9,A,3338.305923,N,11743.821365,W,13.4,139.3,130110,,,A*44
$GPRMC,012350.9,A,3338.296253,N,11743.814550,W,13.2,145.5,130110,,,A*48
$GPRMC,012353.9,A,3338.287141,N,11743.806846,W,14.2,145.9,130110,,,A*49
$GPRMC,012356.9,A,3338.275007,N,11743.797979,W,16.9,146.2,130110,,,A*49
$GPRMC,012359.9,A,3338.264570,N,11743.789983,W,16.1,147.5,130110,,,A*47
$GPRMC,012402.9,A,3338.252389,N,11743.779163,W,17.0,144.2,130110,,,A*46
$GPRMC,012405.9,A,3338.240721,N,11743.770511,W,16.0,145.6,130110,,,A*48
$GPRMC,012408.9,A,3338.230419,N,11743.761372,W,15.2,145.2,130110,,,A*4C
$GPRMC,012411.9,A,3338.221388,N,11743.753697,W,12.4,141.3,130110,,,A*40
$GPRMC,012414.9,A,3338.214182,N,11743.749499,W,10.0,149.9,130110,,,A*48
$GPRMC,012417.9,A,3338.206472,N,11743.743069,W,12.4,146.9,130110,,,A*4A
$GPRMC,012420.9,A,3338.196490,N,11743.734205,W,15.7,144.6,130110,,,A*49
$GPRMC,012423.9,A,3338.184121,N,11743.724553,W,17.5,146.0,130110,,,A*47
$GPRMC,012426.9,A,3338.171675,N,11743.715552,W,18.3,147.9,130110,,,A*4C
$GPRMC,012429.9,A,3338.159936,N,11743.705364,W,17.2,145.9,130110,,,A*4F
$GPRMC,012432.9,A,3338.148137,N,11743.694813,W,17.0,144.3,130110,,,A*47
$GPRMC,012435.9,A,3338.137035,N,11743.686803,W,17.3,145.4,130110,,,A*4C
$GPRMC,012438.9,A,3338.123656,N,11743.675700,W,19.2,145.7,130110,,,A*4B
$GPRMC,012441.9,A,3338.108365,N,11743.664684,W,20.7,146.3,130110,,,A*4C
$GPRMC,012444.9,A,3338.093207,N,11743.652221,W,23.6,146.5,130110,,,A*45
$GPRMC,012447.9,A,3338.075098,N,11743.637324,W,26.6,144.5,130110,,,A*4A
$GPRMC,012450.9,A,3338.056918,N,11743.622114,W,25.2,144.6,130110,,,A*4D
$GPRMC,012453.9,A,3338.039563,N,11743.607598,W,25.0,145.1,130110,,,A*44
$GPRMC,012456.9,A,3338.022942,N,11743.591206,W,24.2,141.8,130110,,,A*46
$GPRMC,012459.9,A,3338.008988,N,11743.577711,W,21.9,140.9,130110,,,A*42
$GPRMC,012502.9,A,3337.996269,N,11743.566160,W,20.1,140.3,130110,,,A*4B
$GPRMC,012505.9,A,3337.982305,N,11743.553656,W,19.9,139.0,130110,,,A*49
$GPRMC,012508.9,A,3337.970677,N,11743.541414,W,18.5,137.2,130110,,,A*4F
$GPRMC,012511.9,A,3337.961434,N,11743.529186,W,16.6,135.4,130110,,,A*4B
$GPRMC,012514.9,A,3337.952518,N,11743.519327,W,14.5,133.4,130110,,,A*4C
$GPRMC,012517.9,A,3337.944796,N,11743.510897,W,12.7,134.3,130110,,,A*41
$GPRMC,012520.9,A,3337.941093,N,11743.506313,W,4.8,143.0,130110,,,A*79
$GPRMC,012535.9,A,3337.934968,N,11743.497772,W,4.7,123.1,130110,,,A*70
$GPRMC,012538.9,A,3337.930453,N,11743.492690,W,7.2,132.3,130110,,,A*70
$GPRMC,012541.9,A,3337.924630,N,11743.486066,W,11.2,132.9,130110,,,A*4B
$GPRMC,012544.9,A,3337.916863,N,11743.477536,W,12.5,132.5,130110,,,A*41
$GPRMC,012547.9,A,3337.907606,N,11743.469771,W,13.9,137.7,130110,,,A*4B
$GPRMC,012550.9,A,3337.899852,N,11743.459366,W,13.7,134.3,130110,,,A*4C
$GPRMC,012553.9,A,3337.891148,N,11743.447720,W,15.1,132.7,130110,,,A*4E
$GPRMC,012556.9,A,3337.881737,N,11743.438732,W,14.0,138.1,130110,,,A*43
$GPRMC,012559.9,A,3337.873725,N,11743.429799,W,13.2,136.3,130110,,,A*4A
$GPRMC,012602.9,A,3337.866130,N,11743.420677,W,13.6,136.1,130110,,,A*4F
$GPRMC,012605.9,A,3337.857826,N,11743.409236,W,15.7,132.5,130110,,,A*49
$GPRMC,012608.9,A,3337.844982,N,11743.397034,W,21.3,137.4,130110,,,A*4E
$GPRMC,012611.9,A,3337.831849,N,11743.378040,W,26.1,132.1,130110,,,A*45
$GPRMC,012614.9,A,3337.815129,N,11743.361336,W,26.3,137.3,130110,,,A*46
$GPRMC,012617.9,A,3337.796630,N,11743.340588,W,28.9,135.8,130110,,,A*43
$GPRMC,012620.9,A,3337.781152,N,11743.320793,W,25.8,136.3,130110,,,A*48
$GPRMC,012623.9,A,3337.767014,N,11743.305630,W,21.9,139.5,130110,,,A*43
$GPRMC,012626.9,A,3337.753661,N,11743.292427,W,21.0,139.9,130110,,,A*4B
$GPRMC,012629.9,A,3337.740106,N,11743.280515,W,21.4,142.0,130110,,,A*42
$GPRMC,012632.9,A,3337.723921,N,11743.265026,W,24.8,141.8,130110,,,A*4C
$GPRMC,012635.9,A,3337.706369,N,11743.248194,W,26.4,142.5,130110,,,A*4D
$GPRMC,012638.2,A,3337.692552,N,11743.234331,W,28.6,140.5,130110,,,A*41
$GPRMC,012641.0,A,3337.678383,N,11743.220717,W,22.5,141.9,130110,,,A*42
$GPRMC,012644.9,A,3337.660944,N,11743.207219,W,17.1,146.4,130110,,,A*40
$GPRMC,012647.9,A,3337.651090,N,11743.197881,W,13.9,141.7,130110,,,A*48
$GPRMC,012650.9,A,3337.642759,N,11743.190726,W,11.7,143.8,130110,,,A*4A
$GPRMC,012653.9,A,3337.634359,N,11743.183567,W,13.9,142.2,130110,,,A*4E
$GPRMC,012656.9,A,3337.620234,N,11743.170463,W,20.7,141.5,130110,,,A*47
$GPRMC,012659.9,A,3337.607839,N,11743.157874,W,19.4,140.1,130110,,,A*49
$GPRMC,012702.9,A,3337.598501,N,11743.149560,W,13.2,142.9,130110,,,A*44
$GPRMC,012705.9,A,3337.593498,N,11743.144620,W,7.1,140.8,130110,,,A*76
$GPRMC,012708.9,A,3337.590339,N,11743.141683,W,5.1,139.2,130110,,,A*7E
$GPRMC,012711.9,A,3337.585115,N,11743.138116,W,8.6,147.6,130110,,,A*7C
$GPRMC,012714.9,A,3337.577435,N,11743.130865,W,12.3,140.3,130110,,,A*4A
$GPRMC,012717.9,A,3337.566217,N,11743.120856,W,15.6,142.0,130110,,,A*4D
$GPRMC,012720.9,A,3337.554445,N,11743.107879,W,17.2,140.6,130110,,,A*43
$GPRMC,012723.9,A,3337.541010,N,11743.098436,W,19.6,142.5,130110,,,A*4B
$GPRMC,012726.9,A,3337.526368,N,11743.083404,W,26.2,141.8,130110,,,A*4E
$GPRMC,012729.9,A,3337.504633,N,11743.064309,W,32.2,143.6,130110,,,A*40
$GPRMC,012732.9,A,3337.481028,N,11743.041875,W,36.7,142.5,130110,,,A*4E
$GPRMC,012735.9,A,3337.456955,N,11743.017041,W,37.5,141.2,130110,,,A*4B
$GPRMC,012738.9,A,3337.432893,N,11742.995580,W,35.9,142.0,130110,,,A*4A
$GPRMC,012741.9,A,3337.409517,N,11742.973980,W,34.0,142.8,130110,,,A*49
$GPRMC,012744.9,A,3337.389344,N,11742.955177,W,29.8,144.0,130110,,,A*4D
$GPRMC,012747.9,A,3337.374482,N,11742.941858,W,22.4,143.2,130110,,,A*42
$GPRMC,012750.9,A,3337.361387,N,11742.930359,W,18.7,143.3,130110,,,A*45
$GPRMC,012753.9,A,3337.350049,N,11742.919997,W,16.2,142.1,130110,,,A*4E
$GPRMC,012756.9,A,3337.344159,N,11742.915391,W,5.9,140.7,130110,,,A*73
$GPRMC,012802.9,A,3337.342063,N,11742.914051,W,4.6,147.0,130110,,,A*73
$GPRMC,012805.9,A,3337.336485,N,11742.907827,W,11.0,140.1,130110,,,A*44
$GPRMC,012808.9,A,3337.324664,N,11742.897290,W,17.8,143.8,130110,,,A*4D
$GPRMC,012811.9,A,3337.313392,N,11742.885116,W,17.9,142.3,130110,,,A*48
$GPRMC,012814.9,A,3337.300568,N,11742.873462,W,18.5,141.7,130110,,,A*47
$GPRMC,012817.9,A,3337.287078,N,11742.863614,W,18.5,144.3,130110,,,A*4D
$GPRMC,012820.9,A,3337.274777,N,11742.853625,W,19.3,142.6,130110,,,A*48
$GPRMC,012823.9,A,3337.261550,N,11742.838347,W,22.4,139.3,130110,,,A*42
$GPRMC,012826.9,A,3337.245577,N,11742.823565,W,24.3,144.3,130110,,,A*43
$GPRMC,012829.9,A,3337.228466,N,11742.809200,W,23.6,143.2,130110,,,A*4E
$GPRMC,012833.2,A,3337.212753,N,11742.794432,W,21.0,140.6,130110,,,A*4D
$GPRMC,012836.2,A,3337.200004,N,11742.782799,W,17.3,142.4,130110,,,A*4D
$GPRMC,012839.2,A,3337.187152,N,11742.771067,W,22.4,142.6,130110,,,A*45
$GPRMC,012842.9,A,3337.167565,N,11742.752279,W,25.9,142.8,130110,,,A*44
$GPRMC,012845.9,A,3337.148078,N,11742.734821,W,29.3,141.3,130110,,,A*4E
$GPRMC,012848.9,A,3337.129434,N,11742.715319,W,28.1,140.6,130110,,,A*4C
$GPRMC,012851.9,A,3337.111185,N,11742.700918,W,25.1,143.1,130110,,,A*46
$GPRMC,012854.9,A,3337.098811,N,11742.688491,W,19.7,140.1,130110,,,A*40
$GPRMC,012857.9,A,3337.089514,N,11742.679801,W,13.5,140.0,130110,,,A*49
$GPRMC,012900.9,A,3337.081352,N,11742.673481,W,10.5,146.6,130110,,,A*4B
$GPRMC,012903.9,A,3337.073353,N,11742.665882,W,13.9,140.7,130110,,,A*44
$GPRMC,012906.9,A,3337.061078,N,11742.656678,W,19.4,142.6,130110,,,A*47
$GPRMC,012909.9,A,3337.048562,N,11742.642840,W,21.5,140.1,130110,,,A*42
$GPRMC,012912.9,A,3337.030360,N,11742.627489,W,25.9,142.4,130110,,,A*46
$GPRMC,012915.9,A,3337.013915,N,11742.609144,W,27.7,139.8,130110,,,A*4C
$GPRMC,012918.9,A,3336.994473,N,11742.592074,W,28.2,142.2,130110,,,A*44
$GPRMC,012921.9,A,3336.978881,N,11742.575407,W,23.2,139.1,130110,,,A*40
$GPRMC,012924.9,A,3336.970013,N,11742.565894,W,11.9,141.1,130110,,,A*4C
$GPRMC,012948.9,A,3336.963775,N,11742.558805,W,5.8,133.7,130110,,,A*72
$GPRMC,012951.9,A,3336.957536,N,11742.549393,W,14.3,131.5,130110,,,A*47
$GPRMC,012954.9,A,3336.942932,N,11742.538253,W,20.9,139.5,130110,,,A*40
$GPRMC,012957.9,A,3336.929405,N,11742.521319,W,24.2,133.7,130110,,,A*47
$GPRMC,013000.9,A,3336.914714,N,11742.501652,W,27.4,133.7,130110,,,A*4D
$GPRMC,013003.9,A,3336.899943,N,11742.482024,W,26.1,135.0,130110,,,A*4E
$GPRMC,013006.9,A,3336.882194,N,11742.463656,W,27.1,136.2,130110,,,A*4F
$GPRMC,013009.9,A,3336.863411,N,11742.443521,W,32.2,136.2,130110,,,A*41
$GPRMC,013012.9,A,3336.841553,N,11742.419398,W,35.6,136.2,130110,,,A*44
$GPRMC,013015.9,A,3336.820857,N,11742.394113,W,35.6,134.5,130110,,,A*4B
$GPRMC,013018.9,A,3336.800222,N,11742.366547,W,35.4,133.5,130110,,,A*41
$GPRMC,013021.9,A,3336.779190,N,11742.342818,W,36.2,136.0,130110,,,A*44
$GPRMC,013024.9,A,3336.756595,N,11742.318462,W,37.9,136.9,130110,,,A*40
$GPRMC,013027.9,A,3336.732161,N,11742.289698,W,39.3,135.4,130110,,,A*4A
$GPRMC,013030.9,A,3336.710472,N,11742.264081,W,37.4,135.2,130110,,,A*49
$GPRMC,013033.9,A,3336.690204,N,11742.239338,W,35.1,134.6,130110,,,A*4F
$GPRMC,013036.9,A,3336.670426,N,11742.212365,W,37.3,131.8,130110,,,A*48
$GPRMC,013039.9,A,3336.648359,N,11742.185554,W,37.1,132.9,130110,,,A*4A
$GPRMC,013042.9,A,3336.627795,N,11742.159629,W,37.4,129.4,130110,,,A*41
$GPRMC,013045.9,A,3336.609182,N,11742.128902,W,39.1,125.1,130110,,,A*48
$GPRMC,013048.9,A,3336.587619,N,11742.091797,W,43.3,124.4,130110,,,A*4F
$GPRMC,013051.9,A,3336.570163,N,11742.055376,W,42.6,120.7,130110,,,A*45
$GPRMC,013054.9,A,3336.553122,N,11742.018270,W,42.1,119.0,130110,,,A*40
$GPRMC,013057.9,A,3336.536858,N,11741.982796,W,41.2,117.6,130110,,,A*48
$GPRMC,013100.9,A,3336.520054,N,11741.945466,W,42.3,117.6,130110,,,A*4D
$GPRMC,013103.9,A,3336.503165,N,11741.908251,W,43.0,117.8,130110,,,A*4B
$GPRMC,013106.9,A,3336.487794,N,11741.868775,W,43.5,116.3,130110,,,A*40
$GPRMC,013109.0,A,3336.475028,N,11741.840194,W,46.6,118.0,130110,,,A*43
$GPRMC,013112.9,A,3336.449556,N,11741.784238,W,51.1,117.5,130110,,,A*4A
$GPRMC,013115.9,A,3336.431557,N,11741.740546,W,49.7,118.1,130110,,,A*41
$GPRMC,013118.9,A,3336.412923,N,11741.696979,W,49.1,117.5,130110,,,A*45
$GPRMC,013121.9,A,3336.391292,N,11741.655824,W,47.6,119.9,130110,,,A*4F
$GPRMC,013124.9,A,3336.372171,N,11741.616495,W,46.9,121.3,130110,,,A*47
$GPRMC,013127.9,A,3336.350947,N,11741.575751,W,48.6,121.5,130110,,,A*43
$GPRMC,013130.9,A,3336.327161,N,11741.532814,W,50.8,123.9,130110,,,A*4D
$GPRMC,013133.9,A,3336.302985,N,11741.491210,W,51.0,125.4,130110,,,A*4F
$GPRMC,013136.9,A,3336.276529,N,11741.452881,W,50.3,128.1,130110,,,A*45
$GPRMC,013139.2,A,3336.255602,N,11741.421052,W,52.5,127.8,130110,,,A*4A
$GPRMC,013142.9,A,3336.220690,N,11741.375102,W,51.5,128.3,130110,,,A*41
$GPRMC,013145.9,A,3336.193840,N,11741.334406,W,52.9,127.5,130110,,,A*4C
$GPRMC,013148.9,A,3336.169516,N,11741.288706,W,52.8,123.5,130110,,,A*4A
$GPRMC,013151.9,A,3336.147765,N,11741.244495,W,51.8,120.1,130110,,,A*45
$GPRMC,013154.9,A,3336.127096,N,11741.197902,W,52.4,117.8,130110,,,A*41
$GPRMC,013157.9,A,3336.108265,N,11741.152253,W,50.5,116.1,130110,,,A*4C
$GPRMC,013200.9,A,3336.089905,N,11741.107322,W,51.8,115.2,130110,,,A*43
$GPRMC,013203.2,A,3336.074873,N,11741.070665,W,51.7,115.3,130110,,,A*40
$GPRMC,013206.2,A,3336.057464,N,11741.024471,W,49.4,115.1,130110,,,A*40
$GPRMC,013209.2,A,3336.040069,N,11740.979531,W,50.2,115.0,130110,,,A*4A
$GPRMC,013212.2,A,3336.022695,N,11740.934943,W,47.9,115.0,130110,,,A*4C
$GPRMC,013215.2,A,3336.005539,N,11740.892465,W,47.3,115.1,130110,,,A*44
$GPRMC,013218.9,A,3335.985589,N,11740.839819,W,46.6,114.8,130110,,,A*41
$GPRMC,013221.9,A,3335.967859,N,11740.799104,W,45.4,116.6,130110,,,A*4A
$GPRMC,013224.9,A,3335.952315,N,11740.758125,W,45.5,114.6,130110,,,A*47
$GPRMC,013227.9,A,3335.937684,N,11740.715173,W,45.8,113.8,130110,,,A*44
$GPRMC,013230.9,A,3335.919172,N,11740.676412,W,43.2,119.2,130110,,,A*4A
$GPRMC,013233.9,A,3335.899424,N,11740.641626,W,43.7,123.7,130110,,,A*4E
$GPRMC,013236.9,A,3335.877695,N,11740.606398,W,44.4,127.0,130110,,,A*47
$GPRMC,013239.9,A,3335.853120,N,11740.569782,W,47.5,129.9,130110,,,A*47
$GPRMC,013242.9,A,3335.823987,N,11740.533464,W,48.7,134.4,130110,,,A*41
$GPRMC,013245.9,A,3335.795072,N,11740.498296,W,47.6,136.0,130110,,,A*44
$GPRMC,013248.9,A,3335.764540,N,11740.468519,W,46.6,139.7,130110,,,A*45
$GPRMC,013251.9,A,3335.734741,N,11740.439072,W,45.0,141.5,130110,,,A*4F
$GPRMC,013254.9,A,3335.704285,N,11740.413841,W,44.2,146.4,130110,,,A*41
$GPRMC,013257.9,A,3335.674101,N,11740.393348,W,41.6,149.3,130110,,,A*4F
$GPRMC,013300.9,A,3335.647383,N,11740.374567,W,38.7,151.4,130110,,,A*47
$GPRMC,013303.9,A,3335.617928,N,11740.355895,W,39.5,154.0,130110,,,A*4B
$GPRMC,013306.9,A,3335.585390,N,11740.338370,W,42.7,157.5,130110,,,A*4C
$GPRMC,013309.9,A,3335.550848,N,11740.329346,W,42.0,164.0,130110,,,A*42
$GPRMC,013312.9,A,3335.517144,N,11740.317968,W,40.2,166.5,130110,,,A*42
$GPRMC,013315.9,A,3335.483647,N,11740.311845,W,38.5,171.3,130110,,,A*4D
$GPRMC,013318.9,A,3335.455997,N,11740.307996,W,34.6,173.5,130110,,,A*4A
$GPRMC,013321.9,A,3335.429188,N,11740.306920,W,33.8,176.7,130110,,,A*4F
$GPRMC,013324.9,A,3335.399679,N,11740.306930,W,36.0,180.1,130110,,,A*4C
$GPRMC,013327.9,A,3335.368435,N,11740.307824,W,35.4,181.5,130110,,,A*4C
$GPRMC,013330.9,A,3335.342789,N,11740.310268,W,30.0,182.1,130110,,,A*44
$GPRMC,013333.9,A,3335.317938,N,11740.311281,W,29.1,181.8,130110,,,A*46
$GPRMC,013336.9,A,3335.296917,N,11740.309994,W,26.9,179.0,130110,,,A*48
$GPRMC,013339.9,A,3335.272288,N,11740.310082,W,29.2,180.4,130110,,,A*40
$GPRMC,013342.9,A,3335.246590,N,11740.311080,W,30.8,181.5,130110,,,A*44
$GPRMC,013345.9,A,3335.221950,N,11740.310569,W,30.7,180.7,130110,,,A*4D
$GPRMC,013348.9,A,3335.195719,N,11740.311322,W,31.1,181.6,130110,,,A*40
$GPRMC,013351.9,A,3335.169769,N,11740.312203,W,30.1,180.9,130110,,,A*42
$GPRMC,013354.9,A,3335.145568,N,11740.312960,W,29.6,182.0,130110,,,A*40
$GPRMC,013357.9,A,3335.120208,N,11740.312848,W,29.9,179.2,130110,,,A*43
$GPRMC,013400.9,A,3335.092118,N,11740.316720,W,34.7,185.3,130110,,,A*49
$GPRMC,013403.9,A,3335.063082,N,11740.320624,W,36.4,186.8,130110,,,A*4F
$GPRMC,013406.9,A,3335.033146,N,11740.325575,W,36.0,186.5,130110,,,A*4D
$GPRMC,013409.9,A,3335.004104,N,11740.328901,W,35.3,187.6,130110,,,A*40
$GPRMC,013412.9,A,3334.972498,N,11740.337602,W,36.9,198.8,130110,,,A*48
$GPRMC,013415.9,A,3334.946676,N,11740.353317,W,36.1,208.9,130110,,,A*4A
$GPRMC,013418.9,A,3334.924900,N,11740.369143,W,30.3,208.4,130110,,,A*4E
$GPRMC,013421.9,A,3334.901571,N,11740.376591,W,27.1,191.4,130110,,,A*4B
$GPRMC,013424.9,A,3334.882358,N,11740.373851,W,21.4,168.5,130110,,,A*49
$GPRMC,013427.9,A,3334.866296,N,11740.370491,W,18.5,167.5,130110,,,A*44
$GPRMC,013430.9,A,3334.856260,N,11740.365826,W,9.4,165.8,130110,,,A*72
$GPRMC,013445.9,A,3334.854507,N,11740.361156,W,4.5,169.8,130110,,,A*7E
$GPRMC,013448.9,A,3334.846775,N,11740.360546,W,11.8,166.3,130110,,,A*4E
$GPRMC,013451.9,A,3334.832677,N,11740.357464,W,16.0,161.5,130110,,,A*4D
$GPRMC,013454.9,A,3334.819249,N,11740.355990,W,16.2,192.6,130110,,,A*41
$GPRMC,013457.9,A,3334.809231,N,11740.369255,W,19.4,239.6,130110,,,A*4A
$GPRMC,013500.9,A,3334.809676,N,11740.389911,W,19.8,272.8,130110,,,A*46
$GPRMC,013503.9,A,3334.811515,N,11740.405456,W,10.2,275.1,130110,,,A*4A
$GPRMC,013518.9,A,3334.813368,N,11740.415278,W,8.8,280.2,130110,,,A*7F
$GPRMC,013521.9,A,3334.816366,N,11740.430721,W,18.6,282.4,130110,,,A*4B
$GPRMC,013524.9,A,3334.820150,N,11740.450356,W,23.2,284.3,130110,,,A*43
$GPRMC,013527.9,A,3334.825840,N,11740.475631,W,28.1,285.8,130110,,,A*4C
$GPRMC,013530.9,A,3334.831594,N,11740.504531,W,31.0,285.0,130110,,,A*4E
$GPRMC,013533.9,A,3334.841574,N,11740.539035,W,35.7,286.8,130110,,,A*43
$GPRMC,013536.9,A,3334.848683,N,11740.573745,W,38.1,286.7,130110,,,A*4E
$GPRMC,013539.9,A,3334.856979,N,11740.607480,W,35.0,285.4,130110,,,A*42
$GPRMC,013542.9,A,3334.862370,N,11740.642102,W,33.8,280.7,130110,,,A*4C
$GPRMC,013545.9,A,3334.866194,N,11740.678546,W,36.5,275.9,130110,,,A*46
$GPRMC,013548.9,A,3334.867593,N,11740.716786,W,38.0,270.8,130110,,,A*41
$GPRMC,013551.9,A,3334.866197,N,11740.752180,W,37.2,264.8,130110,,,A*40
$GPRMC,013554.9,A,3334.856738,N,11740.789522,W,40.5,257.5,130110,,,A*45
$GPRMC,013557.9,A,3334.847296,N,11740.830274,W,40.8,253.9,130110,,,A*4B
$GPRMC,013600.9,A,3334.836523,N,11740.870404,W,39.6,251.3,130110,,,A*48
$GPRMC,013603.9,A,3334.821667,N,11740.899737,W,35.2,242.1,130110,,,A*42
$GPRMC,013606.9,A,3334.805464,N,11740.930727,W,37.2,237.4,130110,,,A*46
$GPRMC,013609.9,A,3334.786084,N,11740.961169,W,41.4,230.0,130110,,,A*4B
$GPRMC,013612.9,A,3334.761800,N,11740.996303,W,45.6,227.6,130110,,,A*4C
$GPRMC,013615.9,A,3334.728663,N,11741.026061,W,48.5,218.0,130110,,,A*4D
$GPRMC,013618.9,A,3334.695844,N,11741.051677,W,49.3,212.6,130110,,,A*46
$GPRMC,013621.9,A,3334.659902,N,11741.077892,W,50.8,211.0,130110,,,A*48
$GPRMC,013624.9,A,3334.624791,N,11741.104205,W,48.9,213.5,130110,,,A*4D
$GPRMC,013627.2,A,3334.599201,N,11741.126598,W,50.2,216.0,130110,,,A*4D
$GPRMC,013630.9,A,3334.557575,N,11741.165015,W,51.0,220.3,130110,,,A*44
$GPRMC,013633.9,A,3334.531073,N,11741.202582,W,50.0,230.9,130110,,,A*47
$GPRMC,013636.9,A,3334.509179,N,11741.245011,W,48.9,237.8,130110,,,A*48
$GPRMC,013639.9,A,3334.491377,N,11741.286479,W,44.9,243.9,130110,,,A*40
$GPRMC,013642.9,A,3334.481133,N,11741.326310,W,40.6,251.3,130110,,,A*4E
$GPRMC,013645.9,A,3334.476196,N,11741.361695,W,31.9,260.2,130110,,,A*4F
$GPRMC,013648.9,A,3334.473078,N,11741.379597,W,19.9,260.7,130110,,,A*41
$GPRMC,013651.9,A,3334.470646,N,11741.397181,W,19.2,261.6,130110,,,A*49
$GPRMC,013654.9,A,3334.468407,N,11741.417989,W,23.4,265.4,130110,,,A*44
$GPRMC,013657.9,A,3334.466566,N,11741.447276,W,30.4,265.1,130110,,,A*46
$GPRMC,013700.9,A,3334.464666,N,11741.480004,W,34.0,266.0,130110,,,A*4A
$GPRMC,013703.9,A,3334.464343,N,11741.514095,W,34.8,267.9,130110,,,A*4F
$GPRMC,013706.9,A,3334.460750,N,11741.550140,W,37.3,265.6,130110,,,A*44
$GPRMC,013709.9,A,3334.460038,N,11741.588759,W,39.3,267.4,130110,,,A*47
$GPRMC,013712.9,A,3334.456814,N,11741.630749,W,42.9,265.5,130110,,,A*4A
$GPRMC,013715.9,A,3334.453554,N,11741.676473,W,45.0,265.9,130110,,,A*4B
$GPRMC,013718.9,A,3334.453084,N,11741.718613,W,43.1,266.7,130110,,,A*49
$GPRMC,013721.9,A,3334.450058,N,11741.761175,W,43.5,264.8,130110,,,A*41
$GPRMC,013724.9,A,3334.445193,N,11741.801339,W,41.8,261.7,130110,,,A*40
$GPRMC,013727.9,A,3334.437534,N,11741.840694,W,41.7,255.6,130110,,,A*41
$GPRMC,013730.9,A,3334.426252,N,11741.882607,W,42.2,250.6,130110,,,A*47
$GPRMC,013733.9,A,3334.411922,N,11741.914789,W,35.3,243.4,130110,,,A*44
$GPRMC,013736.9,A,3334.398539,N,11741.941644,W,29.7,239.1,130110,,,A*40
$GPRMC,013739.9,A,3334.389132,N,11741.960852,W,20.4,236.3,130110,,,A*4D
$GPRMC,013742.9,A,3334.382196,N,11741.973767,W,14.5,237.9,130110,,,A*42
$GPRMC,013806.9,A,3334.376455,N,11741.986404,W,10.5,248.3,130110,,,A*46
$GPRMC,013809.9,A,3334.369901,N,11741.999063,W,11.7,242.3,130110,,,A*49
$GPRMC,014000.9,A,3334.369363,N,11742.010070,W,7.0,254.3,130110,,,A*7F
$GPRMC,014003.9,A,3334.351044,N,11742.024224,W,17.6,208.4,130110,,,A*4C
$GPRMC,014006.9,A,3334.331724,N,11742.024259,W,23.8,172.0,130110,,,A*47
$GPRMC,014009.9,A,3334.308262,N,11742.017846,W,30.0,165.2,130110,,,A*4F
$GPRMC,014012.9,A,3334.277803,N,11742.008734,W,34.8,168.7,130110,,,A*41
$GPRMC,014015.9,A,3334.247275,N,11742.003511,W,33.8,174.2,130110,,,A*4F
$GPRMC,014018.9,A,3334.224615,N,11742.003435,W,25.9,180.6,130110,,,A*4B
$GPRMC,014021.9,A,3334.213437,N,11742.004401,W,11.8,183.2,130110,,,A*46
$GPRMC,014030.9,A,3334.205563,N,11742.002808,W,9.2,185.4,130110,,,A*71
$GPRMC,014033.9,A,3334.191320,N,11742.004339,W,19.6,187.6,130110,,,A*47
$GPRMC,014036.9,A,3334.170433,N,11742.009887,W,26.9,191.7,130110,,,A*4E
$GPRMC,014040.2,A,3334.143837,N,11742.017824,W,30.1,195.9,130110,,,A*4F
$GPRMC,014043.9,A,3334.114687,N,11742.032932,W,27.7,201.9,130110,,,A*4F
$GPRMC,014046.9,A,3334.098599,N,11742.046699,W,21.9,208.3,130110,,,A*45
$GPRMC,014049.9,A,3334.087092,N,11742.051414,W,10.4,200.9,130110,,,A*46
$GPRMC,014055.9,A,3334.077591,N,11742.054623,W,10.4,204.0,130110,,,A*4C
$GPRMC,014058.9,A,3334.064157,N,11742.065517,W,22.8,209.2,130110,,,A*49
$GPRMC,014101.9,A,3334.043394,N,11742.079739,W,31.5,209.4,130110,,,A*46
