NMEA Sentence Code,UTC Time,Status,Latitude,Latitude Direction,Longitude,Longitude Direction,Speed (knots),Track Angle (degrees true),Date,MagneticVariation,Magnetic Variation Direction,[FAA Mode]-Optional,Checksum
$GPRMC,190345.8,A,3340.038761,N,11748.997868,W,67.3,111.8,310710,,,A*44
$GPRMC,190348.8,A,3340.016992,N,11748.934737,W,68.7,111.9,310710,,,A*41
$GPRMC,190351.8,A,3339.996105,N,11748.870851,W,68.1,112.0,310710,,,A*42
$GPRMC,190354.8,A,3339.975372,N,11748.808594,W,67.7,110.5,310710,,,A*4D
$GPRMC,190357.8,A,3339.957199,N,11748.745221,W,67.4,107.4,310710,,,A*42
$GPRMC,190400.8,A,3339.941513,N,11748.681630,W,66.6,105.2,310710,,,A*4C
$GPRMC,190403.8,A,3339.928212,N,11748.617203,W,66.3,103.2,310710,,,A*4E
$GPRMC,190406.8,A,3339.917033,N,11748.552510,W,66.4,101.3,310710,,,A*45
$GPRMC,190409.8,A,3339.908311,N,11748.487884,W,65.6,99.4,310710,,,A*78
$GPRMC,190412.8,A,3339.899566,N,11748.425298,W,64.4,99.4,310710,,,A*71
$GPRMC,190415.8,A,3339.890209,N,11748.361507,W,65.0,99.5,310710,,,A*73
$GPRMC,190418.8,A,3339.881537,N,11748.297513,W,65.7,99.6,310710,,,A*7D
$GPRMC,190421.8,A,3339.872553,N,11748.232119,W,66.5,99.6,310710,,,A*79
$GPRMC,190424.8,A,3339.862712,N,11748.167739,W,65.2,99.5,310710,,,A*7A
$GPRMC,190427.8,A,3339.853912,N,11748.104131,W,63.9,99.6,310710,,,A*70
$GPRMC,190430.8,A,3339.844923,N,11748.041320,W,63.5,99.5,310710,,,A*7F
$GPRMC,190433.8,A,3339.836017,N,11747.979301,W,63.2,99.4,310710,,,A*7F
$GPRMC,190436.8,A,3339.827130,N,11747.917332,W,63.2,99.7,310710,,,A*75
$GPRMC,190439.8,A,3339.817695,N,11747.855667,W,63.1,99.5,310710,,,A*72
$GPRMC,190442.8,A,3339.808612,N,11747.792729,W,64.2,98.9,310710,,,A*79
$GPRMC,190445.8,A,3339.800530,N,11747.730023,W,62.6,99.3,310710,,,A*79
$GPRMC,190448.8,A,3339.791727,N,11747.668829,W,61.6,99.9,310710,,,A*70
$GPRMC,190451.8,A,3339.783410,N,11747.607205,W,62.7,99.5,310710,,,A*7F
$GPRMC,190454.8,A,3339.774434,N,11747.544640,W,63.4,99.9,310710,,,A*7B
$GPRMC,190457.8,A,3339.766130,N,11747.482864,W,61.9,99.5,310710,,,A*7A
$GPRMC,190500.8,A,3339.757682,N,11747.424499,W,59.3,99.8,310710,,,A*7B
$GPRMC,190503.8,A,3339.749917,N,11747.366028,W,58.3,99.6,310710,,,A*74
$GPRMC,190506.8,A,3339.740750,N,11747.307918,W,60.2,101.0,310710,,,A*44
$GPRMC,190509.8,A,3339.728065,N,11747.247525,W,62.7,105.8,310710,,,A*48
$GPRMC,190512.8,A,3339.712312,N,11747.187091,W,64.2,108.8,310710,,,A*43
$GPRMC,190515.8,A,3339.692790,N,11747.126544,W,65.0,113.5,310710,,,A*41
$GPRMC,190518.8,A,3339.669379,N,11747.067713,W,65.9,116.0,310710,,,A*46
$GPRMC,190521.8,A,3339.641148,N,11747.008938,W,67.7,120.5,310710,,,A*44
$GPRMC,190524.8,A,3339.608629,N,11746.951983,W,67.6,124.5,310710,,,A*4D
$GPRMC,190527.8,A,3339.576749,N,11746.896834,W,66.0,125.1,310710,,,A*46
$GPRMC,190530.8,A,3339.546153,N,11746.844469,W,63.7,125.0,310710,,,A*46
$GPRMC,190533.8,A,3339.515572,N,11746.792662,W,62.9,124.7,310710,,,A*40
$GPRMC,190536.8,A,3339.486785,N,11746.740775,W,62.6,124.3,310710,,,A*47
$GPRMC,190539.8,A,3339.456927,N,11746.688554,W,62.7,124.7,310710,,,A*42
$GPRMC,190542.8,A,3339.427342,N,11746.636832,W,63.5,124.6,310710,,,A*4B
$GPRMC,190545.8,A,3339.397668,N,11746.584319,W,62.6,124.7,310710,,,A*46
$GPRMC,190548.8,A,3339.368227,N,11746.533387,W,62.5,124.4,310710,,,A*4F
$GPRMC,190551.8,A,3339.338726,N,11746.480846,W,63.6,124.4,310710,,,A*4B
$GPRMC,190554.8,A,3339.308253,N,11746.428488,W,64.6,124.7,310710,,,A*42
$GPRMC,190557.8,A,3339.277881,N,11746.374928,W,65.1,124.3,310710,,,A*46
$GPRMC,190600.8,A,3339.246898,N,11746.319094,W,67.5,122.4,310710,,,A*4F
$GPRMC,190603.8,A,3339.219257,N,11746.260073,W,68.4,118.0,310710,,,A*4A
$GPRMC,190606.8,A,3339.194204,N,11746.198367,W,67.6,113.4,310710,,,A*4F
$GPRMC,190609.8,A,3339.174220,N,11746.136596,W,65.9,109.3,310710,,,A*45
$GPRMC,190612.8,A,3339.157622,N,11746.074887,W,64.9,107.0,310710,,,A*4E
$GPRMC,190615.8,A,3339.145674,N,11746.013107,W,62.9,102.1,310710,,,A*4B
$GPRMC,190618.8,A,3339.136397,N,11745.951929,W,61.9,100.4,310710,,,A*46
$GPRMC,190621.8,A,3339.127504,N,11745.891010,W,62.5,100.7,310710,,,A*42
$GPRMC,190624.8,A,3339.117723,N,11745.829303,W,63.0,99.9,310710,,,A*7A
$GPRMC,190627.8,A,3339.109151,N,11745.766938,W,64.7,99.5,310710,,,A*7F
$GPRMC,190630.8,A,3339.099542,N,11745.702253,W,66.2,100.1,310710,,,A*41
$GPRMC,190633.8,A,3339.090343,N,11745.637233,W,66.7,100.0,310710,,,A*49
$GPRMC,190636.8,A,3339.080527,N,11745.570617,W,68.4,100.2,310710,,,A*44
$GPRMC,190639.8,A,3339.067562,N,11745.502363,W,70.5,104.9,310710,,,A*47
$GPRMC,190642.8,A,3339.051109,N,11745.434043,W,70.3,107.8,310710,,,A*46
$GPRMC,190645.8,A,3339.032237,N,11745.367494,W,69.7,109.5,310710,,,A*4A
$GPRMC,190648.8,A,3339.012527,N,11745.302616,W,69.0,109.2,310710,,,A*48
$GPRMC,190651.8,A,3338.993184,N,11745.236422,W,70.0,109.0,310710,,,A*45
$GPRMC,190654.8,A,3338.974098,N,11745.170270,W,70.0,109.4,310710,,,A*41
$GPRMC,190657.8,A,3338.954784,N,11745.104870,W,69.5,109.3,310710,,,A*49
$GPRMC,190700.8,A,3338.935972,N,11745.039862,W,68.5,108.8,310710,,,A*4D
$GPRMC,190703.8,A,3338.917788,N,11744.975505,W,68.0,108.6,310710,,,A*42
$GPRMC,190706.8,A,3338.899646,N,11744.911652,W,67.2,108.8,310710,,,A*43
$GPRMC,190709.8,A,3338.881898,N,11744.848733,W,65.3,109.1,310710,,,A*48
$GPRMC,190712.8,A,3338.864252,N,11744.788092,W,63.8,109.4,310710,,,A*42
$GPRMC,190715.8,A,3338.847021,N,11744.728657,W,62.8,109.3,310710,,,A*41
$GPRMC,190718.8,A,3338.829772,N,11744.669949,W,62.4,109.3,310710,,,A*4D
$GPRMC,190721.8,A,3338.812203,N,11744.610563,W,62.6,109.5,310710,,,A*42
$GPRMC,190724.8,A,3338.795142,N,11744.551280,W,62.5,109.4,310710,,,A*4F
$GPRMC,190727.8,A,3338.777756,N,11744.492234,W,62.7,109.2,310710,,,A*46
$GPRMC,190730.8,A,3338.760731,N,11744.433373,W,62.3,109.3,310710,,,A*4B
$GPRMC,190733.8,A,3338.743366,N,11744.375320,W,61.7,109.5,310710,,,A*4D
$GPRMC,190736.8,A,3338.726457,N,11744.317474,W,60.9,109.4,310710,,,A*42
$GPRMC,190739.8,A,3338.708393,N,11744.259999,W,62.1,111.8,310710,,,A*44
$GPRMC,190742.8,A,3338.684962,N,11744.204077,W,62.9,118.5,310710,,,A*44
$GPRMC,190745.8,A,3338.650424,N,11744.149718,W,69.2,127.2,310710,,,A*4A
$GPRMC,190748.8,A,3338.611927,N,11744.094665,W,73.7,131.4,310710,,,A*49
$GPRMC,190751.8,A,3338.565305,N,11744.042715,W,76.3,139.1,310710,,,A*4A
$GPRMC,190754.8,A,3338.515371,N,11743.994326,W,76.7,142.3,310710,,,A*40
$GPRMC,190757.8,A,3338.463796,N,11743.953656,W,73.9,146.1,310710,,,A*4A
$GPRMC,190800.8,A,3338.412537,N,11743.915486,W,71.5,147.1,310710,,,A*4A
$GPRMC,190803.8,A,3338.365202,N,11743.875805,W,70.3,144.9,310710,,,A*43
$GPRMC,190806.8,A,3338.317228,N,11743.835002,W,71.1,144.1,310710,,,A*4B
$GPRMC,190809.8,A,3338.268187,N,11743.794965,W,70.0,146.1,310710,,,A*45
$GPRMC,190812.8,A,3338.221172,N,11743.757406,W,68.0,146.0,310710,,,A*47
$GPRMC,190815.8,A,3338.173913,N,11743.720273,W,66.5,145.9,310710,,,A*4E
$GPRMC,190818.8,A,3338.128666,N,11743.684161,W,65.2,146.1,310710,,,A*40
$GPRMC,190821.8,A,3338.084966,N,11743.647832,W,63.9,145.8,310710,,,A*45
$GPRMC,190824.8,A,3338.041852,N,11743.612172,W,63.2,145.3,310710,,,A*42
$GPRMC,190827.8,A,3338.000237,N,11743.575345,W,61.5,143.3,310710,,,A*4A
$GPRMC,190830.8,A,3337.962345,N,11743.535397,W,61.1,138.8,310710,,,A*42
$GPRMC,190833.8,A,3337.925460,N,11743.493651,W,60.9,135.9,310710,,,A*45
$GPRMC,190836.8,A,3337.890211,N,11743.451924,W,59.7,135.4,310710,,,A*45
$GPRMC,190839.8,A,3337.857494,N,11743.412352,W,51.7,135.4,310710,,,A*4E
$GPRMC,190842.8,A,3337.828654,N,11743.378343,W,45.8,135.5,310710,,,A*44
$GPRMC,190845.8,A,3337.801158,N,11743.346793,W,45.7,136.1,310710,,,A*4F
$GPRMC,190848.8,A,3337.773259,N,11743.316686,W,44.6,138.8,310710,,,A*4D
$GPRMC,190851.8,A,3337.744262,N,11743.287616,W,44.3,140.6,310710,,,A*4D
$GPRMC,190854.8,A,3337.715745,N,11743.261258,W,43.8,141.5,310710,,,A*44
$GPRMC,190857.8,A,3337.686013,N,11743.234427,W,44.6,142.6,310710,,,A*4F
$GPRMC,190900.8,A,3337.657166,N,11743.208153,W,42.1,142.6,310710,,,A*4B
$GPRMC,190903.8,A,3337.631343,N,11743.182955,W,38.4,142.6,310710,,,A*4A
$GPRMC,190906.8,A,3337.606521,N,11743.162747,W,35.9,143.0,310710,,,A*4D
$GPRMC,190909.8,A,3337.584724,N,11743.142330,W,30.7,142.1,310710,,,A*41
$GPRMC,190912.8,A,3337.567637,N,11743.125689,W,27.2,141.8,310710,,,A*4A
$GPRMC,190915.8,A,3337.550240,N,11743.109351,W,24.5,142.1,310710,,,A*4D
$GPRMC,190918.8,A,3337.537664,N,11743.098715,W,17.0,143.8,310710,,,A*43
$GPRMC,190921.8,A,3337.529277,N,11743.090571,W,12.9,141.6,310710,,,A*48
$GPRMC,190924.8,A,3337.521450,N,11743.083906,W,12.1,142.3,310710,,,A*46
$GPRMC,190927.8,A,3337.509921,N,11743.073965,W,18.1,142.6,310710,,,A*41
$GPRMC,190930.8,A,3337.494312,N,11743.060851,W,23.0,143.1,310710,,,A*43
$GPRMC,190933.8,A,3337.477747,N,11743.045590,W,26.0,143.3,310710,,,A*49
$GPRMC,190936.8,A,3337.459242,N,11743.030037,W,28.0,143.1,310710,,,A*46
$GPRMC,190939.8,A,3337.441276,N,11743.013242,W,27.0,143.1,310710,,,A*49
$GPRMC,190942.8,A,3337.424915,N,11742.995515,W,25.3,143.2,310710,,,A*49
$GPRMC,190945.8,A,3337.410863,N,11742.982508,W,21.5,142.7,310710,,,A*45
$GPRMC,190948.8,A,3337.397938,N,11742.969057,W,19.8,142.2,310710,,,A*46
$GPRMC,190951.8,A,3337.384734,N,11742.957562,W,20.0,142.6,310710,,,A*46
$GPRMC,190954.8,A,3337.370662,N,11742.945066,W,22.2,142.5,310710,,,A*4B
$GPRMC,190957.8,A,3337.354172,N,11742.930673,W,25.9,142.9,310710,,,A*48
$GPRMC,191000.8,A,3337.335878,N,11742.913787,W,27.9,141.7,310710,,,A*42
$GPRMC,191003.8,A,3337.315753,N,11742.896608,W,28.7,143.3,310710,,,A*48
$GPRMC,191006.8,A,3337.296500,N,11742.878564,W,28.9,142.7,310710,,,A*41
$GPRMC,191009.8,A,3337.278557,N,11742.860758,W,28.1,142.4,310710,,,A*43
$GPRMC,191012.8,A,3337.260639,N,11742.843805,W,26.9,142.6,310710,,,A*49
$GPRMC,191015.8,A,3337.244962,N,11742.827478,W,24.7,141.2,310710,,,A*46
$GPRMC,191018.8,A,3337.229292,N,11742.814388,W,22.6,143.1,310710,,,A*4A
$GPRMC,191021.8,A,3337.213539,N,11742.799929,W,23.9,143.3,310710,,,A*48
$GPRMC,191024.8,A,3337.196326,N,11742.784585,W,26.3,143.6,310710,,,A*47
$GPRMC,191027.8,A,3337.178552,N,11742.768293,W,27.7,143.7,310710,,,A*47
$GPRMC,191030.8,A,3337.160402,N,11742.750931,W,27.4,142.0,310710,,,A*41
$GPRMC,191033.8,A,3337.143048,N,11742.736367,W,24.3,143.3,310710,,,A*46
$GPRMC,191036.8,A,3337.128904,N,11742.721727,W,22.3,142.7,310710,,,A*4A
$GPRMC,191039.8,A,3337.113120,N,11742.707823,W,25.6,143.9,310710,,,A*41
$GPRMC,191042.8,A,3337.093998,N,11742.690526,W,29.3,142.5,310710,,,A*4C
$GPRMC,191045.8,A,3337.073895,N,11742.672465,W,30.3,145.2,310710,,,A*4B
$GPRMC,191048.8,A,3337.054839,N,11742.655351,W,28.6,143.9,310710,,,A*41
$GPRMC,191051.8,A,3337.036973,N,11742.639869,W,26.5,143.4,310710,,,A*48
$GPRMC,191054.8,A,3337.020578,N,11742.624373,W,22.9,142.4,310710,,,A*48
$GPRMC,191057.8,A,3337.005982,N,11742.611122,W,20.1,143.2,310710,,,A*48
$GPRMC,191100.8,A,3336.994430,N,11742.599723,W,18.0,141.5,310710,,,A*44
$GPRMC,191103.8,A,3336.983372,N,11742.588191,W,17.3,139.7,310710,,,A*4E
$GPRMC,191106.8,A,3336.971755,N,11742.577362,W,17.4,139.9,310710,,,A*40
$GPRMC,191109.8,A,3336.961096,N,11742.566001,W,18.1,138.8,310710,,,A*4A
$GPRMC,191112.8,A,3336.948177,N,11742.551006,W,21.7,137.4,310710,,,A*49
$GPRMC,191115.8,A,3336.933882,N,11742.534843,W,24.3,136.8,310710,,,A*47
$GPRMC,191118.8,A,3336.918201,N,11742.517198,W,28.2,135.6,310710,,,A*4C
$GPRMC,191121.8,A,3336.900918,N,11742.497190,W,29.9,135.7,310710,,,A*46
$GPRMC,191124.8,A,3336.882143,N,11742.475412,W,32.1,135.6,310710,,,A*4E
$GPRMC,191127.8,A,3336.862660,N,11742.451584,W,35.1,135.3,310710,,,A*4F
$GPRMC,191130.8,A,3336.840177,N,11742.424754,W,38.5,135.5,310710,,,A*4A
$GPRMC,191133.8,A,3336.815027,N,11742.396477,W,40.3,135.7,310710,,,A*4A
$GPRMC,191136.8,A,3336.790220,N,11742.368442,W,40.6,135.6,310710,,,A*4B
$GPRMC,191139.8,A,3336.766705,N,11742.338145,W,43.7,133.7,310710,,,A*4D
$GPRMC,191142.8,A,3336.739987,N,11742.305858,W,47.2,135.1,310710,,,A*45
$GPRMC,191145.8,A,3336.711753,N,11742.272078,W,48.1,135.8,310710,,,A*41
$GPRMC,191148.8,A,3336.683312,N,11742.238397,W,47.2,134.9,310710,,,A*47
$GPRMC,191151.8,A,3336.655708,N,11742.203053,W,48.6,132.2,310710,,,A*4E
$GPRMC,191154.8,A,3336.630464,N,11742.165417,W,49.3,129.0,310710,,,A*4A
$GPRMC,191157.8,A,3336.605075,N,11742.126095,W,50.2,126.4,310710,,,A*40
$GPRMC,191200.8,A,3336.581296,N,11742.083629,W,50.5,123.6,310710,,,A*4E
$GPRMC,191203.8,A,3336.559621,N,11742.039655,W,50.8,120.6,310710,,,A*44
$GPRMC,191206.8,A,3336.539299,N,11741.995501,W,51.6,118.4,310710,,,A*48
$GPRMC,191209.8,A,3336.519216,N,11741.948981,W,52.8,117.7,310710,,,A*47
$GPRMC,191212.8,A,3336.497500,N,11741.901281,W,54.3,117.7,310710,,,A*41
$GPRMC,191215.8,A,3336.476413,N,11741.852660,W,55.5,117.6,310710,,,A*40
$GPRMC,191218.8,A,3336.455500,N,11741.801293,W,57.8,116.4,310710,,,A*4D
$GPRMC,191221.8,A,3336.433689,N,11741.748745,W,58.8,116.7,310710,,,A*45
$GPRMC,191224.8,A,3336.410878,N,11741.695372,W,59.2,117.3,310710,,,A*4E
$GPRMC,191227.8,A,3336.386216,N,11741.642417,W,59.4,119.4,310710,,,A*46
$GPRMC,191230.8,A,3336.360526,N,11741.591235,W,58.8,122.0,310710,,,A*46
$GPRMC,191233.8,A,3336.333534,N,11741.543036,W,58.4,124.0,310710,,,A*44
$GPRMC,191236.8,A,3336.305817,N,11741.496549,W,57.4,126.0,310710,,,A*41
$GPRMC,191239.8,A,3336.277239,N,11741.450118,W,58.0,127.2,310710,,,A*4E
$GPRMC,191242.8,A,3336.247266,N,11741.405467,W,57.9,128.8,310710,,,A*45
$GPRMC,191245.8,A,3336.216953,N,11741.359411,W,59.0,129.0,310710,,,A*4A
$GPRMC,191248.8,A,3336.186151,N,11741.312904,W,58.7,126.7,310710,,,A*4F
$GPRMC,191251.8,A,3336.159159,N,11741.263888,W,58.6,122.1,310710,,,A*4C
$GPRMC,191254.8,A,3336.133121,N,11741.211150,W,63.9,118.7,310710,,,A*4B
$GPRMC,191257.8,A,3336.108126,N,11741.152549,W,67.1,116.2,310710,,,A*48
$GPRMC,191300.8,A,3336.084015,N,11741.092884,W,65.7,115.7,310710,,,A*4C
$GPRMC,191303.8,A,3336.061661,N,11741.035075,W,63.1,115.6,310710,,,A*4B
$GPRMC,191306.8,A,3336.041054,N,11740.979222,W,60.6,115.0,310710,,,A*4E
$GPRMC,191309.8,A,3336.020639,N,11740.926690,W,58.7,115.4,310710,,,A*42
$GPRMC,191312.8,A,3336.001338,N,11740.873989,W,57.6,114.9,310710,,,A*4B
$GPRMC,191315.8,A,3335.982052,N,11740.821017,W,58.2,114.5,310710,,,A*4C
$GPRMC,191318.8,A,3335.960735,N,11740.768362,W,58.1,115.4,310710,,,A*4B
$GPRMC,191321.8,A,3335.940284,N,11740.717385,W,57.6,115.3,310710,,,A*42
$GPRMC,191324.8,A,3335.917818,N,11740.667025,W,56.6,118.0,310710,,,A*4A
$GPRMC,191327.8,A,3335.891070,N,11740.620718,W,55.5,123.8,310710,,,A*4A
$GPRMC,191330.8,A,3335.863254,N,11740.575535,W,55.7,129.5,310710,,,A*4E
$GPRMC,191333.8,A,3335.831672,N,11740.534101,W,56.2,133.6,310710,,,A*42
$GPRMC,191336.8,A,3335.797870,N,11740.495175,W,56.9,137.2,310710,,,A*4A
$GPRMC,191339.8,A,3335.760822,N,11740.458436,W,57.9,140.2,310710,,,A*48
$GPRMC,191342.8,A,3335.721769,N,11740.423461,W,58.6,143.7,310710,,,A*49
$GPRMC,191345.8,A,3335.680720,N,11740.390611,W,59.2,147.4,310710,,,A*41
$GPRMC,191348.8,A,3335.637162,N,11740.362542,W,59.7,152.5,310710,,,A*48
$GPRMC,191351.8,A,3335.589456,N,11740.338094,W,61.6,160.4,310710,,,A*4F
$GPRMC,191354.8,A,3335.540372,N,11740.320290,W,60.3,165.2,310710,,,A*46
$GPRMC,191357.8,A,3335.492218,N,11740.309986,W,58.3,171.7,310710,,,A*4A
$GPRMC,191400.8,A,3335.444013,N,11740.305615,W,57.8,177.8,310710,,,A*49
$GPRMC,191403.8,A,3335.396446,N,11740.305709,W,56.1,181.5,310710,,,A*46
$GPRMC,191406.8,A,3335.350510,N,11740.306852,W,54.4,180.9,310710,,,A*43
$GPRMC,191409.8,A,3335.303930,N,11740.306106,W,58.2,179.2,310710,,,A*4B
$GPRMC,191412.8,A,3335.253378,N,11740.305770,W,62.7,180.5,310710,,,A*4A
$GPRMC,191415.8,A,3335.199954,N,11740.306605,W,64.1,180.9,310710,,,A*40
$GPRMC,191418.8,A,3335.146124,N,11740.307682,W,64.9,181.2,310710,,,A*4C
$GPRMC,191421.8,A,3335.090804,N,11740.308538,W,67.2,180.5,310710,,,A*44
$GPRMC,191424.8,A,3335.034250,N,11740.309033,W,67.1,180.4,310710,,,A*49
$GPRMC,191427.8,A,3334.978787,N,11740.309125,W,66.2,180.3,310710,,,A*46
$GPRMC,191430.8,A,3334.923289,N,11740.309684,W,66.2,180.6,310710,,,A*4C
$GPRMC,191433.8,A,3334.868161,N,11740.310473,W,66.5,180.5,310710,,,A*42
$GPRMC,191436.8,A,3334.813883,N,11740.311345,W,63.5,181.2,310710,,,A*4E
$GPRMC,191439.8,A,3334.763090,N,11740.312030,W,59.7,180.5,310710,,,A*4C
$GPRMC,191442.8,A,3334.715079,N,11740.312681,W,58.5,181.0,310710,,,A*4D
$GPRMC,191445.8,A,3334.666661,N,11740.313169,W,59.4,181.2,310710,,,A*42
$GPRMC,191448.8,A,3334.616759,N,11740.314495,W,59.2,180.8,310710,,,A*4E
$GPRMC,191451.8,A,3334.567428,N,11740.315551,W,59.5,180.7,310710,,,A*46
$GPRMC,191454.8,A,3334.517460,N,11740.315996,W,59.5,180.8,310710,,,A*40
$GPRMC,191457.8,A,3334.468131,N,11740.316879,W,58.3,180.9,310710,,,A*4E
$GPRMC,191500.8,A,3334.420963,N,11740.317442,W,55.4,180.6,310710,,,A*4E
$GPRMC,191503.8,A,3334.374736,N,11740.318350,W,56.5,180.6,310710,,,A*4C
$GPRMC,191506.8,A,3334.326619,N,11740.319164,W,58.7,180.7,310710,,,A*4B
$GPRMC,191509.8,A,3334.279598,N,11740.320202,W,53.2,180.9,310710,,,A*4C
$GPRMC,191512.8,A,3334.237662,N,11740.321047,W,47.1,183.3,310710,,,A*47
$GPRMC,191515.8,A,3334.203064,N,11740.321745,W,41.0,181.0,310710,,,A*44
$GPRMC,191518.8,A,3334.172030,N,11740.322460,W,35.0,182.3,310710,,,A*49
$GPRMC,191521.8,A,3334.142182,N,11740.324503,W,37.0,185.6,310710,,,A*4A
$GPRMC,191524.8,A,3334.108892,N,11740.327817,W,40.6,184.9,310710,,,A*4A
$GPRMC,191527.8,A,3334.075356,N,11740.331517,W,39.9,185.6,310710,,,A*44
$GPRMC,191530.8,A,3334.041342,N,11740.335657,W,42.1,186.0,310710,,,A*42
$GPRMC,191533.8,A,3334.005176,N,11740.340415,W,44.2,186.0,310710,,,A*47
$GPRMC,191536.8,A,3333.969076,N,11740.344817,W,43.1,185.9,310710,,,A*43
$GPRMC,191539.8,A,3333.935160,N,11740.349100,W,38.9,186.1,310710,,,A*4E
$GPRMC,191542.8,A,3333.903909,N,11740.353741,W,37.2,185.9,310710,,,A*47
$GPRMC,191545.8,A,3333.873433,N,11740.357866,W,36.8,186.4,310710,,,A*49
$GPRMC,191548.8,A,3333.842128,N,11740.362070,W,38.4,186.0,310710,,,A*46
$GPRMC,191551.8,A,3333.808646,N,11740.366346,W,40.7,186.1,310710,,,A*40
$GPRMC,191554.8,A,3333.772537,N,11740.370639,W,44.0,186.1,310710,,,A*4B
$GPRMC,191557.8,A,3333.734022,N,11740.375256,W,46.7,186.2,310710,,,A*45
$GPRMC,191600.8,A,3333.693913,N,11740.381135,W,49.6,186.0,310710,,,A*42
$GPRMC,191603.8,A,3333.646304,N,11740.385190,W,58.7,184.5,310710,,,A*48
$GPRMC,191606.8,A,3333.594550,N,11740.388203,W,60.6,182.1,310710,,,A*4A
$GPRMC,191609.8,A,3333.547392,N,11740.389460,W,53.7,181.3,310710,,,A*41
$GPRMC,191612.8,A,3333.508317,N,11740.390069,W,45.7,179.8,310710,,,A*43
$GPRMC,191615.8,A,3333.472208,N,11740.389344,W,43.8,179.0,310710,,,A*42
$GPRMC,191618.8,A,3333.434979,N,11740.388645,W,46.4,178.9,310710,,,A*44
$GPRMC,191621.8,A,3333.394878,N,11740.387745,W,48.3,178.9,310710,,,A*44
$GPRMC,191624.8,A,3333.355817,N,11740.387036,W,45.5,179.0,310710,,,A*45
$GPRMC,191627.8,A,3333.319737,N,11740.385669,W,41.5,178.7,310710,,,A*4F
$GPRMC,191630.8,A,3333.290708,N,11740.385087,W,33.1,178.6,310710,,,A*43
$GPRMC,191633.8,A,3333.263697,N,11740.384351,W,32.7,179.0,310710,,,A*42
$GPRMC,191636.8,A,3333.237045,N,11740.383936,W,31.8,178.7,310710,,,A*49
$GPRMC,191639.8,A,3333.209668,N,11740.383449,W,34.5,178.9,310710,,,A*41
$GPRMC,191642.8,A,3333.179877,N,11740.382637,W,37.0,178.5,310710,,,A*49
$GPRMC,191645.8,A,3333.148457,N,11740.381633,W,38.7,178.9,310710,,,A*41
$GPRMC,191648.8,A,3333.115427,N,11740.380527,W,39.2,178.8,310710,,,A*41
$GPRMC,191651.8,A,3333.083826,N,11740.380061,W,36.9,179.0,310710,,,A*40
$GPRMC,191654.8,A,3333.053426,N,11740.379288,W,37.1,178.7,310710,,,A*48
$GPRMC,191657.8,A,3333.021871,N,11740.378468,W,39.0,178.8,310710,,,A*49
$GPRMC,191700.8,A,3332.989297,N,11740.377835,W,38.8,179.7,310710,,,A*4E
$GPRMC,191703.8,A,3332.958735,N,11740.377886,W,35.5,180.7,310710,,,A*42
$GPRMC,191706.8,A,3332.930332,N,11740.378457,W,32.8,181.1,310710,,,A*48
$GPRMC,191709.8,A,3332.904263,N,11740.379514,W,29.8,182.8,310710,,,A*42
$GPRMC,191712.8,A,3332.881369,N,11740.380636,W,27.5,183.3,310710,,,A*43
$GPRMC,191715.8,A,3332.858507,N,11740.382461,W,26.8,183.6,310710,,,A*45
$GPRMC,191718.8,A,3332.836042,N,11740.384586,W,27.2,185.2,310710,,,A*43
$GPRMC,191721.8,A,3332.812620,N,11740.387518,W,29.0,186.0,310710,,,A*44
$GPRMC,191724.8,A,3332.789045,N,11740.390474,W,28.3,186.3,310710,,,A*45
$GPRMC,191727.8,A,3332.765553,N,11740.393808,W,29.0,187.2,310710,,,A*40
$GPRMC,191730.8,A,3332.740500,N,11740.397818,W,30.3,188.0,310710,,,A*44
$GPRMC,191733.8,A,3332.716106,N,11740.402664,W,29.6,189.3,310710,,,A*47
$GPRMC,191736.8,A,3332.694007,N,11740.406838,W,25.1,189.8,310710,,,A*4A
$GPRMC,191739.8,A,3332.673678,N,11740.411476,W,24.1,189.8,310710,,,A*43
$GPRMC,191742.8,A,3332.654330,N,11740.415438,W,23.9,189.8,310710,,,A*42
$GPRMC,191745.8,A,3332.634053,N,11740.419111,W,24.3,189.5,310710,,,A*47
$GPRMC,191748.8,A,3332.614009,N,11740.422440,W,23.5,189.6,310710,,,A*4C
$GPRMC,191751.8,A,3332.597949,N,11740.426479,W,18.7,189.7,310710,,,A*44
$GPRMC,191754.8,A,3332.586497,N,11740.429490,W,12.7,190.2,310710,,,A*40
$GPRMC,191757.8,A,3332.576762,N,11740.431385,W,11.6,189.1,310710,,,A*46
$GPRMC,191800.8,A,3332.571256,N,11740.431659,W,5.4,176.2,310710,,,A*7E
$GPRMC,191821.8,A,3332.570246,N,11740.432921,W,4.5,200.0,310710,,,A*7E
$GPRMC,191824.8,A,3332.562072,N,11740.434113,W,9.6,194.9,310710,,,A*7B
$GPRMC,191827.8,A,3332.549371,N,11740.436355,W,16.6,189.7,310710,,,A*4F
$GPRMC,191830.8,A,3332.535439,N,11740.438804,W,18.9,185.5,310710,,,A*47
$GPRMC,191833.8,A,3332.519694,N,11740.441769,W,20.2,190.2,310710,,,A*46
$GPRMC,191836.8,A,3332.503039,N,11740.446020,W,17.4,190.5,310710,,,A*41
$GPRMC,191839.8,A,3332.492651,N,11740.449237,W,11.4,202.4,310710,,,A*4B
$GPRMC,191854.8,A,3332.486658,N,11740.450044,W,8.5,199.0,310710,,,A*7E
$GPRMC,191857.8,A,3332.470499,N,11740.452247,W,19.3,190.6,310710,,,A*41
$GPRMC,191900.8,A,3332.454581,N,11740.457204,W,20.0,190.9,310710,,,A*48
$GPRMC,191903.8,A,3332.438798,N,11740.460722,W,19.4,190.4,310710,,,A*4D
$GPRMC,191906.8,A,3332.423501,N,11740.464613,W,19.6,190.3,310710,,,A*42
$GPRMC,191909.8,A,3332.406918,N,11740.468095,W,19.9,190.6,310710,,,A*40
$GPRMC,191912.8,A,3332.390667,N,11740.471522,W,19.7,190.6,310710,,,A*4A
$GPRMC,191915.8,A,3332.374271,N,11740.475223,W,19.2,190.6,310710,,,A*43
$GPRMC,191918.8,A,3332.358844,N,11740.478575,W,17.9,190.4,310710,,,A*42
$GPRMC,191921.8,A,3332.344303,N,11740.481443,W,17.0,190.6,310710,,,A*44
$GPRMC,191924.8,A,3332.330624,N,11740.484080,W,16.3,190.2,310710,,,A*4A
$GPRMC,191927.8,A,3332.317656,N,11740.487158,W,15.8,190.0,310710,,,A*44
$GPRMC,191930.8,A,3332.304004,N,11740.489413,W,17.1,189.0,310710,,,A*46
$GPRMC,191933.8,A,3332.288004,N,11740.491730,W,20.2,188.2,310710,,,A*4F
$GPRMC,191936.8,A,3332.271191,N,11740.494567,W,19.8,187.3,310710,,,A*4A
$GPRMC,191939.8,A,3332.257339,N,11740.497084,W,14.4,186.9,310710,,,A*40
$GPRMC,191942.8,A,3332.246363,N,11740.498495,W,12.9,186.7,310710,,,A*4D
$GPRMC,191945.8,A,3332.234998,N,11740.499749,W,14.6,185.7,310710,,,A*48
$GPRMC,191948.8,A,3332.224134,N,11740.500863,W,10.9,185.0,310710,,,A*40
$GPRMC,191951.8,A,3332.217696,N,11740.501695,W,5.5,185.0,310710,,,A*79
$GPRMC,191957.8,A,3332.210871,N,11740.502233,W,4.7,185.2,310710,,,A*75
$GPRMC,192000.8,A,3332.205619,N,11740.502985,W,8.2,185.6,310710,,,A*72
$GPRMC,192003.8,A,3332.199475,N,11740.503477,W,4.4,183.8,310710,,,A*7C
$GPRMC,192021.8,A,3332.188109,N,11740.505663,W,8.6,188.7,310710,,,A*79
$GPRMC,192024.8,A,3332.171871,N,11740.505533,W,14.8,182.9,310710,,,A*4D
$GPRMC,192027.8,A,3332.161883,N,11740.506015,W,8.3,182.5,310710,,,A*7A
$GPRMC,192045.8,A,3332.149176,N,11740.507683,W,5.9,187.0,310710,,,A*78
$GPRMC,192048.8,A,3332.138492,N,11740.507347,W,9.9,181.0,310710,,,A*7B
$GPRMC,192051.8,A,3332.130900,N,11740.507064,W,8.4,181.0,310710,,,A*73
$GPRMC,192054.8,A,3332.125903,N,11740.506956,W,6.3,180.6,310710,,,A*76
$GPRMC,192057.8,A,3332.118289,N,11740.506282,W,10.3,167.9,310710,,,A*41
$GPRMC,192100.8,A,3332.104601,N,11740.505620,W,19.1,180.0,310710,,,A*4F
$GPRMC,192103.8,A,3332.087347,N,11740.505953,W,19.1,179.4,310710,,,A*48
$GPRMC,192106.8,A,3332.073104,N,11740.505646,W,14.1,179.0,310710,,,A*41
$GPRMC,192109.8,A,3332.063388,N,11740.505400,W,8.7,178.6,310710,,,A*75
$GPRMC,192112.8,A,3332.056284,N,11740.505397,W,8.3,178.1,310710,,,A*7E
$GPRMC,192115.8,A,3332.047695,N,11740.505213,W,12.7,177.9,310710,,,A*48
$GPRMC,192118.8,A,3332.035630,N,11740.504874,W,16.5,177.3,310710,,,A*49
$GPRMC,192121.8,A,3332.020203,N,11740.504049,W,18.6,177.0,310710,,,A*4B
$GPRMC,192124.8,A,3332.003893,N,11740.502750,W,19.3,175.0,310710,,,A*43
$GPRMC,192127.8,A,3331.990903,N,11740.500986,W,14.7,174.6,310710,,,A*41
$GPRMC,192130.8,A,3331.981445,N,11740.499689,W,9.0,172.8,310710,,,A*7A
$GPRMC,192133.8,A,3331.974702,N,11740.498357,W,7.5,170.9,310710,,,A*7C
$GPRMC,192136.8,A,3331.968189,N,11740.497192,W,7.0,170.3,310710,,,A*7A
$GPRMC,192139.8,A,3331.962343,N,11740.496169,W,7.2,169.1,310710,,,A*76
$GPRMC,192142.8,A,3331.955963,N,11740.494881,W,8.1,168.0,310710,,,A*77
$GPRMC,192145.8,A,3331.949051,N,11740.493362,W,8.3,167.5,310710,,,A*7C
$GPRMC,192148.8,A,3331.942361,N,11740.491275,W,8.3,167.0,310710,,,A*7A
$GPRMC,192151.8,A,3331.936565,N,11740.489610,W,7.4,164.7,310710,,,A*71
$GPRMC,192154.8,A,3331.931262,N,11740.487999,W,6.5,164.7,310710,,,A*73
$GPRMC,192157.8,A,3331.926673,N,11740.486746,W,5.5,163.1,310710,,,A*7D
$GPRMC,192200.8,A,3331.922294,N,11740.484653,W,5.4,163.1,310710,,,A*73
$GPRMC,192203.8,A,3331.917652,N,11740.483025,W,5.7,162.7,310710,,,A*7C
$GPRMC,192206.8,A,3331.912758,N,11740.481359,W,6.4,163.0,310710,,,A*7B
$GPRMC,192209.8,A,3331.907058,N,11740.478803,W,7.2,160.3,310710,,,A*72
$GPRMC,192212.8,A,3331.900131,N,11740.475732,W,8.6,158.9,310710,,,A*7B
$GPRMC,192215.8,A,3331.893066,N,11740.472058,W,9.1,157.8,310710,,,A*70
$GPRMC,192218.8,A,3331.887617,N,11740.468818,W,7.4,157.2,310710,,,A*7E
$GPRMC,192221.8,A,3331.883396,N,11740.466544,W,5.7,157.0,310710,,,A*75
$GPRMC,192224.8,A,3331.879789,N,11740.463976,W,5.1,154.2,310710,,,A*70
$GPRMC,192227.8,A,3331.873506,N,11740.461116,W,7.2,155.2,310710,,,A*70
$GPRMC,192230.8,A,3331.866662,N,11740.456610,W,9.1,152.9,310710,,,A*77
$GPRMC,192233.8,A,3331.859430,N,11740.451269,W,9.8,150.4,310710,,,A*76
$GPRMC,192236.8,A,3331.851911,N,11740.445763,W,10.5,150.0,310710,,,A*4E
$GPRMC,192239.8,A,3331.843642,N,11740.440364,W,10.7,149.1,310710,,,A*46
$GPRMC,192242.8,A,3331.836242,N,11740.433872,W,11.2,146.4,310710,,,A*4A
$GPRMC,192245.8,A,3331.827965,N,11740.427755,W,11.7,147.3,310710,,,A*4F
$GPRMC,192248.8,A,3331.817744,N,11740.420074,W,14.3,143.5,310710,,,A*4C
$GPRMC,192251.8,A,3331.806865,N,11740.410446,W,16.6,143.0,310710,,,A*4C
$GPRMC,192254.8,A,3331.795783,N,11740.400315,W,19.9,139.2,310710,,,A*44
$GPRMC,192257.8,A,3331.780892,N,11740.383262,W,26.5,136.1,310710,,,A*4D
$GPRMC,192300.8,A,3331.763801,N,11740.360674,W,31.2,131.4,310710,,,A*44
$GPRMC,192303.8,A,3331.745503,N,11740.335470,W,33.1,129.2,310710,,,A*44
$GPRMC,192306.8,A,3331.728049,N,11740.309587,W,34.0,129.6,310710,,,A*45
$GPRMC,192309.8,A,3331.709665,N,11740.282775,W,35.2,129.3,310710,,,A*4A
$GPRMC,192312.8,A,3331.691014,N,11740.255436,W,35.5,129.2,310710,,,A*48
$GPRMC,192315.8,A,3331.672515,N,11740.228291,W,33.8,129.9,310710,,,A*47
$GPRMC,192318.8,A,3331.654466,N,11740.203989,W,31.3,132.7,310710,,,A*4D
$GPRMC,192321.8,A,3331.636735,N,11740.182369,W,31.2,135.5,310710,,,A*4C
$GPRMC,192324.8,A,3331.617880,N,11740.161169,W,31.1,138.2,310710,,,A*4D
$GPRMC,192327.8,A,3331.597946,N,11740.141430,W,31.0,140.7,310710,,,A*4E
$GPRMC,192330.8,A,3331.578175,N,11740.123511,W,29.8,144.1,310710,,,A*44
$GPRMC,192333.8,A,3331.558065,N,11740.107086,W,27.8,147.3,310710,,,A*47
$GPRMC,192336.8,A,3331.539070,N,11740.093610,W,25.8,149.4,310710,,,A*4F
$GPRMC,192339.8,A,3331.523476,N,11740.082629,W,21.3,151.9,310710,,,A*48
$GPRMC,192342.8,A,3331.511130,N,11740.074896,W,15.1,154.7,310710,,,A*4F
$GPRMC,192345.8,A,3331.503533,N,11740.070229,W,9.8,155.7,310710,,,A*73
$GPRMC,192348.8,A,3331.497493,N,11740.066448,W,8.3,153.5,310710,,,A*71
$GPRMC,192351.8,A,3331.491010,N,11740.062577,W,8.7,155.7,310710,,,A*79
$GPRMC,192354.8,A,3331.483863,N,11740.059063,W,8.8,157.0,310710,,,A*71
$GPRMC,192357.8,A,3331.474978,N,11740.054626,W,14.9,158.0,310710,,,A*48
$GPRMC,192400.8,A,3331.462826,N,11740.048978,W,16.7,159.7,310710,,,A*43
$GPRMC,192403.8,A,3331.448203,N,11740.042918,W,19.5,160.3,310710,,,A*4A
$GPRMC,192406.8,A,3331.433321,N,11740.036506,W,18.7,160.3,310710,,,A*41
$GPRMC,192409.8,A,3331.419744,N,11740.030645,W,16.8,161.3,310710,,,A*43
$GPRMC,192412.8,A,3331.406362,N,11740.024886,W,19.0,160.1,310710,,,A*47
$GPRMC,192415.8,A,3331.389376,N,11740.017989,W,23.0,160.5,310710,,,A*46
$GPRMC,192418.8,A,3331.369734,N,11740.009623,W,26.3,160.1,310710,,,A*45
$GPRMC,192421.8,A,3331.348715,N,11740.000266,W,26.4,159.7,310710,,,A*48
$GPRMC,192424.8,A,3331.329010,N,11739.991652,W,23.9,160.6,310710,,,A*47
$GPRMC,192427.8,A,3331.312259,N,11739.984681,W,19.4,160.5,310710,,,A*4E
$GPRMC,192430.8,A,3331.297019,N,11739.978134,W,19.0,160.4,310710,,,A*4D
$GPRMC,192433.8,A,3331.281017,N,11739.970731,W,22.3,158.1,310710,,,A*49
$GPRMC,192436.8,A,3331.259170,N,11739.961240,W,28.6,160.3,310710,,,A*4C
$GPRMC,192439.8,A,3331.235121,N,11739.951342,W,30.7,160.2,310710,,,A*44
$GPRMC,192442.8,A,3331.210956,N,11739.941289,W,31.7,160.4,310710,,,A*47
$GPRMC,192445.8,A,3331.186083,N,11739.930245,W,32.6,160.1,310710,,,A*4C
$GPRMC,192448.8,A,3331.160066,N,11739.919011,W,32.2,160.6,310710,,,A*49
$GPRMC,192451.8,A,3331.136182,N,11739.907882,W,29.3,160.3,310710,,,A*4A
$GPRMC,192454.8,A,3331.115374,N,11739.899296,W,24.2,160.6,310710,,,A*45
$GPRMC,192457.8,A,3331.099437,N,11739.892586,W,15.3,160.2,310710,,,A*49
$GPRMC,192500.8,A,3331.091498,N,11739.889473,W,6.2,160.3,310710,,,A*74
$GPRMC,192503.8,A,3331.086632,N,11739.887434,W,5.9,161.1,310710,,,A*75
$GPRMC,192506.8,A,3331.081651,N,11739.885198,W,9.6,161.4,310710,,,A*75
$GPRMC,192509.8,A,3331.072400,N,11739.881718,W,11.9,159.8,310710,,,A*4B
$GPRMC,192524.8,A,3331.064418,N,11739.878028,W,5.1,160.3,310710,,,A*74
$GPRMC,192545.8,A,3331.054657,N,11739.874022,W,9.2,160.3,310710,,,A*70
$GPRMC,192548.8,A,3331.046280,N,11739.870561,W,11.5,160.9,310710,,,A*42
$GPRMC,192551.8,A,3331.038322,N,11739.867330,W,7.4,160.7,310710,,,A*76
$GPRMC,192554.8,A,3331.033700,N,11739.865360,W,5.8,160.9,310710,,,A*7B
$GPRMC,192557.8,A,3331.028002,N,11739.862793,W,8.1,156.6,310710,,,A*76
$GPRMC,192600.8,A,3331.021227,N,11739.859157,W,8.8,152.5,310710,,,A*73
$GPRMC,192603.8,A,3331.007991,N,11739.853415,W,15.0,157.7,310710,,,A*48
$GPRMC,192606.8,A,3330.989378,N,11739.845949,W,22.5,160.5,310710,,,A*4A
$GPRMC,192609.8,A,3330.968882,N,11739.837549,W,25.7,160.5,310710,,,A*48
$GPRMC,192612.8,A,3330.947333,N,11739.828533,W,27.7,160.4,310710,,,A*4E
$GPRMC,192615.8,A,3330.924151,N,11739.818683,W,30.8,160.3,310710,,,A*4F
$GPRMC,192618.8,A,3330.898856,N,11739.808146,W,31.8,160.4,310710,,,A*43
$GPRMC,192621.8,A,3330.873680,N,11739.797365,W,31.3,160.4,310710,,,A*48
$GPRMC,192624.8,A,3330.849081,N,11739.787394,W,30.0,160.2,310710,,,A*48
$GPRMC,192627.8,A,3330.826015,N,11739.777527,W,28.8,161.2,310710,,,A*4E
$GPRMC,192630.8,A,3330.803384,N,11739.767789,W,29.5,160.1,310710,,,A*4D
$GPRMC,192633.8,A,3330.779678,N,11739.757668,W,29.5,160.4,310710,,,A*42
$GPRMC,192636.8,A,3330.762887,N,11739.749306,W,20.9,156.6,310710,,,A*43
$GPRMC,192639.8,A,3330.757502,N,11739.747237,W,9.8,168.8,310710,,,A*7E
$GPRMC,192654.8,A,3330.758908,N,11739.748557,W,4.8,160.1,310710,,,A*7E
$GPRMC,192657.8,A,3330.754795,N,11739.746897,W,4.5,162.1,310710,,,A*7B
$GPRMC,192712.8,A,3330.747812,N,11739.744046,W,4.4,160.9,310710,,,A*74
$GPRMC,192715.8,A,3330.744049,N,11739.742289,W,5.1,160.1,310710,,,A*7D
$GPRMC,192718.8,A,3330.739941,N,11739.740609,W,5.3,160.3,310710,,,A*75
$GPRMC,192721.8,A,3330.734920,N,11739.738591,W,7.9,160.0,310710,,,A*73
$GPRMC,192724.8,A,3330.726690,N,11739.735248,W,13.0,159.2,310710,,,A*4B
$GPRMC,192727.8,A,3330.713201,N,11739.729416,W,19.4,160.1,310710,,,A*45
$GPRMC,192730.8,A,3330.696268,N,11739.722091,W,23.0,160.5,310710,,,A*49
$GPRMC,192733.8,A,3330.677865,N,11739.714012,W,23.0,160.3,310710,,,A*4A
$GPRMC,192736.8,A,3330.659364,N,11739.706246,W,23.3,160.4,310710,,,A*4D
$GPRMC,192739.8,A,3330.640961,N,11739.698464,W,23.8,160.7,310710,,,A*4D
$GPRMC,192742.8,A,3330.620916,N,11739.689540,W,26.8,160.4,310710,,,A*46
$GPRMC,192745.8,A,3330.598289,N,11739.679853,W,29.2,160.8,310710,,,A*45
$GPRMC,192748.8,A,3330.574807,N,11739.670115,W,29.1,160.1,310710,,,A*4E
$GPRMC,192751.8,A,3330.552304,N,11739.660418,W,28.2,160.9,310710,,,A*49
$GPRMC,192754.8,A,3330.530368,N,11739.650771,W,28.0,160.4,310710,,,A*42
$GPRMC,192757.8,A,3330.508990,N,11739.641436,W,27.3,160.0,310710,,,A*4F
$GPRMC,192800.8,A,3330.490442,N,11739.633441,W,21.9,161.9,310710,,,A*41
$GPRMC,192803.8,A,3330.479532,N,11739.629275,W,11.8,159.3,310710,,,A*4A
$GPRMC,192806.8,A,3330.472906,N,11739.626627,W,7.3,162.2,310710,,,A*76
$GPRMC,192824.8,A,3330.457409,N,11739.619610,W,5.4,159.8,310710,,,A*7C
$GPRMC,192827.8,A,3330.453132,N,11739.617435,W,5.3,159.9,310710,,,A*7B
$GPRMC,192830.8,A,3330.446694,N,11739.614497,W,9.8,159.1,310710,,,A*76
$GPRMC,192833.8,A,3330.438276,N,11739.610902,W,10.7,160.2,310710,,,A*4F
$GPRMC,192836.8,A,3330.430115,N,11739.607113,W,10.2,160.3,310710,,,A*4E
$GPRMC,192839.8,A,3330.422315,N,11739.603928,W,10.7,162.5,310710,,,A*45
$GPRMC,192842.8,A,3330.414136,N,11739.600518,W,9.2,160.3,310710,,,A*7A
$GPRMC,192903.8,A,3330.395280,N,11739.592968,W,10.4,159.2,310710,,,A*48
$GPRMC,192906.8,A,3330.381694,N,11739.587134,W,13.1,160.6,310710,,,A*44
$GPRMC,192909.8,A,3330.370963,N,11739.582472,W,13.3,159.6,310710,,,A*48
$GPRMC,192912.8,A,3330.360195,N,11739.577904,W,14.9,161.1,310710,,,A*45
$GPRMC,192915.8,A,3330.346578,N,11739.571672,W,18.9,160.2,310710,,,A*47
$GPRMC,192918.8,A,3330.329594,N,11739.564358,W,22.3,160.9,310710,,,A*40
$GPRMC,192921.8,A,3330.311258,N,11739.557204,W,23.3,162.2,310710,,,A*46
$GPRMC,192924.8,A,3330.291370,N,11739.549700,W,27.0,163.5,310710,,,A*4E
$GPRMC,192927.8,A,3330.269035,N,11739.542566,W,27.9,165.8,310710,,,A*43
$GPRMC,192930.8,A,3330.246297,N,11739.536008,W,27.5,166.8,310710,,,A*43
$GPRMC,192933.8,A,3330.224658,N,11739.530009,W,25.0,167.8,310710,,,A*42
$GPRMC,192937.8,A,3330.199438,N,11739.524009,W,22.9,169.5,310710,,,A*4F
$GPRMC,192940.8,A,3330.178381,N,11739.520206,W,26.0,171.1,310710,,,A*4C
$GPRMC,192943.8,A,3330.157662,N,11739.516642,W,24.6,172.8,310710,,,A*45
$GPRMC,192946.8,A,3330.136372,N,11739.513542,W,26.3,172.8,310710,,,A*42
$GPRMC,192949.8,A,3330.112642,N,11739.511185,W,28.4,175.3,310710,,,A*45
$GPRMC,192952.8,A,3330.089416,N,11739.509364,W,27.7,176.8,310710,,,A*4F
$GPRMC,192955.8,A,3330.069484,N,11739.507744,W,23.0,178.5,310710,,,A*45
$GPRMC,192958.8,A,3330.053098,N,11739.507891,W,20.0,179.4,310710,,,A*4C
$GPRMC,193001.8,A,3330.036317,N,11739.508205,W,19.4,179.4,310710,,,A*49
$GPRMC,193004.8,A,3330.020978,N,11739.508465,W,17.5,181.3,310710,,,A*47
$GPRMC,193007.8,A,3330.009010,N,11739.508529,W,13.7,182.3,310710,,,A*44
$GPRMC,193010.8,A,3329.997965,N,11739.509405,W,12.8,182.5,310710,,,A*49
$GPRMC,193013.8,A,3329.989662,N,11739.509808,W,8.1,182.8,310710,,,A*73
$GPRMC,193016.8,A,3329.982452,N,11739.510370,W,8.9,183.3,310710,,,A*72
$GPRMC,193019.8,A,3329.975474,N,11739.511228,W,7.8,184.2,310710,,,A*74
$GPRMC,193022.8,A,3329.970379,N,11739.511612,W,6.3,185.1,310710,,,A*76
$GPRMC,193025.8,A,3329.965726,N,11739.512461,W,5.6,186.1,310710,,,A*7B
$GPRMC,193028.8,A,3329.960943,N,11739.513678,W,5.2,189.6,310710,,,A*79
$GPRMC,193031.8,A,3329.956467,N,11739.514306,W,5.6,186.1,310710,,,A*78
$GPRMC,193034.8,A,3329.951124,N,11739.514611,W,8.1,186.2,310710,,,A*72
$GPRMC,193037.8,A,3329.942190,N,11739.515515,W,11.3,184.0,310710,,,A*40
$GPRMC,193040.8,A,3329.927994,N,11739.516761,W,18.3,186.8,310710,,,A*4E
$GPRMC,193043.8,A,3329.909094,N,11739.519485,W,22.0,187.1,310710,,,A*4C
$GPRMC,193046.8,A,3329.890049,N,11739.524082,W,22.9,190.3,310710,,,A*48
$GPRMC,193049.8,A,3329.869783,N,11739.528765,W,23.6,190.8,310710,,,A*47
$GPRMC,193052.8,A,3329.850326,N,11739.533363,W,23.8,192.5,310710,,,A*45
$GPRMC,193055.8,A,3329.831396,N,11739.538293,W,23.2,193.2,310710,,,A*47
$GPRMC,193058.8,A,3329.812353,N,11739.544263,W,24.4,194.6,310710,,,A*44
$GPRMC,193101.8,A,3329.792528,N,11739.551015,W,24.9,196.7,310710,,,A*4D
$GPRMC,193104.8,A,3329.773050,N,11739.558234,W,25.7,197.6,310710,,,A*4A
$GPRMC,193107.8,A,3329.752866,N,11739.566505,W,25.9,198.9,310710,,,A*41
$GPRMC,193110.8,A,3329.730571,N,11739.574945,W,26.9,200.3,310710,,,A*48
$GPRMC,193113.8,A,3329.709755,N,11739.583707,W,26.9,201.4,310710,,,A*43
$GPRMC,193116.8,A,3329.689781,N,11739.592744,W,23.8,202.1,310710,,,A*43
$GPRMC,193119.8,A,3329.673735,N,11739.601436,W,20.7,203.9,310710,,,A*4C
$GPRMC,193122.8,A,3329.656777,N,11739.610739,W,23.4,205.6,310710,,,A*40
$GPRMC,193125.8,A,3329.635321,N,11739.623692,W,30.3,206.8,310710,,,A*4D
$GPRMC,193128.8,A,3329.612363,N,11739.638614,W,31.5,208.6,310710,,,A*40
$GPRMC,193131.8,A,3329.589842,N,11739.653588,W,30.5,210.4,310710,,,A*40
$GPRMC,193134.8,A,3329.568815,N,11739.668856,W,27.7,211.2,310710,,,A*4D
$GPRMC,193137.8,A,3329.550649,N,11739.682327,W,23.9,212.4,310710,,,A*44
$GPRMC,193140.8,A,3329.535400,N,11739.693962,W,18.8,211.8,310710,,,A*45
$GPRMC,193143.8,A,3329.522632,N,11739.703470,W,18.1,212.4,310710,,,A*43
$GPRMC,193146.8,A,3329.510076,N,11739.712936,W,17.7,212.1,310710,,,A*42
$GPRMC,193149.8,A,3329.500079,N,11739.720324,W,11.6,211.9,310710,,,A*47
$GPRMC,193152.8,A,3329.492373,N,11739.725731,W,10.1,212.2,310710,,,A*45
$GPRMC,193155.8,A,3329.486296,N,11739.730486,W,7.2,212.3,310710,,,A*72
$GPRMC,193204.8,A,3329.477097,N,11739.737609,W,8.5,212.7,310710,,,A*76
$GPRMC,193207.8,A,3329.469547,N,11739.743515,W,11.9,212.9,310710,,,A*45
$GPRMC,193210.8,A,3329.459526,N,11739.750660,W,16.9,211.5,310710,,,A*4C
$GPRMC,193213.8,A,3329.446545,N,11739.760053,W,19.6,211.7,310710,,,A*43
$GPRMC,193216.8,A,3329.432060,N,11739.770676,W,21.6,213.0,310710,,,A*49
$GPRMC,193219.8,A,3329.415566,N,11739.783230,W,25.7,212.1,310710,,,A*4F
$GPRMC,193222.8,A,3329.396368,N,11739.797498,W,27.5,212.1,310710,,,A*42
$GPRMC,193225.8,A,3329.377272,N,11739.812016,W,25.7,212.3,310710,,,A*42
$GPRMC,193228.8,A,3329.360136,N,11739.825076,W,23.5,212.1,310710,,,A*4E
$GPRMC,193231.8,A,3329.343620,N,11739.837500,W,23.7,212.2,310710,,,A*41
$GPRMC,193234.8,A,3329.326814,N,11739.850137,W,24.0,212.7,310710,,,A*4A
$GPRMC,193237.8,A,3329.309523,N,11739.863324,W,25.0,212.0,310710,,,A*4B
$GPRMC,193240.8,A,3329.291692,N,11739.876334,W,24.6,211.9,310710,,,A*4A
$GPRMC,193243.8,A,3329.276572,N,11739.887797,W,18.7,212.1,310710,,,A*4B
$GPRMC,193246.8,A,3329.266320,N,11739.895613,W,11.7,212.3,310710,,,A*4B
$GPRMC,193249.8,A,3329.258487,N,11739.901301,W,10.0,206.6,310710,,,A*4F
$GPRMC,193255.8,A,3329.253146,N,11739.904589,W,5.0,211.2,310710,,,A*74
$GPRMC,193307.8,A,3329.248354,N,11739.908213,W,6.6,211.7,310710,,,A*71
$GPRMC,193310.8,A,3329.243624,N,11739.911999,W,6.0,213.0,310710,,,A*7C
$GPRMC,193313.8,A,3329.239781,N,11739.915146,W,7.6,212.5,310710,,,A*71
$GPRMC,193316.8,A,3329.232150,N,11739.921041,W,13.0,216.5,310710,,,A*43
$GPRMC,193319.8,A,3329.219386,N,11739.930720,W,19.0,212.0,310710,,,A*47
$GPRMC,193322.8,A,3329.205192,N,11739.941297,W,20.4,212.5,310710,,,A*41
$GPRMC,193325.8,A,3329.190012,N,11739.952911,W,23.1,212.0,310710,,,A*44
$GPRMC,193328.8,A,3329.172692,N,11739.965629,W,25.6,212.8,310710,,,A*42
$GPRMC,193331.8,A,3329.154211,N,11739.979898,W,26.3,213.0,310710,,,A*47
$GPRMC,193334.8,A,3329.135989,N,11739.994339,W,26.1,214.3,310710,,,A*4A
$GPRMC,193337.8,A,3329.118714,N,11740.008417,W,22.6,213.9,310710,,,A*4B
$GPRMC,193340.8,A,3329.104149,N,11740.020759,W,20.6,215.2,310710,,,A*44
$GPRMC,193343.8,A,3329.090008,N,11740.032499,W,21.1,215.5,310710,,,A*42
$GPRMC,193346.8,A,3329.074269,N,11740.046294,W,26.1,215.7,310710,,,A*45
$GPRMC,193349.8,A,3329.055216,N,11740.062786,W,29.7,215.7,310710,,,A*48
$GPRMC,193352.8,A,3329.034257,N,11740.080819,W,32.0,215.4,310710,,,A*4B
$GPRMC,193355.8,A,3329.011935,N,11740.099802,W,32.9,215.6,310710,,,A*4D
$GPRMC,193358.8,A,3328.989514,N,11740.119034,W,32.3,215.9,310710,,,A*47
$GPRMC,193401.8,A,3328.967729,N,11740.137631,W,31.9,215.6,310710,,,A*49
$GPRMC,193404.8,A,3328.947933,N,11740.154826,W,26.5,216.1,310710,,,A*48
$GPRMC,193407.8,A,3328.932554,N,11740.167966,W,19.6,215.5,310710,,,A*49
$GPRMC,193410.8,A,3328.921364,N,11740.177852,W,14.5,216.2,310710,,,A*45
$GPRMC,193413.8,A,3328.913665,N,11740.185073,W,8.2,216.5,310710,,,A*78
$GPRMC,193416.8,A,3328.908837,N,11740.189271,W,7.1,214.7,310710,,,A*7E
$GPRMC,193419.8,A,3328.904264,N,11740.193059,W,4.7,214.8,310710,,,A*78
$GPRMC,193434.8,A,3328.898909,N,11740.197493,W,6.4,216.1,310710,,,A*7F
$GPRMC,193437.8,A,3328.894345,N,11740.201504,W,6.3,215.7,310710,,,A*73
$GPRMC,193440.8,A,3328.890337,N,11740.205032,W,4.7,215.4,310710,,,A*73
$GPRMC,193510.8,A,3328.877095,N,11740.217697,W,7.7,217.6,310710,,,A*7C
$GPRMC,193513.8,A,3328.870427,N,11740.223477,W,11.6,215.1,310710,,,A*4D
$GPRMC,193516.8,A,3328.858672,N,11740.233258,W,21.6,215.5,310710,,,A*4D
$GPRMC,193519.8,A,3328.843437,N,11740.246523,W,23.0,215.9,310710,,,A*4A
$GPRMC,193522.8,A,3328.828004,N,11740.259606,W,21.9,215.8,310710,,,A*4B
$GPRMC,193525.8,A,3328.813625,N,11740.271881,W,21.0,215.8,310710,,,A*43
$GPRMC,193528.8,A,3328.798280,N,11740.284848,W,24.4,215.6,310710,,,A*49
$GPRMC,193531.8,A,3328.779694,N,11740.300865,W,30.7,215.9,310710,,,A*44
$GPRMC,193534.8,A,3328.755972,N,11740.321129,W,39.1,215.9,310710,,,A*45
$GPRMC,193537.8,A,3328.729423,N,11740.344007,W,38.4,215.9,310710,,,A*4E
$GPRMC,193540.8,A,3328.703544,N,11740.366310,W,38.7,215.4,310710,,,A*4D
$GPRMC,193543.8,A,3328.677959,N,11740.387125,W,34.0,213.5,310710,,,A*4B
$GPRMC,193546.8,A,3328.656267,N,11740.402572,W,27.4,207.1,310710,,,A*40
$GPRMC,193549.8,A,3328.645778,N,11740.410288,W,15.3,209.4,310710,,,A*4A
$GPRMC,193552.8,A,3328.634546,N,11740.417772,W,15.6,208.0,310710,,,A*4E
$GPRMC,193555.8,A,3328.625504,N,11740.423659,W,11.3,206.7,310710,,,A*48
$GPRMC,193558.8,A,3328.618344,N,11740.428040,W,7.3,206.1,310710,,,A*7D
$GPRMC,193604.8,A,3328.609490,N,11740.433018,W,9.6,205.8,310710,,,A*7F
$GPRMC,193607.8,A,3328.601767,N,11740.437410,W,11.6,203.6,310710,,,A*46
$GPRMC,193610.8,A,3328.592049,N,11740.442227,W,13.5,202.2,310710,,,A*46
$GPRMC,193613.8,A,3328.582757,N,11740.447033,W,10.5,199.9,310710,,,A*47
$GPRMC,193616.8,A,3328.577371,N,11740.449718,W,5.9,201.0,310710,,,A*7B
$GPRMC,193619.8,A,3328.574155,N,11740.451672,W,4.6,202.0,310710,,,A*7A
$GPRMC,193622.8,A,3328.569388,N,11740.453810,W,6.1,199.8,310710,,,A*78
$GPRMC,193625.8,A,3328.563364,N,11740.456209,W,7.3,202.0,310710,,,A*7A
$GPRMC,193628.8,A,3328.558690,N,11740.458319,W,6.8,199.2,310710,,,A*76
$GPRMC,193631.8,A,3328.552435,N,11740.461053,W,8.9,199.1,310710,,,A*72
$GPRMC,193634.8,A,3328.542968,N,11740.464393,W,12.0,200.0,310710,,,A*49
$GPRMC,193637.8,A,3328.532769,N,11740.467627,W,12.9,195.7,310710,,,A*4A
$GPRMC,193640.8,A,3328.521158,N,11740.470958,W,13.9,195.3,310710,,,A*48
$GPRMC,193643.8,A,3328.511003,N,11740.473978,W,11.8,193.3,310710,,,A*43
$GPRMC,193646.8,A,3328.501819,N,11740.476400,W,11.5,192.8,310710,,,A*44
$GPRMC,193649.8,A,3328.491798,N,11740.479290,W,13.0,193.0,310710,,,A*4B
$GPRMC,193652.8,A,3328.480368,N,11740.482233,W,14.7,191.2,310710,,,A*47
$GPRMC,193655.8,A,3328.468111,N,11740.485216,W,15.9,188.8,310710,,,A*47
$GPRMC,193658.8,A,3328.457572,N,11740.487034,W,10.4,189.5,310710,,,A*43
$GPRMC,193701.8,A,3328.452934,N,11740.487643,W,4.4,187.7,310710,,,A*7A
$GPRMC,193704.8,A,3328.449401,N,11740.487797,W,6.9,185.9,310710,,,A*75
$GPRMC,193707.8,A,3328.442724,N,11740.488635,W,10.2,184.9,310710,,,A*42
$GPRMC,193710.8,A,3328.431923,N,11740.489629,W,15.6,185.0,310710,,,A*4C
$GPRMC,193713.8,A,3328.416215,N,11740.490998,W,21.1,184.2,310710,,,A*4A
$GPRMC,193716.8,A,3328.397465,N,11740.491581,W,24.0,180.5,310710,,,A*42
$GPRMC,193719.8,A,3328.377063,N,11740.491841,W,25.0,180.2,310710,,,A*46
$GPRMC,193722.8,A,3328.357586,N,11740.491261,W,21.3,177.4,310710,,,A*43
$GPRMC,193725.8,A,3328.341398,N,11740.489615,W,19.5,175.3,310710,,,A*4C
$GPRMC,193728.8,A,3328.324586,N,11740.487708,W,21.5,174.2,310710,,,A*43
$GPRMC,193731.8,A,3328.305713,N,11740.485082,W,24.2,172.9,310710,,,A*4E
$GPRMC,193734.8,A,3328.284074,N,11740.480343,W,28.7,167.5,310710,,,A*4F
$GPRMC,193737.8,A,3328.260086,N,11740.473080,W,29.1,164.1,310710,,,A*4B
$GPRMC,193740.8,A,3328.236072,N,11740.463895,W,32.2,161.0,310710,,,A*43
$GPRMC,193743.8,A,3328.210119,N,11740.451591,W,34.0,156.0,310710,,,A*40
$GPRMC,193746.8,A,3328.184447,N,11740.436112,W,34.1,151.0,310710,,,A*4D
$GPRMC,193749.8,A,3328.160551,N,11740.418867,W,33.2,147.4,310710,,,A*4E
$GPRMC,193752.8,A,3328.141126,N,11740.402109,W,26.0,143.2,310710,,,A*4D
$GPRMC,193755.8,A,3328.126997,N,11740.389044,W,19.1,139.0,310710,,,A*47
$GPRMC,193758.8,A,3328.116084,N,11740.377963,W,16.5,136.6,310710,,,A*4D
$GPRMC,193801.8,A,3328.106959,N,11740.366875,W,15.4,134.0,310710,,,A*46
$GPRMC,193804.8,A,3328.097956,N,11740.355316,W,15.1,131.5,310710,,,A*4E
$GPRMC,193807.8,A,3328.090363,N,11740.344322,W,13.3,130.4,310710,,,A*45
$GPRMC,193810.8,A,3328.083789,N,11740.334523,W,11.6,128.0,310710,,,A*4B
$GPRMC,193813.8,A,3328.077833,N,11740.324752,W,14.0,126.7,310710,,,A*42
$GPRMC,193816.8,A,3328.070303,N,11740.311764,W,16.8,123.7,310710,,,A*44
$GPRMC,193819.8,A,3328.061800,N,11740.295736,W,21.6,121.6,310710,,,A*40
$GPRMC,193822.8,A,3328.052293,N,11740.275605,W,24.3,117.8,310710,,,A*4C
$GPRMC,193825.8,A,3328.043275,N,11740.254606,W,23.4,117.3,310710,,,A*48
$GPRMC,193828.8,A,3328.036695,N,11740.238135,W,14.2,116.9,310710,,,A*49
$GPRMC,193831.8,A,3328.031877,N,11740.226395,W,12.9,116.7,310710,,,A*40
$GPRMC,193834.8,A,3328.026986,N,11740.214361,W,13.2,116.5,310710,,,A*4E
$GPRMC,193837.8,A,3328.021966,N,11740.202858,W,13.5,116.8,310710,,,A*48
$GPRMC,193840.8,A,3328.017143,N,11740.191359,W,12.6,117.0,310710,,,A*4A
$GPRMC,193843.8,A,3328.012902,N,11740.181915,W,8.7,118.0,310710,,,A*77
$GPRMC,193846.8,A,3328.009850,N,11740.175057,W,7.4,118.5,310710,,,A*73
$GPRMC,193849.8,A,3328.006904,N,11740.168928,W,6.6,119.6,310710,,,A*7F
$GPRMC,193852.8,A,3328.004604,N,11740.163420,W,5.4,120.1,310710,,,A*7A
$GPRMC,193855.8,A,3328.001239,N,11740.156682,W,9.7,120.4,310710,,,A*74
$GPRMC,193858.8,A,3327.997262,N,11740.148480,W,9.4,122.1,310710,,,A*75
$GPRMC,193901.8,A,3327.993149,N,11740.141036,W,8.6,122.9,310710,,,A*7D
$GPRMC,193904.8,A,3327.989470,N,11740.135099,W,5.2,123.6,310710,,,A*7D
$GPRMC,193907.8,A,3327.986906,N,11740.130472,W,7.2,123.9,310710,,,A*74
$GPRMC,193910.8,A,3327.981812,N,11740.122065,W,13.4,125.3,310710,,,A*4F
$GPRMC,193913.8,A,3327.973917,N,11740.109569,W,18.4,127.1,310710,,,A*4E
$GPRMC,193916.8,A,3327.963364,N,11740.093230,W,22.8,128.7,310710,,,A*41
$GPRMC,193919.8,A,3327.950558,N,11740.074023,W,26.6,128.1,310710,,,A*42
$GPRMC,193922.8,A,3327.934624,N,11740.051100,W,31.1,129.5,310710,,,A*43
$GPRMC,193925.8,A,3327.917021,N,11740.024885,W,34.8,129.0,310710,,,A*49
$GPRMC,193928.8,A,3327.899117,N,11739.996679,W,35.6,128.9,310710,,,A*43
$GPRMC,193931.8,A,3327.879867,N,11739.968479,W,37.2,129.0,310710,,,A*46
$GPRMC,193934.8,A,3327.859303,N,11739.939691,W,38.4,128.3,310710,,,A*43
$GPRMC,193937.8,A,3327.839435,N,11739.907553,W,42.2,127.7,310710,,,A*44
$GPRMC,193940.8,A,3327.817323,N,11739.875032,W,41.0,129.6,310710,,,A*40
$GPRMC,193943.8,A,3327.798255,N,11739.847061,W,32.3,129.4,310710,,,A*49
$GPRMC,193946.8,A,3327.782598,N,11739.824489,W,26.9,129.6,310710,,,A*4B
$GPRMC,193949.8,A,3327.768319,N,11739.803669,W,27.0,129.2,310710,,,A*4A
$GPRMC,193952.8,A,3327.754031,N,11739.782761,W,27.0,129.3,310710,,,A*48
$GPRMC,193955.8,A,3327.739783,N,11739.761891,W,27.7,129.3,310710,,,A*40
$GPRMC,193958.8,A,3327.724457,N,11739.740199,W,29.9,129.0,310710,,,A*4A
$GPRMC,194001.8,A,3327.708480,N,11739.717003,W,30.2,129.3,310710,,,A*4C
$GPRMC,194004.8,A,3327.692753,N,11739.693449,W,29.8,129.0,310710,,,A*40
$GPRMC,194007.8,A,3327.677051,N,11739.670338,W,29.2,128.3,310710,,,A*49
$GPRMC,194010.8,A,3327.663127,N,11739.647586,W,26.7,124.0,310710,,,A*48
$GPRMC,194013.8,A,3327.651629,N,11739.625584,W,25.6,121.1,310710,,,A*43
$GPRMC,194016.8,A,3327.641212,N,11739.603231,W,24.7,117.7,310710,,,A*45
$GPRMC,194019.8,A,3327.633005,N,11739.583814,W,18.8,116.5,310710,,,A*4E
$GPRMC,194022.8,A,3327.626477,N,11739.568504,W,15.8,116.3,310710,,,A*41
$GPRMC,194025.8,A,3327.621065,N,11739.554930,W,15.4,116.0,310710,,,A*4D
$GPRMC,194028.8,A,3327.615222,N,11739.541041,W,15.6,116.5,310710,,,A*4A
$GPRMC,194031.8,A,3327.609117,N,11739.527061,W,15.6,117.3,310710,,,A*4F
$GPRMC,194034.8,A,3327.603354,N,11739.513257,W,15.1,116.6,310710,,,A*46
$GPRMC,194037.8,A,3327.599348,N,11739.503683,W,6.7,116.0,310710,,,A*76
$GPRMC,194040.8,A,3327.597040,N,11739.498233,W,6.6,116.5,310710,,,A*7B
$GPRMC,194043.8,A,3327.593554,N,11739.489815,W,13.4,116.6,310710,,,A*47
$GPRMC,194046.8,A,3327.587088,N,11739.474694,W,20.6,117.8,310710,,,A*4B
$GPRMC,194049.8,A,3327.576648,N,11739.452546,W,29.6,119.8,310710,,,A*4F
$GPRMC,194052.8,A,3327.563272,N,11739.425586,W,32.2,121.8,310710,,,A*45
$GPRMC,194055.8,A,3327.548558,N,11739.399012,W,31.9,124.3,310710,,,A*4A
$GPRMC,194058.8,A,3327.533447,N,11739.373232,W,31.6,125.0,310710,,,A*4D
$GPRMC,194101.8,A,3327.518686,N,11739.348512,W,29.9,126.0,310710,,,A*4E
$GPRMC,194104.8,A,3327.503878,N,11739.323847,W,31.8,125.7,310710,,,A*42
$GPRMC,194107.8,A,3327.487135,N,11739.295540,W,37.6,125.4,310710,,,A*41
$GPRMC,194110.8,A,3327.467400,N,11739.263318,W,42.8,125.7,310710,,,A*47
$GPRMC,194113.8,A,3327.445215,N,11739.226506,W,49.1,126.0,310710,,,A*48
$GPRMC,194116.8,A,3327.419607,N,11739.182326,W,59.3,123.6,310710,,,A*4A
$GPRMC,194119.8,A,3327.391409,N,11739.129905,W,63.1,121.6,310710,,,A*4D
$GPRMC,194122.8,A,3327.363900,N,11739.074982,W,65.5,120.6,310710,,,A*49
$GPRMC,194125.8,A,3327.336893,N,11739.017370,W,66.6,117.9,310710,,,A*4C
$GPRMC,194128.8,A,3327.311660,N,11738.958764,W,65.6,117.0,310710,,,A*4E
$GPRMC,194131.8,A,3327.286796,N,11738.900839,W,64.3,116.7,310710,,,A*49
$GPRMC,194134.8,A,3327.263744,N,11738.845506,W,60.2,115.8,310710,,,A*40
$GPRMC,194137.8,A,3327.242993,N,11738.793492,W,55.5,116.5,310710,,,A*43
$GPRMC,194140.8,A,3327.222360,N,11738.745564,W,52.7,117.4,310710,,,A*45
$GPRMC,194143.8,A,3327.201369,N,11738.699105,W,53.4,119.1,310710,,,A*44
$GPRMC,194146.8,A,3327.178650,N,11738.652786,W,54.7,121.2,310710,,,A*45
$GPRMC,194149.8,A,3327.153782,N,11738.606799,W,55.2,124.0,310710,,,A*41
$GPRMC,194152.8,A,3327.126748,N,11738.560851,W,58.9,126.5,310710,,,A*46
$GPRMC,194155.8,A,3327.094430,N,11738.512190,W,64.9,129.2,310710,,,A*43
$GPRMC,194158.8,A,3327.059818,N,11738.462470,W,63.8,130.6,310710,,,A*4E
$GPRMC,194201.8,A,3327.026157,N,11738.415529,W,60.2,130.3,310710,,,A*4A
$GPRMC,194204.8,A,3326.994221,N,11738.371164,W,58.4,130.5,310710,,,A*4F
$GPRMC,194207.8,A,3326.963272,N,11738.327424,W,56.5,130.1,310710,,,A*4B
$GPRMC,194210.8,A,3326.933024,N,11738.284882,W,55.5,129.8,310710,,,A*43
$GPRMC,194213.8,A,3326.904682,N,11738.240591,W,57.2,124.6,310710,,,A*4F
$GPRMC,194216.8,A,3326.878623,N,11738.191821,W,58.4,121.1,310710,,,A*49
$GPRMC,194219.8,A,3326.853241,N,11738.141897,W,58.6,121.3,310710,,,A*4F
$GPRMC,194222.8,A,3326.827657,N,11738.091794,W,59.6,121.3,310710,,,A*46
$GPRMC,194225.8,A,3326.801716,N,11738.040903,W,59.6,121.2,310710,,,A*4C
$GPRMC,194228.8,A,3326.776441,N,11737.991162,W,56.5,121.6,310710,,,A*42
$GPRMC,194231.8,A,3326.752297,N,11737.946183,W,51.5,124.3,310710,,,A*43
$GPRMC,194234.8,A,3326.726898,N,11737.905815,W,50.4,128.8,310710,,,A*46
$GPRMC,194237.8,A,3326.699641,N,11737.867690,W,51.0,131.9,310710,,,A*40
$GPRMC,194240.8,A,3326.670092,N,11737.830917,W,51.3,134.9,310710,,,A*4B
$GPRMC,194243.8,A,3326.639126,N,11737.795395,W,51.5,134.7,310710,,,A*43
$GPRMC,194246.8,A,3326.608693,N,11737.760168,W,49.9,135.3,310710,,,A*47
$GPRMC,194249.8,A,3326.579446,N,11737.724953,W,50.8,135.1,310710,,,A*4C
$GPRMC,194252.8,A,3326.548841,N,11737.687811,W,53.8,134.8,310710,,,A*4B
$GPRMC,194255.8,A,3326.515682,N,11737.648912,W,57.3,134.8,310710,,,A*4B
$GPRMC,194258.8,A,3326.481937,N,11737.606979,W,58.9,132.9,310710,,,A*4E
$GPRMC,194301.8,A,3326.450265,N,11737.561574,W,59.6,127.2,310710,,,A*41
$GPRMC,194304.8,A,3326.421711,N,11737.512770,W,59.7,123.3,310710,,,A*42
$GPRMC,194307.8,A,3326.394152,N,11737.463700,W,58.8,123.5,310710,,,A*41
$GPRMC,194310.8,A,3326.367086,N,11737.414914,W,58.4,123.1,310710,,,A*40
$GPRMC,194313.8,A,3326.340261,N,11737.366514,W,58.0,123.7,310710,,,A*41
$GPRMC,194316.8,A,3326.313726,N,11737.317806,W,58.4,123.2,310710,,,A*4D
$GPRMC,194319.8,A,3326.286965,N,11737.268864,W,58.8,123.7,310710,,,A*42
$GPRMC,194322.8,A,3326.258909,N,11737.219971,W,60.1,125.9,310710,,,A*4A
$GPRMC,194325.8,A,3326.227731,N,11737.173371,W,59.0,131.9,310710,,,A*4B
$GPRMC,194328.8,A,3326.192997,N,11737.132603,W,57.7,137.9,310710,,,A*43
$GPRMC,194331.8,A,3326.156146,N,11737.096438,W,56.7,142.5,310710,,,A*4D
$GPRMC,194334.8,A,3326.117362,N,11737.064902,W,56.2,148.5,310710,,,A*4F
$GPRMC,194337.8,A,3326.077225,N,11737.037454,W,54.4,150.7,310710,,,A*4E
$GPRMC,194340.8,A,3326.037544,N,11737.010741,W,54.0,150.8,310710,,,A*43
$GPRMC,194343.8,A,3325.998649,N,11736.985038,W,53.5,150.7,310710,,,A*41
$GPRMC,194346.8,A,3325.959962,N,11736.960070,W,53.1,150.5,310710,,,A*4E
$GPRMC,194349.8,A,3325.922841,N,11736.932468,W,52.6,146.2,310710,,,A*41
$GPRMC,194352.8,A,3325.887675,N,11736.902006,W,52.1,142.2,310710,,,A*40
$GPRMC,194355.8,A,3325.855001,N,11736.868330,W,52.4,137.8,310710,,,A*4B
$GPRMC,194358.8,A,3325.824331,N,11736.830296,W,54.0,133.6,310710,,,A*48
$GPRMC,194401.8,A,3325.792614,N,11736.791500,W,55.3,134.4,310710,,,A*48
$GPRMC,194404.8,A,3325.758472,N,11736.752499,W,57.3,137.5,310710,,,A*47
$GPRMC,194407.8,A,3325.721740,N,11736.714395,W,59.0,139.3,310710,,,A*44
$GPRMC,194410.8,A,3325.679131,N,11736.681461,W,60.6,146.0,310710,,,A*48
$GPRMC,194413.8,A,3325.635236,N,11736.649175,W,61.4,148.5,310710,,,A*4B
$GPRMC,194416.8,A,3325.590466,N,11736.618249,W,62.0,150.6,310710,,,A*44
$GPRMC,194419.8,A,3325.545875,N,11736.588064,W,61.6,150.3,310710,,,A*4A
$GPRMC,194422.8,A,3325.501219,N,11736.558003,W,60.6,150.5,310710,,,A*49
$GPRMC,194425.8,A,3325.457074,N,11736.529259,W,60.1,154.0,310710,,,A*48
$GPRMC,194428.8,A,3325.412115,N,11736.504171,W,59.4,156.4,310710,,,A*4D
$GPRMC,194431.8,A,3325.365518,N,11736.482803,W,59.6,158.8,310710,,,A*48
$GPRMC,194434.8,A,3325.320320,N,11736.460921,W,57.0,156.0,310710,,,A*42
$GPRMC,194437.8,A,3325.277804,N,11736.435237,W,57.4,150.7,310710,,,A*46
$GPRMC,194440.8,A,3325.236890,N,11736.404494,W,59.5,145.0,310710,,,A*4F
$GPRMC,194443.8,A,3325.195484,N,11736.369125,W,61.4,144.1,310710,,,A*46
$GPRMC,194446.8,A,3325.154306,N,11736.332902,W,60.8,143.8,310710,,,A*43
$GPRMC,194449.8,A,3325.111590,N,11736.301190,W,59.3,150.3,310710,,,A*4F
$GPRMC,194452.8,A,3325.066630,N,11736.276817,W,58.7,157.1,310710,,,A*4A
$GPRMC,194455.8,A,3325.022200,N,11736.254553,W,56.8,157.1,310710,,,A*46
$GPRMC,194458.8,A,3324.978699,N,11736.232859,W,56.7,157.3,310710,,,A*42
$GPRMC,194501.8,A,3324.934682,N,11736.210881,W,58.0,157.4,310710,,,A*46
$GPRMC,194504.8,A,3324.889167,N,11736.187891,W,60.4,157.1,310710,,,A*4E
$GPRMC,194507.8,A,3324.841503,N,11736.164016,W,63.3,157.3,310710,,,A*43
$GPRMC,194510.8,A,3324.791733,N,11736.139344,W,64.9,157.1,310710,,,A*45
$GPRMC,194513.8,A,3324.741561,N,11736.114056,W,65.5,157.0,310710,,,A*4D
$GPRMC,194516.8,A,3324.691637,N,11736.088351,W,64.7,157.0,310710,,,A*47
$GPRMC,194519.8,A,3324.642577,N,11736.062934,W,63.3,157.0,310710,,,A*4F
$GPRMC,194522.8,A,3324.594744,N,11736.038887,W,61.3,157.2,310710,,,A*4B
$GPRMC,194525.8,A,3324.548740,N,11736.015587,W,59.2,157.1,310710,,,A*42
$GPRMC,194528.8,A,3324.503854,N,11735.993256,W,57.4,157.4,310710,,,A*48
$GPRMC,194531.8,A,3324.459624,N,11735.970835,W,58.0,156.7,310710,,,A*4C
$GPRMC,194534.8,A,3324.414207,N,11735.948263,W,59.4,157.1,310710,,,A*45
$GPRMC,194537.8,A,3324.368016,N,11735.924811,W,61.3,157.4,310710,,,A*44
$GPRMC,194540.8,A,3324.320963,N,11735.900906,W,61.5,157.2,310710,,,A*42
$GPRMC,194543.8,A,3324.273351,N,11735.877260,W,62.1,157.3,310710,,,A*41
$GPRMC,194546.8,A,3324.225359,N,11735.852699,W,61.8,156.9,310710,,,A*4B
$GPRMC,194549.8,A,3324.178203,N,11735.828619,W,60.8,157.3,310710,,,A*4E
$GPRMC,194552.8,A,3324.131339,N,11735.805788,W,60.1,157.4,310710,,,A*49
$GPRMC,194555.8,A,3324.084903,N,11735.782838,W,60.3,157.1,310710,,,A*41
$GPRMC,194558.8,A,3324.037838,N,11735.759497,W,62.1,157.2,310710,,,A*41
$GPRMC,194601.8,A,3323.987736,N,11735.734861,W,67.2,157.9,310710,,,A*49
$GPRMC,194604.8,A,3323.932994,N,11735.708897,W,73.4,158.6,310710,,,A*41
$GPRMC,194607.8,A,3323.875788,N,11735.680574,W,73.9,156.3,310710,,,A*44
$GPRMC,194610.8,A,3323.822377,N,11735.652679,W,65.2,155.9,310710,,,A*40
$GPRMC,194613.8,A,3323.779529,N,11735.626164,W,57.0,151.6,310710,,,A*4F
$GPRMC,194616.8,A,3323.739142,N,11735.599957,W,54.0,151.5,310710,,,A*48
$GPRMC,194619.8,A,3323.700950,N,11735.575621,W,51.4,151.8,310710,,,A*46
$GPRMC,194622.8,A,3323.662388,N,11735.550075,W,53.8,150.4,310710,,,A*47
$GPRMC,194625.8,A,3323.622334,N,11735.522612,W,57.0,148.7,310710,,,A*47
$GPRMC,194628.8,A,3323.581144,N,11735.492321,W,59.2,147.8,310710,,,A*46
$GPRMC,194631.8,A,3323.539025,N,11735.460596,W,59.6,146.7,310710,,,A*46
$GPRMC,194634.8,A,3323.497555,N,11735.427996,W,59.9,146.6,310710,,,A*45
$GPRMC,194637.8,A,3323.454647,N,11735.394642,W,62.0,147.1,310710,,,A*47
$GPRMC,194640.8,A,3323.410537,N,11735.360420,W,63.6,146.8,310710,,,A*41
$GPRMC,194643.8,A,3323.366159,N,11735.325741,W,62.7,146.8,310710,,,A*4D
$GPRMC,194646.8,A,3323.325728,N,11735.291764,W,58.3,143.3,310710,,,A*45
$GPRMC,194649.8,A,3323.288613,N,11735.256093,W,57.0,139.8,310710,,,A*4B
$GPRMC,194652.8,A,3323.253359,N,11735.214013,W,63.6,134.1,310710,,,A*47
$GPRMC,194655.8,A,3323.216451,N,11735.165038,W,66.6,129.7,310710,,,A*4D
$GPRMC,194658.8,A,3323.182494,N,11735.112381,W,67.0,125.2,310710,,,A*48
$GPRMC,194701.8,A,3323.151549,N,11735.056120,W,68.0,121.9,310710,,,A*42
$GPRMC,194704.8,A,3323.125144,N,11734.995882,W,67.9,116.8,310710,,,A*48
$GPRMC,194707.8,A,3323.101941,N,11734.935151,W,66.6,114.8,310710,,,A*41
$GPRMC,194710.8,A,3323.079478,N,11734.875640,W,65.3,114.9,310710,,,A*4B
$GPRMC,194713.8,A,3323.057244,N,11734.817182,W,63.6,115.0,310710,,,A*4B
$GPRMC,194716.8,A,3323.035559,N,11734.760991,W,61.3,114.9,310710,,,A*4B
$GPRMC,194719.8,A,3323.013615,N,11734.705540,W,61.4,115.1,310710,,,A*46
$GPRMC,194722.8,A,3322.991887,N,11734.651202,W,60.2,114.9,310710,,,A*46
$GPRMC,194725.8,A,3322.970908,N,11734.597294,W,59.0,115.0,310710,,,A*4E
$GPRMC,194728.8,A,3322.950306,N,11734.543959,W,59.0,114.9,310710,,,A*4E
$GPRMC,194731.8,A,3322.929637,N,11734.490858,W,58.4,115.0,310710,,,A*4D
$GPRMC,194734.8,A,3322.909219,N,11734.438003,W,59.6,114.9,310710,,,A*4D
$GPRMC,194737.8,A,3322.887709,N,11734.382693,W,62.4,114.9,310710,,,A*4E
$GPRMC,194740.8,A,3322.865643,N,11734.325860,W,62.9,115.0,310710,,,A*47
$GPRMC,194743.8,A,3322.843548,N,11734.268477,W,63.6,114.8,310710,,,A*4D
$GPRMC,194746.8,A,3322.821349,N,11734.210633,W,64.6,114.8,310710,,,A*41
$GPRMC,194749.8,A,3322.797978,N,11734.151622,W,65.9,115.1,310710,,,A*44
$GPRMC,194752.8,A,3322.774772,N,11734.092022,W,66.4,114.9,310710,,,A*48
$GPRMC,194755.8,A,3322.750990,N,11734.031414,W,68.2,114.9,310710,,,A*4B
$GPRMC,194758.8,A,3322.724095,N,11733.968460,W,72.0,119.8,310710,,,A*4D
$GPRMC,194801.8,A,3322.691196,N,11733.908851,W,71.4,126.7,310710,,,A*4F
$GPRMC,194804.8,A,3322.653193,N,11733.855242,W,69.9,133.8,310710,,,A*4F
$GPRMC,194807.8,A,3322.611738,N,11733.807653,W,67.5,137.1,310710,,,A*41
$GPRMC,194810.8,A,3322.570992,N,11733.761941,W,66.4,137.1,310710,,,A*4E
$GPRMC,194813.8,A,3322.531072,N,11733.715637,W,66.5,134.6,310710,,,A*47
$GPRMC,194816.8,A,3322.495615,N,11733.663625,W,68.4,126.2,310710,,,A*41
$GPRMC,194819.8,A,3322.463285,N,11733.607130,W,68.6,122.8,310710,,,A*47
$GPRMC,194822.8,A,3322.432552,N,11733.549849,W,68.5,123.0,310710,,,A*42
$GPRMC,194825.8,A,3322.401469,N,11733.492610,W,68.8,123.2,310710,,,A*46
$GPRMC,194828.8,A,3322.369725,N,11733.435559,W,68.9,123.4,310710,,,A*4D
$GPRMC,194831.8,A,3322.338158,N,11733.378064,W,69.1,123.0,310710,,,A*45
$GPRMC,194834.8,A,3322.307103,N,11733.320510,W,67.9,123.0,310710,,,A*4F
$GPRMC,194837.8,A,3322.276615,N,11733.263855,W,67.6,122.4,310710,,,A*4B
$GPRMC,194840.8,A,3322.246137,N,11733.208071,W,67.1,123.0,310710,,,A*4E
$GPRMC,194843.8,A,3322.215941,N,11733.151707,W,68.0,123.2,310710,,,A*47
$GPRMC,194846.8,A,3322.184345,N,11733.094725,W,69.1,123.1,310710,,,A*4C
$GPRMC,194849.8,A,3322.153017,N,11733.036561,W,69.6,123.1,310710,,,A*40
