NMEA Sentence Code,UTC Time,Status,Latitude,Latitude Direction,Longitude,Longitude Direction,Speed (knots),Track Angle (degrees true),Date,MagneticVariation,Magnetic Variation Direction,[FAA Mode]-Optional,Checksum
$GPRMC,172738.8,A,3344.0684,N,11749.0103,W,57.50,125.00,120410,,*24
$GPRMC,172742.8,A,3344.0282,N,11748.9548,W,54.50,132.00,120410,,*2D
$GPRMC,172746.8,A,3343.9873,N,11748.9010,W,55.80,131.70,120410,,*23
$GPRMC,172750.8,A,3343.9461,N,11748.8425,W,58.80,129.50,120410,,*2E
$GPRMC,172754.8,A,3343.9047,N,11748.7825,W,58.60,129.40,120410,,*26
$GPRMC,172758.8,A,3343.8627,N,11748.7215,W,59.20,129.40,120410,,*27
$GPRMC,172802.8,A,3343.8216,N,11748.6619,W,57.30,130.00,120410,,*2B
$GPRMC,172806.8,A,3343.7809,N,11748.6028,W,57.50,129.10,120410,,*2F
$GPRMC,172810.8,A,3343.7426,N,11748.5477,W,53.70,129.70,120410,,*24
$GPRMC,172814.8,A,3343.7052,N,11748.4944,W,51.20,130.00,120410,,*23
$GPRMC,172818.8,A,3343.6686,N,11748.4417,W,51.40,129.30,120410,,*27
$GPRMC,172822.8,A,3343.6325,N,11748.3891,W,50.90,129.80,120410,,*20
$GPRMC,172826.8,A,3343.5945,N,11748.3354,W,53.40,129.80,120410,,*27
$GPRMC,172830.8,A,3343.5574,N,11748.2806,W,52.50,129.60,120410,,*2D
$GPRMC,172834.8,A,3343.5215,N,11748.2272,W,50.40,130.20,120410,,*2F
$GPRMC,172838.8,A,3343.4858,N,11748.1722,W,51.60,129.40,120410,,*2F
$GPRMC,172842.8,A,3343.4488,N,11748.1168,W,53.20,129.10,120410,,*28
$GPRMC,172846.8,A,3343.4132,N,11748.0632,W,50.90,129.30,120410,,*2B
$GPRMC,172850.8,A,3343.3765,N,11748.0112,W,50.10,130.10,120410,,*28
$GPRMC,172854.8,A,3343.3411,N,11747.9604,W,49.00,129.80,120410,,*22
$GPRMC,172858.8,A,3343.3066,N,11747.9111,W,47.60,129.70,120410,,*2E
$GPRMC,172902.8,A,3343.2716,N,11747.8601,W,51.70,129.90,120410,,*2E
$GPRMC,172906.8,A,3343.2339,N,11747.8065,W,53.60,130.10,120410,,*24
$GPRMC,172910.8,A,3343.1962,N,11747.7526,W,51.40,129.80,120410,,*28
$GPRMC,172914.8,A,3343.1610,N,11747.7015,W,49.70,129.80,120410,,*29
$GPRMC,172918.8,A,3343.1251,N,11747.6499,W,49.90,130.40,120410,,*2F
$GPRMC,172922.8,A,3343.0903,N,11747.6011,W,47.40,132.50,120410,,*2F
$GPRMC,172926.8,A,3343.0562,N,11747.5528,W,46.80,129.80,120410,,*26
$GPRMC,172930.8,A,3343.0234,N,11747.5045,W,45.90,129.80,120410,,*29
$GPRMC,172934.8,A,3342.9912,N,11747.4593,W,42.70,129.90,120410,,*2D
$GPRMC,172938.8,A,3342.9613,N,11747.4157,W,42.50,129.50,120410,,*2D
$GPRMC,172942.8,A,3342.9295,N,11747.3702,W,45.30,130.20,120410,,*25
$GPRMC,172946.8,A,3342.8953,N,11747.3231,W,47.00,129.70,120410,,*28
$GPRMC,172950.8,A,3342.8632,N,11747.2755,W,46.80,128.90,120410,,*27
$GPRMC,172954.8,A,3342.8274,N,11747.2246,W,51.70,129.60,120410,,*25
$GPRMC,172958.8,A,3342.7910,N,11747.1713,W,50.50,131.00,120410,,*25
$GPRMC,173002.8,A,3342.7536,N,11747.1206,W,50.10,132.90,120410,,*25
$GPRMC,173006.8,A,3342.7153,N,11747.0737,W,47.40,134.90,120410,,*25
$GPRMC,173010.8,A,3342.6783,N,11747.0294,W,46.80,134.80,120410,,*28
$GPRMC,173014.8,A,3342.6399,N,11746.9862,W,48.70,137.60,120410,,*24
$GPRMC,173018.8,A,3342.5979,N,11746.9433,W,51.00,140.00,120410,,*2E
$GPRMC,173022.8,A,3342.5523,N,11746.8997,W,51.50,141.70,120410,,*25
$GPRMC,173026.8,A,3342.5054,N,11746.8574,W,52.50,143.60,120410,,*25
$GPRMC,173030.8,A,3342.4574,N,11746.8174,W,53.10,145.40,120410,,*21
$GPRMC,173034.8,A,3342.4058,N,11746.7763,W,55.90,148.00,120410,,*26
$GPRMC,173038.8,A,3342.3518,N,11746.7395,W,55.50,150.50,120410,,*21
$GPRMC,173042.8,A,3342.2963,N,11746.7029,W,56.50,151.30,120410,,*2D
$GPRMC,173046.8,A,3342.2435,N,11746.6697,W,53.80,151.40,120410,,*2A
$GPRMC,173050.8,A,3342.1889,N,11746.6350,W,55.20,151.00,120410,,*23
$GPRMC,173054.8,A,3342.1365,N,11746.6011,W,54.20,151.80,120410,,*21
$GPRMC,173058.8,A,3342.0801,N,11746.5634,W,57.30,151.00,120410,,*2D
$GPRMC,173102.8,A,3342.0282,N,11746.5312,W,53.00,153.20,120410,,*24
$GPRMC,173106.8,A,3341.9735,N,11746.4956,W,55.50,151.50,120410,,*2E
$GPRMC,173110.8,A,3341.9181,N,11746.4585,W,56.00,151.30,120410,,*22
$GPRMC,173114.8,A,3341.8635,N,11746.4215,W,57.50,151.30,120410,,*25
$GPRMC,173118.8,A,3341.8078,N,11746.3826,W,58.30,149.20,120410,,*2A
$GPRMC,173122.8,A,3341.7525,N,11746.3468,W,57.10,149.70,120410,,*2F
$GPRMC,173126.8,A,3341.6976,N,11746.3110,W,56.70,150.00,120410,,*22
$GPRMC,173130.8,A,3341.6473,N,11746.2767,W,54.70,148.70,120410,,*26
$GPRMC,173134.8,A,3341.5910,N,11746.2425,W,55.60,150.50,120410,,*27
$GPRMC,173138.8,A,3341.5388,N,11746.2079,W,54.30,150.20,120410,,*2E
$GPRMC,173142.8,A,3341.4890,N,11746.1745,W,51.50,151.50,120410,,*2E
$GPRMC,173146.8,A,3341.4400,N,11746.1418,W,51.00,151.30,120410,,*27
$GPRMC,173150.8,A,3341.3879,N,11746.1095,W,52.40,152.40,120410,,*27
$GPRMC,173154.8,A,3341.3367,N,11746.0746,W,52.30,150.70,120410,,*29
$GPRMC,173158.8,A,3341.2863,N,11746.0409,W,51.90,151.10,120410,,*2D
$GPRMC,173202.8,A,3341.2348,N,11746.0068,W,53.50,150.50,120410,,*2B
$GPRMC,173206.8,A,3341.1839,N,11745.9745,W,52.10,151.60,120410,,*24
$GPRMC,173210.8,A,3341.1317,N,11745.9396,W,53.10,151.10,120410,,*28
$GPRMC,173214.8,A,3341.0790,N,11745.9063,W,54.40,151.40,120410,,*28
$GPRMC,173218.8,A,3341.0304,N,11745.8744,W,51.00,151.90,120410,,*22
$GPRMC,173222.8,A,3340.9802,N,11745.8426,W,50.60,149.80,120410,,*26
$GPRMC,173226.8,A,3340.9351,N,11745.8044,W,50.30,143.80,120410,,*20
$GPRMC,173230.8,A,3340.8909,N,11745.7594,W,52.50,137.50,120410,,*2C
$GPRMC,173234.8,A,3340.8481,N,11745.7119,W,52.10,137.40,120410,,*21
$GPRMC,173238.8,A,3340.8077,N,11745.6665,W,49.60,136.20,120410,,*27
$GPRMC,173242.8,A,3340.7675,N,11745.6191,W,50.30,135.70,120410,,*26
$GPRMC,173246.8,A,3340.7275,N,11745.5768,W,47.30,137.30,120410,,*25
$GPRMC,173250.8,A,3340.6896,N,11745.5349,W,45.00,137.00,120410,,*21
$GPRMC,173254.8,A,3340.6525,N,11745.4962,W,44.50,140.80,120410,,*2E
$GPRMC,173258.8,A,3340.6125,N,11745.4605,W,44.10,144.90,120410,,*29
$GPRMC,173302.8,A,3340.5689,N,11745.4295,W,45.70,150.30,120410,,*20
$GPRMC,173306.8,A,3340.5216,N,11745.4043,W,45.60,158.30,120410,,*26
$GPRMC,173310.8,A,3340.4753,N,11745.3849,W,42.40,163.00,120410,,*2F
$GPRMC,173314.8,A,3340.4319,N,11745.3728,W,39.20,168.10,120410,,*29
$GPRMC,173318.8,A,3340.3896,N,11745.3637,W,40.20,169.80,120410,,*27
$GPRMC,173322.8,A,3340.3433,N,11745.3540,W,43.10,171.10,120410,,*2E
$GPRMC,173326.8,A,3340.2977,N,11745.3447,W,41.60,169.90,120410,,*24
$GPRMC,173330.8,A,3340.2535,N,11745.3345,W,40.00,167.80,120410,,*24
$GPRMC,173334.8,A,3340.2070,N,11745.3199,W,45.40,163.10,120410,,*2B
$GPRMC,173338.8,A,3340.1577,N,11745.2988,W,48.00,158.70,120410,,*28
$GPRMC,173342.8,A,3340.1056,N,11745.2727,W,50.60,157.60,120410,,*29
$GPRMC,173346.8,A,3340.0514,N,11745.2522,W,50.90,164.30,120410,,*22
$GPRMC,173350.8,A,3339.9981,N,11745.2387,W,50.20,169.80,120410,,*26
$GPRMC,173354.8,A,3339.9405,N,11745.2352,W,51.60,178.00,120410,,*26
$GPRMC,173358.8,A,3339.8840,N,11745.2407,W,50.80,188.60,120410,,*27
$GPRMC,173402.8,A,3339.8277,N,11745.2561,W,50.20,197.10,120410,,*23
$GPRMC,173406.8,A,3339.7761,N,11745.2786,W,49.20,201.80,120410,,*2C
$GPRMC,173410.8,A,3339.7219,N,11745.3103,W,55.50,207.40,120410,,*2B
$GPRMC,173414.8,A,3339.6671,N,11745.3454,W,56.00,208.10,120410,,*2F
$GPRMC,173418.8,A,3339.6119,N,11745.3800,W,55.50,207.30,120410,,*2C
$GPRMC,173422.8,A,3339.5577,N,11745.4139,W,53.90,207.40,120410,,*23
$GPRMC,173426.8,A,3339.5050,N,11745.4450,W,53.70,206.80,120410,,*2E
$GPRMC,173430.8,A,3339.4513,N,11745.4788,W,53.40,207.20,120410,,*24
$GPRMC,173434.8,A,3339.3981,N,11745.5121,W,54.50,207.20,120410,,*22
$GPRMC,173438.8,A,3339.3439,N,11745.5460,W,56.10,207.20,120410,,*26
$GPRMC,173442.8,A,3339.2886,N,11745.5798,W,54.00,206.70,120410,,*21
$GPRMC,173446.8,A,3339.2356,N,11745.6113,W,52.00,206.50,120410,,*21
$GPRMC,173450.8,A,3339.1859,N,11745.6403,W,49.10,204.30,120410,,*2A
$GPRMC,173454.8,A,3339.1363,N,11745.6644,W,48.90,199.70,120410,,*27
$GPRMC,173458.8,A,3339.0837,N,11745.6849,W,52.00,196.60,120410,,*2F
$GPRMC,173502.8,A,3339.0266,N,11745.7024,W,53.90,192.10,120410,,*26
$GPRMC,173506.8,A,3338.9687,N,11745.7146,W,51.80,188.50,120410,,*28
$GPRMC,173510.8,A,3338.9116,N,11745.7224,W,51.50,185.40,120410,,*26
$GPRMC,173514.8,A,3338.8519,N,11745.7289,W,54.70,185.30,120410,,*2F
$GPRMC,173518.8,A,3338.7906,N,11745.7354,W,55.50,185.20,120410,,*2D
$GPRMC,173522.8,A,3338.7297,N,11745.7397,W,53.80,180.00,120410,,*24
$GPRMC,173526.8,A,3338.6706,N,11745.7371,W,52.00,175.90,120410,,*2E
$GPRMC,173530.8,A,3338.6137,N,11745.7253,W,50.50,168.40,120410,,*2A
$GPRMC,173534.8,A,3338.5612,N,11745.7088,W,49.00,164.80,120410,,*24
$GPRMC,173538.8,A,3338.5077,N,11745.6892,W,52.10,164.00,120410,,*2C
$GPRMC,173542.8,A,3338.4519,N,11745.6709,W,51.60,164.60,120410,,*22
$GPRMC,173546.8,A,3338.3977,N,11745.6520,W,49.40,165.10,120410,,*21
$GPRMC,173550.8,A,3338.3451,N,11745.6377,W,48.30,168.10,120410,,*20
$GPRMC,173554.8,A,3338.2897,N,11745.6275,W,50.50,171.40,120410,,*22
$GPRMC,173558.8,A,3338.2328,N,11745.6275,W,50.60,181.00,120410,,*29
$GPRMC,173602.8,A,3338.1764,N,11745.6317,W,50.90,186.30,120410,,*24
$GPRMC,173606.8,A,3338.1179,N,11745.6442,W,54.00,192.10,120410,,*27
$GPRMC,173610.8,A,3338.0608,N,11745.6597,W,50.70,192.30,120410,,*28
$GPRMC,173614.8,A,3338.0083,N,11745.6739,W,46.80,192.40,120410,,*20
$GPRMC,173618.8,A,3337.9569,N,11745.6837,W,47.30,185.10,120410,,*23
$GPRMC,173622.8,A,3337.9039,N,11745.6848,W,48.20,178.00,120410,,*2F
$GPRMC,173626.8,A,3337.8503,N,11745.6759,W,49.10,168.70,120410,,*2D
$GPRMC,173630.8,A,3337.7967,N,11745.6569,W,50.60,158.10,120410,,*20
$GPRMC,173634.8,A,3337.7456,N,11745.6244,W,52.00,149.60,120410,,*20
$GPRMC,173638.8,A,3337.6968,N,11745.5821,W,53.80,144.80,120410,,*2D
$GPRMC,173642.8,A,3337.6490,N,11745.5410,W,51.80,144.40,120410,,*2A
$GPRMC,173646.8,A,3337.6037,N,11745.5018,W,49.70,144.20,120410,,*2B
$GPRMC,173650.8,A,3337.5594,N,11745.4635,W,47.90,144.20,120410,,*2B
$GPRMC,173654.8,A,3337.5146,N,11745.4285,W,48.30,148.60,120410,,*26
$GPRMC,173658.8,A,3337.4633,N,11745.4016,W,51.50,159.30,120410,,*2D
$GPRMC,173702.8,A,3337.4093,N,11745.3854,W,48.30,170.10,120410,,*21
$GPRMC,173706.8,A,3337.3558,N,11745.3798,W,47.80,178.30,120410,,*21
$GPRMC,173710.8,A,3337.3032,N,11745.3846,W,48.30,188.80,120410,,*23
$GPRMC,173714.8,A,3337.2510,N,11745.3988,W,46.20,198.20,120410,,*24
$GPRMC,173718.8,A,3337.2037,N,11745.4229,W,47.10,207.40,120410,,*2E
$GPRMC,173722.8,A,3337.1559,N,11745.4529,W,48.20,208.00,120410,,*29
$GPRMC,173726.8,A,3337.1096,N,11745.4829,W,47.60,208.10,120410,,*2C
$GPRMC,173730.8,A,3337.0615,N,11745.5120,W,47.70,207.90,120410,,*20
$GPRMC,173734.8,A,3337.0151,N,11745.5413,W,47.80,208.30,120410,,*2C
$GPRMC,173738.8,A,3336.9663,N,11745.5712,W,48.00,208.10,120410,,*29
$GPRMC,173742.8,A,3336.9195,N,11745.6013,W,47.00,207.70,120410,,*29
$GPRMC,173746.8,A,3336.8732,N,11745.6298,W,46.00,207.60,120410,,*26
$GPRMC,173750.8,A,3336.8302,N,11745.6560,W,43.90,201.60,120410,,*2C
$GPRMC,173754.8,A,3336.7829,N,11745.6747,W,46.10,194.40,120410,,*22
$GPRMC,173758.8,A,3336.7297,N,11745.6844,W,49.90,184.40,120410,,*2B
$GPRMC,173802.8,A,3336.6738,N,11745.6871,W,50.60,181.60,120410,,*2C
$GPRMC,173806.8,A,3336.6185,N,11745.6789,W,49.80,174.80,120410,,*22
$GPRMC,173810.8,A,3336.5640,N,11745.6728,W,48.70,174.50,120410,,*20
$GPRMC,173814.8,A,3336.5107,N,11745.6668,W,47.00,175.30,120410,,*2A
$GPRMC,173818.8,A,3336.4602,N,11745.6655,W,45.10,182.00,120410,,*23
$GPRMC,173822.8,A,3336.4121,N,11745.6736,W,44.60,192.60,120410,,*29
$GPRMC,173826.8,A,3336.3645,N,11745.6909,W,47.20,200.90,120410,,*2D
$GPRMC,173830.8,A,3336.3146,N,11745.7174,W,49.60,206.20,120410,,*2A
$GPRMC,173834.8,A,3336.2677,N,11745.7453,W,46.20,203.30,120410,,*25
$GPRMC,173838.8,A,3336.2180,N,11745.7663,W,48.60,196.10,120410,,*20
$GPRMC,173842.8,A,3336.1629,N,11745.7784,W,50.70,186.70,120410,,*2D
$GPRMC,173846.8,A,3336.1066,N,11745.7801,W,49.90,178.20,120410,,*24
$GPRMC,173850.8,A,3336.0540,N,11745.7687,W,49.00,166.40,120410,,*23
$GPRMC,173854.8,A,3336.0016,N,11745.7500,W,49.30,162.20,120410,,*2C
$GPRMC,173858.8,A,3335.9491,N,11745.7301,W,49.40,162.20,120410,,*21
$GPRMC,173902.8,A,3335.8958,N,11745.7097,W,49.90,161.80,120410,,*2E
$GPRMC,173906.8,A,3335.8436,N,11745.6891,W,48.80,161.80,120410,,*20
$GPRMC,173910.8,A,3335.7928,N,11745.6700,W,46.50,162.10,120410,,*24
$GPRMC,173914.8,A,3335.7443,N,11745.6509,W,45.70,162.00,120410,,*2B
$GPRMC,173918.8,A,3335.6935,N,11745.6311,W,48.60,161.30,120410,,*29
$GPRMC,173922.8,A,3335.6412,N,11745.6088,W,49.20,159.90,120410,,*2F
$GPRMC,173926.8,A,3335.5951,N,11745.5911,W,44.80,165.80,120410,,*21
$GPRMC,173930.8,A,3335.5453,N,11745.5786,W,46.60,170.80,120410,,*21
$GPRMC,173934.8,A,3335.4916,N,11745.5741,W,48.00,179.30,120410,,*29
$GPRMC,173938.8,A,3335.4387,N,11745.5788,W,48.40,191.10,120410,,*22
$GPRMC,173942.8,A,3335.3852,N,11745.5974,W,50.70,199.80,120410,,*2D
$GPRMC,173946.8,A,3335.3310,N,11745.6202,W,52.10,196.60,120410,,*28
$GPRMC,173950.8,A,3335.2761,N,11745.6378,W,49.40,194.40,120410,,*2F
$GPRMC,173954.8,A,3335.2227,N,11745.6543,W,48.90,194.20,120410,,*28
$GPRMC,173958.8,A,3335.1715,N,11745.6705,W,45.50,194.60,120410,,*26
$GPRMC,174002.8,A,3335.1234,N,11745.6854,W,43.60,194.30,120410,,*2A
