NMEA Sentence Code,UTC Time,Status,Latitude,Latitude Direction,Longitude,Longitude Direction,Speed (knots),Track Angle (degrees true),Date,MagneticVariation,Magnetic Variation Direction,[FAA Mode]-Optional,Checksum
$GPRMC,143137.000,A,3249.6598,N,11700.1796,W,45.52,359.0,220910,,*13
$GPRMC,143140.000,A,3249.6955,N,11700.1800,W,41.60,359.4,220910,,*1F
$GPRMC,143143.000,A,3249.7300,N,11700.1798,W,41.75,359.5,220910,,*1C
$GPRMC,143146.000,A,3249.7641,N,11700.1799,W,39.78,359.5,220910,,*1A
$GPRMC,143149.000,A,3249.7962,N,11700.1800,W,35.58,0.0,220910,,*10
$GPRMC,143152.000,A,3249.8218,N,11700.1798,W,26.35,0.7,220910,,*13
$GPRMC,143155.000,A,3249.8414,N,11700.1800,W,22.30,359.7,220910,,*1E
$GPRMC,143158.000,A,3249.8590,N,11700.1802,W,21.38,359.8,220910,,*18
$GPRMC,143201.000,A,3249.8743,N,11700.1797,W,13.91,0.8,220910,,*15
$GPRMC,143204.000,A,3249.8821,N,11700.1794,W,7.31,1.7,220910,,*29
$GPRMC,143207.000,A,3249.8872,N,11700.1793,W,7.65,1.0,220910,,*2D
$GPRMC,143210.000,A,3249.8945,N,11700.1794,W,7.05,0.7,220910,,*29
$GPRMC,143213.000,A,3249.8987,N,11700.1794,W,4.71,0.7,220910,,*24
$GPRMC,143216.000,A,3249.9037,N,11700.1795,W,6.13,0.5,220910,,*27
$GPRMC,143219.000,A,3249.9101,N,11700.1794,W,8.10,0.3,220910,,*26
$GPRMC,143222.000,A,3249.9181,N,11700.1791,W,9.46,0.3,220910,,*21
$GPRMC,143225.000,A,3249.9242,N,11700.1786,W,4.82,0.4,220910,,*2E
$GPRMC,143228.000,A,3249.9289,N,11700.1783,W,6.31,0.8,220910,,*27
$GPRMC,143231.000,A,3249.9353,N,11700.1777,W,7.75,1.0,220910,,*2A
$GPRMC,143234.000,A,3249.9424,N,11700.1776,W,9.44,1.5,220910,,*20
$GPRMC,143237.000,A,3249.9537,N,11700.1768,W,15.08,2.3,220910,,*1F
$GPRMC,143240.000,A,3249.9677,N,11700.1760,W,17.23,1.9,220910,,*12
$GPRMC,143243.000,A,3249.9837,N,11700.1753,W,19.74,2.0,220910,,*1D
$GPRMC,143246.000,A,3250.0011,N,11700.1744,W,20.37,2.0,220910,,*1E
$GPRMC,143249.000,A,3250.0187,N,11700.1730,W,20.69,2.3,220910,,*14
$GPRMC,143252.000,A,3250.0355,N,11700.1717,W,18.30,2.7,220910,,*15
$GPRMC,143255.000,A,3250.0487,N,11700.1710,W,12.91,2.2,220910,,*19
$GPRMC,143258.000,A,3250.0585,N,11700.1708,W,7.99,358.8,220910,,*24
$GPRMC,143310.000,A,3250.0691,N,11700.1715,W,6.29,357.8,220910,,*26
$GPRMC,143313.000,A,3250.0755,N,11700.1721,W,8.78,354.6,220910,,*2C
$GPRMC,143316.000,A,3250.0830,N,11700.1733,W,8.97,351.2,220910,,*26
$GPRMC,143319.000,A,3250.0911,N,11700.1750,W,12.79,348.6,220910,,*19
$GPRMC,143322.000,A,3250.1048,N,11700.1789,W,18.82,345.0,220910,,*14
$GPRMC,143325.000,A,3250.1215,N,11700.1850,W,21.76,340.9,220910,,*1F
$GPRMC,143328.000,A,3250.1381,N,11700.1942,W,21.04,334.5,220910,,*16
$GPRMC,143331.000,A,3250.1532,N,11700.2048,W,20.11,328.0,220910,,*1D
$GPRMC,143334.000,A,3250.1661,N,11700.2161,W,17.05,322.7,220910,,*1B
$GPRMC,143337.000,A,3250.1762,N,11700.2265,W,14.81,317.6,220910,,*15
$GPRMC,143340.000,A,3250.1847,N,11700.2366,W,12.17,313.5,220910,,*11
$GPRMC,143343.000,A,3250.1910,N,11700.2455,W,11.71,310.0,220910,,*13
$GPRMC,143346.000,A,3250.1962,N,11700.2533,W,8.18,307.2,220910,,*21
$GPRMC,143349.000,A,3250.1990,N,11700.2588,W,5.39,306.7,220910,,*29
$GPRMC,143352.000,A,3250.2013,N,11700.2627,W,5.52,305.8,220910,,*25
$GPRMC,143355.000,A,3250.2046,N,11700.2675,W,6.80,304.0,220910,,*20
$GPRMC,143358.000,A,3250.2079,N,11700.2736,W,8.28,300.9,220910,,*26
$GPRMC,143401.000,A,3250.2119,N,11700.2820,W,11.11,298.1,220910,,*18
$GPRMC,143404.000,A,3250.2160,N,11700.2940,W,13.50,293.9,220910,,*10
$GPRMC,143407.000,A,3250.2189,N,11700.3054,W,10.37,288.8,220910,,*10
$GPRMC,143410.000,A,3250.2208,N,11700.3144,W,9.65,285.8,220910,,*2E
$GPRMC,143413.000,A,3250.2225,N,11700.3244,W,10.96,282.7,220910,,*1D
$GPRMC,143416.000,A,3250.2242,N,11700.3345,W,9.73,280.1,220910,,*2E
$GPRMC,143419.000,A,3250.2251,N,11700.3433,W,8.43,276.9,220910,,*26
$GPRMC,143422.000,A,3250.2256,N,11700.3512,W,8.16,275.1,220910,,*20
$GPRMC,143425.000,A,3250.2259,N,11700.3604,W,10.03,272.5,220910,,*12
$GPRMC,143428.000,A,3250.2263,N,11700.3710,W,11.46,270.6,220910,,*13
$GPRMC,143431.000,A,3250.2258,N,11700.3830,W,12.87,266.7,220910,,*16
$GPRMC,143434.000,A,3250.2245,N,11700.3960,W,13.14,263.0,220910,,*12
$GPRMC,143437.000,A,3250.2223,N,11700.4086,W,11.07,259.5,220910,,*1B
$GPRMC,143440.000,A,3250.2210,N,11700.4159,W,4.61,257.6,220910,,*21
$GPRMC,143501.000,A,3250.2203,N,11700.4238,W,7.11,260.0,220910,,*25
$GPRMC,143504.000,A,3250.2186,N,11700.4349,W,15.04,259.2,220910,,*16
$GPRMC,143507.000,A,3250.2151,N,11700.4528,W,20.45,257.6,220910,,*17
$GPRMC,143510.000,A,3250.2100,N,11700.4748,W,23.26,256.1,220910,,*11
$GPRMC,143513.000,A,3250.2053,N,11700.4981,W,21.77,256.0,220910,,*19
$GPRMC,143516.000,A,3250.2013,N,11700.5174,W,16.88,255.6,220910,,*1A
$GPRMC,143519.000,A,3250.1978,N,11700.5306,W,11.11,251.2,220910,,*12
$GPRMC,143522.000,A,3250.1955,N,11700.5375,W,5.83,248.0,220910,,*25
$GPRMC,143528.000,A,3250.1940,N,11700.5459,W,7.23,251.3,220910,,*21
$GPRMC,143531.000,A,3250.1929,N,11700.5553,W,13.72,259.5,220910,,*12
$GPRMC,143534.000,A,3250.1901,N,11700.5708,W,18.53,258.9,220910,,*14
$GPRMC,143537.000,A,3250.1861,N,11700.5898,W,19.97,256.3,220910,,*1B
$GPRMC,143540.000,A,3250.1819,N,11700.6085,W,18.66,255.7,220910,,*1B
$GPRMC,143543.000,A,3250.1783,N,11700.6255,W,16.81,256.0,220910,,*18
$GPRMC,143546.000,A,3250.1748,N,11700.6422,W,17.27,256.4,220910,,*15
$GPRMC,143549.000,A,3250.1715,N,11700.6589,W,17.86,257.6,220910,,*1A
$GPRMC,143552.000,A,3250.1687,N,11700.6761,W,18.16,259.2,220910,,*12
$GPRMC,143555.000,A,3250.1668,N,11700.6915,W,14.04,261.2,220910,,*1D
$GPRMC,143558.000,A,3250.1654,N,11700.7053,W,14.16,263.0,220910,,*16
$GPRMC,143601.000,A,3250.1644,N,11700.7196,W,14.06,264.4,220910,,*12
$GPRMC,143604.000,A,3250.1637,N,11700.7326,W,13.74,265.2,220910,,*1F
$GPRMC,143607.000,A,3250.1629,N,11700.7456,W,12.26,266.3,220910,,*17
$GPRMC,143610.000,A,3250.1622,N,11700.7567,W,10.58,268.2,220910,,*1D
$GPRMC,143613.000,A,3250.1620,N,11700.7681,W,14.44,269.5,220910,,*18
$GPRMC,143616.000,A,3250.1624,N,11700.7855,W,20.73,271.4,220910,,*15
$GPRMC,143619.000,A,3250.1636,N,11700.8079,W,23.45,273.1,220910,,*11
$GPRMC,143622.000,A,3250.1649,N,11700.8309,W,23.41,273.8,220910,,*18
$GPRMC,143625.000,A,3250.1662,N,11700.8541,W,23.32,273.8,220910,,*18
$GPRMC,143628.000,A,3250.1677,N,11700.8766,W,22.67,274.0,220910,,*18
$GPRMC,143631.000,A,3250.1689,N,11700.9019,W,28.50,273.7,220910,,*11
$GPRMC,143634.000,A,3250.1710,N,11700.9320,W,33.06,274.2,220910,,*17
$GPRMC,143637.000,A,3250.1730,N,11700.9663,W,34.71,274.4,220910,,*15
$GPRMC,143640.000,A,3250.1748,N,11701.0015,W,37.24,273.9,220910,,*1C
$GPRMC,143643.000,A,3250.1767,N,11701.0395,W,40.00,273.8,220910,,*1E
$GPRMC,143646.000,A,3250.1806,N,11701.0797,W,42.49,276.5,220910,,*12
$GPRMC,143649.000,A,3250.1872,N,11701.1219,W,44.14,281.5,220910,,*1A
$GPRMC,143652.000,A,3250.1979,N,11701.1642,W,45.50,287.5,220910,,*17
$GPRMC,143655.000,A,3250.2129,N,11701.2062,W,47.04,294.0,220910,,*1D
$GPRMC,143658.000,A,3250.2328,N,11701.2469,W,48.46,300.7,220910,,*1E
$GPRMC,143701.000,A,3250.2574,N,11701.2857,W,50.10,307.3,220910,,*14
$GPRMC,143704.000,A,3250.2851,N,11701.3207,W,46.24,313.4,220910,,*17
$GPRMC,143707.000,A,3250.3157,N,11701.3492,W,46.63,321.8,220910,,*1E
$GPRMC,143710.000,A,3250.3461,N,11701.3726,W,40.71,327.3,220910,,*1C
$GPRMC,143713.000,A,3250.3731,N,11701.3890,W,32.44,331.5,220910,,*19
$GPRMC,143716.000,A,3250.3927,N,11701.4002,W,20.62,333.1,220910,,*10
$GPRMC,143719.000,A,3250.4057,N,11701.4066,W,14.96,334.2,220910,,*1C
$GPRMC,143722.000,A,3250.4165,N,11701.4120,W,14.31,334.5,220910,,*1D
$GPRMC,143725.000,A,3250.4282,N,11701.4185,W,18.06,334.3,220910,,*11
$GPRMC,143728.000,A,3250.4435,N,11701.4268,W,22.85,335.0,220910,,*16
$GPRMC,143731.000,A,3250.4599,N,11701.4361,W,22.00,334.9,220910,,*14
$GPRMC,143734.000,A,3250.4778,N,11701.4459,W,26.25,334.5,220910,,*1F
$GPRMC,143737.000,A,3250.4995,N,11701.4582,W,31.26,334.2,220910,,*14
$GPRMC,143740.000,A,3250.5246,N,11701.4728,W,35.38,334.2,220910,,*19
$GPRMC,143743.000,A,3250.5532,N,11701.4886,W,37.58,334.3,220910,,*10
$GPRMC,143746.000,A,3250.5834,N,11701.5058,W,41.24,334.3,220910,,*1E
$GPRMC,143749.000,A,3250.6149,N,11701.5237,W,42.10,334.3,220910,,*1E
$GPRMC,143752.000,A,3250.6471,N,11701.5418,W,43.91,334.6,220910,,*1C
$GPRMC,143755.000,A,3250.6820,N,11701.5616,W,48.13,334.5,220910,,*1D
$GPRMC,143758.000,A,3250.7189,N,11701.5836,W,50.84,333.2,220910,,*10
$GPRMC,143801.000,A,3250.7557,N,11701.6080,W,49.37,330.0,220910,,*13
$GPRMC,143804.000,A,3250.7889,N,11701.6340,W,46.48,326.2,220910,,*15
$GPRMC,143807.000,A,3250.8191,N,11701.6607,W,44.02,323.1,220910,,*15
$GPRMC,143810.000,A,3250.8466,N,11701.6883,W,43.69,319.6,220910,,*18
$GPRMC,143813.000,A,3250.8729,N,11701.7180,W,43.39,316.4,220910,,*10
$GPRMC,143816.000,A,3250.8981,N,11701.7495,W,45.00,313.6,220910,,*13
$GPRMC,143819.000,A,3250.9233,N,11701.7838,W,46.45,310.7,220910,,*14
$GPRMC,143822.000,A,3250.9475,N,11701.8207,W,48.26,307.4,220910,,*1F
$GPRMC,143825.000,A,3250.9707,N,11701.8607,W,50.21,303.7,220910,,*13
$GPRMC,143828.000,A,3250.9920,N,11701.9034,W,50.21,300.3,220910,,*15
$GPRMC,143831.000,A,3251.0109,N,11701.9473,W,49.49,296.6,220910,,*1C
$GPRMC,143834.000,A,3251.0272,N,11701.9918,W,48.93,293.1,220910,,*12
$GPRMC,143837.000,A,3251.0414,N,11702.0373,W,48.46,289.6,220910,,*1E
$GPRMC,143840.000,A,3251.0532,N,11702.0822,W,47.07,286.3,220910,,*14
$GPRMC,143843.000,A,3251.0623,N,11702.1270,W,44.74,283.3,220910,,*1A
$GPRMC,143846.000,A,3251.0694,N,11702.1689,W,40.74,281.2,220910,,*16
$GPRMC,143849.000,A,3251.0752,N,11702.2056,W,36.07,280.2,220910,,*11
$GPRMC,143852.000,A,3251.0804,N,11702.2403,W,35.17,280.0,220910,,*13
$GPRMC,143855.000,A,3251.0849,N,11702.2723,W,30.94,280.0,220910,,*12
$GPRMC,143858.000,A,3251.0896,N,11702.3009,W,30.08,280.2,220910,,*14
$GPRMC,143901.000,A,3251.0946,N,11702.3325,W,34.87,280.1,220910,,*18
$GPRMC,143904.000,A,3251.0997,N,11702.3682,W,37.95,279.6,220910,,*18
$GPRMC,143907.000,A,3251.1052,N,11702.4045,W,35.60,279.6,220910,,*18
$GPRMC,143910.000,A,3251.1099,N,11702.4366,W,30.26,279.7,220910,,*1D
$GPRMC,143913.000,A,3251.1137,N,11702.4641,W,28.30,281.2,220910,,*17
$GPRMC,143916.000,A,3251.1185,N,11702.4915,W,26.80,280.9,220910,,*1A
$GPRMC,143919.000,A,3251.1220,N,11702.5163,W,25.68,280.2,220910,,*1F
$GPRMC,143922.000,A,3251.1263,N,11702.5434,W,29.68,280.1,220910,,*18
$GPRMC,143925.000,A,3251.1309,N,11702.5725,W,30.28,279.9,220910,,*13
$GPRMC,143928.000,A,3251.1352,N,11702.6026,W,32.60,279.9,220910,,*19
$GPRMC,143931.000,A,3251.1400,N,11702.6350,W,33.72,279.9,220910,,*11
$GPRMC,143934.000,A,3251.1451,N,11702.6679,W,33.71,280.1,220910,,*13
$GPRMC,143937.000,A,3251.1498,N,11702.6987,W,29.89,280.1,220910,,*17
$GPRMC,143940.000,A,3251.1544,N,11702.7289,W,32.93,279.9,220910,,*1C
$GPRMC,143943.000,A,3251.1592,N,11702.7624,W,35.77,280.2,220910,,*17
$GPRMC,143946.000,A,3251.1650,N,11702.7984,W,38.29,280.5,220910,,*1B
$GPRMC,143949.000,A,3251.1711,N,11702.8373,W,40.85,280.7,220910,,*16
$GPRMC,143952.000,A,3251.1774,N,11702.8784,W,42.63,280.5,220910,,*1B
$GPRMC,143955.000,A,3251.1843,N,11702.9207,W,44.61,280.6,220910,,*1F
$GPRMC,143958.000,A,3251.1910,N,11702.9648,W,45.11,280.0,220910,,*1A
$GPRMC,144001.000,A,3251.1976,N,11703.0087,W,45.31,280.2,220910,,*15
$GPRMC,144004.000,A,3251.2051,N,11703.0522,W,45.41,280.2,220910,,*12
$GPRMC,144007.000,A,3251.2115,N,11703.0963,W,45.34,279.9,220910,,*16
$GPRMC,144010.000,A,3251.2178,N,11703.1417,W,48.51,279.5,220910,,*16
$GPRMC,144013.000,A,3251.2251,N,11703.1904,W,50.61,279.6,220910,,*1B
$GPRMC,144016.000,A,3251.2320,N,11703.2399,W,50.17,279.8,220910,,*1B
$GPRMC,144019.000,A,3251.2391,N,11703.2882,W,49.58,280.0,220910,,*12
$GPRMC,144022.000,A,3251.2463,N,11703.3359,W,49.14,280.1,220910,,*15
$GPRMC,144025.000,A,3251.2539,N,11703.3839,W,49.16,280.1,220910,,*13
$GPRMC,144028.000,A,3251.2609,N,11703.4330,W,51.45,279.8,220910,,*1B
$GPRMC,144031.000,A,3251.2683,N,11703.4834,W,51.54,280.0,220910,,*10
$GPRMC,144034.000,A,3251.2764,N,11703.5332,W,51.53,280.2,220910,,*14
$GPRMC,144037.000,A,3251.2834,N,11703.5835,W,52.45,279.1,220910,,*10
$GPRMC,144040.000,A,3251.2890,N,11703.6364,W,54.52,276.7,220910,,*1B
$GPRMC,144043.000,A,3251.2921,N,11703.6904,W,54.47,273.3,220910,,*1A
$GPRMC,144046.000,A,3251.2928,N,11703.7435,W,52.43,269.9,220910,,*1B
$GPRMC,144049.000,A,3251.2905,N,11703.7952,W,52.36,266.5,220910,,*16
$GPRMC,144052.000,A,3251.2860,N,11703.8457,W,50.50,263.2,220910,,*19
$GPRMC,144055.000,A,3251.2788,N,11703.8958,W,52.42,260.1,220910,,*14
$GPRMC,144058.000,A,3251.2690,N,11703.9472,W,53.22,256.7,220910,,*11
$GPRMC,144101.000,A,3251.2570,N,11703.9971,W,52.62,253.2,220910,,*1A
$GPRMC,144104.000,A,3251.2422,N,11704.0466,W,53.40,249.7,220910,,*13
$GPRMC,144107.000,A,3251.2249,N,11704.0951,W,53.40,246.7,220910,,*1D
$GPRMC,144110.000,A,3251.2054,N,11704.1421,W,52.85,243.1,220910,,*15
$GPRMC,144113.000,A,3251.1834,N,11704.1870,W,52.71,239.7,220910,,*13
$GPRMC,144116.000,A,3251.1591,N,11704.2305,W,52.79,236.3,220910,,*1D
$GPRMC,144119.000,A,3251.1330,N,11704.2723,W,53.10,233.1,220910,,*16
$GPRMC,144122.000,A,3251.1052,N,11704.3121,W,52.90,229.8,220910,,*17
$GPRMC,144125.000,A,3251.0765,N,11704.3497,W,50.33,228.0,220910,,*18
$GPRMC,144128.000,A,3251.0486,N,11704.3857,W,48.94,227.3,220910,,*13
$GPRMC,144131.000,A,3251.0209,N,11704.4207,W,47.88,227.3,220910,,*10
$GPRMC,144134.000,A,3250.9933,N,11704.4559,W,48.73,227.4,220910,,*1F
$GPRMC,144137.000,A,3250.9661,N,11704.4907,W,48.55,227.2,220910,,*11
$GPRMC,144140.000,A,3250.9379,N,11704.5269,W,50.99,226.9,220910,,*1C
$GPRMC,144143.000,A,3250.9085,N,11704.5640,W,51.64,226.7,220910,,*1D
$GPRMC,144146.000,A,3250.8786,N,11704.6011,W,52.46,226.6,220910,,*1E
$GPRMC,144149.000,A,3250.8482,N,11704.6393,W,52.68,226.7,220910,,*12
$GPRMC,144152.000,A,3250.8186,N,11704.6770,W,53.22,227.3,220910,,*1A
$GPRMC,144155.000,A,3250.7889,N,11704.7160,W,53.63,228.3,220910,,*18
$GPRMC,144158.000,A,3250.7605,N,11704.7562,W,53.63,230.4,220910,,*17
$GPRMC,144201.000,A,3250.7331,N,11704.7979,W,53.48,233.0,220910,,*12
$GPRMC,144204.000,A,3250.7083,N,11704.8422,W,53.96,236.8,220910,,*1F
$GPRMC,144207.000,A,3250.6859,N,11704.8891,W,55.14,240.6,220910,,*15
$GPRMC,144210.000,A,3250.6650,N,11704.9385,W,56.39,243.7,220910,,*15
$GPRMC,144213.000,A,3250.6463,N,11704.9900,W,56.91,247.0,220910,,*12
$GPRMC,144216.000,A,3250.6305,N,11705.0428,W,56.89,250.6,220910,,*16
$GPRMC,144219.000,A,3250.6170,N,11705.0970,W,57.09,253.5,220910,,*10
$GPRMC,144222.000,A,3250.6049,N,11705.1521,W,57.43,254.9,220910,,*1F
$GPRMC,144225.000,A,3250.5925,N,11705.2069,W,57.37,254.9,220910,,*11
$GPRMC,144228.000,A,3250.5802,N,11705.2620,W,57.71,255.1,220910,,*18
$GPRMC,144231.000,A,3250.5682,N,11705.3169,W,57.56,255.1,220910,,*18
$GPRMC,144234.000,A,3250.5558,N,11705.3721,W,58.12,255.0,220910,,*1D
$GPRMC,144237.000,A,3250.5431,N,11705.4278,W,58.07,254.9,220910,,*12
$GPRMC,144240.000,A,3250.5305,N,11705.4834,W,58.56,255.0,220910,,*1C
$GPRMC,144243.000,A,3250.5182,N,11705.5391,W,59.09,255.1,220910,,*1D
$GPRMC,144246.000,A,3250.5056,N,11705.5954,W,58.12,255.2,220910,,*1B
$GPRMC,144249.000,A,3250.4942,N,11705.6505,W,56.93,257.3,220910,,*16
$GPRMC,144252.000,A,3250.4871,N,11705.7053,W,56.29,262.1,220910,,*1F
$GPRMC,144255.000,A,3250.4843,N,11705.7609,W,57.02,266.5,220910,,*18
$GPRMC,144258.000,A,3250.4843,N,11705.8175,W,58.75,270.1,220910,,*1A
$GPRMC,144301.000,A,3250.4867,N,11705.8756,W,59.38,272.2,220910,,*1F
$GPRMC,144304.000,A,3250.4890,N,11705.9343,W,59.43,272.6,220910,,*1B
$GPRMC,144307.000,A,3250.4914,N,11705.9925,W,58.28,272.7,220910,,*12
$GPRMC,144310.000,A,3250.4932,N,11706.0493,W,56.34,272.6,220910,,*18
$GPRMC,144313.000,A,3250.4951,N,11706.1051,W,56.77,272.6,220910,,*12
$GPRMC,144316.000,A,3250.4974,N,11706.1617,W,58.06,272.6,220910,,*1C
$GPRMC,144319.000,A,3250.4998,N,11706.2197,W,59.34,272.7,220910,,*1C
$GPRMC,144322.000,A,3250.5024,N,11706.2784,W,59.13,272.8,220910,,*15
$GPRMC,144325.000,A,3250.5049,N,11706.3368,W,58.71,272.8,220910,,*1B
$GPRMC,144328.000,A,3250.5072,N,11706.3941,W,58.15,272.7,220910,,*12
$GPRMC,144331.000,A,3250.5093,N,11706.4518,W,58.64,272.6,220910,,*15
$GPRMC,144334.000,A,3250.5115,N,11706.5099,W,58.30,272.7,220910,,*12
$GPRMC,144337.000,A,3250.5138,N,11706.5672,W,57.97,272.6,220910,,*1E
$GPRMC,144340.000,A,3250.5159,N,11706.6253,W,59.05,272.4,220910,,*1A
$GPRMC,144343.000,A,3250.5178,N,11706.6829,W,58.50,272.5,220910,,*1D
$GPRMC,144346.000,A,3250.5200,N,11706.7406,W,58.14,272.4,220910,,*15
$GPRMC,144349.000,A,3250.5209,N,11706.7984,W,58.60,270.9,220910,,*18
$GPRMC,144352.000,A,3250.5211,N,11706.8562,W,58.12,269.6,220910,,*12
$GPRMC,144355.000,A,3250.5201,N,11706.9138,W,58.21,269.0,220910,,*18
$GPRMC,144358.000,A,3250.5194,N,11706.9716,W,58.18,269.3,220910,,*19
$GPRMC,144401.000,A,3250.5195,N,11707.0294,W,59.34,270.1,220910,,*11
$GPRMC,144404.000,A,3250.5192,N,11707.0892,W,60.94,269.8,220910,,*1E
$GPRMC,144407.000,A,3250.5188,N,11707.1493,W,61.27,269.2,220910,,*19
$GPRMC,144410.000,A,3250.5187,N,11707.2067,W,56.01,269.7,220910,,*19
$GPRMC,144413.000,A,3250.5180,N,11707.2588,W,50.77,269.3,220910,,*1A
$GPRMC,144416.000,A,3250.5174,N,11707.3072,W,48.48,269.2,220910,,*11
$GPRMC,144419.000,A,3250.5165,N,11707.3549,W,48.18,269.2,220910,,*16
$GPRMC,144422.000,A,3250.5160,N,11707.4030,W,50.33,268.8,220910,,*1C
$GPRMC,144425.000,A,3250.5136,N,11707.4548,W,55.39,267.4,220910,,*1E
$GPRMC,144428.000,A,3250.5122,N,11707.5131,W,61.86,268.7,220910,,*12
$GPRMC,144431.000,A,3250.5127,N,11707.5766,W,63.70,270.2,220910,,*1C
$GPRMC,144434.000,A,3250.5111,N,11707.6386,W,61.80,267.9,220910,,*15
$GPRMC,144437.000,A,3250.5080,N,11707.7003,W,62.03,266.4,220910,,*14
$GPRMC,144440.000,A,3250.5032,N,11707.7613,W,60.81,264.8,220910,,*1C
$GPRMC,144443.000,A,3250.4974,N,11707.8204,W,60.03,262.9,220910,,*15
$GPRMC,144446.000,A,3250.4898,N,11707.8794,W,60.30,261.7,220910,,*12
$GPRMC,144449.000,A,3250.4825,N,11707.9381,W,59.91,261.7,220910,,*1B
$GPRMC,144452.000,A,3250.4758,N,11707.9967,W,59.92,262.2,220910,,*13
$GPRMC,144455.000,A,3250.4690,N,11708.0554,W,59.62,262.7,220910,,*11
$GPRMC,144458.000,A,3250.4618,N,11708.1129,W,58.50,263.0,220910,,*15
$GPRMC,144501.000,A,3250.4550,N,11708.1700,W,59.30,262.0,220910,,*1C
$GPRMC,144504.000,A,3250.4484,N,11708.2283,W,60.49,261.8,220910,,*13
$GPRMC,144507.000,A,3250.4400,N,11708.2874,W,61.31,259.4,220910,,*17
$GPRMC,144510.000,A,3250.4298,N,11708.3464,W,61.81,257.5,220910,,*1E
$GPRMC,144513.000,A,3250.4191,N,11708.4062,W,62.81,257.5,220910,,*11
$GPRMC,144516.000,A,3250.4070,N,11708.4659,W,62.33,256.1,220910,,*18
$GPRMC,144519.000,A,3250.3947,N,11708.5253,W,62.12,256.0,220910,,*10
$GPRMC,144522.000,A,3250.3828,N,11708.5851,W,63.06,256.1,220910,,*1D
$GPRMC,144525.000,A,3250.3705,N,11708.6454,W,63.64,256.2,220910,,*17
$GPRMC,144528.000,A,3250.3579,N,11708.7055,W,61.89,256.2,220910,,*16
$GPRMC,144531.000,A,3250.3459,N,11708.7633,W,59.43,256.3,220910,,*17
$GPRMC,144534.000,A,3250.3344,N,11708.8191,W,57.02,256.4,220910,,*15
$GPRMC,144537.000,A,3250.3229,N,11708.8734,W,55.88,256.1,220910,,*10
$GPRMC,144540.000,A,3250.3118,N,11708.9259,W,55.01,255.6,220910,,*1B
$GPRMC,144543.000,A,3250.3000,N,11708.9799,W,57.70,255.3,220910,,*18
$GPRMC,144546.000,A,3250.2879,N,11709.0368,W,60.50,256.1,220910,,*1F
$GPRMC,144549.000,A,3250.2754,N,11709.0966,W,63.15,256.3,220910,,*14
$GPRMC,144552.000,A,3250.2634,N,11709.1572,W,62.36,256.6,220910,,*14
$GPRMC,144555.000,A,3250.2534,N,11709.2182,W,62.67,260.5,220910,,*1A
$GPRMC,144558.000,A,3250.2483,N,11709.2804,W,62.07,265.1,220910,,*1A
$GPRMC,144601.000,A,3250.2497,N,11709.3405,W,60.06,272.2,220910,,*1A
$GPRMC,144604.000,A,3250.2562,N,11709.3968,W,54.81,277.7,220910,,*1A
$GPRMC,144607.000,A,3250.2655,N,11709.4475,W,51.70,282.1,220910,,*1F
$GPRMC,144610.000,A,3250.2774,N,11709.4944,W,48.83,287.1,220910,,*15
$GPRMC,144613.000,A,3250.2919,N,11709.5368,W,43.27,290.9,220910,,*1D
$GPRMC,144616.000,A,3250.3064,N,11709.5714,W,36.15,294.8,220910,,*13
$GPRMC,144619.000,A,3250.3202,N,11709.6006,W,33.33,298.1,220910,,*1D
$GPRMC,144622.000,A,3250.3341,N,11709.6266,W,30.95,301.6,220910,,*1E
$GPRMC,144625.000,A,3250.3471,N,11709.6486,W,23.83,303.5,220910,,*11
$GPRMC,144628.000,A,3250.3587,N,11709.6643,W,19.89,307.7,220910,,*1A
$GPRMC,144631.000,A,3250.3694,N,11709.6781,W,19.63,310.3,220910,,*1A
$GPRMC,144634.000,A,3250.3811,N,11709.6921,W,22.21,311.8,220910,,*1C
$GPRMC,144637.000,A,3250.3958,N,11709.7108,W,29.94,311.8,220910,,*14
$GPRMC,144640.000,A,3250.4147,N,11709.7351,W,34.96,311.8,220910,,*15
$GPRMC,144643.000,A,3250.4359,N,11709.7619,W,37.73,312.0,220910,,*11
$GPRMC,144646.000,A,3250.4570,N,11709.7891,W,34.95,312.1,220910,,*1D
$GPRMC,144649.000,A,3250.4745,N,11709.8117,W,27.99,312.1,220910,,*10
$GPRMC,144652.000,A,3250.4890,N,11709.8314,W,26.28,311.9,220910,,*1C
$GPRMC,144655.000,A,3250.5025,N,11709.8488,W,22.48,311.7,220910,,*12
$GPRMC,144658.000,A,3250.5143,N,11709.8642,W,21.24,312.3,220910,,*14
$GPRMC,144701.000,A,3250.5277,N,11709.8810,W,26.49,312.6,220910,,*1D
$GPRMC,144704.000,A,3250.5437,N,11709.9019,W,29.78,312.4,220910,,*15
$GPRMC,144707.000,A,3250.5620,N,11709.9255,W,33.19,312.4,220910,,*14
$GPRMC,144710.000,A,3250.5807,N,11709.9498,W,32.96,312.4,220910,,*18
$GPRMC,144713.000,A,3250.5996,N,11709.9749,W,34.34,312.1,220910,,*16
$GPRMC,144716.000,A,3250.6189,N,11710.0005,W,36.64,312.1,220910,,*1F
$GPRMC,144719.000,A,3250.6402,N,11710.0279,W,38.64,311.9,220910,,*1A
$GPRMC,144722.000,A,3250.6622,N,11710.0573,W,41.61,312.1,220910,,*1F
$GPRMC,144725.000,A,3250.6867,N,11710.0893,W,44.89,312.2,220910,,*14
$GPRMC,144728.000,A,3250.7113,N,11710.1226,W,43.18,310.5,220910,,*1D
$GPRMC,144731.000,A,3250.7331,N,11710.1562,W,42.69,307.2,220910,,*16
$GPRMC,144734.000,A,3250.7519,N,11710.1888,W,36.78,303.6,220910,,*15
$GPRMC,144737.000,A,3250.7667,N,11710.2183,W,33.54,300.0,220910,,*13
$GPRMC,144740.000,A,3250.7784,N,11710.2454,W,29.80,297.3,220910,,*1E
$GPRMC,144743.000,A,3250.7888,N,11710.2708,W,26.53,296.3,220910,,*14
$GPRMC,144746.000,A,3250.7974,N,11710.2919,W,22.75,295.3,220910,,*1E
$GPRMC,144749.000,A,3250.8048,N,11710.3115,W,21.38,293.9,220910,,*1B
$GPRMC,144752.000,A,3250.8109,N,11710.3289,W,16.80,292.0,220910,,*1C
$GPRMC,144755.000,A,3250.8154,N,11710.3421,W,13.65,290.6,220910,,*1D
$GPRMC,144758.000,A,3250.8185,N,11710.3505,W,4.74,291.3,220910,,*29
$GPRMC,144807.000,A,3250.8189,N,11710.3531,W,4.42,291.3,220910,,*22
$GPRMC,144810.000,A,3250.8205,N,11710.3589,W,8.12,288.6,220910,,*24
$GPRMC,144813.000,A,3250.8227,N,11710.3682,W,10.79,287.2,220910,,*10
$GPRMC,144816.000,A,3250.8249,N,11710.3769,W,5.39,286.7,220910,,*2D
$GPRMC,144828.000,A,3250.8263,N,11710.3844,W,6.54,286.3,220910,,*24
$GPRMC,144831.000,A,3250.8279,N,11710.3912,W,8.51,285.8,220910,,*26
$GPRMC,144834.000,A,3250.8296,N,11710.4004,W,10.98,285.4,220910,,*1B
$GPRMC,144837.000,A,3250.8323,N,11710.4118,W,12.53,285.7,220910,,*1D
$GPRMC,144840.000,A,3250.8356,N,11710.4242,W,13.71,286.3,220910,,*15
$GPRMC,144843.000,A,3250.8385,N,11710.4354,W,9.06,286.3,220910,,*25
$GPRMC,144849.000,A,3250.8411,N,11710.4438,W,5.43,285.2,220910,,*27
$GPRMC,144855.000,A,3250.8422,N,11710.4494,W,5.57,283.4,220910,,*29
$GPRMC,144858.000,A,3250.8441,N,11710.4575,W,10.45,283.4,220910,,*18
$GPRMC,144901.000,A,3250.8465,N,11710.4699,W,14.61,285.1,220910,,*13
$GPRMC,144904.000,A,3250.8510,N,11710.4877,W,21.45,284.8,220910,,*13
$GPRMC,144907.000,A,3250.8564,N,11710.5104,W,24.77,285.6,220910,,*14
$GPRMC,144910.000,A,3250.8632,N,11710.5363,W,28.52,286.0,220910,,*1F
$GPRMC,144913.000,A,3250.8699,N,11710.5637,W,26.15,286.1,220910,,*15
$GPRMC,144916.000,A,3250.8759,N,11710.5864,W,21.72,287.4,220910,,*17
$GPRMC,144919.000,A,3250.8813,N,11710.6044,W,17.23,290.3,220910,,*10
$GPRMC,144922.000,A,3250.8858,N,11710.6178,W,13.10,293.2,220910,,*1F
$GPRMC,144925.000,A,3250.8901,N,11710.6284,W,13.04,294.9,220910,,*1C
$GPRMC,144928.000,A,3250.8962,N,11710.6415,W,16.47,298.5,220910,,*18
$GPRMC,144931.000,A,3250.9026,N,11710.6546,W,15.32,301.9,220910,,*13
$GPRMC,144934.000,A,3250.9109,N,11710.6679,W,17.39,305.2,220910,,*13
$GPRMC,144937.000,A,3250.9204,N,11710.6821,W,18.76,308.7,220910,,*11
$GPRMC,144940.000,A,3250.9289,N,11710.6940,W,12.71,311.7,220910,,*17
$GPRMC,144943.000,A,3250.9370,N,11710.7033,W,16.07,316.3,220910,,*19
$GPRMC,144946.000,A,3250.9477,N,11710.7149,W,17.20,318.3,220910,,*1A
$GPRMC,144949.000,A,3250.9596,N,11710.7264,W,20.87,322.4,220910,,*10
$GPRMC,144952.000,A,3250.9764,N,11710.7394,W,23.54,326.6,220910,,*10
$GPRMC,144955.000,A,3250.9904,N,11710.7504,W,16.36,327.3,220910,,*16
$GPRMC,144958.000,A,3251.0004,N,11710.7583,W,14.96,328.2,220910,,*13
$GPRMC,145001.000,A,3251.0125,N,11710.7671,W,18.75,326.3,220910,,*15
$GPRMC,145004.000,A,3251.0284,N,11710.7793,W,21.42,329.0,220910,,*17
$GPRMC,145007.000,A,3251.0399,N,11710.7865,W,9.80,332.6,220910,,*27
$GPRMC,145010.000,A,3251.0465,N,11710.7904,W,9.08,332.6,220910,,*23
$GPRMC,145013.000,A,3251.0554,N,11710.7964,W,16.48,332.9,220910,,*10
$GPRMC,145016.000,A,3251.0680,N,11710.8037,W,17.78,332.9,220910,,*1D
$GPRMC,145019.000,A,3251.0813,N,11710.8116,W,16.64,333.2,220910,,*12
$GPRMC,145022.000,A,3251.0941,N,11710.8203,W,21.12,329.5,220910,,*12
$GPRMC,145025.000,A,3251.1121,N,11710.8327,W,25.02,331.2,220910,,*16
$GPRMC,145028.000,A,3251.1312,N,11710.8443,W,25.76,332.6,220910,,*18
$GPRMC,145031.000,A,3251.1512,N,11710.8570,W,28.82,332.8,220910,,*1F
$GPRMC,145034.000,A,3251.1724,N,11710.8698,W,27.71,332.7,220910,,*14
$GPRMC,145037.000,A,3251.1942,N,11710.8832,W,32.53,332.8,220910,,*1C
$GPRMC,145040.000,A,3251.2203,N,11710.8993,W,36.81,332.8,220910,,*10
$GPRMC,145043.000,A,3251.2469,N,11710.9156,W,34.90,332.7,220910,,*14
$GPRMC,145046.000,A,3251.2737,N,11710.9318,W,37.32,333.1,220910,,*1D
$GPRMC,145049.000,A,3251.3010,N,11710.9487,W,35.89,332.9,220910,,*1B
$GPRMC,145052.000,A,3251.3283,N,11710.9652,W,36.34,332.9,220910,,*16
$GPRMC,145055.000,A,3251.3545,N,11710.9811,W,33.98,333.0,220910,,*1E
$GPRMC,145058.000,A,3251.3791,N,11710.9961,W,34.47,332.8,220910,,*12
$GPRMC,145101.000,A,3251.4065,N,11711.0129,W,39.29,332.9,220910,,*1C
$GPRMC,145104.000,A,3251.4373,N,11711.0320,W,44.06,332.8,220910,,*10
$GPRMC,145107.000,A,3251.4712,N,11711.0524,W,46.34,332.8,220910,,*11
$GPRMC,145110.000,A,3251.5053,N,11711.0731,W,46.77,332.8,220910,,*15
$GPRMC,145113.000,A,3251.5407,N,11711.0949,W,48.99,332.9,220910,,*1D
$GPRMC,145116.000,A,3251.5771,N,11711.1178,W,49.74,331.6,220910,,*1F
$GPRMC,145119.000,A,3251.6130,N,11711.1436,W,50.67,328.7,220910,,*1C
$GPRMC,145122.000,A,3251.6486,N,11711.1721,W,52.91,325.7,220910,,*1F
$GPRMC,145125.000,A,3251.6849,N,11711.2043,W,55.87,322.8,220910,,*1F
$GPRMC,145128.000,A,3251.7214,N,11711.2389,W,56.34,321.6,220910,,*12
$GPRMC,145131.000,A,3251.7584,N,11711.2744,W,58.56,321.2,220910,,*1F
$GPRMC,145134.000,A,3251.7968,N,11711.3111,W,59.63,321.1,220910,,*17
$GPRMC,145137.000,A,3251.8355,N,11711.3480,W,59.11,321.3,220910,,*15
$GPRMC,145140.000,A,3251.8730,N,11711.3841,W,57.30,321.2,220910,,*1F
$GPRMC,145143.000,A,3251.9100,N,11711.4186,W,55.80,321.4,220910,,*12
$GPRMC,145146.000,A,3251.9458,N,11711.4526,W,54.11,321.3,220910,,*1F
$GPRMC,145149.000,A,3251.9814,N,11711.4870,W,55.71,321.1,220910,,*1F
$GPRMC,145152.000,A,3252.0183,N,11711.5217,W,57.38,321.1,220910,,*1D
$GPRMC,145155.000,A,3252.0560,N,11711.5577,W,58.99,321.1,220910,,*16
$GPRMC,145158.000,A,3252.0943,N,11711.5938,W,57.79,321.3,220910,,*12
$GPRMC,145201.000,A,3252.1312,N,11711.6287,W,55.45,321.4,220910,,*14
$GPRMC,145204.000,A,3252.1663,N,11711.6626,W,54.21,321.2,220910,,*18
$GPRMC,145207.000,A,3252.2016,N,11711.6969,W,55.25,321.4,220910,,*1B
$GPRMC,145210.000,A,3252.2368,N,11711.7311,W,54.74,320.6,220910,,*15
$GPRMC,145213.000,A,3252.2725,N,11711.7650,W,56.50,322.0,220910,,*1B
$GPRMC,145216.000,A,3252.3101,N,11711.7977,W,55.24,322.7,220910,,*12
$GPRMC,145219.000,A,3252.3460,N,11711.8312,W,55.63,322.6,220910,,*1B
$GPRMC,145222.000,A,3252.3837,N,11711.8627,W,55.35,325.3,220910,,*1F
$GPRMC,145225.000,A,3252.4232,N,11711.8914,W,54.70,328.6,220910,,*17
$GPRMC,145228.000,A,3252.4633,N,11711.9176,W,54.91,331.8,220910,,*1B
$GPRMC,145231.000,A,3252.5029,N,11711.9414,W,52.06,334.6,220910,,*1D
$GPRMC,145234.000,A,3252.5421,N,11711.9616,W,50.40,337.3,220910,,*12
$GPRMC,145237.000,A,3252.5810,N,11711.9782,W,49.30,340.5,220910,,*1A
$GPRMC,145240.000,A,3252.6202,N,11711.9918,W,48.70,343.4,220910,,*1A
$GPRMC,145243.000,A,3252.6595,N,11712.0032,W,48.69,345.5,220910,,*14
$GPRMC,145246.000,A,3252.6979,N,11712.0156,W,48.85,345.7,220910,,*1C
$GPRMC,145249.000,A,3252.7380,N,11712.0272,W,46.09,345.8,220910,,*1E
$GPRMC,145252.000,A,3252.7730,N,11712.0371,W,40.87,345.9,220910,,*18
$GPRMC,145255.000,A,3252.8060,N,11712.0471,W,42.70,346.2,220910,,*17
$GPRMC,145258.000,A,3252.8395,N,11712.0573,W,39.96,346.2,220910,,*14
$GPRMC,145301.000,A,3252.8697,N,11712.0660,W,36.86,347.2,220910,,*10
$GPRMC,145304.000,A,3252.8965,N,11712.0740,W,34.22,347.4,220910,,*1E
$GPRMC,145307.000,A,3252.9240,N,11712.0820,W,35.31,346.8,220910,,*17
$GPRMC,145310.000,A,3252.9529,N,11712.0905,W,36.77,346.5,220910,,*13
$GPRMC,145313.000,A,3252.9839,N,11712.1000,W,41.05,346.4,220910,,*15
$GPRMC,145316.000,A,3253.0185,N,11712.1104,W,46.43,346.3,220910,,*11
$GPRMC,145319.000,A,3253.0572,N,11712.1214,W,50.23,347.5,220910,,*16
$GPRMC,145322.000,A,3253.0983,N,11712.1299,W,51.43,350.6,220910,,*1B
$GPRMC,145325.000,A,3253.1404,N,11712.1386,W,51.75,350.0,220910,,*13
$GPRMC,145328.000,A,3253.1824,N,11712.1496,W,51.53,346.8,220910,,*1D
$GPRMC,145331.000,A,3253.2221,N,11712.1633,W,48.35,344.2,220910,,*14
$GPRMC,145334.000,A,3253.2581,N,11712.1782,W,43.30,340.8,220910,,*17
$GPRMC,145337.000,A,3253.2903,N,11712.1941,W,39.99,337.3,220910,,*16
$GPRMC,145340.000,A,3253.3189,N,11712.2104,W,37.10,334.8,220910,,*10
$GPRMC,145343.000,A,3253.3450,N,11712.2270,W,33.33,332.0,220910,,*19
$GPRMC,145346.000,A,3253.3665,N,11712.2416,W,25.48,329.4,220910,,*1B
$GPRMC,145349.000,A,3253.3792,N,11712.2510,W,12.36,329.6,220910,,*15
$GPRMC,145419.000,A,3253.3832,N,11712.2545,W,4.44,330.3,220910,,*2D
$GPRMC,145422.000,A,3253.3871,N,11712.2577,W,5.05,329.2,220910,,*2E
$GPRMC,145428.000,A,3253.3895,N,11712.2605,W,6.88,330.1,220910,,*25
$GPRMC,145431.000,A,3253.3986,N,11712.2649,W,14.22,334.9,220910,,*19
$GPRMC,145434.000,A,3253.4124,N,11712.2706,W,17.82,339.8,220910,,*14
$GPRMC,145437.000,A,3253.4276,N,11712.2763,W,19.81,342.1,220910,,*18
$GPRMC,145440.000,A,3253.4457,N,11712.2824,W,21.46,342.6,220910,,*16
$GPRMC,145443.000,A,3253.4607,N,11712.2880,W,16.43,342.3,220910,,*18
$GPRMC,145446.000,A,3253.4736,N,11712.2916,W,14.48,348.5,220910,,*15
$GPRMC,145449.000,A,3253.4865,N,11712.2871,W,18.69,29.2,220910,,*2F
$GPRMC,145452.000,A,3253.5009,N,11712.2710,W,25.75,43.4,220910,,*27
$GPRMC,145455.000,A,3253.5160,N,11712.2484,W,30.24,50.2,220910,,*24
$GPRMC,145458.000,A,3253.5290,N,11712.2245,W,22.10,56.4,220910,,*2A
$GPRMC,145501.000,A,3253.5349,N,11712.2091,W,13.07,63.3,220910,,*2C
$GPRMC,145504.000,A,3253.5374,N,11712.2013,W,5.80,61.9,220910,,*1D
$GPRMC,145528.000,A,3253.5377,N,11712.1953,W,8.90,66.2,220910,,*1E
$GPRMC,145531.000,A,3253.5423,N,11712.1846,W,14.79,62.9,220910,,*20
$GPRMC,145534.000,A,3253.5487,N,11712.1652,W,24.89,70.5,220910,,*23
$GPRMC,145537.000,A,3253.5534,N,11712.1373,W,30.62,79.1,220910,,*22
$GPRMC,145540.000,A,3253.5551,N,11712.1097,W,22.54,86.0,220910,,*2F
$GPRMC,145543.000,A,3253.5595,N,11712.0927,W,17.62,69.2,220910,,*27
$GPRMC,145546.000,A,3253.5746,N,11712.0902,W,19.50,359.8,220910,,*1C
$GPRMC,145549.000,A,3253.5964,N,11712.0926,W,29.03,359.3,220910,,*15
$GPRMC,145552.000,A,3253.6228,N,11712.0960,W,30.58,353.8,220910,,*1A
$GPRMC,145555.000,A,3253.6472,N,11712.1061,W,28.28,340.2,220910,,*1B
$GPRMC,145558.000,A,3253.6659,N,11712.1215,W,25.16,324.3,220910,,*1F
$GPRMC,145601.000,A,3253.6800,N,11712.1368,W,17.18,317.5,220910,,*10
$GPRMC,145604.000,A,3253.6871,N,11712.1449,W,5.10,319.4,220910,,*23
$GPRMC,145622.000,A,3253.6932,N,11712.1517,W,15.94,320.3,220910,,*1B
$GPRMC,145625.000,A,3253.7085,N,11712.1626,W,23.57,330.1,220910,,*10
$GPRMC,145628.000,A,3253.7299,N,11712.1698,W,25.59,346.5,220910,,*1A
$GPRMC,145631.000,A,3253.7524,N,11712.1693,W,24.70,2.4,220910,,*10
$GPRMC,145634.000,A,3253.7730,N,11712.1694,W,24.90,1.6,220910,,*1A
$GPRMC,145637.000,A,3253.7956,N,11712.1686,W,26.59,2.4,220910,,*12
$GPRMC,145640.000,A,3253.8187,N,11712.1681,W,27.10,2.1,220910,,*17
$GPRMC,145643.000,A,3253.8406,N,11712.1679,W,25.52,1.0,220910,,*19
$GPRMC,145646.000,A,3253.8606,N,11712.1668,W,21.99,0.8,220910,,*14
$GPRMC,145649.000,A,3253.8785,N,11712.1665,W,20.96,1.3,220910,,*18
$GPRMC,145652.000,A,3253.8962,N,11712.1658,W,19.64,2.3,220910,,*1F
$GPRMC,145655.000,A,3253.9123,N,11712.1620,W,18.85,14.7,220910,,*26
$GPRMC,145658.000,A,3253.9265,N,11712.1513,W,20.36,33.8,220910,,*20
$GPRMC,145701.000,A,3253.9377,N,11712.1332,W,23.15,55.0,220910,,*20
$GPRMC,145704.000,A,3253.9438,N,11712.1087,W,24.84,72.4,220910,,*2A
$GPRMC,145707.000,A,3253.9479,N,11712.0826,W,27.06,77.6,220910,,*20
$GPRMC,145710.000,A,3253.9518,N,11712.0559,W,26.41,78.8,220910,,*26
$GPRMC,145713.000,A,3253.9560,N,11712.0288,W,28.49,79.0,220910,,*2E
$GPRMC,145716.000,A,3253.9605,N,11712.0008,W,28.38,77.7,220910,,*2E
$GPRMC,145719.000,A,3253.9651,N,11711.9740,W,26.51,78.3,220910,,*2B
$GPRMC,145722.000,A,3253.9698,N,11711.9474,W,27.42,79.0,220910,,*23
$GPRMC,145725.000,A,3253.9740,N,11711.9202,W,27.66,78.8,220910,,*28
$GPRMC,145728.000,A,3253.9782,N,11711.8946,W,25.64,78.8,220910,,*21
$GPRMC,145731.000,A,3253.9823,N,11711.8700,W,25.26,78.8,220910,,*27
$GPRMC,145734.000,A,3253.9867,N,11711.8449,W,25.37,78.2,220910,,*26
$GPRMC,145737.000,A,3253.9910,N,11711.8203,W,24.99,78.8,220910,,*23
$GPRMC,145740.000,A,3253.9948,N,11711.7973,W,21.99,77.3,220910,,*2C
$GPRMC,145743.000,A,3253.9989,N,11711.7771,W,20.51,75.7,220910,,*2D
$GPRMC,145746.000,A,3254.0025,N,11711.7603,W,12.14,77.0,220910,,*28
$GPRMC,145749.000,A,3254.0070,N,11711.7499,W,15.77,38.6,220910,,*29
$GPRMC,145752.000,A,3254.0236,N,11711.7493,W,22.03,351.4,220910,,*10
$GPRMC,145755.000,A,3254.0446,N,11711.7608,W,30.01,336.1,220910,,*13
$GPRMC,145758.000,A,3254.0678,N,11711.7799,W,34.16,323.4,220910,,*1B
$GPRMC,145801.000,A,3254.0890,N,11711.8064,W,36.13,313.1,220910,,*1B
