NMEA Sentence Code,UTC Time,Status,Latitude,Latitude Direction,Longitude,Longitude Direction,Speed (knots),Track Angle (degrees true),Date,MagneticVariation,Magnetic Variation Direction,[FAA Mode]-Optional,Checksum
$GPRMC,014826.318,A,3352.0409,N,11547.9407,W,37.64,328.60,230310,,*2E
$GPRMC,014827.318,A,3352.0498,N,11547.9477,W,37.94,326.47,230310,,*24
$GPRMC,014828.318,A,3352.0586,N,11547.9551,W,38.48,325.25,230310,,*29
$GPRMC,014829.318,A,3352.0674,N,11547.9626,W,38.83,324.47,230310,,*27
$GPRMC,014830.317,A,3352.0762,N,11547.9704,W,39.06,323.52,230310,,*28
$GPRMC,014831.317,A,3352.0851,N,11547.9785,W,39.80,322.95,230310,,*2B
$GPRMC,014833.317,A,3352.1027,N,11547.9951,W,40.45,322.12,230310,,*2E
$GPRMC,014834.317,A,3352.1116,N,11548.0036,W,40.78,321.77,230310,,*2A
$GPRMC,014835.317,A,3352.1205,N,11548.0123,W,41.11,321.16,230310,,*26
$GPRMC,014836.317,A,3352.1294,N,11548.0211,W,41.41,320.81,230310,,*25
$GPRMC,014839.317,A,3352.1561,N,11548.0482,W,41.84,320.04,230310,,*2F
$GPRMC,014840.317,A,3352.1648,N,11548.0569,W,40.65,320.44,230310,,*27
$GPRMC,014841.317,A,3352.1732,N,11548.0653,W,39.04,320.25,230310,,*2E
$GPRMC,014842.317,A,3352.1811,N,11548.0734,W,37.49,319.75,230310,,*2B
$GPRMC,014843.317,A,3352.1888,N,11548.0814,W,36.37,319.08,230310,,*25
$GPRMC,014844.317,A,3352.1961,N,11548.0893,W,35.47,318.16,230310,,*21
$GPRMC,014845.317,A,3352.2032,N,11548.0973,W,34.74,317.11,230310,,*2A
$GPRMC,014846.316,A,3352.2099,N,11548.1052,W,33.63,315.19,230310,,*29
$GPRMC,014848.316,A,3352.2223,N,11548.1212,W,32.55,311.71,230310,,*2C
$GPRMC,014849.316,A,3352.2280,N,11548.1296,W,32.14,308.71,230310,,*25
$GPRMC,014850.316,A,3352.2331,N,11548.1385,W,31.75,304.36,230310,,*2E
$GPRMC,014851.316,A,3352.2377,N,11548.1478,W,31.88,300.69,230310,,*24
$GPRMC,014854.316,A,3352.2503,N,11548.1761,W,31.91,298.17,230310,,*2E
$GPRMC,014855.316,A,3352.2546,N,11548.1852,W,31.81,300.05,230310,,*23
$GPRMC,014856.316,A,3352.2594,N,11548.1940,W,31.63,303.84,230310,,*2B
$GPRMC,014857.316,A,3352.2646,N,11548.2024,W,31.72,307.38,230310,,*2D
$GPRMC,014858.316,A,3352.2703,N,11548.2104,W,31.58,310.66,230310,,*24
$GPRMC,014859.316,A,3352.2767,N,11548.2180,W,32.45,315.00,230310,,*21
$GPRMC,014900.316,A,3352.2829,N,11548.2252,W,31.40,316.16,230310,,*27
$GPRMC,014901.315,A,3352.2893,N,11548.2323,W,31.25,316.99,230310,,*27
$GPRMC,014903.315,A,3352.3020,N,11548.2465,W,30.97,316.25,230310,,*2E
$GPRMC,014904.315,A,3352.3080,N,11548.2540,W,31.30,313.97,230310,,*25
$GPRMC,014905.315,A,3352.3140,N,11548.2618,W,31.80,312.44,230310,,*23
$GPRMC,014906.315,A,3352.3199,N,11548.2697,W,31.73,311.48,230310,,*20
$GPRMC,014909.315,A,3352.3374,N,11548.2931,W,31.36,312.47,230310,,*20
$GPRMC,014910.315,A,3352.3434,N,11548.3006,W,31.18,313.78,230310,,*26
$GPRMC,014911.315,A,3352.3494,N,11548.3081,W,31.08,313.76,230310,,*2D
$GPRMC,014912.315,A,3352.3552,N,11548.3157,W,30.91,313.12,230310,,*2C
$GPRMC,014913.315,A,3352.3611,N,11548.3231,W,30.73,313.27,230310,,*20
$GPRMC,014914.315,A,3352.3669,N,11548.3307,W,30.71,313.02,230310,,*29
$GPRMC,014915.315,A,3352.3725,N,11548.3383,W,30.41,311.60,230310,,*28
$GPRMC,014916.314,A,3352.3781,N,11548.3460,W,30.75,311.09,230310,,*26
$GPRMC,014918.314,A,3352.3889,N,11548.3622,W,31.11,308.05,230310,,*2C
$GPRMC,014919.314,A,3352.3942,N,11548.3705,W,31.20,307.92,230310,,*2C
$GPRMC,014920.314,A,3352.3996,N,11548.3786,W,31.08,308.32,230310,,*2B
$GPRMC,014921.314,A,3352.4052,N,11548.3866,W,30.90,310.16,230310,,*22
$GPRMC,014924.314,A,3352.4230,N,11548.4090,W,30.87,313.89,230310,,*24
$GPRMC,014925.314,A,3352.4290,N,11548.4163,W,30.84,314.68,230310,,*29
$GPRMC,014926.314,A,3352.4353,N,11548.4235,W,31.11,315.97,230310,,*28
$GPRMC,014927.314,A,3352.4415,N,11548.4306,W,31.21,316.38,230310,,*28
$GPRMC,014928.314,A,3352.4477,N,11548.4380,W,31.29,315.06,230310,,*2B
$GPRMC,014929.314,A,3352.4537,N,11548.4456,W,31.41,313.48,230310,,*21
$GPRMC,014930.314,A,3352.4595,N,11548.4532,W,31.23,312.52,230310,,*2C
$GPRMC,014931.314,A,3352.4653,N,11548.4610,W,31.18,311.65,230310,,*28
$GPRMC,014933.313,A,3352.4766,N,11548.4768,W,31.15,310.66,230310,,*2B
$GPRMC,014934.313,A,3352.4822,N,11548.4848,W,31.13,310.05,230310,,*2D
$GPRMC,014935.313,A,3352.4877,N,11548.4928,W,31.08,309.48,230310,,*20
$GPRMC,014936.313,A,3352.4932,N,11548.5007,W,30.90,310.18,230310,,*2B
$GPRMC,014939.313,A,3352.5098,N,11548.5244,W,30.67,310.43,230310,,*2F
$GPRMC,014940.313,A,3352.5153,N,11548.5322,W,30.74,310.78,230310,,*2C
$GPRMC,014941.313,A,3352.5209,N,11548.5401,W,30.88,310.33,230310,,*2B
$GPRMC,014942.313,A,3352.5264,N,11548.5480,W,30.96,309.98,230310,,*2C
$GPRMC,014943.313,A,3352.5320,N,11548.5560,W,30.99,310.21,230310,,*26
$GPRMC,014944.313,A,3352.5377,N,11548.5637,W,30.84,311.49,230310,,*21
$GPRMC,014945.313,A,3352.5434,N,11548.5713,W,30.62,312.55,230310,,*21
$GPRMC,014946.313,A,3352.5493,N,11548.5787,W,30.68,313.98,230310,,*28
$GPRMC,014948.312,A,3352.5616,N,11548.5929,W,30.46,317.13,230310,,*29
$GPRMC,014949.312,A,3352.5680,N,11548.5998,W,30.79,318.54,230310,,*2D
$GPRMC,014950.312,A,3352.5745,N,11548.6066,W,30.87,319.28,230310,,*2D
$GPRMC,014951.312,A,3352.5810,N,11548.6134,W,31.06,319.14,230310,,*22
$GPRMC,014954.312,A,3352.6003,N,11548.6340,W,30.68,318.27,230310,,*27
$GPRMC,014955.312,A,3352.6066,N,11548.6408,W,30.15,317.85,230310,,*23
$GPRMC,014956.312,A,3352.6126,N,11548.6475,W,29.82,317.24,230310,,*22
$GPRMC,014957.312,A,3352.6187,N,11548.6543,W,29.69,317.25,230310,,*28
$GPRMC,014958.312,A,3352.6248,N,11548.6612,W,30.16,316.83,230310,,*2D
$GPRMC,014959.312,A,3352.6309,N,11548.6683,W,30.71,315.93,230310,,*23
$GPRMC,015000.312,A,3352.6371,N,11548.6755,W,31.09,315.70,230310,,*21
$GPRMC,015001.312,A,3352.6434,N,11548.6828,W,31.31,315.99,230310,,*2F
$GPRMC,015003.311,A,3352.6561,N,11548.6976,W,31.90,315.86,230310,,*20
$GPRMC,015004.311,A,3352.6625,N,11548.7051,W,32.20,315.72,230310,,*2A
$GPRMC,015005.311,A,3352.6689,N,11548.7127,W,32.52,315.58,230310,,*20
$GPRMC,015006.311,A,3352.6754,N,11548.7204,W,32.82,315.49,230310,,*2D
$GPRMC,015009.311,A,3352.6950,N,11548.7428,W,31.64,317.57,230310,,*26
$GPRMC,015010.311,A,3352.7014,N,11548.7498,W,31.28,318.33,230310,,*28
$GPRMC,015011.311,A,3352.7078,N,11548.7568,W,31.04,317.79,230310,,*22
$GPRMC,015012.311,A,3352.7141,N,11548.7639,W,30.87,316.63,230310,,*2D
$GPRMC,015013.311,A,3352.7204,N,11548.7709,W,30.89,317.50,230310,,*23
$GPRMC,015014.311,A,3352.7267,N,11548.7779,W,30.86,317.15,230310,,*28
$GPRMC,015015.311,A,3352.7328,N,11548.7851,W,30.72,316.13,230310,,*2A
$GPRMC,015016.311,A,3352.7390,N,11548.7921,W,30.56,316.53,230310,,*2E
$GPRMC,015018.310,A,3352.7512,N,11548.8060,W,30.17,315.82,230310,,*24
$GPRMC,015019.310,A,3352.7571,N,11548.8131,W,30.03,314.53,230310,,*2D
$GPRMC,015020.310,A,3352.7629,N,11548.8203,W,29.98,314.39,230310,,*2D
$GPRMC,015021.310,A,3352.7688,N,11548.8274,W,29.95,314.10,230310,,*21
$GPRMC,015024.310,A,3352.7862,N,11548.8491,W,30.28,313.79,230310,,*25
$GPRMC,015025.310,A,3352.7921,N,11548.8565,W,30.40,313.51,230310,,*2C
$GPRMC,015026.310,A,3352.7979,N,11548.8639,W,30.59,313.33,230310,,*24
$GPRMC,015027.310,A,3352.8039,N,11548.8713,W,30.84,313.61,230310,,*29
$GPRMC,015028.310,A,3352.8101,N,11548.8787,W,31.24,314.84,230310,,*26
$GPRMC,015029.310,A,3352.8164,N,11548.8861,W,31.51,315.96,230310,,*23
$GPRMC,015030.310,A,3352.8229,N,11548.8933,W,31.79,317.36,230310,,*25
$GPRMC,015031.310,A,3352.8296,N,11548.9004,W,32.10,318.77,230310,,*2A
$GPRMC,015033.309,A,3352.8430,N,11548.9150,W,32.48,317.37,230310,,*2C
$GPRMC,015034.309,A,3352.8497,N,11548.9224,W,32.62,317.14,230310,,*2F
$GPRMC,015035.309,A,3352.8564,N,11548.9298,W,32.85,317.78,230310,,*27
$GPRMC,015036.309,A,3352.8632,N,11548.9372,W,33.07,317.85,230310,,*28
$GPRMC,015039.309,A,3352.8836,N,11548.9603,W,33.72,316.87,230310,,*2F
$GPRMC,015040.309,A,3352.8905,N,11548.9681,W,33.91,317.12,230310,,*2A
$GPRMC,015041.309,A,3352.8972,N,11548.9760,W,33.98,315.22,230310,,*2D
$GPRMC,015042.309,A,3352.9040,N,11548.9840,W,33.99,315.75,230310,,*29
$GPRMC,015043.309,A,3352.9108,N,11548.9917,W,34.02,316.69,230310,,*2D
$GPRMC,015044.309,A,3352.9177,N,11548.9996,W,34.18,316.43,230310,,*28
$GPRMC,015045.309,A,3352.9245,N,11549.0076,W,34.22,316.05,230310,,*2F
$GPRMC,015046.309,A,3352.9316,N,11549.0152,W,34.22,318.22,230310,,*27
$GPRMC,015048.309,A,3352.9459,N,11549.0302,W,34.40,318.63,230310,,*23
$GPRMC,015049.308,A,3352.9530,N,11549.0379,W,34.38,318.19,230310,,*23
$GPRMC,015050.308,A,3352.9600,N,11549.0457,W,34.40,317.25,230310,,*2F
$GPRMC,015051.308,A,3352.9670,N,11549.0536,W,34.47,316.60,230310,,*28
$GPRMC,015054.308,A,3352.9879,N,11549.0772,W,34.37,316.84,230310,,*25
$GPRMC,015055.308,A,3352.9949,N,11549.0851,W,34.42,316.81,230310,,*2F
$GPRMC,015056.308,A,3353.0019,N,11549.0930,W,34.44,316.34,230310,,*26
$GPRMC,015057.308,A,3353.0088,N,11549.1009,W,34.29,316.52,230310,,*26
$GPRMC,015058.308,A,3353.0159,N,11549.1086,W,34.22,317.91,230310,,*26
$GPRMC,015059.308,A,3353.0231,N,11549.1159,W,33.99,319.88,230310,,*28
$GPRMC,015100.308,A,3353.0305,N,11549.1230,W,33.85,321.89,230310,,*28
$GPRMC,015101.308,A,3353.0382,N,11549.1296,W,33.88,324.45,230310,,*22
$GPRMC,015103.308,A,3353.0533,N,11549.1432,W,33.71,322.63,230310,,*20
$GPRMC,015104.307,A,3353.0606,N,11549.1501,W,33.54,322.35,230310,,*28
$GPRMC,015105.307,A,3353.0679,N,11549.1570,W,33.33,321.80,230310,,*2B
$GPRMC,015106.307,A,3353.0751,N,11549.1639,W,33.16,320.84,230310,,*2F
$GPRMC,015109.307,A,3353.0957,N,11549.1851,W,32.19,318.12,230310,,*22
$GPRMC,015110.307,A,3353.1022,N,11549.1923,W,31.82,317.47,230310,,*2A
$GPRMC,015111.307,A,3353.1087,N,11549.1994,W,31.47,317.46,230310,,*20
$GPRMC,015112.307,A,3353.1151,N,11549.2064,W,31.39,317.56,230310,,*24
$GPRMC,015113.307,A,3353.1214,N,11549.2136,W,31.21,316.26,230310,,*2E
$GPRMC,015114.307,A,3353.1276,N,11549.2209,W,31.18,315.36,230310,,*2A
$GPRMC,015115.307,A,3353.1336,N,11549.2283,W,30.86,314.13,230310,,*2C
$GPRMC,015116.307,A,3353.1394,N,11549.2358,W,30.78,313.14,230310,,*21
$GPRMC,015118.307,A,3353.1509,N,11549.2505,W,29.51,312.45,230310,,*25
$GPRMC,015119.307,A,3353.1565,N,11549.2578,W,29.80,312.95,230310,,*25
$GPRMC,015120.306,A,3353.1626,N,11549.2652,W,31.03,315.01,230310,,*29
$GPRMC,015121.306,A,3353.1689,N,11549.2725,W,31.40,316.49,230310,,*24
$GPRMC,015124.306,A,3353.1883,N,11549.2939,W,31.69,319.15,230310,,*2B
$GPRMC,015125.306,A,3353.1950,N,11549.3009,W,31.76,319.21,230310,,*27
$GPRMC,015126.306,A,3353.2017,N,11549.3078,W,31.71,319.57,230310,,*2D
$GPRMC,015127.306,A,3353.2083,N,11549.3149,W,31.70,318.91,230310,,*28
$GPRMC,015128.306,A,3353.2149,N,11549.3219,W,31.64,318.28,230310,,*21
$GPRMC,015129.306,A,3353.2215,N,11549.3291,W,31.65,317.86,230310,,*20
$GPRMC,015130.306,A,3353.2280,N,11549.3363,W,31.72,317.40,230310,,*24
$GPRMC,015131.306,A,3353.2345,N,11549.3435,W,31.54,317.13,230310,,*2B
$GPRMC,015133.306,A,3353.2477,N,11549.3577,W,31.81,318.19,230310,,*25
$GPRMC,015134.306,A,3353.2543,N,11549.3648,W,31.77,318.43,230310,,*2D
$GPRMC,015135.305,A,3353.2611,N,11549.3716,W,31.62,320.08,230310,,*21
$GPRMC,015136.305,A,3353.2680,N,11549.3782,W,31.75,321.36,230310,,*2D
$GPRMC,015139.305,A,3353.2892,N,11549.3976,W,32.06,323.35,230310,,*2C
$GPRMC,015140.305,A,3353.2963,N,11549.4040,W,32.13,323.21,230310,,*27
$GPRMC,015141.305,A,3353.3034,N,11549.4105,W,32.13,322.66,230310,,*2E
$GPRMC,015142.305,A,3353.3105,N,11549.4170,W,32.08,322.57,230310,,*24
$GPRMC,015143.305,A,3353.3175,N,11549.4236,W,32.03,322.31,230310,,*28
$GPRMC,015144.305,A,3353.3245,N,11549.4302,W,31.93,321.74,230310,,*21
$GPRMC,015145.305,A,3353.3313,N,11549.4369,W,31.91,320.68,230310,,*21
$GPRMC,015146.305,A,3353.3381,N,11549.4437,W,31.93,320.17,230310,,*2F
$GPRMC,015148.305,A,3353.3518,N,11549.4573,W,31.93,320.39,230310,,*2A
$GPRMC,015149.305,A,3353.3586,N,11549.4642,W,31.93,319.98,230310,,*2C
$GPRMC,015150.304,A,3353.3653,N,11549.4712,W,32.01,319.34,230310,,*24
$GPRMC,015151.304,A,3353.3720,N,11549.4781,W,31.84,319.42,230310,,*25
$GPRMC,015154.304,A,3353.3923,N,11549.4989,W,31.91,318.78,230310,,*27
$GPRMC,015155.304,A,3353.3990,N,11549.5059,W,31.95,318.77,230310,,*20
$GPRMC,015156.304,A,3353.4058,N,11549.5128,W,31.95,319.55,230310,,*2F
$GPRMC,015157.304,A,3353.4126,N,11549.5196,W,31.89,320.58,230310,,*29
$GPRMC,015158.304,A,3353.4195,N,11549.5264,W,31.96,320.85,230310,,*2E
$GPRMC,015159.304,A,3353.4264,N,11549.5332,W,32.08,320.19,230310,,*21
$GPRMC,015200.304,A,3353.4332,N,11549.5400,W,31.99,320.31,230310,,*2B
$GPRMC,015201.304,A,3353.4402,N,11549.5468,W,32.05,320.84,230310,,*28
$GPRMC,015203.304,A,3353.4540,N,11549.5605,W,32.17,320.47,230310,,*28
$GPRMC,015204.304,A,3353.4608,N,11549.5675,W,32.16,319.46,230310,,*2D
$GPRMC,015205.304,A,3353.4676,N,11549.5743,W,31.96,320.20,230310,,*20
$GPRMC,015206.303,A,3353.4746,N,11549.5810,W,31.94,320.86,230310,,*21
$GPRMC,015209.303,A,3353.4945,N,11549.6019,W,31.74,318.83,230310,,*21
$GPRMC,015210.303,A,3353.5013,N,11549.6087,W,31.66,319.83,230310,,*27
$GPRMC,015211.303,A,3353.5080,N,11549.6155,W,31.69,320.13,230310,,*2E
$GPRMC,015212.303,A,3353.5148,N,11549.6222,W,31.52,320.24,230310,,*27
$GPRMC,015213.303,A,3353.5215,N,11549.6290,W,31.53,320.33,230310,,*23
$GPRMC,015214.303,A,3353.5283,N,11549.6356,W,31.36,320.75,230310,,*21
$GPRMC,015215.303,A,3353.5352,N,11549.6420,W,31.38,321.98,230310,,*27
$GPRMC,015216.303,A,3353.5421,N,11549.6484,W,31.28,322.41,230310,,*2F
$GPRMC,015218.303,A,3353.5557,N,11549.6613,W,31.06,321.43,230310,,*20
$GPRMC,015219.303,A,3353.5624,N,11549.6678,W,30.98,321.33,230310,,*2A
$GPRMC,015220.303,A,3353.5689,N,11549.6744,W,30.70,319.97,230310,,*2A
$GPRMC,015221.302,A,3353.5754,N,11549.6812,W,31.06,319.24,230310,,*2F
$GPRMC,015224.302,A,3353.5950,N,11549.7016,W,31.25,319.19,230310,,*22
$GPRMC,015225.302,A,3353.6016,N,11549.7084,W,31.30,319.38,230310,,*27
$GPRMC,015226.302,A,3353.6083,N,11549.7152,W,31.30,319.67,230310,,*28
$GPRMC,015227.302,A,3353.6149,N,11549.7220,W,31.19,319.75,230310,,*20
$GPRMC,015228.302,A,3353.6214,N,11549.7288,W,31.17,318.86,230310,,*25
$GPRMC,015229.302,A,3353.6277,N,11549.7358,W,30.78,317.39,230310,,*2E
$GPRMC,015230.302,A,3353.6339,N,11549.7428,W,30.87,316.98,230310,,*27
$GPRMC,015231.302,A,3353.6400,N,11549.7499,W,30.85,316.25,230310,,*25
$GPRMC,015233.302,A,3353.6521,N,11549.7646,W,31.06,314.80,230310,,*22
$GPRMC,015234.302,A,3353.6583,N,11549.7719,W,31.35,315.53,230310,,*29
$GPRMC,015235.302,A,3353.6646,N,11549.7793,W,31.41,315.81,230310,,*2C
$GPRMC,015236.301,A,3353.6708,N,11549.7866,W,31.34,315.50,230310,,*2C
$GPRMC,015239.301,A,3353.6892,N,11549.8086,W,30.94,314.92,230310,,*22
$GPRMC,015240.301,A,3353.6954,N,11549.8157,W,30.89,315.87,230310,,*23
$GPRMC,015241.301,A,3353.7016,N,11549.8228,W,30.62,316.71,230310,,*28
$GPRMC,015242.301,A,3353.7078,N,11549.8295,W,30.44,317.74,230310,,*25
$GPRMC,015243.301,A,3353.7143,N,11549.8362,W,30.87,319.36,230310,,*23
$GPRMC,015244.301,A,3353.7212,N,11549.8422,W,31.15,323.95,230310,,*2A
$GPRMC,015245.301,A,3353.7287,N,11549.8472,W,31.02,330.76,230310,,*2B
$GPRMC,015246.301,A,3353.7364,N,11549.8518,W,31.11,333.53,230310,,*2F
$GPRMC,015248.301,A,3353.7520,N,11549.8605,W,30.88,335.67,230310,,*28
$GPRMC,015249.301,A,3353.7600,N,11549.8645,W,30.87,337.21,230310,,*23
$GPRMC,015250.301,A,3353.7680,N,11549.8683,W,30.83,338.20,230310,,*23
$GPRMC,015251.301,A,3353.7762,N,11549.8718,W,31.09,339.82,230310,,*26
$GPRMC,015254.300,A,3353.8010,N,11549.8803,W,31.23,342.75,230310,,*26
$GPRMC,015255.300,A,3353.8092,N,11549.8832,W,31.25,343.12,230310,,*29
$GPRMC,015256.300,A,3353.8175,N,11549.8859,W,31.01,343.71,230310,,*2C
$GPRMC,015257.300,A,3353.8257,N,11549.8890,W,30.82,341.90,230310,,*2C
$GPRMC,015258.300,A,3353.8337,N,11549.8925,W,30.86,339.90,230310,,*20
$GPRMC,015259.300,A,3353.8418,N,11549.8964,W,30.99,338.11,230310,,*28
$GPRMC,015300.300,A,3353.8497,N,11549.9007,W,31.12,335.49,230310,,*2D
$GPRMC,015301.300,A,3353.8575,N,11549.9053,W,31.16,333.62,230310,,*2B
$GPRMC,015303.300,A,3353.8731,N,11549.9146,W,31.15,334.16,230310,,*29
$GPRMC,015304.300,A,3353.8811,N,11549.9188,W,31.12,336.40,230310,,*27
$GPRMC,015305.300,A,3353.8893,N,11549.9224,W,31.24,339.95,230310,,*2B
$GPRMC,015306.300,A,3353.8974,N,11549.9252,W,30.21,344.83,230310,,*28
$GPRMC,015309.299,A,3353.9227,N,11549.9291,W,30.72,357.30,230310,,*29
$GPRMC,015310.299,A,3353.9313,N,11549.9291,W,30.93,359.85,230310,,*28
$GPRMC,015311.299,A,3353.9400,N,11549.9290,W,31.06,359.84,230310,,*21
$GPRMC,015312.299,A,3353.9487,N,11549.9289,W,31.23,359.55,230310,,*2E
$GPRMC,015313.299,A,3353.9574,N,11549.9290,W,31.23,359.23,230310,,*2B
$GPRMC,015314.299,A,3353.9660,N,11549.9294,W,31.03,357.27,230310,,*26
$GPRMC,015315.299,A,3353.9747,N,11549.9301,W,30.95,355.84,230310,,*2B
$GPRMC,015316.299,A,3353.9833,N,11549.9312,W,31.20,353.71,230310,,*25
$GPRMC,015318.299,A,3354.0004,N,11549.9345,W,30.87,350.87,230310,,*2D
$GPRMC,015319.299,A,3354.0089,N,11549.9364,W,31.03,349.40,230310,,*24
$GPRMC,015320.299,A,3354.0171,N,11549.9388,W,30.28,346.58,230310,,*24
$GPRMC,015321.299,A,3354.0247,N,11549.9415,W,28.43,344.10,230310,,*2A
$GPRMC,015324.298,A,3354.0443,N,11549.9525,W,25.88,330.91,230310,,*2E
$GPRMC,015325.298,A,3354.0504,N,11549.9571,W,26.03,327.85,230310,,*2F
$GPRMC,015326.298,A,3354.0561,N,11549.9622,W,25.89,323.97,230310,,*2C
$GPRMC,015327.298,A,3354.0617,N,11549.9676,W,25.89,321.90,230310,,*2B
$GPRMC,015328.298,A,3354.0672,N,11549.9731,W,25.77,320.34,230310,,*2B
$GPRMC,015329.298,A,3354.0722,N,11549.9791,W,25.44,316.14,230310,,*23
$GPRMC,015330.298,A,3354.0768,N,11549.9854,W,25.11,312.68,230310,,*2C
$GPRMC,015331.298,A,3354.0809,N,11549.9918,W,24.17,308.50,230310,,*2B
$GPRMC,015333.298,A,3354.0876,N,11550.0051,W,22.39,299.21,230310,,*21
$GPRMC,015334.298,A,3354.0900,N,11550.0119,W,21.61,292.38,230310,,*26
$GPRMC,015335.298,A,3354.0916,N,11550.0189,W,21.04,285.19,230310,,*2F
$GPRMC,015336.298,A,3354.0927,N,11550.0260,W,21.25,279.50,230310,,*27
$GPRMC,015339.297,A,3354.0936,N,11550.0476,W,21.45,269.45,230310,,*25
$GPRMC,015340.297,A,3354.0935,N,11550.0550,W,21.71,268.50,230310,,*2F
$GPRMC,015341.297,A,3354.0933,N,11550.0623,W,21.84,268.05,230310,,*25
$GPRMC,015342.297,A,3354.0931,N,11550.0697,W,21.96,268.33,230310,,*2D
$GPRMC,015343.297,A,3354.0930,N,11550.0772,W,22.05,269.21,230310,,*2C
$GPRMC,015344.297,A,3354.0930,N,11550.0847,W,22.14,269.86,230310,,*2F
$GPRMC,015345.297,A,3354.0930,N,11550.0922,W,22.27,269.75,230310,,*20
$GPRMC,015346.297,A,3354.0930,N,11550.0997,W,22.34,269.32,230310,,*2C
$GPRMC,015348.297,A,3354.0931,N,11550.1153,W,23.60,270.87,230310,,*24
$GPRMC,015349.297,A,3354.0932,N,11550.1234,W,24.32,271.39,230310,,*20
$GPRMC,015350.297,A,3354.0933,N,11550.1317,W,24.82,270.54,230310,,*28
$GPRMC,015351.297,A,3354.0935,N,11550.1401,W,25.24,271.60,230310,,*24
$GPRMC,015354.296,A,3354.0965,N,11550.1650,W,24.69,283.07,230310,,*27
$GPRMC,015355.296,A,3354.0987,N,11550.1725,W,23.88,290.32,230310,,*25
$GPRMC,015356.296,A,3354.1020,N,11550.1797,W,24.35,299.46,230310,,*21
$GPRMC,015357.296,A,3354.1056,N,11550.1866,W,24.01,303.27,230310,,*22
$GPRMC,015358.296,A,3354.1094,N,11550.1929,W,23.07,306.34,230310,,*2F
$GPRMC,015359.296,A,3354.1130,N,11550.1989,W,22.22,306.74,230310,,*29
$GPRMC,015400.296,A,3354.1163,N,11550.2050,W,21.64,303.59,230310,,*21
$GPRMC,015401.296,A,3354.1193,N,11550.2114,W,21.72,300.10,230310,,*27
$GPRMC,015403.296,A,3354.1248,N,11550.2249,W,22.63,294.97,230310,,*2B
$GPRMC,015404.296,A,3354.1273,N,11550.2320,W,22.84,293.38,230310,,*21
$GPRMC,015405.296,A,3354.1295,N,11550.2391,W,22.71,290.29,230310,,*2B
$GPRMC,015406.296,A,3354.1315,N,11550.2465,W,23.41,288.24,230310,,*2B
$GPRMC,015409.295,A,3354.1367,N,11550.2695,W,24.00,282.69,230310,,*2E
$GPRMC,015410.295,A,3354.1379,N,11550.2774,W,23.97,280.04,230310,,*27
$GPRMC,015411.295,A,3354.1388,N,11550.2855,W,24.17,277.50,230310,,*22
$GPRMC,015412.295,A,3354.1389,N,11550.2936,W,24.18,271.23,230310,,*29
$GPRMC,015413.295,A,3354.1386,N,11550.3017,W,24.08,266.87,230310,,*25
$GPRMC,015414.295,A,3354.1378,N,11550.3099,W,24.26,262.55,230310,,*22
$GPRMC,015415.295,A,3354.1367,N,11550.3181,W,24.39,259.41,230310,,*26
$GPRMC,015416.295,A,3354.1353,N,11550.3262,W,24.28,258.74,230310,,*2B
$GPRMC,015418.295,A,3354.1329,N,11550.3430,W,25.02,261.05,230310,,*2C
$GPRMC,015419.295,A,3354.1323,N,11550.3517,W,25.59,265.71,230310,,*2A
$GPRMC,015420.295,A,3354.1322,N,11550.3605,W,25.88,269.78,230310,,*28
$GPRMC,015421.295,A,3354.1326,N,11550.3694,W,26.27,273.49,230310,,*2A
$GPRMC,015424.294,A,3354.1356,N,11550.3965,W,27.05,279.30,230310,,*2D
$GPRMC,015425.294,A,3354.1368,N,11550.4055,W,27.24,279.65,230310,,*2F
$GPRMC,015426.294,A,3354.1381,N,11550.4145,W,27.40,280.63,230310,,*29
$GPRMC,015427.294,A,3354.1394,N,11550.4235,W,27.47,281.07,230310,,*2C
$GPRMC,015428.294,A,3354.1409,N,11550.4326,W,27.58,281.61,230310,,*2D
$GPRMC,015429.294,A,3354.1425,N,11550.4415,W,27.49,283.09,230310,,*29
$GPRMC,015430.294,A,3354.1445,N,11550.4505,W,27.70,285.31,230310,,*20
$GPRMC,015431.294,A,3354.1467,N,11550.4593,W,27.64,287.00,230310,,*2B
$GPRMC,015433.294,A,3354.1524,N,11550.4763,W,27.10,294.66,230310,,*23
$GPRMC,015434.294,A,3354.1564,N,11550.4842,W,27.39,301.21,230310,,*29
$GPRMC,015435.294,A,3354.1607,N,11550.4916,W,27.04,305.99,230310,,*27
$GPRMC,015436.294,A,3354.1654,N,11550.4988,W,27.29,307.79,230310,,*26
$GPRMC,015439.294,A,3354.1787,N,11550.5219,W,27.95,302.05,230310,,*2D
$GPRMC,015440.293,A,3354.1828,N,11550.5301,W,28.14,299.85,230310,,*2B
$GPRMC,015441.293,A,3354.1866,N,11550.5384,W,28.21,297.61,230310,,*2F
$GPRMC,015442.293,A,3354.1903,N,11550.5469,W,28.23,296.69,230310,,*21
$GPRMC,015443.293,A,3354.1938,N,11550.5552,W,27.96,296.28,230310,,*25
$GPRMC,015444.293,A,3354.1973,N,11550.5636,W,27.59,295.68,230310,,*28
$GPRMC,015445.293,A,3354.2007,N,11550.5718,W,27.51,296.18,230310,,*21
$GPRMC,015446.293,A,3354.2042,N,11550.5801,W,27.42,296.46,230310,,*2D
$GPRMC,015448.293,A,3354.2107,N,11550.5967,W,27.10,293.56,230310,,*21
$GPRMC,015449.293,A,3354.2136,N,11550.6051,W,27.02,292.01,230310,,*2D
$GPRMC,015450.293,A,3354.2158,N,11550.6135,W,26.42,287.29,230310,,*25
$GPRMC,015451.293,A,3354.2179,N,11550.6221,W,26.38,285.42,230310,,*23
$GPRMC,015454.293,A,3354.2231,N,11550.6472,W,25.51,283.26,230310,,*21
$GPRMC,015455.292,A,3354.2248,N,11550.6554,W,25.18,283.95,230310,,*2F
$GPRMC,015456.292,A,3354.2265,N,11550.6636,W,25.02,283.45,230310,,*22
$GPRMC,015457.292,A,3354.2283,N,11550.6719,W,25.22,283.38,230310,,*2F
$GPRMC,015458.292,A,3354.2302,N,11550.6801,W,25.31,285.04,230310,,*25
$GPRMC,015459.292,A,3354.2321,N,11550.6883,W,25.41,285.41,230310,,*29
$GPRMC,015500.292,A,3354.2341,N,11550.6965,W,25.46,285.91,230310,,*21
$GPRMC,015501.292,A,3354.2363,N,11550.7047,W,25.67,287.57,230310,,*23
$GPRMC,015503.292,A,3354.2413,N,11550.7210,W,26.04,290.96,230310,,*2C
$GPRMC,015504.292,A,3354.2443,N,11550.7287,W,25.65,295.35,230310,,*28
$GPRMC,015505.292,A,3354.2480,N,11550.7363,W,26.15,300.11,230310,,*22
$GPRMC,015506.292,A,3354.2520,N,11550.7435,W,25.93,304.29,230310,,*2C
$GPRMC,015509.292,A,3354.2672,N,11550.7621,W,26.08,317.82,230310,,*22
$GPRMC,015510.291,A,3354.2731,N,11550.7674,W,26.37,322.53,230310,,*29
$GPRMC,015511.291,A,3354.2792,N,11550.7723,W,26.13,326.27,230310,,*23
$GPRMC,015512.291,A,3354.2855,N,11550.7768,W,26.27,328.74,230310,,*24
$GPRMC,015513.291,A,3354.2920,N,11550.7814,W,27.10,329.20,230310,,*27
$GPRMC,015514.291,A,3354.2987,N,11550.7859,W,27.25,330.20,230310,,*2A
$GPRMC,015515.291,A,3354.3054,N,11550.7904,W,27.61,330.21,230310,,*25
$GPRMC,015516.291,A,3354.3121,N,11550.7951,W,27.55,329.79,230310,,*27
$GPRMC,015518.291,A,3354.3255,N,11550.8043,W,27.41,329.09,230310,,*2E
$GPRMC,015519.291,A,3354.3317,N,11550.8094,W,26.67,325.36,230310,,*27
$GPRMC,015520.291,A,3354.3377,N,11550.8150,W,27.19,321.26,230310,,*2F
$GPRMC,015521.291,A,3354.3432,N,11550.8212,W,26.81,316.48,230310,,*21
$GPRMC,015524.291,A,3354.3564,N,11550.8431,W,26.81,299.86,230310,,*25
$GPRMC,015525.291,A,3354.3598,N,11550.8513,W,27.20,296.37,230310,,*29
$GPRMC,015526.290,A,3354.3629,N,11550.8596,W,26.98,294.30,230310,,*28
$GPRMC,015527.290,A,3354.3659,N,11550.8680,W,26.71,293.05,230310,,*2C
$GPRMC,015528.290,A,3354.3688,N,11550.8762,W,26.45,292.40,230310,,*25
$GPRMC,015529.290,A,3354.3711,N,11550.8843,W,25.39,289.61,230310,,*28
$GPRMC,015530.290,A,3354.3730,N,11550.8922,W,24.30,286.44,230310,,*25
$GPRMC,015531.290,A,3354.3744,N,11550.8999,W,23.65,282.31,230310,,*26
$GPRMC,015533.290,A,3354.3758,N,11550.9152,W,22.97,275.51,230310,,*25
$GPRMC,015534.290,A,3354.3759,N,11550.9228,W,22.77,270.84,230310,,*2E
$GPRMC,015535.290,A,3354.3753,N,11550.9302,W,22.24,266.20,230310,,*23
$GPRMC,015536.290,A,3354.3745,N,11550.9376,W,22.15,263.49,230310,,*2C
$GPRMC,015539.290,A,3354.3712,N,11550.9605,W,23.67,260.70,230310,,*2D
$GPRMC,015540.290,A,3354.3703,N,11550.9686,W,24.36,261.91,230310,,*25
$GPRMC,015541.289,A,3354.3695,N,11550.9768,W,24.53,263.74,230310,,*29
$GPRMC,015542.289,A,3354.3691,N,11550.9851,W,24.84,267.38,230310,,*2D
$GPRMC,015543.289,A,3354.3695,N,11550.9933,W,24.56,274.62,230310,,*2F
$GPRMC,015544.289,A,3354.3705,N,11551.0014,W,24.30,279.12,230310,,*2E
$GPRMC,015545.289,A,3354.3720,N,11551.0094,W,24.22,283.99,230310,,*25
$GPRMC,015546.289,A,3354.3742,N,11551.0173,W,24.89,288.08,230310,,*28
$GPRMC,015548.289,A,3354.3803,N,11551.0331,W,26.09,296.13,230310,,*27
$GPRMC,015549.289,A,3354.3837,N,11551.0410,W,26.44,296.73,230310,,*2A
$GPRMC,015550.289,A,3354.3872,N,11551.0490,W,26.79,297.54,230310,,*21
$GPRMC,015551.289,A,3354.3907,N,11551.0571,W,27.09,297.62,230310,,*2E
$GPRMC,015554.289,A,3354.4014,N,11551.0818,W,27.75,296.74,230310,,*28
$GPRMC,015555.289,A,3354.4051,N,11551.0902,W,27.97,297.50,230310,,*29
$GPRMC,015556.289,A,3354.4089,N,11551.0984,W,27.69,298.62,230310,,*2E
$GPRMC,015557.288,A,3354.4128,N,11551.1063,W,27.35,300.92,230310,,*23
$GPRMC,015558.288,A,3354.4170,N,11551.1139,W,26.88,303.04,230310,,*24
$GPRMC,015559.288,A,3354.4214,N,11551.1211,W,26.78,306.43,230310,,*24
$GPRMC,015600.288,A,3354.4260,N,11551.1282,W,26.75,308.20,230310,,*24
$GPRMC,015601.288,A,3354.4307,N,11551.1352,W,26.71,308.93,230310,,*25
$GPRMC,015603.288,A,3354.4396,N,11551.1496,W,26.75,304.83,230310,,*29
$GPRMC,015604.288,A,3354.4438,N,11551.1573,W,27.15,301.97,230310,,*20
$GPRMC,015605.288,A,3354.4475,N,11551.1653,W,27.14,298.53,230310,,*21
$GPRMC,015606.288,A,3354.4507,N,11551.1735,W,27.05,294.75,230310,,*2F
$GPRMC,015609.288,A,3354.4583,N,11551.1993,W,27.54,284.90,230310,,*20
$GPRMC,015610.288,A,3354.4600,N,11551.2082,W,27.63,282.63,230310,,*24
$GPRMC,015611.288,A,3354.4615,N,11551.2172,W,27.63,281.38,230310,,*22
$GPRMC,015612.287,A,3354.4629,N,11551.2262,W,27.52,280.70,230310,,*2C
$GPRMC,015613.287,A,3354.4641,N,11551.2353,W,27.52,280.25,230310,,*20
$GPRMC,015614.287,A,3354.4656,N,11551.2443,W,27.49,282.01,230310,,*29
$GPRMC,015615.287,A,3354.4673,N,11551.2534,W,27.65,283.09,230310,,*29
$GPRMC,015616.287,A,3354.4691,N,11551.2623,W,27.54,284.63,230310,,*2A
$GPRMC,015618.287,A,3354.4736,N,11551.2801,W,28.09,287.97,230310,,*29
$GPRMC,015619.287,A,3354.4761,N,11551.2889,W,28.16,289.09,230310,,*2D
$GPRMC,015620.287,A,3354.4789,N,11551.2978,W,28.30,290.47,230310,,*28
$GPRMC,015621.287,A,3354.4817,N,11551.3067,W,28.63,290.56,230310,,*21
$GPRMC,015624.287,A,3354.4902,N,11551.3333,W,28.19,291.40,230310,,*28
$GPRMC,015625.287,A,3354.4931,N,11551.3421,W,28.21,290.97,230310,,*2D
$GPRMC,015626.287,A,3354.4959,N,11551.3509,W,28.14,291.02,230310,,*20
$GPRMC,015627.286,A,3354.4988,N,11551.3598,W,28.28,291.15,230310,,*2D
$GPRMC,015628.286,A,3354.5014,N,11551.3686,W,28.10,290.10,230310,,*2C
$GPRMC,015629.286,A,3354.5042,N,11551.3774,W,28.06,290.75,230310,,*26
$GPRMC,015630.286,A,3354.5069,N,11551.3862,W,27.95,290.66,230310,,*28
$GPRMC,015631.286,A,3354.5096,N,11551.3948,W,27.55,290.23,230310,,*2D
$GPRMC,015633.286,A,3354.5150,N,11551.4122,W,27.51,291.23,230310,,*22
$GPRMC,015634.286,A,3354.5176,N,11551.4207,W,27.22,290.25,230310,,*26
$GPRMC,015635.286,A,3354.5202,N,11551.4293,W,27.34,290.05,230310,,*2F
$GPRMC,015636.286,A,3354.5228,N,11551.4379,W,27.29,290.48,230310,,*24
$GPRMC,015639.286,A,3354.5306,N,11551.4633,W,27.06,290.06,230310,,*2A
$GPRMC,015640.286,A,3354.5332,N,11551.4718,W,26.91,290.84,230310,,*2E
$GPRMC,015641.286,A,3354.5358,N,11551.4801,W,26.70,290.43,230310,,*20
$GPRMC,015642.286,A,3354.5383,N,11551.4885,W,26.46,290.02,230310,,*29
$GPRMC,015643.285,A,3354.5408,N,11551.4969,W,26.59,289.89,230310,,*29
$GPRMC,015644.285,A,3354.5433,N,11551.5052,W,26.31,289.47,230310,,*2A
$GPRMC,015645.285,A,3354.5456,N,11551.5136,W,26.53,288.78,230310,,*22
$GPRMC,015646.285,A,3354.5481,N,11551.5221,W,26.69,288.83,230310,,*23
$GPRMC,015648.285,A,3354.5530,N,11551.5396,W,27.67,288.89,230310,,*2E
$GPRMC,015649.285,A,3354.5555,N,11551.5484,W,27.97,289.24,230310,,*21
$GPRMC,015650.285,A,3354.5583,N,11551.5574,W,28.35,290.05,230310,,*20
$GPRMC,015651.285,A,3354.5613,N,11551.5663,W,28.75,292.10,230310,,*2C
$GPRMC,015654.285,A,3354.5710,N,11551.5930,W,29.03,293.66,230310,,*22
$GPRMC,015655.285,A,3354.5743,N,11551.6019,W,29.11,294.33,230310,,*20
$GPRMC,015656.285,A,3354.5770,N,11551.6090,W,29.15,294.24,230310,,*20
$GPRMC,015657.285,A,3354.5803,N,11551.6180,W,29.13,294.14,230310,,*2F
$GPRMC,015658.284,A,3354.5836,N,11551.6269,W,29.08,294.16,230310,,*2B
$GPRMC,015659.284,A,3354.5870,N,11551.6358,W,28.99,294.52,230310,,*22
$GPRMC,015700.284,A,3354.5904,N,11551.6447,W,28.98,295.02,230310,,*21
$GPRMC,015701.284,A,3354.5939,N,11551.6536,W,28.96,295.24,230310,,*23
$GPRMC,015703.284,A,3354.6006,N,11551.6713,W,28.60,294.06,230310,,*2A
$GPRMC,015704.284,A,3354.6038,N,11551.6801,W,28.36,293.17,230310,,*28
$GPRMC,015705.284,A,3354.6068,N,11551.6889,W,28.20,292.29,230310,,*27
$GPRMC,015706.284,A,3354.6095,N,11551.6977,W,27.90,290.33,230310,,*2B
$GPRMC,015709.284,A,3354.6160,N,11551.7250,W,28.57,283.76,230310,,*27
$GPRMC,015710.284,A,3354.6178,N,11551.7343,W,28.57,282.77,230310,,*25
$GPRMC,015711.284,A,3354.6195,N,11551.7437,W,29.06,281.86,230310,,*2B
$GPRMC,015712.284,A,3354.6211,N,11551.7535,W,29.99,281.43,230310,,*2B
$GPRMC,015713.283,A,3354.6230,N,11551.7635,W,30.87,282.66,230310,,*2E
$GPRMC,015714.283,A,3354.6251,N,11551.7737,W,31.41,283.75,230310,,*25
$GPRMC,015715.283,A,3354.6276,N,11551.7838,W,31.62,286.79,230310,,*29
$GPRMC,015716.283,A,3354.6307,N,11551.7936,W,31.45,290.73,230310,,*2A
$GPRMC,015718.283,A,3354.6378,N,11551.8127,W,30.97,294.88,230310,,*25
$GPRMC,015719.283,A,3354.6415,N,11551.8220,W,30.80,295.21,230310,,*28
$GPRMC,015720.283,A,3354.6451,N,11551.8313,W,30.46,295.40,230310,,*2E
$GPRMC,015721.283,A,3354.6488,N,11551.8404,W,30.39,295.83,230310,,*2D
$GPRMC,015724.283,A,3354.6598,N,11551.8684,W,31.12,294.56,230310,,*23
$GPRMC,015725.283,A,3354.6632,N,11551.8780,W,31.28,292.97,230310,,*26
$GPRMC,015726.283,A,3354.6664,N,11551.8878,W,31.15,291.06,230310,,*2B
$GPRMC,015727.283,A,3354.6691,N,11551.8976,W,31.01,288.12,230310,,*27
$GPRMC,015728.283,A,3354.6716,N,11551.9076,W,30.99,286.63,230310,,*26
$GPRMC,015729.282,A,3354.6741,N,11551.9174,W,30.70,286.35,230310,,*23
$GPRMC,015730.282,A,3354.6764,N,11551.9272,W,30.42,285.74,230310,,*2E
$GPRMC,015731.282,A,3354.6788,N,11551.9371,W,30.58,285.90,230310,,*2E
$GPRMC,015733.282,A,3354.6835,N,11551.9572,W,31.22,285.06,230310,,*23
$GPRMC,015734.282,A,3354.6855,N,11551.9673,W,31.25,283.36,230310,,*22
$GPRMC,015735.282,A,3354.6871,N,11551.9775,W,31.11,280.71,230310,,*25
$GPRMC,015736.282,A,3354.6882,N,11551.9876,W,30.40,277.33,230310,,*2D
$GPRMC,015739.282,A,3354.6893,N,11552.0187,W,30.97,269.82,230310,,*20
$GPRMC,015740.282,A,3354.6889,N,11552.0293,W,31.03,268.38,230310,,*2F
$GPRMC,015741.282,A,3354.6886,N,11552.0398,W,31.18,268.72,230310,,*2F
$GPRMC,015742.282,A,3354.6887,N,11552.0503,W,31.21,271.27,230310,,*2B
$GPRMC,015743.282,A,3354.6897,N,11552.0606,W,30.90,277.17,230310,,*23
$GPRMC,015744.281,A,3354.6918,N,11552.0705,W,30.77,284.90,230310,,*29
$GPRMC,015745.281,A,3354.6946,N,11552.0802,W,30.45,289.15,230310,,*2A
$GPRMC,015746.281,A,3354.6977,N,11552.0898,W,30.66,291.42,230310,,*22
$GPRMC,015748.281,A,3354.7051,N,11552.1087,W,31.56,296.61,230310,,*23
$GPRMC,015749.281,A,3354.7094,N,11552.1182,W,31.90,298.08,230310,,*24
$GPRMC,015750.281,A,3354.7138,N,11552.1275,W,31.74,299.43,230310,,*24
$GPRMC,015751.281,A,3354.7186,N,11552.1364,W,31.47,302.77,230310,,*25
$GPRMC,015754.281,A,3354.7347,N,11552.1611,W,30.82,310.29,230310,,*28
$GPRMC,015755.281,A,3354.7408,N,11552.1684,W,30.89,314.51,230310,,*29
$GPRMC,015756.281,A,3354.7474,N,11552.1750,W,30.69,320.60,230310,,*22
$GPRMC,015757.281,A,3354.7545,N,11552.1804,W,30.07,326.91,230310,,*2E
$GPRMC,015758.281,A,3354.7620,N,11552.1854,W,30.64,331.26,230310,,*2B
$GPRMC,015759.281,A,3354.7698,N,11552.1900,W,31.12,332.95,230310,,*22
$GPRMC,015800.280,A,3354.7777,N,11552.1945,W,31.24,334.54,230310,,*2F
$GPRMC,015801.280,A,3354.7857,N,11552.1987,W,31.18,336.24,230310,,*27
$GPRMC,015803.280,A,3354.8019,N,11552.2061,W,30.88,339.47,230310,,*28
$GPRMC,015804.280,A,3354.8103,N,11552.2097,W,31.58,340.15,230310,,*29
$GPRMC,015805.280,A,3354.8186,N,11552.2130,W,31.41,341.32,230310,,*25
$GPRMC,015806.280,A,3354.8268,N,11552.2162,W,31.02,341.43,230310,,*23
$GPRMC,015809.280,A,3354.8504,N,11552.2296,W,31.28,328.89,230310,,*28
$GPRMC,015810.280,A,3354.8577,N,11552.2353,W,31.08,325.76,230310,,*23
$GPRMC,015811.280,A,3354.8648,N,11552.2414,W,31.04,323.86,230310,,*2C
$GPRMC,015812.280,A,3354.8718,N,11552.2475,W,30.99,323.58,230310,,*2A
$GPRMC,015813.280,A,3354.8789,N,11552.2534,W,30.87,324.38,230310,,*29
$GPRMC,015814.280,A,3354.8858,N,11552.2593,W,30.67,324.48,230310,,*29
$GPRMC,015815.279,A,3354.8928,N,11552.2653,W,30.82,324.27,230310,,*25
$GPRMC,015816.279,A,3354.8998,N,11552.2715,W,31.09,322.83,230310,,*24
$GPRMC,015818.279,A,3354.9132,N,11552.2845,W,31.42,320.63,230310,,*2A
$GPRMC,015819.279,A,3354.9196,N,11552.2915,W,31.43,318.21,230310,,*2D
$GPRMC,015820.279,A,3354.9257,N,11552.2989,W,31.34,314.64,230310,,*21
$GPRMC,015821.279,A,3354.9314,N,11552.3066,W,31.21,312.21,230310,,*2C
$GPRMC,015824.279,A,3354.9472,N,11552.3306,W,30.78,307.94,230310,,*2C
$GPRMC,015825.279,A,3354.9523,N,11552.3389,W,31.07,306.52,230310,,*2D
$GPRMC,015826.279,A,3354.9574,N,11552.3474,W,31.29,305.85,230310,,*2C
$GPRMC,015827.279,A,3354.9624,N,11552.3560,W,31.35,305.77,230310,,*2F
$GPRMC,015828.279,A,3354.9674,N,11552.3645,W,31.09,304.95,230310,,*23
$GPRMC,015829.279,A,3354.9722,N,11552.3730,W,30.87,304.94,230310,,*25
$GPRMC,015830.278,A,3354.9771,N,11552.3814,W,30.65,305.44,230310,,*23
$GPRMC,015831.278,A,3354.9818,N,11552.3899,W,30.57,303.26,230310,,*24
$GPRMC,015833.278,A,3354.9902,N,11552.4079,W,31.17,298.72,230310,,*2A
$GPRMC,015834.278,A,3354.9941,N,11552.4173,W,31.37,296.71,230310,,*2E
$GPRMC,015835.278,A,3354.9976,N,11552.4269,W,31.34,294.06,230310,,*22
$GPRMC,015836.278,A,3355.0008,N,11552.4367,W,31.04,291.53,230310,,*20
$GPRMC,015839.278,A,3355.0082,N,11552.4666,W,30.78,284.87,230310,,*2E
$GPRMC,015840.278,A,3355.0101,N,11552.4767,W,30.85,283.02,230310,,*22
$GPRMC,015841.278,A,3355.0119,N,11552.4869,W,30.91,282.44,230310,,*2D
$GPRMC,015842.278,A,3355.0136,N,11552.4971,W,30.94,282.21,230310,,*2D
$GPRMC,015843.278,A,3355.0150,N,11552.5073,W,31.11,280.13,230310,,*29
$GPRMC,015844.278,A,3355.0161,N,11552.5176,W,30.97,277.93,230310,,*27
$GPRMC,015845.278,A,3355.0167,N,11552.5279,W,31.18,274.70,230310,,*24
$GPRMC,015846.277,A,3355.0169,N,11552.5383,W,31.05,271.89,230310,,*2D
$GPRMC,015848.277,A,3355.0169,N,11552.5590,W,31.05,269.96,230310,,*20
$GPRMC,015849.277,A,3355.0166,N,11552.5694,W,30.76,268.25,230310,,*25
$GPRMC,015850.277,A,3355.0160,N,11552.5797,W,30.76,266.49,230310,,*2D
$GPRMC,015851.277,A,3355.0153,N,11552.5900,W,30.84,265.86,230310,,*21
$GPRMC,015854.277,A,3355.0121,N,11552.6208,W,30.91,262.37,230310,,*28
$GPRMC,015855.277,A,3355.0107,N,11552.6311,W,31.03,261.65,230310,,*2A
$GPRMC,015856.277,A,3355.0093,N,11552.6414,W,31.09,261.29,230310,,*25
$GPRMC,015857.277,A,3355.0079,N,11552.6517,W,30.94,260.89,230310,,*2C
$GPRMC,015858.277,A,3355.0064,N,11552.6618,W,30.81,260.90,230310,,*2F
$GPRMC,015859.277,A,3355.0049,N,11552.6720,W,30.72,260.68,230310,,*20
$GPRMC,015900.277,A,3355.0032,N,11552.6821,W,30.79,259.20,230310,,*22
$GPRMC,015901.276,A,3355.0013,N,11552.6923,W,30.98,257.60,230310,,*27
$GPRMC,015903.276,A,3354.9965,N,11552.7124,W,31.04,253.23,230310,,*2C
$GPRMC,015904.276,A,3354.9937,N,11552.7223,W,30.92,251.73,230310,,*21
$GPRMC,015905.276,A,3354.9908,N,11552.7320,W,30.82,250.41,230310,,*2F
$GPRMC,015906.276,A,3354.9876,N,11552.7416,W,30.77,249.17,230310,,*27
$GPRMC,015909.276,A,3354.9790,N,11552.7709,W,30.89,251.73,230310,,*28
$GPRMC,015910.276,A,3354.9764,N,11552.7808,W,30.83,253.12,230310,,*2A
$GPRMC,015911.276,A,3354.9740,N,11552.7907,W,30.79,254.57,230310,,*20
$GPRMC,015912.276,A,3354.9717,N,11552.8006,W,30.62,255.02,230310,,*2D
$GPRMC,015913.276,A,3354.9695,N,11552.8104,W,30.38,255.73,230310,,*2D
$GPRMC,015914.276,A,3354.9675,N,11552.8201,W,29.77,256.53,230310,,*20
$GPRMC,015915.276,A,3354.9655,N,11552.8293,W,28.40,255.81,230310,,*21
$GPRMC,015916.275,A,3354.9634,N,11552.8379,W,26.80,253.93,230310,,*24
$GPRMC,015918.275,A,3354.9585,N,11552.8542,W,25.48,249.22,230310,,*2B
$GPRMC,015919.275,A,3354.9556,N,11552.8619,W,25.08,245.87,230310,,*2E
$GPRMC,015920.275,A,3354.9527,N,11552.8694,W,24.71,245.20,230310,,*25
$GPRMC,015921.275,A,3354.9500,N,11552.8768,W,24.42,245.93,230310,,*2B
$GPRMC,015924.275,A,3354.9435,N,11552.8992,W,23.44,255.42,230310,,*2E
$GPRMC,015925.275,A,3354.9423,N,11552.9069,W,23.51,259.70,230310,,*2D
$GPRMC,015926.275,A,3354.9417,N,11552.9145,W,22.93,265.51,230310,,*25
$GPRMC,015927.275,A,3354.9420,N,11552.9222,W,23.10,273.21,230310,,*28
$GPRMC,015928.275,A,3354.9431,N,11552.9298,W,23.22,280.40,230310,,*2C
$GPRMC,015929.275,A,3354.9452,N,11552.9374,W,24.00,288.21,230310,,*23
$GPRMC,015930.275,A,3354.9481,N,11552.9448,W,24.39,295.34,230310,,*2F
$GPRMC,015931.275,A,3354.9514,N,11552.9519,W,24.31,298.85,230310,,*29
$GPRMC,015933.274,A,3354.9597,N,11552.9661,W,25.97,306.16,230310,,*2C
$GPRMC,015934.274,A,3354.9645,N,11552.9731,W,26.73,308.59,230310,,*2F
$GPRMC,015935.274,A,3354.9697,N,11552.9801,W,27.26,311.08,230310,,*20
$GPRMC,015936.274,A,3354.9753,N,11552.9869,W,27.82,313.62,230310,,*24
$GPRMC,015939.274,A,3354.9938,N,11553.0064,W,29.03,318.94,230310,,*20
$GPRMC,015940.274,A,3355.0001,N,11553.0128,W,28.92,319.02,230310,,*2B
$GPRMC,015941.274,A,3355.0064,N,11553.0191,W,28.73,319.17,230310,,*20
$GPRMC,015942.274,A,3355.0124,N,11553.0254,W,28.53,318.13,230310,,*2B
$GPRMC,015943.274,A,3355.0183,N,11553.0318,W,28.13,317.20,230310,,*25
$GPRMC,015944.274,A,3355.0240,N,11553.0381,W,27.80,316.48,230310,,*24
$GPRMC,015945.274,A,3355.0293,N,11553.0447,W,27.31,313.71,230310,,*23
$GPRMC,015946.274,A,3355.0343,N,11553.0515,W,26.84,310.43,230310,,*27
$GPRMC,015948.273,A,3355.0421,N,11553.0664,W,26.43,299.56,230310,,*27
$GPRMC,015949.273,A,3355.0453,N,11553.0746,W,27.06,295.06,230310,,*2B
$GPRMC,015950.273,A,3355.0481,N,11553.0832,W,27.36,291.06,230310,,*27
$GPRMC,015951.273,A,3355.0506,N,11553.0919,W,27.65,288.69,230310,,*27
$GPRMC,015954.273,A,3355.0579,N,11553.1180,W,27.26,289.28,230310,,*20
$GPRMC,015955.273,A,3355.0606,N,11553.1264,W,26.80,291.76,230310,,*2C
$GPRMC,015956.273,A,3355.0638,N,11553.1345,W,26.96,295.34,230310,,*25
$GPRMC,015957.273,A,3355.0675,N,11553.1425,W,27.20,299.46,230310,,*29
$GPRMC,015958.273,A,3355.0716,N,11553.1502,W,27.32,303.35,230310,,*23
$GPRMC,015959.273,A,3355.0765,N,11553.1574,W,27.73,309.30,230310,,*2D
$GPRMC,020000.273,A,3355.0818,N,11553.1642,W,28.11,313.30,230310,,*2D
$GPRMC,020001.273,A,3355.0876,N,11553.1708,W,28.59,316.68,230310,,*2F
$GPRMC,020003.272,A,3355.1000,N,11553.1831,W,29.02,321.24,230310,,*22
$GPRMC,020004.272,A,3355.1063,N,11553.1893,W,29.25,320.62,230310,,*2E
$GPRMC,020005.272,A,3355.1126,N,11553.1957,W,29.56,319.49,230310,,*21
$GPRMC,020006.272,A,3355.1190,N,11553.2023,W,30.37,319.42,230310,,*22
$GPRMC,020009.272,A,3355.1386,N,11553.2235,W,31.91,317.11,230310,,*28
$GPRMC,020010.272,A,3355.1451,N,11553.2307,W,31.44,317.04,230310,,*21
$GPRMC,020011.272,A,3355.1514,N,11553.2376,W,30.48,317.58,230310,,*22
$GPRMC,020012.272,A,3355.1578,N,11553.2444,W,30.41,318.11,230310,,*26
$GPRMC,020013.272,A,3355.1640,N,11553.2513,W,30.31,317.49,230310,,*29
$GPRMC,020014.272,A,3355.1705,N,11553.2583,W,30.67,317.37,230310,,*2D
$GPRMC,020015.272,A,3355.1769,N,11553.2653,W,30.91,317.76,230310,,*24
$GPRMC,020016.272,A,3355.1837,N,11553.2725,W,31.86,318.19,230310,,*22
$GPRMC,020018.271,A,3355.1966,N,11553.2869,W,31.21,316.06,230310,,*20
$GPRMC,020019.271,A,3355.2028,N,11553.2941,W,30.79,316.01,230310,,*21
$GPRMC,020020.271,A,3355.2090,N,11553.3011,W,30.52,316.32,230310,,*2C
$GPRMC,020021.271,A,3355.2153,N,11553.3081,W,30.58,316.41,230310,,*24
$GPRMC,020024.271,A,3355.2341,N,11553.3295,W,31.05,316.15,230310,,*2F
$GPRMC,020025.271,A,3355.2403,N,11553.3368,W,31.16,315.39,230310,,*23
$GPRMC,020026.271,A,3355.2464,N,11553.3442,W,31.06,314.31,230310,,*26
$GPRMC,020027.271,A,3355.2523,N,11553.3517,W,30.78,313.23,230310,,*28
$GPRMC,020028.271,A,3355.2581,N,11553.3593,W,30.71,312.49,230310,,*27
$GPRMC,020029.271,A,3355.2639,N,11553.3670,W,30.88,311.72,230310,,*25
$GPRMC,020030.271,A,3355.2695,N,11553.3748,W,30.74,310.25,230310,,*21
$GPRMC,020031.271,A,3355.2749,N,11553.3828,W,30.92,309.22,230310,,*2E
$GPRMC,020033.270,A,3355.2854,N,11553.3993,W,30.93,306.11,230310,,*21
$GPRMC,020034.270,A,3355.2904,N,11553.4078,W,30.96,304.84,230310,,*22
$GPRMC,020035.270,A,3355.2952,N,11553.4165,W,30.98,303.69,230310,,*27
$GPRMC,020036.270,A,3355.2997,N,11553.4254,W,31.04,301.61,230310,,*22
$GPRMC,020039.270,A,3355.3121,N,11553.4528,W,30.95,296.79,230310,,*2A
$GPRMC,020040.270,A,3355.3155,N,11553.4622,W,30.74,293.39,230310,,*20
$GPRMC,020041.270,A,3355.3183,N,11553.4720,W,30.71,289.61,230310,,*2A
$GPRMC,020042.270,A,3355.3206,N,11553.4819,W,30.87,285.98,230310,,*21
$GPRMC,020043.270,A,3355.3224,N,11553.4921,W,31.11,282.10,230310,,*23
$GPRMC,020044.270,A,3355.3236,N,11553.5025,W,31.45,278.59,230310,,*22
$GPRMC,020045.270,A,3355.3246,N,11553.5129,W,31.33,276.87,230310,,*25
$GPRMC,020046.270,A,3355.3258,N,11553.5232,W,31.15,278.12,230310,,*26
$GPRMC,020048.270,A,3355.3296,N,11553.5427,W,30.22,287.23,230310,,*2F
$GPRMC,020049.269,A,3355.3327,N,11553.5521,W,30.27,291.96,230310,,*26
$GPRMC,020050.269,A,3355.3365,N,11553.5612,W,30.40,297.02,230310,,*21
$GPRMC,020051.269,A,3355.3411,N,11553.5698,W,30.56,303.54,230310,,*2E
$GPRMC,020054.269,A,3355.3592,N,11553.5910,W,30.57,321.81,230310,,*27
$GPRMC,020055.269,A,3355.3660,N,11553.5970,W,30.51,323.79,230310,,*2D
$GPRMC,020056.269,A,3355.3729,N,11553.6030,W,30.46,323.72,230310,,*21
$GPRMC,020057.269,A,3355.3798,N,11553.6089,W,30.76,324.10,230310,,*28
$GPRMC,020058.269,A,3355.3868,N,11553.6150,W,31.08,323.64,230310,,*2E
$GPRMC,020059.269,A,3355.3939,N,11553.6212,W,31.34,323.77,230310,,*22
$GPRMC,020100.269,A,3355.4010,N,11553.6274,W,31.41,323.67,230310,,*29
$GPRMC,020101.269,A,3355.4080,N,11553.6337,W,31.30,322.84,230310,,*2D
$GPRMC,020103.269,A,3355.4213,N,11553.6468,W,30.62,319.44,230310,,*28
$GPRMC,020104.268,A,3355.4276,N,11553.6537,W,30.63,317.74,230310,,*2A
$GPRMC,020105.268,A,3355.4338,N,11553.6609,W,30.84,315.68,230310,,*28
$GPRMC,020106.268,A,3355.4398,N,11553.6683,W,30.99,313.76,230310,,*26
$GPRMC,020109.268,A,3355.4566,N,11553.6925,W,31.03,306.51,230310,,*2E
$GPRMC,020110.268,A,3355.4612,N,11553.7014,W,30.96,301.93,230310,,*28
$GPRMC,020111.268,A,3355.4653,N,11553.7107,W,30.96,297.38,230310,,*20
$GPRMC,020112.268,A,3355.4684,N,11553.7203,W,30.42,291.04,230310,,*2E
$GPRMC,020113.268,A,3355.4707,N,11553.7303,W,30.76,285.20,230310,,*20
$GPRMC,020114.268,A,3355.4724,N,11553.7405,W,31.06,280.38,230310,,*2D
$GPRMC,020115.268,A,3355.4734,N,11553.7510,W,31.42,276.00,230310,,*2A
$GPRMC,020116.268,A,3355.4739,N,11553.7615,W,31.54,272.90,230310,,*28
$GPRMC,020118.268,A,3355.4744,N,11553.7824,W,30.94,271.11,230310,,*27
$GPRMC,020119.268,A,3355.4743,N,11553.7927,W,30.77,270.25,230310,,*28
$GPRMC,020120.267,A,3355.4741,N,11553.8031,W,30.71,268.48,230310,,*2A
$GPRMC,020121.267,A,3355.4737,N,11553.8135,W,30.82,268.42,230310,,*29
$GPRMC,020124.267,A,3355.4765,N,11553.8442,W,31.28,285.60,230310,,*2C
$GPRMC,020125.267,A,3355.4798,N,11553.8535,W,30.32,294.47,230310,,*21
$GPRMC,020126.267,A,3355.4842,N,11553.8616,W,28.87,303.77,230310,,*23
$GPRMC,020127.267,A,3355.4901,N,11553.8687,W,30.54,315.99,230310,,*2C
$GPRMC,020128.267,A,3355.4964,N,11553.8746,W,29.23,322.49,230310,,*2D
$GPRMC,020129.267,A,3355.5021,N,11553.8805,W,27.38,318.93,230310,,*27
$GPRMC,020130.267,A,3355.5068,N,11553.8867,W,25.48,312.58,230310,,*2E
$GPRMC,020131.267,A,3355.5107,N,11553.8932,W,24.03,305.45,230310,,*22
$GPRMC,020133.267,A,3355.5163,N,11553.9078,W,24.10,290.29,230310,,*21
$GPRMC,020134.267,A,3355.5182,N,11553.9155,W,23.95,286.05,230310,,*24
$GPRMC,020135.266,A,3355.5198,N,11553.9234,W,24.26,283.20,230310,,*26
$GPRMC,020136.266,A,3355.5213,N,11553.9315,W,24.73,282.43,230310,,*23
$GPRMC,020139.266,A,3355.5258,N,11553.9570,W,26.89,281.17,230310,,*23
$GPRMC,020140.266,A,3355.5266,N,11553.9659,W,26.62,276.91,230310,,*2B
$GPRMC,020141.266,A,3355.5281,N,11553.9753,W,28.61,280.99,230310,,*24
$GPRMC,020142.266,A,3355.5298,N,11553.9851,W,29.92,281.67,230310,,*2F
$GPRMC,020143.266,A,3355.5316,N,11553.9952,W,30.95,282.50,230310,,*23
$GPRMC,020144.266,A,3355.5339,N,11554.0056,W,31.83,284.38,230310,,*24
$GPRMC,020145.266,A,3355.5368,N,11554.0154,W,30.72,288.96,230310,,*25
$GPRMC,020146.266,A,3355.5402,N,11554.0244,W,29.27,294.17,230310,,*23
$GPRMC,020148.266,A,3355.5484,N,11554.0397,W,26.26,305.35,230310,,*2B
$GPRMC,020149.266,A,3355.5524,N,11554.0468,W,25.69,304.19,230310,,*21
$GPRMC,020150.265,A,3355.5560,N,11554.0542,W,25.33,300.09,230310,,*29
$GPRMC,020151.265,A,3355.5591,N,11554.0619,W,25.52,295.03,230310,,*2B
$GPRMC,020154.265,A,3355.5664,N,11554.0871,W,27.39,287.74,230310,,*2B
$GPRMC,020155.265,A,3355.5685,N,11554.0960,W,27.94,285.50,230310,,*27
$GPRMC,020156.265,A,3355.5702,N,11554.1052,W,28.43,282.71,230310,,*22
$GPRMC,020157.265,A,3355.5716,N,11554.1147,W,29.05,279.97,230310,,*2C
$GPRMC,020158.265,A,3355.5727,N,11554.1244,W,29.37,277.21,230310,,*23
$GPRMC,020159.265,A,3355.5733,N,11554.1343,W,29.87,274.28,230310,,*20
$GPRMC,020200.265,A,3355.5737,N,11554.1444,W,30.39,272.52,230310,,*2D
$GPRMC,020201.265,A,3355.5739,N,11554.1546,W,30.68,271.60,230310,,*27
$GPRMC,020203.265,A,3355.5742,N,11554.1753,W,30.85,270.37,230310,,*2F
$GPRMC,020204.265,A,3355.5744,N,11554.1856,W,30.50,270.33,230310,,*28
$GPRMC,020205.265,A,3355.5746,N,11554.1957,W,29.85,270.85,230310,,*26
$GPRMC,020206.264,A,3355.5751,N,11554.2056,W,29.44,272.84,230310,,*27
$GPRMC,020209.264,A,3355.5803,N,11554.2347,W,29.68,289.60,230310,,*23
$GPRMC,020210.264,A,3355.5839,N,11554.2437,W,29.76,296.30,230310,,*26
$GPRMC,020211.264,A,3355.5881,N,11554.2520,W,29.03,301.75,230310,,*2F
$GPRMC,020212.264,A,3355.5927,N,11554.2600,W,28.85,304.83,230310,,*23
$GPRMC,020213.264,A,3355.5973,N,11554.2677,W,28.46,305.96,230310,,*29
$GPRMC,020214.264,A,3355.6019,N,11554.2753,W,27.71,306.48,230310,,*24
$GPRMC,020215.264,A,3355.6065,N,11554.2826,W,27.12,306.94,230310,,*27
$GPRMC,020216.264,A,3355.6110,N,11554.2899,W,26.67,305.72,230310,,*2B
$GPRMC,020218.264,A,3355.6197,N,11554.3049,W,27.48,303.89,230310,,*20
$GPRMC,020219.264,A,3355.6237,N,11554.3129,W,27.62,300.95,230310,,*29
$GPRMC,020220.264,A,3355.6274,N,11554.3211,W,27.77,298.18,230310,,*2D
$GPRMC,020221.263,A,3355.6310,N,11554.3294,W,27.94,297.13,230310,,*2C
$GPRMC,020224.263,A,3355.6403,N,11554.3545,W,26.98,296.07,230310,,*2E
$GPRMC,020225.263,A,3355.6442,N,11554.3623,W,26.90,301.31,230310,,*2B
$GPRMC,020226.263,A,3355.6484,N,11554.3699,W,26.98,303.16,230310,,*2C
$GPRMC,020227.263,A,3355.6526,N,11554.3777,W,27.66,302.41,230310,,*26
$GPRMC,020228.263,A,3355.6560,N,11554.3861,W,27.59,295.22,230310,,*25
$GPRMC,020229.263,A,3355.6584,N,11554.3949,W,27.79,288.06,230310,,*2D
$GPRMC,020230.263,A,3355.6603,N,11554.4039,W,27.79,283.84,230310,,*21
$GPRMC,020231.263,A,3355.6619,N,11554.4129,W,27.78,282.77,230310,,*27
$GPRMC,020233.263,A,3355.6658,N,11554.4306,W,27.29,286.34,230310,,*28
$GPRMC,020234.263,A,3355.6685,N,11554.4389,W,26.61,292.20,230310,,*25
$GPRMC,020235.263,A,3355.6716,N,11554.4469,W,26.61,295.81,230310,,*2A
$GPRMC,020236.262,A,3355.6743,N,11554.4552,W,26.83,291.60,230310,,*26
$GPRMC,020239.262,A,3355.6784,N,11554.4825,W,28.11,275.05,230310,,*23
$GPRMC,020240.262,A,3355.6786,N,11554.4918,W,27.80,271.43,230310,,*21
$GPRMC,020241.262,A,3355.6787,N,11554.5011,W,27.78,270.16,230310,,*26
$GPRMC,020242.262,A,3355.6783,N,11554.5102,W,27.17,266.61,230310,,*2C
$GPRMC,020243.262,A,3355.6777,N,11554.5192,W,26.96,266.32,230310,,*21
$GPRMC,020244.262,A,3355.6770,N,11554.5282,W,27.30,265.27,230310,,*29
$GPRMC,020245.262,A,3355.6765,N,11554.5376,W,28.09,267.12,230310,,*27
$GPRMC,020246.262,A,3355.6760,N,11554.5468,W,27.72,266.31,230310,,*2A
$GPRMC,020248.262,A,3355.6746,N,11554.5650,W,27.36,265.39,230310,,*22
$GPRMC,020249.262,A,3355.6738,N,11554.5740,W,27.16,265.64,230310,,*20
$GPRMC,020250.262,A,3355.6733,N,11554.5830,W,27.15,267.35,230310,,*2E
$GPRMC,020251.262,A,3355.6730,N,11554.5921,W,27.11,268.67,230310,,*21
$GPRMC,020254.261,A,3355.6752,N,11554.6171,W,24.30,280.54,230310,,*2B
$GPRMC,020255.261,A,3355.6763,N,11554.6250,W,23.82,280.82,230310,,*2D
$GPRMC,020256.261,A,3355.6773,N,11554.6327,W,23.25,279.32,230310,,*2E
$GPRMC,020257.261,A,3355.6777,N,11554.6405,W,23.22,273.75,230310,,*22
$GPRMC,020258.261,A,3355.6770,N,11554.6483,W,23.54,265.07,230310,,*27
$GPRMC,020259.261,A,3355.6757,N,11554.6561,W,24.10,258.62,230310,,*24
$GPRMC,020300.261,A,3355.6735,N,11554.6637,W,24.49,250.19,230310,,*25
$GPRMC,020301.261,A,3355.6705,N,11554.6711,W,24.83,242.77,230310,,*2F
$GPRMC,020303.261,A,3355.6634,N,11554.6857,W,25.74,239.86,230310,,*28
$GPRMC,020304.261,A,3355.6598,N,11554.6931,W,25.75,239.84,230310,,*28
$GPRMC,020305.261,A,3355.6563,N,11554.7005,W,25.50,240.97,230310,,*29
$GPRMC,020306.261,A,3355.6534,N,11554.7080,W,24.80,245.44,230310,,*22
$GPRMC,020309.260,A,3355.6473,N,11554.7310,W,23.79,252.35,230310,,*25
$GPRMC,020310.260,A,3355.6450,N,11554.7383,W,23.32,249.87,230310,,*2A
$GPRMC,020311.260,A,3355.6423,N,11554.7456,W,23.76,245.86,230310,,*2D
$GPRMC,020312.260,A,3355.6390,N,11554.7527,W,24.19,240.83,230310,,*28
$GPRMC,020313.260,A,3355.6352,N,11554.7595,W,24.61,235.71,230310,,*2E
$GPRMC,020314.260,A,3355.6309,N,11554.7661,W,25.21,231.79,230310,,*26
$GPRMC,020315.260,A,3355.6263,N,11554.7726,W,25.61,229.94,230310,,*26
$GPRMC,020316.260,A,3355.6217,N,11554.7790,W,25.21,229.04,230310,,*26
$GPRMC,020318.260,A,3355.6121,N,11554.7907,W,24.12,224.30,230310,,*25
$GPRMC,020319.260,A,3355.6071,N,11554.7961,W,23.88,222.25,230310,,*26
$GPRMC,020320.260,A,3355.6019,N,11554.8012,W,24.12,219.34,230310,,*2C
$GPRMC,020321.260,A,3355.5962,N,11554.8059,W,24.60,215.20,230310,,*28
$GPRMC,020324.259,A,3355.5771,N,11554.8175,W,25.88,204.78,230310,,*2E
$GPRMC,020325.259,A,3355.5705,N,11554.8213,W,25.89,206.10,230310,,*22
$GPRMC,020326.259,A,3355.5641,N,11554.8254,W,25.95,208.72,230310,,*24
$GPRMC,020327.259,A,3355.5581,N,11554.8300,W,25.59,212.81,230310,,*2D
$GPRMC,020328.259,A,3355.5523,N,11554.8350,W,25.25,217.20,230310,,*2A
$GPRMC,020329.259,A,3355.5469,N,11554.8404,W,25.23,220.43,230310,,*25
$GPRMC,020330.259,A,3355.5417,N,11554.8462,W,25.11,223.51,230310,,*25
$GPRMC,020331.259,A,3355.5368,N,11554.8522,W,24.71,226.12,230310,,*2B
$GPRMC,020333.259,A,3355.5288,N,11554.8648,W,23.23,235.60,230310,,*2E
$GPRMC,020334.259,A,3355.5258,N,11554.8717,W,22.89,241.95,230310,,*27
$GPRMC,020335.259,A,3355.5235,N,11554.8789,W,23.13,248.74,230310,,*2E
$GPRMC,020336.259,A,3355.5218,N,11554.8866,W,23.69,254.10,230310,,*2E
$GPRMC,020339.258,A,3355.5173,N,11554.9116,W,26.32,258.22,230310,,*27
$GPRMC,020340.258,A,3355.5158,N,11554.9205,W,27.05,257.88,230310,,*2B
$GPRMC,020341.258,A,3355.5141,N,11554.9295,W,27.76,256.68,230310,,*20
$GPRMC,020342.258,A,3355.5124,N,11554.9389,W,28.18,256.27,230310,,*20
$GPRMC,020343.258,A,3355.5106,N,11554.9484,W,28.63,256.15,230310,,*26
$GPRMC,020344.258,A,3355.5087,N,11554.9579,W,29.16,255.74,230310,,*2D
$GPRMC,020345.258,A,3355.5064,N,11554.9670,W,28.26,252.37,230310,,*29
$GPRMC,020346.258,A,3355.5038,N,11554.9756,W,27.41,249.82,230310,,*2C
$GPRMC,020348.258,A,3355.4975,N,11554.9925,W,27.97,243.03,230310,,*21
$GPRMC,020349.258,A,3355.4937,N,11555.0006,W,28.04,240.67,230310,,*22
$GPRMC,020350.258,A,3355.4900,N,11555.0089,W,28.17,241.14,230310,,*2E
$GPRMC,020351.258,A,3355.4863,N,11555.0172,W,28.47,241.83,230310,,*25
$GPRMC,020354.257,A,3355.4755,N,11555.0426,W,28.69,245.34,230310,,*25
$GPRMC,020355.257,A,3355.4725,N,11555.0511,W,28.00,247.78,230310,,*23
$GPRMC,020356.257,A,3355.4699,N,11555.0597,W,27.32,250.50,230310,,*2A
$GPRMC,020357.257,A,3355.4679,N,11555.0680,W,26.23,253.51,230310,,*23
$GPRMC,020358.257,A,3355.4660,N,11555.0765,W,26.37,255.84,230310,,*25
$GPRMC,020359.257,A,3355.4642,N,11555.0851,W,26.56,256.17,230310,,*22
$GPRMC,020400.257,A,3355.4624,N,11555.0937,W,26.75,256.47,230310,,*2C
$GPRMC,020401.257,A,3355.4605,N,11555.1024,W,26.95,254.77,230310,,*2B
$GPRMC,020403.257,A,3355.4560,N,11555.1197,W,27.49,252.07,230310,,*21
$GPRMC,020404.257,A,3355.4536,N,11555.1284,W,27.29,251.20,230310,,*24
$GPRMC,020405.257,A,3355.4510,N,11555.1368,W,26.97,249.95,230310,,*21
$GPRMC,020406.257,A,3355.4486,N,11555.1452,W,26.81,250.17,230310,,*27
$GPRMC,020409.256,A,3355.4413,N,11555.1711,W,27.72,251.08,230310,,*23
$GPRMC,020410.256,A,3355.4387,N,11555.1800,W,28.16,250.68,230310,,*24
$GPRMC,020411.256,A,3355.4359,N,11555.1890,W,28.63,249.77,230310,,*2B
$GPRMC,020412.256,A,3355.4330,N,11555.1980,W,28.99,248.42,230310,,*25
$GPRMC,020413.256,A,3355.4300,N,11555.2070,W,29.22,247.87,230310,,*25
$GPRMC,020414.256,A,3355.4272,N,11555.2159,W,28.51,249.38,230310,,*23
$GPRMC,020415.256,A,3355.4249,N,11555.2248,W,27.77,253.07,230310,,*25
$GPRMC,020416.256,A,3355.4232,N,11555.2337,W,27.20,256.74,230310,,*20
$GPRMC,020418.256,A,3355.4211,N,11555.2512,W,26.48,263.63,230310,,*21
$GPRMC,020419.256,A,3355.4202,N,11555.2600,W,26.50,263.87,230310,,*21
$GPRMC,020420.256,A,3355.4192,N,11555.2688,W,26.94,262.81,230310,,*2E
$GPRMC,020421.256,A,3355.4181,N,11555.2779,W,27.33,262.06,230310,,*21
$GPRMC,020424.255,A,3355.4140,N,11555.3043,W,26.30,259.60,230310,,*2F
$GPRMC,020425.255,A,3355.4134,N,11555.3129,W,25.68,264.52,230310,,*21
$GPRMC,020426.255,A,3355.4135,N,11555.3214,W,25.47,270.41,230310,,*24
$GPRMC,020427.255,A,3355.4141,N,11555.3299,W,25.49,274.21,230310,,*2F
$GPRMC,020428.255,A,3355.4155,N,11555.3386,W,26.14,281.26,230310,,*2C
$GPRMC,020429.255,A,3355.4172,N,11555.3472,W,26.27,283.50,230310,,*27
$GPRMC,020430.255,A,3355.4192,N,11555.3559,W,26.55,285.29,230310,,*24
$GPRMC,020431.255,A,3355.4216,N,11555.3644,W,26.82,287.25,230310,,*21
$GPRMC,020433.255,A,3355.4262,N,11555.3817,W,27.23,284.73,230310,,*22
$GPRMC,020434.255,A,3355.4282,N,11555.3906,W,27.52,283.74,230310,,*2C
$GPRMC,020435.255,A,3355.4301,N,11555.3997,W,27.67,282.43,230310,,*2C
$GPRMC,020436.255,A,3355.4316,N,11555.4087,W,27.51,280.75,230310,,*24
$GPRMC,020439.254,A,3355.4345,N,11555.4346,W,25.59,273.48,230310,,*2A
$GPRMC,020440.254,A,3355.4343,N,11555.4432,W,25.49,267.42,230310,,*28
$GPRMC,020441.254,A,3355.4335,N,11555.4515,W,25.11,262.45,230310,,*23
$GPRMC,020442.254,A,3355.4326,N,11555.4597,W,24.73,261.99,230310,,*2F
$GPRMC,020443.254,A,3355.4315,N,11555.4678,W,24.36,261.02,230310,,*2F
$GPRMC,020444.254,A,3355.4304,N,11555.4759,W,24.21,260.73,230310,,*2B
$GPRMC,020445.254,A,3355.4296,N,11555.4840,W,24.27,263.29,230310,,*2D
$GPRMC,020446.254,A,3355.4294,N,11555.4922,W,24.48,268.24,230310,,*26
$GPRMC,020448.254,A,3355.4300,N,11555.5092,W,25.41,274.20,230310,,*26
$GPRMC,020449.254,A,3355.4312,N,11555.5177,W,25.81,279.60,230310,,*2B
$GPRMC,020450.254,A,3355.4331,N,11555.5263,W,26.57,285.90,230310,,*20
$GPRMC,020451.254,A,3355.4355,N,11555.5346,W,26.52,289.91,230310,,*2D
$GPRMC,020454.254,A,3355.4467,N,11555.5578,W,27.35,306.91,230310,,*23
$GPRMC,020455.253,A,3355.4519,N,11555.5647,W,27.73,312.83,230310,,*26
$GPRMC,020456.253,A,3355.4577,N,11555.5713,W,28.97,316.77,230310,,*27
$GPRMC,020457.253,A,3355.4638,N,11555.5779,W,29.61,318.16,230310,,*23
$GPRMC,020458.253,A,3355.4701,N,11555.5843,W,29.51,318.96,230310,,*2A
$GPRMC,020459.253,A,3355.4764,N,11555.5903,W,29.15,320.83,230310,,*22
$GPRMC,020500.253,A,3355.4826,N,11555.5962,W,28.57,321.66,230310,,*2C
$GPRMC,020501.253,A,3355.4888,N,11555.6018,W,27.87,322.15,230310,,*2B
$GPRMC,020503.253,A,3355.5003,N,11555.6131,W,25.76,318.68,230310,,*26
$GPRMC,020504.253,A,3355.5054,N,11555.6192,W,25.64,314.38,230310,,*20
$GPRMC,020505.253,A,3355.5096,N,11555.6259,W,24.69,305.64,230310,,*2E
$GPRMC,020506.253,A,3355.5127,N,11555.6331,W,23.89,296.07,230310,,*2E
$GPRMC,020509.253,A,3355.5151,N,11555.6553,W,22.32,266.03,230310,,*28
$GPRMC,020510.252,A,3355.5144,N,11555.6628,W,22.76,263.20,230310,,*2E
$GPRMC,020511.252,A,3355.5135,N,11555.6705,W,22.95,262.15,230310,,*2D
$GPRMC,020512.252,A,3355.5127,N,11555.6782,W,23.18,263.57,230310,,*21
$GPRMC,020513.252,A,3355.5126,N,11555.6859,W,22.81,269.06,230310,,*27
$GPRMC,020514.252,A,3355.5125,N,11555.6933,W,22.13,269.68,230310,,*2D
$GPRMC,020515.252,A,3355.5136,N,11555.7008,W,22.69,280.03,230310,,*29
$GPRMC,020516.252,A,3355.5158,N,11555.7080,W,22.62,290.72,230310,,*2E
$GPRMC,020518.252,A,3355.5220,N,11555.7216,W,22.97,301.25,230310,,*20
$GPRMC,020519.252,A,3355.5261,N,11555.7276,W,22.98,309.26,230310,,*26
$GPRMC,020520.252,A,3355.5305,N,11555.7334,W,23.15,311.48,230310,,*2D
$GPRMC,020521.252,A,3355.5346,N,11555.7392,W,22.51,309.47,230310,,*20
$GPRMC,020524.252,A,3355.5417,N,11555.7579,W,19.77,284.23,230310,,*2F
$GPRMC,020525.252,A,3355.5420,N,11555.7645,W,19.73,271.69,230310,,*26
$GPRMC,020526.251,A,3355.5412,N,11555.7711,W,20.25,260.90,230310,,*28
$GPRMC,020527.251,A,3355.5395,N,11555.7777,W,21.03,252.56,230310,,*2F
$GPRMC,020528.251,A,3355.5371,N,11555.7844,W,21.72,248.25,230310,,*2C
$GPRMC,020529.251,A,3355.5344,N,11555.7912,W,22.36,245.03,230310,,*23
$GPRMC,020530.251,A,3355.5314,N,11555.7980,W,22.77,242.92,230310,,*2F
$GPRMC,020531.251,A,3355.5290,N,11555.8049,W,21.93,248.40,230310,,*2C
$GPRMC,020533.251,A,3355.5271,N,11555.8187,W,20.19,267.83,230310,,*23
$GPRMC,020534.251,A,3355.5279,N,11555.8255,W,20.60,279.01,230310,,*2B
$GPRMC,020535.251,A,3355.5291,N,11555.8324,W,21.06,283.55,230310,,*2E
$GPRMC,020536.251,A,3355.5311,N,11555.8391,W,21.51,289.18,230310,,*2B
$GPRMC,020539.251,A,3355.5365,N,11555.8609,W,23.09,282.97,230310,,*20
$GPRMC,020540.251,A,3355.5376,N,11555.8687,W,23.51,279.00,230310,,*2D
$GPRMC,020541.250,A,3355.5382,N,11555.8766,W,23.87,274.87,230310,,*21
$GPRMC,020542.250,A,3355.5383,N,11555.8844,W,23.36,269.93,230310,,*2F
$GPRMC,020543.250,A,3355.5383,N,11555.8921,W,22.87,269.12,230310,,*2E
$GPRMC,020544.250,A,3355.5384,N,11555.8994,W,21.90,270.95,230310,,*22
$GPRMC,020545.250,A,3355.5393,N,11555.9062,W,20.59,279.25,230310,,*22
$GPRMC,020546.250,A,3355.5414,N,11555.9125,W,19.97,292.41,230310,,*24
$GPRMC,020548.250,A,3355.5482,N,11555.9236,W,20.90,312.55,230310,,*25
$GPRMC,020549.250,A,3355.5525,N,11555.9282,W,21.02,318.71,230310,,*21
$GPRMC,020550.250,A,3355.5571,N,11555.9328,W,21.61,320.99,230310,,*21
$GPRMC,020551.250,A,3355.5615,N,11555.9377,W,21.81,317.05,230310,,*24
$GPRMC,020554.250,A,3355.5724,N,11555.9564,W,23.21,297.31,230310,,*20
$GPRMC,020555.250,A,3355.5749,N,11555.9636,W,23.46,292.90,230310,,*21
$GPRMC,020556.249,A,3355.5771,N,11555.9712,W,23.92,288.36,230310,,*28
$GPRMC,020557.249,A,3355.5790,N,11555.9791,W,24.48,284.99,230310,,*24
$GPRMC,020558.249,A,3355.5807,N,11555.9872,W,25.09,284.02,230310,,*2E
$GPRMC,020559.249,A,3355.5821,N,11555.9956,W,25.58,280.71,230310,,*28
$GPRMC,020600.249,A,3355.5830,N,11556.0042,W,25.86,276.57,230310,,*2F
$GPRMC,020601.249,A,3355.5834,N,11556.0128,W,25.83,272.37,230310,,*20
$GPRMC,020603.249,A,3355.5824,N,11556.0291,W,24.34,263.46,230310,,*29
$GPRMC,020604.249,A,3355.5807,N,11556.0368,W,23.93,254.65,230310,,*27
$GPRMC,020605.249,A,3355.5781,N,11556.0445,W,24.34,248.93,230310,,*21
$GPRMC,020606.249,A,3355.5753,N,11556.0522,W,24.88,247.31,230310,,*2D
$GPRMC,020609.249,A,3355.5665,N,11556.0757,W,26.02,246.38,230310,,*2E
$GPRMC,020610.249,A,3355.5636,N,11556.0839,W,26.44,247.20,230310,,*2D
$GPRMC,020611.249,A,3355.5611,N,11556.0922,W,26.35,249.86,230310,,*26
$GPRMC,020612.248,A,3355.5594,N,11556.1005,W,25.44,256.31,230310,,*20
