NMEA Sentence Code,UTC Time,Status,Latitude,Latitude Direction,Longitude,Longitude Direction,Speed (knots),Track Angle (degrees true),Date,MagneticVariation,Magnetic Variation Direction,[FAA Mode]-Optional,Checksum
$GPRMC,000223.000,A,3244.9713,N,11554.9382,W,48.36,260.4,090810,,*12
$GPRMC,000226.000,A,3244.9651,N,11554.9861,W,48.55,260.5,090810,,*12
$GPRMC,000229.000,A,3244.9587,N,11555.0339,W,48.63,260.3,090810,,*18
$GPRMC,000232.000,A,3244.9523,N,11555.0822,W,48.80,260.5,090810,,*16
$GPRMC,000235.000,A,3244.9458,N,11555.1303,W,49.03,260.2,090810,,*18
$GPRMC,000238.000,A,3244.9394,N,11555.1783,W,48.68,260.7,090810,,*17
$GPRMC,000241.000,A,3244.9331,N,11555.2264,W,48.84,260.5,090810,,*19
$GPRMC,000244.000,A,3244.9266,N,11555.2742,W,48.72,260.4,090810,,*16
$GPRMC,000247.000,A,3244.9200,N,11555.3227,W,49.25,260.3,090810,,*16
$GPRMC,000250.000,A,3244.9134,N,11555.3713,W,49.10,260.9,090810,,*1A
$GPRMC,000253.000,A,3244.9073,N,11555.4198,W,49.26,261.2,090810,,*16
$GPRMC,000256.000,A,3244.9011,N,11555.4691,W,49.78,260.7,090810,,*16
$GPRMC,000259.000,A,3244.8944,N,11555.5176,W,49.52,260.7,090810,,*16
$GPRMC,000302.000,A,3244.8882,N,11555.5667,W,49.67,260.9,090810,,*1D
$GPRMC,000305.000,A,3244.8818,N,11555.6155,W,49.58,261.1,090810,,*19
$GPRMC,000308.000,A,3244.8753,N,11555.6644,W,49.66,261.1,090810,,*1E
$GPRMC,000311.000,A,3244.8686,N,11555.7135,W,49.82,260.7,090810,,*12
$GPRMC,000314.000,A,3244.8624,N,11555.7618,W,49.24,261.3,090810,,*1E
$GPRMC,000317.000,A,3244.8558,N,11555.8093,W,48.77,261.0,090810,,*1B
$GPRMC,000320.000,A,3244.8489,N,11555.8567,W,48.63,260.8,090810,,*10
$GPRMC,000323.000,A,3244.8417,N,11555.9039,W,48.73,260.2,090810,,*10
$GPRMC,000326.000,A,3244.8349,N,11555.9514,W,48.91,260.6,090810,,*1B
$GPRMC,000329.000,A,3244.8281,N,11555.9989,W,48.54,260.4,090810,,*12
$GPRMC,000332.000,A,3244.8213,N,11556.0459,W,48.13,260.3,090810,,*1D
$GPRMC,000335.000,A,3244.8146,N,11556.0924,W,47.91,260.2,090810,,*1A
$GPRMC,000338.000,A,3244.8082,N,11556.1393,W,48.09,260.1,090810,,*14
$GPRMC,000341.000,A,3244.8018,N,11556.1866,W,48.48,260.4,090810,,*18
$GPRMC,000344.000,A,3244.7957,N,11556.2340,W,48.57,260.7,090810,,*11
$GPRMC,000347.000,A,3244.7893,N,11556.2818,W,48.93,260.5,090810,,*17
$GPRMC,000350.000,A,3244.7826,N,11556.3292,W,49.01,260.4,090810,,*1D
$GPRMC,000353.000,A,3244.7760,N,11556.3771,W,49.16,260.2,090810,,*1B
$GPRMC,000356.000,A,3244.7693,N,11556.4253,W,49.58,260.0,090810,,*19
$GPRMC,000359.000,A,3244.7632,N,11556.4742,W,49.79,260.5,090810,,*1E
$GPRMC,000402.000,A,3244.7573,N,11556.5231,W,49.35,261.7,090810,,*1A
$GPRMC,000405.000,A,3244.7516,N,11556.5715,W,49.38,261.7,090810,,*10
$GPRMC,000408.000,A,3244.7457,N,11556.6206,W,49.90,261.5,090810,,*1D
$GPRMC,000411.000,A,3244.7392,N,11556.6697,W,50.13,261.2,090810,,*13
$GPRMC,000414.000,A,3244.7325,N,11556.7188,W,49.87,260.8,090810,,*1C
$GPRMC,000417.000,A,3244.7260,N,11556.7674,W,49.85,261.2,090810,,*12
$GPRMC,000420.000,A,3244.7192,N,11556.8159,W,49.81,261.0,090810,,*19
$GPRMC,000423.000,A,3244.7127,N,11556.8642,W,49.50,261.1,090810,,*14
$GPRMC,000426.000,A,3244.7060,N,11556.9126,W,49.61,260.8,090810,,*1D
$GPRMC,000429.000,A,3244.6996,N,11556.9610,W,49.47,261.1,090810,,*1D
$GPRMC,000432.000,A,3244.6933,N,11557.0088,W,49.33,261.3,090810,,*16
$GPRMC,000435.000,A,3244.6866,N,11557.0564,W,48.69,260.7,090810,,*1C
$GPRMC,000438.000,A,3244.6793,N,11557.1032,W,48.25,260.1,090810,,*1D
$GPRMC,000441.000,A,3244.6727,N,11557.1501,W,48.18,260.6,090810,,*10
$GPRMC,000444.000,A,3244.6665,N,11557.1971,W,48.67,260.6,090810,,*11
$GPRMC,000447.000,A,3244.6598,N,11557.2442,W,48.69,260.5,090810,,*10
$GPRMC,000450.000,A,3244.6533,N,11557.2916,W,48.89,260.4,090810,,*14
$GPRMC,000453.000,A,3244.6465,N,11557.3382,W,48.08,260.4,090810,,*1A
$GPRMC,000456.000,A,3244.6400,N,11557.3850,W,47.63,260.4,090810,,*1A
$GPRMC,000459.000,A,3244.6336,N,11557.4310,W,47.54,260.4,090810,,*1B
$GPRMC,000502.000,A,3244.6274,N,11557.4776,W,47.78,260.5,090810,,*18
$GPRMC,000505.000,A,3244.6207,N,11557.5242,W,47.85,260.0,090810,,*1F
$GPRMC,000508.000,A,3244.6138,N,11557.5709,W,48.41,259.5,090810,,*1F
$GPRMC,000511.000,A,3244.6059,N,11557.6186,W,49.28,258.1,090810,,*18
$GPRMC,000514.000,A,3244.5965,N,11557.6668,W,49.70,255.7,090810,,*19
$GPRMC,000517.000,A,3244.5853,N,11557.7144,W,50.36,253.8,090810,,*15
$GPRMC,000520.000,A,3244.5732,N,11557.7620,W,50.08,252.4,090810,,*1C
$GPRMC,000523.000,A,3244.5598,N,11557.8089,W,50.37,250.8,090810,,*15
$GPRMC,000526.000,A,3244.5453,N,11557.8552,W,50.42,249.0,090810,,*17
$GPRMC,000529.000,A,3244.5290,N,11557.9011,W,50.63,247.6,090810,,*19
$GPRMC,000549.000,A,3244.4186,N,11558.1983,W,48.92,247.6,090810,,*18
$GPRMC,000552.000,A,3244.4035,N,11558.2429,W,48.65,248.9,090810,,*1D
$GPRMC,000555.000,A,3244.3894,N,11558.2880,W,48.65,250.0,090810,,*11
$GPRMC,000558.000,A,3244.3757,N,11558.3331,W,49.66,250.7,090810,,*19
$GPRMC,000601.000,A,3244.3623,N,11558.3794,W,50.40,251.6,090810,,*13
$GPRMC,000604.000,A,3244.3494,N,11558.4260,W,50.64,252.2,090810,,*10
$GPRMC,000607.000,A,3244.3373,N,11558.4722,W,49.77,253.6,090810,,*11
$GPRMC,000610.000,A,3244.3262,N,11558.5186,W,49.29,254.8,090810,,*1D
$GPRMC,000613.000,A,3244.3132,N,11558.5813,W,48.78,255.2,090810,,*13
$GPRMC,000616.000,A,3244.3031,N,11558.6271,W,48.50,255.6,090810,,*17
$GPRMC,000619.000,A,3244.2933,N,11558.6737,W,49.00,255.9,090810,,*1E
$GPRMC,000622.000,A,3244.2824,N,11558.7203,W,49.43,255.6,090810,,*1A
$GPRMC,000625.000,A,3244.2718,N,11558.7673,W,49.55,255.3,090810,,*1C
$GPRMC,000628.000,A,3244.2614,N,11558.8143,W,49.50,256.0,090810,,*12
$GPRMC,000631.000,A,3244.2511,N,11558.8612,W,49.48,255.9,090810,,*1C
$GPRMC,000634.000,A,3244.2403,N,11558.9086,W,49.76,255.2,090810,,*17
$GPRMC,000637.000,A,3244.2292,N,11558.9558,W,49.69,255.2,090810,,*12
$GPRMC,000640.000,A,3244.2182,N,11559.0023,W,49.20,255.7,090810,,*19
$GPRMC,000643.000,A,3244.2080,N,11559.0487,W,48.94,255.6,090810,,*1C
$GPRMC,000646.000,A,3244.1971,N,11559.0949,W,49.04,255.5,090810,,*19
$GPRMC,000649.000,A,3244.1865,N,11559.1414,W,49.26,255.6,090810,,*15
$GPRMC,000652.000,A,3244.1762,N,11559.1885,W,49.19,255.4,090810,,*1D
$GPRMC,000655.000,A,3244.1653,N,11559.2353,W,49.25,255.1,090810,,*10
$GPRMC,000658.000,A,3244.1542,N,11559.2820,W,49.40,255.4,090810,,*17
$GPRMC,000701.000,A,3244.1436,N,11559.3294,W,49.62,255.5,090810,,*1D
$GPRMC,000704.000,A,3244.1328,N,11559.3762,W,49.25,255.3,090810,,*19
$GPRMC,000707.000,A,3244.1226,N,11559.4224,W,48.37,255.5,090810,,*11
$GPRMC,000710.000,A,3244.1125,N,11559.4678,W,47.54,255.5,090810,,*10
$GPRMC,000713.000,A,3244.1023,N,11559.5128,W,46.82,255.5,090810,,*1D
$GPRMC,000716.000,A,3244.0919,N,11559.5571,W,46.89,255.4,090810,,*1B
$GPRMC,000719.000,A,3244.0818,N,11559.6016,W,48.18,255.5,090810,,*14
$GPRMC,000722.000,A,3244.0706,N,11559.6475,W,47.92,255.1,090810,,*14
$GPRMC,000725.000,A,3244.0595,N,11559.6922,W,47.21,255.0,090810,,*1D
$GPRMC,000728.000,A,3244.0502,N,11559.7369,W,46.37,256.0,090810,,*1F
$GPRMC,000731.000,A,3244.0410,N,11559.7810,W,45.11,255.9,090810,,*1D
$GPRMC,000734.000,A,3244.0313,N,11559.8237,W,44.63,255.7,090810,,*16
$GPRMC,000737.000,A,3244.0221,N,11559.8659,W,44.55,255.6,090810,,*1D
$GPRMC,000740.000,A,3244.0124,N,11559.9087,W,44.60,256.0,090810,,*1C
$GPRMC,000743.000,A,3244.0040,N,11559.9511,W,43.91,257.2,090810,,*1C
$GPRMC,000746.000,A,3243.9964,N,11559.9935,W,44.00,258.1,090810,,*11
$GPRMC,000749.000,A,3243.9881,N,11600.0360,W,44.53,258.2,090810,,*1D
$GPRMC,000752.000,A,3243.9803,N,11600.0794,W,45.13,258.8,090810,,*1D
$GPRMC,000755.000,A,3243.9721,N,11600.1235,W,46.02,258.8,090810,,*19
$GPRMC,000758.000,A,3243.9637,N,11600.1680,W,46.34,258.6,090810,,*13
$GPRMC,000801.000,A,3243.9554,N,11600.2124,W,46.20,258.3,090810,,*1C
$GPRMC,000804.000,A,3243.9468,N,11600.2567,W,46.27,258.5,090810,,*15
$GPRMC,000807.000,A,3243.9384,N,11600.3016,W,45.98,258.6,090810,,*15
$GPRMC,000810.000,A,3243.9297,N,11600.3458,W,45.77,258.5,090810,,*1C
$GPRMC,000813.000,A,3243.9214,N,11600.3899,W,45.68,258.8,090810,,*16
$GPRMC,000816.000,A,3243.9133,N,11600.4343,W,45.97,258.4,090810,,*12
$GPRMC,000819.000,A,3243.9050,N,11600.4785,W,45.98,258.2,090810,,*1E
$GPRMC,000822.000,A,3243.8967,N,11600.5228,W,46.05,258.2,090810,,*1E
$GPRMC,000825.000,A,3243.8888,N,11600.5671,W,46.04,258.4,090810,,*16
$GPRMC,000828.000,A,3243.8812,N,11600.6115,W,45.58,258.3,090810,,*13
$GPRMC,000831.000,A,3243.8731,N,11600.6549,W,45.43,257.7,090810,,*19
$GPRMC,000834.000,A,3243.8640,N,11600.6982,W,45.67,256.0,090810,,*10
$GPRMC,000837.000,A,3243.8532,N,11600.7411,W,46.20,253.0,090810,,*16
$GPRMC,000840.000,A,3243.8407,N,11600.7839,W,46.11,250.8,090810,,*1E
$GPRMC,000843.000,A,3243.8268,N,11600.8260,W,45.78,248.3,090810,,*15
$GPRMC,000846.000,A,3243.8115,N,11600.8669,W,45.70,245.6,090810,,*14
$GPRMC,000849.000,A,3243.7945,N,11600.9072,W,45.67,242.8,090810,,*1B
$GPRMC,000852.000,A,3243.7757,N,11600.9464,W,45.94,240.2,090810,,*1B
$GPRMC,000855.000,A,3243.7564,N,11600.9854,W,46.28,239.4,090810,,*1D
$GPRMC,000858.000,A,3243.7363,N,11601.0245,W,46.54,239.0,090810,,*1C
$GPRMC,000901.000,A,3243.7164,N,11601.0634,W,46.51,238.9,090810,,*1B
$GPRMC,000904.000,A,3243.6961,N,11601.1023,W,46.44,239.0,090810,,*1F
$GPRMC,000907.000,A,3243.6774,N,11601.1422,W,46.73,242.3,090810,,*18
$GPRMC,000910.000,A,3243.6620,N,11601.1843,W,46.28,247.0,090810,,*1D
$GPRMC,000913.000,A,3243.6504,N,11601.2267,W,44.76,252.6,090810,,*1F
$GPRMC,000916.000,A,3243.6429,N,11601.2688,W,42.63,258.5,090810,,*1A
$GPRMC,000919.000,A,3243.6394,N,11601.3113,W,44.12,263.9,090810,,*14
$GPRMC,000922.000,A,3243.6360,N,11601.3550,W,45.93,264.1,090810,,*13
$GPRMC,000925.000,A,3243.6326,N,11601.4006,W,46.46,264.3,090810,,*1E
$GPRMC,000928.000,A,3243.6287,N,11601.4454,W,44.71,264.8,090810,,*17
$GPRMC,000931.000,A,3243.6243,N,11601.4892,W,44.23,263.7,090810,,*1E
$GPRMC,000934.000,A,3243.6195,N,11601.5331,W,44.30,263.2,090810,,*17
$GPRMC,000937.000,A,3243.6138,N,11601.5767,W,45.16,262.3,090810,,*11
$GPRMC,000940.000,A,3243.6083,N,11601.6212,W,46.17,262.0,090810,,*15
$GPRMC,000943.000,A,3243.6018,N,11601.6663,W,45.98,261.2,090810,,*13
$GPRMC,000946.000,A,3243.5950,N,11601.7107,W,45.31,260.8,090810,,*1C
$GPRMC,000949.000,A,3243.5880,N,11601.7549,W,45.41,260.4,090810,,*1A
$GPRMC,000952.000,A,3243.5803,N,11601.7993,W,45.23,260.0,090810,,*10
$GPRMC,000955.000,A,3243.5719,N,11601.8432,W,45.15,259.2,090810,,*17
$GPRMC,000958.000,A,3243.5643,N,11601.8869,W,45.17,259.5,090810,,*13
$GPRMC,001001.000,A,3243.5569,N,11601.9309,W,44.93,259.4,090810,,*1C
$GPRMC,001004.000,A,3243.5496,N,11601.9743,W,44.72,259.6,090810,,*1F
$GPRMC,001007.000,A,3243.5423,N,11602.0176,W,44.59,259.6,090810,,*11
$GPRMC,001010.000,A,3243.5348,N,11602.0608,W,44.79,259.4,090810,,*13
$GPRMC,001013.000,A,3243.5277,N,11602.1041,W,44.75,259.6,090810,,*19
$GPRMC,001016.000,A,3243.5211,N,11602.1468,W,44.28,259.4,090810,,*19
$GPRMC,001019.000,A,3243.5143,N,11602.1895,W,43.99,259.1,090810,,*14
$GPRMC,001022.000,A,3243.5074,N,11602.2318,W,43.61,259.3,090810,,*11
$GPRMC,001025.000,A,3243.5015,N,11602.2739,W,43.13,261.1,090810,,*1A
$GPRMC,001028.000,A,3243.4977,N,11602.3159,W,42.94,264.9,090810,,*19
$GPRMC,001031.000,A,3243.4971,N,11602.3578,W,42.44,268.4,090810,,*1C
$GPRMC,001034.000,A,3243.4983,N,11602.3994,W,41.86,272.8,090810,,*10
$GPRMC,001037.000,A,3243.5022,N,11602.4402,W,42.15,277.3,090810,,*12
$GPRMC,001040.000,A,3243.5076,N,11602.4816,W,43.07,280.7,090810,,*14
$GPRMC,001043.000,A,3243.5156,N,11602.5234,W,43.98,284.2,090810,,*18
$GPRMC,001046.000,A,3243.5249,N,11602.5658,W,45.16,285.5,090810,,*18
$GPRMC,001049.000,A,3243.5349,N,11602.6091,W,45.64,286.0,090810,,*15
$GPRMC,001052.000,A,3243.5447,N,11602.6525,W,46.03,285.8,090810,,*15
$GPRMC,001055.000,A,3243.5547,N,11602.6965,W,46.27,285.5,090810,,*10
$GPRMC,001058.000,A,3243.5648,N,11602.7407,W,47.50,285.6,090810,,*1B
$GPRMC,001101.000,A,3243.5755,N,11602.7860,W,48.12,286.0,090810,,*1A
$GPRMC,001104.000,A,3243.5860,N,11602.8317,W,48.19,286.0,090810,,*19
$GPRMC,001107.000,A,3243.5965,N,11602.8777,W,48.14,285.9,090810,,*1B
$GPRMC,001110.000,A,3243.6070,N,11602.9231,W,47.57,286.0,090810,,*17
$GPRMC,001113.000,A,3243.6177,N,11602.9677,W,47.18,286.1,090810,,*1E
$GPRMC,001116.000,A,3243.6282,N,11603.0125,W,47.07,286.0,090810,,*15
$GPRMC,001119.000,A,3243.6383,N,11603.0574,W,47.68,285.4,090810,,*14
$GPRMC,001122.000,A,3243.6488,N,11603.1035,W,49.02,286.1,090810,,*15
$GPRMC,001125.000,A,3243.6603,N,11603.1504,W,50.12,286.0,090810,,*1C
$GPRMC,001128.000,A,3243.6711,N,11603.1981,W,49.95,285.4,090810,,*12
$GPRMC,001131.000,A,3243.6824,N,11603.2454,W,49.40,285.9,090810,,*10
$GPRMC,001134.000,A,3243.6936,N,11603.2919,W,48.55,286.3,090810,,*1F
$GPRMC,001137.000,A,3243.7048,N,11603.3380,W,48.18,286.0,090810,,*1C
$GPRMC,001140.000,A,3243.7155,N,11603.3833,W,46.77,286.0,090810,,*15
$GPRMC,001143.000,A,3243.7254,N,11603.4270,W,45.43,285.7,090810,,*1E
$GPRMC,001146.000,A,3243.7355,N,11603.4696,W,44.33,286.3,090810,,*16
$GPRMC,001149.000,A,3243.7447,N,11603.5118,W,44.17,284.7,090810,,*1D
$GPRMC,001152.000,A,3243.7512,N,11603.5550,W,44.22,280.0,090810,,*1B
$GPRMC,001155.000,A,3243.7544,N,11603.5992,W,44.97,274.3,090810,,*1B
$GPRMC,001158.000,A,3243.7535,N,11603.6436,W,44.91,267.5,090810,,*12
$GPRMC,001201.000,A,3243.7481,N,11603.6876,W,45.10,261.0,090810,,*10
$GPRMC,001204.000,A,3243.7389,N,11603.7304,W,45.17,254.6,090810,,*12
$GPRMC,001207.000,A,3243.7255,N,11603.7718,W,44.41,248.8,090810,,*19
$GPRMC,001210.000,A,3243.7089,N,11603.8106,W,42.95,241.7,090810,,*13
$GPRMC,001213.000,A,3243.6885,N,11603.8456,W,42.27,235.5,090810,,*1D
$GPRMC,001216.000,A,3243.6661,N,11603.8772,W,41.77,229.5,090810,,*12
$GPRMC,001219.000,A,3243.6414,N,11603.9065,W,42.18,225.4,090810,,*1A
$GPRMC,001222.000,A,3243.6153,N,11603.9355,W,42.41,224.1,090810,,*1C
$GPRMC,001225.000,A,3243.5890,N,11603.9646,W,42.80,223.5,090810,,*17
$GPRMC,001228.000,A,3243.5631,N,11603.9933,W,40.87,223.4,090810,,*16
$GPRMC,001231.000,A,3243.5390,N,11604.0199,W,39.35,223.4,090810,,*11
$GPRMC,001234.000,A,3243.5148,N,11604.0470,W,39.92,223.5,090810,,*1D
$GPRMC,001237.000,A,3243.4897,N,11604.0741,W,40.40,222.4,090810,,*14
$GPRMC,001240.000,A,3243.4640,N,11604.0994,W,40.34,218.9,090810,,*11
$GPRMC,001243.000,A,3243.4365,N,11604.1229,W,39.37,215.2,090810,,*17
$GPRMC,001246.000,A,3243.4084,N,11604.1432,W,38.65,210.8,090810,,*1B
$GPRMC,001249.000,A,3243.3794,N,11604.1605,W,38.66,206.7,090810,,*18
$GPRMC,001252.000,A,3243.3500,N,11604.1753,W,38.26,202.3,090810,,*1B
$GPRMC,001255.000,A,3243.3191,N,11604.1874,W,38.49,197.9,090810,,*16
$GPRMC,001258.000,A,3243.2880,N,11604.1968,W,37.02,193.5,090810,,*17
$GPRMC,001301.000,A,3243.2579,N,11604.2026,W,35.21,188.6,090810,,*1B
$GPRMC,001304.000,A,3243.2286,N,11604.2052,W,34.39,184.8,090810,,*10
$GPRMC,001307.000,A,3243.1994,N,11604.2060,W,33.77,181.0,090810,,*19
$GPRMC,001310.000,A,3243.1709,N,11604.2040,W,32.34,176.7,090810,,*1E
$GPRMC,001313.000,A,3243.1447,N,11604.2000,W,30.54,173.3,090810,,*15
$GPRMC,001316.000,A,3243.1193,N,11604.1944,W,30.28,169.5,090810,,*10
$GPRMC,001319.000,A,3243.0941,N,11604.1869,W,31.72,165.9,090810,,*19
$GPRMC,001322.000,A,3243.0687,N,11604.1773,W,32.22,161.7,090810,,*1C
$GPRMC,001325.000,A,3243.0438,N,11604.1653,W,32.18,157.8,090810,,*1D
$GPRMC,001328.000,A,3243.0191,N,11604.1529,W,32.44,156.5,090810,,*1D
$GPRMC,001331.000,A,3242.9936,N,11604.1395,W,33.03,155.5,090810,,*18
$GPRMC,001334.000,A,3242.9679,N,11604.1266,W,32.86,156.2,090810,,*1C
$GPRMC,001337.000,A,3242.9415,N,11604.1133,W,33.90,156.4,090810,,*14
$GPRMC,001340.000,A,3242.9134,N,11604.0996,W,35.30,156.9,090810,,*15
$GPRMC,001343.000,A,3242.8849,N,11604.0856,W,35.97,157.0,090810,,*1C
$GPRMC,001346.000,A,3242.8559,N,11604.0714,W,36.59,157.1,090810,,*1C
$GPRMC,001349.000,A,3242.8264,N,11604.0569,W,37.34,157.3,090810,,*1A
$GPRMC,001352.000,A,3242.7978,N,11604.0426,W,38.74,157.4,090810,,*1F
$GPRMC,001355.000,A,3242.7678,N,11604.0280,W,38.84,158.1,090810,,*18
$GPRMC,001358.000,A,3242.7385,N,11604.0140,W,37.02,158.2,090810,,*1F
$GPRMC,001401.000,A,3242.7099,N,11604.0004,W,35.59,157.9,090810,,*13
$GPRMC,001404.000,A,3242.6824,N,11603.9872,W,35.64,158.3,090810,,*15
$GPRMC,001407.000,A,3242.6551,N,11603.9742,W,34.56,157.5,090810,,*1C
$GPRMC,001410.000,A,3242.6286,N,11603.9610,W,34.33,157.5,090810,,*12
$GPRMC,001413.000,A,3242.6024,N,11603.9479,W,34.62,157.4,090810,,*13
$GPRMC,001416.000,A,3242.5767,N,11603.9348,W,33.53,157.7,090810,,*16
$GPRMC,001419.000,A,3242.5527,N,11603.9236,W,33.50,160.7,090810,,*10
$GPRMC,001422.000,A,3242.5269,N,11603.9176,W,33.36,169.5,090810,,*19
$GPRMC,001425.000,A,3242.4999,N,11603.9161,W,32.47,177.1,090810,,*11
$GPRMC,001428.000,A,3242.4733,N,11603.9180,W,33.14,184.2,090810,,*15
$GPRMC,001431.000,A,3242.4490,N,11603.9252,W,31.71,192.3,090810,,*1C
$GPRMC,001434.000,A,3242.4252,N,11603.9359,W,31.41,199.8,090810,,*18
$GPRMC,001437.000,A,3242.4012,N,11603.9506,W,32.23,208.4,090810,,*11
$GPRMC,001440.000,A,3242.3785,N,11603.9695,W,33.55,216.4,090810,,*19
$GPRMC,001443.000,A,3242.3574,N,11603.9918,W,33.81,221.8,090810,,*1D
$GPRMC,001446.000,A,3242.3407,N,11604.0170,W,32.51,230.9,090810,,*18
$GPRMC,001449.000,A,3242.3273,N,11604.0436,W,31.68,236.2,090810,,*11
$GPRMC,001452.000,A,3242.3141,N,11604.0702,W,31.55,237.3,090810,,*13
$GPRMC,001455.000,A,3242.2993,N,11604.0971,W,32.35,237.4,090810,,*1A
$GPRMC,001458.000,A,3242.2850,N,11604.1241,W,32.32,237.2,090810,,*11
$GPRMC,001501.000,A,3242.2700,N,11604.1509,W,32.40,237.4,090810,,*1E
$GPRMC,001504.000,A,3242.2555,N,11604.1783,W,32.56,238.0,090810,,*15
$GPRMC,001507.000,A,3242.2406,N,11604.2057,W,32.99,238.1,090810,,*1E
$GPRMC,001510.000,A,3242.2254,N,11604.2336,W,33.78,238.6,090810,,*14
$GPRMC,001513.000,A,3242.2090,N,11604.2624,W,34.29,240.0,090810,,*11
$GPRMC,001516.000,A,3242.1958,N,11604.2932,W,34.56,245.2,090810,,*1D
$GPRMC,001519.000,A,3242.1855,N,11604.3249,W,34.50,249.7,090810,,*17
$GPRMC,001522.000,A,3242.1771,N,11604.3578,W,34.73,254.6,090810,,*1F
$GPRMC,001525.000,A,3242.1705,N,11604.3913,W,34.99,256.5,090810,,*1F
$GPRMC,001528.000,A,3242.1635,N,11604.4251,W,34.98,257.4,090810,,*1B
$GPRMC,001531.000,A,3242.1560,N,11604.4587,W,35.24,257.9,090810,,*17
$GPRMC,001534.000,A,3242.1493,N,11604.4928,W,35.92,257.5,090810,,*17
$GPRMC,001537.000,A,3242.1421,N,11604.5279,W,36.57,257.7,090810,,*1B
$GPRMC,001540.000,A,3242.1347,N,11604.5637,W,37.44,256.8,090810,,*1F
$GPRMC,001543.000,A,3242.1272,N,11604.5998,W,37.70,256.3,090810,,*1D
$GPRMC,001546.000,A,3242.1188,N,11604.6365,W,38.40,255.7,090810,,*1E
$GPRMC,001549.000,A,3242.1090,N,11604.6737,W,39.88,251.9,090810,,*15
$GPRMC,001552.000,A,3242.0956,N,11604.7100,W,41.53,244.8,090810,,*12
$GPRMC,001555.000,A,3242.0784,N,11604.7451,W,39.81,238.3,090810,,*15
$GPRMC,001558.000,A,3242.0580,N,11604.7768,W,40.48,231.3,090810,,*15
$GPRMC,001601.000,A,3242.0341,N,11604.8051,W,41.29,223.4,090810,,*11
$GPRMC,001604.000,A,3242.0069,N,11604.8309,W,42.28,218.7,090810,,*1A
$GPRMC,001607.000,A,3241.9786,N,11604.8564,W,43.02,218.0,090810,,*16
$GPRMC,001610.000,A,3241.9495,N,11604.8825,W,43.69,217.8,090810,,*13
$GPRMC,001613.000,A,3241.9199,N,11604.9093,W,44.28,217.9,090810,,*1E
$GPRMC,001616.000,A,3241.8905,N,11604.9361,W,44.77,218.1,090810,,*14
$GPRMC,001619.000,A,3241.8602,N,11604.9635,W,44.66,217.9,090810,,*10
$GPRMC,001622.000,A,3241.8305,N,11604.9904,W,44.26,217.7,090810,,*1D
$GPRMC,001625.000,A,3241.8012,N,11605.0170,W,43.48,218.0,090810,,*1B
$GPRMC,001628.000,A,3241.7733,N,11605.0439,W,42.95,220.5,090810,,*1A
$GPRMC,001631.000,A,3241.7471,N,11605.0728,W,42.96,224.8,090810,,*1E
$GPRMC,001634.000,A,3241.7224,N,11605.1043,W,41.45,229.9,090810,,*17
$GPRMC,001637.000,A,3241.6993,N,11605.1364,W,41.16,231.9,090810,,*1B
$GPRMC,001640.000,A,3241.6766,N,11605.1679,W,40.25,230.2,090810,,*1D
$GPRMC,001643.000,A,3241.6547,N,11605.1984,W,39.97,230.0,090810,,*17
$GPRMC,001646.000,A,3241.6333,N,11605.2301,W,40.14,230.1,090810,,*17
$GPRMC,001649.000,A,3241.6118,N,11605.2601,W,38.81,229.6,090810,,*1A
$GPRMC,001652.000,A,3241.5906,N,11605.2888,W,37.60,228.8,090810,,*14
$GPRMC,001655.000,A,3241.5697,N,11605.3165,W,36.67,227.2,090810,,*1C
$GPRMC,001658.000,A,3241.5472,N,11605.3419,W,37.24,222.2,090810,,*15
$GPRMC,001701.000,A,3241.5228,N,11605.3647,W,37.25,216.5,090810,,*19
$GPRMC,001704.000,A,3241.4969,N,11605.3836,W,36.40,211.1,090810,,*1A
$GPRMC,001707.000,A,3241.4713,N,11605.4018,W,35.37,209.8,090810,,*1A
$GPRMC,001710.000,A,3241.4458,N,11605.4197,W,35.12,210.2,090810,,*13
$GPRMC,001713.000,A,3241.4204,N,11605.4368,W,34.97,209.8,090810,,*13
$GPRMC,001716.000,A,3241.3948,N,11605.4542,W,35.30,209.7,090810,,*1F
$GPRMC,001719.000,A,3241.3690,N,11605.4705,W,35.21,209.3,090810,,*1F
$GPRMC,001722.000,A,3241.3431,N,11605.4876,W,35.67,208.9,090810,,*1C
$GPRMC,001725.000,A,3241.3165,N,11605.5028,W,34.93,204.7,090810,,*15
$GPRMC,001728.000,A,3241.2882,N,11605.5128,W,34.94,196.2,090810,,*12
$GPRMC,001731.000,A,3241.2597,N,11605.5180,W,32.48,187.5,090810,,*11
$GPRMC,001734.000,A,3241.2332,N,11605.5190,W,31.95,180.0,090810,,*1D
$GPRMC,001737.000,A,3241.2063,N,11605.5156,W,32.44,173.2,090810,,*12
$GPRMC,001740.000,A,3241.1795,N,11605.5104,W,31.91,170.0,090810,,*12
$GPRMC,001743.000,A,3241.1530,N,11605.5047,W,32.67,169.8,090810,,*10
$GPRMC,001746.000,A,3241.1252,N,11605.4982,W,34.33,169.1,090810,,*19
$GPRMC,001749.000,A,3241.0958,N,11605.4904,W,35.04,168.4,090810,,*19
$GPRMC,001752.000,A,3241.0665,N,11605.4832,W,35.71,168.7,090810,,*17
$GPRMC,001755.000,A,3241.0369,N,11605.4769,W,36.16,170.9,090810,,*1D
$GPRMC,001758.000,A,3241.0064,N,11605.4751,W,35.83,179.1,090810,,*1B
$GPRMC,001801.000,A,3240.9771,N,11605.4792,W,35.83,188.2,090810,,*11
$GPRMC,001804.000,A,3240.9481,N,11605.4896,W,35.71,198.1,090810,,*1C
$GPRMC,001807.000,A,3240.9208,N,11605.5056,W,36.71,206.9,090810,,*12
$GPRMC,001810.000,A,3240.8953,N,11605.5259,W,35.88,216.2,090810,,*12
$GPRMC,001813.000,A,3240.8733,N,11605.5508,W,35.47,225.6,090810,,*1D
$GPRMC,001816.000,A,3240.8557,N,11605.5786,W,35.42,234.2,090810,,*1D
$GPRMC,001819.000,A,3240.8408,N,11605.6095,W,35.18,241.7,090810,,*17
$GPRMC,001822.000,A,3240.8285,N,11605.6413,W,35.55,245.5,090810,,*19
$GPRMC,001825.000,A,3240.8162,N,11605.6739,W,36.00,246.0,090810,,*1A
$GPRMC,001828.000,A,3240.8044,N,11605.7066,W,36.17,246.8,090810,,*10
$GPRMC,001831.000,A,3240.7919,N,11605.7397,W,36.39,246.8,090810,,*17
$GPRMC,001834.000,A,3240.7799,N,11605.7722,W,36.27,246.5,090810,,*1C
$GPRMC,001837.000,A,3240.7673,N,11605.8053,W,36.56,246.2,090810,,*15
$GPRMC,001840.000,A,3240.7546,N,11605.8383,W,35.34,245.9,090810,,*11
$GPRMC,001843.000,A,3240.7428,N,11605.8697,W,34.72,246.2,090810,,*10
$GPRMC,001846.000,A,3240.7313,N,11605.9010,W,34.66,246.6,090810,,*13
$GPRMC,001849.000,A,3240.7208,N,11605.9332,W,35.00,248.2,090810,,*1F
$GPRMC,001852.000,A,3240.7126,N,11605.9668,W,35.62,254.7,090810,,*1C
$GPRMC,001855.000,A,3240.7090,N,11606.0010,W,33.77,263.8,090810,,*1D
$GPRMC,001858.000,A,3240.7095,N,11606.0337,W,32.74,271.7,090810,,*1D
$GPRMC,001901.000,A,3240.7134,N,11606.0650,W,31.81,277.4,090810,,*12
$GPRMC,001904.000,A,3240.7175,N,11606.0963,W,31.94,279.3,090810,,*10
$GPRMC,001907.000,A,3240.7216,N,11606.1276,W,32.40,279.0,090810,,*12
$GPRMC,001910.000,A,3240.7257,N,11606.1595,W,32.66,277.2,090810,,*13
$GPRMC,001913.000,A,3240.7266,N,11606.1920,W,33.13,270.1,090810,,*17
$GPRMC,001916.000,A,3240.7238,N,11606.2248,W,33.53,261.8,090810,,*12
$GPRMC,001919.000,A,3240.7154,N,11606.2569,W,34.30,253.0,090810,,*1B
$GPRMC,001922.000,A,3240.7041,N,11606.2887,W,35.09,246.1,090810,,*15
$GPRMC,001925.000,A,3240.6893,N,11606.3189,W,36.10,238.0,090810,,*11
$GPRMC,001928.000,A,3240.6704,N,11606.3471,W,37.41,229.3,090810,,*19
$GPRMC,001931.000,A,3240.6467,N,11606.3715,W,37.77,220.4,090810,,*1D
$GPRMC,001934.000,A,3240.6203,N,11606.3917,W,37.74,211.7,090810,,*12
$GPRMC,001937.000,A,3240.5919,N,11606.4072,W,36.87,204.7,090810,,*16
$GPRMC,001940.000,A,3240.5641,N,11606.4208,W,35.34,203.8,090810,,*18
$GPRMC,001943.000,A,3240.5377,N,11606.4337,W,33.63,202.0,090810,,*1B
$GPRMC,001946.000,A,3240.5110,N,11606.4444,W,32.94,197.5,090810,,*1D
$GPRMC,001949.000,A,3240.4843,N,11606.4508,W,32.79,190.2,090810,,*16
$GPRMC,001952.000,A,3240.4559,N,11606.4527,W,33.20,181.9,090810,,*11
$GPRMC,001955.000,A,3240.4275,N,11606.4490,W,33.27,173.3,090810,,*12
$GPRMC,001958.000,A,3240.3998,N,11606.4412,W,33.29,165.8,090810,,*18
$GPRMC,002001.000,A,3240.3732,N,11606.4289,W,33.85,158.0,090810,,*14
$GPRMC,002004.000,A,3240.3467,N,11606.4133,W,35.17,153.9,090810,,*1F
$GPRMC,002007.000,A,3240.3198,N,11606.3979,W,35.94,154.4,090810,,*19
$GPRMC,002010.000,A,3240.2919,N,11606.3828,W,36.75,157.4,090810,,*15
$GPRMC,002013.000,A,3240.2623,N,11606.3713,W,36.72,164.0,090810,,*14
$GPRMC,002016.000,A,3240.2319,N,11606.3650,W,36.93,172.5,090810,,*16
$GPRMC,002019.000,A,3240.2000,N,11606.3660,W,36.54,183.0,090810,,*11
$GPRMC,002022.000,A,3240.1683,N,11606.3715,W,37.59,188.8,090810,,*1B
$GPRMC,002025.000,A,3240.1378,N,11606.3784,W,37.50,190.5,090810,,*18
$GPRMC,002028.000,A,3240.1088,N,11606.3857,W,36.38,190.7,090810,,*15
$GPRMC,002031.000,A,3240.0803,N,11606.3920,W,34.27,190.3,090810,,*1E
$GPRMC,002034.000,A,3240.0526,N,11606.3970,W,32.79,188.2,090810,,*11
$GPRMC,002037.000,A,3240.0248,N,11606.3998,W,32.04,183.1,090810,,*19
$GPRMC,002040.000,A,3239.9982,N,11606.4002,W,31.14,180.1,090810,,*1F
$GPRMC,002043.000,A,3239.9719,N,11606.3996,W,31.56,179.1,090810,,*13
$GPRMC,002046.000,A,3239.9451,N,11606.3989,W,31.68,178.9,090810,,*13
$GPRMC,002049.000,A,3239.9178,N,11606.3984,W,32.57,178.8,090810,,*11
$GPRMC,002052.000,A,3239.8903,N,11606.3975,W,32.66,178.2,090810,,*18
$GPRMC,002055.000,A,3239.8632,N,11606.3943,W,33.12,173.3,090810,,*1F
$GPRMC,002058.000,A,3239.8358,N,11606.3863,W,33.68,164.7,090810,,*17
$GPRMC,002101.000,A,3239.8092,N,11606.3735,W,34.76,156.9,090810,,*14
$GPRMC,002104.000,A,3239.7834,N,11606.3557,W,35.80,147.6,090810,,*1B
$GPRMC,002107.000,A,3239.7596,N,11606.3321,W,37.04,138.0,090810,,*1A
$GPRMC,002110.000,A,3239.7394,N,11606.3043,W,37.10,129.0,090810,,*1A
$GPRMC,002113.000,A,3239.7225,N,11606.2726,W,37.71,120.5,090810,,*1C
$GPRMC,002116.000,A,3239.7101,N,11606.2372,W,37.82,112.3,090810,,*12
$GPRMC,002119.000,A,3239.6993,N,11606.2021,W,36.50,110.8,090810,,*1D
$GPRMC,002122.000,A,3239.6880,N,11606.1692,W,34.98,111.7,090810,,*13
$GPRMC,002125.000,A,3239.6763,N,11606.1378,W,33.79,114.7,090810,,*1A
$GPRMC,002128.000,A,3239.6632,N,11606.1084,W,32.31,119.1,090810,,*14
$GPRMC,002131.000,A,3239.6489,N,11606.0820,W,32.26,123.0,090810,,*17
$GPRMC,002134.000,A,3239.6334,N,11606.0558,W,32.80,124.6,090810,,*1C
$GPRMC,002137.000,A,3239.6177,N,11606.0297,W,32.77,124.8,090810,,*18
$GPRMC,002140.000,A,3239.6017,N,11606.0037,W,33.21,125.3,090810,,*1F
$GPRMC,002143.000,A,3239.5844,N,11605.9773,W,34.22,129.0,090810,,*17
$GPRMC,002146.000,A,3239.5641,N,11605.9527,W,34.87,136.4,090810,,*1F
$GPRMC,002149.000,A,3239.5405,N,11605.9317,W,34.96,145.2,090810,,*15
$GPRMC,002152.000,A,3239.5152,N,11605.9157,W,34.67,154.4,090810,,*16
$GPRMC,002155.000,A,3239.4882,N,11605.9045,W,34.92,162.6,090810,,*1B
$GPRMC,002158.000,A,3239.4596,N,11605.8988,W,35.33,172.0,090810,,*1A
$GPRMC,002201.000,A,3239.4298,N,11605.8989,W,35.49,181.2,090810,,*1E
$GPRMC,002204.000,A,3239.4007,N,11605.9046,W,35.22,190.1,090810,,*1A
$GPRMC,002207.000,A,3239.3724,N,11605.9137,W,35.01,194.7,090810,,*1C
$GPRMC,002210.000,A,3239.3443,N,11605.9230,W,35.19,195.8,090810,,*1B
$GPRMC,002213.000,A,3239.3155,N,11605.9331,W,36.45,196.0,090810,,*1B
$GPRMC,002216.000,A,3239.2861,N,11605.9430,W,37.31,195.6,090810,,*10
$GPRMC,002219.000,A,3239.2561,N,11605.9537,W,38.43,197.3,090810,,*19
$GPRMC,002222.000,A,3239.2259,N,11605.9673,W,39.67,201.3,090810,,*15
$GPRMC,002225.000,A,3239.1957,N,11605.9846,W,39.99,207.3,090810,,*1B
$GPRMC,002228.000,A,3239.1678,N,11606.0054,W,38.95,212.4,090810,,*1B
$GPRMC,002231.000,A,3239.1411,N,11606.0272,W,37.90,214.9,090810,,*19
$GPRMC,002234.000,A,3239.1160,N,11606.0485,W,37.96,215.6,090810,,*19
$GPRMC,002237.000,A,3239.0904,N,11606.0703,W,36.96,215.6,090810,,*1D
$GPRMC,002240.000,A,3239.0652,N,11606.0915,W,37.26,215.4,090810,,*10
$GPRMC,002243.000,A,3239.0397,N,11606.1134,W,38.08,215.4,090810,,*16
$GPRMC,002246.000,A,3239.0141,N,11606.1359,W,38.87,215.5,090810,,*15
$GPRMC,002249.000,A,3238.9875,N,11606.1583,W,38.96,215.5,090810,,*1D
$GPRMC,002252.000,A,3238.9607,N,11606.1812,W,39.56,215.7,090810,,*16
$GPRMC,002255.000,A,3238.9340,N,11606.2042,W,39.91,216.0,090810,,*16
$GPRMC,002258.000,A,3238.9069,N,11606.2270,W,39.95,215.3,090810,,*14
$GPRMC,002301.000,A,3238.8790,N,11606.2497,W,40.42,213.2,090810,,*15
$GPRMC,002304.000,A,3238.8498,N,11606.2694,W,41.01,209.5,090810,,*10
$GPRMC,002307.000,A,3238.8193,N,11606.2883,W,41.71,207.1,090810,,*18
$GPRMC,002310.000,A,3238.7880,N,11606.3065,W,42.66,206.7,090810,,*19
$GPRMC,002313.000,A,3238.7563,N,11606.3255,W,43.13,206.5,090810,,*1A
$GPRMC,002316.000,A,3238.7242,N,11606.3451,W,43.38,206.8,090810,,*1D
$GPRMC,002319.000,A,3238.6916,N,11606.3640,W,43.64,206.5,090810,,*1F
$GPRMC,002322.000,A,3238.6595,N,11606.3840,W,43.90,206.6,090810,,*16
$GPRMC,002325.000,A,3238.6264,N,11606.4034,W,44.49,206.6,090810,,*17
$GPRMC,002328.000,A,3238.5931,N,11606.4234,W,45.23,206.5,090810,,*1E
$GPRMC,002331.000,A,3238.5587,N,11606.4436,W,46.21,206.3,090810,,*14
$GPRMC,002334.000,A,3238.5242,N,11606.4639,W,47.06,206.4,090810,,*11
$GPRMC,002337.000,A,3238.4888,N,11606.4849,W,48.11,206.6,090810,,*1D
$GPRMC,002340.000,A,3238.4534,N,11606.5058,W,47.54,206.8,090810,,*1E
$GPRMC,002343.000,A,3238.4190,N,11606.5266,W,46.57,207.0,090810,,*13
$GPRMC,002346.000,A,3238.3854,N,11606.5489,W,45.70,210.3,090810,,*14
$GPRMC,002349.000,A,3238.3541,N,11606.5749,W,47.20,216.3,090810,,*1C
$GPRMC,002352.000,A,3238.3243,N,11606.6070,W,48.77,223.3,090810,,*16
$GPRMC,002355.000,A,3238.2970,N,11606.6444,W,50.45,229.3,090810,,*1A
$GPRMC,002358.000,A,3238.2737,N,11606.6847,W,49.09,236.1,090810,,*19
$GPRMC,002401.000,A,3238.2571,N,11606.7279,W,48.21,244.9,090810,,*12
$GPRMC,002404.000,A,3238.2451,N,11606.7724,W,46.33,251.6,090810,,*1F
$GPRMC,002407.000,A,3238.2385,N,11606.8161,W,44.45,257.7,090810,,*1E
$GPRMC,002410.000,A,3238.2342,N,11606.8580,W,42.32,261.7,090810,,*1B
$GPRMC,002413.000,A,3238.2311,N,11606.8998,W,42.60,262.8,090810,,*10
$GPRMC,002416.000,A,3238.2287,N,11606.9418,W,42.97,263.0,090810,,*1E
$GPRMC,002419.000,A,3238.2258,N,11606.9843,W,43.09,262.7,090810,,*11
$GPRMC,002422.000,A,3238.2225,N,11607.0265,W,42.99,263.2,090810,,*19
$GPRMC,002425.000,A,3238.2189,N,11607.0687,W,43.08,263.3,090810,,*1B
$GPRMC,002428.000,A,3238.2158,N,11607.1107,W,42.83,263.3,090810,,*16
$GPRMC,002431.000,A,3238.2117,N,11607.1524,W,42.66,263.0,090810,,*18
$GPRMC,002434.000,A,3238.2075,N,11607.1941,W,42.88,262.4,090810,,*12
$GPRMC,002437.000,A,3238.2027,N,11607.2359,W,42.70,262.1,090810,,*14
$GPRMC,002440.000,A,3238.1983,N,11607.2779,W,42.69,262.2,090810,,*1D
$GPRMC,002443.000,A,3238.1964,N,11607.3199,W,42.52,263.2,090810,,*17
$GPRMC,002446.000,A,3238.1938,N,11607.3618,W,42.37,263.4,090810,,*10
$GPRMC,002449.000,A,3238.1907,N,11607.4036,W,43.22,263.4,090810,,*1B
$GPRMC,002452.000,A,3238.1862,N,11607.4470,W,44.70,263.1,090810,,*10
$GPRMC,002455.000,A,3238.1826,N,11607.4913,W,45.89,263.0,090810,,*19
$GPRMC,002458.000,A,3238.1790,N,11607.5364,W,45.99,263.2,090810,,*1E
$GPRMC,002501.000,A,3238.1747,N,11607.5815,W,45.78,263.1,090810,,*18
$GPRMC,002504.000,A,3238.1707,N,11607.6261,W,45.73,263.3,090810,,*1A
$GPRMC,002507.000,A,3238.1669,N,11607.6710,W,46.20,263.4,090810,,*11
$GPRMC,002510.000,A,3238.1629,N,11607.7166,W,46.39,263.4,090810,,*1D
$GPRMC,002513.000,A,3238.1589,N,11607.7621,W,46.50,263.2,090810,,*1A
$GPRMC,002516.000,A,3238.1545,N,11607.8080,W,46.60,263.3,090810,,*1F
$GPRMC,002519.000,A,3238.1501,N,11607.8536,W,46.58,263.2,090810,,*12
$GPRMC,002522.000,A,3238.1459,N,11607.8988,W,46.45,263.4,090810,,*15
$GPRMC,002525.000,A,3238.1422,N,11607.9443,W,46.47,263.5,090810,,*16
$GPRMC,002528.000,A,3238.1378,N,11607.9896,W,46.47,263.1,090810,,*13
$GPRMC,002531.000,A,3238.1335,N,11608.0352,W,46.43,263.4,090810,,*16
$GPRMC,002534.000,A,3238.1291,N,11608.0802,W,46.50,263.2,090810,,*16
$GPRMC,002537.000,A,3238.1244,N,11608.1264,W,46.70,263.5,090810,,*13
$GPRMC,002540.000,A,3238.1201,N,11608.1727,W,46.78,263.4,090810,,*19
$GPRMC,002543.000,A,3238.1160,N,11608.2185,W,46.87,263.4,090810,,*13
$GPRMC,002546.000,A,3238.1115,N,11608.2643,W,46.73,263.3,090810,,*15
$GPRMC,002549.000,A,3238.1077,N,11608.3104,W,46.87,263.7,090810,,*15
$GPRMC,002552.000,A,3238.1037,N,11608.3563,W,46.86,263.5,090810,,*1D
$GPRMC,002555.000,A,3238.0995,N,11608.4023,W,46.88,263.5,090810,,*12
$GPRMC,002558.000,A,3238.0953,N,11608.4480,W,46.64,263.7,090810,,*18
$GPRMC,002601.000,A,3238.0910,N,11608.4942,W,47.90,263.7,090810,,*19
$GPRMC,002604.000,A,3238.0864,N,11608.5419,W,48.84,263.6,090810,,*17
$GPRMC,002607.000,A,3238.0820,N,11608.5896,W,48.48,263.7,090810,,*1E
$GPRMC,002610.000,A,3238.0778,N,11608.6365,W,47.79,263.6,090810,,*12
$GPRMC,002613.000,A,3238.0732,N,11608.6831,W,47.65,263.4,090810,,*1A
$GPRMC,002616.000,A,3238.0690,N,11608.7298,W,48.08,263.4,090810,,*1A
$GPRMC,002619.000,A,3238.0646,N,11608.7776,W,48.49,263.4,090810,,*1E
$GPRMC,002622.000,A,3238.0602,N,11608.8252,W,48.72,263.9,090810,,*1F
$GPRMC,002625.000,A,3238.0575,N,11608.8729,W,49.37,266.4,090810,,*1A
$GPRMC,002628.000,A,3238.0570,N,11608.9225,W,50.47,269.5,090810,,*1B
$GPRMC,002631.000,A,3238.0585,N,11608.9724,W,51.24,272.9,090810,,*1F
$GPRMC,002634.000,A,3238.0622,N,11609.0231,W,51.82,276.5,090810,,*19
$GPRMC,002637.000,A,3238.0697,N,11609.0744,W,52.80,278.7,090810,,*1E
$GPRMC,002640.000,A,3238.0768,N,11609.1263,W,52.87,278.4,090810,,*1A
$GPRMC,002643.000,A,3238.0832,N,11609.1772,W,52.03,278.5,090810,,*11
$GPRMC,002646.000,A,3238.0899,N,11609.2273,W,50.45,278.6,090810,,*11
$GPRMC,002649.000,A,3238.0964,N,11609.2755,W,49.00,278.5,090810,,*16
$GPRMC,002652.000,A,3238.1021,N,11609.3227,W,47.83,278.3,090810,,*17
$GPRMC,002655.000,A,3238.1081,N,11609.3695,W,47.95,278.7,090810,,*14
$GPRMC,002658.000,A,3238.1144,N,11609.4164,W,48.46,278.6,090810,,*1F
$GPRMC,002701.000,A,3238.1200,N,11609.4636,W,48.47,278.3,090810,,*15
$GPRMC,002704.000,A,3238.1256,N,11609.5110,W,48.40,278.2,090810,,*17
$GPRMC,002707.000,A,3238.1313,N,11609.5582,W,48.51,278.6,090810,,*1F
$GPRMC,002710.000,A,3238.1376,N,11609.6054,W,48.34,278.6,090810,,*14
$GPRMC,002713.000,A,3238.1437,N,11609.6526,W,48.22,278.6,090810,,*12
$GPRMC,002716.000,A,3238.1500,N,11609.6994,W,47.97,278.9,090810,,*19
$GPRMC,002719.000,A,3238.1560,N,11609.7459,W,47.87,278.5,090810,,*10
$GPRMC,002722.000,A,3238.1620,N,11609.7928,W,48.14,278.8,090810,,*1C
$GPRMC,002725.000,A,3238.1693,N,11609.8400,W,48.38,280.5,090810,,*1F
$GPRMC,002728.000,A,3238.1782,N,11609.8864,W,48.32,283.4,090810,,*15
$GPRMC,002731.000,A,3238.1897,N,11609.9321,W,48.31,286.7,090810,,*18
$GPRMC,002734.000,A,3238.2031,N,11609.9770,W,48.07,290.2,090810,,*1D
$GPRMC,002737.000,A,3238.2192,N,11610.0207,W,47.91,294.0,090810,,*14
$GPRMC,002740.000,A,3238.2372,N,11610.0628,W,47.94,297.6,090810,,*11
$GPRMC,002743.000,A,3238.2577,N,11610.1038,W,48.19,301.0,090810,,*15
$GPRMC,002746.000,A,3238.2802,N,11610.1430,W,48.17,304.4,090810,,*1C
$GPRMC,002749.000,A,3238.3045,N,11610.1806,W,47.88,307.6,090810,,*18
$GPRMC,002752.000,A,3238.3295,N,11610.2169,W,47.70,309.0,090810,,*11
$GPRMC,002755.000,A,3238.3555,N,11610.2536,W,49.16,309.7,090810,,*1A
$GPRMC,002758.000,A,3238.3820,N,11610.2915,W,50.04,309.6,090810,,*1F
$GPRMC,002801.000,A,3238.4084,N,11610.3297,W,50.09,309.4,090810,,*12
$GPRMC,002804.000,A,3238.4350,N,11610.3679,W,50.07,309.9,090810,,*1A
$GPRMC,002807.000,A,3238.4620,N,11610.4058,W,49.90,309.7,090810,,*11
$GPRMC,002810.000,A,3238.4884,N,11610.4435,W,49.79,309.7,090810,,*1F
$GPRMC,002813.000,A,3238.5147,N,11610.4809,W,49.00,309.4,090810,,*15
$GPRMC,002816.000,A,3238.5400,N,11610.5185,W,47.90,307.3,090810,,*14
$GPRMC,002819.000,A,3238.5625,N,11610.5575,W,47.46,303.7,090810,,*1E
$GPRMC,002822.000,A,3238.5824,N,11610.5979,W,46.82,299.4,090810,,*11
$GPRMC,002825.000,A,3238.5988,N,11610.6391,W,45.89,295.2,090810,,*1C
$GPRMC,002828.000,A,3238.6144,N,11610.6803,W,44.68,294.1,090810,,*16
$GPRMC,002831.000,A,3238.6291,N,11610.7199,W,43.16,293.7,090810,,*11
$GPRMC,002834.000,A,3238.6431,N,11610.7583,W,42.00,293.5,090810,,*13
$GPRMC,002837.000,A,3238.6573,N,11610.7958,W,41.32,293.6,090810,,*1C
$GPRMC,002840.000,A,3238.6716,N,11610.8338,W,42.26,293.9,090810,,*17
$GPRMC,002843.000,A,3238.6860,N,11610.8720,W,42.97,293.8,090810,,*1C
$GPRMC,002846.000,A,3238.7003,N,11610.9117,W,44.39,293.5,090810,,*19
$GPRMC,002849.000,A,3238.7154,N,11610.9529,W,46.29,293.7,090810,,*1D
$GPRMC,002852.000,A,3238.7314,N,11610.9955,W,46.84,294.1,090810,,*10
$GPRMC,002855.000,A,3238.7469,N,11611.0378,W,47.02,293.6,090810,,*18
$GPRMC,002858.000,A,3238.7623,N,11611.0805,W,46.91,293.3,090810,,*16
$GPRMC,002901.000,A,3238.7783,N,11611.1229,W,46.96,294.2,090810,,*14
$GPRMC,002904.000,A,3238.7946,N,11611.1652,W,47.40,294.2,090810,,*14
$GPRMC,002907.000,A,3238.8103,N,11611.2077,W,47.46,293.4,090810,,*14
$GPRMC,002910.000,A,3238.8260,N,11611.2502,W,47.05,293.7,090810,,*17
$GPRMC,002913.000,A,3238.8420,N,11611.2928,W,47.01,293.7,090810,,*16
$GPRMC,002916.000,A,3238.8576,N,11611.3357,W,46.96,293.7,090810,,*1D
$GPRMC,002919.000,A,3238.8730,N,11611.3782,W,46.85,293.6,090810,,*1D
$GPRMC,002922.000,A,3238.8886,N,11611.4203,W,46.64,293.7,090810,,*12
$GPRMC,002925.000,A,3238.9048,N,11611.4621,W,46.36,293.8,090810,,*12
$GPRMC,002928.000,A,3238.9203,N,11611.5039,W,46.07,293.8,090810,,*1E
$GPRMC,002931.000,A,3238.9353,N,11611.5452,W,45.77,293.4,090810,,*13
$GPRMC,002934.000,A,3238.9504,N,11611.5867,W,45.39,293.7,090810,,*11
$GPRMC,002937.000,A,3238.9667,N,11611.6267,W,44.99,295.7,090810,,*10
$GPRMC,002940.000,A,3238.9851,N,11611.6660,W,45.54,299.3,090810,,*10
$GPRMC,002943.000,A,3239.0056,N,11611.7037,W,45.46,302.7,090810,,*15
$GPRMC,002946.000,A,3239.0271,N,11611.7404,W,45.84,305.2,090810,,*1F
$GPRMC,002949.000,A,3239.0509,N,11611.7759,W,46.07,308.6,090810,,*12
$GPRMC,002952.000,A,3239.0769,N,11611.8095,W,46.24,312.9,090810,,*11
$GPRMC,002955.000,A,3239.1048,N,11611.8415,W,46.30,315.9,090810,,*1D
$GPRMC,002958.000,A,3239.1330,N,11611.8729,W,45.99,316.8,090810,,*12
$GPRMC,003001.000,A,3239.1612,N,11611.9041,W,45.92,317.1,090810,,*18
$GPRMC,003004.000,A,3239.1895,N,11611.9350,W,45.86,317.3,090810,,*18
$GPRMC,003007.000,A,3239.2177,N,11611.9656,W,46.04,317.4,090810,,*10
$GPRMC,003010.000,A,3239.2458,N,11611.9961,W,46.16,317.3,090810,,*11
$GPRMC,003013.000,A,3239.2742,N,11612.0273,W,46.19,317.1,090810,,*15
$GPRMC,003016.000,A,3239.3026,N,11612.0582,W,46.09,317.2,090810,,*1F
$GPRMC,003019.000,A,3239.3310,N,11612.0889,W,46.42,317.3,090810,,*1E
$GPRMC,003022.000,A,3239.3597,N,11612.1203,W,46.83,317.1,090810,,*19
$GPRMC,003025.000,A,3239.3884,N,11612.1518,W,46.86,317.1,090810,,*19
$GPRMC,003028.000,A,3239.4177,N,11612.1831,W,47.00,317.4,090810,,*1A
$GPRMC,003031.000,A,3239.4466,N,11612.2143,W,47.08,317.6,090810,,*12
$GPRMC,003034.000,A,3239.4752,N,11612.2462,W,47.41,316.3,090810,,*1C
$GPRMC,003037.000,A,3239.5031,N,11612.2798,W,47.92,314.0,090810,,*15
$GPRMC,003040.000,A,3239.5298,N,11612.3151,W,48.01,311.3,090810,,*15
$GPRMC,003043.000,A,3239.5544,N,11612.3521,W,47.76,307.9,090810,,*11
$GPRMC,003046.000,A,3239.5772,N,11612.3912,W,47.62,304.3,090810,,*13
$GPRMC,003049.000,A,3239.5979,N,11612.4316,W,47.79,301.0,090810,,*1C
$GPRMC,003052.000,A,3239.6168,N,11612.4726,W,47.14,298.2,090810,,*12
$GPRMC,003055.000,A,3239.6333,N,11612.5137,W,46.56,295.1,090810,,*17
$GPRMC,003058.000,A,3239.6477,N,11612.5562,W,45.80,291.5,090810,,*11
$GPRMC,003101.000,A,3239.6593,N,11612.5990,W,45.59,288.2,090810,,*1D
$GPRMC,003104.000,A,3239.6699,N,11612.6424,W,45.92,285.4,090810,,*1C
$GPRMC,003107.000,A,3239.6785,N,11612.6868,W,45.95,282.4,090810,,*17
$GPRMC,003110.000,A,3239.6853,N,11612.7316,W,46.25,279.4,090810,,*1A
$GPRMC,003113.000,A,3239.6898,N,11612.7773,W,46.57,275.9,090810,,*1D
$GPRMC,003116.000,A,3239.6928,N,11612.8233,W,46.65,273.5,090810,,*17
$GPRMC,003119.000,A,3239.6946,N,11612.8687,W,46.41,272.9,090810,,*10
$GPRMC,003122.000,A,3239.6966,N,11612.9143,W,45.81,272.7,090810,,*15
$GPRMC,003125.000,A,3239.6991,N,11612.9596,W,45.53,272.7,090810,,*19
$GPRMC,003128.000,A,3239.7001,N,11613.0042,W,45.22,272.6,090810,,*16
$GPRMC,003131.000,A,3239.7023,N,11613.0491,W,45.77,273.2,090810,,*11
$GPRMC,003134.000,A,3239.7039,N,11613.0943,W,45.98,273.0,090810,,*1E
$GPRMC,003137.000,A,3239.7057,N,11613.1397,W,45.96,272.7,090810,,*1F
$GPRMC,003140.000,A,3239.7074,N,11613.1852,W,46.24,272.8,090810,,*19
$GPRMC,003143.000,A,3239.7096,N,11613.2311,W,46.88,273.1,090810,,*17
$GPRMC,003146.000,A,3239.7117,N,11613.2776,W,47.28,273.3,090810,,*16
$GPRMC,003149.000,A,3239.7135,N,11613.3243,W,47.28,272.9,090810,,*10
$GPRMC,003152.000,A,3239.7155,N,11613.3708,W,47.03,272.5,090810,,*13
$GPRMC,003155.000,A,3239.7168,N,11613.4174,W,46.90,270.9,090810,,*15
$GPRMC,003158.000,A,3239.7149,N,11613.4634,W,46.95,265.1,090810,,*11
$GPRMC,003201.000,A,3239.7078,N,11613.5090,W,47.07,258.5,090810,,*14
$GPRMC,003204.000,A,3239.6978,N,11613.5538,W,47.14,255.4,090810,,*10
$GPRMC,003207.000,A,3239.6871,N,11613.5987,W,46.91,254.9,090810,,*13
$GPRMC,003210.000,A,3239.6769,N,11613.6428,W,46.68,255.8,090810,,*1E
$GPRMC,003213.000,A,3239.6693,N,11613.6882,W,46.89,259.9,090810,,*17
$GPRMC,003216.000,A,3239.6660,N,11613.7342,W,46.68,266.5,090810,,*17
$GPRMC,003219.000,A,3239.6665,N,11613.7805,W,46.68,270.0,090810,,*17
$GPRMC,003222.000,A,3239.6663,N,11613.8264,W,46.52,270.9,090810,,*1B
$GPRMC,003225.000,A,3239.6667,N,11613.8722,W,46.46,271.2,090810,,*10
$GPRMC,003228.000,A,3239.6679,N,11613.9180,W,46.36,271.3,090810,,*1B
$GPRMC,003231.000,A,3239.6689,N,11613.9636,W,46.50,271.1,090810,,*14
$GPRMC,003234.000,A,3239.6690,N,11614.0097,W,46.51,270.8,090810,,*13
$GPRMC,003237.000,A,3239.6698,N,11614.0554,W,46.19,271.1,090810,,*16
$GPRMC,003240.000,A,3239.6717,N,11614.1017,W,46.45,274.1,090810,,*1F
$GPRMC,003243.000,A,3239.6770,N,11614.1469,W,46.64,279.2,090810,,*1D
$GPRMC,003246.000,A,3239.6862,N,11614.1918,W,46.36,285.1,090810,,*18
$GPRMC,003249.000,A,3239.6984,N,11614.2350,W,45.58,288.1,090810,,*1D
$GPRMC,003252.000,A,3239.7110,N,11614.2778,W,45.36,288.7,090810,,*13
$GPRMC,003255.000,A,3239.7231,N,11614.3202,W,45.30,288.9,090810,,*15
$GPRMC,003258.000,A,3239.7353,N,11614.3629,W,45.52,288.7,090810,,*1A
$GPRMC,003301.000,A,3239.7474,N,11614.4056,W,45.86,288.6,090810,,*14
$GPRMC,003304.000,A,3239.7603,N,11614.4480,W,45.86,288.7,090810,,*1D
$GPRMC,003307.000,A,3239.7721,N,11614.4911,W,45.98,288.5,090810,,*17
$GPRMC,003310.000,A,3239.7843,N,11614.5344,W,46.10,288.7,090810,,*10
$GPRMC,003313.000,A,3239.7966,N,11614.5780,W,46.26,289.0,090810,,*1A
$GPRMC,003316.000,A,3239.8092,N,11614.6210,W,46.56,288.9,090810,,*12
$GPRMC,003319.000,A,3239.8215,N,11614.6649,W,46.85,288.6,090810,,*19
$GPRMC,003322.000,A,3239.8339,N,11614.7091,W,47.40,288.5,090810,,*17
$GPRMC,003325.000,A,3239.8465,N,11614.7536,W,47.74,288.5,090810,,*11
$GPRMC,003328.000,A,3239.8593,N,11614.7980,W,47.52,288.5,090810,,*11
$GPRMC,003331.000,A,3239.8722,N,11614.8423,W,47.21,288.6,090810,,*1D
$GPRMC,003334.000,A,3239.8848,N,11614.8861,W,46.75,288.7,090810,,*10
$GPRMC,003337.000,A,3239.8972,N,11614.9294,W,46.40,288.8,090810,,*13
$GPRMC,003340.000,A,3239.9098,N,11614.9731,W,46.70,288.8,090810,,*16
$GPRMC,003343.000,A,3239.9225,N,11615.0173,W,47.15,288.6,090810,,*15
$GPRMC,003346.000,A,3239.9351,N,11615.0616,W,47.31,288.5,090810,,*13
$GPRMC,003349.000,A,3239.9478,N,11615.1056,W,47.05,288.5,090810,,*14
$GPRMC,003352.000,A,3239.9602,N,11615.1496,W,46.14,288.7,090810,,*1A
$GPRMC,003355.000,A,3239.9722,N,11615.1925,W,45.15,288.7,090810,,*19
$GPRMC,003358.000,A,3239.9843,N,11615.2345,W,44.96,288.5,090810,,*1B
$GPRMC,003401.000,A,3239.9961,N,11615.2771,W,45.38,288.6,090810,,*14
$GPRMC,003404.000,A,3240.0085,N,11615.3196,W,45.62,288.6,090810,,*14
$GPRMC,003407.000,A,3240.0205,N,11615.3626,W,45.80,288.5,090810,,*1E
$GPRMC,003410.000,A,3240.0324,N,11615.4051,W,45.73,288.7,090810,,*15
$GPRMC,003413.000,A,3240.0447,N,11615.4483,W,45.86,288.8,090810,,*1A
$GPRMC,003416.000,A,3240.0566,N,11615.4913,W,46.08,288.8,090810,,*1C
$GPRMC,003419.000,A,3240.0692,N,11615.5349,W,46.33,288.7,090810,,*18
$GPRMC,003422.000,A,3240.0819,N,11615.5785,W,46.65,288.6,090810,,*1B
$GPRMC,003425.000,A,3240.0944,N,11615.6226,W,46.63,288.6,090810,,*1C
$GPRMC,003428.000,A,3240.1063,N,11615.6664,W,46.45,288.4,090810,,*18
$GPRMC,003431.000,A,3240.1186,N,11615.7098,W,46.27,288.4,090810,,*1A
$GPRMC,003434.000,A,3240.1312,N,11615.7530,W,46.30,288.6,090810,,*13
$GPRMC,003437.000,A,3240.1435,N,11615.7964,W,46.34,288.8,090810,,*15
$GPRMC,003440.000,A,3240.1560,N,11615.8396,W,46.28,288.8,090810,,*11
$GPRMC,003443.000,A,3240.1682,N,11615.8832,W,46.38,288.4,090810,,*15
$GPRMC,003446.000,A,3240.1804,N,11615.9265,W,45.91,288.5,090810,,*18
$GPRMC,003449.000,A,3240.1925,N,11615.9691,W,45.19,288.5,090810,,*1A
$GPRMC,003452.000,A,3240.2047,N,11616.0110,W,44.18,288.9,090810,,*16
$GPRMC,003455.000,A,3240.2163,N,11616.0528,W,44.47,288.7,090810,,*1D
$GPRMC,003458.000,A,3240.2283,N,11616.0945,W,44.26,288.8,090810,,*12
$GPRMC,003501.000,A,3240.2404,N,11616.1359,W,44.35,288.6,090810,,*1C
$GPRMC,003504.000,A,3240.2524,N,11616.1775,W,44.42,288.5,090810,,*13
$GPRMC,003507.000,A,3240.2641,N,11616.2194,W,44.63,288.4,090810,,*18
$GPRMC,003510.000,A,3240.2760,N,11616.2608,W,44.48,288.5,090810,,*16
$GPRMC,003513.000,A,3240.2877,N,11616.3022,W,44.53,288.7,090810,,*1B
$GPRMC,003516.000,A,3240.2997,N,11616.3450,W,46.41,288.6,090810,,*10
$GPRMC,003519.000,A,3240.3124,N,11616.3886,W,47.37,288.7,090810,,*18
$GPRMC,003522.000,A,3240.3250,N,11616.4335,W,47.28,288.7,090810,,*1A
$GPRMC,003525.000,A,3240.3380,N,11616.4769,W,47.04,288.9,090810,,*1C
$GPRMC,003528.000,A,3240.3501,N,11616.5212,W,46.87,288.6,090810,,*13
$GPRMC,003531.000,A,3240.3624,N,11616.5651,W,46.87,288.3,090810,,*19
$GPRMC,003534.000,A,3240.3752,N,11616.6091,W,46.97,288.7,090810,,*10
$GPRMC,003537.000,A,3240.3875,N,11616.6532,W,47.02,288.7,090810,,*18
$GPRMC,003540.000,A,3240.4001,N,11616.6967,W,45.75,288.7,090810,,*1A
$GPRMC,003543.000,A,3240.4117,N,11616.7393,W,44.04,288.7,090810,,*18
$GPRMC,003546.000,A,3240.4233,N,11616.7798,W,42.90,288.6,090810,,*1D
$GPRMC,003549.000,A,3240.4350,N,11616.8203,W,42.90,288.6,090810,,*1E
$GPRMC,003552.000,A,3240.4461,N,11616.8606,W,43.05,288.7,090810,,*1C
$GPRMC,003555.000,A,3240.4576,N,11616.9011,W,42.59,288.6,090810,,*14
$GPRMC,003558.000,A,3240.4688,N,11616.9401,W,40.92,288.7,090810,,*1A
$GPRMC,003601.000,A,3240.4795,N,11616.9775,W,39.33,288.8,090810,,*12
$GPRMC,003604.000,A,3240.4898,N,11617.0139,W,38.35,288.9,090810,,*15
$GPRMC,003607.000,A,3240.5002,N,11617.0493,W,38.24,288.7,090810,,*17
$GPRMC,003610.000,A,3240.5108,N,11617.0849,W,38.36,288.7,090810,,*12
$GPRMC,003613.000,A,3240.5212,N,11617.1214,W,38.68,288.9,090810,,*1F
$GPRMC,003616.000,A,3240.5317,N,11617.1572,W,38.76,288.9,090810,,*16
$GPRMC,003619.000,A,3240.5420,N,11617.1934,W,39.05,288.7,090810,,*1F
$GPRMC,003622.000,A,3240.5523,N,11617.2307,W,40.04,288.6,090810,,*12
$GPRMC,003625.000,A,3240.5632,N,11617.2693,W,42.07,288.3,090810,,*1A
$GPRMC,003628.000,A,3240.5749,N,11617.3095,W,44.06,289.1,090810,,*1F
$GPRMC,003631.000,A,3240.5883,N,11617.3506,W,45.84,290.9,090810,,*1A
$GPRMC,003634.000,A,3240.6029,N,11617.3930,W,46.63,293.7,090810,,*1A
$GPRMC,003637.000,A,3240.6200,N,11617.4344,W,46.29,296.7,090810,,*15
$GPRMC,003640.000,A,3240.6383,N,11617.4747,W,45.68,299.4,090810,,*12
$GPRMC,003643.000,A,3240.6581,N,11617.5131,W,45.34,302.0,090810,,*1D
$GPRMC,003646.000,A,3240.6796,N,11617.5498,W,44.73,304.9,090810,,*17
$GPRMC,003649.000,A,3240.7024,N,11617.5847,W,45.11,307.3,090810,,*15
$GPRMC,003652.000,A,3240.7266,N,11617.6184,W,45.06,309.8,090810,,*1D
$GPRMC,003655.000,A,3240.7516,N,11617.6517,W,45.15,312.4,090810,,*10
$GPRMC,003658.000,A,3240.7776,N,11617.6842,W,45.20,313.3,090810,,*14
$GPRMC,003701.000,A,3240.8037,N,11617.7164,W,45.35,313.8,090810,,*17
$GPRMC,003704.000,A,3240.8305,N,11617.7490,W,45.53,313.8,090810,,*1E
$GPRMC,003707.000,A,3240.8565,N,11617.7817,W,45.39,313.2,090810,,*18
$GPRMC,003710.000,A,3240.8826,N,11617.8145,W,45.40,313.5,090810,,*1C
$GPRMC,003713.000,A,3240.9084,N,11617.8471,W,45.23,313.7,090810,,*1B
$GPRMC,003716.000,A,3240.9342,N,11617.8793,W,44.41,313.5,090810,,*1F
$GPRMC,003719.000,A,3240.9592,N,11617.9102,W,42.29,313.6,090810,,*1F
$GPRMC,003722.000,A,3240.9831,N,11617.9396,W,40.44,313.6,090810,,*15
$GPRMC,003725.000,A,3241.0055,N,11617.9682,W,38.77,313.6,090810,,*1F
$GPRMC,003728.000,A,3241.0273,N,11617.9957,W,38.27,313.5,090810,,*15
$GPRMC,003731.000,A,3241.0496,N,11618.0225,W,37.80,313.7,090810,,*18
$GPRMC,003734.000,A,3241.0710,N,11618.0488,W,35.83,313.5,090810,,*12
$GPRMC,003737.000,A,3241.0910,N,11618.0739,W,34.72,313.6,090810,,*1A
$GPRMC,003740.000,A,3241.1108,N,11618.0986,W,34.66,313.7,090810,,*14
$GPRMC,003743.000,A,3241.1308,N,11618.1233,W,34.48,313.8,090810,,*12
$GPRMC,003746.000,A,3241.1505,N,11618.1475,W,34.20,313.7,090810,,*19
$GPRMC,003749.000,A,3241.1702,N,11618.1722,W,34.31,313.3,090810,,*16
$GPRMC,003752.000,A,3241.1901,N,11618.1971,W,34.86,313.4,090810,,*12
$GPRMC,003755.000,A,3241.2103,N,11618.2221,W,35.51,313.4,090810,,*1A
$GPRMC,003758.000,A,3241.2307,N,11618.2478,W,35.97,313.6,090810,,*13
$GPRMC,003801.000,A,3241.2512,N,11618.2738,W,36.02,313.7,090810,,*1B
$GPRMC,003804.000,A,3241.2721,N,11618.2998,W,36.44,313.6,090810,,*1B
$GPRMC,003807.000,A,3241.2929,N,11618.3264,W,36.64,313.6,090810,,*15
$GPRMC,003810.000,A,3241.3141,N,11618.3528,W,36.83,313.5,090810,,*11
$GPRMC,003813.000,A,3241.3353,N,11618.3789,W,37.02,313.7,090810,,*10
$GPRMC,003816.000,A,3241.3571,N,11618.4052,W,37.18,313.9,090810,,*10
$GPRMC,003819.000,A,3241.3785,N,11618.4315,W,36.77,314.2,090810,,*12
$GPRMC,003822.000,A,3241.3994,N,11618.4577,W,36.46,313.7,090810,,*16
$GPRMC,003825.000,A,3241.4199,N,11618.4841,W,36.62,313.5,090810,,*1F
$GPRMC,003828.000,A,3241.4411,N,11618.5102,W,36.68,313.7,090810,,*10
$GPRMC,003831.000,A,3241.4626,N,11618.5366,W,37.57,313.7,090810,,*13
$GPRMC,003834.000,A,3241.4843,N,11618.5641,W,39.71,313.6,090810,,*10
$GPRMC,003837.000,A,3241.5076,N,11618.5935,W,41.78,313.7,090810,,*17
$GPRMC,003840.000,A,3241.5319,N,11618.6235,W,42.14,313.5,090810,,*1E
$GPRMC,003843.000,A,3241.5556,N,11618.6536,W,42.13,313.3,090810,,*15
$GPRMC,003846.000,A,3241.5796,N,11618.6837,W,41.94,313.5,090810,,*18
$GPRMC,003849.000,A,3241.6037,N,11618.7135,W,41.92,313.7,090810,,*16
$GPRMC,003852.000,A,3241.6275,N,11618.7436,W,41.50,314.1,090810,,*11
$GPRMC,003855.000,A,3241.6512,N,11618.7731,W,41.05,313.9,090810,,*1B
$GPRMC,003858.000,A,3241.6744,N,11618.8022,W,40.83,313.5,090810,,*1E
$GPRMC,003901.000,A,3241.6976,N,11618.8316,W,41.28,313.5,090810,,*18
$GPRMC,003904.000,A,3241.7208,N,11618.8615,W,41.42,313.7,090810,,*16
$GPRMC,003907.000,A,3241.7452,N,11618.8913,W,41.41,313.7,090810,,*16
$GPRMC,003910.000,A,3241.7691,N,11618.9209,W,41.41,313.8,090810,,*13
$GPRMC,003913.000,A,3241.7927,N,11618.9503,W,41.18,313.8,090810,,*13
$GPRMC,003916.000,A,3241.8171,N,11618.9798,W,41.40,313.9,090810,,*1E
$GPRMC,003919.000,A,3241.8403,N,11619.0094,W,41.26,312.8,090810,,*12
$GPRMC,003922.000,A,3241.8627,N,11619.0399,W,41.28,311.0,090810,,*15
$GPRMC,003925.000,A,3241.8850,N,11619.0710,W,41.41,309.1,090810,,*1E
$GPRMC,003928.000,A,3241.9059,N,11619.1039,W,41.39,306.4,090810,,*1B
$GPRMC,003931.000,A,3241.9249,N,11619.1379,W,42.14,303.3,090810,,*19
$GPRMC,003934.000,A,3241.9434,N,11619.1749,W,44.67,300.9,090810,,*1C
$GPRMC,003937.000,A,3241.9614,N,11619.2152,W,47.00,297.7,090810,,*13
$GPRMC,003940.000,A,3241.9781,N,11619.2581,W,47.98,294.8,090810,,*19
$GPRMC,003943.000,A,3241.9943,N,11619.3015,W,47.99,293.2,090810,,*1F
$GPRMC,003946.000,A,3242.0089,N,11619.3458,W,47.81,290.6,090810,,*1C
$GPRMC,003949.000,A,3242.0211,N,11619.3911,W,48.10,287.9,090810,,*1E
$GPRMC,003952.000,A,3242.0321,N,11619.4370,W,48.11,286.4,090810,,*11
$GPRMC,003955.000,A,3242.0420,N,11619.4832,W,48.33,283.8,090810,,*14
$GPRMC,003958.000,A,3242.0490,N,11619.5300,W,48.19,280.1,090810,,*1B
$GPRMC,004001.000,A,3242.0554,N,11619.5769,W,48.30,279.0,090810,,*17
$GPRMC,004004.000,A,3242.0618,N,11619.6240,W,48.34,279.1,090810,,*11
$GPRMC,004007.000,A,3242.0679,N,11619.6710,W,48.38,278.9,090810,,*10
$GPRMC,004010.000,A,3242.0744,N,11619.7181,W,48.41,278.9,090810,,*18
$GPRMC,004013.000,A,3242.0809,N,11619.7655,W,48.18,278.9,090810,,*1F
$GPRMC,004016.000,A,3242.0872,N,11619.8123,W,48.04,278.9,090810,,*12
$GPRMC,004019.000,A,3242.0935,N,11619.8591,W,47.95,279.2,090810,,*1F
$GPRMC,004022.000,A,3242.0998,N,11619.9056,W,47.97,279.0,090810,,*1F
$GPRMC,004025.000,A,3242.1054,N,11619.9525,W,47.76,278.7,090810,,*18
$GPRMC,004028.000,A,3242.1118,N,11619.9989,W,47.85,278.9,090810,,*14
$GPRMC,004031.000,A,3242.1181,N,11620.0455,W,49.07,279.0,090810,,*1F
$GPRMC,004034.000,A,3242.1239,N,11620.0949,W,50.77,278.8,090810,,*1C
$GPRMC,004037.000,A,3242.1311,N,11620.1448,W,51.78,279.0,090810,,*1E
$GPRMC,004040.000,A,3242.1378,N,11620.1953,W,50.82,279.0,090810,,*12
$GPRMC,004043.000,A,3242.1446,N,11620.2443,W,50.37,278.9,090810,,*12
$GPRMC,004046.000,A,3242.1515,N,11620.2933,W,50.35,279.0,090810,,*10
$GPRMC,004049.000,A,3242.1574,N,11620.3431,W,50.66,279.0,090810,,*10
$GPRMC,004052.000,A,3242.1638,N,11620.3929,W,51.03,278.9,090810,,*1F
$GPRMC,004055.000,A,3242.1703,N,11620.4434,W,51.24,278.8,090810,,*13
$GPRMC,004058.000,A,3242.1765,N,11620.4935,W,51.22,278.9,090810,,*15
$GPRMC,004101.000,A,3242.1828,N,11620.5436,W,51.00,279.1,090810,,*18
$GPRMC,004104.000,A,3242.1897,N,11620.5937,W,50.56,279.2,090810,,*14
$GPRMC,004107.000,A,3242.1966,N,11620.6428,W,50.36,279.1,090810,,*1D
$GPRMC,004110.000,A,3242.2028,N,11620.6919,W,50.29,278.7,090810,,*1D
$GPRMC,004113.000,A,3242.2096,N,11620.7403,W,49.90,278.9,090810,,*18
$GPRMC,004116.000,A,3242.2162,N,11620.7883,W,49.50,279.1,090810,,*16
$GPRMC,004119.000,A,3242.2230,N,11620.8360,W,49.23,279.1,090810,,*10
$GPRMC,004122.000,A,3242.2293,N,11620.8840,W,48.67,278.7,090810,,*1E
$GPRMC,004125.000,A,3242.2353,N,11620.9307,W,47.88,278.5,090810,,*11
$GPRMC,004128.000,A,3242.2420,N,11620.9770,W,47.81,279.1,090810,,*17
$GPRMC,004131.000,A,3242.2486,N,11621.0242,W,47.94,279.1,090810,,*1B
$GPRMC,004134.000,A,3242.2548,N,11621.0715,W,48.57,278.9,090810,,*13
$GPRMC,004137.000,A,3242.2614,N,11621.1189,W,49.00,279.2,090810,,*11
$GPRMC,004140.000,A,3242.2678,N,11621.1669,W,49.28,278.8,090810,,*13
$GPRMC,004143.000,A,3242.2737,N,11621.2148,W,49.60,278.8,090810,,*11
$GPRMC,004146.000,A,3242.2802,N,11621.2639,W,49.91,278.7,090810,,*1D
$GPRMC,004149.000,A,3242.2864,N,11621.3129,W,50.43,279.0,090810,,*14
$GPRMC,004152.000,A,3242.2932,N,11621.3624,W,51.16,279.2,090810,,*15
$GPRMC,004155.000,A,3242.3000,N,11621.4132,W,51.48,279.0,090810,,*15
$GPRMC,004158.000,A,3242.3072,N,11621.4635,W,51.30,279.3,090810,,*11
$GPRMC,004201.000,A,3242.3140,N,11621.5134,W,51.49,279.7,090810,,*13
$GPRMC,004204.000,A,3242.3220,N,11621.5629,W,51.41,281.1,090810,,*11
$GPRMC,004207.000,A,3242.3317,N,11621.6131,W,51.33,284.0,090810,,*1B
$GPRMC,004210.000,A,3242.3432,N,11621.6623,W,51.40,286.9,090810,,*16
$GPRMC,004213.000,A,3242.3562,N,11621.7110,W,51.20,288.0,090810,,*16
$GPRMC,004216.000,A,3242.3694,N,11621.7587,W,50.74,288.1,090810,,*12
$GPRMC,004219.000,A,3242.3829,N,11621.8060,W,50.50,288.1,090810,,*10
$GPRMC,004222.000,A,3242.3959,N,11621.8534,W,50.10,288.1,090810,,*1E
$GPRMC,004225.000,A,3242.4084,N,11621.9005,W,49.64,287.7,090810,,*13
$GPRMC,004228.000,A,3242.4211,N,11621.9468,W,49.45,288.0,090810,,*14
$GPRMC,004231.000,A,3242.4341,N,11621.9931,W,49.26,288.1,090810,,*1D
$GPRMC,004234.000,A,3242.4468,N,11622.0393,W,49.43,288.1,090810,,*1F
$GPRMC,004237.000,A,3242.4594,N,11622.0860,W,49.84,287.8,090810,,*14
$GPRMC,004240.000,A,3242.4726,N,11622.1329,W,49.84,288.1,090810,,*1E
$GPRMC,004243.000,A,3242.4857,N,11622.1794,W,50.00,288.2,090810,,*11
$GPRMC,004246.000,A,3242.4987,N,11622.2267,W,50.25,288.1,090810,,*16
$GPRMC,004249.000,A,3242.5116,N,11622.2741,W,50.33,288.0,090810,,*1F
$GPRMC,004252.000,A,3242.5245,N,11622.3213,W,50.37,287.9,090810,,*11
$GPRMC,004255.000,A,3242.5374,N,11622.3692,W,50.26,287.9,090810,,*18
$GPRMC,004258.000,A,3242.5506,N,11622.4158,W,49.88,288.2,090810,,*18
$GPRMC,004301.000,A,3242.5634,N,11622.4625,W,49.83,288.1,090810,,*12
$GPRMC,004304.000,A,3242.5769,N,11622.5095,W,50.10,289.5,090810,,*15
$GPRMC,004307.000,A,3242.5921,N,11622.5556,W,50.67,291.5,090810,,*17
$GPRMC,004310.000,A,3242.6091,N,11622.6012,W,51.11,293.7,090810,,*16
$GPRMC,004313.000,A,3242.6272,N,11622.6473,W,51.41,295.4,090810,,*19
$GPRMC,004316.000,A,3242.6468,N,11622.6927,W,51.39,298.0,090810,,*1B
$GPRMC,004319.000,A,3242.6685,N,11622.7366,W,51.27,300.1,090810,,*15
$GPRMC,004322.000,A,3242.6913,N,11622.7796,W,51.40,302.1,090810,,*15
$GPRMC,004325.000,A,3242.7153,N,11622.8216,W,51.43,304.4,090810,,*1D
$GPRMC,004328.000,A,3242.7403,N,11622.8629,W,51.82,306.1,090810,,*12
$GPRMC,004331.000,A,3242.7672,N,11622.9034,W,52.43,307.9,090810,,*12
$GPRMC,004334.000,A,3242.7963,N,11622.9434,W,53.51,310.8,090810,,*19
$GPRMC,004337.000,A,3242.8277,N,11622.9817,W,53.92,312.9,090810,,*1A
$GPRMC,004340.000,A,3242.8592,N,11623.0195,W,53.16,314.5,090810,,*1B
$GPRMC,004343.000,A,3242.8901,N,11623.0568,W,52.45,314.5,090810,,*1F
$GPRMC,004346.000,A,3242.9214,N,11623.0934,W,51.93,315.1,090810,,*1C
$GPRMC,004349.000,A,3242.9524,N,11623.1294,W,51.71,315.1,090810,,*1B
$GPRMC,004352.000,A,3242.9828,N,11623.1658,W,51.45,315.1,090810,,*13
$GPRMC,004355.000,A,3243.0134,N,11623.2010,W,51.02,314.8,090810,,*1A
$GPRMC,004358.000,A,3243.0432,N,11623.2371,W,50.97,313.7,090810,,*15
$GPRMC,004401.000,A,3243.0711,N,11623.2746,W,51.14,311.1,090810,,*12
$GPRMC,004404.000,A,3243.0979,N,11623.3137,W,51.01,308.4,090810,,*1F
$GPRMC,004407.000,A,3243.1225,N,11623.3547,W,50.80,305.2,090810,,*1F
$GPRMC,004410.000,A,3243.1450,N,11623.3972,W,50.77,302.4,090810,,*1E
$GPRMC,004413.000,A,3243.1666,N,11623.4401,W,50.78,300.9,090810,,*14
$GPRMC,004416.000,A,3243.1882,N,11623.4831,W,50.55,300.5,090810,,*19
$GPRMC,004419.000,A,3243.2096,N,11623.5262,W,50.43,300.4,090810,,*13
$GPRMC,004422.000,A,3243.2308,N,11623.5693,W,50.45,300.5,090810,,*12
$GPRMC,004425.000,A,3243.2521,N,11623.6125,W,50.61,300.5,090810,,*17
$GPRMC,004428.000,A,3243.2740,N,11623.6553,W,50.77,300.7,090810,,*1F
$GPRMC,004431.000,A,3243.2954,N,11623.6983,W,50.36,300.4,090810,,*1B
$GPRMC,004434.000,A,3243.3163,N,11623.7415,W,50.38,300.2,090810,,*18
$GPRMC,004437.000,A,3243.3373,N,11623.7846,W,50.43,300.1,090810,,*1D
$GPRMC,004440.000,A,3243.3584,N,11623.8280,W,50.50,300.5,090810,,*1A
$GPRMC,004443.000,A,3243.3794,N,11623.8710,W,50.59,300.5,090810,,*1F
$GPRMC,004446.000,A,3243.4008,N,11623.9145,W,51.33,300.4,090810,,*14
$GPRMC,004449.000,A,3243.4230,N,11623.9585,W,51.89,300.4,090810,,*1B
$GPRMC,004452.000,A,3243.4443,N,11624.0031,W,52.03,299.2,090810,,*11
$GPRMC,004455.000,A,3243.4650,N,11624.0485,W,52.17,298.0,090810,,*1B
$GPRMC,004458.000,A,3243.4843,N,11624.0952,W,52.69,296.2,090810,,*18
$GPRMC,004501.000,A,3243.5033,N,11624.1421,W,52.89,294.7,090810,,*1A
$GPRMC,004504.000,A,3243.5212,N,11624.1896,W,52.99,293.2,090810,,*1D
$GPRMC,004507.000,A,3243.5378,N,11624.2382,W,52.83,291.9,090810,,*1C
$GPRMC,004510.000,A,3243.5530,N,11624.2875,W,52.72,290.2,090810,,*17
$GPRMC,004513.000,A,3243.5670,N,11624.3362,W,52.31,288.7,090810,,*14
$GPRMC,004516.000,A,3243.5803,N,11624.3853,W,51.79,287.3,090810,,*16
$GPRMC,004519.000,A,3243.5920,N,11624.4344,W,51.06,285.7,090810,,*1D
$GPRMC,004522.000,A,3243.6024,N,11624.4831,W,50.48,284.1,090810,,*1E
$GPRMC,004525.000,A,3243.6120,N,11624.5313,W,50.05,282.8,090810,,*10
$GPRMC,004528.000,A,3243.6203,N,11624.5796,W,50.21,281.5,090810,,*1E
$GPRMC,004531.000,A,3243.6278,N,11624.6295,W,50.43,280.5,090810,,*1A
$GPRMC,004534.000,A,3243.6353,N,11624.6788,W,50.49,280.0,090810,,*11
$GPRMC,004537.000,A,3243.6429,N,11624.7280,W,50.37,280.0,090810,,*1D
$GPRMC,004540.000,A,3243.6503,N,11624.7770,W,50.23,280.1,090810,,*1A
$GPRMC,004543.000,A,3243.6577,N,11624.8253,W,50.21,280.1,090810,,*13
$GPRMC,004546.000,A,3243.6654,N,11624.8741,W,50.32,280.2,090810,,*13
$GPRMC,004549.000,A,3243.6730,N,11624.9231,W,50.11,280.2,090810,,*1D
$GPRMC,004552.000,A,3243.6805,N,11624.9718,W,50.35,280.2,090810,,*16
$GPRMC,004555.000,A,3243.6874,N,11625.0215,W,50.37,279.8,090810,,*19
