NMEA Sentence Code,UTC Time,Status,Latitude,Latitude Direction,Longitude,Longitude Direction,Speed (knots),Track Angle (degrees true),Date,MagneticVariation,Magnetic Variation Direction,[FAA Mode]-Optional,Checksum
$GPRMC,160252.000,A,3244.2087,N,11700.9383,W,53.44,175.80,110310,,,A*4B
$GPRMC,160255.000,A,3244.1489,N,11700.9452,W,57.40,178.80,110310,,,A*43
$GPRMC,160258.000,A,3244.0944,N,11700.9411,W,59.19,176.30,110310,,,A*43
$GPRMC,160301.000,A,3244.0434,N,11700.9340,W,62.36,172.40,110310,,,A*41
$GPRMC,160304.000,A,3243.9914,N,11700.9207,W,63.25,169.60,110310,,,A*4C
$GPRMC,160307.000,A,3243.9422,N,11700.9104,W,61.57,170.10,110310,,,A*4F
$GPRMC,160310.000,A,3243.8974,N,11700.8994,W,60.28,170.10,110310,,,A*4F
$GPRMC,160313.000,A,3243.8576,N,11700.8896,W,58.29,170.20,110310,,,A*48
$GPRMC,160316.000,A,3243.8170,N,11700.8742,W,56.71,168.00,110310,,,A*41
$GPRMC,160319.000,A,3243.7780,N,11700.8596,W,54.53,166.90,110310,,,A*46
$GPRMC,160322.000,A,3243.7378,N,11700.8493,W,53.14,167.30,110310,,,A*46
$GPRMC,160325.000,A,3243.6872,N,11700.8453,W,53.64,169.00,110310,,,A*47
$GPRMC,160328.000,A,3243.6396,N,11700.8398,W,52.45,170.20,110310,,,A*43
$GPRMC,160331.000,A,3243.5882,N,11700.8360,W,53.54,171.10,110310,,,A*42
$GPRMC,160334.000,A,3243.5382,N,11700.8376,W,52.64,173.40,110310,,,A*4E
$GPRMC,160337.000,A,3243.4764,N,11700.8461,W,55.72,176.70,110310,,,A*47
$GPRMC,160340.000,A,3243.3907,N,11700.8684,W,61.37,180.70,110310,,,A*4D
$GPRMC,160343.000,A,3243.3351,N,11700.8733,W,60.28,180.30,110310,,,A*41
$GPRMC,160346.000,A,3243.2688,N,11700.8872,W,61.37,181.00,110310,,,A*43
$GPRMC,160349.000,A,3243.2194,N,11700.8902,W,58.99,180.70,110310,,,A*48
$GPRMC,160352.000,A,3243.1757,N,11700.8922,W,55.52,181.70,110310,,,A*41
$GPRMC,160355.000,A,3243.1344,N,11700.8893,W,54.73,180.20,110310,,,A*4D
$GPRMC,160358.000,A,3243.0930,N,11700.8868,W,53.34,178.80,110310,,,A*45
$GPRMC,160401.000,A,3243.0480,N,11700.8857,W,53.93,178.70,110310,,,A*46
$GPRMC,160404.000,A,3243.0002,N,11700.8850,W,55.32,178.60,110310,,,A*46
$GPRMC,160407.000,A,3242.9520,N,11700.8816,W,56.61,177.80,110310,,,A*4E
$GPRMC,160410.000,A,3242.8965,N,11700.8757,W,59.09,174.40,110310,,,A*40
$GPRMC,160413.000,A,3242.8387,N,11700.8574,W,63.25,169.60,110310,,,A*4F
$GPRMC,160416.000,A,3242.7849,N,11700.8417,W,64.14,166.30,110310,,,A*47
$GPRMC,160419.000,A,3242.7279,N,11700.8226,W,67.12,164.10,110310,,,A*40
$GPRMC,160422.000,A,3242.6664,N,11700.8094,W,69.30,166.10,110310,,,A*46
$GPRMC,160425.000,A,3242.6216,N,11700.7991,W,63.55,166.20,110310,,,A*49
$GPRMC,160428.000,A,3242.5734,N,11700.7764,W,62.95,163.10,110310,,,A*4D
$GPRMC,160431.000,A,3242.5231,N,11700.7559,W,63.55,162.50,110310,,,A*41
$GPRMC,160434.000,A,3242.4686,N,11700.7359,W,64.84,162.20,110310,,,A*47
$GPRMC,160437.000,A,3242.4105,N,11700.7137,W,67.12,161.90,110310,,,A*46
$GPRMC,160440.000,A,3242.3550,N,11700.6934,W,67.71,162.50,110310,,,A*45
$GPRMC,160443.000,A,3242.3024,N,11700.6756,W,66.13,164.60,110310,,,A*4A
$GPRMC,160446.000,A,3242.2641,N,11700.6557,W,61.96,166.10,110310,,,A*47
$GPRMC,160449.000,A,3242.2148,N,11700.6477,W,61.17,168.20,110310,,,A*41
$GPRMC,160452.000,A,3242.1684,N,11700.6520,W,58.49,173.80,110310,,,A*4D
$GPRMC,160455.000,A,3242.1187,N,11700.6543,W,58.69,177.10,110310,,,A*44
$GPRMC,160458.000,A,3242.0645,N,11700.6634,W,61.57,182.30,110310,,,A*4D
$GPRMC,160501.000,A,3242.0174,N,11700.6814,W,59.29,186.90,110310,,,A*45
$GPRMC,160504.000,A,3241.9599,N,11700.7006,W,62.56,190.50,110310,,,A*4C
$GPRMC,160505.000,A,3241.9436,N,11700.7063,W,62.56,190.60,110310,,,A*49
$GPRMC,160510.000,A,3241.8531,N,11700.7573,W,65.83,197.50,110310,,,A*45
$GPRMC,160512.000,A,3241.8202,N,11700.7739,W,65.14,198.60,110310,,,A*4E
$GPRMC,160516.000,A,3241.7336,N,11700.8235,W,71.48,202.30,110310,,,A*4C
$GPRMC,160518.000,A,3241.6973,N,11700.8416,W,71.28,202.00,110310,,,A*4A
$GPRMC,160531.000,A,3241.5821,N,11700.9464,W,0.00,00.00,110310,,,A*4C
$GPRMC,160555.000,A,3241.2982,N,11701.2487,W,40.75,224.20,110310,,,A*46
$GPRMC,160558.000,A,3241.2662,N,11701.2860,W,49.97,225.20,110310,,,A*4B
$GPRMC,160601.000,A,3241.2285,N,11701.3259,W,54.23,226.40,110310,,,A*4E
$GPRMC,160607.000,A,3241.1662,N,11701.4121,W,45.51,230.90,110310,,,A*42
$GPRMC,160610.000,A,3241.1371,N,11701.4669,W,52.05,231.00,110310,,,A*47
$GPRMC,160613.000,A,3241.1109,N,11701.5155,W,54.43,230.50,110310,,,A*40
$GPRMC,160619.000,A,3241.0628,N,11701.5720,W,0.00,00.00,110310,,,A*49
$GPRMC,160625.000,A,3240.9772,N,11701.6720,W,39.56,227.80,110310,,,A*45
$GPRMC,160628.000,A,3240.9430,N,11701.7181,W,47.88,227.90,110310,,,A*4A
$GPRMC,160640.000,A,3240.8394,N,11701.9055,W,38.76,231.10,110310,,,A*4C
$GPRMC,160643.000,A,3240.8012,N,11701.9400,W,49.97,229.70,110310,,,A*40
$GPRMC,160646.000,A,3240.7785,N,11701.9721,W,0.00,00.00,110310,,,A*4E
$GPRMC,160649.000,A,3240.7369,N,11702.0207,W,50.96,226.20,110310,,,A*42
$GPRMC,160655.000,A,3240.6797,N,11702.1024,W,33.21,230.10,110310,,,A*44
$GPRMC,160722.000,A,3240.3301,N,11702.4225,W,48.38,224.70,110310,,,A*4A
$GPRMC,160725.000,A,3240.3029,N,11702.4450,W,0.00,00.00,110310,,,A*44
$GPRMC,160730.000,A,3240.2441,N,11702.5294,W,48.98,230.00,110310,,,A*48
$GPRMC,160738.000,A,3240.1994,N,11702.6616,W,44.61,238.10,110310,,,A*48
$GPRMC,160741.000,A,3240.1837,N,11702.6996,W,0.00,00.00,110310,,,A*46
$GPRMC,160817.000,A,3239.9021,N,11703.2856,W,41.74,249.20,110310,,,A*40
$GPRMC,160909.000,A,3239.5967,N,11704.1193,W,0.00,00.00,110310,,,A*46
