NMEA Sentence Code,UTC Time,Status,Latitude,Latitude Direction,Longitude,Longitude Direction,Speed (knots),Track Angle (degrees true),Date,MagneticVariation,Magnetic Variation Direction,[FAA Mode]-Optional,Checksum
$GPRMC,173243.000,A,3256.9198,N,11715.1004,W,30.13,91.05,311210,,,A*7D
$GPRMC,173246.000,A,3256.9185,N,11715.0691,W,30.62,90.70,311210,,,A*7A
$GPRMC,173249.000,A,3256.9179,N,11715.0373,W,32.56,91.41,311210,,,A*79
$GPRMC,173252.000,A,3256.9169,N,11715.0051,W,32.07,93.16,311210,,,A*75
$GPRMC,173255.000,A,3256.9175,N,11714.9735,W,32.07,91.05,311210,,,A*72
$GPRMC,173258.000,A,3256.9166,N,11714.9394,W,32.07,91.41,311210,,,A*72
$GPRMC,173301.000,A,3256.9169,N,11714.9095,W,30.13,91.05,311210,,,A*75
$GPRMC,173304.000,A,3256.9179,N,11714.8834,W,27.70,90.70,311210,,,A*73
$GPRMC,173307.000,A,3256.9179,N,11714.8622,W,20.41,90.70,311210,,,A*7C
$GPRMC,173310.000,A,3256.9172,N,11714.8522,W,9.72,92.11,311210,,,A*4C
$GPRMC,173316.000,A,3256.9182,N,11714.8493,W,6.80,80.86,311210,,,A*41
$GPRMC,173319.000,A,3256.9198,N,11714.8364,W,12.64,74.88,311210,,,A*70
$GPRMC,173322.000,A,3256.9227,N,11714.8155,W,21.38,78.75,311210,,,A*78
$GPRMC,173325.000,A,3256.9282,N,11714.7911,W,24.79,74.88,311210,,,A*79
$GPRMC,173328.000,A,3256.9359,N,11714.7663,W,26.73,68.91,311210,,,A*74
$GPRMC,173331.000,A,3256.9443,N,11714.7412,W,27.70,68.91,311210,,,A*76
$GPRMC,173334.000,A,3256.9529,N,11714.7180,W,25.27,65.04,311210,,,A*71
$GPRMC,173336.000,A,3256.9578,N,11714.7061,W,20.90,64.34,311210,,,A*72
$GPRMC,173340.000,A,3256.9584,N,11714.6935,W,7.29,97.73,311210,,,A*41
$GPRMC,173343.000,A,3256.9533,N,11714.6797,W,14.09,117.42,311210,,,A*43
$GPRMC,173346.000,A,3256.9433,N,11714.6652,W,17.98,130.08,311210,,,A*4F
$GPRMC,173349.000,A,3256.9272,N,11714.6485,W,25.76,142.73,311210,,,A*43
$GPRMC,173352.000,A,3256.9056,N,11714.6372,W,27.70,156.80,311210,,,A*4F
$GPRMC,173355.000,A,3256.8796,N,11714.6295,W,29.65,164.53,311210,,,A*4F
$GPRMC,173358.000,A,3256.8528,N,11714.6205,W,32.56,164.53,311210,,,A*46
$GPRMC,173401.000,A,3256.8232,N,11714.6108,W,36.45,164.53,311210,,,A*49
$GPRMC,173404.000,A,3256.7914,N,11714.5999,W,39.85,164.53,311210,,,A*4C
$GPRMC,173407.000,A,3256.7563,N,11714.5889,W,42.77,166.64,311210,,,A*44
$GPRMC,173410.000,A,3256.7202,N,11714.5796,W,44.71,168.40,311210,,,A*4B
$GPRMC,173413.000,A,3256.6803,N,11714.5709,W,47.14,169.10,311210,,,A*40
$GPRMC,173416.000,A,3256.6401,N,11714.5603,W,49.57,168.40,311210,,,A*4D
$GPRMC,173419.000,A,3256.5986,N,11714.5516,W,50.54,170.86,311210,,,A*4C
$GPRMC,173422.000,A,3256.5532,N,11714.5432,W,53.46,171.21,311210,,,A*4C
$GPRMC,173425.000,A,3256.5081,N,11714.5368,W,53.95,171.56,311210,,,A*40
$GPRMC,173428.000,A,3256.4631,N,11714.5284,W,53.94,170.86,311210,,,A*4F
$GPRMC,173431.000,A,3256.4193,N,11714.5207,W,53.94,170.16,311210,,,A*4A
$GPRMC,173434.000,A,3256.3765,N,11714.5142,W,50.54,172.62,311210,,,A*4B
$GPRMC,173437.000,A,3256.3343,N,11714.5078,W,51.51,172.27,311210,,,A*45
$GPRMC,173440.000,A,3256.2938,N,11714.5043,W,50.06,174.38,311210,,,A*41
$GPRMC,173443.000,A,3256.2522,N,11714.5001,W,50.06,175.78,311210,,,A*46
$GPRMC,173446.000,A,3256.2088,N,11714.4949,W,51.51,174.38,311210,,,A*44
$GPRMC,173449.000,A,3256.1641,N,11714.4920,W,52.49,176.13,311210,,,A*45
$GPRMC,173452.000,A,3256.1196,N,11714.4911,W,52.97,176.84,311210,,,A*4D
$GPRMC,173455.000,A,3256.0736,N,11714.4891,W,54.92,176.48,311210,,,A*4D
$GPRMC,173458.000,A,3256.0263,N,11714.4827,W,55.89,174.73,311210,,,A*49
$GPRMC,173501.000,A,3255.9790,N,11714.4795,W,55.90,175.78,311210,,,A*43
$GPRMC,173504.000,A,3255.9326,N,11714.4759,W,54.92,174.73,311210,,,A*46
$GPRMC,173507.000,A,3255.8882,N,11714.4705,W,54.43,173.67,311210,,,A*46
$GPRMC,173510.000,A,3255.8406,N,11714.4599,W,56.37,170.16,311210,,,A*43
$GPRMC,173513.000,A,3255.7949,N,11714.4515,W,54.92,169.80,311210,,,A*47
$GPRMC,173516.000,A,3255.7482,N,11714.4418,W,56.37,168.40,311210,,,A*44
$GPRMC,173519.000,A,3255.7028,N,11714.4293,W,55.89,166.29,311210,,,A*4D
$GPRMC,173522.000,A,3255.6574,N,11714.4167,W,55.90,164.88,311210,,,A*41
$GPRMC,173525.000,A,3255.6121,N,11714.4019,W,56.37,163.83,311210,,,A*48
$GPRMC,173528.000,A,3255.5657,N,11714.3871,W,56.86,164.18,311210,,,A*4E
$GPRMC,173531.000,A,3255.5210,N,11714.3726,W,56.37,163.83,311210,,,A*43
$GPRMC,173534.000,A,3255.4766,N,11714.3581,W,54.92,164.53,311210,,,A*4B
$GPRMC,173537.000,A,3255.4321,N,11714.3430,W,55.40,164.18,311210,,,A*45
$GPRMC,173540.000,A,3255.3868,N,11714.3260,W,56.37,161.37,311210,,,A*4C
$GPRMC,173543.000,A,3255.3430,N,11714.3076,W,55.89,158.91,311210,,,A*4B
$GPRMC,173546.000,A,3255.3034,N,11714.2854,W,53.46,155.04,311210,,,A*43
$GPRMC,173549.000,A,3255.2638,N,11714.2606,W,54.92,151.88,311210,,,A*40
$GPRMC,173552.000,A,3255.2223,N,11714.2313,W,54.43,149.06,311210,,,A*46
$GPRMC,173555.000,A,3255.1859,N,11714.2014,W,53.49,145.20,311210,,,A*44
$GPRMC,173558.000,A,3255.1479,N,11714.1695,W,54.43,142.73,311210,,,A*47
$GPRMC,173601.000,A,3255.1135,N,11714.1354,W,54.43,139.22,311210,,,A*45
$GPRMC,173604.000,A,3255.0807,N,11714.0990,W,53.94,136.41,311210,,,A*4D
$GPRMC,173607.000,A,3255.0501,N,11714.0607,W,53.95,132.89,311210,,,A*45
$GPRMC,173610.000,A,3255.0198,N,11714.0205,W,54.43,131.13,311210,,,A*4D
$GPRMC,173613.000,A,3254.9905,N,11713.9783,W,55.89,130.08,311210,,,A*43
$GPRMC,173616.000,A,3254.9616,N,11713.9359,W,55.89,129.73,311210,,,A*4C
$GPRMC,173619.000,A,3254.9287,N,11713.8959,W,55.90,135.35,311210,,,A*43
$GPRMC,173622.000,A,3254.8930,N,11713.8580,W,56.37,139.22,311210,,,A*41
$GPRMC,173625.000,A,3254.8550,N,11713.8251,W,56.37,144.49,311210,,,A*40
$GPRMC,173628.000,A,3254.8142,N,11713.7975,W,56.37,150.12,311210,,,A*43
$GPRMC,173631.000,A,3254.7713,N,11713.7736,W,56.86,153.28,311210,,,A*4F
$GPRMC,173634.000,A,3254.7279,N,11713.7476,W,58.32,152.93,311210,,,A*44
$GPRMC,173637.000,A,3254.6838,N,11713.7205,W,59.29,152.58,311210,,,A*47
$GPRMC,173640.000,A,3254.6413,N,11713.6938,W,58.80,152.23,311210,,,A*48
$GPRMC,173643.000,A,3254.5985,N,11713.6668,W,59.78,151.88,311210,,,A*44
$GPRMC,173646.000,A,3254.5541,N,11713.6388,W,59.78,151.88,311210,,,A*4E
$GPRMC,173649.000,A,3254.5103,N,11713.6127,W,58.80,153.28,311210,,,A*4A
$GPRMC,173652.000,A,3254.4659,N,11713.5870,W,58.80,153.63,311210,,,A*4E
$GPRMC,173655.000,A,3254.4247,N,11713.5622,W,56.86,154.69,311210,,,A*4E
$GPRMC,173658.000,A,3254.3825,N,11713.5393,W,56.38,155.74,311210,,,A*4D
$GPRMC,173701.000,A,3254.3397,N,11713.5161,W,56.37,155.74,311210,,,A*42
$GPRMC,173704.000,A,3254.2959,N,11713.4975,W,54.92,161.02,311210,,,A*49
$GPRMC,173707.000,A,3254.2512,N,11713.4830,W,54.92,165.59,311210,,,A*43
$GPRMC,173710.000,A,3254.2068,N,11713.4746,W,54.95,171.56,311210,,,A*4E
$GPRMC,173713.000,A,3254.1608,N,11713.4685,W,55.40,175.08,311210,,,A*46
$GPRMC,173716.000,A,3254.1141,N,11713.4692,W,56.37,180.35,311210,,,A*48
$GPRMC,173719.000,A,3254.0681,N,11713.4746,W,55.41,186.33,311210,,,A*47
$GPRMC,173722.000,A,3254.0217,N,11713.4849,W,54.95,191.25,311210,,,A*4D
$GPRMC,173725.000,A,3253.9760,N,11713.4984,W,56.37,194.77,311210,,,A*49
$GPRMC,173728.000,A,3253.9300,N,11713.5129,W,57.35,195.12,311210,,,A*49
$GPRMC,173731.000,A,3253.8856,N,11713.5306,W,57.35,197.23,311210,,,A*47
$GPRMC,173734.000,A,3253.8373,N,11713.5483,W,59.78,196.52,311210,,,A*44
$GPRMC,173737.000,A,3253.7900,N,11713.5647,W,59.29,195.82,311210,,,A*46
$GPRMC,173740.000,A,3253.7449,N,11713.5824,W,58.80,196.17,311210,,,A*40
$GPRMC,173743.000,A,3253.7021,N,11713.6014,W,57.35,197.23,311210,,,A*46
$GPRMC,173746.000,A,3253.6554,N,11713.6179,W,57.35,194.41,311210,,,A*48
$GPRMC,173749.000,A,3253.6091,N,11713.6304,W,55.89,193.71,311210,,,A*42
$GPRMC,173752.000,A,3253.5621,N,11713.6372,W,58.32,187.38,311210,,,A*42
$GPRMC,173755.000,A,3253.5119,N,11713.6436,W,58.80,185.98,311210,,,A*4F
$GPRMC,173758.000,A,3253.4630,N,11713.6478,W,57.83,184.57,311210,,,A*4B
$GPRMC,173801.000,A,3253.4150,N,11713.6500,W,57.35,183.87,311210,,,A*40
$GPRMC,173804.000,A,3253.3687,N,11713.6542,W,57.35,184.57,311210,,,A*43
$GPRMC,173807.000,A,3253.3191,N,11713.6594,W,59.32,185.27,311210,,,A*44
$GPRMC,173810.000,A,3253.2702,N,11713.6645,W,59.78,184.92,311210,,,A*41
$GPRMC,173813.000,A,3253.2209,N,11713.6690,W,59.29,184.57,311210,,,A*49
$GPRMC,173816.000,A,3253.1717,N,11713.6748,W,59.29,184.57,311210,,,A*41
$GPRMC,173819.000,A,3253.1237,N,11713.6806,W,58.80,184.57,311210,,,A*4E
$GPRMC,173822.000,A,3253.0732,N,11713.6871,W,59.29,185.27,311210,,,A*43
$GPRMC,173825.000,A,3253.0255,N,11713.6932,W,58.80,185.27,311210,,,A*44
$GPRMC,173828.000,A,3252.9808,N,11713.6993,W,56.86,185.98,311210,,,A*44
$GPRMC,173831.000,A,3252.9345,N,11713.7044,W,56.37,186.68,311210,,,A*4A
$GPRMC,173834.000,A,3252.8862,N,11713.7077,W,56.86,184.92,311210,,,A*4D
$GPRMC,173837.000,A,3252.8392,N,11713.7131,W,55.89,184.57,311210,,,A*4C
$GPRMC,173840.000,A,3252.7909,N,11713.7180,W,55.89,184.92,311210,,,A*48
$GPRMC,173843.000,A,3252.7475,N,11713.7215,W,54.92,183.87,311210,,,A*4A
$GPRMC,173846.000,A,3252.6992,N,11713.7270,W,55.89,184.92,311210,,,A*41
$GPRMC,173849.000,A,3252.6528,N,11713.7324,W,54.43,185.62,311210,,,A*4A
$GPRMC,173852.000,A,3252.6065,N,11713.7360,W,54.92,184.92,311210,,,A*4E
$GPRMC,173855.000,A,3252.5617,N,11713.7395,W,55.41,184.92,311210,,,A*4C
$GPRMC,173858.000,A,3252.5160,N,11713.7443,W,55.40,184.57,311210,,,A*42
$GPRMC,173901.000,A,3252.4710,N,11713.7472,W,55.89,183.87,311210,,,A*42
$GPRMC,173904.000,A,3252.4262,N,11713.7524,W,54.92,184.92,311210,,,A*4D
$GPRMC,173907.000,A,3252.3825,N,11713.7566,W,53.94,185.27,311210,,,A*48
$GPRMC,173910.000,A,3252.3342,N,11713.7604,W,56.37,184.92,311210,,,A*40
$GPRMC,173913.000,A,3252.2869,N,11713.7643,W,56.37,184.57,311210,,,A*4A
$GPRMC,173916.000,A,3252.2412,N,11713.7704,W,56.37,185.62,311210,,,A*4A
$GPRMC,173919.000,A,3252.1922,N,11713.7746,W,57.35,183.16,311210,,,A*48
$GPRMC,173922.000,A,3252.1440,N,11713.7810,W,56.37,185.98,311210,,,A*46
$GPRMC,173925.000,A,3252.0973,N,11713.7836,W,56.86,183.52,311210,,,A*43
$GPRMC,173928.000,A,3252.0509,N,11713.7884,W,56.86,185.27,311210,,,A*42
$GPRMC,173931.000,A,3252.0043,N,11713.7939,W,56.86,184.57,311210,,,A*40
$GPRMC,173934.000,A,3251.9560,N,11713.7978,W,57.83,184.22,311210,,,A*48
$GPRMC,173937.000,A,3251.9090,N,11713.8023,W,57.35,184.92,311210,,,A*4F
$GPRMC,173940.000,A,3251.8607,N,11713.8068,W,58.32,184.22,311210,,,A*4A
$GPRMC,173943.000,A,3251.8115,N,11713.8116,W,57.83,184.57,311210,,,A*42
$GPRMC,173946.000,A,3251.7651,N,11713.8161,W,56.86,184.22,311210,,,A*49
$GPRMC,173949.000,A,3251.7201,N,11713.8210,W,55.40,184.22,311210,,,A*4B
$GPRMC,173952.000,A,3251.6750,N,11713.8255,W,54.92,184.57,311210,,,A*4C
$GPRMC,173955.000,A,3251.6287,N,11713.8303,W,56.37,184.57,311210,,,A*4B
$GPRMC,173958.000,A,3251.5833,N,11713.8345,W,56.37,184.92,311210,,,A*4B
$GPRMC,174001.000,A,3251.5363,N,11713.8387,W,57.35,184.57,311210,,,A*43
$GPRMC,174004.000,A,3251.4880,N,11713.8438,W,57.35,184.92,311210,,,A*4B
$GPRMC,174007.000,A,3251.4407,N,11713.8496,W,56.86,185.98,311210,,,A*4D
$GPRMC,174010.000,A,3251.3953,N,11713.8580,W,56.86,189.84,311210,,,A*47
$GPRMC,174013.000,A,3251.3515,N,11713.8724,W,55.40,195.47,311210,,,A*4D
$GPRMC,174016.000,A,3251.3103,N,11713.8921,W,54.43,201.45,311210,,,A*4E
$GPRMC,174019.000,A,3251.2691,N,11713.9153,W,56.37,202.50,311210,,,A*46
$GPRMC,174022.000,A,3251.2292,N,11713.9429,W,55.40,209.53,311210,,,A*4A
$GPRMC,174025.000,A,3251.1887,N,11713.9719,W,56.37,210.94,311210,,,A*40
$GPRMC,174028.000,A,3251.1471,N,11713.9999,W,55.89,210.23,311210,,,A*44
$GPRMC,174031.000,A,3251.1072,N,11714.0276,W,55.89,210.59,311210,,,A*42
$GPRMC,174034.000,A,3251.0651,N,11714.0566,W,56.37,210.59,311210,,,A*41
$GPRMC,174037.000,A,3251.0255,N,11714.0852,W,55.89,210.94,311210,,,A*4F
$GPRMC,174040.000,A,3250.9865,N,11714.1126,W,55.89,208.83,311210,,,A*4A
$GPRMC,174043.000,A,3250.9447,N,11714.1351,W,55.40,203.55,311210,,,A*42
$GPRMC,174046.000,A,3250.9000,N,11714.1512,W,55.40,196.88,311210,,,A*4E
$GPRMC,174049.000,A,3250.8542,N,11714.1618,W,54.43,192.30,311210,,,A*4F
$GPRMC,174052.000,A,3250.8105,N,11714.1686,W,53.94,188.79,311210,,,A*4E
$GPRMC,174055.000,A,3250.7648,N,11714.1753,W,53.94,188.09,311210,,,A*46
$GPRMC,174058.000,A,3250.7197,N,11714.1830,W,53.94,188.09,311210,,,A*44
$GPRMC,174101.000,A,3250.6740,N,11714.1895,W,55.89,186.68,311210,,,A*48
$GPRMC,174104.000,A,3250.6289,N,11714.1962,W,55.89,185.62,311210,,,A*4D
$GPRMC,174107.000,A,3250.5823,N,11714.1991,W,58.32,178.95,311210,,,A*4C
$GPRMC,174110.000,A,3250.5321,N,11714.1937,W,58.80,175.08,311210,,,A*4F
$GPRMC,174113.000,A,3250.4841,N,11714.1837,W,57.83,170.51,311210,,,A*44
$GPRMC,174116.000,A,3250.4400,N,11714.1692,W,55.89,164.88,311210,,,A*40
$GPRMC,174119.000,A,3250.3937,N,11714.1473,W,58.32,159.26,311210,,,A*4B
$GPRMC,174122.000,A,3250.3492,N,11714.1264,W,55.89,159.61,311210,,,A*4F
$GPRMC,174125.000,A,3250.3068,N,11714.1061,W,55.89,159.26,311210,,,A*4D
$GPRMC,174128.000,A,3250.2627,N,11714.0852,W,56.86,158.91,311210,,,A*44
$GPRMC,174131.000,A,3250.2170,N,11714.0665,W,55.40,159.61,311210,,,A*44
$GPRMC,174134.000,A,3250.1738,N,11714.0472,W,54.92,159.26,311210,,,A*41
$GPRMC,174137.000,A,3250.1310,N,11714.0286,W,54.43,159.61,311210,,,A*4E
$GPRMC,174140.000,A,3250.0856,N,11714.0086,W,54.92,160.66,311210,,,A*45
$GPRMC,174143.000,A,3250.0406,N,11713.9935,W,55.40,165.23,311210,,,A*4A
$GPRMC,174146.000,A,3249.9958,N,11713.9854,W,54.92,170.51,311210,,,A*41
$GPRMC,174149.000,A,3249.9492,N,11713.9812,W,55.89,175.78,311210,,,A*42
$GPRMC,174152.000,A,3249.9028,N,11713.9816,W,56.37,178.95,311210,,,A*41
$GPRMC,174155.000,A,3249.8565,N,11713.9819,W,55.40,179.65,311210,,,A*49
$GPRMC,174158.000,A,3249.8111,N,11713.9822,W,54.43,180.00,311210,,,A*4C
$GPRMC,174201.000,A,3249.7667,N,11713.9822,W,52.97,180.00,311210,,,A*45
$GPRMC,174204.000,A,3249.7242,N,11713.9822,W,52.49,180.00,311210,,,A*40
$GPRMC,174207.000,A,3249.6804,N,11713.9803,W,53.94,176.48,311210,,,A*4D
$GPRMC,174210.000,A,3249.6337,N,11713.9732,W,54.43,172.27,311210,,,A*4D
$GPRMC,174213.000,A,3249.5887,N,11713.9600,W,54.92,166.99,311210,,,A*41
$GPRMC,174216.000,A,3249.5433,N,11713.9442,W,57.35,162.07,311210,,,A*4E
$GPRMC,174219.000,A,3249.5011,N,11713.9239,W,55.40,158.20,311210,,,A*43
$GPRMC,174222.000,A,3249.4574,N,11713.8969,W,56.86,152.58,311210,,,A*4F
$GPRMC,174225.000,A,3249.4168,N,11713.8644,W,57.83,146.25,311210,,,A*4A
$GPRMC,174228.000,A,3249.3801,N,11713.8267,W,57.83,140.98,311210,,,A*43
$GPRMC,174231.000,A,3249.3437,N,11713.7881,W,56.86,138.87,311210,,,A*4A
$GPRMC,174234.000,A,3249.3080,N,11713.7505,W,55.89,138.87,311210,,,A*4A
$GPRMC,174237.000,A,3249.2726,N,11713.7154,W,55.89,139.22,311210,,,A*4D
$GPRMC,174240.000,A,3249.2385,N,11713.6793,W,55.40,138.52,311210,,,A*4F
$GPRMC,174243.000,A,3249.2044,N,11713.6446,W,53.46,138.87,311210,,,A*41
$GPRMC,174246.000,A,3249.1699,N,11713.6088,W,53.94,138.87,311210,,,A*48
$GPRMC,174249.000,A,3249.1381,N,11713.5754,W,51.03,139.22,311210,,,A*4C
$GPRMC,174252.000,A,3249.1046,N,11713.5396,W,53.46,138.87,311210,,,A*49
$GPRMC,174255.000,A,3249.0695,N,11713.5020,W,54.92,138.87,311210,,,A*47
$GPRMC,174258.000,A,3249.0325,N,11713.4663,W,55.89,140.62,311210,,,A*4B
$GPRMC,174301.000,A,3248.9974,N,11713.4331,W,55.40,142.03,311210,,,A*42
$GPRMC,174304.000,A,3248.9614,N,11713.4012,W,54.92,143.09,311210,,,A*49
$GPRMC,174307.000,A,3248.9250,N,11713.3687,W,54.43,143.79,311210,,,A*48
$GPRMC,174310.000,A,3248.8893,N,11713.3372,W,53.46,143.79,311210,,,A*47
$GPRMC,174313.000,A,3248.8522,N,11713.3079,W,53.94,146.25,311210,,,A*48
$GPRMC,174316.000,A,3248.8130,N,11713.2825,W,54.43,149.06,311210,,,A*49
$GPRMC,174319.000,A,3248.7737,N,11713.2545,W,54.43,149.06,311210,,,A*43
$GPRMC,174322.000,A,3248.7341,N,11713.2245,W,55.40,147.66,311210,,,A*43
$GPRMC,174325.000,A,3248.6961,N,11713.1949,W,54.92,146.60,311210,,,A*40
$GPRMC,174328.000,A,3248.6585,N,11713.1653,W,54.92,146.25,311210,,,A*4E
$GPRMC,174331.000,A,3248.6211,N,11713.1341,W,53.94,146.25,311210,,,A*4B
$GPRMC,174334.000,A,3248.5822,N,11713.1035,W,53.94,146.25,311210,,,A*47
$GPRMC,174337.000,A,3248.5436,N,11713.0739,W,54.92,145.90,311210,,,A*4B
$GPRMC,174340.000,A,3248.5053,N,11713.0433,W,55.40,145.55,311210,,,A*42
$GPRMC,174343.000,A,3248.4670,N,11713.0115,W,55.89,144.84,311210,,,A*4E
$GPRMC,174346.000,A,3248.4293,N,11712.9793,W,55.40,144.84,311210,,,A*47
$GPRMC,174349.000,A,3248.3920,N,11712.9481,W,53.94,144.84,311210,,,A*43
$GPRMC,174352.000,A,3248.3550,N,11712.9175,W,54.92,144.84,311210,,,A*4D
$GPRMC,174355.000,A,3248.3163,N,11712.8853,W,55.89,146.25,311210,,,A*40
$GPRMC,174358.000,A,3248.2768,N,11712.8550,W,55.40,147.66,311210,,,A*4C
$GPRMC,174401.000,A,3248.2378,N,11712.8270,W,54.92,149.41,311210,,,A*42
$GPRMC,174404.000,A,3248.1985,N,11712.8006,W,54.92,150.47,311210,,,A*41
$GPRMC,174407.000,A,3248.1577,N,11712.7749,W,54.92,151.88,311210,,,A*42
$GPRMC,174410.000,A,3248.1168,N,11712.7504,W,54.43,153.63,311210,,,A*4E
$GPRMC,174413.000,A,3248.0740,N,11712.7266,W,55.90,155.39,311210,,,A*45
$GPRMC,174416.000,A,3248.0318,N,11712.7050,W,55.89,156.09,311210,,,A*46
$GPRMC,174419.000,A,3247.9890,N,11712.6825,W,55.90,156.09,311210,,,A*47
$GPRMC,174422.000,A,3247.9459,N,11712.6600,W,55.90,155.74,311210,,,A*46
$GPRMC,174425.000,A,3247.9040,N,11712.6368,W,55.40,154.34,311210,,,A*4E
$GPRMC,174428.000,A,3247.8619,N,11712.6114,W,55.41,152.93,311210,,,A*4B
$GPRMC,174431.000,A,3247.8210,N,11712.5872,W,54.44,152.93,311210,,,A*40
$GPRMC,174434.000,A,3247.7801,N,11712.5625,W,54.43,153.28,311210,,,A*4A
$GPRMC,174437.000,A,3247.7405,N,11712.5380,W,53.46,152.93,311210,,,A*48
$GPRMC,174440.000,A,3247.7006,N,11712.5158,W,53.94,155.39,311210,,,A*40
$GPRMC,174443.000,A,3247.6584,N,11712.4978,W,53.46,159.61,311210,,,A*48
$GPRMC,174446.000,A,3247.6163,N,11712.4807,W,53.46,162.42,311210,,,A*40
$GPRMC,174449.000,A,3247.5744,N,11712.4665,W,52.49,164.53,311210,,,A*4D
$GPRMC,174452.000,A,3247.5316,N,11712.4537,W,52.49,167.34,311210,,,A*42
$GPRMC,174455.000,A,3247.4879,N,11712.4437,W,52.97,169.80,311210,,,A*45
$GPRMC,174458.000,A,3247.4428,N,11712.4360,W,53.94,172.27,311210,,,A*40
$GPRMC,174501.000,A,3247.3968,N,11712.4308,W,55.40,176.13,311210,,,A*41
$GPRMC,174504.000,A,3247.3507,N,11712.4289,W,56.37,177.89,311210,,,A*48
$GPRMC,174507.000,A,3247.3044,N,11712.4302,W,55.40,181.05,311210,,,A*45
$GPRMC,174510.000,A,3247.2564,N,11712.4340,W,56.37,183.87,311210,,,A*48
$GPRMC,174513.000,A,3247.2104,N,11712.4405,W,55.89,187.38,311210,,,A*49
$GPRMC,174516.000,A,3247.1644,N,11712.4485,W,56.86,188.79,311210,,,A*42
$GPRMC,174519.000,A,3247.1171,N,11712.4575,W,57.35,188.44,311210,,,A*45
$GPRMC,174522.000,A,3247.0691,N,11712.4665,W,57.35,188.44,311210,,,A*47
$GPRMC,174525.000,A,3247.0218,N,11712.4749,W,57.35,188.44,311210,,,A*4A
$GPRMC,174528.000,A,3246.9751,N,11712.4830,W,57.35,188.44,311210,,,A*46
$GPRMC,174531.000,A,3246.9285,N,11712.4920,W,56.86,189.49,311210,,,A*47
$GPRMC,174534.000,A,3246.8795,N,11712.5000,W,57.83,188.79,311210,,,A*4B
$GPRMC,174537.000,A,3246.8316,N,11712.5094,W,57.35,189.84,311210,,,A*44
$GPRMC,174540.000,A,3246.7859,N,11712.5184,W,56.37,189.14,311210,,,A*41
$GPRMC,174543.000,A,3246.7398,N,11712.5258,W,55.40,186.68,311210,,,A*41
$GPRMC,174546.000,A,3246.6954,N,11712.5280,W,52.00,181.76,311210,,,A*41
$GPRMC,174549.000,A,3246.6517,N,11712.5248,W,52.97,175.78,311210,,,A*4A
$GPRMC,174552.000,A,3246.6111,N,11712.5161,W,52.00,170.51,311210,,,A*4A
$GPRMC,174555.000,A,3246.5693,N,11712.5042,W,51.51,168.05,311210,,,A*4C
$GPRMC,174558.000,A,3246.5264,N,11712.4923,W,52.49,167.70,311210,,,A*45
$GPRMC,174601.000,A,3246.4843,N,11712.4813,W,52.00,167.70,311210,,,A*4B
$GPRMC,174604.000,A,3246.4421,N,11712.4714,W,52.49,168.05,311210,,,A*4E
$GPRMC,174607.000,A,3246.3990,N,11712.4607,W,52.98,168.05,311210,,,A*42
$GPRMC,174610.000,A,3246.3559,N,11712.4504,W,52.49,167.34,311210,,,A*4C
$GPRMC,174613.000,A,3246.3137,N,11712.4369,W,52.00,166.64,311210,,,A*47
$GPRMC,174616.000,A,3246.2725,N,11712.4273,W,52.00,167.70,311210,,,A*48
$GPRMC,174619.000,A,3246.2287,N,11712.4163,W,52.49,168.05,311210,,,A*48
$GPRMC,174622.000,A,3246.1833,N,11712.4031,W,55.40,165.94,311210,,,A*4B
$GPRMC,174625.000,A,3246.1402,N,11712.3925,W,52.97,168.40,311210,,,A*40
$GPRMC,174628.000,A,3246.1006,N,11712.3845,W,50.54,168.75,311210,,,A*41
$GPRMC,174631.000,A,3246.0597,N,11712.3738,W,50.54,167.70,311210,,,A*4A
$GPRMC,174634.000,A,3246.0198,N,11712.3652,W,49.57,168.05,311210,,,A*4F
$GPRMC,174637.000,A,3245.9802,N,11712.3558,W,47.63,168.75,311210,,,A*4B
$GPRMC,174640.000,A,3245.9397,N,11712.3478,W,49.08,168.75,311210,,,A*4C
$GPRMC,174643.000,A,3245.8988,N,11712.3378,W,47.63,168.05,311210,,,A*49
$GPRMC,174646.000,A,3245.8605,N,11712.3281,W,45.69,168.05,311210,,,A*49
$GPRMC,174649.000,A,3245.8245,N,11712.3198,W,44.22,170.51,311210,,,A*4B
$GPRMC,174652.000,A,3245.7891,N,11712.3133,W,42.77,171.56,311210,,,A*4C
$GPRMC,174655.000,A,3245.7556,N,11712.3095,W,40.82,171.91,311210,,,A*43
$GPRMC,174658.000,A,3245.7224,N,11712.3088,W,39.36,178.24,311210,,,A*46
$GPRMC,174701.000,A,3245.6906,N,11712.3124,W,38.88,184.92,311210,,,A*4C
$GPRMC,174704.000,A,3245.6581,N,11712.3162,W,39.36,185.62,311210,,,A*42
$GPRMC,174707.000,A,3245.6262,N,11712.3214,W,38.88,187.38,311210,,,A*40
$GPRMC,174710.000,A,3245.5937,N,11712.3259,W,38.39,186.68,311210,,,A*49
$GPRMC,174713.000,A,3245.5605,N,11712.3310,W,38.88,188.09,311210,,,A*4B
$GPRMC,174716.000,A,3245.5309,N,11712.3352,W,35.98,187.03,311210,,,A*48
$GPRMC,174719.000,A,3245.5020,N,11712.3365,W,34.99,183.16,311210,,,A*4B
$GPRMC,174722.000,A,3245.4743,N,11712.3320,W,33.53,169.80,311210,,,A*4B
$GPRMC,174725.000,A,3245.4456,N,11712.3185,W,35.96,160.31,311210,,,A*4A
$GPRMC,174728.000,A,3245.4192,N,11712.3075,W,33.05,161.02,311210,,,A*49
$GPRMC,174731.000,A,3245.3938,N,11712.2998,W,32.07,165.94,311210,,,A*4D
$GPRMC,174734.000,A,3245.3703,N,11712.2982,W,28.67,177.19,311210,,,A*4E
$GPRMC,174737.000,A,3245.3468,N,11712.2998,W,28.19,184.22,311210,,,A*45
$GPRMC,174740.000,A,3245.3246,N,11712.3021,W,27.70,185.27,311210,,,A*41
$GPRMC,174743.000,A,3245.3027,N,11712.3050,W,25.27,186.68,311210,,,A*49
$GPRMC,174746.000,A,3245.2886,N,11712.3082,W,18.47,183.87,311210,,,A*4D
$GPRMC,174749.000,A,3245.2734,N,11712.3088,W,18.95,181.05,311210,,,A*49
$GPRMC,174752.000,A,3245.2577,N,11712.3098,W,20.41,184.57,311210,,,A*47
$GPRMC,174755.000,A,3245.2374,N,11712.3101,W,23.33,181.41,311210,,,A*40
$GPRMC,174758.000,A,3245.2171,N,11712.3092,W,24.30,178.95,311210,,,A*4A
$GPRMC,174801.000,A,3245.1978,N,11712.3085,W,22.36,177.89,311210,,,A*4F
$GPRMC,174804.000,A,3245.1791,N,11712.3050,W,21.87,174.73,311210,,,A*44
$GPRMC,174807.000,A,3245.1643,N,11712.3027,W,18.47,172.62,311210,,,A*49
$GPRMC,174810.000,A,3245.1476,N,11712.2995,W,18.47,172.97,311210,,,A*40
$GPRMC,174813.000,A,3245.1347,N,11712.2982,W,15.07,174.02,311210,,,A*43
$GPRMC,174816.000,A,3245.1234,N,11712.2943,W,11.66,169.10,311210,,,A*42
$GPRMC,174819.000,A,3245.1196,N,11712.2947,W,6.32,170.16,311210,,,A*7B
$GPRMC,174837.000,A,3245.1147,N,11712.2895,W,4.86,180.00,311210,,,A*70
$GPRMC,174840.000,A,3245.1051,N,11712.2898,W,11.18,181.76,311210,,,A*48
$GPRMC,174843.000,A,3245.0913,N,11712.2953,W,16.52,194.77,311210,,,A*4F
$GPRMC,174846.000,A,3245.0752,N,11712.3027,W,19.93,196.17,311210,,,A*4C
$GPRMC,174849.000,A,3245.0581,N,11712.3137,W,22.84,200.74,311210,,,A*48
$GPRMC,174852.000,A,3245.0414,N,11712.3256,W,22.84,209.88,311210,,,A*41
$GPRMC,174855.000,A,3245.0249,N,11712.3391,W,23.33,211.29,311210,,,A*4D
$GPRMC,174858.000,A,3245.0069,N,11712.3532,W,25.76,214.80,311210,,,A*4E
$GPRMC,174901.000,A,3244.9883,N,11712.3684,W,27.22,211.29,311210,,,A*4C
$GPRMC,174904.000,A,3244.9689,N,11712.3838,W,28.67,210.94,311210,,,A*4D
$GPRMC,174907.000,A,3244.9516,N,11712.4015,W,28.19,216.56,311210,,,A*4A
$GPRMC,174910.000,A,3244.9290,N,11712.4118,W,28.67,214.10,311210,,,A*40
$GPRMC,174913.000,A,3244.9123,N,11712.4366,W,29.65,223.24,311210,,,A*43
$GPRMC,174916.000,A,3244.8962,N,11712.4611,W,30.13,226.76,311210,,,A*44
$GPRMC,174919.000,A,3244.8775,N,11712.4859,W,31.10,228.87,311210,,,A*43
$GPRMC,174922.000,A,3244.8630,N,11712.5132,W,32.56,235.55,311210,,,A*4C
$GPRMC,174925.000,A,3244.8476,N,11712.5402,W,32.56,236.25,311210,,,A*49
$GPRMC,174928.000,A,3244.8315,N,11712.5654,W,32.56,234.49,311210,,,A*4F
$GPRMC,174931.000,A,3244.8157,N,11712.5924,W,32.56,234.49,311210,,,A*4B
$GPRMC,174934.000,A,3244.8019,N,11712.6214,W,34.02,238.36,311210,,,A*4D
$GPRMC,174937.000,A,3244.7829,N,11712.6468,W,34.50,230.98,311210,,,A*4C
$GPRMC,174940.000,A,3244.7633,N,11712.6709,W,34.02,229.22,311210,,,A*43
$GPRMC,174943.000,A,3244.7407,N,11712.6935,W,34.50,221.84,311210,,,A*47
$GPRMC,174946.000,A,3244.7182,N,11712.7141,W,33.05,219.02,311210,,,A*42
$GPRMC,174949.000,A,3244.6989,N,11712.7343,W,30.62,221.13,311210,,,A*46
$GPRMC,174952.000,A,3244.6806,N,11712.7511,W,26.73,217.27,311210,,,A*4E
$GPRMC,174955.000,A,3244.6699,N,11712.7588,W,15.55,217.62,311210,,,A*44
$GPRMC,174958.000,A,3244.6703,N,11712.7656,W,8.26,274.22,311210,,,A*72
$GPRMC,175001.000,A,3244.6748,N,11712.7768,W,13.61,294.96,311210,,,A*4D
$GPRMC,175004.000,A,3244.6844,N,11712.7916,W,18.95,302.34,311210,,,A*4A
$GPRMC,175007.000,A,3244.6954,N,11712.8100,W,21.38,303.05,311210,,,A*47
$GPRMC,175010.000,A,3244.7063,N,11712.8299,W,22.84,302.70,311210,,,A*49
$GPRMC,175013.000,A,3244.7189,N,11712.8492,W,24.30,305.86,311210,,,A*45
$GPRMC,175016.000,A,3244.7308,N,11712.8682,W,23.33,304.80,311210,,,A*4B
$GPRMC,175019.000,A,3244.7424,N,11712.8863,W,22.84,306.56,311210,,,A*48
$GPRMC,175022.000,A,3244.7478,N,11712.9075,W,21.38,284.77,311210,,,A*4B
$GPRMC,175025.000,A,3244.7430,N,11712.9281,W,21.87,255.23,311210,,,A*40
$GPRMC,175028.000,A,3244.7301,N,11712.9455,W,22.84,233.09,311210,,,A*4F
$GPRMC,175031.000,A,3244.7108,N,11712.9600,W,24.79,214.10,311210,,,A*47
$GPRMC,175034.000,A,3244.6886,N,11712.9715,W,26.73,207.42,311210,,,A*44
$GPRMC,175037.000,A,3244.6719,N,11712.9896,W,26.24,222.89,311210,,,A*48
$GPRMC,175040.000,A,3244.6587,N,11713.0111,W,26.73,231.68,311210,,,A*4C
$GPRMC,175043.000,A,3244.6509,N,11713.0359,W,26.73,248.20,311210,,,A*45
$GPRMC,175046.000,A,3244.6468,N,11713.0626,W,26.73,254.88,311210,,,A*44
$GPRMC,175049.000,A,3244.6423,N,11713.0894,W,27.22,254.53,311210,,,A*40
$GPRMC,175052.000,A,3244.6384,N,11713.1151,W,27.70,258.05,311210,,,A*49
$GPRMC,175055.000,A,3244.6326,N,11713.1392,W,25.76,256.29,311210,,,A*4F
$GPRMC,175058.000,A,3244.6294,N,11713.1666,W,26.73,259.45,311210,,,A*47
$GPRMC,175101.000,A,3244.6229,N,11713.1923,W,26.24,255.59,311210,,,A*41
$GPRMC,175104.000,A,3244.6188,N,11713.2168,W,25.76,258.75,311210,,,A*4F
$GPRMC,175107.000,A,3244.6200,N,11713.2387,W,21.38,275.98,311210,,,A*4E
$GPRMC,175110.000,A,3244.6252,N,11713.2596,W,21.38,283.36,311210,,,A*44
$GPRMC,175113.000,A,3244.6252,N,11713.2825,W,23.33,270.00,311210,,,A*42
$GPRMC,175116.000,A,3244.6213,N,11713.3056,W,23.81,258.40,311210,,,A*48
$GPRMC,175119.000,A,3244.6139,N,11713.3288,W,24.79,250.66,311210,,,A*41
$GPRMC,175122.000,A,3244.6001,N,11713.3485,W,24.30,234.49,311210,,,A*4A
$GPRMC,175125.000,A,3244.5840,N,11713.3636,W,25.27,221.13,311210,,,A*45
$GPRMC,175128.000,A,3244.5653,N,11713.3784,W,26.24,216.21,311210,,,A*49
$GPRMC,175131.000,A,3244.5476,N,11713.3938,W,26.24,217.27,311210,,,A*4A
$GPRMC,175134.000,A,3244.5296,N,11713.4109,W,26.73,217.97,311210,,,A*43
$GPRMC,175137.000,A,3244.5145,N,11713.4263,W,24.79,219.38,311210,,,A*41
$GPRMC,175140.000,A,3244.4984,N,11713.4415,W,24.30,217.97,311210,,,A*44
$GPRMC,175143.000,A,3244.4813,N,11713.4550,W,25.27,216.21,311210,,,A*43
$GPRMC,175146.000,A,3244.4655,N,11713.4711,W,24.79,225.70,311210,,,A*43
$GPRMC,175149.000,A,3244.4562,N,11713.4923,W,24.30,236.95,311210,,,A*40
$GPRMC,175152.000,A,3244.4504,N,11713.5152,W,23.81,252.42,311210,,,A*40
$GPRMC,175155.000,A,3244.4459,N,11713.5355,W,23.35,252.42,311210,,,A*44
$GPRMC,175158.000,A,3244.4404,N,11713.5593,W,23.81,252.42,311210,,,A*42
$GPRMC,175201.000,A,3244.4337,N,11713.5837,W,25.76,251.72,311210,,,A*47
$GPRMC,175204.000,A,3244.4240,N,11713.6053,W,25.27,241.52,311210,,,A*4D
$GPRMC,175207.000,A,3244.4105,N,11713.6259,W,26.73,234.14,311210,,,A*46
$GPRMC,175210.000,A,3244.3934,N,11713.6433,W,26.24,225.35,311210,,,A*46
$GPRMC,175213.000,A,3244.3751,N,11713.6616,W,27.70,221.13,311210,,,A*4D
$GPRMC,175216.000,A,3244.3600,N,11713.6780,W,26.73,223.59,311210,,,A*4D
$GPRMC,175219.000,A,3244.3471,N,11713.6977,W,26.24,233.09,311210,,,A*46
$GPRMC,175222.000,A,3244.3355,N,11713.7202,W,27.22,237.30,311210,,,A*4E
$GPRMC,175225.000,A,3244.3275,N,11713.7450,W,27.22,244.34,311210,,,A*4B
$GPRMC,175228.000,A,3244.3181,N,11713.7701,W,27.22,242.93,311210,,,A*42
$GPRMC,175231.000,A,3244.2985,N,11713.7872,W,26.73,220.08,311210,,,A*4F
$GPRMC,175234.000,A,3244.2805,N,11713.8010,W,26.24,213.75,311210,,,A*48
$GPRMC,175237.000,A,3244.2653,N,11713.8148,W,22.36,216.21,311210,,,A*49
$GPRMC,175240.000,A,3244.2550,N,11713.8229,W,14.09,218.32,311210,,,A*48
$GPRMC,175243.000,A,3244.2509,N,11713.8271,W,7.29,216.56,311210,,,A*76
$GPRMC,175307.000,A,3244.2496,N,11713.8313,W,9.23,221.48,311210,,,A*7A
$GPRMC,175310.000,A,3244.2383,N,11713.8422,W,17.01,217.62,311210,,,A*48
$GPRMC,175313.000,A,3244.2261,N,11713.8538,W,18.95,219.73,311210,,,A*40
$GPRMC,175316.000,A,3244.2113,N,11713.8673,W,22.36,216.56,311210,,,A*47
$GPRMC,175319.000,A,3244.1916,N,11713.8818,W,27.22,210.23,311210,,,A*41
$GPRMC,175322.000,A,3244.1717,N,11713.8969,W,27.70,213.40,311210,,,A*40
$GPRMC,175325.000,A,3244.1533,N,11713.9127,W,27.70,215.51,311210,,,A*46
$GPRMC,175328.000,A,3244.1350,N,11713.9291,W,27.22,215.51,311210,,,A*41
$GPRMC,175331.000,A,3244.1176,N,11713.9474,W,25.76,216.91,311210,,,A*4E
$GPRMC,175334.000,A,3244.1009,N,11713.9626,W,25.76,218.67,311210,,,A*40
$GPRMC,175337.000,A,3244.0851,N,11713.9780,W,24.79,216.21,311210,,,A*48
$GPRMC,175340.000,A,3244.0680,N,11713.9925,W,26.24,217.27,311210,,,A*46
$GPRMC,175343.000,A,3244.0507,N,11714.0067,W,24.79,213.75,311210,,,A*41
$GPRMC,175346.000,A,3244.0346,N,11714.0202,W,24.30,215.86,311210,,,A*41
$GPRMC,175349.000,A,3244.0198,N,11714.0340,W,23.33,222.89,311210,,,A*47
$GPRMC,175352.000,A,3244.0033,N,11714.0492,W,24.79,218.32,311210,,,A*45
$GPRMC,175355.000,A,3243.9866,N,11714.0614,W,23.81,217.62,311210,,,A*42
$GPRMC,175358.000,A,3243.9721,N,11714.0765,W,22.84,222.54,311210,,,A*43
$GPRMC,175401.000,A,3243.9638,N,11714.0949,W,22.84,241.17,311210,,,A*43
$GPRMC,175404.000,A,3243.9564,N,11714.1213,W,26.73,250.66,311210,,,A*43
$GPRMC,175407.000,A,3243.9502,N,11714.1493,W,29.16,252.77,311210,,,A*40
$GPRMC,175410.000,A,3243.9438,N,11714.1766,W,29.16,253.12,311210,,,A*45
$GPRMC,175413.000,A,3243.9380,N,11714.2027,W,28.19,253.12,311210,,,A*4D
$GPRMC,175416.000,A,3243.9322,N,11714.2297,W,28.67,254.18,311210,,,A*4D
$GPRMC,175419.000,A,3243.9245,N,11714.2548,W,27.22,250.31,311210,,,A*46
$GPRMC,175422.000,A,3243.9171,N,11714.2799,W,26.73,250.31,311210,,,A*41
$GPRMC,175425.000,A,3243.9094,N,11714.3060,W,27.70,252.07,311210,,,A*49
$GPRMC,175428.000,A,3243.9036,N,11714.3324,W,27.22,253.83,311210,,,A*45
$GPRMC,175431.000,A,3243.8975,N,11714.3575,W,25.76,254.18,311210,,,A*46
$GPRMC,175434.000,A,3243.8913,N,11714.3829,W,25.76,253.83,311210,,,A*42
$GPRMC,175437.000,A,3243.8810,N,11714.4051,W,26.73,245.74,311210,,,A*4A
$GPRMC,175440.000,A,3243.8772,N,11714.4341,W,28.67,254.18,311210,,,A*42
$GPRMC,175443.000,A,3243.8720,N,11714.4631,W,30.13,254.53,311210,,,A*41
$GPRMC,175446.000,A,3243.8653,N,11714.4933,W,31.10,254.53,311210,,,A*4E
$GPRMC,175449.000,A,3243.8582,N,11714.5239,W,32.07,254.53,311210,,,A*4B
$GPRMC,175452.000,A,3243.8514,N,11714.5497,W,27.70,252.42,311210,,,A*4E
$GPRMC,175455.000,A,3243.8460,N,11714.5674,W,17.50,249.96,311210,,,A*46
$GPRMC,175458.000,A,3243.8447,N,11714.5741,W,6.80,253.12,311210,,,A*73
$GPRMC,175519.000,A,3243.8450,N,11714.5773,W,2.92,281.95,311210,,,A*77
$GPRMC,175522.000,A,3243.8450,N,11714.5876,W,9.23,264.73,311210,,,A*77
$GPRMC,175525.000,A,3243.8376,N,11714.5957,W,12.15,223.24,311210,,,A*4F
$GPRMC,175528.000,A,3243.8234,N,11714.6024,W,17.98,204.61,311210,,,A*4F
$GPRMC,175531.000,A,3243.8067,N,11714.6105,W,19.44,203.20,311210,,,A*4C
$GPRMC,175534.000,A,3243.7883,N,11714.6169,W,20.90,198.63,311210,,,A*4B
$GPRMC,175537.000,A,3243.7684,N,11714.6221,W,23.81,194.06,311210,,,A*42
$GPRMC,175540.000,A,3243.7468,N,11714.6279,W,25.76,193.71,311210,,,A*46
$GPRMC,175543.000,A,3243.7230,N,11714.6346,W,28.19,195.12,311210,,,A*44
$GPRMC,175546.000,A,3243.6973,N,11714.6417,W,30.62,193.01,311210,,,A*4E
$GPRMC,175549.000,A,3243.6728,N,11714.6481,W,30.62,191.95,311210,,,A*41
$GPRMC,175552.000,A,3243.6483,N,11714.6530,W,30.13,191.60,311210,,,A*4E
$GPRMC,175555.000,A,3243.6239,N,11714.6584,W,29.16,191.60,311210,,,A*4C
$GPRMC,175558.000,A,3243.5988,N,11714.6662,W,30.63,193.01,311210,,,A*47
$GPRMC,175601.000,A,3243.5737,N,11714.6736,W,30.15,194.41,311210,,,A*40
$GPRMC,175604.000,A,3243.5511,N,11714.6810,W,28.19,196.17,311210,,,A*4C
$GPRMC,175607.000,A,3243.5270,N,11714.6877,W,29.16,193.01,311210,,,A*42
$GPRMC,175610.000,A,3243.5038,N,11714.6935,W,28.19,191.60,311210,,,A*46
$GPRMC,175613.000,A,3243.4806,N,11714.6987,W,28.19,191.60,311210,,,A*48
$GPRMC,175616.000,A,3243.4588,N,11714.7064,W,27.70,193.36,311210,,,A*42
$GPRMC,175619.000,A,3243.4401,N,11714.7135,W,24.79,196.17,311210,,,A*44
$GPRMC,175622.000,A,3243.4192,N,11714.7193,W,25.27,194.06,311210,,,A*47
$GPRMC,175625.000,A,3243.3973,N,11714.7247,W,25.76,193.71,311210,,,A*49
$GPRMC,175628.000,A,3243.3767,N,11714.7312,W,26.24,193.01,311210,,,A*4D
$GPRMC,175631.000,A,3243.3532,N,11714.7360,W,27.70,190.90,311210,,,A*49
$GPRMC,175634.000,A,3243.3290,N,11714.7412,W,28.19,190.20,311210,,,A*4A
$GPRMC,175637.000,A,3243.3072,N,11714.7457,W,27.22,190.90,311210,,,A*4A
$GPRMC,175640.000,A,3243.2869,N,11714.7511,W,24.30,190.90,311210,,,A*4A
$GPRMC,175643.000,A,3243.2714,N,11714.7550,W,17.98,191.25,311210,,,A*44
$GPRMC,175646.000,A,3243.2660,N,11714.7566,W,8.26,189.49,311210,,,A*7E
$GPRMC,175652.000,A,3243.2618,N,11714.7592,W,5.83,199.34,311210,,,A*76
$GPRMC,175655.000,A,3243.2505,N,11714.7614,W,13.61,191.60,311210,,,A*41
$GPRMC,175658.000,A,3243.2367,N,11714.7647,W,18.47,191.95,311210,,,A*4D
$GPRMC,175701.000,A,3243.2180,N,11714.7692,W,21.87,192.30,311210,,,A*49
$GPRMC,175704.000,A,3243.1980,N,11714.7746,W,24.79,193.71,311210,,,A*4F
$GPRMC,175707.000,A,3243.1749,N,11714.7804,W,27.70,191.95,311210,,,A*4C
$GPRMC,175710.000,A,3243.1517,N,11714.7859,W,27.22,193.01,311210,,,A*43
$GPRMC,175713.000,A,3243.1256,N,11714.7923,W,30.62,190.55,311210,,,A*4E
$GPRMC,175716.000,A,3243.0999,N,11714.7991,W,31.59,191.95,311210,,,A*4F
$GPRMC,175719.000,A,3243.0761,N,11714.8078,W,30.62,196.17,311210,,,A*4C
$GPRMC,175722.000,A,3243.0500,N,11714.8162,W,31.59,195.12,311210,,,A*44
$GPRMC,175725.000,A,3243.0223,N,11714.8229,W,33.53,192.30,311210,,,A*46
$GPRMC,175728.000,A,3242.9969,N,11714.8303,W,32.07,194.41,311210,,,A*4F
$GPRMC,175731.000,A,3242.9705,N,11714.8368,W,32.56,193.01,311210,,,A*49
$GPRMC,175734.000,A,3242.9444,N,11714.8432,W,31.59,192.66,311210,,,A*4E
$GPRMC,175737.000,A,3242.9164,N,11714.8506,W,32.56,191.95,311210,,,A*4F
$GPRMC,175740.000,A,3242.8891,N,11714.8583,W,33.53,192.30,311210,,,A*48
$GPRMC,175743.000,A,3242.8610,N,11714.8648,W,33.53,192.30,311210,,,A*48
$GPRMC,175746.000,A,3242.8337,N,11714.8722,W,34.02,191.25,311210,,,A*44
$GPRMC,175749.000,A,3242.8079,N,11714.8805,W,33.05,193.36,311210,,,A*48
$GPRMC,175752.000,A,3242.7822,N,11714.8879,W,33.05,193.01,311210,,,A*44
$GPRMC,175755.000,A,3242.7564,N,11714.8931,W,32.07,193.36,311210,,,A*46
$GPRMC,175758.000,A,3242.7297,N,11714.9018,W,32.07,194.77,311210,,,A*41
$GPRMC,175801.000,A,3242.7030,N,11714.9072,W,32.07,191.25,311210,,,A*43
$GPRMC,175804.000,A,3242.6798,N,11714.9140,W,30.62,193.36,311210,,,A*43
$GPRMC,175807.000,A,3242.6531,N,11714.9204,W,31.59,193.01,311210,,,A*4F
$GPRMC,175810.000,A,3242.6264,N,11714.9272,W,32.07,192.66,311210,,,A*47
$GPRMC,175813.000,A,3242.5997,N,11714.9340,W,32.56,191.60,311210,,,A*41
$GPRMC,175816.000,A,3242.5746,N,11714.9414,W,31.59,192.30,311210,,,A*4A
$GPRMC,175819.000,A,3242.5501,N,11714.9491,W,31.10,192.66,311210,,,A*47
$GPRMC,175822.000,A,3242.5250,N,11714.9542,W,30.13,191.60,311210,,,A*44
$GPRMC,175825.000,A,3242.5044,N,11714.9597,W,26.24,192.30,311210,,,A*49
$GPRMC,175828.000,A,3242.4899,N,11714.9636,W,18.47,191.25,311210,,,A*4A
$GPRMC,175831.000,A,3242.4800,N,11714.9645,W,12.15,188.79,311210,,,A*4A
$GPRMC,175834.000,A,3242.4719,N,11714.9661,W,9.23,190.55,311210,,,A*76
$GPRMC,175837.000,A,3242.4645,N,11714.9678,W,11.18,183.87,311210,,,A*49
$GPRMC,175840.000,A,3242.4529,N,11714.9655,W,15.07,168.40,311210,,,A*4B
$GPRMC,175843.000,A,3242.4388,N,11714.9604,W,17.01,163.12,311210,,,A*49
$GPRMC,175846.000,A,3242.4249,N,11714.9546,W,18.95,163.83,311210,,,A*4F
$GPRMC,175849.000,A,3242.4082,N,11714.9510,W,19.44,168.40,311210,,,A*4F
$GPRMC,175852.000,A,3242.3914,N,11714.9494,W,19.44,173.32,311210,,,A*46
$GPRMC,175855.000,A,3242.3731,N,11714.9452,W,21.87,169.80,311210,,,A*44
$GPRMC,175858.000,A,3242.3544,N,11714.9420,W,22.84,170.86,311210,,,A*42
$GPRMC,175901.000,A,3242.3329,N,11714.9375,W,23.81,170.16,311210,,,A*48
$GPRMC,175904.000,A,3242.3126,N,11714.9340,W,24.79,170.16,311210,,,A*46
$GPRMC,175907.000,A,3242.2910,N,11714.9317,W,24.30,176.48,311210,,,A*4B
$GPRMC,175910.000,A,3242.2698,N,11714.9349,W,25.27,189.84,311210,,,A*4E
$GPRMC,175913.000,A,3242.2492,N,11714.9423,W,25.76,196.88,311210,,,A*48
$GPRMC,175916.000,A,3242.2279,N,11714.9513,W,27.22,198.98,311210,,,A*40
$GPRMC,175919.000,A,3242.2044,N,11714.9575,W,28.19,192.66,311210,,,A*4F
$GPRMC,175922.000,A,3242.1793,N,11714.9620,W,28.67,187.73,311210,,,A*43
$GPRMC,175924.000,A,3242.1629,N,11714.9623,W,28.19,182.81,311210,,,A*47
$GPRMC,175929.000,A,3242.1259,N,11714.9597,W,26.24,172.97,311210,,,A*4D
$GPRMC,175932.000,A,3242.1056,N,11714.9542,W,25.27,167.70,311210,,,A*4F
$GPRMC,175936.000,A,3242.0741,N,11714.9369,W,29.16,155.04,311210,,,A*48
$GPRMC,175939.000,A,3242.0519,N,11714.9214,W,30.62,150.12,311210,,,A*4A
$GPRMC,175942.000,A,3242.0310,N,11714.9069,W,28.67,150.82,311210,,,A*44
$GPRMC,175945.000,A,3242.0071,N,11714.8915,W,31.59,150.82,311210,,,A*41
$GPRMC,175948.000,A,3241.9820,N,11714.8747,W,33.05,150.47,311210,,,A*41
$GPRMC,175951.000,A,3241.9579,N,11714.8583,W,32.56,149.77,311210,,,A*4E
$GPRMC,175954.000,A,3241.9334,N,11714.8432,W,32.07,150.47,311210,,,A*40
$GPRMC,175957.000,A,3241.9103,N,11714.8268,W,31.10,149.41,311210,,,A*47
$GPRMC,180000.000,A,3241.8877,N,11714.8126,W,30.62,152.93,311210,,,A*45
$GPRMC,180003.000,A,3241.8642,N,11714.8017,W,29.65,158.20,311210,,,A*40
$GPRMC,180006.000,A,3241.8411,N,11714.7936,W,28.67,162.42,311210,,,A*4A
$GPRMC,180007.000,A,3241.8337,N,11714.7911,W,28.67,163.83,311210,,,A*41
$GPRMC,180013.000,A,3241.7896,N,11714.7827,W,27.22,172.27,311210,,,A*4F
$GPRMC,180016.000,A,3241.7661,N,11714.7801,W,27.22,175.78,311210,,,A*45
$GPRMC,180019.000,A,3241.7432,N,11714.7791,W,26.73,176.13,311210,,,A*43
$GPRMC,180022.000,A,3241.7194,N,11714.7737,W,27.70,169.80,311210,,,A*48
$GPRMC,180025.000,A,3241.6965,N,11714.7650,W,29.16,160.31,311210,,,A*45
$GPRMC,180028.000,A,3241.6747,N,11714.7528,W,29.16,153.98,311210,,,A*49
$GPRMC,180031.000,A,3241.6512,N,11714.7392,W,30.62,155.39,311210,,,A*42
$GPRMC,180034.000,A,3241.6261,N,11714.7305,W,30.62,164.18,311210,,,A*4B
$GPRMC,180037.000,A,3241.6013,N,11714.7273,W,31.10,171.56,311210,,,A*45
$GPRMC,180040.000,A,3241.5736,N,11714.7231,W,32.56,171.21,311210,,,A*41
$GPRMC,180043.000,A,3241.5453,N,11714.7180,W,33.05,170.51,311210,,,A*4A
$GPRMC,180046.000,A,3241.5198,N,11714.7125,W,31.59,170.86,311210,,,A*43
$GPRMC,180049.000,A,3241.4925,N,11714.7087,W,32.07,174.02,311210,,,A*4A
$GPRMC,180052.000,A,3241.4671,N,11714.7067,W,30.13,176.48,311210,,,A*4B
$GPRMC,180055.000,A,3241.4426,N,11714.7058,W,30.13,176.84,311210,,,A*40
$GPRMC,180058.000,A,3241.4178,N,11714.7038,W,29.65,178.24,311210,,,A*48
$GPRMC,180101.000,A,3241.3927,N,11714.7019,W,30.62,175.78,311210,,,A*48
$GPRMC,180104.000,A,3241.3673,N,11714.7000,W,30.62,175.43,311210,,,A*43
$GPRMC,180107.000,A,3241.3422,N,11714.6987,W,30.13,176.48,311210,,,A*4F
$GPRMC,180110.000,A,3241.3174,N,11714.6977,W,29.65,177.19,311210,,,A*4C
$GPRMC,180113.000,A,3241.2929,N,11714.6977,W,30.13,177.19,311210,,,A*47
$GPRMC,180116.000,A,3241.2665,N,11714.6955,W,31.59,176.13,311210,,,A*41
$GPRMC,180119.000,A,3241.2382,N,11714.6929,W,34.02,175.43,311210,,,A*44
$GPRMC,180122.000,A,3241.2096,N,11714.6890,W,34.99,174.38,311210,,,A*46
$GPRMC,180125.000,A,3241.1790,N,11714.6845,W,35.96,174.73,311210,,,A*4A
$GPRMC,180128.000,A,3241.1503,N,11714.6842,W,34.99,176.13,311210,,,A*42
$GPRMC,180131.000,A,3241.1210,N,11714.6813,W,34.50,175.43,311210,,,A*48
$GPRMC,180134.000,A,3241.0950,N,11714.6787,W,30.62,175.78,311210,,,A*4C
$GPRMC,180137.000,A,3241.0712,N,11714.6752,W,28.19,173.32,311210,,,A*42
$GPRMC,180140.000,A,3241.0525,N,11714.6736,W,24.30,175.08,311210,,,A*4E
$GPRMC,180143.000,A,3241.0319,N,11714.6716,W,24.79,174.73,311210,,,A*46
$GPRMC,180146.000,A,3241.0100,N,11714.6697,W,24.80,169.80,311210,,,A*47
$GPRMC,180149.000,A,3240.9904,N,11714.6630,W,27.22,163.48,311210,,,A*44
$GPRMC,180152.000,A,3240.9678,N,11714.6520,W,30.62,158.55,311210,,,A*4E
$GPRMC,180155.000,A,3240.9418,N,11714.6407,W,32.58,159.26,311210,,,A*47
$GPRMC,180158.000,A,3240.9160,N,11714.6285,W,32.56,159.26,311210,,,A*42
$GPRMC,180201.000,A,3240.8903,N,11714.6189,W,32.56,164.18,311210,,,A*4D
$GPRMC,180204.000,A,3240.8629,N,11714.6150,W,34.02,171.91,311210,,,A*49
