NMEA Sentence Code,UTC Time,Status,Latitude,Latitude Direction,Longitude,Longitude Direction,Speed (knots),Track Angle (degrees true),Date,MagneticVariation,Magnetic Variation Direction,[FAA Mode]-Optional,Checksum
$GPRMC,023707.7,A,3239.1782,N,11702.5867,W,11.10,215.30,030510,,*2A
$GPRMC,023710.7,A,3239.1739,N,11702.5866,W,5.20,192.50,030510,,*11
$GPRMC,023713.7,A,3239.1729,N,11702.5785,W,8.50,100.30,030510,,*16
$GPRMC,023716.7,A,3239.1745,N,11702.5670,W,11.20,93.00,030510,,*15
$GPRMC,023719.7,A,3239.1723,N,11702.5514,W,14.60,95.50,030510,,*19
$GPRMC,023722.7,A,3239.1694,N,11702.5355,W,14.80,97.70,030510,,*11
$GPRMC,023725.7,A,3239.1684,N,11702.5209,W,13.00,95.10,030510,,*14
$GPRMC,023728.7,A,3239.1687,N,11702.5120,W,11.10,92.30,030510,,*14
$GPRMC,023731.7,A,3239.1712,N,11702.5017,W,9.50,63.70,030510,,*23
$GPRMC,023734.7,A,3239.1786,N,11702.4967,W,11.10,39.70,030510,,*16
$GPRMC,023737.7,A,3239.1884,N,11702.4996,W,11.30,353.80,030510,,*24
$GPRMC,023740.7,A,3239.1980,N,11702.5033,W,12.30,342.70,030510,,*2A
$GPRMC,023743.7,A,3239.2127,N,11702.5092,W,16.50,341.30,030510,,*21
$GPRMC,023746.7,A,3239.2285,N,11702.5149,W,17.80,341.20,030510,,*25
$GPRMC,023749.7,A,3239.2449,N,11702.5194,W,18.20,342.50,030510,,*2D
$GPRMC,023752.7,A,3239.2558,N,11702.5262,W,16.00,334.20,030510,,*26
$GPRMC,023755.7,A,3239.2647,N,11702.5334,W,12.50,334.60,030510,,*2B
$GPRMC,023758.7,A,3239.2650,N,11702.5351,W,6.30,338.20,030510,,*18
$GPRMC,023816.7,A,3239.2820,N,11702.5393,W,7.50,343.00,030510,,*13
$GPRMC,023819.7,A,3239.2903,N,11702.5426,W,9.50,340.80,030510,,*10
$GPRMC,023822.7,A,3239.3006,N,11702.5488,W,12.10,338.50,030510,,*2D
$GPRMC,023825.7,A,3239.3113,N,11702.5542,W,12.90,340.90,030510,,*23
$GPRMC,023828.7,A,3239.3242,N,11702.5603,W,13.30,341.70,030510,,*2B
$GPRMC,023831.7,A,3239.3356,N,11702.5647,W,13.70,345.20,030510,,*22
$GPRMC,023834.7,A,3239.3459,N,11702.5688,W,12.50,346.80,030510,,*26
$GPRMC,023837.7,A,3239.3563,N,11702.5744,W,11.40,339.20,030510,,*2C
$GPRMC,023840.7,A,3239.3635,N,11702.5778,W,9.30,331.90,030510,,*1E
$GPRMC,023843.7,A,3239.3697,N,11702.5833,W,7.00,324.50,030510,,*10
$GPRMC,023852.7,A,3239.3723,N,11702.5898,W,5.00,285.90,030510,,*1B
$GPRMC,023855.7,A,3239.3736,N,11702.5970,W,6.60,281.90,030510,,*1E
$GPRMC,023858.7,A,3239.3653,N,11702.6102,W,10.60,252.20,030510,,*2D
$GPRMC,023901.7,A,3239.3544,N,11702.6274,W,15.60,242.80,030510,,*29
$GPRMC,023904.7,A,3239.3318,N,11702.6704,W,34.40,234.80,030510,,*21
$GPRMC,023907.7,A,3239.3041,N,11702.7017,W,39.10,228.70,030510,,*23
$GPRMC,023910.7,A,3239.2799,N,11702.7315,W,39.20,230.40,030510,,*2E
$GPRMC,023913.7,A,3239.2590,N,11702.7635,W,39.60,234.30,030510,,*26
$GPRMC,023916.7,A,3239.2394,N,11702.7978,W,40.10,238.00,030510,,*21
$GPRMC,023919.7,A,3239.2222,N,11702.8347,W,41.30,241.40,030510,,*22
$GPRMC,023922.7,A,3239.2062,N,11702.8715,W,42.60,240.30,030510,,*2F
$GPRMC,023925.7,A,3239.1841,N,11702.9091,W,43.40,232.90,030510,,*24
$GPRMC,023928.7,A,3239.1593,N,11702.9399,W,43.60,225.50,030510,,*28
$GPRMC,023931.7,A,3239.1323,N,11702.9691,W,44.00,221.70,030510,,*27
$GPRMC,023934.7,A,3239.1059,N,11703.0001,W,44.70,225.50,030510,,*2A
$GPRMC,023937.7,A,3239.0821,N,11703.0329,W,45.50,230.30,030510,,*27
$GPRMC,023940.7,A,3239.0626,N,11703.0690,W,44.60,236.60,030510,,*28
$GPRMC,023943.7,A,3239.0421,N,11703.1058,W,44.80,236.90,030510,,*2C
$GPRMC,023946.7,A,3239.0180,N,11703.1430,W,45.80,232.40,030510,,*25
$GPRMC,023949.7,A,3238.9950,N,11703.1761,W,44.80,229.90,030510,,*26
$GPRMC,023952.7,A,3238.9709,N,11703.2087,W,43.90,229.40,030510,,*29
$GPRMC,023955.7,A,3238.9480,N,11703.2400,W,43.10,229.50,030510,,*2E
$GPRMC,023958.7,A,3238.9248,N,11703.2729,W,42.40,231.50,030510,,*24
$GPRMC,024001.7,A,3238.9062,N,11703.3080,W,41.00,238.30,030510,,*21
$GPRMC,024004.7,A,3238.8915,N,11703.3442,W,39.30,242.90,030510,,*2D
$GPRMC,024007.7,A,3238.8796,N,11703.3790,W,37.30,247.60,030510,,*23
$GPRMC,024010.7,A,3238.8740,N,11703.4091,W,30.50,258.40,030510,,*22
$GPRMC,024013.7,A,3238.8716,N,11703.4288,W,22.10,262.50,030510,,*27
$GPRMC,024016.7,A,3238.8712,N,11703.4472,W,18.30,267.20,030510,,*2C
$GPRMC,024019.7,A,3238.8713,N,11703.4619,W,16.00,273.10,030510,,*26
$GPRMC,024022.7,A,3238.8748,N,11703.4777,W,19.40,278.40,030510,,*2C
$GPRMC,024025.7,A,3238.8790,N,11703.5024,W,24.90,280.60,030510,,*28
$GPRMC,024028.7,A,3238.8856,N,11703.5315,W,28.50,282.40,030510,,*21
$GPRMC,024031.7,A,3238.8890,N,11703.5566,W,26.80,281.20,030510,,*27
$GPRMC,024034.7,A,3238.8922,N,11703.5795,W,22.30,281.40,030510,,*2D
$GPRMC,024037.7,A,3238.8957,N,11703.5905,W,12.70,289.50,030510,,*25
$GPRMC,024040.7,A,3238.8972,N,11703.5936,W,4.40,313.30,030510,,*12
$GPRMC,024110.7,A,3238.8934,N,11703.5974,W,6.60,273.10,030510,,*17
$GPRMC,024113.7,A,3238.8950,N,11703.6098,W,13.30,279.30,030510,,*27
$GPRMC,024116.7,A,3238.8988,N,11703.6250,W,16.40,293.70,030510,,*23
$GPRMC,024119.7,A,3238.9073,N,11703.6449,W,22.50,294.80,030510,,*20
$GPRMC,024122.7,A,3238.9197,N,11703.6745,W,30.40,294.20,030510,,*24
$GPRMC,024125.7,A,3238.9313,N,11703.7079,W,34.20,291.80,030510,,*29
$GPRMC,024128.7,A,3238.9463,N,11703.7437,W,37.20,293.10,030510,,*22
$GPRMC,024131.7,A,3238.9593,N,11703.7787,W,38.90,292.70,030510,,*2F
$GPRMC,024134.7,A,3238.9718,N,11703.8158,W,39.60,292.80,030510,,*21
$GPRMC,024137.7,A,3238.9861,N,11703.8540,W,41.40,294.20,030510,,*2F
$GPRMC,024140.7,A,3239.0008,N,11703.8910,W,43.90,295.40,030510,,*21
$GPRMC,024143.7,A,3239.0169,N,11703.9326,W,46.30,296.70,030510,,*25
$GPRMC,024146.7,A,3239.0370,N,11703.9747,W,49.90,300.60,030510,,*23
$GPRMC,024149.7,A,3239.0611,N,11704.0174,W,51.90,304.60,030510,,*2B
$GPRMC,024152.7,A,3239.0889,N,11704.0625,W,54.50,307.60,030510,,*27
$GPRMC,024155.7,A,3239.1208,N,11704.1041,W,56.10,313.00,030510,,*22
$GPRMC,024158.7,A,3239.1567,N,11704.1443,W,58.40,317.70,030510,,*2F
$GPRMC,024201.7,A,3239.1959,N,11704.1815,W,60.50,320.20,030510,,*25
$GPRMC,024204.7,A,3239.2353,N,11704.2188,W,60.60,320.90,030510,,*25
$GPRMC,024207.7,A,3239.2752,N,11704.2568,W,61.80,321.00,030510,,*2E
$GPRMC,024210.7,A,3239.3161,N,11704.2928,W,61.30,322.10,030510,,*2E
$GPRMC,024213.7,A,3239.3572,N,11704.3277,W,62.00,323.30,030510,,*28
$GPRMC,024216.7,A,3239.4002,N,11704.3649,W,63.50,323.60,030510,,*20
$GPRMC,024219.7,A,3239.4429,N,11704.4039,W,63.90,321.70,030510,,*2B
$GPRMC,024222.7,A,3239.4860,N,11704.4428,W,64.30,322.40,030510,,*2B
$GPRMC,024225.7,A,3239.5298,N,11704.4823,W,65.30,322.00,030510,,*22
$GPRMC,024228.7,A,3239.5741,N,11704.5221,W,66.20,322.90,030510,,*2C
$GPRMC,024231.7,A,3239.6160,N,11704.5613,W,66.10,322.30,030510,,*2E
$GPRMC,024234.7,A,3239.6611,N,11704.6007,W,65.90,322.00,030510,,*22
$GPRMC,024237.7,A,3239.7037,N,11704.6400,W,65.50,322.30,030510,,*2E
$GPRMC,024240.7,A,3239.7466,N,11704.6748,W,63.40,325.10,030510,,*23
$GPRMC,024243.7,A,3239.7908,N,11704.7074,W,61.90,330.10,030510,,*27
$GPRMC,024246.7,A,3239.8350,N,11704.7311,W,60.20,334.80,030510,,*2D
$GPRMC,024249.7,A,3239.8784,N,11704.7533,W,58.60,337.90,030510,,*24
$GPRMC,024252.7,A,3239.9243,N,11704.7711,W,57.30,340.80,030510,,*28
$GPRMC,024255.7,A,3239.9700,N,11704.7885,W,57.10,342.30,030510,,*24
$GPRMC,024258.7,A,3240.0150,N,11704.8032,W,56.90,343.00,030510,,*2D
$GPRMC,024301.7,A,3240.0591,N,11704.8186,W,54.50,342.70,030510,,*2F
$GPRMC,024304.7,A,3240.1035,N,11704.8342,W,55.20,343.30,030510,,*29
$GPRMC,024307.7,A,3240.1468,N,11704.8507,W,56.50,342.50,030510,,*22
$GPRMC,024310.7,A,3240.1910,N,11704.8684,W,57.90,342.00,030510,,*26
$GPRMC,024313.7,A,3240.2397,N,11704.8857,W,58.60,342.40,030510,,*27
$GPRMC,024316.7,A,3240.2878,N,11704.9059,W,59.70,341.30,030510,,*2B
$GPRMC,024319.7,A,3240.3346,N,11704.9224,W,58.80,342.60,030510,,*23
