NMEA Sentence Code,UTC Time,Status,Latitude,Latitude Direction,Longitude,Longitude Direction,Speed (knots),Track Angle (degrees true),Date,MagneticVariation,Magnetic Variation Direction,[FAA Mode]-Optional,Checksum
$GPRMC,005019.25,A,3318.2948,N,11718.7164,W,30.571,8.903,021210,0,W,A*17
$GPRMC,005022.25,A,3318.3206,N,11718.7117,W,30.944,9.236,021210,0,W,A*1D
$GPRMC,005025.25,A,3318.3459,N,11718.7070,W,29.979,9.439,021210,0,W,A*19
$GPRMC,005028.25,A,3318.3710,N,11718.7027,W,30.730,8.959,021210,0,W,A*19
$GPRMC,005031.25,A,3318.3961,N,11718.6979,W,30.265,9.654,021210,0,W,A*1C
$GPRMC,005034.25,A,3318.4202,N,11718.6934,W,28.931,9.563,021210,0,W,A*1D
$GPRMC,005037.25,A,3318.4437,N,11718.6891,W,29.660,10.172,021210,0,W,A*26
$GPRMC,005040.25,A,3318.4684,N,11718.6839,W,30.452,9.574,021210,0,W,A*1F
$GPRMC,005043.25,A,3318.4944,N,11718.6778,W,31.728,10.335,021210,0,W,A*21
$GPRMC,005046.25,A,3318.5215,N,11718.6701,W,32.622,13.104,021210,0,W,A*2F
$GPRMC,005049.25,A,3318.5487,N,11718.6617,W,33.484,12.955,021210,0,W,A*29
$GPRMC,005052.25,A,3318.5768,N,11718.6538,W,33.949,12.461,021210,0,W,A*29
$GPRMC,005055.25,A,3318.6050,N,11718.6458,W,34.311,12.308,021210,0,W,A*2E
$GPRMC,005058.25,A,3318.6333,N,11718.6378,W,34.974,12.348,021210,0,W,A*2D
$GPRMC,005101.25,A,3318.6624,N,11718.6308,W,33.772,11.667,021210,0,W,A*20
$GPRMC,005104.25,A,3318.6883,N,11718.6258,W,29.773,9.323,021210,0,W,A*14
$GPRMC,005107.25,A,3318.7085,N,11718.6214,W,19.594,11.511,021210,0,W,A*26
$GPRMC,005110.25,A,3318.7191,N,11718.6185,W,8.595,13.610,021210,0,W,A*1E
$GPRMC,005134.25,A,3318.7223,N,11718.6172,W,7.738,13.711,021210,0,W,A*10
$GPRMC,005137.25,A,3318.7320,N,11718.6145,W,14.491,11.925,021210,0,W,A*2C
$GPRMC,005140.25,A,3318.7440,N,11718.6114,W,14.223,9.031,021210,0,W,A*13
$GPRMC,005143.25,A,3318.7533,N,11718.6157,W,13.166,315.091,021210,0,W,A*13
$GPRMC,005146.25,A,3318.7552,N,11718.6302,W,17.655,271.265,021210,0,W,A*1A
$GPRMC,005149.25,A,3318.7545,N,11718.6529,W,24.146,269.562,021210,0,W,A*10
$GPRMC,005152.25,A,3318.7539,N,11718.6799,W,28.201,270.470,021210,0,W,A*1E
$GPRMC,005155.25,A,3318.7536,N,11718.7107,W,30.709,269.698,021210,0,W,A*1E
$GPRMC,005158.25,A,3318.7530,N,11718.7427,W,32.131,269.141,021210,0,W,A*1E
$GPRMC,005201.25,A,3318.7526,N,11718.7766,W,32.863,269.467,021210,0,W,A*1F
$GPRMC,005204.25,A,3318.7523,N,11718.8102,W,32.280,269.564,021210,0,W,A*11
$GPRMC,005207.25,A,3318.7520,N,11718.8432,W,31.973,269.074,021210,0,W,A*17
$GPRMC,005210.25,A,3318.7516,N,11718.8758,W,32.676,268.808,021210,0,W,A*10
$GPRMC,005213.25,A,3318.7517,N,11718.9102,W,35.325,272.364,021210,0,W,A*14
$GPRMC,005216.25,A,3318.7551,N,11718.9452,W,34.255,287.236,021210,0,W,A*18
$GPRMC,005219.25,A,3318.7689,N,11718.9748,W,33.061,308.198,021210,0,W,A*1A
$GPRMC,005222.25,A,3318.7889,N,11718.9953,W,32.075,326.088,021210,0,W,A*10
$GPRMC,005225.25,A,3318.8120,N,11719.0112,W,31.646,329.831,021210,0,W,A*17
$GPRMC,005228.25,A,3318.8350,N,11719.0258,W,31.384,329.597,021210,0,W,A*18
$GPRMC,005231.25,A,3318.8560,N,11719.0444,W,31.799,315.466,021210,0,W,A*16
$GPRMC,005234.25,A,3318.8717,N,11719.0707,W,33.537,295.025,021210,0,W,A*1B
$GPRMC,005237.25,A,3318.8809,N,11719.1037,W,34.789,282.447,021210,0,W,A*1B
$GPRMC,005240.25,A,3318.8857,N,11719.1396,W,36.535,279.968,021210,0,W,A*1B
$GPRMC,005243.25,A,3318.8905,N,11719.1770,W,38.000,279.928,021210,0,W,A*1B
$GPRMC,005246.25,A,3318.8958,N,11719.2160,W,39.491,279.221,021210,0,W,A*1D
$GPRMC,005249.25,A,3318.9002,N,11719.2569,W,41.008,279.418,021210,0,W,A*1F
$GPRMC,005252.25,A,3318.9059,N,11719.2986,W,42.502,280.059,021210,0,W,A*1D
$GPRMC,005255.25,A,3318.9111,N,11719.3421,W,43.360,276.205,021210,0,W,A*17
$GPRMC,005258.25,A,3318.9104,N,11719.3854,W,44.633,266.292,021210,0,W,A*1B
$GPRMC,005301.25,A,3318.9050,N,11719.4305,W,44.806,256.398,021210,0,W,A*1E
$GPRMC,005304.25,A,3318.8960,N,11719.4720,W,40.051,256.000,021210,0,W,A*1F
$GPRMC,005307.25,A,3318.8929,N,11719.5119,W,39.927,270.794,021210,0,W,A*14
$GPRMC,005310.25,A,3318.8966,N,11719.5504,W,39.879,286.223,021210,0,W,A*1B
$GPRMC,005313.25,A,3318.9061,N,11719.5888,W,40.400,287.775,021210,0,W,A*15
$GPRMC,005316.25,A,3318.9151,N,11719.6277,W,40.634,282.098,021210,0,W,A*1F
$GPRMC,005319.25,A,3318.9205,N,11719.6661,W,37.709,276.446,021210,0,W,A*12
$GPRMC,005322.25,A,3318.9226,N,11719.7001,W,30.452,275.589,021210,0,W,A*11
$GPRMC,005325.25,A,3318.9267,N,11719.7232,W,19.446,286.165,021210,0,W,A*15
$GPRMC,005328.25,A,3318.9303,N,11719.7358,W,10.340,291.399,021210,0,W,A*19
$GPRMC,005337.25,A,3318.9319,N,11719.7406,W,4.348,289.420,021210,0,W,A*21
$GPRMC,005340.25,A,3318.9345,N,11719.7484,W,12.402,294.640,021210,0,W,A*14
$GPRMC,005343.25,A,3318.9392,N,11719.7609,W,15.352,284.981,021210,0,W,A*1C
$GPRMC,005346.25,A,3318.9387,N,11719.7774,W,19.782,243.173,021210,0,W,A*1D
$GPRMC,005349.25,A,3318.9274,N,11719.7951,W,25.797,232.305,021210,0,W,A*18
$GPRMC,005352.25,A,3318.9120,N,11719.8190,W,33.435,233.924,021210,0,W,A*1E
$GPRMC,005355.25,A,3318.8943,N,11719.8486,W,37.767,238.058,021210,0,W,A*1E
$GPRMC,005358.25,A,3318.8759,N,11719.8818,W,41.397,239.228,021210,0,W,A*13
$GPRMC,005401.25,A,3318.8577,N,11719.9177,W,40.669,238.997,021210,0,W,A*1C
$GPRMC,005404.25,A,3318.8382,N,11719.9516,W,41.025,232.837,021210,0,W,A*18
$GPRMC,005407.25,A,3318.8177,N,11719.9841,W,39.246,228.780,021210,0,W,A*1C
$GPRMC,005410.25,A,3318.7970,N,11720.0134,W,37.998,228.467,021210,0,W,A*1E
$GPRMC,005413.25,A,3318.7770,N,11720.0408,W,36.435,228.337,021210,0,W,A*10
$GPRMC,005416.25,A,3318.7562,N,11720.0688,W,39.383,228.362,021210,0,W,A*1B
$GPRMC,005419.25,A,3318.7351,N,11720.0985,W,39.682,227.595,021210,0,W,A*15
$GPRMC,005422.25,A,3318.7129,N,11720.1282,W,39.848,227.971,021210,0,W,A*13
$GPRMC,005425.25,A,3318.6903,N,11720.1582,W,41.349,227.009,021210,0,W,A*11
$GPRMC,005428.25,A,3318.6652,N,11720.1861,W,40.097,218.459,021210,0,W,A*1B
$GPRMC,005431.25,A,3318.6361,N,11720.2086,W,39.735,217.650,021210,0,W,A*11
$GPRMC,005434.25,A,3318.6105,N,11720.2338,W,39.890,224.267,021210,0,W,A*12
$GPRMC,005437.25,A,3318.5892,N,11720.2645,W,39.850,233.431,021210,0,W,A*15
$GPRMC,005440.25,A,3318.5697,N,11720.2948,W,39.505,237.843,021210,0,W,A*1C
$GPRMC,005443.25,A,3318.5522,N,11720.3263,W,38.294,238.232,021210,0,W,A*1C
$GPRMC,005446.25,A,3318.5348,N,11720.3575,W,37.636,237.963,021210,0,W,A*10
$GPRMC,005449.25,A,3318.5175,N,11720.3880,W,37.372,237.613,021210,0,W,A*19
$GPRMC,005452.25,A,3318.5001,N,11720.4179,W,36.329,235.348,021210,0,W,A*1F
$GPRMC,005455.25,A,3318.4823,N,11720.4476,W,35.375,230.523,021210,0,W,A*1F
$GPRMC,005458.25,A,3318.4628,N,11720.4740,W,34.150,222.277,021210,0,W,A*10
$GPRMC,005501.25,A,3318.4417,N,11720.4950,W,33.675,216.243,021210,0,W,A*1B
$GPRMC,005504.25,A,3318.4172,N,11720.5133,W,34.804,207.274,021210,0,W,A*1F
$GPRMC,005507.25,A,3318.3908,N,11720.5274,W,33.295,203.700,021210,0,W,A*19
$GPRMC,005510.25,A,3318.3653,N,11720.5397,W,31.888,203.936,021210,0,W,A*1D
$GPRMC,005513.25,A,3318.3411,N,11720.5518,W,31.961,204.597,021210,0,W,A*1D
$GPRMC,005516.25,A,3318.3154,N,11720.5664,W,35.473,207.697,021210,0,W,A*1E
$GPRMC,005519.25,A,3318.2900,N,11720.5850,W,34.975,211.416,021210,0,W,A*16
$GPRMC,005522.25,A,3318.2660,N,11720.6041,W,33.759,212.712,021210,0,W,A*1F
$GPRMC,005525.25,A,3318.2422,N,11720.6222,W,32.001,209.163,021210,0,W,A*1A
