NMEA Sentence Code,UTC Time,Status,Latitude,Latitude Direction,Longitude,Longitude Direction,Speed (knots),Track Angle (degrees true),Date,MagneticVariation,Magnetic Variation Direction,[FAA Mode]-Optional,Checksum
$GPRMC,212711.4,A,3304.004060,N,11718.315592,W,14.8,325.1,040810,,,A*4A
$GPRMC,212714.4,A,3304.015960,N,11718.323725,W,16.1,327.2,040810,,,A*47
$GPRMC,212717.4,A,3304.026830,N,11718.331906,W,15.1,331.3,040810,,,A*49
$GPRMC,212720.4,A,3304.037848,N,11718.336522,W,14.3,341.1,040810,,,A*49
$GPRMC,212723.4,A,3304.048515,N,11718.341081,W,13.3,340.6,040810,,,A*4A
$GPRMC,212726.4,A,3304.058742,N,11718.345850,W,12.4,339.5,040810,,,A*45
$GPRMC,212729.4,A,3304.067734,N,11718.350323,W,11.2,342.0,040810,,,A*40
$GPRMC,212732.4,A,3304.075167,N,11718.353706,W,8.0,343.0,040810,,,A*72
$GPRMC,212735.4,A,3304.082213,N,11718.356160,W,8.4,341.0,040810,,,A*78
$GPRMC,212738.4,A,3304.088694,N,11718.359159,W,8.6,339.3,040810,,,A*7F
$GPRMC,212741.4,A,3304.096584,N,11718.362443,W,9.8,340.5,040810,,,A*7D
$GPRMC,212744.4,A,3304.105653,N,11718.366032,W,11.2,341.4,040810,,,A*4F
$GPRMC,212747.4,A,3304.114908,N,11718.369305,W,11.0,342.4,040810,,,A*44
$GPRMC,212750.4,A,3304.124388,N,11718.372815,W,12.0,341.3,040810,,,A*44
$GPRMC,212753.4,A,3304.135066,N,11718.377245,W,13.7,340.1,040810,,,A*4B
$GPRMC,212756.4,A,3304.146006,N,11718.381904,W,15.3,338.4,040810,,,A*43
$GPRMC,212759.4,A,3304.159305,N,11718.388520,W,17.8,341.9,040810,,,A*4B
$GPRMC,212802.4,A,3304.174492,N,11718.394712,W,18.6,340.9,040810,,,A*42
$GPRMC,212805.4,A,3304.188720,N,11718.399938,W,17.5,341.4,040810,,,A*47
$GPRMC,212808.4,A,3304.198943,N,11718.404682,W,10.3,341.5,040810,,,A*4D
$GPRMC,212811.4,A,3304.205048,N,11718.406912,W,5.3,354.8,040810,,,A*79
$GPRMC,212814.4,A,3304.209469,N,11718.402978,W,9.5,60.2,040810,,,A*4B
$GPRMC,212817.4,A,3304.212390,N,11718.392347,W,12.8,75.7,040810,,,A*7D
$GPRMC,212820.4,A,3304.215077,N,11718.378508,W,14.7,77.1,040810,,,A*70
$GPRMC,212823.4,A,3304.218004,N,11718.362795,W,16.0,77.3,040810,,,A*70
$GPRMC,212826.4,A,3304.220864,N,11718.346295,W,17.0,76.5,040810,,,A*75
$GPRMC,212829.4,A,3304.227093,N,11718.327380,W,18.3,74.8,040810,,,A*7C
$GPRMC,212832.4,A,3304.231593,N,11718.309628,W,18.3,74.4,040810,,,A*73
$GPRMC,212835.4,A,3304.235621,N,11718.291911,W,17.5,75.3,040810,,,A*70
$GPRMC,212838.4,A,3304.238039,N,11718.278613,W,13.5,72.8,040810,,,A*7D
$GPRMC,212841.4,A,3304.239395,N,11718.269703,W,8.1,66.8,040810,,,A*4C
$GPRMC,212856.4,A,3304.242520,N,11718.262577,W,6.5,55.2,040810,,,A*44
$GPRMC,212859.4,A,3304.248913,N,11718.258842,W,6.6,24.0,040810,,,A*48
$GPRMC,212902.4,A,3304.261719,N,11718.261350,W,11.5,3.4,040810,,,A*4E
$GPRMC,212905.4,A,3304.282239,N,11718.267023,W,19.0,353.6,040810,,,A*4B
$GPRMC,212908.4,A,3304.319509,N,11718.281987,W,36.4,344.0,040810,,,A*47
$GPRMC,212911.4,A,3304.349430,N,11718.292797,W,35.3,344.4,040810,,,A*4C
$GPRMC,212914.4,A,3304.379930,N,11718.303117,W,34.9,344.6,040810,,,A*49
$GPRMC,212917.4,A,3304.408319,N,11718.312994,W,34.1,344.6,040810,,,A*41
$GPRMC,212920.4,A,3304.436887,N,11718.322689,W,34.8,344.5,040810,,,A*4E
$GPRMC,212923.4,A,3304.465486,N,11718.332511,W,35.1,344.1,040810,,,A*49
$GPRMC,212926.4,A,3304.493985,N,11718.342132,W,34.2,344.3,040810,,,A*49
$GPRMC,212929.4,A,3304.522191,N,11718.351542,W,34.1,344.0,040810,,,A*41
$GPRMC,212932.4,A,3304.549972,N,11718.360836,W,34.3,344.5,040810,,,A*48
$GPRMC,212935.4,A,3304.577541,N,11718.369960,W,34.1,344.3,040810,,,A*41
$GPRMC,212938.4,A,3304.605409,N,11718.379777,W,34.4,343.8,040810,,,A*47
$GPRMC,212941.4,A,3304.634162,N,11718.389239,W,34.9,344.4,040810,,,A*45
$GPRMC,212944.4,A,3304.662988,N,11718.397999,W,35.7,344.7,040810,,,A*4D
$GPRMC,212947.4,A,3304.691367,N,11718.407979,W,35.0,344.4,040810,,,A*4D
$GPRMC,212950.4,A,3304.720409,N,11718.416973,W,35.0,344.0,040810,,,A*41
$GPRMC,212953.4,A,3304.747154,N,11718.425806,W,34.7,344.8,040810,,,A*43
$GPRMC,212956.4,A,3304.776050,N,11718.434366,W,35.3,344.6,040810,,,A*47
$GPRMC,212959.4,A,3304.804218,N,11718.443754,W,35.1,344.5,040810,,,A*48
$GPRMC,213002.4,A,3304.832667,N,11718.453486,W,35.3,343.6,040810,,,A*4C
$GPRMC,213005.4,A,3304.859359,N,11718.464049,W,33.8,341.5,040810,,,A*41
$GPRMC,213008.4,A,3304.884694,N,11718.476564,W,32.6,337.1,040810,,,A*4B
$GPRMC,213011.4,A,3304.905207,N,11718.489236,W,28.3,334.9,040810,,,A*40
$GPRMC,213014.4,A,3304.923501,N,11718.501244,W,24.5,332.5,040810,,,A*44
$GPRMC,213017.4,A,3304.935934,N,11718.511495,W,18.0,331.4,040810,,,A*49
$GPRMC,213020.4,A,3304.944485,N,11718.517878,W,10.8,334.0,040810,,,A*44
$GPRMC,213102.4,A,3304.951749,N,11718.523780,W,6.9,318.3,040810,,,A*76
$GPRMC,213105.4,A,3304.959988,N,11718.532330,W,10.2,314.8,040810,,,A*4E
$GPRMC,213108.4,A,3304.972843,N,11718.550337,W,17.4,313.0,040810,,,A*41
$GPRMC,213111.4,A,3305.007243,N,11718.584260,W,37.0,316.8,040810,,,A*48
$GPRMC,213114.4,A,3305.034577,N,11718.612702,W,38.7,318.5,040810,,,A*4B
$GPRMC,213117.4,A,3305.066562,N,11718.641157,W,40.7,323.1,040810,,,A*48
$GPRMC,213120.4,A,3305.098073,N,11718.663692,W,42.0,327.6,040810,,,A*40
$GPRMC,213123.4,A,3305.131145,N,11718.684862,W,44.3,332.1,040810,,,A*4B
$GPRMC,213126.4,A,3305.169904,N,11718.702716,W,46.3,340.2,040810,,,A*49
$GPRMC,213129.4,A,3305.206826,N,11718.716771,W,45.4,343.3,040810,,,A*4F
$GPRMC,213132.4,A,3305.243431,N,11718.729769,W,44.8,342.6,040810,,,A*42
$GPRMC,213135.4,A,3305.279385,N,11718.743425,W,44.5,342.5,040810,,,A*4D
$GPRMC,213138.4,A,3305.315248,N,11718.756970,W,44.9,342.9,040810,,,A*42
$GPRMC,213141.4,A,3305.350147,N,11718.769062,W,43.5,343.4,040810,,,A*40
$GPRMC,213144.4,A,3305.382587,N,11718.781618,W,41.3,342.7,040810,,,A*49
$GPRMC,213147.4,A,3305.414408,N,11718.792810,W,39.2,343.1,040810,,,A*49
$GPRMC,213150.4,A,3305.441765,N,11718.804786,W,36.1,342.3,040810,,,A*48
$GPRMC,213153.4,A,3305.463782,N,11718.814490,W,28.8,344.3,040810,,,A*47
$GPRMC,213156.4,A,3305.477250,N,11718.819306,W,16.7,348.4,040810,,,A*41
$GPRMC,213159.4,A,3305.482472,N,11718.819556,W,6.0,359.3,040810,,,A*70
$GPRMC,213217.4,A,3305.485984,N,11718.819832,W,8.0,340.7,040810,,,A*77
$GPRMC,213220.4,A,3305.494323,N,11718.823376,W,12.0,337.6,040810,,,A*4C
$GPRMC,213223.4,A,3305.509266,N,11718.828870,W,19.0,340.0,040810,,,A*41
$GPRMC,213226.4,A,3305.529958,N,11718.835673,W,24.5,341.7,040810,,,A*4C
$GPRMC,213229.4,A,3305.553144,N,11718.844287,W,32.5,342.7,040810,,,A*46
$GPRMC,213232.4,A,3305.581455,N,11718.854880,W,37.6,341.8,040810,,,A*40
$GPRMC,213235.4,A,3305.611451,N,11718.867451,W,38.5,339.6,040810,,,A*44
$GPRMC,213238.4,A,3305.642340,N,11718.881936,W,40.4,337.8,040810,,,A*42
$GPRMC,213241.4,A,3305.674352,N,11718.898454,W,42.5,336.3,040810,,,A*42
$GPRMC,213244.4,A,3305.706931,N,11718.915478,W,43.7,336.3,040810,,,A*45
$GPRMC,213247.4,A,3305.740943,N,11718.932499,W,44.7,337.0,040810,,,A*4E
$GPRMC,213250.4,A,3305.776605,N,11718.951638,W,46.1,338.9,040810,,,A*4E
$GPRMC,213253.4,A,3305.813109,N,11718.968895,W,43.7,340.7,040810,,,A*4B
$GPRMC,213256.4,A,3305.845087,N,11718.982328,W,39.3,341.3,040810,,,A*4F
$GPRMC,213259.4,A,3305.869435,N,11718.992951,W,29.2,342.1,040810,,,A*47
$GPRMC,213302.4,A,3305.892242,N,11719.000290,W,26.1,346.0,040810,,,A*46
$GPRMC,213305.4,A,3305.912002,N,11719.005984,W,25.6,346.6,040810,,,A*47
$GPRMC,213308.4,A,3305.934989,N,11719.012127,W,30.4,345.9,040810,,,A*49
$GPRMC,213311.4,A,3305.960122,N,11719.021018,W,32.8,341.5,040810,,,A*42
$GPRMC,213314.4,A,3305.988469,N,11719.032894,W,36.7,340.0,040810,,,A*4A
$GPRMC,213317.4,A,3306.018811,N,11719.045989,W,37.8,340.0,040810,,,A*4A
$GPRMC,213320.4,A,3306.050310,N,11719.059848,W,39.8,340.0,040810,,,A*47
$GPRMC,213323.4,A,3306.082459,N,11719.074269,W,40.9,339.8,040810,,,A*4E
$GPRMC,213326.4,A,3306.116759,N,11719.088735,W,43.0,340.4,040810,,,A*43
$GPRMC,213329.4,A,3306.150641,N,11719.103068,W,43.6,340.1,040810,,,A*48
$GPRMC,213332.4,A,3306.186406,N,11719.118113,W,44.3,339.7,040810,,,A*45
$GPRMC,213335.4,A,3306.222082,N,11719.132883,W,44.7,340.4,040810,,,A*46
$GPRMC,213338.4,A,3306.255389,N,11719.147812,W,43.9,340.2,040810,,,A*46
$GPRMC,213341.4,A,3306.289476,N,11719.161923,W,43.3,340.0,040810,,,A*41
$GPRMC,213344.4,A,3306.324273,N,11719.177141,W,44.1,337.9,040810,,,A*46
$GPRMC,213347.4,A,3306.358083,N,11719.194405,W,44.7,335.9,040810,,,A*4F
$GPRMC,213350.4,A,3306.390823,N,11719.213289,W,44.4,336.3,040810,,,A*4B
$GPRMC,213353.4,A,3306.425792,N,11719.228748,W,45.0,340.3,040810,,,A*40
$GPRMC,213356.4,A,3306.462933,N,11719.243231,W,45.9,341.6,040810,,,A*48
$GPRMC,213359.4,A,3306.498145,N,11719.257432,W,45.1,341.4,040810,,,A*41
$GPRMC,213402.4,A,3306.532291,N,11719.272018,W,43.7,341.3,040810,,,A*4F
$GPRMC,213405.4,A,3306.566884,N,11719.285464,W,42.8,341.5,040810,,,A*48
$GPRMC,213408.4,A,3306.599996,N,11719.298292,W,41.5,342.3,040810,,,A*4F
$GPRMC,213411.4,A,3306.627973,N,11719.309885,W,34.8,342.7,040810,,,A*44
$GPRMC,213414.4,A,3306.651303,N,11719.318286,W,27.7,343.3,040810,,,A*4C
$GPRMC,213417.4,A,3306.666897,N,11719.324072,W,20.5,345.1,040810,,,A*4A
$GPRMC,213420.4,A,3306.678476,N,11719.329215,W,15.8,343.9,040810,,,A*49
$GPRMC,213423.4,A,3306.688881,N,11719.333111,W,12.5,344.5,040810,,,A*4C
$GPRMC,213426.4,A,3306.692636,N,11719.335866,W,4.8,340.5,040810,,,A*71
$GPRMC,213441.4,A,3306.700793,N,11719.341244,W,10.9,334.5,040810,,,A*4A
$GPRMC,213444.4,A,3306.711666,N,11719.347312,W,14.8,330.7,040810,,,A*43
$GPRMC,213447.4,A,3306.732926,N,11719.356079,W,23.4,335.6,040810,,,A*48
$GPRMC,213450.4,A,3306.764383,N,11719.367485,W,34.8,339.4,040810,,,A*49
$GPRMC,213453.4,A,3306.798016,N,11719.380693,W,38.8,339.1,040810,,,A*43
$GPRMC,213456.4,A,3306.837225,N,11719.396161,W,46.9,340.4,040810,,,A*40
$GPRMC,213459.4,A,3306.874818,N,11719.413031,W,46.6,337.9,040810,,,A*40
$GPRMC,213502.4,A,3306.910660,N,11719.431211,W,46.8,336.7,040810,,,A*4C
$GPRMC,213505.4,A,3306.945607,N,11719.449848,W,45.9,335.8,040810,,,A*4D
$GPRMC,213508.4,A,3306.980455,N,11719.468712,W,45.9,335.5,040810,,,A*42
$GPRMC,213511.4,A,3307.016711,N,11719.487638,W,45.9,334.5,040810,,,A*47
$GPRMC,213514.4,A,3307.053264,N,11719.507417,W,47.4,335.2,040810,,,A*4B
$GPRMC,213517.4,A,3307.089956,N,11719.525272,W,47.0,335.6,040810,,,A*40
$GPRMC,213520.4,A,3307.124824,N,11719.545112,W,45.8,335.5,040810,,,A*4C
$GPRMC,213523.4,A,3307.156774,N,11719.563388,W,42.3,336.8,040810,,,A*47
$GPRMC,213526.4,A,3307.184711,N,11719.578531,W,37.6,336.2,040810,,,A*4D
$GPRMC,213529.4,A,3307.211419,N,11719.592687,W,36.6,336.4,040810,,,A*4B
$GPRMC,213532.4,A,3307.239586,N,11719.607606,W,37.5,336.4,040810,,,A*48
$GPRMC,213535.4,A,3307.270659,N,11719.623855,W,40.0,337.8,040810,,,A*45
$GPRMC,213538.4,A,3307.303008,N,11719.637381,W,41.6,339.6,040810,,,A*4F
$GPRMC,213541.4,A,3307.335795,N,11719.651521,W,43.0,340.0,040810,,,A*47
$GPRMC,213544.4,A,3307.371340,N,11719.665119,W,44.9,343.9,040810,,,A*42
$GPRMC,213547.4,A,3307.407387,N,11719.675433,W,42.5,350.1,040810,,,A*40
$GPRMC,213550.4,A,3307.441430,N,11719.683290,W,40.4,347.6,040810,,,A*4B
$GPRMC,213553.4,A,3307.473690,N,11719.695142,W,41.6,338.6,040810,,,A*41
$GPRMC,213556.4,A,3307.499421,N,11719.716515,W,38.0,325.7,040810,,,A*41
$GPRMC,213559.4,A,3307.517527,N,11719.750017,W,40.3,305.1,040810,,,A*43
$GPRMC,213602.4,A,3307.529564,N,11719.782408,W,36.0,295.6,040810,,,A*4C
$GPRMC,213605.4,A,3307.538437,N,11719.814490,W,33.6,292.8,040810,,,A*47
$GPRMC,213608.4,A,3307.554407,N,11719.840625,W,30.5,307.4,040810,,,A*4F
$GPRMC,213611.4,A,3307.575973,N,11719.860300,W,31.5,324.0,040810,,,A*4E
$GPRMC,213614.4,A,3307.599751,N,11719.877385,W,34.5,327.8,040810,,,A*42
$GPRMC,213617.4,A,3307.625254,N,11719.895472,W,35.6,329.2,040810,,,A*40
$GPRMC,213620.4,A,3307.651581,N,11719.914377,W,35.8,329.4,040810,,,A*4A
$GPRMC,213623.4,A,3307.676420,N,11719.930891,W,33.8,330.0,040810,,,A*49
$GPRMC,213626.4,A,3307.698001,N,11719.947394,W,31.2,329.5,040810,,,A*40
$GPRMC,213629.4,A,3307.719569,N,11719.960627,W,28.6,331.0,040810,,,A*44
$GPRMC,213632.4,A,3307.738301,N,11719.975755,W,29.7,329.1,040810,,,A*4D
$GPRMC,213635.4,A,3307.761551,N,11719.991734,W,31.9,328.4,040810,,,A*4B
$GPRMC,213638.4,A,3307.784271,N,11720.009306,W,32.7,328.3,040810,,,A*45
$GPRMC,213641.4,A,3307.808227,N,11720.026471,W,33.1,329.2,040810,,,A*4E
$GPRMC,213644.4,A,3307.831379,N,11720.042861,W,31.7,329.5,040810,,,A*47
$GPRMC,213647.4,A,3307.854819,N,11720.056872,W,31.0,330.6,040810,,,A*41
$GPRMC,213650.4,A,3307.876166,N,11720.071484,W,27.6,331.1,040810,,,A*41
$GPRMC,213653.4,A,3307.894437,N,11720.083998,W,25.2,330.8,040810,,,A*4C
$GPRMC,213656.4,A,3307.910211,N,11720.095949,W,23.1,331.0,040810,,,A*41
$GPRMC,213659.4,A,3307.923787,N,11720.104013,W,17.0,334.5,040810,,,A*4D
$GPRMC,213702.4,A,3307.930224,N,11720.109204,W,9.4,334.1,040810,,,A*7A
$GPRMC,213711.4,A,3307.935243,N,11720.112295,W,5.1,332.3,040810,,,A*73
$GPRMC,213714.4,A,3307.940619,N,11720.117318,W,10.3,323.3,040810,,,A*48
$GPRMC,213717.4,A,3307.952205,N,11720.125609,W,16.9,326.6,040810,,,A*49
$GPRMC,213720.4,A,3307.969603,N,11720.136986,W,23.8,327.3,040810,,,A*4E
$GPRMC,213723.4,A,3307.990489,N,11720.152740,W,29.3,326.7,040810,,,A*49
$GPRMC,213726.4,A,3308.014319,N,11720.169843,W,32.5,328.2,040810,,,A*4B
$GPRMC,213729.4,A,3308.040425,N,11720.186154,W,34.5,331.1,040810,,,A*4E
$GPRMC,213732.4,A,3308.066813,N,11720.202915,W,35.7,331.5,040810,,,A*4C
$GPRMC,213735.4,A,3308.092754,N,11720.220107,W,36.5,331.8,040810,,,A*4B
$GPRMC,213738.4,A,3308.120646,N,11720.236558,W,36.6,334.6,040810,,,A*4D
$GPRMC,213741.4,A,3308.149730,N,11720.252254,W,36.8,336.6,040810,,,A*49
$GPRMC,213744.4,A,3308.177073,N,11720.265162,W,35.8,338.6,040810,,,A*4E
$GPRMC,213747.4,A,3308.205692,N,11720.278714,W,36.4,339.4,040810,,,A*45
$GPRMC,213750.4,A,3308.236065,N,11720.292500,W,37.8,337.1,040810,,,A*48
$GPRMC,213753.4,A,3308.266031,N,11720.308178,W,39.6,335.0,040810,,,A*45
$GPRMC,213756.4,A,3308.295932,N,11720.325636,W,39.5,334.7,040810,,,A*41
$GPRMC,213759.4,A,3308.326600,N,11720.342013,W,39.7,335.3,040810,,,A*4E
$GPRMC,213802.4,A,3308.355478,N,11720.358168,W,39.0,335.6,040810,,,A*42
$GPRMC,213805.4,A,3308.383066,N,11720.373819,W,38.2,335.2,040810,,,A*44
$GPRMC,213808.4,A,3308.410367,N,11720.389965,W,37.6,334.6,040810,,,A*47
$GPRMC,213811.4,A,3308.441098,N,11720.406262,W,38.4,335.0,040810,,,A*4E
$GPRMC,213814.4,A,3308.470882,N,11720.422082,W,38.4,335.4,040810,,,A*44
$GPRMC,213817.4,A,3308.502308,N,11720.438304,W,38.5,335.7,040810,,,A*4E
$GPRMC,213820.4,A,3308.527153,N,11720.454968,W,38.1,334.0,040810,,,A*49
$GPRMC,213823.4,A,3308.554819,N,11720.471243,W,37.6,332.4,040810,,,A*46
$GPRMC,213826.4,A,3308.584980,N,11720.489296,W,38.5,331.0,040810,,,A*4B
$GPRMC,213829.4,A,3308.613735,N,11720.509232,W,38.1,328.6,040810,,,A*44
$GPRMC,213832.4,A,3308.640824,N,11720.530014,W,38.3,325.7,040810,,,A*45
$GPRMC,213835.4,A,3308.667024,N,11720.551935,W,38.2,323.4,040810,,,A*46
$GPRMC,213838.4,A,3308.690332,N,11720.576480,W,37.4,319.9,040810,,,A*4C
$GPRMC,213841.4,A,3308.712430,N,11720.599778,W,36.4,321.3,040810,,,A*49
$GPRMC,213844.4,A,3308.735875,N,11720.622107,W,35.2,322.4,040810,,,A*48
$GPRMC,213847.4,A,3308.759323,N,11720.642345,W,34.4,323.5,040810,,,A*4C
$GPRMC,213850.4,A,3308.782041,N,11720.661472,W,32.8,324.0,040810,,,A*41
$GPRMC,213853.4,A,3308.803848,N,11720.679581,W,30.1,325.1,040810,,,A*4A
$GPRMC,213856.4,A,3308.821505,N,11720.693676,W,24.2,326.0,040810,,,A*40
$GPRMC,213859.4,A,3308.837058,N,11720.705780,W,22.4,326.4,040810,,,A*47
$GPRMC,213902.4,A,3308.851266,N,11720.717983,W,21.2,325.6,040810,,,A*4D
$GPRMC,213905.4,A,3308.865661,N,11720.729089,W,21.4,325.0,040810,,,A*40
$GPRMC,213908.4,A,3308.880258,N,11720.742454,W,22.3,323.9,040810,,,A*4A
$GPRMC,213911.4,A,3308.896943,N,11720.755238,W,24.0,326.0,040810,,,A*47
$GPRMC,213914.4,A,3308.914958,N,11720.767744,W,25.0,327.4,040810,,,A*48
$GPRMC,213917.4,A,3308.933074,N,11720.781613,W,25.5,328.0,040810,,,A*4C
$GPRMC,213920.4,A,3308.951184,N,11720.794687,W,25.0,328.2,040810,,,A*4C
$GPRMC,213923.4,A,3308.968593,N,11720.807260,W,24.3,328.3,040810,,,A*4C
$GPRMC,213926.4,A,3308.985777,N,11720.819698,W,23.0,328.0,040810,,,A*49
$GPRMC,213929.4,A,3309.002888,N,11720.831036,W,22.5,330.1,040810,,,A*4A
$GPRMC,213932.4,A,3309.018189,N,11720.843038,W,23.0,327.4,040810,,,A*4F
$GPRMC,213935.4,A,3309.034087,N,11720.855400,W,23.4,326.5,040810,,,A*45
$GPRMC,213938.4,A,3309.049512,N,11720.868178,W,23.2,325.8,040810,,,A*47
$GPRMC,213941.4,A,3309.066960,N,11720.882052,W,23.1,325.7,040810,,,A*4C
$GPRMC,213944.4,A,3309.082936,N,11720.895017,W,22.8,325.7,040810,,,A*4F
$GPRMC,213947.4,A,3309.099146,N,11720.908053,W,23.9,327.1,040810,,,A*48
$GPRMC,213950.4,A,3309.118014,N,11720.920726,W,25.6,328.4,040810,,,A*4C
$GPRMC,213953.4,A,3309.135098,N,11720.933205,W,24.8,329.2,040810,,,A*4A
$GPRMC,213956.4,A,3309.151232,N,11720.946474,W,25.1,330.2,040810,,,A*4D
$GPRMC,213959.4,A,3309.172181,N,11720.960580,W,29.1,330.3,040810,,,A*4B
$GPRMC,214002.4,A,3309.193790,N,11720.974674,W,28.3,331.0,040810,,,A*4E
$GPRMC,214005.4,A,3309.212030,N,11720.988291,W,25.5,329.5,040810,,,A*45
$GPRMC,214008.4,A,3309.229549,N,11721.000763,W,23.4,331.6,040810,,,A*46
$GPRMC,214011.4,A,3309.243309,N,11721.010545,W,17.4,332.2,040810,,,A*47
$GPRMC,214014.4,A,3309.251481,N,11721.015960,W,11.7,332.9,040810,,,A*46
$GPRMC,214017.4,A,3309.260099,N,11721.021795,W,12.9,329.0,040810,,,A*47
$GPRMC,214020.4,A,3309.274218,N,11721.030281,W,19.6,331.5,040810,,,A*45
$GPRMC,214023.4,A,3309.290536,N,11721.039525,W,20.1,337.3,040810,,,A*4A
$GPRMC,214026.4,A,3309.311345,N,11721.042408,W,22.3,350.6,040810,,,A*43
$GPRMC,214029.4,A,3309.331005,N,11721.044892,W,23.2,355.4,040810,,,A*47
$GPRMC,214032.4,A,3309.352813,N,11721.045711,W,22.4,0.6,040810,,,A*44
$GPRMC,214035.4,A,3309.372642,N,11721.043639,W,22.7,5.8,040810,,,A*4E
$GPRMC,214038.4,A,3309.389579,N,11721.041371,W,20.6,6.5,040810,,,A*4A
$GPRMC,214041.4,A,3309.405595,N,11721.039171,W,18.9,5.1,040810,,,A*4B
$GPRMC,214044.4,A,3309.419600,N,11721.037313,W,17.4,6.2,040810,,,A*46
$GPRMC,214047.4,A,3309.431158,N,11721.036627,W,13.5,1.8,040810,,,A*4E
$GPRMC,214050.4,A,3309.434139,N,11721.036454,W,5.5,2.6,040810,,,A*76
$GPRMC,214056.4,A,3309.444270,N,11721.036104,W,8.9,355.2,040810,,,A*7D
$GPRMC,214059.4,A,3309.453883,N,11721.037213,W,12.5,352.6,040810,,,A*42
$GPRMC,214102.4,A,3309.467219,N,11721.039856,W,15.8,343.5,040810,,,A*4F
$GPRMC,214105.4,A,3309.480711,N,11721.045086,W,17.0,339.6,040810,,,A*46
$GPRMC,214108.4,A,3309.493804,N,11721.052783,W,18.6,331.1,040810,,,A*40
$GPRMC,214111.4,A,3309.505102,N,11721.062059,W,16.8,328.3,040810,,,A*40
$GPRMC,214114.4,A,3309.515503,N,11721.070194,W,13.1,324.8,040810,,,A*49
$GPRMC,214147.4,A,3309.535383,N,11721.084430,W,5.6,331.9,040810,,,A*76
$GPRMC,214150.4,A,3309.546324,N,11721.095597,W,13.3,321.1,040810,,,A*4E
$GPRMC,214153.4,A,3309.559024,N,11721.105862,W,17.1,325.5,040810,,,A*49
$GPRMC,214156.4,A,3309.574133,N,11721.118513,W,19.2,322.6,040810,,,A*4A
$GPRMC,214159.4,A,3309.587392,N,11721.129463,W,17.9,325.4,040810,,,A*44
$GPRMC,214202.4,A,3309.600349,N,11721.139742,W,18.1,325.1,040810,,,A*40
$GPRMC,214205.4,A,3309.613309,N,11721.149672,W,19.3,327.7,040810,,,A*43
$GPRMC,214208.4,A,3309.626454,N,11721.160397,W,17.3,327.9,040810,,,A*42
$GPRMC,214211.4,A,3309.635682,N,11721.166945,W,11.6,330.7,040810,,,A*49
$GPRMC,214214.4,A,3309.641258,N,11721.173664,W,8.7,324.6,040810,,,A*79
$GPRMC,214217.4,A,3309.649028,N,11721.179596,W,11.8,323.1,040810,,,A*44
$GPRMC,214220.4,A,3309.660532,N,11721.189913,W,18.4,321.2,040810,,,A*4F
$GPRMC,214223.4,A,3309.675625,N,11721.201647,W,22.0,325.6,040810,,,A*4D
$GPRMC,214226.4,A,3309.692612,N,11721.214428,W,22.8,326.9,040810,,,A*4E
$GPRMC,214229.4,A,3309.709492,N,11721.227724,W,24.5,330.6,040810,,,A*44
$GPRMC,214232.4,A,3309.727779,N,11721.238972,W,24.1,334.9,040810,,,A*48
$GPRMC,214235.4,A,3309.746596,N,11721.248422,W,23.4,341.0,040810,,,A*4D
$GPRMC,214238.4,A,3309.763888,N,11721.254066,W,21.0,347.0,040810,,,A*4C
$GPRMC,214241.4,A,3309.781303,N,11721.257941,W,20.7,351.0,040810,,,A*48
$GPRMC,214244.4,A,3309.796870,N,11721.260253,W,19.5,353.8,040810,,,A*4A
$GPRMC,214247.4,A,3309.812848,N,11721.261356,W,19.5,358.6,040810,,,A*41
$GPRMC,214250.4,A,3309.830080,N,11721.260872,W,21.2,2.6,040810,,,A*47
$GPRMC,214253.4,A,3309.848665,N,11721.259861,W,22.0,3.1,040810,,,A*49
$GPRMC,214256.4,A,3309.867750,N,11721.258214,W,23.1,3.4,040810,,,A*4A
$GPRMC,214259.4,A,3309.887184,N,11721.256400,W,24.4,4.2,040810,,,A*4A
$GPRMC,214302.4,A,3309.908561,N,11721.256403,W,25.4,358.4,040810,,,A*42
$GPRMC,214305.4,A,3309.931609,N,11721.259976,W,29.0,348.5,040810,,,A*4A
$GPRMC,214308.4,A,3309.956129,N,11721.269163,W,31.0,341.1,040810,,,A*48
$GPRMC,214311.4,A,3309.980042,N,11721.281215,W,31.5,332.4,040810,,,A*47
$GPRMC,214314.4,A,3310.002584,N,11721.298105,W,31.4,324.0,040810,,,A*4E
$GPRMC,214317.4,A,3310.025283,N,11721.317574,W,36.4,325.1,040810,,,A*4B
$GPRMC,214320.4,A,3310.051270,N,11721.339490,W,39.3,324.5,040810,,,A*4A
$GPRMC,214323.4,A,3310.077963,N,11721.363109,W,40.5,324.1,040810,,,A*42
$GPRMC,214326.4,A,3310.105104,N,11721.385526,W,39.1,325.1,040810,,,A*40
$GPRMC,214329.4,A,3310.131806,N,11721.406864,W,38.4,325.5,040810,,,A*44
$GPRMC,214332.4,A,3310.157587,N,11721.428521,W,38.4,325.0,040810,,,A*4F
$GPRMC,214335.4,A,3310.182234,N,11721.449850,W,37.2,324.4,040810,,,A*4F
$GPRMC,214338.4,A,3310.207214,N,11721.470837,W,34.3,324.2,040810,,,A*41
$GPRMC,214341.4,A,3310.230335,N,11721.489611,W,31.4,326.0,040810,,,A*47
$GPRMC,214344.4,A,3310.249583,N,11721.505921,W,27.1,326.2,040810,,,A*4E
$GPRMC,214347.4,A,3310.266082,N,11721.520339,W,24.4,327.1,040810,,,A*44
$GPRMC,214350.4,A,3310.281526,N,11721.533181,W,22.7,325.2,040810,,,A*47
$GPRMC,214353.4,A,3310.296914,N,11721.545647,W,22.3,325.9,040810,,,A*4C
$GPRMC,214356.4,A,3310.312087,N,11721.557496,W,22.3,326.0,040810,,,A*40
$GPRMC,214359.4,A,3310.325749,N,11721.569231,W,20.5,326.9,040810,,,A*45
$GPRMC,214402.4,A,3310.340841,N,11721.580919,W,21.8,325.8,040810,,,A*40
$GPRMC,214405.4,A,3310.356447,N,11721.596250,W,24.4,322.3,040810,,,A*4E
$GPRMC,214408.4,A,3310.373534,N,11721.611170,W,25.8,324.0,040810,,,A*44
$GPRMC,214411.4,A,3310.390998,N,11721.625534,W,26.2,325.0,040810,,,A*40
$GPRMC,214414.4,A,3310.409930,N,11721.640665,W,26.4,325.8,040810,,,A*4A
$GPRMC,214417.4,A,3310.428596,N,11721.655335,W,25.9,326.0,040810,,,A*4B
$GPRMC,214420.4,A,3310.445155,N,11721.670064,W,24.1,324.7,040810,,,A*43
$GPRMC,214423.4,A,3310.461720,N,11721.683167,W,23.0,325.5,040810,,,A*49
$GPRMC,214426.4,A,3310.478156,N,11721.697015,W,23.2,325.8,040810,,,A*4D
$GPRMC,214429.4,A,3310.493739,N,11721.710176,W,22.9,326.4,040810,,,A*47
$GPRMC,214432.4,A,3310.510344,N,11721.724950,W,26.5,323.0,040810,,,A*4B
$GPRMC,214435.4,A,3310.529319,N,11721.741688,W,28.0,323.9,040810,,,A*45
$GPRMC,214438.4,A,3310.549768,N,11721.757488,W,28.1,324.7,040810,,,A*41
$GPRMC,214441.4,A,3310.567360,N,11721.773291,W,26.3,324.1,040810,,,A*4D
$GPRMC,214444.4,A,3310.586081,N,11721.787628,W,25.7,325.3,040810,,,A*42
$GPRMC,214447.4,A,3310.602550,N,11721.802660,W,24.2,324.2,040810,,,A*4D
$GPRMC,214450.4,A,3310.617461,N,11721.817125,W,23.9,323.3,040810,,,A*44
$GPRMC,214453.4,A,3310.633798,N,11721.830782,W,23.7,323.8,040810,,,A*4F
$GPRMC,214456.4,A,3310.650819,N,11721.844547,W,23.9,324.1,040810,,,A*41
$GPRMC,214459.4,A,3310.667316,N,11721.858421,W,24.0,325.1,040810,,,A*4D
$GPRMC,214502.4,A,3310.681920,N,11721.869972,W,18.8,327.6,040810,,,A*4E
$GPRMC,214505.4,A,3310.689521,N,11721.877003,W,10.3,332.7,040810,,,A*4A
$GPRMC,214517.4,A,3310.696540,N,11721.880594,W,6.0,322.1,040810,,,A*70
$GPRMC,214520.4,A,3310.705395,N,11721.887613,W,14.1,322.7,040810,,,A*4E
$GPRMC,214523.4,A,3310.718854,N,11721.898477,W,20.3,322.8,040810,,,A*43
$GPRMC,214526.4,A,3310.737345,N,11721.914870,W,28.4,322.3,040810,,,A*4A
$GPRMC,214529.4,A,3310.759000,N,11721.934554,W,33.5,324.0,040810,,,A*48
$GPRMC,214532.4,A,3310.783207,N,11721.953499,W,34.4,325.3,040810,,,A*45
$GPRMC,214535.4,A,3310.806889,N,11721.972748,W,33.9,324.9,040810,,,A*41
$GPRMC,214538.4,A,3310.829713,N,11721.992981,W,32.4,324.9,040810,,,A*44
$GPRMC,214541.4,A,3310.850494,N,11722.011131,W,31.1,324.4,040810,,,A*41
$GPRMC,214544.4,A,3310.871524,N,11722.029030,W,29.8,324.9,040810,,,A*4B
$GPRMC,214547.4,A,3310.892789,N,11722.045597,W,29.9,325.4,040810,,,A*4F
$GPRMC,214550.4,A,3310.912366,N,11722.061686,W,27.7,324.8,040810,,,A*4D
$GPRMC,214553.4,A,3310.929228,N,11722.075886,W,24.2,324.9,040810,,,A*41
$GPRMC,214556.4,A,3310.942191,N,11722.091009,W,21.2,323.3,040810,,,A*45
$GPRMC,214559.4,A,3310.955183,N,11722.102625,W,19.3,323.1,040810,,,A*44
$GPRMC,214602.4,A,3310.970529,N,11722.113651,W,18.6,325.4,040810,,,A*4E
$GPRMC,214605.4,A,3310.979179,N,11722.120868,W,11.1,329.7,040810,,,A*44
$GPRMC,214608.4,A,3310.983184,N,11722.124539,W,5.9,333.3,040810,,,A*71
$GPRMC,214617.4,A,3310.985632,N,11722.126002,W,5.1,324.2,040810,,,A*73
$GPRMC,214620.4,A,3310.991176,N,11722.131670,W,11.5,315.0,040810,,,A*41
$GPRMC,214623.4,A,3311.002030,N,11722.141704,W,16.9,321.1,040810,,,A*4B
$GPRMC,214626.4,A,3311.014477,N,11722.152216,W,18.0,323.9,040810,,,A*47
$GPRMC,214629.4,A,3311.025827,N,11722.163610,W,18.2,322.1,040810,,,A*48
$GPRMC,214632.4,A,3311.040967,N,11722.175471,W,20.7,321.8,040810,,,A*42
$GPRMC,214635.4,A,3311.055678,N,11722.189494,W,22.4,322.5,040810,,,A*47
$GPRMC,214638.4,A,3311.071273,N,11722.202905,W,21.9,324.4,040810,,,A*4F
$GPRMC,214641.4,A,3311.087064,N,11722.216173,W,22.8,324.1,040810,,,A*47
$GPRMC,214644.4,A,3311.102661,N,11722.228857,W,22.2,324.9,040810,,,A*4D
$GPRMC,214647.4,A,3311.117918,N,11722.241333,W,22.2,325.1,040810,,,A*44
$GPRMC,214650.4,A,3311.133919,N,11722.255528,W,22.1,324.6,040810,,,A*49
$GPRMC,214653.4,A,3311.149912,N,11722.269040,W,22.4,324.4,040810,,,A*4F
$GPRMC,214656.4,A,3311.165728,N,11722.282873,W,22.8,324.4,040810,,,A*42
$GPRMC,214659.4,A,3311.181678,N,11722.296582,W,24.1,324.0,040810,,,A*4E
$GPRMC,214702.4,A,3311.196558,N,11722.309849,W,22.3,324.8,040810,,,A*47
$GPRMC,214705.4,A,3311.212270,N,11722.322472,W,22.1,324.1,040810,,,A*44
$GPRMC,214708.4,A,3311.227317,N,11722.334037,W,22.1,325.8,040810,,,A*45
$GPRMC,214711.4,A,3311.243466,N,11722.347471,W,22.4,325.7,040810,,,A*46
$GPRMC,214714.4,A,3311.258825,N,11722.361031,W,23.2,325.2,040810,,,A*44
$GPRMC,214717.4,A,3311.274760,N,11722.372885,W,22.7,327.0,040810,,,A*46
$GPRMC,214720.4,A,3311.291726,N,11722.384887,W,21.4,328.0,040810,,,A*4F
$GPRMC,214723.4,A,3311.307416,N,11722.396344,W,21.0,329.3,040810,,,A*43
$GPRMC,214726.4,A,3311.321854,N,11722.408156,W,21.0,324.9,040810,,,A*4E
$GPRMC,214729.4,A,3311.336512,N,11722.420460,W,21.8,323.5,040810,,,A*41
$GPRMC,214732.4,A,3311.352691,N,11722.433023,W,24.1,325.3,040810,,,A*4C
$GPRMC,214735.4,A,3311.369125,N,11722.446641,W,23.6,324.7,040810,,,A*4E
$GPRMC,214738.4,A,3311.384701,N,11722.460134,W,22.8,323.1,040810,,,A*4F
$GPRMC,214741.4,A,3311.401300,N,11722.473676,W,23.1,324.9,040810,,,A*4A
$GPRMC,214744.4,A,3311.416378,N,11722.486239,W,21.5,324.3,040810,,,A*4F
$GPRMC,214747.4,A,3311.430589,N,11722.498566,W,21.0,325.0,040810,,,A*45
$GPRMC,214750.4,A,3311.444693,N,11722.510208,W,20.0,324.8,040810,,,A*4E
$GPRMC,214753.4,A,3311.458693,N,11722.522216,W,21.0,324.7,040810,,,A*40
$GPRMC,214756.4,A,3311.472855,N,11722.534925,W,21.7,323.2,040810,,,A*40
$GPRMC,214759.4,A,3311.487197,N,11722.547966,W,21.3,323.3,040810,,,A*44
$GPRMC,214802.4,A,3311.502125,N,11722.560430,W,21.5,325.2,040810,,,A*4A
$GPRMC,214805.4,A,3311.516487,N,11722.572923,W,22.2,324.7,040810,,,A*49
$GPRMC,214808.4,A,3311.531883,N,11722.585810,W,22.4,324.4,040810,,,A*45
$GPRMC,214811.4,A,3311.547287,N,11722.598294,W,21.0,323.2,040810,,,A*4E
$GPRMC,214814.4,A,3311.561386,N,11722.610326,W,20.8,324.4,040810,,,A*4C
$GPRMC,214817.4,A,3311.575966,N,11722.622580,W,20.8,323.7,040810,,,A*41
$GPRMC,214820.4,A,3311.590184,N,11722.634647,W,21.1,326.4,040810,,,A*4B
$GPRMC,214823.4,A,3311.604234,N,11722.645952,W,19.8,325.4,040810,,,A*42
$GPRMC,214826.4,A,3311.617586,N,11722.656476,W,19.2,325.8,040810,,,A*44
$GPRMC,214829.4,A,3311.630567,N,11722.667293,W,18.8,326.1,040810,,,A*4F
$GPRMC,214832.4,A,3311.642049,N,11722.677175,W,18.0,325.0,040810,,,A*49
$GPRMC,214835.4,A,3311.655319,N,11722.687087,W,16.7,326.9,040810,,,A*4E
$GPRMC,214838.4,A,3311.663747,N,11722.694330,W,12.0,328.3,040810,,,A*43
$GPRMC,214841.4,A,3311.670875,N,11722.700483,W,10.4,328.3,040810,,,A*44
$GPRMC,214844.4,A,3311.678122,N,11722.705753,W,9.5,329.7,040810,,,A*75
$GPRMC,214853.4,A,3311.683288,N,11722.708726,W,4.7,323.9,040810,,,A*70
$GPRMC,214856.4,A,3311.689485,N,11722.714106,W,10.4,322.3,040810,,,A*40
$GPRMC,214859.4,A,3311.697468,N,11722.721976,W,12.8,320.6,040810,,,A*43
$GPRMC,214902.4,A,3311.708700,N,11722.731472,W,16.1,323.1,040810,,,A*47
$GPRMC,214905.4,A,3311.720874,N,11722.741802,W,17.8,323.5,040810,,,A*46
$GPRMC,214908.4,A,3311.732053,N,11722.752581,W,17.8,322.5,040810,,,A*40
$GPRMC,214911.4,A,3311.744677,N,11722.763044,W,17.4,323.4,040810,,,A*4B
$GPRMC,214914.4,A,3311.756752,N,11722.773843,W,17.0,324.3,040810,,,A*41
$GPRMC,214917.4,A,3311.767466,N,11722.783715,W,16.6,323.5,040810,,,A*41
$GPRMC,214920.4,A,3311.779187,N,11722.793159,W,17.2,326.0,040810,,,A*4A
$GPRMC,214923.4,A,3311.792012,N,11722.803446,W,17.7,324.4,040810,,,A*4F
$GPRMC,214926.4,A,3311.805621,N,11722.813350,W,18.3,325.8,040810,,,A*4A
$GPRMC,214929.4,A,3311.814528,N,11722.822449,W,13.9,323.8,040810,,,A*45
$GPRMC,214932.4,A,3311.823786,N,11722.829384,W,11.6,325.9,040810,,,A*4A
$GPRMC,214935.4,A,3311.832847,N,11722.835396,W,11.8,325.3,040810,,,A*45
$GPRMC,214938.4,A,3311.840017,N,11722.843504,W,12.8,320.8,040810,,,A*41
$GPRMC,214941.4,A,3311.850714,N,11722.853589,W,17.4,320.1,040810,,,A*4E
$GPRMC,214944.4,A,3311.866746,N,11722.867141,W,23.5,321.5,040810,,,A*4D
$GPRMC,214947.4,A,3311.885497,N,11722.883240,W,27.1,323.7,040810,,,A*44
$GPRMC,214950.4,A,3311.907378,N,11722.898745,W,28.4,325.0,040810,,,A*4E
