NMEA Sentence Code,UTC Time,Status,Latitude,Latitude Direction,Longitude,Longitude Direction,Speed (knots),Track Angle (degrees true),Date,MagneticVariation,Magnetic Variation Direction,[FAA Mode]-Optional,Checksum
$GPRMC,010712.000,A,3256.0110,N,11714.1778,W,16.44,346.6,191110,,*14
$GPRMC,010715.000,A,3256.0225,N,11714.1811,W,11.48,344.8,191110,,*11
$GPRMC,010718.000,A,3256.0319,N,11714.1838,W,12.43,346.7,191110,,*1C
$GPRMC,010721.000,A,3256.0420,N,11714.1802,W,15.45,46.3,191110,,*24
$GPRMC,010724.000,A,3256.0505,N,11714.1630,W,24.11,59.3,191110,,*25
$GPRMC,010727.000,A,3256.0623,N,11714.1376,W,29.44,58.2,191110,,*2B
$GPRMC,010730.000,A,3256.0747,N,11714.1163,W,21.08,55.1,191110,,*26
$GPRMC,010733.000,A,3256.0831,N,11714.1004,W,18.26,57.8,191110,,*26
$GPRMC,010736.000,A,3256.0902,N,11714.0816,W,24.53,66.2,191110,,*2D
$GPRMC,010739.000,A,3256.0996,N,11714.0551,W,30.93,65.3,191110,,*2A
$GPRMC,010742.000,A,3256.1109,N,11714.0253,W,32.06,65.4,191110,,*25
$GPRMC,010745.000,A,3256.1223,N,11713.9949,W,34.09,65.1,191110,,*2B
$GPRMC,010748.000,A,3256.1343,N,11713.9637,W,34.43,65.6,191110,,*2E
$GPRMC,010751.000,A,3256.1453,N,11713.9332,W,32.63,66.6,191110,,*27
$GPRMC,010754.000,A,3256.1557,N,11713.9010,W,36.02,69.5,191110,,*2B
$GPRMC,010757.000,A,3256.1661,N,11713.8671,W,37.65,70.1,191110,,*22
$GPRMC,010800.000,A,3256.1771,N,11713.8305,W,40.08,70.1,191110,,*22
$GPRMC,010803.000,A,3256.1878,N,11713.7941,W,35.74,70.3,191110,,*29
$GPRMC,010806.000,A,3256.1965,N,11713.7661,W,24.58,70.0,191110,,*21
$GPRMC,010809.000,A,3256.2023,N,11713.7481,W,13.44,68.1,191110,,*2B
$GPRMC,010854.000,A,3256.2061,N,11713.7400,W,11.22,65.6,191110,,*24
$GPRMC,010857.000,A,3256.2126,N,11713.7299,W,13.62,26.1,191110,,*25
$GPRMC,010900.000,A,3256.2260,N,11713.7307,W,19.84,340.6,191110,,*17
$GPRMC,010903.000,A,3256.2458,N,11713.7416,W,29.09,335.5,191110,,*19
$GPRMC,010906.000,A,3256.2673,N,11713.7537,W,24.79,334.7,191110,,*1C
$GPRMC,010909.000,A,3256.2821,N,11713.7626,W,15.09,334.6,191110,,*1D
$GPRMC,010918.000,A,3256.2972,N,11713.7595,W,18.87,50.1,191110,,*2C
$GPRMC,010921.000,A,3256.3052,N,11713.7389,W,23.61,68.0,191110,,*2D
$GPRMC,010924.000,A,3256.3022,N,11713.7166,W,22.95,122.8,191110,,*11
$GPRMC,010927.000,A,3256.2856,N,11713.7038,W,23.73,160.8,191110,,*1D
$GPRMC,010930.000,A,3256.2664,N,11713.7099,W,23.74,219.7,191110,,*1A
$GPRMC,010933.000,A,3256.2537,N,11713.7304,W,28.38,235.0,191110,,*11
$GPRMC,010936.000,A,3256.2402,N,11713.7592,W,37.05,240.9,191110,,*11
$GPRMC,010939.000,A,3256.2221,N,11713.7985,W,46.96,240.9,191110,,*1F
$GPRMC,010942.000,A,3256.2024,N,11713.8456,W,56.81,243.4,191110,,*11
$GPRMC,010945.000,A,3256.1811,N,11713.8997,W,59.37,245.0,191110,,*1B
$GPRMC,010948.000,A,3256.1606,N,11713.9539,W,58.69,245.6,191110,,*1B
$GPRMC,010951.000,A,3256.1404,N,11714.0059,W,56.36,245.3,191110,,*1F
$GPRMC,010954.000,A,3256.1211,N,11714.0566,W,55.81,245.1,191110,,*1C
$GPRMC,010957.000,A,3256.1015,N,11714.1064,W,54.30,244.7,191110,,*13
$GPRMC,011000.000,A,3256.0818,N,11714.1553,W,54.24,244.5,191110,,*1B
$GPRMC,011003.000,A,3256.0627,N,11714.2032,W,52.47,244.9,191110,,*14
$GPRMC,011006.000,A,3256.0429,N,11714.2499,W,52.60,242.3,191110,,*11
$GPRMC,011009.000,A,3256.0198,N,11714.2942,W,52.51,237.6,191110,,*1F
$GPRMC,011012.000,A,3255.9950,N,11714.3364,W,50.98,235.8,191110,,*17
$GPRMC,011015.000,A,3255.9709,N,11714.3778,W,49.63,235.5,191110,,*1A
$GPRMC,011018.000,A,3255.9448,N,11714.4156,W,50.04,229.1,191110,,*1C
$GPRMC,011021.000,A,3255.9124,N,11714.4475,W,49.89,218.0,191110,,*13
$GPRMC,011024.000,A,3255.8754,N,11714.4694,W,49.77,204.9,191110,,*1E
$GPRMC,011027.000,A,3255.8343,N,11714.4804,W,50.38,192.5,191110,,*1B
$GPRMC,011030.000,A,3255.7923,N,11714.4815,W,48.77,180.0,191110,,*1A
$GPRMC,011033.000,A,3255.7500,N,11714.4709,W,52.32,167.9,191110,,*1C
$GPRMC,011036.000,A,3255.7063,N,11714.4540,W,55.17,163.9,191110,,*12
$GPRMC,011039.000,A,3255.6609,N,11714.4368,W,57.49,163.1,191110,,*1B
$GPRMC,011042.000,A,3255.6144,N,11714.4191,W,58.29,163.1,191110,,*14
$GPRMC,011045.000,A,3255.5680,N,11714.4023,W,58.13,163.3,191110,,*1C
$GPRMC,011048.000,A,3255.5214,N,11714.3854,W,57.00,163.3,191110,,*1A
$GPRMC,011051.000,A,3255.4763,N,11714.3693,W,56.29,163.1,191110,,*1B
$GPRMC,011054.000,A,3255.4315,N,11714.3525,W,56.53,163.0,191110,,*19
$GPRMC,011057.000,A,3255.3861,N,11714.3349,W,57.56,161.4,191110,,*1B
$GPRMC,011100.000,A,3255.3408,N,11714.3138,W,58.07,158.2,191110,,*18
$GPRMC,011103.000,A,3255.2964,N,11714.2898,W,58.53,154.9,191110,,*19
$GPRMC,011106.000,A,3255.2532,N,11714.2626,W,59.20,151.7,191110,,*16
$GPRMC,011109.000,A,3255.2110,N,11714.2323,W,58.22,148.2,191110,,*13
$GPRMC,011112.000,A,3255.1712,N,11714.1998,W,56.63,144.8,191110,,*1A
$GPRMC,011115.000,A,3255.1336,N,11714.1652,W,57.48,141.7,191110,,*14
$GPRMC,011118.000,A,3255.0968,N,11714.1278,W,58.95,138.8,191110,,*1B
$GPRMC,011121.000,A,3255.0614,N,11714.0872,W,58.56,135.8,191110,,*16
$GPRMC,011124.000,A,3255.0284,N,11714.0458,W,57.56,133.5,191110,,*1E
$GPRMC,011127.000,A,3254.9962,N,11714.0033,W,57.35,131.6,191110,,*1B
$GPRMC,011130.000,A,3254.9648,N,11713.9606,W,57.29,131.1,191110,,*1E
$GPRMC,011133.000,A,3254.9330,N,11713.9188,W,55.93,132.3,191110,,*14
$GPRMC,011136.000,A,3254.8988,N,11713.8805,W,56.98,137.5,191110,,*1F
$GPRMC,011139.000,A,3254.8615,N,11713.8461,W,56.83,143.0,191110,,*19
$GPRMC,011142.000,A,3254.8212,N,11713.8166,W,56.40,148.4,191110,,*14
$GPRMC,011145.000,A,3254.7790,N,11713.7897,W,57.19,151.5,191110,,*1F
$GPRMC,011148.000,A,3254.7362,N,11713.7643,W,56.79,152.8,191110,,*15
$GPRMC,011151.000,A,3254.6933,N,11713.7387,W,56.97,152.4,191110,,*13
$GPRMC,011154.000,A,3254.6521,N,11713.7133,W,54.48,152.2,191110,,*12
$GPRMC,011157.000,A,3254.6112,N,11713.6873,W,56.17,152.0,191110,,*13
$GPRMC,011200.000,A,3254.5693,N,11713.6611,W,56.98,152.1,191110,,*13
$GPRMC,011203.000,A,3254.5283,N,11713.6357,W,52.53,152.1,191110,,*11
$GPRMC,011206.000,A,3254.4911,N,11713.6125,W,49.27,152.3,191110,,*19
$GPRMC,011209.000,A,3254.4564,N,11713.5914,W,44.21,153.3,191110,,*1B
$GPRMC,011212.000,A,3254.4248,N,11713.5738,W,40.50,154.7,191110,,*19
$GPRMC,011215.000,A,3254.3946,N,11713.5579,W,41.03,155.8,191110,,*12
$GPRMC,011218.000,A,3254.3622,N,11713.5411,W,43.31,155.9,191110,,*1F
$GPRMC,011221.000,A,3254.3293,N,11713.5244,W,42.30,157.3,191110,,*15
$GPRMC,011224.000,A,3254.2971,N,11713.5107,W,40.84,160.6,191110,,*1E
$GPRMC,011227.000,A,3254.2652,N,11713.4994,W,38.57,163.5,191110,,*11
$GPRMC,011230.000,A,3254.2356,N,11713.4910,W,33.39,166.7,191110,,*1E
$GPRMC,011233.000,A,3254.2128,N,11713.4854,W,23.50,167.8,191110,,*17
$GPRMC,011236.000,A,3254.1954,N,11713.4819,W,19.88,170.2,191110,,*1B
$GPRMC,011239.000,A,3254.1811,N,11713.4797,W,14.67,172.4,191110,,*15
$GPRMC,011242.000,A,3254.1724,N,11713.4791,W,8.88,173.7,191110,,*28
$GPRMC,011245.000,A,3254.1656,N,11713.4781,W,7.92,173.4,191110,,*2D
$GPRMC,011248.000,A,3254.1597,N,11713.4770,W,5.17,173.6,191110,,*2D
$GPRMC,011251.000,A,3254.1558,N,11713.4760,W,7.29,174.5,191110,,*2C
$GPRMC,011254.000,A,3254.1470,N,11713.4754,W,11.01,175.7,191110,,*1B
$GPRMC,011257.000,A,3254.1390,N,11713.4755,W,5.17,176.0,191110,,*26
$GPRMC,011303.000,A,3254.1361,N,11713.4758,W,5.72,176.4,191110,,*22
$GPRMC,011306.000,A,3254.1287,N,11713.4758,W,9.04,177.2,191110,,*24
$GPRMC,011312.000,A,3254.1167,N,11713.4764,W,11.04,180.4,191110,,*14
$GPRMC,011315.000,A,3254.1066,N,11713.4763,W,11.28,181.5,191110,,*1A
$GPRMC,011318.000,A,3254.0981,N,11713.4763,W,7.87,182.4,191110,,*26
$GPRMC,011324.000,A,3254.0928,N,11713.4766,W,8.56,183.9,191110,,*20
$GPRMC,011327.000,A,3254.0848,N,11713.4773,W,10.35,185.6,191110,,*15
$GPRMC,011330.000,A,3254.0734,N,11713.4784,W,15.53,186.6,191110,,*19
$GPRMC,011333.000,A,3254.0580,N,11713.4802,W,18.88,187.4,191110,,*1E
$GPRMC,011336.000,A,3254.0435,N,11713.4826,W,16.55,188.5,191110,,*12
$GPRMC,011339.000,A,3254.0309,N,11713.4853,W,14.47,190.6,191110,,*1C
$GPRMC,011342.000,A,3254.0196,N,11713.4880,W,12.79,192.3,191110,,*16
$GPRMC,011345.000,A,3254.0096,N,11713.4904,W,12.67,190.7,191110,,*14
$GPRMC,011348.000,A,3253.9976,N,11713.4928,W,14.75,191.0,191110,,*1D
$GPRMC,011351.000,A,3253.9875,N,11713.4960,W,10.30,194.7,191110,,*1C
$GPRMC,011354.000,A,3253.9810,N,11713.4982,W,5.57,194.4,191110,,*20
$GPRMC,011406.000,A,3253.9766,N,11713.4998,W,4.92,194.4,191110,,*2D
$GPRMC,011409.000,A,3253.9704,N,11713.5018,W,10.28,195.0,191110,,*17
$GPRMC,011412.000,A,3253.9600,N,11713.5056,W,14.03,196.1,191110,,*1D
$GPRMC,011415.000,A,3253.9476,N,11713.5100,W,15.20,197.1,191110,,*1A
$GPRMC,011418.000,A,3253.9344,N,11713.5150,W,17.18,197.7,191110,,*1B
$GPRMC,011421.000,A,3253.9199,N,11713.5204,W,19.45,197.5,191110,,*15
$GPRMC,011424.000,A,3253.9046,N,11713.5261,W,18.78,197.3,191110,,*19
$GPRMC,011427.000,A,3253.8900,N,11713.5317,W,18.56,197.6,191110,,*19
$GPRMC,011430.000,A,3253.8761,N,11713.5370,W,16.46,197.8,191110,,*16
$GPRMC,011433.000,A,3253.8639,N,11713.5419,W,14.21,198.0,191110,,*15
$GPRMC,011436.000,A,3253.8533,N,11713.5461,W,11.52,198.0,191110,,*17
$GPRMC,011439.000,A,3253.8462,N,11713.5487,W,5.23,197.4,191110,,*2D
$GPRMC,011445.000,A,3253.8432,N,11713.5496,W,5.52,198.8,191110,,*26
$GPRMC,011448.000,A,3253.8364,N,11713.5521,W,9.99,197.5,191110,,*2B
$GPRMC,011451.000,A,3253.8269,N,11713.5554,W,12.63,196.9,191110,,*1F
$GPRMC,011454.000,A,3253.8165,N,11713.5593,W,10.64,197.7,191110,,*14
$GPRMC,011457.000,A,3253.8069,N,11713.5632,W,12.70,198.1,191110,,*1C
$GPRMC,011500.000,A,3253.7962,N,11713.5674,W,12.87,198.3,191110,,*1A
$GPRMC,011503.000,A,3253.7871,N,11713.5708,W,10.65,197.8,191110,,*1A
$GPRMC,011506.000,A,3253.7790,N,11713.5737,W,9.79,198.1,191110,,*20
$GPRMC,011509.000,A,3253.7726,N,11713.5764,W,7.20,197.8,191110,,*20
$GPRMC,011512.000,A,3253.7674,N,11713.5782,W,6.70,198.4,191110,,*23
$GPRMC,011515.000,A,3253.7600,N,11713.5812,W,12.18,198.8,191110,,*16
$GPRMC,011518.000,A,3253.7491,N,11713.5856,W,13.19,198.5,191110,,*1C
$GPRMC,011521.000,A,3253.7375,N,11713.5900,W,17.40,198.2,191110,,*16
$GPRMC,011524.000,A,3253.7226,N,11713.5960,W,19.09,198.1,191110,,*12
$GPRMC,011527.000,A,3253.7083,N,11713.6019,W,16.12,198.0,191110,,*1C
$GPRMC,011530.000,A,3253.6962,N,11713.6062,W,14.64,197.1,191110,,*1C
$GPRMC,011533.000,A,3253.6838,N,11713.6101,W,16.80,195.9,191110,,*17
$GPRMC,011536.000,A,3253.6715,N,11713.6143,W,13.61,195.9,191110,,*1E
$GPRMC,011539.000,A,3253.6627,N,11713.6172,W,7.80,196.1,191110,,*22
$GPRMC,011542.000,A,3253.6556,N,11713.6192,W,11.53,193.4,191110,,*1C
$GPRMC,011545.000,A,3253.6445,N,11713.6222,W,13.59,192.6,191110,,*1B
$GPRMC,011548.000,A,3253.6353,N,11713.6247,W,8.88,192.2,191110,,*27
$GPRMC,011551.000,A,3253.6285,N,11713.6261,W,9.47,191.8,191110,,*2A
$GPRMC,011554.000,A,3253.6216,N,11713.6281,W,7.11,191.3,191110,,*2D
$GPRMC,011557.000,A,3253.6171,N,11713.6293,W,4.95,191.1,191110,,*22
$GPRMC,011600.000,A,3253.6114,N,11713.6305,W,8.14,189.3,191110,,*20
$GPRMC,011603.000,A,3253.6028,N,11713.6319,W,11.05,187.8,191110,,*1D
$GPRMC,011606.000,A,3253.5918,N,11713.6338,W,14.47,188.1,191110,,*17
$GPRMC,011609.000,A,3253.5792,N,11713.6362,W,12.69,187.6,191110,,*19
$GPRMC,011612.000,A,3253.5675,N,11713.6381,W,14.73,186.4,191110,,*18
$GPRMC,011615.000,A,3253.5536,N,11713.6390,W,18.98,185.3,191110,,*16
$GPRMC,011618.000,A,3253.5370,N,11713.6410,W,18.39,184.6,191110,,*1F
$GPRMC,011621.000,A,3253.5236,N,11713.6420,W,14.77,184.8,191110,,*1D
$GPRMC,011624.000,A,3253.5099,N,11713.6437,W,18.30,185.1,191110,,*1E
$GPRMC,011627.000,A,3253.4941,N,11713.6453,W,18.38,184.9,191110,,*13
$GPRMC,011630.000,A,3253.4809,N,11713.6464,W,13.17,184.6,191110,,*15
$GPRMC,011633.000,A,3253.4702,N,11713.6478,W,12.97,184.6,191110,,*16
$GPRMC,011636.000,A,3253.4589,N,11713.6488,W,13.99,184.3,191110,,*17
$GPRMC,011639.000,A,3253.4469,N,11713.6501,W,14.48,185.1,191110,,*1F
$GPRMC,011642.000,A,3253.4360,N,11713.6513,W,11.64,184.7,191110,,*12
$GPRMC,011645.000,A,3253.4238,N,11713.6530,W,16.17,185.2,191110,,*1F
$GPRMC,011648.000,A,3253.4092,N,11713.6543,W,16.67,185.4,191110,,*15
$GPRMC,011651.000,A,3253.3963,N,11713.6561,W,13.86,185.3,191110,,*10
$GPRMC,011654.000,A,3253.3869,N,11713.6570,W,8.94,185.0,191110,,*24
$GPRMC,011657.000,A,3253.3815,N,11713.6571,W,4.96,184.6,191110,,*24
$GPRMC,011700.000,A,3253.3760,N,11713.6576,W,7.32,184.8,191110,,*2E
$GPRMC,011703.000,A,3253.3693,N,11713.6579,W,8.11,185.1,191110,,*29
$GPRMC,011706.000,A,3253.3641,N,11713.6584,W,5.40,185.2,191110,,*2B
$GPRMC,011709.000,A,3253.3583,N,11713.6591,W,9.01,184.9,191110,,*2E
$GPRMC,011712.000,A,3253.3488,N,11713.6604,W,12.97,185.2,191110,,*1E
$GPRMC,011715.000,A,3253.3385,N,11713.6619,W,10.51,185.5,191110,,*10
$GPRMC,011718.000,A,3253.3295,N,11713.6625,W,11.31,185.1,191110,,*11
$GPRMC,011721.000,A,3253.3183,N,11713.6642,W,14.53,185.4,191110,,*1A
$GPRMC,011724.000,A,3253.3063,N,11713.6654,W,15.28,185.3,191110,,*1D
$GPRMC,011727.000,A,3253.2921,N,11713.6672,W,17.60,185.4,191110,,*1D
$GPRMC,011730.000,A,3253.2762,N,11713.6688,W,20.86,184.6,191110,,*18
$GPRMC,011733.000,A,3253.2611,N,11713.6700,W,16.15,184.5,191110,,*13
$GPRMC,011736.000,A,3253.2502,N,11713.6712,W,9.38,185.2,191110,,*23
$GPRMC,011739.000,A,3253.2434,N,11713.6725,W,7.64,183.1,191110,,*2E
$GPRMC,011742.000,A,3253.2348,N,11713.6727,W,13.62,183.0,191110,,*1E
$GPRMC,011745.000,A,3253.2201,N,11713.6742,W,19.54,184.4,191110,,*1A
$GPRMC,011748.000,A,3253.2065,N,11713.6755,W,11.09,185.7,191110,,*13
$GPRMC,011751.000,A,3253.1999,N,11713.6766,W,5.97,185.6,191110,,*21
$GPRMC,011754.000,A,3253.1936,N,11713.6769,W,10.58,184.5,191110,,*1B
$GPRMC,011757.000,A,3253.1834,N,11713.6781,W,13.82,184.7,191110,,*1B
$GPRMC,011800.000,A,3253.1719,N,11713.6791,W,14.16,184.7,191110,,*1D
$GPRMC,011803.000,A,3253.1593,N,11713.6796,W,16.80,181.4,191110,,*12
$GPRMC,011806.000,A,3253.1439,N,11713.6800,W,19.13,181.5,191110,,*12
$GPRMC,011809.000,A,3253.1284,N,11713.6810,W,17.86,183.7,191110,,*1E
$GPRMC,011812.000,A,3253.1151,N,11713.6821,W,14.61,184.4,191110,,*13
$GPRMC,011815.000,A,3253.1027,N,11713.6831,W,15.15,184.6,191110,,*15
$GPRMC,011818.000,A,3253.0916,N,11713.6839,W,11.44,184.7,191110,,*1B
$GPRMC,011821.000,A,3253.0827,N,11713.6849,W,9.18,184.8,191110,,*2A
$GPRMC,011824.000,A,3253.0754,N,11713.6859,W,7.74,185.0,191110,,*28
$GPRMC,011827.000,A,3253.0687,N,11713.6863,W,9.15,184.7,191110,,*22
$GPRMC,011830.000,A,3253.0608,N,11713.6871,W,9.62,184.6,191110,,*21
$GPRMC,011833.000,A,3253.0526,N,11713.6878,W,8.97,185.0,191110,,*28
$GPRMC,011836.000,A,3253.0451,N,11713.6901,W,12.50,194.2,191110,,*11
$GPRMC,011839.000,A,3253.0324,N,11713.6916,W,15.62,186.6,191110,,*1C
$GPRMC,011842.000,A,3253.0185,N,11713.6932,W,16.98,184.4,191110,,*19
$GPRMC,011845.000,A,3253.0047,N,11713.6941,W,15.69,184.7,191110,,*1B
$GPRMC,011848.000,A,3252.9914,N,11713.6956,W,16.19,184.7,191110,,*13
$GPRMC,011851.000,A,3252.9779,N,11713.6969,W,16.72,184.6,191110,,*1E
$GPRMC,011854.000,A,3252.9642,N,11713.6981,W,16.27,184.5,191110,,*17
$GPRMC,011857.000,A,3252.9512,N,11713.6996,W,14.64,184.7,191110,,*13
$GPRMC,011900.000,A,3252.9388,N,11713.7011,W,15.36,184.9,191110,,*1A
$GPRMC,011903.000,A,3252.9250,N,11713.7027,W,18.53,184.8,191110,,*17
$GPRMC,011906.000,A,3252.9087,N,11713.7040,W,19.80,184.3,191110,,*1F
$GPRMC,011909.000,A,3252.8916,N,11713.7056,W,19.88,185.1,191110,,*1C
$GPRMC,011912.000,A,3252.8749,N,11713.7073,W,19.67,184.8,191110,,*1C
$GPRMC,011915.000,A,3252.8593,N,11713.7091,W,18.12,184.8,191110,,*11
$GPRMC,011918.000,A,3252.8457,N,11713.7108,W,14.29,184.6,191110,,*1E
$GPRMC,011921.000,A,3252.8376,N,11713.7115,W,5.42,185.1,191110,,*27
$GPRMC,011930.000,A,3252.8290,N,11713.7118,W,10.38,182.7,191110,,*1B
$GPRMC,011933.000,A,3252.8180,N,11713.7129,W,14.05,183.7,191110,,*13
$GPRMC,011936.000,A,3252.8045,N,11713.7140,W,17.09,184.9,191110,,*17
$GPRMC,011939.000,A,3252.7887,N,11713.7153,W,20.13,184.6,191110,,*13
$GPRMC,011942.000,A,3252.7711,N,11713.7170,W,20.15,184.4,191110,,*1A
$GPRMC,011945.000,A,3252.7535,N,11713.7189,W,19.84,184.5,191110,,*1C
$GPRMC,011948.000,A,3252.7361,N,11713.7210,W,21.74,184.7,191110,,*13
$GPRMC,011951.000,A,3252.7176,N,11713.7228,W,21.93,184.8,191110,,*12
$GPRMC,011954.000,A,3252.7002,N,11713.7244,W,19.14,184.7,191110,,*14
$GPRMC,011957.000,A,3252.6852,N,11713.7263,W,16.99,184.9,191110,,*1A
$GPRMC,012000.000,A,3252.6716,N,11713.7279,W,15.33,184.8,191110,,*14
$GPRMC,012003.000,A,3252.6616,N,11713.7287,W,7.08,184.2,191110,,*26
$GPRMC,012015.000,A,3252.6483,N,11713.7303,W,7.73,185.0,191110,,*2D
$GPRMC,012018.000,A,3252.6395,N,11713.7312,W,13.24,185.6,191110,,*11
$GPRMC,012021.000,A,3252.6270,N,11713.7325,W,14.94,184.7,191110,,*19
$GPRMC,012024.000,A,3252.6142,N,11713.7336,W,16.34,184.9,191110,,*1A
$GPRMC,012027.000,A,3252.5973,N,11713.7360,W,25.48,187.7,191110,,*15
$GPRMC,012030.000,A,3252.5737,N,11713.7390,W,29.01,186.5,191110,,*10
$GPRMC,012033.000,A,3252.5486,N,11713.7413,W,29.54,185.1,191110,,*11
$GPRMC,012036.000,A,3252.5242,N,11713.7438,W,29.73,184.8,191110,,*1E
$GPRMC,012039.000,A,3252.4996,N,11713.7461,W,27.65,184.8,191110,,*17
$GPRMC,012042.000,A,3252.4772,N,11713.7485,W,25.70,184.6,191110,,*1D
$GPRMC,012045.000,A,3252.4564,N,11713.7503,W,23.71,184.6,191110,,*17
$GPRMC,012048.000,A,3252.4379,N,11713.7522,W,21.14,184.9,191110,,*1D
$GPRMC,012051.000,A,3252.4209,N,11713.7540,W,20.19,184.3,191110,,*11
$GPRMC,012054.000,A,3252.4046,N,11713.7552,W,17.82,184.4,191110,,*1F
$GPRMC,012057.000,A,3252.3904,N,11713.7557,W,15.19,179.9,191110,,*1E
$GPRMC,012100.000,A,3252.3791,N,11713.7558,W,12.72,182.6,191110,,*11
$GPRMC,012103.000,A,3252.3698,N,11713.7565,W,10.21,184.1,191110,,*11
$GPRMC,012106.000,A,3252.3597,N,11713.7573,W,13.58,183.5,191110,,*11
$GPRMC,012109.000,A,3252.3489,N,11713.7584,W,14.06,184.3,191110,,*15
$GPRMC,012112.000,A,3252.3386,N,11713.7591,W,9.84,183.4,191110,,*25
$GPRMC,012115.000,A,3252.3297,N,11713.7597,W,12.00,183.4,191110,,*13
$GPRMC,012118.000,A,3252.3194,N,11713.7595,W,11.48,180.0,191110,,*14
$GPRMC,012121.000,A,3252.3102,N,11713.7620,W,10.25,184.2,191110,,*10
$GPRMC,012124.000,A,3252.3008,N,11713.7621,W,10.22,185.1,191110,,*1A
$GPRMC,012133.000,A,3252.2868,N,11713.7647,W,9.41,185.2,191110,,*2D
$GPRMC,012136.000,A,3252.2768,N,11713.7658,W,12.26,184.7,191110,,*16
$GPRMC,012139.000,A,3252.2664,N,11713.7665,W,11.87,184.7,191110,,*12
$GPRMC,012142.000,A,3252.2579,N,11713.7677,W,7.85,185.1,191110,,*20
$GPRMC,012145.000,A,3252.2525,N,11713.7679,W,4.91,185.1,191110,,*26
$GPRMC,012148.000,A,3252.2485,N,11713.7689,W,5.52,184.4,191110,,*25
$GPRMC,012151.000,A,3252.2427,N,11713.7692,W,9.23,185.3,191110,,*23
$GPRMC,012154.000,A,3252.2322,N,11713.7705,W,14.65,185.1,191110,,*17
$GPRMC,012157.000,A,3252.2198,N,11713.7717,W,13.95,184.8,191110,,*14
$GPRMC,012200.000,A,3252.2104,N,11713.7725,W,9.65,184.8,191110,,*25
$GPRMC,012203.000,A,3252.2018,N,11713.7729,W,12.20,184.4,191110,,*11
$GPRMC,012206.000,A,3252.1896,N,11713.7741,W,16.48,184.3,191110,,*1A
$GPRMC,012209.000,A,3252.1749,N,11713.7759,W,16.70,185.6,191110,,*1E
$GPRMC,012212.000,A,3252.1621,N,11713.7771,W,13.28,184.9,191110,,*17
$GPRMC,012215.000,A,3252.1529,N,11713.7781,W,9.28,185.0,191110,,*27
$GPRMC,012218.000,A,3252.1459,N,11713.7789,W,7.82,184.9,191110,,*22
$GPRMC,012221.000,A,3252.1384,N,11713.7793,W,9.91,184.0,191110,,*21
$GPRMC,012224.000,A,3252.1295,N,11713.7798,W,11.23,184.3,191110,,*1D
$GPRMC,012227.000,A,3252.1192,N,11713.7809,W,13.70,184.3,191110,,*19
$GPRMC,012230.000,A,3252.1063,N,11713.7821,W,17.18,184.0,191110,,*13
$GPRMC,012233.000,A,3252.0912,N,11713.7836,W,18.44,184.6,191110,,*18
$GPRMC,012236.000,A,3252.0769,N,11713.7853,W,15.20,187.3,191110,,*15
$GPRMC,012239.000,A,3252.0634,N,11713.7859,W,17.18,184.9,191110,,*19
$GPRMC,012242.000,A,3252.0470,N,11713.7881,W,21.03,184.3,191110,,*17
$GPRMC,012245.000,A,3252.0298,N,11713.7898,W,17.94,184.5,191110,,*15
$GPRMC,012248.000,A,3252.0145,N,11713.7909,W,18.44,184.6,191110,,*13
$GPRMC,012251.000,A,3251.9990,N,11713.7927,W,17.27,184.7,191110,,*16
$GPRMC,012254.000,A,3251.9843,N,11713.7941,W,16.89,184.8,191110,,*16
$GPRMC,012257.000,A,3251.9708,N,11713.7955,W,15.62,184.8,191110,,*16
$GPRMC,012300.000,A,3251.9583,N,11713.7969,W,14.27,184.9,191110,,*1A
$GPRMC,012303.000,A,3251.9478,N,11713.7977,W,10.79,184.7,191110,,*12
$GPRMC,012306.000,A,3251.9368,N,11713.7988,W,17.86,183.6,191110,,*10
$GPRMC,012309.000,A,3251.9171,N,11713.7991,W,27.69,181.6,191110,,*1D
$GPRMC,012312.000,A,3251.8938,N,11713.8007,W,27.19,184.0,191110,,*1E
$GPRMC,012315.000,A,3251.8708,N,11713.8027,W,26.65,184.5,191110,,*19
$GPRMC,012318.000,A,3251.8478,N,11713.8050,W,29.27,184.5,191110,,*19
$GPRMC,012321.000,A,3251.8222,N,11713.8074,W,31.25,184.7,191110,,*15
$GPRMC,012324.000,A,3251.7944,N,11713.8100,W,35.80,184.7,191110,,*1D
$GPRMC,012327.000,A,3251.7629,N,11713.8133,W,38.37,184.8,191110,,*14
$GPRMC,012330.000,A,3251.7311,N,11713.8162,W,36.80,184.9,191110,,*1B
$GPRMC,012333.000,A,3251.7011,N,11713.8191,W,34.31,184.7,191110,,*11
$GPRMC,012336.000,A,3251.6738,N,11713.8218,W,31.80,184.6,191110,,*15
$GPRMC,012339.000,A,3251.6467,N,11713.8245,W,33.21,184.6,191110,,*12
$GPRMC,012342.000,A,3251.6193,N,11713.8273,W,32.91,184.8,191110,,*11
$GPRMC,012345.000,A,3251.5913,N,11713.8301,W,34.28,184.7,191110,,*1A
$GPRMC,012348.000,A,3251.5619,N,11713.8329,W,35.29,184.5,191110,,*1A
$GPRMC,012351.000,A,3251.5328,N,11713.8355,W,33.33,184.7,191110,,*11
$GPRMC,012354.000,A,3251.5062,N,11713.8382,W,31.23,184.6,191110,,*11
$GPRMC,012357.000,A,3251.4809,N,11713.8404,W,29.95,184.6,191110,,*1B
$GPRMC,012400.000,A,3251.4593,N,11713.8426,W,23.08,185.6,191110,,*1F
$GPRMC,012403.000,A,3251.4429,N,11713.8450,W,18.43,187.5,191110,,*1B
$GPRMC,012406.000,A,3251.4277,N,11713.8478,W,19.28,189.0,191110,,*1E
$GPRMC,012409.000,A,3251.4097,N,11713.8518,W,24.30,190.9,191110,,*1C
$GPRMC,012412.000,A,3251.3892,N,11713.8571,W,24.61,192.8,191110,,*14
$GPRMC,012415.000,A,3251.3727,N,11713.8630,W,15.57,196.5,191110,,*1A
$GPRMC,012418.000,A,3251.3629,N,11713.8666,W,12.05,196.8,191110,,*16
$GPRMC,012421.000,A,3251.3535,N,11713.8701,W,12.21,197.9,191110,,*14
$GPRMC,012424.000,A,3251.3431,N,11713.8748,W,16.74,202.0,191110,,*1B
$GPRMC,012427.000,A,3251.3276,N,11713.8834,W,22.41,204.8,191110,,*16
$GPRMC,012430.000,A,3251.3087,N,11713.8932,W,25.97,204.3,191110,,*1C
$GPRMC,012433.000,A,3251.2889,N,11713.9046,W,25.57,206.3,191110,,*1D
$GPRMC,012436.000,A,3251.2701,N,11713.9164,W,24.49,208.8,191110,,*1D
$GPRMC,012439.000,A,3251.2529,N,11713.9283,W,22.33,210.4,191110,,*1E
$GPRMC,012442.000,A,3251.2363,N,11713.9396,W,23.10,210.4,191110,,*1F
$GPRMC,012445.000,A,3251.2193,N,11713.9515,W,24.07,210.8,191110,,*15
$GPRMC,012448.000,A,3251.2020,N,11713.9636,W,23.72,210.6,191110,,*18
$GPRMC,012451.000,A,3251.1841,N,11713.9757,W,24.43,210.6,191110,,*1F
$GPRMC,012454.000,A,3251.1664,N,11713.9879,W,23.93,210.4,191110,,*18
$GPRMC,012457.000,A,3251.1496,N,11713.9995,W,21.92,210.6,191110,,*16
$GPRMC,012500.000,A,3251.1348,N,11714.0097,W,19.90,210.7,191110,,*1C
$GPRMC,012503.000,A,3251.1202,N,11714.0197,W,21.91,210.7,191110,,*1B
$GPRMC,012506.000,A,3251.1027,N,11714.0318,W,24.62,210.3,191110,,*13
$GPRMC,012509.000,A,3251.0852,N,11714.0439,W,24.15,209.9,191110,,*11
$GPRMC,012512.000,A,3251.0682,N,11714.0554,W,23.57,210.1,191110,,*13
$GPRMC,012515.000,A,3251.0503,N,11714.0681,W,27.34,210.6,191110,,*13
$GPRMC,012518.000,A,3251.0293,N,11714.0832,W,30.32,211.0,191110,,*11
$GPRMC,012521.000,A,3251.0077,N,11714.0983,W,29.90,209.4,191110,,*15
$GPRMC,012524.000,A,3250.9863,N,11714.1118,W,29.14,207.0,191110,,*18
$GPRMC,012527.000,A,3250.9640,N,11714.1235,W,28.54,204.2,191110,,*1C
$GPRMC,012530.000,A,3250.9422,N,11714.1337,W,27.51,201.4,191110,,*16
$GPRMC,012533.000,A,3250.9208,N,11714.1424,W,27.65,198.7,191110,,*19
$GPRMC,012536.000,A,3250.8984,N,11714.1498,W,27.76,195.8,191110,,*15
$GPRMC,012539.000,A,3250.8762,N,11714.1565,W,26.82,194.1,191110,,*1D
$GPRMC,012542.000,A,3250.8552,N,11714.1619,W,24.22,191.5,191110,,*11
$GPRMC,012545.000,A,3250.8372,N,11714.1655,W,21.59,188.8,191110,,*16
$GPRMC,012548.000,A,3250.8192,N,11714.1686,W,21.82,188.0,191110,,*17
$GPRMC,012551.000,A,3250.7994,N,11714.1721,W,25.85,188.0,191110,,*11
$GPRMC,012554.000,A,3250.7757,N,11714.1761,W,30.23,188.3,191110,,*1A
$GPRMC,012557.000,A,3250.7494,N,11714.1812,W,32.56,189.6,191110,,*1A
$GPRMC,012600.000,A,3250.7228,N,11714.1859,W,30.90,188.1,191110,,*1B
$GPRMC,012603.000,A,3250.6965,N,11714.1897,W,33.63,187.4,191110,,*1C
$GPRMC,012606.000,A,3250.6655,N,11714.1947,W,38.16,187.4,191110,,*10
$GPRMC,012609.000,A,3250.6355,N,11714.1989,W,34.03,185.9,191110,,*1F
$GPRMC,012612.000,A,3250.6100,N,11714.2015,W,27.08,186.0,191110,,*1B
$GPRMC,012615.000,A,3250.5888,N,11714.2032,W,23.73,182.8,191110,,*17
$GPRMC,012618.000,A,3250.5715,N,11714.2028,W,18.27,179.3,191110,,*1C
$GPRMC,012621.000,A,3250.5603,N,11714.2019,W,12.11,177.3,191110,,*13
$GPRMC,012624.000,A,3250.5496,N,11714.2006,W,15.80,176.3,191110,,*18
$GPRMC,012627.000,A,3250.5350,N,11714.1986,W,15.70,175.1,191110,,*1A
$GPRMC,012630.000,A,3250.5242,N,11714.1973,W,10.88,174.9,191110,,*1F
$GPRMC,012633.000,A,3250.5165,N,11714.1964,W,9.38,175.8,191110,,*2F
$GPRMC,012636.000,A,3250.5064,N,11714.1950,W,14.75,174.0,191110,,*11
$GPRMC,012639.000,A,3250.4937,N,11714.1932,W,17.51,172.3,191110,,*14
$GPRMC,012642.000,A,3250.4775,N,11714.1899,W,20.55,169.3,191110,,*1A
$GPRMC,012645.000,A,3250.4599,N,11714.1857,W,22.04,167.5,191110,,*11
$GPRMC,012648.000,A,3250.4409,N,11714.1806,W,24.71,167.4,191110,,*15
$GPRMC,012651.000,A,3250.4202,N,11714.1751,W,25.39,167.4,191110,,*10
$GPRMC,012654.000,A,3250.3987,N,11714.1691,W,27.69,166.9,191110,,*12
$GPRMC,012657.000,A,3250.3755,N,11714.1620,W,28.63,166.5,191110,,*13
$GPRMC,012700.000,A,3250.3537,N,11714.1553,W,26.67,165.2,191110,,*1F
$GPRMC,012703.000,A,3250.3318,N,11714.1479,W,28.43,164.4,191110,,*11
$GPRMC,012706.000,A,3250.3066,N,11714.1399,W,33.06,163.7,191110,,*18
$GPRMC,012709.000,A,3250.2811,N,11714.1283,W,31.21,158.8,191110,,*14
$GPRMC,012712.000,A,3250.2610,N,11714.1103,W,30.47,138.5,191110,,*10
$GPRMC,012715.000,A,3250.2509,N,11714.0828,W,31.38,109.8,191110,,*1B
$GPRMC,012718.000,A,3250.2523,N,11714.0497,W,35.17,86.3,191110,,*22
$GPRMC,012721.000,A,3250.2619,N,11714.0145,W,39.62,72.8,191110,,*26
$GPRMC,012724.000,A,3250.2748,N,11713.9754,W,41.71,69.6,191110,,*27
$GPRMC,012727.000,A,3250.2874,N,11713.9381,W,37.88,68.8,191110,,*20
$GPRMC,012730.000,A,3250.2985,N,11713.9055,W,33.25,69.4,191110,,*2D
$GPRMC,012733.000,A,3250.3070,N,11713.8717,W,37.73,74.5,191110,,*26
$GPRMC,012736.000,A,3250.3145,N,11713.8369,W,33.21,76.4,191110,,*29
$GPRMC,012739.000,A,3250.3195,N,11713.8114,W,23.37,76.9,191110,,*28
$GPRMC,012742.000,A,3250.3230,N,11713.7913,W,19.38,77.5,191110,,*23
$GPRMC,012745.000,A,3250.3262,N,11713.7719,W,21.32,78.6,191110,,*2A
$GPRMC,012748.000,A,3250.3302,N,11713.7487,W,25.35,78.1,191110,,*20
$GPRMC,012751.000,A,3250.3347,N,11713.7237,W,26.01,78.2,191110,,*23
$GPRMC,012754.000,A,3250.3393,N,11713.6992,W,24.90,78.7,191110,,*25
$GPRMC,012757.000,A,3250.3431,N,11713.6756,W,22.93,78.6,191110,,*2B
$GPRMC,012800.000,A,3250.3469,N,11713.6529,W,22.91,78.5,191110,,*20
$GPRMC,012803.000,A,3250.3503,N,11713.6318,W,20.85,79.0,191110,,*29
$GPRMC,012806.000,A,3250.3538,N,11713.6122,W,19.07,78.9,191110,,*27
$GPRMC,012809.000,A,3250.3570,N,11713.5940,W,17.59,78.3,191110,,*24
$GPRMC,012812.000,A,3250.3598,N,11713.5785,W,14.99,78.5,191110,,*26
$GPRMC,012815.000,A,3250.3619,N,11713.5660,W,10.83,79.2,191110,,*28
$GPRMC,012818.000,A,3250.3635,N,11713.5580,W,5.78,78.6,191110,,*13
$GPRMC,012824.000,A,3250.3648,N,11713.5489,W,5.88,78.5,191110,,*12
$GPRMC,012827.000,A,3250.3658,N,11713.5419,W,9.26,79.3,191110,,*16
$GPRMC,012830.000,A,3250.3675,N,11713.5312,W,13.42,78.0,191110,,*28
$GPRMC,012833.000,A,3250.3712,N,11713.5138,W,19.15,75.3,191110,,*27
$GPRMC,012836.000,A,3250.3748,N,11713.4968,W,16.15,77.5,191110,,*2A
$GPRMC,012839.000,A,3250.3774,N,11713.4831,W,13.09,78.4,191110,,*21
$GPRMC,012842.000,A,3250.3795,N,11713.4716,W,10.70,78.1,191110,,*20
$GPRMC,012845.000,A,3250.3813,N,11713.4621,W,10.71,78.1,191110,,*22
$GPRMC,012848.000,A,3250.3838,N,11713.4489,W,17.30,77.9,191110,,*23
$GPRMC,012851.000,A,3250.3872,N,11713.4292,W,21.56,77.9,191110,,*2C
$GPRMC,012854.000,A,3250.3910,N,11713.4070,W,23.52,78.7,191110,,*25
$GPRMC,012857.000,A,3250.3952,N,11713.3819,W,27.55,78.3,191110,,*27
$GPRMC,012900.000,A,3250.4001,N,11713.3549,W,26.41,77.6,191110,,*2A
$GPRMC,012903.000,A,3250.4048,N,11713.3301,W,25.50,76.1,191110,,*2B
$GPRMC,012906.000,A,3250.4107,N,11713.3049,W,27.03,74.1,191110,,*2D
$GPRMC,012909.000,A,3250.4176,N,11713.2788,W,27.08,72.5,191110,,*26
$GPRMC,012912.000,A,3250.4243,N,11713.2555,W,22.47,71.1,191110,,*22
$GPRMC,012915.000,A,3250.4306,N,11713.2357,W,22.09,69.1,191110,,*22
$GPRMC,012918.000,A,3250.4370,N,11713.2165,W,19.66,67.8,191110,,*2B
$GPRMC,012921.000,A,3250.4431,N,11713.1995,W,18.05,66.5,191110,,*2F
$GPRMC,012924.000,A,3250.4491,N,11713.1847,W,15.31,65.0,191110,,*22
$GPRMC,012927.000,A,3250.4548,N,11713.1718,W,14.21,63.2,191110,,*25
$GPRMC,012930.000,A,3250.4595,N,11713.1607,W,10.63,63.1,191110,,*2D
$GPRMC,012933.000,A,3250.4625,N,11713.1534,W,6.50,64.6,191110,,*12
$GPRMC,012936.000,A,3250.4646,N,11713.1486,W,6.23,64.1,191110,,*19
$GPRMC,012939.000,A,3250.4680,N,11713.1406,W,12.77,63.5,191110,,*23
$GPRMC,012942.000,A,3250.4741,N,11713.1265,W,18.03,62.2,191110,,*2F
$GPRMC,012945.000,A,3250.4816,N,11713.1088,W,21.72,61.7,191110,,*2E
$GPRMC,012948.000,A,3250.4908,N,11713.0899,W,21.05,60.3,191110,,*21
$GPRMC,012951.000,A,3250.4996,N,11713.0730,W,16.97,59.4,191110,,*20
$GPRMC,012954.000,A,3250.5057,N,11713.0592,W,16.66,60.4,191110,,*2E
$GPRMC,012957.000,A,3250.5134,N,11713.0428,W,21.28,60.9,191110,,*2A
$GPRMC,013000.000,A,3250.5229,N,11713.0226,W,25.07,60.7,191110,,*20
$GPRMC,013003.000,A,3250.5330,N,11712.9997,W,25.43,60.0,191110,,*24
$GPRMC,013006.000,A,3250.5418,N,11712.9803,W,20.32,59.8,191110,,*21
$GPRMC,013009.000,A,3250.5493,N,11712.9644,W,17.59,61.1,191110,,*2B
$GPRMC,013012.000,A,3250.5567,N,11712.9478,W,21.45,61.5,191110,,*2A
$GPRMC,013015.000,A,3250.5653,N,11712.9282,W,23.26,60.9,191110,,*20
$GPRMC,013018.000,A,3250.5739,N,11712.9092,W,20.33,61.1,191110,,*2D
$GPRMC,013021.000,A,3250.5824,N,11712.8913,W,21.49,61.1,191110,,*29
$GPRMC,013024.000,A,3250.5913,N,11712.8729,W,20.63,61.3,191110,,*25
$GPRMC,013027.000,A,3250.5999,N,11712.8552,W,21.20,61.8,191110,,*27
$GPRMC,013030.000,A,3250.6094,N,11712.8353,W,23.97,61.8,191110,,*2F
$GPRMC,013033.000,A,3250.6196,N,11712.8124,W,28.54,63.4,191110,,*27
$GPRMC,013036.000,A,3250.6318,N,11712.7848,W,33.50,63.6,191110,,*26
$GPRMC,013039.000,A,3250.6455,N,11712.7549,W,32.17,62.8,191110,,*26
$GPRMC,013042.000,A,3250.6567,N,11712.7290,W,27.64,62.3,191110,,*22
$GPRMC,013045.000,A,3250.6672,N,11712.7054,W,26.14,62.3,191110,,*2E
$GPRMC,013048.000,A,3250.6768,N,11712.6817,W,28.34,62.7,191110,,*2F
$GPRMC,013051.000,A,3250.6886,N,11712.6552,W,31.01,62.9,191110,,*24
$GPRMC,013054.000,A,3250.7009,N,11712.6272,W,32.95,62.6,191110,,*2B
$GPRMC,013057.000,A,3250.7141,N,11712.5981,W,34.38,62.4,191110,,*22
$GPRMC,013100.000,A,3250.7277,N,11712.5667,W,36.84,62.7,191110,,*26
$GPRMC,013103.000,A,3250.7423,N,11712.5328,W,39.38,62.9,191110,,*2A
$GPRMC,013106.000,A,3250.7574,N,11712.4980,W,39.79,62.9,191110,,*20
$GPRMC,013109.000,A,3250.7712,N,11712.4624,W,39.39,65.9,191110,,*2F
$GPRMC,013112.000,A,3250.7832,N,11712.4267,W,38.31,69.2,191110,,*25
$GPRMC,013115.000,A,3250.7922,N,11712.3916,W,35.86,73.3,191110,,*23
$GPRMC,013118.000,A,3250.7983,N,11712.3578,W,34.43,77.2,191110,,*2C
$GPRMC,013121.000,A,3250.8031,N,11712.3249,W,34.70,80.5,191110,,*23
$GPRMC,013124.000,A,3250.8068,N,11712.2894,W,36.51,83.2,191110,,*24
$GPRMC,013127.000,A,3250.8082,N,11712.2524,W,37.82,87.2,191110,,*2E
$GPRMC,013130.000,A,3250.8076,N,11712.2158,W,35.59,91.4,191110,,*29
$GPRMC,013133.000,A,3250.8054,N,11712.1814,W,33.35,95.1,191110,,*25
$GPRMC,013136.000,A,3250.8018,N,11712.1486,W,33.85,98.2,191110,,*2A
$GPRMC,013139.000,A,3250.7965,N,11712.1164,W,32.04,100.9,191110,,*13
$GPRMC,013142.000,A,3250.7907,N,11712.0868,W,29.57,103.1,191110,,*18
$GPRMC,013145.000,A,3250.7846,N,11712.0574,W,32.34,103.1,191110,,*14
$GPRMC,013148.000,A,3250.7785,N,11712.0239,W,36.59,102.8,191110,,*10
$GPRMC,013151.000,A,3250.7709,N,11711.9858,W,41.35,102.9,191110,,*10
$GPRMC,013154.000,A,3250.7632,N,11711.9438,W,44.68,102.7,191110,,*15
$GPRMC,013157.000,A,3250.7554,N,11711.9004,W,44.12,102.6,191110,,*12
$GPRMC,013200.000,A,3250.7477,N,11711.8584,W,41.60,102.5,191110,,*1C
$GPRMC,013203.000,A,3250.7411,N,11711.8189,W,39.12,100.4,191110,,*1F
$GPRMC,013206.000,A,3250.7366,N,11711.7823,W,35.30,97.9,191110,,*25
$GPRMC,013209.000,A,3250.7330,N,11711.7480,W,34.42,95.6,191110,,*25
$GPRMC,013212.000,A,3250.7312,N,11711.7135,W,36.40,93.0,191110,,*24
$GPRMC,013215.000,A,3250.7304,N,11711.6767,W,38.48,90.7,191110,,*26
$GPRMC,013218.000,A,3250.7312,N,11711.6381,W,40.29,87.7,191110,,*2E
$GPRMC,013221.000,A,3250.7343,N,11711.5991,W,41.26,84.7,191110,,*25
$GPRMC,013224.000,A,3250.7388,N,11711.5579,W,41.67,82.3,191110,,*2A
$GPRMC,013227.000,A,3250.7444,N,11711.5164,W,42.67,81.2,191110,,*27
$GPRMC,013230.000,A,3250.7499,N,11711.4737,W,43.68,81.0,191110,,*2C
$GPRMC,013233.000,A,3250.7560,N,11711.4302,W,44.92,81.0,191110,,*28
$GPRMC,013236.000,A,3250.7632,N,11711.3848,W,47.45,79.0,191110,,*25
$GPRMC,013239.000,A,3250.7702,N,11711.3369,W,50.17,80.4,191110,,*23
$GPRMC,013242.000,A,3250.7768,N,11711.2867,W,52.17,80.8,191110,,*29
$GPRMC,013245.000,A,3250.7842,N,11711.2349,W,53.96,80.8,191110,,*26
$GPRMC,013248.000,A,3250.7912,N,11711.1828,W,53.30,81.1,191110,,*24
$GPRMC,013251.000,A,3250.7981,N,11711.1304,W,54.02,81.3,191110,,*27
$GPRMC,013254.000,A,3250.8048,N,11711.0766,W,55.42,81.1,191110,,*27
$GPRMC,013257.000,A,3250.8123,N,11711.0217,W,56.51,80.8,191110,,*22
$GPRMC,013300.000,A,3250.8199,N,11710.9664,W,57.73,81.0,191110,,*20
$GPRMC,013303.000,A,3250.8276,N,11710.9093,W,59.39,81.2,191110,,*2D
$GPRMC,013306.000,A,3250.8352,N,11710.8509,W,60.65,81.1,191110,,*28
$GPRMC,013309.000,A,3250.8422,N,11710.7909,W,61.86,83.4,191110,,*2F
$GPRMC,013312.000,A,3250.8448,N,11710.7291,W,62.55,87.4,191110,,*2A
$GPRMC,013315.000,A,3250.8441,N,11710.6667,W,63.38,91.6,191110,,*27
$GPRMC,013318.000,A,3250.8401,N,11710.6039,W,62.99,95.3,191110,,*28
$GPRMC,013321.000,A,3250.8317,N,11710.5430,W,62.43,98.7,191110,,*22
$GPRMC,013324.000,A,3250.8233,N,11710.4819,W,62.13,99.0,191110,,*25
$GPRMC,013327.000,A,3250.8148,N,11710.4209,W,61.34,99.6,191110,,*22
$GPRMC,013330.000,A,3250.8039,N,11710.3632,W,57.92,103.0,191110,,*15
$GPRMC,013333.000,A,3250.7884,N,11710.3087,W,57.95,108.3,191110,,*10
$GPRMC,013336.000,A,3250.7686,N,11710.2559,W,58.01,113.5,191110,,*10
$GPRMC,013339.000,A,3250.7453,N,11710.2052,W,57.40,118.5,191110,,*1A
$GPRMC,013342.000,A,3250.7190,N,11710.1585,W,57.05,124.3,191110,,*18
$GPRMC,013345.000,A,3250.6888,N,11710.1149,W,57.02,129.2,191110,,*11
$GPRMC,013348.000,A,3250.6569,N,11710.0723,W,57.74,131.7,191110,,*18
$GPRMC,013351.000,A,3250.6252,N,11710.0307,W,56.25,132.0,191110,,*1C
$GPRMC,013354.000,A,3250.5932,N,11709.9892,W,56.70,132.3,191110,,*12
$GPRMC,013357.000,A,3250.5611,N,11709.9486,W,54.84,132.4,191110,,*18
$GPRMC,013400.000,A,3250.5305,N,11709.9094,W,54.50,132.3,191110,,*14
$GPRMC,013403.000,A,3250.4990,N,11709.8689,W,55.77,132.1,191110,,*1D
$GPRMC,013406.000,A,3250.4679,N,11709.8275,W,56.07,132.1,191110,,*13
$GPRMC,013409.000,A,3250.4366,N,11709.7865,W,56.04,132.2,191110,,*13
$GPRMC,013412.000,A,3250.4046,N,11709.7454,W,57.52,132.5,191110,,*13
$GPRMC,013415.000,A,3250.3714,N,11709.7029,W,59.04,132.1,191110,,*14
$GPRMC,013418.000,A,3250.3399,N,11709.6574,W,59.94,128.9,191110,,*1E
$GPRMC,013421.000,A,3250.3114,N,11709.6081,W,59.52,123.4,191110,,*10
$GPRMC,013424.000,A,3250.2875,N,11709.5572,W,57.35,117.9,191110,,*15
$GPRMC,013427.000,A,3250.2683,N,11709.5044,W,58.71,112.4,191110,,*16
$GPRMC,013430.000,A,3250.2530,N,11709.4486,W,58.20,107.5,191110,,*11
$GPRMC,013433.000,A,3250.2424,N,11709.3926,W,57.55,102.3,191110,,*18
$GPRMC,013436.000,A,3250.2368,N,11709.3360,W,57.03,97.1,191110,,*26
$GPRMC,013439.000,A,3250.2367,N,11709.2807,W,55.04,91.1,191110,,*2E
$GPRMC,013442.000,A,3250.2395,N,11709.2275,W,52.49,86.2,191110,,*2B
$GPRMC,013445.000,A,3250.2466,N,11709.1762,W,53.08,81.1,191110,,*27
$GPRMC,013448.000,A,3250.2570,N,11709.1254,W,52.57,77.4,191110,,*2B
$GPRMC,013451.000,A,3250.2674,N,11709.0762,W,50.02,76.3,191110,,*21
$GPRMC,013454.000,A,3250.2776,N,11709.0289,W,49.18,76.2,191110,,*25
$GPRMC,013457.000,A,3250.2881,N,11708.9808,W,50.57,76.5,191110,,*2E
$GPRMC,013500.000,A,3250.2992,N,11708.9326,W,50.82,76.0,191110,,*24
$GPRMC,013503.000,A,3250.3093,N,11708.8834,W,51.58,76.4,191110,,*25
$GPRMC,013506.000,A,3250.3195,N,11708.8334,W,52.07,76.5,191110,,*24
$GPRMC,013509.000,A,3250.3300,N,11708.7830,W,53.32,76.5,191110,,*22
$GPRMC,013512.000,A,3250.3405,N,11708.7311,W,52.97,76.2,191110,,*2B
$GPRMC,013515.000,A,3250.3508,N,11708.6816,W,50.84,76.3,191110,,*2C
$GPRMC,013518.000,A,3250.3606,N,11708.6332,W,50.60,76.5,191110,,*2D
$GPRMC,013521.000,A,3250.3709,N,11708.5850,W,50.94,76.1,191110,,*2A
$GPRMC,013524.000,A,3250.3810,N,11708.5375,W,48.61,76.3,191110,,*25
$GPRMC,013527.000,A,3250.3903,N,11708.4915,W,47.27,76.3,191110,,*25
$GPRMC,013530.000,A,3250.4003,N,11708.4452,W,50.08,76.3,191110,,*28
$GPRMC,013533.000,A,3250.4097,N,11708.3987,W,46.03,76.3,191110,,*28
$GPRMC,013536.000,A,3250.4185,N,11708.3548,W,47.00,76.6,191110,,*27
$GPRMC,013539.000,A,3250.4270,N,11708.3081,W,47.87,78.3,191110,,*25
$GPRMC,013542.000,A,3250.4338,N,11708.2630,W,43.67,79.9,191110,,*28
$GPRMC,013545.000,A,3250.4387,N,11708.2234,W,38.67,81.8,191110,,*21
$GPRMC,013548.000,A,3250.4428,N,11708.1866,W,37.78,82.4,191110,,*2E
$GPRMC,013551.000,A,3250.4470,N,11708.1485,W,40.20,82.2,191110,,*21
$GPRMC,013554.000,A,3250.4516,N,11708.1085,W,42.18,82.4,191110,,*2E
$GPRMC,013557.000,A,3250.4564,N,11708.0666,W,42.96,82.5,191110,,*25
$GPRMC,013600.000,A,3250.4615,N,11708.0262,W,38.65,82.2,191110,,*27
$GPRMC,013603.000,A,3250.4649,N,11707.9906,W,36.11,82.9,191110,,*24
$GPRMC,013606.000,A,3250.4696,N,11707.9558,W,34.93,83.0,191110,,*24
$GPRMC,013609.000,A,3250.4731,N,11707.9223,W,33.56,83.0,191110,,*22
$GPRMC,013612.000,A,3250.4765,N,11707.8902,W,32.63,83.0,191110,,*27
$GPRMC,013615.000,A,3250.4791,N,11707.8584,W,32.74,83.2,191110,,*2D
$GPRMC,013618.000,A,3250.4821,N,11707.8258,W,32.30,83.2,191110,,*22
$GPRMC,013621.000,A,3250.4853,N,11707.7951,W,30.71,83.6,191110,,*23
$GPRMC,013624.000,A,3250.4878,N,11707.7657,W,29.59,84.0,191110,,*25
$GPRMC,013627.000,A,3250.4902,N,11707.7372,W,28.26,84.5,191110,,*24
$GPRMC,013630.000,A,3250.4920,N,11707.7098,W,26.46,85.2,191110,,*2B
$GPRMC,013633.000,A,3250.4937,N,11707.6837,W,26.69,86.1,191110,,*2F
$GPRMC,013636.000,A,3250.4952,N,11707.6551,W,29.95,86.2,191110,,*2B
$GPRMC,013639.000,A,3250.4958,N,11707.6255,W,29.36,87.3,191110,,*24
$GPRMC,013642.000,A,3250.4967,N,11707.5959,W,31.47,89.0,191110,,*22
$GPRMC,013645.000,A,3250.4958,N,11707.5632,W,31.81,91.9,191110,,*21
$GPRMC,013648.000,A,3250.4955,N,11707.5309,W,34.12,89.7,191110,,*24
$GPRMC,013651.000,A,3250.4964,N,11707.4966,W,32.90,88.8,191110,,*2E
$GPRMC,013654.000,A,3250.4971,N,11707.4672,W,28.01,88.8,191110,,*26
$GPRMC,013657.000,A,3250.4973,N,11707.4416,W,21.74,88.7,191110,,*23
$GPRMC,013700.000,A,3250.4981,N,11707.4221,W,18.41,88.7,191110,,*23
$GPRMC,013703.000,A,3250.4982,N,11707.4047,W,18.12,89.5,191110,,*24
$GPRMC,013706.000,A,3250.4981,N,11707.3868,W,18.34,89.2,191110,,*23
$GPRMC,013709.000,A,3250.4986,N,11707.3702,W,14.72,89.0,191110,,*24
$GPRMC,013712.000,A,3250.4988,N,11707.3582,W,10.09,89.3,191110,,*21
$GPRMC,013715.000,A,3250.4986,N,11707.3470,W,12.29,89.7,191110,,*20
$GPRMC,013718.000,A,3250.4988,N,11707.3349,W,12.56,89.4,191110,,*25
$GPRMC,013721.000,A,3250.4989,N,11707.3233,W,11.90,89.1,191110,,*2E
$GPRMC,013724.000,A,3250.4991,N,11707.3121,W,10.35,89.5,191110,,*28
$GPRMC,013727.000,A,3250.4990,N,11707.3023,W,10.65,89.1,191110,,*28
$GPRMC,013730.000,A,3250.4993,N,11707.2892,W,14.09,89.1,191110,,*20
$GPRMC,013733.000,A,3250.4996,N,11707.2756,W,13.41,88.9,191110,,*23
$GPRMC,013736.000,A,3250.5000,N,11707.2638,W,9.77,89.7,191110,,*19
$GPRMC,013739.000,A,3250.4999,N,11707.2545,W,8.90,90.6,191110,,*16
$GPRMC,013742.000,A,3250.5003,N,11707.2453,W,11.76,85.7,191110,,*22
$GPRMC,013745.000,A,3250.5021,N,11707.2331,W,12.47,83.1,191110,,*27
$GPRMC,013748.000,A,3250.5025,N,11707.2204,W,14.17,87.2,191110,,*2D
$GPRMC,013751.000,A,3250.5040,N,11707.2015,W,20.04,85.7,191110,,*26
$GPRMC,013754.000,A,3250.5042,N,11707.1806,W,20.69,88.3,191110,,*2A
$GPRMC,013757.000,A,3250.5047,N,11707.1576,W,24.24,88.7,191110,,*2F
$GPRMC,013800.000,A,3250.5052,N,11707.1348,W,22.28,89.2,191110,,*23
$GPRMC,013803.000,A,3250.5054,N,11707.1153,W,17.85,89.2,191110,,*2F
$GPRMC,013806.000,A,3250.5056,N,11707.0979,W,17.65,89.3,191110,,*26
$GPRMC,013809.000,A,3250.5059,N,11707.0776,W,22.89,89.1,191110,,*21
$GPRMC,013812.000,A,3250.5059,N,11707.0583,W,16.94,89.8,191110,,*21
$GPRMC,013815.000,A,3250.5062,N,11707.0423,W,17.74,88.8,191110,,*2B
$GPRMC,013818.000,A,3250.5068,N,11707.0216,W,24.49,88.5,191110,,*2F
$GPRMC,013821.000,A,3250.5072,N,11706.9954,W,27.96,88.8,191110,,*27
$GPRMC,013824.000,A,3250.5075,N,11706.9675,W,28.83,89.3,191110,,*28
$GPRMC,013827.000,A,3250.5075,N,11706.9374,W,32.18,89.2,191110,,*27
$GPRMC,013830.000,A,3250.5082,N,11706.9035,W,35.49,88.9,191110,,*26
$GPRMC,013833.000,A,3250.5086,N,11706.8666,W,38.56,89.2,191110,,*29
$GPRMC,013836.000,A,3250.5090,N,11706.8279,W,38.66,89.6,191110,,*26
$GPRMC,013839.000,A,3250.5089,N,11706.7885,W,40.79,90.4,191110,,*2C
$GPRMC,013842.000,A,3250.5077,N,11706.7484,W,39.36,91.6,191110,,*2A
$GPRMC,013845.000,A,3250.5064,N,11706.7102,W,37.23,92.5,191110,,*2E
$GPRMC,013848.000,A,3250.5053,N,11706.6744,W,36.28,92.6,191110,,*2B
$GPRMC,013851.000,A,3250.5036,N,11706.6380,W,37.90,92.6,191110,,*2E
$GPRMC,013854.000,A,3250.5023,N,11706.6010,W,37.27,92.9,191110,,*26
$GPRMC,013857.000,A,3250.5000,N,11706.5632,W,40.19,94.1,191110,,*22
$GPRMC,013900.000,A,3250.4969,N,11706.5217,W,43.42,94.4,191110,,*2D
$GPRMC,013903.000,A,3250.4952,N,11706.4788,W,43.61,92.9,191110,,*2E
$GPRMC,013906.000,A,3250.4933,N,11706.4349,W,44.74,92.5,191110,,*2A
$GPRMC,013909.000,A,3250.4918,N,11706.3890,W,47.65,92.6,191110,,*24
$GPRMC,013912.000,A,3250.4903,N,11706.3428,W,46.09,92.8,191110,,*2E
$GPRMC,013915.000,A,3250.4887,N,11706.2986,W,42.38,92.8,191110,,*2A
$GPRMC,013918.000,A,3250.4871,N,11706.2578,W,41.10,92.8,191110,,*2A
$GPRMC,013921.000,A,3250.4856,N,11706.2158,W,43.31,92.4,191110,,*2E
$GPRMC,013924.000,A,3250.4840,N,11706.1720,W,45.22,92.5,191110,,*23
$GPRMC,013927.000,A,3250.4822,N,11706.1266,W,46.63,92.8,191110,,*28
$GPRMC,013930.000,A,3250.4801,N,11706.0799,W,48.03,92.8,191110,,*23
$GPRMC,013933.000,A,3250.4784,N,11706.0318,W,49.17,92.6,191110,,*25
$GPRMC,013936.000,A,3250.4768,N,11705.9829,W,50.53,92.6,191110,,*29
$GPRMC,013939.000,A,3250.4749,N,11705.9324,W,51.18,92.7,191110,,*2C
$GPRMC,013942.000,A,3250.4730,N,11705.8818,W,51.30,92.7,191110,,*21
$GPRMC,013945.000,A,3250.4709,N,11705.8308,W,51.68,92.4,191110,,*28
$GPRMC,013948.000,A,3250.4700,N,11705.7798,W,50.51,90.5,191110,,*26
$GPRMC,013951.000,A,3250.4725,N,11705.7290,W,52.04,86.6,191110,,*22
$GPRMC,013954.000,A,3250.4776,N,11705.6774,W,53.62,82.7,191110,,*2B
$GPRMC,013957.000,A,3250.4860,N,11705.6245,W,54.96,77.9,191110,,*2F
$GPRMC,014000.000,A,3250.4974,N,11705.5714,W,54.84,75.7,191110,,*2A
$GPRMC,014003.000,A,3250.5090,N,11705.5202,W,51.57,75.2,191110,,*27
$GPRMC,014006.000,A,3250.5194,N,11705.4727,W,48.18,75.2,191110,,*27
$GPRMC,014009.000,A,3250.5297,N,11705.4274,W,47.72,75.3,191110,,*29
$GPRMC,014012.000,A,3250.5401,N,11705.3831,W,44.74,75.0,191110,,*20
$GPRMC,014015.000,A,3250.5497,N,11705.3408,W,44.11,74.8,191110,,*24
$GPRMC,014018.000,A,3250.5589,N,11705.2995,W,42.49,75.5,191110,,*28
$GPRMC,014021.000,A,3250.5671,N,11705.2582,W,42.31,76.9,191110,,*2C
$GPRMC,014024.000,A,3250.5760,N,11705.2177,W,41.55,75.7,191110,,*2A
$GPRMC,014027.000,A,3250.5847,N,11705.1782,W,41.26,75.3,191110,,*2C
$GPRMC,014030.000,A,3250.5936,N,11705.1388,W,40.92,75.4,191110,,*2A
$GPRMC,014033.000,A,3250.6017,N,11705.1002,W,39.43,75.1,191110,,*26
$GPRMC,014036.000,A,3250.6102,N,11705.0645,W,36.26,73.5,191110,,*2C
$GPRMC,014039.000,A,3250.6198,N,11705.0298,W,36.58,72.2,191110,,*2B
$GPRMC,014042.000,A,3250.6290,N,11704.9986,W,31.42,70.1,191110,,*2D
$GPRMC,014045.000,A,3250.6384,N,11704.9710,W,28.60,68.1,191110,,*2E
$GPRMC,014048.000,A,3250.6481,N,11704.9459,W,26.52,67.1,191110,,*2F
$GPRMC,014051.000,A,3250.6571,N,11704.9235,W,24.47,64.7,191110,,*26
$GPRMC,014054.000,A,3250.6673,N,11704.8998,W,29.56,63.7,191110,,*25
$GPRMC,014057.000,A,3250.6789,N,11704.8714,W,34.10,62.3,191110,,*23
$GPRMC,014100.000,A,3250.6938,N,11704.8414,W,35.88,59.7,191110,,*2B
$GPRMC,014103.000,A,3250.7095,N,11704.8114,W,36.54,58.0,191110,,*26
$GPRMC,014106.000,A,3250.7261,N,11704.7806,W,39.18,55.8,191110,,*2D
$GPRMC,014109.000,A,3250.7448,N,11704.7482,W,40.21,53.6,191110,,*23
$GPRMC,014112.000,A,3250.7648,N,11704.7178,W,38.28,51.2,191110,,*2B
$GPRMC,014115.000,A,3250.7864,N,11704.6882,W,39.35,49.1,191110,,*26
$GPRMC,014118.000,A,3250.8090,N,11704.6588,W,41.22,47.8,191110,,*2E
$GPRMC,014121.000,A,3250.8322,N,11704.6289,W,40.42,47.4,191110,,*23
$GPRMC,014124.000,A,3250.8540,N,11704.6007,W,37.17,47.3,191110,,*27
$GPRMC,014127.000,A,3250.8725,N,11704.5769,W,29.50,47.5,191110,,*23
$GPRMC,014130.000,A,3250.8874,N,11704.5571,W,25.50,47.9,191110,,*25
$GPRMC,014133.000,A,3250.9028,N,11704.5376,W,28.88,47.4,191110,,*22
$GPRMC,014136.000,A,3250.9206,N,11704.5151,W,32.63,47.1,191110,,*25
$GPRMC,014139.000,A,3250.9399,N,11704.4901,W,35.57,47.3,191110,,*23
$GPRMC,014142.000,A,3250.9611,N,11704.4638,W,37.45,45.9,191110,,*26
$GPRMC,014145.000,A,3250.9840,N,11704.4367,W,40.23,45.9,191110,,*24
$GPRMC,014148.000,A,3251.0073,N,11704.4076,W,40.97,47.0,191110,,*2E
$GPRMC,014151.000,A,3251.0306,N,11704.3777,W,41.22,47.1,191110,,*28
$GPRMC,014154.000,A,3251.0539,N,11704.3473,W,42.19,47.3,191110,,*29
$GPRMC,014157.000,A,3251.0788,N,11704.3158,W,43.49,47.3,191110,,*2A
$GPRMC,014200.000,A,3251.1021,N,11704.2847,W,40.13,49.0,191110,,*29
$GPRMC,014203.000,A,3251.1222,N,11704.2552,W,37.34,51.3,191110,,*2D
$GPRMC,014206.000,A,3251.1410,N,11704.2257,W,37.39,54.0,191110,,*26
$GPRMC,014209.000,A,3251.1588,N,11704.1942,W,39.32,56.4,191110,,*26
$GPRMC,014212.000,A,3251.1761,N,11704.1608,W,38.87,59.1,191110,,*2D
$GPRMC,014215.000,A,3251.1927,N,11704.1258,W,40.68,61.3,191110,,*20
$GPRMC,014218.000,A,3251.2082,N,11704.0902,W,39.68,64.0,191110,,*25
$GPRMC,014221.000,A,3251.2218,N,11704.0552,W,37.85,66.9,191110,,*21
$GPRMC,014224.000,A,3251.2331,N,11704.0210,W,35.78,69.2,191110,,*2B
$GPRMC,014227.000,A,3251.2433,N,11703.9871,W,37.27,71.2,191110,,*2F
$GPRMC,014230.000,A,3251.2525,N,11703.9517,W,38.71,73.9,191110,,*27
$GPRMC,014233.000,A,3251.2599,N,11703.9143,W,38.18,76.7,191110,,*22
$GPRMC,014236.000,A,3251.2661,N,11703.8767,W,40.23,79.1,191110,,*2C
$GPRMC,014239.000,A,3251.2706,N,11703.8370,W,41.64,81.7,191110,,*22
$GPRMC,014242.000,A,3251.2740,N,11703.7959,W,40.95,84.2,191110,,*2D
$GPRMC,014245.000,A,3251.2761,N,11703.7568,W,37.75,86.9,191110,,*20
$GPRMC,014248.000,A,3251.2764,N,11703.7219,W,33.37,89.3,191110,,*2E
$GPRMC,014251.000,A,3251.2755,N,11703.6891,W,32.19,91.6,191110,,*2E
$GPRMC,014254.000,A,3251.2742,N,11703.6583,W,31.84,93.7,191110,,*27
$GPRMC,014257.000,A,3251.2716,N,11703.6266,W,31.70,95.7,191110,,*24
$GPRMC,014300.000,A,3251.2683,N,11703.5980,W,26.76,97.9,191110,,*26
$GPRMC,014303.000,A,3251.2647,N,11703.5731,W,23.59,99.4,191110,,*22
$GPRMC,014306.000,A,3251.2611,N,11703.5494,W,25.05,100.0,191110,,*12
$GPRMC,014309.000,A,3251.2574,N,11703.5243,W,27.11,99.8,191110,,*2F
$GPRMC,014312.000,A,3251.2538,N,11703.4950,W,31.18,97.9,191110,,*24
$GPRMC,014315.000,A,3251.2500,N,11703.4622,W,34.56,98.1,191110,,*2A
$GPRMC,014318.000,A,3251.2451,N,11703.4280,W,36.23,99.7,191110,,*29
$GPRMC,014321.000,A,3251.2399,N,11703.3923,W,37.25,100.0,191110,,*14
$GPRMC,014324.000,A,3251.2347,N,11703.3559,W,37.64,99.9,191110,,*2E
$GPRMC,014327.000,A,3251.2284,N,11703.3179,W,40.72,100.0,191110,,*1A
$GPRMC,014330.000,A,3251.2226,N,11703.2772,W,42.18,100.2,191110,,*14
$GPRMC,014333.000,A,3251.2162,N,11703.2349,W,44.47,99.9,191110,,*2E
$GPRMC,014336.000,A,3251.2100,N,11703.1913,W,44.24,99.7,191110,,*22
$GPRMC,014339.000,A,3251.2041,N,11703.1489,W,42.56,99.7,191110,,*24
$GPRMC,014342.000,A,3251.1979,N,11703.1101,W,37.90,100.4,191110,,*16
$GPRMC,014345.000,A,3251.1923,N,11703.0732,W,38.17,100.4,191110,,*19
$GPRMC,014348.000,A,3251.1865,N,11703.0356,W,39.45,100.1,191110,,*12
$GPRMC,014351.000,A,3251.1806,N,11702.9958,W,42.75,100.0,191110,,*1D
$GPRMC,014354.000,A,3251.1744,N,11702.9521,W,46.78,100.1,191110,,*1B
$GPRMC,014357.000,A,3251.1675,N,11702.9048,W,49.49,100.0,191110,,*1D
$GPRMC,014400.000,A,3251.1605,N,11702.8558,W,50.75,99.3,191110,,*2F
$GPRMC,014403.000,A,3251.1532,N,11702.8055,W,51.83,99.5,191110,,*2D
$GPRMC,014406.000,A,3251.1462,N,11702.7552,W,52.11,99.6,191110,,*2A
$GPRMC,014409.000,A,3251.1388,N,11702.7050,W,50.88,100.1,191110,,*15
$GPRMC,014412.000,A,3251.1313,N,11702.6567,W,48.92,100.5,191110,,*1B
$GPRMC,014415.000,A,3251.1244,N,11702.6093,W,47.57,100.2,191110,,*10
$GPRMC,014418.000,A,3251.1179,N,11702.5643,W,45.16,100.1,191110,,*1C
$GPRMC,014421.000,A,3251.1111,N,11702.5208,W,44.21,100.2,191110,,*15
$GPRMC,014424.000,A,3251.1045,N,11702.4784,W,42.94,100.6,191110,,*1C
$GPRMC,014427.000,A,3251.0975,N,11702.4381,W,40.06,100.8,191110,,*12
$GPRMC,014430.000,A,3251.0917,N,11702.4012,W,35.55,101.2,191110,,*16
$GPRMC,014433.000,A,3251.0866,N,11702.3686,W,33.35,101.2,191110,,*1E
$GPRMC,014436.000,A,3251.0803,N,11702.3339,W,38.03,101.9,191110,,*1C
$GPRMC,014439.000,A,3251.0736,N,11702.2955,W,39.02,101.4,191110,,*16
$GPRMC,014442.000,A,3251.0677,N,11702.2615,W,29.83,100.8,191110,,*10
$GPRMC,014445.000,A,3251.0638,N,11702.2344,W,28.56,101.0,191110,,*1D
$GPRMC,014448.000,A,3251.0599,N,11702.2062,W,29.34,100.2,191110,,*19
$GPRMC,014451.000,A,3251.0551,N,11702.1761,W,33.55,102.2,191110,,*1C
$GPRMC,014454.000,A,3251.0496,N,11702.1426,W,34.93,101.0,191110,,*1F
$GPRMC,014457.000,A,3251.0437,N,11702.1088,W,35.27,102.1,191110,,*1B
$GPRMC,014500.000,A,3251.0365,N,11702.0752,W,34.58,104.6,191110,,*11
$GPRMC,014503.000,A,3251.0283,N,11702.0427,W,32.60,107.1,191110,,*13
$GPRMC,014506.000,A,3251.0188,N,11702.0129,W,31.36,109.8,191110,,*12
$GPRMC,014509.000,A,3251.0094,N,11701.9849,W,30.01,112.5,191110,,*16
$GPRMC,014512.000,A,3250.9996,N,11701.9590,W,26.84,114.7,191110,,*18
$GPRMC,014515.000,A,3250.9895,N,11701.9354,W,27.64,116.3,191110,,*1A
$GPRMC,014518.000,A,3250.9784,N,11701.9113,W,28.68,118.4,191110,,*13
$GPRMC,014521.000,A,3250.9670,N,11701.8873,W,28.09,120.4,191110,,*11
$GPRMC,014524.000,A,3250.9546,N,11701.8632,W,28.23,122.4,191110,,*13
$GPRMC,014527.000,A,3250.9414,N,11701.8401,W,27.92,124.6,191110,,*15
$GPRMC,014530.000,A,3250.9273,N,11701.8180,W,29.25,126.8,191110,,*16
$GPRMC,014533.000,A,3250.9104,N,11701.7930,W,34.69,129.1,191110,,*18
$GPRMC,014536.000,A,3250.8908,N,11701.7665,W,34.76,132.1,191110,,*13
$GPRMC,014539.000,A,3250.8714,N,11701.7424,W,32.73,134.3,191110,,*1F
$GPRMC,014542.000,A,3250.8522,N,11701.7210,W,28.01,136.6,191110,,*1C
$GPRMC,014545.000,A,3250.8371,N,11701.7046,W,21.48,137.4,191110,,*1D
$GPRMC,014548.000,A,3250.8276,N,11701.6945,W,10.72,137.9,191110,,*1B
$GPRMC,014551.000,A,3250.8224,N,11701.6899,W,6.58,141.7,191110,,*24
$GPRMC,014557.000,A,3250.8173,N,11701.6849,W,7.51,140.8,191110,,*28
$GPRMC,014600.000,A,3250.8128,N,11701.6803,W,8.02,141.4,191110,,*2D
$GPRMC,014603.000,A,3250.8077,N,11701.6758,W,6.94,142.8,191110,,*2A
$GPRMC,014606.000,A,3250.8017,N,11701.6712,W,12.25,143.6,191110,,*17
$GPRMC,014609.000,A,3250.7904,N,11701.6618,W,19.75,145.2,191110,,*1B
$GPRMC,014612.000,A,3250.7748,N,11701.6496,W,23.04,146.8,191110,,*15
$GPRMC,014615.000,A,3250.7588,N,11701.6375,W,22.64,147.2,191110,,*1A
$GPRMC,014618.000,A,3250.7429,N,11701.6249,W,23.91,148.8,191110,,*1D
$GPRMC,014621.000,A,3250.7259,N,11701.6132,W,23.50,150.6,191110,,*13
$GPRMC,014624.000,A,3250.7095,N,11701.6031,W,21.68,152.8,191110,,*13
$GPRMC,014627.000,A,3250.6930,N,11701.5933,W,22.76,153.6,191110,,*1C
$GPRMC,014630.000,A,3250.6754,N,11701.5834,W,24.06,154.4,191110,,*14
$GPRMC,014633.000,A,3250.6546,N,11701.5721,W,29.70,154.8,191110,,*1D
$GPRMC,014636.000,A,3250.6303,N,11701.5594,W,31.72,154.9,191110,,*19
$GPRMC,014639.000,A,3250.6064,N,11701.5453,W,32.82,154.9,191110,,*12
$GPRMC,014642.000,A,3250.5818,N,11701.5316,W,31.98,154.9,191110,,*10
$GPRMC,014645.000,A,3250.5583,N,11701.5181,W,30.70,154.7,191110,,*1D
$GPRMC,014648.000,A,3250.5362,N,11701.5058,W,27.63,154.7,191110,,*18
$GPRMC,014651.000,A,3250.5175,N,11701.4947,W,23.46,154.2,191110,,*14
$GPRMC,014654.000,A,3250.5013,N,11701.4854,W,20.07,154.3,191110,,*14
$GPRMC,014657.000,A,3250.4882,N,11701.4778,W,14.67,154.3,191110,,*16
$GPRMC,014700.000,A,3250.4790,N,11701.4726,W,10.95,154.3,191110,,*1B
$GPRMC,014703.000,A,3250.4707,N,11701.4680,W,10.08,154.5,191110,,*19
$GPRMC,014706.000,A,3250.4629,N,11701.4638,W,11.58,154.6,191110,,*15
$GPRMC,014709.000,A,3250.4534,N,11701.4580,W,14.68,154.3,191110,,*16
$GPRMC,014712.000,A,3250.4415,N,11701.4517,W,15.82,154.6,191110,,*10
$GPRMC,014715.000,A,3250.4281,N,11701.4442,W,19.56,154.3,191110,,*1D
$GPRMC,014718.000,A,3250.4107,N,11701.4352,W,24.53,154.5,191110,,*16
$GPRMC,014721.000,A,3250.3912,N,11701.4239,W,25.99,154.6,191110,,*1F
$GPRMC,014724.000,A,3250.3719,N,11701.4125,W,25.74,154.6,191110,,*12
$GPRMC,014727.000,A,3250.3538,N,11701.4010,W,24.01,153.0,191110,,*15
$GPRMC,014730.000,A,3250.3379,N,11701.3900,W,21.92,150.8,191110,,*1B
$GPRMC,014733.000,A,3250.3230,N,11701.3787,W,20.82,147.8,191110,,*13
$GPRMC,014736.000,A,3250.3092,N,11701.3672,W,19.86,144.7,191110,,*15
$GPRMC,014739.000,A,3250.2952,N,11701.3546,W,22.53,142.5,191110,,*1E
$GPRMC,014742.000,A,3250.2803,N,11701.3402,W,23.76,139.1,191110,,*18
$GPRMC,014745.000,A,3250.2646,N,11701.3226,W,27.03,136.0,191110,,*18
$GPRMC,014748.000,A,3250.2494,N,11701.3025,W,27.67,132.7,191110,,*18
$GPRMC,014751.000,A,3250.2337,N,11701.2807,W,30.55,128.7,191110,,*1B
$GPRMC,014754.000,A,3250.2194,N,11701.2554,W,30.56,124.2,191110,,*14
$GPRMC,014757.000,A,3250.2064,N,11701.2272,W,33.98,118.1,191110,,*17
$GPRMC,014800.000,A,3250.1949,N,11701.1955,W,35.16,114.1,191110,,*1E
$GPRMC,014803.000,A,3250.1847,N,11701.1646,W,31.47,111.1,191110,,*1A
$GPRMC,014806.000,A,3250.1776,N,11701.1353,W,29.98,106.6,191110,,*19
$GPRMC,014809.000,A,3250.1718,N,11701.1071,W,30.24,102.5,191110,,*15
$GPRMC,014812.000,A,3250.1679,N,11701.0771,W,30.85,98.4,191110,,*27
$GPRMC,014815.000,A,3250.1656,N,11701.0471,W,29.72,95.1,191110,,*26
$GPRMC,014818.000,A,3250.1635,N,11701.0184,W,28.49,94.1,191110,,*29
$GPRMC,014821.000,A,3250.1618,N,11700.9898,W,30.71,94.2,191110,,*21
$GPRMC,014824.000,A,3250.1598,N,11700.9574,W,34.63,93.9,191110,,*2B
$GPRMC,014827.000,A,3250.1574,N,11700.9217,W,37.81,94.0,191110,,*29
$GPRMC,014830.000,A,3250.1550,N,11700.8820,W,42.06,93.9,191110,,*25
$GPRMC,014833.000,A,3250.1523,N,11700.8384,W,46.29,93.9,191110,,*2E
$GPRMC,014836.000,A,3250.1499,N,11700.7909,W,50.09,93.1,191110,,*26
$GPRMC,014839.000,A,3250.1495,N,11700.7399,W,52.39,89.4,191110,,*29
$GPRMC,014842.000,A,3250.1536,N,11700.6885,W,50.93,84.4,191110,,*25
$GPRMC,014845.000,A,3250.1604,N,11700.6396,W,50.50,79.7,191110,,*27
$GPRMC,014848.000,A,3250.1697,N,11700.5895,W,52.30,78.1,191110,,*28
$GPRMC,014851.000,A,3250.1790,N,11700.5392,W,52.47,77.9,191110,,*2D
$GPRMC,014854.000,A,3250.1871,N,11700.4883,W,52.06,81.0,191110,,*27
$GPRMC,014857.000,A,3250.1898,N,11700.4374,W,52.14,86.7,191110,,*23
$GPRMC,014900.000,A,3250.1880,N,11700.3850,W,52.60,93.9,191110,,*2A
$GPRMC,014903.000,A,3250.1765,N,11700.3348,W,53.01,107.0,191110,,*1C
$GPRMC,014906.000,A,3250.1535,N,11700.2902,W,52.75,122.9,191110,,*17
$GPRMC,014909.000,A,3250.1203,N,11700.2544,W,53.87,139.0,191110,,*1B
$GPRMC,014912.000,A,3250.0786,N,11700.2298,W,55.79,155.5,191110,,*16
$GPRMC,014915.000,A,3250.0324,N,11700.2192,W,57.08,169.4,191110,,*1E
$GPRMC,014918.000,A,3249.9838,N,11700.2153,W,56.32,174.8,191110,,*11
$GPRMC,014921.000,A,3249.9355,N,11700.2139,W,54.87,178.1,191110,,*1E
$GPRMC,014924.000,A,3249.8894,N,11700.2119,W,54.78,176.9,191110,,*18
$GPRMC,014927.000,A,3249.8422,N,11700.2091,W,57.60,176.9,191110,,*11
$GPRMC,014930.000,A,3249.7931,N,11700.2060,W,60.07,177.1,191110,,*15
$GPRMC,014933.000,A,3249.7416,N,11700.2034,W,62.67,177.8,191110,,*12
$GPRMC,014936.000,A,3249.6891,N,11700.2015,W,63.03,178.4,191110,,*16
$GPRMC,014939.000,A,3249.6367,N,11700.2005,W,63.38,178.7,191110,,*11
$GPRMC,014942.000,A,3249.5836,N,11700.1986,W,63.79,177.1,191110,,*1C
$GPRMC,014945.000,A,3249.5307,N,11700.1927,W,63.78,173.9,191110,,*14
$GPRMC,014948.000,A,3249.4786,N,11700.1826,W,63.62,170.8,191110,,*1C
$GPRMC,014951.000,A,3249.4269,N,11700.1687,W,63.76,167.2,191110,,*1C
$GPRMC,014954.000,A,3249.3760,N,11700.1511,W,63.63,163.4,191110,,*18
$GPRMC,014957.000,A,3249.3258,N,11700.1317,W,63.55,162.2,191110,,*17
$GPRMC,015000.000,A,3249.2751,N,11700.1117,W,63.63,161.8,191110,,*1E
$GPRMC,015003.000,A,3249.2245,N,11700.0920,W,63.92,162.8,191110,,*1D
$GPRMC,015006.000,A,3249.1732,N,11700.0764,W,62.86,167.3,191110,,*1A
$GPRMC,015009.000,A,3249.1209,N,11700.0685,W,62.37,173.4,191110,,*1E
$GPRMC,015012.000,A,3249.0692,N,11700.0679,W,61.94,179.3,191110,,*17
$GPRMC,015015.000,A,3249.0176,N,11700.0724,W,62.21,185.0,191110,,*19
$GPRMC,015018.000,A,3248.9678,N,11700.0831,W,61.32,190.9,191110,,*12
$GPRMC,015021.000,A,3248.9201,N,11700.1004,W,59.82,197.0,191110,,*13
$GPRMC,015024.000,A,3248.8738,N,11700.1227,W,60.10,202.1,191110,,*14
$GPRMC,015027.000,A,3248.8282,N,11700.1515,W,61.94,207.7,191110,,*1B
$GPRMC,015030.000,A,3248.7835,N,11700.1832,W,62.34,209.9,191110,,*15
$GPRMC,015033.000,A,3248.7394,N,11700.2151,W,61.32,210.3,191110,,*1E
$GPRMC,015036.000,A,3248.6956,N,11700.2462,W,61.83,209.8,191110,,*12
$GPRMC,015039.000,A,3248.6507,N,11700.2760,W,61.42,208.0,191110,,*10
$GPRMC,015042.000,A,3248.6031,N,11700.3008,W,62.06,202.8,191110,,*15
$GPRMC,015045.000,A,3248.5539,N,11700.3195,W,61.53,196.9,191110,,*15
$GPRMC,015048.000,A,3248.5031,N,11700.3320,W,62.56,191.1,191110,,*10
$GPRMC,015051.000,A,3248.4516,N,11700.3376,W,62.56,185.2,191110,,*1C
$GPRMC,015054.000,A,3248.3993,N,11700.3386,W,63.02,181.3,191110,,*15
$GPRMC,015057.000,A,3248.3474,N,11700.3383,W,61.18,180.2,191110,,*1E
$GPRMC,015100.000,A,3248.2975,N,11700.3377,W,58.41,180.1,191110,,*1E
$GPRMC,015103.000,A,3248.2491,N,11700.3375,W,57.50,180.1,191110,,*17
$GPRMC,015106.000,A,3248.2004,N,11700.3374,W,58.36,180.1,191110,,*14
$GPRMC,015109.000,A,3248.1508,N,11700.3376,W,60.44,180.1,191110,,*1D
$GPRMC,015112.000,A,3248.0999,N,11700.3376,W,61.27,180.0,191110,,*17
$GPRMC,015115.000,A,3248.0492,N,11700.3378,W,61.40,180.1,191110,,*18
$GPRMC,015118.000,A,3247.9980,N,11700.3381,W,61.62,180.2,191110,,*18
$GPRMC,015121.000,A,3247.9472,N,11700.3377,W,60.24,180.0,191110,,*1A
$GPRMC,015124.000,A,3247.8972,N,11700.3376,W,60.14,180.0,191110,,*11
$GPRMC,015127.000,A,3247.8456,N,11700.3376,W,62.68,180.2,191110,,*12
$GPRMC,015130.000,A,3247.7931,N,11700.3379,W,62.97,180.6,191110,,*1C
$GPRMC,015133.000,A,3247.7410,N,11700.3414,W,62.68,183.5,191110,,*1D
$GPRMC,015136.000,A,3247.6887,N,11700.3480,W,63.49,186.6,191110,,*12
$GPRMC,015139.000,A,3247.6348,N,11700.3585,W,65.27,189.4,191110,,*12
$GPRMC,015142.000,A,3247.5801,N,11700.3702,W,65.54,190.0,191110,,*1E
$GPRMC,015145.000,A,3247.5260,N,11700.3800,W,65.93,189.2,191110,,*18
$GPRMC,015148.000,A,3247.4708,N,11700.3888,W,66.29,187.2,191110,,*13
$GPRMC,015151.000,A,3247.4164,N,11700.3942,W,63.13,184.1,191110,,*1C
$GPRMC,015154.000,A,3247.3651,N,11700.3971,W,60.94,181.9,191110,,*1E
$GPRMC,015157.000,A,3247.3153,N,11700.3987,W,58.91,181.6,191110,,*10
$GPRMC,015200.000,A,3247.2667,N,11700.3980,W,57.76,178.3,191110,,*12
$GPRMC,015203.000,A,3247.2191,N,11700.3930,W,55.71,174.5,191110,,*1B
$GPRMC,015206.000,A,3247.1725,N,11700.3857,W,55.89,172.0,191110,,*10
$GPRMC,015209.000,A,3247.1265,N,11700.3758,W,56.52,169.6,191110,,*17
$GPRMC,015212.000,A,3247.0817,N,11700.3642,W,54.69,167.5,191110,,*1E
$GPRMC,015215.000,A,3247.0393,N,11700.3516,W,51.13,166.0,191110,,*10
$GPRMC,015218.000,A,3246.9992,N,11700.3388,W,48.75,165.3,191110,,*17
$GPRMC,015221.000,A,3246.9629,N,11700.3273,W,42.29,165.4,191110,,*13
