NMEA Sentence Code,UTC Time,Status,Latitude,Latitude Direction,Longitude,Longitude Direction,Speed (knots),Track Angle (degrees true),Date,MagneticVariation,Magnetic Variation Direction,[FAA Mode]-Optional,Checksum
$GPRMC,230526.9,A,3243.612715,N,11709.566441,W,20.5,172.5,160410,,,A*4B
$GPRMC,230529.9,A,3243.582993,N,11709.569415,W,31.0,180.5,160410,,,A*48
$GPRMC,230532.9,A,3243.552605,N,11709.568956,W,37.0,179.2,160410,,,A*43
$GPRMC,230535.9,A,3243.520327,N,11709.566151,W,38.5,178.4,160410,,,A*48
$GPRMC,230538.9,A,3243.490066,N,11709.567863,W,34.3,182.3,160410,,,A*48
$GPRMC,230541.9,A,3243.468783,N,11709.568117,W,24.1,185.2,160410,,,A*4D
$GPRMC,230544.9,A,3243.461200,N,11709.567194,W,9.2,179.5,160410,,,A*73
$GPRMC,230547.9,A,3243.457411,N,11709.569368,W,4.5,200.5,160410,,,A*7B
$GPRMC,230620.9,A,3243.444918,N,11709.568770,W,12.9,184.2,160410,,,A*40
$GPRMC,230623.9,A,3243.425222,N,11709.565410,W,23.4,176.0,160410,,,A*4E
$GPRMC,230626.9,A,3243.401294,N,11709.564591,W,26.0,175.9,160410,,,A*42
$GPRMC,230629.9,A,3243.379830,N,11709.561926,W,25.7,174.2,160410,,,A*4A
$GPRMC,230632.9,A,3243.359536,N,11709.559765,W,22.1,176.4,160410,,,A*4E
$GPRMC,230635.9,A,3243.346913,N,11709.559409,W,17.2,180.9,160410,,,A*44
$GPRMC,230638.9,A,3243.329290,N,11709.559967,W,19.4,186.0,160410,,,A*42
$GPRMC,230641.9,A,3243.321161,N,11709.573932,W,17.9,247.6,160410,,,A*4A
$GPRMC,230644.9,A,3243.320507,N,11709.595424,W,17.7,263.1,160410,,,A*47
$GPRMC,230647.9,A,3243.323106,N,11709.603842,W,9.3,280.6,160410,,,A*73
$GPRMC,230650.9,A,3243.323447,N,11709.611309,W,7.2,304.1,160410,,,A*77
$GPRMC,230653.9,A,3243.329724,N,11709.613452,W,7.1,352.6,160410,,,A*74
$GPRMC,230656.9,A,3243.338899,N,11709.611841,W,6.8,1.4,160410,,,A*7B
$GPRMC,230706.2,A,3243.345766,N,11709.613059,W,4.7,5.5,160410,,,A*7A
$GPRMC,230709.2,A,3243.350241,N,11709.609916,W,6.9,54.3,160410,,,A*46
$GPRMC,230712.2,A,3243.353923,N,11709.597664,W,13.5,73.2,160410,,,A*72
$GPRMC,230715.2,A,3243.358590,N,11709.582164,W,17.4,69.2,160410,,,A*77
$GPRMC,230718.9,A,3243.364839,N,11709.562674,W,17.5,73.3,160410,,,A*73
$GPRMC,230721.2,A,3243.371079,N,11709.548260,W,19.9,64.2,160410,,,A*76
$GPRMC,230724.9,A,3243.376540,N,11709.533270,W,12.9,64.1,160410,,,A*75
$GPRMC,230727.9,A,3243.379032,N,11709.525146,W,7.4,68.5,160410,,,A*49
$GPRMC,230730.9,A,3243.381403,N,11709.518535,W,5.8,70.9,160410,,,A*4B
$GPRMC,230739.9,A,3243.388010,N,11709.503950,W,6.6,71.0,160410,,,A*4D
$GPRMC,230742.9,A,3243.390748,N,11709.498292,W,6.3,63.5,160410,,,A*47
$GPRMC,230745.9,A,3243.391932,N,11709.490439,W,8.0,70.8,160410,,,A*4F
$GPRMC,230748.9,A,3243.396638,N,11709.481945,W,10.2,65.1,160410,,,A*70
$GPRMC,230751.9,A,3243.399895,N,11709.469434,W,13.1,70.9,160410,,,A*7F
$GPRMC,230754.9,A,3243.405647,N,11709.453379,W,18.1,69.7,160410,,,A*73
$GPRMC,230757.9,A,3243.414499,N,11709.436586,W,20.5,65.7,160410,,,A*77
$GPRMC,230800.9,A,3243.421289,N,11709.417208,W,22.2,67.5,160410,,,A*7C
$GPRMC,230803.9,A,3243.426576,N,11709.393678,W,26.3,72.8,160410,,,A*7B
$GPRMC,230806.9,A,3243.428243,N,11709.365740,W,28.6,82.5,160410,,,A*7B
$GPRMC,230809.9,A,3243.432278,N,11709.338984,W,27.2,81.0,160410,,,A*74
$GPRMC,230812.9,A,3243.435277,N,11709.313105,W,26.5,81.1,160410,,,A*79
$GPRMC,230815.9,A,3243.437821,N,11709.285683,W,30.2,84.9,160410,,,A*7F
$GPRMC,230818.9,A,3243.439779,N,11709.251761,W,35.9,84.8,160410,,,A*75
$GPRMC,230821.9,A,3243.443960,N,11709.212788,W,41.8,82.6,160410,,,A*7E
$GPRMC,230824.9,A,3243.449004,N,11709.166569,W,46.7,85.8,160410,,,A*76
$GPRMC,230827.9,A,3243.445176,N,11709.121161,W,47.6,96.4,160410,,,A*7C
$GPRMC,230830.9,A,3243.433128,N,11709.074446,W,49.5,106.5,160410,,,A*45
$GPRMC,230833.9,A,3243.412690,N,11709.030655,W,49.9,115.5,160410,,,A*4F
$GPRMC,230836.9,A,3243.375734,N,11708.993112,W,57.3,137.9,160410,,,A*4F
$GPRMC,230839.9,A,3243.330911,N,11708.959928,W,61.3,148.8,160410,,,A*43
$GPRMC,230842.9,A,3243.281294,N,11708.937946,W,61.2,158.0,160410,,,A*4A
$GPRMC,230845.9,A,3243.232951,N,11708.921579,W,59.4,163.8,160410,,,A*4D
$GPRMC,230848.9,A,3243.184505,N,11708.908549,W,58.3,164.9,160410,,,A*4B
$GPRMC,230851.9,A,3243.139660,N,11708.896495,W,56.1,166.5,160410,,,A*41
$GPRMC,230854.9,A,3243.091696,N,11708.889824,W,57.8,174.8,160410,,,A*40
$GPRMC,230857.9,A,3243.041946,N,11708.890504,W,58.0,182.0,160410,,,A*4D
$GPRMC,230900.9,A,3242.997625,N,11708.894397,W,53.9,184.7,160410,,,A*4C
$GPRMC,230903.9,A,3242.954875,N,11708.897830,W,50.9,183.9,160410,,,A*44
$GPRMC,230906.9,A,3242.912544,N,11708.896354,W,50.1,173.8,160410,,,A*42
$GPRMC,230909.9,A,3242.873814,N,11708.881840,W,49.4,158.4,160410,,,A*43
$GPRMC,230912.9,A,3242.839215,N,11708.851088,W,51.5,142.5,160410,,,A*4F
$GPRMC,230915.9,A,3242.812002,N,11708.814100,W,49.9,129.4,160410,,,A*4C
$GPRMC,230918.9,A,3242.799423,N,11708.765159,W,48.9,110.2,160410,,,A*42
$GPRMC,230921.9,A,3242.791253,N,11708.721854,W,45.0,101.5,160410,,,A*46
$GPRMC,230924.9,A,3242.788029,N,11708.676565,W,43.3,98.8,160410,,,A*71
$GPRMC,230927.9,A,3242.785551,N,11708.631859,W,44.5,94.0,160410,,,A*71
$GPRMC,230930.9,A,3242.785467,N,11708.587609,W,44.2,91.0,160410,,,A*74
$GPRMC,230933.9,A,3242.786684,N,11708.541838,W,46.3,90.1,160410,,,A*7E
$GPRMC,230936.9,A,3242.786801,N,11708.494956,W,49.6,89.9,160410,,,A*72
$GPRMC,230939.9,A,3242.786640,N,11708.442968,W,52.1,90.1,160410,,,A*7D
$GPRMC,230942.9,A,3242.786512,N,11708.394725,W,48.3,90.1,160410,,,A*77
$GPRMC,230945.9,A,3242.788551,N,11708.349671,W,45.2,85.5,160410,,,A*75
$GPRMC,230948.9,A,3242.787966,N,11708.306464,W,44.4,89.3,160410,,,A*7F
$GPRMC,230951.9,A,3242.789080,N,11708.257887,W,48.8,88.8,160410,,,A*76
$GPRMC,230954.9,A,3242.790329,N,11708.207326,W,52.1,88.5,160410,,,A*71
$GPRMC,230957.9,A,3242.791368,N,11708.154682,W,55.2,88.8,160410,,,A*71
$GPRMC,231000.9,A,3242.789593,N,11708.099669,W,54.3,90.5,160410,,,A*71
$GPRMC,231003.9,A,3242.792023,N,11708.045552,W,55.2,87.0,160410,,,A*7F
$GPRMC,231006.9,A,3242.791809,N,11707.989078,W,58.0,88.8,160410,,,A*7A
$GPRMC,231009.9,A,3242.796648,N,11707.929540,W,61.9,84.4,160410,,,A*7E
$GPRMC,231012.9,A,3242.802835,N,11707.866527,W,63.8,81.9,160410,,,A*72
$GPRMC,231015.9,A,3242.813127,N,11707.804698,W,64.0,78.4,160410,,,A*78
$GPRMC,231018.9,A,3242.826439,N,11707.747087,W,60.4,74.7,160410,,,A*76
$GPRMC,231021.9,A,3242.839868,N,11707.692218,W,57.6,72.7,160410,,,A*77
$GPRMC,231024.9,A,3242.856151,N,11707.636710,W,58.3,70.7,160410,,,A*73
$GPRMC,231027.9,A,3242.871789,N,11707.579822,W,61.4,71.3,160410,,,A*78
$GPRMC,231030.9,A,3242.888941,N,11707.522554,W,61.7,69.8,160410,,,A*71
$GPRMC,231033.9,A,3242.908144,N,11707.464865,W,62.1,68.8,160410,,,A*7E
$GPRMC,231036.9,A,3242.925261,N,11707.409664,W,60.6,70.6,160410,,,A*76
$GPRMC,231039.9,A,3242.937350,N,11707.351132,W,61.8,75.3,160410,,,A*78
$GPRMC,231042.9,A,3242.949070,N,11707.291582,W,62.8,78.2,160410,,,A*71
$GPRMC,231045.9,A,3242.956575,N,11707.232199,W,61.9,80.3,160410,,,A*7B
$GPRMC,231048.9,A,3242.965799,N,11707.170252,W,62.7,79.1,160410,,,A*7E
$GPRMC,231051.9,A,3242.979084,N,11707.107197,W,66.1,78.9,160410,,,A*71
$GPRMC,231054.9,A,3242.988965,N,11707.041019,W,69.6,80.0,160410,,,A*7E
$GPRMC,231057.9,A,3243.000667,N,11706.973286,W,70.9,76.7,160410,,,A*7C
$GPRMC,231100.9,A,3243.018961,N,11706.905538,W,72.7,71.9,160410,,,A*79
$GPRMC,231103.9,A,3243.042570,N,11706.838501,W,72.6,68.0,160410,,,A*7C
$GPRMC,231106.9,A,3243.063476,N,11706.772108,W,71.1,68.9,160410,,,A*7C
$GPRMC,231109.9,A,3243.079906,N,11706.707291,W,68.4,73.8,160410,,,A*75
$GPRMC,231112.9,A,3243.088560,N,11706.643976,W,64.2,81.8,160410,,,A*79
$GPRMC,231115.9,A,3243.090039,N,11706.578647,W,65.7,89.3,160410,,,A*7F
$GPRMC,231118.9,A,3243.091279,N,11706.513709,W,66.7,90.7,160410,,,A*7C
$GPRMC,231121.9,A,3243.090566,N,11706.446013,W,69.0,88.0,160410,,,A*75
$GPRMC,231124.9,A,3243.101886,N,11706.379409,W,69.2,78.1,160410,,,A*72
$GPRMC,231127.9,A,3243.112740,N,11706.313300,W,68.2,78.9,160410,,,A*7D
$GPRMC,231130.9,A,3243.126623,N,11706.245783,W,70.1,77.3,160410,,,A*7A
$GPRMC,231133.2,A,3243.135345,N,11706.194073,W,69.4,79.1,160410,,,A*73
$GPRMC,231136.9,A,3243.141431,N,11706.107509,W,71.8,87.3,160410,,,A*7E
$GPRMC,231139.9,A,3243.143275,N,11706.036489,W,71.2,89.3,160410,,,A*7B
$GPRMC,231142.9,A,3243.143007,N,11705.967991,W,71.2,90.0,160410,,,A*71
$GPRMC,231145.9,A,3243.142040,N,11705.898219,W,68.8,91.3,160410,,,A*7E
$GPRMC,231148.9,A,3243.140552,N,11705.833729,W,66.8,91.7,160410,,,A*7A
$GPRMC,231151.9,A,3243.139822,N,11705.767552,W,67.1,92.4,160410,,,A*7E
$GPRMC,231154.9,A,3243.128212,N,11705.702209,W,68.8,102.6,160410,,,A*44
$GPRMC,231157.9,A,3243.106339,N,11705.644878,W,68.0,111.6,160410,,,A*46
$GPRMC,231200.9,A,3243.085234,N,11705.581858,W,66.5,111.1,160410,,,A*45
$GPRMC,231203.9,A,3243.070528,N,11705.520902,W,64.2,103.4,160410,,,A*40
$GPRMC,231206.9,A,3243.066693,N,11705.451108,W,65.7,93.9,160410,,,A*75
$GPRMC,231209.9,A,3243.067146,N,11705.388847,W,64.1,91.2,160410,,,A*7B
$GPRMC,231212.9,A,3243.064166,N,11705.326223,W,64.3,91.4,160410,,,A*78
$GPRMC,231215.9,A,3243.064848,N,11705.260495,W,66.2,89.3,160410,,,A*7F
$GPRMC,231218.9,A,3243.065665,N,11705.196764,W,65.7,88.8,160410,,,A*79
$GPRMC,231221.9,A,3243.071120,N,11705.130725,W,65.5,83.6,160410,,,A*7E
$GPRMC,231224.9,A,3243.081927,N,11705.068540,W,62.9,78.1,160410,,,A*7E
$GPRMC,231227.9,A,3243.104779,N,11705.009769,W,62.8,65.9,160410,,,A*7F
$GPRMC,231230.9,A,3243.130409,N,11704.958348,W,60.9,57.5,160410,,,A*7F
$GPRMC,231233.9,A,3243.165425,N,11704.910026,W,64.7,50.1,160410,,,A*7C
$GPRMC,231236.9,A,3243.201725,N,11704.860479,W,66.7,49.2,160410,,,A*7A
$GPRMC,231239.9,A,3243.237136,N,11704.812901,W,65.3,47.7,160410,,,A*7F
$GPRMC,231242.9,A,3243.272197,N,11704.763732,W,64.1,49.2,160410,,,A*76
$GPRMC,231245.9,A,3243.306666,N,11704.716563,W,63.3,50.1,160410,,,A*70
$GPRMC,231248.9,A,3243.340894,N,11704.667443,W,65.0,50.3,160410,,,A*7F
$GPRMC,231251.9,A,3243.378497,N,11704.618507,W,66.7,48.8,160410,,,A*7C
$GPRMC,231254.9,A,3243.413790,N,11704.568789,W,66.7,49.9,160410,,,A*77
$GPRMC,231257.9,A,3243.452710,N,11704.519978,W,66.7,48.4,160410,,,A*73
$GPRMC,231300.9,A,3243.487403,N,11704.470813,W,65.8,49.1,160410,,,A*73
$GPRMC,231303.9,A,3243.521918,N,11704.422992,W,63.6,49.6,160410,,,A*7A
$GPRMC,231306.9,A,3243.558510,N,11704.371966,W,66.9,49.6,160410,,,A*75
$GPRMC,231309.9,A,3243.599696,N,11704.319234,W,68.8,49.8,160410,,,A*79
$GPRMC,231312.9,A,3243.632398,N,11704.264932,W,67.2,57.6,160410,,,A*78
$GPRMC,231315.9,A,3243.656836,N,11704.203829,W,68.9,65.2,160410,,,A*79
$GPRMC,231318.9,A,3243.681812,N,11704.142436,W,69.1,65.0,160410,,,A*77
$GPRMC,231321.9,A,3243.704987,N,11704.080228,W,69.7,66.5,160410,,,A*7A
$GPRMC,231324.9,A,3243.727215,N,11704.017323,W,70.3,66.5,160410,,,A*76
$GPRMC,231327.9,A,3243.749353,N,11703.955777,W,65.5,66.0,160410,,,A*74
$GPRMC,231330.9,A,3243.771690,N,11703.902207,W,61.9,63.4,160410,,,A*7A
$GPRMC,231333.9,A,3243.795983,N,11703.847112,W,63.5,60.3,160410,,,A*73
$GPRMC,231336.9,A,3243.827556,N,11703.793289,W,65.5,55.1,160410,,,A*71
$GPRMC,231339.9,A,3243.861633,N,11703.738749,W,67.9,52.6,160410,,,A*7A
$GPRMC,231342.9,A,3243.899098,N,11703.686062,W,68.6,50.1,160410,,,A*79
$GPRMC,231345.9,A,3243.936429,N,11703.631875,W,70.2,50.0,160410,,,A*7A
$GPRMC,231348.9,A,3243.976977,N,11703.577312,W,72.4,48.1,160410,,,A*72
$GPRMC,231351.9,A,3244.019835,N,11703.526992,W,72.8,43.9,160410,,,A*73
$GPRMC,231354.9,A,3244.067780,N,11703.479151,W,74.7,39.2,160410,,,A*7D
$GPRMC,231357.9,A,3244.116147,N,11703.435023,W,73.2,37.3,160410,,,A*75
$GPRMC,231400.9,A,3244.163117,N,11703.392682,W,71.3,37.4,160410,,,A*74
$GPRMC,231403.9,A,3244.209483,N,11703.351076,W,70.4,37.2,160410,,,A*72
$GPRMC,231406.9,A,3244.254267,N,11703.308655,W,68.2,37.8,160410,,,A*7D
$GPRMC,231409.9,A,3244.299212,N,11703.268865,W,67.7,37.1,160410,,,A*78
$GPRMC,231412.9,A,3244.341801,N,11703.229527,W,66.6,37.7,160410,,,A*76
$GPRMC,231415.9,A,3244.385414,N,11703.189190,W,66.1,38.9,160410,,,A*76
$GPRMC,231418.9,A,3244.425591,N,11703.144322,W,64.5,44.3,160410,,,A*77
$GPRMC,231421.9,A,3244.462730,N,11703.097831,W,63.6,47.6,160410,,,A*73
$GPRMC,231424.9,A,3244.494222,N,11703.053754,W,61.3,49.4,160410,,,A*76
$GPRMC,231427.9,A,3244.529934,N,11703.007685,W,63.3,47.8,160410,,,A*72
$GPRMC,231430.9,A,3244.566023,N,11702.961086,W,64.0,48.0,160410,,,A*7E
$GPRMC,231433.9,A,3244.602682,N,11702.912025,W,65.6,48.9,160410,,,A*72
$GPRMC,231436.9,A,3244.639073,N,11702.860652,W,67.2,51.7,160410,,,A*75
$GPRMC,231439.9,A,3244.667774,N,11702.802977,W,68.4,64.0,160410,,,A*75
$GPRMC,231442.9,A,3244.683932,N,11702.735965,W,72.0,77.7,160410,,,A*7D
$GPRMC,231445.9,A,3244.687155,N,11702.667530,W,69.9,88.0,160410,,,A*79
$GPRMC,231448.9,A,3244.686168,N,11702.595958,W,70.5,90.3,160410,,,A*79
$GPRMC,231451.9,A,3244.684602,N,11702.530434,W,66.8,91.2,160410,,,A*7A
$GPRMC,231454.9,A,3244.684767,N,11702.464746,W,66.7,89.8,160410,,,A*77
$GPRMC,231457.9,A,3244.685424,N,11702.397449,W,68.0,89.1,160410,,,A*76
$GPRMC,231500.9,A,3244.685756,N,11702.332961,W,64.1,88.6,160410,,,A*70
$GPRMC,231503.9,A,3244.689273,N,11702.269614,W,64.1,85.4,160410,,,A*70
$GPRMC,231506.9,A,3244.695104,N,11702.205399,W,64.8,83.5,160410,,,A*7F
$GPRMC,231509.9,A,3244.706306,N,11702.148110,W,59.6,78.2,160410,,,A*71
$GPRMC,231512.9,A,3244.717130,N,11702.091834,W,59.3,76.0,160410,,,A*7F
$GPRMC,231515.9,A,3244.732463,N,11702.036268,W,59.1,72.5,160410,,,A*71
$GPRMC,231518.9,A,3244.747075,N,11701.979566,W,60.3,71.5,160410,,,A*7E
$GPRMC,231521.9,A,3244.766106,N,11701.922557,W,62.2,70.1,160410,,,A*78
$GPRMC,231524.9,A,3244.782331,N,11701.863396,W,61.5,71.7,160410,,,A*7D
$GPRMC,231527.9,A,3244.796556,N,11701.807043,W,60.2,73.0,160410,,,A*76
$GPRMC,231530.9,A,3244.811510,N,11701.748088,W,61.0,74.4,160410,,,A*71
$GPRMC,231533.9,A,3244.821780,N,11701.688279,W,62.1,80.0,160410,,,A*76
$GPRMC,231536.9,A,3244.827646,N,11701.627731,W,62.1,84.8,160410,,,A*7E
$GPRMC,231539.2,A,3244.826084,N,11701.585398,W,55.5,89.9,160410,,,A*73
$GPRMC,231542.9,A,3244.820802,N,11701.503076,W,63.6,93.9,160410,,,A*74
$GPRMC,231545.9,A,3244.813496,N,11701.440332,W,62.9,95.8,160410,,,A*7E
$GPRMC,231548.9,A,3244.807368,N,11701.381151,W,61.7,95.1,160410,,,A*79
$GPRMC,231551.9,A,3244.806447,N,11701.318761,W,64.2,89.8,160410,,,A*7B
$GPRMC,231554.9,A,3244.812446,N,11701.251890,W,68.1,81.3,160410,,,A*7B
$GPRMC,231557.9,A,3244.827854,N,11701.188497,W,66.7,71.8,160410,,,A*71
$GPRMC,231600.9,A,3244.852172,N,11701.132824,W,60.1,60.4,160410,,,A*76
$GPRMC,231603.2,A,3244.871209,N,11701.097516,W,54.9,56.2,160410,,,A*7E
$GPRMC,231606.2,A,3244.898290,N,11701.056435,W,54.2,55.1,160410,,,A*7A
$GPRMC,231609.2,A,3244.925173,N,11701.028375,W,35.0,46.9,160410,,,A*79
$GPRMC,231612.9,A,3244.944034,N,11701.003847,W,24.9,48.8,160410,,,A*78
$GPRMC,231615.9,A,3244.959028,N,11700.985674,W,26.7,45.6,160410,,,A*79
$GPRMC,231618.9,A,3244.976171,N,11700.966522,W,28.5,46.5,160410,,,A*75
$GPRMC,231621.9,A,3244.991862,N,11700.945767,W,26.0,45.4,160410,,,A*76
$GPRMC,231624.9,A,3245.002346,N,11700.931228,W,18.9,46.7,160410,,,A*75
$GPRMC,231627.9,A,3245.012738,N,11700.919324,W,19.2,46.9,160410,,,A*79
$GPRMC,231630.9,A,3245.024623,N,11700.904280,W,20.0,45.3,160410,,,A*73
$GPRMC,231633.9,A,3245.034557,N,11700.891388,W,16.2,46.1,160410,,,A*73
$GPRMC,231636.9,A,3245.040099,N,11700.883968,W,9.0,46.3,160410,,,A*4B
$GPRMC,231639.9,A,3245.045360,N,11700.876896,W,10.1,49.5,160410,,,A*7E
$GPRMC,231642.9,A,3245.052311,N,11700.868641,W,13.0,47.6,160410,,,A*76
$GPRMC,231645.9,A,3245.060675,N,11700.857696,W,16.5,47.3,160410,,,A*74
$GPRMC,231648.9,A,3245.071281,N,11700.844815,W,18.3,45.8,160410,,,A*70
$GPRMC,231651.9,A,3245.083765,N,11700.830550,W,18.4,45.6,160410,,,A*7C
$GPRMC,231654.9,A,3245.088046,N,11700.821912,W,13.0,55.5,160410,,,A*73
$GPRMC,231657.9,A,3245.097298,N,11700.811464,W,17.5,45.4,160410,,,A*71
$GPRMC,231700.9,A,3245.109321,N,11700.797295,W,20.2,44.4,160410,,,A*7C
$GPRMC,231703.9,A,3245.122952,N,11700.781272,W,21.3,45.5,160410,,,A*76
$GPRMC,231706.9,A,3245.137842,N,11700.763635,W,23.4,44.5,160410,,,A*78
$GPRMC,231709.9,A,3245.150237,N,11700.751571,W,20.1,40.8,160410,,,A*73
$GPRMC,231712.9,A,3245.161081,N,11700.740977,W,17.7,37.6,160410,,,A*72
$GPRMC,231715.9,A,3245.172234,N,11700.725806,W,22.4,45.9,160410,,,A*70
$GPRMC,231718.9,A,3245.186762,N,11700.708373,W,22.9,42.1,160410,,,A*74
$GPRMC,231721.9,A,3245.199297,N,11700.693925,W,19.1,42.4,160410,,,A*70
$GPRMC,231724.9,A,3245.210971,N,11700.682351,W,18.1,41.5,160410,,,A*7E
$GPRMC,231727.9,A,3245.219177,N,11700.671509,W,16.0,46.9,160410,,,A*79
$GPRMC,231730.9,A,3245.230517,N,11700.657981,W,16.9,46.1,160410,,,A*7F
$GPRMC,231733.9,A,3245.242027,N,11700.645231,W,18.5,43.2,160410,,,A*78
$GPRMC,231736.9,A,3245.251794,N,11700.635459,W,17.6,41.9,160410,,,A*7A
$GPRMC,231739.9,A,3245.264232,N,11700.621917,W,19.8,44.0,160410,,,A*74
$GPRMC,231744.9,A,3245.285179,N,11700.597881,W,22.1,42.3,160410,,,A*79
$GPRMC,231747.9,A,3245.298182,N,11700.582935,W,20.7,44.6,160410,,,A*7F
$GPRMC,231751.9,A,3245.311493,N,11700.568824,W,15.2,43.1,160410,,,A*7B
$GPRMC,231754.9,A,3245.323105,N,11700.555921,W,19.0,43.1,160410,,,A*71
$GPRMC,231757.9,A,3245.334712,N,11700.543652,W,19.5,42.6,160410,,,A*7B
$GPRMC,231800.9,A,3245.346849,N,11700.530804,W,19.3,41.6,160410,,,A*7E
$GPRMC,231803.9,A,3245.356974,N,11700.516968,W,19.3,46.5,160410,,,A*78
$GPRMC,231806.9,A,3245.371288,N,11700.500019,W,25.3,46.4,160410,,,A*76
$GPRMC,231809.9,A,3245.389057,N,11700.480854,W,29.0,44.2,160410,,,A*7D
$GPRMC,231812.9,A,3245.408894,N,11700.460933,W,30.0,42.5,160410,,,A*79
$GPRMC,231815.9,A,3245.424657,N,11700.438664,W,31.5,45.7,160410,,,A*70
$GPRMC,231818.9,A,3245.446845,N,11700.415179,W,33.8,43.7,160410,,,A*79
$GPRMC,231821.9,A,3245.468433,N,11700.389764,W,36.0,46.5,160410,,,A*70
$GPRMC,231824.9,A,3245.489637,N,11700.363816,W,37.0,47.0,160410,,,A*77
$GPRMC,231827.9,A,3245.508651,N,11700.335526,W,36.7,49.8,160410,,,A*71
$GPRMC,231830.9,A,3245.531645,N,11700.307473,W,37.8,47.7,160410,,,A*77
$GPRMC,231833.9,A,3245.550184,N,11700.280824,W,35.4,47.5,160410,,,A*75
$GPRMC,231836.9,A,3245.570478,N,11700.254363,W,37.2,48.3,160410,,,A*78
$GPRMC,231839.9,A,3245.594818,N,11700.227906,W,40.3,43.6,160410,,,A*75
$GPRMC,231842.9,A,3245.620368,N,11700.202111,W,41.3,38.6,160410,,,A*7D
$GPRMC,231845.9,A,3245.652830,N,11700.179687,W,46.1,30.7,160410,,,A*72
$GPRMC,231848.9,A,3245.688806,N,11700.158443,W,47.5,25.9,160410,,,A*7B
$GPRMC,231851.9,A,3245.725239,N,11700.142163,W,48.6,19.2,160410,,,A*77
$GPRMC,231854.9,A,3245.767062,N,11700.129086,W,51.2,13.5,160410,,,A*7E
$GPRMC,231857.9,A,3245.811276,N,11700.119576,W,52.7,8.4,160410,,,A*40
$GPRMC,231900.9,A,3245.855973,N,11700.114184,W,53.9,2.4,160410,,,A*4C
$GPRMC,231903.9,A,3245.905334,N,11700.115725,W,58.6,357.6,160410,,,A*4B
$GPRMC,231906.9,A,3245.955342,N,11700.118680,W,60.7,357.2,160410,,,A*47
$GPRMC,231909.9,A,3246.007348,N,11700.122135,W,62.4,357.5,160410,,,A*49
$GPRMC,231912.9,A,3246.057738,N,11700.123224,W,60.0,1.1,160410,,,A*45
$GPRMC,231915.9,A,3246.108029,N,11700.117190,W,60.0,5.4,160410,,,A*44
$GPRMC,231918.9,A,3246.158164,N,11700.112582,W,59.7,4.9,160410,,,A*47
$GPRMC,231921.9,A,3246.209112,N,11700.104007,W,60.1,6.7,160410,,,A*44
$GPRMC,231924.9,A,3246.252997,N,11700.100247,W,54.7,3.4,160410,,,A*4F
$GPRMC,231927.9,A,3246.300531,N,11700.102421,W,57.0,357.5,160410,,,A*49
$GPRMC,231930.9,A,3246.346489,N,11700.108453,W,56.1,353.5,160410,,,A*44
$GPRMC,231933.2,A,3246.381658,N,11700.116105,W,56.7,349.8,160410,,,A*40
$GPRMC,231936.2,A,3246.429802,N,11700.129569,W,58.1,347.5,160410,,,A*48
$GPRMC,231939.2,A,3246.475550,N,11700.141101,W,54.1,347.8,160410,,,A*41
$GPRMC,231942.2,A,3246.519064,N,11700.152840,W,53.3,347.2,160410,,,A*45
$GPRMC,231945.2,A,3246.563302,N,11700.157086,W,53.2,0.4,160410,,,A*4C
$GPRMC,231948.9,A,3246.615843,N,11700.152432,W,51.0,8.5,160410,,,A*41
$GPRMC,231951.9,A,3246.655933,N,11700.133858,W,49.4,24.5,160410,,,A*7F
$GPRMC,231954.9,A,3246.681414,N,11700.107633,W,41.1,38.9,160410,,,A*73
$GPRMC,231957.9,A,3246.705434,N,11700.079181,W,41.8,49.1,160410,,,A*7E
$GPRMC,232000.9,A,3246.724388,N,11700.042747,W,44.1,59.7,160410,,,A*7A
$GPRMC,232003.9,A,3246.737780,N,11700.004067,W,42.4,68.8,160410,,,A*7E
$GPRMC,232006.9,A,3246.747183,N,11659.964254,W,40.5,76.6,160410,,,A*7B
$GPRMC,232009.9,A,3246.751343,N,11659.924476,W,41.5,83.4,160410,,,A*76
$GPRMC,232012.9,A,3246.753085,N,11659.878836,W,46.2,89.4,160410,,,A*7D
$GPRMC,232015.9,A,3246.752419,N,11659.832224,W,48.9,90.4,160410,,,A*70
$GPRMC,232018.2,A,3246.750240,N,11659.791476,W,53.2,92.6,160410,,,A*78
$GPRMC,232021.9,A,3246.749539,N,11659.722922,W,58.1,92.0,160410,,,A*72
$GPRMC,232024.9,A,3246.748757,N,11659.664393,W,58.9,90.7,160410,,,A*72
$GPRMC,232027.9,A,3246.747840,N,11659.602906,W,62.2,91.5,160410,,,A*70
$GPRMC,232030.9,A,3246.745126,N,11659.539853,W,66.9,92.3,160410,,,A*7D
$GPRMC,232033.9,A,3246.743573,N,11659.471272,W,69.4,91.4,160410,,,A*7E
$GPRMC,232036.9,A,3246.742215,N,11659.402328,W,69.7,91.7,160410,,,A*77
$GPRMC,232039.9,A,3246.741296,N,11659.333515,W,68.5,90.6,160410,,,A*7E
$GPRMC,232042.9,A,3246.740440,N,11659.266484,W,67.0,91.5,160410,,,A*7E
$GPRMC,232045.9,A,3246.739273,N,11659.202691,W,65.9,91.2,160410,,,A*79
$GPRMC,232048.9,A,3246.741022,N,11659.136524,W,65.6,83.9,160410,,,A*73
$GPRMC,232051.9,A,3246.753977,N,11659.073028,W,67.0,76.2,160410,,,A*7D
$GPRMC,232054.9,A,3246.781350,N,11659.016335,W,64.7,59.9,160410,,,A*76
$GPRMC,232057.9,A,3246.814534,N,11658.966870,W,62.2,51.1,160410,,,A*74
$GPRMC,232100.9,A,3246.855995,N,11658.926931,W,65.3,36.3,160410,,,A*70
$GPRMC,232103.9,A,3246.903899,N,11658.895297,W,66.1,27.3,160410,,,A*73
$GPRMC,232106.9,A,3246.954678,N,11658.868585,W,66.4,25.0,160410,,,A*77
$GPRMC,232109.9,A,3247.003706,N,11658.841893,W,65.1,25.2,160410,,,A*7F
$GPRMC,232112.9,A,3247.052815,N,11658.813963,W,64.8,27.8,160410,,,A*75
$GPRMC,232115.9,A,3247.101586,N,11658.778931,W,65.8,32.1,160410,,,A*7B
$GPRMC,232118.9,A,3247.144981,N,11658.745587,W,62.7,33.4,160410,,,A*7F
$GPRMC,232121.9,A,3247.192672,N,11658.712725,W,64.7,30.2,160410,,,A*76
$GPRMC,232124.9,A,3247.242626,N,11658.685551,W,66.4,21.4,160410,,,A*75
$GPRMC,232127.9,A,3247.296519,N,11658.667519,W,67.8,15.6,160410,,,A*78
$GPRMC,232130.9,A,3247.352113,N,11658.662682,W,66.6,2.7,160410,,,A*45
$GPRMC,232133.9,A,3247.409515,N,11658.663176,W,67.9,0.9,160410,,,A*42
$GPRMC,232136.9,A,3247.463591,N,11658.664520,W,66.0,359.3,160410,,,A*4A
$GPRMC,232139.9,A,3247.518180,N,11658.661444,W,64.7,3.4,160410,,,A*44
$GPRMC,232142.9,A,3247.572676,N,11658.651457,W,65.5,8.4,160410,,,A*43
$GPRMC,232145.9,A,3247.626654,N,11658.643273,W,65.3,8.1,160410,,,A*46
$GPRMC,232148.9,A,3247.681919,N,11658.635272,W,65.5,7.2,160410,,,A*4A
$GPRMC,232151.9,A,3247.734552,N,11658.624050,W,64.1,8.4,160410,,,A*40
$GPRMC,232154.9,A,3247.786633,N,11658.615317,W,61.9,8.1,160410,,,A*42
$GPRMC,232157.9,A,3247.832708,N,11658.608747,W,53.4,8.6,160410,,,A*4E
$GPRMC,232200.9,A,3247.872303,N,11658.601139,W,47.2,11.2,160410,,,A*7D
$GPRMC,232203.9,A,3247.909375,N,11658.591399,W,45.4,15.0,160410,,,A*72
$GPRMC,232206.9,A,3247.938720,N,11658.578640,W,38.1,20.7,160410,,,A*79
$GPRMC,232209.9,A,3247.959503,N,11658.569553,W,25.9,21.5,160410,,,A*74
$GPRMC,232212.9,A,3247.970150,N,11658.563041,W,15.3,25.5,160410,,,A*76
$GPRMC,232215.9,A,3247.978248,N,11658.555184,W,12.9,28.2,160410,,,A*79
$GPRMC,232218.9,A,3247.984077,N,11658.551316,W,6.4,22.8,160410,,,A*4C
$GPRMC,232227.9,A,3247.993985,N,11658.542698,W,10.0,35.8,160410,,,A*76
$GPRMC,232230.9,A,3248.003871,N,11658.534567,W,16.9,37.4,160410,,,A*76
$GPRMC,232233.9,A,3248.020816,N,11658.521114,W,23.0,37.3,160410,,,A*79
$GPRMC,232236.9,A,3248.036605,N,11658.506412,W,23.0,39.1,160410,,,A*7D
$GPRMC,232239.9,A,3248.049022,N,11658.492841,W,21.8,41.8,160410,,,A*73
$GPRMC,232242.9,A,3248.065223,N,11658.477051,W,23.6,42.5,160410,,,A*72
$GPRMC,232245.9,A,3248.079730,N,11658.460188,W,24.8,46.6,160410,,,A*72
$GPRMC,232248.9,A,3248.092465,N,11658.442018,W,23.3,50.6,160410,,,A*7A
$GPRMC,232251.9,A,3248.105154,N,11658.424701,W,21.1,49.8,160410,,,A*73
$GPRMC,232254.9,A,3248.114532,N,11658.408609,W,19.9,54.4,160410,,,A*76
$GPRMC,232257.9,A,3248.124667,N,11658.392270,W,20.8,56.3,160410,,,A*75
$GPRMC,232300.9,A,3248.131413,N,11658.376188,W,18.7,63.1,160410,,,A*7D
$GPRMC,232303.9,A,3248.139819,N,11658.357351,W,22.4,64.3,160410,,,A*7A
$GPRMC,232306.9,A,3248.147687,N,11658.334411,W,24.6,66.6,160410,,,A*7A
$GPRMC,232309.9,A,3248.156191,N,11658.311561,W,26.0,68.7,160410,,,A*7F
$GPRMC,232312.9,A,3248.164120,N,11658.285938,W,26.3,69.4,160410,,,A*73
$GPRMC,232315.9,A,3248.168208,N,11658.271269,W,14.5,70.4,160410,,,A*7A
$GPRMC,232318.9,A,3248.170147,N,11658.263237,W,9.4,74.6,160410,,,A*45
$GPRMC,232321.9,A,3248.172265,N,11658.248849,W,15.4,82.5,160410,,,A*73
$GPRMC,232324.9,A,3248.173847,N,11658.231568,W,15.4,83.2,160410,,,A*7B
$GPRMC,232327.9,A,3248.175509,N,11658.220301,W,11.9,79.7,160410,,,A*79
$GPRMC,232330.9,A,3248.177035,N,11658.207846,W,13.7,79.7,160410,,,A*76
$GPRMC,232333.9,A,3248.176454,N,11658.191352,W,17.5,90.3,160410,,,A*70
$GPRMC,232336.9,A,3248.176896,N,11658.175851,W,14.2,86.4,160410,,,A*71
$GPRMC,232339.9,A,3248.176822,N,11658.167151,W,7.5,83.2,160410,,,A*4D
$GPRMC,232342.9,A,3248.174320,N,11658.156438,W,11.6,100.8,160410,,,A*46
$GPRMC,232345.9,A,3248.174401,N,11658.147516,W,7.9,89.4,160410,,,A*4C
$GPRMC,232348.9,A,3248.175602,N,11658.140087,W,7.1,84.0,160410,,,A*4A
$GPRMC,232351.9,A,3248.176535,N,11658.135141,W,5.9,89.2,160410,,,A*4A
$GPRMC,232354.9,A,3248.174364,N,11658.124118,W,13.6,94.4,160410,,,A*71
$GPRMC,232357.9,A,3248.173584,N,11658.104950,W,21.5,92.5,160410,,,A*7E
$GPRMC,232400.9,A,3248.175093,N,11658.080611,W,24.3,87.8,160410,,,A*73
$GPRMC,232403.9,A,3248.175489,N,11658.053231,W,28.1,89.2,160410,,,A*7D
$GPRMC,232406.9,A,3248.174742,N,11658.021482,W,32.9,91.4,160410,,,A*7A
$GPRMC,232409.9,A,3248.173542,N,11657.987168,W,34.5,93.1,160410,,,A*76
$GPRMC,232412.9,A,3248.170818,N,11657.952493,W,35.4,93.2,160410,,,A*77
$GPRMC,232415.9,A,3248.169208,N,11657.915836,W,35.9,92.0,160410,,,A*7D
$GPRMC,232418.2,A,3248.167483,N,11657.892731,W,30.0,92.4,160410,,,A*7E
$GPRMC,232421.9,A,3248.167860,N,11657.857278,W,29.9,94.9,160410,,,A*75
$GPRMC,232424.9,A,3248.149572,N,11657.825972,W,37.4,126.3,160410,,,A*46
$GPRMC,232427.9,A,3248.129645,N,11657.800972,W,33.8,127.5,160410,,,A*4C
$GPRMC,232430.9,A,3248.118101,N,11657.779141,W,26.4,109.3,160410,,,A*44
$GPRMC,232433.9,A,3248.114093,N,11657.757055,W,21.5,101.2,160410,,,A*46
$GPRMC,232436.9,A,3248.113505,N,11657.749142,W,6.9,77.2,160410,,,A*4F
$GPRMC,232445.9,A,3248.110997,N,11657.749025,W,8.3,149.0,160410,,,A*75
$GPRMC,232448.9,A,3248.100330,N,11657.745686,W,13.4,163.4,160410,,,A*4C
$GPRMC,232451.9,A,3248.092267,N,11657.744560,W,5.9,184.3,160410,,,A*73
$GPRMC,232533.9,A,3248.076965,N,11657.740550,W,10.9,171.9,160410,,,A*46
$GPRMC,232536.9,A,3248.065931,N,11657.741178,W,11.4,180.3,160410,,,A*47
$GPRMC,232539.9,A,3248.061178,N,11657.743064,W,4.7,200.3,160410,,,A*7B
$GPRMC,232727.9,A,3248.050837,N,11657.709678,W,23.8,101.5,160410,,,A*4D
$GPRMC,232730.9,A,3248.051534,N,11657.676714,W,34.6,91.6,160410,,,A*75
$GPRMC,232733.9,A,3248.052562,N,11657.636217,W,40.3,89.9,160410,,,A*74
$GPRMC,232736.9,A,3248.053636,N,11657.596464,W,39.3,88.0,160410,,,A*7F
$GPRMC,232739.9,A,3248.053365,N,11657.567306,W,29.8,89.4,160410,,,A*71
$GPRMC,232742.9,A,3248.052930,N,11657.542258,W,26.3,89.6,160410,,,A*7D
$GPRMC,232745.9,A,3248.054800,N,11657.515223,W,25.8,87.0,160410,,,A*70
$GPRMC,232748.9,A,3248.053288,N,11657.491752,W,23.7,91.4,160410,,,A*74
$GPRMC,232751.9,A,3248.053249,N,11657.473535,W,19.6,88.2,160410,,,A*78
$GPRMC,232754.9,A,3248.053047,N,11657.450333,W,23.3,89.6,160410,,,A*79
$GPRMC,232757.9,A,3248.052881,N,11657.432869,W,14.6,92.9,160410,,,A*7D
$GPRMC,232800.9,A,3248.050714,N,11657.419742,W,12.3,102.1,160410,,,A*4D
$GPRMC,232803.9,A,3248.047715,N,11657.409393,W,14.7,110.5,160410,,,A*45
$GPRMC,232806.9,A,3248.039235,N,11657.390981,W,22.2,115.0,160410,,,A*40
$GPRMC,232809.9,A,3248.033791,N,11657.365205,W,25.7,99.4,160410,,,A*70
$GPRMC,232812.9,A,3248.032339,N,11657.339329,W,26.8,91.2,160410,,,A*79
$GPRMC,232815.9,A,3248.033174,N,11657.314956,W,24.1,90.2,160410,,,A*73
$GPRMC,232818.9,A,3248.032859,N,11657.291493,W,23.5,90.6,160410,,,A*76
$GPRMC,232821.9,A,3248.031357,N,11657.269678,W,21.7,90.9,160410,,,A*75
$GPRMC,232824.9,A,3248.032954,N,11657.250033,W,18.8,87.4,160410,,,A*77
$GPRMC,232827.9,A,3248.032906,N,11657.231937,W,18.1,89.6,160410,,,A*7C
$GPRMC,232830.9,A,3248.029784,N,11657.215290,W,17.8,93.3,160410,,,A*7C
$GPRMC,232833.2,A,3248.031296,N,11657.197721,W,21.1,90.7,160410,,,A*76
$GPRMC,232836.2,A,3248.032430,N,11657.173600,W,24.2,90.1,160410,,,A*72
$GPRMC,232839.2,A,3248.031759,N,11657.152440,W,16.9,99.0,160410,,,A*75
$GPRMC,232842.9,A,3248.030375,N,11657.138230,W,8.9,88.8,160410,,,A*43
$GPRMC,232848.9,A,3248.028677,N,11657.125870,W,10.2,111.4,160410,,,A*4A
$GPRMC,232851.9,A,3248.022224,N,11657.116720,W,11.7,121.9,160410,,,A*4A
$GPRMC,232854.9,A,3248.017301,N,11657.106219,W,13.9,117.6,160410,,,A*47
$GPRMC,232857.9,A,3248.011366,N,11657.096507,W,10.7,121.2,160410,,,A*4F
$GPRMC,232900.9,A,3248.011270,N,11657.087618,W,8.8,100.3,160410,,,A*73
$GPRMC,232903.9,A,3248.011079,N,11657.073912,W,14.6,95.0,160410,,,A*78
$GPRMC,232906.9,A,3248.009532,N,11657.056681,W,20.0,92.0,160410,,,A*7A
$GPRMC,232909.9,A,3248.010487,N,11657.032941,W,21.9,88.8,160410,,,A*78
$GPRMC,232912.9,A,3248.009975,N,11657.011225,W,23.1,90.4,160410,,,A*7D
$GPRMC,232915.9,A,3248.009901,N,11656.991959,W,18.4,91.5,160410,,,A*74
$GPRMC,232918.9,A,3248.011968,N,11656.977199,W,15.4,85.9,160410,,,A*77
$GPRMC,232921.9,A,3248.011980,N,11656.959253,W,20.3,90.2,160410,,,A*7C
$GPRMC,232924.9,A,3248.009227,N,11656.938134,W,22.3,94.6,160410,,,A*71
$GPRMC,232927.9,A,3248.006756,N,11656.914787,W,22.8,94.2,160410,,,A*71
$GPRMC,232930.9,A,3248.009167,N,11656.892909,W,21.9,85.1,160410,,,A*7A
$GPRMC,232933.9,A,3248.008793,N,11656.872631,W,22.0,91.2,160410,,,A*73
$GPRMC,232936.9,A,3248.009989,N,11656.847717,W,25.3,89.5,160410,,,A*7B
$GPRMC,232939.9,A,3248.010008,N,11656.823587,W,24.6,87.5,160410,,,A*7F
$GPRMC,232942.9,A,3248.009775,N,11656.800272,W,24.7,89.7,160410,,,A*77
$GPRMC,232945.9,A,3248.009912,N,11656.774395,W,25.8,88.3,160410,,,A*70
$GPRMC,232948.9,A,3248.011361,N,11656.755285,W,16.6,86.4,160410,,,A*7E
$GPRMC,232951.9,A,3248.010969,N,11656.744851,W,8.7,90.3,160410,,,A*48
$GPRMC,232954.9,A,3248.009644,N,11656.740679,W,6.4,104.7,160410,,,A*70
$GPRMC,233009.9,A,3248.009450,N,11656.726974,W,11.6,95.7,160410,,,A*78
$GPRMC,233012.9,A,3248.008013,N,11656.715291,W,10.8,98.3,160410,,,A*76
$GPRMC,233015.9,A,3248.007546,N,11656.693314,W,18.2,89.2,160410,,,A*7B
$GPRMC,233018.9,A,3248.008926,N,11656.672604,W,21.7,86.6,160410,,,A*7C
$GPRMC,233021.9,A,3248.008641,N,11656.649900,W,23.3,89.3,160410,,,A*77
$GPRMC,233024.9,A,3248.007862,N,11656.629268,W,20.8,92.0,160410,,,A*70
$GPRMC,233027.9,A,3248.009383,N,11656.608632,W,21.5,88.9,160410,,,A*7F
$GPRMC,233030.9,A,3248.010459,N,11656.583194,W,27.1,91.0,160410,,,A*79
$GPRMC,233033.9,A,3248.010263,N,11656.553460,W,28.7,88.4,160410,,,A*73
$GPRMC,233036.9,A,3248.010387,N,11656.525319,W,27.9,90.3,160410,,,A*7A
$GPRMC,233039.9,A,3248.010639,N,11656.501955,W,24.0,89.8,160410,,,A*78
$GPRMC,233042.9,A,3248.009910,N,11656.477818,W,23.4,90.2,160410,,,A*71
$GPRMC,233045.9,A,3248.011265,N,11656.456021,W,22.9,89.5,160410,,,A*74
$GPRMC,233048.9,A,3248.010371,N,11656.435870,W,20.5,90.6,160410,,,A*70
$GPRMC,233051.9,A,3248.011183,N,11656.416967,W,18.3,90.3,160410,,,A*78
$GPRMC,233054.9,A,3248.010326,N,11656.391604,W,26.6,90.6,160410,,,A*7E
$GPRMC,233057.0,A,3248.011336,N,11656.370643,W,30.0,89.2,160410,,,A*75
$GPRMC,233100.9,A,3248.010020,N,11656.336994,W,19.9,89.5,160410,,,A*78
$GPRMC,233109.9,A,3248.009918,N,11656.332746,W,5.9,94.0,160410,,,A*4A
$GPRMC,233112.9,A,3248.009381,N,11656.321916,W,12.6,92.1,160410,,,A*7D
$GPRMC,233115.9,A,3248.009461,N,11656.310074,W,10.0,87.5,160410,,,A*78
$GPRMC,233118.9,A,3248.011096,N,11656.305318,W,5.2,48.5,160410,,,A*48
$GPRMC,233121.9,A,3248.008145,N,11656.299804,W,6.7,100.0,160410,,,A*79
$GPRMC,233124.9,A,3248.006892,N,11656.288073,W,14.7,95.6,160410,,,A*71
$GPRMC,233127.9,A,3248.008818,N,11656.280258,W,8.0,81.5,160410,,,A*41
$GPRMC,233130.9,A,3248.008351,N,11656.268213,W,11.0,89.0,160410,,,A*7D
$GPRMC,233133.9,A,3248.009405,N,11656.258462,W,10.2,83.8,160410,,,A*7B
$GPRMC,233136.9,A,3248.008906,N,11656.250869,W,7.9,89.4,160410,,,A*45
$GPRMC,233139.9,A,3248.010321,N,11656.242296,W,7.3,84.4,160410,,,A*42
$GPRMC,233142.9,A,3248.010471,N,11656.234758,W,6.5,84.2,160410,,,A*4B
$GPRMC,233145.9,A,3248.010845,N,11656.226385,W,6.5,87.4,160410,,,A*45
$GPRMC,233148.9,A,3248.009017,N,11656.222412,W,5.5,95.2,160410,,,A*44
$GPRMC,233151.9,A,3248.007313,N,11656.216943,W,4.9,148.6,160410,,,A*73
$GPRMC,233154.9,A,3247.995619,N,11656.216913,W,14.7,173.2,160410,,,A*42
$GPRMC,233157.9,A,3247.979460,N,11656.216294,W,20.9,178.9,160410,,,A*42
$GPRMC,233200.9,A,3247.956244,N,11656.216915,W,27.1,180.7,160410,,,A*4A
$GPRMC,233203.2,A,3247.939287,N,11656.217669,W,28.4,181.3,160410,,,A*4E
$GPRMC,233206.2,A,3247.914709,N,11656.217034,W,28.6,178.2,160410,,,A*4C
$GPRMC,233209.2,A,3247.891766,N,11656.217139,W,26.5,180.6,160410,,,A*44
$GPRMC,233212.2,A,3247.868046,N,11656.217630,W,29.0,183.4,160410,,,A*48
$GPRMC,233215.2,A,3247.842071,N,11656.217363,W,31.9,179.4,160410,,,A*45
$GPRMC,233218.9,A,3247.811039,N,11656.217222,W,28.9,180.1,160410,,,A*46
$GPRMC,233221.9,A,3247.792880,N,11656.216841,W,17.0,173.4,160410,,,A*40
$GPRMC,233224.9,A,3247.787352,N,11656.206777,W,14.7,114.2,160410,,,A*4D
$GPRMC,233227.9,A,3247.790558,N,11656.187631,W,20.2,87.9,160410,,,A*7F
$GPRMC,233230.9,A,3247.791786,N,11656.165562,W,18.2,86.2,160410,,,A*71
$GPRMC,233236.9,A,3247.789761,N,11656.150699,W,8.8,116.6,160410,,,A*71
$GPRMC,233239.9,A,3247.777368,N,11656.147109,W,17.5,170.1,160410,,,A*4E
$GPRMC,233242.9,A,3247.760106,N,11656.147868,W,16.9,183.8,160410,,,A*48
$GPRMC,233245.9,A,3247.751646,N,11656.148867,W,6.8,192.2,160410,,,A*74
$GPRMC,233403.9,A,3247.733006,N,11656.148592,W,17.8,176.9,160410,,,A*40
$GPRMC,233406.9,A,3247.711225,N,11656.146603,W,24.8,170.6,160410,,,A*4A
$GPRMC,233409.9,A,3247.688351,N,11656.147116,W,25.7,178.4,160410,,,A*40
$GPRMC,233412.9,A,3247.667830,N,11656.143914,W,26.0,169.9,160410,,,A*40
$GPRMC,233415.9,A,3247.649466,N,11656.133080,W,26.1,151.6,160410,,,A*42
$GPRMC,233418.9,A,3247.632441,N,11656.114791,W,28.4,138.9,160410,,,A*4F
$GPRMC,233421.9,A,3247.615006,N,11656.095852,W,29.3,137.1,160410,,,A*4E
$GPRMC,233424.9,A,3247.596954,N,11656.075035,W,30.5,134.9,160410,,,A*4F
$GPRMC,233427.9,A,3247.581684,N,11656.055575,W,25.3,132.4,160410,,,A*42
$GPRMC,233430.9,A,3247.574866,N,11656.047068,W,8.7,136.0,160410,,,A*7D
