NMEA Sentence Code,UTC Time,Status,Latitude,Latitude Direction,Longitude,Longitude Direction,Speed (knots),Track Angle (degrees true),Date,MagneticVariation,Magnetic Variation Direction,[FAA Mode]-Optional,Checksum
$GPRMC,005923.9,A,3247.3626,N,11706.5571,W,21.80,254.90,150210,,*27
$GPRMC,005926.9,A,3247.3567,N,11706.5807,W,26.30,253.50,150210,,*2F
$GPRMC,005929.9,A,3247.3505,N,11706.6082,W,28.40,256.60,150210,,*2D
$GPRMC,005932.9,A,3247.3447,N,11706.6358,W,27.60,255.90,150210,,*25
$GPRMC,005935.9,A,3247.3401,N,11706.6618,W,24.60,256.00,150210,,*28
$GPRMC,005938.9,A,3247.3364,N,11706.6814,W,18.20,258.00,150210,,*26
$GPRMC,005941.9,A,3247.3343,N,11706.6893,W,7.20,261.80,150210,,*1E
$GPRMC,010011.9,A,3247.3344,N,11706.6924,W,5.90,249.60,150210,,*11
$GPRMC,010014.9,A,3247.3370,N,11706.7015,W,8.20,278.20,150210,,*19
$GPRMC,010017.9,A,3247.3469,N,11706.7091,W,10.30,318.10,150210,,*25
$GPRMC,010020.9,A,3247.3708,N,11706.7211,W,23.40,324.10,150210,,*27
$GPRMC,010023.9,A,3247.3974,N,11706.7431,W,34.20,322.80,150210,,*2A
$GPRMC,010026.9,A,3247.4256,N,11706.7576,W,37.60,338.80,150210,,*2D
$GPRMC,010029.9,A,3247.4574,N,11706.7581,W,37.30,1.00,150210,,*29
$GPRMC,010032.9,A,3247.4918,N,11706.7463,W,44.10,15.70,150210,,*1C
$GPRMC,010035.9,A,3247.5283,N,11706.7334,W,47.40,15.40,150210,,*13
$GPRMC,010038.9,A,3247.5684,N,11706.7218,W,50.20,11.00,150210,,*12
$GPRMC,010041.9,A,3247.6127,N,11706.7135,W,55.80,6.00,150210,,*24
$GPRMC,010044.9,A,3247.6613,N,11706.7101,W,58.70,1.20,150210,,*21
$GPRMC,010047.9,A,3247.7113,N,11706.7108,W,59.40,357.60,150210,,*2B
$GPRMC,010050.9,A,3247.7610,N,11706.7140,W,59.50,355.40,150210,,*24
$GPRMC,010053.9,A,3247.8098,N,11706.7185,W,58.40,354.90,150210,,*2B
$GPRMC,010056.9,A,3247.8581,N,11706.7241,W,58.30,354.80,150210,,*2E
$GPRMC,010059.9,A,3247.9069,N,11706.7297,W,58.60,354.50,150210,,*20
$GPRMC,010102.9,A,3247.9557,N,11706.7352,W,59.10,354.60,150210,,*2A
$GPRMC,010105.9,A,3248.0048,N,11706.7404,W,59.60,354.80,150210,,*2D
$GPRMC,010108.9,A,3248.0544,N,11706.7458,W,59.60,354.80,150210,,*20
$GPRMC,010111.9,A,3248.1044,N,11706.7509,W,59.30,355.00,150210,,*25
$GPRMC,010114.9,A,3248.1540,N,11706.7565,W,59.30,354.20,150210,,*28
$GPRMC,010117.9,A,3248.2033,N,11706.7626,W,59.80,353.60,150210,,*25
$GPRMC,010120.9,A,3248.2530,N,11706.7700,W,60.50,352.60,150210,,*24
$GPRMC,010123.9,A,3248.3033,N,11706.7775,W,60.80,352.80,150210,,*21
$GPRMC,010126.9,A,3248.3535,N,11706.7856,W,61.10,353.20,150210,,*2A
$GPRMC,010129.9,A,3248.4046,N,11706.7936,W,60.80,351.80,150210,,*24
$GPRMC,010132.9,A,3248.4547,N,11706.8015,W,61.00,351.40,150210,,*28
$GPRMC,010135.9,A,3248.5076,N,11706.8080,W,62.00,352.30,150210,,*22
$GPRMC,010138.9,A,3248.5598,N,11706.8154,W,61.50,352.80,150210,,*2F
$GPRMC,010141.9,A,3248.6102,N,11706.8233,W,60.10,352.30,150210,,*29
$GPRMC,010144.9,A,3248.6584,N,11706.8323,W,57.50,351.60,150210,,*20
$GPRMC,010147.9,A,3248.7058,N,11706.8411,W,58.00,352.30,150210,,*2C
$GPRMC,010150.9,A,3248.7532,N,11706.8486,W,59.20,352.70,150210,,*2A
$GPRMC,010153.9,A,3248.8021,N,11706.8574,W,60.20,351.80,150210,,*2B
$GPRMC,010156.9,A,3248.8523,N,11706.8666,W,61.00,351.40,150210,,*26
$GPRMC,010159.9,A,3248.9028,N,11706.8762,W,61.70,350.90,150210,,*28
$GPRMC,010202.9,A,3248.9541,N,11706.8860,W,62.00,350.30,150210,,*2C
$GPRMC,010205.9,A,3249.0051,N,11706.8962,W,61.70,349.70,150210,,*2C
$GPRMC,010208.9,A,3249.0563,N,11706.9070,W,61.60,349.50,150210,,*2D
$GPRMC,010211.9,A,3249.1066,N,11706.9181,W,61.50,349.60,150210,,*2B
$GPRMC,010214.9,A,3249.1574,N,11706.9290,W,62.30,349.60,150210,,*2E
$GPRMC,010217.9,A,3249.2089,N,11706.9403,W,63.00,349.40,150210,,*25
$GPRMC,010220.9,A,3249.2611,N,11706.9515,W,63.50,349.50,150210,,*24
$GPRMC,010223.9,A,3249.3131,N,11706.9629,W,63.40,349.30,150210,,*28
$GPRMC,010226.9,A,3249.3650,N,11706.9749,W,63.40,348.70,150210,,*2F
$GPRMC,010229.9,A,3249.4174,N,11706.9873,W,63.90,348.80,150210,,*22
$GPRMC,010232.9,A,3249.4688,N,11706.9993,W,63.60,349.30,150210,,*26
$GPRMC,010235.9,A,3249.5211,N,11707.0113,W,63.40,349.30,150210,,*2E
$GPRMC,010238.9,A,3249.5730,N,11707.0223,W,62.80,349.30,150210,,*28
$GPRMC,010241.9,A,3249.6234,N,11707.0339,W,62.10,349.30,150210,,*27
$GPRMC,010244.9,A,3249.6744,N,11707.0450,W,61.70,349.60,150210,,*28
$GPRMC,010247.9,A,3249.7253,N,11707.0562,W,61.70,349.50,150210,,*2A
$GPRMC,010250.9,A,3249.7761,N,11707.0670,W,61.90,349.60,150210,,*25
$GPRMC,010253.9,A,3249.8278,N,11707.0781,W,62.50,349.40,150210,,*26
$GPRMC,010256.9,A,3249.8792,N,11707.0901,W,62.60,349.00,150210,,*23
$GPRMC,010259.9,A,3249.9308,N,11707.1014,W,61.90,349.30,150210,,*29
$GPRMC,010302.9,A,3249.9803,N,11707.1135,W,60.20,348.00,150210,,*2C
$GPRMC,010305.9,A,3250.0279,N,11707.1278,W,60.10,344.10,150210,,*29
$GPRMC,010308.9,A,3250.0746,N,11707.1471,W,59.40,339.80,150210,,*2E
$GPRMC,010311.9,A,3250.1217,N,11707.1697,W,59.60,337.50,150210,,*2D
$GPRMC,010314.9,A,3250.1677,N,11707.1917,W,59.90,337.80,150210,,*2F
$GPRMC,010317.9,A,3250.2140,N,11707.2129,W,59.80,341.30,150210,,*21
$GPRMC,010320.9,A,3250.2618,N,11707.2293,W,59.50,346.80,150210,,*2C
$GPRMC,010323.9,A,3250.3103,N,11707.2397,W,58.60,352.20,150210,,*2B
$GPRMC,010326.9,A,3250.3581,N,11707.2445,W,58.00,357.60,150210,,*2F
$GPRMC,010329.9,A,3250.4064,N,11707.2440,W,57.80,3.20,150210,,*2D
$GPRMC,010332.9,A,3250.4541,N,11707.2383,W,57.70,8.50,150210,,*2E
$GPRMC,010335.9,A,3250.5011,N,11707.2275,W,57.80,12.70,150210,,*16
$GPRMC,010338.9,A,3250.5469,N,11707.2119,W,57.60,18.90,150210,,*13
$GPRMC,010341.9,A,3250.5929,N,11707.1907,W,57.40,24.50,150210,,*11
$GPRMC,010344.9,A,3250.6359,N,11707.1651,W,57.10,29.20,150210,,*19
$GPRMC,010347.9,A,3250.6781,N,11707.1372,W,57.30,28.70,150210,,*19
$GPRMC,010350.9,A,3250.7205,N,11707.1101,W,57.10,28.90,150210,,*1D
$GPRMC,010353.9,A,3250.7621,N,11707.0828,W,56.80,29.00,150210,,*1F
$GPRMC,010356.9,A,3250.8040,N,11707.0559,W,56.50,28.50,150210,,*16
$GPRMC,010359.9,A,3250.8463,N,11707.0301,W,56.60,25.70,150210,,*1B
$GPRMC,010402.9,A,3250.8898,N,11707.0080,W,56.80,21.20,150210,,*1F
$GPRMC,010405.9,A,3250.9342,N,11706.9886,W,56.60,19.30,150210,,*17
$GPRMC,010408.9,A,3250.9787,N,11706.9728,W,56.70,16.30,150210,,*12
$GPRMC,010411.9,A,3251.0238,N,11706.9572,W,58.20,15.70,150210,,*12
$GPRMC,010414.9,A,3251.0702,N,11706.9414,W,58.70,15.60,150210,,*1E
$GPRMC,010417.9,A,3251.1173,N,11706.9261,W,59.20,15.70,150210,,*1D
$GPRMC,010420.9,A,3251.1650,N,11706.9102,W,59.80,15.50,150210,,*11
$GPRMC,010423.9,A,3251.2131,N,11706.8938,W,60.10,16.10,150210,,*15
$GPRMC,010426.9,A,3251.2614,N,11706.8754,W,60.30,20.60,150210,,*14
$GPRMC,010429.9,A,3251.3081,N,11706.8522,W,60.30,24.20,150210,,*13
$GPRMC,010432.9,A,3251.3547,N,11706.8257,W,61.00,27.50,150210,,*15
$GPRMC,010435.9,A,3251.4004,N,11706.7977,W,61.70,27.60,150210,,*15
$GPRMC,010438.9,A,3251.4469,N,11706.7693,W,62.50,27.50,150210,,*10
$GPRMC,010441.9,A,3251.4943,N,11706.7422,W,62.70,25.40,150210,,*12
$GPRMC,010444.9,A,3251.5436,N,11706.7190,W,63.40,20.20,150210,,*14
$GPRMC,010447.9,A,3251.5925,N,11706.6978,W,64.40,19.50,150210,,*1D
$GPRMC,010450.9,A,3251.6429,N,11706.6761,W,64.70,19.70,150210,,*1E
$GPRMC,010453.9,A,3251.6931,N,11706.6549,W,64.10,19.80,150210,,*18
$GPRMC,010456.9,A,3251.7430,N,11706.6327,W,63.20,21.00,150210,,*19
$GPRMC,010459.9,A,3251.7914,N,11706.6094,W,61.70,22.90,150210,,*1B
$GPRMC,010502.9,A,3251.8383,N,11706.5851,W,61.10,24.10,150210,,*15
$GPRMC,010505.9,A,3251.8848,N,11706.5607,W,60.70,24.30,150210,,*16
$GPRMC,010508.9,A,3251.9310,N,11706.5360,W,59.80,24.20,150210,,*1C
$GPRMC,010511.9,A,3251.9766,N,11706.5124,W,59.40,23.40,150210,,*1E
$GPRMC,010514.9,A,3252.0228,N,11706.4901,W,59.40,20.40,150210,,*13
$GPRMC,010517.9,A,3252.0699,N,11706.4708,W,59.30,17.40,150210,,*1A
$GPRMC,010520.9,A,3252.1172,N,11706.4542,W,58.80,15.80,150210,,*15
$GPRMC,010523.9,A,3252.1645,N,11706.4404,W,58.20,13.40,150210,,*16
$GPRMC,010526.9,A,3252.2126,N,11706.4302,W,58.10,9.90,150210,,*26
$GPRMC,010529.9,A,3252.2647,N,11706.4224,W,60.60,7.60,150210,,*21
$GPRMC,010532.9,A,3252.3155,N,11706.4171,W,60.90,5.40,150210,,*22
$GPRMC,010535.9,A,3252.3702,N,11706.4137,W,62.90,2.20,150210,,*20
$GPRMC,010538.9,A,3252.4214,N,11706.4117,W,61.90,359.60,150210,,*20
$GPRMC,010541.9,A,3252.4722,N,11706.4129,W,61.30,356.80,150210,,*28
$GPRMC,010544.9,A,3252.5230,N,11706.4172,W,62.10,355.40,150210,,*2A
$GPRMC,010547.9,A,3252.5745,N,11706.4234,W,62.20,353.10,150210,,*2F
$GPRMC,010550.9,A,3252.6258,N,11706.4320,W,62.30,351.10,150210,,*24
$GPRMC,010553.9,A,3252.6767,N,11706.4428,W,61.90,349.20,150210,,*22
$GPRMC,010556.9,A,3252.7263,N,11706.4559,W,61.10,347.00,150210,,*24
$GPRMC,010559.9,A,3252.7756,N,11706.4715,W,60.60,344.70,150210,,*20
$GPRMC,010602.9,A,3252.8228,N,11706.4886,W,59.50,342.60,150210,,*25
$GPRMC,010605.9,A,3252.8695,N,11706.5083,W,59.80,340.10,150210,,*24
$GPRMC,010608.9,A,3252.9157,N,11706.5284,W,60.20,338.20,150210,,*28
$GPRMC,010611.9,A,3252.9627,N,11706.5517,W,60.50,336.50,150210,,*23
$GPRMC,010614.9,A,3253.0078,N,11706.5762,W,59.30,334.50,150210,,*2C
$GPRMC,010617.9,A,3253.0505,N,11706.6019,W,56.20,333.10,150210,,*25
$GPRMC,010620.9,A,3253.0914,N,11706.6266,W,55.50,333.20,150210,,*20
$GPRMC,010623.9,A,3253.1327,N,11706.6518,W,55.80,332.80,150210,,*20
$GPRMC,010626.9,A,3253.1741,N,11706.6768,W,54.90,332.80,150210,,*24
$GPRMC,010629.9,A,3253.2139,N,11706.7016,W,53.90,332.40,150210,,*25
$GPRMC,010632.9,A,3253.2541,N,11706.7270,W,55.30,331.80,150210,,*25
$GPRMC,010635.9,A,3253.2947,N,11706.7527,W,55.80,333.20,150210,,*2E
$GPRMC,010638.9,A,3253.3363,N,11706.7774,W,56.10,333.80,150210,,*2A
$GPRMC,010641.9,A,3253.3790,N,11706.8014,W,57.00,334.90,150210,,*24
$GPRMC,010644.9,A,3253.4240,N,11706.8247,W,58.50,337.10,150210,,*2B
$GPRMC,010647.9,A,3253.4694,N,11706.8462,W,58.80,338.60,150210,,*21
$GPRMC,010650.9,A,3253.5161,N,11706.8654,W,58.10,340.90,150210,,*25
$GPRMC,010653.9,A,3253.5622,N,11706.8832,W,57.80,342.70,150210,,*22
$GPRMC,010656.9,A,3253.6082,N,11706.9002,W,57.50,343.60,150210,,*2F
$GPRMC,010659.9,A,3253.6549,N,11706.9152,W,58.60,344.50,150210,,*2E
$GPRMC,010702.9,A,3253.7031,N,11706.9311,W,61.00,344.50,150210,,*23
$GPRMC,010705.9,A,3253.7539,N,11706.9446,W,63.20,350.00,150210,,*2C
$GPRMC,010708.9,A,3253.8063,N,11706.9542,W,63.40,351.30,150210,,*25
$GPRMC,010711.9,A,3253.8599,N,11706.9619,W,65.40,353.80,150210,,*2F
$GPRMC,010714.9,A,3253.9158,N,11706.9671,W,66.80,357.10,150210,,*2E
$GPRMC,010717.9,A,3253.9720,N,11706.9678,W,67.10,359.90,150210,,*23
$GPRMC,010720.9,A,3254.0289,N,11706.9673,W,66.90,359.90,150210,,*2D
$GPRMC,010723.9,A,3254.0847,N,11706.9671,W,65.80,359.80,150210,,*27
$GPRMC,010726.9,A,3254.1388,N,11706.9675,W,65.00,360.00,150210,,*25
$GPRMC,010729.9,A,3254.1928,N,11706.9678,W,63.70,0.20,150210,,*21
$GPRMC,010732.9,A,3254.2466,N,11706.9680,W,64.10,359.70,150210,,*23
$GPRMC,010735.9,A,3254.3005,N,11706.9677,W,64.50,359.60,150210,,*29
$GPRMC,010738.9,A,3254.3542,N,11706.9691,W,64.90,359.10,150210,,*21
$GPRMC,010741.9,A,3254.4074,N,11706.9706,W,64.40,359.10,150210,,*2A
$GPRMC,010744.9,A,3254.4613,N,11706.9708,W,63.70,0.00,150210,,*2C
$GPRMC,010747.9,A,3254.5145,N,11706.9707,W,64.00,0.00,150210,,*25
$GPRMC,010750.9,A,3254.5685,N,11706.9701,W,64.50,0.20,150210,,*29
$GPRMC,010753.9,A,3254.6243,N,11706.9699,W,65.10,0.30,150210,,*23
$GPRMC,010756.9,A,3254.6784,N,11706.9699,W,64.70,0.50,150210,,*29
$GPRMC,010759.9,A,3254.7314,N,11706.9680,W,64.10,1.60,150210,,*26
$GPRMC,010802.9,A,3254.7873,N,11706.9674,W,66.10,2.00,150210,,*21
$GPRMC,010805.9,A,3254.8409,N,11706.9656,W,66.50,2.80,150210,,*24
$GPRMC,010808.9,A,3254.8953,N,11706.9622,W,67.00,3.40,150210,,*21
$GPRMC,010811.9,A,3254.9504,N,11706.9574,W,66.80,4.00,150210,,*2C
$GPRMC,010814.9,A,3255.0054,N,11706.9525,W,65.40,4.70,150210,,*2D
$GPRMC,010817.9,A,3255.0592,N,11706.9467,W,64.60,5.50,150210,,*26
$GPRMC,010820.9,A,3255.1127,N,11706.9402,W,64.40,6.10,150210,,*2F
$GPRMC,010823.9,A,3255.1659,N,11706.9328,W,64.20,7.30,150210,,*28
$GPRMC,010826.9,A,3255.2186,N,11706.9236,W,63.70,8.10,150210,,*2A
$GPRMC,010829.9,A,3255.2710,N,11706.9145,W,63.10,8.00,150210,,*2C
$GPRMC,010832.9,A,3255.3230,N,11706.9056,W,62.40,8.60,150210,,*21
$GPRMC,010835.9,A,3255.3739,N,11706.8960,W,61.80,9.20,150210,,*2D
$GPRMC,010838.9,A,3255.4249,N,11706.8867,W,61.40,9.00,150210,,*2D
$GPRMC,010841.9,A,3255.4753,N,11706.8767,W,61.40,10.70,150210,,*1D
$GPRMC,010844.9,A,3255.5255,N,11706.8649,W,61.10,11.40,150210,,*10
$GPRMC,010847.9,A,3255.5755,N,11706.8523,W,60.70,13.00,150210,,*18
$GPRMC,010850.9,A,3255.6246,N,11706.8387,W,60.60,12.90,150210,,*1B
$GPRMC,010853.9,A,3255.6736,N,11706.8252,W,60.40,13.40,150210,,*1D
$GPRMC,010856.9,A,3255.7225,N,11706.8111,W,60.10,13.90,150210,,*12
$GPRMC,010859.9,A,3255.7713,N,11706.7963,W,59.60,14.50,150210,,*19
$GPRMC,010902.9,A,3255.8195,N,11706.7813,W,59.70,14.40,150210,,*17
$GPRMC,010905.9,A,3255.8676,N,11706.7665,W,59.60,14.30,150210,,*13
$GPRMC,010908.9,A,3255.9162,N,11706.7520,W,60.70,14.30,150210,,*14
$GPRMC,010911.9,A,3255.9660,N,11706.7370,W,62.70,14.30,150210,,*18
$GPRMC,010914.9,A,3256.0173,N,11706.7220,W,64.50,14.20,150210,,*13
$GPRMC,010917.9,A,3256.0705,N,11706.7059,W,66.40,14.50,150210,,*1F
$GPRMC,010920.9,A,3256.1250,N,11706.6892,W,68.00,14.40,150210,,*1A
$GPRMC,010923.9,A,3256.1796,N,11706.6724,W,65.90,14.30,150210,,*17
$GPRMC,010926.9,A,3256.2297,N,11706.6576,W,59.20,14.10,150210,,*16
$GPRMC,010929.9,A,3256.2761,N,11706.6431,W,56.50,14.50,150210,,*1B
$GPRMC,010932.9,A,3256.3216,N,11706.6292,W,55.80,14.20,150210,,*13
$GPRMC,010935.9,A,3256.3666,N,11706.6157,W,55.60,14.20,150210,,*13
$GPRMC,010938.9,A,3256.4118,N,11706.6020,W,56.00,14.70,150210,,*16
$GPRMC,010941.9,A,3256.4581,N,11706.5882,W,57.00,15.10,150210,,*19
$GPRMC,010944.9,A,3256.5034,N,11706.5709,W,56.70,18.10,150210,,*11
$GPRMC,010947.9,A,3256.5479,N,11706.5523,W,56.10,20.20,150210,,*1B
$GPRMC,010950.9,A,3256.5919,N,11706.5319,W,56.90,22.40,150210,,*15
$GPRMC,010953.9,A,3256.6362,N,11706.5093,W,58.30,24.50,150210,,*11
$GPRMC,010956.9,A,3256.6802,N,11706.4857,W,57.60,25.00,150210,,*16
$GPRMC,010959.9,A,3256.7230,N,11706.4593,W,58.10,28.80,150210,,*1B
$GPRMC,011002.9,A,3256.7658,N,11706.4314,W,58.50,29.80,150210,,*1B
$GPRMC,011005.9,A,3256.8078,N,11706.4009,W,59.30,31.00,150210,,*1E
$GPRMC,011008.9,A,3256.8543,N,11706.3706,W,61.90,30.20,150210,,*13
$GPRMC,011011.9,A,3256.8997,N,11706.3405,W,61.80,29.20,150210,,*17
$GPRMC,011014.9,A,3256.9449,N,11706.3096,W,61.10,29.70,150210,,*1F
$GPRMC,011017.9,A,3256.9900,N,11706.2793,W,60.20,29.60,150210,,*1C
$GPRMC,011020.9,A,3257.0346,N,11706.2502,W,60.40,29.30,150210,,*11
$GPRMC,011023.9,A,3257.0787,N,11706.2201,W,61.00,29.70,150210,,*1E
$GPRMC,011026.9,A,3257.1233,N,11706.1897,W,63.10,29.00,150210,,*12
$GPRMC,011029.9,A,3257.1694,N,11706.1594,W,65.00,28.30,150210,,*1F
$GPRMC,011032.9,A,3257.2171,N,11706.1290,W,64.20,28.00,150210,,*19
$GPRMC,011035.9,A,3257.2646,N,11706.0996,W,63.70,26.80,150210,,*15
$GPRMC,011038.9,A,3257.3114,N,11706.0715,W,63.30,27.30,150210,,*12
$GPRMC,011041.9,A,3257.3580,N,11706.0425,W,63.50,27.60,150210,,*16
$GPRMC,011044.9,A,3257.4050,N,11706.0130,W,63.80,28.10,150210,,*18
$GPRMC,011047.9,A,3257.4518,N,11705.9816,W,64.10,28.90,150210,,*13
$GPRMC,011050.9,A,3257.4984,N,11705.9512,W,64.60,29.00,150210,,*1A
$GPRMC,011053.9,A,3257.5481,N,11705.9209,W,66.20,28.40,150210,,*1E
$GPRMC,011056.9,A,3257.5971,N,11705.8892,W,66.90,29.30,150210,,*1D
$GPRMC,011059.9,A,3257.6468,N,11705.8565,W,67.60,29.60,150210,,*1A
$GPRMC,011102.9,A,3257.6948,N,11705.8234,W,67.30,29.00,150210,,*1A
$GPRMC,011105.9,A,3257.7440,N,11705.7935,W,66.60,28.50,150210,,*1C
$GPRMC,011108.9,A,3257.7925,N,11705.7617,W,65.70,28.00,150210,,*17
$GPRMC,011111.9,A,3257.8400,N,11705.7312,W,64.70,28.10,150210,,*1A
$GPRMC,011114.9,A,3257.8874,N,11705.7015,W,64.20,28.00,150210,,*10
$GPRMC,011117.9,A,3257.9344,N,11705.6734,W,63.50,27.40,150210,,*14
$GPRMC,011120.9,A,3257.9810,N,11705.6446,W,63.50,27.00,150210,,*18
$GPRMC,011123.9,A,3258.0280,N,11705.6158,W,63.10,27.40,150210,,*14
$GPRMC,011126.9,A,3258.0750,N,11705.5864,W,63.50,28.00,150210,,*13
$GPRMC,011129.9,A,3258.1222,N,11705.5569,W,64.20,27.70,150210,,*15
$GPRMC,011132.9,A,3258.1698,N,11705.5269,W,65.00,27.90,150210,,*10
$GPRMC,011135.9,A,3258.2181,N,11705.4965,W,65.60,28.00,150210,,*1D
$GPRMC,011138.9,A,3258.2668,N,11705.4659,W,66.10,28.00,150210,,*14
$GPRMC,011141.9,A,3258.3174,N,11705.4343,W,68.00,27.80,150210,,*17
$GPRMC,011144.9,A,3258.3675,N,11705.4033,W,68.00,27.70,150210,,*1F
$GPRMC,011147.9,A,3258.4193,N,11705.3707,W,69.20,28.20,150210,,*1A
$GPRMC,011150.9,A,3258.4705,N,11705.3395,W,69.40,28.00,150210,,*1E
$GPRMC,011153.9,A,3258.5204,N,11705.3065,W,69.50,28.50,150210,,*10
$GPRMC,011156.9,A,3258.5727,N,11705.2741,W,70.30,27.90,150210,,*1C
$GPRMC,011159.9,A,3258.6244,N,11705.2415,W,70.50,28.40,150210,,*16
$GPRMC,011202.9,A,3258.6758,N,11705.2074,W,70.60,28.80,150210,,*1F
$GPRMC,011205.9,A,3258.7292,N,11705.1750,W,70.60,28.00,150210,,*10
$GPRMC,011208.9,A,3258.7809,N,11705.1418,W,70.20,27.70,150210,,*16
$GPRMC,011211.9,A,3258.8317,N,11705.1083,W,69.50,28.00,150210,,*14
$GPRMC,011214.9,A,3258.8827,N,11705.0763,W,68.40,28.00,150210,,*11
$GPRMC,011217.9,A,3258.9326,N,11705.0451,W,66.30,27.20,150210,,*1F
$GPRMC,011220.9,A,3258.9825,N,11705.0174,W,65.50,23.30,150210,,*11
$GPRMC,011223.9,A,3259.0334,N,11704.9943,W,64.80,19.00,150210,,*13
$GPRMC,011226.9,A,3259.0846,N,11704.9763,W,63.90,13.80,150210,,*10
$GPRMC,011229.9,A,3259.1363,N,11704.9635,W,63.40,9.40,150210,,*2A
$GPRMC,011232.9,A,3259.1881,N,11704.9562,W,63.00,4.60,150210,,*2D
$GPRMC,011235.9,A,3259.2405,N,11704.9536,W,62.60,0.50,150210,,*28
$GPRMC,011238.9,A,3259.2932,N,11704.9558,W,62.70,355.70,150210,,*24
$GPRMC,011241.9,A,3259.3453,N,11704.9629,W,62.90,351.60,150210,,*2F
$GPRMC,011244.9,A,3259.3975,N,11704.9732,W,63.40,349.70,150210,,*2C
$GPRMC,011247.9,A,3259.4498,N,11704.9845,W,63.50,349.40,150210,,*2B
$GPRMC,011250.9,A,3259.5021,N,11704.9956,W,63.40,349.80,150210,,*24
$GPRMC,011253.9,A,3259.5546,N,11705.0054,W,63.30,352.80,150210,,*2D
$GPRMC,011256.9,A,3259.6073,N,11705.0114,W,63.90,356.30,150210,,*28
$GPRMC,011259.9,A,3259.6610,N,11705.0137,W,64.50,359.20,150210,,*20
$GPRMC,011302.9,A,3259.7157,N,11705.0114,W,66.80,3.50,150210,,*2F
$GPRMC,011305.9,A,3259.7717,N,11705.0057,W,68.50,7.00,150210,,*2E
$GPRMC,011308.9,A,3259.8278,N,11704.9951,W,68.50,10.80,150210,,*19
$GPRMC,011311.9,A,3259.8827,N,11704.9804,W,67.70,15.10,150210,,*11
$GPRMC,011314.9,A,3259.9370,N,11704.9615,W,67.60,17.00,150210,,*10
$GPRMC,011317.9,A,3259.9900,N,11704.9421,W,65.90,17.20,150210,,*14
$GPRMC,011320.9,A,3300.0425,N,11704.9231,W,66.50,17.30,150210,,*17
$GPRMC,011323.9,A,3300.0964,N,11704.9038,W,67.80,16.70,150210,,*1E
$GPRMC,011326.9,A,3300.1514,N,11704.8836,W,69.10,17.10,150210,,*16
$GPRMC,011329.9,A,3300.2072,N,11704.8635,W,69.90,16.20,150210,,*18
$GPRMC,011332.9,A,3300.2638,N,11704.8464,W,70.00,13.20,150210,,*18
$GPRMC,011335.9,A,3300.3202,N,11704.8315,W,68.60,10.90,150210,,*15
$GPRMC,011338.9,A,3300.3758,N,11704.8199,W,67.40,8.70,150210,,*2E
$GPRMC,011341.9,A,3300.4314,N,11704.8116,W,66.80,6.50,150210,,*2D
$GPRMC,011344.9,A,3300.4875,N,11704.8046,W,67.90,5.90,150210,,*2F
$GPRMC,011347.9,A,3300.5436,N,11704.7988,W,67.20,5.50,150210,,*25
$GPRMC,011350.9,A,3300.5996,N,11704.7927,W,66.90,6.00,150210,,*2D
$GPRMC,011353.9,A,3300.6560,N,11704.7863,W,67.80,5.20,150210,,*28
$GPRMC,011356.9,A,3300.7124,N,11704.7803,W,66.80,5.20,150210,,*2F
$GPRMC,011359.9,A,3300.7682,N,11704.7741,W,66.40,5.70,150210,,*2B
$GPRMC,011402.9,A,3300.8242,N,11704.7676,W,67.90,5.70,150210,,*2C
$GPRMC,011405.9,A,3300.8814,N,11704.7609,W,68.70,5.30,150210,,*2F
$GPRMC,011408.9,A,3300.9381,N,11704.7547,W,67.30,5.60,150210,,*23
$GPRMC,011411.9,A,3300.9944,N,11704.7493,W,67.30,4.80,150210,,*2F
$GPRMC,011414.9,A,3301.0503,N,11704.7420,W,66.70,5.80,150210,,*21
$GPRMC,011417.9,A,3301.1049,N,11704.7359,W,65.90,5.60,150210,,*22
$GPRMC,011420.9,A,3301.1601,N,11704.7304,W,66.30,5.00,150210,,*2B
$GPRMC,011423.9,A,3301.2157,N,11704.7248,W,66.50,4.80,150210,,*29
$GPRMC,011426.9,A,3301.2709,N,11704.7189,W,66.60,4.40,150210,,*20
$GPRMC,011429.9,A,3301.3267,N,11704.7160,W,65.90,1.70,150210,,*2E
$GPRMC,011432.9,A,3301.3805,N,11704.7147,W,64.50,0.70,150210,,*23
$GPRMC,011435.9,A,3301.4333,N,11704.7155,W,63.50,359.80,150210,,*29
$GPRMC,011438.9,A,3301.4859,N,11704.7160,W,63.80,359.70,150210,,*27
$GPRMC,011441.9,A,3301.5408,N,11704.7155,W,65.10,359.90,150210,,*27
$GPRMC,011444.9,A,3301.5961,N,11704.7153,W,66.90,0.20,150210,,*29
$GPRMC,011447.9,A,3301.6521,N,11704.7143,W,67.60,0.90,150210,,*25
$GPRMC,011450.9,A,3301.7089,N,11704.7129,W,67.10,1.20,150210,,*24
$GPRMC,011453.9,A,3301.7646,N,11704.7089,W,67.10,4.50,150210,,*2B
$GPRMC,011456.9,A,3301.8207,N,11704.7020,W,67.20,7.80,150210,,*2E
$GPRMC,011459.9,A,3301.8756,N,11704.6916,W,66.60,11.30,150210,,*14
$GPRMC,011502.9,A,3301.9300,N,11704.6771,W,66.80,14.30,150210,,*19
$GPRMC,011505.9,A,3301.9842,N,11704.6586,W,67.70,17.40,150210,,*13
$GPRMC,011508.9,A,3302.0382,N,11704.6364,W,68.40,19.50,150210,,*1A
$GPRMC,011511.9,A,3302.0926,N,11704.6138,W,69.30,19.10,150210,,*1F
$GPRMC,011514.9,A,3302.1477,N,11704.5912,W,69.40,19.20,150210,,*15
$GPRMC,011517.9,A,3302.2019,N,11704.5687,W,68.30,19.40,150210,,*1A
$GPRMC,011520.9,A,3302.2558,N,11704.5466,W,67.90,19.30,150210,,*11
$GPRMC,011523.9,A,3302.3097,N,11704.5241,W,68.60,19.20,150210,,*17
$GPRMC,011526.9,A,3302.3638,N,11704.5016,W,69.40,19.20,150210,,*12
$GPRMC,011529.9,A,3302.4187,N,11704.4786,W,69.90,19.50,150210,,*1C
$GPRMC,011532.9,A,3302.4732,N,11704.4552,W,69.70,19.20,150210,,*1C
$GPRMC,011535.9,A,3302.5278,N,11704.4319,W,69.60,19.30,150210,,*18
$GPRMC,011538.9,A,3302.5822,N,11704.4093,W,68.90,19.20,150210,,*1E
$GPRMC,011541.9,A,3302.6368,N,11704.3882,W,68.50,16.00,150210,,*18
$GPRMC,011544.9,A,3302.6924,N,11704.3715,W,68.70,13.00,150210,,*19
$GPRMC,011547.9,A,3302.7479,N,11704.3615,W,67.40,6.60,150210,,*21
$GPRMC,011550.9,A,3302.8042,N,11704.3569,W,67.00,1.70,150210,,*2E
$GPRMC,011553.9,A,3302.8607,N,11704.3582,W,67.00,357.20,150210,,*2A
$GPRMC,011556.9,A,3302.9168,N,11704.3617,W,66.60,357.10,150210,,*2B
$GPRMC,011559.9,A,3302.9724,N,11704.3639,W,66.30,359.20,150210,,*2E
$GPRMC,011602.9,A,3303.0277,N,11704.3626,W,65.70,2.70,150210,,*29
$GPRMC,011605.9,A,3303.0824,N,11704.3581,W,66.20,5.90,150210,,*23
$GPRMC,011608.9,A,3303.1374,N,11704.3496,W,67.50,9.60,150210,,*23
$GPRMC,011611.9,A,3303.1930,N,11704.3368,W,68.60,12.50,150210,,*12
$GPRMC,011614.9,A,3303.2481,N,11704.3201,W,68.60,16.20,150210,,*1E
$GPRMC,011617.9,A,3303.3026,N,11704.2997,W,68.50,18.90,150210,,*16
$GPRMC,011620.9,A,3303.3563,N,11704.2749,W,68.80,21.70,150210,,*12
$GPRMC,011623.9,A,3303.4103,N,11704.2489,W,69.70,21.90,150210,,*1B
$GPRMC,011626.9,A,3303.4641,N,11704.2231,W,69.00,21.90,150210,,*1D
$GPRMC,011629.9,A,3303.5172,N,11704.1989,W,67.30,20.50,150210,,*1F
$GPRMC,011632.9,A,3303.5698,N,11704.1785,W,65.40,18.30,150210,,*1C
$GPRMC,011635.9,A,3303.6204,N,11704.1616,W,62.30,15.40,150210,,*18
$GPRMC,011638.9,A,3303.6690,N,11704.1469,W,61.30,11.10,150210,,*14
$GPRMC,011641.9,A,3303.7190,N,11704.1368,W,61.20,8.40,150210,,*26
$GPRMC,011644.9,A,3303.7694,N,11704.1296,W,60.60,5.30,150210,,*2F
$GPRMC,011647.9,A,3303.8197,N,11704.1256,W,60.20,3.10,150210,,*2B
$GPRMC,011650.9,A,3303.8702,N,11704.1242,W,60.60,359.90,150210,,*22
$GPRMC,011653.9,A,3303.9215,N,11704.1257,W,61.80,357.20,150210,,*2D
$GPRMC,011656.9,A,3303.9733,N,11704.1302,W,63.10,354.20,150210,,*20
$GPRMC,011659.9,A,3304.0260,N,11704.1376,W,64.30,353.10,150210,,*20
$GPRMC,011702.9,A,3304.0796,N,11704.1451,W,65.50,353.50,150210,,*22
$GPRMC,011705.9,A,3304.1341,N,11704.1524,W,66.00,353.60,150210,,*2C
$GPRMC,011708.9,A,3304.1891,N,11704.1602,W,66.60,353.50,150210,,*25
$GPRMC,011711.9,A,3304.2442,N,11704.1672,W,65.80,353.70,150210,,*24
$GPRMC,011714.9,A,3304.2990,N,11704.1748,W,66.10,353.70,150210,,*21
$GPRMC,011717.9,A,3304.3534,N,11704.1826,W,65.80,353.80,150210,,*23
$GPRMC,011720.9,A,3304.4072,N,11704.1905,W,65.50,353.50,150210,,*27
$GPRMC,011723.9,A,3304.4625,N,11704.1965,W,65.40,353.60,150210,,*24
$GPRMC,011726.9,A,3304.5146,N,11704.2044,W,63.80,352.30,150210,,*25
$GPRMC,011729.9,A,3304.5672,N,11704.2131,W,63.10,350.50,150210,,*24
$GPRMC,011732.9,A,3304.6155,N,11704.2267,W,61.80,347.60,150210,,*21
$GPRMC,011735.9,A,3304.6637,N,11704.2417,W,61.00,344.00,150210,,*29
$GPRMC,011738.9,A,3304.7080,N,11704.2634,W,59.50,339.80,150210,,*20
$GPRMC,011741.9,A,3304.7534,N,11704.2838,W,58.40,340.10,150210,,*21
$GPRMC,011744.9,A,3304.7998,N,11704.3037,W,58.80,339.90,150210,,*22
$GPRMC,011747.9,A,3304.8457,N,11704.3261,W,58.30,338.10,150210,,*23
$GPRMC,011750.9,A,3304.8912,N,11704.3512,W,59.40,335.30,150210,,*23
$GPRMC,011753.9,A,3304.9371,N,11704.3768,W,60.40,334.50,150210,,*2C
$GPRMC,011756.9,A,3304.9821,N,11704.4043,W,60.60,332.60,150210,,*29
$GPRMC,011759.9,A,3305.0246,N,11704.4329,W,59.20,329.10,150210,,*29
$GPRMC,011802.9,A,3305.0654,N,11704.4634,W,58.90,327.40,150210,,*27
$GPRMC,011805.9,A,3305.1063,N,11704.4962,W,59.10,325.50,150210,,*25
$GPRMC,011808.9,A,3305.1458,N,11704.5304,W,57.90,323.40,150210,,*2E
$GPRMC,011811.9,A,3305.1835,N,11704.5650,W,57.40,321.80,150210,,*26
$GPRMC,011814.9,A,3305.2206,N,11704.6011,W,58.00,320.00,150210,,*28
$GPRMC,011817.9,A,3305.2571,N,11704.6395,W,59.10,318.20,150210,,*2A
$GPRMC,011820.9,A,3305.2936,N,11704.6793,W,60.00,318.20,150210,,*28
$GPRMC,011823.9,A,3305.3308,N,11704.7197,W,61.10,317.90,150210,,*2A
$GPRMC,011826.9,A,3305.3688,N,11704.7613,W,62.10,317.70,150210,,*24
$GPRMC,011829.9,A,3305.4073,N,11704.8029,W,62.90,318.10,150210,,*2F
$GPRMC,011832.9,A,3305.4462,N,11704.8451,W,63.90,317.60,150210,,*23
$GPRMC,011835.9,A,3305.4857,N,11704.8879,W,63.30,317.90,150210,,*2D
$GPRMC,011838.9,A,3305.5243,N,11704.9294,W,62.00,318.10,150210,,*23
$GPRMC,011841.9,A,3305.5629,N,11704.9703,W,62.10,318.10,150210,,*2F
$GPRMC,011844.9,A,3305.6019,N,11705.0122,W,63.10,317.70,150210,,*29
$GPRMC,011847.9,A,3305.6410,N,11705.0550,W,63.70,317.90,150210,,*2E
$GPRMC,011850.9,A,3305.6808,N,11705.0974,W,64.60,317.80,150210,,*20
$GPRMC,011853.9,A,3305.7210,N,11705.1406,W,65.00,317.90,150210,,*2E
$GPRMC,011856.9,A,3305.7616,N,11705.1835,W,64.80,319.20,150210,,*29
$GPRMC,011859.9,A,3305.8031,N,11705.2241,W,64.10,321.10,150210,,*21
$GPRMC,011902.9,A,3305.8452,N,11705.2632,W,63.40,322.80,150210,,*27
$GPRMC,011905.9,A,3305.8879,N,11705.3000,W,62.30,324.80,150210,,*23
$GPRMC,011908.9,A,3305.9309,N,11705.3346,W,61.90,326.50,150210,,*24
$GPRMC,011911.9,A,3305.9747,N,11705.3674,W,61.90,328.40,150210,,*29
$GPRMC,011914.9,A,3306.0191,N,11705.3988,W,61.90,330.30,150210,,*29
$GPRMC,011917.9,A,3306.0646,N,11705.4285,W,62.30,331.90,150210,,*24
$GPRMC,011920.9,A,3306.1108,N,11705.4565,W,62.60,333.60,150210,,*2D
$GPRMC,011923.9,A,3306.1577,N,11705.4838,W,63.00,333.70,150210,,*21
$GPRMC,011926.9,A,3306.2052,N,11705.5119,W,63.10,333.80,150210,,*20
$GPRMC,011929.9,A,3306.2525,N,11705.5394,W,63.00,333.80,150210,,*2C
$GPRMC,011932.9,A,3306.2997,N,11705.5668,W,62.80,333.80,150210,,*2C
$GPRMC,011935.9,A,3306.3468,N,11705.5945,W,62.90,333.80,150210,,*26
$GPRMC,011938.9,A,3306.3940,N,11705.6220,W,63.10,333.80,150210,,*2E
$GPRMC,011941.9,A,3306.4413,N,11705.6499,W,63.60,333.90,150210,,*2E
$GPRMC,011944.9,A,3306.4890,N,11705.6778,W,63.50,333.80,150210,,*22
$GPRMC,011947.9,A,3306.5366,N,11705.7054,W,63.10,333.90,150210,,*2F
$GPRMC,011950.9,A,3306.5842,N,11705.7326,W,63.60,334.60,150210,,*2D
$GPRMC,011953.9,A,3306.6321,N,11705.7598,W,63.40,334.00,150210,,*24
$GPRMC,011956.9,A,3306.6797,N,11705.7872,W,63.50,333.90,150210,,*2E
$GPRMC,011959.9,A,3306.7277,N,11705.8149,W,63.80,333.90,150210,,*28
$GPRMC,012002.9,A,3306.7759,N,11705.8425,W,64.00,333.90,150210,,*25
$GPRMC,012005.9,A,3306.8246,N,11705.8703,W,65.70,334.30,150210,,*2A
$GPRMC,012008.9,A,3306.8750,N,11705.8993,W,67.50,334.00,150210,,*21
$GPRMC,012011.9,A,3306.9260,N,11705.9292,W,68.00,333.80,150210,,*20
$GPRMC,012014.9,A,3306.9770,N,11705.9593,W,68.20,333.70,150210,,*2A
$GPRMC,012017.9,A,3307.0284,N,11705.9896,W,68.50,334.00,150210,,*20
$GPRMC,012020.9,A,3307.0794,N,11706.0200,W,68.40,333.70,150210,,*2E
$GPRMC,012023.9,A,3307.1303,N,11706.0502,W,68.20,333.90,150210,,*2B
$GPRMC,012026.9,A,3307.1810,N,11706.0802,W,68.20,333.70,150210,,*24
$GPRMC,012029.9,A,3307.2314,N,11706.1099,W,67.70,334.10,150210,,*27
$GPRMC,012032.9,A,3307.2817,N,11706.1392,W,67.60,333.80,150210,,*22
$GPRMC,012035.9,A,3307.3322,N,11706.1688,W,67.20,334.60,150210,,*2A
$GPRMC,012038.9,A,3307.3830,N,11706.1957,W,67.00,336.40,150210,,*20
$GPRMC,012041.9,A,3307.4350,N,11706.2197,W,67.10,339.80,150210,,*21
$GPRMC,012044.9,A,3307.4884,N,11706.2408,W,67.50,342.50,150210,,*20
$GPRMC,012047.9,A,3307.5424,N,11706.2594,W,67.20,344.70,150210,,*23
$GPRMC,012050.9,A,3307.5971,N,11706.2729,W,66.90,348.70,150210,,*2A
$GPRMC,012053.9,A,3307.6511,N,11706.2848,W,66.20,350.30,150210,,*2E
$GPRMC,012056.9,A,3307.7057,N,11706.2944,W,65.70,352.70,150210,,*20
$GPRMC,012059.9,A,3307.7603,N,11706.3019,W,65.50,354.50,150210,,*2E
$GPRMC,012102.9,A,3307.8152,N,11706.3071,W,65.70,355.90,150210,,*2C
$GPRMC,012105.9,A,3307.8709,N,11706.3092,W,66.60,359.00,150210,,*29
$GPRMC,012108.9,A,3307.9261,N,11706.3072,W,66.10,2.90,150210,,*23
$GPRMC,012111.9,A,3307.9812,N,11706.3031,W,66.20,2.70,150210,,*2F
$GPRMC,012114.9,A,3308.0362,N,11706.2999,W,66.00,2.50,150210,,*2A
$GPRMC,012117.9,A,3308.0911,N,11706.2976,W,65.90,2.30,150210,,*2A
$GPRMC,012120.9,A,3308.1453,N,11706.2951,W,65.60,2.40,150210,,*29
$GPRMC,012123.9,A,3308.2015,N,11706.2923,W,66.00,2.40,150210,,*2F
$GPRMC,012126.9,A,3308.2566,N,11706.2894,W,65.40,2.40,150210,,*21
$GPRMC,012129.9,A,3308.3105,N,11706.2867,W,64.40,2.40,150210,,*23
$GPRMC,012132.9,A,3308.3641,N,11706.2840,W,64.40,2.70,150210,,*28
$GPRMC,012135.9,A,3308.4177,N,11706.2808,W,64.40,2.40,150210,,*25
$GPRMC,012138.9,A,3308.4719,N,11706.2781,W,64.60,2.30,150210,,*2D
$GPRMC,012141.9,A,3308.5253,N,11706.2751,W,64.40,2.70,150210,,*22
$GPRMC,012144.9,A,3308.5790,N,11706.2720,W,64.30,2.60,150210,,*2D
$GPRMC,012147.9,A,3308.6329,N,11706.2691,W,64.60,2.50,150210,,*26
$GPRMC,012150.9,A,3308.6870,N,11706.2662,W,65.20,2.60,150210,,*2D
$GPRMC,012153.9,A,3308.7415,N,11706.2631,W,65.80,2.60,150210,,*2C
$GPRMC,012156.9,A,3308.7967,N,11706.2602,W,66.30,2.50,150210,,*2A
$GPRMC,012159.9,A,3308.8518,N,11706.2569,W,66.50,2.50,150210,,*26
$GPRMC,012202.9,A,3308.9074,N,11706.2540,W,66.30,2.40,150210,,*29
$GPRMC,012205.9,A,3308.9624,N,11706.2514,W,65.50,2.40,150210,,*29
$GPRMC,012208.9,A,3309.0172,N,11706.2487,W,65.50,2.40,150210,,*23
$GPRMC,012211.9,A,3309.0717,N,11706.2459,W,65.50,2.50,150210,,*2C
$GPRMC,012214.9,A,3309.1260,N,11706.2433,W,65.40,2.50,150210,,*20
$GPRMC,012217.9,A,3309.1804,N,11706.2403,W,65.60,2.60,150210,,*29
$GPRMC,012220.9,A,3309.2352,N,11706.2374,W,65.30,2.40,150210,,*26
$GPRMC,012223.9,A,3309.2897,N,11706.2358,W,65.20,0.10,150210,,*2F
$GPRMC,012226.9,A,3309.3444,N,11706.2369,W,65.10,358.00,150210,,*27
$GPRMC,012229.9,A,3309.3984,N,11706.2408,W,64.80,355.40,150210,,*28
$GPRMC,012232.9,A,3309.4523,N,11706.2473,W,64.70,353.10,150210,,*24
$GPRMC,012235.9,A,3309.5057,N,11706.2559,W,65.00,351.50,150210,,*2D
$GPRMC,012238.9,A,3309.5576,N,11706.2684,W,63.20,347.90,150210,,*2A
$GPRMC,012241.9,A,3309.6081,N,11706.2828,W,62.20,345.90,150210,,*21
$GPRMC,012244.9,A,3309.6578,N,11706.2988,W,61.50,343.60,150210,,*21
$GPRMC,012247.9,A,3309.7068,N,11706.3170,W,61.50,341.80,150210,,*25
$GPRMC,012250.9,A,3309.7551,N,11706.3380,W,61.70,339.60,150210,,*22
$GPRMC,012253.9,A,3309.8024,N,11706.3614,W,61.00,336.40,150210,,*2B
$GPRMC,012256.9,A,3309.8496,N,11706.3870,W,61.70,334.30,150210,,*2D
$GPRMC,012259.9,A,3309.8962,N,11706.4141,W,62.60,334.30,150210,,*2A
$GPRMC,012302.9,A,3309.9434,N,11706.4411,W,63.50,334.00,150210,,*2B
$GPRMC,012305.9,A,3309.9914,N,11706.4694,W,64.40,334.20,150210,,*28
$GPRMC,012308.9,A,3310.0400,N,11706.4974,W,65.60,334.20,150210,,*2E
$GPRMC,012311.9,A,3310.0900,N,11706.5259,W,66.90,334.10,150210,,*21
$GPRMC,012314.9,A,3310.1408,N,11706.5556,W,67.90,334.00,150210,,*28
$GPRMC,012317.9,A,3310.1918,N,11706.5856,W,68.40,334.10,150210,,*29
$GPRMC,012320.9,A,3310.2437,N,11706.6154,W,68.30,334.20,150210,,*22
$GPRMC,012323.9,A,3310.2943,N,11706.6447,W,66.60,334.00,150210,,*21
$GPRMC,012326.9,A,3310.3441,N,11706.6732,W,66.30,334.40,150210,,*2A
$GPRMC,012329.9,A,3310.3940,N,11706.7021,W,67.00,334.20,150210,,*29
$GPRMC,012332.9,A,3310.4442,N,11706.7314,W,66.90,334.10,150210,,*25
$GPRMC,012335.9,A,3310.4941,N,11706.7601,W,66.40,334.20,150210,,*23
$GPRMC,012338.9,A,3310.5442,N,11706.7886,W,66.50,334.30,150210,,*20
$GPRMC,012341.9,A,3310.5939,N,11706.8174,W,65.80,334.20,150210,,*2B
$GPRMC,012344.9,A,3310.6429,N,11706.8459,W,65.40,334.20,150210,,*27
$GPRMC,012347.9,A,3310.6914,N,11706.8743,W,65.00,334.10,150210,,*28
$GPRMC,012350.9,A,3310.7401,N,11706.9025,W,65.00,334.20,150210,,*23
$GPRMC,012353.9,A,3310.7887,N,11706.9306,W,63.90,333.30,150210,,*29
$GPRMC,012356.9,A,3310.8372,N,11706.9583,W,64.40,334.20,150210,,*25
$GPRMC,012359.9,A,3310.8856,N,11706.9864,W,64.10,334.20,150210,,*26
$GPRMC,012402.9,A,3310.9334,N,11707.0140,W,63.60,334.30,150210,,*27
$GPRMC,012405.9,A,3310.9808,N,11707.0415,W,63.20,334.10,150210,,*27
$GPRMC,012408.9,A,3311.0283,N,11707.0682,W,63.20,334.20,150210,,*24
$GPRMC,012411.9,A,3311.0762,N,11707.0957,W,64.20,334.20,150210,,*26
$GPRMC,012414.9,A,3311.1247,N,11707.1238,W,64.90,334.20,150210,,*28
$GPRMC,012417.9,A,3311.1735,N,11707.1520,W,64.80,334.30,150210,,*25
$GPRMC,012420.9,A,3311.2220,N,11707.1800,W,64.80,334.00,150210,,*2F
$GPRMC,012423.9,A,3311.2708,N,11707.2084,W,65.40,333.70,150210,,*29
$GPRMC,012426.9,A,3311.3197,N,11707.2377,W,66.20,333.20,150210,,*22
$GPRMC,012429.9,A,3311.3691,N,11707.2671,W,66.60,333.70,150210,,*2E
$GPRMC,012432.9,A,3311.4190,N,11707.2962,W,66.60,334.20,150210,,*2A
$GPRMC,012435.9,A,3311.4686,N,11707.3251,W,65.40,334.30,150210,,*27
$GPRMC,012438.9,A,3311.5175,N,11707.3532,W,64.00,334.10,150210,,*25
$GPRMC,012441.9,A,3311.5654,N,11707.3803,W,63.10,334.10,150210,,*26
$GPRMC,012444.9,A,3311.6129,N,11707.4075,W,63.50,334.20,150210,,*24
$GPRMC,012447.9,A,3311.6614,N,11707.4351,W,64.80,334.20,150210,,*21
$GPRMC,012450.9,A,3311.7108,N,11707.4634,W,66.00,334.30,150210,,*21
$GPRMC,012453.9,A,3311.7604,N,11707.4922,W,66.40,334.20,150210,,*24
$GPRMC,012456.9,A,3311.8104,N,11707.5207,W,66.80,334.20,150210,,*28
$GPRMC,012459.9,A,3311.8599,N,11707.5504,W,66.80,334.00,150210,,*21
$GPRMC,012502.9,A,3311.9105,N,11707.5795,W,67.10,334.00,150210,,*2C
$GPRMC,012505.9,A,3311.9609,N,11707.6086,W,66.40,334.20,150210,,*20
$GPRMC,012508.9,A,3312.0106,N,11707.6373,W,66.90,333.50,150210,,*2B
$GPRMC,012511.9,A,3312.0611,N,11707.6671,W,67.40,332.90,150210,,*24
$GPRMC,012514.9,A,3312.1112,N,11707.6976,W,67.20,332.20,150210,,*21
$GPRMC,012517.9,A,3312.1604,N,11707.7286,W,66.00,331.60,150210,,*23
$GPRMC,012520.9,A,3312.2086,N,11707.7594,W,65.70,331.40,150210,,*2A
$GPRMC,012523.9,A,3312.2577,N,11707.7907,W,67.50,331.70,150210,,*27
$GPRMC,012526.9,A,3312.3081,N,11707.8238,W,70.00,330.00,150210,,*22
$GPRMC,012529.9,A,3312.3591,N,11707.8597,W,71.30,328.90,150210,,*29
$GPRMC,012532.9,A,3312.4102,N,11707.8967,W,71.30,328.20,150210,,*22
$GPRMC,012535.9,A,3312.4609,N,11707.9344,W,71.90,328.00,150210,,*2B
$GPRMC,012538.9,A,3312.5121,N,11707.9731,W,72.50,327.00,150210,,*2C
$GPRMC,012541.9,A,3312.5634,N,11708.0126,W,73.10,327.30,150210,,*21
$GPRMC,012544.9,A,3312.6153,N,11708.0518,W,73.60,328.10,150210,,*22
$GPRMC,012547.9,A,3312.6676,N,11708.0907,W,73.80,328.00,150210,,*2C
$GPRMC,012550.9,A,3312.7203,N,11708.1296,W,74.00,327.80,150210,,*27
$GPRMC,012553.9,A,3312.7731,N,11708.1688,W,74.40,328.00,150210,,*28
$GPRMC,012556.9,A,3312.8259,N,11708.2079,W,74.50,328.00,150210,,*23
$GPRMC,012559.9,A,3312.8788,N,11708.2473,W,74.30,328.10,150210,,*2C
$GPRMC,012602.9,A,3312.9312,N,11708.2865,W,73.50,328.00,150210,,*2C
$GPRMC,012605.9,A,3312.9830,N,11708.3249,W,72.70,328.20,150210,,*24
$GPRMC,012608.9,A,3313.0344,N,11708.3625,W,72.20,329.20,150210,,*23
$GPRMC,012611.9,A,3313.0866,N,11708.3979,W,72.30,330.50,150210,,*28
$GPRMC,012614.9,A,3313.1398,N,11708.4326,W,73.60,332.40,150210,,*26
$GPRMC,012617.9,A,3313.1939,N,11708.4658,W,72.70,333.40,150210,,*29
