NMEA Sentence Code,UTC Time,Status,Latitude,Latitude Direction,Longitude,Longitude Direction,Speed (knots),Track Angle (degrees true),Date,MagneticVariation,Magnetic Variation Direction,[FAA Mode]-Optional,Checksum
$GPRMC,142553.2,A,3246.326848,N,11700.378968,W,32.8,40.3,011010,,,A*79
$GPRMC,142556.2,A,3246.345384,N,11700.361483,W,28.4,38.3,011010,,,A*7A
$GPRMC,142559.2,A,3246.362021,N,11700.346015,W,24.3,38.6,011010,,,A*7C
$GPRMC,142602.2,A,3246.375380,N,11700.332743,W,19.9,39.2,011010,,,A*79
$GPRMC,142605.2,A,3246.388081,N,11700.320519,W,18.1,38.6,011010,,,A*7C
$GPRMC,142608.2,A,3246.398818,N,11700.309979,W,16.4,37.2,011010,,,A*79
$GPRMC,142611.2,A,3246.405656,N,11700.299004,W,15.1,65.7,011010,,,A*79
$GPRMC,142614.2,A,3246.405705,N,11700.281393,W,19.2,89.7,011010,,,A*72
$GPRMC,142617.2,A,3246.405272,N,11700.259521,W,21.9,90.5,011010,,,A*74
$GPRMC,142620.2,A,3246.405787,N,11700.237808,W,21.5,89.5,011010,,,A*75
$GPRMC,142623.2,A,3246.405647,N,11700.217462,W,20.1,87.9,011010,,,A*7E
$GPRMC,142626.2,A,3246.407610,N,11700.200892,W,15.6,80.9,011010,,,A*78
$GPRMC,142629.2,A,3246.406931,N,11700.194186,W,7.1,82.2,011010,,,A*45
$GPRMC,142641.2,A,3246.405191,N,11700.186494,W,8.0,100.7,011010,,,A*7F
$GPRMC,142644.2,A,3246.402338,N,11700.173401,W,15.8,104.9,011010,,,A*44
$GPRMC,142647.2,A,3246.399114,N,11700.158301,W,15.7,104.2,011010,,,A*44
$GPRMC,142650.2,A,3246.395950,N,11700.139149,W,18.4,102.5,011010,,,A*40
$GPRMC,142653.2,A,3246.396757,N,11700.122180,W,15.4,96.1,011010,,,A*73
$GPRMC,142656.2,A,3246.397550,N,11700.121665,W,5.3,76.2,011010,,,A*46
$GPRMC,142744.2,A,3246.403187,N,11700.103606,W,6.1,58.9,011010,,,A*43
$GPRMC,142747.2,A,3246.408801,N,11700.101396,W,6.3,18.3,011010,,,A*4E
$GPRMC,142750.2,A,3246.418935,N,11700.101780,W,10.5,351.3,011010,,,A*43
$GPRMC,142753.2,A,3246.433780,N,11700.105924,W,16.1,343.2,011010,,,A*4D
$GPRMC,142756.2,A,3246.453721,N,11700.113558,W,20.4,337.1,011010,,,A*45
$GPRMC,142759.2,A,3246.472740,N,11700.121702,W,21.6,335.8,011010,,,A*4A
$GPRMC,142802.2,A,3246.491390,N,11700.131184,W,25.2,333.7,011010,,,A*4F
$GPRMC,142805.2,A,3246.512743,N,11700.144163,W,29.4,335.4,011010,,,A*4C
$GPRMC,142808.2,A,3246.535982,N,11700.156685,W,29.5,334.5,011010,,,A*4A
$GPRMC,142811.2,A,3246.557808,N,11700.169983,W,30.1,334.9,011010,,,A*40
$GPRMC,142814.2,A,3246.583010,N,11700.180653,W,29.9,338.5,011010,,,A*48
$GPRMC,142817.2,A,3246.604789,N,11700.191033,W,28.9,341.3,011010,,,A*49
$GPRMC,142820.2,A,3246.633194,N,11700.199811,W,33.4,343.4,011010,,,A*41
$GPRMC,142823.2,A,3246.665032,N,11700.212139,W,40.3,340.8,011010,,,A*43
$GPRMC,142826.2,A,3246.702178,N,11700.226601,W,46.7,341.8,011010,,,A*41
$GPRMC,142829.2,A,3246.744815,N,11700.241672,W,52.3,343.5,011010,,,A*45
$GPRMC,142832.2,A,3246.790377,N,11700.256525,W,56.8,344.8,011010,,,A*4B
$GPRMC,142835.2,A,3246.840284,N,11700.270216,W,59.3,345.2,011010,,,A*4F
$GPRMC,142838.2,A,3246.888376,N,11700.285589,W,60.8,345.0,011010,,,A*42
$GPRMC,142841.2,A,3246.936737,N,11700.300336,W,60.2,345.7,011010,,,A*4A
$GPRMC,142844.2,A,3246.985887,N,11700.315456,W,61.3,345.8,011010,,,A*49
$GPRMC,142847.2,A,3247.037794,N,11700.330140,W,62.5,345.5,011010,,,A*4B
$GPRMC,142850.2,A,3247.088800,N,11700.345467,W,62.4,345.9,011010,,,A*44
$GPRMC,142853.2,A,3247.139830,N,11700.358304,W,62.1,348.7,011010,,,A*47
$GPRMC,142856.2,A,3247.191507,N,11700.368010,W,62.2,350.8,011010,,,A*49
$GPRMC,142859.2,A,3247.241423,N,11700.376577,W,60.6,353.0,011010,,,A*49
$GPRMC,142902.2,A,3247.290161,N,11700.381403,W,58.9,355.8,011010,,,A*49
$GPRMC,142905.2,A,3247.338542,N,11700.382525,W,57.3,358.7,011010,,,A*49
$GPRMC,142908.2,A,3247.386448,N,11700.382839,W,57.2,0.1,011010,,,A*43
$GPRMC,142911.2,A,3247.432847,N,11700.380067,W,55.6,2.9,011010,,,A*4D
$GPRMC,142914.2,A,3247.476538,N,11700.375950,W,53.9,5.8,011010,,,A*45
$GPRMC,142917.2,A,3247.519973,N,11700.370894,W,52.9,7.6,011010,,,A*4C
$GPRMC,142920.2,A,3247.564452,N,11700.361254,W,52.6,10.0,011010,,,A*75
$GPRMC,142923.2,A,3247.605361,N,11700.352034,W,52.0,10.9,011010,,,A*7E
$GPRMC,142926.2,A,3247.648222,N,11700.341702,W,52.4,10.4,011010,,,A*7D
$GPRMC,142929.2,A,3247.691460,N,11700.333002,W,53.0,8.0,011010,,,A*4C
$GPRMC,142932.2,A,3247.735718,N,11700.327672,W,53.7,5.1,011010,,,A*4A
$GPRMC,142935.2,A,3247.781229,N,11700.324487,W,53.5,2.5,011010,,,A*4F
$GPRMC,142938.2,A,3247.826141,N,11700.323197,W,53.8,1.3,011010,,,A*46
$GPRMC,142941.2,A,3247.872156,N,11700.323410,W,53.4,0.5,011010,,,A*4E
$GPRMC,142944.2,A,3247.915859,N,11700.324040,W,53.5,359.4,011010,,,A*44
$GPRMC,142947.2,A,3247.963274,N,11700.323695,W,56.3,359.5,011010,,,A*48
$GPRMC,142950.2,A,3248.012552,N,11700.323809,W,58.3,359.9,011010,,,A*44
$GPRMC,142953.2,A,3248.061380,N,11700.323831,W,58.8,359.6,011010,,,A*45
$GPRMC,142957.2,A,3248.126183,N,11700.322743,W,57.6,359.9,011010,,,A*47
$GPRMC,143000.2,A,3248.175850,N,11700.323958,W,58.9,360.0,011010,,,A*4A
$GPRMC,143001.2,A,3248.193053,N,11700.325345,W,60.1,359.7,011010,,,A*46
$GPRMC,143004.2,A,3248.244423,N,11700.324563,W,60.5,0.2,011010,,,A*44
$GPRMC,143007.2,A,3248.294950,N,11700.323516,W,59.9,0.1,011010,,,A*43
$GPRMC,143010.2,A,3248.344628,N,11700.323418,W,59.2,0.3,011010,,,A*4F
$GPRMC,143013.2,A,3248.394415,N,11700.322282,W,58.6,0.3,011010,,,A*4C
$GPRMC,143016.2,A,3248.442425,N,11700.321729,W,57.4,1.1,011010,,,A*4F
$GPRMC,143019.2,A,3248.489508,N,11700.317102,W,57.5,5.5,011010,,,A*42
$GPRMC,143022.2,A,3248.536620,N,11700.308418,W,58.1,10.8,011010,,,A*74
$GPRMC,143025.2,A,3248.585035,N,11700.292857,W,60.3,16.3,011010,,,A*78
$GPRMC,143028.2,A,3248.631817,N,11700.271328,W,59.8,22.2,011010,,,A*78
$GPRMC,143031.2,A,3248.674546,N,11700.244813,W,59.4,28.0,011010,,,A*79
$GPRMC,143034.2,A,3248.719236,N,11700.215314,W,59.9,30.2,011010,,,A*78
$GPRMC,143037.2,A,3248.763743,N,11700.183689,W,61.2,29.8,011010,,,A*7E
$GPRMC,143040.2,A,3248.808786,N,11700.152451,W,61.2,29.7,011010,,,A*71
$GPRMC,143043.2,A,3248.851434,N,11700.123925,W,61.4,28.5,011010,,,A*79
$GPRMC,143046.2,A,3248.899182,N,11700.097093,W,62.4,23.6,011010,,,A*71
$GPRMC,143049.2,A,3248.949037,N,11700.075903,W,62.2,17.8,011010,,,A*7E
$GPRMC,143052.2,A,3248.999630,N,11700.060260,W,62.8,12.4,011010,,,A*71
$GPRMC,143055.2,A,3249.051479,N,11700.051068,W,61.9,6.8,011010,,,A*46
$GPRMC,143058.2,A,3249.102009,N,11700.048915,W,62.3,1.0,011010,,,A*42
$GPRMC,143101.2,A,3249.154380,N,11700.053907,W,62.6,356.2,011010,,,A*41
$GPRMC,143104.2,A,3249.206046,N,11700.061982,W,62.2,352.0,011010,,,A*47
$GPRMC,143107.2,A,3249.253949,N,11700.074691,W,59.3,346.2,011010,,,A*45
$GPRMC,143110.2,A,3249.311665,N,11700.099077,W,55.2,342.2,011010,,,A*41
$GPRMC,143113.2,A,3249.353907,N,11700.118239,W,53.6,341.2,011010,,,A*4E
$GPRMC,143116.2,A,3249.395102,N,11700.133382,W,49.0,342.7,011010,,,A*4F
$GPRMC,143119.2,A,3249.431506,N,11700.145063,W,45.2,346.4,011010,,,A*4D
$GPRMC,143122.2,A,3249.467682,N,11700.154020,W,44.3,348.4,011010,,,A*40
$GPRMC,143125.2,A,3249.500302,N,11700.161721,W,39.4,349.9,011010,,,A*4B
$GPRMC,143128.2,A,3249.528476,N,11700.166740,W,34.1,352.3,011010,,,A*40
$GPRMC,143131.2,A,3249.552019,N,11700.170517,W,28.7,353.7,011010,,,A*41
$GPRMC,143134.2,A,3249.570012,N,11700.172598,W,23.8,355.7,011010,,,A*48
$GPRMC,143137.2,A,3249.584614,N,11700.174341,W,19.1,356.0,011010,,,A*40
$GPRMC,143140.2,A,3249.597975,N,11700.175265,W,16.8,359.2,011010,,,A*47
$GPRMC,143143.2,A,3249.609931,N,11700.175680,W,16.1,357.7,011010,,,A*4D
$GPRMC,143146.2,A,3249.622176,N,11700.177557,W,16.0,355.9,011010,,,A*4C
$GPRMC,143149.2,A,3249.636677,N,11700.177618,W,17.8,357.7,011010,,,A*4D
$GPRMC,143152.2,A,3249.651932,N,11700.176914,W,18.8,0.1,011010,,,A*42
$GPRMC,143155.2,A,3249.668076,N,11700.177181,W,20.1,359.1,011010,,,A*4E
$GPRMC,143158.2,A,3249.688136,N,11700.177026,W,21.6,356.3,011010,,,A*4F
$GPRMC,143201.2,A,3249.706523,N,11700.177004,W,23.2,358.7,011010,,,A*4B
$GPRMC,143204.2,A,3249.727514,N,11700.176679,W,26.2,359.8,011010,,,A*4F
$GPRMC,143207.2,A,3249.751364,N,11700.177458,W,29.2,358.8,011010,,,A*42
$GPRMC,143210.2,A,3249.775369,N,11700.177925,W,29.0,358.6,011010,,,A*44
$GPRMC,143213.2,A,3249.798241,N,11700.178609,W,25.5,1.2,011010,,,A*43
$GPRMC,143216.2,A,3249.818318,N,11700.178945,W,24.8,1.1,011010,,,A*44
$GPRMC,143219.2,A,3249.838555,N,11700.178880,W,24.5,1.7,011010,,,A*45
$GPRMC,143222.2,A,3249.859294,N,11700.177857,W,24.7,0.5,011010,,,A*44
$GPRMC,143225.2,A,3249.879265,N,11700.177587,W,24.5,2.0,011010,,,A*4A
$GPRMC,143228.2,A,3249.897723,N,11700.177370,W,22.5,1.6,011010,,,A*4D
$GPRMC,143231.2,A,3249.911926,N,11700.176282,W,17.0,2.7,011010,,,A*4D
$GPRMC,143234.2,A,3249.922345,N,11700.176599,W,12.7,356.9,011010,,,A*44
$GPRMC,143237.2,A,3249.931661,N,11700.176374,W,12.0,1.8,011010,,,A*44
$GPRMC,143240.2,A,3249.940595,N,11700.175813,W,11.1,2.1,011010,,,A*4B
$GPRMC,143243.2,A,3249.950221,N,11700.175520,W,11.6,359.6,011010,,,A*41
$GPRMC,143246.2,A,3249.959891,N,11700.173970,W,11.6,6.1,011010,,,A*4D
$GPRMC,143249.2,A,3249.968492,N,11700.173901,W,11.0,2.3,011010,,,A*49
$GPRMC,143307.2,A,3249.984057,N,11700.172814,W,8.4,359.0,011010,,,A*7B
$GPRMC,143310.2,A,3249.991579,N,11700.173252,W,9.0,2.4,011010,,,A*75
$GPRMC,143313.2,A,3249.998056,N,11700.172797,W,7.1,7.7,011010,,,A*73
$GPRMC,143316.2,A,3250.002863,N,11700.172858,W,5.1,5.7,011010,,,A*76
$GPRMC,143322.2,A,3250.011715,N,11700.171705,W,5.0,9.1,011010,,,A*72
$GPRMC,143325.2,A,3250.016843,N,11700.170505,W,6.1,7.2,011010,,,A*72
$GPRMC,143328.2,A,3250.023314,N,11700.170392,W,7.4,0.9,011010,,,A*70
$GPRMC,143331.2,A,3250.028683,N,11700.170681,W,7.4,359.8,011010,,,A*71
$GPRMC,143334.2,A,3250.034604,N,11700.170705,W,7.4,1.1,011010,,,A*7C
$GPRMC,143337.2,A,3250.042443,N,11700.170516,W,9.1,3.5,011010,,,A*72
$GPRMC,143340.2,A,3250.050457,N,11700.169285,W,9.7,3.9,011010,,,A*7B
$GPRMC,143343.2,A,3250.059485,N,11700.169418,W,10.1,358.5,011010,,,A*43
$GPRMC,143346.2,A,3250.069000,N,11700.170129,W,10.2,358.7,011010,,,A*42
$GPRMC,143349.2,A,3250.076843,N,11700.170699,W,9.5,353.9,011010,,,A*7A
$GPRMC,143352.2,A,3250.085570,N,11700.172123,W,10.5,351.7,011010,,,A*41
$GPRMC,143355.2,A,3250.095859,N,11700.174701,W,11.0,350.3,011010,,,A*40
$GPRMC,143358.2,A,3250.104765,N,11700.178027,W,11.6,346.5,011010,,,A*4C
$GPRMC,143401.2,A,3250.114541,N,11700.181273,W,11.9,344.5,011010,,,A*4A
$GPRMC,143404.2,A,3250.123364,N,11700.185168,W,12.0,340.8,011010,,,A*44
$GPRMC,143407.2,A,3250.133015,N,11700.189227,W,12.2,337.9,011010,,,A*44
$GPRMC,143410.2,A,3250.143515,N,11700.195510,W,13.5,333.9,011010,,,A*4C
$GPRMC,143413.2,A,3250.154510,N,11700.201278,W,13.8,335.3,011010,,,A*4A
$GPRMC,143416.2,A,3250.164850,N,11700.210332,W,17.0,323.6,011010,,,A*44
$GPRMC,143419.2,A,3250.176023,N,11700.221424,W,17.7,321.9,011010,,,A*4C
$GPRMC,143422.2,A,3250.186642,N,11700.232861,W,17.8,318.5,011010,,,A*4C
$GPRMC,143425.2,A,3250.197067,N,11700.246351,W,18.2,314.0,011010,,,A*4D
$GPRMC,143428.2,A,3250.205814,N,11700.261605,W,19.5,307.6,011010,,,A*47
$GPRMC,143431.2,A,3250.214512,N,11700.277159,W,19.1,301.9,011010,,,A*40
$GPRMC,143434.2,A,3250.221182,N,11700.293123,W,16.4,296.4,011010,,,A*41
$GPRMC,143437.2,A,3250.226762,N,11700.307747,W,16.2,290.1,011010,,,A*40
$GPRMC,143440.2,A,3250.229087,N,11700.323661,W,14.9,286.5,011010,,,A*4A
$GPRMC,143443.2,A,3250.231260,N,11700.337204,W,14.1,285.7,011010,,,A*40
$GPRMC,143446.2,A,3250.232193,N,11700.350598,W,13.9,279.7,011010,,,A*46
$GPRMC,143449.2,A,3250.232814,N,11700.362538,W,11.9,272.1,011010,,,A*4B
$GPRMC,143452.2,A,3250.231851,N,11700.375439,W,11.8,268.7,011010,,,A*49
$GPRMC,143455.2,A,3250.231288,N,11700.385169,W,9.3,262.6,011010,,,A*76
$GPRMC,143458.2,A,3250.228731,N,11700.394359,W,8.0,261.4,011010,,,A*76
$GPRMC,143501.2,A,3250.227312,N,11700.402351,W,7.1,259.5,011010,,,A*75
$GPRMC,143507.2,A,3250.226341,N,11700.411728,W,6.2,261.0,011010,,,A*70
$GPRMC,143510.2,A,3250.225716,N,11700.420000,W,10.7,260.7,011010,,,A*48
$GPRMC,143513.2,A,3250.224567,N,11700.431774,W,12.5,259.6,011010,,,A*41
$GPRMC,143516.2,A,3250.221057,N,11700.445272,W,15.0,254.4,011010,,,A*4A
$GPRMC,143519.2,A,3250.217174,N,11700.460952,W,17.0,255.3,011010,,,A*4A
$GPRMC,143522.2,A,3250.214031,N,11700.477592,W,17.7,257.4,011010,,,A*45
$GPRMC,143525.2,A,3250.209403,N,11700.494551,W,17.6,257.3,011010,,,A*4F
$GPRMC,143528.2,A,3250.204798,N,11700.511835,W,15.7,255.0,011010,,,A*4F
$GPRMC,143531.2,A,3250.202259,N,11700.524086,W,11.9,252.2,011010,,,A*40
$GPRMC,143534.2,A,3250.200191,N,11700.534839,W,10.8,256.7,011010,,,A*4C
$GPRMC,143537.2,A,3250.198337,N,11700.544890,W,10.1,253.8,011010,,,A*44
$GPRMC,143546.2,A,3250.195753,N,11700.555275,W,4.5,259.0,011010,,,A*7B
$GPRMC,143549.2,A,3250.195276,N,11700.560309,W,5.8,260.9,011010,,,A*75
$GPRMC,143552.2,A,3250.193151,N,11700.567159,W,7.4,253.0,011010,,,A*78
$GPRMC,143555.2,A,3250.190496,N,11700.576323,W,10.9,255.0,011010,,,A*40
$GPRMC,143558.2,A,3250.187410,N,11700.592435,W,17.2,256.5,011010,,,A*45
$GPRMC,143601.2,A,3250.183281,N,11700.609694,W,15.8,255.0,011010,,,A*46
$GPRMC,143604.2,A,3250.180761,N,11700.623787,W,14.2,256.1,011010,,,A*49
$GPRMC,143607.2,A,3250.176939,N,11700.640538,W,17.6,255.0,011010,,,A*46
$GPRMC,143610.2,A,3250.172460,N,11700.658238,W,17.7,256.5,011010,,,A*4C
$GPRMC,143613.2,A,3250.170212,N,11700.672935,W,15.0,259.9,011010,,,A*46
$GPRMC,143616.2,A,3250.169532,N,11700.685181,W,11.7,262.0,011010,,,A*43
$GPRMC,143619.2,A,3250.167419,N,11700.695747,W,10.3,259.1,011010,,,A*4B
$GPRMC,143622.2,A,3250.166462,N,11700.705077,W,10.9,262.3,011010,,,A*42
$GPRMC,143625.2,A,3250.165414,N,11700.719629,W,16.1,268.2,011010,,,A*42
$GPRMC,143628.2,A,3250.165193,N,11700.733488,W,12.1,266.7,011010,,,A*4B
$GPRMC,143631.2,A,3250.164560,N,11700.742607,W,8.3,264.1,011010,,,A*74
$GPRMC,143634.2,A,3250.163698,N,11700.753172,W,11.4,268.6,011010,,,A*43
$GPRMC,143637.2,A,3250.164134,N,11700.768198,W,15.0,274.3,011010,,,A*42
$GPRMC,143640.2,A,3250.164070,N,11700.785255,W,18.0,273.1,011010,,,A*4A
$GPRMC,143643.2,A,3250.166932,N,11700.805485,W,21.4,276.5,011010,,,A*47
$GPRMC,143646.2,A,3250.168959,N,11700.828569,W,22.7,278.3,011010,,,A*45
$GPRMC,143649.2,A,3250.170522,N,11700.849014,W,19.8,273.8,011010,,,A*4C
$GPRMC,143652.2,A,3250.170426,N,11700.867567,W,19.4,272.1,011010,,,A*4A
$GPRMC,143655.2,A,3250.171896,N,11700.888078,W,22.7,277.6,011010,,,A*48
$GPRMC,143658.2,A,3250.175878,N,11700.910842,W,25.3,281.9,011010,,,A*45
$GPRMC,143701.2,A,3250.177907,N,11700.940561,W,30.3,277.2,011010,,,A*4C
$GPRMC,143704.2,A,3250.176352,N,11700.975562,W,32.6,274.0,011010,,,A*41
$GPRMC,143707.2,A,3250.178687,N,11701.008740,W,34.1,274.9,011010,,,A*49
$GPRMC,143710.2,A,3250.182477,N,11701.044893,W,35.5,275.7,011010,,,A*44
$GPRMC,143713.2,A,3250.184755,N,11701.083292,W,38.4,277.2,011010,,,A*49
$GPRMC,143716.2,A,3250.190970,N,11701.124007,W,42.6,281.2,011010,,,A*44
$GPRMC,143719.2,A,3250.201853,N,11701.168225,W,47.5,287.5,011010,,,A*4D
$GPRMC,143722.2,A,3250.218609,N,11701.214450,W,51.1,292.4,011010,,,A*46
$GPRMC,143725.2,A,3250.237145,N,11701.257424,W,48.0,296.1,011010,,,A*4F
$GPRMC,143728.2,A,3250.257811,N,11701.293304,W,43.4,302.4,011010,,,A*47
$GPRMC,143731.2,A,3250.280398,N,11701.320662,W,36.8,309.1,011010,,,A*43
$GPRMC,143734.2,A,3250.304641,N,11701.342374,W,34.1,318.4,011010,,,A*42
$GPRMC,143737.2,A,3250.327262,N,11701.359966,W,30.5,324.7,011010,,,A*4A
$GPRMC,143740.2,A,3250.347989,N,11701.377217,W,31.9,327.5,011010,,,A*4F
$GPRMC,143743.2,A,3250.372972,N,11701.391207,W,30.2,332.4,011010,,,A*48
$GPRMC,143746.2,A,3250.392780,N,11701.402861,W,26.9,335.3,011010,,,A*4B
$GPRMC,143749.2,A,3250.414404,N,11701.414706,W,29.5,335.9,011010,,,A*42
$GPRMC,143752.2,A,3250.437266,N,11701.428887,W,32.1,334.3,011010,,,A*47
$GPRMC,143755.2,A,3250.463408,N,11701.442977,W,34.3,334.7,011010,,,A*4D
$GPRMC,143758.2,A,3250.489384,N,11701.458231,W,35.2,333.5,011010,,,A*40
$GPRMC,143801.2,A,3250.514518,N,11701.473055,W,34.7,334.1,011010,,,A*4B
$GPRMC,143804.2,A,3250.540534,N,11701.488271,W,34.1,334.9,011010,,,A*4F
$GPRMC,143807.2,A,3250.564638,N,11701.501835,W,31.4,334.4,011010,,,A*42
$GPRMC,143810.2,A,3250.587105,N,11701.515172,W,28.2,334.6,011010,,,A*43
$GPRMC,143813.2,A,3250.608872,N,11701.526405,W,29.2,335.5,011010,,,A*4B
$GPRMC,143816.2,A,3250.632075,N,11701.539650,W,31.1,333.9,011010,,,A*44
$GPRMC,143819.2,A,3250.656484,N,11701.552755,W,32.2,333.8,011010,,,A*4B
$GPRMC,143822.2,A,3250.676755,N,11701.565496,W,25.8,334.9,011010,,,A*4C
$GPRMC,143825.2,A,3250.689511,N,11701.572336,W,16.6,335.0,011010,,,A*44
$GPRMC,143828.2,A,3250.700515,N,11701.577691,W,13.8,334.8,011010,,,A*42
$GPRMC,143831.2,A,3250.711877,N,11701.584323,W,15.3,332.7,011010,,,A*47
$GPRMC,143834.2,A,3250.724222,N,11701.591536,W,17.7,331.3,011010,,,A*49
$GPRMC,143837.2,A,3250.739589,N,11701.600859,W,20.6,331.3,011010,,,A*4A
$GPRMC,143840.2,A,3250.753009,N,11701.610892,W,19.4,328.2,011010,,,A*4C
$GPRMC,143843.2,A,3250.767947,N,11701.621182,W,21.5,329.0,011010,,,A*48
$GPRMC,143846.2,A,3250.783897,N,11701.633441,W,23.5,324.8,011010,,,A*45
$GPRMC,143849.2,A,3250.802460,N,11701.650209,W,27.7,321.4,011010,,,A*48
$GPRMC,143852.2,A,3250.823205,N,11701.668896,W,32.1,321.3,011010,,,A*46
$GPRMC,143855.2,A,3250.846134,N,11701.691476,W,35.7,319.3,011010,,,A*4D
$GPRMC,143858.2,A,3250.868772,N,11701.718078,W,38.9,316.0,011010,,,A*4D
$GPRMC,143901.2,A,3250.892275,N,11701.746421,W,40.6,313.9,011010,,,A*48
$GPRMC,143904.2,A,3250.916824,N,11701.777512,W,43.5,311.4,011010,,,A*42
$GPRMC,143907.2,A,3250.939853,N,11701.811962,W,45.9,308.5,011010,,,A*4B
$GPRMC,143910.2,A,3250.961874,N,11701.850567,W,46.8,305.3,011010,,,A*40
$GPRMC,143913.2,A,3250.981733,N,11701.888168,W,44.3,302.7,011010,,,A*45
$GPRMC,143916.2,A,3250.997963,N,11701.924404,W,41.1,298.9,011010,,,A*4F
$GPRMC,143919.2,A,3251.013325,N,11701.960671,W,40.7,297.5,011010,,,A*48
$GPRMC,143922.2,A,3251.027420,N,11701.995333,W,38.9,295.8,011010,,,A*42
$GPRMC,143925.2,A,3251.040096,N,11702.033147,W,40.4,291.8,011010,,,A*4C
$GPRMC,143928.2,A,3251.054109,N,11702.070766,W,38.4,288.6,011010,,,A*48
$GPRMC,143931.2,A,3251.062675,N,11702.106603,W,36.3,285.5,011010,,,A*4C
$GPRMC,143934.2,A,3251.067024,N,11702.138900,W,33.7,282.4,011010,,,A*48
$GPRMC,143937.2,A,3251.072946,N,11702.168975,W,31.3,280.5,011010,,,A*40
$GPRMC,143940.2,A,3251.076897,N,11702.199066,W,28.8,279.6,011010,,,A*4A
$GPRMC,143943.2,A,3251.081087,N,11702.226452,W,28.7,280.6,011010,,,A*45
$GPRMC,143946.2,A,3251.084417,N,11702.250744,W,23.4,280.2,011010,,,A*41
$GPRMC,143949.2,A,3251.087028,N,11702.271917,W,22.0,279.9,011010,,,A*46
$GPRMC,143952.2,A,3251.090839,N,11702.294452,W,23.4,280.0,011010,,,A*4F
$GPRMC,143955.2,A,3251.096014,N,11702.317626,W,24.9,281.7,011010,,,A*4E
$GPRMC,143958.2,A,3251.099485,N,11702.345210,W,29.9,279.1,011010,,,A*4A
$GPRMC,144001.2,A,3251.103901,N,11702.374481,W,31.8,279.0,011010,,,A*4E
$GPRMC,144004.2,A,3251.108017,N,11702.407265,W,33.5,279.9,011010,,,A*47
$GPRMC,144007.2,A,3251.113043,N,11702.441589,W,35.5,281.0,011010,,,A*40
$GPRMC,144010.2,A,3251.118444,N,11702.474801,W,35.1,279.8,011010,,,A*4E
$GPRMC,144013.2,A,3251.122831,N,11702.509595,W,35.4,280.4,011010,,,A*4E
$GPRMC,144016.2,A,3251.127674,N,11702.544938,W,36.9,279.9,011010,,,A*46
$GPRMC,144019.2,A,3251.133124,N,11702.582102,W,39.4,279.4,011010,,,A*4A
$GPRMC,144022.2,A,3251.139262,N,11702.622533,W,41.5,280.2,011010,,,A*48
$GPRMC,144025.2,A,3251.144853,N,11702.662093,W,39.5,278.4,011010,,,A*48
$GPRMC,144028.2,A,3251.149863,N,11702.701180,W,38.9,279.3,011010,,,A*47
$GPRMC,144031.2,A,3251.156195,N,11702.740057,W,40.8,278.7,011010,,,A*44
$GPRMC,144034.2,A,3251.162065,N,11702.777065,W,39.1,279.7,011010,,,A*4B
$GPRMC,144037.2,A,3251.167750,N,11702.813508,W,37.8,279.5,011010,,,A*4A
$GPRMC,144040.2,A,3251.172607,N,11702.849209,W,35.8,280.6,011010,,,A*43
$GPRMC,144043.2,A,3251.177987,N,11702.881760,W,33.4,280.3,011010,,,A*43
$GPRMC,144046.2,A,3251.183611,N,11702.912133,W,31.4,280.6,011010,,,A*41
$GPRMC,144049.2,A,3251.188062,N,11702.942557,W,30.5,279.8,011010,,,A*4C
$GPRMC,144052.2,A,3251.191649,N,11702.973286,W,32.0,278.6,011010,,,A*40
$GPRMC,144055.2,A,3251.195339,N,11703.005073,W,33.3,279.0,011010,,,A*45
$GPRMC,144058.2,A,3251.199157,N,11703.037891,W,34.2,279.3,011010,,,A*4E
$GPRMC,144101.2,A,3251.205612,N,11703.071703,W,35.5,280.7,011010,,,A*41
$GPRMC,144104.2,A,3251.211323,N,11703.105878,W,35.7,280.4,011010,,,A*46
$GPRMC,144107.2,A,3251.215143,N,11703.140877,W,35.8,277.4,011010,,,A*4C
$GPRMC,144110.2,A,3251.221208,N,11703.174103,W,32.9,279.9,011010,,,A*49
$GPRMC,144113.2,A,3251.226290,N,11703.205405,W,33.8,278.6,011010,,,A*44
$GPRMC,144116.2,A,3251.230398,N,11703.240965,W,36.5,278.8,011010,,,A*43
$GPRMC,144119.2,A,3251.235929,N,11703.277895,W,38.5,279.0,011010,,,A*44
$GPRMC,144122.2,A,3251.241988,N,11703.316726,W,39.2,278.3,011010,,,A*41
$GPRMC,144125.2,A,3251.247671,N,11703.353821,W,37.8,278.0,011010,,,A*47
$GPRMC,144128.2,A,3251.252854,N,11703.390736,W,38.2,278.8,011010,,,A*4C
$GPRMC,144131.2,A,3251.258437,N,11703.429143,W,39.9,278.7,011010,,,A*43
$GPRMC,144134.2,A,3251.263462,N,11703.469559,W,41.3,279.4,011010,,,A*42
$GPRMC,144137.2,A,3251.268372,N,11703.507579,W,39.3,278.9,011010,,,A*44
$GPRMC,144140.2,A,3251.273534,N,11703.546264,W,39.3,279.0,011010,,,A*4C
$GPRMC,144143.2,A,3251.279648,N,11703.584261,W,39.7,278.7,011010,,,A*44
$GPRMC,144146.2,A,3251.285213,N,11703.624685,W,41.6,278.1,011010,,,A*47
$GPRMC,144149.2,A,3251.290575,N,11703.666195,W,43.2,276.0,011010,,,A*42
$GPRMC,144152.2,A,3251.293402,N,11703.707771,W,41.9,272.9,011010,,,A*44
$GPRMC,144155.2,A,3251.293845,N,11703.748276,W,41.0,270.4,011010,,,A*43
$GPRMC,144158.2,A,3251.293673,N,11703.787399,W,39.2,267.8,011010,,,A*41
$GPRMC,144201.2,A,3251.289795,N,11703.827538,W,39.6,264.7,011010,,,A*4C
$GPRMC,144204.2,A,3251.283755,N,11703.867748,W,42.0,261.7,011010,,,A*41
$GPRMC,144207.2,A,3251.276432,N,11703.911585,W,44.0,259.5,011010,,,A*46
$GPRMC,144210.2,A,3251.266223,N,11703.955390,W,44.8,256.7,011010,,,A*40
$GPRMC,144213.2,A,3251.255909,N,11703.998789,W,45.1,253.9,011010,,,A*4E
$GPRMC,144216.2,A,3251.242644,N,11704.042658,W,45.7,250.4,011010,,,A*47
$GPRMC,144219.2,A,3251.227263,N,11704.085971,W,48.3,247.0,011010,,,A*4E
$GPRMC,144222.2,A,3251.209878,N,11704.130614,W,50.0,244.3,011010,,,A*43
$GPRMC,144225.2,A,3251.188760,N,11704.175140,W,50.8,240.9,011010,,,A*49
$GPRMC,144228.2,A,3251.165282,N,11704.219314,W,51.8,237.0,011010,,,A*4C
$GPRMC,144231.2,A,3251.140624,N,11704.260281,W,51.3,234.3,011010,,,A*43
$GPRMC,144234.2,A,3251.113340,N,11704.300308,W,49.5,230.3,011010,,,A*4B
$GPRMC,144237.2,A,3251.085536,N,11704.336445,W,49.3,227.3,011010,,,A*4A
$GPRMC,144240.2,A,3251.056810,N,11704.371584,W,50.1,227.1,011010,,,A*4A
$GPRMC,144243.2,A,3251.028839,N,11704.408606,W,51.1,228.1,011010,,,A*45
$GPRMC,144246.2,A,3250.998796,N,11704.446687,W,52.9,227.2,011010,,,A*4D
$GPRMC,144249.2,A,3250.967594,N,11704.485116,W,53.5,227.2,011010,,,A*4F
$GPRMC,144252.2,A,3250.937694,N,11704.523508,W,53.8,226.7,011010,,,A*4C
$GPRMC,144255.2,A,3250.906934,N,11704.562621,W,54.2,226.2,011010,,,A*49
$GPRMC,144258.2,A,3250.876672,N,11704.600535,W,52.9,226.2,011010,,,A*43
$GPRMC,144301.2,A,3250.847886,N,11704.637285,W,52.3,226.9,011010,,,A*40
$GPRMC,144304.2,A,3250.818750,N,11704.674301,W,52.0,226.8,011010,,,A*43
$GPRMC,144307.2,A,3250.790150,N,11704.712390,W,53.0,228.4,011010,,,A*43
$GPRMC,144310.2,A,3250.762127,N,11704.752688,W,53.5,231.3,011010,,,A*4A
$GPRMC,144313.2,A,3250.735774,N,11704.794996,W,53.5,234.1,011010,,,A*46
$GPRMC,144316.2,A,3250.709676,N,11704.840390,W,54.8,237.4,011010,,,A*49
$GPRMC,144319.2,A,3250.686162,N,11704.887134,W,55.8,239.5,011010,,,A*4B
$GPRMC,144322.2,A,3250.664791,N,11704.934583,W,55.0,242.7,011010,,,A*42
$GPRMC,144325.2,A,3250.646499,N,11704.983532,W,54.5,246.7,011010,,,A*48
$GPRMC,144328.2,A,3250.632647,N,11705.033685,W,55.4,249.5,011010,,,A*46
$GPRMC,144331.2,A,3250.618618,N,11705.086084,W,56.2,252.9,011010,,,A*46
$GPRMC,144334.2,A,3250.606829,N,11705.140982,W,57.1,255.0,011010,,,A*48
$GPRMC,144337.2,A,3250.594580,N,11705.195734,W,57.1,255.2,011010,,,A*44
$GPRMC,144340.2,A,3250.583146,N,11705.250808,W,56.6,255.7,011010,,,A*45
$GPRMC,144343.2,A,3250.571162,N,11705.306158,W,57.0,255.7,011010,,,A*44
$GPRMC,144346.2,A,3250.559391,N,11705.361823,W,57.6,255.7,011010,,,A*47
$GPRMC,144349.2,A,3250.546708,N,11705.416894,W,58.1,256.0,011010,,,A*45
$GPRMC,144352.2,A,3250.533628,N,11705.472682,W,57.8,255.4,011010,,,A*44
$GPRMC,144355.2,A,3250.522349,N,11705.527347,W,58.4,255.6,011010,,,A*4D
$GPRMC,144358.2,A,3250.509876,N,11705.583382,W,58.4,255.3,011010,,,A*4C
$GPRMC,144401.2,A,3250.497754,N,11705.640166,W,59.7,256.9,011010,,,A*41
$GPRMC,144404.2,A,3250.488461,N,11705.698955,W,59.8,261.5,011010,,,A*45
$GPRMC,144407.2,A,3250.482634,N,11705.756763,W,58.9,265.3,011010,,,A*44
$GPRMC,144410.2,A,3250.481916,N,11705.813937,W,58.6,269.1,011010,,,A*4E
$GPRMC,144413.2,A,3250.483212,N,11705.870112,W,56.7,271.8,011010,,,A*45
$GPRMC,144416.2,A,3250.484481,N,11705.928012,W,57.9,272.8,011010,,,A*4A
$GPRMC,144419.2,A,3250.487571,N,11705.984975,W,60.0,272.6,011010,,,A*45
$GPRMC,144422.2,A,3250.489531,N,11706.046144,W,61.5,272.3,011010,,,A*48
$GPRMC,144425.2,A,3250.490807,N,11706.107132,W,61.7,272.2,011010,,,A*49
$GPRMC,144428.2,A,3250.493600,N,11706.167288,W,61.9,272.5,011010,,,A*43
$GPRMC,144431.2,A,3250.496286,N,11706.227541,W,61.0,272.4,011010,,,A*49
$GPRMC,144434.2,A,3250.499389,N,11706.285564,W,57.9,272.6,011010,,,A*4C
$GPRMC,144437.2,A,3250.501505,N,11706.343875,W,59.2,273.2,011010,,,A*4B
$GPRMC,144440.2,A,3250.503901,N,11706.402888,W,59.1,272.8,011010,,,A*49
$GPRMC,144443.2,A,3250.505830,N,11706.461134,W,59.7,272.3,011010,,,A*49
$GPRMC,144446.2,A,3250.508274,N,11706.520253,W,59.8,272.8,011010,,,A*49
$GPRMC,144449.2,A,3250.510256,N,11706.577008,W,57.2,273.2,011010,,,A*4E
$GPRMC,144452.2,A,3250.511680,N,11706.635437,W,58.6,272.7,011010,,,A*48
$GPRMC,144455.2,A,3250.514464,N,11706.692918,W,59.0,272.8,011010,,,A*47
$GPRMC,144458.2,A,3250.516774,N,11706.751254,W,59.9,272.3,011010,,,A*45
$GPRMC,144501.2,A,3250.517340,N,11706.811568,W,60.2,271.2,011010,,,A*4A
$GPRMC,144504.2,A,3250.518902,N,11706.871852,W,60.7,270.0,011010,,,A*48
$GPRMC,144507.2,A,3250.519276,N,11706.933188,W,62.7,269.6,011010,,,A*47
$GPRMC,144510.2,A,3250.518755,N,11706.997151,W,64.8,269.3,011010,,,A*42
$GPRMC,144513.2,A,3250.518398,N,11707.062212,W,65.1,269.9,011010,,,A*40
$GPRMC,144516.2,A,3250.517194,N,11707.127218,W,66.6,269.5,011010,,,A*46
$GPRMC,144519.2,A,3250.516689,N,11707.193486,W,66.7,269.3,011010,,,A*4A
$GPRMC,144522.2,A,3250.516397,N,11707.256778,W,64.9,269.3,011010,,,A*4C
$GPRMC,144525.2,A,3250.515620,N,11707.321374,W,65.2,269.2,011010,,,A*43
$GPRMC,144528.2,A,3250.514463,N,11707.385393,W,64.9,268.9,011010,,,A*4D
$GPRMC,144531.2,A,3250.513281,N,11707.449447,W,64.2,269.1,011010,,,A*43
$GPRMC,144534.2,A,3250.512989,N,11707.512334,W,63.6,269.6,011010,,,A*4C
$GPRMC,144537.2,A,3250.512497,N,11707.574584,W,63.3,268.9,011010,,,A*4B
$GPRMC,144540.2,A,3250.510711,N,11707.637391,W,63.5,267.9,011010,,,A*4B
$GPRMC,144543.2,A,3250.508095,N,11707.700603,W,64.4,267.0,011010,,,A*4E
$GPRMC,144546.2,A,3250.501802,N,11707.764291,W,64.9,264.9,011010,,,A*4E
$GPRMC,144549.2,A,3250.494534,N,11707.826905,W,63.3,262.6,011010,,,A*4F
$GPRMC,144552.2,A,3250.488660,N,11707.887702,W,63.0,261.8,011010,,,A*46
$GPRMC,144555.2,A,3250.479696,N,11707.948528,W,61.8,261.9,011010,,,A*45
$GPRMC,144558.2,A,3250.473897,N,11708.008402,W,61.0,263.0,011010,,,A*45
$GPRMC,144601.2,A,3250.465327,N,11708.068459,W,60.2,261.8,011010,,,A*4C
$GPRMC,144604.2,A,3250.460011,N,11708.128135,W,59.2,262.6,011010,,,A*47
$GPRMC,144607.2,A,3250.453043,N,11708.185314,W,59.0,262.3,011010,,,A*42
$GPRMC,144610.2,A,3250.445541,N,11708.243285,W,59.0,261.6,011010,,,A*42
$GPRMC,144613.2,A,3250.437741,N,11708.300562,W,58.2,259.3,011010,,,A*43
$GPRMC,144616.2,A,3250.426760,N,11708.358891,W,60.4,257.0,011010,,,A*49
$GPRMC,144619.2,A,3250.414362,N,11708.417370,W,61.2,256.8,011010,,,A*47
$GPRMC,144622.2,A,3250.403247,N,11708.474682,W,60.1,256.2,011010,,,A*4A
$GPRMC,144625.2,A,3250.391705,N,11708.531642,W,58.2,256.2,011010,,,A*46
$GPRMC,144628.2,A,3250.380780,N,11708.588936,W,59.1,256.8,011010,,,A*40
$GPRMC,144631.2,A,3250.369273,N,11708.644033,W,57.0,256.6,011010,,,A*48
$GPRMC,144634.2,A,3250.358142,N,11708.696903,W,54.6,256.2,011010,,,A*4A
$GPRMC,144637.2,A,3250.347026,N,11708.748371,W,54.0,256.1,011010,,,A*4C
$GPRMC,144640.2,A,3250.336559,N,11708.799980,W,54.2,256.0,011010,,,A*4C
$GPRMC,144643.2,A,3250.324821,N,11708.852554,W,54.5,256.0,011010,,,A*44
$GPRMC,144646.2,A,3250.313629,N,11708.905968,W,55.8,257.4,011010,,,A*4A
$GPRMC,144649.2,A,3250.303304,N,11708.962118,W,58.0,257.3,011010,,,A*42
$GPRMC,144652.2,A,3250.292422,N,11709.019225,W,58.7,256.5,011010,,,A*4B
$GPRMC,144655.2,A,3250.280500,N,11709.074984,W,59.1,256.5,011010,,,A*42
$GPRMC,144658.2,A,3250.267985,N,11709.132520,W,60.0,255.8,011010,,,A*43
$GPRMC,144701.2,A,3250.256845,N,11709.189378,W,59.9,257.8,011010,,,A*4B
$GPRMC,144704.2,A,3250.249342,N,11709.248933,W,60.6,262.3,011010,,,A*4F
$GPRMC,144707.2,A,3250.247456,N,11709.309585,W,61.2,268.8,011010,,,A*41
$GPRMC,144710.2,A,3250.252475,N,11709.369158,W,60.1,274.7,011010,,,A*40
$GPRMC,144713.2,A,3250.260654,N,11709.425645,W,57.9,280.1,011010,,,A*46
$GPRMC,144716.2,A,3250.272902,N,11709.480996,W,59.1,285.9,011010,,,A*49
$GPRMC,144719.2,A,3250.290829,N,11709.536642,W,60.5,291.4,011010,,,A*4E
$GPRMC,144722.2,A,3250.314355,N,11709.590095,W,60.1,297.6,011010,,,A*4B
$GPRMC,144725.2,A,3250.339668,N,11709.637968,W,57.1,302.7,011010,,,A*45
$GPRMC,144728.2,A,3250.367793,N,11709.681112,W,54.1,307.7,011010,,,A*48
$GPRMC,144731.2,A,3250.395885,N,11709.722752,W,52.9,308.4,011010,,,A*4D
$GPRMC,144734.2,A,3250.423507,N,11709.760959,W,51.4,310.2,011010,,,A*47
$GPRMC,144737.2,A,3250.451431,N,11709.799217,W,50.7,311.9,011010,,,A*4A
$GPRMC,144740.2,A,3250.481031,N,11709.834425,W,49.3,312.6,011010,,,A*4C
$GPRMC,144743.2,A,3250.507604,N,11709.870090,W,48.2,312.0,011010,,,A*4C
$GPRMC,144746.2,A,3250.534192,N,11709.906394,W,49.1,311.7,011010,,,A*40
$GPRMC,144749.2,A,3250.563938,N,11709.942041,W,50.2,311.4,011010,,,A*46
$GPRMC,144752.2,A,3250.592270,N,11709.979408,W,51.8,312.4,011010,,,A*4C
$GPRMC,144755.2,A,3250.624490,N,11710.016205,W,51.8,313.1,011010,,,A*4A
$GPRMC,144758.2,A,3250.654831,N,11710.054486,W,52.4,313.2,011010,,,A*40
$GPRMC,144801.2,A,3250.686447,N,11710.091352,W,52.4,313.1,011010,,,A*45
$GPRMC,144804.2,A,3250.715127,N,11710.125935,W,47.3,312.9,011010,,,A*47
$GPRMC,144807.2,A,3250.735423,N,11710.154445,W,37.3,310.4,011010,,,A*43
$GPRMC,144810.2,A,3250.749926,N,11710.178511,W,28.5,308.0,011010,,,A*4D
$GPRMC,144813.2,A,3250.761152,N,11710.199448,W,26.0,305.3,011010,,,A*48
$GPRMC,144816.2,A,3250.769764,N,11710.220520,W,23.4,302.1,011010,,,A*4C
$GPRMC,144819.2,A,3250.777287,N,11710.238592,W,22.3,298.7,011010,,,A*46
$GPRMC,144822.2,A,3250.785856,N,11710.256308,W,20.1,298.8,011010,,,A*47
$GPRMC,144825.2,A,3250.792050,N,11710.270628,W,16.3,297.5,011010,,,A*4E
$GPRMC,144828.2,A,3250.796803,N,11710.281918,W,10.1,294.7,011010,,,A*4E
$GPRMC,144831.2,A,3250.799594,N,11710.288122,W,7.6,298.1,011010,,,A*79
$GPRMC,144834.2,A,3250.802402,N,11710.295040,W,8.7,297.9,011010,,,A*7F
$GPRMC,144837.2,A,3250.805057,N,11710.302016,W,8.8,289.5,011010,,,A*7F
$GPRMC,144840.2,A,3250.808549,N,11710.311527,W,10.8,290.2,011010,,,A*4B
$GPRMC,144843.2,A,3250.812118,N,11710.321466,W,10.8,293.1,011010,,,A*44
$GPRMC,144846.2,A,3250.813979,N,11710.328497,W,5.0,291.4,011010,,,A*73
$GPRMC,144855.2,A,3250.814720,N,11710.333353,W,5.9,285.7,011010,,,A*7E
$GPRMC,144858.2,A,3250.817065,N,11710.340838,W,8.5,291.4,011010,,,A*73
$GPRMC,144901.2,A,3250.820317,N,11710.350595,W,11.0,290.1,011010,,,A*4E
$GPRMC,144904.2,A,3250.824955,N,11710.361923,W,13.2,291.5,011010,,,A*45
$GPRMC,144907.2,A,3250.828108,N,11710.375821,W,14.3,286.9,011010,,,A*40
$GPRMC,144910.2,A,3250.831795,N,11710.388892,W,14.1,289.0,011010,,,A*42
$GPRMC,144913.2,A,3250.833893,N,11710.402406,W,13.1,285.4,011010,,,A*41
$GPRMC,144916.2,A,3250.835812,N,11710.414656,W,11.5,282.2,011010,,,A*4C
$GPRMC,144919.2,A,3250.837160,N,11710.421440,W,4.6,281.0,011010,,,A*78
$GPRMC,144928.2,A,3250.838238,N,11710.425076,W,5.2,282.2,011010,,,A*7A
$GPRMC,144931.2,A,3250.840190,N,11710.432564,W,8.3,291.4,011010,,,A*74
$GPRMC,144934.2,A,3250.843315,N,11710.443229,W,12.9,288.1,011010,,,A*49
$GPRMC,144937.2,A,3250.846238,N,11710.457398,W,15.2,288.0,011010,,,A*42
$GPRMC,144940.2,A,3250.849887,N,11710.472591,W,15.2,288.5,011010,,,A*4E
$GPRMC,144943.2,A,3250.852774,N,11710.488430,W,15.4,284.5,011010,,,A*41
$GPRMC,144946.2,A,3250.855521,N,11710.501957,W,13.2,284.6,011010,,,A*4E
$GPRMC,144949.2,A,3250.857842,N,11710.514793,W,12.7,287.2,011010,,,A*4A
$GPRMC,144952.2,A,3250.860600,N,11710.528157,W,13.8,287.8,011010,,,A*49
$GPRMC,144955.2,A,3250.862863,N,11710.541521,W,13.7,284.4,011010,,,A*4D
$GPRMC,144958.2,A,3250.865515,N,11710.553746,W,12.3,286.0,011010,,,A*48
$GPRMC,145001.2,A,3250.868936,N,11710.565784,W,14.1,285.0,011010,,,A*40
$GPRMC,145004.2,A,3250.872963,N,11710.581380,W,16.5,286.5,011010,,,A*44
$GPRMC,145007.2,A,3250.877623,N,11710.594770,W,14.8,288.9,011010,,,A*4B
$GPRMC,145010.2,A,3250.882090,N,11710.607450,W,14.7,289.4,011010,,,A*42
$GPRMC,145013.2,A,3250.885600,N,11710.621358,W,13.7,288.5,011010,,,A*45
$GPRMC,145016.2,A,3250.890787,N,11710.633828,W,13.7,296.5,011010,,,A*4A
$GPRMC,145019.2,A,3250.896836,N,11710.646168,W,14.3,299.9,011010,,,A*49
$GPRMC,145022.2,A,3250.903948,N,11710.659250,W,17.0,300.8,011010,,,A*42
$GPRMC,145025.2,A,3250.912773,N,11710.674774,W,21.1,302.8,011010,,,A*49
$GPRMC,145028.2,A,3250.924775,N,11710.692611,W,23.2,307.3,011010,,,A*42
$GPRMC,145031.2,A,3250.938486,N,11710.708525,W,21.8,315.9,011010,,,A*4F
$GPRMC,145034.2,A,3250.950348,N,11710.723638,W,20.1,318.0,011010,,,A*4B
$GPRMC,145037.2,A,3250.965658,N,11710.735812,W,23.2,323.3,011010,,,A*40
$GPRMC,145040.2,A,3250.981502,N,11710.748452,W,23.6,327.1,011010,,,A*46
$GPRMC,145043.2,A,3250.999063,N,11710.760283,W,23.0,330.3,011010,,,A*4C
$GPRMC,145046.2,A,3251.015247,N,11710.770062,W,22.4,330.6,011010,,,A*4D
$GPRMC,145049.2,A,3251.032069,N,11710.782190,W,22.6,328.2,011010,,,A*47
$GPRMC,145052.2,A,3251.046861,N,11710.793635,W,21.0,331.2,011010,,,A*4B
$GPRMC,145055.2,A,3251.061054,N,11710.803669,W,18.6,332.4,011010,,,A*41
$GPRMC,145058.2,A,3251.074618,N,11710.812339,W,15.8,331.4,011010,,,A*46
$GPRMC,145101.2,A,3251.086409,N,11710.818646,W,16.0,332.5,011010,,,A*4A
$GPRMC,145104.2,A,3251.099868,N,11710.826284,W,18.3,331.9,011010,,,A*4F
$GPRMC,145107.2,A,3251.111959,N,11710.834886,W,15.6,331.9,011010,,,A*4D
$GPRMC,145110.2,A,3251.121764,N,11710.840988,W,13.1,333.2,011010,,,A*4C
$GPRMC,145113.2,A,3251.133398,N,11710.848908,W,18.6,329.0,011010,,,A*4E
$GPRMC,145116.2,A,3251.150736,N,11710.861106,W,24.8,330.0,011010,,,A*4A
$GPRMC,145119.2,A,3251.171158,N,11710.872439,W,28.3,332.0,011010,,,A*46
$GPRMC,145122.2,A,3251.192819,N,11710.885241,W,29.1,332.3,011010,,,A*4E
$GPRMC,145125.2,A,3251.216130,N,11710.900393,W,30.9,332.1,011010,,,A*44
$GPRMC,145128.2,A,3251.239647,N,11710.916147,W,31.9,332.3,011010,,,A*4C
$GPRMC,145131.2,A,3251.263966,N,11710.932105,W,32.9,331.6,011010,,,A*42
$GPRMC,145134.2,A,3251.288636,N,11710.946646,W,34.7,332.3,011010,,,A*45
$GPRMC,145137.2,A,3251.317329,N,11710.963762,W,39.0,332.5,011010,,,A*46
$GPRMC,145140.2,A,3251.348019,N,11710.981532,W,39.6,333.3,011010,,,A*46
$GPRMC,145143.2,A,3251.378219,N,11710.999824,W,41.0,333.0,011010,,,A*4D
$GPRMC,145146.2,A,3251.409381,N,11711.019655,W,41.1,332.4,011010,,,A*45
$GPRMC,145149.2,A,3251.438851,N,11711.038858,W,41.2,332.0,011010,,,A*49
$GPRMC,145152.2,A,3251.470597,N,11711.057850,W,42.6,333.2,011010,,,A*4D
$GPRMC,145155.2,A,3251.502672,N,11711.077653,W,44.0,332.5,011010,,,A*4F
$GPRMC,145158.2,A,3251.537285,N,11711.097420,W,46.6,333.4,011010,,,A*44
$GPRMC,145201.2,A,3251.572650,N,11711.120290,W,49.0,331.1,011010,,,A*48
$GPRMC,145204.2,A,3251.608991,N,11711.146174,W,51.4,328.3,011010,,,A*4F
$GPRMC,145207.2,A,3251.645812,N,11711.175390,W,52.2,324.7,011010,,,A*4A
$GPRMC,145210.2,A,3251.681240,N,11711.205498,W,52.3,324.4,011010,,,A*40
$GPRMC,145213.2,A,3251.715319,N,11711.236953,W,51.0,322.4,011010,,,A*4E
$GPRMC,145216.2,A,3251.748284,N,11711.268698,W,50.9,320.9,011010,,,A*42
$GPRMC,145219.2,A,3251.782201,N,11711.301342,W,51.6,321.2,011010,,,A*4E
$GPRMC,145222.2,A,3251.814020,N,11711.332613,W,50.8,321.0,011010,,,A*4B
$GPRMC,145225.2,A,3251.847677,N,11711.364509,W,51.3,321.5,011010,,,A*4A
$GPRMC,145228.2,A,3251.881808,N,11711.395742,W,50.9,321.0,011010,,,A*46
$GPRMC,145231.2,A,3251.913099,N,11711.425627,W,49.3,321.3,011010,,,A*4B
$GPRMC,145234.2,A,3251.946719,N,11711.457258,W,51.5,321.1,011010,,,A*45
$GPRMC,145237.2,A,3251.980639,N,11711.490677,W,53.1,320.5,011010,,,A*4E
$GPRMC,145240.2,A,3252.015264,N,11711.524721,W,54.3,320.6,011010,,,A*4E
$GPRMC,145243.2,A,3252.053161,N,11711.558414,W,54.8,321.5,011010,,,A*4E
$GPRMC,145246.2,A,3252.087499,N,11711.590016,W,52.5,321.5,011010,,,A*49
$GPRMC,145249.2,A,3252.121022,N,11711.621279,W,51.4,320.8,011010,,,A*43
$GPRMC,145252.2,A,3252.154365,N,11711.654779,W,53.2,321.0,011010,,,A*41
$GPRMC,145255.2,A,3252.190652,N,11711.689359,W,55.5,321.0,011010,,,A*48
$GPRMC,145258.2,A,3252.230545,N,11711.725570,W,60.7,321.3,011010,,,A*44
$GPRMC,145301.2,A,3252.272692,N,11711.764714,W,64.3,321.4,011010,,,A*44
$GPRMC,145304.2,A,3252.313258,N,11711.804701,W,63.9,321.4,011010,,,A*45
$GPRMC,145307.2,A,3252.353652,N,11711.843300,W,61.7,323.4,011010,,,A*44
$GPRMC,145310.2,A,3252.394750,N,11711.874334,W,58.2,327.6,011010,,,A*40
$GPRMC,145313.2,A,3252.435357,N,11711.900530,W,54.3,331.1,011010,,,A*41
$GPRMC,145316.2,A,3252.472483,N,11711.923968,W,50.2,331.8,011010,,,A*45
$GPRMC,145319.2,A,3252.507778,N,11711.945077,W,46.6,333.5,011010,,,A*45
$GPRMC,145322.2,A,3252.543203,N,11711.962678,W,46.1,337.9,011010,,,A*47
$GPRMC,145325.2,A,3252.580017,N,11711.977729,W,45.8,341.3,011010,,,A*48
$GPRMC,145328.2,A,3252.618162,N,11711.992476,W,47.1,343.0,011010,,,A*4C
$GPRMC,145331.2,A,3252.657166,N,11712.004749,W,49.4,345.4,011010,,,A*48
$GPRMC,145334.2,A,3252.697396,N,11712.017304,W,48.7,345.7,011010,,,A*42
$GPRMC,145337.2,A,3252.735514,N,11712.027481,W,46.8,346.2,011010,,,A*4A
$GPRMC,145340.2,A,3252.773152,N,11712.038912,W,47.3,345.5,011010,,,A*49
$GPRMC,145343.2,A,3252.811494,N,11712.050549,W,47.9,345.1,011010,,,A*4C
$GPRMC,145346.2,A,3252.849313,N,11712.062368,W,47.5,344.9,011010,,,A*4D
$GPRMC,145349.2,A,3252.887655,N,11712.074420,W,48.1,345.7,011010,,,A*4F
$GPRMC,145352.2,A,3252.927190,N,11712.085886,W,49.4,346.3,011010,,,A*4D
$GPRMC,145355.2,A,3252.969271,N,11712.098421,W,52.0,345.4,011010,,,A*4B
$GPRMC,145358.2,A,3253.011885,N,11712.111795,W,53.4,346.0,011010,,,A*4E
$GPRMC,145401.2,A,3253.055747,N,11712.123243,W,53.7,347.4,011010,,,A*4D
$GPRMC,145404.2,A,3253.100086,N,11712.132933,W,54.4,350.8,011010,,,A*41
$GPRMC,145407.2,A,3253.142932,N,11712.141522,W,51.5,349.2,011010,,,A*4C
$GPRMC,145410.2,A,3253.182456,N,11712.150837,W,49.4,347.1,011010,,,A*45
$GPRMC,145413.2,A,3253.221230,N,11712.163318,W,49.1,343.7,011010,,,A*4B
$GPRMC,145416.2,A,3253.258888,N,11712.178911,W,47.8,340.4,011010,,,A*47
$GPRMC,145419.2,A,3253.295210,N,11712.195827,W,46.3,337.2,011010,,,A*49
$GPRMC,145422.2,A,3253.327676,N,11712.213674,W,42.0,334.5,011010,,,A*4B
$GPRMC,145425.2,A,3253.357843,N,11712.234218,W,42.8,329.5,011010,,,A*4C
$GPRMC,145428.2,A,3253.388493,N,11712.257981,W,43.2,328.2,011010,,,A*41
$GPRMC,145431.2,A,3253.417773,N,11712.274354,W,38.2,338.6,011010,,,A*4F
$GPRMC,145434.2,A,3253.440958,N,11712.283618,W,27.8,343.2,011010,,,A*46
$GPRMC,145437.2,A,3253.454627,N,11712.288319,W,15.0,343.8,011010,,,A*4B
$GPRMC,145440.2,A,3253.459548,N,11712.289765,W,5.4,344.6,011010,,,A*7E
$GPRMC,145501.2,A,3253.463332,N,11712.291402,W,9.3,342.4,011010,,,A*7C
$GPRMC,145504.2,A,3253.472530,N,11712.294439,W,12.6,341.7,011010,,,A*4F
$GPRMC,145507.2,A,3253.484597,N,11712.301944,W,18.1,329.0,011010,,,A*46
$GPRMC,145510.2,A,3253.498278,N,11712.314810,W,22.1,320.1,011010,,,A*4E
$GPRMC,145513.2,A,3253.513173,N,11712.334195,W,26.8,313.5,011010,,,A*48
$GPRMC,145516.2,A,3253.527621,N,11712.355797,W,27.3,306.5,011010,,,A*47
$GPRMC,145519.2,A,3253.537033,N,11712.376235,W,22.6,299.7,011010,,,A*45
$GPRMC,145522.2,A,3253.545846,N,11712.389857,W,15.5,310.7,011010,,,A*4B
$GPRMC,145525.2,A,3253.556476,N,11712.394800,W,11.8,327.4,011010,,,A*41
$GPRMC,145528.2,A,3253.575635,N,11712.391291,W,18.3,353.6,011010,,,A*4C
$GPRMC,145531.2,A,3253.608832,N,11712.373768,W,37.3,19.7,011010,,,A*7A
$GPRMC,145534.2,A,3253.640439,N,11712.351016,W,45.0,33.6,011010,,,A*75
$GPRMC,145537.2,A,3253.667288,N,11712.318181,W,46.4,47.7,011010,,,A*78
$GPRMC,145540.2,A,3253.682415,N,11712.275164,W,44.9,68.6,011010,,,A*73
$GPRMC,145543.2,A,3253.689845,N,11712.235203,W,41.2,76.3,011010,,,A*70
$GPRMC,145546.2,A,3253.687024,N,11712.203908,W,32.3,88.5,011010,,,A*73
$GPRMC,145549.2,A,3253.686047,N,11712.176728,W,27.5,90.3,011010,,,A*78
$GPRMC,145552.2,A,3253.686867,N,11712.162176,W,12.5,80.7,011010,,,A*73
$GPRMC,145616.2,A,3253.692053,N,11712.156333,W,11.2,358.4,011010,,,A*4F
$GPRMC,145619.2,A,3253.707604,N,11712.163528,W,20.9,337.1,011010,,,A*46
$GPRMC,145622.2,A,3253.731195,N,11712.170956,W,27.7,347.0,011010,,,A*4C
$GPRMC,145625.2,A,3253.761380,N,11712.170140,W,35.4,1.2,011010,,,A*44
$GPRMC,145628.2,A,3253.793247,N,11712.168598,W,38.5,2.7,011010,,,A*4C
$GPRMC,145631.2,A,3253.826719,N,11712.167678,W,38.7,2.8,011010,,,A*44
$GPRMC,145634.2,A,3253.858692,N,11712.165943,W,37.4,1.6,011010,,,A*4E
$GPRMC,145637.2,A,3253.887134,N,11712.165334,W,33.3,1.8,011010,,,A*43
$GPRMC,145640.2,A,3253.913031,N,11712.162865,W,30.1,9.2,011010,,,A*40
$GPRMC,145643.2,A,3253.933514,N,11712.152042,W,25.7,21.9,011010,,,A*7E
$GPRMC,145646.2,A,3253.945756,N,11712.125199,W,26.9,56.7,011010,,,A*7A
$GPRMC,145649.2,A,3253.951753,N,11712.090823,W,32.2,76.8,011010,,,A*71
$GPRMC,145652.2,A,3253.956001,N,11712.058160,W,34.0,79.4,011010,,,A*71
$GPRMC,145655.2,A,3253.961142,N,11712.023248,W,35.7,79.5,011010,,,A*76
$GPRMC,145658.2,A,3253.966986,N,11711.986943,W,36.4,78.6,011010,,,A*7B
$GPRMC,145701.2,A,3253.971772,N,11711.953532,W,34.6,78.7,011010,,,A*76
$GPRMC,145704.2,A,3253.978055,N,11711.919043,W,36.5,78.1,011010,,,A*72
$GPRMC,145707.2,A,3253.983247,N,11711.881723,W,37.7,79.4,011010,,,A*72
$GPRMC,145710.2,A,3253.988883,N,11711.844628,W,37.5,79.6,011010,,,A*7E
$GPRMC,145713.2,A,3253.994402,N,11711.810872,W,34.2,78.3,011010,,,A*75
$GPRMC,145716.2,A,3254.000534,N,11711.782789,W,27.3,76.0,011010,,,A*76
$GPRMC,145719.2,A,3254.003697,N,11711.765927,W,14.6,77.3,011010,,,A*74
$GPRMC,145722.2,A,3254.005957,N,11711.760127,W,4.6,71.0,011010,,,A*40
$GPRMC,145801.2,A,3254.013401,N,11711.753512,W,5.7,27.0,011010,,,A*46
$GPRMC,145804.2,A,3254.029682,N,11711.756683,W,11.1,1.6,011010,,,A*4C
