NMEA Sentence Code,UTC Time,Status,Latitude,Latitude Direction,Longitude,Longitude Direction,Speed (knots),Track Angle (degrees true),Date,MagneticVariation,Magnetic Variation Direction,[FAA Mode]-Optional,Checksum
$GPRMC,222716.000,A,3301.1837,N,11706.8446,W,4.86,318.80,231210,,,A*76
$GPRMC,222720.000,A,3301.1864,N,11706.8577,W,9.72,269.50,231210,,,A*7A
$GPRMC,222723.000,A,3301.1855,N,11706.8692,W,10.69,267.00,231210,,,A*4A
$GPRMC,222726.000,A,3301.1848,N,11706.8761,W,6.32,261.60,231210,,,A*77
$GPRMC,222729.000,A,3301.1832,N,11706.8827,W,7.29,250.10,231210,,,A*76
$GPRMC,222732.000,A,3301.1774,N,11706.8888,W,8.26,217.90,231210,,,A*7F
$GPRMC,222735.000,A,3301.1631,N,11706.8957,W,17.50,201.30,231210,,,A*49
$GPRMC,222738.000,A,3301.1429,N,11706.9001,W,21.87,193.70,231210,,,A*47
$GPRMC,222741.000,A,3301.1324,N,11706.9053,W,20.90,199.40,231210,,,A*4A
$GPRMC,222744.000,A,3301.1148,N,11706.9132,W,14.09,204.40,231210,,,A*41
$GPRMC,222747.000,A,3301.1070,N,11706.9160,W,8.26,204.10,231210,,,A*7A
$GPRMC,222756.000,A,3301.0998,N,11706.9207,W,5.35,195.30,231210,,,A*70
$GPRMC,222759.000,A,3301.0873,N,11706.9153,W,12.64,156.60,231210,,,A*41
$GPRMC,222802.000,A,3301.0774,N,11706.8987,W,21.38,128.90,231210,,,A*47
$GPRMC,222805.000,A,3301.0672,N,11706.8704,W,28.67,118.50,231210,,,A*4E
$GPRMC,222808.000,A,3301.0563,N,11706.8352,W,34.50,116.20,231210,,,A*47
$GPRMC,222811.000,A,3301.0428,N,11706.8058,W,34.50,118.30,231210,,,A*47
$GPRMC,222814.000,A,3301.0354,N,11706.7839,W,34.02,115.80,231210,,,A*4F
$GPRMC,222818.000,A,3301.0138,N,11706.7476,W,21.38,118.80,231210,,,A*4C
$GPRMC,222821.000,A,3301.0126,N,11706.7270,W,16.52,102.40,231210,,,A*46
$GPRMC,222824.000,A,3301.0064,N,11706.7202,W,7.78,120.80,231210,,,A*75
$GPRMC,222858.000,A,3300.9984,N,11706.7041,W,11.66,123.60,231210,,,A*41
$GPRMC,222900.000,A,3300.9912,N,11706.6919,W,19.93,121.10,231210,,,A*40
$GPRMC,222904.000,A,3300.9789,N,11706.6552,W,28.19,115.50,231210,,,A*48
$GPRMC,222907.000,A,3300.9683,N,11706.6276,W,30.62,112.50,231210,,,A*43
$GPRMC,222910.000,A,3300.9595,N,11706.5954,W,34.02,107.50,231210,,,A*4F
$GPRMC,222913.000,A,3300.9536,N,11706.5583,W,36.93,103.20,231210,,,A*4A
$GPRMC,222915.000,A,3300.9485,N,11706.5326,W,38.88,103.00,231210,,,A*4A
$GPRMC,222919.000,A,3300.9356,N,11706.4799,W,41.31,105.80,231210,,,A*4C
$GPRMC,222922.000,A,3300.9233,N,11706.4383,W,44.71,107.30,231210,,,A*41
$GPRMC,222925.000,A,3300.9091,N,11706.3965,W,46.65,113.10,231210,,,A*49
$GPRMC,222928.000,A,3300.8913,N,11706.3529,W,48.60,117.80,231210,,,A*44
$GPRMC,222931.000,A,3300.8714,N,11706.3108,W,48.60,120.90,231210,,,A*47
$GPRMC,222934.000,A,3300.8476,N,11706.2703,W,49.57,125.50,231210,,,A*45
$GPRMC,222937.000,A,3300.8232,N,11706.2308,W,49.08,126.70,231210,,,A*44
$GPRMC,222940.000,A,3300.8010,N,11706.1913,W,48.11,125.20,231210,,,A*4A
$GPRMC,222943.000,A,3300.7765,N,11706.1522,W,49.08,125.60,231210,,,A*40
$GPRMC,222946.000,A,3300.7505,N,11706.1129,W,50.54,125.20,231210,,,A*4B
$GPRMC,222949.000,A,3300.7277,N,11706.0696,W,51.03,121.10,231210,,,A*40
$GPRMC,222953.000,A,3300.6997,N,11706.0111,W,50.54,118.20,231210,,,A*4D
$GPRMC,222956.000,A,3300.6824,N,11705.9647,W,52.00,114.70,231210,,,A*45
$GPRMC,222959.000,A,3300.6629,N,11705.9168,W,52.00,116.20,231210,,,A*44
$GPRMC,223002.000,A,3300.6397,N,11705.8746,W,51.03,122.90,231210,,,A*45
$GPRMC,223005.000,A,3300.6140,N,11705.8341,W,52.49,128.50,231210,,,A*42
$GPRMC,223008.000,A,3300.5843,N,11705.7937,W,53.46,133.00,231210,,,A*43
$GPRMC,223011.000,A,3300.5516,N,11705.7573,W,52.97,136.70,231210,,,A*45
$GPRMC,223014.000,A,3300.5175,N,11705.7241,W,51.51,141.80,231210,,,A*41
$GPRMC,223017.000,A,3300.4839,N,11705.6929,W,50.54,142.00,231210,,,A*49
$GPRMC,223020.000,A,3300.4488,N,11705.6641,W,51.03,144.20,231210,,,A*4D
$GPRMC,223023.000,A,3300.4159,N,11705.6327,W,50.54,142.70,231210,,,A*42
$GPRMC,223026.000,A,3300.3822,N,11705.6045,W,48.11,145.20,231210,,,A*48
$GPRMC,223029.000,A,3300.3532,N,11705.5817,W,38.39,145.80,231210,,,A*40
$GPRMC,223032.000,A,3300.3317,N,11705.5654,W,26.73,145.70,231210,,,A*4C
$GPRMC,223035.000,A,3300.3203,N,11705.5565,W,12.64,147.50,231210,,,A*4F
$GPRMC,223132.000,A,3300.3141,N,11705.5528,W,4.37,147.30,231210,,,A*72
$GPRMC,223135.000,A,3300.2956,N,11705.5361,W,24.32,141.40,231210,,,A*47
$GPRMC,223138.000,A,3300.2679,N,11705.5145,W,36.93,147.60,231210,,,A*40
$GPRMC,223140.000,A,3300.2487,N,11705.4973,W,41.79,144.30,231210,,,A*42
$GPRMC,223144.000,A,3300.2094,N,11705.4571,W,47.14,140.90,231210,,,A*4D
$GPRMC,223147.000,A,3300.1777,N,11705.4259,W,49.08,140.10,231210,,,A*41
$GPRMC,223150.000,A,3300.1479,N,11705.3941,W,48.60,135.30,231210,,,A*40
$GPRMC,223153.000,A,3300.1204,N,11705.3576,W,49.08,131.70,231210,,,A*48
$GPRMC,223156.000,A,3300.0939,N,11705.3209,W,48.60,130.50,231210,,,A*4A
$GPRMC,223159.000,A,3300.0675,N,11705.2842,W,48.60,130.60,231210,,,A*45
$GPRMC,223201.000,A,3300.0490,N,11705.2607,W,48.60,132.40,231210,,,A*4D
$GPRMC,223205.000,A,3300.0196,N,11705.2217,W,47.15,132.00,231210,,,A*46
$GPRMC,223208.000,A,3259.9932,N,11705.1875,W,47.15,132.90,231210,,,A*4D
$GPRMC,223211.000,A,3259.9666,N,11705.1534,W,46.69,131.80,231210,,,A*4B
$GPRMC,223214.000,A,3259.9415,N,11705.1190,W,45.21,130.20,231210,,,A*46
$GPRMC,223217.000,A,3259.9207,N,11705.0888,W,40.83,128.50,231210,,,A*42
$GPRMC,223220.000,A,3259.9008,N,11705.0579,W,24.30,127.60,231210,,,A*4E
$GPRMC,223223.000,A,3259.8927,N,11705.0453,W,12.64,126.90,231210,,,A*4B
$GPRMC,223323.000,A,3259.8821,N,11705.0283,W,9.23,135.20,231210,,,A*76
$GPRMC,223325.000,A,3259.8772,N,11705.0223,W,10.69,134.70,231210,,,A*41
$GPRMC,223329.000,A,3259.8691,N,11705.0015,W,17.01,117.30,231210,,,A*4A
$GPRMC,223331.000,A,3259.8541,N,11704.9884,W,17.50,127.00,231210,,,A*41
$GPRMC,223344.000,A,3259.8437,N,11704.9668,W,6.32,126.60,231210,,,A*7C
$GPRMC,223347.000,A,3259.8356,N,11704.9533,W,17.98,126.20,231210,,,A*46
$GPRMC,223349.000,A,3259.8278,N,11704.9415,W,23.81,126.00,231210,,,A*4D
$GPRMC,223353.000,A,3259.8090,N,11704.9095,W,31.10,123.60,231210,,,A*46
$GPRMC,223356.000,A,3259.7931,N,11704.8803,W,34.02,123.20,231210,,,A*4A
$GPRMC,223359.000,A,3259.7753,N,11704.8508,W,36.45,127.00,231210,,,A*4E
$GPRMC,223402.000,A,3259.7575,N,11704.8208,W,38.39,126.00,231210,,,A*42
$GPRMC,223405.000,A,3259.7386,N,11704.7878,W,40.82,125.50,231210,,,A*44
$GPRMC,223408.000,A,3259.7158,N,11704.7550,W,42.77,127.30,231210,,,A*43
$GPRMC,223411.000,A,3259.6948,N,11704.7213,W,43.25,126.10,231210,,,A*46
$GPRMC,223415.000,A,3259.6641,N,11704.6702,W,46.17,125.70,231210,,,A*41
$GPRMC,223418.000,A,3259.6401,N,11704.6331,W,47.63,127.10,231210,,,A*48
$GPRMC,223421.000,A,3259.6153,N,11704.5938,W,49.57,126.90,231210,,,A*40
$GPRMC,223424.000,A,3259.5889,N,11704.5541,W,50.06,127.80,231210,,,A*46
$GPRMC,223427.000,A,3259.5650,N,11704.5140,W,49.57,126.00,231210,,,A*4F
$GPRMC,223430.000,A,3259.5417,N,11704.4757,W,44.71,126.00,231210,,,A*40
$GPRMC,223433.000,A,3259.5218,N,11704.4454,W,37.42,126.60,231210,,,A*48
$GPRMC,223436.000,A,3259.5038,N,11704.4170,W,34.99,127.20,231210,,,A*4E
$GPRMC,223439.000,A,3259.4885,N,11704.3935,W,28.67,128.60,231210,,,A*47
$GPRMC,223443.000,A,3259.4766,N,11704.3737,W,13.61,126.40,231210,,,A*46
$GPRMC,223507.000,A,3259.4738,N,11704.3703,W,6.32,150.30,231210,,,A*7F
$GPRMC,223510.000,A,3259.4625,N,11704.3530,W,20.41,129.60,231210,,,A*4D
$GPRMC,223513.000,A,3259.4506,N,11704.3340,W,23.33,126.90,231210,,,A*4B
$GPRMC,223516.000,A,3259.4377,N,11704.3114,W,27.22,126.10,231210,,,A*41
$GPRMC,223518.000,A,3259.4286,N,11704.2959,W,29.65,126.60,231210,,,A*4A
$GPRMC,223522.000,A,3259.4068,N,11704.2595,W,33.53,126.50,231210,,,A*40
$GPRMC,223525.000,A,3259.3899,N,11704.2328,W,34.99,126.50,231210,,,A*47
$GPRMC,223528.000,A,3259.3717,N,11704.2036,W,37.91,126.20,231210,,,A*43
$GPRMC,223531.000,A,3259.3519,N,11704.1715,W,40.34,126.70,231210,,,A*48
$GPRMC,223534.000,A,3259.3304,N,11704.1397,W,41.31,128.10,231210,,,A*45
$GPRMC,223538.000,A,3259.3035,N,11704.0988,W,39.36,126.80,231210,,,A*42
$GPRMC,223541.000,A,3259.2861,N,11704.0663,W,40.34,124.80,231210,,,A*40
$GPRMC,223544.000,A,3259.2648,N,11704.0331,W,42.77,127.20,231210,,,A*4E
$GPRMC,223547.000,A,3259.2425,N,11703.9979,W,42.77,126.60,231210,,,A*49
$GPRMC,223550.000,A,3259.2289,N,11703.9769,W,42.77,127.30,231210,,,A*44
$GPRMC,223553.000,A,3259.1977,N,11703.9355,W,42.78,133.40,231210,,,A*48
$GPRMC,223556.000,A,3259.1733,N,11703.9061,W,42.28,135.70,231210,,,A*47
$GPRMC,223559.000,A,3259.1487,N,11703.8761,W,41.79,136.60,231210,,,A*47
$GPRMC,223602.000,A,3259.1211,N,11703.8473,W,43.74,140.20,231210,,,A*49
$GPRMC,223604.000,A,3259.1004,N,11703.8299,W,44.22,141.70,231210,,,A*4B
$GPRMC,223608.000,A,3259.0681,N,11703.7987,W,34.99,140.10,231210,,,A*46
$GPRMC,223611.000,A,3259.0514,N,11703.7810,W,26.24,137.20,231210,,,A*48
$GPRMC,223614.000,A,3259.0429,N,11703.7670,W,17.50,129.60,231210,,,A*40
$GPRMC,223617.000,A,3259.0365,N,11703.7573,W,11.18,128.10,231210,,,A*40
$GPRMC,223619.000,A,3259.0315,N,11703.7526,W,10.21,136.40,231210,,,A*48
$GPRMC,223623.000,A,3259.0275,N,11703.7434,W,6.32,123.90,231210,,,A*78
$GPRMC,223739.000,A,3259.0169,N,11703.7331,W,6.80,138.20,231210,,,A*76
$GPRMC,223742.000,A,3259.0082,N,11703.7184,W,19.46,127.60,231210,,,A*4C
$GPRMC,223745.000,A,3258.9870,N,11703.6851,W,29.16,131.80,231210,,,A*49
$GPRMC,223748.000,A,3258.9682,N,11703.6622,W,31.10,135.60,231210,,,A*48
$GPRMC,223751.000,A,3258.9484,N,11703.6399,W,33.53,139.40,231210,,,A*4A
$GPRMC,223754.000,A,3258.9262,N,11703.6214,W,32.07,143.40,231210,,,A*48
$GPRMC,223757.000,A,3258.9114,N,11703.6091,W,32.07,144.30,231210,,,A*46
$GPRMC,223800.000,A,3258.8837,N,11703.5831,W,32.56,143.10,231210,,,A*42
$GPRMC,223803.000,A,3258.8630,N,11703.5623,W,32.07,140.90,231210,,,A*4A
$GPRMC,223806.000,A,3258.8384,N,11703.5416,W,34.50,144.00,231210,,,A*48
$GPRMC,223809.000,A,3258.8164,N,11703.5222,W,33.05,141.60,231210,,,A*4E
$GPRMC,223812.000,A,3258.7962,N,11703.5014,W,32.56,138.10,231210,,,A*4C
$GPRMC,223814.000,A,3258.7820,N,11703.4882,W,31.59,136.40,231210,,,A*4C
$GPRMC,223818.000,A,3258.7587,N,11703.4545,W,34.02,126.60,231210,,,A*4E
$GPRMC,223821.000,A,3258.7409,N,11703.4243,W,35.96,123.40,231210,,,A*49
$GPRMC,223824.000,A,3258.7268,N,11703.3934,W,35.96,119.10,231210,,,A*4D
$GPRMC,223827.000,A,3258.7153,N,11703.3598,W,36.45,112.60,231210,,,A*4E
$GPRMC,223829.000,A,3258.7084,N,11703.3358,W,37.42,108.10,231210,,,A*4B
$GPRMC,223833.000,A,3258.6983,N,11703.2841,W,40.34,101.50,231210,,,A*41
$GPRMC,223836.000,A,3258.6915,N,11703.2433,W,42.28,100.00,231210,,,A*49
$GPRMC,223839.000,A,3258.6839,N,11703.1993,W,43.25,100.60,231210,,,A*47
$GPRMC,223842.000,A,3258.6826,N,11703.1609,W,38.39,96.90,231210,,,A*79
$GPRMC,223844.000,A,3258.6807,N,11703.1411,W,32.56,98.10,231210,,,A*72
$GPRMC,223848.000,A,3258.6755,N,11703.0976,W,35.48,96.40,231210,,,A*78
$GPRMC,223850.000,A,3258.6733,N,11703.0740,W,38.88,96.40,231210,,,A*7B
$GPRMC,223854.000,A,3258.6710,N,11703.0156,W,44.22,94.90,231210,,,A*7B
$GPRMC,223857.000,A,3258.6656,N,11702.9723,W,44.22,100.10,231210,,,A*43
$GPRMC,223859.000,A,3258.6610,N,11702.9465,W,42.28,104.60,231210,,,A*41
$GPRMC,223903.000,A,3258.6352,N,11702.8972,W,46.65,119.60,231210,,,A*47
$GPRMC,223906.000,A,3258.6143,N,11702.8579,W,47.63,121.00,231210,,,A*4D
$GPRMC,223909.000,A,3258.5934,N,11702.8159,W,47.63,120.10,231210,,,A*4F
$GPRMC,223912.000,A,3258.5760,N,11702.7746,W,46.17,118.10,231210,,,A*44
$GPRMC,223915.000,A,3258.5567,N,11702.7333,W,46.17,121.50,231210,,,A*4E
$GPRMC,223918.000,A,3258.5366,N,11702.6946,W,45.68,123.50,231210,,,A*44
$GPRMC,223921.000,A,3258.5139,N,11702.6565,W,47.14,126.90,231210,,,A*4B
$GPRMC,223924.000,A,3258.4899,N,11702.6176,W,47.63,123.90,231210,,,A*4F
$GPRMC,223927.000,A,3258.4728,N,11702.5783,W,42.77,113.90,231210,,,A*45
$GPRMC,223930.000,A,3258.4664,N,11702.5459,W,30.13,103.00,231210,,,A*41
$GPRMC,223933.000,A,3258.4645,N,11702.5242,W,20.90,92.50,231210,,,A*7B
$GPRMC,223936.000,A,3258.4660,N,11702.5074,W,15.07,86.30,231210,,,A*75
$GPRMC,224022.000,A,3258.4662,N,11702.4902,W,0.49,101.80,231210,,,A*7E
$GPRMC,224025.000,A,3258.4746,N,11702.4696,W,19.93,63.60,231210,,,A*78
$GPRMC,224028.000,A,3258.4901,N,11702.4429,W,28.67,56.50,231210,,,A*72
$GPRMC,224031.000,A,3258.5055,N,11702.4196,W,27.70,47.60,231210,,,A*78
$GPRMC,224034.000,A,3258.5216,N,11702.4024,W,25.27,38.90,231210,,,A*77
$GPRMC,224037.000,A,3258.5424,N,11702.3875,W,29.16,30.10,231210,,,A*76
$GPRMC,224040.000,A,3258.5659,N,11702.3713,W,33.53,29.10,231210,,,A*73
$GPRMC,224043.000,A,3258.5897,N,11702.3542,W,34.99,32.40,231210,,,A*74
$GPRMC,224046.000,A,3258.6064,N,11702.3406,W,35.96,35.80,231210,,,A*72
$GPRMC,224049.000,A,3258.6381,N,11702.3101,W,35.96,44.30,231210,,,A*7A
$GPRMC,224052.000,A,3258.6570,N,11702.2845,W,32.07,51.00,231210,,,A*78
$GPRMC,224055.000,A,3258.6663,N,11702.2632,W,22.36,59.50,231210,,,A*7E
$GPRMC,224058.000,A,3258.6729,N,11702.2485,W,17.50,60.30,231210,,,A*78
$GPRMC,224101.000,A,3258.6792,N,11702.2318,W,19.93,66.40,231210,,,A*76
$GPRMC,224105.000,A,3258.6852,N,11702.2097,W,21.87,71.20,231210,,,A*7B
$GPRMC,224108.000,A,3258.6906,N,11702.1887,W,23.81,75.60,231210,,,A*78
$GPRMC,224111.000,A,3258.6961,N,11702.1559,W,29.16,80.40,231210,,,A*73
$GPRMC,224114.000,A,3258.6981,N,11702.1223,W,34.99,88.60,231210,,,A*73
$GPRMC,224117.000,A,3258.6990,N,11702.0823,W,39.36,90.40,231210,,,A*78
$GPRMC,224120.000,A,3258.6986,N,11702.0430,W,39.85,90.50,231210,,,A*7C
$GPRMC,224123.000,A,3258.6953,N,11702.0010,W,38.88,93.10,231210,,,A*7A
$GPRMC,224126.000,A,3258.6929,N,11701.9662,W,35.96,94.70,231210,,,A*78
$GPRMC,224129.000,A,3258.6919,N,11701.9320,W,34.50,92.20,231210,,,A*7F
$GPRMC,224132.000,A,3258.6895,N,11701.8966,W,34.50,93.40,231210,,,A*7E
$GPRMC,224135.000,A,3258.6902,N,11701.8628,W,34.99,91.60,231210,,,A*76
$GPRMC,224138.000,A,3258.6897,N,11701.8253,W,37.42,90.80,231210,,,A*74
$GPRMC,224141.000,A,3258.6888,N,11701.7884,W,36.45,91.40,231210,,,A*70
$GPRMC,224144.000,A,3258.6867,N,11701.7568,W,31.10,94.10,231210,,,A*7C
$GPRMC,224147.000,A,3258.6860,N,11701.7284,W,26.24,92.10,231210,,,A*7A
$GPRMC,224150.000,A,3258.6866,N,11701.7070,W,22.36,90.90,231210,,,A*7E
$GPRMC,224153.000,A,3258.6869,N,11701.6840,W,25.27,90.20,231210,,,A*74
$GPRMC,224156.000,A,3258.6860,N,11701.6558,W,30.13,92.30,231210,,,A*7C
$GPRMC,224159.000,A,3258.6840,N,11701.6225,W,31.59,94.00,231210,,,A*76
$GPRMC,224202.000,A,3258.6835,N,11701.5919,W,29.65,91.70,231210,,,A*7A
$GPRMC,224205.000,A,3258.6834,N,11701.5635,W,30.13,91.60,231210,,,A*75
$GPRMC,224208.000,A,3258.6838,N,11701.5301,W,32.56,91.30,231210,,,A*70
$GPRMC,224211.000,A,3258.6832,N,11701.4990,W,31.59,92.80,231210,,,A*75
$GPRMC,224214.000,A,3258.6814,N,11701.4724,W,26.73,92.50,231210,,,A*76
$GPRMC,224217.000,A,3258.6812,N,11701.4484,W,24.30,91.60,231210,,,A*7F
$GPRMC,224220.000,A,3258.6815,N,11701.4249,W,22.84,90.20,231210,,,A*77
$GPRMC,224223.000,A,3258.6802,N,11701.4082,W,17.01,92.40,231210,,,A*78
$GPRMC,224226.000,A,3258.6758,N,11701.3997,W,11.18,143.30,231210,,,A*43
$GPRMC,224229.000,A,3258.6622,N,11701.3985,W,17.98,176.40,231210,,,A*4C
$GPRMC,224232.000,A,3258.6381,N,11701.3991,W,28.19,179.60,231210,,,A*47
$GPRMC,224235.000,A,3258.6135,N,11701.3988,W,32.07,175.00,231210,,,A*4B
$GPRMC,224238.000,A,3258.5809,N,11701.3926,W,38.88,166.90,231210,,,A*41
$GPRMC,224241.000,A,3258.5486,N,11701.3766,W,42.77,154.30,231210,,,A*48
$GPRMC,224244.000,A,3258.5210,N,11701.3488,W,42.77,138.70,231210,,,A*49
$GPRMC,224247.000,A,3258.5058,N,11701.3286,W,40.82,131.40,231210,,,A*4E
$GPRMC,224250.000,A,3258.4827,N,11701.2825,W,39.85,118.10,231210,,,A*4C
$GPRMC,224253.000,A,3258.4663,N,11701.2475,W,39.85,115.80,231210,,,A*4C
$GPRMC,224256.000,A,3258.4514,N,11701.2102,W,40.82,114.60,231210,,,A*49
$GPRMC,224259.000,A,3258.4360,N,11701.1733,W,40.82,115.30,231210,,,A*40
$GPRMC,224302.000,A,3258.4228,N,11701.1354,W,40.82,113.40,231210,,,A*46
$GPRMC,224305.000,A,3258.4035,N,11701.1002,W,41.79,117.70,231210,,,A*4D
$GPRMC,224308.000,A,3258.3929,N,11701.0624,W,39.36,115.30,231210,,,A*42
$GPRMC,224311.000,A,3258.3782,N,11701.0318,W,34.02,126.40,231210,,,A*42
$GPRMC,224314.000,A,3258.3553,N,11701.0100,W,34.02,145.40,231210,,,A*47
$GPRMC,224317.000,A,3258.3255,N,11701.0019,W,36.45,164.40,231210,,,A*4E
$GPRMC,224321.000,A,3258.2839,N,11700.9902,W,37.42,165.50,231210,,,A*47
$GPRMC,224324.000,A,3258.2560,N,11700.9835,W,32.07,167.20,231210,,,A*47
$GPRMC,224327.000,A,3258.2329,N,11700.9769,W,26.24,166.10,231210,,,A*4F
$GPRMC,224330.000,A,3258.2203,N,11700.9722,W,12.15,164.70,231210,,,A*4E
$GPRMC,224416.000,A,3258.2064,N,11700.9674,W,6.80,146.90,231210,,,A*7B
$GPRMC,224419.000,A,3258.1944,N,11700.9554,W,14.09,124.20,231210,,,A*40
$GPRMC,224421.000,A,3258.1935,N,11700.9459,W,15.07,95.60,231210,,,A*71
$GPRMC,224425.000,A,3258.2072,N,11700.9203,W,23.33,53.50,231210,,,A*7E
$GPRMC,224428.000,A,3258.2213,N,11700.8987,W,26.24,52.70,231210,,,A*70
$GPRMC,224431.000,A,3258.2346,N,11700.8761,W,28.19,52.40,231210,,,A*7C
$GPRMC,224435.000,A,3258.2515,N,11700.8506,W,31.65,52.00,231210,,,A*7C
$GPRMC,224438.000,A,3258.2676,N,11700.8262,W,31.72,53.00,231210,,,A*75
$GPRMC,224441.000,A,3258.2831,N,11700.8002,W,33.18,54.00,231210,,,A*7B
$GPRMC,224444.000,A,3258.2996,N,11700.7734,W,34.63,53.80,231210,,,A*7B
$GPRMC,224447.000,A,3258.3150,N,11700.7479,W,35.53,55.70,231210,,,A*7A
$GPRMC,224450.000,A,3258.3333,N,11700.7040,W,37.42,68.30,231210,,,A*7D
$GPRMC,224452.000,A,3258.3407,N,11700.6799,W,39.36,72.20,231210,,,A*7A
$GPRMC,224456.000,A,3258.3449,N,11700.6268,W,40.34,83.30,231210,,,A*7C
$GPRMC,224459.000,A,3258.3514,N,11700.5840,W,42.77,81.30,231210,,,A*7E
$GPRMC,224502.000,A,3258.3529,N,11700.5442,W,41.79,85.30,231210,,,A*78
$GPRMC,224505.000,A,3258.3553,N,11700.4965,W,43.74,89.90,231210,,,A*72
$GPRMC,224508.000,A,3258.3587,N,11700.4543,W,43.25,79.20,231210,,,A*7E
$GPRMC,224511.000,A,3258.3723,N,11700.4147,W,43.25,69.90,231210,,,A*70
$GPRMC,224514.000,A,3258.3861,N,11700.3728,W,45.20,69.60,231210,,,A*78
$GPRMC,224517.000,A,3258.3974,N,11700.3305,W,45.20,72.30,231210,,,A*7A
$GPRMC,224520.000,A,3258.4106,N,11700.2862,W,47.64,71.40,231210,,,A*79
$GPRMC,224522.000,A,3258.4194,N,11700.2565,W,47.14,69.90,231210,,,A*79
$GPRMC,224526.000,A,3258.4423,N,11700.2031,W,47.14,60.40,231210,,,A*74
$GPRMC,224529.000,A,3258.4632,N,11700.1654,W,46.66,54.70,231210,,,A*7F
$GPRMC,224531.000,A,3258.4785,N,11700.1412,W,47.14,52.50,231210,,,A*7B
$GPRMC,224535.000,A,3258.5133,N,11700.0890,W,49.57,51.60,231210,,,A*7B
$GPRMC,224538.000,A,3258.5368,N,11700.0503,W,47.63,53.00,231210,,,A*70
$GPRMC,224541.000,A,3258.5577,N,11700.0127,W,47.14,58.70,231210,,,A*78
$GPRMC,224544.000,A,3258.5713,N,11659.9687,W,47.14,72.10,231210,,,A*7A
$GPRMC,224547.000,A,3258.5745,N,11659.9384,W,45.68,81.90,231210,,,A*71
$GPRMC,224551.000,A,3258.5653,N,11659.8611,W,46.65,97.00,231210,,,A*78
$GPRMC,224554.000,A,3258.5631,N,11659.8161,W,44.71,91.30,231210,,,A*7B
$GPRMC,224558.000,A,3258.5786,N,11659.7547,W,47.64,74.00,231210,,,A*7A
$GPRMC,224601.000,A,3258.5864,N,11659.7092,W,46.65,79.40,231210,,,A*72
$GPRMC,224604.000,A,3258.5923,N,11659.6649,W,47.14,81.10,231210,,,A*71
$GPRMC,224607.000,A,3258.5950,N,11659.6180,W,46.65,84.40,231210,,,A*73
$GPRMC,224610.000,A,3258.6014,N,11659.5704,W,48.12,80.80,231210,,,A*70
$GPRMC,224612.000,A,3258.6093,N,11659.5398,W,47.14,74.90,231210,,,A*7F
$GPRMC,224616.000,A,3258.6262,N,11659.4810,W,47.63,73.60,231210,,,A*75
$GPRMC,224619.000,A,3258.6348,N,11659.4327,W,48.12,77.80,231210,,,A*7F
$GPRMC,224622.000,A,3258.6406,N,11659.3894,W,47.15,81.00,231210,,,A*77
$GPRMC,224625.000,A,3258.6534,N,11659.3504,W,45.21,67.00,231210,,,A*79
$GPRMC,224628.000,A,3258.6751,N,11659.3137,W,46.18,53.40,231210,,,A*7B
$GPRMC,224631.000,A,3258.6977,N,11659.2773,W,45.68,56.10,231210,,,A*7A
$GPRMC,224634.000,A,3258.7143,N,11659.2345,W,48.11,65.40,231210,,,A*76
$GPRMC,224637.000,A,3258.7155,N,11659.1910,W,44.22,87.10,231210,,,A*7E
$GPRMC,224640.000,A,3258.7144,N,11659.1607,W,45.20,92.20,231210,,,A*73
$GPRMC,224643.000,A,3258.7085,N,11659.0997,W,46.65,94.90,231210,,,A*74
$GPRMC,224646.000,A,3258.7041,N,11659.0702,W,45.68,96.50,231210,,,A*7B
$GPRMC,224649.000,A,3258.6952,N,11659.0098,W,46.65,100.80,231210,,,A*47
$GPRMC,224652.000,A,3258.6878,N,11658.9630,W,46.66,100.10,231210,,,A*42
$GPRMC,224655.000,A,3258.6783,N,11658.9164,W,47.63,101.60,231210,,,A*4A
$GPRMC,224658.000,A,3258.6705,N,11658.8714,W,47.15,100.40,231210,,,A*4B
$GPRMC,224702.000,A,3258.6629,N,11658.8080,W,49.08,95.70,231210,,,A*7C
$GPRMC,224705.000,A,3258.6610,N,11658.7577,W,50.54,92.00,231210,,,A*72
$GPRMC,224708.000,A,3258.6648,N,11658.7062,W,51.52,84.10,231210,,,A*72
$GPRMC,224711.000,A,3258.6745,N,11658.6553,W,51.04,79.80,231210,,,A*78
$GPRMC,224714.000,A,3258.6818,N,11658.6064,W,47.63,79.10,231210,,,A*74
$GPRMC,224716.000,A,3258.6848,N,11658.5780,W,44.71,81.00,231210,,,A*7B
$GPRMC,224720.000,A,3258.6914,N,11658.5243,W,42.77,80.30,231210,,,A*7E
$GPRMC,224723.000,A,3258.6978,N,11658.4866,W,40.34,80.70,231210,,,A*7A
$GPRMC,224726.000,A,3258.7026,N,11658.4504,W,35.96,81.60,231210,,,A*7F
$GPRMC,224729.000,A,3258.7073,N,11658.4247,W,22.36,77.00,231210,,,A*73
$GPRMC,224923.000,A,3258.7067,N,11658.4165,W,0.00,71.20,231210,,,A*40
$GPRMC,224926.000,A,3258.7169,N,11658.4082,W,9.23,21.00,231210,,,A*4D
$GPRMC,224930.000,A,3258.7459,N,11658.4146,W,26.24,339.40,231210,,,A*41
$GPRMC,224933.000,A,3258.7806,N,11658.4250,W,36.93,342.80,231210,,,A*4D
$GPRMC,224936.000,A,3258.8195,N,11658.4371,W,43.25,344.40,231210,,,A*43
$GPRMC,224939.000,A,3258.8555,N,11658.4478,W,45.20,345.70,231210,,,A*4B
$GPRMC,224942.000,A,3258.8947,N,11658.4562,W,47.63,348.70,231210,,,A*4A
$GPRMC,224945.000,A,3258.9348,N,11658.4644,W,49.08,349.70,231210,,,A*4C
$GPRMC,224948.000,A,3258.9761,N,11658.4747,W,50.54,349.20,231210,,,A*48
$GPRMC,224951.000,A,3259.0174,N,11658.4838,W,51.03,349.70,231210,,,A*4B
$GPRMC,224954.000,A,3259.0576,N,11658.4923,W,49.57,349.20,231210,,,A*4E
$GPRMC,224957.000,A,3259.1001,N,11658.5054,W,51.03,345.50,231210,,,A*42
$GPRMC,225000.000,A,3259.1394,N,11658.5230,W,51.03,338.60,231210,,,A*4E
$GPRMC,225003.000,A,3259.1761,N,11658.5453,W,49.57,330.50,231210,,,A*43
$GPRMC,225005.000,A,3259.1974,N,11658.5656,W,50.06,323.20,231210,,,A*41
$GPRMC,225009.000,A,3259.2329,N,11658.6100,W,48.11,310.30,231210,,,A*45
$GPRMC,225012.000,A,3259.2581,N,11658.6492,W,49.57,304.80,231210,,,A*48
$GPRMC,225015.000,A,3259.2826,N,11658.6899,W,50.06,308.00,231210,,,A*40
$GPRMC,225019.000,A,3259.3246,N,11658.7352,W,50.54,323.60,231210,,,A*44
$GPRMC,225022.000,A,3259.3632,N,11658.7560,W,49.08,340.30,231210,,,A*4D
$GPRMC,225025.000,A,3259.4087,N,11658.7634,W,52.49,356.30,231210,,,A*4F
$GPRMC,225028.000,A,3259.4515,N,11658.7604,W,52.01,07.20,231210,,,A*75
$GPRMC,225031.000,A,3259.4950,N,11658.7476,W,52.49,15.20,231210,,,A*78
$GPRMC,225034.000,A,3259.5346,N,11658.7300,W,51.51,22.30,231210,,,A*78
$GPRMC,225037.000,A,3259.5726,N,11658.7068,W,50.54,30.70,231210,,,A*77
$GPRMC,225040.000,A,3259.6034,N,11658.6756,W,48.60,41.30,231210,,,A*77
$GPRMC,225043.000,A,3259.6308,N,11658.6392,W,50.06,49.00,231210,,,A*76
$GPRMC,225046.000,A,3259.6564,N,11658.6007,W,49.57,52.40,231210,,,A*72
$GPRMC,225049.000,A,3259.6807,N,11658.5615,W,49.08,52.40,231210,,,A*79
$GPRMC,225052.000,A,3259.7038,N,11658.5199,W,49.08,55.90,231210,,,A*7F
$GPRMC,225055.000,A,3259.7212,N,11658.4761,W,49.57,66.00,231210,,,A*71
$GPRMC,225058.000,A,3259.7354,N,11658.4309,W,48.60,69.70,231210,,,A*78
$GPRMC,225101.000,A,3259.7469,N,11658.3895,W,45.20,70.50,231210,,,A*76
$GPRMC,225104.000,A,3259.7605,N,11658.3457,W,46.17,70.90,231210,,,A*72
$GPRMC,225107.000,A,3259.7720,N,11658.3040,W,45.68,72.20,231210,,,A*77
$GPRMC,225110.000,A,3259.7785,N,11658.2587,W,48.11,80.00,231210,,,A*7D
$GPRMC,225113.000,A,3259.7849,N,11658.2123,W,48.60,81.20,231210,,,A*7E
$GPRMC,225116.000,A,3259.7913,N,11658.1616,W,51.51,77.80,231210,,,A*7E
$GPRMC,225119.000,A,3259.8031,N,11658.1121,W,52.49,71.60,231210,,,A*76
$GPRMC,225122.000,A,3259.8215,N,11658.0625,W,53.46,66.50,231210,,,A*73
$GPRMC,225125.000,A,3259.8381,N,11658.0151,W,52.49,66.60,231210,,,A*71
$GPRMC,225128.000,A,3259.8555,N,11657.9643,W,53.94,67.40,231210,,,A*73
$GPRMC,225131.000,A,3259.8723,N,11657.9149,W,53.94,70.50,231210,,,A*72
$GPRMC,225134.000,A,3259.8845,N,11657.8691,W,52.00,75.20,231210,,,A*75
$GPRMC,225137.000,A,3259.8901,N,11657.8184,W,51.51,80.40,231210,,,A*7F
$GPRMC,225141.000,A,3259.8952,N,11657.7465,W,53.46,83.10,231210,,,A*7F
$GPRMC,225144.000,A,3259.8988,N,11657.6963,W,50.54,84.90,231210,,,A*78
$GPRMC,225147.000,A,3259.9071,N,11657.6523,W,47.63,80.20,231210,,,A*70
$GPRMC,225150.000,A,3259.9186,N,11657.6066,W,47.63,72.70,231210,,,A*73
$GPRMC,225153.000,A,3259.9372,N,11657.5662,W,46.65,59.90,231210,,,A*78
$GPRMC,225156.000,A,3259.9604,N,11657.5293,W,46.18,47.70,231210,,,A*78
$GPRMC,225159.000,A,3259.9958,N,11657.5047,W,48.60,29.90,231210,,,A*7D
$GPRMC,225202.000,A,3300.0342,N,11657.4883,W,49.57,17.30,231210,,,A*76
$GPRMC,225205.000,A,3300.0779,N,11657.4801,W,52.00,08.30,231210,,,A*71
$GPRMC,225208.000,A,3300.1193,N,11657.4711,W,50.06,09.00,231210,,,A*77
$GPRMC,225211.000,A,3300.1630,N,11657.4658,W,51.03,09.70,231210,,,A*7E
$GPRMC,225213.000,A,3300.1901,N,11657.4567,W,50.54,16.70,231210,,,A*73
$GPRMC,225217.000,A,3300.2433,N,11657.4261,W,52.00,26.60,231210,,,A*78
$GPRMC,225220.000,A,3300.2812,N,11657.4021,W,52.49,27.90,231210,,,A*76
$GPRMC,225223.000,A,3300.3189,N,11657.3786,W,52.00,25.80,231210,,,A*7C
$GPRMC,225226.000,A,3300.3597,N,11657.3600,W,52.49,19.50,231210,,,A*72
$GPRMC,225229.000,A,3300.4038,N,11657.3429,W,53.94,18.20,231210,,,A*74
$GPRMC,225232.000,A,3300.4447,N,11657.3268,W,51.03,18.70,231210,,,A*78
$GPRMC,225235.000,A,3300.4849,N,11657.3105,W,51.03,18.60,231210,,,A*74
$GPRMC,225238.000,A,3300.5257,N,11657.2946,W,51.51,17.40,231210,,,A*79
$GPRMC,225241.000,A,3300.5677,N,11657.2830,W,51.03,11.90,231210,,,A*7D
$GPRMC,225244.000,A,3300.6075,N,11657.2745,W,49.08,10.30,231210,,,A*7B
$GPRMC,225247.000,A,3300.6478,N,11657.2640,W,48.60,13.50,231210,,,A*7F
$GPRMC,225250.000,A,3300.6848,N,11657.2464,W,47.14,26.70,231210,,,A*7A
$GPRMC,225253.000,A,3300.7156,N,11657.2189,W,46.65,38.60,231210,,,A*71
$GPRMC,225256.000,A,3300.7401,N,11657.1790,W,49.57,54.30,231210,,,A*7F
$GPRMC,225259.000,A,3300.7476,N,11657.1314,W,48.11,79.10,231210,,,A*76
$GPRMC,225302.000,A,3300.7464,N,11657.0827,W,48.11,90.90,231210,,,A*7F
$GPRMC,225305.000,A,3300.7366,N,11657.0370,W,48.11,105.50,231210,,,A*45
$GPRMC,225308.000,A,3300.7251,N,11656.9917,W,47.63,107.50,231210,,,A*46
$GPRMC,225311.000,A,3300.7107,N,11656.9487,W,47.63,110.20,231210,,,A*4B
$GPRMC,225314.000,A,3300.6965,N,11656.9019,W,48.60,110.00,231210,,,A*4E
$GPRMC,225317.000,A,3300.6848,N,11656.8579,W,47.64,106.20,231210,,,A*4F
$GPRMC,225320.000,A,3300.6769,N,11656.8113,W,47.63,98.90,231210,,,A*75
$GPRMC,225323.000,A,3300.6750,N,11656.7637,W,47.63,94.40,231210,,,A*73
$GPRMC,225326.000,A,3300.6708,N,11656.7138,W,48.60,95.80,231210,,,A*72
$GPRMC,225329.000,A,3300.6644,N,11656.6659,W,49.57,98.50,231210,,,A*70
$GPRMC,225331.000,A,3300.6594,N,11656.6355,W,49.57,101.10,231210,,,A*4B
$GPRMC,225335.000,A,3300.6477,N,11656.5820,W,52.01,104.50,231210,,,A*41
$GPRMC,225338.000,A,3300.6380,N,11656.5323,W,51.51,100.00,231210,,,A*4C
$GPRMC,225341.000,A,3300.6351,N,11656.4698,W,51.51,91.20,231210,,,A*71
$GPRMC,225345.000,A,3300.6407,N,11656.4025,W,51.51,84.40,231210,,,A*73
$GPRMC,225348.000,A,3300.6425,N,11656.3483,W,53.94,85.20,231210,,,A*7D
$GPRMC,225351.000,A,3300.6470,N,11656.2946,W,53.94,85.00,231210,,,A*72
$GPRMC,225354.000,A,3300.6505,N,11656.2433,W,52.97,85.30,231210,,,A*7A
$GPRMC,225357.000,A,3300.6560,N,11656.1919,W,52.49,83.80,231210,,,A*72
$GPRMC,225400.000,A,3300.6563,N,11656.1393,W,52.97,87.10,231210,,,A*72
$GPRMC,225402.000,A,3300.6574,N,11656.1045,W,52.97,88.00,231210,,,A*70
$GPRMC,225406.000,A,3300.6587,N,11656.0356,W,52.00,89.10,231210,,,A*76
$GPRMC,225409.000,A,3300.6590,N,11655.9840,W,51.51,89.40,231210,,,A*7B
$GPRMC,225412.000,A,3300.6577,N,11655.9345,W,50.06,91.70,231210,,,A*7F
$GPRMC,225415.000,A,3300.6577,N,11655.9014,W,50.06,91.30,231210,,,A*7B
$GPRMC,225418.000,A,3300.6467,N,11655.8384,W,49.57,104.20,231210,,,A*4D
$GPRMC,225421.000,A,3300.6332,N,11655.7912,W,51.03,108.40,231210,,,A*48
$GPRMC,225424.000,A,3300.6221,N,11655.7436,W,50.54,106.90,231210,,,A*45
$GPRMC,225427.000,A,3300.6094,N,11655.6977,W,50.06,108.50,231210,,,A*46
$GPRMC,225430.000,A,3300.5924,N,11655.6493,W,50.54,111.50,231210,,,A*49
$GPRMC,225433.000,A,3300.5712,N,11655.6048,W,50.06,119.60,231210,,,A*4F
$GPRMC,225436.000,A,3300.5479,N,11655.5620,W,50.54,124.00,231210,,,A*40
$GPRMC,225439.000,A,3300.5266,N,11655.5193,W,49.57,118.50,231210,,,A*49
$GPRMC,225442.000,A,3300.5117,N,11655.4743,W,49.08,108.70,231210,,,A*43
$GPRMC,225445.000,A,3300.5115,N,11655.4285,W,47.14,88.00,231210,,,A*74
$GPRMC,225447.000,A,3300.5168,N,11655.3971,W,47.63,78.20,231210,,,A*76
$GPRMC,225451.000,A,3300.5369,N,11655.3376,W,49.08,63.90,231210,,,A*7D
$GPRMC,225454.000,A,3300.5596,N,11655.2944,W,50.06,60.10,231210,,,A*79
$GPRMC,225457.000,A,3300.5782,N,11655.2521,W,49.08,63.10,231210,,,A*77
$GPRMC,225500.000,A,3300.5926,N,11655.2068,W,49.57,71.50,231210,,,A*71
$GPRMC,225503.000,A,3300.5993,N,11655.1584,W,49.57,83.60,231210,,,A*76
$GPRMC,225506.000,A,3300.5958,N,11655.1082,W,50.54,96.90,231210,,,A*77
$GPRMC,225509.000,A,3300.5837,N,11655.0608,W,51.51,109.70,231210,,,A*48
$GPRMC,225512.000,A,3300.5647,N,11655.0123,W,52.97,115.40,231210,,,A*42
$GPRMC,225515.000,A,3300.5460,N,11654.9648,W,52.00,115.20,231210,,,A*48
$GPRMC,225518.000,A,3300.5354,N,11654.9207,W,48.60,103.10,231210,,,A*43
$GPRMC,225521.000,A,3300.5351,N,11654.8725,W,48.60,87.40,231210,,,A*70
$GPRMC,225524.000,A,3300.5502,N,11654.8275,W,49.08,66.70,231210,,,A*76
$GPRMC,225527.000,A,3300.5747,N,11654.7881,W,49.08,52.10,231210,,,A*79
$GPRMC,225530.000,A,3300.6012,N,11654.7508,W,49.57,48.40,231210,,,A*73
$GPRMC,225533.000,A,3300.6312,N,11654.7145,W,49.57,46.80,231210,,,A*7C
$GPRMC,225536.000,A,3300.6597,N,11654.6793,W,49.08,46.90,231210,,,A*75
$GPRMC,225539.000,A,3300.6850,N,11654.6441,W,47.63,47.70,231210,,,A*7C
$GPRMC,225542.000,A,3300.7119,N,11654.6118,W,45.20,47.00,231210,,,A*7E
$GPRMC,225545.000,A,3300.7340,N,11654.5802,W,39.36,49.00,231210,,,A*74
$GPRMC,225547.000,A,3300.7484,N,11654.5625,W,34.02,47.60,231210,,,A*70
$GPRMC,225551.000,A,3300.7662,N,11654.5393,W,18.47,46.80,231210,,,A*75
$GPRMC,225554.000,A,3300.7725,N,11654.5337,W,6.80,44.10,231210,,,A*43
$GPRMC,225615.000,A,3300.7758,N,11654.5264,W,6.80,52.50,231210,,,A*4B
$GPRMC,225618.000,A,3300.7828,N,11654.5187,W,12.64,48.80,231210,,,A*79
$GPRMC,225621.000,A,3300.7923,N,11654.5060,W,17.01,48.60,231210,,,A*79
$GPRMC,225624.000,A,3300.8040,N,11654.4934,W,19.44,46.40,231210,,,A*75
