NMEA Sentence Code,UTC Time,Status,Latitude,Latitude Direction,Longitude,Longitude Direction,Speed (knots),Track Angle (degrees true),Date,MagneticVariation,Magnetic Variation Direction,[FAA Mode]-Optional,Checksum
$GPRMC,055834.1,A,3302.932111,N,11717.578553,W,6.3,83.2,210210,,,A*4D
$GPRMC,055837.1,A,3302.930280,N,11717.570679,W,7.3,98.7,210210,,,A*4A
$GPRMC,055840.1,A,3302.925563,N,11717.563373,W,8.4,111.0,210210,,,A*76
$GPRMC,055843.1,A,3302.922909,N,11717.555601,W,8.4,111.4,210210,,,A*73
$GPRMC,055846.1,A,3302.915778,N,11717.538898,W,11.8,122.2,210210,,,A*4D
$GPRMC,055849.1,A,3302.916311,N,11717.494136,W,19.1,118.0,210210,,,A*4A
$GPRMC,055852.1,A,3302.908836,N,11717.461578,W,23.3,119.2,210210,,,A*4D
$GPRMC,055855.1,A,3302.910920,N,11717.399883,W,31.3,103.1,210210,,,A*47
$GPRMC,055858.1,A,3302.904244,N,11717.368307,W,30.5,102.1,210210,,,A*49
$GPRMC,055901.1,A,3302.907451,N,11717.316135,W,31.4,97.3,210210,,,A*70
$GPRMC,055904.1,A,3302.903333,N,11717.286558,W,28.7,98.1,210210,,,A*73
$GPRMC,055907.1,A,3302.901953,N,11717.260817,W,26.0,97.8,210210,,,A*7F
$GPRMC,055910.1,A,3302.900531,N,11717.235098,W,25.8,96.3,210210,,,A*7E
$GPRMC,055913.1,A,3302.900432,N,11717.211566,W,24.8,93.9,210210,,,A*73
$GPRMC,055916.1,A,3302.899219,N,11717.197395,W,17.7,92.3,210210,,,A*7B
$GPRMC,055919.1,A,3302.904375,N,11717.180809,W,16.3,79.9,210210,,,A*78
$GPRMC,055922.1,A,3302.912403,N,11717.173352,W,14.2,66.8,210210,,,A*74
$GPRMC,055958.1,A,3302.907688,N,11717.183542,W,5.9,33.7,210210,,,A*40
$GPRMC,060001.1,A,3302.913572,N,11717.181374,W,5.6,7.0,210210,,,A*7E
$GPRMC,060004.1,A,3302.922928,N,11717.185365,W,7.6,351.6,210210,,,A*7A
$GPRMC,060007.1,A,3302.940196,N,11717.195851,W,12.3,341.9,210210,,,A*42
$GPRMC,060010.1,A,3302.967669,N,11717.211471,W,20.0,343.0,210210,,,A*4E
$GPRMC,060013.1,A,3303.001978,N,11717.230008,W,30.3,341.2,210210,,,A*41
$GPRMC,060016.1,A,3303.065620,N,11717.263199,W,47.9,342.2,210210,,,A*42
$GPRMC,060019.1,A,3303.111544,N,11717.282269,W,51.1,343.5,210210,,,A*44
$GPRMC,060022.1,A,3303.155034,N,11717.295282,W,52.5,345.6,210210,,,A*4F
$GPRMC,060025.1,A,3303.201333,N,11717.310849,W,53.0,346.0,210210,,,A*4E
$GPRMC,060028.1,A,3303.245828,N,11717.326046,W,54.0,345.3,210210,,,A*47
$GPRMC,060031.1,A,3303.293499,N,11717.340959,W,56.6,344.7,210210,,,A*44
$GPRMC,060034.1,A,3303.341205,N,11717.355814,W,58.6,345.1,210210,,,A*49
$GPRMC,060037.1,A,3303.390120,N,11717.370972,W,62.0,345.5,210210,,,A*4F
$GPRMC,060040.1,A,3303.442355,N,11717.385838,W,64.0,345.7,210210,,,A*46
$GPRMC,060043.1,A,3303.494839,N,11717.401228,W,63.6,345.7,210210,,,A*4E
$GPRMC,060046.1,A,3303.547037,N,11717.417247,W,63.9,345.7,210210,,,A*43
$GPRMC,060049.1,A,3303.599044,N,11717.433064,W,64.6,345.7,210210,,,A*46
$GPRMC,060052.1,A,3303.652831,N,11717.448689,W,65.4,345.7,210210,,,A*48
$GPRMC,060055.1,A,3303.706233,N,11717.466746,W,66.6,345.3,210210,,,A*4C
$GPRMC,060058.1,A,3303.759916,N,11717.482369,W,66.2,345.8,210210,,,A*4B
$GPRMC,060101.1,A,3303.814634,N,11717.499420,W,67.2,345.6,210210,,,A*40
$GPRMC,060104.1,A,3303.868684,N,11717.516334,W,67.7,345.2,210210,,,A*40
$GPRMC,060107.1,A,3303.924208,N,11717.534176,W,68.2,344.6,210210,,,A*41
$GPRMC,060110.1,A,3303.979719,N,11717.550573,W,69.0,345.5,210210,,,A*48
$GPRMC,060113.1,A,3304.036632,N,11717.566831,W,69.3,345.9,210210,,,A*47
$GPRMC,060116.1,A,3304.091738,N,11717.583000,W,68.3,345.8,210210,,,A*45
$GPRMC,060119.1,A,3304.146104,N,11717.599427,W,67.6,345.8,210210,,,A*48
$GPRMC,060122.1,A,3304.199969,N,11717.616610,W,67.1,345.6,210210,,,A*4A
$GPRMC,060125.1,A,3304.254750,N,11717.633342,W,67.5,345.5,210210,,,A*49
$GPRMC,060128.1,A,3304.309363,N,11717.650890,W,67.8,345.6,210210,,,A*46
$GPRMC,060131.1,A,3304.365170,N,11717.666946,W,68.3,345.9,210210,,,A*40
$GPRMC,060134.1,A,3304.420408,N,11717.683583,W,68.7,345.7,210210,,,A*4D
$GPRMC,060137.1,A,3304.475478,N,11717.700576,W,67.0,345.8,210210,,,A*4E
$GPRMC,060140.1,A,3304.528422,N,11717.716531,W,66.1,345.9,210210,,,A*4D
$GPRMC,060143.1,A,3304.581414,N,11717.732222,W,65.2,345.6,210210,,,A*44
$GPRMC,060146.1,A,3304.634246,N,11717.748741,W,65.6,345.0,210210,,,A*42
$GPRMC,060149.1,A,3304.687732,N,11717.765709,W,66.3,345.6,210210,,,A*40
$GPRMC,060152.1,A,3304.741246,N,11717.781093,W,66.4,345.7,210210,,,A*4F
$GPRMC,060155.1,A,3304.796626,N,11717.796925,W,67.3,345.9,210210,,,A*4A
$GPRMC,060158.1,A,3304.850388,N,11717.814090,W,66.9,345.8,210210,,,A*4B
$GPRMC,060201.1,A,3304.904971,N,11717.830205,W,67.1,345.9,210210,,,A*48
$GPRMC,060204.1,A,3304.957168,N,11717.845240,W,65.5,345.9,210210,,,A*4E
$GPRMC,060207.1,A,3305.008243,N,11717.862353,W,63.9,344.0,210210,,,A*41
$GPRMC,060210.1,A,3305.057638,N,11717.884155,W,63.2,339.5,210210,,,A*4D
$GPRMC,060213.1,A,3305.105723,N,11717.909465,W,61.8,335.4,210210,,,A*44
$GPRMC,060216.1,A,3305.150518,N,11717.937473,W,60.9,331.3,210210,,,A*42
$GPRMC,060219.1,A,3305.194972,N,11717.967020,W,61.3,330.8,210210,,,A*43
$GPRMC,060222.1,A,3305.238480,N,11717.997529,W,61.0,330.6,210210,,,A*40
$GPRMC,060225.1,A,3305.282705,N,11718.026312,W,60.2,331.2,210210,,,A*4C
$GPRMC,060228.1,A,3305.326321,N,11718.055128,W,59.9,331.5,210210,,,A*45
$GPRMC,060231.1,A,3305.371051,N,11718.083803,W,60.4,331.6,210210,,,A*44
$GPRMC,060234.1,A,3305.415158,N,11718.112691,W,60.8,331.0,210210,,,A*4A
$GPRMC,060237.1,A,3305.461348,N,11718.143858,W,62.4,331.3,210210,,,A*4B
$GPRMC,060240.1,A,3305.506397,N,11718.173635,W,62.1,331.3,210210,,,A*4A
$GPRMC,060243.1,A,3305.552124,N,11718.202375,W,62.3,331.8,210210,,,A*4F
$GPRMC,060246.1,A,3305.596859,N,11718.231418,W,62.0,331.5,210210,,,A*43
$GPRMC,060249.1,A,3305.643636,N,11718.260460,W,63.4,331.3,210210,,,A*48
$GPRMC,060252.1,A,3305.691315,N,11718.290866,W,64.4,331.5,210210,,,A*4D
$GPRMC,060255.1,A,3305.738737,N,11718.321920,W,65.4,330.8,210210,,,A*49
$GPRMC,060258.1,A,3305.786353,N,11718.354115,W,66.1,331.2,210210,,,A*46
$GPRMC,060301.1,A,3305.834610,N,11718.385329,W,66.6,331.4,210210,,,A*4F
$GPRMC,060304.1,A,3305.883280,N,11718.418029,W,65.3,331.3,210210,,,A*4A
$GPRMC,060307.1,A,3305.931782,N,11718.449745,W,65.7,331.2,210210,,,A*4A
$GPRMC,060310.1,A,3305.981240,N,11718.481919,W,67.0,331.2,210210,,,A*4A
$GPRMC,060313.1,A,3306.030554,N,11718.513878,W,67.1,330.9,210210,,,A*4C
$GPRMC,060316.1,A,3306.080837,N,11718.546195,W,68.3,331.2,210210,,,A*47
$GPRMC,060319.1,A,3306.131121,N,11718.579272,W,70.2,331.2,210210,,,A*43
$GPRMC,060322.1,A,3306.182640,N,11718.613020,W,70.5,331.0,210210,,,A*4C
$GPRMC,060325.1,A,3306.234659,N,11718.646552,W,70.9,331.3,210210,,,A*42
$GPRMC,060328.1,A,3306.285624,N,11718.679371,W,68.7,331.1,210210,,,A*41
$GPRMC,060331.1,A,3306.335774,N,11718.711797,W,67.7,331.3,210210,,,A*49
$GPRMC,060334.1,A,3306.384982,N,11718.744193,W,67.9,331.2,210210,,,A*4C
$GPRMC,060337.1,A,3306.434498,N,11718.777083,W,68.6,331.1,210210,,,A*46
$GPRMC,060340.1,A,3306.485603,N,11718.809465,W,68.9,331.4,210210,,,A*4C
$GPRMC,060343.1,A,3306.535364,N,11718.841433,W,67.3,332.1,210210,,,A*4D
$GPRMC,060346.1,A,3306.585343,N,11718.872121,W,67.1,333.1,210210,,,A*43
$GPRMC,060349.1,A,3306.634933,N,11718.902653,W,67.1,333.0,210210,,,A*4D
$GPRMC,060352.1,A,3306.685652,N,11718.931388,W,67.1,333.5,210210,,,A*43
$GPRMC,060355.1,A,3306.736977,N,11718.962223,W,68.1,333.2,210210,,,A*4B
$GPRMC,060358.1,A,3306.785864,N,11718.992644,W,67.6,332.9,210210,,,A*45
$GPRMC,060401.1,A,3306.836207,N,11719.023037,W,67.3,333.1,210210,,,A*4A
$GPRMC,060404.1,A,3306.886119,N,11719.052507,W,66.8,333.5,210210,,,A*46
$GPRMC,060407.1,A,3306.934914,N,11719.082837,W,66.4,332.9,210210,,,A*4A
$GPRMC,060410.1,A,3306.986945,N,11719.111277,W,67.0,333.4,210210,,,A*4D
$GPRMC,060413.1,A,3307.030324,N,11719.140486,W,65.1,332.9,210210,,,A*45
$GPRMC,060416.1,A,3307.080268,N,11719.169285,W,66.6,333.5,210210,,,A*45
$GPRMC,060419.1,A,3307.128948,N,11719.199335,W,65.8,332.9,210210,,,A*45
$GPRMC,060422.1,A,3307.181563,N,11719.228823,W,66.2,333.2,210210,,,A*4D
$GPRMC,060425.1,A,3307.230695,N,11719.258920,W,66.0,333.1,210210,,,A*4D
$GPRMC,060428.1,A,3307.286081,N,11719.289043,W,67.6,333.2,210210,,,A*4A
$GPRMC,060431.1,A,3307.334737,N,11719.319776,W,67.0,333.5,210210,,,A*48
$GPRMC,060434.1,A,3307.386784,N,11719.350296,W,67.2,333.5,210210,,,A*48
$GPRMC,060437.1,A,3307.434119,N,11719.380953,W,66.8,333.1,210210,,,A*47
$GPRMC,060440.1,A,3307.483804,N,11719.409693,W,66.3,333.4,210210,,,A*45
$GPRMC,060443.1,A,3307.533435,N,11719.439700,W,65.8,333.6,210210,,,A*40
$GPRMC,060446.1,A,3307.584655,N,11719.468908,W,66.1,333.9,210210,,,A*4A
$GPRMC,060449.1,A,3307.634378,N,11719.497775,W,66.1,333.7,210210,,,A*4D
$GPRMC,060452.1,A,3307.686809,N,11719.527777,W,67.1,333.6,210210,,,A*4B
$GPRMC,060455.1,A,3307.737119,N,11719.557552,W,66.4,333.7,210210,,,A*48
$GPRMC,060458.1,A,3307.784952,N,11719.586733,W,64.9,333.1,210210,,,A*4A
$GPRMC,060501.1,A,3307.832021,N,11719.615490,W,64.0,333.5,210210,,,A*46
$GPRMC,060504.1,A,3307.879913,N,11719.644858,W,65.0,333.5,210210,,,A*49
$GPRMC,060507.1,A,3307.928203,N,11719.674548,W,65.4,333.2,210210,,,A*49
$GPRMC,060510.1,A,3307.980425,N,11719.704140,W,66.3,334.4,210210,,,A*40
$GPRMC,060513.1,A,3308.030127,N,11719.730002,W,64.4,336.5,210210,,,A*4F
$GPRMC,060516.1,A,3308.081503,N,11719.756476,W,64.2,336.8,210210,,,A*4E
$GPRMC,060519.1,A,3308.128699,N,11719.779806,W,63.0,337.5,210210,,,A*4C
$GPRMC,060522.1,A,3308.177249,N,11719.803603,W,62.8,337.3,210210,,,A*41
$GPRMC,060525.1,A,3308.226200,N,11719.830342,W,64.4,336.6,210210,,,A*42
$GPRMC,060528.1,A,3308.274620,N,11719.855796,W,63.9,336.4,210210,,,A*48
$GPRMC,060531.1,A,3308.322391,N,11719.879791,W,61.7,336.9,210210,,,A*45
$GPRMC,060534.1,A,3308.369883,N,11719.903937,W,60.5,337.3,210210,,,A*41
$GPRMC,060537.1,A,3308.414521,N,11719.927089,W,58.2,337.1,210210,,,A*4E
$GPRMC,060540.1,A,3308.458466,N,11719.949000,W,57.5,336.8,210210,,,A*4D
$GPRMC,060543.1,A,3308.502246,N,11719.971724,W,58.4,336.3,210210,,,A*4B
$GPRMC,060546.1,A,3308.548258,N,11719.991469,W,58.6,342.3,210210,,,A*4A
$GPRMC,060549.1,A,3308.596371,N,11720.003721,W,58.8,349.6,210210,,,A*4B
$GPRMC,060552.1,A,3308.644943,N,11720.009363,W,59.3,355.7,210210,,,A*48
$GPRMC,060555.1,A,3308.695200,N,11720.011038,W,61.3,357.6,210210,,,A*43
$GPRMC,060558.1,A,3308.748047,N,11720.014688,W,62.8,357.9,210210,,,A*41
$GPRMC,060601.1,A,3308.798406,N,11720.016743,W,61.1,356.5,210210,,,A*41
$GPRMC,060604.1,A,3308.847517,N,11720.025680,W,59.3,349.2,210210,,,A*46
$GPRMC,060607.1,A,3308.892571,N,11720.040976,W,57.0,342.5,210210,,,A*49
$GPRMC,060610.1,A,3308.937667,N,11720.060756,W,57.2,339.6,210210,,,A*46
$GPRMC,060613.1,A,3308.981021,N,11720.080286,W,55.6,339.2,210210,,,A*48
$GPRMC,060616.1,A,3309.023455,N,11720.098160,W,53.5,341.0,210210,,,A*40
$GPRMC,060619.1,A,3309.062351,N,11720.114911,W,48.7,340.2,210210,,,A*49
$GPRMC,060622.1,A,3309.095610,N,11720.128153,W,41.5,342.7,210210,,,A*44
$GPRMC,060625.1,A,3309.118320,N,11720.135409,W,29.4,346.5,210210,,,A*4E
$GPRMC,060628.1,A,3309.135618,N,11720.142528,W,24.3,342.5,210210,,,A*4E
$GPRMC,060631.1,A,3309.141406,N,11720.145764,W,13.5,340.6,210210,,,A*46
$GPRMC,060655.1,A,3309.139001,N,11720.141715,W,7.4,338.3,210210,,,A*74
$GPRMC,060658.1,A,3309.148633,N,11720.147262,W,13.9,331.7,210210,,,A*4E
$GPRMC,060701.1,A,3309.162869,N,11720.159778,W,20.9,318.5,210210,,,A*42
$GPRMC,060704.1,A,3309.180896,N,11720.182177,W,30.4,311.3,210210,,,A*47
$GPRMC,060707.1,A,3309.207320,N,11720.208405,W,37.4,316.2,210210,,,A*4E
$GPRMC,060710.1,A,3309.241313,N,11720.235647,W,44.8,324.3,210210,,,A*48
$GPRMC,060713.1,A,3309.286372,N,11720.261653,W,54.3,332.0,210210,,,A*4D
$GPRMC,060716.1,A,3309.332959,N,11720.287081,W,59.5,334.1,210210,,,A*48
$GPRMC,060719.1,A,3309.380212,N,11720.312134,W,61.3,335.7,210210,,,A*42
$GPRMC,060722.1,A,3309.430968,N,11720.337149,W,63.1,337.2,210210,,,A*4A
$GPRMC,060725.1,A,3309.480240,N,11720.360803,W,63.3,337.1,210210,,,A*43
$GPRMC,060728.1,A,3309.530929,N,11720.385792,W,64.5,337.3,210210,,,A*4F
$GPRMC,060731.1,A,3309.578588,N,11720.411561,W,62.2,336.5,210210,,,A*4E
$GPRMC,060734.1,A,3309.623560,N,11720.435861,W,59.4,336.9,210210,,,A*49
$GPRMC,060737.1,A,3309.667454,N,11720.458465,W,57.6,336.7,210210,,,A*4D
$GPRMC,060740.1,A,3309.712411,N,11720.480685,W,57.8,336.5,210210,,,A*4A
$GPRMC,060743.1,A,3309.757758,N,11720.502600,W,58.1,337.0,210210,,,A*42
$GPRMC,060746.1,A,3309.801105,N,11720.524112,W,56.1,336.7,210210,,,A*4D
$GPRMC,060749.1,A,3309.844655,N,11720.545708,W,55.5,337.1,210210,,,A*4B
$GPRMC,060752.1,A,3309.888581,N,11720.567398,W,57.2,336.8,210210,,,A*4B
$GPRMC,060755.1,A,3309.932920,N,11720.590447,W,59.1,336.9,210210,,,A*4A
$GPRMC,060758.1,A,3309.979150,N,11720.613938,W,60.3,336.9,210210,,,A*42
$GPRMC,060801.1,A,3310.025879,N,11720.637516,W,61.0,336.9,210210,,,A*4F
$GPRMC,060804.1,A,3310.072310,N,11720.661925,W,60.8,336.9,210210,,,A*4A
$GPRMC,060807.1,A,3310.116449,N,11720.687708,W,58.7,333.3,210210,,,A*43
$GPRMC,060810.1,A,3310.159747,N,11720.715272,W,59.4,331.3,210210,,,A*41
$GPRMC,060813.1,A,3310.203085,N,11720.746012,W,60.1,328.6,210210,,,A*47
$GPRMC,060816.1,A,3310.246343,N,11720.778026,W,60.1,327.0,210210,,,A*49
$GPRMC,060819.1,A,3310.288646,N,11720.808672,W,58.6,328.0,210210,,,A*48
$GPRMC,060822.1,A,3310.328060,N,11720.839543,W,57.4,327.6,210210,,,A*4E
$GPRMC,060825.1,A,3310.367940,N,11720.869879,W,56.8,328.3,210210,,,A*4F
$GPRMC,060828.1,A,3310.406458,N,11720.900655,W,55.3,327.4,210210,,,A*48
$GPRMC,060831.1,A,3310.444814,N,11720.928411,W,54.3,329.0,210210,,,A*41
$GPRMC,060834.1,A,3310.482497,N,11720.956372,W,52.1,328.4,210210,,,A*43
$GPRMC,060837.1,A,3310.518367,N,11720.979075,W,48.2,334.2,210210,,,A*40
$GPRMC,060840.1,A,3310.557042,N,11720.991591,W,46.4,347.6,210210,,,A*4E
$GPRMC,060843.1,A,3310.595664,N,11720.990827,W,45.9,3.2,210210,,,A*49
$GPRMC,060846.1,A,3310.633696,N,11720.980748,W,46.5,15.6,210210,,,A*75
$GPRMC,060849.1,A,3310.668576,N,11720.963066,W,46.2,26.4,210210,,,A*7A
$GPRMC,060852.1,A,3310.694090,N,11720.935892,W,43.6,41.5,210210,,,A*7F
$GPRMC,060855.1,A,3310.721995,N,11720.900728,W,47.8,49.8,210210,,,A*7C
$GPRMC,060858.1,A,3310.748298,N,11720.858761,W,50.4,52.8,210210,,,A*79
$GPRMC,060901.1,A,3310.770881,N,11720.818154,W,49.7,55.2,210210,,,A*7F
$GPRMC,060904.1,A,3310.792114,N,11720.775707,W,50.8,59.4,210210,,,A*7A
$GPRMC,060907.1,A,3310.812751,N,11720.730854,W,49.8,62.8,210210,,,A*7D
$GPRMC,060910.1,A,3310.828858,N,11720.687034,W,48.2,66.7,210210,,,A*77
$GPRMC,060913.1,A,3310.841847,N,11720.642851,W,46.8,71.9,210210,,,A*7B
$GPRMC,060916.1,A,3310.850914,N,11720.598737,W,45.7,76.1,210210,,,A*71
$GPRMC,060919.1,A,3310.855032,N,11720.554491,W,44.8,84.4,210210,,,A*7F
$GPRMC,060922.1,A,3310.855250,N,11720.510663,W,43.7,90.7,210210,,,A*70
$GPRMC,060925.1,A,3310.851814,N,11720.468123,W,41.3,94.8,210210,,,A*79
$GPRMC,060928.1,A,3310.845785,N,11720.435110,W,31.8,99.5,210210,,,A*72
$GPRMC,060931.1,A,3310.842320,N,11720.409620,W,26.5,96.4,210210,,,A*78
$GPRMC,060934.1,A,3310.837693,N,11720.393907,W,19.9,101.4,210210,,,A*43
$GPRMC,060937.1,A,3310.838364,N,11720.393022,W,10.5,99.5,210210,,,A*78
$GPRMC,060952.1,A,3310.837776,N,11720.408284,W,7.7,100.8,210210,,,A*70
$GPRMC,060955.1,A,3310.840085,N,11720.398720,W,11.0,61.0,210210,,,A*77
$GPRMC,060958.1,A,3310.852623,N,11720.394064,W,15.8,10.7,210210,,,A*75
$GPRMC,061001.1,A,3310.869412,N,11720.390818,W,19.7,9.4,210210,,,A*46
$GPRMC,061004.1,A,3310.889193,N,11720.386695,W,24.1,8.9,210210,,,A*49
$GPRMC,061007.1,A,3310.910129,N,11720.383187,W,24.9,7.2,210210,,,A*47
$GPRMC,061010.1,A,3310.930018,N,11720.381237,W,23.2,6.5,210210,,,A*40
$GPRMC,061013.1,A,3310.946843,N,11720.377984,W,20.5,9.3,210210,,,A*43
$GPRMC,061016.1,A,3310.966008,N,11720.374093,W,21.9,11.3,210210,,,A*7B
$GPRMC,061019.1,A,3310.980562,N,11720.370278,W,16.8,15.6,210210,,,A*72
$GPRMC,061022.1,A,3310.989492,N,11720.366333,W,10.2,18.2,210210,,,A*71
$GPRMC,061025.1,A,3310.993897,N,11720.364713,W,5.4,18.5,210210,,,A*45
$GPRMC,061028.1,A,3311.002909,N,11720.364393,W,12.5,358.7,210210,,,A*40
$GPRMC,061031.1,A,3311.013422,N,11720.371525,W,16.5,319.9,210210,,,A*4C
$GPRMC,061034.1,A,3311.018966,N,11720.390924,W,19.9,288.2,210210,,,A*4C
$GPRMC,061037.1,A,3311.017554,N,11720.412075,W,21.3,259.8,210210,,,A*4A
$GPRMC,061040.1,A,3311.009194,N,11720.429982,W,18.5,239.3,210210,,,A*45
$GPRMC,061043.1,A,3310.999667,N,11720.441658,W,15.7,225.7,210210,,,A*4C
$GPRMC,061046.1,A,3310.994936,N,11720.445584,W,5.1,209.1,210210,,,A*76
$GPRMC,061055.1,A,3310.991848,N,11720.446136,W,7.2,200.0,210210,,,A*7E
$GPRMC,061058.1,A,3310.982030,N,11720.443167,W,13.4,147.6,210210,,,A*42
$GPRMC,061101.1,A,3310.972965,N,11720.432819,W,12.2,126.0,210210,,,A*49
$GPRMC,061104.1,A,3310.968543,N,11720.423488,W,8.7,123.4,210210,,,A*74
$GPRMC,061107.1,A,3310.964151,N,11720.415892,W,9.5,119.2,210210,,,A*72
$GPRMC,061110.1,A,3310.958934,N,11720.409555,W,7.6,149.1,210210,,,A*70
$GPRMC,061113.1,A,3310.951232,N,11720.413138,W,10.2,209.5,210210,,,A*42
$GPRMC,061116.1,A,3310.944913,N,11720.418655,W,8.9,216.6,210210,,,A*73
$GPRMC,061119.1,A,3310.940402,N,11720.421617,W,5.5,199.0,210210,,,A*7A
$GPRMC,061246.1,A,3310.947215,N,11720.414327,W,6.0,6.1,210210,,,A*74
$GPRMC,061249.1,A,3310.951426,N,11720.418288,W,6.6,317.8,210210,,,A*7E
$GPRMC,061252.1,A,3310.953108,N,11720.426193,W,7.2,285.9,210210,,,A*75
$GPRMC,061255.1,A,3310.950877,N,11720.434335,W,7.4,257.9,210210,,,A*74
$GPRMC,061258.1,A,3310.948956,N,11720.442565,W,7.4,250.4,210210,,,A*7A
$GPRMC,061301.1,A,3310.943880,N,11720.449274,W,7.5,232.4,210210,,,A*7F
$GPRMC,061304.1,A,3310.940561,N,11720.455585,W,7.0,242.2,210210,,,A*7B
$GPRMC,061307.1,A,3310.940451,N,11720.464901,W,7.9,280.3,210210,,,A*7E
$GPRMC,061310.1,A,3310.938602,N,11720.472491,W,7.2,259.1,210210,,,A*7D
$GPRMC,061313.1,A,3310.931994,N,11720.480120,W,8.6,228.3,210210,,,A*7A
$GPRMC,061316.1,A,3310.925240,N,11720.484474,W,7.8,211.1,210210,,,A*71
$GPRMC,061658.1,A,3310.920637,N,11720.472998,W,7.1,55.7,210210,,,A*44
$GPRMC,061701.1,A,3310.926283,N,11720.468226,W,7.1,37.4,210210,,,A*46
$GPRMC,061704.1,A,3310.930325,N,11720.466545,W,5.4,13.1,210210,,,A*41
$GPRMC,061707.1,A,3310.936481,N,11720.471445,W,8.0,323.3,210210,,,A*71
$GPRMC,061710.1,A,3310.940268,N,11720.475887,W,6.2,319.0,210210,,,A*77
$GPRMC,061713.1,A,3310.945716,N,11720.477426,W,6.6,346.7,210210,,,A*71
$GPRMC,061716.1,A,3310.952738,N,11720.473165,W,8.3,23.4,210210,,,A*40
$GPRMC,061719.1,A,3310.963437,N,11720.462303,W,14.1,41.2,210210,,,A*7E
$GPRMC,061722.1,A,3310.971531,N,11720.454033,W,8.8,38.3,210210,,,A*4C
$GPRMC,061734.1,A,3310.977593,N,11720.443305,W,5.0,99.9,210210,,,A*41
$GPRMC,061737.1,A,3310.974703,N,11720.435012,W,8.9,116.4,210210,,,A*71
$GPRMC,061740.1,A,3310.969082,N,11720.424776,W,12.2,122.4,210210,,,A*41
$GPRMC,061743.1,A,3310.963670,N,11720.415464,W,10.0,120.0,210210,,,A*47
$GPRMC,061752.1,A,3310.975531,N,11720.422080,W,9.7,303.4,210210,,,A*74
$GPRMC,061755.1,A,3310.980150,N,11720.432046,W,10.5,302.6,210210,,,A*48
$GPRMC,061758.1,A,3310.984316,N,11720.437783,W,5.1,322.9,210210,,,A*77
$GPRMC,061801.1,A,3310.989910,N,11720.437942,W,6.7,5.0,210210,,,A*7C
$GPRMC,061804.1,A,3310.995850,N,11720.434264,W,6.7,23.6,210210,,,A*4F
$GPRMC,061807.1,A,3311.000438,N,11720.421867,W,10.1,58.0,210210,,,A*7C
$GPRMC,061810.1,A,3311.003969,N,11720.404135,W,12.6,81.3,210210,,,A*7B
$GPRMC,061813.1,A,3311.004193,N,11720.393665,W,5.7,93.0,210210,,,A*4E
$GPRMC,061825.1,A,3310.998210,N,11720.379047,W,5.2,143.6,210210,,,A*73
$GPRMC,061828.1,A,3310.991818,N,11720.377016,W,7.2,166.2,210210,,,A*7E
$GPRMC,061831.1,A,3310.981655,N,11720.376448,W,11.1,172.4,210210,,,A*49
$GPRMC,061834.1,A,3310.963330,N,11720.380014,W,18.1,177.3,210210,,,A*49
$GPRMC,061837.1,A,3310.941952,N,11720.385628,W,22.3,189.9,210210,,,A*48
$GPRMC,061840.1,A,3310.926641,N,11720.391426,W,15.8,194.8,210210,,,A*4F
$GPRMC,061843.1,A,3310.920825,N,11720.393801,W,7.3,198.2,210210,,,A*73
$GPRMC,061846.1,A,3310.912715,N,11720.399802,W,9.7,211.3,210210,,,A*7B
$GPRMC,061849.1,A,3310.904939,N,11720.409655,W,11.0,227.2,210210,,,A*4B
$GPRMC,061852.1,A,3310.898967,N,11720.428950,W,15.7,250.3,210210,,,A*45
$GPRMC,061855.1,A,3310.887703,N,11720.486153,W,40.0,260.4,210210,,,A*4C
$GPRMC,061858.1,A,3310.880583,N,11720.544641,W,52.3,260.9,210210,,,A*4A
$GPRMC,061901.1,A,3310.870728,N,11720.599939,W,54.3,259.4,210210,,,A*4A
$GPRMC,061904.1,A,3310.859157,N,11720.653760,W,55.4,255.2,210210,,,A*41
$GPRMC,061907.1,A,3310.842080,N,11720.707239,W,57.0,249.9,210210,,,A*4A
$GPRMC,061910.1,A,3310.821596,N,11720.758650,W,56.4,244.4,210210,,,A*4F
$GPRMC,061913.1,A,3310.797133,N,11720.807554,W,56.1,239.2,210210,,,A*4E
$GPRMC,061916.1,A,3310.771419,N,11720.853631,W,55.5,236.1,210210,,,A*44
$GPRMC,061919.1,A,3310.746754,N,11720.897757,W,54.4,236.6,210210,,,A*4B
$GPRMC,061922.1,A,3310.723259,N,11720.944808,W,53.8,240.0,210210,,,A*4E
$GPRMC,061925.1,A,3310.703946,N,11720.988142,W,49.6,245.5,210210,,,A*4C
$GPRMC,061928.1,A,3310.696063,N,11721.031108,W,46.1,257.4,210210,,,A*4C
$GPRMC,061931.1,A,3310.697712,N,11721.077231,W,46.3,271.1,210210,,,A*4C
$GPRMC,061934.1,A,3310.704466,N,11721.121394,W,44.6,278.4,210210,,,A*45
$GPRMC,061937.1,A,3310.727849,N,11721.158932,W,42.2,295.3,210210,,,A*48
$GPRMC,061940.1,A,3310.763767,N,11721.188645,W,43.6,313.6,210210,,,A*46
$GPRMC,061943.1,A,3310.808082,N,11721.218564,W,53.5,323.0,210210,,,A*46
$GPRMC,061946.1,A,3310.849833,N,11721.252630,W,57.6,323.8,210210,,,A*47
$GPRMC,061949.1,A,3310.892300,N,11721.287102,W,60.6,323.7,210210,,,A*40
$GPRMC,061952.1,A,3310.936986,N,11721.323776,W,63.9,324.6,210210,,,A*41
$GPRMC,061955.1,A,3310.981660,N,11721.360840,W,64.8,324.4,210210,,,A*44
$GPRMC,061958.1,A,3311.026812,N,11721.397228,W,64.4,325.0,210210,,,A*42
$GPRMC,062001.1,A,3311.070219,N,11721.436586,W,65.5,324.0,210210,,,A*48
$GPRMC,062004.1,A,3311.115264,N,11721.475940,W,67.3,323.5,210210,,,A*42
$GPRMC,062007.1,A,3311.162763,N,11721.514263,W,67.4,324.9,210210,,,A*43
$GPRMC,062010.1,A,3311.208850,N,11721.551405,W,65.8,325.1,210210,,,A*45
$GPRMC,062013.1,A,3311.254439,N,11721.589054,W,65.6,325.2,210210,,,A*44
$GPRMC,062016.1,A,3311.298888,N,11721.625322,W,64.4,325.0,210210,,,A*41
$GPRMC,062019.1,A,3311.343140,N,11721.662000,W,65.0,325.0,210210,,,A*41
$GPRMC,062022.1,A,3311.388778,N,11721.699843,W,65.4,324.9,210210,,,A*44
$GPRMC,062025.1,A,3311.433825,N,11721.737099,W,65.0,325.2,210210,,,A*47
$GPRMC,062028.1,A,3311.477755,N,11721.774158,W,64.8,325.2,210210,,,A*40
$GPRMC,062031.1,A,3311.522989,N,11721.811323,W,65.5,324.8,210210,,,A*43
$GPRMC,062034.1,A,3311.567067,N,11721.848365,W,65.0,324.4,210210,,,A*49
$GPRMC,062037.1,A,3311.611241,N,11721.887442,W,66.1,324.1,210210,,,A*48
$GPRMC,062040.1,A,3311.657423,N,11721.924292,W,66.2,325.4,210210,,,A*4C
$GPRMC,062043.1,A,3311.703830,N,11721.961531,W,66.4,324.7,210210,,,A*4A
$GPRMC,062046.1,A,3311.750314,N,11722.000423,W,67.1,325.2,210210,,,A*4B
$GPRMC,062049.1,A,3311.795306,N,11722.038411,W,66.3,325.0,210210,,,A*45
$GPRMC,062052.1,A,3311.842410,N,11722.075601,W,67.2,325.4,210210,,,A*44
$GPRMC,062055.1,A,3311.886826,N,11722.112968,W,65.0,323.2,210210,,,A*42
$GPRMC,062058.1,A,3311.926780,N,11722.154445,W,63.5,317.5,210210,,,A*44
$GPRMC,062101.1,A,3311.962703,N,11722.201618,W,64.4,311.6,210210,,,A*48
$GPRMC,062104.1,A,3311.994330,N,11722.253782,W,65.6,305.6,210210,,,A*43
$GPRMC,062107.1,A,3312.023248,N,11722.310172,W,66.7,300.7,210210,,,A*41
$GPRMC,062110.1,A,3312.046118,N,11722.369651,W,66.5,294.9,210210,,,A*4A
$GPRMC,062113.1,A,3312.066791,N,11722.431596,W,67.0,292.7,210210,,,A*42
$GPRMC,062116.1,A,3312.086601,N,11722.494439,W,67.9,292.1,210210,,,A*45
$GPRMC,062119.1,A,3312.107966,N,11722.556477,W,67.4,291.9,210210,,,A*4F
$GPRMC,062122.1,A,3312.128679,N,11722.618477,W,66.7,292.1,210210,,,A*4B
$GPRMC,062125.1,A,3312.149334,N,11722.678649,W,64.8,292.3,210210,,,A*41
$GPRMC,062128.1,A,3312.170194,N,11722.738444,W,65.1,292.8,210210,,,A*47
$GPRMC,062131.1,A,3312.191278,N,11722.796791,W,64.6,292.7,210210,,,A*47
$GPRMC,062134.1,A,3312.215651,N,11722.855184,W,65.0,297.2,210210,,,A*47
$GPRMC,062137.1,A,3312.244079,N,11722.910364,W,65.1,303.7,210210,,,A*48
$GPRMC,062140.1,A,3312.278682,N,11722.962587,W,65.4,309.2,210210,,,A*41
$GPRMC,062143.1,A,3312.317437,N,11723.010187,W,65.7,315.5,210210,,,A*46
$GPRMC,062146.1,A,3312.359966,N,11723.052203,W,65.0,322.3,210210,,,A*4C
$GPRMC,062149.1,A,3312.406564,N,11723.087586,W,64.5,328.3,210210,,,A*4C
$GPRMC,062152.1,A,3312.453849,N,11723.116689,W,63.9,331.8,210210,,,A*49
$GPRMC,062155.1,A,3312.500393,N,11723.147002,W,63.7,332.2,210210,,,A*43
$GPRMC,062158.1,A,3312.546284,N,11723.176280,W,63.3,331.7,210210,,,A*43
$GPRMC,062201.1,A,3312.593692,N,11723.205132,W,62.8,332.5,210210,,,A*41
$GPRMC,062204.1,A,3312.638803,N,11723.232855,W,61.8,332.0,210210,,,A*4A
$GPRMC,062207.1,A,3312.684254,N,11723.262431,W,62.4,331.5,210210,,,A*44
$GPRMC,062210.1,A,3312.733573,N,11723.291681,W,63.4,331.9,210210,,,A*45
$GPRMC,062213.1,A,3312.780795,N,11723.323404,W,64.0,332.1,210210,,,A*4B
$GPRMC,062216.1,A,3312.828008,N,11723.352272,W,63.5,333.0,210210,,,A*43
$GPRMC,062219.1,A,3312.876061,N,11723.378917,W,63.2,337.1,210210,,,A*4A
$GPRMC,062222.1,A,3312.924680,N,11723.397307,W,63.1,344.2,210210,,,A*43
$GPRMC,062225.1,A,3312.975802,N,11723.412331,W,63.4,345.4,210210,,,A*49
$GPRMC,062228.1,A,3313.027285,N,11723.428016,W,64.3,345.8,210210,,,A*4D
$GPRMC,062231.1,A,3313.079797,N,11723.444401,W,65.5,345.2,210210,,,A*4D
$GPRMC,062234.1,A,3313.133385,N,11723.459824,W,65.4,345.5,210210,,,A*41
$GPRMC,062237.1,A,3313.187218,N,11723.475212,W,64.9,345.8,210210,,,A*48
$GPRMC,062240.1,A,3313.238354,N,11723.490933,W,63.8,345.7,210210,,,A*4C
$GPRMC,062243.1,A,3313.290966,N,11723.507043,W,64.4,345.2,210210,,,A*49
$GPRMC,062246.1,A,3313.343358,N,11723.524967,W,65.2,342.9,210210,,,A*41
$GPRMC,062249.1,A,3313.394365,N,11723.549050,W,65.7,336.6,210210,,,A*45
$GPRMC,062252.1,A,3313.443161,N,11723.581473,W,66.1,329.0,210210,,,A*48
$GPRMC,062255.1,A,3313.486559,N,11723.620299,W,65.8,321.5,210210,,,A*44
$GPRMC,062258.1,A,3313.527703,N,11723.664315,W,66.5,317.8,210210,,,A*4D
$GPRMC,062301.1,A,3313.568398,N,11723.710301,W,66.9,316.8,210210,,,A*47
$GPRMC,062304.1,A,3313.609179,N,11723.756063,W,67.5,317.0,210210,,,A*4A
$GPRMC,062307.1,A,3313.651726,N,11723.802323,W,68.6,317.6,210210,,,A*4B
$GPRMC,062310.1,A,3313.694380,N,11723.849437,W,68.8,317.0,210210,,,A*49
$GPRMC,062313.1,A,3313.733854,N,11723.895229,W,68.3,316.8,210210,,,A*4E
$GPRMC,062316.1,A,3313.776685,N,11723.940635,W,68.9,317.8,210210,,,A*43
$GPRMC,062319.1,A,3313.820260,N,11723.987418,W,70.6,317.4,210210,,,A*43
$GPRMC,062322.1,A,3313.862489,N,11724.036478,W,71.0,316.7,210210,,,A*4B
$GPRMC,062325.1,A,3313.905220,N,11724.083857,W,70.4,316.9,210210,,,A*4D
$GPRMC,062328.1,A,3313.949332,N,11724.129849,W,69.9,318.7,210210,,,A*41
$GPRMC,062331.1,A,3313.993719,N,11724.172923,W,67.8,321.6,210210,,,A*44
$GPRMC,062334.1,A,3314.037660,N,11724.213941,W,66.9,322.3,210210,,,A*48
$GPRMC,062337.1,A,3314.081306,N,11724.253701,W,66.6,322.4,210210,,,A*45
$GPRMC,062340.1,A,3314.127266,N,11724.294110,W,67.2,322.7,210210,,,A*44
$GPRMC,062343.1,A,3314.170980,N,11724.334360,W,67.0,322.7,210210,,,A*4A
$GPRMC,062346.1,A,3314.215183,N,11724.374830,W,67.2,322.3,210210,,,A*48
$GPRMC,062349.1,A,3314.256984,N,11724.419292,W,68.0,318.6,210210,,,A*40
$GPRMC,062352.1,A,3314.295979,N,11724.468094,W,68.1,311.9,210210,,,A*42
$GPRMC,062355.1,A,3314.327510,N,11724.521993,W,67.6,304.3,210210,,,A*4A
$GPRMC,062358.1,A,3314.352268,N,11724.581449,W,68.4,296.1,210210,,,A*48
$GPRMC,062401.1,A,3314.373726,N,11724.643489,W,66.4,291.7,210210,,,A*41
$GPRMC,062404.1,A,3314.393300,N,11724.704546,W,66.0,291.1,210210,,,A*48
$GPRMC,062407.1,A,3314.415869,N,11724.763564,W,65.7,296.7,210210,,,A*42
$GPRMC,062410.1,A,3314.442699,N,11724.818256,W,63.3,301.9,210210,,,A*41
$GPRMC,062413.1,A,3314.480008,N,11724.868423,W,66.4,311.5,210210,,,A*4E
$GPRMC,062416.1,A,3314.522377,N,11724.914694,W,68.0,320.3,210210,,,A*43
$GPRMC,062419.1,A,3314.571753,N,11724.954112,W,70.8,327.6,210210,,,A*46
$GPRMC,062422.1,A,3314.626350,N,11724.984820,W,71.2,335.4,210210,,,A*47
$GPRMC,062425.1,A,3314.682845,N,11725.010921,W,72.1,339.4,210210,,,A*48
$GPRMC,062428.1,A,3314.739189,N,11725.034955,W,71.3,339.5,210210,,,A*48
$GPRMC,062431.1,A,3314.795476,N,11725.061276,W,71.3,339.0,210210,,,A*4C
$GPRMC,062434.1,A,3314.850169,N,11725.087331,W,71.0,337.1,210210,,,A*42
$GPRMC,062437.1,A,3314.905236,N,11725.120800,W,72.2,329.5,210210,,,A*46
$GPRMC,062440.1,A,3314.954732,N,11725.160803,W,71.9,326.6,210210,,,A*40
$GPRMC,062443.1,A,3315.003854,N,11725.201605,W,72.0,326.2,210210,,,A*44
$GPRMC,062446.1,A,3315.053100,N,11725.241264,W,71.6,325.8,210210,,,A*47
$GPRMC,062449.1,A,3315.103607,N,11725.280597,W,72.4,326.5,210210,,,A*45
$GPRMC,062452.1,A,3315.154057,N,11725.321143,W,72.7,325.9,210210,,,A*45
$GPRMC,062455.1,A,3315.205411,N,11725.361736,W,72.2,326.1,210210,,,A*4D
$GPRMC,062458.1,A,3315.255821,N,11725.400026,W,72.5,326.3,210210,,,A*49
$GPRMC,062501.1,A,3315.307257,N,11725.439953,W,72.9,326.4,210210,,,A*43
$GPRMC,062504.1,A,3315.359159,N,11725.479505,W,74.1,326.5,210210,,,A*44
$GPRMC,062507.1,A,3315.409127,N,11725.520269,W,73.5,326.2,210210,,,A*48
$GPRMC,062510.1,A,3315.459183,N,11725.560477,W,73.1,327.1,210210,,,A*4E
$GPRMC,062513.1,A,3315.508864,N,11725.599240,W,71.8,327.3,210210,,,A*45
$GPRMC,062516.1,A,3315.558453,N,11725.638334,W,70.4,326.6,210210,,,A*4E
$GPRMC,062519.1,A,3315.607155,N,11725.676683,W,69.6,326.7,210210,,,A*43
$GPRMC,062522.1,A,3315.655944,N,11725.713623,W,69.2,327.0,210210,,,A*4E
$GPRMC,062525.1,A,3315.705391,N,11725.752870,W,70.1,326.2,210210,,,A*4A
$GPRMC,062528.1,A,3315.753981,N,11725.790881,W,70.1,326.4,210210,,,A*49
$GPRMC,062531.1,A,3315.801872,N,11725.829302,W,70.4,326.2,210210,,,A*4A
$GPRMC,062534.1,A,3315.851090,N,11725.869354,W,70.8,324.1,210210,,,A*44
$GPRMC,062537.1,A,3315.896407,N,11725.915369,W,72.1,318.6,210210,,,A*41
$GPRMC,062540.1,A,3315.937460,N,11725.966451,W,72.1,313.1,210210,,,A*4E
$GPRMC,062543.1,A,3315.978432,N,11726.020889,W,73.1,311.8,210210,,,A*4A
$GPRMC,062546.1,A,3316.019185,N,11726.075333,W,74.0,312.1,210210,,,A*4D
$GPRMC,062549.1,A,3316.059445,N,11726.130415,W,73.0,311.0,210210,,,A*49
$GPRMC,062552.1,A,3316.100300,N,11726.186193,W,73.9,311.0,210210,,,A*47
$GPRMC,062555.1,A,3316.139736,N,11726.240187,W,73.0,311.2,210210,,,A*4C
$GPRMC,062558.1,A,3316.179944,N,11726.293100,W,71.4,311.9,210210,,,A*42
$GPRMC,062601.1,A,3316.216820,N,11726.345756,W,69.7,311.6,210210,,,A*4E
$GPRMC,062604.1,A,3316.254486,N,11726.395524,W,67.8,311.1,210210,,,A*41
$GPRMC,062607.1,A,3316.290878,N,11726.444745,W,67.7,311.6,210210,,,A*41
$GPRMC,062610.1,A,3316.328426,N,11726.494803,W,66.1,311.7,210210,,,A*44
$GPRMC,062613.1,A,3316.366327,N,11726.541805,W,65.1,316.3,210210,,,A*44
$GPRMC,062616.1,A,3316.408771,N,11726.582232,W,64.4,323.5,210210,,,A*4C
$GPRMC,062619.1,A,3316.455877,N,11726.618007,W,67.0,327.0,210210,,,A*40
$GPRMC,062622.1,A,3316.502688,N,11726.655113,W,68.5,327.4,210210,,,A*46
$GPRMC,062625.1,A,3316.552172,N,11726.692356,W,70.2,327.4,210210,,,A*40
$GPRMC,062628.1,A,3316.602802,N,11726.729695,W,70.9,328.0,210210,,,A*4E
$GPRMC,062631.1,A,3316.653191,N,11726.767636,W,71.0,327.6,210210,,,A*43
$GPRMC,062634.1,A,3316.703655,N,11726.804420,W,70.4,327.9,210210,,,A*48
$GPRMC,062637.1,A,3316.753446,N,11726.842144,W,70.7,327.5,210210,,,A*44
$GPRMC,062640.1,A,3316.801693,N,11726.879820,W,71.8,327.2,210210,,,A*4C
$GPRMC,062643.1,A,3316.852321,N,11726.918858,W,72.0,327.5,210210,,,A*40
$GPRMC,062646.1,A,3316.903356,N,11726.956922,W,71.3,327.5,210210,,,A*46
$GPRMC,062649.1,A,3316.952661,N,11726.994169,W,68.9,328.0,210210,,,A*4D
$GPRMC,062652.1,A,3316.999737,N,11727.029013,W,66.5,328.3,210210,,,A*41
$GPRMC,062655.1,A,3317.045615,N,11727.065041,W,67.0,327.8,210210,,,A*41
$GPRMC,062658.1,A,3317.093182,N,11727.101554,W,67.8,327.6,210210,,,A*4A
$GPRMC,062701.1,A,3317.143499,N,11727.138406,W,70.5,328.0,210210,,,A*4A
$GPRMC,062704.1,A,3317.193784,N,11727.177009,W,71.3,327.0,210210,,,A*45
$GPRMC,062707.1,A,3317.243618,N,11727.215150,W,71.5,327.0,210210,,,A*40
$GPRMC,062710.1,A,3317.294094,N,11727.254102,W,72.1,327.1,210210,,,A*4A
$GPRMC,062713.1,A,3317.346281,N,11727.293572,W,73.5,327.3,210210,,,A*4E
$GPRMC,062716.1,A,3317.399296,N,11727.332411,W,74.1,327.7,210210,,,A*46
$GPRMC,062719.1,A,3317.452726,N,11727.370804,W,73.8,328.1,210210,,,A*4E
$GPRMC,062722.1,A,3317.504043,N,11727.409698,W,72.8,327.1,210210,,,A*4C
$GPRMC,062725.1,A,3317.555598,N,11727.447397,W,71.8,327.6,210210,,,A*48
$GPRMC,062728.1,A,3317.605327,N,11727.483848,W,70.4,327.5,210210,,,A*4E
$GPRMC,062731.1,A,3317.646989,N,11727.523144,W,68.5,323.8,210210,,,A*40
$GPRMC,062734.1,A,3317.689524,N,11727.566676,W,66.3,317.4,210210,,,A*49
$GPRMC,062737.1,A,3317.727493,N,11727.613126,W,66.2,314.5,210210,,,A*42
$GPRMC,062740.1,A,3317.768230,N,11727.662191,W,69.1,314.6,210210,,,A*43
$GPRMC,062743.1,A,3317.809152,N,11727.711804,W,69.0,314.7,210210,,,A*4F
$GPRMC,062746.1,A,3317.848417,N,11727.759108,W,66.9,314.6,210210,,,A*45
$GPRMC,062749.1,A,3317.887329,N,11727.804833,W,65.8,314.8,210210,,,A*49
$GPRMC,062752.1,A,3317.924090,N,11727.850421,W,63.6,314.8,210210,,,A*4C
$GPRMC,062755.1,A,3317.961698,N,11727.895546,W,63.8,314.7,210210,,,A*4C
$GPRMC,062758.1,A,3318.000017,N,11727.940310,W,63.4,314.3,210210,,,A*45
$GPRMC,062801.1,A,3318.038171,N,11727.987111,W,65.5,314.3,210210,,,A*43
$GPRMC,062804.1,A,3318.076127,N,11728.034598,W,65.8,313.3,210210,,,A*4E
$GPRMC,062807.1,A,3318.116568,N,11728.083075,W,67.0,313.3,210210,,,A*45
$GPRMC,062810.1,A,3318.154523,N,11728.131153,W,67.3,313.6,210210,,,A*41
$GPRMC,062813.1,A,3318.194155,N,11728.180053,W,67.7,314.2,210210,,,A*47
$GPRMC,062816.1,A,3318.234118,N,11728.228597,W,68.1,314.4,210210,,,A*41
$GPRMC,062819.1,A,3318.274233,N,11728.277982,W,68.4,314.7,210210,,,A*44
$GPRMC,062822.1,A,3318.311444,N,11728.323961,W,65.2,314.9,210210,,,A*40
$GPRMC,062825.1,A,3318.347851,N,11728.367492,W,63.3,315.7,210210,,,A*45
$GPRMC,062828.1,A,3318.384495,N,11728.411588,W,62.7,314.3,210210,,,A*4F
$GPRMC,062831.1,A,3318.419295,N,11728.456257,W,61.5,313.4,210210,,,A*45
$GPRMC,062834.1,A,3318.453779,N,11728.500172,W,61.4,314.1,210210,,,A*4C
$GPRMC,062837.1,A,3318.491057,N,11728.544962,W,63.2,314.7,210210,,,A*41
$GPRMC,062840.1,A,3318.530250,N,11728.589977,W,63.9,315.4,210210,,,A*42
$GPRMC,062843.1,A,3318.566978,N,11728.634417,W,64.7,315.0,210210,,,A*40
$GPRMC,062846.1,A,3318.605193,N,11728.681089,W,64.6,314.0,210210,,,A*43
$GPRMC,062849.1,A,3318.645745,N,11728.726971,W,65.7,314.5,210210,,,A*42
$GPRMC,062852.1,A,3318.683458,N,11728.772356,W,64.5,314.8,210210,,,A*4D
$GPRMC,062855.1,A,3318.721477,N,11728.816178,W,64.8,319.6,210210,,,A*43
$GPRMC,062858.1,A,3318.767236,N,11728.854348,W,65.7,326.7,210210,,,A*4B
$GPRMC,062901.1,A,3318.816955,N,11728.885079,W,66.3,334.6,210210,,,A*49
$GPRMC,062904.1,A,3318.869308,N,11728.906387,W,65.9,342.6,210210,,,A*46
$GPRMC,062907.1,A,3318.922608,N,11728.918321,W,65.0,350.7,210210,,,A*46
$GPRMC,062910.1,A,3318.975776,N,11728.923004,W,65.2,355.2,210210,,,A*44
$GPRMC,062913.1,A,3319.030888,N,11728.929531,W,65.4,355.3,210210,,,A*4E
$GPRMC,062916.1,A,3319.086776,N,11728.933305,W,66.2,355.6,210210,,,A*42
$GPRMC,062919.1,A,3319.142766,N,11728.937529,W,65.3,355.2,210210,,,A*4F
$GPRMC,062922.1,A,3319.195631,N,11728.946999,W,64.8,349.1,210210,,,A*4B
$GPRMC,062925.1,A,3319.248147,N,11728.963985,W,64.7,343.1,210210,,,A*46
$GPRMC,062928.1,A,3319.296845,N,11728.987774,W,64.0,336.1,210210,,,A*4C
$GPRMC,062931.1,A,3319.343782,N,11729.020370,W,65.3,328.2,210210,,,A*42
$GPRMC,062934.1,A,3319.387321,N,11729.060565,W,65.8,321.2,210210,,,A*46
$GPRMC,062937.1,A,3319.426351,N,11729.106316,W,66.4,313.9,210210,,,A*48
$GPRMC,062940.1,A,3319.461417,N,11729.156631,W,66.1,311.1,210210,,,A*44
$GPRMC,062943.1,A,3319.498034,N,11729.206738,W,65.5,311.0,210210,,,A*4C
$GPRMC,062946.1,A,3319.532410,N,11729.254898,W,64.1,311.2,210210,,,A*4F
$GPRMC,062949.1,A,3319.567963,N,11729.303223,W,64.4,311.6,210210,,,A*41
$GPRMC,062952.1,A,3319.603393,N,11729.351923,W,64.2,311.6,210210,,,A*45
$GPRMC,062955.1,A,3319.638326,N,11729.398451,W,63.0,311.5,210210,,,A*4F
$GPRMC,062958.1,A,3319.673575,N,11729.446427,W,62.9,311.4,210210,,,A*41
$GPRMC,063001.1,A,3319.706939,N,11729.493098,W,61.4,311.4,210210,,,A*44
$GPRMC,063004.1,A,3319.739082,N,11729.536722,W,59.8,311.1,210210,,,A*4E
$GPRMC,063007.1,A,3319.769309,N,11729.579679,W,58.0,311.1,210210,,,A*45
$GPRMC,063010.1,A,3319.801831,N,11729.622920,W,58.4,310.9,210210,,,A*41
$GPRMC,063013.1,A,3319.832983,N,11729.667396,W,60.1,310.9,210210,,,A*42
$GPRMC,063016.1,A,3319.866033,N,11729.712620,W,60.9,310.5,210210,,,A*4B
$GPRMC,063019.1,A,3319.900694,N,11729.759252,W,62.8,311.1,210210,,,A*46
$GPRMC,063022.1,A,3319.935535,N,11729.806437,W,62.3,311.0,210210,,,A*4A
$GPRMC,063025.1,A,3319.968263,N,11729.853293,W,63.0,311.1,210210,,,A*4A
$GPRMC,063028.1,A,3320.001871,N,11729.900647,W,62.8,310.8,210210,,,A*49
$GPRMC,063031.1,A,3320.037430,N,11729.947557,W,63.1,311.0,210210,,,A*4D
$GPRMC,063034.1,A,3320.071421,N,11729.995332,W,64.5,310.9,210210,,,A*4B
$GPRMC,063037.1,A,3320.107905,N,11730.044090,W,65.7,311.2,210210,,,A*4C
$GPRMC,063040.1,A,3320.144400,N,11730.093868,W,66.9,311.1,210210,,,A*48
$GPRMC,063043.1,A,3320.181447,N,11730.145083,W,68.1,310.7,210210,,,A*47
$GPRMC,063046.1,A,3320.219584,N,11730.197135,W,69.5,311.0,210210,,,A*4E
$GPRMC,063049.1,A,3320.257725,N,11730.249980,W,69.9,310.6,210210,,,A*4F
$GPRMC,063052.1,A,3320.295399,N,11730.302153,W,69.5,311.2,210210,,,A*49
$GPRMC,063055.1,A,3320.332226,N,11730.353882,W,68.7,311.2,210210,,,A*45
$GPRMC,063058.1,A,3320.371733,N,11730.405258,W,68.6,311.2,210210,,,A*46
$GPRMC,063101.1,A,3320.408584,N,11730.456128,W,69.2,310.9,210210,,,A*41
$GPRMC,063104.1,A,3320.446604,N,11730.507435,W,68.4,311.4,210210,,,A*42
$GPRMC,063107.1,A,3320.483426,N,11730.559250,W,68.4,311.2,210210,,,A*42
$GPRMC,063110.1,A,3320.520209,N,11730.610412,W,67.5,310.6,210210,,,A*42
$GPRMC,063113.1,A,3320.557311,N,11730.661622,W,67.7,310.4,210210,,,A*4E
$GPRMC,063116.1,A,3320.592052,N,11730.712017,W,66.2,310.5,210210,,,A*46
$GPRMC,063119.1,A,3320.627868,N,11730.760745,W,64.6,311.0,210210,,,A*42
$GPRMC,063122.1,A,3320.662142,N,11730.808173,W,63.2,311.1,210210,,,A*4A
$GPRMC,063125.1,A,3320.695410,N,11730.854699,W,61.5,311.3,210210,,,A*4A
$GPRMC,063128.1,A,3320.728769,N,11730.900123,W,61.2,311.1,210210,,,A*4E
$GPRMC,063131.1,A,3320.761780,N,11730.945961,W,61.2,311.1,210210,,,A*43
$GPRMC,063134.1,A,3320.794788,N,11730.992438,W,61.5,310.9,210210,,,A*41
$GPRMC,063137.1,A,3320.828428,N,11731.038470,W,60.9,311.0,210210,,,A*42
$GPRMC,063140.1,A,3320.862184,N,11731.084395,W,60.9,310.8,210210,,,A*4D
$GPRMC,063143.1,A,3320.894714,N,11731.130918,W,60.9,310.1,210210,,,A*40
$GPRMC,063146.1,A,3320.927066,N,11731.177793,W,61.1,309.6,210210,,,A*46
$GPRMC,063149.1,A,3320.960087,N,11731.225197,W,61.7,309.6,210210,,,A*45
$GPRMC,063152.1,A,3320.992780,N,11731.271614,W,61.4,309.8,210210,,,A*42
$GPRMC,063155.1,A,3321.024676,N,11731.319345,W,61.0,308.7,210210,,,A*4C
$GPRMC,063158.1,A,3321.056474,N,11731.366777,W,61.3,309.2,210210,,,A*4E
$GPRMC,063201.1,A,3321.089910,N,11731.413536,W,61.9,309.4,210210,,,A*42
$GPRMC,063204.1,A,3321.121656,N,11731.461480,W,61.9,309.0,210210,,,A*44
$GPRMC,063207.1,A,3321.154833,N,11731.509109,W,62.5,309.8,210210,,,A*44
$GPRMC,063210.1,A,3321.188512,N,11731.557135,W,62.7,310.2,210210,,,A*49
$GPRMC,063213.1,A,3321.222001,N,11731.606274,W,62.9,308.9,210210,,,A*43
$GPRMC,063216.1,A,3321.255599,N,11731.655252,W,62.9,309.2,210210,,,A*4A
$GPRMC,063219.1,A,3321.288960,N,11731.704099,W,63.2,308.8,210210,,,A*4E
$GPRMC,063222.1,A,3321.322448,N,11731.753868,W,63.7,308.3,210210,,,A*4A
$GPRMC,063225.1,A,3321.355227,N,11731.803751,W,64.7,308.5,210210,,,A*4C
$GPRMC,063228.1,A,3321.388965,N,11731.855251,W,66.2,308.8,210210,,,A*40
$GPRMC,063231.1,A,3321.423654,N,11731.906754,W,65.9,308.7,210210,,,A*43
$GPRMC,063234.1,A,3321.458308,N,11731.956684,W,65.0,308.9,210210,,,A*48
$GPRMC,063237.1,A,3321.493614,N,11732.006947,W,65.8,309.7,210210,,,A*4C
$GPRMC,063240.1,A,3321.528747,N,11732.057573,W,68.2,310.1,210210,,,A*4C
$GPRMC,063243.1,A,3321.566931,N,11732.112001,W,70.4,309.9,210210,,,A*45
$GPRMC,063246.1,A,3321.605143,N,11732.167873,W,72.4,309.3,210210,,,A*4C
$GPRMC,063249.1,A,3321.644211,N,11732.223312,W,73.1,309.5,210210,,,A*4F
$GPRMC,063252.1,A,3321.682659,N,11732.277902,W,72.1,309.5,210210,,,A*4C
$GPRMC,063255.1,A,3321.720505,N,11732.332787,W,70.8,309.5,210210,,,A*40
$GPRMC,063258.1,A,3321.757811,N,11732.387203,W,69.1,309.5,210210,,,A*43
$GPRMC,063301.1,A,3321.793578,N,11732.440071,W,68.4,309.5,210210,,,A*4B
$GPRMC,063304.1,A,3321.830499,N,11732.494410,W,69.4,309.5,210210,,,A*4D
$GPRMC,063307.1,A,3321.866511,N,11732.548406,W,69.6,309.2,210210,,,A*4E
$GPRMC,063310.1,A,3321.903007,N,11732.602859,W,69.8,309.3,210210,,,A*4C
$GPRMC,063313.1,A,3321.940408,N,11732.656660,W,70.2,309.5,210210,,,A*42
$GPRMC,063316.1,A,3321.976584,N,11732.710802,W,69.6,309.3,210210,,,A*44
$GPRMC,063319.1,A,3322.012936,N,11732.764271,W,69.3,309.1,210210,,,A*4C
$GPRMC,063322.1,A,3322.048041,N,11732.816751,W,68.9,308.3,210210,,,A*47
$GPRMC,063325.1,A,3322.081672,N,11732.871046,W,68.5,304.9,210210,,,A*49
$GPRMC,063328.1,A,3322.112820,N,11732.927601,W,68.1,303.4,210210,,,A*4F
$GPRMC,063331.1,A,3322.144558,N,11732.984333,W,68.4,303.5,210210,,,A*4F
$GPRMC,063334.1,A,3322.175096,N,11733.041514,W,68.3,302.7,210210,,,A*49
$GPRMC,063337.1,A,3322.205474,N,11733.097226,W,67.9,302.8,210210,,,A*41
$GPRMC,063340.1,A,3322.237735,N,11733.155194,W,68.5,302.4,210210,,,A*4C
$GPRMC,063343.1,A,3322.270116,N,11733.212873,W,69.3,302.6,210210,,,A*4E
$GPRMC,063346.1,A,3322.300862,N,11733.269422,W,68.8,303.0,210210,,,A*4E
$GPRMC,063349.1,A,3322.331671,N,11733.326196,W,68.9,302.7,210210,,,A*48
$GPRMC,063352.1,A,3322.363909,N,11733.385484,W,70.6,302.6,210210,,,A*4D
$GPRMC,063355.1,A,3322.395152,N,11733.444859,W,71.3,303.0,210210,,,A*40
$GPRMC,063358.1,A,3322.427638,N,11733.505294,W,72.1,303.2,210210,,,A*44
$GPRMC,063401.1,A,3322.460889,N,11733.565800,W,70.3,302.9,210210,,,A*43
$GPRMC,063404.1,A,3322.493550,N,11733.624590,W,69.7,303.9,210210,,,A*4C
$GPRMC,063407.1,A,3322.526915,N,11733.680164,W,68.0,307.3,210210,,,A*44
$GPRMC,063410.1,A,3322.565485,N,11733.731466,W,68.0,313.6,210210,,,A*4D
$GPRMC,063413.1,A,3322.606849,N,11733.779415,W,68.1,316.2,210210,,,A*4C
$GPRMC,063416.1,A,3322.650446,N,11733.827290,W,68.8,316.3,210210,,,A*4E
$GPRMC,063419.1,A,3322.690597,N,11733.876431,W,69.2,312.2,210210,,,A*47
$GPRMC,063422.1,A,3322.725800,N,11733.931836,W,70.1,305.6,210210,,,A*43
$GPRMC,063425.1,A,3322.755178,N,11733.991942,W,71.4,299.0,210210,,,A*4B
$GPRMC,063428.1,A,3322.780853,N,11734.055489,W,73.1,295.5,210210,,,A*4C
$GPRMC,063431.1,A,3322.804654,N,11734.120853,W,73.1,294.7,210210,,,A*45
$GPRMC,063434.1,A,3322.829992,N,11734.185957,W,72.6,294.8,210210,,,A*49
$GPRMC,063437.1,A,3322.854133,N,11734.252014,W,72.3,294.0,210210,,,A*49
$GPRMC,063440.1,A,3322.878016,N,11734.316618,W,70.4,294.7,210210,,,A*48
$GPRMC,063443.1,A,3322.901891,N,11734.378613,W,68.3,295.0,210210,,,A*48
$GPRMC,063446.1,A,3322.925475,N,11734.440160,W,68.6,294.3,210210,,,A*45
$GPRMC,063449.1,A,3322.949134,N,11734.503089,W,70.3,293.9,210210,,,A*41
$GPRMC,063452.1,A,3322.974385,N,11734.566779,W,71.1,294.8,210210,,,A*43
$GPRMC,063455.1,A,3322.998276,N,11734.631062,W,70.6,294.3,210210,,,A*4A
$GPRMC,063458.1,A,3323.022581,N,11734.695646,W,70.9,294.7,210210,,,A*44
$GPRMC,063501.1,A,3323.047172,N,11734.759929,W,71.8,294.6,210210,,,A*44
$GPRMC,063504.1,A,3323.072925,N,11734.824806,W,71.3,295.1,210210,,,A*49
$GPRMC,063507.1,A,3323.097605,N,11734.888758,W,70.4,295.1,210210,,,A*48
$GPRMC,063510.1,A,3323.122405,N,11734.952319,W,70.5,295.0,210210,,,A*44
$GPRMC,063513.1,A,3323.147830,N,11735.015326,W,70.5,296.0,210210,,,A*4A
$GPRMC,063516.1,A,3323.177262,N,11735.075758,W,70.0,301.0,210210,,,A*40
$GPRMC,063519.1,A,3323.210792,N,11735.134268,W,70.4,305.8,210210,,,A*4D
$GPRMC,063522.1,A,3323.248222,N,11735.188601,W,69.7,310.6,210210,,,A*4B
$GPRMC,063525.1,A,3323.289601,N,11735.237121,W,68.8,317.0,210210,,,A*49
$GPRMC,063528.1,A,3323.332263,N,11735.279521,W,65.6,320.9,210210,,,A*45
$GPRMC,063531.1,A,3323.375989,N,11735.316929,W,65.0,325.4,210210,,,A*43
$GPRMC,063534.1,A,3323.422145,N,11735.353213,W,66.6,327.3,210210,,,A*48
$GPRMC,063537.1,A,3323.470398,N,11735.388937,W,66.7,327.6,210210,,,A*41
$GPRMC,063540.1,A,3323.516626,N,11735.425260,W,66.1,326.8,210210,,,A*40
$GPRMC,063543.1,A,3323.562578,N,11735.462017,W,65.8,326.9,210210,,,A*42
$GPRMC,063546.1,A,3323.608347,N,11735.497790,W,65.4,326.8,210210,,,A*4D
$GPRMC,063549.1,A,3323.654425,N,11735.531840,W,64.0,327.9,210210,,,A*42
$GPRMC,063552.1,A,3323.700486,N,11735.564241,W,64.6,329.3,210210,,,A*48
$GPRMC,063555.1,A,3323.747642,N,11735.596454,W,65.3,330.8,210210,,,A*4E
$GPRMC,063558.1,A,3323.794907,N,11735.624800,W,63.8,333.1,210210,,,A*43
$GPRMC,063601.1,A,3323.842712,N,11735.654014,W,63.5,334.4,210210,,,A*47
$GPRMC,063604.1,A,3323.892490,N,11735.677987,W,64.8,336.5,210210,,,A*4D
$GPRMC,063607.1,A,3323.946092,N,11735.703555,W,67.4,337.5,210210,,,A*4F
$GPRMC,063610.1,A,3323.998218,N,11735.731637,W,67.1,336.8,210210,,,A*45
$GPRMC,063613.1,A,3324.048053,N,11735.757706,W,64.0,337.0,210210,,,A*40
$GPRMC,063616.1,A,3324.097829,N,11735.782367,W,64.4,337.5,210210,,,A*48
$GPRMC,063619.1,A,3324.149618,N,11735.806056,W,65.5,338.0,210210,,,A*41
$GPRMC,063622.1,A,3324.201209,N,11735.830553,W,65.9,337.0,210210,,,A*44
$GPRMC,063625.1,A,3324.252140,N,11735.855493,W,66.1,336.9,210210,,,A*46
$GPRMC,063628.1,A,3324.303484,N,11735.882226,W,66.7,336.7,210210,,,A*49
$GPRMC,063631.1,A,3324.355436,N,11735.908566,W,67.2,337.1,210210,,,A*48
$GPRMC,063634.1,A,3324.406950,N,11735.933645,W,67.5,337.1,210210,,,A*4C
$GPRMC,063637.1,A,3324.459129,N,11735.959688,W,67.5,337.4,210210,,,A*4B
$GPRMC,063640.1,A,3324.511544,N,11735.985449,W,67.4,337.0,210210,,,A*42
$GPRMC,063643.1,A,3324.562562,N,11736.010817,W,66.5,336.9,210210,,,A*48
$GPRMC,063646.1,A,3324.612934,N,11736.036214,W,67.0,337.3,210210,,,A*44
$GPRMC,063649.1,A,3324.663024,N,11736.062190,W,65.6,337.1,210210,,,A*4D
$GPRMC,063652.1,A,3324.712988,N,11736.086565,W,64.9,337.6,210210,,,A*42
$GPRMC,063655.1,A,3324.761311,N,11736.109557,W,62.0,337.4,210210,,,A*41
$GPRMC,063658.1,A,3324.807867,N,11736.132206,W,59.6,337.5,210210,,,A*4D
$GPRMC,063701.1,A,3324.854245,N,11736.155017,W,59.1,336.2,210210,,,A*4E
$GPRMC,063704.1,A,3324.898131,N,11736.178927,W,58.6,336.1,210210,,,A*4B
$GPRMC,063707.1,A,3324.945030,N,11736.203209,W,59.1,335.7,210210,,,A*42
$GPRMC,063710.1,A,3324.990076,N,11736.227408,W,59.4,336.0,210210,,,A*4E
$GPRMC,063713.1,A,3325.036203,N,11736.251864,W,59.9,337.1,210210,,,A*43
$GPRMC,063716.1,A,3325.080339,N,11736.274327,W,59.1,336.5,210210,,,A*45
$GPRMC,063719.1,A,3325.122295,N,11736.298130,W,58.4,333.0,210210,,,A*46
$GPRMC,063722.1,A,3325.162915,N,11736.330330,W,58.8,326.0,210210,,,A*40
$GPRMC,063725.1,A,3325.202433,N,11736.364184,W,59.4,324.1,210210,,,A*49
$GPRMC,063728.1,A,3325.243246,N,11736.398968,W,61.0,324.8,210210,,,A*4A
$GPRMC,063731.1,A,3325.286406,N,11736.430862,W,61.3,329.1,210210,,,A*40
$GPRMC,063734.1,A,3325.332261,N,11736.457956,W,60.1,333.5,210210,,,A*47
$GPRMC,063737.1,A,3325.386478,N,11736.482990,W,65.1,337.7,210210,,,A*44
$GPRMC,063740.1,A,3325.435668,N,11736.506937,W,65.1,337.1,210210,,,A*4E
$GPRMC,063743.1,A,3325.486121,N,11736.535924,W,66.9,333.4,210210,,,A*47
$GPRMC,063746.1,A,3325.534194,N,11736.567549,W,67.3,330.4,210210,,,A*4C
$GPRMC,063749.1,A,3325.585249,N,11736.599508,W,66.0,330.8,210210,,,A*40
$GPRMC,063752.1,A,3325.632097,N,11736.632161,W,65.0,330.1,210210,,,A*47
$GPRMC,063755.1,A,3325.678213,N,11736.664762,W,64.5,328.3,210210,,,A*49
$GPRMC,063758.1,A,3325.722884,N,11736.701722,W,65.3,325.2,210210,,,A*43
$GPRMC,063801.1,A,3325.764947,N,11736.742881,W,65.9,320.9,210210,,,A*49
$GPRMC,063804.1,A,3325.804751,N,11736.786318,W,64.9,316.9,210210,,,A*4B
$GPRMC,063807.1,A,3325.840627,N,11736.830639,W,62.6,314.5,210210,,,A*4B
$GPRMC,063810.1,A,3325.876887,N,11736.874638,W,61.9,316.1,210210,,,A*47
$GPRMC,063813.1,A,3325.917717,N,11736.914804,W,63.5,321.9,210210,,,A*40
$GPRMC,063816.1,A,3325.962973,N,11736.950239,W,63.4,327.7,210210,,,A*46
$GPRMC,063819.1,A,3326.009224,N,11736.983533,W,64.0,330.2,210210,,,A*44
$GPRMC,063822.1,A,3326.056238,N,11737.014160,W,64.0,330.7,210210,,,A*4A
$GPRMC,063825.1,A,3326.103696,N,11737.045773,W,64.0,330.4,210210,,,A*4F
$GPRMC,063828.1,A,3326.148314,N,11737.079604,W,63.5,327.8,210210,,,A*44
$GPRMC,063831.1,A,3326.190006,N,11737.117951,W,63.0,321.7,210210,,,A*43
$GPRMC,063834.1,A,3326.231193,N,11737.158626,W,63.8,316.3,210210,,,A*4F
$GPRMC,063837.1,A,3326.267629,N,11737.207981,W,64.7,310.3,210210,,,A*4C
$GPRMC,063840.1,A,3326.298271,N,11737.258649,W,62.8,305.0,210210,,,A*4A
$GPRMC,063843.1,A,3326.326458,N,11737.310274,W,62.8,303.2,210210,,,A*43
$GPRMC,063846.1,A,3326.354589,N,11737.361905,W,63.2,303.3,210210,,,A*4F
$GPRMC,063849.1,A,3326.381256,N,11737.414170,W,63.1,303.0,210210,,,A*42
$GPRMC,063852.1,A,3326.409262,N,11737.467712,W,64.5,302.8,210210,,,A*44
$GPRMC,063855.1,A,3326.438452,N,11737.523039,W,65.5,303.8,210210,,,A*4B
$GPRMC,063858.1,A,3326.471796,N,11737.575903,W,66.6,307.6,210210,,,A*49
$GPRMC,063901.1,A,3326.509546,N,11737.625905,W,66.2,313.2,210210,,,A*40
$GPRMC,063904.1,A,3326.548806,N,11737.673296,W,66.6,314.5,210210,,,A*4F
$GPRMC,063907.1,A,3326.587891,N,11737.720664,W,67.1,314.7,210210,,,A*4B
$GPRMC,063910.1,A,3326.628500,N,11737.769148,W,66.7,314.4,210210,,,A*4E
$GPRMC,063913.1,A,3326.671068,N,11737.816055,W,67.6,315.4,210210,,,A*41
$GPRMC,063916.1,A,3326.711740,N,11737.863978,W,68.4,313.7,210210,,,A*42
$GPRMC,063919.1,A,3326.750803,N,11737.918457,W,71.4,309.6,210210,,,A*4F
$GPRMC,063922.1,A,3326.784823,N,11737.975596,W,71.5,303.5,210210,,,A*43
$GPRMC,063925.1,A,3326.815963,N,11738.036172,W,72.2,301.4,210210,,,A*4E
$GPRMC,063928.1,A,3326.846058,N,11738.097820,W,72.4,301.0,210210,,,A*43
$GPRMC,063931.1,A,3326.877207,N,11738.160294,W,72.9,301.4,210210,,,A*44
$GPRMC,063934.1,A,3326.910073,N,11738.222941,W,72.9,301.6,210210,,,A*44
$GPRMC,063937.1,A,3326.944291,N,11738.278941,W,69.9,307.6,210210,,,A*4B
$GPRMC,063940.1,A,3326.980758,N,11738.333519,W,70.6,309.1,210210,,,A*42
$GPRMC,063943.1,A,3327.019028,N,11738.387556,W,70.8,309.7,210210,,,A*45
$GPRMC,063946.1,A,3327.057906,N,11738.442443,W,72.6,310.0,210210,,,A*47
$GPRMC,063949.1,A,3327.096815,N,11738.499689,W,73.7,308.6,210210,,,A*4B
$GPRMC,063952.1,A,3327.134613,N,11738.558156,W,75.7,306.7,210210,,,A*40
$GPRMC,063955.1,A,3327.170801,N,11738.618910,W,75.7,303.0,210210,,,A*45
$GPRMC,063958.1,A,3327.203861,N,11738.681882,W,75.2,300.8,210210,,,A*4D
$GPRMC,064001.1,A,3327.233125,N,11738.746550,W,73.6,297.4,210210,,,A*4C
$GPRMC,064004.1,A,3327.261901,N,11738.811395,W,73.2,297.4,210210,,,A*46
$GPRMC,064007.1,A,3327.288854,N,11738.875707,W,71.4,297.1,210210,,,A*4F
$GPRMC,064010.1,A,3327.315843,N,11738.938593,W,71.3,296.9,210210,,,A*43
$GPRMC,064013.1,A,3327.342841,N,11739.000995,W,70.0,297.3,210210,,,A*40
$GPRMC,064016.1,A,3327.370326,N,11739.063621,W,71.0,297.9,210210,,,A*40
$GPRMC,064019.1,A,3327.399440,N,11739.125803,W,71.1,300.1,210210,,,A*44
$GPRMC,064022.1,A,3327.430966,N,11739.185483,W,71.0,302.8,210210,,,A*45
$GPRMC,064025.1,A,3327.464155,N,11739.243198,W,71.1,304.5,210210,,,A*47
$GPRMC,064028.1,A,3327.499298,N,11739.302644,W,71.6,305.1,210210,,,A*4A
$GPRMC,064031.1,A,3327.531519,N,11739.359864,W,70.5,303.9,210210,,,A*41
$GPRMC,064034.1,A,3327.565177,N,11739.416695,W,69.8,303.3,210210,,,A*4A
$GPRMC,064037.1,A,3327.595069,N,11739.477311,W,70.3,299.3,210210,,,A*47
$GPRMC,064040.1,A,3327.622561,N,11739.539433,W,71.2,297.4,210210,,,A*40
$GPRMC,064043.1,A,3327.649481,N,11739.601196,W,70.9,297.7,210210,,,A*4A
$GPRMC,064046.1,A,3327.680125,N,11739.661115,W,68.9,304.1,210210,,,A*48
$GPRMC,064049.1,A,3327.715897,N,11739.715608,W,68.9,308.4,210210,,,A*4A
$GPRMC,064052.1,A,3327.753602,N,11739.770572,W,69.8,308.4,210210,,,A*4D
$GPRMC,064055.1,A,3327.791015,N,11739.825128,W,70.5,308.4,210210,,,A*45
$GPRMC,064058.1,A,3327.827772,N,11739.879668,W,70.7,309.5,210210,,,A*44
$GPRMC,064101.1,A,3327.866029,N,11739.933065,W,69.5,309.1,210210,,,A*4F
$GPRMC,064104.1,A,3327.901659,N,11739.987479,W,69.9,308.9,210210,,,A*48
$GPRMC,064107.1,A,3327.938903,N,11740.041347,W,70.2,309.4,210210,,,A*49
$GPRMC,064110.1,A,3327.977148,N,11740.096083,W,71.1,308.6,210210,,,A*43
$GPRMC,064113.1,A,3328.011001,N,11740.152805,W,70.6,303.7,210210,,,A*49
$GPRMC,064116.1,A,3328.038760,N,11740.213786,W,69.9,298.4,210210,,,A*42
$GPRMC,064119.1,A,3328.065252,N,11740.274439,W,69.4,298.7,210210,,,A*49
$GPRMC,064122.1,A,3328.097113,N,11740.332184,W,68.3,305.4,210210,,,A*4A
$GPRMC,064125.1,A,3328.135935,N,11740.381565,W,66.5,314.8,210210,,,A*4F
$GPRMC,064128.1,A,3328.181217,N,11740.422534,W,66.3,324.4,210210,,,A*45
$GPRMC,064131.1,A,3328.230430,N,11740.452444,W,65.5,335.1,210210,,,A*46
$GPRMC,064134.1,A,3328.282898,N,11740.471167,W,64.1,345.1,210210,,,A*43
$GPRMC,064137.1,A,3328.334981,N,11740.479039,W,61.0,353.3,210210,,,A*46
$GPRMC,064140.1,A,3328.383422,N,11740.480155,W,54.5,358.6,210210,,,A*4E
$GPRMC,064143.1,A,3328.424975,N,11740.479365,W,48.9,360.0,210210,,,A*43
$GPRMC,064146.1,A,3328.454053,N,11740.474000,W,36.1,5.2,210210,,,A*42
$GPRMC,064149.1,A,3328.479985,N,11740.469337,W,31.2,9.2,210210,,,A*43
$GPRMC,064152.1,A,3328.503397,N,11740.464840,W,27.7,10.7,210210,,,A*75
$GPRMC,064155.1,A,3328.520235,N,11740.459446,W,20.2,14.7,210210,,,A*78
$GPRMC,064158.1,A,3328.531148,N,11740.454423,W,15.2,17.8,210210,,,A*78
$GPRMC,064201.1,A,3328.540419,N,11740.449944,W,11.9,20.1,210210,,,A*72
$GPRMC,064204.1,A,3328.546817,N,11740.447614,W,8.2,16.1,210210,,,A*41
$GPRMC,064207.1,A,3328.553332,N,11740.444982,W,6.4,20.2,210210,,,A*47
$GPRMC,064210.1,A,3328.557532,N,11740.441273,W,6.6,20.4,210210,,,A*47
$GPRMC,064213.1,A,3328.561887,N,11740.439809,W,6.0,18.0,210210,,,A*43
$GPRMC,064258.1,A,3328.588396,N,11740.430727,W,5.6,24.1,210210,,,A*41
$GPRMC,064301.1,A,3328.594037,N,11740.427571,W,7.1,25.2,210210,,,A*49
$GPRMC,064304.1,A,3328.601427,N,11740.423886,W,9.0,26.2,210210,,,A*4B
$GPRMC,064307.1,A,3328.606782,N,11740.420157,W,8.4,26.7,210210,,,A*45
$GPRMC,064310.1,A,3328.614390,N,11740.416862,W,9.0,23.2,210210,,,A*48
$GPRMC,064313.1,A,3328.624873,N,11740.410637,W,12.4,27.8,210210,,,A*76
$GPRMC,064316.1,A,3328.636140,N,11740.403758,W,15.2,29.7,210210,,,A*73
$GPRMC,064319.1,A,3328.649990,N,11740.394540,W,18.9,31.6,210210,,,A*7D
$GPRMC,064322.1,A,3328.663640,N,11740.385360,W,17.8,30.7,210210,,,A*75
$GPRMC,064325.1,A,3328.675658,N,11740.376592,W,15.7,31.2,210210,,,A*72
$GPRMC,064328.1,A,3328.683843,N,11740.368314,W,13.7,34.0,210210,,,A*74
$GPRMC,064331.1,A,3328.692601,N,11740.361692,W,11.9,33.5,210210,,,A*78
$GPRMC,064334.1,A,3328.698426,N,11740.355746,W,9.1,35.4,210210,,,A*49
$GPRMC,064337.1,A,3328.705231,N,11740.349210,W,12.5,36.8,210210,,,A*75
$GPRMC,064340.1,A,3328.715573,N,11740.341379,W,14.5,35.8,210210,,,A*76
$GPRMC,064343.1,A,3328.724595,N,11740.333236,W,13.4,36.1,210210,,,A*7C
$GPRMC,064346.1,A,3328.732218,N,11740.326293,W,10.4,36.5,210210,,,A*70
$GPRMC,064349.1,A,3328.738867,N,11740.320098,W,10.8,35.7,210210,,,A*75
$GPRMC,064352.1,A,3328.746397,N,11740.313909,W,10.7,35.2,210210,,,A*79
$GPRMC,064355.1,A,3328.754428,N,11740.306672,W,12.6,36.4,210210,,,A*7F
$GPRMC,064358.1,A,3328.762979,N,11740.299534,W,13.2,36.2,210210,,,A*7B
$GPRMC,064401.1,A,3328.771766,N,11740.292845,W,11.0,35.7,210210,,,A*74
$GPRMC,064404.1,A,3328.778096,N,11740.286663,W,9.9,36.4,210210,,,A*4F
$GPRMC,064407.1,A,3328.785631,N,11740.280667,W,10.7,35.4,210210,,,A*72
$GPRMC,064410.1,A,3328.793637,N,11740.273291,W,12.2,36.7,210210,,,A*73
$GPRMC,064413.1,A,3328.801357,N,11740.266069,W,11.8,36.7,210210,,,A*7F
$GPRMC,064416.1,A,3328.810202,N,11740.258901,W,12.8,36.1,210210,,,A*74
$GPRMC,064419.1,A,3328.819970,N,11740.250464,W,14.2,36.5,210210,,,A*72
$GPRMC,064422.1,A,3328.829887,N,11740.243600,W,14.4,34.4,210210,,,A*77
$GPRMC,064425.1,A,3328.839445,N,11740.233154,W,14.9,38.2,210210,,,A*75
$GPRMC,064428.1,A,3328.849850,N,11740.223111,W,16.4,36.1,210210,,,A*75
$GPRMC,064431.1,A,3328.861900,N,11740.212726,W,18.0,35.9,210210,,,A*72
$GPRMC,064434.1,A,3328.874687,N,11740.201867,W,19.1,35.0,210210,,,A*72
$GPRMC,064437.1,A,3328.888336,N,11740.190344,W,18.3,36.3,210210,,,A*7F
$GPRMC,064440.1,A,3328.899804,N,11740.181046,W,17.3,35.0,210210,,,A*7B
$GPRMC,064443.1,A,3328.910240,N,11740.172204,W,14.3,33.7,210210,,,A*78
$GPRMC,064446.1,A,3328.920057,N,11740.164254,W,12.8,35.3,210210,,,A*77
$GPRMC,064449.1,A,3328.928148,N,11740.157718,W,11.5,35.2,210210,,,A*7D
$GPRMC,064452.1,A,3328.934702,N,11740.152720,W,8.2,33.9,210210,,,A*4E
$GPRMC,064455.1,A,3328.940578,N,11740.147345,W,9.1,39.2,210210,,,A*45
$GPRMC,064458.1,A,3328.947113,N,11740.141413,W,9.3,34.9,210210,,,A*40
$GPRMC,064501.1,A,3328.953193,N,11740.135969,W,9.0,38.1,210210,,,A*44
$GPRMC,064504.1,A,3328.958526,N,11740.131044,W,8.6,40.0,210210,,,A*4B
$GPRMC,064507.1,A,3328.966924,N,11740.123329,W,14.0,40.5,210210,,,A*7E
$GPRMC,064510.1,A,3328.977379,N,11740.113374,W,16.3,38.2,210210,,,A*78
$GPRMC,064513.1,A,3328.990122,N,11740.100716,W,21.8,39.2,210210,,,A*72
$GPRMC,064516.1,A,3329.008992,N,11740.085000,W,28.2,36.3,210210,,,A*7C
$GPRMC,064519.1,A,3329.031928,N,11740.065533,W,33.9,36.6,210210,,,A*77
$GPRMC,064522.1,A,3329.058161,N,11740.043004,W,41.2,36.4,210210,,,A*7C
$GPRMC,064525.1,A,3329.089016,N,11740.015892,W,47.5,35.3,210210,,,A*77
$GPRMC,064528.1,A,3329.123863,N,11739.987117,W,52.0,34.5,210210,,,A*7F
$GPRMC,064531.1,A,3329.161816,N,11739.956946,W,53.8,33.1,210210,,,A*79
$GPRMC,064534.1,A,3329.199958,N,11739.926631,W,53.8,33.2,210210,,,A*7B
$GPRMC,064537.1,A,3329.237893,N,11739.897932,W,53.2,33.2,210210,,,A*74
$GPRMC,064540.1,A,3329.276559,N,11739.868945,W,54.2,32.8,210210,,,A*76
$GPRMC,064545.1,A,3329.342549,N,11739.818231,W,57.7,32.8,210210,,,A*7D
$GPRMC,064548.1,A,3329.384475,N,11739.786866,W,58.6,32.5,210210,,,A*77
$GPRMC,064551.1,A,3329.427202,N,11739.754520,W,59.9,31.6,210210,,,A*79
$GPRMC,064554.1,A,3329.470281,N,11739.721225,W,60.7,32.0,210210,,,A*74
$GPRMC,064557.1,A,3329.513694,N,11739.688641,W,61.9,32.4,210210,,,A*7C
$GPRMC,064600.1,A,3329.558263,N,11739.654838,W,62.9,31.8,210210,,,A*73
$GPRMC,064603.1,A,3329.603585,N,11739.622910,W,63.3,29.3,210210,,,A*71
$GPRMC,064606.1,A,3329.651505,N,11739.593968,W,64.8,25.7,210210,,,A*79
$GPRMC,064609.1,A,3329.702963,N,11739.567308,W,66.6,22.5,210210,,,A*73
$GPRMC,064612.1,A,3329.755939,N,11739.543585,W,66.5,19.5,210210,,,A*7A
$GPRMC,064615.1,A,3329.808584,N,11739.524369,W,66.4,16.3,210210,,,A*7D
$GPRMC,064618.1,A,3329.861318,N,11739.510711,W,65.7,12.5,210210,,,A*72
$GPRMC,064621.1,A,3329.914680,N,11739.499125,W,64.5,9.3,210210,,,A*41
$GPRMC,064624.1,A,3329.971237,N,11739.491917,W,66.5,6.4,210210,,,A*44
$GPRMC,064627.1,A,3330.026599,N,11739.488856,W,66.7,2.5,210210,,,A*4C
$GPRMC,064630.1,A,3330.081377,N,11739.489433,W,64.8,359.4,210210,,,A*4E
$GPRMC,064633.1,A,3330.135719,N,11739.493648,W,65.7,355.0,210210,,,A*4C
$GPRMC,064636.1,A,3330.189210,N,11739.501243,W,64.6,351.9,210210,,,A*4A
$GPRMC,064639.1,A,3330.240522,N,11739.512359,W,63.3,349.2,210210,,,A*4D
$GPRMC,064642.1,A,3330.289293,N,11739.527068,W,61.0,346.0,210210,,,A*42
$GPRMC,064645.1,A,3330.335207,N,11739.544321,W,60.2,342.4,210210,,,A*46
$GPRMC,064648.1,A,3330.382211,N,11739.566073,W,60.8,340.6,210210,,,A*4E
$GPRMC,064651.1,A,3330.429581,N,11739.585891,W,60.4,340.3,210210,,,A*4E
$GPRMC,064654.1,A,3330.478467,N,11739.607859,W,62.4,340.0,210210,,,A*4A
$GPRMC,064657.1,A,3330.526610,N,11739.629655,W,63.0,340.4,210210,,,A*4E
$GPRMC,064700.1,A,3330.575816,N,11739.650732,W,63.2,340.4,210210,,,A*4F
$GPRMC,064703.1,A,3330.626309,N,11739.669328,W,61.9,341.8,210210,,,A*4D
$GPRMC,064706.1,A,3330.674159,N,11739.687979,W,60.1,341.3,210210,,,A*44
$GPRMC,064709.1,A,3330.720046,N,11739.707615,W,58.4,341.2,210210,,,A*47
$GPRMC,064712.1,A,3330.767432,N,11739.727318,W,59.5,341.0,210210,,,A*41
$GPRMC,064715.1,A,3330.813272,N,11739.746653,W,58.0,340.9,210210,,,A*49
$GPRMC,064718.1,A,3330.857742,N,11739.766377,W,57.0,340.7,210210,,,A*42
$GPRMC,064721.1,A,3330.901627,N,11739.785879,W,56.1,340.3,210210,,,A*44
$GPRMC,064724.1,A,3330.946093,N,11739.804169,W,56.4,340.7,210210,,,A*44
$GPRMC,064727.1,A,3330.989609,N,11739.821724,W,55.4,340.6,210210,,,A*4B
$GPRMC,064730.1,A,3331.033892,N,11739.840499,W,56.1,339.9,210210,,,A*4D
$GPRMC,064733.1,A,3331.076340,N,11739.860759,W,56.1,339.7,210210,,,A*48
