NMEA Sentence Code,UTC Time,Status,Latitude,Latitude Direction,Longitude,Longitude Direction,Speed (knots),Track Angle (degrees true),Date,MagneticVariation,Magnetic Variation Direction,[FAA Mode]-Optional,Checksum
$GPRMC,151137.000,A,3246.4555,N,11700.1114,W,30.42,341.5,181110,,*1F
$GPRMC,151140.000,A,3246.4809,N,11700.1247,W,33.81,336.8,181110,,*1F
$GPRMC,151143.000,A,3246.5083,N,11700.1395,W,34.70,335.4,181110,,*1F
$GPRMC,151146.000,A,3246.5340,N,11700.1538,W,31.37,335.7,181110,,*12
$GPRMC,151149.000,A,3246.5570,N,11700.1662,W,25.70,335.6,181110,,*13
$GPRMC,151152.000,A,3246.5732,N,11700.1748,W,17.31,335.4,181110,,*12
$GPRMC,151204.000,A,3246.5840,N,11700.1805,W,7.31,335.9,181110,,*22
$GPRMC,151207.000,A,3246.5888,N,11700.1830,W,4.46,336.0,181110,,*2A
$GPRMC,151210.000,A,3246.5921,N,11700.1848,W,4.81,336.0,181110,,*2A
$GPRMC,151213.000,A,3246.5995,N,11700.1889,W,16.09,336.1,181110,,*19
$GPRMC,151216.000,A,3246.6181,N,11700.1958,W,29.42,342.7,181110,,*19
$GPRMC,151219.000,A,3246.6473,N,11700.2049,W,39.22,344.9,181110,,*1B
$GPRMC,151222.000,A,3246.6824,N,11700.2157,W,46.57,345.5,181110,,*14
$GPRMC,151225.000,A,3246.7226,N,11700.2288,W,50.68,344.7,181110,,*13
$GPRMC,151228.000,A,3246.7659,N,11700.2424,W,53.55,345.0,181110,,*19
$GPRMC,151231.000,A,3246.8095,N,11700.2562,W,52.14,344.9,181110,,*17
$GPRMC,151234.000,A,3246.8521,N,11700.2697,W,53.69,345.1,181110,,*13
$GPRMC,151237.000,A,3246.8969,N,11700.2843,W,55.89,345.0,181110,,*1E
$GPRMC,151240.000,A,3246.9440,N,11700.2995,W,57.94,345.0,181110,,*1D
$GPRMC,151243.000,A,3246.9911,N,11700.3144,W,58.59,345.0,181110,,*1C
$GPRMC,151246.000,A,3247.0398,N,11700.3297,W,60.71,345.2,181110,,*14
$GPRMC,151249.000,A,3247.0893,N,11700.3442,W,60.68,346.3,181110,,*1F
$GPRMC,151252.000,A,3247.1384,N,11700.3566,W,60.05,348.4,181110,,*1C
$GPRMC,151255.000,A,3247.1885,N,11700.3661,W,60.71,351.0,181110,,*1A
$GPRMC,151258.000,A,3247.2386,N,11700.3734,W,60.18,353.1,181110,,*11
$GPRMC,151301.000,A,3247.2893,N,11700.3785,W,60.39,355.5,181110,,*18
$GPRMC,151304.000,A,3247.3399,N,11700.3805,W,59.79,358.2,181110,,*1E
$GPRMC,151307.000,A,3247.3900,N,11700.3800,W,59.99,0.9,181110,,*19
$GPRMC,151310.000,A,3247.4407,N,11700.3772,W,60.46,2.8,181110,,*13
$GPRMC,151313.000,A,3247.4904,N,11700.3722,W,58.98,5.3,181110,,*1F
$GPRMC,151316.000,A,3247.5394,N,11700.3636,W,59.66,8.1,181110,,*13
$GPRMC,151319.000,A,3247.5891,N,11700.3525,W,60.17,10.3,181110,,*24
$GPRMC,151322.000,A,3247.6389,N,11700.3404,W,60.60,10.7,181110,,*2B
$GPRMC,151325.000,A,3247.6889,N,11700.3306,W,60.45,8.4,181110,,*1F
$GPRMC,151328.000,A,3247.7390,N,11700.3242,W,60.49,5.7,181110,,*13
$GPRMC,151331.000,A,3247.7894,N,11700.3202,W,59.32,2.9,181110,,*1F
$GPRMC,151334.000,A,3247.8379,N,11700.3193,W,57.09,0.9,181110,,*12
$GPRMC,151337.000,A,3247.8857,N,11700.3190,W,56.77,0.3,181110,,*17
$GPRMC,151340.000,A,3247.9333,N,11700.3189,W,56.42,0.2,181110,,*10
$GPRMC,151343.000,A,3247.9801,N,11700.3189,W,54.84,360.0,181110,,*16
$GPRMC,151346.000,A,3248.0264,N,11700.3185,W,55.39,0.4,181110,,*16
$GPRMC,151349.000,A,3248.0725,N,11700.3186,W,55.86,0.0,181110,,*1A
$GPRMC,151352.000,A,3248.1195,N,11700.3187,W,56.60,0.1,181110,,*17
$GPRMC,151355.000,A,3248.1668,N,11700.3184,W,56.85,0.2,181110,,*1E
$GPRMC,151358.000,A,3248.2145,N,11700.3182,W,57.07,0.1,181110,,*16
$GPRMC,151401.000,A,3248.2615,N,11700.3181,W,56.02,0.1,181110,,*18
$GPRMC,151404.000,A,3248.3088,N,11700.3180,W,56.69,0.1,181110,,*12
$GPRMC,151407.000,A,3248.3566,N,11700.3182,W,57.03,359.8,181110,,*1D
$GPRMC,151410.000,A,3248.4043,N,11700.3181,W,58.17,0.2,181110,,*12
$GPRMC,151413.000,A,3248.4530,N,11700.3174,W,58.56,1.4,181110,,*18
$GPRMC,151416.000,A,3248.5018,N,11700.3118,W,58.88,6.3,181110,,*1A
$GPRMC,151419.000,A,3248.5497,N,11700.3013,W,57.95,11.5,181110,,*2F
$GPRMC,151422.000,A,3248.5955,N,11700.2851,W,56.64,17.0,181110,,*27
$GPRMC,151425.000,A,3248.6383,N,11700.2645,W,54.75,22.4,181110,,*29
$GPRMC,151428.000,A,3248.6781,N,11700.2400,W,53.82,26.8,181110,,*26
$GPRMC,151431.000,A,3248.7183,N,11700.2144,W,54.78,28.2,181110,,*28
$GPRMC,151434.000,A,3248.7591,N,11700.1879,W,55.73,29.0,181110,,*27
$GPRMC,151437.000,A,3248.7992,N,11700.1606,W,55.31,29.6,181110,,*2D
$GPRMC,151440.000,A,3248.8378,N,11700.1332,W,53.24,29.7,181110,,*2D
$GPRMC,151443.000,A,3248.8765,N,11700.1090,W,52.22,26.2,181110,,*20
$GPRMC,151446.000,A,3248.9169,N,11700.0893,W,52.31,21.7,181110,,*24
$GPRMC,151449.000,A,3248.9585,N,11700.0739,W,52.14,17.0,181110,,*27
$GPRMC,151452.000,A,3249.0010,N,11700.0622,W,53.18,12.0,181110,,*2F
$GPRMC,151455.000,A,3249.0446,N,11700.0555,W,53.36,6.8,181110,,*1D
$GPRMC,151458.000,A,3249.0893,N,11700.0530,W,53.02,2.1,181110,,*1D
$GPRMC,151501.000,A,3249.1334,N,11700.0549,W,53.68,356.5,181110,,*13
$GPRMC,151504.000,A,3249.1785,N,11700.0619,W,56.34,351.8,181110,,*18
$GPRMC,151507.000,A,3249.2242,N,11700.0748,W,56.30,346.5,181110,,*1C
$GPRMC,151510.000,A,3249.2701,N,11700.0921,W,58.39,342.6,181110,,*19
$GPRMC,151513.000,A,3249.3170,N,11700.1112,W,58.87,341.7,181110,,*15
$GPRMC,151516.000,A,3249.3637,N,11700.1299,W,58.11,341.6,181110,,*1A
$GPRMC,151519.000,A,3249.4101,N,11700.1479,W,58.35,342.7,181110,,*1C
$GPRMC,151522.000,A,3249.4573,N,11700.1623,W,58.21,346.2,181110,,*1C
$GPRMC,151525.000,A,3249.5053,N,11700.1735,W,58.25,349.4,181110,,*16
$GPRMC,151528.000,A,3249.5533,N,11700.1811,W,57.83,353.1,181110,,*1C
$GPRMC,151531.000,A,3249.6019,N,11700.1853,W,57.73,356.3,181110,,*14
$GPRMC,151534.000,A,3249.6506,N,11700.1868,W,57.66,358.6,181110,,*1D
$GPRMC,151537.000,A,3249.6982,N,11700.1872,W,56.58,359.6,181110,,*18
$GPRMC,151540.000,A,3249.7464,N,11700.1871,W,57.70,359.8,181110,,*1A
$GPRMC,151543.000,A,3249.7943,N,11700.1876,W,57.69,359.6,181110,,*10
$GPRMC,151546.000,A,3249.8432,N,11700.1884,W,58.26,359.4,181110,,*1A
$GPRMC,151549.000,A,3249.8920,N,11700.1892,W,58.36,359.5,181110,,*1C
$GPRMC,151552.000,A,3249.9402,N,11700.1898,W,57.34,359.2,181110,,*1A
$GPRMC,151555.000,A,3249.9876,N,11700.1902,W,56.36,359.5,181110,,*14
$GPRMC,151558.000,A,3250.0347,N,11700.1910,W,55.75,359.5,181110,,*16
$GPRMC,151601.000,A,3250.0812,N,11700.1913,W,55.10,359.7,181110,,*10
$GPRMC,151604.000,A,3250.1268,N,11700.1913,W,54.41,0.2,181110,,*1C
$GPRMC,151607.000,A,3250.1697,N,11700.1911,W,49.05,359.7,181110,,*1F
$GPRMC,151610.000,A,3250.2074,N,11700.1915,W,43.26,359.5,181110,,*1C
$GPRMC,151613.000,A,3250.2410,N,11700.1924,W,36.49,358.4,181110,,*10
$GPRMC,151616.000,A,3250.2689,N,11700.1940,W,31.29,356.5,181110,,*1B
$GPRMC,151619.000,A,3250.2897,N,11700.1946,W,19.47,358.9,181110,,*13
$GPRMC,151622.000,A,3250.3007,N,11700.1946,W,7.52,0.5,181110,,*22
$GPRMC,151731.000,A,3250.3049,N,11700.1959,W,10.95,326.2,181110,,*18
$GPRMC,151734.000,A,3250.3116,N,11700.2063,W,13.85,293.5,181110,,*1F
$GPRMC,151737.000,A,3250.3100,N,11700.2229,W,18.79,255.4,181110,,*14
$GPRMC,151740.000,A,3250.3021,N,11700.2420,W,24.07,242.4,181110,,*19
$GPRMC,151743.000,A,3250.2885,N,11700.2643,W,29.01,233.3,181110,,*10
$GPRMC,151746.000,A,3250.2704,N,11700.2860,W,30.73,223.5,181110,,*16
$GPRMC,151749.000,A,3250.2476,N,11700.3056,W,34.52,217.6,181110,,*10
$GPRMC,151752.000,A,3250.2228,N,11700.3267,W,35.77,216.1,181110,,*17
$GPRMC,151755.000,A,3250.1995,N,11700.3489,W,34.12,220.0,181110,,*1E
$GPRMC,151758.000,A,3250.1806,N,11700.3716,W,28.48,226.7,181110,,*1E
$GPRMC,151801.000,A,3250.1677,N,11700.3921,W,21.91,235.1,181110,,*16
$GPRMC,151804.000,A,3250.1615,N,11700.4067,W,12.79,243.3,181110,,*1E
$GPRMC,151813.000,A,3250.1584,N,11700.4170,W,11.49,245.9,181110,,*18
$GPRMC,151816.000,A,3250.1539,N,11700.4354,W,24.39,252.3,181110,,*12
$GPRMC,151819.000,A,3250.1494,N,11700.4649,W,33.26,259.8,181110,,*1A
$GPRMC,151822.000,A,3250.1453,N,11700.5023,W,39.78,261.9,181110,,*19
$GPRMC,151825.000,A,3250.1404,N,11700.5444,W,43.81,261.9,181110,,*12
$GPRMC,151828.000,A,3250.1363,N,11700.5891,W,45.40,263.7,181110,,*1A
$GPRMC,151831.000,A,3250.1337,N,11700.6352,W,46.12,266.5,181110,,*17
$GPRMC,151834.000,A,3250.1328,N,11700.6816,W,47.35,269.6,181110,,*1F
$GPRMC,151837.000,A,3250.1342,N,11700.7295,W,47.24,272.6,181110,,*1A
$GPRMC,151840.000,A,3250.1370,N,11700.7766,W,47.88,273.7,181110,,*14
$GPRMC,151843.000,A,3250.1401,N,11700.8234,W,47.02,273.9,181110,,*17
$GPRMC,151846.000,A,3250.1430,N,11700.8705,W,47.14,273.6,181110,,*1F
$GPRMC,151849.000,A,3250.1466,N,11700.9175,W,49.07,274.1,181110,,*1F
$GPRMC,151852.000,A,3250.1493,N,11700.9665,W,50.03,273.9,181110,,*1A
$GPRMC,151855.000,A,3250.1523,N,11701.0169,W,51.39,273.8,181110,,*1D
$GPRMC,151858.000,A,3250.1552,N,11701.0681,W,52.26,274.1,181110,,*14
$GPRMC,151901.000,A,3250.1597,N,11701.1186,W,49.24,277.2,181110,,*19
$GPRMC,151904.000,A,3250.1680,N,11701.1603,W,38.83,284.7,181110,,*11
$GPRMC,151907.000,A,3250.1784,N,11701.1921,W,33.59,290.1,181110,,*17
$GPRMC,151910.000,A,3250.1883,N,11701.2218,W,31.74,289.2,181110,,*1D
$GPRMC,151913.000,A,3250.1950,N,11701.2540,W,35.55,283.0,181110,,*14
$GPRMC,151916.000,A,3250.1987,N,11701.2906,W,39.71,276.6,181110,,*13
$GPRMC,151919.000,A,3250.2009,N,11701.3300,W,38.54,274.5,181110,,*1A
$GPRMC,151922.000,A,3250.2034,N,11701.3670,W,36.09,274.3,181110,,*1E
$GPRMC,151925.000,A,3250.2053,N,11701.4017,W,36.11,274.4,181110,,*16
$GPRMC,151928.000,A,3250.2080,N,11701.4370,W,34.92,275.5,181110,,*1E
$GPRMC,151931.000,A,3250.2112,N,11701.4698,W,31.63,275.3,181110,,*12
$GPRMC,151934.000,A,3250.2132,N,11701.4942,W,18.65,276.7,181110,,*17
$GPRMC,151937.000,A,3250.2140,N,11701.5065,W,9.34,274.6,181110,,*2B
$GPRMC,151958.000,A,3250.2161,N,11701.5275,W,23.73,280.8,181110,,*1C
$GPRMC,152001.000,A,3250.2202,N,11701.5542,W,27.12,280.9,181110,,*1D
$GPRMC,152004.000,A,3250.2239,N,11701.5793,W,20.76,281.4,181110,,*17
$GPRMC,152007.000,A,3250.2268,N,11701.5921,W,4.64,285.2,181110,,*20
$GPRMC,152019.000,A,3250.2280,N,11701.5926,W,4.35,285.2,181110,,*2A
$GPRMC,152022.000,A,3250.2361,N,11701.5956,W,15.07,9.0,181110,,*1E
$GPRMC,152025.000,A,3250.2510,N,11701.5838,W,25.62,41.2,181110,,*2E
$GPRMC,152028.000,A,3250.2673,N,11701.5631,W,29.61,47.3,181110,,*2A
$GPRMC,152031.000,A,3250.2848,N,11701.5396,W,32.95,47.4,181110,,*2A
$GPRMC,152034.000,A,3250.3056,N,11701.5140,W,36.30,44.5,181110,,*29
$GPRMC,152037.000,A,3250.3282,N,11701.4893,W,35.98,43.0,181110,,*24
$GPRMC,152040.000,A,3250.3511,N,11701.4663,W,36.44,39.3,181110,,*24
$GPRMC,152043.000,A,3250.3766,N,11701.4454,W,37.07,32.8,181110,,*25
$GPRMC,152046.000,A,3250.4045,N,11701.4291,W,36.28,25.3,181110,,*2F
$GPRMC,152049.000,A,3250.4318,N,11701.4189,W,31.25,18.0,181110,,*26
$GPRMC,152052.000,A,3250.4532,N,11701.4135,W,21.56,12.9,181110,,*23
$GPRMC,152055.000,A,3250.4678,N,11701.4102,W,16.03,11.0,181110,,*23
$GPRMC,152058.000,A,3250.4781,N,11701.4085,W,11.28,8.8,181110,,*19
$GPRMC,152101.000,A,3250.4851,N,11701.4076,W,7.57,7.5,181110,,*27
$GPRMC,152119.000,A,3250.4918,N,11701.4065,W,7.21,4.8,181110,,*2F
$GPRMC,152122.000,A,3250.5024,N,11701.4065,W,15.72,1.7,181110,,*1F
$GPRMC,152125.000,A,3250.5192,N,11701.4064,W,24.65,0.4,181110,,*13
$GPRMC,152128.000,A,3250.5440,N,11701.4060,W,29.06,0.7,181110,,*1B
$GPRMC,152131.000,A,3250.5670,N,11701.4064,W,25.38,0.2,181110,,*12
$GPRMC,152134.000,A,3250.5864,N,11701.4063,W,18.46,359.2,181110,,*13
$GPRMC,152137.000,A,3250.5962,N,11701.4063,W,7.03,358.2,181110,,*29
$GPRMC,152140.000,A,3250.5999,N,11701.4063,W,5.68,359.1,181110,,*20
$GPRMC,152143.000,A,3250.6059,N,11701.4062,W,10.47,2.6,181110,,*17
$GPRMC,152146.000,A,3250.6184,N,11701.4059,W,17.74,2.0,181110,,*1A
$GPRMC,152149.000,A,3250.6359,N,11701.4059,W,22.77,1.0,181110,,*11
$GPRMC,152152.000,A,3250.6575,N,11701.4060,W,26.75,359.8,181110,,*19
$GPRMC,152155.000,A,3250.6802,N,11701.4065,W,26.07,359.1,181110,,*1A
$GPRMC,152158.000,A,3250.7030,N,11701.4085,W,28.20,353.2,181110,,*13
$GPRMC,152201.000,A,3250.7250,N,11701.4154,W,25.07,342.8,181110,,*17
$GPRMC,152204.000,A,3250.7417,N,11701.4249,W,18.97,332.2,181110,,*12
$GPRMC,152207.000,A,3250.7519,N,11701.4361,W,15.12,311.6,181110,,*10
$GPRMC,152210.000,A,3250.7511,N,11701.4506,W,15.63,253.0,181110,,*1E
$GPRMC,152213.000,A,3250.7416,N,11701.4667,W,20.93,239.3,181110,,*19
$GPRMC,152216.000,A,3250.7327,N,11701.4833,W,16.75,242.1,181110,,*15
$GPRMC,152219.000,A,3250.7271,N,11701.4966,W,14.08,246.0,181110,,*14
$GPRMC,152222.000,A,3250.7234,N,11701.5084,W,10.50,249.3,181110,,*1C
$GPRMC,152225.000,A,3250.7214,N,11701.5150,W,4.70,250.0,181110,,*2D
$GPRMC,152228.000,A,3250.7203,N,11701.5193,W,5.29,250.0,181110,,*24
$GPRMC,152234.000,A,3250.7184,N,11701.5266,W,5.46,253.3,181110,,*25
$GPRMC,152237.000,A,3250.7170,N,11701.5334,W,7.46,256.8,181110,,*27
$GPRMC,152240.000,A,3250.7160,N,11701.5419,W,9.43,269.3,181110,,*22
$GPRMC,152243.000,A,3250.7190,N,11701.5512,W,10.84,306.6,181110,,*1A
$GPRMC,152246.000,A,3250.7266,N,11701.5568,W,10.10,326.9,181110,,*18
$GPRMC,152249.000,A,3250.7360,N,11701.5631,W,17.08,326.6,181110,,*1E
$GPRMC,152252.000,A,3250.7508,N,11701.5744,W,22.04,327.5,181110,,*17
$GPRMC,152255.000,A,3250.7655,N,11701.5861,W,18.93,323.6,181110,,*13
$GPRMC,152258.000,A,3250.7758,N,11701.5961,W,12.39,320.0,181110,,*1C
$GPRMC,152301.000,A,3250.7820,N,11701.6029,W,9.76,316.8,181110,,*2B
$GPRMC,152304.000,A,3250.7881,N,11701.6105,W,10.25,314.2,181110,,*1C
$GPRMC,152307.000,A,3250.7937,N,11701.6182,W,10.95,313.8,181110,,*1A
$GPRMC,152310.000,A,3250.8017,N,11701.6278,W,15.07,314.4,181110,,*1B
$GPRMC,152313.000,A,3250.8107,N,11701.6384,W,14.13,314.2,181110,,*18
$GPRMC,152316.000,A,3250.8183,N,11701.6481,W,12.93,313.3,181110,,*1B
$GPRMC,152319.000,A,3250.8245,N,11701.6560,W,7.10,315.5,181110,,*2C
$GPRMC,152334.000,A,3250.8276,N,11701.6606,W,5.15,315.5,181110,,*27
$GPRMC,152337.000,A,3250.8331,N,11701.6673,W,12.68,314.0,181110,,*1C
$GPRMC,152340.000,A,3250.8427,N,11701.6784,W,17.53,315.5,181110,,*1C
$GPRMC,152343.000,A,3250.8556,N,11701.6936,W,22.81,314.7,181110,,*15
$GPRMC,152346.000,A,3250.8694,N,11701.7109,W,24.61,314.3,181110,,*14
$GPRMC,152349.000,A,3250.8856,N,11701.7307,W,27.58,313.3,181110,,*19
$GPRMC,152352.000,A,3250.9011,N,11701.7502,W,26.58,312.6,181110,,*1F
$GPRMC,152355.000,A,3250.9174,N,11701.7719,W,31.17,311.2,181110,,*18
$GPRMC,152358.000,A,3250.9356,N,11701.7976,W,36.00,308.9,181110,,*12
$GPRMC,152401.000,A,3250.9538,N,11701.8269,W,37.10,306.2,181110,,*18
$GPRMC,152404.000,A,3250.9720,N,11701.8581,W,38.84,303.5,181110,,*17
$GPRMC,152407.000,A,3250.9890,N,11701.8932,W,44.14,299.6,181110,,*17
$GPRMC,152410.000,A,3251.0061,N,11701.9340,W,48.44,295.7,181110,,*15
$GPRMC,152413.000,A,3251.0227,N,11701.9806,W,54.23,292.8,181110,,*1B
$GPRMC,152416.000,A,3251.0383,N,11702.0307,W,52.60,290.0,181110,,*1A
$GPRMC,152419.000,A,3251.0512,N,11702.0794,W,49.05,287.0,181110,,*1A
$GPRMC,152422.000,A,3251.0608,N,11702.1226,W,42.69,284.5,181110,,*10
$GPRMC,152425.000,A,3251.0678,N,11702.1617,W,36.85,282.2,181110,,*16
$GPRMC,152428.000,A,3251.0722,N,11702.1951,W,31.96,280.3,181110,,*1E
$GPRMC,152431.000,A,3251.0765,N,11702.2230,W,27.86,280.0,181110,,*1F
$GPRMC,152434.000,A,3251.0795,N,11702.2473,W,24.26,279.6,181110,,*1D
$GPRMC,152437.000,A,3251.0831,N,11702.2704,W,26.54,281.0,181110,,*1A
$GPRMC,152440.000,A,3251.0888,N,11702.2980,W,29.75,282.7,181110,,*12
$GPRMC,152443.000,A,3251.0937,N,11702.3274,W,31.02,281.2,181110,,*1A
$GPRMC,152446.000,A,3251.0984,N,11702.3586,W,33.86,279.8,181110,,*1E
$GPRMC,152449.000,A,3251.1035,N,11702.3937,W,36.60,279.4,181110,,*14
$GPRMC,152452.000,A,3251.1086,N,11702.4299,W,36.59,279.7,181110,,*17
$GPRMC,152455.000,A,3251.1134,N,11702.4634,W,31.02,279.5,181110,,*10
$GPRMC,152458.000,A,3251.1173,N,11702.4904,W,25.76,279.6,181110,,*17
$GPRMC,152501.000,A,3251.1201,N,11702.5127,W,21.48,279.6,181110,,*1D
$GPRMC,152504.000,A,3251.1237,N,11702.5326,W,20.66,280.6,181110,,*15
$GPRMC,152507.000,A,3251.1268,N,11702.5541,W,23.82,280.4,181110,,*10
$GPRMC,152510.000,A,3251.1304,N,11702.5798,W,27.89,280.3,181110,,*13
$GPRMC,152513.000,A,3251.1341,N,11702.6067,W,26.72,279.8,181110,,*1D
$GPRMC,152516.000,A,3251.1376,N,11702.6305,W,24.87,279.9,181110,,*12
$GPRMC,152519.000,A,3251.1420,N,11702.6563,W,28.52,280.2,181110,,*16
$GPRMC,152522.000,A,3251.1467,N,11702.6850,W,30.04,280.2,181110,,*1A
$GPRMC,152525.000,A,3251.1511,N,11702.7153,W,32.30,280.1,181110,,*10
$GPRMC,152528.000,A,3251.1564,N,11702.7480,W,34.64,280.3,181110,,*11
$GPRMC,152531.000,A,3251.1619,N,11702.7830,W,37.34,280.4,181110,,*16
$GPRMC,152534.000,A,3251.1675,N,11702.8202,W,39.93,280.7,181110,,*1D
$GPRMC,152537.000,A,3251.1734,N,11702.8597,W,42.41,280.5,181110,,*10
$GPRMC,152540.000,A,3251.1801,N,11702.9024,W,44.72,280.7,181110,,*11
$GPRMC,152543.000,A,3251.1870,N,11702.9450,W,41.57,280.6,181110,,*10
$GPRMC,152546.000,A,3251.1934,N,11702.9849,W,41.41,280.4,181110,,*15
$GPRMC,152549.000,A,3251.1997,N,11703.0268,W,43.94,280.3,181110,,*1F
$GPRMC,152552.000,A,3251.2055,N,11703.0687,W,40.65,279.8,181110,,*14
$GPRMC,152555.000,A,3251.2114,N,11703.1082,W,41.62,279.7,181110,,*1C
$GPRMC,152558.000,A,3251.2169,N,11703.1495,W,41.63,279.6,181110,,*19
$GPRMC,152601.000,A,3251.2223,N,11703.1887,W,39.70,279.3,181110,,*1C
$GPRMC,152604.000,A,3251.2275,N,11703.2284,W,41.28,279.4,181110,,*15
$GPRMC,152607.000,A,3251.2337,N,11703.2693,W,42.95,280.0,181110,,*14
$GPRMC,152610.000,A,3251.2402,N,11703.3118,W,44.26,280.1,181110,,*19
$GPRMC,152613.000,A,3251.2462,N,11703.3547,W,42.59,280.0,181110,,*1D
$GPRMC,152616.000,A,3251.2527,N,11703.3960,W,42.28,280.1,181110,,*16
$GPRMC,152619.000,A,3251.2589,N,11703.4371,W,43.21,280.3,181110,,*1A
$GPRMC,152622.000,A,3251.2653,N,11703.4785,W,41.69,280.2,181110,,*16
$GPRMC,152625.000,A,3251.2715,N,11703.5190,W,41.52,280.1,181110,,*1A
$GPRMC,152628.000,A,3251.2775,N,11703.5591,W,40.89,279.9,181110,,*1D
$GPRMC,152631.000,A,3251.2822,N,11703.6019,W,45.82,276.8,181110,,*1E
$GPRMC,152634.000,A,3251.2860,N,11703.6498,W,48.98,275.0,181110,,*1D
$GPRMC,152637.000,A,3251.2889,N,11703.6965,W,45.82,273.0,181110,,*16
$GPRMC,152640.000,A,3251.2894,N,11703.7402,W,44.64,269.9,181110,,*1C
$GPRMC,152643.000,A,3251.2877,N,11703.7849,W,45.44,267.2,181110,,*17
$GPRMC,152646.000,A,3251.2843,N,11703.8301,W,46.39,264.2,181110,,*17
$GPRMC,152649.000,A,3251.2786,N,11703.8769,W,50.44,261.0,181110,,*1E
$GPRMC,152652.000,A,3251.2698,N,11703.9277,W,52.33,257.9,181110,,*1F
$GPRMC,152655.000,A,3251.2584,N,11703.9787,W,52.68,254.6,181110,,*1E
$GPRMC,152658.000,A,3251.2447,N,11704.0288,W,54.58,251.0,181110,,*1F
$GPRMC,152701.000,A,3251.2269,N,11704.0796,W,56.69,247.6,181110,,*13
$GPRMC,152704.000,A,3251.2059,N,11704.1315,W,59.09,244.0,181110,,*15
$GPRMC,152707.000,A,3251.1819,N,11704.1826,W,59.29,240.1,181110,,*15
$GPRMC,152710.000,A,3251.1547,N,11704.2320,W,59.57,236.3,181110,,*11
$GPRMC,152713.000,A,3251.1253,N,11704.2781,W,58.50,232.6,181110,,*18
$GPRMC,152716.000,A,3251.0937,N,11704.3219,W,57.77,229.1,181110,,*17
$GPRMC,152719.000,A,3251.0607,N,11704.3640,W,57.48,227.6,181110,,*19
$GPRMC,152722.000,A,3251.0282,N,11704.4058,W,58.62,227.2,181110,,*13
$GPRMC,152725.000,A,3250.9949,N,11704.4484,W,59.25,227.4,181110,,*11
$GPRMC,152728.000,A,3250.9613,N,11704.4914,W,59.02,227.3,181110,,*1A
$GPRMC,152731.000,A,3250.9269,N,11704.5350,W,61.05,226.8,181110,,*16
$GPRMC,152734.000,A,3250.8914,N,11704.5794,W,61.69,226.8,181110,,*15
$GPRMC,152737.000,A,3250.8561,N,11704.6235,W,61.41,226.6,181110,,*11
$GPRMC,152740.000,A,3250.8214,N,11704.6674,W,60.56,227.0,181110,,*15
$GPRMC,152743.000,A,3250.7877,N,11704.7115,W,59.99,228.2,181110,,*13
$GPRMC,152746.000,A,3250.7561,N,11704.7575,W,60.03,231.6,181110,,*1B
$GPRMC,152749.000,A,3250.7269,N,11704.8060,W,61.34,235.0,181110,,*12
$GPRMC,152752.000,A,3250.6993,N,11704.8584,W,62.24,238.7,181110,,*10
$GPRMC,152755.000,A,3250.6744,N,11704.9128,W,62.64,242.3,181110,,*1D
$GPRMC,152758.000,A,3250.6529,N,11704.9689,W,62.11,245.8,181110,,*1B
$GPRMC,152801.000,A,3250.6343,N,11705.0263,W,61.88,249.5,181110,,*18
$GPRMC,152804.000,A,3250.6195,N,11705.0847,W,61.53,253.2,181110,,*12
$GPRMC,152807.000,A,3250.6058,N,11705.1449,W,64.37,254.8,181110,,*18
$GPRMC,152810.000,A,3250.5920,N,11705.2071,W,65.33,255.0,181110,,*1B
$GPRMC,152813.000,A,3250.5777,N,11705.2695,W,64.80,255.0,181110,,*11
$GPRMC,152816.000,A,3250.5640,N,11705.3311,W,64.07,255.2,181110,,*14
$GPRMC,152819.000,A,3250.5507,N,11705.3916,W,62.90,255.2,181110,,*1E
$GPRMC,152822.000,A,3250.5370,N,11705.4516,W,62.26,255.2,181110,,*16
$GPRMC,152825.000,A,3250.5238,N,11705.5108,W,62.36,255.1,181110,,*14
$GPRMC,152828.000,A,3250.5103,N,11705.5705,W,61.80,255.2,181110,,*14
$GPRMC,152831.000,A,3250.4975,N,11705.6300,W,62.24,255.9,181110,,*10
$GPRMC,152834.000,A,3250.4883,N,11705.6903,W,62.20,260.6,181110,,*19
$GPRMC,152837.000,A,3250.4836,N,11705.7522,W,63.60,265.0,181110,,*1C
$GPRMC,152840.000,A,3250.4823,N,11705.8152,W,63.05,269.3,181110,,*18
$GPRMC,152843.000,A,3250.4848,N,11705.8769,W,62.71,272.4,181110,,*17
$GPRMC,152846.000,A,3250.4877,N,11705.9397,W,64.04,272.6,181110,,*1C
$GPRMC,152849.000,A,3250.4901,N,11706.0030,W,64.52,272.5,181110,,*17
$GPRMC,152852.000,A,3250.4927,N,11706.0666,W,64.18,272.6,181110,,*11
$GPRMC,152855.000,A,3250.4952,N,11706.1303,W,63.84,272.7,181110,,*10
$GPRMC,152858.000,A,3250.4980,N,11706.1932,W,63.43,272.7,181110,,*11
$GPRMC,152901.000,A,3250.5004,N,11706.2552,W,62.40,272.5,181110,,*11
$GPRMC,152904.000,A,3250.5028,N,11706.3173,W,61.87,272.6,181110,,*17
$GPRMC,152907.000,A,3250.5048,N,11706.3783,W,60.77,272.7,181110,,*14
$GPRMC,152910.000,A,3250.5074,N,11706.4375,W,59.97,272.7,181110,,*13
$GPRMC,152913.000,A,3250.5097,N,11706.4973,W,60.74,272.7,181110,,*16
$GPRMC,152916.000,A,3250.5123,N,11706.5579,W,61.15,272.7,181110,,*1C
$GPRMC,152919.000,A,3250.5151,N,11706.6172,W,59.44,272.7,181110,,*15
$GPRMC,152922.000,A,3250.5173,N,11706.6758,W,59.07,272.7,181110,,*14
$GPRMC,152925.000,A,3250.5196,N,11706.7339,W,59.47,272.4,181110,,*1D
$GPRMC,152928.000,A,3250.5206,N,11706.7935,W,59.97,271.2,181110,,*14
$GPRMC,152931.000,A,3250.5203,N,11706.8521,W,58.98,270.1,181110,,*13
$GPRMC,152934.000,A,3250.5195,N,11706.9097,W,58.26,269.0,181110,,*1F
$GPRMC,152937.000,A,3250.5185,N,11706.9672,W,57.91,269.3,181110,,*10
$GPRMC,152940.000,A,3250.5185,N,11707.0243,W,57.25,270.2,181110,,*18
$GPRMC,152943.000,A,3250.5188,N,11707.0805,W,57.41,269.9,181110,,*1F
$GPRMC,152946.000,A,3250.5181,N,11707.1385,W,59.92,269.3,181110,,*1B
$GPRMC,152949.000,A,3250.5176,N,11707.1987,W,61.66,269.2,181110,,*15
$GPRMC,152952.000,A,3250.5170,N,11707.2584,W,59.42,269.2,181110,,*18
$GPRMC,152955.000,A,3250.5163,N,11707.3168,W,59.44,269.1,181110,,*1F
$GPRMC,152958.000,A,3250.5152,N,11707.3755,W,58.23,269.1,181110,,*18
$GPRMC,153001.000,A,3250.5145,N,11707.4329,W,57.84,269.1,181110,,*10
$GPRMC,153004.000,A,3250.5139,N,11707.4894,W,57.37,269.3,181110,,*19
$GPRMC,153007.000,A,3250.5131,N,11707.5465,W,57.74,269.0,181110,,*15
$GPRMC,153010.000,A,3250.5118,N,11707.6032,W,56.43,268.5,181110,,*1C
$GPRMC,153013.000,A,3250.5098,N,11707.6591,W,56.80,267.3,181110,,*1C
$GPRMC,153016.000,A,3250.5067,N,11707.7157,W,57.80,265.9,181110,,*1F
$GPRMC,153019.000,A,3250.5024,N,11707.7730,W,58.40,264.2,181110,,*19
$GPRMC,153022.000,A,3250.4954,N,11707.8304,W,57.53,262.6,181110,,*1D
$GPRMC,153025.000,A,3250.4889,N,11707.8870,W,58.51,261.9,181110,,*12
$GPRMC,153028.000,A,3250.4819,N,11707.9443,W,57.38,261.8,181110,,*1A
$GPRMC,153031.000,A,3250.4755,N,11708.0014,W,59.43,262.5,181110,,*19
$GPRMC,153034.000,A,3250.4686,N,11708.0585,W,58.30,262.0,181110,,*1E
$GPRMC,153037.000,A,3250.4621,N,11708.1149,W,57.67,262.2,181110,,*1A
$GPRMC,153040.000,A,3250.4559,N,11708.1712,W,56.76,262.4,181110,,*19
$GPRMC,153043.000,A,3250.4494,N,11708.2259,W,54.69,262.1,181110,,*1A
$GPRMC,153046.000,A,3250.4421,N,11708.2794,W,54.80,260.4,181110,,*15
$GPRMC,153049.000,A,3250.4326,N,11708.3315,W,52.72,257.7,181110,,*1A
$GPRMC,153052.000,A,3250.4223,N,11708.3814,W,52.80,256.4,181110,,*11
$GPRMC,153055.000,A,3250.4117,N,11708.4328,W,52.93,256.3,181110,,*14
$GPRMC,153058.000,A,3250.4016,N,11708.4828,W,50.83,256.4,181110,,*16
$GPRMC,153101.000,A,3250.3918,N,11708.5290,W,46.09,255.7,181110,,*16
$GPRMC,153104.000,A,3250.3829,N,11708.5709,W,42.40,256.0,181110,,*18
$GPRMC,153107.000,A,3250.3744,N,11708.6115,W,43.13,256.3,181110,,*13
$GPRMC,153110.000,A,3250.3658,N,11708.6526,W,42.42,256.3,181110,,*18
$GPRMC,153113.000,A,3250.3574,N,11708.6925,W,42.11,256.2,181110,,*1E
$GPRMC,153116.000,A,3250.3495,N,11708.7308,W,36.39,255.9,181110,,*10
$GPRMC,153119.000,A,3250.3426,N,11708.7637,W,33.53,256.1,181110,,*1C
$GPRMC,153122.000,A,3250.3357,N,11708.7967,W,35.96,256.1,181110,,*10
$GPRMC,153125.000,A,3250.3283,N,11708.8330,W,39.96,256.2,181110,,*17
$GPRMC,153128.000,A,3250.3207,N,11708.8711,W,37.24,256.4,181110,,*10
$GPRMC,153131.000,A,3250.3148,N,11708.9021,W,30.63,256.4,181110,,*11
$GPRMC,153134.000,A,3250.3091,N,11708.9294,W,28.62,255.8,181110,,*1A
$GPRMC,153137.000,A,3250.3035,N,11708.9566,W,28.78,255.9,181110,,*17
$GPRMC,153140.000,A,3250.2977,N,11708.9846,W,28.75,256.4,181110,,*15
$GPRMC,153143.000,A,3250.2918,N,11709.0127,W,29.58,256.5,181110,,*16
$GPRMC,153146.000,A,3250.2863,N,11709.0396,W,25.44,255.7,181110,,*16
$GPRMC,153149.000,A,3250.2815,N,11709.0617,W,21.50,255.9,181110,,*1B
$GPRMC,153152.000,A,3250.2775,N,11709.0810,W,20.61,255.9,181110,,*12
$GPRMC,153155.000,A,3250.2731,N,11709.1029,W,24.61,256.3,181110,,*1B
$GPRMC,153158.000,A,3250.2683,N,11709.1262,W,25.61,256.2,181110,,*13
$GPRMC,153201.000,A,3250.2630,N,11709.1514,W,25.84,255.7,181110,,*1F
$GPRMC,153204.000,A,3250.2590,N,11709.1722,W,18.98,255.7,181110,,*17
$GPRMC,153207.000,A,3250.2564,N,11709.1882,W,15.83,257.3,181110,,*1B
$GPRMC,153210.000,A,3250.2540,N,11709.2043,W,18.93,259.9,181110,,*15
$GPRMC,153213.000,A,3250.2514,N,11709.2247,W,23.07,262.1,181110,,*14
$GPRMC,153216.000,A,3250.2492,N,11709.2491,W,27.11,264.2,181110,,*15
$GPRMC,153219.000,A,3250.2477,N,11709.2753,W,27.71,266.7,181110,,*1D
$GPRMC,153222.000,A,3250.2472,N,11709.3021,W,27.44,269.4,181110,,*19
$GPRMC,153225.000,A,3250.2482,N,11709.3312,W,30.34,272.2,181110,,*1F
$GPRMC,153228.000,A,3250.2508,N,11709.3629,W,34.02,275.3,181110,,*1B
$GPRMC,153231.000,A,3250.2544,N,11709.3970,W,35.83,278.4,181110,,*1A
$GPRMC,153234.000,A,3250.2600,N,11709.4322,W,36.73,282.2,181110,,*19
$GPRMC,153237.000,A,3250.2681,N,11709.4675,W,37.70,285.7,181110,,*14
$GPRMC,153240.000,A,3250.2784,N,11709.5040,W,39.31,289.3,181110,,*12
$GPRMC,153243.000,A,3250.2912,N,11709.5402,W,39.04,292.9,181110,,*14
$GPRMC,153246.000,A,3250.3056,N,11709.5756,W,41.10,296.8,181110,,*14
$GPRMC,153249.000,A,3250.3234,N,11709.6117,W,43.39,300.8,181110,,*1A
$GPRMC,153252.000,A,3250.3447,N,11709.6472,W,43.70,305.5,181110,,*11
$GPRMC,153255.000,A,3250.3675,N,11709.6802,W,42.69,309.9,181110,,*17
$GPRMC,153258.000,A,3250.3911,N,11709.7115,W,42.53,311.7,181110,,*17
$GPRMC,153301.000,A,3250.4150,N,11709.7426,W,41.95,311.9,181110,,*12
$GPRMC,153304.000,A,3250.4386,N,11709.7731,W,41.90,312.1,181110,,*15
$GPRMC,153307.000,A,3250.4616,N,11709.8035,W,40.68,312.1,181110,,*10
$GPRMC,153310.000,A,3250.4844,N,11709.8329,W,40.53,312.1,181110,,*19
$GPRMC,153313.000,A,3250.5079,N,11709.8634,W,42.09,312.1,181110,,*19
$GPRMC,153316.000,A,3250.5313,N,11709.8943,W,41.37,312.2,181110,,*11
$GPRMC,153319.000,A,3250.5546,N,11709.9246,W,41.23,312.3,181110,,*13
$GPRMC,153322.000,A,3250.5786,N,11709.9563,W,43.91,312.1,181110,,*1C
$GPRMC,153325.000,A,3250.6034,N,11709.9886,W,44.33,312.1,181110,,*1F
$GPRMC,153328.000,A,3250.6287,N,11710.0211,W,45.98,312.2,181110,,*1E
$GPRMC,153331.000,A,3250.6550,N,11710.0558,W,47.43,312.2,181110,,*15
$GPRMC,153334.000,A,3250.6815,N,11710.0906,W,47.29,312.0,181110,,*15
$GPRMC,153337.000,A,3250.7074,N,11710.1253,W,47.16,310.7,181110,,*1B
$GPRMC,153340.000,A,3250.7316,N,11710.1626,W,47.27,306.9,181110,,*11
$GPRMC,153343.000,A,3250.7538,N,11710.2020,W,48.46,303.0,181110,,*1F
$GPRMC,153346.000,A,3250.7742,N,11710.2449,W,50.35,298.8,181110,,*18
$GPRMC,153349.000,A,3250.7921,N,11710.2906,W,50.97,294.5,181110,,*13
$GPRMC,153352.000,A,3250.8077,N,11710.3383,W,51.97,290.6,181110,,*1C
$GPRMC,153355.000,A,3250.8199,N,11710.3879,W,53.03,285.9,181110,,*10
$GPRMC,153358.000,A,3250.8285,N,11710.4404,W,55.34,281.5,181110,,*18
$GPRMC,153401.000,A,3250.8362,N,11710.4941,W,54.93,279.9,181110,,*10
$GPRMC,153404.000,A,3250.8442,N,11710.5482,W,56.01,279.8,181110,,*1B
$GPRMC,153407.000,A,3250.8518,N,11710.6028,W,56.02,279.2,181110,,*18
$GPRMC,153410.000,A,3250.8578,N,11710.6572,W,55.56,276.6,181110,,*1B
$GPRMC,153413.000,A,3250.8599,N,11710.7119,W,56.20,272.5,181110,,*1A
$GPRMC,153416.000,A,3250.8584,N,11710.7668,W,55.47,268.0,181110,,*1E
$GPRMC,153419.000,A,3250.8540,N,11710.8212,W,54.96,264.3,181110,,*1D
$GPRMC,153422.000,A,3250.8474,N,11710.8749,W,55.48,261.8,181110,,*14
$GPRMC,153425.000,A,3250.8404,N,11710.9295,W,55.71,261.2,181110,,*11
$GPRMC,153428.000,A,3250.8333,N,11710.9845,W,56.49,261.1,181110,,*13
$GPRMC,153431.000,A,3250.8261,N,11711.0393,W,55.43,261.1,181110,,*1C
$GPRMC,153434.000,A,3250.8186,N,11711.0936,W,55.71,261.0,181110,,*16
$GPRMC,153437.000,A,3250.8112,N,11711.1481,W,55.11,260.8,181110,,*17
$GPRMC,153440.000,A,3250.8043,N,11711.2016,W,54.91,261.0,181110,,*1B
$GPRMC,153443.000,A,3250.7971,N,11711.2558,W,56.18,260.9,181110,,*1B
$GPRMC,153446.000,A,3250.7897,N,11711.3109,W,57.58,261.0,181110,,*1B
$GPRMC,153449.000,A,3250.7819,N,11711.3678,W,58.63,260.9,181110,,*1C
$GPRMC,153452.000,A,3250.7742,N,11711.4253,W,58.08,260.9,181110,,*10
$GPRMC,153455.000,A,3250.7663,N,11711.4830,W,59.29,260.9,181110,,*18
$GPRMC,153458.000,A,3250.7590,N,11711.5413,W,60.15,261.1,181110,,*1A
$GPRMC,153501.000,A,3250.7518,N,11711.6006,W,60.81,262.6,181110,,*1D
$GPRMC,153504.000,A,3250.7478,N,11711.6601,W,60.69,266.4,181110,,*1E
$GPRMC,153507.000,A,3250.7482,N,11711.7206,W,60.22,270.8,181110,,*1E
$GPRMC,153510.000,A,3250.7521,N,11711.7801,W,60.12,275.1,181110,,*12
$GPRMC,153513.000,A,3250.7597,N,11711.8387,W,59.07,280.0,181110,,*13
$GPRMC,153516.000,A,3250.7708,N,11711.8957,W,57.81,282.6,181110,,*11
$GPRMC,153519.000,A,3250.7814,N,11711.9518,W,57.33,282.7,181110,,*12
$GPRMC,153522.000,A,3250.7918,N,11712.0058,W,55.05,282.8,181110,,*14
$GPRMC,153525.000,A,3250.8020,N,11712.0584,W,54.14,283.0,181110,,*12
$GPRMC,153528.000,A,3250.8120,N,11712.1109,W,55.70,282.5,181110,,*19
$GPRMC,153531.000,A,3250.8201,N,11712.1653,W,55.06,279.0,181110,,*19
$GPRMC,153534.000,A,3250.8241,N,11712.2198,W,54.38,273.8,181110,,*15
$GPRMC,153537.000,A,3250.8240,N,11712.2735,W,54.77,268.8,181110,,*17
$GPRMC,153540.000,A,3250.8203,N,11712.3274,W,54.78,264.6,181110,,*1C
$GPRMC,153543.000,A,3250.8122,N,11712.3809,W,54.54,259.5,181110,,*1C
$GPRMC,153546.000,A,3250.7999,N,11712.4337,W,55.60,253.8,181110,,*1E
$GPRMC,153549.000,A,3250.7827,N,11712.4857,W,55.96,248.5,181110,,*16
$GPRMC,153552.000,A,3250.7620,N,11712.5356,W,55.55,244.1,181110,,*19
$GPRMC,153555.000,A,3250.7402,N,11712.5835,W,54.39,242.7,181110,,*19
$GPRMC,153558.000,A,3250.7193,N,11712.6304,W,52.53,242.8,181110,,*16
$GPRMC,153601.000,A,3250.6991,N,11712.6759,W,51.64,242.8,181110,,*19
$GPRMC,153604.000,A,3250.6789,N,11712.7215,W,52.50,242.7,181110,,*1C
$GPRMC,153607.000,A,3250.6586,N,11712.7678,W,53.80,242.7,181110,,*11
$GPRMC,153610.000,A,3250.6378,N,11712.8152,W,53.85,242.7,181110,,*15
$GPRMC,153613.000,A,3250.6170,N,11712.8625,W,55.09,242.3,181110,,*1D
$GPRMC,153616.000,A,3250.5949,N,11712.9108,W,55.70,241.3,181110,,*1D
$GPRMC,153619.000,A,3250.5724,N,11712.9592,W,55.69,241.0,181110,,*1B
$GPRMC,153622.000,A,3250.5496,N,11713.0072,W,55.69,240.8,181110,,*13
$GPRMC,153625.000,A,3250.5270,N,11713.0553,W,55.23,240.9,181110,,*13
$GPRMC,153628.000,A,3250.5045,N,11713.1029,W,54.31,240.8,181110,,*10
$GPRMC,153631.000,A,3250.4828,N,11713.1494,W,53.90,240.9,181110,,*15
$GPRMC,153634.000,A,3250.4623,N,11713.1948,W,49.67,242.5,181110,,*14
$GPRMC,153637.000,A,3250.4462,N,11713.2384,W,46.83,246.5,181110,,*18
$GPRMC,153640.000,A,3250.4327,N,11713.2807,W,45.60,249.9,181110,,*13
$GPRMC,153643.000,A,3250.4217,N,11713.3228,W,44.18,253.2,181110,,*1A
$GPRMC,153646.000,A,3250.4132,N,11713.3643,W,41.46,256.3,181110,,*18
$GPRMC,153649.000,A,3250.4061,N,11713.4035,W,39.97,257.5,181110,,*14
$GPRMC,153652.000,A,3250.3992,N,11713.4416,W,38.80,257.7,181110,,*1C
$GPRMC,153655.000,A,3250.3923,N,11713.4788,W,37.62,257.8,181110,,*19
$GPRMC,153658.000,A,3250.3855,N,11713.5156,W,40.04,257.8,181110,,*10
$GPRMC,153701.000,A,3250.3784,N,11713.5552,W,41.11,257.7,181110,,*14
$GPRMC,153704.000,A,3250.3714,N,11713.5947,W,39.44,257.8,181110,,*10
$GPRMC,153707.000,A,3250.3652,N,11713.6291,W,30.35,258.5,181110,,*1E
$GPRMC,153710.000,A,3250.3621,N,11713.6529,W,20.76,260.4,181110,,*14
$GPRMC,153713.000,A,3250.3600,N,11713.6681,W,12.95,258.6,181110,,*10
$GPRMC,153716.000,A,3250.3578,N,11713.6791,W,11.24,258.2,181110,,*14
$GPRMC,153719.000,A,3250.3562,N,11713.6886,W,10.68,258.1,181110,,*13
$GPRMC,153722.000,A,3250.3547,N,11713.6988,W,11.82,258.1,181110,,*16
$GPRMC,153725.000,A,3250.3531,N,11713.7087,W,10.96,257.7,181110,,*1A
$GPRMC,153728.000,A,3250.3512,N,11713.7198,W,12.91,257.8,181110,,*13
$GPRMC,153731.000,A,3250.3481,N,11713.7345,W,17.17,257.9,181110,,*18
$GPRMC,153734.000,A,3250.3455,N,11713.7513,W,16.71,259.6,181110,,*11
$GPRMC,153737.000,A,3250.3436,N,11713.7676,W,17.51,261.2,181110,,*1B
$GPRMC,153740.000,A,3250.3416,N,11713.7855,W,20.70,262.8,181110,,*18
$GPRMC,153743.000,A,3250.3397,N,11713.8078,W,24.97,265.4,181110,,*1B
$GPRMC,153746.000,A,3250.3388,N,11713.8342,W,28.31,268.0,181110,,*13
$GPRMC,153749.000,A,3250.3391,N,11713.8623,W,27.88,271.7,181110,,*14
$GPRMC,153752.000,A,3250.3413,N,11713.8888,W,26.00,275.7,181110,,*19
$GPRMC,153755.000,A,3250.3439,N,11713.9126,W,22.91,276.6,181110,,*14
$GPRMC,153758.000,A,3250.3459,N,11713.9326,W,18.37,276.9,181110,,*17
$GPRMC,153801.000,A,3250.3476,N,11713.9488,W,16.11,276.4,181110,,*1D
$GPRMC,153804.000,A,3250.3485,N,11713.9662,W,19.04,274.3,181110,,*1C
$GPRMC,153807.000,A,3250.3496,N,11713.9871,W,22.20,272.3,181110,,*19
$GPRMC,153810.000,A,3250.3496,N,11714.0099,W,22.88,270.4,181110,,*18
$GPRMC,153813.000,A,3250.3498,N,11714.0329,W,26.25,270.8,181110,,*12
$GPRMC,153816.000,A,3250.3512,N,11714.0598,W,27.99,275.6,181110,,*15
$GPRMC,153819.000,A,3250.3587,N,11714.0885,W,32.74,292.0,181110,,*1F
$GPRMC,153822.000,A,3250.3790,N,11714.1137,W,36.99,315.5,181110,,*1E
$GPRMC,153825.000,A,3250.4079,N,11714.1316,W,40.99,332.0,181110,,*1E
$GPRMC,153828.000,A,3250.4432,N,11714.1473,W,47.42,337.8,181110,,*10
$GPRMC,153831.000,A,3250.4839,N,11714.1622,W,49.38,342.5,181110,,*15
$GPRMC,153834.000,A,3250.5247,N,11714.1730,W,48.12,347.6,181110,,*1F
$GPRMC,153837.000,A,3250.5650,N,11714.1784,W,47.68,353.3,181110,,*13
$GPRMC,153840.000,A,3250.6055,N,11714.1796,W,48.46,0.4,181110,,*11
$GPRMC,153843.000,A,3250.6464,N,11714.1765,W,49.07,3.5,181110,,*1E
$GPRMC,153846.000,A,3250.6872,N,11714.1708,W,48.20,6.6,181110,,*19
$GPRMC,153849.000,A,3250.7265,N,11714.1648,W,46.31,7.1,181110,,*16
$GPRMC,153852.000,A,3250.7657,N,11714.1596,W,46.49,5.9,181110,,*1C
$GPRMC,153855.000,A,3250.8044,N,11714.1550,W,47.63,4.9,181110,,*12
$GPRMC,153858.000,A,3250.8454,N,11714.1494,W,51.24,7.3,181110,,*1E
$GPRMC,153901.000,A,3250.8894,N,11714.1386,W,54.47,12.2,181110,,*22
$GPRMC,153904.000,A,3250.9335,N,11714.1231,W,55.81,17.1,181110,,*26
$GPRMC,153907.000,A,3250.9768,N,11714.1018,W,55.22,22.8,181110,,*26
$GPRMC,153910.000,A,3251.0170,N,11714.0768,W,52.92,27.6,181110,,*21
$GPRMC,153913.000,A,3251.0541,N,11714.0515,W,50.21,29.3,181110,,*2D
$GPRMC,153916.000,A,3251.0916,N,11714.0266,W,52.56,28.9,181110,,*2C
$GPRMC,153919.000,A,3251.1302,N,11714.0000,W,54.00,30.1,181110,,*2B
$GPRMC,153922.000,A,3251.1691,N,11713.9726,W,55.09,30.4,181110,,*2C
$GPRMC,153925.000,A,3251.2093,N,11713.9445,W,57.18,30.4,181110,,*28
$GPRMC,153928.000,A,3251.2512,N,11713.9156,W,58.17,30.3,181110,,*29
$GPRMC,153931.000,A,3251.2942,N,11713.8881,W,58.68,26.9,181110,,*2F
$GPRMC,153934.000,A,3251.3394,N,11713.8651,W,58.78,22.1,181110,,*24
$GPRMC,153937.000,A,3251.3866,N,11713.8473,W,58.71,16.7,181110,,*2B
$GPRMC,153940.000,A,3251.4344,N,11713.8355,W,58.15,11.0,181110,,*26
$GPRMC,153943.000,A,3251.4823,N,11713.8287,W,57.23,6.5,181110,,*18
$GPRMC,153946.000,A,3251.5300,N,11713.8242,W,57.44,5.0,181110,,*18
$GPRMC,153949.000,A,3251.5778,N,11713.8199,W,56.88,4.7,181110,,*1E
$GPRMC,153952.000,A,3251.6253,N,11713.8158,W,56.97,4.7,181110,,*18
$GPRMC,153955.000,A,3251.6732,N,11713.8114,W,58.33,4.6,181110,,*14
$GPRMC,153958.000,A,3251.7225,N,11713.8069,W,60.05,5.0,181110,,*19
$GPRMC,154001.000,A,3251.7737,N,11713.8018,W,62.16,4.6,181110,,*1C
$GPRMC,154004.000,A,3251.8266,N,11713.7967,W,64.37,4.5,181110,,*1F
$GPRMC,154007.000,A,3251.8806,N,11713.7914,W,64.78,4.5,181110,,*1F
$GPRMC,154010.000,A,3251.9343,N,11713.7862,W,63.89,4.8,181110,,*16
$GPRMC,154013.000,A,3251.9870,N,11713.7812,W,62.91,4.7,181110,,*1E
$GPRMC,154016.000,A,3252.0394,N,11713.7764,W,62.99,4.7,181110,,*16
$GPRMC,154019.000,A,3252.0924,N,11713.7711,W,63.66,4.7,181110,,*1B
$GPRMC,154022.000,A,3252.1461,N,11713.7658,W,65.43,4.6,181110,,*12
$GPRMC,154025.000,A,3252.2007,N,11713.7605,W,66.11,4.6,181110,,*1E
$GPRMC,154028.000,A,3252.2555,N,11713.7553,W,65.29,4.7,181110,,*18
$GPRMC,154031.000,A,3252.3092,N,11713.7505,W,63.58,4.4,181110,,*1F
$GPRMC,154034.000,A,3252.3608,N,11713.7453,W,62.51,4.1,181110,,*10
$GPRMC,154037.000,A,3252.4134,N,11713.7398,W,61.77,4.7,181110,,*1D
$GPRMC,154040.000,A,3252.4636,N,11713.7347,W,58.71,4.7,181110,,*16
$GPRMC,154043.000,A,3252.5116,N,11713.7301,W,57.11,4.7,181110,,*1A
$GPRMC,154046.000,A,3252.5592,N,11713.7259,W,57.45,4.6,181110,,*1B
$GPRMC,154049.000,A,3252.6071,N,11713.7210,W,57.17,4.7,181110,,*14
$GPRMC,154052.000,A,3252.6549,N,11713.7167,W,57.59,4.4,181110,,*1A
$GPRMC,154055.000,A,3252.7027,N,11713.7123,W,56.46,4.7,181110,,*1D
$GPRMC,154058.000,A,3252.7494,N,11713.7076,W,56.38,4.7,181110,,*14
$GPRMC,154101.000,A,3252.7967,N,11713.7032,W,57.79,4.7,181110,,*1C
$GPRMC,154104.000,A,3252.8449,N,11713.6986,W,58.46,4.6,181110,,*12
$GPRMC,154107.000,A,3252.8945,N,11713.6940,W,60.70,4.7,181110,,*15
$GPRMC,154110.000,A,3252.9461,N,11713.6888,W,62.81,4.7,181110,,*10
$GPRMC,154113.000,A,3252.9988,N,11713.6836,W,63.22,4.5,181110,,*16
$GPRMC,154116.000,A,3253.0515,N,11713.6782,W,62.76,4.7,181110,,*11
$GPRMC,154119.000,A,3253.1035,N,11713.6732,W,62.72,4.8,181110,,*18
$GPRMC,154122.000,A,3253.1555,N,11713.6685,W,61.87,4.7,181110,,*18
$GPRMC,154125.000,A,3253.2070,N,11713.6631,W,62.47,4.5,181110,,*1C
$GPRMC,154128.000,A,3253.2589,N,11713.6580,W,62.87,4.6,181110,,*14
$GPRMC,154131.000,A,3253.3110,N,11713.6527,W,61.85,4.8,181110,,*1B
$GPRMC,154134.000,A,3253.3619,N,11713.6476,W,59.76,4.6,181110,,*1C
$GPRMC,154137.000,A,3253.4110,N,11713.6432,W,58.14,4.6,181110,,*13
$GPRMC,154140.000,A,3253.4594,N,11713.6388,W,59.39,4.5,181110,,*10
$GPRMC,154143.000,A,3253.5097,N,11713.6334,W,61.47,4.7,181110,,*13
$GPRMC,154146.000,A,3253.5620,N,11713.6281,W,63.45,5.5,181110,,*10
$GPRMC,154149.000,A,3253.6142,N,11713.6197,W,63.12,9.0,181110,,*10
$GPRMC,154152.000,A,3253.6660,N,11713.6055,W,64.36,13.2,181110,,*2A
$GPRMC,154155.000,A,3253.7177,N,11713.5868,W,65.36,17.4,181110,,*2B
$GPRMC,154158.000,A,3253.7709,N,11713.5653,W,67.51,18.6,181110,,*21
$GPRMC,154201.000,A,3253.8244,N,11713.5435,W,67.40,18.7,181110,,*2E
$GPRMC,154204.000,A,3253.8772,N,11713.5223,W,67.12,18.4,181110,,*2E
$GPRMC,154207.000,A,3253.9310,N,11713.5005,W,68.19,19.2,181110,,*29
$GPRMC,154210.000,A,3253.9842,N,11713.4779,W,66.27,19.4,181110,,*2B
$GPRMC,154213.000,A,3254.0356,N,11713.4577,W,64.44,18.0,181110,,*26
$GPRMC,154216.000,A,3254.0874,N,11713.4412,W,64.09,14.4,181110,,*2B
$GPRMC,154219.000,A,3254.1402,N,11713.4287,W,64.38,9.9,181110,,*11
$GPRMC,154222.000,A,3254.1934,N,11713.4235,W,64.11,3.7,181110,,*17
$GPRMC,154225.000,A,3254.2476,N,11713.4260,W,65.67,356.5,181110,,*19
$GPRMC,154228.000,A,3254.3016,N,11713.4354,W,63.49,351.5,181110,,*1C
$GPRMC,154231.000,A,3254.3521,N,11713.4514,W,62.34,345.3,181110,,*1F
$GPRMC,154234.000,A,3254.4006,N,11713.4733,W,61.12,339.2,181110,,*17
$GPRMC,154237.000,A,3254.4460,N,11713.5008,W,60.93,333.2,181110,,*1C
$GPRMC,154240.000,A,3254.4879,N,11713.5332,W,58.04,327.7,181110,,*17
$GPRMC,154243.000,A,3254.5263,N,11713.5665,W,56.09,325.3,181110,,*16
$GPRMC,154246.000,A,3254.5640,N,11713.5988,W,56.14,325.7,181110,,*12
$GPRMC,154249.000,A,3254.6040,N,11713.6287,W,57.50,329.6,181110,,*13
$GPRMC,154252.000,A,3254.6468,N,11713.6565,W,59.33,332.1,181110,,*1A
$GPRMC,154255.000,A,3254.6916,N,11713.6825,W,58.65,334.0,181110,,*15
$GPRMC,154258.000,A,3254.7345,N,11713.7074,W,57.11,333.7,181110,,*14
$GPRMC,154301.000,A,3254.7762,N,11713.7330,W,55.51,332.7,181110,,*1C
$GPRMC,154304.000,A,3254.8158,N,11713.7589,W,53.07,331.5,181110,,*19
$GPRMC,154307.000,A,3254.8535,N,11713.7852,W,53.51,329.1,181110,,*10
$GPRMC,154310.000,A,3254.8909,N,11713.8159,W,55.39,325.1,181110,,*1C
$GPRMC,154313.000,A,3254.9277,N,11713.8511,W,57.51,320.1,181110,,*1D
$GPRMC,154316.000,A,3254.9632,N,11713.8918,W,59.36,315.2,181110,,*12
$GPRMC,154319.000,A,3254.9963,N,11713.9375,W,61.32,310.9,181110,,*17
$GPRMC,154322.000,A,3255.0278,N,11713.9857,W,61.66,308.6,181110,,*1A
$GPRMC,154325.000,A,3255.0602,N,11714.0329,W,60.44,310.2,181110,,*14
$GPRMC,154328.000,A,3255.0934,N,11714.0763,W,58.07,313.0,181110,,*14
$GPRMC,154331.000,A,3255.1276,N,11714.1167,W,57.63,316.0,181110,,*1B
$GPRMC,154334.000,A,3255.1633,N,11714.1539,W,56.55,319.4,181110,,*1B
$GPRMC,154337.000,A,3255.2017,N,11714.1887,W,59.14,322.9,181110,,*1C
$GPRMC,154340.000,A,3255.2434,N,11714.2216,W,60.40,326.6,181110,,*18
$GPRMC,154343.000,A,3255.2877,N,11714.2519,W,60.65,330.2,181110,,*1C
$GPRMC,154346.000,A,3255.3341,N,11714.2790,W,62.39,333.7,181110,,*18
$GPRMC,154349.000,A,3255.3820,N,11714.3021,W,61.21,337.7,181110,,*19
$GPRMC,154352.000,A,3255.4305,N,11714.3205,W,60.38,341.3,181110,,*10
$GPRMC,154355.000,A,3255.4808,N,11714.3364,W,62.75,343.8,181110,,*15
$GPRMC,154358.000,A,3255.5323,N,11714.3527,W,63.16,344.2,181110,,*13
$GPRMC,154401.000,A,3255.5832,N,11714.3693,W,63.07,344.1,181110,,*1C
$GPRMC,154404.000,A,3255.6340,N,11714.3859,W,62.81,344.1,181110,,*13
$GPRMC,154407.000,A,3255.6843,N,11714.4021,W,61.09,344.6,181110,,*1C
$GPRMC,154410.000,A,3255.7332,N,11714.4168,W,59.04,346.2,181110,,*1A
$GPRMC,154413.000,A,3255.7808,N,11714.4283,W,57.26,349.5,181110,,*1B
$GPRMC,154416.000,A,3255.8270,N,11714.4348,W,53.43,353.4,181110,,*1F
$GPRMC,154419.000,A,3255.8682,N,11714.4391,W,45.74,354.9,181110,,*14
$GPRMC,154422.000,A,3255.9021,N,11714.4369,W,37.04,7.8,181110,,*13
$GPRMC,154425.000,A,3255.9279,N,11714.4293,W,28.39,12.2,181110,,*21
$GPRMC,154428.000,A,3255.9460,N,11714.4232,W,17.76,13.0,181110,,*2D
$GPRMC,154431.000,A,3255.9542,N,11714.4211,W,5.12,10.4,181110,,*13
$GPRMC,154525.000,A,3255.9627,N,11714.4182,W,8.99,7.8,181110,,*2A
$GPRMC,154531.000,A,3255.9738,N,11714.4099,W,18.39,49.1,181110,,*23
$GPRMC,154534.000,A,3255.9839,N,11714.3935,W,16.97,52.2,181110,,*23
$GPRMC,154537.000,A,3255.9897,N,11714.3846,W,6.70,46.3,181110,,*1D
$GPRMC,154607.000,A,3255.9961,N,11714.3744,W,11.67,55.5,181110,,*2C
$GPRMC,154610.000,A,3256.0023,N,11714.3617,W,16.07,56.6,181110,,*29
$GPRMC,154613.000,A,3256.0104,N,11714.3474,W,16.52,56.1,181110,,*2E
$GPRMC,154616.000,A,3256.0177,N,11714.3343,W,13.20,55.9,181110,,*27
$GPRMC,154619.000,A,3256.0228,N,11714.3247,W,9.15,58.9,181110,,*14
$GPRMC,154622.000,A,3256.0253,N,11714.3186,W,5.17,62.2,181110,,*12
$GPRMC,154707.000,A,3256.0270,N,11714.3084,W,4.46,62.2,181110,,*13
$GPRMC,154710.000,A,3256.0279,N,11714.3000,W,11.55,81.2,181110,,*2B
