NMEA Sentence Code,UTC Time,Status,Latitude,Latitude Direction,Longitude,Longitude Direction,Speed (knots),Track Angle (degrees true),Date,MagneticVariation,Magnetic Variation Direction,[FAA Mode]-Optional,Checksum
$GPRMC,182309.9,A,3340.245596,N,11738.727661,W,11.3,80.8,290510,,,A*7A
$GPRMC,182312.9,A,3340.249098,N,11738.709912,W,18.6,80.9,290510,,,A*7D
$GPRMC,182315.9,A,3340.251305,N,11738.689010,W,19.8,84.3,290510,,,A*77
$GPRMC,182318.9,A,3340.251632,N,11738.671629,W,16.4,96.9,290510,,,A*7A
$GPRMC,182321.9,A,3340.245726,N,11738.658475,W,13.3,125.8,290510,,,A*4B
$GPRMC,182324.9,A,3340.237004,N,11738.654502,W,8.4,156.1,290510,,,A*71
$GPRMC,182327.9,A,3340.233373,N,11738.651204,W,6.9,129.2,290510,,,A*79
$GPRMC,182330.9,A,3340.234050,N,11738.639369,W,12.1,82.2,290510,,,A*73
$GPRMC,182333.9,A,3340.239610,N,11738.625335,W,17.7,67.3,290510,,,A*72
$GPRMC,182336.9,A,3340.248172,N,11738.608783,W,17.0,58.9,290510,,,A*75
$GPRMC,182339.9,A,3340.258707,N,11738.600685,W,11.9,15.5,290510,,,A*7A
$GPRMC,182342.9,A,3340.278286,N,11738.608423,W,24.2,337.9,290510,,,A*4C
$GPRMC,182345.9,A,3340.296235,N,11738.616963,W,21.4,342.9,290510,,,A*44
$GPRMC,182348.9,A,3340.306169,N,11738.623921,W,17.3,336.2,290510,,,A*41
$GPRMC,182351.9,A,3340.322606,N,11738.630865,W,20.5,337.1,290510,,,A*42
$GPRMC,182354.9,A,3340.341027,N,11738.640005,W,23.7,340.2,290510,,,A*4C
$GPRMC,182357.9,A,3340.362494,N,11738.651974,W,28.3,335.2,290510,,,A*40
$GPRMC,182400.9,A,3340.387436,N,11738.661876,W,28.8,340.4,290510,,,A*49
$GPRMC,182403.9,A,3340.407737,N,11738.668126,W,24.4,348.3,290510,,,A*4D
$GPRMC,182406.9,A,3340.418958,N,11738.668950,W,11.3,354.1,290510,,,A*46
$GPRMC,182454.9,A,3340.426660,N,11738.679281,W,8.6,304.8,290510,,,A*7E
$GPRMC,182457.9,A,3340.428768,N,11738.710572,W,28.3,270.1,290510,,,A*43
$GPRMC,182500.9,A,3340.425310,N,11738.757525,W,40.2,261.9,290510,,,A*40
$GPRMC,182503.9,A,3340.418507,N,11738.800876,W,43.9,256.8,290510,,,A*46
$GPRMC,182506.9,A,3340.406662,N,11738.844782,W,44.6,250.1,290510,,,A*4F
$GPRMC,182509.9,A,3340.390490,N,11738.885261,W,43.5,244.8,290510,,,A*4A
$GPRMC,182512.9,A,3340.376827,N,11738.924123,W,43.2,245.6,290510,,,A*4F
$GPRMC,182515.9,A,3340.361994,N,11738.962192,W,43.3,244.1,290510,,,A*48
$GPRMC,182518.9,A,3340.346807,N,11739.001875,W,44.7,245.6,290510,,,A*43
$GPRMC,182521.9,A,3340.331871,N,11739.044650,W,44.3,245.7,290510,,,A*45
$GPRMC,182524.9,A,3340.315596,N,11739.079367,W,37.1,238.2,290510,,,A*44
$GPRMC,182527.9,A,3340.302088,N,11739.102809,W,26.5,233.1,290510,,,A*49
$GPRMC,182530.9,A,3340.294421,N,11739.116429,W,13.5,230.3,290510,,,A*4A
$GPRMC,182548.9,A,3340.281137,N,11739.125211,W,11.5,217.5,290510,,,A*4F
$GPRMC,182551.9,A,3340.268698,N,11739.124357,W,16.7,158.8,290510,,,A*40
$GPRMC,182554.9,A,3340.251368,N,11739.110797,W,25.1,146.5,290510,,,A*4E
$GPRMC,182557.9,A,3340.229775,N,11739.095808,W,31.0,147.9,290510,,,A*46
$GPRMC,182600.9,A,3340.198321,N,11739.079242,W,39.1,158.6,290510,,,A*45
$GPRMC,182603.2,A,3340.173175,N,11739.068811,W,41.2,161.7,290510,,,A*40
$GPRMC,182606.2,A,3340.139444,N,11739.060236,W,41.4,170.6,290510,,,A*4C
$GPRMC,182609.2,A,3340.110619,N,11739.058462,W,31.7,180.8,290510,,,A*4B
$GPRMC,182612.9,A,3340.092162,N,11739.058269,W,15.7,173.8,290510,,,A*4D
$GPRMC,182700.2,A,3340.091294,N,11739.057333,W,6.7,170.1,290510,,,A*74
$GPRMC,182703.9,A,3340.034683,N,11739.073888,W,35.6,200.1,290510,,,A*49
$GPRMC,182706.9,A,3339.993825,N,11739.095035,W,44.3,205.2,290510,,,A*47
$GPRMC,182709.9,A,3339.959424,N,11739.116492,W,44.1,209.0,290510,,,A*4C
$GPRMC,182712.9,A,3339.928459,N,11739.138569,W,43.0,209.4,290510,,,A*41
$GPRMC,182715.9,A,3339.893721,N,11739.156440,W,43.6,203.6,290510,,,A*47
$GPRMC,182718.9,A,3339.857480,N,11739.171542,W,45.0,198.6,290510,,,A*4D
$GPRMC,182721.9,A,3339.822519,N,11739.183829,W,46.2,193.9,290510,,,A*4C
$GPRMC,182724.9,A,3339.779463,N,11739.192025,W,50.8,188.5,290510,,,A*4B
$GPRMC,182727.9,A,3339.739789,N,11739.197551,W,49.4,183.6,290510,,,A*44
$GPRMC,182730.9,A,3339.696844,N,11739.193614,W,50.2,176.1,290510,,,A*4D
$GPRMC,182733.9,A,3339.658378,N,11739.188205,W,46.6,170.1,290510,,,A*43
$GPRMC,182736.9,A,3339.623852,N,11739.175531,W,38.6,163.8,290510,,,A*49
$GPRMC,182739.9,A,3339.605163,N,11739.167788,W,22.1,163.3,290510,,,A*4D
$GPRMC,182742.9,A,3339.601872,N,11739.167853,W,6.2,167.4,290510,,,A*73
$GPRMC,182745.9,A,3339.595623,N,11739.164819,W,12.3,157.8,290510,,,A*46
$GPRMC,182748.9,A,3339.582451,N,11739.157387,W,19.6,157.7,290510,,,A*47
$GPRMC,182751.9,A,3339.562973,N,11739.147365,W,24.8,156.9,290510,,,A*4E
$GPRMC,182754.9,A,3339.538060,N,11739.137736,W,29.5,158.9,290510,,,A*44
$GPRMC,182757.9,A,3339.518548,N,11739.127082,W,28.2,157.0,290510,,,A*43
$GPRMC,182800.9,A,3339.494903,N,11739.114300,W,30.4,156.7,290510,,,A*48
$GPRMC,182803.9,A,3339.467971,N,11739.102480,W,33.9,158.0,290510,,,A*4D
$GPRMC,182806.9,A,3339.442809,N,11739.087045,W,34.0,155.6,290510,,,A*45
$GPRMC,182809.9,A,3339.416548,N,11739.075631,W,33.2,158.3,290510,,,A*46
$GPRMC,182812.9,A,3339.389768,N,11739.060012,W,36.1,152.0,290510,,,A*41
$GPRMC,182815.9,A,3339.365350,N,11739.040278,W,35.5,146.2,290510,,,A*47
$GPRMC,182818.9,A,3339.339455,N,11739.018656,W,36.7,142.5,290510,,,A*46
$GPRMC,182821.9,A,3339.315159,N,11738.994107,W,37.0,139.0,290510,,,A*4B
$GPRMC,182824.9,A,3339.294325,N,11738.969679,W,35.0,136.8,290510,,,A*46
$GPRMC,182827.9,A,3339.275466,N,11738.947462,W,29.0,135.0,290510,,,A*48
$GPRMC,182830.9,A,3339.266430,N,11738.931609,W,18.2,128.2,290510,,,A*4F
$GPRMC,182833.9,A,3339.259925,N,11738.919114,W,14.6,124.9,290510,,,A*47
$GPRMC,182836.9,A,3339.254814,N,11738.909308,W,11.0,124.9,290510,,,A*41
$GPRMC,182845.9,A,3339.246970,N,11738.900421,W,8.4,117.1,290510,,,A*74
$GPRMC,182848.9,A,3339.237848,N,11738.889626,W,14.4,127.8,290510,,,A*47
$GPRMC,182851.9,A,3339.230451,N,11738.874670,W,18.3,124.7,290510,,,A*4A
$GPRMC,182854.9,A,3339.216997,N,11738.857700,W,21.3,128.0,290510,,,A*4A
$GPRMC,182857.9,A,3339.207764,N,11738.842062,W,19.1,130.1,290510,,,A*4D
$GPRMC,182900.9,A,3339.196771,N,11738.826107,W,22.5,128.1,290510,,,A*44
$GPRMC,182903.9,A,3339.181387,N,11738.805694,W,28.8,130.5,290510,,,A*4A
$GPRMC,182906.9,A,3339.164135,N,11738.781198,W,32.3,129.7,290510,,,A*4D
$GPRMC,182909.9,A,3339.147691,N,11738.755492,W,31.5,130.8,290510,,,A*4E
$GPRMC,182912.9,A,3339.126401,N,11738.734295,W,32.5,134.8,290510,,,A*49
$GPRMC,182915.9,A,3339.109326,N,11738.707812,W,33.9,127.5,290510,,,A*46
$GPRMC,182918.9,A,3339.094056,N,11738.682603,W,29.3,127.8,290510,,,A*44
$GPRMC,182921.9,A,3339.078294,N,11738.675275,W,19.8,155.0,290510,,,A*48
$GPRMC,182924.9,A,3339.056421,N,11738.677483,W,25.6,180.5,290510,,,A*48
$GPRMC,182927.9,A,3339.032846,N,11738.678783,W,30.7,177.2,290510,,,A*42
$GPRMC,182930.9,A,3339.002071,N,11738.676457,W,37.4,174.1,290510,,,A*4B
$GPRMC,182933.2,A,3338.975577,N,11738.672709,W,41.0,172.7,290510,,,A*41
$GPRMC,182936.2,A,3338.939626,N,11738.666733,W,42.6,172.5,290510,,,A*40
$GPRMC,182939.2,A,3338.903924,N,11738.655962,W,44.8,162.4,290510,,,A*49
$GPRMC,182942.2,A,3338.868326,N,11738.640663,W,45.2,158.3,290510,,,A*4E
$GPRMC,182945.2,A,3338.833513,N,11738.623547,W,43.2,157.6,290510,,,A*4B
$GPRMC,182948.9,A,3338.792898,N,11738.606667,W,41.1,163.6,290510,,,A*47
$GPRMC,182951.9,A,3338.760080,N,11738.600304,W,40.6,172.6,290510,,,A*43
$GPRMC,182954.9,A,3338.722088,N,11738.600745,W,45.0,180.1,290510,,,A*40
$GPRMC,182957.9,A,3338.686584,N,11738.605198,W,42.8,185.3,290510,,,A*4E
$GPRMC,183000.9,A,3338.649885,N,11738.611183,W,44.3,185.8,290510,,,A*42
$GPRMC,183003.9,A,3338.613861,N,11738.614632,W,43.0,185.9,290510,,,A*49
$GPRMC,183006.9,A,3338.581596,N,11738.621439,W,40.6,188.8,290510,,,A*47
$GPRMC,183009.9,A,3338.551198,N,11738.629665,W,38.6,193.8,290510,,,A*49
$GPRMC,183012.9,A,3338.517392,N,11738.639814,W,41.7,198.3,290510,,,A*4F
$GPRMC,183015.9,A,3338.483126,N,11738.656590,W,43.5,203.9,290510,,,A*4A
$GPRMC,183018.9,A,3338.454805,N,11738.676111,W,42.1,213.4,290510,,,A*43
$GPRMC,183021.9,A,3338.425513,N,11738.706572,W,46.4,218.3,290510,,,A*4F
$GPRMC,183024.9,A,3338.399261,N,11738.731212,W,42.6,218.2,290510,,,A*4A
$GPRMC,183027.9,A,3338.371577,N,11738.759006,W,42.0,219.5,290510,,,A*46
$GPRMC,183030.9,A,3338.342943,N,11738.783674,W,41.3,218.1,290510,,,A*4A
$GPRMC,183033.9,A,3338.310935,N,11738.800503,W,41.0,205.3,290510,,,A*45
$GPRMC,183036.9,A,3338.273936,N,11738.814961,W,44.0,198.8,290510,,,A*43
$GPRMC,183039.2,A,3338.244620,N,11738.822953,W,46.2,192.9,290510,,,A*44
$GPRMC,183042.9,A,3338.200758,N,11738.830319,W,45.5,184.7,290510,,,A*47
$GPRMC,183045.9,A,3338.160414,N,11738.831616,W,47.3,180.6,290510,,,A*44
$GPRMC,183048.9,A,3338.123520,N,11738.834942,W,45.4,182.8,290510,,,A*4A
$GPRMC,183051.9,A,3338.084135,N,11738.838952,W,46.1,188.8,290510,,,A*4F
$GPRMC,183054.9,A,3338.048550,N,11738.850167,W,46.0,194.7,290510,,,A*4E
$GPRMC,183057.9,A,3338.017003,N,11738.867150,W,44.5,204.2,290510,,,A*4C
$GPRMC,183100.9,A,3337.985403,N,11738.889389,W,46.5,211.7,290510,,,A*43
$GPRMC,183103.9,A,3337.953704,N,11738.918293,W,47.7,217.7,290510,,,A*49
$GPRMC,183106.9,A,3337.925486,N,11738.945422,W,42.3,218.3,290510,,,A*4A
$GPRMC,183109.9,A,3337.903504,N,11738.969658,W,37.8,217.2,290510,,,A*4C
$GPRMC,183112.9,A,3337.874911,N,11738.991424,W,40.7,215.7,290510,,,A*49
$GPRMC,183115.9,A,3337.845418,N,11739.016863,W,40.3,214.9,290510,,,A*4B
$GPRMC,183118.9,A,3337.815577,N,11739.036466,W,38.9,208.6,290510,,,A*47
$GPRMC,183121.9,A,3337.785062,N,11739.052995,W,38.5,203.7,290510,,,A*4F
$GPRMC,183124.9,A,3337.755729,N,11739.065567,W,37.0,198.4,290510,,,A*42
$GPRMC,183127.9,A,3337.725421,N,11739.075006,W,36.7,192.9,290510,,,A*4F
$GPRMC,183130.9,A,3337.699076,N,11739.078296,W,29.7,188.6,290510,,,A*45
$GPRMC,183133.9,A,3337.686516,N,11739.079745,W,13.6,182.7,290510,,,A*42
$GPRMC,183243.9,A,3337.676624,N,11739.083942,W,8.9,197.7,290510,,,A*76
$GPRMC,183246.9,A,3337.649837,N,11739.090569,W,27.0,193.1,290510,,,A*42
$GPRMC,183249.9,A,3337.619140,N,11739.097947,W,36.3,189.4,290510,,,A*4B
$GPRMC,183252.9,A,3337.587690,N,11739.101001,W,37.5,184.2,290510,,,A*46
$GPRMC,183255.9,A,3337.554595,N,11739.099153,W,40.2,176.8,290510,,,A*4F
$GPRMC,183258.9,A,3337.518568,N,11739.093865,W,44.2,172.0,290510,,,A*46
$GPRMC,183301.2,A,3337.488978,N,11739.086617,W,45.2,169.2,290510,,,A*43
$GPRMC,183304.9,A,3337.442937,N,11739.075528,W,45.8,169.9,290510,,,A*42
$GPRMC,183307.9,A,3337.405398,N,11739.068646,W,46.6,169.9,290510,,,A*47
$GPRMC,183310.9,A,3337.365467,N,11739.059908,W,49.0,169.9,290510,,,A*49
$GPRMC,183313.2,A,3337.335230,N,11739.052469,W,48.2,168.4,290510,,,A*4E
$GPRMC,183316.9,A,3337.286693,N,11739.041176,W,47.8,168.0,290510,,,A*4C
$GPRMC,183319.9,A,3337.244751,N,11739.031123,W,50.7,168.9,290510,,,A*45
$GPRMC,183322.2,A,3337.211141,N,11739.027865,W,51.8,174.3,290510,,,A*44
$GPRMC,183325.9,A,3337.160494,N,11739.027932,W,50.4,183.5,290510,,,A*40
$GPRMC,183328.9,A,3337.121558,N,11739.037063,W,47.8,190.3,290510,,,A*4B
$GPRMC,183331.9,A,3337.093066,N,11739.051594,W,38.4,201.0,290510,,,A*42
$GPRMC,183334.9,A,3337.066755,N,11739.067061,W,35.5,206.7,290510,,,A*4C
$GPRMC,183337.9,A,3337.043986,N,11739.085806,W,35.0,215.3,290510,,,A*4E
$GPRMC,183340.9,A,3337.018201,N,11739.109596,W,38.8,219.6,290510,,,A*49
$GPRMC,183343.9,A,3336.993605,N,11739.137011,W,39.3,222.2,290510,,,A*40
$GPRMC,183346.9,A,3336.969808,N,11739.165866,W,40.4,224.5,290510,,,A*44
$GPRMC,183349.9,A,3336.946131,N,11739.194781,W,39.8,223.5,290510,,,A*48
$GPRMC,183352.9,A,3336.920700,N,11739.218704,W,39.9,217.3,290510,,,A*4C
$GPRMC,183355.9,A,3336.888410,N,11739.239003,W,41.0,208.9,290510,,,A*4B
$GPRMC,183358.9,A,3336.855152,N,11739.257261,W,41.7,199.1,290510,,,A*4F
$GPRMC,183401.9,A,3336.821907,N,11739.266556,W,40.7,192.0,290510,,,A*45
$GPRMC,183404.9,A,3336.787283,N,11739.270532,W,42.3,184.7,290510,,,A*47
$GPRMC,183407.9,A,3336.751441,N,11739.268139,W,42.7,174.9,290510,,,A*44
$GPRMC,183410.9,A,3336.715536,N,11739.259729,W,43.8,169.3,290510,,,A*4E
$GPRMC,183413.9,A,3336.682616,N,11739.252963,W,41.8,168.1,290510,,,A*49
$GPRMC,183416.9,A,3336.647865,N,11739.248573,W,43.5,175.3,290510,,,A*48
$GPRMC,183419.9,A,3336.610123,N,11739.248414,W,45.4,182.8,290510,,,A*4A
$GPRMC,183422.9,A,3336.572851,N,11739.254763,W,44.9,189.5,290510,,,A*4D
$GPRMC,183425.9,A,3336.535913,N,11739.268751,W,47.7,199.1,290510,,,A*48
$GPRMC,183428.9,A,3336.498405,N,11739.287508,W,47.6,203.6,290510,,,A*40
$GPRMC,183431.9,A,3336.463536,N,11739.305818,W,45.3,203.1,290510,,,A*4A
$GPRMC,183434.9,A,3336.431148,N,11739.321797,W,42.9,201.0,290510,,,A*45
$GPRMC,183437.9,A,3336.394691,N,11739.335749,W,45.5,196.0,290510,,,A*4D
$GPRMC,183440.9,A,3336.357381,N,11739.346988,W,46.0,193.2,290510,,,A*40
$GPRMC,183443.9,A,3336.317833,N,11739.349485,W,49.3,184.9,290510,,,A*4B
$GPRMC,183446.9,A,3336.275845,N,11739.354966,W,52.0,184.5,290510,,,A*43
$GPRMC,183449.9,A,3336.231516,N,11739.356898,W,52.3,182.2,290510,,,A*47
$GPRMC,183452.9,A,3336.189183,N,11739.361206,W,50.6,185.7,290510,,,A*49
$GPRMC,183455.9,A,3336.148939,N,11739.371089,W,50.1,191.4,290510,,,A*4F
$GPRMC,183458.9,A,3336.107961,N,11739.383363,W,49.6,194.3,290510,,,A*43
$GPRMC,183501.9,A,3336.068751,N,11739.396472,W,48.4,195.6,290510,,,A*4F
$GPRMC,183504.9,A,3336.031801,N,11739.409989,W,46.3,196.2,290510,,,A*4A
$GPRMC,183507.9,A,3335.996442,N,11739.421924,W,44.4,195.0,290510,,,A*4C
$GPRMC,183510.9,A,3335.960246,N,11739.432220,W,43.3,194.6,290510,,,A*4B
$GPRMC,183513.9,A,3335.929337,N,11739.444859,W,40.7,197.9,290510,,,A*4C
$GPRMC,183516.9,A,3335.897738,N,11739.457496,W,36.9,198.6,290510,,,A*44
$GPRMC,183519.9,A,3335.870780,N,11739.472431,W,36.1,202.2,290510,,,A*47
$GPRMC,183522.9,A,3335.841875,N,11739.486216,W,39.1,203.1,290510,,,A*4D
$GPRMC,183525.9,A,3335.811110,N,11739.502233,W,39.7,203.1,290510,,,A*49
$GPRMC,183528.9,A,3335.780919,N,11739.517026,W,37.9,202.0,290510,,,A*40
$GPRMC,183531.9,A,3335.755641,N,11739.530345,W,30.2,201.7,290510,,,A*49
$GPRMC,183534.9,A,3335.739273,N,11739.539361,W,19.5,202.9,290510,,,A*4D
$GPRMC,183537.9,A,3335.726435,N,11739.544861,W,18.3,202.5,290510,,,A*4E
$GPRMC,183540.9,A,3335.711055,N,11739.551788,W,21.7,202.8,290510,,,A*47
$GPRMC,183543.9,A,3335.689745,N,11739.561294,W,27.8,201.2,290510,,,A*49
$GPRMC,183546.9,A,3335.665224,N,11739.573434,W,32.9,202.6,290510,,,A*41
$GPRMC,183549.9,A,3335.636813,N,11739.586356,W,36.0,199.1,290510,,,A*44
$GPRMC,183552.9,A,3335.609752,N,11739.595123,W,34.0,192.5,290510,,,A*47
$GPRMC,183555.9,A,3335.581173,N,11739.600865,W,33.9,188.8,290510,,,A*4A
$GPRMC,183558.9,A,3335.553029,N,11739.602985,W,32.7,182.1,290510,,,A*47
$GPRMC,183601.9,A,3335.528206,N,11739.601447,W,30.6,174.3,290510,,,A*43
$GPRMC,183604.9,A,3335.501728,N,11739.598580,W,32.5,173.8,290510,,,A*40
$GPRMC,183607.9,A,3335.473471,N,11739.591696,W,35.2,170.5,290510,,,A*4B
$GPRMC,183610.9,A,3335.440299,N,11739.588309,W,39.3,175.2,290510,,,A*49
$GPRMC,183613.9,A,3335.409557,N,11739.589482,W,38.2,183.8,290510,,,A*44
$GPRMC,183616.9,A,3335.377917,N,11739.595928,W,38.4,190.7,290510,,,A*4C
$GPRMC,183619.9,A,3335.347975,N,11739.603301,W,35.6,194.8,290510,,,A*4D
$GPRMC,183622.9,A,3335.317943,N,11739.612957,W,37.0,196.5,290510,,,A*47
$GPRMC,183625.9,A,3335.288436,N,11739.623355,W,36.9,194.9,290510,,,A*44
$GPRMC,183629.2,A,3335.252713,N,11739.632830,W,39.0,189.5,290510,,,A*4E
$GPRMC,183632.9,A,3335.213070,N,11739.636176,W,37.5,181.6,290510,,,A*47
$GPRMC,183635.9,A,3335.182960,N,11739.637824,W,37.5,178.6,290510,,,A*4A
$GPRMC,183638.9,A,3335.151535,N,11739.631144,W,35.2,169.3,290510,,,A*4C
$GPRMC,183641.9,A,3335.128685,N,11739.623162,W,27.4,163.5,290510,,,A*4A
$GPRMC,183644.9,A,3335.115332,N,11739.615649,W,16.8,162.1,290510,,,A*48
$GPRMC,183647.9,A,3335.106610,N,11739.610902,W,10.4,158.8,290510,,,A*43
$GPRMC,183656.9,A,3335.103116,N,11739.607862,W,7.8,146.4,290510,,,A*7F
$GPRMC,183659.9,A,3335.089476,N,11739.600889,W,16.7,152.3,290510,,,A*4F
$GPRMC,183702.9,A,3335.075128,N,11739.589635,W,21.2,147.8,290510,,,A*48
$GPRMC,183705.9,A,3335.059342,N,11739.581716,W,18.6,156.1,290510,,,A*40
$GPRMC,183708.9,A,3335.048233,N,11739.585310,W,16.5,213.4,290510,,,A*46
$GPRMC,183711.9,A,3335.036797,N,11739.603208,W,25.0,232.2,290510,,,A*49
$GPRMC,183714.9,A,3335.021890,N,11739.629647,W,33.7,234.7,290510,,,A*46
$GPRMC,183717.9,A,3335.004492,N,11739.662675,W,39.4,239.9,290510,,,A*48
$GPRMC,183720.9,A,3334.988973,N,11739.698159,W,40.0,247.0,290510,,,A*44
$GPRMC,183723.2,A,3334.979149,N,11739.727297,W,40.0,248.3,290510,,,A*4B
$GPRMC,183726.9,A,3334.965136,N,11739.779383,W,45.1,252.3,290510,,,A*40
$GPRMC,183729.9,A,3334.954454,N,11739.825965,W,48.1,252.6,290510,,,A*40
$GPRMC,183732.9,A,3334.943887,N,11739.869477,W,45.3,253.6,290510,,,A*46
$GPRMC,183735.9,A,3334.931576,N,11739.907666,W,38.3,250.4,290510,,,A*47
$GPRMC,183738.9,A,3334.921614,N,11739.939603,W,34.0,247.3,290510,,,A*4C
$GPRMC,183741.9,A,3334.913200,N,11739.970269,W,32.7,252.3,290510,,,A*42
$GPRMC,183744.9,A,3334.894949,N,11739.997906,W,34.6,235.1,290510,,,A*40
$GPRMC,183747.9,A,3334.874507,N,11740.025718,W,37.0,230.6,290510,,,A*43
$GPRMC,183750.9,A,3334.857651,N,11740.053323,W,34.3,232.6,290510,,,A*4B
$GPRMC,183753.9,A,3334.839409,N,11740.079538,W,31.4,237.8,290510,,,A*42
$GPRMC,183756.9,A,3334.831335,N,11740.106895,W,29.0,252.4,290510,,,A*46
$GPRMC,183759.9,A,3334.825136,N,11740.123649,W,14.7,244.1,290510,,,A*4E
$GPRMC,183802.9,A,3334.821954,N,11740.132516,W,8.6,245.5,290510,,,A*77
$GPRMC,183814.9,A,3334.818548,N,11740.145266,W,10.2,267.6,290510,,,A*45
$GPRMC,183817.9,A,3334.815898,N,11740.163323,W,19.6,262.3,290510,,,A*42
$GPRMC,183820.9,A,3334.813088,N,11740.184875,W,21.1,264.1,290510,,,A*40
$GPRMC,183823.9,A,3334.813165,N,11740.210559,W,27.0,269.3,290510,,,A*44
$GPRMC,183826.9,A,3334.813172,N,11740.239910,W,30.9,270.9,290510,,,A*40
$GPRMC,183829.9,A,3334.813611,N,11740.270691,W,31.5,271.6,290510,,,A*45
$GPRMC,183833.2,A,3334.815076,N,11740.304378,W,28.8,270.2,290510,,,A*44
$GPRMC,183836.2,A,3334.815235,N,11740.324753,W,18.5,271.2,290510,,,A*44
$GPRMC,183839.2,A,3334.818377,N,11740.340461,W,15.8,298.6,290510,,,A*42
$GPRMC,183842.9,A,3334.838082,N,11740.351128,W,21.2,339.0,290510,,,A*47
$GPRMC,183845.9,A,3334.861218,N,11740.361343,W,29.0,340.6,290510,,,A*43
$GPRMC,183848.9,A,3334.888620,N,11740.369253,W,30.7,351.0,290510,,,A*47
$GPRMC,183851.9,A,3334.906860,N,11740.361954,W,25.8,22.9,290510,,,A*73
$GPRMC,183854.9,A,3334.914281,N,11740.340138,W,21.8,69.6,290510,,,A*75
$GPRMC,183857.9,A,3334.898068,N,11740.320205,W,20.4,140.4,290510,,,A*48
$GPRMC,183900.9,A,3334.873884,N,11740.320540,W,26.1,177.3,290510,,,A*42
$GPRMC,183903.9,A,3334.852805,N,11740.320295,W,25.8,178.3,290510,,,A*41
$GPRMC,183906.9,A,3334.834813,N,11740.318979,W,17.3,178.9,290510,,,A*41
$GPRMC,183909.9,A,3334.825711,N,11740.318502,W,10.6,180.5,290510,,,A*4A
$GPRMC,183912.9,A,3334.819651,N,11740.319203,W,9.1,180.2,290510,,,A*75
$GPRMC,183916.2,A,3334.813312,N,11740.321214,W,7.4,189.7,290510,,,A*78
$GPRMC,183919.2,A,3334.809406,N,11740.320545,W,4.9,178.4,290510,,,A*7F
$GPRMC,183922.2,A,3334.803161,N,11740.317234,W,6.2,165.7,290510,,,A*7A
$GPRMC,183925.2,A,3334.794285,N,11740.316729,W,9.5,164.3,290510,,,A*70
$GPRMC,183928.9,A,3334.779532,N,11740.315716,W,17.0,176.6,290510,,,A*4D
$GPRMC,183931.9,A,3334.763121,N,11740.316353,W,17.7,179.4,290510,,,A*44
$GPRMC,183934.9,A,3334.748380,N,11740.314317,W,18.8,175.6,290510,,,A*4D
$GPRMC,183937.9,A,3334.732515,N,11740.313972,W,19.3,177.6,290510,,,A*4F
$GPRMC,183940.9,A,3334.716667,N,11740.309850,W,20.1,175.3,290510,,,A*4A
$GPRMC,183943.9,A,3334.698709,N,11740.310201,W,21.5,180.2,290510,,,A*4F
$GPRMC,183946.9,A,3334.681200,N,11740.312258,W,21.6,181.3,290510,,,A*43
$GPRMC,183949.9,A,3334.664663,N,11740.311770,W,21.1,179.1,290510,,,A*48
$GPRMC,183952.9,A,3334.643361,N,11740.312793,W,26.4,180.5,290510,,,A*4E
$GPRMC,183955.9,A,3334.620516,N,11740.311360,W,27.5,177.9,290510,,,A*45
$GPRMC,183958.9,A,3334.600346,N,11740.313017,W,25.3,181.4,290510,,,A*48
$GPRMC,184001.9,A,3334.578884,N,11740.313726,W,24.3,180.2,290510,,,A*40
$GPRMC,184004.9,A,3334.563757,N,11740.314200,W,17.2,181.7,290510,,,A*4D
$GPRMC,184007.9,A,3334.552047,N,11740.314404,W,14.7,179.0,290510,,,A*4E
$GPRMC,184010.9,A,3334.545661,N,11740.314895,W,9.8,182.0,290510,,,A*7F
$GPRMC,184013.9,A,3334.536080,N,11740.314821,W,13.8,181.8,290510,,,A*4E
$GPRMC,184016.9,A,3334.520367,N,11740.314217,W,19.0,181.1,290510,,,A*42
$GPRMC,184019.9,A,3334.502399,N,11740.315128,W,21.0,181.4,290510,,,A*4C
$GPRMC,184022.9,A,3334.484784,N,11740.315107,W,20.7,182.6,290510,,,A*49
$GPRMC,184025.9,A,3334.467079,N,11740.314777,W,20.8,181.0,290510,,,A*4C
$GPRMC,184028.9,A,3334.450944,N,11740.315719,W,20.3,182.0,290510,,,A*43
$GPRMC,184031.9,A,3334.432350,N,11740.315743,W,22.7,180.1,290510,,,A*4A
$GPRMC,184034.9,A,3334.412607,N,11740.314344,W,23.1,180.1,290510,,,A*4F
$GPRMC,184037.9,A,3334.396586,N,11740.313867,W,19.2,178.8,290510,,,A*44
$GPRMC,184040.9,A,3334.385679,N,11740.314285,W,13.6,180.1,290510,,,A*44
$GPRMC,184043.9,A,3334.376230,N,11740.315987,W,10.0,184.1,290510,,,A*4B
$GPRMC,184046.9,A,3334.368961,N,11740.315670,W,10.2,180.1,290510,,,A*4F
$GPRMC,184049.9,A,3334.359028,N,11740.315900,W,13.2,179.5,290510,,,A*4F
$GPRMC,184052.9,A,3334.346893,N,11740.316842,W,14.9,181.3,290510,,,A*4A
$GPRMC,184055.9,A,3334.330606,N,11740.317531,W,19.7,181.7,290510,,,A*41
$GPRMC,184058.9,A,3334.310929,N,11740.316861,W,23.6,179.8,290510,,,A*45
$GPRMC,184101.9,A,3334.289730,N,11740.316713,W,23.8,181.3,290510,,,A*47
$GPRMC,184104.9,A,3334.272550,N,11740.317770,W,22.5,180.6,290510,,,A*4E
$GPRMC,184107.9,A,3334.252784,N,11740.317495,W,24.1,180.7,290510,,,A*4F
$GPRMC,184110.9,A,3334.230019,N,11740.318884,W,26.6,185.1,290510,,,A*4B
$GPRMC,184113.9,A,3334.213820,N,11740.321150,W,18.4,186.2,290510,,,A*4E
$GPRMC,184116.9,A,3334.205886,N,11740.319915,W,10.4,177.5,290510,,,A*43
$GPRMC,184119.9,A,3334.198945,N,11740.318751,W,8.2,175.1,290510,,,A*73
$GPRMC,184122.9,A,3334.193247,N,11740.317838,W,6.9,177.9,290510,,,A*79
$GPRMC,184134.9,A,3334.184761,N,11740.317819,W,8.7,178.1,290510,,,A*7D
$GPRMC,184137.9,A,3334.173156,N,11740.318840,W,14.6,180.4,290510,,,A*49
$GPRMC,184140.9,A,3334.157452,N,11740.322324,W,17.9,184.9,290510,,,A*4B
$GPRMC,184143.9,A,3334.142804,N,11740.323165,W,19.0,183.5,290510,,,A*49
$GPRMC,184146.9,A,3334.127277,N,11740.324450,W,19.7,182.6,290510,,,A*40
$GPRMC,184149.9,A,3334.107888,N,11740.324684,W,20.5,182.7,290510,,,A*45
$GPRMC,184152.9,A,3334.089417,N,11740.327125,W,21.8,189.4,290510,,,A*49
$GPRMC,184155.9,A,3334.072436,N,11740.327613,W,22.3,183.4,290510,,,A*49
$GPRMC,184158.9,A,3334.054616,N,11740.330220,W,20.7,187.0,290510,,,A*44
$GPRMC,184201.9,A,3334.040216,N,11740.330990,W,18.0,185.3,290510,,,A*47
$GPRMC,184204.2,A,3334.026026,N,11740.331087,W,21.4,185.7,290510,,,A*4C
$GPRMC,184207.2,A,3334.007174,N,11740.334224,W,21.6,186.6,290510,,,A*44
$GPRMC,184210.2,A,3333.989711,N,11740.336828,W,21.5,185.8,290510,,,A*45
$GPRMC,184213.2,A,3333.969625,N,11740.339729,W,26.2,185.2,290510,,,A*45
$GPRMC,184216.9,A,3333.942490,N,11740.343200,W,27.0,185.8,290510,,,A*44
$GPRMC,184219.9,A,3333.920774,N,11740.345783,W,26.6,186.3,290510,,,A*41
$GPRMC,184222.9,A,3333.900291,N,11740.351345,W,25.3,186.3,290510,,,A*48
$GPRMC,184225.9,A,3333.878004,N,11740.354330,W,27.2,185.9,290510,,,A*42
$GPRMC,184228.9,A,3333.854679,N,11740.355736,W,28.5,184.6,290510,,,A*48
$GPRMC,184231.9,A,3333.833653,N,11740.359149,W,23.7,186.4,290510,,,A*42
$GPRMC,184234.9,A,3333.817730,N,11740.360965,W,19.5,187.6,290510,,,A*41
$GPRMC,184237.9,A,3333.805170,N,11740.361783,W,13.6,185.4,290510,,,A*4D
$GPRMC,184240.9,A,3333.800979,N,11740.363180,W,5.6,183.8,290510,,,A*73
$GPRMC,184243.9,A,3333.797233,N,11740.364205,W,5.1,186.9,290510,,,A*7E
$GPRMC,184246.9,A,3333.794434,N,11740.365448,W,4.6,195.5,290510,,,A*7F
$GPRMC,184249.9,A,3333.788597,N,11740.363706,W,7.1,180.0,290510,,,A*7F
$GPRMC,184252.9,A,3333.782288,N,11740.363371,W,7.7,175.2,290510,,,A*7C
$GPRMC,184255.9,A,3333.775854,N,11740.363857,W,6.3,183.3,290510,,,A*7A
$GPRMC,184258.9,A,3333.770549,N,11740.365094,W,5.8,194.0,290510,,,A*7F
$GPRMC,184301.9,A,3333.765656,N,11740.366391,W,5.6,194.8,290510,,,A*78
$GPRMC,184313.9,A,3333.756191,N,11740.367414,W,7.9,189.2,290510,,,A*77
$GPRMC,184325.9,A,3333.744041,N,11740.368872,W,4.4,187.1,290510,,,A*7D
$GPRMC,184328.9,A,3333.739977,N,11740.368478,W,4.4,182.0,290510,,,A*74
$GPRMC,184331.9,A,3333.736749,N,11740.369815,W,4.5,189.6,290510,,,A*7A
$GPRMC,184334.9,A,3333.731264,N,11740.370927,W,7.1,182.3,290510,,,A*73
$GPRMC,184337.9,A,3333.724706,N,11740.371430,W,6.0,184.1,290510,,,A*7B
$GPRMC,184340.9,A,3333.720445,N,11740.371824,W,4.7,183.7,290510,,,A*76
$GPRMC,184346.9,A,3333.712757,N,11740.373409,W,6.3,180.3,290510,,,A*71
$GPRMC,184349.9,A,3333.701777,N,11740.374960,W,12.8,190.4,290510,,,A*43
$GPRMC,184352.9,A,3333.684435,N,11740.379814,W,20.8,189.4,290510,,,A*46
$GPRMC,184355.9,A,3333.665388,N,11740.381052,W,20.5,186.0,290510,,,A*44
$GPRMC,184358.9,A,3333.649360,N,11740.383428,W,18.6,183.5,290510,,,A*42
$GPRMC,184401.9,A,3333.638178,N,11740.383736,W,17.9,182.3,290510,,,A*4F
$GPRMC,184404.9,A,3333.621286,N,11740.384369,W,19.1,183.9,290510,,,A*44
$GPRMC,184407.9,A,3333.606132,N,11740.384223,W,16.8,180.2,290510,,,A*4F
$GPRMC,184410.9,A,3333.591452,N,11740.382745,W,19.1,175.0,290510,,,A*4A
$GPRMC,184413.9,A,3333.575441,N,11740.382265,W,18.7,178.6,290510,,,A*4A
$GPRMC,184416.9,A,3333.559163,N,11740.382028,W,19.7,178.7,290510,,,A*4F
$GPRMC,184419.2,A,3333.550569,N,11740.383170,W,15.7,182.4,290510,,,A*4B
$GPRMC,184422.2,A,3333.546825,N,11740.382719,W,5.5,191.3,290510,,,A*7F
$GPRMC,184431.2,A,3333.535886,N,11740.382771,W,5.7,179.5,290510,,,A*7C
$GPRMC,184434.9,A,3333.532236,N,11740.383654,W,4.4,182.5,290510,,,A*75
$GPRMC,184437.9,A,3333.528494,N,11740.383684,W,5.5,176.3,290510,,,A*73
$GPRMC,184440.9,A,3333.522864,N,11740.383780,W,7.1,180.6,290510,,,A*75
$GPRMC,184443.9,A,3333.514324,N,11740.383333,W,9.4,178.4,290510,,,A*7E
$GPRMC,184446.9,A,3333.504493,N,11740.382634,W,12.4,179.3,290510,,,A*4E
$GPRMC,184449.9,A,3333.489049,N,11740.383481,W,17.4,181.3,290510,,,A*49
$GPRMC,184452.9,A,3333.477408,N,11740.383311,W,14.8,182.4,290510,,,A*46
$GPRMC,184455.9,A,3333.464937,N,11740.382546,W,13.9,176.6,290510,,,A*48
$GPRMC,184458.9,A,3333.455461,N,11740.381886,W,11.3,177.9,290510,,,A*4D
$GPRMC,184501.9,A,3333.447016,N,11740.381363,W,8.7,179.5,290510,,,A*79
$GPRMC,184504.9,A,3333.441470,N,11740.381076,W,7.7,173.0,290510,,,A*79
$GPRMC,184507.9,A,3333.433689,N,11740.380279,W,10.1,180.3,290510,,,A*48
$GPRMC,184510.9,A,3333.424568,N,11740.380586,W,10.4,180.8,290510,,,A*4D
$GPRMC,184513.9,A,3333.414796,N,11740.380837,W,11.6,178.2,290510,,,A*47
$GPRMC,184516.9,A,3333.405679,N,11740.380677,W,11.3,180.3,290510,,,A*4B
$GPRMC,184519.9,A,3333.396375,N,11740.379751,W,11.2,184.7,290510,,,A*42
$GPRMC,184522.9,A,3333.386305,N,11740.380493,W,11.5,178.6,290510,,,A*42
$GPRMC,184525.9,A,3333.375367,N,11740.379282,W,12.3,177.2,290510,,,A*43
$GPRMC,184528.9,A,3333.363946,N,11740.379479,W,13.4,179.3,290510,,,A*4B
$GPRMC,184531.9,A,3333.352821,N,11740.379090,W,12.2,177.1,290510,,,A*49
$GPRMC,184534.9,A,3333.345852,N,11740.378180,W,10.0,174.7,290510,,,A*4A
$GPRMC,184537.9,A,3333.337076,N,11740.377527,W,13.5,175.6,290510,,,A*42
$GPRMC,184540.9,A,3333.323939,N,11740.378392,W,15.3,180.0,290510,,,A*4E
$GPRMC,184543.9,A,3333.312848,N,11740.378319,W,12.4,178.3,290510,,,A*4F
$GPRMC,184546.9,A,3333.306861,N,11740.378980,W,5.9,180.5,290510,,,A*74
$GPRMC,184552.9,A,3333.300860,N,11740.377726,W,4.6,184.0,290510,,,A*74
$GPRMC,184555.9,A,3333.295758,N,11740.377604,W,6.6,181.8,290510,,,A*74
$GPRMC,184558.9,A,3333.289062,N,11740.377278,W,8.4,179.3,290510,,,A*75
$GPRMC,184601.9,A,3333.279780,N,11740.376646,W,10.7,176.7,290510,,,A*47
$GPRMC,184604.9,A,3333.269153,N,11740.375448,W,12.1,177.9,290510,,,A*4F
$GPRMC,184607.9,A,3333.259886,N,11740.375764,W,10.3,176.0,290510,,,A*4B
$GPRMC,184610.9,A,3333.252003,N,11740.374104,W,9.9,174.7,290510,,,A*75
$GPRMC,184613.9,A,3333.242811,N,11740.375432,W,11.0,183.4,290510,,,A*46
$GPRMC,184616.9,A,3333.235761,N,11740.377112,W,9.4,180.5,290510,,,A*71
$GPRMC,184619.9,A,3333.227173,N,11740.376632,W,10.6,178.9,290510,,,A*4D
$GPRMC,184622.9,A,3333.217164,N,11740.374029,W,12.1,174.1,290510,,,A*4F
$GPRMC,184625.9,A,3333.207798,N,11740.374818,W,11.2,180.2,290510,,,A*4E
$GPRMC,184628.9,A,3333.200359,N,11740.374039,W,10.3,179.7,290510,,,A*45
$GPRMC,184631.9,A,3333.191622,N,11740.375333,W,10.6,184.3,290510,,,A*44
$GPRMC,184634.9,A,3333.184067,N,11740.375518,W,7.6,177.3,290510,,,A*77
$GPRMC,184637.9,A,3333.177669,N,11740.373493,W,6.6,156.5,290510,,,A*70
$GPRMC,184643.9,A,3333.173779,N,11740.374648,W,6.2,178.5,290510,,,A*7C
$GPRMC,184646.9,A,3333.166620,N,11740.372982,W,8.1,177.0,290510,,,A*78
$GPRMC,184649.9,A,3333.159450,N,11740.374158,W,8.9,187.8,290510,,,A*78
$GPRMC,184652.9,A,3333.151372,N,11740.373048,W,9.3,178.9,290510,,,A*70
$GPRMC,184655.9,A,3333.141672,N,11740.373105,W,10.7,178.6,290510,,,A*48
$GPRMC,184658.9,A,3333.135075,N,11740.372034,W,8.8,178.3,290510,,,A*76
$GPRMC,184701.9,A,3333.125175,N,11740.373191,W,10.9,178.4,290510,,,A*4B
$GPRMC,184704.9,A,3333.116868,N,11740.372091,W,11.9,179.5,290510,,,A*4A
$GPRMC,184707.9,A,3333.106056,N,11740.372500,W,12.1,184.7,290510,,,A*4B
$GPRMC,184710.9,A,3333.096624,N,11740.371741,W,11.9,177.9,290510,,,A*4B
$GPRMC,184713.9,A,3333.089384,N,11740.371802,W,9.2,180.8,290510,,,A*7A
$GPRMC,184716.9,A,3333.081642,N,11740.371360,W,8.8,173.8,290510,,,A*70
$GPRMC,184719.9,A,3333.072766,N,11740.371547,W,9.5,179.1,290510,,,A*78
$GPRMC,184722.9,A,3333.063604,N,11740.371410,W,11.0,179.7,290510,,,A*4C
$GPRMC,184725.9,A,3333.054612,N,11740.371817,W,10.7,179.9,290510,,,A*4B
$GPRMC,184728.9,A,3333.048707,N,11740.369763,W,9.8,176.4,290510,,,A*7E
$GPRMC,184731.9,A,3333.038769,N,11740.370605,W,11.4,175.6,290510,,,A*44
$GPRMC,184734.9,A,3333.027529,N,11740.371151,W,12.8,180.6,290510,,,A*4B
$GPRMC,184737.9,A,3333.018609,N,11740.370241,W,10.2,176.5,290510,,,A*44
$GPRMC,184740.9,A,3333.011952,N,11740.369867,W,6.8,178.1,290510,,,A*7D
$GPRMC,184807.9,A,3332.994165,N,11740.371507,W,6.4,178.7,290510,,,A*70
$GPRMC,184810.9,A,3332.985584,N,11740.370896,W,9.8,177.9,290510,,,A*7B
$GPRMC,184813.9,A,3332.970706,N,11740.369550,W,13.9,181.0,290510,,,A*4F
$GPRMC,184816.9,A,3332.961106,N,11740.370321,W,10.3,182.2,290510,,,A*4C
$GPRMC,184819.9,A,3332.955709,N,11740.371393,W,7.6,184.2,290510,,,A*70
$GPRMC,184822.9,A,3332.951131,N,11740.370177,W,6.2,176.9,290510,,,A*7B
$GPRMC,184825.9,A,3332.947030,N,11740.369148,W,5.3,175.2,290510,,,A*75
$GPRMC,184831.9,A,3332.940166,N,11740.370585,W,6.5,184.4,290510,,,A*75
$GPRMC,184834.9,A,3332.935183,N,11740.371127,W,6.3,182.0,290510,,,A*70
$GPRMC,184837.9,A,3332.928685,N,11740.371274,W,6.9,183.9,290510,,,A*79
$GPRMC,184840.9,A,3332.924400,N,11740.372295,W,6.7,188.7,290510,,,A*7D
$GPRMC,184843.9,A,3332.916031,N,11740.372692,W,8.7,184.4,290510,,,A*7B
$GPRMC,184846.9,A,3332.906549,N,11740.373401,W,11.1,185.0,290510,,,A*47
$GPRMC,184849.9,A,3332.893760,N,11740.374907,W,15.0,184.1,290510,,,A*45
$GPRMC,184852.9,A,3332.881482,N,11740.375919,W,14.0,184.7,290510,,,A*4A
$GPRMC,184855.9,A,3332.868507,N,11740.377037,W,17.9,185.2,290510,,,A*4F
$GPRMC,184858.9,A,3332.851851,N,11740.376406,W,20.0,182.9,290510,,,A*40
$GPRMC,184901.9,A,3332.836120,N,11740.378248,W,18.1,187.8,290510,,,A*4F
$GPRMC,184904.9,A,3332.819256,N,11740.380236,W,18.2,186.5,290510,,,A*44
$GPRMC,184907.9,A,3332.807073,N,11740.382644,W,15.2,187.0,290510,,,A*47
$GPRMC,184910.9,A,3332.794543,N,11740.381793,W,14.9,183.1,290510,,,A*45
$GPRMC,184913.9,A,3332.782265,N,11740.383790,W,15.5,185.4,290510,,,A*4D
$GPRMC,184916.9,A,3332.770391,N,11740.386431,W,11.3,184.9,290510,,,A*4C
$GPRMC,184925.9,A,3332.761889,N,11740.387806,W,5.7,190.3,290510,,,A*79
$GPRMC,184928.9,A,3332.756267,N,11740.388579,W,5.8,185.1,290510,,,A*79
$GPRMC,184934.9,A,3332.746240,N,11740.390653,W,8.9,190.1,290510,,,A*7A
$GPRMC,184937.9,A,3332.734786,N,11740.393767,W,13.5,190.5,290510,,,A*44
$GPRMC,184940.9,A,3332.723726,N,11740.393841,W,13.0,186.6,290510,,,A*42
$GPRMC,184943.9,A,3332.714021,N,11740.395690,W,13.1,188.6,290510,,,A*4E
$GPRMC,184946.9,A,3332.700896,N,11740.399404,W,15.1,191.1,290510,,,A*40
$GPRMC,184949.9,A,3332.685157,N,11740.401628,W,18.5,190.2,290510,,,A*46
$GPRMC,184952.9,A,3332.670729,N,11740.404655,W,16.9,190.4,290510,,,A*42
$GPRMC,184955.9,A,3332.657643,N,11740.408590,W,16.8,191.1,290510,,,A*4E
$GPRMC,184958.9,A,3332.643647,N,11740.410493,W,17.1,188.2,290510,,,A*4A
$GPRMC,185001.9,A,3332.629349,N,11740.413616,W,17.6,192.2,290510,,,A*49
$GPRMC,185004.9,A,3332.613017,N,11740.416308,W,20.2,189.1,290510,,,A*4B
$GPRMC,185007.9,A,3332.596683,N,11740.418589,W,21.2,188.1,290510,,,A*4C
$GPRMC,185010.9,A,3332.574432,N,11740.425849,W,24.1,190.0,290510,,,A*4F
$GPRMC,185013.9,A,3332.556553,N,11740.430639,W,23.0,189.5,290510,,,A*4C
$GPRMC,185016.9,A,3332.538231,N,11740.432615,W,21.7,189.0,290510,,,A*4E
$GPRMC,185019.9,A,3332.519855,N,11740.437872,W,22.1,189.7,290510,,,A*42
$GPRMC,185022.9,A,3332.503951,N,11740.441193,W,16.8,189.3,290510,,,A*49
$GPRMC,185025.9,A,3332.495810,N,11740.441590,W,9.0,186.0,290510,,,A*79
$GPRMC,185028.9,A,3332.490834,N,11740.442146,W,5.9,163.9,290510,,,A*7C
$GPRMC,185031.9,A,3332.487925,N,11740.444265,W,5.3,195.2,290510,,,A*7F
$GPRMC,185034.9,A,3332.479566,N,11740.446779,W,10.4,192.1,290510,,,A*4D
$GPRMC,185037.9,A,3332.469336,N,11740.450107,W,12.8,192.3,290510,,,A*48
$GPRMC,185040.9,A,3332.457375,N,11740.452084,W,13.4,188.2,290510,,,A*4D
$GPRMC,185043.9,A,3332.446291,N,11740.454981,W,12.8,190.1,290510,,,A*48
$GPRMC,185046.9,A,3332.435765,N,11740.456208,W,11.4,185.8,290510,,,A*4D
$GPRMC,185049.9,A,3332.432312,N,11740.457696,W,4.7,189.0,290510,,,A*70
$GPRMC,185052.9,A,3332.429883,N,11740.457733,W,5.1,182.1,290510,,,A*70
$GPRMC,185055.9,A,3332.421993,N,11740.457938,W,8.7,185.4,290510,,,A*73
$GPRMC,185058.9,A,3332.415824,N,11740.460680,W,7.5,192.7,290510,,,A*74
$GPRMC,185101.9,A,3332.411210,N,11740.461421,W,6.2,192.3,290510,,,A*7A
$GPRMC,185104.2,A,3332.404831,N,11740.462581,W,10.4,190.4,290510,,,A*45
$GPRMC,185107.2,A,3332.396330,N,11740.464149,W,11.0,190.6,290510,,,A*41
$GPRMC,185110.2,A,3332.386195,N,11740.466309,W,12.2,190.2,290510,,,A*4A
$GPRMC,185113.9,A,3332.373376,N,11740.469797,W,13.3,193.1,290510,,,A*4B
$GPRMC,185116.9,A,3332.363326,N,11740.472450,W,12.7,188.3,290510,,,A*45
$GPRMC,185119.9,A,3332.350625,N,11740.473080,W,14.3,187.2,290510,,,A*48
$GPRMC,185122.9,A,3332.339063,N,11740.475811,W,12.9,188.0,290510,,,A*4C
$GPRMC,185125.9,A,3332.331899,N,11740.478851,W,8.7,192.8,290510,,,A*71
$GPRMC,185128.9,A,3332.328522,N,11740.481331,W,5.3,196.4,290510,,,A*73
$GPRMC,185131.9,A,3332.323637,N,11740.480640,W,5.0,178.4,290510,,,A*76
$GPRMC,185134.9,A,3332.314392,N,11740.480334,W,9.7,188.0,290510,,,A*7B
$GPRMC,185137.9,A,3332.305458,N,11740.483802,W,10.8,190.9,290510,,,A*43
$GPRMC,185140.9,A,3332.296703,N,11740.485812,W,10.4,189.1,290510,,,A*4E
$GPRMC,185143.9,A,3332.288994,N,11740.486488,W,10.5,186.3,290510,,,A*42
$GPRMC,185146.9,A,3332.280736,N,11740.487842,W,10.2,180.3,290510,,,A*43
$GPRMC,185149.9,A,3332.269830,N,11740.490152,W,11.7,187.4,290510,,,A*48
$GPRMC,185152.9,A,3332.257754,N,11740.491140,W,11.7,186.7,290510,,,A*42
$GPRMC,185155.9,A,3332.251852,N,11740.491999,W,9.5,185.7,290510,,,A*7E
$GPRMC,185158.9,A,3332.242701,N,11740.495477,W,12.4,189.6,290510,,,A*47
$GPRMC,185201.9,A,3332.234039,N,11740.495291,W,12.6,185.5,290510,,,A*46
$GPRMC,185204.9,A,3332.223192,N,11740.497279,W,13.1,182.2,290510,,,A*47
$GPRMC,185207.9,A,3332.213908,N,11740.497600,W,11.6,183.8,290510,,,A*48
$GPRMC,185210.9,A,3332.203091,N,11740.500153,W,13.7,186.0,290510,,,A*46
$GPRMC,185213.9,A,3332.190837,N,11740.501757,W,14.0,189.7,290510,,,A*43
$GPRMC,185216.9,A,3332.180472,N,11740.501563,W,13.4,182.2,290510,,,A*42
$GPRMC,185219.9,A,3332.167238,N,11740.499462,W,14.5,179.5,290510,,,A*49
$GPRMC,185222.9,A,3332.157718,N,11740.499745,W,12.6,180.6,290510,,,A*43
$GPRMC,185225.9,A,3332.146193,N,11740.501366,W,13.5,184.0,290510,,,A*44
$GPRMC,185228.9,A,3332.135602,N,11740.502092,W,11.6,182.7,290510,,,A*49
$GPRMC,185231.9,A,3332.126852,N,11740.501080,W,11.6,177.3,290510,,,A*46
$GPRMC,185234.9,A,3332.118644,N,11740.499874,W,9.9,174.7,290510,,,A*75
$GPRMC,185237.9,A,3332.112217,N,11740.499306,W,8.1,181.5,290510,,,A*71
$GPRMC,185240.9,A,3332.104777,N,11740.501683,W,10.2,192.3,290510,,,A*43
$GPRMC,185243.9,A,3332.097649,N,11740.502985,W,9.1,185.0,290510,,,A*73
$GPRMC,185246.9,A,3332.090599,N,11740.503343,W,8.2,180.3,290510,,,A*7A
$GPRMC,185249.9,A,3332.081046,N,11740.502143,W,11.6,178.1,290510,,,A*48
$GPRMC,185252.9,A,3332.070827,N,11740.502649,W,11.3,179.2,290510,,,A*49
$GPRMC,185255.9,A,3332.061878,N,11740.502539,W,10.5,178.6,290510,,,A*42
$GPRMC,185258.9,A,3332.052839,N,11740.500583,W,11.5,178.3,290510,,,A*4D
$GPRMC,185301.9,A,3332.042312,N,11740.501425,W,12.1,178.9,290510,,,A*42
$GPRMC,185304.9,A,3332.033438,N,11740.500575,W,11.3,172.8,290510,,,A*41
$GPRMC,185307.9,A,3332.024742,N,11740.501633,W,11.0,181.0,290510,,,A*4D
$GPRMC,185310.9,A,3332.016492,N,11740.498151,W,10.9,169.2,290510,,,A*4A
$GPRMC,185313.9,A,3332.007569,N,11740.496487,W,10.6,174.7,290510,,,A*4A
$GPRMC,185316.9,A,3331.998810,N,11740.493703,W,10.6,170.4,290510,,,A*4D
$GPRMC,185319.9,A,3331.989458,N,11740.492979,W,10.3,173.2,290510,,,A*40
$GPRMC,185322.9,A,3331.982901,N,11740.490368,W,9.3,164.8,290510,,,A*7E
$GPRMC,185325.9,A,3331.976694,N,11740.490609,W,9.5,174.1,290510,,,A*7D
$GPRMC,185328.9,A,3331.967185,N,11740.489331,W,10.4,171.9,290510,,,A*45
$GPRMC,185331.9,A,3331.957149,N,11740.488414,W,11.1,167.5,290510,,,A*40
$GPRMC,185334.9,A,3331.948770,N,11740.486769,W,9.6,167.0,290510,,,A*7B
$GPRMC,185337.9,A,3331.941861,N,11740.482876,W,10.0,163.5,290510,,,A*44
$GPRMC,185340.9,A,3331.933844,N,11740.479807,W,10.4,163.7,290510,,,A*42
$GPRMC,185343.9,A,3331.927008,N,11740.479270,W,6.4,171.3,290510,,,A*7E
$GPRMC,185346.9,A,3331.922986,N,11740.478382,W,4.5,169.7,290510,,,A*72
$GPRMC,185349.9,A,3331.918540,N,11740.476912,W,5.4,165.6,290510,,,A*72
$GPRMC,185352.9,A,3331.915102,N,11740.474692,W,5.0,161.1,290510,,,A*75
$GPRMC,185416.9,A,3331.905375,N,11740.472522,W,7.2,155.6,290510,,,A*7F
$GPRMC,185419.9,A,3331.897797,N,11740.467260,W,9.0,155.1,290510,,,A*7C
$GPRMC,185422.9,A,3331.888286,N,11740.463606,W,9.8,158.6,290510,,,A*7D
$GPRMC,185425.9,A,3331.881576,N,11740.457471,W,9.1,148.6,290510,,,A*76
$GPRMC,185429.2,A,3331.875107,N,11740.453197,W,9.2,154.0,290510,,,A*79
$GPRMC,185432.2,A,3331.868176,N,11740.449896,W,9.1,154.9,290510,,,A*70
$GPRMC,185435.2,A,3331.862725,N,11740.445591,W,7.6,151.8,290510,,,A*76
$GPRMC,185438.2,A,3331.856455,N,11740.441967,W,9.4,150.2,290510,,,A*7E
$GPRMC,185441.2,A,3331.848769,N,11740.436823,W,12.2,148.3,290510,,,A*46
$GPRMC,185444.2,A,3331.839363,N,11740.429800,W,13.3,146.5,290510,,,A*4C
$GPRMC,185447.2,A,3331.831801,N,11740.423113,W,10.0,144.9,290510,,,A*47
$GPRMC,185450.2,A,3331.825852,N,11740.418065,W,8.7,144.1,290510,,,A*7C
$GPRMC,185453.2,A,3331.819379,N,11740.412661,W,9.7,147.8,290510,,,A*71
$GPRMC,185456.2,A,3331.812204,N,11740.405892,W,11.0,140.4,290510,,,A*45
$GPRMC,185459.2,A,3331.805251,N,11740.399539,W,10.3,140.3,290510,,,A*47
$GPRMC,185502.2,A,3331.798145,N,11740.392542,W,10.4,138.6,290510,,,A*4F
$GPRMC,185505.9,A,3331.790504,N,11740.383278,W,11.0,133.5,290510,,,A*49
$GPRMC,185508.9,A,3331.782772,N,11740.374664,W,12.2,136.4,290510,,,A*40
$GPRMC,185511.9,A,3331.774034,N,11740.366055,W,12.5,131.3,290510,,,A*44
$GPRMC,185514.9,A,3331.766219,N,11740.357079,W,13.6,137.2,290510,,,A*46
$GPRMC,185517.9,A,3331.762438,N,11740.346286,W,14.4,122.5,290510,,,A*40
$GPRMC,185520.9,A,3331.756390,N,11740.334317,W,14.0,127.0,290510,,,A*4E
$GPRMC,185523.9,A,3331.749574,N,11740.325014,W,11.1,129.7,290510,,,A*42
$GPRMC,185526.9,A,3331.744030,N,11740.317917,W,9.1,130.5,290510,,,A*77
$GPRMC,185529.9,A,3331.738466,N,11740.310171,W,10.2,128.9,290510,,,A*45
$GPRMC,185532.9,A,3331.734546,N,11740.302055,W,11.3,124.2,290510,,,A*43
$GPRMC,185535.9,A,3331.727293,N,11740.291053,W,15.1,125.6,290510,,,A*47
$GPRMC,185538.9,A,3331.718544,N,11740.279639,W,16.1,128.3,290510,,,A*4C
$GPRMC,185541.9,A,3331.707213,N,11740.265962,W,18.0,131.0,290510,,,A*41
$GPRMC,185544.9,A,3331.696267,N,11740.250827,W,18.5,130.5,290510,,,A*49
$GPRMC,185547.9,A,3331.682897,N,11740.233587,W,22.3,130.1,290510,,,A*43
$GPRMC,185550.9,A,3331.673842,N,11740.216949,W,20.5,128.8,290510,,,A*4E
$GPRMC,185553.9,A,3331.661146,N,11740.200407,W,20.8,129.6,290510,,,A*41
$GPRMC,185556.9,A,3331.651373,N,11740.184430,W,21.1,128.2,290510,,,A*45
$GPRMC,185559.9,A,3331.635396,N,11740.166862,W,22.7,132.4,290510,,,A*4C
$GPRMC,185602.9,A,3331.620490,N,11740.153027,W,22.7,139.2,290510,,,A*46
$GPRMC,185605.9,A,3331.604158,N,11740.137424,W,23.7,142.5,290510,,,A*49
$GPRMC,185608.9,A,3331.588917,N,11740.122985,W,23.5,140.8,290510,,,A*4F
$GPRMC,185611.9,A,3331.575953,N,11740.112331,W,18.6,143.8,290510,,,A*4B
$GPRMC,185614.9,A,3331.564669,N,11740.103254,W,15.7,145.7,290510,,,A*4F
$GPRMC,185617.9,A,3331.554852,N,11740.097996,W,12.9,148.0,290510,,,A*43
$GPRMC,185620.9,A,3331.545708,N,11740.090202,W,13.3,147.1,290510,,,A*43
$GPRMC,185623.9,A,3331.535705,N,11740.080590,W,15.3,145.2,290510,,,A*40
$GPRMC,185626.9,A,3331.525748,N,11740.074366,W,14.3,152.6,290510,,,A*4A
$GPRMC,185629.9,A,3331.511808,N,11740.065547,W,17.6,152.3,290510,,,A*4F
$GPRMC,185632.9,A,3331.495650,N,11740.057186,W,19.3,157.4,290510,,,A*4A
$GPRMC,185635.9,A,3331.481543,N,11740.050328,W,16.8,155.4,290510,,,A*4E
$GPRMC,185638.9,A,3331.473160,N,11740.047827,W,11.4,161.6,290510,,,A*47
$GPRMC,185650.9,A,3331.465769,N,11740.042669,W,6.1,148.6,290510,,,A*78
$GPRMC,185653.9,A,3331.454151,N,11740.039557,W,12.4,161.9,290510,,,A*42
$GPRMC,185656.9,A,3331.446954,N,11740.035828,W,10.6,157.3,290510,,,A*4F
$GPRMC,185659.9,A,3331.438076,N,11740.032989,W,10.6,160.1,290510,,,A*4B
$GPRMC,185726.9,A,3331.421931,N,11740.022987,W,6.8,160.3,290510,,,A*74
$GPRMC,185729.9,A,3331.414015,N,11740.022079,W,8.6,165.4,290510,,,A*78
$GPRMC,185732.9,A,3331.406384,N,11740.019204,W,9.3,162.6,290510,,,A*7B
$GPRMC,185735.9,A,3331.399457,N,11740.016208,W,8.8,160.8,290510,,,A*71
$GPRMC,185738.9,A,3331.391701,N,11740.012911,W,10.8,158.1,290510,,,A*48
$GPRMC,185741.9,A,3331.380221,N,11740.008193,W,13.9,160.4,290510,,,A*44
$GPRMC,185744.9,A,3331.367883,N,11740.003132,W,17.0,164.0,290510,,,A*47
$GPRMC,185747.9,A,3331.352102,N,11739.997634,W,18.9,164.8,290510,,,A*47
$GPRMC,185750.9,A,3331.335708,N,11739.989127,W,19.9,160.2,290510,,,A*49
$GPRMC,185753.9,A,3331.322659,N,11739.983868,W,17.1,162.7,290510,,,A*40
$GPRMC,185756.9,A,3331.311625,N,11739.978916,W,14.2,159.4,290510,,,A*49
$GPRMC,185759.9,A,3331.300601,N,11739.974515,W,14.2,161.2,290510,,,A*4E
$GPRMC,185802.9,A,3331.289409,N,11739.970750,W,14.4,161.3,290510,,,A*45
$GPRMC,185805.9,A,3331.278921,N,11739.966344,W,11.9,161.3,290510,,,A*45
$GPRMC,185808.9,A,3331.271790,N,11739.961601,W,11.5,148.9,290510,,,A*4B
$GPRMC,185811.9,A,3331.263003,N,11739.957434,W,10.8,153.2,290510,,,A*41
$GPRMC,185814.9,A,3331.256455,N,11739.955325,W,8.1,161.2,290510,,,A*71
$GPRMC,185817.9,A,3331.250679,N,11739.954545,W,9.7,163.4,290510,,,A*7A
$GPRMC,185820.9,A,3331.238099,N,11739.948701,W,15.2,158.9,290510,,,A*4A
$GPRMC,185823.9,A,3331.223998,N,11739.942591,W,15.7,159.1,290510,,,A*46
$GPRMC,185826.9,A,3331.215216,N,11739.936472,W,13.3,157.2,290510,,,A*4B
$GPRMC,185829.9,A,3331.204615,N,11739.932677,W,12.4,158.1,290510,,,A*4A
$GPRMC,185832.9,A,3331.195535,N,11739.930394,W,9.9,164.6,290510,,,A*7F
$GPRMC,185835.9,A,3331.190593,N,11739.926816,W,6.9,154.6,290510,,,A*7B
$GPRMC,185838.9,A,3331.184399,N,11739.924548,W,9.2,157.3,290510,,,A*79
$GPRMC,185841.9,A,3331.175109,N,11739.920864,W,11.1,161.7,290510,,,A*4E
$GPRMC,185844.9,A,3331.167626,N,11739.919802,W,5.2,164.1,290510,,,A*7D
$GPRMC,185856.9,A,3331.165813,N,11739.913674,W,4.5,146.2,290510,,,A*74
$GPRMC,185859.9,A,3331.161239,N,11739.912978,W,5.7,157.8,290510,,,A*76
$GPRMC,185902.9,A,3331.153878,N,11739.910560,W,8.1,162.3,290510,,,A*76
$GPRMC,185905.9,A,3331.146565,N,11739.908825,W,8.1,163.2,290510,,,A*71
$GPRMC,185908.9,A,3331.140837,N,11739.905746,W,7.4,161.2,290510,,,A*7F
$GPRMC,185911.9,A,3331.133603,N,11739.903543,W,8.2,162.1,290510,,,A*72
$GPRMC,185914.9,A,3331.126539,N,11739.899905,W,8.9,161.1,290510,,,A*7D
$GPRMC,185917.9,A,3331.119606,N,11739.895959,W,9.3,159.6,290510,,,A*7F
$GPRMC,185920.9,A,3331.112917,N,11739.891954,W,9.4,155.9,290510,,,A*72
$GPRMC,185923.9,A,3331.105903,N,11739.888124,W,9.8,155.8,290510,,,A*78
$GPRMC,185926.9,A,3331.096132,N,11739.885832,W,12.3,166.0,290510,,,A*46
$GPRMC,185929.9,A,3331.084565,N,11739.881976,W,12.9,161.9,290510,,,A*4D
$GPRMC,185932.9,A,3331.074828,N,11739.876533,W,12.6,157.9,290510,,,A*43
$GPRMC,185935.9,A,3331.064171,N,11739.872656,W,13.1,159.7,290510,,,A*42
$GPRMC,185938.9,A,3331.055558,N,11739.867927,W,11.8,159.2,290510,,,A*41
$GPRMC,185941.9,A,3331.044101,N,11739.862471,W,13.4,157.7,290510,,,A*49
$GPRMC,185944.9,A,3331.033903,N,11739.857225,W,13.9,157.6,290510,,,A*4B
$GPRMC,185947.9,A,3331.021124,N,11739.852356,W,15.3,163.4,290510,,,A*4F
$GPRMC,185950.9,A,3331.009417,N,11739.847232,W,14.7,160.1,290510,,,A*42
$GPRMC,185953.9,A,3330.997377,N,11739.841863,W,15.8,158.6,290510,,,A*45
$GPRMC,185956.9,A,3330.985065,N,11739.837574,W,13.6,160.2,290510,,,A*4E
$GPRMC,185959.9,A,3330.976148,N,11739.834221,W,10.3,159.6,290510,,,A*4F
$GPRMC,190002.9,A,3330.971784,N,11739.831635,W,8.1,158.8,290510,,,A*7D
$GPRMC,190005.9,A,3330.966523,N,11739.828122,W,6.9,148.1,290510,,,A*74
$GPRMC,190008.9,A,3330.961745,N,11739.824708,W,6.6,154.6,290510,,,A*7B
$GPRMC,190032.9,A,3330.946277,N,11739.820718,W,9.5,159.6,290510,,,A*77
$GPRMC,190035.9,A,3330.937258,N,11739.817612,W,9.8,161.3,290510,,,A*77
$GPRMC,190038.9,A,3330.929042,N,11739.812560,W,10.2,159.1,290510,,,A*44
$GPRMC,190041.9,A,3330.918673,N,11739.810846,W,11.5,163.0,290510,,,A*49
$GPRMC,190044.9,A,3330.909859,N,11739.808242,W,10.2,163.9,290510,,,A*42
$GPRMC,190047.9,A,3330.901214,N,11739.804404,W,11.0,159.4,290510,,,A*45
$GPRMC,190050.9,A,3330.894504,N,11739.797619,W,9.2,155.2,290510,,,A*72
$GPRMC,190053.9,A,3330.886856,N,11739.794626,W,10.8,158.6,290510,,,A*4C
$GPRMC,190056.9,A,3330.878264,N,11739.791012,W,10.5,158.3,290510,,,A*4F
$GPRMC,190059.9,A,3330.868062,N,11739.788719,W,10.9,162.5,290510,,,A*42
$GPRMC,190102.9,A,3330.859187,N,11739.785286,W,11.6,162.6,290510,,,A*46
$GPRMC,190105.9,A,3330.851042,N,11739.781708,W,11.3,160.1,290510,,,A*46
$GPRMC,190108.9,A,3330.840318,N,11739.777900,W,13.8,161.3,290510,,,A*42
$GPRMC,190111.9,A,3330.832884,N,11739.775223,W,10.8,165.4,290510,,,A*49
$GPRMC,190114.9,A,3330.825476,N,11739.770483,W,10.0,156.6,290510,,,A*48
$GPRMC,190117.9,A,3330.818072,N,11739.767130,W,9.6,158.8,290510,,,A*70
$GPRMC,190120.9,A,3330.809792,N,11739.764185,W,11.0,158.9,290510,,,A*4E
$GPRMC,190123.9,A,3330.801206,N,11739.760275,W,11.6,158.3,290510,,,A*49
$GPRMC,190126.9,A,3330.792362,N,11739.756387,W,11.7,157.2,290510,,,A*4C
$GPRMC,190129.9,A,3330.786151,N,11739.749707,W,10.9,139.9,290510,,,A*4A
$GPRMC,190132.9,A,3330.774103,N,11739.747886,W,13.1,159.6,290510,,,A*40
$GPRMC,190135.9,A,3330.763099,N,11739.741301,W,16.0,153.0,290510,,,A*49
$GPRMC,190138.9,A,3330.749516,N,11739.737388,W,16.0,163.3,290510,,,A*4E
$GPRMC,190141.9,A,3330.739359,N,11739.731963,W,12.7,159.7,290510,,,A*4D
$GPRMC,190144.9,A,3330.731032,N,11739.729551,W,10.3,163.9,290510,,,A*4B
$GPRMC,190147.9,A,3330.721271,N,11739.727482,W,12.8,162.5,290510,,,A*49
$GPRMC,190150.9,A,3330.709983,N,11739.721402,W,14.4,159.7,290510,,,A*4D
$GPRMC,190153.9,A,3330.700101,N,11739.717017,W,11.7,162.6,290510,,,A*4F
$GPRMC,190156.9,A,3330.688534,N,11739.713570,W,14.6,160.2,290510,,,A*4B
$GPRMC,190159.9,A,3330.675997,N,11739.708289,W,16.5,160.1,290510,,,A*4A
$GPRMC,190202.9,A,3330.667070,N,11739.703667,W,11.0,160.0,290510,,,A*48
$GPRMC,190205.9,A,3330.662329,N,11739.701985,W,4.8,161.4,290510,,,A*7D
$GPRMC,190211.9,A,3330.658716,N,11739.699533,W,4.8,162.0,290510,,,A*7F
$GPRMC,190214.9,A,3330.652640,N,11739.696598,W,7.4,157.2,290510,,,A*77
$GPRMC,190217.9,A,3330.648077,N,11739.694288,W,7.3,157.4,290510,,,A*78
$GPRMC,190220.9,A,3330.641832,N,11739.690605,W,8.0,156.1,290510,,,A*71
$GPRMC,190223.9,A,3330.635596,N,11739.689379,W,8.1,160.0,290510,,,A*71
$GPRMC,190226.9,A,3330.626987,N,11739.686427,W,9.6,160.7,290510,,,A*78
$GPRMC,190229.9,A,3330.618063,N,11739.679688,W,10.8,156.8,290510,,,A*42
$GPRMC,190232.9,A,3330.608072,N,11739.677835,W,11.8,163.2,290510,,,A*42
$GPRMC,190235.9,A,3330.601009,N,11739.674030,W,11.0,157.7,290510,,,A*44
$GPRMC,190238.9,A,3330.586703,N,11739.669479,W,16.2,162.0,290510,,,A*49
$GPRMC,190241.9,A,3330.575639,N,11739.663950,W,15.1,159.7,290510,,,A*40
$GPRMC,190244.9,A,3330.561626,N,11739.657296,W,18.7,159.1,290510,,,A*45
$GPRMC,190247.9,A,3330.546360,N,11739.652072,W,19.3,161.5,290510,,,A*43
$GPRMC,190250.9,A,3330.530297,N,11739.645218,W,20.0,157.5,290510,,,A*49
$GPRMC,190253.9,A,3330.515591,N,11739.638871,W,20.2,161.4,290510,,,A*45
$GPRMC,190256.9,A,3330.499763,N,11739.631238,W,21.1,159.2,290510,,,A*4B
$GPRMC,190259.9,A,3330.482515,N,11739.624249,W,21.6,159.6,290510,,,A*4C
$GPRMC,190302.9,A,3330.462634,N,11739.615971,W,24.9,161.0,290510,,,A*48
$GPRMC,190305.9,A,3330.445453,N,11739.607448,W,24.0,161.4,290510,,,A*40
$GPRMC,190308.9,A,3330.425633,N,11739.598296,W,23.9,158.8,290510,,,A*47
$GPRMC,190311.9,A,3330.405352,N,11739.590323,W,25.4,161.5,290510,,,A*44
$GPRMC,190314.9,A,3330.383771,N,11739.581732,W,27.5,160.5,290510,,,A*4B
$GPRMC,190317.9,A,3330.360806,N,11739.571776,W,28.6,161.6,290510,,,A*4B
$GPRMC,190320.9,A,3330.339789,N,11739.562627,W,26.9,161.3,290510,,,A*48
$GPRMC,190323.9,A,3330.321542,N,11739.554845,W,23.4,160.2,290510,,,A*40
$GPRMC,190326.9,A,3330.304968,N,11739.548252,W,23.8,158.0,290510,,,A*42
$GPRMC,190329.9,A,3330.295179,N,11739.545604,W,12.7,164.0,290510,,,A*44
$GPRMC,190333.2,A,3330.286917,N,11739.541733,W,10.9,163.2,290510,,,A*4E
$GPRMC,190342.9,A,3330.272565,N,11739.539072,W,5.9,168.9,290510,,,A*78
$GPRMC,190345.9,A,3330.267307,N,11739.538941,W,5.2,171.3,290510,,,A*78
$GPRMC,190348.9,A,3330.259154,N,11739.536511,W,8.8,167.0,290510,,,A*78
$GPRMC,190351.9,A,3330.251782,N,11739.533112,W,10.7,163.5,290510,,,A*40
$GPRMC,190354.9,A,3330.240486,N,11739.530113,W,13.1,163.4,290510,,,A*44
$GPRMC,190357.9,A,3330.229964,N,11739.526604,W,13.3,166.8,290510,,,A*44
$GPRMC,190400.9,A,3330.223907,N,11739.524664,W,7.9,169.7,290510,,,A*75
$GPRMC,190403.9,A,3330.216648,N,11739.522572,W,8.4,165.4,290510,,,A*7B
$GPRMC,190406.9,A,3330.208079,N,11739.519937,W,11.2,170.2,290510,,,A*4C
$GPRMC,190409.9,A,3330.198983,N,11739.518333,W,11.0,170.8,290510,,,A*42
$GPRMC,190412.9,A,3330.192298,N,11739.517678,W,6.3,170.0,290510,,,A*7B
$GPRMC,190418.9,A,3330.186406,N,11739.514182,W,5.8,139.6,290510,,,A*77
$GPRMC,190421.9,A,3330.181067,N,11739.512416,W,6.4,166.3,290510,,,A*77
$GPRMC,190424.9,A,3330.175949,N,11739.512412,W,6.4,171.5,290510,,,A*78
$GPRMC,190427.9,A,3330.166814,N,11739.512162,W,11.0,173.4,290510,,,A*43
$GPRMC,190430.9,A,3330.155478,N,11739.512171,W,13.5,179.3,290510,,,A*4B
$GPRMC,190433.2,A,3330.145870,N,11739.510769,W,15.6,173.6,290510,,,A*41
$GPRMC,190436.2,A,3330.134745,N,11739.508251,W,13.7,173.9,290510,,,A*44
$GPRMC,190439.9,A,3330.119238,N,11739.505807,W,14.4,169.0,290510,,,A*42
$GPRMC,190442.9,A,3330.110151,N,11739.506472,W,12.0,175.3,290510,,,A*4A
$GPRMC,190445.9,A,3330.098943,N,11739.506748,W,13.8,179.6,290510,,,A*4D
$GPRMC,190448.9,A,3330.087117,N,11739.506111,W,14.0,177.2,290510,,,A*48
$GPRMC,190451.9,A,3330.074760,N,11739.503305,W,12.1,177.3,290510,,,A*4E
$GPRMC,190454.9,A,3330.068150,N,11739.505262,W,9.7,190.9,290510,,,A*7A
$GPRMC,190457.9,A,3330.058613,N,11739.505293,W,11.9,180.3,290510,,,A*48
$GPRMC,190500.9,A,3330.049165,N,11739.502809,W,11.7,173.0,290510,,,A*42
$GPRMC,190503.9,A,3330.039738,N,11739.503705,W,11.2,182.5,290510,,,A*44
$GPRMC,190506.9,A,3330.028699,N,11739.502559,W,12.7,178.7,290510,,,A*40
$GPRMC,190509.9,A,3330.020177,N,11739.503241,W,11.3,179.1,290510,,,A*4F
$GPRMC,190512.9,A,3330.011725,N,11739.502457,W,8.5,176.9,290510,,,A*7F
$GPRMC,190515.9,A,3330.005054,N,11739.501803,W,7.4,177.6,290510,,,A*72
$GPRMC,190521.9,A,3329.997129,N,11739.502940,W,4.9,189.7,290510,,,A*7F
$GPRMC,190524.9,A,3329.993522,N,11739.501038,W,4.5,153.9,290510,,,A*71
$GPRMC,190527.9,A,3329.983737,N,11739.505743,W,8.0,188.1,290510,,,A*7D
$GPRMC,190530.9,A,3329.975354,N,11739.506145,W,9.1,184.3,290510,,,A*7E
$GPRMC,190533.9,A,3329.967825,N,11739.505031,W,9.2,179.9,290510,,,A*79
$GPRMC,190536.9,A,3329.960857,N,11739.508080,W,9.1,189.5,290510,,,A*79
$GPRMC,190539.9,A,3329.952070,N,11739.507043,W,10.5,180.3,290510,,,A*49
$GPRMC,190542.9,A,3329.941361,N,11739.509141,W,12.7,184.4,290510,,,A*4A
$GPRMC,190545.9,A,3329.927853,N,11739.512019,W,14.4,188.9,290510,,,A*45
$GPRMC,190548.9,A,3329.915779,N,11739.514415,W,15.0,187.4,290510,,,A*47
$GPRMC,190551.9,A,3329.904492,N,11739.516788,W,14.1,190.0,290510,,,A*4E
$GPRMC,190554.9,A,3329.893595,N,11739.519764,W,13.4,190.2,290510,,,A*4F
$GPRMC,190557.9,A,3329.882839,N,11739.520360,W,13.3,186.8,290510,,,A*47
$GPRMC,190600.9,A,3329.875983,N,11739.522503,W,8.0,189.6,290510,,,A*77
$GPRMC,190603.9,A,3329.871734,N,11739.521478,W,5.0,177.0,290510,,,A*76
$GPRMC,190606.9,A,3329.868088,N,11739.522034,W,4.4,187.9,290510,,,A*77
$GPRMC,190627.9,A,3329.859342,N,11739.525477,W,4.8,196.5,290510,,,A*77
$GPRMC,190630.9,A,3329.850433,N,11739.527737,W,7.9,194.2,290510,,,A*7B
$GPRMC,190633.9,A,3329.843166,N,11739.529304,W,7.6,192.3,290510,,,A*7D
$GPRMC,190636.9,A,3329.836871,N,11739.530908,W,9.2,192.7,290510,,,A*75
$GPRMC,190639.9,A,3329.827783,N,11739.533480,W,11.8,196.8,290510,,,A*4E
$GPRMC,190642.9,A,3329.815805,N,11739.536885,W,12.9,194.8,290510,,,A*4E
$GPRMC,190645.9,A,3329.808064,N,11739.539694,W,9.9,193.3,290510,,,A*7D
$GPRMC,190648.9,A,3329.798720,N,11739.541937,W,10.2,193.9,290510,,,A*41
$GPRMC,190651.9,A,3329.793008,N,11739.544614,W,9.0,196.6,290510,,,A*74
$GPRMC,190654.9,A,3329.783330,N,11739.547983,W,12.0,196.5,290510,,,A*43
$GPRMC,190657.9,A,3329.769111,N,11739.552002,W,15.7,197.5,290510,,,A*40
$GPRMC,190700.9,A,3329.757583,N,11739.557756,W,16.3,199.9,290510,,,A*47
$GPRMC,190703.2,A,3329.745544,N,11739.561907,W,18.3,199.2,290510,,,A*4D
$GPRMC,190706.2,A,3329.727990,N,11739.570196,W,23.2,200.6,290510,,,A*47
$GPRMC,190709.2,A,3329.709796,N,11739.578779,W,23.8,201.5,290510,,,A*4B
$GPRMC,190712.2,A,3329.691431,N,11739.587557,W,22.7,203.1,290510,,,A*49
$GPRMC,190715.2,A,3329.675202,N,11739.595905,W,19.1,204.0,290510,,,A*42
$GPRMC,190718.9,A,3329.658513,N,11739.602846,W,16.5,196.2,290510,,,A*46
$GPRMC,190721.9,A,3329.646974,N,11739.610917,W,17.8,206.8,290510,,,A*44
$GPRMC,190724.9,A,3329.632716,N,11739.619553,W,18.9,204.6,290510,,,A*4F
$GPRMC,190727.9,A,3329.616929,N,11739.630078,W,19.3,207.6,290510,,,A*47
$GPRMC,190730.9,A,3329.606110,N,11739.637360,W,15.5,206.9,290510,,,A*4B
$GPRMC,190733.9,A,3329.594463,N,11739.643976,W,14.6,207.4,290510,,,A*41
$GPRMC,190736.9,A,3329.585243,N,11739.648485,W,14.6,204.9,290510,,,A*44
$GPRMC,190739.9,A,3329.574266,N,11739.657103,W,16.1,217.7,290510,,,A*4E
$GPRMC,190742.9,A,3329.563101,N,11739.666040,W,14.0,210.7,290510,,,A*46
$GPRMC,190745.9,A,3329.554074,N,11739.672707,W,12.6,210.0,290510,,,A*40
$GPRMC,190748.9,A,3329.547379,N,11739.677975,W,10.8,206.8,290510,,,A*4C
$GPRMC,190806.9,A,3329.537658,N,11739.685801,W,6.8,215.7,290510,,,A*7D
$GPRMC,190809.9,A,3329.528615,N,11739.692954,W,11.4,214.3,290510,,,A*4D
$GPRMC,190812.9,A,3329.518397,N,11739.699603,W,11.8,213.6,290510,,,A*43
$GPRMC,190815.9,A,3329.510230,N,11739.705791,W,13.6,219.3,290510,,,A*4D
$GPRMC,190818.9,A,3329.504088,N,11739.710680,W,9.0,212.5,290510,,,A*71
$GPRMC,190821.9,A,3329.499366,N,11739.716493,W,8.1,217.0,290510,,,A*7B
$GPRMC,190824.9,A,3329.491050,N,11739.719513,W,9.3,204.8,290510,,,A*7F
$GPRMC,190827.9,A,3329.483025,N,11739.726900,W,11.3,213.2,290510,,,A*4A
$GPRMC,190830.9,A,3329.475264,N,11739.734170,W,11.6,216.4,290510,,,A*48
$GPRMC,190833.9,A,3329.465185,N,11739.741589,W,13.2,212.9,290510,,,A*49
$GPRMC,190836.9,A,3329.457438,N,11739.748392,W,13.2,214.5,290510,,,A*41
$GPRMC,190839.9,A,3329.446218,N,11739.756129,W,15.4,213.5,290510,,,A*40
$GPRMC,190842.9,A,3329.432817,N,11739.763751,W,16.6,209.5,290510,,,A*4F
$GPRMC,190845.9,A,3329.420486,N,11739.773242,W,17.2,211.1,290510,,,A*41
$GPRMC,190848.9,A,3329.409228,N,11739.781683,W,16.3,212.2,290510,,,A*41
$GPRMC,190851.9,A,3329.397951,N,11739.790517,W,15.6,213.7,290510,,,A*40
$GPRMC,190854.9,A,3329.387208,N,11739.799049,W,14.6,213.3,290510,,,A*41
$GPRMC,190857.9,A,3329.377233,N,11739.805340,W,14.0,209.5,290510,,,A*4E
$GPRMC,190900.9,A,3329.364653,N,11739.814087,W,18.1,209.6,290510,,,A*4B
$GPRMC,190903.9,A,3329.352947,N,11739.825282,W,17.9,215.7,290510,,,A*49
$GPRMC,190906.9,A,3329.339314,N,11739.834694,W,17.9,209.2,290510,,,A*46
$GPRMC,190909.9,A,3329.325462,N,11739.842519,W,17.9,209.8,290510,,,A*4F
$GPRMC,190912.9,A,3329.313535,N,11739.853840,W,18.8,213.9,290510,,,A*46
$GPRMC,190915.9,A,3329.300564,N,11739.862998,W,17.9,210.8,290510,,,A*4D
$GPRMC,190918.9,A,3329.287673,N,11739.872599,W,17.8,211.4,290510,,,A*4B
$GPRMC,190921.9,A,3329.275106,N,11739.881543,W,18.1,210.9,290510,,,A*48
$GPRMC,190924.9,A,3329.265649,N,11739.889172,W,14.2,214.6,290510,,,A*4A
$GPRMC,190927.9,A,3329.256464,N,11739.895032,W,11.6,211.5,290510,,,A*4B
$GPRMC,190930.9,A,3329.248330,N,11739.900709,W,10.8,207.8,290510,,,A*43
$GPRMC,190933.9,A,3329.242332,N,11739.906131,W,10.4,215.0,290510,,,A*44
$GPRMC,190936.9,A,3329.232129,N,11739.914708,W,14.0,214.7,290510,,,A*47
$GPRMC,190939.9,A,3329.222984,N,11739.921685,W,13.1,209.7,290510,,,A*4E
$GPRMC,190942.9,A,3329.212358,N,11739.929882,W,13.9,210.2,290510,,,A*4E
$GPRMC,190945.9,A,3329.202490,N,11739.937310,W,13.4,212.9,290510,,,A*40
$GPRMC,190948.9,A,3329.193873,N,11739.944115,W,12.6,211.5,290510,,,A*48
$GPRMC,190951.9,A,3329.183847,N,11739.950661,W,13.1,210.0,290510,,,A*45
$GPRMC,190954.9,A,3329.174893,N,11739.957829,W,12.3,212.0,290510,,,A*45
$GPRMC,190957.9,A,3329.165455,N,11739.962332,W,11.7,200.3,290510,,,A*40
$GPRMC,191000.9,A,3329.158420,N,11739.969546,W,12.6,214.8,290510,,,A*44
$GPRMC,191003.9,A,3329.148024,N,11739.977703,W,14.6,214.6,290510,,,A*42
$GPRMC,191006.9,A,3329.137106,N,11739.986977,W,16.9,216.0,290510,,,A*44
$GPRMC,191009.9,A,3329.126205,N,11739.995031,W,14.3,208.6,290510,,,A*43
$GPRMC,191012.9,A,3329.117264,N,11740.001210,W,12.9,212.4,290510,,,A*42
$GPRMC,191015.9,A,3329.109304,N,11740.009893,W,13.1,217.5,290510,,,A*49
$GPRMC,191018.9,A,3329.098465,N,11740.019165,W,14.8,212.3,290510,,,A*41
$GPRMC,191021.9,A,3329.086761,N,11740.027746,W,16.5,213.3,290510,,,A*47
$GPRMC,191024.9,A,3329.076630,N,11740.035550,W,15.1,217.0,290510,,,A*4E
$GPRMC,191027.9,A,3329.066926,N,11740.045616,W,15.5,217.8,290510,,,A*4E
$GPRMC,191030.9,A,3329.055326,N,11740.056052,W,17.2,218.0,290510,,,A*44
$GPRMC,191033.9,A,3329.044447,N,11740.065555,W,17.8,215.7,290510,,,A*45
$GPRMC,191036.9,A,3329.031564,N,11740.076273,W,17.8,215.0,290510,,,A*44
$GPRMC,191039.9,A,3329.018913,N,11740.085670,W,17.7,213.9,290510,,,A*47
$GPRMC,191042.9,A,3329.007595,N,11740.098606,W,20.7,234.6,290510,,,A*44
$GPRMC,191045.9,A,3328.995323,N,11740.108413,W,16.7,216.3,290510,,,A*45
$GPRMC,191048.9,A,3328.986080,N,11740.115717,W,14.9,214.8,290510,,,A*4E
$GPRMC,191051.9,A,3328.974714,N,11740.124978,W,15.1,212.7,290510,,,A*44
$GPRMC,191054.9,A,3328.965632,N,11740.131323,W,12.8,214.5,290510,,,A*4E
$GPRMC,191057.9,A,3328.958388,N,11740.139247,W,12.1,217.2,290510,,,A*41
$GPRMC,191100.9,A,3328.949180,N,11740.147031,W,12.7,216.6,290510,,,A*41
$GPRMC,191103.9,A,3328.942362,N,11740.153101,W,10.9,221.5,290510,,,A*4B
$GPRMC,191106.9,A,3328.934603,N,11740.160083,W,10.5,218.2,290510,,,A*47
$GPRMC,191109.9,A,3328.930152,N,11740.162403,W,4.9,201.9,290510,,,A*7B
$GPRMC,191112.9,A,3328.928646,N,11740.164942,W,4.7,217.2,290510,,,A*76
$GPRMC,191115.9,A,3328.921384,N,11740.171722,W,11.5,217.2,290510,,,A*49
$GPRMC,191118.9,A,3328.909946,N,11740.181351,W,16.3,215.0,290510,,,A*44
$GPRMC,191121.9,A,3328.900201,N,11740.189173,W,14.2,213.4,290510,,,A*44
$GPRMC,191124.9,A,3328.891586,N,11740.197930,W,12.9,218.8,290510,,,A*4A
$GPRMC,191127.9,A,3328.884531,N,11740.204764,W,10.7,216.6,290510,,,A*4B
$GPRMC,191130.9,A,3328.875946,N,11740.210841,W,9.3,208.6,290510,,,A*71
