NMEA Sentence Code,UTC Time,Status,Latitude,Latitude Direction,Longitude,Longitude Direction,Speed (knots),Track Angle (degrees true),Date,MagneticVariation,Magnetic Variation Direction,[FAA Mode]-Optional,Checksum
$GPRMC,173052.7,A,3252.4202,N,11712.5687,W,14.00,83.50,030410,,*13
$GPRMC,173055.7,A,3252.4270,N,11712.5289,W,22.30,81.90,030410,,*13
$GPRMC,173058.7,A,3252.4291,N,11712.5109,W,18.00,83.00,030410,,*1B
$GPRMC,173101.7,A,3252.4332,N,11712.4925,W,14.20,79.60,030410,,*14
$GPRMC,173104.7,A,3252.4338,N,11712.4819,W,10.30,83.80,030410,,*1B
$GPRMC,173107.7,A,3252.4366,N,11712.4697,W,12.20,80.70,030410,,*14
$GPRMC,173110.7,A,3252.4391,N,11712.4533,W,15.90,82.90,030410,,*17
$GPRMC,173113.7,A,3252.4423,N,11712.4351,W,20.70,81.30,030410,,*19
$GPRMC,173116.7,A,3252.4429,N,11712.4062,W,26.60,83.90,030410,,*1A
$GPRMC,173119.7,A,3252.4472,N,11712.3764,W,28.80,82.20,030410,,*17
$GPRMC,173122.7,A,3252.4496,N,11712.3496,W,30.00,84.20,030410,,*1C
$GPRMC,173125.7,A,3252.4548,N,11712.3136,W,34.80,81.90,030410,,*14
$GPRMC,173128.7,A,3252.4577,N,11712.2779,W,36.60,83.40,030410,,*1A
$GPRMC,173131.7,A,3252.4640,N,11712.2384,W,37.80,80.80,030410,,*13
$GPRMC,173134.7,A,3252.4731,N,11712.1997,W,36.40,80.20,030410,,*1D
$GPRMC,173137.7,A,3252.4792,N,11712.1689,W,33.70,77.60,030410,,*1D
$GPRMC,173140.7,A,3252.4854,N,11712.1360,W,32.30,79.80,030410,,*1F
$GPRMC,173143.7,A,3252.4910,N,11712.1066,W,31.00,77.70,030410,,*19
$GPRMC,173146.7,A,3252.4941,N,11712.0791,W,30.50,80.40,030410,,*19
$GPRMC,173149.7,A,3252.4991,N,11712.0448,W,33.80,80.60,030410,,*10
$GPRMC,173152.7,A,3252.5018,N,11712.0054,W,37.40,81.00,030410,,*15
$GPRMC,173155.7,A,3252.5055,N,11711.9595,W,45.50,81.70,030410,,*1A
$GPRMC,173158.7,A,3252.5152,N,11711.9089,W,50.10,80.60,030410,,*19
$GPRMC,173201.7,A,3252.5213,N,11711.8603,W,51.30,80.00,030410,,*10
$GPRMC,173204.7,A,3252.5281,N,11711.8101,W,50.90,79.00,030410,,*16
$GPRMC,173207.7,A,3252.5353,N,11711.7603,W,51.60,79.60,030410,,*19
$GPRMC,173210.7,A,3252.5447,N,11711.7130,W,50.50,78.60,030410,,*19
$GPRMC,173213.7,A,3252.5525,N,11711.6672,W,48.10,79.50,030410,,*10
$GPRMC,173216.7,A,3252.5604,N,11711.6237,W,46.40,78.10,030410,,*1E
$GPRMC,173219.7,A,3252.5689,N,11711.5826,W,44.40,77.40,030410,,*15
$GPRMC,173222.7,A,3252.5740,N,11711.5429,W,40.30,77.70,030410,,*1A
$GPRMC,173225.7,A,3252.5798,N,11711.5136,W,32.30,76.70,030410,,*17
$GPRMC,173228.7,A,3252.5842,N,11711.4904,W,23.70,75.30,030410,,*19
$GPRMC,173231.7,A,3252.5873,N,11711.4766,W,16.40,64.80,030410,,*17
$GPRMC,173234.7,A,3252.5871,N,11711.4695,W,12.60,72.00,030410,,*14
$GPRMC,173237.7,A,3252.5883,N,11711.4521,W,17.30,81.20,030410,,*18
$GPRMC,173240.7,A,3252.5934,N,11711.4279,W,22.50,81.50,030410,,*18
$GPRMC,173243.7,A,3252.6006,N,11711.3978,W,27.60,80.20,030410,,*1D
$GPRMC,173246.7,A,3252.6063,N,11711.3699,W,31.70,80.90,030410,,*16
$GPRMC,173249.7,A,3252.6106,N,11711.3349,W,35.80,81.20,030410,,*12
$GPRMC,173252.7,A,3252.6144,N,11711.2968,W,39.40,80.50,030410,,*10
$GPRMC,173255.7,A,3252.6148,N,11711.2554,W,40.30,85.50,030410,,*14
$GPRMC,173258.7,A,3252.6139,N,11711.2149,W,42.30,87.00,030410,,*12
$GPRMC,173303.7,A,3252.6116,N,11711.1501,W,39.60,89.70,030410,,*1B
$GPRMC,173306.7,A,3252.6079,N,11711.1121,W,37.70,90.50,030410,,*15
$GPRMC,173309.7,A,3252.6079,N,11711.0737,W,38.00,89.60,030410,,*19
$GPRMC,173312.7,A,3252.6100,N,11711.0345,W,40.10,87.30,030410,,*18
$GPRMC,173315.7,A,3252.6130,N,11710.9952,W,41.30,83.30,030410,,*1F
$GPRMC,173318.7,A,3252.6190,N,11710.9526,W,42.30,81.00,030410,,*15
$GPRMC,173321.7,A,3252.6241,N,11710.9119,W,42.40,81.30,030410,,*1C
$GPRMC,173324.7,A,3252.6316,N,11710.8715,W,43.30,79.00,030410,,*13
$GPRMC,173327.7,A,3252.6389,N,11710.8292,W,43.00,79.30,030410,,*1C
$GPRMC,173330.7,A,3252.6442,N,11710.7858,W,43.80,80.50,030410,,*11
$GPRMC,173333.7,A,3252.6502,N,11710.7417,W,44.10,81.20,030410,,*18
$GPRMC,173336.7,A,3252.6563,N,11710.6987,W,44.50,80.90,030410,,*11
$GPRMC,173339.7,A,3252.6638,N,11710.6549,W,44.30,79.40,030410,,*10
$GPRMC,173342.7,A,3252.6690,N,11710.6144,W,43.70,80.50,030410,,*13
$GPRMC,173345.7,A,3252.6758,N,11710.5719,W,43.20,80.30,030410,,*1F
$GPRMC,173348.7,A,3252.6811,N,11710.5285,W,42.50,83.00,030410,,*16
$GPRMC,173351.7,A,3252.6781,N,11710.4863,W,41.80,92.10,030410,,*14
$GPRMC,173354.7,A,3252.6758,N,11710.4446,W,42.40,94.60,030410,,*10
$GPRMC,173357.7,A,3252.6682,N,11710.4047,W,39.70,100.80,030410,,*2D
$GPRMC,173400.7,A,3252.6600,N,11710.3667,W,37.30,106.60,030410,,*23
$GPRMC,173403.7,A,3252.6485,N,11710.3370,W,35.80,111.70,030410,,*22
$GPRMC,173406.7,A,3252.6455,N,11710.3046,W,33.50,108.30,030410,,*2B
$GPRMC,173409.7,A,3252.6535,N,11710.2582,W,35.30,93.50,030410,,*1A
$GPRMC,173412.7,A,3252.6590,N,11710.2132,W,38.60,86.40,030410,,*1D
$GPRMC,173415.7,A,3252.6661,N,11710.1626,W,42.30,82.30,030410,,*1D
$GPRMC,173418.7,A,3252.6748,N,11710.1169,W,43.10,81.00,030410,,*15
$GPRMC,173421.7,A,3252.6841,N,11710.0743,W,42.40,78.70,030410,,*13
$GPRMC,173424.7,A,3252.6922,N,11710.0319,W,42.90,78.50,030410,,*16
$GPRMC,173427.7,A,3252.6991,N,11709.9908,W,41.90,77.80,030410,,*17
$GPRMC,173430.7,A,3252.7051,N,11709.9496,W,42.10,80.00,030410,,*14
$GPRMC,173433.7,A,3252.7133,N,11709.9037,W,43.10,80.00,030410,,*1C
$GPRMC,173436.7,A,3252.7214,N,11709.8602,W,42.20,79.90,030410,,*13
$GPRMC,173439.7,A,3252.7290,N,11709.8180,W,39.70,78.00,030410,,*1C
$GPRMC,173442.7,A,3252.7406,N,11709.7871,W,32.30,72.10,030410,,*15
$GPRMC,173445.7,A,3252.7511,N,11709.7640,W,27.30,62.50,030410,,*18
$GPRMC,173448.7,A,3252.7554,N,11709.7472,W,21.50,64.60,030410,,*12
$GPRMC,173451.7,A,3252.7572,N,11709.7400,W,17.20,71.00,030410,,*1B
$GPRMC,173454.7,A,3252.7577,N,11709.7366,W,13.80,73.70,030410,,*17
$GPRMC,173457.7,A,3252.7604,N,11709.7228,W,18.20,70.50,030410,,*18
$GPRMC,173500.7,A,3252.7629,N,11709.7006,W,23.00,80.50,030410,,*1F
$GPRMC,173503.7,A,3252.7644,N,11709.6786,W,26.10,81.70,030410,,*1E
$GPRMC,173506.7,A,3252.7680,N,11709.6523,W,27.10,83.10,030410,,*1B
$GPRMC,173509.7,A,3252.7784,N,11709.6188,W,31.80,73.90,030410,,*1D
$GPRMC,173512.7,A,3252.7924,N,11709.5905,W,32.10,65.00,030410,,*19
$GPRMC,173515.7,A,3252.8040,N,11709.5610,W,32.10,64.50,030410,,*15
$GPRMC,173518.7,A,3252.8211,N,11709.5289,W,34.40,62.30,030410,,*19
$GPRMC,173521.7,A,3252.8434,N,11709.4923,W,39.00,58.00,030410,,*1B
$GPRMC,173524.7,A,3252.8678,N,11709.4524,W,41.60,57.30,030410,,*1A
$GPRMC,173527.7,A,3252.8871,N,11709.4167,W,41.50,56.90,030410,,*15
$GPRMC,173530.7,A,3252.9039,N,11709.3865,W,39.40,56.60,030410,,*1B
$GPRMC,173533.7,A,3252.9233,N,11709.3530,W,39.10,57.10,030410,,*1E
$GPRMC,173536.7,A,3252.9441,N,11709.3176,W,40.10,57.30,030410,,*12
$GPRMC,173539.7,A,3252.9747,N,11709.2763,W,42.70,55.80,030410,,*16
$GPRMC,173542.7,A,3252.9991,N,11709.2387,W,44.20,54.60,030410,,*1D
$GPRMC,173545.7,A,3253.0213,N,11709.2033,W,43.80,55.20,030410,,*17
$GPRMC,173548.7,A,3253.0421,N,11709.1653,W,44.30,56.20,030410,,*11
$GPRMC,173551.7,A,3253.0613,N,11709.1296,W,43.30,56.80,030410,,*1A
$GPRMC,173554.7,A,3253.0823,N,11709.0940,W,44.10,55.30,030410,,*1E
$GPRMC,173557.7,A,3253.1038,N,11709.0578,W,43.00,55.00,030410,,*1C
$GPRMC,173600.7,A,3253.1247,N,11709.0224,W,43.40,54.00,030410,,*1C
$GPRMC,173603.7,A,3253.1480,N,11708.9863,W,43.10,54.20,030410,,*14
$GPRMC,173606.7,A,3253.1710,N,11708.9489,W,44.90,54.80,030410,,*16
$GPRMC,173609.7,A,3253.1935,N,11708.9125,W,46.10,54.30,030410,,*12
$GPRMC,173612.7,A,3253.2134,N,11708.8766,W,44.60,55.10,030410,,*14
$GPRMC,173615.7,A,3253.2325,N,11708.8392,W,44.10,55.30,030410,,*1B
$GPRMC,173618.7,A,3253.2476,N,11708.8084,W,41.90,55.50,030410,,*18
$GPRMC,173621.7,A,3253.2645,N,11708.7780,W,41.50,55.80,030410,,*1D
$GPRMC,173624.7,A,3253.2828,N,11708.7444,W,41.20,56.60,030410,,*1C
$GPRMC,173627.7,A,3253.3085,N,11708.7049,W,43.60,56.00,030410,,*18
$GPRMC,173630.7,A,3253.3251,N,11708.6731,W,42.70,55.20,030410,,*1D
$GPRMC,173633.7,A,3253.3448,N,11708.6362,W,43.20,56.10,030410,,*16
$GPRMC,173636.7,A,3253.3643,N,11708.6013,W,43.40,55.50,030410,,*1E
$GPRMC,173639.7,A,3253.3857,N,11708.5651,W,43.80,55.40,030410,,*14
$GPRMC,173642.7,A,3253.4036,N,11708.5313,W,43.50,56.20,030410,,*1B
$GPRMC,173645.7,A,3253.4247,N,11708.4954,W,44.20,55.40,030410,,*15
$GPRMC,173648.7,A,3253.4475,N,11708.4577,W,43.60,55.90,030410,,*1C
$GPRMC,173651.7,A,3253.4677,N,11708.4256,W,42.40,55.40,030410,,*1E
$GPRMC,173654.7,A,3253.4882,N,11708.3939,W,41.70,53.30,030410,,*1B
$GPRMC,173657.7,A,3253.5024,N,11708.3643,W,42.80,55.90,030410,,*1F
$GPRMC,173700.7,A,3253.5222,N,11708.3310,W,41.60,55.80,030410,,*17
$GPRMC,173703.7,A,3253.5362,N,11708.3005,W,38.60,56.90,030410,,*1A
$GPRMC,173706.7,A,3253.5591,N,11708.2629,W,39.60,56.30,030410,,*17
$GPRMC,173709.7,A,3253.5770,N,11708.2275,W,41.10,57.40,030410,,*16
$GPRMC,173712.7,A,3253.5962,N,11708.1901,W,43.20,62.10,030410,,*18
$GPRMC,173715.7,A,3253.6156,N,11708.1431,W,45.50,69.80,030410,,*1E
$GPRMC,173718.7,A,3253.6208,N,11708.1032,W,43.70,76.60,030410,,*18
$GPRMC,173721.7,A,3253.6184,N,11708.0636,W,42.90,83.80,030410,,*1D
$GPRMC,173724.7,A,3253.6181,N,11708.0230,W,42.40,85.80,030410,,*14
$GPRMC,173727.7,A,3253.6234,N,11707.9798,W,42.10,85.60,030410,,*10
$GPRMC,173730.7,A,3253.6216,N,11707.9419,W,40.30,87.80,030410,,*10
$GPRMC,173733.7,A,3253.6209,N,11707.9036,W,40.70,87.80,030410,,*10
$GPRMC,173736.7,A,3253.6199,N,11707.8639,W,41.10,89.60,030410,,*10
$GPRMC,173739.7,A,3253.6244,N,11707.8149,W,42.30,89.70,030410,,*1C
$GPRMC,173742.7,A,3253.6259,N,11707.7706,W,42.50,88.40,030410,,*1A
$GPRMC,173746.7,A,3253.6250,N,11707.7204,W,41.30,88.60,030410,,*17
$GPRMC,173749.7,A,3253.6242,N,11707.6790,W,40.80,89.40,030410,,*1B
$GPRMC,173752.7,A,3253.6242,N,11707.6484,W,37.30,89.80,030410,,*10
$GPRMC,173755.7,A,3253.6239,N,11707.6115,W,36.50,91.30,030410,,*13
$GPRMC,173758.7,A,3253.6213,N,11707.5771,W,33.30,94.30,030410,,*17
$GPRMC,173801.7,A,3253.6211,N,11707.5380,W,31.50,94.90,030410,,*12
$GPRMC,173804.7,A,3253.6199,N,11707.5053,W,29.80,96.40,030410,,*12
$GPRMC,173807.7,A,3253.6133,N,11707.4776,W,29.50,96.50,030410,,*1C
$GPRMC,173810.7,A,3253.6127,N,11707.4462,W,30.00,92.70,030410,,*12
$GPRMC,173813.7,A,3253.6154,N,11707.4152,W,31.30,90.20,030410,,*16
$GPRMC,173816.7,A,3253.6189,N,11707.3726,W,34.50,88.20,030410,,*1B
$GPRMC,173819.7,A,3253.6205,N,11707.3332,W,37.00,88.10,030410,,*17
$GPRMC,173822.7,A,3253.6232,N,11707.2867,W,39.00,87.50,030410,,*14
$GPRMC,173825.7,A,3253.6209,N,11707.2585,W,35.70,89.20,030410,,*18
$GPRMC,173828.7,A,3253.6202,N,11707.2196,W,35.30,90.40,030410,,*12
$GPRMC,173831.7,A,3253.6235,N,11707.1842,W,33.20,89.70,030410,,*11
$GPRMC,173834.7,A,3253.6242,N,11707.1524,W,31.60,89.10,030410,,*19
$GPRMC,173837.7,A,3253.6284,N,11707.1303,W,26.10,84.80,030410,,*16
$GPRMC,173840.7,A,3253.6264,N,11707.1239,W,19.50,83.20,030410,,*15
$GPRMC,173843.7,A,3253.6301,N,11707.1064,W,18.50,80.60,030410,,*18
$GPRMC,173846.7,A,3253.6279,N,11707.1175,W,9.60,82.90,030410,,*2C
$GPRMC,173858.7,A,3253.6364,N,11707.1275,W,5.70,48.00,030410,,*2F
$GPRMC,173901.7,A,3253.6407,N,11707.1277,W,5.60,17.50,030410,,*2C
$GPRMC,173907.7,A,3253.6507,N,11707.1269,W,4.40,4.00,030410,,*10
$GPRMC,174210.7,A,3253.6553,N,11707.1274,W,6.60,84.60,030410,,*29
$GPRMC,174213.7,A,3253.6568,N,11707.1187,W,7.30,79.20,030410,,*2F
$GPRMC,174216.7,A,3253.6570,N,11707.1125,W,6.00,85.40,030410,,*2C
$GPRMC,174219.7,A,3253.6568,N,11707.1071,W,5.20,92.80,030410,,*21
$GPRMC,174222.7,A,3253.6555,N,11707.1023,W,4.40,109.90,030410,,*15
$GPRMC,174225.7,A,3253.6497,N,11707.1021,W,5.10,161.80,030410,,*14
$GPRMC,174228.7,A,3253.6451,N,11707.1027,W,5.80,173.60,030410,,*11
$GPRMC,174231.7,A,3253.6410,N,11707.1035,W,4.40,169.10,030410,,*1E
$GPRMC,174331.7,A,3253.6267,N,11707.1039,W,7.50,172.50,030410,,*19
$GPRMC,174334.7,A,3253.6212,N,11707.0993,W,7.00,147.80,030410,,*18
$GPRMC,174337.7,A,3253.6149,N,11707.0914,W,8.60,138.20,030410,,*12
$GPRMC,174340.7,A,3253.6117,N,11707.0784,W,9.60,116.10,030410,,*10
$GPRMC,174343.7,A,3253.6115,N,11707.0726,W,6.20,108.10,030410,,*1D
$GPRMC,174355.7,A,3253.6113,N,11707.0499,W,5.90,73.20,030410,,*2D
$GPRMC,174358.7,A,3253.6119,N,11707.0409,W,7.90,75.60,030410,,*23
$GPRMC,174401.7,A,3253.6071,N,11707.0159,W,15.80,86.70,030410,,*18
$GPRMC,174404.7,A,3253.5926,N,11706.9761,W,26.40,103.90,030410,,*2E
$GPRMC,174407.7,A,3253.5874,N,11706.9296,W,33.70,95.30,030410,,*15
$GPRMC,174410.7,A,3253.5899,N,11706.8842,W,34.80,84.30,030410,,*1A
$GPRMC,174414.7,A,3253.5973,N,11706.8333,W,35.70,78.70,030410,,*1F
$GPRMC,174417.7,A,3253.6043,N,11706.7947,W,37.60,78.20,030410,,*15
$GPRMC,174420.7,A,3253.6138,N,11706.7536,W,39.10,76.40,030410,,*17
$GPRMC,174423.7,A,3253.6218,N,11706.7159,W,39.00,76.30,030410,,*1E
$GPRMC,174426.7,A,3253.6314,N,11706.6769,W,39.00,76.00,030410,,*11
$GPRMC,174429.7,A,3253.6409,N,11706.6372,W,39.50,75.30,030410,,*1E
$GPRMC,174432.7,A,3253.6503,N,11706.5985,W,38.90,74.70,030410,,*16
$GPRMC,174435.7,A,3253.6628,N,11706.5583,W,40.40,70.00,030410,,*10
$GPRMC,174438.7,A,3253.6779,N,11706.5249,W,39.80,60.30,030410,,*19
$GPRMC,174441.7,A,3253.7002,N,11706.4955,W,40.30,50.20,030410,,*1D
$GPRMC,174444.7,A,3253.7263,N,11706.4645,W,40.50,46.50,030410,,*15
$GPRMC,174447.7,A,3253.7503,N,11706.4373,W,39.80,48.80,030410,,*17
$GPRMC,174450.7,A,3253.7699,N,11706.4070,W,39.20,57.20,030410,,*1F
$GPRMC,174453.7,A,3253.7840,N,11706.3704,W,38.90,63.40,030410,,*1E
$GPRMC,174456.7,A,3253.7962,N,11706.3368,W,36.60,66.80,030410,,*1C
$GPRMC,174459.7,A,3253.8070,N,11706.2996,W,38.20,68.60,030410,,*16
$GPRMC,174502.7,A,3253.8191,N,11706.2636,W,39.40,68.00,030410,,*13
$GPRMC,174505.7,A,3253.8308,N,11706.2267,W,38.80,68.10,030410,,*1A
$GPRMC,174508.7,A,3253.8413,N,11706.1953,W,36.60,68.10,030410,,*15
$GPRMC,174511.7,A,3253.8531,N,11706.1616,W,37.80,66.40,030410,,*16
$GPRMC,174514.7,A,3253.8703,N,11706.1262,W,39.40,64.30,030410,,*10
$GPRMC,174517.7,A,3253.8864,N,11706.0893,W,41.60,60.30,030410,,*11
$GPRMC,174520.7,A,3253.9084,N,11706.0535,W,41.60,54.80,030410,,*1F
$GPRMC,174523.7,A,3253.9278,N,11706.0202,W,39.90,55.30,030410,,*14
$GPRMC,174526.7,A,3253.9456,N,11705.9876,W,40.00,57.90,030410,,*17
$GPRMC,174529.7,A,3253.9623,N,11705.9519,W,40.80,60.10,030410,,*18
$GPRMC,174532.7,A,3253.9798,N,11705.9168,W,40.40,60.10,030410,,*1D
$GPRMC,174535.7,A,3253.9971,N,11705.8784,W,42.10,62.20,030410,,*10
$GPRMC,174538.7,A,3254.0123,N,11705.8420,W,42.30,63.00,030410,,*10
$GPRMC,174541.7,A,3254.0311,N,11705.8049,W,43.90,59.40,030410,,*10
$GPRMC,174544.7,A,3254.0513,N,11705.7688,W,44.90,57.60,030410,,*1E
$GPRMC,174547.7,A,3254.0698,N,11705.7312,W,44.50,59.10,030410,,*1E
$GPRMC,174550.7,A,3254.0840,N,11705.6927,W,43.00,64.60,030410,,*15
$GPRMC,174553.7,A,3254.0982,N,11705.6505,W,45.10,69.30,030410,,*1A
$GPRMC,174556.7,A,3254.1135,N,11705.6062,W,48.10,69.00,030410,,*10
$GPRMC,174559.7,A,3254.1263,N,11705.5636,W,47.30,70.50,030410,,*1B
$GPRMC,174602.7,A,3254.1422,N,11705.5239,W,46.00,66.00,030410,,*1E
$GPRMC,174605.7,A,3254.1566,N,11705.4873,W,42.40,63.20,030410,,*1A
$GPRMC,174608.7,A,3254.1710,N,11705.4512,W,42.30,63.70,030410,,*1C
$GPRMC,174611.7,A,3254.1846,N,11705.4166,W,41.90,64.40,030410,,*12
$GPRMC,174614.7,A,3254.2022,N,11705.3798,W,42.60,62.90,030410,,*19
$GPRMC,174617.7,A,3254.2161,N,11705.3401,W,42.60,66.70,030410,,*15
$GPRMC,174620.7,A,3254.2306,N,11705.3013,W,43.60,67.10,030410,,*13
$GPRMC,174623.7,A,3254.2466,N,11705.2554,W,44.10,67.40,030410,,*13
$GPRMC,174626.7,A,3254.2568,N,11705.2233,W,42.20,68.40,030410,,*15
$GPRMC,174629.7,A,3254.2702,N,11705.1833,W,42.90,68.60,030410,,*14
$GPRMC,174632.7,A,3254.2833,N,11705.1447,W,42.70,67.90,030410,,*12
$GPRMC,174635.7,A,3254.2961,N,11705.1054,W,42.50,67.90,030410,,*17
$GPRMC,174638.7,A,3254.3101,N,11705.0650,W,42.70,69.40,030410,,*17
$GPRMC,174641.7,A,3254.3215,N,11705.0207,W,42.10,72.70,030410,,*16
$GPRMC,174644.7,A,3254.3289,N,11704.9918,W,39.40,74.60,030410,,*15
$GPRMC,174647.7,A,3254.3356,N,11704.9544,W,39.40,75.70,030410,,*10
$GPRMC,174650.7,A,3254.3430,N,11704.9165,W,39.60,75.80,030410,,*1B
$GPRMC,174653.7,A,3254.3491,N,11704.8793,W,39.30,77.60,030410,,*14
$GPRMC,174656.7,A,3254.3576,N,11704.8379,W,40.00,77.80,030410,,*1A
$GPRMC,174659.7,A,3254.3666,N,11704.7984,W,42.00,74.90,030410,,*10
$GPRMC,174702.7,A,3254.3786,N,11704.7585,W,39.70,71.50,030410,,*1F
$GPRMC,174705.7,A,3254.3901,N,11704.7230,W,39.30,67.60,030410,,*10
$GPRMC,174708.7,A,3254.3998,N,11704.6946,W,34.00,68.80,030410,,*19
$GPRMC,174711.7,A,3254.4177,N,11704.6684,W,33.50,57.60,030410,,*1E
$GPRMC,174714.7,A,3254.4351,N,11704.6453,W,29.70,52.00,030410,,*1F
$GPRMC,174717.7,A,3254.4487,N,11704.6143,W,22.10,54.20,030410,,*1D
$GPRMC,174720.7,A,3254.4599,N,11704.6033,W,18.80,44.20,030410,,*10
$GPRMC,174723.7,A,3254.4686,N,11704.5963,W,16.80,44.40,030410,,*19
$GPRMC,174726.7,A,3254.4651,N,11704.6003,W,5.00,49.90,030410,,*20
$GPRMC,174732.7,A,3254.4619,N,11704.5996,W,4.90,55.80,030410,,*2B
$GPRMC,174735.7,A,3254.4688,N,11704.5939,W,10.40,33.90,030410,,*18
$GPRMC,174738.7,A,3254.4822,N,11704.5787,W,17.40,41.60,030410,,*1D
$GPRMC,174741.7,A,3254.5026,N,11704.5548,W,26.10,38.50,030410,,*15
$GPRMC,174744.7,A,3254.5234,N,11704.5348,W,29.90,36.70,030410,,*1C
$GPRMC,174747.7,A,3254.5470,N,11704.5178,W,32.20,31.80,030410,,*11
$GPRMC,174750.7,A,3254.5759,N,11704.4952,W,35.90,31.00,030410,,*1A
$GPRMC,174753.7,A,3254.6040,N,11704.4760,W,38.00,29.90,030410,,*1E
$GPRMC,174756.7,A,3254.6327,N,11704.4575,W,39.60,28.60,030410,,*16
$GPRMC,174759.7,A,3254.6641,N,11704.4355,W,38.20,26.90,030410,,*1C
$GPRMC,174802.7,A,3254.6917,N,11704.4177,W,36.50,26.90,030410,,*1A
$GPRMC,174805.7,A,3254.7201,N,11704.4011,W,35.70,24.90,030410,,*12
$GPRMC,174808.7,A,3254.7494,N,11704.3811,W,38.10,28.40,030410,,*10
$GPRMC,174811.7,A,3254.7802,N,11704.3626,W,39.50,28.40,030410,,*14
$GPRMC,174814.7,A,3254.8084,N,11704.3437,W,38.60,29.60,030410,,*1B
$GPRMC,174817.7,A,3254.8354,N,11704.3244,W,38.30,29.50,030410,,*12
$GPRMC,174820.7,A,3254.8626,N,11704.3059,W,37.30,30.40,030410,,*1E
$GPRMC,174823.7,A,3254.8894,N,11704.2862,W,37.30,34.10,030410,,*1A
$GPRMC,174826.7,A,3254.9140,N,11704.2628,W,36.20,39.30,030410,,*11
$GPRMC,174829.7,A,3254.9337,N,11704.2356,W,36.10,47.60,030410,,*1F
$GPRMC,174832.7,A,3254.9500,N,11704.2042,W,36.30,53.30,030410,,*13
$GPRMC,174835.7,A,3254.9745,N,11704.1689,W,40.70,50.40,030410,,*14
$GPRMC,174838.7,A,3254.9947,N,11704.1367,W,42.00,49.20,030410,,*1B
$GPRMC,174841.7,A,3255.0173,N,11704.1051,W,41.90,46.80,030410,,*1B
$GPRMC,174844.7,A,3255.0431,N,11704.0735,W,41.50,43.60,030410,,*1E
$GPRMC,174847.7,A,3255.0671,N,11704.0445,W,40.80,46.30,030410,,*13
$GPRMC,174850.7,A,3255.0855,N,11704.0132,W,40.40,54.70,030410,,*13
$GPRMC,174853.7,A,3255.1016,N,11703.9767,W,39.80,62.60,030410,,*10
$GPRMC,174856.7,A,3255.1128,N,11703.9416,W,37.40,66.80,030410,,*14
$GPRMC,174859.7,A,3255.1221,N,11703.9070,W,39.10,68.10,030410,,*19
$GPRMC,174902.7,A,3255.1389,N,11703.8734,W,39.90,60.50,030410,,*17
$GPRMC,174905.7,A,3255.1582,N,11703.8405,W,39.80,55.90,030410,,*17
$GPRMC,174908.7,A,3255.1856,N,11703.8116,W,40.80,42.50,030410,,*1D
$GPRMC,174911.7,A,3255.2172,N,11703.7933,W,41.50,33.10,030410,,*17
$GPRMC,174914.7,A,3255.2465,N,11703.7791,W,38.40,24.10,030410,,*1E
$GPRMC,174917.7,A,3255.2719,N,11703.7723,W,33.00,16.30,030410,,*10
$GPRMC,174920.7,A,3255.2930,N,11703.7677,W,27.70,12.00,030410,,*14
$GPRMC,174923.7,A,3255.3101,N,11703.7602,W,24.20,17.70,030410,,*1A
$GPRMC,174926.7,A,3255.3120,N,11703.7438,W,20.20,43.30,030410,,*16
$GPRMC,174929.7,A,3255.3133,N,11703.7185,W,26.30,73.40,030410,,*1B
$GPRMC,174932.7,A,3255.3200,N,11703.6850,W,34.60,70.50,030410,,*16
$GPRMC,174935.7,A,3255.3308,N,11703.6530,W,34.80,68.30,030410,,*12
$GPRMC,174938.7,A,3255.3449,N,11703.6207,W,36.20,63.70,030410,,*19
$GPRMC,174941.7,A,3255.3574,N,11703.5904,W,34.90,62.20,030410,,*1E
$GPRMC,174944.7,A,3255.3720,N,11703.5607,W,34.40,59.70,030410,,*14
$GPRMC,174947.7,A,3255.3936,N,11703.5305,W,36.40,52.80,030410,,*1F
$GPRMC,174950.7,A,3255.4294,N,11703.4901,W,43.80,45.00,030410,,*12
$GPRMC,174953.7,A,3255.4588,N,11703.4592,W,44.40,41.60,030410,,*14
$GPRMC,174956.7,A,3255.4895,N,11703.4315,W,45.20,39.30,030410,,*14
$GPRMC,174959.7,A,3255.5213,N,11703.4057,W,45.00,36.70,030410,,*12
$GPRMC,175002.7,A,3255.5543,N,11703.3828,W,45.70,30.80,030410,,*1F
$GPRMC,175005.7,A,3255.5850,N,11703.3680,W,42.00,27.50,030410,,*10
$GPRMC,175008.7,A,3255.6187,N,11703.3607,W,42.70,14.20,030410,,*12
$GPRMC,175011.7,A,3255.6554,N,11703.3630,W,43.70,3.80,030410,,*29
$GPRMC,175014.7,A,3255.6895,N,11703.3711,W,42.60,355.30,030410,,*25
$GPRMC,175017.7,A,3255.7277,N,11703.3871,W,45.90,344.40,030410,,*27
$GPRMC,175020.7,A,3255.7593,N,11703.4093,W,43.30,332.00,030410,,*24
$GPRMC,175023.7,A,3255.7884,N,11703.4365,W,42.70,322.90,030410,,*2B
$GPRMC,175026.7,A,3255.8169,N,11703.4664,W,43.70,317.90,030410,,*28
$GPRMC,175029.7,A,3255.8452,N,11703.4955,W,42.40,321.40,030410,,*2D
$GPRMC,175032.7,A,3255.8725,N,11703.5148,W,40.10,326.00,030410,,*25
$GPRMC,175035.7,A,3255.8969,N,11703.5365,W,37.50,328.40,030410,,*27
$GPRMC,175038.7,A,3255.9205,N,11703.5460,W,32.40,335.10,030410,,*25
$GPRMC,175041.7,A,3255.9400,N,11703.5549,W,27.70,338.10,030410,,*28
$GPRMC,175044.7,A,3255.9583,N,11703.5578,W,24.90,344.10,030410,,*23
$GPRMC,175047.7,A,3255.9723,N,11703.5568,W,21.60,348.80,030410,,*26
$GPRMC,175050.7,A,3255.9807,N,11703.5548,W,16.80,353.70,030410,,*24
$GPRMC,175053.7,A,3255.9926,N,11703.5591,W,16.60,348.30,030410,,*21
$GPRMC,175056.7,A,3256.0069,N,11703.5663,W,19.80,342.80,030410,,*22
$GPRMC,175059.7,A,3256.0170,N,11703.5726,W,21.20,345.00,030410,,*2A
$GPRMC,175102.7,A,3256.0319,N,11703.5799,W,23.00,341.80,030410,,*20
$GPRMC,175105.7,A,3256.0570,N,11703.5855,W,24.80,345.20,030410,,*20
$GPRMC,175108.7,A,3256.0680,N,11703.5911,W,18.70,339.10,030410,,*28
$GPRMC,175111.7,A,3256.0746,N,11703.5918,W,10.30,336.10,030410,,*21
$GPRMC,175132.7,A,3256.0766,N,11703.5928,W,5.30,350.40,030410,,*10
$GPRMC,175135.7,A,3256.0819,N,11703.5944,W,7.00,349.60,030410,,*11
$GPRMC,175138.7,A,3256.0879,N,11703.5975,W,5.80,325.40,030410,,*1A
$GPRMC,175141.7,A,3256.0934,N,11703.5938,W,8.40,37.50,030410,,*25
$GPRMC,175144.7,A,3256.1071,N,11703.5865,W,14.90,56.20,030410,,*10
$GPRMC,175147.7,A,3256.1144,N,11703.5728,W,17.00,65.50,030410,,*1F
$GPRMC,175150.7,A,3256.1202,N,11703.5471,W,22.70,74.60,030410,,*15
$GPRMC,175153.7,A,3256.1312,N,11703.5138,W,28.20,71.60,030410,,*14
$GPRMC,175156.7,A,3256.1576,N,11703.4667,W,37.10,66.50,030410,,*11
$GPRMC,175159.7,A,3256.1977,N,11703.4079,W,50.80,59.60,030410,,*1D
$GPRMC,175202.7,A,3256.2271,N,11703.3617,W,50.60,58.60,030410,,*18
$GPRMC,175205.7,A,3256.2545,N,11703.3169,W,50.00,56.50,030410,,*1A
$GPRMC,175208.7,A,3256.2793,N,11703.2747,W,50.00,57.00,030410,,*11
$GPRMC,175211.7,A,3256.3020,N,11703.2374,W,49.90,56.40,030410,,*17
$GPRMC,175214.7,A,3256.3227,N,11703.1944,W,50.00,61.10,030410,,*1D
$GPRMC,175217.7,A,3256.3400,N,11703.1503,W,46.70,66.90,030410,,*1D
$GPRMC,175220.7,A,3256.3535,N,11703.1135,W,38.90,70.30,030410,,*15
$GPRMC,175223.7,A,3256.3582,N,11703.0854,W,30.70,72.20,030410,,*10
$GPRMC,175226.7,A,3256.3623,N,11703.0658,W,22.30,72.20,030410,,*18
$GPRMC,175229.7,A,3256.3636,N,11703.0549,W,16.30,74.20,030410,,*11
$GPRMC,175232.7,A,3256.3636,N,11703.0559,W,7.50,65.50,030410,,*2B
$GPRMC,175323.7,A,3256.3637,N,11703.0462,W,6.30,79.10,030410,,*2C
$GPRMC,175326.7,A,3256.3680,N,11703.0283,W,10.20,74.90,030410,,*1F
$GPRMC,175329.7,A,3256.3732,N,11703.0039,W,15.20,73.70,030410,,*17
$GPRMC,175332.7,A,3256.3754,N,11702.9733,W,19.40,81.70,030410,,*1F
$GPRMC,175335.7,A,3256.3613,N,11702.9154,W,31.20,102.60,030410,,*2A
$GPRMC,175338.7,A,3256.3582,N,11702.8355,W,43.90,100.80,030410,,*2C
$GPRMC,175341.7,A,3256.3456,N,11702.7820,W,45.20,103.60,030410,,*2C
$GPRMC,175344.7,A,3256.3338,N,11702.7384,W,45.80,104.10,030410,,*29
$GPRMC,175347.7,A,3256.3229,N,11702.6895,W,46.50,103.80,030410,,*21
$GPRMC,175350.7,A,3256.3171,N,11702.6378,W,49.00,103.50,030410,,*26
$GPRMC,175353.7,A,3256.3078,N,11702.5859,W,49.70,101.90,030410,,*2F
$GPRMC,175356.7,A,3256.3030,N,11702.5322,W,51.20,97.50,030410,,*1F
$GPRMC,175359.7,A,3256.3001,N,11702.4800,W,51.00,93.70,030410,,*1C
$GPRMC,175402.7,A,3256.3006,N,11702.4295,W,48.10,92.20,030410,,*19
$GPRMC,175405.7,A,3256.3020,N,11702.3811,W,45.20,91.80,030410,,*1C
$GPRMC,175408.7,A,3256.3037,N,11702.3419,W,41.00,90.60,030410,,*1A
$GPRMC,175411.7,A,3256.3025,N,11702.2997,W,41.80,92.00,030410,,*17
$GPRMC,175414.7,A,3256.3010,N,11702.2544,W,43.20,92.00,030410,,*1E
$GPRMC,175417.7,A,3256.2988,N,11702.2135,W,43.90,92.10,030410,,*1C
$GPRMC,175420.7,A,3256.2950,N,11702.1701,W,43.80,93.10,030410,,*1F
$GPRMC,175423.7,A,3256.2944,N,11702.1240,W,44.70,91.90,030410,,*1B
$GPRMC,175426.7,A,3256.2948,N,11702.0786,W,44.30,90.70,030410,,*17
$GPRMC,175429.7,A,3256.2939,N,11702.0336,W,45.30,92.60,030410,,*13
$GPRMC,175432.7,A,3256.2917,N,11701.9899,W,45.20,91.70,030410,,*12
$GPRMC,175435.7,A,3256.2926,N,11701.9422,W,46.00,91.10,030410,,*1C
$GPRMC,175438.7,A,3256.2920,N,11701.8936,W,47.90,91.30,030410,,*14
$GPRMC,175441.7,A,3256.2912,N,11701.8444,W,48.60,92.00,030410,,*13
$GPRMC,175444.7,A,3256.2894,N,11701.7945,W,49.70,91.60,030410,,*1F
$GPRMC,175447.7,A,3256.2911,N,11701.7421,W,51.40,90.50,030410,,*17
$GPRMC,175450.7,A,3256.2888,N,11701.6908,W,51.50,91.20,030410,,*10
$GPRMC,175453.7,A,3256.2872,N,11701.6397,W,52.10,92.20,030410,,*1E
$GPRMC,175456.7,A,3256.2859,N,11701.5856,W,50.90,91.50,030410,,*19
$GPRMC,175459.7,A,3256.2871,N,11701.5326,W,53.40,89.40,030410,,*16
$GPRMC,175502.7,A,3256.2947,N,11701.4848,W,51.10,81.20,030410,,*16
$GPRMC,175505.7,A,3256.3025,N,11701.4344,W,50.40,78.60,030410,,*1C
$GPRMC,175508.7,A,3256.3188,N,11701.3867,W,50.20,70.10,030410,,*13
$GPRMC,175511.7,A,3256.3363,N,11701.3426,W,49.50,67.50,030410,,*18
$GPRMC,175514.7,A,3256.3511,N,11701.3001,W,48.20,67.60,030410,,*1A
$GPRMC,175517.7,A,3256.3695,N,11701.2577,W,47.60,65.20,030410,,*1E
$GPRMC,175520.7,A,3256.3914,N,11701.2171,W,48.10,62.40,030410,,*17
$GPRMC,175523.7,A,3256.4143,N,11701.1766,W,47.90,59.80,030410,,*19
$GPRMC,175526.7,A,3256.4609,N,11701.1344,W,51.80,50.50,030410,,*13
$GPRMC,175529.7,A,3256.4904,N,11701.1032,W,51.60,46.00,030410,,*10
$GPRMC,175532.7,A,3256.5201,N,11701.0697,W,51.70,45.30,030410,,*1C
$GPRMC,175535.7,A,3256.5477,N,11701.0293,W,52.20,50.10,030410,,*1C
$GPRMC,175538.7,A,3256.5758,N,11700.9903,W,52.00,49.50,030410,,*1B
$GPRMC,175541.7,A,3256.5894,N,11700.9417,W,51.30,65.10,030410,,*18
$GPRMC,175544.7,A,3256.6017,N,11700.8864,W,51.70,74.20,030410,,*13
$GPRMC,175547.7,A,3256.6081,N,11700.8331,W,53.90,80.10,030410,,*10
$GPRMC,175550.7,A,3256.6141,N,11700.7796,W,55.10,81.20,030410,,*11
$GPRMC,175553.7,A,3256.6230,N,11700.7169,W,56.70,81.00,030410,,*16
$GPRMC,175556.7,A,3256.6319,N,11700.6556,W,56.80,81.20,030410,,*1D
$GPRMC,175559.7,A,3256.6396,N,11700.5980,W,58.70,81.30,030410,,*11
$GPRMC,175602.7,A,3256.6463,N,11700.5417,W,57.90,79.70,030410,,*10
$GPRMC,175605.7,A,3256.6586,N,11700.4877,W,55.00,74.70,030410,,*10
$GPRMC,175608.7,A,3256.6739,N,11700.4379,W,53.30,69.30,030410,,*13
$GPRMC,175611.7,A,3256.6951,N,11700.3867,W,56.40,64.30,030410,,*17
$GPRMC,175614.7,A,3256.7204,N,11700.3325,W,56.80,60.10,030410,,*1F
$GPRMC,175617.7,A,3256.7435,N,11700.2861,W,56.00,60.20,030410,,*19
$GPRMC,175620.7,A,3256.7697,N,11700.2350,W,57.30,58.90,030410,,*1C
$GPRMC,175623.7,A,3256.7977,N,11700.1862,W,58.50,58.30,030410,,*14
$GPRMC,175626.7,A,3256.8220,N,11700.1424,W,58.10,61.60,030410,,*12
$GPRMC,175629.7,A,3256.8380,N,11700.0915,W,56.10,67.60,030410,,*10
$GPRMC,175632.7,A,3256.8507,N,11700.0366,W,58.40,73.40,030410,,*11
$GPRMC,175635.7,A,3256.8624,N,11659.9800,W,59.30,77.70,030410,,*1A
$GPRMC,175638.7,A,3256.8691,N,11659.9250,W,57.00,81.40,030410,,*11
$GPRMC,175641.7,A,3256.8761,N,11659.8733,W,55.30,80.90,030410,,*1D
$GPRMC,175644.7,A,3256.8846,N,11659.8221,W,53.00,77.90,030410,,*19
$GPRMC,175647.7,A,3256.8960,N,11659.7720,W,51.60,73.50,030410,,*18
$GPRMC,175650.7,A,3256.9103,N,11659.7267,W,49.60,67.60,030410,,*1B
$GPRMC,175653.7,A,3256.9284,N,11659.6841,W,47.70,64.70,030410,,*16
$GPRMC,175656.7,A,3256.9461,N,11659.6385,W,48.20,66.10,030410,,*13
$GPRMC,175659.7,A,3256.9596,N,11659.5961,W,48.00,70.80,030410,,*1A
$GPRMC,175702.7,A,3256.9701,N,11659.5487,W,49.30,75.30,030410,,*10
$GPRMC,175705.7,A,3256.9768,N,11659.4996,W,49.10,80.60,030410,,*19
$GPRMC,175708.7,A,3256.9824,N,11659.4511,W,49.50,81.80,030410,,*1B
$GPRMC,175711.7,A,3256.9875,N,11659.4018,W,50.20,82.00,030410,,*1F
$GPRMC,175714.7,A,3256.9933,N,11659.3537,W,49.90,81.50,030410,,*13
$GPRMC,175717.7,A,3256.9983,N,11659.3078,W,48.70,78.70,030410,,*1E
$GPRMC,175720.7,A,3257.0088,N,11659.2585,W,52.50,77.60,030410,,*11
$GPRMC,175723.7,A,3257.0220,N,11659.2034,W,56.10,72.90,030410,,*17
$GPRMC,175726.7,A,3257.0375,N,11659.1608,W,52.40,69.40,030410,,*1F
$GPRMC,175729.7,A,3257.0499,N,11659.1148,W,52.70,72.30,030410,,*18
$GPRMC,175732.7,A,3257.0583,N,11659.0665,W,48.60,77.40,030410,,*19
$GPRMC,175735.7,A,3257.0627,N,11659.0223,W,49.80,81.60,030410,,*11
$GPRMC,175738.7,A,3257.0701,N,11658.9746,W,50.30,80.30,030410,,*10
$GPRMC,175741.7,A,3257.0779,N,11658.9237,W,51.70,80.00,030410,,*14
$GPRMC,175744.7,A,3257.0769,N,11658.8719,W,53.20,83.90,030410,,*15
$GPRMC,175747.7,A,3257.0796,N,11658.8192,W,53.60,84.80,030410,,*11
$GPRMC,175750.7,A,3257.0842,N,11658.7656,W,52.90,84.50,030410,,*12
$GPRMC,175753.7,A,3257.0847,N,11658.7176,W,51.90,83.90,030410,,*19
$GPRMC,175756.7,A,3257.0905,N,11658.6635,W,52.60,79.70,030410,,*1D
$GPRMC,175759.7,A,3257.1009,N,11658.6153,W,53.10,74.50,030410,,*18
$GPRMC,175802.7,A,3257.1145,N,11658.5671,W,52.30,68.80,030410,,*17
$GPRMC,175805.7,A,3257.1340,N,11658.5217,W,49.80,63.20,030410,,*13
$GPRMC,175808.7,A,3257.1560,N,11658.4751,W,48.80,62.20,030410,,*1C
$GPRMC,175811.7,A,3257.1815,N,11658.4339,W,48.40,56.50,030410,,*1D
$GPRMC,175814.7,A,3257.1998,N,11658.3841,W,44.40,60.80,030410,,*1B
$GPRMC,175817.7,A,3257.2163,N,11658.3386,W,42.00,61.50,030410,,*19
$GPRMC,175820.7,A,3257.2322,N,11658.2959,W,39.90,61.70,030410,,*14
$GPRMC,175823.7,A,3257.2462,N,11658.2612,W,37.50,61.70,030410,,*16
$GPRMC,175826.7,A,3257.2616,N,11658.2306,W,34.80,60.70,030410,,*1D
$GPRMC,175829.7,A,3257.2706,N,11658.2063,W,28.20,60.80,030410,,*1A
$GPRMC,175832.7,A,3257.2768,N,11658.1889,W,21.20,61.90,030410,,*1E
$GPRMC,175835.7,A,3257.2817,N,11658.1735,W,17.90,64.70,030410,,*13
$GPRMC,175838.7,A,3257.2857,N,11658.1665,W,13.20,63.10,030410,,*10
$GPRMC,175859.7,A,3257.2853,N,11658.1671,W,9.10,69.30,030410,,*26
$GPRMC,175902.7,A,3257.2884,N,11658.1576,W,9.40,66.30,030410,,*2D
$GPRMC,175905.7,A,3257.2920,N,11658.1463,W,12.00,68.00,030410,,*13
$GPRMC,175908.7,A,3257.2899,N,11658.1349,W,11.80,82.00,030410,,*1D
$GPRMC,175911.7,A,3257.2952,N,11658.1325,W,6.70,64.80,030410,,*20
$GPRMC,175914.7,A,3257.3204,N,11658.1420,W,11.70,352.10,030410,,*27
$GPRMC,175917.7,A,3257.3645,N,11658.1718,W,26.30,331.00,030410,,*29
$GPRMC,175920.7,A,3257.4197,N,11658.2059,W,40.80,330.70,030410,,*2E
$GPRMC,175923.7,A,3257.4680,N,11658.2468,W,46.40,330.40,030410,,*23
$GPRMC,175926.7,A,3257.5070,N,11658.2725,W,48.20,330.70,030410,,*2F
$GPRMC,175929.7,A,3257.5436,N,11658.2967,W,51.00,331.80,030410,,*2A
$GPRMC,175932.7,A,3257.5835,N,11658.3198,W,52.10,335.00,030410,,*28
$GPRMC,175935.7,A,3257.6242,N,11658.3376,W,52.70,342.70,030410,,*25
$GPRMC,175938.7,A,3257.6657,N,11658.3490,W,51.70,350.10,030410,,*21
$GPRMC,175941.7,A,3257.7077,N,11658.3503,W,50.40,0.30,030410,,*27
$GPRMC,175944.7,A,3257.7487,N,11658.3471,W,48.70,5.60,030410,,*27
$GPRMC,175947.7,A,3257.7882,N,11658.3367,W,47.40,13.30,030410,,*13
$GPRMC,175950.7,A,3257.8266,N,11658.3241,W,47.50,15.00,030410,,*1B
$GPRMC,175953.7,A,3257.8662,N,11658.3123,W,48.20,15.00,030410,,*17
$GPRMC,175956.7,A,3257.9028,N,11658.2988,W,47.20,17.20,030410,,*1C
$GPRMC,175959.7,A,3257.9435,N,11658.2850,W,48.00,17.00,030410,,*10
$GPRMC,180002.7,A,3257.9795,N,11658.2697,W,46.40,17.80,030410,,*13
$GPRMC,180005.7,A,3258.0174,N,11658.2572,W,46.80,15.60,030410,,*13
$GPRMC,180008.7,A,3258.0529,N,11658.2485,W,45.50,13.20,030410,,*17
$GPRMC,180011.7,A,3258.0900,N,11658.2380,W,46.10,14.00,030410,,*18
$GPRMC,180014.7,A,3258.1260,N,11658.2281,W,45.80,13.90,030410,,*15
$GPRMC,180017.7,A,3258.1638,N,11658.2104,W,46.30,14.40,030410,,*13
$GPRMC,180020.7,A,3258.2006,N,11658.2017,W,44.60,7.50,030410,,*28
$GPRMC,180023.7,A,3258.2401,N,11658.2069,W,45.10,353.20,030410,,*22
$GPRMC,180026.7,A,3258.2759,N,11658.2174,W,45.70,341.70,030410,,*24
$GPRMC,180029.7,A,3258.3112,N,11658.2402,W,46.70,330.10,030410,,*24
$GPRMC,180032.7,A,3258.3458,N,11658.2628,W,46.40,328.80,030410,,*2C
$GPRMC,180035.7,A,3258.3776,N,11658.2867,W,45.30,330.00,030410,,*24
$GPRMC,180038.7,A,3258.4104,N,11658.3050,W,44.70,336.00,030410,,*23
$GPRMC,180041.7,A,3258.4436,N,11658.3193,W,45.10,341.50,030410,,*25
$GPRMC,180044.7,A,3258.4811,N,11658.3296,W,44.90,344.80,030410,,*2E
$GPRMC,180047.7,A,3258.5166,N,11658.3428,W,45.90,344.20,030410,,*2D
$GPRMC,180050.7,A,3258.5569,N,11658.3526,W,47.50,345.80,030410,,*2A
$GPRMC,180053.7,A,3258.5966,N,11658.3664,W,48.40,344.70,030410,,*2F
$GPRMC,180056.7,A,3258.6337,N,11658.3793,W,45.90,345.10,030410,,*29
$GPRMC,180059.7,A,3258.6714,N,11658.3892,W,46.70,346.90,030410,,*2B
$GPRMC,180102.7,A,3258.7064,N,11658.4009,W,44.60,345.70,030410,,*26
$GPRMC,180105.7,A,3258.7409,N,11658.4119,W,42.70,344.70,030410,,*28
$GPRMC,180108.7,A,3258.7751,N,11658.4239,W,42.00,344.10,030410,,*2B
$GPRMC,180111.7,A,3258.8151,N,11658.4344,W,46.70,343.70,030410,,*23
$GPRMC,180114.7,A,3258.8545,N,11658.4474,W,48.60,344.20,030410,,*2E
$GPRMC,180117.7,A,3258.8982,N,11658.4579,W,52.10,346.50,030410,,*2F
$GPRMC,180120.7,A,3258.9429,N,11658.4694,W,54.00,348.00,030410,,*2A
$GPRMC,180123.7,A,3258.9872,N,11658.4785,W,53.80,349.90,030410,,*2D
$GPRMC,180126.7,A,3259.0315,N,11658.4890,W,51.60,350.10,030410,,*2D
$GPRMC,180129.7,A,3259.0731,N,11658.4995,W,50.40,349.40,030410,,*2A
$GPRMC,180132.7,A,3259.1128,N,11658.5101,W,49.30,344.90,030410,,*24
$GPRMC,180135.7,A,3259.1521,N,11658.5281,W,49.50,337.80,030410,,*26
$GPRMC,180138.7,A,3259.1865,N,11658.5544,W,49.60,326.50,030410,,*26
$GPRMC,180141.7,A,3259.2165,N,11658.5857,W,47.70,317.90,030410,,*2C
$GPRMC,180144.7,A,3259.2416,N,11658.6187,W,45.60,311.20,030410,,*21
$GPRMC,180147.7,A,3259.2609,N,11658.6515,W,42.60,306.80,030410,,*2A
$GPRMC,180150.7,A,3259.2841,N,11658.6868,W,44.50,306.60,030410,,*22
$GPRMC,180153.7,A,3259.3122,N,11658.7198,W,46.00,316.20,030410,,*29
$GPRMC,180156.7,A,3259.3440,N,11658.7459,W,46.10,328.40,030410,,*2F
$GPRMC,180159.7,A,3259.3813,N,11658.7683,W,49.70,332.40,030410,,*2D
$GPRMC,180202.7,A,3259.4180,N,11658.7801,W,48.50,336.80,030410,,*2B
$GPRMC,180205.7,A,3259.4582,N,11658.7747,W,43.80,349.50,030410,,*24
$GPRMC,180208.7,A,3259.4941,N,11658.7647,W,41.90,358.00,030410,,*2D
$GPRMC,180211.7,A,3259.5280,N,11658.7391,W,43.90,19.90,030410,,*11
$GPRMC,180214.7,A,3259.5627,N,11658.7172,W,45.60,28.60,030410,,*16
$GPRMC,180217.7,A,3259.5963,N,11658.6878,W,48.40,35.00,030410,,*1D
$GPRMC,180220.7,A,3259.6246,N,11658.6566,W,46.90,42.40,030410,,*13
$GPRMC,180223.7,A,3259.6475,N,11658.6209,W,45.60,49.10,030410,,*1A
$GPRMC,180226.7,A,3259.6706,N,11658.5835,W,44.60,52.00,030410,,*14
$GPRMC,180229.7,A,3259.6948,N,11658.5483,W,45.60,52.60,030410,,*19
$GPRMC,180232.7,A,3259.7155,N,11658.5081,W,48.10,57.90,030410,,*10
$GPRMC,180235.7,A,3259.7333,N,11658.4642,W,49.90,65.80,030410,,*14
$GPRMC,180238.7,A,3259.7482,N,11658.4156,W,51.60,69.80,030410,,*1C
$GPRMC,180241.7,A,3259.7623,N,11658.3678,W,51.90,70.10,030410,,*19
$GPRMC,180244.7,A,3259.7735,N,11658.3185,W,51.60,72.30,030410,,*10
$GPRMC,180247.7,A,3259.7818,N,11658.2681,W,50.50,78.40,030410,,*1E
$GPRMC,180250.7,A,3259.7853,N,11658.2172,W,51.30,82.60,030410,,*1C
$GPRMC,180253.7,A,3259.7926,N,11658.1665,W,51.40,79.70,030410,,*1C
$GPRMC,180256.7,A,3259.8050,N,11658.1173,W,52.10,73.70,030410,,*12
$GPRMC,180259.7,A,3259.8218,N,11658.0697,W,51.60,67.30,030410,,*1A
$GPRMC,180302.7,A,3259.8385,N,11658.0215,W,51.70,66.20,030410,,*1F
$GPRMC,180305.7,A,3259.8574,N,11657.9778,W,51.10,65.80,030410,,*17
$GPRMC,180308.7,A,3259.8748,N,11657.9329,W,48.80,64.90,030410,,*16
$GPRMC,180311.7,A,3259.8831,N,11657.8826,W,50.70,77.50,030410,,*12
$GPRMC,180314.7,A,3259.8889,N,11657.8333,W,50.50,80.30,030410,,*17
$GPRMC,180317.7,A,3259.8966,N,11657.7850,W,49.90,80.50,030410,,*17
$GPRMC,180320.7,A,3259.9030,N,11657.7366,W,50.50,80.80,030410,,*1F
$GPRMC,180323.7,A,3259.9096,N,11657.6862,W,51.50,81.20,030410,,*14
$GPRMC,180326.7,A,3259.9171,N,11657.6368,W,51.10,79.40,030410,,*1D
$GPRMC,180329.7,A,3259.9325,N,11657.5873,W,53.10,70.20,030410,,*1E
$GPRMC,180332.7,A,3259.9528,N,11657.5421,W,52.60,61.90,030410,,*19
$GPRMC,180335.7,A,3259.9831,N,11657.5072,W,48.50,51.10,030410,,*1A
$GPRMC,180338.7,A,3300.0256,N,11657.4853,W,50.00,33.40,030410,,*1F
$GPRMC,180341.7,A,3300.0721,N,11657.4762,W,51.50,17.70,030410,,*18
$GPRMC,180344.7,A,3300.1213,N,11657.4730,W,54.70,8.40,030410,,*25
$GPRMC,180347.7,A,3300.1678,N,11657.4632,W,55.20,10.70,030410,,*12
$GPRMC,180350.7,A,3300.2103,N,11657.4450,W,55.20,23.20,030410,,*1F
$GPRMC,180353.7,A,3300.2522,N,11657.4192,W,56.50,27.90,030410,,*1B
$GPRMC,180356.7,A,3300.2942,N,11657.3926,W,57.30,27.90,030410,,*13
$GPRMC,180359.7,A,3300.3376,N,11657.3691,W,57.80,23.10,030410,,*14
$GPRMC,180402.7,A,3300.3850,N,11657.3502,W,58.40,19.10,030410,,*11
$GPRMC,180405.7,A,3300.4318,N,11657.3311,W,59.40,18.50,030410,,*16
$GPRMC,180408.7,A,3300.4788,N,11657.3135,W,58.90,18.20,030410,,*19
$GPRMC,180411.7,A,3300.5274,N,11657.2965,W,58.90,16.80,030410,,*1E
$GPRMC,180414.7,A,3300.5738,N,11657.2829,W,56.50,12.90,030410,,*18
$GPRMC,180417.7,A,3300.6203,N,11657.2710,W,55.50,11.30,030410,,*1A
$GPRMC,180420.7,A,3300.6634,N,11657.2581,W,54.80,16.50,030410,,*19
$GPRMC,180423.7,A,3300.7038,N,11657.2369,W,54.60,24.90,030410,,*12
$GPRMC,180426.7,A,3300.7400,N,11657.2037,W,56.20,34.50,030410,,*1B
$GPRMC,180429.7,A,3300.7665,N,11657.1608,W,55.20,46.10,030410,,*1E
$GPRMC,180432.7,A,3300.7587,N,11657.1004,W,50.90,71.20,030410,,*18
$GPRMC,180435.7,A,3300.7601,N,11657.0518,W,47.30,82.00,030410,,*19
$GPRMC,180438.7,A,3300.7341,N,11656.9921,W,52.30,105.70,030410,,*26
$GPRMC,180441.7,A,3300.7141,N,11656.9394,W,52.30,109.70,030410,,*22
$GPRMC,180444.7,A,3300.6954,N,11656.8908,W,48.60,111.50,030410,,*21
$GPRMC,180447.7,A,3300.6824,N,11656.8482,W,45.60,107.50,030410,,*21
$GPRMC,180450.7,A,3300.6755,N,11656.8057,W,43.20,100.50,030410,,*27
$GPRMC,180453.7,A,3300.6738,N,11656.7676,W,40.40,96.50,030410,,*1E
$GPRMC,180456.7,A,3300.6705,N,11656.7286,W,40.00,95.70,030410,,*1B
$GPRMC,180459.7,A,3300.6668,N,11656.6896,W,39.70,97.30,030410,,*1B
$GPRMC,180502.7,A,3300.6616,N,11656.6508,W,39.80,99.50,030410,,*10
$GPRMC,180505.7,A,3300.6547,N,11656.6137,W,38.30,101.60,030410,,*21
$GPRMC,180508.7,A,3300.6480,N,11656.5746,W,39.30,103.00,030410,,*20
$GPRMC,180511.7,A,3300.6417,N,11656.5335,W,42.40,100.50,030410,,*2B
$GPRMC,180514.7,A,3300.6380,N,11656.4911,W,43.00,95.20,030410,,*15
$GPRMC,180517.7,A,3300.6378,N,11656.4482,W,43.10,88.70,030410,,*1E
$GPRMC,180520.7,A,3300.6397,N,11656.4059,W,42.30,85.40,030410,,*14
$GPRMC,180523.7,A,3300.6412,N,11656.3623,W,43.90,86.30,030410,,*1E
$GPRMC,180526.7,A,3300.6452,N,11656.3204,W,43.00,85.10,030410,,*16
$GPRMC,180529.7,A,3300.6498,N,11656.2775,W,42.20,84.20,030410,,*1C
$GPRMC,180532.7,A,3300.6520,N,11656.2363,W,42.60,85.60,030410,,*16
$GPRMC,180535.7,A,3300.6551,N,11656.1923,W,44.30,85.00,030410,,*1F
$GPRMC,180538.7,A,3300.6556,N,11656.1459,W,46.10,86.20,030410,,*14
$GPRMC,180541.7,A,3300.6581,N,11656.0980,W,45.90,86.90,030410,,*18
$GPRMC,180544.7,A,3300.6587,N,11656.0535,W,45.10,88.50,030410,,*13
$GPRMC,180547.7,A,3300.6582,N,11656.0128,W,41.80,89.90,030410,,*1D
$GPRMC,180550.7,A,3300.6588,N,11655.9725,W,40.30,90.10,030410,,*1A
$GPRMC,180553.7,A,3300.6592,N,11655.9325,W,40.10,91.80,030410,,*1C
$GPRMC,180556.7,A,3300.6573,N,11655.8932,W,39.60,92.30,030410,,*1A
$GPRMC,180559.7,A,3300.6573,N,11655.8541,W,39.90,91.10,030410,,*13
$GPRMC,180602.7,A,3300.6435,N,11655.8164,W,40.50,105.90,030410,,*28
$GPRMC,180605.7,A,3300.6330,N,11655.7774,W,44.20,108.00,030410,,*22
$GPRMC,180608.7,A,3300.6199,N,11655.7368,W,44.60,109.30,030410,,*21
$GPRMC,180611.7,A,3300.6089,N,11655.6962,W,45.40,108.80,030410,,*21
$GPRMC,180614.7,A,3300.5952,N,11655.6533,W,45.80,110.80,030410,,*25
$GPRMC,180617.7,A,3300.5764,N,11655.6145,W,46.60,116.70,030410,,*2C
$GPRMC,180620.7,A,3300.5573,N,11655.5760,W,43.10,123.00,030410,,*2D
$GPRMC,180623.7,A,3300.5383,N,11655.5461,W,38.70,125.00,030410,,*29
$GPRMC,180626.7,A,3300.5217,N,11655.5158,W,36.60,117.90,030410,,*28
$GPRMC,180629.7,A,3300.5128,N,11655.4811,W,36.60,106.60,030410,,*22
$GPRMC,180632.7,A,3300.5101,N,11655.4456,W,37.20,95.70,030410,,*13
$GPRMC,180635.7,A,3300.5129,N,11655.4059,W,39.20,85.40,030410,,*19
$GPRMC,180638.7,A,3300.5216,N,11655.3646,W,42.40,78.00,030410,,*18
$GPRMC,180641.7,A,3300.5406,N,11655.3270,W,43.30,64.60,030410,,*1D
$GPRMC,180644.7,A,3300.5583,N,11655.2912,W,42.00,61.50,030410,,*1E
$GPRMC,180647.7,A,3300.5745,N,11655.2547,W,42.40,61.40,030410,,*1C
$GPRMC,180650.7,A,3300.5889,N,11655.2149,W,44.00,68.50,030410,,*15
$GPRMC,180653.7,A,3300.5959,N,11655.1711,W,44.10,79.10,030410,,*17
$GPRMC,180656.7,A,3300.5965,N,11655.1253,W,45.50,88.90,030410,,*1D
$GPRMC,180659.7,A,3300.5953,N,11655.0805,W,46.20,89.40,030410,,*17
$GPRMC,180702.7,A,3300.5890,N,11655.0413,W,42.20,96.10,030410,,*12
$GPRMC,180705.7,A,3300.5683,N,11655.0064,W,43.00,113.30,030410,,*20
$GPRMC,180708.7,A,3300.5512,N,11654.9665,W,44.30,113.80,030410,,*26
$GPRMC,180711.7,A,3300.5395,N,11654.9226,W,44.70,105.10,030410,,*2E
$GPRMC,180714.7,A,3300.5323,N,11654.8793,W,42.60,101.50,030410,,*2B
$GPRMC,180717.7,A,3300.5308,N,11654.8384,W,41.90,97.00,030410,,*14
$GPRMC,180720.7,A,3300.5517,N,11654.7977,W,42.90,75.80,030410,,*16
$GPRMC,180723.7,A,3300.5751,N,11654.7588,W,42.60,61.40,030410,,*1F
$GPRMC,180726.7,A,3300.6017,N,11654.7311,W,38.70,50.40,030410,,*14
$GPRMC,180729.7,A,3300.6235,N,11654.7046,W,35.80,45.50,030410,,*1F
$GPRMC,180732.7,A,3300.6443,N,11654.6804,W,33.60,46.80,030410,,*1B
$GPRMC,180735.7,A,3300.6642,N,11654.6563,W,33.90,46.90,030410,,*1D
$GPRMC,180738.7,A,3300.6830,N,11654.6314,W,35.00,46.50,030410,,*1E
$GPRMC,180741.7,A,3300.7007,N,11654.6100,W,29.10,44.40,030410,,*15
$GPRMC,180744.7,A,3300.7150,N,11654.5961,W,23.00,39.20,030410,,*18
$GPRMC,180747.7,A,3300.7231,N,11654.5935,W,13.80,28.60,030410,,*11
$GPRMC,180756.7,A,3300.7200,N,11654.5966,W,5.50,59.70,030410,,*28
$GPRMC,180759.7,A,3300.7251,N,11654.5882,W,10.80,56.20,030410,,*1B
$GPRMC,180802.7,A,3300.7299,N,11654.5750,W,14.30,62.30,030410,,*17
$GPRMC,180805.7,A,3300.7465,N,11654.5524,W,26.30,54.30,030410,,*10
$GPRMC,180808.7,A,3300.7616,N,11654.5301,W,27.80,56.50,030410,,*14
$GPRMC,180811.7,A,3300.7849,N,11654.5053,W,32.70,50.00,030410,,*14
$GPRMC,180814.7,A,3300.8076,N,11654.4805,W,33.00,47.40,030410,,*14
$GPRMC,180817.7,A,3300.8259,N,11654.4595,W,30.00,46.50,030410,,*1F
$GPRMC,180820.7,A,3300.8402,N,11654.4380,W,29.60,48.80,030410,,*1C
$GPRMC,180823.7,A,3300.8575,N,11654.4152,W,30.60,46.90,030410,,*14
$GPRMC,180826.7,A,3300.8762,N,11654.3917,W,32.50,47.90,030410,,*1B
$GPRMC,180829.7,A,3300.8939,N,11654.3663,W,33.60,49.00,030410,,*1D
$GPRMC,180832.7,A,3300.9150,N,11654.3447,W,29.50,47.20,030410,,*11
$GPRMC,180835.7,A,3300.9306,N,11654.3250,W,26.60,45.70,030410,,*1C
$GPRMC,180838.7,A,3300.9480,N,11654.3042,W,29.00,48.40,030410,,*1E
$GPRMC,180841.7,A,3300.9658,N,11654.2812,W,33.40,49.20,030410,,*13
$GPRMC,180844.7,A,3300.9882,N,11654.2561,W,38.00,46.90,030410,,*1D
$GPRMC,180847.7,A,3301.0131,N,11654.2302,W,38.90,44.80,030410,,*1E
$GPRMC,180850.7,A,3301.0356,N,11654.2034,W,37.50,46.10,030410,,*15
$GPRMC,180853.7,A,3301.0577,N,11654.1760,W,37.40,46.30,030410,,*15
$GPRMC,180856.7,A,3301.0784,N,11654.1485,W,36.10,45.90,030410,,*1B
$GPRMC,180859.7,A,3301.1015,N,11654.1250,W,34.30,41.10,030410,,*18
$GPRMC,180902.7,A,3301.1220,N,11654.0936,W,39.60,47.00,030410,,*16
$GPRMC,180905.7,A,3301.1446,N,11654.0637,W,40.70,48.60,030410,,*1F
$GPRMC,180908.7,A,3301.1655,N,11654.0346,W,39.70,49.20,030410,,*1A
$GPRMC,180911.7,A,3301.1892,N,11654.0044,W,40.50,49.30,030410,,*1B
$GPRMC,180914.7,A,3301.2161,N,11653.9739,W,42.70,47.20,030410,,*14
$GPRMC,180917.7,A,3301.2390,N,11653.9439,W,41.60,46.90,030410,,*10
$GPRMC,180920.7,A,3301.2611,N,11653.9168,W,40.50,46.70,030410,,*15
$GPRMC,180923.7,A,3301.2835,N,11653.8894,W,39.00,46.90,030410,,*10
$GPRMC,180926.7,A,3301.3060,N,11653.8601,W,38.80,46.50,030410,,*1B
$GPRMC,180929.7,A,3301.3264,N,11653.8339,W,36.80,47.30,030410,,*15
$GPRMC,180932.7,A,3301.3483,N,11653.8072,W,35.50,47.80,030410,,*19
$GPRMC,180935.7,A,3301.3662,N,11653.7807,W,34.50,48.00,030410,,*10
$GPRMC,180938.7,A,3301.3861,N,11653.7537,W,35.50,47.90,030410,,*19
$GPRMC,180941.7,A,3301.4070,N,11653.7286,W,34.90,47.30,030410,,*12
$GPRMC,180944.7,A,3301.4273,N,11653.7026,W,36.20,47.30,030410,,*17
$GPRMC,180947.7,A,3301.4478,N,11653.6746,W,37.10,48.40,030410,,*13
$GPRMC,180950.7,A,3301.4675,N,11653.6495,W,36.00,46.80,030410,,*15
$GPRMC,180953.7,A,3301.4891,N,11653.6234,W,36.40,45.70,030410,,*17
$GPRMC,180956.7,A,3301.5091,N,11653.5990,W,34.60,47.70,030410,,*1F
$GPRMC,180959.7,A,3301.5280,N,11653.5743,W,34.20,47.90,030410,,*18
$GPRMC,181002.7,A,3301.5477,N,11653.5494,W,35.40,47.70,030410,,*10
$GPRMC,181005.7,A,3301.5680,N,11653.5228,W,37.40,47.10,030410,,*18
$GPRMC,181008.7,A,3301.5892,N,11653.4950,W,38.80,46.90,030410,,*17
$GPRMC,181011.7,A,3301.6128,N,11653.4669,W,39.60,46.60,030410,,*11
$GPRMC,181014.7,A,3301.6336,N,11653.4400,W,36.40,46.30,030410,,*1C
$GPRMC,181017.7,A,3301.6502,N,11653.4186,W,29.60,46.20,030410,,*18
$GPRMC,181020.7,A,3301.6664,N,11653.3998,W,26.20,46.30,030410,,*15
$GPRMC,181023.7,A,3301.6787,N,11653.3794,W,26.50,49.10,030410,,*12
$GPRMC,181026.7,A,3301.6941,N,11653.3586,W,27.50,47.60,030410,,*1A
$GPRMC,181029.7,A,3301.7103,N,11653.3376,W,29.30,47.00,030410,,*1D
$GPRMC,181032.7,A,3301.7285,N,11653.3154,W,30.20,47.00,030410,,*11
$GPRMC,181035.7,A,3301.7461,N,11653.2932,W,30.90,48.20,030410,,*15
$GPRMC,181038.7,A,3301.7650,N,11653.2700,W,32.60,46.40,030410,,*12
$GPRMC,181041.7,A,3301.7851,N,11653.2443,W,34.10,46.50,030410,,*17
$GPRMC,181044.7,A,3301.8046,N,11653.2197,W,33.80,48.10,030410,,*1B
$GPRMC,181047.7,A,3301.8226,N,11653.1949,W,31.80,48.40,030410,,*13
$GPRMC,181050.7,A,3301.8411,N,11653.1722,W,31.10,49.00,030410,,*18
$GPRMC,181053.7,A,3301.8592,N,11653.1482,W,32.10,48.10,030410,,*1B
$GPRMC,181056.7,A,3301.8798,N,11653.1248,W,33.20,46.40,030410,,*1F
$GPRMC,181059.7,A,3301.8992,N,11653.1003,W,32.90,47.50,030410,,*13
$GPRMC,181102.7,A,3301.9175,N,11653.0770,W,33.20,47.10,030410,,*10
$GPRMC,181105.7,A,3301.9369,N,11653.0517,W,33.30,47.80,030410,,*13
$GPRMC,181108.7,A,3301.9558,N,11653.0272,W,34.50,46.50,030410,,*13
$GPRMC,181111.7,A,3301.9739,N,11653.0024,W,33.70,46.20,030410,,*1D
$GPRMC,181114.7,A,3301.9917,N,11652.9781,W,32.20,47.30,030410,,*1E
$GPRMC,181117.7,A,3302.0113,N,11652.9572,W,30.70,45.60,030410,,*15
$GPRMC,181120.7,A,3302.0298,N,11652.9365,W,30.20,46.70,030410,,*16
$GPRMC,181123.7,A,3302.0474,N,11652.9145,W,29.00,45.70,030410,,*18
$GPRMC,181126.7,A,3302.0624,N,11652.8981,W,22.70,42.60,030410,,*11
$GPRMC,181129.7,A,3302.0670,N,11652.8893,W,12.50,43.90,030410,,*12
$GPRMC,181132.7,A,3302.0710,N,11652.8833,W,10.60,47.70,030410,,*1E
$GPRMC,181135.7,A,3302.0796,N,11652.8731,W,15.40,49.20,030410,,*16
$GPRMC,181138.7,A,3302.0908,N,11652.8587,W,20.90,48.70,030410,,*12
$GPRMC,181141.7,A,3302.1029,N,11652.8427,W,23.00,46.10,030410,,*1E
$GPRMC,181144.7,A,3302.1147,N,11652.8251,W,24.20,47.90,030410,,*19
$GPRMC,181147.7,A,3302.1306,N,11652.8061,W,26.30,49.10,030410,,*19
$GPRMC,181150.7,A,3302.1495,N,11652.7835,W,29.50,51.70,030410,,*12
$GPRMC,181153.7,A,3302.1653,N,11652.7574,W,30.80,56.30,030410,,*17
$GPRMC,181156.7,A,3302.1792,N,11652.7322,W,29.70,55.00,030410,,*1C
$GPRMC,181159.7,A,3302.1912,N,11652.7077,W,27.80,55.10,030410,,*16
$GPRMC,181202.7,A,3302.2022,N,11652.6866,W,23.70,56.60,030410,,*14
$GPRMC,181205.7,A,3302.2114,N,11652.6686,W,20.20,57.50,030410,,*13
$GPRMC,181208.7,A,3302.2194,N,11652.6530,W,18.10,57.80,030410,,*1D
$GPRMC,181211.7,A,3302.2264,N,11652.6399,W,15.70,58.20,030410,,*12
$GPRMC,181214.7,A,3302.2316,N,11652.6300,W,11.50,58.20,030410,,*15
$GPRMC,181217.7,A,3302.2355,N,11652.6220,W,8.50,59.50,030410,,*2C
$GPRMC,181220.7,A,3302.2387,N,11652.6168,W,6.90,56.20,030410,,*22
$GPRMC,181223.7,A,3302.2430,N,11652.6091,W,10.50,54.50,030410,,*13
$GPRMC,181226.7,A,3302.2501,N,11652.6000,W,12.40,50.30,030410,,*1C
$GPRMC,181229.7,A,3302.2580,N,11652.5859,W,17.10,54.70,030410,,*1D
$GPRMC,181232.7,A,3302.2690,N,11652.5675,W,23.60,57.40,030410,,*15
$GPRMC,181235.7,A,3302.2824,N,11652.5441,W,28.40,56.00,030410,,*1A
$GPRMC,181238.7,A,3302.2990,N,11652.5186,W,32.20,54.70,030410,,*1F
$GPRMC,181241.7,A,3302.3138,N,11652.4895,W,32.80,56.40,030410,,*1B
$GPRMC,181244.7,A,3302.3280,N,11652.4623,W,31.80,58.50,030410,,*11
$GPRMC,181247.7,A,3302.3416,N,11652.4350,W,32.00,57.00,030410,,*1B
$GPRMC,181250.7,A,3302.3567,N,11652.4082,W,32.20,57.60,030410,,*12
$GPRMC,181253.7,A,3302.3703,N,11652.3820,W,31.10,59.90,030410,,*17
$GPRMC,181256.7,A,3302.3826,N,11652.3595,W,24.60,56.90,030410,,*15
$GPRMC,181259.7,A,3302.3891,N,11652.3450,W,17.10,58.30,030410,,*1D
$GPRMC,181302.7,A,3302.3967,N,11652.3333,W,14.10,54.10,030410,,*15
$GPRMC,181305.7,A,3302.4014,N,11652.3232,W,12.90,59.20,030410,,*18
$GPRMC,181308.7,A,3302.4100,N,11652.3080,W,19.80,55.80,030410,,*16
$GPRMC,181311.7,A,3302.4220,N,11652.2876,W,25.80,57.20,030410,,*18
$GPRMC,181314.7,A,3302.4350,N,11652.2635,W,28.70,58.30,030410,,*1E
$GPRMC,181317.7,A,3302.4484,N,11652.2380,W,30.00,56.40,030410,,*1F
$GPRMC,181320.7,A,3302.4630,N,11652.2139,W,29.70,55.50,030410,,*1B
$GPRMC,181323.7,A,3302.4763,N,11652.1901,W,29.30,57.10,030410,,*1D
$GPRMC,181326.7,A,3302.4887,N,11652.1659,W,29.00,57.30,030410,,*1E
$GPRMC,181329.7,A,3302.5014,N,11652.1433,W,25.60,56.20,030410,,*16
$GPRMC,181332.7,A,3302.5092,N,11652.1286,W,15.60,56.30,030410,,*18
$GPRMC,181335.7,A,3302.5128,N,11652.1227,W,7.00,52.60,030410,,*20
$GPRMC,181456.7,A,3302.5178,N,11652.1184,W,5.40,13.20,030410,,*2A
$GPRMC,181459.7,A,3302.5230,N,11652.1117,W,7.80,42.10,030410,,*29
$GPRMC,181502.7,A,3302.5302,N,11652.0943,W,15.50,62.60,030410,,*15
$GPRMC,181505.7,A,3302.5446,N,11652.0692,W,25.30,56.40,030410,,*16
$GPRMC,181508.7,A,3302.5598,N,11652.0423,W,26.70,57.10,030410,,*12
$GPRMC,181511.7,A,3302.5720,N,11652.0189,W,25.20,56.10,030410,,*19
$GPRMC,181514.7,A,3302.5858,N,11651.9959,W,27.60,53.80,030410,,*19
$GPRMC,181517.7,A,3302.5984,N,11651.9703,W,29.30,56.90,030410,,*14
$GPRMC,181520.7,A,3302.6141,N,11651.9437,W,31.80,55.90,030410,,*17
$GPRMC,181523.7,A,3302.6290,N,11651.9167,W,32.90,55.40,030410,,*14
$GPRMC,181526.7,A,3302.6447,N,11651.8897,W,33.10,57.30,030410,,*16
$GPRMC,181529.7,A,3302.6594,N,11651.8611,W,33.90,57.90,030410,,*14
$GPRMC,181532.7,A,3302.6748,N,11651.8328,W,35.20,56.80,030410,,*1F
$GPRMC,181535.7,A,3302.6898,N,11651.8022,W,36.80,57.10,030410,,*12
$GPRMC,181538.7,A,3302.7074,N,11651.7689,W,38.40,58.20,030410,,*12
$GPRMC,181541.7,A,3302.7261,N,11651.7367,W,38.60,57.20,030410,,*12
$GPRMC,181544.7,A,3302.7454,N,11651.7040,W,39.80,55.70,030410,,*19
$GPRMC,181547.7,A,3302.7646,N,11651.6704,W,40.90,56.30,030410,,*15
$GPRMC,181550.7,A,3302.7841,N,11651.6354,W,41.70,56.40,030410,,*13
$GPRMC,181553.7,A,3302.8028,N,11651.6013,W,41.50,56.70,030410,,*19
$GPRMC,181556.7,A,3302.8226,N,11651.5668,W,41.30,57.80,030410,,*11
$GPRMC,181559.7,A,3302.8431,N,11651.5311,W,42.50,54.20,030410,,*19
$GPRMC,181602.7,A,3302.8691,N,11651.4980,W,44.20,48.00,030410,,*11
$GPRMC,181605.7,A,3302.8950,N,11651.4660,W,45.40,43.70,030410,,*1E
$GPRMC,181608.7,A,3302.9231,N,11651.4341,W,47.50,45.40,030410,,*1E
$GPRMC,181611.7,A,3302.9482,N,11651.3957,W,47.30,52.30,030410,,*15
$GPRMC,181614.7,A,3302.9722,N,11651.3579,W,47.20,53.90,030410,,*13
$GPRMC,181617.7,A,3302.9958,N,11651.3204,W,47.10,53.60,030410,,*12
$GPRMC,181620.7,A,3303.0188,N,11651.2830,W,46.40,56.20,030410,,*12
$GPRMC,181623.7,A,3303.0389,N,11651.2441,W,46.80,61.40,030410,,*16
$GPRMC,181626.7,A,3303.0549,N,11651.2009,W,47.10,67.80,030410,,*13
$GPRMC,181629.7,A,3303.0646,N,11651.1552,W,47.10,75.70,030410,,*14
$GPRMC,181632.7,A,3303.0688,N,11651.1103,W,46.00,83.20,030410,,*10
$GPRMC,181635.7,A,3303.0693,N,11651.0662,W,45.10,88.20,030410,,*15
$GPRMC,181638.7,A,3303.0705,N,11651.0197,W,46.40,89.50,030410,,*1B
$GPRMC,181641.7,A,3303.0705,N,11650.9739,W,47.30,91.00,030410,,*15
$GPRMC,181644.7,A,3303.0703,N,11650.9270,W,46.60,90.30,030410,,*18
$GPRMC,181647.7,A,3303.0706,N,11650.8796,W,46.60,90.00,030410,,*11
$GPRMC,181650.7,A,3303.0701,N,11650.8339,W,46.30,90.80,030410,,*1C
$GPRMC,181653.7,A,3303.0684,N,11650.7879,W,45.60,91.30,030410,,*1F
$GPRMC,181656.7,A,3303.0684,N,11650.7420,W,46.20,90.80,030410,,*17
$GPRMC,181700.7,A,3303.0683,N,11650.6810,W,45.50,90.10,030410,,*11
$GPRMC,181703.7,A,3303.0680,N,11650.6354,W,45.90,89.90,030410,,*16
$GPRMC,181706.7,A,3303.0685,N,11650.5928,W,44.00,89.80,030410,,*1D
$GPRMC,181709.7,A,3303.0683,N,11650.5475,W,45.50,90.20,030410,,*17
$GPRMC,181712.7,A,3303.0688,N,11650.5014,W,47.00,89.90,030410,,*11
$GPRMC,181715.7,A,3303.0687,N,11650.4543,W,47.00,89.70,030410,,*11
$GPRMC,181718.7,A,3303.0682,N,11650.4102,W,44.20,91.00,030410,,*17
$GPRMC,181721.7,A,3303.0641,N,11650.3681,W,41.80,99.30,030410,,*1D
$GPRMC,181724.7,A,3303.0548,N,11650.3315,W,39.80,104.50,030410,,*26
$GPRMC,181727.7,A,3303.0355,N,11650.3014,W,37.00,117.80,030410,,*24
$GPRMC,181730.7,A,3302.9980,N,11650.2830,W,40.30,142.50,030410,,*29
$GPRMC,181733.7,A,3302.9703,N,11650.2590,W,38.60,136.20,030410,,*26
$GPRMC,181736.7,A,3302.9492,N,11650.2307,W,39.90,130.40,030410,,*2E
$GPRMC,181739.7,A,3302.9354,N,11650.1965,W,38.20,121.80,030410,,*27
$GPRMC,181742.7,A,3302.9212,N,11650.1616,W,38.40,119.10,030410,,*27
$GPRMC,181745.7,A,3302.9083,N,11650.1279,W,38.00,113.90,030410,,*21
$GPRMC,181748.7,A,3302.8965,N,11650.0945,W,36.60,112.80,030410,,*21
$GPRMC,181751.7,A,3302.8833,N,11650.0650,W,34.20,120.30,030410,,*2C
$GPRMC,181754.7,A,3302.8676,N,11650.0385,W,31.40,126.20,030410,,*2F
$GPRMC,181757.7,A,3302.8417,N,11650.0206,W,33.40,143.80,030410,,*28
$GPRMC,181800.7,A,3302.8131,N,11650.0007,W,37.80,140.40,030410,,*20
$GPRMC,181803.7,A,3302.7898,N,11649.9776,W,36.20,136.80,030410,,*20
$GPRMC,181806.7,A,3302.7789,N,11649.9400,W,35.90,117.50,030410,,*2E
$GPRMC,181809.7,A,3302.7798,N,11649.8996,W,36.30,96.10,030410,,*17
$GPRMC,181812.7,A,3302.7842,N,11649.8487,W,46.50,89.00,030410,,*16
$GPRMC,181815.7,A,3302.7889,N,11649.7982,W,48.30,87.40,030410,,*13
$GPRMC,181818.7,A,3302.7903,N,11649.7488,W,49.20,88.40,030410,,*15
$GPRMC,181821.7,A,3302.7932,N,11649.6991,W,50.80,85.90,030410,,*1B
$GPRMC,181824.7,A,3302.8023,N,11649.6473,W,52.40,80.80,030410,,*13
$GPRMC,181827.7,A,3302.8090,N,11649.5977,W,51.10,79.10,030410,,*1B
$GPRMC,181830.7,A,3302.8138,N,11649.5494,W,48.50,79.40,030410,,*17
$GPRMC,181833.7,A,3302.8226,N,11649.5059,W,45.00,76.40,030410,,*1A
$GPRMC,181836.7,A,3302.8436,N,11649.4659,W,43.20,61.70,030410,,*1E
$GPRMC,181839.7,A,3302.8650,N,11649.4264,W,45.20,57.00,030410,,*1D
$GPRMC,181842.7,A,3302.8891,N,11649.3866,W,48.30,55.90,030410,,*1A
$GPRMC,181845.7,A,3302.9103,N,11649.3456,W,48.70,59.00,030410,,*10
$GPRMC,181848.7,A,3302.9301,N,11649.3048,W,48.10,65.10,030410,,*1E
$GPRMC,181851.7,A,3302.9479,N,11649.2631,W,46.90,61.20,030410,,*16
$GPRMC,181854.7,A,3302.9706,N,11649.2255,W,47.00,53.00,030410,,*15
$GPRMC,181857.7,A,3302.9992,N,11649.1979,W,42.60,42.70,030410,,*17
$GPRMC,181900.7,A,3303.0309,N,11649.1798,W,41.10,32.10,030410,,*10
$GPRMC,181903.7,A,3303.0720,N,11649.1794,W,44.90,16.00,030410,,*1A
$GPRMC,181906.7,A,3303.1126,N,11649.1902,W,45.30,359.00,030410,,*2C
$GPRMC,181909.7,A,3303.1528,N,11649.1963,W,44.60,354.70,030410,,*20
$GPRMC,181912.7,A,3303.1916,N,11649.2017,W,46.70,353.90,030410,,*28
$GPRMC,181915.7,A,3303.2313,N,11649.2090,W,47.00,351.70,030410,,*26
$GPRMC,181918.7,A,3303.2700,N,11649.2169,W,45.90,355.60,030410,,*24
$GPRMC,181921.7,A,3303.3059,N,11649.2157,W,45.20,7.30,030410,,*23
$GPRMC,181924.7,A,3303.3402,N,11649.2067,W,45.10,13.30,030410,,*18
$GPRMC,181927.7,A,3303.3701,N,11649.1868,W,41.90,24.20,030410,,*16
$GPRMC,181930.7,A,3303.3890,N,11649.1523,W,42.90,43.70,030410,,*12
$GPRMC,181933.7,A,3303.4124,N,11649.1180,W,44.90,44.70,030410,,*1C
$GPRMC,181936.7,A,3303.4383,N,11649.0835,W,47.20,43.30,030410,,*1B
$GPRMC,181939.7,A,3303.4671,N,11649.0508,W,48.50,41.30,030410,,*15
$GPRMC,181942.7,A,3303.4987,N,11649.0177,W,49.40,37.10,030410,,*10
$GPRMC,181945.7,A,3303.5331,N,11648.9894,W,48.00,33.90,030410,,*14
$GPRMC,181948.7,A,3303.5622,N,11648.9627,W,43.90,37.30,030410,,*14
$GPRMC,181951.7,A,3303.5830,N,11648.9293,W,41.50,48.70,030410,,*18
$GPRMC,181954.7,A,3303.5939,N,11648.8921,W,40.00,61.90,030410,,*17
$GPRMC,181957.7,A,3303.6100,N,11648.8624,W,36.70,55.00,030410,,*17
$GPRMC,182000.7,A,3303.6378,N,11648.8400,W,39.80,41.30,030410,,*10
$GPRMC,182003.7,A,3303.6722,N,11648.8159,W,46.10,32.00,030410,,*17
$GPRMC,182006.7,A,3303.7105,N,11648.7964,W,48.00,23.40,030410,,*12
$GPRMC,182009.7,A,3303.7495,N,11648.7811,W,46.80,20.20,030410,,*11
$GPRMC,182012.7,A,3303.7826,N,11648.7593,W,46.50,31.10,030410,,*16
$GPRMC,182015.7,A,3303.8112,N,11648.7292,W,45.60,40.70,030410,,*16
$GPRMC,182018.7,A,3303.8325,N,11648.6991,W,39.30,44.00,030410,,*19
$GPRMC,182021.7,A,3303.8532,N,11648.6781,W,32.70,37.90,030410,,*1E
$GPRMC,182024.7,A,3303.8761,N,11648.6678,W,30.10,22.60,030410,,*17
$GPRMC,182027.7,A,3303.9003,N,11648.6544,W,32.80,32.50,030410,,*13
$GPRMC,182030.7,A,3303.9237,N,11648.6313,W,35.50,40.80,030410,,*16
$GPRMC,182033.7,A,3303.9412,N,11648.6009,W,39.60,50.30,030410,,*19
$GPRMC,182036.7,A,3303.9637,N,11648.5718,W,39.60,42.60,030410,,*1B
$GPRMC,182039.7,A,3303.9907,N,11648.5506,W,37.60,31.80,030410,,*11
$GPRMC,182042.7,A,3304.0144,N,11648.5340,W,34.30,30.90,030410,,*1E
$GPRMC,182045.7,A,3304.0377,N,11648.5287,W,29.40,16.40,030410,,*13
$GPRMC,182048.7,A,3304.0599,N,11648.5215,W,32.00,23.30,030410,,*1C
$GPRMC,182051.7,A,3304.0814,N,11648.5115,W,31.20,24.50,030410,,*1F
$GPRMC,182054.7,A,3304.1047,N,11648.4795,W,40.60,42.50,030410,,*18
$GPRMC,182057.7,A,3304.1283,N,11648.4504,W,41.90,42.00,030410,,*10
$GPRMC,182100.7,A,3304.1555,N,11648.4248,W,43.30,37.40,030410,,*1E
$GPRMC,182103.7,A,3304.1853,N,11648.4049,W,43.00,27.30,030410,,*10
$GPRMC,182106.7,A,3304.2176,N,11648.3876,W,43.60,26.10,030410,,*1E
$GPRMC,182109.7,A,3304.2475,N,11648.3630,W,41.80,34.60,030410,,*13
$GPRMC,182112.7,A,3304.2759,N,11648.3407,W,37.90,24.10,030410,,*14
$GPRMC,182115.7,A,3304.3045,N,11648.3284,W,35.00,22.40,030410,,*1D
$GPRMC,182118.7,A,3304.3262,N,11648.3111,W,32.40,34.00,030410,,*18
$GPRMC,182121.7,A,3304.3463,N,11648.2910,W,31.10,39.80,030410,,*1E
$GPRMC,182124.7,A,3304.3661,N,11648.2705,W,31.70,40.50,030410,,*14
$GPRMC,182127.7,A,3304.3876,N,11648.2473,W,31.90,41.70,030410,,*10
$GPRMC,182130.7,A,3304.4059,N,11648.2234,W,32.30,44.20,030410,,*18
$GPRMC,182133.7,A,3304.4269,N,11648.2003,W,33.60,41.70,030410,,*18
$GPRMC,182136.7,A,3304.4530,N,11648.1841,W,35.20,28.30,030410,,*12
$GPRMC,182139.7,A,3304.4795,N,11648.1671,W,36.80,29.70,030410,,*11
$GPRMC,182142.7,A,3304.5040,N,11648.1401,W,39.60,40.90,030410,,*16
$GPRMC,182145.7,A,3304.5273,N,11648.1104,W,39.30,45.40,030410,,*1E
$GPRMC,182148.7,A,3304.5413,N,11648.0763,W,38.80,59.50,030410,,*13
$GPRMC,182151.7,A,3304.5605,N,11648.0422,W,39.40,57.00,030410,,*1E
$GPRMC,182154.7,A,3304.5758,N,11648.0090,W,37.20,60.30,030410,,*10
$GPRMC,182157.7,A,3304.5918,N,11647.9784,W,33.30,55.80,030410,,*15
$GPRMC,182200.7,A,3304.6163,N,11647.9660,W,30.10,35.30,030410,,*14
$GPRMC,182203.7,A,3304.6405,N,11647.9463,W,36.00,39.60,030410,,*1D
$GPRMC,182206.7,A,3304.6650,N,11647.9173,W,42.90,46.30,030410,,*19
$GPRMC,182209.7,A,3304.6903,N,11647.8841,W,45.50,40.70,030410,,*1F
$GPRMC,182212.7,A,3304.7228,N,11647.8562,W,48.80,33.10,030410,,*18
$GPRMC,182215.7,A,3304.7585,N,11647.8286,W,49.70,31.70,030410,,*18
$GPRMC,182218.7,A,3304.7929,N,11647.8034,W,49.40,30.60,030410,,*17
$GPRMC,182221.7,A,3304.8299,N,11647.7823,W,50.10,26.00,030410,,*1F
$GPRMC,182224.7,A,3304.8656,N,11647.7627,W,47.50,25.60,030410,,*10
$GPRMC,182227.7,A,3304.8985,N,11647.7449,W,45.10,25.90,030410,,*11
$GPRMC,182230.7,A,3304.9318,N,11647.7196,W,45.50,31.00,030410,,*17
$GPRMC,182233.7,A,3304.9630,N,11647.6954,W,45.30,32.60,030410,,*1F
$GPRMC,182236.7,A,3304.9952,N,11647.6719,W,44.80,33.90,030410,,*12
