NMEA Sentence Code,UTC Time,Status,Latitude,Latitude Direction,Longitude,Longitude Direction,Speed (knots),Track Angle (degrees true),Date,MagneticVariation,Magnetic Variation Direction,[FAA Mode]-Optional,Checksum
$GPRMC,083957.0,A,3340.046079,N,11749.018361,W,66.4,111.6,260210,,,A*47
$GPRMC,084000.0,A,3340.025724,N,11748.957136,W,65.8,111.8,260210,,,A*43
$GPRMC,084003.0,A,3340.005024,N,11748.896319,W,66.0,112.2,260210,,,A*44
$GPRMC,084006.0,A,3339.984527,N,11748.835089,W,66.1,112.0,260210,,,A*49
$GPRMC,084009.0,A,3339.964961,N,11748.773377,W,66.2,109.9,260210,,,A*49
$GPRMC,084012.0,A,3339.947375,N,11748.710643,W,66.3,107.7,260210,,,A*4B
$GPRMC,084015.0,A,3339.932224,N,11748.647045,W,66.4,104.8,260210,,,A*43
$GPRMC,084018.0,A,3339.919372,N,11748.582355,W,66.4,102.2,260210,,,A*41
$GPRMC,084021.0,A,3339.909178,N,11748.517117,W,66.1,99.8,260210,,,A*76
$GPRMC,084024.0,A,3339.899990,N,11748.451939,W,66.2,99.9,260210,,,A*70
$GPRMC,084027.0,A,3339.890839,N,11748.386852,W,66.2,99.5,260210,,,A*75
$GPRMC,084030.0,A,3339.881779,N,11748.321518,W,66.2,99.6,260210,,,A*75
$GPRMC,084033.0,A,3339.872755,N,11748.256411,W,66.0,99.4,260210,,,A*7D
$GPRMC,084036.0,A,3339.863750,N,11748.191404,W,65.8,99.5,260210,,,A*7B
$GPRMC,084039.0,A,3339.854931,N,11748.126076,W,66.3,99.4,260210,,,A*7D
$GPRMC,084042.0,A,3339.845912,N,11748.060551,W,66.4,99.7,260210,,,A*77
$GPRMC,084045.0,A,3339.836605,N,11747.995162,W,66.3,99.8,260210,,,A*7D
$GPRMC,084048.0,A,3339.827578,N,11747.929954,W,66.2,99.4,260210,,,A*7E
$GPRMC,084051.0,A,3339.818674,N,11747.864661,W,66.1,99.3,260210,,,A*70
$GPRMC,084054.0,A,3339.809591,N,11747.799518,W,66.1,99.7,260210,,,A*79
$GPRMC,084057.0,A,3339.800169,N,11747.734381,W,66.2,99.7,260210,,,A*72
$GPRMC,084100.0,A,3339.790923,N,11747.669244,W,66.2,99.7,260210,,,A*70
$GPRMC,084103.0,A,3339.781976,N,11747.603965,W,66.4,99.2,260210,,,A*74
$GPRMC,084106.0,A,3339.772979,N,11747.538828,W,66.1,99.4,260210,,,A*72
$GPRMC,084109.0,A,3339.763916,N,11747.473680,W,66.2,99.7,260210,,,A*76
$GPRMC,084112.0,A,3339.754522,N,11747.408643,W,66.1,99.7,260210,,,A*73
$GPRMC,084115.0,A,3339.745351,N,11747.343335,W,66.3,99.9,260210,,,A*76
$GPRMC,084118.0,A,3339.734340,N,11747.278409,W,66.2,103.3,260210,,,A*45
$GPRMC,084121.0,A,3339.719602,N,11747.214624,W,66.1,107.2,260210,,,A*42
$GPRMC,084124.0,A,3339.701324,N,11747.152343,W,66.2,111.0,260210,,,A*4C
$GPRMC,084127.0,A,3339.679213,N,11747.091757,W,66.2,115.2,260210,,,A*4D
$GPRMC,084130.0,A,3339.653803,N,11747.033022,W,66.0,118.5,260210,,,A*4D
$GPRMC,084133.0,A,3339.624939,N,11746.976399,W,66.4,123.3,260210,,,A*46
$GPRMC,084136.0,A,3339.593429,N,11746.921958,W,66.3,125.1,260210,,,A*46
$GPRMC,084139.0,A,3339.561823,N,11746.867639,W,66.2,124.3,260210,,,A*4B
$GPRMC,084142.0,A,3339.530441,N,11746.813233,W,66.2,124.5,260210,,,A*40
$GPRMC,084145.0,A,3339.498783,N,11746.758783,W,66.2,124.6,260210,,,A*44
$GPRMC,084148.0,A,3339.467159,N,11746.703990,W,67.8,124.3,260210,,,A*44
$GPRMC,084151.0,A,3339.435272,N,11746.648484,W,67.4,124.6,260210,,,A*4E
$GPRMC,084154.0,A,3339.403460,N,11746.593626,W,66.7,124.7,260210,,,A*47
$GPRMC,084157.0,A,3339.371583,N,11746.538828,W,67.2,124.6,260210,,,A*4E
$GPRMC,084200.0,A,3339.338989,N,11746.482723,W,69.1,124.7,260210,,,A*4C
$GPRMC,084203.0,A,3339.306405,N,11746.426231,W,68.5,124.6,260210,,,A*47
$GPRMC,084206.0,A,3339.274287,N,11746.369809,W,68.3,124.0,260210,,,A*47
$GPRMC,084209.0,A,3339.242970,N,11746.312793,W,68.2,121.7,260210,,,A*4D
$GPRMC,084212.0,A,3339.215089,N,11746.253570,W,68.5,117.5,260210,,,A*41
$GPRMC,084215.0,A,3339.190303,N,11746.190761,W,70.2,112.9,260210,,,A*40
$GPRMC,084218.0,A,3339.168969,N,11746.125267,W,70.0,109.4,260210,,,A*44
$GPRMC,084221.0,A,3339.151815,N,11746.058585,W,69.3,105.6,260210,,,A*4B
$GPRMC,084224.0,A,3339.138875,N,11745.990576,W,69.4,101.4,260210,,,A*44
$GPRMC,084227.0,A,3339.128678,N,11745.921672,W,69.9,99.8,260210,,,A*79
$GPRMC,084230.0,A,3339.118906,N,11745.852365,W,70.2,99.9,260210,,,A*7E
$GPRMC,084233.0,A,3339.109022,N,11745.783034,W,70.0,99.8,260210,,,A*75
$GPRMC,084236.0,A,3339.099353,N,11745.714245,W,69.4,99.8,260210,,,A*7B
$GPRMC,084239.0,A,3339.089262,N,11745.645949,W,69.4,100.3,260210,,,A*4E
$GPRMC,084242.0,A,3339.079194,N,11745.577533,W,69.6,100.1,260210,,,A*44
$GPRMC,084245.0,A,3339.068250,N,11745.509101,W,69.9,102.4,260210,,,A*4C
$GPRMC,084248.0,A,3339.053661,N,11745.441580,W,69.9,106.7,260210,,,A*48
$GPRMC,084251.0,A,3339.035375,N,11745.375291,W,69.6,109.1,260210,,,A*41
$GPRMC,084254.0,A,3339.016267,N,11745.309746,W,69.6,109.2,260210,,,A*40
$GPRMC,084257.0,A,3338.997151,N,11745.243834,W,69.7,109.5,260210,,,A*47
$GPRMC,084300.0,A,3338.977532,N,11745.178023,W,69.7,109.6,260210,,,A*4D
$GPRMC,084303.0,A,3338.957949,N,11745.112272,W,69.6,109.4,260210,,,A*45
$GPRMC,084306.0,A,3338.939099,N,11745.046491,W,69.5,108.8,260210,,,A*49
$GPRMC,084309.0,A,3338.920459,N,11744.980549,W,69.7,109.0,260210,,,A*4B
$GPRMC,084312.0,A,3338.901617,N,11744.914732,W,69.7,108.9,260210,,,A*41
$GPRMC,084315.0,A,3338.883115,N,11744.849037,W,69.6,108.5,260210,,,A*4E
$GPRMC,084318.0,A,3338.864216,N,11744.783140,W,69.6,109.2,260210,,,A*44
$GPRMC,084321.0,A,3338.844977,N,11744.717449,W,69.6,109.4,260210,,,A*47
$GPRMC,084324.0,A,3338.825672,N,11744.651919,W,69.6,109.4,260210,,,A*44
$GPRMC,084327.0,A,3338.806441,N,11744.586329,W,69.5,109.3,260210,,,A*40
$GPRMC,084330.0,A,3338.787224,N,11744.520729,W,69.6,109.4,260210,,,A*49
$GPRMC,084333.0,A,3338.768028,N,11744.454812,W,69.7,109.1,260210,,,A*44
$GPRMC,084336.0,A,3338.749088,N,11744.389147,W,69.7,108.9,260210,,,A*4F
$GPRMC,084339.0,A,3338.730088,N,11744.323557,W,69.4,109.3,260210,,,A*43
$GPRMC,084342.0,A,3338.708885,N,11744.258952,W,69.6,113.4,260210,,,A*4B
$GPRMC,084345.0,A,3338.682661,N,11744.196847,W,70.1,120.1,260210,,,A*45
$GPRMC,084348.0,A,3338.649874,N,11744.139128,W,70.1,126.5,260210,,,A*42
$GPRMC,084351.0,A,3338.612012,N,11744.086015,W,69.3,132.9,260210,,,A*45
$GPRMC,084354.0,A,3338.568638,N,11744.038968,W,69.9,140.5,260210,,,A*45
$GPRMC,084357.0,A,3338.521349,N,11743.997789,W,69.7,146.4,260210,,,A*4B
$GPRMC,084400.0,A,3338.471797,N,11743.961071,W,69.6,148.4,260210,,,A*4B
$GPRMC,084403.0,A,3338.422486,N,11743.924097,W,69.7,147.0,260210,,,A*4E
$GPRMC,084406.0,A,3338.374078,N,11743.884492,W,70.1,144.9,260210,,,A*44
$GPRMC,084409.0,A,3338.325818,N,11743.844752,W,70.0,145.7,260210,,,A*4C
$GPRMC,084412.0,A,3338.278024,N,11743.806948,W,64.5,146.4,260210,,,A*4B
$GPRMC,084415.0,A,3338.235965,N,11743.773650,W,57.6,146.1,260210,,,A*44
$GPRMC,084418.0,A,3338.196994,N,11743.742324,W,55.4,145.8,260210,,,A*43
$GPRMC,084421.0,A,3338.158793,N,11743.711430,W,55.4,145.8,260210,,,A*46
$GPRMC,084424.0,A,3338.120101,N,11743.679997,W,56.5,145.8,260210,,,A*4C
$GPRMC,084427.0,A,3338.080806,N,11743.648525,W,57.1,146.0,260210,,,A*43
$GPRMC,084430.0,A,3338.041538,N,11743.616565,W,57.2,145.0,260210,,,A*47
$GPRMC,084433.0,A,3338.002477,N,11743.582357,W,58.9,142.1,260210,,,A*42
$GPRMC,084436.0,A,3337.964957,N,11743.545367,W,57.7,138.9,260210,,,A*42
$GPRMC,084439.0,A,3337.930110,N,11743.507096,W,56.0,136.4,260210,,,A*49
$GPRMC,084442.0,A,3337.896800,N,11743.468879,W,55.3,135.9,260210,,,A*4F
$GPRMC,084445.0,A,3337.863879,N,11743.430658,W,54.8,135.6,260210,,,A*49
$GPRMC,084448.0,A,3337.831137,N,11743.392305,W,55.8,135.3,260210,,,A*46
$GPRMC,084451.0,A,3337.796717,N,11743.352525,W,58.4,135.9,260210,,,A*4B
$GPRMC,084454.0,A,3337.760445,N,11743.312277,W,59.6,138.9,260210,,,A*49
$GPRMC,084457.0,A,3337.721896,N,11743.274603,W,59.4,142.2,260210,,,A*4F
$GPRMC,084500.0,A,3337.682762,N,11743.238514,W,58.3,142.5,260210,,,A*4C
$GPRMC,084503.0,A,3337.644347,N,11743.203044,W,57.6,142.4,260210,,,A*45
$GPRMC,084506.0,A,3337.606865,N,11743.168866,W,56.0,142.5,260210,,,A*4D
$GPRMC,084509.0,A,3337.570333,N,11743.135462,W,54.6,142.6,260210,,,A*4F
$GPRMC,084512.0,A,3337.535383,N,11743.103004,W,52.4,141.1,260210,,,A*4E
$GPRMC,084515.0,A,3337.501831,N,11743.070123,W,52.2,141.3,260210,,,A*49
$GPRMC,084518.0,A,3337.468053,N,11743.038636,W,51.1,142.6,260210,,,A*4F
$GPRMC,084521.0,A,3337.433656,N,11743.007199,W,52.9,142.6,260210,,,A*4D
$GPRMC,084524.0,A,3337.398834,N,11742.975138,W,52.6,142.4,260210,,,A*4F
$GPRMC,084527.0,A,3337.363995,N,11742.942856,W,53.4,142.4,260210,,,A*44
$GPRMC,084530.0,A,3337.328348,N,11742.910066,W,54.4,142.7,260210,,,A*4F
$GPRMC,084533.0,A,3337.292264,N,11742.876869,W,54.8,142.6,260210,,,A*48
$GPRMC,084536.0,A,3337.256034,N,11742.843832,W,54.3,142.6,260210,,,A*41
$GPRMC,084539.0,A,3337.220463,N,11742.810791,W,53.7,142.1,260210,,,A*4D
$GPRMC,084542.0,A,3337.185410,N,11742.778358,W,52.2,142.6,260210,,,A*4A
$GPRMC,084545.0,A,3337.150709,N,11742.746820,W,52.7,142.7,260210,,,A*43
$GPRMC,084548.0,A,3337.115812,N,11742.714699,W,53.4,142.6,260210,,,A*42
$GPRMC,084551.0,A,3337.080140,N,11742.682216,W,54.0,142.6,260210,,,A*47
$GPRMC,084554.0,A,3337.044172,N,11742.649536,W,54.3,142.8,260210,,,A*44
$GPRMC,084557.0,A,3337.008407,N,11742.616837,W,53.9,142.1,260210,,,A*4A
$GPRMC,084600.0,A,3336.973686,N,11742.583217,W,53.5,139.8,260210,,,A*4A
$GPRMC,084603.0,A,3336.940325,N,11742.547882,W,53.4,137.0,260210,,,A*4C
$GPRMC,084606.0,A,3336.907583,N,11742.509822,W,55.9,135.5,260210,,,A*4C
$GPRMC,084609.0,A,3336.873143,N,11742.469488,W,59.7,135.8,260210,,,A*4D
$GPRMC,084612.0,A,3336.836219,N,11742.426227,W,63.6,135.4,260210,,,A*46
$GPRMC,084615.0,A,3336.797653,N,11742.380512,W,66.0,135.4,260210,,,A*46
$GPRMC,084618.0,A,3336.758267,N,11742.333882,W,66.8,135.5,260210,,,A*4E
$GPRMC,084621.0,A,3336.717886,N,11742.286578,W,68.0,135.7,260210,,,A*49
$GPRMC,084624.0,A,3336.678151,N,11742.239842,W,66.9,134.8,260210,,,A*4E
$GPRMC,084627.0,A,3336.640135,N,11742.190647,W,67.7,131.0,260210,,,A*4D
$GPRMC,084630.0,A,3336.604931,N,11742.137057,W,67.9,126.6,260210,,,A*43
$GPRMC,084633.0,A,3336.572820,N,11742.080293,W,69.5,122.6,260210,,,A*42
$GPRMC,084636.0,A,3336.543211,N,11742.020039,W,70.0,118.8,260210,,,A*4F
$GPRMC,084639.0,A,3336.516494,N,11741.957989,W,69.8,116.8,260210,,,A*4D
$GPRMC,084642.0,A,3336.491064,N,11741.895416,W,69.7,116.2,260210,,,A*45
$GPRMC,084645.0,A,3336.465335,N,11741.833337,W,69.5,116.6,260210,,,A*40
$GPRMC,084648.0,A,3336.440182,N,11741.770895,W,69.5,116.7,260210,,,A*4E
$GPRMC,084651.0,A,3336.414209,N,11741.709389,W,69.1,117.7,260210,,,A*4A
$GPRMC,084654.0,A,3336.386858,N,11741.648687,W,69.0,119.6,260210,,,A*4C
$GPRMC,084657.0,A,3336.357477,N,11741.589162,W,69.2,122.0,260210,,,A*4C
$GPRMC,084700.0,A,3336.326541,N,11741.530552,W,69.3,123.1,260210,,,A*49
$GPRMC,084703.0,A,3336.293464,N,11741.473582,W,69.6,126.2,260210,,,A*4B
$GPRMC,084706.0,A,3336.257999,N,11741.418493,W,69.3,128.4,260210,,,A*48
$GPRMC,084709.0,A,3336.221605,N,11741.364928,W,68.9,128.8,260210,,,A*4A
$GPRMC,084712.0,A,3336.186323,N,11741.310613,W,68.8,126.4,260210,,,A*48
$GPRMC,084715.0,A,3336.154619,N,11741.253532,W,68.6,121.1,260210,,,A*46
$GPRMC,084718.0,A,3336.126278,N,11741.193534,W,69.7,118.4,260210,,,A*4B
$GPRMC,084721.0,A,3336.100330,N,11741.130610,W,71.2,115.1,260210,,,A*40
$GPRMC,084724.0,A,3336.075534,N,11741.066227,W,70.8,115.1,260210,,,A*4D
$GPRMC,084727.0,A,3336.050524,N,11741.002558,W,70.6,115.1,260210,,,A*4B
$GPRMC,084730.0,A,3336.026258,N,11740.938683,W,70.3,114.9,260210,,,A*48
$GPRMC,084733.0,A,3336.001442,N,11740.875019,W,70.5,115.3,260210,,,A*43
$GPRMC,084736.0,A,3335.976530,N,11740.811506,W,70.3,115.4,260210,,,A*40
$GPRMC,084739.0,A,3335.951631,N,11740.747731,W,70.0,115.3,260210,,,A*46
$GPRMC,084742.0,A,3335.926462,N,11740.684545,W,70.4,116.6,260210,,,A*43
$GPRMC,084745.0,A,3335.896564,N,11740.623300,W,70.7,124.1,260210,,,A*46
$GPRMC,084748.0,A,3335.860093,N,11740.566949,W,71.0,130.8,260210,,,A*40
$GPRMC,084751.0,A,3335.819123,N,11740.515339,W,71.1,134.2,260210,,,A*4A
$GPRMC,084754.0,A,3335.775027,N,11740.467593,W,71.2,138.1,260210,,,A*41
$GPRMC,084757.0,A,3335.728485,N,11740.424468,W,70.6,143.7,260210,,,A*4B
$GPRMC,084800.0,A,3335.677912,N,11740.385643,W,73.4,149.8,260210,,,A*4D
$GPRMC,084803.0,A,3335.622587,N,11740.352581,W,74.0,155.9,260210,,,A*46
$GPRMC,084806.0,A,3335.564183,N,11740.327300,W,74.2,163.2,260210,,,A*43
$GPRMC,084809.0,A,3335.503590,N,11740.310829,W,73.8,169.3,260210,,,A*49
$GPRMC,084812.0,A,3335.441930,N,11740.302406,W,73.7,176.4,260210,,,A*46
$GPRMC,084815.0,A,3335.380154,N,11740.302949,W,73.7,181.0,260210,,,A*4B
$GPRMC,084818.0,A,3335.318567,N,11740.303975,W,73.5,179.6,260210,,,A*4E
$GPRMC,084821.0,A,3335.257803,N,11740.304010,W,72.5,179.9,260210,,,A*42
$GPRMC,084824.0,A,3335.196857,N,11740.304764,W,73.4,180.7,260210,,,A*44
$GPRMC,084827.0,A,3335.135316,N,11740.306343,W,73.9,180.8,260210,,,A*41
$GPRMC,084830.0,A,3335.073952,N,11740.307088,W,73.2,180.3,260210,,,A*4B
$GPRMC,084833.0,A,3335.012846,N,11740.308099,W,73.2,180.7,260210,,,A*40
$GPRMC,084836.0,A,3334.951837,N,11740.309230,W,73.2,180.6,260210,,,A*4D
$GPRMC,084839.0,A,3334.890550,N,11740.310352,W,73.3,180.9,260210,,,A*41
$GPRMC,084842.0,A,3334.829335,N,11740.311860,W,73.3,181.2,260210,,,A*4B
$GPRMC,084845.0,A,3334.767924,N,11740.312927,W,73.4,180.7,260210,,,A*41
$GPRMC,084848.0,A,3334.706596,N,11740.314018,W,73.3,180.4,260210,,,A*49
$GPRMC,084851.0,A,3334.645366,N,11740.314893,W,73.3,180.7,260210,,,A*46
$GPRMC,084854.0,A,3334.584159,N,11740.316155,W,73.3,180.9,260210,,,A*4C
$GPRMC,084857.0,A,3334.523075,N,11740.317337,W,73.2,180.7,260210,,,A*45
$GPRMC,084900.0,A,3334.461886,N,11740.318650,W,73.3,180.9,260210,,,A*41
$GPRMC,084903.0,A,3334.400636,N,11740.319661,W,73.4,180.8,260210,,,A*45
$GPRMC,084906.0,A,3334.339293,N,11740.320958,W,73.4,180.9,260210,,,A*48
$GPRMC,084909.0,A,3334.277990,N,11740.322482,W,73.4,181.4,260210,,,A*40
$GPRMC,084912.0,A,3334.216806,N,11740.324594,W,73.2,181.5,260210,,,A*44
$GPRMC,084915.0,A,3334.155691,N,11740.326837,W,73.2,182.1,260210,,,A*46
$GPRMC,084918.0,A,3334.094540,N,11740.331640,W,73.3,185.2,260210,,,A*45
$GPRMC,084921.0,A,3334.033541,N,11740.338988,W,73.3,186.3,260210,,,A*43
$GPRMC,084924.0,A,3333.972643,N,11740.347547,W,73.3,186.9,260210,,,A*41
$GPRMC,084927.0,A,3333.911999,N,11740.356298,W,73.2,186.7,260210,,,A*45
$GPRMC,084930.0,A,3333.851167,N,11740.364375,W,73.3,186.1,260210,,,A*4B
$GPRMC,084933.0,A,3333.790362,N,11740.372582,W,73.3,186.2,260210,,,A*47
$GPRMC,084936.0,A,3333.730485,N,11740.380694,W,70.4,186.9,260210,,,A*40
$GPRMC,084939.0,A,3333.674636,N,11740.391110,W,65.4,190.9,260210,,,A*4C
$GPRMC,084942.0,A,3333.623752,N,11740.403959,W,59.0,192.0,260210,,,A*48
$GPRMC,084945.0,A,3333.580322,N,11740.415129,W,47.6,192.0,260210,,,A*47
$GPRMC,084948.0,A,3333.549617,N,11740.423065,W,32.9,194.1,260210,,,A*4A
$GPRMC,084951.0,A,3333.529712,N,11740.440883,W,32.1,234.0,260210,,,A*45
$GPRMC,084954.0,A,3333.518195,N,11740.478224,W,43.8,249.8,260210,,,A*4A
$GPRMC,084957.0,A,3333.505509,N,11740.523944,W,50.4,248.0,260210,,,A*41
$GPRMC,085000.0,A,3333.485656,N,11740.570368,W,53.3,238.7,260210,,,A*4D
$GPRMC,085003.0,A,3333.461491,N,11740.616134,W,54.3,237.8,260210,,,A*42
$GPRMC,085006.0,A,3333.440839,N,11740.659892,W,44.6,242.4,260210,,,A*4E
$GPRMC,085009.0,A,3333.431978,N,11740.685380,W,17.9,248.1,260210,,,A*4C
$GPRMC,085012.0,A,3333.428659,N,11740.698109,W,11.8,251.1,260210,,,A*42
$GPRMC,085015.0,A,3333.426906,N,11740.707588,W,8.0,255.9,260210,,,A*78
$GPRMC,085018.0,A,3333.425538,N,11740.714378,W,7.2,255.2,260210,,,A*7A
$GPRMC,085021.0,A,3333.423883,N,11740.723048,W,11.0,256.9,260210,,,A*42
$GPRMC,085024.0,A,3333.420946,N,11740.737869,W,19.1,254.0,260210,,,A*40
$GPRMC,085027.0,A,3333.416850,N,11740.761214,W,28.3,257.1,260210,,,A*41
$GPRMC,085030.0,A,3333.411210,N,11740.793164,W,35.9,257.1,260210,,,A*41
$GPRMC,085033.0,A,3333.404619,N,11740.831371,W,40.4,258.7,260210,,,A*4C
$GPRMC,085036.0,A,3333.396233,N,11740.873862,W,45.8,255.2,260210,,,A*47
$GPRMC,085039.0,A,3333.383080,N,11740.919346,W,49.7,246.6,260210,,,A*43
$GPRMC,085042.0,A,3333.361955,N,11740.964915,W,54.3,236.6,260210,,,A*4B
$GPRMC,085045.0,A,3333.333683,N,11741.006631,W,53.3,226.7,260210,,,A*4D
$GPRMC,085048.0,A,3333.300423,N,11741.041081,W,52.5,217.5,260210,,,A*41
$GPRMC,085051.0,A,3333.265757,N,11741.072714,W,51.9,218.5,260210,,,A*40
$GPRMC,085054.0,A,3333.232816,N,11741.105831,W,51.5,220.9,260210,,,A*4F
$GPRMC,085057.0,A,3333.201666,N,11741.142001,W,52.6,227.8,260210,,,A*4B
$GPRMC,085100.0,A,3333.175695,N,11741.183466,W,52.6,235.7,260210,,,A*40
$GPRMC,085103.0,A,3333.149343,N,11741.226515,W,54.1,230.5,260210,,,A*4D
$GPRMC,085106.0,A,3333.117171,N,11741.265506,W,54.8,220.7,260210,,,A*4F
$GPRMC,085109.0,A,3333.078009,N,11741.296923,W,56.5,209.2,260210,,,A*40
$GPRMC,085112.0,A,3333.034774,N,11741.319389,W,56.4,199.4,260210,,,A*4E
$GPRMC,085115.0,A,3332.990432,N,11741.336161,W,55.3,198.0,260210,,,A*46
$GPRMC,085118.0,A,3332.946859,N,11741.352631,W,54.6,197.9,260210,,,A*43
$GPRMC,085121.0,A,3332.903533,N,11741.369016,W,54.6,197.4,260210,,,A*4F
$GPRMC,085124.0,A,3332.859998,N,11741.385462,W,54.8,197.9,260210,,,A*4F
$GPRMC,085127.0,A,3332.816240,N,11741.400745,W,54.5,194.8,260210,,,A*4A
$GPRMC,085130.0,A,3332.771953,N,11741.414218,W,54.6,194.3,260210,,,A*4B
$GPRMC,085133.0,A,3332.728366,N,11741.427837,W,54.0,195.5,260210,,,A*4E
$GPRMC,085136.0,A,3332.685965,N,11741.443302,W,52.3,199.7,260210,,,A*40
$GPRMC,085139.0,A,3332.647316,N,11741.463348,W,48.3,206.4,260210,,,A*4E
$GPRMC,085142.0,A,3332.616694,N,11741.484787,W,38.1,215.8,260210,,,A*4C
$GPRMC,085145.0,A,3332.600326,N,11741.502253,W,19.6,221.8,260210,,,A*40
$GPRMC,085148.0,A,3332.592730,N,11741.511059,W,8.9,226.2,260210,,,A*7E
$GPRMC,085206.0,A,3332.583421,N,11741.519885,W,14.1,208.3,260210,,,A*4D
$GPRMC,085209.0,A,3332.566983,N,11741.518271,W,25.5,157.9,260210,,,A*49
$GPRMC,085212.0,A,3332.547915,N,11741.497898,W,33.9,135.4,260210,,,A*46
$GPRMC,085215.0,A,3332.525900,N,11741.470575,W,40.0,134.0,260210,,,A*4E
$GPRMC,085218.0,A,3332.501831,N,11741.439992,W,42.8,132.9,260210,,,A*4B
$GPRMC,085221.0,A,3332.478671,N,11741.406006,W,44.0,127.5,260210,,,A*4A
$GPRMC,085224.0,A,3332.455313,N,11741.371576,W,44.2,131.7,260210,,,A*43
$GPRMC,085227.0,A,3332.429574,N,11741.338464,W,46.0,133.9,260210,,,A*4F
$GPRMC,085230.0,A,3332.403511,N,11741.305780,W,45.2,133.8,260210,,,A*45
$GPRMC,085233.0,A,3332.376819,N,11741.272105,W,47.2,133.6,260210,,,A*40
$GPRMC,085236.0,A,3332.349696,N,11741.237625,W,46.6,133.4,260210,,,A*43
$GPRMC,085239.0,A,3332.323366,N,11741.206781,W,41.8,138.3,260210,,,A*42
$GPRMC,085242.0,A,3332.298009,N,11741.182722,W,35.2,144.9,260210,,,A*4B
$GPRMC,085245.0,A,3332.279213,N,11741.167735,W,20.3,149.5,260210,,,A*43
$GPRMC,085248.0,A,3332.261598,N,11741.155393,W,29.1,152.7,260210,,,A*49
$GPRMC,085251.0,A,3332.237265,N,11741.141015,W,35.5,156.3,260210,,,A*46
$GPRMC,085254.0,A,3332.206421,N,11741.127155,W,42.2,162.0,260210,,,A*41
$GPRMC,085257.0,A,3332.170581,N,11741.115432,W,45.7,168.6,260210,,,A*40
$GPRMC,085300.0,A,3332.131764,N,11741.108461,W,47.4,175.7,260210,,,A*49
$GPRMC,085303.0,A,3332.090130,N,11741.106052,W,50.6,180.1,260210,,,A*45
$GPRMC,085306.0,A,3332.046731,N,11741.105152,W,52.0,179.9,260210,,,A*44
$GPRMC,085309.0,A,3332.001889,N,11741.104649,W,54.5,180.2,260210,,,A*46
$GPRMC,085312.0,A,3331.955960,N,11741.104649,W,54.8,180.6,260210,,,A*48
$GPRMC,085315.0,A,3331.911208,N,11741.105590,W,51.7,181.3,260210,,,A*42
$GPRMC,085318.0,A,3331.868697,N,11741.107043,W,50.7,181.2,260210,,,A*4B
$GPRMC,085321.0,A,3331.828335,N,11741.108135,W,45.9,180.9,260210,,,A*47
$GPRMC,085324.0,A,3331.794567,N,11741.109206,W,34.1,181.0,260210,,,A*4F
$GPRMC,085327.0,A,3331.773754,N,11741.110443,W,19.4,188.7,260210,,,A*4C
$GPRMC,085330.0,A,3331.766120,N,11741.126461,W,22.2,262.4,260210,,,A*44
$GPRMC,085333.0,A,3331.763640,N,11741.158305,W,34.4,257.7,260210,,,A*4B
$GPRMC,085336.0,A,3331.751392,N,11741.195385,W,41.8,244.0,260210,,,A*47
$GPRMC,085339.0,A,3331.736606,N,11741.231223,W,36.2,243.3,260210,,,A*4F
$GPRMC,085342.0,A,3331.726877,N,11741.254307,W,17.6,240.5,260210,,,A*4C
$GPRMC,085345.0,A,3331.716583,N,11741.256001,W,14.2,162.2,260210,,,A*4A
$GPRMC,085348.0,A,3331.701342,N,11741.247698,W,24.0,157.7,260210,,,A*4E
$GPRMC,085351.0,A,3331.680363,N,11741.239491,W,29.3,166.9,260210,,,A*4D
