NMEA Sentence Code,UTC Time,Status,Latitude,Latitude Direction,Longitude,Longitude Direction,Speed (knots),Track Angle (degrees true),Date,MagneticVariation,Magnetic Variation Direction,[FAA Mode]-Optional,Checksum
$GPRMC,163559.000,A,3347.6242,N,11729.9654,W,65.12,148.01,60410,,,A*7D
$GPRMC,163603.000,A,3347.5624,N,11729.9184,W,65.61,147.30,60410,,,A*75
$GPRMC,163606.000,A,3347.5167,N,11729.8833,W,63.66,146.95,60410,,,A*7B
$GPRMC,163609.000,A,3347.4722,N,11729.8489,W,63.18,147.30,60410,,,A*78
$GPRMC,163612.000,A,3347.4282,N,11729.8147,W,63.18,146.95,60410,,,A*74
$GPRMC,163615.000,A,3347.3837,N,11729.7800,W,64.16,146.95,60410,,,A*7C
$GPRMC,163618.000,A,3347.3383,N,11729.7449,W,65.61,147.66,60410,,,A*78
$GPRMC,163621.000,A,3347.2914,N,11729.7098,W,67.56,148.36,60410,,,A*73
$GPRMC,163624.000,A,3347.2434,N,11729.6738,W,68.52,147.66,60410,,,A*74
$GPRMC,163627.000,A,3347.1938,N,11729.6351,W,71.45,146.95,60410,,,A*7D
$GPRMC,163630.000,A,3347.1430,N,11729.5962,W,72.90,147.30,60410,,,A*72
$GPRMC,163633.000,A,3347.0921,N,11729.5566,W,72.42,146.95,60410,,,A*74
$GPRMC,163636.000,A,3347.0406,N,11729.5177,W,72.90,149.41,60410,,,A*74
$GPRMC,163639.000,A,3346.9875,N,11729.4816,W,73.39,151.52,60410,,,A*7D
$GPRMC,163642.000,A,3346.9338,N,11729.4481,W,71.93,152.93,60410,,,A*7D
$GPRMC,163645.000,A,3346.8800,N,11729.4160,W,71.93,153.28,60410,,,A*70
$GPRMC,163648.000,A,3346.8263,N,11729.3831,W,72.90,153.28,60410,,,A*78
$GPRMC,163651.000,A,3346.7712,N,11729.3513,W,73.41,155.04,60410,,,A*74
$GPRMC,163654.000,A,3346.7162,N,11729.3194,W,72.92,153.63,60410,,,A*73
$GPRMC,163657.000,A,3346.6624,N,11729.2866,W,71.93,152.93,60410,,,A*7D
$GPRMC,163700.000,A,3346.6096,N,11729.2547,W,70.49,152.93,60410,,,A*79
$GPRMC,163703.000,A,3346.5572,N,11729.2225,W,70.01,152.58,60410,,,A*7E
$GPRMC,163706.000,A,3346.5057,N,11729.1894,W,70.01,151.88,60410,,,A*74
$GPRMC,163709.000,A,3346.4539,N,11729.1575,W,69.52,152.93,60410,,,A*72
$GPRMC,163712.000,A,3346.4027,N,11729.1256,W,69.04,151.17,60410,,,A*78
$GPRMC,163715.000,A,3346.3538,N,11729.0909,W,68.07,148.01,60410,,,A*7E
$GPRMC,163718.000,A,3346.3068,N,11729.0532,W,67.07,144.49,60410,,,A*78
$GPRMC,163721.000,A,3346.2636,N,11729.0111,W,66.59,138.52,60410,,,A*70
$GPRMC,163724.000,A,3346.2237,N,11728.9650,W,66.59,133.59,60410,,,A*7A
$GPRMC,163727.000,A,3346.1870,N,11728.9155,W,66.10,129.73,60410,,,A*7F
$GPRMC,163730.000,A,3346.1539,N,11728.8633,W,65.61,126.56,60410,,,A*72
$GPRMC,163733.000,A,3346.1207,N,11728.8086,W,68.04,126.56,60410,,,A*7D
$GPRMC,163736.000,A,3346.0857,N,11728.7539,W,69.98,128.32,60410,,,A*70
$GPRMC,163738.000,A,3346.0593,N,11728.7188,W,69.98,132.89,60410,,,A*7E
$GPRMC,163741.000,A,3346.0161,N,11728.6686,W,70.95,138.16,60410,,,A*78
$GPRMC,163758.000,A,3345.7522,N,11728.3985,W,75.81,129.38,60410,,,A*72
$GPRMC,163801.000,A,3345.7149,N,11728.3374,W,75.33,123.40,60410,,,A*70
$GPRMC,163804.000,A,3345.6836,N,11728.2724,W,74.84,117.77,60410,,,A*7B
$GPRMC,163807.000,A,3345.6576,N,11728.2054,W,73.39,112.85,60410,,,A*78
$GPRMC,163810.000,A,3345.6376,N,11728.1375,W,70.47,107.23,60410,,,A*79
$GPRMC,163813.000,A,3345.6206,N,11728.0699,W,70.47,107.23,60410,,,A*7A
$GPRMC,163816.000,A,3345.6006,N,11728.0036,W,70.96,113.20,60410,,,A*74
$GPRMC,163819.000,A,3345.5752,N,11727.9402,W,69.99,118.48,60410,,,A*79
$GPRMC,163822.000,A,3345.5449,N,11727.8803,W,69.50,123.75,60410,,,A*77
$GPRMC,163825.000,A,3345.5108,N,11727.8243,W,69.01,127.62,60410,,,A*78
$GPRMC,163828.000,A,3345.4754,N,11727.7703,W,69.02,128.32,60410,,,A*7C
$GPRMC,163831.000,A,3345.4397,N,11727.7162,W,69.02,127.97,60410,,,A*7E
$GPRMC,163834.000,A,3345.4046,N,11727.6618,W,69.02,127.62,60410,,,A*75
$GPRMC,163837.000,A,3345.3695,N,11727.6080,W,68.04,127.97,60410,,,A*73
$GPRMC,163840.000,A,3345.3347,N,11727.5546,W,68.53,128.32,60410,,,A*77
$GPRMC,163843.000,A,3345.2974,N,11727.5021,W,68.55,132.54,60410,,,A*76
$GPRMC,163846.000,A,3345.2568,N,11727.4539,W,68.55,137.81,60410,,,A*72
$GPRMC,163849.000,A,3345.2121,N,11727.4104,W,68.55,142.73,60410,,,A*71
$GPRMC,163852.000,A,3345.1651,N,11727.3711,W,68.55,147.66,60410,,,A*7C
$GPRMC,163855.000,A,3345.1162,N,11727.3354,W,69.02,148.36,60410,,,A*70
$GPRMC,163858.000,A,3345.0676,N,11727.2994,W,68.04,148.36,60410,,,A*7E
$GPRMC,163901.000,A,3345.0206,N,11727.2624,W,66.59,144.14,60410,,,A*7E
$GPRMC,163904.000,A,3344.9771,N,11727.2218,W,65.13,139.57,60410,,,A*7D
$GPRMC,163907.000,A,3344.9372,N,11727.1774,W,65.61,135.00,60410,,,A*7E
$GPRMC,163910.000,A,3344.9002,N,11727.1288,W,66.58,130.08,60410,,,A*7E
$GPRMC,163913.000,A,3344.8664,N,11727.0766,W,66.10,125.51,60410,,,A*7A
$GPRMC,163916.000,A,3344.8365,N,11727.0213,W,66.58,120.59,60410,,,A*7D
$GPRMC,163919.000,A,3344.8091,N,11726.9627,W,67.07,118.48,60410,,,A*71
$GPRMC,163922.000,A,3344.7824,N,11726.9038,W,67.07,118.83,60410,,,A*7F
$GPRMC,163925.000,A,3344.7557,N,11726.8449,W,67.07,118.12,60410,,,A*7A
$GPRMC,163928.000,A,3344.7293,N,11726.7860,W,67.07,118.48,60410,,,A*7F
$GPRMC,163931.000,A,3344.7029,N,11726.7271,W,67.07,118.83,60410,,,A*79
$GPRMC,163934.000,A,3344.6759,N,11726.6685,W,67.07,118.83,60410,,,A*73
$GPRMC,163937.000,A,3344.6488,N,11726.6099,W,67.07,118.48,60410,,,A*73
$GPRMC,163940.000,A,3344.6228,N,11726.5510,W,66.59,118.12,60410,,,A*7D
$GPRMC,163943.000,A,3344.5970,N,11726.4921,W,66.58,116.37,60410,,,A*7C
$GPRMC,163946.000,A,3344.5758,N,11726.4300,W,67.07,110.74,60410,,,A*7E
$GPRMC,163949.000,A,3344.5574,N,11726.3666,W,67.07,107.23,60410,,,A*7B
$GPRMC,163952.000,A,3344.5430,N,11726.3019,W,66.58,103.36,60410,,,A*75
$GPRMC,163955.000,A,3344.5317,N,11726.2369,W,66.59,101.25,60410,,,A*74
$GPRMC,163958.000,A,3344.5211,N,11726.1709,W,67.07,101.25,60410,,,A*75
$GPRMC,164001.000,A,3344.5104,N,11726.1056,W,66.59,101.95,60410,,,A*7C
$GPRMC,164004.000,A,3344.4972,N,11726.0409,W,66.59,105.82,60410,,,A*7C
$GPRMC,164007.000,A,3344.4808,N,11725.9791,W,63.19,109.69,60410,,,A*73
$GPRMC,164010.000,A,3344.4622,N,11725.9218,W,59.30,113.20,60410,,,A*73
$GPRMC,164013.000,A,3344.4419,N,11725.8700,W,54.92,116.72,60410,,,A*70
$GPRMC,164016.000,A,3344.4203,N,11725.8217,W,54.92,119.88,60410,,,A*71
$GPRMC,164019.000,A,3344.3965,N,11725.7744,W,56.38,123.05,60410,,,A*70
$GPRMC,164022.000,A,3344.3691,N,11725.7274,W,58.32,126.21,60410,,,A*7D
$GPRMC,164025.000,A,3344.3395,N,11725.6801,W,59.78,127.62,60410,,,A*7B
$GPRMC,164028.000,A,3344.3086,N,11725.6324,W,61.23,127.62,60410,,,A*7E
$GPRMC,164031.000,A,3344.2768,N,11725.5835,W,62.69,127.62,60410,,,A*75
$GPRMC,164033.000,A,3344.2552,N,11725.5500,W,64.15,127.27,60410,,,A*7B
$GPRMC,164040.000,A,3344.1783,N,11725.4297,W,64.64,127.62,60410,,,A*7D
$GPRMC,164049.000,A,3344.0830,N,11725.2716,W,66.09,121.99,60410,,,A*73
$GPRMC,164102.000,A,3344.0000,N,11724.9996,W,67.07,99.49,60410,,,A*4A
$GPRMC,164105.000,A,3343.9932,N,11724.9324,W,67.07,94.57,60410,,,A*4A
$GPRMC,164108.000,A,3343.9910,N,11724.8654,W,67.07,90.70,60410,,,A*45
$GPRMC,164111.000,A,3343.9922,N,11724.7978,W,67.55,88.24,60410,,,A*4D
$GPRMC,164114.000,A,3343.9942,N,11724.7302,W,67.55,87.89,60410,,,A*41
$GPRMC,164117.000,A,3343.9961,N,11724.6633,W,67.56,88.59,60410,,,A*44
$GPRMC,164120.000,A,3343.9971,N,11724.5957,W,67.07,90.00,60410,,,A*4E
$GPRMC,164123.000,A,3343.9977,N,11724.5284,W,67.55,89.65,60410,,,A*42
$GPRMC,164126.000,A,3343.9964,N,11724.4608,W,68.04,93.87,60410,,,A*48
$GPRMC,164129.000,A,3343.9903,N,11724.3926,W,68.52,99.14,60410,,,A*41
$GPRMC,164130.000,A,3343.9868,N,11724.3701,W,68.52,100.90,60410,,,A*73
$GPRMC,164138.000,A,3343.9407,N,11724.1976,W,68.04,114.26,60410,,,A*79
$GPRMC,164141.000,A,3343.9153,N,11724.1364,W,68.04,118.48,60410,,,A*7E
$GPRMC,164144.000,A,3343.8876,N,11724.0772,W,68.04,119.18,60410,,,A*72
$GPRMC,164147.000,A,3343.8609,N,11724.0170,W,68.04,116.02,60410,,,A*77
$GPRMC,164150.000,A,3343.8390,N,11723.9546,W,68.53,108.98,60410,,,A*75
$GPRMC,164153.000,A,3343.8217,N,11723.8902,W,68.04,106.52,60410,,,A*7F
$GPRMC,164156.000,A,3343.8081,N,11723.8239,W,68.04,101.25,60410,,,A*73
$GPRMC,164159.000,A,3343.7998,N,11723.7563,W,68.52,96.33,60410,,,A*4E
$GPRMC,164202.000,A,3343.7959,N,11723.6877,W,68.04,91.76,60410,,,A*42
$GPRMC,164205.000,A,3343.7962,N,11723.6195,W,68.52,89.30,60410,,,A*40
$GPRMC,164206.000,A,3343.7965,N,11723.5970,W,68.52,89.30,60410,,,A*44
$GPRMC,164211.000,A,3343.7962,N,11723.4833,W,68.52,92.11,60410,,,A*4B
$GPRMC,164214.000,A,3343.7924,N,11723.4157,W,68.04,95.98,60410,,,A*42
$GPRMC,164216.000,A,3343.7872,N,11723.3707,W,68.52,98.09,60410,,,A*40
$GPRMC,164221.000,A,3343.7673,N,11723.2596,W,68.52,103.36,60410,,,A*7F
$GPRMC,164224.000,A,3343.7537,N,11723.1937,W,68.52,103.01,60410,,,A*79
$GPRMC,164227.000,A,3343.7405,N,11723.1274,W,68.04,103.71,60410,,,A*72
$GPRMC,164230.000,A,3343.7273,N,11723.0611,W,68.04,103.36,60410,,,A*76
$GPRMC,164233.000,A,3343.7141,N,11722.9947,W,68.04,103.36,60410,,,A*73
$GPRMC,164236.000,A,3343.7006,N,11722.9281,W,68.52,103.71,60410,,,A*75
$GPRMC,164239.000,A,3343.6871,N,11722.8621,W,68.04,103.71,60410,,,A*7F
$GPRMC,164242.000,A,3343.6739,N,11722.7958,W,68.04,103.36,60410,,,A*7D
$GPRMC,164245.000,A,3343.6604,N,11722.7295,W,68.04,103.71,60410,,,A*7C
$GPRMC,164248.000,A,3343.6472,N,11722.6636,W,68.04,103.71,60410,,,A*7E
$GPRMC,164251.000,A,3343.6324,N,11722.5976,W,68.53,106.52,60410,,,A*7C
$GPRMC,164254.000,A,3343.6150,N,11722.5322,W,68.52,108.98,60410,,,A*7A
$GPRMC,164257.000,A,3343.5947,N,11722.4682,W,68.52,111.80,60410,,,A*7B
$GPRMC,164300.000,A,3343.5722,N,11722.4054,W,68.04,114.96,60410,,,A*79
$GPRMC,164303.000,A,3343.5468,N,11722.3443,W,68.04,117.77,60410,,,A*7E
$GPRMC,164306.000,A,3343.5188,N,11722.2850,W,68.04,120.59,60410,,,A*77
$GPRMC,164309.000,A,3343.4885,N,11722.2271,W,68.52,123.40,60410,,,A*7C
$GPRMC,164312.000,A,3343.4557,N,11722.1714,W,68.52,126.21,60410,,,A*73
$GPRMC,164315.000,A,3343.4209,N,11722.1177,W,68.04,129.38,60410,,,A*7F
$GPRMC,164318.000,A,3343.3836,N,11722.0658,W,68.04,131.84,60410,,,A*76
$GPRMC,164321.000,A,3343.3443,N,11722.0166,W,68.04,135.00,60410,,,A*70
$GPRMC,164324.000,A,3343.3031,N,11721.9696,W,68.04,137.81,60410,,,A*7D
$GPRMC,164327.000,A,3343.2597,N,11721.9249,W,68.52,140.98,60410,,,A*7B
$GPRMC,164330.000,A,3343.2146,N,11721.8824,W,68.52,143.09,60410,,,A*7E
$GPRMC,164333.000,A,3343.1683,N,11721.8431,W,68.52,146.60,60410,,,A*72
$GPRMC,164336.000,A,3343.1200,N,11721.8067,W,68.52,148.71,60410,,,A*71
$GPRMC,164339.000,A,3343.0701,N,11721.7733,W,68.52,151.88,60410,,,A*7C
$GPRMC,164342.000,A,3343.0192,N,11721.7433,W,68.04,155.04,60410,,,A*7C
$GPRMC,164345.000,A,3342.9677,N,11721.7166,W,68.04,157.50,60410,,,A*79
$GPRMC,164348.000,A,3342.9143,N,11721.6922,W,68.04,160.66,60410,,,A*7C
$GPRMC,164351.000,A,3342.8602,N,11721.6712,W,68.04,163.12,60410,,,A*7A
$GPRMC,164354.000,A,3342.8055,N,11721.6532,W,68.53,165.94,60410,,,A*71
$GPRMC,164357.000,A,3342.7495,N,11721.6378,W,68.52,167.70,60410,,,A*74
$GPRMC,164400.000,A,3342.6942,N,11721.6226,W,68.52,166.29,60410,,,A*70
$GPRMC,164404.000,A,3342.6208,N,11721.5979,W,68.04,161.72,60410,,,A*79
$GPRMC,164407.000,A,3342.5677,N,11721.5747,W,68.52,157.85,60410,,,A*78
$GPRMC,164409.000,A,3342.5329,N,11721.5567,W,68.52,155.39,60410,,,A*7D
$GPRMC,164411.000,A,3342.4988,N,11721.5370,W,68.52,153.98,60410,,,A*79
$GPRMC,164417.000,A,3342.4009,N,11721.4669,W,68.52,145.55,60410,,,A*75
$GPRMC,164420.000,A,3342.3556,N,11721.4247,W,68.04,140.98,60410,,,A*76
$GPRMC,164423.000,A,3342.3127,N,11721.3796,W,68.04,137.11,60410,,,A*78
$GPRMC,164426.000,A,3342.2728,N,11721.3314,W,68.04,132.89,60410,,,A*7F
$GPRMC,164429.000,A,3342.2358,N,11721.2799,W,68.04,129.02,60410,,,A*7A
$GPRMC,164432.000,A,3342.2004,N,11721.2264,W,68.53,128.67,60410,,,A*7D
$GPRMC,164435.000,A,3342.1647,N,11721.1736,W,68.53,128.67,60410,,,A*79
$GPRMC,164438.000,A,3342.1293,N,11721.1202,W,68.52,128.32,60410,,,A*7A
$GPRMC,164441.000,A,3342.0939,N,11721.0665,W,68.52,128.32,60410,,,A*7A
$GPRMC,164444.000,A,3342.0588,N,11721.0127,W,68.52,127.62,60410,,,A*72
$GPRMC,164447.000,A,3342.0240,N,11720.9593,W,68.04,127.97,60410,,,A*78
$GPRMC,164450.000,A,3341.9886,N,11720.9058,W,68.04,129.02,60410,,,A*74
$GPRMC,164453.000,A,3341.9532,N,11720.8524,W,68.04,128.32,60410,,,A*78
$GPRMC,164456.000,A,3341.9178,N,11720.7993,W,68.04,128.67,60410,,,A*78
$GPRMC,164459.000,A,3341.8824,N,11720.7462,W,68.52,128.67,60410,,,A*76
$GPRMC,164502.000,A,3341.8467,N,11720.6928,W,68.04,128.67,60410,,,A*73
$GPRMC,164505.000,A,3341.8113,N,11720.6393,W,68.04,128.32,60410,,,A*78
$GPRMC,164508.000,A,3341.7759,N,11720.5866,W,68.04,128.32,60410,,,A*70
$GPRMC,164511.000,A,3341.7402,N,11720.5331,W,68.04,129.02,60410,,,A*7E
$GPRMC,164514.000,A,3341.7038,N,11720.4807,W,68.04,130.78,60410,,,A*7C
$GPRMC,164517.000,A,3341.6655,N,11720.4305,W,68.53,132.89,60410,,,A*74
$GPRMC,164520.000,A,3341.6262,N,11720.3812,W,68.04,134.30,60410,,,A*7C
$GPRMC,164523.000,A,3341.5853,N,11720.3332,W,68.52,136.76,60410,,,A*7E
$GPRMC,164526.000,A,3341.5432,N,11720.2875,W,68.52,138.16,60410,,,A*71
$GPRMC,164529.000,A,3341.5000,N,11720.2428,W,68.52,140.62,60410,,,A*73
$GPRMC,164532.000,A,3341.4550,N,11720.2000,W,68.52,142.38,60410,,,A*7B
$GPRMC,164535.000,A,3341.4099,N,11720.1585,W,68.04,142.73,60410,,,A*7B
$GPRMC,164538.000,A,3341.3642,N,11720.1170,W,68.52,142.73,60410,,,A*7C
$GPRMC,164541.000,A,3341.3188,N,11720.0761,W,68.52,142.73,60410,,,A*74
$GPRMC,164544.000,A,3341.2738,N,11720.0346,W,68.04,142.73,60410,,,A*7F
$GPRMC,164545.000,A,3341.2583,N,11720.0210,W,68.52,143.09,60410,,,A*71
$GPRMC,164549.000,A,3341.1978,N,11719.9660,W,68.52,143.09,60410,,,A*76
$GPRMC,164553.000,A,3341.1376,N,11719.9106,W,68.52,142.38,60410,,,A*7D
$GPRMC,164556.000,A,3341.0922,N,11719.8691,W,68.52,142.73,60410,,,A*75
$GPRMC,164559.000,A,3341.0469,N,11719.8273,W,68.52,142.73,60410,,,A*70
$GPRMC,164602.000,A,3341.0011,N,11719.7861,W,68.52,142.73,60410,,,A*70
$GPRMC,164605.000,A,3340.9564,N,11719.7446,W,68.04,142.38,60410,,,A*7D
$GPRMC,164608.000,A,3340.9110,N,11719.7037,W,68.04,142.73,60410,,,A*7A
$GPRMC,164611.000,A,3340.8660,N,11719.6628,W,68.04,143.09,60410,,,A*76
$GPRMC,164614.000,A,3340.8203,N,11719.6219,W,68.04,142.73,60410,,,A*78
$GPRMC,164617.000,A,3340.7755,N,11719.5810,W,68.07,141.68,60410,,,A*78
$GPRMC,164620.000,A,3340.7317,N,11719.5379,W,68.04,139.92,60410,,,A*73
$GPRMC,164623.000,A,3340.6899,N,11719.4916,W,68.07,136.41,60410,,,A*7C
$GPRMC,164626.000,A,3340.6497,N,11719.4446,W,68.07,133.95,60410,,,A*7F
$GPRMC,164629.000,A,3340.6117,N,11719.3950,W,68.07,130.78,60410,,,A*70
$GPRMC,164632.000,A,3340.5753,N,11719.3422,W,68.07,128.32,60410,,,A*70
$GPRMC,164635.000,A,3340.5412,N,11719.2878,W,68.04,125.86,60410,,,A*72
$GPRMC,164638.000,A,3340.5093,N,11719.2312,W,68.07,122.70,60410,,,A*78
$GPRMC,164641.000,A,3340.4800,N,11719.1726,W,68.07,119.88,60410,,,A*7A
$GPRMC,164644.000,A,3340.4530,N,11719.1131,W,68.07,117.77,60410,,,A*7F
$GPRMC,164647.000,A,3340.4279,N,11719.0525,W,68.04,115.31,60410,,,A*75
$GPRMC,164650.000,A,3340.4034,N,11718.9907,W,68.53,115.66,60410,,,A*7C
$GPRMC,164653.000,A,3340.3780,N,11718.9293,W,68.53,117.07,60410,,,A*73
$GPRMC,164656.000,A,3340.3516,N,11718.8684,W,68.52,117.77,60410,,,A*7E
$GPRMC,164659.000,A,3340.3243,N,11718.8083,W,68.52,119.18,60410,,,A*70
$GPRMC,164702.000,A,3340.2959,N,11718.7487,W,68.52,120.23,60410,,,A*73
$GPRMC,164704.000,A,3340.2766,N,11718.7098,W,68.04,120.94,60410,,,A*72
$GPRMC,164744.000,A,3339.8022,N,11718.0042,W,68.04,136.76,60410,,,A*7E
$GPRMC,164747.000,A,3339.7604,N,11717.9582,W,68.04,137.81,60410,,,A*76
$GPRMC,164750.000,A,3339.7176,N,11717.9131,W,68.04,139.22,60410,,,A*79
$GPRMC,164753.000,A,3339.6744,N,11717.8687,W,67.58,139.92,60410,,,A*7A
$GPRMC,164756.000,A,3339.6306,N,11717.8256,W,68.07,141.33,60410,,,A*74
$GPRMC,164759.000,A,3339.5856,N,11717.7838,W,68.07,142.38,60410,,,A*73
$GPRMC,164802.000,A,3339.5399,N,11717.7426,W,68.55,143.44,60410,,,A*74
$GPRMC,164805.000,A,3339.4935,N,11717.7030,W,68.53,145.55,60410,,,A*7D
$GPRMC,164808.000,A,3339.4465,N,11717.6650,W,68.04,146.60,60410,,,A*7E
$GPRMC,164811.000,A,3339.3989,N,11717.6276,W,68.04,147.66,60410,,,A*79
$GPRMC,164814.000,A,3339.3506,N,11717.5919,W,68.04,148.71,60410,,,A*7F
$GPRMC,164817.000,A,3339.3014,N,11717.5575,W,68.53,149.77,60410,,,A*79
$GPRMC,164820.000,A,3339.2521,N,11717.5234,W,68.53,150.12,60410,,,A*76
$GPRMC,164823.000,A,3339.2026,N,11717.4896,W,68.04,150.82,60410,,,A*7F
$GPRMC,164826.000,A,3339.1530,N,11717.4564,W,68.04,150.47,60410,,,A*72
$GPRMC,164829.000,A,3339.1031,N,11717.4233,W,68.04,150.47,60410,,,A*7C
$GPRMC,164832.000,A,3339.0539,N,11717.3898,W,68.04,150.47,60410,,,A*76
$GPRMC,164835.000,A,3339.0043,N,11717.3566,W,68.53,150.47,60410,,,A*77
$GPRMC,164838.000,A,3338.9544,N,11717.3232,W,68.53,150.47,60410,,,A*76
$GPRMC,164841.000,A,3338.9045,N,11717.2897,W,68.53,150.47,60410,,,A*78
$GPRMC,164844.000,A,3338.8550,N,11717.2565,W,68.53,150.12,60410,,,A*7D
$GPRMC,164847.000,A,3338.8057,N,11717.2231,W,68.04,150.47,60410,,,A*78
$GPRMC,164850.000,A,3338.7561,N,11717.1896,W,68.52,150.47,60410,,,A*76
$GPRMC,164853.000,A,3338.7066,N,11717.1561,W,68.52,150.47,60410,,,A*72
$GPRMC,164856.000,A,3338.6567,N,11717.1226,W,68.52,150.47,60410,,,A*76
$GPRMC,164859.000,A,3338.6071,N,11717.0892,W,68.52,150.47,60410,,,A*7F
$GPRMC,164902.000,A,3338.5579,N,11717.0557,W,68.52,150.47,60410,,,A*7A
$GPRMC,164905.000,A,3338.5086,N,11717.0219,W,68.04,150.47,60410,,,A*76
$GPRMC,164908.000,A,3338.4594,N,11716.9884,W,68.04,150.47,60410,,,A*7A
$GPRMC,164911.000,A,3338.4098,N,11716.9546,W,68.04,150.12,60410,,,A*78
$GPRMC,164914.000,A,3338.3606,N,11716.9208,W,68.04,150.47,60410,,,A*76
$GPRMC,164917.000,A,3338.3110,N,11716.8877,W,68.04,150.47,60410,,,A*76
$GPRMC,164920.000,A,3338.2614,N,11716.8539,W,68.04,150.47,60410,,,A*77
$GPRMC,164923.000,A,3338.2119,N,11716.8204,W,68.04,150.82,60410,,,A*7E
$GPRMC,164926.000,A,3338.1623,N,11716.7866,W,68.52,150.12,60410,,,A*7D
$GPRMC,164929.000,A,3338.1124,N,11716.7531,W,68.04,150.47,60410,,,A*7E
$GPRMC,164932.000,A,3338.0628,N,11716.7197,W,68.04,150.82,60410,,,A*7F
$GPRMC,164935.000,A,3338.0133,N,11716.6856,W,68.04,149.41,60410,,,A*77
$GPRMC,164938.000,A,3337.9653,N,11716.6518,W,66.58,149.41,60410,,,A*7D
$GPRMC,164941.000,A,3337.9177,N,11716.6180,W,65.61,149.06,60410,,,A*7D
$GPRMC,164944.000,A,3337.8713,N,11716.5842,W,65.61,148.71,60410,,,A*78
$GPRMC,164947.000,A,3337.8247,N,11716.5497,W,65.61,148.36,60410,,,A*78
$GPRMC,164950.000,A,3337.7780,N,11716.5150,W,65.61,148.01,60410,,,A*75
$GPRMC,164953.000,A,3337.7316,N,11716.4799,W,65.61,147.66,60410,,,A*71
$GPRMC,164956.000,A,3337.6856,N,11716.4445,W,65.61,147.30,60410,,,A*7B
$GPRMC,164959.000,A,3337.6393,N,11716.4087,W,65.61,146.95,60410,,,A*72
$GPRMC,165002.000,A,3337.5936,N,11716.3730,W,65.61,146.60,60410,,,A*74
$GPRMC,165005.000,A,3337.5479,N,11716.3363,W,65.61,145.90,60410,,,A*7B
$GPRMC,165008.000,A,3337.5025,N,11716.2996,W,65.61,145.55,60410,,,A*73
$GPRMC,165011.000,A,3337.4571,N,11716.2626,W,65.61,145.55,60410,,,A*7A
$GPRMC,165014.000,A,3337.4124,N,11716.2253,W,65.61,144.49,60410,,,A*71
$GPRMC,165017.000,A,3337.3679,N,11716.1873,W,65.61,144.49,60410,,,A*71
$GPRMC,165020.000,A,3337.3235,N,11716.1493,W,65.61,144.14,60410,,,A*73
$GPRMC,165023.000,A,3337.2791,N,11716.1104,W,66.09,143.79,60410,,,A*70
$GPRMC,165026.000,A,3337.2350,N,11716.0714,W,65.61,143.44,60410,,,A*79
$GPRMC,165029.000,A,3337.1912,N,11716.0322,W,65.61,143.09,60410,,,A*71
$GPRMC,165032.000,A,3337.1481,N,11715.9929,W,64.15,142.73,60410,,,A*79
$GPRMC,165035.000,A,3337.1056,N,11715.9543,W,63.66,142.73,60410,,,A*73
$GPRMC,165038.000,A,3337.0635,N,11715.9153,W,64.15,142.38,60410,,,A*75
$GPRMC,165041.000,A,3337.0213,N,11715.8764,W,64.15,142.38,60410,,,A*78
$GPRMC,165044.000,A,3336.9788,N,11715.8374,W,64.15,142.73,60410,,,A*78
$GPRMC,165047.000,A,3336.9363,N,11715.7985,W,64.15,142.38,60410,,,A*7E
$GPRMC,165050.000,A,3336.8941,N,11715.7595,W,63.66,142.73,60410,,,A*72
$GPRMC,165053.000,A,3336.8517,N,11715.7209,W,63.66,142.38,60410,,,A*73
$GPRMC,165056.000,A,3336.8092,N,11715.6817,W,64.15,142.38,60410,,,A*79
$GPRMC,165059.000,A,3336.7670,N,11715.6427,W,64.15,142.38,60410,,,A*7C
$GPRMC,165102.000,A,3336.7245,N,11715.6041,W,63.66,142.73,60410,,,A*79
$GPRMC,165105.000,A,3336.6824,N,11715.5651,W,63.66,142.38,60410,,,A*79
$GPRMC,165108.000,A,3336.6396,N,11715.5265,W,64.15,142.38,60410,,,A*76
$GPRMC,165111.000,A,3336.5971,N,11715.4879,W,63.66,142.73,60410,,,A*74
$GPRMC,165115.000,A,3336.5414,N,11715.4367,W,64.15,142.73,60410,,,A*79
$GPRMC,165118.000,A,3336.4986,N,11715.3974,W,63.66,142.38,60410,,,A*70
$GPRMC,165121.000,A,3336.4561,N,11715.3591,W,63.66,142.73,60410,,,A*77
$GPRMC,165124.000,A,3336.4136,N,11715.3208,W,64.15,142.38,60410,,,A*7F
$GPRMC,165127.000,A,3336.3711,N,11715.2819,W,64.15,142.38,60410,,,A*73
$GPRMC,165151.000,A,3336.0328,N,11714.9729,W,63.66,142.73,60410,,,A*75
$GPRMC,165159.000,A,3335.9195,N,11714.8699,W,63.66,142.73,60410,,,A*78
$GPRMC,165212.000,A,3335.7364,N,11714.7019,W,64.15,142.73,60410,,,A*74
$GPRMC,165215.000,A,3335.6942,N,11714.6633,W,63.66,142.03,60410,,,A*77
$GPRMC,165218.000,A,3335.6521,N,11714.6243,W,63.66,142.73,60410,,,A*77
$GPRMC,165221.000,A,3335.6099,N,11714.5857,W,63.67,142.38,60410,,,A*79
$GPRMC,165224.000,A,3335.5677,N,11714.5474,W,63.67,142.38,60410,,,A*74
$GPRMC,165227.000,A,3335.5259,N,11714.5088,W,63.67,142.03,60410,,,A*70
$GPRMC,165230.000,A,3335.4844,N,11714.4679,W,63.66,138.52,60410,,,A*70
$GPRMC,165233.000,A,3335.4454,N,11714.4232,W,64.16,134.65,60410,,,A*7D
$GPRMC,165236.000,A,3335.4087,N,11714.3768,W,64.16,132.19,60410,,,A*72
$GPRMC,165239.000,A,3335.3727,N,11714.3298,W,64.15,132.54,60410,,,A*77
$GPRMC,165242.000,A,3335.3370,N,11714.2825,W,64.15,132.19,60410,,,A*79
$GPRMC,165245.000,A,3335.3012,N,11714.2352,W,64.15,132.19,60410,,,A*72
$GPRMC,165247.000,A,3335.2771,N,11714.2036,W,64.15,132.54,60410,,,A*7B
$GPRMC,165333.000,A,3334.7219,N,11713.4766,W,66.58,132.19,60410,,,A*77
$GPRMC,165336.000,A,3334.6842,N,11713.4273,W,67.55,132.19,60410,,,A*7A
$GPRMC,165339.000,A,3334.6462,N,11713.3777,W,67.55,132.54,60410,,,A*74
$GPRMC,165342.000,A,3334.6083,N,11713.3279,W,67.55,132.54,60410,,,A*78
$GPRMC,165345.000,A,3334.5700,N,11713.2783,W,67.55,132.19,60410,,,A*78
$GPRMC,165348.000,A,3334.5323,N,11713.2284,W,67.55,133.24,60410,,,A*7D
$GPRMC,165358.000,A,3334.4055,N,11713.0633,W,67.07,132.54,60410,,,A*74
$GPRMC,165401.000,A,3334.3675,N,11713.0137,W,67.07,132.54,60410,,,A*7F
$GPRMC,165404.000,A,3334.3295,N,11712.9641,W,67.07,132.54,60410,,,A*7E
$GPRMC,165407.000,A,3334.2915,N,11712.9146,W,67.55,132.54,60410,,,A*78
$GPRMC,165410.000,A,3334.2539,N,11712.8650,W,67.55,132.19,60410,,,A*74
$GPRMC,165413.000,A,3334.2162,N,11712.8151,W,67.55,132.19,60410,,,A*7B
$GPRMC,165417.000,A,3334.1654,N,11712.7485,W,67.07,132.19,60410,,,A*7A
$GPRMC,165422.000,A,3334.1029,N,11712.6651,W,67.07,131.48,60410,,,A*7D
$GPRMC,165426.000,A,3334.0530,N,11712.5982,W,67.55,131.48,60410,,,A*70
$GPRMC,165428.000,A,3334.0276,N,11712.5650,W,67.07,131.84,60410,,,A*7C
$GPRMC,165433.000,A,3333.9649,N,11712.4830,W,66.58,132.19,60410,,,A*75
$GPRMC,165528.000,A,3333.2896,N,11711.5528,W,67.55,124.45,60410,,,A*7D
$GPRMC,165533.000,A,3333.2384,N,11711.4585,W,67.55,121.99,60410,,,A*7D
$GPRMC,165536.000,A,3333.2088,N,11711.4002,W,67.55,121.64,60410,,,A*7F
$GPRMC,165539.000,A,3333.1789,N,11711.3436,W,67.56,121.29,60410,,,A*7B
$GPRMC,165542.000,A,3333.1496,N,11711.2863,W,67.07,121.64,60410,,,A*7A
$GPRMC,165545.000,A,3333.1203,N,11711.2293,W,67.07,121.29,60410,,,A*7B
$GPRMC,165548.000,A,3333.0913,N,11711.1720,W,67.55,121.29,60410,,,A*74
$GPRMC,165551.000,A,3333.0617,N,11711.1150,W,67.55,121.64,60410,,,A*7F
$GPRMC,165554.000,A,3333.0321,N,11711.0581,W,67.55,121.64,60410,,,A*73
$GPRMC,165557.000,A,3333.0015,N,11711.0014,W,67.55,125.16,60410,,,A*7C
$GPRMC,165600.000,A,3332.9671,N,11710.9483,W,67.55,129.02,60410,,,A*7A
$GPRMC,165603.000,A,3332.9304,N,11710.8975,W,67.07,131.48,60410,,,A*7B
$GPRMC,165606.000,A,3332.8911,N,11710.8488,W,67.55,136.41,60410,,,A*77
$GPRMC,165609.000,A,3332.8483,N,11710.8051,W,67.55,141.68,60410,,,A*75
$GPRMC,165612.000,A,3332.8032,N,11710.7648,W,67.55,145.20,60410,,,A*78
$GPRMC,165615.000,A,3332.7566,N,11710.7288,W,66.09,148.71,60410,,,A*7D
$GPRMC,165618.000,A,3332.7089,N,11710.6963,W,66.58,150.82,60410,,,A*7A
$GPRMC,165621.000,A,3332.6603,N,11710.6635,W,67.55,150.82,60410,,,A*75
$GPRMC,165624.000,A,3332.6117,N,11710.6309,W,66.58,150.82,60410,,,A*74
$GPRMC,165626.000,A,3332.5795,N,11710.6094,W,65.61,150.82,60410,,,A*77
$GPRMC,165649.000,A,3332.1991,N,11710.3558,W,66.59,150.82,60410,,,A*78
$GPRMC,165652.000,A,3332.1505,N,11710.3232,W,66.59,150.82,60410,,,A*78
$GPRMC,165655.000,A,3332.1016,N,11710.2904,W,68.04,151.17,60410,,,A*7C
$GPRMC,165658.000,A,3332.0510,N,11710.2573,W,69.01,150.82,60410,,,A*76
$GPRMC,165701.000,A,3332.0012,N,11710.2238,W,68.52,150.82,60410,,,A*73
$GPRMC,165704.000,A,3331.9516,N,11710.1906,W,68.04,150.82,60410,,,A*7B
$GPRMC,165705.000,A,3331.9349,N,11710.1797,W,68.04,150.82,60410,,,A*70
$GPRMC,165711.000,A,3331.8354,N,11710.1131,W,68.04,150.82,60410,,,A*72
$GPRMC,165714.000,A,3331.7855,N,11710.0799,W,68.52,150.82,60410,,,A*74
$GPRMC,165717.000,A,3331.7359,N,11710.0468,W,68.52,150.82,60410,,,A*7D
$GPRMC,165721.000,A,3331.6696,N,11710.0027,W,68.04,150.82,60410,,,A*73
$GPRMC,165724.000,A,3331.6197,N,11709.9695,W,68.04,150.82,60410,,,A*7E
$GPRMC,165727.000,A,3331.5699,N,11709.9367,W,68.04,150.82,60410,,,A*7F
$GPRMC,165730.000,A,3331.5203,N,11709.9032,W,68.52,150.82,60410,,,A*7E
$GPRMC,165733.000,A,3331.4704,N,11709.8701,W,68.52,151.17,60410,,,A*75
$GPRMC,165736.000,A,3331.4205,N,11709.8369,W,68.04,150.82,60410,,,A*70
$GPRMC,165738.000,A,3331.3874,N,11709.8150,W,68.04,150.82,60410,,,A*7D
$GPRMC,165742.000,A,3331.3207,N,11709.7709,W,68.52,151.17,60410,,,A*75
$GPRMC,165748.000,A,3331.2219,N,11709.7040,W,68.04,150.47,60410,,,A*7C
$GPRMC,165751.000,A,3331.1720,N,11709.6705,W,68.04,151.17,60410,,,A*7B
$GPRMC,165754.000,A,3331.1225,N,11709.6377,W,68.52,150.82,60410,,,A*71
$GPRMC,165757.000,A,3331.0726,N,11709.6045,W,68.04,150.82,60410,,,A*74
$GPRMC,165800.000,A,3331.0230,N,11709.5714,W,68.04,150.82,60410,,,A*7B
$GPRMC,165803.000,A,3330.9734,N,11709.5379,W,68.04,150.82,60410,,,A*7E
$GPRMC,165806.000,A,3330.9229,N,11709.5047,W,68.04,151.52,60410,,,A*70
$GPRMC,165809.000,A,3330.8724,N,11709.4738,W,68.52,154.69,60410,,,A*76
$GPRMC,165822.000,A,3330.6432,N,11709.3657,W,68.04,158.91,60410,,,A*72
$GPRMC,165825.000,A,3330.5898,N,11709.3422,W,68.04,159.26,60410,,,A*77
$GPRMC,165828.000,A,3330.5370,N,11709.3184,W,67.07,159.26,60410,,,A*72
$GPRMC,165831.000,A,3330.4849,N,11709.2952,W,65.61,159.26,60410,,,A*7A
$GPRMC,165834.000,A,3330.4346,N,11709.2720,W,64.64,159.26,60410,,,A*74
$GPRMC,165837.000,A,3330.3841,N,11709.2492,W,64.64,158.91,60410,,,A*7B
$GPRMC,165840.000,A,3330.3339,N,11709.2263,W,64.64,159.26,60410,,,A*7A
$GPRMC,165843.000,A,3330.2834,N,11709.2035,W,64.64,158.91,60410,,,A*72
$GPRMC,165846.000,A,3330.2328,N,11709.1806,W,64.64,159.26,60410,,,A*77
$GPRMC,165849.000,A,3330.1839,N,11709.1587,W,60.75,159.26,60410,,,A*70
$GPRMC,165852.000,A,3330.1376,N,11709.1375,W,58.80,158.91,60410,,,A*7D
$GPRMC,165855.000,A,3330.0912,N,11709.1156,W,60.26,158.20,60410,,,A*7D
$GPRMC,165858.000,A,3330.0445,N,11709.0924,W,60.26,156.45,60410,,,A*7E
$GPRMC,165901.000,A,3329.9995,N,11709.0664,W,59.81,153.28,60410,,,A*70
$GPRMC,165904.000,A,3329.9551,N,11709.0384,W,59.78,150.82,60410,,,A*7F
$GPRMC,165907.000,A,3329.9135,N,11709.0081,W,57.35,148.36,60410,,,A*7D
$GPRMC,165910.000,A,3329.8723,N,11708.9766,W,58.32,145.55,60410,,,A*7D
$GPRMC,165913.000,A,3329.8324,N,11708.9431,W,57.84,143.44,60410,,,A*78
$GPRMC,165916.000,A,3329.7941,N,11708.9077,W,58.80,141.33,60410,,,A*74
$GPRMC,165919.000,A,3329.7558,N,11708.8700,W,60.26,139.57,60410,,,A*73
$GPRMC,165920.000,A,3329.7426,N,11708.8571,W,60.75,139.57,60410,,,A*73
$GPRMC,165940.000,A,3329.4056,N,11708.6608,W,75.81,163.12,60410,,,A*77
$GPRMC,165943.000,A,3329.3448,N,11708.6389,W,74.36,163.12,60410,,,A*79
$GPRMC,165946.000,A,3329.2872,N,11708.6177,W,72.90,163.12,60410,,,A*71
$GPRMC,165949.000,A,3329.2309,N,11708.5977,W,69.02,163.48,60410,,,A*7C
$GPRMC,165952.000,A,3329.1758,N,11708.5787,W,68.04,164.18,60410,,,A*71
$GPRMC,165955.000,A,3329.1221,N,11708.5604,W,67.55,163.83,60410,,,A*79
$GPRMC,165958.000,A,3329.0677,N,11708.5404,W,67.55,162.77,60410,,,A*7A
$GPRMC,170001.000,A,3329.0149,N,11708.5221,W,67.07,163.12,60410,,,A*75
$GPRMC,170004.000,A,3328.9624,N,11708.5021,W,67.07,160.31,60410,,,A*74
$GPRMC,170007.000,A,3328.9096,N,11708.4802,W,67.55,161.72,60410,,,A*71
$GPRMC,170010.000,A,3328.8559,N,11708.4606,W,67.07,163.48,60410,,,A*76
$GPRMC,170012.000,A,3328.8198,N,11708.4477,W,68.04,162.77,60410,,,A*78
$GPRMC,170017.000,A,3328.7284,N,11708.4149,W,68.52,163.48,60410,,,A*7A
$GPRMC,170019.000,A,3328.6914,N,11708.4020,W,68.52,163.83,60410,,,A*7E
$GPRMC,170027.000,A,3328.5469,N,11708.3492,W,68.04,163.48,60410,,,A*79
$GPRMC,170030.000,A,3328.4925,N,11708.3299,W,67.55,163.12,60410,,,A*72
$GPRMC,170033.000,A,3328.4388,N,11708.3106,W,68.04,163.12,60410,,,A*72
$GPRMC,170036.000,A,3328.3850,N,11708.2910,W,67.56,163.12,60410,,,A*78
$GPRMC,170039.000,A,3328.3306,N,11708.2714,W,67.58,163.12,60410,,,A*7B
$GPRMC,170042.000,A,3328.2765,N,11708.2517,W,67.58,163.12,60410,,,A*76
$GPRMC,170045.000,A,3328.2228,N,11708.2324,W,67.13,164.18,60410,,,A*79
$GPRMC,170048.000,A,3328.1684,N,11708.2163,W,68.10,167.70,60410,,,A*75
$GPRMC,170051.000,A,3328.1121,N,11708.2038,W,68.59,170.86,60410,,,A*78
$GPRMC,170054.000,A,3328.0557,N,11708.1954,W,68.10,174.38,60410,,,A*75
$GPRMC,170057.000,A,3327.9991,N,11708.1906,W,67.61,176.84,60410,,,A*7D
$GPRMC,170100.000,A,3327.9424,N,11708.1890,W,68.10,180.35,60410,,,A*79
$GPRMC,170103.000,A,3327.8858,N,11708.1912,W,68.10,182.81,60410,,,A*7A
$GPRMC,170106.000,A,3327.8295,N,11708.1944,W,67.61,182.81,60410,,,A*7E
$GPRMC,170109.000,A,3327.7728,N,11708.1951,W,68.10,178.59,60410,,,A*70
$GPRMC,170112.000,A,3327.7162,N,11708.1912,W,68.10,175.08,60410,,,A*7C
$GPRMC,170115.000,A,3327.6598,N,11708.1851,W,67.61,174.73,60410,,,A*79
$GPRMC,170118.000,A,3327.6035,N,11708.1793,W,67.61,174.73,60410,,,A*77
$GPRMC,170121.000,A,3327.5469,N,11708.1732,W,67.61,174.73,60410,,,A*78
$GPRMC,170124.000,A,3327.4909,N,11708.1667,W,67.61,174.73,60410,,,A*76
$GPRMC,170127.000,A,3327.4345,N,11708.1606,W,67.58,174.73,60410,,,A*7A
$GPRMC,170130.000,A,3327.3779,N,11708.1545,W,68.07,174.73,60410,,,A*71
$GPRMC,170133.000,A,3327.3216,N,11708.1481,W,68.07,174.73,60410,,,A*77
$GPRMC,170136.000,A,3327.2646,N,11708.1420,W,68.04,174.73,60410,,,A*7A
$GPRMC,170139.000,A,3327.2083,N,11708.1355,W,68.04,174.73,60410,,,A*7F
$GPRMC,170142.000,A,3327.1519,N,11708.1297,W,68.04,175.78,60410,,,A*73
$GPRMC,170145.000,A,3327.0956,N,11708.1265,W,68.04,178.59,60410,,,A*71
$GPRMC,170148.000,A,3327.0383,N,11708.1284,W,68.52,183.52,60410,,,A*7D
$GPRMC,170149.000,A,3327.0190,N,11708.1301,W,68.52,183.87,60410,,,A*78
$GPRMC,170218.000,A,3326.4870,N,11708.2881,W,68.04,196.88,60410,,,A*75
$GPRMC,170221.000,A,3326.4332,N,11708.3093,W,67.55,199.34,60410,,,A*7B
$GPRMC,170224.000,A,3326.3801,N,11708.3322,W,68.04,200.74,60410,,,A*77
$GPRMC,170227.000,A,3326.3270,N,11708.3566,W,68.04,201.80,60410,,,A*74
$GPRMC,170230.000,A,3326.2758,N,11708.3850,W,68.52,204.96,60410,,,A*75
$GPRMC,170233.000,A,3326.2253,N,11708.4155,W,68.52,206.72,60410,,,A*7B
$GPRMC,170234.000,A,3326.2082,N,11708.4262,W,68.52,207.42,60410,,,A*77
$GPRMC,170318.000,A,3325.5593,N,11709.0538,W,68.52,215.86,60410,,,A*7F
$GPRMC,170321.000,A,3325.5120,N,11709.0924,W,68.53,212.34,60410,,,A*77
$GPRMC,170324.000,A,3325.4631,N,11709.1275,W,69.01,210.23,60410,,,A*78
$GPRMC,170327.000,A,3325.4132,N,11709.1623,W,69.02,210.23,60410,,,A*7B
$GPRMC,170330.000,A,3325.3633,N,11709.1967,W,69.01,210.23,60410,,,A*70
$GPRMC,170333.000,A,3325.3138,N,11709.2308,W,68.52,210.23,60410,,,A*78
$GPRMC,170336.000,A,3325.2642,N,11709.2653,W,68.52,210.23,60410,,,A*7D
$GPRMC,170339.000,A,3325.2146,N,11709.2997,W,69.01,210.23,60410,,,A*71
$GPRMC,170342.000,A,3325.1651,N,11709.3345,W,69.01,210.94,60410,,,A*77
$GPRMC,170344.000,A,3325.1322,N,11709.3580,W,69.01,211.29,60410,,,A*78
$GPRMC,170356.000,A,3324.9369,N,11709.5009,W,68.04,211.64,60410,,,A*72
$GPRMC,170409.000,A,3324.7296,N,11709.6528,W,67.07,211.64,60410,,,A*79
$GPRMC,170412.000,A,3324.6819,N,11709.6879,W,67.56,211.64,60410,,,A*72
$GPRMC,170415.000,A,3324.6337,N,11709.7230,W,68.04,211.29,60410,,,A*75
$GPRMC,170418.000,A,3324.5854,N,11709.7587,W,68.53,212.34,60410,,,A*73
$GPRMC,170421.000,A,3324.5368,N,11709.7964,W,69.50,213.05,60410,,,A*7D
$GPRMC,170424.000,A,3324.4882,N,11709.8334,W,69.02,212.70,60410,,,A*72
$GPRMC,170427.000,A,3324.4399,N,11709.8713,W,69.50,213.75,60410,,,A*72
$GPRMC,170430.000,A,3324.3916,N,11709.9109,W,69.98,215.16,60410,,,A*75
$GPRMC,170433.000,A,3324.3443,N,11709.9518,W,69.98,215.51,60410,,,A*7C
$GPRMC,170435.000,A,3324.3124,N,11709.9788,W,69.98,215.16,60410,,,A*76
$GPRMC,170556.000,A,3322.8550,N,11710.4259,W,68.04,164.53,60410,,,A*74
$GPRMC,170559.000,A,3322.8000,N,11710.4053,W,69.01,161.02,60410,,,A*76
$GPRMC,170603.000,A,3322.7282,N,11710.3731,W,69.01,158.20,60410,,,A*73
$GPRMC,170703.000,A,3321.7716,N,11709.6306,W,68.52,160.31,60410,,,A*78
$GPRMC,170729.000,A,3321.3049,N,11709.5414,W,65.12,179.65,60410,,,A*7E
$GPRMC,170731.000,A,3321.2686,N,11709.5418,W,65.12,180.35,60410,,,A*7C
$GPRMC,170734.000,A,3321.2142,N,11709.5424,W,65.12,181.05,60410,,,A*7B
$GPRMC,170739.000,A,3321.1218,N,11709.5443,W,66.58,181.05,60410,,,A*75
$GPRMC,170742.000,A,3321.0658,N,11709.5447,W,66.58,180.35,60410,,,A*7E
$GPRMC,170745.000,A,3321.0108,N,11709.5453,W,66.09,180.35,60410,,,A*7A
$GPRMC,170748.000,A,3320.9557,N,11709.5463,W,66.09,180.70,60410,,,A*73
$GPRMC,170751.000,A,3320.8994,N,11709.5469,W,66.58,180.70,60410,,,A*77
$GPRMC,170754.000,A,3320.8443,N,11709.5479,W,66.09,180.70,60410,,,A*70
$GPRMC,170757.000,A,3320.7883,N,11709.5495,W,66.58,181.05,60410,,,A*79
$GPRMC,170758.000,A,3320.7700,N,11709.5501,W,66.58,181.05,60410,,,A*7E
$GPRMC,170804.000,A,3320.6596,N,11709.5524,W,66.09,180.70,60410,,,A*74
$GPRMC,170807.000,A,3320.6049,N,11709.5530,W,66.58,180.70,60410,,,A*71
$GPRMC,170810.000,A,3320.5489,N,11709.5540,W,67.55,181.05,60410,,,A*74
$GPRMC,170813.000,A,3320.4916,N,11709.5550,W,68.52,181.05,60410,,,A*74
$GPRMC,170816.000,A,3320.4349,N,11709.5566,W,68.04,181.05,60410,,,A*77
$GPRMC,170819.000,A,3320.3783,N,11709.5578,W,68.04,181.05,60410,,,A*72
$GPRMC,170822.000,A,3320.3213,N,11709.5582,W,68.04,180.70,60410,,,A*70
$GPRMC,170825.000,A,3320.2637,N,11709.5578,W,68.52,180.35,60410,,,A*73
$GPRMC,170828.000,A,3320.2067,N,11709.5585,W,68.04,180.70,60410,,,A*7D
$GPRMC,170831.000,A,3320.1501,N,11709.5598,W,68.04,180.70,60410,,,A*7F
$GPRMC,170834.000,A,3320.0928,N,11709.5607,W,68.04,180.70,60410,,,A*79
$GPRMC,170837.000,A,3320.0361,N,11709.5620,W,68.04,181.05,60410,,,A*7B
$GPRMC,170840.000,A,3319.9792,N,11709.5627,W,68.04,180.70,60410,,,A*74
$GPRMC,170843.000,A,3319.9222,N,11709.5630,W,68.04,180.70,60410,,,A*7F
$GPRMC,170846.000,A,3319.8659,N,11709.5649,W,68.04,181.05,60410,,,A*7E
$GPRMC,170849.000,A,3319.8086,N,11709.5656,W,68.04,180.00,60410,,,A*7F
$GPRMC,170852.000,A,3319.7519,N,11709.5653,W,68.04,177.89,60410,,,A*75
$GPRMC,170855.000,A,3319.6959,N,11709.5620,W,68.04,175.78,60410,,,A*73
$GPRMC,170858.000,A,3319.6396,N,11709.5546,W,68.04,172.62,60410,,,A*78
$GPRMC,170901.000,A,3319.5836,N,11709.5447,W,68.04,170.16,60410,,,A*76
$GPRMC,170904.000,A,3319.5282,N,11709.5321,W,68.04,167.70,60410,,,A*77
$GPRMC,170907.000,A,3319.4735,N,11709.5166,W,67.09,165.23,60410,,,A*7B
$GPRMC,170910.000,A,3319.4204,N,11709.4980,W,65.64,162.42,60410,,,A*72
$GPRMC,170913.000,A,3319.3699,N,11709.4771,W,64.18,159.96,60410,,,A*7D
$GPRMC,170916.000,A,3319.3203,N,11709.4542,W,63.73,157.50,60410,,,A*73
$GPRMC,170919.000,A,3319.2717,N,11709.4288,W,63.73,155.04,60410,,,A*7F
$GPRMC,170922.000,A,3319.2238,N,11709.4008,W,63.25,152.93,60410,,,A*7F
$GPRMC,170925.000,A,3319.1777,N,11709.3721,W,61.79,151.88,60410,,,A*7C
$GPRMC,170928.000,A,3319.1327,N,11709.3435,W,61.30,152.23,60410,,,A*79
$GPRMC,170931.000,A,3319.0879,N,11709.3152,W,60.82,151.88,60410,,,A*7E
$GPRMC,170934.000,A,3319.0429,N,11709.2862,W,60.82,151.88,60410,,,A*79
$GPRMC,170937.000,A,3318.9981,N,11709.2579,W,60.82,151.88,60410,,,A*7A
$GPRMC,170940.000,A,3318.9531,N,11709.2295,W,61.30,152.23,60410,,,A*72
$GPRMC,170943.000,A,3318.9080,N,11709.2009,W,60.82,152.23,60410,,,A*71
$GPRMC,170946.000,A,3318.8623,N,11709.1739,W,60.82,155.04,60410,,,A*7F
$GPRMC,170949.000,A,3318.8160,N,11709.1491,W,61.24,156.80,60410,,,A*73
$GPRMC,170952.000,A,3318.7690,N,11709.1265,W,60.82,159.26,60410,,,A*7D
$GPRMC,170955.000,A,3318.7213,N,11709.1059,W,60.82,161.37,60410,,,A*73
$GPRMC,170958.000,A,3318.6724,N,11709.0882,W,60.82,164.18,60410,,,A*79
$GPRMC,171001.000,A,3318.6232,N,11709.0722,W,60.82,165.94,60410,,,A*7F
$GPRMC,171004.000,A,3318.5739,N,11709.0590,W,60.75,168.40,60410,,,A*70
$GPRMC,171007.000,A,3318.5240,N,11709.0477,W,61.24,170.16,60410,,,A*7F
$GPRMC,171010.000,A,3318.4732,N,11709.0380,W,61.23,171.56,60410,,,A*75
$GPRMC,171013.000,A,3318.4233,N,11709.0319,W,60.82,175.08,60410,,,A*77
$GPRMC,171016.000,A,3318.3718,N,11709.0274,W,60.76,176.48,60410,,,A*7F
$GPRMC,171019.000,A,3318.3206,N,11709.0242,W,61.26,177.54,60410,,,A*77
$GPRMC,171022.000,A,3318.2697,N,11709.0216,W,60.78,177.19,60410,,,A*70
$GPRMC,171025.000,A,3318.2192,N,11709.0187,W,61.30,177.19,60410,,,A*73
$GPRMC,171028.000,A,3318.1687,N,11709.0155,W,61.24,177.54,60410,,,A*7D
$GPRMC,171031.000,A,3318.1178,N,11709.0129,W,61.26,177.19,60410,,,A*72
$GPRMC,171034.000,A,3318.0667,N,11709.0100,W,61.24,176.84,60410,,,A*73
$GPRMC,171037.000,A,3318.0155,N,11709.0065,W,62.21,176.84,60410,,,A*72
$GPRMC,171040.000,A,3317.9630,N,11709.0033,W,63.19,177.54,60410,,,A*75
$GPRMC,171043.000,A,3317.9105,N,11708.9997,W,63.19,177.19,60410,,,A*71
$GPRMC,171046.000,A,3317.8581,N,11708.9972,W,63.19,177.19,60410,,,A*76
$GPRMC,171049.000,A,3317.8056,N,11708.9949,W,62.69,177.54,60410,,,A*71
$GPRMC,171052.000,A,3317.7532,N,11708.9923,W,63.18,177.54,60410,,,A*78
$GPRMC,171055.000,A,3317.7004,N,11708.9898,W,63.18,177.19,60410,,,A*77
$GPRMC,171058.000,A,3317.6476,N,11708.9869,W,63.18,177.19,60410,,,A*74
$GPRMC,171127.000,A,3317.1316,N,11708.9891,W,65.12,188.09,60410,,,A*71
$GPRMC,171130.000,A,3317.0782,N,11709.0010,W,65.12,190.55,60410,,,A*76
$GPRMC,171144.000,A,3316.8413,N,11709.0989,W,65.12,204.96,60410,,,A*7F
$GPRMC,171232.000,A,3316.0412,N,11709.4996,W,64.16,190.90,60410,,,A*73
$GPRMC,171235.000,A,3315.9884,N,11709.5109,W,64.15,189.49,60410,,,A*7D
$GPRMC,171238.000,A,3315.9353,N,11709.5189,W,64.16,187.03,60410,,,A*7A
$GPRMC,171241.000,A,3315.8828,N,11709.5253,W,63.25,184.22,60410,,,A*71
$GPRMC,171244.000,A,3315.8300,N,11709.5289,W,63.73,181.76,60410,,,A*75
$GPRMC,171247.000,A,3315.7759,N,11709.5292,W,65.19,180.00,60410,,,A*71
$GPRMC,171250.000,A,3315.7219,N,11709.5276,W,65.19,177.19,60410,,,A*7C
$GPRMC,171253.000,A,3315.6675,N,11709.5228,W,64.70,175.08,60410,,,A*77
$GPRMC,171256.000,A,3315.6140,N,11709.5157,W,64.67,172.62,60410,,,A*75
$GPRMC,171259.000,A,3315.5606,N,11709.5063,W,64.18,170.16,60410,,,A*73
$GPRMC,171302.000,A,3315.5078,N,11709.4944,W,64.67,168.75,60410,,,A*7A
$GPRMC,171305.000,A,3315.4550,N,11709.4800,W,64.64,165.59,60410,,,A*72
$GPRMC,171308.000,A,3315.4029,N,11709.4626,W,64.64,163.48,60410,,,A*78
$GPRMC,171311.000,A,3315.3520,N,11709.4433,W,64.64,161.02,60410,,,A*71
$GPRMC,171314.000,A,3315.3012,N,11709.4214,W,64.64,160.31,60410,,,A*72
$GPRMC,171317.000,A,3315.2510,N,11709.3995,W,64.67,159.96,60410,,,A*76
$GPRMC,171320.000,A,3315.2004,N,11709.3776,W,64.15,160.66,60410,,,A*71
$GPRMC,171323.000,A,3315.1512,N,11709.3554,W,63.21,159.96,60410,,,A*74
$GPRMC,171326.000,A,3315.1020,N,11709.3342,W,62.70,159.96,60410,,,A*71
$GPRMC,171329.000,A,3315.0537,N,11709.3136,W,60.26,159.96,60410,,,A*7C
$GPRMC,171332.000,A,3315.0067,N,11709.2933,W,59.78,160.31,60410,,,A*7C
$GPRMC,171335.000,A,3314.9607,N,11709.2733,W,59.30,160.31,60410,,,A*71
$GPRMC,171338.000,A,3314.9137,N,11709.2537,W,60.27,159.96,60410,,,A*75
$GPRMC,171341.000,A,3314.8660,N,11709.2334,W,61.24,159.96,60410,,,A*78
$GPRMC,171344.000,A,3314.8177,N,11709.2125,W,61.72,160.31,60410,,,A*7A
$GPRMC,171347.000,A,3314.7679,N,11709.1906,W,63.18,159.96,60410,,,A*7C
$GPRMC,171350.000,A,3314.7180,N,11709.1684,W,63.66,159.96,60410,,,A*77
$GPRMC,171353.000,A,3314.6671,N,11709.1465,W,65.12,160.31,60410,,,A*73
$GPRMC,171356.000,A,3314.6150,N,11709.1246,W,65.12,160.31,60410,,,A*75
$GPRMC,171359.000,A,3314.5641,N,11709.1031,W,65.12,160.31,60410,,,A*7C
$GPRMC,171402.000,A,3314.5126,N,11709.0805,W,65.61,159.96,60410,,,A*7E
$GPRMC,171405.000,A,3314.4614,N,11709.0593,W,65.61,160.31,60410,,,A*7B
$GPRMC,171408.000,A,3314.4096,N,11709.0371,W,66.58,160.31,60410,,,A*79
$GPRMC,171411.000,A,3314.3559,N,11709.0126,W,67.07,160.31,60410,,,A*7B
$GPRMC,171414.000,A,3314.3034,N,11708.9904,W,66.58,159.96,60410,,,A*7C
$GPRMC,171417.000,A,3314.2513,N,11708.9675,W,67.07,159.96,60410,,,A*7C
$GPRMC,171420.000,A,3314.1982,N,11708.9447,W,67.55,160.31,60410,,,A*7C
$GPRMC,171423.000,A,3314.1457,N,11708.9222,W,67.07,159.96,60410,,,A*7F
$GPRMC,171426.000,A,3314.0929,N,11708.9000,W,67.55,159.61,60410,,,A*72
$GPRMC,171429.000,A,3314.0398,N,11708.8777,W,67.07,160.31,60410,,,A*73
$GPRMC,171432.000,A,3313.9883,N,11708.8536,W,67.07,159.61,60410,,,A*7E
$GPRMC,171435.000,A,3313.9352,N,11708.8317,W,66.59,160.31,60410,,,A*7E
$GPRMC,171438.000,A,3313.8830,N,11708.8089,W,66.58,159.96,60410,,,A*7F
$GPRMC,171441.000,A,3313.8312,N,11708.7876,W,65.61,160.31,60410,,,A*73
$GPRMC,171445.000,A,3313.7614,N,11708.7567,W,66.09,159.96,60410,,,A*7C
$GPRMC,171448.000,A,3313.7089,N,11708.7342,W,66.10,159.96,60410,,,A*7A
$GPRMC,171451.000,A,3313.6577,N,11708.7120,W,64.16,159.96,60410,,,A*75
$GPRMC,171454.000,A,3313.6079,N,11708.6907,W,63.19,160.31,60410,,,A*78
$GPRMC,171457.000,A,3313.5586,N,11708.6701,W,63.21,159.96,60410,,,A*79
$GPRMC,171500.000,A,3313.5097,N,11708.6492,W,62.24,159.96,60410,,,A*72
$GPRMC,171503.000,A,3313.4611,N,11708.6283,W,62.24,159.96,60410,,,A*7E
$GPRMC,171506.000,A,3313.4125,N,11708.6071,W,62.27,158.55,60410,,,A*79
$GPRMC,171509.000,A,3313.3645,N,11708.5842,W,62.27,157.50,60410,,,A*71
$GPRMC,171512.000,A,3313.3169,N,11708.5601,W,62.76,156.45,60410,,,A*7A
$GPRMC,171515.000,A,3313.2693,N,11708.5346,W,62.27,155.04,60410,,,A*7A
$GPRMC,171518.000,A,3313.2226,N,11708.5086,W,61.30,154.34,60410,,,A*75
$GPRMC,171521.000,A,3313.1762,N,11708.4828,W,60.33,153.28,60410,,,A*7C
$GPRMC,171524.000,A,3313.1315,N,11708.4555,W,60.29,152.23,60410,,,A*7B
$GPRMC,171527.000,A,3313.0877,N,11708.4268,W,60.82,150.82,60410,,,A*77
$GPRMC,171530.000,A,3313.0439,N,11708.3966,W,60.78,149.77,60410,,,A*72
$GPRMC,171533.000,A,3313.0005,N,11708.3660,W,59.85,148.71,60410,,,A*7C
$GPRMC,171536.000,A,3312.9587,N,11708.3351,W,58.88,148.01,60410,,,A*72
$GPRMC,171539.000,A,3312.9171,N,11708.3039,W,58.84,148.01,60410,,,A*71
$GPRMC,171542.000,A,3312.8756,N,11708.2730,W,58.84,148.01,60410,,,A*70
$GPRMC,171545.000,A,3312.8338,N,11708.2417,W,59.32,148.01,60410,,,A*71
$GPRMC,171548.000,A,3312.7913,N,11708.2105,W,60.78,148.36,60410,,,A*76
$GPRMC,171551.000,A,3312.7475,N,11708.1783,W,61.75,148.01,60410,,,A*70
$GPRMC,171554.000,A,3312.7041,N,11708.1461,W,61.26,148.01,60410,,,A*7F
$GPRMC,171557.000,A,3312.6603,N,11708.1136,W,62.21,147.66,60410,,,A*70
$GPRMC,171600.000,A,3312.6165,N,11708.0798,W,62.69,147.66,60410,,,A*79
$GPRMC,171603.000,A,3312.5724,N,11708.0464,W,62.24,148.01,60410,,,A*7D
$GPRMC,171606.000,A,3312.5286,N,11708.0148,W,59.32,148.01,60410,,,A*71
$GPRMC,171609.000,A,3312.4871,N,11707.9836,W,58.80,147.66,60410,,,A*7D
$GPRMC,171612.000,A,3312.4456,N,11707.9534,W,58.80,148.36,60410,,,A*7B
$GPRMC,171617.000,A,3312.3754,N,11707.9031,W,59.32,148.01,60410,,,A*74
$GPRMC,171620.000,A,3312.3326,N,11707.8713,W,59.81,148.71,60410,,,A*78
$GPRMC,171623.000,A,3312.2885,N,11707.8397,W,63.19,150.82,60410,,,A*7D
$GPRMC,171626.000,A,3312.2403,N,11707.8079,W,69.02,150.47,60410,,,A*70
$GPRMC,171629.000,A,3312.1891,N,11707.7731,W,71.44,150.82,60410,,,A*7D
$GPRMC,171632.000,A,3312.1366,N,11707.7351,W,73.88,150.12,60410,,,A*7D
$GPRMC,171635.000,A,3312.0822,N,11707.6991,W,75.33,151.88,60410,,,A*73
$GPRMC,171638.000,A,3312.0278,N,11707.6646,W,73.87,152.23,60410,,,A*75
$GPRMC,171641.000,A,3311.9734,N,11707.6318,W,71.93,152.58,60410,,,A*79
$GPRMC,171644.000,A,3311.9213,N,11707.6016,W,70.47,153.98,60410,,,A*74
$GPRMC,171647.000,A,3311.8704,N,11707.5726,W,67.55,154.34,60410,,,A*76
$GPRMC,171650.000,A,3311.8199,N,11707.5433,W,67.07,153.98,60410,,,A*73
$GPRMC,171653.000,A,3311.7694,N,11707.5137,W,68.04,154.34,60410,,,A*79
$GPRMC,171656.000,A,3311.7182,N,11707.4844,W,68.53,153.98,60410,,,A*73
$GPRMC,171659.000,A,3311.6667,N,11707.4548,W,68.53,153.98,60410,,,A*70
$GPRMC,171702.000,A,3311.6149,N,11707.4252,W,68.53,153.98,60410,,,A*78
$GPRMC,171705.000,A,3311.5634,N,11707.3956,W,69.02,154.34,60410,,,A*7D
$GPRMC,171708.000,A,3311.5115,N,11707.3656,W,68.52,153.98,60410,,,A*7E
$GPRMC,171711.000,A,3311.4600,N,11707.3357,W,68.52,153.98,60410,,,A*70
$GPRMC,171714.000,A,3311.4082,N,11707.3058,W,69.50,153.63,60410,,,A*72
$GPRMC,171717.000,A,3311.3567,N,11707.2761,W,69.02,154.34,60410,,,A*76
$GPRMC,171720.000,A,3311.3049,N,11707.2465,W,68.52,154.34,60410,,,A*78
$GPRMC,171723.000,A,3311.2534,N,11707.2176,W,68.52,154.34,60410,,,A*72
$GPRMC,171726.000,A,3311.2016,N,11707.1876,W,69.01,153.98,60410,,,A*7E
$GPRMC,171727.000,A,3311.1842,N,11707.1780,W,69.01,153.98,60410,,,A*73
$GPRMC,171744.000,A,3310.8897,N,11707.0109,W,69.01,155.04,60410,,,A*73
$GPRMC,171747.000,A,3310.8379,N,11706.9820,W,69.01,154.69,60410,,,A*7B
$GPRMC,171752.000,A,3310.7507,N,11706.9314,W,69.01,153.63,60410,,,A*7E
$GPRMC,171755.000,A,3310.6988,N,11706.9012,W,68.52,153.98,60410,,,A*75
$GPRMC,171758.000,A,3310.6473,N,11706.8719,W,69.01,154.34,60410,,,A*7A
$GPRMC,171801.000,A,3310.5962,N,11706.8410,W,68.52,153.63,60410,,,A*7F
$GPRMC,171803.000,A,3310.5617,N,11706.8223,W,69.01,154.34,60410,,,A*74
$GPRMC,171807.000,A,3310.4935,N,11706.7824,W,68.52,153.98,60410,,,A*7A
$GPRMC,171810.000,A,3310.4423,N,11706.7515,W,69.01,153.63,60410,,,A*7A
$GPRMC,171813.000,A,3310.3905,N,11706.7216,W,69.01,154.34,60410,,,A*76
$GPRMC,171817.000,A,3310.3219,N,11706.6823,W,68.52,153.98,60410,,,A*7F
$GPRMC,171820.000,A,3310.2704,N,11706.6524,W,69.01,153.98,60410,,,A*7E
$GPRMC,171823.000,A,3310.2186,N,11706.6228,W,69.01,154.34,60410,,,A*7B
$GPRMC,171825.000,A,3310.1845,N,11706.6028,W,69.01,154.34,60410,,,A*7A
$GPRMC,171830.000,A,3310.0982,N,11706.5536,W,69.01,153.98,60410,,,A*7D
$GPRMC,171831.000,A,3310.0812,N,11706.5436,W,68.52,153.98,60410,,,A*72
$GPRMC,171836.000,A,3309.9940,N,11706.4947,W,69.01,153.98,60410,,,A*7F
$GPRMC,171838.000,A,3309.9592,N,11706.4737,W,69.01,153.63,60410,,,A*7F
$GPRMC,171843.000,A,3309.8723,N,11706.4261,W,69.01,154.34,60410,,,A*79
$GPRMC,171846.000,A,3309.8205,N,11706.3955,W,69.01,153.98,60410,,,A*77
$GPRMC,171848.000,A,3309.7873,N,11706.3752,W,68.04,153.98,60410,,,A*70
$GPRMC,171956.000,A,3308.5008,N,11706.2951,W,68.52,182.46,60410,,,A*79
$GPRMC,171959.000,A,3308.4435,N,11706.2983,W,69.01,182.46,60410,,,A*75
$GPRMC,172003.000,A,3308.3669,N,11706.3025,W,68.52,182.46,60410,,,A*7F
$GPRMC,172006.000,A,3308.3096,N,11706.3051,W,69.01,182.46,60410,,,A*78
$GPRMC,172009.000,A,3308.2523,N,11706.3083,W,69.50,182.46,60410,,,A*76
$GPRMC,172012.000,A,3308.1950,N,11706.3112,W,68.52,182.46,60410,,,A*7D
$GPRMC,172015.000,A,3308.1381,N,11706.3141,W,69.01,182.46,60410,,,A*7D
$GPRMC,172017.000,A,3308.1007,N,11706.3160,W,66.09,181.41,60410,,,A*72
$GPRMC,172021.000,A,3308.0399,N,11706.3199,W,46.65,182.46,60410,,,A*78
$GPRMC,172024.000,A,3308.0058,N,11706.3221,W,38.88,184.57,60410,,,A*7F
$GPRMC,172027.000,A,3307.9720,N,11706.3260,W,41.31,185.62,60410,,,A*7C
$GPRMC,172030.000,A,3307.9369,N,11706.3305,W,43.74,187.38,60410,,,A*7F
$GPRMC,172033.000,A,3307.9002,N,11706.3360,W,44.22,187.38,60410,,,A*75
$GPRMC,172036.000,A,3307.8632,N,11706.3415,W,45.68,186.33,60410,,,A*74
$GPRMC,172039.000,A,3307.8230,N,11706.3476,W,49.08,188.09,60410,,,A*75
$GPRMC,172042.000,A,3307.7827,N,11706.3546,W,48.61,189.49,60410,,,A*73
$GPRMC,172045.000,A,3307.7438,N,11706.3646,W,46.66,196.88,60410,,,A*7F
$GPRMC,172046.000,A,3307.7316,N,11706.3698,W,47.63,201.80,60410,,,A*75
$GPRMC,172050.000,A,3307.6849,N,11706.4042,W,52.49,216.91,60410,,,A*7E
$GPRMC,172107.000,A,3307.6746,N,11706.6678,W,51.52,291.45,60410,,,A*7F
$GPRMC,172110.000,A,3307.6910,N,11706.7135,W,49.08,293.20,60410,,,A*7C
$GPRMC,172113.000,A,3307.7081,N,11706.7570,W,47.64,295.31,60410,,,A*78
$GPRMC,172116.000,A,3307.7248,N,11706.7998,W,46.65,294.26,60410,,,A*77
$GPRMC,172119.000,A,3307.7412,N,11706.8410,W,45.21,296.72,60410,,,A*73
$GPRMC,172122.000,A,3307.7586,N,11706.8819,W,46.17,297.07,60410,,,A*77
$GPRMC,172125.000,A,3307.7763,N,11706.9231,W,47.63,297.07,60410,,,A*7A
$GPRMC,172128.000,A,3307.7946,N,11706.9665,W,50.06,296.72,60410,,,A*7D
$GPRMC,172131.000,A,3307.8140,N,11707.0119,W,52.49,295.31,60410,,,A*7D
$GPRMC,172134.000,A,3307.8336,N,11707.0599,W,55.41,297.42,60410,,,A*7E
$GPRMC,172137.000,A,3307.8548,N,11707.1097,W,57.35,296.72,60410,,,A*7B
$GPRMC,172140.000,A,3307.8764,N,11707.1619,W,59.32,294.61,60410,,,A*7E
$GPRMC,172143.000,A,3307.8983,N,11707.2153,W,60.27,297.42,60410,,,A*7C
$GPRMC,172146.000,A,3307.9215,N,11707.2687,W,60.75,297.07,60410,,,A*74
$GPRMC,172149.000,A,3307.9469,N,11707.3219,W,59.78,297.42,60410,,,A*72
$GPRMC,172152.000,A,3307.9685,N,11707.3750,W,59.30,297.07,60410,,,A*7D
$GPRMC,172155.000,A,3307.9907,N,11707.4274,W,60.26,297.42,60410,,,A*77
$GPRMC,172158.000,A,3308.0138,N,11707.4812,W,60.76,297.07,60410,,,A*76
$GPRMC,172159.000,A,3308.0216,N,11707.4992,W,61.23,297.42,60410,,,A*71
$GPRMC,172204.000,A,3308.0573,N,11707.5900,W,61.24,291.45,60410,,,A*72
$GPRMC,172207.000,A,3308.0744,N,11707.6469,W,61.23,289.34,60410,,,A*7E
$GPRMC,172210.000,A,3308.0850,N,11707.7045,W,57.83,280.55,60410,,,A*78
$GPRMC,172213.000,A,3308.0937,N,11707.7615,W,59.29,280.55,60410,,,A*76
$GPRMC,172229.000,A,3308.1519,N,11708.0734,W,57.35,290.04,60410,,,A*72
$GPRMC,172230.000,A,3308.1587,N,11708.0911,W,57.83,292.15,60410,,,A*7B
$GPRMC,172236.000,A,3308.2066,N,11708.1970,W,59.29,297.07,60410,,,A*7A
$GPRMC,172239.000,A,3308.2295,N,11708.2488,W,58.80,296.72,60410,,,A*73
$GPRMC,172242.000,A,3308.2514,N,11708.2997,W,56.37,297.42,60410,,,A*72
$GPRMC,172245.000,A,3308.2726,N,11708.3489,W,55.89,297.07,60410,,,A*72
$GPRMC,172248.000,A,3308.2945,N,11708.3991,W,57.35,297.07,60410,,,A*75
$GPRMC,172252.000,A,3308.3244,N,11708.4677,W,59.78,297.77,60410,,,A*75
$GPRMC,172255.000,A,3308.3476,N,11708.5227,W,62.69,295.66,60410,,,A*7F
$GPRMC,172307.000,A,3308.3714,N,11708.7673,W,63.66,272.11,60410,,,A*7E
$GPRMC,172335.000,A,3308.3360,N,11709.3071,W,49.08,252.07,60410,,,A*7C
$GPRMC,172338.000,A,3308.3241,N,11709.3522,W,46.65,252.77,60410,,,A*73
$GPRMC,172341.000,A,3308.3122,N,11709.3956,W,44.71,252.42,60410,,,A*75
$GPRMC,172344.000,A,3308.3013,N,11709.4371,W,43.25,252.07,60410,,,A*7C
$GPRMC,172347.000,A,3308.2903,N,11709.4774,W,42.28,252.42,60410,,,A*7A
$GPRMC,172351.000,A,3308.2794,N,11709.5305,W,41.79,255.94,60410,,,A*75
$GPRMC,172354.000,A,3308.2704,N,11709.5717,W,43.74,256.29,60410,,,A*74
$GPRMC,172356.000,A,3308.2649,N,11709.5997,W,43.25,257.34,60410,,,A*71
$GPRMC,172401.000,A,3308.2659,N,11709.6695,W,42.77,288.98,60410,,,A*79
$GPRMC,172404.000,A,3308.2816,N,11709.7053,W,37.43,302.34,60410,,,A*74
$GPRMC,172407.000,A,3308.2951,N,11709.7317,W,25.29,298.83,60410,,,A*77
$GPRMC,172410.000,A,3308.3022,N,11709.7497,W,14.09,291.45,60410,,,A*71
$GPRMC,172446.000,A,3308.3048,N,11709.7629,W,7.78,274.92,60410,,,A*4C
$GPRMC,172449.000,A,3308.3051,N,11709.7751,W,14.58,267.89,60410,,,A*7D
$GPRMC,172452.000,A,3308.3045,N,11709.7902,W,15.07,266.84,60410,,,A*7D
$GPRMC,172455.000,A,3308.3013,N,11709.8054,W,17.01,239.06,60410,,,A*78
$GPRMC,172458.000,A,3308.2900,N,11709.8157,W,17.98,195.82,60410,,,A*74
$GPRMC,172501.000,A,3308.2733,N,11709.8173,W,21.87,184.57,60410,,,A*72
$GPRMC,172504.000,A,3308.2549,N,11709.8195,W,21.38,187.73,60410,,,A*71
$GPRMC,172507.000,A,3308.2395,N,11709.8218,W,16.04,188.09,60410,,,A*7A
$GPRMC,172510.000,A,3308.2292,N,11709.8234,W,8.26,188.09,60410,,,A*4B
$GPRMC,172552.000,A,3308.2202,N,11709.8240,W,2.43,188.09,60410,,,A*4E
$GPRMC,172555.000,A,3308.2153,N,11709.8250,W,9.23,189.14,60410,,,A*4F
$GPRMC,172608.000,A,3308.1510,N,11709.8337,W,12.15,186.33,60410,,,A*71
