NMEA Sentence Code,UTC Time,Status,Latitude,Latitude Direction,Longitude,Longitude Direction,Speed (knots),Track Angle (degrees true),Date,MagneticVariation,Magnetic Variation Direction,[FAA Mode]-Optional,Checksum
$GPRMC,194627.9,A,3244.468816,N,11710.898033,W,5.0,86.4,281110,,,A*45
$GPRMC,194630.2,A,3244.468687,N,11710.890911,W,8.4,95.5,281110,,,A*45
$GPRMC,194633.2,A,3244.463847,N,11710.882177,W,9.6,118.7,281110,,,A*71
$GPRMC,194636.9,A,3244.457666,N,11710.863116,W,13.9,118.1,281110,,,A*4F
$GPRMC,194639.9,A,3244.447315,N,11710.844155,W,18.6,119.4,281110,,,A*42
$GPRMC,194642.9,A,3244.437059,N,11710.814202,W,24.8,118.4,281110,,,A*46
$GPRMC,194645.9,A,3244.421757,N,11710.792257,W,27.0,131.4,281110,,,A*4E
$GPRMC,194648.9,A,3244.402209,N,11710.771384,W,29.0,140.4,281110,,,A*46
$GPRMC,194651.9,A,3244.380943,N,11710.752741,W,31.0,143.0,281110,,,A*44
$GPRMC,194654.2,A,3244.362548,N,11710.737932,W,32.7,144.1,281110,,,A*4A
$GPRMC,194657.2,A,3244.337815,N,11710.715366,W,36.8,141.0,281110,,,A*48
$GPRMC,194700.2,A,3244.315232,N,11710.692658,W,36.3,140.9,281110,,,A*41
$GPRMC,194703.2,A,3244.292244,N,11710.670898,W,34.1,142.2,281110,,,A*4A
$GPRMC,194706.2,A,3244.271871,N,11710.651525,W,31.3,142.5,281110,,,A*46
$GPRMC,194709.2,A,3244.252163,N,11710.635779,W,27.9,144.6,281110,,,A*43
$GPRMC,194712.2,A,3244.235062,N,11710.623978,W,24.3,154.4,281110,,,A*4A
$GPRMC,194715.2,A,3244.227009,N,11710.610589,W,20.8,131.4,281110,,,A*4D
$GPRMC,194719.2,A,3244.219274,N,11710.607464,W,8.7,145.5,281110,,,A*77
$GPRMC,194759.2,A,3244.218152,N,11710.604129,W,5.5,138.4,281110,,,A*7E
$GPRMC,194802.2,A,3244.216525,N,11710.598958,W,5.7,120.3,281110,,,A*71
$GPRMC,194805.2,A,3244.216338,N,11710.593089,W,5.8,94.0,281110,,,A*40
$GPRMC,194808.2,A,3244.219785,N,11710.585655,W,7.2,67.4,281110,,,A*40
$GPRMC,194811.2,A,3244.230209,N,11710.568838,W,11.9,52.2,281110,,,A*78
$GPRMC,194814.2,A,3244.242294,N,11710.566825,W,13.2,355.8,281110,,,A*49
$GPRMC,194817.2,A,3244.257657,N,11710.577626,W,22.2,327.2,281110,,,A*45
$GPRMC,194820.2,A,3244.276874,N,11710.593698,W,26.9,324.1,281110,,,A*4D
$GPRMC,194823.2,A,3244.296304,N,11710.610762,W,27.1,323.9,281110,,,A*46
$GPRMC,194826.2,A,3244.316452,N,11710.628246,W,29.6,322.9,281110,,,A*4E
$GPRMC,194829.2,A,3244.337497,N,11710.647622,W,32.4,323.1,281110,,,A*45
$GPRMC,194832.2,A,3244.359522,N,11710.667574,W,33.1,323.5,281110,,,A*4A
$GPRMC,194835.2,A,3244.382760,N,11710.688571,W,33.6,323.3,281110,,,A*4A
$GPRMC,194838.2,A,3244.405177,N,11710.709403,W,34.9,322.7,281110,,,A*4E
$GPRMC,194841.2,A,3244.428731,N,11710.731441,W,37.2,319.2,281110,,,A*43
$GPRMC,194845.2,A,3244.459423,N,11710.764552,W,38.1,315.2,281110,,,A*42
$GPRMC,194848.9,A,3244.489544,N,11710.794366,W,35.8,315.6,281110,,,A*47
$GPRMC,194851.9,A,3244.509351,N,11710.820960,W,35.1,309.4,281110,,,A*4E
$GPRMC,194854.9,A,3244.528229,N,11710.854176,W,40.0,302.4,281110,,,A*42
$GPRMC,194857.2,A,3244.538512,N,11710.883713,W,43.1,296.4,281110,,,A*45
$GPRMC,194900.9,A,3244.562597,N,11710.936166,W,48.3,296.7,281110,,,A*4E
$GPRMC,194903.2,A,3244.576456,N,11710.971157,W,52.2,297.8,281110,,,A*4A
$GPRMC,194906.9,A,3244.599342,N,11711.025463,W,51.7,297.3,281110,,,A*41
$GPRMC,194909.2,A,3244.613953,N,11711.061412,W,53.1,298.1,281110,,,A*41
$GPRMC,194912.2,A,3244.634856,N,11711.108363,W,53.5,298.8,281110,,,A*48
$GPRMC,194915.2,A,3244.656866,N,11711.155211,W,54.4,299.3,281110,,,A*48
$GPRMC,194918.9,A,3244.685473,N,11711.215418,W,55.0,298.1,281110,,,A*46
$GPRMC,194921.9,A,3244.707612,N,11711.263998,W,56.3,299.1,281110,,,A*47
$GPRMC,194924.9,A,3244.729436,N,11711.311965,W,56.1,297.7,281110,,,A*46
$GPRMC,194928.2,A,3244.756856,N,11711.366860,W,57.1,299.4,281110,,,A*4B
$GPRMC,194931.2,A,3244.779322,N,11711.414759,W,54.8,298.1,281110,,,A*4F
$GPRMC,194934.0,A,3244.798323,N,11711.455000,W,51.0,300.0,281110,,,A*44
$GPRMC,194937.9,A,3244.823708,N,11711.509453,W,47.1,299.3,281110,,,A*42
$GPRMC,194940.2,A,3244.838256,N,11711.541829,W,49.2,299.5,281110,,,A*4B
$GPRMC,194943.9,A,3244.865308,N,11711.592785,W,50.3,303.4,281110,,,A*4C
$GPRMC,194946.9,A,3244.892187,N,11711.633627,W,51.5,307.7,281110,,,A*45
$GPRMC,194949.9,A,3244.922951,N,11711.672744,W,53.0,312.9,281110,,,A*4F
$GPRMC,194952.9,A,3244.953115,N,11711.709057,W,51.5,315.3,281110,,,A*49
$GPRMC,194955.2,A,3244.976594,N,11711.733576,W,47.8,318.9,281110,,,A*4D
$GPRMC,194959.2,A,3245.015530,N,11711.770682,W,47.2,321.1,281110,,,A*45
$GPRMC,195002.0,A,3245.046716,N,11711.797905,W,48.7,322.3,281110,,,A*43
$GPRMC,195005.2,A,3245.080779,N,11711.831001,W,48.6,320.9,281110,,,A*42
$GPRMC,195008.0,A,3245.111989,N,11711.858176,W,49.6,323.1,281110,,,A*41
$GPRMC,195011.9,A,3245.153800,N,11711.899004,W,51.3,316.9,281110,,,A*4D
$GPRMC,195014.9,A,3245.185425,N,11711.935781,W,51.2,313.3,281110,,,A*4B
$GPRMC,195018.2,A,3245.215393,N,11711.977610,W,48.0,310.5,281110,,,A*4C
$GPRMC,195021.2,A,3245.240903,N,11712.011270,W,45.6,311.6,281110,,,A*44
$GPRMC,195024.0,A,3245.267153,N,11712.042495,W,46.0,313.3,281110,,,A*42
$GPRMC,195028.2,A,3245.305537,N,11712.085945,W,45.9,315.8,281110,,,A*43
$GPRMC,195031.0,A,3245.332236,N,11712.110985,W,43.4,326.6,281110,,,A*4F
$GPRMC,195034.9,A,3245.375142,N,11712.130804,W,40.0,338.7,281110,,,A*43
$GPRMC,195037.9,A,3245.411718,N,11712.128821,W,43.6,4.7,281110,,,A*4B
$GPRMC,195040.9,A,3245.446491,N,11712.115395,W,44.4,16.1,281110,,,A*71
$GPRMC,195043.9,A,3245.484563,N,11712.098846,W,47.2,23.0,281110,,,A*73
$GPRMC,195046.9,A,3245.514304,N,11712.075059,W,44.7,35.3,281110,,,A*7E
$GPRMC,195049.9,A,3245.536585,N,11712.043047,W,44.5,47.1,281110,,,A*71
$GPRMC,195052.9,A,3245.559887,N,11712.008583,W,43.5,56.4,281110,,,A*7D
$GPRMC,195055.9,A,3245.578521,N,11711.969050,W,44.8,66.0,281110,,,A*73
$GPRMC,195058.9,A,3245.588923,N,11711.928562,W,42.0,69.4,281110,,,A*7B
$GPRMC,195101.9,A,3245.595427,N,11711.884171,W,44.1,76.2,281110,,,A*7D
$GPRMC,195104.9,A,3245.604307,N,11711.838926,W,45.8,75.2,281110,,,A*70
$GPRMC,195107.9,A,3245.611167,N,11711.795569,W,44.8,77.4,281110,,,A*79
$GPRMC,195110.9,A,3245.623978,N,11711.750263,W,46.5,73.2,281110,,,A*71
$GPRMC,195113.9,A,3245.628505,N,11711.705885,W,49.3,80.2,281110,,,A*78
$GPRMC,195116.2,A,3245.632506,N,11711.670193,W,47.8,80.5,281110,,,A*71
$GPRMC,195119.2,A,3245.629675,N,11711.627764,W,42.3,91.1,281110,,,A*75
$GPRMC,195122.0,A,3245.622334,N,11711.583098,W,48.3,100.6,281110,,,A*49
$GPRMC,195125.9,A,3245.610439,N,11711.524013,W,45.4,103.8,281110,,,A*45
$GPRMC,195128.2,A,3245.603372,N,11711.491982,W,42.1,105.1,281110,,,A*4A
$GPRMC,195131.9,A,3245.593807,N,11711.447336,W,33.5,108.6,281110,,,A*4C
$GPRMC,195134.9,A,3245.581916,N,11711.430569,W,18.9,131.2,281110,,,A*4C
$GPRMC,195137.2,A,3245.574565,N,11711.425194,W,12.8,146.5,281110,,,A*48
$GPRMC,195140.9,A,3245.563598,N,11711.418643,W,12.6,150.5,281110,,,A*4D
$GPRMC,195143.9,A,3245.558771,N,11711.405102,W,16.0,108.1,281110,,,A*46
$GPRMC,195146.9,A,3245.558380,N,11711.382074,W,21.1,90.9,281110,,,A*7C
$GPRMC,195149.0,A,3245.558256,N,11711.367975,W,22.3,88.4,281110,,,A*76
$GPRMC,195152.9,A,3245.558729,N,11711.343868,W,18.1,92.4,281110,,,A*73
$GPRMC,195155.9,A,3245.559673,N,11711.326861,W,16.0,92.7,281110,,,A*7D
$GPRMC,195158.9,A,3245.556475,N,11711.310720,W,14.3,93.5,281110,,,A*76
$GPRMC,195201.9,A,3245.556403,N,11711.304845,W,5.0,98.1,281110,,,A*4D
$GPRMC,195207.9,A,3245.558671,N,11711.303233,W,5.1,86.0,281110,,,A*41
$GPRMC,195210.9,A,3245.559331,N,11711.287910,W,16.4,93.1,281110,,,A*72
$GPRMC,195213.9,A,3245.558959,N,11711.266848,W,23.0,92.4,281110,,,A*71
$GPRMC,195216.9,A,3245.554690,N,11711.239907,W,27.2,95.7,281110,,,A*70
$GPRMC,195219.9,A,3245.551298,N,11711.212940,W,29.7,96.5,281110,,,A*76
$GPRMC,195222.9,A,3245.550739,N,11711.179961,W,32.8,93.7,281110,,,A*7E
$GPRMC,195225.2,A,3245.550293,N,11711.156696,W,30.6,90.5,281110,,,A*70
$GPRMC,195228.9,A,3245.551615,N,11711.121988,W,28.7,88.2,281110,,,A*7B
$GPRMC,195231.9,A,3245.553457,N,11711.090953,W,31.3,84.7,281110,,,A*7D
$GPRMC,195234.9,A,3245.554588,N,11711.060565,W,31.5,89.3,281110,,,A*75
$GPRMC,195237.9,A,3245.554189,N,11711.028117,W,32.1,91.9,281110,,,A*7A
$GPRMC,195240.9,A,3245.550577,N,11710.995994,W,30.9,90.8,281110,,,A*7C
$GPRMC,195243.9,A,3245.547183,N,11710.965816,W,30.2,93.7,281110,,,A*75
$GPRMC,195246.9,A,3245.545197,N,11710.935353,W,30.9,92.8,281110,,,A*7D
$GPRMC,195249.9,A,3245.545345,N,11710.905776,W,30.2,90.2,281110,,,A*7C
$GPRMC,195252.9,A,3245.547617,N,11710.875276,W,31.5,88.8,281110,,,A*70
$GPRMC,195256.2,A,3245.548752,N,11710.839991,W,31.2,88.2,281110,,,A*77
$GPRMC,195259.0,A,3245.545047,N,11710.811379,W,32.0,92.8,281110,,,A*72
$GPRMC,195302.9,A,3245.542514,N,11710.771919,W,31.7,93.3,281110,,,A*7B
$GPRMC,195306.2,A,3245.544078,N,11710.735763,W,32.1,89.5,281110,,,A*76
$GPRMC,195309.2,A,3245.541450,N,11710.703112,W,32.8,91.6,281110,,,A*74
$GPRMC,195312.2,A,3245.540957,N,11710.670474,W,31.5,93.8,281110,,,A*77
$GPRMC,195315.2,A,3245.538848,N,11710.638832,W,30.5,91.8,281110,,,A*71
$GPRMC,195318.0,A,3245.538198,N,11710.611030,W,31.0,90.5,281110,,,A*73
$GPRMC,195321.9,A,3245.540719,N,11710.571197,W,31.5,85.3,281110,,,A*7E
$GPRMC,195324.9,A,3245.543117,N,11710.537290,W,33.2,84.3,281110,,,A*72
$GPRMC,195327.9,A,3245.547168,N,11710.505756,W,33.8,77.3,281110,,,A*75
$GPRMC,195330.9,A,3245.551264,N,11710.472203,W,33.7,82.0,281110,,,A*79
$GPRMC,195333.2,A,3245.556333,N,11710.447608,W,33.4,76.4,281110,,,A*70
$GPRMC,195336.0,A,3245.562732,N,11710.419173,W,33.7,74.6,281110,,,A*76
$GPRMC,195339.0,A,3245.570679,N,11710.385504,W,34.8,74.0,281110,,,A*7C
$GPRMC,195342.2,A,3245.577224,N,11710.351552,W,31.4,78.6,281110,,,A*70
$GPRMC,195345.9,A,3245.579571,N,11710.314388,W,30.4,86.3,281110,,,A*70
$GPRMC,195348.9,A,3245.580440,N,11710.288525,W,26.7,83.7,281110,,,A*78
$GPRMC,195351.9,A,3245.583070,N,11710.267037,W,19.3,79.1,281110,,,A*78
$GPRMC,195354.9,A,3245.585114,N,11710.259761,W,5.5,65.6,281110,,,A*40
$GPRMC,195400.9,A,3245.592460,N,11710.257892,W,6.8,14.6,281110,,,A*43
$GPRMC,195404.2,A,3245.602982,N,11710.248174,W,15.2,52.7,281110,,,A*73
$GPRMC,195407.9,A,3245.617659,N,11710.227076,W,20.6,56.0,281110,,,A*7D
$GPRMC,195410.9,A,3245.622593,N,11710.192831,W,33.9,75.1,281110,,,A*73
$GPRMC,195413.9,A,3245.630744,N,11710.154226,W,39.7,74.4,281110,,,A*7D
$GPRMC,195416.2,A,3245.637645,N,11710.123187,W,44.1,74.7,281110,,,A*73
$GPRMC,195420.2,A,3245.653601,N,11710.056124,W,51.6,74.9,281110,,,A*73
$GPRMC,195423.9,A,3245.665713,N,11709.992276,W,52.7,75.2,281110,,,A*79
$GPRMC,195426.9,A,3245.680009,N,11709.940984,W,53.7,70.4,281110,,,A*70
$GPRMC,195429.0,A,3245.690790,N,11709.907478,W,53.9,68.4,281110,,,A*7A
$GPRMC,195432.9,A,3245.713964,N,11709.842772,W,53.8,68.2,281110,,,A*78
$GPRMC,195435.2,A,3245.726528,N,11709.805928,W,51.8,68.1,281110,,,A*75
$GPRMC,195438.9,A,3245.744006,N,11709.750377,W,48.5,71.6,281110,,,A*7B
$GPRMC,195441.2,A,3245.755662,N,11709.721003,W,45.0,63.3,281110,,,A*72
$GPRMC,195445.2,A,3245.785805,N,11709.678193,W,38.5,47.6,281110,,,A*7D
$GPRMC,195448.2,A,3245.813827,N,11709.662816,W,33.8,26.6,281110,,,A*7E
$GPRMC,195451.0,A,3245.856521,N,11709.681809,W,42.8,344.1,281110,,,A*4B
$GPRMC,195454.2,A,3245.890335,N,11709.704105,W,41.5,325.6,281110,,,A*42
$GPRMC,195457.2,A,3245.920298,N,11709.729994,W,41.8,325.2,281110,,,A*4B
$GPRMC,195500.0,A,3245.955038,N,11709.735641,W,43.5,354.9,281110,,,A*48
$GPRMC,195503.9,A,3246.002363,N,11709.732534,W,44.9,9.6,281110,,,A*4E
$GPRMC,195506.9,A,3246.040438,N,11709.725076,W,46.2,11.4,281110,,,A*73
$GPRMC,195510.2,A,3246.085129,N,11709.711661,W,51.5,14.8,281110,,,A*7C
$GPRMC,195513.9,A,3246.135637,N,11709.698057,W,50.4,13.5,281110,,,A*7F
$GPRMC,195516.2,A,3246.166433,N,11709.689606,W,49.8,13.0,281110,,,A*72
$GPRMC,195519.9,A,3246.212342,N,11709.671454,W,46.0,17.3,281110,,,A*75
$GPRMC,195522.9,A,3246.249995,N,11709.659205,W,45.4,18.4,281110,,,A*74
$GPRMC,195525.9,A,3246.282165,N,11709.637124,W,42.3,31.8,281110,,,A*7C
$GPRMC,195528.9,A,3246.301621,N,11709.611550,W,35.3,49.1,281110,,,A*79
$GPRMC,195531.9,A,3246.311723,N,11709.583961,W,30.4,66.1,281110,,,A*7A
$GPRMC,195534.9,A,3246.313635,N,11709.551887,W,30.8,81.0,281110,,,A*79
$GPRMC,195537.9,A,3246.312556,N,11709.524151,W,29.4,84.0,281110,,,A*7C
$GPRMC,195540.9,A,3246.320624,N,11709.499685,W,26.3,74.8,281110,,,A*7D
$GPRMC,195543.9,A,3246.326882,N,11709.478673,W,21.8,66.8,281110,,,A*73
$GPRMC,195546.9,A,3246.334718,N,11709.458726,W,21.1,60.5,281110,,,A*78
$GPRMC,195549.9,A,3246.343694,N,11709.445701,W,15.9,53.8,281110,,,A*79
$GPRMC,195552.9,A,3246.346629,N,11709.436068,W,9.0,80.6,281110,,,A*48
$GPRMC,195555.2,A,3246.340262,N,11709.428838,W,13.5,138.2,281110,,,A*43
$GPRMC,195558.9,A,3246.326926,N,11709.415462,W,19.4,137.8,281110,,,A*4D
$GPRMC,195601.9,A,3246.313394,N,11709.399576,W,22.1,139.4,281110,,,A*4F
$GPRMC,195604.2,A,3246.300753,N,11709.391847,W,21.3,148.7,281110,,,A*4F
$GPRMC,195607.2,A,3246.283955,N,11709.386403,W,18.3,162.7,281110,,,A*46
$GPRMC,195610.2,A,3246.268949,N,11709.384856,W,16.0,167.0,281110,,,A*49
$GPRMC,195614.2,A,3246.253003,N,11709.380112,W,14.1,163.9,281110,,,A*41
$GPRMC,195617.9,A,3246.244387,N,11709.368955,W,13.7,130.3,281110,,,A*40
$GPRMC,195620.2,A,3246.242601,N,11709.356318,W,16.5,101.9,281110,,,A*43
$GPRMC,195623.9,A,3246.241807,N,11709.330506,W,17.5,100.7,281110,,,A*47
$GPRMC,195626.9,A,3246.241933,N,11709.318114,W,12.2,91.6,281110,,,A*73
$GPRMC,195629.9,A,3246.242399,N,11709.309743,W,6.6,88.4,281110,,,A*4A
$GPRMC,195638.2,A,3246.237753,N,11709.298135,W,6.0,114.9,281110,,,A*70
$GPRMC,195642.2,A,3246.225367,N,11709.290277,W,15.9,156.6,281110,,,A*42
$GPRMC,195645.2,A,3246.206856,N,11709.283437,W,22.9,161.8,281110,,,A*43
$GPRMC,195648.0,A,3246.186936,N,11709.276348,W,26.3,161.1,281110,,,A*42
$GPRMC,195651.9,A,3246.157315,N,11709.264995,W,27.2,163.2,281110,,,A*4C
$GPRMC,195654.0,A,3246.144043,N,11709.259189,W,24.5,161.0,281110,,,A*4D
$GPRMC,195657.2,A,3246.125436,N,11709.251870,W,20.8,160.7,281110,,,A*45
$GPRMC,195700.2,A,3246.111062,N,11709.248327,W,14.5,164.9,281110,,,A*45
$GPRMC,195703.2,A,3246.101332,N,11709.244212,W,9.3,164.3,281110,,,A*7A
$GPRMC,195722.0,A,3246.095307,N,11709.241786,W,9.1,162.1,281110,,,A*7A
$GPRMC,195725.9,A,3246.074780,N,11709.233849,W,20.0,161.6,281110,,,A*47
$GPRMC,195728.9,A,3246.057040,N,11709.227424,W,22.2,161.0,281110,,,A*44
$GPRMC,195731.9,A,3246.037252,N,11709.221266,W,23.4,163.9,281110,,,A*41
$GPRMC,195734.9,A,3246.016139,N,11709.212146,W,25.9,161.0,281110,,,A*48
$GPRMC,195737.9,A,3245.998957,N,11709.204760,W,22.3,163.3,281110,,,A*4E
$GPRMC,195740.2,A,3245.984973,N,11709.202171,W,20.7,177.9,281110,,,A*47
$GPRMC,195743.9,A,3245.966836,N,11709.205677,W,18.0,191.0,281110,,,A*48
$GPRMC,195746.2,A,3245.957343,N,11709.210418,W,17.1,198.5,281110,,,A*40
$GPRMC,195749.9,A,3245.940935,N,11709.220569,W,18.5,201.3,281110,,,A*43
$GPRMC,195752.9,A,3245.923264,N,11709.229859,W,22.7,201.6,281110,,,A*4A
$GPRMC,195755.9,A,3245.906690,N,11709.238712,W,22.8,203.7,281110,,,A*49
