NMEA Sentence Code,UTC Time,Status,Latitude,Latitude Direction,Longitude,Longitude Direction,Speed (knots),Track Angle (degrees true),Date,MagneticVariation,Magnetic Variation Direction,[FAA Mode]-Optional,Checksum
$GPRMC,202256.9,A,3329.335788,N,11708.628597,W,68.0,162.4,050610,,,A*48
$GPRMC,202259.9,A,3329.283800,N,11708.611466,W,66.3,163.7,050610,,,A*4E
$GPRMC,202302.9,A,3329.232286,N,11708.593023,W,64.5,163.1,050610,,,A*41
$GPRMC,202305.9,A,3329.180658,N,11708.573241,W,63.3,162.5,050610,,,A*47
$GPRMC,202308.9,A,3329.132660,N,11708.558556,W,60.7,163.8,050610,,,A*4B
$GPRMC,202311.9,A,3329.085078,N,11708.540254,W,61.4,162.2,050610,,,A*44
$GPRMC,202315.3,A,3329.030622,N,11708.522801,W,61.0,163.6,050610,,,A*42
$GPRMC,202319.2,A,3328.963001,N,11708.499470,W,61.9,162.6,050610,,,A*45
$GPRMC,202322.0,A,3328.918480,N,11708.484222,W,60.7,163.7,050610,,,A*4C
$GPRMC,202325.3,A,3328.865424,N,11708.465406,W,60.5,163.7,050610,,,A*40
$GPRMC,202328.9,A,3328.806041,N,11708.443130,W,61.2,163.4,050610,,,A*44
$GPRMC,202331.9,A,3328.754677,N,11708.425683,W,63.6,163.8,050610,,,A*42
$GPRMC,202334.9,A,3328.702422,N,11708.406617,W,66.3,164.8,050610,,,A*4D
$GPRMC,202337.9,A,3328.646954,N,11708.386813,W,68.1,163.5,050610,,,A*40
$GPRMC,202340.9,A,3328.592851,N,11708.366090,W,69.5,162.9,050610,,,A*4B
$GPRMC,202343.2,A,3328.548706,N,11708.350457,W,71.7,163.4,050610,,,A*44
$GPRMC,202346.9,A,3328.477721,N,11708.323445,W,70.5,162.5,050610,,,A*46
$GPRMC,202349.9,A,3328.421289,N,11708.306309,W,69.2,163.7,050610,,,A*49
$GPRMC,202352.9,A,3328.367809,N,11708.287510,W,67.9,163.3,050610,,,A*43
$GPRMC,202356.3,A,3328.301570,N,11708.265670,W,75.6,163.5,050610,,,A*4D
$GPRMC,202359.3,A,3328.252007,N,11708.246237,W,67.1,163.4,050610,,,A*43
$GPRMC,202402.3,A,3328.201634,N,11708.227832,W,65.6,164.2,050610,,,A*46
$GPRMC,202405.3,A,3328.146184,N,11708.213275,W,66.8,168.1,050610,,,A*41
$GPRMC,202408.3,A,3328.092303,N,11708.205269,W,65.5,172.1,050610,,,A*46
$GPRMC,202411.9,A,3328.025156,N,11708.196835,W,66.3,175.5,050610,,,A*46
$GPRMC,202415.3,A,3327.963055,N,11708.195674,W,66.6,179.7,050610,,,A*4D
$GPRMC,202418.9,A,3327.893348,N,11708.196370,W,65.8,183.0,050610,,,A*46
$GPRMC,202421.9,A,3327.840171,N,11708.200765,W,64.9,183.1,050610,,,A*47
$GPRMC,202424.2,A,3327.798373,N,11708.201777,W,65.7,180.2,050610,,,A*4E
$GPRMC,202427.3,A,3327.744371,N,11708.201969,W,64.7,181.1,050610,,,A*4D
$GPRMC,202430.0,A,3327.694243,N,11708.198190,W,65.3,176.3,050610,,,A*46
$GPRMC,202433.9,A,3327.621733,N,11708.191000,W,65.6,175.6,050610,,,A*42
$GPRMC,202436.9,A,3327.566883,N,11708.183688,W,65.8,175.5,050610,,,A*4B
$GPRMC,202439.9,A,3327.513729,N,11708.177223,W,65.2,174.7,050610,,,A*4E
$GPRMC,202442.9,A,3327.458771,N,11708.170603,W,65.8,174.5,050610,,,A*48
$GPRMC,202445.9,A,3327.403273,N,11708.163801,W,67.2,174.4,050610,,,A*41
$GPRMC,202448.9,A,3327.347584,N,11708.157339,W,66.0,174.3,050610,,,A*47
$GPRMC,202451.9,A,3327.294275,N,11708.151830,W,65.3,174.3,050610,,,A*4D
$GPRMC,202454.9,A,3327.237293,N,11708.142868,W,65.3,173.8,050610,,,A*4A
$GPRMC,202457.9,A,3327.182066,N,11708.134755,W,66.0,174.0,050610,,,A*43
$GPRMC,202500.9,A,3327.128339,N,11708.132576,W,65.7,177.3,050610,,,A*48
$GPRMC,202503.9,A,3327.072424,N,11708.132866,W,66.1,181.0,050610,,,A*4D
$GPRMC,202506.2,A,3327.027162,N,11708.133880,W,68.7,182.3,050610,,,A*45
$GPRMC,202509.2,A,3326.970577,N,11708.141044,W,68.5,186.5,050610,,,A*45
$GPRMC,202512.2,A,3326.912783,N,11708.154472,W,69.6,190.4,050610,,,A*43
$GPRMC,202515.2,A,3326.855461,N,11708.170931,W,70.5,193.3,050610,,,A*4A
$GPRMC,202518.2,A,3326.796270,N,11708.189071,W,72.8,193.4,050610,,,A*42
$GPRMC,202521.2,A,3326.738787,N,11708.203519,W,71.0,192.3,050610,,,A*46
$GPRMC,202524.2,A,3326.679278,N,11708.223647,W,73.5,194.5,050610,,,A*4F
$GPRMC,202527.2,A,3326.619091,N,11708.244581,W,74.5,195.1,050610,,,A*45
$GPRMC,202530.2,A,3326.560428,N,11708.263697,W,74.5,194.9,050610,,,A*40
$GPRMC,202533.2,A,3326.497237,N,11708.286657,W,74.9,195.7,050610,,,A*46
$GPRMC,202536.2,A,3326.433761,N,11708.312902,W,76.6,198.0,050610,,,A*4F
$GPRMC,202539.2,A,3326.373345,N,11708.340275,W,75.7,200.6,050610,,,A*4B
$GPRMC,202542.2,A,3326.315568,N,11708.367658,W,73.3,202.1,050610,,,A*47
$GPRMC,202545.2,A,3326.261153,N,11708.394586,W,72.2,203.0,050610,,,A*42
$GPRMC,202548.2,A,3326.209341,N,11708.426266,W,71.0,206.7,050610,,,A*44
$GPRMC,202551.2,A,3326.156034,N,11708.461573,W,70.8,208.3,050610,,,A*47
$GPRMC,202554.2,A,3326.104575,N,11708.498450,W,70.8,210.8,050610,,,A*41
$GPRMC,202557.2,A,3326.054929,N,11708.537180,W,71.2,212.6,050610,,,A*48
$GPRMC,202600.2,A,3326.005705,N,11708.578940,W,72.0,215.1,050610,,,A*43
$GPRMC,202603.2,A,3325.957889,N,11708.622480,W,72.2,217.4,050610,,,A*4E
$GPRMC,202606.9,A,3325.898698,N,11708.674553,W,71.6,217.2,050610,,,A*41
$GPRMC,202610.2,A,3325.847903,N,11708.725416,W,72.0,221.1,050610,,,A*44
$GPRMC,202613.2,A,3325.805717,N,11708.775591,W,71.0,224.0,050610,,,A*46
$GPRMC,202616.9,A,3325.759358,N,11708.835202,W,68.5,226.2,050610,,,A*4A
$GPRMC,202620.2,A,3325.714401,N,11708.892221,W,70.9,226.6,050610,,,A*4B
$GPRMC,202623.2,A,3325.668532,N,11708.942227,W,73.1,223.4,050610,,,A*45
$GPRMC,202626.2,A,3325.627882,N,11708.987289,W,69.4,221.8,050610,,,A*40
$GPRMC,202629.2,A,3325.584909,N,11709.032162,W,68.6,221.1,050610,,,A*4D
$GPRMC,202632.2,A,3325.540928,N,11709.074803,W,67.4,219.9,050610,,,A*4E
$GPRMC,202635.2,A,3325.490939,N,11709.108937,W,67.9,212.0,050610,,,A*46
$GPRMC,202638.2,A,3325.442375,N,11709.143847,W,68.8,211.0,050610,,,A*42
$GPRMC,202641.2,A,3325.392486,N,11709.176827,W,69.7,210.2,050610,,,A*40
$GPRMC,202644.2,A,3325.341253,N,11709.213277,W,71.2,210.7,050610,,,A*43
$GPRMC,202647.2,A,3325.289115,N,11709.250265,W,72.3,211.0,050610,,,A*44
$GPRMC,202650.2,A,3325.236323,N,11709.286014,W,73.2,210.1,050610,,,A*4E
$GPRMC,202653.2,A,3325.182853,N,11709.323580,W,74.3,210.9,050610,,,A*45
$GPRMC,202656.2,A,3325.128493,N,11709.361337,W,75.1,211.1,050610,,,A*46
$GPRMC,202659.2,A,3325.074396,N,11709.399833,W,75.5,210.8,050610,,,A*47
$GPRMC,202702.2,A,3325.018131,N,11709.445147,W,79.4,211.6,050610,,,A*43
$GPRMC,202705.2,A,3324.964344,N,11709.484293,W,77.8,211.7,050610,,,A*43
$GPRMC,202709.2,A,3324.891076,N,11709.538817,W,77.0,211.9,050610,,,A*40
$GPRMC,202712.2,A,3324.836285,N,11709.578905,W,76.7,211.5,050610,,,A*45
$GPRMC,202715.2,A,3324.781698,N,11709.617626,W,77.1,211.1,050610,,,A*4E
$GPRMC,202718.2,A,3324.726719,N,11709.657362,W,77.4,211.8,050610,,,A*4B
$GPRMC,202721.2,A,3324.671700,N,11709.697831,W,78.0,212.1,050610,,,A*4A
$GPRMC,202725.3,A,3324.601262,N,11709.749374,W,74.6,211.4,050610,,,A*4D
$GPRMC,202728.3,A,3324.550503,N,11709.785638,W,73.3,211.8,050610,,,A*44
$GPRMC,202731.3,A,3324.496897,N,11709.825489,W,72.7,212.2,050610,,,A*46
$GPRMC,202734.3,A,3324.447664,N,11709.864116,W,70.3,213.9,050610,,,A*47
$GPRMC,202737.0,A,3324.404278,N,11709.899655,W,68.3,214.5,050610,,,A*49
$GPRMC,202740.9,A,3324.342692,N,11709.953520,W,68.2,215.7,050610,,,A*41
$GPRMC,202743.9,A,3324.295902,N,11709.990425,W,65.7,212.5,050610,,,A*49
$GPRMC,202747.2,A,3324.244217,N,11710.032931,W,67.8,214.3,050610,,,A*49
$GPRMC,202750.3,A,3324.198916,N,11710.071746,W,68.9,216.1,050610,,,A*41
$GPRMC,202753.3,A,3324.148406,N,11710.112001,W,70.8,213.2,050610,,,A*4D
$GPRMC,202756.3,A,3324.098332,N,11710.149962,W,70.8,211.9,050610,,,A*4F
$GPRMC,202759.9,A,3324.036041,N,11710.196310,W,71.7,212.5,050610,,,A*45
$GPRMC,202803.2,A,3323.977495,N,11710.235174,W,73.1,208.2,050610,,,A*4A
$GPRMC,202806.9,A,3323.909043,N,11710.279718,W,75.5,207.9,050610,,,A*40
$GPRMC,202809.9,A,3323.850367,N,11710.314106,W,78.4,205.6,050610,,,A*45
$GPRMC,202812.9,A,3323.789846,N,11710.346777,W,79.7,204.9,050610,,,A*47
$GPRMC,202816.2,A,3323.722090,N,11710.382305,W,80.1,201.3,050610,,,A*4C
$GPRMC,202819.2,A,3323.659370,N,11710.410479,W,79.9,199.8,050610,,,A*44
$GPRMC,202822.9,A,3323.581686,N,11710.439258,W,78.7,198.1,050610,,,A*44
$GPRMC,202825.9,A,3323.516113,N,11710.457700,W,79.5,193.2,050610,,,A*4D
$GPRMC,202828.9,A,3323.453004,N,11710.472345,W,78.8,189.8,050610,,,A*48
$GPRMC,202831.9,A,3323.387307,N,11710.483852,W,79.4,187.7,050610,,,A*41
$GPRMC,202834.9,A,3323.321466,N,11710.491278,W,79.9,184.1,050610,,,A*41
$GPRMC,202837.2,A,3323.270474,N,11710.495637,W,79.8,183.3,050610,,,A*40
$GPRMC,202840.9,A,3323.187878,N,11710.496096,W,80.1,179.8,050610,,,A*4F
$GPRMC,202843.9,A,3323.118786,N,11710.490669,W,81.8,175.9,050610,,,A*41
$GPRMC,202846.9,A,3323.053292,N,11710.481683,W,80.0,172.9,050610,,,A*40
$GPRMC,202849.9,A,3322.987885,N,11710.470537,W,79.9,171.4,050610,,,A*41
$GPRMC,202852.9,A,3322.923386,N,11710.453688,W,79.6,168.0,050610,,,A*48
$GPRMC,202855.2,A,3322.875376,N,11710.439426,W,77.3,166.4,050610,,,A*42
$GPRMC,202858.2,A,3322.819478,N,11710.416535,W,71.9,159.5,050610,,,A*43
$GPRMC,202901.9,A,3322.751544,N,11710.383721,W,74.2,157.8,050610,,,A*49
$GPRMC,202904.9,A,3322.692026,N,11710.356074,W,76.7,158.0,050610,,,A*4C
$GPRMC,202907.9,A,3322.635271,N,11710.321678,W,78.1,153.2,050610,,,A*49
$GPRMC,202910.9,A,3322.578291,N,11710.282840,W,78.7,151.1,050610,,,A*41
$GPRMC,202913.9,A,3322.520159,N,11710.241818,W,79.7,148.8,050610,,,A*4A
$GPRMC,202916.9,A,3322.463937,N,11710.197688,W,79.3,146.4,050610,,,A*40
$GPRMC,202919.9,A,3322.410021,N,11710.152913,W,79.6,144.8,050610,,,A*4A
$GPRMC,202922.0,A,3322.374709,N,11710.117643,W,79.8,141.1,050610,,,A*4A
$GPRMC,202925.9,A,3322.314029,N,11710.050074,W,77.9,137.4,050610,,,A*4C
$GPRMC,202928.9,A,3322.268126,N,11709.998134,W,76.8,137.0,050610,,,A*41
$GPRMC,202931.9,A,3322.221855,N,11709.947690,W,77.3,138.0,050610,,,A*47
$GPRMC,202934.9,A,3322.173985,N,11709.896141,W,76.5,138.6,050610,,,A*4D
$GPRMC,202937.9,A,3322.120303,N,11709.849701,W,78.8,144.1,050610,,,A*43
$GPRMC,202940.9,A,3322.066676,N,11709.805451,W,78.3,146.3,050610,,,A*42
$GPRMC,202943.9,A,3322.013768,N,11709.765620,W,76.3,148.9,050610,,,A*4A
$GPRMC,202946.9,A,3321.956461,N,11709.725281,W,77.5,151.2,050610,,,A*41
$GPRMC,202949.9,A,3321.898222,N,11709.692555,W,78.2,154.4,050610,,,A*44
$GPRMC,202952.9,A,3321.838048,N,11709.661078,W,78.8,156.3,050610,,,A*43
$GPRMC,202955.9,A,3321.777857,N,11709.634385,W,77.6,160.3,050610,,,A*43
$GPRMC,202958.9,A,3321.716853,N,11709.608997,W,77.2,162.3,050610,,,A*4D
$GPRMC,203001.9,A,3321.654118,N,11709.588495,W,78.8,165.1,050610,,,A*4C
$GPRMC,203004.9,A,3321.589066,N,11709.569709,W,79.6,167.4,050610,,,A*43
$GPRMC,203007.9,A,3321.524793,N,11709.558046,W,77.9,171.1,050610,,,A*47
$GPRMC,203010.9,A,3321.464727,N,11709.550119,W,74.1,173.9,050610,,,A*49
$GPRMC,203013.9,A,3321.404805,N,11709.548240,W,71.4,178.1,050610,,,A*46
$GPRMC,203016.9,A,3321.347215,N,11709.544575,W,68.3,178.7,050610,,,A*4C
$GPRMC,203019.9,A,3321.291494,N,11709.541174,W,66.4,178.7,050610,,,A*4F
$GPRMC,203022.9,A,3321.234501,N,11709.543093,W,67.6,180.9,050610,,,A*45
$GPRMC,203025.9,A,3321.179391,N,11709.544918,W,66.7,180.9,050610,,,A*4A
$GPRMC,203028.9,A,3321.124130,N,11709.546120,W,68.2,180.8,050610,,,A*4D
$GPRMC,203031.9,A,3321.065210,N,11709.546931,W,70.6,180.3,050610,,,A*4E
$GPRMC,203035.3,A,3321.000027,N,11709.548138,W,71.1,181.7,050610,,,A*49
$GPRMC,203038.9,A,3320.924315,N,11709.548497,W,73.4,180.4,050610,,,A*47
$GPRMC,203041.9,A,3320.862473,N,11709.550152,W,74.6,181.0,050610,,,A*48
$GPRMC,203044.9,A,3320.800458,N,11709.551575,W,74.3,181.0,050610,,,A*45
$GPRMC,203047.9,A,3320.737097,N,11709.552208,W,75.4,181.3,050610,,,A*41
$GPRMC,203050.9,A,3320.674468,N,11709.555759,W,75.8,182.1,050610,,,A*4E
$GPRMC,203053.9,A,3320.608976,N,11709.556238,W,77.8,180.8,050610,,,A*4C
$GPRMC,203056.9,A,3320.544450,N,11709.555421,W,77.4,180.4,050610,,,A*46
$GPRMC,203059.9,A,3320.478221,N,11709.554768,W,78.8,180.9,050610,,,A*46
$GPRMC,203102.2,A,3320.429706,N,11709.557374,W,76.2,180.7,050610,,,A*46
$GPRMC,203105.2,A,3320.366878,N,11709.558428,W,76.4,180.6,050610,,,A*4D
$GPRMC,203108.2,A,3320.303306,N,11709.559999,W,76.7,180.6,050610,,,A*44
$GPRMC,203111.9,A,3320.223938,N,11709.561101,W,77.1,180.6,050610,,,A*46
$GPRMC,203114.9,A,3320.158349,N,11709.560904,W,77.5,180.4,050610,,,A*4A
$GPRMC,203117.0,A,3320.114676,N,11709.562923,W,76.8,182.1,050610,,,A*4D
$GPRMC,203120.9,A,3320.034696,N,11709.564117,W,75.2,180.4,050610,,,A*4A
$GPRMC,203123.9,A,3319.968982,N,11709.562989,W,77.3,180.4,050610,,,A*43
$GPRMC,203126.9,A,3319.905782,N,11709.565704,W,75.0,181.6,050610,,,A*4D
$GPRMC,203129.3,A,3319.857257,N,11709.565609,W,74.9,180.9,050610,,,A*49
$GPRMC,203132.9,A,3319.782742,N,11709.566475,W,72.2,179.4,050610,,,A*43
$GPRMC,203135.9,A,3319.720951,N,11709.565409,W,73.4,177.4,050610,,,A*41
$GPRMC,203138.9,A,3319.662122,N,11709.558010,W,72.2,174.2,050610,,,A*47
$GPRMC,203141.9,A,3319.600952,N,11709.547723,W,73.1,171.6,050610,,,A*48
$GPRMC,203144.9,A,3319.540629,N,11709.535644,W,73.5,169.6,050610,,,A*41
$GPRMC,203147.9,A,3319.481505,N,11709.519398,W,72.8,166.8,050610,,,A*44
$GPRMC,203150.9,A,3319.423854,N,11709.501663,W,71.3,164.2,050610,,,A*4B
$GPRMC,203153.9,A,3319.368133,N,11709.478453,W,67.9,160.5,050610,,,A*48
$GPRMC,203156.3,A,3319.327366,N,11709.458470,W,65.7,157.8,050610,,,A*48
$GPRMC,203159.3,A,3319.278494,N,11709.433553,W,61.9,155.6,050610,,,A*4D
$GPRMC,203202.3,A,3319.232576,N,11709.407531,W,60.9,153.2,050610,,,A*43
$GPRMC,203206.3,A,3319.175837,N,11709.370390,W,58.4,150.6,050610,,,A*44
$GPRMC,203209.3,A,3319.131143,N,11709.343286,W,59.4,153.2,050610,,,A*41
$GPRMC,203212.2,A,3319.087736,N,11709.316754,W,59.4,154.1,050610,,,A*4C
$GPRMC,203215.2,A,3319.043708,N,11709.289688,W,60.2,151.8,050610,,,A*49
$GPRMC,203218.2,A,3318.998800,N,11709.261552,W,60.8,151.9,050610,,,A*44
$GPRMC,203221.9,A,3318.942915,N,11709.226547,W,61.2,152.5,050610,,,A*44
$GPRMC,203224.9,A,3318.899745,N,11709.198315,W,59.9,152.0,050610,,,A*4F
$GPRMC,203227.9,A,3318.854781,N,11709.173126,W,60.0,155.7,050610,,,A*41
$GPRMC,203230.9,A,3318.805112,N,11709.149159,W,61.4,157.7,050610,,,A*49
$GPRMC,203233.9,A,3318.756862,N,11709.127036,W,61.5,159.2,050610,,,A*47
$GPRMC,203236.9,A,3318.706468,N,11709.107136,W,61.7,161.7,050610,,,A*4E
$GPRMC,203239.9,A,3318.655498,N,11709.089456,W,61.7,164.6,050610,,,A*49
$GPRMC,203242.9,A,3318.602489,N,11709.073507,W,62.7,166.8,050610,,,A*48
$GPRMC,203245.9,A,3318.551032,N,11709.060749,W,62.1,168.2,050610,,,A*46
$GPRMC,203248.9,A,3318.498669,N,11709.047761,W,64.0,168.8,050610,,,A*45
$GPRMC,203251.9,A,3318.445716,N,11709.038642,W,63.7,172.9,050610,,,A*46
$GPRMC,203254.9,A,3318.393426,N,11709.032743,W,63.7,175.5,050610,,,A*4E
$GPRMC,203257.9,A,3318.340335,N,11709.029934,W,63.7,177.0,050610,,,A*45
$GPRMC,203300.9,A,3318.286926,N,11709.024483,W,64.1,176.4,050610,,,A*4D
$GPRMC,203303.9,A,3318.231368,N,11709.021672,W,65.4,177.0,050610,,,A*4A
$GPRMC,203306.9,A,3318.175541,N,11709.016475,W,66.2,177.0,050610,,,A*45
$GPRMC,203309.9,A,3318.119044,N,11709.012963,W,66.6,176.8,050610,,,A*43
$GPRMC,203312.9,A,3318.062945,N,11709.011429,W,67.0,177.5,050610,,,A*47
$GPRMC,203315.9,A,3318.006348,N,11709.007533,W,67.7,176.7,050610,,,A*4C
$GPRMC,203318.9,A,3317.948640,N,11709.002947,W,68.3,176.4,050610,,,A*42
$GPRMC,203321.9,A,3317.891027,N,11708.999670,W,68.6,176.8,050610,,,A*42
$GPRMC,203324.9,A,3317.832056,N,11708.997157,W,71.4,177.9,050610,,,A*4E
$GPRMC,203327.9,A,3317.773245,N,11708.994144,W,70.3,177.1,050610,,,A*48
$GPRMC,203330.9,A,3317.710989,N,11708.989920,W,72.5,176.7,050610,,,A*45
$GPRMC,203333.9,A,3317.652832,N,11708.989414,W,71.1,178.2,050610,,,A*46
$GPRMC,203336.9,A,3317.591593,N,11708.985581,W,73.1,176.7,050610,,,A*41
$GPRMC,203339.9,A,3317.531954,N,11708.983478,W,73.2,177.9,050610,,,A*4E
$GPRMC,203342.9,A,3317.469811,N,11708.978570,W,73.6,176.8,050610,,,A*47
$GPRMC,203345.9,A,3317.408806,N,11708.975424,W,73.1,176.7,050610,,,A*44
$GPRMC,203348.9,A,3317.347246,N,11708.974082,W,73.1,178.4,050610,,,A*4F
$GPRMC,203351.9,A,3317.286625,N,11708.974763,W,72.7,180.8,050610,,,A*4E
$GPRMC,203354.9,A,3317.224193,N,11708.978710,W,74.2,184.0,050610,,,A*4E
$GPRMC,203357.9,A,3317.163187,N,11708.986432,W,74.1,186.9,050610,,,A*42
$GPRMC,203400.9,A,3317.103192,N,11708.998247,W,73.9,189.7,050610,,,A*40
$GPRMC,203403.9,A,3317.042403,N,11709.014130,W,72.5,192.8,050610,,,A*4D
$GPRMC,203406.9,A,3316.984261,N,11709.034932,W,71.9,196.9,050610,,,A*4A
$GPRMC,203409.9,A,3316.926998,N,11709.060526,W,73.7,200.1,050610,,,A*40
$GPRMC,203412.9,A,3316.870721,N,11709.087853,W,73.5,203.0,050610,,,A*42
$GPRMC,203415.9,A,3316.815006,N,11709.119340,W,73.5,205.1,050610,,,A*4C
$GPRMC,203418.9,A,3316.761974,N,11709.148632,W,71.5,205.3,050610,,,A*45
$GPRMC,203421.9,A,3316.706701,N,11709.179735,W,71.3,205.4,050610,,,A*47
$GPRMC,203424.9,A,3316.653691,N,11709.212764,W,71.7,205.7,050610,,,A*46
$GPRMC,203427.9,A,3316.599915,N,11709.244421,W,72.1,205.7,050610,,,A*47
$GPRMC,203430.9,A,3316.547840,N,11709.276259,W,72.4,205.6,050610,,,A*4F
$GPRMC,203433.3,A,3316.503764,N,11709.298766,W,72.9,205.0,050610,,,A*4D
$GPRMC,203436.3,A,3316.449766,N,11709.328981,W,70.4,205.9,050610,,,A*4E
$GPRMC,203439.3,A,3316.396478,N,11709.360161,W,70.8,205.6,050610,,,A*41
$GPRMC,203442.3,A,3316.344930,N,11709.387701,W,65.8,204.1,050610,,,A*48
$GPRMC,203445.3,A,3316.296110,N,11709.411685,W,65.2,200.8,050610,,,A*49
$GPRMC,203448.9,A,3316.235538,N,11709.439516,W,63.8,200.0,050610,,,A*4E
$GPRMC,203451.9,A,3316.185111,N,11709.458780,W,64.2,197.3,050610,,,A*48
$GPRMC,203454.9,A,3316.133822,N,11709.477549,W,64.2,194.7,050610,,,A*44
$GPRMC,203457.9,A,3316.079652,N,11709.491217,W,67.4,192.4,050610,,,A*45
$GPRMC,203500.9,A,3316.022459,N,11709.504729,W,69.8,190.0,050610,,,A*40
$GPRMC,203503.9,A,3315.964191,N,11709.516313,W,70.1,189.2,050610,,,A*4F
$GPRMC,203506.9,A,3315.906284,N,11709.527005,W,69.6,189.7,050610,,,A*45
$GPRMC,203509.9,A,3315.848198,N,11709.529307,W,69.3,183.3,050610,,,A*4B
$GPRMC,203512.9,A,3315.790515,N,11709.531633,W,69.1,181.3,050610,,,A*41
$GPRMC,203515.9,A,3315.732612,N,11709.530869,W,68.1,179.2,050610,,,A*4D
$GPRMC,203518.9,A,3315.676697,N,11709.525196,W,67.0,175.8,050610,,,A*49
$GPRMC,203521.9,A,3315.619893,N,11709.518186,W,68.0,173.6,050610,,,A*48
$GPRMC,203524.9,A,3315.563235,N,11709.505623,W,68.3,169.9,050610,,,A*46
$GPRMC,203527.9,A,3315.505836,N,11709.491740,W,70.3,168.0,050610,,,A*45
$GPRMC,203530.2,A,3315.461887,N,11709.479534,W,71.6,165.9,050610,,,A*46
$GPRMC,203533.2,A,3315.404568,N,11709.462102,W,71.5,164.7,050610,,,A*4D
$GPRMC,203536.2,A,3315.346467,N,11709.439664,W,73.4,160.9,050610,,,A*47
$GPRMC,203540.3,A,3315.268775,N,11709.406441,W,73.6,160.5,050610,,,A*4D
$GPRMC,203543.9,A,3315.199691,N,11709.376548,W,70.4,160.5,050610,,,A*4B
$GPRMC,203546.9,A,3315.143452,N,11709.355104,W,70.3,160.7,050610,,,A*4C
$GPRMC,203549.9,A,3315.088265,N,11709.328692,W,70.5,158.7,050610,,,A*48
$GPRMC,203552.9,A,3315.032757,N,11709.304686,W,71.1,159.8,050610,,,A*47
$GPRMC,203555.9,A,3314.974051,N,11709.279028,W,73.2,160.2,050610,,,A*43
$GPRMC,203558.9,A,3314.916336,N,11709.254114,W,74.4,160.7,050610,,,A*4D
$GPRMC,203601.9,A,3314.855328,N,11709.228407,W,75.6,160.3,050610,,,A*40
$GPRMC,203604.9,A,3314.794701,N,11709.203165,W,76.7,160.6,050610,,,A*47
$GPRMC,203607.9,A,3314.735633,N,11709.176591,W,77.1,159.9,050610,,,A*43
$GPRMC,203610.9,A,3314.672226,N,11709.150334,W,78.5,160.0,050610,,,A*42
$GPRMC,203613.9,A,3314.613696,N,11709.124333,W,76.8,159.7,050610,,,A*43
$GPRMC,203616.9,A,3314.549867,N,11709.096098,W,79.5,159.8,050610,,,A*4D
$GPRMC,203619.9,A,3314.487519,N,11709.068658,W,78.7,160.1,050610,,,A*4E
$GPRMC,203622.9,A,3314.424373,N,11709.046061,W,79.0,161.3,050610,,,A*40
$GPRMC,203625.9,A,3314.364331,N,11709.016071,W,77.3,158.9,050610,,,A*4B
$GPRMC,203628.9,A,3314.306252,N,11708.992351,W,73.9,160.7,050610,,,A*48
$GPRMC,203631.9,A,3314.246228,N,11708.968356,W,73.9,161.3,050610,,,A*4F
$GPRMC,203634.9,A,3314.189729,N,11708.943241,W,71.4,160.1,050610,,,A*4C
$GPRMC,203637.9,A,3314.133414,N,11708.918990,W,70.6,160.0,050610,,,A*48
$GPRMC,203640.9,A,3314.078189,N,11708.896145,W,68.5,160.4,050610,,,A*4E
$GPRMC,203643.9,A,3314.029223,N,11708.874623,W,62.0,160.4,050610,,,A*4E
$GPRMC,203646.9,A,3313.982849,N,11708.855463,W,57.4,160.3,050610,,,A*42
$GPRMC,203649.9,A,3313.940130,N,11708.836171,W,55.8,160.1,050610,,,A*4B
$GPRMC,203652.9,A,3313.893222,N,11708.817461,W,58.5,161.2,050610,,,A*4B
$GPRMC,203655.9,A,3313.846113,N,11708.795455,W,62.1,159.9,050610,,,A*4A
$GPRMC,203658.9,A,3313.795952,N,11708.774581,W,63.4,159.7,050610,,,A*46
$GPRMC,203701.9,A,3313.743909,N,11708.752857,W,65.1,160.5,050610,,,A*47
$GPRMC,203704.9,A,3313.692570,N,11708.730933,W,64.9,159.7,050610,,,A*4B
$GPRMC,203707.9,A,3313.640727,N,11708.706888,W,66.0,159.5,050610,,,A*4A
$GPRMC,203710.9,A,3313.589479,N,11708.684349,W,64.9,160.1,050610,,,A*4A
$GPRMC,203713.3,A,3313.550123,N,11708.668826,W,65.1,161.7,050610,,,A*43
$GPRMC,203716.3,A,3313.502681,N,11708.647317,W,61.6,159.8,050610,,,A*4D
$GPRMC,203720.3,A,3313.438514,N,11708.618267,W,62.7,159.2,050610,,,A*4B
$GPRMC,203723.9,A,3313.378813,N,11708.590356,W,61.0,158.0,050610,,,A*4C
$GPRMC,203726.9,A,3313.331792,N,11708.566238,W,61.1,156.3,050610,,,A*4E
$GPRMC,203729.9,A,3313.286622,N,11708.540984,W,60.2,155.0,050610,,,A*4C
$GPRMC,203732.9,A,3313.241785,N,11708.518041,W,59.4,155.6,050610,,,A*46
$GPRMC,203735.9,A,3313.195008,N,11708.490528,W,60.5,153.9,050610,,,A*40
$GPRMC,203738.9,A,3313.150421,N,11708.463795,W,60.2,152.4,050610,,,A*48
$GPRMC,203741.9,A,3313.104570,N,11708.433814,W,60.8,152.0,050610,,,A*4F
$GPRMC,203744.9,A,3313.058940,N,11708.404571,W,60.8,150.4,050610,,,A*41
$GPRMC,203747.9,A,3313.015747,N,11708.371241,W,63.2,147.6,050610,,,A*4E
$GPRMC,203750.9,A,3312.968619,N,11708.338116,W,64.8,147.9,050610,,,A*4E
$GPRMC,203753.9,A,3312.927130,N,11708.306202,W,61.2,147.8,050610,,,A*4F
$GPRMC,203756.9,A,3312.876187,N,11708.270572,W,63.0,147.9,050610,,,A*42
$GPRMC,203759.9,A,3312.835740,N,11708.239533,W,58.7,147.7,050610,,,A*4E
$GPRMC,203802.9,A,3312.795859,N,11708.207505,W,57.6,146.3,050610,,,A*4E
$GPRMC,203805.9,A,3312.757565,N,11708.180330,W,54.1,146.9,050610,,,A*47
$GPRMC,203809.3,A,3312.700901,N,11708.140618,W,61.5,147.6,050610,,,A*42
$GPRMC,203812.3,A,3312.658339,N,11708.107961,W,60.1,147.9,050610,,,A*4D
$GPRMC,203815.9,A,3312.604406,N,11708.070189,W,59.7,148.4,050610,,,A*43
$GPRMC,203818.9,A,3312.562957,N,11708.039765,W,58.0,148.3,050610,,,A*4C
$GPRMC,203821.9,A,3312.522040,N,11708.008400,W,58.6,147.0,050610,,,A*45
$GPRMC,203824.9,A,3312.482850,N,11707.976386,W,57.0,146.4,050610,,,A*48
$GPRMC,203827.9,A,3312.442142,N,11707.946408,W,57.1,147.6,050610,,,A*4D
$GPRMC,203831.2,A,3312.395485,N,11707.913550,W,57.9,148.9,050610,,,A*46
$GPRMC,203834.2,A,3312.353233,N,11707.882518,W,58.8,148.0,050610,,,A*40
$GPRMC,203837.9,A,3312.296765,N,11707.842592,W,63.6,149.7,050610,,,A*48
$GPRMC,203840.9,A,3312.250866,N,11707.810781,W,62.9,149.4,050610,,,A*44
$GPRMC,203843.9,A,3312.205595,N,11707.781532,W,62.1,149.9,050610,,,A*4E
$GPRMC,203846.2,A,3312.171450,N,11707.757386,W,60.8,149.7,050610,,,A*4F
$GPRMC,203849.2,A,3312.126100,N,11707.727564,W,62.9,152.0,050610,,,A*41
$GPRMC,203852.9,A,3312.068183,N,11707.689858,W,64.1,151.7,050610,,,A*4D
$GPRMC,203855.9,A,3312.021793,N,11707.659469,W,62.9,152.4,050610,,,A*4D
$GPRMC,203858.9,A,3311.976514,N,11707.631799,W,61.1,152.7,050610,,,A*4F
$GPRMC,203901.9,A,3311.931264,N,11707.604577,W,59.4,153.3,050610,,,A*4E
$GPRMC,203904.9,A,3311.882357,N,11707.577860,W,62.8,154.2,050610,,,A*4D
$GPRMC,203907.9,A,3311.835147,N,11707.551951,W,62.3,154.2,050610,,,A*4D
$GPRMC,203910.3,A,3311.795860,N,11707.528743,W,64.9,153.9,050610,,,A*4B
$GPRMC,203913.3,A,3311.746229,N,11707.499852,W,66.5,154.3,050610,,,A*46
$GPRMC,203916.3,A,3311.695329,N,11707.470648,W,67.7,154.0,050610,,,A*4F
$GPRMC,203919.3,A,3311.643708,N,11707.440911,W,67.9,154.0,050610,,,A*42
$GPRMC,203922.9,A,3311.578325,N,11707.404775,W,69.1,154.8,050610,,,A*42
$GPRMC,203925.9,A,3311.528412,N,11707.374425,W,68.3,154.1,050610,,,A*4F
$GPRMC,203928.3,A,3311.487752,N,11707.352430,W,70.5,154.3,050610,,,A*46
$GPRMC,203931.9,A,3311.422819,N,11707.316570,W,68.9,155.3,050610,,,A*4A
$GPRMC,203934.3,A,3311.383598,N,11707.293296,W,67.2,154.0,050610,,,A*48
$GPRMC,203937.9,A,3311.319966,N,11707.259226,W,68.1,155.7,050610,,,A*48
$GPRMC,203940.9,A,3311.270501,N,11707.226405,W,66.5,152.9,050610,,,A*47
$GPRMC,203943.2,A,3311.231675,N,11707.203648,W,66.9,153.2,050610,,,A*40
$GPRMC,203946.9,A,3311.172223,N,11707.167957,W,65.1,154.0,050610,,,A*43
$GPRMC,203949.9,A,3311.120404,N,11707.143083,W,68.5,155.6,050610,,,A*40
$GPRMC,203952.9,A,3311.065319,N,11707.110220,W,71.7,153.7,050610,,,A*41
$GPRMC,203955.9,A,3311.013123,N,11707.079376,W,70.9,153.7,050610,,,A*4F
$GPRMC,203958.9,A,3310.957836,N,11707.049094,W,72.0,154.6,050610,,,A*46
$GPRMC,204001.9,A,3310.906861,N,11707.020278,W,70.0,154.4,050610,,,A*4D
$GPRMC,204004.9,A,3310.855362,N,11706.987382,W,70.8,152.9,050610,,,A*45
$GPRMC,204007.9,A,3310.800299,N,11706.956996,W,71.6,154.6,050610,,,A*46
$GPRMC,204010.9,A,3310.745907,N,11706.926003,W,72.3,154.8,050610,,,A*48
$GPRMC,204013.2,A,3310.702773,N,11706.902143,W,71.8,155.3,050610,,,A*4F
$GPRMC,204016.9,A,3310.633148,N,11706.861978,W,74.5,155.1,050610,,,A*42
$GPRMC,204019.2,A,3310.589133,N,11706.834396,W,76.6,153.6,050610,,,A*42
$GPRMC,204022.9,A,3310.518436,N,11706.801136,W,75.2,155.8,050610,,,A*48
$GPRMC,204025.3,A,3310.475035,N,11706.773490,W,75.2,153.4,050610,,,A*41
$GPRMC,204028.9,A,3310.407399,N,11706.730510,W,72.9,153.5,050610,,,A*45
$GPRMC,204031.9,A,3310.352007,N,11706.699687,W,72.7,153.9,050610,,,A*43
$GPRMC,204034.9,A,3310.298366,N,11706.670816,W,72.3,156.0,050610,,,A*4C
$GPRMC,204037.9,A,3310.244383,N,11706.641398,W,71.5,155.9,050610,,,A*45
$GPRMC,204040.9,A,3310.192904,N,11706.610659,W,72.4,155.1,050610,,,A*4E
$GPRMC,204043.9,A,3310.137144,N,11706.578794,W,74.4,155.0,050610,,,A*44
$GPRMC,204046.9,A,3310.081473,N,11706.546267,W,75.7,153.8,050610,,,A*44
$GPRMC,204049.9,A,3310.024353,N,11706.513388,W,77.3,154.8,050610,,,A*40
$GPRMC,204052.9,A,3309.965665,N,11706.481179,W,79.1,154.7,050610,,,A*4B
$GPRMC,204055.2,A,3309.920699,N,11706.454402,W,77.8,154.3,050610,,,A*47
$GPRMC,204058.2,A,3309.856875,N,11706.419621,W,83.4,155.2,050610,,,A*4B
$GPRMC,204101.2,A,3309.798664,N,11706.386608,W,77.8,154.8,050610,,,A*43
$GPRMC,204104.2,A,3309.739550,N,11706.356476,W,76.3,158.9,050610,,,A*48
$GPRMC,204107.2,A,3309.679814,N,11706.330597,W,76.2,160.9,050610,,,A*47
$GPRMC,204110.2,A,3309.618862,N,11706.308988,W,75.9,163.6,050610,,,A*4A
$GPRMC,204113.9,A,3309.539518,N,11706.285755,W,77.9,166.6,050610,,,A*4F
$GPRMC,204116.2,A,3309.491385,N,11706.276142,W,76.6,169.3,050610,,,A*48
$GPRMC,204119.9,A,3309.412121,N,11706.262395,W,78.5,172.6,050610,,,A*44
$GPRMC,204122.9,A,3309.345667,N,11706.259157,W,79.4,177.0,050610,,,A*4B
$GPRMC,204125.9,A,3309.278748,N,11706.259324,W,79.8,179.8,050610,,,A*43
$GPRMC,204128.9,A,3309.212471,N,11706.259607,W,78.5,181.4,050610,,,A*48
$GPRMC,204131.9,A,3309.149940,N,11706.264064,W,76.2,183.4,050610,,,A*44
$GPRMC,204134.9,A,3309.085331,N,11706.270099,W,77.1,183.0,050610,,,A*4D
$GPRMC,204137.9,A,3309.012347,N,11706.271613,W,81.2,181.5,050610,,,A*49
$GPRMC,204140.9,A,3308.947870,N,11706.271714,W,78.8,181.4,050610,,,A*45
$GPRMC,204143.9,A,3308.885235,N,11706.275410,W,77.2,182.5,050610,,,A*46
$GPRMC,204146.9,A,3308.820890,N,11706.279815,W,77.2,182.9,050610,,,A*40
$GPRMC,204149.9,A,3308.757211,N,11706.281621,W,75.7,182.4,050610,,,A*47
$GPRMC,204152.9,A,3308.694023,N,11706.285418,W,75.6,183.3,050610,,,A*4B
$GPRMC,204155.9,A,3308.628861,N,11706.286240,W,77.4,182.1,050610,,,A*4E
$GPRMC,204158.9,A,3308.564651,N,11706.291222,W,76.8,182.7,050610,,,A*4C
$GPRMC,204201.9,A,3308.503424,N,11706.294393,W,74.6,182.7,050610,,,A*40
$GPRMC,204204.9,A,3308.443424,N,11706.295424,W,73.7,180.4,050610,,,A*4D
$GPRMC,204207.9,A,3308.380800,N,11706.300286,W,73.4,182.5,050610,,,A*4F
$GPRMC,204210.2,A,3308.333755,N,11706.302923,W,73.9,182.6,050610,,,A*4D
$GPRMC,204213.9,A,3308.257738,N,11706.306428,W,73.2,182.6,050610,,,A*44
$GPRMC,204216.9,A,3308.197188,N,11706.309782,W,72.6,182.6,050610,,,A*4A
$GPRMC,204219.9,A,3308.137450,N,11706.312507,W,73.0,182.3,050610,,,A*48
$GPRMC,204222.9,A,3308.074055,N,11706.313630,W,75.5,181.1,050610,,,A*43
$GPRMC,204225.9,A,3308.012495,N,11706.316419,W,73.6,182.3,050610,,,A*44
$GPRMC,204228.9,A,3307.950578,N,11706.319503,W,74.1,182.5,050610,,,A*48
$GPRMC,204231.9,A,3307.887964,N,11706.322596,W,74.9,182.2,050610,,,A*41
$GPRMC,204234.9,A,3307.824250,N,11706.323366,W,76.0,179.8,050610,,,A*4C
$GPRMC,204237.9,A,3307.759773,N,11706.320565,W,77.3,177.2,050610,,,A*4E
$GPRMC,204240.9,A,3307.695331,N,11706.311028,W,78.4,173.0,050610,,,A*4D
$GPRMC,204243.2,A,3307.644752,N,11706.302457,W,78.9,172.2,050610,,,A*48
$GPRMC,204246.0,A,3307.586103,N,11706.290162,W,77.6,171.8,050610,,,A*40
$GPRMC,204249.2,A,3307.517451,N,11706.270933,W,78.8,166.4,050610,,,A*4E
$GPRMC,204252.2,A,3307.461137,N,11706.249372,W,71.0,162.0,050610,,,A*45
$GPRMC,204255.2,A,3307.410054,N,11706.227062,W,62.8,159.2,050610,,,A*4A
$GPRMC,204258.2,A,3307.364112,N,11706.204524,W,56.3,156.3,050610,,,A*44
$GPRMC,204301.2,A,3307.321594,N,11706.181456,W,55.9,155.0,050610,,,A*41
$GPRMC,204304.2,A,3307.281738,N,11706.158229,W,54.0,154.1,050610,,,A*49
$GPRMC,204307.2,A,3307.242070,N,11706.135576,W,55.6,153.5,050610,,,A*4C
$GPRMC,204310.2,A,3307.201550,N,11706.111179,W,53.0,154.0,050610,,,A*45
$GPRMC,204313.2,A,3307.162390,N,11706.088459,W,51.2,154.0,050610,,,A*4C
$GPRMC,204316.2,A,3307.124816,N,11706.066447,W,51.5,153.8,050610,,,A*49
$GPRMC,204319.2,A,3307.085377,N,11706.043355,W,53.6,153.9,050610,,,A*43
$GPRMC,204322.9,A,3307.035327,N,11706.014107,W,54.6,152.9,050610,,,A*4F
$GPRMC,204325.9,A,3306.994229,N,11705.988574,W,54.9,153.4,050610,,,A*48
$GPRMC,204329.2,A,3306.950575,N,11705.965705,W,52.4,156.2,050610,,,A*46
$GPRMC,204332.2,A,3306.915498,N,11705.947393,W,48.1,155.9,050610,,,A*42
$GPRMC,204335.2,A,3306.884582,N,11705.930975,W,35.0,155.6,050610,,,A*40
$GPRMC,204338.2,A,3306.859366,N,11705.917479,W,33.6,154.9,050610,,,A*4B
$GPRMC,204342.2,A,3306.838174,N,11705.907927,W,18.9,161.3,050610,,,A*4D
$GPRMC,204345.2,A,3306.825493,N,11705.902600,W,16.7,156.2,050610,,,A*40
$GPRMC,204349.2,A,3306.822301,N,11705.898701,W,8.0,155.0,050610,,,A*7C
$GPRMC,204352.0,A,3306.818129,N,11705.896077,W,13.4,154.2,050610,,,A*40
$GPRMC,204355.0,A,3306.806072,N,11705.889839,W,15.9,156.4,050610,,,A*44
$GPRMC,204358.0,A,3306.791119,N,11705.882458,W,19.2,160.0,050610,,,A*42
$GPRMC,204401.0,A,3306.773093,N,11705.874141,W,27.2,156.0,050610,,,A*4A
$GPRMC,204405.2,A,3306.731130,N,11705.847131,W,37.9,152.9,050610,,,A*42
$GPRMC,204408.9,A,3306.696906,N,11705.826901,W,39.6,152.9,050610,,,A*48
$GPRMC,204411.2,A,3306.663836,N,11705.804069,W,48.6,150.4,050610,,,A*4D
$GPRMC,204414.2,A,3306.622678,N,11705.776998,W,55.8,149.8,050610,,,A*42
$GPRMC,204417.2,A,3306.581468,N,11705.749120,W,60.1,150.2,050610,,,A*42
$GPRMC,204420.2,A,3306.535665,N,11705.719861,W,62.9,153.6,050610,,,A*42
$GPRMC,204423.9,A,3306.474393,N,11705.684235,W,65.7,153.8,050610,,,A*4B
$GPRMC,204426.9,A,3306.429285,N,11705.659973,W,61.3,154.5,050610,,,A*43
$GPRMC,204429.9,A,3306.384563,N,11705.632528,W,60.2,153.9,050610,,,A*47
$GPRMC,204432.0,A,3306.348770,N,11705.611870,W,62.9,153.9,050610,,,A*4C
$GPRMC,204435.2,A,3306.299220,N,11705.581918,W,60.6,153.5,050610,,,A*40
$GPRMC,204438.9,A,3306.242812,N,11705.550636,W,62.5,154.2,050610,,,A*45
$GPRMC,204441.9,A,3306.195015,N,11705.522705,W,63.1,153.9,050610,,,A*40
$GPRMC,204444.9,A,3306.147203,N,11705.495634,W,63.2,154.0,050610,,,A*4C
$GPRMC,204447.0,A,3306.115337,N,11705.477039,W,62.1,153.5,050610,,,A*40
$GPRMC,204450.2,A,3306.064969,N,11705.443676,W,63.5,151.9,050610,,,A*43
$GPRMC,204453.2,A,3306.018740,N,11705.415340,W,62.5,150.6,050610,,,A*42
$GPRMC,204456.2,A,3305.973525,N,11705.383966,W,62.3,148.5,050610,,,A*4B
$GPRMC,204459.2,A,3305.929745,N,11705.350173,W,63.4,146.9,050610,,,A*49
$GPRMC,204502.9,A,3305.875554,N,11705.306592,W,63.3,145.3,050610,,,A*41
$GPRMC,204505.2,A,3305.842862,N,11705.278076,W,63.2,143.1,050610,,,A*43
$GPRMC,204509.2,A,3305.786521,N,11705.226420,W,64.4,141.8,050610,,,A*44
$GPRMC,204512.2,A,3305.747520,N,11705.188201,W,63.6,140.3,050610,,,A*4F
$GPRMC,204515.2,A,3305.708040,N,11705.142284,W,65.8,137.2,050610,,,A*42
$GPRMC,204518.9,A,3305.659835,N,11705.088384,W,64.9,137.7,050610,,,A*48
$GPRMC,204521.2,A,3305.629694,N,11705.057998,W,61.5,138.7,050610,,,A*48
$GPRMC,204524.9,A,3305.580157,N,11705.006727,W,62.7,138.3,050610,,,A*45
$GPRMC,204527.0,A,3305.554623,N,11704.977372,W,61.9,137.1,050610,,,A*48
$GPRMC,204530.9,A,3305.503352,N,11704.923337,W,63.6,138.6,050610,,,A*43
$GPRMC,204533.9,A,3305.465529,N,11704.883228,W,60.7,138.2,050610,,,A*49
$GPRMC,204536.2,A,3305.436779,N,11704.851415,W,60.9,137.7,050610,,,A*45
$GPRMC,204539.2,A,3305.400186,N,11704.813141,W,56.1,138.3,050610,,,A*4D
$GPRMC,204542.2,A,3305.365179,N,11704.775693,W,56.3,137.9,050610,,,A*45
$GPRMC,204545.2,A,3305.329341,N,11704.737247,W,59.5,137.8,050610,,,A*40
$GPRMC,204548.2,A,3305.292068,N,11704.697513,W,61.3,138.2,050610,,,A*41
$GPRMC,204551.9,A,3305.246049,N,11704.645616,W,61.5,136.3,050610,,,A*48
$GPRMC,204555.2,A,3305.200002,N,11704.600168,W,64.8,140.0,050610,,,A*4F
$GPRMC,204558.9,A,3305.147915,N,11704.553678,W,63.8,144.0,050610,,,A*46
$GPRMC,204601.2,A,3305.115723,N,11704.527519,W,60.7,145.1,050610,,,A*45
$GPRMC,204604.0,A,3305.079138,N,11704.494156,W,60.1,143.4,050610,,,A*46
$GPRMC,204607.2,A,3305.027590,N,11704.457648,W,64.1,148.8,050610,,,A*4E
$GPRMC,204610.2,A,3304.981076,N,11704.424960,W,64.7,150.4,050610,,,A*43
$GPRMC,204613.2,A,3304.932468,N,11704.393892,W,67.8,152.1,050610,,,A*4F
$GPRMC,204616.2,A,3304.879968,N,11704.363847,W,69.5,154.2,050610,,,A*48
$GPRMC,204619.2,A,3304.832643,N,11704.339299,W,64.5,156.5,050610,,,A*40
$GPRMC,204622.9,A,3304.769281,N,11704.312084,W,63.5,161.2,050610,,,A*4B
$GPRMC,204625.2,A,3304.735181,N,11704.298131,W,60.7,161.7,050610,,,A*45
$GPRMC,204628.2,A,3304.684779,N,11704.279189,W,63.5,163.8,050610,,,A*42
$GPRMC,204631.3,A,3304.631806,N,11704.262439,W,65.4,164.9,050610,,,A*47
$GPRMC,204634.3,A,3304.579499,N,11704.249873,W,65.5,169.1,050610,,,A*48
$GPRMC,204637.9,A,3304.512219,N,11704.237044,W,68.4,172.1,050610,,,A*41
$GPRMC,204640.2,A,3304.468752,N,11704.230870,W,68.7,173.8,050610,,,A*4F
$GPRMC,204644.2,A,3304.391769,N,11704.220272,W,70.0,172.8,050610,,,A*44
$GPRMC,204647.0,A,3304.342442,N,11704.214910,W,63.1,173.4,050610,,,A*47
$GPRMC,204650.2,A,3304.293715,N,11704.207100,W,52.4,174.1,050610,,,A*41
$GPRMC,204653.2,A,3304.255585,N,11704.204328,W,45.5,176.3,050610,,,A*4F
$GPRMC,204656.2,A,3304.217481,N,11704.201719,W,46.1,175.6,050610,,,A*4B
$GPRMC,204659.2,A,3304.179063,N,11704.197472,W,42.4,176.0,050610,,,A*41
$GPRMC,204702.2,A,3304.146090,N,11704.196621,W,39.1,180.2,050610,,,A*49
$GPRMC,204705.2,A,3304.139151,N,11704.195449,W,12.3,182.7,050610,,,A*49
$GPRMC,204708.2,A,3304.131988,N,11704.195395,W,10.1,178.3,050610,,,A*47
$GPRMC,204735.2,A,3304.114177,N,11704.199045,W,9.1,217.9,050610,,,A*7C
$GPRMC,204738.9,A,3304.111330,N,11704.203373,W,5.5,222.8,050610,,,A*77
$GPRMC,204747.2,A,3304.110003,N,11704.211108,W,5.2,257.2,050610,,,A*74
$GPRMC,204750.2,A,3304.109817,N,11704.216619,W,4.5,261.9,050610,,,A*7F
$GPRMC,204753.9,A,3304.111414,N,11704.225113,W,7.1,278.6,050610,,,A*7C
$GPRMC,204756.9,A,3304.112089,N,11704.229159,W,4.4,278.7,050610,,,A*7F
$GPRMC,204800.2,A,3304.115575,N,11704.230810,W,4.9,324.2,050610,,,A*75
$GPRMC,204803.2,A,3304.119920,N,11704.236107,W,8.5,323.8,050610,,,A*72
$GPRMC,204806.9,A,3304.128997,N,11704.244361,W,12.8,324.5,050610,,,A*49
$GPRMC,204809.2,A,3304.136468,N,11704.249880,W,13.4,327.2,050610,,,A*4F
$GPRMC,204812.2,A,3304.148666,N,11704.253645,W,14.2,339.5,050610,,,A*45
$GPRMC,204815.9,A,3304.163941,N,11704.258139,W,15.6,347.1,050610,,,A*45
$GPRMC,204818.9,A,3304.172737,N,11704.253158,W,11.6,37.9,050610,,,A*73
$GPRMC,204821.9,A,3304.172842,N,11704.239867,W,15.3,96.0,050610,,,A*7E
$GPRMC,204824.2,A,3304.169993,N,11704.224565,W,21.1,104.7,050610,,,A*4C
$GPRMC,204827.2,A,3304.163297,N,11704.198600,W,28.6,108.8,050610,,,A*43
$GPRMC,204830.2,A,3304.155153,N,11704.171615,W,29.5,110.6,050610,,,A*4D
$GPRMC,204833.0,A,3304.149761,N,11704.154482,W,17.9,106.1,050610,,,A*4C
$GPRMC,204836.2,A,3304.147045,N,11704.136516,W,16.7,105.7,050610,,,A*46
$GPRMC,204839.9,A,3304.142666,N,11704.116702,W,18.0,103.4,050610,,,A*49
$GPRMC,204842.9,A,3304.137592,N,11704.097025,W,20.6,105.8,050610,,,A*42
$GPRMC,204845.2,A,3304.134254,N,11704.084409,W,15.4,106.8,050610,,,A*4F
$GPRMC,204848.2,A,3304.131479,N,11704.072383,W,10.1,99.3,050610,,,A*7E
$GPRMC,204851.2,A,3304.132170,N,11704.063493,W,9.2,67.4,050610,,,A*42
$GPRMC,204854.2,A,3304.138523,N,11704.056452,W,12.9,36.0,050610,,,A*75
$GPRMC,204857.9,A,3304.155407,N,11704.044678,W,17.9,27.3,050610,,,A*7E
$GPRMC,204900.9,A,3304.167809,N,11704.035178,W,13.4,38.0,050610,,,A*7B
$GPRMC,204903.9,A,3304.173632,N,11704.023903,W,13.0,80.2,050610,,,A*7D
$GPRMC,204906.3,A,3304.174431,N,11704.012435,W,17.3,85.6,050610,,,A*78
$GPRMC,204909.2,A,3304.164559,N,11704.002005,W,12.0,100.3,050610,,,A*41
$GPRMC,204912.9,A,3304.170539,N,11703.998709,W,6.0,354.9,050610,,,A*79
$GPRMC,204915.9,A,3304.175929,N,11704.001748,W,5.6,0.3,050610,,,A*70
$GPRMC,204918.9,A,3304.179515,N,11703.997974,W,4.6,34.9,050610,,,A*4E
