NMEA Sentence Code,UTC Time,Status,Latitude,Latitude Direction,Longitude,Longitude Direction,Speed (knots),Track Angle (degrees true),Date,MagneticVariation,Magnetic Variation Direction,[FAA Mode]-Optional,Checksum
$GPRMC,234130.000,A,7015.7795,N,14837.7111,W,15.55,18.28,240810,,,A*73
$GPRMC,234133.000,A,7015.7972,N,14837.6712,W,24.30,31.99,240810,,,A*73
$GPRMC,234136.000,A,7015.8156,N,14837.6274,W,27.22,34.45,240810,,,A*76
$GPRMC,234139.000,A,7015.8339,N,14837.5869,W,27.70,33.40,240810,,,A*72
$GPRMC,234142.000,A,7015.8532,N,14837.5515,W,26.73,33.40,240810,,,A*77
$GPRMC,234145.000,A,7015.8716,N,14837.5190,W,24.79,31.99,240810,,,A*73
$GPRMC,234148.000,A,7015.8841,N,14837.4913,W,18.47,34.45,240810,,,A*77
$GPRMC,234151.000,A,7015.8925,N,14837.4749,W,11.18,34.45,240810,,,A*7E
$GPRMC,234157.000,A,7015.8954,N,14837.4536,W,7.29,72.07,240810,,,A*45
$GPRMC,234200.000,A,7015.8928,N,14837.4276,W,11.66,116.02,240810,,,A*46
$GPRMC,234203.000,A,7015.8848,N,14837.3960,W,16.52,125.86,240810,,,A*45
$GPRMC,234206.000,A,7015.8706,N,14837.3477,W,27.22,132.54,240810,,,A*42
$GPRMC,234209.000,A,7015.8539,N,14837.2927,W,28.19,131.48,240810,,,A*43
$GPRMC,234212.000,A,7015.8394,N,14837.2441,W,26.73,131.48,240810,,,A*47
$GPRMC,234215.000,A,7015.8249,N,14837.1965,W,25.76,130.43,240810,,,A*45
$GPRMC,234218.000,A,7015.8104,N,14837.1520,W,23.81,133.24,240810,,,A*43
$GPRMC,234221.000,A,7015.7950,N,14837.1108,W,22.84,138.52,240810,,,A*4F
$GPRMC,234224.000,A,7015.7808,N,14837.0716,W,21.38,139.22,240810,,,A*4C
$GPRMC,234227.000,A,7015.7676,N,14837.0378,W,20.41,140.98,240810,,,A*44
$GPRMC,234230.000,A,7015.7560,N,14837.0059,W,18.47,140.98,240810,,,A*4B
$GPRMC,234233.000,A,7015.7460,N,14836.9782,W,15.55,139.57,240810,,,A*43
$GPRMC,234236.000,A,7015.7373,N,14836.9615,W,11.66,142.38,240810,,,A*4D
$GPRMC,234239.000,A,7015.7299,N,14836.9467,W,10.21,142.73,240810,,,A*4D
$GPRMC,234242.000,A,7015.7238,N,14836.9332,W,8.75,143.09,240810,,,A*79
$GPRMC,234245.000,A,7015.7187,N,14836.9206,W,7.78,141.68,240810,,,A*78
$GPRMC,234248.000,A,7015.7138,N,14836.9097,W,7.29,141.68,240810,,,A*7F
$GPRMC,234251.000,A,7015.7093,N,14836.8997,W,7.29,142.03,240810,,,A*71
$GPRMC,234254.000,A,7015.7045,N,14836.8894,W,7.29,142.73,240810,,,A*7A
$GPRMC,234257.000,A,7015.7003,N,14836.8784,W,6.80,141.33,240810,,,A*70
$GPRMC,234300.000,A,7015.6955,N,14836.8669,W,7.29,140.62,240810,,,A*7D
$GPRMC,234303.000,A,7015.6891,N,14836.8566,W,7.78,144.14,240810,,,A*7A
$GPRMC,234306.000,A,7015.6849,N,14836.8434,W,7.29,142.73,240810,,,A*7F
$GPRMC,234309.000,A,7015.6801,N,14836.8315,W,7.29,140.98,240810,,,A*7F
$GPRMC,234312.000,A,7015.6749,N,14836.8218,W,7.29,142.03,240810,,,A*7A
$GPRMC,234315.000,A,7015.6694,N,14836.8102,W,7.78,142.73,240810,,,A*77
$GPRMC,234318.000,A,7015.6640,N,14836.7986,W,7.29,142.73,240810,,,A*7C
$GPRMC,234321.000,A,7015.6604,N,14836.7867,W,6.80,138.52,240810,,,A*74
$GPRMC,234324.000,A,7015.6566,N,14836.7761,W,6.80,143.79,240810,,,A*7A
$GPRMC,234327.000,A,7015.6520,N,14836.7655,W,6.80,142.73,240810,,,A*76
$GPRMC,234330.000,A,7015.6475,N,14836.7555,W,6.80,142.03,240810,,,A*75
$GPRMC,234333.000,A,7015.6430,N,14836.7449,W,6.80,140.98,240810,,,A*7B
$GPRMC,234336.000,A,7015.6389,N,14836.7339,W,7.29,141.68,240810,,,A*77
$GPRMC,234339.000,A,7015.6340,N,14836.7233,W,6.80,142.03,240810,,,A*7A
$GPRMC,234342.000,A,7015.6295,N,14836.7133,W,6.80,142.03,240810,,,A*7C
$GPRMC,234345.000,A,7015.6250,N,14836.7034,W,6.80,142.38,240810,,,A*7C
$GPRMC,234348.000,A,7015.6208,N,14836.6943,W,6.32,142.73,240810,,,A*72
$GPRMC,234351.000,A,7015.6173,N,14836.6866,W,5.35,142.73,240810,,,A*77
$GPRMC,234406.000,A,7015.6067,N,14836.6589,W,4.86,135.70,240810,,,A*70
$GPRMC,234409.000,A,7015.6025,N,14836.6506,W,5.35,139.92,240810,,,A*77
$GPRMC,234412.000,A,7015.5993,N,14836.6425,W,5.35,144.14,240810,,,A*7E
$GPRMC,234415.000,A,7015.5957,N,14836.6361,W,4.86,143.44,240810,,,A*7D
$GPRMC,234418.000,A,7015.5915,N,14836.6287,W,5.35,143.09,240810,,,A*7F
$GPRMC,234421.000,A,7015.5883,N,14836.6206,W,5.83,142.03,240810,,,A*74
$GPRMC,234424.000,A,7015.5819,N,14836.6039,W,11.22,133.95,240810,,,A*4B
$GPRMC,234427.000,A,7015.5703,N,14836.5781,W,19.93,142.03,240810,,,A*40
$GPRMC,234430.000,A,7015.5555,N,14836.5447,W,24.30,143.09,240810,,,A*42
$GPRMC,234433.000,A,7015.5384,N,14836.5061,W,26.24,142.73,240810,,,A*40
$GPRMC,234436.000,A,7015.5207,N,14836.4649,W,27.70,141.68,240810,,,A*4B
$GPRMC,234439.000,A,7015.5017,N,14836.4191,W,30.13,141.33,240810,,,A*48
$GPRMC,234442.000,A,7015.4808,N,14836.3696,W,33.53,142.38,240810,,,A*4B
$GPRMC,234445.000,A,7015.4580,N,14836.3181,W,35.48,142.38,240810,,,A*4C
$GPRMC,234448.000,A,7015.4351,N,14836.2650,W,34.50,142.38,240810,,,A*49
$GPRMC,234451.000,A,7015.4129,N,14836.2132,W,34.02,142.38,240810,,,A*48
$GPRMC,234454.000,A,7015.3910,N,14836.1633,W,33.53,142.73,240810,,,A*41
$GPRMC,234457.000,A,7015.3688,N,14836.1150,W,33.53,145.90,240810,,,A*44
$GPRMC,234500.000,A,7015.3450,N,14836.0760,W,32.56,154.34,240810,,,A*4E
$GPRMC,234503.000,A,7015.3202,N,14836.0484,W,31.59,162.07,240810,,,A*4C
$GPRMC,234506.000,A,7015.2935,N,14836.0287,W,33.53,165.59,240810,,,A*46
$GPRMC,234509.000,A,7015.2658,N,14836.0094,W,34.02,165.94,240810,,,A*4F
$GPRMC,234512.000,A,7015.2378,N,14835.9901,W,34.50,166.29,240810,,,A*4F
$GPRMC,234515.000,A,7015.2101,N,14835.9708,W,33.53,166.99,240810,,,A*4C
$GPRMC,234518.000,A,7015.1828,N,14835.9534,W,32.56,168.05,240810,,,A*42
$GPRMC,234521.000,A,7015.1577,N,14835.9386,W,29.65,169.10,240810,,,A*4F
$GPRMC,234524.000,A,7015.1361,N,14835.9261,W,23.35,167.70,240810,,,A*44
$GPRMC,234527.000,A,7015.1203,N,14835.9096,W,17.98,152.23,240810,,,A*48
$GPRMC,234530.000,A,7015.1091,N,14835.8874,W,15.07,139.57,240810,,,A*48
$GPRMC,234533.000,A,7015.1042,N,14835.8626,W,9.28,108.63,240810,,,A*79
$GPRMC,234536.000,A,7015.1026,N,14835.8411,W,9.23,96.33,240810,,,A*40
$GPRMC,234539.000,A,7015.1039,N,14835.8089,W,15.10,73.12,240810,,,A*71
$GPRMC,234542.000,A,7015.1120,N,14835.7690,W,20.92,56.95,240810,,,A*71
$GPRMC,234545.000,A,7015.1297,N,14835.7223,W,31.59,39.02,240810,,,A*75
$GPRMC,234548.000,A,7015.1567,N,14835.6624,W,40.34,37.27,240810,,,A*76
$GPRMC,234551.000,A,7015.1850,N,14835.5981,W,41.31,36.91,240810,,,A*7C
$GPRMC,234554.000,A,7015.2130,N,14835.5353,W,40.82,37.27,240810,,,A*75
$GPRMC,234557.000,A,7015.2401,N,14835.4761,W,39.38,36.21,240810,,,A*7D
$GPRMC,234600.000,A,7015.2668,N,14835.4178,W,39.86,36.56,240810,,,A*7A
$GPRMC,234603.000,A,7015.2938,N,14835.3589,W,40.35,37.27,240810,,,A*7F
$GPRMC,234606.000,A,7015.3202,N,14835.2978,W,40.34,38.32,240810,,,A*70
$GPRMC,234609.000,A,7015.3460,N,14835.2369,W,39.36,39.02,240810,,,A*79
$GPRMC,234612.000,A,7015.3707,N,14835.1761,W,38.88,39.02,240810,,,A*7A
$GPRMC,234615.000,A,7015.3955,N,14835.1150,W,38.88,39.38,240810,,,A*79
$GPRMC,234618.000,A,7015.4206,N,14835.0538,W,38.88,39.73,240810,,,A*7A
$GPRMC,234621.000,A,7015.4451,N,14834.9943,W,37.91,39.38,240810,,,A*74
$GPRMC,234624.000,A,7015.4696,N,14834.9357,W,37.91,39.38,240810,,,A*77
$GPRMC,234627.000,A,7015.4940,N,14834.8781,W,37.42,37.97,240810,,,A*7B
$GPRMC,234630.000,A,7015.5188,N,14834.8230,W,37.42,34.80,240810,,,A*7A
$GPRMC,234633.000,A,7015.5452,N,14834.7718,W,38.39,32.34,240810,,,A*71
$GPRMC,234636.000,A,7015.5729,N,14834.7236,W,38.88,28.83,240810,,,A*7F
$GPRMC,234639.000,A,7015.6012,N,14834.6811,W,39.36,26.37,240810,,,A*77
$GPRMC,234642.000,A,7015.6314,N,14834.6386,W,39.85,24.26,240810,,,A*71
$GPRMC,234645.000,A,7015.6614,N,14834.5990,W,39.38,23.55,240810,,,A*78
$GPRMC,234648.000,A,7015.6916,N,14834.5610,W,39.36,23.20,240810,,,A*73
$GPRMC,234651.000,A,7015.7212,N,14834.5224,W,38.88,23.20,240810,,,A*72
$GPRMC,234654.000,A,7015.7509,N,14834.4851,W,38.39,23.55,240810,,,A*7B
$GPRMC,234657.000,A,7015.7802,N,14834.4474,W,38.41,23.55,240810,,,A*7A
$GPRMC,234700.000,A,7015.8091,N,14834.4094,W,38.39,23.55,240810,,,A*71
$GPRMC,234703.000,A,7015.8381,N,14834.3727,W,37.91,22.85,240810,,,A*79
$GPRMC,234706.000,A,7015.8677,N,14834.3360,W,38.88,22.85,240810,,,A*70
$GPRMC,234709.000,A,7015.8980,N,14834.2981,W,39.36,23.55,240810,,,A*74
$GPRMC,234712.000,A,7015.9279,N,14834.2585,W,39.86,23.55,240810,,,A*71
$GPRMC,234715.000,A,7015.9581,N,14834.2208,W,39.85,23.20,240810,,,A*75
$GPRMC,234718.000,A,7015.9878,N,14834.1822,W,38.88,24.96,240810,,,A*74
$GPRMC,234721.000,A,7016.0161,N,14834.1397,W,39.36,28.12,240810,,,A*74
$GPRMC,234724.000,A,7016.0450,N,14834.0892,W,39.85,31.64,240810,,,A*78
$GPRMC,234727.000,A,7016.0721,N,14834.0373,W,39.85,31.99,240810,,,A*78
$GPRMC,234730.000,A,7016.1001,N,14833.9839,W,39.85,32.70,240810,,,A*75
$GPRMC,234733.000,A,7016.1284,N,14833.9318,W,40.34,31.99,240810,,,A*71
$GPRMC,234736.000,A,7016.1567,N,14833.8783,W,40.82,31.99,240810,,,A*74
$GPRMC,234739.000,A,7016.1854,N,14833.8252,W,40.82,31.99,240810,,,A*7F
$GPRMC,234742.000,A,7016.2137,N,14833.7725,W,39.85,31.99,240810,,,A*7F
$GPRMC,234745.000,A,7016.2404,N,14833.7210,W,38.88,31.99,240810,,,A*72
$GPRMC,234748.000,A,7016.2668,N,14833.6714,W,37.91,31.99,240810,,,A*70
$GPRMC,234751.000,A,7016.2938,N,14833.6292,W,36.45,28.83,240810,,,A*72
$GPRMC,234754.000,A,7016.3222,N,14833.5961,W,36.45,18.63,240810,,,A*7F
$GPRMC,234757.000,A,7016.3527,N,14833.5716,W,39.36,12.66,240810,,,A*74
$GPRMC,234800.000,A,7016.3856,N,14833.5545,W,39.36,09.49,240810,,,A*71
$GPRMC,234803.000,A,7016.4174,N,14833.5420,W,37.91,08.79,240810,,,A*7F
$GPRMC,234806.000,A,7016.4477,N,14833.5307,W,35.96,07.73,240810,,,A*7E
$GPRMC,234809.000,A,7016.4754,N,14833.5188,W,32.07,10.20,240810,,,A*79
$GPRMC,234812.000,A,7016.4979,N,14833.4976,W,26.24,17.93,240810,,,A*71
$GPRMC,234815.000,A,7016.5150,N,14833.4680,W,21.89,39.02,240810,,,A*76
$GPRMC,234818.000,A,7016.5249,N,14833.4236,W,21.38,62.58,240810,,,A*72
$GPRMC,234821.000,A,7016.5288,N,14833.3614,W,25.27,76.99,240810,,,A*74
$GPRMC,234824.000,A,7016.5333,N,14833.2691,W,37.42,78.75,240810,,,A*70
$GPRMC,234827.000,A,7016.5398,N,14833.1751,W,38.88,78.40,240810,,,A*73
$GPRMC,234830.000,A,7016.5455,N,14833.0792,W,39.36,78.40,240810,,,A*79
$GPRMC,234833.000,A,7016.5523,N,14832.9829,W,40.34,79.10,240810,,,A*75
$GPRMC,234836.000,A,7016.5584,N,14832.8844,W,40.82,78.75,240810,,,A*78
$GPRMC,234839.000,A,7016.5642,N,14832.7875,W,39.85,79.10,240810,,,A*78
$GPRMC,234842.000,A,7016.5707,N,14832.6916,W,38.88,79.10,240810,,,A*7D
$GPRMC,234845.000,A,7016.5781,N,14832.5999,W,36.93,75.94,240810,,,A*74
$GPRMC,234848.000,A,7016.5887,N,14832.5178,W,35.96,67.50,240810,,,A*7A
$GPRMC,234851.000,A,7016.6041,N,14832.4415,W,37.42,55.90,240810,,,A*7A
$GPRMC,234854.000,A,7016.6263,N,14832.3717,W,40.82,46.41,240810,,,A*79
$GPRMC,234857.000,A,7016.6511,N,14832.2967,W,42.77,43.24,240810,,,A*7E
$GPRMC,234900.000,A,7016.6759,N,14832.2275,W,39.85,41.48,240810,,,A*72
$GPRMC,234902.000,A,7016.6930,N,14832.1840,W,39.86,41.13,240810,,,A*73
$GPRMC,234907.000,A,7016.7345,N,14832.0733,W,40.34,41.84,240810,,,A*7C
$GPRMC,234910.000,A,7016.7596,N,14832.0064,W,40.34,41.48,240810,,,A*77
$GPRMC,234913.000,A,7016.7850,N,14831.9410,W,40.82,41.13,240810,,,A*7D
$GPRMC,234916.000,A,7016.8095,N,14831.8770,W,39.36,41.84,240810,,,A*7D
$GPRMC,234919.000,A,7016.8343,N,14831.8120,W,40.34,42.19,240810,,,A*72
$GPRMC,234922.000,A,7016.8597,N,14831.7486,W,40.34,41.13,240810,,,A*7A
$GPRMC,234925.000,A,7016.8838,N,14831.6855,W,39.85,41.84,240810,,,A*7C
$GPRMC,234928.000,A,7016.9076,N,14831.6259,W,38.88,40.78,240810,,,A*7A
$GPRMC,234931.000,A,7016.9324,N,14831.5645,W,38.88,41.48,240810,,,A*7E
$GPRMC,234934.000,A,7016.9575,N,14831.4991,W,38.88,41.13,240810,,,A*70
$GPRMC,234937.000,A,7016.9817,N,14831.4338,W,38.88,41.13,240810,,,A*73
$GPRMC,234940.000,A,7017.0068,N,14831.3659,W,38.88,41.84,240810,,,A*70
$GPRMC,234943.000,A,7017.0316,N,14831.3021,W,39.36,40.08,240810,,,A*71
$GPRMC,234946.000,A,7017.0551,N,14831.2423,W,38.39,41.13,240810,,,A*73
$GPRMC,234949.000,A,7017.0792,N,14831.1814,W,37.91,42.19,240810,,,A*7E
$GPRMC,234952.000,A,7017.1004,N,14831.1167,W,38.39,42.19,240810,,,A*7D
$GPRMC,234955.000,A,7017.1243,N,14831.0520,W,39.36,42.54,240810,,,A*7A
$GPRMC,234958.000,A,7017.1478,N,14830.9877,W,38.88,42.54,240810,,,A*7A
$GPRMC,235001.000,A,7017.1706,N,14830.9210,W,38.88,44.30,240810,,,A*7B
$GPRMC,235002.000,A,7017.1803,N,14830.9079,W,38.39,41.84,240810,,,A*7F
$GPRMC,235007.000,A,7017.2147,N,14830.8190,W,35.96,40.43,240810,,,A*75
$GPRMC,235010.000,A,7017.2369,N,14830.7653,W,35.48,41.48,240810,,,A*73
$GPRMC,235013.000,A,7017.2585,N,14830.7022,W,34.99,41.48,240810,,,A*79
$GPRMC,235017.000,A,7017.2829,N,14830.6397,W,33.05,36.56,240810,,,A*77
$GPRMC,235020.000,A,7017.3068,N,14830.5998,W,32.56,28.48,240810,,,A*7E
$GPRMC,235023.000,A,7017.3303,N,14830.5712,W,30.62,21.45,240810,,,A*7E
$GPRMC,235026.000,A,7017.3592,N,14830.5509,W,33.53,10.20,240810,,,A*7D
$GPRMC,235029.000,A,7017.3875,N,14830.5454,W,34.50,01.41,240810,,,A*7C
$GPRMC,235032.000,A,7017.4159,N,14830.5551,W,34.02,351.56,240810,,,A*45
$GPRMC,235035.000,A,7017.4445,N,14830.5770,W,35.48,347.70,240810,,,A*47
$GPRMC,235038.000,A,7017.4722,N,14830.5989,W,34.50,346.64,240810,,,A*4C
$GPRMC,235041.000,A,7017.4999,N,14830.6220,W,34.02,346.64,240810,,,A*40
$GPRMC,235044.000,A,7017.5266,N,14830.6459,W,29.16,346.29,240810,,,A*47
$GPRMC,235047.000,A,7017.5491,N,14830.6610,W,26.73,348.75,240810,,,A*4E
$GPRMC,235051.000,A,7017.5781,N,14830.6687,W,26.24,02.11,240810,,,A*78
$GPRMC,235054.000,A,7017.5987,N,14830.6491,W,25.78,20.74,240810,,,A*79
$GPRMC,235057.000,A,7017.6167,N,14830.6079,W,27.70,36.56,240810,,,A*70
$GPRMC,235100.000,A,7017.6363,N,14830.5625,W,30.13,38.32,240810,,,A*76
$GPRMC,235103.000,A,7017.6560,N,14830.5152,W,31.59,37.97,240810,,,A*78
$GPRMC,235106.000,A,7017.6769,N,14830.4659,W,32.56,38.32,240810,,,A*77
$GPRMC,235109.000,A,7017.6985,N,14830.4164,W,31.12,37.97,240810,,,A*7E
$GPRMC,235112.000,A,7017.7171,N,14830.3691,W,28.69,39.73,240810,,,A*7C
$GPRMC,235115.000,A,7017.7342,N,14830.3259,W,24.30,41.84,240810,,,A*7E
$GPRMC,235118.000,A,7017.7480,N,14830.2844,W,23.33,49.57,240810,,,A*7F
$GPRMC,235121.000,A,7017.7590,N,14830.2387,W,22.36,56.60,240810,,,A*7F
$GPRMC,235124.000,A,7017.7683,N,14830.1975,W,20.41,54.49,240810,,,A*74
$GPRMC,235127.000,A,7017.7764,N,14830.1763,W,15.07,42.19,240810,,,A*70
$GPRMC,235130.000,A,7017.7825,N,14830.1647,W,9.23,35.16,240810,,,A*4F
$GPRMC,235142.000,A,7017.7876,N,14830.1573,W,3.89,02.46,240810,,,A*43
$GPRMC,235145.000,A,7017.7947,N,14830.1495,W,9.72,25.31,240810,,,A*45
$GPRMC,235148.000,A,7017.8079,N,14830.1476,W,15.07,04.57,240810,,,A*72
$GPRMC,235151.000,A,7017.8198,N,14830.1624,W,15.07,344.53,240810,,,A*42
$GPRMC,235154.000,A,7017.8346,N,14830.1872,W,18.95,333.28,240810,,,A*41
$GPRMC,235157.000,A,7017.8600,N,14830.2203,W,26.24,333.63,240810,,,A*42
$GPRMC,235200.000,A,7017.8919,N,14830.2654,W,34.02,335.39,240810,,,A*4C
$GPRMC,235203.000,A,7017.9270,N,14830.3095,W,38.39,336.45,240810,,,A*4C
$GPRMC,235206.000,A,7017.9569,N,14830.3501,W,39.36,336.80,240810,,,A*49
$GPRMC,235209.000,A,7017.9878,N,14830.3861,W,38.39,337.15,240810,,,A*43
$GPRMC,235212.000,A,7018.0171,N,14830.4228,W,37.91,337.50,240810,,,A*43
$GPRMC,235215.000,A,7018.0461,N,14830.4595,W,36.93,337.50,240810,,,A*42
$GPRMC,235218.000,A,7018.0773,N,14830.4917,W,36.45,341.37,240810,,,A*42
$GPRMC,235221.000,A,7018.1063,N,14830.5116,W,36.93,346.99,240810,,,A*4F
$GPRMC,235224.000,A,7018.1362,N,14830.5239,W,36.45,352.97,240810,,,A*46
$GPRMC,235227.000,A,7018.1671,N,14830.5268,W,37.91,359.65,240810,,,A*48
$GPRMC,235230.000,A,7018.1970,N,14830.5113,W,37.42,05.62,240810,,,A*7C
$GPRMC,235233.000,A,7018.2170,N,14830.4737,W,34.50,19.34,240810,,,A*7B
$GPRMC,235236.000,A,7018.2398,N,14830.4151,W,35.48,27.42,240810,,,A*78
$GPRMC,235239.000,A,7018.2572,N,14830.3639,W,31.10,36.91,240810,,,A*7C
$GPRMC,235242.000,A,7018.2724,N,14830.3246,W,23.81,43.59,240810,,,A*70
$GPRMC,235245.000,A,7018.2823,N,14830.2821,W,19.93,49.57,240810,,,A*7B
$GPRMC,235248.000,A,7018.2901,N,14830.2413,W,19.93,51.68,240810,,,A*7F
$GPRMC,235251.000,A,7018.3007,N,14830.2059,W,20.41,50.27,240810,,,A*7C
$GPRMC,235254.000,A,7018.3107,N,14830.1689,W,20.41,48.52,240810,,,A*7B
$GPRMC,235257.000,A,7018.3226,N,14830.1251,W,22.84,49.57,240810,,,A*76
$GPRMC,235300.000,A,7018.3351,N,14830.0810,W,24.30,45.00,240810,,,A*7D
$GPRMC,235303.000,A,7018.3567,N,14830.0382,W,28.67,36.21,240810,,,A*74
$GPRMC,235306.000,A,7018.3782,N,14830.0015,W,31.10,27.42,240810,,,A*78
$GPRMC,235309.000,A,7018.4021,N,14829.9738,W,32.07,21.45,240810,,,A*73
$GPRMC,235312.000,A,7018.4314,N,14829.9538,W,36.45,12.66,240810,,,A*7D
$GPRMC,235315.000,A,7018.4651,N,14829.9503,W,41.79,01.41,240810,,,A*7E
$GPRMC,235318.000,A,7018.5012,N,14829.9567,W,42.77,352.97,240810,,,A*42
$GPRMC,235321.000,A,7018.5353,N,14829.9715,W,40.82,350.16,240810,,,A*4A
$GPRMC,235324.000,A,7018.5681,N,14829.9870,W,39.85,350.86,240810,,,A*49
$GPRMC,235327.000,A,7018.6007,N,14830.0041,W,38.39,350.51,240810,,,A*46
$GPRMC,235330.000,A,7018.6328,N,14830.0166,W,37.91,351.56,240810,,,A*41
$GPRMC,235333.000,A,7018.6647,N,14830.0327,W,36.93,350.86,240810,,,A*46
$GPRMC,235336.000,A,7018.6950,N,14830.0469,W,37.42,351.21,240810,,,A*46
$GPRMC,235339.000,A,7018.7255,N,14830.0630,W,36.93,350.86,240810,,,A*49
$GPRMC,235342.000,A,7018.7542,N,14830.0758,W,34.99,351.91,240810,,,A*44
$GPRMC,235345.000,A,7018.7828,N,14830.0897,W,34.02,351.21,240810,,,A*47
$GPRMC,235348.000,A,7018.8105,N,14830.1016,W,34.02,352.97,240810,,,A*4D
$GPRMC,235351.000,A,7018.8385,N,14830.1067,W,34.02,358.59,240810,,,A*41
$GPRMC,235354.000,A,7018.8665,N,14830.1016,W,33.53,07.03,240810,,,A*7C
$GPRMC,235357.000,A,7018.8948,N,14830.0881,W,34.02,11.60,240810,,,A*79
$GPRMC,235400.000,A,7018.9212,N,14830.0633,W,33.53,20.39,240810,,,A*73
$GPRMC,235403.000,A,7018.9467,N,14830.0234,W,34.99,29.18,240810,,,A*7C
$GPRMC,235406.000,A,7018.9718,N,14829.9777,W,35.96,31.64,240810,,,A*7D
$GPRMC,235409.000,A,7018.9956,N,14829.9284,W,36.45,33.75,240810,,,A*70
$GPRMC,235412.000,A,7019.0210,N,14829.8747,W,36.45,34.80,240810,,,A*7D
$GPRMC,235415.000,A,7019.0448,N,14829.8241,W,36.45,33.75,240810,,,A*7F
$GPRMC,235418.000,A,7019.0706,N,14829.7742,W,37.42,33.40,240810,,,A*72
$GPRMC,235421.000,A,7019.0960,N,14829.7195,W,37.42,34.45,240810,,,A*78
$GPRMC,235424.000,A,7019.1218,N,14829.6696,W,37.91,33.75,240810,,,A*77
$GPRMC,235427.000,A,7019.1481,N,14829.6172,W,37.91,34.45,240810,,,A*7B
$GPRMC,235430.000,A,7019.1745,N,14829.5647,W,37.91,34.10,240810,,,A*74
$GPRMC,235433.000,A,7019.1990,N,14829.5139,W,36.93,34.10,240810,,,A*7C
$GPRMC,235436.000,A,7019.2244,N,14829.4624,W,37.42,34.10,240810,,,A*7F
$GPRMC,235439.000,A,7019.2508,N,14829.4105,W,37.91,34.10,240810,,,A*75
$GPRMC,235442.000,A,7019.2782,N,14829.3552,W,38.39,33.75,240810,,,A*71
$GPRMC,235445.000,A,7019.3039,N,14829.3021,W,38.39,34.10,240810,,,A*75
$GPRMC,235448.000,A,7019.3326,N,14829.2467,W,38.88,33.40,240810,,,A*7A
$GPRMC,235451.000,A,7019.3599,N,14829.1933,W,38.39,34.10,240810,,,A*77
$GPRMC,235454.000,A,7019.3841,N,14829.1424,W,35.48,34.80,240810,,,A*73
$GPRMC,235457.000,A,7019.4066,N,14829.0958,W,32.56,35.16,240810,,,A*7B
$GPRMC,235500.000,A,7019.4278,N,14829.0562,W,30.13,34.10,240810,,,A*74
$GPRMC,235503.000,A,7019.4484,N,14829.0166,W,29.16,34.80,240810,,,A*76
$GPRMC,235506.000,A,7019.4681,N,14828.9770,W,28.67,34.10,240810,,,A*73
$GPRMC,235509.000,A,7019.4874,N,14828.9351,W,29.16,34.45,240810,,,A*78
$GPRMC,235512.000,A,7019.5077,N,14828.8949,W,30.13,34.80,240810,,,A*7E
$GPRMC,235515.000,A,7019.5286,N,14828.8502,W,30.62,36.56,240810,,,A*79
$GPRMC,235518.000,A,7019.5492,N,14828.8077,W,30.62,35.86,240810,,,A*7E
$GPRMC,235521.000,A,7019.5701,N,14828.7633,W,30.62,34.45,240810,,,A*7A
$GPRMC,235524.000,A,7019.5914,N,14828.7259,W,29.65,30.59,240810,,,A*7B
$GPRMC,235527.000,A,7019.6126,N,14828.6947,W,28.19,27.07,240810,,,A*70
$GPRMC,235530.000,A,7019.6355,N,14828.6709,W,29.16,17.93,240810,,,A*74
$GPRMC,235533.000,A,7019.6570,N,14828.6513,W,27.22,16.17,240810,,,A*7B
$GPRMC,235536.000,A,7019.6799,N,14828.6413,W,26.73,09.14,240810,,,A*72
$GPRMC,235539.000,A,7019.7018,N,14828.6381,W,26.24,05.98,240810,,,A*74
$GPRMC,235542.000,A,7019.7249,N,14828.6397,W,28.19,04.22,240810,,,A*79
$GPRMC,235545.000,A,7019.7484,N,14828.6336,W,30.13,04.22,240810,,,A*71
$GPRMC,235548.000,A,7019.7758,N,14828.6307,W,32.07,03.87,240810,,,A*73
$GPRMC,235551.000,A,7019.8022,N,14828.6258,W,32.07,04.57,240810,,,A*7F
$GPRMC,235554.000,A,7019.8302,N,14828.6175,W,31.10,04.22,240810,,,A*70
$GPRMC,235557.000,A,7019.8559,N,14828.6117,W,30.62,04.22,240810,,,A*7B
$GPRMC,235600.000,A,7019.8814,N,14828.6072,W,31.59,03.16,240810,,,A*75
$GPRMC,235603.000,A,7019.9094,N,14828.6046,W,32.56,03.87,240810,,,A*74
$GPRMC,235606.000,A,7019.9358,N,14828.5943,W,32.07,07.03,240810,,,A*71
$GPRMC,235609.000,A,7019.9615,N,14828.5872,W,32.07,08.09,240810,,,A*74
$GPRMC,235612.000,A,7019.9892,N,14828.5763,W,33.53,09.49,240810,,,A*75
$GPRMC,235615.000,A,7020.0165,N,14828.5582,W,34.50,12.30,240810,,,A*7D
$GPRMC,235618.000,A,7020.0420,N,14828.5528,W,32.07,06.33,240810,,,A*76
$GPRMC,235621.000,A,7020.0674,N,14828.5499,W,30.62,05.27,240810,,,A*73
$GPRMC,235624.000,A,7020.0928,N,14828.5441,W,30.13,05.62,240810,,,A*72
$GPRMC,235627.000,A,7020.1173,N,14828.5357,W,30.62,05.62,240810,,,A*70
$GPRMC,235630.000,A,7020.1421,N,14828.5257,W,30.62,07.03,240810,,,A*70
$GPRMC,235633.000,A,7020.1656,N,14828.5222,W,30.62,07.03,240810,,,A*73
$GPRMC,235636.000,A,7020.1900,N,14828.5196,W,30.13,03.52,240810,,,A*70
$GPRMC,235639.000,A,7020.2151,N,14828.5080,W,30.13,05.27,240810,,,A*72
$GPRMC,235642.000,A,7020.2393,N,14828.4997,W,29.16,05.27,240810,,,A*71
$GPRMC,235645.000,A,7020.2628,N,14828.4971,W,28.67,04.92,240810,,,A*73
$GPRMC,235648.000,A,7020.2898,N,14828.4849,W,30.62,05.27,240810,,,A*72
$GPRMC,235651.000,A,7020.3143,N,14828.4803,W,30.13,04.92,240810,,,A*73
$GPRMC,235654.000,A,7020.3387,N,14828.4755,W,29.65,04.92,240810,,,A*79
$GPRMC,235657.000,A,7020.3613,N,14828.4681,W,28.67,05.27,240810,,,A*76
$GPRMC,235700.000,A,7020.3844,N,14828.4633,W,28.19,05.62,240810,,,A*78
$GPRMC,235703.000,A,7020.4102,N,14828.4572,W,28.19,03.52,240810,,,A*74
$GPRMC,235706.000,A,7020.4337,N,14828.4572,W,28.67,03.16,240810,,,A*7C
$GPRMC,235709.000,A,7020.4572,N,14828.4527,W,31.59,04.57,240810,,,A*73
$GPRMC,235712.000,A,7020.4858,N,14828.4430,W,34.99,06.33,240810,,,A*72
$GPRMC,235715.000,A,7020.5161,N,14828.4324,W,34.02,03.16,240810,,,A*75
$GPRMC,235718.000,A,7020.5441,N,14828.4346,W,34.02,358.24,240810,,,A*47
$GPRMC,235721.000,A,7020.5721,N,14828.4462,W,35.48,351.21,240810,,,A*4A
$GPRMC,235724.000,A,7020.6039,N,14828.4639,W,36.93,348.75,240810,,,A*42
$GPRMC,235727.000,A,7020.6355,N,14828.4826,W,37.91,348.75,240810,,,A*4B
$GPRMC,235730.000,A,7020.6667,N,14828.4952,W,38.39,354.38,240810,,,A*42
$GPRMC,235733.000,A,7020.6963,N,14828.5161,W,37.91,351.21,240810,,,A*43
$GPRMC,235736.000,A,7020.7253,N,14828.5389,W,37.91,349.45,240810,,,A*40
$GPRMC,235739.000,A,7020.7572,N,14828.5582,W,38.39,349.10,240810,,,A*4B
$GPRMC,235742.000,A,7020.7864,N,14828.5775,W,37.42,351.21,240810,,,A*4F
$GPRMC,235745.000,A,7020.8180,N,14828.5911,W,38.39,350.16,240810,,,A*4E
$GPRMC,235748.000,A,7020.8524,N,14828.6072,W,39.36,349.10,240810,,,A*46
$GPRMC,235751.000,A,7020.8849,N,14828.6339,W,39.85,346.64,240810,,,A*40
$GPRMC,235754.000,A,7020.9174,N,14828.6587,W,39.36,344.53,240810,,,A*4E
$GPRMC,235757.000,A,7020.9477,N,14828.6889,W,38.88,343.48,240810,,,A*41
$GPRMC,235800.000,A,7020.9789,N,14828.7140,W,38.39,342.77,240810,,,A*44
$GPRMC,235803.000,A,7021.0098,N,14828.7414,W,37.91,343.12,240810,,,A*43
$GPRMC,235806.000,A,7021.0381,N,14828.7745,W,37.91,343.12,240810,,,A*4A
$GPRMC,235809.000,A,7021.0710,N,14828.7996,W,38.88,343.83,240810,,,A*46
$GPRMC,235811.000,A,7021.0916,N,14828.8183,W,38.88,343.83,240810,,,A*44
$GPRMC,235816.000,A,7021.1402,N,14828.8614,W,37.91,343.48,240810,,,A*43
$GPRMC,235819.000,A,7021.1707,N,14828.8878,W,37.42,343.83,240810,,,A*47
$GPRMC,235822.000,A,7021.1994,N,14828.9181,W,36.93,342.77,240810,,,A*42
$GPRMC,235825.000,A,7021.2293,N,14828.9458,W,37.42,343.12,240810,,,A*44
$GPRMC,235828.000,A,7021.2586,N,14828.9676,W,36.93,344.88,240810,,,A*4D
$GPRMC,235831.000,A,7021.2876,N,14828.9976,W,37.42,342.07,240810,,,A*44
$GPRMC,235834.000,A,7021.3172,N,14829.0259,W,36.93,342.77,240810,,,A*49
$GPRMC,235837.000,A,7021.3465,N,14829.0510,W,36.93,342.77,240810,,,A*43
$GPRMC,235840.000,A,7021.3755,N,14829.0761,W,37.42,342.42,240810,,,A*4C
$GPRMC,235843.000,A,7021.4054,N,14829.1061,W,37.91,342.42,240810,,,A*46
$GPRMC,235846.000,A,7021.4353,N,14829.1337,W,37.91,343.48,240810,,,A*4C
$GPRMC,235849.000,A,7021.4659,N,14829.1592,W,38.39,343.83,240810,,,A*4F
$GPRMC,235852.000,A,7021.4952,N,14829.1849,W,37.42,342.42,240810,,,A*45
$GPRMC,235855.000,A,7021.5245,N,14829.2119,W,37.42,342.77,240810,,,A*47
$GPRMC,235858.000,A,7021.5538,N,14829.2367,W,36.93,342.77,240810,,,A*41
$GPRMC,235901.000,A,7021.5831,N,14829.2660,W,36.45,343.12,240810,,,A*43
$GPRMC,235904.000,A,7021.6123,N,14829.2927,W,36.93,342.77,240810,,,A*4A
$GPRMC,235907.000,A,7021.6413,N,14829.3194,W,36.93,342.07,240810,,,A*49
$GPRMC,235910.000,A,7021.6706,N,14829.3462,W,36.93,342.77,240810,,,A*43
$GPRMC,235913.000,A,7021.6999,N,14829.3700,W,36.45,342.42,240810,,,A*42
$GPRMC,235916.000,A,7021.7305,N,14829.3973,W,36.93,343.12,240810,,,A*4C
$GPRMC,235919.000,A,7021.7585,N,14829.4244,W,35.96,342.77,240810,,,A*41
$GPRMC,235922.000,A,7021.7878,N,14829.4495,W,35.96,343.12,240810,,,A*4E
$GPRMC,235925.000,A,7021.8158,N,14829.4743,W,34.99,343.12,240810,,,A*4B
$GPRMC,235928.000,A,7021.8428,N,14829.5026,W,34.50,337.50,240810,,,A*41
$GPRMC,235931.000,A,7021.8682,N,14829.5428,W,35.48,329.77,240810,,,A*43
$GPRMC,235932.000,A,7021.8766,N,14829.5596,W,35.48,327.30,240810,,,A*42
$GPRMC,235937.000,A,7021.9123,N,14829.6616,W,34.99,312.89,240810,,,A*40
$GPRMC,235940.000,A,7021.9294,N,14829.7334,W,34.99,303.40,240810,,,A*4E
$GPRMC,235943.000,A,7021.9426,N,14829.8145,W,35.96,294.61,240810,,,A*4B
$GPRMC,235946.000,A,7021.9535,N,14829.8959,W,36.45,291.45,240810,,,A*46
$GPRMC,235949.000,A,7021.9635,N,14829.9793,W,36.93,290.39,240810,,,A*42
$GPRMC,235952.000,A,7021.9732,N,14830.0681,W,37.42,289.34,240810,,,A*45
$GPRMC,235955.000,A,7021.9844,N,14830.1566,W,37.42,290.74,240810,,,A*4B
$GPRMC,235958.000,A,7021.9941,N,14830.2422,W,37.91,290.04,240810,,,A*49
$GPRMC,000001.000,A,7022.0047,N,14830.3288,W,37.91,289.69,250810,,,A*48
$GPRMC,000004.000,A,7022.0140,N,14830.4164,W,36.93,289.34,250810,,,A*46
$GPRMC,000007.000,A,7022.0243,N,14830.5020,W,36.93,290.39,250810,,,A*40
$GPRMC,000010.000,A,7022.0356,N,14830.5902,W,37.91,290.04,250810,,,A*47
$GPRMC,000013.000,A,7022.0462,N,14830.6764,W,37.42,289.69,250810,,,A*44
$GPRMC,000016.000,A,7022.0562,N,14830.7604,W,36.45,289.69,250810,,,A*40
$GPRMC,000019.000,A,7022.0659,N,14830.8425,W,35.96,290.04,250810,,,A*44
$GPRMC,000022.000,A,7022.0768,N,14830.9249,W,35.48,289.34,250810,,,A*4A
$GPRMC,000025.000,A,7022.0865,N,14831.0070,W,34.99,289.69,250810,,,A*4A
$GPRMC,000028.000,A,7022.0968,N,14831.0871,W,33.53,290.04,250810,,,A*40
$GPRMC,000031.000,A,7022.1061,N,14831.1641,W,33.05,290.39,250810,,,A*48
$GPRMC,000034.000,A,7022.1148,N,14831.2394,W,33.05,289.69,250810,,,A*44
$GPRMC,000037.000,A,7022.1238,N,14831.3111,W,31.10,290.39,250810,,,A*46
$GPRMC,000040.000,A,7022.1325,N,14831.3852,W,32.56,289.34,250810,,,A*41
$GPRMC,000043.000,A,7022.1415,N,14831.4605,W,32.56,289.34,250810,,,A*4D
$GPRMC,000046.000,A,7022.1511,N,14831.5339,W,32.07,290.74,250810,,,A*4E
$GPRMC,000049.000,A,7022.1605,N,14831.6069,W,31.59,291.09,250810,,,A*41
$GPRMC,000052.000,A,7022.1682,N,14831.6732,W,26.24,289.34,250810,,,A*46
$GPRMC,000055.000,A,7022.1740,N,14831.7212,W,18.47,287.23,250810,,,A*48
$GPRMC,000058.000,A,7022.1782,N,14831.7605,W,16.04,290.39,250810,,,A*4D
$GPRMC,000101.000,A,7022.1824,N,14831.7968,W,15.55,289.34,250810,,,A*45
$GPRMC,000104.000,A,7022.1875,N,14831.8313,W,15.07,293.20,250810,,,A*44
$GPRMC,000107.000,A,7022.1927,N,14831.8686,W,16.04,291.09,250810,,,A*41
$GPRMC,000110.000,A,7022.1965,N,14831.9027,W,15.07,288.63,250810,,,A*49
$GPRMC,000113.000,A,7022.2004,N,14831.9359,W,14.09,289.34,250810,,,A*41
$GPRMC,000116.000,A,7022.2043,N,14831.9665,W,13.61,287.58,250810,,,A*40
$GPRMC,000119.000,A,7022.2088,N,14831.9913,W,12.15,292.50,250810,,,A*48
$GPRMC,000122.000,A,7022.2129,N,14832.0147,W,11.18,288.28,250810,,,A*43
$GPRMC,000125.000,A,7022.2162,N,14832.0347,W,9.23,293.91,250810,,,A*70
$GPRMC,000128.000,A,7022.2194,N,14832.0563,W,9.23,291.45,250810,,,A*7F
$GPRMC,000131.000,A,7022.2220,N,14832.0717,W,8.26,297.42,250810,,,A*7F
$GPRMC,000134.000,A,7022.2239,N,14832.0917,W,8.26,288.63,250810,,,A*71
$GPRMC,000137.000,A,7022.2261,N,14832.1116,W,8.26,296.72,250810,,,A*78
$GPRMC,000140.000,A,7022.2274,N,14832.1358,W,8.75,285.82,250810,,,A*7F
$GPRMC,000143.000,A,7022.2294,N,14832.1567,W,8.75,278.79,250810,,,A*7E
$GPRMC,000146.000,A,7022.2310,N,14832.1760,W,8.26,275.27,250810,,,A*73
$GPRMC,000149.000,A,7022.2297,N,14832.1940,W,7.78,255.23,250810,,,A*7C
$GPRMC,000152.000,A,7022.2261,N,14832.2182,W,8.75,242.58,250810,,,A*72
$GPRMC,000155.000,A,7022.2213,N,14832.2355,W,9.72,229.92,250810,,,A*75
$GPRMC,000158.000,A,7022.2158,N,14832.2545,W,9.72,229.92,250810,,,A*73
$GPRMC,000201.000,A,7022.2104,N,14832.2777,W,11.18,229.22,250810,,,A*48
$GPRMC,000204.000,A,7022.2052,N,14832.2990,W,10.21,231.33,250810,,,A*4A
$GPRMC,000207.000,A,7022.1981,N,14832.3247,W,11.66,233.79,250810,,,A*43
$GPRMC,000210.000,A,7022.1914,N,14832.3556,W,14.09,235.90,250810,,,A*43
$GPRMC,000213.000,A,7022.1843,N,14832.3852,W,14.58,233.44,250810,,,A*41
$GPRMC,000216.000,A,7022.1766,N,14832.4139,W,15.07,233.44,250810,,,A*44
$GPRMC,000219.000,A,7022.1689,N,14832.4399,W,14.58,232.38,250810,,,A*42
$GPRMC,000222.000,A,7022.1614,N,14832.4666,W,14.58,232.03,250810,,,A*43
$GPRMC,000225.000,A,7022.1540,N,14832.4966,W,14.09,232.73,250810,,,A*4A
$GPRMC,000228.000,A,7022.1476,N,14832.5249,W,13.12,233.09,250810,,,A*45
$GPRMC,000231.000,A,7022.1402,N,14832.5542,W,15.07,231.33,250810,,,A*4B
$GPRMC,000234.000,A,7022.1280,N,14832.5957,W,21.38,228.52,250810,,,A*4E
$GPRMC,000237.000,A,7022.1138,N,14832.6514,W,26.73,230.27,250810,,,A*46
$GPRMC,000240.000,A,7022.0984,N,14832.7071,W,30.13,232.38,250810,,,A*42
$GPRMC,000243.000,A,7022.0836,N,14832.7673,W,30.62,232.73,250810,,,A*44
$GPRMC,000246.000,A,7022.0681,N,14832.8275,W,30.62,232.03,250810,,,A*49
$GPRMC,000249.000,A,7022.0539,N,14832.8899,W,30.13,233.79,250810,,,A*44
$GPRMC,000252.000,A,7022.0388,N,14832.9527,W,32.07,232.73,250810,,,A*47
$GPRMC,000255.000,A,7022.0214,N,14833.0170,W,32.07,232.73,250810,,,A*4A
$GPRMC,000258.000,A,7022.0066,N,14833.0788,W,31.59,233.44,250810,,,A*4C
$GPRMC,000301.000,A,7021.9915,N,14833.1422,W,31.59,233.44,250810,,,A*44
$GPRMC,000304.000,A,7021.9741,N,14833.2105,W,32.56,232.73,250810,,,A*44
$GPRMC,000307.000,A,7021.9574,N,14833.2768,W,33.53,233.09,250810,,,A*46
$GPRMC,000310.000,A,7021.9413,N,14833.3450,W,32.07,234.14,250810,,,A*42
$GPRMC,000313.000,A,7021.9258,N,14833.4075,W,33.05,233.44,250810,,,A*4D
$GPRMC,000316.000,A,7021.9088,N,14833.4738,W,33.05,232.03,250810,,,A*4B
$GPRMC,000319.000,A,7021.8924,N,14833.5378,W,32.56,232.38,250810,,,A*44
$GPRMC,000322.000,A,7021.8753,N,14833.6006,W,32.56,233.09,250810,,,A*48
$GPRMC,000325.000,A,7021.8599,N,14833.6624,W,31.59,233.09,250810,,,A*41
$GPRMC,000328.000,A,7021.8438,N,14833.7287,W,32.56,233.44,250810,,,A*4F
$GPRMC,000332.000,A,7021.8216,N,14833.8137,W,32.56,232.38,250810,,,A*43
$GPRMC,000335.000,A,7021.8055,N,14833.8774,W,33.05,232.03,250810,,,A*4F
$GPRMC,000338.000,A,7021.7891,N,14833.9424,W,33.05,232.73,250810,,,A*4D
$GPRMC,000341.000,A,7021.7730,N,14834.0077,W,32.56,234.84,250810,,,A*42
$GPRMC,000344.000,A,7021.7582,N,14834.0740,W,32.07,234.49,250810,,,A*4A
$GPRMC,000347.000,A,7021.7424,N,14834.1384,W,31.59,233.44,250810,,,A*4B
$GPRMC,000350.000,A,7021.7273,N,14834.2015,W,31.10,234.14,250810,,,A*4E
$GPRMC,000353.000,A,7021.7118,N,14834.2662,W,31.59,234.84,250810,,,A*41
$GPRMC,000356.000,A,7021.6970,N,14834.3319,W,31.59,235.20,250810,,,A*44
$GPRMC,000359.000,A,7021.6828,N,14834.3937,W,30.62,236.60,250810,,,A*4F
$GPRMC,000402.000,A,7021.6674,N,14834.4600,W,31.59,235.90,250810,,,A*48
$GPRMC,000405.000,A,7021.6526,N,14834.5237,W,30.13,234.49,250810,,,A*40
$GPRMC,000408.000,A,7021.6381,N,14834.5848,W,30.13,235.20,250810,,,A*4A
$GPRMC,000411.000,A,7021.6233,N,14834.6457,W,30.13,235.55,250810,,,A*49
$GPRMC,000414.000,A,7021.6085,N,14834.7046,W,30.13,234.14,250810,,,A*42
$GPRMC,000417.000,A,7021.5943,N,14834.7648,W,29.65,234.14,250810,,,A*40
$GPRMC,000420.000,A,7021.5808,N,14834.8237,W,28.67,235.90,250810,,,A*47
$GPRMC,000423.000,A,7021.5673,N,14834.8851,W,29.16,235.20,250810,,,A*40
$GPRMC,000426.000,A,7021.5528,N,14834.9447,W,29.16,233.79,250810,,,A*48
$GPRMC,000429.000,A,7021.5393,N,14835.0065,W,30.13,235.20,250810,,,A*4A
$GPRMC,000432.000,A,7021.5254,N,14835.0705,W,29.65,235.55,250810,,,A*40
$GPRMC,000435.000,A,7021.5100,N,14835.1330,W,31.59,234.84,250810,,,A*4D
$GPRMC,000438.000,A,7021.4949,N,14835.1948,W,30.62,233.79,250810,,,A*4D
$GPRMC,000441.000,A,7021.4797,N,14835.2562,W,31.10,235.55,250810,,,A*45
$GPRMC,000444.000,A,7021.4659,N,14835.3171,W,30.13,235.55,250810,,,A*46
$GPRMC,000447.000,A,7021.4521,N,14835.3792,W,31.10,236.25,250810,,,A*44
$GPRMC,000450.000,A,7021.4363,N,14835.4462,W,32.07,234.14,250810,,,A*4C
$GPRMC,000453.000,A,7021.4218,N,14835.5089,W,32.07,235.20,250810,,,A*44
$GPRMC,000456.000,A,7021.4086,N,14835.5697,W,32.07,234.84,250810,,,A*42
$GPRMC,000459.000,A,7021.3935,N,14835.6325,W,32.07,235.55,250810,,,A*49
$GPRMC,000502.000,A,7021.3784,N,14835.6966,W,32.07,234.84,250810,,,A*42
$GPRMC,000505.000,A,7021.3629,N,14835.7629,W,32.07,235.20,250810,,,A*49
$GPRMC,000508.000,A,7021.3475,N,14835.8276,W,32.56,234.49,250810,,,A*44
$GPRMC,000511.000,A,7021.3320,N,14835.8919,W,32.56,235.20,250810,,,A*47
$GPRMC,000514.000,A,7021.3159,N,14835.9566,W,32.56,234.49,250810,,,A*45
$GPRMC,000517.000,A,7021.3008,N,14836.0220,W,32.56,234.84,250810,,,A*4D
$GPRMC,000520.000,A,7021.2857,N,14836.0873,W,32.56,235.20,250810,,,A*49
$GPRMC,000523.000,A,7021.2699,N,14836.1520,W,32.56,234.14,250810,,,A*4A
$GPRMC,000525.000,A,7021.2596,N,14836.1945,W,32.07,233.79,250810,,,A*47
$GPRMC,000529.000,A,7021.2377,N,14836.2775,W,32.07,231.68,250810,,,A*4E
$GPRMC,000532.000,A,7021.2210,N,14836.3393,W,32.56,230.98,250810,,,A*43
$GPRMC,000535.000,A,7021.2049,N,14836.3982,W,31.10,230.62,250810,,,A*44
$GPRMC,000538.000,A,7021.1881,N,14836.4536,W,30.62,227.46,250810,,,A*46
$GPRMC,000541.000,A,7021.1656,N,14836.4961,W,31.59,215.86,250810,,,A*46
$GPRMC,000545.000,A,7021.1337,N,14836.5357,W,30.13,201.09,250810,,,A*43
$GPRMC,000548.000,A,7021.1080,N,14836.5598,W,32.56,197.93,250810,,,A*48
$GPRMC,000551.000,A,7021.0803,N,14836.5817,W,33.53,195.12,250810,,,A*47
$GPRMC,000554.000,A,7021.0520,N,14836.6033,W,34.99,193.36,250810,,,A*42
$GPRMC,000557.000,A,7021.0246,N,14836.6155,W,34.99,191.60,250810,,,A*46
$GPRMC,000600.000,A,7020.9966,N,14836.6303,W,34.02,190.90,250810,,,A*4B
$GPRMC,000603.000,A,7020.9683,N,14836.6474,W,34.02,190.55,250810,,,A*42
$GPRMC,000606.000,A,7020.9368,N,14836.6586,W,34.02,190.20,250810,,,A*49
$GPRMC,000609.000,A,7020.9091,N,14836.6763,W,34.02,190.20,250810,,,A*4A
$GPRMC,000612.000,A,7020.8817,N,14836.6895,W,34.02,190.55,250810,,,A*43
$GPRMC,000615.000,A,7020.8540,N,14836.7050,W,34.02,190.90,250810,,,A*42
$GPRMC,000618.000,A,7020.8264,N,14836.7201,W,33.53,190.55,250810,,,A*42
$GPRMC,000621.000,A,7020.7993,N,14836.7323,W,33.05,189.49,250810,,,A*43
$GPRMC,000624.000,A,7020.7726,N,14836.7458,W,32.56,190.20,250810,,,A*4D
$GPRMC,000627.000,A,7020.7462,N,14836.7623,W,32.56,190.90,250810,,,A*48
$GPRMC,000630.000,A,7020.7205,N,14836.7751,W,32.07,191.25,250810,,,A*46
$GPRMC,000633.000,A,7020.6947,N,14836.7906,W,31.10,190.55,250810,,,A*46
$GPRMC,000636.000,A,7020.6686,N,14836.8067,W,32.07,190.55,250810,,,A*45
$GPRMC,000639.000,A,7020.6419,N,14836.8186,W,32.56,190.20,250810,,,A*46
$GPRMC,000642.000,A,7020.6175,N,14836.8337,W,31.59,190.55,250810,,,A*43
$GPRMC,000645.000,A,7020.5911,N,14836.8485,W,31.59,190.90,250810,,,A*4A
$GPRMC,000648.000,A,7020.5660,N,14836.8640,W,31.10,191.25,250810,,,A*47
$GPRMC,000651.000,A,7020.5421,N,14836.8820,W,30.62,194.06,250810,,,A*40
$GPRMC,000654.000,A,7020.5228,N,14836.9126,W,28.19,204.61,250810,,,A*4A
$GPRMC,000657.000,A,7020.5013,N,14836.9499,W,29.65,210.94,250810,,,A*47
$GPRMC,000658.000,A,7020.4952,N,14836.9654,W,29.16,214.80,250810,,,A*43
$GPRMC,000703.000,A,7020.4652,N,14837.0510,W,29.65,227.46,250810,,,A*46
$GPRMC,000706.000,A,7020.4501,N,14837.1186,W,31.10,232.73,250810,,,A*45
$GPRMC,000709.000,A,7020.4363,N,14837.1858,W,31.59,235.55,250810,,,A*4C
$GPRMC,000712.000,A,7020.4205,N,14837.2525,W,33.05,236.60,250810,,,A*4D
$GPRMC,000715.000,A,7020.4060,N,14837.3197,W,32.07,236.25,250810,,,A*45
$GPRMC,000718.000,A,7020.3918,N,14837.3815,W,32.07,234.49,250810,,,A*42
$GPRMC,000721.000,A,7020.3770,N,14837.4510,W,32.07,235.90,250810,,,A*42
$GPRMC,000724.000,A,7020.3609,N,14837.5196,W,33.05,235.55,250810,,,A*49
$GPRMC,000727.000,A,7020.3455,N,14837.5875,W,32.07,235.55,250810,,,A*46
$GPRMC,000729.000,A,7020.3355,N,14837.6300,W,31.59,235.90,250810,,,A*44
$GPRMC,000734.000,A,7020.3127,N,14837.7398,W,30.62,237.66,250810,,,A*4D
$GPRMC,000737.000,A,7020.2985,N,14837.8321,W,32.56,235.55,250810,,,A*45
$GPRMC,000742.000,A,7020.2708,N,14837.9232,W,33.53,235.55,250810,,,A*4A
$GPRMC,000745.000,A,7020.2538,N,14837.9924,W,34.99,234.49,250810,,,A*4D
$GPRMC,000748.000,A,7020.2338,N,14838.0642,W,36.93,231.33,250810,,,A*4F
$GPRMC,000751.000,A,7020.2151,N,14838.1350,W,35.96,230.98,250810,,,A*4B
$GPRMC,000754.000,A,7020.2016,N,14838.1939,W,33.06,235.55,250810,,,A*42
$GPRMC,000757.000,A,7020.1903,N,14838.2531,W,30.62,241.17,250810,,,A*4C
$GPRMC,000759.000,A,7020.1858,N,14838.2982,W,30.13,247.85,250810,,,A*42
$GPRMC,000801.000,A,7020.1791,N,14838.3529,W,31.59,253.12,250810,,,A*42
$GPRMC,000805.000,A,7020.1730,N,14838.4569,W,31.59,263.32,250810,,,A*4F
$GPRMC,000808.000,A,7020.1794,N,14838.5357,W,30.13,271.76,250810,,,A*4A
$GPRMC,000812.000,A,7020.1823,N,14838.6201,W,23.33,271.76,250810,,,A*43
$GPRMC,000814.000,A,7020.1826,N,14838.6561,W,19.44,271.41,250810,,,A*4C
$GPRMC,000818.000,A,7020.1833,N,14838.7060,W,13.12,271.41,250810,,,A*48
$GPRMC,000822.000,A,7020.1836,N,14838.7449,W,10.69,271.05,250810,,,A*44
$GPRMC,000826.000,A,7020.1836,N,14838.7768,W,8.75,271.05,250810,,,A*74
$GPRMC,000828.000,A,7020.1836,N,14838.7897,W,8.26,267.89,250810,,,A*70
$GPRMC,000845.000,A,7020.1846,N,14838.8257,W,3.89,271.41,250810,,,A*78
$GPRMC,000848.000,A,7020.1849,N,14838.8364,W,4.37,271.05,250810,,,A*79
$GPRMC,000851.000,A,7020.1852,N,14838.8467,W,4.37,270.70,250810,,,A*7C
$GPRMC,000858.000,A,7020.1855,N,14838.8685,W,4.37,268.95,250810,,,A*7E
$GPRMC,000908.000,A,7020.1862,N,14838.9027,W,3.89,274.22,250810,,,A*72
$GPRMC,000911.000,A,7020.1858,N,14838.9130,W,4.37,272.81,250810,,,A*79
$GPRMC,000914.000,A,7020.1862,N,14838.9262,W,5.35,274.57,250810,,,A*7F
$GPRMC,000917.000,A,7020.1862,N,14838.9426,W,6.80,270.00,250810,,,A*71
$GPRMC,000920.000,A,7020.1858,N,14838.9612,W,7.78,269.65,250810,,,A*74
$GPRMC,000923.000,A,7020.1858,N,14838.9838,W,8.75,271.76,250810,,,A*78
$GPRMC,000926.000,A,7020.1852,N,14839.0047,W,8.75,268.95,250810,,,A*7A
$GPRMC,000929.000,A,7020.1852,N,14839.0263,W,8.26,271.05,250810,,,A*76
$GPRMC,000931.000,A,7020.1855,N,14839.0375,W,7.29,271.41,250810,,,A*7E
$GPRMC,000935.000,A,7020.1855,N,14839.0565,W,6.32,269.65,250810,,,A*79
$GPRMC,000938.000,A,7020.1855,N,14839.0732,W,5.83,272.46,250810,,,A*76
$GPRMC,000941.000,A,7020.1862,N,14839.0835,W,4.86,271.76,250810,,,A*70
$GPRMC,000944.000,A,7020.1862,N,14839.0955,W,4.86,276.68,250810,,,A*7A
$GPRMC,000947.000,A,7020.1862,N,14839.1058,W,5.35,270.70,250810,,,A*7A
$GPRMC,000950.000,A,7020.1865,N,14839.1212,W,6.32,270.35,250810,,,A*72
$GPRMC,000953.000,A,7020.1862,N,14839.1399,W,8.26,268.95,250810,,,A*7C
$GPRMC,000956.000,A,7020.1852,N,14839.1730,W,14.09,268.24,250810,,,A*47
$GPRMC,000959.000,A,7020.1865,N,14839.2245,W,21.87,271.76,250810,,,A*47
$GPRMC,001002.000,A,7020.1878,N,14839.2966,W,30.13,271.41,250810,,,A*4E
$GPRMC,001005.000,A,7020.1878,N,14839.3787,W,34.50,270.00,250810,,,A*4E
$GPRMC,001008.000,A,7020.1887,N,14839.4666,W,34.99,271.76,250810,,,A*4F
$GPRMC,001011.000,A,7020.1897,N,14839.5515,W,34.02,271.76,250810,,,A*42
$GPRMC,001014.000,A,7020.1897,N,14839.6336,W,33.05,270.70,250810,,,A*44
$GPRMC,001016.000,A,7020.1900,N,14839.6874,W,32.56,271.05,250810,,,A*40
$GPRMC,001020.000,A,7020.1913,N,14839.7923,W,31.59,271.76,250810,,,A*4D
$GPRMC,001027.000,A,7020.1920,N,14839.9722,W,29.65,271.76,250810,,,A*4D
$GPRMC,001030.000,A,7020.1926,N,14840.0437,W,29.16,272.11,250810,,,A*4B
$GPRMC,001033.000,A,7020.1942,N,14840.1145,W,28.19,270.70,250810,,,A*40
$GPRMC,001036.000,A,7020.1955,N,14840.1824,W,28.19,271.76,250810,,,A*4A
$GPRMC,001039.000,A,7020.1961,N,14840.2542,W,28.19,273.16,250810,,,A*48
$GPRMC,001042.000,A,7020.1974,N,14840.3218,W,27.70,273.52,250810,,,A*49
$GPRMC,001045.000,A,7020.1984,N,14840.3894,W,27.22,270.35,250810,,,A*4A
$GPRMC,001048.000,A,7020.1949,N,14840.4521,W,26.73,257.34,250810,,,A*43
$GPRMC,001051.000,A,7020.1862,N,14840.5181,W,28.19,243.28,250810,,,A*46
$GPRMC,001054.000,A,7020.1736,N,14840.5812,W,28.67,239.77,250810,,,A*40
$GPRMC,001057.000,A,7020.1601,N,14840.6439,W,29.65,238.01,250810,,,A*43
$GPRMC,001100.000,A,7020.1472,N,14840.7067,W,29.65,237.66,250810,,,A*46
$GPRMC,001103.000,A,7020.1337,N,14840.7733,W,31.10,238.36,250810,,,A*44
$GPRMC,001105.000,A,7020.1240,N,14840.8165,W,31.59,237.66,250810,,,A*4E
$GPRMC,001107.000,A,7020.1147,N,14840.8599,W,31.10,237.66,250810,,,A*42
$GPRMC,001113.000,A,7020.0877,N,14840.9874,W,30.13,237.30,250810,,,A*42
$GPRMC,001116.000,A,7020.0742,N,14841.0460,W,29.65,236.95,250810,,,A*48
$GPRMC,001119.000,A,7020.0606,N,14841.1094,W,30.62,236.95,250810,,,A*47
$GPRMC,001122.000,A,7020.0468,N,14841.1705,W,31.10,238.01,250810,,,A*4D
$GPRMC,001125.000,A,7020.0323,N,14841.2404,W,32.56,237.66,250810,,,A*4C
$GPRMC,001128.000,A,7020.0169,N,14841.3099,W,32.07,237.30,250810,,,A*4B
$GPRMC,001131.000,A,7020.0014,N,14841.3817,W,32.07,238.01,250810,,,A*4B
$GPRMC,001134.000,A,7019.9866,N,14841.4493,W,32.07,237.66,250810,,,A*49
$GPRMC,001137.000,A,7019.9721,N,14841.5172,W,32.07,238.01,250810,,,A*43
$GPRMC,001140.000,A,7019.9580,N,14841.5864,W,32.07,238.71,250810,,,A*43
$GPRMC,001143.000,A,7019.9441,N,14841.6598,W,32.56,239.06,250810,,,A*44
$GPRMC,001145.000,A,7019.9338,N,14841.7064,W,33.05,238.36,250810,,,A*49
$GPRMC,001150.000,A,7019.9097,N,14841.8236,W,33.53,238.01,250810,,,A*46
$GPRMC,001153.000,A,7019.8952,N,14841.8950,W,33.53,237.66,250810,,,A*41
$GPRMC,001156.000,A,7019.8814,N,14841.9710,W,33.53,238.71,250810,,,A*45
$GPRMC,001159.000,A,7019.8669,N,14842.0412,W,33.53,238.36,250810,,,A*46
$GPRMC,001202.000,A,7019.8521,N,14842.1136,W,33.53,238.36,250810,,,A*46
$GPRMC,001205.000,A,7019.8340,N,14842.1603,W,32.56,235.90,250810,,,A*44
$GPRMC,001208.000,A,7019.8189,N,14842.2282,W,32.56,236.25,250810,,,A*4D
$GPRMC,001211.000,A,7019.8048,N,14842.2942,W,32.56,236.95,250810,,,A*45
$GPRMC,001214.000,A,7019.7903,N,14842.3695,W,33.53,238.01,250810,,,A*4A
$GPRMC,001216.000,A,7019.7809,N,14842.4168,W,33.05,237.30,250810,,,A*4F
$GPRMC,001220.000,A,7019.7594,N,14842.5018,W,32.07,234.14,250810,,,A*42
$GPRMC,001223.000,A,7019.7442,N,14842.5658,W,34.99,232.03,250810,,,A*48
$GPRMC,001226.000,A,7019.7307,N,14842.6324,W,33.06,236.60,250810,,,A*46
$GPRMC,001229.000,A,7019.7159,N,14842.7026,W,33.05,237.66,250810,,,A*44
$GPRMC,001232.000,A,7019.7024,N,14842.7689,W,33.05,238.01,250810,,,A*48
$GPRMC,001235.000,A,7019.6886,N,14842.8359,W,32.56,237.66,250810,,,A*40
$GPRMC,001238.000,A,7019.6741,N,14842.9047,W,33.53,236.60,250810,,,A*47
$GPRMC,001241.000,A,7019.6586,N,14842.9707,W,32.56,234.49,250810,,,A*4E
$GPRMC,001243.000,A,7019.6467,N,14843.0077,W,32.56,228.16,250810,,,A*4D
$GPRMC,001249.000,A,7019.6033,N,14843.1201,W,33.53,216.21,250810,,,A*4D
$GPRMC,001252.000,A,7019.5804,N,14843.1677,W,33.05,215.51,250810,,,A*4A
$GPRMC,001255.000,A,7019.5585,N,14843.2131,W,32.56,215.16,250810,,,A*4B
$GPRMC,001258.000,A,7019.5363,N,14843.2623,W,32.56,215.16,250810,,,A*4C
$GPRMC,001301.000,A,7019.5141,N,14843.3096,W,33.05,215.86,250810,,,A*44
$GPRMC,001304.000,A,7019.4922,N,14843.3553,W,33.05,215.86,250810,,,A*41
$GPRMC,001307.000,A,7019.4710,N,14843.4020,W,32.56,216.56,250810,,,A*42
$GPRMC,001310.000,A,7019.4494,N,14843.4455,W,32.56,215.51,250810,,,A*49
$GPRMC,001313.000,A,7019.4275,N,14843.4912,W,32.56,215.16,250810,,,A*4E
$GPRMC,001316.000,A,7019.4040,N,14843.5404,W,33.53,215.16,250810,,,A*40
$GPRMC,001319.000,A,7019.3809,N,14843.5871,W,33.53,214.80,250810,,,A*4D
$GPRMC,001322.000,A,7019.3583,N,14843.6338,W,33.53,215.51,250810,,,A*42
$GPRMC,001325.000,A,7019.3358,N,14843.6843,W,34.02,216.56,250810,,,A*45
$GPRMC,001327.000,A,7019.3207,N,14843.7162,W,33.53,215.86,250810,,,A*4A
$GPRMC,001331.000,A,7019.2911,N,14843.7763,W,32.56,215.16,250810,,,A*4A
$GPRMC,001334.000,A,7019.2685,N,14843.8249,W,33.53,216.21,250810,,,A*4C
$GPRMC,001337.000,A,7019.2466,N,14843.8726,W,33.05,215.86,250810,,,A*41
$GPRMC,001340.000,A,7019.2244,N,14843.9221,W,34.02,215.51,250810,,,A*4E
$GPRMC,001343.000,A,7019.2013,N,14843.9704,W,34.99,215.86,250810,,,A*47
$GPRMC,001346.000,A,7019.1778,N,14844.0190,W,34.50,215.16,250810,,,A*42
$GPRMC,001349.000,A,7019.1533,N,14844.0680,W,34.99,215.16,250810,,,A*43
$GPRMC,001352.000,A,7019.1298,N,14844.1188,W,35.96,215.86,250810,,,A*46
$GPRMC,001355.000,A,7019.1050,N,14844.1716,W,35.48,216.21,250810,,,A*4B
$GPRMC,001358.000,A,7019.0818,N,14844.2195,W,34.02,216.21,250810,,,A*42
$GPRMC,001401.000,A,7019.0600,N,14844.2698,W,32.56,217.97,250810,,,A*4F
$GPRMC,001404.000,A,7019.0413,N,14844.3193,W,30.62,223.59,250810,,,A*47
$GPRMC,001407.000,A,7019.0255,N,14844.3728,W,28.19,230.62,250810,,,A*49
$GPRMC,001410.000,A,7019.0136,N,14844.4278,W,26.73,245.04,250810,,,A*4E
$GPRMC,001413.000,A,7019.0094,N,14844.4867,W,24.30,255.59,250810,,,A*4C
$GPRMC,001416.000,A,7019.0065,N,14844.5337,W,17.50,258.05,250810,,,A*4A
$GPRMC,001417.000,A,7019.0056,N,14844.5456,W,14.09,258.40,250810,,,A*45
$GPRMC,001422.000,A,7019.0052,N,14844.5697,W,5.83,273.52,250810,,,A*70
$GPRMC,001425.000,A,7019.0094,N,14844.5855,W,9.72,321.33,250810,,,A*7E
$GPRMC,001428.000,A,7019.0191,N,14844.5907,W,15.55,348.40,250810,,,A*42
$GPRMC,001431.000,A,7019.0365,N,14844.5965,W,24.30,352.97,250810,,,A*47
$GPRMC,001434.000,A,7019.0625,N,14844.6077,W,32.07,351.21,250810,,,A*47
$GPRMC,001437.000,A,7019.0896,N,14844.6183,W,31.59,350.51,250810,,,A*46
$GPRMC,001441.000,A,7019.1259,N,14844.6354,W,31.59,350.16,250810,,,A*44
$GPRMC,001444.000,A,7019.1520,N,14844.6457,W,31.59,349.80,250810,,,A*4B
$GPRMC,001447.000,A,7019.1784,N,14844.6576,W,32.07,350.86,250810,,,A*40
$GPRMC,001450.000,A,7019.2042,N,14844.6718,W,32.07,350.16,250810,,,A*4B
$GPRMC,001453.000,A,7019.2299,N,14844.6846,W,32.07,350.16,250810,,,A*48
$GPRMC,001456.000,A,7019.2569,N,14844.7001,W,32.07,350.51,250810,,,A*4C
$GPRMC,001459.000,A,7019.2837,N,14844.7139,W,32.07,349.80,250810,,,A*4B
$GPRMC,001502.000,A,7019.3094,N,14844.7265,W,31.59,349.80,250810,,,A*46
$GPRMC,001506.000,A,7019.3426,N,14844.7477,W,31.59,349.10,250810,,,A*43
$GPRMC,001509.000,A,7019.3683,N,14844.7603,W,30.62,351.56,250810,,,A*42
$GPRMC,001512.000,A,7019.3934,N,14844.7722,W,30.13,350.86,250810,,,A*43
$GPRMC,001515.000,A,7019.4163,N,14844.7905,W,28.67,345.94,250810,,,A*4F
$GPRMC,001517.000,A,7019.4307,N,14844.8076,W,28.19,342.77,250810,,,A*4C
$GPRMC,001522.000,A,7019.4649,N,14844.8601,W,28.19,326.60,250810,,,A*47
$GPRMC,001525.000,A,7019.4842,N,14844.9025,W,29.16,320.62,250810,,,A*4E
$GPRMC,001528.000,A,7019.5025,N,14844.9466,W,28.67,319.92,250810,,,A*4A
$GPRMC,001531.000,A,7019.5209,N,14844.9888,W,27.22,319.92,250810,,,A*4C
$GPRMC,001536.000,A,7019.5476,N,14845.0580,W,24.30,319.92,250810,,,A*48
$GPRMC,001539.000,A,7019.5614,N,14845.0912,W,18.47,319.22,250810,,,A*42
$GPRMC,001542.000,A,7019.5704,N,14845.1179,W,13.61,310.08,250810,,,A*44
$GPRMC,001545.000,A,7019.5720,N,14845.1443,W,10.69,271.76,250810,,,A*4D
$GPRMC,001548.000,A,7019.5669,N,14845.1758,W,15.07,236.25,250810,,,A*4D
$GPRMC,001551.000,A,7019.5556,N,14845.2151,W,21.87,228.87,250810,,,A*4E
$GPRMC,001554.000,A,7019.5411,N,14845.2643,W,27.70,228.52,250810,,,A*4B
$GPRMC,001557.000,A,7019.5241,N,14845.3239,W,32.56,229.57,250810,,,A*47
$GPRMC,001600.000,A,7019.5051,N,14845.3876,W,34.50,229.22,250810,,,A*46
$GPRMC,001603.000,A,7019.4861,N,14845.4523,W,34.50,229.22,250810,,,A*45
$GPRMC,001606.000,A,7019.4678,N,14845.5208,W,35.48,229.57,250810,,,A*43
$GPRMC,001609.000,A,7019.4491,N,14845.5843,W,34.99,229.92,250810,,,A*48
$GPRMC,001612.000,A,7019.4307,N,14845.6518,W,34.50,230.62,250810,,,A*48
$GPRMC,001615.000,A,7019.4134,N,14845.7162,W,33.53,230.27,250810,,,A*40
$GPRMC,001618.000,A,7019.3953,N,14845.7796,W,33.05,230.27,250810,,,A*4D
$GPRMC,001621.000,A,7019.3773,N,14845.8398,W,32.56,229.92,250810,,,A*4F
$GPRMC,001624.000,A,7019.3596,N,14845.9023,W,32.07,230.27,250810,,,A*43
$GPRMC,001626.000,A,7019.3480,N,14845.9406,W,30.13,229.92,250810,,,A*45
$GPRMC,001631.000,A,7019.3223,N,14846.0323,W,28.67,231.33,250810,,,A*4E
$GPRMC,001634.000,A,7019.3071,N,14846.0844,W,27.23,228.87,250810,,,A*4C
$GPRMC,001636.000,A,7019.2978,N,14846.1189,W,25.78,230.62,250810,,,A*48
$GPRMC,001641.000,A,7019.2782,N,14846.1958,W,21.38,233.44,250810,,,A*40
$GPRMC,001644.000,A,7019.2708,N,14846.2306,W,13.61,240.47,250810,,,A*4F
$GPRMC,001649.000,A,7019.2685,N,14846.2537,W,6.32,258.75,250810,,,A*78
$GPRMC,001652.000,A,7019.2701,N,14846.2734,W,9.72,290.39,250810,,,A*79
$GPRMC,001658.000,A,7019.2885,N,14846.3284,W,18.95,316.41,250810,,,A*46
$GPRMC,001701.000,A,7019.2981,N,14846.3735,W,21.87,300.23,250810,,,A*4B
$GPRMC,001704.000,A,7019.3049,N,14846.4266,W,23.33,288.28,250810,,,A*41
$GPRMC,001707.000,A,7019.3052,N,14846.4845,W,23.33,270.70,250810,,,A*49
$GPRMC,001710.000,A,7019.2997,N,14846.5602,W,30.13,259.80,250810,,,A*46
$GPRMC,001713.000,A,7019.2840,N,14846.6541,W,36.45,251.37,250810,,,A*48
$GPRMC,001716.000,A,7019.2724,N,14846.7529,W,37.42,253.83,250810,,,A*44
$GPRMC,001719.000,A,7019.2637,N,14846.8424,W,37.42,255.23,250810,,,A*47
$GPRMC,001722.000,A,7019.2569,N,14846.9325,W,36.93,259.10,250810,,,A*41
$GPRMC,001725.000,A,7019.2547,N,14847.0201,W,35.96,268.59,250810,,,A*4C
$GPRMC,001728.000,A,7019.2592,N,14847.1073,W,36.45,283.01,250810,,,A*4A
$GPRMC,001731.000,A,7019.2708,N,14847.1897,W,36.45,294.26,250810,,,A*42
$GPRMC,001734.000,A,7019.2853,N,14847.2692,W,35.96,299.53,250810,,,A*4C
$GPRMC,001737.000,A,7019.2997,N,14847.3445,W,35.48,297.77,250810,,,A*44
$GPRMC,001740.000,A,7019.3142,N,14847.4221,W,35.96,296.72,250810,,,A*41
$GPRMC,001744.000,A,7019.3329,N,14847.5290,W,36.45,297.77,250810,,,A*48
$GPRMC,001748.000,A,7019.3516,N,14847.6361,W,35.96,297.77,250810,,,A*4F
$GPRMC,001751.000,A,7019.3654,N,14847.7160,W,35.96,296.37,250810,,,A*45
$GPRMC,001754.000,A,7019.3796,N,14847.7932,W,35.48,298.48,250810,,,A*45
$GPRMC,001757.000,A,7019.3944,N,14847.8672,W,35.48,297.77,250810,,,A*40
$GPRMC,001800.000,A,7019.4082,N,14847.9381,W,33.53,299.88,250810,,,A*43
$GPRMC,001804.000,A,7019.4288,N,14848.0250,W,33.05,311.84,250810,,,A*4A
$GPRMC,001807.000,A,7019.4504,N,14848.0617,W,32.07,332.93,250810,,,A*49
$GPRMC,001810.000,A,7019.4745,N,14848.0893,W,31.59,342.42,250810,,,A*49
$GPRMC,001813.000,A,7019.5006,N,14848.1125,W,32.07,343.48,250810,,,A*4D
$GPRMC,001816.000,A,7019.5263,N,14848.1341,W,32.07,343.48,250810,,,A*49
$GPRMC,001819.000,A,7019.5527,N,14848.1556,W,32.07,344.53,250810,,,A*4C
$GPRMC,001823.000,A,7019.5843,N,14848.1872,W,31.10,344.18,250810,,,A*4B
$GPRMC,001826.000,A,7019.6084,N,14848.2100,W,30.62,343.83,250810,,,A*40
$GPRMC,001829.000,A,7019.6332,N,14848.2335,W,31.10,343.83,250810,,,A*41
$GPRMC,001832.000,A,7019.6580,N,14848.2583,W,31.10,341.02,250810,,,A*44
$GPRMC,001835.000,A,7019.6789,N,14848.2825,W,28.19,336.80,250810,,,A*42
$GPRMC,001839.000,A,7019.7037,N,14848.3323,W,26.24,322.38,250810,,,A*47
$GPRMC,001842.000,A,7019.7185,N,14848.3713,W,23.33,318.16,250810,,,A*42
$GPRMC,001845.000,A,7019.7304,N,14848.4244,W,24.30,310.08,250810,,,A*4D
$GPRMC,001848.000,A,7019.7288,N,14848.5100,W,25.76,284.77,250810,,,A*40
$GPRMC,001851.000,A,7019.7307,N,14848.5782,W,26.24,277.38,250810,,,A*41
$GPRMC,001854.000,A,7019.7343,N,14848.6391,W,25.27,277.73,250810,,,A*4E
$GPRMC,001857.000,A,7019.7336,N,14848.7247,W,29.16,273.16,250810,,,A*4D
$GPRMC,001900.000,A,7019.7333,N,14848.8055,W,30.13,273.87,250810,,,A*40
$GPRMC,001903.000,A,7019.7330,N,14848.8908,W,31.59,273.87,250810,,,A*4E
$GPRMC,001907.000,A,7019.7368,N,14849.0025,W,32.56,275.27,250810,,,A*48
$GPRMC,001910.000,A,7019.7391,N,14849.0820,W,33.05,275.27,250810,,,A*42
$GPRMC,001913.000,A,7019.7394,N,14849.1608,W,32.07,272.81,250810,,,A*49
$GPRMC,001916.000,A,7019.7420,N,14849.2403,W,32.07,276.33,250810,,,A*43
$GPRMC,001919.000,A,7019.7439,N,14849.3182,W,32.07,274.22,250810,,,A*4B
$GPRMC,001920.000,A,7019.7446,N,14849.3446,W,32.07,274.57,250810,,,A*46
$GPRMC,001930.000,A,7019.7500,N,14849.6066,W,31.59,274.92,250810,,,A*46
$GPRMC,001932.000,A,7019.7510,N,14849.6568,W,31.59,274.57,250810,,,A*47
$GPRMC,001935.000,A,7019.7526,N,14849.7431,W,31.59,273.52,250810,,,A*4B
$GPRMC,001940.000,A,7019.7549,N,14849.8773,W,32.56,270.70,250810,,,A*45
$GPRMC,001941.000,A,7019.7545,N,14849.9043,W,32.09,269.30,250810,,,A*4B
$GPRMC,001946.000,A,7019.7494,N,14850.0299,W,30.13,253.83,250810,,,A*4D
$GPRMC,001952.000,A,7019.7288,N,14850.1596,W,29.16,240.12,250810,,,A*4D
$GPRMC,001955.000,A,7019.7143,N,14850.2233,W,30.62,236.95,250810,,,A*40
$GPRMC,001958.000,A,7019.7014,N,14850.2896,W,31.10,239.41,250810,,,A*49
$GPRMC,002001.000,A,7019.6898,N,14850.3514,W,30.62,241.88,250810,,,A*4A
$GPRMC,002004.000,A,7019.6766,N,14850.4241,W,31.10,243.98,250810,,,A*46
$GPRMC,002007.000,A,7019.6673,N,14850.4962,W,30.13,249.26,250810,,,A*47
$GPRMC,002010.000,A,7019.6596,N,14850.5683,W,30.13,254.53,250810,,,A*46
$GPRMC,002013.000,A,7019.6544,N,14850.6430,W,29.65,258.75,250810,,,A*42
$GPRMC,002016.000,A,7019.6512,N,14850.7154,W,30.62,263.67,250810,,,A*46
$GPRMC,002019.000,A,7019.6477,N,14850.7969,W,31.59,264.73,250810,,,A*46
$GPRMC,002022.000,A,7019.6461,N,14850.8677,W,29.65,267.19,250810,,,A*4F
$GPRMC,002025.000,A,7019.6438,N,14850.9433,W,30.62,265.08,250810,,,A*4A
$GPRMC,002028.000,A,7019.6416,N,14851.0167,W,30.13,264.73,250810,,,A*4C
$GPRMC,002030.000,A,7019.6412,N,14851.0640,W,30.13,267.19,250810,,,A*4C
$GPRMC,002034.000,A,7019.6400,N,14851.1664,W,31.59,268.24,250810,,,A*42
$GPRMC,002037.000,A,7019.6419,N,14851.2397,W,31.10,272.11,250810,,,A*43
$GPRMC,002039.000,A,7019.6448,N,14851.2880,W,30.62,273.87,250810,,,A*4E
$GPRMC,002042.000,A,7019.6454,N,14851.3656,W,30.62,273.52,250810,,,A*43
$GPRMC,002047.000,A,7019.6477,N,14851.4914,W,31.10,273.87,250810,,,A*45
$GPRMC,002050.000,A,7019.6493,N,14851.5671,W,31.10,273.87,250810,,,A*44
$GPRMC,002053.000,A,7019.6506,N,14851.6443,W,31.10,273.52,250810,,,A*42
$GPRMC,002056.000,A,7019.6519,N,14851.7213,W,31.10,273.52,250810,,,A*4B
$GPRMC,002059.000,A,7019.6541,N,14851.7940,W,30.62,273.87,250810,,,A*48
$GPRMC,002102.000,A,7019.6561,N,14851.8719,W,31.59,272.81,250810,,,A*46
$GPRMC,002105.000,A,7019.6570,N,14851.9479,W,31.10,273.16,250810,,,A*47
$GPRMC,002108.000,A,7019.6583,N,14852.0261,W,31.10,272.46,250810,,,A*47
$GPRMC,002112.000,A,7019.6612,N,14852.1326,W,31.59,273.16,250810,,,A*4D
$GPRMC,002115.000,A,7019.6628,N,14852.2076,W,31.59,273.87,250810,,,A*4E
$GPRMC,002118.000,A,7019.6647,N,14852.2842,W,31.10,274.57,250810,,,A*42
$GPRMC,002121.000,A,7019.6673,N,14852.3608,W,31.10,274.57,250810,,,A*4E
$GPRMC,002124.000,A,7019.6699,N,14852.4348,W,30.13,275.27,250810,,,A*4D
$GPRMC,002127.000,A,7019.6715,N,14852.5089,W,30.13,274.92,250810,,,A*4B
$GPRMC,002130.000,A,7019.6734,N,14852.5832,W,30.62,274.57,250810,,,A*49
$GPRMC,002133.000,A,7019.6750,N,14852.6576,W,30.62,274.57,250810,,,A*46
$GPRMC,002136.000,A,7019.6776,N,14852.7300,W,30.13,275.62,250810,,,A*40
$GPRMC,002139.000,A,7019.6789,N,14852.8056,W,30.13,273.16,250810,,,A*45
$GPRMC,002142.000,A,7019.6805,N,14852.8809,W,30.62,273.16,250810,,,A*46
$GPRMC,002145.000,A,7019.6808,N,14852.9546,W,30.62,271.41,250810,,,A*4B
$GPRMC,002147.000,A,7019.6795,N,14853.0055,W,31.10,267.54,250810,,,A*4A
$GPRMC,002151.000,A,7019.6792,N,14853.1082,W,32.56,266.13,250810,,,A*42
$GPRMC,002154.000,A,7019.6741,N,14853.1864,W,33.05,261.56,250810,,,A*48
$GPRMC,002157.000,A,7019.6718,N,14853.2623,W,32.07,264.73,250810,,,A*48
$GPRMC,002200.000,A,7019.6709,N,14853.3367,W,31.59,266.48,250810,,,A*4F
$GPRMC,002203.000,A,7019.6696,N,14853.4191,W,31.59,266.48,250810,,,A*47
$GPRMC,002206.000,A,7019.6673,N,14853.5028,W,32.56,266.48,250810,,,A*47
$GPRMC,002209.000,A,7019.6647,N,14853.5900,W,35.96,265.08,250810,,,A*40
$GPRMC,002214.000,A,7019.6612,N,14853.7497,W,38.88,265.78,250810,,,A*48
$GPRMC,002217.000,A,7019.6599,N,14853.8523,W,40.34,267.89,250810,,,A*4E
$GPRMC,002220.000,A,7019.6580,N,14853.9527,W,40.34,267.89,250810,,,A*47
$GPRMC,002223.000,A,7019.6631,N,14854.0454,W,39.36,273.52,250810,,,A*49
$GPRMC,002226.000,A,7019.6667,N,14854.1359,W,38.88,274.57,250810,,,A*42
$GPRMC,002229.000,A,7019.6670,N,14854.2363,W,38.39,274.22,250810,,,A*49
$GPRMC,002232.000,A,7019.6689,N,14854.3303,W,37.91,273.52,250810,,,A*4F
$GPRMC,002235.000,A,7019.6721,N,14854.4166,W,34.99,274.22,250810,,,A*46
$GPRMC,002241.000,A,7019.6744,N,14854.5846,W,33.53,274.92,250810,,,A*46
$GPRMC,002244.000,A,7019.6763,N,14854.6660,W,33.53,274.22,250810,,,A*44
$GPRMC,002247.000,A,7019.6779,N,14854.7481,W,33.53,274.57,250810,,,A*42
$GPRMC,002252.000,A,7019.6799,N,14854.8871,W,33.53,272.11,250810,,,A*40
$GPRMC,002255.000,A,7019.6792,N,14854.9663,W,32.56,269.65,250810,,,A*4D
$GPRMC,002258.000,A,7019.6770,N,14855.0410,W,31.59,266.13,250810,,,A*40
$GPRMC,002302.000,A,7019.6725,N,14855.1504,W,33.53,261.21,250810,,,A*45
$GPRMC,002305.000,A,7019.6673,N,14855.2334,W,33.53,259.45,250810,,,A*4F
$GPRMC,002307.000,A,7019.6635,N,14855.2882,W,33.05,259.10,250810,,,A*4A
$GPRMC,002311.000,A,7019.6573,N,14855.3957,W,33.53,259.80,250810,,,A*4E
$GPRMC,002314.000,A,7019.6509,N,14855.4845,W,34.50,259.45,250810,,,A*4E
$GPRMC,002317.000,A,7019.6467,N,14855.5679,W,34.99,262.27,250810,,,A*4D
$GPRMC,002319.000,A,7019.6451,N,14855.6242,W,33.53,264.02,250810,,,A*49
$GPRMC,002323.000,A,7019.6451,N,14855.7359,W,32.56,273.16,250810,,,A*4D
$GPRMC,002326.000,A,7019.6515,N,14855.8167,W,33.05,283.36,250810,,,A*43
$GPRMC,002329.000,A,7019.6580,N,14855.8958,W,33.05,285.12,250810,,,A*44
$GPRMC,002332.000,A,7019.6663,N,14855.9721,W,32.56,287.58,250810,,,A*4A
$GPRMC,002335.000,A,7019.6754,N,14856.0439,W,31.59,287.58,250810,,,A*44
$GPRMC,002338.000,A,7019.6828,N,14856.1176,W,31.59,286.52,250810,,,A*49
$GPRMC,002341.000,A,7019.6895,N,14856.1855,W,29.16,284.41,250810,,,A*4B
$GPRMC,002344.000,A,7019.6953,N,14856.2573,W,29.65,281.95,250810,,,A*47
$GPRMC,002347.000,A,7019.6985,N,14856.3291,W,29.65,275.98,250810,,,A*43
$GPRMC,002350.000,A,7019.6979,N,14856.4028,W,29.65,271.41,250810,,,A*41
$GPRMC,002353.000,A,7019.6998,N,14856.4691,W,28.67,270.70,250810,,,A*49
$GPRMC,002356.000,A,7019.6972,N,14856.5393,W,28.19,268.24,250810,,,A*4F
$GPRMC,002359.000,A,7019.6969,N,14856.6068,W,26.24,270.00,250810,,,A*41
$GPRMC,002400.000,A,7019.6966,N,14856.6271,W,25.27,270.00,250810,,,A*4F
$GPRMC,002406.000,A,7019.6979,N,14856.7501,W,23.33,272.46,250810,,,A*45
$GPRMC,002409.000,A,7019.6989,N,14856.8067,W,23.33,273.87,250810,,,A*43
$GPRMC,002412.000,A,7019.7005,N,14856.8589,W,22.36,273.52,250810,,,A*4C
$GPRMC,002415.000,A,7019.7021,N,14856.9107,W,21.38,276.33,250810,,,A*41
$GPRMC,002418.000,A,7019.7014,N,14856.9648,W,20.90,272.81,250810,,,A*48
$GPRMC,002421.000,A,7019.7037,N,14857.0163,W,19.93,273.87,250810,,,A*4B
$GPRMC,002424.000,A,7019.7050,N,14857.0616,W,18.47,273.87,250810,,,A*42
$GPRMC,002427.000,A,7019.7069,N,14857.1067,W,17.50,275.27,250810,,,A*4F
$GPRMC,002430.000,A,7019.7079,N,14857.1460,W,16.04,272.46,250810,,,A*4B
$GPRMC,002433.000,A,7019.7092,N,14857.1791,W,13.61,275.27,250810,,,A*46
$GPRMC,002436.000,A,7019.7101,N,14857.2046,W,10.21,272.81,250810,,,A*4A
$GPRMC,002439.000,A,7019.7111,N,14857.2264,W,8.75,272.11,250810,,,A*77
$GPRMC,002442.000,A,7019.7127,N,14857.2454,W,8.26,275.98,250810,,,A*7B
$GPRMC,002445.000,A,7019.7127,N,14857.2631,W,7.78,272.81,250810,,,A*76
$GPRMC,002448.000,A,7019.7133,N,14857.2773,W,7.29,270.70,250810,,,A*71
$GPRMC,002451.000,A,7019.7130,N,14857.2979,W,8.26,276.33,250810,,,A*7F
$GPRMC,002454.000,A,7019.7133,N,14857.3156,W,7.78,273.87,250810,,,A*73
