NMEA Sentence Code,UTC Time,Status,Latitude,Latitude Direction,Longitude,Longitude Direction,Speed (knots),Track Angle (degrees true),Date,MagneticVariation,Magnetic Variation Direction,[FAA Mode]-Optional,Checksum
$GPRMC,163406.000,A,3259.3113,N,11704.5574,W,24.79,98.09,50410,,,A*47
$GPRMC,163442.000,A,3259.3074,N,11704.5297,W,2.92,103.36,50410,,,A*43
$GPRMC,163445.000,A,3259.3067,N,11704.5207,W,10.69,94.92,50410,,,A*49
$GPRMC,163448.000,A,3259.3116,N,11704.5071,W,15.55,51.33,50410,,,A*48
$GPRMC,163451.000,A,3259.3261,N,11704.4962,W,21.87,30.94,50410,,,A*4B
$GPRMC,163454.000,A,3259.3441,N,11704.4824,W,27.22,34.10,50410,,,A*48
$GPRMC,163458.000,A,3259.3698,N,11704.4576,W,30.13,41.13,50410,,,A*4D
$GPRMC,163501.000,A,3259.3875,N,11704.4367,W,29.65,46.41,50410,,,A*42
$GPRMC,163504.000,A,3259.4020,N,11704.4154,W,27.70,53.79,50410,,,A*4F
$GPRMC,163507.000,A,3259.4162,N,11704.3945,W,26.24,49.92,50410,,,A*4A
$GPRMC,163510.000,A,3259.4281,N,11704.3752,W,22.84,55.20,50410,,,A*40
$GPRMC,163513.000,A,3259.4345,N,11704.3629,W,10.69,58.01,50410,,,A*4B
$GPRMC,163545.000,A,3259.4413,N,11704.3514,W,8.26,59.41,50410,,,A*76
$GPRMC,163548.000,A,3259.4480,N,11704.3417,W,13.12,42.54,50410,,,A*40
$GPRMC,163551.000,A,3259.4590,N,11704.3394,W,14.09,348.40,50410,,,A*75
$GPRMC,163554.000,A,3259.4699,N,11704.3510,W,19.44,309.02,50410,,,A*77
$GPRMC,163557.000,A,3259.4822,N,11704.3694,W,25.76,306.56,50410,,,A*75
$GPRMC,163600.000,A,3259.4970,N,11704.3929,W,31.59,307.62,50410,,,A*75
$GPRMC,163603.000,A,3259.5153,N,11704.4196,W,35.48,307.62,50410,,,A*71
$GPRMC,163607.000,A,3259.5401,N,11704.4585,W,36.95,306.91,50410,,,A*7F
$GPRMC,163610.000,A,3259.5591,N,11704.4875,W,37.42,307.27,50410,,,A*74
$GPRMC,163613.000,A,3259.5790,N,11704.5174,W,39.36,309.02,50410,,,A*79
$GPRMC,163616.000,A,3259.6000,N,11704.5477,W,39.85,308.67,50410,,,A*7D
$GPRMC,163619.000,A,3259.6202,N,11704.5799,W,40.82,306.91,50410,,,A*7F
$GPRMC,163622.000,A,3259.6408,N,11704.6127,W,42.28,306.91,50410,,,A*79
$GPRMC,163626.000,A,3259.6701,N,11704.6591,W,44.22,306.56,50410,,,A*79
$GPRMC,163629.000,A,3259.6923,N,11704.6941,W,43.74,306.56,50410,,,A*7D
$GPRMC,163633.000,A,3259.7197,N,11704.7405,W,42.78,307.27,50410,,,A*76
$GPRMC,163637.000,A,3259.7487,N,11704.7856,W,43.25,307.27,50410,,,A*75
$GPRMC,163640.000,A,3259.7706,N,11704.8190,W,43.25,308.32,50410,,,A*78
$GPRMC,163643.000,A,3259.7924,N,11704.8519,W,41.31,308.67,50410,,,A*77
$GPRMC,163646.000,A,3259.8130,N,11704.8824,W,38.88,308.67,50410,,,A*7F
$GPRMC,163649.000,A,3259.8311,N,11704.9101,W,33.05,307.27,50410,,,A*7B
$GPRMC,163652.000,A,3259.8449,N,11704.9310,W,23.33,308.67,50410,,,A*76
$GPRMC,163705.000,A,3259.8600,N,11704.9520,W,7.29,329.77,50410,,,A*40
$GPRMC,163708.000,A,3259.8707,N,11704.9500,W,15.55,16.17,50410,,,A*48
$GPRMC,163711.000,A,3259.8900,N,11704.9446,W,26.24,11.95,50410,,,A*41
$GPRMC,163714.000,A,3259.9160,N,11704.9397,W,32.56,06.68,50410,,,A*44
$GPRMC,163717.000,A,3259.9460,N,11704.9346,W,36.93,08.79,50410,,,A*4D
$GPRMC,163721.000,A,3259.9914,N,11704.9249,W,43.25,10.90,50410,,,A*49
$GPRMC,163724.000,A,3300.0297,N,11704.9143,W,47.63,13.71,50410,,,A*4B
$GPRMC,163727.000,A,3300.0709,N,11704.9014,W,51.03,15.12,50410,,,A*4B
$GPRMC,163730.000,A,3300.1137,N,11704.8876,W,53.46,15.47,50410,,,A*49
$GPRMC,163733.000,A,3300.1584,N,11704.8725,W,55.40,16.17,50410,,,A*49
$GPRMC,163736.000,A,3300.2044,N,11704.8580,W,56.37,14.41,50410,,,A*49
$GPRMC,163739.000,A,3300.2511,N,11704.8445,W,57.83,13.36,50410,,,A*42
$GPRMC,163743.000,A,3300.3158,N,11704.8280,W,59.29,10.90,50410,,,A*49
$GPRMC,163746.000,A,3300.3647,N,11704.8187,W,59.29,08.09,50410,,,A*48
$GPRMC,163749.000,A,3300.4136,N,11704.8119,W,59.29,06.33,50410,,,A*41
$GPRMC,163752.000,A,3300.4629,N,11704.8062,W,59.29,05.62,50410,,,A*48
$GPRMC,163755.000,A,3300.5115,N,11704.8016,W,58.32,04.92,50410,,,A*40
$GPRMC,163758.000,A,3300.5598,N,11704.7965,W,57.83,05.27,50410,,,A*44
$GPRMC,163801.000,A,3300.6068,N,11704.7917,W,57.35,05.27,50410,,,A*46
$GPRMC,163806.000,A,3300.6879,N,11704.7814,W,58.32,05.27,50410,,,A*43
$GPRMC,163809.000,A,3300.7378,N,11704.7756,W,59.78,05.27,50410,,,A*41
$GPRMC,163812.000,A,3300.7876,N,11704.7695,W,60.75,05.62,50410,,,A*46
$GPRMC,163816.000,A,3300.8559,N,11704.7611,W,60.75,05.27,50410,,,A*40
$GPRMC,163819.000,A,3300.9064,N,11704.7553,W,60.26,05.62,50410,,,A*47
$GPRMC,163822.000,A,3300.9563,N,11704.7489,W,59.29,05.62,50410,,,A*4E
$GPRMC,163825.000,A,3301.0059,N,11704.7427,W,59.29,05.62,50410,,,A*49
$GPRMC,163828.000,A,3301.0558,N,11704.7373,W,59.78,05.27,50410,,,A*43
$GPRMC,163831.000,A,3301.1063,N,11704.7318,W,59.78,05.27,50410,,,A*4A
$GPRMC,163834.000,A,3301.1562,N,11704.7270,W,60.26,04.92,50410,,,A*4A
$GPRMC,163838.000,A,3301.2238,N,11704.7202,W,60.26,04.92,50410,,,A*48
$GPRMC,163841.000,A,3301.2727,N,11704.7160,W,58.80,04.22,50410,,,A*46
$GPRMC,163844.000,A,3301.3216,N,11704.7131,W,58.32,01.76,50410,,,A*4C
$GPRMC,163847.000,A,3301.3705,N,11704.7118,W,58.32,00.35,50410,,,A*45
$GPRMC,163850.000,A,3301.4198,N,11704.7115,W,58.32,00.00,50410,,,A*4D
$GPRMC,163853.000,A,3301.4687,N,11704.7118,W,58.80,00.00,50410,,,A*43
$GPRMC,163856.000,A,3301.5189,N,11704.7115,W,59.78,00.00,50410,,,A*45
$GPRMC,163900.000,A,3301.5868,N,11704.7115,W,61.23,00.00,50410,,,A*44
$GPRMC,163903.000,A,3301.6383,N,11704.7118,W,61.72,00.35,50410,,,A*45
$GPRMC,163906.000,A,3301.6898,N,11704.7112,W,61.72,00.70,50410,,,A*4A
$GPRMC,163909.000,A,3301.7413,N,11704.7096,W,61.72,02.11,50410,,,A*43
$GPRMC,163912.000,A,3301.7928,N,11704.7051,W,62.69,05.62,50410,,,A*4D
$GPRMC,163915.000,A,3301.8450,N,11704.6967,W,62.69,08.79,50410,,,A*4D
$GPRMC,163918.000,A,3301.8965,N,11704.6848,W,62.69,11.95,50410,,,A*4D
$GPRMC,163922.000,A,3301.9647,N,11704.6636,W,63.66,15.82,50410,,,A*41
$GPRMC,163925.000,A,3302.0168,N,11704.6426,W,64.64,18.98,50410,,,A*46
$GPRMC,163928.000,A,3302.0680,N,11704.6201,W,64.64,19.69,50410,,,A*46
$GPRMC,163931.000,A,3302.1189,N,11704.5989,W,63.66,18.98,50410,,,A*43
$GPRMC,163934.000,A,3302.1691,N,11704.5783,W,62.69,18.98,50410,,,A*42
$GPRMC,163937.000,A,3302.2190,N,11704.5574,W,62.69,19.34,50410,,,A*49
$GPRMC,163940.000,A,3302.2689,N,11704.5368,W,62.69,19.34,50410,,,A*4D
$GPRMC,163944.000,A,3302.3339,N,11704.5091,W,61.23,19.69,50410,,,A*46
$GPRMC,163947.000,A,3302.3818,N,11704.4885,W,59.78,19.69,50410,,,A*44
$GPRMC,163950.000,A,3302.4285,N,11704.4682,W,59.78,19.69,50410,,,A*42
$GPRMC,163953.000,A,3302.4762,N,11704.4486,W,61.23,19.34,50410,,,A*46
$GPRMC,163956.000,A,3302.5257,N,11704.4286,W,63.66,19.34,50410,,,A*44
$GPRMC,163959.000,A,3302.5769,N,11704.4074,W,63.66,19.34,50410,,,A*4C
$GPRMC,164002.000,A,3302.6271,N,11704.3868,W,63.18,18.28,50410,,,A*44
$GPRMC,164006.000,A,3302.6944,N,11704.3675,W,62.21,11.60,50410,,,A*41
$GPRMC,164009.000,A,3302.7452,N,11704.3591,W,60.75,07.38,50410,,,A*45
$GPRMC,164012.000,A,3302.7938,N,11704.3549,W,57.83,03.52,50410,,,A*4E
$GPRMC,164015.000,A,3302.8415,N,11704.3546,W,57.35,359.30,50410,,,A*7E
$GPRMC,164018.000,A,3302.8888,N,11704.3578,W,57.35,356.84,50410,,,A*76
$GPRMC,164021.000,A,3302.9361,N,11704.3617,W,56.37,356.84,50410,,,A*78
$GPRMC,164024.000,A,3302.9828,N,11704.3636,W,56.37,359.30,50410,,,A*78
$GPRMC,164028.000,A,3303.0459,N,11704.3610,W,56.86,03.52,50410,,,A*40
$GPRMC,164031.000,A,3303.0922,N,11704.3562,W,55.89,05.98,50410,,,A*43
$GPRMC,164034.000,A,3303.1385,N,11704.3485,W,55.89,08.79,50410,,,A*4A
$GPRMC,164037.000,A,3303.1852,N,11704.3375,W,56.37,11.95,50410,,,A*4C
$GPRMC,164040.000,A,3303.2322,N,11704.3237,W,56.86,14.41,50410,,,A*42
$GPRMC,164043.000,A,3303.2782,N,11704.3057,W,56.37,17.58,50410,,,A*4A
$GPRMC,164046.000,A,3303.3239,N,11704.2863,W,57.35,20.04,50410,,,A*4B
$GPRMC,164050.000,A,3303.3851,N,11704.2574,W,58.32,22.15,50410,,,A*49
$GPRMC,164053.000,A,3303.4292,N,11704.2352,W,57.35,21.80,50410,,,A*4D
$GPRMC,164056.000,A,3303.4746,N,11704.2146,W,57.83,20.39,50410,,,A*4D
$GPRMC,164059.000,A,3303.5193,N,11704.1949,W,57.35,20.04,50410,,,A*4A
$GPRMC,164102.000,A,3303.5653,N,11704.1772,W,58.80,17.58,50410,,,A*44
$GPRMC,164105.000,A,3303.6120,N,11704.1611,W,58.32,15.47,50410,,,A*42
$GPRMC,164108.000,A,3303.6593,N,11704.1483,W,58.32,12.30,50410,,,A*4D
$GPRMC,164112.000,A,3303.7231,N,11704.1351,W,57.83,08.79,50410,,,A*43
$GPRMC,164115.000,A,3303.7704,N,11704.1283,W,57.35,05.98,50410,,,A*46
$GPRMC,164118.000,A,3303.8174,N,11704.1244,W,55.89,03.52,50410,,,A*4B
$GPRMC,164121.000,A,3303.8637,N,11704.1225,W,55.40,00.70,50410,,,A*40
$GPRMC,164124.000,A,3303.9101,N,11704.1232,W,55.89,358.24,50410,,,A*7A
$GPRMC,164127.000,A,3303.9567,N,11704.1264,W,56.37,355.78,50410,,,A*7C
$GPRMC,164130.000,A,3304.0037,N,11704.1318,W,56.86,354.02,50410,,,A*78
$GPRMC,164134.000,A,3304.0671,N,11704.1405,W,57.35,353.32,50410,,,A*7E
$GPRMC,164137.000,A,3304.1148,N,11704.1473,W,57.83,353.32,50410,,,A*7D
$GPRMC,164140.000,A,3304.1621,N,11704.1537,W,57.35,353.67,50410,,,A*79
$GPRMC,164143.000,A,3304.2084,N,11704.1598,W,55.89,354.38,50410,,,A*7D
$GPRMC,164146.000,A,3304.2541,N,11704.1656,W,55.41,353.67,50410,,,A*7C
$GPRMC,164149.000,A,3304.3002,N,11704.1718,W,55.41,353.67,50410,,,A*7B
$GPRMC,164152.000,A,3304.3455,N,11704.1779,W,54.43,354.02,50410,,,A*77
$GPRMC,164156.000,A,3304.4041,N,11704.1859,W,52.50,353.67,50410,,,A*78
$GPRMC,164159.000,A,3304.4469,N,11704.1924,W,51.51,352.97,50410,,,A*7E
$GPRMC,164202.000,A,3304.4897,N,11704.1985,W,52.49,352.27,50410,,,A*74
$GPRMC,164205.000,A,3304.5338,N,11704.2049,W,52.97,351.21,50410,,,A*70
$GPRMC,164208.000,A,3304.5776,N,11704.2149,W,54.44,348.75,50410,,,A*73
$GPRMC,164211.000,A,3304.6223,N,11704.2271,W,55.41,346.64,50410,,,A*7F
$GPRMC,164214.000,A,3304.6664,N,11704.2432,W,55.90,342.07,50410,,,A*71
$GPRMC,164218.000,A,3304.7244,N,11704.2690,W,56.38,339.61,50410,,,A*7D
$GPRMC,164221.000,A,3304.7685,N,11704.2899,W,57.35,339.61,50410,,,A*75
$GPRMC,164224.000,A,3304.8129,N,11704.3102,W,57.84,338.91,50410,,,A*70
$GPRMC,164227.000,A,3304.8570,N,11704.3320,W,57.84,337.15,50410,,,A*7A
$GPRMC,164230.000,A,3304.9004,N,11704.3552,W,57.35,335.04,50410,,,A*70
$GPRMC,164233.000,A,3304.9423,N,11704.3803,W,56.87,333.28,50410,,,A*7B
$GPRMC,164236.000,A,3304.9828,N,11704.4064,W,55.90,331.88,50410,,,A*7A
$GPRMC,164240.000,A,3305.0350,N,11704.4424,W,54.43,329.06,50410,,,A*77
$GPRMC,164243.000,A,3305.0736,N,11704.4711,W,54.92,327.66,50410,,,A*71
$GPRMC,164246.000,A,3305.1119,N,11704.5013,W,55.40,325.90,50410,,,A*7F
$GPRMC,164249.000,A,3305.1505,N,11704.5332,W,55.40,324.14,50410,,,A*74
$GPRMC,164252.000,A,3305.1882,N,11704.5664,W,55.89,322.38,50410,,,A*77
$GPRMC,164255.000,A,3305.2233,N,11704.6014,W,55.89,320.27,50410,,,A*7D
$GPRMC,164258.000,A,3305.2587,N,11704.6381,W,57.35,318.87,50410,,,A*73
$GPRMC,164302.000,A,3305.3060,N,11704.6900,W,58.80,317.81,50410,,,A*7B
$GPRMC,164305.000,A,3305.3424,N,11704.7305,W,60.26,317.81,50410,,,A*71
$GPRMC,164308.000,A,3305.3797,N,11704.7711,W,60.75,317.81,50410,,,A*70
$GPRMC,164311.000,A,3305.4170,N,11704.8116,W,60.75,317.81,50410,,,A*7E
$GPRMC,164314.000,A,3305.4544,N,11704.8525,W,60.26,317.81,50410,,,A*7A
$GPRMC,164317.000,A,3305.4911,N,11704.8924,W,59.29,317.81,50410,,,A*7D
$GPRMC,164320.000,A,3305.5278,N,11704.9317,W,58.80,318.16,50410,,,A*74
$GPRMC,164324.000,A,3305.5754,N,11704.9835,W,57.83,317.81,50410,,,A*7D
$GPRMC,164327.000,A,3305.6108,N,11705.0218,W,57.83,317.81,50410,,,A*7F
$GPRMC,164330.000,A,3305.6472,N,11705.0604,W,58.32,317.81,50410,,,A*7D
$GPRMC,164333.000,A,3305.6842,N,11705.1000,W,59.78,317.46,50410,,,A*76
$GPRMC,164336.000,A,3305.7218,N,11705.1402,W,60.75,317.46,50410,,,A*76
$GPRMC,164339.000,A,3305.7601,N,11705.1808,W,61.23,318.87,50410,,,A*73
$GPRMC,164342.000,A,3305.8001,N,11705.2201,W,61.72,320.62,50410,,,A*72
$GPRMC,164346.000,A,3305.8544,N,11705.2696,W,61.23,322.73,50410,,,A*7E
$GPRMC,164349.000,A,3305.8960,N,11705.3050,W,60.76,324.84,50410,,,A*79
$GPRMC,164352.000,A,3305.9375,N,11705.3379,W,59.78,326.60,50410,,,A*78
$GPRMC,164355.000,A,3305.9797,N,11705.3694,W,59.29,328.36,50410,,,A*78
$GPRMC,164358.000,A,3306.0218,N,11705.3987,W,58.81,329.77,50410,,,A*77
$GPRMC,164401.000,A,3306.0656,N,11705.4270,W,59.78,331.52,50410,,,A*7F
$GPRMC,164404.000,A,3306.1103,N,11705.4541,W,59.78,333.28,50410,,,A*76
$GPRMC,164408.000,A,3306.1699,N,11705.4892,W,59.29,333.63,50410,,,A*76
$GPRMC,164411.000,A,3306.2140,N,11705.5149,W,58.80,333.98,50410,,,A*76
$GPRMC,164414.000,A,3306.2584,N,11705.5406,W,59.29,333.98,50410,,,A*73
$GPRMC,164417.000,A,3306.3025,N,11705.5661,W,57.83,334.34,50410,,,A*73
$GPRMC,164420.000,A,3306.3443,N,11705.5909,W,55.89,333.63,50410,,,A*7F
$GPRMC,164423.000,A,3306.3865,N,11705.6153,W,55.40,333.63,50410,,,A*75
$GPRMC,164426.000,A,3306.4280,N,11705.6391,W,53.94,333.98,50410,,,A*71
$GPRMC,164430.000,A,3306.4830,N,11705.6707,W,54.92,333.63,50410,,,A*79
$GPRMC,164433.000,A,3306.5252,N,11705.6958,W,56.86,333.28,50410,,,A*79
$GPRMC,164436.000,A,3306.5690,N,11705.7212,W,58.80,334.34,50410,,,A*70
$GPRMC,164439.000,A,3306.6140,N,11705.7466,W,59.78,334.34,50410,,,A*75
$GPRMC,164442.000,A,3306.6575,N,11705.7721,W,56.37,333.98,50410,,,A*7E
$GPRMC,164445.000,A,3306.6981,N,11705.7959,W,53.46,333.98,50410,,,A*7C
$GPRMC,164448.000,A,3306.7376,N,11705.8191,W,53.46,333.28,50410,,,A*7A
$GPRMC,164452.000,A,3306.7927,N,11705.8512,W,55.89,333.28,50410,,,A*75
$GPRMC,164455.000,A,3306.8352,N,11705.8770,W,57.83,332.58,50410,,,A*7D
$GPRMC,164458.000,A,3306.8793,N,11705.9037,W,59.29,332.93,50410,,,A*75
$GPRMC,164501.000,A,3306.9250,N,11705.9308,W,61.23,333.28,50410,,,A*7C
$GPRMC,164504.000,A,3306.9713,N,11705.9578,W,62.21,333.63,50410,,,A*74
$GPRMC,164507.000,A,3307.0183,N,11705.9855,W,62.69,333.63,50410,,,A*7E
$GPRMC,164510.000,A,3307.0653,N,11706.0125,W,62.69,333.63,50410,,,A*76
$GPRMC,164514.000,A,3307.1281,N,11706.0489,W,62.69,333.98,50410,,,A*7F
$GPRMC,164517.000,A,3307.1744,N,11706.0756,W,61.72,333.98,50410,,,A*78
$GPRMC,164520.000,A,3307.2198,N,11706.1017,W,60.26,334.34,50410,,,A*7A
$GPRMC,164523.000,A,3307.2642,N,11706.1271,W,58.80,333.98,50410,,,A*7D
$GPRMC,164526.000,A,3307.3083,N,11706.1528,W,59.29,333.63,50410,,,A*7F
$GPRMC,164529.000,A,3307.3537,N,11706.1789,W,59.78,335.04,50410,,,A*70
$GPRMC,164532.000,A,3307.4004,N,11706.2027,W,60.75,337.50,50410,,,A*7C
$GPRMC,164536.000,A,3307.4654,N,11706.2314,W,62.69,341.02,50410,,,A*71
$GPRMC,164539.000,A,3307.5166,N,11706.2504,W,64.15,343.12,50410,,,A*70
$GPRMC,164542.000,A,3307.5690,N,11706.2681,W,66.09,345.59,50410,,,A*7A
$GPRMC,164545.000,A,3307.6234,N,11706.2816,W,67.07,349.10,50410,,,A*7A
$GPRMC,164548.000,A,3307.6791,N,11706.2925,W,67.07,351.21,50410,,,A*77
$GPRMC,164551.000,A,3307.7345,N,11706.3009,W,66.58,354.02,50410,,,A*7A
$GPRMC,164554.000,A,3307.7898,N,11706.3051,W,66.58,357.89,50410,,,A*79
$GPRMC,164558.000,A,3307.8639,N,11706.3067,W,65.61,00.00,50410,,,A*43
$GPRMC,164601.000,A,3307.9170,N,11706.3054,W,63.66,02.11,50410,,,A*44
$GPRMC,164604.000,A,3307.9675,N,11706.3025,W,59.78,02.81,50410,,,A*4A
$GPRMC,164607.000,A,3308.0177,N,11706.2999,W,61.23,02.46,50410,,,A*4B
$GPRMC,164610.000,A,3308.0695,N,11706.2970,W,62.69,02.46,50410,,,A*4C
$GPRMC,164613.000,A,3308.1220,N,11706.2945,W,62.69,02.46,50410,,,A*42
$GPRMC,164616.000,A,3308.1738,N,11706.2919,W,62.21,02.46,50410,,,A*4E
$GPRMC,164620.000,A,3308.2424,N,11706.2883,W,61.23,02.46,50410,,,A*45
$GPRMC,164623.000,A,3308.2929,N,11706.2858,W,60.75,02.46,50410,,,A*42
$GPRMC,164626.000,A,3308.3434,N,11706.2829,W,60.26,02.46,50410,,,A*47
$GPRMC,164629.000,A,3308.3933,N,11706.2803,W,59.78,02.46,50410,,,A*4B
$GPRMC,164632.000,A,3308.4435,N,11706.2780,W,60.26,02.46,50410,,,A*48
$GPRMC,164635.000,A,3308.4944,N,11706.2755,W,61.23,02.46,50410,,,A*48
$GPRMC,164638.000,A,3308.5459,N,11706.2726,W,62.21,02.46,50410,,,A*40
$GPRMC,164642.000,A,3308.6160,N,11706.2687,W,63.18,02.81,50410,,,A*4B
$GPRMC,164645.000,A,3308.6688,N,11706.2658,W,63.66,02.46,50410,,,A*4D
$GPRMC,164648.000,A,3308.7216,N,11706.2629,W,63.66,02.46,50410,,,A*44
$GPRMC,164651.000,A,3308.7751,N,11706.2600,W,64.15,02.46,50410,,,A*42
$GPRMC,164654.000,A,3308.8282,N,11706.2571,W,63.18,02.81,50410,,,A*47
$GPRMC,164657.000,A,3308.8803,N,11706.2545,W,62.21,02.81,50410,,,A*4B
$GPRMC,164700.000,A,3308.9315,N,11706.2516,W,60.75,02.46,50410,,,A*4B
$GPRMC,164704.000,A,3308.9984,N,11706.2481,W,60.26,02.46,50410,,,A*44
$GPRMC,164707.000,A,3309.0496,N,11706.2455,W,61.23,02.46,50410,,,A*4C
$GPRMC,164710.000,A,3309.1011,N,11706.2430,W,62.21,02.46,50410,,,A*42
$GPRMC,164713.000,A,3309.1532,N,11706.2401,W,62.69,02.81,50410,,,A*40
$GPRMC,164716.000,A,3309.2060,N,11706.2368,W,63.18,02.46,50410,,,A*40
$GPRMC,164719.000,A,3309.2582,N,11706.2343,W,61.72,02.11,50410,,,A*43
$GPRMC,164722.000,A,3309.3087,N,11706.2333,W,60.26,00.35,50410,,,A*49
$GPRMC,164726.000,A,3309.3747,N,11706.2356,W,60.27,357.19,50410,,,A*7B
$GPRMC,164729.000,A,3309.4249,N,11706.2407,W,60.76,354.73,50410,,,A*70
$GPRMC,164732.000,A,3309.4751,N,11706.2481,W,61.23,351.91,50410,,,A*70
$GPRMC,164735.000,A,3309.5250,N,11706.2591,W,61.24,348.75,50410,,,A*77
$GPRMC,164738.000,A,3309.5746,N,11706.2716,W,61.23,347.34,50410,,,A*78
$GPRMC,164741.000,A,3309.6245,N,11706.2864,W,61.72,345.23,50410,,,A*79
$GPRMC,164744.000,A,3309.6747,N,11706.3035,W,62.21,343.12,50410,,,A*77
$GPRMC,164748.000,A,3309.7400,N,11706.3308,W,61.73,339.96,50410,,,A*72
$GPRMC,164751.000,A,3309.7867,N,11706.3530,W,60.27,337.50,50410,,,A*7E
$GPRMC,164754.000,A,3309.8324,N,11706.3769,W,60.27,335.39,50410,,,A*7B
$GPRMC,164757.000,A,3309.8784,N,11706.4036,W,62.21,334.34,50410,,,A*74
$GPRMC,164800.000,A,3309.9254,N,11706.4306,W,62.21,334.69,50410,,,A*78
$GPRMC,164803.000,A,3309.9724,N,11706.4576,W,63.19,334.34,50410,,,A*7A
$GPRMC,164806.000,A,3310.0203,N,11706.4850,W,64.15,333.98,50410,,,A*7D
$GPRMC,164810.000,A,3310.0838,N,11706.5214,W,63.18,334.34,50410,,,A*78
$GPRMC,164813.000,A,3310.1304,N,11706.5481,W,62.69,334.34,50410,,,A*73
$GPRMC,164816.000,A,3310.1777,N,11706.5754,W,64.15,333.98,50410,,,A*71
$GPRMC,164819.000,A,3310.2267,N,11706.6034,W,65.61,333.98,50410,,,A*79
$GPRMC,164822.000,A,3310.2749,N,11706.6321,W,64.64,334.34,50410,,,A*7A
$GPRMC,164825.000,A,3310.3226,N,11706.6604,W,63.66,334.34,50410,,,A*77
$GPRMC,164828.000,A,3310.3696,N,11706.6881,W,62.69,334.34,50410,,,A*78
$GPRMC,164832.000,A,3310.4320,N,11706.7241,W,62.69,333.98,50410,,,A*7A
$GPRMC,164835.000,A,3310.4796,N,11706.7522,W,63.66,333.98,50410,,,A*78
$GPRMC,164838.000,A,3310.5279,N,11706.7798,W,64.15,334.34,50410,,,A*71
$GPRMC,164841.000,A,3310.5743,N,11706.8069,W,60.75,334.34,50410,,,A*77
$GPRMC,164844.000,A,3310.6193,N,11706.8326,W,59.29,333.98,50410,,,A*70
$GPRMC,164847.000,A,3310.6634,N,11706.8587,W,59.78,333.98,50410,,,A*70
$GPRMC,164850.000,A,3310.7091,N,11706.8848,W,60.75,334.34,50410,,,A*76
$GPRMC,164854.000,A,3310.7700,N,11706.9202,W,60.75,334.34,50410,,,A*78
$GPRMC,164857.000,A,3310.8154,N,11706.9462,W,60.26,333.98,50410,,,A*74
$GPRMC,164900.000,A,3310.8611,N,11706.9726,W,60.75,333.98,50410,,,A*74
$GPRMC,164903.000,A,3310.9071,N,11706.9993,W,61.23,334.34,50410,,,A*75
$GPRMC,164906.000,A,3310.9521,N,11707.0248,W,58.32,334.69,50410,,,A*77
$GPRMC,164909.000,A,3310.9953,N,11707.0489,W,56.37,333.98,50410,,,A*78
$GPRMC,164912.000,A,3311.0381,N,11707.0737,W,57.83,333.98,50410,,,A*77
$GPRMC,164916.000,A,3311.0976,N,11707.1081,W,60.26,333.98,50410,,,A*71
$GPRMC,164919.000,A,3311.1417,N,11707.1339,W,58.80,334.34,50410,,,A*73
$GPRMC,164922.000,A,3311.1852,N,11707.1593,W,58.80,333.98,50410,,,A*71
$GPRMC,164925.000,A,3311.2299,N,11707.1854,W,59.78,333.63,50410,,,A*7C
$GPRMC,164928.000,A,3311.2756,N,11707.2121,W,61.23,333.98,50410,,,A*7E
$GPRMC,164931.000,A,3311.3226,N,11707.2395,W,62.69,333.63,50410,,,A*71
$GPRMC,164934.000,A,3311.3702,N,11707.2671,W,63.66,333.98,50410,,,A*72
$GPRMC,164938.000,A,3311.4343,N,11707.3041,W,64.15,334.34,50410,,,A*7E
$GPRMC,164941.000,A,3311.4819,N,11707.3315,W,63.18,334.34,50410,,,A*7C
$GPRMC,164944.000,A,3311.5289,N,11707.3579,W,61.72,334.34,50410,,,A*79
$GPRMC,164947.000,A,3311.5756,N,11707.3846,W,61.72,334.34,50410,,,A*7C
$GPRMC,164950.000,A,3311.6223,N,11707.4113,W,62.21,333.98,50410,,,A*74
$GPRMC,164953.000,A,3311.6702,N,11707.4384,W,62.69,333.98,50410,,,A*71
$GPRMC,164956.000,A,3311.7195,N,11707.4657,W,64.15,333.98,50410,,,A*7B
$GPRMC,165000.000,A,3311.7848,N,11707.5031,W,65.12,333.98,50410,,,A*78
$GPRMC,165003.000,A,3311.8341,N,11707.5311,W,65.12,334.34,50410,,,A*76
$GPRMC,165006.000,A,3311.8836,N,11707.5591,W,64.64,334.34,50410,,,A*76
$GPRMC,165009.000,A,3311.9319,N,11707.5867,W,64.15,334.34,50410,,,A*7C
$GPRMC,165012.000,A,3311.9799,N,11707.6144,W,63.66,334.34,50410,,,A*72
$GPRMC,165015.000,A,3312.0281,N,11707.6424,W,64.15,333.63,50410,,,A*76
$GPRMC,165018.000,A,3312.0761,N,11707.6714,W,64.64,332.58,50410,,,A*7F
$GPRMC,165022.000,A,3312.1389,N,11707.7113,W,64.15,331.88,50410,,,A*7D
$GPRMC,165025.000,A,3312.1862,N,11707.7425,W,64.64,330.82,50410,,,A*79
$GPRMC,165028.000,A,3312.2338,N,11707.7747,W,65.61,330.47,50410,,,A*79
$GPRMC,165031.000,A,3312.2814,N,11707.8079,W,65.61,329.77,50410,,,A*7A
$GPRMC,165034.000,A,3312.3278,N,11707.8404,W,64.64,329.41,50410,,,A*71
$GPRMC,165037.000,A,3312.3738,N,11707.8722,W,63.18,329.06,50410,,,A*7B
$GPRMC,165040.000,A,3312.4182,N,11707.9038,W,61.72,328.36,50410,,,A*7A
$GPRMC,165044.000,A,3312.4765,N,11707.9456,W,60.75,328.01,50410,,,A*7F
$GPRMC,165047.000,A,3312.5196,N,11707.9775,W,61.23,328.01,50410,,,A*77
$GPRMC,165050.000,A,3312.5634,N,11708.0094,W,61.72,328.01,50410,,,A*74
$GPRMC,165053.000,A,3312.6062,N,11708.0419,W,60.75,328.01,50410,,,A*76
$GPRMC,165056.000,A,3312.6497,N,11708.0744,W,61.72,327.66,50410,,,A*7E
$GPRMC,165059.000,A,3312.6944,N,11708.1066,W,62.69,328.01,50410,,,A*73
$GPRMC,165102.000,A,3312.7391,N,11708.1391,W,63.18,328.01,50410,,,A*73
$GPRMC,165106.000,A,3312.7997,N,11708.1841,W,64.15,327.30,50410,,,A*7A
$GPRMC,165109.000,A,3312.8457,N,11708.2182,W,65.12,327.30,50410,,,A*78
$GPRMC,165112.000,A,3312.8917,N,11708.2527,W,64.64,327.66,50410,,,A*73
$GPRMC,165115.000,A,3312.9377,N,11708.2871,W,64.15,328.01,50410,,,A*7F
$GPRMC,165118.000,A,3312.9828,N,11708.3203,W,63.18,328.01,50410,,,A*77
$GPRMC,165121.000,A,3313.0275,N,11708.3544,W,63.18,327.66,50410,,,A*7D
$GPRMC,165124.000,A,3313.0739,N,11708.3856,W,62.69,329.77,50410,,,A*72
$GPRMC,165128.000,A,3313.1370,N,11708.4249,W,63.66,331.52,50410,,,A*75
$GPRMC,165131.000,A,3313.1849,N,11708.4542,W,63.66,332.93,50410,,,A*7E
$GPRMC,165134.000,A,3313.2342,N,11708.4819,W,64.64,334.34,50410,,,A*75
$GPRMC,165137.000,A,3313.2831,N,11708.5092,W,64.15,335.39,50410,,,A*79
$GPRMC,165140.000,A,3313.3333,N,11708.5353,W,64.64,336.45,50410,,,A*71
$GPRMC,165143.000,A,3313.3835,N,11708.5594,W,63.66,337.85,50410,,,A*7A
$GPRMC,165146.000,A,3313.4334,N,11708.5826,W,63.66,338.55,50410,,,A*74
$GPRMC,165150.000,A,3313.5007,N,11708.6119,W,64.15,339.96,50410,,,A*7A
$GPRMC,165153.000,A,3313.5509,N,11708.6338,W,64.64,340.31,50410,,,A*76
$GPRMC,165156.000,A,3313.6005,N,11708.6560,W,64.15,339.96,50410,,,A*77
$GPRMC,165159.000,A,3313.6491,N,11708.6779,W,63.18,339.96,50410,,,A*71
$GPRMC,165202.000,A,3313.6957,N,11708.6994,W,61.72,340.31,50410,,,A*7B
$GPRMC,165205.000,A,3313.7418,N,11708.7197,W,59.78,339.96,50410,,,A*73
$GPRMC,165208.000,A,3313.7858,N,11708.7397,W,57.83,339.96,50410,,,A*7E
$GPRMC,165212.000,A,3313.8451,N,11708.7654,W,57.35,340.31,50410,,,A*7B
$GPRMC,165215.000,A,3313.8879,N,11708.7847,W,55.89,339.96,50410,,,A*70
$GPRMC,165218.000,A,3313.9313,N,11708.8037,W,55.89,339.96,50410,,,A*7B
$GPRMC,165221.000,A,3313.9751,N,11708.8227,W,56.86,340.31,50410,,,A*7F
$GPRMC,165225.000,A,3314.0346,N,11708.8485,W,57.83,339.96,50410,,,A*7E
$GPRMC,165228.000,A,3314.0807,N,11708.8681,W,59.29,340.31,50410,,,A*76
$GPRMC,165230.000,A,3314.1119,N,11708.8813,W,59.78,340.31,50410,,,A*79
$GPRMC,165234.000,A,3314.1740,N,11708.9083,W,59.29,339.96,50410,,,A*70
$GPRMC,165237.000,A,3314.2200,N,11708.9286,W,58.80,339.96,50410,,,A*74
$GPRMC,165240.000,A,3314.2667,N,11708.9489,W,59.78,339.96,50410,,,A*7E
$GPRMC,165243.000,A,3314.3134,N,11708.9692,W,59.78,340.31,50410,,,A*76
$GPRMC,165246.000,A,3314.3604,N,11708.9891,W,58.80,340.31,50410,,,A*7C
$GPRMC,165249.000,A,3314.4061,N,11709.0087,W,57.83,339.96,50410,,,A*79
$GPRMC,165252.000,A,3314.4518,N,11709.0284,W,57.83,339.96,50410,,,A*79
$GPRMC,165256.000,A,3314.5129,N,11709.0545,W,58.32,340.31,50410,,,A*76
$GPRMC,165259.000,A,3314.5593,N,11709.0741,W,59.29,340.31,50410,,,A*71
$GPRMC,165302.000,A,3314.6053,N,11709.0940,W,58.80,339.96,50410,,,A*7A
$GPRMC,165305.000,A,3314.6517,N,11709.1140,W,58.80,339.96,50410,,,A*71
$GPRMC,165308.000,A,3314.6977,N,11709.1340,W,58.80,339.96,50410,,,A*74
$GPRMC,165311.000,A,3314.7431,N,11709.1542,W,58.32,339.61,50410,,,A*77
$GPRMC,165314.000,A,3314.7894,N,11709.1748,W,59.29,339.96,50410,,,A*7A
$GPRMC,165318.000,A,3314.8509,N,11709.2022,W,59.29,339.96,50410,,,A*78
$GPRMC,165321.000,A,3314.8982,N,11709.2215,W,59.29,340.31,50410,,,A*78
$GPRMC,165324.000,A,3314.9452,N,11709.2411,W,59.78,339.96,50410,,,A*79
$GPRMC,165327.000,A,3314.9925,N,11709.2611,W,59.78,339.96,50410,,,A*75
$GPRMC,165330.000,A,3315.0405,N,11709.2817,W,60.75,339.96,50410,,,A*7B
$GPRMC,165333.000,A,3315.0884,N,11709.3029,W,61.23,339.26,50410,,,A*70
$GPRMC,165336.000,A,3315.1357,N,11709.3245,W,61.23,339.26,50410,,,A*79
$GPRMC,165340.000,A,3315.2001,N,11709.3528,W,62.69,339.96,50410,,,A*71
$GPRMC,165343.000,A,3315.2503,N,11709.3744,W,64.64,339.96,50410,,,A*76
$GPRMC,165346.000,A,3315.3022,N,11709.3963,W,66.09,340.31,50410,,,A*75
$GPRMC,165349.000,A,3315.3540,N,11709.4188,W,65.61,339.96,50410,,,A*7F
$GPRMC,165352.000,A,3315.4064,N,11709.4397,W,66.58,342.07,50410,,,A*70
$GPRMC,165355.000,A,3315.4592,N,11709.4584,W,66.09,344.88,50410,,,A*7A
$GPRMC,165358.000,A,3315.5120,N,11709.4738,W,65.61,346.64,50410,,,A*73
$GPRMC,165402.000,A,3315.5848,N,11709.4906,W,66.09,350.51,50410,,,A*73
$GPRMC,165405.000,A,3315.6395,N,11709.4999,W,66.58,352.62,50410,,,A*7C
$GPRMC,165408.000,A,3315.6945,N,11709.5070,W,66.58,355.08,50410,,,A*72
$GPRMC,165411.000,A,3315.7505,N,11709.5118,W,67.55,357.19,50410,,,A*72
$GPRMC,165414.000,A,3315.8084,N,11709.5128,W,68.04,00.35,50410,,,A*43
$GPRMC,165417.000,A,3315.8657,N,11709.5102,W,68.52,02.46,50410,,,A*45
$GPRMC,165420.000,A,3315.9217,N,11709.5051,W,67.55,05.62,50410,,,A*4E
$GPRMC,165424.000,A,3315.9967,N,11709.4938,W,67.55,08.44,50410,,,A*48
$GPRMC,165427.000,A,3316.0521,N,11709.4825,W,66.58,10.55,50410,,,A*47
$GPRMC,165430.000,A,3316.1052,N,11709.4690,W,65.12,13.01,50410,,,A*4E
$GPRMC,165433.000,A,3316.1580,N,11709.4523,W,63.66,15.47,50410,,,A*4D
$GPRMC,165436.000,A,3316.2085,N,11709.4336,W,61.23,16.88,50410,,,A*4A
$GPRMC,165439.000,A,3316.2562,N,11709.4133,W,60.27,20.04,50410,,,A*4A
$GPRMC,165442.000,A,3316.3028,N,11709.3914,W,59.78,21.80,50410,,,A*4B
$GPRMC,165446.000,A,3316.3627,N,11709.3593,W,59.29,24.61,50410,,,A*4B
$GPRMC,165449.000,A,3316.4065,N,11709.3338,W,58.81,26.02,50410,,,A*40
$GPRMC,165452.000,A,3316.4502,N,11709.3084,W,58.33,25.66,50410,,,A*42
$GPRMC,165455.000,A,3316.4937,N,11709.2833,W,58.33,25.66,50410,,,A*4A
$GPRMC,165458.000,A,3316.5368,N,11709.2585,W,58.33,26.02,50410,,,A*47
$GPRMC,165501.000,A,3316.5806,N,11709.2331,W,58.81,26.02,50410,,,A*49
$GPRMC,165504.000,A,3316.6253,N,11709.2077,W,59.78,25.66,50410,,,A*42
$GPRMC,165508.000,A,3316.6852,N,11709.1729,W,60.27,25.66,50410,,,A*4A
$GPRMC,165511.000,A,3316.7303,N,11709.1475,W,59.78,25.31,50410,,,A*44
$GPRMC,165514.000,A,3316.7744,N,11709.1224,W,58.32,24.96,50410,,,A*47
$GPRMC,165517.000,A,3316.8172,N,11709.0982,W,56.86,25.31,50410,,,A*43
$GPRMC,165520.000,A,3316.8603,N,11709.0744,W,57.35,24.26,50410,,,A*4C
$GPRMC,165523.000,A,3316.9063,N,11709.0519,W,58.80,21.80,50410,,,A*4C
$GPRMC,165526.000,A,3316.9536,N,11709.0310,W,60.75,19.34,50410,,,A*46
$GPRMC,165530.000,A,3317.0219,N,11709.0065,W,63.67,15.82,50410,,,A*43
$GPRMC,165533.000,A,3317.0740,N,11708.9907,W,64.64,13.01,50410,,,A*45
$GPRMC,165536.000,A,3317.1268,N,11708.9778,W,64.64,10.55,50410,,,A*4A
$GPRMC,165539.000,A,3317.1809,N,11708.9679,W,65.12,08.09,50410,,,A*48
$GPRMC,165542.000,A,3317.2356,N,11708.9618,W,66.10,04.92,50410,,,A*4E
$GPRMC,165545.000,A,3317.2910,N,11708.9576,W,66.59,02.11,50410,,,A*4A
$GPRMC,165548.000,A,3317.3460,N,11708.9563,W,66.10,359.65,50410,,,A*7B
$GPRMC,165552.000,A,3317.4194,N,11708.9585,W,66.09,357.19,50410,,,A*7C
$GPRMC,165555.000,A,3317.4757,N,11708.9605,W,67.07,357.54,50410,,,A*7F
$GPRMC,165558.000,A,3317.5333,N,11708.9630,W,68.52,357.54,50410,,,A*7C
$GPRMC,165601.000,A,3317.5919,N,11708.9656,W,69.50,357.54,50410,,,A*72
$GPRMC,165605.000,A,3317.6708,N,11708.9698,W,70.47,357.19,50410,,,A*7E
$GPRMC,165608.000,A,3317.7300,N,11708.9730,W,71.44,357.19,50410,,,A*7F
$GPRMC,165610.000,A,3317.7699,N,11708.9753,W,71.93,357.19,50410,,,A*7C
$GPRMC,165614.000,A,3317.8497,N,11708.9804,W,71.93,357.19,50410,,,A*76
$GPRMC,165617.000,A,3317.9089,N,11708.9840,W,71.44,357.19,50410,,,A*75
$GPRMC,165620.000,A,3317.9682,N,11708.9875,W,71.44,356.84,50410,,,A*7F
$GPRMC,165623.000,A,3318.0271,N,11708.9917,W,71.44,356.84,50410,,,A*77
$GPRMC,165626.000,A,3318.0866,N,11708.9959,W,71.93,356.84,50410,,,A*7E
$GPRMC,165629.000,A,3318.1465,N,11708.9997,W,72.41,356.84,50410,,,A*71
$GPRMC,165632.000,A,3318.2067,N,11709.0039,W,72.90,357.19,50410,,,A*72
$GPRMC,165636.000,A,3318.2868,N,11709.0087,W,71.93,357.19,50410,,,A*74
$GPRMC,165639.000,A,3318.3467,N,11709.0123,W,71.44,357.19,50410,,,A*7C
$GPRMC,165642.000,A,3318.4049,N,11709.0161,W,70.47,356.48,50410,,,A*7E
$GPRMC,165645.000,A,3318.4629,N,11709.0216,W,69.50,353.67,50410,,,A*7C
$GPRMC,165648.000,A,3318.5198,N,11709.0303,W,69.01,351.91,50410,,,A*77
$GPRMC,165651.000,A,3318.5762,N,11709.0409,W,67.55,350.51,50410,,,A*73
$GPRMC,165654.000,A,3318.6293,N,11709.0538,W,65.12,347.34,50410,,,A*79
$GPRMC,165658.000,A,3318.6985,N,11709.0776,W,66.09,343.12,50410,,,A*78
$GPRMC,165701.000,A,3318.7506,N,11709.0982,W,65.61,341.02,50410,,,A*78
$GPRMC,165704.000,A,3318.8024,N,11709.1211,W,66.09,339.26,50410,,,A*73
$GPRMC,165707.000,A,3318.8539,N,11709.1465,W,66.58,336.45,50410,,,A*72
$GPRMC,165710.000,A,3318.9048,N,11709.1745,W,66.09,333.98,50410,,,A*76
$GPRMC,165713.000,A,3318.9531,N,11709.2044,W,65.12,331.88,50410,,,A*71
$GPRMC,165716.000,A,3319.0010,N,11709.2344,W,64.64,331.88,50410,,,A*79
$GPRMC,165720.000,A,3319.0631,N,11709.2749,W,63.66,331.52,50410,,,A*72
$GPRMC,165723.000,A,3319.1098,N,11709.3052,W,64.15,331.52,50410,,,A*7A
$GPRMC,165727.000,A,3319.1732,N,11709.3454,W,65.12,331.88,50410,,,A*7A
$GPRMC,165731.000,A,3319.2373,N,11709.3863,W,65.61,331.88,50410,,,A*73
$GPRMC,165734.000,A,3319.2872,N,11709.4156,W,66.09,334.69,50410,,,A*73
$GPRMC,165737.000,A,3319.3380,N,11709.4413,W,66.09,337.50,50410,,,A*7A
$GPRMC,165740.000,A,3319.3895,N,11709.4648,W,65.61,339.96,50410,,,A*70
$GPRMC,165743.000,A,3319.4407,N,11709.4858,W,65.61,342.42,50410,,,A*79
$GPRMC,165746.000,A,3319.4932,N,11709.5035,W,65.61,345.23,50410,,,A*75
$GPRMC,165749.000,A,3319.5469,N,11709.5186,W,65.61,347.70,50410,,,A*75
$GPRMC,165753.000,A,3319.6193,N,11709.5334,W,65.61,351.21,50410,,,A*75
$GPRMC,165756.000,A,3319.6728,N,11709.5414,W,65.12,353.67,50410,,,A*77
$GPRMC,165759.000,A,3319.7268,N,11709.5466,W,65.12,356.48,50410,,,A*75
$GPRMC,165802.000,A,3319.7812,N,11709.5492,W,65.12,358.95,50410,,,A*76
$GPRMC,165805.000,A,3319.8359,N,11709.5492,W,65.12,00.70,50410,,,A*4F
$GPRMC,165808.000,A,3319.8910,N,11709.5482,W,65.61,00.70,50410,,,A*40
$GPRMC,165811.000,A,3319.9454,N,11709.5472,W,65.12,01.05,50410,,,A*4C
$GPRMC,165815.000,A,3320.0181,N,11709.5459,W,64.64,00.70,50410,,,A*4C
$GPRMC,165818.000,A,3320.0709,N,11709.5447,W,63.18,01.05,50410,,,A*47
$GPRMC,165821.000,A,3320.1230,N,11709.5437,W,62.69,00.70,50410,,,A*40
$GPRMC,165824.000,A,3320.1755,N,11709.5427,W,63.18,01.05,50410,,,A*46
$GPRMC,165827.000,A,3320.2283,N,11709.5421,W,63.18,00.70,50410,,,A*4D
$GPRMC,165830.000,A,3320.2811,N,11709.5411,W,63.18,00.70,50410,,,A*49
$GPRMC,165833.000,A,3320.3335,N,11709.5405,W,63.18,00.70,50410,,,A*43
$GPRMC,165837.000,A,3320.4037,N,11709.5395,W,63.18,01.05,50410,,,A*4C
$GPRMC,165840.000,A,3320.4562,N,11709.5385,W,63.18,00.70,50410,,,A*4B
$GPRMC,165843.000,A,3320.5096,N,11709.5379,W,63.66,00.70,50410,,,A*4D
$GPRMC,165846.000,A,3320.5627,N,11709.5372,W,63.66,00.70,50410,,,A*4F
$GPRMC,165849.000,A,3320.6155,N,11709.5366,W,63.18,00.70,50410,,,A*4D
$GPRMC,165852.000,A,3320.6683,N,11709.5353,W,62.69,01.05,50410,,,A*49
$GPRMC,165855.000,A,3320.7204,N,11709.5344,W,62.21,00.70,50410,,,A*4D
$GPRMC,165859.000,A,3320.7896,N,11709.5327,W,62.21,01.05,50410,,,A*46
$GPRMC,165901.000,A,3320.8241,N,11709.5324,W,62.21,00.70,50410,,,A*45
$GPRMC,165905.000,A,3320.8929,N,11709.5315,W,62.21,00.70,50410,,,A*46
$GPRMC,165908.000,A,3320.9451,N,11709.5302,W,62.69,01.05,50410,,,A*41
$GPRMC,165911.000,A,3320.9979,N,11709.5292,W,63.18,01.05,50410,,,A*41
$GPRMC,165914.000,A,3321.0503,N,11709.5282,W,62.69,00.70,50410,,,A*48
$GPRMC,165917.000,A,3321.1031,N,11709.5276,W,63.66,00.70,50410,,,A*4B
$GPRMC,165921.000,A,3321.1752,N,11709.5263,W,65.12,01.05,50410,,,A*4E
$GPRMC,165924.000,A,3321.2296,N,11709.5260,W,65.61,00.70,50410,,,A*41
$GPRMC,165927.000,A,3321.2837,N,11709.5253,W,65.12,00.70,50410,,,A*47
$GPRMC,165930.000,A,3321.3378,N,11709.5247,W,64.64,00.35,50410,,,A*44
$GPRMC,165933.000,A,3321.3909,N,11709.5253,W,64.15,358.59,50410,,,A*7C
$GPRMC,165936.000,A,3321.4440,N,11709.5286,W,64.15,355.78,50410,,,A*78
$GPRMC,165939.000,A,3321.4968,N,11709.5344,W,63.66,354.02,50410,,,A*70
$GPRMC,165943.000,A,3321.5663,N,11709.5459,W,63.18,350.86,50410,,,A*72
$GPRMC,165946.000,A,3321.6175,N,11709.5572,W,62.69,348.75,50410,,,A*7E
$GPRMC,165948.000,A,3321.6513,N,11709.5662,W,62.21,347.34,50410,,,A*70
$GPRMC,165952.000,A,3321.7166,N,11709.5865,W,61.24,344.18,50410,,,A*7E
$GPRMC,165955.000,A,3321.7649,N,11709.6042,W,60.75,342.42,50410,,,A*71
$GPRMC,165958.000,A,3321.8122,N,11709.6238,W,60.26,339.96,50410,,,A*75
$GPRMC,170001.000,A,3321.8582,N,11709.6454,W,59.29,337.85,50410,,,A*7F
$GPRMC,170005.000,A,3321.9181,N,11709.6773,W,59.29,335.04,50410,,,A*70
$GPRMC,170008.000,A,3321.9622,N,11709.7037,W,59.30,332.58,50410,,,A*73
$GPRMC,170011.000,A,3322.0060,N,11709.7320,W,59.30,330.82,50410,,,A*71
$GPRMC,170014.000,A,3322.0481,N,11709.7622,W,59.30,328.71,50410,,,A*7D
$GPRMC,170017.000,A,3322.0900,N,11709.7944,W,59.78,326.60,50410,,,A*77
$GPRMC,170020.000,A,3322.1308,N,11709.8289,W,60.27,324.49,50410,,,A*7C
$GPRMC,170023.000,A,3322.1701,N,11709.8652,W,59.78,322.03,50410,,,A*78
$GPRMC,170026.000,A,3322.2087,N,11709.9029,W,59.30,320.27,50410,,,A*74
$GPRMC,170030.000,A,3322.2580,N,11709.9550,W,59.78,318.16,50410,,,A*7F
$GPRMC,170033.000,A,3322.2947,N,11709.9953,W,60.27,317.81,50410,,,A*75
$GPRMC,170036.000,A,3322.3327,N,11710.0355,W,60.76,318.52,50410,,,A*75
$GPRMC,170039.000,A,3322.3713,N,11710.0751,W,60.75,318.87,50410,,,A*72
$GPRMC,170042.000,A,3322.4102,N,11710.1134,W,60.75,320.98,50410,,,A*7E
$GPRMC,170045.000,A,3322.4498,N,11710.1504,W,60.27,322.73,50410,,,A*78
$GPRMC,170049.000,A,3322.5045,N,11710.1974,W,60.27,325.90,50410,,,A*70
$GPRMC,170052.000,A,3322.5473,N,11710.2293,W,59.30,328.36,50410,,,A*77
$GPRMC,170055.000,A,3322.5892,N,11710.2602,W,58.81,330.12,50410,,,A*7B
$GPRMC,170058.000,A,3322.6317,N,11710.2878,W,58.81,332.58,50410,,,A*7C
$GPRMC,170101.000,A,3322.6754,N,11710.3133,W,58.80,334.34,50410,,,A*78
$GPRMC,170104.000,A,3322.7182,N,11710.3384,W,57.35,336.45,50410,,,A*7A
$GPRMC,170107.000,A,3322.7617,N,11710.3615,W,56.87,338.20,50410,,,A*7A
$GPRMC,170111.000,A,3322.8229,N,11710.3873,W,58.32,341.02,50410,,,A*7B
$GPRMC,170114.000,A,3322.8702,N,11710.4053,W,58.80,343.48,50410,,,A*7A
$GPRMC,170117.000,A,3322.9188,N,11710.4208,W,59.78,345.59,50410,,,A*70
$GPRMC,170120.000,A,3322.9690,N,11710.4349,W,61.24,348.05,50410,,,A*78
$GPRMC,170123.000,A,3323.0192,N,11710.4468,W,61.73,350.16,50410,,,A*7B
$GPRMC,170126.000,A,3323.0700,N,11710.4562,W,62.21,352.27,50410,,,A*7C
$GPRMC,170129.000,A,3323.1225,N,11710.4629,W,62.21,354.73,50410,,,A*7B
$GPRMC,170133.000,A,3323.1924,N,11710.4678,W,62.70,357.89,50410,,,A*7C
$GPRMC,170136.000,A,3323.2445,N,11710.4684,W,62.21,00.00,50410,,,A*47
$GPRMC,170139.000,A,3323.2976,N,11710.4665,W,63.19,02.11,50410,,,A*42
$GPRMC,170142.000,A,3323.3510,N,11710.4626,W,63.67,04.57,50410,,,A*49
$GPRMC,170145.000,A,3323.4032,N,11710.4565,W,62.70,06.68,50410,,,A*41
$GPRMC,170148.000,A,3323.4547,N,11710.4481,W,62.21,08.79,50410,,,A*4A
$GPRMC,170151.000,A,3323.5042,N,11710.4375,W,61.73,11.25,50410,,,A*4A
$GPRMC,170155.000,A,3323.5702,N,11710.4188,W,61.72,14.06,50410,,,A*48
$GPRMC,170158.000,A,3323.6188,N,11710.4024,W,60.75,16.52,50410,,,A*40
$GPRMC,170201.000,A,3323.6645,N,11710.3857,W,60.27,18.28,50410,,,A*46
$GPRMC,170204.000,A,3323.7112,N,11710.3654,W,60.27,20.74,50410,,,A*48
$GPRMC,170207.000,A,3323.7572,N,11710.3429,W,59.78,22.85,50410,,,A*4D
$GPRMC,170210.000,A,3323.8016,N,11710.3187,W,58.33,24.61,50410,,,A*40
$GPRMC,170213.000,A,3323.8448,N,11710.2946,W,58.33,25.31,50410,,,A*4C
$GPRMC,170217.000,A,3323.9021,N,11710.2598,W,58.81,27.42,50410,,,A*42
$GPRMC,170220.000,A,3323.9452,N,11710.2325,W,59.30,28.48,50410,,,A*48
$GPRMC,170223.000,A,3323.9883,N,11710.2042,W,59.29,29.53,50410,,,A*4A
$GPRMC,170226.000,A,3324.0315,N,11710.1749,W,59.30,30.59,50410,,,A*40
$GPRMC,170229.000,A,3324.0739,N,11710.1443,W,59.29,31.64,50410,,,A*4B
$GPRMC,170232.000,A,3324.1161,N,11710.1124,W,59.78,33.05,50410,,,A*4E
$GPRMC,170235.000,A,3324.1592,N,11710.0793,W,60.75,33.75,50410,,,A*4A
$GPRMC,170239.000,A,3324.2172,N,11710.0323,W,62.21,35.51,50410,,,A*43
$GPRMC,170242.000,A,3324.2606,N,11709.9956,W,63.18,35.16,50410,,,A*4A
$GPRMC,170245.000,A,3324.3044,N,11709.9595,W,63.66,34.80,50410,,,A*48
$GPRMC,170248.000,A,3324.3475,N,11709.9235,W,62.69,35.51,50410,,,A*4D
$GPRMC,170251.000,A,3324.3900,N,11709.8878,W,61.72,34.80,50410,,,A*4C
$GPRMC,170254.000,A,3324.4328,N,11709.8530,W,61.72,34.10,50410,,,A*46
$GPRMC,170257.000,A,3324.4766,N,11709.8192,W,62.69,32.70,50410,,,A*4E
$GPRMC,170301.000,A,3324.5365,N,11709.7741,W,64.15,31.99,50410,,,A*44
$GPRMC,170304.000,A,3324.5828,N,11709.7403,W,65.12,31.64,50410,,,A*42
$GPRMC,170307.000,A,3324.6292,N,11709.7059,W,65.61,31.64,50410,,,A*46
$GPRMC,170310.000,A,3324.6752,N,11709.6718,W,64.64,31.29,50410,,,A*47
$GPRMC,170313.000,A,3324.7206,N,11709.6390,W,62.69,31.29,50410,,,A*4E
$GPRMC,170316.000,A,3324.7640,N,11709.6064,W,61.72,31.64,50410,,,A*45
$GPRMC,170319.000,A,3324.8081,N,11709.5743,W,62.21,31.64,50410,,,A*4A
$GPRMC,170323.000,A,3324.8680,N,11709.5305,W,63.18,31.64,50410,,,A*49
$GPRMC,170326.000,A,3324.9134,N,11709.4970,W,63.66,31.99,50410,,,A*47
$GPRMC,170329.000,A,3324.9587,N,11709.4639,W,63.66,31.64,50410,,,A*44
$GPRMC,170332.000,A,3325.0038,N,11709.4307,W,63.66,31.64,50410,,,A*4F
$GPRMC,170335.000,A,3325.0489,N,11709.3979,W,63.18,31.64,50410,,,A*4B
$GPRMC,170338.000,A,3325.0939,N,11709.3651,W,63.18,31.29,50410,,,A*4C
$GPRMC,170341.000,A,3325.1383,N,11709.3329,W,62.69,31.29,50410,,,A*45
$GPRMC,170345.000,A,3325.1982,N,11709.2904,W,63.18,30.59,50410,,,A*4F
$GPRMC,170348.000,A,3325.2446,N,11709.2575,W,65.12,30.59,50410,,,A*42
$GPRMC,170351.000,A,3325.2925,N,11709.2231,W,67.55,31.29,50410,,,A*42
$GPRMC,170354.000,A,3325.3414,N,11709.1880,W,68.52,30.59,50410,,,A*44
$GPRMC,170357.000,A,3325.3907,N,11709.1536,W,67.55,30.23,50410,,,A*4D
$GPRMC,170400.000,A,3325.4386,N,11709.1204,W,66.58,30.23,50410,,,A*46
$GPRMC,170403.000,A,3325.4860,N,11709.0870,W,65.61,30.94,50410,,,A*4B
$GPRMC,170407.000,A,3325.5462,N,11709.0393,W,64.15,34.80,50410,,,A*45
$GPRMC,170410.000,A,3325.5880,N,11709.0017,W,62.69,37.97,50410,,,A*44
$GPRMC,170413.000,A,3325.6273,N,11708.9624,W,61.72,40.78,50410,,,A*44
$GPRMC,170416.000,A,3325.6646,N,11708.9209,W,60.75,44.30,50410,,,A*46
$GPRMC,170419.000,A,3325.6997,N,11708.8784,W,60.26,45.70,50410,,,A*48
$GPRMC,170422.000,A,3325.7344,N,11708.8359,W,59.78,45.70,50410,,,A*40
$GPRMC,170425.000,A,3325.7695,N,11708.7928,W,60.26,45.70,50410,,,A*4C
$GPRMC,170429.000,A,3325.8165,N,11708.7355,W,60.26,45.35,50410,,,A*46
$GPRMC,170432.000,A,3325.8519,N,11708.6933,W,60.26,44.30,50410,,,A*4C
$GPRMC,170435.000,A,3325.8902,N,11708.6521,W,61.23,41.84,50410,,,A*4C
$GPRMC,170438.000,A,3325.9292,N,11708.6125,W,61.73,39.73,50410,,,A*40
$GPRMC,170441.000,A,3325.9694,N,11708.5742,W,62.21,37.97,50410,,,A*48
$GPRMC,170444.000,A,3326.0112,N,11708.5375,W,62.21,35.86,50410,,,A*4C
$GPRMC,170447.000,A,3326.0541,N,11708.5025,W,62.69,34.10,50410,,,A*49
$GPRMC,170451.000,A,3326.1123,N,11708.4580,W,61.72,31.64,50410,,,A*4B
$GPRMC,170454.000,A,3326.1564,N,11708.4268,W,61.23,29.88,50410,,,A*47
$GPRMC,170457.000,A,3326.2008,N,11708.3982,W,60.26,27.77,50410,,,A*4A
$GPRMC,170500.000,A,3326.2459,N,11708.3715,W,60.75,25.66,50410,,,A*4D
$GPRMC,170503.000,A,3326.2929,N,11708.3460,W,62.21,23.91,50410,,,A*48
$GPRMC,170506.000,A,3326.3421,N,11708.3222,W,63.66,21.80,50410,,,A*49
$GPRMC,170509.000,A,3326.3933,N,11708.3000,W,65.12,19.69,50410,,,A*43
$GPRMC,170513.000,A,3326.4631,N,11708.2736,W,66.09,16.88,50410,,,A*48
$GPRMC,170516.000,A,3326.5159,N,11708.2562,W,65.12,15.47,50410,,,A*4F
$GPRMC,170519.000,A,3326.5678,N,11708.2392,W,63.18,15.12,50410,,,A*41
$GPRMC,170522.000,A,3326.6176,N,11708.2234,W,61.23,15.12,50410,,,A*44
$GPRMC,170525.000,A,3326.6662,N,11708.2076,W,59.78,15.12,50410,,,A*40
$GPRMC,170528.000,A,3326.7129,N,11708.1925,W,56.37,15.12,50410,,,A*4C
$GPRMC,170531.000,A,3326.7573,N,11708.1783,W,53.94,15.47,50410,,,A*41
$GPRMC,170535.000,A,3326.8146,N,11708.1600,W,52.97,15.12,50410,,,A*40
$GPRMC,170538.000,A,3326.8568,N,11708.1461,W,52.00,14.77,50410,,,A*4C
$GPRMC,170541.000,A,3326.8993,N,11708.1336,W,53.46,13.71,50410,,,A*4D
$GPRMC,170544.000,A,3326.9447,N,11708.1227,W,56.86,09.49,50410,,,A*45
$GPRMC,170547.000,A,3326.9926,N,11708.1156,W,58.80,06.33,50410,,,A*43
$GPRMC,170550.000,A,3327.0415,N,11708.1104,W,58.80,03.87,50410,,,A*4D
$GPRMC,170553.000,A,3327.0914,N,11708.1082,W,59.78,00.70,50410,,,A*40
$GPRMC,170557.000,A,3327.1587,N,11708.1111,W,60.75,356.84,50410,,,A*74
$GPRMC,170600.000,A,3327.2099,N,11708.1152,W,62.21,355.78,50410,,,A*78
$GPRMC,170603.000,A,3327.2620,N,11708.1204,W,62.21,355.08,50410,,,A*78
$GPRMC,170604.000,A,3327.2791,N,11708.1220,W,62.21,355.08,50410,,,A*72
$GPRMC,170709.000,A,3328.2904,N,11708.2340,W,56.86,343.12,50410,,,A*71
$GPRMC,170712.000,A,3328.3364,N,11708.2491,W,57.83,343.48,50410,,,A*76
$GPRMC,170715.000,A,3328.3824,N,11708.2659,W,58.32,343.12,50410,,,A*72
$GPRMC,170718.000,A,3328.4288,N,11708.2829,W,58.80,343.12,50410,,,A*74
$GPRMC,170721.000,A,3328.4754,N,11708.3003,W,58.80,343.12,50410,,,A*7B
$GPRMC,170724.000,A,3328.5224,N,11708.3167,W,58.32,343.12,50410,,,A*77
$GPRMC,170727.000,A,3328.5691,N,11708.3338,W,58.32,343.12,50410,,,A*76
$GPRMC,170731.000,A,3328.6316,N,11708.3566,W,59.29,343.12,50410,,,A*7E
$GPRMC,170734.000,A,3328.6789,N,11708.3740,W,58.80,343.12,50410,,,A*7D
$GPRMC,170737.000,A,3328.7255,N,11708.3908,W,58.32,343.12,50410,,,A*70
$GPRMC,170740.000,A,3328.7712,N,11708.4078,W,57.35,343.12,50410,,,A*77
$GPRMC,170743.000,A,3328.8173,N,11708.4239,W,57.35,343.48,50410,,,A*72
$GPRMC,170746.000,A,3328.8630,N,11708.4403,W,57.35,342.77,50410,,,A*75
$GPRMC,170749.000,A,3328.9087,N,11708.4571,W,57.35,343.12,50410,,,A*77
$GPRMC,170753.000,A,3328.9698,N,11708.4790,W,56.86,342.77,50410,,,A*72
$GPRMC,170756.000,A,3329.0149,N,11708.4954,W,56.37,343.12,50410,,,A*7A
$GPRMC,170759.000,A,3329.0603,N,11708.5115,W,56.86,343.12,50410,,,A*7A
$GPRMC,170802.000,A,3329.1050,N,11708.5279,W,55.89,343.12,50410,,,A*7F
$GPRMC,170805.000,A,3329.1494,N,11708.5440,W,55.40,343.12,50410,,,A*7D
$GPRMC,170808.000,A,3329.1945,N,11708.5597,W,56.86,343.12,50410,,,A*73
$GPRMC,170811.000,A,3329.2399,N,11708.5762,W,56.86,343.12,50410,,,A*7B
$GPRMC,170815.000,A,3329.2997,N,11708.5980,W,55.89,343.12,50410,,,A*75
$GPRMC,170818.000,A,3329.3438,N,11708.6138,W,54.92,343.12,50410,,,A*72
$GPRMC,170821.000,A,3329.3879,N,11708.6296,W,54.92,343.48,50410,,,A*79
$GPRMC,170824.000,A,3329.4320,N,11708.6457,W,55.89,343.12,50410,,,A*73
$GPRMC,170827.000,A,3329.4774,N,11708.6621,W,57.35,343.12,50410,,,A*73
$GPRMC,170830.000,A,3329.5231,N,11708.6792,W,57.35,342.42,50410,,,A*7D
$GPRMC,170833.000,A,3329.5679,N,11708.6978,W,56.86,338.91,50410,,,A*76
$GPRMC,170837.000,A,3329.6248,N,11708.7300,W,56.86,332.23,50410,,,A*70
$GPRMC,170840.000,A,3329.6663,N,11708.7587,W,57.83,328.71,50410,,,A*7C
$GPRMC,170843.000,A,3329.7063,N,11708.7921,W,58.80,323.09,50410,,,A*70
$GPRMC,170846.000,A,3329.7449,N,11708.8295,W,59.78,320.62,50410,,,A*7A
$GPRMC,170849.000,A,3329.7838,N,11708.8681,W,61.23,320.27,50410,,,A*7A
$GPRMC,170852.000,A,3329.8241,N,11708.9070,W,62.69,321.68,50410,,,A*75
$GPRMC,170855.000,A,3329.8665,N,11708.9444,W,63.66,324.49,50410,,,A*7B
$GPRMC,170859.000,A,3329.9264,N,11708.9914,W,64.15,328.01,50410,,,A*78
$GPRMC,170902.000,A,3329.9721,N,11709.0232,W,62.69,330.82,50410,,,A*7B
$GPRMC,170905.000,A,3330.0178,N,11709.0519,W,61.23,333.28,50410,,,A*77
$GPRMC,170908.000,A,3330.0645,N,11709.0783,W,61.72,335.04,50410,,,A*7E
$GPRMC,170911.000,A,3330.1121,N,11709.1014,W,61.72,338.20,50410,,,A*71
$GPRMC,170914.000,A,3330.1604,N,11709.1237,W,62.21,338.91,50410,,,A*78
$GPRMC,170917.000,A,3330.2090,N,11709.1459,W,62.21,339.26,50410,,,A*70
$GPRMC,170921.000,A,3330.2737,N,11709.1752,W,62.69,339.26,50410,,,A*7B
$GPRMC,170924.000,A,3330.3233,N,11709.1980,W,63.66,338.91,50410,,,A*7C
$GPRMC,170927.000,A,3330.3722,N,11709.2202,W,62.21,339.26,50410,,,A*77
$GPRMC,170930.000,A,3330.4202,N,11709.2418,W,60.75,339.26,50410,,,A*7F
$GPRMC,170933.000,A,3330.4665,N,11709.2630,W,58.80,338.91,50410,,,A*7D
$GPRMC,170936.000,A,3330.5109,N,11709.2833,W,55.89,339.26,50410,,,A*70
$GPRMC,170939.000,A,3330.5537,N,11709.3026,W,54.92,339.26,50410,,,A*70
$GPRMC,170943.000,A,3330.6113,N,11709.3284,W,55.40,339.26,50410,,,A*78
$GPRMC,170946.000,A,3330.6548,N,11709.3483,W,56.86,338.91,50410,,,A*72
$GPRMC,170948.000,A,3330.6844,N,11709.3622,W,57.35,338.91,50410,,,A*7D
$GPRMC,170952.000,A,3330.7440,N,11709.3889,W,57.35,339.61,50410,,,A*7E
$GPRMC,170955.000,A,3330.7880,N,11709.4088,W,56.37,338.91,50410,,,A*7A
$GPRMC,170958.000,A,3330.8305,N,11709.4291,W,53.94,338.20,50410,,,A*72
$GPRMC,171001.000,A,3330.8721,N,11709.4503,W,54.43,335.39,50410,,,A*70
$GPRMC,171005.000,A,3330.9261,N,11709.4832,W,53.94,331.52,50410,,,A*7F
$GPRMC,171008.000,A,3330.9651,N,11709.5089,W,53.94,331.17,50410,,,A*7D
$GPRMC,171011.000,A,3331.0050,N,11709.5350,W,53.94,330.82,50410,,,A*70
$GPRMC,171014.000,A,3331.0443,N,11709.5611,W,53.46,330.82,50410,,,A*7C
$GPRMC,171017.000,A,3331.0835,N,11709.5871,W,54.43,331.17,50410,,,A*75
$GPRMC,171020.000,A,3331.1234,N,11709.6139,W,54.92,331.17,50410,,,A*71
$GPRMC,171023.000,A,3331.1633,N,11709.6406,W,54.92,330.47,50410,,,A*7C
$GPRMC,171027.000,A,3331.2174,N,11709.6769,W,55.89,330.82,50410,,,A*77
$GPRMC,171030.000,A,3331.2573,N,11709.7033,W,54.43,331.17,50410,,,A*71
$GPRMC,171033.000,A,3331.2969,N,11709.7297,W,53.94,330.82,50410,,,A*79
$GPRMC,171036.000,A,3331.3362,N,11709.7561,W,54.43,330.82,50410,,,A*7F
$GPRMC,171039.000,A,3331.3761,N,11709.7825,W,54.92,330.82,50410,,,A*76
$GPRMC,171042.000,A,3331.4150,N,11709.8086,W,53.46,331.17,50410,,,A*74
$GPRMC,171045.000,A,3331.4530,N,11709.8337,W,51.03,330.82,50410,,,A*76
$GPRMC,171049.000,A,3331.5007,N,11709.8656,W,47.63,330.82,50410,,,A*79
$GPRMC,171052.000,A,3331.5357,N,11709.8890,W,48.11,330.82,50410,,,A*7B
$GPRMC,171055.000,A,3331.5715,N,11709.9129,W,50.06,330.82,50410,,,A*7B
$GPRMC,171058.000,A,3331.6091,N,11709.9380,W,52.00,330.82,50410,,,A*7B
$GPRMC,171101.000,A,3331.6471,N,11709.9637,W,51.51,330.82,50410,,,A*72
$GPRMC,171104.000,A,3331.6838,N,11709.9879,W,49.57,331.17,50410,,,A*70
$GPRMC,171107.000,A,3331.7202,N,11710.0120,W,51.03,330.82,50410,,,A*70
$GPRMC,171111.000,A,3331.7701,N,11710.0452,W,51.03,330.82,50410,,,A*71
$GPRMC,171114.000,A,3331.8071,N,11710.0699,W,50.54,330.82,50410,,,A*7D
$GPRMC,171117.000,A,3331.8434,N,11710.0941,W,49.57,330.82,50410,,,A*7A
$GPRMC,171120.000,A,3331.8785,N,11710.1176,W,47.63,331.17,50410,,,A*7E
$GPRMC,171123.000,A,3331.9136,N,11710.1407,W,48.11,330.82,50410,,,A*76
$GPRMC,171126.000,A,3331.9490,N,11710.1642,W,48.60,330.82,50410,,,A*7F
$GPRMC,171129.000,A,3331.9851,N,11710.1884,W,50.06,330.82,50410,,,A*7C
$GPRMC,171133.000,A,3332.0324,N,11710.2196,W,47.63,331.17,50410,,,A*75
$GPRMC,171136.000,A,3332.0668,N,11710.2415,W,46.65,332.93,50410,,,A*7B
$GPRMC,171139.000,A,3332.1003,N,11710.2627,W,44.71,331.88,50410,,,A*73
$GPRMC,171142.000,A,3332.1331,N,11710.2843,W,46.17,330.47,50410,,,A*71
$GPRMC,171145.000,A,3332.1679,N,11710.3078,W,49.08,330.47,50410,,,A*7F
$GPRMC,171148.000,A,3332.2043,N,11710.3323,W,50.06,330.82,50410,,,A*7C
$GPRMC,171151.000,A,3332.2403,N,11710.3564,W,49.57,331.17,50410,,,A*70
$GPRMC,171155.000,A,3332.2902,N,11710.3883,W,51.03,332.23,50410,,,A*70
$GPRMC,171158.000,A,3332.3278,N,11710.4121,W,51.03,331.52,50410,,,A*79
$GPRMC,171201.000,A,3332.3649,N,11710.4365,W,50.54,330.82,50410,,,A*7D
$GPRMC,171204.000,A,3332.4016,N,11710.4613,W,50.54,330.47,50410,,,A*7E
$GPRMC,171207.000,A,3332.4376,N,11710.4855,W,50.06,330.82,50410,,,A*7A
$GPRMC,171210.000,A,3332.4740,N,11710.5096,W,50.54,330.82,50410,,,A*7C
$GPRMC,171213.000,A,3332.5113,N,11710.5344,W,51.03,330.47,50410,,,A*78
$GPRMC,171217.000,A,3332.5599,N,11710.5666,W,48.60,331.17,50410,,,A*76
$GPRMC,171220.000,A,3332.5950,N,11710.5897,W,47.63,330.82,50410,,,A*7A
$GPRMC,171223.000,A,3332.6307,N,11710.6120,W,49.08,333.28,50410,,,A*74
$GPRMC,171226.000,A,3332.6671,N,11710.6332,W,47.63,333.98,50410,,,A*7C
$GPRMC,171229.000,A,3332.7015,N,11710.6532,W,45.20,333.98,50410,,,A*75
$GPRMC,171232.000,A,3332.7353,N,11710.6728,W,44.71,333.98,50410,,,A*72
$GPRMC,171235.000,A,3332.7691,N,11710.6927,W,45.68,333.63,50410,,,A*72
$GPRMC,171239.000,A,3332.8155,N,11710.7201,W,46.17,333.63,50410,,,A*7B
$GPRMC,171242.000,A,3332.8499,N,11710.7404,W,46.17,334.34,50410,,,A*74
$GPRMC,171245.000,A,3332.8853,N,11710.7603,W,47.63,335.04,50410,,,A*7C
$GPRMC,171248.000,A,3332.9230,N,11710.7793,W,49.57,338.55,50410,,,A*77
$GPRMC,171251.000,A,3332.9632,N,11710.7961,W,51.51,342.07,50410,,,A*7F
$GPRMC,171254.000,A,3333.0047,N,11710.8102,W,52.49,344.88,50410,,,A*7F
$GPRMC,171257.000,A,3333.0479,N,11710.8228,W,52.97,347.70,50410,,,A*79
$GPRMC,171301.000,A,3333.1071,N,11710.8347,W,54.92,351.91,50410,,,A*75
$GPRMC,171304.000,A,3333.1544,N,11710.8414,W,57.35,354.38,50410,,,A*7A
$GPRMC,171307.000,A,3333.2033,N,11710.8450,W,59.29,357.89,50410,,,A*75
$GPRMC,171310.000,A,3333.2535,N,11710.8460,W,60.26,359.30,50410,,,A*7A
$GPRMC,171313.000,A,3333.3041,N,11710.8460,W,60.26,00.00,50410,,,A*42
$GPRMC,171316.000,A,3333.3546,N,11710.8460,W,60.26,359.65,50410,,,A*79
$GPRMC,171319.000,A,3333.4045,N,11710.8463,W,59.78,359.65,50410,,,A*75
$GPRMC,171323.000,A,3333.4714,N,11710.8463,W,59.78,00.00,50410,,,A*43
$GPRMC,171326.000,A,3333.5216,N,11710.8463,W,60.26,00.00,50410,,,A*41
$GPRMC,171329.000,A,3333.5725,N,11710.8463,W,60.75,359.65,50410,,,A*71
$GPRMC,171332.000,A,3333.6237,N,11710.8466,W,61.23,00.00,50410,,,A*45
$GPRMC,171335.000,A,3333.6742,N,11710.8463,W,60.75,00.00,50410,,,A*42
$GPRMC,171338.000,A,3333.7251,N,11710.8466,W,60.26,359.65,50410,,,A*76
$GPRMC,171341.000,A,3333.7737,N,11710.8466,W,57.83,00.00,50410,,,A*4A
$GPRMC,171345.000,A,3333.8374,N,11710.8469,W,57.35,00.35,50410,,,A*46
$GPRMC,171348.000,A,3333.8850,N,11710.8472,W,57.35,00.00,50410,,,A*4A
$GPRMC,171351.000,A,3333.9330,N,11710.8476,W,57.83,00.00,50410,,,A*47
$GPRMC,171354.000,A,3333.9806,N,11710.8479,W,56.86,359.65,50410,,,A*7B
$GPRMC,171357.000,A,3334.0276,N,11710.8479,W,55.89,00.00,50410,,,A*4B
$GPRMC,171400.000,A,3334.0746,N,11710.8482,W,56.37,00.00,50410,,,A*4A
$GPRMC,171403.000,A,3334.1216,N,11710.8482,W,56.86,359.65,50410,,,A*7E
$GPRMC,171408.000,A,3334.2014,N,11710.8482,W,57.83,00.00,50410,,,A*4E
$GPRMC,171411.000,A,3334.2500,N,11710.8485,W,58.32,00.00,50410,,,A*44
$GPRMC,171414.000,A,3334.2993,N,11710.8485,W,59.29,359.65,50410,,,A*70
$GPRMC,171418.000,A,3334.3662,N,11710.8488,W,59.78,359.65,50410,,,A*75
$GPRMC,171421.000,A,3334.4171,N,11710.8488,W,60.75,00.00,50410,,,A*46
$GPRMC,171424.000,A,3334.4683,N,11710.8495,W,61.23,359.65,50410,,,A*7B
$GPRMC,171427.000,A,3334.5198,N,11710.8495,W,61.72,00.00,50410,,,A*4C
$GPRMC,171430.000,A,3334.5719,N,11710.8495,W,62.69,00.35,50410,,,A*4A
$GPRMC,171433.000,A,3334.6240,N,11710.8498,W,62.69,00.00,50410,,,A*48
$GPRMC,171436.000,A,3334.6768,N,11710.8498,W,63.18,359.65,50410,,,A*79
$GPRMC,171440.000,A,3334.7476,N,11710.8498,W,63.66,00.00,50410,,,A*40
$GPRMC,171443.000,A,3334.7998,N,11710.8498,W,61.72,00.00,50410,,,A*49
$GPRMC,171446.000,A,3334.8506,N,11710.8495,W,60.26,00.00,50410,,,A*45
$GPRMC,171449.000,A,3334.9005,N,11710.8498,W,59.29,359.65,50410,,,A*79
$GPRMC,171452.000,A,3334.9494,N,11710.8495,W,58.32,00.00,50410,,,A*45
$GPRMC,171455.000,A,3334.9974,N,11710.8501,W,56.37,359.65,50410,,,A*7A
$GPRMC,171458.000,A,3335.0437,N,11710.8501,W,55.40,00.00,50410,,,A*4A
$GPRMC,171502.000,A,3335.1062,N,11710.8508,W,55.89,00.00,50410,,,A*4D
$GPRMC,171505.000,A,3335.1532,N,11710.8498,W,56.37,01.41,50410,,,A*40
$GPRMC,171508.000,A,3335.2002,N,11710.8466,W,56.86,04.22,50410,,,A*43
$GPRMC,171511.000,A,3335.2478,N,11710.8405,W,57.83,07.03,50410,,,A*43
$GPRMC,171514.000,A,3335.2961,N,11710.8318,W,58.32,09.49,50410,,,A*4D
$GPRMC,171517.000,A,3335.3421,N,11710.8208,W,54.43,12.30,50410,,,A*48
$GPRMC,171520.000,A,3335.3852,N,11710.8083,W,52.97,15.12,50410,,,A*4D
$GPRMC,171524.000,A,3335.4419,N,11710.7877,W,54.43,18.63,50410,,,A*45
$GPRMC,171527.000,A,3335.4837,N,11710.7690,W,54.43,21.09,50410,,,A*47
$GPRMC,171530.000,A,3335.5246,N,11710.7481,W,53.94,23.91,50410,,,A*40
$GPRMC,171533.000,A,3335.5645,N,11710.7246,W,53.94,26.72,50410,,,A*41
$GPRMC,171536.000,A,3335.6044,N,11710.6992,W,55.40,28.83,50410,,,A*4C
$GPRMC,171539.000,A,3335.6443,N,11710.6699,W,56.37,31.99,50410,,,A*44
$GPRMC,171542.000,A,3335.6833,N,11710.6393,W,56.86,33.40,50410,,,A*40
$GPRMC,171546.000,A,3335.7367,N,11710.5968,W,58.32,33.40,50410,,,A*43
$GPRMC,171549.000,A,3335.7789,N,11710.5643,W,59.78,33.75,50410,,,A*47
$GPRMC,171552.000,A,3335.8214,N,11710.5312,W,60.26,33.40,50410,,,A*45
$GPRMC,171555.000,A,3335.8635,N,11710.4983,W,59.29,33.75,50410,,,A*45
$GPRMC,171558.000,A,3335.9047,N,11710.4652,W,59.29,33.75,50410,,,A*49
$GPRMC,171601.000,A,3335.9463,N,11710.4327,W,58.80,33.40,50410,,,A*47
$GPRMC,171604.000,A,3335.9884,N,11710.3995,W,60.75,33.40,50410,,,A*42
$GPRMC,171608.000,A,3336.0470,N,11710.3567,W,61.23,29.88,50410,,,A*4F
$GPRMC,171611.000,A,3336.0937,N,11710.3306,W,61.23,23.55,50410,,,A*42
$GPRMC,171614.000,A,3336.1432,N,11710.3104,W,61.72,17.23,50410,,,A*4C
$GPRMC,171617.000,A,3336.1944,N,11710.2959,W,62.69,11.60,50410,,,A*4A
$GPRMC,171620.000,A,3336.2472,N,11710.2885,W,64.15,04.92,50410,,,A*41
$GPRMC,171623.000,A,3336.3010,N,11710.2846,W,64.64,02.81,50410,,,A*4E
$GPRMC,171626.000,A,3336.3557,N,11710.2824,W,65.12,02.46,50410,,,A*42
$GPRMC,171630.000,A,3336.4281,N,11710.2782,W,64.64,02.81,50410,,,A*46
$GPRMC,171633.000,A,3336.4818,N,11710.2756,W,64.15,02.11,50410,,,A*49
$GPRMC,171636.000,A,3336.5356,N,11710.2730,W,64.64,02.46,50410,,,A*48
$GPRMC,171639.000,A,3336.5900,N,11710.2698,W,65.12,02.46,50410,,,A*4D
$GPRMC,171642.000,A,3336.6434,N,11710.2669,W,63.66,02.46,50410,,,A*43
$GPRMC,171645.000,A,3336.6962,N,11710.2643,W,63.18,02.46,50410,,,A*4B
$GPRMC,171648.000,A,3336.7480,N,11710.2618,W,62.21,02.46,50410,,,A*43
$GPRMC,171652.000,A,3336.8175,N,11710.2595,W,62.69,00.70,50410,,,A*45
$GPRMC,171655.000,A,3336.8694,N,11710.2595,W,61.72,359.30,50410,,,A*78
$GPRMC,171658.000,A,3336.9205,N,11710.2605,W,61.23,359.30,50410,,,A*76
$GPRMC,171701.000,A,3336.9720,N,11710.2618,W,61.72,359.30,50410,,,A*71
$GPRMC,171704.000,A,3337.0235,N,11710.2627,W,61.72,358.95,50410,,,A*7F
$GPRMC,171707.000,A,3337.0744,N,11710.2637,W,61.72,359.30,50410,,,A*70
$GPRMC,171710.000,A,3337.1259,N,11710.2647,W,61.72,359.30,50410,,,A*79
$GPRMC,171714.000,A,3337.1948,N,11710.2666,W,61.23,358.95,50410,,,A*7F
$GPRMC,171717.000,A,3337.2453,N,11710.2676,W,60.26,359.30,50410,,,A*73
$GPRMC,171720.000,A,3337.2962,N,11710.2676,W,61.72,00.35,50410,,,A*42
$GPRMC,171723.000,A,3337.3489,N,11710.2672,W,62.69,00.70,50410,,,A*44
$GPRMC,171726.000,A,3337.4001,N,11710.2663,W,60.75,00.70,50410,,,A*4D
$GPRMC,171729.000,A,3337.4507,N,11710.2660,W,59.78,00.35,50410,,,A*44
$GPRMC,171732.000,A,3337.4996,N,11710.2656,W,58.80,00.70,50410,,,A*48
$GPRMC,171736.000,A,3337.5656,N,11710.2647,W,59.78,00.70,50410,,,A*48
$GPRMC,171739.000,A,3337.6164,N,11710.2643,W,61.23,00.35,50410,,,A*42
$GPRMC,171742.000,A,3337.6679,N,11710.2647,W,62.21,00.00,50410,,,A*46
$GPRMC,171745.000,A,3337.7210,N,11710.2650,W,64.15,359.65,50410,,,A*70
$GPRMC,171748.000,A,3337.7751,N,11710.2656,W,65.12,359.65,50410,,,A*7D
$GPRMC,171751.000,A,3337.8298,N,11710.2656,W,65.61,359.65,50410,,,A*7E
$GPRMC,171754.000,A,3337.8842,N,11710.2656,W,64.64,359.65,50410,,,A*72
$GPRMC,171758.000,A,3337.9553,N,11710.2660,W,63.66,359.65,50410,,,A*72
$GPRMC,171801.000,A,3338.0078,N,11710.2663,W,62.21,00.00,50410,,,A*46
$GPRMC,171804.000,A,3338.0577,N,11710.2666,W,59.29,359.65,50410,,,A*70
$GPRMC,171807.000,A,3338.1056,N,11710.2669,W,56.37,00.00,50410,,,A*47
$GPRMC,171810.000,A,3338.1520,N,11710.2669,W,55.40,00.00,50410,,,A*46
$GPRMC,171814.000,A,3338.2148,N,11710.2676,W,57.35,359.65,50410,,,A*79
$GPRMC,171816.000,A,3338.2473,N,11710.2676,W,58.32,359.65,50410,,,A*7E
$GPRMC,171820.000,A,3338.3129,N,11710.2682,W,59.78,359.65,50410,,,A*74
$GPRMC,171823.000,A,3338.3638,N,11710.2682,W,61.72,359.65,50410,,,A*71
$GPRMC,171826.000,A,3338.4159,N,11710.2682,W,62.69,359.65,50410,,,A*7A
$GPRMC,171829.000,A,3338.4687,N,11710.2682,W,63.18,00.00,50410,,,A*4A
$GPRMC,171832.000,A,3338.5205,N,11710.2682,W,62.21,00.00,50410,,,A*44
$GPRMC,171835.000,A,3338.5733,N,11710.2682,W,63.18,00.00,50410,,,A*48
$GPRMC,171838.000,A,3338.6274,N,11710.2682,W,65.12,359.65,50410,,,A*70
$GPRMC,171842.000,A,3338.7008,N,11710.2685,W,66.09,00.00,50410,,,A*47
$GPRMC,171845.000,A,3338.7558,N,11710.2685,W,66.09,359.65,50410,,,A*7C
$GPRMC,171848.000,A,3338.8109,N,11710.2688,W,66.09,359.65,50410,,,A*73
$GPRMC,171851.000,A,3338.8659,N,11710.2692,W,64.64,359.65,50410,,,A*7B
$GPRMC,171854.000,A,3338.9196,N,11710.2695,W,65.12,00.00,50410,,,A*40
$GPRMC,171857.000,A,3338.9740,N,11710.2695,W,65.12,00.00,50410,,,A*4E
$GPRMC,171900.000,A,3339.0278,N,11710.2695,W,63.66,359.65,50410,,,A*72
$GPRMC,171904.000,A,3339.0976,N,11710.2695,W,62.69,00.00,50410,,,A*41
$GPRMC,171907.000,A,3339.1501,N,11710.2698,W,63.18,359.65,50410,,,A*79
$GPRMC,171910.000,A,3339.2029,N,11710.2701,W,63.18,359.65,50410,,,A*72
$GPRMC,171913.000,A,3339.2560,N,11710.2701,W,63.66,00.00,50410,,,A*4C
$GPRMC,171916.000,A,3339.3088,N,11710.2705,W,62.69,359.65,50410,,,A*7D
$GPRMC,171919.000,A,3339.3603,N,11710.2701,W,61.23,00.70,50410,,,A*45
$GPRMC,171922.000,A,3339.4115,N,11710.2685,W,61.72,01.41,50410,,,A*40
$GPRMC,171926.000,A,3339.4813,N,11710.2663,W,62.69,01.76,50410,,,A*4E
$GPRMC,171929.000,A,3339.5331,N,11710.2640,W,61.72,02.46,50410,,,A*43
$GPRMC,171932.000,A,3339.5846,N,11710.2614,W,62.21,02.11,50410,,,A*44
$GPRMC,171935.000,A,3339.6361,N,11710.2592,W,62.21,01.76,50410,,,A*41
$GPRMC,171938.000,A,3339.6876,N,11710.2569,W,61.72,02.11,50410,,,A*42
$GPRMC,171941.000,A,3339.7388,N,11710.2550,W,61.23,01.41,50410,,,A*4F
$GPRMC,171944.000,A,3339.7896,N,11710.2544,W,60.75,00.35,50410,,,A*4B
$GPRMC,171948.000,A,3339.8547,N,11710.2540,W,57.35,00.35,50410,,,A*4D
$GPRMC,171951.000,A,3339.9017,N,11710.2540,W,56.37,00.00,50410,,,A*41
$GPRMC,171954.000,A,3339.9493,N,11710.2537,W,57.35,00.00,50410,,,A*4F
$GPRMC,171957.000,A,3339.9979,N,11710.2534,W,57.83,00.35,50410,,,A*4D
$GPRMC,172000.000,A,3340.0455,N,11710.2531,W,56.86,00.35,50410,,,A*40
$GPRMC,172003.000,A,3340.0932,N,11710.2531,W,56.86,00.00,50410,,,A*49
$GPRMC,172006.000,A,3340.1411,N,11710.2528,W,57.83,00.35,50410,,,A*4B
$GPRMC,172010.000,A,3340.2068,N,11710.2524,W,59.29,00.35,50410,,,A*47
$GPRMC,172013.000,A,3340.2570,N,11710.2524,W,61.23,00.00,50410,,,A*4F
$GPRMC,172016.000,A,3340.3091,N,11710.2518,W,63.18,00.70,50410,,,A*43
$GPRMC,172019.000,A,3340.3626,N,11710.2511,W,64.64,00.35,50410,,,A*42
$GPRMC,172022.000,A,3340.4170,N,11710.2505,W,65.61,00.35,50410,,,A*48
$GPRMC,172025.000,A,3340.4714,N,11710.2502,W,65.12,00.00,50410,,,A*4E
$GPRMC,172028.000,A,3340.5258,N,11710.2502,W,64.64,00.00,50410,,,A*4F
$GPRMC,172032.000,A,3340.5975,N,11710.2499,W,63.66,00.35,50410,,,A*40
$GPRMC,172035.000,A,3340.6503,N,11710.2499,W,62.69,00.00,50410,,,A*41
$GPRMC,172038.000,A,3340.7025,N,11710.2495,W,62.21,00.35,50410,,,A*4A
$GPRMC,172041.000,A,3340.7546,N,11710.2492,W,63.18,00.35,50410,,,A*48
