NMEA Sentence Code,UTC Time,Status,Latitude,Latitude Direction,Longitude,Longitude Direction,Speed (knots),Track Angle (degrees true),Date,MagneticVariation,Magnetic Variation Direction,[FAA Mode]-Optional,Checksum
$GPRMC,145308.9,A,3247.519384,N,11655.421028,W,8.6,282.4,210510,,,A*70
$GPRMC,145311.9,A,3247.521995,N,11655.433136,W,16.3,274.5,210510,,,A*46
$GPRMC,145314.9,A,3247.523765,N,11655.454474,W,22.1,273.2,210510,,,A*47
$GPRMC,145317.9,A,3247.526502,N,11655.470113,W,10.5,284.9,210510,,,A*46
$GPRMC,145320.9,A,3247.532760,N,11655.474926,W,10.7,327.5,210510,,,A*4D
$GPRMC,145323.9,A,3247.543836,N,11655.475397,W,15.2,358.5,210510,,,A*4D
$GPRMC,145326.9,A,3247.556006,N,11655.476473,W,11.9,353.2,210510,,,A*4A
$GPRMC,145332.9,A,3247.563654,N,11655.484586,W,12.8,294.9,210510,,,A*4D
$GPRMC,145335.9,A,3247.564889,N,11655.504304,W,22.3,271.5,210510,,,A*49
$GPRMC,145338.9,A,3247.563497,N,11655.530691,W,28.1,266.0,210510,,,A*45
$GPRMC,145341.9,A,3247.562215,N,11655.560289,W,29.0,271.0,210510,,,A*48
$GPRMC,145344.9,A,3247.563107,N,11655.587009,W,24.4,273.2,210510,,,A*46
$GPRMC,145347.9,A,3247.566021,N,11655.601345,W,9.7,284.0,210510,,,A*75
$GPRMC,145405.9,A,3247.564679,N,11655.617752,W,11.7,268.2,210510,,,A*41
$GPRMC,145408.9,A,3247.563800,N,11655.638592,W,22.1,268.7,210510,,,A*4B
$GPRMC,145411.9,A,3247.565815,N,11655.665376,W,26.4,273.5,210510,,,A*4C
$GPRMC,145414.9,A,3247.566770,N,11655.692413,W,28.0,272.9,210510,,,A*4D
$GPRMC,145417.9,A,3247.564475,N,11655.719022,W,28.6,268.9,210510,,,A*43
$GPRMC,145420.9,A,3247.566457,N,11655.746962,W,29.7,271.8,210510,,,A*4B
$GPRMC,145423.9,A,3247.565646,N,11655.778562,W,31.5,268.9,210510,,,A*4A
$GPRMC,145426.9,A,3247.565018,N,11655.810722,W,32.1,269.0,210510,,,A*4A
$GPRMC,145429.9,A,3247.566442,N,11655.844022,W,33.0,270.6,210510,,,A*45
$GPRMC,145432.9,A,3247.564747,N,11655.871804,W,30.7,270.0,210510,,,A*43
$GPRMC,145435.9,A,3247.564163,N,11655.898923,W,25.6,269.7,210510,,,A*4D
$GPRMC,145438.9,A,3247.563610,N,11655.922578,W,24.1,270.3,210510,,,A*4C
$GPRMC,145441.9,A,3247.563579,N,11655.947639,W,26.0,269.1,210510,,,A*42
$GPRMC,145444.9,A,3247.564493,N,11655.971556,W,21.8,271.9,210510,,,A*44
$GPRMC,145447.9,A,3247.563531,N,11655.991104,W,19.8,267.7,210510,,,A*46
$GPRMC,145450.9,A,3247.561645,N,11656.007980,W,15.1,264.9,210510,,,A*4B
$GPRMC,145453.9,A,3247.561444,N,11656.015947,W,4.6,272.0,210510,,,A*7A
$GPRMC,145502.9,A,3247.560931,N,11656.020583,W,6.4,274.8,210510,,,A*7D
$GPRMC,145505.9,A,3247.564676,N,11656.029068,W,14.5,298.8,210510,,,A*4B
$GPRMC,145508.9,A,3247.580785,N,11656.046471,W,25.3,311.2,210510,,,A*4A
$GPRMC,145511.9,A,3247.601799,N,11656.072228,W,33.7,314.3,210510,,,A*4F
$GPRMC,145514.9,A,3247.622538,N,11656.096063,W,34.0,314.3,210510,,,A*45
$GPRMC,145517.9,A,3247.641349,N,11656.117630,W,29.6,319.1,210510,,,A*4E
$GPRMC,145520.9,A,3247.659375,N,11656.132834,W,26.4,329.7,210510,,,A*49
$GPRMC,145523.9,A,3247.679572,N,11656.139812,W,25.1,347.3,210510,,,A*4C
$GPRMC,145526.9,A,3247.700853,N,11656.141878,W,24.7,356.8,210510,,,A*47
$GPRMC,145529.9,A,3247.723556,N,11656.140534,W,27.6,0.4,210510,,,A*4B
$GPRMC,145532.9,A,3247.748788,N,11656.140695,W,32.0,2.1,210510,,,A*40
$GPRMC,145535.9,A,3247.778908,N,11656.139925,W,34.3,2.1,210510,,,A*4D
$GPRMC,145538.9,A,3247.807470,N,11656.139193,W,35.6,2.4,210510,,,A*41
$GPRMC,145541.9,A,3247.826425,N,11656.137414,W,20.5,11.2,210510,,,A*7B
$GPRMC,145544.9,A,3247.832052,N,11656.128952,W,12.9,38.4,210510,,,A*7E
$GPRMC,145547.9,A,3247.837512,N,11656.116705,W,15.3,73.1,210510,,,A*7F
$GPRMC,145550.9,A,3247.836076,N,11656.102426,W,13.3,89.3,210510,,,A*79
$GPRMC,145912.9,A,3247.846141,N,11656.125289,W,6.5,271.6,210510,,,A*75
$GPRMC,145915.9,A,3247.849400,N,11656.133660,W,8.2,290.4,210510,,,A*7D
$GPRMC,145918.9,A,3247.855551,N,11656.138626,W,8.2,332.1,210510,,,A*7D
$GPRMC,145921.9,A,3247.874147,N,11656.139581,W,19.2,1.9,210510,,,A*43
$GPRMC,145924.9,A,3247.896578,N,11656.139835,W,27.4,359.1,210510,,,A*4D
$GPRMC,145927.9,A,3247.924497,N,11656.140974,W,33.1,358.4,210510,,,A*48
$GPRMC,145930.9,A,3247.952415,N,11656.142916,W,32.3,357.5,210510,,,A*4E
$GPRMC,145933.2,A,3247.972168,N,11656.143111,W,29.1,356.2,210510,,,A*4B
$GPRMC,145936.2,A,3247.989398,N,11656.143983,W,18.1,358.9,210510,,,A*43
$GPRMC,145939.2,A,3247.999858,N,11656.143720,W,6.3,0.2,210510,,,A*75
$GPRMC,150054.9,A,3248.006297,N,11656.143736,W,5.4,5.9,210510,,,A*7C
$GPRMC,150057.9,A,3248.026539,N,11656.144069,W,20.3,0.5,210510,,,A*4D
$GPRMC,150100.9,A,3248.051479,N,11656.143481,W,29.1,1.6,210510,,,A*47
$GPRMC,150103.9,A,3248.079196,N,11656.143570,W,31.4,1.0,210510,,,A*4F
$GPRMC,150106.9,A,3248.104657,N,11656.143641,W,29.9,358.3,210510,,,A*42
$GPRMC,150109.9,A,3248.127986,N,11656.145033,W,27.3,358.4,210510,,,A*49
$GPRMC,150112.9,A,3248.142748,N,11656.143810,W,15.1,357.9,210510,,,A*42
$GPRMC,150115.9,A,3248.146474,N,11656.144005,W,5.3,1.6,210510,,,A*7A
$GPRMC,150121.9,A,3248.152420,N,11656.143304,W,9.3,357.9,210510,,,A*7F
$GPRMC,150124.9,A,3248.163301,N,11656.144210,W,13.4,0.7,210510,,,A*4C
$GPRMC,150127.9,A,3248.174463,N,11656.144619,W,13.4,1.1,210510,,,A*40
$GPRMC,150130.2,A,3248.180907,N,11656.144179,W,8.9,349.1,210510,,,A*70
$GPRMC,150133.9,A,3248.189645,N,11656.144240,W,6.9,358.8,210510,,,A*76
$GPRMC,150236.9,A,3248.203484,N,11656.151077,W,6.3,316.0,210510,,,A*74
$GPRMC,150239.9,A,3248.204778,N,11656.160069,W,7.9,285.4,210510,,,A*75
$GPRMC,150242.9,A,3248.205673,N,11656.170402,W,7.2,279.5,210510,,,A*73
$GPRMC,150245.9,A,3248.206340,N,11656.174478,W,4.4,284.3,210510,,,A*7A
$GPRMC,150309.9,A,3248.208986,N,11656.191969,W,4.4,270.5,210510,,,A*76
$GPRMC,150327.9,A,3248.202447,N,11656.211352,W,5.4,247.3,210510,,,A*7A
$GPRMC,150330.9,A,3248.201048,N,11656.216540,W,5.1,262.0,210510,,,A*77
$GPRMC,150333.9,A,3248.200798,N,11656.221745,W,4.7,266.2,210510,,,A*7D
$GPRMC,150336.9,A,3248.200155,N,11656.226318,W,4.6,261.9,210510,,,A*79
$GPRMC,150339.9,A,3248.202036,N,11656.230644,W,4.6,275.2,210510,,,A*75
$GPRMC,150400.9,A,3248.200768,N,11656.254497,W,5.7,262.8,210510,,,A*74
$GPRMC,150403.9,A,3248.197832,N,11656.261926,W,7.3,256.6,210510,,,A*74
$GPRMC,150406.9,A,3248.197859,N,11656.270536,W,8.0,263.8,210510,,,A*75
$GPRMC,150415.9,A,3248.194977,N,11656.282788,W,5.0,267.9,210510,,,A*7B
$GPRMC,150424.9,A,3248.198496,N,11656.292281,W,8.8,286.1,210510,,,A*78
$GPRMC,150427.9,A,3248.198516,N,11656.314187,W,23.8,270.7,210510,,,A*4E
$GPRMC,150430.9,A,3248.195357,N,11656.346949,W,34.9,268.4,210510,,,A*46
$GPRMC,150433.9,A,3248.190389,N,11656.389950,W,42.9,266.6,210510,,,A*45
$GPRMC,150436.9,A,3248.189491,N,11656.437136,W,49.2,268.3,210510,,,A*47
$GPRMC,150439.9,A,3248.190572,N,11656.489409,W,53.0,269.5,210510,,,A*4E
$GPRMC,150442.9,A,3248.189065,N,11656.544355,W,56.4,268.4,210510,,,A*46
$GPRMC,150445.9,A,3248.189352,N,11656.601124,W,58.7,269.0,210510,,,A*48
$GPRMC,150448.9,A,3248.189514,N,11656.664344,W,63.4,269.8,210510,,,A*45
$GPRMC,150451.9,A,3248.189039,N,11656.728902,W,63.8,269.5,210510,,,A*47
$GPRMC,150454.9,A,3248.187206,N,11656.791192,W,64.6,269.4,210510,,,A*49
$GPRMC,150457.9,A,3248.186370,N,11656.853880,W,65.0,270.1,210510,,,A*4A
$GPRMC,150500.9,A,3248.187080,N,11656.923289,W,67.1,270.2,210510,,,A*41
$GPRMC,150503.9,A,3248.185675,N,11656.989445,W,65.7,269.3,210510,,,A*47
$GPRMC,150506.9,A,3248.187789,N,11657.050223,W,64.4,270.9,210510,,,A*48
$GPRMC,150509.9,A,3248.187832,N,11657.113052,W,63.3,270.8,210510,,,A*4B
$GPRMC,150512.9,A,3248.185608,N,11657.173398,W,62.1,269.9,210510,,,A*4D
$GPRMC,150515.9,A,3248.186212,N,11657.237578,W,63.4,270.8,210510,,,A*40
$GPRMC,150518.9,A,3248.186196,N,11657.304357,W,66.5,271.2,210510,,,A*47
$GPRMC,150521.9,A,3248.185371,N,11657.371585,W,66.7,270.0,210510,,,A*4F
$GPRMC,150524.9,A,3248.186238,N,11657.435041,W,64.8,269.1,210510,,,A*4B
$GPRMC,150527.9,A,3248.184164,N,11657.497727,W,65.2,268.8,210510,,,A*4C
$GPRMC,150530.9,A,3248.183205,N,11657.564853,W,66.6,269.9,210510,,,A*4F
$GPRMC,150533.9,A,3248.182943,N,11657.629666,W,65.6,270.0,210510,,,A*44
$GPRMC,150536.9,A,3248.183602,N,11657.695803,W,65.3,270.4,210510,,,A*41
$GPRMC,150539.9,A,3248.182061,N,11657.759621,W,66.6,269.2,210510,,,A*4B
$GPRMC,150542.9,A,3248.182904,N,11657.824550,W,67.1,270.1,210510,,,A*40
$GPRMC,150545.9,A,3248.181764,N,11657.890446,W,66.9,269.7,210510,,,A*42
$GPRMC,150548.9,A,3248.180871,N,11657.958490,W,68.6,269.0,210510,,,A*4D
$GPRMC,150551.9,A,3248.181890,N,11658.028430,W,68.6,270.1,210510,,,A*49
$GPRMC,150554.9,A,3248.182069,N,11658.092638,W,64.6,271.0,210510,,,A*46
$GPRMC,150557.9,A,3248.182415,N,11658.153887,W,63.5,270.7,210510,,,A*4E
$GPRMC,150600.9,A,3248.176707,N,11658.216974,W,64.0,264.4,210510,,,A*4F
$GPRMC,150603.9,A,3248.169275,N,11658.280150,W,64.9,258.2,210510,,,A*43
$GPRMC,150606.9,A,3248.151511,N,11658.340481,W,65.1,249.6,210510,,,A*41
$GPRMC,150609.9,A,3248.124388,N,11658.397751,W,65.1,241.0,210510,,,A*40
$GPRMC,150612.9,A,3248.093638,N,11658.451193,W,64.9,233.5,210510,,,A*45
$GPRMC,150615.9,A,3248.056355,N,11658.498776,W,64.6,225.7,210510,,,A*47
$GPRMC,150618.9,A,3248.009716,N,11658.537277,W,65.7,215.7,210510,,,A*40
$GPRMC,150621.9,A,3247.962647,N,11658.569369,W,64.3,208.3,210510,,,A*4C
$GPRMC,150624.9,A,3247.914056,N,11658.594672,W,64.7,201.5,210510,,,A*48
$GPRMC,150627.9,A,3247.859253,N,11658.612101,W,67.0,194.6,210510,,,A*42
$GPRMC,150630.9,A,3247.802146,N,11658.622675,W,68.6,188.6,210510,,,A*4E
$GPRMC,150633.9,A,3247.744097,N,11658.628702,W,68.2,186.6,210510,,,A*4C
$GPRMC,150636.9,A,3247.690605,N,11658.638760,W,64.4,187.8,210510,,,A*4C
$GPRMC,150639.9,A,3247.638325,N,11658.647356,W,62.7,188.1,210510,,,A*4C
$GPRMC,150642.9,A,3247.587690,N,11658.656167,W,62.9,188.2,210510,,,A*41
$GPRMC,150645.9,A,3247.534149,N,11658.663933,W,64.5,187.6,210510,,,A*43
$GPRMC,150648.9,A,3247.480732,N,11658.670904,W,63.7,186.1,210510,,,A*4F
$GPRMC,150651.9,A,3247.427622,N,11658.673535,W,62.3,181.4,210510,,,A*40
$GPRMC,150654.9,A,3247.374901,N,11658.671103,W,61.9,180.1,210510,,,A*44
$GPRMC,150657.9,A,3247.322484,N,11658.670770,W,62.1,180.9,210510,,,A*44
$GPRMC,150700.9,A,3247.273008,N,11658.680295,W,62.3,190.8,210510,,,A*41
$GPRMC,150703.9,A,3247.225003,N,11658.697227,W,61.0,199.2,210510,,,A*46
$GPRMC,150706.9,A,3247.181408,N,11658.723657,W,59.3,208.3,210510,,,A*4E
$GPRMC,150709.9,A,3247.138352,N,11658.754811,W,61.1,211.9,210510,,,A*4C
$GPRMC,150712.9,A,3247.095285,N,11658.787440,W,60.9,212.3,210510,,,A*4D
$GPRMC,150715.9,A,3247.051802,N,11658.818678,W,60.7,209.9,210510,,,A*49
$GPRMC,150718.9,A,3247.006044,N,11658.846341,W,61.9,206.5,210510,,,A*44
$GPRMC,150721.9,A,3246.957576,N,11658.872815,W,62.2,205.2,210510,,,A*47
$GPRMC,150724.9,A,3246.911767,N,11658.898137,W,60.4,205.9,210510,,,A*40
$GPRMC,150727.9,A,3246.866736,N,11658.924283,W,61.5,207.8,210510,,,A*4F
$GPRMC,150730.9,A,3246.823436,N,11658.959875,W,63.5,218.3,210510,,,A*45
$GPRMC,150733.9,A,3246.790469,N,11659.009085,W,65.5,230.5,210510,,,A*4B
$GPRMC,150736.9,A,3246.763068,N,11659.064292,W,65.5,238.4,210510,,,A*41
$GPRMC,150739.9,A,3246.743705,N,11659.123535,W,63.0,247.9,210510,,,A*4E
$GPRMC,150742.9,A,3246.736515,N,11659.186695,W,62.5,262.2,210510,,,A*4D
$GPRMC,150745.9,A,3246.735812,N,11659.249087,W,62.8,268.5,210510,,,A*46
$GPRMC,150748.9,A,3246.737693,N,11659.310929,W,63.1,271.1,210510,,,A*4A
$GPRMC,150751.9,A,3246.739699,N,11659.372851,W,63.1,271.7,210510,,,A*4A
$GPRMC,150754.9,A,3246.744780,N,11659.435006,W,63.7,272.7,210510,,,A*47
$GPRMC,150757.9,A,3246.744105,N,11659.498998,W,64.8,271.4,210510,,,A*4E
$GPRMC,150800.9,A,3246.744759,N,11659.561903,W,63.4,271.3,210510,,,A*45
$GPRMC,150803.9,A,3246.747497,N,11659.623593,W,62.6,271.2,210510,,,A*46
$GPRMC,150806.9,A,3246.749757,N,11659.686679,W,63.0,272.5,210510,,,A*49
$GPRMC,150809.9,A,3246.754331,N,11659.749483,W,63.4,273.7,210510,,,A*4C
$GPRMC,150812.9,A,3246.756385,N,11659.809861,W,61.4,273.8,210510,,,A*4D
$GPRMC,150815.2,A,3246.756769,N,11659.858522,W,63.2,271.4,210510,,,A*43
$GPRMC,150818.9,A,3246.760945,N,11659.937666,W,64.2,269.2,210510,,,A*43
$GPRMC,150821.9,A,3246.753513,N,11659.998974,W,64.6,260.5,210510,,,A*45
$GPRMC,150824.9,A,3246.737902,N,11700.061045,W,65.2,252.5,210510,,,A*43
$GPRMC,150827.9,A,3246.714729,N,11700.119573,W,64.6,244.2,210510,,,A*4D
$GPRMC,150830.9,A,3246.685817,N,11700.174708,W,66.3,237.2,210510,,,A*46
$GPRMC,150833.2,A,3246.663180,N,11700.217547,W,67.0,239.4,210510,,,A*44
$GPRMC,150836.2,A,3246.638751,N,11700.276969,W,67.1,246.7,210510,,,A*48
$GPRMC,150839.2,A,3246.617891,N,11700.338310,W,67.5,246.6,210510,,,A*43
$GPRMC,150842.9,A,3246.592423,N,11700.413825,W,67.3,247.8,210510,,,A*45
$GPRMC,150845.9,A,3246.572104,N,11700.476011,W,67.8,248.6,210510,,,A*4A
$GPRMC,150848.9,A,3246.549048,N,11700.536063,W,66.0,246.7,210510,,,A*40
$GPRMC,150851.9,A,3246.533583,N,11700.596973,W,64.0,249.4,210510,,,A*4B
$GPRMC,150854.9,A,3246.511434,N,11700.654092,W,64.2,248.3,210510,,,A*4C
$GPRMC,150857.9,A,3246.488339,N,11700.712869,W,66.0,246.3,210510,,,A*45
$GPRMC,150900.9,A,3246.463959,N,11700.774034,W,66.3,247.0,210510,,,A*4E
$GPRMC,150903.9,A,3246.444547,N,11700.834263,W,64.4,247.3,210510,,,A*46
$GPRMC,150906.9,A,3246.423803,N,11700.891433,W,63.1,246.4,210510,,,A*47
$GPRMC,150909.9,A,3246.394623,N,11700.947056,W,64.7,242.6,210510,,,A*45
$GPRMC,150912.9,A,3246.368355,N,11701.002200,W,63.5,240.3,210510,,,A*42
$GPRMC,150915.9,A,3246.340781,N,11701.056668,W,63.6,239.8,210510,,,A*4F
$GPRMC,150918.9,A,3246.315374,N,11701.110062,W,60.8,240.8,210510,,,A*40
$GPRMC,150921.9,A,3246.292342,N,11701.159125,W,60.6,243.0,210510,,,A*4B
$GPRMC,150924.9,A,3246.278398,N,11701.220252,W,64.3,253.1,210510,,,A*42
$GPRMC,150927.9,A,3246.269359,N,11701.283785,W,65.1,260.6,210510,,,A*4E
$GPRMC,150930.9,A,3246.262817,N,11701.345827,W,63.3,266.1,210510,,,A*4B
$GPRMC,150933.9,A,3246.259638,N,11701.407690,W,64.2,270.1,210510,,,A*41
$GPRMC,150936.9,A,3246.263694,N,11701.468935,W,63.8,277.9,210510,,,A*40
$GPRMC,150939.9,A,3246.283227,N,11701.529834,W,63.7,289.4,210510,,,A*4A
$GPRMC,150942.9,A,3246.306963,N,11701.587858,W,63.1,296.6,210510,,,A*45
$GPRMC,150945.2,A,3246.326339,N,11701.629168,W,61.2,299.1,210510,,,A*4A
$GPRMC,150948.9,A,3246.357200,N,11701.697535,W,64.3,298.5,210510,,,A*49
$GPRMC,150951.9,A,3246.380476,N,11701.753175,W,63.9,296.1,210510,,,A*42
$GPRMC,150954.9,A,3246.404691,N,11701.807655,W,63.2,297.6,210510,,,A*41
$GPRMC,150957.9,A,3246.426990,N,11701.864945,W,62.5,294.1,210510,,,A*45
$GPRMC,151000.9,A,3246.441352,N,11701.924183,W,62.8,284.5,210510,,,A*45
$GPRMC,151003.9,A,3246.445086,N,11701.982706,W,59.2,275.3,210510,,,A*45
$GPRMC,151006.9,A,3246.443357,N,11702.044559,W,61.5,267.0,210510,,,A*4D
$GPRMC,151009.9,A,3246.430179,N,11702.104796,W,62.3,257.5,210510,,,A*4F
$GPRMC,151012.9,A,3246.417470,N,11702.162841,W,61.2,255.0,210510,,,A*4C
$GPRMC,151015.9,A,3246.401445,N,11702.225796,W,64.6,254.2,210510,,,A*4D
$GPRMC,151018.9,A,3246.387647,N,11702.286107,W,63.7,254.8,210510,,,A*42
$GPRMC,151021.9,A,3246.372283,N,11702.342027,W,61.7,253.7,210510,,,A*4E
$GPRMC,151024.9,A,3246.360556,N,11702.401424,W,62.3,257.7,210510,,,A*43
$GPRMC,151027.9,A,3246.353719,N,11702.460599,W,60.0,264.5,210510,,,A*4A
$GPRMC,151030.9,A,3246.360843,N,11702.522045,W,61.0,276.1,210510,,,A*49
$GPRMC,151033.9,A,3246.374085,N,11702.579457,W,60.0,284.8,210510,,,A*41
$GPRMC,151036.9,A,3246.390476,N,11702.631872,W,57.2,291.4,210510,,,A*4C
$GPRMC,151039.9,A,3246.411396,N,11702.681686,W,55.6,297.9,210510,,,A*47
$GPRMC,151042.9,A,3246.438487,N,11702.731837,W,59.2,301.4,210510,,,A*42
$GPRMC,151045.9,A,3246.462349,N,11702.780403,W,57.6,300.2,210510,,,A*43
$GPRMC,151048.9,A,3246.488015,N,11702.830076,W,58.5,301.3,210510,,,A*4E
$GPRMC,151051.9,A,3246.513482,N,11702.878383,W,57.4,301.6,210510,,,A*41
$GPRMC,151054.9,A,3246.539719,N,11702.928668,W,59.6,299.9,210510,,,A*4A
$GPRMC,151057.9,A,3246.561835,N,11702.979497,W,59.9,296.9,210510,,,A*43
$GPRMC,151100.9,A,3246.580768,N,11703.033167,W,60.3,293.3,210510,,,A*4B
$GPRMC,151103.9,A,3246.598919,N,11703.090430,W,61.6,290.3,210510,,,A*40
$GPRMC,151106.9,A,3246.612411,N,11703.148810,W,61.0,285.7,210510,,,A*4D
$GPRMC,151109.9,A,3246.626457,N,11703.209985,W,63.0,283.9,210510,,,A*46
$GPRMC,151112.9,A,3246.636449,N,11703.268434,W,61.4,282.1,210510,,,A*4D
$GPRMC,151115.9,A,3246.647461,N,11703.330032,W,62.4,281.8,210510,,,A*41
$GPRMC,151118.9,A,3246.657792,N,11703.389305,W,61.7,281.5,210510,,,A*4A
$GPRMC,151121.9,A,3246.668296,N,11703.450656,W,63.5,282.1,210510,,,A*4A
$GPRMC,151124.9,A,3246.679872,N,11703.512663,W,64.9,283.4,210510,,,A*41
$GPRMC,151127.9,A,3246.696220,N,11703.577134,W,66.8,286.7,210510,,,A*4D
$GPRMC,151130.9,A,3246.713504,N,11703.639559,W,65.9,287.7,210510,,,A*43
$GPRMC,151133.9,A,3246.731202,N,11703.699061,W,63.6,288.3,210510,,,A*47
$GPRMC,151136.9,A,3246.749448,N,11703.757804,W,62.7,289.0,210510,,,A*4F
$GPRMC,151139.9,A,3246.761859,N,11703.816367,W,61.1,282.6,210510,,,A*4A
$GPRMC,151142.9,A,3246.764064,N,11703.874503,W,59.0,273.4,210510,,,A*43
$GPRMC,151145.9,A,3246.763635,N,11703.933159,W,57.2,269.4,210510,,,A*4F
$GPRMC,151148.9,A,3246.761976,N,11703.991425,W,58.3,268.8,210510,,,A*4D
$GPRMC,151151.9,A,3246.763334,N,11704.050632,W,59.7,270.5,210510,,,A*4D
$GPRMC,151154.9,A,3246.760671,N,11704.112699,W,62.8,268.5,210510,,,A*47
$GPRMC,151157.9,A,3246.757029,N,11704.173883,W,64.0,267.6,210510,,,A*4B
$GPRMC,151200.9,A,3246.756556,N,11704.239558,W,66.4,269.2,210510,,,A*4C
$GPRMC,151203.2,A,3246.752243,N,11704.289348,W,65.6,268.3,210510,,,A*4E
$GPRMC,151206.2,A,3246.753748,N,11704.356044,W,65.9,271.1,210510,,,A*4D
$GPRMC,151209.2,A,3246.756878,N,11704.420250,W,65.0,273.9,210510,,,A*49
$GPRMC,151212.2,A,3246.762640,N,11704.485801,W,65.8,275.8,210510,,,A*4F
$GPRMC,151215.2,A,3246.769898,N,11704.551627,W,66.6,278.2,210510,,,A*40
$GPRMC,151218.9,A,3246.781801,N,11704.631866,W,67.4,280.8,210510,,,A*40
$GPRMC,151221.9,A,3246.793831,N,11704.697121,W,69.4,282.3,210510,,,A*4B
$GPRMC,151224.9,A,3246.807128,N,11704.765890,W,71.7,282.4,210510,,,A*4F
$GPRMC,151227.9,A,3246.818821,N,11704.834235,W,71.9,281.7,210510,,,A*42
$GPRMC,151230.9,A,3246.830059,N,11704.902991,W,71.8,282.0,210510,,,A*4D
$GPRMC,151233.9,A,3246.843767,N,11704.973203,W,72.7,282.5,210510,,,A*4F
$GPRMC,151236.9,A,3246.856706,N,11705.045974,W,73.0,281.1,210510,,,A*4E
$GPRMC,151239.9,A,3246.863217,N,11705.117783,W,72.4,277.1,210510,,,A*4E
$GPRMC,151242.9,A,3246.865242,N,11705.192063,W,74.6,273.1,210510,,,A*40
$GPRMC,151245.9,A,3246.861541,N,11705.261571,W,71.3,267.3,210510,,,A*49
$GPRMC,151248.9,A,3246.859219,N,11705.333007,W,71.9,266.0,210510,,,A*4F
$GPRMC,151251.9,A,3246.853488,N,11705.400709,W,69.5,264.3,210510,,,A*49
$GPRMC,151254.9,A,3246.848623,N,11705.468694,W,66.5,264.2,210510,,,A*40
$GPRMC,151257.9,A,3246.840478,N,11705.528851,W,61.5,262.8,210510,,,A*4E
$GPRMC,151300.9,A,3246.831634,N,11705.585988,W,59.6,260.6,210510,,,A*47
$GPRMC,151303.9,A,3246.823153,N,11705.643339,W,58.8,260.1,210510,,,A*40
$GPRMC,151306.9,A,3246.818513,N,11705.702546,W,59.1,262.0,210510,,,A*4C
$GPRMC,151309.9,A,3246.807519,N,11705.757687,W,58.5,258.8,210510,,,A*4D
$GPRMC,151312.9,A,3246.799391,N,11705.814001,W,57.4,259.7,210510,,,A*49
$GPRMC,151315.9,A,3246.791268,N,11705.870512,W,57.3,259.9,210510,,,A*4D
$GPRMC,151318.9,A,3246.781633,N,11705.926412,W,59.4,257.9,210510,,,A*4F
$GPRMC,151321.9,A,3246.773488,N,11705.985636,W,59.8,260.3,210510,,,A*45
$GPRMC,151324.9,A,3246.763583,N,11706.041218,W,55.3,258.8,210510,,,A*46
$GPRMC,151327.9,A,3246.752440,N,11706.094835,W,55.3,257.6,210510,,,A*45
$GPRMC,151330.9,A,3246.744942,N,11706.153299,W,60.5,259.9,210510,,,A*4C
$GPRMC,151333.9,A,3246.736245,N,11706.216325,W,63.5,262.3,210510,,,A*43
$GPRMC,151336.9,A,3246.727446,N,11706.282479,W,67.8,264.3,210510,,,A*4F
$GPRMC,151339.9,A,3246.721344,N,11706.348117,W,66.6,266.0,210510,,,A*47
$GPRMC,151342.9,A,3246.717936,N,11706.414879,W,67.7,267.3,210510,,,A*4C
$GPRMC,151345.9,A,3246.716656,N,11706.481468,W,67.6,268.9,210510,,,A*47
$GPRMC,151348.9,A,3246.716393,N,11706.547370,W,68.2,268.8,210510,,,A*49
$GPRMC,151351.9,A,3246.717620,N,11706.616698,W,68.7,269.9,210510,,,A*4C
$GPRMC,151354.9,A,3246.718975,N,11706.683276,W,66.2,270.4,210510,,,A*4F
$GPRMC,151357.9,A,3246.718328,N,11706.746363,W,65.2,269.6,210510,,,A*4A
$GPRMC,151400.2,A,3246.717751,N,11706.792030,W,61.0,269.3,210510,,,A*4E
$GPRMC,151403.9,A,3246.717118,N,11706.864485,W,58.3,269.8,210510,,,A*43
$GPRMC,151406.9,A,3246.714954,N,11706.919607,W,57.8,268.4,210510,,,A*4F
$GPRMC,151409.9,A,3246.713120,N,11706.976757,W,58.1,266.6,210510,,,A*4B
$GPRMC,151412.9,A,3246.710710,N,11707.036950,W,60.1,264.5,210510,,,A*48
$GPRMC,151415.9,A,3246.701667,N,11707.097035,W,62.8,258.9,210510,,,A*47
$GPRMC,151418.9,A,3246.684496,N,11707.156009,W,62.9,252.0,210510,,,A*4B
$GPRMC,151421.9,A,3246.660855,N,11707.210754,W,62.2,243.8,210510,,,A*45
$GPRMC,151424.9,A,3246.633091,N,11707.263226,W,61.9,238.7,210510,,,A*49
$GPRMC,151427.9,A,3246.605832,N,11707.313162,W,59.0,236.0,210510,,,A*40
$GPRMC,151430.9,A,3246.578035,N,11707.360827,W,56.7,234.7,210510,,,A*41
$GPRMC,151433.9,A,3246.551900,N,11707.407257,W,57.3,235.1,210510,,,A*4F
$GPRMC,151436.9,A,3246.526344,N,11707.455448,W,59.7,237.8,210510,,,A*4E
$GPRMC,151439.9,A,3246.498239,N,11707.506601,W,64.0,237.7,210510,,,A*40
$GPRMC,151442.9,A,3246.466380,N,11707.563870,W,66.8,237.7,210510,,,A*4F
$GPRMC,151445.9,A,3246.436951,N,11707.622733,W,68.1,239.5,210510,,,A*4E
$GPRMC,151448.9,A,3246.414424,N,11707.681896,W,67.5,244.0,210510,,,A*41
$GPRMC,151451.9,A,3246.391319,N,11707.745283,W,69.6,248.1,210510,,,A*4D
$GPRMC,151454.9,A,3246.371381,N,11707.806162,W,64.9,252.2,210510,,,A*49
$GPRMC,151457.9,A,3246.370972,N,11707.866148,W,59.4,271.5,210510,,,A*46
$GPRMC,151500.9,A,3246.391313,N,11707.924357,W,60.5,291.0,210510,,,A*4C
$GPRMC,151503.9,A,3246.434778,N,11707.968227,W,63.2,316.3,210510,,,A*49
$GPRMC,151506.9,A,3246.476404,N,11708.007326,W,64.5,320.7,210510,,,A*4C
$GPRMC,151509.9,A,3246.520754,N,11708.047118,W,65.9,322.5,210510,,,A*41
$GPRMC,151512.9,A,3246.564325,N,11708.085130,W,63.9,323.7,210510,,,A*48
$GPRMC,151515.9,A,3246.605532,N,11708.119192,W,59.1,325.5,210510,,,A*42
$GPRMC,151518.9,A,3246.644876,N,11708.151290,W,57.7,325.4,210510,,,A*43
$GPRMC,151521.9,A,3246.684856,N,11708.180931,W,55.0,328.6,210510,,,A*41
$GPRMC,151524.9,A,3246.722724,N,11708.206839,W,51.9,329.5,210510,,,A*48
$GPRMC,151527.9,A,3246.760071,N,11708.233266,W,51.6,328.7,210510,,,A*40
$GPRMC,151530.9,A,3246.795602,N,11708.261211,W,51.6,327.4,210510,,,A*45
$GPRMC,151533.9,A,3246.830535,N,11708.291864,W,52.2,323.8,210510,,,A*49
$GPRMC,151536.9,A,3246.865082,N,11708.323323,W,53.1,321.5,210510,,,A*48
$GPRMC,151539.9,A,3246.896526,N,11708.354562,W,49.6,317.8,210510,,,A*47
$GPRMC,151542.9,A,3246.926253,N,11708.388126,W,50.5,313.2,210510,,,A*44
$GPRMC,151545.9,A,3246.954252,N,11708.427547,W,51.0,309.1,210510,,,A*4A
$GPRMC,151548.9,A,3246.983904,N,11708.469943,W,54.8,307.7,210510,,,A*42
$GPRMC,151551.9,A,3247.010123,N,11708.514367,W,54.1,305.4,210510,,,A*4A
$GPRMC,151554.9,A,3247.033310,N,11708.556737,W,49.5,305.1,210510,,,A*46
$GPRMC,151557.9,A,3247.057177,N,11708.596288,W,49.3,305.7,210510,,,A*49
$GPRMC,151600.9,A,3247.080341,N,11708.636780,W,49.8,304.7,210510,,,A*4B
$GPRMC,151603.9,A,3247.104314,N,11708.673460,W,48.4,307.1,210510,,,A*41
$GPRMC,151606.9,A,3247.126511,N,11708.709928,W,48.4,306.3,210510,,,A*49
$GPRMC,151609.9,A,3247.156634,N,11708.742641,W,47.4,313.7,210510,,,A*45
$GPRMC,151612.9,A,3247.185685,N,11708.774534,W,47.5,317.5,210510,,,A*48
$GPRMC,151615.9,A,3247.218686,N,11708.805824,W,49.1,319.8,210510,,,A*47
$GPRMC,151618.9,A,3247.250523,N,11708.836824,W,50.1,323.4,210510,,,A*47
$GPRMC,151621.9,A,3247.283031,N,11708.862767,W,47.4,328.0,210510,,,A*40
$GPRMC,151624.9,A,3247.317788,N,11708.885378,W,48.5,331.0,210510,,,A*49
$GPRMC,151627.9,A,3247.357599,N,11708.908656,W,50.6,335.9,210510,,,A*46
$GPRMC,151630.9,A,3247.398066,N,11708.924171,W,50.3,340.9,210510,,,A*4D
$GPRMC,151633.9,A,3247.436659,N,11708.939884,W,49.1,342.8,210510,,,A*41
$GPRMC,151636.9,A,3247.475915,N,11708.954738,W,49.4,345.2,210510,,,A*4F
$GPRMC,151639.9,A,3247.519111,N,11708.964760,W,50.5,348.7,210510,,,A*48
$GPRMC,151642.9,A,3247.559825,N,11708.971025,W,51.5,353.4,210510,,,A*44
$GPRMC,151645.9,A,3247.606629,N,11708.975034,W,55.4,357.4,210510,,,A*4D
$GPRMC,151648.9,A,3247.654501,N,11708.972948,W,60.1,0.8,210510,,,A*45
$GPRMC,151651.9,A,3247.705819,N,11708.971278,W,62.4,2.3,210510,,,A*49
$GPRMC,151654.9,A,3247.759611,N,11708.968337,W,65.8,3.6,210510,,,A*4E
$GPRMC,151657.9,A,3247.815117,N,11708.963939,W,66.9,3.1,210510,,,A*41
$GPRMC,151700.9,A,3247.872781,N,11708.961511,W,68.4,0.5,210510,,,A*4A
$GPRMC,151703.9,A,3247.933529,N,11708.968009,W,71.0,356.1,210510,,,A*40
$GPRMC,151706.9,A,3247.991184,N,11708.979501,W,68.7,350.4,210510,,,A*4F
$GPRMC,151709.9,A,3248.046183,N,11708.993702,W,67.9,348.2,210510,,,A*40
$GPRMC,151712.9,A,3248.100611,N,11709.007567,W,67.6,347.6,210510,,,A*45
$GPRMC,151715.9,A,3248.156719,N,11709.024272,W,69.0,346.3,210510,,,A*46
$GPRMC,151718.9,A,3248.211429,N,11709.037613,W,68.5,348.1,210510,,,A*42
$GPRMC,151721.2,A,3248.255544,N,11709.049230,W,70.0,346.8,210510,,,A*4E
$GPRMC,151724.9,A,3248.326811,N,11709.066187,W,71.0,347.7,210510,,,A*45
$GPRMC,151727.9,A,3248.384744,N,11709.083474,W,72.1,346.9,210510,,,A*4E
$GPRMC,151730.9,A,3248.439677,N,11709.109382,W,70.3,338.7,210510,,,A*42
$GPRMC,151733.9,A,3248.490805,N,11709.138845,W,69.5,333.6,210510,,,A*4F
$GPRMC,151736.9,A,3248.540226,N,11709.173110,W,69.9,328.9,210510,,,A*42
$GPRMC,151739.0,A,3248.573202,N,11709.200911,W,69.1,325.3,210510,,,A*43
$GPRMC,151742.9,A,3248.633601,N,11709.257982,W,69.1,321.0,210510,,,A*49
$GPRMC,151745.9,A,3248.676738,N,11709.301125,W,66.9,320.4,210510,,,A*41
$GPRMC,151748.9,A,3248.717455,N,11709.340883,W,62.6,320.7,210510,,,A*4A
$GPRMC,151751.9,A,3248.758478,N,11709.379261,W,63.3,321.4,210510,,,A*4C
$GPRMC,151754.9,A,3248.801099,N,11709.420683,W,66.2,320.8,210510,,,A*4B
$GPRMC,151757.9,A,3248.842782,N,11709.461137,W,66.2,321.5,210510,,,A*43
$GPRMC,151800.9,A,3248.892534,N,11709.500454,W,70.4,327.2,210510,,,A*4A
$GPRMC,151803.9,A,3248.944211,N,11709.535525,W,69.8,332.2,210510,,,A*42
$GPRMC,151806.9,A,3248.995487,N,11709.562426,W,68.4,334.7,210510,,,A*4C
$GPRMC,151809.9,A,3249.047590,N,11709.592830,W,67.8,333.8,210510,,,A*4C
$GPRMC,151812.9,A,3249.097391,N,11709.622894,W,66.3,333.9,210510,,,A*41
$GPRMC,151815.9,A,3249.144717,N,11709.649941,W,63.1,334.7,210510,,,A*49
$GPRMC,151818.9,A,3249.192483,N,11709.677078,W,62.2,334.4,210510,,,A*4E
$GPRMC,151821.9,A,3249.238119,N,11709.702574,W,63.2,334.5,210510,,,A*4B
$GPRMC,151824.9,A,3249.285591,N,11709.731607,W,64.3,333.5,210510,,,A*4A
$GPRMC,151827.2,A,3249.321895,N,11709.753476,W,64.0,334.3,210510,,,A*46
$GPRMC,151830.9,A,3249.381724,N,11709.789327,W,64.8,333.7,210510,,,A*4B
$GPRMC,151833.9,A,3249.429801,N,11709.817628,W,64.0,333.6,210510,,,A*4E
$GPRMC,151836.9,A,3249.479800,N,11709.845882,W,65.2,333.9,210510,,,A*4A
$GPRMC,151839.9,A,3249.526904,N,11709.873652,W,63.6,333.7,210510,,,A*41
$GPRMC,151842.9,A,3249.574681,N,11709.900582,W,63.1,333.4,210510,,,A*47
$GPRMC,151845.9,A,3249.621054,N,11709.928833,W,62.4,333.2,210510,,,A*42
$GPRMC,151848.9,A,3249.666917,N,11709.957674,W,62.5,332.5,210510,,,A*40
$GPRMC,151851.9,A,3249.716115,N,11709.988133,W,65.3,332.6,210510,,,A*40
$GPRMC,151854.9,A,3249.762177,N,11710.017611,W,64.0,332.8,210510,,,A*4E
$GPRMC,151857.9,A,3249.811385,N,11710.045897,W,66.0,332.9,210510,,,A*4D
$GPRMC,151900.9,A,3249.862667,N,11710.079253,W,68.7,331.9,210510,,,A*44
$GPRMC,151903.9,A,3249.910596,N,11710.108644,W,65.5,332.8,210510,,,A*46
$GPRMC,151906.9,A,3249.959228,N,11710.138146,W,67.0,332.7,210510,,,A*42
$GPRMC,151909.9,A,3250.008943,N,11710.168931,W,67.2,332.5,210510,,,A*43
$GPRMC,151912.2,A,3250.046505,N,11710.191273,W,63.9,332.6,210510,,,A*41
$GPRMC,151915.9,A,3250.101227,N,11710.225476,W,57.3,332.3,210510,,,A*4F
$GPRMC,151918.9,A,3250.140805,N,11710.249403,W,51.6,333.0,210510,,,A*44
$GPRMC,151921.9,A,3250.171000,N,11710.266627,W,37.6,333.5,210510,,,A*4D
$GPRMC,151924.9,A,3250.189322,N,11710.279523,W,23.2,333.2,210510,,,A*43
$GPRMC,151927.9,A,3250.206315,N,11710.288228,W,23.7,333.7,210510,,,A*42
$GPRMC,151930.9,A,3250.222685,N,11710.300176,W,22.9,331.5,210510,,,A*48
$GPRMC,151933.9,A,3250.235489,N,11710.309030,W,15.8,333.0,210510,,,A*4B
$GPRMC,151936.9,A,3250.243149,N,11710.313896,W,8.1,334.8,210510,,,A*73
$GPRMC,151939.9,A,3250.249498,N,11710.317125,W,8.8,329.1,210510,,,A*76
$GPRMC,151942.9,A,3250.256155,N,11710.319726,W,8.5,332.2,210510,,,A*7F
$GPRMC,151945.9,A,3250.264306,N,11710.324901,W,11.6,333.9,210510,,,A*49
$GPRMC,151948.9,A,3250.272997,N,11710.330287,W,12.9,331.9,210510,,,A*4F
$GPRMC,151951.9,A,3250.282161,N,11710.334396,W,10.6,333.8,210510,,,A*42
$GPRMC,151954.9,A,3250.290065,N,11710.338639,W,8.9,336.9,210510,,,A*7F
$GPRMC,151957.9,A,3250.297743,N,11710.343596,W,11.2,332.7,210510,,,A*4B
$GPRMC,152000.9,A,3250.308044,N,11710.351540,W,15.0,330.3,210510,,,A*4C
$GPRMC,152003.9,A,3250.319817,N,11710.358832,W,18.9,332.9,210510,,,A*4C
$GPRMC,152006.9,A,3250.337509,N,11710.370209,W,23.1,332.1,210510,,,A*47
$GPRMC,152009.9,A,3250.354013,N,11710.380778,W,22.4,332.4,210510,,,A*4E
$GPRMC,152012.9,A,3250.371905,N,11710.391347,W,22.4,332.9,210510,,,A*48
$GPRMC,152015.9,A,3250.388465,N,11710.399885,W,22.9,332.9,210510,,,A*42
$GPRMC,152018.9,A,3250.406145,N,11710.413513,W,24.9,330.9,210510,,,A*4A
$GPRMC,152021.9,A,3250.425156,N,11710.421730,W,26.0,335.6,210510,,,A*40
$GPRMC,152024.9,A,3250.446520,N,11710.435012,W,29.2,333.2,210510,,,A*48
$GPRMC,152027.9,A,3250.467815,N,11710.449149,W,28.6,332.9,210510,,,A*48
$GPRMC,152030.9,A,3250.489069,N,11710.460491,W,28.2,334.6,210510,,,A*4B
$GPRMC,152033.9,A,3250.511087,N,11710.473617,W,30.2,333.9,210510,,,A*47
$GPRMC,152036.9,A,3250.533090,N,11710.487749,W,30.0,333.5,210510,,,A*4B
$GPRMC,152039.9,A,3250.551454,N,11710.499346,W,25.0,333.2,210510,,,A*4B
$GPRMC,152042.9,A,3250.568363,N,11710.509379,W,21.3,333.0,210510,,,A*4F
$GPRMC,152045.9,A,3250.582329,N,11710.518998,W,19.2,333.3,210510,,,A*4E
$GPRMC,152048.9,A,3250.597906,N,11710.528910,W,17.6,332.4,210510,,,A*4F
$GPRMC,152051.9,A,3250.608818,N,11710.533804,W,13.0,334.7,210510,,,A*45
$GPRMC,152054.9,A,3250.615633,N,11710.539876,W,11.5,329.4,210510,,,A*4C
$GPRMC,152057.9,A,3250.626215,N,11710.544232,W,14.6,333.1,210510,,,A*47
$GPRMC,152100.9,A,3250.638856,N,11710.553249,W,17.3,333.7,210510,,,A*4C
$GPRMC,152103.2,A,3250.652788,N,11710.559725,W,21.6,334.3,210510,,,A*42
$GPRMC,152106.2,A,3250.670757,N,11710.570898,W,24.9,332.6,210510,,,A*4E
$GPRMC,152109.2,A,3250.688379,N,11710.581136,W,20.0,333.3,210510,,,A*44
$GPRMC,152112.9,A,3250.703456,N,11710.589681,W,15.8,334.5,210510,,,A*41
$GPRMC,152115.9,A,3250.715554,N,11710.596454,W,15.9,334.3,210510,,,A*41
$GPRMC,152118.9,A,3250.727150,N,11710.603593,W,16.2,332.1,210510,,,A*44
$GPRMC,152121.9,A,3250.737092,N,11710.610784,W,12.6,331.9,210510,,,A*4D
$GPRMC,152124.9,A,3250.747513,N,11710.616814,W,15.3,333.8,210510,,,A*42
$GPRMC,152127.9,A,3250.764702,N,11710.626879,W,23.0,331.8,210510,,,A*4E
$GPRMC,152130.9,A,3250.783339,N,11710.637939,W,26.9,332.9,210510,,,A*46
$GPRMC,152133.9,A,3250.806216,N,11710.652720,W,32.6,332.4,210510,,,A*49
$GPRMC,152136.9,A,3250.829801,N,11710.667996,W,31.2,331.6,210510,,,A*4E
$GPRMC,152139.9,A,3250.852588,N,11710.681600,W,29.1,333.5,210510,,,A*42
$GPRMC,152142.9,A,3250.872316,N,11710.691316,W,24.5,334.3,210510,,,A*46
$GPRMC,152145.9,A,3250.887057,N,11710.700110,W,21.1,332.7,210510,,,A*43
$GPRMC,152148.9,A,3250.903769,N,11710.711644,W,22.1,332.1,210510,,,A*4A
$GPRMC,152151.9,A,3250.919765,N,11710.721135,W,22.8,332.7,210510,,,A*48
$GPRMC,152154.9,A,3250.939757,N,11710.735163,W,27.7,331.6,210510,,,A*40
$GPRMC,152157.9,A,3250.961775,N,11710.747626,W,28.8,333.8,210510,,,A*41
$GPRMC,152200.9,A,3250.980885,N,11710.760186,W,26.1,332.1,210510,,,A*48
$GPRMC,152203.9,A,3251.000792,N,11710.771197,W,26.6,333.0,210510,,,A*45
$GPRMC,152206.9,A,3251.019937,N,11710.783009,W,24.1,332.8,210510,,,A*4E
$GPRMC,152209.9,A,3251.036844,N,11710.792722,W,20.1,334.7,210510,,,A*4A
$GPRMC,152212.9,A,3251.043935,N,11710.798638,W,9.5,332.5,210510,,,A*7E
$GPRMC,152215.9,A,3251.050771,N,11710.802685,W,10.8,332.5,210510,,,A*4A
$GPRMC,152218.9,A,3251.060074,N,11710.809551,W,15.6,328.4,210510,,,A*46
$GPRMC,152221.9,A,3251.073972,N,11710.819358,W,20.6,330.1,210510,,,A*45
$GPRMC,152224.9,A,3251.094547,N,11710.830607,W,26.7,330.9,210510,,,A*48
$GPRMC,152227.9,A,3251.119444,N,11710.843011,W,32.6,332.8,210510,,,A*4F
$GPRMC,152230.9,A,3251.145712,N,11710.860439,W,35.1,331.9,210510,,,A*4D
$GPRMC,152233.9,A,3251.170389,N,11710.874946,W,32.3,333.3,210510,,,A*43
$GPRMC,152236.9,A,3251.194981,N,11710.890475,W,33.9,332.2,210510,,,A*42
$GPRMC,152239.9,A,3251.224493,N,11710.907664,W,38.4,332.2,210510,,,A*40
$GPRMC,152242.9,A,3251.254127,N,11710.924801,W,38.2,332.4,210510,,,A*4D
$GPRMC,152245.9,A,3251.280464,N,11710.941967,W,36.0,331.5,210510,,,A*4D
$GPRMC,152248.9,A,3251.307771,N,11710.960107,W,38.5,331.9,210510,,,A*43
$GPRMC,152251.9,A,3251.339565,N,11710.978747,W,43.2,332.9,210510,,,A*42
$GPRMC,152254.9,A,3251.374949,N,11710.999236,W,44.7,333.1,210510,,,A*4B
$GPRMC,152257.9,A,3251.410455,N,11711.019780,W,47.1,332.6,210510,,,A*46
$GPRMC,152300.9,A,3251.443323,N,11711.041546,W,46.8,332.2,210510,,,A*4C
$GPRMC,152303.9,A,3251.480848,N,11711.065224,W,51.8,332.8,210510,,,A*4F
$GPRMC,152306.9,A,3251.521841,N,11711.089765,W,54.7,333.0,210510,,,A*48
$GPRMC,152309.9,A,3251.562657,N,11711.114211,W,53.9,332.1,210510,,,A*43
$GPRMC,152312.9,A,3251.602304,N,11711.141211,W,56.1,328.7,210510,,,A*4F
$GPRMC,152315.9,A,3251.645307,N,11711.175720,W,60.9,325.0,210510,,,A*4F
$GPRMC,152318.9,A,3251.685808,N,11711.212304,W,60.9,322.5,210510,,,A*48
$GPRMC,152321.9,A,3251.723864,N,11711.247987,W,60.3,321.4,210510,,,A*4C
$GPRMC,152324.9,A,3251.765391,N,11711.287125,W,63.2,321.3,210510,,,A*43
$GPRMC,152327.9,A,3251.805987,N,11711.325959,W,62.3,320.9,210510,,,A*45
$GPRMC,152330.9,A,3251.846462,N,11711.365292,W,62.7,321.2,210510,,,A*44
$GPRMC,152333.9,A,3251.886038,N,11711.404040,W,62.7,320.9,210510,,,A*47
$GPRMC,152336.9,A,3251.926225,N,11711.442323,W,63.8,321.1,210510,,,A*44
$GPRMC,152339.9,A,3251.970745,N,11711.484291,W,67.9,321.1,210510,,,A*4C
$GPRMC,152342.9,A,3252.016671,N,11711.528558,W,70.0,321.0,210510,,,A*47
$GPRMC,152345.9,A,3252.060877,N,11711.570952,W,69.8,320.8,210510,,,A*4B
$GPRMC,152348.9,A,3252.108649,N,11711.613757,W,71.3,321.4,210510,,,A*48
$GPRMC,152351.9,A,3252.155379,N,11711.659928,W,73.2,320.8,210510,,,A*48
$GPRMC,152355.2,A,3252.208029,N,11711.710158,W,73.4,321.0,210510,,,A*46
$GPRMC,152358.9,A,3252.268814,N,11711.766922,W,75.3,321.6,210510,,,A*43
$GPRMC,152401.9,A,3252.316189,N,11711.810561,W,72.6,321.6,210510,,,A*4A
$GPRMC,152404.9,A,3252.364075,N,11711.854826,W,73.6,323.4,210510,,,A*47
$GPRMC,152407.9,A,3252.415126,N,11711.894548,W,73.0,327.9,210510,,,A*44
$GPRMC,152410.9,A,3252.466155,N,11711.927932,W,71.3,332.6,210510,,,A*40
$GPRMC,152413.9,A,3252.520674,N,11711.957871,W,70.8,336.4,210510,,,A*49
$GPRMC,152416.9,A,3252.574794,N,11711.982065,W,68.8,340.6,210510,,,A*4D
$GPRMC,152419.9,A,3252.630564,N,11712.001264,W,68.3,345.2,210510,,,A*44
$GPRMC,152422.9,A,3252.686088,N,11712.019761,W,68.5,345.1,210510,,,A*4A
$GPRMC,152425.9,A,3252.741630,N,11712.035359,W,69.0,346.1,210510,,,A*44
$GPRMC,152428.9,A,3252.797708,N,11712.052849,W,67.3,345.3,210510,,,A*4F
$GPRMC,152431.9,A,3252.850559,N,11712.067408,W,65.5,346.9,210510,,,A*47
$GPRMC,152434.2,A,3252.894038,N,11712.079938,W,69.3,346.3,210510,,,A*42
$GPRMC,152437.2,A,3252.951574,N,11712.096843,W,71.1,345.7,210510,,,A*44
$GPRMC,152440.2,A,3253.009352,N,11712.114456,W,71.4,345.7,210510,,,A*45
$GPRMC,152443.2,A,3253.067371,N,11712.132010,W,72.0,345.9,210510,,,A*44
$GPRMC,152446.2,A,3253.125226,N,11712.149499,W,71.6,345.6,210510,,,A*46
$GPRMC,152449.9,A,3253.196294,N,11712.174351,W,72.5,341.7,210510,,,A*4B
$GPRMC,152452.9,A,3253.251528,N,11712.199614,W,71.9,336.5,210510,,,A*43
$GPRMC,152455.9,A,3253.303776,N,11712.235316,W,72.5,329.4,210510,,,A*49
$GPRMC,152458.9,A,3253.355064,N,11712.275345,W,72.8,324.7,210510,,,A*42
$GPRMC,152501.9,A,3253.401681,N,11712.321956,W,73.0,317.9,210510,,,A*4B
$GPRMC,152504.9,A,3253.443198,N,11712.375362,W,74.2,311.6,210510,,,A*47
$GPRMC,152507.9,A,3253.479977,N,11712.433544,W,74.3,305.7,210510,,,A*46
$GPRMC,152510.9,A,3253.513759,N,11712.496628,W,76.1,299.9,210510,,,A*43
$GPRMC,152513.9,A,3253.541447,N,11712.565155,W,77.6,295.7,210510,,,A*4F
$GPRMC,152516.9,A,3253.566773,N,11712.637427,W,78.4,293.2,210510,,,A*41
$GPRMC,152519.9,A,3253.595745,N,11712.703153,W,76.1,297.7,210510,,,A*4D
$GPRMC,152522.9,A,3253.630586,N,11712.771569,W,77.9,302.3,210510,,,A*4C
$GPRMC,152525.9,A,3253.668077,N,11712.833738,W,76.1,307.3,210510,,,A*4E
$GPRMC,152532.9,A,3253.769803,N,11712.962112,W,76.1,317.0,210510,,,A*4A
$GPRMC,152535.9,A,3253.820042,N,11713.011053,W,77.4,321.6,210510,,,A*4D
$GPRMC,152538.9,A,3253.869777,N,11713.055797,W,75.0,323.0,210510,,,A*41
$GPRMC,152542.9,A,3253.933354,N,11713.115178,W,70.6,322.1,210510,,,A*46
$GPRMC,152545.9,A,3253.980009,N,11713.156100,W,68.1,320.5,210510,,,A*42
$GPRMC,152548.9,A,3254.023497,N,11713.197508,W,66.9,320.3,210510,,,A*4A
$GPRMC,152552.9,A,3254.081510,N,11713.254860,W,66.8,320.4,210510,,,A*4E
$GPRMC,152555.9,A,3254.124142,N,11713.297186,W,66.7,320.2,210510,,,A*43
$GPRMC,152558.9,A,3254.165315,N,11713.339706,W,66.7,319.9,210510,,,A*41
$GPRMC,152601.9,A,3254.210339,N,11713.383876,W,69.7,320.0,210510,,,A*44
$GPRMC,152604.9,A,3254.256581,N,11713.428172,W,70.2,321.4,210510,,,A*45
$GPRMC,152607.0,A,3254.292125,N,11713.457097,W,69.8,326.8,210510,,,A*46
$GPRMC,152610.9,A,3254.358398,N,11713.497299,W,67.9,333.5,210510,,,A*4C
$GPRMC,152613.9,A,3254.404583,N,11713.525203,W,64.2,332.8,210510,,,A*42
$GPRMC,152616.9,A,3254.453930,N,11713.551537,W,65.4,335.4,210510,,,A*4E
$GPRMC,152619.9,A,3254.505329,N,11713.580020,W,68.6,333.7,210510,,,A*44
$GPRMC,152622.9,A,3254.557849,N,11713.612030,W,71.0,332.2,210510,,,A*45
$GPRMC,152625.9,A,3254.608513,N,11713.643511,W,71.0,333.2,210510,,,A*4A
$GPRMC,152628.9,A,3254.663600,N,11713.676123,W,73.3,334.2,210510,,,A*4E
$GPRMC,152631.9,A,3254.720295,N,11713.706202,W,73.4,334.5,210510,,,A*4E
$GPRMC,152634.9,A,3254.775032,N,11713.737030,W,72.1,335.2,210510,,,A*47
$GPRMC,152637.9,A,3254.829416,N,11713.770076,W,73.1,332.4,210510,,,A*41
$GPRMC,152640.9,A,3254.878829,N,11713.805497,W,67.6,327.1,210510,,,A*40
$GPRMC,152643.9,A,3254.918921,N,11713.846426,W,64.2,319.9,210510,,,A*42
$GPRMC,152646.9,A,3254.957027,N,11713.893435,W,65.7,314.0,210510,,,A*49
$GPRMC,152649.9,A,3254.992500,N,11713.942857,W,67.5,310.0,210510,,,A*4E
$GPRMC,152652.9,A,3255.027756,N,11713.995563,W,68.6,308.1,210510,,,A*47
$GPRMC,152655.9,A,3255.066101,N,11714.049381,W,68.6,311.4,210510,,,A*49
$GPRMC,152658.9,A,3255.104818,N,11714.096662,W,66.9,315.1,210510,,,A*4A
$GPRMC,152701.9,A,3255.146332,N,11714.143224,W,69.6,318.0,210510,,,A*41
$GPRMC,152704.9,A,3255.192187,N,11714.187597,W,72.9,322.1,210510,,,A*4B
$GPRMC,152707.9,A,3255.247761,N,11714.228588,W,77.0,328.2,210510,,,A*40
$GPRMC,152710.9,A,3255.307074,N,11714.264256,W,77.6,333.4,210510,,,A*46
$GPRMC,152713.9,A,3255.365938,N,11714.293828,W,76.9,337.7,210510,,,A*42
$GPRMC,152716.9,A,3255.427833,N,11714.320906,W,77.9,341.1,210510,,,A*4E
$GPRMC,152719.9,A,3255.488487,N,11714.342967,W,76.2,344.1,210510,,,A*4B
$GPRMC,152722.9,A,3255.548367,N,11714.362556,W,73.3,344.6,210510,,,A*48
$GPRMC,152725.9,A,3255.606067,N,11714.380953,W,70.7,344.9,210510,,,A*48
$GPRMC,152728.9,A,3255.660928,N,11714.398181,W,68.0,345.4,210510,,,A*4B
$GPRMC,152731.9,A,3255.715408,N,11714.415884,W,66.4,345.2,210510,,,A*4D
$GPRMC,152734.9,A,3255.766553,N,11714.430212,W,63.7,345.8,210510,,,A*4D
$GPRMC,152737.9,A,3255.818605,N,11714.444151,W,64.0,348.6,210510,,,A*4C
$GPRMC,152740.9,A,3255.875954,N,11714.455378,W,67.2,351.3,210510,,,A*49
$GPRMC,152743.9,A,3255.930198,N,11714.462261,W,64.6,353.1,210510,,,A*48
$GPRMC,152746.9,A,3255.981018,N,11714.466824,W,63.4,355.8,210510,,,A*4B
$GPRMC,152749.9,A,3256.034315,N,11714.471076,W,63.9,356.4,210510,,,A*45
$GPRMC,152752.9,A,3256.088759,N,11714.474751,W,63.8,356.6,210510,,,A*40
$GPRMC,152755.9,A,3256.137811,N,11714.479369,W,60.8,355.4,210510,,,A*41
$GPRMC,152758.9,A,3256.188841,N,11714.486230,W,61.1,354.8,210510,,,A*45
$GPRMC,152801.9,A,3256.239106,N,11714.488870,W,59.8,356.6,210510,,,A*4B
$GPRMC,152804.9,A,3256.287123,N,11714.492872,W,58.1,355.8,210510,,,A*40
$GPRMC,152807.9,A,3256.333014,N,11714.497376,W,56.8,355.4,210510,,,A*49
$GPRMC,152810.9,A,3256.380886,N,11714.502645,W,56.8,356.9,210510,,,A*42
$GPRMC,152813.9,A,3256.427645,N,11714.506986,W,56.7,354.0,210510,,,A*4A
$GPRMC,152816.9,A,3256.473923,N,11714.515997,W,56.5,351.0,210510,,,A*44
$GPRMC,152819.9,A,3256.520265,N,11714.526383,W,54.4,350.1,210510,,,A*49
$GPRMC,152822.9,A,3256.567383,N,11714.533434,W,56.3,351.4,210510,,,A*45
$GPRMC,152825.9,A,3256.614691,N,11714.542122,W,56.0,351.4,210510,,,A*44
$GPRMC,152828.9,A,3256.660842,N,11714.551902,W,55.3,350.4,210510,,,A*43
$GPRMC,152831.9,A,3256.704725,N,11714.558984,W,55.2,351.6,210510,,,A*43
$GPRMC,152834.9,A,3256.753622,N,11714.567669,W,57.1,351.6,210510,,,A*43
$GPRMC,152837.9,A,3256.801160,N,11714.576862,W,56.2,351.3,210510,,,A*4B
$GPRMC,152840.9,A,3256.846768,N,11714.584482,W,56.4,351.5,210510,,,A*49
$GPRMC,152843.9,A,3256.894993,N,11714.595553,W,59.6,350.5,210510,,,A*4E
$GPRMC,152846.9,A,3256.944548,N,11714.605623,W,61.8,350.5,210510,,,A*46
$GPRMC,152849.9,A,3256.994571,N,11714.613263,W,62.7,352.0,210510,,,A*42
$GPRMC,152852.2,A,3257.038522,N,11714.622646,W,65.9,350.8,210510,,,A*49
$GPRMC,152855.9,A,3257.105912,N,11714.636188,W,62.9,352.0,210510,,,A*48
$GPRMC,152858.9,A,3257.155506,N,11714.643254,W,61.7,351.7,210510,,,A*40
$GPRMC,152901.9,A,3257.208535,N,11714.652461,W,62.0,352.1,210510,,,A*47
$GPRMC,152904.9,A,3257.259512,N,11714.661712,W,60.3,350.4,210510,,,A*42
$GPRMC,152907.9,A,3257.307168,N,11714.670061,W,58.3,350.6,210510,,,A*48
$GPRMC,152910.9,A,3257.355200,N,11714.680482,W,59.0,350.4,210510,,,A*42
$GPRMC,152913.9,A,3257.397688,N,11714.688343,W,57.8,351.1,210510,,,A*4B
$GPRMC,152916.9,A,3257.447232,N,11714.695331,W,58.7,351.3,210510,,,A*4A
$GPRMC,152919.9,A,3257.498216,N,11714.707077,W,59.6,350.0,210510,,,A*48
$GPRMC,152922.9,A,3257.542029,N,11714.715351,W,55.2,350.3,210510,,,A*47
$GPRMC,152925.9,A,3257.584147,N,11714.725905,W,53.1,347.0,210510,,,A*4B
$GPRMC,152928.9,A,3257.625283,N,11714.736683,W,54.9,345.9,210510,,,A*42
$GPRMC,152931.9,A,3257.673177,N,11714.751120,W,57.0,345.5,210510,,,A*48
$GPRMC,152934.9,A,3257.721651,N,11714.770295,W,58.9,341.9,210510,,,A*48
$GPRMC,152937.9,A,3257.765558,N,11714.786783,W,57.5,342.1,210510,,,A*42
$GPRMC,152940.9,A,3257.812377,N,11714.803189,W,58.1,343.3,210510,,,A*40
$GPRMC,152943.9,A,3257.860954,N,11714.820205,W,59.6,343.8,210510,,,A*46
$GPRMC,152946.9,A,3257.908441,N,11714.837498,W,60.5,342.8,210510,,,A*49
$GPRMC,152949.9,A,3257.955252,N,11714.856896,W,60.1,341.9,210510,,,A*49
$GPRMC,152952.9,A,3258.001225,N,11714.873888,W,58.3,342.8,210510,,,A*47
$GPRMC,152955.9,A,3258.047770,N,11714.890722,W,58.8,341.7,210510,,,A*42
$GPRMC,152958.9,A,3258.094841,N,11714.911283,W,62.1,341.1,210510,,,A*4C
$GPRMC,153001.9,A,3258.144883,N,11714.929922,W,64.1,343.1,210510,,,A*45
$GPRMC,153004.9,A,3258.195178,N,11714.950336,W,62.8,342.0,210510,,,A*4F
$GPRMC,153007.9,A,3258.245602,N,11714.968801,W,63.2,341.8,210510,,,A*4C
$GPRMC,153010.9,A,3258.294518,N,11714.986817,W,62.0,343.1,210510,,,A*41
$GPRMC,153013.9,A,3258.343087,N,11715.006301,W,61.7,341.8,210510,,,A*49
$GPRMC,153016.9,A,3258.393379,N,11715.026989,W,63.1,341.7,210510,,,A*40
$GPRMC,153019.9,A,3258.443004,N,11715.042827,W,62.8,344.5,210510,,,A*44
$GPRMC,153022.9,A,3258.493201,N,11715.062803,W,62.6,340.9,210510,,,A*44
$GPRMC,153025.9,A,3258.539394,N,11715.080535,W,61.2,342.3,210510,,,A*44
$GPRMC,153028.9,A,3258.589531,N,11715.098608,W,63.0,343.8,210510,,,A*45
$GPRMC,153031.9,A,3258.637573,N,11715.117714,W,60.4,341.9,210510,,,A*43
$GPRMC,153034.9,A,3258.685491,N,11715.135276,W,58.2,342.6,210510,,,A*42
$GPRMC,153037.9,A,3258.727624,N,11715.151765,W,56.3,342.8,210510,,,A*40
$GPRMC,153040.9,A,3258.771749,N,11715.169077,W,56.5,342.3,210510,,,A*4B
$GPRMC,153043.9,A,3258.815984,N,11715.184611,W,55.8,342.4,210510,,,A*46
$GPRMC,153046.9,A,3258.861104,N,11715.201402,W,56.2,342.2,210510,,,A*41
$GPRMC,153049.9,A,3258.902603,N,11715.217401,W,52.0,342.1,210510,,,A*4B
$GPRMC,153052.9,A,3258.940058,N,11715.231212,W,48.3,342.7,210510,,,A*41
$GPRMC,153055.9,A,3258.977275,N,11715.244545,W,48.0,342.7,210510,,,A*4B
$GPRMC,153058.9,A,3259.018877,N,11715.262687,W,49.3,342.1,210510,,,A*42
$GPRMC,153101.9,A,3259.059548,N,11715.275428,W,49.7,345.2,210510,,,A*4A
$GPRMC,153104.9,A,3259.096657,N,11715.287288,W,47.7,346.4,210510,,,A*4B
$GPRMC,153107.9,A,3259.138022,N,11715.292915,W,48.7,352.6,210510,,,A*4A
$GPRMC,153110.9,A,3259.179907,N,11715.298503,W,49.2,353.1,210510,,,A*44
$GPRMC,153113.9,A,3259.219272,N,11715.304263,W,47.1,352.8,210510,,,A*4B
$GPRMC,153116.9,A,3259.253704,N,11715.309451,W,45.1,352.0,210510,,,A*44
$GPRMC,153119.9,A,3259.291676,N,11715.316008,W,45.6,351.9,210510,,,A*4A
$GPRMC,153122.9,A,3259.327754,N,11715.319684,W,45.0,353.3,210510,,,A*4C
$GPRMC,153125.9,A,3259.365938,N,11715.326275,W,45.4,351.7,210510,,,A*4D
$GPRMC,153128.9,A,3259.405715,N,11715.333026,W,47.6,352.1,210510,,,A*45
$GPRMC,153131.9,A,3259.446003,N,11715.339525,W,48.3,352.7,210510,,,A*4A
$GPRMC,153134.9,A,3259.485429,N,11715.346234,W,47.8,352.6,210510,,,A*46
$GPRMC,153137.9,A,3259.525861,N,11715.351820,W,48.5,352.7,210510,,,A*44
$GPRMC,153140.9,A,3259.566927,N,11715.356569,W,49.2,352.6,210510,,,A*40
$GPRMC,153143.9,A,3259.606284,N,11715.364422,W,48.9,351.6,210510,,,A*42
$GPRMC,153146.9,A,3259.644772,N,11715.371400,W,46.3,351.6,210510,,,A*4D
$GPRMC,153149.9,A,3259.682112,N,11715.376385,W,45.2,352.6,210510,,,A*44
$GPRMC,153152.9,A,3259.719064,N,11715.381803,W,46.8,353.0,210510,,,A*4E
$GPRMC,153157.9,A,3259.787273,N,11715.391581,W,50.2,354.1,210510,,,A*45
$GPRMC,153200.9,A,3259.833075,N,11715.397268,W,54.5,353.6,210510,,,A*45
$GPRMC,153203.9,A,3259.880217,N,11715.403058,W,56.1,352.5,210510,,,A*47
$GPRMC,153208.9,A,3259.955966,N,11715.417805,W,56.5,351.4,210510,,,A*4B
$GPRMC,153211.9,A,3300.000805,N,11715.424904,W,55.3,352.3,210510,,,A*42
$GPRMC,153218.9,A,3300.114298,N,11715.442709,W,57.2,352.3,210510,,,A*41
$GPRMC,153221.9,A,3300.159258,N,11715.451770,W,56.5,349.4,210510,,,A*49
$GPRMC,153224.9,A,3300.204780,N,11715.468062,W,56.3,343.1,210510,,,A*40
$GPRMC,153227.9,A,3300.244212,N,11715.483724,W,52.6,340.5,210510,,,A*4F
$GPRMC,153230.9,A,3300.283434,N,11715.507736,W,53.6,332.1,210510,,,A*4E
$GPRMC,153233.9,A,3300.321063,N,11715.535224,W,52.4,327.2,210510,,,A*41
$GPRMC,153236.9,A,3300.358430,N,11715.568820,W,53.7,321.4,210510,,,A*4C
$GPRMC,153239.9,A,3300.393764,N,11715.607075,W,56.8,317.0,210510,,,A*4F
$GPRMC,153242.9,A,3300.429861,N,11715.648061,W,59.5,316.2,210510,,,A*40
$GPRMC,153245.9,A,3300.465440,N,11715.690347,W,59.5,315.8,210510,,,A*4B
$GPRMC,153248.9,A,3300.500692,N,11715.731081,W,58.6,316.3,210510,,,A*40
$GPRMC,153251.9,A,3300.536176,N,11715.770803,W,57.7,316.8,210510,,,A*42
$GPRMC,153254.9,A,3300.570545,N,11715.810836,W,58.8,316.3,210510,,,A*45
$GPRMC,153257.9,A,3300.604602,N,11715.847822,W,58.5,316.4,210510,,,A*4B
$GPRMC,153300.9,A,3300.640755,N,11715.891444,W,61.3,315.3,210510,,,A*44
$GPRMC,153303.9,A,3300.676730,N,11715.933689,W,60.4,316.2,210510,,,A*4F
$GPRMC,153306.9,A,3300.712272,N,11715.973025,W,58.7,316.2,210510,,,A*46
$GPRMC,153309.9,A,3300.750912,N,11716.012680,W,61.2,320.4,210510,,,A*4A
$GPRMC,153312.9,A,3300.787009,N,11716.055492,W,60.8,315.5,210510,,,A*47
$GPRMC,153315.9,A,3300.824941,N,11716.096352,W,61.2,316.2,210510,,,A*48
$GPRMC,153318.9,A,3300.862467,N,11716.135985,W,60.1,317.5,210510,,,A*42
$GPRMC,153321.9,A,3300.896596,N,11716.175988,W,58.1,316.7,210510,,,A*4D
$GPRMC,153324.9,A,3300.932211,N,11716.214981,W,59.7,319.5,210510,,,A*48
$GPRMC,153327.9,A,3300.974517,N,11716.250728,W,60.6,323.8,210510,,,A*4A
$GPRMC,153330.9,A,3301.018920,N,11716.280727,W,59.7,329.8,210510,,,A*45
$GPRMC,153333.2,A,3301.050160,N,11716.303031,W,58.8,332.4,210510,,,A*4F
$GPRMC,153336.2,A,3301.094656,N,11716.329470,W,58.8,336.7,210510,,,A*4E
$GPRMC,153339.2,A,3301.140585,N,11716.349894,W,59.5,342.3,210510,,,A*4F
$GPRMC,153344.9,A,3301.235240,N,11716.375827,W,63.7,350.1,210510,,,A*4C
$GPRMC,153347.9,A,3301.286987,N,11716.386795,W,63.2,350.9,210510,,,A*40
$GPRMC,153350.9,A,3301.338891,N,11716.399027,W,62.9,350.2,210510,,,A*45
$GPRMC,153354.9,A,3301.406658,N,11716.409046,W,61.7,351.2,210510,,,A*45
$GPRMC,153357.9,A,3301.454776,N,11716.419495,W,59.5,349.2,210510,,,A*47
$GPRMC,153400.9,A,3301.500183,N,11716.437132,W,58.6,341.9,210510,,,A*4B
$GPRMC,153404.9,A,3301.565037,N,11716.465721,W,63.5,337.8,210510,,,A*4A
$GPRMC,153408.9,A,3301.628595,N,11716.503092,W,65.5,333.4,210510,,,A*41
$GPRMC,153411.9,A,3301.678288,N,11716.534840,W,68.8,332.0,210510,,,A*41
$GPRMC,153414.9,A,3301.730818,N,11716.570082,W,71.6,330.6,210510,,,A*4E
$GPRMC,153417.9,A,3301.784859,N,11716.606532,W,72.7,330.7,210510,,,A*48
$GPRMC,153420.9,A,3301.836900,N,11716.642697,W,72.5,330.1,210510,,,A*4F
$GPRMC,153423.9,A,3301.890534,N,11716.678672,W,72.5,330.5,210510,,,A*4D
$GPRMC,153426.9,A,3301.941977,N,11716.714054,W,72.4,330.7,210510,,,A*44
$GPRMC,153429.9,A,3301.991120,N,11716.747309,W,68.7,331.5,210510,,,A*4A
$GPRMC,153432.9,A,3302.038684,N,11716.776032,W,64.4,334.8,210510,,,A*4E
$GPRMC,153435.9,A,3302.080473,N,11716.799124,W,55.9,336.5,210510,,,A*47
$GPRMC,153438.9,A,3302.123723,N,11716.811634,W,53.0,348.6,210510,,,A*48
$GPRMC,153441.9,A,3302.162294,N,11716.816655,W,46.4,352.9,210510,,,A*4E
$GPRMC,153444.9,A,3302.169327,N,11716.817615,W,19.2,346.7,210510,,,A*4B
$GPRMC,153447.9,A,3302.173454,N,11716.809765,W,13.3,55.2,210510,,,A*76
$GPRMC,153450.9,A,3302.172150,N,11716.789332,W,21.3,82.2,210510,,,A*7A
$GPRMC,153453.9,A,3302.170795,N,11716.761979,W,28.1,90.8,210510,,,A*75
$GPRMC,153456.9,A,3302.170767,N,11716.728961,W,33.4,89.5,210510,,,A*73
$GPRMC,153459.9,A,3302.172455,N,11716.701343,W,28.7,88.7,210510,,,A*77
$GPRMC,153502.9,A,3302.173452,N,11716.677056,W,20.1,91.3,210510,,,A*7B
$GPRMC,153505.9,A,3302.172181,N,11716.667752,W,5.3,94.8,210510,,,A*4F
$GPRMC,153511.9,A,3302.174349,N,11716.658409,W,7.4,97.6,210510,,,A*43
$GPRMC,153514.9,A,3302.171781,N,11716.640111,W,21.0,95.8,210510,,,A*7A
$GPRMC,153517.9,A,3302.170941,N,11716.612330,W,27.8,90.2,210510,,,A*7D
$GPRMC,153520.9,A,3302.173381,N,11716.578928,W,33.3,87.6,210510,,,A*7C
$GPRMC,153523.9,A,3302.174240,N,11716.547711,W,29.9,87.5,210510,,,A*7E
$GPRMC,153526.9,A,3302.173020,N,11716.522362,W,27.7,90.2,210510,,,A*7A
$GPRMC,153529.9,A,3302.175111,N,11716.491945,W,29.4,86.9,210510,,,A*77
$GPRMC,153532.9,A,3302.174403,N,11716.460813,W,31.7,89.8,210510,,,A*72
$GPRMC,153535.9,A,3302.173968,N,11716.428825,W,29.9,88.9,210510,,,A*7C
$GPRMC,153538.9,A,3302.174081,N,11716.408687,W,17.3,92.1,210510,,,A*78
$GPRMC,153541.9,A,3302.174197,N,11716.401865,W,5.3,87.8,210510,,,A*45
$GPRMC,153550.9,A,3302.173535,N,11716.390559,W,10.6,95.8,210510,,,A*71
$GPRMC,153553.9,A,3302.172992,N,11716.375488,W,14.9,93.5,210510,,,A*74
$GPRMC,153556.9,A,3302.177135,N,11716.356261,W,19.4,82.7,210510,,,A*73
$GPRMC,153559.9,A,3302.173769,N,11716.335621,W,20.6,90.4,210510,,,A*7A
$GPRMC,153602.9,A,3302.175576,N,11716.316282,W,20.6,85.3,210510,,,A*72
$GPRMC,153605.9,A,3302.177078,N,11716.291399,W,23.0,83.5,210510,,,A*7C
$GPRMC,153608.9,A,3302.173494,N,11716.269099,W,21.3,93.4,210510,,,A*76
$GPRMC,153611.9,A,3302.172514,N,11716.253203,W,14.7,90.9,210510,,,A*72
$GPRMC,153614.9,A,3302.172664,N,11716.238924,W,15.7,89.1,210510,,,A*71
$GPRMC,153617.9,A,3302.171881,N,11716.222857,W,18.7,91.1,210510,,,A*7E
$GPRMC,153620.9,A,3302.172872,N,11716.198396,W,25.1,89.9,210510,,,A*78
$GPRMC,153623.9,A,3302.170809,N,11716.168044,W,28.5,92.6,210510,,,A*7A
$GPRMC,153626.9,A,3302.171489,N,11716.136465,W,31.9,91.7,210510,,,A*70
$GPRMC,153629.9,A,3302.170891,N,11716.103874,W,33.2,91.3,210510,,,A*7C
$GPRMC,153632.9,A,3302.170433,N,11716.069247,W,35.4,90.5,210510,,,A*72
$GPRMC,153635.9,A,3302.167203,N,11716.033594,W,36.4,97.0,210510,,,A*71
$GPRMC,153638.9,A,3302.171313,N,11715.995094,W,37.5,88.9,210510,,,A*7F
$GPRMC,153641.9,A,3302.169327,N,11715.959038,W,37.5,91.3,210510,,,A*7B
$GPRMC,153644.9,A,3302.171550,N,11715.921984,W,34.5,84.4,210510,,,A*70
$GPRMC,153647.9,A,3302.172841,N,11715.891992,W,30.3,86.0,210510,,,A*74
$GPRMC,153650.9,A,3302.174016,N,11715.861686,W,31.2,84.1,210510,,,A*78
$GPRMC,153653.9,A,3302.179410,N,11715.829213,W,35.2,77.6,210510,,,A*7F
$GPRMC,153656.9,A,3302.190216,N,11715.793344,W,41.2,67.5,210510,,,A*71
$GPRMC,153659.9,A,3302.209226,N,11715.753040,W,50.1,59.8,210510,,,A*76
$GPRMC,153703.2,A,3302.235788,N,11715.709885,W,46.8,54.8,210510,,,A*70
$GPRMC,153706.2,A,3302.256508,N,11715.670765,W,47.6,54.7,210510,,,A*74
$GPRMC,153709.2,A,3302.270671,N,11715.641818,W,35.0,56.9,210510,,,A*7A
$GPRMC,153712.2,A,3302.284029,N,11715.615712,W,28.0,57.5,210510,,,A*75
$GPRMC,153715.2,A,3302.294380,N,11715.595853,W,21.5,58.7,210510,,,A*73
$GPRMC,153718.9,A,3302.304269,N,11715.577412,W,17.0,61.8,210510,,,A*7B
$GPRMC,153721.9,A,3302.305087,N,11715.567337,W,5.9,82.0,210510,,,A*4C
$GPRMC,153745.9,A,3302.303289,N,11715.564136,W,6.9,74.6,210510,,,A*48
$GPRMC,153748.9,A,3302.310116,N,11715.555224,W,12.3,46.0,210510,,,A*78
$GPRMC,153751.9,A,3302.326221,N,11715.551454,W,19.0,7.5,210510,,,A*4F
$GPRMC,153754.9,A,3302.347435,N,11715.555579,W,24.6,351.6,210510,,,A*4F
$GPRMC,153757.9,A,3302.376022,N,11715.563139,W,31.0,350.6,210510,,,A*4A
$GPRMC,153800.9,A,3302.405387,N,11715.567268,W,35.1,354.7,210510,,,A*4B
$GPRMC,153803.9,A,3302.436792,N,11715.567479,W,38.6,0.2,210510,,,A*43
$GPRMC,153806.9,A,3302.475244,N,11715.567836,W,43.6,359.2,210510,,,A*4B
$GPRMC,153809.9,A,3302.514616,N,11715.569400,W,46.0,358.6,210510,,,A*40
$GPRMC,153812.9,A,3302.551617,N,11715.571429,W,45.2,358.5,210510,,,A*4A
$GPRMC,153815.9,A,3302.584987,N,11715.570099,W,39.8,2.6,210510,,,A*43
$GPRMC,153818.9,A,3302.608585,N,11715.570480,W,24.8,358.2,210510,,,A*4F
$GPRMC,153821.9,A,3302.618717,N,11715.569168,W,12.6,4.4,210510,,,A*41
$GPRMC,153848.9,A,3302.627418,N,11715.568742,W,13.7,359.7,210510,,,A*49
$GPRMC,153851.9,A,3302.649752,N,11715.567122,W,24.9,3.1,210510,,,A*4B
$GPRMC,153854.9,A,3302.674032,N,11715.566073,W,30.3,0.1,210510,,,A*49
$GPRMC,153857.9,A,3302.703185,N,11715.564865,W,31.8,0.5,210510,,,A*45
$GPRMC,153900.9,A,3302.727630,N,11715.567036,W,27.9,356.9,210510,,,A*4E
$GPRMC,153903.9,A,3302.739562,N,11715.565446,W,14.5,4.1,210510,,,A*47
$GPRMC,153921.9,A,3302.749832,N,11715.570752,W,9.2,351.2,210510,,,A*71
$GPRMC,153924.9,A,3302.763460,N,11715.568716,W,19.0,2.1,210510,,,A*4B
$GPRMC,153927.9,A,3302.784516,N,11715.568764,W,25.3,358.5,210510,,,A*40
$GPRMC,153930.9,A,3302.808703,N,11715.569276,W,29.1,0.7,210510,,,A*4E
$GPRMC,153933.9,A,3302.835655,N,11715.570085,W,31.3,358.5,210510,,,A*40
$GPRMC,153936.9,A,3302.860905,N,11715.571427,W,30.0,356.9,210510,,,A*42
$GPRMC,153939.9,A,3302.887394,N,11715.572835,W,32.1,354.6,210510,,,A*44
$GPRMC,153942.9,A,3302.919436,N,11715.578428,W,35.4,350.5,210510,,,A*4E
$GPRMC,153945.9,A,3302.947273,N,11715.586609,W,35.3,345.5,210510,,,A*46
$GPRMC,153948.9,A,3302.971399,N,11715.593919,W,31.0,344.3,210510,,,A*41
$GPRMC,153951.9,A,3302.994547,N,11715.602078,W,30.6,343.6,210510,,,A*47
$GPRMC,153954.9,A,3303.020001,N,11715.610543,W,31.2,343.7,210510,,,A*48
$GPRMC,153957.9,A,3303.045481,N,11715.618605,W,30.9,344.2,210510,,,A*45
$GPRMC,154000.9,A,3303.068264,N,11715.625942,W,29.6,344.2,210510,,,A*4E
$GPRMC,154003.9,A,3303.093569,N,11715.634884,W,31.2,344.3,210510,,,A*44
$GPRMC,154006.9,A,3303.118443,N,11715.643886,W,30.9,343.7,210510,,,A*41
$GPRMC,154009.9,A,3303.139877,N,11715.650781,W,28.2,343.8,210510,,,A*41
$GPRMC,154012.9,A,3303.164169,N,11715.657454,W,29.9,346.0,210510,,,A*4E
$GPRMC,154015.9,A,3303.190000,N,11715.671178,W,31.5,341.3,210510,,,A*42
$GPRMC,154018.9,A,3303.215462,N,11715.678853,W,30.7,344.6,210510,,,A*4B
$GPRMC,154021.9,A,3303.240667,N,11715.687518,W,30.3,343.6,210510,,,A*47
$GPRMC,154024.9,A,3303.265449,N,11715.696040,W,31.8,344.5,210510,,,A*4D
$GPRMC,154027.9,A,3303.290978,N,11715.701925,W,30.5,345.4,210510,,,A*42
$GPRMC,154030.9,A,3303.315457,N,11715.714051,W,30.4,342.0,210510,,,A*44
$GPRMC,154033.9,A,3303.339737,N,11715.722200,W,30.3,343.9,210510,,,A*40
$GPRMC,154036.9,A,3303.364828,N,11715.731895,W,30.7,342.3,210510,,,A*47
$GPRMC,154039.9,A,3303.385098,N,11715.737845,W,27.5,345.9,210510,,,A*46
$GPRMC,154042.9,A,3303.412120,N,11715.744759,W,29.8,345.6,210510,,,A*4B
$GPRMC,154045.9,A,3303.438017,N,11715.749680,W,30.6,350.5,210510,,,A*48
$GPRMC,154048.9,A,3303.463058,N,11715.752367,W,29.4,356.1,210510,,,A*4E
$GPRMC,154051.9,A,3303.487867,N,11715.754162,W,29.6,356.9,210510,,,A*43
$GPRMC,154054.9,A,3303.507391,N,11715.755776,W,22.3,3.2,210510,,,A*49
$GPRMC,154057.9,A,3303.511067,N,11715.740957,W,16.5,61.9,210510,,,A*70
$GPRMC,154100.9,A,3303.510250,N,11715.717270,W,24.5,88.0,210510,,,A*77
$GPRMC,154103.9,A,3303.506242,N,11715.689231,W,27.7,95.4,210510,,,A*7A
$GPRMC,154106.9,A,3303.504433,N,11715.659289,W,27.4,92.5,210510,,,A*76
$GPRMC,154109.9,A,3303.509689,N,11715.637911,W,18.5,69.0,210510,,,A*79
$GPRMC,154112.9,A,3303.520723,N,11715.631341,W,12.5,16.8,210510,,,A*7A
$GPRMC,154115.9,A,3303.527970,N,11715.632769,W,7.7,349.1,210510,,,A*79
$GPRMC,154118.9,A,3303.533802,N,11715.637908,W,7.4,306.0,210510,,,A*70
$GPRMC,154121.9,A,3303.531138,N,11715.646161,W,10.2,267.4,210510,,,A*4B
$GPRMC,154124.9,A,3303.533635,N,11715.660654,W,12.9,268.6,210510,,,A*47
$GPRMC,154127.9,A,3303.532208,N,11715.670240,W,7.6,264.1,210510,,,A*7F
