NMEA Sentence Code,UTC Time,Status,Latitude,Latitude Direction,Longitude,Longitude Direction,Speed (knots),Track Angle (degrees true),Date,MagneticVariation,Magnetic Variation Direction,[FAA Mode]-Optional,Checksum
$GPRMC,152342.9,A,3249.255893,N,11709.934230,W,37.8,70.6,041010,,,A*72
$GPRMC,152345.9,A,3249.269004,N,11709.896354,W,40.8,68.3,041010,,,A*7A
$GPRMC,152348.9,A,3249.281203,N,11709.858649,W,40.8,70.2,041010,,,A*77
$GPRMC,152351.9,A,3249.291720,N,11709.817531,W,42.0,73.8,041010,,,A*7E
$GPRMC,152354.9,A,3249.296266,N,11709.775346,W,40.9,81.4,041010,,,A*7C
$GPRMC,152357.9,A,3249.299085,N,11709.736307,W,39.4,87.0,041010,,,A*7C
$GPRMC,152400.9,A,3249.298270,N,11709.697122,W,39.3,90.6,041010,,,A*78
$GPRMC,152403.9,A,3249.299810,N,11709.658654,W,39.3,88.5,041010,,,A*79
$GPRMC,152406.9,A,3249.297260,N,11709.619618,W,38.9,90.3,041010,,,A*76
$GPRMC,152409.9,A,3249.299764,N,11709.582311,W,37.7,88.1,041010,,,A*71
$GPRMC,152412.9,A,3249.299096,N,11709.544495,W,37.0,88.1,041010,,,A*77
$GPRMC,152415.9,A,3249.299752,N,11709.508075,W,36.9,87.8,041010,,,A*73
$GPRMC,152418.9,A,3249.300715,N,11709.471893,W,36.6,87.9,041010,,,A*7D
$GPRMC,152421.9,A,3249.301465,N,11709.438205,W,34.7,88.7,041010,,,A*78
$GPRMC,152424.9,A,3249.300157,N,11709.406437,W,33.3,89.7,041010,,,A*70
$GPRMC,152427.9,A,3249.299670,N,11709.370987,W,34.5,90.0,041010,,,A*7E
$GPRMC,152430.9,A,3249.300845,N,11709.337507,W,33.3,88.9,041010,,,A*77
$GPRMC,152433.9,A,3249.299097,N,11709.303323,W,35.4,90.3,041010,,,A*77
$GPRMC,152436.9,A,3249.298964,N,11709.265845,W,38.7,89.7,041010,,,A*7E
$GPRMC,152439.9,A,3249.300067,N,11709.226801,W,40.6,88.4,041010,,,A*70
$GPRMC,152442.9,A,3249.301472,N,11709.186356,W,39.5,88.0,041010,,,A*74
$GPRMC,152445.9,A,3249.302415,N,11709.148023,W,38.1,89.0,041010,,,A*76
$GPRMC,152448.9,A,3249.303057,N,11709.112604,W,35.7,89.4,041010,,,A*7B
$GPRMC,152451.9,A,3249.302683,N,11709.082595,W,31.5,88.6,041010,,,A*7B
$GPRMC,152454.9,A,3249.302303,N,11709.053142,W,27.7,87.2,041010,,,A*7F
$GPRMC,152457.9,A,3249.304839,N,11709.030836,W,21.7,85.9,041010,,,A*78
$GPRMC,152500.9,A,3249.304628,N,11709.013944,W,14.9,89.8,041010,,,A*75
$GPRMC,152503.9,A,3249.302646,N,11709.004429,W,7.8,101.1,041010,,,A*73
$GPRMC,152609.9,A,3249.303984,N,11708.994623,W,4.9,87.3,041010,,,A*4C
$GPRMC,152612.9,A,3249.303207,N,11708.973121,W,17.4,92.7,041010,,,A*75
$GPRMC,152615.9,A,3249.302562,N,11708.942571,W,26.7,91.4,041010,,,A*75
$GPRMC,152618.9,A,3249.303549,N,11708.915611,W,26.8,89.1,041010,,,A*74
$GPRMC,152621.9,A,3249.303342,N,11708.884534,W,30.1,90.3,041010,,,A*7A
$GPRMC,152624.9,A,3249.301548,N,11708.854454,W,30.2,92.7,041010,,,A*7E
$GPRMC,152627.9,A,3249.301910,N,11708.827690,W,26.8,90.0,041010,,,A*7A
$GPRMC,152630.9,A,3249.300194,N,11708.804444,W,23.9,91.0,041010,,,A*76
$GPRMC,152633.9,A,3249.300544,N,11708.781107,W,23.7,92.2,041010,,,A*73
$GPRMC,152636.9,A,3249.299500,N,11708.760124,W,21.2,95.1,041010,,,A*7A
$GPRMC,152639.9,A,3249.288850,N,11708.746706,W,18.9,130.0,041010,,,A*41
$GPRMC,152642.9,A,3249.273936,N,11708.738167,W,18.9,163.2,041010,,,A*44
$GPRMC,152645.2,A,3249.261465,N,11708.742843,W,19.5,200.8,041010,,,A*43
$GPRMC,152648.9,A,3249.248401,N,11708.762990,W,19.9,230.8,041010,,,A*4E
$GPRMC,152651.9,A,3249.255968,N,11708.785015,W,18.3,293.8,041010,,,A*47
$GPRMC,152654.9,A,3249.276233,N,11708.793269,W,20.9,349.3,041010,,,A*44
$GPRMC,152657.9,A,3249.292821,N,11708.791237,W,20.7,15.5,041010,,,A*7F
$GPRMC,152700.2,A,3249.305027,N,11708.785751,W,19.8,19.4,041010,,,A*7E
$GPRMC,152703.2,A,3249.328027,N,11708.768333,W,28.6,27.8,041010,,,A*7C
$GPRMC,152706.9,A,3249.357353,N,11708.755201,W,29.1,25.9,041010,,,A*71
$GPRMC,152709.9,A,3249.388243,N,11708.738795,W,40.1,23.1,041010,,,A*7E
$GPRMC,152712.9,A,3249.420403,N,11708.725236,W,43.2,21.6,041010,,,A*76
$GPRMC,152715.9,A,3249.457218,N,11708.705010,W,47.0,22.8,041010,,,A*72
$GPRMC,152718.9,A,3249.491566,N,11708.684173,W,44.9,25.9,041010,,,A*7B
$GPRMC,152721.9,A,3249.523272,N,11708.672254,W,41.2,21.7,041010,,,A*70
$GPRMC,152724.9,A,3249.556191,N,11708.654479,W,44.6,21.6,041010,,,A*74
$GPRMC,152727.9,A,3249.594962,N,11708.637594,W,48.6,20.3,041010,,,A*72
$GPRMC,152730.2,A,3249.624103,N,11708.621769,W,50.9,23.3,041010,,,A*7A
$GPRMC,152733.9,A,3249.678682,N,11708.591903,W,57.0,23.2,041010,,,A*70
$GPRMC,152736.9,A,3249.723542,N,11708.569711,W,59.6,23.1,041010,,,A*74
$GPRMC,152739.9,A,3249.770440,N,11708.545793,W,60.5,24.2,041010,,,A*77
$GPRMC,152742.9,A,3249.817233,N,11708.521735,W,59.9,22.9,041010,,,A*72
$GPRMC,152745.9,A,3249.864752,N,11708.495249,W,63.0,25.1,041010,,,A*7C
$GPRMC,152748.9,A,3249.912986,N,11708.470316,W,63.2,24.3,041010,,,A*77
$GPRMC,152751.2,A,3249.948413,N,11708.446852,W,59.6,27.7,041010,,,A*7E
$GPRMC,152754.9,A,3250.002865,N,11708.413266,W,60.2,28.5,041010,,,A*7C
$GPRMC,152757.9,A,3250.049326,N,11708.375555,W,63.5,34.6,041010,,,A*76
$GPRMC,152800.9,A,3250.092482,N,11708.339124,W,62.7,36.0,041010,,,A*79
$GPRMC,152803.9,A,3250.134776,N,11708.303547,W,62.0,36.5,041010,,,A*75
$GPRMC,152806.9,A,3250.176038,N,11708.265966,W,61.0,36.8,041010,,,A*7B
$GPRMC,152809.9,A,3250.215683,N,11708.230722,W,59.1,37.0,041010,,,A*79
$GPRMC,152812.9,A,3250.255797,N,11708.197258,W,60.6,36.8,041010,,,A*71
$GPRMC,152815.9,A,3250.296357,N,11708.160503,W,62.2,37.1,041010,,,A*7E
$GPRMC,152818.9,A,3250.337332,N,11708.119772,W,63.3,37.6,041010,,,A*77
$GPRMC,152821.9,A,3250.379158,N,11708.082869,W,63.1,36.9,041010,,,A*73
$GPRMC,152824.9,A,3250.418209,N,11708.044658,W,60.3,37.8,041010,,,A*76
$GPRMC,152827.9,A,3250.459570,N,11708.009135,W,61.0,37.7,041010,,,A*71
$GPRMC,152830.9,A,3250.501739,N,11707.971789,W,61.5,37.4,041010,,,A*7A
$GPRMC,152833.9,A,3250.542714,N,11707.936074,W,60.8,37.0,041010,,,A*7F
$GPRMC,152836.9,A,3250.583557,N,11707.899463,W,60.8,37.7,041010,,,A*73
$GPRMC,152839.9,A,3250.622051,N,11707.864057,W,58.4,37.2,041010,,,A*74
$GPRMC,152842.9,A,3250.659991,N,11707.832003,W,56.5,37.0,041010,,,A*7E
$GPRMC,152845.9,A,3250.697632,N,11707.798768,W,57.6,37.7,041010,,,A*7D
$GPRMC,152848.9,A,3250.736558,N,11707.764993,W,58.5,35.6,041010,,,A*73
$GPRMC,152851.9,A,3250.771443,N,11707.731216,W,55.9,37.5,041010,,,A*75
$GPRMC,152854.9,A,3250.808819,N,11707.698233,W,56.6,37.6,041010,,,A*78
$GPRMC,152857.9,A,3250.848186,N,11707.663055,W,58.7,37.3,041010,,,A*7C
$GPRMC,152900.9,A,3250.888312,N,11707.626594,W,58.4,37.4,041010,,,A*71
$GPRMC,152903.9,A,3250.928006,N,11707.591303,W,58.4,36.7,041010,,,A*7A
$GPRMC,152906.9,A,3250.967979,N,11707.554418,W,59.4,37.2,041010,,,A*74
$GPRMC,152909.9,A,3251.006672,N,11707.517422,W,61.2,38.0,041010,,,A*7E
$GPRMC,152912.9,A,3251.047363,N,11707.483131,W,59.3,37.2,041010,,,A*78
$GPRMC,152915.9,A,3251.087871,N,11707.447857,W,59.8,36.0,041010,,,A*72
$GPRMC,152918.9,A,3251.128173,N,11707.411620,W,60.1,37.9,041010,,,A*76
$GPRMC,152921.9,A,3251.166755,N,11707.373211,W,59.1,37.6,041010,,,A*74
$GPRMC,152924.9,A,3251.199053,N,11707.327164,W,59.8,48.2,041010,,,A*75
$GPRMC,152927.9,A,3251.228725,N,11707.282584,W,59.1,52.9,041010,,,A*74
$GPRMC,152930.9,A,3251.256885,N,11707.232616,W,61.3,58.1,041010,,,A*76
$GPRMC,152933.9,A,3251.278672,N,11707.179386,W,59.7,64.5,041010,,,A*7B
$GPRMC,152937.2,A,3251.300740,N,11707.116940,W,60.3,67.6,041010,,,A*7D
$GPRMC,152940.9,A,3251.322505,N,11707.050708,W,59.0,67.6,041010,,,A*7D
$GPRMC,152943.9,A,3251.341357,N,11706.996962,W,58.1,67.1,041010,,,A*7D
$GPRMC,152947.2,A,3251.365097,N,11706.939890,W,60.5,60.4,041010,,,A*7F
$GPRMC,152950.0,A,3251.391190,N,11706.896088,W,60.0,55.1,041010,,,A*75
$GPRMC,152953.9,A,3251.434862,N,11706.838429,W,58.8,44.7,041010,,,A*7D
$GPRMC,152956.9,A,3251.473350,N,11706.800440,W,58.8,38.6,041010,,,A*7F
$GPRMC,152959.9,A,3251.513649,N,11706.769101,W,57.9,31.5,041010,,,A*7E
$GPRMC,153002.9,A,3251.557557,N,11706.740454,W,59.7,26.4,041010,,,A*7D
$GPRMC,153005.9,A,3251.601703,N,11706.717692,W,58.2,24.4,041010,,,A*75
$GPRMC,153008.9,A,3251.644868,N,11706.693512,W,59.4,23.3,041010,,,A*7A
$GPRMC,153012.2,A,3251.697493,N,11706.667985,W,61.2,23.4,041010,,,A*7F
$GPRMC,153015.9,A,3251.753944,N,11706.638503,W,60.8,22.9,041010,,,A*72
$GPRMC,153018.9,A,3251.797961,N,11706.615990,W,59.6,23.8,041010,,,A*7D
$GPRMC,153021.9,A,3251.843976,N,11706.590162,W,60.6,24.6,041010,,,A*7F
$GPRMC,153024.9,A,3251.891382,N,11706.566481,W,60.8,23.7,041010,,,A*7D
$GPRMC,153027.9,A,3251.940878,N,11706.541840,W,64.5,25.2,041010,,,A*73
$GPRMC,153030.9,A,3251.982353,N,11706.518810,W,57.2,23.6,041010,,,A*75
$GPRMC,153033.9,A,3252.026878,N,11706.500852,W,57.5,20.5,041010,,,A*78
$GPRMC,153036.9,A,3252.069854,N,11706.483051,W,56.3,18.4,041010,,,A*74
$GPRMC,153039.9,A,3252.119567,N,11706.465299,W,59.8,16.7,041010,,,A*77
$GPRMC,153042.9,A,3252.162382,N,11706.454438,W,57.4,12.9,041010,,,A*7D
$GPRMC,153045.9,A,3252.211389,N,11706.441052,W,58.4,11.5,041010,,,A*7A
$GPRMC,153048.9,A,3252.258818,N,11706.431690,W,56.8,8.7,041010,,,A*4E
$GPRMC,153051.9,A,3252.306689,N,11706.426698,W,57.6,5.3,041010,,,A*42
$GPRMC,153054.9,A,3252.356116,N,11706.423006,W,58.2,3.9,041010,,,A*40
$GPRMC,153057.9,A,3252.404469,N,11706.422222,W,57.6,0.9,041010,,,A*43
$GPRMC,153100.9,A,3252.451437,N,11706.422098,W,56.7,0.2,041010,,,A*43
$GPRMC,153103.2,A,3252.487555,N,11706.423462,W,56.2,357.8,041010,,,A*4B
$GPRMC,153106.2,A,3252.537866,N,11706.426994,W,58.7,354.5,041010,,,A*4D
$GPRMC,153109.2,A,3252.587580,N,11706.433375,W,59.0,352.8,041010,,,A*40
$GPRMC,153112.9,A,3252.646316,N,11706.444685,W,58.7,350.0,041010,,,A*40
$GPRMC,153115.9,A,3252.694888,N,11706.454960,W,59.4,348.4,041010,,,A*4E
$GPRMC,153118.9,A,3252.744235,N,11706.468641,W,61.2,346.7,041010,,,A*40
$GPRMC,153121.9,A,3252.794820,N,11706.483680,W,61.6,346.0,041010,,,A*42
$GPRMC,153124.9,A,3252.841090,N,11706.505548,W,60.1,341.4,041010,,,A*4E
$GPRMC,153127.9,A,3252.888327,N,11706.523782,W,60.9,341.6,041010,,,A*4D
$GPRMC,153130.9,A,3252.936791,N,11706.545796,W,61.1,339.6,041010,,,A*45
$GPRMC,153133.9,A,3252.983204,N,11706.567302,W,60.6,337.3,041010,,,A*45
$GPRMC,153136.9,A,3253.029027,N,11706.595558,W,61.0,334.3,041010,,,A*4B
$GPRMC,153139.9,A,3253.074470,N,11706.623110,W,60.3,333.1,041010,,,A*4B
$GPRMC,153142.9,A,3253.119187,N,11706.652490,W,60.3,333.0,041010,,,A*4A
$GPRMC,153145.9,A,3253.163984,N,11706.677885,W,58.9,333.3,041010,,,A*46
$GPRMC,153148.9,A,3253.206072,N,11706.703647,W,57.1,332.2,041010,,,A*4E
$GPRMC,153151.9,A,3253.250420,N,11706.729593,W,58.7,333.5,041010,,,A*4B
$GPRMC,153154.9,A,3253.293064,N,11706.756275,W,59.4,333.2,041010,,,A*47
$GPRMC,153157.9,A,3253.337094,N,11706.780943,W,59.3,334.4,041010,,,A*47
$GPRMC,153200.9,A,3253.383677,N,11706.806645,W,60.8,335.0,041010,,,A*4E
$GPRMC,153203.9,A,3253.429021,N,11706.829348,W,60.4,338.0,041010,,,A*4B
$GPRMC,153206.9,A,3253.477572,N,11706.853408,W,61.5,338.2,041010,,,A*4A
$GPRMC,153209.9,A,3253.524699,N,11706.873344,W,60.7,340.0,041010,,,A*47
$GPRMC,153212.9,A,3253.573570,N,11706.897048,W,61.2,340.5,041010,,,A*4F
$GPRMC,153215.2,A,3253.612158,N,11706.908293,W,62.5,343.8,041010,,,A*40
$GPRMC,153218.9,A,3253.674496,N,11706.929961,W,62.5,344.5,041010,,,A*4E
$GPRMC,153221.9,A,3253.725049,N,11706.943985,W,62.4,346.2,041010,,,A*45
$GPRMC,153224.9,A,3253.775285,N,11706.952877,W,61.1,349.6,041010,,,A*46
$GPRMC,153227.9,A,3253.827918,N,11706.961777,W,61.2,351.1,041010,,,A*40
$GPRMC,153230.9,A,3253.878753,N,11706.968544,W,60.6,353.1,041010,,,A*41
$GPRMC,153233.9,A,3253.931071,N,11706.970061,W,61.3,358.5,041010,,,A*49
$GPRMC,153236.9,A,3253.981102,N,11706.971035,W,60.3,359.7,041010,,,A*40
$GPRMC,153239.9,A,3254.028119,N,11706.972230,W,57.1,359.3,041010,,,A*4E
$GPRMC,153242.9,A,3254.075678,N,11706.976102,W,56.7,358.0,041010,,,A*49
$GPRMC,153245.9,A,3254.123037,N,11706.974794,W,56.2,0.0,041010,,,A*41
$GPRMC,153248.9,A,3254.170437,N,11706.973762,W,57.5,0.5,041010,,,A*43
$GPRMC,153252.2,A,3254.220847,N,11706.971015,W,57.8,1.9,041010,,,A*4B
$GPRMC,153255.9,A,3254.284254,N,11706.973842,W,60.0,359.1,041010,,,A*43
$GPRMC,153258.9,A,3254.333001,N,11706.977397,W,58.9,356.9,041010,,,A*43
$GPRMC,153301.9,A,3254.383470,N,11706.976412,W,59.5,0.0,041010,,,A*48
$GPRMC,153304.9,A,3254.434783,N,11706.974801,W,60.9,0.6,041010,,,A*45
$GPRMC,153307.9,A,3254.485525,N,11706.974876,W,62.0,0.0,041010,,,A*4F
$GPRMC,153310.9,A,3254.538041,N,11706.976910,W,62.3,0.1,041010,,,A*48
$GPRMC,153313.9,A,3254.590994,N,11706.971739,W,63.1,3.1,041010,,,A*4A
$GPRMC,153316.9,A,3254.641933,N,11706.969834,W,61.6,1.5,041010,,,A*45
$GPRMC,153319.9,A,3254.693949,N,11706.968335,W,60.9,1.5,041010,,,A*4D
$GPRMC,153322.9,A,3254.745487,N,11706.965246,W,61.7,1.3,041010,,,A*41
$GPRMC,153325.9,A,3254.795363,N,11706.965252,W,59.8,1.7,041010,,,A*43
$GPRMC,153328.9,A,3254.844314,N,11706.961264,W,60.0,3.3,041010,,,A*48
$GPRMC,153331.9,A,3254.894412,N,11706.958767,W,59.5,3.3,041010,,,A*4F
$GPRMC,153334.9,A,3254.944219,N,11706.955662,W,59.6,3.5,041010,,,A*47
$GPRMC,153337.9,A,3254.994693,N,11706.951897,W,60.0,3.1,041010,,,A*47
$GPRMC,153340.9,A,3255.044020,N,11706.946745,W,60.9,3.6,041010,,,A*44
$GPRMC,153343.9,A,3255.094331,N,11706.942454,W,60.6,4.9,041010,,,A*49
$GPRMC,153346.9,A,3255.143799,N,11706.935302,W,60.8,6.8,041010,,,A*48
$GPRMC,153349.9,A,3255.193789,N,11706.928662,W,59.9,7.2,041010,,,A*44
$GPRMC,153352.9,A,3255.243663,N,11706.920210,W,60.4,7.9,041010,,,A*40
$GPRMC,153355.9,A,3255.293987,N,11706.911642,W,61.3,8.7,041010,,,A*49
$GPRMC,153358.9,A,3255.345809,N,11706.902750,W,63.2,8.9,041010,,,A*44
$GPRMC,153401.9,A,3255.398451,N,11706.893832,W,64.0,9.4,041010,,,A*45
$GPRMC,153404.9,A,3255.449358,N,11706.883346,W,61.3,10.5,041010,,,A*73
$GPRMC,153407.9,A,3255.497802,N,11706.873868,W,59.7,10.2,041010,,,A*77
$GPRMC,153410.9,A,3255.546745,N,11706.861993,W,59.0,11.3,041010,,,A*71
$GPRMC,153413.9,A,3255.595267,N,11706.850497,W,59.1,12.3,041010,,,A*70
$GPRMC,153416.9,A,3255.644733,N,11706.839665,W,59.7,12.5,041010,,,A*7E
$GPRMC,153419.9,A,3255.692368,N,11706.825048,W,59.7,14.1,041010,,,A*76
$GPRMC,153422.9,A,3255.740749,N,11706.811446,W,59.5,13.7,041010,,,A*79
$GPRMC,153425.9,A,3255.788311,N,11706.795652,W,59.1,16.7,041010,,,A*76
$GPRMC,153428.9,A,3255.837051,N,11706.775826,W,61.3,19.2,041010,,,A*77
$GPRMC,153431.9,A,3255.885278,N,11706.763299,W,60.7,15.3,041010,,,A*7E
$GPRMC,153434.2,A,3255.923536,N,11706.752265,W,61.0,14.3,041010,,,A*76
$GPRMC,153437.2,A,3255.972657,N,11706.738027,W,60.1,14.2,041010,,,A*7C
$GPRMC,153440.2,A,3256.021579,N,11706.724544,W,59.7,13.6,041010,,,A*7D
$GPRMC,153443.2,A,3256.069244,N,11706.710429,W,58.7,14.5,041010,,,A*73
$GPRMC,153446.2,A,3256.116582,N,11706.696023,W,57.8,13.7,041010,,,A*76
$GPRMC,153449.9,A,3256.173971,N,11706.679591,W,58.3,14.1,041010,,,A*79
$GPRMC,153452.9,A,3256.223750,N,11706.660012,W,60.7,14.8,041010,,,A*78
$GPRMC,153455.9,A,3256.271618,N,11706.647119,W,58.3,13.6,041010,,,A*7C
$GPRMC,153458.9,A,3256.316824,N,11706.631626,W,58.1,14.7,041010,,,A*7E
$GPRMC,153501.9,A,3256.364078,N,11706.620702,W,58.3,13.5,041010,,,A*77
$GPRMC,153504.9,A,3256.412161,N,11706.607428,W,58.8,14.3,041010,,,A*79
$GPRMC,153507.9,A,3256.458033,N,11706.593484,W,57.5,15.4,041010,,,A*7E
$GPRMC,153510.9,A,3256.502889,N,11706.575155,W,56.5,18.0,041010,,,A*76
$GPRMC,153513.9,A,3256.548837,N,11706.554424,W,58.3,20.3,041010,,,A*7E
$GPRMC,153516.9,A,3256.593317,N,11706.532060,W,57.6,22.2,041010,,,A*79
$GPRMC,153519.9,A,3256.636025,N,11706.511477,W,55.2,23.4,041010,,,A*7A
$GPRMC,153522.9,A,3256.681753,N,11706.484133,W,58.4,26.7,041010,,,A*7D
$GPRMC,153525.9,A,3256.730524,N,11706.455555,W,62.1,28.0,041010,,,A*7E
$GPRMC,153528.9,A,3256.774926,N,11706.427286,W,62.7,30.0,041010,,,A*7E
$GPRMC,153531.9,A,3256.818660,N,11706.394618,W,60.4,31.2,041010,,,A*70
$GPRMC,153534.9,A,3256.859685,N,11706.368362,W,58.2,29.2,041010,,,A*74
$GPRMC,153538.2,A,3256.907174,N,11706.335089,W,58.2,31.3,041010,,,A*76
$GPRMC,153541.9,A,3256.960608,N,11706.300788,W,58.7,30.1,041010,,,A*78
$GPRMC,153544.9,A,3257.003741,N,11706.271555,W,59.4,29.2,041010,,,A*70
$GPRMC,153547.9,A,3257.045130,N,11706.243317,W,58.4,30.7,041010,,,A*7C
$GPRMC,153550.9,A,3257.086934,N,11706.213745,W,57.9,30.0,041010,,,A*7A
$GPRMC,153553.9,A,3257.130558,N,11706.183541,W,59.0,28.9,041010,,,A*78
$GPRMC,153556.9,A,3257.174823,N,11706.153545,W,60.1,28.8,041010,,,A*7F
$GPRMC,153559.9,A,3257.217421,N,11706.129868,W,58.0,26.9,041010,,,A*72
$GPRMC,153602.9,A,3257.261275,N,11706.104309,W,56.7,27.6,041010,,,A*7D
$GPRMC,153605.9,A,3257.302407,N,11706.075904,W,57.0,28.7,041010,,,A*75
$GPRMC,153608.9,A,3257.344722,N,11706.051909,W,56.7,27.7,041010,,,A*7C
$GPRMC,153611.9,A,3257.384867,N,11706.025893,W,54.1,28.3,041010,,,A*78
$GPRMC,153614.9,A,3257.420225,N,11706.000501,W,51.5,30.0,041010,,,A*72
$GPRMC,153617.9,A,3257.461264,N,11705.977716,W,51.3,27.2,041010,,,A*7D
$GPRMC,153620.9,A,3257.500346,N,11705.954695,W,52.0,26.4,041010,,,A*72
$GPRMC,153624.2,A,3257.543145,N,11705.927822,W,53.3,28.0,041010,,,A*75
$GPRMC,153627.9,A,3257.587521,N,11705.896411,W,52.6,29.7,041010,,,A*76
$GPRMC,153630.9,A,3257.624833,N,11705.870337,W,51.3,29.3,041010,,,A*7D
$GPRMC,153633.9,A,3257.664997,N,11705.845704,W,52.2,29.0,041010,,,A*76
$GPRMC,153636.9,A,3257.702609,N,11705.819078,W,52.5,29.2,041010,,,A*7A
$GPRMC,153639.9,A,3257.739979,N,11705.793946,W,51.8,29.0,041010,,,A*70
$GPRMC,153642.0,A,3257.765138,N,11705.776614,W,50.7,29.9,041010,,,A*75
$GPRMC,153645.9,A,3257.818212,N,11705.745893,W,57.4,27.1,041010,,,A*76
$GPRMC,153648.9,A,3257.853215,N,11705.723705,W,49.9,28.3,041010,,,A*7C
$GPRMC,153651.9,A,3257.888852,N,11705.703042,W,50.0,24.3,041010,,,A*70
$GPRMC,153654.2,A,3257.916313,N,11705.683282,W,52.2,27.9,041010,,,A*78
$GPRMC,153657.9,A,3257.963712,N,11705.655151,W,50.2,26.6,041010,,,A*7D
$GPRMC,153700.9,A,3258.001369,N,11705.630723,W,50.9,26.8,041010,,,A*71
$GPRMC,153703.9,A,3258.040613,N,11705.605308,W,53.1,28.7,041010,,,A*7E
$GPRMC,153706.9,A,3258.077630,N,11705.580136,W,51.2,28.8,041010,,,A*71
$GPRMC,153709.9,A,3258.116566,N,11705.552301,W,52.2,30.3,041010,,,A*70
$GPRMC,153712.9,A,3258.153157,N,11705.533066,W,49.8,26.3,041010,,,A*7F
$GPRMC,153715.9,A,3258.192493,N,11705.509400,W,52.3,26.9,041010,,,A*7E
$GPRMC,153718.9,A,3258.230032,N,11705.488354,W,50.4,25.0,041010,,,A*76
$GPRMC,153721.9,A,3258.267837,N,11705.460713,W,55.1,28.6,041010,,,A*79
$GPRMC,153724.9,A,3258.307898,N,11705.436859,W,53.9,26.5,041010,,,A*7F
$GPRMC,153727.9,A,3258.348694,N,11705.410186,W,55.0,27.8,041010,,,A*79
$GPRMC,153730.9,A,3258.390044,N,11705.385353,W,56.2,26.9,041010,,,A*71
$GPRMC,153733.9,A,3258.434546,N,11705.358174,W,57.4,27.4,041010,,,A*70
$GPRMC,153736.9,A,3258.475480,N,11705.332312,W,57.0,28.1,041010,,,A*7B
$GPRMC,153739.9,A,3258.515245,N,11705.304358,W,55.6,28.3,041010,,,A*71
$GPRMC,153742.9,A,3258.554971,N,11705.279827,W,54.9,27.6,041010,,,A*78
$GPRMC,153745.9,A,3258.596766,N,11705.254797,W,56.7,27.3,041010,,,A*7B
$GPRMC,153748.9,A,3258.640118,N,11705.226972,W,57.4,28.3,041010,,,A*7C
$GPRMC,153751.9,A,3258.685398,N,11705.199040,W,59.7,27.8,041010,,,A*71
$GPRMC,153754.9,A,3258.727811,N,11705.172066,W,58.8,28.0,041010,,,A*7F
$GPRMC,153757.0,A,3258.759208,N,11705.150929,W,62.1,28.9,041010,,,A*75
$GPRMC,153800.9,A,3258.817677,N,11705.114822,W,59.1,27.6,041010,,,A*7A
$GPRMC,153803.9,A,3258.861162,N,11705.087916,W,59.5,27.1,041010,,,A*75
$GPRMC,153806.9,A,3258.906170,N,11705.058625,W,61.3,28.2,041010,,,A*7F
$GPRMC,153809.9,A,3258.951125,N,11705.031923,W,60.9,25.7,041010,,,A*77
$GPRMC,153812.9,A,3259.000205,N,11705.008338,W,61.5,22.0,041010,,,A*77
$GPRMC,153815.9,A,3259.048529,N,11704.987909,W,60.7,18.5,041010,,,A*7D
$GPRMC,153818.9,A,3259.096595,N,11704.971902,W,59.7,15.4,041010,,,A*70
$GPRMC,153821.9,A,3259.143056,N,11704.959434,W,59.3,11.2,041010,,,A*7D
$GPRMC,153824.9,A,3259.191656,N,11704.954317,W,59.4,5.4,041010,,,A*4E
$GPRMC,153827.9,A,3259.242124,N,11704.950874,W,60.4,2.2,041010,,,A*43
$GPRMC,153830.9,A,3259.291720,N,11704.952049,W,59.3,357.9,041010,,,A*48
$GPRMC,153833.9,A,3259.342161,N,11704.958477,W,60.3,353.6,041010,,,A*45
$GPRMC,153836.9,A,3259.389189,N,11704.969740,W,59.2,350.5,041010,,,A*4F
$GPRMC,153839.9,A,3259.440248,N,11704.980381,W,60.5,349.9,041010,,,A*4B
$GPRMC,153842.9,A,3259.488395,N,11704.992264,W,59.1,349.2,041010,,,A*4E
$GPRMC,153845.9,A,3259.538018,N,11705.002944,W,59.4,350.8,041010,,,A*4A
$GPRMC,153848.9,A,3259.587654,N,11705.008858,W,59.3,354.5,041010,,,A*45
$GPRMC,153851.9,A,3259.635330,N,11705.010267,W,57.6,358.4,041010,,,A*49
$GPRMC,153854.9,A,3259.681131,N,11705.010522,W,56.3,0.5,041010,,,A*4D
$GPRMC,153857.9,A,3259.732499,N,11705.010611,W,60.0,1.9,041010,,,A*48
$GPRMC,153900.9,A,3259.779555,N,11705.002894,W,58.0,7.4,041010,,,A*45
$GPRMC,153903.9,A,3259.826971,N,11704.994049,W,57.6,10.0,041010,,,A*7D
$GPRMC,153906.9,A,3259.874389,N,11704.981593,W,58.1,13.4,041010,,,A*7B
$GPRMC,153909.9,A,3259.920577,N,11704.965446,W,57.3,16.7,041010,,,A*7B
$GPRMC,153912.9,A,3259.966992,N,11704.947701,W,58.8,17.5,041010,,,A*73
$GPRMC,153915.9,A,3300.015998,N,11704.931269,W,61.3,17.2,041010,,,A*72
$GPRMC,153918.9,A,3300.064458,N,11704.911737,W,61.0,17.8,041010,,,A*7D
$GPRMC,153921.9,A,3300.113711,N,11704.895549,W,60.4,16.8,041010,,,A*7A
$GPRMC,153924.9,A,3300.162777,N,11704.879025,W,60.5,16.9,041010,,,A*74
$GPRMC,153927.9,A,3300.213759,N,11704.861186,W,61.8,15.6,041010,,,A*7F
$GPRMC,153930.9,A,3300.265445,N,11704.845325,W,62.9,13.7,041010,,,A*7E
$GPRMC,153934.2,A,3300.320621,N,11704.831198,W,61.7,11.5,041010,,,A*7B
$GPRMC,153937.9,A,3300.385091,N,11704.817870,W,62.4,9.0,041010,,,A*46
$GPRMC,153940.9,A,3300.435501,N,11704.809956,W,60.7,5.3,041010,,,A*42
$GPRMC,153943.9,A,3300.486635,N,11704.805076,W,61.4,5.6,041010,,,A*4D
$GPRMC,153946.9,A,3300.537132,N,11704.798315,W,60.0,5.9,041010,,,A*44
$GPRMC,153949.9,A,3300.583367,N,11704.791077,W,58.5,5.9,041010,,,A*46
$GPRMC,153952.9,A,3300.637403,N,11704.783441,W,61.4,6.2,041010,,,A*44
$GPRMC,153955.9,A,3300.690253,N,11704.778045,W,62.4,5.5,041010,,,A*4E
$GPRMC,153958.9,A,3300.743506,N,11704.772504,W,63.0,5.2,041010,,,A*43
$GPRMC,154001.9,A,3300.795086,N,11704.768927,W,62.7,4.5,041010,,,A*41
$GPRMC,154004.9,A,3300.843843,N,11704.759657,W,61.6,6.6,041010,,,A*48
$GPRMC,154007.9,A,3300.898788,N,11704.754346,W,63.3,5.4,041010,,,A*4B
$GPRMC,154010.9,A,3300.951755,N,11704.748801,W,64.0,5.1,041010,,,A*4D
$GPRMC,154013.9,A,3301.005062,N,11704.742826,W,63.6,5.1,041010,,,A*4A
$GPRMC,154016.9,A,3301.060520,N,11704.735636,W,65.5,5.2,041010,,,A*46
$GPRMC,154019.9,A,3301.112517,N,11704.731335,W,63.2,3.9,041010,,,A*47
$GPRMC,154022.9,A,3301.163353,N,11704.725030,W,62.7,5.1,041010,,,A*46
$GPRMC,154025.9,A,3301.218350,N,11704.722008,W,64.2,3.3,041010,,,A*46
$GPRMC,154028.9,A,3301.265653,N,11704.713111,W,58.0,6.4,041010,,,A*43
$GPRMC,154031.9,A,3301.313388,N,11704.711955,W,56.0,1.9,041010,,,A*46
$GPRMC,154034.9,A,3301.358682,N,11704.710676,W,54.0,1.5,041010,,,A*42
$GPRMC,154037.9,A,3301.402316,N,11704.712607,W,53.0,359.6,041010,,,A*4F
$GPRMC,154040.9,A,3301.447684,N,11704.713856,W,53.0,0.2,041010,,,A*40
$GPRMC,154043.9,A,3301.485969,N,11704.714466,W,49.7,0.3,041010,,,A*44
$GPRMC,154046.9,A,3301.529281,N,11704.713700,W,50.1,0.7,041010,,,A*45
$GPRMC,154049.9,A,3301.579272,N,11704.711844,W,54.2,0.8,041010,,,A*46
$GPRMC,154052.9,A,3301.625699,N,11704.711777,W,54.8,0.9,041010,,,A*43
$GPRMC,154055.9,A,3301.668345,N,11704.712146,W,53.3,0.1,041010,,,A*4A
$GPRMC,154058.9,A,3301.719668,N,11704.711036,W,57.5,1.7,041010,,,A*4A
$GPRMC,154101.9,A,3301.770682,N,11704.706050,W,57.8,4.0,041010,,,A*45
$GPRMC,154104.9,A,3301.814559,N,11704.699578,W,54.6,6.7,041010,,,A*48
$GPRMC,154107.9,A,3301.860367,N,11704.692901,W,54.6,8.2,041010,,,A*41
$GPRMC,154110.9,A,3301.903377,N,11704.681512,W,53.2,12.1,041010,,,A*75
$GPRMC,154113.9,A,3301.945372,N,11704.670448,W,53.6,14.8,041010,,,A*7A
$GPRMC,154116.9,A,3301.989810,N,11704.654307,W,56.5,17.5,041010,,,A*72
$GPRMC,154119.9,A,3302.034036,N,11704.636235,W,54.3,17.7,041010,,,A*7F
$GPRMC,154122.9,A,3302.078607,N,11704.618204,W,55.1,18.8,041010,,,A*76
$GPRMC,154125.9,A,3302.119812,N,11704.598412,W,54.5,20.4,041010,,,A*75
$GPRMC,154128.9,A,3302.164215,N,11704.580217,W,55.3,18.6,041010,,,A*7B
$GPRMC,154131.9,A,3302.207496,N,11704.562176,W,53.0,19.0,041010,,,A*72
$GPRMC,154134.9,A,3302.247660,N,11704.544107,W,52.6,19.6,041010,,,A*7B
$GPRMC,154137.9,A,3302.290175,N,11704.525462,W,53.8,19.9,041010,,,A*70
$GPRMC,154140.9,A,3302.332288,N,11704.509395,W,52.7,18.7,041010,,,A*78
$GPRMC,154143.9,A,3302.374570,N,11704.492233,W,53.5,19.7,041010,,,A*75
$GPRMC,154146.9,A,3302.416856,N,11704.474756,W,53.6,19.5,041010,,,A*75
$GPRMC,154149.9,A,3302.460440,N,11704.455954,W,54.1,19.0,041010,,,A*7A
$GPRMC,154152.9,A,3302.499691,N,11704.439729,W,53.0,19.2,041010,,,A*72
$GPRMC,154155.9,A,3302.542145,N,11704.421136,W,54.6,20.2,041010,,,A*76
$GPRMC,154158.9,A,3302.585830,N,11704.403698,W,54.6,19.3,041010,,,A*73
$GPRMC,154201.9,A,3302.629206,N,11704.387242,W,54.3,17.6,041010,,,A*70
$GPRMC,154204.9,A,3302.673989,N,11704.373749,W,55.6,14.7,041010,,,A*75
$GPRMC,154207.9,A,3302.716961,N,11704.363694,W,53.7,10.8,041010,,,A*7E
$GPRMC,154210.9,A,3302.761514,N,11704.355993,W,52.9,7.4,041010,,,A*4E
$GPRMC,154213.9,A,3302.809251,N,11704.353705,W,54.5,1.7,041010,,,A*42
$GPRMC,154216.9,A,3302.855059,N,11704.356384,W,54.9,357.6,041010,,,A*41
$GPRMC,154219.9,A,3302.903873,N,11704.363021,W,58.3,355.4,041010,,,A*40
$GPRMC,154222.9,A,3302.952532,N,11704.367548,W,58.3,356.8,041010,,,A*45
$GPRMC,154225.9,A,3303.001382,N,11704.364959,W,59.0,0.7,041010,,,A*43
$GPRMC,154228.9,A,3303.048843,N,11704.360775,W,60.0,3.8,041010,,,A*47
$GPRMC,154231.9,A,3303.101215,N,11704.354556,W,62.1,6.1,041010,,,A*41
$GPRMC,154234.9,A,3303.155000,N,11704.347904,W,63.9,7.6,041010,,,A*45
$GPRMC,154237.9,A,3303.207386,N,11704.333363,W,64.6,12.3,041010,,,A*7E
$GPRMC,154240.9,A,3303.261796,N,11704.321550,W,63.8,13.4,041010,,,A*71
$GPRMC,154243.9,A,3303.311416,N,11704.296598,W,63.5,19.8,041010,,,A*7D
$GPRMC,154247.2,A,3303.365965,N,11704.267535,W,65.0,23.4,041010,,,A*77
$GPRMC,154250.9,A,3303.426831,N,11704.239021,W,63.2,22.2,041010,,,A*72
$GPRMC,154253.9,A,3303.475542,N,11704.216305,W,63.4,22.3,041010,,,A*71
$GPRMC,154256.9,A,3303.526057,N,11704.194282,W,64.1,19.8,041010,,,A*74
$GPRMC,154259.9,A,3303.577863,N,11704.173045,W,64.9,18.1,041010,,,A*70
$GPRMC,154302.9,A,3303.632337,N,11704.154969,W,65.8,15.1,041010,,,A*78
$GPRMC,154305.9,A,3303.682065,N,11704.140776,W,63.5,11.8,041010,,,A*73
$GPRMC,154308.9,A,3303.735032,N,11704.130416,W,65.7,8.6,041010,,,A*41
$GPRMC,154311.9,A,3303.790958,N,11704.123404,W,67.2,4.9,041010,,,A*46
$GPRMC,154314.9,A,3303.848127,N,11704.119761,W,67.5,2.3,041010,,,A*4B
$GPRMC,154317.9,A,3303.903159,N,11704.124205,W,66.3,358.1,041010,,,A*4F
$GPRMC,154320.9,A,3303.959395,N,11704.131290,W,65.6,354.4,041010,,,A*41
$GPRMC,154323.9,A,3304.012672,N,11704.136955,W,64.9,353.8,041010,,,A*4F
$GPRMC,154326.9,A,3304.060049,N,11704.144061,W,58.7,352.7,041010,,,A*45
$GPRMC,154329.9,A,3304.115747,N,11704.152816,W,63.7,352.6,041010,,,A*46
$GPRMC,154332.2,A,3304.159597,N,11704.158109,W,65.7,353.0,041010,,,A*4C
$GPRMC,154335.2,A,3304.216309,N,11704.164391,W,66.7,354.2,041010,,,A*48
$GPRMC,154338.2,A,3304.270976,N,11704.172089,W,65.3,354.3,041010,,,A*4C
$GPRMC,154341.9,A,3304.337959,N,11704.180307,W,62.5,354.3,041010,,,A*4F
$GPRMC,154344.2,A,3304.378049,N,11704.186014,W,63.9,354.2,041010,,,A*49
$GPRMC,154347.9,A,3304.444050,N,11704.195606,W,64.6,352.9,041010,,,A*43
$GPRMC,154350.2,A,3304.484007,N,11704.201205,W,64.7,353.1,041010,,,A*41
$GPRMC,154353.9,A,3304.547352,N,11704.211291,W,62.6,351.8,041010,,,A*44
$GPRMC,154356.9,A,3304.597227,N,11704.221162,W,62.3,350.2,041010,,,A*4D
$GPRMC,154359.9,A,3304.647213,N,11704.237681,W,62.1,346.2,041010,,,A*43
$GPRMC,154402.9,A,3304.699645,N,11704.258474,W,63.0,341.9,041010,,,A*43
$GPRMC,154405.9,A,3304.746666,N,11704.280078,W,60.6,340.1,041010,,,A*47
$GPRMC,154408.9,A,3304.794615,N,11704.300197,W,60.8,339.9,041010,,,A*40
$GPRMC,154411.9,A,3304.840129,N,11704.319722,W,57.3,339.6,041010,,,A*46
$GPRMC,154414.9,A,3304.882826,N,11704.343636,W,57.1,336.1,041010,,,A*4A
$GPRMC,154417.9,A,3304.925342,N,11704.368729,W,57.1,334.5,041010,,,A*4C
$GPRMC,154420.9,A,3304.966895,N,11704.395680,W,57.6,332.1,041010,,,A*4B
$GPRMC,154423.9,A,3305.009993,N,11704.421823,W,57.8,332.4,041010,,,A*4A
$GPRMC,154426.9,A,3305.050323,N,11704.452021,W,58.0,329.2,041010,,,A*47
$GPRMC,154429.9,A,3305.092233,N,11704.479815,W,58.1,329.0,041010,,,A*43
$GPRMC,154432.9,A,3305.130279,N,11704.515020,W,59.1,325.1,041010,,,A*47
$GPRMC,154435.9,A,3305.171002,N,11704.551771,W,61.3,323.1,041010,,,A*47
$GPRMC,154438.9,A,3305.208295,N,11704.590648,W,59.4,320.7,041010,,,A*44
$GPRMC,154441.9,A,3305.245039,N,11704.626847,W,58.6,319.3,041010,,,A*45
$GPRMC,154444.9,A,3305.280787,N,11704.663480,W,58.2,317.9,041010,,,A*4D
$GPRMC,154447.9,A,3305.316926,N,11704.704756,W,60.5,317.3,041010,,,A*4B
$GPRMC,154450.9,A,3305.352409,N,11704.741342,W,59.9,318.1,041010,,,A*46
$GPRMC,154453.9,A,3305.387967,N,11704.782754,W,60.2,317.3,041010,,,A*48
$GPRMC,154456.9,A,3305.425781,N,11704.823354,W,60.5,318.4,041010,,,A*4B
$GPRMC,154459.9,A,3305.463401,N,11704.865571,W,61.5,317.2,041010,,,A*46
$GPRMC,154502.9,A,3305.502087,N,11704.906893,W,60.6,317.4,041010,,,A*44
$GPRMC,154505.9,A,3305.539852,N,11704.945744,W,59.8,318.2,041010,,,A*44
$GPRMC,154508.9,A,3305.578096,N,11704.989120,W,62.2,317.7,041010,,,A*40
$GPRMC,154511.9,A,3305.619900,N,11705.029055,W,63.6,318.8,041010,,,A*4E
$GPRMC,154514.9,A,3305.658743,N,11705.069286,W,62.7,321.1,041010,,,A*4C
$GPRMC,154517.9,A,3305.696607,N,11705.112207,W,64.4,317.7,041010,,,A*4E
$GPRMC,154520.9,A,3305.737232,N,11705.156203,W,65.4,317.7,041010,,,A*47
$GPRMC,154523.9,A,3305.779840,N,11705.195960,W,64.9,321.1,041010,,,A*4F
$GPRMC,154526.9,A,3305.820500,N,11705.236692,W,63.4,320.3,041010,,,A*41
$GPRMC,154529.9,A,3305.862292,N,11705.275538,W,63.4,321.8,041010,,,A*4A
$GPRMC,154532.9,A,3305.907657,N,11705.310368,W,64.0,325.4,041010,,,A*45
$GPRMC,154535.9,A,3305.950484,N,11705.344037,W,62.5,327.9,041010,,,A*48
$GPRMC,154538.9,A,3305.997128,N,11705.379605,W,65.0,329.1,041010,,,A*40
$GPRMC,154541.9,A,3306.044448,N,11705.412230,W,64.6,330.7,041010,,,A*48
$GPRMC,154544.9,A,3306.091683,N,11705.442976,W,64.4,332.1,041010,,,A*4A
$GPRMC,154547.9,A,3306.136747,N,11705.470465,W,62.0,333.5,041010,,,A*45
$GPRMC,154550.9,A,3306.185873,N,11705.499098,W,63.4,333.5,041010,,,A*47
$GPRMC,154554.2,A,3306.240524,N,11705.530660,W,65.6,333.9,041010,,,A*46
$GPRMC,154557.9,A,3306.300316,N,11705.566113,W,65.4,334.7,041010,,,A*47
$GPRMC,154600.2,A,3306.336644,N,11705.587092,W,63.5,334.1,041010,,,A*4C
$GPRMC,154603.9,A,3306.396847,N,11705.621865,W,63.4,333.6,041010,,,A*4D
$GPRMC,154606.9,A,3306.443695,N,11705.650567,W,63.5,333.4,041010,,,A*4C
$GPRMC,154609.9,A,3306.493777,N,11705.677119,W,65.5,335.7,041010,,,A*48
$GPRMC,154612.9,A,3306.542591,N,11705.706979,W,64.1,333.5,041010,,,A*4D
$GPRMC,154615.9,A,3306.588542,N,11705.735541,W,61.8,333.0,041010,,,A*4C
$GPRMC,154618.9,A,3306.633281,N,11705.763577,W,60.0,333.1,041010,,,A*44
$GPRMC,154621.9,A,3306.676638,N,11705.789234,W,57.8,332.7,041010,,,A*46
$GPRMC,154624.9,A,3306.714601,N,11705.807163,W,51.0,335.5,041010,,,A*4F
$GPRMC,154627.9,A,3306.752640,N,11705.829026,W,49.2,334.7,041010,,,A*4F
$GPRMC,154630.9,A,3306.783984,N,11705.853205,W,45.9,331.8,041010,,,A*41
$GPRMC,154633.9,A,3306.814103,N,11705.868301,W,41.2,335.0,041010,,,A*4A
$GPRMC,154636.9,A,3306.845259,N,11705.885442,W,41.0,335.0,041010,,,A*46
$GPRMC,154639.9,A,3306.877271,N,11705.901621,W,39.7,336.4,041010,,,A*47
$GPRMC,154642.9,A,3306.905935,N,11705.918082,W,38.3,334.9,041010,,,A*49
$GPRMC,154645.9,A,3306.935160,N,11705.932546,W,38.8,336.5,041010,,,A*45
$GPRMC,154648.9,A,3306.969630,N,11705.949630,W,42.3,336.8,041010,,,A*46
$GPRMC,154651.9,A,3307.002320,N,11705.967101,W,44.1,336.6,041010,,,A*4C
$GPRMC,154654.9,A,3307.037192,N,11705.984894,W,45.2,337.1,041010,,,A*48
$GPRMC,154657.9,A,3307.072418,N,11705.999799,W,44.8,338.4,041010,,,A*42
$GPRMC,154700.9,A,3307.108272,N,11706.022710,W,49.1,333.5,041010,,,A*42
$GPRMC,154703.2,A,3307.136838,N,11706.039428,W,50.7,333.0,041010,,,A*4A
$GPRMC,154706.2,A,3307.177193,N,11706.064900,W,53.9,332.8,041010,,,A*49
$GPRMC,154709.2,A,3307.219295,N,11706.089381,W,55.7,333.3,041010,,,A*4A
$GPRMC,154712.2,A,3307.258588,N,11706.115810,W,56.1,330.9,041010,,,A*45
$GPRMC,154715.2,A,3307.301630,N,11706.145173,W,58.0,330.7,041010,,,A*47
$GPRMC,154718.9,A,3307.356108,N,11706.176758,W,57.1,334.7,041010,,,A*4A
$GPRMC,154721.9,A,3307.399560,N,11706.198913,W,57.9,336.4,041010,,,A*41
$GPRMC,154724.9,A,3307.450573,N,11706.222409,W,60.4,338.3,041010,,,A*40
$GPRMC,154727.9,A,3307.507961,N,11706.244160,W,65.1,341.6,041010,,,A*4E
$GPRMC,154730.9,A,3307.562115,N,11706.264372,W,66.2,343.3,041010,,,A*44
$GPRMC,154733.2,A,3307.604667,N,11706.276083,W,69.2,348.4,041010,,,A*40
$GPRMC,154736.9,A,3307.673884,N,11706.291317,W,69.5,349.8,041010,,,A*40
$GPRMC,154739.9,A,3307.730460,N,11706.301007,W,69.1,353.0,041010,,,A*42
$GPRMC,154742.9,A,3307.786722,N,11706.303975,W,67.8,356.6,041010,,,A*4C
$GPRMC,154745.9,A,3307.843155,N,11706.306526,W,67.6,358.7,041010,,,A*45
$GPRMC,154748.9,A,3307.902170,N,11706.307149,W,70.1,1.2,041010,,,A*4C
$GPRMC,154751.9,A,3307.960766,N,11706.304164,W,68.5,2.5,041010,,,A*44
$GPRMC,154754.9,A,3308.018111,N,11706.299994,W,69.4,2.9,041010,,,A*40
$GPRMC,154757.9,A,3308.072502,N,11706.297576,W,66.4,2.9,041010,,,A*48
$GPRMC,154800.9,A,3308.127140,N,11706.296894,W,64.8,2.1,041010,,,A*40
$GPRMC,154803.9,A,3308.182571,N,11706.293639,W,65.0,2.7,041010,,,A*49
$GPRMC,154806.9,A,3308.235986,N,11706.292292,W,64.4,2.1,041010,,,A*40
$GPRMC,154809.9,A,3308.289708,N,11706.287590,W,64.8,3.5,041010,,,A*48
$GPRMC,154812.9,A,3308.344130,N,11706.285816,W,65.4,2.0,041010,,,A*47
$GPRMC,154815.9,A,3308.396224,N,11706.282616,W,64.7,2.9,041010,,,A*4B
$GPRMC,154818.9,A,3308.450134,N,11706.278286,W,64.2,2.6,041010,,,A*4B
$GPRMC,154821.9,A,3308.502192,N,11706.276416,W,62.0,2.9,041010,,,A*41
$GPRMC,154824.9,A,3308.554504,N,11706.273082,W,61.6,3.4,041010,,,A*49
$GPRMC,154827.9,A,3308.604180,N,11706.270065,W,59.7,2.9,041010,,,A*48
$GPRMC,154830.9,A,3308.653312,N,11706.267737,W,58.7,2.7,041010,,,A*4C
$GPRMC,154833.9,A,3308.702050,N,11706.265739,W,59.6,3.0,041010,,,A*45
$GPRMC,154836.9,A,3308.754618,N,11706.263722,W,61.4,2.6,041010,,,A*4B
$GPRMC,154839.9,A,3308.803848,N,11706.261412,W,60.5,2.5,041010,,,A*43
$GPRMC,154842.9,A,3308.855907,N,11706.258203,W,61.4,2.6,041010,,,A*49
$GPRMC,154845.9,A,3308.909555,N,11706.254055,W,61.8,3.2,041010,,,A*49
$GPRMC,154848.9,A,3308.958806,N,11706.251437,W,60.0,3.0,041010,,,A*45
$GPRMC,154851.9,A,3309.006979,N,11706.249024,W,59.4,2.1,041010,,,A*46
$GPRMC,154854.9,A,3309.055397,N,11706.243516,W,58.9,2.9,041010,,,A*45
$GPRMC,154857.9,A,3309.105006,N,11706.242286,W,57.7,1.9,041010,,,A*44
$GPRMC,154900.9,A,3309.152250,N,11706.240184,W,57.4,2.5,041010,,,A*4B
$GPRMC,154903.9,A,3309.202215,N,11706.236502,W,59.5,4.2,041010,,,A*4A
$GPRMC,154906.9,A,3309.249460,N,11706.236201,W,59.2,1.9,041010,,,A*49
$GPRMC,154909.9,A,3309.300946,N,11706.236140,W,59.7,0.3,041010,,,A*4B
$GPRMC,154912.9,A,3309.349564,N,11706.237958,W,59.2,358.1,041010,,,A*49
$GPRMC,154915.9,A,3309.399091,N,11706.241997,W,60.4,356.1,041010,,,A*4C
$GPRMC,154918.9,A,3309.451541,N,11706.247563,W,62.2,353.6,041010,,,A*4D
$GPRMC,154921.9,A,3309.502957,N,11706.253539,W,62.2,352.3,041010,,,A*45
$GPRMC,154924.9,A,3309.553105,N,11706.267016,W,62.8,348.3,041010,,,A*45
$GPRMC,154927.9,A,3309.605236,N,11706.281241,W,63.6,346.9,041010,,,A*46
$GPRMC,154930.9,A,3309.654949,N,11706.297343,W,62.7,344.8,041010,,,A*40
$GPRMC,154933.9,A,3309.709403,N,11706.316910,W,64.6,342.6,041010,,,A*42
$GPRMC,154936.9,A,3309.760031,N,11706.337897,W,63.7,340.3,041010,,,A*41
$GPRMC,154939.9,A,3309.804451,N,11706.360149,W,61.3,337.6,041010,,,A*4A
$GPRMC,154942.9,A,3309.848196,N,11706.384176,W,61.1,336.4,041010,,,A*47
$GPRMC,154945.9,A,3309.895269,N,11706.412386,W,61.0,334.7,041010,,,A*46
$GPRMC,154948.9,A,3309.941018,N,11706.438875,W,61.4,334.8,041010,,,A*43
$GPRMC,154951.9,A,3309.988085,N,11706.465929,W,61.7,334.6,041010,,,A*47
$GPRMC,154954.9,A,3310.036749,N,11706.494455,W,62.6,332.9,041010,,,A*42
$GPRMC,154957.9,A,3310.083682,N,11706.521507,W,63.8,334.4,041010,,,A*44
$GPRMC,155000.9,A,3310.131498,N,11706.549250,W,63.8,334.3,041010,,,A*43
$GPRMC,155003.9,A,3310.179624,N,11706.575182,W,63.8,335.6,041010,,,A*4E
$GPRMC,155006.9,A,3310.227669,N,11706.603687,W,63.6,334.1,041010,,,A*42
$GPRMC,155009.9,A,3310.275666,N,11706.630428,W,63.8,334.6,041010,,,A*4B
$GPRMC,155012.9,A,3310.325005,N,11706.659065,W,64.8,334.1,041010,,,A*44
$GPRMC,155015.9,A,3310.372303,N,11706.686522,W,64.0,334.9,041010,,,A*40
$GPRMC,155018.9,A,3310.418048,N,11706.717055,W,63.4,331.2,041010,,,A*4B
$GPRMC,155021.9,A,3310.466695,N,11706.740307,W,60.7,336.2,041010,,,A*4F
$GPRMC,155024.9,A,3310.510070,N,11706.764555,W,57.8,335.1,041010,,,A*4B
$GPRMC,155027.9,A,3310.551462,N,11706.789122,W,57.0,334.3,041010,,,A*46
$GPRMC,155030.9,A,3310.594366,N,11706.813541,W,57.1,333.8,041010,,,A*4A
$GPRMC,155033.9,A,3310.635541,N,11706.837762,W,55.7,334.3,041010,,,A*4F
$GPRMC,155036.9,A,3310.676176,N,11706.862978,W,56.6,333.7,041010,,,A*49
$GPRMC,155039.9,A,3310.719305,N,11706.887185,W,56.2,334.4,041010,,,A*49
$GPRMC,155042.9,A,3310.760203,N,11706.911666,W,55.5,334.0,041010,,,A*48
$GPRMC,155045.9,A,3310.801781,N,11706.933556,W,55.1,335.3,041010,,,A*4E
$GPRMC,155048.9,A,3310.842756,N,11706.959196,W,56.3,333.9,041010,,,A*47
$GPRMC,155051.9,A,3310.886464,N,11706.983421,W,57.2,334.4,041010,,,A*41
$GPRMC,155054.9,A,3310.930414,N,11707.007417,W,57.4,334.7,041010,,,A*4B
$GPRMC,155057.9,A,3310.973111,N,11707.030857,W,56.0,334.9,041010,,,A*48
$GPRMC,155100.9,A,3311.016526,N,11707.056014,W,54.9,334.1,041010,,,A*4C
$GPRMC,155103.9,A,3311.057005,N,11707.079869,W,52.8,334.5,041010,,,A*42
$GPRMC,155106.9,A,3311.097767,N,11707.101366,W,53.5,334.9,041010,,,A*42
$GPRMC,155109.9,A,3311.140195,N,11707.128591,W,57.0,332.3,041010,,,A*45
$GPRMC,155112.9,A,3311.181086,N,11707.150669,W,56.3,334.4,041010,,,A*49
$GPRMC,155115.9,A,3311.226280,N,11707.173417,W,58.9,335.6,041010,,,A*49
$GPRMC,155118.9,A,3311.270483,N,11707.202678,W,60.4,333.0,041010,,,A*4A
$GPRMC,155121.9,A,3311.313873,N,11707.228041,W,60.4,334.2,041010,,,A*46
$GPRMC,155124.9,A,3311.361219,N,11707.254399,W,62.0,335.1,041010,,,A*49
$GPRMC,155127.9,A,3311.406956,N,11707.280993,W,62.5,334.7,041010,,,A*47
$GPRMC,155130.9,A,3311.452812,N,11707.308052,W,62.0,334.1,041010,,,A*47
$GPRMC,155133.9,A,3311.501459,N,11707.336145,W,62.5,334.5,041010,,,A*4B
$GPRMC,155136.9,A,3311.549202,N,11707.363157,W,63.2,335.1,041010,,,A*4A
$GPRMC,155139.9,A,3311.595780,N,11707.388754,W,62.2,334.4,041010,,,A*4E
$GPRMC,155142.9,A,3311.639373,N,11707.416798,W,59.9,333.2,041010,,,A*4D
$GPRMC,155145.9,A,3311.684794,N,11707.443129,W,61.1,334.1,041010,,,A*4A
$GPRMC,155148.9,A,3311.732192,N,11707.472074,W,62.5,333.6,041010,,,A*47
$GPRMC,155151.9,A,3311.780043,N,11707.497978,W,61.9,334.5,041010,,,A*4E
$GPRMC,155154.9,A,3311.825320,N,11707.524484,W,60.3,333.7,041010,,,A*44
$GPRMC,155157.9,A,3311.871318,N,11707.551897,W,60.2,333.7,041010,,,A*40
$GPRMC,155200.9,A,3311.915703,N,11707.574714,W,59.8,334.8,041010,,,A*47
$GPRMC,155203.9,A,3311.961378,N,11707.602476,W,60.2,333.1,041010,,,A*44
$GPRMC,155206.9,A,3312.005332,N,11707.628076,W,59.2,334.0,041010,,,A*47
$GPRMC,155209.9,A,3312.049276,N,11707.654968,W,58.0,333.9,041010,,,A*41
$GPRMC,155212.9,A,3312.091090,N,11707.679522,W,54.0,332.7,041010,,,A*4A
$GPRMC,155215.9,A,3312.127782,N,11707.704805,W,50.0,330.9,041010,,,A*4E
$GPRMC,155219.2,A,3312.167265,N,11707.728855,W,49.5,331.5,041010,,,A*4A
$GPRMC,155222.9,A,3312.212387,N,11707.757775,W,51.8,330.9,041010,,,A*49
$GPRMC,155225.2,A,3312.242511,N,11707.776682,W,50.6,330.1,041010,,,A*44
$GPRMC,155228.9,A,3312.286930,N,11707.806183,W,49.8,329.9,041010,,,A*4D
$GPRMC,155231.9,A,3312.324210,N,11707.834760,W,53.0,328.1,041010,,,A*45
$GPRMC,155234.2,A,3312.353353,N,11707.855659,W,52.9,329.1,041010,,,A*48
$GPRMC,155238.2,A,3312.400473,N,11707.893062,W,50.9,326.4,041010,,,A*4C
$GPRMC,155241.2,A,3312.437339,N,11707.919067,W,51.2,328.1,041010,,,A*48
$GPRMC,155244.9,A,3312.482234,N,11707.952247,W,49.0,327.5,041010,,,A*4B
$GPRMC,155247.2,A,3312.509706,N,11707.971492,W,49.9,328.7,041010,,,A*4E
$GPRMC,155250.2,A,3312.546680,N,11707.999031,W,52.1,328.0,041010,,,A*42
$GPRMC,155253.2,A,3312.583061,N,11708.026492,W,51.2,327.8,041010,,,A*49
$GPRMC,155257.2,A,3312.632439,N,11708.061287,W,53.6,327.1,041010,,,A*43
$GPRMC,155300.2,A,3312.670444,N,11708.092169,W,53.3,327.0,041010,,,A*47
$GPRMC,155303.2,A,3312.709004,N,11708.121154,W,53.1,327.3,041010,,,A*4D
$GPRMC,155306.2,A,3312.747189,N,11708.149423,W,53.9,327.5,041010,,,A*43
$GPRMC,155309.2,A,3312.788094,N,11708.179444,W,56.8,327.8,041010,,,A*49
$GPRMC,155312.0,A,3312.824785,N,11708.206990,W,56.4,327.8,041010,,,A*4C
$GPRMC,155316.2,A,3312.881110,N,11708.247790,W,55.2,327.4,041010,,,A*4D
$GPRMC,155319.9,A,3312.930669,N,11708.282620,W,54.9,329.5,041010,,,A*4D
$GPRMC,155322.9,A,3312.969080,N,11708.313393,W,55.9,327.0,041010,,,A*46
$GPRMC,155325.2,A,3313.000435,N,11708.336011,W,55.5,328.4,041010,,,A*4E
$GPRMC,155328.2,A,3313.040478,N,11708.363371,W,55.0,328.5,041010,,,A*4F
$GPRMC,155331.2,A,3313.081092,N,11708.390742,W,54.9,329.1,041010,,,A*4F
$GPRMC,155334.9,A,3313.128076,N,11708.422172,W,53.5,331.0,041010,,,A*41
$GPRMC,155337.9,A,3313.170870,N,11708.448902,W,56.9,331.8,041010,,,A*43
$GPRMC,155340.9,A,3313.214315,N,11708.477350,W,57.9,332.3,041010,,,A*42
$GPRMC,155343.9,A,3313.254777,N,11708.505586,W,57.4,332.9,041010,,,A*4B
$GPRMC,155346.9,A,3313.300111,N,11708.529791,W,58.7,335.3,041010,,,A*43
$GPRMC,155349.9,A,3313.346623,N,11708.552265,W,59.4,336.8,041010,,,A*40
$GPRMC,155352.9,A,3313.393450,N,11708.572556,W,58.7,339.1,041010,,,A*45
$GPRMC,155355.9,A,3313.437759,N,11708.593231,W,58.1,338.7,041010,,,A*49
$GPRMC,155358.9,A,3313.483231,N,11708.609534,W,56.7,340.4,041010,,,A*46
$GPRMC,155401.9,A,3313.528653,N,11708.628379,W,58.5,341.0,041010,,,A*48
$GPRMC,155404.9,A,3313.574923,N,11708.652619,W,59.7,339.1,041010,,,A*4F
$GPRMC,155407.9,A,3313.622753,N,11708.673739,W,60.5,338.9,041010,,,A*44
$GPRMC,155410.9,A,3313.669211,N,11708.691962,W,58.3,341.1,041010,,,A*49
$GPRMC,155413.9,A,3313.715399,N,11708.710960,W,57.3,341.0,041010,,,A*45
$GPRMC,155416.9,A,3313.758693,N,11708.728633,W,54.6,340.7,041010,,,A*44
$GPRMC,155419.9,A,3313.800433,N,11708.747635,W,52.1,340.0,041010,,,A*48
$GPRMC,155422.9,A,3313.838526,N,11708.762665,W,49.4,341.0,041010,,,A*42
$GPRMC,155425.9,A,3313.880563,N,11708.780473,W,51.9,340.5,041010,,,A*4E
$GPRMC,155428.9,A,3313.923622,N,11708.797969,W,55.1,339.9,041010,,,A*43
$GPRMC,155431.9,A,3313.967475,N,11708.818417,W,58.0,339.7,041010,,,A*45
$GPRMC,155434.9,A,3314.013097,N,11708.839268,W,58.5,339.6,041010,,,A*4C
$GPRMC,155437.9,A,3314.058047,N,11708.858967,W,57.4,339.7,041010,,,A*41
$GPRMC,155440.9,A,3314.099682,N,11708.876932,W,54.8,340.0,041010,,,A*49
$GPRMC,155443.9,A,3314.144383,N,11708.895643,W,55.3,340.7,041010,,,A*46
$GPRMC,155446.9,A,3314.187048,N,11708.915011,W,55.7,340.5,041010,,,A*46
$GPRMC,155449.9,A,3314.233330,N,11708.935965,W,57.5,339.8,041010,,,A*42
$GPRMC,155452.9,A,3314.280873,N,11708.952361,W,58.0,341.3,041010,,,A*4D
$GPRMC,155455.9,A,3314.326367,N,11708.974358,W,56.8,339.7,041010,,,A*4A
$GPRMC,155458.9,A,3314.367756,N,11708.991780,W,54.2,339.7,041010,,,A*46
$GPRMC,155501.9,A,3314.411751,N,11709.008307,W,54.4,341.4,041010,,,A*43
$GPRMC,155504.9,A,3314.451464,N,11709.028135,W,51.8,339.6,041010,,,A*42
$GPRMC,155507.9,A,3314.491891,N,11709.044056,W,51.9,340.9,041010,,,A*45
$GPRMC,155510.9,A,3314.535227,N,11709.063375,W,55.3,340.9,041010,,,A*42
$GPRMC,155513.9,A,3314.579813,N,11709.082610,W,55.9,340.3,041010,,,A*4D
$GPRMC,155516.9,A,3314.622862,N,11709.100838,W,56.2,339.8,041010,,,A*41
$GPRMC,155519.9,A,3314.664605,N,11709.121891,W,55.6,338.7,041010,,,A*4A
$GPRMC,155522.9,A,3314.710692,N,11709.138769,W,56.0,341.3,041010,,,A*41
$GPRMC,155525.9,A,3314.753682,N,11709.154289,W,53.9,341.3,041010,,,A*4D
$GPRMC,155528.9,A,3314.795218,N,11709.171728,W,52.5,342.0,041010,,,A*49
$GPRMC,155531.9,A,3314.838692,N,11709.189790,W,53.6,340.6,041010,,,A*4D
$GPRMC,155534.9,A,3314.878438,N,11709.210175,W,52.5,338.6,041010,,,A*4D
$GPRMC,155537.9,A,3314.919115,N,11709.229077,W,52.5,338.8,041010,,,A*45
$GPRMC,155540.9,A,3314.958156,N,11709.243649,W,50.4,341.5,041010,,,A*40
$GPRMC,155543.9,A,3314.996572,N,11709.260771,W,49.7,339.8,041010,,,A*41
$GPRMC,155546.9,A,3315.036279,N,11709.275900,W,49.3,341.0,041010,,,A*45
$GPRMC,155549.9,A,3315.073646,N,11709.294688,W,48.0,340.0,041010,,,A*40
$GPRMC,155552.9,A,3315.114462,N,11709.313407,W,48.6,339.3,041010,,,A*4E
$GPRMC,155555.9,A,3315.152026,N,11709.330738,W,48.0,340.4,041010,,,A*4E
$GPRMC,155558.9,A,3315.192138,N,11709.347685,W,51.1,339.3,041010,,,A*46
$GPRMC,155601.9,A,3315.233799,N,11709.363377,W,52.7,340.5,041010,,,A*4F
$GPRMC,155604.2,A,3315.266860,N,11709.377594,W,53.9,340.2,041010,,,A*4E
$GPRMC,155607.2,A,3315.307746,N,11709.396438,W,52.6,340.1,041010,,,A*45
$GPRMC,155610.0,A,3315.345931,N,11709.412339,W,51.6,340.1,041010,,,A*47
$GPRMC,155613.9,A,3315.398157,N,11709.432885,W,51.1,342.4,041010,,,A*4B
$GPRMC,155616.9,A,3315.439961,N,11709.445249,W,52.3,344.6,041010,,,A*40
$GPRMC,155619.9,A,3315.480631,N,11709.460936,W,52.6,345.3,041010,,,A*42
$GPRMC,155622.9,A,3315.526648,N,11709.473947,W,54.0,347.0,041010,,,A*4C
$GPRMC,155625.9,A,3315.571889,N,11709.485107,W,55.9,348.7,041010,,,A*4F
$GPRMC,155628.9,A,3315.618626,N,11709.493045,W,55.8,351.3,041010,,,A*48
$GPRMC,155631.9,A,3315.664835,N,11709.500148,W,54.1,353.5,041010,,,A*4C
$GPRMC,155634.9,A,3315.708295,N,11709.502734,W,52.6,356.0,041010,,,A*4C
$GPRMC,155637.9,A,3315.752441,N,11709.505241,W,52.6,357.8,041010,,,A*46
$GPRMC,155640.9,A,3315.796179,N,11709.507988,W,52.2,358.8,041010,,,A*47
$GPRMC,155643.9,A,3315.838639,N,11709.506669,W,52.7,1.8,041010,,,A*47
$GPRMC,155646.9,A,3315.884645,N,11709.504416,W,54.4,3.4,041010,,,A*4D
$GPRMC,155649.9,A,3315.931082,N,11709.496960,W,54.7,6.5,041010,,,A*41
$GPRMC,155652.9,A,3315.974332,N,11709.488550,W,53.7,8.4,041010,,,A*4A
$GPRMC,155655.9,A,3316.019600,N,11709.480452,W,51.9,8.9,041010,,,A*42
$GPRMC,155658.9,A,3316.061677,N,11709.470448,W,50.1,12.0,041010,,,A*7F
$GPRMC,155701.9,A,3316.101202,N,11709.460719,W,49.1,13.3,041010,,,A*7F
$GPRMC,155704.9,A,3316.140232,N,11709.447584,W,47.6,14.6,041010,,,A*74
$GPRMC,155707.9,A,3316.179037,N,11709.435852,W,47.9,15.7,041010,,,A*76
$GPRMC,155710.9,A,3316.214988,N,11709.424838,W,46.1,14.0,041010,,,A*76
$GPRMC,155713.9,A,3316.251153,N,11709.410629,W,46.7,18.3,041010,,,A*7A
$GPRMC,155716.9,A,3316.288964,N,11709.392090,W,47.7,21.4,041010,,,A*72
$GPRMC,155719.9,A,3316.323607,N,11709.372368,W,47.0,22.9,041010,,,A*74
$GPRMC,155722.9,A,3316.361586,N,11709.354538,W,48.4,23.3,041010,,,A*77
$GPRMC,155725.9,A,3316.392746,N,11709.331777,W,45.4,27.8,041010,,,A*7A
$GPRMC,155728.9,A,3316.429695,N,11709.312977,W,48.4,24.3,041010,,,A*75
$GPRMC,155731.9,A,3316.467624,N,11709.291872,W,49.3,24.7,041010,,,A*71
$GPRMC,155734.9,A,3316.499424,N,11709.270871,W,44.5,27.0,041010,,,A*74
$GPRMC,155737.9,A,3316.537165,N,11709.249634,W,47.5,25.8,041010,,,A*7E
$GPRMC,155740.9,A,3316.576643,N,11709.230314,W,49.2,23.6,041010,,,A*70
$GPRMC,155743.9,A,3316.614173,N,11709.210012,W,50.3,24.9,041010,,,A*76
$GPRMC,155746.9,A,3316.653077,N,11709.188564,W,50.5,24.7,041010,,,A*7B
$GPRMC,155749.9,A,3316.689732,N,11709.166206,W,50.0,25.2,041010,,,A*77
$GPRMC,155752.9,A,3316.729351,N,11709.143840,W,51.5,25.3,041010,,,A*7D
$GPRMC,155755.9,A,3316.768582,N,11709.122471,W,52.7,25.4,041010,,,A*78
$GPRMC,155758.9,A,3316.807846,N,11709.100420,W,52.5,25.0,041010,,,A*74
$GPRMC,155801.9,A,3316.847483,N,11709.076323,W,52.8,26.3,041010,,,A*7F
$GPRMC,155804.9,A,3316.887344,N,11709.054649,W,52.8,23.7,041010,,,A*72
$GPRMC,155807.9,A,3316.927995,N,11709.035499,W,53.6,21.5,041010,,,A*7B
$GPRMC,155810.9,A,3316.972469,N,11709.014069,W,56.6,20.0,041010,,,A*7A
$GPRMC,155813.9,A,3317.016201,N,11708.997012,W,56.4,17.5,041010,,,A*77
$GPRMC,155816.9,A,3317.060439,N,11708.987140,W,54.8,13.4,041010,,,A*72
$GPRMC,155819.9,A,3317.106647,N,11708.975161,W,56.7,11.5,041010,,,A*77
$GPRMC,155822.9,A,3317.151385,N,11708.963365,W,53.8,11.0,041010,,,A*78
$GPRMC,155825.2,A,3317.184803,N,11708.959341,W,52.7,6.9,041010,,,A*47
$GPRMC,155828.9,A,3317.237291,N,11708.955728,W,51.9,3.6,041010,,,A*4B
$GPRMC,155831.9,A,3317.284433,N,11708.952561,W,55.2,2.9,041010,,,A*4C
$GPRMC,155834.9,A,3317.328765,N,11708.951303,W,54.0,0.9,041010,,,A*4E
$GPRMC,155837.9,A,3317.371635,N,11708.950900,W,53.1,358.7,041010,,,A*4B
$GPRMC,155840.9,A,3317.411816,N,11708.953826,W,50.8,357.6,041010,,,A*47
$GPRMC,155843.9,A,3317.459697,N,11708.954066,W,52.6,357.8,041010,,,A*46
$GPRMC,155846.9,A,3317.503309,N,11708.955177,W,51.8,358.3,041010,,,A*46
$GPRMC,155849.9,A,3317.545048,N,11708.957657,W,51.7,357.4,041010,,,A*4D
$GPRMC,155852.9,A,3317.589278,N,11708.961926,W,52.3,356.9,041010,,,A*41
$GPRMC,155855.9,A,3317.634484,N,11708.966618,W,55.6,355.2,041010,,,A*49
$GPRMC,155858.9,A,3317.683213,N,11708.970014,W,58.9,357.1,041010,,,A*4E
$GPRMC,155901.9,A,3317.735094,N,11708.975918,W,63.0,356.0,041010,,,A*43
$GPRMC,155904.9,A,3317.787986,N,11708.977910,W,65.3,357.2,041010,,,A*49
$GPRMC,155907.9,A,3317.844573,N,11708.978915,W,67.8,358.1,041010,,,A*43
$GPRMC,155910.9,A,3317.903102,N,11708.981762,W,69.2,358.2,041010,,,A*4A
$GPRMC,155913.9,A,3317.959961,N,11708.984591,W,67.1,357.8,041010,,,A*48
$GPRMC,155916.9,A,3318.018697,N,11708.989056,W,68.7,356.7,041010,,,A*4C
$GPRMC,155919.9,A,3318.075376,N,11708.993452,W,68.5,357.0,041010,,,A*4D
$GPRMC,155922.9,A,3318.129220,N,11708.996581,W,65.9,357.7,041010,,,A*43
$GPRMC,155925.9,A,3318.183640,N,11708.999444,W,67.0,357.6,041010,,,A*4B
$GPRMC,155928.9,A,3318.240339,N,11709.003129,W,66.8,357.2,041010,,,A*49
$GPRMC,155931.9,A,3318.297358,N,11709.004889,W,67.3,357.6,041010,,,A*46
$GPRMC,155934.2,A,3318.343211,N,11709.007134,W,70.6,357.4,041010,,,A*41
$GPRMC,155937.2,A,3318.398424,N,11709.011062,W,65.9,356.4,041010,,,A*4B
$GPRMC,155940.2,A,3318.453561,N,11709.016640,W,66.0,354.0,041010,,,A*46
$GPRMC,155943.2,A,3318.505924,N,11709.024770,W,66.1,351.8,041010,,,A*45
$GPRMC,155946.2,A,3318.560229,N,11709.035663,W,67.2,349.1,041010,,,A*44
$GPRMC,155949.9,A,3318.625596,N,11709.052136,W,65.2,346.8,041010,,,A*43
$GPRMC,155952.9,A,3318.677139,N,11709.071591,W,65.3,343.6,041010,,,A*4D
$GPRMC,155955.9,A,3318.732669,N,11709.089297,W,67.4,343.3,041010,,,A*4E
$GPRMC,155958.9,A,3318.783716,N,11709.113663,W,66.6,339.2,041010,,,A*42
$GPRMC,160001.9,A,3318.835820,N,11709.135051,W,66.4,339.2,041010,,,A*48
$GPRMC,160004.9,A,3318.887232,N,11709.166038,W,67.1,334.4,041010,,,A*4B
$GPRMC,160007.9,A,3318.936800,N,11709.197900,W,65.7,331.6,041010,,,A*47
$GPRMC,160010.9,A,3318.983228,N,11709.228968,W,64.2,331.0,041010,,,A*44
$GPRMC,160013.9,A,3319.031591,N,11709.261903,W,65.1,330.7,041010,,,A*47
$GPRMC,160016.9,A,3319.078182,N,11709.289051,W,63.0,332.1,041010,,,A*42
$GPRMC,160019.9,A,3319.124754,N,11709.318495,W,63.4,331.1,041010,,,A*4A
$GPRMC,160022.9,A,3319.172554,N,11709.349373,W,63.9,330.7,041010,,,A*42
$GPRMC,160025.9,A,3319.217185,N,11709.379020,W,61.1,331.6,041010,,,A*41
$GPRMC,160028.9,A,3319.260527,N,11709.404953,W,60.1,332.4,041010,,,A*40
$GPRMC,160031.9,A,3319.308761,N,11709.430547,W,61.1,335.3,041010,,,A*48
$GPRMC,160034.9,A,3319.354435,N,11709.452941,W,61.6,337.1,041010,,,A*4F
$GPRMC,160037.9,A,3319.404402,N,11709.471577,W,62.4,341.5,041010,,,A*46
$GPRMC,160040.9,A,3319.457340,N,11709.487804,W,63.5,344.1,041010,,,A*40
$GPRMC,160043.9,A,3319.509628,N,11709.502615,W,63.2,346.7,041010,,,A*43
$GPRMC,160046.9,A,3319.562433,N,11709.520349,W,63.9,345.8,041010,,,A*48
$GPRMC,160049.9,A,3319.614328,N,11709.533249,W,63.2,349.4,041010,,,A*40
$GPRMC,160052.9,A,3319.669003,N,11709.540355,W,64.3,353.4,041010,,,A*4F
$GPRMC,160055.9,A,3319.724945,N,11709.546147,W,66.0,355.5,041010,,,A*4A
$GPRMC,160058.9,A,3319.776881,N,11709.547540,W,64.2,358.7,041010,,,A*44
$GPRMC,160101.9,A,3319.829402,N,11709.548019,W,64.2,359.8,041010,,,A*43
$GPRMC,160104.9,A,3319.881780,N,11709.545596,W,63.7,0.5,041010,,,A*42
$GPRMC,160107.9,A,3319.936538,N,11709.545862,W,65.4,0.3,041010,,,A*48
$GPRMC,160110.9,A,3319.990579,N,11709.543199,W,64.6,1.5,041010,,,A*48
$GPRMC,160113.9,A,3320.045851,N,11709.544408,W,66.1,359.4,041010,,,A*47
$GPRMC,160116.9,A,3320.101541,N,11709.541570,W,66.1,0.7,041010,,,A*48
$GPRMC,160119.9,A,3320.157173,N,11709.539341,W,65.9,0.8,041010,,,A*4E
$GPRMC,160122.9,A,3320.213001,N,11709.538558,W,67.2,0.9,041010,,,A*46
$GPRMC,160125.9,A,3320.269390,N,11709.538390,W,68.3,0.7,041010,,,A*45
$GPRMC,160128.9,A,3320.327499,N,11709.537132,W,68.9,1.1,041010,,,A*45
$GPRMC,160131.9,A,3320.382441,N,11709.536506,W,67.7,1.0,041010,,,A*45
$GPRMC,160134.9,A,3320.441946,N,11709.533815,W,71.6,2.4,041010,,,A*49
$GPRMC,160137.9,A,3320.500691,N,11709.533855,W,69.8,0.6,041010,,,A*48
$GPRMC,160140.9,A,3320.560091,N,11709.532169,W,70.6,1.0,041010,,,A*4E
$GPRMC,160143.9,A,3320.616621,N,11709.531206,W,68.6,0.8,041010,,,A*4B
$GPRMC,160146.9,A,3320.675902,N,11709.529961,W,70.3,1.6,041010,,,A*45
$GPRMC,160149.9,A,3320.729509,N,11709.529888,W,67.0,1.2,041010,,,A*42
$GPRMC,160152.9,A,3320.783769,N,11709.528578,W,66.7,1.0,041010,,,A*4B
$GPRMC,160155.9,A,3320.842416,N,11709.527106,W,67.3,1.5,041010,,,A*47
$GPRMC,160158.9,A,3320.898955,N,11709.523453,W,67.3,2.0,041010,,,A*40
$GPRMC,160201.9,A,3320.954797,N,11709.525371,W,66.4,0.8,041010,,,A*43
$GPRMC,160204.9,A,3321.010295,N,11709.522766,W,69.0,2.6,041010,,,A*4B
$GPRMC,160207.9,A,3321.063678,N,11709.524828,W,65.9,0.2,041010,,,A*4B
$GPRMC,160210.9,A,3321.117743,N,11709.523018,W,66.1,0.9,041010,,,A*4A
$GPRMC,160213.9,A,3321.175463,N,11709.523454,W,68.1,0.6,041010,,,A*41
$GPRMC,160216.9,A,3321.231391,N,11709.520633,W,67.5,1.7,041010,,,A*46
$GPRMC,160219.9,A,3321.284823,N,11709.519518,W,65.2,0.9,041010,,,A*4F
$GPRMC,160222.9,A,3321.343201,N,11709.518244,W,67.5,0.7,041010,,,A*43
$GPRMC,160225.9,A,3321.395131,N,11709.521653,W,65.2,358.2,041010,,,A*49
$GPRMC,160228.9,A,3321.451209,N,11709.525790,W,66.4,356.0,041010,,,A*40
$GPRMC,160231.9,A,3321.506725,N,11709.531776,W,66.7,354.0,041010,,,A*4C
$GPRMC,160234.9,A,3321.561202,N,11709.537219,W,65.0,353.1,041010,,,A*40
$GPRMC,160237.9,A,3321.612515,N,11709.549272,W,64.6,349.2,041010,,,A*4E
$GPRMC,160240.9,A,3321.665568,N,11709.566396,W,65.6,346.4,041010,,,A*4A
$GPRMC,160243.9,A,3321.715627,N,11709.583904,W,64.2,344.2,041010,,,A*4C
$GPRMC,160246.9,A,3321.768198,N,11709.603219,W,66.5,342.6,041010,,,A*4B
$GPRMC,160249.9,A,3321.821537,N,11709.624778,W,67.5,340.1,041010,,,A*44
$GPRMC,160252.9,A,3321.875028,N,11709.649687,W,68.5,337.4,041010,,,A*44
$GPRMC,160255.9,A,3321.928450,N,11709.679858,W,69.5,334.9,041010,,,A*41
$GPRMC,160258.9,A,3321.981451,N,11709.710076,W,68.9,332.8,041010,,,A*4E
$GPRMC,160301.9,A,3322.028999,N,11709.742962,W,67.8,330.2,041010,,,A*4E
$GPRMC,160304.9,A,3322.074250,N,11709.779510,W,67.5,327.6,041010,,,A*42
$GPRMC,160307.9,A,3322.120356,N,11709.814755,W,66.4,326.9,041010,,,A*4F
$GPRMC,160310.9,A,3322.161704,N,11709.850717,W,64.5,324.3,041010,,,A*42
$GPRMC,160313.9,A,3322.205348,N,11709.893242,W,65.7,321.3,041010,,,A*40
$GPRMC,160316.9,A,3322.244679,N,11709.937052,W,65.7,318.8,041010,,,A*4A
$GPRMC,160319.9,A,3322.284461,N,11709.980450,W,64.9,318.6,041010,,,A*49
$GPRMC,160322.9,A,3322.325993,N,11710.025899,W,66.4,319.1,041010,,,A*45
$GPRMC,160325.9,A,3322.363052,N,11710.067185,W,63.7,319.1,041010,,,A*40
$GPRMC,160328.9,A,3322.408275,N,11710.114189,W,67.4,321.1,041010,,,A*45
$GPRMC,160331.9,A,3322.453000,N,11710.154726,W,66.1,323.2,041010,,,A*41
$GPRMC,160334.9,A,3322.498277,N,11710.192299,W,63.4,326.4,041010,,,A*49
$GPRMC,160337.9,A,3322.541484,N,11710.227969,W,62.9,327.7,041010,,,A*42
$GPRMC,160340.9,A,3322.585096,N,11710.259696,W,62.6,329.8,041010,,,A*45
$GPRMC,160343.9,A,3322.634687,N,11710.289334,W,65.7,332.8,041010,,,A*45
$GPRMC,160346.9,A,3322.683038,N,11710.317456,W,65.0,334.2,041010,,,A*40
$GPRMC,160349.9,A,3322.730283,N,11710.343072,W,64.1,337.0,041010,,,A*46
$GPRMC,160352.9,A,3322.779094,N,11710.369040,W,64.7,338.3,041010,,,A*46
$GPRMC,160355.9,A,3322.828720,N,11710.391497,W,64.4,340.3,041010,,,A*47
$GPRMC,160358.9,A,3322.880882,N,11710.410564,W,65.2,343.8,041010,,,A*43
$GPRMC,160401.9,A,3322.933236,N,11710.426744,W,64.1,346.2,041010,,,A*4C
$GPRMC,160404.9,A,3322.984289,N,11710.439686,W,63.2,348.3,041010,,,A*4B
$GPRMC,160407.9,A,3323.035193,N,11710.449104,W,62.1,351.1,041010,,,A*40
$GPRMC,160410.9,A,3323.085143,N,11710.454589,W,60.3,354.3,041010,,,A*4A
$GPRMC,160413.9,A,3323.133757,N,11710.460927,W,60.4,355.3,041010,,,A*4F
$GPRMC,160416.9,A,3323.189829,N,11710.465340,W,63.4,357.2,041010,,,A*43
$GPRMC,160419.9,A,3323.242617,N,11710.467540,W,63.1,359.3,041010,,,A*45
$GPRMC,160422.9,A,3323.294008,N,11710.466265,W,61.8,1.9,041010,,,A*40
$GPRMC,160425.9,A,3323.342509,N,11710.463135,W,59.9,4.2,041010,,,A*4E
$GPRMC,160428.9,A,3323.393246,N,11710.456401,W,59.9,5.5,041010,,,A*41
$GPRMC,160431.9,A,3323.440699,N,11710.450149,W,58.6,7.3,041010,,,A*43
$GPRMC,160434.9,A,3323.489977,N,11710.444686,W,59.4,8.3,041010,,,A*41
$GPRMC,160437.9,A,3323.536497,N,11710.426949,W,59.5,13.1,041010,,,A*75
$GPRMC,160440.9,A,3323.586110,N,11710.412496,W,60.8,14.7,041010,,,A*7A
$GPRMC,160443.9,A,3323.634602,N,11710.395444,W,60.9,16.8,041010,,,A*7C
$GPRMC,160446.9,A,3323.683443,N,11710.374936,W,61.9,19.6,041010,,,A*75
$GPRMC,160449.9,A,3323.731332,N,11710.353576,W,62.0,21.4,041010,,,A*7D
$GPRMC,160452.9,A,3323.779311,N,11710.329256,W,61.2,23.1,041010,,,A*74
$GPRMC,160455.9,A,3323.825752,N,11710.305407,W,61.1,24.7,041010,,,A*78
$GPRMC,160458.9,A,3323.869539,N,11710.279453,W,58.6,25.6,041010,,,A*74
$GPRMC,160501.9,A,3323.908782,N,11710.251986,W,56.0,28.2,041010,,,A*73
$GPRMC,160504.9,A,3323.951922,N,11710.226003,W,57.4,28.0,041010,,,A*7D
$GPRMC,160507.9,A,3323.993393,N,11710.197745,W,58.1,29.0,041010,,,A*77
$GPRMC,160510.9,A,3324.039928,N,11710.167744,W,59.9,29.4,041010,,,A*76
$GPRMC,160513.9,A,3324.082805,N,11710.136517,W,59.9,31.5,041010,,,A*73
$GPRMC,160516.9,A,3324.127969,N,11710.101436,W,64.3,32.0,041010,,,A*77
$GPRMC,160519.9,A,3324.173021,N,11710.067047,W,65.0,32.7,041010,,,A*7A
$GPRMC,160522.9,A,3324.215684,N,11710.030470,W,63.0,34.8,041010,,,A*75
$GPRMC,160525.9,A,3324.259630,N,11709.993484,W,62.9,35.1,041010,,,A*76
$GPRMC,160528.9,A,3324.302553,N,11709.958960,W,63.0,35.0,041010,,,A*7B
$GPRMC,160531.9,A,3324.343590,N,11709.922172,W,63.2,36.0,041010,,,A*7E
$GPRMC,160534.9,A,3324.385817,N,11709.882989,W,63.2,36.1,041010,,,A*75
$GPRMC,160537.9,A,3324.427373,N,11709.848455,W,61.7,34.7,041010,,,A*79
$GPRMC,160540.9,A,3324.467291,N,11709.815036,W,59.4,36.5,041010,,,A*71
$GPRMC,160543.9,A,3324.516580,N,11709.783259,W,62.1,31.6,041010,,,A*70
$GPRMC,160546.9,A,3324.564608,N,11709.747271,W,64.7,32.3,041010,,,A*77
$GPRMC,160549.9,A,3324.608891,N,11709.715382,W,63.3,32.4,041010,,,A*71
$GPRMC,160552.9,A,3324.653832,N,11709.681324,W,63.9,32.3,041010,,,A*71
$GPRMC,160555.9,A,3324.695547,N,11709.650419,W,62.3,32.0,041010,,,A*7E
$GPRMC,160558.9,A,3324.744231,N,11709.614979,W,64.3,31.1,041010,,,A*77
$GPRMC,160601.9,A,3324.791486,N,11709.580473,W,65.2,31.5,041010,,,A*77
$GPRMC,160604.9,A,3324.839177,N,11709.547100,W,65.2,31.6,041010,,,A*7D
$GPRMC,160607.9,A,3324.886798,N,11709.510041,W,66.9,32.0,041010,,,A*76
$GPRMC,160610.9,A,3324.933955,N,11709.476030,W,65.6,31.7,041010,,,A*7F
$GPRMC,160613.9,A,3324.977700,N,11709.444404,W,62.5,31.8,041010,,,A*7B
$GPRMC,160616.9,A,3325.020675,N,11709.414720,W,61.4,31.3,041010,,,A*7E
$GPRMC,160619.9,A,3325.062407,N,11709.381150,W,61.5,32.4,041010,,,A*7F
$GPRMC,160622.9,A,3325.107434,N,11709.348171,W,62.8,31.9,041010,,,A*73
$GPRMC,160625.9,A,3325.150152,N,11709.318204,W,63.5,31.4,041010,,,A*76
$GPRMC,160628.9,A,3325.195774,N,11709.285142,W,63.6,31.3,041010,,,A*70
$GPRMC,160631.9,A,3325.240823,N,11709.255185,W,62.0,30.9,041010,,,A*74
$GPRMC,160634.9,A,3325.286962,N,11709.225566,W,62.0,29.7,041010,,,A*77
$GPRMC,160637.9,A,3325.332438,N,11709.192795,W,62.3,31.4,041010,,,A*70
$GPRMC,160640.9,A,3325.374803,N,11709.161424,W,60.9,31.1,041010,,,A*7E
$GPRMC,160643.9,A,3325.419081,N,11709.130059,W,61.5,30.7,041010,,,A*73
$GPRMC,160646.9,A,3325.463201,N,11709.100805,W,61.6,30.1,041010,,,A*76
$GPRMC,160649.9,A,3325.509409,N,11709.068447,W,64.3,31.4,041010,,,A*7B
