NMEA Sentence Code,UTC Time,Status,Latitude,Latitude Direction,Longitude,Longitude Direction,Speed (knots),Track Angle (degrees true),Date,MagneticVariation,Magnetic Variation Direction,[FAA Mode]-Optional,Checksum
$GPRMC,165255.53,A,3329.3103,N,11708.7092,W,30.627,343.941,160910,0,W,A*13
$GPRMC,165258.53,A,3329.3350,N,11708.7175,W,30.613,343.007,160910,0,W,A*1E
$GPRMC,165301.53,A,3329.3599,N,11708.7262,W,30.513,344.906,160910,0,W,A*19
$GPRMC,165304.53,A,3329.3840,N,11708.7346,W,29.463,341.533,160910,0,W,A*13
$GPRMC,165307.53,A,3329.4068,N,11708.7424,W,26.588,344.853,160910,0,W,A*13
$GPRMC,165310.53,A,3329.4265,N,11708.7490,W,23.122,344.095,160910,0,W,A*16
$GPRMC,165313.53,A,3329.4453,N,11708.7553,W,23.532,344.158,160910,0,W,A*1D
$GPRMC,165316.53,A,3329.4633,N,11708.7613,W,21.577,344.801,160910,0,W,A*1D
$GPRMC,165319.53,A,3329.4791,N,11708.7685,W,19.188,327.750,160910,0,W,A*15
$GPRMC,165322.53,A,3329.4897,N,11708.7809,W,17.254,310.725,160910,0,W,A*14
$GPRMC,165325.53,A,3329.4984,N,11708.7938,W,16.444,310.840,160910,0,W,A*19
$GPRMC,165328.53,A,3329.5059,N,11708.8035,W,8.962,314.158,160910,0,W,A*25
$GPRMC,165331.53,A,3329.5113,N,11708.8100,W,11.735,313.073,160910,0,W,A*1E
$GPRMC,165334.53,A,3329.5200,N,11708.8209,W,16.794,313.461,160910,0,W,A*1B
$GPRMC,165337.53,A,3329.5298,N,11708.8328,W,16.648,313.541,160910,0,W,A*18
$GPRMC,165340.53,A,3329.5390,N,11708.8446,W,16.031,313.492,160910,0,W,A*19
$GPRMC,165343.53,A,3329.5479,N,11708.8556,W,13.850,313.709,160910,0,W,A*11
$GPRMC,165346.53,A,3329.5558,N,11708.8656,W,14.858,314.743,160910,0,W,A*13
$GPRMC,165349.53,A,3329.5648,N,11708.8769,W,15.635,312.935,160910,0,W,A*1E
$GPRMC,165352.53,A,3329.5735,N,11708.8881,W,14.962,313.504,160910,0,W,A*15
$GPRMC,165355.53,A,3329.5821,N,11708.8983,W,13.910,315.433,160910,0,W,A*1A
$GPRMC,165358.53,A,3329.5895,N,11708.9073,W,11.108,314.704,160910,0,W,A*1A
$GPRMC,165407.53,A,3329.5968,N,11708.9160,W,5.171,311.028,160910,0,W,A*20
$GPRMC,165410.53,A,3329.5996,N,11708.9198,W,4.771,315.471,160910,0,W,A*2B
$GPRMC,165416.53,A,3329.6027,N,11708.9240,W,6.920,315.117,160910,0,W,A*26
$GPRMC,165419.53,A,3329.6095,N,11708.9321,W,12.903,313.217,160910,0,W,A*17
$GPRMC,165422.53,A,3329.6193,N,11708.9443,W,18.948,314.177,160910,0,W,A*1C
$GPRMC,165425.53,A,3329.6302,N,11708.9575,W,17.377,314.480,160910,0,W,A*11
$GPRMC,165428.53,A,3329.6394,N,11708.9695,W,15.893,313.829,160910,0,W,A*15
$GPRMC,165431.53,A,3329.6486,N,11708.9810,W,15.838,313.953,160910,0,W,A*17
$GPRMC,165434.53,A,3329.6580,N,11708.9925,W,17.297,315.117,160910,0,W,A*11
$GPRMC,165437.53,A,3329.6686,N,11709.0054,W,17.798,313.549,160910,0,W,A*13
$GPRMC,165440.53,A,3329.6787,N,11709.0175,W,16.411,314.076,160910,0,W,A*1C
$GPRMC,165443.53,A,3329.6881,N,11709.0294,W,15.885,313.475,160910,0,W,A*18
$GPRMC,165446.53,A,3329.6967,N,11709.0398,W,13.999,313.729,160910,0,W,A*19
$GPRMC,165449.53,A,3329.7041,N,11709.0497,W,12.124,313.114,160910,0,W,A*15
$GPRMC,165452.53,A,3329.7093,N,11709.0566,W,7.845,314.232,160910,0,W,A*25
$GPRMC,165455.53,A,3329.7133,N,11709.0618,W,6.890,315.547,160910,0,W,A*2E
$GPRMC,165504.53,A,3329.7183,N,11709.0691,W,6.120,311.961,160910,0,W,A*2F
$GPRMC,165507.53,A,3329.7223,N,11709.0741,W,6.959,312.867,160910,0,W,A*2B
$GPRMC,165519.53,A,3329.7275,N,11709.0797,W,8.942,315.083,160910,0,W,A*2D
$GPRMC,165522.53,A,3329.7351,N,11709.0885,W,14.414,311.854,160910,0,W,A*1B
$GPRMC,165525.53,A,3329.7444,N,11709.1007,W,17.009,313.977,160910,0,W,A*15
$GPRMC,165528.53,A,3329.7542,N,11709.1125,W,16.178,313.975,160910,0,W,A*1A
$GPRMC,165531.53,A,3329.7635,N,11709.1239,W,15.808,316.265,160910,0,W,A*1D
$GPRMC,165534.53,A,3329.7742,N,11709.1351,W,17.952,322.271,160910,0,W,A*18
$GPRMC,165537.53,A,3329.7880,N,11709.1464,W,22.076,327.704,160910,0,W,A*10
$GPRMC,165540.53,A,3329.8044,N,11709.1589,W,22.838,326.965,160910,0,W,A*17
$GPRMC,165543.53,A,3329.8212,N,11709.1710,W,23.748,330.314,160910,0,W,A*15
$GPRMC,165546.53,A,3329.8393,N,11709.1816,W,25.020,335.651,160910,0,W,A*1F
$GPRMC,165549.53,A,3329.8594,N,11709.1910,W,26.074,340.123,160910,0,W,A*14
$GPRMC,165552.53,A,3329.8805,N,11709.1993,W,25.782,340.834,160910,0,W,A*12
$GPRMC,165555.53,A,3329.9008,N,11709.2073,W,24.560,341.342,160910,0,W,A*11
$GPRMC,165558.53,A,3329.9199,N,11709.2148,W,22.728,342.743,160910,0,W,A*12
$GPRMC,165601.53,A,3329.9356,N,11709.2202,W,13.510,343.425,160910,0,W,A*18
$GPRMC,165604.53,A,3329.9424,N,11709.2226,W,6.186,341.217,160910,0,W,A*23
$GPRMC,165625.53,A,3329.9467,N,11709.2228,W,8.270,14.336,160910,0,W,A*1C
$GPRMC,165628.53,A,3329.9542,N,11709.2136,W,14.716,50.294,160910,0,W,A*2A
$GPRMC,165631.53,A,3329.9649,N,11709.1989,W,24.303,45.407,160910,0,W,A*2E
$GPRMC,165634.53,A,3329.9800,N,11709.1791,W,25.735,50.373,160910,0,W,A*2F
$GPRMC,165637.53,A,3329.9944,N,11709.1569,W,30.478,51.840,160910,0,W,A*2C
$GPRMC,165640.53,A,3330.0104,N,11709.1315,W,32.320,51.956,160910,0,W,A*22
$GPRMC,165643.53,A,3330.0268,N,11709.1059,W,30.157,53.356,160910,0,W,A*2B
$GPRMC,165646.53,A,3330.0422,N,11709.0816,W,30.115,50.690,160910,0,W,A*2E
$GPRMC,165649.53,A,3330.0593,N,11709.0578,W,29.632,46.414,160910,0,W,A*2C
$GPRMC,165652.53,A,3330.0764,N,11709.0363,W,29.458,47.919,160910,0,W,A*2F
$GPRMC,165655.53,A,3330.0933,N,11709.0136,W,30.573,47.060,160910,0,W,A*21
$GPRMC,165658.53,A,3330.1107,N,11708.9914,W,29.380,45.791,160910,0,W,A*2B
$GPRMC,165701.53,A,3330.1277,N,11708.9712,W,27.275,45.167,160910,0,W,A*20
$GPRMC,165704.53,A,3330.1428,N,11708.9509,W,27.129,47.616,160910,0,W,A*28
$GPRMC,165707.53,A,3330.1574,N,11708.9318,W,21.528,48.608,160910,0,W,A*26
$GPRMC,165710.53,A,3330.1650,N,11708.9208,W,6.206,48.018,160910,0,W,A*1C
$GPRMC,165813.53,A,3330.1673,N,11708.9183,W,8.687,40.226,160910,0,W,A*15
$GPRMC,165816.53,A,3330.1766,N,11708.9136,W,14.456,15.054,160910,0,W,A*2F
$GPRMC,165819.53,A,3330.1894,N,11708.9184,W,19.303,323.592,160910,0,W,A*18
$GPRMC,165822.53,A,3330.2038,N,11708.9316,W,22.615,325.585,160910,0,W,A*1E
$GPRMC,165825.53,A,3330.2191,N,11708.9458,W,21.567,322.709,160910,0,W,A*12
$GPRMC,165828.53,A,3330.2331,N,11708.9565,W,14.395,331.769,160910,0,W,A*11
$GPRMC,165934.53,A,3330.2392,N,11708.9614,W,6.728,336.256,160910,0,W,A*2E
$GPRMC,165937.53,A,3330.2470,N,11708.9659,W,12.223,334.220,160910,0,W,A*17
$GPRMC,165940.53,A,3330.2563,N,11708.9719,W,12.626,323.891,160910,0,W,A*16
$GPRMC,165943.53,A,3330.2600,N,11708.9831,W,12.542,266.186,160910,0,W,A*18
$GPRMC,165946.53,A,3330.2601,N,11708.9956,W,12.096,279.292,160910,0,W,A*18
$GPRMC,165949.53,A,3330.2616,N,11709.0042,W,6.780,286.919,160910,0,W,A*28
$GPRMC,165952.53,A,3330.2627,N,11709.0114,W,7.900,287.338,160910,0,W,A*2D
$GPRMC,170001.53,A,3330.2665,N,11709.0244,W,10.523,317.620,160910,0,W,A*19
$GPRMC,170004.53,A,3330.2750,N,11709.0291,W,10.981,340.960,160910,0,W,A*1E
$GPRMC,170007.53,A,3330.2838,N,11709.0328,W,11.634,337.768,160910,0,W,A*19
$GPRMC,170010.53,A,3330.2930,N,11709.0368,W,11.212,339.022,160910,0,W,A*15
$GPRMC,170013.53,A,3330.3015,N,11709.0406,W,10.977,338.610,160910,0,W,A*19
$GPRMC,170016.53,A,3330.3089,N,11709.0434,W,7.369,2.357,160910,0,W,A*27
$GPRMC,170019.53,A,3330.3128,N,11709.0380,W,6.769,69.450,160910,0,W,A*12
$GPRMC,170022.53,A,3330.3157,N,11709.0333,W,6.254,20.762,160910,0,W,A*1E
$GPRMC,170301.53,A,3330.3137,N,11709.0385,W,5.690,235.181,160910,0,W,A*25
$GPRMC,170304.53,A,3330.3120,N,11709.0438,W,6.324,283.265,160910,0,W,A*2A
$GPRMC,170307.53,A,3330.3163,N,11709.0486,W,8.338,334.770,160910,0,W,A*24
$GPRMC,170313.53,A,3330.3260,N,11709.0507,W,6.244,21.263,160910,0,W,A*1D
$GPRMC,170316.53,A,3330.3301,N,11709.0433,W,10.847,69.985,160910,0,W,A*29
$GPRMC,170319.53,A,3330.3328,N,11709.0308,W,13.194,77.326,160910,0,W,A*2A
$GPRMC,170322.53,A,3330.3344,N,11709.0181,W,10.500,80.632,160910,0,W,A*29
$GPRMC,170328.53,A,3330.3349,N,11709.0097,W,6.118,109.849,160910,0,W,A*20
$GPRMC,170331.53,A,3330.3270,N,11709.0040,W,13.788,169.613,160910,0,W,A*15
$GPRMC,170334.53,A,3330.3125,N,11708.9993,W,22.105,162.588,160910,0,W,A*17
$GPRMC,170337.53,A,3330.2926,N,11708.9924,W,25.097,163.180,160910,0,W,A*12
$GPRMC,170340.53,A,3330.2697,N,11708.9837,W,28.905,161.374,160910,0,W,A*10
$GPRMC,170343.53,A,3330.2473,N,11708.9733,W,27.007,157.396,160910,0,W,A*1D
$GPRMC,170346.53,A,3330.2257,N,11708.9624,W,28.368,157.085,160910,0,W,A*1B
$GPRMC,170349.53,A,3330.2043,N,11708.9514,W,26.874,153.225,160910,0,W,A*17
$GPRMC,170352.53,A,3330.1866,N,11708.9383,W,20.498,145.303,160910,0,W,A*13
$GPRMC,170355.53,A,3330.1767,N,11708.9300,W,9.224,145.791,160910,0,W,A*24
$GPRMC,170440.53,A,3330.1673,N,11708.9282,W,10.916,223.875,160910,0,W,A*1C
$GPRMC,170443.53,A,3330.1596,N,11708.9401,W,18.286,231.447,160910,0,W,A*1E
$GPRMC,170446.53,A,3330.1460,N,11708.9600,W,27.506,230.458,160910,0,W,A*1C
$GPRMC,170449.53,A,3330.1311,N,11708.9815,W,26.389,231.247,160910,0,W,A*11
$GPRMC,170452.53,A,3330.1173,N,11709.0016,W,24.786,230.745,160910,0,W,A*11
$GPRMC,170455.53,A,3330.1045,N,11709.0202,W,21.634,230.502,160910,0,W,A*19
$GPRMC,170458.53,A,3330.0957,N,11709.0356,W,15.404,249.881,160910,0,W,A*11
$GPRMC,170501.53,A,3330.1011,N,11709.0530,W,21.597,309.460,160910,0,W,A*1A
$GPRMC,170504.53,A,3330.1183,N,11709.0725,W,30.673,316.369,160910,0,W,A*1A
$GPRMC,170507.53,A,3330.1422,N,11709.0965,W,40.824,321.003,160910,0,W,A*1D
$GPRMC,170510.53,A,3330.1728,N,11709.1209,W,44.808,329.987,160910,0,W,A*15
$GPRMC,170513.53,A,3330.2088,N,11709.1414,W,46.673,336.035,160910,0,W,A*1C
$GPRMC,170516.53,A,3330.2470,N,11709.1596,W,46.673,338.484,160910,0,W,A*11
$GPRMC,170519.53,A,3330.2840,N,11709.1771,W,47.114,335.473,160910,0,W,A*18
$GPRMC,170522.53,A,3330.3221,N,11709.1957,W,48.810,338.286,160910,0,W,A*15
$GPRMC,170525.53,A,3330.3612,N,11709.2135,W,50.057,338.693,160910,0,W,A*1B
$GPRMC,170528.53,A,3330.4029,N,11709.2340,W,56.745,337.423,160910,0,W,A*1B
$GPRMC,170531.53,A,3330.4487,N,11709.2555,W,59.066,339.212,160910,0,W,A*12
$GPRMC,170534.53,A,3330.4962,N,11709.2771,W,60.570,338.792,160910,0,W,A*11
$GPRMC,170537.53,A,3330.5438,N,11709.2985,W,59.630,339.630,160910,0,W,A*11
$GPRMC,170540.53,A,3330.5903,N,11709.3188,W,58.791,339.338,160910,0,W,A*16
$GPRMC,170543.53,A,3330.6366,N,11709.3402,W,59.022,338.913,160910,0,W,A*14
$GPRMC,170546.53,A,3330.6827,N,11709.3614,W,59.378,338.992,160910,0,W,A*1F
$GPRMC,170549.53,A,3330.7288,N,11709.3826,W,58.127,339.195,160910,0,W,A*16
$GPRMC,170552.53,A,3330.7742,N,11709.4031,W,58.044,339.309,160910,0,W,A*15
$GPRMC,170555.53,A,3330.8201,N,11709.4237,W,58.916,338.475,160910,0,W,A*18
$GPRMC,170558.53,A,3330.8659,N,11709.4462,W,59.294,336.314,160910,0,W,A*14
$GPRMC,170601.53,A,3330.9115,N,11709.4719,W,60.888,332.549,160910,0,W,A*1D
$GPRMC,170604.53,A,3330.9564,N,11709.5016,W,61.585,330.867,160910,0,W,A*11
$GPRMC,170607.53,A,3331.0012,N,11709.5321,W,61.315,330.651,160910,0,W,A*1D
$GPRMC,170610.53,A,3331.0457,N,11709.5622,W,60.907,331.086,160910,0,W,A*1D
$GPRMC,170613.53,A,3331.0900,N,11709.5915,W,60.775,330.632,160910,0,W,A*19
$GPRMC,170616.53,A,3331.1338,N,11709.6207,W,59.059,330.595,160910,0,W,A*1A
$GPRMC,170619.53,A,3331.1769,N,11709.6489,W,58.834,330.839,160910,0,W,A*1C
$GPRMC,170622.53,A,3331.2200,N,11709.6774,W,59.622,330.676,160910,0,W,A*11
$GPRMC,170625.53,A,3331.2634,N,11709.7065,W,59.628,330.618,160910,0,W,A*11
$GPRMC,170628.53,A,3331.3064,N,11709.7359,W,59.436,329.119,160910,0,W,A*11
$GPRMC,170631.53,A,3331.3492,N,11709.7657,W,59.370,330.101,160910,0,W,A*1B
$GPRMC,170634.53,A,3331.3928,N,11709.7951,W,59.803,330.946,160910,0,W,A*1F
$GPRMC,170637.53,A,3331.4364,N,11709.8240,W,59.747,330.678,160910,0,W,A*10
$GPRMC,170640.53,A,3331.4803,N,11709.8533,W,60.446,330.587,160910,0,W,A*12
$GPRMC,170643.53,A,3331.5242,N,11709.8829,W,60.291,330.762,160910,0,W,A*1C
$GPRMC,170646.53,A,3331.5684,N,11709.9125,W,60.503,330.833,160910,0,W,A*14
$GPRMC,170649.53,A,3331.6124,N,11709.9423,W,60.188,330.548,160910,0,W,A*10
$GPRMC,170652.53,A,3331.6564,N,11709.9717,W,60.330,330.989,160910,0,W,A*1E
$GPRMC,170655.53,A,3331.7007,N,11710.0008,W,60.381,330.966,160910,0,W,A*1B
$GPRMC,170658.53,A,3331.7449,N,11710.0303,W,60.743,330.570,160910,0,W,A*11
$GPRMC,170701.53,A,3331.7891,N,11710.0598,W,61.031,330.872,160910,0,W,A*1D
$GPRMC,170704.53,A,3331.8335,N,11710.0894,W,61.077,330.660,160910,0,W,A*1C
$GPRMC,170707.53,A,3331.8781,N,11710.1190,W,60.893,330.706,160910,0,W,A*1A
$GPRMC,170710.53,A,3331.9222,N,11710.1485,W,60.397,330.879,160910,0,W,A*18
$GPRMC,170713.53,A,3331.9662,N,11710.1775,W,60.076,330.993,160910,0,W,A*1E
$GPRMC,170716.53,A,3332.0098,N,11710.2068,W,60.278,330.651,160910,0,W,A*17
$GPRMC,170719.53,A,3332.0535,N,11710.2359,W,59.968,330.788,160910,0,W,A*1E
$GPRMC,170722.53,A,3332.0974,N,11710.2653,W,60.386,330.994,160910,0,W,A*13
$GPRMC,170725.53,A,3332.1416,N,11710.2943,W,60.534,330.931,160910,0,W,A*12
$GPRMC,170728.53,A,3332.1855,N,11710.3239,W,60.130,330.522,160910,0,W,A*1D
$GPRMC,170731.53,A,3332.2293,N,11710.3533,W,60.279,330.896,160910,0,W,A*17
$GPRMC,170734.53,A,3332.2733,N,11710.3823,W,60.049,331.068,160910,0,W,A*18
$GPRMC,170737.53,A,3332.3173,N,11710.4112,W,59.964,331.182,160910,0,W,A*1D
$GPRMC,170740.53,A,3332.3610,N,11710.4403,W,60.435,330.616,160910,0,W,A*12
$GPRMC,170743.53,A,3332.4053,N,11710.4700,W,61.404,330.659,160910,0,W,A*1F
$GPRMC,170746.53,A,3332.4506,N,11710.4999,W,62.179,330.965,160910,0,W,A*1D
$GPRMC,170749.53,A,3332.4959,N,11710.5303,W,61.723,330.672,160910,0,W,A*1F
$GPRMC,170752.53,A,3332.5406,N,11710.5601,W,60.380,330.859,160910,0,W,A*1F
$GPRMC,170755.53,A,3332.5845,N,11710.5892,W,60.437,330.980,160910,0,W,A*19
$GPRMC,170758.53,A,3332.6290,N,11710.6189,W,61.515,330.718,160910,0,W,A*1A
$GPRMC,170801.53,A,3332.6737,N,11710.6486,W,61.156,330.665,160910,0,W,A*13
$GPRMC,170804.53,A,3332.7183,N,11710.6785,W,61.155,330.676,160910,0,W,A*1F
$GPRMC,170807.53,A,3332.7627,N,11710.7081,W,60.692,330.342,160910,0,W,A*18
$GPRMC,170810.53,A,3332.8054,N,11710.7397,W,59.889,326.478,160910,0,W,A*10
$GPRMC,170813.53,A,3332.8457,N,11710.7742,W,59.445,323.378,160910,0,W,A*16
$GPRMC,170816.53,A,3332.8848,N,11710.8106,W,59.500,320.984,160910,0,W,A*12
$GPRMC,170819.53,A,3332.9218,N,11710.8501,W,59.027,316.640,160910,0,W,A*12
$GPRMC,170822.53,A,3332.9566,N,11710.8917,W,58.833,313.412,160910,0,W,A*13
$GPRMC,170825.53,A,3332.9893,N,11710.9361,W,59.119,310.047,160910,0,W,A*1E
$GPRMC,170828.53,A,3333.0192,N,11710.9830,W,59.937,305.957,160910,0,W,A*14
$GPRMC,170831.53,A,3333.0475,N,11711.0330,W,60.221,302.836,160910,0,W,A*14
$GPRMC,170834.53,A,3333.0742,N,11711.0845,W,60.798,301.477,160910,0,W,A*12
$GPRMC,170837.53,A,3333.1004,N,11711.1363,W,60.855,301.256,160910,0,W,A*10
$GPRMC,170840.53,A,3333.1272,N,11711.1885,W,61.255,301.471,160910,0,W,A*18
$GPRMC,170843.53,A,3333.1537,N,11711.2410,W,61.737,301.685,160910,0,W,A*16
$GPRMC,170846.53,A,3333.1809,N,11711.2934,W,61.510,301.610,160910,0,W,A*13
$GPRMC,170849.53,A,3333.2077,N,11711.3460,W,61.659,301.414,160910,0,W,A*1B
$GPRMC,170852.53,A,3333.2342,N,11711.3987,W,61.389,301.388,160910,0,W,A*1A
$GPRMC,170855.53,A,3333.2610,N,11711.4509,W,61.348,301.794,160910,0,W,A*16
$GPRMC,170858.53,A,3333.2878,N,11711.5028,W,61.469,302.721,160910,0,W,A*15
$GPRMC,170901.53,A,3333.3164,N,11711.5535,W,61.363,304.190,160910,0,W,A*13
$GPRMC,170904.53,A,3333.3458,N,11711.6036,W,61.104,305.352,160910,0,W,A*17
$GPRMC,170907.53,A,3333.3755,N,11711.6528,W,60.525,306.576,160910,0,W,A*15
$GPRMC,170910.53,A,3333.4058,N,11711.7008,W,60.452,307.245,160910,0,W,A*1F
$GPRMC,170913.53,A,3333.4368,N,11711.7478,W,59.970,309.047,160910,0,W,A*16
$GPRMC,170916.53,A,3333.4688,N,11711.7935,W,60.504,310.069,160910,0,W,A*1D
$GPRMC,170919.53,A,3333.5016,N,11711.8387,W,60.181,311.434,160910,0,W,A*1A
$GPRMC,170922.53,A,3333.5351,N,11711.8832,W,59.935,312.005,160910,0,W,A*1F
$GPRMC,170925.53,A,3333.5688,N,11711.9270,W,60.093,312.498,160910,0,W,A*1B
$GPRMC,170928.53,A,3333.6028,N,11711.9712,W,60.408,312.280,160910,0,W,A*11
$GPRMC,170931.53,A,3333.6367,N,11712.0155,W,60.450,312.310,160910,0,W,A*1B
$GPRMC,170934.53,A,3333.6708,N,11712.0599,W,60.483,312.300,160910,0,W,A*18
$GPRMC,170937.53,A,3333.7043,N,11712.1037,W,59.458,312.488,160910,0,W,A*19
$GPRMC,170940.53,A,3333.7379,N,11712.1476,W,59.502,312.244,160910,0,W,A*1A
$GPRMC,170943.53,A,3333.7713,N,11712.1913,W,59.059,312.106,160910,0,W,A*11
$GPRMC,170946.53,A,3333.8044,N,11712.2347,W,58.683,312.346,160910,0,W,A*10
$GPRMC,170949.53,A,3333.8374,N,11712.2780,W,58.977,312.138,160910,0,W,A*1F
$GPRMC,170952.53,A,3333.8707,N,11712.3212,W,59.435,313.371,160910,0,W,A*1E
$GPRMC,170955.53,A,3333.9054,N,11712.3643,W,60.263,313.600,160910,0,W,A*15
$GPRMC,170958.53,A,3333.9398,N,11712.4080,W,60.156,312.382,160910,0,W,A*1E
$GPRMC,171001.53,A,3333.9733,N,11712.4521,W,59.245,312.168,160910,0,W,A*1C
$GPRMC,171004.53,A,3334.0063,N,11712.4958,W,59.845,311.954,160910,0,W,A*19
$GPRMC,171007.53,A,3334.0400,N,11712.5406,W,60.893,311.718,160910,0,W,A*1B
$GPRMC,171010.53,A,3334.0739,N,11712.5862,W,60.944,311.607,160910,0,W,A*1E
$GPRMC,171013.53,A,3334.1072,N,11712.6307,W,59.072,311.791,160910,0,W,A*17
$GPRMC,171016.53,A,3334.1400,N,11712.6743,W,58.936,311.568,160910,0,W,A*1B
$GPRMC,171019.53,A,3334.1726,N,11712.7183,W,59.251,312.076,160910,0,W,A*1A
$GPRMC,171022.53,A,3334.2058,N,11712.7621,W,59.531,311.934,160910,0,W,A*1D
$GPRMC,171025.53,A,3334.2393,N,11712.8062,W,59.698,312.395,160910,0,W,A*12
$GPRMC,171028.53,A,3334.2731,N,11712.8504,W,60.389,312.180,160910,0,W,A*1F
$GPRMC,171031.53,A,3334.3071,N,11712.8952,W,61.206,312.079,160910,0,W,A*1A
$GPRMC,171034.53,A,3334.3418,N,11712.9408,W,62.156,312.513,160910,0,W,A*1B
$GPRMC,171037.53,A,3334.3769,N,11712.9866,W,62.945,312.119,160910,0,W,A*1D
$GPRMC,171040.53,A,3334.4124,N,11713.0332,W,63.252,312.334,160910,0,W,A*16
$GPRMC,171043.53,A,3334.4479,N,11713.0794,W,61.303,312.399,160910,0,W,A*10
$GPRMC,171046.53,A,3334.4817,N,11713.1236,W,59.929,312.492,160910,0,W,A*18
$GPRMC,171049.53,A,3334.5154,N,11713.1673,W,59.807,312.365,160910,0,W,A*1F
$GPRMC,171052.53,A,3334.5488,N,11713.2111,W,59.759,312.088,160910,0,W,A*15
$GPRMC,171055.53,A,3334.5825,N,11713.2551,W,59.848,312.401,160910,0,W,A*13
$GPRMC,171058.53,A,3334.6160,N,11713.2990,W,59.722,312.157,160910,0,W,A*11
$GPRMC,171101.53,A,3334.6497,N,11713.3433,W,60.119,311.554,160910,0,W,A*14
$GPRMC,171104.52,A,3334.6828,N,11713.3888,W,60.949,311.063,160910,0,W,A*18
$GPRMC,171107.52,A,3334.7167,N,11713.4338,W,60.948,312.436,160910,0,W,A*19
$GPRMC,171110.52,A,3334.7510,N,11713.4789,W,61.703,312.289,160910,0,W,A*17
$GPRMC,171113.52,A,3334.7858,N,11713.5242,W,61.135,312.252,160910,0,W,A*13
$GPRMC,171116.52,A,3334.8202,N,11713.5691,W,61.213,312.139,160910,0,W,A*1F
$GPRMC,171119.52,A,3334.8544,N,11713.6140,W,60.877,312.240,160910,0,W,A*19
$GPRMC,171122.52,A,3334.8885,N,11713.6585,W,60.424,312.471,160910,0,W,A*12
$GPRMC,171125.52,A,3334.9227,N,11713.7030,W,60.775,312.431,160910,0,W,A*1F
$GPRMC,171128.52,A,3334.9569,N,11713.7479,W,61.124,312.185,160910,0,W,A*1F
$GPRMC,171131.52,A,3334.9912,N,11713.7931,W,61.523,312.271,160910,0,W,A*1D
$GPRMC,171134.52,A,3335.0256,N,11713.8385,W,61.700,312.401,160910,0,W,A*13
$GPRMC,171137.52,A,3335.0603,N,11713.8839,W,61.859,312.368,160910,0,W,A*13
$GPRMC,171140.52,A,3335.0951,N,11713.9297,W,62.135,312.065,160910,0,W,A*1A
$GPRMC,171143.52,A,3335.1299,N,11713.9762,W,62.730,312.241,160910,0,W,A*1F
$GPRMC,171146.52,A,3335.1653,N,11714.0225,W,62.862,312.570,160910,0,W,A*1D
$GPRMC,171149.52,A,3335.2008,N,11714.0690,W,62.807,312.323,160910,0,W,A*10
$GPRMC,171152.52,A,3335.2359,N,11714.1149,W,62.169,312.369,160910,0,W,A*10
$GPRMC,171155.52,A,3335.2709,N,11714.1605,W,61.523,312.453,160910,0,W,A*1E
$GPRMC,171158.52,A,3335.3055,N,11714.2060,W,61.539,312.110,160910,0,W,A*13
$GPRMC,171201.52,A,3335.3396,N,11714.2510,W,60.236,312.506,160910,0,W,A*18
$GPRMC,171204.52,A,3335.3736,N,11714.2954,W,60.717,312.421,160910,0,W,A*1D
$GPRMC,171207.52,A,3335.4079,N,11714.3405,W,61.418,311.964,160910,0,W,A*1F
$GPRMC,171210.52,A,3335.4425,N,11714.3855,W,60.714,313.334,160910,0,W,A*1E
$GPRMC,171213.52,A,3335.4781,N,11714.4286,W,60.859,316.113,160910,0,W,A*17
$GPRMC,171216.52,A,3335.5160,N,11714.4689,W,60.682,320.277,160910,0,W,A*1D
$GPRMC,171219.52,A,3335.5556,N,11714.5059,W,60.217,322.491,160910,0,W,A*1D
$GPRMC,171222.52,A,3335.5952,N,11714.5419,W,59.601,322.954,160910,0,W,A*10
$GPRMC,171225.52,A,3335.6346,N,11714.5778,W,59.469,322.459,160910,0,W,A*13
$GPRMC,171228.52,A,3335.6744,N,11714.6143,W,60.071,322.800,160910,0,W,A*12
$GPRMC,171231.52,A,3335.7141,N,11714.6505,W,59.842,322.515,160910,0,W,A*15
$GPRMC,171234.52,A,3335.7534,N,11714.6871,W,59.754,322.401,160910,0,W,A*14
$GPRMC,171237.52,A,3335.7928,N,11714.7234,W,59.740,322.419,160910,0,W,A*10
$GPRMC,171240.52,A,3335.8323,N,11714.7600,W,59.912,322.611,160910,0,W,A*1E
$GPRMC,171243.52,A,3335.8722,N,11714.7960,W,60.279,322.642,160910,0,W,A*1B
$GPRMC,171246.52,A,3335.9123,N,11714.8326,W,60.795,322.629,160910,0,W,A*15
$GPRMC,171249.52,A,3335.9527,N,11714.8696,W,60.490,322.587,160910,0,W,A*15
$GPRMC,171252.52,A,3335.9927,N,11714.9061,W,60.334,322.542,160910,0,W,A*1C
$GPRMC,171255.52,A,3336.0325,N,11714.9427,W,59.874,322.564,160910,0,W,A*1E
$GPRMC,171258.52,A,3336.0726,N,11714.9789,W,60.318,322.587,160910,0,W,A*15
$GPRMC,171301.52,A,3336.1126,N,11715.0155,W,60.574,322.413,160910,0,W,A*10
$GPRMC,171304.52,A,3336.1527,N,11715.0523,W,60.523,322.665,160910,0,W,A*14
$GPRMC,171307.52,A,3336.1926,N,11715.0887,W,59.741,322.730,160910,0,W,A*14
$GPRMC,171310.52,A,3336.2321,N,11715.1247,W,59.713,322.317,160910,0,W,A*1D
$GPRMC,171313.52,A,3336.2718,N,11715.1611,W,60.403,322.731,160910,0,W,A*1F
$GPRMC,171316.52,A,3336.3120,N,11715.1978,W,60.707,322.514,160910,0,W,A*14
$GPRMC,171319.52,A,3336.3521,N,11715.2344,W,60.174,322.410,160910,0,W,A*1F
$GPRMC,171322.52,A,3336.3908,N,11715.2701,W,57.343,322.535,160910,0,W,A*11
$GPRMC,171325.52,A,3336.4287,N,11715.3049,W,58.220,322.415,160910,0,W,A*1F
$GPRMC,171328.52,A,3336.4679,N,11715.3408,W,59.378,322.339,160910,0,W,A*12
$GPRMC,171331.52,A,3336.5072,N,11715.3767,W,59.312,322.592,160910,0,W,A*17
$GPRMC,171334.52,A,3336.5467,N,11715.4128,W,59.740,322.500,160910,0,W,A*10
$GPRMC,171337.52,A,3336.5869,N,11715.4494,W,61.181,322.511,160910,0,W,A*13
$GPRMC,171340.52,A,3336.6274,N,11715.4863,W,60.840,322.911,160910,0,W,A*1B
$GPRMC,171343.52,A,3336.6675,N,11715.5230,W,60.308,322.517,160910,0,W,A*1D
$GPRMC,171346.52,A,3336.7075,N,11715.5595,W,60.393,322.720,160910,0,W,A*13
$GPRMC,171349.52,A,3336.7477,N,11715.5960,W,60.802,323.017,160910,0,W,A*1D
$GPRMC,171352.52,A,3336.7880,N,11715.6326,W,60.775,322.561,160910,0,W,A*12
$GPRMC,171355.52,A,3336.8282,N,11715.6695,W,60.524,322.432,160910,0,W,A*1E
$GPRMC,171358.52,A,3336.8683,N,11715.7060,W,60.286,322.467,160910,0,W,A*14
$GPRMC,171401.52,A,3336.9082,N,11715.7424,W,59.814,322.737,160910,0,W,A*10
$GPRMC,171404.52,A,3336.9480,N,11715.7783,W,59.348,322.487,160910,0,W,A*17
$GPRMC,171407.52,A,3336.9873,N,11715.8145,W,59.772,322.388,160910,0,W,A*12
$GPRMC,171410.52,A,3337.0268,N,11715.8507,W,59.426,322.452,160910,0,W,A*1C
$GPRMC,171413.52,A,3337.0661,N,11715.8869,W,59.646,322.594,160910,0,W,A*18
$GPRMC,171416.52,A,3337.1058,N,11715.9231,W,60.034,322.725,160910,0,W,A*17
$GPRMC,171419.52,A,3337.1456,N,11715.9595,W,60.262,322.388,160910,0,W,A*19
$GPRMC,171422.52,A,3337.1856,N,11715.9961,W,60.241,322.686,160910,0,W,A*10
$GPRMC,171425.52,A,3337.2261,N,11716.0326,W,60.855,323.002,160910,0,W,A*1D
$GPRMC,171428.52,A,3337.2671,N,11716.0693,W,61.410,323.346,160910,0,W,A*11
$GPRMC,171431.52,A,3337.3089,N,11716.1059,W,61.914,323.932,160910,0,W,A*18
$GPRMC,171434.52,A,3337.3503,N,11716.1418,W,61.202,324.078,160910,0,W,A*17
$GPRMC,171437.52,A,3337.3920,N,11716.1772,W,61.237,324.753,160910,0,W,A*1E
$GPRMC,171440.52,A,3337.4337,N,11716.2124,W,61.132,324.704,160910,0,W,A*17
$GPRMC,171443.52,A,3337.4756,N,11716.2476,W,61.276,325.095,160910,0,W,A*18
$GPRMC,171446.52,A,3337.5177,N,11716.2822,W,61.246,325.648,160910,0,W,A*11
$GPRMC,171449.52,A,3337.5599,N,11716.3164,W,61.097,326.041,160910,0,W,A*12
$GPRMC,171452.52,A,3337.6021,N,11716.3500,W,60.202,326.117,160910,0,W,A*16
$GPRMC,171455.52,A,3337.6439,N,11716.3828,W,59.593,326.744,160910,0,W,A*1E
$GPRMC,171458.52,A,3337.6853,N,11716.4151,W,58.992,326.795,160910,0,W,A*13
$GPRMC,171501.52,A,3337.7267,N,11716.4471,W,59.336,327.241,160910,0,W,A*1D
$GPRMC,171504.52,A,3337.7686,N,11716.4788,W,59.547,327.607,160910,0,W,A*10
$GPRMC,171507.52,A,3337.8110,N,11716.5104,W,59.990,327.944,160910,0,W,A*19
$GPRMC,171510.52,A,3337.8538,N,11716.5419,W,60.510,328.437,160910,0,W,A*10
$GPRMC,171513.52,A,3337.8970,N,11716.5732,W,60.417,328.656,160910,0,W,A*1A
$GPRMC,171516.52,A,3337.9400,N,11716.6037,W,59.605,329.079,160910,0,W,A*14
$GPRMC,171519.52,A,3337.9830,N,11716.6339,W,59.960,329.439,160910,0,W,A*15
$GPRMC,171522.52,A,3338.0260,N,11716.6638,W,59.538,329.641,160910,0,W,A*1C
$GPRMC,171525.52,A,3338.0688,N,11716.6931,W,59.365,330.164,160910,0,W,A*19
$GPRMC,171528.52,A,3338.1120,N,11716.7224,W,59.518,330.305,160910,0,W,A*17
$GPRMC,171531.52,A,3338.1552,N,11716.7515,W,59.619,330.564,160910,0,W,A*18
$GPRMC,171534.52,A,3338.1985,N,11716.7806,W,59.607,330.348,160910,0,W,A*13
$GPRMC,171537.52,A,3338.2419,N,11716.8096,W,59.743,330.597,160910,0,W,A*10
$GPRMC,171540.52,A,3338.2859,N,11716.8386,W,60.630,330.516,160910,0,W,A*1C
$GPRMC,171543.52,A,3338.3301,N,11716.8685,W,61.328,330.518,160910,0,W,A*1D
$GPRMC,171546.52,A,3338.3747,N,11716.8988,W,61.347,330.276,160910,0,W,A*1A
$GPRMC,171549.52,A,3338.4189,N,11716.9290,W,60.377,330.344,160910,0,W,A*17
$GPRMC,171552.52,A,3338.4625,N,11716.9582,W,59.572,330.532,160910,0,W,A*16
$GPRMC,171555.52,A,3338.5055,N,11716.9875,W,59.290,330.395,160910,0,W,A*14
$GPRMC,171558.52,A,3338.5482,N,11717.0162,W,58.478,330.399,160910,0,W,A*1D
$GPRMC,171601.52,A,3338.5906,N,11717.0448,W,57.996,330.335,160910,0,W,A*1A
$GPRMC,171604.52,A,3338.6326,N,11717.0732,W,57.474,330.344,160910,0,W,A*1D
$GPRMC,171607.52,A,3338.6741,N,11717.1014,W,56.731,330.367,160910,0,W,A*1B
$GPRMC,171610.52,A,3338.7150,N,11717.1289,W,57.037,330.403,160910,0,W,A*19
$GPRMC,171613.52,A,3338.7573,N,11717.1570,W,58.612,330.467,160910,0,W,A*12
$GPRMC,171616.52,A,3338.8001,N,11717.1859,W,58.823,330.344,160910,0,W,A*14
$GPRMC,171619.52,A,3338.8431,N,11717.2144,W,58.985,330.442,160910,0,W,A*16
$GPRMC,171622.52,A,3338.8849,N,11717.2428,W,56.785,330.445,160910,0,W,A*15
$GPRMC,171625.52,A,3338.9260,N,11717.2705,W,56.706,330.453,160910,0,W,A*12
$GPRMC,171628.52,A,3338.9670,N,11717.2985,W,56.283,330.519,160910,0,W,A*1B
$GPRMC,171631.52,A,3339.0082,N,11717.3264,W,57.758,330.489,160910,0,W,A*1F
$GPRMC,171634.52,A,3339.0515,N,11717.3559,W,60.809,330.234,160910,0,W,A*17
$GPRMC,171637.52,A,3339.0955,N,11717.3860,W,60.596,330.330,160910,0,W,A*15
$GPRMC,171640.52,A,3339.1394,N,11717.4159,W,60.465,330.428,160910,0,W,A*14
$GPRMC,171643.52,A,3339.1833,N,11717.4455,W,60.169,330.369,160910,0,W,A*13
$GPRMC,171646.52,A,3339.2270,N,11717.4751,W,59.903,330.628,160910,0,W,A*11
$GPRMC,171649.52,A,3339.2702,N,11717.5045,W,59.366,329.980,160910,0,W,A*11
$GPRMC,171652.52,A,3339.3130,N,11717.5340,W,59.474,329.658,160910,0,W,A*15
$GPRMC,171655.52,A,3339.3557,N,11717.5650,W,59.856,328.075,160910,0,W,A*17
$GPRMC,171658.52,A,3339.3980,N,11717.5975,W,59.974,327.232,160910,0,W,A*1B
$GPRMC,171701.52,A,3339.4401,N,11717.6304,W,60.409,326.341,160910,0,W,A*13
$GPRMC,171704.52,A,3339.4817,N,11717.6649,W,61.077,324.780,160910,0,W,A*16
$GPRMC,171707.52,A,3339.5231,N,11717.7006,W,61.098,323.678,160910,0,W,A*16
$GPRMC,171710.52,A,3339.5641,N,11717.7373,W,61.807,323.040,160910,0,W,A*11
$GPRMC,171713.52,A,3339.6052,N,11717.7749,W,62.139,322.577,160910,0,W,A*1F
$GPRMC,171716.52,A,3339.6461,N,11717.8131,W,62.023,321.201,160910,0,W,A*17
$GPRMC,171719.52,A,3339.6859,N,11717.8524,W,61.940,320.351,160910,0,W,A*15
$GPRMC,171722.52,A,3339.7252,N,11717.8922,W,61.733,319.343,160910,0,W,A*14
$GPRMC,171725.52,A,3339.7634,N,11717.9323,W,60.584,318.375,160910,0,W,A*16
$GPRMC,171728.52,A,3339.8003,N,11717.9729,W,59.938,317.276,160910,0,W,A*14
$GPRMC,171731.52,A,3339.8365,N,11718.0140,W,59.996,316.306,160910,0,W,A*13
$GPRMC,171734.52,A,3339.8725,N,11718.0558,W,60.130,314.963,160910,0,W,A*1E
$GPRMC,171737.52,A,3339.9074,N,11718.0986,W,59.341,314.028,160910,0,W,A*18
$GPRMC,171740.52,A,3339.9412,N,11718.1407,W,58.326,313.612,160910,0,W,A*11
$GPRMC,171743.52,A,3339.9742,N,11718.1836,W,58.853,312.139,160910,0,W,A*1C
$GPRMC,171746.52,A,3340.0069,N,11718.2279,W,59.075,310.919,160910,0,W,A*17
$GPRMC,171749.52,A,3340.0390,N,11718.2731,W,59.715,310.208,160910,0,W,A*1E
$GPRMC,171752.52,A,3340.0707,N,11718.3194,W,59.556,309.431,160910,0,W,A*17
$GPRMC,171755.52,A,3340.1017,N,11718.3662,W,59.533,308.363,160910,0,W,A*1B
$GPRMC,171758.52,A,3340.1318,N,11718.4136,W,58.778,306.851,160910,0,W,A*13
$GPRMC,171801.52,A,3340.1601,N,11718.4591,W,54.554,306.225,160910,0,W,A*1D
$GPRMC,171804.52,A,3340.1862,N,11718.5033,W,54.670,304.031,160910,0,W,A*1F
$GPRMC,171807.52,A,3340.2117,N,11718.5506,W,58.183,303.472,160910,0,W,A*14
$GPRMC,171810.52,A,3340.2390,N,11718.6002,W,60.125,303.319,160910,0,W,A*10
$GPRMC,171813.52,A,3340.2659,N,11718.6511,W,60.158,301.901,160910,0,W,A*1F
$GPRMC,171816.52,A,3340.2923,N,11718.7026,W,60.707,300.961,160910,0,W,A*13
$GPRMC,171819.52,A,3340.3182,N,11718.7550,W,61.496,300.551,160910,0,W,A*1F
$GPRMC,171822.52,A,3340.3446,N,11718.8081,W,61.927,300.801,160910,0,W,A*13
$GPRMC,171825.52,A,3340.3700,N,11718.8617,W,61.304,298.302,160910,0,W,A*1F
$GPRMC,171828.52,A,3340.3931,N,11718.9161,W,61.475,296.676,160910,0,W,A*10
$GPRMC,171831.52,A,3340.4160,N,11718.9714,W,62.011,296.166,160910,0,W,A*14
$GPRMC,171834.52,A,3340.4383,N,11719.0274,W,62.372,295.321,160910,0,W,A*11
$GPRMC,171837.52,A,3340.4607,N,11719.0832,W,61.833,295.926,160910,0,W,A*13
$GPRMC,171840.52,A,3340.4839,N,11719.1384,W,62.318,298.224,160910,0,W,A*12
$GPRMC,171843.52,A,3340.5098,N,11719.1931,W,63.228,300.690,160910,0,W,A*1F
$GPRMC,171846.52,A,3340.5384,N,11719.2470,W,64.042,303.535,160910,0,W,A*19
$GPRMC,171849.52,A,3340.5691,N,11719.2998,W,63.466,306.189,160910,0,W,A*1F
$GPRMC,171852.52,A,3340.6007,N,11719.3494,W,61.724,308.701,160910,0,W,A*10
$GPRMC,171855.52,A,3340.6329,N,11719.3958,W,60.274,310.849,160910,0,W,A*1E
$GPRMC,171858.52,A,3340.6660,N,11719.4398,W,58.644,313.456,160910,0,W,A*17
$GPRMC,171901.52,A,3340.7001,N,11719.4812,W,58.028,315.786,160910,0,W,A*17
$GPRMC,171904.52,A,3340.7354,N,11719.5205,W,57.875,317.714,160910,0,W,A*1A
$GPRMC,171907.52,A,3340.7722,N,11719.5580,W,58.939,320.518,160910,0,W,A*1A
$GPRMC,171910.52,A,3340.8114,N,11719.5945,W,60.015,322.406,160910,0,W,A*15
$GPRMC,171913.52,A,3340.8514,N,11719.6305,W,59.945,322.728,160910,0,W,A*16
$GPRMC,171916.52,A,3340.8914,N,11719.6663,W,59.793,322.665,160910,0,W,A*17
$GPRMC,171919.52,A,3340.9311,N,11719.7022,W,60.162,322.577,160910,0,W,A*16
$GPRMC,171922.52,A,3340.9711,N,11719.7383,W,60.033,322.628,160910,0,W,A*1E
$GPRMC,171925.52,A,3341.0111,N,11719.7744,W,59.800,322.815,160910,0,W,A*1A
$GPRMC,171928.52,A,3341.0510,N,11719.8102,W,59.589,322.808,160910,0,W,A*19
$GPRMC,171931.52,A,3341.0908,N,11719.8457,W,59.683,322.650,160910,0,W,A*1B
$GPRMC,171934.52,A,3341.1305,N,11719.8819,W,59.990,322.596,160910,0,W,A*1A
$GPRMC,171937.52,A,3341.1708,N,11719.9184,W,60.920,322.692,160910,0,W,A*1A
$GPRMC,171940.52,A,3341.2116,N,11719.9552,W,61.520,322.915,160910,0,W,A*12
$GPRMC,171943.52,A,3341.2526,N,11719.9925,W,61.767,322.699,160910,0,W,A*10
$GPRMC,171946.52,A,3341.2936,N,11720.0295,W,61.517,322.783,160910,0,W,A*14
$GPRMC,171949.52,A,3341.3345,N,11720.0667,W,61.526,322.776,160910,0,W,A*15
$GPRMC,171952.52,A,3341.3755,N,11720.1040,W,61.877,322.606,160910,0,W,A*17
$GPRMC,171955.52,A,3341.4166,N,11720.1417,W,62.163,322.575,160910,0,W,A*1F
$GPRMC,171958.52,A,3341.4577,N,11720.1794,W,62.167,322.751,160910,0,W,A*1E
$GPRMC,172001.52,A,3341.4989,N,11720.2173,W,62.381,321.454,160910,0,W,A*16
$GPRMC,172004.52,A,3341.5391,N,11720.2568,W,62.358,319.788,160910,0,W,A*12
$GPRMC,172007.52,A,3341.5781,N,11720.2977,W,62.072,317.466,160910,0,W,A*10
$GPRMC,172010.52,A,3341.6157,N,11720.3401,W,62.330,316.172,160910,0,W,A*11
$GPRMC,172013.52,A,3341.6523,N,11720.3839,W,62.130,314.248,160910,0,W,A*18
$GPRMC,172016.52,A,3341.6878,N,11720.4292,W,62.023,312.539,160910,0,W,A*16
$GPRMC,172019.52,A,3341.7223,N,11720.4756,W,61.923,310.795,160910,0,W,A*1D
$GPRMC,172022.52,A,3341.7552,N,11720.5230,W,61.521,309.046,160910,0,W,A*1F
$GPRMC,172025.52,A,3341.7871,N,11720.5709,W,61.219,308.547,160910,0,W,A*12
$GPRMC,172028.52,A,3341.8187,N,11720.6186,W,61.009,308.463,160910,0,W,A*16
$GPRMC,172031.52,A,3341.8505,N,11720.6666,W,61.312,308.424,160910,0,W,A*13
$GPRMC,172034.52,A,3341.8825,N,11720.7147,W,61.586,308.582,160910,0,W,A*1A
$GPRMC,172037.52,A,3341.9144,N,11720.7626,W,61.700,308.653,160910,0,W,A*15
$GPRMC,172040.52,A,3341.9464,N,11720.8109,W,61.987,308.446,160910,0,W,A*10
$GPRMC,172043.52,A,3341.9786,N,11720.8597,W,62.641,308.552,160910,0,W,A*1D
$GPRMC,172046.52,A,3342.0114,N,11720.9087,W,62.946,308.484,160910,0,W,A*18
$GPRMC,172049.52,A,3342.0445,N,11720.9580,W,63.290,308.340,160910,0,W,A*1A
$GPRMC,172052.52,A,3342.0774,N,11721.0077,W,63.165,308.526,160910,0,W,A*1B
$GPRMC,172055.52,A,3342.1100,N,11721.0572,W,63.075,308.342,160910,0,W,A*1C
$GPRMC,172058.52,A,3342.1428,N,11721.1066,W,63.080,308.511,160910,0,W,A*15
$GPRMC,172101.52,A,3342.1755,N,11721.1559,W,63.264,308.358,160910,0,W,A*1B
$GPRMC,172104.52,A,3342.2085,N,11721.2052,W,63.159,308.607,160910,0,W,A*18
$GPRMC,172107.52,A,3342.2411,N,11721.2545,W,63.214,308.455,160910,0,W,A*1E
$GPRMC,172110.52,A,3342.2746,N,11721.3034,W,63.319,310.852,160910,0,W,A*15
$GPRMC,172113.52,A,3342.3102,N,11721.3496,W,63.026,314.672,160910,0,W,A*1A
$GPRMC,172116.52,A,3342.3484,N,11721.3927,W,63.075,318.204,160910,0,W,A*1C
$GPRMC,172119.52,A,3342.3889,N,11721.4328,W,63.106,322.214,160910,0,W,A*1D
$GPRMC,172122.52,A,3342.4316,N,11721.4697,W,62.877,325.422,160910,0,W,A*14
$GPRMC,172125.52,A,3342.4764,N,11721.5034,W,62.959,329.453,160910,0,W,A*1B
$GPRMC,172128.52,A,3342.5223,N,11721.5332,W,62.956,332.924,160910,0,W,A*1C
$GPRMC,172131.52,A,3342.5701,N,11721.5594,W,62.994,336.741,160910,0,W,A*1C
$GPRMC,172134.52,A,3342.6194,N,11721.5819,W,63.170,340.586,160910,0,W,A*13
$GPRMC,172137.52,A,3342.6700,N,11721.6003,W,63.019,344.089,160910,0,W,A*1B
$GPRMC,172140.52,A,3342.7215,N,11721.6153,W,63.058,346.991,160910,0,W,A*18
$GPRMC,172143.52,A,3342.7731,N,11721.6286,W,62.833,346.788,160910,0,W,A*11
$GPRMC,172146.52,A,3342.8248,N,11721.6424,W,63.319,345.498,160910,0,W,A*1D
$GPRMC,172149.52,A,3342.8759,N,11721.6587,W,63.408,343.337,160910,0,W,A*1C
$GPRMC,172152.52,A,3342.9263,N,11721.6782,W,63.302,340.646,160910,0,W,A*11
$GPRMC,172155.52,A,3342.9756,N,11721.7003,W,63.102,338.430,160910,0,W,A*14
$GPRMC,172158.52,A,3343.0239,N,11721.7251,W,63.279,335.255,160910,0,W,A*1F
$GPRMC,172201.52,A,3343.0711,N,11721.7527,W,62.937,332.627,160910,0,W,A*1F
$GPRMC,172204.52,A,3343.1174,N,11721.7824,W,63.235,330.303,160910,0,W,A*19
$GPRMC,172207.52,A,3343.1627,N,11721.8152,W,62.990,327.611,160910,0,W,A*19
$GPRMC,172210.52,A,3343.2065,N,11721.8503,W,63.047,324.983,160910,0,W,A*19
$GPRMC,172213.52,A,3343.2491,N,11721.8875,W,63.066,322.246,160910,0,W,A*1E
$GPRMC,172216.52,A,3343.2899,N,11721.9272,W,62.945,319.998,160910,0,W,A*1A
$GPRMC,172219.52,A,3343.3290,N,11721.9693,W,63.416,317.180,160910,0,W,A*19
$GPRMC,172222.52,A,3343.3666,N,11722.0137,W,63.340,314.628,160910,0,W,A*1D
$GPRMC,172225.52,A,3343.4024,N,11722.0600,W,63.106,311.780,160910,0,W,A*18
$GPRMC,172228.52,A,3343.4367,N,11722.1078,W,63.051,309.768,160910,0,W,A*15
$GPRMC,172231.52,A,3343.4694,N,11722.1576,W,63.133,306.955,160910,0,W,A*15
$GPRMC,172234.52,A,3343.5000,N,11722.2093,W,62.998,304.737,160910,0,W,A*17
$GPRMC,172237.52,A,3343.5286,N,11722.2624,W,63.028,301.749,160910,0,W,A*1D
$GPRMC,172240.52,A,3343.5554,N,11722.3168,W,63.169,298.958,160910,0,W,A*10
$GPRMC,172243.52,A,3343.5797,N,11722.3730,W,63.110,296.826,160910,0,W,A*1D
$GPRMC,172246.52,A,3343.6018,N,11722.4300,W,62.991,293.978,160910,0,W,A*14
$GPRMC,172249.52,A,3343.6217,N,11722.4882,W,63.027,291.156,160910,0,W,A*14
$GPRMC,172252.52,A,3343.6400,N,11722.5474,W,63.439,288.910,160910,0,W,A*13
$GPRMC,172255.52,A,3343.6554,N,11722.6081,W,63.147,285.811,160910,0,W,A*18
$GPRMC,172258.52,A,3343.6684,N,11722.6698,W,63.510,283.752,160910,0,W,A*1D
$GPRMC,172301.52,A,3343.6804,N,11722.7315,W,63.275,283.984,160910,0,W,A*16
$GPRMC,172304.52,A,3343.6935,N,11722.7930,W,63.141,284.915,160910,0,W,A*16
$GPRMC,172307.52,A,3343.7060,N,11722.8544,W,63.077,283.680,160910,0,W,A*1D
$GPRMC,172310.52,A,3343.7178,N,11722.9158,W,63.026,283.586,160910,0,W,A*1A
$GPRMC,172313.52,A,3343.7297,N,11722.9772,W,62.903,283.415,160910,0,W,A*11
$GPRMC,172316.52,A,3343.7415,N,11723.0384,W,63.102,283.521,160910,0,W,A*13
$GPRMC,172319.52,A,3343.7536,N,11723.0997,W,63.234,283.458,160910,0,W,A*1D
$GPRMC,172322.52,A,3343.7658,N,11723.1611,W,63.048,283.536,160910,0,W,A*1E
$GPRMC,172325.52,A,3343.7779,N,11723.2224,W,63.066,283.633,160910,0,W,A*10
$GPRMC,172328.52,A,3343.7903,N,11723.2833,W,62.813,283.519,160910,0,W,A*12
$GPRMC,172331.52,A,3343.8017,N,11723.3447,W,63.262,280.779,160910,0,W,A*1D
$GPRMC,172334.52,A,3343.8096,N,11723.4072,W,63.266,277.382,160910,0,W,A*18
$GPRMC,172337.52,A,3343.8142,N,11723.4703,W,63.110,273.642,160910,0,W,A*1D
$GPRMC,172340.52,A,3343.8158,N,11723.5332,W,63.214,270.546,160910,0,W,A*12
$GPRMC,172343.52,A,3343.8155,N,11723.5963,W,63.161,269.306,160910,0,W,A*19
$GPRMC,172346.52,A,3343.8151,N,11723.6596,W,63.298,269.534,160910,0,W,A*1F
$GPRMC,172349.52,A,3343.8155,N,11723.7224,W,62.966,272.633,160910,0,W,A*1E
$GPRMC,172352.52,A,3343.8204,N,11723.7852,W,63.409,277.803,160910,0,W,A*15
$GPRMC,172355.52,A,3343.8293,N,11723.8479,W,63.475,282.281,160910,0,W,A*17
$GPRMC,172358.52,A,3343.8426,N,11723.9092,W,63.275,286.857,160910,0,W,A*11
$GPRMC,172401.52,A,3343.8601,N,11723.9686,W,63.390,291.678,160910,0,W,A*11
$GPRMC,172404.52,A,3343.8819,N,11724.0261,W,63.461,296.665,160910,0,W,A*12
$GPRMC,172407.52,A,3343.9071,N,11724.0816,W,63.212,298.935,160910,0,W,A*1A
$GPRMC,172410.52,A,3343.9334,N,11724.1365,W,63.051,298.838,160910,0,W,A*19
$GPRMC,172413.52,A,3343.9575,N,11724.1921,W,63.008,295.109,160910,0,W,A*19
$GPRMC,172416.52,A,3343.9778,N,11724.2500,W,62.946,290.283,160910,0,W,A*19
$GPRMC,172419.52,A,3343.9944,N,11724.3097,W,63.150,286.025,160910,0,W,A*1A
$GPRMC,172422.52,A,3344.0066,N,11724.3696,W,60.468,281.369,160910,0,W,A*13
$GPRMC,172425.52,A,3344.0144,N,11724.4299,W,61.391,277.528,160910,0,W,A*13
$GPRMC,172428.52,A,3344.0180,N,11724.4893,W,59.229,271.161,160910,0,W,A*10
$GPRMC,172431.52,A,3344.0172,N,11724.5494,W,60.472,268.201,160910,0,W,A*10
$GPRMC,172434.52,A,3344.0150,N,11724.6096,W,61.497,268.049,160910,0,W,A*14
$GPRMC,172437.52,A,3344.0130,N,11724.6722,W,62.654,268.089,160910,0,W,A*1B
$GPRMC,172440.52,A,3344.0113,N,11724.7345,W,61.761,268.604,160910,0,W,A*19
$GPRMC,172443.52,A,3344.0094,N,11724.7955,W,61.260,267.959,160910,0,W,A*13
$GPRMC,172446.52,A,3344.0075,N,11724.8568,W,61.312,268.756,160910,0,W,A*1E
$GPRMC,172449.52,A,3344.0079,N,11724.9179,W,61.658,273.222,160910,0,W,A*1F
$GPRMC,172452.52,A,3344.0129,N,11724.9790,W,61.445,277.252,160910,0,W,A*1D
$GPRMC,172455.52,A,3344.0217,N,11725.0396,W,61.318,282.139,160910,0,W,A*15
$GPRMC,172458.52,A,3344.0341,N,11725.0989,W,61.454,285.637,160910,0,W,A*1F
$GPRMC,172501.52,A,3344.0502,N,11725.1566,W,61.099,290.817,160910,0,W,A*12
$GPRMC,172504.52,A,3344.0705,N,11725.2124,W,61.362,295.348,160910,0,W,A*10
$GPRMC,172507.52,A,3344.0946,N,11725.2667,W,61.287,299.760,160910,0,W,A*12
$GPRMC,172510.52,A,3344.1226,N,11725.3192,W,61.586,304.561,160910,0,W,A*14
$GPRMC,172513.52,A,3344.1537,N,11725.3685,W,61.580,307.250,160910,0,W,A*11
$GPRMC,172516.52,A,3344.1852,N,11725.4170,W,61.626,307.234,160910,0,W,A*1D
$GPRMC,172519.52,A,3344.2167,N,11725.4657,W,61.499,307.577,160910,0,W,A*1A
$GPRMC,172522.52,A,3344.2480,N,11725.5144,W,61.526,307.316,160910,0,W,A*1E
$GPRMC,172525.52,A,3344.2795,N,11725.5630,W,61.476,307.000,160910,0,W,A*1A
$GPRMC,172528.52,A,3344.3108,N,11725.6116,W,61.474,307.292,160910,0,W,A*1F
$GPRMC,172531.52,A,3344.3422,N,11725.6604,W,61.267,307.338,160910,0,W,A*1B
$GPRMC,172534.52,A,3344.3737,N,11725.7092,W,61.645,307.098,160910,0,W,A*1C
$GPRMC,172537.52,A,3344.4042,N,11725.7586,W,61.844,304.356,160910,0,W,A*10
$GPRMC,172540.52,A,3344.4323,N,11725.8103,W,61.915,300.939,160910,0,W,A*10
$GPRMC,172543.52,A,3344.4574,N,11725.8643,W,61.518,296.757,160910,0,W,A*1D
$GPRMC,172546.52,A,3344.4792,N,11725.9198,W,61.397,293.671,160910,0,W,A*13
$GPRMC,172549.52,A,3344.4984,N,11725.9765,W,61.390,290.279,160910,0,W,A*19
$GPRMC,172552.52,A,3344.5147,N,11726.0346,W,61.497,286.681,160910,0,W,A*1E
$GPRMC,172555.52,A,3344.5274,N,11726.0943,W,61.506,283.090,160910,0,W,A*1F
$GPRMC,172558.52,A,3344.5372,N,11726.1545,W,61.535,281.053,160910,0,W,A*13
$GPRMC,172601.52,A,3344.5464,N,11726.2147,W,61.431,280.996,160910,0,W,A*1D
$GPRMC,172604.52,A,3344.5560,N,11726.2753,W,61.587,281.461,160910,0,W,A*16
$GPRMC,172607.52,A,3344.5668,N,11726.3352,W,61.210,284.758,160910,0,W,A*1F
$GPRMC,172610.52,A,3344.5812,N,11726.3938,W,61.304,288.257,160910,0,W,A*1E
$GPRMC,172613.52,A,3344.5991,N,11726.4517,W,61.526,291.628,160910,0,W,A*13
$GPRMC,172616.52,A,3344.6198,N,11726.5077,W,60.092,295.671,160910,0,W,A*15
$GPRMC,172619.52,A,3344.6428,N,11726.5607,W,59.655,298.648,160910,0,W,A*15
$GPRMC,172622.52,A,3344.6665,N,11726.6127,W,59.822,298.511,160910,0,W,A*11
$GPRMC,172625.52,A,3344.6911,N,11726.6657,W,60.633,298.793,160910,0,W,A*16
$GPRMC,172628.52,A,3344.7155,N,11726.7188,W,60.434,298.626,160910,0,W,A*1C
$GPRMC,172631.52,A,3344.7395,N,11726.7715,W,60.263,298.385,160910,0,W,A*10
$GPRMC,172634.52,A,3344.7637,N,11726.8244,W,59.837,298.433,160910,0,W,A*1D
$GPRMC,172637.52,A,3344.7875,N,11726.8769,W,59.891,298.621,160910,0,W,A*11
$GPRMC,172640.52,A,3344.8117,N,11726.9297,W,60.760,298.476,160910,0,W,A*1D
$GPRMC,172643.52,A,3344.8359,N,11726.9834,W,61.938,298.188,160910,0,W,A*13
$GPRMC,172646.52,A,3344.8620,N,11727.0379,W,63.039,301.311,160910,0,W,A*1E
$GPRMC,172649.52,A,3344.8917,N,11727.0900,W,62.404,306.760,160910,0,W,A*10
$GPRMC,172652.52,A,3344.9242,N,11727.1383,W,62.327,310.646,160910,0,W,A*14
$GPRMC,172655.52,A,3344.9595,N,11727.1838,W,62.610,315.085,160910,0,W,A*18
$GPRMC,172658.52,A,3344.9984,N,11727.2256,W,62.706,320.042,160910,0,W,A*13
$GPRMC,172701.52,A,3345.0406,N,11727.2634,W,62.290,324.671,160910,0,W,A*19
$GPRMC,172704.52,A,3345.0850,N,11727.2967,W,63.367,328.712,160910,0,W,A*1A
$GPRMC,172707.52,A,3345.1319,N,11727.3294,W,64.862,328.502,160910,0,W,A*12
$GPRMC,172710.52,A,3345.1776,N,11727.3615,W,62.876,328.366,160910,0,W,A*13
$GPRMC,172713.52,A,3345.2218,N,11727.3963,W,62.996,323.755,160910,0,W,A*10
$GPRMC,172716.52,A,3345.2628,N,11727.4360,W,63.125,319.097,160910,0,W,A*1D
$GPRMC,172719.52,A,3345.3013,N,11727.4793,W,63.400,314.784,160910,0,W,A*1F
$GPRMC,172722.52,A,3345.3365,N,11727.5259,W,63.082,310.097,160910,0,W,A*18
$GPRMC,172725.52,A,3345.3689,N,11727.5752,W,62.799,308.222,160910,0,W,A*1F
$GPRMC,172728.52,A,3345.4009,N,11727.6249,W,62.968,307.979,160910,0,W,A*1D
$GPRMC,172731.52,A,3345.4331,N,11727.6748,W,63.231,307.908,160910,0,W,A*19
$GPRMC,172734.52,A,3345.4652,N,11727.7245,W,62.543,307.398,160910,0,W,A*15
$GPRMC,172737.52,A,3345.4971,N,11727.7740,W,62.224,307.996,160910,0,W,A*1A
$GPRMC,172740.52,A,3345.5288,N,11727.8227,W,61.118,307.921,160910,0,W,A*1E
$GPRMC,172743.52,A,3345.5590,N,11727.8715,W,60.645,304.131,160910,0,W,A*13
$GPRMC,172746.52,A,3345.5859,N,11727.9225,W,60.106,299.998,160910,0,W,A*17
$GPRMC,172749.52,A,3345.6093,N,11727.9754,W,59.881,295.832,160910,0,W,A*17
$GPRMC,172752.52,A,3345.6290,N,11728.0299,W,59.175,291.620,160910,0,W,A*15
$GPRMC,172755.52,A,3345.6459,N,11728.0856,W,59.692,289.162,160910,0,W,A*1E
$GPRMC,172758.52,A,3345.6621,N,11728.1425,W,60.873,289.105,160910,0,W,A*1D
$GPRMC,172801.52,A,3345.6792,N,11728.1999,W,60.983,291.816,160910,0,W,A*11
$GPRMC,172804.52,A,3345.6998,N,11728.2557,W,60.942,295.876,160910,0,W,A*12
$GPRMC,172807.52,A,3345.7239,N,11728.3093,W,60.387,301.119,160910,0,W,A*13
$GPRMC,172810.52,A,3345.7515,N,11728.3596,W,60.282,304.865,160910,0,W,A*1F
$GPRMC,172813.52,A,3345.7820,N,11728.4079,W,61.337,309.446,160910,0,W,A*1A
$GPRMC,172816.52,A,3345.8162,N,11728.4535,W,61.147,313.995,160910,0,W,A*1F
$GPRMC,172819.52,A,3345.8530,N,11728.4950,W,60.551,318.703,160910,0,W,A*14
$GPRMC,172822.52,A,3345.8926,N,11728.5329,W,60.210,322.825,160910,0,W,A*12
$GPRMC,172825.52,A,3345.9335,N,11728.5681,W,60.045,323.590,160910,0,W,A*1B
$GPRMC,172828.52,A,3345.9743,N,11728.6032,W,59.876,323.829,160910,0,W,A*13
$GPRMC,172831.52,A,3346.0144,N,11728.6392,W,60.380,321.042,160910,0,W,A*16
$GPRMC,172834.52,A,3346.0522,N,11728.6793,W,61.414,316.061,160910,0,W,A*1C
$GPRMC,172837.52,A,3346.0878,N,11728.7240,W,62.375,311.624,160910,0,W,A*14
$GPRMC,172840.52,A,3346.1211,N,11728.7724,W,62.644,307.272,160910,0,W,A*10
$GPRMC,172843.52,A,3346.1517,N,11728.8235,W,62.809,305.196,160910,0,W,A*14
$GPRMC,172846.52,A,3346.1818,N,11728.8746,W,61.984,305.861,160910,0,W,A*14
$GPRMC,172849.52,A,3346.2137,N,11728.9237,W,62.445,309.914,160910,0,W,A*12
$GPRMC,172852.52,A,3346.2487,N,11728.9702,W,62.794,314.400,160910,0,W,A*1E
$GPRMC,172855.52,A,3346.2864,N,11729.0128,W,61.474,318.998,160910,0,W,A*10
$GPRMC,172858.52,A,3346.3263,N,11729.0515,W,61.546,323.635,160910,0,W,A*1B
$GPRMC,172901.52,A,3346.3698,N,11729.0853,W,61.820,328.500,160910,0,W,A*1A
$GPRMC,172904.52,A,3346.4155,N,11729.1145,W,61.648,332.356,160910,0,W,A*1F
$GPRMC,172907.52,A,3346.4618,N,11729.1424,W,61.893,333.256,160910,0,W,A*18
$GPRMC,172910.52,A,3346.5077,N,11729.1697,W,60.909,333.175,160910,0,W,A*1B
$GPRMC,172913.52,A,3346.5532,N,11729.1970,W,60.832,333.087,160910,0,W,A*1F
$GPRMC,172916.52,A,3346.5985,N,11729.2239,W,60.469,332.735,160910,0,W,A*12
$GPRMC,172919.52,A,3346.6438,N,11729.2507,W,60.424,333.204,160910,0,W,A*10
$GPRMC,172922.52,A,3346.6886,N,11729.2776,W,59.718,332.967,160910,0,W,A*1C
$GPRMC,172925.52,A,3346.7331,N,11729.3042,W,59.553,333.160,160910,0,W,A*1F
$GPRMC,172928.52,A,3346.7774,N,11729.3307,W,59.129,333.145,160910,0,W,A*1B
$GPRMC,172931.52,A,3346.8222,N,11729.3578,W,60.734,332.844,160910,0,W,A*1D
$GPRMC,172934.52,A,3346.8676,N,11729.3853,W,60.445,333.393,160910,0,W,A*1C
$GPRMC,172937.52,A,3346.9124,N,11729.4120,W,60.005,333.123,160910,0,W,A*1D
$GPRMC,172940.52,A,3346.9574,N,11729.4395,W,60.350,332.775,160910,0,W,A*17
$GPRMC,172943.52,A,3347.0015,N,11729.4672,W,58.651,331.623,160910,0,W,A*1C
$GPRMC,172946.52,A,3347.0436,N,11729.4956,W,57.571,329.937,160910,0,W,A*18
$GPRMC,172949.52,A,3347.0852,N,11729.5256,W,58.923,328.243,160910,0,W,A*1E
$GPRMC,172952.52,A,3347.1269,N,11729.5571,W,59.106,327.353,160910,0,W,A*14
$GPRMC,172955.52,A,3347.1685,N,11729.5893,W,59.912,326.795,160910,0,W,A*16
$GPRMC,172958.52,A,3347.2109,N,11729.6223,W,60.884,327.080,160910,0,W,A*1F
$GPRMC,173001.52,A,3347.2530,N,11729.6547,W,59.568,327.029,160910,0,W,A*16
$GPRMC,173004.52,A,3347.2941,N,11729.6868,W,58.742,327.238,160910,0,W,A*10
$GPRMC,173007.52,A,3347.3356,N,11729.7184,W,59.127,327.060,160910,0,W,A*1F
$GPRMC,173010.52,A,3347.3765,N,11729.7505,W,57.528,326.747,160910,0,W,A*16
$GPRMC,173013.52,A,3347.4155,N,11729.7811,W,54.848,326.941,160910,0,W,A*1F
$GPRMC,173016.52,A,3347.4547,N,11729.8114,W,57.262,326.725,160910,0,W,A*13
$GPRMC,173019.52,A,3347.4955,N,11729.8428,W,58.711,327.464,160910,0,W,A*10
$GPRMC,173022.52,A,3347.5363,N,11729.8744,W,57.846,326.786,160910,0,W,A*13
$GPRMC,173025.52,A,3347.5771,N,11729.9062,W,59.005,327.240,160910,0,W,A*1E
$GPRMC,173028.52,A,3347.6182,N,11729.9377,W,58.435,327.009,160910,0,W,A*14
