NMEA Sentence Code,UTC Time,Status,Latitude,Latitude Direction,Longitude,Longitude Direction,Speed (knots),Track Angle (degrees true),Date,MagneticVariation,Magnetic Variation Direction,[FAA Mode]-Optional,Checksum
$GPRMC,150412.2,A,3244.454002,N,11712.922427,W,32.6,216.3,280610,,,A*4B
$GPRMC,150415.2,A,3244.451587,N,11712.919806,W,33.4,215.8,280610,,,A*4D
$GPRMC,150421.2,A,3244.402815,N,11712.968208,W,33.2,216.7,280610,,,A*42
$GPRMC,150424.2,A,3244.379380,N,11712.987481,W,32.4,217.7,280610,,,A*4B
$GPRMC,150427.2,A,3244.363489,N,11713.006318,W,29.6,215.7,280610,,,A*41
$GPRMC,150430.2,A,3244.343537,N,11713.019760,W,29.0,207.8,280610,,,A*4E
$GPRMC,150433.2,A,3244.323688,N,11713.024415,W,25.8,199.0,280610,,,A*4B
$GPRMC,150436.2,A,3244.321335,N,11713.026078,W,16.6,199.4,280610,,,A*48
$GPRMC,150439.2,A,3244.322136,N,11713.026379,W,10.2,200.3,280610,,,A*41
$GPRMC,150451.2,A,3244.333428,N,11713.026147,W,5.8,237.8,280610,,,A*7B
$GPRMC,150454.2,A,3244.323395,N,11713.036894,W,12.0,225.9,280610,,,A*44
$GPRMC,150457.2,A,3244.309850,N,11713.051185,W,16.9,224.3,280610,,,A*43
$GPRMC,150500.2,A,3244.290485,N,11713.069448,W,21.7,222.0,280610,,,A*45
$GPRMC,150503.2,A,3244.254331,N,11713.097740,W,33.4,215.1,280610,,,A*49
$GPRMC,150506.2,A,3244.229868,N,11713.119984,W,35.2,215.8,280610,,,A*49
$GPRMC,150509.2,A,3244.209123,N,11713.138956,W,35.2,217.7,280610,,,A*43
$GPRMC,150512.2,A,3244.179645,N,11713.162608,W,36.7,215.5,280610,,,A*47
$GPRMC,150515.2,A,3244.153708,N,11713.185567,W,36.6,218.0,280610,,,A*4A
$GPRMC,150518.2,A,3244.129672,N,11713.206528,W,36.1,214.7,280610,,,A*49
$GPRMC,150521.2,A,3244.100657,N,11713.229188,W,37.2,214.8,280610,,,A*41
$GPRMC,150524.2,A,3244.075692,N,11713.249390,W,36.7,214.1,280610,,,A*4E
$GPRMC,150527.2,A,3244.051206,N,11713.269613,W,36.4,214.8,280610,,,A*44
$GPRMC,150530.2,A,3244.027611,N,11713.293828,W,35.8,214.7,280610,,,A*42
$GPRMC,150533.2,A,3244.003707,N,11713.313411,W,36.4,215.1,280610,,,A*46
$GPRMC,150536.2,A,3243.981815,N,11713.335446,W,35.9,215.3,280610,,,A*41
$GPRMC,150539.2,A,3243.961515,N,11713.354410,W,33.7,217.1,280610,,,A*41
$GPRMC,150542.2,A,3243.941111,N,11713.372941,W,31.9,216.8,280610,,,A*46
$GPRMC,150545.2,A,3243.919365,N,11713.392001,W,32.0,215.1,280610,,,A*4E
$GPRMC,150548.2,A,3243.897030,N,11713.404281,W,31.4,212.5,280610,,,A*41
$GPRMC,150551.2,A,3243.874404,N,11713.417873,W,31.2,213.8,280610,,,A*48
$GPRMC,150554.2,A,3243.852114,N,11713.434749,W,31.1,212.1,280610,,,A*41
$GPRMC,150557.2,A,3243.836479,N,11713.449775,W,29.1,215.5,280610,,,A*41
$GPRMC,150600.2,A,3243.815636,N,11713.466413,W,29.1,215.1,280610,,,A*42
$GPRMC,150603.2,A,3243.793287,N,11713.485226,W,27.8,215.4,280610,,,A*41
$GPRMC,150606.2,A,3243.774788,N,11713.499849,W,26.6,213.8,280610,,,A*4C
$GPRMC,150609.2,A,3243.754063,N,11713.515993,W,27.2,217.2,280610,,,A*4B
$GPRMC,150612.2,A,3243.739014,N,11713.530592,W,26.1,215.6,280610,,,A*44
$GPRMC,150615.2,A,3243.720469,N,11713.546963,W,27.1,216.9,280610,,,A*4B
$GPRMC,150618.2,A,3243.702002,N,11713.563560,W,28.1,216.3,280610,,,A*42
$GPRMC,150621.2,A,3243.682234,N,11713.581300,W,30.2,216.2,280610,,,A*41
$GPRMC,150624.2,A,3243.660922,N,11713.597745,W,30.6,214.3,280610,,,A*41
$GPRMC,150627.2,A,3243.642509,N,11713.613566,W,29.3,213.9,280610,,,A*4B
$GPRMC,150630.2,A,3243.622849,N,11713.631723,W,28.3,215.8,280610,,,A*47
$GPRMC,150633.2,A,3243.604850,N,11713.646039,W,27.1,215.1,280610,,,A*40
$GPRMC,150636.2,A,3243.587638,N,11713.659483,W,25.9,214.0,280610,,,A*4C
$GPRMC,150639.2,A,3243.568777,N,11713.675962,W,26.6,215.1,280610,,,A*48
$GPRMC,150642.2,A,3243.552773,N,11713.692292,W,26.5,215.6,280610,,,A*40
$GPRMC,150645.2,A,3243.536249,N,11713.708047,W,27.5,217.1,280610,,,A*45
$GPRMC,150648.2,A,3243.518700,N,11713.724629,W,28.2,216.8,280610,,,A*4C
$GPRMC,150651.2,A,3243.496939,N,11713.740996,W,28.5,216.3,280610,,,A*42
$GPRMC,150654.2,A,3243.477714,N,11713.753706,W,26.6,212.7,280610,,,A*41
$GPRMC,150657.2,A,3243.462131,N,11713.766927,W,24.7,212.6,280610,,,A*4E
$GPRMC,150700.2,A,3243.447550,N,11713.781040,W,24.3,215.3,280610,,,A*4E
$GPRMC,150703.2,A,3243.432058,N,11713.795632,W,23.0,214.6,280610,,,A*44
$GPRMC,150706.2,A,3243.417821,N,11713.808313,W,22.7,214.0,280610,,,A*4D
$GPRMC,150709.2,A,3243.405876,N,11713.818902,W,19.6,213.6,280610,,,A*40
$GPRMC,150712.2,A,3243.397408,N,11713.826698,W,15.4,212.1,280610,,,A*4A
$GPRMC,150715.2,A,3243.392265,N,11713.833292,W,13.1,216.8,280610,,,A*41
$GPRMC,150718.2,A,3243.381931,N,11713.842632,W,14.6,217.4,280610,,,A*41
$GPRMC,150721.2,A,3243.371934,N,11713.851225,W,15.1,216.7,280610,,,A*45
$GPRMC,150724.2,A,3243.361627,N,11713.859712,W,17.2,216.1,280610,,,A*42
$GPRMC,150727.2,A,3243.347599,N,11713.870724,W,19.7,214.9,280610,,,A*4C
$GPRMC,150730.2,A,3243.328942,N,11713.882722,W,21.3,211.2,280610,,,A*43
$GPRMC,150733.2,A,3243.311086,N,11713.898364,W,24.6,215.2,280610,,,A*42
$GPRMC,150736.2,A,3243.293963,N,11713.912405,W,24.7,214.1,280610,,,A*4E
$GPRMC,150739.2,A,3243.277884,N,11713.925412,W,24.6,212.4,280610,,,A*43
$GPRMC,150742.2,A,3243.266655,N,11713.932080,W,20.9,210.9,280610,,,A*40
$GPRMC,150745.2,A,3243.253147,N,11713.942285,W,18.6,210.7,280610,,,A*4F
$GPRMC,150748.2,A,3243.243668,N,11713.950399,W,16.1,212.6,280610,,,A*4C
$GPRMC,150751.2,A,3243.233820,N,11713.960719,W,17.5,216.0,280610,,,A*49
$GPRMC,150754.2,A,3243.219642,N,11713.972992,W,20.1,218.9,280610,,,A*47
$GPRMC,150757.2,A,3243.206398,N,11713.986525,W,20.3,221.1,280610,,,A*43
$GPRMC,150800.2,A,3243.195846,N,11714.003110,W,20.3,228.1,280610,,,A*47
$GPRMC,150803.2,A,3243.182973,N,11714.018152,W,21.0,229.7,280610,,,A*4C
$GPRMC,150806.2,A,3243.170847,N,11714.034004,W,21.6,232.6,280610,,,A*43
$GPRMC,150809.2,A,3243.150106,N,11714.057694,W,28.0,229.5,280610,,,A*4E
$GPRMC,150812.2,A,3243.134561,N,11714.079900,W,28.9,231.0,280610,,,A*48
$GPRMC,150815.2,A,3243.119233,N,11714.101866,W,28.5,230.1,280610,,,A*43
$GPRMC,150818.2,A,3243.101479,N,11714.123847,W,29.1,229.4,280610,,,A*44
$GPRMC,150821.2,A,3243.089934,N,11714.140668,W,26.3,224.7,280610,,,A*4E
$GPRMC,150824.2,A,3243.069661,N,11714.153171,W,25.3,210.3,280610,,,A*47
$GPRMC,150827.2,A,3243.048652,N,11714.161014,W,25.1,194.8,280610,,,A*42
$GPRMC,150830.2,A,3243.028892,N,11714.165344,W,24.9,190.8,280610,,,A*4F
$GPRMC,150833.2,A,3243.008768,N,11714.170295,W,24.7,191.9,280610,,,A*43
$GPRMC,150836.2,A,3242.990233,N,11714.175365,W,24.1,193.5,280610,,,A*47
$GPRMC,150839.2,A,3242.965687,N,11714.182995,W,25.2,195.4,280610,,,A*41
$GPRMC,150842.2,A,3242.935046,N,11714.195278,W,27.2,198.4,280610,,,A*42
$GPRMC,150845.2,A,3242.917523,N,11714.201497,W,24.3,198.0,280610,,,A*4C
$GPRMC,150848.2,A,3242.899196,N,11714.207529,W,23.9,195.4,280610,,,A*4A
$GPRMC,150851.2,A,3242.878140,N,11714.215503,W,24.3,195.8,280610,,,A*4C
$GPRMC,150854.2,A,3242.859441,N,11714.221945,W,24.1,198.9,280610,,,A*49
$GPRMC,150857.2,A,3242.836555,N,11714.233578,W,25.8,202.5,280610,,,A*42
$GPRMC,150900.2,A,3242.812768,N,11714.243837,W,26.6,203.8,280610,,,A*4B
$GPRMC,150903.2,A,3242.792080,N,11714.252983,W,26.4,203.3,280610,,,A*49
$GPRMC,150906.2,A,3242.771485,N,11714.262988,W,25.8,198.8,280610,,,A*4D
$GPRMC,150909.2,A,3242.748732,N,11714.275884,W,26.5,198.3,280610,,,A*49
$GPRMC,150912.2,A,3242.728305,N,11714.282978,W,26.3,198.5,280610,,,A*4F
$GPRMC,150915.2,A,3242.707969,N,11714.290929,W,26.1,197.6,280610,,,A*4C
$GPRMC,150918.2,A,3242.689129,N,11714.290005,W,25.5,194.2,280610,,,A*4D
$GPRMC,150921.2,A,3242.668947,N,11714.295647,W,25.4,193.7,280610,,,A*4E
$GPRMC,150924.2,A,3242.648859,N,11714.296977,W,25.4,191.2,280610,,,A*4F
$GPRMC,150930.2,A,3242.607600,N,11714.300195,W,25.0,189.1,280610,,,A*47
$GPRMC,150933.2,A,3242.587105,N,11714.305714,W,24.8,193.2,280610,,,A*46
$GPRMC,150936.2,A,3242.568152,N,11714.310946,W,24.5,192.9,280610,,,A*4A
$GPRMC,150939.2,A,3242.540659,N,11714.325084,W,25.6,198.3,280610,,,A*40
$GPRMC,150942.2,A,3242.522792,N,11714.331771,W,25.4,199.5,280610,,,A*43
$GPRMC,150945.2,A,3242.504613,N,11714.337361,W,25.1,196.7,280610,,,A*43
$GPRMC,150948.2,A,3242.483884,N,11714.344318,W,25.1,194.0,280610,,,A*4F
$GPRMC,150951.2,A,3242.457176,N,11714.352107,W,25.5,193.4,280610,,,A*46
$GPRMC,150954.2,A,3242.440277,N,11714.357078,W,25.0,193.5,280610,,,A*4F
$GPRMC,150957.2,A,3242.435764,N,11714.354485,W,25.0,190.6,280610,,,A*4C
$GPRMC,151000.2,A,3242.417940,N,11714.357498,W,21.9,188.6,280610,,,A*45
$GPRMC,151003.2,A,3242.408400,N,11714.359168,W,16.2,188.1,280610,,,A*4D
$GPRMC,151006.2,A,3242.410863,N,11714.355719,W,7.0,181.7,280610,,,A*79
$GPRMC,151009.2,A,3242.403284,N,11714.357126,W,5.6,171.8,280610,,,A*7B
$GPRMC,151012.2,A,3242.396825,N,11714.353982,W,6.6,150.3,280610,,,A*72
$GPRMC,151015.2,A,3242.394956,N,11714.346223,W,7.3,110.4,280610,,,A*71
$GPRMC,151018.2,A,3242.394836,N,11714.337661,W,7.9,99.1,280610,,,A*40
$GPRMC,151021.2,A,3242.394374,N,11714.330549,W,6.5,96.7,280610,,,A*4D
$GPRMC,151024.2,A,3242.390381,N,11714.327266,W,5.5,119.1,280610,,,A*79
$GPRMC,151027.2,A,3242.378827,N,11714.328481,W,7.5,164.1,280610,,,A*73
$GPRMC,151030.2,A,3242.366338,N,11714.324117,W,9.7,161.0,280610,,,A*71
$GPRMC,151033.2,A,3242.362790,N,11714.317439,W,6.2,127.6,280610,,,A*77
$GPRMC,151036.2,A,3242.368867,N,11714.317187,W,4.9,13.4,280610,,,A*42
$GPRMC,151039.2,A,3242.377457,N,11714.319386,W,9.3,348.8,280610,,,A*77
$GPRMC,151042.2,A,3242.388234,N,11714.319855,W,10.0,356.9,280610,,,A*48
$GPRMC,151045.2,A,3242.394302,N,11714.319621,W,8.0,4.1,280610,,,A*7E
$GPRMC,151048.2,A,3242.402280,N,11714.323916,W,10.6,320.6,280610,,,A*4F
$GPRMC,151051.2,A,3242.404789,N,11714.336217,W,13.4,296.2,280610,,,A*4A
$GPRMC,151054.2,A,3242.408820,N,11714.342985,W,8.1,297.2,280610,,,A*72
$GPRMC,151057.2,A,3242.416226,N,11714.347932,W,8.7,323.8,280610,,,A*79
$GPRMC,151100.2,A,3242.426578,N,11714.349464,W,10.6,348.0,280610,,,A*48
$GPRMC,151103.2,A,3242.447565,N,11714.349204,W,16.2,351.4,280610,,,A*4E
$GPRMC,151106.2,A,3242.475218,N,11714.341228,W,25.0,7.6,280610,,,A*41
$GPRMC,151109.2,A,3242.502358,N,11714.332144,W,29.5,13.9,280610,,,A*74
$GPRMC,151112.2,A,3242.529283,N,11714.324796,W,30.8,13.6,280610,,,A*74
$GPRMC,151115.2,A,3242.557108,N,11714.316731,W,32.3,12.1,280610,,,A*79
$GPRMC,151118.2,A,3242.586453,N,11714.310659,W,33.4,11.7,280610,,,A*79
$GPRMC,151121.2,A,3242.613701,N,11714.303930,W,33.7,12.6,280610,,,A*7B
$GPRMC,151124.2,A,3242.640668,N,11714.298693,W,33.2,10.1,280610,,,A*73
$GPRMC,151127.2,A,3242.669967,N,11714.291495,W,32.9,13.6,280610,,,A*78
$GPRMC,151130.2,A,3242.698450,N,11714.281802,W,34.1,13.5,280610,,,A*77
$GPRMC,151133.2,A,3242.725071,N,11714.273885,W,33.4,14.0,280610,,,A*76
$GPRMC,151136.2,A,3242.752397,N,11714.264504,W,33.9,14.8,280610,,,A*7F
$GPRMC,151139.2,A,3242.782299,N,11714.257531,W,33.7,13.9,280610,,,A*7C
$GPRMC,151142.2,A,3242.805092,N,11714.252781,W,31.0,17.4,280610,,,A*79
$GPRMC,151145.2,A,3242.828024,N,11714.242108,W,31.8,20.7,280610,,,A*75
$GPRMC,151148.2,A,3242.851634,N,11714.229747,W,31.9,23.0,280610,,,A*74
$GPRMC,151151.2,A,3242.878205,N,11714.218707,W,33.2,19.1,280610,,,A*76
$GPRMC,151154.2,A,3242.907281,N,11714.206240,W,36.3,18.0,280610,,,A*7B
$GPRMC,151157.2,A,3242.936020,N,11714.194897,W,37.2,18.3,280610,,,A*78
$GPRMC,151200.2,A,3242.967115,N,11714.180958,W,40.2,19.3,280610,,,A*7C
$GPRMC,151203.2,A,3242.995746,N,11714.171462,W,39.0,15.5,280610,,,A*7E
$GPRMC,151206.2,A,3243.024181,N,11714.163791,W,38.3,12.8,280610,,,A*70
$GPRMC,151209.2,A,3243.054956,N,11714.155712,W,36.3,12.7,280610,,,A*75
$GPRMC,151212.2,A,3243.077020,N,11714.146527,W,30.7,19.5,280610,,,A*7B
$GPRMC,151215.2,A,3243.099403,N,11714.130452,W,32.5,33.4,280610,,,A*72
$GPRMC,151218.2,A,3243.118242,N,11714.111118,W,31.8,38.9,280610,,,A*74
$GPRMC,151221.2,A,3243.137414,N,11714.079242,W,34.6,48.6,280610,,,A*76
$GPRMC,151224.2,A,3243.156514,N,11714.053042,W,34.4,49.0,280610,,,A*7A
$GPRMC,151227.2,A,3243.173199,N,11714.028957,W,32.1,48.9,280610,,,A*75
$GPRMC,151230.2,A,3243.186227,N,11714.007869,W,27.3,48.8,280610,,,A*79
$GPRMC,151233.2,A,3243.200381,N,11713.990159,W,23.2,45.5,280610,,,A*75
$GPRMC,151236.2,A,3243.205664,N,11713.981283,W,14.5,43.1,280610,,,A*7E
$GPRMC,151239.2,A,3243.210138,N,11713.976489,W,7.6,35.4,280610,,,A*4A
$GPRMC,151257.2,A,3243.211789,N,11713.969769,W,6.2,72.4,280610,,,A*4A
$GPRMC,151300.2,A,3243.220112,N,11713.959240,W,10.2,60.2,280610,,,A*70
$GPRMC,151303.2,A,3243.240515,N,11713.943343,W,18.1,41.6,280610,,,A*73
$GPRMC,151306.2,A,3243.252054,N,11713.933381,W,17.0,37.2,280610,,,A*77
$GPRMC,151309.2,A,3243.272252,N,11713.921589,W,22.6,35.1,280610,,,A*72
$GPRMC,151312.2,A,3243.293653,N,11713.905614,W,26.3,36.4,280610,,,A*74
$GPRMC,151315.2,A,3243.313748,N,11713.890231,W,28.5,35.3,280610,,,A*73
$GPRMC,151318.2,A,3243.335154,N,11713.873268,W,29.1,35.9,280610,,,A*7F
$GPRMC,151321.2,A,3243.351860,N,11713.856092,W,28.0,36.9,280610,,,A*7A
$GPRMC,151324.2,A,3243.371055,N,11713.840176,W,28.8,34.8,280610,,,A*74
$GPRMC,151327.2,A,3243.392496,N,11713.823639,W,29.6,34.5,280610,,,A*7A
$GPRMC,151330.2,A,3243.414046,N,11713.806754,W,30.5,34.8,280610,,,A*77
$GPRMC,151333.2,A,3243.434549,N,11713.789025,W,30.3,34.5,280610,,,A*7E
$GPRMC,151336.2,A,3243.456654,N,11713.771606,W,30.7,35.7,280610,,,A*77
$GPRMC,151339.2,A,3243.475642,N,11713.753661,W,30.7,35.3,280610,,,A*7B
$GPRMC,151342.2,A,3243.494427,N,11713.734570,W,30.3,36.7,280610,,,A*78
$GPRMC,151345.2,A,3243.516022,N,11713.717662,W,29.6,37.9,280610,,,A*76
$GPRMC,151348.2,A,3243.535880,N,11713.702335,W,28.9,36.4,280610,,,A*7B
$GPRMC,151351.2,A,3243.555051,N,11713.684561,W,29.9,36.1,280610,,,A*7D
$GPRMC,151354.2,A,3243.575586,N,11713.668295,W,29.8,35.8,280610,,,A*70
$GPRMC,151357.2,A,3243.596069,N,11713.649546,W,30.8,38.3,280610,,,A*7E
$GPRMC,151400.2,A,3243.620489,N,11713.629733,W,32.7,36.6,280610,,,A*7F
$GPRMC,151403.2,A,3243.642152,N,11713.610999,W,32.4,35.9,280610,,,A*70
$GPRMC,151406.2,A,3243.663381,N,11713.593123,W,31.5,35.2,280610,,,A*72
$GPRMC,151409.2,A,3243.684441,N,11713.574671,W,31.7,34.8,280610,,,A*7F
$GPRMC,151412.2,A,3243.704942,N,11713.557244,W,31.2,35.3,280610,,,A*7E
$GPRMC,151415.2,A,3243.722196,N,11713.541980,W,29.1,36.1,280610,,,A*73
$GPRMC,151418.2,A,3243.741113,N,11713.524774,W,29.0,36.5,280610,,,A*75
$GPRMC,151421.2,A,3243.753095,N,11713.510773,W,25.9,35.6,280610,,,A*76
$GPRMC,151424.2,A,3243.778918,N,11713.490769,W,30.3,36.6,280610,,,A*79
$GPRMC,151427.2,A,3243.800107,N,11713.472269,W,30.3,36.0,280610,,,A*73
$GPRMC,151430.2,A,3243.819747,N,11713.454887,W,30.5,36.5,280610,,,A*72
$GPRMC,151433.2,A,3243.838234,N,11713.436581,W,30.1,38.2,280610,,,A*71
$GPRMC,151436.2,A,3243.857437,N,11713.419839,W,29.4,36.6,280610,,,A*7C
$GPRMC,151439.2,A,3243.878904,N,11713.400814,W,32.0,37.5,280610,,,A*78
$GPRMC,151442.2,A,3243.901711,N,11713.380139,W,34.5,36.9,280610,,,A*76
$GPRMC,151445.2,A,3243.929201,N,11713.356397,W,36.3,39.4,280610,,,A*74
$GPRMC,151448.2,A,3243.950700,N,11713.335734,W,36.3,38.1,280610,,,A*7F
$GPRMC,151451.2,A,3243.976911,N,11713.314798,W,37.2,35.7,280610,,,A*73
$GPRMC,151454.2,A,3244.004763,N,11713.294199,W,37.2,34.2,280610,,,A*7C
$GPRMC,151457.2,A,3244.028990,N,11713.274644,W,36.3,34.8,280610,,,A*70
$GPRMC,151500.2,A,3244.054946,N,11713.255404,W,35.3,33.9,280610,,,A*73
$GPRMC,151503.2,A,3244.078644,N,11713.235449,W,36.0,35.8,280610,,,A*7B
$GPRMC,151506.2,A,3244.103850,N,11713.214673,W,36.4,35.8,280610,,,A*74
$GPRMC,151509.2,A,3244.127564,N,11713.193028,W,36.4,36.2,280610,,,A*7A
$GPRMC,151512.2,A,3244.151677,N,11713.173710,W,35.8,34.3,280610,,,A*7E
$GPRMC,151515.2,A,3244.176344,N,11713.154308,W,35.6,33.9,280610,,,A*72
$GPRMC,151518.2,A,3244.198228,N,11713.137074,W,34.2,34.2,280610,,,A*70
$GPRMC,151521.2,A,3244.219301,N,11713.118545,W,33.1,35.3,280610,,,A*74
$GPRMC,151524.2,A,3244.239890,N,11713.100799,W,32.5,35.3,280610,,,A*7F
$GPRMC,151527.2,A,3244.261339,N,11713.082358,W,32.3,34.9,280610,,,A*76
$GPRMC,151530.2,A,3244.285129,N,11713.062924,W,32.3,34.4,280610,,,A*7B
$GPRMC,151533.2,A,3244.297292,N,11713.048507,W,29.8,35.4,280610,,,A*7D
$GPRMC,151536.2,A,3244.317666,N,11713.033051,W,29.8,35.0,280610,,,A*70
$GPRMC,151539.2,A,3244.328907,N,11713.018710,W,28.0,36.7,280610,,,A*7D
$GPRMC,151542.2,A,3244.346918,N,11713.002020,W,28.1,37.5,280610,,,A*7A
$GPRMC,151545.2,A,3244.368035,N,11712.983690,W,28.4,37.4,280610,,,A*7F
$GPRMC,151548.2,A,3244.393424,N,11712.963253,W,30.2,37.9,280610,,,A*75
$GPRMC,151551.2,A,3244.411394,N,11712.945605,W,29.8,38.1,280610,,,A*7A
$GPRMC,151554.2,A,3244.430231,N,11712.927367,W,29.5,37.2,280610,,,A*76
$GPRMC,151557.2,A,3244.453678,N,11712.908830,W,30.3,37.5,280610,,,A*74
$GPRMC,151600.2,A,3244.481034,N,11712.887685,W,31.5,37.5,280610,,,A*75
$GPRMC,151603.2,A,3244.493916,N,11712.871748,W,29.0,38.1,280610,,,A*72
$GPRMC,151606.2,A,3244.512519,N,11712.856767,W,28.3,35.6,280610,,,A*7C
$GPRMC,151609.2,A,3244.528461,N,11712.841280,W,27.6,36.0,280610,,,A*71
$GPRMC,151612.2,A,3244.544169,N,11712.826069,W,26.6,34.6,280610,,,A*7D
$GPRMC,151615.2,A,3244.597952,N,11712.798993,W,27.7,34.4,280610,,,A*70
$GPRMC,151618.2,A,3244.612544,N,11712.784929,W,26.1,34.7,280610,,,A*70
$GPRMC,151621.2,A,3244.631556,N,11712.767622,W,25.2,35.1,280610,,,A*76
$GPRMC,151624.2,A,3244.647481,N,11712.754066,W,24.9,35.2,280610,,,A*76
$GPRMC,151627.2,A,3244.664646,N,11712.734894,W,26.7,36.8,280610,,,A*7B
$GPRMC,151630.2,A,3244.685869,N,11712.716543,W,28.9,35.6,280610,,,A*7B
$GPRMC,151633.2,A,3244.707669,N,11712.699135,W,30.7,35.5,280610,,,A*7A
$GPRMC,151636.2,A,3244.725535,N,11712.682215,W,29.9,37.4,280610,,,A*7B
$GPRMC,151639.2,A,3244.744269,N,11712.663694,W,30.1,41.0,280610,,,A*7A
$GPRMC,151642.2,A,3244.764322,N,11712.644099,W,31.5,42.2,280610,,,A*70
$GPRMC,151645.2,A,3244.780066,N,11712.622735,W,31.6,49.8,280610,,,A*7D
$GPRMC,151648.2,A,3244.796563,N,11712.597658,W,31.7,51.7,280610,,,A*77
$GPRMC,151651.2,A,3244.812503,N,11712.575529,W,30.6,51.0,280610,,,A*74
$GPRMC,151654.2,A,3244.821570,N,11712.555640,W,25.9,51.5,280610,,,A*75
$GPRMC,151657.2,A,3244.828367,N,11712.540428,W,20.5,60.2,280610,,,A*7B
$GPRMC,151700.2,A,3244.832788,N,11712.523121,W,19.9,66.9,280610,,,A*74
$GPRMC,151703.2,A,3244.837753,N,11712.505079,W,19.8,66.4,280610,,,A*70
$GPRMC,151706.2,A,3244.833743,N,11712.506434,W,8.9,63.8,280610,,,A*46
$GPRMC,151709.2,A,3244.823908,N,11712.505171,W,7.0,98.6,280610,,,A*42
$GPRMC,151712.2,A,3244.806703,N,11712.496287,W,14.9,118.3,280610,,,A*4C
$GPRMC,151715.2,A,3244.795199,N,11712.486456,W,17.6,123.6,280610,,,A*41
$GPRMC,151718.2,A,3244.786381,N,11712.472033,W,18.0,124.7,280610,,,A*46
$GPRMC,151721.2,A,3244.779412,N,11712.460110,W,14.4,125.6,280610,,,A*4A
$GPRMC,151724.2,A,3244.772366,N,11712.452881,W,10.3,129.7,280610,,,A*4E
$GPRMC,151727.2,A,3244.766996,N,11712.445177,W,10.3,130.5,280610,,,A*41
$GPRMC,151730.2,A,3244.759935,N,11712.433341,W,13.8,124.1,280610,,,A*4D
$GPRMC,151733.2,A,3244.755046,N,11712.420860,W,16.7,114.6,280610,,,A*4B
$GPRMC,151736.2,A,3244.747084,N,11712.408721,W,15.2,126.9,280610,,,A*4B
$GPRMC,151739.2,A,3244.737542,N,11712.403052,W,12.7,149.6,280610,,,A*40
$GPRMC,151742.2,A,3244.727161,N,11712.399119,W,13.1,161.8,280610,,,A*41
$GPRMC,151745.2,A,3244.717073,N,11712.394751,W,12.4,160.6,280610,,,A*4B
$GPRMC,151748.2,A,3244.715101,N,11712.395140,W,6.7,167.8,280610,,,A*78
$GPRMC,151754.2,A,3244.707056,N,11712.392120,W,6.9,153.1,280610,,,A*74
$GPRMC,151757.2,A,3244.699676,N,11712.388679,W,11.0,151.8,280610,,,A*41
$GPRMC,151800.2,A,3244.684704,N,11712.383440,W,15.9,156.5,280610,,,A*40
$GPRMC,151803.2,A,3244.664746,N,11712.378035,W,19.7,162.8,280610,,,A*41
$GPRMC,151806.2,A,3244.645939,N,11712.371081,W,20.7,162.6,280610,,,A*43
$GPRMC,151809.2,A,3244.632648,N,11712.366062,W,19.0,164.2,280610,,,A*41
$GPRMC,151812.2,A,3244.628895,N,11712.365156,W,9.5,176.0,280610,,,A*7E
$GPRMC,151815.2,A,3244.621501,N,11712.364466,W,8.1,164.4,280610,,,A*75
$GPRMC,151824.2,A,3244.628693,N,11712.365313,W,6.8,336.3,280610,,,A*77
$GPRMC,151827.2,A,3244.636755,N,11712.369142,W,10.4,337.0,280610,,,A*43
$GPRMC,151830.2,A,3244.650204,N,11712.375170,W,15.1,338.1,280610,,,A*46
$GPRMC,151833.2,A,3244.665623,N,11712.380278,W,17.5,345.8,280610,,,A*46
$GPRMC,151836.2,A,3244.683214,N,11712.384018,W,18.5,345.1,280610,,,A*4D
$GPRMC,151839.2,A,3244.695898,N,11712.388435,W,15.1,346.0,280610,,,A*47
$GPRMC,151842.2,A,3244.702669,N,11712.389065,W,8.9,354.3,280610,,,A*70
$GPRMC,151845.2,A,3244.704498,N,11712.388061,W,6.8,29.5,280610,,,A*48
$GPRMC,151848.2,A,3244.706359,N,11712.382622,W,6.7,58.7,280610,,,A*4D
$GPRMC,151851.2,A,3244.709340,N,11712.370128,W,11.5,72.8,280610,,,A*71
$GPRMC,151854.2,A,3244.709014,N,11712.355147,W,14.5,84.1,280610,,,A*7D
$GPRMC,151857.2,A,3244.709434,N,11712.339947,W,15.0,85.1,280610,,,A*7F
$GPRMC,151907.2,A,3244.707396,N,11712.275370,W,18.3,117.7,280610,,,A*4F
$GPRMC,151910.2,A,3244.698181,N,11712.259740,W,20.6,123.6,280610,,,A*4B
$GPRMC,151913.2,A,3244.688012,N,11712.242360,W,21.2,121.7,280610,,,A*48
$GPRMC,151916.2,A,3244.679114,N,11712.224689,W,21.0,121.4,280610,,,A*47
$GPRMC,151919.2,A,3244.669121,N,11712.206974,W,21.4,122.2,280610,,,A*43
$GPRMC,151922.2,A,3244.660530,N,11712.191901,W,19.8,123.2,280610,,,A*4F
$GPRMC,151925.2,A,3244.651564,N,11712.175503,W,19.8,123.2,280610,,,A*4F
$GPRMC,151928.2,A,3244.643208,N,11712.158840,W,19.6,123.0,280610,,,A*45
$GPRMC,151930.2,A,3244.635432,N,11712.169408,W,13.3,139.8,280610,,,A*4C
$GPRMC,151931.2,A,3244.632414,N,11712.182278,W,10.5,158.9,280610,,,A*49
$GPRMC,151934.2,A,3244.633972,N,11712.188144,W,6.2,174.0,280610,,,A*71
$GPRMC,151937.2,A,3244.630408,N,11712.189875,W,5.8,188.5,280610,,,A*74
$GPRMC,151940.2,A,3244.625748,N,11712.192852,W,6.0,204.0,280610,,,A*71
$GPRMC,151943.2,A,3244.621494,N,11712.201190,W,9.1,239.2,280610,,,A*78
$GPRMC,151950.2,A,3244.558551,N,11712.249639,W,21.9,224.1,280610,,,A*4A
$GPRMC,151953.2,A,3244.543250,N,11712.266891,W,22.8,225.8,280610,,,A*4E
$GPRMC,152002.2,A,3244.526037,N,11712.352183,W,26.8,241.9,280610,,,A*4B
$GPRMC,152010.2,A,3244.533170,N,11712.463132,W,29.3,252.5,280610,,,A*4B
$GPRMC,152022.2,A,3244.559343,N,11712.535018,W,14.5,262.3,280610,,,A*42
$GPRMC,152025.2,A,3244.568159,N,11712.549914,W,14.8,278.6,280610,,,A*43
$GPRMC,152028.2,A,3244.568543,N,11712.565957,W,15.9,276.8,280610,,,A*48
$GPRMC,152031.2,A,3244.569948,N,11712.581487,W,16.1,277.2,280610,,,A*4C
$GPRMC,152034.2,A,3244.574261,N,11712.595346,W,16.0,285.5,280610,,,A*41
$GPRMC,152040.2,A,3244.590496,N,11712.616823,W,22.1,301.8,280610,,,A*40
$GPRMC,152043.2,A,3244.594314,N,11712.638312,W,24.0,300.6,280610,,,A*47
$GPRMC,152046.2,A,3244.601461,N,11712.661741,W,24.5,298.1,280610,,,A*44
$GPRMC,152049.2,A,3244.610916,N,11712.681368,W,22.1,298.5,280610,,,A*41
$GPRMC,152052.2,A,3244.619993,N,11712.699603,W,20.6,297.7,280610,,,A*46
$GPRMC,152055.2,A,3244.629649,N,11712.711060,W,18.1,302.9,280610,,,A*47
$GPRMC,152058.2,A,3244.635024,N,11712.721664,W,14.6,304.2,280610,,,A*4D
$GPRMC,152101.2,A,3244.647755,N,11712.728415,W,14.0,314.0,280610,,,A*4C
$GPRMC,152104.2,A,3244.653462,N,11712.734819,W,11.8,312.3,280610,,,A*4E
$GPRMC,152107.2,A,3244.652653,N,11712.736110,W,6.2,311.6,280610,,,A*74
$GPRMC,152157.2,A,3244.653693,N,11712.706705,W,5.1,29.6,280610,,,A*45
$GPRMC,152200.2,A,3244.657566,N,11712.704447,W,5.1,28.0,280610,,,A*49
$GPRMC,152203.2,A,3244.661274,N,11712.701916,W,5.1,29.3,280610,,,A*45
$GPRMC,152209.2,A,3244.669147,N,11712.696684,W,5.5,29.4,280610,,,A*4C
$GPRMC,152212.2,A,3244.670242,N,11712.694611,W,5.0,30.5,280610,,,A*4A
$GPRMC,152332.2,A,3244.641133,N,11712.728022,W,4.5,287.6,280610,,,A*77
$GPRMC,152335.2,A,3244.644626,N,11712.734894,W,7.2,290.5,280610,,,A*7F
$GPRMC,152338.2,A,3244.651162,N,11712.745046,W,10.4,295.8,280610,,,A*48
$GPRMC,152341.2,A,3244.658666,N,11712.759219,W,15.8,296.6,280610,,,A*4D
$GPRMC,152344.2,A,3244.671451,N,11712.777913,W,21.0,303.7,280610,,,A*4B
$GPRMC,152347.2,A,3244.683226,N,11712.795290,W,20.8,305.9,280610,,,A*4E
$GPRMC,152350.2,A,3244.690314,N,11712.809532,W,15.7,303.2,280610,,,A*4B
$GPRMC,152353.2,A,3244.687807,N,11712.814240,W,5.9,285.7,280610,,,A*7C
$GPRMC,152359.2,A,3244.687851,N,11712.806807,W,4.9,95.0,280610,,,A*4A
$GPRMC,152402.2,A,3244.686623,N,11712.799735,W,8.1,103.3,280610,,,A*77
$GPRMC,152405.2,A,3244.683000,N,11712.785736,W,15.6,108.2,280610,,,A*4D
$GPRMC,152408.2,A,3244.676255,N,11712.768643,W,18.7,112.8,280610,,,A*45
$GPRMC,152411.2,A,3244.670172,N,11712.752022,W,18.3,112.9,280610,,,A*40
$GPRMC,152414.2,A,3244.669144,N,11712.738912,W,11.7,85.7,280610,,,A*72
$GPRMC,152417.2,A,3244.680673,N,11712.725748,W,17.6,45.7,280610,,,A*73
$GPRMC,152420.2,A,3244.698747,N,11712.709820,W,24.3,37.9,280610,,,A*79
$GPRMC,152423.2,A,3244.717264,N,11712.693172,W,28.4,38.2,280610,,,A*7B
$GPRMC,152426.2,A,3244.738338,N,11712.674371,W,30.7,40.7,280610,,,A*73
$GPRMC,152429.2,A,3244.757616,N,11712.653890,W,31.9,44.0,280610,,,A*71
$GPRMC,152432.2,A,3244.777549,N,11712.629854,W,32.5,46.7,280610,,,A*7F
$GPRMC,152435.2,A,3244.795312,N,11712.607458,W,30.2,46.6,280610,,,A*74
$GPRMC,152438.2,A,3244.806879,N,11712.588786,W,23.5,48.3,280610,,,A*70
$GPRMC,152441.2,A,3244.812906,N,11712.577228,W,15.9,51.2,280610,,,A*73
$GPRMC,152444.2,A,3244.814817,N,11712.572236,W,8.4,49.8,280610,,,A*49
$GPRMC,152447.2,A,3244.819012,N,11712.563829,W,10.4,60.8,280610,,,A*7C
$GPRMC,152450.2,A,3244.827684,N,11712.548397,W,17.4,61.3,280610,,,A*74
$GPRMC,152453.2,A,3244.838031,N,11712.528972,W,22.9,59.4,280610,,,A*71
$GPRMC,152456.2,A,3244.848462,N,11712.507224,W,24.9,60.7,280610,,,A*7B
$GPRMC,152459.2,A,3244.860379,N,11712.484764,W,26.9,56.0,280610,,,A*78
$GPRMC,152502.2,A,3244.875580,N,11712.461090,W,28.0,50.8,280610,,,A*7D
$GPRMC,152505.2,A,3244.895909,N,11712.440572,W,27.5,43.3,280610,,,A*70
$GPRMC,152508.2,A,3244.912117,N,11712.421579,W,29.1,47.7,280610,,,A*72
$GPRMC,152511.2,A,3244.929141,N,11712.400313,W,28.8,45.9,280610,,,A*7C
$GPRMC,152514.2,A,3244.942943,N,11712.384020,W,25.4,41.0,280610,,,A*7A
$GPRMC,152517.2,A,3244.956600,N,11712.371447,W,19.6,34.6,280610,,,A*72
$GPRMC,152520.2,A,3244.966250,N,11712.363953,W,13.9,28.1,280610,,,A*70
$GPRMC,152523.2,A,3244.969333,N,11712.361633,W,6.7,36.6,280610,,,A*41
$GPRMC,152526.2,A,3244.969186,N,11712.354770,W,9.4,85.5,280610,,,A*4F
$GPRMC,152529.2,A,3244.966584,N,11712.343212,W,12.7,99.2,280610,,,A*7D
$GPRMC,152532.2,A,3244.952917,N,11712.323367,W,22.7,119.5,280610,,,A*4E
$GPRMC,152535.2,A,3244.932319,N,11712.299411,W,30.2,127.2,280610,,,A*41
$GPRMC,152538.2,A,3244.916054,N,11712.274432,W,31.4,128.5,280610,,,A*4D
$GPRMC,152541.2,A,3244.897811,N,11712.246257,W,33.0,128.5,280610,,,A*40
$GPRMC,152544.2,A,3244.881980,N,11712.219083,W,34.5,127.0,280610,,,A*42
$GPRMC,152547.2,A,3244.864782,N,11712.188722,W,35.3,126.5,280610,,,A*42
$GPRMC,152550.2,A,3244.846006,N,11712.161695,W,35.5,127.1,280610,,,A*46
$GPRMC,152553.2,A,3244.826621,N,11712.133676,W,36.3,127.7,280610,,,A*49
$GPRMC,152556.2,A,3244.810121,N,11712.103274,W,36.2,126.1,280610,,,A*4D
$GPRMC,152559.2,A,3244.792274,N,11712.074437,W,36.1,125.9,280610,,,A*4C
$GPRMC,152602.2,A,3244.776826,N,11712.045023,W,34.9,124.5,280610,,,A*42
$GPRMC,152605.2,A,3244.763368,N,11712.016977,W,33.4,124.9,280610,,,A*48
$GPRMC,152608.2,A,3244.746237,N,11711.993189,W,30.9,128.9,280610,,,A*45
$GPRMC,152611.2,A,3244.732244,N,11711.973726,W,25.5,131.4,280610,,,A*4A
$GPRMC,152614.2,A,3244.719627,N,11711.957467,W,22.5,133.0,280610,,,A*46
$GPRMC,152617.2,A,3244.710332,N,11711.942820,W,20.7,130.0,280610,,,A*45
$GPRMC,152620.2,A,3244.705063,N,11711.922733,W,21.8,115.5,280610,,,A*45
$GPRMC,152623.2,A,3244.698965,N,11711.905457,W,18.6,112.8,280610,,,A*46
$GPRMC,152626.2,A,3244.701689,N,11711.883797,W,21.0,100.7,280610,,,A*4F
$GPRMC,152629.2,A,3244.708149,N,11711.855333,W,25.7,88.8,280610,,,A*7E
$GPRMC,152632.2,A,3244.721421,N,11711.819690,W,32.1,77.6,280610,,,A*7E
$GPRMC,152635.2,A,3244.732167,N,11711.780819,W,35.6,78.5,280610,,,A*70
$GPRMC,152638.2,A,3244.730289,N,11711.745032,W,36.5,92.4,280610,,,A*71
$GPRMC,152641.2,A,3244.719177,N,11711.706905,W,39.4,105.9,280610,,,A*40
$GPRMC,152644.2,A,3244.701269,N,11711.671258,W,41.7,117.8,280610,,,A*4C
$GPRMC,152647.2,A,3244.680865,N,11711.634158,W,45.1,120.0,280610,,,A*4D
$GPRMC,152650.2,A,3244.663096,N,11711.594457,W,48.2,119.3,280610,,,A*46
$GPRMC,152653.2,A,3244.642926,N,11711.550010,W,50.7,119.1,280610,,,A*45
$GPRMC,152656.2,A,3244.620228,N,11711.505458,W,52.1,121.4,280610,,,A*43
$GPRMC,152659.2,A,3244.596583,N,11711.459773,W,53.8,120.7,280610,,,A*4C
$GPRMC,152702.2,A,3244.574005,N,11711.413931,W,54.2,119.8,280610,,,A*4A
$GPRMC,152705.2,A,3244.552728,N,11711.366952,W,54.4,119.1,280610,,,A*4E
$GPRMC,152708.2,A,3244.533071,N,11711.318104,W,54.9,118.0,280610,,,A*40
$GPRMC,152711.2,A,3244.512071,N,11711.270561,W,53.7,118.3,280610,,,A*49
$GPRMC,152714.2,A,3244.489901,N,11711.222466,W,56.0,117.4,280610,,,A*4A
$GPRMC,152717.2,A,3244.470695,N,11711.173258,W,54.9,115.8,280610,,,A*44
$GPRMC,152720.2,A,3244.449961,N,11711.125828,W,54.1,117.2,280610,,,A*40
$GPRMC,152723.2,A,3244.431677,N,11711.079830,W,51.1,116.3,280610,,,A*40
$GPRMC,152726.2,A,3244.413073,N,11711.034513,W,51.2,117.0,280610,,,A*43
$GPRMC,152729.2,A,3244.392197,N,11710.990710,W,52.6,118.0,280610,,,A*46
$GPRMC,152732.2,A,3244.371192,N,11710.943688,W,54.5,118.8,280610,,,A*47
$GPRMC,152735.2,A,3244.348027,N,11710.895829,W,54.4,120.6,280610,,,A*4E
$GPRMC,152738.2,A,3244.324296,N,11710.850339,W,54.2,123.0,280610,,,A*41
$GPRMC,152741.2,A,3244.296976,N,11710.808487,W,52.6,126.3,280610,,,A*49
$GPRMC,152744.2,A,3244.266490,N,11710.768673,W,53.3,131.1,280610,,,A*46
$GPRMC,152747.2,A,3244.233566,N,11710.732740,W,53.4,134.3,280610,,,A*43
$GPRMC,152750.2,A,3244.202138,N,11710.695934,W,52.3,135.0,280610,,,A*4D
$GPRMC,152753.2,A,3244.171201,N,11710.657567,W,52.3,131.2,280610,,,A*42
$GPRMC,152756.2,A,3244.143820,N,11710.617232,W,51.9,127.5,280610,,,A*45
$GPRMC,152759.2,A,3244.127043,N,11710.575104,W,50.0,120.2,280610,,,A*4C
$GPRMC,152802.2,A,3244.113367,N,11710.530972,W,48.4,116.3,280610,,,A*4E
$GPRMC,152805.2,A,3244.089939,N,11710.494825,W,45.1,125.4,280610,,,A*49
$GPRMC,152808.2,A,3244.062000,N,11710.459970,W,46.4,134.4,280610,,,A*44
$GPRMC,152811.2,A,3244.029346,N,11710.428364,W,48.8,139.8,280610,,,A*48
$GPRMC,152814.2,A,3243.996267,N,11710.398615,W,50.1,142.4,280610,,,A*4A
$GPRMC,152817.2,A,3243.964189,N,11710.368742,W,49.9,143.3,280610,,,A*4D
$GPRMC,152820.2,A,3243.928020,N,11710.341286,W,49.5,144.5,280610,,,A*48
$GPRMC,152823.2,A,3243.893860,N,11710.311932,W,50.2,144.5,280610,,,A*48
$GPRMC,152826.2,A,3243.861292,N,11710.280716,W,51.2,143.8,280610,,,A*4D
$GPRMC,152829.2,A,3243.825600,N,11710.250280,W,52.6,144.1,280610,,,A*43
$GPRMC,152832.2,A,3243.791556,N,11710.218265,W,53.0,142.8,280610,,,A*46
$GPRMC,152835.2,A,3243.758146,N,11710.188215,W,52.8,143.4,280610,,,A*48
$GPRMC,152838.2,A,3243.721457,N,11710.155751,W,52.6,143.4,280610,,,A*45
$GPRMC,152841.2,A,3243.686177,N,11710.124542,W,52.2,143.2,280610,,,A*44
$GPRMC,152844.2,A,3243.648489,N,11710.097328,W,50.0,145.4,280610,,,A*44
