NMEA Sentence Code,UTC Time,Status,Latitude,Latitude Direction,Longitude,Longitude Direction,Speed (knots),Track Angle (degrees true),Date,MagneticVariation,Magnetic Variation Direction,[FAA Mode]-Optional,Checksum
$GPRMC,154825.0,A,3336.177154,N,11751.678176,W,23.7,57.6,080910,,,A*7F
$GPRMC,154828.0,A,3336.203143,N,11751.651481,W,35.1,38.5,080910,,,A*79
$GPRMC,154831.0,A,3336.233461,N,11751.629754,W,40.6,30.9,080910,,,A*72
$GPRMC,154834.0,A,3336.268332,N,11751.612578,W,43.1,26.8,080910,,,A*7E
$GPRMC,154837.0,A,3336.303669,N,11751.601457,W,43.7,20.0,080910,,,A*7C
$GPRMC,154840.0,A,3336.342036,N,11751.598844,W,43.2,12.4,080910,,,A*78
$GPRMC,154843.0,A,3336.374604,N,11751.591069,W,39.4,12.7,080910,,,A*7F
$GPRMC,154846.0,A,3336.403729,N,11751.585531,W,33.8,10.9,080910,,,A*74
$GPRMC,154849.0,A,3336.423117,N,11751.582443,W,21.6,9.4,080910,,,A*49
$GPRMC,154852.0,A,3336.434746,N,11751.577708,W,14.1,17.4,080910,,,A*7F
$GPRMC,154901.0,A,3336.434790,N,11751.574118,W,5.1,106.7,080910,,,A*75
$GPRMC,154904.0,A,3336.436404,N,11751.557254,W,14.1,88.2,080910,,,A*74
$GPRMC,154907.0,A,3336.436333,N,11751.526967,W,22.3,88.0,080910,,,A*7C
$GPRMC,154910.0,A,3336.432960,N,11751.483681,W,34.3,90.7,080910,,,A*72
$GPRMC,154913.0,A,3336.433225,N,11751.430708,W,47.9,89.0,080910,,,A*73
$GPRMC,154916.0,A,3336.433320,N,11751.377247,W,51.4,90.1,080910,,,A*7B
$GPRMC,154919.0,A,3336.432464,N,11751.322702,W,53.5,90.4,080910,,,A*70
$GPRMC,154922.0,A,3336.433368,N,11751.269494,W,52.4,88.9,080910,,,A*74
$GPRMC,154925.0,A,3336.434187,N,11751.217107,W,52.4,88.7,080910,,,A*7F
$GPRMC,154928.0,A,3336.434493,N,11751.166396,W,51.8,90.9,080910,,,A*75
$GPRMC,154931.0,A,3336.433441,N,11751.115652,W,51.2,90.5,080910,,,A*7A
$GPRMC,154934.0,A,3336.437252,N,11751.069862,W,46.1,85.1,080910,,,A*7D
$GPRMC,154937.0,A,3336.442332,N,11751.027222,W,43.5,81.8,080910,,,A*73
$GPRMC,154940.0,A,3336.446843,N,11750.985574,W,42.4,84.1,080910,,,A*72
$GPRMC,154943.0,A,3336.449447,N,11750.941015,W,42.5,89.5,080910,,,A*74
$GPRMC,154946.0,A,3336.447175,N,11750.898612,W,42.1,92.4,080910,,,A*70
$GPRMC,154949.0,A,3336.437638,N,11750.854466,W,42.7,100.9,080910,,,A*46
$GPRMC,154952.0,A,3336.430697,N,11750.811627,W,44.3,102.6,080910,,,A*47
$GPRMC,154955.0,A,3336.421783,N,11750.768424,W,45.0,104.0,080910,,,A*46
$GPRMC,154958.0,A,3336.412050,N,11750.723203,W,47.1,104.5,080910,,,A*48
$GPRMC,155001.0,A,3336.402195,N,11750.677061,W,46.9,105.2,080910,,,A*4C
$GPRMC,155004.0,A,3336.392801,N,11750.633701,W,46.3,105.2,080910,,,A*48
$GPRMC,155007.0,A,3336.381301,N,11750.592023,W,45.4,108.7,080910,,,A*41
$GPRMC,155010.0,A,3336.371619,N,11750.549714,W,45.0,104.4,080910,,,A*4A
$GPRMC,155013.0,A,3336.361164,N,11750.505902,W,47.0,96.7,080910,,,A*7F
$GPRMC,155016.0,A,3336.360917,N,11750.457583,W,49.4,93.3,080910,,,A*7F
$GPRMC,155019.0,A,3336.358569,N,11750.409627,W,48.4,93.2,080910,,,A*78
$GPRMC,155022.0,A,3336.357757,N,11750.364972,W,44.7,92.0,080910,,,A*7F
$GPRMC,155025.0,A,3336.366191,N,11750.318639,W,44.6,83.3,080910,,,A*7F
$GPRMC,155028.0,A,3336.375287,N,11750.277020,W,41.6,79.2,080910,,,A*73
$GPRMC,155031.0,A,3336.379189,N,11750.238890,W,41.1,75.7,080910,,,A*7C
$GPRMC,155034.0,A,3336.386966,N,11750.199948,W,41.9,73.0,080910,,,A*75
$GPRMC,155037.0,A,3336.401292,N,11750.158773,W,45.1,67.6,080910,,,A*7A
$GPRMC,155040.0,A,3336.419903,N,11750.118167,W,47.0,63.5,080910,,,A*73
$GPRMC,155043.0,A,3336.440395,N,11750.079019,W,46.3,59.5,080910,,,A*7C
$GPRMC,155046.0,A,3336.461914,N,11750.040199,W,46.7,58.7,080910,,,A*7D
$GPRMC,155049.0,A,3336.481282,N,11749.999620,W,47.2,62.0,080910,,,A*72
$GPRMC,155052.0,A,3336.497811,N,11749.957096,W,47.9,67.4,080910,,,A*7C
$GPRMC,155055.0,A,3336.508954,N,11749.912803,W,47.7,73.5,080910,,,A*73
$GPRMC,155058.0,A,3336.518769,N,11749.867565,W,45.1,76.2,080910,,,A*77
$GPRMC,155101.0,A,3336.528694,N,11749.828104,W,40.2,72.1,080910,,,A*73
$GPRMC,155104.0,A,3336.536954,N,11749.797241,W,33.7,69.4,080910,,,A*7D
$GPRMC,155107.0,A,3336.531893,N,11749.782199,W,21.9,80.3,080910,,,A*7C
$GPRMC,155110.0,A,3336.526918,N,11749.761846,W,24.8,91.5,080910,,,A*7A
$GPRMC,155113.0,A,3336.524327,N,11749.732393,W,32.5,93.9,080910,,,A*7C
$GPRMC,155116.0,A,3336.520406,N,11749.696755,W,37.2,95.2,080910,,,A*77
$GPRMC,155119.0,A,3336.517851,N,11749.656976,W,38.8,94.6,080910,,,A*71
$GPRMC,155122.0,A,3336.515636,N,11749.620180,W,36.1,94.2,080910,,,A*77
$GPRMC,155125.0,A,3336.514663,N,11749.589770,W,30.6,93.4,080910,,,A*78
$GPRMC,155128.0,A,3336.513219,N,11749.566764,W,25.1,92.5,080910,,,A*7C
$GPRMC,155131.0,A,3336.512713,N,11749.561720,W,12.2,91.7,080910,,,A*7B
$GPRMC,155234.0,A,3336.513844,N,11749.560465,W,7.3,74.4,080910,,,A*4F
$GPRMC,155237.0,A,3336.520704,N,11749.550309,W,10.0,52.0,080910,,,A*7C
$GPRMC,155240.0,A,3336.541910,N,11749.541208,W,18.2,19.8,080910,,,A*7D
$GPRMC,155243.0,A,3336.585517,N,11749.538199,W,36.6,0.5,080910,,,A*45
$GPRMC,155246.0,A,3336.632095,N,11749.539044,W,47.0,358.0,080910,,,A*4B
$GPRMC,155249.0,A,3336.682050,N,11749.539441,W,51.5,359.2,080910,,,A*46
$GPRMC,155252.0,A,3336.728212,N,11749.541423,W,51.7,357.9,080910,,,A*45
$GPRMC,155255.0,A,3336.772200,N,11749.543719,W,49.4,358.1,080910,,,A*4B
$GPRMC,155258.0,A,3336.811527,N,11749.545528,W,44.3,359.3,080910,,,A*41
$GPRMC,155301.0,A,3336.844750,N,11749.546469,W,38.5,359.8,080910,,,A*4F
$GPRMC,155304.0,A,3336.876960,N,11749.546361,W,38.7,359.3,080910,,,A*40
$GPRMC,155307.0,A,3336.916072,N,11749.546997,W,45.9,357.7,080910,,,A*43
$GPRMC,155310.0,A,3336.956228,N,11749.549433,W,46.1,355.4,080910,,,A*4A
$GPRMC,155313.0,A,3336.998395,N,11749.552390,W,48.6,355.4,080910,,,A*41
$GPRMC,155316.0,A,3337.039931,N,11749.555437,W,50.7,356.1,080910,,,A*40
$GPRMC,155319.0,A,3337.083789,N,11749.556625,W,52.9,356.6,080910,,,A*4A
$GPRMC,155407.0,A,3337.047616,N,11749.205369,W,56.1,156.3,080910,,,A*4A
$GPRMC,155410.0,A,3337.004220,N,11749.183478,W,57.1,157.6,080910,,,A*45
$GPRMC,155413.0,A,3336.958404,N,11749.161079,W,58.6,157.7,080910,,,A*47
$GPRMC,155416.0,A,3336.913147,N,11749.139414,W,57.8,158.0,080910,,,A*44
$GPRMC,155419.0,A,3336.870440,N,11749.117790,W,56.3,157.2,080910,,,A*49
$GPRMC,155422.0,A,3336.828241,N,11749.093437,W,57.5,153.1,080910,,,A*48
$GPRMC,155425.0,A,3336.788166,N,11749.064546,W,57.3,147.9,080910,,,A*48
$GPRMC,155428.0,A,3336.752395,N,11749.029258,W,57.3,140.4,080910,,,A*47
$GPRMC,155431.0,A,3336.716855,N,11748.990382,W,58.7,137.3,080910,,,A*48
$GPRMC,155434.0,A,3336.682297,N,11748.948004,W,58.8,135.7,080910,,,A*44
$GPRMC,155437.0,A,3336.653663,N,11748.898747,W,61.1,126.0,080910,,,A*4E
$GPRMC,155440.0,A,3336.626223,N,11748.845813,W,62.2,120.6,080910,,,A*42
$GPRMC,155443.0,A,3336.602471,N,11748.788348,W,64.4,116.3,080910,,,A*4D
$GPRMC,155446.0,A,3336.581777,N,11748.729614,W,63.6,110.6,080910,,,A*44
$GPRMC,155449.0,A,3336.569815,N,11748.667875,W,63.4,103.0,080910,,,A*42
$GPRMC,155452.0,A,3336.561799,N,11748.604910,W,64.2,99.9,080910,,,A*76
$GPRMC,155455.0,A,3336.555209,N,11748.540318,W,65.3,99.1,080910,,,A*73
$GPRMC,155458.0,A,3336.548329,N,11748.474816,W,67.0,99.2,080910,,,A*70
$GPRMC,155501.0,A,3336.541634,N,11748.409357,W,65.5,98.5,080910,,,A*78
$GPRMC,155504.0,A,3336.528376,N,11748.342942,W,66.3,103.3,080910,,,A*47
$GPRMC,155507.0,A,3336.508260,N,11748.283222,W,64.7,110.7,080910,,,A*41
$GPRMC,155510.0,A,3336.484765,N,11748.222185,W,65.3,113.8,080910,,,A*4E
$GPRMC,155513.0,A,3336.461545,N,11748.163160,W,65.3,115.1,080910,,,A*44
$GPRMC,155516.0,A,3336.438662,N,11748.105535,W,64.2,114.2,080910,,,A*4D
$GPRMC,155519.0,A,3336.417496,N,11748.048474,W,63.6,113.6,080910,,,A*4A
$GPRMC,155522.0,A,3336.393935,N,11747.990761,W,63.4,114.8,080910,,,A*42
$GPRMC,155525.0,A,3336.372111,N,11747.932038,W,63.6,114.1,080910,,,A*4C
$GPRMC,155528.0,A,3336.348905,N,11747.875111,W,62.8,115.0,080910,,,A*42
$GPRMC,155531.0,A,3336.327220,N,11747.819526,W,61.5,115.2,080910,,,A*49
$GPRMC,155534.0,A,3336.304870,N,11747.765757,W,59.6,115.3,080910,,,A*4B
$GPRMC,155537.0,A,3336.283432,N,11747.711375,W,59.1,114.9,080910,,,A*47
$GPRMC,155540.0,A,3336.261699,N,11747.657079,W,59.2,114.5,080910,,,A*4B
$GPRMC,155543.0,A,3336.240617,N,11747.603470,W,58.6,114.4,080910,,,A*45
$GPRMC,155546.0,A,3336.219504,N,11747.549466,W,59.5,115.0,080910,,,A*40
$GPRMC,155549.0,A,3336.199866,N,11747.495751,W,59.7,114.8,080910,,,A*41
$GPRMC,155552.0,A,3336.178986,N,11747.440294,W,61.8,113.7,080910,,,A*43
$GPRMC,155555.0,A,3336.160737,N,11747.381235,W,62.1,109.6,080910,,,A*48
$GPRMC,155558.0,A,3336.148147,N,11747.322430,W,60.9,103.6,080910,,,A*44
$GPRMC,155601.0,A,3336.142686,N,11747.263292,W,60.2,97.2,080910,,,A*72
$GPRMC,155604.0,A,3336.137314,N,11747.203602,W,61.2,96.2,080910,,,A*70
$GPRMC,155607.0,A,3336.131193,N,11747.140828,W,64.9,97.1,080910,,,A*76
$GPRMC,155610.0,A,3336.122753,N,11747.077675,W,63.2,98.9,080910,,,A*70
$GPRMC,155613.0,A,3336.112705,N,11747.015622,W,63.9,101.0,080910,,,A*46
$GPRMC,155616.0,A,3336.093494,N,11746.953677,W,65.5,107.9,080910,,,A*4F
$GPRMC,155619.0,A,3336.075732,N,11746.892008,W,65.7,110.9,080910,,,A*41
$GPRMC,155622.0,A,3336.052703,N,11746.834533,W,64.1,116.2,080910,,,A*45
$GPRMC,155625.0,A,3336.023991,N,11746.779894,W,65.0,120.1,080910,,,A*41
$GPRMC,155628.0,A,3335.995177,N,11746.725022,W,65.2,121.1,080910,,,A*44
$GPRMC,155631.0,A,3335.970663,N,11746.669673,W,64.3,117.2,080910,,,A*48
$GPRMC,155634.0,A,3335.951723,N,11746.610221,W,65.0,111.1,080910,,,A*41
$GPRMC,155637.0,A,3335.934902,N,11746.545089,W,66.8,105.6,080910,,,A*46
$GPRMC,155640.0,A,3335.928996,N,11746.481995,W,66.3,99.3,080910,,,A*71
$GPRMC,155643.0,A,3335.922291,N,11746.412740,W,69.0,98.2,080910,,,A*74
$GPRMC,155646.0,A,3335.921161,N,11746.347774,W,66.5,94.3,080910,,,A*79
$GPRMC,155649.0,A,3335.914555,N,11746.283964,W,63.7,97.3,080910,,,A*71
$GPRMC,155652.0,A,3335.902797,N,11746.226275,W,57.9,102.9,080910,,,A*4A
$GPRMC,155655.0,A,3335.886316,N,11746.170994,W,55.5,108.8,080910,,,A*4C
$GPRMC,155658.0,A,3335.868243,N,11746.119464,W,55.1,113.0,080910,,,A*4B
$GPRMC,155701.0,A,3335.846897,N,11746.073338,W,53.3,116.6,080910,,,A*4D
$GPRMC,155704.0,A,3335.821978,N,11746.031021,W,51.0,123.1,080910,,,A*44
$GPRMC,155707.0,A,3335.795230,N,11745.992060,W,50.1,129.0,080910,,,A*4D
$GPRMC,155710.0,A,3335.766479,N,11745.955248,W,48.9,133.7,080910,,,A*42
$GPRMC,155713.0,A,3335.737686,N,11745.921218,W,46.6,133.2,080910,,,A*45
$GPRMC,155716.0,A,3335.715310,N,11745.888292,W,44.2,129.8,080910,,,A*4D
$GPRMC,155719.0,A,3335.692441,N,11745.856627,W,41.6,130.7,080910,,,A*40
$GPRMC,155722.0,A,3335.671993,N,11745.825948,W,40.8,129.7,080910,,,A*42
$GPRMC,155725.0,A,3335.647925,N,11745.794453,W,41.6,131.4,080910,,,A*4A
$GPRMC,155728.0,A,3335.624414,N,11745.763338,W,41.0,132.0,080910,,,A*4E
$GPRMC,155731.0,A,3335.600167,N,11745.735021,W,41.2,136.9,080910,,,A*46
$GPRMC,155734.0,A,3335.570107,N,11745.712092,W,42.6,150.3,080910,,,A*41
$GPRMC,155737.0,A,3335.534546,N,11745.695242,W,43.2,157.9,080910,,,A*4A
$GPRMC,155740.0,A,3335.503335,N,11745.678967,W,40.0,153.1,080910,,,A*4E
$GPRMC,155743.0,A,3335.478110,N,11745.657900,W,37.9,143.7,080910,,,A*47
$GPRMC,155746.0,A,3335.461644,N,11745.629926,W,33.1,131.0,080910,,,A*4F
$GPRMC,155749.0,A,3335.463105,N,11745.600936,W,25.4,102.7,080910,,,A*4F
$GPRMC,155752.0,A,3335.463895,N,11745.586758,W,12.4,95.0,080910,,,A*72
$GPRMC,155804.0,A,3335.466681,N,11745.583247,W,5.2,103.8,080910,,,A*78
$GPRMC,155807.0,A,3335.469034,N,11745.573992,W,6.5,61.9,080910,,,A*40
$GPRMC,155810.0,A,3335.487639,N,11745.561373,W,17.4,34.3,080910,,,A*70
$GPRMC,155813.0,A,3335.510391,N,11745.560488,W,21.1,8.8,080910,,,A*4D
$GPRMC,155816.0,A,3335.540134,N,11745.558360,W,25.2,12.5,080910,,,A*7B
$GPRMC,155819.0,A,3335.569319,N,11745.570259,W,27.9,355.0,080910,,,A*4F
$GPRMC,155822.0,A,3335.590521,N,11745.577583,W,22.3,357.8,080910,,,A*4E
$GPRMC,155937.0,A,3335.611213,N,11745.586860,W,9.3,348.1,080910,,,A*77
$GPRMC,155940.0,A,3335.627553,N,11745.592774,W,14.9,342.8,080910,,,A*4B
$GPRMC,155943.0,A,3335.669478,N,11745.611703,W,36.8,338.8,080910,,,A*4E
$GPRMC,155946.0,A,3335.710652,N,11745.625791,W,43.2,341.0,080910,,,A*4C
$GPRMC,155949.0,A,3335.746663,N,11745.640107,W,43.8,341.4,080910,,,A*46
$GPRMC,155952.0,A,3335.783901,N,11745.655483,W,47.1,341.1,080910,,,A*4B
$GPRMC,155955.0,A,3335.825535,N,11745.671969,W,52.4,341.0,080910,,,A*4B
$GPRMC,155958.0,A,3335.871176,N,11745.687512,W,55.4,342.1,080910,,,A*48
$GPRMC,160001.0,A,3335.916813,N,11745.704805,W,56.4,341.9,080910,,,A*48
$GPRMC,160004.0,A,3335.964827,N,11745.721004,W,57.3,342.4,080910,,,A*49
$GPRMC,160007.0,A,3336.009439,N,11745.735866,W,57.6,347.7,080910,,,A*42
$GPRMC,160010.0,A,3336.058988,N,11745.742023,W,58.2,356.9,080910,,,A*4B
$GPRMC,160013.0,A,3336.110188,N,11745.739170,W,61.8,5.2,080910,,,A*48
$GPRMC,160016.0,A,3336.162983,N,11745.726016,W,63.0,13.2,080910,,,A*79
$GPRMC,160019.0,A,3336.214321,N,11745.707689,W,62.0,14.5,080910,,,A*74
$GPRMC,160022.0,A,3336.259441,N,11745.684080,W,58.3,19.5,080910,,,A*76
$GPRMC,160025.0,A,3336.304139,N,11745.658739,W,58.1,22.1,080910,,,A*78
$GPRMC,160028.0,A,3336.348618,N,11745.639435,W,58.1,15.1,080910,,,A*75
$GPRMC,160031.0,A,3336.395313,N,11745.628463,W,57.8,7.0,080910,,,A*44
$GPRMC,160034.0,A,3336.443320,N,11745.625252,W,57.8,359.4,080910,,,A*48
$GPRMC,160037.0,A,3336.491219,N,11745.631490,W,58.1,350.9,080910,,,A*40
$GPRMC,160040.0,A,3336.538941,N,11745.644818,W,59.3,347.3,080910,,,A*45
$GPRMC,160043.0,A,3336.588240,N,11745.658846,W,61.7,348.2,080910,,,A*40
$GPRMC,160046.0,A,3336.640267,N,11745.668972,W,63.1,351.8,080910,,,A*44
$GPRMC,160049.0,A,3336.695995,N,11745.671551,W,65.1,358.0,080910,,,A*47
$GPRMC,160052.0,A,3336.748489,N,11745.666191,W,64.7,6.4,080910,,,A*49
$GPRMC,160055.0,A,3336.799951,N,11745.651793,W,64.0,13.4,080910,,,A*79
$GPRMC,160058.0,A,3336.851311,N,11745.629996,W,64.4,21.1,080910,,,A*75
$GPRMC,160101.0,A,3336.900969,N,11745.602804,W,66.2,26.8,080910,,,A*71
$GPRMC,160104.0,A,3336.948624,N,11745.566989,W,67.6,33.2,080910,,,A*70
$GPRMC,160107.0,A,3336.996429,N,11745.528916,W,67.9,33.8,080910,,,A*76
$GPRMC,160110.0,A,3337.043832,N,11745.490300,W,67.4,34.0,080910,,,A*7B
$GPRMC,160113.0,A,3337.087766,N,11745.455615,W,64.5,33.4,080910,,,A*77
$GPRMC,160116.0,A,3337.132636,N,11745.420448,W,64.6,32.1,080910,,,A*76
$GPRMC,160119.0,A,3337.179709,N,11745.388516,W,64.4,28.4,080910,,,A*78
$GPRMC,160122.0,A,3337.228165,N,11745.362950,W,62.1,20.4,080910,,,A*7A
$GPRMC,160125.0,A,3337.276570,N,11745.347099,W,60.0,15.0,080910,,,A*7C
$GPRMC,160128.0,A,3337.324671,N,11745.341290,W,59.3,6.4,080910,,,A*47
$GPRMC,160131.0,A,3337.374603,N,11745.341299,W,59.8,1.2,080910,,,A*4C
$GPRMC,160134.0,A,3337.423946,N,11745.348945,W,59.5,355.7,080910,,,A*4B
$GPRMC,160137.0,A,3337.466885,N,11745.376009,W,58.6,339.9,080910,,,A*4D
$GPRMC,160140.0,A,3337.506623,N,11745.405139,W,55.3,333.2,080910,,,A*40
$GPRMC,160143.0,A,3337.542531,N,11745.436088,W,53.1,325.6,080910,,,A*4F
$GPRMC,160146.0,A,3337.577983,N,11745.469515,W,53.8,323.9,080910,,,A*42
$GPRMC,160149.0,A,3337.616459,N,11745.502651,W,56.1,324.1,080910,,,A*4F
$GPRMC,160152.0,A,3337.656936,N,11745.537424,W,58.2,324.7,080910,,,A*48
$GPRMC,160155.0,A,3337.696646,N,11745.571145,W,58.2,324.7,080910,,,A*4B
$GPRMC,160158.0,A,3337.735664,N,11745.604380,W,57.8,325.0,080910,,,A*47
$GPRMC,160201.0,A,3337.777464,N,11745.634360,W,58.5,331.2,080910,,,A*44
$GPRMC,160204.0,A,3337.822185,N,11745.658425,W,57.6,338.2,080910,,,A*4D
$GPRMC,160207.0,A,3337.871191,N,11745.673765,W,60.4,343.9,080910,,,A*42
$GPRMC,160210.0,A,3337.919538,N,11745.682002,W,57.7,351.3,080910,,,A*4A
$GPRMC,160213.0,A,3337.969596,N,11745.676360,W,57.6,0.7,080910,,,A*44
$GPRMC,160216.0,A,3338.014207,N,11745.663328,W,53.5,11.3,080910,,,A*79
$GPRMC,160219.0,A,3338.058705,N,11745.650992,W,52.9,13.1,080910,,,A*7F
$GPRMC,160222.0,A,3338.099805,N,11745.639336,W,52.4,12.5,080910,,,A*76
$GPRMC,160225.0,A,3338.143368,N,11745.626793,W,53.2,12.7,080910,,,A*77
$GPRMC,160228.0,A,3338.185468,N,11745.617857,W,51.7,8.5,080910,,,A*4C
$GPRMC,160231.0,A,3338.227928,N,11745.612862,W,51.4,3.8,080910,,,A*40
$GPRMC,160234.0,A,3338.270556,N,11745.612044,W,51.1,0.2,080910,,,A*42
$GPRMC,160237.0,A,3338.312318,N,11745.614870,W,50.3,356.6,080910,,,A*46
$GPRMC,160240.0,A,3338.352279,N,11745.620899,W,48.0,352.8,080910,,,A*44
$GPRMC,160243.0,A,3338.390454,N,11745.629310,W,46.2,349.9,080910,,,A*44
$GPRMC,160246.0,A,3338.425158,N,11745.638204,W,44.1,346.5,080910,,,A*47
$GPRMC,160249.0,A,3338.439179,N,11745.644625,W,26.1,342.3,080910,,,A*4C
$GPRMC,160252.0,A,3338.447974,N,11745.647537,W,13.8,344.7,080910,,,A*44
$GPRMC,160255.0,A,3338.452505,N,11745.648815,W,6.5,345.2,080910,,,A*72
$GPRMC,160307.0,A,3338.461215,N,11745.653690,W,13.5,337.1,080910,,,A*49
$GPRMC,160310.0,A,3338.477658,N,11745.660572,W,20.5,337.7,080910,,,A*4C
$GPRMC,160313.0,A,3338.496790,N,11745.668618,W,24.9,339.4,080910,,,A*47
$GPRMC,160316.0,A,3338.521054,N,11745.678339,W,30.3,340.9,080910,,,A*4B
$GPRMC,160319.0,A,3338.551025,N,11745.689307,W,35.9,341.1,080910,,,A*40
$GPRMC,160322.0,A,3338.583475,N,11745.700092,W,39.7,343.9,080910,,,A*41
$GPRMC,160325.0,A,3338.617481,N,11745.709779,W,43.3,348.2,080910,,,A*41
$GPRMC,160328.0,A,3338.655221,N,11745.716720,W,46.7,352.5,080910,,,A*49
$GPRMC,160331.0,A,3338.697709,N,11745.719799,W,49.9,357.3,080910,,,A*4F
$GPRMC,160334.0,A,3338.743010,N,11745.717510,W,54.0,2.8,080910,,,A*4D
$GPRMC,160337.0,A,3338.788239,N,11745.714502,W,55.1,4.4,080910,,,A*4A
$GPRMC,160340.0,A,3338.835903,N,11745.712090,W,56.0,2.2,080910,,,A*4B
$GPRMC,160343.0,A,3338.884730,N,11745.706023,W,59.1,5.1,080910,,,A*4B
$GPRMC,160346.0,A,3338.934103,N,11745.699898,W,59.9,6.2,080910,,,A*45
$GPRMC,160349.0,A,3338.985569,N,11745.691506,W,62.1,8.9,080910,,,A*4F
$GPRMC,160352.0,A,3339.039121,N,11745.679432,W,64.4,12.0,080910,,,A*73
$GPRMC,160355.0,A,3339.092066,N,11745.662147,W,64.7,15.9,080910,,,A*77
$GPRMC,160358.0,A,3339.144551,N,11745.640970,W,64.4,19.7,080910,,,A*7C
$GPRMC,160401.0,A,3339.192420,N,11745.615669,W,63.8,23.9,080910,,,A*70
$GPRMC,160404.0,A,3339.238106,N,11745.587636,W,62.9,27.6,080910,,,A*7E
$GPRMC,160407.0,A,3339.285212,N,11745.558143,W,63.4,27.4,080910,,,A*74
$GPRMC,160410.0,A,3339.332862,N,11745.527905,W,65.7,27.3,080910,,,A*72
$GPRMC,160413.0,A,3339.381895,N,11745.496628,W,67.3,27.7,080910,,,A*78
$GPRMC,160416.0,A,3339.432285,N,11745.465744,W,68.2,27.4,080910,,,A*73
$GPRMC,160419.0,A,3339.483289,N,11745.434496,W,68.9,27.5,080910,,,A*78
$GPRMC,160422.0,A,3339.533975,N,11745.403086,W,68.2,27.5,080910,,,A*78
$GPRMC,160425.0,A,3339.583797,N,11745.371830,W,68.8,27.1,080910,,,A*7F
$GPRMC,160428.0,A,3339.635263,N,11745.341106,W,68.5,26.3,080910,,,A*73
$GPRMC,160431.0,A,3339.686159,N,11745.313223,W,67.6,25.5,080910,,,A*73
$GPRMC,160434.0,A,3339.735017,N,11745.284721,W,66.5,27.1,080910,,,A*78
$GPRMC,160437.0,A,3339.784403,N,11745.255214,W,66.7,26.8,080910,,,A*75
$GPRMC,160440.0,A,3339.834219,N,11745.226910,W,66.2,23.4,080910,,,A*7B
$GPRMC,160443.0,A,3339.888278,N,11745.205915,W,67.1,16.5,080910,,,A*79
$GPRMC,160446.0,A,3339.944044,N,11745.192765,W,66.4,10.0,080910,,,A*73
$GPRMC,160449.0,A,3339.997672,N,11745.187756,W,65.8,3.4,080910,,,A*4C
$GPRMC,160452.0,A,3340.051046,N,11745.188357,W,63.8,358.4,080910,,,A*4B
$GPRMC,160455.0,A,3340.102731,N,11745.192459,W,60.1,355.8,080910,,,A*45
$GPRMC,160458.0,A,3340.154570,N,11745.195154,W,60.4,357.1,080910,,,A*4D
$GPRMC,160501.0,A,3340.209510,N,11745.196405,W,62.8,358.1,080910,,,A*4E
$GPRMC,160504.0,A,3340.264945,N,11745.198316,W,63.6,358.0,080910,,,A*49
$GPRMC,160507.0,A,3340.320595,N,11745.200572,W,64.1,358.0,080910,,,A*4C
$GPRMC,160510.0,A,3340.375797,N,11745.203131,W,64.8,359.1,080910,,,A*43
$GPRMC,160513.0,A,3340.427904,N,11745.198855,W,64.6,5.4,080910,,,A*4F
$GPRMC,160516.0,A,3340.481870,N,11745.188590,W,64.4,11.0,080910,,,A*72
$GPRMC,160519.0,A,3340.533292,N,11745.170380,W,64.9,17.6,080910,,,A*7E
$GPRMC,160522.0,A,3340.583043,N,11745.146444,W,65.7,23.8,080910,,,A*7F
$GPRMC,160525.0,A,3340.630097,N,11745.115847,W,64.8,29.4,080910,,,A*7B
$GPRMC,160528.0,A,3340.674701,N,11745.080179,W,64.3,33.9,080910,,,A*7A
$GPRMC,160531.0,A,3340.718585,N,11745.044615,W,64.0,34.9,080910,,,A*76
$GPRMC,160534.0,A,3340.765747,N,11745.007356,W,65.4,35.1,080910,,,A*7C
$GPRMC,160537.0,A,3340.811853,N,11744.968605,W,65.8,35.2,080910,,,A*74
$GPRMC,160540.0,A,3340.858551,N,11744.930357,W,65.8,34.2,080910,,,A*78
$GPRMC,160543.0,A,3340.901204,N,11744.896083,W,64.3,33.2,080910,,,A*7B
$GPRMC,160546.0,A,3340.944225,N,11744.861560,W,62.2,33.0,080910,,,A*79
$GPRMC,160549.0,A,3340.986839,N,11744.828298,W,61.7,32.9,080910,,,A*7C
$GPRMC,160552.0,A,3341.028624,N,11744.794131,W,62.1,33.7,080910,,,A*7A
$GPRMC,160555.0,A,3341.071938,N,11744.759884,W,62.1,34.8,080910,,,A*7D
$GPRMC,160558.0,A,3341.114899,N,11744.724248,W,62.8,34.4,080910,,,A*7D
$GPRMC,160601.0,A,3341.158316,N,11744.689867,W,62.2,33.2,080910,,,A*7C
$GPRMC,160604.0,A,3341.195905,N,11744.656839,W,59.4,34.2,080910,,,A*70
$GPRMC,160607.0,A,3341.236606,N,11744.622368,W,59.1,35.3,080910,,,A*7C
$GPRMC,160610.0,A,3341.276367,N,11744.588949,W,59.7,34.6,080910,,,A*74
$GPRMC,160613.0,A,3341.317292,N,11744.555107,W,60.0,35.0,080910,,,A*72
$GPRMC,160616.0,A,3341.357333,N,11744.519477,W,60.7,35.3,080910,,,A*77
$GPRMC,160619.0,A,3341.398066,N,11744.484790,W,60.7,35.3,080910,,,A*77
$GPRMC,160622.0,A,3341.440382,N,11744.450240,W,61.5,35.2,080910,,,A*77
$GPRMC,160625.0,A,3341.482740,N,11744.415502,W,60.4,35.1,080910,,,A*77
$GPRMC,160628.0,A,3341.523571,N,11744.381456,W,58.3,34.3,080910,,,A*75
$GPRMC,160631.0,A,3341.563928,N,11744.348414,W,58.1,35.1,080910,,,A*7B
$GPRMC,160634.0,A,3341.602884,N,11744.314892,W,57.3,35.1,080910,,,A*7B
$GPRMC,160637.0,A,3341.641260,N,11744.281704,W,56.9,36.0,080910,,,A*7B
$GPRMC,160640.0,A,3341.680522,N,11744.248251,W,57.9,35.9,080910,,,A*7C
$GPRMC,160643.0,A,3341.720959,N,11744.214482,W,59.8,34.6,080910,,,A*74
$GPRMC,160646.0,A,3341.762588,N,11744.179813,W,61.0,34.9,080910,,,A*77
$GPRMC,160649.0,A,3341.803990,N,11744.144580,W,61.7,35.6,080910,,,A*75
$GPRMC,160652.0,A,3341.845949,N,11744.107703,W,62.6,36.7,080910,,,A*77
$GPRMC,160655.0,A,3341.887457,N,11744.068977,W,63.8,38.1,080910,,,A*7E
$GPRMC,160658.0,A,3341.928553,N,11744.028746,W,63.4,39.6,080910,,,A*70
$GPRMC,160701.0,A,3341.966098,N,11743.987220,W,62.9,43.0,080910,,,A*7C
$GPRMC,160704.0,A,3342.003312,N,11743.945009,W,62.5,43.6,080910,,,A*7C
$GPRMC,160707.0,A,3342.041579,N,11743.900954,W,63.1,44.9,080910,,,A*7F
$GPRMC,160710.0,A,3342.079953,N,11743.857852,W,60.7,43.2,080910,,,A*7B
$GPRMC,160713.0,A,3342.117584,N,11743.816558,W,59.2,43.1,080910,,,A*79
$GPRMC,160716.0,A,3342.154516,N,11743.774293,W,60.3,44.1,080910,,,A*77
$GPRMC,160719.0,A,3342.191698,N,11743.732590,W,60.9,44.0,080910,,,A*79
$GPRMC,160722.0,A,3342.229874,N,11743.690715,W,60.9,42.0,080910,,,A*7D
$GPRMC,160725.0,A,3342.270771,N,11743.649019,W,61.9,39.5,080910,,,A*7B
$GPRMC,160728.0,A,3342.312740,N,11743.612670,W,61.7,35.4,080910,,,A*75
$GPRMC,160731.0,A,3342.355850,N,11743.578761,W,62.3,31.6,080910,,,A*7F
$GPRMC,160734.0,A,3342.400677,N,11743.546809,W,63.3,31.5,080910,,,A*78
$GPRMC,160737.0,A,3342.446532,N,11743.519007,W,60.5,27.9,080910,,,A*79
$GPRMC,160740.0,A,3342.496783,N,11743.497441,W,60.8,21.3,080910,,,A*7C
$GPRMC,160743.0,A,3342.545302,N,11743.476678,W,61.2,19.5,080910,,,A*7C
$GPRMC,160746.0,A,3342.593471,N,11743.456940,W,60.8,18.8,080910,,,A*70
$GPRMC,160749.0,A,3342.638578,N,11743.438710,W,59.8,18.9,080910,,,A*7D
$GPRMC,160752.0,A,3342.686802,N,11743.420034,W,59.4,18.5,080910,,,A*7A
$GPRMC,160755.0,A,3342.734248,N,11743.400763,W,60.3,19.0,080910,,,A*7F
$GPRMC,160758.0,A,3342.783028,N,11743.381494,W,60.7,18.4,080910,,,A*7E
$GPRMC,160801.0,A,3342.831557,N,11743.362880,W,60.6,19.4,080910,,,A*72
$GPRMC,160804.0,A,3342.879979,N,11743.340470,W,60.6,22.0,080910,,,A*74
$GPRMC,160807.0,A,3342.925422,N,11743.315561,W,59.9,25.3,080910,,,A*7C
$GPRMC,160810.0,A,3342.969030,N,11743.285792,W,60.4,29.1,080910,,,A*7A
$GPRMC,160813.0,A,3343.013438,N,11743.255185,W,61.0,30.5,080910,,,A*74
$GPRMC,160823.0,A,3343.172168,N,11743.171165,W,60.3,24.0,080910,,,A*78
$GPRMC,160826.0,A,3343.219164,N,11743.164222,W,55.7,10.8,080910,,,A*76
$GPRMC,160829.0,A,3343.272349,N,11743.168677,W,59.1,0.5,080910,,,A*47
$GPRMC,160832.0,A,3343.326062,N,11743.165282,W,61.9,3.9,080910,,,A*48
$GPRMC,160835.0,A,3343.380565,N,11743.160926,W,63.3,4.8,080910,,,A*4F
$GPRMC,160838.0,A,3343.435179,N,11743.156694,W,64.6,4.6,080910,,,A*4D
$GPRMC,160841.0,A,3343.488715,N,11743.151716,W,64.5,5.6,080910,,,A*47
$GPRMC,160844.0,A,3343.543716,N,11743.144649,W,65.4,6.1,080910,,,A*4C
$GPRMC,160847.0,A,3343.597973,N,11743.136540,W,65.2,6.1,080910,,,A*42
$GPRMC,160850.0,A,3343.654091,N,11743.130221,W,66.3,5.6,080910,,,A*4D
$GPRMC,160853.0,A,3343.710325,N,11743.122961,W,67.3,6.2,080910,,,A*49
$GPRMC,160856.0,A,3343.765816,N,11743.115430,W,67.2,6.5,080910,,,A*4E
$GPRMC,160859.0,A,3343.820560,N,11743.107610,W,67.2,6.4,080910,,,A*41
$GPRMC,160902.0,A,3343.876452,N,11743.101128,W,67.7,6.3,080910,,,A*45
$GPRMC,160905.0,A,3343.932880,N,11743.093444,W,67.7,5.9,080910,,,A*4C
$GPRMC,160908.0,A,3343.987765,N,11743.086401,W,67.7,5.9,080910,,,A*4E
$GPRMC,160911.0,A,3344.044060,N,11743.079753,W,67.5,6.2,080910,,,A*4B
$GPRMC,160914.0,A,3344.100980,N,11743.071837,W,67.8,6.4,080910,,,A*46
$GPRMC,160917.0,A,3344.156283,N,11743.063715,W,67.3,5.8,080910,,,A*46
$GPRMC,160920.0,A,3344.211972,N,11743.057502,W,67.9,5.7,080910,,,A*41
$GPRMC,160923.0,A,3344.268239,N,11743.051745,W,67.3,5.2,080910,,,A*40
$GPRMC,160926.0,A,3344.323033,N,11743.048169,W,65.4,4.0,080910,,,A*45
$GPRMC,160929.0,A,3344.378933,N,11743.053658,W,66.7,355.2,080910,,,A*47
$GPRMC,160932.0,A,3344.436481,N,11743.063848,W,68.1,351.1,080910,,,A*47
$GPRMC,160935.0,A,3344.494007,N,11743.078773,W,68.3,345.8,080910,,,A*41
$GPRMC,160938.0,A,3344.548185,N,11743.099950,W,66.5,341.5,080910,,,A*46
$GPRMC,160941.0,A,3344.600643,N,11743.125250,W,66.6,337.5,080910,,,A*45
$GPRMC,160944.0,A,3344.646621,N,11743.154063,W,65.1,332.2,080910,,,A*44
$GPRMC,160947.0,A,3344.692551,N,11743.188190,W,65.0,328.2,080910,,,A*4C
$GPRMC,160950.0,A,3344.737798,N,11743.226170,W,65.5,323.2,080910,,,A*44
$GPRMC,160953.0,A,3344.779454,N,11743.268272,W,65.7,319.7,080910,,,A*4B
$GPRMC,160956.0,A,3344.817115,N,11743.312887,W,65.1,315.1,080910,,,A*49
$GPRMC,160959.0,A,3344.852406,N,11743.361132,W,65.0,311.0,080910,,,A*47
$GPRMC,161002.0,A,3344.883734,N,11743.414747,W,65.3,305.8,080910,,,A*40
$GPRMC,161005.0,A,3344.911631,N,11743.469549,W,64.6,301.8,080910,,,A*4F
$GPRMC,161008.0,A,3344.939890,N,11743.523985,W,63.2,302.4,080910,,,A*42
$GPRMC,161011.0,A,3344.965476,N,11743.578496,W,62.3,300.0,080910,,,A*40
$GPRMC,161014.0,A,3344.993531,N,11743.632146,W,63.1,300.5,080910,,,A*4D
$GPRMC,161017.0,A,3345.020982,N,11743.686492,W,63.8,301.0,080910,,,A*44
$GPRMC,161020.0,A,3345.051514,N,11743.739275,W,61.8,304.7,080910,,,A*4F
$GPRMC,161023.0,A,3345.085387,N,11743.787622,W,64.2,311.3,080910,,,A*45
$GPRMC,161026.0,A,3345.128658,N,11743.833845,W,65.3,314.9,080910,,,A*41
$GPRMC,161029.0,A,3345.170861,N,11743.875556,W,63.9,317.7,080910,,,A*4B
$GPRMC,161032.0,A,3345.217462,N,11743.910911,W,60.7,324.4,080910,,,A*4F
$GPRMC,161035.0,A,3345.266587,N,11743.933285,W,62.0,336.4,080910,,,A*45
$GPRMC,161038.0,A,3345.316144,N,11743.952567,W,62.7,342.9,080910,,,A*40
$GPRMC,161041.0,A,3345.366682,N,11743.964144,W,63.5,349.4,080910,,,A*41
$GPRMC,161044.0,A,3345.418925,N,11743.969321,W,62.8,356.6,080910,,,A*44
$GPRMC,161047.0,A,3345.470507,N,11743.969026,W,62.2,0.3,080910,,,A*4E
$GPRMC,161050.0,A,3345.527271,N,11743.966486,W,64.1,1.1,080910,,,A*4A
$GPRMC,161053.0,A,3345.582888,N,11743.953338,W,66.2,7.4,080910,,,A*4C
$GPRMC,161056.0,A,3345.638575,N,11743.943831,W,67.5,8.5,080910,,,A*4F
$GPRMC,161059.0,A,3345.691891,N,11743.934770,W,67.1,6.0,080910,,,A*41
$GPRMC,161102.0,A,3345.748414,N,11743.930563,W,67.6,359.8,080910,,,A*48
$GPRMC,161105.0,A,3345.804538,N,11743.936318,W,67.9,353.5,080910,,,A*43
$GPRMC,161108.0,A,3345.860946,N,11743.948431,W,67.7,347.2,080910,,,A*40
$GPRMC,161111.0,A,3345.914263,N,11743.968830,W,67.8,340.1,080910,,,A*42
$GPRMC,161114.0,A,3345.964881,N,11743.996751,W,67.9,333.4,080910,,,A*4F
$GPRMC,161117.0,A,3346.008734,N,11744.032163,W,65.9,326.3,080910,,,A*4B
$GPRMC,161120.0,A,3346.052149,N,11744.071009,W,67.2,323.5,080910,,,A*4C
$GPRMC,161123.0,A,3346.090933,N,11744.112452,W,62.7,320.6,080910,,,A*4A
$GPRMC,161126.0,A,3346.125292,N,11744.170613,W,68.5,307.9,080910,,,A*41
$GPRMC,161129.0,A,3346.161139,N,11744.227721,W,69.7,306.6,080910,,,A*40
$GPRMC,161133.0,A,3346.205921,N,11744.303830,W,70.9,305.5,080910,,,A*45
$GPRMC,161136.0,A,3346.239730,N,11744.358105,W,68.7,305.8,080910,,,A*4A
$GPRMC,161139.0,A,3346.273757,N,11744.413699,W,68.7,306.2,080910,,,A*49
$GPRMC,161142.0,A,3346.311518,N,11744.473486,W,72.8,306.8,080910,,,A*4D
$GPRMC,161145.0,A,3346.345686,N,11744.530483,W,71.0,306.3,080910,,,A*4C
$GPRMC,161148.0,A,3346.382252,N,11744.585990,W,71.4,309.3,080910,,,A*4D
$GPRMC,161151.0,A,3346.418665,N,11744.638563,W,69.0,312.0,080910,,,A*40
$GPRMC,161154.0,A,3346.458076,N,11744.686728,W,68.7,315.2,080910,,,A*4E
$GPRMC,161157.0,A,3346.503154,N,11744.732534,W,70.5,319.3,080910,,,A*44
$GPRMC,161200.0,A,3346.549253,N,11744.773765,W,69.6,325.7,080910,,,A*4C
$GPRMC,161203.0,A,3346.598208,N,11744.808969,W,69.0,332.4,080910,,,A*4F
$GPRMC,161206.0,A,3346.651393,N,11744.836991,W,67.9,338.2,080910,,,A*4E
$GPRMC,161209.0,A,3346.707479,N,11744.858914,W,70.4,340.4,080910,,,A*47
$GPRMC,161212.0,A,3346.762784,N,11744.867557,W,66.9,351.6,080910,,,A*40
$GPRMC,161215.0,A,3346.820125,N,11744.870508,W,67.7,358.1,080910,,,A*4E
$GPRMC,161218.0,A,3346.874027,N,11744.866304,W,67.0,4.9,080910,,,A*49
$GPRMC,161221.0,A,3346.928431,N,11744.851348,W,65.0,12.2,080910,,,A*7A
$GPRMC,161224.0,A,3346.981066,N,11744.833144,W,66.0,17.0,080910,,,A*74
$GPRMC,161227.0,A,3347.032497,N,11744.807660,W,67.1,23.7,080910,,,A*7B
$GPRMC,161230.0,A,3347.081491,N,11744.775537,W,67.2,29.6,080910,,,A*70
$GPRMC,161233.0,A,3347.128339,N,11744.739358,W,67.9,34.0,080910,,,A*72
$GPRMC,161236.0,A,3347.170861,N,11744.697811,W,67.6,38.8,080910,,,A*74
$GPRMC,161239.0,A,3347.212419,N,11744.651653,W,67.5,44.4,080910,,,A*79
$GPRMC,161242.0,A,3347.246693,N,11744.601956,W,65.6,49.1,080910,,,A*72
$GPRMC,161245.0,A,3347.280516,N,11744.552861,W,64.7,50.0,080910,,,A*78
$GPRMC,161248.0,A,3347.312587,N,11744.499933,W,64.8,53.3,080910,,,A*78
$GPRMC,161251.0,A,3347.345913,N,11744.447716,W,65.4,53.3,080910,,,A*74
$GPRMC,161254.0,A,3347.378279,N,11744.397299,W,62.8,53.2,080910,,,A*7A
$GPRMC,161257.0,A,3347.407732,N,11744.348852,W,61.0,53.2,080910,,,A*78
$GPRMC,161300.0,A,3347.437303,N,11744.301051,W,60.5,53.5,080910,,,A*7B
$GPRMC,161303.0,A,3347.467600,N,11744.252492,W,61.3,53.5,080910,,,A*70
$GPRMC,161306.0,A,3347.497777,N,11744.203874,W,60.7,52.5,080910,,,A*7F
$GPRMC,161309.0,A,3347.528357,N,11744.155845,W,60.5,52.5,080910,,,A*73
$GPRMC,161312.0,A,3347.559034,N,11744.106701,W,61.3,53.3,080910,,,A*70
$GPRMC,161315.0,A,3347.588300,N,11744.056912,W,61.6,53.4,080910,,,A*75
$GPRMC,161318.0,A,3347.619745,N,11744.007502,W,61.8,52.8,080910,,,A*7C
$GPRMC,161321.0,A,3347.650702,N,11743.959111,W,61.4,52.7,080910,,,A*78
$GPRMC,161324.0,A,3347.682032,N,11743.909923,W,61.7,53.1,080910,,,A*7E
$GPRMC,161327.0,A,3347.712392,N,11743.858823,W,61.8,53.8,080910,,,A*7E
$GPRMC,161330.0,A,3347.743435,N,11743.807935,W,62.6,53.7,080910,,,A*78
$GPRMC,161333.0,A,3347.775248,N,11743.758637,W,62.7,52.5,080910,,,A*78
$GPRMC,161336.0,A,3347.808686,N,11743.709758,W,62.7,49.3,080910,,,A*7E
$GPRMC,161339.0,A,3347.847643,N,11743.667460,W,62.0,42.6,080910,,,A*7B
$GPRMC,161342.0,A,3347.889477,N,11743.627754,W,61.4,36.4,080910,,,A*76
$GPRMC,161345.0,A,3347.938592,N,11743.594875,W,63.4,29.7,080910,,,A*78
$GPRMC,161348.0,A,3347.986159,N,11743.567210,W,63.5,26.1,080910,,,A*7E
$GPRMC,161351.0,A,3348.037931,N,11743.541972,W,66.4,24.0,080910,,,A*70
$GPRMC,161354.0,A,3348.088531,N,11743.530123,W,62.2,14.0,080910,,,A*76
$GPRMC,161357.0,A,3348.138871,N,11743.518005,W,62.0,12.6,080910,,,A*7B
$GPRMC,161400.0,A,3348.188950,N,11743.504661,W,62.6,13.1,080910,,,A*7E
$GPRMC,161403.0,A,3348.240328,N,11743.490339,W,63.0,13.1,080910,,,A*7C
$GPRMC,161406.0,A,3348.291736,N,11743.475683,W,63.6,13.0,080910,,,A*76
$GPRMC,161409.0,A,3348.343408,N,11743.460976,W,64.3,13.6,080910,,,A*7C
$GPRMC,161412.0,A,3348.396199,N,11743.442593,W,65.8,17.4,080910,,,A*78
$GPRMC,161415.0,A,3348.447283,N,11743.418897,W,65.4,21.5,080910,,,A*72
$GPRMC,161418.0,A,3348.498259,N,11743.391852,W,68.3,23.9,080910,,,A*71
$GPRMC,161421.0,A,3348.546030,N,11743.360680,W,66.3,28.4,080910,,,A*73
$GPRMC,161424.0,A,3348.592493,N,11743.328524,W,65.8,29.9,080910,,,A*77
$GPRMC,161427.0,A,3348.639784,N,11743.296383,W,65.8,29.9,080910,,,A*7C
$GPRMC,161430.0,A,3348.686101,N,11743.264501,W,64.2,30.0,080910,,,A*7E
$GPRMC,161433.0,A,3348.732505,N,11743.234512,W,62.6,29.6,080910,,,A*78
$GPRMC,161436.0,A,3348.776231,N,11743.205240,W,61.6,29.3,080910,,,A*79
$GPRMC,161439.0,A,3348.823033,N,11743.177867,W,61.6,27.0,080910,,,A*7D
$GPRMC,161442.0,A,3348.871279,N,11743.151769,W,62.3,25.0,080910,,,A*7B
$GPRMC,161445.0,A,3348.920438,N,11743.127125,W,63.5,22.5,080910,,,A*70
$GPRMC,161448.0,A,3348.971584,N,11743.102793,W,63.8,20.9,080910,,,A*70
$GPRMC,161451.0,A,3349.022609,N,11743.079524,W,63.6,20.1,080910,,,A*75
$GPRMC,161454.0,A,3349.072476,N,11743.059897,W,63.4,17.5,080910,,,A*7A
$GPRMC,161457.0,A,3349.119435,N,11743.046067,W,60.6,15.4,080910,,,A*79
$GPRMC,161500.0,A,3349.165493,N,11743.035574,W,57.3,12.4,080910,,,A*78
$GPRMC,161503.0,A,3349.214724,N,11743.025477,W,59.3,10.7,080910,,,A*7D
$GPRMC,161506.0,A,3349.260715,N,11743.016135,W,57.6,9.4,080910,,,A*4A
$GPRMC,161509.0,A,3349.308933,N,11743.008434,W,57.3,7.6,080910,,,A*42
$GPRMC,161512.0,A,3349.355241,N,11743.001818,W,57.3,5.8,080910,,,A*49
$GPRMC,161515.0,A,3349.404117,N,11742.995120,W,57.9,5.6,080910,,,A*4E
$GPRMC,161518.0,A,3349.452657,N,11742.989908,W,58.2,3.2,080910,,,A*4A
$GPRMC,161521.0,A,3349.501354,N,11742.987036,W,59.3,2.1,080910,,,A*49
$GPRMC,161524.0,A,3349.551031,N,11742.985475,W,59.8,0.4,080910,,,A*44
$GPRMC,161527.0,A,3349.601119,N,11742.985889,W,59.9,358.9,080910,,,A*47
$GPRMC,161530.0,A,3349.650366,N,11742.988147,W,58.1,356.9,080910,,,A*4E
$GPRMC,161533.0,A,3349.697889,N,11742.990778,W,56.3,357.8,080910,,,A*43
$GPRMC,161536.0,A,3349.746575,N,11742.995440,W,57.6,356.6,080910,,,A*43
$GPRMC,161539.0,A,3349.794453,N,11743.003794,W,57.1,352.2,080910,,,A*4C
$GPRMC,161542.0,A,3349.842368,N,11743.010884,W,57.3,353.8,080910,,,A*4E
$GPRMC,161545.0,A,3349.890714,N,11743.016494,W,58.6,354.6,080910,,,A*41
$GPRMC,161548.0,A,3349.940916,N,11743.021647,W,59.2,354.1,080910,,,A*46
$GPRMC,161551.0,A,3349.992263,N,11743.028011,W,61.2,354.4,080910,,,A*4A
$GPRMC,161554.0,A,3350.041975,N,11743.034812,W,60.9,353.7,080910,,,A*44
$GPRMC,161557.0,A,3350.093389,N,11743.042594,W,61.5,353.1,080910,,,A*48
$GPRMC,161600.0,A,3350.141173,N,11743.051171,W,60.7,352.7,080910,,,A*49
$GPRMC,161603.0,A,3350.194008,N,11743.058846,W,61.2,354.0,080910,,,A*4E
$GPRMC,161606.0,A,3350.246374,N,11743.064440,W,62.2,355.5,080910,,,A*4D
