NMEA Sentence Code,UTC Time,Status,Latitude,Latitude Direction,Longitude,Longitude Direction,Speed (knots),Track Angle (degrees true),Date,MagneticVariation,Magnetic Variation Direction,[FAA Mode]-Optional,Checksum
$GPRMC,013300.000,A,3340.0611,N,11539.8800,W,56.20,265.10,101210,,,A*42
$GPRMC,013303.000,A,3340.0572,N,11539.9359,W,56.10,265.00,101210,,,A*43
$GPRMC,013306.000,A,3340.0530,N,11539.9910,W,55.70,264.80,101210,,,A*4B
$GPRMC,013309.000,A,3340.0488,N,11540.0461,W,55.30,265.00,101210,,,A*47
$GPRMC,013312.000,A,3340.0447,N,11540.1010,W,55.00,265.20,101210,,,A*4C
$GPRMC,013315.000,A,3340.0408,N,11540.1554,W,54.80,265.00,101210,,,A*4E
$GPRMC,013318.000,A,3340.0368,N,11540.2096,W,54.50,265.00,101210,,,A*47
$GPRMC,013321.000,A,3340.0328,N,11540.2636,W,54.10,265.30,101210,,,A*42
$GPRMC,013324.000,A,3340.0287,N,11540.3172,W,53.90,264.90,101210,,,A*41
$GPRMC,013327.000,A,3340.0248,N,11540.3706,W,53.60,265.20,101210,,,A*41
$GPRMC,013330.000,A,3340.0207,N,11540.4236,W,53.40,264.90,101210,,,A*45
$GPRMC,013333.000,A,3340.0169,N,11540.4768,W,53.20,265.10,101210,,,A*4C
$GPRMC,013336.000,A,3340.0130,N,11540.5296,W,52.90,265.00,101210,,,A*4B
$GPRMC,013339.000,A,3340.0093,N,11540.5823,W,52.70,265.00,101210,,,A*46
$GPRMC,013342.000,A,3340.0056,N,11540.6347,W,52.50,265.00,101210,,,A*4B
$GPRMC,013345.000,A,3340.0018,N,11540.6868,W,52.20,264.80,101210,,,A*4E
$GPRMC,013348.000,A,3339.9980,N,11540.7387,W,52.00,264.90,101210,,,A*44
$GPRMC,013351.000,A,3339.9943,N,11540.7903,W,51.80,265.30,101210,,,A*45
$GPRMC,013354.000,A,3339.9907,N,11540.8417,W,51.60,265.10,101210,,,A*4B
$GPRMC,013357.000,A,3339.9870,N,11540.8928,W,51.40,265.00,101210,,,A*4B
$GPRMC,013400.000,A,3339.9832,N,11540.9436,W,51.00,265.20,101210,,,A*4D
$GPRMC,013403.000,A,3339.9795,N,11540.9937,W,50.50,264.80,101210,,,A*4F
$GPRMC,013406.000,A,3339.9746,N,11541.0436,W,50.60,263.60,101210,,,A*4A
$GPRMC,013409.000,A,3339.9694,N,11541.0936,W,50.30,262.50,101210,,,A*41
$GPRMC,013412.000,A,3339.9625,N,11541.1439,W,50.60,260.60,101210,,,A*46
$GPRMC,013415.000,A,3339.9545,N,11541.1939,W,51.00,259.70,101210,,,A*45
$GPRMC,013418.000,A,3339.9468,N,11541.2443,W,51.10,258.70,101210,,,A*45
$GPRMC,013421.000,A,3339.9382,N,11541.2940,W,51.30,259.20,101210,,,A*44
$GPRMC,013424.000,A,3339.9297,N,11541.3443,W,51.90,259.20,101210,,,A*41
$GPRMC,013427.000,A,3339.9211,N,11541.3956,W,52.60,259.00,101210,,,A*4B
$GPRMC,013430.000,A,3339.9126,N,11541.4478,W,53.80,259.20,101210,,,A*41
$GPRMC,013433.000,A,3339.9038,N,11541.5011,W,54.60,259.00,101210,,,A*4D
$GPRMC,013436.000,A,3339.8949,N,11541.5551,W,55.30,259.10,101210,,,A*42
$GPRMC,013439.000,A,3339.8863,N,11541.6094,W,55.40,259.20,101210,,,A*4F
$GPRMC,013443.000,A,3339.8746,N,11541.6821,W,55.70,259.10,101210,,,A*4C
$GPRMC,013446.000,A,3339.8658,N,11541.7369,W,55.90,259.00,101210,,,A*4E
$GPRMC,013449.000,A,3339.8569,N,11541.7916,W,56.00,259.10,101210,,,A*49
$GPRMC,013452.000,A,3339.8480,N,11541.8463,W,55.90,259.00,101210,,,A*4E
$GPRMC,013455.000,A,3339.8392,N,11541.9011,W,55.90,259.10,101210,,,A*4C
$GPRMC,013458.000,A,3339.8304,N,11541.9559,W,55.90,259.10,101210,,,A*47
$GPRMC,013501.000,A,3339.8215,N,11542.0107,W,55.90,259.10,101210,,,A*4E
$GPRMC,013504.000,A,3339.8125,N,11542.0656,W,55.90,258.90,101210,,,A*41
$GPRMC,013507.000,A,3339.8037,N,11542.1206,W,55.90,259.00,101210,,,A*48
$GPRMC,013510.000,A,3339.7947,N,11542.1757,W,55.90,259.20,101210,,,A*4C
$GPRMC,013513.000,A,3339.7858,N,11542.2305,W,55.60,259.10,101210,,,A*4C
$GPRMC,013516.000,A,3339.7771,N,11542.2841,W,54.50,259.20,101210,,,A*47
$GPRMC,013519.000,A,3339.7681,N,11542.3361,W,53.50,258.90,101210,,,A*43
$GPRMC,013522.000,A,3339.7594,N,11542.3892,W,53.80,258.90,101210,,,A*46
$GPRMC,013525.000,A,3339.7501,N,11542.4420,W,54.80,258.30,101210,,,A*42
$GPRMC,013528.000,A,3339.7412,N,11542.4957,W,55.50,258.10,101210,,,A*4F
$GPRMC,013531.000,A,3339.7318,N,11542.5502,W,56.10,258.20,101210,,,A*43
$GPRMC,013534.000,A,3339.7231,N,11542.6056,W,56.20,259.30,101210,,,A*48
$GPRMC,013537.000,A,3339.7143,N,11542.6609,W,56.10,259.00,101210,,,A*41
$GPRMC,013540.000,A,3339.7057,N,11542.7161,W,55.60,259.60,101210,,,A*4F
$GPRMC,013543.000,A,3339.6976,N,11542.7715,W,56.00,259.00,101210,,,A*41
$GPRMC,013546.000,A,3339.6887,N,11542.8260,W,55.90,259.00,101210,,,A*49
$GPRMC,013549.000,A,3339.6799,N,11542.8809,W,55.90,259.00,101210,,,A*43
$GPRMC,013552.000,A,3339.6710,N,11542.9361,W,56.00,259.00,101210,,,A*46
$GPRMC,013555.000,A,3339.6621,N,11542.9907,W,55.90,259.00,101210,,,A*42
$GPRMC,013558.000,A,3339.6529,N,11543.0451,W,55.90,259.00,101210,,,A*42
$GPRMC,013601.000,A,3339.6440,N,11543.1003,W,55.90,259.20,101210,,,A*43
$GPRMC,013604.000,A,3339.6356,N,11543.1552,W,55.80,260.00,101210,,,A*4E
$GPRMC,013607.000,A,3339.6282,N,11543.2102,W,55.90,261.40,101210,,,A*43
$GPRMC,013610.000,A,3339.6222,N,11543.2656,W,55.90,263.40,101210,,,A*4B
$GPRMC,013613.000,A,3339.6174,N,11543.3215,W,56.00,264.90,101210,,,A*4A
$GPRMC,013616.000,A,3339.6133,N,11543.3773,W,56.00,265.40,101210,,,A*45
$GPRMC,013619.000,A,3339.6110,N,11543.4336,W,56.30,267.60,101210,,,A*4A
$GPRMC,013622.000,A,3339.6096,N,11543.4893,W,56.20,269.70,101210,,,A*47
$GPRMC,013625.000,A,3339.6097,N,11543.5453,W,56.10,270.80,101210,,,A*44
$GPRMC,013628.000,A,3339.6105,N,11543.6010,W,56.00,271.40,101210,,,A*4F
$GPRMC,013631.000,A,3339.6115,N,11543.6567,W,56.00,270.70,101210,,,A*41
$GPRMC,013634.000,A,3339.6119,N,11543.7127,W,56.00,270.70,101210,,,A*49
$GPRMC,013637.000,A,3339.6122,N,11543.7687,W,56.00,270.30,101210,,,A*4B
$GPRMC,013640.000,A,3339.6121,N,11543.8245,W,56.00,269.80,101210,,,A*4E
$GPRMC,013643.000,A,3339.6120,N,11543.8802,W,56.00,270.00,101210,,,A*45
$GPRMC,013646.000,A,3339.6121,N,11543.9362,W,56.00,270.30,101210,,,A*4E
$GPRMC,013649.000,A,3339.6123,N,11543.9923,W,56.00,270.30,101210,,,A*4C
$GPRMC,013652.000,A,3339.6125,N,11544.0483,W,56.00,270.20,101210,,,A*48
$GPRMC,013655.000,A,3339.6128,N,11544.1041,W,56.00,270.10,101210,,,A*4A
$GPRMC,013658.000,A,3339.6129,N,11544.1600,W,56.00,270.30,101210,,,A*47
$GPRMC,013701.000,A,3339.6130,N,11544.2159,W,56.00,270.10,101210,,,A*48
$GPRMC,013704.000,A,3339.6133,N,11544.2718,W,56.00,270.50,101210,,,A*49
$GPRMC,013707.000,A,3339.6135,N,11544.3279,W,56.10,270.30,101210,,,A*48
$GPRMC,013710.000,A,3339.6136,N,11544.3839,W,56.20,270.20,101210,,,A*41
$GPRMC,013713.000,A,3339.6138,N,11544.4400,W,56.20,270.20,101210,,,A*4D
$GPRMC,013716.000,A,3339.6140,N,11544.4962,W,56.20,270.10,101210,,,A*4D
$GPRMC,013719.000,A,3339.6141,N,11544.5524,W,56.30,270.30,101210,,,A*4F
$GPRMC,013722.000,A,3339.6144,N,11544.6087,W,56.30,270.20,101210,,,A*4C
$GPRMC,013725.000,A,3339.6145,N,11544.6649,W,56.30,270.30,101210,,,A*4F
$GPRMC,013728.000,A,3339.6146,N,11544.7211,W,56.30,270.20,101210,,,A*48
$GPRMC,013731.000,A,3339.6148,N,11544.7774,W,56.30,270.20,101210,,,A*48
$GPRMC,013734.000,A,3339.6150,N,11544.8337,W,56.40,270.20,101210,,,A*4F
$GPRMC,013737.000,A,3339.6151,N,11544.8899,W,56.40,270.20,101210,,,A*42
$GPRMC,013740.000,A,3339.6152,N,11544.9461,W,56.40,270.10,101210,,,A*48
$GPRMC,013743.000,A,3339.6154,N,11545.0024,W,56.50,270.40,101210,,,A*44
$GPRMC,013746.000,A,3339.6158,N,11545.0588,W,56.50,270.40,101210,,,A*4E
$GPRMC,013749.000,A,3339.6161,N,11545.1153,W,56.60,270.00,101210,,,A*4F
$GPRMC,013752.000,A,3339.6161,N,11545.1717,W,56.60,270.20,101210,,,A*41
$GPRMC,013755.000,A,3339.6163,N,11545.2282,W,56.60,270.20,101210,,,A*4E
$GPRMC,013758.000,A,3339.6164,N,11545.2847,W,56.60,270.40,101210,,,A*41
$GPRMC,013801.000,A,3339.6166,N,11545.3412,W,56.60,270.10,101210,,,A*48
$GPRMC,013804.000,A,3339.6169,N,11545.3975,W,56.60,270.30,101210,,,A*4C
$GPRMC,013807.000,A,3339.6172,N,11545.4541,W,56.70,270.10,101210,,,A*4A
$GPRMC,013810.000,A,3339.6169,N,11545.5107,W,56.70,269.00,101210,,,A*48
$GPRMC,013813.000,A,3339.6159,N,11545.5672,W,56.60,268.80,101210,,,A*45
$GPRMC,013816.000,A,3339.6155,N,11545.6239,W,56.70,269.90,101210,,,A*45
$GPRMC,013819.000,A,3339.6156,N,11545.6804,W,56.70,270.10,101210,,,A*4D
$GPRMC,013822.000,A,3339.6157,N,11545.7369,W,56.40,270.50,101210,,,A*42
$GPRMC,013825.000,A,3339.6162,N,11545.7931,W,56.70,270.10,101210,,,A*43
$GPRMC,013828.000,A,3339.6165,N,11545.8499,W,56.70,270.20,101210,,,A*4A
$GPRMC,013831.000,A,3339.6167,N,11545.9065,W,56.80,270.00,101210,,,A*4B
$GPRMC,013834.000,A,3339.6166,N,11545.9632,W,56.70,270.30,101210,,,A*47
$GPRMC,013837.000,A,3339.6171,N,11546.0198,W,56.70,270.30,101210,,,A*4F
$GPRMC,013840.000,A,3339.6172,N,11546.0765,W,56.60,270.10,101210,,,A*4B
$GPRMC,013843.000,A,3339.6172,N,11546.1328,W,56.60,270.00,101210,,,A*45
$GPRMC,013846.000,A,3339.6173,N,11546.1894,W,56.70,270.10,101210,,,A*4D
$GPRMC,013849.000,A,3339.6176,N,11546.2460,W,56.70,270.50,101210,,,A*47
$GPRMC,013852.000,A,3339.6180,N,11546.3026,W,56.70,270.50,101210,,,A*43
$GPRMC,013855.000,A,3339.6183,N,11546.3592,W,56.70,270.10,101210,,,A*49
$GPRMC,013858.000,A,3339.6183,N,11546.4158,W,56.70,270.10,101210,,,A*41
$GPRMC,013901.000,A,3339.6187,N,11546.4725,W,56.70,270.80,101210,,,A*4D
$GPRMC,013904.000,A,3339.6197,N,11546.5291,W,56.70,271.10,101210,,,A*4A
$GPRMC,013907.000,A,3339.6207,N,11546.5856,W,56.60,270.90,101210,,,A*4A
$GPRMC,013910.000,A,3339.6210,N,11546.6422,W,56.60,269.90,101210,,,A*4E
$GPRMC,013913.000,A,3339.6210,N,11546.6988,W,56.60,270.20,101210,,,A*43
$GPRMC,013916.000,A,3339.6214,N,11546.7553,W,56.60,270.50,101210,,,A*4E
$GPRMC,013919.000,A,3339.6215,N,11546.8118,W,56.60,270.00,101210,,,A*41
$GPRMC,013922.000,A,3339.6216,N,11546.8682,W,56.20,270.40,101210,,,A*4E
$GPRMC,013925.000,A,3339.6218,N,11546.9243,W,56.10,270.20,101210,,,A*4A
$GPRMC,013928.000,A,3339.6218,N,11546.9802,W,56.00,270.10,101210,,,A*4A
$GPRMC,013931.000,A,3339.6219,N,11547.0361,W,55.90,270.10,101210,,,A*4F
$GPRMC,013934.000,A,3339.6222,N,11547.0919,W,55.90,270.30,101210,,,A*45
$GPRMC,013937.000,A,3339.6222,N,11547.1477,W,55.80,270.00,101210,,,A*40
$GPRMC,013940.000,A,3339.6222,N,11547.2035,W,55.80,270.00,101210,,,A*41
$GPRMC,013943.000,A,3339.6223,N,11547.2590,W,55.80,270.20,101210,,,A*4B
$GPRMC,013946.000,A,3339.6226,N,11547.3147,W,55.80,270.40,101210,,,A*42
$GPRMC,013949.000,A,3339.6228,N,11547.3704,W,55.70,270.30,101210,,,A*4A
$GPRMC,013952.000,A,3339.6230,N,11547.4260,W,55.60,270.20,101210,,,A*49
$GPRMC,013955.000,A,3339.6230,N,11547.4815,W,55.50,269.90,101210,,,A*46
$GPRMC,013958.000,A,3339.6230,N,11547.5368,W,55.40,270.10,101210,,,A*4A
$GPRMC,014001.000,A,3339.6232,N,11547.5921,W,55.30,270.20,101210,,,A*49
$GPRMC,014004.000,A,3339.6234,N,11547.6471,W,55.20,270.40,101210,,,A*46
$GPRMC,014007.000,A,3339.6237,N,11547.7021,W,55.10,270.20,101210,,,A*43
$GPRMC,014010.000,A,3339.6239,N,11547.7571,W,55.20,270.30,101210,,,A*49
$GPRMC,014013.000,A,3339.6242,N,11547.8122,W,55.20,270.20,101210,,,A*4A
$GPRMC,014016.000,A,3339.6243,N,11547.8673,W,55.20,270.10,101210,,,A*4E
$GPRMC,014019.000,A,3339.6245,N,11547.9225,W,55.00,270.30,101210,,,A*41
$GPRMC,014022.000,A,3339.6248,N,11547.9774,W,55.10,270.20,101210,,,A*45
$GPRMC,014025.000,A,3339.6251,N,11548.0324,W,55.30,270.20,101210,,,A*4F
$GPRMC,014028.000,A,3339.6252,N,11548.0879,W,55.70,270.00,101210,,,A*44
$GPRMC,014031.000,A,3339.6253,N,11548.1435,W,55.70,270.20,101210,,,A*4A
$GPRMC,014034.000,A,3339.6254,N,11548.1993,W,55.80,270.10,101210,,,A*45
$GPRMC,014037.000,A,3339.6260,N,11548.2551,W,55.90,270.90,101210,,,A*49
$GPRMC,014040.000,A,3339.6264,N,11548.3109,W,55.80,269.60,101210,,,A*43
$GPRMC,014043.000,A,3339.6260,N,11548.3666,W,55.80,269.70,101210,,,A*4B
$GPRMC,014046.000,A,3339.6260,N,11548.4221,W,55.80,270.10,101210,,,A*40
$GPRMC,014049.000,A,3339.6260,N,11548.4778,W,55.80,270.10,101210,,,A*46
$GPRMC,014052.000,A,3339.6264,N,11548.5334,W,55.80,270.40,101210,,,A*40
$GPRMC,014055.000,A,3339.6269,N,11548.5891,W,55.80,270.80,101210,,,A*42
$GPRMC,014058.000,A,3339.6283,N,11548.6448,W,55.80,272.90,101210,,,A*43
$GPRMC,014101.000,A,3339.6314,N,11548.7004,W,55.80,274.50,101210,,,A*46
$GPRMC,014104.000,A,3339.6351,N,11548.7560,W,55.80,274.60,101210,,,A*46
$GPRMC,014107.000,A,3339.6389,N,11548.8116,W,55.70,274.50,101210,,,A*46
$GPRMC,014110.000,A,3339.6426,N,11548.8672,W,55.80,274.50,101210,,,A*48
$GPRMC,014113.000,A,3339.6463,N,11548.9228,W,55.80,274.50,101210,,,A*40
$GPRMC,014116.000,A,3339.6501,N,11548.9783,W,55.80,274.60,101210,,,A*47
$GPRMC,014119.000,A,3339.6537,N,11549.0338,W,55.80,274.40,101210,,,A*43
$GPRMC,014122.000,A,3339.6573,N,11549.0892,W,55.80,274.50,101210,,,A*41
$GPRMC,014125.000,A,3339.6612,N,11549.1448,W,55.80,274.70,101210,,,A*4A
$GPRMC,014128.000,A,3339.6649,N,11549.2002,W,55.80,274.50,101210,,,A*42
$GPRMC,014131.000,A,3339.6686,N,11549.2558,W,55.80,274.50,101210,,,A*43
$GPRMC,014134.000,A,3339.6722,N,11549.3114,W,55.80,274.50,101210,,,A*44
$GPRMC,014137.000,A,3339.6761,N,11549.3670,W,55.90,274.90,101210,,,A*48
$GPRMC,014140.000,A,3339.6799,N,11549.4226,W,55.90,274.50,101210,,,A*43
$GPRMC,014143.000,A,3339.6837,N,11549.4782,W,56.00,274.70,101210,,,A*48
$GPRMC,014146.000,A,3339.6875,N,11549.5340,W,56.00,274.50,101210,,,A*42
$GPRMC,014149.000,A,3339.6911,N,11549.5897,W,56.00,274.50,101210,,,A*4F
$GPRMC,014152.000,A,3339.6948,N,11549.6454,W,56.00,274.50,101210,,,A*49
$GPRMC,014155.000,A,3339.6983,N,11549.7013,W,56.00,274.30,101210,,,A*49
$GPRMC,014158.000,A,3339.7018,N,11549.7571,W,56.00,274.70,101210,,,A*4B
$GPRMC,014201.000,A,3339.7055,N,11549.8127,W,56.00,274.70,101210,,,A*45
$GPRMC,014204.000,A,3339.7094,N,11549.8683,W,56.00,274.70,101210,,,A*44
$GPRMC,014207.000,A,3339.7132,N,11549.9241,W,56.00,274.60,101210,,,A*40
$GPRMC,014210.000,A,3339.7168,N,11549.9798,W,56.00,274.40,101210,,,A*4A
$GPRMC,014213.000,A,3339.7205,N,11550.0357,W,56.10,274.40,101210,,,A*46
$GPRMC,014216.000,A,3339.7242,N,11550.0914,W,56.10,274.60,101210,,,A*4F
$GPRMC,014219.000,A,3339.7280,N,11550.1472,W,56.10,274.50,101210,,,A*41
$GPRMC,014222.000,A,3339.7317,N,11550.2030,W,56.10,274.60,101210,,,A*44
$GPRMC,014225.000,A,3339.7354,N,11550.2588,W,56.10,274.60,101210,,,A*42
$GPRMC,014228.000,A,3339.7393,N,11550.3146,W,56.10,274.60,101210,,,A*43
$GPRMC,014231.000,A,3339.7431,N,11550.3704,W,56.10,274.50,101210,,,A*47
$GPRMC,014234.000,A,3339.7468,N,11550.4263,W,56.00,274.40,101210,,,A*4D
$GPRMC,014237.000,A,3339.7503,N,11550.4820,W,55.90,274.60,101210,,,A*47
$GPRMC,014240.000,A,3339.7540,N,11550.5374,W,55.40,274.60,101210,,,A*46
$GPRMC,014243.000,A,3339.7577,N,11550.5924,W,55.20,274.50,101210,,,A*4B
$GPRMC,014246.000,A,3339.7614,N,11550.6473,W,55.10,274.50,101210,,,A*47
$GPRMC,014249.000,A,3339.7646,N,11550.7021,W,55.00,273.40,101210,,,A*4A
$GPRMC,014252.000,A,3339.7673,N,11550.7569,W,55.10,273.60,101210,,,A*4C
$GPRMC,014255.000,A,3339.7704,N,11550.8116,W,54.80,273.90,101210,,,A*4E
$GPRMC,014258.000,A,3339.7739,N,11550.8662,W,54.80,274.60,101210,,,A*41
$GPRMC,014301.000,A,3339.7775,N,11550.9206,W,54.80,274.60,101210,,,A*43
$GPRMC,014304.000,A,3339.7812,N,11550.9750,W,54.80,274.50,101210,,,A*4D
$GPRMC,014307.000,A,3339.7849,N,11551.0294,W,54.80,274.60,101210,,,A*46
$GPRMC,014310.000,A,3339.7884,N,11551.0838,W,54.70,274.50,101210,,,A*41
$GPRMC,014313.000,A,3339.7922,N,11551.1384,W,54.80,274.50,101210,,,A*4D
$GPRMC,014316.000,A,3339.7957,N,11551.1927,W,54.60,274.50,101210,,,A*47
$GPRMC,014319.000,A,3339.7995,N,11551.2468,W,54.30,274.80,101210,,,A*4B
$GPRMC,014322.000,A,3339.8031,N,11551.3005,W,54.10,274.60,101210,,,A*49
$GPRMC,014325.000,A,3339.8066,N,11551.3541,W,54.00,274.50,101210,,,A*4B
$GPRMC,014328.000,A,3339.8102,N,11551.4079,W,54.20,274.40,101210,,,A*4F
$GPRMC,014331.000,A,3339.8138,N,11551.4618,W,54.30,274.60,101210,,,A*4C
$GPRMC,014334.000,A,3339.8174,N,11551.5158,W,54.50,274.70,101210,,,A*44
$GPRMC,014337.000,A,3339.8211,N,11551.5701,W,54.60,274.50,101210,,,A*4C
$GPRMC,014340.000,A,3339.8247,N,11551.6243,W,54.40,274.50,101210,,,A*4D
$GPRMC,014343.000,A,3339.8281,N,11551.6785,W,54.40,274.60,101210,,,A*48
$GPRMC,014346.000,A,3339.8317,N,11551.7326,W,54.40,274.60,101210,,,A*4F
$GPRMC,014349.000,A,3339.8354,N,11551.7868,W,54.60,274.60,101210,,,A*44
$GPRMC,014352.000,A,3339.8389,N,11551.8417,W,55.80,274.20,101210,,,A*4E
$GPRMC,014355.000,A,3339.8425,N,11551.8977,W,56.60,274.60,101210,,,A*4A
$GPRMC,014358.000,A,3339.8464,N,11551.9536,W,56.10,274.60,101210,,,A*4D
$GPRMC,014401.000,A,3339.8500,N,11552.0093,W,55.60,274.80,101210,,,A*4F
$GPRMC,014404.000,A,3339.8536,N,11552.0643,W,55.30,274.60,101210,,,A*4F
$GPRMC,014407.000,A,3339.8574,N,11552.1191,W,55.10,274.50,101210,,,A*42
$GPRMC,014410.000,A,3339.8611,N,11552.1741,W,55.30,274.40,101210,,,A*4C
$GPRMC,014413.000,A,3339.8647,N,11552.2294,W,55.60,274.60,101210,,,A*45
$GPRMC,014416.000,A,3339.8683,N,11552.2850,W,55.80,274.60,101210,,,A*44
$GPRMC,014419.000,A,3339.8719,N,11552.3405,W,55.80,274.40,101210,,,A*46
$GPRMC,014422.000,A,3339.8755,N,11552.3962,W,56.10,274.40,101210,,,A*40
$GPRMC,014425.000,A,3339.8793,N,11552.4521,W,56.30,274.90,101210,,,A*4E
$GPRMC,014428.000,A,3339.8837,N,11552.5082,W,56.10,275.50,101210,,,A*40
$GPRMC,014431.000,A,3339.8883,N,11552.5638,W,55.90,275.60,101210,,,A*48
$GPRMC,014434.000,A,3339.8926,N,11552.6193,W,55.70,274.70,101210,,,A*48
$GPRMC,014437.000,A,3339.8962,N,11552.6746,W,55.70,274.50,101210,,,A*47
$GPRMC,014440.000,A,3339.8999,N,11552.7301,W,55.50,274.70,101210,,,A*45
$GPRMC,014443.000,A,3339.9035,N,11552.7854,W,55.50,274.40,101210,,,A*40
$GPRMC,014446.000,A,3339.9072,N,11552.8406,W,55.10,274.60,101210,,,A*44
$GPRMC,014449.000,A,3339.9110,N,11552.8953,W,55.00,274.90,101210,,,A*4D
$GPRMC,014452.000,A,3339.9146,N,11552.9499,W,54.90,274.40,101210,,,A*4B
$GPRMC,014455.000,A,3339.9183,N,11553.0045,W,54.90,274.50,101210,,,A*49
$GPRMC,014458.000,A,3339.9217,N,11553.0594,W,55.00,274.50,101210,,,A*4B
$GPRMC,014501.000,A,3339.9254,N,11553.1139,W,54.60,274.60,101210,,,A*47
$GPRMC,014504.000,A,3339.9290,N,11553.1678,W,54.10,274.60,101210,,,A*4F
$GPRMC,014507.000,A,3339.9328,N,11553.2215,W,53.90,275.30,101210,,,A*49
$GPRMC,014510.000,A,3339.9375,N,11553.2750,W,54.00,276.40,101210,,,A*49
$GPRMC,014513.000,A,3339.9435,N,11553.3284,W,54.10,277.80,101210,,,A*48
$GPRMC,014516.000,A,3339.9518,N,11553.3815,W,54.20,280.50,101210,,,A*47
$GPRMC,014519.000,A,3339.9609,N,11553.4353,W,54.30,281.90,101210,,,A*49
$GPRMC,014522.000,A,3339.9702,N,11553.4887,W,54.30,281.60,101210,,,A*46
$GPRMC,014525.000,A,3339.9793,N,11553.5420,W,54.30,281.60,101210,,,A*49
$GPRMC,014528.000,A,3339.9885,N,11553.5950,W,54.30,281.70,101210,,,A*47
$GPRMC,014531.000,A,3339.9976,N,11553.6481,W,54.30,281.50,101210,,,A*42
$GPRMC,014534.000,A,3340.0067,N,11553.7012,W,54.10,281.60,101210,,,A*47
$GPRMC,014537.000,A,3340.0159,N,11553.7540,W,54.10,281.80,101210,,,A*44
$GPRMC,014540.000,A,3340.0251,N,11553.8070,W,54.20,281.60,101210,,,A*4B
$GPRMC,014543.000,A,3340.0342,N,11553.8602,W,54.20,281.70,101210,,,A*49
$GPRMC,014546.000,A,3340.0432,N,11553.9132,W,54.20,281.30,101210,,,A*4D
$GPRMC,014549.000,A,3340.0523,N,11553.9663,W,54.20,281.60,101210,,,A*45
$GPRMC,014552.000,A,3340.0614,N,11554.0194,W,54.20,281.60,101210,,,A*49
$GPRMC,014555.000,A,3340.0705,N,11554.0725,W,54.30,281.60,101210,,,A*42
$GPRMC,014558.000,A,3340.0797,N,11554.1255,W,54.20,281.70,101210,,,A*47
$GPRMC,014601.000,A,3340.0889,N,11554.1787,W,54.60,281.50,101210,,,A*44
$GPRMC,014604.000,A,3340.0981,N,11554.2324,W,55.10,281.80,101210,,,A*4D
$GPRMC,014607.000,A,3340.1072,N,11554.2858,W,54.40,281.60,101210,,,A*40
$GPRMC,014610.000,A,3340.1166,N,11554.3395,W,55.10,281.90,101210,,,A*42
$GPRMC,014613.000,A,3340.1257,N,11554.3932,W,55.10,281.80,101210,,,A*46
$GPRMC,014616.000,A,3340.1351,N,11554.4468,W,55.10,281.70,101210,,,A*4E
$GPRMC,014619.000,A,3340.1447,N,11554.5015,W,55.40,281.70,101210,,,A*4B
$GPRMC,014622.000,A,3340.1543,N,11554.5556,W,55.30,281.70,101210,,,A*43
$GPRMC,014625.000,A,3340.1639,N,11554.6093,W,55.30,281.70,101210,,,A*45
$GPRMC,014628.000,A,3340.1727,N,11554.6636,W,55.30,281.70,101210,,,A*4F
$GPRMC,014631.000,A,3340.1821,N,11554.7180,W,55.40,281.80,101210,,,A*4D
$GPRMC,014634.000,A,3340.1913,N,11554.7721,W,55.30,281.40,101210,,,A*4E
$GPRMC,014637.000,A,3340.2004,N,11554.8261,W,55.30,281.70,101210,,,A*4C
$GPRMC,014640.000,A,3340.2100,N,11554.8797,W,55.30,281.70,101210,,,A*45
$GPRMC,014643.000,A,3340.2191,N,11554.9338,W,55.30,281.40,101210,,,A*4D
$GPRMC,014646.000,A,3340.2284,N,11554.9878,W,55.20,281.60,101210,,,A*43
$GPRMC,014649.000,A,3340.2376,N,11555.0416,W,54.70,281.60,101210,,,A*48
$GPRMC,014652.000,A,3340.2467,N,11555.0948,W,54.00,281.70,101210,,,A*45
$GPRMC,014655.000,A,3340.2559,N,11555.1473,W,53.60,281.80,101210,,,A*44
$GPRMC,014658.000,A,3340.2648,N,11555.1998,W,53.80,281.50,101210,,,A*41
$GPRMC,014701.000,A,3340.2737,N,11555.2527,W,54.10,281.40,101210,,,A*41
$GPRMC,014704.000,A,3340.2825,N,11555.3058,W,54.20,281.60,101210,,,A*45
$GPRMC,014707.000,A,3340.2917,N,11555.3588,W,54.20,281.80,101210,,,A*40
$GPRMC,014710.000,A,3340.3010,N,11555.4117,W,54.20,281.70,101210,,,A*43
$GPRMC,014713.000,A,3340.3102,N,11555.4647,W,54.20,281.50,101210,,,A*42
$GPRMC,014716.000,A,3340.3191,N,11555.5178,W,54.30,281.50,101210,,,A*46
$GPRMC,014719.000,A,3340.3282,N,11555.5708,W,54.30,281.70,101210,,,A*4B
$GPRMC,014722.000,A,3340.3374,N,11555.6239,W,54.20,281.60,101210,,,A*4F
$GPRMC,014725.000,A,3340.3464,N,11555.6770,W,54.20,281.60,101210,,,A*46
$GPRMC,014728.000,A,3340.3554,N,11555.7299,W,54.20,281.70,101210,,,A*4B
$GPRMC,014731.000,A,3340.3645,N,11555.7829,W,54.30,281.50,101210,,,A*42
$GPRMC,014734.000,A,3340.3736,N,11555.8360,W,53.90,281.70,101210,,,A*44
$GPRMC,014737.000,A,3340.3826,N,11555.8884,W,53.30,281.40,101210,,,A*41
$GPRMC,014740.000,A,3340.3914,N,11555.9404,W,53.00,281.50,101210,,,A*46
$GPRMC,014743.000,A,3340.4003,N,11555.9920,W,52.70,281.80,101210,,,A*4D
$GPRMC,014746.000,A,3340.4093,N,11556.0433,W,52.40,282.00,101210,,,A*4C
$GPRMC,014749.000,A,3340.4181,N,11556.0943,W,52.30,281.80,101210,,,A*47
$GPRMC,014752.000,A,3340.4268,N,11556.1452,W,51.80,281.70,101210,,,A*42
$GPRMC,014755.000,A,3340.4354,N,11556.1957,W,51.30,281.60,101210,,,A*49
$GPRMC,014758.000,A,3340.4438,N,11556.2457,W,50.90,281.50,101210,,,A*4F
$GPRMC,014801.000,A,3340.4520,N,11556.2950,W,50.40,281.30,101210,,,A*45
$GPRMC,014804.000,A,3340.4603,N,11556.3442,W,50.20,281.40,101210,,,A*4C
$GPRMC,014807.000,A,3340.4688,N,11556.3934,W,50.00,281.50,101210,,,A*43
$GPRMC,014810.000,A,3340.4760,N,11556.4413,W,49.70,281.10,101210,,,A*46
$GPRMC,014813.000,A,3340.4854,N,11556.4927,W,50.20,281.70,101210,,,A*4C
$GPRMC,014816.000,A,3340.4941,N,11556.5419,W,49.70,281.90,101210,,,A*4E
$GPRMC,014819.000,A,3340.5021,N,11556.5896,W,49.10,281.50,101210,,,A*4E
$GPRMC,014822.000,A,3340.5105,N,11556.6379,W,49.60,281.50,101210,,,A*4F
$GPRMC,014825.000,A,3340.5188,N,11556.6866,W,49.80,281.40,101210,,,A*47
$GPRMC,014828.000,A,3340.5273,N,11556.7359,W,50.30,281.70,101210,,,A*4B
$GPRMC,014831.000,A,3340.5358,N,11556.7854,W,50.60,281.60,101210,,,A*49
$GPRMC,014834.000,A,3340.5445,N,11556.8350,W,50.80,281.60,101210,,,A*49
$GPRMC,014837.000,A,3340.5530,N,11556.8848,W,51.10,281.60,101210,,,A*43
$GPRMC,014840.000,A,3340.5617,N,11556.9350,W,51.30,281.70,101210,,,A*45
$GPRMC,014843.000,A,3340.5703,N,11556.9855,W,51.60,281.40,101210,,,A*4A
$GPRMC,014846.000,A,3340.5789,N,11557.0363,W,51.80,281.70,101210,,,A*46
$GPRMC,014849.000,A,3340.5875,N,11557.0870,W,51.90,281.70,101210,,,A*4D
$GPRMC,014852.000,A,3340.5964,N,11557.1381,W,52.30,281.50,101210,,,A*49
$GPRMC,014855.000,A,3340.6051,N,11557.1894,W,52.60,281.50,101210,,,A*48
$GPRMC,014858.000,A,3340.6140,N,11557.2410,W,53.00,281.60,101210,,,A*43
$GPRMC,014901.000,A,3340.6231,N,11557.2931,W,53.60,281.60,101210,,,A*43
$GPRMC,014904.000,A,3340.6322,N,11557.3458,W,53.60,281.70,101210,,,A*47
$GPRMC,014907.000,A,3340.6413,N,11557.3983,W,53.90,281.60,101210,,,A*44
$GPRMC,014910.000,A,3340.6504,N,11557.4512,W,54.20,281.50,101210,,,A*49
$GPRMC,014913.000,A,3340.6594,N,11557.5042,W,54.30,281.50,101210,,,A*43
$GPRMC,014916.000,A,3340.6685,N,11557.5572,W,54.20,281.60,101210,,,A*41
$GPRMC,014919.000,A,3340.6776,N,11557.6102,W,54.30,281.70,101210,,,A*43
$GPRMC,014922.000,A,3340.6869,N,11557.6636,W,54.50,281.70,101210,,,A*4C
$GPRMC,014925.000,A,3340.6961,N,11557.7169,W,54.50,281.50,101210,,,A*4C
$GPRMC,014928.000,A,3340.7052,N,11557.7702,W,54.40,281.50,101210,,,A*43
$GPRMC,014931.000,A,3340.7142,N,11557.8233,W,54.30,281.50,101210,,,A*44
$GPRMC,014934.000,A,3340.7232,N,11557.8765,W,54.70,281.60,101210,,,A*44
$GPRMC,014938.000,A,3340.7355,N,11557.9472,W,54.20,281.60,101210,,,A*49
$GPRMC,014941.000,A,3340.7447,N,11558.0001,W,54.60,281.80,101210,,,A*4F
$GPRMC,014944.000,A,3340.7540,N,11558.0525,W,53.70,281.90,101210,,,A*48
$GPRMC,014947.000,A,3340.7630,N,11558.1059,W,54.20,281.70,101210,,,A*4C
$GPRMC,014950.000,A,3340.7720,N,11558.1593,W,54.30,281.60,101210,,,A*49
$GPRMC,014953.000,A,3340.7811,N,11558.2125,W,54.30,281.50,101210,,,A*4E
$GPRMC,014956.000,A,3340.7903,N,11558.2656,W,54.30,281.80,101210,,,A*47
$GPRMC,014959.000,A,3340.7993,N,11558.3187,W,54.30,281.30,101210,,,A*40
$GPRMC,015002.000,A,3340.8083,N,11558.3717,W,54.00,281.20,101210,,,A*4C
$GPRMC,015005.000,A,3340.8163,N,11558.4259,W,54.60,279.00,101210,,,A*4F
$GPRMC,015008.000,A,3340.8226,N,11558.4795,W,54.20,276.90,101210,,,A*47
$GPRMC,015011.000,A,3340.8253,N,11558.5335,W,54.40,272.70,101210,,,A*4E
$GPRMC,015014.000,A,3340.8253,N,11558.5880,W,54.20,268.90,101210,,,A*4D
$GPRMC,015017.000,A,3340.8237,N,11558.6419,W,53.90,267.10,101210,,,A*48
$GPRMC,015020.000,A,3340.8216,N,11558.6958,W,54.00,267.00,101210,,,A*48
$GPRMC,015023.000,A,3340.8187,N,11558.7494,W,54.10,266.70,101210,,,A*4B
$GPRMC,015026.000,A,3340.8161,N,11558.8033,W,54.20,266.70,101210,,,A*43
$GPRMC,015029.000,A,3340.8137,N,11558.8574,W,54.40,266.80,101210,,,A*40
$GPRMC,015032.000,A,3340.8106,N,11558.9106,W,54.40,266.60,101210,,,A*46
$GPRMC,015035.000,A,3340.8083,N,11558.9661,W,54.70,266.70,101210,,,A*49
$GPRMC,015038.000,A,3340.8061,N,11559.0209,W,55.10,266.80,101210,,,A*42
$GPRMC,015041.000,A,3340.8034,N,11559.0767,W,55.50,266.70,101210,,,A*4A
$GPRMC,015044.000,A,3340.8006,N,11559.1325,W,55.90,266.80,101210,,,A*4E
$GPRMC,015047.000,A,3340.7981,N,11559.1884,W,56.10,266.90,101210,,,A*4E
$GPRMC,015050.000,A,3340.7954,N,11559.2445,W,56.30,266.50,101210,,,A*4C
$GPRMC,015053.000,A,3340.7928,N,11559.3009,W,56.50,266.60,101210,,,A*4C
$GPRMC,015056.000,A,3340.7900,N,11559.3576,W,56.90,266.90,101210,,,A*4D
$GPRMC,015059.000,A,3340.7877,N,11559.4148,W,57.70,267.10,101210,,,A*4B
$GPRMC,015102.000,A,3340.7850,N,11559.4724,W,57.80,266.80,101210,,,A*4A
$GPRMC,015105.000,A,3340.7822,N,11559.5297,W,56.60,266.60,101210,,,A*45
$GPRMC,015108.000,A,3340.7795,N,11559.5855,W,55.70,266.60,101210,,,A*4D
$GPRMC,015111.000,A,3340.7773,N,11559.6412,W,55.80,268.20,101210,,,A*44
$GPRMC,015114.000,A,3340.7779,N,11559.6970,W,55.90,273.60,101210,,,A*4D
$GPRMC,015117.000,A,3340.7829,N,11559.7525,W,56.00,278.90,101210,,,A*47
$GPRMC,015120.000,A,3340.7918,N,11559.8071,W,56.10,283.50,101210,,,A*42
$GPRMC,015123.000,A,3340.8036,N,11559.8613,W,56.20,284.70,101210,,,A*4F
$GPRMC,015126.000,A,3340.8154,N,11559.9154,W,56.40,284.80,101210,,,A*43
$GPRMC,015129.000,A,3340.8275,N,11559.9697,W,56.30,284.90,101210,,,A*42
$GPRMC,015132.000,A,3340.8394,N,11600.0237,W,55.60,284.60,101210,,,A*47
$GPRMC,015135.000,A,3340.8508,N,11600.0773,W,55.00,284.40,101210,,,A*42
$GPRMC,015138.000,A,3340.8624,N,11600.1301,W,54.50,284.90,101210,,,A*4B
$GPRMC,015141.000,A,3340.8739,N,11600.1825,W,54.70,284.80,101210,,,A*46
$GPRMC,015144.000,A,3340.8855,N,11600.2353,W,55.00,284.80,101210,,,A*49
$GPRMC,015147.000,A,3340.8966,N,11600.2882,W,55.30,284.20,101210,,,A*45
$GPRMC,015150.000,A,3340.9078,N,11600.3408,W,55.20,284.60,101210,,,A*4E
$GPRMC,015153.000,A,3340.9194,N,11600.3940,W,55.50,284.80,101210,,,A*46
$GPRMC,015156.000,A,3340.9312,N,11600.4471,W,55.30,285.00,101210,,,A*48
$GPRMC,015159.000,A,3340.9429,N,11600.5003,W,54.90,284.80,101210,,,A*4A
$GPRMC,015202.000,A,3340.9548,N,11600.5535,W,54.90,284.70,101210,,,A*4E
$GPRMC,015205.000,A,3340.9663,N,11600.6065,W,54.40,284.70,101210,,,A*4D
$GPRMC,015208.000,A,3340.9781,N,11600.6588,W,53.90,285.10,101210,,,A*46
$GPRMC,015211.000,A,3340.9898,N,11600.7108,W,53.80,284.50,101210,,,A*40
$GPRMC,015214.000,A,3341.0011,N,11600.7628,W,53.70,284.70,101210,,,A*4C
$GPRMC,015217.000,A,3341.0126,N,11600.8147,W,53.80,284.80,101210,,,A*4B
$GPRMC,015220.000,A,3341.0242,N,11600.8669,W,54.00,284.90,101210,,,A*4B
$GPRMC,015223.000,A,3341.0357,N,11600.9191,W,54.30,284.70,101210,,,A*41
$GPRMC,015226.000,A,3341.0471,N,11600.9717,W,54.60,284.60,101210,,,A*4B
$GPRMC,015229.000,A,3341.0586,N,11601.0245,W,55.00,284.80,101210,,,A*4E
$GPRMC,015232.000,A,3341.0702,N,11601.0777,W,55.30,284.80,101210,,,A*4D
$GPRMC,015235.000,A,3341.0822,N,11601.1311,W,55.20,284.80,101210,,,A*43
$GPRMC,015238.000,A,3341.0939,N,11601.1841,W,54.70,284.70,101210,,,A*40
$GPRMC,015241.000,A,3341.1054,N,11601.2366,W,54.50,284.90,101210,,,A*4C
$GPRMC,015244.000,A,3341.1169,N,11601.2891,W,54.10,284.70,101210,,,A*4F
$GPRMC,015247.000,A,3341.1283,N,11601.3411,W,53.70,284.60,101210,,,A*4E
$GPRMC,015250.000,A,3341.1400,N,11601.3927,W,53.70,284.90,101210,,,A*42
$GPRMC,015253.000,A,3341.1519,N,11601.4447,W,54.30,285.40,101210,,,A*4B
$GPRMC,015256.000,A,3341.1642,N,11601.4974,W,55.10,286.00,101210,,,A*4A
$GPRMC,015259.000,A,3341.1776,N,11601.5506,W,55.90,286.70,101210,,,A*44
$GPRMC,015302.000,A,3341.1914,N,11601.6043,W,56.50,287.30,101210,,,A*4C
$GPRMC,015305.000,A,3341.2053,N,11601.6581,W,56.40,287.20,101210,,,A*49
$GPRMC,015308.000,A,3341.2189,N,11601.7113,W,55.40,286.90,101210,,,A*45
$GPRMC,015311.000,A,3341.2321,N,11601.7635,W,54.00,287.00,101210,,,A*43
$GPRMC,015314.000,A,3341.2451,N,11601.8151,W,53.90,286.90,101210,,,A*4A
$GPRMC,015317.000,A,3341.2581,N,11601.8667,W,54.10,287.00,101210,,,A*40
$GPRMC,015320.000,A,3341.2713,N,11601.9183,W,54.30,287.10,101210,,,A*42
$GPRMC,015323.000,A,3341.2845,N,11601.9702,W,54.50,286.90,101210,,,A*4D
$GPRMC,015326.000,A,3341.2970,N,11602.0224,W,54.40,286.30,101210,,,A*4F
$GPRMC,015329.000,A,3341.3097,N,11602.0750,W,55.00,286.30,101210,,,A*42
$GPRMC,015332.000,A,3341.3229,N,11602.1275,W,55.30,287.10,101210,,,A*4C
$GPRMC,015335.000,A,3341.3360,N,11602.1801,W,55.20,286.80,101210,,,A*47
$GPRMC,015338.000,A,3341.3499,N,11602.2329,W,55.00,287.10,101210,,,A*43
$GPRMC,015341.000,A,3341.3630,N,11602.2843,W,53.90,287.20,101210,,,A*47
$GPRMC,015344.000,A,3341.3773,N,11602.3363,W,54.10,287.10,101210,,,A*40
$GPRMC,015347.000,A,3341.3912,N,11602.3885,W,54.50,287.00,101210,,,A*4C
$GPRMC,015350.000,A,3341.4051,N,11602.4411,W,54.90,286.80,101210,,,A*40
$GPRMC,015353.000,A,3341.4186,N,11602.4939,W,55.30,287.20,101210,,,A*4F
$GPRMC,015356.000,A,3341.4327,N,11602.5470,W,55.70,287.20,101210,,,A*46
$GPRMC,015359.000,A,3341.4464,N,11602.6003,W,55.60,286.80,101210,,,A*40
$GPRMC,015402.000,A,3341.4595,N,11602.6526,W,55.10,286.80,101210,,,A*43
$GPRMC,015405.000,A,3341.4724,N,11602.7043,W,54.30,287.40,101210,,,A*45
$GPRMC,015408.000,A,3341.4867,N,11602.7562,W,54.20,287.10,101210,,,A*42
$GPRMC,015411.000,A,3341.5001,N,11602.8084,W,54.30,287.10,101210,,,A*40
$GPRMC,015414.000,A,3341.5135,N,11602.8610,W,55.20,286.90,101210,,,A*41
$GPRMC,015417.000,A,3341.5273,N,11602.9141,W,55.70,287.10,101210,,,A*4D
$GPRMC,015420.000,A,3341.5425,N,11602.9669,W,55.90,289.80,101210,,,A*48
$GPRMC,015423.000,A,3341.5615,N,11603.0187,W,55.80,295.60,101210,,,A*47
$GPRMC,015426.000,A,3341.5835,N,11603.0680,W,55.70,300.00,101210,,,A*4A
$GPRMC,015429.000,A,3341.6072,N,11603.1152,W,55.10,301.50,101210,,,A*46
$GPRMC,015432.000,A,3341.6314,N,11603.1631,W,56.00,300.90,101210,,,A*42
$GPRMC,015435.000,A,3341.6556,N,11603.2118,W,56.90,301.10,101210,,,A*4A
$GPRMC,015438.000,A,3341.6800,N,11603.2601,W,55.60,301.10,101210,,,A*4A
$GPRMC,015441.000,A,3341.7040,N,11603.3080,W,56.10,301.30,101210,,,A*41
$GPRMC,015444.000,A,3341.7283,N,11603.3557,W,56.00,301.10,101210,,,A*45
$GPRMC,015447.000,A,3341.7525,N,11603.4038,W,56.90,301.20,101210,,,A*4C
$GPRMC,015450.000,A,3341.7773,N,11603.4527,W,57.70,300.90,101210,,,A*45
$GPRMC,015453.000,A,3341.8023,N,11603.5024,W,58.50,301.00,101210,,,A*49
$GPRMC,015456.000,A,3341.8272,N,11603.5514,W,56.90,301.40,101210,,,A*4A
$GPRMC,015459.000,A,3341.8518,N,11603.5997,W,56.50,301.30,101210,,,A*42
$GPRMC,015502.000,A,3341.8761,N,11603.6482,W,57.00,300.40,101210,,,A*49
$GPRMC,015505.000,A,3341.8998,N,11603.6975,W,57.00,299.00,101210,,,A*46
$GPRMC,015508.000,A,3341.9216,N,11603.7476,W,56.40,296.70,101210,,,A*45
$GPRMC,015511.000,A,3341.9408,N,11603.7985,W,55.90,292.20,101210,,,A*4A
$GPRMC,015514.000,A,3341.9571,N,11603.8503,W,55.00,289.20,101210,,,A*4E
$GPRMC,015517.000,A,3341.9710,N,11603.9021,W,54.90,286.60,101210,,,A*4F
$GPRMC,015520.000,A,3341.9825,N,11603.9550,W,54.80,283.10,101210,,,A*42
$GPRMC,015523.000,A,3341.9916,N,11604.0086,W,54.40,280.80,101210,,,A*46
$GPRMC,015527.000,A,3342.0005,N,11604.0795,W,53.60,277.60,101210,,,A*45
$GPRMC,015530.000,A,3342.0046,N,11604.1320,W,52.50,275.00,101210,,,A*49
$GPRMC,015533.000,A,3342.0085,N,11604.1850,W,52.80,275.20,101210,,,A*46
$GPRMC,015536.000,A,3342.0125,N,11604.2383,W,54.00,274.80,101210,,,A*4B
$GPRMC,015539.000,A,3342.0163,N,11604.2929,W,55.10,274.80,101210,,,A*4C
$GPRMC,015542.000,A,3342.0200,N,11604.3475,W,54.50,274.60,101210,,,A*48
$GPRMC,015545.000,A,3342.0237,N,11604.4014,W,54.20,274.50,101210,,,A*4B
$GPRMC,015548.000,A,3342.0275,N,11604.4551,W,54.00,274.80,101210,,,A*4B
$GPRMC,015551.000,A,3342.0314,N,11604.5084,W,53.50,274.90,101210,,,A*4A
$GPRMC,015554.000,A,3342.0353,N,11604.5616,W,53.50,274.70,101210,,,A*4F
$GPRMC,015557.000,A,3342.0390,N,11604.6142,W,52.60,274.40,101210,,,A*47
$GPRMC,015600.000,A,3342.0427,N,11604.6654,W,51.50,275.10,101210,,,A*49
$GPRMC,015603.000,A,3342.0463,N,11604.7167,W,52.30,274.50,101210,,,A*4C
$GPRMC,015606.000,A,3342.0499,N,11604.7691,W,52.70,274.30,101210,,,A*40
$GPRMC,015609.000,A,3342.0507,N,11604.8193,W,50.40,270.70,101210,,,A*42
$GPRMC,015612.000,A,3342.0504,N,11604.8700,W,51.20,267.20,101210,,,A*43
$GPRMC,015615.000,A,3342.0469,N,11604.9223,W,52.40,264.90,101210,,,A*46
$GPRMC,015618.000,A,3342.0428,N,11604.9759,W,53.50,264.90,101210,,,A*46
$GPRMC,015621.000,A,3342.0390,N,11605.0304,W,54.70,264.50,101210,,,A*45
$GPRMC,015624.000,A,3342.0345,N,11605.0853,W,55.60,264.60,101210,,,A*42
$GPRMC,015627.000,A,3342.0289,N,11605.1411,W,56.50,261.40,101210,,,A*4C
$GPRMC,015630.000,A,3342.0204,N,11605.1971,W,57.40,259.30,101210,,,A*48
$GPRMC,015633.000,A,3342.0122,N,11605.2540,W,58.20,260.60,101210,,,A*47
$GPRMC,015636.000,A,3342.0040,N,11605.3117,W,59.00,260.80,101210,,,A*4D
$GPRMC,015639.000,A,3341.9957,N,11605.3702,W,59.70,260.60,101210,,,A*4C
$GPRMC,015642.000,A,3341.9875,N,11605.4292,W,60.30,260.80,101210,,,A*4A
$GPRMC,015645.000,A,3341.9795,N,11605.4889,W,60.90,260.80,101210,,,A*46
$GPRMC,015648.000,A,3341.9715,N,11605.5492,W,61.30,261.10,101210,,,A*47
$GPRMC,015651.000,A,3341.9636,N,11605.6098,W,61.60,260.80,101210,,,A*4F
$GPRMC,015654.000,A,3341.9553,N,11605.6706,W,61.90,260.80,101210,,,A*45
$GPRMC,015657.000,A,3341.9471,N,11605.7314,W,61.40,260.70,101210,,,A*43
$GPRMC,015700.000,A,3341.9389,N,11605.7914,W,60.80,260.90,101210,,,A*49
$GPRMC,015703.000,A,3341.9313,N,11605.8513,W,60.60,261.60,101210,,,A*4D
$GPRMC,015706.000,A,3341.9244,N,11605.9116,W,61.10,262.00,101210,,,A*48
$GPRMC,015709.000,A,3341.9173,N,11605.9721,W,61.60,262.40,101210,,,A*41
$GPRMC,015712.000,A,3341.9117,N,11606.0335,W,62.10,264.60,101210,,,A*42
$GPRMC,015715.000,A,3341.9115,N,11606.0948,W,60.70,271.30,101210,,,A*42
$GPRMC,015718.000,A,3341.9136,N,11606.1551,W,60.10,272.80,101210,,,A*45
$GPRMC,015721.000,A,3341.9207,N,11606.2135,W,59.70,280.20,101210,,,A*40
$GPRMC,015724.000,A,3341.9312,N,11606.2720,W,60.30,282.90,101210,,,A*45
$GPRMC,015727.000,A,3341.9425,N,11606.3307,W,60.90,282.90,101210,,,A*4F
$GPRMC,015730.000,A,3341.9537,N,11606.3904,W,61.40,282.70,101210,,,A*40
$GPRMC,015733.000,A,3341.9649,N,11606.4502,W,61.70,282.60,101210,,,A*46
$GPRMC,015736.000,A,3341.9762,N,11606.5102,W,61.80,282.80,101210,,,A*4F
$GPRMC,015739.000,A,3341.9876,N,11606.5696,W,60.60,283.00,101210,,,A*46
$GPRMC,015742.000,A,3341.9988,N,11606.6281,W,59.90,282.90,101210,,,A*46
$GPRMC,015745.000,A,3342.0098,N,11606.6857,W,59.10,282.80,101210,,,A*4B
$GPRMC,015748.000,A,3342.0206,N,11606.7431,W,58.90,282.70,101210,,,A*48
$GPRMC,015751.000,A,3342.0313,N,11606.8003,W,58.90,282.70,101210,,,A*4F
$GPRMC,015754.000,A,3342.0422,N,11606.8574,W,58.50,282.80,101210,,,A*49
$GPRMC,015757.000,A,3342.0528,N,11606.9138,W,57.50,282.80,101210,,,A*43
$GPRMC,015800.000,A,3342.0633,N,11606.9693,W,56.60,282.80,101210,,,A*43
$GPRMC,015803.000,A,3342.0736,N,11607.0236,W,55.70,282.90,101210,,,A*44
$GPRMC,015806.000,A,3342.0839,N,11607.0773,W,54.90,282.60,101210,,,A*45
$GPRMC,015809.000,A,3342.0939,N,11607.1302,W,54.10,282.90,101210,,,A*4F
$GPRMC,015812.000,A,3342.1038,N,11607.1826,W,53.50,282.80,101210,,,A*43
$GPRMC,015815.000,A,3342.1137,N,11607.2346,W,53.40,282.60,101210,,,A*4B
$GPRMC,015818.000,A,3342.1237,N,11607.2868,W,53.70,283.00,101210,,,A*46
$GPRMC,015821.000,A,3342.1335,N,11607.3380,W,51.80,282.80,101210,,,A*47
$GPRMC,015824.000,A,3342.1427,N,11607.3868,W,49.70,282.50,101210,,,A*40
$GPRMC,015827.000,A,3342.1521,N,11607.4353,W,50.20,282.80,101210,,,A*40
$GPRMC,015830.000,A,3342.1615,N,11607.4844,W,50.80,282.70,101210,,,A*4A
$GPRMC,015833.000,A,3342.1709,N,11607.5335,W,48.70,282.60,101210,,,A*4E
$GPRMC,015836.000,A,3342.1798,N,11607.5805,W,48.60,282.80,101210,,,A*44
$GPRMC,015839.000,A,3342.1895,N,11607.6285,W,49.40,285.00,101210,,,A*44
$GPRMC,015842.000,A,3342.2013,N,11607.6763,W,49.60,287.80,101210,,,A*48
$GPRMC,015845.000,A,3342.2150,N,11607.7231,W,49.40,290.60,101210,,,A*40
$GPRMC,015848.000,A,3342.2300,N,11607.7688,W,49.10,291.70,101210,,,A*49
$GPRMC,015851.000,A,3342.2451,N,11607.8140,W,48.70,291.70,101210,,,A*49
$GPRMC,015854.000,A,3342.2602,N,11607.8594,W,49.00,291.60,101210,,,A*42
$GPRMC,015857.000,A,3342.2753,N,11607.9049,W,49.20,291.70,101210,,,A*43
$GPRMC,015900.000,A,3342.2907,N,11607.9509,W,50.20,291.70,101210,,,A*46
$GPRMC,015903.000,A,3342.3059,N,11607.9982,W,50.70,290.30,101210,,,A*49
$GPRMC,015906.000,A,3342.3201,N,11608.0461,W,50.80,289.10,101210,,,A*40
$GPRMC,015909.000,A,3342.3339,N,11608.0946,W,51.20,288.60,101210,,,A*40
$GPRMC,015912.000,A,3342.3476,N,11608.1430,W,50.80,288.80,101210,,,A*4E
$GPRMC,015915.000,A,3342.3613,N,11608.1910,W,50.70,288.90,101210,,,A*49
$GPRMC,015918.000,A,3342.3749,N,11608.2388,W,50.00,288.30,101210,,,A*4F
$GPRMC,015921.000,A,3342.3879,N,11608.2861,W,49.80,289.10,101210,,,A*46
$GPRMC,015924.000,A,3342.4015,N,11608.3334,W,50.30,288.90,101210,,,A*46
$GPRMC,015927.000,A,3342.4151,N,11608.3812,W,50.90,288.40,101210,,,A*4C
$GPRMC,015930.000,A,3342.4286,N,11608.4298,W,51.30,288.60,101210,,,A*45
$GPRMC,015933.000,A,3342.4422,N,11608.4784,W,51.10,288.80,101210,,,A*4A
$GPRMC,015936.000,A,3342.4559,N,11608.5267,W,50.80,288.90,101210,,,A*42
$GPRMC,015939.000,A,3342.4697,N,11608.5749,W,51.10,288.70,101210,,,A*43
$GPRMC,015942.000,A,3342.4833,N,11608.6235,W,51.60,288.60,101210,,,A*44
$GPRMC,015945.000,A,3342.4969,N,11608.6723,W,51.30,288.60,101210,,,A*4A
$GPRMC,015948.000,A,3342.5106,N,11608.7208,W,50.90,288.70,101210,,,A*40
$GPRMC,015951.000,A,3342.5243,N,11608.7691,W,51.30,288.70,101210,,,A*45
$GPRMC,015954.000,A,3342.5380,N,11608.8177,W,51.30,288.80,101210,,,A*41
$GPRMC,015957.000,A,3342.5519,N,11608.8662,W,51.10,289.10,101210,,,A*4D
$GPRMC,020000.000,A,3342.5660,N,11608.9143,W,51.30,289.60,101210,,,A*4D
$GPRMC,020003.000,A,3342.5803,N,11608.9629,W,51.80,289.30,101210,,,A*40
$GPRMC,020006.000,A,3342.5949,N,11609.0119,W,52.00,289.80,101210,,,A*46
$GPRMC,020009.000,A,3342.6097,N,11609.0607,W,51.90,290.10,101210,,,A*43
$GPRMC,020012.000,A,3342.6245,N,11609.1091,W,51.40,289.80,101210,,,A*40
$GPRMC,020015.000,A,3342.6389,N,11609.1570,W,50.70,289.90,101210,,,A*4F
$GPRMC,020018.000,A,3342.6533,N,11609.2046,W,50.60,289.70,101210,,,A*49
$GPRMC,020021.000,A,3342.6678,N,11609.2525,W,51.50,290.20,101210,,,A*40
$GPRMC,020024.000,A,3342.6825,N,11609.3010,W,51.90,289.90,101210,,,A*4E
$GPRMC,020027.000,A,3342.6972,N,11609.3499,W,52.20,289.90,101210,,,A*43
$GPRMC,020030.000,A,3342.7119,N,11609.3989,W,52.10,289.80,101210,,,A*4F
$GPRMC,020033.000,A,3342.7266,N,11609.4480,W,52.40,289.90,101210,,,A*40
$GPRMC,020036.000,A,3342.7414,N,11609.4973,W,52.20,289.80,101210,,,A*40
$GPRMC,020039.000,A,3342.7560,N,11609.5460,W,51.30,289.70,101210,,,A*4E
$GPRMC,020042.000,A,3342.7705,N,11609.5940,W,51.30,290.00,101210,,,A*43
$GPRMC,020045.000,A,3342.7852,N,11609.6422,W,51.20,289.90,101210,,,A*43
$GPRMC,020048.000,A,3342.7997,N,11609.6903,W,51.20,289.70,101210,,,A*46
$GPRMC,020051.000,A,3342.8142,N,11609.7384,W,51.30,290.00,101210,,,A*4B
$GPRMC,020054.000,A,3342.8289,N,11609.7868,W,51.50,289.70,101210,,,A*4A
$GPRMC,020057.000,A,3342.8433,N,11609.8349,W,50.90,289.70,101210,,,A*44
$GPRMC,020100.000,A,3342.8574,N,11609.8823,W,49.70,289.60,101210,,,A*45
$GPRMC,020103.000,A,3342.8713,N,11609.9287,W,49.40,289.80,101210,,,A*4D
$GPRMC,020106.000,A,3342.8847,N,11609.9748,W,48.50,288.50,101210,,,A*4C
$GPRMC,020109.000,A,3342.8957,N,11610.0205,W,47.50,285.10,101210,,,A*48
$GPRMC,020112.000,A,3342.9039,N,11610.0653,W,45.70,281.60,101210,,,A*46
$GPRMC,020115.000,A,3342.9112,N,11610.1093,W,43.80,281.40,101210,,,A*49
$GPRMC,020118.000,A,3342.9175,N,11610.1497,W,38.60,279.60,101210,,,A*42
$GPRMC,020121.000,A,3342.9222,N,11610.1866,W,37.30,278.00,101210,,,A*46
$GPRMC,020124.000,A,3342.9258,N,11610.2223,W,35.70,276.50,101210,,,A*4B
$GPRMC,020127.000,A,3342.9268,N,11610.2515,W,28.00,274.30,101210,,,A*46
$GPRMC,020130.000,A,3342.9295,N,11610.2766,W,22.60,281.90,101210,,,A*48
$GPRMC,020133.000,A,3342.9342,N,11610.2957,W,18.40,290.10,101210,,,A*4F
$GPRMC,020136.000,A,3342.9379,N,11610.3060,W,8.30,293.20,101210,,,A*78
$GPRMC,020142.000,A,3342.9412,N,11610.3127,W,6.10,291.20,101210,,,A*7D
$GPRMC,020145.000,A,3342.9422,N,11610.3203,W,9.50,267.50,101210,,,A*79
$GPRMC,020148.000,A,3342.9391,N,11610.3301,W,12.60,241.10,101210,,,A*41
$GPRMC,020151.000,A,3342.9328,N,11610.3408,W,13.60,232.40,101210,,,A*45
$GPRMC,020154.000,A,3342.9235,N,11610.3526,W,17.00,229.20,101210,,,A*4E
$GPRMC,020157.000,A,3342.9116,N,11610.3667,W,20.10,227.80,101210,,,A*48
