NMEA Sentence Code,UTC Time,Status,Latitude,Latitude Direction,Longitude,Longitude Direction,Speed (knots),Track Angle (degrees true),Date,MagneticVariation,Magnetic Variation Direction,[FAA Mode]-Optional,Checksum
$GPRMC,022326.000,A,7019.4781,N,14935.8760,W,9.72,94.22,230810,,,A*44
$GPRMC,022329.000,A,7019.4781,N,14935.8515,W,9.72,90.00,230810,,,A*4F
$GPRMC,022332.000,A,7019.4781,N,14935.8284,W,8.80,88.95,230810,,,A*43
$GPRMC,022335.000,A,7019.4781,N,14935.8071,W,8.26,92.81,230810,,,A*4E
$GPRMC,022338.000,A,7019.4771,N,14935.7872,W,7.78,102.66,230810,,,A*7D
$GPRMC,022341.000,A,7019.4729,N,14935.7736,W,7.29,136.76,230810,,,A*73
$GPRMC,022344.000,A,7019.4661,N,14935.7688,W,8.75,177.54,230810,,,A*7C
$GPRMC,022347.000,A,7019.4591,N,14935.7688,W,8.26,181.05,230810,,,A*78
$GPRMC,022350.000,A,7019.4517,N,14935.7698,W,8.26,182.46,230810,,,A*75
$GPRMC,022353.000,A,7019.4449,N,14935.7707,W,8.26,183.16,230810,,,A*7F
$GPRMC,022356.000,A,7019.4378,N,14935.7720,W,8.75,182.81,230810,,,A*73
$GPRMC,022359.000,A,7019.4307,N,14935.7730,W,8.26,182.46,230810,,,A*78
$GPRMC,022402.000,A,7019.4243,N,14935.7743,W,7.35,185.27,230810,,,A*79
$GPRMC,022405.000,A,7019.4179,N,14935.7765,W,7.78,190.90,230810,,,A*71
$GPRMC,022408.000,A,7019.4118,N,14935.7727,W,7.78,158.55,230810,,,A*70
$GPRMC,022411.000,A,7019.4076,N,14935.7601,W,6.80,129.38,230810,,,A*7F
$GPRMC,022414.000,A,7019.4079,N,14935.7398,W,7.35,86.13,230810,,,A*42
$GPRMC,022417.000,A,7019.4085,N,14935.7202,W,7.35,78.75,230810,,,A*41
$GPRMC,022420.000,A,7019.4118,N,14935.7057,W,6.80,54.49,230810,,,A*4C
$GPRMC,022423.000,A,7019.4175,N,14935.6993,W,7.29,26.02,230810,,,A*4C
$GPRMC,022426.000,A,7019.4237,N,14935.6961,W,7.29,09.49,230810,,,A*43
$GPRMC,022429.000,A,7019.4317,N,14935.6993,W,8.26,354.73,230810,,,A*70
$GPRMC,022432.000,A,7019.4391,N,14935.7051,W,8.75,343.83,230810,,,A*7D
$GPRMC,022435.000,A,7019.4459,N,14935.7141,W,8.26,335.04,230810,,,A*71
$GPRMC,022438.000,A,7019.4510,N,14935.7267,W,7.78,325.55,230810,,,A*76
$GPRMC,022441.000,A,7019.4562,N,14935.7398,W,8.26,318.87,230810,,,A*79
$GPRMC,022444.000,A,7019.4604,N,14935.7534,W,8.26,318.16,230810,,,A*77
$GPRMC,022447.000,A,7019.4658,N,14935.7640,W,8.26,331.17,230810,,,A*77
$GPRMC,022450.000,A,7019.4729,N,14935.7695,W,8.26,342.07,230810,,,A*7B
$GPRMC,022453.000,A,7019.4774,N,14935.7830,W,8.26,306.21,230810,,,A*75
$GPRMC,022456.000,A,7019.4800,N,14935.8033,W,8.26,282.30,230810,,,A*75
$GPRMC,022459.000,A,7019.4797,N,14935.8251,W,8.26,262.62,230810,,,A*74
$GPRMC,022502.000,A,7019.4784,N,14935.8454,W,7.78,263.67,230810,,,A*7A
$GPRMC,022520.000,A,7019.4784,N,14935.8544,W,1.46,262.97,230810,,,A*7F
$GPRMC,022523.000,A,7019.4781,N,14935.8770,W,7.78,270.00,230810,,,A*7A
$GPRMC,022526.000,A,7019.4784,N,14935.8969,W,7.29,269.30,230810,,,A*73
$GPRMC,022529.000,A,7019.4774,N,14935.9146,W,6.80,264.02,230810,,,A*79
$GPRMC,022532.000,A,7019.4758,N,14935.9339,W,7.78,254.18,230810,,,A*79
$GPRMC,022535.000,A,7019.4752,N,14935.9513,W,7.29,261.56,230810,,,A*72
$GPRMC,022538.000,A,7019.4739,N,14935.9700,W,7.29,259.80,230810,,,A*72
$GPRMC,022541.000,A,7019.4729,N,14935.9880,W,7.29,258.40,230810,,,A*77
$GPRMC,022544.000,A,7019.4707,N,14936.0060,W,7.29,253.48,230810,,,A*71
$GPRMC,022547.000,A,7019.4700,N,14936.0195,W,5.35,259.10,230810,,,A*76
$GPRMC,022550.000,A,7019.4697,N,14936.0321,W,4.37,256.29,230810,,,A*74
$GPRMC,022553.000,A,7019.4655,N,14936.0382,W,5.35,213.05,230810,,,A*7C
$GPRMC,022556.000,A,7019.4597,N,14936.0398,W,6.80,189.14,230810,,,A*72
$GPRMC,022559.000,A,7019.4526,N,14936.0395,W,7.29,175.78,230810,,,A*71
$GPRMC,022602.000,A,7019.4465,N,14936.0376,W,7.29,176.84,230810,,,A*77
$GPRMC,022605.000,A,7019.4407,N,14936.0373,W,6.80,181.05,230810,,,A*72
$GPRMC,022608.000,A,7019.4343,N,14936.0373,W,7.29,179.30,230810,,,A*7B
$GPRMC,022611.000,A,7019.4282,N,14936.0350,W,7.78,175.78,230810,,,A*7A
$GPRMC,022614.000,A,7019.4214,N,14936.0340,W,7.29,177.19,230810,,,A*70
$GPRMC,022617.000,A,7019.4147,N,14936.0344,W,7.29,176.84,230810,,,A*77
$GPRMC,022620.000,A,7019.4095,N,14936.0337,W,7.29,182.46,230810,,,A*7C
$GPRMC,022623.000,A,7019.4037,N,14936.0376,W,6.32,200.74,230810,,,A*71
$GPRMC,022626.000,A,7019.3998,N,14936.0504,W,6.80,230.27,230810,,,A*70
$GPRMC,022629.000,A,7019.3989,N,14936.0723,W,8.26,256.99,230810,,,A*7F
$GPRMC,022632.000,A,7019.3989,N,14936.0997,W,8.75,268.95,230810,,,A*73
$GPRMC,022635.000,A,7019.3998,N,14936.1225,W,8.75,272.46,230810,,,A*72
$GPRMC,022638.000,A,7019.4002,N,14936.1435,W,8.26,270.70,230810,,,A*74
$GPRMC,022641.000,A,7019.3992,N,14936.1634,W,8.26,266.13,230810,,,A*7C
$GPRMC,022644.000,A,7019.3992,N,14936.1847,W,8.26,272.81,230810,,,A*7D
$GPRMC,022647.000,A,7019.3995,N,14936.2056,W,8.26,271.41,230810,,,A*7D
$GPRMC,022650.000,A,7019.3998,N,14936.2252,W,7.78,269.30,230810,,,A*7B
$GPRMC,022653.000,A,7019.3986,N,14936.2439,W,7.29,256.99,230810,,,A*77
$GPRMC,022656.000,A,7019.3986,N,14936.2671,W,7.78,268.59,230810,,,A*79
$GPRMC,022659.000,A,7019.3989,N,14936.2864,W,7.78,267.19,230810,,,A*78
$GPRMC,022702.000,A,7019.3989,N,14936.3047,W,7.29,270.00,230810,,,A*75
$GPRMC,022705.000,A,7019.3992,N,14936.3247,W,7.78,269.65,230810,,,A*75
$GPRMC,022708.000,A,7019.3995,N,14936.3469,W,7.78,267.54,230810,,,A*79
$GPRMC,022711.000,A,7019.3992,N,14936.3668,W,6.80,263.32,230810,,,A*77
$GPRMC,022714.000,A,7019.3976,N,14936.3810,W,5.35,252.77,230810,,,A*77
$GPRMC,022717.000,A,7019.3950,N,14936.3945,W,5.35,244.34,230810,,,A*71
$GPRMC,022720.000,A,7019.3934,N,14936.4080,W,5.83,249.26,230810,,,A*73
$GPRMC,022723.000,A,7019.3921,N,14936.4216,W,5.35,253.83,230810,,,A*70
$GPRMC,022726.000,A,7019.3931,N,14936.4335,W,4.86,267.54,230810,,,A*70
$GPRMC,022729.000,A,7019.3944,N,14936.4457,W,4.37,275.27,230810,,,A*73
$GPRMC,022732.000,A,7019.3966,N,14936.4576,W,4.86,275.62,230810,,,A*70
$GPRMC,022735.000,A,7019.3969,N,14936.4721,W,5.43,273.87,230810,,,A*7D
$GPRMC,022738.000,A,7019.3969,N,14936.4859,W,4.86,277.38,230810,,,A*78
$GPRMC,022741.000,A,7019.3969,N,14936.4991,W,5.35,273.52,230810,,,A*72
$GPRMC,022744.000,A,7019.3986,N,14936.5181,W,6.32,274.57,230810,,,A*78
$GPRMC,022747.000,A,7019.3982,N,14936.5361,W,5.83,268.24,230810,,,A*73
$GPRMC,022750.000,A,7019.3982,N,14936.5484,W,4.86,272.11,230810,,,A*70
$GPRMC,022753.000,A,7019.3976,N,14936.5606,W,4.37,269.30,230810,,,A*73
$GPRMC,022759.000,A,7019.3969,N,14936.5854,W,4.37,254.88,230810,,,A*73
$GPRMC,022802.000,A,7019.3960,N,14936.5960,W,3.89,254.18,230810,,,A*76
$GPRMC,022805.000,A,7019.3944,N,14936.6105,W,5.35,255.94,230810,,,A*7B
$GPRMC,022817.000,A,7019.3889,N,14936.6630,W,4.37,250.31,230810,,,A*70
$GPRMC,022820.000,A,7019.3879,N,14936.6755,W,4.37,252.07,230810,,,A*7E
$GPRMC,022823.000,A,7019.3866,N,14936.6919,W,5.35,261.21,230810,,,A*72
$GPRMC,022826.000,A,7019.3873,N,14936.7135,W,7.29,263.32,230810,,,A*7B
$GPRMC,022829.000,A,7019.3857,N,14936.7334,W,6.80,260.16,230810,,,A*76
$GPRMC,022832.000,A,7019.3857,N,14936.7483,W,4.86,264.02,230810,,,A*72
$GPRMC,022835.000,A,7019.3847,N,14936.7660,W,5.83,260.86,230810,,,A*77
$GPRMC,022838.000,A,7019.3841,N,14936.7898,W,6.80,260.51,230810,,,A*7F
$GPRMC,022841.000,A,7019.3828,N,14936.8068,W,6.32,261.91,230810,,,A*72
$GPRMC,022844.000,A,7019.3841,N,14936.8261,W,7.29,273.16,230810,,,A*74
$GPRMC,022847.000,A,7019.3850,N,14936.8461,W,7.29,276.33,230810,,,A*73
$GPRMC,022850.000,A,7019.3876,N,14936.8628,W,7.78,296.37,230810,,,A*70
$GPRMC,022853.000,A,7019.3950,N,14936.8696,W,7.29,326.95,230810,,,A*75
$GPRMC,022856.000,A,7019.4024,N,14936.8735,W,6.87,336.09,230810,,,A*74
$GPRMC,022859.000,A,7019.4089,N,14936.8725,W,7.29,356.84,230810,,,A*7B
$GPRMC,022902.000,A,7019.4143,N,14936.8712,W,6.80,00.00,230810,,,A*49
$GPRMC,022905.000,A,7019.4208,N,14936.8670,W,7.29,359.65,230810,,,A*79
$GPRMC,022908.000,A,7019.4262,N,14936.8673,W,6.80,359.65,230810,,,A*79
$GPRMC,022911.000,A,7019.4320,N,14936.8670,W,7.35,03.52,230810,,,A*42
$GPRMC,022914.000,A,7019.4381,N,14936.8651,W,6.80,07.38,230810,,,A*48
$GPRMC,022917.000,A,7019.4439,N,14936.8609,W,6.80,13.71,230810,,,A*4A
$GPRMC,022920.000,A,7019.4491,N,14936.8564,W,6.32,19.34,230810,,,A*46
$GPRMC,022923.000,A,7019.4555,N,14936.8548,W,6.80,15.12,230810,,,A*43
$GPRMC,022926.000,A,7019.4600,N,14936.8464,W,5.35,50.62,230810,,,A*41
$GPRMC,022929.000,A,7019.4607,N,14936.8326,W,5.91,83.67,230810,,,A*4D
$GPRMC,022932.000,A,7019.4581,N,14936.8226,W,6.32,112.85,230810,,,A*74
$GPRMC,022935.000,A,7019.4571,N,14936.8075,W,6.80,94.22,230810,,,A*43
$GPRMC,022938.000,A,7019.4552,N,14936.7891,W,7.29,91.76,230810,,,A*44
$GPRMC,022941.000,A,7019.4536,N,14936.7714,W,7.78,90.00,230810,,,A*4E
$GPRMC,022944.000,A,7019.4530,N,14936.7518,W,7.29,89.65,230810,,,A*4C
$GPRMC,022947.000,A,7019.4526,N,14936.7351,W,6.32,93.16,230810,,,A*47
$GPRMC,022950.000,A,7019.4520,N,14936.7145,W,7.29,89.65,230810,,,A*44
$GPRMC,022953.000,A,7019.4510,N,14936.6968,W,5.83,91.76,230810,,,A*4B
$GPRMC,022956.000,A,7019.4501,N,14936.6807,W,5.35,90.35,230810,,,A*4D
$GPRMC,023005.000,A,7019.4533,N,14936.6404,W,4.86,74.53,230810,,,A*4E
$GPRMC,023011.000,A,7019.4571,N,14936.6131,W,4.86,67.85,230810,,,A*47
$GPRMC,023014.000,A,7019.4594,N,14936.5973,W,5.35,70.31,230810,,,A*44
$GPRMC,023032.000,A,7019.4642,N,14936.5519,W,4.37,71.72,230810,,,A*4D
$GPRMC,023038.000,A,7019.4681,N,14936.5332,W,4.37,50.98,230810,,,A*40
$GPRMC,023044.000,A,7019.4752,N,14936.5233,W,3.89,25.31,230810,,,A*47
$GPRMC,023047.000,A,7019.4793,N,14936.5207,W,4.37,20.39,230810,,,A*41
$GPRMC,023050.000,A,7019.4835,N,14936.5155,W,4.37,18.98,230810,,,A*40
$GPRMC,023053.000,A,7019.4864,N,14936.5101,W,4.37,22.85,230810,,,A*43
$GPRMC,023056.000,A,7019.4913,N,14936.5001,W,4.86,27.42,230810,,,A*42
$GPRMC,023059.000,A,7019.4967,N,14936.4895,W,4.96,48.16,230810,,,A*43
$GPRMC,023102.000,A,7019.5003,N,14936.4814,W,4.37,52.38,230810,,,A*43
$GPRMC,023105.000,A,7019.5016,N,14936.4602,W,7.29,76.64,230810,,,A*4A
$GPRMC,023108.000,A,7019.5032,N,14936.4399,W,7.29,72.77,230810,,,A*40
$GPRMC,023111.000,A,7019.5077,N,14936.4322,W,6.32,32.70,230810,,,A*41
$GPRMC,023114.000,A,7019.5138,N,14936.4335,W,6.32,03.16,230810,,,A*4A
$GPRMC,023117.000,A,7019.5189,N,14936.4341,W,4.86,03.52,230810,,,A*4D
$GPRMC,023120.000,A,7019.5276,N,14936.4348,W,7.35,358.24,230810,,,A*74
$GPRMC,023123.000,A,7019.5350,N,14936.4360,W,8.75,02.11,230810,,,A*49
$GPRMC,023126.000,A,7019.5437,N,14936.4335,W,9.28,02.81,230810,,,A*4A
