NMEA Sentence Code,UTC Time,Status,Latitude,Latitude Direction,Longitude,Longitude Direction,Speed (knots),Track Angle (degrees true),Date,MagneticVariation,Magnetic Variation Direction,[FAA Mode]-Optional,Checksum
$GPRMC,173124.000,A,3337.0808,N,11749.2216,W,61.72,152.58,100410,,,A*4A
$GPRMC,173127.000,A,3337.0342,N,11749.1946,W,57.83,157.85,100410,,,A*4F
$GPRMC,173130.000,A,3336.9907,N,11749.1743,W,54.43,158.91,100410,,,A*44
$GPRMC,173133.000,A,3336.9476,N,11749.1534,W,57.83,157.50,100410,,,A*43
$GPRMC,173136.000,A,3336.9009,N,11749.1299,W,62.69,157.15,100410,,,A*49
$GPRMC,173139.000,A,3336.8523,N,11749.1054,W,63.18,156.09,100410,,,A*42
$GPRMC,173142.000,A,3336.8076,N,11749.0758,W,61.23,148.71,100410,,,A*4B
$GPRMC,173145.000,A,3336.7651,N,11749.0420,W,61.72,144.84,100410,,,A*4E
$GPRMC,173148.000,A,3336.7252,N,11749.0008,W,62.21,137.11,100410,,,A*47
$GPRMC,173151.000,A,3336.6898,N,11748.9554,W,62.70,132.54,100410,,,A*46
$GPRMC,173154.000,A,3336.6560,N,11748.9078,W,63.66,129.73,100410,,,A*4B
$GPRMC,173157.000,A,3336.6283,N,11748.8553,W,62.70,121.29,100410,,,A*4E
$GPRMC,173200.000,A,3336.6045,N,11748.8000,W,63.18,116.02,100410,,,A*46
$GPRMC,173203.000,A,3336.5871,N,11748.7423,W,60.76,108.28,100410,,,A*4F
$GPRMC,173206.000,A,3336.5729,N,11748.6831,W,61.73,103.36,100410,,,A*46
$GPRMC,173209.000,A,3336.5636,N,11748.6226,W,62.24,100.55,100410,,,A*4D
$GPRMC,173212.000,A,3336.5552,N,11748.5618,W,62.21,100.20,100410,,,A*4B
$GPRMC,173215.000,A,3336.5469,N,11748.5006,W,62.70,99.49,100410,,,A*76
$GPRMC,173218.000,A,3336.5385,N,11748.4398,W,62.21,99.49,100410,,,A*7F
$GPRMC,173221.000,A,3336.5292,N,11748.3790,W,61.75,102.30,100410,,,A*46
$GPRMC,173224.000,A,3336.5163,N,11748.3188,W,62.21,108.28,100410,,,A*40
$GPRMC,173227.000,A,3336.4976,N,11748.2608,W,62.21,113.91,100410,,,A*48
$GPRMC,173230.000,A,3336.4760,N,11748.2045,W,62.21,115.31,100410,,,A*44
$GPRMC,173233.000,A,3336.4542,N,11748.1482,W,62.69,114.96,100410,,,A*49
$GPRMC,173236.000,A,3336.4313,N,11748.0906,W,64.16,116.37,100410,,,A*49
$GPRMC,173239.000,A,3336.4078,N,11748.0342,W,61.73,117.07,100410,,,A*46
$GPRMC,173242.000,A,3336.3853,N,11747.9792,W,61.24,116.72,100410,,,A*42
$GPRMC,173245.000,A,3336.3611,N,11747.9261,W,58.81,119.53,100410,,,A*4D
$GPRMC,173248.000,A,3336.3376,N,11747.8769,W,54.92,119.53,100410,,,A*46
$GPRMC,173251.000,A,3336.3158,N,11747.8311,W,50.55,120.59,100410,,,A*44
$GPRMC,173254.000,A,3336.2952,N,11747.7890,W,47.14,120.23,100410,,,A*41
$GPRMC,173257.000,A,3336.2768,N,11747.7500,W,42.28,118.12,100410,,,A*42
$GPRMC,173300.000,A,3336.2617,N,11747.7140,W,38.39,117.07,100410,,,A*4E
$GPRMC,173303.000,A,3336.2488,N,11747.6824,W,32.07,116.72,100410,,,A*47
$GPRMC,173306.000,A,3336.2392,N,11747.6580,W,23.33,114.61,100410,,,A*4A
$GPRMC,173309.000,A,3336.2327,N,11747.6409,W,14.58,116.72,100410,,,A*42
$GPRMC,173418.000,A,3336.2237,N,11747.6190,W,5.83,112.50,100410,,,A*72
$GPRMC,173421.000,A,3336.2186,N,11747.6113,W,11.22,132.19,100410,,,A*4B
$GPRMC,173424.000,A,3336.2121,N,11747.5926,W,22.84,115.31,100410,,,A*4D
$GPRMC,173427.000,A,3336.2034,N,11747.5685,W,28.19,113.20,100410,,,A*45
$GPRMC,173430.000,A,3336.1934,N,11747.5399,W,32.58,113.20,100410,,,A*4F
$GPRMC,173433.000,A,3336.1828,N,11747.5077,W,35.48,112.15,100410,,,A*42
$GPRMC,173436.000,A,3336.1722,N,11747.4716,W,39.38,108.98,100410,,,A*46
$GPRMC,173439.000,A,3336.1622,N,11747.4301,W,46.69,104.41,100410,,,A*4E
$GPRMC,173442.000,A,3336.1532,N,11747.3805,W,54.44,101.60,100410,,,A*42
$GPRMC,173445.000,A,3336.1452,N,11747.3232,W,61.26,98.09,100410,,,A*70
$GPRMC,173448.000,A,3336.1381,N,11747.2605,W,64.64,97.73,100410,,,A*74
$GPRMC,173451.000,A,3336.1317,N,11747.1955,W,65.61,96.68,100410,,,A*75
$GPRMC,173454.000,A,3336.1284,N,11747.1288,W,65.12,97.03,100410,,,A*78
$GPRMC,173457.000,A,3336.1194,N,11747.0654,W,64.64,101.95,100410,,,A*4C
$GPRMC,173500.000,A,3336.1072,N,11747.0027,W,64.16,104.41,100410,,,A*4D
$GPRMC,173503.000,A,3336.0914,N,11746.9405,W,64.16,108.63,100410,,,A*46
$GPRMC,173506.000,A,3336.0715,N,11746.8820,W,63.66,114.26,100410,,,A*4A
$GPRMC,173509.000,A,3336.0486,N,11746.8253,W,63.19,118.48,100410,,,A*4E
$GPRMC,173512.000,A,3336.0222,N,11746.7712,W,62.69,120.59,100410,,,A*4E
$GPRMC,173515.000,A,3335.9952,N,11746.7175,W,62.72,119.88,100410,,,A*44
$GPRMC,173518.000,A,3335.9704,N,11746.6625,W,62.70,116.02,100410,,,A*48
$GPRMC,173521.000,A,3335.9517,N,11746.6045,W,62.27,108.28,100410,,,A*47
$GPRMC,173524.000,A,3335.9372,N,11746.5447,W,62.24,102.66,100410,,,A*41
$GPRMC,173527.000,A,3335.9273,N,11746.4829,W,62.69,99.84,100410,,,A*71
$GPRMC,173530.000,A,3335.9202,N,11746.4204,W,63.18,96.68,100410,,,A*7E
$GPRMC,173533.000,A,3335.9137,N,11746.3570,W,63.66,97.38,100410,,,A*76
$GPRMC,173536.000,A,3335.9118,N,11746.2920,W,63.66,97.03,100410,,,A*7E
$GPRMC,173539.000,A,3335.9028,N,11746.2289,W,63.67,100.55,100410,,,A*46
$GPRMC,173542.000,A,3335.8880,N,11746.1674,W,64.64,107.23,100410,,,A*46
$GPRMC,173545.000,A,3335.8668,N,11746.1095,W,63.66,114.61,100410,,,A*41
$GPRMC,173548.000,A,3335.8410,N,11746.0538,W,63.66,118.83,100410,,,A*42
$GPRMC,173551.000,A,3335.8056,N,11746.0033,W,64.15,128.67,100410,,,A*48
$GPRMC,173554.000,A,3335.7705,N,11745.9540,W,64.67,129.73,100410,,,A*49
$GPRMC,173557.000,A,3335.7358,N,11745.9041,W,64.67,129.38,100410,,,A*4D
$GPRMC,173600.000,A,3335.7010,N,11745.8543,W,65.61,130.78,100410,,,A*4E
$GPRMC,173603.000,A,3335.6656,N,11745.8047,W,65.61,131.13,100410,,,A*45
$GPRMC,173606.000,A,3335.6308,N,11745.7545,W,65.61,130.78,100410,,,A*4A
$GPRMC,173609.000,A,3335.5961,N,11745.7046,W,65.12,130.43,100410,,,A*49
$GPRMC,173612.000,A,3335.5648,N,11745.6541,W,64.22,126.91,100410,,,A*4E
$GPRMC,173615.000,A,3335.5368,N,11745.6013,W,63.69,120.23,100410,,,A*4B
$GPRMC,173618.000,A,3335.5137,N,11745.5456,W,62.24,113.91,100410,,,A*49
$GPRMC,173621.000,A,3335.4956,N,11745.4886,W,61.24,108.63,100410,,,A*49
$GPRMC,173624.000,A,3335.4821,N,11745.4291,W,61.72,102.66,100410,,,A*4D
$GPRMC,173627.000,A,3335.4731,N,11745.3686,W,61.73,99.49,100410,,,A*7A
$GPRMC,173630.000,A,3335.4644,N,11745.3077,W,61.72,100.20,100410,,,A*48
$GPRMC,173633.000,A,3335.4554,N,11745.2469,W,61.73,99.84,100410,,,A*7D
$GPRMC,173636.000,A,3335.4467,N,11745.1864,W,61.26,100.20,100410,,,A*44
$GPRMC,173639.000,A,3335.4384,N,11745.1259,W,61.30,99.84,100410,,,A*7D
$GPRMC,173642.000,A,3335.4300,N,11745.0654,W,61.30,99.84,100410,,,A*75
$GPRMC,173645.000,A,3335.4207,N,11745.0058,W,60.78,102.30,100410,,,A*4F
$GPRMC,173648.000,A,3335.4075,N,11744.9466,W,61.24,105.82,100410,,,A*42
$GPRMC,173651.000,A,3335.3907,N,11744.8887,W,61.72,111.09,100410,,,A*46
$GPRMC,173654.000,A,3335.3701,N,11744.8323,W,61.72,114.96,100410,,,A*4D
$GPRMC,173657.000,A,3335.3489,N,11744.7766,W,61.75,114.26,100410,,,A*4B
$GPRMC,173700.000,A,3335.3273,N,11744.7206,W,62.21,114.61,100410,,,A*49
$GPRMC,173703.000,A,3335.3083,N,11744.6634,W,61.72,109.34,100410,,,A*4A
$GPRMC,173706.000,A,3335.2932,N,11744.6048,W,61.72,105.82,100410,,,A*41
$GPRMC,173709.000,A,3335.2826,N,11744.5446,W,61.72,100.20,100410,,,A*4E
$GPRMC,173712.000,A,3335.2755,N,11744.4834,W,62.24,96.68,100410,,,A*75
$GPRMC,173715.000,A,3335.2691,N,11744.4216,W,62.24,96.68,100410,,,A*71
$GPRMC,173718.000,A,3335.2633,N,11744.3602,W,62.24,97.03,100410,,,A*7E
$GPRMC,173721.000,A,3335.2571,N,11744.2987,W,62.21,96.33,100410,,,A*75
$GPRMC,173724.000,A,3335.2517,N,11744.2375,W,61.73,96.33,100410,,,A*73
$GPRMC,173727.000,A,3335.2459,N,11744.1760,W,62.21,96.33,100410,,,A*7C
$GPRMC,173730.000,A,3335.2404,N,11744.1146,W,62.21,96.68,100410,,,A*7E
$GPRMC,173733.000,A,3335.2343,N,11744.0531,W,62.21,96.68,100410,,,A*7C
$GPRMC,173736.000,A,3335.2269,N,11743.9916,W,62.21,99.49,100410,,,A*7B
$GPRMC,173739.000,A,3335.2143,N,11743.9314,W,62.21,106.17,100410,,,A*4B
$GPRMC,173742.000,A,3335.1982,N,11743.8719,W,62.72,110.74,100410,,,A*4D
$GPRMC,173745.000,A,3335.1773,N,11743.8149,W,62.24,116.02,100410,,,A*4D
$GPRMC,173748.000,A,3335.1525,N,11743.7599,W,62.21,120.23,100410,,,A*44
$GPRMC,173751.000,A,3335.1245,N,11743.7071,W,62.69,124.10,100410,,,A*46
$GPRMC,173754.000,A,3335.0914,N,11743.6572,W,63.73,130.08,100410,,,A*4C
$GPRMC,173757.000,A,3335.0566,N,11743.6086,W,64.22,130.78,100410,,,A*4C
$GPRMC,173800.000,A,3335.0215,N,11743.5597,W,64.27,130.43,100410,,,A*49
$GPRMC,173803.000,A,3334.9868,N,11743.5108,W,64.75,130.08,100410,,,A*48
$GPRMC,173806.000,A,3334.9507,N,11743.4618,W,66.10,131.84,100410,,,A*4A
$GPRMC,173809.000,A,3334.9134,N,11743.4126,W,66.09,132.19,100410,,,A*44
$GPRMC,173812.000,A,3334.8777,N,11743.3640,W,66.59,132.19,100410,,,A*4B
$GPRMC,173815.000,A,3334.8416,N,11743.3134,W,66.58,131.48,100410,,,A*4A
$GPRMC,173818.000,A,3334.8062,N,11743.2632,W,65.61,129.73,100410,,,A*48
$GPRMC,173821.000,A,3334.7734,N,11743.2114,W,66.10,128.32,100410,,,A*4B
$GPRMC,173824.000,A,3334.7418,N,11743.1586,W,66.10,127.27,100410,,,A*44
$GPRMC,173827.000,A,3334.7097,N,11743.1062,W,65.61,127.62,100410,,,A*4F
$GPRMC,173830.000,A,3334.6826,N,11743.0531,W,62.72,122.70,100410,,,A*4B
$GPRMC,173833.000,A,3334.6562,N,11743.0006,W,61.75,120.94,100410,,,A*48
$GPRMC,173836.000,A,3334.6305,N,11742.9475,W,61.75,119.18,100410,,,A*4C
$GPRMC,173839.000,A,3334.6060,N,11742.8931,W,62.24,117.77,100410,,,A*4F
$GPRMC,173842.000,A,3334.5825,N,11742.8381,W,61.73,116.37,100410,,,A*4C
$GPRMC,173845.000,A,3334.5606,N,11742.7820,W,61.24,113.91,100410,,,A*40
$GPRMC,173848.000,A,3334.5400,N,11742.7260,W,61.23,113.55,100410,,,A*48
$GPRMC,173851.000,A,3334.5194,N,11742.6697,W,61.72,113.55,100410,,,A*41
$GPRMC,173854.000,A,3334.4988,N,11742.6134,W,61.73,113.91,100410,,,A*47
$GPRMC,173857.000,A,3334.4789,N,11742.5567,W,61.73,113.20,100410,,,A*40
$GPRMC,173900.000,A,3334.4576,N,11742.5004,W,61.73,116.37,100410,,,A*42
$GPRMC,173903.000,A,3334.4338,N,11742.4460,W,62.21,119.88,100410,,,A*45
$GPRMC,173906.000,A,3334.4065,N,11742.3929,W,62.21,122.34,100410,,,A*43
$GPRMC,173909.000,A,3334.3765,N,11742.3424,W,62.21,127.27,100410,,,A*4B
$GPRMC,173912.000,A,3334.3440,N,11742.2947,W,62.21,131.48,100410,,,A*42
$GPRMC,173915.000,A,3334.3083,N,11742.2490,W,62.21,133.59,100410,,,A*4B
$GPRMC,173918.000,A,3334.2722,N,11742.2046,W,61.72,134.30,100410,,,A*49
$GPRMC,173921.000,A,3334.2362,N,11742.1608,W,61.73,134.30,100410,,,A*4D
$GPRMC,173924.000,A,3334.2008,N,11742.1171,W,61.26,133.95,100410,,,A*46
$GPRMC,173927.000,A,3334.1651,N,11742.0736,W,61.30,133.95,100410,,,A*4F
$GPRMC,173930.000,A,3334.1293,N,11742.0295,W,61.30,134.30,100410,,,A*47
$GPRMC,173933.000,A,3334.0936,N,11741.9854,W,61.36,133.95,100410,,,A*42
$GPRMC,173936.000,A,3334.0582,N,11741.9413,W,61.73,134.30,100410,,,A*42
$GPRMC,173939.000,A,3334.0221,N,11741.8969,W,61.26,133.24,100410,,,A*40
$GPRMC,173942.000,A,3333.9858,N,11741.8528,W,62.70,136.05,100410,,,A*49
$GPRMC,173945.000,A,3333.9481,N,11741.8107,W,60.76,138.52,100410,,,A*47
$GPRMC,173948.000,A,3333.9092,N,11741.7707,W,60.75,140.98,100410,,,A*4F
$GPRMC,173951.000,A,3333.8683,N,11741.7357,W,59.78,144.49,100410,,,A*4E
$GPRMC,173954.000,A,3333.8245,N,11741.7044,W,60.75,148.36,100410,,,A*47
$GPRMC,173957.000,A,3333.7817,N,11741.6729,W,60.26,147.66,100410,,,A*47
$GPRMC,174000.000,A,3333.7392,N,11741.6407,W,60.26,147.30,100410,,,A*41
$GPRMC,174003.000,A,3333.6945,N,11741.6079,W,62.24,144.84,100410,,,A*42
$GPRMC,174006.000,A,3333.6526,N,11741.5696,W,62.70,138.52,100410,,,A*4B
$GPRMC,174009.000,A,3333.6150,N,11741.5261,W,63.18,135.00,100410,,,A*48
$GPRMC,174012.000,A,3333.5809,N,11741.4782,W,62.69,128.32,100410,,,A*47
$GPRMC,174015.000,A,3333.5519,N,11741.4264,W,62.21,120.59,100410,,,A*48
$GPRMC,174018.000,A,3333.5271,N,11741.3716,W,62.21,115.66,100410,,,A*41
$GPRMC,174021.000,A,3333.5075,N,11741.3147,W,62.21,108.98,100410,,,A*42
$GPRMC,174024.000,A,3333.4930,N,11741.2554,W,62.24,103.71,100410,,,A*40
$GPRMC,174028.000,A,3333.4792,N,11741.1740,W,62.72,101.25,100410,,,A*4E
$GPRMC,174031.000,A,3333.4689,N,11741.1132,W,62.24,101.60,100410,,,A*4C
$GPRMC,174034.000,A,3333.4589,N,11741.0523,W,62.24,100.55,100410,,,A*48
$GPRMC,174037.000,A,3333.4489,N,11740.9918,W,62.27,101.25,100410,,,A*43
$GPRMC,174040.000,A,3333.4373,N,11740.9313,W,62.24,105.82,100410,,,A*4A
$GPRMC,174043.000,A,3333.4209,N,11740.8721,W,62.21,111.09,100410,,,A*42
$GPRMC,174046.000,A,3333.4003,N,11740.8151,W,62.21,112.85,100410,,,A*49
$GPRMC,174049.000,A,3333.3688,N,11740.7656,W,61.23,127.27,100410,,,A*44
$GPRMC,174052.000,A,3333.3334,N,11740.7205,W,61.72,135.70,100410,,,A*4B
$GPRMC,174055.000,A,3333.2934,N,11740.6803,W,61.72,140.98,100410,,,A*4E
$GPRMC,174058.000,A,3333.2503,N,11740.6445,W,62.69,145.90,100410,,,A*41
$GPRMC,174101.000,A,3333.2014,N,11740.6201,W,61.73,158.20,100410,,,A*46
$GPRMC,174104.000,A,3333.1518,N,11740.6024,W,61.23,165.23,100410,,,A*44
$GPRMC,174107.000,A,3333.1026,N,11740.5889,W,61.72,168.75,100410,,,A*49
$GPRMC,174110.000,A,3333.0520,N,11740.5763,W,61.72,168.05,100410,,,A*41
$GPRMC,174113.000,A,3333.0015,N,11740.5634,W,62.21,167.70,100410,,,A*4A
$GPRMC,174116.000,A,3332.9510,N,11740.5506,W,62.21,168.05,100410,,,A*48
$GPRMC,174119.000,A,3332.9008,N,11740.5377,W,62.21,168.05,100410,,,A*4B
$GPRMC,174122.000,A,3332.8502,N,11740.5248,W,62.21,168.05,100410,,,A*40
$GPRMC,174125.000,A,3332.7994,N,11740.5123,W,62.21,168.05,100410,,,A*45
$GPRMC,174128.000,A,3332.7485,N,11740.4994,W,62.21,168.40,100410,,,A*41
$GPRMC,174131.000,A,3332.6980,N,11740.4868,W,61.26,168.05,100410,,,A*47
$GPRMC,174134.000,A,3332.6475,N,11740.4740,W,62.24,168.75,100410,,,A*46
$GPRMC,174137.000,A,3332.5963,N,11740.4643,W,62.76,174.73,100410,,,A*42
$GPRMC,174140.000,A,3332.5438,N,11740.4624,W,63.19,180.70,100410,,,A*40
$GPRMC,174143.000,A,3332.4923,N,11740.4688,W,61.73,186.68,100410,,,A*42
$GPRMC,174146.000,A,3332.4408,N,11740.4765,W,61.24,186.68,100410,,,A*43
$GPRMC,174149.000,A,3332.3896,N,11740.4843,W,61.72,188.09,100410,,,A*41
$GPRMC,174152.000,A,3332.3391,N,11740.4939,W,61.72,189.14,100410,,,A*46
$GPRMC,174155.000,A,3332.2883,N,11740.5032,W,61.72,187.73,100410,,,A*44
$GPRMC,174158.000,A,3332.2368,N,11740.5106,W,61.73,184.92,100410,,,A*4C
$GPRMC,174201.000,A,3332.1856,N,11740.5148,W,61.72,182.81,100410,,,A*49
$GPRMC,174204.000,A,3332.1341,N,11740.5168,W,61.72,181.05,100410,,,A*4C
$GPRMC,174207.000,A,3332.0826,N,11740.5168,W,62.21,178.95,100410,,,A*4E
$GPRMC,174210.000,A,3332.0308,N,11740.5145,W,62.21,176.84,100410,,,A*4E
$GPRMC,174213.000,A,3331.9786,N,11740.5094,W,62.21,173.32,100410,,,A*40
$GPRMC,174216.000,A,3331.9278,N,11740.4968,W,62.21,164.53,100410,,,A*4B
$GPRMC,174219.000,A,3331.8788,N,11740.4752,W,62.21,157.50,100410,,,A*4B
$GPRMC,174222.000,A,3331.8322,N,11740.4463,W,63.66,150.47,100410,,,A*45
$GPRMC,174225.000,A,3331.7919,N,11740.4073,W,61.73,138.16,100410,,,A*46
$GPRMC,174228.000,A,3331.7565,N,11740.3636,W,61.75,131.48,100410,,,A*48
$GPRMC,174231.000,A,3331.7237,N,11740.3156,W,62.72,129.38,100410,,,A*4B
$GPRMC,174234.000,A,3331.6912,N,11740.2673,W,61.73,129.38,100410,,,A*40
$GPRMC,174237.000,A,3331.6584,N,11740.2203,W,61.72,130.43,100410,,,A*46
$GPRMC,174240.000,A,3331.6230,N,11740.1762,W,61.23,136.41,100410,,,A*4F
$GPRMC,174243.000,A,3331.5840,N,11740.1363,W,61.73,142.73,100410,,,A*40
$GPRMC,174246.000,A,3331.5425,N,11740.1016,W,59.78,146.60,100410,,,A*4D
$GPRMC,174249.000,A,3331.4952,N,11740.0726,W,62.21,155.04,100410,,,A*4F
$GPRMC,174252.000,A,3331.4492,N,11740.0507,W,55.89,159.96,100410,,,A*44
$GPRMC,174255.000,A,3331.4060,N,11740.0327,W,53.46,160.31,100410,,,A*4C
$GPRMC,174258.000,A,3331.3635,N,11740.0140,W,54.92,160.31,100410,,,A*4D
$GPRMC,174301.000,A,3331.3207,N,11739.9957,W,54.92,160.31,100410,,,A*4C
$GPRMC,174304.000,A,3331.2773,N,11739.9770,W,55.40,160.31,100410,,,A*4B
$GPRMC,174307.000,A,3331.2329,N,11739.9577,W,57.35,160.66,100410,,,A*44
$GPRMC,174310.000,A,3331.1881,N,11739.9390,W,56.86,160.66,100410,,,A*4E
$GPRMC,174313.000,A,3331.1440,N,11739.9203,W,56.37,160.31,100410,,,A*4F
$GPRMC,174316.000,A,3331.0996,N,11739.9010,W,56.86,159.61,100410,,,A*48
$GPRMC,174319.000,A,3331.0552,N,11739.8804,W,56.86,158.91,100410,,,A*41
$GPRMC,174322.000,A,3331.0108,N,11739.8608,W,57.35,160.31,100410,,,A*48
$GPRMC,174325.000,A,3330.9648,N,11739.8412,W,58.80,160.31,100410,,,A*4C
$GPRMC,174328.000,A,3330.9181,N,11739.8212,W,59.29,160.31,100410,,,A*47
$GPRMC,174331.000,A,3330.8717,N,11739.8013,W,58.81,160.31,100410,,,A*47
$GPRMC,174334.000,A,3330.8257,N,11739.7813,W,58.81,159.26,100410,,,A*48
$GPRMC,174337.000,A,3330.7787,N,11739.7601,W,60.76,159.61,100410,,,A*41
$GPRMC,174340.000,A,3330.7304,N,11739.7385,W,62.24,158.91,100410,,,A*4C
$GPRMC,174343.000,A,3330.6812,N,11739.7156,W,64.18,159.26,100410,,,A*4A
$GPRMC,174346.000,A,3330.6313,N,11739.6938,W,63.21,160.31,100410,,,A*45
$GPRMC,174349.000,A,3330.5821,N,11739.6732,W,62.24,160.31,100410,,,A*43
$GPRMC,174352.000,A,3330.5325,N,11739.6522,W,64.67,160.31,100410,,,A*44
$GPRMC,174355.000,A,3330.4810,N,11739.6300,W,66.12,160.31,100410,,,A*49
$GPRMC,174358.000,A,3330.4292,N,11739.6081,W,66.12,160.31,100410,,,A*4E
$GPRMC,174401.000,A,3330.3780,N,11739.5859,W,64.64,159.96,100410,,,A*4E
$GPRMC,174405.000,A,3330.3107,N,11739.5579,W,63.21,162.07,100410,,,A*4A
$GPRMC,174408.000,A,3330.2599,N,11739.5405,W,63.69,165.94,100410,,,A*4E
$GPRMC,174411.000,A,3330.2084,N,11739.5257,W,63.19,167.34,100410,,,A*41
$GPRMC,174414.000,A,3330.1562,N,11739.5138,W,63.66,171.56,100410,,,A*4B
$GPRMC,174417.000,A,3330.1022,N,11739.5077,W,65.12,176.13,100410,,,A*40
$GPRMC,174420.000,A,3330.0478,N,11739.5048,W,64.64,179.30,100410,,,A*4C
$GPRMC,174423.000,A,3329.9946,N,11739.5061,W,62.21,182.81,100410,,,A*4C
$GPRMC,174426.000,A,3329.9435,N,11739.5113,W,60.75,185.98,100410,,,A*48
$GPRMC,174429.000,A,3329.8942,N,11739.5193,W,59.30,189.84,100410,,,A*49
$GPRMC,174432.000,A,3329.8456,N,11739.5306,W,59.78,192.30,100410,,,A*4C
$GPRMC,174435.000,A,3329.7977,N,11739.5454,W,59.29,195.82,100410,,,A*40
$GPRMC,174438.000,A,3329.7510,N,11739.5628,W,58.80,198.98,100410,,,A*4D
$GPRMC,174441.000,A,3329.7050,N,11739.5827,W,59.29,201.80,100410,,,A*4B
$GPRMC,174444.000,A,3329.6586,N,11739.6069,W,61.73,204.96,100410,,,A*46
$GPRMC,174447.000,A,3329.6120,N,11739.6339,W,62.21,207.07,100410,,,A*44
$GPRMC,174450.000,A,3329.5682,N,11739.6641,W,60.75,210.59,100410,,,A*4A
$GPRMC,174453.000,A,3329.5241,N,11739.6963,W,62.21,212.34,100410,,,A*47
$GPRMC,174456.000,A,3329.4800,N,11739.7298,W,62.69,211.99,100410,,,A*4A
$GPRMC,174459.000,A,3329.4369,N,11739.7630,W,62.21,212.34,100410,,,A*4F
$GPRMC,174502.000,A,3329.3934,N,11739.7964,W,62.70,211.99,100410,,,A*4B
$GPRMC,174505.000,A,3329.3493,N,11739.8299,W,62.69,212.70,100410,,,A*46
$GPRMC,174508.000,A,3329.3049,N,11739.8634,W,63.19,212.34,100410,,,A*4D
$GPRMC,174511.000,A,3329.2602,N,11739.8965,W,63.67,212.34,100410,,,A*4F
$GPRMC,174514.000,A,3329.2144,N,11739.9306,W,63.66,212.34,100410,,,A*40
$GPRMC,174517.000,A,3329.1697,N,11739.9648,W,63.66,212.34,100410,,,A*46
$GPRMC,174520.000,A,3329.1256,N,11739.9992,W,63.18,213.75,100410,,,A*4E
$GPRMC,174523.000,A,3329.0822,N,11740.0349,W,63.18,215.51,100410,,,A*4E
$GPRMC,174526.000,A,3329.0397,N,11740.0716,W,62.69,215.86,100410,,,A*4D
$GPRMC,174529.000,A,3328.9972,N,11740.1086,W,63.18,216.21,100410,,,A*4D
$GPRMC,174532.000,A,3328.9547,N,11740.1460,W,63.18,215.86,100410,,,A*4F
$GPRMC,174535.000,A,3328.9116,N,11740.1830,W,63.66,215.86,100410,,,A*48
$GPRMC,174538.000,A,3328.8684,N,11740.2200,W,63.66,215.86,100410,,,A*42
$GPRMC,174541.000,A,3328.8250,N,11740.2570,W,63.66,215.86,100410,,,A*41
$GPRMC,174544.000,A,3328.7819,N,11740.2944,W,63.67,215.86,100410,,,A*46
$GPRMC,174547.000,A,3328.7384,N,11740.3317,W,64.64,215.86,100410,,,A*43
$GPRMC,174550.000,A,3328.6940,N,11740.3697,W,66.09,215.51,100410,,,A*48
$GPRMC,174553.000,A,3328.6476,N,11740.4054,W,66.59,209.88,100410,,,A*41
$GPRMC,174556.000,A,3328.5978,N,11740.4353,W,67.07,203.91,100410,,,A*48
$GPRMC,174559.000,A,3328.5459,N,11740.4591,W,65.64,198.28,100410,,,A*45
$GPRMC,174602.000,A,3328.4935,N,11740.4756,W,64.16,191.60,100410,,,A*46
$GPRMC,174605.000,A,3328.4410,N,11740.4859,W,62.70,186.33,100410,,,A*4D
$GPRMC,174608.000,A,3328.3885,N,11740.4897,W,62.70,181.05,100410,,,A*47
$GPRMC,174611.000,A,3328.3367,N,11740.4872,W,61.73,174.73,100410,,,A*48
$GPRMC,174614.000,A,3328.2849,N,11740.4781,W,62.21,169.10,100410,,,A*45
$GPRMC,174617.000,A,3328.2347,N,11740.4620,W,61.72,161.02,100410,,,A*47
$GPRMC,174620.000,A,3328.1880,N,11740.4385,W,59.30,155.74,100410,,,A*41
$GPRMC,174623.000,A,3328.1452,N,11740.4038,W,61.24,145.20,100410,,,A*4A
$GPRMC,174626.000,A,3328.1053,N,11740.3636,W,63.66,137.81,100410,,,A*4F
$GPRMC,174629.000,A,3328.0702,N,11740.3159,W,64.64,132.19,100410,,,A*4D
$GPRMC,174632.000,A,3328.0464,N,11740.2589,W,65.12,118.12,100410,,,A*4F
$GPRMC,174635.000,A,3328.0223,N,11740.2007,W,65.61,117.07,100410,,,A*41
$GPRMC,174638.000,A,3327.9955,N,11740.1424,W,67.07,120.23,100410,,,A*46
$GPRMC,174641.000,A,3327.9643,N,11740.0864,W,67.56,125.51,100410,,,A*4D
$GPRMC,174644.000,A,3327.9292,N,11740.0336,W,68.52,128.32,100410,,,A*4F
$GPRMC,174647.000,A,3327.8938,N,11739.9805,W,69.01,128.67,100410,,,A*4D
$GPRMC,174650.000,A,3327.8565,N,11739.9268,W,69.50,129.02,100410,,,A*48
$GPRMC,174653.000,A,3327.8198,N,11739.8740,W,69.01,129.38,100410,,,A*4E
$GPRMC,174656.000,A,3327.7838,N,11739.8209,W,68.04,129.38,100410,,,A*4B
$GPRMC,174659.000,A,3327.7480,N,11739.7687,W,67.07,129.38,100410,,,A*4A
$GPRMC,174702.000,A,3327.7113,N,11739.7176,W,67.07,129.73,100410,,,A*4C
$GPRMC,174705.000,A,3327.6759,N,11739.6664,W,65.61,127.62,100410,,,A*4B
$GPRMC,174708.000,A,3327.6447,N,11739.6126,W,65.61,121.64,100410,,,A*4B
$GPRMC,174711.000,A,3327.6203,N,11739.5544,W,66.12,116.02,100410,,,A*45
$GPRMC,174714.000,A,3327.5958,N,11739.4955,W,66.09,116.72,100410,,,A*46
$GPRMC,174717.000,A,3327.5694,N,11739.4369,W,67.56,120.94,100410,,,A*49
$GPRMC,174720.000,A,3327.5379,N,11739.3796,W,69.50,124.45,100410,,,A*48
$GPRMC,174723.000,A,3327.5037,N,11739.3230,W,70.96,125.86,100410,,,A*47
$GPRMC,174726.000,A,3327.4693,N,11739.2657,W,70.47,125.86,100410,,,A*43
$GPRMC,174729.000,A,3327.4358,N,11739.2097,W,67.56,125.16,100410,,,A*4B
$GPRMC,174732.000,A,3327.4046,N,11739.1550,W,66.09,123.40,100410,,,A*4E
$GPRMC,174735.000,A,3327.3769,N,11739.0993,W,66.12,120.23,100410,,,A*4A
$GPRMC,174738.000,A,3327.3502,N,11739.0410,W,67.09,117.77,100410,,,A*40
$GPRMC,174741.000,A,3327.3241,N,11738.9805,W,69.52,117.07,100410,,,A*49
$GPRMC,174744.000,A,3327.2974,N,11738.9181,W,70.49,117.07,100410,,,A*47
$GPRMC,174747.000,A,3327.2704,N,11738.8550,W,71.47,117.07,100410,,,A*4B
$GPRMC,174750.000,A,3327.2433,N,11738.7916,W,70.98,117.07,100410,,,A*48
$GPRMC,174752.000,A,3327.2253,N,11738.7497,W,70.98,117.42,100410,,,A*4F
$GPRMC,174756.000,A,3327.1870,N,11738.6664,W,71.93,120.23,100410,,,A*45
$GPRMC,174759.000,A,3327.1548,N,11738.6062,W,69.98,123.75,100410,,,A*4E
$GPRMC,174802.000,A,3327.1220,N,11738.5498,W,69.02,125.86,100410,,,A*4D
$GPRMC,174805.000,A,3327.0876,N,11738.4961,W,66.12,128.67,100410,,,A*44
$GPRMC,174808.000,A,3327.0538,N,11738.4472,W,61.24,130.78,100410,,,A*44
$GPRMC,174811.000,A,3327.0222,N,11738.4031,W,56.38,130.78,100410,,,A*4A
$GPRMC,174814.000,A,3326.9926,N,11738.3616,W,54.92,130.43,100410,,,A*46
$GPRMC,174817.000,A,3326.9624,N,11738.3194,W,56.37,130.43,100410,,,A*48
$GPRMC,174820.000,A,3326.9315,N,11738.2753,W,57.83,129.73,100410,,,A*42
$GPRMC,174823.000,A,3326.9015,N,11738.2273,W,62.21,123.75,100410,,,A*47
$GPRMC,174826.000,A,3326.8735,N,11738.1752,W,61.73,121.29,100410,,,A*4C
$GPRMC,174829.000,A,3326.8462,N,11738.1224,W,62.72,121.29,100410,,,A*44
$GPRMC,174832.000,A,3326.8195,N,11738.0687,W,63.19,121.29,100410,,,A*43
$GPRMC,174835.000,A,3326.7918,N,11738.0143,W,63.67,121.29,100410,,,A*40
$GPRMC,174838.000,A,3326.7634,N,11737.9592,W,64.64,121.99,100410,,,A*4D
$GPRMC,174841.000,A,3326.7332,N,11737.9058,W,64.64,124.80,100410,,,A*4E
$GPRMC,174844.000,A,3326.6978,N,11737.8572,W,64.64,132.19,100410,,,A*45
$GPRMC,174847.000,A,3326.6579,N,11737.8121,W,64.16,134.65,100410,,,A*41
$GPRMC,174850.000,A,3326.6205,N,11737.7680,W,60.75,135.00,100410,,,A*4B
$GPRMC,174853.000,A,3326.5842,N,11737.7252,W,61.73,135.00,100410,,,A*4E
$GPRMC,174856.000,A,3326.5478,N,11737.6818,W,60.78,135.00,100410,,,A*41
$GPRMC,174859.000,A,3326.5124,N,11737.6393,W,59.78,134.65,100410,,,A*42
$GPRMC,174902.000,A,3326.4776,N,11737.5965,W,61.23,132.89,100410,,,A*4C
$GPRMC,174905.000,A,3326.4458,N,11737.5479,W,61.73,126.56,100410,,,A*46
$GPRMC,174908.000,A,3326.4178,N,11737.4970,W,60.29,123.40,100410,,,A*45
$GPRMC,174911.000,A,3326.3894,N,11737.4475,W,60.75,123.40,100410,,,A*40
$GPRMC,174914.000,A,3326.3611,N,11737.3960,W,61.75,123.40,100410,,,A*49
$GPRMC,174917.000,A,3326.3318,N,11737.3441,W,61.73,123.75,100410,,,A*48
$GPRMC,174920.000,A,3326.3038,N,11737.2936,W,60.75,123.40,100410,,,A*40
$GPRMC,174923.000,A,3326.2755,N,11737.2434,W,61.73,123.75,100410,,,A*40
$GPRMC,174926.000,A,3326.2456,N,11737.1932,W,60.75,126.91,100410,,,A*45
$GPRMC,174929.000,A,3326.2105,N,11737.1472,W,62.69,135.35,100410,,,A*43
$GPRMC,174932.000,A,3326.1722,N,11737.1063,W,60.26,140.27,100410,,,A*45
$GPRMC,174935.000,A,3326.1319,N,11737.0718,W,59.29,145.55,100410,,,A*41
$GPRMC,174938.000,A,3326.0891,N,11737.0403,W,58.32,148.01,100410,,,A*48
$GPRMC,174941.000,A,3326.0467,N,11737.0113,W,56.89,149.77,100410,,,A*49
$GPRMC,174944.000,A,3326.0055,N,11736.9843,W,54.99,150.82,100410,,,A*4C
$GPRMC,174947.000,A,3325.9659,N,11736.9582,W,53.54,150.12,100410,,,A*40
$GPRMC,174950.000,A,3325.9276,N,11736.9309,W,53.54,146.60,100410,,,A*48
$GPRMC,174953.000,A,3325.8909,N,11736.9000,W,53.98,141.33,100410,,,A*42
$GPRMC,174956.000,A,3325.8561,N,11736.8642,W,55.92,136.05,100410,,,A*4D
$GPRMC,174959.000,A,3325.8236,N,11736.8250,W,55.40,133.95,100410,,,A*43
$GPRMC,175002.000,A,3325.7911,N,11736.7841,W,56.86,134.30,100410,,,A*40
$GPRMC,175005.000,A,3325.7541,N,11736.7439,W,60.26,139.22,100410,,,A*4C
$GPRMC,175008.000,A,3325.7138,N,11736.7062,W,61.73,143.79,100410,,,A*43
$GPRMC,175011.000,A,3325.6707,N,11736.6714,W,63.19,147.66,100410,,,A*43
$GPRMC,175014.000,A,3325.6253,N,11736.6376,W,64.15,150.12,100410,,,A*4C
$GPRMC,175017.000,A,3325.5787,N,11736.6064,W,64.15,150.47,100410,,,A*40
$GPRMC,175020.000,A,3325.5320,N,11736.5749,W,64.64,150.47,100410,,,A*40
$GPRMC,175023.000,A,3325.4847,N,11736.5430,W,65.13,151.17,100410,,,A*40
$GPRMC,175026.000,A,3325.4364,N,11736.5147,W,64.16,155.39,100410,,,A*46
$GPRMC,175029.000,A,3325.3865,N,11736.4902,W,65.61,158.55,100410,,,A*4A
$GPRMC,175032.000,A,3325.3353,N,11736.4654,W,66.59,157.50,100410,,,A*40
$GPRMC,175035.000,A,3325.2842,N,11736.4374,W,68.04,153.63,100410,,,A*48
$GPRMC,175038.000,A,3325.2391,N,11736.4027,W,64.64,145.20,100410,,,A*4F
$GPRMC,175041.000,A,3325.1960,N,11736.3657,W,63.21,144.14,100410,,,A*40
$GPRMC,175044.000,A,3325.1532,N,11736.3296,W,62.24,144.84,100410,,,A*4A
$GPRMC,175047.000,A,3325.1097,N,11736.2971,W,60.78,151.52,100410,,,A*44
$GPRMC,175050.000,A,3325.0624,N,11736.2723,W,61.26,157.50,100410,,,A*4A
$GPRMC,175053.000,A,3325.0154,N,11736.2485,W,61.30,156.80,100410,,,A*4D
$GPRMC,175056.000,A,3324.9681,N,11736.2250,W,61.30,157.50,100410,,,A*4D
$GPRMC,175058.000,A,3324.9369,N,11736.2096,W,60.78,157.15,100410,,,A*44
$GPRMC,175102.000,A,3324.8741,N,11736.1780,W,61.30,157.15,100410,,,A*4B
$GPRMC,175105.000,A,3324.8261,N,11736.1539,W,63.21,157.15,100410,,,A*49
$GPRMC,175108.000,A,3324.7772,N,11736.1294,W,64.16,157.15,100410,,,A*4F
$GPRMC,175111.000,A,3324.7273,N,11736.1043,W,65.61,157.15,100410,,,A*4A
$GPRMC,175114.000,A,3324.6774,N,11736.0792,W,63.66,157.15,100410,,,A*47
$GPRMC,175117.000,A,3324.6295,N,11736.0554,W,60.75,157.15,100410,,,A*47
$GPRMC,175120.000,A,3324.5847,N,11736.0325,W,55.89,157.15,100410,,,A*40
$GPRMC,175123.000,A,3324.5416,N,11736.0110,W,56.86,157.15,100410,,,A*43
$GPRMC,175126.000,A,3324.4978,N,11735.9884,W,57.35,157.15,100410,,,A*45
$GPRMC,175129.000,A,3324.4534,N,11735.9662,W,58.33,156.80,100410,,,A*4C
$GPRMC,175132.000,A,3324.4074,N,11735.9434,W,60.29,157.50,100410,,,A*4A
$GPRMC,175135.000,A,3324.3604,N,11735.9202,W,61.75,157.15,100410,,,A*41
$GPRMC,175138.000,A,3324.3128,N,11735.8961,W,62.70,157.15,100410,,,A*4C
$GPRMC,175141.000,A,3324.2645,N,11735.8713,W,64.15,157.15,100410,,,A*41
$GPRMC,175144.000,A,3324.2152,N,11735.8465,W,63.18,156.80,100410,,,A*40
$GPRMC,175147.000,A,3324.1676,N,11735.8224,W,60.75,157.50,100410,,,A*46
$GPRMC,175150.000,A,3324.1216,N,11735.7998,W,58.33,157.50,100410,,,A*48
$GPRMC,175153.000,A,3324.0775,N,11735.7776,W,57.38,157.15,100410,,,A*41
$GPRMC,175156.000,A,3324.0324,N,11735.7551,W,60.29,157.15,100410,,,A*47
$GPRMC,175159.000,A,3323.9848,N,11735.7313,W,63.25,157.15,100410,,,A*48
$GPRMC,175202.000,A,3323.9352,N,11735.7065,W,65.15,157.15,100410,,,A*42
$GPRMC,175205.000,A,3323.8850,N,11735.6811,W,64.15,156.80,100410,,,A*4B
$GPRMC,175208.000,A,3323.8370,N,11735.6560,W,61.72,155.74,100410,,,A*48
$GPRMC,175211.000,A,3323.7939,N,11735.6318,W,54.92,154.34,100410,,,A*4C
$GPRMC,175214.000,A,3323.7569,N,11735.6122,W,46.65,158.91,100410,,,A*43
$GPRMC,175217.000,A,3323.7318,N,11735.5945,W,36.93,151.17,100410,,,A*43
$GPRMC,175220.000,A,3323.7044,N,11735.5765,W,38.88,151.17,100410,,,A*45
$GPRMC,175223.000,A,3323.6735,N,11735.5549,W,44.71,150.47,100410,,,A*43
$GPRMC,175226.000,A,3323.6394,N,11735.5317,W,49.57,150.47,100410,,,A*4D
$GPRMC,175229.000,A,3323.6014,N,11735.5047,W,53.94,148.36,100410,,,A*44
$GPRMC,175232.000,A,3323.5622,N,11735.4751,W,55.41,148.01,100410,,,A*45
$GPRMC,175235.000,A,3323.5223,N,11735.4438,W,59.30,146.95,100410,,,A*42
$GPRMC,175238.000,A,3323.4801,N,11735.4110,W,60.76,146.60,100410,,,A*49
$GPRMC,175241.000,A,3323.4366,N,11735.3769,W,63.67,146.95,100410,,,A*4B
$GPRMC,175244.000,A,3323.3909,N,11735.3418,W,65.61,147.30,100410,,,A*41
$GPRMC,175247.000,A,3323.3456,N,11735.3058,W,65.12,145.20,100410,,,A*42
$GPRMC,175250.000,A,3323.3021,N,11735.2665,W,66.09,141.33,100410,,,A*46
$GPRMC,175253.000,A,3323.2599,N,11735.2224,W,67.07,138.52,100410,,,A*45
$GPRMC,175256.000,A,3323.2213,N,11735.1732,W,68.04,132.54,100410,,,A*44
$GPRMC,175259.000,A,3323.1872,N,11735.1188,W,69.50,125.51,100410,,,A*41
$GPRMC,175302.000,A,3323.1566,N,11735.0611,W,68.52,120.94,100410,,,A*4F
$GPRMC,175305.000,A,3323.1289,N,11735.0016,W,69.02,116.02,100410,,,A*41
$GPRMC,175308.000,A,3323.1045,N,11734.9395,W,68.04,114.61,100410,,,A*4E
$GPRMC,175311.000,A,3323.0810,N,11734.8783,W,67.55,114.96,100410,,,A*4E
$GPRMC,175314.000,A,3323.0578,N,11734.8178,W,67.07,114.96,100410,,,A*4D
$GPRMC,175317.000,A,3323.0343,N,11734.7573,W,66.58,114.96,100410,,,A*4B
$GPRMC,175320.000,A,3323.0105,N,11734.6971,W,66.10,114.61,100410,,,A*44
$GPRMC,175324.000,A,3322.9802,N,11734.6196,W,63.19,114.96,100410,,,A*43
$GPRMC,175327.000,A,3322.9580,N,11734.5629,W,63.19,114.96,100410,,,A*47
$GPRMC,175330.000,A,3322.9358,N,11734.5053,W,64.16,115.31,100410,,,A*4D
$GPRMC,175333.000,A,3322.9136,N,11734.4474,W,64.16,114.96,100410,,,A*48
$GPRMC,175336.000,A,3322.8908,N,11734.3888,W,65.61,115.31,100410,,,A*4C
$GPRMC,175339.000,A,3322.8669,N,11734.3286,W,67.07,114.96,100410,,,A*41
$GPRMC,175342.000,A,3322.8435,N,11734.2684,W,66.58,114.96,100410,,,A*4A
$GPRMC,175345.000,A,3322.8200,N,11734.2085,W,65.61,114.96,100410,,,A*43
$GPRMC,175348.000,A,3322.7968,N,11734.1496,W,64.64,114.96,100410,,,A*45
$GPRMC,175351.000,A,3322.7746,N,11734.0910,W,64.64,114.96,100410,,,A*4D
$GPRMC,175354.000,A,3322.7520,N,11734.0331,W,64.16,114.96,100410,,,A*46
$GPRMC,175357.000,A,3322.7292,N,11733.9778,W,59.32,118.48,100410,,,A*4B
$GPRMC,175400.000,A,3322.7044,N,11733.9295,W,55.41,124.45,100410,,,A*4B
$GPRMC,175403.000,A,3322.6777,N,11733.8857,W,54.43,127.27,100410,,,A*4F
$GPRMC,175406.000,A,3322.6449,N,11733.8448,W,56.38,135.70,100410,,,A*49
$GPRMC,175409.000,A,3322.6098,N,11733.8059,W,56.87,137.11,100410,,,A*4B
$GPRMC,175412.000,A,3322.5747,N,11733.7669,W,58.32,136.76,100410,,,A*4D
$GPRMC,175415.000,A,3322.5393,N,11733.7264,W,59.78,133.95,100410,,,A*49
$GPRMC,175418.000,A,3322.5052,N,11733.6816,W,61.23,130.43,100410,,,A*49
$GPRMC,175421.000,A,3322.4756,N,11733.6308,W,63.66,123.40,100410,,,A*47
$GPRMC,175424.000,A,3322.4463,N,11733.5764,W,65.61,123.05,100410,,,A*4A
$GPRMC,175427.000,A,3322.4167,N,11733.5213,W,65.12,123.05,100410,,,A*49
$GPRMC,175430.000,A,3322.3874,N,11733.4670,W,64.16,123.05,100410,,,A*46
$GPRMC,175433.000,A,3322.3581,N,11733.4135,W,64.64,123.05,100410,,,A*41
$GPRMC,175436.000,A,3322.3285,N,11733.3598,W,65.13,123.05,100410,,,A*42
$GPRMC,175439.000,A,3322.2989,N,11733.3051,W,64.64,123.05,100410,,,A*4A
$GPRMC,175442.000,A,3322.2699,N,11733.2516,W,62.70,123.05,100410,,,A*4C
$GPRMC,175445.000,A,3322.2416,N,11733.2001,W,60.76,123.40,100410,,,A*48
$GPRMC,175448.000,A,3322.2145,N,11733.1509,W,57.84,123.40,100410,,,A*41
$GPRMC,175451.000,A,3322.1885,N,11733.1036,W,57.35,123.40,100410,,,A*4C
$GPRMC,175454.000,A,3322.1621,N,11733.0556,W,57.83,123.05,100410,,,A*47
$GPRMC,175457.000,A,3322.1357,N,11733.0077,W,58.32,123.05,100410,,,A*43
$GPRMC,175500.000,A,3322.1093,N,11732.9584,W,59.29,123.05,100410,,,A*41
$GPRMC,175503.000,A,3322.0826,N,11732.9098,W,58.80,123.05,100410,,,A*4F
$GPRMC,175506.000,A,3322.0562,N,11732.8612,W,58.80,124.10,100410,,,A*41
$GPRMC,175509.000,A,3322.0266,N,11732.8129,W,61.24,127.97,100410,,,A*4A
$GPRMC,175512.000,A,3321.9950,N,11732.7653,W,60.75,128.67,100410,,,A*44
$GPRMC,175515.000,A,3321.9632,N,11732.7189,W,60.75,129.02,100410,,,A*4A
$GPRMC,175518.000,A,3321.9316,N,11732.6726,W,60.76,129.02,100410,,,A*45
$GPRMC,175521.000,A,3321.8991,N,11732.6250,W,61.23,129.02,100410,,,A*4E
$GPRMC,175524.000,A,3321.8666,N,11732.5776,W,61.23,129.02,100410,,,A*4E
$GPRMC,175527.000,A,3321.8347,N,11732.5297,W,61.23,129.02,100410,,,A*41
$GPRMC,175530.000,A,3321.8029,N,11732.4824,W,61.23,128.67,100410,,,A*4D
$GPRMC,175533.000,A,3321.7694,N,11732.4344,W,62.21,128.67,100410,,,A*4D
$GPRMC,175536.000,A,3321.7356,N,11732.3858,W,63.66,129.02,100410,,,A*42
$GPRMC,175539.000,A,3321.7015,N,11732.3356,W,65.13,129.38,100410,,,A*41
$GPRMC,175542.000,A,3321.6657,N,11732.2854,W,66.59,129.38,100410,,,A*49
$GPRMC,175545.000,A,3321.6300,N,11732.2342,W,67.07,129.38,100410,,,A*4F
$GPRMC,175548.000,A,3321.5946,N,11732.1817,W,67.55,129.02,100410,,,A*4F
$GPRMC,175551.000,A,3321.5602,N,11732.1286,W,67.55,128.32,100410,,,A*48
$GPRMC,175554.000,A,3321.5251,N,11732.0765,W,67.07,128.32,100410,,,A*41
$GPRMC,175557.000,A,3321.4907,N,11732.0250,W,66.58,129.38,100410,,,A*48
$GPRMC,175600.000,A,3321.4569,N,11731.9741,W,65.12,129.02,100410,,,A*46
$GPRMC,175603.000,A,3321.4224,N,11731.9233,W,65.12,129.02,100410,,,A*4B
$GPRMC,175606.000,A,3321.3880,N,11731.8737,W,65.61,129.38,100410,,,A*40
$GPRMC,175609.000,A,3321.3542,N,11731.8238,W,64.15,129.02,100410,,,A*4D
$GPRMC,175612.000,A,3321.3194,N,11731.7756,W,63.66,129.73,100410,,,A*4F
$GPRMC,175615.000,A,3321.2856,N,11731.7250,W,64.15,129.02,100410,,,A*48
$GPRMC,175618.000,A,3321.2518,N,11731.6742,W,65.12,129.38,100410,,,A*4A
$GPRMC,175621.000,A,3321.2171,N,11731.6252,W,64.15,129.38,100410,,,A*49
$GPRMC,175624.000,A,3321.1829,N,11731.5754,W,65.61,129.02,100410,,,A*40
$GPRMC,175627.000,A,3321.1492,N,11731.5239,W,65.61,128.67,100410,,,A*43
$GPRMC,175630.000,A,3321.1150,N,11731.4740,W,65.61,128.67,100410,,,A*44
$GPRMC,175633.000,A,3321.0803,N,11731.4215,W,65.61,129.02,100410,,,A*4E
$GPRMC,175636.000,A,3321.0449,N,11731.3716,W,65.61,129.38,100410,,,A*41
$GPRMC,175639.000,A,3321.0104,N,11731.3220,W,66.09,129.02,100410,,,A*46
$GPRMC,175642.000,A,3320.9753,N,11731.2705,W,66.58,129.02,100410,,,A*41
$GPRMC,175645.000,A,3320.9403,N,11731.2190,W,66.58,129.02,100410,,,A*4A
$GPRMC,175648.000,A,3320.9052,N,11731.1675,W,66.58,129.38,100410,,,A*41
$GPRMC,175651.000,A,3320.8691,N,11731.1167,W,66.59,129.73,100410,,,A*4B
$GPRMC,175654.000,A,3320.8328,N,11731.0658,W,67.55,130.43,100410,,,A*45
$GPRMC,175657.000,A,3320.7961,N,11731.0153,W,67.07,130.78,100410,,,A*4D
$GPRMC,175700.000,A,3320.7591,N,11730.9648,W,67.07,130.78,100410,,,A*48
$GPRMC,175703.000,A,3320.7201,N,11730.9142,W,67.55,131.84,100410,,,A*4D
$GPRMC,175706.000,A,3320.6857,N,11730.8640,W,66.10,130.78,100410,,,A*46
$GPRMC,175709.000,A,3320.6480,N,11730.8141,W,66.58,131.13,100410,,,A*49
$GPRMC,175713.000,A,3320.5984,N,11730.7475,W,66.59,130.78,100410,,,A*48
$GPRMC,175716.000,A,3320.5624,N,11730.6976,W,66.59,130.78,100410,,,A*47
$GPRMC,175719.000,A,3320.5260,N,11730.6477,W,66.58,130.78,100410,,,A*41
$GPRMC,175722.000,A,3320.4897,N,11730.5982,W,65.61,130.78,100410,,,A*47
$GPRMC,175725.000,A,3320.4536,N,11730.5489,W,65.61,131.13,100410,,,A*4C
$GPRMC,175728.000,A,3320.4172,N,11730.4990,W,66.58,131.13,100410,,,A*48
$GPRMC,175731.000,A,3320.3809,N,11730.4488,W,67.55,131.13,100410,,,A*4A
$GPRMC,175734.000,A,3320.3442,N,11730.3980,W,67.07,130.78,100410,,,A*45
$GPRMC,175737.000,A,3320.3078,N,11730.3474,W,67.07,131.13,100410,,,A*41
$GPRMC,175740.000,A,3320.2711,N,11730.2975,W,66.09,130.78,100410,,,A*46
$GPRMC,175743.000,A,3320.2354,N,11730.2480,W,64.15,130.78,100410,,,A*48
$GPRMC,175746.000,A,3320.1997,N,11730.2000,W,64.64,131.13,100410,,,A*4D
$GPRMC,175749.000,A,3320.1642,N,11730.1517,W,64.64,131.13,100410,,,A*45
$GPRMC,175752.000,A,3320.1288,N,11730.1028,W,65.12,130.78,100410,,,A*48
$GPRMC,175755.000,A,3320.0931,N,11730.0533,W,65.61,130.78,100410,,,A*4D
$GPRMC,175758.000,A,3320.0574,N,11730.0040,W,65.61,131.13,100410,,,A*40
$GPRMC,175801.000,A,3320.0217,N,11729.9548,W,66.09,130.78,100410,,,A*4C
$GPRMC,175804.000,A,3319.9853,N,11729.9045,W,66.58,131.13,100410,,,A*40
$GPRMC,175807.000,A,3319.9492,N,11729.8550,W,66.09,130.78,100410,,,A*4A
$GPRMC,175810.000,A,3319.9132,N,11729.8051,W,66.09,130.78,100410,,,A*47
$GPRMC,175813.000,A,3319.8771,N,11729.7558,W,66.10,131.13,100410,,,A*43
$GPRMC,175816.000,A,3319.8408,N,11729.7060,W,67.07,130.78,100410,,,A*4E
$GPRMC,175819.000,A,3319.8041,N,11729.6551,W,68.04,130.78,100410,,,A*42
$GPRMC,175822.000,A,3319.7661,N,11729.6039,W,69.01,131.13,100410,,,A*42
$GPRMC,175825.000,A,3319.7278,N,11729.5518,W,69.98,130.78,100410,,,A*40
$GPRMC,175828.000,A,3319.6898,N,11729.4993,W,69.99,131.13,100410,,,A*4B
$GPRMC,175831.000,A,3319.6515,N,11729.4475,W,69.99,131.13,100410,,,A*4E
$GPRMC,175834.000,A,3319.6122,N,11729.3947,W,70.95,131.13,100410,,,A*44
$GPRMC,175837.000,A,3319.5730,N,11729.3416,W,70.47,131.13,100410,,,A*47
$GPRMC,175840.000,A,3319.5350,N,11729.2882,W,70.47,131.13,100410,,,A*45
$GPRMC,175843.000,A,3319.4954,N,11729.2357,W,69.99,131.13,100410,,,A*41
$GPRMC,175846.000,A,3319.4578,N,11729.1836,W,69.02,131.13,100410,,,A*4B
$GPRMC,175849.000,A,3319.4195,N,11729.1321,W,68.53,131.13,100410,,,A*4B
$GPRMC,175852.000,A,3319.3815,N,11729.0819,W,67.07,133.24,100410,,,A*4E
$GPRMC,175855.000,A,3319.3387,N,11729.0384,W,67.07,140.27,100410,,,A*41
$GPRMC,175858.000,A,3319.2904,N,11729.0036,W,66.59,149.41,100410,,,A*45
$GPRMC,175901.000,A,3319.2415,N,11728.9795,W,63.67,159.61,100410,,,A*48
$GPRMC,175904.000,A,3319.1906,N,11728.9618,W,64.15,167.34,100410,,,A*4A
$GPRMC,175907.000,A,3319.1375,N,11728.9515,W,64.64,173.67,100410,,,A*4C
$GPRMC,175910.000,A,3319.0837,N,11728.9467,W,64.15,175.43,100410,,,A*44
$GPRMC,175913.000,A,3319.0297,N,11728.9422,W,65.13,175.43,100410,,,A*41
$GPRMC,175916.000,A,3318.9753,N,11728.9373,W,65.12,175.78,100410,,,A*4B
$GPRMC,175919.000,A,3318.9212,N,11728.9316,W,65.15,173.32,100410,,,A*48
$GPRMC,175922.000,A,3318.8681,N,11728.9200,W,65.15,166.29,100410,,,A*47
$GPRMC,175925.000,A,3318.8160,N,11728.9003,W,65.15,159.26,100410,,,A*4A
$GPRMC,175928.000,A,3318.7667,N,11728.8736,W,65.13,152.93,100410,,,A*4B
$GPRMC,175931.000,A,3318.7216,N,11728.8389,W,64.15,144.14,100410,,,A*4E
$GPRMC,175934.000,A,3318.6814,N,11728.8006,W,60.75,139.92,100410,,,A*40
$GPRMC,175937.000,A,3318.6463,N,11728.7587,W,60.75,134.30,100410,,,A*49
$GPRMC,175940.000,A,3318.6106,N,11728.7149,W,61.72,133.95,100410,,,A*47
$GPRMC,175943.000,A,3318.5736,N,11728.6705,W,63.66,134.65,100410,,,A*42
$GPRMC,175946.000,A,3318.5356,N,11728.6245,W,64.64,133.95,100410,,,A*49
$GPRMC,175949.000,A,3318.4983,N,11728.5781,W,65.13,134.30,100410,,,A*42
$GPRMC,175952.000,A,3318.4600,N,11728.5315,W,66.58,134.65,100410,,,A*49
$GPRMC,175955.000,A,3318.4210,N,11728.4842,W,66.58,134.30,100410,,,A*43
$GPRMC,175958.000,A,3318.3827,N,11728.4378,W,64.64,134.30,100410,,,A*48
$GPRMC,180001.000,A,3318.3454,N,11728.3921,W,64.15,135.00,100410,,,A*4A
$GPRMC,180004.000,A,3318.3081,N,11728.3470,W,63.66,134.65,100410,,,A*4B
$GPRMC,180007.000,A,3318.2710,N,11728.3023,W,62.69,134.65,100410,,,A*4A
$GPRMC,180010.000,A,3318.2340,N,11728.2579,W,62.21,133.95,100410,,,A*42
$GPRMC,180013.000,A,3318.1980,N,11728.2135,W,62.21,134.65,100410,,,A*40
$GPRMC,180016.000,A,3318.1616,N,11728.1687,W,63.18,134.65,100410,,,A*43
$GPRMC,180019.000,A,3318.1243,N,11728.1233,W,64.15,134.30,100410,,,A*49
$GPRMC,180022.000,A,3318.0866,N,11728.0776,W,64.64,134.30,100410,,,A*4E
$GPRMC,180025.000,A,3318.0493,N,11728.0323,W,63.19,134.30,100410,,,A*46
$GPRMC,180028.000,A,3318.0132,N,11727.9882,W,61.23,134.30,100410,,,A*48
$GPRMC,180031.000,A,3317.9778,N,11727.9444,W,60.75,134.65,100410,,,A*4A
$GPRMC,180034.000,A,3317.9424,N,11727.9022,W,59.78,134.65,100410,,,A*46
$GPRMC,180037.000,A,3317.9073,N,11727.8604,W,59.78,134.30,100410,,,A*40
$GPRMC,180040.000,A,3317.8710,N,11727.8169,W,62.69,134.65,100410,,,A*47
$GPRMC,180042.000,A,3317.8465,N,11727.7870,W,64.15,134.30,100410,,,A*47
$GPRMC,180046.000,A,3317.7947,N,11727.7255,W,65.61,134.65,100410,,,A*4E
$GPRMC,180049.000,A,3317.7548,N,11727.6782,W,67.56,134.65,100410,,,A*4A
$GPRMC,180052.000,A,3317.7155,N,11727.6290,W,68.52,134.30,100410,,,A*45
$GPRMC,180055.000,A,3317.6756,N,11727.5807,W,68.52,135.00,100410,,,A*43
$GPRMC,180058.000,A,3317.6334,N,11727.5347,W,69.01,142.38,100410,,,A*4D
$GPRMC,180101.000,A,3317.5864,N,11727.4957,W,69.02,147.66,100410,,,A*4A
$GPRMC,180104.000,A,3317.5381,N,11727.4590,W,68.55,147.30,100410,,,A*48
$GPRMC,180107.000,A,3317.4899,N,11727.4226,W,68.04,147.30,100410,,,A*46
$GPRMC,180110.000,A,3317.4419,N,11727.3863,W,68.04,147.66,100410,,,A*4B
$GPRMC,180113.000,A,3317.3940,N,11727.3502,W,68.53,147.66,100410,,,A*46
$GPRMC,180116.000,A,3317.3460,N,11727.3132,W,67.07,147.30,100410,,,A*46
$GPRMC,180119.000,A,3317.2996,N,11727.2778,W,63.19,147.66,100410,,,A*4D
$GPRMC,180122.000,A,3317.2568,N,11727.2453,W,59.78,147.66,100410,,,A*4C
$GPRMC,180125.000,A,3317.2140,N,11727.2134,W,62.21,147.66,100410,,,A*45
$GPRMC,180128.000,A,3317.1693,N,11727.1796,W,63.19,147.30,100410,,,A*46
$GPRMC,180131.000,A,3317.1252,N,11727.1458,W,62.70,147.30,100410,,,A*48
$GPRMC,180134.000,A,3317.0811,N,11727.1133,W,62.21,148.01,100410,,,A*40
$GPRMC,180137.000,A,3317.0373,N,11727.0799,W,61.72,146.95,100410,,,A*4D
$GPRMC,180140.000,A,3316.9942,N,11727.0470,W,61.72,147.30,100410,,,A*47
$GPRMC,180143.000,A,3316.9507,N,11727.0139,W,62.21,147.66,100410,,,A*47
$GPRMC,180146.000,A,3316.9067,N,11726.9804,W,63.19,147.66,100410,,,A*44
$GPRMC,180149.000,A,3316.8622,N,11726.9469,W,63.21,147.66,100410,,,A*41
$GPRMC,180152.000,A,3316.8175,N,11726.9128,W,63.69,147.30,100410,,,A*41
$GPRMC,180155.000,A,3316.7724,N,11726.8787,W,64.16,147.66,100410,,,A*45
$GPRMC,180158.000,A,3316.7270,N,11726.8436,W,64.64,147.30,100410,,,A*43
$GPRMC,180201.000,A,3316.6817,N,11726.8095,W,64.16,147.66,100410,,,A*4D
$GPRMC,180204.000,A,3316.6369,N,11726.7754,W,62.69,147.30,100410,,,A*42
$GPRMC,180207.000,A,3316.5935,N,11726.7422,W,60.75,147.30,100410,,,A*4C
$GPRMC,180210.000,A,3316.5510,N,11726.7104,W,60.75,147.66,100410,,,A*43
$GPRMC,180213.000,A,3316.5079,N,11726.6775,W,62.21,147.66,100410,,,A*48
$GPRMC,180216.000,A,3316.4638,N,11726.6441,W,63.66,147.30,100410,,,A*4A
$GPRMC,180219.000,A,3316.4190,N,11726.6096,W,63.66,147.30,100410,,,A*4E
$GPRMC,180222.000,A,3316.3749,N,11726.5742,W,64.16,143.09,100410,,,A*40
$GPRMC,180225.000,A,3316.3328,N,11726.5337,W,65.61,139.57,100410,,,A*45
$GPRMC,180228.000,A,3316.2948,N,11726.4873,W,64.64,134.30,100410,,,A*47
$GPRMC,180231.000,A,3316.2578,N,11726.4368,W,66.58,132.54,100410,,,A*48
$GPRMC,180234.000,A,3316.2227,N,11726.3882,W,66.09,131.48,100410,,,A*42
$GPRMC,180237.000,A,3316.1876,N,11726.3380,W,66.09,131.13,100410,,,A*4B
$GPRMC,180240.000,A,3316.1490,N,11726.2884,W,67.07,131.84,100410,,,A*40
$GPRMC,180243.000,A,3316.1129,N,11726.2379,W,66.58,131.13,100410,,,A*48
$GPRMC,180246.000,A,3316.0753,N,11726.1867,W,68.04,131.84,100410,,,A*49
$GPRMC,180249.000,A,3316.0402,N,11726.1352,W,67.55,130.78,100410,,,A*45
$GPRMC,180252.000,A,3316.0032,N,11726.0863,W,67.07,131.48,100410,,,A*45
$GPRMC,180255.000,A,3315.9662,N,11726.0364,W,67.07,131.48,100410,,,A*47
$GPRMC,180258.000,A,3315.9301,N,11725.9875,W,65.61,131.13,100410,,,A*47
$GPRMC,180301.000,A,3315.8925,N,11725.9388,W,65.61,131.84,100410,,,A*40
$GPRMC,180304.000,A,3315.8532,N,11725.8931,W,66.10,140.62,100410,,,A*4D
$GPRMC,180307.000,A,3315.8078,N,11725.8545,W,66.58,146.25,100410,,,A*43
$GPRMC,180310.000,A,3315.7615,N,11725.8175,W,65.61,146.25,100410,,,A*49
$GPRMC,180313.000,A,3315.7157,N,11725.7815,W,65.12,146.25,100410,,,A*4F
$GPRMC,180316.000,A,3315.6700,N,11725.7454,W,65.61,146.60,100410,,,A*43
$GPRMC,180319.000,A,3315.6234,N,11725.7087,W,67.55,146.25,100410,,,A*40
$GPRMC,180322.000,A,3315.5767,N,11725.6720,W,66.58,146.25,100410,,,A*4F
$GPRMC,180325.000,A,3315.5310,N,11725.6357,W,66.09,146.25,100410,,,A*4C
$GPRMC,180328.000,A,3315.4853,N,11725.5993,W,65.61,146.25,100410,,,A*40
$GPRMC,180331.000,A,3315.4399,N,11725.5632,W,64.64,146.25,100410,,,A*45
$GPRMC,180334.000,A,3315.3948,N,11725.5281,W,64.16,146.25,100410,,,A*48
$GPRMC,180337.000,A,3315.3504,N,11725.4924,W,64.15,146.25,100410,,,A*49
$GPRMC,180340.000,A,3315.3057,N,11725.4570,W,65.12,146.60,100410,,,A*40
$GPRMC,180343.000,A,3315.2600,N,11725.4210,W,66.10,146.60,100410,,,A*46
$GPRMC,180346.000,A,3315.2140,N,11725.3846,W,67.07,146.60,100410,,,A*49
$GPRMC,180349.000,A,3315.1666,N,11725.3473,W,68.52,146.25,100410,,,A*42
$GPRMC,180352.000,A,3315.1193,N,11725.3093,W,68.52,146.25,100410,,,A*4F
$GPRMC,180355.000,A,3315.0717,N,11725.2716,W,68.52,146.60,100410,,,A*49
$GPRMC,180358.000,A,3315.0237,N,11725.2340,W,69.01,146.60,100410,,,A*43
$GPRMC,180401.000,A,3314.9751,N,11725.1953,W,70.47,146.25,100410,,,A*45
$GPRMC,180404.000,A,3314.9259,N,11725.1558,W,71.44,146.25,100410,,,A*48
$GPRMC,180407.000,A,3314.8757,N,11725.1174,W,71.44,149.06,100410,,,A*45
$GPRMC,180410.000,A,3314.8226,N,11725.0862,W,70.95,157.50,100410,,,A*4E
$GPRMC,180413.000,A,3314.7675,N,11725.0611,W,70.47,159.61,100410,,,A*49
$GPRMC,180416.000,A,3314.7125,N,11725.0363,W,70.47,159.26,100410,,,A*4D
$GPRMC,180419.000,A,3314.6575,N,11725.0119,W,69.98,159.26,100410,,,A*47
$GPRMC,180422.000,A,3314.6031,N,11724.9865,W,69.98,157.15,100410,,,A*4E
$GPRMC,180425.000,A,3314.5512,N,11724.9552,W,69.01,149.77,100410,,,A*4C
$GPRMC,180428.000,A,3314.5036,N,11724.9176,W,68.52,142.73,100410,,,A*48
$GPRMC,180431.000,A,3314.4605,N,11724.8738,W,68.04,137.81,100410,,,A*46
$GPRMC,180434.000,A,3314.4228,N,11724.8239,W,67.55,129.38,100410,,,A*4A
$GPRMC,180437.000,A,3314.3913,N,11724.7698,W,65.12,125.16,100410,,,A*4C
$GPRMC,180440.000,A,3314.3607,N,11724.7174,W,63.66,124.80,100410,,,A*48
$GPRMC,180443.000,A,3314.3301,N,11724.6652,W,64.15,125.51,100410,,,A*44
$GPRMC,180446.000,A,3314.2992,N,11724.6134,W,64.16,125.51,100410,,,A*44
$GPRMC,180449.000,A,3314.2667,N,11724.5626,W,64.15,128.32,100410,,,A*42
$GPRMC,180452.000,A,3314.2284,N,11724.5156,W,66.09,136.05,100410,,,A*45
$GPRMC,180455.000,A,3314.1879,N,11724.4699,W,67.07,136.76,100410,,,A*47
$GPRMC,180458.000,A,3314.1473,N,11724.4248,W,64.64,136.76,100410,,,A*42
$GPRMC,180501.000,A,3314.1080,N,11724.3813,W,63.66,136.41,100410,,,A*45
$GPRMC,180504.000,A,3314.0697,N,11724.3379,W,63.18,136.76,100410,,,A*4B
$GPRMC,180507.000,A,3314.0311,N,11724.2954,W,62.70,136.76,100410,,,A*48
$GPRMC,180510.000,A,3313.9928,N,11724.2529,W,62.21,136.76,100410,,,A*42
$GPRMC,180513.000,A,3313.9551,N,11724.2108,W,61.72,136.41,100410,,,A*45
$GPRMC,180516.000,A,3313.9175,N,11724.1686,W,62.21,136.76,100410,,,A*41
$GPRMC,180519.000,A,3313.8798,N,11724.1258,W,63.18,136.76,100410,,,A*46
$GPRMC,180522.000,A,3313.8412,N,11724.0827,W,62.69,137.11,100410,,,A*4B
$GPRMC,180525.000,A,3313.8029,N,11724.0408,W,60.76,137.11,100410,,,A*4D
$GPRMC,180528.000,A,3313.7665,N,11724.0006,W,59.78,137.11,100410,,,A*4F
$GPRMC,180531.000,A,3313.7302,N,11723.9597,W,61.24,136.76,100410,,,A*42
$GPRMC,180534.000,A,3313.6922,N,11723.9175,W,62.21,136.76,100410,,,A*40
$GPRMC,180537.000,A,3313.6545,N,11723.8754,W,62.24,137.11,100410,,,A*4F
$GPRMC,180540.000,A,3313.6172,N,11723.8335,W,61.75,137.11,100410,,,A*4B
$GPRMC,180543.000,A,3313.5799,N,11723.7923,W,60.29,137.11,100410,,,A*42
$GPRMC,180546.000,A,3313.5435,N,11723.7515,W,60.78,137.11,100410,,,A*4F
$GPRMC,180549.000,A,3313.5061,N,11723.7106,W,61.26,137.46,100410,,,A*4B
$GPRMC,180552.000,A,3313.4688,N,11723.6697,W,60.27,136.76,100410,,,A*4D
$GPRMC,180555.000,A,3313.4324,N,11723.6291,W,58.80,137.11,100410,,,A*4D
$GPRMC,180558.000,A,3313.3948,N,11723.5912,W,58.80,142.38,100410,,,A*4D
$GPRMC,180601.000,A,3313.3549,N,11723.5587,W,57.35,149.41,100410,,,A*4B
$GPRMC,180604.000,A,3313.3146,N,11723.5336,W,52.50,154.34,100410,,,A*41
$GPRMC,180607.000,A,3313.2824,N,11723.5175,W,40.82,157.50,100410,,,A*46
$GPRMC,180610.000,A,3313.2583,N,11723.5091,W,31.12,163.48,100410,,,A*4A
$GPRMC,180613.000,A,3313.2358,N,11723.5020,W,24.79,165.94,100410,,,A*4D
$GPRMC,180616.000,A,3313.2171,N,11723.4962,W,22.84,165.94,100410,,,A*4B
$GPRMC,180619.000,A,3313.1988,N,11723.4907,W,23.33,165.59,100410,,,A*46
$GPRMC,180622.000,A,3313.1791,N,11723.4853,W,24.30,165.94,100410,,,A*4D
$GPRMC,180625.000,A,3313.1595,N,11723.4798,W,24.79,166.29,100410,,,A*4C
$GPRMC,180628.000,A,3313.1386,N,11723.4737,W,25.27,165.59,100410,,,A*4E
$GPRMC,180631.000,A,3313.1183,N,11723.4672,W,24.79,165.59,100410,,,A*4B
$GPRMC,180634.000,A,3313.1016,N,11723.4621,W,17.01,166.64,100410,,,A*47
$GPRMC,180637.000,A,3313.0884,N,11723.4586,W,15.55,166.29,100410,,,A*42
$GPRMC,180640.000,A,3313.0755,N,11723.4541,W,16.52,165.94,100410,,,A*4B
$GPRMC,180643.000,A,3313.0636,N,11723.4508,W,11.66,165.94,100410,,,A*41
$GPRMC,180658.000,A,3313.0523,N,11723.4479,W,4.37,165.23,100410,,,A*77
$GPRMC,180701.000,A,3313.0459,N,11723.4460,W,11.18,165.94,100410,,,A*4B
$GPRMC,180704.000,A,3313.0333,N,11723.4425,W,17.50,166.99,100410,,,A*40
$GPRMC,180707.000,A,3313.0192,N,11723.4383,W,17.50,165.59,100410,,,A*4E
$GPRMC,180710.000,A,3313.0056,N,11723.4341,W,16.04,165.59,100410,,,A*4F
$GPRMC,180713.000,A,3312.9924,N,11723.4302,W,16.04,165.94,100410,,,A*4E
$GPRMC,180716.000,A,3312.9802,N,11723.4264,W,14.09,165.94,100410,,,A*40
$GPRMC,180719.000,A,3312.9686,N,11723.4232,W,15.55,165.94,100410,,,A*46
$GPRMC,180722.000,A,3312.9561,N,11723.4193,W,15.55,165.23,100410,,,A*40
$GPRMC,180725.000,A,3312.9435,N,11723.4154,W,14.58,164.18,100410,,,A*49
$GPRMC,180728.000,A,3312.9332,N,11723.4122,W,11.66,164.53,100410,,,A*42
$GPRMC,180731.000,A,3312.9236,N,11723.4093,W,11.18,165.23,100410,,,A*4B
$GPRMC,180734.000,A,3312.9165,N,11723.4074,W,7.78,166.64,100410,,,A*73
$GPRMC,180746.000,A,3312.9084,N,11723.4048,W,4.37,163.48,100410,,,A*74
$GPRMC,180749.000,A,3312.9043,N,11723.4029,W,5.83,165.59,100410,,,A*7F
$GPRMC,180752.000,A,3312.8994,N,11723.4016,W,5.83,164.53,100410,,,A*70
$GPRMC,180755.000,A,3312.8936,N,11723.3997,W,8.26,163.83,100410,,,A*70
$GPRMC,180758.000,A,3312.8859,N,11723.3958,W,10.21,162.77,100410,,,A*42
$GPRMC,180801.000,A,3312.8779,N,11723.3932,W,10.21,161.72,100410,,,A*46
$GPRMC,180804.000,A,3312.8708,N,11723.3903,W,7.29,161.02,100410,,,A*7E
$GPRMC,180807.000,A,3312.8656,N,11723.3881,W,7.35,159.26,100410,,,A*7C
$GPRMC,180810.000,A,3312.8592,N,11723.3852,W,8.26,158.91,100410,,,A*7F
$GPRMC,180813.000,A,3312.8518,N,11723.3816,W,10.21,158.55,100410,,,A*48
$GPRMC,180816.000,A,3312.8434,N,11723.3778,W,9.72,157.15,100410,,,A*70
$GPRMC,180819.000,A,3312.8370,N,11723.3749,W,6.80,154.69,100410,,,A*70
$GPRMC,180822.000,A,3312.8318,N,11723.3713,W,7.84,152.93,100410,,,A*7F
$GPRMC,180825.000,A,3312.8257,N,11723.3678,W,7.78,152.93,100410,,,A*7D
$GPRMC,180828.000,A,3312.8199,N,11723.3643,W,9.23,152.93,100410,,,A*79
$GPRMC,180831.000,A,3312.8132,N,11723.3597,W,9.72,151.88,100410,,,A*77
$GPRMC,180834.000,A,3312.8061,N,11723.3552,W,9.23,152.23,100410,,,A*7A
$GPRMC,180837.000,A,3312.7997,N,11723.3511,W,9.23,151.52,100410,,,A*74
$GPRMC,180840.000,A,3312.7919,N,11723.3459,W,12.15,151.52,100410,,,A*40
$GPRMC,180843.000,A,3312.7810,N,11723.3395,W,17.50,152.58,100410,,,A*41
$GPRMC,180846.000,A,3312.7662,N,11723.3305,W,21.38,152.58,100410,,,A*4D
$GPRMC,180849.000,A,3312.7517,N,11723.3214,W,16.52,152.23,100410,,,A*46
$GPRMC,180852.000,A,3312.7417,N,11723.3150,W,11.66,152.23,100410,,,A*4E
$GPRMC,180855.000,A,3312.7346,N,11723.3105,W,8.26,151.52,100410,,,A*73
$GPRMC,180858.000,A,3312.7282,N,11723.3066,W,9.72,151.88,100410,,,A*74
$GPRMC,180901.000,A,3312.7195,N,11723.3015,W,14.09,152.58,100410,,,A*46
$GPRMC,180904.000,A,3312.7082,N,11723.2941,W,17.01,152.23,100410,,,A*4A
$GPRMC,180907.000,A,3312.6947,N,11723.2854,W,18.47,151.88,100410,,,A*42
$GPRMC,180910.000,A,3312.6815,N,11723.2777,W,16.04,153.98,100410,,,A*46
$GPRMC,180913.000,A,3312.6693,N,11723.2699,W,17.01,151.52,100410,,,A*44
$GPRMC,180916.000,A,3312.6564,N,11723.2616,W,18.47,151.88,100410,,,A*47
$GPRMC,180919.000,A,3312.6419,N,11723.2526,W,19.93,152.23,100410,,,A*49
$GPRMC,180922.000,A,3312.6252,N,11723.2416,W,24.79,151.88,100410,,,A*42
$GPRMC,180925.000,A,3312.6052,N,11723.2294,W,29.65,152.23,100410,,,A*49
$GPRMC,180928.000,A,3312.5821,N,11723.2152,W,33.05,152.23,100410,,,A*4F
$GPRMC,180931.000,A,3312.5550,N,11723.1985,W,35.96,152.23,100410,,,A*41
$GPRMC,180934.000,A,3312.5299,N,11723.1827,W,32.56,153.28,100410,,,A*4E
$GPRMC,180937.000,A,3312.5061,N,11723.1679,W,30.62,151.88,100410,,,A*40
$GPRMC,180940.000,A,3312.4845,N,11723.1541,W,28.67,152.23,100410,,,A*49
$GPRMC,180943.000,A,3312.4639,N,11723.1409,W,27.70,151.88,100410,,,A*49
$GPRMC,180946.000,A,3312.4437,N,11723.1280,W,27.70,151.52,100410,,,A*40
$GPRMC,180949.000,A,3312.4234,N,11723.1148,W,26.73,152.23,100410,,,A*4A
$GPRMC,180952.000,A,3312.4044,N,11723.1029,W,22.36,151.88,100410,,,A*44
$GPRMC,180955.000,A,3312.3902,N,11723.0939,W,17.50,150.82,100410,,,A*4B
$GPRMC,180958.000,A,3312.3790,N,11723.0858,W,15.07,148.71,100410,,,A*40
$GPRMC,181001.000,A,3312.3677,N,11723.0778,W,16.04,147.66,100410,,,A*48
$GPRMC,181004.000,A,3312.3561,N,11723.0685,W,17.50,146.60,100410,,,A*4D
$GPRMC,181007.000,A,3312.3432,N,11723.0578,W,19.93,143.79,100410,,,A*44
$GPRMC,181010.000,A,3312.3304,N,11723.0456,W,20.90,141.33,100410,,,A*48
$GPRMC,181013.000,A,3312.3156,N,11723.0314,W,25.27,139.92,100410,,,A*42
$GPRMC,181016.000,A,3312.2982,N,11723.0134,W,29.65,137.11,100410,,,A*48
$GPRMC,181019.000,A,3312.2792,N,11722.9912,W,33.53,134.65,100410,,,A*42
$GPRMC,181022.000,A,3312.2602,N,11722.9667,W,34.03,130.78,100410,,,A*45
$GPRMC,181025.000,A,3312.2428,N,11722.9404,W,33.53,127.97,100410,,,A*4A
$GPRMC,181028.000,A,3312.2267,N,11722.9130,W,34.52,124.45,100410,,,A*42
$GPRMC,181031.000,A,3312.2106,N,11722.8840,W,34.03,120.94,100410,,,A*4D
$GPRMC,181034.000,A,3312.1971,N,11722.8557,W,31.59,118.12,100410,,,A*47
$GPRMC,181037.000,A,3312.1868,N,11722.8319,W,24.79,116.37,100410,,,A*4E
$GPRMC,181040.000,A,3312.1794,N,11722.8126,W,19.95,113.55,100410,,,A*41
$GPRMC,181043.000,A,3312.1739,N,11722.7962,W,14.58,112.15,100410,,,A*4B
$GPRMC,181046.000,A,3312.1701,N,11722.7846,W,11.18,110.39,100410,,,A*4F
$GPRMC,181049.000,A,3312.1662,N,11722.7746,W,12.67,115.31,100410,,,A*4D
$GPRMC,181052.000,A,3312.1614,N,11722.7614,W,16.04,112.15,100410,,,A*40
$GPRMC,181055.000,A,3312.1559,N,11722.7450,W,19.93,112.50,100410,,,A*4F
$GPRMC,181058.000,A,3312.1492,N,11722.7244,W,24.30,111.45,100410,,,A*47
$GPRMC,181101.000,A,3312.1402,N,11722.6986,W,30.62,112.15,100410,,,A*43
$GPRMC,181104.000,A,3312.1302,N,11722.6681,W,34.50,111.80,100410,,,A*43
$GPRMC,181107.000,A,3312.1199,N,11722.6368,W,33.05,112.15,100410,,,A*4A
$GPRMC,181110.000,A,3312.1102,N,11722.6066,W,31.10,109.69,100410,,,A*44
$GPRMC,181113.000,A,3312.1041,N,11722.5850,W,20.90,104.06,100410,,,A*43
$GPRMC,181116.000,A,3312.0999,N,11722.5734,W,12.67,111.45,100410,,,A*4C
$GPRMC,181119.000,A,3312.0948,N,11722.5622,W,15.07,112.50,100410,,,A*4F
$GPRMC,181122.000,A,3312.0896,N,11722.5470,W,19.44,111.80,100410,,,A*45
$GPRMC,181125.000,A,3312.0829,N,11722.5280,W,20.90,111.80,100410,,,A*4C
$GPRMC,181128.000,A,3312.0771,N,11722.5136,W,14.58,112.85,100410,,,A*48
$GPRMC,181131.000,A,3312.0732,N,11722.5000,W,14.58,109.34,100410,,,A*43
$GPRMC,181134.000,A,3312.0677,N,11722.4839,W,18.47,112.85,100410,,,A*47
$GPRMC,181137.000,A,3312.0613,N,11722.4656,W,21.38,112.85,100410,,,A*43
$GPRMC,181140.000,A,3312.0545,N,11722.4466,W,20.41,111.45,100410,,,A*42
$GPRMC,181143.000,A,3312.0481,N,11722.4276,W,21.41,112.15,100410,,,A*48
$GPRMC,181146.000,A,3312.0413,N,11722.4083,W,19.95,112.15,100410,,,A*4C
$GPRMC,181149.000,A,3312.0372,N,11722.3941,W,12.15,105.47,100410,,,A*41
$GPRMC,181210.000,A,3312.0346,N,11722.3871,W,6.80,113.55,100410,,,A*76
$GPRMC,181213.000,A,3312.0314,N,11722.3777,W,12.19,112.50,100410,,,A*4A
$GPRMC,181216.000,A,3312.0265,N,11722.3645,W,17.50,112.50,100410,,,A*40
$GPRMC,181219.000,A,3312.0198,N,11722.3465,W,21.89,114.26,100410,,,A*48
$GPRMC,181222.000,A,3312.0114,N,11722.3246,W,24.79,115.66,100410,,,A*4C
$GPRMC,181225.000,A,3312.0001,N,11722.2995,W,30.63,119.18,100410,,,A*41
$GPRMC,181228.000,A,3311.9863,N,11722.2706,W,36.95,122.34,100410,,,A*47
$GPRMC,181231.000,A,3311.9670,N,11722.2384,W,40.83,125.86,100410,,,A*45
$GPRMC,181234.000,A,3311.9464,N,11722.2065,W,39.36,130.08,100410,,,A*49
$GPRMC,181237.000,A,3311.9242,N,11722.1779,W,38.88,133.59,100410,,,A*42
$GPRMC,181240.000,A,3311.9010,N,11722.1515,W,38.88,137.46,100410,,,A*45
$GPRMC,181243.000,A,3311.8775,N,11722.1273,W,34.50,141.68,100410,,,A*40
$GPRMC,181246.000,A,3311.8550,N,11722.1074,W,33.05,143.79,100410,,,A*40
$GPRMC,181249.000,A,3311.8331,N,11722.0887,W,31.59,144.49,100410,,,A*44
$GPRMC,181252.000,A,3311.8122,N,11722.0713,W,30.15,145.55,100410,,,A*49
$GPRMC,181255.000,A,3311.7912,N,11722.0543,W,30.13,145.20,100410,,,A*49
$GPRMC,181258.000,A,3311.7703,N,11722.0372,W,30.62,144.84,100410,,,A*47
$GPRMC,181301.000,A,3311.7500,N,11722.0201,W,29.66,145.55,100410,,,A*4F
$GPRMC,181304.000,A,3311.7333,N,11722.0063,W,19.44,145.20,100410,,,A*4B
$GPRMC,181307.000,A,3311.7208,N,11721.9957,W,18.95,144.84,100410,,,A*47
$GPRMC,181310.000,A,3311.7076,N,11721.9847,W,20.43,145.20,100410,,,A*45
$GPRMC,181313.000,A,3311.6915,N,11721.9712,W,25.76,145.20,100410,,,A*47
$GPRMC,181316.000,A,3311.6715,N,11721.9554,W,30.63,145.20,100410,,,A*4C
$GPRMC,181319.000,A,3311.6499,N,11721.9368,W,33.05,144.84,100410,,,A*41
$GPRMC,181322.000,A,3311.6265,N,11721.9175,W,34.99,145.20,100410,,,A*4F
$GPRMC,181325.000,A,3311.6017,N,11721.8969,W,36.95,144.84,100410,,,A*4A
$GPRMC,181328.000,A,3311.5756,N,11721.8753,W,39.36,145.20,100410,,,A*48
$GPRMC,181331.000,A,3311.5486,N,11721.8525,W,39.85,145.55,100410,,,A*47
$GPRMC,181334.000,A,3311.5212,N,11721.8302,W,38.89,144.84,100410,,,A*4A
$GPRMC,181337.000,A,3311.4945,N,11721.8077,W,39.38,144.84,100410,,,A*4B
$GPRMC,181340.000,A,3311.4678,N,11721.7858,W,38.89,145.20,100410,,,A*44
$GPRMC,181343.000,A,3311.4414,N,11721.7643,W,37.43,145.20,100410,,,A*42
$GPRMC,181346.000,A,3311.4172,N,11721.7440,W,33.06,144.84,100410,,,A*49
$GPRMC,181349.000,A,3311.3973,N,11721.7272,W,26.26,145.55,100410,,,A*44
$GPRMC,181352.000,A,3311.3809,N,11721.7134,W,22.36,145.55,100410,,,A*46
$GPRMC,181355.000,A,3311.3670,N,11721.7025,W,16.04,145.55,100410,,,A*46
$GPRMC,181358.000,A,3311.3587,N,11721.6954,W,9.23,145.90,100410,,,A*7C
$GPRMC,181431.000,A,3311.3455,N,11721.6854,W,9.23,144.14,100410,,,A*76
$GPRMC,181434.000,A,3311.3365,N,11721.6774,W,17.52,145.20,100410,,,A*45
$GPRMC,181437.000,A,3311.3229,N,11721.6661,W,21.41,145.20,100410,,,A*4D
$GPRMC,181440.000,A,3311.3091,N,11721.6542,W,18.95,144.84,100410,,,A*42
$GPRMC,181443.000,A,3311.2959,N,11721.6432,W,19.93,144.49,100410,,,A*4D
$GPRMC,181446.000,A,3311.2808,N,11721.6313,W,23.35,145.20,100410,,,A*42
$GPRMC,181449.000,A,3311.2634,N,11721.6168,W,27.72,145.20,100410,,,A*45
$GPRMC,181452.000,A,3311.2431,N,11721.5995,W,32.09,144.84,100410,,,A*46
$GPRMC,181455.000,A,3311.2206,N,11721.5805,W,34.52,144.84,100410,,,A*43
$GPRMC,181458.000,A,3311.1971,N,11721.5615,W,33.53,145.20,100410,,,A*40
$GPRMC,181501.000,A,3311.1742,N,11721.5425,W,32.58,145.20,100410,,,A*48
$GPRMC,181504.000,A,3311.1520,N,11721.5235,W,33.55,144.49,100410,,,A*4E
$GPRMC,181507.000,A,3311.1285,N,11721.5042,W,34.52,145.55,100410,,,A*4B
$GPRMC,181510.000,A,3311.1054,N,11721.4849,W,33.53,145.55,100410,,,A*47
