NMEA Sentence Code,UTC Time,Status,Latitude,Latitude Direction,Longitude,Longitude Direction,Speed (knots),Track Angle (degrees true),Date,MagneticVariation,Magnetic Variation Direction,[FAA Mode]-Optional,Checksum
$GPRMC,162604.8,A,3334.229106,N,11749.608354,W,4.8,158.1,170410,,,A*7E
$GPRMC,162607.8,A,3334.222129,N,11749.603828,W,11.0,147.7,170410,,,A*44
$GPRMC,162610.8,A,3334.210416,N,11749.597862,W,16.0,157.7,170410,,,A*4C
$GPRMC,162613.8,A,3334.197426,N,11749.592238,W,14.9,163.4,170410,,,A*4F
$GPRMC,162616.8,A,3334.186867,N,11749.590095,W,10.4,175.5,170410,,,A*4B
$GPRMC,162625.8,A,3334.181076,N,11749.598545,W,5.6,259.8,170410,,,A*72
$GPRMC,162628.8,A,3334.180890,N,11749.616022,W,13.9,270.0,170410,,,A*44
$GPRMC,162631.8,A,3334.178387,N,11749.643232,W,24.8,255.7,170410,,,A*40
$GPRMC,162634.8,A,3334.170873,N,11749.667243,W,26.6,247.6,170410,,,A*43
$GPRMC,162637.8,A,3334.158404,N,11749.688699,W,23.8,231.0,170410,,,A*48
$GPRMC,162640.8,A,3334.146462,N,11749.704467,W,19.0,224.9,170410,,,A*4D
$GPRMC,162643.8,A,3334.140151,N,11749.712788,W,10.0,236.9,170410,,,A*42
$GPRMC,162649.8,A,3334.134004,N,11749.716032,W,10.6,215.2,170410,,,A*44
$GPRMC,162652.8,A,3334.126336,N,11749.723258,W,12.2,212.9,170410,,,A*4D
$GPRMC,162655.8,A,3334.118828,N,11749.730123,W,9.9,223.0,170410,,,A*74
$GPRMC,162658.8,A,3334.111560,N,11749.739153,W,12.4,225.4,170410,,,A*4A
$GPRMC,162701.8,A,3334.101338,N,11749.747910,W,14.2,216.4,170410,,,A*4B
$GPRMC,162704.8,A,3334.089412,N,11749.758226,W,17.1,206.9,170410,,,A*4C
$GPRMC,162707.8,A,3334.075479,N,11749.765212,W,19.9,198.3,170410,,,A*40
$GPRMC,162710.8,A,3334.059101,N,11749.772288,W,20.9,205.4,170410,,,A*4D
$GPRMC,162713.8,A,3334.043519,N,11749.783208,W,20.6,215.5,170410,,,A*41
$GPRMC,162716.8,A,3334.030229,N,11749.793554,W,18.4,212.9,170410,,,A*49
$GPRMC,162719.8,A,3334.021071,N,11749.800557,W,11.6,212.5,170410,,,A*48
$GPRMC,162743.8,A,3334.012876,N,11749.804900,W,7.8,176.7,170410,,,A*78
$GPRMC,162746.8,A,3334.000987,N,11749.800439,W,12.2,160.1,170410,,,A*4D
$GPRMC,162749.8,A,3333.978511,N,11749.768913,W,34.3,127.0,170410,,,A*43
$GPRMC,162752.8,A,3333.954264,N,11749.724687,W,47.3,126.9,170410,,,A*44
$GPRMC,162755.8,A,3333.928791,N,11749.685842,W,47.8,126.7,170410,,,A*4F
$GPRMC,162758.8,A,3333.904596,N,11749.647757,W,47.4,125.8,170410,,,A*4C
$GPRMC,162801.8,A,3333.881070,N,11749.609770,W,47.0,126.7,170410,,,A*49
$GPRMC,162804.8,A,3333.858108,N,11749.573144,W,44.0,127.1,170410,,,A*4D
$GPRMC,162807.8,A,3333.836424,N,11749.539364,W,42.0,127.2,170410,,,A*46
$GPRMC,162810.8,A,3333.814626,N,11749.506829,W,42.0,131.0,170410,,,A*4B
$GPRMC,162813.8,A,3333.789092,N,11749.476532,W,44.1,138.6,170410,,,A*43
$GPRMC,162816.8,A,3333.759676,N,11749.449467,W,44.8,145.2,170410,,,A*4D
$GPRMC,162819.8,A,3333.729415,N,11749.422948,W,45.5,140.1,170410,,,A*45
$GPRMC,162822.8,A,3333.700992,N,11749.390507,W,48.2,131.9,170410,,,A*49
$GPRMC,162825.8,A,3333.673740,N,11749.352923,W,51.0,130.6,170410,,,A*4A
$GPRMC,162828.8,A,3333.645931,N,11749.314546,W,50.7,130.7,170410,,,A*40
$GPRMC,162831.8,A,3333.618842,N,11749.276899,W,49.5,130.9,170410,,,A*4B
$GPRMC,162834.8,A,3333.592014,N,11749.239843,W,48.2,131.1,170410,,,A*47
$GPRMC,162837.8,A,3333.565270,N,11749.205256,W,45.8,135.2,170410,,,A*4D
$GPRMC,162840.8,A,3333.537345,N,11749.173387,W,46.0,137.1,170410,,,A*48
$GPRMC,162843.8,A,3333.507889,N,11749.147416,W,44.8,141.5,170410,,,A*44
$GPRMC,162846.8,A,3333.479581,N,11749.120490,W,43.2,140.0,170410,,,A*4A
$GPRMC,162849.8,A,3333.454178,N,11749.091774,W,40.3,132.4,170410,,,A*49
$GPRMC,162852.8,A,3333.433438,N,11749.060516,W,39.5,125.4,170410,,,A*45
$GPRMC,162855.8,A,3333.416190,N,11749.026593,W,40.3,118.6,170410,,,A*49
$GPRMC,162858.8,A,3333.400266,N,11748.990041,W,42.0,117.4,170410,,,A*4A
$GPRMC,162901.8,A,3333.384704,N,11748.953675,W,39.4,116.8,170410,,,A*46
$GPRMC,162904.8,A,3333.370541,N,11748.919376,W,37.5,116.0,170410,,,A*44
$GPRMC,162907.8,A,3333.357022,N,11748.887049,W,35.0,116.8,170410,,,A*44
$GPRMC,162910.8,A,3333.344696,N,11748.858984,W,30.0,119.4,170410,,,A*45
$GPRMC,162913.8,A,3333.331450,N,11748.832631,W,32.3,122.6,170410,,,A*4A
$GPRMC,162916.8,A,3333.315757,N,11748.805226,W,34.6,125.6,170410,,,A*4F
$GPRMC,162919.8,A,3333.298356,N,11748.776480,W,35.3,125.8,170410,,,A*4A
$GPRMC,162922.8,A,3333.283192,N,11748.750930,W,27.3,125.9,170410,,,A*42
$GPRMC,162925.8,A,3333.269414,N,11748.728120,W,30.2,125.7,170410,,,A*45
$GPRMC,162928.8,A,3333.253538,N,11748.701403,W,35.1,125.6,170410,,,A*46
$GPRMC,162931.8,A,3333.235931,N,11748.672263,W,35.5,126.6,170410,,,A*49
$GPRMC,162934.8,A,3333.218698,N,11748.644061,W,34.3,124.8,170410,,,A*41
$GPRMC,162937.8,A,3333.203220,N,11748.614806,W,35.0,119.1,170410,,,A*46
$GPRMC,162940.8,A,3333.190978,N,11748.582577,W,36.4,110.1,170410,,,A*40
$GPRMC,162943.8,A,3333.182543,N,11748.546977,W,38.2,101.3,170410,,,A*4A
$GPRMC,162946.8,A,3333.177352,N,11748.509445,W,38.7,100.1,170410,,,A*42
$GPRMC,162949.8,A,3333.174439,N,11748.472873,W,37.6,102.2,170410,,,A*4F
$GPRMC,162952.8,A,3333.165908,N,11748.438210,W,35.7,112.6,170410,,,A*4D
$GPRMC,162955.8,A,3333.152793,N,11748.407880,W,34.1,122.9,170410,,,A*46
$GPRMC,162958.8,A,3333.135739,N,11748.381820,W,33.0,133.6,170410,,,A*40
$GPRMC,163001.8,A,3333.115930,N,11748.359779,W,32.4,139.1,170410,,,A*4F
$GPRMC,163004.8,A,3333.093274,N,11748.342646,W,32.3,151.3,170410,,,A*42
$GPRMC,163007.8,A,3333.070212,N,11748.329810,W,28.7,154.2,170410,,,A*47
$GPRMC,163010.8,A,3333.049256,N,11748.317320,W,27.6,149.6,170410,,,A*48
$GPRMC,163013.8,A,3333.029844,N,11748.300779,W,29.1,139.0,170410,,,A*42
$GPRMC,163016.8,A,3333.012898,N,11748.284354,W,22.9,142.3,170410,,,A*44
$GPRMC,163019.8,A,3333.000980,N,11748.270226,W,17.1,127.8,170410,,,A*49
$GPRMC,163022.8,A,3332.994823,N,11748.259844,W,7.1,123.6,170410,,,A*72
$GPRMC,163025.8,A,3332.992059,N,11748.252751,W,11.3,110.8,170410,,,A*4D
$GPRMC,163028.8,A,3332.987150,N,11748.238129,W,19.9,114.2,170410,,,A*45
$GPRMC,163031.8,A,3332.979697,N,11748.219920,W,20.6,118.7,170410,,,A*4E
$GPRMC,163034.8,A,3332.970719,N,11748.199910,W,24.4,118.9,170410,,,A*45
$GPRMC,163037.8,A,3332.960827,N,11748.177851,W,25.9,118.1,170410,,,A*45
$GPRMC,163040.8,A,3332.951444,N,11748.155015,W,25.3,115.9,170410,,,A*49
$GPRMC,163043.8,A,3332.942869,N,11748.132420,W,25.8,113.5,170410,,,A*49
$GPRMC,163046.8,A,3332.934594,N,11748.109752,W,24.0,112.7,170410,,,A*46
$GPRMC,163049.8,A,3332.927870,N,11748.090756,W,16.3,113.0,170410,,,A*4D
$GPRMC,163052.8,A,3332.924193,N,11748.080250,W,6.7,113.5,170410,,,A*72
$GPRMC,163110.8,A,3332.921388,N,11748.072443,W,7.4,113.6,170410,,,A*70
$GPRMC,163113.8,A,3332.917412,N,11748.060584,W,17.1,113.0,170410,,,A*49
$GPRMC,163116.8,A,3332.911527,N,11748.044148,W,15.7,114.7,170410,,,A*4B
$GPRMC,163119.8,A,3332.906486,N,11748.036668,W,6.1,160.4,170410,,,A*7C
$GPRMC,163122.8,A,3332.899209,N,11748.042273,W,11.7,201.7,170410,,,A*48
$GPRMC,163125.8,A,3332.888479,N,11748.045714,W,14.2,191.6,170410,,,A*46
$GPRMC,163128.8,A,3332.876646,N,11748.048778,W,14.8,191.8,170410,,,A*47
$GPRMC,163131.8,A,3332.865602,N,11748.051318,W,12.3,190.1,170410,,,A*42
$GPRMC,163134.8,A,3332.856328,N,11748.053062,W,9.2,195.8,170410,,,A*71
$GPRMC,163137.8,A,3332.851226,N,11748.055579,W,4.6,199.2,170410,,,A*7C
$GPRMC,163155.8,A,3332.839994,N,11748.052445,W,5.2,135.2,170410,,,A*7E
$GPRMC,163158.8,A,3332.836090,N,11748.046418,W,10.0,127.1,170410,,,A*4A
$GPRMC,163201.8,A,3332.830088,N,11748.037807,W,11.8,129.2,170410,,,A*4A
$GPRMC,163204.8,A,3332.824001,N,11748.028315,W,12.1,127.6,170410,,,A*4D
$GPRMC,163207.8,A,3332.817647,N,11748.019313,W,11.2,131.8,170410,,,A*47
$GPRMC,163210.8,A,3332.812164,N,11748.012886,W,7.6,134.0,170410,,,A*70
$GPRMC,163231.8,A,3332.813383,N,11748.009765,W,7.3,299.1,170410,,,A*71
$GPRMC,163234.8,A,3332.818720,N,11748.019449,W,13.4,306.6,170410,,,A*4C
$GPRMC,163237.8,A,3332.825611,N,11748.029047,W,11.5,312.6,170410,,,A*4D
$GPRMC,163240.8,A,3332.831720,N,11748.038892,W,12.5,305.1,170410,,,A*49
$GPRMC,163243.8,A,3332.838817,N,11748.049345,W,11.8,309.8,170410,,,A*44
$GPRMC,163246.8,A,3332.844176,N,11748.055863,W,6.9,310.8,170410,,,A*79
$GPRMC,163249.8,A,3332.849566,N,11748.062545,W,9.7,312.0,170410,,,A*78
$GPRMC,163252.8,A,3332.855037,N,11748.067875,W,8.0,330.0,170410,,,A*73
$GPRMC,163255.8,A,3332.861995,N,11748.070689,W,8.2,349.5,170410,,,A*70
$GPRMC,163258.8,A,3332.867614,N,11748.072517,W,7.0,339.1,170410,,,A*75
$GPRMC,163301.8,A,3332.872279,N,11748.080472,W,10.5,298.3,170410,,,A*47
$GPRMC,163304.8,A,3332.876926,N,11748.092267,W,12.9,296.5,170410,,,A*40
$GPRMC,163307.8,A,3332.880564,N,11748.103197,W,10.8,292.1,170410,,,A*46
$GPRMC,163310.8,A,3332.884653,N,11748.112575,W,9.1,300.2,170410,,,A*73
$GPRMC,163313.8,A,3332.886687,N,11748.120063,W,7.4,284.9,170410,,,A*75
$GPRMC,163319.8,A,3332.876034,N,11748.125422,W,6.6,180.8,170410,,,A*7F
$GPRMC,163322.8,A,3332.862563,N,11748.123433,W,12.4,173.3,170410,,,A*43
$GPRMC,163325.8,A,3332.853068,N,11748.122557,W,8.9,179.5,170410,,,A*70
$GPRMC,163328.8,A,3332.846581,N,11748.122614,W,6.2,179.9,170410,,,A*76
$GPRMC,163331.8,A,3332.843286,N,11748.122178,W,5.5,165.0,170410,,,A*76
$GPRMC,163334.8,A,3332.838819,N,11748.119659,W,6.2,147.2,170410,,,A*79
$GPRMC,163337.8,A,3332.836724,N,11748.113307,W,8.5,106.2,170410,,,A*7D
$GPRMC,163340.8,A,3332.835130,N,11748.104514,W,8.8,105.7,170410,,,A*74
$GPRMC,163343.8,A,3332.832641,N,11748.097298,W,5.9,119.6,170410,,,A*79
$GPRMC,163528.8,A,3332.834562,N,11748.085028,W,8.1,53.0,170410,,,A*40
$GPRMC,163531.8,A,3332.838988,N,11748.079398,W,7.8,40.8,170410,,,A*4B
$GPRMC,163534.8,A,3332.843687,N,11748.075741,W,6.6,35.0,170410,,,A*4B
$GPRMC,163537.8,A,3332.846364,N,11748.072989,W,4.6,50.3,170410,,,A*4A
$GPRMC,163540.8,A,3332.848149,N,11748.068334,W,5.2,71.6,170410,,,A*4D
$GPRMC,163558.8,A,3332.839187,N,11748.052014,W,6.5,116.0,170410,,,A*7A
$GPRMC,163601.8,A,3332.835369,N,11748.044901,W,9.3,119.2,170410,,,A*75
$GPRMC,163604.8,A,3332.829718,N,11748.034565,W,12.4,123.7,170410,,,A*47
$GPRMC,163607.8,A,3332.822414,N,11748.023045,W,13.9,130.0,170410,,,A*48
$GPRMC,163610.8,A,3332.814869,N,11748.013124,W,11.1,136.1,170410,,,A*45
$GPRMC,163613.8,A,3332.809457,N,11748.007424,W,8.5,143.1,170410,,,A*75
$GPRMC,163616.8,A,3332.805385,N,11747.997689,W,11.1,115.2,170410,,,A*42
$GPRMC,163619.8,A,3332.806108,N,11747.980086,W,18.6,90.5,170410,,,A*73
$GPRMC,163622.8,A,3332.801862,N,11747.959639,W,19.4,98.5,170410,,,A*74
$GPRMC,163625.8,A,3332.800299,N,11747.942782,W,16.2,97.8,170410,,,A*7C
$GPRMC,163628.8,A,3332.798181,N,11747.930886,W,10.9,100.5,170410,,,A*44
$GPRMC,163631.8,A,3332.796436,N,11747.924772,W,6.3,108.2,170410,,,A*78
$GPRMC,163634.8,A,3332.793947,N,11747.913593,W,12.8,101.7,170410,,,A*48
$GPRMC,163637.8,A,3332.792178,N,11747.896428,W,17.5,99.1,170410,,,A*7D
$GPRMC,163640.8,A,3332.788388,N,11747.879494,W,17.2,108.4,170410,,,A*46
$GPRMC,163643.8,A,3332.782007,N,11747.862673,W,18.1,118.7,170410,,,A*44
$GPRMC,163646.8,A,3332.775240,N,11747.846992,W,17.0,118.0,170410,,,A*47
$GPRMC,163649.8,A,3332.771021,N,11747.831384,W,16.7,110.9,170410,,,A*43
$GPRMC,163652.8,A,3332.764296,N,11747.815351,W,17.8,115.6,170410,,,A*49
$GPRMC,163655.8,A,3332.759723,N,11747.802487,W,13.3,118.0,170410,,,A*45
$GPRMC,163658.8,A,3332.759183,N,11747.791971,W,10.5,98.9,170410,,,A*70
$GPRMC,163701.8,A,3332.766683,N,11747.783274,W,10.6,49.7,170410,,,A*7A
$GPRMC,163704.8,A,3332.773857,N,11747.776320,W,10.8,35.4,170410,,,A*70
$GPRMC,163707.8,A,3332.781315,N,11747.769752,W,10.3,42.4,170410,,,A*77
$GPRMC,163710.8,A,3332.785281,N,11747.764683,W,4.5,44.0,170410,,,A*48
$GPRMC,163713.8,A,3332.786271,N,11747.760037,W,6.4,91.0,170410,,,A*41
$GPRMC,163716.8,A,3332.785629,N,11747.753738,W,6.2,107.9,170410,,,A*77
$GPRMC,163719.8,A,3332.778581,N,11747.748035,W,9.1,144.5,170410,,,A*7C
$GPRMC,163722.8,A,3332.772323,N,11747.740550,W,11.1,131.8,170410,,,A*48
$GPRMC,163725.8,A,3332.766853,N,11747.728412,W,14.3,117.3,170410,,,A*47
$GPRMC,163728.8,A,3332.762225,N,11747.715708,W,13.3,116.6,170410,,,A*40
$GPRMC,163731.8,A,3332.758571,N,11747.706371,W,10.5,123.3,170410,,,A*49
$GPRMC,163734.8,A,3332.751564,N,11747.701194,W,9.4,147.2,170410,,,A*75
$GPRMC,163737.8,A,3332.742020,N,11747.698020,W,12.1,160.5,170410,,,A*43
$GPRMC,163740.8,A,3332.731673,N,11747.693718,W,12.4,157.3,170410,,,A*47
$GPRMC,163743.8,A,3332.722444,N,11747.689602,W,9.8,151.8,170410,,,A*7A
$GPRMC,163746.8,A,3332.718171,N,11747.682823,W,9.4,125.6,170410,,,A*72
$GPRMC,163749.8,A,3332.715355,N,11747.677081,W,6.5,121.2,170410,,,A*70
$GPRMC,163752.8,A,3332.711477,N,11747.671119,W,7.6,123.5,170410,,,A*78
$GPRMC,163755.8,A,3332.708310,N,11747.661218,W,10.4,115.2,170410,,,A*44
$GPRMC,163758.8,A,3332.704497,N,11747.650556,W,11.6,113.7,170410,,,A*42
$GPRMC,163801.8,A,3332.703333,N,11747.639116,W,9.8,102.6,170410,,,A*76
$GPRMC,163804.8,A,3332.699558,N,11747.628268,W,10.8,112.2,170410,,,A*4D
$GPRMC,163807.8,A,3332.702762,N,11747.621293,W,7.1,99.2,170410,,,A*46
$GPRMC,163810.8,A,3332.701154,N,11747.616152,W,5.8,100.6,170410,,,A*74
$GPRMC,163813.8,A,3332.700380,N,11747.611888,W,4.5,94.0,170410,,,A*42
$GPRMC,163816.8,A,3332.699063,N,11747.606373,W,5.2,106.1,170410,,,A*7C
$GPRMC,163819.8,A,3332.697787,N,11747.600778,W,5.8,105.5,170410,,,A*74
$GPRMC,163822.8,A,3332.698655,N,11747.593428,W,7.0,104.3,170410,,,A*7F
$GPRMC,163825.8,A,3332.695381,N,11747.586334,W,8.4,113.7,170410,,,A*7E
$GPRMC,163828.8,A,3332.692036,N,11747.577543,W,9.3,121.1,170410,,,A*72
$GPRMC,163831.8,A,3332.685614,N,11747.569448,W,10.3,132.4,170410,,,A*40
$GPRMC,163834.8,A,3332.680096,N,11747.567627,W,8.2,155.9,170410,,,A*7D
$GPRMC,163837.8,A,3332.674834,N,11747.567774,W,6.4,172.1,170410,,,A*77
$GPRMC,163840.8,A,3332.670606,N,11747.566820,W,6.2,172.2,170410,,,A*76
$GPRMC,163843.8,A,3332.665768,N,11747.564435,W,6.3,165.5,170410,,,A*72
$GPRMC,163846.8,A,3332.660716,N,11747.555430,W,8.1,139.6,170410,,,A*7A
$GPRMC,163849.8,A,3332.655572,N,11747.544061,W,10.7,129.9,170410,,,A*42
$GPRMC,163852.8,A,3332.649742,N,11747.536663,W,11.1,131.8,170410,,,A*4A
$GPRMC,163855.8,A,3332.646831,N,11747.527684,W,8.8,126.5,170410,,,A*7A
$GPRMC,163858.8,A,3332.642913,N,11747.523170,W,7.0,127.3,170410,,,A*7A
$GPRMC,163901.8,A,3332.640029,N,11747.517059,W,7.1,125.4,170410,,,A*7C
