NMEA Sentence Code,UTC Time,Status,Latitude,Latitude Direction,Longitude,Longitude Direction,Speed (knots),Track Angle (degrees true),Date,MagneticVariation,Magnetic Variation Direction,[FAA Mode]-Optional,Checksum
$GPRMC,185119.000,A,3335.8928,N,11746.5344,W,62.69,107.93,230610,,,A*46
$GPRMC,185123.000,A,3335.8803,N,11746.4549,W,61.72,100.55,230610,,,A*49
$GPRMC,185126.000,A,3335.8748,N,11746.3950,W,61.72,96.68,230610,,,A*7F
$GPRMC,185129.000,A,3335.8709,N,11746.3351,W,62.21,95.98,230610,,,A*77
$GPRMC,185132.000,A,3335.8655,N,11746.2756,W,62.69,97.73,230610,,,A*7C
$GPRMC,185144.000,A,3335.7953,N,11746.0387,W,65.12,119.88,230610,,,A*49
$GPRMC,185149.000,A,3335.7419,N,11745.9489,W,64.64,127.62,230610,,,A*4D
$GPRMC,185152.000,A,3335.7071,N,11745.8987,W,64.15,129.38,230610,,,A*48
$GPRMC,185155.000,A,3335.6720,N,11745.8520,W,63.66,129.73,230610,,,A*40
$GPRMC,185158.000,A,3335.6382,N,11745.8056,W,62.69,129.38,230610,,,A*44
$GPRMC,185159.000,A,3335.6270,N,11745.7899,W,62.69,129.38,230610,,,A*4D
$GPRMC,185204.000,A,3335.5710,N,11745.7107,W,64.64,129.73,230610,,,A*4C
$GPRMC,185212.000,A,3335.4857,N,11745.5765,W,63.18,123.05,230610,,,A*41
$GPRMC,185215.000,A,3335.4635,N,11745.5208,W,61.72,117.07,230610,,,A*49
$GPRMC,185218.000,A,3335.4458,N,11745.4609,W,62.21,110.74,230610,,,A*4F
$GPRMC,185221.000,A,3335.4322,N,11745.4004,W,61.72,105.47,230610,,,A*45
$GPRMC,185224.000,A,3335.4226,N,11745.3412,W,61.23,100.90,230610,,,A*4A
$GPRMC,185227.000,A,3335.4161,N,11745.2820,W,61.72,99.84,230610,,,A*75
$GPRMC,185230.000,A,3335.4094,N,11745.2240,W,61.23,99.84,230610,,,A*70
$GPRMC,185232.000,A,3335.4046,N,11745.1845,W,61.23,99.49,230610,,,A*70
$GPRMC,185236.000,A,3335.3949,N,11745.1062,W,61.23,99.49,230610,,,A*78
$GPRMC,185239.000,A,3335.3875,N,11745.0477,W,60.26,99.84,230610,,,A*7D
$GPRMC,185242.000,A,3335.3807,N,11744.9897,W,59.78,99.49,230610,,,A*7E
$GPRMC,185245.000,A,3335.3695,N,11744.9337,W,58.80,103.71,230610,,,A*42
$GPRMC,185248.000,A,3335.3566,N,11744.8800,W,58.32,107.58,230610,,,A*48
$GPRMC,185251.000,A,3335.3334,N,11744.8240,W,58.80,112.15,230610,,,A*4B
$GPRMC,185254.000,A,3335.3080,N,11744.7702,W,59.78,113.55,230610,,,A*4D
$GPRMC,185257.000,A,3335.2851,N,11744.7148,W,60.26,113.55,230610,,,A*42
$GPRMC,185300.000,A,3335.2652,N,11744.6559,W,61.23,111.09,230610,,,A*46
$GPRMC,185303.000,A,3335.2501,N,11744.5948,W,62.21,107.58,230610,,,A*4D
$GPRMC,185306.000,A,3335.2401,N,11744.5336,W,62.21,101.95,230610,,,A*4D
$GPRMC,185309.000,A,3335.2330,N,11744.4718,W,61.72,98.79,230610,,,A*78
$GPRMC,185312.000,A,3335.2285,N,11744.4100,W,62.21,96.33,230610,,,A*77
$GPRMC,185315.000,A,3335.2243,N,11744.3489,W,62.21,96.33,230610,,,A*79
$GPRMC,185318.000,A,3335.2201,N,11744.2881,W,61.72,96.33,230610,,,A*72
$GPRMC,185637.000,A,3333.4566,N,11741.0240,W,62.21,101.25,230610,,,A*41
$GPRMC,185640.000,A,3333.4460,N,11740.9632,W,62.69,102.30,230610,,,A*44
$GPRMC,185643.000,A,3333.4322,N,11740.9036,W,62.21,107.93,230610,,,A*44
$GPRMC,185646.000,A,3333.4116,N,11740.8473,W,62.21,115.66,230610,,,A*49
$GPRMC,185649.000,A,3333.3855,N,11740.7936,W,62.21,122.34,230610,,,A*4F
$GPRMC,185652.000,A,3333.3533,N,11740.7437,W,62.69,129.02,230610,,,A*46
$GPRMC,185655.000,A,3333.3169,N,11740.6996,W,62.69,135.35,230610,,,A*44
$GPRMC,185657.000,A,3333.2899,N,11740.6735,W,62.21,140.98,230610,,,A*4F
$GPRMC,185700.000,A,3333.2465,N,11740.6404,W,62.21,149.06,230610,,,A*4C
$GPRMC,185704.000,A,3333.1827,N,11740.6085,W,61.72,159.96,230610,,,A*41
$GPRMC,185710.000,A,3333.0829,N,11740.5811,W,61.23,167.70,230610,,,A*4C
$GPRMC,185713.000,A,3333.0324,N,11740.5692,W,61.72,168.75,230610,,,A*42
$GPRMC,185716.000,A,3332.9819,N,11740.5564,W,62.21,168.05,230610,,,A*42
$GPRMC,185719.000,A,3332.9313,N,11740.5438,W,62.21,168.40,230610,,,A*45
$GPRMC,185722.000,A,3332.8808,N,11740.5309,W,62.21,168.05,230610,,,A*49
$GPRMC,185725.000,A,3332.8300,N,11740.5177,W,62.21,168.05,230610,,,A*46
$GPRMC,185728.000,A,3332.7791,N,11740.5049,W,62.21,168.05,230610,,,A*44
$GPRMC,185731.000,A,3332.7279,N,11740.4926,W,62.69,168.40,230610,,,A*43
$GPRMC,185734.000,A,3332.6768,N,11740.4801,W,62.21,168.75,230610,,,A*4C
$GPRMC,185735.000,A,3332.6597,N,11740.4759,W,62.21,168.75,230610,,,A*4D
$GPRMC,185748.000,A,3332.4482,N,11740.4746,W,55.40,187.38,230610,,,A*45
$GPRMC,185751.000,A,3332.4035,N,11740.4817,W,53.46,188.09,230610,,,A*43
$GPRMC,185754.000,A,3332.3600,N,11740.4904,W,52.97,188.79,230610,,,A*48
$GPRMC,185757.000,A,3332.3153,N,11740.4984,W,54.43,188.44,230610,,,A*43
$GPRMC,185800.000,A,3332.2686,N,11740.5052,W,56.86,185.98,230610,,,A*44
$GPRMC,185803.000,A,3332.2207,N,11740.5106,W,58.32,185.27,230610,,,A*4F
$GPRMC,185806.000,A,3332.1717,N,11740.5145,W,59.29,183.52,230610,,,A*45
$GPRMC,185811.000,A,3332.0897,N,11740.5164,W,59.29,180.00,230610,,,A*42
$GPRMC,185817.000,A,3331.9915,N,11740.5084,W,58.80,173.67,230610,,,A*45
$GPRMC,185820.000,A,3331.9432,N,11740.4981,W,59.78,167.70,230610,,,A*41
$GPRMC,185823.000,A,3331.8953,N,11740.4797,W,60.75,159.61,230610,,,A*4A
$GPRMC,185826.000,A,3331.8496,N,11740.4537,W,60.75,151.88,230610,,,A*4C
$GPRMC,185828.000,A,3331.8206,N,11740.4321,W,60.75,146.95,230610,,,A*46
$GPRMC,185832.000,A,3331.7707,N,11740.3787,W,60.26,134.65,230610,,,A*45
$GPRMC,185842.000,A,3331.6645,N,11740.2255,W,60.26,130.43,230610,,,A*4F
$GPRMC,185845.000,A,3331.6304,N,11740.1817,W,60.26,133.95,230610,,,A*4F
$GPRMC,185848.000,A,3331.5930,N,11740.1418,W,59.78,139.57,230610,,,A*4A
$GPRMC,185851.000,A,3331.5525,N,11740.1077,W,59.78,145.90,230610,,,A*47
$GPRMC,185854.000,A,3331.5093,N,11740.0781,W,59.78,152.23,230610,,,A*4B
$GPRMC,185857.000,A,3331.4640,N,11740.0542,W,58.32,157.85,230610,,,A*4A
$GPRMC,185900.000,A,3331.4202,N,11740.0349,W,54.43,160.31,230610,,,A*47
$GPRMC,185903.000,A,3331.3787,N,11740.0169,W,52.97,160.31,230610,,,A*44
$GPRMC,185906.000,A,3331.3368,N,11739.9998,W,52.97,160.66,230610,,,A*47
$GPRMC,185909.000,A,3331.2950,N,11739.9818,W,53.46,160.31,230610,,,A*4E
$GPRMC,185912.000,A,3331.2531,N,11739.9641,W,52.97,160.31,230610,,,A*40
$GPRMC,185915.000,A,3331.2116,N,11739.9464,W,52.49,160.31,230610,,,A*40
$GPRMC,185918.000,A,3331.1701,N,11739.9287,W,52.49,160.31,230610,,,A*45
$GPRMC,185921.000,A,3331.1289,N,11739.9113,W,52.49,160.31,230610,,,A*44
$GPRMC,185924.000,A,3331.0880,N,11739.8933,W,52.49,159.96,230610,,,A*4F
$GPRMC,185927.000,A,3331.0471,N,11739.8756,W,51.03,160.31,230610,,,A*49
$GPRMC,185930.000,A,3331.0076,N,11739.8589,W,50.06,160.31,230610,,,A*48
$GPRMC,185933.000,A,3330.9683,N,11739.8425,W,49.57,160.31,230610,,,A*44
$GPRMC,185936.000,A,3330.9293,N,11739.8260,W,49.57,160.31,230610,,,A*43
$GPRMC,185939.000,A,3330.8904,N,11739.8093,W,49.57,159.96,230610,,,A*41
$GPRMC,185942.000,A,3330.8511,N,11739.7929,W,50.54,160.31,230610,,,A*4E
$GPRMC,185945.000,A,3330.8109,N,11739.7758,W,52.00,160.31,230610,,,A*4F
$GPRMC,185948.000,A,3330.7700,N,11739.7581,W,52.49,160.31,230610,,,A*49
$GPRMC,185951.000,A,3330.7282,N,11739.7391,W,54.43,159.26,230610,,,A*49
$GPRMC,185954.000,A,3330.6841,N,11739.7192,W,57.35,159.61,230610,,,A*48
$GPRMC,185957.000,A,3330.6384,N,11739.6989,W,59.78,160.31,230610,,,A*42
$GPRMC,190000.000,A,3330.5907,N,11739.6789,W,60.75,160.31,230610,,,A*46
$GPRMC,190003.000,A,3330.5431,N,11739.6583,W,60.26,160.31,230610,,,A*43
$GPRMC,190006.000,A,3330.4964,N,11739.6384,W,58.80,160.31,230610,,,A*4C
$GPRMC,190009.000,A,3330.4504,N,11739.6188,W,58.32,160.66,230610,,,A*4C
$GPRMC,190012.000,A,3330.4044,N,11739.5994,W,58.32,160.31,230610,,,A*43
$GPRMC,190015.000,A,3330.3593,N,11739.5801,W,57.35,159.96,230610,,,A*4E
$GPRMC,190018.000,A,3330.3146,N,11739.5611,W,56.86,161.02,230610,,,A*4F
$GPRMC,190021.000,A,3330.2689,N,11739.5451,W,57.35,164.53,230610,,,A*4E
$GPRMC,190024.000,A,3330.2219,N,11739.5325,W,57.83,168.05,230610,,,A*40
$GPRMC,190027.000,A,3330.1736,N,11739.5228,W,58.80,171.21,230610,,,A*46
$GPRMC,190030.000,A,3330.1244,N,11739.5151,W,59.78,172.97,230610,,,A*45
$GPRMC,190033.000,A,3330.0742,N,11739.5113,W,59.78,176.84,230610,,,A*44
$GPRMC,190036.000,A,3330.0243,N,11739.5103,W,59.29,180.00,230610,,,A*45
$GPRMC,190039.000,A,3329.9747,N,11739.5132,W,59.29,183.52,230610,,,A*4C
$GPRMC,190042.000,A,3329.9254,N,11739.5187,W,58.32,186.68,230610,,,A*4E
$GPRMC,190045.000,A,3329.8781,N,11739.5273,W,56.86,189.14,230610,,,A*48
$GPRMC,190048.000,A,3329.8324,N,11739.5386,W,55.89,192.30,230610,,,A*45
$GPRMC,190051.000,A,3329.7887,N,11739.5525,W,54.43,195.82,230610,,,A*46
$GPRMC,190054.000,A,3329.7455,N,11739.5689,W,53.94,198.28,230610,,,A*45
$GPRMC,190057.000,A,3329.7034,N,11739.5879,W,53.46,201.45,230610,,,A*43
$GPRMC,190100.000,A,3329.6631,N,11739.6091,W,52.00,204.61,230610,,,A*4F
$GPRMC,190103.000,A,3329.6255,N,11739.6316,W,50.06,206.72,230610,,,A*42
$GPRMC,190106.000,A,3329.5894,N,11739.6558,W,49.08,209.88,230610,,,A*43
$GPRMC,190109.000,A,3329.5547,N,11739.6809,W,48.60,211.64,230610,,,A*42
$GPRMC,190112.000,A,3329.5205,N,11739.7066,W,49.08,211.99,230610,,,A*44
$GPRMC,190115.000,A,3329.4851,N,11739.7330,W,50.06,212.34,230610,,,A*4B
$GPRMC,190119.000,A,3329.4375,N,11739.7691,W,51.03,211.99,230610,,,A*44
$GPRMC,190122.000,A,3329.4015,N,11739.7964,W,51.51,211.99,230610,,,A*4B
$GPRMC,190125.000,A,3329.3644,N,11739.8231,W,52.00,210.94,230610,,,A*46
$GPRMC,190128.000,A,3329.3268,N,11739.8505,W,52.97,211.29,230610,,,A*48
$GPRMC,190131.000,A,3329.2901,N,11739.8782,W,50.54,212.34,230610,,,A*4A
$GPRMC,190134.000,A,3329.2560,N,11739.9033,W,47.14,211.29,230610,,,A*45
$GPRMC,190137.000,A,3329.2241,N,11739.9265,W,44.71,210.94,230610,,,A*44
$GPRMC,190140.000,A,3329.1929,N,11739.9487,W,43.74,211.29,230610,,,A*4D
$GPRMC,190143.000,A,3329.1613,N,11739.9722,W,44.71,212.34,230610,,,A*49
$GPRMC,190145.000,A,3329.1401,N,11739.9886,W,45.68,213.40,230610,,,A*44
$GPRMC,190149.000,A,3329.0960,N,11740.0253,W,50.06,214.80,230610,,,A*41
$GPRMC,190152.000,A,3329.0596,N,11740.0562,W,54.43,215.86,230610,,,A*49
$GPRMC,190155.000,A,3329.0210,N,11740.0896,W,57.83,215.51,230610,,,A*44
$GPRMC,190158.000,A,3328.9808,N,11740.1244,W,60.26,215.86,230610,,,A*47
$GPRMC,190201.000,A,3328.9396,N,11740.1595,W,59.78,215.86,230610,,,A*4E
$GPRMC,190204.000,A,3328.9000,N,11740.1943,W,58.32,215.86,230610,,,A*4F
$GPRMC,190208.000,A,3328.8475,N,11740.2390,W,57.35,215.86,230610,,,A*4B
$GPRMC,190211.000,A,3328.8095,N,11740.2718,W,56.37,215.86,230610,,,A*4E
$GPRMC,190214.000,A,3328.7712,N,11740.3047,W,56.37,215.86,230610,,,A*40
$GPRMC,190217.000,A,3328.7333,N,11740.3375,W,56.37,215.86,230610,,,A*46
$GPRMC,190222.000,A,3328.6682,N,11740.3916,W,57.35,213.05,230610,,,A*4F
$GPRMC,190225.000,A,3328.6264,N,11740.4202,W,58.32,208.12,230610,,,A*49
$GPRMC,190228.000,A,3328.5826,N,11740.4434,W,57.83,202.85,230610,,,A*49
$GPRMC,190229.000,A,3328.5675,N,11740.4501,W,57.83,200.74,230610,,,A*4B
$GPRMC,190234.000,A,3328.4906,N,11740.4759,W,57.35,192.30,230610,,,A*47
$GPRMC,190237.000,A,3328.4429,N,11740.4846,W,57.35,187.38,230610,,,A*49
$GPRMC,190240.000,A,3328.3947,N,11740.4884,W,57.83,182.46,230610,,,A*44
$GPRMC,190243.000,A,3328.3461,N,11740.4872,W,58.32,176.84,230610,,,A*47
$GPRMC,190246.000,A,3328.2981,N,11740.4801,W,58.32,171.21,230610,,,A*4C
$GPRMC,190249.000,A,3328.2511,N,11740.4669,W,57.83,164.18,230610,,,A*4D
$GPRMC,190252.000,A,3328.2064,N,11740.4466,W,57.35,156.45,230610,,,A*49
$GPRMC,190255.000,A,3328.1645,N,11740.4192,W,56.86,149.77,230610,,,A*40
$GPRMC,190258.000,A,3328.1269,N,11740.3848,W,56.86,139.92,230610,,,A*42
$GPRMC,190301.000,A,3328.0934,N,11740.3439,W,57.35,132.19,230610,,,A*46
$GPRMC,190304.000,A,3328.0654,N,11740.2973,W,57.35,123.05,230610,,,A*45
$GPRMC,190307.000,A,3328.0425,N,11740.2470,W,57.35,117.07,230610,,,A*49
$GPRMC,190310.000,A,3328.0207,N,11740.1959,W,57.83,117.42,230610,,,A*40
$GPRMC,190313.000,A,3327.9972,N,11740.1463,W,57.35,120.94,230610,,,A*4A
$GPRMC,190316.000,A,3327.9695,N,11740.0993,W,57.35,126.56,230610,,,A*42
$GPRMC,190319.000,A,3327.9392,N,11740.0533,W,57.83,128.32,230610,,,A*48
$GPRMC,190322.000,A,3327.9093,N,11740.0089,W,57.35,129.02,230610,,,A*49
$GPRMC,190325.000,A,3327.8790,N,11739.9644,W,57.83,129.38,230610,,,A*4F
$GPRMC,190328.000,A,3327.8488,N,11739.9200,W,57.83,129.38,230610,,,A*4C
$GPRMC,190331.000,A,3327.8176,N,11739.8753,W,59.29,129.73,230610,,,A*43
$GPRMC,190334.000,A,3327.7857,N,11739.8273,W,60.75,129.02,230610,,,A*41
$GPRMC,190337.000,A,3327.7532,N,11739.7797,W,61.23,129.38,230610,,,A*47
$GPRMC,190340.000,A,3327.7207,N,11739.7324,W,61.23,129.02,230610,,,A*43
$GPRMC,190343.000,A,3327.6885,N,11739.6851,W,61.23,129.02,230610,,,A*49
$GPRMC,190346.000,A,3327.6582,N,11739.6361,W,60.75,124.45,230610,,,A*42
$GPRMC,190349.000,A,3327.6338,N,11739.5840,W,59.78,117.07,230610,,,A*40
$GPRMC,190352.000,A,3327.6116,N,11739.5299,W,60.26,116.72,230610,,,A*48
$GPRMC,190354.000,A,3327.5961,N,11739.4939,W,60.75,116.72,230610,,,A*43
$GPRMC,190357.000,A,3327.5713,N,11739.4401,W,62.21,119.88,230610,,,A*44
$GPRMC,190401.000,A,3327.5330,N,11739.3706,W,62.21,124.80,230610,,,A*40
$GPRMC,190404.000,A,3327.5028,N,11739.3207,W,61.72,125.86,230610,,,A*49
$GPRMC,190407.000,A,3327.4722,N,11739.2715,W,61.23,126.21,230610,,,A*4B
$GPRMC,190410.000,A,3327.4426,N,11739.2216,W,61.23,125.16,230610,,,A*4B
$GPRMC,190413.000,A,3327.4136,N,11739.1707,W,61.23,123.75,230610,,,A*49
$GPRMC,190416.000,A,3327.3863,N,11739.1186,W,61.72,121.64,230610,,,A*4B
$GPRMC,190419.000,A,3327.3608,N,11739.0652,W,61.72,118.83,230610,,,A*4B
$GPRMC,190422.000,A,3327.3370,N,11739.0104,W,61.72,117.42,230610,,,A*4F
$GPRMC,190425.000,A,3327.3132,N,11738.9560,W,61.72,117.42,230610,,,A*42
$GPRMC,190428.000,A,3327.2897,N,11738.9013,W,61.72,117.42,230610,,,A*49
$GPRMC,190431.000,A,3327.2662,N,11738.8466,W,61.72,116.72,230610,,,A*40
$GPRMC,190434.000,A,3327.2421,N,11738.7912,W,62.21,117.42,230610,,,A*46
$GPRMC,190437.000,A,3327.2182,N,11738.7359,W,62.69,117.77,230610,,,A*46
$GPRMC,190440.000,A,3327.1935,N,11738.6812,W,62.21,119.53,230610,,,A*40
$GPRMC,190443.000,A,3327.1667,N,11738.6284,W,61.23,121.99,230610,,,A*42
$GPRMC,190446.000,A,3327.1387,N,11738.5782,W,60.75,124.45,230610,,,A*4A
$GPRMC,190449.000,A,3327.1088,N,11738.5292,W,61.23,126.91,230610,,,A*44
$GPRMC,190452.000,A,3327.0776,N,11738.4813,W,61.72,129.02,230610,,,A*4A
$GPRMC,190455.000,A,3327.0444,N,11738.4346,W,62.21,130.43,230610,,,A*4C
$GPRMC,190458.000,A,3327.0106,N,11738.3876,W,62.21,130.43,230610,,,A*4D
$GPRMC,190501.000,A,3326.9772,N,11738.3406,W,61.72,130.43,230610,,,A*43
$GPRMC,190504.000,A,3326.9440,N,11738.2936,W,61.72,130.08,230610,,,A*44
$GPRMC,190507.000,A,3326.9121,N,11738.2450,W,62.21,126.56,230610,,,A*41
$GPRMC,190510.000,A,3326.8835,N,11738.1935,W,62.21,122.34,230610,,,A*47
$GPRMC,190513.000,A,3326.8561,N,11738.1408,W,62.21,121.29,230610,,,A*44
$GPRMC,190516.000,A,3326.8291,N,11738.0876,W,62.21,121.29,230610,,,A*4D
$GPRMC,190519.000,A,3326.8027,N,11738.0352,W,61.23,120.94,230610,,,A*46
$GPRMC,190522.000,A,3326.7763,N,11737.9840,W,60.26,121.29,230610,,,A*4B
$GPRMC,190525.000,A,3326.7486,N,11737.9341,W,60.26,124.80,230610,,,A*48
$GPRMC,190528.000,A,3326.7174,N,11737.8868,W,61.23,129.02,230610,,,A*4F
$GPRMC,190531.000,A,3326.6830,N,11737.8427,W,60.75,133.95,230610,,,A*4F
$GPRMC,190534.000,A,3326.6469,N,11737.7996,W,61.23,135.00,230610,,,A*4A
$GPRMC,190537.000,A,3326.6109,N,11737.7564,W,61.23,135.00,230610,,,A*4B
$GPRMC,190540.000,A,3326.5742,N,11737.7130,W,62.21,135.35,230610,,,A*43
$GPRMC,190543.000,A,3326.5372,N,11737.6689,W,62.21,135.00,230610,,,A*45
$GPRMC,190546.000,A,3326.5011,N,11737.6245,W,61.72,134.30,230610,,,A*45
$GPRMC,190548.000,A,3326.4773,N,11737.5945,W,61.23,132.54,230610,,,A*41
$GPRMC,190553.000,A,3326.4258,N,11737.5134,W,61.72,124.45,230610,,,A*4A
$GPRMC,190556.000,A,3326.3975,N,11737.4623,W,61.72,123.40,230610,,,A*4E
$GPRMC,190559.000,A,3326.3692,N,11737.4108,W,62.21,123.40,230610,,,A*4C
$GPRMC,190602.000,A,3326.3405,N,11737.3589,W,62.69,123.40,230610,,,A*4B
$GPRMC,190605.000,A,3326.3119,N,11737.3062,W,62.69,123.40,230610,,,A*44
$GPRMC,190608.000,A,3326.2829,N,11737.2540,W,62.21,123.75,230610,,,A*4C
$GPRMC,190611.000,A,3326.2539,N,11737.2048,W,60.75,126.21,230610,,,A*42
$GPRMC,190614.000,A,3326.2217,N,11737.1597,W,60.26,132.54,230610,,,A*49
$GPRMC,190617.000,A,3326.1854,N,11737.1192,W,59.78,138.52,230610,,,A*48
$GPRMC,190620.000,A,3326.1461,N,11737.0831,W,59.29,143.44,230610,,,A*48
$GPRMC,190623.000,A,3326.1046,N,11737.0519,W,59.29,148.71,230610,,,A*40
$GPRMC,190626.000,A,3326.0615,N,11737.0229,W,59.78,150.82,230610,,,A*41
$GPRMC,190629.000,A,3326.0167,N,11736.9936,W,61.72,151.17,230610,,,A*4D
$GPRMC,190632.000,A,3325.9717,N,11736.9643,W,61.72,150.82,230610,,,A*4C
$GPRMC,190635.000,A,3325.9272,N,11736.9322,W,61.72,147.66,230610,,,A*43
$GPRMC,190638.000,A,3325.8851,N,11736.8967,W,61.23,142.73,230610,,,A*4B
$GPRMC,190641.000,A,3325.8468,N,11736.8562,W,61.72,136.41,230610,,,A*4C
$GPRMC,190644.000,A,3325.8110,N,11736.8115,W,62.69,133.95,230610,,,A*42
$GPRMC,190647.000,A,3325.7737,N,11736.7677,W,63.18,136.76,230610,,,A*4E
$GPRMC,190650.000,A,3325.7338,N,11736.7268,W,63.18,140.62,230610,,,A*4D
$GPRMC,190653.000,A,3325.6910,N,11736.6901,W,62.69,145.55,230610,,,A*4C
$GPRMC,190656.000,A,3325.6469,N,11736.6563,W,62.21,148.36,230610,,,A*46
$GPRMC,190659.000,A,3325.6022,N,11736.6248,W,61.72,149.77,230610,,,A*4D
$GPRMC,190702.000,A,3325.5574,N,11736.5939,W,61.72,150.12,230610,,,A*42
$GPRMC,190705.000,A,3325.5124,N,11736.5636,W,61.72,150.47,230610,,,A*44
$GPRMC,190708.000,A,3325.4673,N,11736.5340,W,61.72,152.23,230610,,,A*49
$GPRMC,190711.000,A,3325.4206,N,11736.5089,W,62.21,157.15,230610,,,A*44
$GPRMC,190714.000,A,3325.3727,N,11736.4857,W,62.21,157.85,230610,,,A*43
$GPRMC,190717.000,A,3325.3247,N,11736.4613,W,62.21,156.80,230610,,,A*49
$GPRMC,190720.000,A,3325.2784,N,11736.4336,W,61.72,151.52,230610,,,A*49
$GPRMC,190723.000,A,3325.2343,N,11736.3998,W,62.69,145.55,230610,,,A*47
$GPRMC,190726.000,A,3325.1915,N,11736.3634,W,62.69,144.14,230610,,,A*45
$GPRMC,190729.000,A,3325.1483,N,11736.3274,W,62.69,145.55,230610,,,A*4C
$GPRMC,190732.000,A,3325.1036,N,11736.2958,W,62.69,151.88,230610,,,A*4D
$GPRMC,190734.000,A,3325.0724,N,11736.2788,W,62.69,156.09,230610,,,A*43
$GPRMC,190740.000,A,3324.9765,N,11736.2302,W,62.69,156.80,230610,,,A*4A
$GPRMC,190743.000,A,3324.9282,N,11736.2060,W,62.69,157.15,230610,,,A*4F
$GPRMC,190746.000,A,3324.8792,N,11736.1812,W,64.15,157.15,230610,,,A*4C
$GPRMC,190747.000,A,3324.8625,N,11736.1729,W,65.12,157.15,230610,,,A*41
$GPRMC,190750.000,A,3324.8117,N,11736.1468,W,65.61,157.50,230610,,,A*42
$GPRMC,190756.000,A,3324.7106,N,11736.0956,W,65.12,157.15,230610,,,A*4F
$GPRMC,190759.000,A,3324.6604,N,11736.0696,W,66.09,157.15,230610,,,A*4E
$GPRMC,190802.000,A,3324.6086,N,11736.0438,W,67.55,157.15,230610,,,A*4D
$GPRMC,190805.000,A,3324.5564,N,11736.0171,W,68.52,157.15,230610,,,A*40
$GPRMC,190810.000,A,3324.4682,N,11735.9733,W,69.01,157.15,230610,,,A*43
$GPRMC,190818.000,A,3324.3253,N,11735.9015,W,69.98,157.15,230610,,,A*47
$GPRMC,190821.000,A,3324.2722,N,11735.8751,W,67.55,157.15,230610,,,A*46
$GPRMC,190825.000,A,3324.2059,N,11735.8417,W,64.15,157.15,230610,,,A*4F
$GPRMC,190829.000,A,3324.1406,N,11735.8088,W,64.15,157.15,230610,,,A*4C
$GPRMC,190833.000,A,3324.0752,N,11735.7763,W,63.66,157.15,230610,,,A*4A
$GPRMC,190834.000,A,3324.0588,N,11735.7683,W,63.66,157.50,230610,,,A*46
$GPRMC,190839.000,A,3323.9767,N,11735.7268,W,64.15,156.80,230610,,,A*48
$GPRMC,190842.000,A,3323.9281,N,11735.7020,W,63.18,156.80,230610,,,A*4D
$GPRMC,190845.000,A,3323.8808,N,11735.6778,W,61.23,156.80,230610,,,A*41
$GPRMC,190846.000,A,3323.8657,N,11735.6698,W,60.75,156.45,230610,,,A*42
$GPRMC,190851.000,A,3323.7897,N,11735.6280,W,60.26,153.98,230610,,,A*47
$GPRMC,190853.000,A,3323.7598,N,11735.6099,W,60.75,152.93,230610,,,A*41
$GPRMC,190858.000,A,3323.6838,N,11735.5613,W,62.69,151.17,230610,,,A*4B
$GPRMC,190901.000,A,3323.6388,N,11735.5298,W,62.69,149.41,230610,,,A*4B
$GPRMC,190904.000,A,3323.5940,N,11735.4973,W,62.69,148.36,230610,,,A*4D
$GPRMC,190907.000,A,3323.5499,N,11735.4638,W,62.21,147.30,230610,,,A*42
$GPRMC,190912.000,A,3323.4769,N,11735.4078,W,62.21,147.66,230610,,,A*4A
$GPRMC,190915.000,A,3323.4331,N,11735.3746,W,62.21,147.30,230610,,,A*4A
$GPRMC,190918.000,A,3323.3897,N,11735.3418,W,61.72,146.95,230610,,,A*44
$GPRMC,190921.000,A,3323.3468,N,11735.3083,W,61.72,145.90,230610,,,A*42
$GPRMC,190924.000,A,3323.3056,N,11735.2716,W,61.72,142.03,230610,,,A*49
$GPRMC,190926.000,A,3323.2796,N,11735.2449,W,61.23,139.22,230610,,,A*43
$GPRMC,190930.000,A,3323.2290,N,11735.1899,W,60.75,136.76,230610,,,A*49
$GPRMC,190933.000,A,3323.1978,N,11735.1390,W,62.21,128.32,230610,,,A*4A
$GPRMC,190936.000,A,3323.1682,N,11735.0885,W,61.72,123.75,230610,,,A*46
$GPRMC,190939.000,A,3323.1418,N,11735.0351,W,61.72,119.53,230610,,,A*47
$GPRMC,190942.000,A,3323.1186,N,11734.9797,W,61.72,115.66,230610,,,A*45
$GPRMC,190945.000,A,3323.0971,N,11734.9231,W,62.21,114.61,230610,,,A*49
$GPRMC,190948.000,A,3323.0749,N,11734.8667,W,62.21,115.31,230610,,,A*43
$GPRMC,190951.000,A,3323.0530,N,11734.8111,W,62.21,114.96,230610,,,A*4D
$GPRMC,190954.000,A,3323.0311,N,11734.7547,W,62.21,114.96,230610,,,A*45
$GPRMC,190957.000,A,3323.0089,N,11734.6987,W,62.21,114.96,230610,,,A*45
$GPRMC,191000.000,A,3322.9867,N,11734.6421,W,62.21,114.96,230610,,,A*4E
$GPRMC,191003.000,A,3322.9651,N,11734.5854,W,62.21,114.96,230610,,,A*4B
$GPRMC,191006.000,A,3322.9429,N,11734.5294,W,62.21,115.31,230610,,,A*49
$GPRMC,191009.000,A,3322.9213,N,11734.4737,W,62.21,114.96,230610,,,A*48
$GPRMC,191012.000,A,3322.8995,N,11734.4174,W,62.21,114.96,230610,,,A*47
$GPRMC,191015.000,A,3322.8776,N,11734.3614,W,62.21,114.96,230610,,,A*45
$GPRMC,191018.000,A,3322.8560,N,11734.3057,W,61.72,114.96,230610,,,A*49
$GPRMC,191021.000,A,3322.8344,N,11734.2500,W,61.72,114.61,230610,,,A*4D
$GPRMC,191024.000,A,3322.8129,N,11734.1944,W,61.72,114.96,230610,,,A*46
$GPRMC,191027.000,A,3322.7910,N,11734.1387,W,61.72,115.31,230610,,,A*41
$GPRMC,191030.000,A,3322.7691,N,11734.0833,W,61.72,114.96,230610,,,A*48
$GPRMC,191033.000,A,3322.7475,N,11734.0273,W,61.72,114.96,230610,,,A*4D
$GPRMC,191036.000,A,3322.7240,N,11733.9726,W,61.72,118.48,230610,,,A*4C
$GPRMC,191039.000,A,3322.6980,N,11733.9201,W,61.23,120.59,230610,,,A*4A
$GPRMC,191042.000,A,3322.6655,N,11733.8728,W,61.23,128.67,230610,,,A*4B
$GPRMC,191045.000,A,3322.6284,N,11733.8303,W,62.21,136.05,230610,,,A*43
$GPRMC,191048.000,A,3322.5908,N,11733.7882,W,62.21,136.76,230610,,,A*4B
$GPRMC,191051.000,A,3322.5528,N,11733.7454,W,62.69,136.05,230610,,,A*42
$GPRMC,191054.000,A,3322.5168,N,11733.7009,W,61.72,132.89,230610,,,A*42
$GPRMC,191057.000,A,3322.4855,N,11733.6507,W,62.21,125.16,230610,,,A*48
$GPRMC,191100.000,A,3322.4572,N,11733.5992,W,62.21,123.05,230610,,,A*44
$GPRMC,191105.000,A,3322.4102,N,11733.5139,W,61.72,123.40,230610,,,A*4F
$GPRMC,191108.000,A,3322.3819,N,11733.4624,W,61.72,123.40,230610,,,A*4C
$GPRMC,191111.000,A,3322.3536,N,11733.4113,W,61.72,123.05,230610,,,A*46
$GPRMC,191114.000,A,3322.3256,N,11733.3591,W,61.72,123.05,230610,,,A*4B
$GPRMC,191117.000,A,3322.2972,N,11733.3080,W,61.72,123.05,230610,,,A*41
$GPRMC,191120.000,A,3322.2692,N,11733.2565,W,61.72,123.05,230610,,,A*4B
$GPRMC,191123.000,A,3322.2409,N,11733.2050,W,61.72,123.05,230610,,,A*4B
$GPRMC,191126.000,A,3322.2123,N,11733.1531,W,62.21,123.40,230610,,,A*46
$GPRMC,191129.000,A,3322.1839,N,11733.1016,W,61.72,123.05,230610,,,A*4C
$GPRMC,191132.000,A,3322.1559,N,11733.0501,W,61.72,123.40,230610,,,A*4E
$GPRMC,191135.000,A,3322.1273,N,11732.9986,W,62.21,123.05,230610,,,A*49
$GPRMC,191138.000,A,3322.0993,N,11732.9468,W,62.21,123.05,230610,,,A*4D
$GPRMC,191141.000,A,3322.0710,N,11732.8956,W,62.21,123.40,230610,,,A*46
$GPRMC,191144.000,A,3322.0417,N,11732.8441,W,61.72,125.16,230610,,,A*4C
$GPRMC,191147.000,A,3322.0101,N,11732.7946,W,61.72,127.97,230610,,,A*43
$GPRMC,191150.000,A,3321.9780,N,11732.7460,W,61.72,129.02,230610,,,A*4B
$GPRMC,191153.000,A,3321.9451,N,11732.6980,W,62.21,129.02,230610,,,A*40
$GPRMC,191156.000,A,3321.9126,N,11732.6501,W,62.21,129.38,230610,,,A*4C
$GPRMC,191159.000,A,3321.8798,N,11732.6021,W,62.21,129.02,230610,,,A*4F
$GPRMC,191202.000,A,3321.8466,N,11732.5541,W,62.21,129.38,230610,,,A*49
$GPRMC,191205.000,A,3321.8135,N,11732.5062,W,62.21,129.02,230610,,,A*40
$GPRMC,191208.000,A,3321.7807,N,11732.4579,W,62.69,129.38,230610,,,A*41
$GPRMC,191211.000,A,3321.7478,N,11732.4096,W,62.21,129.02,230610,,,A*4C
$GPRMC,191214.000,A,3321.7147,N,11732.3617,W,62.69,129.38,230610,,,A*4D
$GPRMC,191217.000,A,3321.6815,N,11732.3134,W,62.69,129.02,230610,,,A*4E
$GPRMC,191220.000,A,3321.6490,N,11732.2651,W,62.21,129.38,230610,,,A*4B
$GPRMC,191223.000,A,3321.6162,N,11732.2168,W,61.72,129.02,230610,,,A*41
$GPRMC,191226.000,A,3321.5837,N,11732.1695,W,61.23,129.02,230610,,,A*4C
$GPRMC,191229.000,A,3321.5515,N,11732.1222,W,61.23,129.02,230610,,,A*46
$GPRMC,191232.000,A,3321.5190,N,11732.0746,W,61.72,129.38,230610,,,A*4E
$GPRMC,191235.000,A,3321.4861,N,11732.0269,W,62.21,129.38,230610,,,A*42
$GPRMC,191238.000,A,3321.4533,N,11731.9790,W,62.21,129.02,230610,,,A*45
$GPRMC,191241.000,A,3321.4208,N,11731.9307,W,62.21,129.02,230610,,,A*4E
$GPRMC,191244.000,A,3321.3883,N,11731.8827,W,62.69,129.73,230610,,,A*47
$GPRMC,191247.000,A,3321.3551,N,11731.8345,W,62.69,129.02,230610,,,A*4F
$GPRMC,191250.000,A,3321.3220,N,11731.7865,W,62.21,129.38,230610,,,A*4B
$GPRMC,191253.000,A,3321.2892,N,11731.7385,W,62.21,129.38,230610,,,A*4F
$GPRMC,191256.000,A,3321.2560,N,11731.6909,W,62.21,129.38,230610,,,A*45
$GPRMC,191259.000,A,3321.2232,N,11731.6429,W,62.21,129.38,230610,,,A*45
$GPRMC,191302.000,A,3321.1907,N,11731.5950,W,62.21,129.02,230610,,,A*4D
$GPRMC,191305.000,A,3321.1578,N,11731.5470,W,62.21,129.02,230610,,,A*41
$GPRMC,191308.000,A,3321.1250,N,11731.4994,W,61.72,129.02,230610,,,A*42
$GPRMC,191311.000,A,3321.0922,N,11731.4521,W,61.72,129.38,230610,,,A*4E
$GPRMC,191314.000,A,3321.0597,N,11731.4044,W,61.72,129.02,230610,,,A*46
$GPRMC,191317.000,A,3321.0272,N,11731.3571,W,61.72,129.38,230610,,,A*44
$GPRMC,191320.000,A,3320.9943,N,11731.3095,W,62.21,129.02,230610,,,A*42
$GPRMC,191323.000,A,3320.9612,N,11731.2609,W,62.69,129.02,230610,,,A*44
$GPRMC,191326.000,A,3320.9280,N,11731.2129,W,62.21,129.38,230610,,,A*4E
$GPRMC,191329.000,A,3320.8952,N,11731.1650,W,62.21,129.38,230610,,,A*4E
$GPRMC,191332.000,A,3320.8624,N,11731.1173,W,62.21,129.38,230610,,,A*4C
$GPRMC,191335.000,A,3320.8286,N,11731.0694,W,62.69,130.08,230610,,,A*4F
$GPRMC,191338.000,A,3320.7948,N,11731.0224,W,62.21,130.78,230610,,,A*40
$GPRMC,191341.000,A,3320.7607,N,11730.9757,W,62.21,130.78,230610,,,A*43
$GPRMC,191344.000,A,3320.7265,N,11730.9290,W,62.21,131.13,230610,,,A*44
$GPRMC,191347.000,A,3320.6924,N,11730.8824,W,61.72,131.13,230610,,,A*49
$GPRMC,191350.000,A,3320.6590,N,11730.8357,W,61.72,130.78,230610,,,A*4F
$GPRMC,191353.000,A,3320.6252,N,11730.7897,W,61.72,130.78,230610,,,A*4D
$GPRMC,191356.000,A,3320.5914,N,11730.7430,W,61.72,131.13,230610,,,A*4F
$GPRMC,191359.000,A,3320.5572,N,11730.6967,W,62.21,131.13,230610,,,A*47
$GPRMC,191402.000,A,3320.5234,N,11730.6500,W,62.21,130.78,230610,,,A*4A
$GPRMC,191405.000,A,3320.4897,N,11730.6033,W,62.21,131.13,230610,,,A*46
$GPRMC,191408.000,A,3320.4555,N,11730.5566,W,62.21,130.78,230610,,,A*42
$GPRMC,191411.000,A,3320.4214,N,11730.5097,W,62.21,131.13,230610,,,A*4F
$GPRMC,191414.000,A,3320.3873,N,11730.4633,W,62.21,131.13,230610,,,A*4F
$GPRMC,191417.000,A,3320.3535,N,11730.4166,W,62.21,130.78,230610,,,A*48
$GPRMC,191420.000,A,3320.3197,N,11730.3696,W,62.21,130.78,230610,,,A*4F
$GPRMC,191423.000,A,3320.2856,N,11730.3230,W,62.21,130.78,230610,,,A*41
$GPRMC,191426.000,A,3320.2521,N,11730.2760,W,62.21,131.13,230610,,,A*44
$GPRMC,191429.000,A,3320.2180,N,11730.2296,W,62.21,130.78,230610,,,A*44
$GPRMC,191430.000,A,3320.2067,N,11730.2139,W,62.21,130.78,230610,,,A*42
$GPRMC,191435.000,A,3320.1498,N,11730.1360,W,61.72,130.78,230610,,,A*48
$GPRMC,191438.000,A,3320.1160,N,11730.0890,W,61.72,131.13,230610,,,A*4E
$GPRMC,191441.000,A,3320.0822,N,11730.0426,W,62.21,130.78,230610,,,A*46
$GPRMC,191444.000,A,3320.0481,N,11729.9960,W,62.21,130.78,230610,,,A*48
$GPRMC,191447.000,A,3320.0139,N,11729.9490,W,62.21,130.78,230610,,,A*4F
$GPRMC,191450.000,A,3319.9801,N,11729.9026,W,62.21,131.13,230610,,,A*4D
$GPRMC,191453.000,A,3319.9460,N,11729.8559,W,62.21,130.43,230610,,,A*4D
$GPRMC,191456.000,A,3319.9122,N,11729.8090,W,62.21,130.43,230610,,,A*4B
$GPRMC,191459.000,A,3319.8781,N,11729.7620,W,62.69,131.48,230610,,,A*4E
$GPRMC,191502.000,A,3319.8440,N,11729.7153,W,62.21,130.78,230610,,,A*42
$GPRMC,191505.000,A,3319.8099,N,11729.6686,W,62.21,131.13,230610,,,A*47
$GPRMC,191508.000,A,3319.7758,N,11729.6223,W,62.21,131.13,230610,,,A*44
$GPRMC,191511.000,A,3319.7416,N,11729.5756,W,62.21,130.78,230610,,,A*4D
$GPRMC,191514.000,A,3319.7075,N,11729.5289,W,62.21,131.13,230610,,,A*42
$GPRMC,191517.000,A,3319.6734,N,11729.4819,W,62.21,130.78,230610,,,A*4C
$GPRMC,191520.000,A,3319.6393,N,11729.4353,W,62.21,130.78,230610,,,A*44
$GPRMC,191523.000,A,3319.6052,N,11729.3889,W,62.21,131.13,230610,,,A*4E
$GPRMC,191526.000,A,3319.5710,N,11729.3419,W,62.21,130.78,230610,,,A*40
$GPRMC,191529.000,A,3319.5369,N,11729.2949,W,62.21,130.78,230610,,,A*4C
$GPRMC,191532.000,A,3319.5031,N,11729.2483,W,61.72,131.13,230610,,,A*4A
$GPRMC,191535.000,A,3319.4693,N,11729.2019,W,61.72,130.78,230610,,,A*49
$GPRMC,191538.000,A,3319.4359,N,11729.1559,W,61.72,131.13,230610,,,A*49
$GPRMC,191541.000,A,3319.4014,N,11729.1099,W,61.72,132.19,230610,,,A*4D
$GPRMC,191544.000,A,3319.3647,N,11729.0667,W,62.21,138.52,230610,,,A*49
$GPRMC,191547.000,A,3319.3232,N,11729.0300,W,62.21,146.25,230610,,,A*41
$GPRMC,191550.000,A,3319.2782,N,11728.9998,W,62.21,153.28,230610,,,A*42
$GPRMC,191553.000,A,3319.2305,N,11728.9763,W,62.21,160.66,230610,,,A*4A
$GPRMC,191556.000,A,3319.1803,N,11728.9608,W,62.21,167.70,230610,,,A*4D
$GPRMC,191559.000,A,3319.1288,N,11728.9525,W,62.21,174.38,230610,,,A*49
$GPRMC,191602.000,A,3319.0773,N,11728.9476,W,62.21,175.08,230610,,,A*41
$GPRMC,191605.000,A,3319.0248,N,11728.9428,W,62.69,175.08,230610,,,A*4C
$GPRMC,191608.000,A,3318.9727,N,11728.9377,W,62.69,175.43,230610,,,A*47
$GPRMC,191612.000,A,3318.9035,N,11728.9296,W,62.69,172.62,230610,,,A*42
$GPRMC,191617.000,A,3318.8198,N,11728.9035,W,62.21,160.66,230610,,,A*40
$GPRMC,191620.000,A,3318.7719,N,11728.8781,W,62.21,153.28,230610,,,A*47
$GPRMC,191623.000,A,3318.7281,N,11728.8463,W,61.23,146.60,230610,,,A*46
$GPRMC,191626.000,A,3318.6875,N,11728.8083,W,61.23,139.57,230610,,,A*45
$GPRMC,191629.000,A,3318.6505,N,11728.7655,W,61.72,135.00,230610,,,A*48
$GPRMC,191632.000,A,3318.6151,N,11728.7220,W,58.80,134.30,230610,,,A*44
$GPRMC,191635.000,A,3318.5826,N,11728.6815,W,54.92,134.30,230610,,,A*4B
$GPRMC,191638.000,A,3318.5514,N,11728.6435,W,52.97,134.30,230610,,,A*47
$GPRMC,191641.000,A,3318.5198,N,11728.6049,W,55.40,134.65,230610,,,A*4B
$GPRMC,191644.000,A,3318.4860,N,11728.5637,W,59.29,134.65,230610,,,A*4E
$GPRMC,191647.000,A,3318.4503,N,11728.5205,W,61.72,134.65,230610,,,A*45
$GPRMC,191650.000,A,3318.4139,N,11728.4761,W,62.69,134.30,230610,,,A*41
$GPRMC,191653.000,A,3318.3773,N,11728.4314,W,62.69,134.30,230610,,,A*4B
$GPRMC,191656.000,A,3318.3409,N,11728.3870,W,62.21,134.65,230610,,,A*42
$GPRMC,191659.000,A,3318.3045,N,11728.3425,W,62.21,134.65,230610,,,A*4D
$GPRMC,191702.000,A,3318.2681,N,11728.2984,W,62.21,134.30,230610,,,A*4A
$GPRMC,191705.000,A,3318.2314,N,11728.2540,W,62.21,134.65,230610,,,A*40
$GPRMC,191708.000,A,3318.1957,N,11728.2099,W,61.72,134.30,230610,,,A*47
$GPRMC,191711.000,A,3318.1597,N,11728.1668,W,61.72,134.65,230610,,,A*44
$GPRMC,191714.000,A,3318.1236,N,11728.1233,W,61.72,134.30,230610,,,A*47
$GPRMC,191717.000,A,3318.0879,N,11728.0796,W,61.72,134.65,230610,,,A*4F
$GPRMC,191720.000,A,3318.0515,N,11728.0355,W,62.21,134.65,230610,,,A*42
$GPRMC,191723.000,A,3318.0148,N,11727.9917,W,62.21,134.30,230610,,,A*47
$GPRMC,191726.000,A,3317.9781,N,11727.9476,W,62.69,134.65,230610,,,A*41
$GPRMC,191727.000,A,3317.9659,N,11727.9328,W,62.69,134.65,230610,,,A*48
$GPRMC,191732.000,A,3317.9051,N,11727.8581,W,63.18,134.30,230610,,,A*41
$GPRMC,191735.000,A,3317.8687,N,11727.8137,W,62.69,134.30,230610,,,A*44
$GPRMC,191738.000,A,3317.8320,N,11727.7693,W,62.69,134.30,230610,,,A*47
$GPRMC,191741.000,A,3317.7956,N,11727.7249,W,62.21,133.95,230610,,,A*4A
$GPRMC,191744.000,A,3317.7593,N,11727.6811,W,62.21,134.65,230610,,,A*44
$GPRMC,191747.000,A,3317.7232,N,11727.6370,W,61.72,134.30,230610,,,A*42
$GPRMC,191750.000,A,3317.6875,N,11727.5936,W,61.72,134.65,230610,,,A*47
$GPRMC,191753.000,A,3317.6502,N,11727.5514,W,61.72,137.81,230610,,,A*4C
$GPRMC,191756.000,A,3317.6090,N,11727.5147,W,62.21,144.49,230610,,,A*40
$GPRMC,191759.000,A,3317.5655,N,11727.4812,W,61.72,147.30,230610,,,A*43
$GPRMC,191800.000,A,3317.5513,N,11727.4703,W,61.23,147.66,230610,,,A*49
$GPRMC,191806.000,A,3317.4641,N,11727.4049,W,61.72,147.30,230610,,,A*44
$GPRMC,191809.000,A,3317.4203,N,11727.3718,W,62.21,147.30,230610,,,A*48
$GPRMC,191812.000,A,3317.3766,N,11727.3390,W,62.21,147.66,230610,,,A*44
$GPRMC,191815.000,A,3317.3331,N,11727.3061,W,61.72,147.30,230610,,,A*4E
$GPRMC,191819.000,A,3317.2749,N,11727.2620,W,62.21,147.30,230610,,,A*4F
$GPRMC,191822.000,A,3317.2311,N,11727.2289,W,62.21,147.66,230610,,,A*4A
$GPRMC,191826.000,A,3317.1725,N,11727.1848,W,62.21,147.30,230610,,,A*49
$GPRMC,191830.000,A,3317.1146,N,11727.1404,W,62.21,147.30,230610,,,A*49
$GPRMC,191833.000,A,3317.0708,N,11727.1072,W,62.21,147.30,230610,,,A*42
$GPRMC,191836.000,A,3317.0270,N,11727.0737,W,62.21,147.30,230610,,,A*4A
$GPRMC,191839.000,A,3316.9836,N,11727.0403,W,62.21,147.66,230610,,,A*42
$GPRMC,191842.000,A,3316.9395,N,11727.0068,W,62.69,147.66,230610,,,A*49
$GPRMC,191845.000,A,3316.8954,N,11726.9740,W,62.69,147.66,230610,,,A*4D
$GPRMC,191848.000,A,3316.8516,N,11726.9402,W,62.69,147.30,230610,,,A*4C
$GPRMC,191851.000,A,3316.8075,N,11726.9061,W,62.69,147.30,230610,,,A*45
$GPRMC,191854.000,A,3316.7634,N,11726.8729,W,61.72,147.66,230610,,,A*4C
$GPRMC,191857.000,A,3316.7200,N,11726.8407,W,61.23,148.01,230610,,,A*49
$GPRMC,191900.000,A,3316.6772,N,11726.8082,W,61.23,147.30,230610,,,A*4F
$GPRMC,191903.000,A,3316.6337,N,11726.7751,W,61.72,147.30,230610,,,A*4B
$GPRMC,191906.000,A,3316.5899,N,11726.7416,W,62.21,147.66,230610,,,A*44
$GPRMC,191909.000,A,3316.5458,N,11726.7088,W,62.21,148.01,230610,,,A*47
$GPRMC,191912.000,A,3316.5021,N,11726.6753,W,62.21,147.30,230610,,,A*4A
$GPRMC,191913.000,A,3316.4873,N,11726.6643,W,62.21,147.30,230610,,,A*45
$GPRMC,191918.000,A,3316.4145,N,11726.6090,W,62.21,147.30,230610,,,A*4A
$GPRMC,191921.000,A,3316.3720,N,11726.5739,W,62.21,143.79,230610,,,A*4C
$GPRMC,191924.000,A,3316.3324,N,11726.5330,W,62.69,137.46,230610,,,A*47
$GPRMC,191929.000,A,3316.2739,N,11726.4561,W,62.21,131.48,230610,,,A*44
$GPRMC,191932.000,A,3316.2394,N,11726.4097,W,62.21,131.13,230610,,,A*4F
$GPRMC,191935.000,A,3316.2056,N,11726.3637,W,61.23,131.48,230610,,,A*41
$GPRMC,191938.000,A,3316.1718,N,11726.3174,W,61.23,131.13,230610,,,A*4C
$GPRMC,191941.000,A,3316.1377,N,11726.2713,W,61.72,131.48,230610,,,A*43
$GPRMC,191944.000,A,3316.1036,N,11726.2250,W,61.72,131.13,230610,,,A*4C
$GPRMC,191947.000,A,3316.0692,N,11726.1786,W,62.21,131.84,230610,,,A*40
$GPRMC,191950.000,A,3316.0350,N,11726.1320,W,62.21,131.13,230610,,,A*4B
$GPRMC,191953.000,A,3316.0009,N,11726.0856,W,62.21,131.48,230610,,,A*42
$GPRMC,191956.000,A,3315.9668,N,11726.0396,W,61.72,131.48,230610,,,A*4E
$GPRMC,191959.000,A,3315.9327,N,11725.9939,W,61.23,131.48,230610,,,A*4E
$GPRMC,192002.000,A,3315.8989,N,11725.9488,W,61.23,132.19,230610,,,A*45
$GPRMC,192005.000,A,3315.8622,N,11725.9054,W,61.72,137.11,230610,,,A*40
$GPRMC,192008.000,A,3315.8210,N,11725.8671,W,62.69,143.44,230610,,,A*42
$GPRMC,192011.000,A,3315.7779,N,11725.8326,W,62.21,146.25,230610,,,A*46
$GPRMC,192014.000,A,3315.7347,N,11725.7985,W,61.72,146.60,230610,,,A*42
$GPRMC,192017.000,A,3315.6913,N,11725.7650,W,61.72,146.60,230610,,,A*4C
$GPRMC,192020.000,A,3315.6485,N,11725.7309,W,62.21,146.60,230610,,,A*46
$GPRMC,192023.000,A,3315.6050,N,11725.6978,W,62.21,146.60,230610,,,A*44
$GPRMC,192026.000,A,3315.5616,N,11725.6633,W,62.69,146.25,230610,,,A*4B
$GPRMC,192029.000,A,3315.5184,N,11725.6289,W,62.21,146.25,230610,,,A*41
$GPRMC,192032.000,A,3315.4753,N,11725.5948,W,62.21,146.25,230610,,,A*43
$GPRMC,192035.000,A,3315.4322,N,11725.5610,W,61.72,146.60,230610,,,A*40
$GPRMC,192038.000,A,3315.3894,N,11725.5269,W,61.23,146.60,230610,,,A*42
$GPRMC,192041.000,A,3315.3466,N,11725.4927,W,62.21,146.60,230610,,,A*4C
$GPRMC,192044.000,A,3315.3034,N,11725.4593,W,61.23,146.95,230610,,,A*42
$GPRMC,192047.000,A,3315.2606,N,11725.4258,W,61.23,146.60,230610,,,A*4D
$GPRMC,192050.000,A,3315.2178,N,11725.3926,W,61.23,146.95,230610,,,A*4A
$GPRMC,192053.000,A,3315.1747,N,11725.3579,W,61.72,146.60,230610,,,A*48
$GPRMC,192056.000,A,3315.1316,N,11725.3234,W,61.72,146.25,230610,,,A*42
$GPRMC,192059.000,A,3315.0888,N,11725.2893,W,60.75,146.60,230610,,,A*41
$GPRMC,192102.000,A,3315.0466,N,11725.2555,W,60.26,146.25,230610,,,A*42
$GPRMC,192105.000,A,3315.0047,N,11725.2227,W,60.26,146.60,230610,,,A*41
$GPRMC,192108.000,A,3314.9626,N,11725.1889,W,60.26,146.60,230610,,,A*48
$GPRMC,192111.000,A,3314.9207,N,11725.1554,W,60.26,146.25,230610,,,A*4B
$GPRMC,192114.000,A,3314.8783,N,11725.1226,W,60.75,148.01,230610,,,A*4A
$GPRMC,192117.000,A,3314.8332,N,11725.0940,W,61.23,155.04,230610,,,A*46
$GPRMC,192120.000,A,3314.7856,N,11725.0721,W,61.23,159.26,230610,,,A*41
$GPRMC,192123.000,A,3314.7376,N,11725.0502,W,61.23,159.61,230610,,,A*4B
$GPRMC,192125.000,A,3314.7054,N,11725.0360,W,61.23,159.61,230610,,,A*4C
$GPRMC,192130.000,A,3314.6259,N,11724.9996,W,61.23,158.91,230610,,,A*43
$GPRMC,192133.000,A,3314.5792,N,11724.9752,W,61.23,154.69,230610,,,A*4C
$GPRMC,192137.000,A,3314.5207,N,11724.9353,W,60.26,147.30,230610,,,A*4E
$GPRMC,192140.000,A,3314.4804,N,11724.8979,W,60.75,140.62,230610,,,A*43
$GPRMC,192144.000,A,3314.4325,N,11724.8400,W,60.75,131.84,230610,,,A*42
$GPRMC,192147.000,A,3314.4013,N,11724.7917,W,61.23,126.21,230610,,,A*48
$GPRMC,192150.000,A,3314.3716,N,11724.7415,W,61.23,125.16,230610,,,A*43
$GPRMC,192153.000,A,3314.3427,N,11724.6913,W,61.23,124.80,230610,,,A*45
$GPRMC,192156.000,A,3314.3137,N,11724.6411,W,61.23,124.80,230610,,,A*4B
$GPRMC,192159.000,A,3314.2838,N,11724.5915,W,61.23,127.27,230610,,,A*47
$GPRMC,192200.000,A,3314.2728,N,11724.5758,W,61.72,129.02,230610,,,A*4C
$GPRMC,192205.000,A,3314.2133,N,11724.5024,W,61.23,136.05,230610,,,A*44
$GPRMC,192208.000,A,3314.1759,N,11724.4605,W,61.23,136.41,230610,,,A*44
$GPRMC,192211.000,A,3314.1393,N,11724.4187,W,61.23,136.41,230610,,,A*43
$GPRMC,192214.000,A,3314.1019,N,11724.3772,W,60.75,137.11,230610,,,A*4A
$GPRMC,192217.000,A,3314.0659,N,11724.3372,W,57.83,136.76,230610,,,A*43
$GPRMC,192220.000,A,3314.0318,N,11724.2986,W,55.89,136.76,230610,,,A*4F
$GPRMC,192223.000,A,3313.9983,N,11724.2619,W,53.94,137.11,230610,,,A*49
$GPRMC,192226.000,A,3313.9664,N,11724.2262,W,52.00,136.76,230610,,,A*4E
$GPRMC,192229.000,A,3313.9362,N,11724.1918,W,49.57,136.41,230610,,,A*4B
$GPRMC,192232.000,A,3313.9069,N,11724.1589,W,47.63,136.76,230610,,,A*40
$GPRMC,192235.000,A,3313.8789,N,11724.1280,W,45.20,137.11,230610,,,A*44
$GPRMC,192238.000,A,3313.8515,N,11724.0971,W,46.17,136.76,230610,,,A*4D
$GPRMC,192241.000,A,3313.8229,N,11724.0650,W,47.63,136.76,230610,,,A*45
$GPRMC,192244.000,A,3313.7929,N,11724.0318,W,49.57,137.11,230610,,,A*44
$GPRMC,192247.000,A,3313.7617,N,11723.9974,W,51.03,136.76,230610,,,A*43
$GPRMC,192250.000,A,3313.7295,N,11723.9616,W,52.97,137.11,230610,,,A*4E
$GPRMC,192253.000,A,3313.6967,N,11723.9253,W,53.94,137.11,230610,,,A*4D
$GPRMC,192256.000,A,3313.6639,N,11723.8886,W,53.46,136.76,230610,,,A*40
$GPRMC,192259.000,A,3313.6310,N,11723.8522,W,53.94,136.41,230610,,,A*49
$GPRMC,192302.000,A,3313.5985,N,11723.8152,W,54.43,137.11,230610,,,A*49
$GPRMC,192305.000,A,3313.5647,N,11723.7778,W,54.92,137.11,230610,,,A*42
$GPRMC,192308.000,A,3313.5306,N,11723.7405,W,55.89,137.46,230610,,,A*4F
$GPRMC,192311.000,A,3313.4958,N,11723.7022,W,56.86,137.11,230610,,,A*48
$GPRMC,192314.000,A,3313.4611,N,11723.6629,W,57.83,136.76,230610,,,A*47
$GPRMC,192317.000,A,3313.4247,N,11723.6237,W,59.29,137.81,230610,,,A*4F
$GPRMC,192320.000,A,3313.3858,N,11723.5857,W,61.23,142.38,230610,,,A*46
$GPRMC,192323.000,A,3313.3423,N,11723.5529,W,61.72,150.12,230610,,,A*4E
$GPRMC,192325.000,A,3313.3108,N,11723.5348,W,62.21,155.04,230610,,,A*42
$GPRMC,192330.000,A,3313.2287,N,11723.5027,W,61.23,164.88,230610,,,A*4E
$GPRMC,192333.000,A,3313.1791,N,11723.4875,W,60.75,165.94,230610,,,A*4C
$GPRMC,192336.000,A,3313.1296,N,11723.4734,W,61.23,166.29,230610,,,A*46
$GPRMC,192339.000,A,3313.0797,N,11723.4586,W,61.72,165.94,230610,,,A*46
$GPRMC,192342.000,A,3313.0298,N,11723.4434,W,61.72,165.94,230610,,,A*48
$GPRMC,192345.000,A,3312.9799,N,11723.4283,W,61.72,165.59,230610,,,A*48
$GPRMC,192348.000,A,3312.9300,N,11723.4135,W,61.72,165.94,230610,,,A*4E
$GPRMC,192351.000,A,3312.8804,N,11723.3968,W,61.72,162.77,230610,,,A*45
$GPRMC,192354.000,A,3312.8328,N,11723.3736,W,61.23,155.74,230610,,,A*43
$GPRMC,192357.000,A,3312.7874,N,11723.3462,W,61.23,152.23,230610,,,A*4A
$GPRMC,192400.000,A,3312.7417,N,11723.3176,W,61.72,151.88,230610,,,A*40
$GPRMC,192403.000,A,3312.6960,N,11723.2889,W,62.21,152.23,230610,,,A*40
$GPRMC,192406.000,A,3312.6500,N,11723.2596,W,62.21,151.88,230610,,,A*4E
$GPRMC,192409.000,A,3312.6040,N,11723.2310,W,62.21,152.23,230610,,,A*4A
$GPRMC,192412.000,A,3312.5579,N,11723.2027,W,61.72,152.23,230610,,,A*4E
$GPRMC,192415.000,A,3312.5122,N,11723.1737,W,61.72,152.23,230610,,,A*46
$GPRMC,192418.000,A,3312.4665,N,11723.1451,W,61.72,152.23,230610,,,A*4D
$GPRMC,192421.000,A,3312.4211,N,11723.1158,W,61.72,151.17,230610,,,A*48
$GPRMC,192424.000,A,3312.3761,N,11723.0858,W,61.72,149.41,230610,,,A*4A
$GPRMC,192427.000,A,3312.3336,N,11723.0511,W,61.72,143.44,230610,,,A*40
$GPRMC,192430.000,A,3312.2943,N,11723.0115,W,61.23,138.16,230610,,,A*40
$GPRMC,192433.000,A,3312.2589,N,11722.9677,W,60.75,131.84,230610,,,A*42
$GPRMC,192436.000,A,3312.2277,N,11722.9198,W,60.75,126.21,230610,,,A*4E
$GPRMC,192439.000,A,3312.2010,N,11722.8683,W,60.75,119.88,230610,,,A*41
$GPRMC,192442.000,A,3312.1785,N,11722.8139,W,60.75,114.61,230610,,,A*49
$GPRMC,192445.000,A,3312.1591,N,11722.7582,W,61.23,112.15,230610,,,A*45
$GPRMC,192448.000,A,3312.1395,N,11722.7009,W,62.21,112.15,230610,,,A*4D
$GPRMC,192451.000,A,3312.1202,N,11722.6433,W,62.69,112.15,230610,,,A*4A
$GPRMC,192454.000,A,3312.1006,N,11722.5853,W,62.69,112.15,230610,,,A*40
$GPRMC,192457.000,A,3312.0809,N,11722.5271,W,62.69,112.15,230610,,,A*4F
$GPRMC,192500.000,A,3312.0616,N,11722.4701,W,61.72,112.15,230610,,,A*46
$GPRMC,192505.000,A,3312.0298,N,11722.3784,W,60.26,112.15,230610,,,A*4B
$GPRMC,192508.000,A,3312.0092,N,11722.3230,W,61.23,114.96,230610,,,A*4D
$GPRMC,192511.000,A,3311.9834,N,11722.2689,W,62.21,121.64,230610,,,A*46
$GPRMC,192514.000,A,3311.9528,N,11722.2187,W,62.21,127.97,230610,,,A*40
$GPRMC,192517.000,A,3311.9177,N,11722.1724,W,62.21,134.30,230610,,,A*4E
$GPRMC,192520.000,A,3311.8788,N,11722.1309,W,62.21,139.57,230610,,,A*4A
$GPRMC,192523.000,A,3311.8370,N,11722.0938,W,62.21,144.49,230610,,,A*46
$GPRMC,192527.000,A,3311.7800,N,11722.0472,W,61.72,145.20,230610,,,A*49
$GPRMC,192530.000,A,3311.7369,N,11722.0118,W,62.69,145.20,230610,,,A*4B
$GPRMC,192533.000,A,3311.6940,N,11721.9767,W,61.72,145.20,230610,,,A*45
$GPRMC,192536.000,A,3311.6516,N,11721.9413,W,62.21,145.20,230610,,,A*4A
$GPRMC,192539.000,A,3311.6088,N,11721.9062,W,62.21,145.55,230610,,,A*47
$GPRMC,192542.000,A,3311.5659,N,11721.8705,W,62.21,144.84,230610,,,A*48
$GPRMC,192545.000,A,3311.5235,N,11721.8357,W,62.21,145.20,230610,,,A*4D
$GPRMC,192548.000,A,3311.4810,N,11721.8003,W,62.21,144.84,230610,,,A*41
$GPRMC,192551.000,A,3311.4388,N,11721.7652,W,62.21,145.20,230610,,,A*41
$GPRMC,192554.000,A,3311.3963,N,11721.7298,W,62.21,145.20,230610,,,A*4E
$GPRMC,192557.000,A,3311.3535,N,11721.6954,W,61.23,145.20,230610,,,A*49
$GPRMC,192600.000,A,3311.3123,N,11721.6606,W,60.75,144.49,230610,,,A*4F
$GPRMC,192603.000,A,3311.2708,N,11721.6255,W,60.75,145.20,230610,,,A*4E
$GPRMC,192606.000,A,3311.2286,N,11721.5905,W,61.72,144.84,230610,,,A*4C
$GPRMC,192609.000,A,3311.1865,N,11721.5560,W,61.72,145.20,230610,,,A*47
$GPRMC,192612.000,A,3311.1440,N,11721.5213,W,61.72,145.20,230610,,,A*45
$GPRMC,192615.000,A,3311.1018,N,11721.4862,W,61.72,144.84,230610,,,A*49
$GPRMC,192618.000,A,3311.0593,N,11721.4511,W,61.72,145.55,230610,,,A*47
$GPRMC,192621.000,A,3311.0168,N,11721.4163,W,61.23,145.20,230610,,,A*4A
$GPRMC,192624.000,A,3310.9776,N,11721.3838,W,54.92,144.84,230610,,,A*4D
$GPRMC,192627.000,A,3310.9418,N,11721.3536,W,52.00,144.84,230610,,,A*4B
$GPRMC,192630.000,A,3310.9071,N,11721.3243,W,50.54,144.84,230610,,,A*40
$GPRMC,192633.000,A,3310.8730,N,11721.2956,W,49.57,145.20,230610,,,A*4A
$GPRMC,192636.000,A,3310.8395,N,11721.2683,W,48.11,145.55,230610,,,A*42
$GPRMC,192639.000,A,3310.8070,N,11721.2416,W,47.14,145.55,230610,,,A*41
$GPRMC,192642.000,A,3310.7751,N,11721.2148,W,47.14,145.20,230610,,,A*4A
$GPRMC,192645.000,A,3310.7426,N,11721.1875,W,47.63,144.84,230610,,,A*45
$GPRMC,192648.000,A,3310.7101,N,11721.1601,W,48.11,145.20,230610,,,A*40
$GPRMC,192651.000,A,3310.6763,N,11721.1321,W,49.57,145.20,230610,,,A*4F
$GPRMC,192654.000,A,3310.6412,N,11721.1031,W,52.49,145.55,230610,,,A*4A
$GPRMC,192657.000,A,3310.6029,N,11721.0729,W,57.35,146.95,230610,,,A*4B
$GPRMC,192700.000,A,3310.5598,N,11721.0407,W,61.72,147.66,230610,,,A*40
$GPRMC,192703.000,A,3310.5157,N,11721.0069,W,63.18,147.66,230610,,,A*46
$GPRMC,192706.000,A,3310.4716,N,11720.9734,W,61.72,147.66,230610,,,A*48
$GPRMC,192709.000,A,3310.4291,N,11720.9416,W,58.80,147.66,230610,,,A*49
$GPRMC,192712.000,A,3310.3882,N,11720.9110,W,57.83,148.36,230610,,,A*49
$GPRMC,192715.000,A,3310.3470,N,11720.8804,W,58.32,147.66,230610,,,A*4D
$GPRMC,192718.000,A,3310.3058,N,11720.8492,W,58.80,148.01,230610,,,A*4A
$GPRMC,192721.000,A,3310.2643,N,11720.8183,W,58.80,148.01,230610,,,A*48
$GPRMC,192724.000,A,3310.2228,N,11720.7874,W,58.80,148.01,230610,,,A*4A
$GPRMC,192727.000,A,3310.1813,N,11720.7562,W,58.80,148.36,230610,,,A*46
$GPRMC,192730.000,A,3310.1388,N,11720.7259,W,58.80,150.47,230610,,,A*49
$GPRMC,192732.000,A,3310.1098,N,11720.7076,W,59.29,152.58,230610,,,A*48
$GPRMC,192738.000,A,3310.0200,N,11720.6577,W,59.29,156.80,230610,,,A*44
$GPRMC,192741.000,A,3309.9743,N,11720.6348,W,59.29,156.80,230610,,,A*43
$GPRMC,192744.000,A,3309.9286,N,11720.6117,W,59.29,156.80,230610,,,A*42
$GPRMC,192747.000,A,3309.8832,N,11720.5882,W,58.80,156.80,230610,,,A*41
$GPRMC,192751.000,A,3309.8227,N,11720.5573,W,59.29,156.80,230610,,,A*49
$GPRMC,192755.000,A,3309.7616,N,11720.5264,W,59.78,156.80,230610,,,A*41
$GPRMC,192757.000,A,3309.7310,N,11720.5106,W,59.78,156.80,230610,,,A*47
$GPRMC,192801.000,A,3309.6702,N,11720.4797,W,59.29,156.80,230610,,,A*46
$GPRMC,192803.000,A,3309.6399,N,11720.4639,W,59.29,156.80,230610,,,A*47
$GPRMC,192807.000,A,3309.5794,N,11720.4330,W,59.29,156.45,230610,,,A*4C
$GPRMC,192810.000,A,3309.5340,N,11720.4102,W,59.29,156.80,230610,,,A*4D
$GPRMC,192812.000,A,3309.5038,N,11720.3947,W,59.29,156.80,230610,,,A*4D
$GPRMC,192817.000,A,3309.4278,N,11720.3564,W,59.29,157.15,230610,,,A*4F
$GPRMC,192820.000,A,3309.3818,N,11720.3332,W,59.29,157.15,230610,,,A*45
$GPRMC,192823.000,A,3309.3361,N,11720.3104,W,59.78,157.15,230610,,,A*40
$GPRMC,192825.000,A,3309.3058,N,11720.2946,W,59.78,156.09,230610,,,A*4C
$GPRMC,192831.000,A,3309.2160,N,11720.2434,W,59.29,153.98,230610,,,A*43
$GPRMC,192834.000,A,3309.1716,N,11720.2174,W,59.29,153.98,230610,,,A*43
$GPRMC,192837.000,A,3309.1265,N,11720.1919,W,60.75,155.04,230610,,,A*41
$GPRMC,192840.000,A,3309.0821,N,11720.1665,W,58.80,153.98,230610,,,A*4C
$GPRMC,192843.000,A,3309.0380,N,11720.1405,W,59.29,153.63,230610,,,A*4D
$GPRMC,192846.000,A,3308.9936,N,11720.1147,W,59.29,153.98,230610,,,A*40
$GPRMC,192849.000,A,3308.9489,N,11720.0886,W,59.29,154.34,230610,,,A*42
$GPRMC,192852.000,A,3308.9041,N,11720.0635,W,59.78,155.74,230610,,,A*4F
$GPRMC,192855.000,A,3308.8578,N,11720.0436,W,59.29,162.42,230610,,,A*42
$GPRMC,192858.000,A,3308.8095,N,11720.0307,W,59.29,169.10,230610,,,A*40
$GPRMC,192901.000,A,3308.7599,N,11720.0239,W,60.26,174.73,230610,,,A*4B
$GPRMC,192904.000,A,3308.7107,N,11720.0226,W,59.78,177.54,230610,,,A*44
$GPRMC,192906.000,A,3308.6772,N,11720.0207,W,59.78,177.54,230610,,,A*40
$GPRMC,192910.000,A,3308.6109,N,11720.0175,W,59.78,176.84,230610,,,A*47
$GPRMC,192914.000,A,3308.5462,N,11720.0066,W,56.37,167.70,230610,,,A*44
$GPRMC,192920.000,A,3308.4696,N,11719.9728,W,45.68,156.80,230610,,,A*40
$GPRMC,192923.000,A,3308.4355,N,11719.9560,W,44.22,157.15,230610,,,A*45
$GPRMC,192926.000,A,3308.4017,N,11719.9386,W,43.74,156.45,230610,,,A*4B
$GPRMC,192929.000,A,3308.3676,N,11719.9209,W,44.71,156.80,230610,,,A*4F
$GPRMC,192932.000,A,3308.3325,N,11719.9032,W,46.17,156.80,230610,,,A*4E
$GPRMC,192935.000,A,3308.2971,N,11719.8849,W,46.65,156.80,230610,,,A*43
$GPRMC,192937.000,A,3308.2726,N,11719.8727,W,48.11,156.80,230610,,,A*47
$GPRMC,192941.000,A,3308.2211,N,11719.8466,W,51.51,157.15,230610,,,A*40
$GPRMC,192948.000,A,3308.1304,N,11719.8006,W,50.06,156.80,230610,,,A*43
$GPRMC,192951.000,A,3308.0917,N,11719.7816,W,50.06,157.15,230610,,,A*49
$GPRMC,192954.000,A,3308.0525,N,11719.7613,W,52.97,156.80,230610,,,A*4D
$GPRMC,192957.000,A,3308.0087,N,11719.7381,W,58.80,155.74,230610,,,A*49
$GPRMC,193000.000,A,3307.9630,N,11719.7124,W,61.23,153.98,230610,,,A*45
$GPRMC,193003.000,A,3307.9170,N,11719.6850,W,61.23,153.98,230610,,,A*4E
$GPRMC,193006.000,A,3307.8716,N,11719.6573,W,59.78,153.28,230610,,,A*4E
$GPRMC,193009.000,A,3307.8272,N,11719.6309,W,59.78,153.28,230610,,,A*4D
$GPRMC,193012.000,A,3307.7818,N,11719.6039,W,60.75,153.63,230610,,,A*46
$GPRMC,193014.000,A,3307.7515,N,11719.5859,W,61.23,153.28,230610,,,A*40
$GPRMC,193018.000,A,3307.6904,N,11719.5485,W,61.72,152.93,230610,,,A*49
$GPRMC,193021.000,A,3307.6447,N,11719.5212,W,61.23,153.28,230610,,,A*44
$GPRMC,193024.000,A,3307.5990,N,11719.4935,W,61.23,153.28,230610,,,A*4A
$GPRMC,193027.000,A,3307.5529,N,11719.4661,W,61.72,153.28,230610,,,A*4D
$GPRMC,193030.000,A,3307.5072,N,11719.4385,W,61.23,153.28,230610,,,A*4B
$GPRMC,193033.000,A,3307.4615,N,11719.4111,W,61.23,153.28,230610,,,A*41
$GPRMC,193035.000,A,3307.4306,N,11719.3924,W,61.72,152.93,230610,,,A*4C
$GPRMC,193038.000,A,3307.3852,N,11719.3648,W,61.23,153.28,230610,,,A*4C
$GPRMC,193042.000,A,3307.3241,N,11719.3281,W,61.23,153.28,230610,,,A*48
$GPRMC,193043.000,A,3307.3090,N,11719.3191,W,61.23,153.63,230610,,,A*4A
$GPRMC,193048.000,A,3307.2327,N,11719.2733,W,61.72,153.28,230610,,,A*4B
$GPRMC,193051.000,A,3307.1866,N,11719.2460,W,61.72,153.28,230610,,,A*4B
$GPRMC,193056.000,A,3307.1107,N,11719.1996,W,61.23,153.28,230610,,,A*41
$GPRMC,193059.000,A,3307.0647,N,11719.1726,W,61.72,153.28,230610,,,A*4D
$GPRMC,193102.000,A,3307.0190,N,11719.1456,W,60.75,153.28,230610,,,A*4D
$GPRMC,193104.000,A,3306.9893,N,11719.1275,W,59.29,153.28,230610,,,A*4D
$GPRMC,193108.000,A,3306.9321,N,11719.0931,W,56.37,153.28,230610,,,A*49
$GPRMC,193111.000,A,3306.8912,N,11719.0683,W,54.92,153.28,230610,,,A*41
$GPRMC,193114.000,A,3306.8500,N,11719.0435,W,55.89,153.28,230610,,,A*4F
$GPRMC,193118.000,A,3306.7936,N,11719.0101,W,56.37,153.28,230610,,,A*41
$GPRMC,193121.000,A,3306.7521,N,11718.9846,W,55.89,152.93,230610,,,A*44
$GPRMC,193124.000,A,3306.7103,N,11718.9598,W,55.89,152.93,230610,,,A*4B
$GPRMC,193127.000,A,3306.6681,N,11718.9347,W,55.89,153.28,230610,,,A*41
$GPRMC,193129.000,A,3306.6401,N,11718.9180,W,56.37,153.63,230610,,,A*45
$GPRMC,193135.000,A,3306.5597,N,11718.8700,W,47.63,152.93,230610,,,A*45
$GPRMC,193138.000,A,3306.5255,N,11718.8494,W,43.74,152.58,230610,,,A*4A
$GPRMC,193141.000,A,3306.4950,N,11718.8301,W,40.82,151.88,230610,,,A*44
$GPRMC,193144.000,A,3306.4657,N,11718.8118,W,39.36,151.88,230610,,,A*42
$GPRMC,193147.000,A,3306.4364,N,11718.7931,W,40.34,151.88,230610,,,A*44
$GPRMC,193148.000,A,3306.4264,N,11718.7870,W,40.82,151.88,230610,,,A*43
$GPRMC,193152.000,A,3306.3852,N,11718.7606,W,42.77,151.17,230610,,,A*41
$GPRMC,193157.000,A,3306.3311,N,11718.7252,W,45.20,151.17,230610,,,A*48
$GPRMC,193159.000,A,3306.3086,N,11718.7101,W,46.17,151.52,230610,,,A*48
$GPRMC,193203.000,A,3306.2622,N,11718.6798,W,48.11,151.17,230610,,,A*43
$GPRMC,193206.000,A,3306.2262,N,11718.6563,W,50.06,151.17,230610,,,A*4F
$GPRMC,193208.000,A,3306.2008,N,11718.6393,W,52.49,150.47,230610,,,A*4B
$GPRMC,193216.000,A,3306.0952,N,11718.5707,W,53.46,151.17,230610,,,A*40
$GPRMC,193219.000,A,3306.0553,N,11718.5450,W,53.94,151.52,230610,,,A*4D
$GPRMC,193222.000,A,3306.0154,N,11718.5186,W,54.92,151.17,230610,,,A*48
$GPRMC,193225.000,A,3305.9751,N,11718.4922,W,54.92,151.17,230610,,,A*41
$GPRMC,193228.000,A,3305.9349,N,11718.4661,W,54.92,151.52,230610,,,A*48
$GPRMC,193232.000,A,3305.8805,N,11718.4313,W,56.37,151.52,230610,,,A*4C
$GPRMC,193235.000,A,3305.8380,N,11718.4037,W,59.29,151.17,230610,,,A*49
$GPRMC,193238.000,A,3305.7939,N,11718.3744,W,61.23,151.17,230610,,,A*46
$GPRMC,193241.000,A,3305.7489,N,11718.3448,W,61.72,151.17,230610,,,A*45
$GPRMC,193242.000,A,3305.7337,N,11718.3348,W,61.72,151.52,230610,,,A*42
$GPRMC,193245.000,A,3305.6887,N,11718.3058,W,61.23,151.17,230610,,,A*43
$GPRMC,193249.000,A,3305.6291,N,11718.2666,W,61.72,151.17,230610,,,A*4C
$GPRMC,193258.000,A,3305.4936,N,11718.1780,W,61.72,151.17,230610,,,A*42
$GPRMC,193301.000,A,3305.4486,N,11718.1487,W,61.72,151.88,230610,,,A*4B
$GPRMC,193304.000,A,3305.4035,N,11718.1198,W,61.72,151.52,230610,,,A*4E
$GPRMC,193307.000,A,3305.3588,N,11718.0908,W,61.23,151.17,230610,,,A*4C
$GPRMC,193310.000,A,3305.3140,N,11718.0618,W,61.23,151.17,230610,,,A*44
$GPRMC,193313.000,A,3305.2699,N,11718.0322,W,61.23,151.17,230610,,,A*49
$GPRMC,193316.000,A,3305.2249,N,11718.0029,W,61.23,151.52,230610,,,A*4C
$GPRMC,193319.000,A,3305.1798,N,11717.9740,W,61.72,151.52,230610,,,A*43
$GPRMC,193322.000,A,3305.1348,N,11717.9447,W,61.23,151.17,230610,,,A*43
$GPRMC,193325.000,A,3305.0900,N,11717.9157,W,61.23,152.23,230610,,,A*43
$GPRMC,193328.000,A,3305.0440,N,11717.8909,W,60.26,157.15,230610,,,A*41
$GPRMC,193331.000,A,3304.9957,N,11717.8713,W,61.23,161.72,230610,,,A*4F
$GPRMC,193334.000,A,3304.9471,N,11717.8552,W,59.29,165.23,230610,,,A*45
$GPRMC,193337.000,A,3304.9014,N,11717.8417,W,55.89,166.29,230610,,,A*4E
$GPRMC,193340.000,A,3304.8576,N,11717.8291,W,52.97,165.94,230610,,,A*4B
$GPRMC,193343.000,A,3304.8158,N,11717.8166,W,51.51,165.59,230610,,,A*43
$GPRMC,193346.000,A,3304.7739,N,11717.8044,W,51.51,165.94,230610,,,A*48
$GPRMC,193349.000,A,3304.7305,N,11717.7915,W,54.92,166.29,230610,,,A*41
$GPRMC,193352.000,A,3304.6838,N,11717.7780,W,58.32,165.94,230610,,,A*4E
$GPRMC,193355.000,A,3304.6359,N,11717.7641,W,59.78,166.29,230610,,,A*43
$GPRMC,193358.000,A,3304.5869,N,11717.7496,W,60.75,165.94,230610,,,A*4F
$GPRMC,193401.000,A,3304.5374,N,11717.7355,W,61.23,165.94,230610,,,A*49
$GPRMC,193403.000,A,3304.5042,N,11717.7258,W,61.23,166.29,230610,,,A*44
$GPRMC,193407.000,A,3304.4376,N,11717.7055,W,61.23,165.94,230610,,,A*4F
$GPRMC,193410.000,A,3304.3884,N,11717.6911,W,61.23,165.94,230610,,,A*40
$GPRMC,193413.000,A,3304.3385,N,11717.6756,W,61.23,165.59,230610,,,A*45
$GPRMC,193416.000,A,3304.2889,N,11717.6605,W,61.23,165.94,230610,,,A*40
$GPRMC,193420.000,A,3304.2219,N,11717.6405,W,61.23,165.59,230610,,,A*45
$GPRMC,193423.000,A,3304.1727,N,11717.6251,W,61.23,165.23,230610,,,A*47
$GPRMC,193426.000,A,3304.1228,N,11717.6099,W,61.23,165.94,230610,,,A*42
$GPRMC,193429.000,A,3304.0732,N,11717.5948,W,61.23,165.59,230610,,,A*45
$GPRMC,193432.000,A,3304.0234,N,11717.5794,W,61.23,165.59,230610,,,A*43
$GPRMC,193435.000,A,3303.9738,N,11717.5642,W,61.23,165.59,230610,,,A*49
$GPRMC,193438.000,A,3303.9239,N,11717.5494,W,61.23,165.59,230610,,,A*49
$GPRMC,193441.000,A,3303.8740,N,11717.5350,W,61.23,165.94,230610,,,A*43
$GPRMC,193444.000,A,3303.8244,N,11717.5205,W,61.23,165.94,230610,,,A*46
$GPRMC,193447.000,A,3303.7746,N,11717.5060,W,61.72,165.94,230610,,,A*48
$GPRMC,193450.000,A,3303.7247,N,11717.4912,W,61.72,165.59,230610,,,A*46
$GPRMC,193453.000,A,3303.6741,N,11717.4757,W,62.21,165.94,230610,,,A*4C
$GPRMC,193456.000,A,3303.6239,N,11717.4603,W,61.72,165.59,230610,,,A*47
$GPRMC,193459.000,A,3303.5737,N,11717.4455,W,61.72,165.94,230610,,,A*40
$GPRMC,193502.000,A,3303.5241,N,11717.4297,W,61.72,165.59,230610,,,A*42
$GPRMC,193505.000,A,3303.4739,N,11717.4139,W,61.72,165.59,230610,,,A*49
$GPRMC,193508.000,A,3303.4244,N,11717.3988,W,61.72,165.94,230610,,,A*4F
$GPRMC,193511.000,A,3303.3738,N,11717.3837,W,61.72,165.94,230610,,,A*4B
$GPRMC,193514.000,A,3303.3243,N,11717.3685,W,61.72,165.94,230610,,,A*40
$GPRMC,193517.000,A,3303.2741,N,11717.3537,W,61.23,165.94,230610,,,A*4B
$GPRMC,193520.000,A,3303.2245,N,11717.3386,W,61.72,165.94,230610,,,A*46
$GPRMC,193523.000,A,3303.1749,N,11717.3235,W,61.72,165.59,230610,,,A*47
$GPRMC,193526.000,A,3303.1250,N,11717.3084,W,61.72,165.94,230610,,,A*46
$GPRMC,193529.000,A,3303.0755,N,11717.2932,W,61.23,165.59,230610,,,A*48
$GPRMC,193532.000,A,3303.0259,N,11717.2778,W,61.23,165.59,230610,,,A*4B
$GPRMC,193535.000,A,3302.9763,N,11717.2627,W,61.23,165.59,230610,,,A*43
$GPRMC,193538.000,A,3302.9268,N,11717.2478,W,61.23,165.94,230610,,,A*49
$GPRMC,193541.000,A,3302.8772,N,11717.2330,W,61.23,165.94,230610,,,A*43
$GPRMC,193544.000,A,3302.8273,N,11717.2182,W,61.23,165.94,230610,,,A*49
$GPRMC,193550.000,A,3302.7301,N,11717.1896,W,57.83,165.94,230610,,,A*47
$GPRMC,193554.000,A,3302.6715,N,11717.1722,W,52.49,165.94,230610,,,A*40
$GPRMC,193557.000,A,3302.6316,N,11717.1606,W,47.14,166.29,230610,,,A*4A
$GPRMC,193600.000,A,3302.5972,N,11717.1500,W,41.79,165.59,230610,,,A*4C
$GPRMC,193603.000,A,3302.5650,N,11717.1391,W,39.36,163.48,230610,,,A*4C
$GPRMC,193606.000,A,3302.5344,N,11717.1265,W,38.39,160.66,230610,,,A*42
$GPRMC,193609.000,A,3302.5054,N,11717.1136,W,36.45,158.55,230610,,,A*44
$GPRMC,193612.000,A,3302.4784,N,11717.0995,W,34.99,155.39,230610,,,A*41
$GPRMC,193615.000,A,3302.4530,N,11717.0837,W,33.53,152.23,230610,,,A*4F
$GPRMC,193618.000,A,3302.4292,N,11717.0679,W,31.59,151.17,230610,,,A*45
$GPRMC,193621.000,A,3302.4073,N,11717.0528,W,29.16,150.47,230610,,,A*43
$GPRMC,193624.000,A,3302.3870,N,11717.0386,W,26.73,150.12,230610,,,A*44
$GPRMC,193627.000,A,3302.3677,N,11717.0258,W,26.73,150.47,230610,,,A*4C
$GPRMC,193630.000,A,3302.3474,N,11717.0122,W,28.67,150.12,230610,,,A*4E
$GPRMC,193633.000,A,3302.3255,N,11716.9968,W,31.59,149.41,230610,,,A*4D
$GPRMC,193636.000,A,3302.3011,N,11716.9797,W,34.99,149.77,230610,,,A*48
$GPRMC,193639.000,A,3302.2743,N,11716.9617,W,37.91,150.12,230610,,,A*4F
$GPRMC,193642.000,A,3302.2463,N,11716.9430,W,37.91,150.82,230610,,,A*4C
$GPRMC,193645.000,A,3302.2183,N,11716.9244,W,38.88,150.12,230610,,,A*4B
$GPRMC,193648.000,A,3302.1903,N,11716.9054,W,37.91,150.12,230610,,,A*41
$GPRMC,193651.000,A,3302.1623,N,11716.8870,W,38.39,150.47,230610,,,A*46
$GPRMC,193654.000,A,3302.1340,N,11716.8684,W,38.88,150.47,230610,,,A*4C
$GPRMC,193657.000,A,3302.1050,N,11716.8481,W,40.82,150.12,230610,,,A*4F
$GPRMC,193700.000,A,3302.0732,N,11716.8272,W,44.71,150.12,230610,,,A*4C
$GPRMC,193703.000,A,3302.0384,N,11716.8034,W,49.08,150.12,230610,,,A*45
$GPRMC,193706.000,A,3302.0004,N,11716.7773,W,53.46,150.12,230610,,,A*41
$GPRMC,193709.000,A,3301.9596,N,11716.7496,W,57.83,150.12,230610,,,A*4F
$GPRMC,193712.000,A,3301.9161,N,11716.7206,W,59.78,150.47,230610,,,A*4C
$GPRMC,193714.000,A,3301.8871,N,11716.7013,W,59.29,150.82,230610,,,A*48
$GPRMC,193716.000,A,3301.8585,N,11716.6827,W,58.32,150.82,230610,,,A*49
$GPRMC,193719.000,A,3301.8170,N,11716.6547,W,57.35,150.47,230610,,,A*42
$GPRMC,193726.000,A,3301.7207,N,11716.5900,W,56.37,150.82,230610,,,A*44
$GPRMC,193729.000,A,3301.6802,N,11716.5626,W,55.89,150.47,230610,,,A*41
$GPRMC,193734.000,A,3301.6126,N,11716.5175,W,55.89,150.82,230610,,,A*4A
$GPRMC,193737.000,A,3301.5717,N,11716.4918,W,55.40,153.28,230610,,,A*4A
$GPRMC,193743.000,A,3301.4867,N,11716.4506,W,55.40,161.02,230610,,,A*4A
$GPRMC,193746.000,A,3301.4417,N,11716.4358,W,55.89,166.29,230610,,,A*42
$GPRMC,193749.000,A,3301.3956,N,11716.4252,W,56.37,169.10,230610,,,A*4A
$GPRMC,193752.000,A,3301.3493,N,11716.4158,W,56.37,170.51,230610,,,A*40
$GPRMC,193755.000,A,3301.3033,N,11716.4065,W,56.37,169.80,230610,,,A*42
$GPRMC,193756.000,A,3301.2881,N,11716.4033,W,56.37,170.16,230610,,,A*45
$GPRMC,193801.000,A,3301.2103,N,11716.3875,W,57.35,169.45,230610,,,A*4B
$GPRMC,193804.000,A,3301.1639,N,11716.3740,W,57.35,165.23,230610,,,A*46
