NMEA Sentence Code,UTC Time,Status,Latitude,Latitude Direction,Longitude,Longitude Direction,Speed (knots),Track Angle (degrees true),Date,MagneticVariation,Magnetic Variation Direction,[FAA Mode]-Optional,Checksum
$GPRMC,163729.000,A,3347.6177,N,11729.9586,W,67.55,148.36,140510,,,A*46
$GPRMC,163732.000,A,3347.5714,N,11729.9216,W,67.07,147.30,140510,,,A*4C
$GPRMC,163735.000,A,3347.5237,N,11729.8849,W,67.07,147.30,140510,,,A*4E
$GPRMC,163738.000,A,3347.4764,N,11729.8485,W,67.55,146.95,140510,,,A*44
$GPRMC,163741.000,A,3347.4291,N,11729.8112,W,67.55,146.60,140510,,,A*44
$GPRMC,163744.000,A,3347.3821,N,11729.7755,W,67.07,147.30,140510,,,A*4E
$GPRMC,163747.000,A,3347.3351,N,11729.7401,W,67.07,147.30,140510,,,A*43
$GPRMC,163750.000,A,3347.2875,N,11729.7031,W,67.07,146.95,140510,,,A*40
$GPRMC,163753.000,A,3347.2408,N,11729.6664,W,67.07,146.60,140510,,,A*48
$GPRMC,163756.000,A,3347.1938,N,11729.6294,W,67.07,146.95,140510,,,A*41
$GPRMC,163759.000,A,3347.1459,N,11729.5920,W,67.55,146.95,140510,,,A*44
$GPRMC,163802.000,A,3347.0989,N,11729.5556,W,67.07,147.30,140510,,,A*40
$GPRMC,163805.000,A,3347.0532,N,11729.5215,W,64.64,148.71,140510,,,A*47
$GPRMC,163808.000,A,3347.0072,N,11729.4897,W,63.66,150.12,140510,,,A*43
$GPRMC,163811.000,A,3346.9608,N,11729.4610,W,63.18,152.23,140510,,,A*40
$GPRMC,163814.000,A,3346.9135,N,11729.4324,W,63.66,153.28,140510,,,A*4D
$GPRMC,163817.000,A,3346.8662,N,11729.4040,W,63.67,153.28,140510,,,A*4A
$GPRMC,163820.000,A,3346.8189,N,11729.3748,W,63.67,153.28,140510,,,A*44
$GPRMC,163823.000,A,3346.7706,N,11729.3461,W,63.67,152.93,140510,,,A*40
$GPRMC,163826.000,A,3346.7229,N,11729.3171,W,63.66,153.28,140510,,,A*49
$GPRMC,163829.000,A,3346.6760,N,11729.2891,W,63.19,153.28,140510,,,A*41
$GPRMC,163832.000,A,3346.6286,N,11729.2595,W,64.18,152.93,140510,,,A*48
$GPRMC,163835.000,A,3346.5813,N,11729.2306,W,63.67,153.28,140510,,,A*48
$GPRMC,163838.000,A,3346.5337,N,11729.2019,W,63.67,152.93,140510,,,A*44
$GPRMC,163841.000,A,3346.4870,N,11729.1733,W,63.67,153.28,140510,,,A*4E
$GPRMC,163844.000,A,3346.4394,N,11729.1449,W,63.67,152.93,140510,,,A*45
$GPRMC,163847.000,A,3346.3917,N,11729.1157,W,64.15,152.58,140510,,,A*4F
$GPRMC,163850.000,A,3346.3464,N,11729.0831,W,63.21,147.66,140510,,,A*41
$GPRMC,163853.000,A,3346.3029,N,11729.0477,W,63.19,143.09,140510,,,A*47
$GPRMC,163856.000,A,3346.2611,N,11729.0069,W,65.61,138.16,140510,,,A*4E
$GPRMC,163859.000,A,3346.2212,N,11728.9608,W,67.07,135.00,140510,,,A*47
$GPRMC,163902.000,A,3346.1819,N,11728.9119,W,67.07,133.59,140510,,,A*47
$GPRMC,163905.000,A,3346.1500,N,11728.8585,W,66.10,125.51,140510,,,A*4D
$GPRMC,163908.000,A,3346.1185,N,11728.8044,W,66.59,125.51,140510,,,A*4C
$GPRMC,163911.000,A,3346.0857,N,11728.7503,W,66.58,127.27,140510,,,A*48
$GPRMC,163914.000,A,3346.0502,N,11728.6982,W,66.58,129.38,140510,,,A*44
$GPRMC,163917.000,A,3346.0087,N,11728.6541,W,66.58,136.76,140510,,,A*48
$GPRMC,163931.000,A,3345.8050,N,11728.4652,W,66.58,137.11,140510,,,A*4E
$GPRMC,163935.000,A,3345.7538,N,11728.3989,W,68.04,133.24,140510,,,A*45
$GPRMC,163938.000,A,3345.7190,N,11728.3454,W,66.58,126.91,140510,,,A*4E
$GPRMC,163941.000,A,3345.6920,N,11728.2865,W,67.07,118.83,140510,,,A*48
$GPRMC,163944.000,A,3345.6682,N,11728.2257,W,67.07,114.26,140510,,,A*42
$GPRMC,163947.000,A,3345.6473,N,11728.1642,W,67.07,111.09,140510,,,A*46
$GPRMC,163950.000,A,3345.6292,N,11728.1005,W,67.55,108.63,140510,,,A*4F
$GPRMC,163953.000,A,3345.6112,N,11728.0368,W,67.07,110.39,140510,,,A*4F
$GPRMC,163956.000,A,3345.5877,N,11727.9750,W,67.07,116.37,140510,,,A*42
$GPRMC,163959.000,A,3345.5604,N,11727.9161,W,67.55,120.94,140510,,,A*48
$GPRMC,164002.000,A,3345.5301,N,11727.8588,W,67.07,123.40,140510,,,A*47
$GPRMC,164005.000,A,3345.4973,N,11727.8050,W,67.07,126.21,140510,,,A*4C
$GPRMC,164008.000,A,3345.4619,N,11727.7522,W,67.07,127.62,140510,,,A*4B
$GPRMC,164011.000,A,3345.4268,N,11727.6995,W,67.55,127.97,140510,,,A*4D
$GPRMC,164014.000,A,3345.3930,N,11727.6470,W,67.07,127.97,140510,,,A*48
$GPRMC,164017.000,A,3345.3589,N,11727.5942,W,66.09,127.27,140510,,,A*4E
$GPRMC,164020.000,A,3345.3241,N,11727.5417,W,67.07,127.97,140510,,,A*40
$GPRMC,164023.000,A,3345.2861,N,11727.4925,W,67.07,132.89,140510,,,A*4C
$GPRMC,164026.000,A,3345.2459,N,11727.4468,W,67.07,137.46,140510,,,A*4C
$GPRMC,164029.000,A,3345.2025,N,11727.4040,W,67.58,143.79,140510,,,A*47
$GPRMC,164032.000,A,3345.1551,N,11727.3660,W,67.09,148.01,140510,,,A*4B
$GPRMC,164035.000,A,3345.1072,N,11727.3306,W,67.07,148.71,140510,,,A*44
$GPRMC,164038.000,A,3345.0595,N,11727.2955,W,67.07,148.36,140510,,,A*4A
$GPRMC,164041.000,A,3345.0129,N,11727.2579,W,67.56,143.44,140510,,,A*4F
$GPRMC,164044.000,A,3344.9688,N,11727.2157,W,67.55,139.92,140510,,,A*43
$GPRMC,164047.000,A,3344.9285,N,11727.1690,W,67.55,135.35,140510,,,A*47
$GPRMC,164050.000,A,3344.8896,N,11727.1207,W,68.04,132.54,140510,,,A*49
$GPRMC,164053.000,A,3344.8568,N,11727.0670,W,67.07,124.10,140510,,,A*48
$GPRMC,164056.000,A,3344.8288,N,11727.0097,W,67.07,119.88,140510,,,A*44
$GPRMC,164059.000,A,3344.8021,N,11726.9508,W,67.55,118.48,140510,,,A*4B
$GPRMC,164102.000,A,3344.7753,N,11726.8919,W,67.07,118.48,140510,,,A*43
$GPRMC,164105.000,A,3344.7473,N,11726.8320,W,68.04,119.18,140510,,,A*4D
$GPRMC,164108.000,A,3344.7200,N,11726.7731,W,67.07,118.83,140510,,,A*46
$GPRMC,164111.000,A,3344.6933,N,11726.7158,W,66.58,119.18,140510,,,A*45
$GPRMC,164114.000,A,3344.6675,N,11726.6560,W,67.07,118.48,140510,,,A*4C
$GPRMC,164117.000,A,3344.6408,N,11726.5967,W,67.55,118.48,140510,,,A*48
$GPRMC,164120.000,A,3344.6141,N,11726.5375,W,67.07,117.77,140510,,,A*49
$GPRMC,164123.000,A,3344.5899,N,11726.4773,W,67.07,113.91,140510,,,A*4A
$GPRMC,164126.000,A,3344.5693,N,11726.4149,W,67.07,110.04,140510,,,A*4B
$GPRMC,164129.000,A,3344.5520,N,11726.3508,W,67.07,106.17,140510,,,A*4C
$GPRMC,164132.000,A,3344.5384,N,11726.2855,W,67.07,102.30,140510,,,A*4B
$GPRMC,164135.000,A,3344.5272,N,11726.2195,W,67.07,101.25,140510,,,A*46
$GPRMC,164138.000,A,3344.5162,N,11726.1535,W,67.07,100.90,140510,,,A*4B
$GPRMC,164141.000,A,3344.5053,N,11726.0882,W,67.07,102.66,140510,,,A*4D
$GPRMC,164144.000,A,3344.4911,N,11726.0232,W,67.07,107.93,140510,,,A*48
$GPRMC,164147.000,A,3344.4715,N,11725.9604,W,67.07,111.09,140510,,,A*4E
$GPRMC,164150.000,A,3344.4496,N,11725.8989,W,67.07,114.61,140510,,,A*40
$GPRMC,164153.000,A,3344.4245,N,11725.8387,W,67.56,119.18,140510,,,A*48
$GPRMC,164156.000,A,3344.3959,N,11725.7798,W,68.04,120.59,140510,,,A*4E
$GPRMC,164159.000,A,3344.3650,N,11725.7229,W,67.07,124.10,140510,,,A*4D
$GPRMC,164202.000,A,3344.3321,N,11725.6682,W,67.07,126.91,140510,,,A*4C
$GPRMC,164205.000,A,3344.2974,N,11725.6147,W,67.55,127.62,140510,,,A*44
$GPRMC,164208.000,A,3344.2633,N,11725.5613,W,67.07,127.27,140510,,,A*46
$GPRMC,164209.000,A,3344.2523,N,11725.5436,W,66.58,126.91,140510,,,A*47
$GPRMC,164215.000,A,3344.1828,N,11725.4355,W,68.52,127.27,140510,,,A*44
$GPRMC,164219.000,A,3344.1361,N,11725.3640,W,68.04,127.62,140510,,,A*4A
$GPRMC,164235.000,A,3344.0070,N,11725.0392,W,68.04,102.66,140510,,,A*4C
$GPRMC,164238.000,A,3343.9971,N,11724.9726,W,68.04,98.09,140510,,,A*7F
$GPRMC,164241.000,A,3343.9913,N,11724.9053,W,67.55,94.22,140510,,,A*7E
$GPRMC,164244.000,A,3343.9913,N,11724.8381,W,68.04,88.59,140510,,,A*7C
$GPRMC,164247.000,A,3343.9926,N,11724.7698,W,68.04,88.24,140510,,,A*71
$GPRMC,164250.000,A,3343.9938,N,11724.7022,W,68.04,88.59,140510,,,A*75
$GPRMC,164253.000,A,3343.9955,N,11724.6340,W,68.53,88.24,140510,,,A*73
$GPRMC,164256.000,A,3343.9977,N,11724.5661,W,67.55,88.24,140510,,,A*7A
$GPRMC,164259.000,A,3343.9990,N,11724.4979,W,68.52,89.30,140510,,,A*77
$GPRMC,164302.000,A,3343.9948,N,11724.4296,W,68.52,96.68,140510,,,A*74
$GPRMC,164305.000,A,3343.9861,N,11724.3620,W,68.52,101.25,140510,,,A*41
$GPRMC,164313.000,A,3343.9395,N,11724.1895,W,68.04,114.61,140510,,,A*43
$GPRMC,164316.000,A,3343.9140,N,11724.1287,W,67.56,118.83,140510,,,A*4D
$GPRMC,164319.000,A,3343.8867,N,11724.0695,W,67.55,119.18,140510,,,A*49
$GPRMC,164322.000,A,3343.8596,N,11724.0109,W,67.07,116.02,140510,,,A*43
$GPRMC,164325.000,A,3343.8381,N,11723.9488,W,67.07,110.74,140510,,,A*41
$GPRMC,164328.000,A,3343.8207,N,11723.8850,W,67.07,106.88,140510,,,A*4F
$GPRMC,164331.000,A,3343.8081,N,11723.8194,W,67.55,101.25,140510,,,A*4D
$GPRMC,164334.000,A,3343.8001,N,11723.7524,W,67.55,95.62,140510,,,A*7F
$GPRMC,164337.000,A,3343.7965,N,11723.6855,W,67.07,91.41,140510,,,A*70
$GPRMC,164340.000,A,3343.7965,N,11723.6188,W,67.07,89.30,140510,,,A*76
$GPRMC,164343.000,A,3343.7969,N,11723.5519,W,67.07,89.65,140510,,,A*76
$GPRMC,164346.000,A,3343.7962,N,11723.4850,W,67.55,91.05,140510,,,A*71
$GPRMC,164350.000,A,3343.7888,N,11723.3951,W,67.07,96.68,140510,,,A*7F
$GPRMC,164353.000,A,3343.7801,N,11723.3292,W,67.07,99.84,140510,,,A*74
$GPRMC,164357.000,A,3343.7631,N,11723.2416,W,67.55,104.06,140510,,,A*4E
$GPRMC,164400.000,A,3343.7502,N,11723.1763,W,67.07,103.36,140510,,,A*49
$GPRMC,164403.000,A,3343.7370,N,11723.1109,W,67.07,103.36,140510,,,A*43
$GPRMC,164406.000,A,3343.7241,N,11723.0456,W,67.07,103.71,140510,,,A*48
$GPRMC,164409.000,A,3343.7109,N,11722.9803,W,67.07,103.71,140510,,,A*4C
$GPRMC,164412.000,A,3343.6984,N,11722.9143,W,66.58,103.36,140510,,,A*4F
$GPRMC,164415.000,A,3343.6855,N,11722.8518,W,62.21,103.36,140510,,,A*44
$GPRMC,164418.000,A,3343.6736,N,11722.7920,W,61.72,103.36,140510,,,A*4E
$GPRMC,164421.000,A,3343.6614,N,11722.7324,W,61.72,103.71,140510,,,A*48
$GPRMC,164424.000,A,3343.6491,N,11722.6716,W,62.21,103.71,140510,,,A*43
$GPRMC,164427.000,A,3343.6363,N,11722.6088,W,67.56,105.47,140510,,,A*4C
$GPRMC,164430.000,A,3343.6195,N,11722.5435,W,68.04,108.63,140510,,,A*43
$GPRMC,164433.000,A,3343.5996,N,11722.4807,W,67.07,111.09,140510,,,A*4C
$GPRMC,164436.000,A,3343.5783,N,11722.4193,W,67.07,113.91,140510,,,A*44
$GPRMC,164439.000,A,3343.5535,N,11722.3581,W,67.55,117.07,140510,,,A*48
$GPRMC,164442.000,A,3343.5275,N,11722.2982,W,68.04,118.12,140510,,,A*49
$GPRMC,164445.000,A,3343.4975,N,11722.2416,W,67.07,122.34,140510,,,A*45
$GPRMC,164448.000,A,3343.4657,N,11722.1862,W,67.07,124.80,140510,,,A*42
$GPRMC,164451.000,A,3343.4325,N,11722.1328,W,67.07,126.91,140510,,,A*4D
$GPRMC,164454.000,A,3343.3965,N,11722.0794,W,67.55,129.38,140510,,,A*48
$GPRMC,164457.000,A,3343.3585,N,11722.0298,W,67.55,132.89,140510,,,A*40
$GPRMC,164500.000,A,3343.3186,N,11721.9825,W,67.07,135.35,140510,,,A*45
$GPRMC,164503.000,A,3343.2777,N,11721.9377,W,66.58,137.81,140510,,,A*45
$GPRMC,164506.000,A,3343.2333,N,11721.8965,W,67.07,142.38,140510,,,A*47
$GPRMC,164509.000,A,3343.1876,N,11721.8570,W,67.55,144.84,140510,,,A*4F
$GPRMC,164512.000,A,3343.1403,N,11721.8196,W,67.55,148.01,140510,,,A*46
$GPRMC,164515.000,A,3343.0917,N,11721.7852,W,67.07,150.47,140510,,,A*4A
$GPRMC,164518.000,A,3343.0421,N,11721.7540,W,67.55,152.58,140510,,,A*4A
$GPRMC,164521.000,A,3342.9916,N,11721.7260,W,67.07,156.45,140510,,,A*4B
$GPRMC,164524.000,A,3342.9404,N,11721.7002,W,67.07,158.91,140510,,,A*41
$GPRMC,164527.000,A,3342.8882,N,11721.6777,W,67.07,162.07,140510,,,A*43
$GPRMC,164530.000,A,3342.8342,N,11721.6590,W,67.07,164.53,140510,,,A*4E
$GPRMC,164533.000,A,3342.7801,N,11721.6432,W,67.56,167.34,140510,,,A*41
$GPRMC,164536.000,A,3342.7251,N,11721.6278,W,67.55,166.99,140510,,,A*46
$GPRMC,164539.000,A,3342.6703,N,11721.6120,W,67.55,165.59,140510,,,A*4B
$GPRMC,164542.000,A,3342.6163,N,11721.5933,W,67.55,161.02,140510,,,A*44
$GPRMC,164545.000,A,3342.5638,N,11721.5689,W,67.55,157.50,140510,,,A*45
$GPRMC,164548.000,A,3342.5120,N,11721.5419,W,67.55,155.39,140510,,,A*40
$GPRMC,164551.000,A,3342.4624,N,11721.5097,W,67.55,151.88,140510,,,A*46
$GPRMC,164552.000,A,3342.4460,N,11721.4981,W,68.04,150.12,140510,,,A*41
$GPRMC,164557.000,A,3342.3691,N,11721.4350,W,67.07,141.68,140510,,,A*48
$GPRMC,164600.000,A,3342.3256,N,11721.3922,W,67.55,139.92,140510,,,A*43
$GPRMC,164603.000,A,3342.2864,N,11721.3442,W,67.07,134.30,140510,,,A*43
$GPRMC,164606.000,A,3342.2477,N,11721.2953,W,67.55,132.89,140510,,,A*47
$GPRMC,164609.000,A,3342.2107,N,11721.2441,W,67.55,130.78,140510,,,A*48
$GPRMC,164612.000,A,3342.1760,N,11721.1913,W,67.55,129.02,140510,,,A*4A
$GPRMC,164615.000,A,3342.1415,N,11721.1386,W,68.04,128.67,140510,,,A*43
$GPRMC,164618.000,A,3342.1061,N,11721.0835,W,69.01,128.32,140510,,,A*4F
$GPRMC,164621.000,A,3342.0697,N,11721.0282,W,69.01,128.32,140510,,,A*4D
$GPRMC,164624.000,A,3342.0353,N,11720.9747,W,67.55,128.32,140510,,,A*4E
$GPRMC,164627.000,A,3342.0002,N,11720.9216,W,67.55,128.67,140510,,,A*4B
$GPRMC,164630.000,A,3341.9651,N,11720.8698,W,68.04,128.67,140510,,,A*4F
$GPRMC,164633.000,A,3341.9284,N,11720.8167,W,68.52,128.67,140510,,,A*44
$GPRMC,164636.000,A,3341.8940,N,11720.7639,W,67.55,128.32,140510,,,A*48
$GPRMC,164639.000,A,3341.8592,N,11720.7114,W,67.07,128.67,140510,,,A*4B
$GPRMC,164642.000,A,3341.8238,N,11720.6593,W,67.07,128.67,140510,,,A*4A
$GPRMC,164645.000,A,3341.7891,N,11720.6078,W,67.07,128.67,140510,,,A*4B
$GPRMC,164648.000,A,3341.7546,N,11720.5544,W,67.07,128.32,140510,,,A*48
$GPRMC,164651.000,A,3341.7205,N,11720.5006,W,67.07,128.67,140510,,,A*43
$GPRMC,164654.000,A,3341.6835,N,11720.4498,W,67.07,131.84,140510,,,A*49
$GPRMC,164657.000,A,3341.6458,N,11720.4005,W,67.56,133.59,140510,,,A*4B
$GPRMC,164700.000,A,3341.6059,N,11720.3529,W,67.56,135.70,140510,,,A*4C
$GPRMC,164703.000,A,3341.5644,N,11720.3065,W,67.07,137.11,140510,,,A*4A
$GPRMC,164706.000,A,3341.5216,N,11720.2631,W,67.07,139.57,140510,,,A*46
$GPRMC,164709.000,A,3341.4778,N,11720.2206,W,67.55,141.33,140510,,,A*4F
$GPRMC,164712.000,A,3341.4334,N,11720.1791,W,67.07,142.73,140510,,,A*41
$GPRMC,164715.000,A,3341.3884,N,11720.1388,W,67.07,143.09,140510,,,A*41
$GPRMC,164718.000,A,3341.3436,N,11720.0983,W,67.55,142.73,140510,,,A*42
$GPRMC,164721.000,A,3341.2992,N,11720.0574,W,67.55,142.73,140510,,,A*4E
$GPRMC,164724.000,A,3341.2548,N,11720.0169,W,67.07,142.73,140510,,,A*4F
$GPRMC,164727.000,A,3341.2100,N,11719.9760,W,67.07,142.73,140510,,,A*48
$GPRMC,164730.000,A,3341.1653,N,11719.9354,W,67.07,143.09,140510,,,A*43
$GPRMC,164733.000,A,3341.1206,N,11719.8952,W,67.07,142.73,140510,,,A*45
$GPRMC,164736.000,A,3341.0761,N,11719.8546,W,67.07,142.38,140510,,,A*43
$GPRMC,164739.000,A,3341.0314,N,11719.8138,W,67.07,142.73,140510,,,A*48
$GPRMC,164742.000,A,3340.9870,N,11719.7735,W,67.07,143.09,140510,,,A*4D
$GPRMC,164745.000,A,3340.9422,N,11719.7330,W,67.07,142.73,140510,,,A*4C
$GPRMC,164748.000,A,3340.8975,N,11719.6927,W,67.07,142.73,140510,,,A*42
$GPRMC,164751.000,A,3340.8528,N,11719.6525,W,66.59,142.73,140510,,,A*4A
$GPRMC,164754.000,A,3340.8084,N,11719.6119,W,67.07,142.73,140510,,,A*4D
$GPRMC,164757.000,A,3340.7646,N,11719.5707,W,66.61,141.33,140510,,,A*45
$GPRMC,164800.000,A,3340.7221,N,11719.5279,W,66.61,138.16,140510,,,A*48
$GPRMC,164803.000,A,3340.6809,N,11719.4822,W,67.07,136.76,140510,,,A*46
$GPRMC,164806.000,A,3340.6407,N,11719.4343,W,68.52,135.00,140510,,,A*40
$GPRMC,164809.000,A,3340.6014,N,11719.3850,W,68.04,133.24,140510,,,A*44
$GPRMC,164812.000,A,3340.5679,N,11719.3319,W,67.09,127.97,140510,,,A*49
$GPRMC,164815.000,A,3340.5351,N,11719.2779,W,67.09,125.16,140510,,,A*49
$GPRMC,164818.000,A,3340.5045,N,11719.2212,W,67.09,122.34,140510,,,A*4D
$GPRMC,164821.000,A,3340.4762,N,11719.1633,W,67.07,120.23,140510,,,A*4A
$GPRMC,164824.000,A,3340.4495,N,11719.1040,W,67.09,117.07,140510,,,A*4A
$GPRMC,164827.000,A,3340.4257,N,11719.0445,W,67.07,114.96,140510,,,A*44
$GPRMC,164830.000,A,3340.4022,N,11718.9833,W,67.56,115.66,140510,,,A*4D
$GPRMC,164833.000,A,3340.3774,N,11718.9225,W,67.56,117.07,140510,,,A*45
$GPRMC,164836.000,A,3340.3510,N,11718.8630,W,67.07,117.77,140510,,,A*42
$GPRMC,164839.000,A,3340.3243,N,11718.8037,W,67.07,119.18,140510,,,A*4A
$GPRMC,164842.000,A,3340.2963,N,11718.7455,W,67.55,120.59,140510,,,A*49
$GPRMC,164843.000,A,3340.2866,N,11718.7265,W,67.55,120.94,140510,,,A*48
$GPRMC,164854.000,A,3340.1743,N,11718.5195,W,67.07,124.80,140510,,,A*4D
$GPRMC,164856.000,A,3340.1514,N,11718.4838,W,67.55,125.86,140510,,,A*40
$GPRMC,164901.000,A,3340.0961,N,11718.3934,W,67.07,126.91,140510,,,A*44
$GPRMC,164904.000,A,3340.0619,N,11718.3396,W,67.55,127.62,140510,,,A*49
$GPRMC,164906.000,A,3340.0388,N,11718.3032,W,67.55,128.67,140510,,,A*41
$GPRMC,164911.000,A,3339.9795,N,11718.2186,W,67.07,130.08,140510,,,A*40
$GPRMC,164914.000,A,3339.9412,N,11718.1690,W,67.07,132.54,140510,,,A*41
$GPRMC,164917.000,A,3339.9026,N,11718.1198,W,67.55,133.24,140510,,,A*4F
$GPRMC,164920.000,A,3339.8627,N,11718.0725,W,66.58,134.30,140510,,,A*42
$GPRMC,164923.000,A,3339.8222,N,11718.0261,W,67.07,135.70,140510,,,A*4B
$GPRMC,164926.000,A,3339.7800,N,11717.9798,W,68.04,137.11,140510,,,A*47
$GPRMC,164929.000,A,3339.7391,N,11717.9354,W,67.07,138.52,140510,,,A*4B
$GPRMC,164932.000,A,3339.6966,N,11717.8919,W,67.07,139.22,140510,,,A*46
$GPRMC,164935.000,A,3339.6535,N,11717.8494,W,67.09,140.62,140510,,,A*47
$GPRMC,164938.000,A,3339.6097,N,11717.8076,W,67.09,141.68,140510,,,A*44
$GPRMC,164941.000,A,3339.5656,N,11717.7667,W,67.09,142.73,140510,,,A*42
$GPRMC,164944.000,A,3339.5202,N,11717.7271,W,67.58,144.84,140510,,,A*4B
$GPRMC,164947.000,A,3339.4742,N,11717.6888,W,67.56,145.90,140510,,,A*4F
$GPRMC,164950.000,A,3339.4269,N,11717.6511,W,67.56,146.95,140510,,,A*4E
$GPRMC,164953.000,A,3339.3796,N,11717.6148,W,67.07,148.01,140510,,,A*40
$GPRMC,164956.000,A,3339.3320,N,11717.5800,W,66.58,149.06,140510,,,A*47
$GPRMC,164959.000,A,3339.2840,N,11717.5462,W,67.55,149.77,140510,,,A*46
$GPRMC,165002.000,A,3339.2354,N,11717.5131,W,67.56,150.47,140510,,,A*45
$GPRMC,165005.000,A,3339.1865,N,11717.4796,W,67.56,150.47,140510,,,A*42
$GPRMC,165008.000,A,3339.1379,N,11717.4464,W,67.07,150.47,140510,,,A*43
$GPRMC,165011.000,A,3339.0889,N,11717.4136,W,67.07,150.47,140510,,,A*4C
$GPRMC,165014.000,A,3339.0403,N,11717.3805,W,67.07,150.47,140510,,,A*49
$GPRMC,165017.000,A,3338.9914,N,11717.3473,W,67.56,150.82,140510,,,A*49
$GPRMC,165020.000,A,3338.9422,N,11717.3138,W,67.07,150.47,140510,,,A*42
$GPRMC,165023.000,A,3338.8936,N,11717.2804,W,67.07,150.47,140510,,,A*4F
$GPRMC,165026.000,A,3338.8443,N,11717.2472,W,67.55,150.47,140510,,,A*4F
$GPRMC,165029.000,A,3338.7954,N,11717.2141,W,67.55,150.47,140510,,,A*41
$GPRMC,165032.000,A,3338.7462,N,11717.1812,W,67.55,150.47,140510,,,A*4F
$GPRMC,165035.000,A,3338.6972,N,11717.1481,W,67.55,150.47,140510,,,A*43
$GPRMC,165038.000,A,3338.6483,N,11717.1149,W,67.07,150.47,140510,,,A*4B
$GPRMC,165041.000,A,3338.5997,N,11717.0818,W,67.55,150.47,140510,,,A*45
$GPRMC,165044.000,A,3338.5511,N,11717.0486,W,67.55,150.47,140510,,,A*49
$GPRMC,165046.000,A,3338.5183,N,11717.0267,W,68.04,150.82,140510,,,A*4F
$GPRMC,165050.000,A,3338.4533,N,11716.9826,W,67.07,150.47,140510,,,A*44
$GPRMC,165053.000,A,3338.4043,N,11716.9498,W,67.07,150.47,140510,,,A*4C
$GPRMC,165056.000,A,3338.3554,N,11716.9166,W,67.07,150.47,140510,,,A*49
$GPRMC,165059.000,A,3338.3059,N,11716.8835,W,67.07,150.47,140510,,,A*40
$GPRMC,165102.000,A,3338.2569,N,11716.8500,W,67.07,150.47,140510,,,A*43
$GPRMC,165105.000,A,3338.2083,N,11716.8169,W,67.07,150.12,140510,,,A*4E
$GPRMC,165108.000,A,3338.1597,N,11716.7837,W,67.07,150.47,140510,,,A*4D
$GPRMC,165111.000,A,3338.1108,N,11716.7509,W,67.07,150.47,140510,,,A*47
$GPRMC,165114.000,A,3338.0619,N,11716.7177,W,67.07,150.47,140510,,,A*49
$GPRMC,165117.000,A,3338.0130,N,11716.6843,W,67.07,150.12,140510,,,A*49
$GPRMC,165120.000,A,3337.9644,N,11716.6508,W,67.55,149.41,140510,,,A*44
$GPRMC,165123.000,A,3337.9167,N,11716.6163,W,67.07,149.06,140510,,,A*4C
$GPRMC,165126.000,A,3337.8684,N,11716.5816,W,67.55,149.06,140510,,,A*4D
$GPRMC,165129.000,A,3337.8208,N,11716.5465,W,67.07,148.36,140510,,,A*4F
$GPRMC,165132.000,A,3337.7728,N,11716.5105,W,67.07,148.01,140510,,,A*4A
$GPRMC,165135.000,A,3337.7249,N,11716.4744,W,67.55,147.66,140510,,,A*44
$GPRMC,165138.000,A,3337.6776,N,11716.4390,W,67.55,147.66,140510,,,A*4C
$GPRMC,165141.000,A,3337.6315,N,11716.4026,W,67.07,146.95,140510,,,A*47
$GPRMC,165144.000,A,3337.5858,N,11716.3647,W,67.07,145.90,140510,,,A*43
$GPRMC,165147.000,A,3337.5398,N,11716.3257,W,67.07,145.90,140510,,,A*42
$GPRMC,165150.000,A,3337.4941,N,11716.2880,W,67.07,145.55,140510,,,A*43
$GPRMC,165153.000,A,3337.4478,N,11716.2501,W,67.07,145.55,140510,,,A*43
$GPRMC,165156.000,A,3337.4017,N,11716.2114,W,67.55,144.49,140510,,,A*40
$GPRMC,165200.000,A,3337.3409,N,11716.1603,W,67.07,144.14,140510,,,A*41
$GPRMC,165203.000,A,3337.2949,N,11716.1210,W,67.07,143.79,140510,,,A*40
$GPRMC,165206.000,A,3337.2498,N,11716.0814,W,67.07,143.44,140510,,,A*45
$GPRMC,165209.000,A,3337.2051,N,11716.0418,W,67.07,143.09,140510,,,A*42
$GPRMC,165212.000,A,3337.1600,N,11716.0013,W,67.07,142.73,140510,,,A*4A
$GPRMC,165215.000,A,3337.1149,N,11715.9607,W,67.55,142.73,140510,,,A*49
$GPRMC,165218.000,A,3337.0702,N,11715.9205,W,67.07,142.38,140510,,,A*42
$GPRMC,165224.000,A,3336.9814,N,11715.8384,W,67.55,142.73,140510,,,A*4C
$GPRMC,165226.000,A,3336.9514,N,11715.8114,W,67.55,142.73,140510,,,A*48
$GPRMC,165230.000,A,3336.8916,N,11715.7573,W,67.07,142.38,140510,,,A*42
$GPRMC,165234.000,A,3336.8324,N,11715.7032,W,67.07,142.38,140510,,,A*4D
$GPRMC,165238.000,A,3336.7728,N,11715.6491,W,67.55,142.73,140510,,,A*42
$GPRMC,165240.000,A,3336.7429,N,11715.6218,W,67.55,143.09,140510,,,A*44
$GPRMC,165243.000,A,3336.6985,N,11715.5806,W,67.07,142.73,140510,,,A*40
$GPRMC,165247.000,A,3336.6389,N,11715.5265,W,67.07,142.73,140510,,,A*4D
$GPRMC,165250.000,A,3336.5945,N,11715.4856,W,67.55,142.73,140510,,,A*4E
$GPRMC,165253.000,A,3336.5498,N,11715.4448,W,67.55,142.38,140510,,,A*4C
$GPRMC,165256.000,A,3336.5053,N,11715.4036,W,67.07,142.03,140510,,,A*48
$GPRMC,165301.000,A,3336.4310,N,11715.3360,W,67.07,142.73,140510,,,A*4E
$GPRMC,165305.000,A,3336.3714,N,11715.2819,W,67.55,142.38,140510,,,A*41
$GPRMC,165311.000,A,3336.2823,N,11715.2001,W,67.07,142.38,140510,,,A*48
$GPRMC,165314.000,A,3336.2372,N,11715.1593,W,67.55,142.73,140510,,,A*47
$GPRMC,165317.000,A,3336.1928,N,11715.1187,W,67.07,142.73,140510,,,A*44
$GPRMC,165329.000,A,3336.0138,N,11714.9552,W,67.55,142.73,140510,,,A*43
$GPRMC,165352.000,A,3335.6720,N,11714.6427,W,67.07,142.73,140510,,,A*4E
$GPRMC,165355.000,A,3335.6276,N,11714.6021,W,67.07,142.38,140510,,,A*42
$GPRMC,165358.000,A,3335.5825,N,11714.5619,W,67.07,142.38,140510,,,A*4E
$GPRMC,165401.000,A,3335.5385,N,11714.5213,W,67.07,142.38,140510,,,A*4A
$GPRMC,165404.000,A,3335.4947,N,11714.4795,W,67.07,139.57,140510,,,A*45
$GPRMC,165407.000,A,3335.4525,N,11714.4341,W,67.55,136.76,140510,,,A*48
$GPRMC,165410.000,A,3335.4129,N,11714.3855,W,68.04,133.95,140510,,,A*4C
$GPRMC,165413.000,A,3335.3756,N,11714.3356,W,67.07,132.19,140510,,,A*47
$GPRMC,165416.000,A,3335.3386,N,11714.2851,W,67.07,132.19,140510,,,A*46
$GPRMC,165419.000,A,3335.3006,N,11714.2362,W,67.55,132.54,140510,,,A*47
$GPRMC,165422.000,A,3335.2626,N,11714.1847,W,68.04,131.84,140510,,,A*40
$GPRMC,165425.000,A,3335.2250,N,11714.1357,W,67.07,132.89,140510,,,A*4A
$GPRMC,165428.000,A,3335.1876,N,11714.0865,W,66.58,132.19,140510,,,A*43
$GPRMC,165431.000,A,3335.1484,N,11714.0372,W,68.04,133.24,140510,,,A*4F
$GPRMC,165434.000,A,3335.1110,N,11713.9874,W,67.55,132.19,140510,,,A*45
$GPRMC,165437.000,A,3335.0721,N,11713.9384,W,67.55,132.54,140510,,,A*4E
$GPRMC,165440.000,A,3335.0341,N,11713.8898,W,66.58,132.89,140510,,,A*47
$GPRMC,165443.000,A,3334.9961,N,11713.8403,W,67.07,132.89,140510,,,A*41
$GPRMC,165445.000,A,3334.9697,N,11713.8068,W,68.04,133.24,140510,,,A*42
$GPRMC,165453.000,A,3334.8703,N,11713.6729,W,68.04,132.89,140510,,,A*42
$GPRMC,165456.000,A,3334.8304,N,11713.6243,W,68.04,134.30,140510,,,A*49
$GPRMC,165459.000,A,3334.7930,N,11713.5750,W,67.07,132.54,140510,,,A*48
$GPRMC,165502.000,A,3334.7560,N,11713.5248,W,68.04,133.24,140510,,,A*48
$GPRMC,165505.000,A,3334.7187,N,11713.4756,W,67.07,132.54,140510,,,A*43
$GPRMC,165508.000,A,3334.6820,N,11713.4251,W,67.07,132.19,140510,,,A*40
$GPRMC,165511.000,A,3334.6443,N,11713.3755,W,67.55,132.54,140510,,,A*49
$GPRMC,165514.000,A,3334.6063,N,11713.3259,W,67.55,132.54,140510,,,A*43
$GPRMC,165516.000,A,3334.5809,N,11713.2931,W,67.55,132.54,140510,,,A*42
$GPRMC,165521.000,A,3334.5181,N,11713.2101,W,67.07,132.54,140510,,,A*43
$GPRMC,165524.000,A,3334.4802,N,11713.1602,W,67.55,132.54,140510,,,A*45
$GPRMC,165529.000,A,3334.4168,N,11713.0778,W,67.07,132.54,140510,,,A*47
$GPRMC,165532.000,A,3334.3797,N,11713.0279,W,67.07,132.19,140510,,,A*41
$GPRMC,165535.000,A,3334.3418,N,11712.9783,W,67.07,132.19,140510,,,A*4A
$GPRMC,165538.000,A,3334.3041,N,11712.9287,W,67.55,132.54,140510,,,A*40
$GPRMC,165541.000,A,3334.2664,N,11712.8792,W,67.55,132.19,140510,,,A*47
$GPRMC,165542.000,A,3334.2536,N,11712.8624,W,67.55,132.19,140510,,,A*4C
$GPRMC,165545.000,A,3334.2156,N,11712.8132,W,67.07,132.54,140510,,,A*47
$GPRMC,165548.000,A,3334.1779,N,11712.7636,W,67.55,132.19,140510,,,A*40
$GPRMC,165554.000,A,3334.1033,N,11712.6635,W,67.07,131.84,140510,,,A*46
$GPRMC,165558.000,A,3334.0534,N,11712.5966,W,67.55,131.84,140510,,,A*44
$GPRMC,165601.000,A,3334.0154,N,11712.5464,W,67.07,131.84,140510,,,A*41
$GPRMC,165604.000,A,3333.9781,N,11712.4965,W,67.07,132.19,140510,,,A*4E
$GPRMC,165614.000,A,3333.8516,N,11712.3310,W,68.04,132.54,140510,,,A*48
$GPRMC,165617.000,A,3333.8139,N,11712.2815,W,67.55,132.54,140510,,,A*46
$GPRMC,165620.000,A,3333.7759,N,11712.2319,W,67.55,132.54,140510,,,A*4A
$GPRMC,165623.000,A,3333.7373,N,11712.1823,W,67.55,132.54,140510,,,A*44
$GPRMC,165626.000,A,3333.6987,N,11712.1341,W,67.07,132.89,140510,,,A*49
$GPRMC,165629.000,A,3333.6610,N,11712.0838,W,67.55,132.54,140510,,,A*44
$GPRMC,165632.000,A,3333.6227,N,11712.0349,W,67.07,132.54,140510,,,A*44
$GPRMC,165635.000,A,3333.5860,N,11711.9857,W,66.58,131.84,140510,,,A*42
$GPRMC,165639.000,A,3333.5355,N,11711.9187,W,67.55,132.54,140510,,,A*45
$GPRMC,165642.000,A,3333.4972,N,11711.8688,W,68.04,132.54,140510,,,A*45
$GPRMC,165645.000,A,3333.4602,N,11711.8190,W,67.55,131.48,140510,,,A*41
$GPRMC,165648.000,A,3333.4241,N,11711.7678,W,67.07,129.73,140510,,,A*47
$GPRMC,165651.000,A,3333.3878,N,11711.7156,W,67.55,129.02,140510,,,A*42
$GPRMC,165654.000,A,3333.3543,N,11711.6622,W,67.07,127.27,140510,,,A*49
$GPRMC,165659.000,A,3333.3002,N,11711.5737,W,66.09,125.86,140510,,,A*44
$GPRMC,165702.000,A,3333.2683,N,11711.5183,W,67.55,124.10,140510,,,A*4A
$GPRMC,165705.000,A,3333.2387,N,11711.4614,W,67.55,122.34,140510,,,A*44
$GPRMC,165708.000,A,3333.2098,N,11711.4041,W,67.07,121.64,140510,,,A*43
$GPRMC,165711.000,A,3333.1795,N,11711.3474,W,67.07,121.64,140510,,,A*47
$GPRMC,165714.000,A,3333.1505,N,11711.2892,W,67.07,121.29,140510,,,A*45
$GPRMC,165717.000,A,3333.1219,N,11711.2322,W,67.07,121.64,140510,,,A*45
$GPRMC,165720.000,A,3333.0923,N,11711.1752,W,67.07,121.64,140510,,,A*42
$GPRMC,165723.000,A,3333.0630,N,11711.1179,W,67.55,121.29,140510,,,A*4D
$GPRMC,165726.000,A,3333.0334,N,11711.0606,W,67.55,121.99,140510,,,A*4C
$GPRMC,165729.000,A,3333.0028,N,11711.0043,W,67.55,124.80,140510,,,A*47
$GPRMC,165732.000,A,3332.9693,N,11710.9502,W,67.55,127.97,140510,,,A*4E
$GPRMC,165735.000,A,3332.9326,N,11710.8987,W,67.55,131.13,140510,,,A*49
$GPRMC,165738.000,A,3332.8943,N,11710.8505,W,67.07,136.05,140510,,,A*4D
$GPRMC,165741.000,A,3332.8525,N,11710.8064,W,67.07,140.98,140510,,,A*48
$GPRMC,165744.000,A,3332.8078,N,11710.7658,W,67.07,144.84,140510,,,A*4F
$GPRMC,165747.000,A,3332.7611,N,11710.7291,W,67.07,148.36,140510,,,A*4E
$GPRMC,165750.000,A,3332.7122,N,11710.6963,W,67.55,151.52,140510,,,A*45
$GPRMC,165753.000,A,3332.6629,N,11710.6638,W,67.55,150.82,140510,,,A*46
$GPRMC,165756.000,A,3332.6140,N,11710.6306,W,67.07,150.82,140510,,,A*44
$GPRMC,165758.000,A,3332.5808,N,11710.6091,W,67.07,150.82,140510,,,A*41
$GPRMC,165821.000,A,3332.2049,N,11710.3586,W,66.59,150.82,140510,,,A*46
$GPRMC,165824.000,A,3332.1563,N,11710.3261,W,66.59,150.47,140510,,,A*4A
$GPRMC,165827.000,A,3332.1074,N,11710.2933,W,67.07,150.47,140510,,,A*4D
$GPRMC,165830.000,A,3332.0588,N,11710.2598,W,67.55,150.82,140510,,,A*4F
$GPRMC,165833.000,A,3332.0089,N,11710.2276,W,67.55,151.17,140510,,,A*42
$GPRMC,165836.000,A,3331.9593,N,11710.1951,W,67.55,150.82,140510,,,A*43
$GPRMC,165837.000,A,3331.9429,N,11710.1839,W,67.55,150.82,140510,,,A*4D
$GPRMC,165840.000,A,3331.8937,N,11710.1517,W,67.55,150.82,140510,,,A*4F
$GPRMC,165845.000,A,3331.8119,N,11710.0976,W,67.55,150.82,140510,,,A*44
$GPRMC,165848.000,A,3331.7627,N,11710.0651,W,67.07,150.82,140510,,,A*41
$GPRMC,165849.000,A,3331.7462,N,11710.0542,W,67.07,150.82,140510,,,A*42
$GPRMC,165852.000,A,3331.6976,N,11710.0210,W,67.07,150.47,140510,,,A*48
$GPRMC,165857.000,A,3331.6162,N,11709.9663,W,67.55,150.82,140510,,,A*4F
$GPRMC,165900.000,A,3331.5666,N,11709.9335,W,67.07,150.82,140510,,,A*4D
$GPRMC,165903.000,A,3331.5171,N,11709.9013,W,67.55,150.82,140510,,,A*4F
$GPRMC,165905.000,A,3331.4842,N,11709.8797,W,67.07,151.17,140510,,,A*41
$GPRMC,165909.000,A,3331.4192,N,11709.8353,W,67.07,150.82,140510,,,A*48
$GPRMC,165912.000,A,3331.3703,N,11709.8031,W,67.07,150.82,140510,,,A*4C
$GPRMC,165915.000,A,3331.3211,N,11709.7700,W,67.55,150.47,140510,,,A*49
$GPRMC,165917.000,A,3331.2889,N,11709.7487,W,67.07,150.82,140510,,,A*43
$GPRMC,165921.000,A,3331.2239,N,11709.7056,W,67.07,150.47,140510,,,A*46
$GPRMC,165924.000,A,3331.1753,N,11709.6728,W,67.07,150.82,140510,,,A*4F
$GPRMC,165927.000,A,3331.1257,N,11709.6399,W,67.07,151.17,140510,,,A*4E
$GPRMC,165930.000,A,3331.0768,N,11709.6077,W,67.07,150.82,140510,,,A*4E
$GPRMC,165933.000,A,3331.0282,N,11709.5746,W,66.58,150.82,140510,,,A*41
$GPRMC,165936.000,A,3330.9796,N,11709.5421,W,66.09,150.82,140510,,,A*4A
$GPRMC,165939.000,A,3330.9316,N,11709.5092,W,66.58,150.82,140510,,,A*41
$GPRMC,165942.000,A,3330.8824,N,11709.4780,W,67.55,153.63,140510,,,A*43
$GPRMC,165956.000,A,3330.6387,N,11709.3618,W,66.58,158.55,140510,,,A*4F
$GPRMC,165959.000,A,3330.5862,N,11709.3380,W,67.07,159.26,140510,,,A*49
$GPRMC,170002.000,A,3330.5335,N,11709.3142,W,67.55,159.26,140510,,,A*48
$GPRMC,170005.000,A,3330.4807,N,11709.2901,W,67.55,159.26,140510,,,A*4A
$GPRMC,170008.000,A,3330.4282,N,11709.2662,W,67.55,159.26,140510,,,A*4A
$GPRMC,170011.000,A,3330.3754,N,11709.2424,W,67.07,159.26,140510,,,A*4C
$GPRMC,170014.000,A,3330.3236,N,11709.2183,W,67.07,158.91,140510,,,A*4D
$GPRMC,170017.000,A,3330.2711,N,11709.1945,W,67.55,159.26,140510,,,A*44
$GPRMC,170020.000,A,3330.2183,N,11709.1703,W,67.55,158.91,140510,,,A*4C
$GPRMC,170023.000,A,3330.1656,N,11709.1465,W,67.55,159.61,140510,,,A*4E
$GPRMC,170026.000,A,3330.1134,N,11709.1227,W,67.07,158.55,140510,,,A*49
$GPRMC,170029.000,A,3330.0613,N,11709.0985,W,67.07,157.50,140510,,,A*4D
$GPRMC,170032.000,A,3330.0111,N,11709.0715,W,66.09,154.69,140510,,,A*43
$GPRMC,170035.000,A,3329.9612,N,11709.0413,W,66.09,151.52,140510,,,A*49
$GPRMC,170038.000,A,3329.9129,N,11709.0078,W,68.04,148.36,140510,,,A*4B
$GPRMC,170041.000,A,3329.8653,N,11708.9704,W,67.56,145.90,140510,,,A*43
$GPRMC,170044.000,A,3329.8199,N,11708.9305,W,66.58,142.73,140510,,,A*47
$GPRMC,170047.000,A,3329.7774,N,11708.8887,W,65.61,140.62,140510,,,A*45
$GPRMC,170050.000,A,3329.7355,N,11708.8472,W,65.12,139.92,140510,,,A*47
$GPRMC,170053.000,A,3329.6950,N,11708.8073,W,60.75,140.98,140510,,,A*4F
$GPRMC,170059.000,A,3329.6177,N,11708.7464,W,52.97,151.17,140510,,,A*4F
$GPRMC,170106.000,A,3329.5263,N,11708.6985,W,50.06,160.31,140510,,,A*4E
$GPRMC,170113.000,A,3329.4359,N,11708.6650,W,47.63,163.48,140510,,,A*4C
$GPRMC,170116.000,A,3329.3995,N,11708.6518,W,44.22,163.12,140510,,,A*42
$GPRMC,170119.000,A,3329.3651,N,11708.6399,W,43.74,163.48,140510,,,A*4E
$GPRMC,170122.000,A,3329.3300,N,11708.6273,W,44.71,163.48,140510,,,A*40
$GPRMC,170125.000,A,3329.2923,N,11708.6141,W,48.60,162.77,140510,,,A*4E
$GPRMC,170128.000,A,3329.2528,N,11708.5993,W,50.54,162.77,140510,,,A*4E
$GPRMC,170131.000,A,3329.2119,N,11708.5839,W,51.51,163.12,140510,,,A*47
$GPRMC,170134.000,A,3329.1697,N,11708.5694,W,53.46,163.48,140510,,,A*42
$GPRMC,170137.000,A,3329.1266,N,11708.5540,W,55.40,163.12,140510,,,A*4E
$GPRMC,170140.000,A,3329.0815,N,11708.5372,W,57.83,162.77,140510,,,A*49
$GPRMC,170143.000,A,3329.0342,N,11708.5202,W,59.78,163.12,140510,,,A*4D
$GPRMC,170146.000,A,3328.9859,N,11708.5021,W,62.21,162.77,140510,,,A*44
$GPRMC,170149.000,A,3328.9351,N,11708.4838,W,64.64,163.83,140510,,,A*44
$GPRMC,170152.000,A,3328.8813,N,11708.4667,W,67.55,164.18,140510,,,A*42
$GPRMC,170155.000,A,3328.8276,N,11708.4487,W,65.61,163.83,140510,,,A*40
$GPRMC,170156.000,A,3328.8102,N,11708.4429,W,63.66,162.77,140510,,,A*4C
$GPRMC,170210.000,A,3328.5636,N,11708.3521,W,67.07,163.83,140510,,,A*47
$GPRMC,170214.000,A,3328.4915,N,11708.3261,W,68.52,162.77,140510,,,A*4A
$GPRMC,170217.000,A,3328.4362,N,11708.3064,W,69.50,163.12,140510,,,A*45
$GPRMC,170220.000,A,3328.3805,N,11708.2865,W,70.49,163.12,140510,,,A*44
$GPRMC,170223.000,A,3328.3238,N,11708.2659,W,70.98,163.12,140510,,,A*4E
$GPRMC,170226.000,A,3328.2672,N,11708.2453,W,70.96,162.77,140510,,,A*44
$GPRMC,170229.000,A,3328.2102,N,11708.2260,W,70.47,164.53,140510,,,A*41
$GPRMC,170232.000,A,3328.1523,N,11708.2099,W,69.50,167.70,140510,,,A*47
$GPRMC,170235.000,A,3328.0966,N,11708.1989,W,67.07,170.86,140510,,,A*44
$GPRMC,170238.000,A,3328.0429,N,11708.1899,W,65.61,173.32,140510,,,A*41
$GPRMC,170241.000,A,3327.9888,N,11708.1848,W,64.64,175.78,140510,,,A*4E
$GPRMC,170244.000,A,3327.9357,N,11708.1832,W,63.66,178.95,140510,,,A*44
$GPRMC,170247.000,A,3327.8832,N,11708.1851,W,63.18,181.76,140510,,,A*49
$GPRMC,170250.000,A,3327.8288,N,11708.1877,W,64.64,182.46,140510,,,A*4C
$GPRMC,170253.000,A,3327.7741,N,11708.1886,W,65.13,179.65,140510,,,A*4A
$GPRMC,170256.000,A,3327.7207,N,11708.1861,W,63.66,175.78,140510,,,A*45
$GPRMC,170259.000,A,3327.6679,N,11708.1806,W,63.18,174.38,140510,,,A*4B
$GPRMC,170302.000,A,3327.6157,N,11708.1754,W,61.72,174.73,140510,,,A*46
$GPRMC,170305.000,A,3327.5646,N,11708.1713,W,61.72,175.08,140510,,,A*4B
$GPRMC,170308.000,A,3327.5137,N,11708.1655,W,61.23,174.73,140510,,,A*4D
$GPRMC,170311.000,A,3327.4625,N,11708.1600,W,60.75,174.73,140510,,,A*42
$GPRMC,170314.000,A,3327.4130,N,11708.1519,W,60.75,173.67,140510,,,A*4D
$GPRMC,170317.000,A,3327.3611,N,11708.1461,W,61.26,174.73,140510,,,A*46
$GPRMC,170320.000,A,3327.3103,N,11708.1400,W,61.72,174.02,140510,,,A*46
$GPRMC,170323.000,A,3327.2594,N,11708.1333,W,62.21,175.08,140510,,,A*47
$GPRMC,170326.000,A,3327.2076,N,11708.1272,W,62.21,174.38,140510,,,A*4D
$GPRMC,170329.000,A,3327.1555,N,11708.1220,W,62.21,174.73,140510,,,A*4D
$GPRMC,170332.000,A,3327.1040,N,11708.1185,W,62.21,177.89,140510,,,A*4C
$GPRMC,170335.000,A,3327.0509,N,11708.1191,W,63.18,181.05,140510,,,A*41
$GPRMC,170338.000,A,3326.9978,N,11708.1255,W,64.15,185.98,140510,,,A*4F
$GPRMC,170341.000,A,3326.9450,N,11708.1346,W,63.18,189.14,140510,,,A*47
$GPRMC,170344.000,A,3326.8941,N,11708.1481,W,62.21,193.01,140510,,,A*46
$GPRMC,170347.000,A,3326.8462,N,11708.1667,W,60.26,195.47,140510,,,A*42
$GPRMC,170405.000,A,3326.5349,N,11708.2701,W,63.66,195.47,140510,,,A*45
$GPRMC,170410.000,A,3326.4519,N,11708.2994,W,62.21,197.58,140510,,,A*4F
$GPRMC,170413.000,A,3326.4026,N,11708.3200,W,63.66,199.34,140510,,,A*44
$GPRMC,170416.000,A,3326.3527,N,11708.3438,W,64.15,201.45,140510,,,A*48
$GPRMC,170419.000,A,3326.3022,N,11708.3695,W,65.61,203.91,140510,,,A*4B
$GPRMC,170422.000,A,3326.2520,N,11708.3972,W,65.61,206.02,140510,,,A*4C
$GPRMC,170423.000,A,3326.2356,N,11708.4065,W,65.61,206.37,140510,,,A*44
$GPRMC,170440.000,A,3325.9678,N,11708.6083,W,68.52,217.27,140510,,,A*46
$GPRMC,170443.000,A,3325.9234,N,11708.6508,W,68.04,219.02,140510,,,A*45
$GPRMC,170446.000,A,3325.8786,N,11708.6952,W,69.50,220.78,140510,,,A*49
$GPRMC,170454.000,A,3325.7663,N,11708.8243,W,69.01,226.05,140510,,,A*42
$GPRMC,170508.000,A,3325.5758,N,11709.0374,W,66.09,217.97,140510,,,A*43
$GPRMC,170511.000,A,3325.5310,N,11709.0747,W,66.09,213.75,140510,,,A*4F
$GPRMC,170514.000,A,3325.4834,N,11709.1098,W,67.07,210.59,140510,,,A*40
$GPRMC,170517.000,A,3325.4351,N,11709.1436,W,67.56,210.59,140510,,,A*4F
$GPRMC,170520.000,A,3325.3868,N,11709.1780,W,68.04,210.59,140510,,,A*4B
$GPRMC,170523.000,A,3325.3373,N,11709.2122,W,69.01,210.23,140510,,,A*4D
$GPRMC,170526.000,A,3325.2874,N,11709.2466,W,69.50,210.23,140510,,,A*44
$GPRMC,170529.000,A,3325.2372,N,11709.2817,W,69.99,210.23,140510,,,A*49
$GPRMC,170532.000,A,3325.1863,N,11709.3171,W,70.47,210.59,140510,,,A*45
$GPRMC,170535.000,A,3325.1355,N,11709.3535,W,71.44,211.29,140510,,,A*4C
$GPRMC,170537.000,A,3325.1013,N,11709.3782,W,71.93,211.29,140510,,,A*4B
$GPRMC,170550.000,A,3324.8802,N,11709.5408,W,69.50,211.64,140510,,,A*42
$GPRMC,170555.000,A,3324.7985,N,11709.6010,W,69.98,211.64,140510,,,A*4C
$GPRMC,170558.000,A,3324.7492,N,11709.6370,W,69.01,211.64,140510,,,A*4F
$GPRMC,170601.000,A,3324.7003,N,11709.6724,W,68.53,211.64,140510,,,A*4F
$GPRMC,170604.000,A,3324.6520,N,11709.7085,W,67.56,211.64,140510,,,A*48
$GPRMC,170607.000,A,3324.6044,N,11709.7442,W,67.56,211.64,140510,,,A*43
$GPRMC,170610.000,A,3324.5567,N,11709.7793,W,67.56,211.64,140510,,,A*4D
$GPRMC,170613.000,A,3324.5088,N,11709.8141,W,67.56,211.29,140510,,,A*45
$GPRMC,170616.000,A,3324.4608,N,11709.8501,W,68.53,213.75,140510,,,A*4E
$GPRMC,170619.000,A,3324.4132,N,11709.8890,W,69.98,214.45,140510,,,A*48
$GPRMC,170622.000,A,3324.3652,N,11709.9296,W,71.44,215.51,140510,,,A*47
$GPRMC,170625.000,A,3324.3160,N,11709.9708,W,72.90,215.16,140510,,,A*4D
$GPRMC,170626.000,A,3324.2996,N,11709.9846,W,72.90,215.16,140510,,,A*4B
$GPRMC,170630.000,A,3324.2349,N,11710.0394,W,69.98,215.16,140510,,,A*43
$GPRMC,170642.000,A,3324.0340,N,11710.1945,W,74.36,210.94,140510,,,A*4D
$GPRMC,170731.000,A,3323.0913,N,11710.4813,W,76.30,175.08,140510,,,A*45
$GPRMC,170733.000,A,3323.0504,N,11710.4761,W,74.84,172.97,140510,,,A*4B
$GPRMC,170755.000,A,3322.6410,N,11710.3242,W,69.50,155.39,140510,,,A*4F
$GPRMC,170758.000,A,3322.5898,N,11710.2933,W,69.98,152.93,140510,,,A*42
$GPRMC,170801.000,A,3322.5390,N,11710.2553,W,71.44,149.06,140510,,,A*46
$GPRMC,170804.000,A,3322.4891,N,11710.2164,W,70.95,147.66,140510,,,A*4D
$GPRMC,170807.000,A,3322.4405,N,11710.1771,W,70.95,146.25,140510,,,A*48
$GPRMC,170816.000,A,3322.2998,N,11710.0342,W,73.87,138.52,140510,,,A*4B
$GPRMC,170821.000,A,3322.2232,N,11709.9512,W,74.36,137.81,140510,,,A*4A
$GPRMC,170829.000,A,3322.0993,N,11709.8305,W,74.36,143.79,140510,,,A*45
$GPRMC,170850.000,A,3321.7189,N,11709.6077,W,69.02,164.88,140510,,,A*44
$GPRMC,170904.000,A,3321.4501,N,11709.5488,W,70.95,175.08,140510,,,A*4A
$GPRMC,170907.000,A,3321.3918,N,11709.5437,W,69.98,176.84,140510,,,A*4C
$GPRMC,170910.000,A,3321.3336,N,11709.5430,W,70.47,179.30,140510,,,A*41
$GPRMC,170911.000,A,3321.3136,N,11709.5437,W,70.47,180.70,140510,,,A*47
$GPRMC,170927.000,A,3321.0014,N,11709.5472,W,70.47,180.70,140510,,,A*41
$GPRMC,170930.000,A,3320.9428,N,11709.5479,W,70.95,180.70,140510,,,A*40
$GPRMC,170933.000,A,3320.8830,N,11709.5488,W,71.44,181.05,140510,,,A*47
$GPRMC,170936.000,A,3320.8237,N,11709.5498,W,71.44,180.35,140510,,,A*4C
$GPRMC,170939.000,A,3320.7648,N,11709.5511,W,70.47,180.70,140510,,,A*43
$GPRMC,170942.000,A,3320.7059,N,11709.5511,W,70.47,180.70,140510,,,A*49
$GPRMC,170945.000,A,3320.6470,N,11709.5524,W,70.47,180.70,140510,,,A*46
$GPRMC,170948.000,A,3320.5885,N,11709.5530,W,70.47,180.70,140510,,,A*4B
$GPRMC,170951.000,A,3320.5296,N,11709.5540,W,70.95,180.70,140510,,,A*43
$GPRMC,170954.000,A,3320.4703,N,11709.5546,W,71.44,180.70,140510,,,A*45
$GPRMC,170957.000,A,3320.4102,N,11709.5562,W,72.41,180.70,140510,,,A*41
$GPRMC,171000.000,A,3320.3506,N,11709.5572,W,71.44,181.05,140510,,,A*48
$GPRMC,171003.000,A,3320.2911,N,11709.5582,W,70.95,180.70,140510,,,A*41
$GPRMC,171006.000,A,3320.2331,N,11709.5588,W,69.01,180.70,140510,,,A*43
$GPRMC,171009.000,A,3320.1749,N,11709.5601,W,69.98,181.05,140510,,,A*45
$GPRMC,171012.000,A,3320.1169,N,11709.5611,W,69.98,180.70,140510,,,A*49
$GPRMC,171016.000,A,3320.0384,N,11709.5624,W,69.50,180.35,140510,,,A*4E
$GPRMC,171019.000,A,3319.9817,N,11709.5636,W,67.07,180.70,140510,,,A*4D
$GPRMC,171022.000,A,3319.9267,N,11709.5646,W,66.09,180.35,140510,,,A*41
$GPRMC,171026.000,A,3319.8536,N,11709.5659,W,64.64,180.70,140510,,,A*41
$GPRMC,171029.000,A,3319.8015,N,11709.5669,W,62.69,180.35,140510,,,A*43
$GPRMC,171032.000,A,3319.7490,N,11709.5656,W,63.18,178.24,140510,,,A*43
$GPRMC,171035.000,A,3319.6956,N,11709.5614,W,65.12,175.78,140510,,,A*4C
$GPRMC,171038.000,A,3319.6399,N,11709.5543,W,66.58,172.97,140510,,,A*42
$GPRMC,171041.000,A,3319.5839,N,11709.5443,W,68.04,170.16,140510,,,A*43
$GPRMC,171044.000,A,3319.5276,N,11709.5315,W,69.02,167.70,140510,,,A*42
$GPRMC,171047.000,A,3319.4713,N,11709.5150,W,69.52,164.88,140510,,,A*44
$GPRMC,171050.000,A,3319.4159,N,11709.4948,W,69.52,162.42,140510,,,A*4A
$GPRMC,171053.000,A,3319.3618,N,11709.4722,W,69.07,159.61,140510,,,A*47
$GPRMC,171056.000,A,3319.3084,N,11709.4465,W,68.53,157.50,140510,,,A*4D
$GPRMC,171059.000,A,3319.2563,N,11709.4198,W,68.59,155.74,140510,,,A*46
$GPRMC,171102.000,A,3319.2044,N,11709.3902,W,69.01,153.63,140510,,,A*49
$GPRMC,171105.000,A,3319.1539,N,11709.3573,W,68.52,151.88,140510,,,A*48
$GPRMC,171108.000,A,3319.1053,N,11709.3255,W,67.07,151.88,140510,,,A*40
$GPRMC,171111.000,A,3319.0570,N,11709.2936,W,66.58,151.17,140510,,,A*4F
$GPRMC,171114.000,A,3319.0075,N,11709.2614,W,67.07,151.52,140510,,,A*4F
$GPRMC,171117.000,A,3318.9582,N,11709.2312,W,67.07,152.23,140510,,,A*4F
$GPRMC,171120.000,A,3318.9070,N,11709.2003,W,69.50,152.58,140510,,,A*40
$GPRMC,171123.000,A,3318.8530,N,11709.1706,W,71.01,155.39,140510,,,A*4F
$GPRMC,171126.000,A,3318.7986,N,11709.1433,W,69.98,157.15,140510,,,A*44
$GPRMC,171129.000,A,3318.7451,N,11709.1175,W,68.52,158.91,140510,,,A*4F
$GPRMC,171132.000,A,3318.6927,N,11709.0953,W,66.58,161.37,140510,,,A*47
$GPRMC,171135.000,A,3318.6399,N,11709.0770,W,65.12,164.18,140510,,,A*45
$GPRMC,171138.000,A,3318.5868,N,11709.0599,W,65.61,165.94,140510,,,A*4A
$GPRMC,171141.000,A,3318.5324,N,11709.0477,W,67.55,169.10,140510,,,A*43
$GPRMC,171144.000,A,3318.4748,N,11709.0396,W,71.01,174.02,140510,,,A*48
$GPRMC,171147.000,A,3318.4146,N,11709.0322,W,72.41,174.02,140510,,,A*4B
$GPRMC,171150.000,A,3318.3541,N,11709.0264,W,71.93,175.08,140510,,,A*4D
$GPRMC,171153.000,A,3318.2932,N,11709.0219,W,72.41,175.78,140510,,,A*46
$GPRMC,171156.000,A,3318.2321,N,11709.0178,W,72.96,176.48,140510,,,A*45
$GPRMC,171159.000,A,3318.1709,N,11709.0149,W,72.96,177.19,140510,,,A*40
$GPRMC,171202.000,A,3318.1101,N,11709.0116,W,73.41,176.48,140510,,,A*47
$GPRMC,171205.000,A,3318.0493,N,11709.0062,W,73.87,175.78,140510,,,A*47
$GPRMC,171208.000,A,3317.9875,N,11709.0010,W,74.36,176.13,140510,,,A*4E
$GPRMC,171211.000,A,3317.9250,N,11708.9962,W,75.33,177.19,140510,,,A*40
$GPRMC,171214.000,A,3317.8619,N,11708.9920,W,74.84,176.84,140510,,,A*43
$GPRMC,171217.000,A,3317.8005,N,11708.9878,W,73.87,176.84,140510,,,A*43
$GPRMC,171220.000,A,3317.7403,N,11708.9836,W,73.38,176.84,140510,,,A*44
$GPRMC,171223.000,A,3317.6798,N,11708.9801,W,72.41,177.54,140510,,,A*40
$GPRMC,171226.000,A,3317.6186,N,11708.9798,W,71.93,178.24,140510,,,A*47
$GPRMC,171229.000,A,3317.5575,N,11708.9788,W,72.41,178.24,140510,,,A*4E
$GPRMC,171232.000,A,3317.4970,N,11708.9746,W,73.38,177.54,140510,,,A*49
$GPRMC,171238.000,A,3317.3766,N,11708.9688,W,71.44,177.89,140510,,,A*47
$GPRMC,171245.000,A,3317.2388,N,11708.9708,W,70.47,183.16,140510,,,A*4E
$GPRMC,171250.000,A,3317.1390,N,11708.9872,W,70.95,189.14,140510,,,A*45
$GPRMC,171253.000,A,3317.0788,N,11709.0036,W,70.95,192.66,140510,,,A*45
$GPRMC,171254.000,A,3317.0602,N,11709.0087,W,70.47,193.36,140510,,,A*40
$GPRMC,171259.000,A,3316.9691,N,11709.0406,W,68.04,198.28,140510,,,A*48
$GPRMC,171300.000,A,3316.9514,N,11709.0480,W,67.55,198.98,140510,,,A*45
$GPRMC,171304.000,A,3316.8819,N,11709.0786,W,67.55,201.80,140510,,,A*4F
$GPRMC,171344.000,A,3316.1612,N,11709.4658,W,72.41,196.88,140510,,,A*45
$GPRMC,171350.000,A,3316.0424,N,11709.5009,W,72.90,190.90,140510,,,A*46
$GPRMC,171353.000,A,3315.9829,N,11709.5128,W,71.95,188.44,140510,,,A*4A
$GPRMC,171356.000,A,3315.9234,N,11709.5212,W,71.50,185.62,140510,,,A*43
$GPRMC,171359.000,A,3315.8648,N,11709.5269,W,70.47,184.22,140510,,,A*4C
$GPRMC,171402.000,A,3315.8068,N,11709.5289,W,69.01,181.41,140510,,,A*45
$GPRMC,171405.000,A,3315.7505,N,11709.5282,W,67.55,179.65,140510,,,A*46
$GPRMC,171408.000,A,3315.6955,N,11709.5260,W,67.07,177.54,140510,,,A*44
$GPRMC,171411.000,A,3315.6427,N,11709.5179,W,65.61,174.02,140510,,,A*4D
$GPRMC,171414.000,A,3315.5889,N,11709.5089,W,66.09,172.27,140510,,,A*41
$GPRMC,171417.000,A,3315.5339,N,11709.4983,W,66.09,169.80,140510,,,A*47
$GPRMC,171420.000,A,3315.4811,N,11709.4851,W,64.64,168.05,140510,,,A*48
$GPRMC,171423.000,A,3315.4296,N,11709.4690,W,64.64,165.59,140510,,,A*49
$GPRMC,171426.000,A,3315.3800,N,11709.4484,W,65.12,162.42,140510,,,A*44
$GPRMC,171429.000,A,3315.3289,N,11709.4268,W,67.56,160.66,140510,,,A*42
$GPRMC,171432.000,A,3315.2758,N,11709.4043,W,68.55,160.31,140510,,,A*45
$GPRMC,171435.000,A,3315.2214,N,11709.3811,W,69.02,159.96,140510,,,A*43
$GPRMC,171438.000,A,3315.1666,N,11709.3583,W,69.50,159.96,140510,,,A*4D
$GPRMC,171441.000,A,3315.1113,N,11709.3342,W,70.96,160.66,140510,,,A*4A
$GPRMC,171444.000,A,3315.0550,N,11709.3103,W,71.95,160.31,140510,,,A*4A
$GPRMC,171447.000,A,3314.9977,N,11709.2859,W,73.39,159.96,140510,,,A*4C
$GPRMC,171450.000,A,3314.9394,N,11709.2604,W,74.36,160.31,140510,,,A*44
$GPRMC,171453.000,A,3314.8805,N,11709.2353,W,75.82,160.31,140510,,,A*4C
$GPRMC,171456.000,A,3314.8203,N,11709.2096,W,77.28,159.96,140510,,,A*4A
$GPRMC,171459.000,A,3314.7605,N,11709.1838,W,74.36,159.96,140510,,,A*4B
$GPRMC,171502.000,A,3314.7035,N,11709.1594,W,70.96,159.96,140510,,,A*44
$GPRMC,171505.000,A,3314.6478,N,11709.1356,W,69.98,160.31,140510,,,A*46
$GPRMC,171508.000,A,3314.5937,N,11709.1124,W,67.56,159.96,140510,,,A*42
$GPRMC,171511.000,A,3314.5413,N,11709.0895,W,64.64,159.96,140510,,,A*41
$GPRMC,171514.000,A,3314.4898,N,11709.0676,W,66.09,160.31,140510,,,A*47
$GPRMC,171517.000,A,3314.4373,N,11709.0451,W,67.56,160.31,140510,,,A*46
$GPRMC,171520.000,A,3314.3835,N,11709.0219,W,69.01,159.96,140510,,,A*4D
$GPRMC,171523.000,A,3314.3292,N,11708.9981,W,70.47,159.96,140510,,,A*41
$GPRMC,171526.000,A,3314.2735,N,11708.9746,W,70.47,160.31,140510,,,A*4F
$GPRMC,171529.000,A,3314.2184,N,11708.9508,W,69.98,159.96,140510,,,A*49
$GPRMC,171532.000,A,3314.1634,N,11708.9273,W,69.99,160.31,140510,,,A*41
$GPRMC,171535.000,A,3314.1084,N,11708.9035,W,70.47,159.96,140510,,,A*47
$GPRMC,171538.000,A,3314.0540,N,11708.8803,W,68.04,159.96,140510,,,A*44
$GPRMC,171541.000,A,3314.0009,N,11708.8575,W,67.56,159.96,140510,,,A*46
$GPRMC,171544.000,A,3313.9481,N,11708.8346,W,68.04,160.31,140510,,,A*40
$GPRMC,171547.000,A,3313.8943,N,11708.8118,W,68.04,160.31,140510,,,A*48
$GPRMC,171550.000,A,3313.8406,N,11708.7886,W,68.52,159.96,140510,,,A*47
$GPRMC,171553.000,A,3313.7862,N,11708.7651,W,69.02,159.96,140510,,,A*45
$GPRMC,171556.000,A,3313.7318,N,11708.7413,W,69.50,159.96,140510,,,A*45
$GPRMC,171559.000,A,3313.6764,N,11708.7175,W,70.96,159.96,140510,,,A*43
$GPRMC,171602.000,A,3313.6211,N,11708.6933,W,70.47,159.96,140510,,,A*4E
$GPRMC,171605.000,A,3313.5673,N,11708.6701,W,68.07,159.96,140510,,,A*48
$GPRMC,171608.000,A,3313.5139,N,11708.6466,W,67.55,159.96,140510,,,A*46
$GPRMC,171611.000,A,3313.4614,N,11708.6235,W,66.64,159.96,140510,,,A*44
$GPRMC,171614.000,A,3313.4096,N,11708.6000,W,66.58,158.55,140510,,,A*48
$GPRMC,171617.000,A,3313.3578,N,11708.5749,W,67.61,157.15,140510,,,A*40
$GPRMC,171620.000,A,3313.3053,N,11708.5485,W,69.50,156.09,140510,,,A*4B
$GPRMC,171623.000,A,3313.2519,N,11708.5195,W,69.56,154.69,140510,,,A*44
$GPRMC,171626.000,A,3313.1994,N,11708.4899,W,69.07,153.63,140510,,,A*46
$GPRMC,171629.000,A,3313.1479,N,11708.4584,W,68.59,152.23,140510,,,A*49
$GPRMC,171632.000,A,3313.0971,N,11708.4258,W,68.52,151.52,140510,,,A*4F
$GPRMC,171635.000,A,3313.0462,N,11708.3924,W,69.50,150.47,140510,,,A*46
$GPRMC,171638.000,A,3312.9957,N,11708.3583,W,69.98,150.47,140510,,,A*4D
$GPRMC,171641.000,A,3312.9445,N,11708.3216,W,70.47,148.01,140510,,,A*47
$GPRMC,171644.000,A,3312.8936,N,11708.2836,W,71.44,147.30,140510,,,A*4C
$GPRMC,171647.000,A,3312.8434,N,11708.2446,W,72.41,147.66,140510,,,A*4E
$GPRMC,171650.000,A,3312.7919,N,11708.2057,W,73.38,147.66,140510,,,A*4E
$GPRMC,171653.000,A,3312.7404,N,11708.1671,W,70.95,148.01,140510,,,A*47
$GPRMC,171656.000,A,3312.6921,N,11708.1310,W,67.55,147.66,140510,,,A*4F
$GPRMC,171659.000,A,3312.6461,N,11708.0956,W,64.64,146.25,140510,,,A*47
$GPRMC,171702.000,A,3312.6017,N,11708.0592,W,63.66,146.25,140510,,,A*4C
$GPRMC,171705.000,A,3312.5570,N,11708.0261,W,62.21,146.95,140510,,,A*4E
$GPRMC,171708.000,A,3312.5132,N,11707.9949,W,61.72,147.66,140510,,,A*4E
$GPRMC,171711.000,A,3312.4704,N,11707.9608,W,62.21,146.95,140510,,,A*46
$GPRMC,171714.000,A,3312.4273,N,11707.9289,W,60.75,147.30,140510,,,A*46
$GPRMC,171717.000,A,3312.3838,N,11707.8957,W,61.72,147.30,140510,,,A*48
$GPRMC,171720.000,A,3312.3407,N,11707.8632,W,61.72,148.01,140510,,,A*4D
$GPRMC,171723.000,A,3312.2950,N,11707.8288,W,65.61,148.01,140510,,,A*43
$GPRMC,171726.000,A,3312.2464,N,11707.7947,W,69.50,148.71,140510,,,A*42
$GPRMC,171729.000,A,3312.1949,N,11707.7593,W,71.93,150.12,140510,,,A*43
$GPRMC,171732.000,A,3312.1414,N,11707.7271,W,69.98,151.17,140510,,,A*41
$GPRMC,171735.000,A,3312.0928,N,11707.6942,W,66.58,151.52,140510,,,A*4D
$GPRMC,171738.000,A,3312.0433,N,11707.6640,W,66.58,152.23,140510,,,A*4F
$GPRMC,171741.000,A,3311.9927,N,11707.6350,W,67.07,152.93,140510,,,A*47
$GPRMC,171744.000,A,3311.9441,N,11707.6064,W,66.10,153.63,140510,,,A*42
$GPRMC,171747.000,A,3311.8946,N,11707.5784,W,66.59,154.34,140510,,,A*48
$GPRMC,171750.000,A,3311.8444,N,11707.5504,W,67.07,153.63,140510,,,A*44
$GPRMC,171753.000,A,3311.7932,N,11707.5230,W,68.53,153.98,140510,,,A*4E
$GPRMC,171756.000,A,3311.7401,N,11707.4944,W,70.96,154.34,140510,,,A*4E
$GPRMC,171759.000,A,3311.6860,N,11707.4635,W,72.42,154.34,140510,,,A*49
$GPRMC,171802.000,A,3311.6313,N,11707.4329,W,71.93,154.34,140510,,,A*40
$GPRMC,171805.000,A,3311.5785,N,11707.4023,W,69.50,153.98,140510,,,A*41
$GPRMC,171808.000,A,3311.5264,N,11707.3727,W,69.50,154.34,140510,,,A*43
$GPRMC,171811.000,A,3311.4742,N,11707.3431,W,68.52,154.34,140510,,,A*4C
$GPRMC,171814.000,A,3311.4230,N,11707.3135,W,68.52,153.63,140510,,,A*4D
$GPRMC,171817.000,A,3311.3709,N,11707.2842,W,69.50,154.69,140510,,,A*40
$GPRMC,171820.000,A,3311.3184,N,11707.2533,W,70.95,154.69,140510,,,A*4D
$GPRMC,171823.000,A,3311.2647,N,11707.2227,W,71.44,153.98,140510,,,A*41
$GPRMC,171826.000,A,3311.2106,N,11707.1915,W,71.93,153.98,140510,,,A*45
$GPRMC,171829.000,A,3311.1569,N,11707.1600,W,72.41,154.34,140510,,,A*42
$GPRMC,171830.000,A,3311.1385,N,11707.1497,W,72.41,154.34,140510,,,A*42
$GPRMC,171859.000,A,3310.6174,N,11706.8494,W,71.93,154.34,140510,,,A*40
$GPRMC,171902.000,A,3310.5646,N,11706.8185,W,70.95,153.98,140510,,,A*49
$GPRMC,171905.000,A,3310.5109,N,11706.7882,W,71.93,154.69,140510,,,A*4D
$GPRMC,171908.000,A,3310.4571,N,11706.7573,W,71.93,153.98,140510,,,A*40
$GPRMC,171911.000,A,3310.4037,N,11706.7264,W,72.41,154.34,140510,,,A*43
$GPRMC,171914.000,A,3310.3503,N,11706.6968,W,70.95,154.69,140510,,,A*46
$GPRMC,171917.000,A,3310.2962,N,11706.6662,W,70.47,154.34,140510,,,A*4D
$GPRMC,171920.000,A,3310.2440,N,11706.6343,W,70.47,153.63,140510,,,A*47
$GPRMC,171923.000,A,3310.1913,N,11706.6044,W,69.98,153.98,140510,,,A*46
$GPRMC,171926.000,A,3310.1381,N,11706.5745,W,70.47,154.69,140510,,,A*44
$GPRMC,171929.000,A,3310.0844,N,11706.5439,W,69.98,154.34,140510,,,A*42
$GPRMC,171932.000,A,3310.0323,N,11706.5136,W,70.47,154.34,140510,,,A*42
$GPRMC,171935.000,A,3309.9785,N,11706.4831,W,71.44,155.04,140510,,,A*43
$GPRMC,171936.000,A,3309.9602,N,11706.4731,W,71.44,155.04,140510,,,A*41
$GPRMC,172007.000,A,3309.3673,N,11706.2523,W,71.93,175.43,140510,,,A*49
$GPRMC,172010.000,A,3309.3061,N,11706.2510,W,72.41,178.95,140510,,,A*40
$GPRMC,172011.000,A,3309.2849,N,11706.2520,W,73.38,180.35,140510,,,A*43
$GPRMC,172029.000,A,3308.9238,N,11706.2694,W,69.98,182.81,140510,,,A*4E
$GPRMC,172038.000,A,3308.7512,N,11706.2787,W,69.01,182.81,140510,,,A*4C
$GPRMC,172041.000,A,3308.6939,N,11706.2813,W,68.52,182.81,140510,,,A*43
$GPRMC,172045.000,A,3308.6170,N,11706.2861,W,69.01,182.81,140510,,,A*40
$GPRMC,172048.000,A,3308.5594,N,11706.2893,W,69.01,182.46,140510,,,A*46
$GPRMC,172052.000,A,3308.4834,N,11706.2932,W,68.52,182.46,140510,,,A*46
$GPRMC,172055.000,A,3308.4265,N,11706.2961,W,68.04,182.46,140510,,,A*4A
$GPRMC,172058.000,A,3308.3711,N,11706.2993,W,65.61,183.16,140510,,,A*41
$GPRMC,172101.000,A,3308.3164,N,11706.3028,W,65.61,182.81,140510,,,A*4F
$GPRMC,172104.000,A,3308.2610,N,11706.3057,W,67.55,182.46,140510,,,A*49
$GPRMC,172107.000,A,3308.2044,N,11706.3083,W,69.01,182.81,140510,,,A*40
$GPRMC,172110.000,A,3308.1471,N,11706.3115,W,68.52,182.46,140510,,,A*45
$GPRMC,172113.000,A,3308.0898,N,11706.3144,W,68.04,182.46,140510,,,A*4B
$GPRMC,172116.000,A,3308.0335,N,11706.3173,W,67.07,182.46,140510,,,A*4A
$GPRMC,172118.000,A,3307.9958,N,11706.3196,W,67.55,183.16,140510,,,A*4B
$GPRMC,172124.000,A,3307.8864,N,11706.3237,W,65.61,181.41,140510,,,A*46
$GPRMC,172127.000,A,3307.8301,N,11706.3247,W,67.07,180.00,140510,,,A*4C
$GPRMC,172130.000,A,3307.7737,N,11706.3212,W,68.52,177.54,140510,,,A*42
$GPRMC,172133.000,A,3307.7184,N,11706.3128,W,69.01,174.38,140510,,,A*4B
$GPRMC,172136.000,A,3307.6611,N,11706.3041,W,69.01,171.91,140510,,,A*4C
$GPRMC,172140.000,A,3307.5867,N,11706.2864,W,68.04,167.34,140510,,,A*43
$GPRMC,172145.000,A,3307.4950,N,11706.2584,W,67.55,163.12,140510,,,A*4A
$GPRMC,172152.000,A,3307.3852,N,11706.2114,W,48.11,157.50,140510,,,A*49
$GPRMC,172156.000,A,3307.3421,N,11706.1889,W,40.34,155.74,140510,,,A*40
$GPRMC,172159.000,A,3307.3115,N,11706.1712,W,41.31,154.34,140510,,,A*41
$GPRMC,172202.000,A,3307.2826,N,11706.1541,W,35.96,153.98,140510,,,A*4F
$GPRMC,172205.000,A,3307.2568,N,11706.1390,W,33.53,153.63,140510,,,A*4E
$GPRMC,172208.000,A,3307.2320,N,11706.1245,W,32.56,153.63,140510,,,A*44
$GPRMC,172211.000,A,3307.2079,N,11706.1100,W,33.53,153.98,140510,,,A*41
$GPRMC,172214.000,A,3307.1821,N,11706.0949,W,34.50,153.98,140510,,,A*42
$GPRMC,172217.000,A,3307.1570,N,11706.0801,W,32.56,153.63,140510,,,A*41
$GPRMC,172220.000,A,3307.1316,N,11706.0656,W,35.48,153.63,140510,,,A*47
$GPRMC,172223.000,A,3307.1042,N,11706.0492,W,36.45,153.98,140510,,,A*46
$GPRMC,172226.000,A,3307.0779,N,11706.0334,W,35.48,153.63,140510,,,A*4C
$GPRMC,172229.000,A,3307.0524,N,11706.0186,W,31.59,155.39,140510,,,A*4F
$GPRMC,172232.000,A,3307.0309,N,11706.0067,W,25.76,155.39,140510,,,A*4A
$GPRMC,172235.000,A,3307.0125,N,11705.9967,W,24.32,156.45,140510,,,A*4B
$GPRMC,172238.000,A,3306.9945,N,11705.9874,W,22.36,155.04,140510,,,A*47
$GPRMC,172241.000,A,3306.9800,N,11705.9797,W,17.01,155.04,140510,,,A*49
$GPRMC,172244.000,A,3306.9675,N,11705.9726,W,16.52,155.39,140510,,,A*43
$GPRMC,172247.000,A,3306.9581,N,11705.9671,W,9.72,156.80,140510,,,A*76
$GPRMC,172250.000,A,3306.9520,N,11705.9639,W,7.29,155.74,140510,,,A*7F
$GPRMC,172253.000,A,3306.9443,N,11705.9600,W,13.12,155.74,140510,,,A*4F
$GPRMC,172256.000,A,3306.9327,N,11705.9539,W,16.04,156.09,140510,,,A*4D
$GPRMC,172259.000,A,3306.9221,N,11705.9488,W,6.80,156.09,140510,,,A*73
$GPRMC,172302.000,A,3306.9179,N,11705.9468,W,7.78,155.74,140510,,,A*73
$GPRMC,172306.000,A,3306.9066,N,11705.9411,W,12.64,155.04,140510,,,A*48
$GPRMC,172309.000,A,3306.8966,N,11705.9356,W,13.61,155.39,140510,,,A*41
$GPRMC,172312.000,A,3306.8873,N,11705.9308,W,8.32,157.50,140510,,,A*74
$GPRMC,172313.000,A,3306.8854,N,11705.9298,W,5.35,156.80,140510,,,A*7E
$GPRMC,172318.000,A,3306.8767,N,11705.9250,W,10.69,155.74,140510,,,A*4B
$GPRMC,172321.000,A,3306.8664,N,11705.9192,W,18.01,155.74,140510,,,A*48
$GPRMC,172324.000,A,3306.8516,N,11705.9111,W,20.41,157.15,140510,,,A*4A
$GPRMC,172327.000,A,3306.8377,N,11705.9050,W,12.64,158.55,140510,,,A*41
$GPRMC,172330.000,A,3306.8291,N,11705.9002,W,12.64,155.74,140510,,,A*47
$GPRMC,172333.000,A,3306.8162,N,11705.8937,W,20.92,156.09,140510,,,A*44
$GPRMC,172336.000,A,3306.8001,N,11705.8850,W,22.36,155.39,140510,,,A*49
$GPRMC,172339.000,A,3306.7833,N,11705.8757,W,22.36,156.09,140510,,,A*48
$GPRMC,172342.000,A,3306.7647,N,11705.8667,W,24.80,157.15,140510,,,A*4C
$GPRMC,172345.000,A,3306.7444,N,11705.8564,W,27.72,155.74,140510,,,A*41
$GPRMC,172348.000,A,3306.7222,N,11705.8438,W,30.15,153.28,140510,,,A*4A
$GPRMC,172351.000,A,3306.6977,N,11705.8294,W,35.98,153.98,140510,,,A*43
$GPRMC,172354.000,A,3306.6684,N,11705.8110,W,40.35,151.17,140510,,,A*4A
$GPRMC,172357.000,A,3306.6392,N,11705.7917,W,41.32,150.82,140510,,,A*40
$GPRMC,172400.000,A,3306.6086,N,11705.7711,W,43.26,150.12,140510,,,A*45
$GPRMC,172403.000,A,3306.5764,N,11705.7492,W,45.69,150.47,140510,,,A*4B
$GPRMC,172406.000,A,3306.5420,N,11705.7267,W,48.61,151.88,140510,,,A*46
$GPRMC,172409.000,A,3306.5049,N,11705.7045,W,50.06,153.98,140510,,,A*4B
$GPRMC,172412.000,A,3306.4670,N,11705.6823,W,52.01,153.63,140510,,,A*44
$GPRMC,172415.000,A,3306.4270,N,11705.6591,W,53.94,153.63,140510,,,A*4E
$GPRMC,172418.000,A,3306.3865,N,11705.6356,W,54.43,153.98,140510,,,A*4E
$GPRMC,172421.000,A,3306.3434,N,11705.6108,W,58.80,152.58,140510,,,A*4B
$GPRMC,172424.000,A,3306.2989,N,11705.5828,W,59.78,151.88,140510,,,A*44
$GPRMC,172426.000,A,3306.2680,N,11705.5638,W,60.75,152.58,140510,,,A*46
$GPRMC,172431.000,A,3306.1930,N,11705.5197,W,59.78,154.34,140510,,,A*4E
$GPRMC,172432.000,A,3306.1786,N,11705.5110,W,59.78,154.34,140510,,,A*41
$GPRMC,172435.000,A,3306.1335,N,11705.4843,W,60.75,153.98,140510,,,A*42
$GPRMC,172444.000,A,3306.0015,N,11705.4029,W,59.78,150.47,140510,,,A*46
$GPRMC,172446.000,A,3305.9726,N,11705.3820,W,60.26,149.41,140510,,,A*40
$GPRMC,172451.000,A,3305.9034,N,11705.3285,W,58.80,146.25,140510,,,A*4D
$GPRMC,172454.000,A,3305.8628,N,11705.2944,W,58.80,144.49,140510,,,A*4D
$GPRMC,172459.000,A,3305.7975,N,11705.2352,W,60.26,142.03,140510,,,A*4A
$GPRMC,172503.000,A,3305.7463,N,11705.1837,W,59.78,138.87,140510,,,A*45
$GPRMC,172506.000,A,3305.7099,N,11705.1451,W,59.29,137.81,140510,,,A*40
$GPRMC,172509.000,A,3305.6732,N,11705.1055,W,59.78,138.52,140510,,,A*4D
$GPRMC,172512.000,A,3305.6356,N,11705.0656,W,60.26,138.87,140510,,,A*4C
$GPRMC,172515.000,A,3305.5982,N,11705.0260,W,60.26,138.52,140510,,,A*42
$GPRMC,172518.000,A,3305.5603,N,11704.9848,W,62.21,137.81,140510,,,A*45
$GPRMC,172521.000,A,3305.5216,N,11704.9429,W,63.66,138.16,140510,,,A*47
$GPRMC,172524.000,A,3305.4817,N,11704.9001,W,64.64,137.81,140510,,,A*42
$GPRMC,172527.000,A,3305.4421,N,11704.8573,W,63.18,137.81,140510,,,A*45
$GPRMC,172530.000,A,3305.4035,N,11704.8155,W,62.21,137.81,140510,,,A*49
$GPRMC,172533.000,A,3305.3646,N,11704.7743,W,62.69,137.81,140510,,,A*4D
$GPRMC,172537.000,A,3305.3121,N,11704.7180,W,64.64,137.81,140510,,,A*4D
$GPRMC,172549.000,A,3305.1518,N,11704.5522,W,62.69,141.33,140510,,,A*45
$GPRMC,172552.000,A,3305.1097,N,11704.5155,W,62.21,144.14,140510,,,A*45
$GPRMC,172555.000,A,3305.0656,N,11704.4824,W,62.21,146.25,140510,,,A*46
$GPRMC,172557.000,A,3305.0347,N,11704.4605,W,63.66,147.66,140510,,,A*48
$GPRMC,172602.000,A,3304.9597,N,11704.4074,W,63.66,150.82,140510,,,A*44
$GPRMC,172605.000,A,3304.9133,N,11704.3781,W,63.66,152.93,140510,,,A*41
$GPRMC,172621.000,A,3304.6610,N,11704.2645,W,59.78,164.18,140510,,,A*46
$GPRMC,172626.000,A,3304.5786,N,11704.2429,W,60.75,168.75,140510,,,A*44
$GPRMC,172627.000,A,3304.5612,N,11704.2390,W,61.23,169.45,140510,,,A*4C
$GPRMC,172633.000,A,3304.4598,N,11704.2236,W,61.72,173.32,140510,,,A*4B
$GPRMC,172636.000,A,3304.4090,N,11704.2168,W,62.21,174.02,140510,,,A*4A
$GPRMC,172639.000,A,3304.3575,N,11704.2107,W,62.69,174.02,140510,,,A*49
$GPRMC,172642.000,A,3304.3040,N,11704.2052,W,63.66,174.73,140510,,,A*4F
$GPRMC,172645.000,A,3304.2548,N,11704.1943,W,62.69,172.97,140510,,,A*4C
$GPRMC,172648.000,A,3304.2001,N,11704.1882,W,65.12,173.67,140510,,,A*40
$GPRMC,172651.000,A,3304.1450,N,11704.1795,W,66.58,173.32,140510,,,A*4F
$GPRMC,172654.000,A,3304.0906,N,11704.1701,W,65.12,173.32,140510,,,A*45
$GPRMC,172657.000,A,3304.0378,N,11704.1618,W,64.15,173.32,140510,,,A*4A
$GPRMC,172700.000,A,3303.9860,N,11704.1528,W,64.15,173.32,140510,,,A*45
$GPRMC,172703.000,A,3303.9297,N,11704.1486,W,64.64,176.13,140510,,,A*41
$GPRMC,172706.000,A,3303.8763,N,11704.1473,W,63.18,180.00,140510,,,A*46
$GPRMC,172709.000,A,3303.8257,N,11704.1470,W,63.18,182.46,140510,,,A*48
$GPRMC,172712.000,A,3303.7729,N,11704.1508,W,64.64,185.62,140510,,,A*42
$GPRMC,172715.000,A,3303.7195,N,11704.1582,W,65.61,188.79,140510,,,A*45
$GPRMC,172718.000,A,3303.6661,N,11704.1689,W,64.64,190.90,140510,,,A*47
