NMEA Sentence Code,UTC Time,Status,Latitude,Latitude Direction,Longitude,Longitude Direction,Speed (knots),Track Angle (degrees true),Date,MagneticVariation,Magnetic Variation Direction,[FAA Mode]-Optional,Checksum
$GPRMC,034138.07,A,3248.7946,N,11709.0287,W,25.528,182.646,181210,0,W,A*1F
$GPRMC,034141.07,A,3248.7739,N,11709.0285,W,24.947,177.863,181210,0,W,A*12
$GPRMC,034144.07,A,3248.7529,N,11709.0264,W,25.216,177.336,181210,0,W,A*1E
$GPRMC,034147.07,A,3248.7324,N,11709.0247,W,25.468,178.320,181210,0,W,A*10
$GPRMC,034150.07,A,3248.7113,N,11709.0236,W,25.744,178.418,181210,0,W,A*17
$GPRMC,034153.07,A,3248.6901,N,11709.0242,W,25.435,186.264,181210,0,W,A*14
$GPRMC,034156.07,A,3248.6695,N,11709.0293,W,24.996,195.654,181210,0,W,A*1F
$GPRMC,034159.06,A,3248.6512,N,11709.0368,W,21.997,200.964,181210,0,W,A*1F
$GPRMC,034202.06,A,3248.6367,N,11709.0446,W,16.762,204.543,181210,0,W,A*10
$GPRMC,034205.06,A,3248.6260,N,11709.0507,W,12.222,204.834,181210,0,W,A*1D
$GPRMC,034208.06,A,3248.6186,N,11709.0546,W,7.841,204.488,181210,0,W,A*2E
$GPRMC,034214.06,A,3248.6149,N,11709.0575,W,5.981,207.581,181210,0,W,A*24
$GPRMC,034217.06,A,3248.6069,N,11709.0625,W,14.786,204.188,181210,0,W,A*15
$GPRMC,034220.06,A,3248.5930,N,11709.0704,W,20.608,204.331,181210,0,W,A*15
$GPRMC,034223.06,A,3248.5762,N,11709.0786,W,22.886,197.538,181210,0,W,A*19
$GPRMC,034226.06,A,3248.5558,N,11709.0841,W,26.554,187.463,181210,0,W,A*1B
$GPRMC,034229.06,A,3248.5321,N,11709.0851,W,29.820,176.006,181210,0,W,A*15
$GPRMC,034232.06,A,3248.5059,N,11709.0791,W,33.652,165.475,181210,0,W,A*12
$GPRMC,034235.06,A,3248.4782,N,11709.0675,W,36.379,158.991,181210,0,W,A*1E
$GPRMC,034238.06,A,3248.4487,N,11709.0544,W,37.457,159.426,181210,0,W,A*1E
$GPRMC,034241.06,A,3248.4195,N,11709.0409,W,36.925,158.705,181210,0,W,A*14
$GPRMC,034244.06,A,3248.3905,N,11709.0273,W,37.484,159.277,181210,0,W,A*1A
$GPRMC,034247.06,A,3248.3610,N,11709.0136,W,38.473,159.626,181210,0,W,A*17
$GPRMC,034250.06,A,3248.3316,N,11709.0001,W,36.871,162.551,181210,0,W,A*1C
$GPRMC,034253.06,A,3248.3041,N,11708.9933,W,31.899,176.712,181210,0,W,A*1F
$GPRMC,034256.06,A,3248.2806,N,11708.9972,W,25.593,197.142,181210,0,W,A*1B
$GPRMC,034259.06,A,3248.2647,N,11709.0062,W,19.665,212.201,181210,0,W,A*10
$GPRMC,034302.06,A,3248.2501,N,11709.0198,W,23.626,220.314,181210,0,W,A*10
$GPRMC,034305.06,A,3248.2348,N,11709.0360,W,24.180,218.800,181210,0,W,A*10
$GPRMC,034308.06,A,3248.2206,N,11709.0495,W,17.262,217.136,181210,0,W,A*17
$GPRMC,034311.06,A,3248.2132,N,11709.0573,W,6.333,220.693,181210,0,W,A*2B
$GPRMC,034314.06,A,3248.2077,N,11709.0636,W,13.138,220.529,181210,0,W,A*13
$GPRMC,034317.06,A,3248.1974,N,11709.0749,W,18.302,221.454,181210,0,W,A*1A
$GPRMC,034320.06,A,3248.1872,N,11709.0852,W,13.662,211.862,181210,0,W,A*1E
$GPRMC,034323.06,A,3248.1763,N,11709.0855,W,15.420,165.630,181210,0,W,A*1E
$GPRMC,034326.06,A,3248.1602,N,11709.0795,W,23.258,162.310,181210,0,W,A*12
$GPRMC,034329.06,A,3248.1388,N,11709.0710,W,29.676,161.989,181210,0,W,A*1C
$GPRMC,034332.06,A,3248.1126,N,11709.0604,W,36.931,161.499,181210,0,W,A*1A
$GPRMC,034335.06,A,3248.0814,N,11709.0466,W,41.065,161.225,181210,0,W,A*1B
$GPRMC,034338.06,A,3248.0482,N,11709.0323,W,42.257,161.189,181210,0,W,A*16
$GPRMC,034341.06,A,3248.0130,N,11709.0177,W,46.503,161.186,181210,0,W,A*1A
$GPRMC,034344.06,A,3247.9756,N,11709.0032,W,46.995,163.501,181210,0,W,A*15
$GPRMC,034347.06,A,3247.9366,N,11708.9920,W,47.590,169.013,181210,0,W,A*17
$GPRMC,034350.06,A,3247.8979,N,11708.9849,W,45.530,173.205,181210,0,W,A*1C
$GPRMC,034353.06,A,3247.8583,N,11708.9827,W,46.352,178.418,181210,0,W,A*1E
$GPRMC,034356.06,A,3247.8189,N,11708.9822,W,47.590,180.611,181210,0,W,A*15
$GPRMC,034359.06,A,3247.7790,N,11708.9839,W,48.461,182.883,181210,0,W,A*16
$GPRMC,034402.06,A,3247.7384,N,11708.9871,W,48.807,183.103,181210,0,W,A*1E
$GPRMC,034405.06,A,3247.6975,N,11708.9901,W,48.811,183.130,181210,0,W,A*1D
$GPRMC,034408.06,A,3247.6570,N,11708.9928,W,49.101,183.036,181210,0,W,A*1C
$GPRMC,034411.06,A,3247.6158,N,11708.9946,W,50.063,180.393,181210,0,W,A*10
$GPRMC,034414.06,A,3247.5733,N,11708.9935,W,50.870,176.924,181210,0,W,A*1C
$GPRMC,034417.06,A,3247.5298,N,11708.9893,W,52.872,173.508,181210,0,W,A*11
$GPRMC,034420.06,A,3247.4859,N,11708.9810,W,53.957,169.148,181210,0,W,A*14
$GPRMC,034423.06,A,3247.4417,N,11708.9681,W,54.998,163.172,181210,0,W,A*10
$GPRMC,034426.06,A,3247.3977,N,11708.9509,W,54.890,160.826,181210,0,W,A*18
$GPRMC,034429.06,A,3247.3546,N,11708.9319,W,54.342,157.798,181210,0,W,A*14
$GPRMC,034432.06,A,3247.3136,N,11708.9097,W,53.676,153.604,181210,0,W,A*1D
$GPRMC,034435.06,A,3247.2750,N,11708.8839,W,51.218,148.667,181210,0,W,A*11
$GPRMC,034438.06,A,3247.2396,N,11708.8573,W,48.375,146.158,181210,0,W,A*16
$GPRMC,034441.06,A,3247.2066,N,11708.8294,W,48.846,142.316,181210,0,W,A*1D
$GPRMC,034444.06,A,3247.1752,N,11708.7983,W,48.820,139.507,181210,0,W,A*13
$GPRMC,034447.06,A,3247.1445,N,11708.7646,W,50.198,135.849,181210,0,W,A*1B
$GPRMC,034450.06,A,3247.1148,N,11708.7277,W,52.100,132.628,181210,0,W,A*1E
$GPRMC,034453.06,A,3247.0868,N,11708.6876,W,51.710,128.528,181210,0,W,A*11
$GPRMC,034456.06,A,3247.0621,N,11708.6472,W,49.915,125.645,181210,0,W,A*18
$GPRMC,034459.06,A,3247.0388,N,11708.6069,W,48.919,123.897,181210,0,W,A*15
$GPRMC,034502.06,A,3247.0172,N,11708.5681,W,45.243,124.335,181210,0,W,A*13
$GPRMC,034505.06,A,3246.9978,N,11708.5345,W,38.555,124.968,181210,0,W,A*1B
$GPRMC,034508.06,A,3246.9817,N,11708.5072,W,31.399,125.569,181210,0,W,A*1A
$GPRMC,034511.06,A,3246.9675,N,11708.4829,W,28.310,125.024,181210,0,W,A*1A
$GPRMC,034514.06,A,3246.9545,N,11708.4619,W,25.636,126.978,181210,0,W,A*1D
$GPRMC,034517.06,A,3246.9428,N,11708.4433,W,22.796,127.593,181210,0,W,A*1A
$GPRMC,034520.06,A,3246.9330,N,11708.4287,W,16.925,129.769,181210,0,W,A*11
$GPRMC,034523.06,A,3246.9246,N,11708.4168,W,15.912,131.524,181210,0,W,A*15
$GPRMC,034526.06,A,3246.9160,N,11708.4054,W,16.665,132.037,181210,0,W,A*11
$GPRMC,034529.06,A,3246.9061,N,11708.3925,W,19.357,134.635,181210,0,W,A*1F
$GPRMC,034532.06,A,3246.8962,N,11708.3805,W,15.812,134.715,181210,0,W,A*18
$GPRMC,034535.06,A,3246.8869,N,11708.3698,W,17.315,136.184,181210,0,W,A*1D
$GPRMC,034538.06,A,3246.8772,N,11708.3591,W,14.381,136.718,181210,0,W,A*12
$GPRMC,034541.06,A,3246.8695,N,11708.3512,W,12.138,137.549,181210,0,W,A*1E
$GPRMC,034544.06,A,3246.8609,N,11708.3429,W,16.086,140.509,181210,0,W,A*13
$GPRMC,034547.06,A,3246.8499,N,11708.3315,W,19.300,141.036,181210,0,W,A*19
$GPRMC,034550.06,A,3246.8375,N,11708.3194,W,20.430,141.333,181210,0,W,A*19
$GPRMC,034553.06,A,3246.8235,N,11708.3066,W,21.911,142.472,181210,0,W,A*1D
$GPRMC,034556.06,A,3246.8089,N,11708.2940,W,21.625,145.162,181210,0,W,A*1A
$GPRMC,034559.06,A,3246.7941,N,11708.2821,W,21.431,146.629,181210,0,W,A*1D
$GPRMC,034602.06,A,3246.7798,N,11708.2711,W,19.781,147.374,181210,0,W,A*19
$GPRMC,034605.06,A,3246.7652,N,11708.2604,W,21.386,148.138,181210,0,W,A*11
$GPRMC,034608.06,A,3246.7498,N,11708.2491,W,21.617,148.440,181210,0,W,A*11
$GPRMC,034611.06,A,3246.7339,N,11708.2376,W,23.514,148.804,181210,0,W,A*15
$GPRMC,034614.06,A,3246.7165,N,11708.2250,W,24.875,148.084,181210,0,W,A*13
$GPRMC,034617.06,A,3246.6991,N,11708.2121,W,24.308,148.810,181210,0,W,A*13
$GPRMC,034620.06,A,3246.6821,N,11708.1998,W,24.236,148.534,181210,0,W,A*13
$GPRMC,034623.06,A,3246.6635,N,11708.1863,W,27.528,148.281,181210,0,W,A*1C
$GPRMC,034626.06,A,3246.6433,N,11708.1716,W,28.171,148.436,181210,0,W,A*1D
$GPRMC,034629.06,A,3246.6230,N,11708.1570,W,28.139,148.542,181210,0,W,A*1B
$GPRMC,034632.06,A,3246.6025,N,11708.1424,W,28.875,148.940,181210,0,W,A*18
$GPRMC,034635.06,A,3246.5822,N,11708.1277,W,27.996,148.126,181210,0,W,A*18
$GPRMC,034638.06,A,3246.5621,N,11708.1133,W,28.306,148.616,181210,0,W,A*13
$GPRMC,034641.06,A,3246.5421,N,11708.0984,W,29.082,148.038,181210,0,W,A*1E
$GPRMC,034644.06,A,3246.5218,N,11708.0838,W,27.077,147.877,181210,0,W,A*19
$GPRMC,034647.06,A,3246.5044,N,11708.0712,W,22.804,148.757,181210,0,W,A*1D
$GPRMC,034650.06,A,3246.4894,N,11708.0600,W,20.887,148.581,181210,0,W,A*1D
$GPRMC,034653.06,A,3246.4749,N,11708.0493,W,20.456,148.342,181210,0,W,A*10
$GPRMC,034656.06,A,3246.4615,N,11708.0394,W,19.733,148.206,181210,0,W,A*16
$GPRMC,034659.06,A,3246.4469,N,11708.0285,W,21.364,148.544,181210,0,W,A*1D
$GPRMC,034702.06,A,3246.4331,N,11708.0183,W,19.183,148.218,181210,0,W,A*13
$GPRMC,034705.06,A,3246.4182,N,11708.0075,W,22.945,148.616,181210,0,W,A*16
$GPRMC,034708.06,A,3246.4008,N,11707.9950,W,25.224,148.125,181210,0,W,A*1C
$GPRMC,034711.06,A,3246.3824,N,11707.9818,W,25.808,148.226,181210,0,W,A*1C
$GPRMC,034714.06,A,3246.3644,N,11707.9685,W,24.691,148.555,181210,0,W,A*17
$GPRMC,034717.06,A,3246.3465,N,11707.9553,W,25.308,148.397,181210,0,W,A*11
$GPRMC,034720.06,A,3246.3282,N,11707.9419,W,25.799,147.992,181210,0,W,A*19
$GPRMC,034723.06,A,3246.3096,N,11707.9281,W,26.679,147.917,181210,0,W,A*1B
$GPRMC,034726.06,A,3246.2902,N,11707.9138,W,27.351,148.113,181210,0,W,A*17
$GPRMC,034729.06,A,3246.2703,N,11707.8995,W,28.109,148.581,181210,0,W,A*16
$GPRMC,034732.06,A,3246.2501,N,11707.8852,W,28.044,148.431,181210,0,W,A*14
$GPRMC,034735.06,A,3246.2302,N,11707.8711,W,27.232,148.242,181210,0,W,A*10
$GPRMC,034738.06,A,3246.2110,N,11707.8574,W,26.145,149.380,181210,0,W,A*11
$GPRMC,034741.06,A,3246.1930,N,11707.8453,W,23.846,149.985,181210,0,W,A*12
$GPRMC,034744.06,A,3246.1753,N,11707.8339,W,24.298,151.178,181210,0,W,A*1A
$GPRMC,034747.06,A,3246.1559,N,11707.8216,W,27.948,151.601,181210,0,W,A*11
$GPRMC,034750.06,A,3246.1347,N,11707.8085,W,28.559,152.196,181210,0,W,A*1F
$GPRMC,034753.06,A,3246.1136,N,11707.7957,W,28.401,154.084,181210,0,W,A*19
$GPRMC,034756.06,A,3246.0923,N,11707.7834,W,28.465,154.374,181210,0,W,A*1B
$GPRMC,034759.06,A,3246.0711,N,11707.7717,W,27.495,155.243,181210,0,W,A*11
$GPRMC,034802.06,A,3246.0504,N,11707.7606,W,27.606,155.803,181210,0,W,A*11
$GPRMC,034805.06,A,3246.0289,N,11707.7497,W,28.103,156.297,181210,0,W,A*17
$GPRMC,034808.06,A,3246.0070,N,11707.7390,W,29.432,157.657,181210,0,W,A*11
$GPRMC,034811.06,A,3245.9837,N,11707.7282,W,30.314,158.679,181210,0,W,A*12
$GPRMC,034814.06,A,3245.9590,N,11707.7170,W,32.027,159.247,181210,0,W,A*10
$GPRMC,034817.06,A,3245.9333,N,11707.7059,W,33.134,160.477,181210,0,W,A*1B
$GPRMC,034820.06,A,3245.9069,N,11707.6946,W,34.221,160.819,181210,0,W,A*11
$GPRMC,034823.06,A,3245.8791,N,11707.6838,W,35.345,162.200,181210,0,W,A*19
$GPRMC,034826.06,A,3245.8502,N,11707.6733,W,36.777,163.442,181210,0,W,A*17
$GPRMC,034829.06,A,3245.8199,N,11707.6633,W,38.177,164.331,181210,0,W,A*13
$GPRMC,034832.06,A,3245.7886,N,11707.6533,W,39.132,165.775,181210,0,W,A*17
$GPRMC,034835.06,A,3245.7578,N,11707.6450,W,35.513,166.354,181210,0,W,A*17
$GPRMC,034838.06,A,3245.7305,N,11707.6375,W,33.456,166.897,181210,0,W,A*14
$GPRMC,034841.06,A,3245.7030,N,11707.6302,W,34.398,166.861,181210,0,W,A*14
$GPRMC,034844.06,A,3245.6743,N,11707.6226,W,36.295,166.672,181210,0,W,A*16
$GPRMC,034847.06,A,3245.6437,N,11707.6142,W,38.582,166.752,181210,0,W,A*18
$GPRMC,034850.06,A,3245.6114,N,11707.6050,W,40.710,166.578,181210,0,W,A*14
$GPRMC,034853.06,A,3245.5778,N,11707.5951,W,42.080,165.593,181210,0,W,A*19
$GPRMC,034856.06,A,3245.5434,N,11707.5841,W,42.873,164.602,181210,0,W,A*19
$GPRMC,034859.06,A,3245.5099,N,11707.5726,W,41.627,164.099,181210,0,W,A*13
$GPRMC,034902.06,A,3245.4764,N,11707.5614,W,41.927,164.065,181210,0,W,A*14
$GPRMC,034905.06,A,3245.4424,N,11707.5498,W,42.841,163.630,181210,0,W,A*11
$GPRMC,034908.06,A,3245.4072,N,11707.5374,W,44.811,163.890,181210,0,W,A*19
$GPRMC,034911.06,A,3245.3711,N,11707.5250,W,44.783,164.022,181210,0,W,A*11
$GPRMC,034914.06,A,3245.3351,N,11707.5129,W,45.646,164.148,181210,0,W,A*1D
$GPRMC,034917.06,A,3245.2976,N,11707.5005,W,46.657,164.014,181210,0,W,A*14
$GPRMC,034920.06,A,3245.2593,N,11707.4877,W,48.264,163.876,181210,0,W,A*1A
$GPRMC,034923.06,A,3245.2206,N,11707.4743,W,48.759,164.037,181210,0,W,A*1B
$GPRMC,034926.06,A,3245.1806,N,11707.4606,W,50.438,163.662,181210,0,W,A*1B
$GPRMC,034929.06,A,3245.1399,N,11707.4465,W,51.323,163.891,181210,0,W,A*10
$GPRMC,034932.06,A,3245.0984,N,11707.4322,W,51.242,163.694,181210,0,W,A*14
$GPRMC,034935.06,A,3245.0574,N,11707.4182,W,50.774,163.957,181210,0,W,A*19
$GPRMC,034938.06,A,3245.0169,N,11707.4044,W,49.871,163.973,181210,0,W,A*13
$GPRMC,034941.06,A,3244.9777,N,11707.3896,W,48.933,160.765,181210,0,W,A*10
$GPRMC,034944.06,A,3244.9399,N,11707.3719,W,49.234,156.176,181210,0,W,A*15
$GPRMC,034947.06,A,3244.9025,N,11707.3500,W,50.773,152.734,181210,0,W,A*12
$GPRMC,034950.06,A,3244.8667,N,11707.3244,W,48.919,146.649,181210,0,W,A*17
$GPRMC,034953.06,A,3244.8329,N,11707.2962,W,50.030,144.614,181210,0,W,A*14
$GPRMC,034956.06,A,3244.7981,N,11707.2663,W,52.426,144.277,181210,0,W,A*18
$GPRMC,034959.06,A,3244.7620,N,11707.2353,W,53.562,144.546,181210,0,W,A*10
$GPRMC,035002.06,A,3244.7256,N,11707.2041,W,53.204,144.370,181210,0,W,A*17
$GPRMC,035005.06,A,3244.6897,N,11707.1734,W,52.936,144.758,181210,0,W,A*15
$GPRMC,035008.06,A,3244.6532,N,11707.1426,W,53.923,144.818,181210,0,W,A*14
$GPRMC,035011.06,A,3244.6164,N,11707.1115,W,54.165,144.682,181210,0,W,A*1E
$GPRMC,035014.06,A,3244.5790,N,11707.0804,W,54.603,144.596,181210,0,W,A*1C
$GPRMC,035017.06,A,3244.5415,N,11707.0496,W,54.188,146.581,181210,0,W,A*16
$GPRMC,035020.06,A,3244.5040,N,11707.0212,W,52.253,148.625,181210,0,W,A*1C
$GPRMC,035023.06,A,3244.4668,N,11706.9955,W,50.876,150.496,181210,0,W,A*1E
$GPRMC,035026.06,A,3244.4303,N,11706.9718,W,48.970,151.762,181210,0,W,A*13
$GPRMC,035029.06,A,3244.3942,N,11706.9504,W,47.832,154.023,181210,0,W,A*14
$GPRMC,035032.06,A,3244.3581,N,11706.9304,W,47.959,155.267,181210,0,W,A*14
$GPRMC,035035.06,A,3244.3213,N,11706.9114,W,49.033,157.398,181210,0,W,A*14
$GPRMC,035038.06,A,3244.2831,N,11706.8941,W,49.414,159.330,181210,0,W,A*16
$GPRMC,035041.06,A,3244.2454,N,11706.8780,W,46.153,159.098,181210,0,W,A*1C
$GPRMC,035044.06,A,3244.2105,N,11706.8636,W,42.716,160.928,181210,0,W,A*1F
$GPRMC,035047.06,A,3244.1770,N,11706.8504,W,42.015,160.497,181210,0,W,A*14
$GPRMC,035050.06,A,3244.1438,N,11706.8368,W,41.961,161.190,181210,0,W,A*1B
$GPRMC,035053.06,A,3244.1113,N,11706.8240,W,40.368,160.950,181210,0,W,A*18
$GPRMC,035056.06,A,3244.0798,N,11706.8111,W,40.023,161.041,181210,0,W,A*1A
$GPRMC,035059.06,A,3244.0490,N,11706.7985,W,38.229,160.264,181210,0,W,A*17
$GPRMC,035102.06,A,3244.0199,N,11706.7844,W,38.391,156.543,181210,0,W,A*1D
$GPRMC,035105.06,A,3243.9913,N,11706.7677,W,38.858,150.816,181210,0,W,A*15
$GPRMC,035108.06,A,3243.9637,N,11706.7476,W,38.907,145.321,181210,0,W,A*12
$GPRMC,035111.06,A,3243.9375,N,11706.7238,W,39.318,140.028,181210,0,W,A*1F
$GPRMC,035114.06,A,3243.9134,N,11706.6967,W,39.368,133.801,181210,0,W,A*1D
$GPRMC,035117.06,A,3243.8922,N,11706.6675,W,38.965,129.063,181210,0,W,A*1D
$GPRMC,035120.06,A,3243.8732,N,11706.6358,W,39.389,124.034,181210,0,W,A*1A
$GPRMC,035123.06,A,3243.8547,N,11706.6020,W,41.866,122.936,181210,0,W,A*1D
$GPRMC,035126.06,A,3243.8349,N,11706.5661,W,44.086,123.303,181210,0,W,A*1E
$GPRMC,035129.06,A,3243.8145,N,11706.5292,W,45.268,123.522,181210,0,W,A*11
$GPRMC,035132.06,A,3243.7942,N,11706.4924,W,43.337,122.973,181210,0,W,A*18
$GPRMC,035135.06,A,3243.7744,N,11706.4569,W,42.054,123.750,181210,0,W,A*1B
$GPRMC,035138.06,A,3243.7551,N,11706.4220,W,43.558,122.980,181210,0,W,A*10
$GPRMC,035141.06,A,3243.7335,N,11706.3852,W,46.817,126.861,181210,0,W,A*1B
$GPRMC,035144.06,A,3243.7085,N,11706.3490,W,47.566,130.933,181210,0,W,A*1F
$GPRMC,035147.06,A,3243.6804,N,11706.3144,W,48.862,135.899,181210,0,W,A*12
$GPRMC,035150.06,A,3243.6498,N,11706.2826,W,49.466,141.005,181210,0,W,A*16
$GPRMC,035153.06,A,3243.6164,N,11706.2539,W,49.655,145.544,181210,0,W,A*16
$GPRMC,035156.06,A,3243.5808,N,11706.2282,W,50.128,151.280,181210,0,W,A*1B
$GPRMC,035159.06,A,3243.5435,N,11706.2066,W,49.576,155.709,181210,0,W,A*19
$GPRMC,035202.06,A,3243.5047,N,11706.1888,W,50.003,160.626,181210,0,W,A*1B
$GPRMC,035205.06,A,3243.4645,N,11706.1752,W,49.689,165.693,181210,0,W,A*16
$GPRMC,035208.06,A,3243.4240,N,11706.1654,W,49.416,170.125,181210,0,W,A*17
$GPRMC,035211.06,A,3243.3830,N,11706.1596,W,50.347,175.353,181210,0,W,A*15
$GPRMC,035214.06,A,3243.3407,N,11706.1578,W,51.052,179.849,181210,0,W,A*12
$GPRMC,035217.06,A,3243.2983,N,11706.1603,W,51.001,183.382,181210,0,W,A*11
$GPRMC,035220.06,A,3243.2553,N,11706.1641,W,51.805,183.478,181210,0,W,A*1C
$GPRMC,035223.06,A,3243.2127,N,11706.1674,W,51.862,183.232,181210,0,W,A*17
$GPRMC,035226.06,A,3243.1691,N,11706.1705,W,51.713,183.713,181210,0,W,A*13
$GPRMC,035229.06,A,3243.1258,N,11706.1737,W,52.161,183.234,181210,0,W,A*1C
$GPRMC,035232.06,A,3243.0829,N,11706.1766,W,51.388,183.514,181210,0,W,A*1C
$GPRMC,035235.06,A,3243.0396,N,11706.1802,W,52.037,183.143,181210,0,W,A*1B
$GPRMC,035238.06,A,3242.9965,N,11706.1827,W,52.118,180.590,181210,0,W,A*1A
$GPRMC,035241.06,A,3242.9532,N,11706.1813,W,51.590,175.807,181210,0,W,A*13
$GPRMC,035244.06,A,3242.9101,N,11706.1752,W,51.813,170.167,181210,0,W,A*14
$GPRMC,035247.06,A,3242.8668,N,11706.1645,W,52.950,166.022,181210,0,W,A*1B
$GPRMC,035250.06,A,3242.8242,N,11706.1489,W,53.071,160.501,181210,0,W,A*1A
$GPRMC,035253.06,A,3242.7834,N,11706.1290,W,52.777,155.788,181210,0,W,A*16
$GPRMC,035256.06,A,3242.7441,N,11706.1051,W,52.927,150.738,181210,0,W,A*17
$GPRMC,035259.06,A,3242.7065,N,11706.0770,W,52.144,145.901,181210,0,W,A*12
$GPRMC,035302.06,A,3242.6717,N,11706.0465,W,52.325,141.812,181210,0,W,A*1B
$GPRMC,035305.06,A,3242.6371,N,11706.0136,W,52.351,141.346,181210,0,W,A*12
$GPRMC,035308.06,A,3242.6031,N,11705.9809,W,53.137,141.032,181210,0,W,A*14
$GPRMC,035311.06,A,3242.5689,N,11705.9475,W,53.119,141.286,181210,0,W,A*1C
$GPRMC,035314.06,A,3242.5345,N,11705.9143,W,53.052,141.621,181210,0,W,A*1B
$GPRMC,035317.06,A,3242.5000,N,11705.8816,W,52.487,141.697,181210,0,W,A*12
$GPRMC,035320.06,A,3242.4666,N,11705.8500,W,50.134,141.198,181210,0,W,A*1C
$GPRMC,035323.06,A,3242.4347,N,11705.8197,W,48.002,141.667,181210,0,W,A*19
$GPRMC,035326.06,A,3242.4037,N,11705.7922,W,46.065,145.339,181210,0,W,A*14
$GPRMC,035329.06,A,3242.3713,N,11705.7678,W,46.863,150.276,181210,0,W,A*1D
$GPRMC,035332.06,A,3242.3358,N,11705.7466,W,48.862,154.575,181210,0,W,A*1E
$GPRMC,035335.06,A,3242.2977,N,11705.7283,W,49.874,159.882,181210,0,W,A*1C
$GPRMC,035338.06,A,3242.2579,N,11705.7131,W,50.175,163.978,181210,0,W,A*14
$GPRMC,035341.06,A,3242.2162,N,11705.7018,W,50.857,169.524,181210,0,W,A*18
$GPRMC,035344.06,A,3242.1752,N,11705.6957,W,49.039,174.945,181210,0,W,A*17
$GPRMC,035347.06,A,3242.1356,N,11705.6937,W,46.650,178.990,181210,0,W,A*10
$GPRMC,035350.06,A,3242.0977,N,11705.6946,W,45.842,180.320,181210,0,W,A*10
$GPRMC,035353.06,A,3242.0593,N,11705.6952,W,46.660,180.560,181210,0,W,A*1F
$GPRMC,035356.06,A,3242.0201,N,11705.6959,W,47.726,180.450,181210,0,W,A*1D
$GPRMC,035359.06,A,3241.9808,N,11705.6966,W,47.090,180.710,181210,0,W,A*1A
$GPRMC,035402.06,A,3241.9414,N,11705.6972,W,47.284,180.378,181210,0,W,A*1A
$GPRMC,035405.06,A,3241.9017,N,11705.6978,W,47.893,180.444,181210,0,W,A*14
$GPRMC,035408.06,A,3241.8614,N,11705.6983,W,48.999,180.381,181210,0,W,A*13
$GPRMC,035411.06,A,3241.8194,N,11705.6992,W,50.594,180.574,181210,0,W,A*10
$GPRMC,035414.06,A,3241.7775,N,11705.6998,W,49.308,180.325,181210,0,W,A*10
$GPRMC,035417.06,A,3241.7364,N,11705.7003,W,49.186,180.089,181210,0,W,A*1C
$GPRMC,035420.06,A,3241.6953,N,11705.7009,W,49.433,180.352,181210,0,W,A*13
$GPRMC,035423.06,A,3241.6550,N,11705.7015,W,47.139,180.704,181210,0,W,A*14
$GPRMC,035426.06,A,3241.6151,N,11705.7020,W,48.495,180.373,181210,0,W,A*1A
$GPRMC,035429.06,A,3241.5738,N,11705.7024,W,50.273,180.359,181210,0,W,A*14
$GPRMC,035432.06,A,3241.5310,N,11705.7022,W,51.665,178.306,181210,0,W,A*19
$GPRMC,035435.06,A,3241.4881,N,11705.6989,W,51.824,173.789,181210,0,W,A*16
$GPRMC,035438.06,A,3241.4450,N,11705.6906,W,52.679,168.552,181210,0,W,A*17
$GPRMC,035441.06,A,3241.4028,N,11705.6780,W,51.126,163.435,181210,0,W,A*17
$GPRMC,035444.06,A,3241.3631,N,11705.6621,W,48.665,159.274,181210,0,W,A*13
$GPRMC,035447.06,A,3241.3271,N,11705.6430,W,46.634,154.808,181210,0,W,A*14
$GPRMC,035450.06,A,3241.2927,N,11705.6206,W,46.667,149.678,181210,0,W,A*1B
$GPRMC,035453.06,A,3241.2592,N,11705.5952,W,48.942,145.574,181210,0,W,A*16
$GPRMC,035456.06,A,3241.2261,N,11705.5650,W,50.453,140.095,181210,0,W,A*1E
$GPRMC,035459.06,A,3241.1954,N,11705.5313,W,49.237,136.087,181210,0,W,A*13
$GPRMC,035502.06,A,3241.1673,N,11705.4960,W,48.721,133.549,181210,0,W,A*18
$GPRMC,035505.06,A,3241.1396,N,11705.4608,W,48.960,133.364,181210,0,W,A*12
$GPRMC,035508.06,A,3241.1117,N,11705.4256,W,48.158,132.928,181210,0,W,A*1B
$GPRMC,035511.06,A,3241.0841,N,11705.3902,W,49.563,133.162,181210,0,W,A*1F
$GPRMC,035514.06,A,3241.0560,N,11705.3538,W,50.599,133.544,181210,0,W,A*1C
$GPRMC,035517.06,A,3241.0253,N,11705.3179,W,52.249,137.882,181210,0,W,A*12
$GPRMC,035520.06,A,3240.9916,N,11705.2852,W,52.249,142.941,181210,0,W,A*19
$GPRMC,035523.06,A,3240.9560,N,11705.2573,W,50.057,148.723,181210,0,W,A*16
$GPRMC,035526.06,A,3240.9201,N,11705.2343,W,48.392,153.724,181210,0,W,A*18
$GPRMC,035529.06,A,3240.8845,N,11705.2152,W,47.158,156.252,181210,0,W,A*14
$GPRMC,035532.06,A,3240.8487,N,11705.1969,W,46.907,156.570,181210,0,W,A*1B
$GPRMC,035535.06,A,3240.8130,N,11705.1792,W,45.991,156.655,181210,0,W,A*17
$GPRMC,035538.06,A,3240.7774,N,11705.1613,W,47.149,156.473,181210,0,W,A*12
$GPRMC,035541.06,A,3240.7408,N,11705.1429,W,48.445,156.768,181210,0,W,A*10
$GPRMC,035544.06,A,3240.7043,N,11705.1244,W,46.300,156.698,181210,0,W,A*15
$GPRMC,035547.06,A,3240.6690,N,11705.1064,W,45.808,156.583,181210,0,W,A*16
$GPRMC,035550.06,A,3240.6335,N,11705.0886,W,46.193,156.661,181210,0,W,A*18
$GPRMC,035553.06,A,3240.5979,N,11705.0705,W,46.231,156.309,181210,0,W,A*1E
$GPRMC,035556.06,A,3240.5621,N,11705.0525,W,47.302,156.498,181210,0,W,A*16
$GPRMC,035559.06,A,3240.5254,N,11705.0337,W,47.816,156.650,181210,0,W,A*12
$GPRMC,035602.06,A,3240.4891,N,11705.0157,W,47.245,157.568,181210,0,W,A*1C
$GPRMC,035605.06,A,3240.4522,N,11704.9982,W,47.861,158.509,181210,0,W,A*12
$GPRMC,035608.06,A,3240.4148,N,11704.9815,W,47.588,159.967,181210,0,W,A*17
$GPRMC,035611.06,A,3240.3772,N,11704.9655,W,48.277,160.761,181210,0,W,A*17
$GPRMC,035614.06,A,3240.3386,N,11704.9502,W,48.867,161.533,181210,0,W,A*13
$GPRMC,035617.06,A,3240.3004,N,11704.9350,W,47.884,161.933,181210,0,W,A*16
$GPRMC,035620.06,A,3240.2623,N,11704.9206,W,47.795,161.783,181210,0,W,A*18
$GPRMC,035623.06,A,3240.2241,N,11704.9054,W,48.334,161.633,181210,0,W,A*14
$GPRMC,035626.06,A,3240.1860,N,11704.8907,W,47.774,161.887,181210,0,W,A*1B
$GPRMC,035629.06,A,3240.1490,N,11704.8763,W,46.011,161.936,181210,0,W,A*15
$GPRMC,035632.06,A,3240.1134,N,11704.8626,W,44.039,162.150,181210,0,W,A*17
$GPRMC,035635.06,A,3240.0792,N,11704.8494,W,43.126,161.832,181210,0,W,A*16
$GPRMC,035638.06,A,3240.0443,N,11704.8361,W,45.391,161.830,181210,0,W,A*13
$GPRMC,035641.06,A,3240.0076,N,11704.8221,W,46.941,161.865,181210,0,W,A*1E
$GPRMC,035644.06,A,3239.9696,N,11704.8077,W,48.125,162.154,181210,0,W,A*19
$GPRMC,035647.06,A,3239.9310,N,11704.7932,W,48.689,162.270,181210,0,W,A*12
$GPRMC,035650.06,A,3239.8920,N,11704.7779,W,49.114,161.392,181210,0,W,A*11
$GPRMC,035653.06,A,3239.8535,N,11704.7625,W,48.343,160.213,181210,0,W,A*1A
$GPRMC,035656.06,A,3239.8158,N,11704.7452,W,49.512,157.021,181210,0,W,A*16
$GPRMC,035659.06,A,3239.7783,N,11704.7243,W,50.126,153.217,181210,0,W,A*18
$GPRMC,035702.06,A,3239.7418,N,11704.7000,W,50.817,148.291,181210,0,W,A*1C
$GPRMC,035705.06,A,3239.7061,N,11704.6725,W,50.786,145.222,181210,0,W,A*12
$GPRMC,035708.06,A,3239.6728,N,11704.6432,W,48.550,142.800,181210,0,W,A*1C
$GPRMC,035711.06,A,3239.6403,N,11704.6134,W,49.711,142.554,181210,0,W,A*17
$GPRMC,035714.06,A,3239.6071,N,11704.5826,W,51.010,142.091,181210,0,W,A*19
$GPRMC,035717.06,A,3239.5734,N,11704.5513,W,51.329,142.475,181210,0,W,A*13
$GPRMC,035720.06,A,3239.5393,N,11704.5203,W,52.078,142.559,181210,0,W,A*13
$GPRMC,035723.06,A,3239.5047,N,11704.4883,W,52.815,141.895,181210,0,W,A*14
$GPRMC,035726.06,A,3239.4699,N,11704.4561,W,52.858,141.828,181210,0,W,A*1B
$GPRMC,035729.06,A,3239.4359,N,11704.4246,W,50.544,142.390,181210,0,W,A*16
$GPRMC,035732.06,A,3239.4028,N,11704.3947,W,49.341,142.744,181210,0,W,A*12
$GPRMC,035735.06,A,3239.3704,N,11704.3650,W,49.540,142.340,181210,0,W,A*15
$GPRMC,035738.06,A,3239.3377,N,11704.3351,W,49.716,142.568,181210,0,W,A*11
$GPRMC,035741.06,A,3239.3046,N,11704.3055,W,50.017,142.514,181210,0,W,A*1C
$GPRMC,035744.06,A,3239.2712,N,11704.2750,W,51.248,142.501,181210,0,W,A*10
$GPRMC,035747.06,A,3239.2372,N,11704.2439,W,51.578,142.379,181210,0,W,A*10
$GPRMC,035750.06,A,3239.2035,N,11704.2129,W,51.063,142.167,181210,0,W,A*10
$GPRMC,035753.06,A,3239.1700,N,11704.1825,W,49.776,142.339,181210,0,W,A*14
$GPRMC,035756.06,A,3239.1385,N,11704.1529,W,46.732,139.410,181210,0,W,A*16
$GPRMC,035759.06,A,3239.1107,N,11704.1226,W,44.320,136.419,181210,0,W,A*1A
$GPRMC,035802.06,A,3239.0860,N,11704.0926,W,41.325,133.158,181210,0,W,A*1D
$GPRMC,035805.06,A,3239.0639,N,11704.0622,W,40.753,129.925,181210,0,W,A*1E
$GPRMC,035808.06,A,3239.0432,N,11704.0305,W,41.162,126.684,181210,0,W,A*14
$GPRMC,035811.06,A,3239.0233,N,11703.9970,W,42.255,124.213,181210,0,W,A*11
$GPRMC,035814.06,A,3239.0046,N,11703.9617,W,41.162,121.070,181210,0,W,A*1C
$GPRMC,035817.06,A,3238.9891,N,11703.9286,W,36.630,118.466,181210,0,W,A*10
$GPRMC,035820.06,A,3238.9753,N,11703.8970,W,36.731,116.479,181210,0,W,A*16
$GPRMC,035823.06,A,3238.9610,N,11703.8629,W,40.533,117.073,181210,0,W,A*1E
$GPRMC,035826.06,A,3238.9454,N,11703.8264,W,42.705,116.936,181210,0,W,A*18
$GPRMC,035829.06,A,3238.9291,N,11703.7880,W,44.359,116.981,181210,0,W,A*10
$GPRMC,035832.06,A,3238.9123,N,11703.7496,W,42.628,118.589,181210,0,W,A*14
$GPRMC,035835.06,A,3238.8945,N,11703.7135,W,42.552,122.141,181210,0,W,A*11
$GPRMC,035838.06,A,3238.8744,N,11703.6792,W,41.884,126.572,181210,0,W,A*1C
$GPRMC,035841.06,A,3238.8524,N,11703.6471,W,41.509,131.523,181210,0,W,A*12
$GPRMC,035844.06,A,3238.8281,N,11703.6170,W,42.528,134.646,181210,0,W,A*1E
$GPRMC,035847.06,A,3238.8012,N,11703.5880,W,44.485,139.657,181210,0,W,A*1D
$GPRMC,035850.06,A,3238.7715,N,11703.5604,W,46.048,143.983,181210,0,W,A*1A
$GPRMC,035853.06,A,3238.7401,N,11703.5353,W,44.733,148.576,181210,0,W,A*1C
$GPRMC,035856.06,A,3238.7074,N,11703.5149,W,44.298,153.928,181210,0,W,A*1F
$GPRMC,035859.06,A,3238.6735,N,11703.4970,W,44.845,155.537,181210,0,W,A*1E
$GPRMC,035902.06,A,3238.6402,N,11703.4790,W,43.299,154.574,181210,0,W,A*1C
$GPRMC,035905.06,A,3238.6084,N,11703.4614,W,41.719,154.088,181210,0,W,A*15
$GPRMC,035908.06,A,3238.5770,N,11703.4439,W,42.694,153.956,181210,0,W,A*10
$GPRMC,035911.06,A,3238.5442,N,11703.4254,W,44.130,154.269,181210,0,W,A*18
$GPRMC,035914.06,A,3238.5106,N,11703.4060,W,45.423,152.053,181210,0,W,A*16
$GPRMC,035917.06,A,3238.4770,N,11703.3834,W,46.807,147.945,181210,0,W,A*1E
$GPRMC,035920.06,A,3238.4442,N,11703.3567,W,47.961,143.148,181210,0,W,A*12
$GPRMC,035923.06,A,3238.4125,N,11703.3267,W,48.435,139.138,181210,0,W,A*1B
$GPRMC,035926.06,A,3238.3825,N,11703.2926,W,49.997,135.147,181210,0,W,A*1F
$GPRMC,035929.06,A,3238.3542,N,11703.2556,W,50.127,130.653,181210,0,W,A*1B
$GPRMC,035932.06,A,3238.3288,N,11703.2161,W,49.935,125.502,181210,0,W,A*10
$GPRMC,035935.06,A,3238.3048,N,11703.1751,W,50.561,124.587,181210,0,W,A*16
$GPRMC,035938.06,A,3238.2806,N,11703.1342,W,50.052,124.903,181210,0,W,A*1B
$GPRMC,035941.06,A,3238.2571,N,11703.0936,W,49.641,124.397,181210,0,W,A*1B
$GPRMC,035944.06,A,3238.2339,N,11703.0536,W,48.458,124.926,181210,0,W,A*13
$GPRMC,035947.06,A,3238.2111,N,11703.0155,W,46.373,126.177,181210,0,W,A*17
$GPRMC,035950.06,A,3238.1885,N,11702.9804,W,43.236,128.510,181210,0,W,A*1D
$GPRMC,035953.06,A,3238.1651,N,11702.9481,W,42.727,131.634,181210,0,W,A*11
$GPRMC,035956.06,A,3238.1410,N,11702.9169,W,43.532,133.866,181210,0,W,A*1C
$GPRMC,035959.06,A,3238.1159,N,11702.8871,W,43.055,136.016,181210,0,W,A*14
$GPRMC,040002.06,A,3238.0894,N,11702.8582,W,44.110,138.563,181210,0,W,A*17
$GPRMC,040005.06,A,3238.0609,N,11702.8300,W,45.295,140.944,181210,0,W,A*1F
$GPRMC,040008.06,A,3238.0311,N,11702.8032,W,44.535,143.837,181210,0,W,A*16
$GPRMC,040011.06,A,3238.0010,N,11702.7793,W,42.071,147.611,181210,0,W,A*12
$GPRMC,040014.06,A,3237.9713,N,11702.7602,W,39.967,153.244,181210,0,W,A*1F
$GPRMC,040017.06,A,3237.9406,N,11702.7448,W,40.148,156.189,181210,0,W,A*1B
$GPRMC,040020.06,A,3237.9100,N,11702.7304,W,38.371,158.976,181210,0,W,A*12
$GPRMC,040023.06,A,3237.8802,N,11702.7176,W,38.417,159.868,181210,0,W,A*14
$GPRMC,040026.06,A,3237.8495,N,11702.7048,W,38.932,160.160,181210,0,W,A*1E
$GPRMC,040029.06,A,3237.8195,N,11702.6919,W,37.359,159.403,181210,0,W,A*1A
$GPRMC,040032.06,A,3237.7909,N,11702.6795,W,35.737,159.043,181210,0,W,A*16
$GPRMC,040035.06,A,3237.7644,N,11702.6679,W,31.364,159.043,181210,0,W,A*12
$GPRMC,040038.06,A,3237.7412,N,11702.6581,W,27.501,159.541,181210,0,W,A*1F
$GPRMC,040041.06,A,3237.7225,N,11702.6498,W,20.890,160.278,181210,0,W,A*1F
$GPRMC,040044.06,A,3237.7064,N,11702.6454,W,20.297,175.611,181210,0,W,A*1F
$GPRMC,040047.06,A,3237.6914,N,11702.6497,W,18.567,211.413,181210,0,W,A*1E
$GPRMC,040050.06,A,3237.6821,N,11702.6668,W,19.296,252.400,181210,0,W,A*10
$GPRMC,040053.06,A,3237.6853,N,11702.6872,W,21.023,297.118,181210,0,W,A*11
$GPRMC,040056.06,A,3237.6987,N,11702.7024,W,20.763,331.630,181210,0,W,A*14
$GPRMC,040059.06,A,3237.7126,N,11702.7079,W,13.166,348.355,181210,0,W,A*1A
$GPRMC,040102.06,A,3237.7225,N,11702.7062,W,10.248,35.099,181210,0,W,A*29
$GPRMC,040105.06,A,3237.7267,N,11702.6946,W,15.317,79.119,181210,0,W,A*29
$GPRMC,040108.06,A,3237.7291,N,11702.6765,W,21.200,86.239,181210,0,W,A*23
$GPRMC,040111.06,A,3237.7301,N,11702.6527,W,23.557,89.667,181210,0,W,A*20
$GPRMC,040114.06,A,3237.7297,N,11702.6304,W,19.346,93.394,181210,0,W,A*21
$GPRMC,040117.06,A,3237.7287,N,11702.6152,W,12.974,98.344,181210,0,W,A*24
$GPRMC,040120.06,A,3237.7275,N,11702.6044,W,9.018,89.793,181210,0,W,A*1C
$GPRMC,040123.06,A,3237.7268,N,11702.5972,W,4.477,105.023,181210,0,W,A*25
$GPRMC,040156.06,A,3237.7260,N,11702.5927,W,5.856,113.448,181210,0,W,A*2F
$GPRMC,040159.06,A,3237.7251,N,11702.5832,W,12.917,101.234,181210,0,W,A*1B
$GPRMC,040202.06,A,3237.7229,N,11702.5677,W,17.956,97.992,181210,0,W,A*2F
$GPRMC,040205.06,A,3237.7200,N,11702.5476,W,22.867,99.906,181210,0,W,A*26
$GPRMC,040208.06,A,3237.7157,N,11702.5233,W,27.755,103.347,181210,0,W,A*1B
$GPRMC,040211.06,A,3237.7095,N,11702.4955,W,30.181,105.549,181210,0,W,A*11
$GPRMC,040214.06,A,3237.7022,N,11702.4654,W,32.560,105.817,181210,0,W,A*19
$GPRMC,040217.06,A,3237.6946,N,11702.4334,W,34.738,104.299,181210,0,W,A*17
$GPRMC,040220.06,A,3237.6878,N,11702.3987,W,36.629,101.578,181210,0,W,A*14
$GPRMC,040223.06,A,3237.6821,N,11702.3618,W,37.770,99.533,181210,0,W,A*21
$GPRMC,040226.06,A,3237.6783,N,11702.3256,W,35.820,96.328,181210,0,W,A*26
$GPRMC,040229.06,A,3237.6756,N,11702.2900,W,35.685,95.682,181210,0,W,A*2F
$GPRMC,040232.06,A,3237.6733,N,11702.2591,W,25.422,93.810,181210,0,W,A*2F
$GPRMC,040235.06,A,3237.6712,N,11702.2369,W,20.456,96.816,181210,0,W,A*2F
$GPRMC,040238.06,A,3237.6697,N,11702.2176,W,21.052,95.407,181210,0,W,A*2C
$GPRMC,040241.06,A,3237.6677,N,11702.1953,W,23.969,95.420,181210,0,W,A*26
$GPRMC,040244.06,A,3237.6657,N,11702.1700,W,27.548,96.028,181210,0,W,A*2D
$GPRMC,040247.06,A,3237.6624,N,11702.1410,W,31.502,100.311,181210,0,W,A*16
$GPRMC,040250.06,A,3237.6560,N,11702.1095,W,33.821,107.020,181210,0,W,A*12
$GPRMC,040253.06,A,3237.6463,N,11702.0783,W,33.386,112.891,181210,0,W,A*12
$GPRMC,040256.06,A,3237.6339,N,11702.0479,W,35.333,119.260,181210,0,W,A*1E
$GPRMC,040259.06,A,3237.6181,N,11702.0171,W,36.346,122.158,181210,0,W,A*1C
$GPRMC,040302.06,A,3237.6017,N,11701.9862,W,37.242,121.116,181210,0,W,A*11
$GPRMC,040305.06,A,3237.5867,N,11701.9528,W,38.602,114.742,181210,0,W,A*17
$GPRMC,040308.06,A,3237.5750,N,11701.9170,W,38.869,106.471,181210,0,W,A*1B
$GPRMC,040311.06,A,3237.5673,N,11701.8802,W,38.203,102.065,181210,0,W,A*1D
$GPRMC,040314.06,A,3237.5608,N,11701.8440,W,37.422,101.466,181210,0,W,A*10
$GPRMC,040317.06,A,3237.5546,N,11701.8077,W,37.511,101.708,181210,0,W,A*10
$GPRMC,040320.06,A,3237.5487,N,11701.7718,W,37.276,101.483,181210,0,W,A*1F
$GPRMC,040323.06,A,3237.5422,N,11701.7370,W,35.155,102.044,181210,0,W,A*15
$GPRMC,040326.06,A,3237.5364,N,11701.7027,W,36.346,101.380,181210,0,W,A*1F
$GPRMC,040329.06,A,3237.5300,N,11701.6680,W,35.330,102.926,181210,0,W,A*1F
$GPRMC,040332.06,A,3237.5225,N,11701.6363,W,31.443,110.327,181210,0,W,A*14
$GPRMC,040335.06,A,3237.5143,N,11701.6121,W,22.429,112.304,181210,0,W,A*19
$GPRMC,040338.06,A,3237.5080,N,11701.5957,W,16.565,114.982,181210,0,W,A*1C
$GPRMC,040341.06,A,3237.5032,N,11701.5840,W,12.072,117.126,181210,0,W,A*1E
$GPRMC,040344.06,A,3237.4999,N,11701.5764,W,6.185,116.980,181210,0,W,A*22
$GPRMC,040414.06,A,3237.4976,N,11701.5721,W,5.958,105.134,181210,0,W,A*2E
$GPRMC,040417.06,A,3237.4941,N,11701.5637,W,13.224,117.209,181210,0,W,A*16
$GPRMC,040420.06,A,3237.4877,N,11701.5494,W,19.796,118.057,181210,0,W,A*1D
$GPRMC,040423.06,A,3237.4791,N,11701.5295,W,24.901,117.300,181210,0,W,A*1E
$GPRMC,040426.06,A,3237.4685,N,11701.5053,W,28.637,118.308,181210,0,W,A*16
$GPRMC,040429.06,A,3237.4564,N,11701.4779,W,33.601,117.394,181210,0,W,A*1E
$GPRMC,040432.06,A,3237.4427,N,11701.4462,W,37.342,117.013,181210,0,W,A*11
$GPRMC,040435.06,A,3237.4278,N,11701.4119,W,38.959,116.015,181210,0,W,A*1B
$GPRMC,040438.06,A,3237.4143,N,11701.3767,W,37.674,110.978,181210,0,W,A*1E
$GPRMC,040441.06,A,3237.4047,N,11701.3431,W,34.472,106.304,181210,0,W,A*14
$GPRMC,040444.06,A,3237.3982,N,11701.3117,W,31.313,101.508,181210,0,W,A*1F
$GPRMC,040447.06,A,3237.3940,N,11701.2814,W,29.533,97.253,181210,0,W,A*23
$GPRMC,040450.06,A,3237.3928,N,11701.2564,W,21.041,94.691,181210,0,W,A*20
$GPRMC,040453.06,A,3237.3906,N,11701.2405,W,13.221,117.880,181210,0,W,A*18
$GPRMC,040456.06,A,3237.3814,N,11701.2349,W,15.720,174.051,181210,0,W,A*13
$GPRMC,040459.06,A,3237.3651,N,11701.2352,W,21.611,178.982,181210,0,W,A*16
$GPRMC,040502.06,A,3237.3450,N,11701.2348,W,25.827,176.124,181210,0,W,A*14
$GPRMC,040505.06,A,3237.3225,N,11701.2319,W,27.671,168.365,181210,0,W,A*14
$GPRMC,040508.06,A,3237.2991,N,11701.2248,W,29.603,161.679,181210,0,W,A*13
$GPRMC,040511.06,A,3237.2750,N,11701.2133,W,31.004,153.548,181210,0,W,A*1F
$GPRMC,040514.06,A,3237.2521,N,11701.1978,W,32.067,148.664,181210,0,W,A*1B
$GPRMC,040517.06,A,3237.2292,N,11701.1814,W,31.674,151.188,181210,0,W,A*16
$GPRMC,040520.06,A,3237.2053,N,11701.1679,W,32.823,158.444,181210,0,W,A*1B
$GPRMC,040523.06,A,3237.1784,N,11701.1571,W,34.027,162.071,181210,0,W,A*1C
$GPRMC,040526.06,A,3237.1508,N,11701.1463,W,34.878,161.292,181210,0,W,A*13
$GPRMC,040529.06,A,3237.1229,N,11701.1353,W,34.350,161.112,181210,0,W,A*16
$GPRMC,040532.06,A,3237.0968,N,11701.1252,W,32.080,161.802,181210,0,W,A*13
$GPRMC,040535.06,A,3237.0717,N,11701.1150,W,31.137,161.789,181210,0,W,A*11
$GPRMC,040538.06,A,3237.0482,N,11701.1055,W,28.663,161.937,181210,0,W,A*12
$GPRMC,040541.06,A,3237.0280,N,11701.0965,W,23.178,156.133,181210,0,W,A*1D
$GPRMC,040544.06,A,3237.0126,N,11701.0886,W,17.118,156.480,181210,0,W,A*17
$GPRMC,040547.06,A,3237.0026,N,11701.0836,W,10.367,155.336,181210,0,W,A*1A
