NMEA Sentence Code,UTC Time,Status,Latitude,Latitude Direction,Longitude,Longitude Direction,Speed (knots),Track Angle (degrees true),Date,MagneticVariation,Magnetic Variation Direction,[FAA Mode]-Optional,Checksum
$GPRMC,005543.000,A,3347.6121,N,11622.0526,W,69.27,125.20,120410,,,A*43
$GPRMC,005546.000,A,3347.5786,N,11621.9960,W,69.34,125.44,120410,,,A*4A
$GPRMC,005549.000,A,3347.5451,N,11621.9394,W,69.40,125.46,120410,,,A*4C
$GPRMC,005552.000,A,3347.5116,N,11621.8827,W,69.42,125.41,120410,,,A*47
$GPRMC,005555.000,A,3347.4783,N,11621.8265,W,67.65,125.37,120410,,,A*4D
$GPRMC,005558.000,A,3347.4464,N,11621.7724,W,64.99,125.55,120410,,,A*41
$GPRMC,005601.000,A,3347.4148,N,11621.7193,W,65.44,125.08,120410,,,A*46
$GPRMC,005604.000,A,3347.3834,N,11621.6658,W,65.23,125.37,120410,,,A*4A
$GPRMC,005607.000,A,3347.3519,N,11621.6128,W,65.06,125.48,120410,,,A*44
$GPRMC,005610.000,A,3347.3202,N,11621.5595,W,65.97,125.35,120410,,,A*4C
$GPRMC,005613.000,A,3347.2883,N,11621.5052,W,66.45,125.47,120410,,,A*4A
$GPRMC,005616.000,A,3347.2555,N,11621.4504,W,68.17,125.55,120410,,,A*44
$GPRMC,005619.000,A,3347.2223,N,11621.3943,W,69.42,125.28,120410,,,A*4E
$GPRMC,005622.000,A,3347.1887,N,11621.3376,W,69.42,125.50,120410,,,A*42
$GPRMC,005625.000,A,3347.1553,N,11621.2813,W,69.25,125.09,120410,,,A*45
$GPRMC,005628.000,A,3347.1221,N,11621.2252,W,68.97,125.49,120410,,,A*49
$GPRMC,005631.000,A,3347.0886,N,11621.1690,W,68.89,125.41,120410,,,A*49
$GPRMC,005634.000,A,3347.0554,N,11621.1131,W,68.89,125.37,120410,,,A*43
$GPRMC,005637.000,A,3347.0222,N,11621.0571,W,69.01,125.22,120410,,,A*42
$GPRMC,005640.000,A,3346.9889,N,11621.0008,W,69.09,125.49,120410,,,A*4F
$GPRMC,005643.000,A,3346.9555,N,11620.9445,W,69.11,125.44,120410,,,A*41
$GPRMC,005646.000,A,3346.9220,N,11620.8884,W,69.00,125.50,120410,,,A*44
$GPRMC,005649.000,A,3346.8886,N,11620.8322,W,69.02,125.44,120410,,,A*4C
$GPRMC,005652.000,A,3346.8554,N,11620.7758,W,69.05,125.19,120410,,,A*4D
$GPRMC,005655.000,A,3346.8220,N,11620.7197,W,68.86,125.48,120410,,,A*45
$GPRMC,005658.000,A,3346.7887,N,11620.6637,W,69.05,125.33,120410,,,A*4A
$GPRMC,005701.000,A,3346.7552,N,11620.6074,W,69.18,125.47,120410,,,A*4C
$GPRMC,005704.000,A,3346.7217,N,11620.5512,W,69.14,125.49,120410,,,A*4B
$GPRMC,005707.000,A,3346.6884,N,11620.4948,W,69.17,125.37,120410,,,A*41
$GPRMC,005710.000,A,3346.6549,N,11620.4386,W,69.08,125.50,120410,,,A*4C
$GPRMC,005713.000,A,3346.6215,N,11620.3824,W,69.01,125.33,120410,,,A*49
$GPRMC,005716.000,A,3346.5884,N,11620.3261,W,68.86,125.13,120410,,,A*4A
$GPRMC,005719.000,A,3346.5552,N,11620.2699,W,69.07,125.40,120410,,,A*4F
$GPRMC,005722.000,A,3346.5216,N,11620.2137,W,69.10,125.62,120410,,,A*45
$GPRMC,005725.000,A,3346.4882,N,11620.1576,W,69.12,125.40,120410,,,A*44
$GPRMC,005728.000,A,3346.4548,N,11620.1013,W,69.12,125.47,120410,,,A*43
$GPRMC,005731.000,A,3346.4214,N,11620.0452,W,68.97,125.42,120410,,,A*4C
$GPRMC,005734.000,A,3346.3881,N,11619.9890,W,68.84,125.60,120410,,,A*4B
$GPRMC,005737.000,A,3346.3548,N,11619.9331,W,68.87,125.49,120410,,,A*48
$GPRMC,005740.000,A,3346.3213,N,11619.8771,W,69.38,125.75,120410,,,A*4A
$GPRMC,005743.000,A,3346.2864,N,11619.8200,W,72.12,126.98,120410,,,A*43
$GPRMC,005746.000,A,3346.2506,N,11619.7628,W,70.29,125.97,120410,,,A*48
$GPRMC,005749.000,A,3346.2166,N,11619.7056,W,70.04,125.21,120410,,,A*48
$GPRMC,005752.000,A,3346.1829,N,11619.6487,W,69.69,125.51,120410,,,A*4E
$GPRMC,005755.000,A,3346.1492,N,11619.5920,W,69.47,125.32,120410,,,A*4F
$GPRMC,005758.000,A,3346.1157,N,11619.5355,W,69.19,125.46,120410,,,A*4E
$GPRMC,005801.000,A,3346.0822,N,11619.4792,W,69.19,125.62,120410,,,A*4F
$GPRMC,005804.000,A,3346.0488,N,11619.4228,W,69.13,124.96,120410,,,A*42
$GPRMC,005807.000,A,3346.0165,N,11619.3655,W,69.10,123.46,120410,,,A*47
$GPRMC,005810.000,A,3345.9854,N,11619.3075,W,69.06,122.27,120410,,,A*45
$GPRMC,005813.000,A,3345.9559,N,11619.2483,W,69.00,119.91,120410,,,A*49
$GPRMC,005816.000,A,3345.9281,N,11619.1880,W,69.27,118.28,120410,,,A*44
$GPRMC,005819.000,A,3345.9021,N,11619.1266,W,68.96,116.06,120410,,,A*48
$GPRMC,005822.000,A,3345.8793,N,11619.0639,W,68.29,112.03,120410,,,A*45
$GPRMC,005825.000,A,3345.8594,N,11618.9998,W,68.88,109.96,120410,,,A*46
$GPRMC,005828.000,A,3345.8401,N,11618.9350,W,68.96,109.85,120410,,,A*45
$GPRMC,005831.000,A,3345.8210,N,11618.8701,W,68.96,109.60,120410,,,A*41
$GPRMC,005834.000,A,3345.8018,N,11618.8052,W,69.03,110.05,120410,,,A*49
$GPRMC,005837.000,A,3345.7823,N,11618.7403,W,69.16,109.85,120410,,,A*4E
$GPRMC,005840.000,A,3345.7630,N,11618.6751,W,69.10,109.57,120410,,,A*4E
$GPRMC,005843.000,A,3345.7436,N,11618.6104,W,68.64,110.19,120410,,,A*4F
$GPRMC,005846.000,A,3345.7242,N,11618.5458,W,68.90,109.56,120410,,,A*48
$GPRMC,005849.000,A,3345.7051,N,11618.4807,W,69.32,109.20,120410,,,A*48
$GPRMC,005852.000,A,3345.6875,N,11618.4148,W,69.13,106.01,120410,,,A*40
$GPRMC,005855.000,A,3345.6739,N,11618.3476,W,68.95,102.38,120410,,,A*4E
$GPRMC,005858.000,A,3345.6626,N,11618.2799,W,69.13,101.51,120410,,,A*4C
$GPRMC,005901.000,A,3345.6511,N,11618.2123,W,68.94,102.24,120410,,,A*4E
$GPRMC,005904.000,A,3345.6374,N,11618.1455,W,68.76,105.70,120410,,,A*43
$GPRMC,005907.000,A,3345.6196,N,11618.0800,W,68.98,109.75,120410,,,A*4A
$GPRMC,005910.000,A,3345.5974,N,11618.0164,W,69.06,114.22,120410,,,A*48
$GPRMC,005913.000,A,3345.5717,N,11617.9548,W,69.05,117.74,120410,,,A*4F
$GPRMC,005916.000,A,3345.5437,N,11617.8941,W,69.15,118.58,120410,,,A*4F
$GPRMC,005919.000,A,3345.5164,N,11617.8333,W,69.19,117.24,120410,,,A*44
$GPRMC,005922.000,A,3345.4917,N,11617.7705,W,69.24,113.28,120410,,,A*49
$GPRMC,005925.000,A,3345.4707,N,11617.7063,W,68.91,109.95,120410,,,A*44
$GPRMC,005928.000,A,3345.4513,N,11617.6415,W,69.00,109.50,120410,,,A*4A
$GPRMC,005931.000,A,3345.4329,N,11617.5762,W,69.24,108.50,120410,,,A*4A
$GPRMC,005934.000,A,3345.4141,N,11617.5107,W,69.24,109.35,120410,,,A*44
$GPRMC,005937.000,A,3345.3947,N,11617.4457,W,69.17,110.03,120410,,,A*42
$GPRMC,005940.000,A,3345.3752,N,11617.3808,W,69.05,109.93,120410,,,A*4B
$GPRMC,005943.000,A,3345.3555,N,11617.3161,W,69.05,109.76,120410,,,A*40
$GPRMC,005946.000,A,3345.3359,N,11617.2513,W,69.11,110.38,120410,,,A*48
$GPRMC,005949.000,A,3345.3147,N,11617.1871,W,68.91,112.36,120410,,,A*45
$GPRMC,005952.000,A,3345.2920,N,11617.1238,W,69.06,113.98,120410,,,A*4A
$GPRMC,005955.000,A,3345.2678,N,11617.0615,W,68.86,115.55,120410,,,A*4B
$GPRMC,005958.000,A,3345.2427,N,11616.9995,W,69.02,115.85,120410,,,A*41
$GPRMC,010001.000,A,3345.2177,N,11616.9376,W,68.87,115.79,120410,,,A*48
$GPRMC,010004.000,A,3345.1927,N,11616.8757,W,68.97,115.65,120410,,,A*49
$GPRMC,010007.000,A,3345.1678,N,11616.8139,W,68.84,115.99,120410,,,A*40
$GPRMC,010010.000,A,3345.1425,N,11616.7522,W,69.13,115.98,120410,,,A*43
$GPRMC,010013.000,A,3345.1173,N,11616.6901,W,69.13,115.92,120410,,,A*40
$GPRMC,010016.000,A,3345.0921,N,11616.6280,W,69.37,115.89,120410,,,A*45
$GPRMC,010019.000,A,3345.0670,N,11616.5657,W,69.41,115.77,120410,,,A*4C
$GPRMC,010022.000,A,3345.0427,N,11616.5031,W,68.92,113.52,120410,,,A*4C
$GPRMC,010025.000,A,3345.0229,N,11616.4385,W,68.72,106.99,120410,,,A*43
$GPRMC,010028.000,A,3345.0098,N,11616.3713,W,68.80,100.41,120410,,,A*44
$GPRMC,010031.000,A,3345.0006,N,11616.3030,W,69.00,98.67,120410,,,A*70
$GPRMC,010034.000,A,3344.9911,N,11616.2352,W,68.81,101.89,120410,,,A*4D
$GPRMC,010037.000,A,3344.9759,N,11616.1691,W,68.56,108.55,120410,,,A*47
$GPRMC,010040.000,A,3344.9542,N,11616.1056,W,69.14,114.72,120410,,,A*4D
$GPRMC,010043.000,A,3344.9265,N,11616.0454,W,68.84,121.73,120410,,,A*44
$GPRMC,010046.000,A,3344.8924,N,11615.9893,W,69.31,128.51,120410,,,A*45
$GPRMC,010049.000,A,3344.8527,N,11615.9382,W,69.15,134.67,120410,,,A*40
$GPRMC,010052.000,A,3344.8105,N,11615.8903,W,69.21,136.17,120410,,,A*4E
$GPRMC,010055.000,A,3344.7688,N,11615.8423,W,68.77,135.15,120410,,,A*48
$GPRMC,010058.000,A,3344.7293,N,11615.7922,W,69.17,131.01,120410,,,A*4E
$GPRMC,010101.000,A,3344.6935,N,11615.7384,W,68.91,126.04,120410,,,A*4F
$GPRMC,010104.000,A,3344.6617,N,11615.6810,W,68.83,121.76,120410,,,A*43
$GPRMC,010107.000,A,3344.6318,N,11615.6219,W,69.12,121.13,120410,,,A*43
$GPRMC,010110.000,A,3344.6024,N,11615.5625,W,69.02,120.98,120410,,,A*42
$GPRMC,010113.000,A,3344.5730,N,11615.5033,W,68.96,120.67,120410,,,A*4D
$GPRMC,010116.000,A,3344.5436,N,11615.4441,W,68.75,121.05,120410,,,A*45
$GPRMC,010119.000,A,3344.5140,N,11615.3849,W,69.03,121.04,120410,,,A*4C
$GPRMC,010122.000,A,3344.4844,N,11615.3257,W,69.11,121.01,120410,,,A*4B
$GPRMC,010125.000,A,3344.4544,N,11615.2668,W,69.08,122.38,120410,,,A*49
$GPRMC,010128.000,A,3344.4240,N,11615.2082,W,69.02,120.96,120410,,,A*49
$GPRMC,010131.000,A,3344.3960,N,11615.1483,W,68.86,117.75,120410,,,A*4D
$GPRMC,010134.000,A,3344.3710,N,11615.0868,W,68.71,114.57,120410,,,A*42
$GPRMC,010137.000,A,3344.3491,N,11615.0234,W,68.75,111.22,120410,,,A*4B
$GPRMC,010140.000,A,3344.3304,N,11614.9584,W,68.87,107.96,120410,,,A*41
$GPRMC,010143.000,A,3344.3149,N,11614.8922,W,68.95,104.33,120410,,,A*47
$GPRMC,010146.000,A,3344.3024,N,11614.8249,W,68.81,101.41,120410,,,A*4B
$GPRMC,010149.000,A,3344.2932,N,11614.7568,W,69.06,98.02,120410,,,A*78
$GPRMC,010152.000,A,3344.2869,N,11614.6881,W,69.27,95.23,120410,,,A*7B
$GPRMC,010155.000,A,3344.2842,N,11614.6190,W,69.05,91.44,120410,,,A*79
$GPRMC,010158.000,A,3344.2852,N,11614.5500,W,68.84,88.13,120410,,,A*79
$GPRMC,010201.000,A,3344.2892,N,11614.4814,W,68.77,84.98,120410,,,A*70
$GPRMC,010204.000,A,3344.2964,N,11614.4130,W,68.83,81.27,120410,,,A*78
$GPRMC,010207.000,A,3344.3072,N,11614.3453,W,68.85,78.14,120410,,,A*73
$GPRMC,010210.000,A,3344.3201,N,11614.2781,W,68.84,76.73,120410,,,A*70
$GPRMC,010213.000,A,3344.3324,N,11614.2108,W,68.79,78.41,120410,,,A*7F
$GPRMC,010216.000,A,3344.3446,N,11614.1434,W,69.08,77.65,120410,,,A*7E
$GPRMC,010219.000,A,3344.3546,N,11614.0752,W,69.13,83.69,120410,,,A*7F
$GPRMC,010222.000,A,3344.3579,N,11614.0062,W,69.10,89.89,120410,,,A*78
$GPRMC,010225.000,A,3344.3546,N,11613.9374,W,68.90,95.57,120410,,,A*7E
$GPRMC,010228.000,A,3344.3491,N,11613.8687,W,69.08,95.56,120410,,,A*71
$GPRMC,010231.000,A,3344.3439,N,11613.8000,W,69.00,95.25,120410,,,A*7E
$GPRMC,010234.000,A,3344.3384,N,11613.7314,W,68.86,95.82,120410,,,A*71
$GPRMC,010237.000,A,3344.3327,N,11613.6630,W,68.85,95.24,120410,,,A*76
$GPRMC,010240.000,A,3344.3272,N,11613.5945,W,69.01,95.22,120410,,,A*72
$GPRMC,010243.000,A,3344.3216,N,11613.5258,W,69.13,95.62,120410,,,A*73
$GPRMC,010246.000,A,3344.3163,N,11613.4571,W,69.02,95.51,120410,,,A*7A
$GPRMC,010249.000,A,3344.3109,N,11613.3884,W,69.02,95.42,120410,,,A*7B
$GPRMC,010252.000,A,3344.3054,N,11613.3199,W,68.81,95.68,120410,,,A*7F
$GPRMC,010255.000,A,3344.2998,N,11613.2514,W,68.96,95.37,120410,,,A*7C
$GPRMC,010258.000,A,3344.2945,N,11613.1828,W,68.88,95.33,120410,,,A*7B
$GPRMC,010301.000,A,3344.2888,N,11613.1144,W,68.87,96.76,120410,,,A*78
$GPRMC,010304.000,A,3344.2794,N,11613.0466,W,69.07,102.25,120410,,,A*48
$GPRMC,010307.000,A,3344.2631,N,11612.9805,W,68.95,109.06,120410,,,A*44
$GPRMC,010310.000,A,3344.2398,N,11612.9175,W,69.03,116.69,120410,,,A*43
$GPRMC,010313.000,A,3344.2104,N,11612.8582,W,69.08,123.21,120410,,,A*4B
$GPRMC,010316.000,A,3344.1758,N,11612.8031,W,68.76,128.85,120410,,,A*42
$GPRMC,010319.000,A,3344.1355,N,11612.7535,W,68.83,136.98,120410,,,A*43
$GPRMC,010322.000,A,3344.0914,N,11612.7093,W,68.60,140.15,120410,,,A*45
$GPRMC,010325.000,A,3344.0466,N,11612.6660,W,68.75,140.52,120410,,,A*46
$GPRMC,010328.000,A,3344.0018,N,11612.6222,W,68.97,140.28,120410,,,A*45
$GPRMC,010331.000,A,3343.9564,N,11612.5790,W,69.17,141.49,120410,,,A*4D
$GPRMC,010334.000,A,3343.9111,N,11612.5361,W,68.81,141.21,120410,,,A*44
$GPRMC,010337.000,A,3343.8665,N,11612.4924,W,69.00,139.53,120410,,,A*4A
$GPRMC,010340.000,A,3343.8232,N,11612.4467,W,68.97,137.30,120410,,,A*42
$GPRMC,010343.000,A,3343.7814,N,11612.3991,W,69.15,135.15,120410,,,A*4D
$GPRMC,010346.000,A,3343.7413,N,11612.3494,W,69.09,132.85,120410,,,A*48
$GPRMC,010349.000,A,3343.7030,N,11612.2977,W,68.97,130.87,120410,,,A*45
$GPRMC,010352.000,A,3343.6656,N,11612.2452,W,69.23,130.36,120410,,,A*46
$GPRMC,010355.000,A,3343.6284,N,11612.1924,W,69.18,130.14,120410,,,A*4D
$GPRMC,010358.000,A,3343.5909,N,11612.1397,W,69.19,130.93,120410,,,A*41
$GPRMC,010401.000,A,3343.5523,N,11612.0882,W,69.26,132.99,120410,,,A*44
$GPRMC,010404.000,A,3343.5111,N,11612.0405,W,68.50,138.72,120410,,,A*48
$GPRMC,010407.000,A,3343.4670,N,11611.9965,W,68.79,140.31,120410,,,A*48
$GPRMC,010410.000,A,3343.4224,N,11611.9528,W,68.98,140.62,120410,,,A*47
$GPRMC,010413.000,A,3343.3778,N,11611.9091,W,68.99,140.59,120410,,,A*41
$GPRMC,010416.000,A,3343.3330,N,11611.8656,W,68.97,141.44,120410,,,A*43
$GPRMC,010419.000,A,3343.2877,N,11611.8231,W,68.87,141.75,120410,,,A*43
$GPRMC,010422.000,A,3343.2428,N,11611.7799,W,69.06,140.66,120410,,,A*4E
$GPRMC,010425.000,A,3343.1982,N,11611.7361,W,69.04,140.59,120410,,,A*4A
$GPRMC,010428.000,A,3343.1535,N,11611.6925,W,69.00,140.72,120410,,,A*41
$GPRMC,010431.000,A,3343.1098,N,11611.6479,W,68.96,138.28,120410,,,A*41
$GPRMC,010434.000,A,3343.0687,N,11611.5997,W,69.08,132.67,120410,,,A*44
$GPRMC,010437.000,A,3343.0323,N,11611.5462,W,69.21,126.73,120410,,,A*40
$GPRMC,010440.000,A,3342.9992,N,11611.4893,W,69.07,123.08,120410,,,A*46
$GPRMC,010443.000,A,3342.9703,N,11611.4306,W,68.27,118.87,120410,,,A*48
$GPRMC,010446.000,A,3342.9468,N,11611.3689,W,68.39,113.01,120410,,,A*4C
$GPRMC,010449.000,A,3342.9272,N,11611.3047,W,68.65,108.50,120410,,,A*4D
$GPRMC,010452.000,A,3342.9124,N,11611.2383,W,68.78,102.99,120410,,,A*4E
$GPRMC,010455.000,A,3342.9025,N,11611.1704,W,68.82,98.48,120410,,,A*7A
$GPRMC,010458.000,A,3342.8975,N,11611.1018,W,69.06,93.22,120410,,,A*7A
$GPRMC,010501.000,A,3342.8964,N,11611.0325,W,69.42,90.34,120410,,,A*7F
$GPRMC,010504.000,A,3342.8967,N,11610.9631,W,69.30,90.18,120410,,,A*7A
$GPRMC,010507.000,A,3342.8973,N,11610.8938,W,69.20,89.95,120410,,,A*77
$GPRMC,010510.000,A,3342.8978,N,11610.8248,W,68.58,90.04,120410,,,A*78
$GPRMC,010513.000,A,3342.8979,N,11610.7562,W,68.39,90.23,120410,,,A*78
$GPRMC,010516.000,A,3342.8978,N,11610.6877,W,68.49,91.01,120410,,,A*72
$GPRMC,010519.000,A,3342.8970,N,11610.6191,W,68.72,90.70,120410,,,A*7B
$GPRMC,010522.000,A,3342.8970,N,11610.5504,W,68.72,89.89,120410,,,A*76
$GPRMC,010525.000,A,3342.8975,N,11610.4816,W,68.79,89.88,120410,,,A*71
$GPRMC,010528.000,A,3342.8976,N,11610.4127,W,69.08,90.07,120410,,,A*7C
$GPRMC,010531.000,A,3342.8977,N,11610.3435,W,69.28,89.87,120410,,,A*76
$GPRMC,010534.000,A,3342.8977,N,11610.2744,W,69.01,90.32,120410,,,A*7A
$GPRMC,010537.000,A,3342.8973,N,11610.2053,W,69.27,91.12,120410,,,A*7B
$GPRMC,010540.000,A,3342.8950,N,11610.1361,W,69.26,94.01,120410,,,A*7D
$GPRMC,010543.000,A,3342.8882,N,11610.0680,W,68.62,100.02,120410,,,A*45
$GPRMC,010546.000,A,3342.8753,N,11610.0014,W,68.70,104.48,120410,,,A*41
$GPRMC,010549.000,A,3342.8581,N,11609.9358,W,68.83,109.01,120410,,,A*45
$GPRMC,010552.000,A,3342.8381,N,11609.8711,W,68.93,109.64,120410,,,A*43
$GPRMC,010555.000,A,3342.8183,N,11609.8065,W,68.94,109.91,120410,,,A*4D
$GPRMC,010558.000,A,3342.7984,N,11609.7418,W,68.82,109.91,120410,,,A*46
$GPRMC,010601.000,A,3342.7786,N,11609.6771,W,69.01,110.01,120410,,,A*43
$GPRMC,010604.000,A,3342.7588,N,11609.6124,W,69.12,109.47,120410,,,A*44
$GPRMC,010607.000,A,3342.7393,N,11609.5473,W,69.20,109.81,120410,,,A*44
$GPRMC,010610.000,A,3342.7196,N,11609.4825,W,68.86,109.80,120410,,,A*47
$GPRMC,010613.000,A,3342.6998,N,11609.4178,W,68.83,110.07,120410,,,A*40
$GPRMC,010616.000,A,3342.6803,N,11609.3532,W,68.71,109.61,120410,,,A*4E
$GPRMC,010619.000,A,3342.6607,N,11609.2888,W,68.54,110.03,120410,,,A*4D
$GPRMC,010622.000,A,3342.6413,N,11609.2242,W,68.72,109.62,120410,,,A*45
$GPRMC,010625.000,A,3342.6217,N,11609.1598,W,68.59,109.92,120410,,,A*45
$GPRMC,010628.000,A,3342.6022,N,11609.0953,W,68.72,109.91,120410,,,A*4C
$GPRMC,010631.000,A,3342.5827,N,11609.0306,W,68.92,109.75,120410,,,A*44
$GPRMC,010634.000,A,3342.5633,N,11608.9659,W,68.79,109.59,120410,,,A*46
$GPRMC,010637.000,A,3342.5438,N,11608.9013,W,68.82,109.61,120410,,,A*4B
$GPRMC,010640.000,A,3342.5249,N,11608.8365,W,68.71,109.34,120410,,,A*44
$GPRMC,010643.000,A,3342.5056,N,11608.7719,W,68.74,109.70,120410,,,A*4E
$GPRMC,010646.000,A,3342.4864,N,11608.7070,W,69.06,109.25,120410,,,A*4F
$GPRMC,010649.000,A,3342.4672,N,11608.6420,W,69.04,109.78,120410,,,A*43
$GPRMC,010652.000,A,3342.4478,N,11608.5771,W,69.04,109.33,120410,,,A*4A
$GPRMC,010655.000,A,3342.4288,N,11608.5120,W,69.10,109.41,120410,,,A*46
$GPRMC,010658.000,A,3342.4096,N,11608.4470,W,68.96,109.50,120410,,,A*48
$GPRMC,010701.000,A,3342.3905,N,11608.3824,W,68.45,109.30,120410,,,A*43
$GPRMC,010704.000,A,3342.3714,N,11608.3180,W,68.41,109.42,120410,,,A*4E
$GPRMC,010707.000,A,3342.3519,N,11608.2535,W,68.79,110.05,120410,,,A*49
$GPRMC,010710.000,A,3342.3320,N,11608.1890,W,68.85,110.83,120410,,,A*4F
$GPRMC,010713.000,A,3342.3109,N,11608.1249,W,68.79,111.65,120410,,,A*41
$GPRMC,010716.000,A,3342.2896,N,11608.0611,W,68.88,111.69,120410,,,A*40
$GPRMC,010719.000,A,3342.2682,N,11607.9973,W,68.90,111.66,120410,,,A*4F
$GPRMC,010722.000,A,3342.2469,N,11607.9333,W,69.02,111.71,120410,,,A*42
$GPRMC,010725.000,A,3342.2256,N,11607.8694,W,69.00,112.17,120410,,,A*47
$GPRMC,010728.000,A,3342.2031,N,11607.8061,W,68.87,113.26,120410,,,A*48
$GPRMC,010731.000,A,3342.1813,N,11607.7425,W,68.74,111.15,120410,,,A*4E
$GPRMC,010734.000,A,3342.1621,N,11607.6777,W,68.94,108.11,120410,,,A*43
$GPRMC,010737.000,A,3342.1467,N,11607.6113,W,68.61,103.62,120410,,,A*41
$GPRMC,010740.000,A,3342.1338,N,11607.5446,W,68.47,102.92,120410,,,A*40
$GPRMC,010743.000,A,3342.1215,N,11607.4779,W,68.44,102.71,120410,,,A*4D
$GPRMC,010746.000,A,3342.1090,N,11607.4111,W,68.51,102.69,120410,,,A*42
$GPRMC,010749.000,A,3342.0966,N,11607.3443,W,68.59,102.57,120410,,,A*4C
$GPRMC,010752.000,A,3342.0841,N,11607.2774,W,68.63,102.69,120410,,,A*40
$GPRMC,010755.000,A,3342.0716,N,11607.2104,W,68.96,102.72,120410,,,A*4B
$GPRMC,010758.000,A,3342.0588,N,11607.1431,W,69.19,102.95,120410,,,A*4C
$GPRMC,010801.000,A,3342.0461,N,11607.0757,W,69.03,102.64,120410,,,A*4E
$GPRMC,010804.000,A,3342.0336,N,11607.0085,W,68.88,102.70,120410,,,A*41
$GPRMC,010807.000,A,3342.0209,N,11606.9414,W,68.98,102.77,120410,,,A*4D
$GPRMC,010810.000,A,3342.0082,N,11606.8744,W,68.87,102.88,120410,,,A*43
$GPRMC,010813.000,A,3341.9954,N,11606.8075,W,68.69,102.59,120410,,,A*41
$GPRMC,010816.000,A,3341.9829,N,11606.7408,W,68.19,102.76,120410,,,A*44
$GPRMC,010819.000,A,3341.9705,N,11606.6748,W,67.14,102.49,120410,,,A*42
$GPRMC,010822.000,A,3341.9582,N,11606.6091,W,67.96,102.89,120410,,,A*42
$GPRMC,010825.000,A,3341.9456,N,11606.5428,W,68.13,102.46,120410,,,A*49
$GPRMC,010828.000,A,3341.9331,N,11606.4762,W,68.43,103.14,120410,,,A*4D
$GPRMC,010831.000,A,3341.9201,N,11606.4095,W,68.68,102.91,120410,,,A*4D
$GPRMC,010834.000,A,3341.9073,N,11606.3426,W,68.59,102.76,120410,,,A*4F
$GPRMC,010837.000,A,3341.8947,N,11606.2758,W,68.51,102.67,120410,,,A*40
$GPRMC,010840.000,A,3341.8835,N,11606.2088,W,68.26,99.10,120410,,,A*7D
$GPRMC,010843.000,A,3341.8772,N,11606.1407,W,68.68,94.53,120410,,,A*72
$GPRMC,010846.000,A,3341.8747,N,11606.0721,W,68.62,90.30,120410,,,A*7C
$GPRMC,010849.000,A,3341.8772,N,11606.0036,W,68.59,85.89,120410,,,A*7A
$GPRMC,010852.000,A,3341.8837,N,11605.9354,W,68.67,82.34,120410,,,A*7F
$GPRMC,010855.000,A,3341.8927,N,11605.8693,W,64.43,80.72,120410,,,A*7D
$GPRMC,010858.000,A,3341.9016,N,11605.8062,W,65.34,80.81,120410,,,A*7F
$GPRMC,010901.000,A,3341.9111,N,11605.7410,W,65.33,80.74,120410,,,A*77
$GPRMC,010904.000,A,3341.9197,N,11605.6787,W,63.10,80.60,120410,,,A*72
$GPRMC,010907.000,A,3341.9285,N,11605.6156,W,63.59,80.99,120410,,,A*70
$GPRMC,010910.000,A,3341.9371,N,11605.5540,W,62.33,80.75,120410,,,A*73
$GPRMC,010913.000,A,3341.9457,N,11605.4921,W,63.07,81.11,120410,,,A*7C
$GPRMC,010916.000,A,3341.9541,N,11605.4299,W,63.17,80.73,120410,,,A*73
$GPRMC,010919.000,A,3341.9625,N,11605.3681,W,61.85,80.80,120410,,,A*72
$GPRMC,010922.000,A,3341.9706,N,11605.3080,W,59.97,81.22,120410,,,A*7C
$GPRMC,010925.000,A,3341.9783,N,11605.2501,W,58.03,81.29,120410,,,A*7C
$GPRMC,010928.000,A,3341.9861,N,11605.1929,W,58.63,81.05,120410,,,A*7F
$GPRMC,010931.000,A,3341.9938,N,11605.1349,W,58.73,81.16,120410,,,A*75
$GPRMC,010934.000,A,3342.0011,N,11605.0769,W,58.86,82.49,120410,,,A*7C
$GPRMC,010937.000,A,3342.0068,N,11605.0184,W,58.97,83.85,120410,,,A*75
$GPRMC,010940.000,A,3342.0108,N,11604.9598,W,59.04,86.08,120410,,,A*78
$GPRMC,010943.000,A,3342.0136,N,11604.9011,W,59.02,87.50,120410,,,A*78
$GPRMC,010946.000,A,3342.0148,N,11604.8424,W,58.92,88.84,120410,,,A*79
$GPRMC,010949.000,A,3342.0148,N,11604.7835,W,58.81,91.06,120410,,,A*75
$GPRMC,010952.000,A,3342.0125,N,11604.7250,W,58.90,93.11,120410,,,A*79
$GPRMC,010955.000,A,3342.0087,N,11604.6664,W,58.98,94.39,120410,,,A*70
$GPRMC,010958.000,A,3342.0040,N,11604.6079,W,58.90,95.85,120410,,,A*72
$GPRMC,011001.000,A,3341.9991,N,11604.5495,W,58.82,94.56,120410,,,A*70
$GPRMC,011004.000,A,3341.9951,N,11604.4910,W,58.89,95.13,120410,,,A*73
$GPRMC,011007.000,A,3341.9906,N,11604.4323,W,59.01,95.15,120410,,,A*7F
$GPRMC,011010.000,A,3341.9863,N,11604.3735,W,59.33,94.89,120410,,,A*7A
$GPRMC,011013.000,A,3341.9823,N,11604.3143,W,59.73,94.40,120410,,,A*7B
$GPRMC,011016.000,A,3341.9782,N,11604.2548,W,59.98,95.25,120410,,,A*73
$GPRMC,011019.000,A,3341.9738,N,11604.1954,W,59.61,94.79,120410,,,A*71
$GPRMC,011022.000,A,3341.9698,N,11604.1362,W,59.49,94.55,120410,,,A*79
$GPRMC,011025.000,A,3341.9658,N,11604.0765,W,60.22,95.69,120410,,,A*79
$GPRMC,011028.000,A,3341.9593,N,11604.0166,W,60.62,99.61,120410,,,A*75
$GPRMC,011031.000,A,3341.9489,N,11603.9571,W,61.64,103.02,120410,,,A*4B
$GPRMC,011034.000,A,3341.9352,N,11603.8974,W,62.57,106.74,120410,,,A*40
$GPRMC,011037.000,A,3341.9180,N,11603.8376,W,63.43,110.07,120410,,,A*41
$GPRMC,011040.000,A,3341.8974,N,11603.7780,W,66.13,114.09,120410,,,A*4B
$GPRMC,011043.000,A,3341.8730,N,11603.7179,W,66.68,116.78,120410,,,A*4E
$GPRMC,011046.000,A,3341.8450,N,11603.6601,W,66.75,121.00,120410,,,A*40
$GPRMC,011049.000,A,3341.8160,N,11603.6031,W,66.39,121.02,120410,,,A*46
$GPRMC,011052.000,A,3341.7874,N,11603.5462,W,66.43,120.83,120410,,,A*4B
$GPRMC,011055.000,A,3341.7583,N,11603.4897,W,66.07,121.30,120410,,,A*47
$GPRMC,011058.000,A,3341.7295,N,11603.4337,W,65.46,121.44,120410,,,A*4E
$GPRMC,011101.000,A,3341.7000,N,11603.3787,W,65.31,122.42,120410,,,A*40
$GPRMC,011104.000,A,3341.6710,N,11603.3235,W,65.06,121.58,120410,,,A*42
$GPRMC,011107.000,A,3341.6427,N,11603.2680,W,64.51,121.02,120410,,,A*41
$GPRMC,011110.000,A,3341.6144,N,11603.2124,W,65.69,121.52,120410,,,A*41
$GPRMC,011113.000,A,3341.5858,N,11603.1563,W,65.84,121.34,120410,,,A*42
$GPRMC,011116.000,A,3341.5573,N,11603.1001,W,65.77,120.47,120410,,,A*4B
$GPRMC,011119.000,A,3341.5310,N,11603.0423,W,65.87,117.02,120410,,,A*48
$GPRMC,011122.000,A,3341.5081,N,11602.9824,W,66.03,112.47,120410,,,A*43
$GPRMC,011125.000,A,3341.4895,N,11602.9204,W,65.94,108.04,120410,,,A*41
$GPRMC,011128.000,A,3341.4732,N,11602.8575,W,65.90,106.98,120410,,,A*41
$GPRMC,011131.000,A,3341.4580,N,11602.7943,W,65.92,105.79,120410,,,A*4A
$GPRMC,011134.000,A,3341.4434,N,11602.7307,W,66.22,105.89,120410,,,A*4C
$GPRMC,011137.000,A,3341.4278,N,11602.6672,W,66.36,106.81,120410,,,A*49
$GPRMC,011140.000,A,3341.4117,N,11602.6039,W,66.14,107.41,120410,,,A*47
$GPRMC,011143.000,A,3341.3947,N,11602.5411,W,66.08,108.76,120410,,,A*45
$GPRMC,011146.000,A,3341.3776,N,11602.4784,W,66.08,107.19,120410,,,A*44
$GPRMC,011149.000,A,3341.3614,N,11602.4153,W,66.18,107.38,120410,,,A*40
$GPRMC,011152.000,A,3341.3449,N,11602.3523,W,66.05,107.08,120410,,,A*4B
$GPRMC,011155.000,A,3341.3288,N,11602.2894,W,66.08,106.96,120410,,,A*4C
$GPRMC,011158.000,A,3341.3129,N,11602.2263,W,66.23,106.77,120410,,,A*4D
$GPRMC,011201.000,A,3341.2969,N,11602.1627,W,66.65,107.15,120410,,,A*4F
$GPRMC,011204.000,A,3341.2803,N,11602.0988,W,67.26,107.03,120410,,,A*4D
$GPRMC,011207.000,A,3341.2638,N,11602.0348,W,67.38,107.32,120410,,,A*43
$GPRMC,011210.000,A,3341.2474,N,11601.9703,W,67.95,105.89,120410,,,A*4B
$GPRMC,011213.000,A,3341.2317,N,11601.9050,W,67.97,106.34,120410,,,A*4C
$GPRMC,011216.000,A,3341.2158,N,11601.8401,W,67.57,106.53,120410,,,A*4C
$GPRMC,011219.000,A,3341.1993,N,11601.7755,W,67.81,107.10,120410,,,A*4F
$GPRMC,011222.000,A,3341.1828,N,11601.7110,W,67.67,106.94,120410,,,A*44
$GPRMC,011225.000,A,3341.1661,N,11601.6463,W,67.89,107.30,120410,,,A*4F
$GPRMC,011228.000,A,3341.1495,N,11601.5816,W,67.72,106.70,120410,,,A*47
$GPRMC,011231.000,A,3341.1335,N,11601.5168,W,67.56,105.88,120410,,,A*40
$GPRMC,011234.000,A,3341.1183,N,11601.4520,W,67.33,105.62,120410,,,A*44
$GPRMC,011237.000,A,3341.1036,N,11601.3865,W,68.21,104.72,120410,,,A*4F
$GPRMC,011240.000,A,3341.0890,N,11601.3205,W,68.55,105.00,120410,,,A*41
$GPRMC,011243.000,A,3341.0746,N,11601.2543,W,68.56,104.57,120410,,,A*42
$GPRMC,011246.000,A,3341.0601,N,11601.1883,W,68.31,105.04,120410,,,A*41
$GPRMC,011249.000,A,3341.0454,N,11601.1224,W,68.33,104.59,120410,,,A*40
$GPRMC,011252.000,A,3341.0311,N,11601.0560,W,68.76,104.42,120410,,,A*41
$GPRMC,011255.000,A,3341.0163,N,11600.9890,W,69.26,105.03,120410,,,A*4B
$GPRMC,011258.000,A,3341.0014,N,11600.9222,W,69.16,104.89,120410,,,A*44
$GPRMC,011301.000,A,3340.9868,N,11600.8553,W,69.47,104.52,120410,,,A*40
$GPRMC,011304.000,A,3340.9721,N,11600.7884,W,69.32,104.79,120410,,,A*44
$GPRMC,011307.000,A,3340.9574,N,11600.7214,W,69.43,104.55,120410,,,A*4E
$GPRMC,011310.000,A,3340.9428,N,11600.6545,W,69.34,104.80,120410,,,A*4A
$GPRMC,011313.000,A,3340.9281,N,11600.5876,W,69.23,104.60,120410,,,A*4A
$GPRMC,011316.000,A,3340.9134,N,11600.5208,W,69.28,104.67,120410,,,A*4D
$GPRMC,011319.000,A,3340.8987,N,11600.4539,W,69.27,104.56,120410,,,A*4A
$GPRMC,011322.000,A,3340.8839,N,11600.3870,W,69.30,104.85,120410,,,A*49
$GPRMC,011325.000,A,3340.8689,N,11600.3202,W,69.17,104.90,120410,,,A*45
$GPRMC,011328.000,A,3340.8540,N,11600.2535,W,69.26,104.75,120410,,,A*45
$GPRMC,011331.000,A,3340.8393,N,11600.1867,W,69.01,104.79,120410,,,A*45
$GPRMC,011334.000,A,3340.8248,N,11600.1203,W,68.60,104.36,120410,,,A*42
$GPRMC,011337.000,A,3340.8103,N,11600.0538,W,68.84,104.68,120410,,,A*42
$GPRMC,011340.000,A,3340.7954,N,11559.9872,W,68.80,105.16,120410,,,A*4E
$GPRMC,011343.000,A,3340.7806,N,11559.9206,W,68.94,104.63,120410,,,A*44
$GPRMC,011346.000,A,3340.7658,N,11559.8540,W,68.76,104.59,120410,,,A*45
$GPRMC,011349.000,A,3340.7527,N,11559.7869,W,69.12,101.09,120410,,,A*4B
$GPRMC,011352.000,A,3340.7442,N,11559.7185,W,69.04,96.31,120410,,,A*7B
$GPRMC,011355.000,A,3340.7407,N,11559.6495,W,69.04,91.13,120410,,,A*7F
$GPRMC,011358.000,A,3340.7422,N,11559.5805,W,69.11,87.13,120410,,,A*70
$GPRMC,011401.000,A,3340.7456,N,11559.5113,W,69.22,87.08,120410,,,A*7C
$GPRMC,011404.000,A,3340.7488,N,11559.4421,W,69.28,87.08,120410,,,A*75
$GPRMC,011407.000,A,3340.7511,N,11559.3729,W,69.31,88.58,120410,,,A*79
$GPRMC,011410.000,A,3340.7536,N,11559.3036,W,69.30,87.10,120410,,,A*71
$GPRMC,011413.000,A,3340.7572,N,11559.2345,W,69.23,86.74,120410,,,A*75
$GPRMC,011416.000,A,3340.7611,N,11559.1654,W,69.23,86.76,120410,,,A*72
$GPRMC,011419.000,A,3340.7644,N,11559.0962,W,69.34,87.04,120410,,,A*74
$GPRMC,011422.000,A,3340.7678,N,11559.0271,W,69.27,86.59,120410,,,A*71
$GPRMC,011425.000,A,3340.7713,N,11558.9579,W,69.45,86.72,120410,,,A*70
$GPRMC,011428.000,A,3340.7748,N,11558.8888,W,69.36,86.93,120410,,,A*7A
$GPRMC,011431.000,A,3340.7780,N,11558.8197,W,69.29,86.97,120410,,,A*7B
$GPRMC,011434.000,A,3340.7812,N,11558.7507,W,69.25,86.94,120410,,,A*77
$GPRMC,011437.000,A,3340.7844,N,11558.6816,W,69.28,86.59,120410,,,A*77
$GPRMC,011440.000,A,3340.7879,N,11558.6127,W,69.11,86.75,120410,,,A*76
$GPRMC,011443.000,A,3340.7907,N,11558.5437,W,69.32,88.21,120410,,,A*74
$GPRMC,011446.000,A,3340.7906,N,11558.4745,W,69.51,92.26,120410,,,A*7E
$GPRMC,011449.000,A,3340.7864,N,11558.4053,W,69.62,96.17,120410,,,A*72
$GPRMC,011452.000,A,3340.7779,N,11558.3367,W,69.38,100.23,120410,,,A*4E
$GPRMC,011455.000,A,3340.7664,N,11558.2690,W,69.47,101.43,120410,,,A*47
$GPRMC,011458.000,A,3340.7549,N,11558.2011,W,69.36,101.29,120410,,,A*43
$GPRMC,011501.000,A,3340.7431,N,11558.1335,W,69.21,101.50,120410,,,A*4E
$GPRMC,011504.000,A,3340.7316,N,11558.0659,W,69.19,101.50,120410,,,A*4C
$GPRMC,011507.000,A,3340.7198,N,11557.9984,W,69.20,101.75,120410,,,A*4F
$GPRMC,011510.000,A,3340.7081,N,11557.9308,W,69.22,101.57,120410,,,A*4C
$GPRMC,011513.000,A,3340.6964,N,11557.8630,W,69.42,101.59,120410,,,A*4B
$GPRMC,011516.000,A,3340.6846,N,11557.7952,W,69.22,101.83,120410,,,A*4A
$GPRMC,011519.000,A,3340.6729,N,11557.7275,W,69.22,101.54,120410,,,A*47
$GPRMC,011522.000,A,3340.6612,N,11557.6598,W,69.33,101.56,120410,,,A*41
$GPRMC,011525.000,A,3340.6496,N,11557.5918,W,69.49,101.55,120410,,,A*41
$GPRMC,011528.000,A,3340.6376,N,11557.5240,W,69.51,102.14,120410,,,A*4C
$GPRMC,011531.000,A,3340.6258,N,11557.4562,W,69.40,101.49,120410,,,A*44
$GPRMC,011534.000,A,3340.6143,N,11557.3884,W,69.31,101.36,120410,,,A*44
$GPRMC,011537.000,A,3340.6027,N,11557.3207,W,69.40,102.12,120410,,,A*46
$GPRMC,011540.000,A,3340.5907,N,11557.2527,W,69.67,101.58,120410,,,A*42
$GPRMC,011543.000,A,3340.5794,N,11557.1847,W,69.37,101.40,120410,,,A*41
$GPRMC,011546.000,A,3340.5679,N,11557.1168,W,69.32,101.65,120410,,,A*40
$GPRMC,011549.000,A,3340.5560,N,11557.0490,W,69.52,101.85,120410,,,A*4F
$GPRMC,011552.000,A,3340.5444,N,11556.9811,W,69.35,101.46,120410,,,A*41
$GPRMC,011555.000,A,3340.5325,N,11556.9134,W,69.38,101.92,120410,,,A*4C
$GPRMC,011558.000,A,3340.5211,N,11556.8456,W,68.99,100.96,120410,,,A*48
$GPRMC,011601.000,A,3340.5096,N,11556.7782,W,68.98,102.09,120410,,,A*4A
$GPRMC,011604.000,A,3340.4982,N,11556.7105,W,69.28,100.39,120410,,,A*40
$GPRMC,011607.000,A,3340.4882,N,11556.6425,W,69.27,100.61,120410,,,A*46
$GPRMC,011610.000,A,3340.4768,N,11556.5747,W,69.26,101.71,120410,,,A*4E
$GPRMC,011613.000,A,3340.4649,N,11556.5067,W,69.60,101.95,120410,,,A*42
$GPRMC,011616.000,A,3340.4531,N,11556.4387,W,69.50,101.56,120410,,,A*4B
$GPRMC,011619.000,A,3340.4416,N,11556.3711,W,68.98,101.55,120410,,,A*4A
$GPRMC,011622.000,A,3340.4302,N,11556.3034,W,69.05,101.30,120410,,,A*46
$GPRMC,011625.000,A,3340.4186,N,11556.2359,W,69.04,101.79,120410,,,A*4A
$GPRMC,011628.000,A,3340.4067,N,11556.1682,W,69.35,101.69,120410,,,A*4A
$GPRMC,011631.000,A,3340.3952,N,11556.1003,W,69.39,101.51,120410,,,A*42
$GPRMC,011634.000,A,3340.3836,N,11556.0326,W,69.07,101.72,120410,,,A*4D
$GPRMC,011637.000,A,3340.3718,N,11555.9648,W,69.29,101.54,120410,,,A*42
$GPRMC,011640.000,A,3340.3601,N,11555.8969,W,69.21,101.61,120410,,,A*48
$GPRMC,011643.000,A,3340.3486,N,11555.8291,W,69.33,101.51,120410,,,A*4A
$GPRMC,011646.000,A,3340.3370,N,11555.7615,W,69.01,101.35,120410,,,A*45
$GPRMC,011649.000,A,3340.3251,N,11555.6941,W,68.90,102.65,120410,,,A*48
$GPRMC,011652.000,A,3340.3122,N,11555.6268,W,69.18,102.62,120410,,,A*43
$GPRMC,011655.000,A,3340.2999,N,11555.5593,W,69.31,101.98,120410,,,A*40
$GPRMC,011658.000,A,3340.2881,N,11555.4916,W,69.16,101.42,120410,,,A*47
$GPRMC,011701.000,A,3340.2766,N,11555.4237,W,69.55,101.54,120410,,,A*44
$GPRMC,011704.000,A,3340.2650,N,11555.3557,W,69.16,101.49,120410,,,A*48
$GPRMC,011707.000,A,3340.2535,N,11555.2880,W,69.23,101.44,120410,,,A*46
$GPRMC,011710.000,A,3340.2419,N,11555.2201,W,69.12,101.51,120410,,,A*4A
$GPRMC,011713.000,A,3340.2305,N,11555.1525,W,69.00,100.94,120410,,,A*4A
$GPRMC,011716.000,A,3340.2201,N,11555.0846,W,69.16,100.70,120410,,,A*4E
$GPRMC,011719.000,A,3340.2090,N,11555.0168,W,69.11,101.25,120410,,,A*48
$GPRMC,011722.000,A,3340.1973,N,11554.9487,W,70.25,101.67,120410,,,A*42
$GPRMC,011725.000,A,3340.1851,N,11554.8791,W,71.88,101.82,120410,,,A*4C
$GPRMC,011728.000,A,3340.1728,N,11554.8080,W,73.35,101.32,120410,,,A*48
$GPRMC,011731.000,A,3340.1610,N,11554.7364,W,71.27,101.45,120410,,,A*4D
$GPRMC,011734.000,A,3340.1489,N,11554.6678,W,70.06,102.19,120410,,,A*4B
$GPRMC,011737.000,A,3340.1359,N,11554.5997,W,69.59,102.94,120410,,,A*48
$GPRMC,011740.000,A,3340.1236,N,11554.5320,W,69.41,101.96,120410,,,A*4E
$GPRMC,011743.000,A,3340.1119,N,11554.4642,W,69.25,101.36,120410,,,A*4B
$GPRMC,011746.000,A,3340.1004,N,11554.3965,W,69.14,101.56,120410,,,A*4A
$GPRMC,011749.000,A,3340.0887,N,11554.3289,W,69.30,101.78,120410,,,A*44
$GPRMC,011752.000,A,3340.0770,N,11554.2611,W,69.32,101.56,120410,,,A*43
$GPRMC,011755.000,A,3340.0653,N,11554.1935,W,69.22,101.84,120410,,,A*40
$GPRMC,011758.000,A,3340.0538,N,11554.1256,W,69.43,101.35,120410,,,A*40
$GPRMC,011801.000,A,3340.0422,N,11554.0577,W,69.50,102.00,120410,,,A*4B
$GPRMC,011804.000,A,3340.0302,N,11553.9897,W,69.40,101.75,120410,,,A*46
$GPRMC,011807.000,A,3340.0185,N,11553.9218,W,69.28,101.62,120410,,,A*4D
$GPRMC,011810.000,A,3340.0069,N,11553.8540,W,69.18,101.34,120410,,,A*43
$GPRMC,011813.000,A,3339.9954,N,11553.7861,W,69.43,101.74,120410,,,A*4B
$GPRMC,011816.000,A,3339.9834,N,11553.7182,W,69.29,101.58,120410,,,A*4F
$GPRMC,011819.000,A,3339.9721,N,11553.6505,W,68.98,101.38,120410,,,A*4C
$GPRMC,011822.000,A,3339.9606,N,11553.5830,W,69.15,101.68,120410,,,A*49
$GPRMC,011825.000,A,3339.9489,N,11553.5153,W,69.26,101.59,120410,,,A*45
$GPRMC,011828.000,A,3339.9371,N,11553.4475,W,69.34,101.49,120410,,,A*4A
$GPRMC,011831.000,A,3339.9266,N,11553.3804,W,67.31,99.24,120410,,,A*78
$GPRMC,011834.000,A,3339.9185,N,11553.3149,W,65.97,98.23,120410,,,A*7B
$GPRMC,011837.000,A,3339.9112,N,11553.2491,W,67.70,96.77,120410,,,A*73
$GPRMC,011840.000,A,3339.9056,N,11553.1819,W,67.75,95.26,120410,,,A*7F
$GPRMC,011843.000,A,3339.9011,N,11553.1140,W,68.62,94.11,120410,,,A*76
$GPRMC,011846.000,A,3339.8969,N,11553.0455,W,68.86,94.41,120410,,,A*7B
$GPRMC,011849.000,A,3339.8923,N,11552.9770,W,68.76,94.45,120410,,,A*7D
$GPRMC,011852.000,A,3339.8881,N,11552.9082,W,69.32,94.38,120410,,,A*7F
$GPRMC,011855.000,A,3339.8836,N,11552.8393,W,69.23,94.35,120410,,,A*7B
$GPRMC,011858.000,A,3339.8791,N,11552.7703,W,69.38,94.20,120410,,,A*78
$GPRMC,011901.000,A,3339.8748,N,11552.7012,W,69.45,94.58,120410,,,A*73
$GPRMC,011904.000,A,3339.8700,N,11552.6321,W,69.42,94.46,120410,,,A*70
$GPRMC,011907.000,A,3339.8657,N,11552.5625,W,70.53,94.39,120410,,,A*72
$GPRMC,011910.000,A,3339.8611,N,11552.4915,W,71.96,94.30,120410,,,A*7A
$GPRMC,011913.000,A,3339.8564,N,11552.4189,W,73.65,94.64,120410,,,A*7A
$GPRMC,011916.000,A,3339.8516,N,11552.3449,W,74.84,94.36,120410,,,A*7B
$GPRMC,011919.000,A,3339.8466,N,11552.2710,W,74.30,94.71,120410,,,A*70
$GPRMC,011922.000,A,3339.8415,N,11552.1966,W,75.17,94.73,120410,,,A*76
$GPRMC,011925.000,A,3339.8364,N,11552.1214,W,76.00,94.47,120410,,,A*7C
$GPRMC,011928.000,A,3339.8314,N,11552.0453,W,75.71,94.70,120410,,,A*73
$GPRMC,011931.000,A,3339.8264,N,11551.9707,W,75.33,94.46,120410,,,A*76
$GPRMC,011934.000,A,3339.8215,N,11551.8950,W,76.50,94.51,120410,,,A*78
$GPRMC,011937.000,A,3339.8165,N,11551.8207,W,72.73,94.80,120410,,,A*7F
$GPRMC,011940.000,A,3339.8117,N,11551.7480,W,73.72,94.19,120410,,,A*7C
$GPRMC,011943.000,A,3339.8070,N,11551.6737,W,75.53,94.47,120410,,,A*7F
$GPRMC,011946.000,A,3339.8020,N,11551.5995,W,72.84,94.78,120410,,,A*7B
$GPRMC,011949.000,A,3339.7970,N,11551.5287,W,70.41,94.64,120410,,,A*79
$GPRMC,011952.000,A,3339.7925,N,11551.4587,W,70.18,94.37,120410,,,A*7F
$GPRMC,011955.000,A,3339.7878,N,11551.3890,W,70.01,94.52,120410,,,A*76
$GPRMC,011958.000,A,3339.7832,N,11551.3195,W,69.85,94.63,120410,,,A*7F
$GPRMC,012001.000,A,3339.7784,N,11551.2502,W,69.61,94.55,120410,,,A*7F
$GPRMC,012004.000,A,3339.7740,N,11551.1810,W,69.29,94.06,120410,,,A*75
$GPRMC,012007.000,A,3339.7697,N,11551.1121,W,69.23,94.73,120410,,,A*7E
$GPRMC,012010.000,A,3339.7649,N,11551.0432,W,69.37,94.56,120410,,,A*7F
$GPRMC,012013.000,A,3339.7605,N,11550.9741,W,69.40,94.04,120410,,,A*7C
$GPRMC,012016.000,A,3339.7560,N,11550.9051,W,69.41,94.72,120410,,,A*7F
$GPRMC,012019.000,A,3339.7514,N,11550.8361,W,69.38,94.34,120410,,,A*7E
$GPRMC,012022.000,A,3339.7471,N,11550.7670,W,69.39,94.35,120410,,,A*7E
$GPRMC,012025.000,A,3339.7423,N,11550.6980,W,69.42,94.50,120410,,,A*70
$GPRMC,012028.000,A,3339.7378,N,11550.6289,W,69.42,94.48,120410,,,A*7F
$GPRMC,012031.000,A,3339.7332,N,11550.5598,W,69.54,94.57,120410,,,A*74
$GPRMC,012034.000,A,3339.7287,N,11550.4907,W,69.43,94.39,120410,,,A*7B
$GPRMC,012037.000,A,3339.7242,N,11550.4211,W,70.67,94.55,120410,,,A*79
$GPRMC,012040.000,A,3339.7195,N,11550.3500,W,72.39,94.70,120410,,,A*7E
$GPRMC,012043.000,A,3339.7146,N,11550.2772,W,73.54,94.55,120410,,,A*78
$GPRMC,012046.000,A,3339.7096,N,11550.2044,W,71.41,94.74,120410,,,A*76
$GPRMC,012049.000,A,3339.7039,N,11550.1344,W,70.26,95.61,120410,,,A*79
$GPRMC,012052.000,A,3339.6985,N,11550.0649,W,69.83,95.03,120410,,,A*76
$GPRMC,012055.000,A,3339.6935,N,11549.9956,W,69.68,94.77,120410,,,A*7D
$GPRMC,012058.000,A,3339.6887,N,11549.9263,W,69.52,94.44,120410,,,A*7C
$GPRMC,012101.000,A,3339.6841,N,11549.8573,W,69.39,94.43,120410,,,A*76
$GPRMC,012104.000,A,3339.6796,N,11549.7882,W,69.46,94.53,120410,,,A*73
$GPRMC,012107.000,A,3339.6751,N,11549.7192,W,69.33,94.34,120410,,,A*70
$GPRMC,012110.000,A,3339.6705,N,11549.6501,W,69.42,94.60,120410,,,A*7F
$GPRMC,012113.000,A,3339.6659,N,11549.5811,W,69.46,94.59,120410,,,A*75
$GPRMC,012116.000,A,3339.6612,N,11549.5120,W,69.57,94.69,120410,,,A*77
$GPRMC,012119.000,A,3339.6565,N,11549.4429,W,69.61,94.58,120410,,,A*71
$GPRMC,012122.000,A,3339.6518,N,11549.3737,W,69.61,94.79,120410,,,A*7B
$GPRMC,012125.000,A,3339.6473,N,11549.3046,W,69.44,94.46,120410,,,A*7A
$GPRMC,012128.000,A,3339.6426,N,11549.2355,W,69.54,94.70,120410,,,A*73
$GPRMC,012131.000,A,3339.6379,N,11549.1664,W,69.46,94.60,120410,,,A*70
$GPRMC,012134.000,A,3339.6334,N,11549.0972,W,69.51,94.23,120410,,,A*74
$GPRMC,012137.000,A,3339.6288,N,11549.0282,W,69.47,94.61,120410,,,A*74
$GPRMC,012140.000,A,3339.6242,N,11548.9591,W,69.43,94.45,120410,,,A*7D
$GPRMC,012143.000,A,3339.6197,N,11548.8900,W,69.45,94.57,120410,,,A*75
$GPRMC,012146.000,A,3339.6149,N,11548.8209,W,69.50,94.73,120410,,,A*73
$GPRMC,012149.000,A,3339.6102,N,11548.7518,W,69.45,94.59,120410,,,A*77
$GPRMC,012152.000,A,3339.6057,N,11548.6826,W,69.44,93.95,120410,,,A*7B
$GPRMC,012155.000,A,3339.6025,N,11548.6134,W,69.55,92.24,120410,,,A*78
$GPRMC,012158.000,A,3339.6010,N,11548.5441,W,69.44,90.79,120410,,,A*7D
$GPRMC,012201.000,A,3339.6008,N,11548.4748,W,69.46,90.12,120410,,,A*7F
$GPRMC,012204.000,A,3339.6007,N,11548.4055,W,69.48,89.85,120410,,,A*76
$GPRMC,012207.000,A,3339.6007,N,11548.3361,W,69.49,90.17,120410,,,A*74
$GPRMC,012210.000,A,3339.6006,N,11548.2668,W,69.44,90.11,120410,,,A*75
$GPRMC,012213.000,A,3339.6006,N,11548.1975,W,69.44,90.17,120410,,,A*70
$GPRMC,012216.000,A,3339.6004,N,11548.1282,W,69.21,90.48,120410,,,A*7D
$GPRMC,012219.000,A,3339.6002,N,11548.0591,W,69.40,89.83,120410,,,A*78
$GPRMC,012222.000,A,3339.6001,N,11547.9899,W,69.30,89.92,120410,,,A*77
$GPRMC,012225.000,A,3339.6000,N,11547.9207,W,69.47,90.36,120410,,,A*7A
$GPRMC,012228.000,A,3339.5996,N,11547.8513,W,69.66,90.33,120410,,,A*77
$GPRMC,012231.000,A,3339.5992,N,11547.7818,W,69.60,90.40,120410,,,A*70
$GPRMC,012234.000,A,3339.5990,N,11547.7124,W,69.49,90.18,120410,,,A*77
$GPRMC,012237.000,A,3339.5988,N,11547.6430,W,69.51,90.36,120410,,,A*79
$GPRMC,012240.000,A,3339.5986,N,11547.5736,W,69.51,89.96,120410,,,A*73
$GPRMC,012243.000,A,3339.5985,N,11547.5042,W,69.49,90.18,120410,,,A*70
$GPRMC,012246.000,A,3339.5984,N,11547.4348,W,69.52,89.90,120410,,,A*7E
$GPRMC,012249.000,A,3339.5981,N,11547.3655,W,69.49,90.46,120410,,,A*73
$GPRMC,012252.000,A,3339.5974,N,11547.2962,W,69.49,90.68,120410,,,A*75
$GPRMC,012255.000,A,3339.5972,N,11547.2271,W,69.35,89.79,120410,,,A*7E
$GPRMC,012258.000,A,3339.5972,N,11547.1580,W,69.40,90.11,120410,,,A*7D
$GPRMC,012301.000,A,3339.5971,N,11547.0887,W,69.53,90.04,120410,,,A*7E
$GPRMC,012304.000,A,3339.5973,N,11547.0194,W,69.50,89.85,120410,,,A*70
$GPRMC,012307.000,A,3339.5970,N,11546.9502,W,69.44,90.41,120410,,,A*76
$GPRMC,012310.000,A,3339.5967,N,11546.8810,W,69.40,89.99,120410,,,A*70
$GPRMC,012313.000,A,3339.5966,N,11546.8118,W,69.43,90.23,120410,,,A*79
$GPRMC,012316.000,A,3339.5967,N,11546.7426,W,69.45,90.06,120410,,,A*7B
$GPRMC,012319.000,A,3339.5964,N,11546.6733,W,69.49,90.02,120410,,,A*79
$GPRMC,012322.000,A,3339.5963,N,11546.6041,W,69.32,90.28,120410,,,A*70
$GPRMC,012325.000,A,3339.5960,N,11546.5349,W,69.43,89.92,120410,,,A*73
$GPRMC,012328.000,A,3339.5961,N,11546.4657,W,69.47,90.18,120410,,,A*7A
$GPRMC,012331.000,A,3339.5958,N,11546.3963,W,69.65,90.43,120410,,,A*79
$GPRMC,012334.000,A,3339.5955,N,11546.3269,W,69.46,90.07,120410,,,A*71
$GPRMC,012337.000,A,3339.5958,N,11546.2575,W,69.63,89.24,120410,,,A*7A
$GPRMC,012340.000,A,3339.5965,N,11546.1881,W,69.57,89.43,120410,,,A*77
$GPRMC,012343.000,A,3339.5967,N,11546.1187,W,69.55,89.90,120410,,,A*75
$GPRMC,012346.000,A,3339.5967,N,11546.0492,W,69.65,89.94,120410,,,A*77
$GPRMC,012349.000,A,3339.5969,N,11545.9798,W,69.48,90.16,120410,,,A*78
$GPRMC,012352.000,A,3339.5965,N,11545.9106,W,69.33,90.49,120410,,,A*79
$GPRMC,012355.000,A,3339.5962,N,11545.8414,W,69.23,90.09,120410,,,A*7B
$GPRMC,012358.000,A,3339.5958,N,11545.7722,W,69.53,90.57,120410,,,A*7A
$GPRMC,012401.000,A,3339.5954,N,11545.7027,W,69.52,90.18,120410,,,A*75
$GPRMC,012404.000,A,3339.5952,N,11545.6332,W,69.57,90.19,120410,,,A*74
$GPRMC,012407.000,A,3339.5950,N,11545.5638,W,69.52,90.11,120410,,,A*74
$GPRMC,012410.000,A,3339.5948,N,11545.4944,W,69.55,90.21,120410,,,A*7A
$GPRMC,012413.000,A,3339.5945,N,11545.4249,W,69.60,90.30,120410,,,A*74
$GPRMC,012416.000,A,3339.5940,N,11545.3554,W,69.67,90.37,120410,,,A*78
$GPRMC,012419.000,A,3339.5939,N,11545.2859,W,69.69,89.93,120410,,,A*70
$GPRMC,012422.000,A,3339.5940,N,11545.2164,W,69.54,89.73,120410,,,A*71
$GPRMC,012425.000,A,3339.5939,N,11545.1479,W,67.98,90.47,120410,,,A*73
$GPRMC,012428.000,A,3339.5934,N,11545.0794,W,68.59,90.30,120410,,,A*70
$GPRMC,012431.000,A,3339.5936,N,11545.0115,W,68.45,89.83,120410,,,A*78
$GPRMC,012434.000,A,3339.5933,N,11544.9431,W,68.95,90.60,120410,,,A*7B
$GPRMC,012437.000,A,3339.5930,N,11544.8738,W,69.75,89.87,120410,,,A*7E
$GPRMC,012440.000,A,3339.5930,N,11544.8042,W,69.70,90.40,120410,,,A*72
$GPRMC,012443.000,A,3339.5926,N,11544.7347,W,69.55,90.13,120410,,,A*7E
$GPRMC,012446.000,A,3339.5924,N,11544.6653,W,69.52,90.26,120410,,,A*79
$GPRMC,012449.000,A,3339.5921,N,11544.5959,W,69.65,90.16,120410,,,A*72
$GPRMC,012452.000,A,3339.5918,N,11544.5265,W,69.55,90.33,120410,,,A*72
$GPRMC,012455.000,A,3339.5915,N,11544.4572,W,69.37,90.10,120410,,,A*7D
$GPRMC,012458.000,A,3339.5913,N,11544.3880,W,69.36,90.47,120410,,,A*72
$GPRMC,012501.000,A,3339.5909,N,11544.3188,W,69.53,90.10,120410,,,A*74
$GPRMC,012504.000,A,3339.5908,N,11544.2493,W,69.60,90.05,120410,,,A*7A
$GPRMC,012507.000,A,3339.5906,N,11544.1798,W,69.70,90.38,120410,,,A*73
$GPRMC,012510.000,A,3339.5903,N,11544.1103,W,69.60,90.19,120410,,,A*76
$GPRMC,012513.000,A,3339.5901,N,11544.0409,W,69.53,90.03,120410,,,A*72
$GPRMC,012516.000,A,3339.5901,N,11543.9716,W,69.51,90.31,120410,,,A*77
$GPRMC,012519.000,A,3339.5899,N,11543.9022,W,69.51,90.02,120410,,,A*78
$GPRMC,012522.000,A,3339.5895,N,11543.8329,W,69.58,90.40,120410,,,A*7A
$GPRMC,012525.000,A,3339.5893,N,11543.7635,W,69.57,90.17,120410,,,A*71
$GPRMC,012528.000,A,3339.5892,N,11543.6940,W,69.59,89.80,120410,,,A*79
$GPRMC,012531.000,A,3339.5897,N,11543.6245,W,69.53,89.81,120410,,,A*71
$GPRMC,012534.000,A,3339.5906,N,11543.5553,W,69.42,88.52,120410,,,A*71
$GPRMC,012537.000,A,3339.5929,N,11543.4861,W,69.49,87.43,120410,,,A*76
$GPRMC,012540.000,A,3339.5960,N,11543.4168,W,69.47,86.51,120410,,,A*77
$GPRMC,012543.000,A,3339.6003,N,11543.3476,W,69.54,85.26,120410,,,A*77
$GPRMC,012546.000,A,3339.6057,N,11543.2782,W,69.75,84.39,120410,,,A*76
$GPRMC,012549.000,A,3339.6121,N,11543.2089,W,69.79,83.38,120410,,,A*7F
$GPRMC,012552.000,A,3339.6196,N,11543.1402,W,69.43,82.47,120410,,,A*7D
$GPRMC,012555.000,A,3339.6276,N,11543.0718,W,69.46,81.26,120410,,,A*7F
$GPRMC,012558.000,A,3339.6372,N,11543.0033,W,69.50,80.24,120410,,,A*7D
$GPRMC,012601.000,A,3339.6475,N,11542.9350,W,69.42,79.55,120410,,,A*7F
$GPRMC,012604.000,A,3339.6583,N,11542.8669,W,69.34,79.66,120410,,,A*7D
$GPRMC,012607.000,A,3339.6692,N,11542.7989,W,69.58,78.92,120410,,,A*73
$GPRMC,012610.000,A,3339.6807,N,11542.7309,W,69.57,78.84,120410,,,A*7D
$GPRMC,012613.000,A,3339.6919,N,11542.6627,W,69.68,79.11,120410,,,A*79
$GPRMC,012616.000,A,3339.7031,N,11542.5946,W,69.59,79.07,120410,,,A*70
$GPRMC,012619.000,A,3339.7143,N,11542.5264,W,69.63,79.07,120410,,,A*79
$GPRMC,012622.000,A,3339.7253,N,11542.4584,W,69.31,79.23,120410,,,A*7A
$GPRMC,012625.000,A,3339.7365,N,11542.3905,W,69.38,79.09,120410,,,A*7A
$GPRMC,012628.000,A,3339.7474,N,11542.3224,W,69.48,79.13,120410,,,A*74
$GPRMC,012631.000,A,3339.7585,N,11542.2542,W,69.61,79.12,120410,,,A*7F
$GPRMC,012634.000,A,3339.7694,N,11542.1859,W,69.59,79.30,120410,,,A*76
$GPRMC,012637.000,A,3339.7795,N,11542.1175,W,69.64,80.54,120410,,,A*78
$GPRMC,012640.000,A,3339.7902,N,11542.0492,W,69.62,78.67,120410,,,A*74
$GPRMC,012643.000,A,3339.8015,N,11541.9811,W,69.63,79.13,120410,,,A*79
$GPRMC,012646.000,A,3339.8122,N,11541.9126,W,69.70,79.47,120410,,,A*77
$GPRMC,012649.000,A,3339.8230,N,11541.8443,W,69.62,79.00,120410,,,A*7F
$GPRMC,012652.000,A,3339.8342,N,11541.7762,W,69.52,78.94,120410,,,A*71
$GPRMC,012655.000,A,3339.8454,N,11541.7080,W,69.55,79.14,120410,,,A*73
$GPRMC,012658.000,A,3339.8563,N,11541.6398,W,69.45,79.04,120410,,,A*70
$GPRMC,012701.000,A,3339.8674,N,11541.5717,W,69.47,78.84,120410,,,A*73
$GPRMC,012704.000,A,3339.8785,N,11541.5035,W,69.53,79.14,120410,,,A*73
$GPRMC,012707.000,A,3339.8893,N,11541.4353,W,69.52,79.12,120410,,,A*7D
$GPRMC,012710.000,A,3339.9004,N,11541.3672,W,69.59,78.99,120410,,,A*74
$GPRMC,012713.000,A,3339.9113,N,11541.2989,W,69.69,79.25,120410,,,A*7F
$GPRMC,012716.000,A,3339.9223,N,11541.2308,W,69.44,78.92,120410,,,A*7B
$GPRMC,012719.000,A,3339.9335,N,11541.1628,W,69.46,79.10,120410,,,A*7F
$GPRMC,012722.000,A,3339.9438,N,11541.0945,W,69.52,80.64,120410,,,A*78
$GPRMC,012725.000,A,3339.9528,N,11541.0258,W,69.92,81.75,120410,,,A*75
$GPRMC,012728.000,A,3339.9604,N,11540.9564,W,70.24,83.53,120410,,,A*76
$GPRMC,012731.000,A,3339.9659,N,11540.8867,W,70.08,85.01,120410,,,A*76
$GPRMC,012734.000,A,3339.9707,N,11540.8173,W,69.52,85.33,120410,,,A*73
$GPRMC,012737.000,A,3339.9757,N,11540.7481,W,69.69,85.04,120410,,,A*7E
$GPRMC,012740.000,A,3339.9807,N,11540.6788,W,69.66,84.97,120410,,,A*7B
$GPRMC,012743.000,A,3339.9856,N,11540.6097,W,69.56,84.82,120410,,,A*72
$GPRMC,012746.000,A,3339.9907,N,11540.5405,W,69.56,84.89,120410,,,A*75
$GPRMC,012749.000,A,3339.9958,N,11540.4715,W,69.49,84.85,120410,,,A*71
$GPRMC,012752.000,A,3340.0007,N,11540.4023,W,69.54,84.99,120410,,,A*7C
$GPRMC,012755.000,A,3340.0058,N,11540.3332,W,69.62,84.70,120410,,,A*77
$GPRMC,012758.000,A,3340.0110,N,11540.2641,W,69.40,85.12,120410,,,A*72
$GPRMC,012801.000,A,3340.0159,N,11540.1951,W,69.50,85.47,120410,,,A*70
$GPRMC,012804.000,A,3340.0203,N,11540.1257,W,69.47,86.07,120410,,,A*75
$GPRMC,012807.000,A,3340.0242,N,11540.0563,W,69.84,85.34,120410,,,A*7E
$GPRMC,012810.000,A,3340.0292,N,11539.9870,W,69.65,84.77,120410,,,A*74
$GPRMC,012813.000,A,3340.0342,N,11539.9179,W,69.31,85.14,120410,,,A*7E
$GPRMC,012816.000,A,3340.0391,N,11539.8488,W,69.43,84.91,120410,,,A*76
