NMEA Sentence Code,UTC Time,Status,Latitude,Latitude Direction,Longitude,Longitude Direction,Speed (knots),Track Angle (degrees true),Date,MagneticVariation,Magnetic Variation Direction,[FAA Mode]-Optional,Checksum
$GPRMC,171524.000,A,3307.7769,N,11719.5986,W,62.12,152.82,270310,,,A*41
$GPRMC,171527.000,A,3307.7304,N,11719.5703,W,62.86,153.24,270310,,,A*4E
$GPRMC,171530.000,A,3307.6833,N,11719.5420,W,63.62,153.18,270310,,,A*40
$GPRMC,171533.000,A,3307.6363,N,11719.5134,W,62.66,153.08,270310,,,A*49
$GPRMC,171536.000,A,3307.5904,N,11719.4858,W,61.76,153.13,270310,,,A*4E
$GPRMC,171539.000,A,3307.5442,N,11719.4580,W,62.40,153.14,270310,,,A*47
$GPRMC,171542.000,A,3307.4976,N,11719.4298,W,62.90,153.06,270310,,,A*40
$GPRMC,171545.000,A,3307.4513,N,11719.4018,W,61.63,152.91,270310,,,A*42
$GPRMC,171548.000,A,3307.4060,N,11719.3745,W,60.17,153.12,270310,,,A*4E
$GPRMC,171551.000,A,3307.3615,N,11719.3478,W,59.85,153.09,270310,,,A*43
$GPRMC,171554.000,A,3307.3170,N,11719.3213,W,60.58,153.74,270310,,,A*49
$GPRMC,171557.000,A,3307.2710,N,11719.2927,W,63.02,153.03,270310,,,A*4A
$GPRMC,171600.000,A,3307.2234,N,11719.2640,W,64.47,153.26,270310,,,A*47
$GPRMC,171603.000,A,3307.1765,N,11719.2362,W,61.12,153.09,270310,,,A*4B
$GPRMC,171606.000,A,3307.1324,N,11719.2100,W,57.36,153.20,270310,,,A*41
$GPRMC,171609.000,A,3307.0905,N,11719.1851,W,55.97,153.22,270310,,,A*43
$GPRMC,171612.000,A,3307.0489,N,11719.1603,W,55.45,153.08,270310,,,A*4E
$GPRMC,171615.000,A,3307.0078,N,11719.1356,W,55.55,153.38,270310,,,A*44
$GPRMC,171618.000,A,3306.9660,N,11719.1108,W,56.29,153.19,270310,,,A*4C
$GPRMC,171621.000,A,3306.9237,N,11719.0858,W,57.04,153.17,270310,,,A*4D
$GPRMC,171624.000,A,3306.8808,N,11719.0598,W,57.96,152.76,270310,,,A*43
$GPRMC,171627.000,A,3306.8375,N,11719.0339,W,58.01,153.28,270310,,,A*47
$GPRMC,171630.000,A,3306.7934,N,11719.0083,W,58.25,153.06,270310,,,A*49
$GPRMC,171633.000,A,3306.7500,N,11718.9828,W,56.67,153.20,270310,,,A*4C
$GPRMC,171636.000,A,3306.7085,N,11718.9578,W,55.46,153.07,270310,,,A*4C
$GPRMC,171639.000,A,3306.6673,N,11718.9329,W,55.88,153.16,270310,,,A*4D
$GPRMC,171642.000,A,3306.6253,N,11718.9077,W,57.05,153.28,270310,,,A*45
$GPRMC,171645.000,A,3306.5824,N,11718.8818,W,58.25,153.10,270310,,,A*4D
$GPRMC,171648.000,A,3306.5376,N,11718.8558,W,59.27,153.05,270310,,,A*42
$GPRMC,171651.000,A,3306.4931,N,11718.8289,W,59.15,151.70,270310,,,A*48
$GPRMC,171654.000,A,3306.4492,N,11718.8004,W,59.84,151.08,270310,,,A*49
$GPRMC,171657.000,A,3306.4054,N,11718.7722,W,59.31,151.54,270310,,,A*4F
$GPRMC,171700.000,A,3306.3626,N,11718.7437,W,59.10,151.27,270310,,,A*48
$GPRMC,171703.000,A,3306.3194,N,11718.7150,W,59.66,151.03,270310,,,A*46
$GPRMC,171706.000,A,3306.2759,N,11718.6860,W,60.22,150.99,270310,,,A*46
$GPRMC,171709.000,A,3306.2319,N,11718.6568,W,60.76,151.24,270310,,,A*4A
$GPRMC,171712.000,A,3306.1916,N,11718.6292,W,48.08,147.03,270310,,,A*45
$GPRMC,171715.000,A,3306.1530,N,11718.6007,W,52.06,145.88,270310,,,A*40
$GPRMC,171718.000,A,3306.1134,N,11718.5722,W,52.40,147.53,270310,,,A*48
$GPRMC,171721.000,A,3306.0730,N,11718.5447,W,52.80,148.43,270310,,,A*43
$GPRMC,171724.000,A,3306.0307,N,11718.5167,W,54.48,148.66,270310,,,A*44
$GPRMC,171727.000,A,3305.9864,N,11718.4881,W,56.76,149.27,270310,,,A*48
$GPRMC,171730.000,A,3305.9403,N,11718.4594,W,57.88,150.30,270310,,,A*44
$GPRMC,171733.000,A,3305.8943,N,11718.4307,W,59.24,150.70,270310,,,A*4F
$GPRMC,171736.000,A,3305.8465,N,11718.4012,W,60.86,151.17,270310,,,A*46
$GPRMC,171739.000,A,3305.7978,N,11718.3712,W,61.11,151.74,270310,,,A*4D
$GPRMC,171742.000,A,3305.7525,N,11718.3427,W,58.61,151.47,270310,,,A*4D
$GPRMC,171745.000,A,3305.7090,N,11718.3151,W,58.33,151.86,270310,,,A*4F
$GPRMC,171748.000,A,3305.6664,N,11718.2872,W,58.14,151.57,270310,,,A*4E
$GPRMC,171751.000,A,3305.6244,N,11718.2597,W,57.71,151.33,270310,,,A*48
$GPRMC,171754.000,A,3305.5821,N,11718.2320,W,58.30,151.51,270310,,,A*43
$GPRMC,171757.000,A,3305.5401,N,11718.2046,W,56.67,151.70,270310,,,A*42
$GPRMC,171800.000,A,3305.4970,N,11718.1789,W,57.09,151.60,270310,,,A*4A
$GPRMC,171803.000,A,3305.4539,N,11718.1527,W,57.91,151.68,270310,,,A*47
$GPRMC,171806.000,A,3305.4105,N,11718.1259,W,58.44,151.98,270310,,,A*4F
$GPRMC,171809.000,A,3305.3679,N,11718.0973,W,58.58,151.05,270310,,,A*40
$GPRMC,171812.000,A,3305.3251,N,11718.0686,W,58.40,151.01,270310,,,A*4C
$GPRMC,171815.000,A,3305.2834,N,11718.0402,W,57.23,151.12,270310,,,A*45
$GPRMC,171818.000,A,3305.2427,N,11718.0127,W,56.37,151.08,270310,,,A*4B
$GPRMC,171821.000,A,3305.2016,N,11717.9851,W,57.10,150.83,270310,,,A*4F
$GPRMC,171824.000,A,3305.1600,N,11717.9571,W,58.60,150.90,270310,,,A*4D
$GPRMC,171827.000,A,3305.1154,N,11717.9287,W,61.09,151.26,270310,,,A*4F
$GPRMC,171830.000,A,3305.0699,N,11717.9006,W,61.66,154.44,270310,,,A*4D
$GPRMC,171833.000,A,3305.0223,N,11717.8765,W,62.08,158.87,270310,,,A*40
$GPRMC,171836.000,A,3304.9724,N,11717.8578,W,62.50,164.16,270310,,,A*4B
$GPRMC,171839.000,A,3304.9218,N,11717.8426,W,62.77,165.52,270310,,,A*40
$GPRMC,171842.000,A,3304.8706,N,11717.8275,W,63.83,165.73,270310,,,A*4E
$GPRMC,171845.000,A,3304.8183,N,11717.8121,W,65.11,165.77,270310,,,A*49
$GPRMC,171848.000,A,3304.7650,N,11717.7963,W,65.95,165.47,270310,,,A*4C
$GPRMC,171851.000,A,3304.7114,N,11717.7802,W,65.44,166.19,270310,,,A*41
$GPRMC,171854.000,A,3304.6603,N,11717.7654,W,61.39,165.92,270310,,,A*47
$GPRMC,171857.000,A,3304.6118,N,11717.7508,W,58.75,166.10,270310,,,A*48
$GPRMC,171900.000,A,3304.5654,N,11717.7373,W,56.90,165.72,270310,,,A*4F
$GPRMC,171903.000,A,3304.5193,N,11717.7234,W,57.40,165.87,270310,,,A*44
$GPRMC,171906.000,A,3304.4727,N,11717.7096,W,57.75,165.79,270310,,,A*44
$GPRMC,171909.000,A,3304.4266,N,11717.6959,W,56.76,166.02,270310,,,A*4D
$GPRMC,171912.000,A,3304.3810,N,11717.6820,W,56.51,165.52,270310,,,A*47
$GPRMC,171915.000,A,3304.3349,N,11717.6681,W,57.60,165.93,270310,,,A*4C
$GPRMC,171918.000,A,3304.2878,N,11717.6541,W,58.92,165.96,270310,,,A*41
$GPRMC,171921.000,A,3304.2397,N,11717.6395,W,60.19,165.92,270310,,,A*42
$GPRMC,171924.000,A,3304.1906,N,11717.6248,W,60.78,165.75,270310,,,A*49
$GPRMC,171927.000,A,3304.1394,N,11717.6109,W,61.48,165.92,270310,,,A*46
$GPRMC,171930.000,A,3304.0872,N,11717.5973,W,62.67,166.05,270310,,,A*47
$GPRMC,171933.000,A,3304.0357,N,11717.5835,W,61.69,166.04,270310,,,A*47
$GPRMC,171936.000,A,3303.9868,N,11717.5686,W,59.34,165.80,270310,,,A*41
$GPRMC,171939.000,A,3303.9395,N,11717.5532,W,59.42,165.51,270310,,,A*46
$GPRMC,171942.000,A,3303.8914,N,11717.5385,W,60.32,165.58,270310,,,A*46
$GPRMC,171945.000,A,3303.8423,N,11717.5236,W,61.54,165.75,270310,,,A*4F
$GPRMC,171948.000,A,3303.7926,N,11717.5089,W,60.64,166.01,270310,,,A*41
$GPRMC,171951.000,A,3303.7449,N,11717.4935,W,59.48,165.60,270310,,,A*42
$GPRMC,171954.000,A,3303.6953,N,11717.4789,W,60.67,165.86,270310,,,A*46
$GPRMC,171957.000,A,3303.6454,N,11717.4639,W,61.38,165.97,270310,,,A*4E
$GPRMC,172000.000,A,3303.5953,N,11717.4490,W,61.37,165.68,270310,,,A*41
$GPRMC,172003.000,A,3303.5461,N,11717.4343,W,60.13,165.82,270310,,,A*44
$GPRMC,172006.000,A,3303.4971,N,11717.4196,W,60.29,165.98,270310,,,A*44
$GPRMC,172009.000,A,3303.4483,N,11717.4050,W,60.09,165.65,270310,,,A*40
$GPRMC,172012.000,A,3303.3991,N,11717.3899,W,61.34,165.49,270310,,,A*48
$GPRMC,172015.000,A,3303.3497,N,11717.3748,W,60.34,165.62,270310,,,A*4F
$GPRMC,172018.000,A,3303.3015,N,11717.3602,W,58.61,165.95,270310,,,A*40
$GPRMC,172021.000,A,3303.2547,N,11717.3463,W,57.11,165.68,270310,,,A*46
$GPRMC,172024.000,A,3303.2087,N,11717.3322,W,56.92,165.51,270310,,,A*48
$GPRMC,172027.000,A,3303.1623,N,11717.3180,W,57.72,165.80,270310,,,A*49
$GPRMC,172030.000,A,3303.1158,N,11717.3039,W,56.75,165.68,270310,,,A*47
$GPRMC,172033.000,A,3303.0701,N,11717.2901,W,56.54,165.69,270310,,,A*4E
$GPRMC,172036.000,A,3303.0248,N,11717.2761,W,55.27,165.19,270310,,,A*4B
$GPRMC,172039.000,A,3302.9804,N,11717.2625,W,54.64,165.74,270310,,,A*42
$GPRMC,172042.000,A,3302.9366,N,11717.2494,W,53.62,165.62,270310,,,A*4F
$GPRMC,172045.000,A,3302.8938,N,11717.2364,W,52.26,165.76,270310,,,A*44
$GPRMC,172048.000,A,3302.8524,N,11717.2241,W,50.34,165.82,270310,,,A*44
$GPRMC,172051.000,A,3302.8116,N,11717.2114,W,51.45,165.67,270310,,,A*46
$GPRMC,172054.000,A,3302.7693,N,11717.1983,W,53.18,165.16,270310,,,A*4F
$GPRMC,172057.000,A,3302.7254,N,11717.1850,W,55.15,165.69,270310,,,A*4F
$GPRMC,172100.000,A,3302.6803,N,11717.1714,W,56.17,165.65,270310,,,A*47
$GPRMC,172103.000,A,3302.6347,N,11717.1576,W,56.06,165.73,270310,,,A*4E
$GPRMC,172106.000,A,3302.5901,N,11717.1444,W,53.80,165.31,270310,,,A*4D
$GPRMC,172109.000,A,3302.5479,N,11717.1298,W,52.13,161.42,270310,,,A*4C
$GPRMC,172112.000,A,3302.5076,N,11717.1122,W,51.13,157.48,270310,,,A*43
$GPRMC,172115.000,A,3302.4685,N,11717.0915,W,50.96,154.56,270310,,,A*42
$GPRMC,172118.000,A,3302.4314,N,11717.0685,W,49.85,150.62,270310,,,A*4D
$GPRMC,172121.000,A,3302.3952,N,11717.0439,W,50.06,150.87,270310,,,A*45
$GPRMC,172124.000,A,3302.3584,N,11717.0191,W,51.39,150.50,270310,,,A*47
$GPRMC,172127.000,A,3302.3202,N,11716.9930,W,54.02,150.05,270310,,,A*4B
$GPRMC,172130.000,A,3302.2800,N,11716.9657,W,56.60,150.60,270310,,,A*4F
$GPRMC,172133.000,A,3302.2381,N,11716.9376,W,57.75,150.62,270310,,,A*4F
$GPRMC,172136.000,A,3302.1965,N,11716.9097,W,55.92,150.53,270310,,,A*4C
$GPRMC,172139.000,A,3302.1563,N,11716.8827,W,54.47,150.39,270310,,,A*4E
$GPRMC,172142.000,A,3302.1167,N,11716.8558,W,54.96,150.18,270310,,,A*48
$GPRMC,172145.000,A,3302.0762,N,11716.8284,W,56.22,150.49,270310,,,A*42
$GPRMC,172148.000,A,3302.0349,N,11716.8009,W,57.34,150.52,270310,,,A*49
$GPRMC,172151.000,A,3301.9925,N,11716.7726,W,59.31,150.39,270310,,,A*48
$GPRMC,172154.000,A,3301.9486,N,11716.7433,W,60.50,150.71,270310,,,A*4F
$GPRMC,172157.000,A,3301.9044,N,11716.7139,W,60.73,150.03,270310,,,A*4D
$GPRMC,172200.000,A,3301.8603,N,11716.6843,W,60.48,150.62,270310,,,A*42
$GPRMC,172203.000,A,3301.8163,N,11716.6549,W,59.95,150.33,270310,,,A*49
$GPRMC,172206.000,A,3301.7725,N,11716.6257,W,59.81,150.26,270310,,,A*4E
$GPRMC,172209.000,A,3301.7292,N,11716.5964,W,59.34,150.53,270310,,,A*4C
$GPRMC,172212.000,A,3301.6861,N,11716.5674,W,59.22,150.30,270310,,,A*4D
$GPRMC,172215.000,A,3301.6433,N,11716.5387,W,58.41,150.43,270310,,,A*48
$GPRMC,172218.000,A,3301.6011,N,11716.5102,W,58.08,150.51,270310,,,A*40
$GPRMC,172221.000,A,3301.5590,N,11716.4845,W,57.58,154.73,270310,,,A*40
$GPRMC,172224.000,A,3301.5145,N,11716.4622,W,58.18,158.68,270310,,,A*4B
$GPRMC,172227.000,A,3301.4690,N,11716.4437,W,57.43,162.83,270310,,,A*4D
$GPRMC,172230.000,A,3301.4226,N,11716.4295,W,56.76,167.27,270310,,,A*40
$GPRMC,172233.000,A,3301.3765,N,11716.4194,W,55.66,170.09,270310,,,A*4C
$GPRMC,172236.000,A,3301.3307,N,11716.4107,W,55.27,170.41,270310,,,A*4A
$GPRMC,172239.000,A,3301.2854,N,11716.4021,W,54.88,170.60,270310,,,A*4B
$GPRMC,172242.000,A,3301.2397,N,11716.3935,W,55.83,170.18,270310,,,A*4D
$GPRMC,172245.000,A,3301.1943,N,11716.3837,W,54.23,167.94,270310,,,A*40
$GPRMC,172248.000,A,3301.1501,N,11716.3706,W,55.33,163.99,270310,,,A*43
$GPRMC,172251.000,A,3301.1059,N,11716.3538,W,55.29,160.13,270310,,,A*46
$GPRMC,172254.000,A,3301.0627,N,11716.3329,W,56.42,155.90,270310,,,A*48
$GPRMC,172257.000,A,3301.0196,N,11716.3077,W,58.72,152.23,270310,,,A*4C
$GPRMC,172300.000,A,3300.9768,N,11716.2779,W,59.91,148.01,270310,,,A*4F
$GPRMC,172303.000,A,3300.9354,N,11716.2435,W,60.75,143.37,270310,,,A*42
$GPRMC,172306.000,A,3300.8965,N,11716.2057,W,59.54,139.08,270310,,,A*46
$GPRMC,172309.000,A,3300.8611,N,11716.1662,W,57.62,136.12,270310,,,A*49
$GPRMC,172312.000,A,3300.8275,N,11716.1273,W,55.69,136.19,270310,,,A*43
$GPRMC,172315.000,A,3300.7948,N,11716.0895,W,54.43,135.88,270310,,,A*4F
$GPRMC,172318.000,A,3300.7627,N,11716.0520,W,54.26,135.98,270310,,,A*45
$GPRMC,172321.000,A,3300.7302,N,11716.0146,W,54.36,135.80,270310,,,A*41
$GPRMC,172324.000,A,3300.6973,N,11715.9770,W,55.43,135.65,270310,,,A*48
$GPRMC,172327.000,A,3300.6642,N,11715.9382,W,56.09,135.88,270310,,,A*41
$GPRMC,172330.000,A,3300.6310,N,11715.9000,W,54.78,136.17,270310,,,A*4D
$GPRMC,172333.000,A,3300.5991,N,11715.8627,W,52.88,135.88,270310,,,A*40
$GPRMC,172336.000,A,3300.5676,N,11715.8262,W,52.82,135.72,270310,,,A*49
$GPRMC,172339.000,A,3300.5361,N,11715.7890,W,53.37,135.32,270310,,,A*46
$GPRMC,172342.000,A,3300.5040,N,11715.7517,W,53.93,135.53,270310,,,A*41
$GPRMC,172345.000,A,3300.4713,N,11715.7140,W,54.99,136.13,270310,,,A*4A
$GPRMC,172348.000,A,3300.4380,N,11715.6759,W,55.70,135.93,270310,,,A*4B
$GPRMC,172351.000,A,3300.4045,N,11715.6373,W,55.80,136.19,270310,,,A*4B
$GPRMC,172354.000,A,3300.3708,N,11715.5992,W,55.80,137.61,270310,,,A*4F
$GPRMC,172357.000,A,3300.3350,N,11715.5641,W,55.21,143.36,270310,,,A*4E
$GPRMC,172400.000,A,3300.2970,N,11715.5341,W,54.50,148.97,270310,,,A*40
$GPRMC,172403.000,A,3300.2571,N,11715.5083,W,54.55,153.67,270310,,,A*43
$GPRMC,172406.000,A,3300.2137,N,11715.4873,W,55.34,159.56,270310,,,A*48
$GPRMC,172409.000,A,3300.1687,N,11715.4706,W,56.29,164.59,270310,,,A*4B
$GPRMC,172412.000,A,3300.1220,N,11715.4592,W,57.60,170.35,270310,,,A*44
$GPRMC,172415.000,A,3300.0733,N,11715.4513,W,59.53,172.13,270310,,,A*44
$GPRMC,172418.000,A,3300.0232,N,11715.4433,W,60.43,172.72,270310,,,A*42
$GPRMC,172421.000,A,3259.9739,N,11715.4358,W,58.41,172.43,270310,,,A*43
$GPRMC,172424.000,A,3259.9251,N,11715.4288,W,58.91,172.54,270310,,,A*4A
$GPRMC,172427.000,A,3259.8754,N,11715.4217,W,60.53,172.95,270310,,,A*46
$GPRMC,172430.000,A,3259.8248,N,11715.4143,W,60.90,172.91,270310,,,A*41
$GPRMC,172433.000,A,3259.7743,N,11715.4068,W,60.58,172.81,270310,,,A*4E
$GPRMC,172436.000,A,3259.7254,N,11715.3993,W,57.31,172.49,270310,,,A*4D
$GPRMC,172439.000,A,3259.6779,N,11715.3918,W,57.89,172.24,270310,,,A*42
$GPRMC,172442.000,A,3259.6289,N,11715.3839,W,60.24,172.14,270310,,,A*46
$GPRMC,172445.000,A,3259.5786,N,11715.3758,W,61.08,172.28,270310,,,A*40
$GPRMC,172448.000,A,3259.5275,N,11715.3676,W,62.26,172.35,270310,,,A*4A
$GPRMC,172451.000,A,3259.4756,N,11715.3596,W,62.36,172.61,270310,,,A*4A
$GPRMC,172454.000,A,3259.4245,N,11715.3513,W,61.06,172.14,270310,,,A*47
$GPRMC,172457.000,A,3259.3744,N,11715.3438,W,59.85,173.46,270310,,,A*49
$GPRMC,172500.000,A,3259.3252,N,11715.3365,W,58.88,172.33,270310,,,A*48
$GPRMC,172503.000,A,3259.2767,N,11715.3287,W,58.45,172.39,270310,,,A*4F
$GPRMC,172506.000,A,3259.2282,N,11715.3211,W,58.78,172.30,270310,,,A*4C
$GPRMC,172509.000,A,3259.1793,N,11715.3130,W,59.91,172.40,270310,,,A*44
$GPRMC,172512.000,A,3259.1289,N,11715.3049,W,61.37,172.17,270310,,,A*4A
$GPRMC,172515.000,A,3259.0784,N,11715.2953,W,61.07,169.11,270310,,,A*48
$GPRMC,172518.000,A,3259.0287,N,11715.2818,W,61.28,165.05,270310,,,A*49
$GPRMC,172521.000,A,3258.9800,N,11715.2644,W,60.90,162.35,270310,,,A*4F
$GPRMC,172524.000,A,3258.9314,N,11715.2461,W,61.79,162.37,270310,,,A*45
$GPRMC,172527.000,A,3258.8825,N,11715.2276,W,60.89,162.38,270310,,,A*4F
$GPRMC,172530.000,A,3258.8343,N,11715.2094,W,60.46,162.35,270310,,,A*42
$GPRMC,172533.000,A,3258.7871,N,11715.1916,W,58.26,162.52,270310,,,A*48
$GPRMC,172536.000,A,3258.7416,N,11715.1747,W,56.07,162.42,270310,,,A*46
$GPRMC,172539.000,A,3258.6968,N,11715.1580,W,57.32,162.46,270310,,,A*46
$GPRMC,172542.000,A,3258.6497,N,11715.1403,W,60.92,162.47,270310,,,A*42
$GPRMC,172545.000,A,3258.6000,N,11715.1215,W,63.05,161.80,270310,,,A*4B
$GPRMC,172548.000,A,3258.5496,N,11715.1031,W,63.02,163.52,270310,,,A*40
$GPRMC,172551.000,A,3258.4987,N,11715.0848,W,63.75,162.90,270310,,,A*4C
$GPRMC,172554.000,A,3258.4474,N,11715.0655,W,64.86,162.42,270310,,,A*4E
$GPRMC,172557.000,A,3258.3952,N,11715.0459,W,66.03,162.31,270310,,,A*46
$GPRMC,172600.000,A,3258.3420,N,11715.0261,W,67.17,162.56,270310,,,A*47
$GPRMC,172603.000,A,3258.2881,N,11715.0058,W,68.01,162.14,270310,,,A*44
$GPRMC,172606.000,A,3258.2342,N,11714.9854,W,66.99,162.27,270310,,,A*46
$GPRMC,172609.000,A,3258.1810,N,11714.9650,W,66.59,162.11,270310,,,A*45
$GPRMC,172612.000,A,3258.1279,N,11714.9448,W,66.66,162.21,270310,,,A*4E
$GPRMC,172615.000,A,3258.0753,N,11714.9248,W,65.61,162.60,270310,,,A*42
$GPRMC,172618.000,A,3258.0239,N,11714.9051,W,64.12,162.02,270310,,,A*4D
$GPRMC,172621.000,A,3257.9734,N,11714.8858,W,63.13,162.49,270310,,,A*40
$GPRMC,172624.000,A,3257.9236,N,11714.8670,W,62.57,162.42,270310,,,A*4C
$GPRMC,172627.000,A,3257.8734,N,11714.8483,W,63.08,162.34,270310,,,A*4D
$GPRMC,172630.000,A,3257.8231,N,11714.8293,W,62.47,162.13,270310,,,A*43
$GPRMC,172633.000,A,3257.7738,N,11714.8109,W,61.52,162.53,270310,,,A*40
$GPRMC,172636.000,A,3257.7249,N,11714.7925,W,61.59,162.21,270310,,,A*41
$GPRMC,172639.000,A,3257.6755,N,11714.7743,W,61.72,163.29,270310,,,A*49
$GPRMC,172642.000,A,3257.6255,N,11714.7580,W,62.14,165.58,270310,,,A*4E
$GPRMC,172645.000,A,3257.5747,N,11714.7438,W,62.62,167.31,270310,,,A*42
$GPRMC,172648.000,A,3257.5232,N,11714.7314,W,63.06,169.01,270310,,,A*4F
$GPRMC,172651.000,A,3257.4711,N,11714.7206,W,63.47,170.25,270310,,,A*4B
$GPRMC,172654.000,A,3257.4185,N,11714.7109,W,63.48,171.18,270310,,,A*49
$GPRMC,172657.000,A,3257.3668,N,11714.7013,W,60.83,170.89,270310,,,A*4E
$GPRMC,172700.000,A,3257.3183,N,11714.6922,W,56.96,171.15,270310,,,A*40
$GPRMC,172703.000,A,3257.2725,N,11714.6835,W,54.82,170.60,270310,,,A*4B
$GPRMC,172706.000,A,3257.2277,N,11714.6749,W,54.14,171.06,270310,,,A*46
$GPRMC,172709.000,A,3257.1832,N,11714.6667,W,53.90,171.36,270310,,,A*44
$GPRMC,172712.000,A,3257.1387,N,11714.6587,W,54.35,170.88,270310,,,A*4A
$GPRMC,172715.000,A,3257.0936,N,11714.6503,W,55.22,170.72,270310,,,A*42
$GPRMC,172718.000,A,3257.0475,N,11714.6418,W,56.75,170.83,270310,,,A*41
$GPRMC,172721.000,A,3257.0000,N,11714.6330,W,58.27,170.89,270310,,,A*43
$GPRMC,172724.000,A,3256.9513,N,11714.6248,W,60.70,171.25,270310,,,A*49
$GPRMC,172727.000,A,3256.9016,N,11714.6157,W,59.65,170.66,270310,,,A*4F
$GPRMC,172730.000,A,3256.8531,N,11714.6066,W,58.01,170.94,270310,,,A*45
$GPRMC,172733.000,A,3256.8054,N,11714.5977,W,57.49,170.99,270310,,,A*44
$GPRMC,172736.000,A,3256.7573,N,11714.5889,W,59.27,171.18,270310,,,A*40
$GPRMC,172739.000,A,3256.7072,N,11714.5797,W,61.32,170.95,270310,,,A*40
$GPRMC,172742.000,A,3256.6560,N,11714.5702,W,62.02,170.89,270310,,,A*4A
$GPRMC,172745.000,A,3256.6056,N,11714.5609,W,59.88,171.21,270310,,,A*4E
$GPRMC,172748.000,A,3256.5566,N,11714.5523,W,58.83,171.54,270310,,,A*45
$GPRMC,172751.000,A,3256.5084,N,11714.5438,W,58.18,171.66,270310,,,A*4C
$GPRMC,172754.000,A,3256.4609,N,11714.5347,W,58.16,170.40,270310,,,A*4F
$GPRMC,172757.000,A,3256.4121,N,11714.5241,W,59.29,170.52,270310,,,A*48
$GPRMC,172800.000,A,3256.3631,N,11714.5153,W,59.36,173.01,270310,,,A*4F
$GPRMC,172803.000,A,3256.3128,N,11714.5093,W,59.39,175.15,270310,,,A*42
$GPRMC,172806.000,A,3256.2644,N,11714.5059,W,56.51,176.40,270310,,,A*4F
$GPRMC,172809.000,A,3256.2172,N,11714.5031,W,56.77,176.62,270310,,,A*48
$GPRMC,172812.000,A,3256.1691,N,11714.4999,W,57.31,176.41,270310,,,A*43
$GPRMC,172815.000,A,3256.1212,N,11714.4969,W,57.75,176.19,270310,,,A*49
$GPRMC,172818.000,A,3256.0727,N,11714.4937,W,58.52,176.47,270310,,,A*4C
$GPRMC,172821.000,A,3256.0232,N,11714.4901,W,59.29,176.01,270310,,,A*4D
$GPRMC,172824.000,A,3255.9742,N,11714.4858,W,57.74,175.25,270310,,,A*4E
$GPRMC,172827.000,A,3255.9264,N,11714.4814,W,56.84,174.47,270310,,,A*4F
$GPRMC,172830.000,A,3255.8788,N,11714.4751,W,58.41,172.88,270310,,,A*43
$GPRMC,172833.000,A,3255.8292,N,11714.4664,W,60.53,170.97,270310,,,A*4D
$GPRMC,172836.000,A,3255.7789,N,11714.4561,W,60.68,168.89,270310,,,A*40
$GPRMC,172839.000,A,3255.7305,N,11714.4441,W,56.96,167.24,270310,,,A*40
$GPRMC,172842.000,A,3255.6850,N,11714.4314,W,55.03,165.78,270310,,,A*45
$GPRMC,172845.000,A,3255.6403,N,11714.4175,W,55.54,164.30,270310,,,A*42
$GPRMC,172848.000,A,3255.5950,N,11714.4025,W,56.79,164.38,270310,,,A*47
$GPRMC,172851.000,A,3255.5491,N,11714.3872,W,57.21,164.11,270310,,,A*45
$GPRMC,172854.000,A,3255.5027,N,11714.3717,W,57.56,164.45,270310,,,A*44
$GPRMC,172857.000,A,3255.4557,N,11714.3557,W,58.64,164.50,270310,,,A*48
$GPRMC,172900.000,A,3255.4080,N,11714.3393,W,59.50,163.32,270310,,,A*4F
$GPRMC,172903.000,A,3255.3622,N,11714.3209,W,55.82,159.55,270310,,,A*4C
$GPRMC,172906.000,A,3255.3199,N,11714.3002,W,54.45,155.80,270310,,,A*49
$GPRMC,172909.000,A,3255.2788,N,11714.2765,W,55.31,152.96,270310,,,A*44
$GPRMC,172912.000,A,3255.2380,N,11714.2500,W,56.19,150.26,270310,,,A*43
$GPRMC,172915.000,A,3255.1977,N,11714.2196,W,57.46,146.27,270310,,,A*43
$GPRMC,172918.000,A,3255.1589,N,11714.1858,W,56.92,142.77,270310,,,A*42
$GPRMC,172921.000,A,3255.1223,N,11714.1511,W,55.24,140.79,270310,,,A*4D
$GPRMC,172924.000,A,3255.0879,N,11714.1145,W,55.75,136.25,270310,,,A*45
$GPRMC,172927.000,A,3255.0551,N,11714.0731,W,57.99,132.05,270310,,,A*43
$GPRMC,172930.000,A,3255.0225,N,11714.0284,W,59.84,130.72,270310,,,A*4A
$GPRMC,172933.000,A,3254.9909,N,11713.9843,W,56.76,130.67,270310,,,A*4D
$GPRMC,172936.000,A,3254.9607,N,11713.9420,W,56.63,130.25,270310,,,A*42
$GPRMC,172939.000,A,3254.9283,N,11713.8997,W,59.40,135.20,270310,,,A*4B
$GPRMC,172942.000,A,3254.8919,N,11713.8611,W,58.43,140.27,270310,,,A*48
$GPRMC,172945.000,A,3254.8530,N,11713.8269,W,58.76,145.88,270310,,,A*45
$GPRMC,172948.000,A,3254.8103,N,11713.7968,W,60.70,151.76,270310,,,A*40
$GPRMC,172951.000,A,3254.7639,N,11713.7679,W,63.69,152.20,270310,,,A*4D
$GPRMC,172954.000,A,3254.7158,N,11713.7380,W,64.40,152.35,270310,,,A*43
$GPRMC,172957.000,A,3254.6697,N,11713.7098,W,59.80,151.66,270310,,,A*48
$GPRMC,173000.000,A,3254.6253,N,11713.6821,W,61.01,151.85,270310,,,A*4A
$GPRMC,173003.000,A,3254.5793,N,11713.6534,W,62.74,151.69,270310,,,A*49
$GPRMC,173006.000,A,3254.5331,N,11713.6244,W,62.61,152.44,270310,,,A*48
$GPRMC,173009.000,A,3254.4865,N,11713.5958,W,63.06,152.15,270310,,,A*4D
$GPRMC,173012.000,A,3254.4396,N,11713.5673,W,62.96,153.10,270310,,,A*4A
$GPRMC,173015.000,A,3254.3926,N,11713.5404,W,61.80,154.21,270310,,,A*48
$GPRMC,173018.000,A,3254.3466,N,11713.5134,W,61.74,152.73,270310,,,A*40
$GPRMC,173021.000,A,3254.3010,N,11713.4839,W,62.63,149.43,270310,,,A*46
$GPRMC,173024.000,A,3254.2575,N,11713.4506,W,61.07,145.37,270310,,,A*4B
$GPRMC,173027.000,A,3254.2169,N,11713.4159,W,60.10,145.34,270310,,,A*4B
$GPRMC,173030.000,A,3254.1797,N,11713.3797,W,58.25,140.19,270310,,,A*4D
$GPRMC,173033.000,A,3254.1425,N,11713.3417,W,59.31,140.41,270310,,,A*46
$GPRMC,173036.000,A,3254.1050,N,11713.3043,W,58.35,140.37,270310,,,A*44
$GPRMC,173039.000,A,3254.0676,N,11713.2671,W,58.29,140.67,270310,,,A*46
$GPRMC,173042.000,A,3254.0303,N,11713.2306,W,57.67,140.38,270310,,,A*47
$GPRMC,173045.000,A,3253.9930,N,11713.1943,W,57.98,140.93,270310,,,A*4D
$GPRMC,173048.000,A,3253.9555,N,11713.1577,W,58.38,139.96,270310,,,A*4A
$GPRMC,173051.000,A,3253.9177,N,11713.1203,W,59.68,140.48,270310,,,A*4B
$GPRMC,173054.000,A,3253.8779,N,11713.0830,W,61.59,142.13,270310,,,A*49
$GPRMC,173057.000,A,3253.8374,N,11713.0459,W,60.83,142.35,270310,,,A*42
$GPRMC,173100.000,A,3253.7971,N,11713.0094,W,60.34,142.23,270310,,,A*4F
$GPRMC,173103.000,A,3253.7585,N,11712.9721,W,59.24,138.65,270310,,,A*4E
$GPRMC,173106.000,A,3253.7224,N,11712.9320,W,59.23,135.24,270310,,,A*4D
$GPRMC,173109.000,A,3253.6886,N,11712.8896,W,58.95,132.18,270310,,,A*42
$GPRMC,173112.000,A,3253.6570,N,11712.8448,W,59.17,128.64,270310,,,A*48
$GPRMC,173115.000,A,3253.6275,N,11712.7977,W,59.61,125.17,270310,,,A*4B
$GPRMC,173118.000,A,3253.6001,N,11712.7478,W,60.81,121.79,270310,,,A*4D
$GPRMC,173121.000,A,3253.5748,N,11712.6953,W,61.48,118.47,270310,,,A*48
$GPRMC,173124.000,A,3253.5525,N,11712.6399,W,61.69,114.74,270310,,,A*47
$GPRMC,173127.000,A,3253.5312,N,11712.5835,W,61.97,114.83,270310,,,A*41
$GPRMC,173130.000,A,3253.5097,N,11712.5273,W,61.88,115.34,270310,,,A*42
$GPRMC,173133.000,A,3253.4859,N,11712.4739,W,60.37,120.99,270310,,,A*44
$GPRMC,173136.000,A,3253.4585,N,11712.4244,W,59.16,125.66,270310,,,A*4E
$GPRMC,173139.000,A,3253.4283,N,11712.3792,W,57.71,130.58,270310,,,A*4F
$GPRMC,173142.000,A,3253.3955,N,11712.3378,W,56.53,135.17,270310,,,A*4B
$GPRMC,173145.000,A,3253.3603,N,11712.3005,W,55.74,140.26,270310,,,A*4F
$GPRMC,173148.000,A,3253.3235,N,11712.2669,W,55.05,144.65,270310,,,A*4B
$GPRMC,173151.000,A,3253.2845,N,11712.2372,W,55.71,149.01,270310,,,A*4C
$GPRMC,173154.000,A,3253.2429,N,11712.2112,W,56.52,154.01,270310,,,A*45
$GPRMC,173157.000,A,3253.1990,N,11712.1892,W,56.87,158.30,270310,,,A*4E
$GPRMC,173200.000,A,3253.1547,N,11712.1720,W,54.42,163.41,270310,,,A*4A
$GPRMC,173203.000,A,3253.1112,N,11712.1589,W,54.12,165.55,270310,,,A*4A
$GPRMC,173206.000,A,3253.0667,N,11712.1463,W,55.39,165.84,270310,,,A*4A
$GPRMC,173209.000,A,3253.0210,N,11712.1329,W,57.07,165.18,270310,,,A*42
$GPRMC,173212.000,A,3252.9741,N,11712.1190,W,58.39,165.88,270310,,,A*4A
$GPRMC,173215.000,A,3252.9261,N,11712.1057,W,59.54,166.98,270310,,,A*48
$GPRMC,173218.000,A,3252.8771,N,11712.0921,W,60.66,166.21,270310,,,A*40
$GPRMC,173221.000,A,3252.8271,N,11712.0775,W,62.53,165.69,270310,,,A*4B
$GPRMC,173224.000,A,3252.7755,N,11712.0621,W,64.48,165.27,270310,,,A*44
$GPRMC,173227.000,A,3252.7224,N,11712.0463,W,66.44,165.82,270310,,,A*41
$GPRMC,173230.000,A,3252.6678,N,11712.0302,W,67.10,165.93,270310,,,A*4B
$GPRMC,173233.000,A,3252.6139,N,11712.0141,W,65.83,164.98,270310,,,A*4D
$GPRMC,173236.000,A,3252.5615,N,11711.9954,W,65.02,161.64,270310,,,A*4B
$GPRMC,173239.000,A,3252.5100,N,11711.9725,W,65.83,157.28,270310,,,A*4B
$GPRMC,173242.000,A,3252.4592,N,11711.9437,W,66.28,153.42,270310,,,A*43
$GPRMC,173245.000,A,3252.4103,N,11711.9124,W,65.85,149.99,270310,,,A*46
$GPRMC,173248.000,A,3252.3643,N,11711.8773,W,64.85,146.10,270310,,,A*45
$GPRMC,173251.000,A,3252.3208,N,11711.8400,W,64.27,142.63,270310,,,A*49
$GPRMC,173254.000,A,3252.2790,N,11711.8000,W,64.53,141.30,270310,,,A*4B
$GPRMC,173257.000,A,3252.2369,N,11711.7599,W,65.19,141.41,270310,,,A*49
$GPRMC,173300.000,A,3252.1944,N,11711.7193,W,65.37,140.90,270310,,,A*43
$GPRMC,173303.000,A,3252.1518,N,11711.6781,W,66.02,141.25,270310,,,A*4B
$GPRMC,173306.000,A,3252.1084,N,11711.6372,W,67.01,141.51,270310,,,A*47
$GPRMC,173309.000,A,3252.0645,N,11711.5956,W,67.05,141.07,270310,,,A*4A
$GPRMC,173312.000,A,3252.0210,N,11711.5545,W,65.66,141.15,270310,,,A*4E
$GPRMC,173315.000,A,3251.9787,N,11711.5144,W,64.37,141.24,270310,,,A*4A
$GPRMC,173318.000,A,3251.9370,N,11711.4751,W,63.44,141.16,270310,,,A*4A
$GPRMC,173321.000,A,3251.8959,N,11711.4362,W,62.62,141.31,270310,,,A*44
$GPRMC,173324.000,A,3251.8555,N,11711.3979,W,61.69,141.11,270310,,,A*4C
$GPRMC,173327.000,A,3251.8158,N,11711.3601,W,60.56,141.08,270310,,,A*43
$GPRMC,173330.000,A,3251.7763,N,11711.3224,W,61.20,141.04,270310,,,A*4B
$GPRMC,173333.000,A,3251.7359,N,11711.2841,W,62.42,141.24,270310,,,A*48
$GPRMC,173336.000,A,3251.6949,N,11711.2450,W,62.93,141.13,270310,,,A*43
$GPRMC,173339.000,A,3251.6543,N,11711.2068,W,61.81,142.31,270310,,,A*46
$GPRMC,173342.000,A,3251.6129,N,11711.1712,W,60.98,146.16,270310,,,A*43
$GPRMC,173345.000,A,3251.5700,N,11711.1389,W,59.92,149.62,270310,,,A*40
$GPRMC,173348.000,A,3251.5270,N,11711.1112,W,57.45,152.63,270310,,,A*40
$GPRMC,173351.000,A,3251.4846,N,11711.0854,W,57.15,152.41,270310,,,A*49
$GPRMC,173354.000,A,3251.4412,N,11711.0589,W,58.81,152.91,270310,,,A*43
$GPRMC,173357.000,A,3251.3973,N,11711.0320,W,59.29,152.61,270310,,,A*44
$GPRMC,173400.000,A,3251.3536,N,11711.0053,W,57.96,152.29,270310,,,A*4D
$GPRMC,173403.000,A,3251.3109,N,11710.9792,W,57.81,152.58,270310,,,A*44
$GPRMC,173406.000,A,3251.2675,N,11710.9530,W,59.47,152.45,270310,,,A*4E
$GPRMC,173409.000,A,3251.2218,N,11710.9255,W,63.75,152.90,270310,,,A*4A
$GPRMC,173412.000,A,3251.1733,N,11710.8964,W,65.96,153.02,270310,,,A*46
$GPRMC,173415.000,A,3251.1239,N,11710.8667,W,66.43,153.31,270310,,,A*49
$GPRMC,173418.000,A,3251.0739,N,11710.8381,W,66.13,154.42,270310,,,A*4B
$GPRMC,173421.000,A,3251.0256,N,11710.8096,W,63.98,152.49,270310,,,A*43
$GPRMC,173424.000,A,3250.9793,N,11710.7809,W,60.00,152.53,270310,,,A*4A
$GPRMC,173427.000,A,3250.9362,N,11710.7542,W,56.55,152.37,270310,,,A*46
$GPRMC,173430.000,A,3250.8955,N,11710.7295,W,53.25,152.67,270310,,,A*45
$GPRMC,173433.000,A,3250.8568,N,11710.7060,W,51.38,152.58,270310,,,A*4E
$GPRMC,173436.000,A,3250.8198,N,11710.6835,W,48.35,152.99,270310,,,A*41
$GPRMC,173439.000,A,3250.7840,N,11710.6619,W,48.34,152.60,270310,,,A*4A
$GPRMC,173442.000,A,3250.7488,N,11710.6401,W,47.02,152.28,270310,,,A*43
$GPRMC,173445.000,A,3250.7148,N,11710.6191,W,45.38,152.65,270310,,,A*43
$GPRMC,173448.000,A,3250.6813,N,11710.5986,W,45.43,152.39,270310,,,A*40
$GPRMC,173451.000,A,3250.6474,N,11710.5777,W,45.11,152.55,270310,,,A*48
$GPRMC,173454.000,A,3250.6142,N,11710.5575,W,44.17,152.90,270310,,,A*43
$GPRMC,173457.000,A,3250.5812,N,11710.5371,W,45.00,152.29,270310,,,A*48
$GPRMC,173500.000,A,3250.5476,N,11710.5166,W,44.16,153.02,270310,,,A*4F
$GPRMC,173503.000,A,3250.5151,N,11710.4965,W,43.76,152.30,270310,,,A*47
$GPRMC,173506.000,A,3250.4826,N,11710.4767,W,43.27,152.74,270310,,,A*42
$GPRMC,173509.000,A,3250.4510,N,11710.4574,W,41.81,152.71,270310,,,A*4E
$GPRMC,173512.000,A,3250.4193,N,11710.4382,W,43.77,153.30,270310,,,A*4B
$GPRMC,173515.000,A,3250.3849,N,11710.4192,W,46.55,155.57,270310,,,A*44
$GPRMC,173518.000,A,3250.3486,N,11710.3977,W,49.79,152.19,270310,,,A*4E
$GPRMC,173521.000,A,3250.3108,N,11710.3743,W,51.13,152.74,270310,,,A*40
$GPRMC,173524.000,A,3250.2733,N,11710.3518,W,49.39,153.26,270310,,,A*41
$GPRMC,173527.000,A,3250.2371,N,11710.3327,W,45.40,156.92,270310,,,A*42
$GPRMC,173530.000,A,3250.2044,N,11710.3158,W,39.90,154.77,270310,,,A*44
$GPRMC,173533.000,A,3250.1757,N,11710.3007,W,37.08,157.79,270310,,,A*48
$GPRMC,173536.000,A,3250.1474,N,11710.2873,W,36.48,157.60,270310,,,A*48
$GPRMC,173539.000,A,3250.1207,N,11710.2765,W,33.91,166.67,270310,,,A*49
$GPRMC,173542.000,A,3250.0944,N,11710.2765,W,32.24,187.03,270310,,,A*4A
$GPRMC,173545.000,A,3250.0706,N,11710.2862,W,29.06,205.77,270310,,,A*4D
$GPRMC,173548.000,A,3250.0519,N,11710.3022,W,26.34,220.51,270310,,,A*4C
$GPRMC,173551.000,A,3250.0396,N,11710.3202,W,19.92,236.10,270310,,,A*47
$GPRMC,173554.000,A,3250.0384,N,11710.3380,W,18.89,278.50,270310,,,A*4F
$GPRMC,173557.000,A,3250.0434,N,11710.3607,W,26.86,283.32,270310,,,A*48
$GPRMC,173600.000,A,3250.0491,N,11710.3906,W,32.34,279.70,270310,,,A*47
$GPRMC,173603.000,A,3250.0548,N,11710.4244,W,35.32,278.87,270310,,,A*43
$GPRMC,173606.000,A,3250.0597,N,11710.4593,W,34.56,277.82,270310,,,A*40
$GPRMC,173609.000,A,3250.0619,N,11710.4907,W,28.64,269.98,270310,,,A*43
$GPRMC,173612.000,A,3250.0614,N,11710.5154,W,20.68,267.54,270310,,,A*41
$GPRMC,173615.000,A,3250.0612,N,11710.5280,W,6.95,265.98,270310,,,A*7E
$GPRMC,173724.000,A,3250.0600,N,11710.5354,W,9.25,236.55,270310,,,A*75
$GPRMC,173727.000,A,3250.0495,N,11710.5401,W,15.99,182.96,270310,,,A*46
$GPRMC,173730.000,A,3250.0338,N,11710.5407,W,18.30,181.92,270310,,,A*4F
$GPRMC,173733.000,A,3250.0165,N,11710.5412,W,21.76,181.15,270310,,,A*45
$GPRMC,173736.000,A,3249.9981,N,11710.5418,W,19.98,182.15,270310,,,A*41
$GPRMC,173739.000,A,3249.9849,N,11710.5427,W,13.49,186.02,270310,,,A*43
$GPRMC,173742.000,A,3249.9827,N,11710.5411,W,5.58,140.53,270310,,,A*7B
$GPRMC,173745.000,A,3249.9822,N,11710.5347,W,6.71,88.15,270310,,,A*42
$GPRMC,173748.000,A,3249.9833,N,11710.5260,W,9.23,83.73,270310,,,A*48
$GPRMC,173751.000,A,3249.9826,N,11710.5164,W,7.93,105.84,270310,,,A*71
$GPRMC,174021.000,A,3249.9860,N,11710.5093,W,5.92,287.92,270310,,,A*70
$GPRMC,174024.000,A,3249.9858,N,11710.5165,W,8.49,265.19,270310,,,A*72
$GPRMC,174027.000,A,3249.9859,N,11710.5261,W,9.04,271.20,270310,,,A*70
$GPRMC,174042.000,A,3249.9815,N,11710.5414,W,10.35,189.73,270310,,,A*47
$GPRMC,174045.000,A,3249.9688,N,11710.5420,W,17.53,179.14,270310,,,A*44
$GPRMC,174048.000,A,3249.9506,N,11710.5420,W,23.78,181.28,270310,,,A*4A
$GPRMC,174051.000,A,3249.9291,N,11710.5424,W,25.12,181.35,270310,,,A*49
$GPRMC,174054.000,A,3249.9086,N,11710.5430,W,22.80,181.79,270310,,,A*49
$GPRMC,174057.000,A,3249.8942,N,11710.5435,W,12.82,183.29,270310,,,A*49
$GPRMC,174100.000,A,3249.8855,N,11710.5439,W,11.27,181.81,270310,,,A*4D
$GPRMC,174103.000,A,3249.8723,N,11710.5437,W,19.51,179.18,270310,,,A*40
$GPRMC,174106.000,A,3249.8543,N,11710.5439,W,21.41,181.46,270310,,,A*49
$GPRMC,174109.000,A,3249.8360,N,11710.5445,W,22.55,181.71,270310,,,A*48
$GPRMC,174112.000,A,3249.8173,N,11710.5451,W,22.06,181.07,270310,,,A*40
$GPRMC,174115.000,A,3249.7983,N,11710.5454,W,23.37,180.55,270310,,,A*4F
$GPRMC,174118.000,A,3249.7779,N,11710.5454,W,24.51,180.48,270310,,,A*42
$GPRMC,174121.000,A,3249.7565,N,11710.5465,W,25.50,180.08,270310,,,A*41
$GPRMC,174124.000,A,3249.7347,N,11710.5469,W,25.45,179.48,270310,,,A*48
$GPRMC,174127.000,A,3249.7139,N,11710.5470,W,24.23,180.26,270310,,,A*47
$GPRMC,174130.000,A,3249.6938,N,11710.5479,W,24.25,181.41,270310,,,A*46
$GPRMC,174133.000,A,3249.6728,N,11710.5494,W,25.20,185.22,270310,,,A*4C
$GPRMC,174136.000,A,3249.6527,N,11710.5511,W,23.62,181.38,270310,,,A*47
$GPRMC,174139.000,A,3249.6356,N,11710.5497,W,19.83,177.34,270310,,,A*44
$GPRMC,174142.000,A,3249.6234,N,11710.5511,W,13.87,185.87,270310,,,A*49
$GPRMC,174154.000,A,3249.6270,N,11710.5483,W,4.59,191.53,270310,,,A*7D
$GPRMC,174200.000,A,3249.6204,N,11710.5460,W,6.72,102.24,270310,,,A*70
$GPRMC,174203.000,A,3249.6188,N,11710.5304,W,16.58,99.70,270310,,,A*7A
$GPRMC,174206.000,A,3249.6137,N,11710.5127,W,19.50,112.15,270310,,,A*4E
$GPRMC,174209.000,A,3249.6057,N,11710.4931,W,22.47,117.97,270310,,,A*49
$GPRMC,174212.000,A,3249.5964,N,11710.4723,W,23.92,117.12,270310,,,A*40
$GPRMC,174215.000,A,3249.5866,N,11710.4497,W,25.64,117.43,270310,,,A*43
$GPRMC,174218.000,A,3249.5768,N,11710.4279,W,22.77,117.56,270310,,,A*48
$GPRMC,174221.000,A,3249.5682,N,11710.4090,W,18.94,118.85,270310,,,A*47
$GPRMC,174224.000,A,3249.5625,N,11710.3970,W,10.53,120.17,270310,,,A*4C
$GPRMC,174230.000,A,3249.5577,N,11710.3905,W,6.41,153.47,270310,,,A*7A
$GPRMC,174233.000,A,3249.5496,N,11710.3931,W,13.79,204.29,270310,,,A*46
$GPRMC,174236.000,A,3249.5362,N,11710.4013,W,19.18,207.13,270310,,,A*46
$GPRMC,174239.000,A,3249.5200,N,11710.4115,W,23.31,206.95,270310,,,A*46
$GPRMC,174242.000,A,3249.5010,N,11710.4230,W,25.66,207.00,270310,,,A*44
$GPRMC,174245.000,A,3249.4825,N,11710.4347,W,23.26,207.20,270310,,,A*4D
$GPRMC,174248.000,A,3249.4655,N,11710.4455,W,21.46,208.34,270310,,,A*43
$GPRMC,174251.000,A,3249.4514,N,11710.4546,W,17.86,207.76,270310,,,A*4E
$GPRMC,174254.000,A,3249.4372,N,11710.4638,W,20.33,207.26,270310,,,A*48
$GPRMC,174257.000,A,3249.4204,N,11710.4740,W,24.13,207.01,270310,,,A*46
$GPRMC,174300.000,A,3249.4017,N,11710.4854,W,24.99,206.59,270310,,,A*41
$GPRMC,174303.000,A,3249.3833,N,11710.4966,W,23.89,207.61,270310,,,A*47
$GPRMC,174306.000,A,3249.3691,N,11710.5052,W,14.27,204.53,270310,,,A*49
$GPRMC,174312.000,A,3249.3636,N,11710.5086,W,9.46,205.32,270310,,,A*75
$GPRMC,174315.000,A,3249.3530,N,11710.5147,W,17.39,207.05,270310,,,A*4A
$GPRMC,174318.000,A,3249.3381,N,11710.5238,W,21.61,207.02,270310,,,A*4F
$GPRMC,174321.000,A,3249.3214,N,11710.5338,W,21.90,206.64,270310,,,A*46
$GPRMC,174324.000,A,3249.3075,N,11710.5423,W,14.91,207.72,270310,,,A*4A
$GPRMC,174333.000,A,3249.2945,N,11710.5523,W,12.45,208.02,270310,,,A*41
$GPRMC,174336.000,A,3249.2820,N,11710.5597,W,19.50,206.14,270310,,,A*4F
$GPRMC,174339.000,A,3249.2662,N,11710.5674,W,20.40,199.54,270310,,,A*4C
$GPRMC,174342.000,A,3249.2499,N,11710.5725,W,19.57,190.15,270310,,,A*43
$GPRMC,174345.000,A,3249.2360,N,11710.5739,W,13.10,183.14,270310,,,A*42
$GPRMC,174357.000,A,3249.2293,N,11710.5733,W,8.72,182.59,270310,,,A*70
$GPRMC,174400.000,A,3249.2175,N,11710.5740,W,15.22,182.10,270310,,,A*4E
$GPRMC,174403.000,A,3249.2039,N,11710.5737,W,16.16,177.96,270310,,,A*44
$GPRMC,174406.000,A,3249.1901,N,11710.5742,W,16.52,187.21,270310,,,A*41
$GPRMC,174409.000,A,3249.1762,N,11710.5793,W,18.22,204.12,270310,,,A*48
$GPRMC,174412.000,A,3249.1608,N,11710.5892,W,23.64,211.82,270310,,,A*46
$GPRMC,174415.000,A,3249.1424,N,11710.6033,W,27.10,213.70,270310,,,A*45
$GPRMC,174418.000,A,3249.1226,N,11710.6190,W,29.08,214.02,270310,,,A*41
$GPRMC,174421.000,A,3249.1030,N,11710.6370,W,28.22,220.47,270310,,,A*4D
$GPRMC,174424.000,A,3249.0884,N,11710.6534,W,19.81,222.69,270310,,,A*4D
$GPRMC,174436.000,A,3249.0858,N,11710.6596,W,5.79,237.24,270310,,,A*70
$GPRMC,174439.000,A,3249.0800,N,11710.6693,W,16.22,237.33,270310,,,A*4E
$GPRMC,174442.000,A,3249.0715,N,11710.6873,W,22.94,244.73,270310,,,A*43
$GPRMC,174445.000,A,3249.0629,N,11710.7117,W,28.25,252.67,270310,,,A*42
$GPRMC,174448.000,A,3249.0576,N,11710.7406,W,30.02,260.88,270310,,,A*4F
$GPRMC,174451.000,A,3249.0546,N,11710.7696,W,28.97,262.81,270310,,,A*41
$GPRMC,174454.000,A,3249.0512,N,11710.7978,W,27.77,260.08,270310,,,A*48
$GPRMC,174457.000,A,3249.0467,N,11710.8212,W,20.12,252.36,270310,,,A*48
$GPRMC,174500.000,A,3249.0419,N,11710.8356,W,12.12,244.32,270310,,,A*41
$GPRMC,174600.000,A,3249.0407,N,11710.8419,W,4.91,257.67,270310,,,A*7F
$GPRMC,174603.000,A,3249.0381,N,11710.8478,W,7.71,237.65,270310,,,A*7B
$GPRMC,174606.000,A,3249.0295,N,11710.8541,W,12.49,188.67,270310,,,A*4B
$GPRMC,174609.000,A,3249.0161,N,11710.8489,W,19.86,156.07,270310,,,A*44
$GPRMC,174612.000,A,3248.9958,N,11710.8383,W,29.11,155.45,270310,,,A*41
$GPRMC,174615.000,A,3248.9690,N,11710.8247,W,35.44,156.69,270310,,,A*44
$GPRMC,174618.000,A,3248.9397,N,11710.8098,W,39.07,157.06,270310,,,A*48
$GPRMC,174621.000,A,3248.9082,N,11710.7936,W,40.25,156.46,270310,,,A*4C
$GPRMC,174624.000,A,3248.8770,N,11710.7774,W,40.27,156.69,270310,,,A*45
$GPRMC,174627.000,A,3248.8458,N,11710.7612,W,40.95,156.93,270310,,,A*42
$GPRMC,174630.000,A,3248.8134,N,11710.7448,W,42.52,157.06,270310,,,A*42
$GPRMC,174633.000,A,3248.7800,N,11710.7275,W,43.66,156.36,270310,,,A*4C
