NMEA Sentence Code,UTC Time,Status,Latitude,Latitude Direction,Longitude,Longitude Direction,Speed (knots),Track Angle (degrees true),Date,MagneticVariation,Magnetic Variation Direction,[FAA Mode]-Optional,Checksum
$GPRMC,170855.000,A,3300.3310,N,11649.3327,W,5.83,247.70,181210,,,A*7E
$GPRMC,170858.000,A,3300.3291,N,11649.3480,W,15.07,266.10,181210,,,A*49
$GPRMC,170901.000,A,3300.3265,N,11649.3762,W,29.16,263.10,181210,,,A*4A
$GPRMC,170904.000,A,3300.3212,N,11649.4130,W,34.02,258.30,181210,,,A*4A
$GPRMC,170907.000,A,3300.3123,N,11649.4466,W,36.45,254.80,181210,,,A*48
$GPRMC,170910.000,A,3300.3026,N,11649.4833,W,38.88,252.40,181210,,,A*43
$GPRMC,170914.000,A,3300.2825,N,11649.5343,W,42.77,243.80,181210,,,A*41
$GPRMC,170917.000,A,3300.2682,N,11649.5713,W,42.28,242.20,181210,,,A*41
$GPRMC,170920.000,A,3300.2485,N,11649.6060,W,42.77,237.20,181210,,,A*48
$GPRMC,170923.000,A,3300.2299,N,11649.6412,W,42.77,238.30,181210,,,A*4F
$GPRMC,170926.000,A,3300.2137,N,11649.6805,W,43.74,239.90,181210,,,A*4E
$GPRMC,170929.000,A,3300.1917,N,11649.7149,W,43.25,235.90,181210,,,A*40
$GPRMC,170932.000,A,3300.1729,N,11649.7524,W,44.22,238.10,181210,,,A*43
$GPRMC,170935.000,A,3300.1541,N,11649.7901,W,44.71,237.40,181210,,,A*4F
$GPRMC,170938.000,A,3300.1342,N,11649.8277,W,44.22,238.00,181210,,,A*4F
$GPRMC,170941.000,A,3300.1170,N,11649.8613,W,41.31,240.40,181210,,,A*48
$GPRMC,170944.000,A,3300.1013,N,11649.9002,W,43.25,246.70,181210,,,A*4C
$GPRMC,170947.000,A,3300.0936,N,11649.9435,W,42.28,259.00,181210,,,A*45
$GPRMC,170950.000,A,3300.0884,N,11649.9843,W,42.77,261.20,181210,,,A*45
$GPRMC,170953.000,A,3300.0833,N,11650.0254,W,42.28,258.80,181210,,,A*4D
$GPRMC,170956.000,A,3300.0696,N,11650.0631,W,41.79,243.80,181210,,,A*43
$GPRMC,170959.000,A,3300.0468,N,11650.0965,W,42.77,228.30,181210,,,A*4A
$GPRMC,171002.000,A,3300.0212,N,11650.1253,W,42.28,224.40,181210,,,A*49
$GPRMC,171005.000,A,3259.9984,N,11650.1556,W,40.34,227.30,181210,,,A*47
$GPRMC,171008.000,A,3259.9765,N,11650.1851,W,38.39,233.60,181210,,,A*43
$GPRMC,171011.000,A,3259.9643,N,11650.2175,W,35.96,243.80,181210,,,A*43
$GPRMC,171014.000,A,3259.9453,N,11650.2493,W,38.88,232.10,181210,,,A*45
$GPRMC,171017.000,A,3259.9240,N,11650.2786,W,39.36,231.60,181210,,,A*45
$GPRMC,171020.000,A,3259.9064,N,11650.3132,W,40.34,243.40,181210,,,A*46
$GPRMC,171023.000,A,3259.8983,N,11650.3532,W,39.85,258.60,181210,,,A*4C
$GPRMC,171026.000,A,3259.8934,N,11650.3935,W,40.82,261.90,181210,,,A*42
$GPRMC,171029.000,A,3259.8898,N,11650.4357,W,41.79,263.40,181210,,,A*49
$GPRMC,171032.000,A,3259.8863,N,11650.4783,W,42.28,264.00,181210,,,A*4E
$GPRMC,171035.000,A,3259.8831,N,11650.5179,W,41.31,264.20,181210,,,A*45
$GPRMC,171038.000,A,3259.8789,N,11650.5583,W,41.79,263.80,181210,,,A*44
$GPRMC,171041.000,A,3259.8761,N,11650.6009,W,42.28,265.70,181210,,,A*46
$GPRMC,171044.000,A,3259.8751,N,11650.6437,W,41.31,271.00,181210,,,A*40
$GPRMC,171047.000,A,3259.8799,N,11650.6834,W,40.34,280.00,181210,,,A*42
$GPRMC,171051.000,A,3259.8894,N,11650.7348,W,40.34,283.70,181210,,,A*42
$GPRMC,171054.000,A,3259.8993,N,11650.7756,W,41.79,281.70,181210,,,A*40
$GPRMC,171057.000,A,3259.9010,N,11650.8161,W,41.31,270.40,181210,,,A*4C
$GPRMC,171100.000,A,3259.8968,N,11650.8556,W,40.82,263.80,181210,,,A*4F
$GPRMC,171103.000,A,3259.8950,N,11650.8862,W,40.82,267.80,181210,,,A*49
$GPRMC,171106.000,A,3259.8981,N,11650.9271,W,40.35,273.00,181210,,,A*48
$GPRMC,171109.000,A,3259.8971,N,11650.9654,W,38.88,264.80,181210,,,A*4C
$GPRMC,171113.000,A,3259.8798,N,11651.0200,W,37.91,245.30,181210,,,A*4C
$GPRMC,171116.000,A,3259.8654,N,11651.0582,W,40.82,250.00,181210,,,A*40
$GPRMC,171119.000,A,3259.8595,N,11651.0942,W,38.39,263.90,181210,,,A*47
$GPRMC,171122.000,A,3259.8613,N,11651.1342,W,41.31,275.20,181210,,,A*43
$GPRMC,171125.000,A,3259.8669,N,11651.1780,W,43.74,278.00,181210,,,A*4F
$GPRMC,171128.000,A,3259.8716,N,11651.2203,W,41.31,276.20,181210,,,A*49
$GPRMC,171131.000,A,3259.8719,N,11651.2617,W,41.31,268.10,181210,,,A*43
$GPRMC,171134.000,A,3259.8665,N,11651.3028,W,41.79,262.70,181210,,,A*47
$GPRMC,171137.000,A,3259.8674,N,11651.3411,W,40.34,274.50,181210,,,A*47
$GPRMC,171140.000,A,3259.8777,N,11651.3800,W,39.85,289.90,181210,,,A*43
$GPRMC,171143.000,A,3259.8894,N,11651.4159,W,37.91,290.10,181210,,,A*4B
$GPRMC,171146.000,A,3259.8996,N,11651.4548,W,39.36,282.40,181210,,,A*4C
$GPRMC,171149.000,A,3259.9056,N,11651.4933,W,40.82,279.60,181210,,,A*40
$GPRMC,171153.000,A,3259.9113,N,11651.5489,W,42.28,278.50,181210,,,A*46
$GPRMC,171156.000,A,3259.9212,N,11651.5902,W,42.28,286.30,181210,,,A*48
$GPRMC,171159.000,A,3259.9328,N,11651.6296,W,42.28,290.70,181210,,,A*49
$GPRMC,171202.000,A,3259.9471,N,11651.6677,W,41.79,293.30,181210,,,A*44
$GPRMC,171205.000,A,3259.9588,N,11651.7063,W,39.86,292.30,181210,,,A*48
$GPRMC,171208.000,A,3259.9742,N,11651.7410,W,37.91,303.70,181210,,,A*44
$GPRMC,171211.000,A,3259.9953,N,11651.7662,W,34.52,319.20,181210,,,A*47
$GPRMC,171214.000,A,3300.0255,N,11651.7784,W,36.93,339.00,181210,,,A*4D
$GPRMC,171217.000,A,3300.0543,N,11651.7902,W,37.42,338.70,181210,,,A*45
$GPRMC,171220.000,A,3300.0841,N,11651.8033,W,38.88,339.00,181210,,,A*45
$GPRMC,171223.000,A,3300.1171,N,11651.8170,W,40.35,340.00,181210,,,A*4C
$GPRMC,171226.000,A,3300.1479,N,11651.8317,W,39.85,336.60,181210,,,A*45
$GPRMC,171229.000,A,3300.1764,N,11651.8517,W,40.34,328.80,181210,,,A*46
$GPRMC,171232.000,A,3300.1985,N,11651.8796,W,39.85,315.70,181210,,,A*43
$GPRMC,171235.000,A,3300.2250,N,11651.9066,W,39.86,322.70,181210,,,A*4A
$GPRMC,171238.000,A,3300.2526,N,11651.9232,W,37.43,335.80,181210,,,A*4C
$GPRMC,171241.000,A,3300.2838,N,11651.9344,W,39.86,344.20,181210,,,A*4B
$GPRMC,171244.000,A,3300.3187,N,11651.9428,W,41.31,350.70,181210,,,A*4C
$GPRMC,171247.000,A,3300.3546,N,11651.9417,W,41.31,03.50,181210,,,A*7D
$GPRMC,171250.000,A,3300.3921,N,11651.9343,W,43.74,08.50,181210,,,A*78
$GPRMC,171253.000,A,3300.4296,N,11651.9310,W,43.25,00.00,181210,,,A*74
$GPRMC,171256.000,A,3300.4638,N,11651.9375,W,42.28,347.00,181210,,,A*4E
$GPRMC,171259.000,A,3300.4966,N,11651.9518,W,43.74,337.50,181210,,,A*42
$GPRMC,171302.000,A,3300.5298,N,11651.9722,W,44.71,334.40,181210,,,A*4D
$GPRMC,171305.000,A,3300.5643,N,11651.9870,W,43.74,341.30,181210,,,A*47
$GPRMC,171307.000,A,3300.5880,N,11651.9932,W,42.77,348.60,181210,,,A*4D
$GPRMC,171311.000,A,3300.6366,N,11651.9947,W,42.28,359.00,181210,,,A*44
$GPRMC,171314.000,A,3300.6735,N,11651.9932,W,43.74,00.60,181210,,,A*70
$GPRMC,171317.000,A,3300.7111,N,11651.9935,W,44.22,359.80,181210,,,A*40
$GPRMC,171320.000,A,3300.7462,N,11651.9952,W,42.77,358.80,181210,,,A*43
$GPRMC,171323.000,A,3300.7840,N,11651.9933,W,42.77,00.40,181210,,,A*79
$GPRMC,171327.000,A,3300.8323,N,11651.9930,W,42.28,358.80,181210,,,A*47
$GPRMC,171330.000,A,3300.8685,N,11651.9912,W,43.74,01.10,181210,,,A*76
$GPRMC,171333.000,A,3300.9044,N,11651.9896,W,42.77,01.30,181210,,,A*72
$GPRMC,171336.000,A,3300.9408,N,11651.9909,W,43.25,359.50,181210,,,A*42
$GPRMC,171339.000,A,3300.9747,N,11651.9901,W,41.79,00.80,181210,,,A*74
$GPRMC,171342.000,A,3301.0101,N,11651.9899,W,41.79,00.50,181210,,,A*79
$GPRMC,171345.000,A,3301.0439,N,11651.9897,W,41.31,00.20,181210,,,A*75
$GPRMC,171347.000,A,3301.0680,N,11651.9882,W,42.77,00.70,181210,,,A*77
$GPRMC,171351.000,A,3301.1126,N,11651.9908,W,40.82,358.60,181210,,,A*4E
$GPRMC,171353.000,A,3301.1354,N,11651.9914,W,41.31,359.20,181210,,,A*4A
$GPRMC,171357.000,A,3301.1834,N,11651.9896,W,41.31,359.70,181210,,,A*4D
$GPRMC,171400.000,A,3301.2195,N,11651.9897,W,42.28,359.50,181210,,,A*41
$GPRMC,171403.000,A,3301.2521,N,11651.9894,W,40.34,00.10,181210,,,A*7E
$GPRMC,171406.000,A,3301.2861,N,11651.9893,W,39.85,359.50,181210,,,A*4A
$GPRMC,171409.000,A,3301.3186,N,11651.9896,W,39.85,00.00,181210,,,A*7B
$GPRMC,171412.000,A,3301.3516,N,11651.9910,W,40.34,358.90,181210,,,A*40
$GPRMC,171415.000,A,3301.3848,N,11651.9904,W,40.34,00.90,181210,,,A*7A
$GPRMC,171418.000,A,3301.4177,N,11651.9908,W,38.39,359.00,181210,,,A*4D
$GPRMC,171421.000,A,3301.4484,N,11651.9899,W,34.99,00.90,181210,,,A*77
$GPRMC,171424.000,A,3301.4779,N,11651.9897,W,32.56,00.00,181210,,,A*71
$GPRMC,171427.000,A,3301.5010,N,11651.9902,W,26.24,359.00,181210,,,A*49
$GPRMC,171430.000,A,3301.5162,N,11651.9914,W,17.98,359.50,181210,,,A*4C
$GPRMC,171433.000,A,3301.5277,N,11651.9904,W,17.01,03.90,181210,,,A*79
$GPRMC,171555.000,A,3301.5418,N,11651.9925,W,8.26,345.40,181210,,,A*73
$GPRMC,171558.000,A,3301.5690,N,11651.9913,W,24.79,358.00,181210,,,A*45
$GPRMC,171601.000,A,3301.5993,N,11651.9920,W,32.07,359.40,181210,,,A*4D
$GPRMC,171603.000,A,3301.6185,N,11651.9917,W,33.53,00.50,181210,,,A*79
$GPRMC,171607.000,A,3301.6607,N,11651.9891,W,36.93,01.40,181210,,,A*76
$GPRMC,171610.000,A,3301.6975,N,11651.9900,W,41.31,359.40,181210,,,A*45
$GPRMC,171612.000,A,3301.7213,N,11651.9886,W,41.79,01.50,181210,,,A*71
$GPRMC,171615.000,A,3301.7574,N,11651.9901,W,42.28,358.60,181210,,,A*45
$GPRMC,171619.000,A,3301.8053,N,11651.9883,W,43.25,00.50,181210,,,A*7C
$GPRMC,171622.000,A,3301.8417,N,11651.9886,W,44.22,359.20,181210,,,A*4D
$GPRMC,171625.000,A,3301.8785,N,11651.9888,W,44.22,00.30,181210,,,A*72
$GPRMC,171628.000,A,3301.9166,N,11651.9879,W,44.71,02.00,181210,,,A*7C
$GPRMC,171631.000,A,3301.9535,N,11651.9823,W,43.25,09.00,181210,,,A*74
$GPRMC,171634.000,A,3301.9867,N,11651.9713,W,40.34,17.90,181210,,,A*72
$GPRMC,171637.000,A,3302.0146,N,11651.9561,W,37.91,24.50,181210,,,A*75
$GPRMC,171641.000,A,3302.0489,N,11651.9339,W,33.05,27.70,181210,,,A*71
$GPRMC,171644.000,A,3302.0675,N,11651.9235,W,26.24,28.60,181210,,,A*71
$GPRMC,171647.000,A,3302.0848,N,11651.9108,W,23.33,28.30,181210,,,A*79
$GPRMC,171650.000,A,3302.1011,N,11651.9048,W,23.81,20.70,181210,,,A*7A
$GPRMC,171653.000,A,3302.1232,N,11651.8924,W,30.13,23.70,181210,,,A*72
$GPRMC,171656.000,A,3302.1499,N,11651.8809,W,34.02,14.80,181210,,,A*71
$GPRMC,171659.000,A,3302.1808,N,11651.8783,W,36.45,02.30,181210,,,A*7A
$GPRMC,171702.000,A,3302.2118,N,11651.8830,W,36.93,349.90,181210,,,A*44
$GPRMC,171705.000,A,3302.2399,N,11651.8951,W,35.96,337.30,181210,,,A*4B
$GPRMC,171708.000,A,3302.2671,N,11651.9135,W,37.42,330.00,181210,,,A*41
$GPRMC,171710.000,A,3302.2841,N,11651.9274,W,37.91,327.30,181210,,,A*48
$GPRMC,171714.000,A,3302.3183,N,11651.9556,W,38.88,326.30,181210,,,A*4B
$GPRMC,171717.000,A,3302.3454,N,11651.9782,W,39.85,326.40,181210,,,A*47
$GPRMC,171720.000,A,3302.3725,N,11652.0002,W,39.36,324.50,181210,,,A*48
$GPRMC,171723.000,A,3302.4007,N,11652.0226,W,39.86,327.00,181210,,,A*42
$GPRMC,171725.000,A,3302.4182,N,11652.0350,W,38.39,327.50,181210,,,A*48
$GPRMC,171729.000,A,3302.4530,N,11652.0619,W,34.99,326.30,181210,,,A*40
$GPRMC,171732.000,A,3302.4731,N,11652.0772,W,25.76,326.10,181210,,,A*46
$GPRMC,171735.000,A,3302.4865,N,11652.0872,W,17.98,328.50,181210,,,A*4B
$GPRMC,171738.000,A,3302.4955,N,11652.0920,W,12.15,337.40,181210,,,A*4D
$GPRMC,171741.000,A,3302.4978,N,11652.0956,W,8.26,326.70,181210,,,A*75
$GPRMC,171756.000,A,3302.5007,N,11652.0965,W,2.92,311.80,181210,,,A*7D
$GPRMC,171759.000,A,3302.5066,N,11652.1038,W,12.15,318.90,181210,,,A*43
$GPRMC,171802.000,A,3302.5162,N,11652.1141,W,17.01,319.00,181210,,,A*40
$GPRMC,171805.000,A,3302.5317,N,11652.1249,W,21.38,323.80,181210,,,A*42
$GPRMC,171808.000,A,3302.5512,N,11652.1391,W,26.73,325.30,181210,,,A*4D
$GPRMC,171810.000,A,3302.5634,N,11652.1506,W,27.70,323.40,181210,,,A*48
$GPRMC,171814.000,A,3302.5902,N,11652.1709,W,31.10,327.60,181210,,,A*4C
$GPRMC,171816.000,A,3302.6057,N,11652.1824,W,32.07,327.10,181210,,,A*46
$GPRMC,171820.000,A,3302.6371,N,11652.2073,W,33.05,327.90,181210,,,A*46
$GPRMC,171823.000,A,3302.6646,N,11652.2202,W,34.99,335.00,181210,,,A*48
$GPRMC,171826.000,A,3302.6919,N,11652.2355,W,35.96,335.30,181210,,,A*46
$GPRMC,171829.000,A,3302.7204,N,11652.2510,W,37.91,338.30,181210,,,A*40
$GPRMC,171832.000,A,3302.7514,N,11652.2607,W,37.42,346.50,181210,,,A*48
$GPRMC,171835.000,A,3302.7793,N,11652.2651,W,32.56,355.00,181210,,,A*46
$GPRMC,171838.000,A,3302.7937,N,11652.2668,W,20.41,356.30,181210,,,A*44
$GPRMC,171841.000,A,3302.8074,N,11652.2654,W,16.04,03.10,181210,,,A*71
$GPRMC,171843.000,A,3302.8147,N,11652.2658,W,13.61,357.90,181210,,,A*42
$GPRMC,171847.000,A,3302.8254,N,11652.2662,W,8.26,358.80,181210,,,A*79
$GPRMC,171859.000,A,3302.8302,N,11652.2644,W,2.92,03.40,181210,,,A*44
$GPRMC,171902.000,A,3302.8378,N,11652.2660,W,9.72,351.80,181210,,,A*7D
$GPRMC,171905.000,A,3302.8512,N,11652.2662,W,17.01,357.70,181210,,,A*40
$GPRMC,171908.000,A,3302.8692,N,11652.2660,W,21.87,359.90,181210,,,A*4F
$GPRMC,171911.000,A,3302.8906,N,11652.2671,W,24.30,357.00,181210,,,A*4B
$GPRMC,171914.000,A,3302.9145,N,11652.2688,W,28.19,356.30,181210,,,A*43
$GPRMC,171917.000,A,3302.9327,N,11652.2712,W,30.62,355.60,181210,,,A*47
$GPRMC,171920.000,A,3302.9748,N,11652.2736,W,35.96,356.70,181210,,,A*44
$GPRMC,171923.000,A,3303.0041,N,11652.2754,W,36.93,358.30,181210,,,A*49
$GPRMC,171926.000,A,3303.0414,N,11652.2766,W,40.82,357.60,181210,,,A*42
$GPRMC,171929.000,A,3303.0743,N,11652.2784,W,41.31,357.00,181210,,,A*4F
$GPRMC,171932.000,A,3303.1092,N,11652.2798,W,41.31,358.70,181210,,,A*4A
$GPRMC,171935.000,A,3303.1422,N,11652.2791,W,40.82,359.50,181210,,,A*41
$GPRMC,171938.000,A,3303.1773,N,11652.2797,W,42.28,359.30,181210,,,A*49
$GPRMC,171941.000,A,3303.2125,N,11652.2810,W,41.79,357.50,181210,,,A*4E
$GPRMC,171944.000,A,3303.2496,N,11652.2809,W,43.74,358.80,181210,,,A*43
$GPRMC,171947.000,A,3303.2870,N,11652.2828,W,43.74,358.40,181210,,,A*4B
$GPRMC,171950.000,A,3303.3243,N,11652.2870,W,44.71,357.90,181210,,,A*4B
$GPRMC,171953.000,A,3303.3628,N,11652.2867,W,45.20,359.00,181210,,,A*45
$GPRMC,171956.000,A,3303.4006,N,11652.2855,W,44.71,359.70,181210,,,A*4E
$GPRMC,171959.000,A,3303.4352,N,11652.2883,W,43.25,358.80,181210,,,A*40
$GPRMC,172002.000,A,3303.4703,N,11652.2882,W,42.77,358.50,181210,,,A*4E
$GPRMC,172005.000,A,3303.5078,N,11652.2888,W,43.25,357.90,181210,,,A*4C
$GPRMC,172008.000,A,3303.5434,N,11652.2906,W,42.77,358.30,181210,,,A*49
$GPRMC,172011.000,A,3303.5804,N,11652.2923,W,43.74,358.00,181210,,,A*48
$GPRMC,172015.000,A,3303.6293,N,11652.2928,W,43.74,358.80,181210,,,A*48
$GPRMC,172018.000,A,3303.6666,N,11652.2932,W,44.71,359.50,181210,,,A*4E
$GPRMC,172021.000,A,3303.7021,N,11652.2952,W,43.74,358.50,181210,,,A*45
$GPRMC,172024.000,A,3303.7383,N,11652.2961,W,43.74,358.60,181210,,,A*48
$GPRMC,172027.000,A,3303.7638,N,11652.2958,W,44.71,359.20,181210,,,A*43
$GPRMC,172030.000,A,3303.8091,N,11652.2974,W,39.85,357.50,181210,,,A*49
$GPRMC,172033.000,A,3303.8403,N,11652.3040,W,38.88,347.00,181210,,,A*42
$GPRMC,172036.000,A,3303.8711,N,11652.3181,W,39.85,335.10,181210,,,A*43
$GPRMC,172039.000,A,3303.8968,N,11652.3408,W,39.36,320.50,181210,,,A*40
$GPRMC,172042.000,A,3303.9208,N,11652.3716,W,41.31,308.70,181210,,,A*4C
$GPRMC,172045.000,A,3303.9362,N,11652.4069,W,40.34,294.40,181210,,,A*4D
$GPRMC,172048.000,A,3303.9464,N,11652.4472,W,42.77,282.20,181210,,,A*4B
$GPRMC,172051.000,A,3303.9490,N,11652.4908,W,45.20,272.00,181210,,,A*40
$GPRMC,172055.000,A,3303.9483,N,11652.5500,W,45.20,268.60,181210,,,A*4E
$GPRMC,172058.000,A,3303.9468,N,11652.5947,W,44.71,268.40,181210,,,A*4E
$GPRMC,172101.000,A,3303.9464,N,11652.6379,W,43.25,269.40,181210,,,A*4C
$GPRMC,172104.000,A,3303.9509,N,11652.6797,W,41.79,280.30,181210,,,A*4C
$GPRMC,172107.000,A,3303.9629,N,11652.7158,W,38.88,297.20,181210,,,A*4D
$GPRMC,172110.000,A,3303.9853,N,11652.7453,W,40.82,313.10,181210,,,A*4D
$GPRMC,172114.000,A,3304.0178,N,11652.7864,W,42.28,307.20,181210,,,A*4B
$GPRMC,172117.000,A,3304.0379,N,11652.8226,W,43.74,301.20,181210,,,A*46
$GPRMC,172120.000,A,3304.0553,N,11652.8605,W,43.25,297.60,181210,,,A*47
$GPRMC,172123.000,A,3304.0759,N,11652.8981,W,42.77,303.90,181210,,,A*4A
$GPRMC,172126.000,A,3304.0979,N,11652.9301,W,43.25,311.90,181210,,,A*45
$GPRMC,172129.000,A,3304.1232,N,11652.9624,W,43.74,313.80,181210,,,A*4A
$GPRMC,172132.000,A,3304.1482,N,11652.9932,W,42.77,314.30,181210,,,A*4B
$GPRMC,172135.000,A,3304.1742,N,11653.0217,W,41.79,314.40,181210,,,A*4D
$GPRMC,172138.000,A,3304.1947,N,11653.0527,W,38.88,308.90,181210,,,A*4F
$GPRMC,172141.000,A,3304.2110,N,11653.0840,W,36.93,299.40,181210,,,A*44
$GPRMC,172144.000,A,3304.2132,N,11653.1167,W,34.50,272.30,181210,,,A*43
$GPRMC,172147.000,A,3304.2047,N,11653.1507,W,35.48,247.70,181210,,,A*4B
$GPRMC,172150.000,A,3304.1877,N,11653.1838,W,38.39,239.20,181210,,,A*43
$GPRMC,172153.000,A,3304.1752,N,11653.2159,W,36.45,250.10,181210,,,A*4C
$GPRMC,172156.000,A,3304.1696,N,11653.2516,W,37.42,262.20,181210,,,A*4B
$GPRMC,172159.000,A,3304.1670,N,11653.2919,W,40.34,268.60,181210,,,A*40
$GPRMC,172202.000,A,3304.1695,N,11653.3329,W,41.31,275.20,181210,,,A*42
$GPRMC,172205.000,A,3304.1718,N,11653.3747,W,43.25,270.50,181210,,,A*48
$GPRMC,172208.000,A,3304.1707,N,11653.4158,W,42.28,267.10,181210,,,A*4A
$GPRMC,172211.000,A,3304.1688,N,11653.4567,W,41.31,268.80,181210,,,A*41
$GPRMC,172214.000,A,3304.1706,N,11653.4941,W,36.45,274.30,181210,,,A*4E
$GPRMC,172216.000,A,3304.1773,N,11653.5156,W,34.50,286.90,181210,,,A*40
$GPRMC,172220.000,A,3304.1978,N,11653.5587,W,35.48,291.90,181210,,,A*46
$GPRMC,172223.000,A,3304.2003,N,11653.5908,W,34.02,271.40,181210,,,A*44
$GPRMC,172226.000,A,3304.2039,N,11653.6258,W,34.99,277.40,181210,,,A*41
$GPRMC,172229.000,A,3304.2090,N,11653.6592,W,33.53,279.80,181210,,,A*4F
$GPRMC,172232.000,A,3304.2143,N,11653.6908,W,32.56,280.40,181210,,,A*4B
$GPRMC,172235.000,A,3304.2209,N,11653.7194,W,30.62,288.10,181210,,,A*45
$GPRMC,172238.000,A,3304.2360,N,11653.7434,W,30.62,305.70,181210,,,A*4B
$GPRMC,172241.000,A,3304.2509,N,11653.7692,W,32.07,298.70,181210,,,A*46
$GPRMC,172244.000,A,3304.2617,N,11653.8026,W,35.48,292.30,181210,,,A*4B
$GPRMC,172247.000,A,3304.2716,N,11653.8372,W,35.96,287.50,181210,,,A*4B
$GPRMC,172250.000,A,3304.2784,N,11653.8712,W,34.99,284.20,181210,,,A*4E
$GPRMC,172253.000,A,3304.2852,N,11653.9046,W,34.50,288.90,181210,,,A*4C
$GPRMC,172256.000,A,3304.2978,N,11653.9365,W,35.96,291.50,181210,,,A*4D
$GPRMC,172259.000,A,3304.3027,N,11653.9704,W,35.48,280.50,181210,,,A*40
$GPRMC,172302.000,A,3304.3098,N,11654.0040,W,34.99,284.50,181210,,,A*4B
$GPRMC,172305.000,A,3304.3214,N,11654.0365,W,34.02,299.50,181210,,,A*40
$GPRMC,172308.000,A,3304.3342,N,11654.0641,W,30.13,292.90,181210,,,A*4F
$GPRMC,172311.000,A,3304.3383,N,11654.0918,W,28.67,274.00,181210,,,A*42
$GPRMC,172314.000,A,3304.3423,N,11654.1218,W,30.13,286.30,181210,,,A*44
$GPRMC,172317.000,A,3304.3580,N,11654.1437,W,28.67,312.90,181210,,,A*48
$GPRMC,172320.000,A,3304.3836,N,11654.1571,W,31.59,334.90,181210,,,A*4E
$GPRMC,172323.000,A,3304.4100,N,11654.1640,W,31.59,348.80,181210,,,A*4D
$GPRMC,172326.000,A,3304.4371,N,11654.1638,W,32.56,359.10,181210,,,A*46
$GPRMC,172329.000,A,3304.4670,N,11654.1657,W,35.96,358.30,181210,,,A*4C
$GPRMC,172331.000,A,3304.4855,N,11654.1663,W,34.99,357.40,181210,,,A*4D
$GPRMC,172335.000,A,3304.5182,N,11654.1674,W,34.50,356.70,181210,,,A*4A
$GPRMC,172338.000,A,3304.5470,N,11654.1720,W,35.00,347.80,181210,,,A*44
$GPRMC,172341.000,A,3304.5735,N,11654.1798,W,36.95,346.10,181210,,,A*4C
$GPRMC,172344.000,A,3304.6150,N,11654.1911,W,39.85,348.50,181210,,,A*44
$GPRMC,172347.000,A,3304.6490,N,11654.1954,W,39.85,356.30,181210,,,A*46
$GPRMC,172350.000,A,3304.6823,N,11654.1907,W,37.42,08.50,181210,,,A*79
$GPRMC,172353.000,A,3304.7100,N,11654.1819,W,34.50,15.10,181210,,,A*75
$GPRMC,172356.000,A,3304.7381,N,11654.1759,W,33.53,05.80,181210,,,A*7C
$GPRMC,172359.000,A,3304.7658,N,11654.1810,W,33.05,347.00,181210,,,A*4E
$GPRMC,172402.000,A,3304.7896,N,11654.1948,W,32.56,332.50,181210,,,A*47
$GPRMC,172405.000,A,3304.8128,N,11654.2122,W,31.10,332.20,181210,,,A*42
$GPRMC,172408.000,A,3304.8355,N,11654.2201,W,27.70,346.90,181210,,,A*4C
$GPRMC,172411.000,A,3304.8619,N,11654.2167,W,30.13,00.00,181210,,,A*71
$GPRMC,172413.000,A,3304.8817,N,11654.2200,W,33.53,350.90,181210,,,A*49
$GPRMC,172417.000,A,3304.9198,N,11654.2290,W,34.99,349.40,181210,,,A*4F
$GPRMC,172420.000,A,3304.9470,N,11654.2317,W,34.50,357.50,181210,,,A*4D
$GPRMC,172423.000,A,3304.9779,N,11654.2282,W,36.93,06.20,181210,,,A*74
$GPRMC,172426.000,A,3305.0101,N,11654.2268,W,38.39,02.00,181210,,,A*7C
$GPRMC,172429.000,A,3305.0443,N,11654.2260,W,38.39,00.80,181210,,,A*72
$GPRMC,172432.000,A,3305.0772,N,11654.2261,W,39.36,01.40,181210,,,A*7B
$GPRMC,172435.000,A,3305.1095,N,11654.2217,W,37.42,05.90,181210,,,A*76
$GPRMC,172438.000,A,3305.1365,N,11654.2168,W,34.02,11.20,181210,,,A*75
$GPRMC,172441.000,A,3305.1634,N,11654.2139,W,31.10,359.60,181210,,,A*43
$GPRMC,172444.000,A,3305.1887,N,11654.2226,W,31.59,345.70,181210,,,A*4C
$GPRMC,172447.000,A,3305.2137,N,11654.2330,W,31.59,333.80,181210,,,A*46
$GPRMC,172450.000,A,3305.2268,N,11654.2562,W,30.13,303.60,181210,,,A*4A
$GPRMC,172453.000,A,3305.2288,N,11654.2848,W,28.19,275.20,181210,,,A*45
$GPRMC,172456.000,A,3305.2168,N,11654.3111,W,29.65,236.10,181210,,,A*47
$GPRMC,172459.000,A,3305.1973,N,11654.3352,W,33.53,233.20,181210,,,A*44
$GPRMC,172502.000,A,3305.1849,N,11654.3668,W,35.96,249.30,181210,,,A*4C
$GPRMC,172505.000,A,3305.1851,N,11654.4026,W,36.45,268.70,181210,,,A*43
$GPRMC,172508.000,A,3305.1892,N,11654.4345,W,31.59,275.70,181210,,,A*41
$GPRMC,172511.000,A,3305.1967,N,11654.4610,W,27.22,292.20,181210,,,A*40
$GPRMC,172514.000,A,3305.2119,N,11654.4804,W,27.70,307.60,181210,,,A*42
$GPRMC,172518.000,A,3305.2260,N,11654.5147,W,28.67,287.50,181210,,,A*4F
$GPRMC,172521.000,A,3305.2239,N,11654.5456,W,30.62,259.00,181210,,,A*46
$GPRMC,172524.000,A,3305.2113,N,11654.5721,W,29.65,235.30,181210,,,A*4D
$GPRMC,172527.000,A,3305.1854,N,11654.5935,W,36.45,214.90,181210,,,A*49
$GPRMC,172530.000,A,3305.1604,N,11654.6145,W,37.91,217.50,181210,,,A*4F
$GPRMC,172533.000,A,3305.1379,N,11654.6420,W,37.91,228.10,181210,,,A*4D
$GPRMC,172536.000,A,3305.1226,N,11654.6699,W,33.05,241.30,181210,,,A*47
$GPRMC,172539.000,A,3305.1188,N,11654.6963,W,28.19,262.50,181210,,,A*45
$GPRMC,172542.000,A,3305.1242,N,11654.7266,W,30.13,277.40,181210,,,A*45
$GPRMC,172545.000,A,3305.1275,N,11654.7578,W,32.56,274.50,181210,,,A*4F
$GPRMC,172548.000,A,3305.1288,N,11654.7914,W,34.02,275.50,181210,,,A*40
$GPRMC,172552.000,A,3305.1392,N,11654.8346,W,34.02,284.50,181210,,,A*4D
$GPRMC,172555.000,A,3305.1373,N,11654.8675,W,33.53,259.10,181210,,,A*47
$GPRMC,172558.000,A,3305.1240,N,11654.8966,W,34.50,235.50,181210,,,A*4C
$GPRMC,172601.000,A,3305.1049,N,11654.9247,W,35.48,232.20,181210,,,A*49
$GPRMC,172604.000,A,3305.0861,N,11654.9500,W,34.99,230.70,181210,,,A*41
$GPRMC,172607.000,A,3305.0680,N,11654.9764,W,34.99,229.50,181210,,,A*49
$GPRMC,172610.000,A,3305.0434,N,11654.9958,W,34.50,210.60,181210,,,A*4F
$GPRMC,172613.000,A,3305.0150,N,11655.0037,W,34.50,191.00,181210,,,A*4F
$GPRMC,172616.000,A,3304.9881,N,11655.0073,W,33.05,191.50,181210,,,A*45
$GPRMC,172618.000,A,3304.9720,N,11655.0165,W,31.59,207.30,181210,,,A*48
$GPRMC,172622.000,A,3304.9482,N,11655.0505,W,34.50,237.90,181210,,,A*4D
$GPRMC,172625.000,A,3304.9471,N,11655.0837,W,33.53,265.90,181210,,,A*49
$GPRMC,172628.000,A,3304.9606,N,11655.1178,W,36.45,285.10,181210,,,A*41
$GPRMC,172631.000,A,3304.9709,N,11655.1533,W,37.42,285.10,181210,,,A*4A
$GPRMC,172634.000,A,3304.9719,N,11655.1897,W,37.42,269.40,181210,,,A*4A
$GPRMC,172637.000,A,3304.9690,N,11655.2258,W,35.48,265.40,181210,,,A*47
$GPRMC,172640.000,A,3304.9715,N,11655.2574,W,32.07,279.00,181210,,,A*47
$GPRMC,172643.000,A,3304.9873,N,11655.2770,W,26.24,315.00,181210,,,A*42
$GPRMC,172646.000,A,3305.0139,N,11655.2805,W,29.16,355.30,181210,,,A*4C
$GPRMC,172649.000,A,3305.0436,N,11655.2783,W,34.02,356.60,181210,,,A*47
$GPRMC,172652.000,A,3305.0702,N,11655.2900,W,33.05,333.40,181210,,,A*4D
$GPRMC,172655.000,A,3305.0947,N,11655.3078,W,35.96,326.40,181210,,,A*4A
$GPRMC,172658.000,A,3305.1190,N,11655.3283,W,35.48,326.10,181210,,,A*44
$GPRMC,172701.000,A,3305.1418,N,11655.3483,W,33.05,321.90,181210,,,A*4A
$GPRMC,172705.000,A,3305.1610,N,11655.3721,W,30.15,308.40,181210,,,A*4B
$GPRMC,172708.000,A,3305.1644,N,11655.4005,W,29.65,273.20,181210,,,A*45
$GPRMC,172711.000,A,3305.1531,N,11655.4293,W,33.55,242.80,181210,,,A*41
$GPRMC,172715.000,A,3305.1396,N,11655.4717,W,34.99,257.20,181210,,,A*4E
$GPRMC,172718.000,A,3305.1410,N,11655.5127,W,33.53,272.70,181210,,,A*4D
$GPRMC,172721.000,A,3305.1484,N,11655.5439,W,30.62,284.50,181210,,,A*4A
$GPRMC,172724.000,A,3305.1674,N,11655.5692,W,34.02,306.80,181210,,,A*45
$GPRMC,172727.000,A,3305.1867,N,11655.5958,W,35.48,308.20,181210,,,A*48
$GPRMC,172730.000,A,3305.2001,N,11655.6255,W,34.99,298.30,181210,,,A*44
$GPRMC,172733.000,A,3305.2097,N,11655.6566,W,34.50,290.90,181210,,,A*48
$GPRMC,172736.000,A,3305.2208,N,11655.6921,W,36.93,292.60,181210,,,A*46
$GPRMC,172739.000,A,3305.2371,N,11655.7242,W,37.91,295.30,181210,,,A*48
$GPRMC,172742.000,A,3305.2433,N,11655.7577,W,33.05,284.50,181210,,,A*4B
$GPRMC,172745.000,A,3305.2451,N,11655.7910,W,31.59,269.10,181210,,,A*49
$GPRMC,172748.000,A,3305.2332,N,11655.8121,W,26.73,233.20,181210,,,A*41
$GPRMC,172752.000,A,3305.2031,N,11655.8258,W,31.10,195.90,181210,,,A*40
$GPRMC,172755.000,A,3305.1772,N,11655.8344,W,31.59,203.20,181210,,,A*42
$GPRMC,172758.000,A,3305.1567,N,11655.8576,W,33.05,226.10,181210,,,A*41
$GPRMC,172801.000,A,3305.1492,N,11655.8895,W,34.50,256.30,181210,,,A*4B
$GPRMC,172804.000,A,3305.1498,N,11655.9225,W,35.48,265.30,181210,,,A*4C
$GPRMC,172807.000,A,3305.1478,N,11655.9600,W,37.42,265.40,181210,,,A*4D
$GPRMC,172810.000,A,3305.1424,N,11655.9987,W,38.88,267.60,181210,,,A*4B
$GPRMC,172812.000,A,3305.1446,N,11656.0225,W,35.96,275.40,181210,,,A*47
$GPRMC,172816.000,A,3305.1593,N,11656.0656,W,34.50,287.70,181210,,,A*4F
$GPRMC,172819.000,A,3305.1655,N,11656.0999,W,34.02,283.40,181210,,,A*45
$GPRMC,172822.000,A,3305.1717,N,11656.1289,W,30.62,287.80,181210,,,A*4B
$GPRMC,172826.000,A,3305.1914,N,11656.1632,W,31.10,305.10,181210,,,A*40
$GPRMC,172829.000,A,3305.2077,N,11656.1880,W,31.10,308.20,181210,,,A*49
$GPRMC,172832.000,A,3305.2278,N,11656.2095,W,32.56,317.50,181210,,,A*49
$GPRMC,172835.000,A,3305.2501,N,11656.2272,W,32.56,328.50,181210,,,A*40
$GPRMC,172838.000,A,3305.2721,N,11656.2413,W,30.13,334.80,181210,,,A*4F
$GPRMC,172841.000,A,3305.2990,N,11656.2476,W,32.07,348.60,181210,,,A*44
$GPRMC,172844.000,A,3305.3278,N,11656.2503,W,34.50,353.40,181210,,,A*42
$GPRMC,172847.000,A,3305.3579,N,11656.2554,W,35.48,351.30,181210,,,A*48
$GPRMC,172850.000,A,3305.3880,N,11656.2639,W,36.45,346.60,181210,,,A*40
$GPRMC,172853.000,A,3305.4135,N,11656.2763,W,33.05,332.60,181210,,,A*4F
$GPRMC,172856.000,A,3305.4317,N,11656.2994,W,33.05,311.40,181210,,,A*4D
$GPRMC,172859.000,A,3305.4439,N,11656.3285,W,34.02,295.90,181210,,,A*43
$GPRMC,172902.000,A,3305.4543,N,11656.3635,W,37.42,290.70,181210,,,A*43
$GPRMC,172905.000,A,3305.4662,N,11656.3986,W,37.42,290.50,181210,,,A*41
$GPRMC,172908.000,A,3305.4765,N,11656.4369,W,39.36,289.20,181210,,,A*44
$GPRMC,172911.000,A,3305.4839,N,11656.4753,W,38.39,281.30,181210,,,A*40
$GPRMC,172914.000,A,3305.4828,N,11656.5098,W,34.99,265.00,181210,,,A*4B
$GPRMC,172917.000,A,3305.4764,N,11656.5465,W,36.93,258.10,181210,,,A*4E
$GPRMC,172920.000,A,3305.4688,N,11656.5822,W,37.42,255.70,181210,,,A*40
$GPRMC,172923.000,A,3305.4568,N,11656.6153,W,35.96,244.80,181210,,,A*46
$GPRMC,172926.000,A,3305.4427,N,11656.6449,W,35.96,244.80,181210,,,A*47
$GPRMC,172929.000,A,3305.4361,N,11656.6819,W,37.43,263.90,181210,,,A*4A
$GPRMC,172932.000,A,3305.4364,N,11656.7230,W,41.79,270.60,181210,,,A*40
$GPRMC,172935.000,A,3305.4381,N,11656.7686,W,45.20,270.30,181210,,,A*48
$GPRMC,172938.000,A,3305.4375,N,11656.8148,W,47.14,269.90,181210,,,A*43
$GPRMC,172941.000,A,3305.4364,N,11656.8612,W,47.14,269.30,181210,,,A*4F
$GPRMC,172944.000,A,3305.4360,N,11656.9078,W,46.17,269.30,181210,,,A*47
$GPRMC,172947.000,A,3305.4361,N,11656.9529,W,45.20,269.90,181210,,,A*49
$GPRMC,172950.000,A,3305.4357,N,11656.9979,W,45.20,269.70,181210,,,A*4D
$GPRMC,172953.000,A,3305.4355,N,11657.0423,W,45.20,269.40,181210,,,A*45
$GPRMC,172956.000,A,3305.4365,N,11657.0872,W,45.20,271.80,181210,,,A*4E
$GPRMC,172959.000,A,3305.4422,N,11657.1334,W,45.68,281.10,181210,,,A*47
$GPRMC,173002.000,A,3305.4558,N,11657.1751,W,44.72,293.30,181210,,,A*41
$GPRMC,173005.000,A,3305.4731,N,11657.2120,W,42.28,302.70,181210,,,A*4C
$GPRMC,173008.000,A,3305.4964,N,11657.2439,W,43.26,312.60,181210,,,A*4D
$GPRMC,173011.000,A,3305.5234,N,11657.2718,W,43.74,321.50,181210,,,A*4E
$GPRMC,173015.000,A,3305.5627,N,11657.3053,W,42.77,324.70,181210,,,A*40
$GPRMC,173018.000,A,3305.5914,N,11657.3307,W,43.74,323.80,181210,,,A*4A
$GPRMC,173021.000,A,3305.6206,N,11657.3595,W,45.20,317.80,181210,,,A*46
$GPRMC,173024.000,A,3305.6446,N,11657.3941,W,44.71,306.70,181210,,,A*4E
$GPRMC,173027.000,A,3305.6650,N,11657.4319,W,45.68,298.10,181210,,,A*41
$GPRMC,173030.000,A,3305.6779,N,11657.4744,W,45.68,285.70,181210,,,A*4B
$GPRMC,173033.000,A,3305.6842,N,11657.5210,W,46.17,276.20,181210,,,A*48
$GPRMC,173036.000,A,3305.6868,N,11657.5649,W,45.20,273.80,181210,,,A*45
$GPRMC,173039.000,A,3305.6887,N,11657.6102,W,45.20,273.40,181210,,,A*4C
$GPRMC,173042.000,A,3305.6865,N,11657.6552,W,45.20,262.50,181210,,,A*4C
$GPRMC,173045.000,A,3305.6766,N,11657.6975,W,44.22,250.80,181210,,,A*41
$GPRMC,173048.000,A,3305.6592,N,11657.7384,W,46.17,240.00,181210,,,A*4D
$GPRMC,173051.000,A,3305.6349,N,11657.7745,W,47.14,231.60,181210,,,A*4E
$GPRMC,173054.000,A,3305.6102,N,11657.8113,W,47.14,232.30,181210,,,A*4A
$GPRMC,173057.000,A,3305.5907,N,11657.8480,W,44.22,241.10,181210,,,A*48
$GPRMC,173100.000,A,3305.5788,N,11657.8921,W,46.17,254.30,181210,,,A*46
$GPRMC,173103.000,A,3305.5698,N,11657.9359,W,46.17,255.20,181210,,,A*41
$GPRMC,173106.000,A,3305.5563,N,11657.9785,W,46.65,248.00,181210,,,A*4D
$GPRMC,173110.000,A,3305.5349,N,11658.0355,W,47.63,246.30,181210,,,A*41
$GPRMC,173113.000,A,3305.5187,N,11658.0773,W,46.65,246.00,181210,,,A*46
$GPRMC,173116.000,A,3305.5029,N,11658.1201,W,46.65,248.50,181210,,,A*4C
$GPRMC,173119.000,A,3305.4926,N,11658.1638,W,46.17,256.40,181210,,,A*41
$GPRMC,173122.000,A,3305.4847,N,11658.2116,W,47.63,259.40,181210,,,A*4A
$GPRMC,173125.000,A,3305.4771,N,11658.2567,W,47.63,259.10,181210,,,A*40
$GPRMC,173128.000,A,3305.4691,N,11658.3025,W,47.14,257.10,181210,,,A*4E
$GPRMC,173131.000,A,3305.4577,N,11658.3490,W,47.63,252.30,181210,,,A*40
$GPRMC,173134.000,A,3305.4455,N,11658.3909,W,46.65,250.40,181210,,,A*4B
$GPRMC,173137.000,A,3305.4318,N,11658.4351,W,47.14,250.40,181210,,,A*41
$GPRMC,173140.000,A,3305.4182,N,11658.4785,W,46.65,250.90,181210,,,A*47
$GPRMC,173143.000,A,3305.4067,N,11658.5208,W,45.20,252.10,181210,,,A*47
$GPRMC,173146.000,A,3305.3974,N,11658.5630,W,45.20,254.10,181210,,,A*47
$GPRMC,173149.000,A,3305.3850,N,11658.6058,W,46.17,250.90,181210,,,A*4F
$GPRMC,173152.000,A,3305.3717,N,11658.6477,W,45.68,251.20,181210,,,A*41
$GPRMC,173155.000,A,3305.3600,N,11658.6945,W,48.60,252.60,181210,,,A*4F
$GPRMC,173158.000,A,3305.3490,N,11658.7391,W,47.63,252.80,181210,,,A*49
$GPRMC,173201.000,A,3305.3364,N,11658.7834,W,47.63,251.60,181210,,,A*43
$GPRMC,173205.000,A,3305.3216,N,11658.8420,W,45.68,254.80,181210,,,A*47
$GPRMC,173208.000,A,3305.3149,N,11658.8849,W,44.22,261.80,181210,,,A*49
$GPRMC,173211.000,A,3305.3092,N,11658.9288,W,44.22,259.10,181210,,,A*42
$GPRMC,173213.000,A,3305.3023,N,11658.9572,W,44.22,252.40,181210,,,A*46
$GPRMC,173217.000,A,3305.2832,N,11659.0112,W,45.68,245.10,181210,,,A*4D
$GPRMC,173220.000,A,3305.2676,N,11659.0519,W,44.71,245.30,181210,,,A*43
$GPRMC,173223.000,A,3305.2537,N,11659.0919,W,44.22,246.20,181210,,,A*4E
$GPRMC,173226.000,A,3305.2390,N,11659.1311,W,43.74,246.70,181210,,,A*42
$GPRMC,173229.000,A,3305.2233,N,11659.1717,W,44.22,245.40,181210,,,A*43
$GPRMC,173232.000,A,3305.2076,N,11659.2125,W,43.74,244.50,181210,,,A*4A
$GPRMC,173235.000,A,3305.1897,N,11659.2496,W,43.74,239.20,181210,,,A*49
$GPRMC,173238.000,A,3305.1693,N,11659.2864,W,42.77,238.40,181210,,,A*4A
$GPRMC,173241.000,A,3305.1556,N,11659.3227,W,39.85,250.60,181210,,,A*4F
$GPRMC,173244.000,A,3305.1516,N,11659.3633,W,40.34,267.30,181210,,,A*4A
$GPRMC,173247.000,A,3305.1570,N,11659.4037,W,40.82,283.40,181210,,,A*4C
$GPRMC,173250.000,A,3305.1697,N,11659.4390,W,38.39,297.50,181210,,,A*45
$GPRMC,173253.000,A,3305.1936,N,11659.4657,W,38.88,319.60,181210,,,A*42
$GPRMC,173256.000,A,3305.2266,N,11659.4828,W,41.79,335.60,181210,,,A*42
$GPRMC,173259.000,A,3305.2604,N,11659.4945,W,44.22,345.80,181210,,,A*45
$GPRMC,173302.000,A,3305.2998,N,11659.5033,W,48.60,350.50,181210,,,A*4A
$GPRMC,173305.000,A,3305.3414,N,11659.5104,W,49.57,349.80,181210,,,A*40
$GPRMC,173308.000,A,3305.3802,N,11659.5252,W,48.61,341.20,181210,,,A*40
$GPRMC,173311.000,A,3305.4076,N,11659.5533,W,43.26,318.50,181210,,,A*47
$GPRMC,173314.000,A,3305.4320,N,11659.5842,W,44.22,313.10,181210,,,A*45
$GPRMC,173317.000,A,3305.4498,N,11659.6079,W,45.68,311.70,181210,,,A*4A
$GPRMC,173320.000,A,3305.4815,N,11659.6544,W,45.68,306.20,181210,,,A*4F
$GPRMC,173323.000,A,3305.4983,N,11659.6912,W,44.22,297.80,181210,,,A*41
$GPRMC,173326.000,A,3305.5151,N,11659.7358,W,48.11,291.90,181210,,,A*4C
$GPRMC,173329.000,A,3305.5303,N,11659.7791,W,46.65,292.00,181210,,,A*40
$GPRMC,173331.000,A,3305.5408,N,11659.8072,W,46.65,293.20,181210,,,A*43
$GPRMC,173335.000,A,3305.5596,N,11659.8665,W,47.63,292.00,181210,,,A*45
$GPRMC,173338.000,A,3305.5742,N,11659.9085,W,46.17,292.90,181210,,,A*41
$GPRMC,173341.000,A,3305.5905,N,11659.9521,W,47.14,293.30,181210,,,A*40
$GPRMC,173344.000,A,3305.6056,N,11659.9945,W,46.65,293.20,181210,,,A*41
$GPRMC,173347.000,A,3305.6208,N,11700.0348,W,45.68,294.10,181210,,,A*42
$GPRMC,173350.000,A,3305.6364,N,11700.0769,W,46.65,293.80,181210,,,A*48
$GPRMC,173353.000,A,3305.6516,N,11700.1208,W,48.11,293.40,181210,,,A*4A
$GPRMC,173356.000,A,3305.6676,N,11700.1647,W,47.63,294.10,181210,,,A*4D
$GPRMC,173359.000,A,3305.6827,N,11700.2067,W,47.14,293.30,181210,,,A*4A
$GPRMC,173402.000,A,3305.6986,N,11700.2520,W,49.57,292.40,181210,,,A*40
$GPRMC,173405.000,A,3305.7131,N,11700.2965,W,49.08,291.20,181210,,,A*40
$GPRMC,173408.000,A,3305.7288,N,11700.3439,W,49.57,289.00,181210,,,A*48
$GPRMC,173411.000,A,3305.7382,N,11700.3939,W,51.51,280.70,181210,,,A*47
$GPRMC,173414.000,A,3305.7433,N,11700.4452,W,50.54,277.20,181210,,,A*41
$GPRMC,173418.000,A,3305.7508,N,11700.5120,W,50.54,276.70,181210,,,A*41
$GPRMC,173421.000,A,3305.7561,N,11700.5602,W,50.06,277.00,181210,,,A*42
$GPRMC,173424.000,A,3305.7618,N,11700.6086,W,49.08,276.90,181210,,,A*4D
$GPRMC,173427.000,A,3305.7662,N,11700.6563,W,47.63,279.60,181210,,,A*4E
$GPRMC,173430.000,A,3305.7792,N,11700.6998,W,45.68,293.30,181210,,,A*46
$GPRMC,173433.000,A,3305.8008,N,11700.7361,W,44.71,309.50,181210,,,A*4E
$GPRMC,173436.000,A,3305.8303,N,11700.7636,W,45.68,322.50,181210,,,A*44
$GPRMC,173439.000,A,3305.8612,N,11700.7927,W,46.65,322.30,181210,,,A*49
$GPRMC,173442.000,A,3305.8915,N,11700.8229,W,47.14,317.30,181210,,,A*46
$GPRMC,173445.000,A,3305.9175,N,11700.8572,W,46.65,306.60,181210,,,A*45
$GPRMC,173448.000,A,3305.9313,N,11700.9014,W,47.64,286.90,181210,,,A*48
$GPRMC,173451.000,A,3305.9354,N,11700.9510,W,49.08,272.50,181210,,,A*41
$GPRMC,173454.000,A,3305.9342,N,11700.9986,W,48.11,268.60,181210,,,A*41
$GPRMC,173456.000,A,3305.9328,N,11701.0301,W,48.11,267.90,181210,,,A*42
$GPRMC,173500.000,A,3305.9317,N,11701.0929,W,47.14,267.60,181210,,,A*49
$GPRMC,173503.000,A,3305.9279,N,11701.1398,W,47.63,261.10,181210,,,A*43
$GPRMC,173506.000,A,3305.9147,N,11701.1830,W,45.68,245.20,181210,,,A*4D
$GPRMC,173509.000,A,3305.8942,N,11701.2217,W,46.65,236.90,181210,,,A*43
$GPRMC,173512.000,A,3305.8705,N,11701.2607,W,47.63,236.10,181210,,,A*4E
$GPRMC,173515.000,A,3305.8480,N,11701.2988,W,47.63,236.20,181210,,,A*4C
$GPRMC,173518.000,A,3305.8291,N,11701.3409,W,48.60,245.80,181210,,,A*40
$GPRMC,173521.000,A,3305.8208,N,11701.3876,W,47.15,262.40,181210,,,A*4A
$GPRMC,173524.000,A,3305.8248,N,11701.4359,W,48.12,278.90,181210,,,A*44
$GPRMC,173527.000,A,3305.8384,N,11701.4811,W,48.12,294.30,181210,,,A*49
$GPRMC,173530.000,A,3305.8568,N,11701.5244,W,48.61,296.90,181210,,,A*4C
$GPRMC,173533.000,A,3305.8753,N,11701.5678,W,49.09,297.60,181210,,,A*4F
$GPRMC,173536.000,A,3305.8937,N,11701.6106,W,48.12,297.00,181210,,,A*46
$GPRMC,173539.000,A,3305.9121,N,11701.6535,W,48.11,296.20,181210,,,A*43
$GPRMC,173542.000,A,3305.9283,N,11701.6965,W,46.65,296.10,181210,,,A*43
$GPRMC,173545.000,A,3305.9472,N,11701.7359,W,46.18,298.40,181210,,,A*49
$GPRMC,173548.000,A,3305.9662,N,11701.7759,W,46.17,300.70,181210,,,A*4F
$GPRMC,173551.000,A,3305.9901,N,11701.8118,W,46.66,311.20,181210,,,A*42
$GPRMC,173554.000,A,3306.0178,N,11701.8449,W,47.15,315.70,181210,,,A*4E
$GPRMC,173557.000,A,3306.0442,N,11701.8820,W,48.61,308.30,181210,,,A*46
$GPRMC,173600.000,A,3306.0647,N,11701.9222,W,48.11,298.00,181210,,,A*45
$GPRMC,173603.000,A,3306.0759,N,11701.9554,W,47.15,293.50,181210,,,A*4B
$GPRMC,173606.000,A,3306.0919,N,11701.9990,W,47.15,293.80,181210,,,A*4D
$GPRMC,173609.000,A,3306.1092,N,11702.0432,W,48.69,294.70,181210,,,A*4A
$GPRMC,173612.000,A,3306.1298,N,11702.0965,W,47.63,295.50,181210,,,A*41
$GPRMC,173614.000,A,3306.1421,N,11702.1249,W,47.63,295.50,181210,,,A*47
$GPRMC,173618.000,A,3306.1642,N,11702.1832,W,47.63,294.70,181210,,,A*49
$GPRMC,173621.000,A,3306.1814,N,11702.2260,W,48.11,295.40,181210,,,A*48
$GPRMC,173624.000,A,3306.1990,N,11702.2689,W,48.11,297.20,181210,,,A*47
$GPRMC,173627.000,A,3306.2174,N,11702.3117,W,48.11,297.60,181210,,,A*40
$GPRMC,173630.000,A,3306.2363,N,11702.3535,W,47.14,297.50,181210,,,A*4F
$GPRMC,173633.000,A,3306.2533,N,11702.3949,W,46.17,295.70,181210,,,A*4A
$GPRMC,173636.000,A,3306.2681,N,11702.4345,W,44.71,294.20,181210,,,A*42
$GPRMC,173639.000,A,3306.2852,N,11702.4728,W,42.77,299.70,181210,,,A*4A
$GPRMC,173641.000,A,3306.2993,N,11702.4982,W,43.25,303.00,181210,,,A*44
$GPRMC,173645.000,A,3306.3267,N,11702.5415,W,40.34,306.80,181210,,,A*4D
$GPRMC,173648.000,A,3306.3459,N,11702.5735,W,40.34,305.30,181210,,,A*42
$GPRMC,173651.000,A,3306.3673,N,11702.6053,W,40.82,309.70,181210,,,A*41
$GPRMC,173654.000,A,3306.3913,N,11702.6361,W,41.31,312.30,181210,,,A*48
$GPRMC,173657.000,A,3306.4157,N,11702.6662,W,43.25,313.40,181210,,,A*43
$GPRMC,173700.000,A,3306.4391,N,11702.6979,W,42.77,312.00,181210,,,A*4E
$GPRMC,173703.000,A,3306.4609,N,11702.7294,W,41.31,306.60,181210,,,A*42
$GPRMC,173706.000,A,3306.4813,N,11702.7623,W,41.31,303.60,181210,,,A*4F
$GPRMC,173709.000,A,3306.4994,N,11702.7972,W,41.31,302.00,181210,,,A*42
$GPRMC,173712.000,A,3306.5157,N,11702.8323,W,40.34,298.70,181210,,,A*4E
$GPRMC,173715.000,A,3306.5283,N,11702.8708,W,41.31,290.60,181210,,,A*43
$GPRMC,173719.000,A,3306.5435,N,11702.9205,W,38.39,286.60,181210,,,A*4C
$GPRMC,173721.000,A,3306.5471,N,11702.9449,W,37.42,282.70,181210,,,A*4F
$GPRMC,173725.000,A,3306.5580,N,11702.9937,W,38.39,284.30,181210,,,A*41
$GPRMC,173728.000,A,3306.5658,N,11703.0315,W,40.34,284.50,181210,,,A*4C
$GPRMC,173731.000,A,3306.5737,N,11703.0686,W,37.91,283.00,181210,,,A*4E
$GPRMC,173734.000,A,3306.5781,N,11703.1046,W,36.45,275.90,181210,,,A*45
$GPRMC,173737.000,A,3306.5749,N,11703.1375,W,33.53,261.70,181210,,,A*48
$GPRMC,173739.000,A,3306.5699,N,11703.1595,W,34.02,255.90,181210,,,A*48
$GPRMC,173743.000,A,3306.5644,N,11703.2042,W,35.48,266.80,181210,,,A*47
$GPRMC,173746.000,A,3306.5672,N,11703.2404,W,36.45,281.80,181210,,,A*46
$GPRMC,173749.000,A,3306.5783,N,11703.2741,W,36.45,293.20,181210,,,A*4D
$GPRMC,173752.000,A,3306.5990,N,11703.3004,W,35.48,313.90,181210,,,A*40
$GPRMC,173755.000,A,3306.6216,N,11703.3244,W,35.96,318.90,181210,,,A*4F
$GPRMC,173758.000,A,3306.6438,N,11703.3455,W,32.56,320.30,181210,,,A*44
$GPRMC,173801.000,A,3306.6594,N,11703.3629,W,23.81,318.70,181210,,,A*4C
$GPRMC,173804.000,A,3306.6696,N,11703.3712,W,11.66,325.10,181210,,,A*41
$GPRMC,173837.000,A,3306.6707,N,11703.3747,W,4.86,310.30,181210,,,A*76
$GPRMC,173840.000,A,3306.6771,N,11703.3823,W,10.69,311.20,181210,,,A*4E
$GPRMC,173843.000,A,3306.6815,N,11703.3947,W,12.64,274.60,181210,,,A*4A
$GPRMC,173847.000,A,3306.6681,N,11703.4173,W,22.84,226.40,181210,,,A*4D
$GPRMC,173850.000,A,3306.6516,N,11703.4362,W,29.65,226.10,181210,,,A*45
$GPRMC,173853.000,A,3306.6318,N,11703.4578,W,31.10,226.20,181210,,,A*4B
$GPRMC,173856.000,A,3306.6156,N,11703.4796,W,28.19,226.90,181210,,,A*4E
$GPRMC,173859.000,A,3306.5990,N,11703.5033,W,31.10,229.50,181210,,,A*4B
$GPRMC,173902.000,A,3306.5806,N,11703.5266,W,32.07,227.70,181210,,,A*41
$GPRMC,173905.000,A,3306.5631,N,11703.5500,W,32.56,229.00,181210,,,A*46
$GPRMC,173908.000,A,3306.5429,N,11703.5751,W,34.50,227.00,181210,,,A*48
$GPRMC,173911.000,A,3306.5227,N,11703.6008,W,34.99,227.40,181210,,,A*41
$GPRMC,173914.000,A,3306.5038,N,11703.6264,W,34.50,232.20,181210,,,A*47
$GPRMC,173918.000,A,3306.4902,N,11703.6682,W,34.02,255.10,181210,,,A*43
$GPRMC,173921.000,A,3306.4839,N,11703.7025,W,34.99,258.00,181210,,,A*44
$GPRMC,173924.000,A,3306.4791,N,11703.7358,W,34.02,259.90,181210,,,A*4F
$GPRMC,173927.000,A,3306.4750,N,11703.7692,W,33.53,260.60,181210,,,A*44
$GPRMC,173930.000,A,3306.4690,N,11703.8022,W,33.53,258.00,181210,,,A*40
$GPRMC,173934.000,A,3306.4633,N,11703.8379,W,32.56,258.50,181210,,,A*41
$GPRMC,173937.000,A,3306.4581,N,11703.8691,W,32.07,258.60,181210,,,A*4C
$GPRMC,173940.000,A,3306.4525,N,11703.8995,W,31.65,258.80,181210,,,A*40
$GPRMC,173943.000,A,3306.4473,N,11703.9303,W,32.13,259.30,181210,,,A*4D
$GPRMC,173946.000,A,3306.4423,N,11703.9599,W,34.52,259.00,181210,,,A*48
$GPRMC,173949.000,A,3306.4339,N,11704.0050,W,34.50,257.40,181210,,,A*4D
$GPRMC,173952.000,A,3306.4290,N,11704.0366,W,31.59,259.20,181210,,,A*47
$GPRMC,173955.000,A,3306.4240,N,11704.0643,W,28.67,257.20,181210,,,A*44
$GPRMC,173958.000,A,3306.4221,N,11704.0871,W,21.87,264.80,181210,,,A*4C
$GPRMC,174001.000,A,3306.4187,N,11704.1051,W,17.50,258.90,181210,,,A*4B
$GPRMC,174004.000,A,3306.4171,N,11704.1155,W,7.29,258.20,181210,,,A*76
$GPRMC,174007.000,A,3306.4177,N,11704.1186,W,6.80,282.40,181210,,,A*7E
$GPRMC,174009.000,A,3306.4205,N,11704.1228,W,8.75,310.10,181210,,,A*7A
$GPRMC,174013.000,A,3306.4432,N,11704.1331,W,21.87,339.80,181210,,,A*4E
$GPRMC,174016.000,A,3306.4669,N,11704.1382,W,27.70,345.70,181210,,,A*45
$GPRMC,174019.000,A,3306.4894,N,11704.1469,W,28.19,343.90,181210,,,A*4C
$GPRMC,174022.000,A,3306.5131,N,11704.1545,W,28.19,345.10,181210,,,A*42
$GPRMC,174025.000,A,3306.5361,N,11704.1623,W,28.19,344.70,181210,,,A*46
$GPRMC,174028.000,A,3306.5604,N,11704.1689,W,28.67,346.00,181210,,,A*41
$GPRMC,174031.000,A,3306.5799,N,11704.1758,W,23.33,344.40,181210,,,A*4D
$GPRMC,174034.000,A,3306.5940,N,11704.1800,W,17.50,346.10,181210,,,A*45
$GPRMC,174037.000,A,3306.6096,N,11704.1850,W,19.44,344.90,181210,,,A*43
$GPRMC,174041.000,A,3306.6319,N,11704.1948,W,23.33,335.90,181210,,,A*41
$GPRMC,174044.000,A,3306.6514,N,11704.2056,W,26.24,330.90,181210,,,A*4C
$GPRMC,174047.000,A,3306.6694,N,11704.2209,W,26.73,325.80,181210,,,A*4B
$GPRMC,174049.000,A,3306.6808,N,11704.2313,W,25.76,325.80,181210,,,A*42
$GPRMC,174054.000,A,3306.7128,N,11704.2522,W,25.27,329.60,181210,,,A*46
$GPRMC,174057.000,A,3306.7297,N,11704.2662,W,24.30,325.60,181210,,,A*4E
$GPRMC,174100.000,A,3306.7485,N,11704.2795,W,26.24,327.30,181210,,,A*41
$GPRMC,174103.000,A,3306.7668,N,11704.2910,W,25.76,328.40,181210,,,A*4C
$GPRMC,174108.000,A,3306.7972,N,11704.3127,W,26.73,328.60,181210,,,A*4A
$GPRMC,174110.000,A,3306.8107,N,11704.3235,W,28.19,328.10,181210,,,A*43
$GPRMC,174114.000,A,3306.8389,N,11704.3419,W,28.19,328.80,181210,,,A*42
$GPRMC,174118.000,A,3306.8660,N,11704.3601,W,27.70,330.60,181210,,,A*40
$GPRMC,174121.000,A,3306.8858,N,11704.3756,W,27.22,328.90,181210,,,A*4D
$GPRMC,174124.000,A,3306.9048,N,11704.3883,W,26.24,330.30,181210,,,A*43
$GPRMC,174127.000,A,3306.9206,N,11704.4021,W,23.33,327.40,181210,,,A*4D
$GPRMC,174130.000,A,3306.9348,N,11704.4123,W,18.47,331.70,181210,,,A*4C
$GPRMC,174133.000,A,3306.9507,N,11704.4184,W,20.90,334.60,181210,,,A*4A
$GPRMC,174136.000,A,3306.9666,N,11704.4305,W,25.27,330.60,181210,,,A*4D
$GPRMC,174139.000,A,3306.9867,N,11704.4451,W,28.67,331.90,181210,,,A*4C
$GPRMC,174142.000,A,3307.0077,N,11704.4591,W,28.19,331.10,181210,,,A*4D
$GPRMC,174145.000,A,3307.0275,N,11704.4719,W,28.67,328.70,181210,,,A*4F
$GPRMC,174148.000,A,3307.0483,N,11704.4876,W,31.10,327.80,181210,,,A*43
$GPRMC,174151.000,A,3307.0713,N,11704.5039,W,32.07,330.40,181210,,,A*4C
$GPRMC,174154.000,A,3307.0946,N,11704.5227,W,32.56,328.40,181210,,,A*47
$GPRMC,174157.000,A,3307.1169,N,11704.5399,W,30.62,330.10,181210,,,A*4D
$GPRMC,174200.000,A,3307.1388,N,11704.5542,W,28.19,330.70,181210,,,A*42
$GPRMC,174204.000,A,3307.1525,N,11704.5632,W,16.04,335.70,181210,,,A*47
$GPRMC,174216.000,A,3307.1581,N,11704.5686,W,6.80,315.60,181210,,,A*7B
$GPRMC,174219.000,A,3307.1703,N,11704.5762,W,18.47,329.90,181210,,,A*43
$GPRMC,174223.000,A,3307.1890,N,11704.5895,W,26.73,328.40,181210,,,A*4E
$GPRMC,174226.000,A,3307.2156,N,11704.6102,W,29.16,328.20,181210,,,A*45
$GPRMC,174229.000,A,3307.2373,N,11704.6251,W,29.65,330.10,181210,,,A*44
$GPRMC,174232.000,A,3307.2574,N,11704.6384,W,27.70,329.70,181210,,,A*42
$GPRMC,174235.000,A,3307.2779,N,11704.6517,W,26.24,331.60,181210,,,A*4E
$GPRMC,174238.000,A,3307.2908,N,11704.6627,W,18.47,327.90,181210,,,A*4B
$GPRMC,174241.000,A,3307.3006,N,11704.6677,W,10.21,333.60,181210,,,A*44
$GPRMC,174250.000,A,3307.3114,N,11704.6768,W,6.32,327.20,181210,,,A*7D
$GPRMC,174253.000,A,3307.3192,N,11704.6816,W,13.61,329.20,181210,,,A*4A
$GPRMC,174257.000,A,3307.3345,N,11704.6918,W,19.44,328.10,181210,,,A*46
$GPRMC,174300.000,A,3307.3510,N,11704.7029,W,17.01,330.20,181210,,,A*4C
$GPRMC,174304.000,A,3307.3634,N,11704.7129,W,14.09,323.30,181210,,,A*44
$GPRMC,174307.000,A,3307.3720,N,11704.7201,W,11.66,324.40,181210,,,A*46
$GPRMC,174310.000,A,3307.3800,N,11704.7301,W,13.61,292.30,181210,,,A*42
$GPRMC,174314.000,A,3307.3760,N,11704.7439,W,15.07,245.70,181210,,,A*4B
