NMEA Sentence Code,UTC Time,Status,Latitude,Latitude Direction,Longitude,Longitude Direction,Speed (knots),Track Angle (degrees true),Date,MagneticVariation,Magnetic Variation Direction,[FAA Mode]-Optional,Checksum
$GPRMC,111702.000,A,3312.5941,N,11718.7444,W,20.90,228.40,240910,,,A*46
$GPRMC,111705.000,A,3312.5854,N,11718.7568,W,12.00,229.20,240910,,,A*44
$GPRMC,111723.000,A,3312.5798,N,11718.7638,W,1.30,214.80,240910,,,A*7C
$GPRMC,111726.000,A,3312.5743,N,11718.7699,W,8.40,214.70,240910,,,A*75
$GPRMC,111729.000,A,3312.5638,N,11718.7708,W,15.20,167.70,240910,,,A*43
$GPRMC,111732.000,A,3312.5507,N,11718.7625,W,20.30,143.40,240910,,,A*4A
$GPRMC,111735.000,A,3312.5345,N,11718.7490,W,26.60,146.70,240910,,,A*44
$GPRMC,111738.000,A,3312.5136,N,11718.7350,W,30.10,153.10,240910,,,A*46
$GPRMC,111741.000,A,3312.4888,N,11718.7222,W,32.70,158.90,240910,,,A*46
$GPRMC,111744.000,A,3312.4634,N,11718.7120,W,31.60,164.60,240910,,,A*49
$GPRMC,111747.000,A,3312.4380,N,11718.7048,W,31.10,169.30,240910,,,A*40
$GPRMC,111750.000,A,3312.4122,N,11718.7006,W,31.80,174.20,240910,,,A*42
$GPRMC,111753.000,A,3312.3847,N,11718.6987,W,33.70,177.30,240910,,,A*42
$GPRMC,111756.000,A,3312.3559,N,11718.6972,W,35.10,177.00,240910,,,A*4C
$GPRMC,111759.000,A,3312.3259,N,11718.6942,W,36.80,172.00,240910,,,A*48
$GPRMC,111802.000,A,3312.2950,N,11718.6884,W,38.00,170.00,240910,,,A*45
$GPRMC,111805.000,A,3312.2643,N,11718.6834,W,35.70,173.80,240910,,,A*45
$GPRMC,111808.000,A,3312.2370,N,11718.6785,W,30.00,169.20,240910,,,A*4B
$GPRMC,111811.000,A,3312.2159,N,11718.6734,W,20.40,168.80,240910,,,A*4E
$GPRMC,111817.000,A,3312.2039,N,11718.6705,W,5.60,171.70,240910,,,A*7F
$GPRMC,111820.000,A,3312.1972,N,11718.6745,W,14.10,232.90,240910,,,A*47
$GPRMC,111823.000,A,3312.1920,N,11718.6916,W,23.10,256.20,240910,,,A*46
$GPRMC,111826.000,A,3312.1866,N,11718.7176,W,30.00,255.50,240910,,,A*48
$GPRMC,111829.000,A,3312.1799,N,11718.7489,W,35.00,255.70,240910,,,A*4A
$GPRMC,111832.000,A,3312.1724,N,11718.7847,W,38.70,256.30,240910,,,A*45
$GPRMC,111835.000,A,3312.1643,N,11718.8236,W,41.60,255.40,240910,,,A*4A
$GPRMC,111838.000,A,3312.1549,N,11718.8647,W,43.50,254.10,240910,,,A*49
$GPRMC,111841.000,A,3312.1443,N,11718.9068,W,44.60,252.80,240910,,,A*4D
$GPRMC,111844.000,A,3312.1332,N,11718.9497,W,45.00,254.20,240910,,,A*46
$GPRMC,111847.000,A,3312.1238,N,11718.9935,W,45.80,257.30,240910,,,A*41
$GPRMC,111850.000,A,3312.1157,N,11719.0385,W,46.10,258.10,240910,,,A*43
$GPRMC,111853.000,A,3312.1080,N,11719.0836,W,46.10,259.90,240910,,,A*41
$GPRMC,111856.000,A,3312.1028,N,11719.1281,W,43.70,264.00,240910,,,A*45
$GPRMC,111859.000,A,3312.1001,N,11719.1706,W,42.80,267.00,240910,,,A*46
$GPRMC,111902.000,A,3312.0995,N,11719.2128,W,42.90,270.20,240910,,,A*40
$GPRMC,111905.000,A,3312.1000,N,11719.2554,W,42.90,270.90,240910,,,A*47
$GPRMC,111908.000,A,3312.1009,N,11719.2982,W,43.20,271.50,240910,,,A*43
$GPRMC,111911.000,A,3312.1022,N,11719.3411,W,43.00,272.30,240910,,,A*43
$GPRMC,111914.000,A,3312.1035,N,11719.3837,W,43.10,271.40,240910,,,A*4D
$GPRMC,111917.000,A,3312.1040,N,11719.4270,W,44.60,270.60,240910,,,A*41
$GPRMC,111920.000,A,3312.1045,N,11719.4713,W,44.30,271.10,240910,,,A*43
$GPRMC,111923.000,A,3312.1051,N,11719.5140,W,41.80,270.50,240910,,,A*4F
$GPRMC,111926.000,A,3312.1049,N,11719.5549,W,41.10,269.30,240910,,,A*49
$GPRMC,111929.000,A,3312.1047,N,11719.5956,W,40.70,269.70,240910,,,A*49
$GPRMC,111932.000,A,3312.1051,N,11719.6354,W,39.40,270.80,240910,,,A*45
$GPRMC,111935.000,A,3312.1054,N,11719.6734,W,37.40,270.50,240910,,,A*46
$GPRMC,111938.000,A,3312.1059,N,11719.7094,W,35.10,271.20,240910,,,A*4B
$GPRMC,111941.000,A,3312.1065,N,11719.7435,W,33.40,271.10,240910,,,A*45
$GPRMC,111944.000,A,3312.1070,N,11719.7762,W,32.90,270.40,240910,,,A*4D
$GPRMC,111947.000,A,3312.1077,N,11719.8092,W,33.60,272.70,240910,,,A*41
$GPRMC,111950.000,A,3312.1096,N,11719.8420,W,32.40,272.50,240910,,,A*44
$GPRMC,111953.000,A,3312.1098,N,11719.8723,W,28.10,270.40,240910,,,A*44
$GPRMC,111956.000,A,3312.1089,N,11719.8967,W,22.10,265.60,240910,,,A*43
$GPRMC,111959.000,A,3312.1086,N,11719.9133,W,13.10,270.20,240910,,,A*49
$GPRMC,112008.000,A,3312.1088,N,11719.9232,W,5.50,268.90,240910,,,A*7A
$GPRMC,112011.000,A,3312.1072,N,11719.9319,W,11.40,242.20,240910,,,A*48
$GPRMC,112014.000,A,3312.0995,N,11719.9373,W,11.60,185.40,240910,,,A*4C
$GPRMC,112017.000,A,3312.0868,N,11719.9304,W,21.10,149.30,240910,,,A*4F
$GPRMC,112020.000,A,3312.0690,N,11719.9170,W,28.80,146.80,240910,,,A*47
$GPRMC,112023.000,A,3312.0469,N,11719.9001,W,32.90,147.50,240910,,,A*41
$GPRMC,112026.000,A,3312.0230,N,11719.8822,W,34.60,147.70,240910,,,A*4D
$GPRMC,112029.000,A,3311.9975,N,11719.8634,W,35.60,148.30,240910,,,A*41
$GPRMC,112032.000,A,3311.9723,N,11719.8451,W,34.70,150.00,240910,,,A*4D
$GPRMC,112035.000,A,3311.9467,N,11719.8299,W,33.60,155.60,240910,,,A*4E
$GPRMC,112038.000,A,3311.9212,N,11719.8165,W,32.60,157.10,240910,,,A*43
$GPRMC,112041.000,A,3311.8962,N,11719.8038,W,32.00,156.90,240910,,,A*46
$GPRMC,112044.000,A,3311.8710,N,11719.7911,W,33.50,157.10,240910,,,A*48
$GPRMC,112047.000,A,3311.8445,N,11719.7778,W,35.50,157.60,240910,,,A*48
$GPRMC,112050.000,A,3311.8166,N,11719.7640,W,35.70,157.60,240910,,,A*42
$GPRMC,112053.000,A,3311.7890,N,11719.7500,W,35.80,156.90,240910,,,A*48
$GPRMC,112056.000,A,3311.7620,N,11719.7358,W,35.20,156.30,240910,,,A*43
$GPRMC,112059.000,A,3311.7350,N,11719.7221,W,35.00,157.50,240910,,,A*44
$GPRMC,112102.000,A,3311.7080,N,11719.7086,W,35.00,156.90,240910,,,A*47
$GPRMC,112105.000,A,3311.6805,N,11719.6956,W,35.40,161.00,240910,,,A*48
$GPRMC,112108.000,A,3311.6519,N,11719.6875,W,35.30,172.60,240910,,,A*46
$GPRMC,112111.000,A,3311.6225,N,11719.6858,W,35.10,180.70,240910,,,A*47
$GPRMC,112114.000,A,3311.5929,N,11719.6864,W,36.10,181.40,240910,,,A*48
$GPRMC,112117.000,A,3311.5620,N,11719.6874,W,36.70,181.30,240910,,,A*4D
$GPRMC,112120.000,A,3311.5311,N,11719.6883,W,37.10,181.40,240910,,,A*46
$GPRMC,112123.000,A,3311.5000,N,11719.6896,W,37.20,182.30,240910,,,A*45
$GPRMC,112126.000,A,3311.4687,N,11719.6908,W,36.90,181.20,240910,,,A*46
$GPRMC,112129.000,A,3311.4382,N,11719.6920,W,35.90,182.00,240910,,,A*41
$GPRMC,112132.000,A,3311.4095,N,11719.6935,W,33.90,182.00,240910,,,A*4C
$GPRMC,112135.000,A,3311.3832,N,11719.6961,W,31.90,187.10,240910,,,A*4E
$GPRMC,112138.000,A,3311.3568,N,11719.7004,W,31.60,187.70,240910,,,A*43
$GPRMC,112141.000,A,3311.3303,N,11719.7037,W,32.80,185.10,240910,,,A*4F
$GPRMC,112144.000,A,3311.3025,N,11719.7064,W,34.00,185.00,240910,,,A*44
$GPRMC,112147.000,A,3311.2739,N,11719.7093,W,33.50,184.20,240910,,,A*45
$GPRMC,112150.000,A,3311.2460,N,11719.7105,W,33.60,180.20,240910,,,A*45
$GPRMC,112153.000,A,3311.2178,N,11719.7096,W,33.60,177.80,240910,,,A*43
$GPRMC,112156.000,A,3311.1893,N,11719.7066,W,34.30,173.00,240910,,,A*48
$GPRMC,112159.000,A,3311.1604,N,11719.7015,W,35.50,170.10,240910,,,A*46
$GPRMC,112202.000,A,3311.1316,N,11719.6938,W,35.10,165.60,240910,,,A*4D
$GPRMC,112205.000,A,3311.1041,N,11719.6836,W,34.30,160.20,240910,,,A*46
$GPRMC,112208.000,A,3311.0770,N,11719.6703,W,36.30,155.50,240910,,,A*45
$GPRMC,112211.000,A,3311.0502,N,11719.6551,W,34.00,154.50,240910,,,A*4F
$GPRMC,112214.000,A,3311.0275,N,11719.6433,W,27.60,160.10,240910,,,A*4F
$GPRMC,112217.000,A,3311.0081,N,11719.6371,W,21.30,168.40,240910,,,A*4A
$GPRMC,112220.000,A,3310.9914,N,11719.6341,W,23.70,172.90,240910,,,A*40
$GPRMC,112223.000,A,3310.9707,N,11719.6321,W,25.10,176.20,240910,,,A*46
$GPRMC,112226.000,A,3310.9524,N,11719.6308,W,18.80,177.40,240910,,,A*4B
$GPRMC,112232.000,A,3310.9465,N,11719.6305,W,1.30,175.10,240910,,,A*73
$GPRMC,112235.000,A,3310.9392,N,11719.6337,W,12.40,215.80,240910,,,A*43
$GPRMC,112238.000,A,3310.9286,N,11719.6509,W,22.80,237.60,240910,,,A*40
$GPRMC,112241.000,A,3310.9141,N,11719.6780,W,34.60,239.80,240910,,,A*4C
$GPRMC,112244.000,A,3310.8982,N,11719.7134,W,42.80,248.60,240910,,,A*40
$GPRMC,112247.000,A,3310.8868,N,11719.7564,W,47.20,253.80,240910,,,A*4C
$GPRMC,112250.000,A,3310.8820,N,11719.8057,W,52.10,266.00,240910,,,A*45
$GPRMC,112253.000,A,3310.8801,N,11719.8588,W,55.60,267.50,240910,,,A*46
$GPRMC,112256.000,A,3310.8790,N,11719.9156,W,58.30,269.80,240910,,,A*49
$GPRMC,112259.000,A,3310.8788,N,11719.9750,W,60.40,269.80,240910,,,A*43
$GPRMC,112302.000,A,3310.8786,N,11720.0353,W,60.30,269.50,240910,,,A*4C
$GPRMC,112305.000,A,3310.8782,N,11720.0941,W,57.90,269.70,240910,,,A*4A
$GPRMC,112308.000,A,3310.8780,N,11720.1505,W,55.90,269.60,240910,,,A*4B
$GPRMC,112311.000,A,3310.8773,N,11720.2055,W,55.80,268.40,240910,,,A*4E
$GPRMC,112314.000,A,3310.8756,N,11720.2620,W,58.30,268.10,240910,,,A*4B
$GPRMC,112317.000,A,3310.8748,N,11720.3210,W,60.50,269.80,240910,,,A*44
$GPRMC,112320.000,A,3310.8746,N,11720.3813,W,61.40,270.10,240910,,,A*46
$GPRMC,112323.000,A,3310.8747,N,11720.4403,W,58.00,270.30,240910,,,A*42
$GPRMC,112326.000,A,3310.8747,N,11720.4970,W,56.20,268.90,240910,,,A*41
$GPRMC,112329.000,A,3310.8717,N,11720.5531,W,56.50,263.30,240910,,,A*45
$GPRMC,112332.000,A,3310.8634,N,11720.6081,W,55.40,257.30,240910,,,A*47
$GPRMC,112335.000,A,3310.8508,N,11720.6613,W,55.50,251.80,240910,,,A*4D
$GPRMC,112338.000,A,3310.8345,N,11720.7121,W,54.30,246.70,240910,,,A*46
$GPRMC,112341.000,A,3310.8141,N,11720.7618,W,56.90,241.30,240910,,,A*48
$GPRMC,112344.000,A,3310.7892,N,11720.8107,W,57.70,236.10,240910,,,A*4E
$GPRMC,112347.000,A,3310.7607,N,11720.8580,W,59.50,233.50,240910,,,A*49
$GPRMC,112350.000,A,3310.7311,N,11720.9052,W,59.30,233.30,240910,,,A*46
$GPRMC,112353.000,A,3310.7022,N,11720.9518,W,57.10,233.90,240910,,,A*4B
$GPRMC,112356.000,A,3310.6753,N,11720.9957,W,52.50,233.30,240910,,,A*42
$GPRMC,112359.000,A,3310.6516,N,11721.0343,W,43.90,234.00,240910,,,A*41
$GPRMC,112402.000,A,3310.6330,N,11721.0658,W,36.50,235.80,240910,,,A*42
$GPRMC,112405.000,A,3310.6156,N,11721.0951,W,35.90,234.20,240910,,,A*45
$GPRMC,112408.000,A,3310.5989,N,11721.1189,W,30.80,225.50,240910,,,A*4E
$GPRMC,112411.000,A,3310.5929,N,11721.1213,W,14.90,180.10,240910,,,A*43
$GPRMC,112414.000,A,3310.5767,N,11721.1192,W,21.80,170.90,240910,,,A*48
$GPRMC,112417.000,A,3310.5558,N,11721.1153,W,26.50,168.20,240910,,,A*40
$GPRMC,112420.000,A,3310.5336,N,11721.1085,W,28.10,162.30,240910,,,A*41
$GPRMC,112423.000,A,3310.5146,N,11721.0938,W,27.00,139.70,240910,,,A*4D
$GPRMC,112426.000,A,3310.5133,N,11721.0653,W,31.10,87.60,240910,,,A*7B
$GPRMC,112429.000,A,3310.5113,N,11721.0329,W,33.70,105.40,240910,,,A*43
$GPRMC,112432.000,A,3310.4955,N,11721.0043,W,36.60,138.60,240910,,,A*45
$GPRMC,112435.000,A,3310.4687,N,11720.9808,W,43.30,145.30,240910,,,A*45
$GPRMC,112438.000,A,3310.4377,N,11720.9554,W,45.10,145.20,240910,,,A*43
$GPRMC,112441.000,A,3310.4063,N,11720.9302,W,46.20,147.10,240910,,,A*4F
$GPRMC,112444.000,A,3310.3732,N,11720.9049,W,47.90,147.30,240910,,,A*4A
$GPRMC,112447.000,A,3310.3376,N,11720.8783,W,51.30,147.80,240910,,,A*4B
$GPRMC,112450.000,A,3310.3005,N,11720.8508,W,52.80,147.80,240910,,,A*43
$GPRMC,112453.000,A,3310.2625,N,11720.8225,W,54.40,147.80,240910,,,A*47
$GPRMC,112456.000,A,3310.2236,N,11720.7930,W,56.00,147.30,240910,,,A*49
$GPRMC,112459.000,A,3310.1828,N,11720.7629,W,57.80,148.20,240910,,,A*40
$GPRMC,112502.000,A,3310.1410,N,11720.7332,W,59.20,150.50,240910,,,A*4D
$GPRMC,112505.000,A,3310.0972,N,11720.7049,W,60.50,153.60,240910,,,A*40
$GPRMC,112508.000,A,3310.0509,N,11720.6792,W,61.10,156.20,240910,,,A*49
$GPRMC,112511.000,A,3310.0038,N,11720.6549,W,62.20,157.00,240910,,,A*41
$GPRMC,112514.000,A,3309.9554,N,11720.6300,W,63.60,156.10,240910,,,A*44
$GPRMC,112517.000,A,3309.9068,N,11720.6038,W,64.30,155.50,240910,,,A*40
$GPRMC,112520.000,A,3309.8578,N,11720.5784,W,63.90,156.80,240910,,,A*41
$GPRMC,112523.000,A,3309.8089,N,11720.5537,W,63.40,156.80,240910,,,A*4E
$GPRMC,112526.000,A,3309.7601,N,11720.5290,W,63.60,156.80,240910,,,A*4A
$GPRMC,112529.000,A,3309.7110,N,11720.5038,W,64.40,156.80,240910,,,A*47
$GPRMC,112532.000,A,3309.6607,N,11720.4786,W,65.10,157.00,240910,,,A*43
$GPRMC,112535.000,A,3309.6106,N,11720.4530,W,65.40,156.70,240910,,,A*4E
$GPRMC,112538.000,A,3309.5605,N,11720.4271,W,65.50,156.70,240910,,,A*47
$GPRMC,112541.000,A,3309.5103,N,11720.4020,W,65.20,156.80,240910,,,A*46
$GPRMC,112544.000,A,3309.4616,N,11720.3773,W,61.90,156.80,240910,,,A*48
$GPRMC,112547.000,A,3309.4143,N,11720.3530,W,61.30,157.00,240910,,,A*4A
$GPRMC,112550.000,A,3309.3676,N,11720.3292,W,60.80,157.10,240910,,,A*4E
$GPRMC,112553.000,A,3309.3212,N,11720.3061,W,60.10,157.20,240910,,,A*4F
$GPRMC,112556.000,A,3309.2760,N,11720.2821,W,59.20,155.90,240910,,,A*46
$GPRMC,112559.000,A,3309.2318,N,11720.2577,W,58.00,155.20,240910,,,A*44
$GPRMC,112602.000,A,3309.1893,N,11720.2325,W,57.00,154.20,240910,,,A*4D
$GPRMC,112605.000,A,3309.1464,N,11720.2078,W,56.50,154.30,240910,,,A*40
$GPRMC,112608.000,A,3309.1036,N,11720.1830,W,57.20,154.10,240910,,,A*4D
$GPRMC,112611.000,A,3309.0604,N,11720.1580,W,58.20,154.20,240910,,,A*49
$GPRMC,112614.000,A,3309.0166,N,11720.1325,W,59.50,153.90,240910,,,A*4C
$GPRMC,112617.000,A,3308.9715,N,11720.1065,W,60.10,153.90,240910,,,A*4C
$GPRMC,112620.000,A,3308.9262,N,11720.0804,W,59.70,154.90,240910,,,A*48
$GPRMC,112623.000,A,3308.8813,N,11720.0569,W,57.80,158.30,240910,,,A*47
$GPRMC,112626.000,A,3308.8346,N,11720.0410,W,58.50,167.30,240910,,,A*48
$GPRMC,112629.000,A,3308.7871,N,11720.0315,W,57.40,172.90,240910,,,A*45
$GPRMC,112632.000,A,3308.7387,N,11720.0281,W,58.20,177.30,240910,,,A*47
$GPRMC,112635.000,A,3308.6906,N,11720.0254,W,57.00,177.10,240910,,,A*45
$GPRMC,112638.000,A,3308.6453,N,11720.0221,W,53.20,176.60,240910,,,A*47
$GPRMC,112641.000,A,3308.6030,N,11720.0198,W,50.90,175.00,240910,,,A*44
$GPRMC,112644.000,A,3308.5608,N,11720.0130,W,51.70,168.10,240910,,,A*4F
$GPRMC,112647.000,A,3308.5190,N,11719.9983,W,52.60,159.60,240910,,,A*4E
$GPRMC,112650.000,A,3308.4780,N,11719.9772,W,54.70,155.60,240910,,,A*45
$GPRMC,112653.000,A,3308.4355,N,11719.9551,W,56.40,156.80,240910,,,A*45
$GPRMC,112656.000,A,3308.3915,N,11719.9329,W,57.60,156.80,240910,,,A*43
$GPRMC,112659.000,A,3308.3467,N,11719.9103,W,58.60,157.00,240910,,,A*48
$GPRMC,112702.000,A,3308.3013,N,11719.8873,W,59.40,157.00,240910,,,A*4C
$GPRMC,112705.000,A,3308.2550,N,11719.8638,W,60.70,156.80,240910,,,A*49
$GPRMC,112708.000,A,3308.2081,N,11719.8398,W,61.40,156.80,240910,,,A*40
$GPRMC,112711.000,A,3308.1608,N,11719.8159,W,61.20,156.80,240910,,,A*45
$GPRMC,112714.000,A,3308.1144,N,11719.7925,W,60.40,156.90,240910,,,A*45
$GPRMC,112717.000,A,3308.0681,N,11719.7688,W,60.00,157.30,240910,,,A*4E
$GPRMC,112720.000,A,3308.0207,N,11719.7439,W,62.10,155.70,240910,,,A*4D
$GPRMC,112723.000,A,3307.9741,N,11719.7173,W,62.40,154.20,240910,,,A*45
$GPRMC,112726.000,A,3307.9275,N,11719.6896,W,62.30,153.30,240910,,,A*40
$GPRMC,112729.000,A,3307.8814,N,11719.6619,W,61.40,153.50,240910,,,A*48
$GPRMC,112732.000,A,3307.8367,N,11719.6352,W,60.10,153.10,240910,,,A*47
$GPRMC,112735.000,A,3307.7915,N,11719.6081,W,60.90,153.30,240910,,,A*47
$GPRMC,112738.000,A,3307.7459,N,11719.5807,W,61.90,153.30,240910,,,A*4B
$GPRMC,112741.000,A,3307.6999,N,11719.5535,W,61.00,153.60,240910,,,A*45
$GPRMC,112744.000,A,3307.6544,N,11719.5273,W,60.30,154.50,240910,,,A*4F
$GPRMC,112747.000,A,3307.6095,N,11719.5018,W,58.90,153.70,240910,,,A*4E
$GPRMC,112750.000,A,3307.5659,N,11719.4758,W,57.90,153.20,240910,,,A*45
$GPRMC,112753.000,A,3307.5231,N,11719.4503,W,56.70,153.30,240910,,,A*4E
$GPRMC,112756.000,A,3307.4818,N,11719.4252,W,54.60,152.80,240910,,,A*41
$GPRMC,112759.000,A,3307.4414,N,11719.4008,W,54.00,153.20,240910,,,A*4E
$GPRMC,112802.000,A,3307.4013,N,11719.3771,W,53.40,153.50,240910,,,A*46
$GPRMC,112805.000,A,3307.3613,N,11719.3533,W,53.70,152.90,240910,,,A*4A
$GPRMC,112808.000,A,3307.3214,N,11719.3290,W,53.90,153.00,240910,,,A*4C
$GPRMC,112811.000,A,3307.2806,N,11719.3046,W,55.30,153.40,240910,,,A*4D
$GPRMC,112814.000,A,3307.2388,N,11719.2801,W,56.20,153.30,240910,,,A*4A
$GPRMC,112817.000,A,3307.1972,N,11719.2549,W,56.30,153.30,240910,,,A*45
$GPRMC,112820.000,A,3307.1551,N,11719.2297,W,56.70,153.20,240910,,,A*4D
$GPRMC,112823.000,A,3307.1129,N,11719.2042,W,56.50,153.20,240910,,,A*4D
$GPRMC,112826.000,A,3307.0710,N,11719.1791,W,55.90,153.20,240910,,,A*40
$GPRMC,112829.000,A,3307.0299,N,11719.1544,W,55.20,153.20,240910,,,A*4A
$GPRMC,112832.000,A,3306.9885,N,11719.1296,W,56.20,153.30,240910,,,A*45
$GPRMC,112835.000,A,3306.9463,N,11719.1044,W,56.70,153.10,240910,,,A*4C
$GPRMC,112838.000,A,3306.9037,N,11719.0787,W,57.60,153.00,240910,,,A*4C
$GPRMC,112841.000,A,3306.8605,N,11719.0527,W,58.40,153.20,240910,,,A*43
$GPRMC,112844.000,A,3306.8169,N,11719.0269,W,58.10,153.40,240910,,,A*45
$GPRMC,112847.000,A,3306.7737,N,11719.0007,W,58.20,153.10,240910,,,A*48
$GPRMC,112850.000,A,3306.7304,N,11718.9745,W,58.00,152.90,240910,,,A*48
$GPRMC,112853.000,A,3306.6866,N,11718.9487,W,58.60,153.70,240910,,,A*41
$GPRMC,112856.000,A,3306.6427,N,11718.9228,W,58.40,153.00,240910,,,A*4B
$GPRMC,112859.000,A,3306.5990,N,11718.8964,W,59.30,153.00,240910,,,A*42
$GPRMC,112902.000,A,3306.5547,N,11718.8696,W,59.50,153.00,240910,,,A*4F
$GPRMC,112905.000,A,3306.5104,N,11718.8423,W,60.20,152.30,240910,,,A*48
$GPRMC,112908.000,A,3306.4657,N,11718.8138,W,61.30,151.20,240910,,,A*48
$GPRMC,112911.000,A,3306.4204,N,11718.7847,W,62.00,151.30,240910,,,A*4D
$GPRMC,112914.000,A,3306.3753,N,11718.7552,W,61.20,151.20,240910,,,A*41
$GPRMC,112917.000,A,3306.3307,N,11718.7263,W,60.50,151.30,240910,,,A*45
$GPRMC,112920.000,A,3306.2867,N,11718.6976,W,60.10,151.10,240910,,,A*45
$GPRMC,112923.000,A,3306.2427,N,11718.6689,W,60.10,151.20,240910,,,A*42
$GPRMC,112926.000,A,3306.1985,N,11718.6402,W,60.50,151.40,240910,,,A*42
$GPRMC,112929.000,A,3306.1547,N,11718.6119,W,59.30,151.40,240910,,,A*4C
$GPRMC,112932.000,A,3306.1111,N,11718.5837,W,59.70,151.20,240910,,,A*45
$GPRMC,112935.000,A,3306.0671,N,11718.5551,W,60.20,151.40,240910,,,A*46
$GPRMC,112938.000,A,3306.0228,N,11718.5264,W,60.40,151.60,240910,,,A*46
$GPRMC,112941.000,A,3305.9787,N,11718.4976,W,60.30,151.00,240910,,,A*4A
$GPRMC,112944.000,A,3305.9343,N,11718.4686,W,61.10,151.60,240910,,,A*46
$GPRMC,112947.000,A,3305.8896,N,11718.4397,W,61.60,151.00,240910,,,A*43
$GPRMC,112950.000,A,3305.8442,N,11718.4101,W,62.60,151.40,240910,,,A*4A
$GPRMC,112953.000,A,3305.7980,N,11718.3801,W,63.40,151.40,240910,,,A*48
$GPRMC,112956.000,A,3305.7513,N,11718.3499,W,63.80,151.20,240910,,,A*4C
$GPRMC,112959.000,A,3305.7050,N,11718.3195,W,63.00,151.20,240910,,,A*40
$GPRMC,113002.000,A,3305.6590,N,11718.2896,W,62.30,151.10,240910,,,A*44
$GPRMC,113005.000,A,3305.6139,N,11718.2603,W,61.30,151.40,240910,,,A*40
$GPRMC,113008.000,A,3305.5692,N,11718.2309,W,61.30,151.20,240910,,,A*41
$GPRMC,113011.000,A,3305.5239,N,11718.2016,W,61.80,151.40,240910,,,A*4C
$GPRMC,113014.000,A,3305.4786,N,11718.1722,W,61.80,151.00,240910,,,A*4E
$GPRMC,113017.000,A,3305.4335,N,11718.1428,W,61.10,151.60,240910,,,A*47
$GPRMC,113020.000,A,3305.3890,N,11718.1140,W,60.30,151.50,240910,,,A*4B
$GPRMC,113023.000,A,3305.3448,N,11718.0851,W,60.60,151.10,240910,,,A*48
$GPRMC,113026.000,A,3305.3003,N,11718.0560,W,60.90,151.40,240910,,,A*43
$GPRMC,113029.000,A,3305.2557,N,11718.0268,W,60.50,151.20,240910,,,A*4C
$GPRMC,113032.000,A,3305.2116,N,11717.9982,W,59.90,151.50,240910,,,A*4F
$GPRMC,113035.000,A,3305.1680,N,11717.9699,W,59.60,151.30,240910,,,A*4F
$GPRMC,113038.000,A,3305.1243,N,11717.9416,W,60.30,151.40,240910,,,A*44
$GPRMC,113041.000,A,3305.0797,N,11717.9138,W,60.40,154.20,240910,,,A*4A
$GPRMC,113044.000,A,3305.0337,N,11717.8899,W,59.90,158.50,240910,,,A*4E
$GPRMC,113047.000,A,3304.9860,N,11717.8709,W,60.00,163.10,240910,,,A*45
$GPRMC,113050.000,A,3304.9374,N,11717.8552,W,60.30,165.70,240910,,,A*42
$GPRMC,113053.000,A,3304.8883,N,11717.8407,W,60.70,166.00,240910,,,A*42
$GPRMC,113056.000,A,3304.8390,N,11717.8261,W,61.10,165.80,240910,,,A*44
$GPRMC,113059.000,A,3304.7895,N,11717.8111,W,61.00,165.80,240910,,,A*4F
$GPRMC,113102.000,A,3304.7403,N,11717.7963,W,60.60,165.80,240910,,,A*46
$GPRMC,113105.000,A,3304.6918,N,11717.7816,W,59.50,165.70,240910,,,A*42
$GPRMC,113108.000,A,3304.6439,N,11717.7672,W,58.80,165.90,240910,,,A*4F
$GPRMC,113111.000,A,3304.5966,N,11717.7530,W,58.10,165.70,240910,,,A*41
$GPRMC,113114.000,A,3304.5500,N,11717.7390,W,57.20,165.80,240910,,,A*47
$GPRMC,113117.000,A,3304.5038,N,11717.7251,W,57.00,165.90,240910,,,A*45
$GPRMC,113120.000,A,3304.4577,N,11717.7112,W,57.40,165.70,240910,,,A*40
$GPRMC,113123.000,A,3304.4109,N,11717.6972,W,58.10,165.80,240910,,,A*44
$GPRMC,113126.000,A,3304.3637,N,11717.6831,W,58.50,165.70,240910,,,A*41
$GPRMC,113129.000,A,3304.3162,N,11717.6688,W,59.00,165.90,240910,,,A*4F
$GPRMC,113132.000,A,3304.2682,N,11717.6544,W,59.60,165.70,240910,,,A*46
$GPRMC,113135.000,A,3304.2196,N,11717.6397,W,60.40,165.70,240910,,,A*43
$GPRMC,113138.000,A,3304.1705,N,11717.6250,W,60.80,165.90,240910,,,A*49
$GPRMC,113141.000,A,3304.1215,N,11717.6105,W,60.20,165.90,240910,,,A*4A
$GPRMC,113144.000,A,3304.0731,N,11717.5960,W,59.60,165.60,240910,,,A*44
$GPRMC,113147.000,A,3304.0252,N,11717.5816,W,58.90,165.70,240910,,,A*48
$GPRMC,113150.000,A,3303.9778,N,11717.5672,W,58.20,165.70,240910,,,A*4A
$GPRMC,113153.000,A,3303.9310,N,11717.5530,W,57.60,165.60,240910,,,A*4C
$GPRMC,113156.000,A,3303.8843,N,11717.5389,W,57.90,165.90,240910,,,A*41
$GPRMC,113159.000,A,3303.8370,N,11717.5251,W,58.30,166.00,240910,,,A*4E
$GPRMC,113202.000,A,3303.7902,N,11717.5110,W,57.50,165.70,240910,,,A*48
$GPRMC,113205.000,A,3303.7437,N,11717.4971,W,57.50,165.80,240910,,,A*45
$GPRMC,113208.000,A,3303.6969,N,11717.4833,W,58.10,166.10,240910,,,A*49
$GPRMC,113211.000,A,3303.6487,N,11717.4685,W,59.40,165.80,240910,,,A*41
$GPRMC,113214.000,A,3303.6008,N,11717.4545,W,59.10,165.80,240910,,,A*4D
$GPRMC,113217.000,A,3303.5534,N,11717.4401,W,58.70,165.60,240910,,,A*4F
$GPRMC,113220.000,A,3303.5063,N,11717.4260,W,58.40,165.90,240910,,,A*41
$GPRMC,113223.000,A,3303.4592,N,11717.4121,W,57.80,165.80,240910,,,A*4C
$GPRMC,113226.000,A,3303.4126,N,11717.3984,W,57.30,165.80,240910,,,A*49
$GPRMC,113229.000,A,3303.3660,N,11717.3840,W,57.40,165.90,240910,,,A*4B
$GPRMC,113232.000,A,3303.3200,N,11717.3700,W,56.90,165.70,240910,,,A*4A
$GPRMC,113235.000,A,3303.2742,N,11717.3561,W,56.30,165.60,240910,,,A*41
$GPRMC,113238.000,A,3303.2290,N,11717.3427,W,55.80,165.80,240910,,,A*43
$GPRMC,113241.000,A,3303.1840,N,11717.3293,W,55.50,166.00,240910,,,A*46
$GPRMC,113244.000,A,3303.1396,N,11717.3161,W,54.40,165.70,240910,,,A*49
$GPRMC,113247.000,A,3303.0957,N,11717.3028,W,54.30,165.70,240910,,,A*47
$GPRMC,113250.000,A,3303.0519,N,11717.2895,W,53.80,165.80,240910,,,A*4B
$GPRMC,113253.000,A,3303.0079,N,11717.2765,W,55.30,165.60,240910,,,A*48
$GPRMC,113256.000,A,3302.9631,N,11717.2629,W,55.80,165.90,240910,,,A*42
$GPRMC,113259.000,A,3302.9174,N,11717.2492,W,56.50,165.70,240910,,,A*49
$GPRMC,113302.000,A,3302.8718,N,11717.2355,W,56.40,165.80,240910,,,A*49
$GPRMC,113305.000,A,3302.8257,N,11717.2216,W,57.00,165.60,240910,,,A*4D
$GPRMC,113308.000,A,3302.7791,N,11717.2073,W,57.80,165.70,240910,,,A*48
$GPRMC,113311.000,A,3302.7320,N,11717.1929,W,58.90,165.80,240910,,,A*4A
$GPRMC,113314.000,A,3302.6841,N,11717.1785,W,59.70,165.90,240910,,,A*44
$GPRMC,113317.000,A,3302.6351,N,11717.1637,W,60.80,165.70,240910,,,A*4E
$GPRMC,113320.000,A,3302.5858,N,11717.1483,W,61.50,165.10,240910,,,A*4C
$GPRMC,113323.000,A,3302.5379,N,11717.1296,W,60.30,160.40,240910,,,A*42
$GPRMC,113326.000,A,3302.4919,N,11717.1074,W,59.60,156.80,240910,,,A*42
$GPRMC,113329.000,A,3302.4482,N,11717.0813,W,58.10,151.70,240910,,,A*44
$GPRMC,113333.000,A,3302.3909,N,11717.0438,W,58.70,150.40,240910,,,A*47
$GPRMC,113336.000,A,3302.3492,N,11717.0158,W,57.40,150.40,240910,,,A*42
$GPRMC,113339.000,A,3302.3077,N,11716.9877,W,57.30,150.70,240910,,,A*4A
$GPRMC,113342.000,A,3302.2662,N,11716.9594,W,57.50,150.10,240910,,,A*45
$GPRMC,113345.000,A,3302.2246,N,11716.9312,W,57.50,150.50,240910,,,A*4C
$GPRMC,113348.000,A,3302.1828,N,11716.9031,W,57.80,150.40,240910,,,A*4E
$GPRMC,113351.000,A,3302.1408,N,11716.8747,W,58.30,150.30,240910,,,A*4C
$GPRMC,113354.000,A,3302.0981,N,11716.8462,W,59.10,150.40,240910,,,A*44
$GPRMC,113357.000,A,3302.0548,N,11716.8172,W,60.00,150.60,240910,,,A*43
$GPRMC,113400.000,A,3302.0107,N,11716.7877,W,60.90,150.60,240910,,,A*43
$GPRMC,113403.000,A,3301.9665,N,11716.7582,W,60.90,150.50,240910,,,A*4D
$GPRMC,113406.000,A,3301.9223,N,11716.7282,W,61.10,150.10,240910,,,A*44
$GPRMC,113409.000,A,3301.8784,N,11716.6970,W,60.90,149.10,240910,,,A*44
$GPRMC,113412.000,A,3301.8347,N,11716.6667,W,59.90,150.20,240910,,,A*4D
$GPRMC,113415.000,A,3301.7919,N,11716.6379,W,58.20,151.00,240910,,,A*47
$GPRMC,113418.000,A,3301.7490,N,11716.6093,W,58.30,151.60,240910,,,A*46
$GPRMC,113421.000,A,3301.7073,N,11716.5817,W,57.30,150.50,240910,,,A*4F
$GPRMC,113424.000,A,3301.6657,N,11716.5536,W,56.80,150.00,240910,,,A*4A
$GPRMC,113427.000,A,3301.6241,N,11716.5255,W,57.30,150.50,240910,,,A*47
$GPRMC,113430.000,A,3301.5811,N,11716.4976,W,58.80,152.10,240910,,,A*44
$GPRMC,113433.000,A,3301.5356,N,11716.4731,W,60.00,157.70,240910,,,A*42
$GPRMC,113436.000,A,3301.4878,N,11716.4523,W,61.00,162.20,240910,,,A*42
$GPRMC,113439.000,A,3301.4386,N,11716.4362,W,61.10,166.90,240910,,,A*4A
$GPRMC,113442.000,A,3301.3885,N,11716.4244,W,61.50,170.00,240910,,,A*46
$GPRMC,113445.000,A,3301.3372,N,11716.4145,W,62.90,171.20,240910,,,A*4C
$GPRMC,113448.000,A,3301.2851,N,11716.4055,W,63.00,171.80,240910,,,A*48
$GPRMC,113451.000,A,3301.2330,N,11716.3958,W,63.10,170.30,240910,,,A*44
$GPRMC,113454.000,A,3301.1822,N,11716.3837,W,61.50,166.70,240910,,,A*47
$GPRMC,113457.000,A,3301.1330,N,11716.3675,W,61.20,163.00,240910,,,A*41
$GPRMC,113500.000,A,3301.0854,N,11716.3470,W,60.50,159.20,240910,,,A*40
$GPRMC,113503.000,A,3301.0395,N,11716.3224,W,60.10,154.80,240910,,,A*41
$GPRMC,113506.000,A,3300.9958,N,11716.2931,W,59.60,149.00,240910,,,A*40
$GPRMC,113509.000,A,3300.9540,N,11716.2609,W,59.30,144.90,240910,,,A*4F
$GPRMC,113512.000,A,3300.9150,N,11716.2252,W,58.50,140.60,240910,,,A*46
$GPRMC,113515.000,A,3300.8774,N,11716.1872,W,59.30,138.90,240910,,,A*4C
$GPRMC,113518.000,A,3300.8421,N,11716.1465,W,59.10,136.10,240910,,,A*4C
$GPRMC,113521.000,A,3300.8068,N,11716.1058,W,58.70,136.30,240910,,,A*40
$GPRMC,113524.000,A,3300.7714,N,11716.0653,W,58.80,136.20,240910,,,A*44
$GPRMC,113527.000,A,3300.7357,N,11716.0258,W,58.20,137.10,240910,,,A*43
$GPRMC,113530.000,A,3300.7008,N,11715.9870,W,57.40,137.10,240910,,,A*4F
$GPRMC,113533.000,A,3300.6659,N,11715.9490,W,56.80,137.50,240910,,,A*44
$GPRMC,113536.000,A,3300.6365,N,11715.9133,W,53.40,136.10,240910,,,A*4B
$GPRMC,113539.000,A,3300.6050,N,11715.8763,W,54.70,135.50,240910,,,A*40
$GPRMC,113542.000,A,3300.5723,N,11715.8377,W,55.10,135.10,240910,,,A*4E
$GPRMC,113545.000,A,3300.5406,N,11715.7990,W,54.90,134.10,240910,,,A*49
$GPRMC,113548.000,A,3300.5093,N,11715.7605,W,54.00,134.40,240910,,,A*43
$GPRMC,113551.000,A,3300.4764,N,11715.7223,W,54.40,136.10,240910,,,A*46
$GPRMC,113554.000,A,3300.4440,N,11715.6850,W,55.10,136.20,240910,,,A*4E
$GPRMC,113557.000,A,3300.4120,N,11715.6465,W,55.10,135.30,240910,,,A*46
$GPRMC,113600.000,A,3300.3785,N,11715.6082,W,55.50,136.50,240910,,,A*45
$GPRMC,113603.000,A,3300.3428,N,11715.5729,W,55.70,141.10,240910,,,A*41
$GPRMC,113606.000,A,3300.3042,N,11715.5422,W,56.00,148.10,240910,,,A*49
$GPRMC,113609.000,A,3300.2632,N,11715.5146,W,56.50,151.40,240910,,,A*49
$GPRMC,113612.000,A,3300.2186,N,11715.4929,W,57.20,159.30,240910,,,A*42
$GPRMC,113615.000,A,3300.1729,N,11715.4759,W,57.70,164.70,240910,,,A*43
$GPRMC,113618.000,A,3300.1254,N,11715.4639,W,58.40,170.60,240910,,,A*4E
$GPRMC,113621.000,A,3300.0766,N,11715.4555,W,59.40,172.30,240910,,,A*4E
$GPRMC,113624.000,A,3300.0277,N,11715.4478,W,59.20,172.50,240910,,,A*40
$GPRMC,113627.000,A,3259.9786,N,11715.4398,W,60.10,172.40,240910,,,A*4D
$GPRMC,113630.000,A,3259.9285,N,11715.4321,W,60.40,173.10,240910,,,A*4E
$GPRMC,113633.000,A,3259.8791,N,11715.4251,W,59.30,173.20,240910,,,A*44
$GPRMC,113636.000,A,3259.8303,N,11715.4178,W,59.00,172.90,240910,,,A*4F
$GPRMC,113639.000,A,3259.7815,N,11715.4109,W,58.90,172.90,240910,,,A*4D
$GPRMC,113642.000,A,3259.7335,N,11715.4032,W,58.00,172.10,240910,,,A*40
$GPRMC,113645.000,A,3259.6855,N,11715.3954,W,58.00,172.40,240910,,,A*40
$GPRMC,113648.000,A,3259.6372,N,11715.3880,W,58.50,172.90,240910,,,A*43
$GPRMC,113651.000,A,3259.5886,N,11715.3811,W,59.60,172.30,240910,,,A*48
$GPRMC,113654.000,A,3259.5385,N,11715.3725,W,59.30,172.40,240910,,,A*4F
$GPRMC,113657.000,A,3259.4895,N,11715.3644,W,59.00,172.40,240910,,,A*42
$GPRMC,113700.000,A,3259.4409,N,11715.3569,W,58.80,172.30,240910,,,A*4A
$GPRMC,113703.000,A,3259.3920,N,11715.3496,W,59.00,172.90,240910,,,A*4A
$GPRMC,113706.000,A,3259.3426,N,11715.3421,W,59.10,172.50,240910,,,A*45
$GPRMC,113709.000,A,3259.2942,N,11715.3355,W,59.60,172.50,240910,,,A*47
$GPRMC,113712.000,A,3259.2450,N,11715.3277,W,59.60,172.50,240910,,,A*42
$GPRMC,113715.000,A,3259.1953,N,11715.3202,W,59.90,172.60,240910,,,A*46
$GPRMC,113718.000,A,3259.1468,N,11715.3126,W,58.50,172.40,240910,,,A*44
$GPRMC,113721.000,A,3259.0983,N,11715.3039,W,58.50,171.10,240910,,,A*4E
$GPRMC,113724.000,A,3259.0496,N,11715.2915,W,60.10,166.50,240910,,,A*49
$GPRMC,113727.000,A,3259.0009,N,11715.2749,W,60.30,162.50,240910,,,A*49
$GPRMC,113730.000,A,3258.9521,N,11715.2565,W,61.10,162.70,240910,,,A*45
$GPRMC,113733.000,A,3258.9035,N,11715.2380,W,60.90,162.50,240910,,,A*40
$GPRMC,113736.000,A,3258.8548,N,11715.2195,W,60.50,162.30,240910,,,A*47
$GPRMC,113739.000,A,3258.8070,N,11715.2016,W,59.90,162.40,240910,,,A*4D
$GPRMC,113742.000,A,3258.7593,N,11715.1838,W,59.80,162.20,240910,,,A*46
$GPRMC,113745.000,A,3258.7118,N,11715.1656,W,59.60,162.30,240910,,,A*4F
$GPRMC,113748.000,A,3258.6642,N,11715.1478,W,59.80,162.40,240910,,,A*4C
$GPRMC,113751.000,A,3258.6167,N,11715.1299,W,59.40,162.20,240910,,,A*47
$GPRMC,113754.000,A,3258.5697,N,11715.1121,W,59.00,162.40,240910,,,A*4B
$GPRMC,113757.000,A,3258.5230,N,11715.0945,W,58.50,162.50,240910,,,A*4F
$GPRMC,113800.000,A,3258.4770,N,11715.0774,W,57.10,162.60,240910,,,A*46
$GPRMC,113803.000,A,3258.4317,N,11715.0603,W,56.70,162.10,240910,,,A*41
$GPRMC,113806.000,A,3258.3873,N,11715.0435,W,55.20,162.40,240910,,,A*4E
$GPRMC,113809.000,A,3258.3432,N,11715.0271,W,55.40,162.60,240910,,,A*4A
$GPRMC,113812.000,A,3258.2987,N,11715.0105,W,56.10,162.30,240910,,,A*41
$GPRMC,113815.000,A,3258.2545,N,11714.9937,W,55.90,162.20,240910,,,A*4F
$GPRMC,113818.000,A,3258.2097,N,11714.9767,W,56.60,162.40,240910,,,A*49
$GPRMC,113821.000,A,3258.1645,N,11714.9596,W,56.80,162.30,240910,,,A*4C
$GPRMC,113824.000,A,3258.1197,N,11714.9427,W,55.60,162.30,240910,,,A*47
$GPRMC,113827.000,A,3258.0761,N,11714.9261,W,54.40,162.40,240910,,,A*4A
$GPRMC,113830.000,A,3258.0329,N,11714.9099,W,54.50,162.60,240910,,,A*42
$GPRMC,113833.000,A,3257.9894,N,11714.8936,W,55.20,162.30,240910,,,A*44
$GPRMC,113836.000,A,3257.9452,N,11714.8768,W,55.80,162.30,240910,,,A*48
$GPRMC,113839.000,A,3257.9005,N,11714.8600,W,56.30,162.30,240910,,,A*46
$GPRMC,113842.000,A,3257.8555,N,11714.8431,W,56.80,162.40,240910,,,A*47
$GPRMC,113845.000,A,3257.8101,N,11714.8259,W,57.50,162.30,240910,,,A*46
$GPRMC,113848.000,A,3257.7642,N,11714.8086,W,58.00,162.30,240910,,,A*4E
$GPRMC,113851.000,A,3257.7180,N,11714.7911,W,58.30,162.20,240910,,,A*45
$GPRMC,113854.000,A,3257.6716,N,11714.7739,W,58.40,163.00,240910,,,A*48
$GPRMC,113857.000,A,3257.6255,N,11714.7594,W,56.90,165.70,240910,,,A*4E
$GPRMC,113900.000,A,3257.5799,N,11714.7469,W,56.20,167.10,240910,,,A*47
$GPRMC,113903.000,A,3257.5343,N,11714.7359,W,56.00,169.00,240910,,,A*4E
$GPRMC,113906.000,A,3257.4880,N,11714.7260,W,56.40,170.60,240910,,,A*4F
$GPRMC,113909.000,A,3257.4416,N,11714.7172,W,56.10,171.10,240910,,,A*40
$GPRMC,113912.000,A,3257.3955,N,11714.7083,W,55.50,171.00,240910,,,A*4E
$GPRMC,113915.000,A,3257.3495,N,11714.6999,W,55.90,171.30,240910,,,A*44
$GPRMC,113918.000,A,3257.3049,N,11714.6914,W,54.00,171.30,240910,,,A*41
$GPRMC,113921.000,A,3257.2607,N,11714.6831,W,53.70,170.90,240910,,,A*4B
$GPRMC,113924.000,A,3257.2164,N,11714.6747,W,53.50,170.90,240910,,,A*40
$GPRMC,113927.000,A,3257.1717,N,11714.6662,W,55.30,171.40,240910,,,A*48
$GPRMC,113930.000,A,3257.1267,N,11714.6564,W,56.70,170.70,240910,,,A*4C
$GPRMC,113933.000,A,3257.0794,N,11714.6463,W,58.50,169.50,240910,,,A*47
$GPRMC,113936.000,A,3257.0302,N,11714.6359,W,61.70,170.70,240910,,,A*45
$GPRMC,113939.000,A,3256.9788,N,11714.6259,W,62.80,170.90,240910,,,A*47
$GPRMC,113942.000,A,3256.9269,N,11714.6160,W,63.70,170.40,240910,,,A*4B
$GPRMC,113945.000,A,3256.8735,N,11714.6059,W,65.90,171.10,240910,,,A*46
$GPRMC,113948.000,A,3256.8194,N,11714.5959,W,65.90,171.10,240910,,,A*4C
$GPRMC,113951.000,A,3256.7644,N,11714.5857,W,66.80,170.80,240910,,,A*44
$GPRMC,113954.000,A,3256.7091,N,11714.5753,W,66.90,171.00,240910,,,A*4C
$GPRMC,113957.000,A,3256.6544,N,11714.5650,W,66.40,171.00,240910,,,A*4C
$GPRMC,114000.000,A,3256.6005,N,11714.5560,W,64.50,171.90,240910,,,A*4A
$GPRMC,114003.000,A,3256.5473,N,11714.5468,W,63.70,171.50,240910,,,A*4F
$GPRMC,114006.000,A,3256.4953,N,11714.5370,W,62.40,170.80,240910,,,A*44
$GPRMC,114009.000,A,3256.4435,N,11714.5280,W,62.60,171.30,240910,,,A*40
$GPRMC,114012.000,A,3256.3910,N,11714.5193,W,62.60,172.00,240910,,,A*46
$GPRMC,114015.000,A,3256.3399,N,11714.5126,W,60.40,174.40,240910,,,A*46
$GPRMC,114018.000,A,3256.2898,N,11714.5066,W,60.40,174.10,240910,,,A*40
$GPRMC,114021.000,A,3256.2393,N,11714.5036,W,59.90,177.10,240910,,,A*4B
$GPRMC,114024.000,A,3256.1890,N,11714.5001,W,60.90,176.00,240910,,,A*4B
$GPRMC,114027.000,A,3256.1382,N,11714.4967,W,60.30,176.60,240910,,,A*44
$GPRMC,114030.000,A,3256.0878,N,11714.4935,W,59.40,176.90,240910,,,A*48
$GPRMC,114033.000,A,3256.0374,N,11714.4902,W,59.80,176.20,240910,,,A*4F
$GPRMC,114036.000,A,3255.9879,N,11714.4864,W,58.60,175.40,240910,,,A*4D
$GPRMC,114039.000,A,3255.9387,N,11714.4817,W,59.80,174.70,240910,,,A*41
$GPRMC,114042.000,A,3255.8889,N,11714.4754,W,59.80,173.20,240910,,,A*43
$GPRMC,114045.000,A,3255.8394,N,11714.4671,W,60.40,171.20,240910,,,A*41
$GPRMC,114048.000,A,3255.7894,N,11714.4565,W,61.60,169.20,240910,,,A*44
$GPRMC,114051.000,A,3255.7394,N,11714.4444,W,61.50,167.50,240910,,,A*4F
$GPRMC,114054.000,A,3255.6899,N,11714.4305,W,61.30,165.70,240910,,,A*49
$GPRMC,114057.000,A,3255.6405,N,11714.4151,W,61.30,164.50,240910,,,A*43
$GPRMC,114100.000,A,3255.5913,N,11714.3984,W,61.30,163.70,240910,,,A*4B
$GPRMC,114103.000,A,3255.5429,N,11714.3820,W,60.70,163.90,240910,,,A*48
$GPRMC,114106.000,A,3255.4905,N,11714.3644,W,62.80,164.30,240910,,,A*43
$GPRMC,114109.000,A,3255.4407,N,11714.3477,W,61.90,164.20,240910,,,A*42
$GPRMC,114112.000,A,3255.3911,N,11714.3295,W,61.70,161.10,240910,,,A*47
$GPRMC,114115.000,A,3255.3430,N,11714.3075,W,61.80,157.40,240910,,,A*4D
$GPRMC,114118.000,A,3255.2960,N,11714.2819,W,61.80,153.30,240910,,,A*49
$GPRMC,114121.000,A,3255.2504,N,11714.2528,W,61.90,150.30,240910,,,A*40
$GPRMC,114124.000,A,3255.2063,N,11714.2206,W,61.90,147.10,240910,,,A*4E
$GPRMC,114127.000,A,3255.1643,N,11714.1853,W,61.70,143.90,240910,,,A*41
$GPRMC,114130.000,A,3255.1251,N,11714.1472,W,60.30,139.20,240910,,,A*4C
$GPRMC,114133.000,A,3255.0883,N,11714.1071,W,59.10,136.20,240910,,,A*4B
$GPRMC,114136.000,A,3255.0535,N,11714.0660,W,58.50,134.20,240910,,,A*4E
$GPRMC,114139.000,A,3255.0215,N,11714.0235,W,57.70,131.70,240910,,,A*4D
$GPRMC,114142.000,A,3254.9903,N,11713.9795,W,58.20,130.40,240910,,,A*4C
$GPRMC,114145.000,A,3254.9592,N,11713.9356,W,57.70,130.60,240910,,,A*4C
$GPRMC,114148.000,A,3254.9242,N,11713.8944,W,58.90,136.50,240910,,,A*47
$GPRMC,114151.000,A,3254.8867,N,11713.8566,W,59.30,142.60,240910,,,A*44
$GPRMC,114154.000,A,3254.8456,N,11713.8230,W,60.90,149.80,240910,,,A*4E
$GPRMC,114157.000,A,3254.8004,N,11713.7946,W,61.50,153.00,240910,,,A*45
$GPRMC,114200.000,A,3254.7556,N,11713.7669,W,60.60,152.20,240910,,,A*4A
$GPRMC,114203.000,A,3254.7120,N,11713.7401,W,59.00,153.70,240910,,,A*48
$GPRMC,114206.000,A,3254.6684,N,11713.7135,W,58.60,152.00,240910,,,A*46
$GPRMC,114209.000,A,3254.6250,N,11713.6863,W,59.00,152.00,240910,,,A*48
$GPRMC,114212.000,A,3254.5817,N,11713.6589,W,58.60,152.10,240910,,,A*47
$GPRMC,114215.000,A,3254.5387,N,11713.6326,W,57.90,152.80,240910,,,A*48
$GPRMC,114218.000,A,3254.4968,N,11713.6075,W,56.30,153.10,240910,,,A*49
$GPRMC,114221.000,A,3254.4549,N,11713.5837,W,55.40,154.30,240910,,,A*40
$GPRMC,114224.000,A,3254.4133,N,11713.5610,W,54.50,155.90,240910,,,A*4C
$GPRMC,114227.000,A,3254.3730,N,11713.5391,W,53.80,156.00,240910,,,A*41
$GPRMC,114230.000,A,3254.3314,N,11713.5180,W,54.20,158.10,240910,,,A*45
$GPRMC,114233.000,A,3254.2881,N,11713.5001,W,55.80,163.00,240910,,,A*4A
$GPRMC,114236.000,A,3254.2434,N,11713.4857,W,56.50,167.80,240910,,,A*45
$GPRMC,114239.000,A,3254.1965,N,11713.4765,W,57.10,172.80,240910,,,A*4F
$GPRMC,114242.000,A,3254.1490,N,11713.4723,W,57.60,178.50,240910,,,A*46
$GPRMC,114245.000,A,3254.1003,N,11713.4727,W,58.20,182.20,240910,,,A*42
$GPRMC,114248.000,A,3254.0514,N,11713.4790,W,59.90,188.70,240910,,,A*44
$GPRMC,114251.000,A,3254.0022,N,11713.4911,W,60.10,194.90,240910,,,A*4A
$GPRMC,114254.000,A,3253.9548,N,11713.5077,W,59.10,197.40,240910,,,A*44
$GPRMC,114257.000,A,3253.9082,N,11713.5261,W,58.90,199.20,240910,,,A*40
$GPRMC,114300.000,A,3253.8618,N,11713.5446,W,58.40,198.10,240910,,,A*4B
$GPRMC,114303.000,A,3253.8159,N,11713.5623,W,57.10,197.80,240910,,,A*47
$GPRMC,114306.000,A,3253.7714,N,11713.5794,W,55.30,197.80,240910,,,A*4F
$GPRMC,114309.000,A,3253.7277,N,11713.5963,W,55.00,198.40,240910,,,A*46
$GPRMC,114312.000,A,3253.6839,N,11713.6123,W,54.90,195.60,240910,,,A*45
$GPRMC,114315.000,A,3253.6394,N,11713.6257,W,55.10,193.00,240910,,,A*47
$GPRMC,114318.000,A,3253.5943,N,11713.6358,W,54.90,188.90,240910,,,A*4D
$GPRMC,114321.000,A,3253.5490,N,11713.6423,W,54.40,185.00,240910,,,A*46
$GPRMC,114324.000,A,3253.5037,N,11713.6467,W,54.40,184.40,240910,,,A*4F
$GPRMC,114327.000,A,3253.4580,N,11713.6507,W,54.70,184.10,240910,,,A*45
$GPRMC,114330.000,A,3253.4120,N,11713.6554,W,55.60,185.10,240910,,,A*4A
$GPRMC,114333.000,A,3253.3659,N,11713.6601,W,55.70,184.80,240910,,,A*4D
$GPRMC,114336.000,A,3253.3193,N,11713.6650,W,56.50,185.50,240910,,,A*40
$GPRMC,114339.000,A,3253.2723,N,11713.6702,W,56.60,185.00,240910,,,A*43
$GPRMC,114342.000,A,3253.2250,N,11713.6740,W,57.50,184.00,240910,,,A*4B
$GPRMC,114345.000,A,3253.1767,N,11713.6784,W,58.20,184.70,240910,,,A*49
$GPRMC,114348.000,A,3253.1280,N,11713.6825,W,58.60,183.80,240910,,,A*40
$GPRMC,114351.000,A,3253.0789,N,11713.6865,W,58.90,183.80,240910,,,A*4E
$GPRMC,114354.000,A,3253.0292,N,11713.6911,W,59.40,184.20,240910,,,A*47
$GPRMC,114357.000,A,3252.9803,N,11713.6948,W,59.30,184.80,240910,,,A*4F
$GPRMC,114400.000,A,3252.9308,N,11713.7002,W,59.10,184.70,240910,,,A*41
$GPRMC,114403.000,A,3252.8813,N,11713.7056,W,59.20,184.40,240910,,,A*43
$GPRMC,114406.000,A,3252.8309,N,11713.7114,W,59.90,184.70,240910,,,A*49
$GPRMC,114409.000,A,3252.7822,N,11713.7164,W,58.50,184.60,240910,,,A*40
$GPRMC,114412.000,A,3252.7333,N,11713.7217,W,59.00,184.80,240910,,,A*4C
$GPRMC,114415.000,A,3252.6844,N,11713.7267,W,59.20,184.70,240910,,,A*4B
$GPRMC,114418.000,A,3252.6353,N,11713.7318,W,58.10,185.00,240910,,,A*46
$GPRMC,114421.000,A,3252.5879,N,11713.7364,W,56.80,184.70,240910,,,A*46
$GPRMC,114424.000,A,3252.5406,N,11713.7409,W,56.90,184.30,240910,,,A*4E
$GPRMC,114427.000,A,3252.4934,N,11713.7458,W,55.90,184.90,240910,,,A*4D
$GPRMC,114430.000,A,3252.4473,N,11713.7502,W,54.80,184.50,240910,,,A*47
$GPRMC,114433.000,A,3252.4023,N,11713.7545,W,53.60,184.70,240910,,,A*4D
$GPRMC,114436.000,A,3252.3578,N,11713.7589,W,53.80,184.60,240910,,,A*4B
$GPRMC,114439.000,A,3252.3128,N,11713.7633,W,54.40,184.90,240910,,,A*43
$GPRMC,114442.000,A,3252.2661,N,11713.7676,W,55.70,184.50,240910,,,A*4B
$GPRMC,114445.000,A,3252.2190,N,11713.7723,W,57.30,184.80,240910,,,A*4F
$GPRMC,114448.000,A,3252.1710,N,11713.7766,W,57.90,184.30,240910,,,A*4F
$GPRMC,114451.000,A,3252.1220,N,11713.7814,W,59.20,184.40,240910,,,A*49
$GPRMC,114454.000,A,3252.0726,N,11713.7861,W,59.20,184.30,240910,,,A*4B
$GPRMC,114457.000,A,3252.0225,N,11713.7908,W,60.40,184.70,240910,,,A*48
$GPRMC,114500.000,A,3251.9717,N,11713.7959,W,61.20,184.70,240910,,,A*46
$GPRMC,114503.000,A,3251.9202,N,11713.8008,W,62.10,184.70,240910,,,A*46
$GPRMC,114506.000,A,3251.8683,N,11713.8056,W,62.40,184.60,240910,,,A*40
$GPRMC,114509.000,A,3251.8167,N,11713.8103,W,61.40,184.30,240910,,,A*45
$GPRMC,114512.000,A,3251.7657,N,11713.8149,W,61.20,184.60,240910,,,A*49
$GPRMC,114515.000,A,3251.7150,N,11713.8202,W,60.70,185.10,240910,,,A*40
$GPRMC,114518.000,A,3251.6651,N,11713.8255,W,59.80,184.70,240910,,,A*4A
$GPRMC,114521.000,A,3251.6147,N,11713.8305,W,60.50,184.80,240910,,,A*4C
$GPRMC,114524.000,A,3251.5647,N,11713.8353,W,60.00,184.40,240910,,,A*47
$GPRMC,114527.000,A,3251.5154,N,11713.8397,W,58.40,184.30,240910,,,A*41
$GPRMC,114530.000,A,3251.4676,N,11713.8444,W,57.50,185.20,240910,,,A*46
$GPRMC,114533.000,A,3251.4204,N,11713.8519,W,57.00,190.40,240910,,,A*4A
$GPRMC,114536.000,A,3251.3740,N,11713.8651,W,57.10,196.10,240910,,,A*40
$GPRMC,114539.000,A,3251.3292,N,11713.8829,W,56.30,200.30,240910,,,A*49
$GPRMC,114542.000,A,3251.2860,N,11713.9063,W,56.90,207.30,240910,,,A*49
$GPRMC,114545.000,A,3251.2446,N,11713.9338,W,57.50,210.20,240910,,,A*41
$GPRMC,114548.000,A,3251.2030,N,11713.9627,W,57.80,210.30,240910,,,A*4E
$GPRMC,114551.000,A,3251.1614,N,11713.9918,W,57.20,210.20,240910,,,A*4D
$GPRMC,114554.000,A,3251.1205,N,11714.0203,W,56.50,210.50,240910,,,A*42
$GPRMC,114557.000,A,3251.0802,N,11714.0485,W,55.60,210.40,240910,,,A*44
$GPRMC,114600.000,A,3251.0403,N,11714.0763,W,55.30,210.50,240910,,,A*47
$GPRMC,114603.000,A,3251.0001,N,11714.1031,W,55.00,207.80,240910,,,A*4B
$GPRMC,114606.000,A,3250.9585,N,11714.1267,W,55.60,202.80,240910,,,A*4D
$GPRMC,114609.000,A,3250.9148,N,11714.1463,W,55.90,199.00,240910,,,A*43
$GPRMC,114612.000,A,3250.8699,N,11714.1595,W,55.20,191.90,240910,,,A*41
$GPRMC,114615.000,A,3250.8238,N,11714.1687,W,57.00,188.00,240910,,,A*48
$GPRMC,114618.000,A,3250.7759,N,11714.1759,W,58.10,187.30,240910,,,A*48
$GPRMC,114621.000,A,3250.7280,N,11714.1834,W,57.50,187.50,240910,,,A*4A
$GPRMC,114624.000,A,3250.6806,N,11714.1906,W,57.10,187.40,240910,,,A*4F
$GPRMC,114627.000,A,3250.6338,N,11714.1969,W,56.30,184.20,240910,,,A*45
$GPRMC,114630.000,A,3250.5868,N,11714.1988,W,57.10,180.40,240910,,,A*40
$GPRMC,114633.000,A,3250.5398,N,11714.1947,W,56.20,172.80,240910,,,A*47
$GPRMC,114636.000,A,3250.4928,N,11714.1860,W,57.50,169.20,240910,,,A*40
$GPRMC,114639.000,A,3250.4466,N,11714.1714,W,57.30,162.80,240910,,,A*43
$GPRMC,114642.000,A,3250.4008,N,11714.1525,W,58.70,159.30,240910,,,A*4B
$GPRMC,114645.000,A,3250.3544,N,11714.1314,W,59.90,159.10,240910,,,A*4F
$GPRMC,114648.000,A,3250.3077,N,11714.1105,W,59.90,159.60,240910,,,A*42
$GPRMC,114651.000,A,3250.2611,N,11714.0902,W,59.10,159.50,240910,,,A*48
$GPRMC,114654.000,A,3250.2158,N,11714.0697,W,57.90,159.10,240910,,,A*46
$GPRMC,114657.000,A,3250.1707,N,11714.0493,W,57.30,159.00,240910,,,A*47
$GPRMC,114700.000,A,3250.1259,N,11714.0292,W,57.40,159.50,240910,,,A*4F
$GPRMC,114703.000,A,3250.0805,N,11714.0104,W,57.50,163.20,240910,,,A*4D
$GPRMC,114706.000,A,3250.0337,N,11713.9966,W,57.90,168.80,240910,,,A*4D
$GPRMC,114709.000,A,3249.9860,N,11713.9882,W,57.30,174.00,240910,,,A*4E
$GPRMC,114712.000,A,3249.9384,N,11713.9846,W,57.00,178.70,240910,,,A*45
$GPRMC,114715.000,A,3249.8914,N,11713.9842,W,55.70,179.30,240910,,,A*44
$GPRMC,114718.000,A,3249.8451,N,11713.9837,W,55.50,179.30,240910,,,A*45
$GPRMC,114721.000,A,3249.7984,N,11713.9830,W,57.00,179.70,240910,,,A*41
$GPRMC,114724.000,A,3249.7504,N,11713.9829,W,57.60,179.80,240910,,,A*41
$GPRMC,114727.000,A,3249.7024,N,11713.9823,W,57.10,178.60,240910,,,A*47
$GPRMC,114730.000,A,3249.6550,N,11713.9774,W,57.30,173.00,240910,,,A*44
$GPRMC,114733.000,A,3249.6075,N,11713.9673,W,58.20,167.30,240910,,,A*4B
$GPRMC,114736.000,A,3249.5608,N,11713.9519,W,57.20,161.50,240910,,,A*41
$GPRMC,114739.000,A,3249.5165,N,11713.9317,W,57.20,157.30,240910,,,A*49
$GPRMC,114742.000,A,3249.4729,N,11713.9075,W,57.90,153.80,240910,,,A*49
$GPRMC,114745.000,A,3249.4333,N,11713.8763,W,57.00,145.10,240910,,,A*47
$GPRMC,114748.000,A,3249.3955,N,11713.8421,W,57.60,141.40,240910,,,A*45
$GPRMC,114751.000,A,3249.3584,N,11713.8051,W,58.60,139.40,240910,,,A*4E
$GPRMC,114754.000,A,3249.3213,N,11713.7673,W,58.80,139.40,240910,,,A*45
$GPRMC,114757.000,A,3249.2832,N,11713.7284,W,60.20,139.10,240910,,,A*46
$GPRMC,114800.000,A,3249.2446,N,11713.6887,W,60.80,138.90,240910,,,A*4F
$GPRMC,114803.000,A,3249.2062,N,11713.6491,W,61.00,139.00,240910,,,A*44
$GPRMC,114806.000,A,3249.1682,N,11713.6088,W,61.40,138.70,240910,,,A*44
$GPRMC,114809.000,A,3249.1298,N,11713.5698,W,60.40,139.20,240910,,,A*45
$GPRMC,114812.000,A,3249.0915,N,11713.5307,W,60.30,138.90,240910,,,A*4E
$GPRMC,114815.000,A,3249.0536,N,11713.4918,W,59.90,140.40,240910,,,A*43
$GPRMC,114818.000,A,3249.0144,N,11713.4543,W,60.60,141.70,240910,,,A*4A
$GPRMC,114821.000,A,3248.9724,N,11713.4178,W,61.90,143.50,240910,,,A*4A
$GPRMC,114824.000,A,3248.9308,N,11713.3806,W,61.80,143.20,240910,,,A*44
$GPRMC,114827.000,A,3248.8906,N,11713.3439,W,60.20,143.00,240910,,,A*4B
$GPRMC,114830.000,A,3248.8482,N,11713.3109,W,60.10,146.90,240910,,,A*45
$GPRMC,114833.000,A,3248.8058,N,11713.2798,W,59.10,148.70,240910,,,A*40
$GPRMC,114836.000,A,3248.7645,N,11713.2496,W,58.00,148.50,240910,,,A*4F
$GPRMC,114839.000,A,3248.7235,N,11713.2185,W,58.20,147.50,240910,,,A*49
$GPRMC,114842.000,A,3248.6824,N,11713.1867,W,58.90,147.00,240910,,,A*46
$GPRMC,114845.000,A,3248.6408,N,11713.1546,W,59.50,146.60,240910,,,A*47
$GPRMC,114848.000,A,3248.5993,N,11713.1221,W,59.50,146.50,240910,,,A*43
$GPRMC,114851.000,A,3248.5575,N,11713.0888,W,60.10,146.10,240910,,,A*4D
$GPRMC,114854.000,A,3248.5156,N,11713.0546,W,60.80,145.10,240910,,,A*48
$GPRMC,114857.000,A,3248.4738,N,11713.0205,W,61.60,145.10,240910,,,A*4B
$GPRMC,114900.000,A,3248.4320,N,11712.9852,W,61.50,144.30,240910,,,A*45
$GPRMC,114903.000,A,3248.3913,N,11712.9507,W,59.70,144.50,240910,,,A*49
$GPRMC,114906.000,A,3248.3510,N,11712.9167,W,59.60,145.30,240910,,,A*47
$GPRMC,114909.000,A,3248.3108,N,11712.8844,W,59.30,146.60,240910,,,A*4F
$GPRMC,114912.000,A,3248.2679,N,11712.8530,W,59.70,148.70,240910,,,A*40
$GPRMC,114915.000,A,3248.2263,N,11712.8237,W,58.90,149.90,240910,,,A*48
$GPRMC,114918.000,A,3248.1830,N,11712.7956,W,60.00,151.40,240910,,,A*4F
$GPRMC,114921.000,A,3248.1409,N,11712.7701,W,58.10,152.90,240910,,,A*4B
$GPRMC,114924.000,A,3248.0986,N,11712.7460,W,57.40,154.60,240910,,,A*42
$GPRMC,114927.000,A,3248.0554,N,11712.7223,W,57.40,156.20,240910,,,A*45
$GPRMC,114930.000,A,3248.0112,N,11712.7000,W,57.20,156.40,240910,,,A*46
$GPRMC,114933.000,A,3247.9673,N,11712.6770,W,57.40,156.00,240910,,,A*40
$GPRMC,114936.000,A,3247.9229,N,11712.6534,W,58.10,155.50,240910,,,A*40
$GPRMC,114939.000,A,3247.8793,N,11712.6283,W,58.10,153.80,240910,,,A*4A
$GPRMC,114942.000,A,3247.8366,N,11712.6026,W,57.90,153.50,240910,,,A*4F
$GPRMC,114945.000,A,3247.7929,N,11712.5768,W,58.30,153.20,240910,,,A*4A
$GPRMC,114948.000,A,3247.7498,N,11712.5504,W,57.70,152.80,240910,,,A*48
$GPRMC,114951.000,A,3247.7064,N,11712.5249,W,58.00,156.30,240910,,,A*4E
$GPRMC,114954.000,A,3247.6619,N,11712.5023,W,58.90,159.00,240910,,,A*4D
$GPRMC,114957.000,A,3247.6149,N,11712.4825,W,59.70,161.60,240910,,,A*41
$GPRMC,115000.000,A,3247.5667,N,11712.4656,W,59.90,165.50,240910,,,A*40
$GPRMC,115003.000,A,3247.5177,N,11712.4518,W,60.70,168.80,240910,,,A*48
$GPRMC,115006.000,A,3247.4675,N,11712.4414,W,60.80,171.70,240910,,,A*4C
$GPRMC,115009.000,A,3247.4168,N,11712.4341,W,61.20,174.00,240910,,,A*46
$GPRMC,115012.000,A,3247.3658,N,11712.4308,W,60.50,178.30,240910,,,A*4B
$GPRMC,115015.000,A,3247.3150,N,11712.4304,W,61.20,181.20,240910,,,A*4E
$GPRMC,115018.000,A,3247.2639,N,11712.4338,W,61.20,185.00,240910,,,A*43
$GPRMC,115021.000,A,3247.2128,N,11712.4404,W,61.90,187.60,240910,,,A*49
$GPRMC,115024.000,A,3247.1616,N,11712.4493,W,61.40,188.60,240910,,,A*49
$GPRMC,115027.000,A,3247.1112,N,11712.4585,W,60.60,188.60,240910,,,A*4C
$GPRMC,115030.000,A,3247.0614,N,11712.4672,W,60.20,188.30,240910,,,A*40
$GPRMC,115033.000,A,3247.0119,N,11712.4758,W,59.60,188.60,240910,,,A*4B
$GPRMC,115036.000,A,3246.9631,N,11712.4846,W,58.30,188.50,240910,,,A*4C
$GPRMC,115039.000,A,3246.9148,N,11712.4930,W,58.30,188.30,240910,,,A*4C
$GPRMC,115042.000,A,3246.8669,N,11712.5015,W,57.40,188.50,240910,,,A*44
$GPRMC,115045.000,A,3246.8197,N,11712.5099,W,57.30,188.50,240910,,,A*46
$GPRMC,115048.000,A,3246.7722,N,11712.5179,W,57.60,188.00,240910,,,A*43
$GPRMC,115051.000,A,3246.7241,N,11712.5239,W,58.40,183.60,240910,,,A*4C
$GPRMC,115054.000,A,3246.6749,N,11712.5246,W,59.10,178.20,240910,,,A*49
$GPRMC,115057.000,A,3246.6249,N,11712.5185,W,60.40,173.10,240910,,,A*44
$GPRMC,115100.000,A,3246.5759,N,11712.5070,W,60.20,168.20,240910,,,A*44
$GPRMC,115103.000,A,3246.5268,N,11712.4944,W,59.90,167.80,240910,,,A*4B
$GPRMC,115106.000,A,3246.4785,N,11712.4819,W,58.50,167.70,240910,,,A*42
$GPRMC,115109.000,A,3246.4317,N,11712.4699,W,57.10,167.90,240910,,,A*41
$GPRMC,115112.000,A,3246.3847,N,11712.4581,W,57.70,167.90,240910,,,A*4E
