NMEA Sentence Code,UTC Time,Status,Latitude,Latitude Direction,Longitude,Longitude Direction,Speed (knots),Track Angle (degrees true),Date,MagneticVariation,Magnetic Variation Direction,[FAA Mode]-Optional,Checksum
$GPRMC,215231.000,A,3338.5475,N,11744.0193,W,59.20,143.49,280710,,,A*47
$GPRMC,215234.000,A,3338.5075,N,11743.9859,W,58.63,145.88,280710,,,A*4A
$GPRMC,215237.000,A,3338.4686,N,11743.9539,W,56.59,144.11,280710,,,A*4F
$GPRMC,215240.000,A,3338.4297,N,11743.9225,W,56.50,144.81,280710,,,A*41
$GPRMC,215243.000,A,3338.3898,N,11743.8899,W,58.01,145.80,280710,,,A*46
$GPRMC,215246.000,A,3338.3487,N,11743.8579,W,58.22,146.35,280710,,,A*4E
$GPRMC,215249.000,A,3338.3083,N,11743.8264,W,57.77,146.92,280710,,,A*48
$GPRMC,215252.000,A,3338.2686,N,11743.7952,W,57.45,146.55,280710,,,A*4B
$GPRMC,215255.000,A,3338.2285,N,11743.7628,W,58.31,145.55,280710,,,A*46
$GPRMC,215258.000,A,3338.1883,N,11743.7282,W,59.85,144.35,280710,,,A*49
$GPRMC,215301.000,A,3338.1457,N,11743.6929,W,62.00,145.91,280710,,,A*40
$GPRMC,215304.000,A,3338.1017,N,11743.6570,W,63.59,145.87,280710,,,A*4F
$GPRMC,215307.000,A,3338.0568,N,11743.6205,W,64.51,145.61,280710,,,A*42
$GPRMC,215310.000,A,3338.0126,N,11743.5824,W,64.78,142.63,280710,,,A*4E
$GPRMC,215313.000,A,3337.9712,N,11743.5419,W,63.80,139.07,280710,,,A*46
$GPRMC,215316.000,A,3337.9328,N,11743.5000,W,62.61,136.36,280710,,,A*41
$GPRMC,215319.000,A,3337.8955,N,11743.4585,W,61.71,137.12,280710,,,A*43
$GPRMC,215322.000,A,3337.8609,N,11743.4185,W,57.39,135.98,280710,,,A*40
$GPRMC,215325.000,A,3337.8293,N,11743.3819,W,51.54,135.37,280710,,,A*43
$GPRMC,215328.000,A,3337.7998,N,11743.3470,W,50.24,135.93,280710,,,A*4A
$GPRMC,215331.000,A,3337.7703,N,11743.3115,W,51.59,135.30,280710,,,A*4A
$GPRMC,215334.000,A,3337.7375,N,11743.2776,W,52.31,140.83,280710,,,A*4F
$GPRMC,215337.000,A,3337.7016,N,11743.2442,W,54.71,143.41,280710,,,A*41
$GPRMC,215340.000,A,3337.6655,N,11743.2100,W,55.52,142.01,280710,,,A*47
$GPRMC,215343.000,A,3337.6292,N,11743.1759,W,55.40,142.09,280710,,,A*49
$GPRMC,215346.000,A,3337.5914,N,11743.1414,W,57.08,142.48,280710,,,A*4B
$GPRMC,215349.000,A,3337.5519,N,11743.1057,W,58.79,142.52,280710,,,A*44
$GPRMC,215352.000,A,3337.5121,N,11743.0696,W,59.32,142.80,280710,,,A*4A
$GPRMC,215355.000,A,3337.4719,N,11743.0329,W,60.22,142.91,280710,,,A*4B
$GPRMC,215358.000,A,3337.4313,N,11742.9965,W,60.93,142.27,280710,,,A*45
$GPRMC,215401.000,A,3337.3903,N,11742.9582,W,62.73,142.44,280710,,,A*4E
$GPRMC,215404.000,A,3337.3478,N,11742.9187,W,63.70,142.92,280710,,,A*42
$GPRMC,215407.000,A,3337.3044,N,11742.8791,W,64.20,142.20,280710,,,A*41
$GPRMC,215410.000,A,3337.2619,N,11742.8400,W,63.77,142.41,280710,,,A*41
$GPRMC,215413.000,A,3337.2201,N,11742.8018,W,63.13,142.54,280710,,,A*44
$GPRMC,215416.000,A,3337.1784,N,11742.7634,W,62.85,141.85,280710,,,A*4C
$GPRMC,215419.000,A,3337.1367,N,11742.7254,W,62.35,143.70,280710,,,A*4B
$GPRMC,215422.000,A,3337.0951,N,11742.6873,W,62.46,142.58,280710,,,A*4C
$GPRMC,215425.000,A,3337.0532,N,11742.6491,W,62.72,142.59,280710,,,A*44
$GPRMC,215428.000,A,3337.0112,N,11742.6102,W,63.81,141.16,280710,,,A*45
$GPRMC,215431.000,A,3336.9691,N,11742.5687,W,65.84,138.40,280710,,,A*4E
$GPRMC,215434.000,A,3336.9280,N,11742.5247,W,65.64,135.24,280710,,,A*46
$GPRMC,215437.000,A,3336.8891,N,11742.4801,W,64.95,135.69,280710,,,A*41
$GPRMC,215440.000,A,3336.8510,N,11742.4355,W,65.42,135.48,280710,,,A*47
$GPRMC,215443.000,A,3336.8121,N,11742.3888,W,66.06,135.65,280710,,,A*42
$GPRMC,215446.000,A,3336.7722,N,11742.3411,W,66.89,135.65,280710,,,A*46
$GPRMC,215449.000,A,3336.7328,N,11742.2951,W,64.91,135.81,280710,,,A*4E
$GPRMC,215452.000,A,3336.6953,N,11742.2512,W,62.33,134.98,280710,,,A*4F
$GPRMC,215454.000,A,3336.6709,N,11742.2217,W,62.39,133.43,280710,,,A*41
$GPRMC,215458.000,A,3336.6252,N,11742.1578,W,63.56,128.22,280710,,,A*4E
$GPRMC,215501.000,A,3336.5932,N,11742.1043,W,64.72,124.60,280710,,,A*4B
$GPRMC,215505.000,A,3336.5549,N,11742.0290,W,65.29,119.46,280710,,,A*47
$GPRMC,215508.000,A,3336.5298,N,11741.9715,W,63.44,117.08,280710,,,A*4A
$GPRMC,215510.000,A,3336.5137,N,11741.9351,W,61.60,117.89,280710,,,A*4C
$GPRMC,215514.000,A,3336.4800,N,11741.8617,W,62.98,124.47,280710,,,A*44
$GPRMC,215517.000,A,3336.4567,N,11741.8043,W,64.08,116.15,280710,,,A*45
$GPRMC,215520.000,A,3336.4338,N,11741.7474,W,63.22,117.12,280710,,,A*4B
$GPRMC,215523.000,A,3336.4097,N,11741.6923,W,62.00,117.65,280710,,,A*41
$GPRMC,215526.000,A,3336.3853,N,11741.6382,W,61.49,120.19,280710,,,A*43
$GPRMC,215529.000,A,3336.3595,N,11741.5844,W,62.23,122.18,280710,,,A*45
$GPRMC,215532.000,A,3336.3315,N,11741.5321,W,62.13,124.18,280710,,,A*4C
$GPRMC,215535.000,A,3336.3019,N,11741.4818,W,61.97,126.54,280710,,,A*41
$GPRMC,215538.000,A,3336.2704,N,11741.4314,W,63.47,128.61,280710,,,A*46
$GPRMC,215541.000,A,3336.2359,N,11741.3816,W,64.56,128.54,280710,,,A*4B
$GPRMC,215544.000,A,3336.2024,N,11741.3314,W,64.31,127.45,280710,,,A*40
$GPRMC,215547.000,A,3336.1718,N,11741.2820,W,61.53,124.38,280710,,,A*4D
$GPRMC,215550.000,A,3336.1453,N,11741.2315,W,60.02,120.54,280710,,,A*41
$GPRMC,215553.000,A,3336.1216,N,11741.1787,W,60.17,116.19,280710,,,A*41
$GPRMC,215556.000,A,3336.0982,N,11741.1227,W,62.94,114.92,280710,,,A*44
$GPRMC,215559.000,A,3336.0751,N,11741.0644,W,64.06,114.87,280710,,,A*42
$GPRMC,215602.000,A,3336.0523,N,11741.0064,W,63.73,114.98,280710,,,A*47
$GPRMC,215605.000,A,3336.0303,N,11740.9502,W,61.71,114.79,280710,,,A*46
$GPRMC,215608.000,A,3336.0088,N,11740.8950,W,60.88,114.91,280710,,,A*40
$GPRMC,215611.000,A,3335.9872,N,11740.8402,W,61.28,115.13,280710,,,A*45
$GPRMC,215614.000,A,3335.9654,N,11740.7838,W,62.86,115.11,280710,,,A*45
$GPRMC,215617.000,A,3335.9425,N,11740.7251,W,64.47,114.65,280710,,,A*4E
$GPRMC,215620.000,A,3335.9176,N,11740.6679,W,64.37,119.12,280710,,,A*4C
$GPRMC,215623.000,A,3335.8883,N,11740.6139,W,64.94,125.45,280710,,,A*4A
$GPRMC,215626.000,A,3335.8540,N,11740.5635,W,65.65,130.85,280710,,,A*42
$GPRMC,215629.000,A,3335.8167,N,11740.5154,W,66.25,133.96,280710,,,A*4A
$GPRMC,215632.000,A,3335.7762,N,11740.4705,W,66.61,139.25,280710,,,A*4D
$GPRMC,215635.000,A,3335.7333,N,11740.4294,W,65.37,143.62,280710,,,A*49
$GPRMC,215638.000,A,3335.6884,N,11740.3931,W,65.69,146.68,280710,,,A*45
$GPRMC,215641.000,A,3335.6397,N,11740.3608,W,67.41,153.00,280710,,,A*45
$GPRMC,215644.000,A,3335.5867,N,11740.3335,W,70.17,158.90,280710,,,A*4B
$GPRMC,215647.000,A,3335.5304,N,11740.3141,W,70.48,166.57,280710,,,A*4B
$GPRMC,215650.000,A,3335.4736,N,11740.3032,W,69.00,173.03,280710,,,A*4D
$GPRMC,215653.000,A,3335.4174,N,11740.3008,W,68.18,180.87,280710,,,A*4F
$GPRMC,215656.000,A,3335.3609,N,11740.3038,W,68.06,181.70,280710,,,A*45
$GPRMC,215659.000,A,3335.3044,N,11740.3059,W,67.96,181.15,280710,,,A*47
$GPRMC,215702.000,A,3335.2481,N,11740.3072,W,67.65,180.53,280710,,,A*42
$GPRMC,215704.000,A,3335.2107,N,11740.3082,W,67.73,181.20,280710,,,A*42
$GPRMC,215708.000,A,3335.1357,N,11740.3100,W,68.03,180.56,280710,,,A*49
$GPRMC,215711.000,A,3335.0793,N,11740.3109,W,67.51,181.28,280710,,,A*45
$GPRMC,215714.000,A,3335.0228,N,11740.3118,W,67.57,180.35,280710,,,A*4E
$GPRMC,215717.000,A,3334.9668,N,11740.3121,W,66.72,180.66,280710,,,A*4F
$GPRMC,215720.000,A,3334.9122,N,11740.3123,W,65.44,180.12,280710,,,A*45
$GPRMC,215723.000,A,3334.8583,N,11740.3124,W,64.19,180.19,280710,,,A*4D
$GPRMC,215726.000,A,3334.8045,N,11740.3124,W,64.47,179.43,280710,,,A*45
$GPRMC,215729.000,A,3334.7495,N,11740.3131,W,65.23,180.22,280710,,,A*4A
$GPRMC,215732.000,A,3334.6942,N,11740.3140,W,65.37,179.40,280710,,,A*47
$GPRMC,215735.000,A,3334.6396,N,11740.3156,W,65.23,180.64,280710,,,A*41
$GPRMC,215738.000,A,3334.5836,N,11740.3166,W,66.80,180.69,280710,,,A*4A
$GPRMC,215741.000,A,3334.5268,N,11740.3175,W,66.95,180.65,280710,,,A*4F
$GPRMC,215744.000,A,3334.4713,N,11740.3184,W,66.03,180.60,280710,,,A*46
$GPRMC,215747.000,A,3334.4180,N,11740.3195,W,63.87,180.47,280710,,,A*45
$GPRMC,215750.000,A,3334.3661,N,11740.3204,W,63.12,180.30,280710,,,A*4B
$GPRMC,215753.000,A,3334.3146,N,11740.3208,W,62.37,180.37,280710,,,A*47
$GPRMC,215756.000,A,3334.2637,N,11740.3220,W,61.44,181.43,280710,,,A*4D
$GPRMC,215759.000,A,3334.2144,N,11740.3228,W,59.08,181.01,280710,,,A*4C
$GPRMC,215802.000,A,3334.1649,N,11740.3239,W,60.15,182.24,280710,,,A*46
$GPRMC,215805.000,A,3334.1110,N,11740.3276,W,66.43,184.33,280710,,,A*44
$GPRMC,215808.000,A,3334.0545,N,11740.3339,W,68.30,186.20,280710,,,A*4C
$GPRMC,215811.000,A,3333.9971,N,11740.3397,W,69.36,184.29,280710,,,A*49
$GPRMC,215814.000,A,3333.9391,N,11740.3464,W,68.94,186.28,280710,,,A*49
$GPRMC,215817.000,A,3333.8822,N,11740.3539,W,67.97,185.94,280710,,,A*49
$GPRMC,215820.000,A,3333.8257,N,11740.3610,W,67.53,186.05,280710,,,A*4E
$GPRMC,215823.000,A,3333.7694,N,11740.3681,W,66.96,186.27,280710,,,A*49
$GPRMC,215826.000,A,3333.7148,N,11740.3751,W,65.64,185.75,280710,,,A*4C
$GPRMC,215829.000,A,3333.6599,N,11740.3804,W,65.45,184.37,280710,,,A*41
$GPRMC,215832.000,A,3333.6053,N,11740.3840,W,65.53,182.48,280710,,,A*41
$GPRMC,215835.000,A,3333.5501,N,11740.3858,W,66.13,181.28,280710,,,A*4C
$GPRMC,215838.000,A,3333.4935,N,11740.3858,W,67.47,179.23,280710,,,A*47
$GPRMC,215841.000,A,3333.4363,N,11740.3841,W,67.61,178.20,280710,,,A*4E
$GPRMC,215844.000,A,3333.3779,N,11740.3823,W,67.88,178.65,280710,,,A*41
$GPRMC,215847.000,A,3333.3181,N,11740.3814,W,69.50,178.71,280710,,,A*49
$GPRMC,215850.000,A,3333.2590,N,11740.3804,W,69.56,180.39,280710,,,A*46
$GPRMC,215853.000,A,3333.2005,N,11740.3789,W,70.07,178.21,280710,,,A*44
$GPRMC,215856.000,A,3333.1422,N,11740.3773,W,70.14,178.72,280710,,,A*42
$GPRMC,215859.000,A,3333.0850,N,11740.3760,W,68.96,178.68,280710,,,A*4F
$GPRMC,215902.000,A,3333.0280,N,11740.3744,W,68.98,178.44,280710,,,A*41
$GPRMC,215905.000,A,3332.9698,N,11740.3735,W,69.89,179.50,280710,,,A*40
$GPRMC,215908.000,A,3332.9108,N,11740.3756,W,70.26,182.48,280710,,,A*46
$GPRMC,215911.000,A,3332.8517,N,11740.3803,W,70.30,184.33,280710,,,A*47
$GPRMC,215914.000,A,3332.7935,N,11740.3872,W,70.05,187.04,280710,,,A*46
$GPRMC,215917.000,A,3332.7361,N,11740.3959,W,69.19,188.78,280710,,,A*47
$GPRMC,215920.000,A,3332.6793,N,11740.4063,W,69.09,189.03,280710,,,A*40
$GPRMC,215923.000,A,3332.6226,N,11740.4186,W,69.08,190.00,280710,,,A*48
$GPRMC,215926.000,A,3332.5662,N,11740.4306,W,68.66,190.65,280710,,,A*4A
$GPRMC,215929.000,A,3332.5095,N,11740.4430,W,69.04,190.38,280710,,,A*44
$GPRMC,215932.000,A,3332.4506,N,11740.4560,W,69.58,189.90,280710,,,A*47
$GPRMC,215934.000,A,3332.4109,N,11740.4650,W,70.07,190.53,280710,,,A*4F
$GPRMC,215938.000,A,3332.3325,N,11740.4823,W,70.80,190.26,280710,,,A*4F
$GPRMC,215941.000,A,3332.2745,N,11740.4936,W,70.11,188.07,280710,,,A*45
$GPRMC,215945.000,A,3332.1952,N,11740.5036,W,73.23,184.83,280710,,,A*40
$GPRMC,215948.000,A,3332.1343,N,11740.5069,W,72.56,181.49,280710,,,A*4D
$GPRMC,215951.000,A,3332.0754,N,11740.5068,W,69.99,178.71,280710,,,A*43
$GPRMC,215954.000,A,3332.0171,N,11740.5044,W,69.81,176.52,280710,,,A*4F
$GPRMC,215957.000,A,3331.9598,N,11740.4965,W,69.57,170.39,280710,,,A*4E
$GPRMC,220000.000,A,3331.9053,N,11740.4779,W,68.92,159.03,280710,,,A*48
$GPRMC,220003.000,A,3331.8545,N,11740.4483,W,68.99,151.09,280710,,,A*47
$GPRMC,220006.000,A,3331.8066,N,11740.4123,W,69.26,143.16,280710,,,A*41
$GPRMC,220009.000,A,3331.7635,N,11740.3660,W,69.51,134.19,280710,,,A*49
$GPRMC,220012.000,A,3331.7259,N,11740.3129,W,69.35,129.51,280710,,,A*45
$GPRMC,220015.000,A,3331.6907,N,11740.2599,W,67.65,129.29,280710,,,A*49
$GPRMC,220018.000,A,3331.6555,N,11740.2083,W,67.07,130.81,280710,,,A*4F
$GPRMC,220021.000,A,3331.6172,N,11740.1606,W,66.83,137.14,280710,,,A*4A
$GPRMC,220024.000,A,3331.5738,N,11740.1183,W,67.30,144.07,280710,,,A*41
$GPRMC,220027.000,A,3331.5265,N,11740.0824,W,66.97,150.18,280710,,,A*4D
$GPRMC,220030.000,A,3331.4769,N,11740.0535,W,66.17,156.57,280710,,,A*4B
$GPRMC,220033.000,A,3331.4257,N,11740.0305,W,65.44,160.37,280710,,,A*43
$GPRMC,220036.000,A,3331.3746,N,11740.0094,W,64.82,160.16,280710,,,A*47
$GPRMC,220039.000,A,3331.3234,N,11739.9881,W,64.95,160.42,280710,,,A*44
$GPRMC,220042.000,A,3331.2716,N,11739.9663,W,65.46,160.64,280710,,,A*45
$GPRMC,220045.000,A,3331.2195,N,11739.9444,W,65.88,160.26,280710,,,A*4C
$GPRMC,220048.000,A,3331.1677,N,11739.9225,W,65.77,160.39,280710,,,A*46
$GPRMC,220051.000,A,3331.1168,N,11739.9010,W,64.80,160.02,280710,,,A*42
$GPRMC,220054.000,A,3331.0671,N,11739.8798,W,62.77,159.94,280710,,,A*44
$GPRMC,220057.000,A,3331.0180,N,11739.8589,W,62.32,159.44,280710,,,A*40
$GPRMC,220100.000,A,3330.9701,N,11739.8389,W,60.66,160.60,280710,,,A*4D
$GPRMC,220103.000,A,3330.9230,N,11739.8190,W,60.42,160.63,280710,,,A*46
$GPRMC,220106.000,A,3330.8755,N,11739.7987,W,60.61,160.09,280710,,,A*48
$GPRMC,220109.000,A,3330.8276,N,11739.7782,W,60.72,160.31,280710,,,A*41
$GPRMC,220112.000,A,3330.7795,N,11739.7577,W,61.17,159.92,280710,,,A*45
$GPRMC,220115.000,A,3330.7309,N,11739.7367,W,61.98,160.72,280710,,,A*47
$GPRMC,220118.000,A,3330.6806,N,11739.7152,W,63.21,160.16,280710,,,A*49
$GPRMC,220121.000,A,3330.6292,N,11739.6932,W,64.46,160.78,280710,,,A*45
$GPRMC,220124.000,A,3330.5768,N,11739.6710,W,65.49,160.15,280710,,,A*48
$GPRMC,220127.000,A,3330.5246,N,11739.6491,W,65.54,160.01,280710,,,A*41
$GPRMC,220130.000,A,3330.4726,N,11739.6273,W,65.66,160.81,280710,,,A*46
$GPRMC,220133.000,A,3330.4214,N,11739.6058,W,64.95,160.04,280710,,,A*4A
$GPRMC,220136.000,A,3330.3705,N,11739.5840,W,64.99,160.09,280710,,,A*4E
$GPRMC,220139.000,A,3330.3192,N,11739.5622,W,65.22,160.96,280710,,,A*44
$GPRMC,220142.000,A,3330.2666,N,11739.5424,W,65.55,164.73,280710,,,A*4E
$GPRMC,220145.000,A,3330.2134,N,11739.5271,W,65.75,168.37,280710,,,A*41
$GPRMC,220148.000,A,3330.1590,N,11739.5158,W,66.52,172.14,280710,,,A*41
$GPRMC,220151.000,A,3330.1026,N,11739.5084,W,67.44,174.97,280710,,,A*4A
$GPRMC,220154.000,A,3330.0458,N,11739.5061,W,67.45,178.01,280710,,,A*4A
$GPRMC,220157.000,A,3329.9947,N,11739.5089,W,61.96,182.73,280710,,,A*45
$GPRMC,220200.000,A,3329.9422,N,11739.5132,W,63.89,185.74,280710,,,A*47
$GPRMC,220203.000,A,3329.8891,N,11739.5222,W,63.92,189.25,280710,,,A*41
$GPRMC,220206.000,A,3329.8356,N,11739.5350,W,64.26,192.65,280710,,,A*46
$GPRMC,220209.000,A,3329.7830,N,11739.5522,W,64.83,197.15,280710,,,A*43
$GPRMC,220212.000,A,3329.7306,N,11739.5737,W,66.02,200.47,280710,,,A*40
$GPRMC,220215.000,A,3329.6794,N,11739.5987,W,66.17,203.85,280710,,,A*45
$GPRMC,220218.000,A,3329.6300,N,11739.6284,W,65.60,205.42,280710,,,A*44
$GPRMC,220221.000,A,3329.5813,N,11739.6586,W,64.17,210.10,280710,,,A*43
$GPRMC,220224.000,A,3329.5354,N,11739.6911,W,63.99,211.83,280710,,,A*46
$GPRMC,220227.000,A,3329.4913,N,11739.7246,W,62.82,212.19,280710,,,A*4E
$GPRMC,220230.000,A,3329.4477,N,11739.7573,W,62.35,212.06,280710,,,A*44
$GPRMC,220233.000,A,3329.4034,N,11739.7902,W,62.70,212.40,280710,,,A*4D
$GPRMC,220236.000,A,3329.3590,N,11739.8238,W,62.59,212.45,280710,,,A*47
$GPRMC,220239.000,A,3329.3149,N,11739.8571,W,62.30,212.44,280710,,,A*4C
$GPRMC,220242.000,A,3329.2700,N,11739.8913,W,64.67,211.23,280710,,,A*44
$GPRMC,220245.000,A,3329.2207,N,11739.9265,W,69.83,211.16,280710,,,A*4B
$GPRMC,220248.000,A,3329.1715,N,11739.9627,W,68.83,212.32,280710,,,A*45
$GPRMC,220251.000,A,3329.1238,N,11739.9997,W,67.85,213.13,280710,,,A*48
$GPRMC,220254.000,A,3329.0774,N,11740.0382,W,67.76,215.59,280710,,,A*4C
$GPRMC,220257.000,A,3329.0329,N,11740.0772,W,65.40,216.19,280710,,,A*48
$GPRMC,220300.000,A,3328.9877,N,11740.1157,W,67.26,214.50,280710,,,A*4E
$GPRMC,220303.000,A,3328.9421,N,11740.1549,W,67.83,215.91,280710,,,A*4A
$GPRMC,220306.000,A,3328.8971,N,11740.1942,W,67.00,216.22,280710,,,A*41
$GPRMC,220309.000,A,3328.8521,N,11740.2335,W,66.99,216.28,280710,,,A*45
$GPRMC,220312.000,A,3328.8063,N,11740.2734,W,67.75,215.94,280710,,,A*4E
$GPRMC,220315.000,A,3328.7603,N,11740.3132,W,67.74,215.94,280710,,,A*46
$GPRMC,220318.000,A,3328.7142,N,11740.3533,W,68.24,216.05,280710,,,A*4D
$GPRMC,220321.000,A,3328.6671,N,11740.3919,W,68.60,212.42,280710,,,A*42
$GPRMC,220324.000,A,3328.6173,N,11740.4249,W,68.13,206.36,280710,,,A*49
$GPRMC,220327.000,A,3328.5651,N,11740.4515,W,68.05,199.86,280710,,,A*49
$GPRMC,220330.000,A,3328.5114,N,11740.4713,W,67.60,193.87,280710,,,A*4A
$GPRMC,220333.000,A,3328.4573,N,11740.4840,W,66.62,188.61,280710,,,A*45
$GPRMC,220336.000,A,3328.4020,N,11740.4900,W,66.81,182.39,280710,,,A*4C
$GPRMC,220339.000,A,3328.3456,N,11740.4885,W,67.68,176.13,280710,,,A*48
$GPRMC,220342.000,A,3328.2888,N,11740.4797,W,68.04,171.32,280710,,,A*47
$GPRMC,220345.000,A,3328.2326,N,11740.4647,W,68.13,162.16,280710,,,A*41
$GPRMC,220348.000,A,3328.1807,N,11740.4373,W,68.14,152.60,280710,,,A*40
$GPRMC,220351.000,A,3328.1331,N,11740.3995,W,67.66,142.13,280710,,,A*4C
$GPRMC,220354.000,A,3328.0922,N,11740.3519,W,67.71,132.12,280710,,,A*48
$GPRMC,220357.000,A,3328.0585,N,11740.2972,W,67.76,122.56,280710,,,A*4C
$GPRMC,220400.000,A,3328.0310,N,11740.2371,W,68.05,117.35,280710,,,A*42
$GPRMC,220403.000,A,3328.0051,N,11740.1753,W,68.62,117.69,280710,,,A*48
$GPRMC,220406.000,A,3327.9753,N,11740.1166,W,68.95,125.04,280710,,,A*4C
$GPRMC,220409.000,A,3327.9406,N,11740.0616,W,69.11,128.72,280710,,,A*40
$GPRMC,220412.000,A,3327.9043,N,11740.0074,W,69.36,129.08,280710,,,A*44
$GPRMC,220415.000,A,3327.8681,N,11739.9553,W,67.94,129.40,280710,,,A*47
$GPRMC,220418.000,A,3327.8323,N,11739.9039,W,67.74,129.49,280710,,,A*49
$GPRMC,220421.000,A,3327.7962,N,11739.8521,W,67.93,129.37,280710,,,A*4E
$GPRMC,220425.000,A,3327.7481,N,11739.7821,W,68.15,129.40,280710,,,A*49
$GPRMC,220427.000,A,3327.7239,N,11739.7472,W,68.04,129.47,280710,,,A*43
$GPRMC,220430.000,A,3327.6879,N,11739.6947,W,67.90,128.81,280710,,,A*49
$GPRMC,220433.000,A,3327.6538,N,11739.6410,W,67.45,124.73,280710,,,A*44
$GPRMC,220437.000,A,3327.6170,N,11739.5622,W,67.62,116.84,280710,,,A*44
$GPRMC,220440.000,A,3327.5927,N,11739.5013,W,67.20,116.12,280710,,,A*40
$GPRMC,220443.000,A,3327.5670,N,11739.4419,W,67.22,119.47,280710,,,A*4C
$GPRMC,220446.000,A,3327.5377,N,11739.3843,W,67.51,123.74,280710,,,A*42
$GPRMC,220449.000,A,3327.5056,N,11739.3289,W,67.54,125.48,280710,,,A*4D
$GPRMC,220452.000,A,3327.4729,N,11739.2735,W,68.01,125.12,280710,,,A*4A
$GPRMC,220455.000,A,3327.4387,N,11739.2188,W,68.82,125.26,280710,,,A*41
$GPRMC,220458.000,A,3327.4063,N,11739.1625,W,68.90,123.57,280710,,,A*45
$GPRMC,220501.000,A,3327.3765,N,11739.1039,W,69.70,120.07,280710,,,A*4C
$GPRMC,220504.000,A,3327.3486,N,11739.0442,W,68.64,118.21,280710,,,A*45
$GPRMC,220507.000,A,3327.3226,N,11738.9840,W,68.06,117.46,280710,,,A*46
$GPRMC,220510.000,A,3327.2967,N,11738.9246,W,67.37,118.46,280710,,,A*41
$GPRMC,220513.000,A,3327.2704,N,11738.8646,W,67.51,117.37,280710,,,A*45
$GPRMC,220516.000,A,3327.2441,N,11738.8039,W,68.18,117.17,280710,,,A*4C
$GPRMC,220519.000,A,3327.2178,N,11738.7427,W,68.40,117.46,280710,,,A*41
$GPRMC,220522.000,A,3327.1900,N,11738.6814,W,69.51,119.53,280710,,,A*4B
$GPRMC,220525.000,A,3327.1596,N,11738.6227,W,69.15,122.87,280710,,,A*44
$GPRMC,220528.000,A,3327.1280,N,11738.5676,W,67.12,124.85,280710,,,A*47
$GPRMC,220531.000,A,3327.0960,N,11738.5152,W,66.35,127.77,280710,,,A*40
$GPRMC,220534.000,A,3327.0607,N,11738.4659,W,65.54,131.39,280710,,,A*4F
$GPRMC,220537.000,A,3327.0260,N,11738.4170,W,64.88,129.96,280710,,,A*49
$GPRMC,220540.000,A,3326.9913,N,11738.3690,W,63.63,130.77,280710,,,A*45
$GPRMC,220543.000,A,3326.9571,N,11738.3206,W,63.50,129.71,280710,,,A*4B
$GPRMC,220546.000,A,3326.9241,N,11738.2731,W,61.83,127.66,280710,,,A*4E
$GPRMC,220549.000,A,3326.8941,N,11738.2231,W,62.03,123.20,280710,,,A*43
$GPRMC,220552.000,A,3326.8669,N,11738.1699,W,63.54,120.35,280710,,,A*4D
$GPRMC,220555.000,A,3326.8398,N,11738.1130,W,65.94,117.70,280710,,,A*4A
$GPRMC,220558.000,A,3326.8081,N,11738.0552,W,70.09,121.01,280710,,,A*4E
$GPRMC,220601.000,A,3326.7765,N,11737.9947,W,70.76,121.18,280710,,,A*4D
$GPRMC,220604.000,A,3326.7450,N,11737.9366,W,70.21,124.44,280710,,,A*4A
$GPRMC,220607.000,A,3326.7109,N,11737.8809,W,70.77,129.83,280710,,,A*46
$GPRMC,220610.000,A,3326.6724,N,11737.8324,W,68.02,132.68,280710,,,A*48
$GPRMC,220613.000,A,3326.6327,N,11737.7862,W,67.07,135.02,280710,,,A*4B
$GPRMC,220616.000,A,3326.5939,N,11737.7412,W,66.19,134.74,280710,,,A*4D
$GPRMC,220619.000,A,3326.5554,N,11737.6944,W,65.70,135.48,280710,,,A*48
$GPRMC,220622.000,A,3326.5165,N,11737.6469,W,66.29,134.74,280710,,,A*45
$GPRMC,220625.000,A,3326.4777,N,11737.5979,W,66.87,132.54,280710,,,A*49
$GPRMC,220628.000,A,3326.4421,N,11737.5453,W,67.52,126.13,280710,,,A*4E
$GPRMC,220631.000,A,3326.4094,N,11737.4897,W,67.65,124.29,280710,,,A*46
$GPRMC,220634.000,A,3326.3770,N,11737.4336,W,67.71,124.33,280710,,,A*47
$GPRMC,220637.000,A,3326.3457,N,11737.3768,W,67.72,123.60,280710,,,A*48
$GPRMC,220640.000,A,3326.3142,N,11737.3201,W,68.02,123.47,280710,,,A*4E
$GPRMC,220643.000,A,3326.2824,N,11737.2630,W,68.47,123.59,280710,,,A*4C
$GPRMC,220646.000,A,3326.2491,N,11737.2064,W,69.32,127.35,280710,,,A*41
$GPRMC,220649.000,A,3326.2111,N,11737.1534,W,69.90,133.25,280710,,,A*4C
$GPRMC,220652.000,A,3326.1691,N,11737.1072,W,67.96,140.61,280710,,,A*41
$GPRMC,220655.000,A,3326.1241,N,11737.0687,W,67.35,146.69,280710,,,A*45
$GPRMC,220658.000,A,3326.0765,N,11737.0355,W,67.24,149.18,280710,,,A*49
$GPRMC,220701.000,A,3326.0283,N,11737.0028,W,66.49,150.55,280710,,,A*4B
$GPRMC,220704.000,A,3325.9797,N,11736.9703,W,66.87,150.83,280710,,,A*4B
$GPRMC,220707.000,A,3325.9313,N,11736.9383,W,65.42,150.55,280710,,,A*4D
$GPRMC,220710.000,A,3325.8856,N,11736.9008,W,66.77,142.15,280710,,,A*42
$GPRMC,220713.000,A,3325.8456,N,11736.8566,W,65.29,135.19,280710,,,A*45
$GPRMC,220716.000,A,3325.8077,N,11736.8111,W,65.43,133.33,280710,,,A*41
$GPRMC,220719.000,A,3325.7695,N,11736.7650,W,66.22,136.52,280710,,,A*40
$GPRMC,220722.000,A,3325.7269,N,11736.7193,W,67.10,141.90,280710,,,A*49
$GPRMC,220725.000,A,3325.6790,N,11736.6778,W,68.74,146.55,280710,,,A*4D
$GPRMC,220728.000,A,3325.6297,N,11736.6408,W,69.12,149.19,280710,,,A*40
$GPRMC,220731.000,A,3325.5797,N,11736.6065,W,69.01,150.27,280710,,,A*46
$GPRMC,220734.000,A,3325.5302,N,11736.5729,W,67.85,150.86,280710,,,A*4E
$GPRMC,220737.000,A,3325.4808,N,11736.5399,W,67.66,151.60,280710,,,A*46
$GPRMC,220740.000,A,3325.4302,N,11736.5107,W,67.51,155.97,280710,,,A*4A
$GPRMC,220743.000,A,3325.3787,N,11736.4856,W,66.31,157.92,280710,,,A*4B
$GPRMC,220746.000,A,3325.3280,N,11736.4606,W,65.90,156.78,280710,,,A*4A
$GPRMC,220749.000,A,3325.2791,N,11736.4309,W,66.22,150.35,280710,,,A*4E
$GPRMC,220752.000,A,3325.2330,N,11736.3949,W,66.12,144.71,280710,,,A*44
$GPRMC,220755.000,A,3325.1855,N,11736.3580,W,66.91,145.28,280710,,,A*47
$GPRMC,220758.000,A,3325.1391,N,11736.3193,W,67.19,146.14,280710,,,A*42
$GPRMC,220801.000,A,3325.0893,N,11736.2875,W,67.65,155.72,280710,,,A*40
$GPRMC,220804.000,A,3325.0375,N,11736.2605,W,67.39,155.93,280710,,,A*49
$GPRMC,220807.000,A,3324.9854,N,11736.2347,W,66.74,157.30,280710,,,A*4A
$GPRMC,220810.000,A,3324.9331,N,11736.2092,W,67.05,156.73,280710,,,A*4E
$GPRMC,220813.000,A,3324.8813,N,11736.1832,W,67.38,157.00,280710,,,A*4D
$GPRMC,220816.000,A,3324.8294,N,11736.1571,W,67.46,157.87,280710,,,A*41
$GPRMC,220819.000,A,3324.7772,N,11736.1310,W,67.81,156.62,280710,,,A*4C
$GPRMC,220822.000,A,3324.7250,N,11736.1047,W,67.47,157.00,280710,,,A*4F
$GPRMC,220825.000,A,3324.6731,N,11736.0783,W,67.44,156.95,280710,,,A*4B
$GPRMC,220828.000,A,3324.6213,N,11736.0523,W,67.34,156.46,280710,,,A*42
$GPRMC,220831.000,A,3324.5701,N,11736.0263,W,66.56,156.84,280710,,,A*47
$GPRMC,220834.000,A,3324.5196,N,11736.0006,W,66.39,157.41,280710,,,A*4A
$GPRMC,220837.000,A,3324.4691,N,11735.9752,W,66.14,156.44,280710,,,A*4F
$GPRMC,220840.000,A,3324.4183,N,11735.9496,W,66.18,157.17,280710,,,A*4B
$GPRMC,220843.000,A,3324.3670,N,11735.9230,W,67.60,156.82,280710,,,A*4D
$GPRMC,220846.000,A,3324.3146,N,11735.8963,W,67.74,156.61,280710,,,A*4E
$GPRMC,220849.000,A,3324.2625,N,11735.8709,W,67.28,158.14,280710,,,A*45
$GPRMC,220852.000,A,3324.2102,N,11735.8449,W,67.82,157.57,280710,,,A*42
$GPRMC,220855.000,A,3324.1572,N,11735.8187,W,68.96,158.33,280710,,,A*45
$GPRMC,220858.000,A,3324.1041,N,11735.7919,W,69.14,156.57,280710,,,A*4A
$GPRMC,220901.000,A,3324.0506,N,11735.7651,W,69.34,157.02,280710,,,A*40
$GPRMC,220904.000,A,3323.9966,N,11735.7384,W,70.16,157.68,280710,,,A*48
$GPRMC,220907.000,A,3323.9422,N,11735.7119,W,70.37,157.50,280710,,,A*48
$GPRMC,220910.000,A,3323.8894,N,11735.6866,W,69.35,156.56,280710,,,A*43
$GPRMC,220913.000,A,3323.8374,N,11735.6604,W,68.74,155.11,280710,,,A*4B
$GPRMC,220916.000,A,3323.7857,N,11735.6323,W,68.19,154.12,280710,,,A*42
$GPRMC,220919.000,A,3323.7350,N,11735.6017,W,68.03,152.66,280710,,,A*4B
$GPRMC,220922.000,A,3323.6853,N,11735.5698,W,67.69,150.82,280710,,,A*43
$GPRMC,220925.000,A,3323.6369,N,11735.5368,W,67.27,149.64,280710,,,A*46
$GPRMC,220928.000,A,3323.5892,N,11735.5021,W,67.14,148.13,280710,,,A*48
$GPRMC,220931.000,A,3323.5419,N,11735.4653,W,67.64,147.62,280710,,,A*43
$GPRMC,220934.000,A,3323.4943,N,11735.4285,W,67.95,146.57,280710,,,A*43
$GPRMC,220937.000,A,3323.4465,N,11735.3913,W,68.57,146.77,280710,,,A*49
$GPRMC,220940.000,A,3323.3991,N,11735.3530,W,68.65,145.32,280710,,,A*46
$GPRMC,220943.000,A,3323.3514,N,11735.3151,W,68.97,145.99,280710,,,A*4B
$GPRMC,220946.000,A,3323.3064,N,11735.2733,W,68.46,140.50,280710,,,A*43
$GPRMC,220949.000,A,3323.2635,N,11735.2292,W,68.31,137.24,280710,,,A*42
$GPRMC,220952.000,A,3323.2248,N,11735.1801,W,68.12,131.75,280710,,,A*46
$GPRMC,220955.000,A,3323.1872,N,11735.1285,W,69.00,127.97,280710,,,A*4E
$GPRMC,220958.000,A,3323.1545,N,11735.0740,W,68.31,122.40,280710,,,A*4B
$GPRMC,221001.000,A,3323.1272,N,11735.0148,W,68.49,117.26,280710,,,A*4B
$GPRMC,221004.000,A,3323.1025,N,11734.9527,W,68.88,114.82,280710,,,A*4B
$GPRMC,221007.000,A,3323.0793,N,11734.8880,W,69.54,113.54,280710,,,A*4E
$GPRMC,221010.000,A,3323.0555,N,11734.8233,W,69.57,114.79,280710,,,A*49
$GPRMC,221013.000,A,3323.0311,N,11734.7597,W,69.73,114.51,280710,,,A*46
$GPRMC,221016.000,A,3323.0067,N,11734.6966,W,69.80,114.95,280710,,,A*46
$GPRMC,221019.000,A,3322.9822,N,11734.6334,W,69.88,114.86,280710,,,A*4F
$GPRMC,221022.000,A,3322.9583,N,11734.5712,W,68.60,114.72,280710,,,A*4E
$GPRMC,221025.000,A,3322.9347,N,11734.5098,W,68.23,114.96,280710,,,A*4F
$GPRMC,221028.000,A,3322.9109,N,11734.4485,W,68.01,114.78,280710,,,A*43
$GPRMC,221031.000,A,3322.8871,N,11734.3872,W,68.02,115.26,280710,,,A*46
$GPRMC,221034.000,A,3322.8630,N,11734.3258,W,68.05,114.97,280710,,,A*46
$GPRMC,221037.000,A,3322.8391,N,11734.2644,W,67.88,114.67,280710,,,A*46
$GPRMC,221040.000,A,3322.8153,N,11734.2032,W,67.74,114.75,280710,,,A*4D
$GPRMC,221043.000,A,3322.7926,N,11734.1417,W,66.58,113.26,280710,,,A*45
$GPRMC,221046.000,A,3322.7694,N,11734.0802,W,67.34,115.35,280710,,,A*40
$GPRMC,221049.000,A,3322.7454,N,11734.0188,W,67.85,114.95,280710,,,A*4B
$GPRMC,221052.000,A,3322.7196,N,11733.9592,W,67.41,121.03,280710,,,A*4A
$GPRMC,221055.000,A,3322.6879,N,11733.9038,W,67.05,128.59,280710,,,A*47
$GPRMC,221058.000,A,3322.6509,N,11733.8530,W,67.66,133.48,280710,,,A*43
$GPRMC,221101.000,A,3322.6106,N,11733.8069,W,67.52,136.62,280710,,,A*46
$GPRMC,221104.000,A,3322.5699,N,11733.7626,W,66.82,136.89,280710,,,A*4A
$GPRMC,221107.000,A,3322.5307,N,11733.7179,W,65.71,133.75,280710,,,A*4F
$GPRMC,221110.000,A,3322.4969,N,11733.6691,W,64.80,126.73,280710,,,A*47
$GPRMC,221113.000,A,3322.4665,N,11733.6165,W,64.61,124.10,280710,,,A*43
$GPRMC,221116.000,A,3322.4372,N,11733.5623,W,64.71,122.95,280710,,,A*49
$GPRMC,221119.000,A,3322.4077,N,11733.5077,W,64.86,122.92,280710,,,A*48
$GPRMC,221122.000,A,3322.3778,N,11733.4533,W,65.14,123.10,280710,,,A*4A
$GPRMC,221125.000,A,3322.3472,N,11733.3997,W,65.29,122.74,280710,,,A*4C
$GPRMC,221128.000,A,3322.3175,N,11733.3460,W,64.88,123.20,280710,,,A*4C
$GPRMC,221131.000,A,3322.2873,N,11733.2926,W,64.75,125.30,280710,,,A*41
$GPRMC,221134.000,A,3322.2577,N,11733.2382,W,65.05,123.56,280710,,,A*49
$GPRMC,221137.000,A,3322.2286,N,11733.1833,W,65.15,123.60,280710,,,A*45
$GPRMC,221140.000,A,3322.1988,N,11733.1298,W,64.82,123.04,280710,,,A*45
$GPRMC,221143.000,A,3322.1700,N,11733.0750,W,64.78,123.08,280710,,,A*41
$GPRMC,221146.000,A,3322.1411,N,11733.0197,W,65.17,122.87,280710,,,A*44
$GPRMC,221149.000,A,3322.1120,N,11732.9646,W,64.98,122.94,280710,,,A*4B
$GPRMC,221152.000,A,3322.0827,N,11732.9102,W,64.95,123.38,280710,,,A*43
$GPRMC,221155.000,A,3322.0534,N,11732.8563,W,64.34,123.33,280710,,,A*49
$GPRMC,221158.000,A,3322.0226,N,11732.8063,W,62.72,127.40,280710,,,A*41
$GPRMC,221201.000,A,3321.9899,N,11732.7578,W,62.81,128.63,280710,,,A*48
$GPRMC,221204.000,A,3321.9566,N,11732.7092,W,62.75,128.45,280710,,,A*4E
$GPRMC,221207.000,A,3321.9236,N,11732.6609,W,62.25,129.37,280710,,,A*4B
$GPRMC,221210.000,A,3321.8920,N,11732.6156,W,58.67,128.58,280710,,,A*4A
$GPRMC,221213.000,A,3321.8618,N,11732.5717,W,57.28,128.72,280710,,,A*41
$GPRMC,221216.000,A,3321.8314,N,11732.5275,W,57.47,129.06,280710,,,A*47
$GPRMC,221219.000,A,3321.8006,N,11732.4826,W,57.90,128.87,280710,,,A*47
$GPRMC,221222.000,A,3321.7695,N,11732.4371,W,58.67,129.45,280710,,,A*4D
$GPRMC,221225.000,A,3321.7365,N,11732.3901,W,61.39,129.56,280710,,,A*49
$GPRMC,221228.000,A,3321.7023,N,11732.3405,W,63.07,129.56,280710,,,A*43
$GPRMC,221231.000,A,3321.6674,N,11732.2895,W,65.29,129.16,280710,,,A*44
$GPRMC,221234.000,A,3321.6315,N,11732.2370,W,69.48,129.66,280710,,,A*4F
$GPRMC,221237.000,A,3321.5945,N,11732.1832,W,69.28,128.90,280710,,,A*40
$GPRMC,221240.000,A,3321.5588,N,11732.1292,W,69.13,129.07,280710,,,A*4A
$GPRMC,221243.000,A,3321.5227,N,11732.0755,W,69.55,129.83,280710,,,A*4A
$GPRMC,221246.000,A,3321.4863,N,11732.0219,W,69.77,128.62,280710,,,A*47
$GPRMC,221249.000,A,3321.4507,N,11731.9685,W,68.82,129.24,280710,,,A*44
$GPRMC,221252.000,A,3321.4148,N,11731.9164,W,68.22,129.35,280710,,,A*43
$GPRMC,221255.000,A,3321.3805,N,11731.8646,W,66.02,128.78,280710,,,A*41
$GPRMC,221258.000,A,3321.3465,N,11731.8141,W,65.34,129.61,280710,,,A*49
$GPRMC,221301.000,A,3321.3111,N,11731.7639,W,66.10,130.65,280710,,,A*4C
$GPRMC,221304.000,A,3321.2762,N,11731.7119,W,66.57,129.37,280710,,,A*43
$GPRMC,221307.000,A,3321.2407,N,11731.6605,W,66.76,130.17,280710,,,A*42
$GPRMC,221310.000,A,3321.2052,N,11731.6098,W,66.09,129.49,280710,,,A*49
$GPRMC,221313.000,A,3321.1710,N,11731.5589,W,65.91,128.64,280710,,,A*42
$GPRMC,221316.000,A,3321.1373,N,11731.5101,W,63.43,128.85,280710,,,A*44
$GPRMC,221319.000,A,3321.1055,N,11731.4631,W,60.75,128.49,280710,,,A*4F
$GPRMC,221322.000,A,3321.0742,N,11731.4179,W,58.79,129.14,280710,,,A*42
$GPRMC,221325.000,A,3321.0440,N,11731.3733,W,58.03,128.56,280710,,,A*41
$GPRMC,221328.000,A,3321.0123,N,11731.3298,W,60.43,130.82,280710,,,A*47
$GPRMC,221331.000,A,3320.9821,N,11731.2860,W,59.02,130.07,280710,,,A*42
$GPRMC,221334.000,A,3320.9502,N,11731.2406,W,60.43,129.23,280710,,,A*46
$GPRMC,221337.000,A,3320.9166,N,11731.1924,W,62.74,129.09,280710,,,A*43
$GPRMC,221341.000,A,3320.8715,N,11731.1269,W,62.87,129.53,280710,,,A*40
$GPRMC,221344.000,A,3320.8390,N,11731.0792,W,61.16,128.53,280710,,,A*46
$GPRMC,221347.000,A,3320.8022,N,11731.0304,W,67.86,130.50,280710,,,A*41
$GPRMC,221350.000,A,3320.7646,N,11730.9793,W,68.57,130.90,280710,,,A*41
$GPRMC,221353.000,A,3320.7270,N,11730.9275,W,68.43,131.10,280710,,,A*42
$GPRMC,221356.000,A,3320.6897,N,11730.8770,W,67.38,130.68,280710,,,A*49
$GPRMC,221359.000,A,3320.6533,N,11730.8269,W,67.19,130.17,280710,,,A*43
$GPRMC,221402.000,A,3320.6163,N,11730.7755,W,68.11,131.17,280710,,,A*48
$GPRMC,221405.000,A,3320.5792,N,11730.7235,W,68.38,131.31,280710,,,A*48
$GPRMC,221408.000,A,3320.5422,N,11730.6716,W,68.47,131.41,280710,,,A*47
$GPRMC,221411.000,A,3320.5045,N,11730.6204,W,68.40,130.66,280710,,,A*4F
$GPRMC,221414.000,A,3320.4670,N,11730.5693,W,67.86,132.65,280710,,,A*46
$GPRMC,221417.000,A,3320.4302,N,11730.5185,W,67.92,130.48,280710,,,A*4D
$GPRMC,221420.000,A,3320.3928,N,11730.4677,W,69.56,131.86,280710,,,A*42
$GPRMC,221423.000,A,3320.3553,N,11730.4178,W,68.92,131.03,280710,,,A*4D
$GPRMC,221426.000,A,3320.3182,N,11730.3666,W,68.03,130.92,280710,,,A*4E
$GPRMC,221429.000,A,3320.2809,N,11730.3153,W,68.34,130.92,280710,,,A*4F
$GPRMC,221432.000,A,3320.2431,N,11730.2632,W,69.47,130.59,280710,,,A*41
$GPRMC,221435.000,A,3320.2057,N,11730.2117,W,67.95,130.93,280710,,,A*45
$GPRMC,221438.000,A,3320.1685,N,11730.1606,W,67.65,131.44,280710,,,A*42
$GPRMC,221441.000,A,3320.1325,N,11730.1110,W,63.63,131.20,280710,,,A*43
$GPRMC,221444.000,A,3320.0986,N,11730.0648,W,61.08,130.74,280710,,,A*40
$GPRMC,221447.000,A,3320.0660,N,11730.0200,W,58.06,130.29,280710,,,A*40
$GPRMC,221450.000,A,3320.0348,N,11729.9777,W,55.26,131.55,280710,,,A*48
$GPRMC,221453.000,A,3320.0022,N,11729.9323,W,60.76,131.05,280710,,,A*47
$GPRMC,221456.000,A,3319.9676,N,11729.8855,W,62.54,133.10,280710,,,A*49
$GPRMC,221459.000,A,3319.9324,N,11729.8375,W,64.01,130.03,280710,,,A*4A
$GPRMC,221502.000,A,3319.8969,N,11729.7887,W,65.75,130.20,280710,,,A*4D
$GPRMC,221505.000,A,3319.8601,N,11729.7374,W,68.55,131.36,280710,,,A*45
$GPRMC,221508.000,A,3319.8228,N,11729.6864,W,67.59,131.50,280710,,,A*4F
$GPRMC,221511.000,A,3319.7865,N,11729.6364,W,65.81,130.44,280710,,,A*43
$GPRMC,221514.000,A,3319.7515,N,11729.5885,W,63.88,132.23,280710,,,A*47
$GPRMC,221517.000,A,3319.7169,N,11729.5414,W,63.70,131.46,280710,,,A*48
$GPRMC,221520.000,A,3319.6824,N,11729.4949,W,62.54,130.75,280710,,,A*4F
$GPRMC,221523.000,A,3319.6480,N,11729.4480,W,62.77,131.72,280710,,,A*41
$GPRMC,221526.000,A,3319.6134,N,11729.4006,W,63.05,131.42,280710,,,A*43
$GPRMC,221529.000,A,3319.5789,N,11729.3512,W,64.19,131.12,280710,,,A*47
$GPRMC,221532.000,A,3319.5426,N,11729.3007,W,66.65,131.65,280710,,,A*43
$GPRMC,221535.000,A,3319.5049,N,11729.2487,W,68.44,130.55,280710,,,A*4B
$GPRMC,221538.000,A,3319.4670,N,11729.1960,W,69.30,131.14,280710,,,A*4A
$GPRMC,221541.000,A,3319.4286,N,11729.1423,W,72.48,130.75,280710,,,A*40
$GPRMC,221544.000,A,3319.3899,N,11729.0915,W,69.61,133.43,280710,,,A*48
$GPRMC,221547.000,A,3319.3477,N,11729.0467,W,68.49,142.13,280710,,,A*47
$GPRMC,221550.000,A,3319.3008,N,11729.0097,W,67.59,149.54,280710,,,A*40
$GPRMC,221553.000,A,3319.2501,N,11728.9810,W,67.50,157.91,280710,,,A*4E
$GPRMC,221556.000,A,3319.1949,N,11728.9627,W,68.33,167.18,280710,,,A*4A
$GPRMC,221559.000,A,3319.1380,N,11728.9526,W,68.16,174.02,280710,,,A*46
$GPRMC,221602.000,A,3319.0815,N,11728.9476,W,66.96,175.42,280710,,,A*4A
$GPRMC,221605.000,A,3319.0265,N,11728.9431,W,65.61,175.17,280710,,,A*48
$GPRMC,221608.000,A,3318.9728,N,11728.9382,W,64.40,175.80,280710,,,A*42
$GPRMC,221611.000,A,3318.9182,N,11728.9332,W,65.73,173.89,280710,,,A*49
$GPRMC,221614.000,A,3318.8651,N,11728.9225,W,64.80,167.57,280710,,,A*48
$GPRMC,221617.000,A,3318.8125,N,11728.9035,W,66.52,158.97,280710,,,A*41
$GPRMC,221620.000,A,3318.7624,N,11728.8747,W,66.80,151.08,280710,,,A*4F
$GPRMC,221623.000,A,3318.7148,N,11728.8378,W,66.99,142.77,280710,,,A*4B
$GPRMC,221626.000,A,3318.6665,N,11728.7928,W,72.30,136.41,280710,,,A*47
$GPRMC,221629.000,A,3318.6240,N,11728.7423,W,72.43,134.10,280710,,,A*4F
$GPRMC,221632.000,A,3318.5836,N,11728.6909,W,71.55,133.64,280710,,,A*49
$GPRMC,221635.000,A,3318.5475,N,11728.6447,W,61.43,134.66,280710,,,A*41
$GPRMC,221638.000,A,3318.5125,N,11728.6021,W,59.03,135.78,280710,,,A*49
$GPRMC,221641.000,A,3318.4787,N,11728.5610,W,58.26,135.09,280710,,,A*4F
$GPRMC,221644.000,A,3318.4454,N,11728.5215,W,57.71,134.60,280710,,,A*45
$GPRMC,221647.000,A,3318.4123,N,11728.4807,W,57.70,134.53,280710,,,A*4A
$GPRMC,221650.000,A,3318.3785,N,11728.4386,W,58.31,134.53,280710,,,A*49
$GPRMC,221653.000,A,3318.3433,N,11728.3952,W,59.64,134.81,280710,,,A*4E
$GPRMC,221656.000,A,3318.3077,N,11728.3510,W,61.50,133.32,280710,,,A*46
$GPRMC,221659.000,A,3318.2704,N,11728.3031,W,66.80,133.46,280710,,,A*44
$GPRMC,221702.000,A,3318.2319,N,11728.2549,W,66.45,134.44,280710,,,A*44
$GPRMC,221704.000,A,3318.2072,N,11728.2247,W,63.74,134.43,280710,,,A*45
$GPRMC,221708.000,A,3318.1599,N,11728.1669,W,61.27,134.45,280710,,,A*43
$GPRMC,221710.000,A,3318.1355,N,11728.1373,W,63.25,134.78,280710,,,A*4C
$GPRMC,221714.000,A,3318.0817,N,11728.0747,W,69.30,135.73,280710,,,A*42
$GPRMC,221717.000,A,3318.0404,N,11728.0253,W,69.83,134.64,280710,,,A*40
$GPRMC,221720.000,A,3317.9998,N,11727.9754,W,69.38,132.30,280710,,,A*49
$GPRMC,221723.000,A,3317.9595,N,11727.9287,W,67.29,133.60,280710,,,A*4A
$GPRMC,221726.000,A,3317.9189,N,11727.8802,W,69.06,135.20,280710,,,A*41
$GPRMC,221729.000,A,3317.8782,N,11727.8318,W,70.17,135.01,280710,,,A*49
$GPRMC,221732.000,A,3317.8379,N,11727.7830,W,68.86,133.05,280710,,,A*4E
$GPRMC,221735.000,A,3317.7972,N,11727.7342,W,68.78,134.53,280710,,,A*4C
$GPRMC,221738.000,A,3317.7562,N,11727.6848,W,69.35,135.21,280710,,,A*40
$GPRMC,221741.000,A,3317.7148,N,11727.6354,W,69.73,134.96,280710,,,A*4B
$GPRMC,221744.000,A,3317.6735,N,11727.5860,W,70.00,135.32,280710,,,A*4F
$GPRMC,221747.000,A,3317.6292,N,11727.5411,W,69.87,142.80,280710,,,A*40
$GPRMC,221750.000,A,3317.5822,N,11727.5009,W,69.65,146.97,280710,,,A*47
$GPRMC,221753.000,A,3317.5343,N,11727.4622,W,69.67,146.86,280710,,,A*44
$GPRMC,221756.000,A,3317.4862,N,11727.4252,W,69.18,147.40,280710,,,A*48
$GPRMC,221759.000,A,3317.4379,N,11727.3879,W,69.11,146.55,280710,,,A*4E
$GPRMC,221802.000,A,3317.3898,N,11727.3497,W,69.48,145.97,280710,,,A*41
$GPRMC,221805.000,A,3317.3414,N,11727.3116,W,69.84,147.22,280710,,,A*4E
$GPRMC,221808.000,A,3317.2914,N,11727.2737,W,70.72,147.62,280710,,,A*4E
$GPRMC,221811.000,A,3317.2414,N,11727.2348,W,71.09,146.71,280710,,,A*49
$GPRMC,221814.000,A,3317.1920,N,11727.1966,W,69.78,147.54,280710,,,A*49
$GPRMC,221817.000,A,3317.1430,N,11727.1595,W,69.18,147.78,280710,,,A*4E
$GPRMC,221820.000,A,3317.0944,N,11727.1230,W,69.02,147.20,280710,,,A*4B
$GPRMC,221823.000,A,3317.0455,N,11727.0860,W,68.63,147.88,280710,,,A*4F
$GPRMC,221826.000,A,3316.9974,N,11727.0493,W,67.98,146.48,280710,,,A*4A
$GPRMC,221829.000,A,3316.9489,N,11727.0131,W,69.26,148.56,280710,,,A*4D
$GPRMC,221832.000,A,3316.9006,N,11726.9765,W,68.05,146.58,280710,,,A*4B
$GPRMC,221835.000,A,3316.8531,N,11726.9397,W,67.45,147.62,280710,,,A*46
$GPRMC,221838.000,A,3316.8050,N,11726.9033,W,68.03,147.73,280710,,,A*49
$GPRMC,221841.000,A,3316.7580,N,11726.8664,W,67.71,146.52,280710,,,A*4D
$GPRMC,221844.000,A,3316.7106,N,11726.8305,W,67.14,147.09,280710,,,A*4C
$GPRMC,221847.000,A,3316.6637,N,11726.7955,W,65.56,147.85,280710,,,A*4B
$GPRMC,221850.000,A,3316.6179,N,11726.7612,W,64.72,147.69,280710,,,A*49
$GPRMC,221853.000,A,3316.5721,N,11726.7280,W,64.69,148.11,280710,,,A*47
$GPRMC,221856.000,A,3316.5285,N,11726.6947,W,62.24,147.94,280710,,,A*45
$GPRMC,221859.000,A,3316.4841,N,11726.6617,W,63.28,148.09,280710,,,A*45
$GPRMC,221902.000,A,3316.4392,N,11726.6274,W,64.22,147.51,280710,,,A*41
$GPRMC,221905.000,A,3316.3947,N,11726.5918,W,64.12,146.15,280710,,,A*43
$GPRMC,221908.000,A,3316.3526,N,11726.5522,W,64.17,139.47,280710,,,A*4A
$GPRMC,221911.000,A,3316.3129,N,11726.5091,W,63.98,134.68,280710,,,A*44
$GPRMC,221914.000,A,3316.2749,N,11726.4639,W,64.39,132.65,280710,,,A*42
$GPRMC,221917.000,A,3316.2363,N,11726.4156,W,68.73,132.32,280710,,,A*43
$GPRMC,221920.000,A,3316.1980,N,11726.3647,W,68.68,131.26,280710,,,A*4F
$GPRMC,221923.000,A,3316.1597,N,11726.3129,W,69.46,131.00,280710,,,A*40
$GPRMC,221926.000,A,3316.1208,N,11726.2598,W,70.04,131.55,280710,,,A*45
$GPRMC,221929.000,A,3316.0818,N,11726.2064,W,70.37,131.38,280710,,,A*4D
$GPRMC,221932.000,A,3316.0422,N,11726.1523,W,72.53,130.74,280710,,,A*4E
$GPRMC,221935.000,A,3316.0033,N,11726.0973,W,72.08,129.86,280710,,,A*4E
$GPRMC,221938.000,A,3315.9659,N,11726.0454,W,66.26,132.33,280710,,,A*46
$GPRMC,221941.000,A,3315.9283,N,11725.9939,W,67.40,132.47,280710,,,A*45
$GPRMC,221944.000,A,3315.8899,N,11725.9423,W,67.90,132.22,280710,,,A*48
$GPRMC,221947.000,A,3315.8492,N,11725.8958,W,67.65,139.44,280710,,,A*4D
$GPRMC,221950.000,A,3315.8047,N,11725.8565,W,66.87,146.01,280710,,,A*41
$GPRMC,221953.000,A,3315.7595,N,11725.8209,W,65.82,146.38,280710,,,A*46
$GPRMC,221956.000,A,3315.7150,N,11725.7863,W,64.66,146.40,280710,,,A*43
$GPRMC,221959.000,A,3315.6717,N,11725.7522,W,63.17,145.57,280710,,,A*44
$GPRMC,222002.000,A,3315.6288,N,11725.7181,W,62.04,146.69,280710,,,A*43
$GPRMC,222005.000,A,3315.5830,N,11725.6836,W,66.22,147.85,280710,,,A*49
$GPRMC,222008.000,A,3315.5361,N,11725.6466,W,68.45,146.12,280710,,,A*42
$GPRMC,222011.000,A,3315.4887,N,11725.6089,W,68.57,146.33,280710,,,A*4D
$GPRMC,222014.000,A,3315.4415,N,11725.5715,W,68.48,145.86,280710,,,A*4D
$GPRMC,222017.000,A,3315.3936,N,11725.5334,W,69.47,146.65,280710,,,A*42
$GPRMC,222020.000,A,3315.3459,N,11725.4956,W,68.79,146.52,280710,,,A*45
$GPRMC,222023.000,A,3315.2987,N,11725.4581,W,68.29,146.79,280710,,,A*43
$GPRMC,222026.000,A,3315.2518,N,11725.4208,W,67.87,145.63,280710,,,A*49
$GPRMC,222029.000,A,3315.2044,N,11725.3836,W,67.98,147.90,280710,,,A*4A
$GPRMC,222032.000,A,3315.1564,N,11725.3457,W,68.22,145.94,280710,,,A*47
$GPRMC,222035.000,A,3315.1085,N,11725.3077,W,68.50,146.69,280710,,,A*48
$GPRMC,222038.000,A,3315.0607,N,11725.2703,W,69.65,146.45,280710,,,A*44
$GPRMC,222041.000,A,3315.0138,N,11725.2332,W,67.06,146.45,280710,,,A*4C
$GPRMC,222044.000,A,3314.9673,N,11725.1959,W,67.37,145.54,280710,,,A*4C
$GPRMC,222047.000,A,3314.9202,N,11725.1580,W,67.83,145.11,280710,,,A*4B
$GPRMC,222050.000,A,3314.8722,N,11725.1222,W,67.85,149.88,280710,,,A*4E
$GPRMC,222053.000,A,3314.8224,N,11725.0929,W,66.19,155.79,280710,,,A*48
$GPRMC,222056.000,A,3314.7734,N,11725.0677,W,64.81,156.63,280710,,,A*49
$GPRMC,222059.000,A,3314.7249,N,11725.0454,W,62.50,159.11,280710,,,A*4A
$GPRMC,222102.000,A,3314.6775,N,11725.0250,W,60.76,159.38,280710,,,A*41
$GPRMC,222105.000,A,3314.6300,N,11725.0047,W,60.91,159.29,280710,,,A*4D
$GPRMC,222108.000,A,3314.5838,N,11724.9824,W,59.75,156.03,280710,,,A*41
$GPRMC,222111.000,A,3314.5404,N,11724.9546,W,59.95,148.82,280710,,,A*4B
$GPRMC,222114.000,A,3314.4967,N,11724.9203,W,64.28,144.83,280710,,,A*44
$GPRMC,222117.000,A,3314.4545,N,11724.8776,W,66.10,136.60,280710,,,A*4C
$GPRMC,222120.000,A,3314.4166,N,11724.8276,W,67.16,129.25,280710,,,A*40
$GPRMC,222123.000,A,3314.3833,N,11724.7729,W,67.58,125.26,280710,,,A*48
$GPRMC,222126.000,A,3314.3508,N,11724.7173,W,67.55,125.30,280710,,,A*4B
$GPRMC,222129.000,A,3314.3190,N,11724.6624,W,66.87,124.92,280710,,,A*42
$GPRMC,222132.000,A,3314.2875,N,11724.6086,W,66.17,125.61,280710,,,A*41
$GPRMC,222135.000,A,3314.2535,N,11724.5575,W,65.47,130.83,280710,,,A*4B
$GPRMC,222138.000,A,3314.2141,N,11724.5127,W,65.86,134.96,280710,,,A*4F
$GPRMC,222141.000,A,3314.1737,N,11724.4672,W,67.09,136.70,280710,,,A*4C
$GPRMC,222144.000,A,3314.1347,N,11724.4212,W,65.57,134.88,280710,,,A*44
$GPRMC,222147.000,A,3314.0965,N,11724.3748,W,65.47,136.18,280710,,,A*4B
$GPRMC,222151.000,A,3314.0447,N,11724.3130,W,66.58,136.48,280710,,,A*40
$GPRMC,222154.000,A,3314.0038,N,11724.2669,W,67.50,137.23,280710,,,A*46
$GPRMC,222157.000,A,3313.9631,N,11724.2196,W,68.06,135.15,280710,,,A*48
$GPRMC,222200.000,A,3313.9224,N,11724.1710,W,69.02,137.41,280710,,,A*44
$GPRMC,222203.000,A,3313.8806,N,11724.1232,W,68.90,137.05,280710,,,A*43
$GPRMC,222206.000,A,3313.8380,N,11724.0761,W,69.33,137.04,280710,,,A*48
$GPRMC,222209.000,A,3313.7951,N,11724.0286,W,69.56,137.13,280710,,,A*47
$GPRMC,222212.000,A,3313.7522,N,11723.9822,W,69.75,136.73,280710,,,A*49
$GPRMC,222215.000,A,3313.7109,N,11723.9364,W,67.43,136.98,280710,,,A*44
$GPRMC,222218.000,A,3313.6704,N,11723.8923,W,66.34,136.78,280710,,,A*44
$GPRMC,222221.000,A,3313.6307,N,11723.8456,W,67.24,134.86,280710,,,A*45
$GPRMC,222224.000,A,3313.5905,N,11723.7979,W,67.93,136.48,280710,,,A*48
$GPRMC,222227.000,A,3313.5484,N,11723.7519,W,68.42,137.79,280710,,,A*45
$GPRMC,222230.000,A,3313.5073,N,11723.7063,W,66.31,135.82,280710,,,A*4B
$GPRMC,222233.000,A,3313.4675,N,11723.6619,W,64.39,137.24,280710,,,A*47
$GPRMC,222236.000,A,3313.4277,N,11723.6180,W,64.56,137.28,280710,,,A*46
$GPRMC,222239.000,A,3313.3846,N,11723.5785,W,64.96,145.03,280710,,,A*46
$GPRMC,222242.000,A,3313.3366,N,11723.5453,W,66.82,151.26,280710,,,A*4E
$GPRMC,222245.000,A,3313.2847,N,11723.5177,W,67.03,159.20,280710,,,A*45
$GPRMC,222248.000,A,3313.2323,N,11723.4992,W,64.70,165.57,280710,,,A*4B
$GPRMC,222251.000,A,3313.1811,N,11723.4847,W,63.19,165.75,280710,,,A*4B
$GPRMC,222254.000,A,3313.1302,N,11723.4701,W,63.37,165.75,280710,,,A*46
$GPRMC,222257.000,A,3313.0785,N,11723.4549,W,63.85,165.92,280710,,,A*41
$GPRMC,222300.000,A,3313.0259,N,11723.4393,W,64.18,165.94,280710,,,A*42
$GPRMC,222303.000,A,3312.9722,N,11723.4233,W,65.76,165.87,280710,,,A*40
$GPRMC,222306.000,A,3312.9179,N,11723.4075,W,67.25,164.89,280710,,,A*46
$GPRMC,222309.000,A,3312.8636,N,11723.3864,W,68.60,158.98,280710,,,A*4A
$GPRMC,222312.000,A,3312.8115,N,11723.3567,W,68.74,152.36,280710,,,A*43
$GPRMC,222315.000,A,3312.7593,N,11723.3270,W,69.59,153.17,280710,,,A*4C
$GPRMC,222318.000,A,3312.7092,N,11723.2967,W,67.62,151.76,280710,,,A*4A
$GPRMC,222321.000,A,3312.6601,N,11723.2656,W,66.94,152.16,280710,,,A*4D
$GPRMC,222324.000,A,3312.6117,N,11723.2342,W,66.27,151.32,280710,,,A*45
$GPRMC,222327.000,A,3312.5638,N,11723.2028,W,64.95,150.77,280710,,,A*4B
$GPRMC,222330.000,A,3312.5152,N,11723.1713,W,66.10,151.26,280710,,,A*40
$GPRMC,222333.000,A,3312.4656,N,11723.1405,W,66.82,152.71,280710,,,A*4F
$GPRMC,222336.000,A,3312.4156,N,11723.1097,W,67.53,153.08,280710,,,A*40
$GPRMC,222339.000,A,3312.3667,N,11723.0757,W,67.61,147.05,280710,,,A*4E
$GPRMC,222342.000,A,3312.3210,N,11723.0373,W,66.98,142.63,280710,,,A*46
$GPRMC,222345.000,A,3312.2786,N,11722.9941,W,66.47,136.26,280710,,,A*49
$GPRMC,222348.000,A,3312.2440,N,11722.9475,W,63.16,129.83,280710,,,A*47
$GPRMC,222351.000,A,3312.2132,N,11722.8965,W,63.66,123.56,280710,,,A*47
$GPRMC,222354.000,A,3312.1881,N,11722.8419,W,62.55,117.01,280710,,,A*42
$GPRMC,222357.000,A,3312.1671,N,11722.7854,W,61.97,113.28,280710,,,A*48
$GPRMC,222400.000,A,3312.1487,N,11722.7291,W,59.95,112.04,280710,,,A*43
$GPRMC,222403.000,A,3312.1305,N,11722.6736,W,59.81,111.90,280710,,,A*4F
$GPRMC,222406.000,A,3312.1112,N,11722.6182,W,60.18,111.69,280710,,,A*4B
$GPRMC,222409.000,A,3312.0920,N,11722.5608,W,62.68,111.40,280710,,,A*44
$GPRMC,222412.000,A,3312.0725,N,11722.5016,W,63.67,110.22,280710,,,A*47
$GPRMC,222415.000,A,3312.0527,N,11722.4428,W,63.43,112.72,280710,,,A*49
$GPRMC,222418.000,A,3312.0328,N,11722.3858,W,62.44,112.28,280710,,,A*48
$GPRMC,222421.000,A,3312.0121,N,11722.3300,W,62.37,115.05,280710,,,A*43
$GPRMC,222424.000,A,3311.9883,N,11722.2759,W,61.51,119.48,280710,,,A*42
$GPRMC,222427.000,A,3311.9603,N,11722.2274,W,59.36,126.44,280710,,,A*47
$GPRMC,222430.000,A,3311.9287,N,11722.1830,W,58.86,132.28,280710,,,A*45
$GPRMC,222433.000,A,3311.8932,N,11722.1416,W,59.60,137.88,280710,,,A*4C
$GPRMC,222436.000,A,3311.8534,N,11722.1039,W,60.58,143.79,280710,,,A*46
$GPRMC,222439.000,A,3311.8110,N,11722.0684,W,61.02,145.02,280710,,,A*4E
$GPRMC,222442.000,A,3311.7678,N,11722.0327,W,62.14,145.25,280710,,,A*49
$GPRMC,222445.000,A,3311.7235,N,11721.9960,W,64.90,145.66,280710,,,A*4D
$GPRMC,222448.000,A,3311.6792,N,11721.9595,W,60.16,144.53,280710,,,A*42
$GPRMC,222451.000,A,3311.6392,N,11721.9269,W,55.60,145.76,280710,,,A*4B
$GPRMC,222454.000,A,3311.6012,N,11721.8962,W,54.05,145.06,280710,,,A*41
$GPRMC,222457.000,A,3311.5647,N,11721.8663,W,51.76,146.20,280710,,,A*4F
$GPRMC,222500.000,A,3311.5325,N,11721.8403,W,44.10,145.31,280710,,,A*4E
$GPRMC,222503.000,A,3311.5038,N,11721.8174,W,38.77,145.96,280710,,,A*40
$GPRMC,222506.000,A,3311.4793,N,11721.7968,W,35.52,145.17,280710,,,A*4B
$GPRMC,222509.000,A,3311.4546,N,11721.7764,W,36.50,144.86,280710,,,A*44
$GPRMC,222512.000,A,3311.4287,N,11721.7546,W,38.08,144.78,280710,,,A*44
$GPRMC,222515.000,A,3311.4043,N,11721.7345,W,34.42,146.20,280710,,,A*41
$GPRMC,222518.000,A,3311.3800,N,11721.7146,W,35.71,146.09,280710,,,A*4F
$GPRMC,222521.000,A,3311.3558,N,11721.6946,W,33.99,144.42,280710,,,A*41
$GPRMC,222524.000,A,3311.3336,N,11721.6758,W,31.82,144.15,280710,,,A*41
$GPRMC,222527.000,A,3311.3124,N,11721.6576,W,30.85,143.42,280710,,,A*4E
$GPRMC,222530.000,A,3311.2905,N,11721.6396,W,32.22,145.07,280710,,,A*42
$GPRMC,222533.000,A,3311.2673,N,11721.6211,W,35.33,144.99,280710,,,A*40
$GPRMC,222536.000,A,3311.2423,N,11721.6000,W,37.09,144.26,280710,,,A*4F
$GPRMC,222539.000,A,3311.2160,N,11721.5775,W,39.57,144.59,280710,,,A*49
$GPRMC,222542.000,A,3311.1887,N,11721.5538,W,40.41,143.89,280710,,,A*4E
$GPRMC,222546.000,A,3311.1499,N,11721.5218,W,44.88,147.41,280710,,,A*4D
$GPRMC,222549.000,A,3311.1224,N,11721.4984,W,39.32,145.62,280710,,,A*45
$GPRMC,222553.000,A,3311.0892,N,11721.4696,W,36.10,144.27,280710,,,A*4B
$GPRMC,222556.000,A,3311.0641,N,11721.4486,W,36.90,144.79,280710,,,A*4E
$GPRMC,222559.000,A,3311.0388,N,11721.4284,W,36.47,145.13,280710,,,A*42
$GPRMC,222602.000,A,3311.0159,N,11721.4099,W,33.15,144.79,280710,,,A*40
$GPRMC,222605.000,A,3310.9936,N,11721.3917,W,33.01,145.13,280710,,,A*4E
$GPRMC,222608.000,A,3310.9688,N,11721.3714,W,39.28,145.02,280710,,,A*45
$GPRMC,222611.000,A,3310.9414,N,11721.3484,W,40.43,144.89,280710,,,A*41
$GPRMC,222614.000,A,3310.9116,N,11721.3237,W,46.03,145.66,280710,,,A*4F
$GPRMC,222617.000,A,3310.8781,N,11721.2961,W,49.99,144.51,280710,,,A*45
$GPRMC,222620.000,A,3310.8449,N,11721.2687,W,48.20,144.40,280710,,,A*42
$GPRMC,222623.000,A,3310.8134,N,11721.2425,W,46.96,145.67,280710,,,A*43
$GPRMC,222626.000,A,3310.7804,N,11721.2162,W,47.59,145.77,280710,,,A*46
$GPRMC,222629.000,A,3310.7472,N,11721.1892,W,48.18,145.77,280710,,,A*4B
$GPRMC,222632.000,A,3310.7131,N,11721.1616,W,50.53,145.94,280710,,,A*4A
$GPRMC,222635.000,A,3310.6791,N,11721.1332,W,50.19,145.19,280710,,,A*48
$GPRMC,222638.000,A,3310.6447,N,11721.1042,W,50.92,145.45,280710,,,A*43
$GPRMC,222641.000,A,3310.6087,N,11721.0754,W,51.71,142.36,280710,,,A*4B
$GPRMC,222644.000,A,3310.5694,N,11721.0464,W,54.57,147.65,280710,,,A*4B
$GPRMC,222647.000,A,3310.5292,N,11721.0167,W,56.47,149.09,280710,,,A*4B
$GPRMC,222650.000,A,3310.4886,N,11720.9854,W,58.86,148.12,280710,,,A*4A
$GPRMC,222653.000,A,3310.4473,N,11720.9545,W,58.20,148.24,280710,,,A*4B
$GPRMC,222656.000,A,3310.4053,N,11720.9241,W,58.18,150.00,280710,,,A*4F
$GPRMC,222659.000,A,3310.3628,N,11720.8918,W,60.88,147.43,280710,,,A*48
$GPRMC,222702.000,A,3310.3198,N,11720.8591,W,61.03,147.57,280710,,,A*41
$GPRMC,222705.000,A,3310.2764,N,11720.8261,W,61.92,147.96,280710,,,A*4F
$GPRMC,222708.000,A,3310.2327,N,11720.7930,W,62.06,147.69,280710,,,A*4F
$GPRMC,222711.000,A,3310.1888,N,11720.7602,W,61.84,148.01,280710,,,A*4C
$GPRMC,222714.000,A,3310.1449,N,11720.7281,W,61.18,150.18,280710,,,A*43
$GPRMC,222717.000,A,3310.1002,N,11720.6995,W,60.46,153.05,280710,,,A*41
$GPRMC,222720.000,A,3310.0549,N,11720.6746,W,59.84,155.65,280710,,,A*4A
$GPRMC,222723.000,A,3310.0090,N,11720.6513,W,60.05,157.32,280710,,,A*49
$GPRMC,222726.000,A,3309.9629,N,11720.6281,W,60.10,156.71,280710,,,A*47
$GPRMC,222729.000,A,3309.9173,N,11720.6049,W,59.87,156.96,280710,,,A*4B
$GPRMC,222732.000,A,3309.8720,N,11720.5818,W,59.37,156.92,280710,,,A*40
$GPRMC,222735.000,A,3309.8266,N,11720.5586,W,59.37,157.14,280710,,,A*45
$GPRMC,222738.000,A,3309.7864,N,11720.5388,W,45.97,159.00,280710,,,A*4B
$GPRMC,222741.000,A,3309.7514,N,11720.5208,W,44.98,157.42,280710,,,A*40
$GPRMC,222744.000,A,3309.7194,N,11720.5039,W,40.85,156.68,280710,,,A*48
$GPRMC,222747.000,A,3309.6894,N,11720.4883,W,38.20,157.23,280710,,,A*45
$GPRMC,222750.000,A,3309.6602,N,11720.4731,W,37.02,157.07,280710,,,A*4D
$GPRMC,222753.000,A,3309.6326,N,11720.4587,W,36.57,156.47,280710,,,A*46
$GPRMC,222756.000,A,3309.6081,N,11720.4464,W,29.94,157.64,280710,,,A*40
$GPRMC,222759.000,A,3309.5912,N,11720.4378,W,17.05,157.37,280710,,,A*46
$GPRMC,222802.000,A,3309.5808,N,11720.4325,W,11.41,156.73,280710,,,A*42
$GPRMC,222805.000,A,3309.5723,N,11720.4281,W,10.71,156.45,280710,,,A*4B
$GPRMC,222808.000,A,3309.5632,N,11720.4235,W,11.58,156.04,280710,,,A*47
$GPRMC,222811.000,A,3309.5547,N,11720.4195,W,10.39,157.29,280710,,,A*4F
$GPRMC,222814.000,A,3309.5459,N,11720.4154,W,11.62,156.62,280710,,,A*48
$GPRMC,222817.000,A,3309.5310,N,11720.4076,W,19.99,156.89,280710,,,A*49
$GPRMC,222820.000,A,3309.5136,N,11720.3991,W,24.52,156.90,280710,,,A*4D
$GPRMC,222823.000,A,3309.4943,N,11720.3891,W,27.44,156.39,280710,,,A*43
$GPRMC,222826.000,A,3309.4711,N,11720.3775,W,34.28,157.62,280710,,,A*4D
$GPRMC,222829.000,A,3309.4446,N,11720.3639,W,37.44,156.62,280710,,,A*42
$GPRMC,222832.000,A,3309.4140,N,11720.3475,W,41.77,157.17,280710,,,A*43
$GPRMC,222835.000,A,3309.3817,N,11720.3303,W,42.88,157.35,280710,,,A*4D
$GPRMC,222838.000,A,3309.3486,N,11720.3132,W,43.24,157.08,280710,,,A*4D
$GPRMC,222841.000,A,3309.3146,N,11720.2961,W,44.38,156.23,280710,,,A*47
$GPRMC,222844.000,A,3309.2805,N,11720.2772,W,45.10,155.58,280710,,,A*45
$GPRMC,222847.000,A,3309.2467,N,11720.2579,W,45.01,153.13,280710,,,A*4E
$GPRMC,222850.000,A,3309.2127,N,11720.2361,W,46.61,151.11,280710,,,A*43
$GPRMC,222853.000,A,3309.1790,N,11720.2238,W,48.08,152.17,280710,,,A*40
$GPRMC,222856.000,A,3309.1455,N,11720.2057,W,46.36,155.30,280710,,,A*45
$GPRMC,222859.000,A,3309.1126,N,11720.1862,W,43.29,153.51,280710,,,A*4C
$GPRMC,222902.000,A,3309.0831,N,11720.1684,W,36.96,153.62,280710,,,A*4D
$GPRMC,222905.000,A,3309.0577,N,11720.1523,W,33.04,154.18,280710,,,A*4F
$GPRMC,222908.000,A,3309.0348,N,11720.1372,W,29.30,154.22,280710,,,A*4F
$GPRMC,222911.000,A,3309.0180,N,11720.1269,W,16.33,153.93,280710,,,A*48
$GPRMC,222923.000,A,3309.0045,N,11720.1194,W,9.57,156.67,280710,,,A*72
$GPRMC,222926.000,A,3308.9925,N,11720.1125,W,18.76,155.11,280710,,,A*4B
$GPRMC,222929.000,A,3308.9762,N,11720.1032,W,24.64,154.27,280710,,,A*46
$GPRMC,222932.000,A,3308.9559,N,11720.0915,W,27.96,154.41,280710,,,A*45
$GPRMC,222935.000,A,3308.9346,N,11720.0788,W,29.44,153.48,280710,,,A*4F
$GPRMC,222938.000,A,3308.9105,N,11720.0651,W,32.99,155.60,280710,,,A*44
$GPRMC,222941.000,A,3308.8831,N,11720.0521,W,36.74,158.65,280710,,,A*4E
$GPRMC,222944.000,A,3308.8513,N,11720.0403,W,41.48,162.64,280710,,,A*40
$GPRMC,222947.000,A,3308.8166,N,11720.0324,W,42.71,170.85,280710,,,A*42
$GPRMC,222950.000,A,3308.7807,N,11720.0289,W,43.86,177.92,280710,,,A*4B
$GPRMC,222953.000,A,3308.7428,N,11720.0259,W,46.87,173.30,280710,,,A*4C
$GPRMC,222955.000,A,3308.7167,N,11720.0251,W,47.10,178.25,280710,,,A*4C
$GPRMC,222959.000,A,3308.6662,N,11720.0225,W,44.94,177.12,280710,,,A*44
$GPRMC,223002.000,A,3308.6285,N,11720.0219,W,44.55,177.85,280710,,,A*43
$GPRMC,223005.000,A,3308.5971,N,11720.0194,W,34.10,174.56,280710,,,A*4A
$GPRMC,223008.000,A,3308.5727,N,11720.0155,W,25.12,171.90,280710,,,A*4A
$GPRMC,223011.000,A,3308.5528,N,11720.0108,W,22.31,168.92,280710,,,A*4B
$GPRMC,223014.000,A,3308.5349,N,11720.0049,W,21.77,165.03,280710,,,A*4F
$GPRMC,223016.000,A,3308.5230,N,11720.0002,W,21.78,163.07,280710,,,A*40
$GPRMC,223020.000,A,3308.5030,N,11719.9907,W,18.87,158.57,280710,,,A*4F
$GPRMC,223023.000,A,3308.4844,N,11719.9812,W,27.43,156.89,280710,,,A*4A
$GPRMC,223026.000,A,3308.4630,N,11719.9702,W,28.63,157.32,280710,,,A*40
$GPRMC,223029.000,A,3308.4404,N,11719.9587,W,29.73,156.82,280710,,,A*4F
$GPRMC,223032.000,A,3308.4186,N,11719.9474,W,27.82,156.97,280710,,,A*43
$GPRMC,223035.000,A,3308.3977,N,11719.9365,W,27.70,156.89,280710,,,A*40
$GPRMC,223038.000,A,3308.3752,N,11719.9248,W,30.72,157.41,280710,,,A*4B
$GPRMC,223041.000,A,3308.3511,N,11719.9126,W,31.32,157.76,280710,,,A*4A
$GPRMC,223044.000,A,3308.3271,N,11719.9009,W,31.94,157.63,280710,,,A*4A
$GPRMC,223047.000,A,3308.3021,N,11719.8882,W,32.35,157.20,280710,,,A*4B
$GPRMC,223050.000,A,3308.2772,N,11719.8752,W,32.95,156.47,280710,,,A*45
$GPRMC,223053.000,A,3308.2510,N,11719.8618,W,34.65,155.98,280710,,,A*47
$GPRMC,223056.000,A,3308.2243,N,11719.8483,W,33.94,156.59,280710,,,A*44
$GPRMC,223059.000,A,3308.1997,N,11719.8358,W,31.84,157.18,280710,,,A*4C
$GPRMC,223102.000,A,3308.1754,N,11719.8231,W,30.52,156.43,280710,,,A*49
$GPRMC,223105.000,A,3308.1539,N,11719.8123,W,25.11,156.55,280710,,,A*43
$GPRMC,223108.000,A,3308.1351,N,11719.8031,W,24.25,156.62,280710,,,A*46
$GPRMC,223111.000,A,3308.1169,N,11719.7941,W,24.17,157.02,280710,,,A*40
$GPRMC,223114.000,A,3308.0972,N,11719.7840,W,27.11,157.27,280710,,,A*44
$GPRMC,223117.000,A,3308.0750,N,11719.7733,W,28.91,157.78,280710,,,A*4F
$GPRMC,223120.000,A,3308.0542,N,11719.7638,W,26.09,157.71,280710,,,A*46
$GPRMC,223123.000,A,3308.0329,N,11719.7532,W,28.86,156.19,280710,,,A*41
$GPRMC,223126.000,A,3308.0119,N,11719.7417,W,26.39,155.69,280710,,,A*4D
$GPRMC,223129.000,A,3307.9936,N,11719.7327,W,23.52,156.69,280710,,,A*4E
$GPRMC,223132.000,A,3307.9761,N,11719.7238,W,23.29,155.85,280710,,,A*4A
$GPRMC,223135.000,A,3307.9571,N,11719.7128,W,25.25,153.46,280710,,,A*4F
$GPRMC,223138.000,A,3307.9391,N,11719.7017,W,23.69,154.34,280710,,,A*4B
$GPRMC,223141.000,A,3307.9228,N,11719.6925,W,20.43,154.09,280710,,,A*4A
$GPRMC,223144.000,A,3307.9109,N,11719.6853,W,12.82,150.96,280710,,,A*41
$GPRMC,223147.000,A,3307.9034,N,11719.6803,W,8.89,152.03,280710,,,A*76
$GPRMC,223150.000,A,3307.8964,N,11719.6760,W,8.74,153.23,280710,,,A*76
$GPRMC,223153.000,A,3307.8898,N,11719.6729,W,8.34,152.88,280710,,,A*7E
$GPRMC,223156.000,A,3307.8844,N,11719.6692,W,9.30,152.18,280710,,,A*77
$GPRMC,223159.000,A,3307.8744,N,11719.6607,W,16.10,152.54,280710,,,A*4F
$GPRMC,223202.000,A,3307.8609,N,11719.6514,W,19.42,153.66,280710,,,A*43
$GPRMC,223205.000,A,3307.8454,N,11719.6415,W,21.07,153.12,280710,,,A*47
$GPRMC,223208.000,A,3307.8312,N,11719.6328,W,19.02,153.63,280710,,,A*4E
$GPRMC,223211.000,A,3307.8151,N,11719.6233,W,24.30,153.70,280710,,,A*45
$GPRMC,223214.000,A,3307.7963,N,11719.6119,W,26.43,153.01,280710,,,A*4D
$GPRMC,223217.000,A,3307.7779,N,11719.6009,W,24.57,152.91,280710,,,A*44
$GPRMC,223220.000,A,3307.7609,N,11719.5906,W,22.43,153.13,280710,,,A*4B
$GPRMC,223223.000,A,3307.7445,N,11719.5808,W,21.77,153.80,280710,,,A*43
$GPRMC,223226.000,A,3307.7284,N,11719.5708,W,21.33,153.01,280710,,,A*4B
$GPRMC,223229.000,A,3307.7142,N,11719.5623,W,17.27,152.63,280710,,,A*40
$GPRMC,223232.000,A,3307.7025,N,11719.5550,W,15.54,151.93,280710,,,A*47
$GPRMC,223235.000,A,3307.6899,N,11719.5473,W,16.62,152.61,280710,,,A*46
$GPRMC,223238.000,A,3307.6761,N,11719.5388,W,20.19,153.82,280710,,,A*45
$GPRMC,223241.000,A,3307.6599,N,11719.5292,W,21.93,154.10,280710,,,A*4B
$GPRMC,223244.000,A,3307.6429,N,11719.5192,W,22.29,153.32,280710,,,A*42
$GPRMC,223247.000,A,3307.6268,N,11719.5095,W,21.44,153.62,280710,,,A*49
$GPRMC,223250.000,A,3307.6103,N,11719.4994,W,23.21,152.18,280710,,,A*45
$GPRMC,223253.000,A,3307.5922,N,11719.4880,W,25.01,152.10,280710,,,A*46
$GPRMC,223256.000,A,3307.5749,N,11719.4774,W,21.69,152.42,280710,,,A*49
$GPRMC,223259.000,A,3307.5594,N,11719.4682,W,20.46,153.25,280710,,,A*40
$GPRMC,223302.000,A,3307.5457,N,11719.4603,W,17.09,154.70,280710,,,A*40
$GPRMC,223305.000,A,3307.5313,N,11719.4518,W,21.05,153.15,280710,,,A*44
$GPRMC,223308.000,A,3307.5153,N,11719.4421,W,21.46,153.50,280710,,,A*42
$GPRMC,223311.000,A,3307.4998,N,11719.4333,W,20.53,153.43,280710,,,A*47
$GPRMC,223314.000,A,3307.4858,N,11719.4251,W,18.13,153.65,280710,,,A*41
$GPRMC,223317.000,A,3307.4723,N,11719.4169,W,19.07,152.11,280710,,,A*4F
$GPRMC,223320.000,A,3307.4560,N,11719.4068,W,23.35,153.34,280710,,,A*40
$GPRMC,223323.000,A,3307.4384,N,11719.3960,W,24.06,152.83,280710,,,A*43
$GPRMC,223326.000,A,3307.4200,N,11719.3849,W,24.57,152.14,280710,,,A*4B
$GPRMC,223329.000,A,3307.4024,N,11719.3740,W,23.59,152.87,280710,,,A*45
$GPRMC,223332.000,A,3307.3857,N,11719.3642,W,22.45,152.96,280710,,,A*4B
$GPRMC,223335.000,A,3307.3690,N,11719.3541,W,23.42,153.25,280710,,,A*46
$GPRMC,223338.000,A,3307.3516,N,11719.3436,W,23.46,153.26,280710,,,A*40
$GPRMC,223341.000,A,3307.3346,N,11719.3335,W,23.29,152.87,280710,,,A*4A
$GPRMC,223344.000,A,3307.3187,N,11719.3261,W,23.11,153.89,280710,,,A*44
$GPRMC,223347.000,A,3307.3025,N,11719.3186,W,23.07,152.92,280710,,,A*48
$GPRMC,223350.000,A,3307.2853,N,11719.3084,W,23.63,154.09,280710,,,A*43
$GPRMC,223353.000,A,3307.2675,N,11719.2967,W,23.00,152.89,280710,,,A*44
$GPRMC,223356.000,A,3307.2495,N,11719.2850,W,23.83,153.16,280710,,,A*44
$GPRMC,223359.000,A,3307.2318,N,11719.2735,W,22.91,153.81,280710,,,A*49
$GPRMC,223402.000,A,3307.2148,N,11719.2629,W,22.82,153.40,280710,,,A*44
$GPRMC,223405.000,A,3307.1966,N,11719.2521,W,25.75,152.73,280710,,,A*41
$GPRMC,223408.000,A,3307.1760,N,11719.2405,W,28.67,152.38,280710,,,A*42
$GPRMC,223411.000,A,3307.1532,N,11719.2274,W,31.44,152.82,280710,,,A*47
$GPRMC,223414.000,A,3307.1297,N,11719.2143,W,31.47,153.25,280710,,,A*42
