NMEA Sentence Code,UTC Time,Status,Latitude,Latitude Direction,Longitude,Longitude Direction,Speed (knots),Track Angle (degrees true),Date,MagneticVariation,Magnetic Variation Direction,[FAA Mode]-Optional,Checksum
$GPRMC,152519.9,A,3246.245100,N,11700.490879,W,16.3,326.4,030910,,,A*4F
$GPRMC,152522.9,A,3246.260407,N,11700.502662,W,24.5,328.6,030910,,,A*47
$GPRMC,152525.9,A,3246.279330,N,11700.516670,W,27.3,327.6,030910,,,A*47
$GPRMC,152528.9,A,3246.299295,N,11700.532168,W,28.4,327.5,030910,,,A*49
$GPRMC,152531.9,A,3246.317387,N,11700.549411,W,27.9,319.9,030910,,,A*40
$GPRMC,152534.9,A,3246.328898,N,11700.570540,W,27.0,305.9,030910,,,A*47
$GPRMC,152537.9,A,3246.343879,N,11700.591409,W,27.6,309.6,030910,,,A*40
$GPRMC,152540.9,A,3246.360226,N,11700.609829,W,26.0,316.7,030910,,,A*45
$GPRMC,152543.9,A,3246.375771,N,11700.623329,W,20.5,324.8,030910,,,A*4B
$GPRMC,152546.9,A,3246.386086,N,11700.631735,W,13.8,333.4,030910,,,A*40
$GPRMC,152549.9,A,3246.393925,N,11700.634991,W,8.6,345.0,030910,,,A*7F
$GPRMC,152619.9,A,3246.403348,N,11700.638578,W,8.3,333.5,030910,,,A*70
$GPRMC,152622.9,A,3246.414319,N,11700.642341,W,13.3,341.1,030910,,,A*40
$GPRMC,152625.9,A,3246.436246,N,11700.644518,W,25.0,353.9,030910,,,A*4D
$GPRMC,152628.9,A,3246.467415,N,11700.647493,W,32.1,349.2,030910,,,A*42
$GPRMC,152635.9,A,3246.526134,N,11700.683334,W,34.7,320.6,030910,,,A*45
$GPRMC,152638.9,A,3246.544834,N,11700.708162,W,33.0,305.3,030910,,,A*44
$GPRMC,152641.9,A,3246.555139,N,11700.736360,W,29.9,292.0,030910,,,A*4D
$GPRMC,152644.9,A,3246.561304,N,11700.761012,W,25.2,288.3,030910,,,A*48
$GPRMC,152647.9,A,3246.565033,N,11700.780468,W,17.8,289.2,030910,,,A*45
$GPRMC,152650.9,A,3246.566968,N,11700.790918,W,8.6,287.1,030910,,,A*71
$GPRMC,152705.9,A,3246.567673,N,11700.797952,W,8.1,282.0,030910,,,A*7E
$GPRMC,152708.9,A,3246.570668,N,11700.814196,W,20.2,281.6,030910,,,A*47
$GPRMC,152711.9,A,3246.573880,N,11700.838359,W,26.5,279.6,030910,,,A*4D
$GPRMC,152714.9,A,3246.578363,N,11700.865772,W,28.2,281.0,030910,,,A*48
$GPRMC,152717.9,A,3246.581549,N,11700.893606,W,27.3,281.5,030910,,,A*43
$GPRMC,152720.9,A,3246.584908,N,11700.916987,W,21.9,280.4,030910,,,A*4D
$GPRMC,152723.9,A,3246.585456,N,11700.930969,W,13.3,279.5,030910,,,A*41
$GPRMC,152726.9,A,3246.586790,N,11700.942968,W,14.5,279.6,030910,,,A*48
$GPRMC,152729.9,A,3246.590668,N,11700.961378,W,23.4,279.7,030910,,,A*48
$GPRMC,152732.9,A,3246.596859,N,11700.987584,W,28.5,280.3,030910,,,A*4D
$GPRMC,152735.9,A,3246.601412,N,11701.016986,W,29.4,282.3,030910,,,A*48
$GPRMC,152738.9,A,3246.609649,N,11701.044216,W,27.4,289.8,030910,,,A*4A
$GPRMC,152741.9,A,3246.621408,N,11701.063482,W,23.5,309.7,030910,,,A*44
$GPRMC,152744.9,A,3246.633759,N,11701.074634,W,17.0,326.0,030910,,,A*44
$GPRMC,152747.9,A,3246.641313,N,11701.078539,W,7.9,343.7,030910,,,A*76
$GPRMC,152835.9,A,3246.653692,N,11701.080632,W,5.3,317.3,030910,,,A*71
$GPRMC,152838.9,A,3246.661772,N,11701.088052,W,11.3,319.5,030910,,,A*47
$GPRMC,152841.9,A,3246.686367,N,11701.096674,W,24.0,335.7,030910,,,A*44
$GPRMC,152844.9,A,3246.717657,N,11701.103782,W,32.2,344.6,030910,,,A*49
$GPRMC,152847.9,A,3246.746125,N,11701.111621,W,34.0,348.2,030910,,,A*4B
$GPRMC,152850.9,A,3246.777451,N,11701.117153,W,37.4,352.1,030910,,,A*42
$GPRMC,152853.9,A,3246.809287,N,11701.122298,W,37.6,351.8,030910,,,A*40
$GPRMC,152856.9,A,3246.841015,N,11701.128316,W,38.8,350.9,030910,,,A*4C
$GPRMC,152859.9,A,3246.873151,N,11701.133201,W,39.1,352.4,030910,,,A*49
$GPRMC,152902.9,A,3246.903675,N,11701.137822,W,38.0,351.3,030910,,,A*4A
$GPRMC,152905.9,A,3246.933615,N,11701.146398,W,38.1,345.5,030910,,,A*46
$GPRMC,152908.9,A,3246.966009,N,11701.156506,W,38.6,344.6,030910,,,A*45
$GPRMC,152911.9,A,3246.997515,N,11701.167283,W,39.1,344.7,030910,,,A*44
$GPRMC,152914.9,A,3247.028126,N,11701.177255,W,37.5,344.3,030910,,,A*4D
$GPRMC,152917.9,A,3247.058149,N,11701.186168,W,36.0,346.2,030910,,,A*44
$GPRMC,152920.9,A,3247.086469,N,11701.193421,W,33.3,352.0,030910,,,A*49
$GPRMC,152923.9,A,3247.113349,N,11701.193227,W,31.9,8.3,030910,,,A*45
$GPRMC,152926.9,A,3247.139389,N,11701.183078,W,32.1,20.7,030910,,,A*78
$GPRMC,152929.9,A,3247.163886,N,11701.170186,W,31.6,23.1,030910,,,A*71
$GPRMC,152932.9,A,3247.186850,N,11701.158400,W,30.5,23.6,030910,,,A*7F
$GPRMC,152935.9,A,3247.208869,N,11701.145819,W,29.7,24.7,030910,,,A*73
$GPRMC,152938.9,A,3247.231386,N,11701.133941,W,28.5,24.7,030910,,,A*70
$GPRMC,152941.9,A,3247.249593,N,11701.123761,W,26.1,25.3,030910,,,A*71
$GPRMC,152944.9,A,3247.267923,N,11701.113486,W,23.6,25.6,030910,,,A*71
$GPRMC,152947.9,A,3247.282805,N,11701.104079,W,22.6,27.4,030910,,,A*7F
$GPRMC,152950.9,A,3247.301637,N,11701.093221,W,23.5,24.2,030910,,,A*7B
$GPRMC,152953.9,A,3247.320563,N,11701.083865,W,25.2,20.9,030910,,,A*7C
$GPRMC,152956.9,A,3247.342619,N,11701.077146,W,25.1,14.1,030910,,,A*7C
$GPRMC,152959.9,A,3247.363418,N,11701.072642,W,24.7,8.4,030910,,,A*4A
$GPRMC,153002.9,A,3247.383360,N,11701.070201,W,23.5,5.4,030910,,,A*43
$GPRMC,153005.9,A,3247.401123,N,11701.068922,W,21.4,1.8,030910,,,A*44
$GPRMC,153008.9,A,3247.414573,N,11701.069924,W,16.6,358.8,030910,,,A*42
$GPRMC,153011.9,A,3247.425184,N,11701.070958,W,12.1,1.7,030910,,,A*44
$GPRMC,153014.9,A,3247.429833,N,11701.071151,W,5.2,357.2,030910,,,A*78
$GPRMC,153026.9,A,3247.440597,N,11701.071261,W,4.4,359.8,030910,,,A*76
$GPRMC,153029.9,A,3247.444349,N,11701.070710,W,4.6,357.4,030910,,,A*7A
$GPRMC,153035.9,A,3247.452226,N,11701.070322,W,8.3,358.1,030910,,,A*7E
$GPRMC,153038.9,A,3247.463848,N,11701.070397,W,15.8,356.5,030910,,,A*40
$GPRMC,153041.9,A,3247.482514,N,11701.071045,W,21.8,357.6,030910,,,A*4D
$GPRMC,153044.9,A,3247.504409,N,11701.070334,W,25.3,1.1,030910,,,A*46
$GPRMC,153047.9,A,3247.525643,N,11701.071219,W,25.9,353.3,030910,,,A*49
$GPRMC,153050.9,A,3247.544687,N,11701.077911,W,24.2,339.9,030910,,,A*49
$GPRMC,153053.9,A,3247.562433,N,11701.088938,W,24.3,328.2,030910,,,A*42
$GPRMC,153056.9,A,3247.576307,N,11701.102641,W,20.7,320.7,030910,,,A*4D
$GPRMC,153059.9,A,3247.583327,N,11701.110783,W,11.2,321.5,030910,,,A*42
$GPRMC,153120.9,A,3247.592613,N,11701.110326,W,9.9,36.4,030910,,,A*42
$GPRMC,153123.9,A,3247.609439,N,11701.096234,W,24.9,37.3,030910,,,A*7E
$GPRMC,153126.9,A,3247.633450,N,11701.077355,W,32.8,35.7,030910,,,A*74
$GPRMC,153129.9,A,3247.658324,N,11701.055500,W,37.1,35.8,030910,,,A*77
$GPRMC,153132.9,A,3247.685476,N,11701.032442,W,38.9,34.9,030910,,,A*7C
$GPRMC,153135.9,A,3247.711220,N,11701.010374,W,38.5,35.4,030910,,,A*70
$GPRMC,153138.9,A,3247.735219,N,11700.989146,W,35.3,36.3,030910,,,A*75
$GPRMC,153141.9,A,3247.759565,N,11700.969488,W,33.8,34.3,030910,,,A*7B
$GPRMC,153144.9,A,3247.781563,N,11700.949935,W,33.0,35.3,030910,,,A*7D
$GPRMC,153147.9,A,3247.804258,N,11700.930427,W,34.2,35.4,030910,,,A*71
$GPRMC,153150.9,A,3247.826931,N,11700.910581,W,34.0,35.0,030910,,,A*7A
$GPRMC,153153.9,A,3247.850260,N,11700.891315,W,34.4,35.5,030910,,,A*75
$GPRMC,153156.9,A,3247.871894,N,11700.872622,W,32.0,35.7,030910,,,A*7E
