NMEA Sentence Code,UTC Time,Status,Latitude,Latitude Direction,Longitude,Longitude Direction,Speed (knots),Track Angle (degrees true),Date,MagneticVariation,Magnetic Variation Direction,[FAA Mode]-Optional,Checksum
$GPRMC,015037.000,A,3300.4866,N,11649.1688,W,13.61,271.20,191210,,,A*45
$GPRMC,015040.000,A,3300.4866,N,11649.1912,W,20.90,267.90,191210,,,A*4B
$GPRMC,015043.000,A,3300.4847,N,11649.2140,W,24.79,258.20,191210,,,A*43
$GPRMC,015046.000,A,3300.4788,N,11649.2402,W,27.22,249.20,191210,,,A*44
$GPRMC,015049.000,A,3300.4685,N,11649.2658,W,28.67,242.10,191210,,,A*4C
$GPRMC,015052.000,A,3300.4519,N,11649.2864,W,27.70,227.30,191210,,,A*49
$GPRMC,015055.000,A,3300.4336,N,11649.3034,W,26.73,217.70,191210,,,A*4C
$GPRMC,015058.000,A,3300.4140,N,11649.3161,W,27.22,207.20,191210,,,A*42
$GPRMC,015100.000,A,3300.4013,N,11649.3232,W,26.73,201.70,191210,,,A*4A
$GPRMC,015104.000,A,3300.3717,N,11649.3291,W,24.30,187.50,191210,,,A*49
$GPRMC,015107.000,A,3300.3578,N,11649.3294,W,13.12,180.20,191210,,,A*40
$GPRMC,015110.000,A,3300.3535,N,11649.3286,W,5.35,173.00,191210,,,A*70
$GPRMC,015113.000,A,3300.3488,N,11649.3281,W,10.69,178.40,191210,,,A*41
$GPRMC,015116.000,A,3300.3358,N,11649.3285,W,12.64,186.20,191210,,,A*42
$GPRMC,015119.000,A,3300.3290,N,11649.3291,W,5.83,193.50,191210,,,A*71
$GPRMC,015122.000,A,3300.3276,N,11649.3388,W,12.15,262.00,191210,,,A*49
$GPRMC,015125.000,A,3300.3269,N,11649.3618,W,23.81,265.70,191210,,,A*43
$GPRMC,015128.000,A,3300.3239,N,11649.3900,W,31.10,261.80,191210,,,A*4D
$GPRMC,015131.000,A,3300.3185,N,11649.4265,W,37.91,258.50,191210,,,A*46
$GPRMC,015134.000,A,3300.3097,N,11649.4649,W,42.77,252.40,191210,,,A*4A
$GPRMC,015137.000,A,3300.2951,N,11649.5067,W,45.20,247.50,191210,,,A*40
$GPRMC,015140.000,A,3300.2791,N,11649.5478,W,45.20,243.70,191210,,,A*4E
$GPRMC,015143.000,A,3300.2597,N,11649.5861,W,43.74,239.50,191210,,,A*45
$GPRMC,015146.000,A,3300.2414,N,11649.6213,W,43.74,238.20,191210,,,A*40
$GPRMC,015149.000,A,3300.2227,N,11649.6576,W,43.74,238.60,191210,,,A*49
$GPRMC,015152.000,A,3300.2044,N,11649.6943,W,43.25,239.10,191210,,,A*4C
$GPRMC,015156.000,A,3300.1788,N,11649.7421,W,42.77,237.50,191210,,,A*48
$GPRMC,015159.000,A,3300.1595,N,11649.7775,W,42.77,237.20,191210,,,A*4C
$GPRMC,015201.000,A,3300.1460,N,11649.8028,W,44.22,236.60,191210,,,A*4A
$GPRMC,015205.000,A,3300.1245,N,11649.8439,W,44.22,238.30,191210,,,A*40
$GPRMC,015208.000,A,3300.1076,N,11649.8822,W,43.25,245.40,191210,,,A*44
$GPRMC,015211.000,A,3300.0969,N,11649.9220,W,42.28,257.00,191210,,,A*48
$GPRMC,015214.000,A,3300.0905,N,11649.9635,W,42.28,263.00,191210,,,A*40
$GPRMC,015217.000,A,3300.0867,N,11650.0020,W,42.77,262.60,191210,,,A*48
$GPRMC,015220.000,A,3300.0751,N,11650.0542,W,40.82,246.80,191210,,,A*47
$GPRMC,015223.000,A,3300.0548,N,11650.0899,W,43.25,232.60,191210,,,A*46
$GPRMC,015226.000,A,3300.0279,N,11650.1196,W,44.71,222.90,191210,,,A*49
$GPRMC,015229.000,A,3300.0008,N,11650.1502,W,43.25,224.70,191210,,,A*45
$GPRMC,015232.000,A,3259.9803,N,11650.1807,W,39.36,232.70,191210,,,A*48
$GPRMC,015235.000,A,3259.9657,N,11650.2155,W,38.88,244.10,191210,,,A*4E
$GPRMC,015239.000,A,3259.9404,N,11650.2575,W,41.79,230.90,191210,,,A*4B
$GPRMC,015242.000,A,3259.9170,N,11650.2892,W,42.77,236.60,191210,,,A*41
$GPRMC,015245.000,A,3259.9031,N,11650.3280,W,42.28,250.10,191210,,,A*47
$GPRMC,015248.000,A,3259.8979,N,11650.3699,W,42.28,262.00,191210,,,A*42
$GPRMC,015251.000,A,3259.8941,N,11650.4121,W,43.74,263.50,191210,,,A*4E
$GPRMC,015254.000,A,3259.8892,N,11650.4571,W,45.20,263.90,191210,,,A*4E
$GPRMC,015257.000,A,3259.8847,N,11650.5007,W,43.74,263.40,191210,,,A*4A
$GPRMC,015300.000,A,3259.8812,N,11650.5419,W,43.74,263.60,191210,,,A*40
$GPRMC,015303.000,A,3259.8772,N,11650.5801,W,38.39,264.00,191210,,,A*4B
$GPRMC,015306.000,A,3259.8746,N,11650.6152,W,34.99,265.90,191210,,,A*4B
$GPRMC,015309.000,A,3259.8755,N,11650.6520,W,36.45,273.90,191210,,,A*43
$GPRMC,015312.000,A,3259.8805,N,11650.6879,W,37.91,282.00,191210,,,A*4D
$GPRMC,015315.000,A,3259.8900,N,11650.7261,W,41.31,285.10,191210,,,A*41
$GPRMC,015318.000,A,3259.8973,N,11650.7685,W,43.25,280.10,191210,,,A*44
$GPRMC,015321.000,A,3259.8998,N,11650.8139,W,44.71,270.20,191210,,,A*4E
$GPRMC,015324.000,A,3259.8986,N,11650.8547,W,42.28,267.20,191210,,,A*45
$GPRMC,015327.000,A,3259.8970,N,11650.8987,W,43.25,271.80,191210,,,A*4E
$GPRMC,015330.000,A,3259.8992,N,11650.9399,W,41.31,272.90,191210,,,A*45
$GPRMC,015333.000,A,3259.8951,N,11650.9777,W,37.42,261.00,191210,,,A*43
$GPRMC,015336.000,A,3259.8833,N,11651.0154,W,40.34,248.80,191210,,,A*4E
$GPRMC,015339.000,A,3259.8674,N,11651.0496,W,40.82,249.60,191210,,,A*45
$GPRMC,015342.000,A,3259.8599,N,11651.0907,W,42.28,261.60,191210,,,A*44
$GPRMC,015345.000,A,3259.8600,N,11651.1327,W,42.77,272.40,191210,,,A*43
$GPRMC,015348.000,A,3259.8645,N,11651.1763,W,43.74,276.40,191210,,,A*4D
$GPRMC,015351.000,A,3259.8695,N,11651.2178,W,42.77,276.10,191210,,,A*40
$GPRMC,015354.000,A,3259.8712,N,11651.2601,W,42.28,269.40,191210,,,A*43
$GPRMC,015357.000,A,3259.8681,N,11651.2989,W,40.82,264.00,191210,,,A*4F
$GPRMC,015400.000,A,3259.8692,N,11651.3386,W,40.82,273.90,191210,,,A*43
$GPRMC,015402.000,A,3259.8749,N,11651.3656,W,40.34,284.20,191210,,,A*40
$GPRMC,015406.000,A,3259.8921,N,11651.4138,W,37.91,291.90,191210,,,A*4C
$GPRMC,015409.000,A,3259.8985,N,11651.4530,W,39.85,281.40,191210,,,A*46
$GPRMC,015412.000,A,3259.9039,N,11651.4916,W,40.82,278.70,191210,,,A*47
$GPRMC,015415.000,A,3259.9098,N,11651.5337,W,41.31,279.20,191210,,,A*4E
$GPRMC,015418.000,A,3259.9169,N,11651.5759,W,43.25,283.40,191210,,,A*44
$GPRMC,015421.000,A,3259.9291,N,11651.6167,W,43.25,290.10,191210,,,A*45
$GPRMC,015424.000,A,3259.9413,N,11651.6560,W,41.79,290.50,191210,,,A*40
$GPRMC,015427.000,A,3259.9559,N,11651.6944,W,41.31,293.40,191210,,,A*48
$GPRMC,015430.000,A,3259.9694,N,11651.7301,W,38.88,297.30,191210,,,A*49
$GPRMC,015433.000,A,3259.9902,N,11651.7574,W,36.45,315.80,191210,,,A*41
$GPRMC,015436.000,A,3300.0183,N,11651.7761,W,38.88,331.60,191210,,,A*40
$GPRMC,015439.000,A,3300.0495,N,11651.7858,W,38.39,340.10,191210,,,A*43
$GPRMC,015442.000,A,3300.0799,N,11651.7981,W,39.36,340.20,191210,,,A*48
$GPRMC,015443.000,A,3300.0902,N,11651.8027,W,39.36,340.70,191210,,,A*4A
$GPRMC,015448.000,A,3300.1424,N,11651.8264,W,39.85,338.70,191210,,,A*4B
$GPRMC,015451.000,A,3300.1715,N,11651.8480,W,40.34,326.90,191210,,,A*4B
$GPRMC,015453.000,A,3300.1909,N,11651.8655,W,42.28,321.90,191210,,,A*48
$GPRMC,015457.000,A,3300.2259,N,11651.9019,W,40.35,322.50,191210,,,A*4F
$GPRMC,015500.000,A,3300.2544,N,11651.9196,W,38.89,337.10,191210,,,A*49
$GPRMC,015503.000,A,3300.2861,N,11651.9329,W,40.82,344.10,191210,,,A*46
$GPRMC,015506.000,A,3300.3214,N,11651.9391,W,43.74,354.00,191210,,,A*43
$GPRMC,015509.000,A,3300.3601,N,11651.9386,W,44.71,04.50,191210,,,A*7B
$GPRMC,015512.000,A,3300.3972,N,11651.9324,W,44.22,06.90,191210,,,A*7A
$GPRMC,015515.000,A,3300.4335,N,11651.9305,W,43.25,358.10,191210,,,A*40
$GPRMC,015518.000,A,3300.4693,N,11651.9370,W,44.71,345.90,191210,,,A*44
$GPRMC,015521.000,A,3300.5037,N,11651.9544,W,45.68,336.10,191210,,,A*43
$GPRMC,015524.000,A,3300.5395,N,11651.9730,W,47.14,336.40,191210,,,A*40
$GPRMC,015527.000,A,3300.5776,N,11651.9896,W,45.68,343.20,191210,,,A*44
$GPRMC,015529.000,A,3300.6022,N,11651.9936,W,44.71,353.50,191210,,,A*4B
$GPRMC,015533.000,A,3300.6490,N,11651.9929,W,41.79,359.90,191210,,,A*48
$GPRMC,015536.000,A,3300.6843,N,11651.9949,W,43.74,359.80,191210,,,A*47
$GPRMC,015539.000,A,3300.7239,N,11651.9934,W,46.17,01.40,191210,,,A*76
$GPRMC,015542.000,A,3300.7610,N,11651.9921,W,45.68,00.90,191210,,,A*76
$GPRMC,015545.000,A,3300.7979,N,11651.9915,W,44.71,00.50,191210,,,A*73
$GPRMC,015548.000,A,3300.8314,N,11651.9913,W,38.39,00.00,191210,,,A*74
$GPRMC,015551.000,A,3300.8583,N,11651.9916,W,29.65,00.20,191210,,,A*7A
$GPRMC,015554.000,A,3300.8771,N,11651.9933,W,21.87,357.80,191210,,,A*48
$GPRMC,015609.000,A,3300.8854,N,11651.9926,W,7.78,326.30,191210,,,A*76
$GPRMC,015612.000,A,3300.8929,N,11652.0048,W,16.52,297.20,191210,,,A*4E
$GPRMC,015615.000,A,3300.8923,N,11652.0282,W,23.81,274.60,191210,,,A*46
$GPRMC,015618.000,A,3300.8916,N,11652.0601,W,33.05,270.90,191210,,,A*44
$GPRMC,015621.000,A,3300.8919,N,11652.0980,W,38.39,269.70,191210,,,A*45
$GPRMC,015624.000,A,3300.8920,N,11652.1384,W,40.82,271.50,191210,,,A*41
$GPRMC,015627.000,A,3300.8934,N,11652.1833,W,44.22,271.80,191210,,,A*43
$GPRMC,015630.000,A,3300.8942,N,11652.2278,W,45.68,270.30,191210,,,A*47
$GPRMC,015633.000,A,3300.8928,N,11652.2731,W,46.17,270.00,191210,,,A*48
$GPRMC,015636.000,A,3300.8936,N,11652.3208,W,47.14,270.10,191210,,,A*4F
$GPRMC,015639.000,A,3300.8924,N,11652.3684,W,48.60,269.60,191210,,,A*40
$GPRMC,015643.000,A,3300.8935,N,11652.4332,W,48.11,270.90,191210,,,A*43
$GPRMC,015646.000,A,3300.8952,N,11652.4801,W,48.11,271.10,191210,,,A*45
$GPRMC,015649.000,A,3300.8934,N,11652.5260,W,46.65,269.10,191210,,,A*42
$GPRMC,015652.000,A,3300.8934,N,11652.5742,W,47.63,270.10,191210,,,A*42
$GPRMC,015655.000,A,3300.8941,N,11652.6208,W,46.65,270.60,191210,,,A*4F
$GPRMC,015658.000,A,3300.8946,N,11652.6663,W,45.20,269.80,191210,,,A*48
$GPRMC,015701.000,A,3300.8952,N,11652.7097,W,43.25,271.50,191210,,,A*4B
$GPRMC,015704.000,A,3300.8953,N,11652.7427,W,31.10,272.00,191210,,,A*45
$GPRMC,015707.000,A,3300.8954,N,11652.7646,W,18.47,263.40,191210,,,A*49
$GPRMC,015710.000,A,3300.8871,N,11652.7772,W,16.52,228.60,191210,,,A*48
$GPRMC,015713.000,A,3300.8655,N,11652.7805,W,25.27,191.90,191210,,,A*40
$GPRMC,015716.000,A,3300.8341,N,11652.7770,W,35.48,179.30,191210,,,A*4C
$GPRMC,015719.000,A,3300.8023,N,11652.7777,W,39.85,181.70,191210,,,A*4D
$GPRMC,015722.000,A,3300.7660,N,11652.7767,W,44.22,179.50,191210,,,A*48
$GPRMC,015725.000,A,3300.7272,N,11652.7757,W,45.68,179.20,191210,,,A*43
$GPRMC,015728.000,A,3300.6902,N,11652.7749,W,45.68,179.10,191210,,,A*4F
$GPRMC,015731.000,A,3300.6502,N,11652.7746,W,47.14,179.90,191210,,,A*45
$GPRMC,015734.000,A,3300.6115,N,11652.7747,W,44.71,179.50,191210,,,A*4F
$GPRMC,015737.000,A,3300.5758,N,11652.7733,W,40.82,179.60,191210,,,A*48
$GPRMC,015741.000,A,3300.5362,N,11652.7730,W,33.05,178.10,191210,,,A*4A
$GPRMC,015744.000,A,3300.5136,N,11652.7742,W,25.27,182.60,191210,,,A*4C
$GPRMC,015747.000,A,3300.5017,N,11652.7843,W,17.01,219.70,191210,,,A*46
$GPRMC,015750.000,A,3300.5025,N,11652.8080,W,23.81,269.60,191210,,,A*40
$GPRMC,015753.000,A,3300.5027,N,11652.8358,W,30.13,270.90,191210,,,A*49
$GPRMC,015756.000,A,3300.5032,N,11652.8712,W,36.93,271.10,191210,,,A*45
$GPRMC,015759.000,A,3300.5035,N,11652.9127,W,42.28,269.70,191210,,,A*40
$GPRMC,015802.000,A,3300.5045,N,11652.9575,W,46.17,271.10,191210,,,A*42
$GPRMC,015805.000,A,3300.5042,N,11653.0048,W,49.08,270.20,191210,,,A*42
$GPRMC,015808.000,A,3300.5051,N,11653.0558,W,50.54,270.80,191210,,,A*42
$GPRMC,015811.000,A,3300.5049,N,11653.1041,W,49.57,269.70,191210,,,A*43
$GPRMC,015814.000,A,3300.5048,N,11653.1580,W,51.51,270.40,191210,,,A*4B
$GPRMC,015817.000,A,3300.5057,N,11653.2133,W,53.46,271.20,191210,,,A*4A
$GPRMC,015820.000,A,3300.5066,N,11653.2626,W,51.51,271.20,191210,,,A*4B
$GPRMC,015823.000,A,3300.5062,N,11653.3106,W,50.54,271.20,191210,,,A*4C
$GPRMC,015826.000,A,3300.5059,N,11653.3627,W,52.49,270.50,191210,,,A*4D
$GPRMC,015829.000,A,3300.5063,N,11653.4154,W,52.49,270.00,191210,,,A*4A
$GPRMC,015832.000,A,3300.5065,N,11653.4690,W,52.49,270.80,191210,,,A*41
$GPRMC,015835.000,A,3300.5058,N,11653.5178,W,50.06,270.30,191210,,,A*4A
$GPRMC,015838.000,A,3300.5063,N,11653.5686,W,51.51,270.40,191210,,,A*4D
$GPRMC,015841.000,A,3300.5064,N,11653.6174,W,50.54,270.50,191210,,,A*48
$GPRMC,015844.000,A,3300.5071,N,11653.6700,W,52.00,270.60,191210,,,A*4C
$GPRMC,015847.000,A,3300.5083,N,11653.7174,W,49.57,270.60,191210,,,A*4E
$GPRMC,015850.000,A,3300.5090,N,11653.7693,W,51.03,270.80,191210,,,A*42
$GPRMC,015853.000,A,3300.5082,N,11653.8202,W,50.54,270.00,191210,,,A*4A
$GPRMC,015856.000,A,3300.5086,N,11653.8701,W,50.54,270.90,191210,,,A*44
$GPRMC,015859.000,A,3300.5094,N,11653.9211,W,50.54,270.90,191210,,,A*4D
$GPRMC,015902.000,A,3300.5083,N,11653.9689,W,49.57,269.90,191210,,,A*42
$GPRMC,015905.000,A,3300.5093,N,11654.0180,W,50.06,270.90,191210,,,A*40
$GPRMC,015908.000,A,3300.5099,N,11654.0695,W,51.03,270.20,191210,,,A*4B
$GPRMC,015911.000,A,3300.5095,N,11654.1189,W,49.08,269.90,191210,,,A*45
$GPRMC,015914.000,A,3300.5113,N,11654.1668,W,47.63,271.50,191210,,,A*41
$GPRMC,015917.000,A,3300.5127,N,11654.2096,W,43.25,270.60,191210,,,A*45
$GPRMC,015920.000,A,3300.5159,N,11654.2498,W,40.34,281.10,191210,,,A*48
$GPRMC,015923.000,A,3300.5273,N,11654.2850,W,37.42,291.50,191210,,,A*4C
$GPRMC,015926.000,A,3300.5495,N,11654.3119,W,37.42,312.30,191210,,,A*4E
$GPRMC,015929.000,A,3300.5826,N,11654.3373,W,45.68,322.90,191210,,,A*4F
$GPRMC,015932.000,A,3300.6197,N,11654.3625,W,48.11,325.30,191210,,,A*4D
$GPRMC,015935.000,A,3300.6518,N,11654.3898,W,47.63,323.70,191210,,,A*49
$GPRMC,015937.000,A,3300.6726,N,11654.4082,W,47.14,323.50,191210,,,A*42
$GPRMC,015941.000,A,3300.7140,N,11654.4444,W,45.20,324.60,191210,,,A*4B
$GPRMC,015944.000,A,3300.7406,N,11654.4676,W,36.93,323.70,191210,,,A*40
$GPRMC,015947.000,A,3300.7625,N,11654.4839,W,28.19,327.10,191210,,,A*4A
$GPRMC,015950.000,A,3300.7741,N,11654.4963,W,16.52,324.00,191210,,,A*41
$GPRMC,015953.000,A,3300.7800,N,11654.5035,W,10.21,316.80,191210,,,A*48
$GPRMC,015956.000,A,3300.7866,N,11654.5105,W,10.21,314.00,191210,,,A*45
$GPRMC,015959.000,A,3300.7867,N,11654.5195,W,11.66,255.90,191210,,,A*4D
$GPRMC,020002.000,A,3300.7781,N,11654.5330,W,19.44,228.40,191210,,,A*49
$GPRMC,020004.000,A,3300.7685,N,11654.5450,W,24.79,225.80,191210,,,A*4A
$GPRMC,020008.000,A,3300.7454,N,11654.5726,W,30.62,226.10,191210,,,A*4F
$GPRMC,020011.000,A,3300.7252,N,11654.5963,W,34.02,226.30,191210,,,A*48
$GPRMC,020014.000,A,3300.7049,N,11654.6219,W,36.45,226.30,191210,,,A*41
$GPRMC,020017.000,A,3300.6842,N,11654.6493,W,37.42,227.70,191210,,,A*47
$GPRMC,020020.000,A,3300.6620,N,11654.6757,W,38.39,227.00,191210,,,A*46
$GPRMC,020021.000,A,3300.6548,N,11654.6859,W,39.85,228.50,191210,,,A*47
$GPRMC,020025.000,A,3300.6244,N,11654.7244,W,40.34,226.80,191210,,,A*48
$GPRMC,020030.000,A,3300.5919,N,11654.7658,W,39.85,227.90,191210,,,A*41
$GPRMC,020033.000,A,3300.5713,N,11654.7983,W,40.34,231.90,191210,,,A*4C
$GPRMC,020036.000,A,3300.5526,N,11654.8346,W,41.79,238.80,191210,,,A*41
$GPRMC,020038.000,A,3300.5429,N,11654.8599,W,42.28,245.60,191210,,,A*46
$GPRMC,020042.000,A,3300.5398,N,11654.9158,W,41.84,269.20,191210,,,A*41
$GPRMC,020044.000,A,3300.5440,N,11654.9429,W,41.35,281.00,191210,,,A*48
$GPRMC,020048.000,A,3300.5606,N,11654.9937,W,41.32,295.40,191210,,,A*40
$GPRMC,020051.000,A,3300.5761,N,11655.0304,W,41.84,294.00,191210,,,A*42
$GPRMC,020054.000,A,3300.5892,N,11655.0687,W,41.32,289.50,191210,,,A*4E
$GPRMC,020057.000,A,3300.5984,N,11655.1094,W,42.78,279.40,191210,,,A*4D
$GPRMC,020100.000,A,3300.6011,N,11655.1532,W,44.72,269.50,191210,,,A*4D
$GPRMC,020103.000,A,3300.5974,N,11655.1984,W,46.17,260.70,191210,,,A*4C
$GPRMC,020106.000,A,3300.5849,N,11655.2432,W,47.14,246.80,191210,,,A*4C
$GPRMC,020109.000,A,3300.5678,N,11655.2861,W,48.60,242.60,191210,,,A*43
$GPRMC,020112.000,A,3300.5485,N,11655.3295,W,49.57,241.60,191210,,,A*4F
$GPRMC,020115.000,A,3300.5297,N,11655.3723,W,47.64,245.80,191210,,,A*41
$GPRMC,020118.000,A,3300.5179,N,11655.4156,W,45.68,259.50,191210,,,A*42
$GPRMC,020121.000,A,3300.5157,N,11655.4610,W,46.18,274.00,191210,,,A*4F
$GPRMC,020124.000,A,3300.5220,N,11655.5063,W,46.69,282.30,191210,,,A*46
$GPRMC,020127.000,A,3300.5402,N,11655.5475,W,48.11,297.30,191210,,,A*45
$GPRMC,020129.000,A,3300.5551,N,11655.5711,W,46.17,304.10,191210,,,A*4C
$GPRMC,020133.000,A,3300.5820,N,11655.6239,W,47.63,297.70,191210,,,A*4F
$GPRMC,020137.000,A,3300.6035,N,11655.6822,W,49.09,290.50,191210,,,A*43
$GPRMC,020140.000,A,3300.6178,N,11655.7282,W,50.07,289.50,191210,,,A*44
$GPRMC,020143.000,A,3300.6321,N,11655.7743,W,49.57,289.80,191210,,,A*41
$GPRMC,020146.000,A,3300.6462,N,11655.8200,W,49.09,289.80,191210,,,A*42
$GPRMC,020149.000,A,3300.6577,N,11655.8666,W,48.61,281.80,191210,,,A*4B
$GPRMC,020152.000,A,3300.6619,N,11655.9145,W,48.12,271.70,191210,,,A*49
$GPRMC,020155.000,A,3300.6624,N,11655.9628,W,48.12,270.10,191210,,,A*4B
$GPRMC,020158.000,A,3300.6625,N,11656.0105,W,48.11,270.30,191210,,,A*44
$GPRMC,020201.000,A,3300.6621,N,11656.0591,W,48.15,270.00,191210,,,A*41
$GPRMC,020204.000,A,3300.6614,N,11656.1068,W,47.63,268.60,191210,,,A*41
$GPRMC,020207.000,A,3300.6600,N,11656.1517,W,44.22,266.40,191210,,,A*40
$GPRMC,020210.000,A,3300.6572,N,11656.1942,W,42.77,264.60,191210,,,A*4A
$GPRMC,020213.000,A,3300.6542,N,11656.2372,W,44.24,264.90,191210,,,A*4F
$GPRMC,020216.000,A,3300.6513,N,11656.2809,W,44.71,265.20,191210,,,A*43
$GPRMC,020219.000,A,3300.6484,N,11656.3259,W,45.69,265.50,191210,,,A*42
$GPRMC,020222.000,A,3300.6451,N,11656.3714,W,46.66,265.40,191210,,,A*43
$GPRMC,020225.000,A,3300.6414,N,11656.4294,W,47.63,265.80,191210,,,A*47
$GPRMC,020229.000,A,3300.6392,N,11656.4810,W,47.63,269.10,191210,,,A*41
$GPRMC,020232.000,A,3300.6402,N,11656.5240,W,47.63,275.50,191210,,,A*42
$GPRMC,020235.000,A,3300.6489,N,11656.5738,W,47.15,284.90,191210,,,A*4F
$GPRMC,020238.000,A,3300.6589,N,11656.6178,W,46.17,284.40,191210,,,A*4C
$GPRMC,020241.000,A,3300.6676,N,11656.6629,W,46.66,281.30,191210,,,A*46
$GPRMC,020243.000,A,3300.6729,N,11656.7043,W,47.14,277.60,191210,,,A*4C
$GPRMC,020247.000,A,3300.6772,N,11656.7555,W,47.15,274.60,191210,,,A*46
$GPRMC,020250.000,A,3300.6801,N,11656.8020,W,46.66,274.90,191210,,,A*49
$GPRMC,020253.000,A,3300.6851,N,11656.8478,W,46.65,280.40,191210,,,A*43
$GPRMC,020256.000,A,3300.6990,N,11656.9019,W,46.65,289.70,191210,,,A*42
$GPRMC,020300.000,A,3300.7150,N,11656.9508,W,47.64,290.20,191210,,,A*4D
$GPRMC,020303.000,A,3300.7290,N,11656.9951,W,47.64,290.40,191210,,,A*47
$GPRMC,020305.000,A,3300.7380,N,11657.0244,W,47.64,289.90,191210,,,A*43
$GPRMC,020309.000,A,3300.7527,N,11657.0842,W,47.18,279.50,191210,,,A*40
$GPRMC,020312.000,A,3300.7556,N,11657.1295,W,43.75,272.20,191210,,,A*4E
$GPRMC,020315.000,A,3300.7464,N,11657.1735,W,41.81,253.90,191210,,,A*47
$GPRMC,020318.000,A,3300.7296,N,11657.2144,W,42.77,243.50,191210,,,A*45
$GPRMC,020321.000,A,3300.7038,N,11657.2454,W,41.79,227.70,191210,,,A*40
$GPRMC,020324.000,A,3300.6716,N,11657.2674,W,40.82,211.40,191210,,,A*4C
$GPRMC,020327.000,A,3300.6327,N,11657.2775,W,46.17,190.30,191210,,,A*4E
$GPRMC,020330.000,A,3300.5934,N,11657.2856,W,47.63,191.00,191210,,,A*4D
$GPRMC,020332.000,A,3300.5677,N,11657.2922,W,47.63,193.10,191210,,,A*46
$GPRMC,020336.000,A,3300.5056,N,11657.3117,W,49.57,195.60,191210,,,A*40
$GPRMC,020339.000,A,3300.4666,N,11657.3273,W,47.63,198.10,191210,,,A*49
$GPRMC,020342.000,A,3300.4295,N,11657.3427,W,47.14,198.30,191210,,,A*48
$GPRMC,020345.000,A,3300.3917,N,11657.3554,W,46.17,196.30,191210,,,A*40
$GPRMC,020348.000,A,3300.3556,N,11657.3680,W,45.20,196.30,191210,,,A*49
$GPRMC,020351.000,A,3300.3188,N,11657.3842,W,45.68,200.20,191210,,,A*47
$GPRMC,020354.000,A,3300.2849,N,11657.4037,W,45.20,205.80,191210,,,A*49
$GPRMC,020357.000,A,3300.2506,N,11657.4261,W,46.17,208.70,191210,,,A*48
$GPRMC,020400.000,A,3300.2152,N,11657.4496,W,47.63,207.90,191210,,,A*45
$GPRMC,020403.000,A,3300.1758,N,11657.4664,W,49.57,198.00,191210,,,A*43
$GPRMC,020406.000,A,3300.1347,N,11657.4757,W,50.54,189.70,191210,,,A*41
$GPRMC,020409.000,A,3300.0928,N,11657.4848,W,51.03,187.80,191210,,,A*4F
$GPRMC,020412.000,A,3300.0524,N,11657.4908,W,49.57,186.70,191210,,,A*46
$GPRMC,020415.000,A,3300.0102,N,11657.5025,W,49.57,197.20,191210,,,A*43
$GPRMC,020417.000,A,3259.9870,N,11657.5154,W,47.14,205.90,191210,,,A*44
$GPRMC,020421.000,A,3259.9462,N,11657.5556,W,48.60,224.40,191210,,,A*4A
$GPRMC,020424.000,A,3259.9247,N,11657.5974,W,49.57,239.20,191210,,,A*4D
$GPRMC,020427.000,A,3259.9141,N,11657.6437,W,49.57,255.40,191210,,,A*4E
$GPRMC,020430.000,A,3259.9074,N,11657.6937,W,50.54,261.10,191210,,,A*4B
$GPRMC,020433.000,A,3259.9017,N,11657.7317,W,51.52,261.50,191210,,,A*47
$GPRMC,020435.000,A,3259.8979,N,11657.7655,W,51.55,261.80,191210,,,A*48
$GPRMC,020438.000,A,3259.8920,N,11657.8165,W,51.55,261.20,191210,,,A*48
$GPRMC,020442.000,A,3259.8832,N,11657.8834,W,51.07,260.00,191210,,,A*4E
$GPRMC,020445.000,A,3259.8731,N,11657.9324,W,51.11,251.20,191210,,,A*49
$GPRMC,020448.000,A,3259.8529,N,11657.9915,W,52.49,246.10,191210,,,A*4C
$GPRMC,020451.000,A,3259.8362,N,11658.0396,W,52.49,246.60,191210,,,A*4D
$GPRMC,020454.000,A,3259.8173,N,11658.0872,W,52.97,245.70,191210,,,A*4A
$GPRMC,020457.000,A,3259.7994,N,11658.1346,W,51.51,247.40,191210,,,A*42
$GPRMC,020500.000,A,3259.7901,N,11658.1831,W,51.51,256.40,191210,,,A*46
$GPRMC,020503.000,A,3259.7823,N,11658.2352,W,52.00,261.00,191210,,,A*4E
$GPRMC,020506.000,A,3259.7761,N,11658.2844,W,50.06,260.00,191210,,,A*4B
$GPRMC,020509.000,A,3259.7687,N,11658.3312,W,48.60,254.80,191210,,,A*42
$GPRMC,020512.000,A,3259.7554,N,11658.3771,W,48.60,251.50,191210,,,A*4C
$GPRMC,020515.000,A,3259.7404,N,11658.4218,W,48.60,250.40,191210,,,A*42
$GPRMC,020518.000,A,3259.7283,N,11658.4685,W,49.08,251.40,191210,,,A*48
$GPRMC,020521.000,A,3259.7111,N,11658.5125,W,48.11,243.00,191210,,,A*48
$GPRMC,020524.000,A,3259.6903,N,11658.5518,W,47.14,235.00,191210,,,A*46
$GPRMC,020527.000,A,3259.6670,N,11658.5866,W,45.20,232.60,191210,,,A*4E
$GPRMC,020530.000,A,3259.6426,N,11658.6230,W,46.65,232.30,191210,,,A*44
$GPRMC,020533.000,A,3259.6185,N,11658.6572,W,45.20,229.90,191210,,,A*48
$GPRMC,020537.000,A,3259.5854,N,11658.6970,W,38.88,223.90,191210,,,A*46
$GPRMC,020539.000,A,3259.5682,N,11658.7118,W,38.88,216.90,191210,,,A*4C
$GPRMC,020543.000,A,3259.5296,N,11658.7386,W,40.82,208.80,191210,,,A*4E
$GPRMC,020546.000,A,3259.4979,N,11658.7521,W,40.34,200.90,191210,,,A*4F
$GPRMC,020549.000,A,3259.4678,N,11658.7630,W,39.36,193.40,191210,,,A*45
$GPRMC,020553.000,A,3259.4265,N,11658.7689,W,39.36,185.30,191210,,,A*44
$GPRMC,020556.000,A,3259.3915,N,11658.7690,W,40.82,177.70,191210,,,A*4A
$GPRMC,020559.000,A,3259.3581,N,11658.7631,W,39.85,168.30,191210,,,A*4C
$GPRMC,020602.000,A,3259.3261,N,11658.7426,W,41.31,152.70,191210,,,A*41
$GPRMC,020605.000,A,3259.2980,N,11658.7213,W,40.82,143.50,191210,,,A*48
$GPRMC,020608.000,A,3259.2751,N,11658.6917,W,40.34,131.20,191210,,,A*46
$GPRMC,020612.000,A,3259.2505,N,11658.6463,W,40.34,122.30,191210,,,A*43
$GPRMC,020615.000,A,3259.2315,N,11658.6142,W,40.34,125.40,191210,,,A*45
$GPRMC,020618.000,A,3259.2078,N,11658.5828,W,42.28,132.70,191210,,,A*4C
$GPRMC,020621.000,A,3259.1795,N,11658.5544,W,44.71,142.00,191210,,,A*4C
$GPRMC,020624.000,A,3259.1467,N,11658.5323,W,44.71,151.60,191210,,,A*44
$GPRMC,020627.000,A,3259.1131,N,11658.5159,W,44.24,159.90,191210,,,A*49
$GPRMC,020630.000,A,3259.0778,N,11658.5060,W,43.74,168.30,191210,,,A*44
$GPRMC,020633.000,A,3259.0439,N,11658.4993,W,41.79,170.70,191210,,,A*47
$GPRMC,020636.000,A,3259.0105,N,11658.4930,W,40.34,168.90,191210,,,A*4E
$GPRMC,020639.000,A,3258.9761,N,11658.4847,W,41.79,169.30,191210,,,A*4F
$GPRMC,020642.000,A,3258.9410,N,11658.4759,W,42.77,168.90,191210,,,A*40
$GPRMC,020645.000,A,3258.9081,N,11658.4688,W,41.79,168.40,191210,,,A*46
$GPRMC,020648.000,A,3258.8723,N,11658.4584,W,43.25,166.70,191210,,,A*4C
$GPRMC,020651.000,A,3258.8363,N,11658.4488,W,44.22,166.80,191210,,,A*46
$GPRMC,020654.000,A,3258.8009,N,11658.4397,W,43.74,165.80,191210,,,A*42
$GPRMC,020657.000,A,3258.7654,N,11658.4279,W,44.71,164.30,191210,,,A*49
$GPRMC,020700.000,A,3258.7286,N,11658.4149,W,46.65,164.60,191210,,,A*43
$GPRMC,020703.000,A,3258.6892,N,11658.4020,W,48.11,164.00,191210,,,A*4B
$GPRMC,020706.000,A,3258.6481,N,11658.3879,W,50.54,164.00,191210,,,A*4B
$GPRMC,020709.000,A,3258.6082,N,11658.3743,W,51.51,164.40,191210,,,A*45
$GPRMC,020712.000,A,3258.5646,N,11658.3608,W,53.94,164.70,191210,,,A*44
$GPRMC,020715.000,A,3258.5215,N,11658.3455,W,53.46,163.30,191210,,,A*47
$GPRMC,020718.000,A,3258.4791,N,11658.3308,W,52.49,164.30,191210,,,A*44
$GPRMC,020721.000,A,3258.4367,N,11658.3179,W,52.49,164.80,191210,,,A*4C
$GPRMC,020724.000,A,3258.3923,N,11658.3013,W,54.43,160.70,191210,,,A*4E
$GPRMC,020727.000,A,3258.3516,N,11658.2794,W,52.97,154.50,191210,,,A*44
$GPRMC,020730.000,A,3258.3152,N,11658.2537,W,52.00,147.70,191210,,,A*43
$GPRMC,020733.000,A,3258.2809,N,11658.2278,W,49.57,150.50,191210,,,A*46
$GPRMC,020736.000,A,3258.2428,N,11658.2120,W,48.60,164.30,191210,,,A*46
$GPRMC,020739.000,A,3258.2025,N,11658.2081,W,48.61,176.90,191210,,,A*42
$GPRMC,020742.000,A,3258.1608,N,11658.2138,W,51.03,189.90,191210,,,A*4B
$GPRMC,020745.000,A,3258.1215,N,11658.2281,W,49.08,196.20,191210,,,A*42
$GPRMC,020748.000,A,3258.0855,N,11658.2427,W,47.14,197.30,191210,,,A*49
$GPRMC,020751.000,A,3258.0495,N,11658.2547,W,44.71,196.60,191210,,,A*42
$GPRMC,020754.000,A,3258.0120,N,11658.2674,W,46.66,195.80,191210,,,A*46
$GPRMC,020757.000,A,3257.9732,N,11658.2819,W,49.57,197.60,191210,,,A*42
$GPRMC,020800.000,A,3257.9345,N,11658.2974,W,49.57,198.60,191210,,,A*4E
$GPRMC,020803.000,A,3257.8970,N,11658.3118,W,49.08,197.50,191210,,,A*45
$GPRMC,020806.000,A,3257.8565,N,11658.3249,W,50.54,196.50,191210,,,A*4F
$GPRMC,020808.000,A,3257.8284,N,11658.3333,W,50.54,195.80,191210,,,A*4B
$GPRMC,020812.000,A,3257.7755,N,11658.3534,W,50.54,196.10,191210,,,A*4D
$GPRMC,020815.000,A,3257.7337,N,11658.3610,W,52.00,189.10,191210,,,A*42
$GPRMC,020818.000,A,3257.6902,N,11658.3630,W,52.00,182.10,191210,,,A*4B
$GPRMC,020821.000,A,3257.6466,N,11658.3577,W,51.51,173.90,191210,,,A*4F
$GPRMC,020824.000,A,3257.6055,N,11658.3446,W,51.51,165.20,191210,,,A*41
$GPRMC,020826.000,A,3257.5782,N,11658.3343,W,51.51,161.90,191210,,,A*40
$GPRMC,020831.000,A,3257.5180,N,11658.2951,W,48.60,150.80,191210,,,A*43
$GPRMC,020834.000,A,3257.4829,N,11658.2717,W,48.11,150.60,191210,,,A*49
$GPRMC,020838.000,A,3257.4355,N,11658.2425,W,45.68,154.00,191210,,,A*46
$GPRMC,020840.000,A,3257.4140,N,11658.2291,W,43.74,154.00,191210,,,A*4D
$GPRMC,020844.000,A,3257.3754,N,11658.2069,W,37.91,154.00,191210,,,A*40
$GPRMC,020847.000,A,3257.3500,N,11658.1912,W,34.50,154.20,191210,,,A*4A
$GPRMC,020850.000,A,3257.3279,N,11658.1807,W,25.76,153.60,191210,,,A*47
$GPRMC,020853.000,A,3257.3137,N,11658.1726,W,17.50,154.70,191210,,,A*42
$GPRMC,020856.000,A,3257.3035,N,11658.1660,W,13.61,155.50,191210,,,A*42
$GPRMC,020859.000,A,3257.2959,N,11658.1645,W,11.66,190.10,191210,,,A*40
$GPRMC,020902.000,A,3257.2867,N,11658.1763,W,18.47,230.60,191210,,,A*42
$GPRMC,020905.000,A,3257.2779,N,11658.1979,W,25.27,241.10,191210,,,A*49
$GPRMC,020908.000,A,3257.2639,N,11658.2238,W,30.62,239.60,191210,,,A*41
$GPRMC,020911.000,A,3257.2508,N,11658.2543,W,35.48,241.20,191210,,,A*45
$GPRMC,020914.000,A,3257.2360,N,11658.2887,W,39.85,240.70,191210,,,A*44
$GPRMC,020917.000,A,3257.2178,N,11658.3238,W,43.25,240.20,191210,,,A*41
$GPRMC,020920.000,A,3257.1968,N,11658.3637,W,49.08,240.40,191210,,,A*47
$GPRMC,020923.000,A,3257.1757,N,11658.4096,W,52.00,240.30,191210,,,A*49
$GPRMC,020926.000,A,3257.1543,N,11658.4553,W,53.46,240.90,191210,,,A*4E
$GPRMC,020929.000,A,3257.1363,N,11658.5032,W,52.97,243.00,191210,,,A*41
$GPRMC,020932.000,A,3257.1181,N,11658.5497,W,52.49,247.40,191210,,,A*4D
$GPRMC,020935.000,A,3257.1011,N,11658.5989,W,53.46,251.70,191210,,,A*4A
$GPRMC,020938.000,A,3257.0911,N,11658.6512,W,53.46,256.90,191210,,,A*4B
$GPRMC,020941.000,A,3257.0836,N,11658.7018,W,53.94,261.70,191210,,,A*4A
$GPRMC,020944.000,A,3257.0811,N,11658.7555,W,53.46,266.60,191210,,,A*4F
$GPRMC,020947.000,A,3257.0788,N,11658.8088,W,54.92,266.30,191210,,,A*42
$GPRMC,020950.000,A,3257.0758,N,11658.8658,W,56.86,265.80,191210,,,A*4D
$GPRMC,020953.000,A,3257.0732,N,11658.9201,W,56.37,267.00,191210,,,A*4B
$GPRMC,020956.000,A,3257.0718,N,11658.9754,W,56.37,267.20,191210,,,A*41
$GPRMC,020959.000,A,3257.0685,N,11659.0280,W,55.89,263.30,191210,,,A*4C
$GPRMC,021002.000,A,3257.0606,N,11659.0823,W,56.37,258.40,191210,,,A*4B
$GPRMC,021006.000,A,3257.0423,N,11659.1530,W,57.35,251.30,191210,,,A*49
$GPRMC,021009.000,A,3257.0260,N,11659.2044,W,56.86,248.00,191210,,,A*40
$GPRMC,021012.000,A,3257.0080,N,11659.2561,W,55.89,248.60,191210,,,A*4E
$GPRMC,021015.000,A,3256.9943,N,11659.3072,W,55.89,254.00,191210,,,A*4A
$GPRMC,021018.000,A,3256.9870,N,11659.3604,W,55.40,260.50,191210,,,A*46
$GPRMC,021021.000,A,3256.9822,N,11659.4155,W,56.86,264.50,191210,,,A*42
$GPRMC,021024.000,A,3256.9810,N,11659.4733,W,57.83,267.40,191210,,,A*46
$GPRMC,021027.000,A,3256.9751,N,11659.5285,W,57.83,260.60,191210,,,A*43
$GPRMC,021030.000,A,3256.9637,N,11659.5824,W,57.83,255.00,191210,,,A*45
$GPRMC,021033.000,A,3256.9478,N,11659.6373,W,57.83,250.10,191210,,,A*41
$GPRMC,021036.000,A,3256.9297,N,11659.6859,W,56.37,244.90,191210,,,A*43
$GPRMC,021039.000,A,3256.9099,N,11659.7327,W,55.90,244.70,191210,,,A*43
$GPRMC,021042.000,A,3256.8924,N,11659.7846,W,57.35,249.90,191210,,,A*43
$GPRMC,021044.000,A,3256.8827,N,11659.8208,W,56.86,253.40,191210,,,A*47
$GPRMC,021048.000,A,3256.8697,N,11659.8950,W,57.35,260.20,191210,,,A*47
$GPRMC,021052.000,A,3256.8623,N,11659.9701,W,56.86,262.70,191210,,,A*46
$GPRMC,021055.000,A,3256.8557,N,11700.0254,W,56.86,260.20,191210,,,A*47
$GPRMC,021058.000,A,3256.8451,N,11700.0791,W,56.37,254.60,191210,,,A*48
$GPRMC,021101.000,A,3256.8297,N,11700.1310,W,55.89,249.60,191210,,,A*4F
$GPRMC,021104.000,A,3256.8113,N,11700.1769,W,52.97,243.30,191210,,,A*48
$GPRMC,021107.000,A,3256.7880,N,11700.2236,W,53.46,239.30,191210,,,A*4B
$GPRMC,021110.000,A,3256.7640,N,11700.2682,W,52.97,238.00,191210,,,A*4B
$GPRMC,021113.000,A,3256.7407,N,11700.3136,W,53.94,238.40,191210,,,A*46
$GPRMC,021116.000,A,3256.7167,N,11700.3588,W,54.43,237.90,191210,,,A*4E
$GPRMC,021119.000,A,3256.6941,N,11700.4040,W,53.94,240.80,191210,,,A*46
$GPRMC,021122.000,A,3256.6756,N,11700.4510,W,52.00,246.10,191210,,,A*45
$GPRMC,021125.000,A,3256.6620,N,11700.4988,W,50.54,251.80,191210,,,A*43
$GPRMC,021128.000,A,3256.6508,N,11700.5464,W,50.06,256.00,191210,,,A*41
$GPRMC,021131.000,A,3256.6431,N,11700.5957,W,50.54,259.70,191210,,,A*40
$GPRMC,021134.000,A,3256.6369,N,11700.6451,W,50.54,261.00,191210,,,A*4B
$GPRMC,021137.000,A,3256.6297,N,11700.6941,W,51.03,260.40,191210,,,A*42
$GPRMC,021140.000,A,3256.6245,N,11700.7446,W,51.03,263.40,191210,,,A*45
$GPRMC,021143.000,A,3256.6204,N,11700.7939,W,50.54,262.80,191210,,,A*48
$GPRMC,021146.000,A,3256.6135,N,11700.8435,W,49.57,260.60,191210,,,A*45
$GPRMC,021149.000,A,3256.6061,N,11700.8933,W,50.06,258.30,191210,,,A*43
$GPRMC,021152.000,A,3256.5927,N,11700.9381,W,48.11,249.70,191210,,,A*48
$GPRMC,021155.000,A,3256.5765,N,11700.9841,W,49.57,245.00,191210,,,A*48
$GPRMC,021158.000,A,3256.5550,N,11701.0248,W,48.60,236.40,191210,,,A*4F
$GPRMC,021201.000,A,3256.5304,N,11701.0607,W,48.11,229.80,191210,,,A*4C
$GPRMC,021204.000,A,3256.5034,N,11701.0961,W,48.60,226.60,191210,,,A*41
$GPRMC,021207.000,A,3256.4741,N,11701.1304,W,48.60,225.70,191210,,,A*4C
$GPRMC,021210.000,A,3256.4480,N,11701.1659,W,47.63,230.50,191210,,,A*43
$GPRMC,021213.000,A,3256.4259,N,11701.2045,W,46.65,236.40,191210,,,A*4A
$GPRMC,021216.000,A,3256.4044,N,11701.2428,W,46.65,238.40,191210,,,A*40
$GPRMC,021219.000,A,3256.3853,N,11701.2845,W,48.11,240.80,191210,,,A*4F
$GPRMC,021222.000,A,3256.3631,N,11701.3247,W,49.57,237.60,191210,,,A*49
$GPRMC,021225.000,A,3256.3413,N,11701.3665,W,51.03,239.10,191210,,,A*49
$GPRMC,021228.000,A,3256.3204,N,11701.4093,W,49.08,243.10,191210,,,A*43
$GPRMC,021231.000,A,3256.3035,N,11701.4557,W,49.57,250.20,191210,,,A*4D
$GPRMC,021234.000,A,3256.2929,N,11701.5038,W,49.08,258.20,191210,,,A*42
$GPRMC,021237.000,A,3256.2895,N,11701.5522,W,49.08,266.30,191210,,,A*45
$GPRMC,021240.000,A,3256.2880,N,11701.6008,W,49.57,269.10,191210,,,A*48
$GPRMC,021243.000,A,3256.2890,N,11701.6492,W,49.57,271.60,191210,,,A*43
$GPRMC,021246.000,A,3256.2900,N,11701.6983,W,51.03,271.50,191210,,,A*48
$GPRMC,021249.000,A,3256.2912,N,11701.7495,W,51.03,271.40,191210,,,A*4E
$GPRMC,021252.000,A,3256.2920,N,11701.8016,W,51.03,271.60,191210,,,A*47
$GPRMC,021255.000,A,3256.2926,N,11701.8513,W,50.54,271.40,191210,,,A*47
$GPRMC,021258.000,A,3256.2952,N,11701.8983,W,48.60,273.30,191210,,,A*47
$GPRMC,021301.000,A,3256.2966,N,11701.9463,W,48.60,272.10,191210,,,A*4C
$GPRMC,021304.000,A,3256.2979,N,11701.9942,W,48.11,272.10,191210,,,A*4F
$GPRMC,021307.000,A,3256.3001,N,11702.0402,W,49.08,272.00,191210,,,A*40
$GPRMC,021310.000,A,3256.2996,N,11702.0906,W,51.51,270.90,191210,,,A*47
$GPRMC,021315.000,A,3256.3034,N,11702.1743,W,51.51,271.90,191210,,,A*4D
$GPRMC,021317.000,A,3256.3046,N,11702.2103,W,52.97,272.10,191210,,,A*49
$GPRMC,021321.000,A,3256.3055,N,11702.2657,W,52.04,271.60,191210,,,A*46
$GPRMC,021323.000,A,3256.3062,N,11702.3003,W,52.98,271.80,191210,,,A*4D
$GPRMC,021327.000,A,3256.3078,N,11702.3841,W,54.92,271.40,191210,,,A*4C
$GPRMC,021330.000,A,3256.3090,N,11702.4350,W,53.94,271.90,191210,,,A*4C
$GPRMC,021333.000,A,3256.3106,N,11702.4777,W,54.92,270.90,191210,,,A*40
$GPRMC,021336.000,A,3256.3123,N,11702.5314,W,53.47,273.50,191210,,,A*42
$GPRMC,021339.000,A,3256.3175,N,11702.5833,W,52.01,279.70,191210,,,A*4B
$GPRMC,021343.000,A,3256.3305,N,11702.6521,W,41.31,283.60,191210,,,A*4B
$GPRMC,021346.000,A,3256.3366,N,11702.6835,W,30.13,283.80,191210,,,A*4B
$GPRMC,021349.000,A,3256.3425,N,11702.7079,W,24.30,285.10,191210,,,A*4E
$GPRMC,021352.000,A,3256.3451,N,11702.7216,W,11.66,282.30,191210,,,A*4C
$GPRMC,021401.000,A,3256.3481,N,11702.7286,W,8.26,281.50,191210,,,A*70
$GPRMC,021404.000,A,3256.3514,N,11702.7435,W,17.50,286.40,191210,,,A*4F
$GPRMC,021407.000,A,3256.3566,N,11702.7648,W,22.84,285.50,191210,,,A*4C
$GPRMC,021410.000,A,3256.3622,N,11702.7899,W,27.22,285.50,191210,,,A*42
$GPRMC,021413.000,A,3256.3699,N,11702.8195,W,33.55,285.80,191210,,,A*43
$GPRMC,021416.000,A,3256.3770,N,11702.8581,W,40.82,280.60,191210,,,A*44
$GPRMC,021419.000,A,3256.3804,N,11702.8995,W,42.28,275.60,191210,,,A*46
$GPRMC,021422.000,A,3256.3805,N,11702.9381,W,37.42,269.40,191210,,,A*40
$GPRMC,021425.000,A,3256.3798,N,11702.9720,W,31.59,267.00,191210,,,A*45
$GPRMC,021427.000,A,3256.3779,N,11702.9908,W,26.73,264.00,191210,,,A*41
$GPRMC,021431.000,A,3256.3754,N,11703.0145,W,15.55,258.10,191210,,,A*4A
$GPRMC,021434.000,A,3256.3747,N,11703.0214,W,7.29,260.00,191210,,,A*78
$GPRMC,021437.000,A,3256.3739,N,11703.0292,W,8.26,259.20,191210,,,A*74
$GPRMC,021440.000,A,3256.3717,N,11703.0436,W,16.52,257.20,191210,,,A*42
$GPRMC,021443.000,A,3256.3688,N,11703.0653,W,23.81,258.00,191210,,,A*42
$GPRMC,021446.000,A,3256.3623,N,11703.0930,W,30.62,255.90,191210,,,A*47
$GPRMC,021449.000,A,3256.3560,N,11703.1214,W,34.02,255.10,191210,,,A*4A
$GPRMC,021452.000,A,3256.3455,N,11703.1556,W,38.39,249.80,191210,,,A*46
$GPRMC,021455.000,A,3256.3348,N,11703.1926,W,40.82,249.20,191210,,,A*44
$GPRMC,021458.000,A,3256.3188,N,11703.2317,W,44.22,243.10,191210,,,A*4B
$GPRMC,021501.000,A,3256.2977,N,11703.2708,W,46.17,238.50,191210,,,A*49
$GPRMC,021504.000,A,3256.2761,N,11703.3107,W,47.63,238.20,191210,,,A*48
$GPRMC,021507.000,A,3256.2545,N,11703.3482,W,46.17,237.20,191210,,,A*4A
$GPRMC,021510.000,A,3256.2342,N,11703.3856,W,43.74,237.30,191210,,,A*49
$GPRMC,021513.000,A,3256.2137,N,11703.4203,W,43.25,237.20,191210,,,A*42
$GPRMC,021516.000,A,3256.1935,N,11703.4576,W,44.71,237.80,191210,,,A*47
$GPRMC,021519.000,A,3256.1751,N,11703.4953,W,45.20,237.80,191210,,,A*4A
$GPRMC,021522.000,A,3256.1533,N,11703.5341,W,48.60,236.90,191210,,,A*45
$GPRMC,021525.000,A,3256.1312,N,11703.5735,W,48.60,238.10,191210,,,A*46
$GPRMC,021528.000,A,3256.1141,N,11703.6146,W,45.68,245.00,191210,,,A*40
$GPRMC,021531.000,A,3256.0992,N,11703.6569,W,46.65,249.40,191210,,,A*40
$GPRMC,021534.000,A,3256.0926,N,11703.7029,W,47.63,260.90,191210,,,A*4B
$GPRMC,021537.000,A,3256.0880,N,11703.7506,W,48.60,264.40,191210,,,A*48
$GPRMC,021540.000,A,3256.0840,N,11703.7991,W,48.60,264.10,191210,,,A*43
$GPRMC,021543.000,A,3256.0811,N,11703.8469,W,49.08,264.20,191210,,,A*4D
$GPRMC,021546.000,A,3256.0773,N,11703.8945,W,49.08,265.20,191210,,,A*41
$GPRMC,021549.000,A,3256.0735,N,11703.9423,W,49.08,264.90,191210,,,A*4A
$GPRMC,021552.000,A,3256.0711,N,11703.9904,W,49.57,268.00,191210,,,A*41
$GPRMC,021555.000,A,3256.0717,N,11704.0275,W,50.09,273.50,191210,,,A*4F
$GPRMC,021558.000,A,3256.0759,N,11704.0770,W,50.54,276.70,191210,,,A*47
$GPRMC,021601.000,A,3256.0804,N,11704.1281,W,51.52,274.70,191210,,,A*40
$GPRMC,021604.000,A,3256.0822,N,11704.1778,W,49.08,269.90,191210,,,A*46
$GPRMC,021607.000,A,3256.0824,N,11704.2256,W,48.60,269.70,191210,,,A*48
$GPRMC,021610.000,A,3256.0826,N,11704.2731,W,46.66,270.30,191210,,,A*4C
$GPRMC,021613.000,A,3256.0808,N,11704.3286,W,44.71,265.20,191210,,,A*4A
$GPRMC,021616.000,A,3256.0773,N,11704.3722,W,43.74,262.20,191210,,,A*42
$GPRMC,021619.000,A,3256.0697,N,11704.4123,W,41.79,258.60,191210,,,A*44
$GPRMC,021622.000,A,3256.0622,N,11704.4529,W,41.79,259.40,191210,,,A*4F
$GPRMC,021625.000,A,3256.0572,N,11704.4960,W,43.74,265.10,191210,,,A*4A
$GPRMC,021628.000,A,3256.0572,N,11704.5364,W,42.28,269.30,191210,,,A*4E
$GPRMC,021631.000,A,3256.0564,N,11704.5814,W,43.74,269.30,191210,,,A*45
$GPRMC,021634.000,A,3256.0570,N,11704.6230,W,41.79,269.30,191210,,,A*45
$GPRMC,021637.000,A,3256.0558,N,11704.6663,W,42.77,269.00,191210,,,A*40
$GPRMC,021640.000,A,3256.0559,N,11704.7087,W,43.25,269.40,191210,,,A*4E
$GPRMC,021643.000,A,3256.0549,N,11704.7533,W,44.71,268.30,191210,,,A*46
$GPRMC,021645.000,A,3256.0553,N,11704.7821,W,44.22,269.50,191210,,,A*44
$GPRMC,021649.000,A,3256.0545,N,11704.8319,W,46.18,269.30,191210,,,A*4D
$GPRMC,021653.000,A,3256.0534,N,11704.9069,W,47.14,270.30,191210,,,A*40
$GPRMC,021656.000,A,3256.0530,N,11704.9497,W,43.74,269.30,191210,,,A*4E
$GPRMC,021659.000,A,3256.0522,N,11704.9923,W,42.28,269.30,191210,,,A*48
$GPRMC,021701.000,A,3256.0541,N,11705.0206,W,43.25,271.20,191210,,,A*41
$GPRMC,021705.000,A,3256.0530,N,11705.0679,W,43.78,269.70,191210,,,A*4B
$GPRMC,021708.000,A,3256.0528,N,11705.1113,W,44.72,269.80,191210,,,A*47
$GPRMC,021711.000,A,3256.0550,N,11705.1558,W,45.24,276.80,191210,,,A*47
$GPRMC,021714.000,A,3256.0616,N,11705.1996,W,45.69,283.00,191210,,,A*46
$GPRMC,021717.000,A,3256.0703,N,11705.2401,W,46.65,285.00,191210,,,A*49
$GPRMC,021720.000,A,3256.0861,N,11705.2942,W,43.74,288.00,191210,,,A*44
$GPRMC,021723.000,A,3256.0970,N,11705.3351,W,42.77,286.50,191210,,,A*46
$GPRMC,021726.000,A,3256.1067,N,11705.3763,W,42.28,286.20,191210,,,A*45
$GPRMC,021729.000,A,3256.1126,N,11705.4165,W,42.28,282.80,191210,,,A*47
$GPRMC,021732.000,A,3256.1229,N,11705.4580,W,43.25,285.60,191210,,,A*4B
$GPRMC,021734.000,A,3256.1290,N,11705.4876,W,43.74,285.60,191210,,,A*4F
$GPRMC,021738.000,A,3256.1428,N,11705.5419,W,42.77,285.20,191210,,,A*44
$GPRMC,021741.000,A,3256.1520,N,11705.5842,W,43.25,285.70,191210,,,A*42
$GPRMC,021744.000,A,3256.1631,N,11705.6235,W,43.25,286.10,191210,,,A*48
$GPRMC,021747.000,A,3256.1721,N,11705.6636,W,40.82,284.70,191210,,,A*46
$GPRMC,021750.000,A,3256.1805,N,11705.7023,W,38.88,284.00,191210,,,A*48
$GPRMC,021753.000,A,3256.1881,N,11705.7349,W,32.07,283.40,191210,,,A*46
$GPRMC,021756.000,A,3256.1920,N,11705.7583,W,20.41,283.50,191210,,,A*49
$GPRMC,021759.000,A,3256.1953,N,11705.7667,W,8.26,287.80,191210,,,A*79
$GPRMC,021817.000,A,3256.1983,N,11705.7673,W,4.37,284.50,191210,,,A*76
$GPRMC,021820.000,A,3256.1958,N,11705.7772,W,12.15,252.00,191210,,,A*4D
$GPRMC,021823.000,A,3256.1862,N,11705.7885,W,17.50,208.30,191210,,,A*49
$GPRMC,021826.000,A,3256.1669,N,11705.7951,W,25.27,196.50,191210,,,A*42
$GPRMC,021829.000,A,3256.1448,N,11705.8005,W,26.73,190.80,191210,,,A*42
$GPRMC,021831.000,A,3256.1321,N,11705.8020,W,21.87,185.30,191210,,,A*47
$GPRMC,021838.000,A,3256.1159,N,11705.8015,W,5.83,177.80,191210,,,A*71
$GPRMC,021841.000,A,3256.1027,N,11705.8004,W,17.50,174.70,191210,,,A*46
$GPRMC,021844.000,A,3256.0831,N,11705.8008,W,26.24,177.10,191210,,,A*45
$GPRMC,021847.000,A,3256.0575,N,11705.7979,W,32.07,175.00,191210,,,A*4C
$GPRMC,021850.000,A,3256.0277,N,11705.7951,W,36.45,176.40,191210,,,A*40
$GPRMC,021853.000,A,3255.9961,N,11705.7951,W,37.91,181.50,191210,,,A*44
$GPRMC,021856.000,A,3255.9641,N,11705.7947,W,39.85,182.00,191210,,,A*46
$GPRMC,021859.000,A,3255.9287,N,11705.7966,W,41.79,182.30,191210,,,A*4B
$GPRMC,021902.000,A,3255.8913,N,11705.7973,W,44.22,178.70,191210,,,A*4D
$GPRMC,021905.000,A,3255.8553,N,11705.7906,W,43.25,169.20,191210,,,A*45
$GPRMC,021908.000,A,3255.8210,N,11705.7794,W,43.74,164.70,191210,,,A*41
$GPRMC,021911.000,A,3255.7872,N,11705.7676,W,43.25,164.00,191210,,,A*46
$GPRMC,021914.000,A,3255.7516,N,11705.7547,W,44.22,164.30,191210,,,A*4E
$GPRMC,021917.000,A,3255.7179,N,11705.7424,W,43.25,163.00,191210,,,A*40
$GPRMC,021920.000,A,3255.6816,N,11705.7268,W,46.17,158.60,191210,,,A*41
$GPRMC,021923.000,A,3255.6489,N,11705.7040,W,46.65,147.60,191210,,,A*4B
$GPRMC,021926.000,A,3255.6199,N,11705.6743,W,45.20,137.30,191210,,,A*4F
$GPRMC,021929.000,A,3255.5954,N,11705.6442,W,39.36,132.20,191210,,,A*40
$GPRMC,021932.000,A,3255.5799,N,11705.6171,W,31.59,125.10,191210,,,A*44
$GPRMC,021935.000,A,3255.5689,N,11705.5970,W,21.38,122.90,191210,,,A*40
$GPRMC,021938.000,A,3255.5651,N,11705.5858,W,8.75,123.00,191210,,,A*79
$GPRMC,021941.000,A,3255.5582,N,11705.5855,W,10.69,199.10,191210,,,A*43
$GPRMC,021944.000,A,3255.5484,N,11705.5983,W,18.47,228.00,191210,,,A*47
$GPRMC,021947.000,A,3255.5354,N,11705.6185,W,26.24,235.20,191210,,,A*45
$GPRMC,021950.000,A,3255.5240,N,11705.6467,W,32.07,246.60,191210,,,A*4A
$GPRMC,021953.000,A,3255.5151,N,11705.6785,W,34.02,255.70,191210,,,A*45
$GPRMC,021956.000,A,3255.5112,N,11705.7150,W,36.45,265.20,191210,,,A*4F
$GPRMC,021958.000,A,3255.5104,N,11705.7389,W,36.93,268.00,191210,,,A*44
$GPRMC,022002.000,A,3255.5100,N,11705.7792,W,37.91,268.00,191210,,,A*48
$GPRMC,022005.000,A,3255.5087,N,11705.8176,W,38.89,266.00,191210,,,A*4A
$GPRMC,022008.000,A,3255.5019,N,11705.8647,W,38.39,258.30,191210,,,A*40
$GPRMC,022013.000,A,3255.4849,N,11705.9270,W,38.88,248.70,191210,,,A*48
$GPRMC,022016.000,A,3255.4702,N,11705.9610,W,38.88,242.80,191210,,,A*4A
$GPRMC,022019.000,A,3255.4517,N,11705.9949,W,41.79,236.90,191210,,,A*42
$GPRMC,022022.000,A,3255.4278,N,11706.0273,W,42.28,230.60,191210,,,A*42
$GPRMC,022024.000,A,3255.4118,N,11706.0485,W,42.77,226.80,191210,,,A*4D
$GPRMC,022028.000,A,3255.3753,N,11706.0870,W,43.74,217.90,191210,,,A*48
$GPRMC,022031.000,A,3255.3441,N,11706.1104,W,43.74,212.20,191210,,,A*45
$GPRMC,022034.000,A,3255.3133,N,11706.1338,W,45.20,212.60,191210,,,A*4E
$GPRMC,022037.000,A,3255.2810,N,11706.1571,W,45.68,212.40,191210,,,A*41
$GPRMC,022040.000,A,3255.2526,N,11706.1840,W,44.71,220.60,191210,,,A*4C
$GPRMC,022043.000,A,3255.2232,N,11706.2159,W,48.11,224.40,191210,,,A*43
$GPRMC,022046.000,A,3255.2014,N,11706.2555,W,49.08,234.70,191210,,,A*43
$GPRMC,022050.000,A,3255.1935,N,11706.3223,W,49.08,254.70,191210,,,A*4C
$GPRMC,022053.000,A,3255.1965,N,11706.3644,W,45.20,273.60,191210,,,A*4D
$GPRMC,022055.000,A,3255.2033,N,11706.3935,W,45.68,282.60,191210,,,A*49
$GPRMC,022059.000,A,3255.2191,N,11706.4426,W,49.58,292.10,191210,,,A*4D
$GPRMC,022102.000,A,3255.2358,N,11706.4877,W,51.51,291.60,191210,,,A*49
$GPRMC,022105.000,A,3255.2480,N,11706.5279,W,46.65,285.90,191210,,,A*42
$GPRMC,022109.000,A,3255.2486,N,11706.5829,W,42.28,266.60,191210,,,A*48
$GPRMC,022112.000,A,3255.2351,N,11706.6313,W,40.34,246.40,191210,,,A*41
$GPRMC,022114.000,A,3255.2218,N,11706.6534,W,39.85,236.60,191210,,,A*49
$GPRMC,022118.000,A,3255.1937,N,11706.6866,W,35.00,221.40,191210,,,A*4F
$GPRMC,022121.000,A,3255.1679,N,11706.7043,W,36.45,209.90,191210,,,A*4B
$GPRMC,022124.000,A,3255.1384,N,11706.7147,W,38.88,196.90,191210,,,A*46
$GPRMC,022127.000,A,3255.1097,N,11706.7202,W,36.93,185.50,191210,,,A*4C
$GPRMC,022131.000,A,3255.0728,N,11706.7162,W,34.02,171.60,191210,,,A*4E
$GPRMC,022134.000,A,3255.0444,N,11706.7067,W,32.56,167.10,191210,,,A*41
$GPRMC,022137.000,A,3255.0244,N,11706.6986,W,21.87,161.90,191210,,,A*43
$GPRMC,022140.000,A,3255.0134,N,11706.6939,W,11.66,156.30,191210,,,A*41
$GPRMC,022143.000,A,3255.0091,N,11706.6970,W,9.23,215.90,191210,,,A*77
$GPRMC,022147.000,A,3255.0062,N,11706.7233,W,24.30,257.30,191210,,,A*43
$GPRMC,022150.000,A,3255.0030,N,11706.7532,W,32.56,268.00,191210,,,A*4C
$GPRMC,022153.000,A,3255.0050,N,11706.7812,W,37.43,276.60,191210,,,A*4E
$GPRMC,022156.000,A,3255.0091,N,11706.8139,W,33.05,277.60,191210,,,A*4E
$GPRMC,022159.000,A,3255.0124,N,11706.8363,W,22.36,276.70,191210,,,A*43
$GPRMC,022202.000,A,3255.0147,N,11706.8478,W,9.23,276.60,191210,,,A*7A
$GPRMC,022205.000,A,3255.0160,N,11706.8606,W,12.15,276.80,191210,,,A*42
$GPRMC,022208.000,A,3255.0182,N,11706.8726,W,16.04,280.50,191210,,,A*40
$GPRMC,022212.000,A,3255.0223,N,11706.9098,W,24.30,277.30,191210,,,A*48
$GPRMC,022215.000,A,3255.0246,N,11706.9333,W,23.81,276.80,191210,,,A*49
$GPRMC,022218.000,A,3255.0267,N,11706.9501,W,22.36,278.00,191210,,,A*4B
$GPRMC,022221.000,A,3255.0291,N,11706.9713,W,21.38,277.90,191210,,,A*42
$GPRMC,022224.000,A,3255.0327,N,11706.9857,W,17.50,281.60,191210,,,A*49
$GPRMC,022227.000,A,3255.0334,N,11706.9970,W,14.09,276.60,191210,,,A*4B
$GPRMC,022231.000,A,3255.0337,N,11707.0136,W,10.21,270.60,191210,,,A*45
$GPRMC,022234.000,A,3255.0353,N,11707.0261,W,14.09,279.20,191210,,,A*40
$GPRMC,022238.000,A,3255.0380,N,11707.0477,W,18.95,276.40,191210,,,A*43
$GPRMC,022241.000,A,3255.0388,N,11707.0686,W,17.98,272.60,191210,,,A*4D
$GPRMC,022244.000,A,3255.0379,N,11707.0835,W,14.09,267.00,191210,,,A*49
$GPRMC,022246.000,A,3255.0360,N,11707.0924,W,14.58,262.70,191210,,,A*44
$GPRMC,022251.000,A,3255.0366,N,11707.1161,W,17.50,269.30,191210,,,A*48
$GPRMC,022253.000,A,3255.0349,N,11707.1312,W,13.12,261.70,191210,,,A*4F
$GPRMC,022430.000,A,3255.0365,N,11707.1416,W,3.40,306.90,191210,,,A*79
$GPRMC,022433.000,A,3255.0361,N,11707.1596,W,14.13,270.20,191210,,,A*4C
$GPRMC,022435.000,A,3255.0352,N,11707.1747,W,17.01,270.10,191210,,,A*47
$GPRMC,022439.000,A,3255.0322,N,11707.1990,W,14.09,266.40,191210,,,A*41
$GPRMC,022442.000,A,3255.0320,N,11707.2118,W,10.21,268.70,191210,,,A*47
$GPRMC,022445.000,A,3255.0324,N,11707.2182,W,7.78,269.80,191210,,,A*73
$GPRMC,022658.000,A,3255.0276,N,11707.2182,W,5.43,126.20,191210,,,A*73
$GPRMC,022701.000,A,3255.0211,N,11707.2006,W,14.58,105.30,191210,,,A*48
$GPRMC,022704.000,A,3255.0202,N,11707.1913,W,7.29,102.30,191210,,,A*72
$GPRMC,022710.000,A,3255.0147,N,11707.1893,W,4.86,170.50,191210,,,A*79
$GPRMC,022713.000,A,3255.0117,N,11707.1840,W,6.39,118.20,191210,,,A*7E
$GPRMC,022717.000,A,3255.0084,N,11707.1712,W,12.64,105.00,191210,,,A*4A
$GPRMC,022720.000,A,3255.0079,N,11707.1550,W,15.58,91.80,191210,,,A*74
$GPRMC,022724.000,A,3255.0082,N,11707.1333,W,11.66,106.00,191210,,,A*49
$GPRMC,022727.000,A,3255.0041,N,11707.1221,W,12.15,113.20,191210,,,A*46
$GPRMC,022730.000,A,3255.0021,N,11707.1131,W,8.26,101.00,191210,,,A*7E
$GPRMC,022733.000,A,3255.0020,N,11707.1058,W,7.78,90.70,191210,,,A*48
$GPRMC,022738.000,A,3255.0053,N,11707.0905,W,7.78,86.90,191210,,,A*4E
$GPRMC,022741.000,A,3255.0007,N,11707.0865,W,5.35,129.50,191210,,,A*75
$GPRMC,022754.000,A,3254.9873,N,11707.0886,W,6.80,177.40,191210,,,A*78
$GPRMC,022757.000,A,3254.9775,N,11707.0873,W,10.69,175.10,191210,,,A*4F
$GPRMC,022800.000,A,3254.9692,N,11707.0874,W,10.21,189.70,191210,,,A*44
$GPRMC,022803.000,A,3254.9615,N,11707.0907,W,9.23,199.20,191210,,,A*73
$GPRMC,022806.000,A,3254.9540,N,11707.0917,W,8.75,188.10,191210,,,A*75
$GPRMC,022809.000,A,3254.9465,N,11707.0921,W,7.84,183.60,191210,,,A*74
$GPRMC,022812.000,A,3254.9416,N,11707.0944,W,5.35,188.80,191210,,,A*74
$GPRMC,022840.000,A,3254.9278,N,11707.0925,W,4.37,177.10,191210,,,A*70
$GPRMC,022843.000,A,3254.9227,N,11707.0942,W,5.35,195.70,191210,,,A*71
$GPRMC,022846.000,A,3254.9194,N,11707.0957,W,4.37,195.90,191210,,,A*76
$GPRMC,022907.000,A,3254.9073,N,11707.1058,W,3.40,234.90,191210,,,A*72
$GPRMC,022910.000,A,3254.9049,N,11707.1096,W,4.37,237.20,191210,,,A*70
$GPRMC,022922.000,A,3254.9035,N,11707.1210,W,4.37,274.50,191210,,,A*76
$GPRMC,022925.000,A,3254.9023,N,11707.1281,W,7.29,265.20,191210,,,A*75
$GPRMC,022928.000,A,3254.9019,N,11707.1356,W,6.80,270.20,191210,,,A*7C
$GPRMC,022931.000,A,3254.9027,N,11707.1408,W,4.37,286.20,191210,,,A*72
