NMEA Sentence Code,UTC Time,Status,Latitude,Latitude Direction,Longitude,Longitude Direction,Speed (knots),Track Angle (degrees true),Date,MagneticVariation,Magnetic Variation Direction,[FAA Mode]-Optional,Checksum
$GPRMC,204521.5,A,3243.668254,N,11711.486243,W,4.8,157.8,110410,,,A*7E
$GPRMC,204524.5,A,3243.662569,N,11711.485029,W,5.6,174.3,110410,,,A*70
$GPRMC,204527.5,A,3243.656676,N,11711.485072,W,5.5,173.9,110410,,,A*79
$GPRMC,204530.5,A,3243.652408,N,11711.479366,W,8.5,132.8,110410,,,A*7C
$GPRMC,204533.5,A,3243.643759,N,11711.467520,W,13.4,125.6,110410,,,A*40
$GPRMC,204536.5,A,3243.643615,N,11711.434069,W,30.1,96.4,110410,,,A*7D
$GPRMC,204539.5,A,3243.640461,N,11711.400497,W,32.4,95.5,110410,,,A*77
$GPRMC,204542.5,A,3243.637332,N,11711.367102,W,33.9,95.6,110410,,,A*7A
$GPRMC,204545.5,A,3243.635328,N,11711.332704,W,33.9,94.6,110410,,,A*75
$GPRMC,204548.5,A,3243.639638,N,11711.304909,W,25.6,75.1,110410,,,A*76
$GPRMC,204551.5,A,3243.651625,N,11711.285544,W,22.5,50.5,110410,,,A*76
$GPRMC,204554.5,A,3243.671872,N,11711.277997,W,23.5,12.1,110410,,,A*71
$GPRMC,204557.5,A,3243.692726,N,11711.275878,W,24.6,4.7,110410,,,A*46
$GPRMC,204600.5,A,3243.711276,N,11711.274331,W,20.7,5.4,110410,,,A*4D
$GPRMC,204603.5,A,3243.723710,N,11711.273526,W,11.9,2.2,110410,,,A*40
$GPRMC,204733.5,A,3243.732656,N,11711.271590,W,4.4,44.4,110410,,,A*43
$GPRMC,204736.5,A,3243.734811,N,11711.264403,W,7.0,68.5,110410,,,A*4A
$GPRMC,204739.5,A,3243.731353,N,11711.246107,W,13.7,86.9,110410,,,A*72
$GPRMC,204742.5,A,3243.730195,N,11711.207685,W,32.3,95.3,110410,,,A*70
$GPRMC,204745.5,A,3243.728317,N,11711.168832,W,35.6,93.8,110410,,,A*71
$GPRMC,204748.5,A,3243.726939,N,11711.131766,W,34.7,97.4,110410,,,A*7E
$GPRMC,204751.5,A,3243.723382,N,11711.100305,W,30.3,97.8,110410,,,A*76
$GPRMC,204754.5,A,3243.719105,N,11711.075387,W,23.9,102.2,110410,,,A*41
$GPRMC,204757.5,A,3243.713544,N,11711.061150,W,16.4,111.8,110410,,,A*47
$GPRMC,204815.5,A,3243.720116,N,11711.059785,W,7.6,69.1,110410,,,A*4D
$GPRMC,204818.5,A,3243.715889,N,11711.040707,W,13.3,89.3,110410,,,A*77
$GPRMC,204821.5,A,3243.710418,N,11711.017629,W,17.9,99.4,110410,,,A*7B
$GPRMC,204824.5,A,3243.678837,N,11710.951558,W,36.2,111.3,110410,,,A*41
$GPRMC,204827.5,A,3243.662390,N,11710.904877,W,34.5,109.4,110410,,,A*44
$GPRMC,204830.5,A,3243.651207,N,11710.863370,W,34.1,100.8,110410,,,A*40
$GPRMC,204833.5,A,3243.646965,N,11710.824561,W,35.7,90.8,110410,,,A*70
$GPRMC,204836.5,A,3243.649213,N,11710.785913,W,37.9,85.6,110410,,,A*7B
$GPRMC,204839.5,A,3243.653975,N,11710.749182,W,37.3,83.2,110410,,,A*7C
$GPRMC,204842.5,A,3243.658365,N,11710.714557,W,32.0,80.6,110410,,,A*75
$GPRMC,204845.5,A,3243.661880,N,11710.692576,W,18.2,78.1,110410,,,A*7E
$GPRMC,204848.5,A,3243.663143,N,11710.683970,W,6.0,75.6,110410,,,A*4A
$GPRMC,204906.5,A,3243.662693,N,11710.677293,W,7.0,97.6,110410,,,A*4A
$GPRMC,204909.5,A,3243.662431,N,11710.667494,W,10.7,94.8,110410,,,A*73
$GPRMC,204912.5,A,3243.661629,N,11710.655997,W,11.2,97.3,110410,,,A*72
$GPRMC,204915.5,A,3243.664372,N,11710.645766,W,10.1,55.5,110410,,,A*70
$GPRMC,204918.5,A,3243.674370,N,11710.640120,W,13.7,15.5,110410,,,A*7E
$GPRMC,204921.5,A,3243.690850,N,11710.634734,W,19.9,22.2,110410,,,A*70
$GPRMC,204924.5,A,3243.704931,N,11710.619219,W,24.8,48.2,110410,,,A*79
$GPRMC,204927.5,A,3243.712446,N,11710.593524,W,29.9,68.2,110410,,,A*76
$GPRMC,204930.5,A,3243.723352,N,11710.564876,W,31.1,68.9,110410,,,A*78
$GPRMC,204933.5,A,3243.733403,N,11710.537864,W,26.7,66.2,110410,,,A*79
$GPRMC,204936.5,A,3243.740974,N,11710.515284,W,24.3,67.8,110410,,,A*7C
$GPRMC,204939.5,A,3243.750774,N,11710.491071,W,28.1,67.8,110410,,,A*77
$GPRMC,204942.5,A,3243.758911,N,11710.462468,W,30.3,69.5,110410,,,A*76
$GPRMC,204945.5,A,3243.764790,N,11710.437092,W,24.8,70.8,110410,,,A*73
$GPRMC,204948.5,A,3243.771154,N,11710.417116,W,20.4,68.5,110410,,,A*77
$GPRMC,204951.5,A,3243.776935,N,11710.401194,W,15.8,66.6,110410,,,A*7D
$GPRMC,204954.5,A,3243.780748,N,11710.390853,W,10.3,65.7,110410,,,A*74
$GPRMC,204957.5,A,3243.782693,N,11710.384107,W,5.0,68.3,110410,,,A*41
$GPRMC,205024.5,A,3243.787429,N,11710.373347,W,5.5,69.1,110410,,,A*43
$GPRMC,205027.5,A,3243.791850,N,11710.362609,W,11.2,68.9,110410,,,A*71
$GPRMC,205030.5,A,3243.795958,N,11710.346943,W,17.5,71.8,110410,,,A*75
$GPRMC,205033.5,A,3243.798824,N,11710.331582,W,13.1,74.1,110410,,,A*7C
$GPRMC,205036.5,A,3243.803741,N,11710.319482,W,14.0,71.1,110410,,,A*70
$GPRMC,205039.5,A,3243.806507,N,11710.306626,W,15.3,71.0,110410,,,A*7B
$GPRMC,205042.5,A,3243.809377,N,11710.292470,W,13.6,70.4,110410,,,A*72
$GPRMC,205045.5,A,3243.813818,N,11710.284275,W,8.5,59.0,110410,,,A*4E
$GPRMC,205136.5,A,3243.819037,N,11710.275941,W,7.6,72.3,110410,,,A*40
$GPRMC,205139.5,A,3243.825429,N,11710.269921,W,6.5,46.5,110410,,,A*43
$GPRMC,205142.5,A,3243.835888,N,11710.266329,W,9.1,25.5,110410,,,A*4A
$GPRMC,205145.5,A,3243.843124,N,11710.262335,W,9.3,25.2,110410,,,A*4F
$GPRMC,205155.5,A,3243.934475,N,11710.300639,W,31.3,326.9,110410,,,A*42
$GPRMC,205158.5,A,3243.960742,N,11710.321974,W,31.3,324.4,110410,,,A*43
$GPRMC,205201.5,A,3243.984044,N,11710.340669,W,31.9,324.2,110410,,,A*4F
$GPRMC,205204.5,A,3244.009427,N,11710.360330,W,34.0,325.0,110410,,,A*44
$GPRMC,205207.5,A,3244.033739,N,11710.379514,W,34.5,326.5,110410,,,A*49
$GPRMC,205210.5,A,3244.062453,N,11710.400448,W,36.6,325.1,110410,,,A*43
$GPRMC,205213.5,A,3244.086563,N,11710.421269,W,35.8,321.4,110410,,,A*42
$GPRMC,205216.5,A,3244.110638,N,11710.443369,W,34.4,321.3,110410,,,A*4B
$GPRMC,205219.5,A,3244.130525,N,11710.461214,W,30.0,324.5,110410,,,A*41
$GPRMC,205222.5,A,3244.148826,N,11710.479267,W,28.8,322.9,110410,,,A*4E
$GPRMC,205225.5,A,3244.167336,N,11710.496725,W,28.5,323.0,110410,,,A*49
$GPRMC,205228.5,A,3244.182941,N,11710.510937,W,24.7,324.9,110410,,,A*47
$GPRMC,205231.5,A,3244.195815,N,11710.522988,W,18.9,324.5,110410,,,A*41
$GPRMC,205234.5,A,3244.208585,N,11710.533722,W,18.3,322.7,110410,,,A*47
$GPRMC,205237.5,A,3244.218939,N,11710.542729,W,15.3,323.5,110410,,,A*4D
$GPRMC,205240.5,A,3244.228846,N,11710.549403,W,13.9,325.1,110410,,,A*49
$GPRMC,205243.5,A,3244.241166,N,11710.559241,W,17.1,323.2,110410,,,A*46
$GPRMC,205246.5,A,3244.254087,N,11710.569981,W,19.3,324.7,110410,,,A*43
$GPRMC,205249.5,A,3244.265824,N,11710.579211,W,18.7,322.6,110410,,,A*4E
$GPRMC,205252.5,A,3244.280855,N,11710.592232,W,21.1,319.9,110410,,,A*46
$GPRMC,205255.5,A,3244.293957,N,11710.605645,W,20.7,322.6,110410,,,A*49
$GPRMC,205258.5,A,3244.308748,N,11710.617878,W,21.7,322.8,110410,,,A*4B
$GPRMC,205301.5,A,3244.326473,N,11710.632088,W,24.9,324.3,110410,,,A*47
$GPRMC,205304.5,A,3244.345380,N,11710.649850,W,28.5,321.4,110410,,,A*4F
$GPRMC,205307.5,A,3244.366684,N,11710.668308,W,30.3,322.5,110410,,,A*44
$GPRMC,205310.5,A,3244.387241,N,11710.687748,W,30.9,323.3,110410,,,A*4C
$GPRMC,205313.5,A,3244.407167,N,11710.705818,W,31.9,323.0,110410,,,A*44
$GPRMC,205316.5,A,3244.434158,N,11710.730389,W,37.1,319.9,110410,,,A*46
$GPRMC,205319.5,A,3244.458336,N,11710.759368,W,41.6,316.6,110410,,,A*4F
$GPRMC,205322.5,A,3244.484354,N,11710.790353,W,42.3,315.7,110410,,,A*4B
$GPRMC,205325.5,A,3244.506232,N,11710.818742,W,39.3,310.7,110410,,,A*44
$GPRMC,205328.5,A,3244.523222,N,11710.849458,W,38.3,301.4,110410,,,A*41
$GPRMC,205331.5,A,3244.536789,N,11710.883746,W,40.3,295.5,110410,,,A*41
$GPRMC,205334.5,A,3244.551589,N,11710.920905,W,41.7,296.1,110410,,,A*44
$GPRMC,205337.5,A,3244.568387,N,11710.960026,W,45.2,296.1,110410,,,A*48
$GPRMC,205340.5,A,3244.586805,N,11711.004269,W,49.4,296.7,110410,,,A*46
$GPRMC,205343.5,A,3244.606604,N,11711.047634,W,49.3,297.6,110410,,,A*4D
$GPRMC,205346.5,A,3244.627234,N,11711.091684,W,51.2,298.5,110410,,,A*48
$GPRMC,205349.5,A,3244.647994,N,11711.136154,W,49.8,299.0,110410,,,A*41
$GPRMC,205352.5,A,3244.665375,N,11711.177532,W,46.7,297.1,110410,,,A*40
$GPRMC,205355.5,A,3244.684001,N,11711.220383,W,49.6,297.5,110410,,,A*4F
$GPRMC,205358.5,A,3244.704405,N,11711.266240,W,52.8,297.3,110410,,,A*45
$GPRMC,205401.5,A,3244.727384,N,11711.312999,W,54.0,298.1,110410,,,A*4F
$GPRMC,205404.5,A,3244.750140,N,11711.360922,W,55.8,298.0,110410,,,A*4D
$GPRMC,205407.5,A,3244.771879,N,11711.410701,W,57.4,297.9,110410,,,A*49
$GPRMC,205410.5,A,3244.794544,N,11711.460850,W,58.4,298.4,110410,,,A*46
$GPRMC,205413.5,A,3244.818800,N,11711.514562,W,61.1,297.8,110410,,,A*41
$GPRMC,205416.5,A,3244.845379,N,11711.567658,W,61.5,299.8,110410,,,A*4D
$GPRMC,205419.5,A,3244.875128,N,11711.616153,W,60.7,304.9,110410,,,A*49
$GPRMC,205422.5,A,3244.908768,N,11711.662122,W,61.6,310.7,110410,,,A*46
$GPRMC,205425.5,A,3244.944661,N,11711.705519,W,61.4,314.9,110410,,,A*45
$GPRMC,205428.5,A,3244.982982,N,11711.744915,W,60.9,319.3,110410,,,A*4E
$GPRMC,205431.5,A,3245.023573,N,11711.781516,W,61.2,322.9,110410,,,A*49
$GPRMC,205434.5,A,3245.064684,N,11711.817456,W,61.2,323.8,110410,,,A*41
$GPRMC,205437.5,A,3245.105355,N,11711.851688,W,60.5,324.0,110410,,,A*47
$GPRMC,205440.5,A,3245.144236,N,11711.888051,W,60.0,320.8,110410,,,A*49
$GPRMC,205443.5,A,3245.180765,N,11711.928655,W,60.6,315.5,110410,,,A*45
$GPRMC,205446.5,A,3245.214021,N,11711.973256,W,62.2,311.2,110410,,,A*45
$GPRMC,205449.5,A,3245.247856,N,11712.020711,W,63.0,309.7,110410,,,A*41
$GPRMC,205452.5,A,3245.281060,N,11712.067019,W,62.0,311.0,110410,,,A*4F
$GPRMC,205455.5,A,3245.316287,N,11712.111929,W,59.9,314.4,110410,,,A*46
$GPRMC,205458.5,A,3245.355050,N,11712.148572,W,58.2,322.9,110410,,,A*48
$GPRMC,205501.5,A,3245.398939,N,11712.177937,W,58.8,333.0,110410,,,A*40
$GPRMC,205504.5,A,3245.445747,N,11712.196998,W,58.7,342.5,110410,,,A*43
$GPRMC,205507.5,A,3245.495130,N,11712.210632,W,59.6,346.6,110410,,,A*4E
$GPRMC,205510.5,A,3245.545152,N,11712.223524,W,61.0,347.5,110410,,,A*4B
$GPRMC,205513.5,A,3245.595891,N,11712.236068,W,60.9,348.1,110410,,,A*49
$GPRMC,205516.5,A,3245.646058,N,11712.245408,W,60.3,347.8,110410,,,A*46
$GPRMC,205519.5,A,3245.693578,N,11712.257241,W,59.8,347.9,110410,,,A*4E
$GPRMC,205522.5,A,3245.744036,N,11712.270836,W,60.4,347.7,110410,,,A*45
$GPRMC,205525.5,A,3245.792659,N,11712.283611,W,60.7,347.8,110410,,,A*4D
$GPRMC,205528.5,A,3245.844361,N,11712.296961,W,62.4,347.9,110410,,,A*46
$GPRMC,205531.5,A,3245.895269,N,11712.310036,W,62.7,347.8,110410,,,A*4D
$GPRMC,205534.5,A,3245.949889,N,11712.324227,W,65.4,347.6,110410,,,A*43
$GPRMC,205537.5,A,3246.003626,N,11712.337911,W,65.5,347.7,110410,,,A*43
$GPRMC,205540.5,A,3246.057663,N,11712.352087,W,65.5,347.8,110410,,,A*49
$GPRMC,205543.5,A,3246.106866,N,11712.364840,W,63.0,347.9,110410,,,A*40
$GPRMC,205546.5,A,3246.156379,N,11712.376953,W,62.2,348.0,110410,,,A*40
$GPRMC,205549.5,A,3246.206010,N,11712.388632,W,61.8,348.2,110410,,,A*47
$GPRMC,205552.5,A,3246.257123,N,11712.402412,W,61.8,347.8,110410,,,A*48
$GPRMC,205555.5,A,3246.308392,N,11712.416186,W,62.1,347.8,110410,,,A*4B
$GPRMC,205558.5,A,3246.357497,N,11712.428703,W,61.1,347.6,110410,,,A*45
$GPRMC,205601.5,A,3246.405746,N,11712.441555,W,60.4,347.9,110410,,,A*40
$GPRMC,205604.5,A,3246.454582,N,11712.453687,W,59.8,347.9,110410,,,A*42
$GPRMC,205607.5,A,3246.505683,N,11712.465889,W,59.9,347.9,110410,,,A*42
$GPRMC,205610.5,A,3246.554011,N,11712.477841,W,58.9,348.2,110410,,,A*4F
$GPRMC,205613.5,A,3246.599326,N,11712.490585,W,57.5,347.7,110410,,,A*4F
$GPRMC,205616.5,A,3246.646215,N,11712.501169,W,57.7,349.9,110410,,,A*47
$GPRMC,205619.5,A,3246.695396,N,11712.506583,W,58.7,356.8,110410,,,A*4B
$GPRMC,205622.5,A,3246.745142,N,11712.505638,W,59.9,2.8,110410,,,A*49
$GPRMC,205625.5,A,3246.792548,N,11712.497698,W,58.2,7.7,110410,,,A*4A
$GPRMC,205628.5,A,3246.841954,N,11712.488608,W,58.2,8.0,110410,,,A*48
$GPRMC,205631.5,A,3246.889423,N,11712.479659,W,58.6,8.4,110410,,,A*43
$GPRMC,205634.5,A,3246.937957,N,11712.471030,W,59.7,8.4,110410,,,A*4D
$GPRMC,205637.5,A,3246.988067,N,11712.462077,W,60.8,8.4,110410,,,A*44
$GPRMC,205640.5,A,3247.038892,N,11712.452721,W,60.8,8.7,110410,,,A*41
$GPRMC,205643.5,A,3247.088191,N,11712.443950,W,59.1,8.6,110410,,,A*49
$GPRMC,205646.5,A,3247.136409,N,11712.436211,W,58.8,8.1,110410,,,A*4F
$GPRMC,205649.5,A,3247.184695,N,11712.428541,W,58.3,8.2,110410,,,A*4B
$GPRMC,205652.5,A,3247.231992,N,11712.419708,W,57.4,7.7,110410,,,A*4B
$GPRMC,205655.5,A,3247.278337,N,11712.413907,W,57.3,5.1,110410,,,A*4C
$GPRMC,205658.5,A,3247.325681,N,11712.410110,W,57.1,2.1,110410,,,A*48
$GPRMC,205701.5,A,3247.372882,N,11712.409450,W,56.7,359.8,110410,,,A*40
$GPRMC,205704.5,A,3247.421987,N,11712.411826,W,57.9,357.1,110410,,,A*4C
$GPRMC,205707.5,A,3247.469357,N,11712.417647,W,57.8,353.2,110410,,,A*4D
$GPRMC,205710.5,A,3247.517323,N,11712.427487,W,57.6,350.3,110410,,,A*41
$GPRMC,205713.5,A,3247.568617,N,11712.441956,W,59.1,346.9,110410,,,A*4D
$GPRMC,205716.5,A,3247.614162,N,11712.457661,W,58.5,343.9,110410,,,A*49
$GPRMC,205719.5,A,3247.659974,N,11712.475540,W,58.5,340.9,110410,,,A*43
$GPRMC,205722.5,A,3247.702880,N,11712.497862,W,58.4,337.6,110410,,,A*41
$GPRMC,205725.5,A,3247.748892,N,11712.520453,W,59.3,335.2,110410,,,A*48
$GPRMC,205728.5,A,3247.793237,N,11712.549132,W,60.2,332.9,110410,,,A*4C
$GPRMC,205731.5,A,3247.837903,N,11712.576301,W,59.4,332.9,110410,,,A*4B
$GPRMC,205734.5,A,3247.881893,N,11712.603559,W,58.5,333.1,110410,,,A*48
$GPRMC,205737.5,A,3247.926285,N,11712.628735,W,58.7,334.1,110410,,,A*4E
$GPRMC,205740.5,A,3247.969559,N,11712.653135,W,58.2,335.1,110410,,,A*4D
$GPRMC,205743.5,A,3248.013746,N,11712.676627,W,58.3,336.6,110410,,,A*4F
$GPRMC,205746.5,A,3248.058838,N,11712.698591,W,58.7,336.9,110410,,,A*46
$GPRMC,205749.5,A,3248.101562,N,11712.722203,W,57.5,335.4,110410,,,A*49
$GPRMC,205752.5,A,3248.142537,N,11712.746095,W,56.4,334.0,110410,,,A*4E
$GPRMC,205755.5,A,3248.184558,N,11712.771261,W,55.5,332.5,110410,,,A*46
$GPRMC,205758.5,A,3248.227930,N,11712.798144,W,57.3,330.7,110410,,,A*44
$GPRMC,205801.5,A,3248.269628,N,11712.827650,W,58.2,329.1,110410,,,A*42
$GPRMC,205804.5,A,3248.310303,N,11712.858078,W,58.3,327.7,110410,,,A*49
$GPRMC,205807.5,A,3248.351183,N,11712.889538,W,57.8,326.0,110410,,,A*4A
$GPRMC,205810.5,A,3248.389463,N,11712.922168,W,57.3,324.9,110410,,,A*43
$GPRMC,205813.5,A,3248.426258,N,11712.954555,W,55.5,324.3,110410,,,A*49
$GPRMC,205816.5,A,3248.464752,N,11712.986622,W,55.9,324.7,110410,,,A*41
$GPRMC,205819.5,A,3248.502636,N,11713.018151,W,56.9,324.9,110410,,,A*4D
$GPRMC,205822.5,A,3248.542787,N,11713.050631,W,58.1,325.4,110410,,,A*4D
$GPRMC,205825.5,A,3248.583310,N,11713.083115,W,57.9,325.9,110410,,,A*48
$GPRMC,205828.5,A,3248.624108,N,11713.115823,W,59.3,325.8,110410,,,A*47
$GPRMC,205831.5,A,3248.665801,N,11713.149105,W,60.2,326.3,110410,,,A*4D
$GPRMC,205834.5,A,3248.708239,N,11713.181773,W,59.1,326.2,110410,,,A*48
$GPRMC,205837.5,A,3248.748134,N,11713.212848,W,57.2,327.1,110410,,,A*40
$GPRMC,205840.5,A,3248.790041,N,11713.243695,W,59.0,328.5,110410,,,A*4B
$GPRMC,205843.5,A,3248.832240,N,11713.273785,W,58.1,328.5,110410,,,A*4F
$GPRMC,205846.5,A,3248.871934,N,11713.303042,W,56.5,328.5,110410,,,A*45
$GPRMC,205849.5,A,3248.911752,N,11713.333050,W,57.0,327.0,110410,,,A*4D
$GPRMC,205852.5,A,3248.950992,N,11713.364822,W,57.6,325.5,110410,,,A*4E
$GPRMC,205855.5,A,3248.991379,N,11713.397961,W,59.0,325.0,110410,,,A*4C
$GPRMC,205858.5,A,3249.030792,N,11713.432080,W,59.3,324.0,110410,,,A*4F
$GPRMC,205901.5,A,3249.069994,N,11713.468750,W,60.1,321.6,110410,,,A*48
$GPRMC,205904.5,A,3249.108540,N,11713.506306,W,58.9,320.4,110410,,,A*40
$GPRMC,205907.5,A,3249.143970,N,11713.542555,W,56.9,319.5,110410,,,A*46
$GPRMC,205910.5,A,3249.179802,N,11713.579222,W,56.8,318.9,110410,,,A*4E
$GPRMC,205913.5,A,3249.214604,N,11713.616097,W,56.4,318.8,110410,,,A*46
$GPRMC,205916.5,A,3249.250231,N,11713.653349,W,57.2,319.3,110410,,,A*4D
$GPRMC,205919.5,A,3249.289123,N,11713.691263,W,60.1,319.0,110410,,,A*45
$GPRMC,205922.5,A,3249.326309,N,11713.730771,W,60.6,319.1,110410,,,A*49
$GPRMC,205925.5,A,3249.365185,N,11713.770009,W,61.5,319.2,110410,,,A*42
$GPRMC,205928.5,A,3249.402088,N,11713.808831,W,59.6,319.0,110410,,,A*4C
$GPRMC,205931.5,A,3249.439220,N,11713.845382,W,57.5,321.7,110410,,,A*47
$GPRMC,205934.5,A,3249.478544,N,11713.876587,W,56.2,327.3,110410,,,A*45
$GPRMC,205937.5,A,3249.518849,N,11713.904159,W,57.3,332.3,110410,,,A*46
$GPRMC,205940.5,A,3249.563649,N,11713.925776,W,57.2,338.9,110410,,,A*4D
$GPRMC,205943.5,A,3249.608121,N,11713.941628,W,55.0,344.8,110410,,,A*4B
$GPRMC,205946.5,A,3249.652879,N,11713.951483,W,54.9,350.2,110410,,,A*40
$GPRMC,205949.5,A,3249.700245,N,11713.956651,W,56.1,354.8,110410,,,A*42
$GPRMC,205952.5,A,3249.746578,N,11713.957455,W,55.1,359.1,110410,,,A*43
$GPRMC,205955.5,A,3249.793932,N,11713.957132,W,55.7,359.3,110410,,,A*4E
$GPRMC,205958.5,A,3249.838639,N,11713.957018,W,55.3,359.3,110410,,,A*44
$GPRMC,210001.5,A,3249.883745,N,11713.957056,W,54.0,0.3,110410,,,A*48
$GPRMC,210004.5,A,3249.930167,N,11713.957061,W,54.9,359.5,110410,,,A*46
$GPRMC,210007.5,A,3249.977614,N,11713.960406,W,57.0,355.7,110410,,,A*40
$GPRMC,210010.5,A,3250.024503,N,11713.969570,W,56.9,350.9,110410,,,A*4E
$GPRMC,210013.5,A,3250.068315,N,11713.982300,W,55.6,345.2,110410,,,A*43
$GPRMC,210016.5,A,3250.111425,N,11714.000410,W,56.9,340.0,110410,,,A*44
$GPRMC,210019.5,A,3250.158234,N,11714.020999,W,58.7,339.4,110410,,,A*44
$GPRMC,210022.5,A,3250.205262,N,11714.043262,W,59.7,338.9,110410,,,A*43
$GPRMC,210025.5,A,3250.252194,N,11714.064202,W,60.2,339.2,110410,,,A*4A
$GPRMC,210028.5,A,3250.298819,N,11714.085154,W,59.6,338.8,110410,,,A*47
$GPRMC,210031.5,A,3250.346895,N,11714.106030,W,61.7,339.5,110410,,,A*46
$GPRMC,210034.5,A,3250.394021,N,11714.128459,W,61.8,338.8,110410,,,A*4F
$GPRMC,210037.5,A,3250.443652,N,11714.150264,W,62.5,340.6,110410,,,A*4B
$GPRMC,210040.5,A,3250.492346,N,11714.168075,W,61.0,344.0,110410,,,A*4A
$GPRMC,210043.5,A,3250.544975,N,11714.178710,W,61.8,350.7,110410,,,A*46
$GPRMC,210046.5,A,3250.595326,N,11714.182811,W,60.3,356.2,110410,,,A*41
$GPRMC,210049.5,A,3250.647675,N,11714.180273,W,61.4,2.7,110410,,,A*4C
$GPRMC,210052.5,A,3250.695575,N,11714.173433,W,59.7,6.4,110410,,,A*4B
$GPRMC,210055.5,A,3250.744883,N,11714.165171,W,58.6,6.8,110410,,,A*4D
$GPRMC,210058.5,A,3250.788979,N,11714.157169,W,55.6,7.6,110410,,,A*4E
$GPRMC,210101.5,A,3250.832935,N,11714.149986,W,54.2,7.3,110410,,,A*43
$GPRMC,210104.5,A,3250.880172,N,11714.140684,W,55.9,10.8,110410,,,A*77
$GPRMC,210107.5,A,3250.923872,N,11714.125005,W,55.6,16.9,110410,,,A*71
$GPRMC,210110.5,A,3250.967204,N,11714.105636,W,56.2,22.4,110410,,,A*75
$GPRMC,210113.5,A,3251.009105,N,11714.080761,W,56.6,27.0,110410,,,A*7E
$GPRMC,210116.5,A,3251.048390,N,11714.052133,W,55.8,30.2,110410,,,A*77
$GPRMC,210119.5,A,3251.088761,N,11714.023330,W,57.1,30.5,110410,,,A*75
$GPRMC,210122.5,A,3251.132313,N,11713.992948,W,58.7,31.1,110410,,,A*71
$GPRMC,210125.5,A,3251.174059,N,11713.963267,W,58.8,30.2,110410,,,A*7C
$GPRMC,210128.5,A,3251.215820,N,11713.933919,W,58.2,30.7,110410,,,A*7B
$GPRMC,210131.5,A,3251.257903,N,11713.905102,W,57.8,31.0,110410,,,A*71
$GPRMC,210134.5,A,3251.299206,N,11713.877946,W,56.5,26.9,110410,,,A*77
$GPRMC,210137.5,A,3251.343779,N,11713.856556,W,56.8,21.2,110410,,,A*70
$GPRMC,210140.5,A,3251.387943,N,11713.839885,W,56.5,15.5,110410,,,A*78
$GPRMC,210143.5,A,3251.436489,N,11713.827689,W,57.7,9.8,110410,,,A*43
$GPRMC,210146.5,A,3251.486382,N,11713.821923,W,58.8,5.0,110410,,,A*4C
$GPRMC,210149.5,A,3251.534487,N,11713.816387,W,58.5,5.3,110410,,,A*47
$GPRMC,210152.5,A,3251.583379,N,11713.811203,W,58.3,4.8,110410,,,A*41
$GPRMC,210155.5,A,3251.627696,N,11713.808056,W,55.4,4.9,110410,,,A*4E
$GPRMC,210158.5,A,3251.670381,N,11713.802213,W,54.9,5.4,110410,,,A*4B
$GPRMC,210201.5,A,3251.716459,N,11713.798814,W,55.5,4.7,110410,,,A*49
$GPRMC,210204.5,A,3251.763085,N,11713.795936,W,54.8,4.3,110410,,,A*4F
$GPRMC,210207.5,A,3251.806755,N,11713.791812,W,51.3,4.7,110410,,,A*43
$GPRMC,210210.5,A,3251.848808,N,11713.788078,W,51.3,4.5,110410,,,A*46
$GPRMC,210213.5,A,3251.895395,N,11713.783280,W,56.0,4.5,110410,,,A*40
$GPRMC,210216.5,A,3251.943240,N,11713.778633,W,57.9,5.2,110410,,,A*40
$GPRMC,210219.5,A,3251.991591,N,11713.773400,W,57.8,4.8,110410,,,A*48
$GPRMC,210222.5,A,3252.039348,N,11713.769078,W,56.7,4.6,110410,,,A*4A
$GPRMC,210225.5,A,3252.086929,N,11713.764764,W,57.1,4.7,110410,,,A*45
$GPRMC,210228.5,A,3252.130024,N,11713.759816,W,53.4,5.5,110410,,,A*46
$GPRMC,210231.5,A,3252.171754,N,11713.754042,W,50.4,6.7,110410,,,A*4D
$GPRMC,210234.5,A,3252.207924,N,11713.746501,W,44.2,7.5,110410,,,A*42
$GPRMC,210237.5,A,3252.237548,N,11713.735800,W,40.7,17.0,110410,,,A*79
$GPRMC,210240.5,A,3252.257181,N,11713.714550,W,36.4,35.7,110410,,,A*70
$GPRMC,210243.5,A,3252.276946,N,11713.689678,W,34.9,43.9,110410,,,A*7F
$GPRMC,210246.5,A,3252.293388,N,11713.667076,W,29.9,40.3,110410,,,A*74
$GPRMC,210249.5,A,3252.309893,N,11713.656121,W,21.4,18.1,110410,,,A*73
$GPRMC,210252.5,A,3252.320814,N,11713.654366,W,13.3,357.5,110410,,,A*44
$GPRMC,210255.5,A,3252.325218,N,11713.655355,W,7.0,348.7,110410,,,A*7B
$GPRMC,210307.5,A,3252.328157,N,11713.655386,W,4.4,19.3,110410,,,A*42
$GPRMC,210310.5,A,3252.334005,N,11713.650831,W,10.4,51.8,110410,,,A*7F
$GPRMC,210313.5,A,3252.337269,N,11713.633453,W,20.2,79.2,110410,,,A*7F
$GPRMC,210316.5,A,3252.333237,N,11713.606524,W,27.2,96.4,110410,,,A*72
$GPRMC,210319.5,A,3252.325236,N,11713.576563,W,30.9,106.3,110410,,,A*4E
$GPRMC,210322.5,A,3252.312499,N,11713.545770,W,34.7,114.6,110410,,,A*4D
$GPRMC,210325.5,A,3252.298741,N,11713.512548,W,36.8,116.6,110410,,,A*4B
$GPRMC,210328.5,A,3252.283963,N,11713.485194,W,31.3,121.0,110410,,,A*46
$GPRMC,210331.5,A,3252.273763,N,11713.463016,W,22.8,118.8,110410,,,A*47
$GPRMC,210334.5,A,3252.266609,N,11713.449648,W,15.1,124.1,110410,,,A*45
$GPRMC,210355.5,A,3252.261187,N,11713.446896,W,5.2,124.3,110410,,,A*76
$GPRMC,210358.5,A,3252.255416,N,11713.434184,W,16.7,117.9,110410,,,A*43
$GPRMC,210401.5,A,3252.247849,N,11713.411485,W,24.4,114.5,110410,,,A*43
$GPRMC,210404.5,A,3252.237532,N,11713.385611,W,28.2,116.2,110410,,,A*4A
$GPRMC,210407.5,A,3252.227116,N,11713.359198,W,29.4,113.8,110410,,,A*45
$GPRMC,210410.5,A,3252.218303,N,11713.331296,W,30.4,109.0,110410,,,A*41
$GPRMC,210413.5,A,3252.214541,N,11713.300584,W,30.8,100.6,110410,,,A*4B
$GPRMC,210416.5,A,3252.217935,N,11713.270565,W,30.5,89.4,110410,,,A*74
$GPRMC,210419.5,A,3252.224475,N,11713.238730,W,32.8,78.0,110410,,,A*79
$GPRMC,210422.5,A,3252.233249,N,11713.205096,W,34.9,73.0,110410,,,A*77
$GPRMC,210425.5,A,3252.244877,N,11713.177440,W,28.6,65.8,110410,,,A*73
$GPRMC,210428.5,A,3252.255298,N,11713.160622,W,19.9,54.5,110410,,,A*77
$GPRMC,210431.5,A,3252.263177,N,11713.149947,W,15.2,42.9,110410,,,A*73
$GPRMC,210434.5,A,3252.260812,N,11713.147807,W,7.1,49.4,110410,,,A*42
$GPRMC,210437.5,A,3252.265633,N,11713.137770,W,13.6,60.1,110410,,,A*7D
$GPRMC,210440.5,A,3252.270321,N,11713.130233,W,5.9,49.9,110410,,,A*41
$GPRMC,210601.5,A,3252.273200,N,11713.118863,W,8.5,75.2,110410,,,A*47
$GPRMC,210604.5,A,3252.280662,N,11713.102716,W,18.3,67.8,110410,,,A*76
$GPRMC,210607.5,A,3252.293911,N,11713.078569,W,28.8,64.5,110410,,,A*7C
$GPRMC,210610.5,A,3252.306831,N,11713.045052,W,37.5,67.5,110410,,,A*77
$GPRMC,210613.5,A,3252.317090,N,11713.007618,W,39.5,71.9,110410,,,A*7C
$GPRMC,210616.5,A,3252.326495,N,11712.967606,W,40.8,74.7,110410,,,A*73
$GPRMC,210619.5,A,3252.335990,N,11712.928619,W,39.0,72.8,110410,,,A*7C
$GPRMC,210622.5,A,3252.345225,N,11712.896154,W,31.5,71.4,110410,,,A*7E
$GPRMC,210625.5,A,3252.350397,N,11712.876229,W,20.0,68.2,110410,,,A*79
$GPRMC,210628.5,A,3252.352196,N,11712.866878,W,7.1,71.4,110410,,,A*40
