NMEA Sentence Code,UTC Time,Status,Latitude,Latitude Direction,Longitude,Longitude Direction,Speed (knots),Track Angle (degrees true),Date,MagneticVariation,Magnetic Variation Direction,[FAA Mode]-Optional,Checksum
$GPRMC,083528.9,A,3242.661648,N,11707.106361,W,22.4,263.3,020110,,,A*4C
$GPRMC,083531.9,A,3242.667327,N,11707.125996,W,17.9,307.5,020110,,,A*43
$GPRMC,083534.9,A,3242.679893,N,11707.130938,W,12.9,347.4,020110,,,A*4D
$GPRMC,083537.9,A,3242.706924,N,11707.117816,W,27.0,20.0,020110,,,A*7B
$GPRMC,083540.9,A,3242.740767,N,11707.100954,W,38.3,20.8,020110,,,A*74
$GPRMC,083543.9,A,3242.788111,N,11707.083762,W,49.1,18.4,020110,,,A*76
$GPRMC,083546.9,A,3242.826929,N,11707.069783,W,49.7,12.9,020110,,,A*71
$GPRMC,083549.9,A,3242.870831,N,11707.062056,W,52.3,5.7,020110,,,A*47
$GPRMC,083552.9,A,3242.916721,N,11707.062163,W,54.7,358.3,020110,,,A*48
$GPRMC,083555.9,A,3242.966092,N,11707.066175,W,57.8,356.7,020110,,,A*42
$GPRMC,083558.2,A,3243.002776,N,11707.068051,W,56.5,357.9,020110,,,A*49
$GPRMC,083601.2,A,3243.049913,N,11707.068538,W,56.7,359.7,020110,,,A*4C
$GPRMC,083604.9,A,3243.111699,N,11707.065733,W,58.5,5.1,020110,,,A*47
$GPRMC,083607.9,A,3243.160021,N,11707.056755,W,57.8,10.8,020110,,,A*78
$GPRMC,083610.9,A,3243.206532,N,11707.040791,W,58.4,16.4,020110,,,A*7C
$GPRMC,083613.9,A,3243.256401,N,11707.021110,W,61.0,19.9,020110,,,A*7F
$GPRMC,083616.9,A,3243.302486,N,11706.993353,W,63.5,27.5,020110,,,A*77
$GPRMC,083619.2,A,3243.337079,N,11706.967896,W,64.1,31.4,020110,,,A*7D
$GPRMC,083622.2,A,3243.381370,N,11706.934894,W,63.8,31.3,020110,,,A*7F
$GPRMC,083625.9,A,3243.436926,N,11706.894225,W,63.9,30.9,020110,,,A*70
$GPRMC,083628.9,A,3243.482745,N,11706.861611,W,63.9,31.6,020110,,,A*7E
$GPRMC,083631.2,A,3243.516243,N,11706.835965,W,61.1,31.1,020110,,,A*72
$GPRMC,083634.9,A,3243.568684,N,11706.797854,W,60.1,30.8,020110,,,A*77
$GPRMC,083637.9,A,3243.610767,N,11706.767990,W,58.2,30.2,020110,,,A*70
$GPRMC,083640.9,A,3243.653918,N,11706.742866,W,57.5,25.5,020110,,,A*75
$GPRMC,083643.9,A,3243.699635,N,11706.720998,W,58.1,21.9,020110,,,A*77
$GPRMC,083646.9,A,3243.746650,N,11706.701530,W,61.3,16.2,020110,,,A*78
$GPRMC,083649.9,A,3243.797799,N,11706.691482,W,63.1,8.4,020110,,,A*46
$GPRMC,083652.9,A,3243.853698,N,11706.686418,W,66.1,3.2,020110,,,A*46
$GPRMC,083655.9,A,3243.908020,N,11706.687608,W,66.2,358.9,020110,,,A*4C
$GPRMC,083658.2,A,3243.952143,N,11706.691048,W,67.8,355.7,020110,,,A*4C
$GPRMC,083701.9,A,3244.015772,N,11706.705952,W,65.7,348.8,020110,,,A*43
$GPRMC,083704.9,A,3244.071289,N,11706.724556,W,68.6,344.4,020110,,,A*42
$GPRMC,083707.9,A,3244.127511,N,11706.744138,W,68.6,343.0,020110,,,A*4C
$GPRMC,083710.9,A,3244.181706,N,11706.759968,W,68.1,344.5,020110,,,A*46
$GPRMC,083713.9,A,3244.235445,N,11706.778007,W,66.7,344.3,020110,,,A*40
$GPRMC,083716.9,A,3244.289121,N,11706.792858,W,66.5,350.6,020110,,,A*41
$GPRMC,083719.9,A,3244.346923,N,11706.795199,W,68.3,0.1,020110,,,A*4C
$GPRMC,083722.0,A,3244.383832,N,11706.789606,W,67.3,8.6,020110,,,A*49
$GPRMC,083725.9,A,3244.453830,N,11706.766089,W,67.3,21.1,020110,,,A*73
$GPRMC,083729.2,A,3244.509926,N,11706.729786,W,67.8,34.3,020110,,,A*72
$GPRMC,083732.9,A,3244.564250,N,11706.678242,W,67.8,39.5,020110,,,A*71
$GPRMC,083735.9,A,3244.607448,N,11706.636339,W,67.6,39.2,020110,,,A*71
$GPRMC,083738.9,A,3244.649225,N,11706.592670,W,66.6,39.1,020110,,,A*7C
$GPRMC,083741.9,A,3244.695754,N,11706.561117,W,64.8,29.3,020110,,,A*75
$GPRMC,083744.9,A,3244.746194,N,11706.537691,W,65.7,19.3,020110,,,A*72
$GPRMC,083747.9,A,3244.800782,N,11706.523897,W,65.6,10.6,020110,,,A*7D
$GPRMC,083750.9,A,3244.854483,N,11706.519010,W,65.3,2.5,020110,,,A*43
$GPRMC,083753.2,A,3244.896452,N,11706.516877,W,65.4,1.6,020110,,,A*48
$GPRMC,083756.9,A,3244.964279,N,11706.517979,W,68.0,0.4,020110,,,A*41
$GPRMC,083759.2,A,3245.006091,N,11706.518481,W,66.2,0.1,020110,,,A*41
$GPRMC,083802.9,A,3245.074406,N,11706.518493,W,66.2,0.3,020110,,,A*45
$GPRMC,083805.2,A,3245.116230,N,11706.517228,W,64.2,1.4,020110,,,A*42
$GPRMC,083812.0,A,3245.245525,N,11706.519935,W,69.3,0.4,020110,,,A*44
$GPRMC,083816.2,A,3245.327643,N,11706.518155,W,70.4,1.5,020110,,,A*44
$GPRMC,083819.9,A,3245.401156,N,11706.520814,W,71.4,0.1,020110,,,A*43
$GPRMC,083822.9,A,3245.462190,N,11706.523014,W,70.4,359.3,020110,,,A*43
$GPRMC,083825.9,A,3245.518803,N,11706.521482,W,67.2,359.6,020110,,,A*47
$GPRMC,083828.9,A,3245.571848,N,11706.523593,W,64.4,358.2,020110,,,A*49
$GPRMC,083832.2,A,3245.632641,N,11706.528423,W,68.4,356.4,020110,,,A*4F
$GPRMC,083835.2,A,3245.688982,N,11706.533423,W,69.9,356.0,020110,,,A*4B
$GPRMC,083838.2,A,3245.746876,N,11706.538179,W,69.6,355.1,020110,,,A*43
$GPRMC,083841.9,A,3245.818214,N,11706.547668,W,68.8,352.3,020110,,,A*49
$GPRMC,083845.2,A,3245.878526,N,11706.564165,W,68.6,346.3,020110,,,A*46
$GPRMC,083848.9,A,3245.944053,N,11706.593938,W,71.0,336.0,020110,,,A*4B
$GPRMC,083851.9,A,3245.999932,N,11706.631109,W,73.7,329.9,020110,,,A*4E
$GPRMC,083854.2,A,3246.041566,N,11706.658470,W,72.5,330.5,020110,,,A*41
$GPRMC,083857.9,A,3246.104266,N,11706.695042,W,69.1,335.1,020110,,,A*45
$GPRMC,083900.9,A,3246.156822,N,11706.720536,W,68.3,340.4,020110,,,A*46
$GPRMC,083903.9,A,3246.213698,N,11706.739571,W,68.8,345.4,020110,,,A*4D
$GPRMC,083906.0,A,3246.253430,N,11706.749104,W,69.1,349.7,020110,,,A*43
$GPRMC,083909.9,A,3246.328476,N,11706.753998,W,67.9,1.0,020110,,,A*42
$GPRMC,083912.9,A,3246.383951,N,11706.744113,W,68.0,10.9,020110,,,A*73
$GPRMC,083915.9,A,3246.439596,N,11706.723105,W,69.2,18.2,020110,,,A*73
$GPRMC,083919.2,A,3246.501904,N,11706.703713,W,70.3,10.9,020110,,,A*70
$GPRMC,083922.9,A,3246.574292,N,11706.696836,W,68.7,1.1,020110,,,A*45
$GPRMC,083925.2,A,3246.621915,N,11706.702645,W,71.4,353.0,020110,,,A*46
$GPRMC,083928.9,A,3246.692078,N,11706.725115,W,72.1,344.4,020110,,,A*49
$GPRMC,083931.2,A,3246.738170,N,11706.740849,W,72.6,344.2,020110,,,A*40
$GPRMC,083934.9,A,3246.805726,N,11706.764813,W,70.3,343.4,020110,,,A*45
$GPRMC,083937.9,A,3246.861893,N,11706.786480,W,70.7,343.6,020110,,,A*49
$GPRMC,083940.9,A,3246.917481,N,11706.805669,W,69.6,343.8,020110,,,A*40
$GPRMC,083943.9,A,3246.973758,N,11706.824580,W,69.8,343.8,020110,,,A*4F
$GPRMC,083946.9,A,3247.028676,N,11706.841319,W,68.7,345.8,020110,,,A*4C
$GPRMC,083949.9,A,3247.087314,N,11706.853969,W,70.5,351.7,020110,,,A*48
$GPRMC,083952.9,A,3247.145349,N,11706.859115,W,68.6,357.5,020110,,,A*42
$GPRMC,083955.2,A,3247.189418,N,11706.856944,W,68.7,4.1,020110,,,A*4E
$GPRMC,083958.9,A,3247.258795,N,11706.844421,W,69.0,8.6,020110,,,A*41
$GPRMC,084002.2,A,3247.320921,N,11706.821978,W,70.4,15.8,020110,,,A*78
$GPRMC,084005.9,A,3247.382466,N,11706.792507,W,66.4,19.6,020110,,,A*74
$GPRMC,084008.9,A,3247.437748,N,11706.772805,W,67.3,17.7,020110,,,A*77
$GPRMC,084011.9,A,3247.491049,N,11706.752698,W,66.5,17.3,020110,,,A*7E
$GPRMC,084014.9,A,3247.543513,N,11706.734744,W,67.0,15.4,020110,,,A*7E
$GPRMC,084017.9,A,3247.598485,N,11706.722619,W,67.8,9.7,020110,,,A*4D
$GPRMC,084020.9,A,3247.655292,N,11706.714826,W,68.6,5.0,020110,,,A*46
$GPRMC,084023.9,A,3247.711662,N,11706.713328,W,67.7,359.4,020110,,,A*4D
$GPRMC,084026.9,A,3247.767559,N,11706.718775,W,67.9,355.0,020110,,,A*43
$GPRMC,084029.9,A,3247.825996,N,11706.726067,W,68.7,355.0,020110,,,A*42
$GPRMC,084032.9,A,3247.884557,N,11706.733623,W,69.9,354.5,020110,,,A*4B
$GPRMC,084035.9,A,3247.941508,N,11706.739352,W,70.0,354.5,020110,,,A*46
$GPRMC,084038.9,A,3247.999027,N,11706.744018,W,68.8,354.7,020110,,,A*42
$GPRMC,084041.9,A,3248.058048,N,11706.752446,W,70.9,355.0,020110,,,A*48
$GPRMC,084044.9,A,3248.116929,N,11706.757038,W,70.0,355.2,020110,,,A*4B
$GPRMC,084047.9,A,3248.174424,N,11706.763229,W,69.0,354.4,020110,,,A*46
$GPRMC,084050.9,A,3248.231862,N,11706.772199,W,68.9,353.3,020110,,,A*4C
$GPRMC,084053.9,A,3248.288806,N,11706.782597,W,69.5,351.9,020110,,,A*4F
$GPRMC,084056.2,A,3248.332177,N,11706.790246,W,69.6,353.3,020110,,,A*4D
$GPRMC,084059.9,A,3248.403254,N,11706.799567,W,70.0,352.7,020110,,,A*48
$GPRMC,084102.9,A,3248.462474,N,11706.808278,W,72.5,352.6,020110,,,A*4C
$GPRMC,084105.9,A,3248.524360,N,11706.818461,W,73.3,352.4,020110,,,A*40
$GPRMC,084108.9,A,3248.584679,N,11706.825530,W,73.4,353.2,020110,,,A*41
$GPRMC,084112.2,A,3248.650891,N,11706.835323,W,71.5,352.8,020110,,,A*4E
$GPRMC,084115.9,A,3248.718247,N,11706.845772,W,66.1,352.4,020110,,,A*47
$GPRMC,084118.9,A,3248.772789,N,11706.855546,W,65.9,352.3,020110,,,A*49
$GPRMC,084121.9,A,3248.826017,N,11706.863249,W,65.9,352.2,020110,,,A*41
$GPRMC,084125.2,A,3248.888530,N,11706.873737,W,67.8,351.2,020110,,,A*47
$GPRMC,084128.9,A,3248.955945,N,11706.888712,W,68.1,349.6,020110,,,A*46
$GPRMC,084131.9,A,3249.013120,N,11706.900477,W,68.5,350.5,020110,,,A*41
$GPRMC,084134.9,A,3249.070647,N,11706.912376,W,69.6,349.9,020110,,,A*44
$GPRMC,084137.9,A,3249.127713,N,11706.925478,W,70.1,349.6,020110,,,A*49
$GPRMC,084140.9,A,3249.188421,N,11706.938591,W,70.2,349.4,020110,,,A*45
$GPRMC,084143.9,A,3249.243680,N,11706.950320,W,68.6,349.4,020110,,,A*44
$GPRMC,084146.9,A,3249.295597,N,11706.962552,W,66.3,349.6,020110,,,A*44
$GPRMC,084149.9,A,3249.352988,N,11706.975204,W,68.1,349.4,020110,,,A*4F
$GPRMC,084153.2,A,3249.414376,N,11706.987881,W,66.2,350.4,020110,,,A*4E
$GPRMC,084156.0,A,3249.463529,N,11706.999059,W,65.9,349.2,020110,,,A*41
$GPRMC,084159.9,A,3249.535437,N,11707.016150,W,66.3,349.5,020110,,,A*42
$GPRMC,084203.2,A,3249.593085,N,11707.027116,W,63.3,350.3,020110,,,A*4F
$GPRMC,084206.2,A,3249.648462,N,11707.039665,W,66.7,350.0,020110,,,A*4C
$GPRMC,084209.2,A,3249.702787,N,11707.052014,W,66.1,349.6,020110,,,A*41
$GPRMC,084212.2,A,3249.757029,N,11707.064111,W,66.6,349.4,020110,,,A*4C
$GPRMC,084215.2,A,3249.811813,N,11707.076398,W,67.2,349.4,020110,,,A*42
$GPRMC,084218.9,A,3249.880191,N,11707.092667,W,67.1,349.0,020110,,,A*47
$GPRMC,084221.9,A,3249.935129,N,11707.104059,W,66.7,349.6,020110,,,A*45
$GPRMC,084224.9,A,3249.987494,N,11707.115819,W,65.4,347.6,020110,,,A*48
$GPRMC,084228.2,A,3250.048837,N,11707.133538,W,67.6,345.5,020110,,,A*43
$GPRMC,084231.9,A,3250.114324,N,11707.166754,W,69.1,337.1,020110,,,A*41
$GPRMC,084234.9,A,3250.165825,N,11707.193562,W,68.0,336.9,020110,,,A*4C
$GPRMC,084237.9,A,3250.217983,N,11707.218750,W,68.2,340.4,020110,,,A*49
$GPRMC,084240.9,A,3250.273693,N,11707.234273,W,68.1,347.5,020110,,,A*4A
$GPRMC,084243.9,A,3250.330260,N,11707.244164,W,67.5,353.4,020110,,,A*4A
$GPRMC,084246.9,A,3250.387665,N,11707.247461,W,69.2,359.2,020110,,,A*44
$GPRMC,084249.9,A,3250.443998,N,11707.243553,W,67.8,5.4,020110,,,A*45
$GPRMC,084252.9,A,3250.498665,N,11707.231682,W,66.1,9.5,020110,,,A*4B
$GPRMC,084255.2,A,3250.538410,N,11707.217386,W,64.9,16.6,020110,,,A*7E
$GPRMC,084258.9,A,3250.597928,N,11707.190099,W,62.3,23.5,020110,,,A*73
$GPRMC,084301.9,A,3250.643770,N,11707.161250,W,63.4,27.6,020110,,,A*7F
$GPRMC,084304.9,A,3250.692364,N,11707.130389,W,65.4,29.1,020110,,,A*79
$GPRMC,084307.9,A,3250.739077,N,11707.098074,W,64.6,30.4,020110,,,A*77
$GPRMC,084310.9,A,3250.785330,N,11707.066110,W,64.2,29.8,020110,,,A*74
$GPRMC,084313.9,A,3250.831417,N,11707.036057,W,63.6,27.2,020110,,,A*75
$GPRMC,084316.9,A,3250.879727,N,11707.010785,W,63.6,24.1,020110,,,A*70
$GPRMC,084319.2,A,3250.918546,N,11706.992459,W,64.9,20.6,020110,,,A*7C
$GPRMC,084322.9,A,3250.982993,N,11706.970099,W,65.2,16.4,020110,,,A*71
$GPRMC,084325.2,A,3251.024458,N,11706.957455,W,67.2,15.7,020110,,,A*70
$GPRMC,084328.9,A,3251.091714,N,11706.934540,W,67.4,16.1,020110,,,A*70
$GPRMC,084331.9,A,3251.147051,N,11706.916526,W,67.3,15.6,020110,,,A*77
$GPRMC,084334.9,A,3251.202210,N,11706.900057,W,66.8,15.3,020110,,,A*7C
$GPRMC,084337.9,A,3251.253520,N,11706.879824,W,66.3,18.8,020110,,,A*71
$GPRMC,084340.9,A,3251.304616,N,11706.855213,W,67.0,22.5,020110,,,A*72
$GPRMC,084343.9,A,3251.355693,N,11706.824182,W,68.9,27.5,020110,,,A*76
$GPRMC,084346.9,A,3251.407754,N,11706.792202,W,69.7,27.2,020110,,,A*78
$GPRMC,084349.9,A,3251.456370,N,11706.763025,W,67.8,26.5,020110,,,A*7F
$GPRMC,084352.9,A,3251.505836,N,11706.733265,W,67.4,25.5,020110,,,A*77
$GPRMC,084355.2,A,3251.547329,N,11706.716074,W,69.4,19.7,020110,,,A*7E
$GPRMC,084358.9,A,3251.614412,N,11706.688963,W,69.5,19.3,020110,,,A*7E
$GPRMC,084401.9,A,3251.667694,N,11706.665812,W,67.6,19.6,020110,,,A*71
$GPRMC,084404.9,A,3251.721401,N,11706.642714,W,67.4,20.2,020110,,,A*79
$GPRMC,084407.9,A,3251.773079,N,11706.620032,W,66.8,21.5,020110,,,A*7A
$GPRMC,084410.9,A,3251.824625,N,11706.592932,W,67.2,23.6,020110,,,A*77
$GPRMC,084413.9,A,3251.874803,N,11706.566225,W,66.6,24.6,020110,,,A*7F
$GPRMC,084416.9,A,3251.922889,N,11706.540047,W,65.5,24.1,020110,,,A*7F
$GPRMC,084419.9,A,3251.974495,N,11706.513243,W,68.0,23.2,020110,,,A*7E
$GPRMC,084422.2,A,3252.017098,N,11706.492534,W,70.5,20.4,020110,,,A*7D
$GPRMC,084425.9,A,3252.084817,N,11706.466042,W,69.1,17.9,020110,,,A*7E
$GPRMC,084428.9,A,3252.139940,N,11706.447828,W,68.6,14.8,020110,,,A*74
$GPRMC,084431.9,A,3252.196183,N,11706.434259,W,68.1,10.7,020110,,,A*7A
$GPRMC,084434.9,A,3252.256525,N,11706.422561,W,70.9,8.3,020110,,,A*4F
$GPRMC,084437.9,A,3252.314429,N,11706.418707,W,70.0,4.7,020110,,,A*4C
$GPRMC,084440.9,A,3252.372695,N,11706.413715,W,70.2,3.0,020110,,,A*43
$GPRMC,084443.9,A,3252.431741,N,11706.412566,W,70.3,0.2,020110,,,A*4F
$GPRMC,084446.9,A,3252.489482,N,11706.411270,W,69.6,359.6,020110,,,A*40
$GPRMC,084449.9,A,3252.545057,N,11706.418279,W,68.4,355.7,020110,,,A*4C
$GPRMC,084452.9,A,3252.601022,N,11706.425983,W,68.6,353.3,020110,,,A*47
$GPRMC,084455.9,A,3252.664302,N,11706.440373,W,71.9,350.1,020110,,,A*42
$GPRMC,084458.9,A,3252.723628,N,11706.456157,W,72.3,346.6,020110,,,A*4A
$GPRMC,084501.9,A,3252.781503,N,11706.475334,W,70.6,344.5,020110,,,A*45
$GPRMC,084504.9,A,3252.834215,N,11706.496197,W,68.6,341.9,020110,,,A*47
$GPRMC,084507.9,A,3252.889220,N,11706.515891,W,68.4,341.5,020110,,,A*4F
$GPRMC,084510.9,A,3252.946978,N,11706.545701,W,70.6,337.1,020110,,,A*40
$GPRMC,084513.9,A,3252.999058,N,11706.574916,W,70.3,334.7,020110,,,A*40
$GPRMC,084516.9,A,3253.049526,N,11706.606646,W,70.1,332.6,020110,,,A*45
$GPRMC,084519.9,A,3253.102924,N,11706.637104,W,71.0,333.1,020110,,,A*4F
$GPRMC,084522.9,A,3253.156095,N,11706.670653,W,72.8,332.3,020110,,,A*4B
$GPRMC,084525.9,A,3253.210408,N,11706.701292,W,72.5,332.8,020110,,,A*45
$GPRMC,084528.9,A,3253.261742,N,11706.732892,W,69.8,333.3,020110,,,A*44
$GPRMC,084531.9,A,3253.312752,N,11706.763509,W,67.8,333.9,020110,,,A*47
$GPRMC,084534.9,A,3253.364057,N,11706.790597,W,64.2,335.1,020110,,,A*4D
$GPRMC,084537.9,A,3253.409652,N,11706.816203,W,60.3,336.8,020110,,,A*45
$GPRMC,084540.9,A,3253.453737,N,11706.840053,W,57.9,337.1,020110,,,A*4A
$GPRMC,084543.9,A,3253.500426,N,11706.860847,W,58.6,338.8,020110,,,A*44
$GPRMC,084546.9,A,3253.542906,N,11706.874983,W,54.6,341.3,020110,,,A*4D
$GPRMC,084549.9,A,3253.588151,N,11706.891485,W,54.8,343.7,020110,,,A*46
$GPRMC,084552.0,A,3253.618248,N,11706.903545,W,57.0,343.3,020110,,,A*4C
$GPRMC,084555.9,A,3253.682574,N,11706.924358,W,60.4,345.2,020110,,,A*41
$GPRMC,084558.9,A,3253.734002,N,11706.937119,W,61.9,348.2,020110,,,A*40
$GPRMC,084601.9,A,3253.784790,N,11706.949090,W,62.1,349.9,020110,,,A*40
$GPRMC,084604.9,A,3253.835894,N,11706.956999,W,62.3,352.4,020110,,,A*40
$GPRMC,084607.9,A,3253.888747,N,11706.963380,W,62.6,355.2,020110,,,A*44
$GPRMC,084610.2,A,3253.930767,N,11706.965565,W,63.9,358.9,020110,,,A*4A
$GPRMC,084613.9,A,3253.995510,N,11706.965248,W,63.2,359.8,020110,,,A*4C
$GPRMC,084616.9,A,3254.048283,N,11706.966782,W,62.6,359.6,020110,,,A*41
$GPRMC,084619.9,A,3254.099968,N,11706.965015,W,62.1,359.8,020110,,,A*4F
$GPRMC,084622.9,A,3254.150926,N,11706.965310,W,60.7,359.4,020110,,,A*47
$GPRMC,084625.9,A,3254.203132,N,11706.967381,W,61.8,359.5,020110,,,A*4D
$GPRMC,084628.2,A,3254.241418,N,11706.967215,W,61.5,359.7,020110,,,A*43
$GPRMC,084631.9,A,3254.305695,N,11706.967475,W,63.3,359.4,020110,,,A*41
$GPRMC,084634.9,A,3254.360154,N,11706.967918,W,63.3,359.1,020110,,,A*4E
$GPRMC,084637.9,A,3254.414187,N,11706.967326,W,63.4,0.1,020110,,,A*48
$GPRMC,084640.9,A,3254.466031,N,11706.969373,W,64.1,359.5,020110,,,A*46
$GPRMC,084643.9,A,3254.519450,N,11706.968750,W,65.9,359.9,020110,,,A*4E
$GPRMC,084646.9,A,3254.574938,N,11706.970207,W,66.1,359.3,020110,,,A*4C
$GPRMC,084649.9,A,3254.629608,N,11706.971117,W,65.8,357.6,020110,,,A*46
$GPRMC,084652.9,A,3254.685554,N,11706.969982,W,67.0,0.7,020110,,,A*47
$GPRMC,084655.9,A,3254.743393,N,11706.970021,W,68.8,0.5,020110,,,A*4B
$GPRMC,084658.9,A,3254.797755,N,11706.967511,W,67.0,2.5,020110,,,A*44
$GPRMC,084701.9,A,3254.853991,N,11706.964468,W,67.1,2.5,020110,,,A*45
$GPRMC,084704.9,A,3254.909071,N,11706.959087,W,67.2,3.9,020110,,,A*4C
$GPRMC,084707.9,A,3254.966530,N,11706.953586,W,67.2,5.2,020110,,,A*45
$GPRMC,084710.9,A,3255.025217,N,11706.948979,W,68.2,5.0,020110,,,A*45
$GPRMC,084713.9,A,3255.081826,N,11706.944683,W,67.3,5.6,020110,,,A*4E
$GPRMC,084716.9,A,3255.136841,N,11706.938013,W,67.9,6.1,020110,,,A*4D
$GPRMC,084719.9,A,3255.191605,N,11706.927522,W,68.5,7.7,020110,,,A*4C
$GPRMC,084722.9,A,3255.249991,N,11706.918971,W,70.0,7.5,020110,,,A*48
$GPRMC,084725.9,A,3255.308309,N,11706.908846,W,70.4,8.3,020110,,,A*49
$GPRMC,084728.9,A,3255.365325,N,11706.897978,W,70.1,8.4,020110,,,A*48
$GPRMC,084731.9,A,3255.423126,N,11706.888342,W,68.7,8.1,020110,,,A*43
$GPRMC,084734.9,A,3255.478335,N,11706.876918,W,67.1,10.1,020110,,,A*7C
$GPRMC,084737.9,A,3255.532377,N,11706.862161,W,65.6,11.7,020110,,,A*77
$GPRMC,084740.9,A,3255.587075,N,11706.846752,W,65.3,14.0,020110,,,A*7F
$GPRMC,084743.9,A,3255.639077,N,11706.832439,W,63.4,13.1,020110,,,A*72
$GPRMC,084746.9,A,3255.690939,N,11706.820572,W,63.5,12.4,020110,,,A*7F
$GPRMC,084749.9,A,3255.741777,N,11706.806236,W,62.5,13.7,020110,,,A*79
$GPRMC,084752.9,A,3255.792751,N,11706.791491,W,63.6,14.0,020110,,,A*71
$GPRMC,084755.9,A,3255.844496,N,11706.773041,W,63.0,15.2,020110,,,A*7A
$GPRMC,084758.9,A,3255.893335,N,11706.757332,W,61.2,14.2,020110,,,A*73
$GPRMC,084801.9,A,3255.941385,N,11706.742705,W,60.1,14.3,020110,,,A*72
$GPRMC,084804.9,A,3255.991199,N,11706.728838,W,60.0,14.5,020110,,,A*7F
$GPRMC,084807.9,A,3256.039367,N,11706.714130,W,60.6,13.6,020110,,,A*7B
$GPRMC,084810.9,A,3256.084464,N,11706.699668,W,58.2,14.7,020110,,,A*78
$GPRMC,084813.9,A,3256.133744,N,11706.687439,W,59.7,13.1,020110,,,A*7B
$GPRMC,084816.9,A,3256.184636,N,11706.673800,W,61.2,13.8,020110,,,A*7C
$GPRMC,084819.9,A,3256.234606,N,11706.656829,W,62.2,14.1,020110,,,A*79
$GPRMC,084822.9,A,3256.285513,N,11706.642383,W,62.2,13.4,020110,,,A*70
$GPRMC,084825.9,A,3256.335838,N,11706.629375,W,62.1,14.0,020110,,,A*7D
$GPRMC,084828.9,A,3256.384355,N,11706.613947,W,60.6,14.9,020110,,,A*74
$GPRMC,084831.9,A,3256.432925,N,11706.598540,W,59.2,14.4,020110,,,A*73
$GPRMC,084834.9,A,3256.480596,N,11706.583146,W,58.4,15.7,020110,,,A*76
$GPRMC,084837.9,A,3256.527862,N,11706.564578,W,58.3,18.2,020110,,,A*70
$GPRMC,084840.9,A,3256.575308,N,11706.541865,W,60.1,21.2,020110,,,A*75
$GPRMC,084843.9,A,3256.620971,N,11706.517623,W,58.4,23.1,020110,,,A*71
$GPRMC,084846.9,A,3256.662874,N,11706.493756,W,56.0,23.8,020110,,,A*7B
$GPRMC,084849.9,A,3256.707191,N,11706.466162,W,59.6,27.3,020110,,,A*79
$GPRMC,084852.9,A,3256.753548,N,11706.437210,W,61.1,30.1,020110,,,A*78
$GPRMC,084855.9,A,3256.799388,N,11706.405527,W,62.6,30.2,020110,,,A*76
$GPRMC,084858.9,A,3256.843937,N,11706.372652,W,62.2,30.1,020110,,,A*7C
$GPRMC,084902.2,A,3256.893058,N,11706.338277,W,62.8,29.2,020110,,,A*78
$GPRMC,084905.9,A,3256.950850,N,11706.299953,W,63.7,30.0,020110,,,A*79
$GPRMC,084908.9,A,3256.997838,N,11706.267971,W,64.1,29.9,020110,,,A*70
$GPRMC,084911.9,A,3257.046915,N,11706.233782,W,65.3,30.5,020110,,,A*76
$GPRMC,084914.9,A,3257.092852,N,11706.201653,W,64.6,30.9,020110,,,A*7C
$GPRMC,084917.9,A,3257.139691,N,11706.171450,W,64.4,29.1,020110,,,A*79
$GPRMC,084920.9,A,3257.188255,N,11706.139879,W,66.0,28.9,020110,,,A*7F
$GPRMC,084923.9,A,3257.236495,N,11706.108169,W,66.3,28.6,020110,,,A*76
$GPRMC,084926.9,A,3257.285533,N,11706.080108,W,65.6,27.3,020110,,,A*7C
$GPRMC,084929.9,A,3257.333072,N,11706.048913,W,65.1,28.6,020110,,,A*74
$GPRMC,084932.9,A,3257.377887,N,11706.018250,W,61.2,28.6,020110,,,A*72
$GPRMC,084935.9,A,3257.419580,N,11705.990520,W,56.5,28.9,020110,,,A*76
$GPRMC,084938.9,A,3257.458306,N,11705.962173,W,54.8,31.8,020110,,,A*7F
$GPRMC,084941.9,A,3257.494384,N,11705.935900,W,51.4,34.8,020110,,,A*79
$GPRMC,084945.2,A,3257.531304,N,11705.902059,W,51.5,42.3,020110,,,A*7A
$GPRMC,084948.9,A,3257.566506,N,11705.860938,W,46.5,43.2,020110,,,A*77
$GPRMC,084951.9,A,3257.600512,N,11705.833694,W,47.4,33.3,020110,,,A*70
$GPRMC,084954.9,A,3257.636172,N,11705.819297,W,48.9,17.4,020110,,,A*7E
$GPRMC,084957.9,A,3257.676448,N,11705.804887,W,49.9,17.9,020110,,,A*7E
$GPRMC,085000.9,A,3257.714552,N,11705.789920,W,51.3,21.9,020110,,,A*7B
$GPRMC,085003.2,A,3257.744303,N,11705.773141,W,50.8,28.4,020110,,,A*70
$GPRMC,085006.9,A,3257.785530,N,11705.731248,W,52.7,41.5,020110,,,A*7A
$GPRMC,085009.9,A,3257.811438,N,11705.693105,W,49.6,54.2,020110,,,A*75
$GPRMC,085012.9,A,3257.830287,N,11705.656668,W,41.4,53.2,020110,,,A*76
$GPRMC,085015.9,A,3257.848988,N,11705.641088,W,28.3,26.0,020110,,,A*7C
$GPRMC,085018.9,A,3257.867217,N,11705.642296,W,19.5,0.8,020110,,,A*47
$GPRMC,085021.9,A,3257.875745,N,11705.644887,W,7.7,356.0,020110,,,A*75
$GPRMC,085027.9,A,3257.881748,N,11705.647225,W,7.5,331.7,020110,,,A*70
$GPRMC,085031.2,A,3257.886347,N,11705.661072,W,15.5,290.4,020110,,,A*4E
$GPRMC,085034.9,A,3257.890314,N,11705.692940,W,29.3,268.4,020110,,,A*4B
$GPRMC,085037.9,A,3257.887850,N,11705.727176,W,38.2,265.5,020110,,,A*4A
$GPRMC,085040.9,A,3257.882969,N,11705.771670,W,43.6,262.1,020110,,,A*4D
$GPRMC,085043.9,A,3257.870933,N,11705.818446,W,47.5,253.4,020110,,,A*4B
$GPRMC,085046.9,A,3257.855074,N,11705.863048,W,49.6,246.5,020110,,,A*4D
$GPRMC,085049.9,A,3257.834505,N,11705.912008,W,54.3,243.8,020110,,,A*44
$GPRMC,085052.9,A,3257.813901,N,11705.961021,W,56.7,244.6,020110,,,A*43
$GPRMC,085055.9,A,3257.792033,N,11706.016601,W,60.9,245.1,020110,,,A*49
$GPRMC,085058.9,A,3257.773152,N,11706.071507,W,59.3,247.9,020110,,,A*43
$GPRMC,085101.9,A,3257.753901,N,11706.125627,W,61.0,248.1,020110,,,A*4C
$GPRMC,085104.2,A,3257.738377,N,11706.168161,W,58.6,246.1,020110,,,A*4A
$GPRMC,085107.2,A,3257.721950,N,11706.229516,W,61.5,249.0,020110,,,A*4B
$GPRMC,085110.2,A,3257.703588,N,11706.286353,W,62.2,249.0,020110,,,A*42
$GPRMC,085113.9,A,3257.680766,N,11706.358333,W,63.1,248.7,020110,,,A*42
$GPRMC,085116.9,A,3257.659481,N,11706.415922,W,63.7,247.9,020110,,,A*4A
$GPRMC,085119.9,A,3257.642303,N,11706.473684,W,62.8,249.0,020110,,,A*48
$GPRMC,085122.9,A,3257.622668,N,11706.533822,W,64.1,249.6,020110,,,A*40
$GPRMC,085125.9,A,3257.603182,N,11706.591465,W,62.8,247.7,020110,,,A*40
$GPRMC,085128.9,A,3257.582848,N,11706.652183,W,64.8,248.0,020110,,,A*47
$GPRMC,085131.9,A,3257.562829,N,11706.712519,W,65.1,248.8,020110,,,A*44
$GPRMC,085134.9,A,3257.541586,N,11706.770295,W,63.8,247.7,020110,,,A*40
$GPRMC,085137.9,A,3257.522238,N,11706.830102,W,63.9,248.5,020110,,,A*4E
$GPRMC,085140.9,A,3257.502812,N,11706.887694,W,63.4,249.1,020110,,,A*42
$GPRMC,085143.9,A,3257.482659,N,11706.945731,W,63.6,248.4,020110,,,A*4E
$GPRMC,085146.9,A,3257.461845,N,11707.006074,W,65.8,247.9,020110,,,A*46
$GPRMC,085149.9,A,3257.440133,N,11707.067878,W,68.0,248.0,020110,,,A*42
$GPRMC,085152.9,A,3257.420439,N,11707.126763,W,65.1,247.3,020110,,,A*40
$GPRMC,085155.9,A,3257.397803,N,11707.187939,W,67.7,247.3,020110,,,A*47
$GPRMC,085158.9,A,3257.379947,N,11707.251185,W,66.4,248.9,020110,,,A*4B
$GPRMC,085201.9,A,3257.361141,N,11707.311337,W,65.5,248.5,020110,,,A*43
$GPRMC,085204.9,A,3257.341226,N,11707.374855,W,67.1,249.7,020110,,,A*4F
$GPRMC,085207.9,A,3257.321064,N,11707.438923,W,68.8,250.4,020110,,,A*4C
$GPRMC,085210.9,A,3257.304834,N,11707.502492,W,68.1,252.9,020110,,,A*49
$GPRMC,085213.9,A,3257.291586,N,11707.567082,W,67.8,255.2,020110,,,A*4F
$GPRMC,085216.9,A,3257.278070,N,11707.630812,W,65.8,255.6,020110,,,A*47
$GPRMC,085219.9,A,3257.264490,N,11707.691209,W,63.2,255.7,020110,,,A*49
$GPRMC,085222.9,A,3257.255194,N,11707.754579,W,64.6,259.0,020110,,,A*42
$GPRMC,085226.2,A,3257.243289,N,11707.821297,W,61.8,259.2,020110,,,A*46
$GPRMC,085229.9,A,3257.232379,N,11707.895369,W,62.7,261.0,020110,,,A*40
$GPRMC,085232.9,A,3257.224554,N,11707.956113,W,60.1,261.9,020110,,,A*48
$GPRMC,085235.9,A,3257.219888,N,11708.015445,W,59.1,264.1,020110,,,A*4D
$GPRMC,085238.9,A,3257.215800,N,11708.072437,W,59.2,265.0,020110,,,A*4B
$GPRMC,085241.9,A,3257.212921,N,11708.130952,W,60.1,267.0,020110,,,A*42
$GPRMC,085244.9,A,3257.209863,N,11708.190639,W,62.0,265.5,020110,,,A*46
$GPRMC,085247.9,A,3257.208717,N,11708.252387,W,62.6,267.7,020110,,,A*43
$GPRMC,085250.9,A,3257.206816,N,11708.314695,W,62.9,269.5,020110,,,A*43
$GPRMC,085253.9,A,3257.207439,N,11708.378344,W,63.7,270.8,020110,,,A*49
$GPRMC,085256.9,A,3257.212508,N,11708.442687,W,64.1,272.3,020110,,,A*47
$GPRMC,085259.9,A,3257.215026,N,11708.507216,W,63.2,273.2,020110,,,A*4E
$GPRMC,085302.9,A,3257.224039,N,11708.570116,W,64.9,277.9,020110,,,A*4D
$GPRMC,085305.9,A,3257.235578,N,11708.630901,W,63.1,282.7,020110,,,A*48
$GPRMC,085308.9,A,3257.248717,N,11708.690503,W,62.5,285.1,020110,,,A*44
$GPRMC,085311.9,A,3257.268993,N,11708.748456,W,63.5,292.0,020110,,,A*4F
$GPRMC,085314.9,A,3257.291937,N,11708.807708,W,64.6,294.7,020110,,,A*4B
$GPRMC,085317.0,A,3257.308993,N,11708.845551,W,63.8,297.6,020110,,,A*4D
$GPRMC,085320.9,A,3257.347153,N,11708.915502,W,63.3,304.4,020110,,,A*4F
$GPRMC,085323.9,A,3257.381359,N,11708.962046,W,62.4,312.0,020110,,,A*4E
$GPRMC,085326.9,A,3257.421602,N,11709.001813,W,61.3,319.3,020110,,,A*44
$GPRMC,085329.9,A,3257.460030,N,11709.040276,W,59.4,320.5,020110,,,A*45
$GPRMC,085332.9,A,3257.503739,N,11709.062447,W,55.0,338.3,020110,,,A*46
$GPRMC,085335.9,A,3257.543450,N,11709.075328,W,48.6,342.2,020110,,,A*47
$GPRMC,085338.9,A,3257.579230,N,11709.092747,W,44.6,334.8,020110,,,A*40
$GPRMC,085341.9,A,3257.600247,N,11709.125358,W,40.0,308.2,020110,,,A*43
$GPRMC,085344.9,A,3257.604891,N,11709.155193,W,27.8,282.4,020110,,,A*4D
