NMEA Sentence Code,UTC Time,Status,Latitude,Latitude Direction,Longitude,Longitude Direction,Speed (knots),Track Angle (degrees true),Date,MagneticVariation,Magnetic Variation Direction,[FAA Mode]-Optional,Checksum
$GPRMC,192200.693,A,3326.1193,N,11651.5690,W,10.808249,75.14,210210,,*1A
$GPRMC,192203.693,A,3326.1216,N,11651.5594,W,9.718087,74.10,210210,,*23
$GPRMC,192206.693,A,3326.1236,N,11651.5506,W,9.008903,74.25,210210,,*2A
$GPRMC,192209.692,A,3326.1251,N,11651.5425,W,9.033307,76.86,210210,,*28
$GPRMC,192212.692,A,3326.1269,N,11651.5337,W,9.033130,75.71,210210,,*20
$GPRMC,192215.692,A,3326.1289,N,11651.5254,W,7.995413,74.63,210210,,*20
$GPRMC,192218.692,A,3326.1309,N,11651.5184,W,7.058675,72.25,210210,,*24
$GPRMC,192221.692,A,3326.1323,N,11651.5129,W,5.771848,69.98,210210,,*23
$GPRMC,192224.691,A,3326.1341,N,11651.5079,W,5.941031,58.03,210210,,*2E
$GPRMC,192227.691,A,3326.1383,N,11651.5034,W,8.097625,20.53,210210,,*2C
$GPRMC,192230.691,A,3326.1458,N,11651.5043,W,9.562454,340.23,210210,,*13
$GPRMC,192233.691,A,3326.1539,N,11651.5091,W,10.559772,335.56,210210,,*2E
$GPRMC,192236.691,A,3326.1624,N,11651.5142,W,11.067559,335.20,210210,,*28
$GPRMC,192239.690,A,3326.1709,N,11651.5194,W,12.007088,335.63,210210,,*28
$GPRMC,192242.690,A,3326.1801,N,11651.5247,W,13.242300,336.61,210210,,*2E
$GPRMC,192245.690,A,3326.1909,N,11651.5302,W,14.266897,340.45,210210,,*23
$GPRMC,192248.690,A,3326.2031,N,11651.5342,W,14.716304,350.58,210210,,*25
$GPRMC,192251.690,A,3326.2160,N,11651.5360,W,15.591892,354.40,210210,,*2D
$GPRMC,192254.689,A,3326.2293,N,11651.5376,W,15.542398,353.08,210210,,*2C
$GPRMC,192257.689,A,3326.2423,N,11651.5393,W,15.365753,353.42,210210,,*27
$GPRMC,192300.689,A,3326.2548,N,11651.5398,W,14.658434,4.84,210210,,*20
$GPRMC,192303.689,A,3326.2666,N,11651.5362,W,14.450901,24.03,210210,,*15
$GPRMC,192306.689,A,3326.2763,N,11651.5280,W,14.116640,44.10,210210,,*10
$GPRMC,192309.688,A,3326.2834,N,11651.5156,W,14.687289,59.46,210210,,*1A
$GPRMC,192312.688,A,3326.2888,N,11651.5015,W,14.772544,60.02,210210,,*16
$GPRMC,192315.688,A,3326.2950,N,11651.4885,W,14.627650,51.49,210210,,*1F
$GPRMC,192318.688,A,3326.3035,N,11651.4781,W,14.569563,38.90,210210,,*13
$GPRMC,192321.688,A,3326.3142,N,11651.4713,W,14.461976,23.53,210210,,*17
$GPRMC,192324.687,A,3326.3258,N,11651.4679,W,13.985377,11.76,210210,,*15
$GPRMC,192327.687,A,3326.3365,N,11651.4662,W,11.887027,12.47,210210,,*15
$GPRMC,192330.687,A,3326.3457,N,11651.4633,W,11.167493,21.11,210210,,*1E
$GPRMC,192333.687,A,3326.3545,N,11651.4584,W,12.157725,26.88,210210,,*19
$GPRMC,192336.687,A,3326.3642,N,11651.4520,W,14.136024,32.63,210210,,*11
$GPRMC,192339.686,A,3326.3747,N,11651.4439,W,15.559902,34.68,210210,,*1E
$GPRMC,192342.686,A,3326.3852,N,11651.4357,W,14.360128,31.05,210210,,*15
$GPRMC,192345.686,A,3326.3952,N,11651.4297,W,12.294981,23.47,210210,,*1C
$GPRMC,192348.686,A,3326.4039,N,11651.4265,W,9.711145,15.98,210210,,*2A
$GPRMC,192351.686,A,3326.4105,N,11651.4245,W,6.847830,13.33,210210,,*21
$GPRMC,192354.685,A,3326.4146,N,11651.4234,W,4.356202,11.77,210210,,*26
$GPRMC,192415.684,A,3326.4304,N,11651.4317,W,9.395319,290.24,210210,,*15
$GPRMC,192418.684,A,3326.4323,N,11651.4436,W,13.713213,282.57,210210,,*24
$GPRMC,192421.684,A,3326.4343,N,11651.4597,W,18.060975,278.67,210210,,*27
$GPRMC,192424.683,A,3326.4363,N,11651.4798,W,21.329277,281.37,210210,,*24
$GPRMC,192427.683,A,3326.4396,N,11651.5023,W,23.788309,282.28,210210,,*23
$GPRMC,192430.683,A,3326.4442,N,11651.5265,W,25.062554,283.93,210210,,*21
$GPRMC,192433.683,A,3326.4496,N,11651.5510,W,25.213790,285.05,210210,,*29
$GPRMC,192436.683,A,3326.4559,N,11651.5753,W,24.874172,287.08,210210,,*24
$GPRMC,192439.682,A,3326.4628,N,11651.5995,W,25.177043,288.82,210210,,*2E
$GPRMC,192442.682,A,3326.4697,N,11651.6233,W,23.957014,289.43,210210,,*20
$GPRMC,192445.682,A,3326.4763,N,11651.6450,W,22.034251,290.24,210210,,*29
$GPRMC,192448.682,A,3326.4826,N,11651.6642,W,19.245697,292.19,210210,,*25
$GPRMC,192451.682,A,3326.4881,N,11651.6790,W,14.229459,296.36,210210,,*20
$GPRMC,192454.681,A,3326.4924,N,11651.6892,W,10.041701,300.44,210210,,*28
$GPRMC,192500.681,A,3326.4974,N,11651.6973,W,6.106110,322.75,210210,,*12
$GPRMC,192503.681,A,3326.5037,N,11651.6998,W,9.852975,353.19,210210,,*1B
$GPRMC,192506.681,A,3326.5128,N,11651.6982,W,11.464899,16.37,210210,,*17
$GPRMC,192509.680,A,3326.5230,N,11651.6930,W,13.297017,24.09,210210,,*10
$GPRMC,192512.680,A,3326.5344,N,11651.6858,W,16.611546,28.42,210210,,*1A
$GPRMC,192515.680,A,3326.5475,N,11651.6758,W,19.349999,34.24,210210,,*13
$GPRMC,192518.680,A,3326.5614,N,11651.6632,W,21.045725,39.67,210210,,*11
$GPRMC,192521.680,A,3326.5747,N,11651.6486,W,21.697199,45.37,210210,,*17
$GPRMC,192524.679,A,3326.5875,N,11651.6327,W,22.570945,46.79,210210,,*1F
$GPRMC,192527.679,A,3326.6004,N,11651.6157,W,23.150869,45.61,210210,,*16
$GPRMC,192530.679,A,3326.6143,N,11651.5987,W,23.977916,45.43,210210,,*10
$GPRMC,192533.679,A,3326.6285,N,11651.5808,W,24.939657,46.02,210210,,*1D
$GPRMC,192536.679,A,3326.6430,N,11651.5624,W,25.288915,46.08,210210,,*13
$GPRMC,192539.678,A,3326.6578,N,11651.5442,W,24.993312,46.38,210210,,*1C
$GPRMC,192542.678,A,3326.6720,N,11651.5258,W,24.469101,46.92,210210,,*1A
$GPRMC,192545.678,A,3326.6860,N,11651.5083,W,23.859644,45.37,210210,,*10
$GPRMC,192548.678,A,3326.7000,N,11651.4922,W,23.101306,43.87,210210,,*1B
$GPRMC,192551.678,A,3326.7145,N,11651.4775,W,22.869902,38.41,210210,,*11
$GPRMC,192554.677,A,3326.7300,N,11651.4643,W,23.028536,35.74,210210,,*10
$GPRMC,192557.677,A,3326.7462,N,11651.4521,W,23.336269,30.83,210210,,*1B
$GPRMC,192600.677,A,3326.7637,N,11651.4419,W,24.269437,23.27,210210,,*1F
$GPRMC,192603.677,A,3326.7827,N,11651.4329,W,24.517756,20.46,210210,,*19
$GPRMC,192606.677,A,3326.8026,N,11651.4257,W,25.277826,14.42,210210,,*19
$GPRMC,192609.676,A,3326.8238,N,11651.4205,W,26.118746,10.13,210210,,*1D
$GPRMC,192612.676,A,3326.8463,N,11651.4174,W,27.152039,4.21,210210,,*2E
$GPRMC,192615.676,A,3326.8694,N,11651.4173,W,27.900535,0.04,210210,,*21
$GPRMC,192618.676,A,3326.8927,N,11651.4193,W,28.330321,352.68,210210,,*2E
$GPRMC,192621.676,A,3326.9160,N,11651.4252,W,28.452368,345.59,210210,,*2A
$GPRMC,192624.675,A,3326.9394,N,11651.4335,W,28.906912,344.53,210210,,*25
$GPRMC,192627.675,A,3326.9629,N,11651.4415,W,29.088502,345.08,210210,,*2C
$GPRMC,192630.675,A,3326.9867,N,11651.4497,W,29.962200,345.40,210210,,*20
$GPRMC,192633.675,A,3327.0117,N,11651.4573,W,32.114717,344.90,210210,,*22
$GPRMC,192636.675,A,3327.0383,N,11651.4658,W,33.327877,345.43,210210,,*27
$GPRMC,192639.674,A,3327.0638,N,11651.4734,W,29.979112,345.60,210210,,*26
$GPRMC,192642.674,A,3327.0852,N,11651.4800,W,23.666996,345.55,210210,,*29
$GPRMC,192645.674,A,3327.1020,N,11651.4854,W,19.888475,344.92,210210,,*2E
$GPRMC,192648.674,A,3327.1184,N,11651.4908,W,22.656767,344.25,210210,,*2D
$GPRMC,192651.674,A,3327.1384,N,11651.4974,W,27.089111,345.08,210210,,*24
$GPRMC,192654.673,A,3327.1619,N,11651.5054,W,30.662741,344.43,210210,,*25
$GPRMC,192657.673,A,3327.1882,N,11651.5140,W,33.439598,345.48,210210,,*2D
$GPRMC,192700.673,A,3327.2162,N,11651.5227,W,35.162419,345.03,210210,,*22
$GPRMC,192703.673,A,3327.2447,N,11651.5319,W,35.721363,344.87,210210,,*29
$GPRMC,192706.673,A,3327.2734,N,11651.5414,W,36.216269,345.28,210210,,*2C
$GPRMC,192709.672,A,3327.3028,N,11651.5510,W,36.981884,344.94,210210,,*26
$GPRMC,192712.672,A,3327.3329,N,11651.5602,W,37.503265,344.91,210210,,*29
$GPRMC,192715.672,A,3327.3632,N,11651.5699,W,37.931975,345.11,210210,,*2D
$GPRMC,192718.672,A,3327.3936,N,11651.5799,W,37.560212,345.67,210210,,*29
$GPRMC,192721.672,A,3327.4241,N,11651.5889,W,36.655525,348.45,210210,,*2B
$GPRMC,192724.671,A,3327.4544,N,11651.5932,W,36.086122,356.48,210210,,*27
$GPRMC,192727.671,A,3327.4849,N,11651.5927,W,36.237990,4.17,210210,,*27
$GPRMC,192730.671,A,3327.5156,N,11651.5873,W,37.413736,8.73,210210,,*2A
$GPRMC,192733.671,A,3327.5466,N,11651.5801,W,37.942171,10.46,210210,,*19
$GPRMC,192736.671,A,3327.5775,N,11651.5742,W,37.447403,6.30,210210,,*2B
$GPRMC,192739.671,A,3327.6086,N,11651.5728,W,37.335370,359.89,210210,,*2A
$GPRMC,192742.670,A,3327.6397,N,11651.5722,W,36.979120,3.94,210210,,*2A
$GPRMC,192745.670,A,3327.6703,N,11651.5666,W,36.722873,13.35,210210,,*10
$GPRMC,192748.670,A,3327.6992,N,11651.5538,W,36.579409,25.06,210210,,*1B
$GPRMC,192751.670,A,3327.7254,N,11651.5341,W,37.302688,36.59,210210,,*13
$GPRMC,192754.670,A,3327.7491,N,11651.5090,W,38.185823,42.10,210210,,*15
$GPRMC,192757.669,A,3327.7725,N,11651.4818,W,39.151841,44.36,210210,,*15
$GPRMC,192800.669,A,3327.7962,N,11651.4537,W,40.139366,43.49,210210,,*14
$GPRMC,192803.669,A,3327.8209,N,11651.4256,W,40.729640,43.60,210210,,*13
$GPRMC,192806.669,A,3327.8455,N,11651.3975,W,40.234582,43.15,210210,,*12
$GPRMC,192809.669,A,3327.8699,N,11651.3711,W,38.965751,39.96,210210,,*19
$GPRMC,192812.668,A,3327.8958,N,11651.3500,W,37.465924,29.82,210210,,*18
$GPRMC,192815.668,A,3327.9236,N,11651.3353,W,36.280603,20.06,210210,,*1E
$GPRMC,192818.668,A,3327.9519,N,11651.3264,W,33.526988,12.54,210210,,*18
$GPRMC,192821.668,A,3327.9775,N,11651.3220,W,28.447509,5.94,210210,,*29
$GPRMC,192824.668,A,3327.9981,N,11651.3207,W,21.652939,5.02,210210,,*23
$GPRMC,192827.667,A,3328.0131,N,11651.3188,W,15.568646,11.15,210210,,*17
$GPRMC,192830.667,A,3328.0227,N,11651.3164,W,9.852809,5.63,210210,,*1F
$GPRMC,192848.666,A,3328.0300,N,11651.3170,W,9.803397,358.38,210210,,*1D
$GPRMC,192851.666,A,3328.0411,N,11651.3175,W,15.152553,359.45,210210,,*22
$GPRMC,192854.666,A,3328.0562,N,11651.3173,W,19.158076,2.24,210210,,*2A
$GPRMC,192857.665,A,3328.0744,N,11651.3163,W,22.334642,3.93,210210,,*21
$GPRMC,192900.665,A,3328.0947,N,11651.3141,W,25.032356,6.00,210210,,*22
$GPRMC,192903.665,A,3328.1173,N,11651.3104,W,28.227007,9.18,210210,,*24
$GPRMC,192906.665,A,3328.1415,N,11651.3048,W,29.657241,11.43,210210,,*18
$GPRMC,192909.665,A,3328.1661,N,11651.2984,W,29.744062,13.04,210210,,*1F
$GPRMC,192912.664,A,3328.1904,N,11651.2909,W,29.380664,15.37,210210,,*17
$GPRMC,192915.664,A,3328.2137,N,11651.2823,W,28.899905,17.58,210210,,*13
$GPRMC,192918.664,A,3328.2367,N,11651.2725,W,29.705909,21.10,210210,,*1E
$GPRMC,192921.664,A,3328.2611,N,11651.2610,W,32.288689,21.92,210210,,*10
$GPRMC,192924.664,A,3328.2871,N,11651.2483,W,34.144856,21.81,210210,,*1E
$GPRMC,192927.663,A,3328.3140,N,11651.2353,W,34.791077,22.75,210210,,*17
$GPRMC,192930.663,A,3328.3406,N,11651.2219,W,34.677068,22.66,210210,,*1C
$GPRMC,192933.663,A,3328.3672,N,11651.2088,W,34.712949,23.41,210210,,*18
$GPRMC,192936.663,A,3328.3930,N,11651.1938,W,34.776089,29.41,210210,,*18
$GPRMC,192939.663,A,3328.4170,N,11651.1742,W,35.410175,36.87,210210,,*1B
$GPRMC,192942.662,A,3328.4403,N,11651.1516,W,35.805431,38.60,210210,,*1E
$GPRMC,192945.662,A,3328.4644,N,11651.1305,W,35.571214,33.19,210210,,*16
$GPRMC,192948.662,A,3328.4902,N,11651.1129,W,36.278439,27.31,210210,,*11
$GPRMC,192951.662,A,3328.5174,N,11651.0973,W,36.115798,25.81,210210,,*1E
$GPRMC,192954.662,A,3328.5443,N,11651.0816,W,35.638572,26.90,210210,,*16
$GPRMC,192957.661,A,3328.5698,N,11651.0644,W,35.251467,32.32,210210,,*18
$GPRMC,193000.661,A,3328.5943,N,11651.0445,W,35.353602,34.99,210210,,*1D
$GPRMC,193003.661,A,3328.6178,N,11651.0229,W,35.545196,39.87,210210,,*18
$GPRMC,193006.661,A,3328.6399,N,11650.9992,W,35.580307,43.07,210210,,*15
$GPRMC,193009.661,A,3328.6614,N,11650.9744,W,35.697001,44.42,210210,,*19
$GPRMC,193012.660,A,3328.6827,N,11650.9489,W,36.043564,44.24,210210,,*14
$GPRMC,193015.660,A,3328.7045,N,11650.9235,W,36.783433,44.39,210210,,*1B
$GPRMC,193018.660,A,3328.7269,N,11650.8976,W,37.122184,44.99,210210,,*18
$GPRMC,193021.660,A,3328.7485,N,11650.8719,W,36.402490,45.97,210210,,*18
$GPRMC,193024.660,A,3328.7698,N,11650.8467,W,35.690767,45.50,210210,,*13
$GPRMC,193027.659,A,3328.7905,N,11650.8220,W,35.417585,45.59,210210,,*1E
$GPRMC,193030.659,A,3328.8115,N,11650.7962,W,36.603573,45.97,210210,,*13
$GPRMC,193033.659,A,3328.8330,N,11650.7691,W,37.826937,46.01,210210,,*1E
$GPRMC,193036.659,A,3328.8549,N,11650.7410,W,38.538707,46.18,210210,,*10
$GPRMC,193039.659,A,3328.8775,N,11650.7134,W,37.996629,45.50,210210,,*14
$GPRMC,193042.658,A,3328.8993,N,11650.6865,W,36.785862,46.33,210210,,*19
$GPRMC,193045.658,A,3328.9193,N,11650.6602,W,34.955896,49.17,210210,,*1B
$GPRMC,193048.658,A,3328.9367,N,11650.6335,W,33.431207,54.30,210210,,*1D
$GPRMC,193051.658,A,3328.9505,N,11650.6055,W,32.379136,61.28,210210,,*16
$GPRMC,193054.658,A,3328.9614,N,11650.5767,W,31.734379,66.33,210210,,*1F
$GPRMC,193057.657,A,3328.9692,N,11650.5469,W,31.712068,73.96,210210,,*1C
$GPRMC,193100.657,A,3328.9756,N,11650.5157,W,31.926819,75.73,210210,,*14
$GPRMC,193103.657,A,3328.9816,N,11650.4856,W,29.406286,76.09,210210,,*11
$GPRMC,193106.657,A,3328.9867,N,11650.4598,W,24.012563,76.22,210210,,*14
$GPRMC,193109.657,A,3328.9906,N,11650.4395,W,19.972863,79.18,210210,,*1C
$GPRMC,193112.656,A,3328.9931,N,11650.4205,W,20.029169,79.51,210210,,*18
$GPRMC,193115.656,A,3328.9966,N,11650.4020,W,17.985645,75.74,210210,,*11
$GPRMC,193118.656,A,3328.9998,N,11650.3868,W,14.338714,75.28,210210,,*1D
$GPRMC,193121.656,A,3329.0032,N,11650.3748,W,12.128117,61.45,210210,,*15
$GPRMC,193124.656,A,3329.0073,N,11650.3627,W,15.269251,74.77,210210,,*18
$GPRMC,193127.655,A,3329.0110,N,11650.3452,W,21.082117,75.66,210210,,*1C
$GPRMC,193130.655,A,3329.0160,N,11650.3226,W,25.732618,75.83,210210,,*13
$GPRMC,193133.655,A,3329.0217,N,11650.2958,W,28.582375,76.16,210210,,*15
$GPRMC,193136.655,A,3329.0280,N,11650.2669,W,29.834901,75.71,210210,,*19
$GPRMC,193139.655,A,3329.0341,N,11650.2374,W,30.493541,76.01,210210,,*16
$GPRMC,193142.654,A,3329.0403,N,11650.2075,W,31.154539,75.75,210210,,*18
$GPRMC,193145.654,A,3329.0470,N,11650.1767,W,32.494426,75.34,210210,,*1C
$GPRMC,193148.654,A,3329.0541,N,11650.1440,W,34.241522,74.32,210210,,*1E
$GPRMC,193151.654,A,3329.0626,N,11650.1110,W,35.006809,71.08,210210,,*1C
$GPRMC,193154.654,A,3329.0737,N,11650.0792,W,34.689906,63.85,210210,,*1D
$GPRMC,193157.653,A,3329.0876,N,11650.0496,W,33.569211,57.96,210210,,*16
$GPRMC,193200.653,A,3329.1024,N,11650.0213,W,33.151549,57.19,210210,,*10
$GPRMC,193203.653,A,3329.1169,N,11649.9930,W,33.537059,57.93,210210,,*12
$GPRMC,193206.653,A,3329.1319,N,11649.9639,W,35.052503,57.46,210210,,*16
$GPRMC,193209.653,A,3329.1477,N,11649.9338,W,36.049587,57.44,210210,,*15
$GPRMC,193212.652,A,3329.1640,N,11649.9033,W,35.864886,56.74,210210,,*1A
$GPRMC,193215.652,A,3329.1814,N,11649.8742,W,35.301162,54.12,210210,,*1B
$GPRMC,193218.652,A,3329.1999,N,11649.8475,W,34.738006,49.41,210210,,*13
$GPRMC,193221.652,A,3329.2209,N,11649.8233,W,35.488998,45.39,210210,,*18
$GPRMC,193224.652,A,3329.2426,N,11649.7990,W,35.758994,44.42,210210,,*14
$GPRMC,193227.651,A,3329.2643,N,11649.7749,W,35.323890,44.24,210210,,*12
$GPRMC,193230.651,A,3329.2854,N,11649.7509,W,34.491569,44.28,210210,,*12
$GPRMC,193233.651,A,3329.3060,N,11649.7266,W,34.774963,44.34,210210,,*12
$GPRMC,193236.651,A,3329.3269,N,11649.7024,W,34.932514,44.30,210210,,*1C
$GPRMC,193239.651,A,3329.3478,N,11649.6778,W,35.546619,44.49,210210,,*14
$GPRMC,193242.650,A,3329.3687,N,11649.6528,W,35.594875,46.28,210210,,*12
$GPRMC,193245.650,A,3329.3884,N,11649.6265,W,35.996227,49.59,210210,,*1C
$GPRMC,193248.650,A,3329.4069,N,11649.5975,W,36.995765,54.38,210210,,*1C
$GPRMC,193251.650,A,3329.4237,N,11649.5664,W,37.218297,58.75,210210,,*10
$GPRMC,193254.650,A,3329.4375,N,11649.5337,W,36.007926,63.83,210210,,*1C
$GPRMC,193257.649,A,3329.4503,N,11649.5011,W,36.094104,61.66,210210,,*1C
$GPRMC,193300.649,A,3329.4654,N,11649.4699,W,36.385211,55.88,210210,,*1A
$GPRMC,193303.649,A,3329.4837,N,11649.4407,W,36.861615,51.33,210210,,*12
$GPRMC,193306.649,A,3329.5046,N,11649.4136,W,37.221303,46.06,210210,,*12
$GPRMC,193309.649,A,3329.5277,N,11649.3880,W,37.959929,44.26,210210,,*18
$GPRMC,193312.648,A,3329.5510,N,11649.3623,W,37.682448,43.74,210210,,*11
$GPRMC,193315.648,A,3329.5739,N,11649.3367,W,36.968666,44.49,210210,,*17
$GPRMC,193318.648,A,3329.5962,N,11649.3117,W,36.011593,43.79,210210,,*15
$GPRMC,193321.648,A,3329.6173,N,11649.2871,W,35.239866,46.02,210210,,*19
$GPRMC,193324.648,A,3329.6372,N,11649.2616,W,35.395438,48.38,210210,,*17
$GPRMC,193327.647,A,3329.6554,N,11649.2338,W,35.823474,54.20,210210,,*1A
$GPRMC,193330.647,A,3329.6712,N,11649.2027,W,36.527211,59.02,210210,,*13
$GPRMC,193333.647,A,3329.6850,N,11649.1699,W,36.961580,64.46,210210,,*16
$GPRMC,193336.647,A,3329.6957,N,11649.1353,W,37.482724,70.18,210210,,*15
$GPRMC,193339.647,A,3329.7057,N,11649.1000,W,37.589316,69.86,210210,,*17
$GPRMC,193342.647,A,3329.7159,N,11649.0649,W,37.130936,70.72,210210,,*13
$GPRMC,193345.646,A,3329.7259,N,11649.0300,W,36.642140,69.91,210210,,*11
$GPRMC,193348.646,A,3329.7358,N,11648.9957,W,36.281756,70.98,210210,,*17
$GPRMC,193351.646,A,3329.7458,N,11648.9611,W,37.665593,71.05,210210,,*14
$GPRMC,193354.646,A,3329.7563,N,11648.9249,W,38.994128,70.33,210210,,*1F
$GPRMC,193357.646,A,3329.7676,N,11648.8880,W,39.580153,70.91,210210,,*19
$GPRMC,193400.645,A,3329.7787,N,11648.8506,W,39.610842,70.01,210210,,*19
$GPRMC,193403.645,A,3329.7904,N,11648.8136,W,39.585623,67.55,210210,,*19
$GPRMC,193406.645,A,3329.8043,N,11648.7779,W,39.863532,63.20,210210,,*1B
$GPRMC,193409.645,A,3329.8200,N,11648.7426,W,40.285500,61.70,210210,,*12
$GPRMC,193412.645,A,3329.8366,N,11648.7076,W,40.678890,59.76,210210,,*17
$GPRMC,193415.644,A,3329.8549,N,11648.6730,W,41.032006,55.10,210210,,*1C
$GPRMC,193418.644,A,3329.8754,N,11648.6403,W,40.660162,52.15,210210,,*1D
$GPRMC,193421.644,A,3329.8970,N,11648.6093,W,40.407061,49.90,210210,,*14
$GPRMC,193424.644,A,3329.9194,N,11648.5795,W,40.263800,49.35,210210,,*14
$GPRMC,193427.644,A,3329.9398,N,11648.5483,W,39.355566,57.82,210210,,*19
$GPRMC,193430.643,A,3329.9538,N,11648.5132,W,39.076076,70.00,210210,,*12
$GPRMC,193433.643,A,3329.9608,N,11648.4750,W,38.819926,82.45,210210,,*12
$GPRMC,193436.643,A,3329.9624,N,11648.4363,W,38.283895,86.53,210210,,*1E
$GPRMC,193439.643,A,3329.9631,N,11648.3985,W,37.535780,87.09,210210,,*10
$GPRMC,193442.643,A,3329.9643,N,11648.3620,W,36.711379,86.99,210210,,*16
$GPRMC,193445.642,A,3329.9658,N,11648.3257,W,36.708932,86.34,210210,,*14
$GPRMC,193448.642,A,3329.9675,N,11648.2889,W,36.943349,86.57,210210,,*1C
$GPRMC,193451.642,A,3329.9689,N,11648.2516,W,37.141996,86.78,210210,,*12
$GPRMC,193454.642,A,3329.9706,N,11648.2142,W,37.449920,87.39,210210,,*10
$GPRMC,193457.642,A,3329.9723,N,11648.1767,W,37.536552,87.58,210210,,*11
$GPRMC,193500.641,A,3329.9741,N,11648.1391,W,37.868288,86.05,210210,,*17
$GPRMC,193503.641,A,3329.9777,N,11648.1014,W,38.392564,81.22,210210,,*19
$GPRMC,193506.641,A,3329.9850,N,11648.0637,W,39.474067,73.74,210210,,*16
$GPRMC,193509.641,A,3329.9958,N,11648.0272,W,39.101852,69.18,210210,,*1D
$GPRMC,193512.641,A,3330.0092,N,11647.9921,W,38.684052,62.62,210210,,*17
$GPRMC,193515.640,A,3330.0253,N,11647.9590,W,37.551716,57.85,210210,,*14
$GPRMC,193518.640,A,3330.0435,N,11647.9292,W,36.527317,51.94,210210,,*19
$GPRMC,193521.640,A,3330.0638,N,11647.9033,W,35.445767,45.23,210210,,*19
$GPRMC,193524.640,A,3330.0870,N,11647.8802,W,37.204496,39.26,210210,,*17
$GPRMC,193527.640,A,3330.1123,N,11647.8586,W,37.551022,34.92,210210,,*15
$GPRMC,193530.639,A,3330.1384,N,11647.8396,W,35.535412,29.83,210210,,*1E
$GPRMC,193533.639,A,3330.1650,N,11647.8251,W,35.101906,23.62,210210,,*15
$GPRMC,193536.639,A,3330.1932,N,11647.8123,W,37.130177,20.33,210210,,*14
$GPRMC,193539.639,A,3330.2234,N,11647.7996,W,39.542337,20.83,210210,,*1E
$GPRMC,193542.639,A,3330.2556,N,11647.7855,W,42.269604,20.73,210210,,*17
$GPRMC,193545.638,A,3330.2897,N,11647.7702,W,44.237217,21.20,210210,,*10
$GPRMC,193548.638,A,3330.3249,N,11647.7543,W,44.977820,20.84,210210,,*1C
$GPRMC,193551.638,A,3330.3600,N,11647.7383,W,43.994122,20.66,210210,,*1A
$GPRMC,193554.638,A,3330.3935,N,11647.7221,W,42.327145,23.49,210210,,*13
$GPRMC,193557.638,A,3330.4249,N,11647.7028,W,41.869967,28.99,210210,,*10
$GPRMC,193600.637,A,3330.4548,N,11647.6811,W,42.402882,32.15,210210,,*1C
$GPRMC,193603.637,A,3330.4844,N,11647.6568,W,43.611183,35.28,210210,,*1D
$GPRMC,193606.637,A,3330.5142,N,11647.6314,W,43.961798,35.56,210210,,*16
$GPRMC,193609.637,A,3330.5437,N,11647.6055,W,43.804335,35.80,210210,,*12
$GPRMC,193612.637,A,3330.5728,N,11647.5805,W,42.852017,35.76,210210,,*13
$GPRMC,193615.636,A,3330.6012,N,11647.5553,W,42.830729,35.95,210210,,*15
$GPRMC,193618.636,A,3330.6299,N,11647.5296,W,43.814949,36.31,210210,,*15
$GPRMC,193621.636,A,3330.6592,N,11647.5039,W,43.437535,35.91,210210,,*17
$GPRMC,193624.636,A,3330.6881,N,11647.4783,W,43.179082,36.27,210210,,*12
$GPRMC,193627.636,A,3330.7170,N,11647.4527,W,43.195780,36.54,210210,,*18
$GPRMC,193630.635,A,3330.7464,N,11647.4273,W,43.478770,35.90,210210,,*19
$GPRMC,193633.635,A,3330.7759,N,11647.4019,W,43.638652,36.24,210210,,*12
$GPRMC,193636.635,A,3330.8055,N,11647.3761,W,44.145017,36.04,210210,,*13
$GPRMC,193639.635,A,3330.8351,N,11647.3502,W,43.798934,36.40,210210,,*15
$GPRMC,193642.635,A,3330.8646,N,11647.3245,W,43.900747,35.78,210210,,*13
$GPRMC,193645.634,A,3330.8946,N,11647.2996,W,43.609290,35.34,210210,,*1F
$GPRMC,193648.634,A,3330.9247,N,11647.2756,W,43.213989,34.18,210210,,*18
$GPRMC,193651.634,A,3330.9553,N,11647.2523,W,43.311343,32.14,210210,,*17
$GPRMC,193654.634,A,3330.9863,N,11647.2306,W,43.111222,28.49,210210,,*1A
$GPRMC,193657.634,A,3331.0181,N,11647.2117,W,43.058112,25.89,210210,,*1B
$GPRMC,193700.633,A,3331.0505,N,11647.1938,W,42.991797,25.62,210210,,*12
$GPRMC,193703.633,A,3331.0828,N,11647.1755,W,42.777087,25.42,210210,,*14
$GPRMC,193706.633,A,3331.1150,N,11647.1570,W,42.601867,25.86,210210,,*1D
$GPRMC,193709.633,A,3331.1464,N,11647.1375,W,42.336757,29.96,210210,,*13
$GPRMC,193712.633,A,3331.1759,N,11647.1147,W,42.613980,35.42,210210,,*15
$GPRMC,193715.632,A,3331.2037,N,11647.0879,W,43.316557,40.51,210210,,*1D
$GPRMC,193718.632,A,3331.2298,N,11647.0576,W,43.651259,46.24,210210,,*1E
$GPRMC,193721.632,A,3331.2537,N,11647.0242,W,43.703230,50.57,210210,,*1C
$GPRMC,193724.632,A,3331.2760,N,11646.9891,W,43.599602,53.58,210210,,*1D
$GPRMC,193727.632,A,3331.2955,N,11646.9528,W,42.277366,59.90,210210,,*16
$GPRMC,193730.631,A,3331.3107,N,11646.9149,W,41.717276,64.68,210210,,*17
$GPRMC,193733.631,A,3331.3240,N,11646.8765,W,41.696664,67.29,210210,,*14
$GPRMC,193736.631,A,3331.3368,N,11646.8377,W,42.235294,68.42,210210,,*1A
$GPRMC,193739.631,A,3331.3496,N,11646.7985,W,42.506824,68.05,210210,,*1E
$GPRMC,193742.631,A,3331.3635,N,11646.7589,W,43.104214,65.92,210210,,*14
$GPRMC,193745.631,A,3331.3792,N,11646.7195,W,43.705162,62.61,210210,,*18
$GPRMC,193748.630,A,3331.3968,N,11646.6807,W,44.752361,60.21,210210,,*1E
$GPRMC,193751.630,A,3331.4162,N,11646.6429,W,45.002070,58.27,210210,,*1E
$GPRMC,193754.630,A,3331.4365,N,11646.6051,W,45.427701,57.32,210210,,*1C
$GPRMC,193757.630,A,3331.4572,N,11646.5670,W,45.413222,57.24,210210,,*1D
$GPRMC,193800.630,A,3331.4775,N,11646.5289,W,44.757521,57.39,210210,,*1D
$GPRMC,193803.629,A,3331.4974,N,11646.4911,W,44.114769,57.44,210210,,*17
$GPRMC,193806.629,A,3331.5171,N,11646.4542,W,43.627264,57.54,210210,,*1D
$GPRMC,193809.629,A,3331.5374,N,11646.4181,W,43.433613,54.41,210210,,*1A
$GPRMC,193812.629,A,3331.5596,N,11646.3843,W,42.602209,50.97,210210,,*1B
$GPRMC,193815.629,A,3331.5823,N,11646.3534,W,40.781712,48.69,210210,,*1D
$GPRMC,193818.628,A,3331.6049,N,11646.3251,W,38.348231,45.50,210210,,*1F
$GPRMC,193821.628,A,3331.6276,N,11646.2997,W,36.780648,42.98,210210,,*1C
$GPRMC,193824.628,A,3331.6508,N,11646.2760,W,37.432732,39.80,210210,,*13
$GPRMC,193827.628,A,3331.6755,N,11646.2527,W,38.959435,36.79,210210,,*19
$GPRMC,193830.628,A,3331.7018,N,11646.2292,W,39.962894,36.85,210210,,*14
$GPRMC,193833.627,A,3331.7286,N,11646.2050,W,40.631538,36.77,210210,,*10
$GPRMC,193836.627,A,3331.7558,N,11646.1803,W,41.514622,37.30,210210,,*13
$GPRMC,193839.627,A,3331.7835,N,11646.1552,W,41.900010,37.14,210210,,*1B
$GPRMC,193842.627,A,3331.8117,N,11646.1310,W,41.357526,36.32,210210,,*1C
$GPRMC,193845.627,A,3331.8393,N,11646.1064,W,41.664916,37.35,210210,,*19
$GPRMC,193848.626,A,3331.8673,N,11646.0814,W,41.916740,36.76,210210,,*11
$GPRMC,193851.626,A,3331.8950,N,11646.0564,W,41.343226,36.89,210210,,*12
$GPRMC,193854.626,A,3331.9226,N,11646.0330,W,39.864376,36.76,210210,,*1E
$GPRMC,193857.626,A,3331.9488,N,11646.0099,W,38.809068,36.87,210210,,*17
$GPRMC,193900.626,A,3331.9745,N,11645.9868,W,38.647014,36.40,210210,,*1E
$GPRMC,193903.625,A,3332.0001,N,11645.9631,W,39.157250,37.48,210210,,*1D
$GPRMC,193906.625,A,3332.0256,N,11645.9387,W,39.286224,38.96,210210,,*10
$GPRMC,193909.625,A,3332.0500,N,11645.9124,W,39.156500,43.96,210210,,*13
$GPRMC,193912.625,A,3332.0723,N,11645.8842,W,38.986459,50.55,210210,,*16
$GPRMC,193915.625,A,3332.0915,N,11645.8526,W,39.391458,56.15,210210,,*1B
$GPRMC,193918.624,A,3332.1080,N,11645.8177,W,39.988562,61.41,210210,,*1C
$GPRMC,193921.624,A,3332.1221,N,11645.7811,W,40.170320,66.91,210210,,*12
$GPRMC,193924.624,A,3332.1326,N,11645.7429,W,40.326695,73.71,210210,,*16
$GPRMC,193927.624,A,3332.1412,N,11645.7041,W,40.201135,74.50,210210,,*12
$GPRMC,193930.624,A,3332.1495,N,11645.6652,W,40.296840,74.78,210210,,*11
$GPRMC,193933.623,A,3332.1578,N,11645.6265,W,40.220157,74.31,210210,,*18
$GPRMC,193936.623,A,3332.1677,N,11645.5883,W,40.065208,69.52,210210,,*13
$GPRMC,193939.623,A,3332.1818,N,11645.5519,W,39.900083,60.88,210210,,*1E
$GPRMC,193942.623,A,3332.2002,N,11645.5183,W,39.967999,53.51,210210,,*12
$GPRMC,193945.623,A,3332.2225,N,11645.4884,W,39.983670,46.97,210210,,*11
$GPRMC,193948.622,A,3332.2475,N,11645.4622,W,39.439937,38.67,210210,,*1A
$GPRMC,193951.622,A,3332.2755,N,11645.4415,W,39.420326,31.29,210210,,*14
$GPRMC,193954.622,A,3332.3043,N,11645.4228,W,39.270307,30.56,210210,,*11
$GPRMC,193957.622,A,3332.3315,N,11645.4012,W,39.013215,38.27,210210,,*12
$GPRMC,194000.622,A,3332.3551,N,11645.3744,W,38.996928,48.29,210210,,*12
$GPRMC,194003.621,A,3332.3745,N,11645.3429,W,38.861034,56.45,210210,,*15
$GPRMC,194006.621,A,3332.3899,N,11645.3080,W,38.925060,65.14,210210,,*1D
$GPRMC,194009.621,A,3332.4010,N,11645.2711,W,39.001621,72.29,210210,,*17
$GPRMC,194012.621,A,3332.4080,N,11645.2330,W,39.210927,77.46,210210,,*14
$GPRMC,194015.621,A,3332.4145,N,11645.1945,W,39.807938,78.01,210210,,*1E
$GPRMC,194018.620,A,3332.4216,N,11645.1552,W,40.276736,77.69,210210,,*1E
$GPRMC,194021.620,A,3332.4286,N,11645.1159,W,40.572289,77.29,210210,,*14
$GPRMC,194024.620,A,3332.4362,N,11645.0763,W,40.341043,77.73,210210,,*19
$GPRMC,194027.620,A,3332.4433,N,11645.0369,W,40.096149,77.42,210210,,*17
$GPRMC,194030.620,A,3332.4507,N,11644.9981,W,40.216035,77.26,210210,,*11
$GPRMC,194033.619,A,3332.4581,N,11644.9587,W,40.571264,78.36,210210,,*12
$GPRMC,194036.619,A,3332.4649,N,11644.9188,W,40.969998,79.54,210210,,*13
$GPRMC,194039.619,A,3332.4703,N,11644.8778,W,41.349668,82.66,210210,,*17
$GPRMC,194042.619,A,3332.4730,N,11644.8364,W,41.326651,87.42,210210,,*12
$GPRMC,194045.619,A,3332.4723,N,11644.7957,W,41.140349,91.12,210210,,*1E
$GPRMC,194048.618,A,3332.4696,N,11644.7554,W,40.220525,93.72,210210,,*1E
$GPRMC,194051.618,A,3332.4664,N,11644.7170,W,36.729887,94.27,210210,,*16
$GPRMC,194054.618,A,3332.4639,N,11644.6817,W,34.251476,93.24,210210,,*1C
$GPRMC,194057.618,A,3332.4633,N,11644.6480,W,33.299956,88.45,210210,,*16
$GPRMC,194100.618,A,3332.4655,N,11644.6152,W,33.111133,84.03,210210,,*19
$GPRMC,194103.618,A,3332.4702,N,11644.5828,W,33.242729,78.38,210210,,*1D
$GPRMC,194106.617,A,3332.4773,N,11644.5508,W,33.548810,73.40,210210,,*12
$GPRMC,194109.617,A,3332.4865,N,11644.5194,W,34.166641,70.66,210210,,*16
$GPRMC,194112.617,A,3332.4966,N,11644.4867,W,35.911591,70.47,210210,,*1E
$GPRMC,194115.617,A,3332.5072,N,11644.4519,W,37.539120,70.25,210210,,*1E
$GPRMC,194118.617,A,3332.5182,N,11644.4161,W,38.494181,70.38,210210,,*18
$GPRMC,194121.616,A,3332.5293,N,11644.3795,W,39.242614,70.00,210210,,*16
$GPRMC,194124.616,A,3332.5407,N,11644.3426,W,39.607565,70.03,210210,,*10
$GPRMC,194127.616,A,3332.5522,N,11644.3052,W,40.246744,70.14,210210,,*1A
$GPRMC,194130.616,A,3332.5638,N,11644.2674,W,40.463787,69.87,210210,,*1B
$GPRMC,194133.616,A,3332.5750,N,11644.2297,W,39.896277,70.15,210210,,*1F
$GPRMC,194136.615,A,3332.5861,N,11644.1926,W,39.482129,70.10,210210,,*12
$GPRMC,194139.615,A,3332.5971,N,11644.1557,W,39.506484,70.84,210210,,*15
$GPRMC,194142.615,A,3332.6083,N,11644.1182,W,40.728472,70.46,210210,,*15
$GPRMC,194145.615,A,3332.6200,N,11644.0796,W,41.372209,70.06,210210,,*1D
$GPRMC,194148.615,A,3332.6319,N,11644.0403,W,41.820083,70.30,210210,,*1F
$GPRMC,194151.614,A,3332.6436,N,11644.0007,W,41.764521,70.28,210210,,*17
$GPRMC,194154.614,A,3332.6556,N,11643.9618,W,41.611594,70.08,210210,,*1C
$GPRMC,194157.614,A,3332.6675,N,11643.9235,W,41.251128,70.45,210210,,*1C
$GPRMC,194200.614,A,3332.6792,N,11643.8851,W,40.916683,70.06,210210,,*14
$GPRMC,194203.614,A,3332.6908,N,11643.8471,W,40.457303,69.69,210210,,*10
$GPRMC,194206.613,A,3332.7022,N,11643.8091,W,40.567827,70.54,210210,,*11
$GPRMC,194209.613,A,3332.7138,N,11643.7709,W,40.697614,69.84,210210,,*1A
$GPRMC,194212.613,A,3332.7254,N,11643.7327,W,41.219725,70.46,210210,,*17
$GPRMC,194215.613,A,3332.7368,N,11643.6940,W,41.714493,70.17,210210,,*16
$GPRMC,194218.613,A,3332.7483,N,11643.6549,W,42.025408,70.29,210210,,*15
$GPRMC,194221.612,A,3332.7601,N,11643.6154,W,42.366239,70.25,210210,,*12
$GPRMC,194224.612,A,3332.7721,N,11643.5757,W,42.383353,69.80,210210,,*13
$GPRMC,194227.612,A,3332.7842,N,11643.5359,W,42.111315,70.08,210210,,*13
$GPRMC,194230.612,A,3332.7961,N,11643.4963,W,41.780469,70.15,210210,,*1A
$GPRMC,194233.612,A,3332.8077,N,11643.4572,W,41.083419,70.31,210210,,*11
$GPRMC,194236.611,A,3332.8192,N,11643.4191,W,40.187883,70.14,210210,,*18
$GPRMC,194239.611,A,3332.8307,N,11643.3820,W,39.774101,69.80,210210,,*1F
$GPRMC,194242.611,A,3332.8420,N,11643.3449,W,39.918231,70.06,210210,,*10
$GPRMC,194245.611,A,3332.8533,N,11643.3073,W,40.766056,70.47,210210,,*16
$GPRMC,194248.611,A,3332.8647,N,11643.2686,W,41.838409,70.36,210210,,*1B
$GPRMC,194251.610,A,3332.8767,N,11643.2291,W,42.516300,69.73,210210,,*16
$GPRMC,194254.610,A,3332.8888,N,11643.1895,W,42.060721,69.88,210210,,*17
$GPRMC,194257.610,A,3332.9006,N,11643.1505,W,41.272224,70.08,210210,,*1D
$GPRMC,194300.610,A,3332.9122,N,11643.1125,W,40.480350,70.17,210210,,*19
$GPRMC,194303.610,A,3332.9235,N,11643.0749,W,40.102511,70.42,210210,,*1E
$GPRMC,194306.609,A,3332.9346,N,11643.0376,W,39.671458,70.15,210210,,*1D
$GPRMC,194309.609,A,3332.9458,N,11643.0006,W,39.703518,70.74,210210,,*18
$GPRMC,194312.609,A,3332.9567,N,11642.9630,W,39.845283,70.07,210210,,*18
$GPRMC,194315.609,A,3332.9681,N,11642.9258,W,39.677422,69.53,210210,,*15
$GPRMC,194318.609,A,3332.9797,N,11642.8884,W,39.830160,70.12,210210,,*17
$GPRMC,194321.608,A,3332.9911,N,11642.8506,W,40.337397,70.02,210210,,*12
$GPRMC,194324.608,A,3333.0025,N,11642.8123,W,40.939335,70.63,210210,,*19
$GPRMC,194327.608,A,3333.0142,N,11642.7737,W,41.568993,70.50,210210,,*19
$GPRMC,194330.608,A,3333.0261,N,11642.7343,W,42.266487,70.52,210210,,*1A
$GPRMC,194333.608,A,3333.0383,N,11642.6944,W,42.731838,70.08,210210,,*18
$GPRMC,194336.607,A,3333.0505,N,11642.6540,W,43.132092,70.32,210210,,*17
$GPRMC,194339.607,A,3333.0628,N,11642.6133,W,43.450967,70.20,210210,,*15
$GPRMC,194342.607,A,3333.0753,N,11642.5723,W,43.630119,70.00,210210,,*17
$GPRMC,194345.607,A,3333.0876,N,11642.5313,W,43.882212,70.41,210210,,*15
$GPRMC,194348.607,A,3333.0995,N,11642.4899,W,44.219608,71.32,210210,,*19
$GPRMC,194351.607,A,3333.1106,N,11642.4478,W,44.852557,72.84,210210,,*13
$GPRMC,194354.606,A,3333.1205,N,11642.4045,W,45.636478,75.04,210210,,*13
$GPRMC,194357.606,A,3333.1299,N,11642.3600,W,46.283512,75.76,210210,,*14
$GPRMC,194400.606,A,3333.1388,N,11642.3147,W,47.310716,76.73,210210,,*1E
$GPRMC,194403.606,A,3333.1479,N,11642.2686,W,47.732002,76.87,210210,,*12
$GPRMC,194406.606,A,3333.1566,N,11642.2228,W,47.298804,77.06,210210,,*1B
$GPRMC,194409.605,A,3333.1655,N,11642.1771,W,47.646405,77.20,210210,,*10
$GPRMC,194412.605,A,3333.1740,N,11642.1307,W,48.295509,77.94,210210,,*1D
$GPRMC,194415.605,A,3333.1830,N,11642.0832,W,49.496592,77.12,210210,,*16
$GPRMC,194418.605,A,3333.1921,N,11642.0345,W,50.414436,77.88,210210,,*1F
$GPRMC,194421.605,A,3333.2016,N,11641.9848,W,51.123568,77.23,210210,,*1C
$GPRMC,194424.604,A,3333.2115,N,11641.9348,W,51.638550,77.03,210210,,*15
$GPRMC,194427.604,A,3333.2212,N,11641.8844,W,51.964392,77.29,210210,,*12
$GPRMC,194430.604,A,3333.2310,N,11641.8338,W,51.859820,77.21,210210,,*12
$GPRMC,194433.604,A,3333.2404,N,11641.7833,W,51.419232,77.13,210210,,*1C
$GPRMC,194436.604,A,3333.2500,N,11641.7334,W,50.795149,77.43,210210,,*1C
$GPRMC,194439.603,A,3333.2595,N,11641.6841,W,50.351552,77.27,210210,,*10
$GPRMC,194442.603,A,3333.2687,N,11641.6353,W,49.573646,76.84,210210,,*14
$GPRMC,194445.603,A,3333.2778,N,11641.5876,W,49.118228,76.91,210210,,*1C
$GPRMC,194448.603,A,3333.2868,N,11641.5403,W,49.270285,77.67,210210,,*13
$GPRMC,194451.603,A,3333.2957,N,11641.4925,W,49.713814,77.26,210210,,*19
$GPRMC,194454.602,A,3333.3040,N,11641.4434,W,50.692623,80.11,210210,,*18
$GPRMC,194457.602,A,3333.3094,N,11641.3926,W,51.043047,84.41,210210,,*15
$GPRMC,194500.602,A,3333.3115,N,11641.3413,W,51.081250,89.07,210210,,*10
$GPRMC,194503.602,A,3333.3107,N,11641.2904,W,50.834890,90.65,210210,,*17
$GPRMC,194506.602,A,3333.3093,N,11641.2399,W,50.704345,90.82,210210,,*16
$GPRMC,194509.601,A,3333.3083,N,11641.1904,W,49.412537,90.94,210210,,*1E
$GPRMC,194512.601,A,3333.3077,N,11641.1425,W,47.216870,90.60,210210,,*18
$GPRMC,194515.601,A,3333.3073,N,11641.0965,W,45.045990,90.63,210210,,*19
$GPRMC,194518.601,A,3333.3072,N,11641.0530,W,42.984134,90.44,210210,,*19
$GPRMC,194521.601,A,3333.3067,N,11641.0111,W,40.728578,91.75,210210,,*15
$GPRMC,194524.600,A,3333.3050,N,11640.9720,W,38.132254,92.06,210210,,*15
$GPRMC,194527.600,A,3333.3047,N,11640.9361,W,35.775846,90.29,210210,,*1F
$GPRMC,194530.600,A,3333.3041,N,11640.9021,W,33.679307,90.98,210210,,*17
$GPRMC,194533.600,A,3333.3041,N,11640.8690,W,33.543762,88.87,210210,,*13
$GPRMC,194536.600,A,3333.3048,N,11640.8357,W,34.325723,89.56,210210,,*18
$GPRMC,194539.599,A,3333.3046,N,11640.8014,W,34.860281,90.15,210210,,*16
$GPRMC,194542.599,A,3333.3047,N,11640.7670,W,34.782752,89.92,210210,,*1F
$GPRMC,194545.599,A,3333.3046,N,11640.7323,W,35.044724,90.33,210210,,*14
$GPRMC,194548.599,A,3333.3045,N,11640.6972,W,34.778972,89.77,210210,,*19
$GPRMC,194551.599,A,3333.3047,N,11640.6631,W,34.161990,89.45,210210,,*18
$GPRMC,194554.598,A,3333.3046,N,11640.6288,W,34.635177,90.51,210210,,*11
$GPRMC,194557.598,A,3333.3041,N,11640.5938,W,34.629048,90.17,210210,,*14
$GPRMC,194600.598,A,3333.3038,N,11640.5598,W,34.354329,90.09,210210,,*19
$GPRMC,194603.598,A,3333.3035,N,11640.5257,W,34.036847,90.86,210210,,*10
$GPRMC,194606.598,A,3333.3031,N,11640.4916,W,33.676264,90.89,210210,,*1F
$GPRMC,194609.597,A,3333.3031,N,11640.4579,W,33.683768,89.81,210210,,*19
$GPRMC,194612.597,A,3333.3032,N,11640.4242,W,33.848808,89.77,210210,,*16
$GPRMC,194615.597,A,3333.3036,N,11640.3901,W,34.123017,88.99,210210,,*1A
$GPRMC,194618.597,A,3333.3042,N,11640.3555,W,34.402256,88.90,210210,,*11
$GPRMC,194621.597,A,3333.3046,N,11640.3207,W,34.255731,90.12,210210,,*1C
$GPRMC,194624.597,A,3333.3047,N,11640.2870,W,33.527516,90.17,210210,,*14
$GPRMC,194627.596,A,3333.3046,N,11640.2543,W,33.337968,90.03,210210,,*1D
$GPRMC,194630.596,A,3333.3047,N,11640.2209,W,33.185159,89.74,210210,,*1A
$GPRMC,194633.596,A,3333.3049,N,11640.1879,W,32.943016,90.28,210210,,*11
$GPRMC,194636.596,A,3333.3049,N,11640.1551,W,32.608773,90.27,210210,,*18
$GPRMC,194639.596,A,3333.3048,N,11640.1229,W,32.176944,90.55,210210,,*1F
$GPRMC,194642.595,A,3333.3047,N,11640.0911,W,31.719162,90.12,210210,,*1D
$GPRMC,194645.595,A,3333.3044,N,11640.0595,W,31.639611,90.44,210210,,*1A
$GPRMC,194648.595,A,3333.3042,N,11640.0279,W,31.962143,90.00,210210,,*15
$GPRMC,194651.595,A,3333.3041,N,11639.9962,W,32.096856,90.27,210210,,*11
$GPRMC,194654.595,A,3333.3038,N,11639.9645,W,31.953098,90.35,210210,,*1A
$GPRMC,194657.594,A,3333.3034,N,11639.9324,W,32.345619,90.58,210210,,*1C
$GPRMC,194700.594,A,3333.3031,N,11639.8999,W,33.301542,90.09,210210,,*1F
$GPRMC,194703.594,A,3333.3028,N,11639.8662,W,34.429872,90.69,210210,,*1D
$GPRMC,194706.594,A,3333.3025,N,11639.8310,W,35.971197,90.64,210210,,*1B
$GPRMC,194709.594,A,3333.3026,N,11639.7942,W,37.217187,89.87,210210,,*18
$GPRMC,194712.593,A,3333.3026,N,11639.7559,W,38.224303,90.77,210210,,*15
$GPRMC,194715.593,A,3333.3024,N,11639.7168,W,39.038831,89.91,210210,,*12
$GPRMC,194718.593,A,3333.3022,N,11639.6772,W,39.762049,90.58,210210,,*17
$GPRMC,194721.593,A,3333.3021,N,11639.6379,W,39.747249,89.65,210210,,*12
$GPRMC,194724.593,A,3333.3018,N,11639.5988,W,39.699163,90.39,210210,,*12
$GPRMC,194727.592,A,3333.3014,N,11639.5596,W,39.930023,89.86,210210,,*1A
$GPRMC,194730.592,A,3333.3014,N,11639.5200,W,40.323469,90.10,210210,,*1F
$GPRMC,194733.592,A,3333.3011,N,11639.4796,W,40.640012,90.41,210210,,*1E
$GPRMC,194736.592,A,3333.3009,N,11639.4387,W,41.014331,89.99,210210,,*1F
$GPRMC,194739.592,A,3333.3009,N,11639.3981,W,41.039764,90.03,210210,,*1B
$GPRMC,194742.591,A,3333.3008,N,11639.3576,W,40.992006,90.00,210210,,*18
$GPRMC,194745.591,A,3333.3005,N,11639.3168,W,40.981998,90.25,210210,,*12
$GPRMC,194748.591,A,3333.3005,N,11639.2759,W,41.010578,89.97,210210,,*19
$GPRMC,194751.591,A,3333.3003,N,11639.2350,W,41.017184,90.11,210210,,*1C
$GPRMC,194754.591,A,3333.2999,N,11639.1940,W,41.098907,90.74,210210,,*1D
$GPRMC,194757.590,A,3333.2996,N,11639.1530,W,41.042627,90.68,210210,,*1C
$GPRMC,194800.590,A,3333.2998,N,11639.1121,W,40.922512,89.88,210210,,*16
$GPRMC,194803.590,A,3333.3000,N,11639.0712,W,40.903789,89.73,210210,,*1C
$GPRMC,194806.590,A,3333.3000,N,11639.0308,W,40.602088,90.36,210210,,*17
$GPRMC,194809.590,A,3333.2996,N,11638.9905,W,40.748789,90.25,210210,,*1B
$GPRMC,194812.589,A,3333.2996,N,11638.9496,W,40.865250,90.23,210210,,*19
$GPRMC,194815.589,A,3333.2996,N,11638.9088,W,40.956183,89.69,210210,,*1F
$GPRMC,194818.589,A,3333.2998,N,11638.8677,W,41.439668,90.11,210210,,*1B
$GPRMC,194821.589,A,3333.2999,N,11638.8261,W,41.806638,90.05,210210,,*13
$GPRMC,194824.589,A,3333.3000,N,11638.7843,W,42.098919,89.66,210210,,*16
$GPRMC,194827.589,A,3333.2998,N,11638.7427,W,42.138083,90.21,210210,,*18
$GPRMC,194830.588,A,3333.2997,N,11638.7010,W,42.211925,88.53,210210,,*11
$GPRMC,194833.588,A,3333.3023,N,11638.6589,W,42.134594,83.36,210210,,*1B
$GPRMC,194836.588,A,3333.3096,N,11638.6174,W,41.927821,75.30,210210,,*13
$GPRMC,194839.588,A,3333.3205,N,11638.5770,W,41.815855,70.95,210210,,*1C
$GPRMC,194842.588,A,3333.3340,N,11638.5385,W,41.691642,64.33,210210,,*1D
$GPRMC,194845.587,A,3333.3514,N,11638.5023,W,41.664285,59.19,210210,,*1E
$GPRMC,194848.587,A,3333.3706,N,11638.4671,W,41.594911,56.44,210210,,*1F
$GPRMC,194851.587,A,3333.3903,N,11638.4327,W,41.402766,56.17,210210,,*1C
$GPRMC,194854.587,A,3333.4099,N,11638.3985,W,41.154162,55.85,210210,,*1D
$GPRMC,194857.587,A,3333.4294,N,11638.3649,W,40.944954,55.49,210210,,*1B
$GPRMC,194900.586,A,3333.4484,N,11638.3308,W,41.017894,56.74,210210,,*10
$GPRMC,194903.586,A,3333.4672,N,11638.2968,W,40.943414,56.35,210210,,*1D
$GPRMC,194906.586,A,3333.4861,N,11638.2630,W,40.941921,56.24,210210,,*1F
$GPRMC,194909.586,A,3333.5051,N,11638.2287,W,41.587674,56.22,210210,,*1C
$GPRMC,194912.586,A,3333.5244,N,11638.1940,W,42.250132,55.97,210210,,*15
$GPRMC,194915.585,A,3333.5443,N,11638.1590,W,42.966002,55.99,210210,,*13
$GPRMC,194918.585,A,3333.5645,N,11638.1231,W,43.711035,55.88,210210,,*1D
$GPRMC,194921.585,A,3333.5848,N,11638.0867,W,44.341035,56.23,210210,,*18
$GPRMC,194924.585,A,3333.6054,N,11638.0498,W,44.745084,56.42,210210,,*1A
$GPRMC,194927.585,A,3333.6264,N,11638.0124,W,45.783091,56.40,210210,,*17
$GPRMC,194930.584,A,3333.6483,N,11637.9746,W,46.530777,55.84,210210,,*16
$GPRMC,194933.584,A,3333.6706,N,11637.9371,W,46.392720,55.93,210210,,*11
$GPRMC,194936.584,A,3333.6920,N,11637.8991,W,46.111271,56.39,210210,,*10
$GPRMC,194939.584,A,3333.7132,N,11637.8611,W,45.508572,56.12,210210,,*10
$GPRMC,194942.584,A,3333.7342,N,11637.8240,W,44.589771,56.30,210210,,*10
$GPRMC,194945.583,A,3333.7546,N,11637.7877,W,42.932992,55.93,210210,,*10
$GPRMC,194948.583,A,3333.7740,N,11637.7536,W,40.222096,56.67,210210,,*1C
$GPRMC,194951.583,A,3333.7900,N,11637.7205,W,37.833594,64.74,210210,,*17
$GPRMC,194954.583,A,3333.7996,N,11637.6849,W,38.469335,77.26,210210,,*1A
$GPRMC,194957.583,A,3333.8030,N,11637.6462,W,39.703674,88.55,210210,,*1C
$GPRMC,195000.582,A,3333.8000,N,11637.6056,W,41.539171,99.52,210210,,*16
$GPRMC,195003.582,A,3333.7889,N,11637.5649,W,42.935009,113.78,210210,,*2E
$GPRMC,195006.582,A,3333.7705,N,11637.5261,W,44.344430,121.50,210210,,*21
$GPRMC,195009.582,A,3333.7492,N,11637.4882,W,45.164556,123.63,210210,,*27
$GPRMC,195012.582,A,3333.7257,N,11637.4517,W,45.609489,129.22,210210,,*23
$GPRMC,195015.581,A,3333.7009,N,11637.4168,W,45.853634,127.67,210210,,*28
$GPRMC,195018.581,A,3333.6797,N,11637.3783,W,45.957289,117.44,210210,,*25
$GPRMC,195021.581,A,3333.6635,N,11637.3366,W,46.289547,114.51,210210,,*20
$GPRMC,195024.581,A,3333.6466,N,11637.2949,W,46.638940,118.47,210210,,*29
$GPRMC,195027.581,A,3333.6259,N,11637.2553,W,47.160997,125.39,210210,,*21
$GPRMC,195030.581,A,3333.6013,N,11637.2191,W,46.583230,131.63,210210,,*25
$GPRMC,195033.580,A,3333.5752,N,11637.1852,W,44.808393,131.22,210210,,*22
$GPRMC,195036.580,A,3333.5526,N,11637.1506,W,43.512232,122.27,210210,,*26
$GPRMC,195039.580,A,3333.5354,N,11637.1130,W,42.937562,118.48,210210,,*23
$GPRMC,195042.580,A,3333.5156,N,11637.0775,W,42.683701,131.01,210210,,*28
$GPRMC,195045.580,A,3333.4900,N,11637.0479,W,42.889598,137.86,210210,,*25
$GPRMC,195048.579,A,3333.4640,N,11637.0187,W,42.871249,132.94,210210,,*2B
$GPRMC,195051.579,A,3333.4427,N,11636.9848,W,42.387955,119.74,210210,,*21
$GPRMC,195054.579,A,3333.4275,N,11636.9465,W,42.534162,111.92,210210,,*24
$GPRMC,195057.579,A,3333.4155,N,11636.9067,W,42.929812,107.41,210210,,*27
$GPRMC,195100.579,A,3333.4103,N,11636.8646,W,42.272505,88.83,210210,,*15
$GPRMC,195103.578,A,3333.4156,N,11636.8231,W,42.434030,77.85,210210,,*12
$GPRMC,195106.578,A,3333.4255,N,11636.7818,W,43.032832,74.48,210210,,*12
$GPRMC,195109.578,A,3333.4370,N,11636.7407,W,43.340545,69.22,210210,,*12
$GPRMC,195112.578,A,3333.4541,N,11636.7016,W,43.410448,59.53,210210,,*13
$GPRMC,195115.578,A,3333.4755,N,11636.6668,W,42.060277,50.80,210210,,*12
$GPRMC,195118.577,A,3333.4989,N,11636.6370,W,39.995506,48.03,210210,,*1F
$GPRMC,195121.577,A,3333.5191,N,11636.6071,W,37.879882,61.39,210210,,*19
$GPRMC,195124.577,A,3333.5276,N,11636.5722,W,35.620694,84.33,210210,,*1C
$GPRMC,195127.577,A,3333.5293,N,11636.5362,W,34.918238,83.76,210210,,*15
$GPRMC,195130.577,A,3333.5344,N,11636.5019,W,34.566721,73.04,210210,,*15
$GPRMC,195133.576,A,3333.5456,N,11636.4703,W,35.210106,63.90,210210,,*16
$GPRMC,195136.576,A,3333.5593,N,11636.4386,W,36.609174,63.53,210210,,*17
$GPRMC,195139.576,A,3333.5696,N,11636.4046,W,36.245067,78.55,210210,,*12
$GPRMC,195142.576,A,3333.5706,N,11636.3690,W,35.439672,95.21,210210,,*10
$GPRMC,195145.576,A,3333.5652,N,11636.3355,W,32.493100,102.31,210210,,*20
$GPRMC,195148.575,A,3333.5596,N,11636.3084,W,23.723254,98.89,210210,,*11
$GPRMC,195151.575,A,3333.5582,N,11636.2899,W,15.332078,85.31,210210,,*1B
$GPRMC,195154.575,A,3333.5596,N,11636.2783,W,11.481431,78.46,210210,,*1F
$GPRMC,195157.575,A,3333.5623,N,11636.2676,W,12.925856,72.13,210210,,*1D
$GPRMC,195200.575,A,3333.5676,N,11636.2541,W,17.782466,61.53,210210,,*14
$GPRMC,195203.574,A,3333.5776,N,11636.2378,W,21.942970,51.18,210210,,*1A
$GPRMC,195206.574,A,3333.5916,N,11636.2207,W,25.440513,42.93,210210,,*1D
$GPRMC,195209.574,A,3333.6093,N,11636.2036,W,27.629761,39.28,210210,,*11
$GPRMC,195212.574,A,3333.6287,N,11636.1859,W,29.655477,38.91,210210,,*1C
$GPRMC,195215.574,A,3333.6490,N,11636.1671,W,31.297685,39.51,210210,,*1E
$GPRMC,195218.573,A,3333.6698,N,11636.1467,W,32.303613,38.71,210210,,*18
$GPRMC,195221.573,A,3333.6916,N,11636.1290,W,30.689749,27.66,210210,,*16
$GPRMC,195224.573,A,3333.7162,N,11636.1199,W,31.135171,8.80,210210,,*2A
$GPRMC,195227.573,A,3333.7422,N,11636.1225,W,31.646527,345.48,210210,,*26
$GPRMC,195230.573,A,3333.7662,N,11636.1376,W,31.637763,323.67,210210,,*28
$GPRMC,195233.573,A,3333.7855,N,11636.1604,W,30.894745,316.64,210210,,*26
$GPRMC,195236.572,A,3333.8061,N,11636.1795,W,30.251895,333.10,210210,,*2E
$GPRMC,195239.572,A,3333.8307,N,11636.1870,W,30.799654,356.10,210210,,*27
$GPRMC,195242.572,A,3333.8567,N,11636.1873,W,31.457705,357.40,210210,,*29
$GPRMC,195245.572,A,3333.8827,N,11636.1917,W,31.924345,343.52,210210,,*2B
$GPRMC,195248.572,A,3333.9069,N,11636.2061,W,32.435322,323.20,210210,,*22
$GPRMC,195251.571,A,3333.9266,N,11636.2288,W,32.132167,314.04,210210,,*22
$GPRMC,195254.571,A,3333.9456,N,11636.2501,W,30.641318,326.76,210210,,*2B
$GPRMC,195257.571,A,3333.9689,N,11636.2620,W,30.771671,347.96,210210,,*29
$GPRMC,195300.571,A,3333.9951,N,11636.2621,W,31.827997,7.57,210210,,*21
$GPRMC,195303.571,A,3334.0212,N,11636.2522,W,32.881275,23.42,210210,,*1A
$GPRMC,195306.570,A,3334.0451,N,11636.2330,W,34.390987,39.41,210210,,*19
$GPRMC,195309.570,A,3334.0640,N,11636.2057,W,35.073684,57.10,210210,,*19
$GPRMC,195312.570,A,3334.0756,N,11636.1718,W,35.233682,73.49,210210,,*10
$GPRMC,195315.570,A,3334.0790,N,11636.1357,W,34.914660,90.11,210210,,*11
$GPRMC,195318.570,A,3334.0754,N,11636.0992,W,36.291340,96.69,210210,,*1C
$GPRMC,195321.569,A,3334.0701,N,11636.0622,W,36.927118,97.87,210210,,*12
$GPRMC,195324.569,A,3334.0647,N,11636.0263,W,36.022401,98.11,210210,,*14
$GPRMC,195327.569,A,3334.0597,N,11635.9914,W,35.547291,100.47,210210,,*21
$GPRMC,195330.569,A,3334.0508,N,11635.9577,W,35.053238,112.70,210210,,*2C
$GPRMC,195333.569,A,3334.0386,N,11635.9266,W,33.244732,112.64,210210,,*20
$GPRMC,195336.568,A,3334.0316,N,11635.8960,W,31.241707,95.31,210210,,*1E
$GPRMC,195339.568,A,3334.0324,N,11635.8649,W,31.564010,85.55,210210,,*16
$GPRMC,195342.568,A,3334.0330,N,11635.8328,W,31.697449,94.62,210210,,*1E
$GPRMC,195345.568,A,3334.0286,N,11635.8019,W,30.985784,102.61,210210,,*26
$GPRMC,195348.568,A,3334.0252,N,11635.7719,W,31.023996,91.11,210210,,*1F
$GPRMC,195351.567,A,3334.0288,N,11635.7413,W,31.957714,72.04,210210,,*11
$GPRMC,195354.567,A,3334.0406,N,11635.7124,W,33.057334,59.92,210210,,*1E
$GPRMC,195357.567,A,3334.0557,N,11635.6837,W,34.224646,58.47,210210,,*1A
$GPRMC,195400.567,A,3334.0708,N,11635.6548,W,32.768233,58.92,210210,,*17
$GPRMC,195403.567,A,3334.0850,N,11635.6272,W,31.471676,59.19,210210,,*17
$GPRMC,195406.566,A,3334.0982,N,11635.6014,W,28.587391,59.05,210210,,*1E
$GPRMC,195409.566,A,3334.1105,N,11635.5784,W,27.219497,58.87,210210,,*1F
$GPRMC,195412.566,A,3334.1222,N,11635.5568,W,24.745136,57.80,210210,,*1A
$GPRMC,195415.566,A,3334.1329,N,11635.5373,W,22.720696,55.55,210210,,*19
$GPRMC,195418.566,A,3334.1435,N,11635.5205,W,20.217015,51.16,210210,,*13
$GPRMC,195421.566,A,3334.1534,N,11635.5072,W,16.570116,47.88,210210,,*1A
$GPRMC,195424.565,A,3334.1610,N,11635.4976,W,11.425137,49.00,210210,,*1E
$GPRMC,195427.565,A,3334.1651,N,11635.4913,W,5.802626,56.72,210210,,*2B
$GPRMC,195436.565,A,3334.1664,N,11635.4838,W,8.289999,96.42,210210,,*25
$GPRMC,195439.564,A,3334.1629,N,11635.4747,W,10.505208,125.70,210210,,*24
$GPRMC,195442.564,A,3334.1564,N,11635.4668,W,11.489120,134.98,210210,,*25
$GPRMC,195445.564,A,3334.1496,N,11635.4589,W,10.272740,130.63,210210,,*21
$GPRMC,195448.564,A,3334.1436,N,11635.4519,W,10.081562,128.61,210210,,*28
$GPRMC,195451.564,A,3334.1373,N,11635.4425,W,14.384222,121.80,210210,,*2F
$GPRMC,195454.563,A,3334.1292,N,11635.4276,W,20.661370,125.12,210210,,*23
$GPRMC,195457.563,A,3334.1175,N,11635.4082,W,25.425716,126.00,210210,,*20
$GPRMC,195500.563,A,3334.1040,N,11635.3854,W,28.728663,124.37,210210,,*26
$GPRMC,195503.563,A,3334.0898,N,11635.3598,W,31.816571,122.22,210210,,*2C
$GPRMC,195506.563,A,3334.0754,N,11635.3308,W,34.321430,120.27,210210,,*20
$GPRMC,195509.562,A,3334.0606,N,11635.2986,W,36.838381,119.37,210210,,*22
$GPRMC,195512.562,A,3334.0458,N,11635.2658,W,39.662300,118.26,210210,,*2B
$GPRMC,195515.562,A,3334.0294,N,11635.2284,W,41.648948,118.28,210210,,*20
$GPRMC,195518.562,A,3334.0123,N,11635.1906,W,42.598535,118.38,210210,,*2A
$GPRMC,195521.562,A,3333.9950,N,11635.1531,W,43.173332,118.35,210210,,*26
$GPRMC,195524.561,A,3333.9777,N,11635.1154,W,43.284233,118.20,210210,,*23
$GPRMC,195527.561,A,3333.9604,N,11635.0778,W,43.634185,117.95,210210,,*2C
$GPRMC,195530.561,A,3333.9433,N,11635.0396,W,44.118738,118.39,210210,,*2F
$GPRMC,195533.561,A,3333.9256,N,11635.0004,W,44.753984,118.33,210210,,*2B
$GPRMC,195536.561,A,3333.9080,N,11634.9609,W,45.005720,118.27,210210,,*24
$GPRMC,195539.560,A,3333.8901,N,11634.9208,W,45.135102,118.29,210210,,*24
$GPRMC,195542.560,A,3333.8721,N,11634.8809,W,45.615714,117.88,210210,,*2E
$GPRMC,195545.560,A,3333.8544,N,11634.8405,W,45.960740,116.79,210210,,*2B
$GPRMC,195548.560,A,3333.8375,N,11634.7990,W,46.261792,114.57,210210,,*24
$GPRMC,195551.560,A,3333.8223,N,11634.7562,W,47.039747,111.99,210210,,*2E
$GPRMC,195554.560,A,3333.8085,N,11634.7119,W,47.521365,109.29,210210,,*27
$GPRMC,195557.559,A,3333.7959,N,11634.6663,W,48.360098,108.16,210210,,*22
$GPRMC,195600.559,A,3333.7840,N,11634.6200,W,48.937256,107.53,210210,,*2D
$GPRMC,195603.559,A,3333.7721,N,11634.5727,W,49.596240,107.62,210210,,*26
$GPRMC,195606.559,A,3333.7597,N,11634.5247,W,50.360113,107.78,210210,,*26
$GPRMC,195609.559,A,3333.7471,N,11634.4770,W,50.934383,107.92,210210,,*24
$GPRMC,195612.558,A,3333.7343,N,11634.4286,W,51.058685,107.77,210210,,*2F
$GPRMC,195615.558,A,3333.7211,N,11634.3791,W,50.460216,107.93,210210,,*20
$GPRMC,195618.558,A,3333.7081,N,11634.3310,W,49.930294,107.71,210210,,*2D
$GPRMC,195621.558,A,3333.6954,N,11634.2838,W,49.157999,107.02,210210,,*2C
$GPRMC,195624.558,A,3333.6836,N,11634.2386,W,45.770618,106.63,210210,,*2D
$GPRMC,195627.557,A,3333.6738,N,11634.1961,W,43.513971,102.17,210210,,*26
$GPRMC,195630.557,A,3333.6693,N,11634.1535,W,43.656005,92.66,210210,,*1B
$GPRMC,195633.557,A,3333.6713,N,11634.1102,W,44.114438,82.88,210210,,*1C
$GPRMC,195636.557,A,3333.6805,N,11634.0679,W,44.518310,71.43,210210,,*15
$GPRMC,195639.557,A,3333.6964,N,11634.0276,W,45.030508,60.36,210210,,*14
$GPRMC,195642.556,A,3333.7191,N,11633.9915,W,45.153151,49.83,210210,,*13
$GPRMC,195645.556,A,3333.7472,N,11633.9613,W,43.910597,38.17,210210,,*19
$GPRMC,195648.556,A,3333.7764,N,11633.9387,W,37.372232,33.78,210210,,*1F
$GPRMC,195651.556,A,3333.8011,N,11633.9176,W,35.162304,44.77,210210,,*1B
$GPRMC,195654.556,A,3333.8185,N,11633.8901,W,34.700886,61.73,210210,,*1A
$GPRMC,195657.555,A,3333.8284,N,11633.8576,W,34.486869,78.20,210210,,*16
$GPRMC,195700.555,A,3333.8292,N,11633.8226,W,34.552270,95.68,210210,,*15
$GPRMC,195703.555,A,3333.8210,N,11633.7891,W,34.807494,112.02,210210,,*26
$GPRMC,195706.555,A,3333.8054,N,11633.7587,W,35.083689,124.71,210210,,*21
$GPRMC,195709.555,A,3333.7869,N,11633.7307,W,35.128180,126.50,210210,,*26
$GPRMC,195712.554,A,3333.7685,N,11633.7031,W,34.699414,125.01,210210,,*24
$GPRMC,195715.554,A,3333.7517,N,11633.6749,W,34.226572,122.93,210210,,*2F
$GPRMC,195718.554,A,3333.7372,N,11633.6446,W,35.546615,114.29,210210,,*2D
$GPRMC,195721.554,A,3333.7273,N,11633.6098,W,37.011554,103.78,210210,,*21
$GPRMC,195724.554,A,3333.7232,N,11633.5718,W,38.702091,92.41,210210,,*18
$GPRMC,195727.554,A,3333.7237,N,11633.5318,W,41.161927,88.17,210210,,*1B
$GPRMC,195730.553,A,3333.7257,N,11633.4895,W,43.157848,87.01,210210,,*14
$GPRMC,195733.553,A,3333.7279,N,11633.4455,W,44.543445,87.88,210210,,*1D
$GPRMC,195736.553,A,3333.7297,N,11633.4004,W,45.367573,87.99,210210,,*1D
$GPRMC,195739.553,A,3333.7310,N,11633.3547,W,45.819999,88.06,210210,,*1A
$GPRMC,195742.553,A,3333.7326,N,11633.3087,W,46.335552,87.36,210210,,*1B
$GPRMC,195745.552,A,3333.7346,N,11633.2621,W,47.325505,87.73,210210,,*13
$GPRMC,195748.552,A,3333.7350,N,11633.2140,W,48.978220,91.31,210210,,*15
$GPRMC,195751.552,A,3333.7325,N,11633.1643,W,50.355808,94.78,210210,,*1C
$GPRMC,195754.552,A,3333.7282,N,11633.1143,W,50.100029,97.24,210210,,*11
$GPRMC,195757.552,A,3333.7211,N,11633.0652,W,49.570216,100.97,210210,,*2C
$GPRMC,195800.551,A,3333.7122,N,11633.0167,W,49.755803,102.14,210210,,*22
$GPRMC,195803.551,A,3333.7037,N,11632.9680,W,49.631194,100.12,210210,,*22
$GPRMC,195806.551,A,3333.6968,N,11632.9190,W,49.433780,99.02,210210,,*10
$GPRMC,195809.551,A,3333.6908,N,11632.8706,W,48.378022,98.77,210210,,*14
$GPRMC,195812.551,A,3333.6851,N,11632.8249,W,45.139721,98.86,210210,,*1D
$GPRMC,195815.550,A,3333.6798,N,11632.7824,W,42.446019,98.51,210210,,*13
$GPRMC,195818.550,A,3333.6752,N,11632.7418,W,41.345881,97.67,210210,,*1F
$GPRMC,195821.550,A,3333.6710,N,11632.7014,W,40.866442,97.50,210210,,*17
$GPRMC,195824.550,A,3333.6665,N,11632.6609,W,40.680106,96.93,210210,,*17
$GPRMC,195827.550,A,3333.6626,N,11632.6209,W,40.223571,95.74,210210,,*14
$GPRMC,195830.549,A,3333.6602,N,11632.5817,W,38.690941,92.46,210210,,*10
$GPRMC,195833.549,A,3333.6599,N,11632.5443,W,37.710983,89.66,210210,,*1F
$GPRMC,195836.549,A,3333.6604,N,11632.5067,W,37.945811,89.77,210210,,*1B
$GPRMC,195839.549,A,3333.6611,N,11632.4683,W,38.851396,87.80,210210,,*14
$GPRMC,195842.549,A,3333.6645,N,11632.4294,W,39.676844,79.76,210210,,*1D
$GPRMC,195845.548,A,3333.6734,N,11632.3912,W,39.894011,70.09,210210,,*15
$GPRMC,195848.548,A,3333.6887,N,11632.3547,W,41.735950,60.12,210210,,*1F
$GPRMC,195851.548,A,3333.7078,N,11632.3184,W,43.771183,58.57,210210,,*1B
$GPRMC,195854.548,A,3333.7278,N,11632.2813,W,44.264096,58.77,210210,,*1B
$GPRMC,195857.548,A,3333.7479,N,11632.2429,W,45.654905,59.24,210210,,*18
$GPRMC,195900.548,A,3333.7690,N,11632.2029,W,47.820901,57.61,210210,,*1E
$GPRMC,195903.547,A,3333.7921,N,11632.1628,W,49.009729,52.09,210210,,*11
$GPRMC,195906.547,A,3333.8203,N,11632.1270,W,49.358342,44.96,210210,,*16
$GPRMC,195909.547,A,3333.8494,N,11632.0927,W,48.610293,46.52,210210,,*16
$GPRMC,195912.547,A,3333.8767,N,11632.0582,W,46.466968,47.45,210210,,*15
$GPRMC,195915.547,A,3333.9030,N,11632.0256,W,44.827670,45.42,210210,,*10
$GPRMC,195918.546,A,3333.9288,N,11631.9939,W,44.164950,48.38,210210,,*16
$GPRMC,195921.546,A,3333.9512,N,11631.9593,W,43.554134,56.08,210210,,*12
$GPRMC,195924.546,A,3333.9697,N,11631.9212,W,44.358765,62.46,210210,,*15
$GPRMC,195927.546,A,3333.9849,N,11631.8819,W,42.493703,67.55,210210,,*1A
$GPRMC,195930.546,A,3333.9961,N,11631.8405,W,44.043802,74.14,210210,,*10
$GPRMC,195933.545,A,3334.0054,N,11631.7961,W,47.031751,74.83,210210,,*10
$GPRMC,195936.545,A,3334.0183,N,11631.7501,W,49.393828,66.46,210210,,*1A
$GPRMC,195939.545,A,3334.0387,N,11631.7067,W,50.094451,55.42,210210,,*1C
$GPRMC,195942.545,A,3334.0635,N,11631.6671,W,48.263941,52.87,210210,,*1D
$GPRMC,195945.545,A,3334.0873,N,11631.6314,W,43.943932,51.67,210210,,*1B
$GPRMC,195948.544,A,3334.1106,N,11631.5994,W,41.559320,47.92,210210,,*1D
$GPRMC,195951.544,A,3334.1345,N,11631.5713,W,39.089545,41.25,210210,,*19
$GPRMC,195954.544,A,3334.1586,N,11631.5490,W,34.757291,39.14,210210,,*17
$GPRMC,195957.544,A,3334.1801,N,11631.5295,W,30.971492,39.24,210210,,*1D
$GPRMC,200000.544,A,3334.1992,N,11631.5091,W,31.432761,48.61,210210,,*17
$GPRMC,200003.543,A,3334.2137,N,11631.4814,W,34.516768,65.98,210210,,*11
$GPRMC,200006.543,A,3334.2213,N,11631.4457,W,37.583357,83.00,210210,,*14
$GPRMC,200009.543,A,3334.2195,N,11631.4069,W,37.904857,100.31,210210,,*2F
$GPRMC,200012.543,A,3334.2115,N,11631.3705,W,36.278292,102.88,210210,,*25
$GPRMC,200015.543,A,3334.2057,N,11631.3358,W,34.796799,95.44,210210,,*1F
$GPRMC,200018.542,A,3334.2047,N,11631.3016,W,34.509557,85.90,210210,,*17
$GPRMC,200021.542,A,3334.2095,N,11631.2673,W,35.964330,76.55,210210,,*12
$GPRMC,200024.542,A,3334.2163,N,11631.2311,W,38.597848,78.80,210210,,*11
$GPRMC,200027.542,A,3334.2225,N,11631.1926,W,40.114551,78.93,210210,,*19
$GPRMC,200030.542,A,3334.2289,N,11631.1530,W,39.931798,78.30,210210,,*1D
$GPRMC,200033.542,A,3334.2383,N,11631.1147,W,39.909808,67.79,210210,,*1F
$GPRMC,200036.541,A,3334.2541,N,11631.0794,W,39.495237,58.86,210210,,*1A
$GPRMC,200039.541,A,3334.2696,N,11631.0448,W,38.491624,68.52,210210,,*17
$GPRMC,200042.541,A,3334.2774,N,11631.0075,W,37.955813,84.23,210210,,*18
$GPRMC,200045.541,A,3334.2768,N,11630.9701,W,37.157941,96.76,210210,,*11
$GPRMC,200048.541,A,3334.2691,N,11630.9351,W,35.398191,109.84,210210,,*26
$GPRMC,200051.540,A,3334.2551,N,11630.9048,W,34.096756,123.91,210210,,*26
$GPRMC,200054.540,A,3334.2362,N,11630.8796,W,33.071166,135.50,210210,,*21
$GPRMC,200057.540,A,3334.2142,N,11630.8591,W,32.538829,142.47,210210,,*2A
$GPRMC,200100.540,A,3334.1920,N,11630.8401,W,31.951922,143.86,210210,,*28
$GPRMC,200103.540,A,3334.1695,N,11630.8235,W,31.504072,152.49,210210,,*28
$GPRMC,200106.539,A,3334.1446,N,11630.8127,W,32.108148,160.59,210210,,*2C
$GPRMC,200109.539,A,3334.1183,N,11630.8010,W,34.476578,153.50,210210,,*2E
$GPRMC,200112.539,A,3334.0934,N,11630.7797,W,37.145248,134.63,210210,,*25
$GPRMC,200115.539,A,3334.0762,N,11630.7483,W,37.114067,113.39,210210,,*28
$GPRMC,200118.539,A,3334.0683,N,11630.7125,W,35.807533,101.46,210210,,*24
$GPRMC,200121.538,A,3334.0636,N,11630.6779,W,33.871052,98.74,210210,,*1A
$GPRMC,200124.538,A,3334.0648,N,11630.6446,W,33.373417,76.74,210210,,*15
$GPRMC,200127.538,A,3334.0778,N,11630.6149,W,33.662001,53.74,210210,,*1F
$GPRMC,200130.538,A,3334.0967,N,11630.5886,W,34.180004,50.53,210210,,*1F
$GPRMC,200133.538,A,3334.1152,N,11630.5613,W,34.773478,57.46,210210,,*17
$GPRMC,200136.537,A,3334.1277,N,11630.5297,W,34.324075,75.20,210210,,*1E
$GPRMC,200139.537,A,3334.1310,N,11630.4962,W,33.324137,92.00,210210,,*1A
$GPRMC,200142.537,A,3334.1260,N,11630.4631,W,34.541736,104.87,210210,,*2D
$GPRMC,200145.537,A,3334.1177,N,11630.4282,W,37.495347,102.64,210210,,*21
$GPRMC,200148.537,A,3334.1121,N,11630.3892,W,39.704465,94.26,210210,,*19
$GPRMC,200151.537,A,3334.1108,N,11630.3493,W,39.354249,90.39,210210,,*14
$GPRMC,200154.536,A,3334.1109,N,11630.3101,W,39.592892,90.01,210210,,*14
$GPRMC,200157.536,A,3334.1112,N,11630.2706,W,39.110260,88.13,210210,,*1E
$GPRMC,200200.536,A,3334.1151,N,11630.2323,W,38.756094,77.36,210210,,*10
$GPRMC,200203.536,A,3334.1254,N,11630.1959,W,38.601280,66.31,210210,,*12
$GPRMC,200206.536,A,3334.1422,N,11630.1630,W,38.671565,54.16,210210,,*1F
$GPRMC,200209.535,A,3334.1622,N,11630.1331,W,36.999973,56.01,210210,,*1D
$GPRMC,200212.535,A,3334.1762,N,11630.1008,W,35.545153,71.92,210210,,*10
$GPRMC,200215.535,A,3334.1813,N,11630.0660,W,35.454624,84.95,210210,,*1C
$GPRMC,200218.535,A,3334.1864,N,11630.0296,W,38.084732,77.30,210210,,*1D
$GPRMC,200221.535,A,3334.1941,N,11629.9926,W,38.478911,75.00,210210,,*19
$GPRMC,200224.534,A,3334.2026,N,11629.9554,W,38.761658,74.37,210210,,*13
$GPRMC,200227.534,A,3334.2119,N,11629.9185,W,38.057250,70.29,210210,,*10
$GPRMC,200230.534,A,3334.2261,N,11629.8847,W,38.706382,58.63,210210,,*15
$GPRMC,200233.534,A,3334.2462,N,11629.8533,W,40.317948,50.62,210210,,*13
$GPRMC,200236.534,A,3334.2683,N,11629.8227,W,41.211104,50.14,210210,,*1E
$GPRMC,200239.533,A,3334.2910,N,11629.7911,W,41.904660,49.68,210210,,*1B
$GPRMC,200242.533,A,3334.3136,N,11629.7598,W,41.124897,49.53,210210,,*13
$GPRMC,200245.533,A,3334.3357,N,11629.7292,W,39.599040,49.58,210210,,*18
$GPRMC,200248.533,A,3334.3571,N,11629.6998,W,38.768037,49.59,210210,,*1B
$GPRMC,200251.533,A,3334.3778,N,11629.6697,W,38.973620,51.68,210210,,*17
$GPRMC,200254.532,A,3334.3951,N,11629.6366,W,39.142248,65.32,210210,,*14
$GPRMC,200257.532,A,3334.4028,N,11629.5986,W,38.983547,86.99,210210,,*10
$GPRMC,200300.532,A,3334.3994,N,11629.5602,W,38.338241,103.13,210210,,*2C
$GPRMC,200303.532,A,3334.3890,N,11629.5238,W,37.276309,106.73,210210,,*2D
$GPRMC,200306.532,A,3334.3817,N,11629.4874,W,36.681323,95.60,210210,,*18
$GPRMC,200309.532,A,3334.3834,N,11629.4515,W,36.237132,74.87,210210,,*11
$GPRMC,200312.531,A,3334.3963,N,11629.4207,W,33.486114,54.41,210210,,*1A
$GPRMC,200315.531,A,3334.4139,N,11629.3969,W,30.340738,51.62,210210,,*1B
$GPRMC,200318.531,A,3334.4269,N,11629.3713,W,30.779338,67.23,210210,,*19
$GPRMC,200321.531,A,3334.4368,N,11629.3421,W,32.891937,68.81,210210,,*18
$GPRMC,200324.531,A,3334.4476,N,11629.3104,W,35.674466,68.56,210210,,*16
$GPRMC,200327.530,A,3334.4594,N,11629.2760,W,37.698992,65.56,210210,,*17
$GPRMC,200330.530,A,3334.4753,N,11629.2435,W,36.565391,54.20,210210,,*11
