NMEA Sentence Code,UTC Time,Status,Latitude,Latitude Direction,Longitude,Longitude Direction,Speed (knots),Track Angle (degrees true),Date,MagneticVariation,Magnetic Variation Direction,[FAA Mode]-Optional,Checksum
$GPRMC,201612.000,A,3311.8390,N,11554.5612,W,45.84,159.73,110410,,,A*4D
$GPRMC,201613.000,A,3311.8271,N,11554.5560,W,46.01,159.74,110410,,,A*4D
$GPRMC,201614.000,A,3311.8150,N,11554.5506,W,46.20,159.67,110410,,,A*4B
$GPRMC,201615.000,A,3311.8031,N,11554.5452,W,46.42,159.64,110410,,,A*4B
$GPRMC,201616.000,A,3311.7912,N,11554.5397,W,46.61,159.45,110410,,,A*43
$GPRMC,201618.000,A,3311.7670,N,11554.5287,W,46.69,158.90,110410,,,A*47
$GPRMC,201619.000,A,3311.7548,N,11554.5232,W,46.93,159.77,110410,,,A*4D
$GPRMC,201620.000,A,3311.7425,N,11554.5178,W,47.17,159.56,110410,,,A*4E
$GPRMC,201621.000,A,3311.7302,N,11554.5124,W,46.95,159.47,110410,,,A*4F
$GPRMC,201624.000,A,3311.6928,N,11554.4962,W,47.77,160.20,110410,,,A*44
$GPRMC,201625.000,A,3311.6803,N,11554.4909,W,47.69,160.13,110410,,,A*4F
$GPRMC,201626.000,A,3311.6677,N,11554.4856,W,47.58,159.90,110410,,,A*49
$GPRMC,201627.000,A,3311.6554,N,11554.4801,W,47.46,159.65,110410,,,A*4D
$GPRMC,201628.000,A,3311.6430,N,11554.4747,W,47.43,159.77,110410,,,A*4A
$GPRMC,201629.000,A,3311.6306,N,11554.4693,W,47.34,159.66,110410,,,A*41
$GPRMC,201630.000,A,3311.6183,N,11554.4639,W,47.09,159.57,110410,,,A*4A
$GPRMC,201631.000,A,3311.6060,N,11554.4585,W,46.97,159.66,110410,,,A*47
$GPRMC,201633.000,A,3311.5814,N,11554.4479,W,46.88,159.65,110410,,,A*42
$GPRMC,201634.000,A,3311.5691,N,11554.4426,W,46.89,159.81,110410,,,A*47
$GPRMC,201635.000,A,3311.5568,N,11554.4372,W,47.01,159.53,110410,,,A*4B
$GPRMC,201636.000,A,3311.5443,N,11554.4318,W,47.30,159.86,110410,,,A*46
$GPRMC,201639.000,A,3311.5069,N,11554.4155,W,47.48,158.39,110410,,,A*44
$GPRMC,201640.000,A,3311.4947,N,11554.4095,W,47.63,157.77,110410,,,A*4F
$GPRMC,201641.000,A,3311.4823,N,11554.4035,W,47.81,157.09,110410,,,A*42
$GPRMC,201642.000,A,3311.4701,N,11554.3971,W,48.01,156.12,110410,,,A*4C
$GPRMC,201643.000,A,3311.4578,N,11554.3905,W,48.32,155.46,110410,,,A*40
$GPRMC,201644.000,A,3311.4457,N,11554.3836,W,48.53,153.77,110410,,,A*49
$GPRMC,201645.000,A,3311.4336,N,11554.3764,W,48.61,152.98,110410,,,A*41
$GPRMC,201646.000,A,3311.4214,N,11554.3691,W,48.75,152.68,110410,,,A*42
$GPRMC,201648.000,A,3311.3973,N,11554.3537,W,48.92,150.06,110410,,,A*4D
$GPRMC,201649.000,A,3311.3855,N,11554.3456,W,48.83,149.34,110410,,,A*46
$GPRMC,201650.000,A,3311.3734,N,11554.3376,W,49.01,148.97,110410,,,A*40
$GPRMC,201651.000,A,3311.3618,N,11554.3291,W,49.13,148.11,110410,,,A*4B
$GPRMC,201654.000,A,3311.3278,N,11554.3021,W,49.14,144.80,110410,,,A*46
$GPRMC,201655.000,A,3311.3169,N,11554.2926,W,49.06,143.83,110410,,,A*4C
$GPRMC,201656.000,A,3311.3060,N,11554.2829,W,49.00,143.08,110410,,,A*4C
$GPRMC,201657.000,A,3311.2953,N,11554.2730,W,49.02,142.34,110410,,,A*4E
$GPRMC,201658.000,A,3311.2846,N,11554.2629,W,49.15,141.48,110410,,,A*43
$GPRMC,201659.000,A,3311.2741,N,11554.2525,W,48.97,140.28,110410,,,A*49
$GPRMC,201700.000,A,3311.2639,N,11554.2419,W,48.46,139.20,110410,,,A*4E
$GPRMC,201701.000,A,3311.2540,N,11554.2312,W,48.20,138.47,110410,,,A*4E
$GPRMC,201703.000,A,3311.2343,N,11554.2093,W,48.27,136.40,110410,,,A*4D
$GPRMC,201704.000,A,3311.2249,N,11554.1981,W,48.16,135.49,110410,,,A*40
$GPRMC,201705.000,A,3311.2155,N,11554.1868,W,48.15,134.15,110410,,,A*42
$GPRMC,201706.000,A,3311.2063,N,11554.1753,W,48.20,133.82,110410,,,A*4D
$GPRMC,201709.000,A,3311.1794,N,11554.1394,W,48.32,131.11,110410,,,A*4A
$GPRMC,201710.000,A,3311.1707,N,11554.1272,W,48.31,130.56,110410,,,A*40
$GPRMC,201711.000,A,3311.1621,N,11554.1149,W,48.16,130.09,110410,,,A*40
$GPRMC,201712.000,A,3311.1536,N,11554.1026,W,48.04,129.86,110410,,,A*42
$GPRMC,201713.000,A,3311.1452,N,11554.0904,W,47.93,129.71,110410,,,A*41
$GPRMC,201714.000,A,3311.1367,N,11554.0782,W,47.83,129.87,110410,,,A*4F
$GPRMC,201715.000,A,3311.1281,N,11554.0661,W,47.77,129.77,110410,,,A*4F
$GPRMC,201716.000,A,3311.1197,N,11554.0539,W,47.68,129.59,110410,,,A*44
$GPRMC,201718.000,A,3311.1027,N,11554.0296,W,47.81,129.79,110410,,,A*47
$GPRMC,201719.000,A,3311.0942,N,11554.0175,W,47.82,129.79,110410,,,A*40
$GPRMC,201720.000,A,3311.0856,N,11554.0055,W,47.82,129.84,110410,,,A*4F
$GPRMC,201721.000,A,3311.0769,N,11553.9934,W,47.79,129.68,110410,,,A*4B
$GPRMC,201724.000,A,3311.0512,N,11553.9570,W,48.01,130.06,110410,,,A*4C
$GPRMC,201725.000,A,3311.0427,N,11553.9449,W,48.07,130.26,110410,,,A*45
$GPRMC,201726.000,A,3311.0341,N,11553.9327,W,48.06,130.09,110410,,,A*42
$GPRMC,201727.000,A,3311.0256,N,11553.9205,W,48.03,129.99,110410,,,A*41
$GPRMC,201728.000,A,3311.0172,N,11553.9084,W,47.86,129.54,110410,,,A*43
$GPRMC,201729.000,A,3311.0087,N,11553.8962,W,47.73,130.02,110410,,,A*48
$GPRMC,201730.000,A,3311.0004,N,11553.8840,W,47.75,129.25,110410,,,A*41
$GPRMC,201731.000,A,3310.9921,N,11553.8717,W,47.73,129.09,110410,,,A*43
$GPRMC,201733.000,A,3310.9754,N,11553.8472,W,47.73,129.51,110410,,,A*40
$GPRMC,201734.000,A,3310.9669,N,11553.8351,W,47.70,129.93,110410,,,A*43
$GPRMC,201735.000,A,3310.9583,N,11553.8231,W,47.66,129.89,110410,,,A*4E
$GPRMC,201736.000,A,3310.9497,N,11553.8111,W,47.79,130.08,110410,,,A*47
$GPRMC,201739.000,A,3310.9241,N,11553.7747,W,47.75,129.55,110410,,,A*43
$GPRMC,201740.000,A,3310.9158,N,11553.7626,W,47.59,129.60,110410,,,A*48
$GPRMC,201741.000,A,3310.9073,N,11553.7505,W,47.51,130.00,110410,,,A*45
$GPRMC,201742.000,A,3310.8986,N,11553.7386,W,47.57,130.34,110410,,,A*48
$GPRMC,201743.000,A,3310.8901,N,11553.7266,W,47.40,129.97,110410,,,A*4E
$GPRMC,201744.000,A,3310.8817,N,11553.7146,W,47.42,129.67,110410,,,A*43
$GPRMC,201745.000,A,3310.8732,N,11553.7025,W,47.48,129.78,110410,,,A*4A
$GPRMC,201746.000,A,3310.8648,N,11553.6905,W,47.35,129.85,110410,,,A*47
$GPRMC,201748.000,A,3310.8481,N,11553.6663,W,47.69,129.75,110410,,,A*47
$GPRMC,201749.000,A,3310.8398,N,11553.6540,W,47.80,129.56,110410,,,A*4D
$GPRMC,201750.000,A,3310.8315,N,11553.6418,W,47.69,129.28,110410,,,A*42
$GPRMC,201751.000,A,3310.8232,N,11553.6296,W,47.65,129.39,110410,,,A*4B
$GPRMC,201754.000,A,3310.7973,N,11553.5931,W,48.20,130.39,110410,,,A*4C
$GPRMC,201755.000,A,3310.7887,N,11553.5809,W,48.19,129.80,110410,,,A*4D
$GPRMC,201756.000,A,3310.7800,N,11553.5688,W,48.09,130.09,110410,,,A*4E
$GPRMC,201757.000,A,3310.7712,N,11553.5567,W,48.26,130.18,110410,,,A*4C
$GPRMC,201758.000,A,3310.7626,N,11553.5445,W,48.28,130.05,110410,,,A*46
$GPRMC,201759.000,A,3310.7541,N,11553.5323,W,48.14,129.83,110410,,,A*4B
$GPRMC,201800.000,A,3310.7455,N,11553.5200,W,48.19,129.76,110410,,,A*4B
$GPRMC,201801.000,A,3310.7370,N,11553.5078,W,48.05,129.57,110410,,,A*49
$GPRMC,201803.000,A,3310.7200,N,11553.4836,W,47.81,129.67,110410,,,A*4E
$GPRMC,201804.000,A,3310.7114,N,11553.4714,W,47.87,129.84,110410,,,A*4B
$GPRMC,201805.000,A,3310.7028,N,11553.4594,W,47.61,129.87,110410,,,A*45
$GPRMC,201806.000,A,3310.6944,N,11553.4474,W,47.31,129.37,110410,,,A*45
$GPRMC,201809.000,A,3310.6693,N,11553.4112,W,47.52,129.96,110410,,,A*44
$GPRMC,201810.000,A,3310.6607,N,11553.3992,W,47.46,130.07,110410,,,A*43
$GPRMC,201811.000,A,3310.6522,N,11553.3873,W,47.51,130.35,110410,,,A*4F
$GPRMC,201812.000,A,3310.6437,N,11553.3753,W,47.52,129.88,110410,,,A*49
$GPRMC,201813.000,A,3310.6352,N,11553.3632,W,47.35,129.71,110410,,,A*4D
$GPRMC,201814.000,A,3310.6269,N,11553.3512,W,47.32,129.90,110410,,,A*4A
$GPRMC,201815.000,A,3310.6185,N,11553.3392,W,47.32,130.03,110410,,,A*46
$GPRMC,201816.000,A,3310.6100,N,11553.3273,W,47.26,130.51,110410,,,A*44
$GPRMC,201818.000,A,3310.5931,N,11553.3034,W,47.33,130.00,110410,,,A*42
$GPRMC,201819.000,A,3310.5847,N,11553.2914,W,47.27,129.67,110410,,,A*45
$GPRMC,201820.000,A,3310.5764,N,11553.2794,W,47.19,129.64,110410,,,A*49
$GPRMC,201821.000,A,3310.5680,N,11553.2674,W,47.07,129.82,110410,,,A*4B
$GPRMC,201824.000,A,3310.5433,N,11553.2313,W,47.25,129.61,110410,,,A*4D
$GPRMC,201825.000,A,3310.5350,N,11553.2192,W,47.11,129.47,110410,,,A*46
$GPRMC,201826.000,A,3310.5267,N,11553.2072,W,46.97,129.73,110410,,,A*47
$GPRMC,201827.000,A,3310.5184,N,11553.1954,W,46.91,129.95,110410,,,A*48
$GPRMC,201828.000,A,3310.5100,N,11553.1835,W,46.82,129.93,110410,,,A*49
$GPRMC,201829.000,A,3310.5016,N,11553.1718,W,46.72,130.18,110410,,,A*4A
$GPRMC,201830.000,A,3310.4932,N,11553.1600,W,46.55,130.03,110410,,,A*4B
$GPRMC,201831.000,A,3310.4849,N,11553.1483,W,46.32,130.04,110410,,,A*48
$GPRMC,201833.000,A,3310.4686,N,11553.1249,W,45.97,129.52,110410,,,A*40
$GPRMC,201834.000,A,3310.4604,N,11553.1134,W,45.79,129.86,110410,,,A*4D
$GPRMC,201835.000,A,3310.4521,N,11553.1018,W,45.78,130.14,110410,,,A*45
$GPRMC,201836.000,A,3310.4439,N,11553.0903,W,45.72,129.87,110410,,,A*44
$GPRMC,201839.000,A,3310.4197,N,11553.0557,W,45.31,130.34,110410,,,A*40
$GPRMC,201840.000,A,3310.4117,N,11553.0442,W,45.47,130.35,110410,,,A*43
$GPRMC,201841.000,A,3310.4036,N,11553.0327,W,45.62,129.91,110410,,,A*45
$GPRMC,201842.000,A,3310.3956,N,11553.0211,W,45.51,129.40,110410,,,A*46
$GPRMC,201843.000,A,3310.3875,N,11553.0095,W,45.55,129.94,110410,,,A*44
$GPRMC,201844.000,A,3310.3792,N,11552.9980,W,45.68,129.82,110410,,,A*49
$GPRMC,201845.000,A,3310.3710,N,11552.9865,W,45.70,129.92,110410,,,A*40
$GPRMC,201846.000,A,3310.3628,N,11552.9748,W,45.99,129.95,110410,,,A*49
$GPRMC,201848.000,A,3310.3463,N,11552.9514,W,46.23,129.33,110410,,,A*4F
$GPRMC,201849.000,A,3310.3381,N,11552.9396,W,46.31,129.44,110410,,,A*4A
$GPRMC,201850.000,A,3310.3298,N,11552.9278,W,46.55,129.73,110410,,,A*4C
$GPRMC,201851.000,A,3310.3215,N,11552.9158,W,46.93,130.18,110410,,,A*46
$GPRMC,201854.000,A,3310.2962,N,11552.8796,W,47.69,130.10,110410,,,A*40
$GPRMC,201855.000,A,3310.2878,N,11552.8674,W,47.91,129.69,110410,,,A*47
$GPRMC,201856.000,A,3310.2793,N,11552.8551,W,48.25,130.21,110410,,,A*4E
$GPRMC,201857.000,A,3310.2708,N,11552.8428,W,48.34,130.17,110410,,,A*47
$GPRMC,201858.000,A,3310.2623,N,11552.8305,W,48.31,130.18,110410,,,A*42
$GPRMC,201859.000,A,3310.2536,N,11552.8183,W,48.32,130.19,110410,,,A*4A
$GPRMC,201900.000,A,3310.2450,N,11552.8060,W,48.23,129.78,110410,,,A*45
$GPRMC,201901.000,A,3310.2365,N,11552.7937,W,48.19,129.56,110410,,,A*44
$GPRMC,201903.000,A,3310.2196,N,11552.7692,W,47.81,129.82,110410,,,A*4F
$GPRMC,201904.000,A,3310.2112,N,11552.7571,W,47.70,129.90,110410,,,A*47
$GPRMC,201905.000,A,3310.2027,N,11552.7450,W,47.52,129.88,110410,,,A*4A
$GPRMC,201906.000,A,3310.1943,N,11552.7329,W,47.43,129.73,110410,,,A*4C
$GPRMC,201909.000,A,3310.1689,N,11552.6971,W,47.09,129.79,110410,,,A*48
$GPRMC,201910.000,A,3310.1604,N,11552.6852,W,47.15,129.68,110410,,,A*48
$GPRMC,201911.000,A,3310.1519,N,11552.6732,W,47.15,129.97,110410,,,A*4F
$GPRMC,201912.000,A,3310.1434,N,11552.6614,W,47.03,129.82,110410,,,A*44
$GPRMC,201913.000,A,3310.1350,N,11552.6496,W,46.79,129.91,110410,,,A*46
$GPRMC,201914.000,A,3310.1267,N,11552.6378,W,46.66,129.85,110410,,,A*48
$GPRMC,201915.000,A,3310.1183,N,11552.6260,W,46.68,130.16,110410,,,A*44
$GPRMC,201916.000,A,3310.1100,N,11552.6142,W,46.48,129.90,110410,,,A*4B
$GPRMC,201918.000,A,3310.0934,N,11552.5909,W,46.12,129.96,110410,,,A*46
$GPRMC,201919.000,A,3310.0852,N,11552.5792,W,46.14,130.32,110410,,,A*4A
$GPRMC,201920.000,A,3310.0770,N,11552.5675,W,46.24,129.99,110410,,,A*4D
$GPRMC,201921.000,A,3310.0688,N,11552.5557,W,46.28,130.02,110410,,,A*4F
$GPRMC,201924.000,A,3310.0438,N,11552.5209,W,45.99,131.13,110410,,,A*47
$GPRMC,201925.000,A,3310.0353,N,11552.5096,W,45.86,132.58,110410,,,A*4A
$GPRMC,201926.000,A,3310.0265,N,11552.4986,W,45.86,134.07,110410,,,A*48
$GPRMC,201927.000,A,3310.0176,N,11552.4877,W,46.00,134.73,110410,,,A*49
$GPRMC,201928.000,A,3310.0086,N,11552.4769,W,46.05,134.71,110410,,,A*4F
$GPRMC,201929.000,A,3309.9995,N,11552.4662,W,46.09,135.48,110410,,,A*49
$GPRMC,201930.000,A,3309.9902,N,11552.4557,W,46.21,137.51,110410,,,A*4A
$GPRMC,201931.000,A,3309.9807,N,11552.4455,W,46.34,139.04,110410,,,A*46
$GPRMC,201933.000,A,3309.9613,N,11552.4257,W,46.19,140.07,110410,,,A*49
$GPRMC,201934.000,A,3309.9516,N,11552.4160,W,46.29,141.32,110410,,,A*4B
$GPRMC,201935.000,A,3309.9415,N,11552.4066,W,46.24,142.11,110410,,,A*40
$GPRMC,201936.000,A,3309.9314,N,11552.3973,W,46.26,142.93,110410,,,A*47
$GPRMC,201939.000,A,3309.9000,N,11552.3711,W,45.42,145.99,110410,,,A*48
$GPRMC,201940.000,A,3309.8896,N,11552.3629,W,45.21,146.83,110410,,,A*47
$GPRMC,201941.000,A,3309.8790,N,11552.3550,W,45.24,147.68,110410,,,A*43
$GPRMC,201942.000,A,3309.8683,N,11552.3472,W,45.67,148.38,110410,,,A*4F
$GPRMC,201943.000,A,3309.8574,N,11552.3394,W,46.13,149.11,110410,,,A*40
$GPRMC,201944.000,A,3309.8463,N,11552.3317,W,46.52,149.85,110410,,,A*43
$GPRMC,201945.000,A,3309.8350,N,11552.3241,W,47.07,150.61,110410,,,A*44
$GPRMC,201946.000,A,3309.8235,N,11552.3166,W,47.43,151.59,110410,,,A*49
$GPRMC,201948.000,A,3309.7997,N,11552.3024,W,48.23,153.78,110410,,,A*44
$GPRMC,201949.000,A,3309.7875,N,11552.2954,W,48.47,154.81,110410,,,A*44
$GPRMC,201950.000,A,3309.7752,N,11552.2887,W,48.56,155.86,110410,,,A*4F
$GPRMC,201951.000,A,3309.7628,N,11552.2824,W,48.41,157.09,110410,,,A*48
$GPRMC,201954.000,A,3309.7261,N,11552.2652,W,46.95,158.70,110410,,,A*4D
$GPRMC,201955.000,A,3309.7140,N,11552.2598,W,46.44,159.36,110410,,,A*46
$GPRMC,201956.000,A,3309.7019,N,11552.2546,W,46.33,160.16,110410,,,A*43
$GPRMC,201957.000,A,3309.6898,N,11552.2495,W,46.13,159.94,110410,,,A*4F
$GPRMC,201958.000,A,3309.6777,N,11552.2443,W,45.88,159.92,110410,,,A*42
$GPRMC,201959.000,A,3309.6656,N,11552.2390,W,45.89,159.92,110410,,,A*49
$GPRMC,202000.000,A,3309.6534,N,11552.2338,W,46.07,159.98,110410,,,A*45
$GPRMC,202001.000,A,3309.6412,N,11552.2285,W,46.40,160.13,110410,,,A*4C
$GPRMC,202003.000,A,3309.6168,N,11552.2180,W,46.48,159.73,110410,,,A*44
$GPRMC,202004.000,A,3309.6046,N,11552.2126,W,46.30,159.73,110410,,,A*4D
$GPRMC,202005.000,A,3309.5924,N,11552.2073,W,46.33,159.39,110410,,,A*4E
$GPRMC,202006.000,A,3309.5800,N,11552.2019,W,46.28,159.65,110410,,,A*45
$GPRMC,202009.000,A,3309.5433,N,11552.1866,W,45.97,160.37,110410,,,A*4F
$GPRMC,202010.000,A,3309.5311,N,11552.1815,W,45.99,160.14,110410,,,A*4B
$GPRMC,202011.000,A,3309.5188,N,11552.1763,W,46.08,159.97,110410,,,A*4C
$GPRMC,202012.000,A,3309.5067,N,11552.1711,W,46.01,159.82,110410,,,A*47
$GPRMC,202013.000,A,3309.4946,N,11552.1659,W,45.99,159.94,110410,,,A*45
$GPRMC,202014.000,A,3309.4824,N,11552.1607,W,46.07,160.04,110410,,,A*4B
$GPRMC,202015.000,A,3309.4703,N,11552.1556,W,46.07,160.28,110410,,,A*49
$GPRMC,202016.000,A,3309.4580,N,11552.1504,W,46.14,160.28,110410,,,A*46
$GPRMC,202018.000,A,3309.4338,N,11552.1400,W,46.13,159.75,110410,,,A*4D
$GPRMC,202019.000,A,3309.4217,N,11552.1347,W,46.18,160.02,110410,,,A*45
$GPRMC,202020.000,A,3309.4095,N,11552.1296,W,46.33,160.26,110410,,,A*45
$GPRMC,202021.000,A,3309.3974,N,11552.1244,W,46.45,160.16,110410,,,A*48
$GPRMC,202024.000,A,3309.3609,N,11552.1087,W,46.20,159.85,110410,,,A*46
$GPRMC,202025.000,A,3309.3489,N,11552.1035,W,46.06,159.87,110410,,,A*42
$GPRMC,202026.000,A,3309.3369,N,11552.0982,W,46.08,159.74,110410,,,A*4E
$GPRMC,202027.000,A,3309.3249,N,11552.0929,W,46.13,159.47,110410,,,A*47
$GPRMC,202028.000,A,3309.3128,N,11552.0876,W,46.40,160.23,110410,,,A*49
$GPRMC,202029.000,A,3309.3007,N,11552.0824,W,46.21,159.46,110410,,,A*4D
$GPRMC,202030.000,A,3309.2888,N,11552.0771,W,45.93,159.67,110410,,,A*4D
$GPRMC,202031.000,A,3309.2765,N,11552.0719,W,46.10,160.21,110410,,,A*4E
$GPRMC,202033.000,A,3309.2522,N,11552.0617,W,46.02,160.05,110410,,,A*47
$GPRMC,202034.000,A,3309.2404,N,11552.0565,W,45.58,159.46,110410,,,A*42
$GPRMC,202035.000,A,3309.2283,N,11552.0513,W,45.96,160.02,110410,,,A*43
$GPRMC,202036.000,A,3309.2162,N,11552.0462,W,46.26,160.11,110410,,,A*41
$GPRMC,202039.000,A,3309.1798,N,11552.0306,W,46.49,160.08,110410,,,A*4A
$GPRMC,202040.000,A,3309.1678,N,11552.0253,W,46.30,160.03,110410,,,A*4F
$GPRMC,202041.000,A,3309.1558,N,11552.0200,W,46.29,159.91,110410,,,A*40
$GPRMC,202042.000,A,3309.1437,N,11552.0148,W,46.32,159.88,110410,,,A*46
$GPRMC,202043.000,A,3309.1317,N,11552.0095,W,46.29,159.84,110410,,,A*45
$GPRMC,202044.000,A,3309.1196,N,11552.0042,W,46.28,159.56,110410,,,A*4D
$GPRMC,202045.000,A,3309.1076,N,11551.9989,W,46.28,159.97,110410,,,A*4A
$GPRMC,202046.000,A,3309.0955,N,11551.9937,W,46.33,159.92,110410,,,A*4A
$GPRMC,202048.000,A,3309.0710,N,11551.9833,W,46.46,160.10,110410,,,A*4C
$GPRMC,202049.000,A,3309.0586,N,11551.9781,W,46.36,160.40,110410,,,A*44
$GPRMC,202050.000,A,3309.0463,N,11551.9729,W,46.22,160.38,110410,,,A*4E
$GPRMC,202051.000,A,3309.0342,N,11551.9677,W,46.08,159.47,110410,,,A*4B
$GPRMC,202054.000,A,3308.9981,N,11551.9519,W,46.15,160.48,110410,,,A*41
$GPRMC,202055.000,A,3308.9859,N,11551.9468,W,46.09,160.27,110410,,,A*47
$GPRMC,202056.000,A,3308.9738,N,11551.9416,W,46.12,160.13,110410,,,A*48
$GPRMC,202057.000,A,3308.9617,N,11551.9363,W,46.09,159.67,110410,,,A*43
$GPRMC,202058.000,A,3308.9497,N,11551.9310,W,46.03,159.89,110410,,,A*48
$GPRMC,202059.000,A,3308.9379,N,11551.9258,W,45.95,160.02,110410,,,A*46
$GPRMC,202100.000,A,3308.9259,N,11551.9207,W,46.05,160.78,110410,,,A*45
$GPRMC,202101.000,A,3308.9137,N,11551.9156,W,46.27,160.40,110410,,,A*43
$GPRMC,202103.000,A,3308.8896,N,11551.9052,W,46.27,160.03,110410,,,A*40
$GPRMC,202104.000,A,3308.8775,N,11551.9001,W,46.51,160.23,110410,,,A*40
$GPRMC,202105.000,A,3308.8654,N,11551.8950,W,46.33,159.82,110410,,,A*4A
$GPRMC,202106.000,A,3308.8534,N,11551.8899,W,46.13,159.79,110410,,,A*4E
$GPRMC,202109.000,A,3308.8172,N,11551.8744,W,46.16,160.07,110410,,,A*4E
$GPRMC,202110.000,A,3308.8051,N,11551.8693,W,46.08,160.28,110410,,,A*4F
$GPRMC,202111.000,A,3308.7931,N,11551.8642,W,46.10,159.31,110410,,,A*49
$GPRMC,202112.000,A,3308.7811,N,11551.8590,W,45.89,159.89,110410,,,A*45
$GPRMC,202113.000,A,3308.7690,N,11551.8540,W,45.89,160.19,110410,,,A*4D
$GPRMC,202114.000,A,3308.7569,N,11551.8490,W,46.04,160.27,110410,,,A*48
$GPRMC,202115.000,A,3308.7448,N,11551.8438,W,46.13,159.97,110410,,,A*4E
$GPRMC,202116.000,A,3308.7327,N,11551.8387,W,46.21,159.99,110410,,,A*4F
$GPRMC,202118.000,A,3308.7085,N,11551.8283,W,46.33,160.02,110410,,,A*44
$GPRMC,202119.000,A,3308.6965,N,11551.8230,W,46.26,159.92,110410,,,A*4C
$GPRMC,202120.000,A,3308.6846,N,11551.8177,W,46.00,159.34,110410,,,A*4E
$GPRMC,202121.000,A,3308.6726,N,11551.8125,W,45.91,160.08,110410,,,A*4F
$GPRMC,202124.000,A,3308.6360,N,11551.7971,W,46.32,159.46,110410,,,A*40
$GPRMC,202125.000,A,3308.6241,N,11551.7919,W,45.87,159.63,110410,,,A*47
$GPRMC,202126.000,A,3308.6120,N,11551.7867,W,45.99,160.29,110410,,,A*43
$GPRMC,202127.000,A,3308.5998,N,11551.7818,W,46.12,160.42,110410,,,A*4F
$GPRMC,202128.000,A,3308.5879,N,11551.7766,W,45.92,159.55,110410,,,A*4F
$GPRMC,202129.000,A,3308.5759,N,11551.7715,W,45.88,159.87,110410,,,A*43
$GPRMC,202130.000,A,3308.5639,N,11551.7663,W,46.15,159.94,110410,,,A*49
$GPRMC,202131.000,A,3308.5518,N,11551.7612,W,46.23,160.32,110410,,,A*4D
$GPRMC,202133.000,A,3308.5275,N,11551.7507,W,46.37,159.77,110410,,,A*4A
$GPRMC,202134.000,A,3308.5155,N,11551.7453,W,46.23,159.68,110410,,,A*47
$GPRMC,202135.000,A,3308.5035,N,11551.7399,W,46.21,159.86,110410,,,A*42
$GPRMC,202136.000,A,3308.4915,N,11551.7347,W,46.03,159.23,110410,,,A*47
$GPRMC,202139.000,A,3308.4557,N,11551.7189,W,45.85,159.70,110410,,,A*49
$GPRMC,202140.000,A,3308.4437,N,11551.7138,W,45.92,160.04,110410,,,A*45
$GPRMC,202141.000,A,3308.4316,N,11551.7088,W,45.82,160.22,110410,,,A*4F
$GPRMC,202142.000,A,3308.4197,N,11551.7037,W,45.66,159.69,110410,,,A*4C
$GPRMC,202143.000,A,3308.4077,N,11551.6986,W,45.61,159.65,110410,,,A*4B
$GPRMC,202144.000,A,3308.3955,N,11551.6935,W,46.06,160.40,110410,,,A*45
$GPRMC,202145.000,A,3308.3834,N,11551.6884,W,46.32,160.11,110410,,,A*4A
$GPRMC,202146.000,A,3308.3713,N,11551.6833,W,46.03,159.63,110410,,,A*42
$GPRMC,202148.000,A,3308.3471,N,11551.6729,W,46.10,159.96,110410,,,A*47
$GPRMC,202149.000,A,3308.3351,N,11551.6678,W,46.07,160.00,110410,,,A*45
$GPRMC,202150.000,A,3308.3230,N,11551.6626,W,46.06,160.03,110410,,,A*42
$GPRMC,202151.000,A,3308.3109,N,11551.6575,W,46.07,159.99,110410,,,A*47
$GPRMC,202154.000,A,3308.2749,N,11551.6419,W,45.82,160.16,110410,,,A*49
$GPRMC,202155.000,A,3308.2628,N,11551.6367,W,46.30,160.29,110410,,,A*46
$GPRMC,202156.000,A,3308.2507,N,11551.6315,W,46.36,159.86,110410,,,A*47
$GPRMC,202157.000,A,3308.2387,N,11551.6262,W,45.96,159.25,110410,,,A*49
$GPRMC,202158.000,A,3308.2266,N,11551.6210,W,45.92,159.74,110410,,,A*4D
$GPRMC,202159.000,A,3308.2144,N,11551.6159,W,46.30,160.15,110410,,,A*47
$GPRMC,202200.000,A,3308.2021,N,11551.6108,W,46.59,160.66,110410,,,A*45
$GPRMC,202201.000,A,3308.1899,N,11551.6057,W,46.61,160.31,110410,,,A*4E
$GPRMC,202203.000,A,3308.1658,N,11551.5953,W,45.87,159.48,110410,,,A*4E
$GPRMC,202204.000,A,3308.1538,N,11551.5901,W,46.04,160.07,110410,,,A*42
$GPRMC,202205.000,A,3308.1416,N,11551.5850,W,46.47,160.71,110410,,,A*4D
$GPRMC,202206.000,A,3308.1294,N,11551.5799,W,46.48,159.99,110410,,,A*4B
$GPRMC,202209.000,A,3308.0934,N,11551.5639,W,46.01,159.51,110410,,,A*46
$GPRMC,202210.000,A,3308.0815,N,11551.5586,W,45.85,159.07,110410,,,A*47
$GPRMC,202211.000,A,3308.0695,N,11551.5533,W,45.76,159.73,110410,,,A*41
$GPRMC,202212.000,A,3308.0575,N,11551.5481,W,45.85,159.88,110410,,,A*4F
$GPRMC,202213.000,A,3308.0454,N,11551.5429,W,46.05,160.12,110410,,,A*4C
$GPRMC,202214.000,A,3308.0333,N,11551.5377,W,46.09,159.90,110410,,,A*4D
$GPRMC,202215.000,A,3308.0214,N,11551.5324,W,45.97,160.08,110410,,,A*41
$GPRMC,202216.000,A,3308.0094,N,11551.5271,W,45.95,159.38,110410,,,A*42
$GPRMC,202218.000,A,3307.9853,N,11551.5164,W,46.13,159.61,110410,,,A*4F
$GPRMC,202219.000,A,3307.9732,N,11551.5112,W,46.04,160.48,110410,,,A*40
$GPRMC,202220.000,A,3307.9611,N,11551.5062,W,46.03,159.84,110410,,,A*41
$GPRMC,202221.000,A,3307.9492,N,11551.5011,W,46.09,160.59,110410,,,A*4D
$GPRMC,202224.000,A,3307.9131,N,11551.4857,W,46.24,160.46,110410,,,A*4E
$GPRMC,202225.000,A,3307.9011,N,11551.4805,W,46.39,160.12,110410,,,A*46
$GPRMC,202226.000,A,3307.8891,N,11551.4752,W,46.22,159.58,110410,,,A*47
$GPRMC,202227.000,A,3307.8772,N,11551.4699,W,46.02,159.61,110410,,,A*4A
$GPRMC,202228.000,A,3307.8652,N,11551.4646,W,46.13,160.01,110410,,,A*48
$GPRMC,202229.000,A,3307.8532,N,11551.4593,W,46.28,160.07,110410,,,A*49
$GPRMC,202230.000,A,3307.8411,N,11551.4541,W,46.30,159.96,110410,,,A*45
$GPRMC,202231.000,A,3307.8292,N,11551.4488,W,46.01,159.43,110410,,,A*47
$GPRMC,202233.000,A,3307.8053,N,11551.4382,W,45.70,159.32,110410,,,A*44
$GPRMC,202234.000,A,3307.7935,N,11551.4329,W,45.48,159.04,110410,,,A*4A
$GPRMC,202235.000,A,3307.7816,N,11551.4275,W,45.60,159.48,110410,,,A*41
$GPRMC,202236.000,A,3307.7696,N,11551.4222,W,45.80,159.54,110410,,,A*45
$GPRMC,202239.000,A,3307.7334,N,11551.4068,W,46.04,159.76,110410,,,A*44
$GPRMC,202240.000,A,3307.7212,N,11551.4017,W,46.05,160.05,110410,,,A*48
$GPRMC,202241.000,A,3307.7091,N,11551.3966,W,46.05,159.23,110410,,,A*46
$GPRMC,202242.000,A,3307.6970,N,11551.3913,W,45.86,159.39,110410,,,A*43
$GPRMC,202243.000,A,3307.6850,N,11551.3862,W,45.74,159.46,110410,,,A*43
$GPRMC,202244.000,A,3307.6730,N,11551.3810,W,45.52,159.27,110410,,,A*4B
$GPRMC,202245.000,A,3307.6610,N,11551.3758,W,45.57,159.68,110410,,,A*44
$GPRMC,202246.000,A,3307.6490,N,11551.3706,W,45.87,159.88,110410,,,A*45
$GPRMC,202248.000,A,3307.6248,N,11551.3603,W,45.80,159.24,110410,,,A*4D
$GPRMC,202249.000,A,3307.6127,N,11551.3551,W,45.95,159.92,110410,,,A*4B
$GPRMC,202250.000,A,3307.6006,N,11551.3498,W,46.41,160.06,110410,,,A*48
$GPRMC,202251.000,A,3307.5884,N,11551.3446,W,46.50,159.94,110410,,,A*4A
$GPRMC,202254.000,A,3307.5520,N,11551.3291,W,46.23,159.95,110410,,,A*45
$GPRMC,202255.000,A,3307.5400,N,11551.3239,W,46.15,160.16,110410,,,A*41
$GPRMC,202256.000,A,3307.5281,N,11551.3188,W,45.87,159.78,110410,,,A*4E
$GPRMC,202257.000,A,3307.5162,N,11551.3136,W,45.80,160.00,110410,,,A*46
$GPRMC,202258.000,A,3307.5043,N,11551.3084,W,45.91,159.58,110410,,,A*44
$GPRMC,202259.000,A,3307.4925,N,11551.3031,W,45.90,158.78,110410,,,A*41
$GPRMC,202300.000,A,3307.4806,N,11551.2974,W,46.08,158.05,110410,,,A*4D
$GPRMC,202301.000,A,3307.4688,N,11551.2917,W,46.27,157.62,110410,,,A*42
$GPRMC,202303.000,A,3307.4453,N,11551.2798,W,46.39,156.40,110410,,,A*43
$GPRMC,202304.000,A,3307.4337,N,11551.2736,W,46.31,155.77,110410,,,A*4A
$GPRMC,202305.000,A,3307.4222,N,11551.2673,W,46.25,155.07,110410,,,A*4C
$GPRMC,202306.000,A,3307.4107,N,11551.2608,W,46.15,154.33,110410,,,A*42
$GPRMC,202309.000,A,3307.3765,N,11551.2406,W,46.12,152.47,110410,,,A*46
$GPRMC,202310.000,A,3307.3653,N,11551.2335,W,46.19,152.09,110410,,,A*4C
$GPRMC,202311.000,A,3307.3540,N,11551.2262,W,46.58,151.62,110410,,,A*44
$GPRMC,202312.000,A,3307.3428,N,11551.2188,W,46.47,150.81,110410,,,A*4D
$GPRMC,202313.000,A,3307.3317,N,11551.2113,W,46.23,150.75,110410,,,A*4C
$GPRMC,202314.000,A,3307.3203,N,11551.2037,W,46.53,151.07,110410,,,A*4B
$GPRMC,202315.000,A,3307.3090,N,11551.1959,W,46.72,149.84,110410,,,A*41
$GPRMC,202316.000,A,3307.2980,N,11551.1881,W,46.51,148.96,110410,,,A*4C
$GPRMC,202318.000,A,3307.2763,N,11551.1720,W,46.26,147.48,110410,,,A*49
$GPRMC,202319.000,A,3307.2656,N,11551.1638,W,46.24,146.71,110410,,,A*4E
$GPRMC,202320.000,A,3307.2548,N,11551.1553,W,46.24,146.37,110410,,,A*44
$GPRMC,202321.000,A,3307.2441,N,11551.1467,W,46.26,145.78,110410,,,A*41
$GPRMC,202324.000,A,3307.2128,N,11551.1205,W,46.49,144.31,110410,,,A*49
$GPRMC,202325.000,A,3307.2023,N,11551.1115,W,46.48,143.89,110410,,,A*45
$GPRMC,202326.000,A,3307.1918,N,11551.1025,W,46.53,143.81,110410,,,A*44
$GPRMC,202327.000,A,3307.1814,N,11551.0934,W,46.82,143.28,110410,,,A*4F
$GPRMC,202328.000,A,3307.1712,N,11551.0839,W,46.63,141.50,110410,,,A*47
$GPRMC,202329.000,A,3307.1612,N,11551.0743,W,46.09,140.76,110410,,,A*4C
$GPRMC,202330.000,A,3307.1513,N,11551.0646,W,46.12,140.99,110410,,,A*49
$GPRMC,202331.000,A,3307.1414,N,11551.0547,W,46.36,140.06,110410,,,A*4C
$GPRMC,202333.000,A,3307.1220,N,11551.0346,W,46.20,138.95,110410,,,A*4A
$GPRMC,202334.000,A,3307.1123,N,11551.0243,W,46.25,138.24,110410,,,A*46
$GPRMC,202335.000,A,3307.1028,N,11551.0139,W,46.19,137.65,110410,,,A*46
$GPRMC,202336.000,A,3307.0933,N,11551.0035,W,46.26,137.35,110410,,,A*43
$GPRMC,202339.000,A,3307.0654,N,11550.9721,W,45.87,136.82,110410,,,A*4D
$GPRMC,202340.000,A,3307.0563,N,11550.9617,W,45.69,136.50,110410,,,A*4F
$GPRMC,202341.000,A,3307.0471,N,11550.9513,W,45.63,136.69,110410,,,A*4B
$GPRMC,202342.000,A,3307.0379,N,11550.9410,W,45.79,136.91,110410,,,A*49
$GPRMC,202343.000,A,3307.0287,N,11550.9306,W,45.84,136.88,110410,,,A*42
$GPRMC,202344.000,A,3307.0195,N,11550.9203,W,45.72,136.66,110410,,,A*48
$GPRMC,202345.000,A,3307.0102,N,11550.9100,W,45.91,136.80,110410,,,A*42
$GPRMC,202346.000,A,3307.0009,N,11550.8995,W,46.15,136.75,110410,,,A*4B
$GPRMC,202348.000,A,3306.9824,N,11550.8785,W,46.17,136.72,110410,,,A*40
$GPRMC,202349.000,A,3306.9731,N,11550.8681,W,46.05,136.97,110410,,,A*47
$GPRMC,202350.000,A,3306.9638,N,11550.8577,W,45.96,136.54,110410,,,A*4B
$GPRMC,202351.000,A,3306.9545,N,11550.8473,W,46.11,137.40,110410,,,A*4E
$GPRMC,202354.000,A,3306.9266,N,11550.8161,W,45.99,136.30,110410,,,A*4E
$GPRMC,202355.000,A,3306.9174,N,11550.8056,W,45.98,136.41,110410,,,A*4D
$GPRMC,202356.000,A,3306.9081,N,11550.7951,W,46.10,137.00,110410,,,A*43
$GPRMC,202357.000,A,3306.8987,N,11550.7847,W,46.24,136.48,110410,,,A*40
$GPRMC,202358.000,A,3306.8894,N,11550.7742,W,46.25,137.09,110410,,,A*43
$GPRMC,202359.000,A,3306.8800,N,11550.7639,W,46.22,137.38,110410,,,A*47
$GPRMC,202400.000,A,3306.8706,N,11550.7535,W,46.16,137.07,110410,,,A*41
$GPRMC,202401.000,A,3306.8613,N,11550.7431,W,46.01,136.52,110410,,,A*47
$GPRMC,202403.000,A,3306.8426,N,11550.7224,W,45.86,136.52,110410,,,A*4F
$GPRMC,202404.000,A,3306.8332,N,11550.7121,W,45.95,137.35,110410,,,A*4E
$GPRMC,202405.000,A,3306.8238,N,11550.7017,W,46.06,136.79,110410,,,A*40
$GPRMC,202406.000,A,3306.8147,N,11550.6912,W,45.98,136.92,110410,,,A*44
$GPRMC,202409.000,A,3306.7873,N,11550.6597,W,46.02,136.49,110410,,,A*4D
$GPRMC,202410.000,A,3306.7779,N,11550.6493,W,46.13,137.27,110410,,,A*4C
$GPRMC,202411.000,A,3306.7684,N,11550.6389,W,46.25,137.14,110410,,,A*47
$GPRMC,202412.000,A,3306.7590,N,11550.6285,W,46.15,136.61,110410,,,A*4F
$GPRMC,202413.000,A,3306.7496,N,11550.6181,W,45.97,136.64,110410,,,A*42
$GPRMC,202414.000,A,3306.7402,N,11550.6077,W,45.84,136.41,110410,,,A*45
$GPRMC,202415.000,A,3306.7309,N,11550.5972,W,46.08,136.56,110410,,,A*46
$GPRMC,202416.000,A,3306.7217,N,11550.5865,W,46.31,135.87,110410,,,A*49
$GPRMC,202418.000,A,3306.7035,N,11550.5647,W,46.14,133.18,110410,,,A*4C
$GPRMC,202419.000,A,3306.6946,N,11550.5536,W,46.01,132.43,110410,,,A*4F
$GPRMC,202420.000,A,3306.6863,N,11550.5421,W,46.08,131.59,110410,,,A*45
$GPRMC,202421.000,A,3306.6780,N,11550.5306,W,45.95,130.78,110410,,,A*41
$GPRMC,202424.000,A,3306.6536,N,11550.4952,W,46.08,128.79,110410,,,A*4E
$GPRMC,202425.000,A,3306.6458,N,11550.4831,W,46.11,127.26,110410,,,A*4F
$GPRMC,202426.000,A,3306.6380,N,11550.4708,W,46.08,126.45,110410,,,A*47
$GPRMC,202427.000,A,3306.6304,N,11550.4583,W,46.25,125.91,110410,,,A*4E
$GPRMC,202428.000,A,3306.6230,N,11550.4457,W,46.31,124.69,110410,,,A*4C
$GPRMC,202429.000,A,3306.6158,N,11550.4330,W,46.24,123.74,110410,,,A*49
$GPRMC,202430.000,A,3306.6087,N,11550.4202,W,46.25,123.36,110410,,,A*45
$GPRMC,202431.000,A,3306.6017,N,11550.4072,W,46.36,122.53,110410,,,A*48
$GPRMC,202433.000,A,3306.5885,N,11550.3809,W,46.06,120.19,110410,,,A*46
$GPRMC,202434.000,A,3306.5822,N,11550.3676,W,45.93,119.60,110410,,,A*41
$GPRMC,202435.000,A,3306.5760,N,11550.3542,W,45.83,118.73,110410,,,A*4F
$GPRMC,202436.000,A,3306.5699,N,11550.3408,W,45.80,117.76,110410,,,A*4D
$GPRMC,202439.000,A,3306.5529,N,11550.3000,W,45.79,115.30,110410,,,A*40
$GPRMC,202440.000,A,3306.5476,N,11550.2862,W,45.84,114.24,110410,,,A*4E
$GPRMC,202441.000,A,3306.5425,N,11550.2723,W,45.93,113.22,110410,,,A*44
$GPRMC,202442.000,A,3306.5376,N,11550.2583,W,45.96,112.23,110410,,,A*4B
$GPRMC,202443.000,A,3306.5329,N,11550.2442,W,45.97,111.30,110410,,,A*4C
$GPRMC,202444.000,A,3306.5283,N,11550.2299,W,46.05,110.65,110410,,,A*43
$GPRMC,202445.000,A,3306.5240,N,11550.2156,W,46.14,109.35,110410,,,A*40
$GPRMC,202446.000,A,3306.5199,N,11550.2012,W,46.21,108.81,110410,,,A*4D
$GPRMC,202448.000,A,3306.5120,N,11550.1720,W,46.53,107.45,110410,,,A*46
$GPRMC,202449.000,A,3306.5083,N,11550.1572,W,46.57,106.49,110410,,,A*43
$GPRMC,202450.000,A,3306.5049,N,11550.1423,W,46.70,105.30,110410,,,A*40
$GPRMC,202451.000,A,3306.5017,N,11550.1273,W,46.76,104.56,110410,,,A*4E
$GPRMC,202454.000,A,3306.4924,N,11550.0828,W,45.99,104.30,110410,,,A*44
$GPRMC,202455.000,A,3306.4894,N,11550.0681,W,45.96,104.33,110410,,,A*4E
$GPRMC,202456.000,A,3306.4862,N,11550.0534,W,45.99,104.42,110410,,,A*40
$GPRMC,202457.000,A,3306.4831,N,11550.0386,W,46.04,104.08,110410,,,A*41
$GPRMC,202458.000,A,3306.4801,N,11550.0237,W,46.12,103.87,110410,,,A*41
$GPRMC,202459.000,A,3306.4771,N,11550.0089,W,46.24,104.41,110410,,,A*47
$GPRMC,202500.000,A,3306.4739,N,11549.9941,W,46.33,104.37,110410,,,A*4D
$GPRMC,202501.000,A,3306.4709,N,11549.9791,W,46.33,104.49,110410,,,A*45
$GPRMC,202503.000,A,3306.4645,N,11549.9495,W,46.22,103.93,110410,,,A*49
$GPRMC,202504.000,A,3306.4616,N,11549.9346,W,46.21,103.82,110410,,,A*42
$GPRMC,202505.000,A,3306.4585,N,11549.9198,W,46.17,104.05,110410,,,A*46
$GPRMC,202506.000,A,3306.4554,N,11549.9051,W,46.16,104.21,110410,,,A*4A
$GPRMC,202509.000,A,3306.4460,N,11549.8608,W,46.10,104.22,110410,,,A*4D
$GPRMC,202510.000,A,3306.4429,N,11549.8460,W,46.10,104.19,110410,,,A*4C
$GPRMC,202511.000,A,3306.4397,N,11549.8313,W,46.12,104.12,110410,,,A*45
$GPRMC,202512.000,A,3306.4365,N,11549.8165,W,46.17,103.93,110410,,,A*43
$GPRMC,202513.000,A,3306.4333,N,11549.8018,W,46.19,104.50,110410,,,A*4C
$GPRMC,202514.000,A,3306.4301,N,11549.7870,W,46.22,104.64,110410,,,A*4C
$GPRMC,202515.000,A,3306.4268,N,11549.7723,W,46.25,104.42,110410,,,A*49
$GPRMC,202516.000,A,3306.4236,N,11549.7576,W,46.20,104.18,110410,,,A*49
$GPRMC,202518.000,A,3306.4176,N,11549.7279,W,46.03,104.18,110410,,,A*49
$GPRMC,202519.000,A,3306.4146,N,11549.7131,W,46.02,103.84,110410,,,A*47
$GPRMC,202520.000,A,3306.4116,N,11549.6984,W,46.02,103.76,110410,,,A*42
$GPRMC,202521.000,A,3306.4086,N,11549.6836,W,45.99,103.48,110410,,,A*4F
$GPRMC,202524.000,A,3306.4012,N,11549.6386,W,46.37,100.26,110410,,,A*4B
$GPRMC,202525.000,A,3306.3991,N,11549.6234,W,46.35,99.37,110410,,,A*74
$GPRMC,202526.000,A,3306.3972,N,11549.6083,W,46.29,99.18,110410,,,A*74
$GPRMC,202527.000,A,3306.3953,N,11549.5932,W,46.15,98.51,110410,,,A*75
$GPRMC,202528.000,A,3306.3936,N,11549.5781,W,46.01,98.42,110410,,,A*78
$GPRMC,202529.000,A,3306.3918,N,11549.5630,W,45.93,98.64,110410,,,A*72
$GPRMC,202530.000,A,3306.3900,N,11549.5479,W,45.91,98.71,110410,,,A*7A
$GPRMC,202531.000,A,3306.3883,N,11549.5328,W,46.06,98.00,110410,,,A*79
$GPRMC,202533.000,A,3306.3848,N,11549.5026,W,46.09,98.57,110410,,,A*7C
$GPRMC,202534.000,A,3306.3831,N,11549.4874,W,46.03,98.45,110410,,,A*72
$GPRMC,202535.000,A,3306.3813,N,11549.4724,W,46.07,98.08,110410,,,A*74
$GPRMC,202536.000,A,3306.3795,N,11549.4573,W,46.07,97.90,110410,,,A*78
$GPRMC,202539.000,A,3306.3742,N,11549.4122,W,46.14,97.96,110410,,,A*79
$GPRMC,202540.000,A,3306.3726,N,11549.3970,W,46.15,98.01,110410,,,A*7D
$GPRMC,202541.000,A,3306.3709,N,11549.3818,W,46.17,97.89,110410,,,A*73
$GPRMC,202542.000,A,3306.3691,N,11549.3668,W,46.17,98.20,110410,,,A*75
$GPRMC,202543.000,A,3306.3675,N,11549.3516,W,46.21,97.63,110410,,,A*79
$GPRMC,202544.000,A,3306.3659,N,11549.3364,W,46.22,97.74,110410,,,A*76
$GPRMC,202545.000,A,3306.3642,N,11549.3213,W,46.18,97.37,110410,,,A*72
$GPRMC,202546.000,A,3306.3626,N,11549.3061,W,46.04,98.18,110410,,,A*7B
$GPRMC,202548.000,A,3306.3592,N,11549.2760,W,46.00,98.31,110410,,,A*71
$GPRMC,202549.000,A,3306.3574,N,11549.2609,W,46.06,98.02,110410,,,A*70
$GPRMC,202550.000,A,3306.3556,N,11549.2458,W,46.16,98.15,110410,,,A*79
$GPRMC,202551.000,A,3306.3539,N,11549.2307,W,46.25,97.64,110410,,,A*75
$GPRMC,202554.000,A,3306.3489,N,11549.1852,W,46.17,97.58,110410,,,A*7C
$GPRMC,202555.000,A,3306.3473,N,11549.1701,W,46.12,97.42,110410,,,A*7F
$GPRMC,202556.000,A,3306.3456,N,11549.1550,W,46.10,97.54,110410,,,A*78
$GPRMC,202557.000,A,3306.3439,N,11549.1400,W,46.09,97.64,110410,,,A*7F
$GPRMC,202558.000,A,3306.3421,N,11549.1249,W,46.06,98.04,110410,,,A*74
$GPRMC,202559.000,A,3306.3403,N,11549.1099,W,46.09,97.95,110410,,,A*72
$GPRMC,202600.000,A,3306.3384,N,11549.0948,W,46.16,98.00,110410,,,A*7C
$GPRMC,202601.000,A,3306.3366,N,11549.0797,W,46.22,97.58,110410,,,A*78
$GPRMC,202603.000,A,3306.3333,N,11549.0493,W,46.29,97.98,110410,,,A*7A
$GPRMC,202604.000,A,3306.3317,N,11549.0340,W,46.38,97.65,110410,,,A*70
$GPRMC,202605.000,A,3306.3300,N,11549.0188,W,46.31,98.08,110410,,,A*7C
$GPRMC,202606.000,A,3306.3282,N,11549.0037,W,46.18,97.77,110410,,,A*7D
$GPRMC,202609.000,A,3306.3233,N,11548.9581,W,46.09,98.07,110410,,,A*70
$GPRMC,202610.000,A,3306.3215,N,11548.9430,W,46.07,98.58,110410,,,A*73
$GPRMC,202611.000,A,3306.3198,N,11548.9279,W,46.08,97.71,110410,,,A*74
$GPRMC,202612.000,A,3306.3181,N,11548.9128,W,46.22,98.21,110410,,,A*7A
$GPRMC,202613.000,A,3306.3162,N,11548.8976,W,46.34,97.75,110410,,,A*7D
$GPRMC,202614.000,A,3306.3142,N,11548.8825,W,46.27,98.39,110410,,,A*7A
$GPRMC,202615.000,A,3306.3124,N,11548.8674,W,46.21,97.79,110410,,,A*7C
$GPRMC,202616.000,A,3306.3106,N,11548.8523,W,46.17,97.97,110410,,,A*7B
$GPRMC,202618.000,A,3306.3072,N,11548.8222,W,45.99,97.74,110410,,,A*79
$GPRMC,202619.000,A,3306.3054,N,11548.8072,W,46.00,97.52,110410,,,A*7C
$GPRMC,202620.000,A,3306.3036,N,11548.7921,W,46.08,97.78,110410,,,A*72
$GPRMC,202621.000,A,3306.3017,N,11548.7771,W,46.14,98.21,110410,,,A*75
$GPRMC,202624.000,A,3306.2963,N,11548.7317,W,46.29,97.71,110410,,,A*7B
$GPRMC,202625.000,A,3306.2945,N,11548.7166,W,46.23,97.66,110410,,,A*76
$GPRMC,202626.000,A,3306.2927,N,11548.7016,W,46.14,98.66,110410,,,A*7C
$GPRMC,202627.000,A,3306.2909,N,11548.6865,W,46.05,97.53,110410,,,A*75
$GPRMC,202628.000,A,3306.2891,N,11548.6715,W,46.06,98.00,110410,,,A*78
$GPRMC,202629.000,A,3306.2873,N,11548.6565,W,46.05,97.85,110410,,,A*71
$GPRMC,202630.000,A,3306.2855,N,11548.6413,W,46.05,98.22,110410,,,A*7F
$GPRMC,202631.000,A,3306.2837,N,11548.6263,W,46.14,98.01,110410,,,A*7A
$GPRMC,202633.000,A,3306.2802,N,11548.5960,W,46.17,97.22,110410,,,A*78
$GPRMC,202634.000,A,3306.2785,N,11548.5809,W,46.20,97.94,110410,,,A*78
$GPRMC,202635.000,A,3306.2767,N,11548.5658,W,46.18,97.98,110410,,,A*78
$GPRMC,202636.000,A,3306.2749,N,11548.5507,W,46.12,98.26,110410,,,A*7E
$GPRMC,202639.000,A,3306.2695,N,11548.5055,W,45.90,97.76,110410,,,A*70
$GPRMC,202640.000,A,3306.2677,N,11548.4905,W,46.02,98.49,110410,,,A*74
$GPRMC,202641.000,A,3306.2659,N,11548.4753,W,46.15,98.16,110410,,,A*78
$GPRMC,202642.000,A,3306.2641,N,11548.4601,W,46.20,97.83,110410,,,A*71
$GPRMC,202643.000,A,3306.2623,N,11548.4449,W,46.18,97.81,110410,,,A*73
$GPRMC,202644.000,A,3306.2607,N,11548.4298,W,46.13,97.64,110410,,,A*78
$GPRMC,202645.000,A,3306.2590,N,11548.4146,W,46.19,97.35,110410,,,A*7A
$GPRMC,202646.000,A,3306.2574,N,11548.3994,W,46.27,97.96,110410,,,A*77
$GPRMC,202648.000,A,3306.2543,N,11548.3690,W,46.13,97.66,110410,,,A*7E
$GPRMC,202649.000,A,3306.2527,N,11548.3538,W,46.27,97.58,110410,,,A*76
$GPRMC,202650.000,A,3306.2511,N,11548.3386,W,46.30,97.84,110410,,,A*7F
$GPRMC,202651.000,A,3306.2495,N,11548.3234,W,46.25,97.97,110410,,,A*7D
$GPRMC,202654.000,A,3306.2447,N,11548.2779,W,46.20,97.23,110410,,,A*70
$GPRMC,202655.000,A,3306.2432,N,11548.2627,W,46.19,97.78,110410,,,A*7D
$GPRMC,202656.000,A,3306.2417,N,11548.2476,W,46.13,97.52,110410,,,A*7D
$GPRMC,202657.000,A,3306.2401,N,11548.2324,W,46.01,98.23,110410,,,A*71
$GPRMC,202658.000,A,3306.2382,N,11548.2174,W,45.95,98.10,110410,,,A*7B
$GPRMC,202659.000,A,3306.2365,N,11548.2023,W,45.99,98.19,110410,,,A*75
$GPRMC,202700.000,A,3306.2346,N,11548.1873,W,46.06,97.80,110410,,,A*7D
$GPRMC,202701.000,A,3306.2327,N,11548.1723,W,46.07,98.76,110410,,,A*76
$GPRMC,202703.000,A,3306.2286,N,11548.1424,W,46.04,100.63,110410,,,A*4D
$GPRMC,202704.000,A,3306.2262,N,11548.1274,W,46.10,100.84,110410,,,A*4F
$GPRMC,202705.000,A,3306.2236,N,11548.1125,W,46.10,102.09,110410,,,A*4F
$GPRMC,202706.000,A,3306.2206,N,11548.0976,W,46.10,103.54,110410,,,A*49
$GPRMC,202709.000,A,3306.2105,N,11548.0535,W,46.16,105.87,110410,,,A*43
$GPRMC,202710.000,A,3306.2069,N,11548.0389,W,46.14,106.57,110410,,,A*4D
$GPRMC,202711.000,A,3306.2030,N,11548.0243,W,46.12,106.65,110410,,,A*40
$GPRMC,202712.000,A,3306.1989,N,11548.0100,W,46.05,108.70,110410,,,A*43
$GPRMC,202713.000,A,3306.1945,N,11547.9957,W,46.02,110.06,110410,,,A*41
$GPRMC,202714.000,A,3306.1898,N,11547.9815,W,46.04,111.55,110410,,,A*41
$GPRMC,202715.000,A,3306.1850,N,11547.9674,W,46.07,112.03,110410,,,A*4E
$GPRMC,202716.000,A,3306.1800,N,11547.9534,W,46.10,112.55,110410,,,A*4A
$GPRMC,202718.000,A,3306.1696,N,11547.9256,W,46.08,114.66,110410,,,A*49
$GPRMC,202719.000,A,3306.1640,N,11547.9118,W,46.10,115.76,110410,,,A*43
$GPRMC,202720.000,A,3306.1584,N,11547.8981,W,46.16,115.69,110410,,,A*43
$GPRMC,202721.000,A,3306.1526,N,11547.8845,W,46.17,116.56,110410,,,A*4D
$GPRMC,202724.000,A,3306.1350,N,11547.8439,W,46.02,117.08,110410,,,A*46
$GPRMC,202725.000,A,3306.1291,N,11547.8303,W,46.06,117.04,110410,,,A*4D
$GPRMC,202726.000,A,3306.1232,N,11547.8168,W,46.17,117.05,110410,,,A*49
$GPRMC,202727.000,A,3306.1174,N,11547.8032,W,46.28,116.78,110410,,,A*40
$GPRMC,202728.000,A,3306.1115,N,11547.7896,W,46.32,116.77,110410,,,A*45
$GPRMC,202729.000,A,3306.1057,N,11547.7759,W,46.30,116.62,110410,,,A*49
$GPRMC,202730.000,A,3306.0998,N,11547.7623,W,46.21,117.06,110410,,,A*45
$GPRMC,202731.000,A,3306.0939,N,11547.7488,W,46.12,116.83,110410,,,A*40
$GPRMC,202733.000,A,3306.0823,N,11547.7217,W,46.01,116.83,110410,,,A*4A
$GPRMC,202734.000,A,3306.0765,N,11547.7082,W,46.07,116.76,110410,,,A*42
$GPRMC,202735.000,A,3306.0707,N,11547.6946,W,46.16,116.60,110410,,,A*40
$GPRMC,202736.000,A,3306.0649,N,11547.6809,W,46.24,116.61,110410,,,A*42
$GPRMC,202739.000,A,3306.0473,N,11547.6403,W,46.18,117.47,110410,,,A*4A
$GPRMC,202740.000,A,3306.0413,N,11547.6268,W,46.12,117.95,110410,,,A*4C
$GPRMC,202741.000,A,3306.0352,N,11547.6134,W,46.07,118.33,110410,,,A*42
$GPRMC,202742.000,A,3306.0291,N,11547.6001,W,46.05,118.50,110410,,,A*4F
$GPRMC,202743.000,A,3306.0228,N,11547.5868,W,46.05,119.15,110410,,,A*48
$GPRMC,202744.000,A,3306.0166,N,11547.5736,W,46.04,119.41,110410,,,A*42
$GPRMC,202745.000,A,3306.0103,N,11547.5604,W,46.11,119.51,110410,,,A*45
$GPRMC,202746.000,A,3306.0040,N,11547.5472,W,46.20,119.23,110410,,,A*44
$GPRMC,202748.000,A,3305.9915,N,11547.5207,W,46.19,119.09,110410,,,A*4F
$GPRMC,202749.000,A,3305.9853,N,11547.5074,W,46.28,119.06,110410,,,A*46
$GPRMC,202750.000,A,3305.9791,N,11547.4941,W,46.27,119.00,110410,,,A*48
$GPRMC,202751.000,A,3305.9728,N,11547.4809,W,46.21,119.23,110410,,,A*41
$GPRMC,202754.000,A,3305.9543,N,11547.4412,W,46.00,119.30,110410,,,A*4C
$GPRMC,202755.000,A,3305.9481,N,11547.4281,W,45.98,119.52,110410,,,A*48
$GPRMC,202756.000,A,3305.9419,N,11547.4149,W,45.96,119.14,110410,,,A*41
$GPRMC,202757.000,A,3305.9356,N,11547.4016,W,46.11,119.48,110410,,,A*42
$GPRMC,202758.000,A,3305.9294,N,11547.3883,W,46.34,119.15,110410,,,A*4E
$GPRMC,202759.000,A,3305.9232,N,11547.3750,W,46.27,118.84,110410,,,A*49
$GPRMC,202800.000,A,3305.9170,N,11547.3617,W,46.13,118.93,110410,,,A*4C
$GPRMC,202801.000,A,3305.9108,N,11547.3485,W,46.11,119.35,110410,,,A*44
$GPRMC,202803.000,A,3305.8990,N,11547.3222,W,46.09,118.97,110410,,,A*45
$GPRMC,202804.000,A,3305.8929,N,11547.3091,W,46.01,119.17,110410,,,A*4B
$GPRMC,202805.000,A,3305.8869,N,11547.2959,W,46.01,119.28,110410,,,A*4F
$GPRMC,202806.000,A,3305.8806,N,11547.2827,W,45.96,119.43,110410,,,A*4D
$GPRMC,202809.000,A,3305.8624,N,11547.2433,W,46.09,119.70,110410,,,A*40
$GPRMC,202810.000,A,3305.8562,N,11547.2301,W,46.21,119.50,110410,,,A*47
$GPRMC,202811.000,A,3305.8501,N,11547.2168,W,46.20,118.78,110410,,,A*44
$GPRMC,202812.000,A,3305.8441,N,11547.2035,W,46.13,118.28,110410,,,A*4E
$GPRMC,202813.000,A,3305.8379,N,11547.1902,W,46.12,119.76,110410,,,A*46
$GPRMC,202814.000,A,3305.8316,N,11547.1770,W,46.17,119.96,110410,,,A*48
$GPRMC,202815.000,A,3305.8254,N,11547.1638,W,46.19,118.86,110410,,,A*4D
$GPRMC,202816.000,A,3305.8193,N,11547.1505,W,46.14,119.05,110410,,,A*4C
$GPRMC,202818.000,A,3305.8070,N,11547.1238,W,46.18,118.86,110410,,,A*41
$GPRMC,202819.000,A,3305.8009,N,11547.1105,W,46.19,118.52,110410,,,A*4B
$GPRMC,202820.000,A,3305.7948,N,11547.0972,W,46.21,118.62,110410,,,A*43
$GPRMC,202821.000,A,3305.7887,N,11547.0838,W,46.23,118.96,110410,,,A*46
$GPRMC,202824.000,A,3305.7701,N,11547.0440,W,46.08,119.00,110410,,,A*46
$GPRMC,202825.000,A,3305.7639,N,11547.0307,W,46.06,119.14,110410,,,A*42
$GPRMC,202826.000,A,3305.7577,N,11547.0174,W,46.07,119.35,110410,,,A*4C
$GPRMC,202827.000,A,3305.7515,N,11547.0042,W,46.09,119.78,110410,,,A*4A
$GPRMC,202828.000,A,3305.7452,N,11546.9909,W,46.13,119.35,110410,,,A*4B
$GPRMC,202829.000,A,3305.7390,N,11546.9776,W,46.12,118.76,110410,,,A*42
$GPRMC,202830.000,A,3305.7328,N,11546.9643,W,46.11,119.33,110410,,,A*4D
$GPRMC,202831.000,A,3305.7264,N,11546.9509,W,46.15,119.49,110410,,,A*41
$GPRMC,202833.000,A,3305.7134,N,11546.9242,W,46.35,119.02,110410,,,A*40
$GPRMC,202834.000,A,3305.7071,N,11546.9108,W,46.09,118.73,110410,,,A*42
$GPRMC,202835.000,A,3305.7009,N,11546.8974,W,45.97,118.53,110410,,,A*48
$GPRMC,202836.000,A,3305.6945,N,11546.8839,W,46.19,119.56,110410,,,A*42
$GPRMC,202839.000,A,3305.6753,N,11546.8439,W,46.16,119.34,110410,,,A*43
$GPRMC,202840.000,A,3305.6690,N,11546.8305,W,46.12,118.73,110410,,,A*4D
$GPRMC,202841.000,A,3305.6628,N,11546.8172,W,45.96,118.84,110410,,,A*4A
$GPRMC,202842.000,A,3305.6566,N,11546.8039,W,45.96,119.24,110410,,,A*45
$GPRMC,202843.000,A,3305.6504,N,11546.7906,W,46.08,119.26,110410,,,A*4C
$GPRMC,202844.000,A,3305.6441,N,11546.7773,W,46.20,119.19,110410,,,A*41
$GPRMC,202845.000,A,3305.6380,N,11546.7640,W,46.29,118.49,110410,,,A*46
$GPRMC,202846.000,A,3305.6318,N,11546.7505,W,46.30,118.74,110410,,,A*40
$GPRMC,202848.000,A,3305.6192,N,11546.7239,W,46.27,119.79,110410,,,A*4C
$GPRMC,202849.000,A,3305.6128,N,11546.7106,W,46.30,120.19,110410,,,A*49
$GPRMC,202850.000,A,3305.6064,N,11546.6974,W,46.21,119.33,110410,,,A*46
$GPRMC,202851.000,A,3305.6001,N,11546.6842,W,45.97,119.58,110410,,,A*43
$GPRMC,202854.000,A,3305.5809,N,11546.6444,W,46.30,119.06,110410,,,A*4A
$GPRMC,202855.000,A,3305.5746,N,11546.6310,W,46.20,118.89,110410,,,A*4E
$GPRMC,202856.000,A,3305.5683,N,11546.6177,W,46.16,119.47,110410,,,A*40
$GPRMC,202857.000,A,3305.5619,N,11546.6043,W,46.20,119.14,110410,,,A*47
$GPRMC,202858.000,A,3305.5555,N,11546.5909,W,46.23,119.15,110410,,,A*45
$GPRMC,202859.000,A,3305.5491,N,11546.5776,W,46.29,119.83,110410,,,A*4E
$GPRMC,202900.000,A,3305.5427,N,11546.5643,W,46.20,119.33,110410,,,A*4B
$GPRMC,202901.000,A,3305.5364,N,11546.5510,W,45.89,118.35,110410,,,A*48
$GPRMC,202903.000,A,3305.5242,N,11546.5242,W,46.11,118.13,110410,,,A*49
$GPRMC,202904.000,A,3305.5181,N,11546.5107,W,46.19,117.68,110410,,,A*4B
$GPRMC,202905.000,A,3305.5122,N,11546.4971,W,46.34,116.99,110410,,,A*4B
$GPRMC,202906.000,A,3305.5065,N,11546.4833,W,46.41,115.33,110410,,,A*4C
$GPRMC,202909.000,A,3305.4902,N,11546.4417,W,46.16,114.14,110410,,,A*46
$GPRMC,202910.000,A,3305.4850,N,11546.4278,W,46.09,114.25,110410,,,A*4B
$GPRMC,202911.000,A,3305.4796,N,11546.4138,W,46.06,114.27,110410,,,A*45
$GPRMC,202912.000,A,3305.4743,N,11546.4000,W,46.00,114.45,110410,,,A*46
$GPRMC,202913.000,A,3305.4689,N,11546.3861,W,46.01,114.41,110410,,,A*4D
$GPRMC,202914.000,A,3305.4636,N,11546.3722,W,46.09,114.33,110410,,,A*4B
$GPRMC,202915.000,A,3305.4584,N,11546.3583,W,46.17,114.42,110410,,,A*40
$GPRMC,202916.000,A,3305.4531,N,11546.3443,W,46.19,114.21,110410,,,A*4B
$GPRMC,202918.000,A,3305.4426,N,11546.3164,W,46.33,114.50,110410,,,A*4C
$GPRMC,202919.000,A,3305.4373,N,11546.3024,W,46.22,114.33,110410,,,A*4A
$GPRMC,202920.000,A,3305.4320,N,11546.2885,W,46.12,114.32,110410,,,A*46
$GPRMC,202921.000,A,3305.4267,N,11546.2746,W,46.15,114.47,110410,,,A*40
$GPRMC,202924.000,A,3305.4110,N,11546.2331,W,45.96,114.86,110410,,,A*47
$GPRMC,202925.000,A,3305.4055,N,11546.2193,W,46.00,115.69,110410,,,A*40
$GPRMC,202926.000,A,3305.3998,N,11546.2057,W,46.07,117.10,110410,,,A*4E
$GPRMC,202927.000,A,3305.3938,N,11546.1922,W,46.12,118.49,110410,,,A*4A
$GPRMC,202928.000,A,3305.3875,N,11546.1788,W,46.19,119.21,110410,,,A*47
$GPRMC,202929.000,A,3305.3811,N,11546.1656,W,46.15,120.15,110410,,,A*47
$GPRMC,202930.000,A,3305.3746,N,11546.1525,W,46.12,120.43,110410,,,A*41
$GPRMC,202931.000,A,3305.3679,N,11546.1394,W,46.30,121.57,110410,,,A*45
$GPRMC,202933.000,A,3305.3542,N,11546.1136,W,46.26,123.30,110410,,,A*42
$GPRMC,202934.000,A,3305.3469,N,11546.1010,W,46.26,124.62,110410,,,A*48
$GPRMC,202935.000,A,3305.3395,N,11546.0885,W,46.11,125.32,110410,,,A*48
$GPRMC,202936.000,A,3305.3319,N,11546.0763,W,45.97,126.40,110410,,,A*43
$GPRMC,202939.000,A,3305.3082,N,11546.0402,W,46.22,128.96,110410,,,A*41
$GPRMC,202940.000,A,3305.3001,N,11546.0284,W,45.95,129.33,110410,,,A*4D
$GPRMC,202941.000,A,3305.2919,N,11546.0169,W,45.73,131.40,110410,,,A*48
$GPRMC,202942.000,A,3305.2833,N,11546.0055,W,45.76,131.70,110410,,,A*4A
$GPRMC,202943.000,A,3305.2748,N,11545.9941,W,46.12,132.07,110410,,,A*4C
$GPRMC,202944.000,A,3305.2662,N,11545.9828,W,46.23,132.09,110410,,,A*40
$GPRMC,202945.000,A,3305.2577,N,11545.9714,W,46.07,132.45,110410,,,A*48
$GPRMC,202946.000,A,3305.2491,N,11545.9601,W,45.90,131.95,110410,,,A*44
$GPRMC,202948.000,A,3305.2319,N,11545.9374,W,46.12,132.37,110410,,,A*48
$GPRMC,202949.000,A,3305.2233,N,11545.9260,W,46.23,132.18,110410,,,A*4B
$GPRMC,202950.000,A,3305.2146,N,11545.9146,W,46.43,132.22,110410,,,A*4A
$GPRMC,202951.000,A,3305.2060,N,11545.9032,W,46.31,132.01,110410,,,A*48
$GPRMC,202954.000,A,3305.1808,N,11545.8694,W,46.01,132.18,110410,,,A*48
$GPRMC,202955.000,A,3305.1725,N,11545.8583,W,45.81,132.11,110410,,,A*4E
$GPRMC,202956.000,A,3305.1641,N,11545.8471,W,45.81,131.89,110410,,,A*40
$GPRMC,202957.000,A,3305.1556,N,11545.8359,W,45.76,131.94,110410,,,A*4D
$GPRMC,202958.000,A,3305.1471,N,11545.8245,W,45.92,132.06,110410,,,A*48
$GPRMC,202959.000,A,3305.1385,N,11545.8131,W,45.98,132.00,110410,,,A*49
$GPRMC,203000.000,A,3305.1302,N,11545.8019,W,45.89,132.31,110410,,,A*4B
$GPRMC,203001.000,A,3305.1218,N,11545.7907,W,45.73,131.70,110410,,,A*4A
$GPRMC,203003.000,A,3305.1051,N,11545.7681,W,46.04,130.97,110410,,,A*4D
$GPRMC,203004.000,A,3305.0968,N,11545.7566,W,45.81,129.69,110410,,,A*45
$GPRMC,203005.000,A,3305.0887,N,11545.7450,W,45.68,128.87,110410,,,A*46
$GPRMC,203006.000,A,3305.0806,N,11545.7330,W,46.01,127.67,110410,,,A*40
$GPRMC,203009.000,A,3305.0574,N,11545.6962,W,46.33,125.33,110410,,,A*49
$GPRMC,203010.000,A,3305.0496,N,11545.6837,W,46.63,125.49,110410,,,A*45
$GPRMC,203011.000,A,3305.0421,N,11545.6710,W,46.44,123.58,110410,,,A*41
$GPRMC,203012.000,A,3305.0350,N,11545.6583,W,46.09,122.70,110410,,,A*49
$GPRMC,203013.000,A,3305.0282,N,11545.6454,W,45.99,121.98,110410,,,A*42
$GPRMC,203014.000,A,3305.0215,N,11545.6325,W,46.17,120.84,110410,,,A*43
$GPRMC,203015.000,A,3305.0149,N,11545.6192,W,46.29,119.97,110410,,,A*43
$GPRMC,203016.000,A,3305.0085,N,11545.6060,W,46.28,120.06,110410,,,A*4E
$GPRMC,203018.000,A,3304.9959,N,11545.5794,W,46.14,118.20,110410,,,A*4F
$GPRMC,203019.000,A,3304.9900,N,11545.5658,W,46.27,116.90,110410,,,A*46
$GPRMC,203020.000,A,3304.9842,N,11545.5520,W,46.31,115.92,110410,,,A*41
$GPRMC,203021.000,A,3304.9787,N,11545.5382,W,46.25,114.98,110410,,,A*46
$GPRMC,203024.000,A,3304.9636,N,11545.4960,W,46.19,112.02,110410,,,A*45
$GPRMC,203025.000,A,3304.9589,N,11545.4818,W,46.16,111.16,110410,,,A*44
$GPRMC,203026.000,A,3304.9545,N,11545.4674,W,46.14,109.92,110410,,,A*44
$GPRMC,203027.000,A,3304.9502,N,11545.4530,W,46.21,108.98,110410,,,A*48
$GPRMC,203028.000,A,3304.9460,N,11545.4385,W,46.21,109.00,110410,,,A*4A
$GPRMC,203029.000,A,3304.9419,N,11545.4240,W,46.22,108.35,110410,,,A*49
$GPRMC,203030.000,A,3304.9381,N,11545.4093,W,46.26,107.59,110410,,,A*4A
$GPRMC,203031.000,A,3304.9344,N,11545.3947,W,46.22,106.11,110410,,,A*4C
$GPRMC,203033.000,A,3304.9279,N,11545.3651,W,46.10,104.68,110410,,,A*44
$GPRMC,203034.000,A,3304.9249,N,11545.3503,W,46.05,103.92,110410,,,A*42
$GPRMC,203035.000,A,3304.9219,N,11545.3354,W,46.12,104.38,110410,,,A*43
$GPRMC,203036.000,A,3304.9189,N,11545.3206,W,46.15,104.43,110410,,,A*47
$GPRMC,203039.000,A,3304.9100,N,11545.2760,W,46.00,104.65,110410,,,A*4D
$GPRMC,203040.000,A,3304.9069,N,11545.2613,W,45.99,104.42,110410,,,A*4E
$GPRMC,203041.000,A,3304.9039,N,11545.2465,W,46.02,103.93,110410,,,A*43
$GPRMC,203042.000,A,3304.9010,N,11545.2316,W,46.08,103.94,110410,,,A*45
$GPRMC,203043.000,A,3304.8978,N,11545.2168,W,46.14,105.52,110410,,,A*48
$GPRMC,203044.000,A,3304.8944,N,11545.2021,W,46.21,106.35,110410,,,A*48
$GPRMC,203045.000,A,3304.8906,N,11545.1875,W,46.29,107.01,110410,,,A*4B
$GPRMC,203046.000,A,3304.8868,N,11545.1729,W,46.24,108.59,110410,,,A*48
$GPRMC,203048.000,A,3304.8784,N,11545.1442,W,46.03,110.08,110410,,,A*4D
$GPRMC,203049.000,A,3304.8739,N,11545.1300,W,45.98,110.95,110410,,,A*4E
$GPRMC,203050.000,A,3304.8692,N,11545.1158,W,46.01,111.64,110410,,,A*45
$GPRMC,203051.000,A,3304.8643,N,11545.1018,W,46.04,112.61,110410,,,A*4E
$GPRMC,203054.000,A,3304.8485,N,11545.0600,W,46.18,115.40,110410,,,A*44
$GPRMC,203055.000,A,3304.8429,N,11545.0464,W,46.05,116.41,110410,,,A*4D
$GPRMC,203056.000,A,3304.8370,N,11545.0329,W,46.05,117.54,110410,,,A*4E
$GPRMC,203057.000,A,3304.8309,N,11545.0195,W,46.08,118.34,110410,,,A*40
$GPRMC,203058.000,A,3304.8246,N,11545.0062,W,46.04,119.34,110410,,,A*41
$GPRMC,203059.000,A,3304.8182,N,11544.9930,W,46.09,120.46,110410,,,A*4F
$GPRMC,203100.000,A,3304.8116,N,11544.9799,W,46.19,120.90,110410,,,A*48
$GPRMC,203101.000,A,3304.8048,N,11544.9669,W,46.34,121.40,110410,,,A*4E
$GPRMC,203103.000,A,3304.7909,N,11544.9413,W,46.28,123.89,110410,,,A*4A
$GPRMC,203104.000,A,3304.7835,N,11544.9288,W,46.20,124.86,110410,,,A*47
$GPRMC,203105.000,A,3304.7761,N,11544.9165,W,46.10,125.17,110410,,,A*42
$GPRMC,203106.000,A,3304.7686,N,11544.9042,W,46.09,125.72,110410,,,A*46
$GPRMC,203109.000,A,3304.7458,N,11544.8675,W,46.11,126.45,110410,,,A*45
$GPRMC,203110.000,A,3304.7383,N,11544.8553,W,46.13,125.80,110410,,,A*43
$GPRMC,203111.000,A,3304.7308,N,11544.8430,W,46.09,126.12,110410,,,A*46
$GPRMC,203112.000,A,3304.7233,N,11544.8307,W,46.02,126.49,110410,,,A*4A
$GPRMC,203113.000,A,3304.7157,N,11544.8185,W,46.06,126.73,110410,,,A*4F
$GPRMC,203114.000,A,3304.7081,N,11544.8063,W,46.12,126.30,110410,,,A*49
$GPRMC,203115.000,A,3304.7005,N,11544.7939,W,46.21,125.88,110410,,,A*4D
$GPRMC,203116.000,A,3304.6929,N,11544.7816,W,46.26,126.45,110410,,,A*41
$GPRMC,203118.000,A,3304.6774,N,11544.7572,W,46.24,127.03,110410,,,A*47
$GPRMC,203119.000,A,3304.6697,N,11544.7451,W,46.21,126.91,110410,,,A*45
$GPRMC,203120.000,A,3304.6619,N,11544.7329,W,46.17,126.87,110410,,,A*43
$GPRMC,203121.000,A,3304.6543,N,11544.7207,W,46.09,126.46,110410,,,A*41
$GPRMC,203124.000,A,3304.6310,N,11544.6843,W,46.28,127.67,110410,,,A*4E
$GPRMC,203125.000,A,3304.6228,N,11544.6724,W,46.35,128.74,110410,,,A*4A
$GPRMC,203126.000,A,3304.6147,N,11544.6605,W,46.39,128.89,110410,,,A*4F
$GPRMC,203127.000,A,3304.6066,N,11544.6487,W,46.17,128.98,110410,,,A*48
$GPRMC,203128.000,A,3304.5983,N,11544.6370,W,45.94,130.00,110410,,,A*49
$GPRMC,203129.000,A,3304.5901,N,11544.6255,W,45.68,130.36,110410,,,A*42
$GPRMC,203130.000,A,3304.5819,N,11544.6139,W,45.70,130.39,110410,,,A*4D
$GPRMC,203131.000,A,3304.5735,N,11544.6024,W,45.84,131.10,110410,,,A*41
$GPRMC,203133.000,A,3304.5561,N,11544.5797,W,46.31,133.14,110410,,,A*47
$GPRMC,203134.000,A,3304.5472,N,11544.5688,W,46.19,134.08,110410,,,A*4C
$GPRMC,203135.000,A,3304.5385,N,11544.5580,W,45.99,134.06,110410,,,A*4C
$GPRMC,203136.000,A,3304.5295,N,11544.5471,W,45.99,134.60,110410,,,A*40
$GPRMC,203139.000,A,3304.5026,N,11544.5154,W,45.84,136.44,110410,,,A*4F
$GPRMC,203140.000,A,3304.4934,N,11544.5050,W,45.81,137.20,110410,,,A*49
$GPRMC,203141.000,A,3304.4839,N,11544.4946,W,46.15,137.93,110410,,,A*4D
$GPRMC,203142.000,A,3304.4741,N,11544.4843,W,46.70,138.67,110410,,,A*4D
$GPRMC,203143.000,A,3304.4646,N,11544.4744,W,46.51,138.79,110410,,,A*4E
$GPRMC,203144.000,A,3304.4551,N,11544.4645,W,46.03,139.64,110410,,,A*46
$GPRMC,203145.000,A,3304.4458,N,11544.4550,W,46.10,140.07,110410,,,A*41
$GPRMC,203146.000,A,3304.4360,N,11544.4454,W,46.48,141.63,110410,,,A*45
$GPRMC,203148.000,A,3304.4163,N,11544.4263,W,46.08,141.23,110410,,,A*48
$GPRMC,203149.000,A,3304.4064,N,11544.4169,W,46.19,141.25,110410,,,A*40
$GPRMC,203150.000,A,3304.3964,N,11544.4074,W,46.10,141.01,110410,,,A*44
$GPRMC,203151.000,A,3304.3865,N,11544.3980,W,46.05,141.66,110410,,,A*45
$GPRMC,203154.000,A,3304.3562,N,11544.3700,W,46.09,141.85,110410,,,A*4D
$GPRMC,203155.000,A,3304.3462,N,11544.3607,W,45.61,141.00,110410,,,A*4B
$GPRMC,203156.000,A,3304.3361,N,11544.3514,W,45.76,141.46,110410,,,A*49
$GPRMC,203157.000,A,3304.3256,N,11544.3419,W,46.43,142.42,110410,,,A*43
$GPRMC,203158.000,A,3304.3152,N,11544.3325,W,46.48,141.69,110410,,,A*42
$GPRMC,203159.000,A,3304.3048,N,11544.3230,W,46.30,141.74,110410,,,A*4F
$GPRMC,203200.000,A,3304.2945,N,11544.3134,W,46.24,141.28,110410,,,A*4E
$GPRMC,203201.000,A,3304.2843,N,11544.3038,W,46.06,140.77,110410,,,A*4E
$GPRMC,203203.000,A,3304.2640,N,11544.2848,W,46.11,142.06,110410,,,A*4D
$GPRMC,203204.000,A,3304.2536,N,11544.2753,W,46.64,142.25,110410,,,A*4E
$GPRMC,203205.000,A,3304.2433,N,11544.2658,W,46.31,141.02,110410,,,A*47
$GPRMC,203206.000,A,3304.2331,N,11544.2563,W,46.10,141.60,110410,,,A*4D
$GPRMC,203209.000,A,3304.2025,N,11544.2279,W,46.03,141.61,110410,,,A*4B
$GPRMC,203210.000,A,3304.1924,N,11544.2184,W,46.04,141.07,110410,,,A*4E
$GPRMC,203211.000,A,3304.1823,N,11544.2089,W,45.98,141.25,110410,,,A*43
$GPRMC,203212.000,A,3304.1724,N,11544.1995,W,45.62,141.01,110410,,,A*4C
$GPRMC,203213.000,A,3304.1625,N,11544.1900,W,45.55,141.00,110410,,,A*44
$GPRMC,203214.000,A,3304.1523,N,11544.1804,W,46.25,141.39,110410,,,A*4D
$GPRMC,203215.000,A,3304.1419,N,11544.1708,W,46.91,141.75,110410,,,A*40
$GPRMC,203216.000,A,3304.1318,N,11544.1614,W,47.01,142.74,110410,,,A*43
$GPRMC,203218.000,A,3304.1114,N,11544.1425,W,46.32,141.44,110410,,,A*42
$GPRMC,203219.000,A,3304.1013,N,11544.1330,W,46.03,141.49,110410,,,A*49
$GPRMC,203220.000,A,3304.0913,N,11544.1235,W,46.00,141.52,110410,,,A*46
$GPRMC,203221.000,A,3304.0813,N,11544.1140,W,46.14,141.34,110410,,,A*42
$GPRMC,203224.000,A,3304.0510,N,11544.0854,W,45.96,141.38,110410,,,A*41
$GPRMC,203225.000,A,3304.0409,N,11544.0759,W,46.15,141.97,110410,,,A*46
$GPRMC,203226.000,A,3304.0308,N,11544.0665,W,46.34,141.74,110410,,,A*43
$GPRMC,203227.000,A,3304.0208,N,11544.0570,W,46.37,141.40,110410,,,A*40
$GPRMC,203228.000,A,3304.0107,N,11544.0474,W,46.40,141.30,110410,,,A*41
$GPRMC,203229.000,A,3304.0007,N,11544.0378,W,46.45,141.53,110410,,,A*4A
$GPRMC,203230.000,A,3303.9907,N,11544.0283,W,46.44,141.31,110410,,,A*45
$GPRMC,203231.000,A,3303.9812,N,11544.0190,W,46.17,141.36,110410,,,A*41
$GPRMC,203233.000,A,3303.9610,N,11544.0000,W,46.16,141.88,110410,,,A*43
$GPRMC,203234.000,A,3303.9511,N,11543.9905,W,45.99,140.80,110410,,,A*49
$GPRMC,203235.000,A,3303.9412,N,11543.9810,W,46.08,141.30,110410,,,A*4E
$GPRMC,203236.000,A,3303.9311,N,11543.9716,W,46.21,142.18,110410,,,A*42
$GPRMC,203239.000,A,3303.9008,N,11543.9432,W,46.80,141.28,110410,,,A*48
$GPRMC,203240.000,A,3303.8907,N,11543.9335,W,46.85,141.76,110410,,,A*4F
$GPRMC,203241.000,A,3303.8809,N,11543.9240,W,46.61,141.45,110410,,,A*48
$GPRMC,203242.000,A,3303.8708,N,11543.9144,W,46.61,141.89,110410,,,A*42
$GPRMC,203243.000,A,3303.8607,N,11543.9049,W,46.56,141.87,110410,,,A*4B
$GPRMC,203244.000,A,3303.8506,N,11543.8954,W,46.22,141.35,110410,,,A*40
$GPRMC,203245.000,A,3303.8410,N,11543.8860,W,45.75,140.78,110410,,,A*48
$GPRMC,203246.000,A,3303.8311,N,11543.8765,W,45.77,141.34,110410,,,A*4C
$GPRMC,203248.000,A,3303.8111,N,11543.8574,W,46.81,141.29,110410,,,A*44
$GPRMC,203249.000,A,3303.8010,N,11543.8478,W,46.63,141.50,110410,,,A*4A
$GPRMC,203250.000,A,3303.7911,N,11543.8384,W,46.28,141.69,110410,,,A*44
$GPRMC,203251.000,A,3303.7812,N,11543.8289,W,46.31,141.84,110410,,,A*40
$GPRMC,203254.000,A,3303.7506,N,11543.8002,W,46.63,141.42,110410,,,A*41
$GPRMC,203255.000,A,3303.7407,N,11543.7908,W,46.30,142.09,110410,,,A*46
$GPRMC,203256.000,A,3303.7306,N,11543.7814,W,46.26,141.87,110410,,,A*4D
$GPRMC,203257.000,A,3303.7206,N,11543.7719,W,46.14,141.17,110410,,,A*47
$GPRMC,203258.000,A,3303.7106,N,11543.7623,W,46.05,141.21,110410,,,A*46
$GPRMC,203259.000,A,3303.7006,N,11543.7528,W,46.20,141.38,110410,,,A*41
$GPRMC,203300.000,A,3303.6906,N,11543.7434,W,46.26,142.30,110410,,,A*45
$GPRMC,203301.000,A,3303.6802,N,11543.7340,W,46.38,142.80,110410,,,A*41
$GPRMC,203303.000,A,3303.6599,N,11543.7159,W,45.93,144.21,110410,,,A*49
$GPRMC,203304.000,A,3303.6493,N,11543.7070,W,46.13,145.44,110410,,,A*46
$GPRMC,203305.000,A,3303.6387,N,11543.6985,W,45.95,145.98,110410,,,A*4B
$GPRMC,203306.000,A,3303.6280,N,11543.6902,W,45.79,147.06,110410,,,A*46
$GPRMC,203309.000,A,3303.5950,N,11543.6666,W,45.65,149.87,110410,,,A*4B
$GPRMC,203310.000,A,3303.5837,N,11543.6591,W,45.67,150.46,110410,,,A*4F
$GPRMC,203311.000,A,3303.5723,N,11543.6517,W,45.91,151.29,110410,,,A*4B
$GPRMC,203312.000,A,3303.5608,N,11543.6443,W,46.12,151.44,110410,,,A*43
$GPRMC,203313.000,A,3303.5495,N,11543.6371,W,46.30,151.29,110410,,,A*49
$GPRMC,203314.000,A,3303.5379,N,11543.6296,W,46.56,151.10,110410,,,A*49
$GPRMC,203315.000,A,3303.5265,N,11543.6223,W,46.37,151.59,110410,,,A*40
$GPRMC,203316.000,A,3303.5152,N,11543.6150,W,46.07,151.86,110410,,,A*42
$GPRMC,203318.000,A,3303.4925,N,11543.6005,W,46.35,151.19,110410,,,A*43
$GPRMC,203319.000,A,3303.4812,N,11543.5931,W,46.37,151.18,110410,,,A*49
$GPRMC,203320.000,A,3303.4698,N,11543.5857,W,46.21,151.58,110410,,,A*4D
$GPRMC,203321.000,A,3303.4585,N,11543.5784,W,46.25,151.49,110410,,,A*46
$GPRMC,203324.000,A,3303.4246,N,11543.5562,W,46.44,151.15,110410,,,A*4F
$GPRMC,203325.000,A,3303.4133,N,11543.5487,W,46.25,151.09,110410,,,A*4F
$GPRMC,203326.000,A,3303.4020,N,11543.5413,W,46.47,151.14,110410,,,A*4A
$GPRMC,203327.000,A,3303.3907,N,11543.5339,W,46.54,151.42,110410,,,A*4E
$GPRMC,203328.000,A,3303.3793,N,11543.5265,W,46.50,151.09,110410,,,A*41
$GPRMC,203329.000,A,3303.3681,N,11543.5191,W,46.45,150.95,110410,,,A*4A
