NMEA Sentence Code,UTC Time,Status,Latitude,Latitude Direction,Longitude,Longitude Direction,Speed (knots),Track Angle (degrees true),Date,MagneticVariation,Magnetic Variation Direction,[FAA Mode]-Optional,Checksum
$GPRMC,195442.000,A,3242.9430,N,11709.6743,W,19.47,271.93,220810,,,A*4E
$GPRMC,195445.000,A,3242.9440,N,11709.6941,W,18.59,269.78,220810,,,A*40
$GPRMC,195448.000,A,3242.9425,N,11709.7055,W,8.58,268.09,220810,,,A*74
$GPRMC,195524.000,A,3242.9447,N,11709.7144,W,5.68,291.51,220810,,,A*7F
$GPRMC,195527.000,A,3242.9451,N,11709.7262,W,15.23,274.36,220810,,,A*48
$GPRMC,195530.000,A,3242.9451,N,11709.7386,W,13.54,272.00,220810,,,A*40
$GPRMC,195533.000,A,3242.9447,N,11709.7611,W,20.28,271.74,220810,,,A*44
$GPRMC,195536.000,A,3242.9440,N,11709.7810,W,20.10,272.44,220810,,,A*42
$GPRMC,195539.000,A,3242.9456,N,11709.7995,W,18.50,281.74,220810,,,A*46
$GPRMC,195542.000,A,3242.9496,N,11709.8180,W,17.78,292.58,220810,,,A*4C
$GPRMC,195545.000,A,3242.9477,N,11709.8240,W,8.68,286.77,220810,,,A*7C
$GPRMC,195548.000,A,3242.9548,N,11709.8298,W,7.83,323.41,220810,,,A*78
$GPRMC,195551.000,A,3242.9665,N,11709.8329,W,11.65,356.63,220810,,,A*4A
$GPRMC,195554.000,A,3242.9774,N,11709.8324,W,9.74,6.45,220810,,,A*78
$GPRMC,195557.000,A,3242.9882,N,11709.8315,W,11.33,1.96,220810,,,A*4C
$GPRMC,195600.000,A,3242.9949,N,11709.8308,W,4.80,358.28,220810,,,A*71
$GPRMC,195606.000,A,3243.0040,N,11709.8300,W,11.95,4.50,220810,,,A*42
$GPRMC,195609.000,A,3243.0211,N,11709.8257,W,21.14,1.73,220810,,,A*46
$GPRMC,195612.000,A,3243.0424,N,11709.8320,W,20.99,1.19,220810,,,A*45
$GPRMC,195615.000,A,3243.0581,N,11709.8341,W,16.11,1.71,220810,,,A*40
$GPRMC,195618.000,A,3243.0747,N,11709.8351,W,19.20,0.27,220810,,,A*4B
$GPRMC,195621.000,A,3243.0895,N,11709.8341,W,19.76,359.10,220810,,,A*48
$GPRMC,195624.000,A,3243.1056,N,11709.8323,W,17.84,0.85,220810,,,A*4F
$GPRMC,195627.000,A,3243.1192,N,11709.8336,W,12.81,355.92,220810,,,A*44
$GPRMC,195645.000,A,3243.1345,N,11709.8354,W,13.70,337.89,220810,,,A*4D
$GPRMC,195648.000,A,3243.1538,N,11709.8368,W,20.59,354.37,220810,,,A*48
$GPRMC,195651.000,A,3243.1773,N,11709.8357,W,23.61,1.45,220810,,,A*4F
$GPRMC,195654.000,A,3243.2007,N,11709.8463,W,23.72,359.88,220810,,,A*40
$GPRMC,195657.000,A,3243.2199,N,11709.8434,W,23.02,0.97,220810,,,A*41
$GPRMC,195700.000,A,3243.2387,N,11709.8410,W,22.25,0.06,220810,,,A*45
$GPRMC,195703.000,A,3243.2582,N,11709.8391,W,23.14,0.86,220810,,,A*40
$GPRMC,195706.000,A,3243.2791,N,11709.8374,W,23.70,358.85,220810,,,A*41
$GPRMC,195709.000,A,3243.2980,N,11709.8379,W,23.51,358.16,220810,,,A*44
$GPRMC,195712.000,A,3243.3175,N,11709.8378,W,23.50,358.18,220810,,,A*43
$GPRMC,195715.000,A,3243.3375,N,11709.8377,W,23.95,358.75,220810,,,A*4B
$GPRMC,195718.000,A,3243.3580,N,11709.8383,W,24.38,358.83,220810,,,A*48
$GPRMC,195721.000,A,3243.3795,N,11709.8383,W,25.90,359.61,220810,,,A*4A
$GPRMC,195724.000,A,3243.4021,N,11709.8381,W,27.35,359.25,220810,,,A*4F
$GPRMC,195727.000,A,3243.4242,N,11709.8381,W,25.03,0.17,220810,,,A*42
$GPRMC,195730.000,A,3243.4422,N,11709.8385,W,18.87,356.11,220810,,,A*44
$GPRMC,195733.000,A,3243.4546,N,11709.8474,W,20.09,315.14,220810,,,A*42
$GPRMC,195736.000,A,3243.4683,N,11709.8698,W,30.52,307.79,220810,,,A*4A
$GPRMC,195739.000,A,3243.4863,N,11709.8975,W,36.93,309.18,220810,,,A*4B
$GPRMC,195742.000,A,3243.5086,N,11709.9276,W,41.66,313.58,220810,,,A*49
$GPRMC,195745.000,A,3243.5350,N,11709.9567,W,43.34,318.93,220810,,,A*48
$GPRMC,195748.000,A,3243.5629,N,11709.9856,W,45.01,318.79,220810,,,A*45
$GPRMC,195751.000,A,3243.5928,N,11710.0149,W,47.49,320.80,220810,,,A*46
$GPRMC,195754.000,A,3243.6254,N,11710.0446,W,50.22,322.80,220810,,,A*43
$GPRMC,195757.000,A,3243.6596,N,11710.0756,W,51.76,322.18,220810,,,A*4A
$GPRMC,195800.000,A,3243.6944,N,11710.1065,W,52.10,323.18,220810,,,A*40
$GPRMC,195803.000,A,3243.7301,N,11710.1374,W,52.82,323.56,220810,,,A*4B
$GPRMC,195806.000,A,3243.7662,N,11710.1689,W,54.18,323.56,220810,,,A*4C
$GPRMC,195809.000,A,3243.8033,N,11710.2011,W,55.22,323.54,220810,,,A*40
$GPRMC,195812.000,A,3243.8406,N,11710.2336,W,55.26,323.37,220810,,,A*4F
$GPRMC,195815.000,A,3243.8777,N,11710.2662,W,55.05,323.37,220810,,,A*48
$GPRMC,195818.000,A,3243.9149,N,11710.2987,W,55.19,323.78,220810,,,A*4D
$GPRMC,195821.000,A,3243.9522,N,11710.3311,W,55.39,323.64,220810,,,A*45
$GPRMC,195824.000,A,3243.9896,N,11710.3638,W,55.53,323.43,220810,,,A*45
$GPRMC,195827.000,A,3244.0268,N,11710.3967,W,55.52,322.93,220810,,,A*4B
$GPRMC,195830.000,A,3244.0644,N,11710.4291,W,55.31,323.86,220810,,,A*42
$GPRMC,195833.000,A,3244.1017,N,11710.4613,W,54.90,323.74,220810,,,A*49
$GPRMC,195836.000,A,3244.1386,N,11710.4934,W,54.75,323.48,220810,,,A*49
$GPRMC,195839.000,A,3244.1758,N,11710.5256,W,54.88,323.33,220810,,,A*41
$GPRMC,195842.000,A,3244.2130,N,11710.5580,W,55.18,323.72,220810,,,A*47
$GPRMC,195845.000,A,3244.2505,N,11710.5906,W,55.93,323.58,220810,,,A*4B
$GPRMC,195848.000,A,3244.2883,N,11710.6233,W,56.07,323.67,220810,,,A*49
$GPRMC,195851.000,A,3244.3259,N,11710.6560,W,55.72,323.89,220810,,,A*4D
$GPRMC,195854.000,A,3244.3633,N,11710.6886,W,55.38,323.63,220810,,,A*4F
$GPRMC,195857.000,A,3244.4005,N,11710.7212,W,55.37,323.42,220810,,,A*42
$GPRMC,195900.000,A,3244.4374,N,11710.7540,W,55.20,322.74,220810,,,A*46
$GPRMC,195903.000,A,3244.4723,N,11710.7893,W,55.63,316.58,220810,,,A*4E
$GPRMC,195906.000,A,3244.5032,N,11710.8300,W,55.83,309.83,220810,,,A*45
$GPRMC,195909.000,A,3244.5284,N,11710.8759,W,55.54,301.05,220810,,,A*41
$GPRMC,195912.000,A,3244.5503,N,11710.9245,W,55.50,299.13,220810,,,A*49
$GPRMC,195915.000,A,3244.5719,N,11710.9729,W,55.45,298.31,220810,,,A*4D
$GPRMC,195918.000,A,3244.5932,N,11711.0213,W,55.44,298.29,220810,,,A*4B
$GPRMC,195921.000,A,3244.6148,N,11711.0697,W,55.32,298.77,220810,,,A*45
$GPRMC,195924.000,A,3244.6367,N,11711.1179,W,55.33,298.52,220810,,,A*4F
$GPRMC,195927.000,A,3244.6579,N,11711.1662,W,55.37,298.22,220810,,,A*4B
$GPRMC,195930.000,A,3244.6797,N,11711.2143,W,55.45,298.87,220810,,,A*42
$GPRMC,195933.000,A,3244.7021,N,11711.2621,W,55.68,299.06,220810,,,A*4E
$GPRMC,195936.000,A,3244.7247,N,11711.3099,W,55.47,298.94,220810,,,A*4A
$GPRMC,195939.000,A,3244.7471,N,11711.3577,W,55.45,298.76,220810,,,A*4D
$GPRMC,195942.000,A,3244.7695,N,11711.4059,W,55.59,298.84,220810,,,A*47
$GPRMC,195945.000,A,3244.7921,N,11711.4542,W,55.36,298.89,220810,,,A*4B
$GPRMC,195948.000,A,3244.8145,N,11711.5023,W,55.29,298.86,220810,,,A*41
$GPRMC,195951.000,A,3244.8372,N,11711.5500,W,55.25,300.63,220810,,,A*4C
$GPRMC,195954.000,A,3244.8624,N,11711.5957,W,54.95,304.72,220810,,,A*4F
$GPRMC,195957.000,A,3244.8897,N,11711.6388,W,54.85,308.60,220810,,,A*4F
$GPRMC,200000.000,A,3244.9201,N,11711.6798,W,55.24,312.92,220810,,,A*46
$GPRMC,200003.000,A,3244.9532,N,11711.7175,W,55.06,317.05,220810,,,A*4D
$GPRMC,200006.000,A,3244.9887,N,11711.7524,W,55.20,321.30,220810,,,A*4C
$GPRMC,200009.000,A,3245.0261,N,11711.7846,W,55.22,323.77,220810,,,A*43
$GPRMC,200012.000,A,3245.0636,N,11711.8163,W,54.88,323.58,220810,,,A*42
$GPRMC,200015.000,A,3245.1003,N,11711.8484,W,54.76,323.31,220810,,,A*46
$GPRMC,200018.000,A,3245.1370,N,11711.8817,W,55.76,320.29,220810,,,A*41
$GPRMC,200021.000,A,3245.1706,N,11711.9195,W,55.81,314.89,220810,,,A*49
$GPRMC,200024.000,A,3245.2019,N,11711.9611,W,55.92,310.41,220810,,,A*4F
$GPRMC,200027.000,A,3245.2318,N,11712.0034,W,55.52,310.28,220810,,,A*46
$GPRMC,200030.000,A,3245.2616,N,11712.0457,W,55.37,310.12,220810,,,A*40
$GPRMC,200033.000,A,3245.2917,N,11712.0873,W,55.40,311.68,220810,,,A*4B
$GPRMC,200036.000,A,3245.3248,N,11712.1255,W,55.27,319.14,220810,,,A*43
$GPRMC,200039.000,A,3245.3625,N,11712.1572,W,55.41,327.87,220810,,,A*46
$GPRMC,200042.000,A,3245.4036,N,11712.1819,W,55.53,336.37,220810,,,A*41
$GPRMC,200045.000,A,3245.4478,N,11712.1990,W,55.12,345.09,220810,,,A*44
$GPRMC,200048.000,A,3245.4929,N,11712.2100,W,54.57,348.47,220810,,,A*45
$GPRMC,200051.000,A,3245.5382,N,11712.2204,W,55.58,348.02,220810,,,A*4F
$GPRMC,200054.000,A,3245.5830,N,11712.2322,W,54.62,347.56,220810,,,A*4B
$GPRMC,200057.000,A,3245.6281,N,11712.2438,W,55.42,347.93,220810,,,A*4D
$GPRMC,200100.000,A,3245.6733,N,11712.2557,W,55.53,347.82,220810,,,A*4A
$GPRMC,200103.000,A,3245.7184,N,11712.2676,W,55.57,347.45,220810,,,A*4D
$GPRMC,200106.000,A,3245.7634,N,11712.2795,W,55.48,347.91,220810,,,A*4F
$GPRMC,200109.000,A,3245.8084,N,11712.2912,W,55.32,347.79,220810,,,A*48
$GPRMC,200112.000,A,3245.8545,N,11712.3024,W,55.41,347.04,220810,,,A*49
$GPRMC,200115.000,A,3245.9000,N,11712.3146,W,55.30,346.90,220810,,,A*44
$GPRMC,200118.000,A,3245.9453,N,11712.3263,W,55.26,347.70,220810,,,A*47
$GPRMC,200121.000,A,3245.9904,N,11712.3378,W,55.25,347.92,220810,,,A*46
$GPRMC,200124.000,A,3246.0354,N,11712.3496,W,55.34,347.39,220810,,,A*40
$GPRMC,200127.000,A,3246.0802,N,11712.3616,W,55.30,347.90,220810,,,A*46
$GPRMC,200130.000,A,3246.1251,N,11712.3732,W,55.32,348.04,220810,,,A*4A
$GPRMC,200133.000,A,3246.1699,N,11712.3850,W,55.18,347.73,220810,,,A*45
$GPRMC,200136.000,A,3246.2152,N,11712.3961,W,55.68,348.59,220810,,,A*40
$GPRMC,200139.000,A,3246.2602,N,11712.4080,W,55.28,347.91,220810,,,A*43
$GPRMC,200142.000,A,3246.3050,N,11712.4198,W,55.31,347.84,220810,,,A*4B
$GPRMC,200145.000,A,3246.3499,N,11712.4316,W,55.31,347.87,220810,,,A*4A
$GPRMC,200148.000,A,3246.3948,N,11712.4434,W,55.36,347.74,220810,,,A*4A
$GPRMC,200151.000,A,3246.4398,N,11712.4552,W,55.25,347.74,220810,,,A*41
$GPRMC,200154.000,A,3246.4847,N,11712.4669,W,55.31,347.62,220810,,,A*44
$GPRMC,200157.000,A,3246.5297,N,11712.4787,W,55.45,347.72,220810,,,A*42
$GPRMC,200200.000,A,3246.5749,N,11712.4905,W,55.43,347.78,220810,,,A*4D
$GPRMC,200203.000,A,3246.6200,N,11712.5018,W,55.34,348.80,220810,,,A*49
$GPRMC,200206.000,A,3246.6664,N,11712.5094,W,55.26,354.28,220810,,,A*42
$GPRMC,200209.000,A,3246.7140,N,11712.5105,W,55.43,1.10,220810,,,A*4F
$GPRMC,200212.000,A,3246.7612,N,11712.5056,W,55.36,6.83,220810,,,A*4D
$GPRMC,200215.000,A,3246.8077,N,11712.4971,W,55.55,8.46,220810,,,A*4F
$GPRMC,200218.000,A,3246.8540,N,11712.4887,W,55.43,8.45,220810,,,A*4F
$GPRMC,200221.000,A,3246.8999,N,11712.4800,W,55.30,8.90,220810,,,A*4E
$GPRMC,200224.000,A,3246.9455,N,11712.4707,W,55.16,9.77,220810,,,A*43
$GPRMC,200227.000,A,3246.9911,N,11712.4615,W,55.22,9.11,220810,,,A*48
$GPRMC,200230.000,A,3247.0369,N,11712.4528,W,55.34,8.61,220810,,,A*4F
$GPRMC,200233.000,A,3247.0827,N,11712.4447,W,55.57,8.48,220810,,,A*4B
$GPRMC,200236.000,A,3247.1285,N,11712.4365,W,55.35,8.44,220810,,,A*42
$GPRMC,200239.000,A,3247.1740,N,11712.4284,W,55.34,8.50,220810,,,A*4B
$GPRMC,200242.000,A,3247.2195,N,11712.4206,W,55.25,7.81,220810,,,A*43
$GPRMC,200245.000,A,3247.2653,N,11712.4142,W,55.36,5.45,220810,,,A*42
$GPRMC,200248.000,A,3247.3113,N,11712.4105,W,55.46,2.42,220810,,,A*49
$GPRMC,200251.000,A,3247.3577,N,11712.4098,W,55.51,359.55,220810,,,A*4F
$GPRMC,200254.000,A,3247.4039,N,11712.4119,W,55.53,356.50,220810,,,A*42
$GPRMC,200257.000,A,3247.4500,N,11712.4173,W,54.42,353.42,220810,,,A*45
$GPRMC,200300.000,A,3247.4955,N,11712.4251,W,55.33,350.73,220810,,,A*4F
$GPRMC,200303.000,A,3247.5408,N,11712.4355,W,55.38,348.00,220810,,,A*4B
$GPRMC,200306.000,A,3247.5857,N,11712.4484,W,55.35,345.09,220810,,,A*4A
$GPRMC,200309.000,A,3247.6300,N,11712.4640,W,55.36,342.23,220810,,,A*49
$GPRMC,200312.000,A,3247.6735,N,11712.4825,W,55.42,338.99,220810,,,A*43
$GPRMC,200315.000,A,3247.7162,N,11712.5040,W,55.78,336.48,220810,,,A*40
$GPRMC,200318.000,A,3247.7582,N,11712.5274,W,55.40,334.20,220810,,,A*45
$GPRMC,200321.000,A,3247.7998,N,11712.5522,W,55.34,332.69,220810,,,A*44
$GPRMC,200324.000,A,3247.8410,N,11712.5772,W,54.77,333.13,220810,,,A*4E
$GPRMC,200327.000,A,3247.8817,N,11712.6021,W,55.08,332.89,220810,,,A*4F
$GPRMC,200330.000,A,3247.9228,N,11712.6271,W,55.15,333.83,220810,,,A*4E
$GPRMC,200333.000,A,3247.9644,N,11712.6502,W,55.33,336.59,220810,,,A*46
$GPRMC,200336.000,A,3248.0066,N,11712.6713,W,55.51,337.65,220810,,,A*4B
$GPRMC,200339.000,A,3248.0488,N,11712.6926,W,55.15,336.72,220810,,,A*4F
$GPRMC,200342.000,A,3248.0909,N,11712.7150,W,55.34,335.53,220810,,,A*4C
$GPRMC,200345.000,A,3248.1325,N,11712.7388,W,55.26,333.87,220810,,,A*45
$GPRMC,200348.000,A,3248.1732,N,11712.7636,W,55.04,332.56,220810,,,A*47
$GPRMC,200351.000,A,3248.2130,N,11712.7894,W,55.00,331.05,220810,,,A*4F
$GPRMC,200354.000,A,3248.2523,N,11712.8169,W,55.04,329.81,220810,,,A*49
$GPRMC,200357.000,A,3248.2919,N,11712.8453,W,55.36,328.12,220810,,,A*49
$GPRMC,200400.000,A,3248.3309,N,11712.8750,W,55.37,326.78,220810,,,A*45
$GPRMC,200403.000,A,3248.3692,N,11712.9059,W,55.41,325.26,220810,,,A*47
$GPRMC,200406.000,A,3248.4074,N,11712.9375,W,55.60,324.36,220810,,,A*45
$GPRMC,200409.000,A,3248.4466,N,11712.9689,W,55.79,324.82,220810,,,A*4C
$GPRMC,200412.000,A,3248.4857,N,11713.0005,W,55.70,324.68,220810,,,A*4F
$GPRMC,200415.000,A,3248.5231,N,11713.0325,W,55.37,325.06,220810,,,A*48
$GPRMC,200418.000,A,3248.5609,N,11713.0638,W,55.43,325.72,220810,,,A*43
$GPRMC,200421.000,A,3248.5992,N,11713.0944,W,55.39,326.06,220810,,,A*4D
$GPRMC,200424.000,A,3248.6378,N,11713.1249,W,55.37,326.31,220810,,,A*48
$GPRMC,200427.000,A,3248.6760,N,11713.1554,W,54.85,325.75,220810,,,A*46
$GPRMC,200430.000,A,3248.7145,N,11713.1859,W,55.53,326.30,220810,,,A*48
$GPRMC,200433.000,A,3248.7526,N,11713.2162,W,54.73,326.46,220810,,,A*4A
$GPRMC,200436.000,A,3248.7925,N,11713.2443,W,54.82,329.05,220810,,,A*40
$GPRMC,200439.000,A,3248.8322,N,11713.2719,W,55.04,329.20,220810,,,A*49
$GPRMC,200442.000,A,3248.8715,N,11713.3003,W,55.53,328.10,220810,,,A*48
$GPRMC,200445.000,A,3248.9105,N,11713.3299,W,55.50,326.68,220810,,,A*4A
$GPRMC,200448.000,A,3248.9489,N,11713.3608,W,55.43,325.15,220810,,,A*41
$GPRMC,200451.000,A,3248.9870,N,11713.3924,W,55.57,324.88,220810,,,A*42
$GPRMC,200454.000,A,3249.0249,N,11713.4244,W,55.36,324.41,220810,,,A*47
$GPRMC,200457.000,A,3249.0610,N,11713.4585,W,55.39,321.41,220810,,,A*4C
$GPRMC,200500.000,A,3249.0964,N,11713.4939,W,54.98,318.85,220810,,,A*40
$GPRMC,200503.000,A,3249.1313,N,11713.5296,W,55.61,320.18,220810,,,A*4F
$GPRMC,200506.000,A,3249.1663,N,11713.5647,W,54.98,319.37,220810,,,A*40
$GPRMC,200509.000,A,3249.2013,N,11713.6005,W,55.38,319.20,220810,,,A*43
$GPRMC,200512.000,A,3249.2362,N,11713.6362,W,55.07,318.76,220810,,,A*40
$GPRMC,200515.000,A,3249.2703,N,11713.6718,W,54.81,318.70,220810,,,A*44
$GPRMC,200518.000,A,3249.3046,N,11713.7074,W,55.24,318.78,220810,,,A*44
$GPRMC,200521.000,A,3249.3398,N,11713.7434,W,55.52,319.03,220810,,,A*42
$GPRMC,200524.000,A,3249.3752,N,11713.7792,W,55.41,318.84,220810,,,A*46
$GPRMC,200527.000,A,3249.4104,N,11713.8153,W,55.49,318.95,220810,,,A*4B
$GPRMC,200530.000,A,3249.4473,N,11713.8495,W,55.50,323.83,220810,,,A*40
$GPRMC,200533.000,A,3249.4864,N,11713.8793,W,55.24,329.42,220810,,,A*48
$GPRMC,200536.000,A,3249.5278,N,11713.9044,W,55.21,334.89,220810,,,A*49
$GPRMC,200539.000,A,3249.5706,N,11713.9244,W,54.92,340.61,220810,,,A*44
$GPRMC,200542.000,A,3249.6148,N,11713.9393,W,55.36,346.21,220810,,,A*41
$GPRMC,200545.000,A,3249.6598,N,11713.9497,W,55.09,351.67,220810,,,A*44
$GPRMC,200548.000,A,3249.7058,N,11713.9541,W,54.67,357.42,220810,,,A*43
$GPRMC,200551.000,A,3249.7519,N,11713.9543,W,55.04,359.99,220810,,,A*45
$GPRMC,200554.000,A,3249.7982,N,11713.9542,W,55.33,359.73,220810,,,A*4F
$GPRMC,200557.000,A,3249.8442,N,11713.9541,W,54.10,359.86,220810,,,A*4B
$GPRMC,200600.000,A,3249.8877,N,11713.9537,W,50.90,0.70,220810,,,A*4B
$GPRMC,200603.000,A,3249.9296,N,11713.9531,W,50.07,359.74,220810,,,A*4F
$GPRMC,200606.000,A,3249.9707,N,11713.9539,W,48.83,357.83,220810,,,A*4C
$GPRMC,200609.000,A,3250.0104,N,11713.9569,W,46.76,355.11,220810,,,A*4F
$GPRMC,200612.000,A,3250.0493,N,11713.9617,W,47.10,353.00,220810,,,A*43
$GPRMC,200615.000,A,3250.0879,N,11713.9691,W,46.96,349.09,220810,,,A*4F
$GPRMC,200618.000,A,3250.1262,N,11713.9801,W,47.35,344.73,220810,,,A*4C
$GPRMC,200621.000,A,3250.1641,N,11713.9936,W,47.93,343.03,220810,,,A*4A
$GPRMC,200624.000,A,3250.2023,N,11714.0074,W,47.14,342.98,220810,,,A*43
$GPRMC,200627.000,A,3250.2363,N,11714.0198,W,38.49,343.05,220810,,,A*41
$GPRMC,200630.000,A,3250.2625,N,11714.0316,W,30.86,334.10,220810,,,A*4B
$GPRMC,200633.000,A,3250.2826,N,11714.0482,W,29.38,320.78,220810,,,A*49
$GPRMC,200636.000,A,3250.2983,N,11714.0682,W,25.80,310.20,220810,,,A*41
$GPRMC,200639.000,A,3250.3079,N,11714.0850,W,16.45,301.61,220810,,,A*4E
$GPRMC,200642.000,A,3250.3126,N,11714.0968,W,11.29,297.97,220810,,,A*49
$GPRMC,200645.000,A,3250.3158,N,11714.1052,W,8.57,297.66,220810,,,A*79
$GPRMC,200648.000,A,3250.3189,N,11714.1129,W,8.86,298.00,220810,,,A*76
$GPRMC,200651.000,A,3250.3226,N,11714.1217,W,11.84,298.83,220810,,,A*47
$GPRMC,200654.000,A,3250.3270,N,11714.1319,W,10.73,297.31,220810,,,A*41
$GPRMC,200657.000,A,3250.3303,N,11714.1396,W,7.07,298.67,220810,,,A*79
$GPRMC,200700.000,A,3250.3325,N,11714.1447,W,5.17,296.60,220810,,,A*7F
$GPRMC,200706.000,A,3250.3357,N,11714.1522,W,4.42,298.11,220810,,,A*77
$GPRMC,200724.000,A,3250.3466,N,11714.1720,W,6.97,300.05,220810,,,A*7D
$GPRMC,200751.000,A,3250.3613,N,11714.1932,W,6.00,320.13,220810,,,A*79
$GPRMC,200754.000,A,3250.3655,N,11714.1972,W,5.41,321.68,220810,,,A*71
$GPRMC,200757.000,A,3250.3688,N,11714.1998,W,4.38,321.83,220810,,,A*7C
$GPRMC,200800.000,A,3250.3726,N,11714.2028,W,6.25,323.94,220810,,,A*7F
$GPRMC,200803.000,A,3250.3784,N,11714.2075,W,7.98,325.60,220810,,,A*76
$GPRMC,200806.000,A,3250.3829,N,11714.2111,W,4.45,325.06,220810,,,A*7B
$GPRMC,200815.000,A,3250.3882,N,11714.2146,W,4.45,325.02,220810,,,A*7E
$GPRMC,200827.000,A,3250.3976,N,11714.2215,W,4.46,325.29,220810,,,A*7A
$GPRMC,200851.000,A,3250.4143,N,11714.2377,W,5.76,324.58,220810,,,A*72
$GPRMC,200903.000,A,3250.4247,N,11714.2493,W,4.44,322.98,220810,,,A*74
$GPRMC,200906.000,A,3250.4283,N,11714.2526,W,6.62,322.30,220810,,,A*72
$GPRMC,200909.000,A,3250.4335,N,11714.2577,W,8.47,320.32,220810,,,A*7C
$GPRMC,200912.000,A,3250.4391,N,11714.2633,W,9.42,317.94,220810,,,A*77
$GPRMC,200915.000,A,3250.4458,N,11714.2707,W,11.87,316.30,220810,,,A*4B
$GPRMC,200918.000,A,3250.4536,N,11714.2801,W,14.11,314.79,220810,,,A*43
$GPRMC,200921.000,A,3250.4621,N,11714.2906,W,16.03,313.88,220810,,,A*42
$GPRMC,200924.000,A,3250.4719,N,11714.3028,W,16.89,313.89,220810,,,A*4A
$GPRMC,200927.000,A,3250.4813,N,11714.3144,W,14.75,314.34,220810,,,A*47
$GPRMC,200930.000,A,3250.4890,N,11714.3234,W,10.94,314.57,220810,,,A*40
$GPRMC,200933.000,A,3250.4954,N,11714.3306,W,10.67,314.70,220810,,,A*43
$GPRMC,200936.000,A,3250.5018,N,11714.3381,W,11.02,314.21,220810,,,A*4F
$GPRMC,200939.000,A,3250.5085,N,11714.3462,W,12.05,314.08,220810,,,A*41
$GPRMC,200942.000,A,3250.5155,N,11714.3544,W,10.78,314.61,220810,,,A*43
$GPRMC,200945.000,A,3250.5211,N,11714.3611,W,8.13,311.84,220810,,,A*7E
$GPRMC,200948.000,A,3250.5250,N,11714.3664,W,6.42,308.98,220810,,,A*7B
$GPRMC,200951.000,A,3250.5292,N,11714.3712,W,7.52,313.88,220810,,,A*76
$GPRMC,200954.000,A,3250.5339,N,11714.3765,W,8.21,314.78,220810,,,A*70
$GPRMC,200957.000,A,3250.5394,N,11714.3827,W,9.39,315.98,220810,,,A*7A
$GPRMC,201000.000,A,3250.5452,N,11714.3895,W,9.84,314.90,220810,,,A*7B
$GPRMC,201003.000,A,3250.5507,N,11714.3962,W,8.85,311.68,220810,,,A*72
$GPRMC,201006.000,A,3250.5535,N,11714.4013,W,5.32,306.49,220810,,,A*7A
$GPRMC,201030.000,A,3250.5606,N,11714.4105,W,9.56,316.73,220810,,,A*7C
$GPRMC,201033.000,A,3250.5682,N,11714.4167,W,9.91,317.46,220810,,,A*7B
$GPRMC,201036.000,A,3250.5745,N,11714.4221,W,7.30,319.37,220810,,,A*78
$GPRMC,201039.000,A,3250.5792,N,11714.4264,W,7.20,318.64,220810,,,A*7A
$GPRMC,201042.000,A,3250.5849,N,11714.4316,W,9.09,319.91,220810,,,A*75
$GPRMC,201045.000,A,3250.5922,N,11714.4378,W,10.23,321.41,220810,,,A*40
$GPRMC,201048.000,A,3250.5991,N,11714.4436,W,9.93,323.57,220810,,,A*7E
$GPRMC,201051.000,A,3250.6076,N,11714.4507,W,15.06,324.68,220810,,,A*4C
$GPRMC,201054.000,A,3250.6183,N,11714.4593,W,15.21,325.77,220810,,,A*45
$GPRMC,201057.000,A,3250.6290,N,11714.4675,W,14.79,327.29,220810,,,A*49
$GPRMC,201100.000,A,3250.6368,N,11714.4734,W,8.11,327.59,220810,,,A*7C
$GPRMC,201103.000,A,3250.6410,N,11714.4765,W,5.63,325.79,220810,,,A*7B
$GPRMC,201106.000,A,3250.6456,N,11714.4803,W,7.75,325.92,220810,,,A*73
$GPRMC,201109.000,A,3250.6525,N,11714.4857,W,11.40,327.01,220810,,,A*41
$GPRMC,201112.000,A,3250.6602,N,11714.4918,W,9.32,326.84,220810,,,A*77
$GPRMC,201115.000,A,3250.6654,N,11714.4959,W,6.39,325.72,220810,,,A*78
$GPRMC,201118.000,A,3250.6696,N,11714.4996,W,6.30,327.33,220810,,,A*76
$GPRMC,201206.000,A,3250.6809,N,11714.5102,W,5.19,324.97,220810,,,A*73
$GPRMC,201236.000,A,3250.6919,N,11714.5189,W,5.62,326.26,220810,,,A*77
$GPRMC,201239.000,A,3250.6964,N,11714.5224,W,7.00,326.54,220810,,,A*75
$GPRMC,201242.000,A,3250.7017,N,11714.5265,W,7.80,326.17,220810,,,A*7F
$GPRMC,201245.000,A,3250.7080,N,11714.5315,W,9.92,325.08,220810,,,A*70
$GPRMC,201248.000,A,3250.7158,N,11714.5379,W,11.91,323.98,220810,,,A*46
$GPRMC,201251.000,A,3250.7250,N,11714.5457,W,14.29,323.14,220810,,,A*4C
$GPRMC,201254.000,A,3250.7354,N,11714.5549,W,15.69,321.79,220810,,,A*4E
$GPRMC,201257.000,A,3250.7452,N,11714.5642,W,13.89,319.42,220810,,,A*4F
$GPRMC,201300.000,A,3250.7526,N,11714.5718,W,10.42,317.85,220810,,,A*41
$GPRMC,201303.000,A,3250.7592,N,11714.5789,W,10.56,317.14,220810,,,A*48
$GPRMC,201306.000,A,3250.7652,N,11714.5853,W,9.29,317.35,220810,,,A*79
$GPRMC,201309.000,A,3250.7708,N,11714.5920,W,9.15,313.04,220810,,,A*74
$GPRMC,201312.000,A,3250.7759,N,11714.5982,W,8.76,313.16,220810,,,A*75
$GPRMC,201315.000,A,3250.7804,N,11714.6040,W,7.76,311.58,220810,,,A*76
$GPRMC,201318.000,A,3250.7845,N,11714.6095,W,6.35,309.96,220810,,,A*7B
$GPRMC,201321.000,A,3250.7881,N,11714.6145,W,6.56,310.21,220810,,,A*74
$GPRMC,201451.000,A,3250.8002,N,11714.6317,W,5.05,305.96,220810,,,A*70
$GPRMC,201454.000,A,3250.8034,N,11714.6360,W,6.54,306.47,220810,,,A*78
$GPRMC,201457.000,A,3250.8070,N,11714.6423,W,7.52,304.19,220810,,,A*75
$GPRMC,201500.000,A,3250.8111,N,11714.6502,W,9.19,305.30,220810,,,A*79
$GPRMC,201503.000,A,3250.8160,N,11714.6589,W,9.61,303.94,220810,,,A*78
$GPRMC,201506.000,A,3250.8202,N,11714.6671,W,9.16,300.92,220810,,,A*7B
$GPRMC,201509.000,A,3250.8244,N,11714.6759,W,10.20,299.40,220810,,,A*4E
$GPRMC,201512.000,A,3250.8284,N,11714.6849,W,9.55,298.49,220810,,,A*74
$GPRMC,201515.000,A,3250.8325,N,11714.6940,W,10.65,297.98,220810,,,A*49
$GPRMC,201518.000,A,3250.8360,N,11714.7021,W,6.97,297.87,220810,,,A*7E
$GPRMC,201639.000,A,3250.8475,N,11714.7283,W,6.00,295.97,220810,,,A*7A
$GPRMC,201642.000,A,3250.8501,N,11714.7340,W,6.04,299.22,220810,,,A*7C
$GPRMC,201706.000,A,3250.8590,N,11714.7524,W,4.69,295.09,220810,,,A*7D
$GPRMC,201709.000,A,3250.8607,N,11714.7567,W,5.01,295.18,220810,,,A*77
$GPRMC,201715.000,A,3250.8639,N,11714.7649,W,5.13,298.24,220810,,,A*79
$GPRMC,201718.000,A,3250.8659,N,11714.7697,W,5.35,296.24,220810,,,A*7B
$GPRMC,201721.000,A,3250.8676,N,11714.7744,W,4.69,294.67,220810,,,A*7E
$GPRMC,201842.000,A,3250.8756,N,11714.7961,W,4.79,295.78,220810,,,A*70
$GPRMC,201845.000,A,3250.8772,N,11714.8015,W,5.74,295.96,220810,,,A*78
$GPRMC,201848.000,A,3250.8800,N,11714.8071,W,7.68,297.58,220810,,,A*72
$GPRMC,201851.000,A,3250.8834,N,11714.8157,W,11.04,297.86,220810,,,A*46
$GPRMC,201854.000,A,3250.8883,N,11714.8268,W,13.38,297.16,220810,,,A*44
$GPRMC,201857.000,A,3250.8936,N,11714.8391,W,13.04,296.83,220810,,,A*4D
$GPRMC,201900.000,A,3250.8985,N,11714.8502,W,11.69,296.98,220810,,,A*49
$GPRMC,201903.000,A,3250.9027,N,11714.8591,W,9.82,297.87,220810,,,A*73
$GPRMC,201906.000,A,3250.9065,N,11714.8677,W,9.46,295.52,220810,,,A*79
$GPRMC,201909.000,A,3250.9101,N,11714.8762,W,9.69,295.16,220810,,,A*7D
$GPRMC,201912.000,A,3250.9140,N,11714.8853,W,9.42,296.37,220810,,,A*76
$GPRMC,201915.000,A,3250.9171,N,11714.8921,W,6.39,296.43,220810,,,A*77
$GPRMC,201921.000,A,3250.9204,N,11714.8995,W,5.24,295.14,220810,,,A*70
$GPRMC,201924.000,A,3250.9228,N,11714.9048,W,5.81,297.21,220810,,,A*78
$GPRMC,201927.000,A,3250.9253,N,11714.9100,W,5.52,296.95,220810,,,A*7A
$GPRMC,201930.000,A,3250.9279,N,11714.9156,W,6.43,296.58,220810,,,A*75
$GPRMC,201933.000,A,3250.9308,N,11714.9220,W,7.54,296.94,220810,,,A*74
$GPRMC,201936.000,A,3250.9339,N,11714.9285,W,5.95,298.40,220810,,,A*74
$GPRMC,202209.000,A,3250.9457,N,11714.9514,W,4.71,298.05,220810,,,A*7A
$GPRMC,202212.000,A,3250.9480,N,11714.9562,W,6.14,298.39,220810,,,A*75
$GPRMC,202215.000,A,3250.9507,N,11714.9621,W,7.29,298.59,220810,,,A*71
$GPRMC,202348.000,A,3250.9612,N,11714.9817,W,8.01,297.55,220810,,,A*72
$GPRMC,202351.000,A,3250.9663,N,11714.9927,W,15.36,298.67,220810,,,A*48
$GPRMC,202354.000,A,3250.9735,N,11715.0082,W,18.46,298.03,220810,,,A*49
$GPRMC,202357.000,A,3250.9813,N,11715.0255,W,20.12,297.57,220810,,,A*4D
$GPRMC,202400.000,A,3250.9894,N,11715.0445,W,21.96,296.58,220810,,,A*43
$GPRMC,202403.000,A,3250.9981,N,11715.0650,W,23.50,296.52,220810,,,A*41
$GPRMC,202406.000,A,3251.0075,N,11715.0868,W,24.75,296.74,220810,,,A*4F
$GPRMC,202409.000,A,3251.0176,N,11715.1091,W,23.59,295.12,220810,,,A*47
$GPRMC,202412.000,A,3251.0228,N,11715.1272,W,16.44,290.04,220810,,,A*42
$GPRMC,202415.000,A,3251.0261,N,11715.1407,W,11.96,286.32,220810,,,A*46
$GPRMC,202418.000,A,3251.0285,N,11715.1498,W,8.03,287.58,220810,,,A*7E
$GPRMC,202421.000,A,3251.0305,N,11715.1564,W,5.35,285.96,220810,,,A*77
$GPRMC,202509.000,A,3251.0273,N,11715.1803,W,5.08,275.10,220810,,,A*7F
$GPRMC,202512.000,A,3251.0273,N,11715.1886,W,10.99,274.65,220810,,,A*47
$GPRMC,202515.000,A,3251.0284,N,11715.2028,W,15.95,273.84,220810,,,A*46
$GPRMC,202518.000,A,3251.0296,N,11715.2227,W,23.73,273.75,220810,,,A*46
$GPRMC,202521.000,A,3251.0303,N,11715.2485,W,25.63,270.59,220810,,,A*45
$GPRMC,202524.000,A,3251.0296,N,11715.2747,W,26.35,266.50,220810,,,A*4E
$GPRMC,202527.000,A,3251.0261,N,11715.3014,W,27.25,257.12,220810,,,A*41
$GPRMC,202530.000,A,3251.0190,N,11715.3277,W,28.21,250.11,220810,,,A*42
$GPRMC,202533.000,A,3251.0099,N,11715.3565,W,33.03,249.96,220810,,,A*40
$GPRMC,202536.000,A,3250.9996,N,11715.3882,W,33.62,249.79,220810,,,A*49
$GPRMC,202539.000,A,3250.9909,N,11715.4192,W,31.21,254.82,220810,,,A*42
$GPRMC,202542.000,A,3250.9877,N,11715.4485,W,29.93,266.21,220810,,,A*4D
$GPRMC,202545.000,A,3250.9895,N,11715.4774,W,30.05,275.78,220810,,,A*42
$GPRMC,202548.000,A,3250.9929,N,11715.5094,W,34.03,272.17,220810,,,A*4D
$GPRMC,202551.000,A,3250.9917,N,11715.5440,W,36.01,264.46,220810,,,A*46
$GPRMC,202554.000,A,3250.9890,N,11715.5803,W,37.51,264.20,220810,,,A*42
$GPRMC,202557.000,A,3250.9859,N,11715.6175,W,37.27,264.16,220810,,,A*4B
$GPRMC,202600.000,A,3250.9825,N,11715.6535,W,35.65,262.61,220810,,,A*43
$GPRMC,202603.000,A,3250.9753,N,11715.6872,W,34.51,250.83,220810,,,A*4B
$GPRMC,202606.000,A,3250.9624,N,11715.7173,W,33.82,238.18,220810,,,A*43
$GPRMC,202609.000,A,3250.9453,N,11715.7448,W,34.32,234.62,220810,,,A*4E
$GPRMC,202612.000,A,3250.9292,N,11715.7733,W,34.67,240.52,220810,,,A*40
$GPRMC,202615.000,A,3250.9173,N,11715.8039,W,34.10,248.52,220810,,,A*41
$GPRMC,202618.000,A,3250.9073,N,11715.8353,W,34.41,249.72,220810,,,A*45
$GPRMC,202621.000,A,3250.8968,N,11715.8673,W,35.54,248.60,220810,,,A*4D
$GPRMC,202624.000,A,3250.8866,N,11715.8994,W,33.24,250.82,220810,,,A*45
$GPRMC,202627.000,A,3250.8798,N,11715.9297,W,31.84,257.35,220810,,,A*42
$GPRMC,202630.000,A,3250.8748,N,11715.9611,W,32.59,259.20,220810,,,A*4A
$GPRMC,202633.000,A,3250.8672,N,11715.9917,W,30.91,247.99,220810,,,A*43
$GPRMC,202636.000,A,3250.8556,N,11716.0166,W,27.24,235.07,220810,,,A*4D
$GPRMC,202639.000,A,3250.8428,N,11716.0342,W,19.92,224.40,220810,,,A*4D
$GPRMC,202642.000,A,3250.8360,N,11716.0418,W,6.04,222.60,220810,,,A*77
$GPRMC,202736.000,A,3250.8363,N,11716.0402,W,6.68,229.52,220810,,,A*7D
$GPRMC,202739.000,A,3250.8281,N,11716.0492,W,16.80,224.16,220810,,,A*4C
$GPRMC,202742.000,A,3250.8143,N,11716.0632,W,24.54,220.51,220810,,,A*4A
$GPRMC,202745.000,A,3250.7969,N,11716.0813,W,29.24,221.67,220810,,,A*41
$GPRMC,202748.000,A,3250.7791,N,11716.1011,W,28.01,222.41,220810,,,A*4F
$GPRMC,202751.000,A,3250.7652,N,11716.1151,W,16.82,217.80,220810,,,A*41
$GPRMC,202754.000,A,3250.7607,N,11716.1189,W,5.61,206.33,220810,,,A*76
$GPRMC,202757.000,A,3250.7526,N,11716.1160,W,13.93,140.56,220810,,,A*4A
$GPRMC,202800.000,A,3250.7423,N,11716.1007,W,21.24,131.42,220810,,,A*4D
$GPRMC,202803.000,A,3250.7310,N,11716.0851,W,18.69,132.04,220810,,,A*41
$GPRMC,202806.000,A,3250.7226,N,11716.0751,W,9.27,132.01,220810,,,A*70
$GPRMC,202812.000,A,3250.7162,N,11716.0683,W,9.52,131.21,220810,,,A*7B
$GPRMC,202815.000,A,3250.7088,N,11716.0591,W,16.55,133.24,220810,,,A*47
$GPRMC,202818.000,A,3250.6986,N,11716.0454,W,19.86,132.89,220810,,,A*43
