NMEA Sentence Code,UTC Time,Status,Latitude,Latitude Direction,Longitude,Longitude Direction,Speed (knots),Track Angle (degrees true),Date,MagneticVariation,Magnetic Variation Direction,[FAA Mode]-Optional,Checksum
$GPRMC,190711.000,A,3339.6639,N,11543.4267,W,10.30,177.76,060910,,,A*4A
$GPRMC,190714.000,A,3339.6563,N,11543.4277,W,8.62,202.46,060910,,,A*7E
$GPRMC,190717.000,A,3339.6510,N,11543.4355,W,13.06,247.45,060910,,,A*42
$GPRMC,190720.000,A,3339.6472,N,11543.4504,W,18.21,253.54,060910,,,A*4A
$GPRMC,190723.000,A,3339.6419,N,11543.4710,W,23.97,254.19,060910,,,A*48
$GPRMC,190726.000,A,3339.6352,N,11543.4973,W,29.21,254.11,060910,,,A*41
$GPRMC,190729.000,A,3339.6278,N,11543.5284,W,34.23,256.31,060910,,,A*4B
$GPRMC,190732.000,A,3339.6217,N,11543.5648,W,38.83,260.98,060910,,,A*4C
$GPRMC,190735.000,A,3339.6174,N,11543.6051,W,41.44,264.70,060910,,,A*47
$GPRMC,190738.000,A,3339.6153,N,11543.6478,W,43.88,267.87,060910,,,A*49
$GPRMC,190741.000,A,3339.6138,N,11543.6935,W,46.72,267.79,060910,,,A*4F
$GPRMC,190744.000,A,3339.6125,N,11543.7418,W,49.17,269.21,060910,,,A*4A
$GPRMC,190747.000,A,3339.6120,N,11543.7920,W,50.54,269.39,060910,,,A*4C
$GPRMC,190750.000,A,3339.6120,N,11543.8441,W,53.15,270.11,060910,,,A*4B
$GPRMC,190753.000,A,3339.6124,N,11543.8992,W,55.83,270.17,060910,,,A*40
$GPRMC,190756.000,A,3339.6130,N,11543.9565,W,57.84,270.15,060910,,,A*42
$GPRMC,190759.000,A,3339.6133,N,11544.0153,W,58.75,270.09,060910,,,A*4D
$GPRMC,190802.000,A,3339.6137,N,11544.0745,W,59.25,270.44,060910,,,A*44
$GPRMC,190805.000,A,3339.6140,N,11544.1341,W,59.71,270.16,060910,,,A*44
$GPRMC,190808.000,A,3339.6142,N,11544.1942,W,60.17,270.02,060910,,,A*4D
$GPRMC,190811.000,A,3339.6145,N,11544.2547,W,60.76,270.35,060910,,,A*4B
$GPRMC,190814.000,A,3339.6150,N,11544.3160,W,61.82,270.13,060910,,,A*44
$GPRMC,190817.000,A,3339.6152,N,11544.3785,W,62.86,270.08,060910,,,A*45
$GPRMC,190820.000,A,3339.6155,N,11544.4416,W,63.28,270.29,060910,,,A*4E
$GPRMC,190823.000,A,3339.6159,N,11544.5051,W,63.59,270.37,060910,,,A*4E
$GPRMC,190826.000,A,3339.6160,N,11544.5687,W,63.89,270.02,060910,,,A*47
$GPRMC,190829.000,A,3339.6162,N,11544.6325,W,63.61,270.05,060910,,,A*45
$GPRMC,190832.000,A,3339.6164,N,11544.6957,W,62.91,270.21,060910,,,A*4E
$GPRMC,190835.000,A,3339.6167,N,11544.7587,W,63.10,270.09,060910,,,A*48
$GPRMC,190838.000,A,3339.6172,N,11544.8217,W,62.98,270.09,060910,,,A*41
$GPRMC,190841.000,A,3339.6174,N,11544.8847,W,63.21,270.03,060910,,,A*4F
$GPRMC,190844.000,A,3339.6177,N,11544.9480,W,63.72,270.15,060910,,,A*4E
$GPRMC,190847.000,A,3339.6179,N,11545.0119,W,64.31,270.33,060910,,,A*4A
$GPRMC,190850.000,A,3339.6182,N,11545.0765,W,64.99,270.08,060910,,,A*4F
$GPRMC,190853.000,A,3339.6184,N,11545.1416,W,65.58,270.22,060910,,,A*48
$GPRMC,190856.000,A,3339.6186,N,11545.2072,W,65.53,270.06,060910,,,A*47
$GPRMC,190859.000,A,3339.6187,N,11545.2722,W,64.78,269.92,060910,,,A*46
$GPRMC,190902.000,A,3339.6189,N,11545.3363,W,63.85,270.27,060910,,,A*44
$GPRMC,190905.000,A,3339.6192,N,11545.3999,W,63.85,270.07,060910,,,A*44
$GPRMC,190908.000,A,3339.6193,N,11545.4630,W,62.52,270.08,060910,,,A*47
$GPRMC,190911.000,A,3339.6195,N,11545.5251,W,62.30,270.14,060910,,,A*42
$GPRMC,190914.000,A,3339.6197,N,11545.5873,W,62.54,270.25,060910,,,A*4F
$GPRMC,190917.000,A,3339.6199,N,11545.6497,W,62.68,269.95,060910,,,A*4B
$GPRMC,190920.000,A,3339.6200,N,11545.7122,W,62.34,270.08,060910,,,A*43
$GPRMC,190923.000,A,3339.6202,N,11545.7737,W,61.05,270.25,060910,,,A*4E
$GPRMC,190926.000,A,3339.6204,N,11545.8344,W,60.89,270.00,060910,,,A*40
$GPRMC,190929.000,A,3339.6205,N,11545.8955,W,61.64,270.02,060910,,,A*44
$GPRMC,190932.000,A,3339.6206,N,11545.9574,W,62.34,270.05,060910,,,A*42
$GPRMC,190935.000,A,3339.6211,N,11546.0198,W,62.46,270.44,060910,,,A*4F
$GPRMC,190938.000,A,3339.6212,N,11546.0815,W,61.71,269.71,060910,,,A*44
$GPRMC,190941.000,A,3339.6212,N,11546.1431,W,61.67,270.04,060910,,,A*4C
$GPRMC,190944.000,A,3339.6213,N,11546.2046,W,61.58,269.93,060910,,,A*45
$GPRMC,190947.000,A,3339.6215,N,11546.2660,W,61.60,270.16,060910,,,A*4C
$GPRMC,190950.000,A,3339.6218,N,11546.3275,W,61.72,270.29,060910,,,A*49
$GPRMC,190953.000,A,3339.6223,N,11546.3893,W,62.06,270.09,060910,,,A*42
$GPRMC,190956.000,A,3339.6226,N,11546.4514,W,62.33,270.19,060910,,,A*40
$GPRMC,190959.000,A,3339.6229,N,11546.5138,W,62.71,269.88,060910,,,A*4D
$GPRMC,191002.000,A,3339.6231,N,11546.5765,W,62.84,270.00,060910,,,A*4E
$GPRMC,191005.000,A,3339.6233,N,11546.6387,W,61.85,270.01,060910,,,A*43
$GPRMC,191008.000,A,3339.6235,N,11546.7003,W,61.78,270.10,060910,,,A*44
$GPRMC,191011.000,A,3339.6238,N,11546.7623,W,62.61,270.21,060910,,,A*4C
$GPRMC,191014.000,A,3339.6238,N,11546.8245,W,61.64,269.84,060910,,,A*43
$GPRMC,191017.000,A,3339.6239,N,11546.8857,W,61.08,270.00,060910,,,A*46
$GPRMC,191020.000,A,3339.6240,N,11546.9464,W,60.43,269.99,060910,,,A*47
$GPRMC,191023.000,A,3339.6242,N,11547.0060,W,59.57,269.94,060910,,,A*4C
$GPRMC,191026.000,A,3339.6243,N,11547.0655,W,59.88,270.11,060910,,,A*4F
$GPRMC,191029.000,A,3339.6246,N,11547.1256,W,60.66,270.04,060910,,,A*4D
$GPRMC,191032.000,A,3339.6246,N,11547.1864,W,60.81,269.77,060910,,,A*49
$GPRMC,191035.000,A,3339.6247,N,11547.2466,W,59.93,270.33,060910,,,A*43
$GPRMC,191038.000,A,3339.6250,N,11547.3061,W,59.53,269.96,060910,,,A*41
$GPRMC,191041.000,A,3339.6251,N,11547.3654,W,59.42,269.93,060910,,,A*4B
$GPRMC,191044.000,A,3339.6252,N,11547.4247,W,59.63,270.10,060910,,,A*4C
$GPRMC,191047.000,A,3339.6255,N,11547.4847,W,60.65,270.26,060910,,,A*4B
$GPRMC,191050.000,A,3339.6254,N,11547.5457,W,61.51,269.68,060910,,,A*44
$GPRMC,191053.000,A,3339.6256,N,11547.6075,W,61.97,270.07,060910,,,A*49
$GPRMC,191056.000,A,3339.6258,N,11547.6684,W,60.32,270.17,060910,,,A*45
$GPRMC,191059.000,A,3339.6259,N,11547.7280,W,58.89,269.84,060910,,,A*43
$GPRMC,191102.000,A,3339.6260,N,11547.7858,W,57.30,270.01,060910,,,A*41
$GPRMC,191105.000,A,3339.6261,N,11547.8424,W,56.05,269.96,060910,,,A*4E
$GPRMC,191108.000,A,3339.6266,N,11547.8971,W,53.90,272.59,060910,,,A*49
$GPRMC,191111.000,A,3339.6297,N,11547.9469,W,45.64,274.35,060910,,,A*4A
$GPRMC,191114.000,A,3339.6328,N,11547.9879,W,37.78,275.41,060910,,,A*4D
$GPRMC,191117.000,A,3339.6381,N,11548.0227,W,34.67,284.39,060910,,,A*46
$GPRMC,191120.000,A,3339.6474,N,11548.0541,W,33.04,294.00,060910,,,A*41
$GPRMC,191123.000,A,3339.6600,N,11548.0817,W,30.73,297.87,060910,,,A*42
$GPRMC,191126.000,A,3339.6712,N,11548.1045,W,22.97,298.19,060910,,,A*4A
$GPRMC,191129.000,A,3339.6787,N,11548.1196,W,14.30,299.44,060910,,,A*47
$GPRMC,191132.000,A,3339.6832,N,11548.1271,W,6.23,312.36,060910,,,A*70
$GPRMC,191135.000,A,3339.6857,N,11548.1299,W,5.78,323.08,060910,,,A*70
$GPRMC,191138.000,A,3339.6929,N,11548.1317,W,12.15,356.89,060910,,,A*44
$GPRMC,191141.000,A,3339.7049,N,11548.1316,W,16.66,359.45,060910,,,A*4A
$GPRMC,191144.000,A,3339.7201,N,11548.1315,W,19.81,359.82,060910,,,A*4F
$GPRMC,191147.000,A,3339.7374,N,11548.1313,W,21.20,0.03,060910,,,A*4F
$GPRMC,191150.000,A,3339.7555,N,11548.1311,W,21.70,0.25,060910,,,A*4F
$GPRMC,191153.000,A,3339.7740,N,11548.1310,W,22.55,359.32,060910,,,A*46
$GPRMC,191156.000,A,3339.7937,N,11548.1310,W,24.24,0.15,060910,,,A*47
$GPRMC,191159.000,A,3339.8148,N,11548.1307,W,25.80,0.39,060910,,,A*40
$GPRMC,191202.000,A,3339.8373,N,11548.1306,W,27.43,359.79,060910,,,A*40
$GPRMC,191205.000,A,3339.8609,N,11548.1305,W,28.62,0.05,060910,,,A*44
$GPRMC,191208.000,A,3339.8853,N,11548.1304,W,28.94,0.26,060910,,,A*41
$GPRMC,191211.000,A,3339.9082,N,11548.1302,W,26.01,0.04,060910,,,A*48
$GPRMC,191214.000,A,3339.9301,N,11548.1295,W,26.55,1.96,060910,,,A*41
$GPRMC,191217.000,A,3339.9531,N,11548.1285,W,28.27,1.57,060910,,,A*40
$GPRMC,191220.000,A,3339.9777,N,11548.1274,W,30.02,2.32,060910,,,A*44
$GPRMC,191223.000,A,3340.0035,N,11548.1262,W,31.22,1.69,060910,,,A*48
$GPRMC,191226.000,A,3340.0299,N,11548.1252,W,31.62,2.10,060910,,,A*43
$GPRMC,191229.000,A,3340.0568,N,11548.1238,W,32.16,2.40,060910,,,A*4C
$GPRMC,191232.000,A,3340.0838,N,11548.1225,W,32.19,2.17,060910,,,A*4F
$GPRMC,191235.000,A,3340.1106,N,11548.1212,W,31.48,2.02,060910,,,A*4A
$GPRMC,191238.000,A,3340.1366,N,11548.1201,W,30.88,2.06,060910,,,A*48
$GPRMC,191241.000,A,3340.1626,N,11548.1190,W,31.16,2.09,060910,,,A*45
$GPRMC,191244.000,A,3340.1888,N,11548.1177,W,31.46,2.61,060910,,,A*48
$GPRMC,191247.000,A,3340.2155,N,11548.1164,W,32.00,2.13,060910,,,A*47
$GPRMC,191250.000,A,3340.2424,N,11548.1153,W,32.23,2.04,060910,,,A*41
$GPRMC,191253.000,A,3340.2696,N,11548.1139,W,32.60,2.47,060910,,,A*45
$GPRMC,191256.000,A,3340.2967,N,11548.1127,W,31.92,1.96,060910,,,A*4F
$GPRMC,191259.000,A,3340.3231,N,11548.1116,W,31.27,2.05,060910,,,A*4C
$GPRMC,191302.000,A,3340.3492,N,11548.1105,W,31.09,1.99,060910,,,A*44
$GPRMC,191305.000,A,3340.3751,N,11548.1094,W,30.91,2.12,060910,,,A*46
$GPRMC,191308.000,A,3340.4009,N,11548.1082,W,30.51,1.88,060910,,,A*4D
$GPRMC,191311.000,A,3340.4263,N,11548.1071,W,30.27,2.45,060910,,,A*44
$GPRMC,191314.000,A,3340.4509,N,11548.1060,W,28.07,1.80,060910,,,A*4B
$GPRMC,191317.000,A,3340.4729,N,11548.1052,W,24.96,1.96,060910,,,A*4A
$GPRMC,191320.000,A,3340.4931,N,11548.1037,W,23.59,7.24,060910,,,A*41
$GPRMC,191323.000,A,3340.5104,N,11548.1005,W,18.37,10.55,060910,,,A*7C
$GPRMC,191326.000,A,3340.5216,N,11548.0979,W,10.00,7.76,060910,,,A*41
$GPRMC,191441.000,A,3340.5274,N,11548.0968,W,4.48,3.33,060910,,,A*7F
$GPRMC,191444.000,A,3340.5339,N,11548.0960,W,10.01,6.11,060910,,,A*47
$GPRMC,191447.000,A,3340.5446,N,11548.0941,W,14.63,10.46,060910,,,A*7D
$GPRMC,191450.000,A,3340.5590,N,11548.0914,W,19.15,6.73,060910,,,A*4C
$GPRMC,191453.000,A,3340.5772,N,11548.0900,W,23.25,1.11,060910,,,A*4D
$GPRMC,191456.000,A,3340.5986,N,11548.0907,W,26.85,356.14,060910,,,A*41
$GPRMC,191459.000,A,3340.6227,N,11548.0931,W,29.86,354.88,060910,,,A*43
$GPRMC,191502.000,A,3340.6489,N,11548.0960,W,32.55,354.72,060910,,,A*4B
$GPRMC,191505.000,A,3340.6773,N,11548.0991,W,34.86,354.86,060910,,,A*47
$GPRMC,191508.000,A,3340.7072,N,11548.1024,W,36.01,354.57,060910,,,A*4A
$GPRMC,191511.000,A,3340.7378,N,11548.1059,W,36.66,354.21,060910,,,A*41
$GPRMC,191514.000,A,3340.7690,N,11548.1098,W,37.30,354.47,060910,,,A*48
$GPRMC,191517.000,A,3340.8007,N,11548.1127,W,38.31,356.63,060910,,,A*43
$GPRMC,191520.000,A,3340.8332,N,11548.1144,W,39.29,357.70,060910,,,A*4C
$GPRMC,191523.000,A,3340.8660,N,11548.1157,W,38.28,357.94,060910,,,A*45
$GPRMC,191526.000,A,3340.8974,N,11548.1173,W,36.79,357.59,060910,,,A*47
$GPRMC,191529.000,A,3340.9279,N,11548.1189,W,35.90,357.55,060910,,,A*42
$GPRMC,191532.000,A,3340.9577,N,11548.1207,W,35.34,356.59,060910,,,A*47
$GPRMC,191535.000,A,3340.9857,N,11548.1230,W,31.75,356.21,060910,,,A*45
$GPRMC,191538.000,A,3341.0105,N,11548.1250,W,28.19,356.51,060910,,,A*4D
$GPRMC,191541.000,A,3341.0337,N,11548.1268,W,27.56,356.23,060910,,,A*4A
$GPRMC,191544.000,A,3341.0557,N,11548.1285,W,25.01,356.44,060910,,,A*4D
$GPRMC,191547.000,A,3341.0758,N,11548.1300,W,24.57,356.72,060910,,,A*48
$GPRMC,191550.000,A,3341.0961,N,11548.1312,W,23.90,357.45,060910,,,A*40
$GPRMC,191553.000,A,3341.1155,N,11548.1323,W,23.43,357.63,060910,,,A*45
$GPRMC,191556.000,A,3341.1357,N,11548.1330,W,25.31,358.74,060910,,,A*48
$GPRMC,191559.000,A,3341.1580,N,11548.1333,W,27.81,359.47,060910,,,A*40
$GPRMC,191602.000,A,3341.1823,N,11548.1334,W,29.95,0.08,060910,,,A*41
$GPRMC,191605.000,A,3341.2084,N,11548.1333,W,31.76,359.62,060910,,,A*40
$GPRMC,191608.000,A,3341.2358,N,11548.1336,W,33.27,359.71,060910,,,A*4E
$GPRMC,191611.000,A,3341.2644,N,11548.1338,W,34.57,359.50,060910,,,A*43
$GPRMC,191614.000,A,3341.2940,N,11548.1339,W,35.75,359.91,060910,,,A*40
$GPRMC,191617.000,A,3341.3246,N,11548.1338,W,36.84,0.23,060910,,,A*45
$GPRMC,191620.000,A,3341.3556,N,11548.1338,W,36.38,359.98,060910,,,A*4F
$GPRMC,191623.000,A,3341.3856,N,11548.1339,W,35.35,359.89,060910,,,A*4E
$GPRMC,191626.000,A,3341.4151,N,11548.1340,W,34.94,359.42,060910,,,A*41
$GPRMC,191629.000,A,3341.4443,N,11548.1347,W,34.91,357.94,060910,,,A*4F
$GPRMC,191632.000,A,3341.4736,N,11548.1366,W,34.94,356.37,060910,,,A*4A
$GPRMC,191635.000,A,3341.5027,N,11548.1391,W,35.13,355.66,060910,,,A*4A
$GPRMC,191638.000,A,3341.5323,N,11548.1418,W,36.41,355.58,060910,,,A*4F
$GPRMC,191641.000,A,3341.5634,N,11548.1446,W,37.90,355.91,060910,,,A*41
$GPRMC,191644.000,A,3341.5957,N,11548.1474,W,39.34,355.66,060910,,,A*47
$GPRMC,191647.000,A,3341.6288,N,11548.1504,W,39.59,355.59,060910,,,A*4F
$GPRMC,191650.000,A,3341.6617,N,11548.1536,W,38.87,355.49,060910,,,A*49
$GPRMC,191653.000,A,3341.6929,N,11548.1564,W,35.59,355.92,060910,,,A*47
$GPRMC,191656.000,A,3341.7213,N,11548.1589,W,33.24,355.99,060910,,,A*45
$GPRMC,191659.000,A,3341.7487,N,11548.1613,W,32.45,355.67,060910,,,A*46
$GPRMC,191702.000,A,3341.7762,N,11548.1639,W,33.72,355.16,060910,,,A*4A
$GPRMC,191705.000,A,3341.8049,N,11548.1666,W,34.91,356.47,060910,,,A*4B
$GPRMC,191708.000,A,3341.8345,N,11548.1680,W,36.01,359.52,060910,,,A*41
$GPRMC,191711.000,A,3341.8652,N,11548.1672,W,36.95,2.35,060910,,,A*46
$GPRMC,191714.000,A,3341.8967,N,11548.1654,W,37.89,3.01,060910,,,A*44
$GPRMC,191717.000,A,3341.9290,N,11548.1633,W,38.77,3.01,060910,,,A*4A
$GPRMC,191720.000,A,3341.9619,N,11548.1612,W,39.58,2.90,060910,,,A*4D
$GPRMC,191723.000,A,3341.9954,N,11548.1591,W,39.86,3.39,060910,,,A*41
$GPRMC,191726.000,A,3342.0282,N,11548.1567,W,38.62,3.19,060910,,,A*4E
$GPRMC,191729.000,A,3342.0604,N,11548.1546,W,38.53,3.05,060910,,,A*47
$GPRMC,191732.000,A,3342.0928,N,11548.1528,W,38.74,1.82,060910,,,A*4C
$GPRMC,191735.000,A,3342.1250,N,11548.1538,W,38.27,354.60,060910,,,A*46
$GPRMC,191738.000,A,3342.1561,N,11548.1610,W,38.30,344.08,060910,,,A*4E
$GPRMC,191741.000,A,3342.1864,N,11548.1747,W,38.95,335.14,060910,,,A*4F
$GPRMC,191744.000,A,3342.2158,N,11548.1933,W,39.50,331.08,060910,,,A*43
$GPRMC,191747.000,A,3342.2442,N,11548.2115,W,37.55,333.78,060910,,,A*4F
$GPRMC,191750.000,A,3342.2731,N,11548.2253,W,37.14,342.58,060910,,,A*4E
$GPRMC,191753.000,A,3342.3034,N,11548.2347,W,37.47,347.28,060910,,,A*4E
$GPRMC,191756.000,A,3342.3339,N,11548.2426,W,37.62,348.18,060910,,,A*4E
$GPRMC,191759.000,A,3342.3646,N,11548.2502,W,37.72,348.20,060910,,,A*41
$GPRMC,191802.000,A,3342.3957,N,11548.2579,W,38.16,348.50,060910,,,A*49
$GPRMC,191805.000,A,3342.4272,N,11548.2656,W,38.78,348.34,060910,,,A*41
$GPRMC,191808.000,A,3342.4592,N,11548.2733,W,39.40,348.49,060910,,,A*47
$GPRMC,191811.000,A,3342.4916,N,11548.2819,W,39.85,346.70,060910,,,A*45
$GPRMC,191814.000,A,3342.5240,N,11548.2920,W,40.29,344.84,060910,,,A*43
$GPRMC,191817.000,A,3342.5568,N,11548.3025,W,40.75,345.22,060910,,,A*44
$GPRMC,191820.000,A,3342.5899,N,11548.3132,W,41.14,344.61,060910,,,A*44
$GPRMC,191823.000,A,3342.6231,N,11548.3242,W,40.67,344.51,060910,,,A*4E
$GPRMC,191826.000,A,3342.6548,N,11548.3348,W,38.36,344.43,060910,,,A*41
$GPRMC,191829.000,A,3342.6852,N,11548.3437,W,36.67,348.41,060910,,,A*43
$GPRMC,191832.000,A,3342.7154,N,11548.3483,W,36.40,356.56,060910,,,A*44
$GPRMC,191835.000,A,3342.7459,N,11548.3500,W,35.73,357.63,060910,,,A*45
$GPRMC,191838.000,A,3342.7755,N,11548.3533,W,35.69,350.12,060910,,,A*4D
$GPRMC,191841.000,A,3342.8049,N,11548.3638,W,37.85,336.86,060910,,,A*43
$GPRMC,191844.000,A,3342.8316,N,11548.3835,W,37.21,321.81,060910,,,A*43
$GPRMC,191847.000,A,3342.8528,N,11548.4095,W,36.49,309.14,060910,,,A*47
$GPRMC,191850.000,A,3342.8713,N,11548.4385,W,36.68,307.56,060910,,,A*42
$GPRMC,191853.000,A,3342.8896,N,11548.4670,W,34.82,309.15,060910,,,A*43
$GPRMC,191856.000,A,3342.9093,N,11548.4899,W,31.66,324.51,060910,,,A*43
$GPRMC,191859.000,A,3342.9334,N,11548.5031,W,32.28,344.31,060910,,,A*40
$GPRMC,191902.000,A,3342.9605,N,11548.5064,W,33.02,0.23,060910,,,A*41
$GPRMC,191905.000,A,3342.9889,N,11548.5057,W,34.34,358.86,060910,,,A*4F
$GPRMC,191908.000,A,3343.0176,N,11548.5101,W,34.64,345.27,060910,,,A*43
$GPRMC,191911.000,A,3343.0441,N,11548.5241,W,35.11,327.98,060910,,,A*4E
$GPRMC,191914.000,A,3343.0668,N,11548.5464,W,36.20,317.93,060910,,,A*4A
$GPRMC,191917.000,A,3343.0888,N,11548.5711,W,36.13,316.58,060910,,,A*4E
$GPRMC,191920.000,A,3343.1105,N,11548.5959,W,35.41,316.89,060910,,,A*4D
$GPRMC,191923.000,A,3343.1314,N,11548.6199,W,33.96,317.07,060910,,,A*40
$GPRMC,191926.000,A,3343.1527,N,11548.6430,W,35.65,319.13,060910,,,A*44
$GPRMC,191929.000,A,3343.1766,N,11548.6673,W,39.26,320.14,060910,,,A*4F
$GPRMC,191932.000,A,3343.2027,N,11548.6933,W,41.18,320.89,060910,,,A*49
$GPRMC,191935.000,A,3343.2288,N,11548.7196,W,40.75,320.52,060910,,,A*43
$GPRMC,191938.000,A,3343.2547,N,11548.7457,W,40.54,320.22,060910,,,A*46
$GPRMC,191941.000,A,3343.2806,N,11548.7718,W,40.58,320.04,060910,,,A*40
$GPRMC,191944.000,A,3343.3063,N,11548.7977,W,40.02,320.31,060910,,,A*41
$GPRMC,191947.000,A,3343.3320,N,11548.8225,W,38.59,321.98,060910,,,A*46
$GPRMC,191950.000,A,3343.3588,N,11548.8432,W,37.13,331.49,060910,,,A*48
$GPRMC,191953.000,A,3343.3877,N,11548.8576,W,37.47,341.47,060910,,,A*4F
$GPRMC,191956.000,A,3343.4180,N,11548.8681,W,37.13,344.24,060910,,,A*46
$GPRMC,191959.000,A,3343.4470,N,11548.8785,W,34.84,340.74,060910,,,A*4A
$GPRMC,192002.000,A,3343.4710,N,11548.8952,W,32.72,319.29,060910,,,A*44
$GPRMC,192005.000,A,3343.4871,N,11548.9213,W,33.59,296.59,060910,,,A*4D
$GPRMC,192008.000,A,3343.4974,N,11548.9536,W,34.97,289.30,060910,,,A*40
$GPRMC,192011.000,A,3343.5070,N,11548.9865,W,33.62,291.16,060910,,,A*4F
$GPRMC,192014.000,A,3343.5200,N,11549.0154,W,32.85,306.38,060910,,,A*47
$GPRMC,192017.000,A,3343.5394,N,11549.0398,W,33.63,313.35,060910,,,A*4A
$GPRMC,192020.000,A,3343.5563,N,11549.0647,W,30.60,300.88,060910,,,A*43
$GPRMC,192023.000,A,3343.5643,N,11549.0929,W,29.65,283.04,060910,,,A*45
$GPRMC,192026.000,A,3343.5684,N,11549.1228,W,30.81,278.78,060910,,,A*4D
$GPRMC,192029.000,A,3343.5707,N,11549.1540,W,31.81,274.25,060910,,,A*44
$GPRMC,192032.000,A,3343.5727,N,11549.1866,W,33.50,274.83,060910,,,A*47
$GPRMC,192035.000,A,3343.5752,N,11549.2195,W,32.90,276.77,060910,,,A*40
$GPRMC,192038.000,A,3343.5816,N,11549.2509,W,31.81,292.75,060910,,,A*48
$GPRMC,192041.000,A,3343.5979,N,11549.2753,W,31.27,318.73,060910,,,A*4A
$GPRMC,192044.000,A,3343.6225,N,11549.2905,W,34.13,337.01,060910,,,A*49
$GPRMC,192047.000,A,3343.6505,N,11549.3038,W,35.92,337.06,060910,,,A*46
$GPRMC,192050.000,A,3343.6783,N,11549.3176,W,35.39,336.97,060910,,,A*4F
$GPRMC,192053.000,A,3343.7055,N,11549.3313,W,34.28,337.05,060910,,,A*4B
$GPRMC,192056.000,A,3343.7320,N,11549.3442,W,34.23,339.06,060910,,,A*4A
$GPRMC,192059.000,A,3343.7592,N,11549.3522,W,32.48,354.24,060910,,,A*4D
$GPRMC,192102.000,A,3343.7857,N,11549.3484,W,31.97,15.71,060910,,,A*7C
$GPRMC,192105.000,A,3343.8096,N,11549.3349,W,31.33,31.39,060910,,,A*73
$GPRMC,192108.000,A,3343.8317,N,11549.3168,W,32.10,33.83,060910,,,A*74
$GPRMC,192111.000,A,3343.8537,N,11549.2984,W,31.99,34.00,060910,,,A*7D
$GPRMC,192114.000,A,3343.8761,N,11549.2797,W,32.68,34.39,060910,,,A*72
$GPRMC,192117.000,A,3343.8988,N,11549.2608,W,32.40,34.19,060910,,,A*77
$GPRMC,192120.000,A,3343.9205,N,11549.2434,W,30.23,32.11,060910,,,A*78
$GPRMC,192123.000,A,3343.9434,N,11549.2297,W,30.68,20.20,060910,,,A*7E
$GPRMC,192126.000,A,3343.9686,N,11549.2220,W,31.21,11.37,060910,,,A*74
$GPRMC,192129.000,A,3343.9940,N,11549.2168,W,30.27,9.28,060910,,,A*41
$GPRMC,192132.000,A,3344.0182,N,11549.2143,W,27.73,358.49,060910,,,A*4D
$GPRMC,192135.000,A,3344.0398,N,11549.2214,W,26.90,332.56,060910,,,A*4C
$GPRMC,192138.000,A,3344.0575,N,11549.2402,W,29.80,308.13,060910,,,A*43
$GPRMC,192141.000,A,3344.0688,N,11549.2688,W,32.99,289.05,060910,,,A*41
$GPRMC,192144.000,A,3344.0776,N,11549.3029,W,36.62,288.50,060910,,,A*49
$GPRMC,192147.000,A,3344.0892,N,11549.3382,W,37.45,297.25,060910,,,A*45
$GPRMC,192150.000,A,3344.1058,N,11549.3705,W,37.33,307.29,060910,,,A*42
$GPRMC,192153.000,A,3344.1276,N,11549.3976,W,37.43,319.32,060910,,,A*47
$GPRMC,192156.000,A,3344.1539,N,11549.4187,W,37.32,330.14,060910,,,A*46
$GPRMC,192159.000,A,3344.1830,N,11549.4335,W,37.48,342.42,060910,,,A*4D
$GPRMC,192202.000,A,3344.2145,N,11549.4407,W,37.95,353.03,060910,,,A*4B
$GPRMC,192205.000,A,3344.2461,N,11549.4443,W,37.91,353.83,060910,,,A*43
$GPRMC,192208.000,A,3344.2774,N,11549.4490,W,37.75,350.09,060910,,,A*4C
$GPRMC,192211.000,A,3344.3087,N,11549.4575,W,38.81,345.06,060910,,,A*4B
$GPRMC,192214.000,A,3344.3406,N,11549.4680,W,39.96,344.56,060910,,,A*49
$GPRMC,192217.000,A,3344.3723,N,11549.4785,W,38.98,344.54,060910,,,A*47
$GPRMC,192220.000,A,3344.4037,N,11549.4890,W,38.61,344.26,060910,,,A*4E
$GPRMC,192223.000,A,3344.4343,N,11549.5007,W,38.77,339.95,060910,,,A*4F
$GPRMC,192226.000,A,3344.4649,N,11549.5152,W,39.54,337.63,060910,,,A*43
$GPRMC,192229.000,A,3344.4956,N,11549.5308,W,39.91,336.20,060910,,,A*4F
$GPRMC,192232.000,A,3344.5257,N,11549.5474,W,39.53,333.98,060910,,,A*4A
$GPRMC,192235.000,A,3344.5556,N,11549.5653,W,40.38,333.58,060910,,,A*43
$GPRMC,192238.000,A,3344.5859,N,11549.5832,W,39.95,333.92,060910,,,A*4A
$GPRMC,192241.000,A,3344.6157,N,11549.6002,W,38.23,335.60,060910,,,A*4F
$GPRMC,192244.000,A,3344.6442,N,11549.6147,W,36.00,338.59,060910,,,A*43
$GPRMC,192247.000,A,3344.6722,N,11549.6269,W,35.46,341.56,060910,,,A*4A
$GPRMC,192250.000,A,3344.7003,N,11549.6373,W,34.57,343.81,060910,,,A*4A
$GPRMC,192253.000,A,3344.7275,N,11549.6464,W,33.59,345.51,060910,,,A*49
$GPRMC,192256.000,A,3344.7543,N,11549.6536,W,32.10,349.05,060910,,,A*49
$GPRMC,192259.000,A,3344.7789,N,11549.6586,W,28.62,351.39,060910,,,A*41
$GPRMC,192302.000,A,3344.8010,N,11549.6607,W,25.48,0.39,060910,,,A*4E
$GPRMC,192305.000,A,3344.8222,N,11549.6570,W,26.10,14.63,060910,,,A*7D
$GPRMC,192308.000,A,3344.8417,N,11549.6449,W,26.63,36.99,060910,,,A*7A
$GPRMC,192311.000,A,3344.8558,N,11549.6249,W,26.06,58.25,060910,,,A*72
$GPRMC,192314.000,A,3344.8602,N,11549.6013,W,24.56,89.20,060910,,,A*78
$GPRMC,192317.000,A,3344.8552,N,11549.5753,W,26.97,104.42,060910,,,A*42
$GPRMC,192320.000,A,3344.8516,N,11549.5475,W,27.91,89.74,060910,,,A*77
$GPRMC,192323.000,A,3344.8577,N,11549.5218,W,25.64,61.04,060910,,,A*77
$GPRMC,192326.000,A,3344.8696,N,11549.5032,W,21.06,47.15,060910,,,A*70
$GPRMC,192329.000,A,3344.8804,N,11549.4907,W,15.07,42.22,060910,,,A*73
$GPRMC,192332.000,A,3344.8863,N,11549.4820,W,8.95,69.19,060910,,,A*4A
$GPRMC,192335.000,A,3344.8857,N,11549.4743,W,7.79,102.19,060910,,,A*71
$GPRMC,192338.000,A,3344.8869,N,11549.4666,W,10.11,51.49,060910,,,A*7D
$GPRMC,192341.000,A,3344.8942,N,11549.4601,W,11.59,31.21,060910,,,A*7F
$GPRMC,192344.000,A,3344.9019,N,11549.4554,W,8.71,20.88,060910,,,A*4E
$GPRMC,192347.000,A,3344.9077,N,11549.4532,W,6.36,20.97,060910,,,A*46
$GPRMC,192350.000,A,3344.9134,N,11549.4508,W,7.83,21.24,060910,,,A*49
$GPRMC,192353.000,A,3344.9178,N,11549.4468,W,6.05,73.42,060910,,,A*4D
$GPRMC,192711.000,A,3344.9196,N,11549.4458,W,6.99,18.28,060910,,,A*48
$GPRMC,192714.000,A,3344.9266,N,11549.4431,W,9.60,18.57,060910,,,A*4F
$GPRMC,192717.000,A,3344.9344,N,11549.4422,W,8.73,343.49,060910,,,A*7E
$GPRMC,192720.000,A,3344.9398,N,11549.4472,W,6.53,308.50,060910,,,A*75
$GPRMC,192726.000,A,3344.9482,N,11549.4485,W,8.78,27.99,060910,,,A*4B
$GPRMC,192729.000,A,3344.9566,N,11549.4420,W,13.55,34.18,060910,,,A*7E
$GPRMC,192732.000,A,3344.9674,N,11549.4331,W,16.62,35.00,060910,,,A*7A
$GPRMC,192735.000,A,3344.9806,N,11549.4223,W,20.72,34.40,060910,,,A*75
$GPRMC,192738.000,A,3344.9962,N,11549.4094,W,23.54,35.11,060910,,,A*77
$GPRMC,192741.000,A,3345.0134,N,11549.3947,W,25.99,37.41,060910,,,A*7A
$GPRMC,192744.000,A,3345.0314,N,11549.3778,W,27.98,38.81,060910,,,A*7D
$GPRMC,192747.000,A,3345.0502,N,11549.3593,W,29.38,39.99,060910,,,A*74
$GPRMC,192750.000,A,3345.0693,N,11549.3396,W,30.44,41.45,060910,,,A*77
$GPRMC,192753.000,A,3345.0881,N,11549.3195,W,29.25,41.41,060910,,,A*73
$GPRMC,192756.000,A,3345.1060,N,11549.3003,W,27.65,42.25,060910,,,A*75
$GPRMC,192759.000,A,3345.1235,N,11549.2824,W,27.62,36.21,060910,,,A*74
$GPRMC,192802.000,A,3345.1447,N,11549.2695,W,29.39,17.94,060910,,,A*7F
$GPRMC,192805.000,A,3345.1700,N,11549.2658,W,31.59,0.29,060910,,,A*46
$GPRMC,192808.000,A,3345.1975,N,11549.2683,W,33.73,352.16,060910,,,A*43
$GPRMC,192811.000,A,3345.2256,N,11549.2752,W,34.21,346.95,060910,,,A*41
$GPRMC,192814.000,A,3345.2535,N,11549.2826,W,33.60,350.25,060910,,,A*44
$GPRMC,192817.000,A,3345.2816,N,11549.2848,W,34.14,3.51,060910,,,A*41
$GPRMC,192820.000,A,3345.3097,N,11549.2765,W,34.99,23.33,060910,,,A*76
$GPRMC,192823.000,A,3345.3366,N,11549.2599,W,37.17,28.73,060910,,,A*73
$GPRMC,192826.000,A,3345.3649,N,11549.2410,W,39.86,29.07,060910,,,A*7A
$GPRMC,192829.000,A,3345.3951,N,11549.2203,W,42.36,30.76,060910,,,A*7E
$GPRMC,192832.000,A,3345.4253,N,11549.1976,W,42.34,32.87,060910,,,A*7E
$GPRMC,192835.000,A,3345.4547,N,11549.1732,W,42.45,35.91,060910,,,A*73
$GPRMC,192838.000,A,3345.4832,N,11549.1483,W,41.62,34.48,060910,,,A*7B
$GPRMC,192841.000,A,3345.5125,N,11549.1260,W,41.17,31.36,060910,,,A*7E
$GPRMC,192844.000,A,3345.5420,N,11549.1051,W,40.79,29.89,060910,,,A*7F
$GPRMC,192847.000,A,3345.5722,N,11549.0861,W,40.74,25.44,060910,,,A*77
$GPRMC,192850.000,A,3345.6035,N,11549.0697,W,40.89,22.56,060910,,,A*72
$GPRMC,192853.000,A,3345.6351,N,11549.0538,W,41.20,23.39,060910,,,A*7C
$GPRMC,192856.000,A,3345.6668,N,11549.0370,W,41.51,24.73,060910,,,A*73
$GPRMC,192859.000,A,3345.6983,N,11549.0191,W,41.68,26.14,060910,,,A*72
$GPRMC,192902.000,A,3345.7289,N,11548.9989,W,41.94,31.99,060910,,,A*74
$GPRMC,192905.000,A,3345.7579,N,11548.9750,W,42.29,35.55,060910,,,A*70
$GPRMC,192908.000,A,3345.7867,N,11548.9498,W,42.87,36.67,060910,,,A*7E
$GPRMC,192911.000,A,3345.8158,N,11548.9241,W,43.50,35.32,060910,,,A*76
$GPRMC,192914.000,A,3345.8464,N,11548.8999,W,44.15,32.52,060910,,,A*71
$GPRMC,192917.000,A,3345.8777,N,11548.8765,W,43.52,31.75,060910,,,A*7C
$GPRMC,192920.000,A,3345.9085,N,11548.8542,W,42.68,30.42,060910,,,A*79
$GPRMC,192923.000,A,3345.9404,N,11548.8348,W,42.98,24.05,060910,,,A*72
$GPRMC,192926.000,A,3345.9736,N,11548.8167,W,44.38,25.90,060910,,,A*7B
$GPRMC,192929.000,A,3346.0068,N,11548.7954,W,45.59,29.76,060910,,,A*77
$GPRMC,192932.000,A,3346.0403,N,11548.7722,W,46.54,30.36,060910,,,A*79
$GPRMC,192935.000,A,3346.0732,N,11548.7484,W,45.44,32.32,060910,,,A*74
$GPRMC,192938.000,A,3346.1034,N,11548.7220,W,44.17,40.58,060910,,,A*7F
$GPRMC,192941.000,A,3346.1315,N,11548.6931,W,44.79,38.81,060910,,,A*78
$GPRMC,192944.000,A,3346.1623,N,11548.6672,W,45.64,33.20,060910,,,A*78
$GPRMC,192947.000,A,3346.1948,N,11548.6423,W,46.12,32.56,060910,,,A*7D
$GPRMC,192950.000,A,3346.2272,N,11548.6171,W,46.41,34.12,060910,,,A*78
$GPRMC,192953.000,A,3346.2590,N,11548.5902,W,46.27,35.78,060910,,,A*72
$GPRMC,192956.000,A,3346.2895,N,11548.5630,W,44.79,39.45,060910,,,A*7A
$GPRMC,192959.000,A,3346.3167,N,11548.5328,W,44.92,44.36,060910,,,A*77
$GPRMC,193002.000,A,3346.3438,N,11548.5016,W,45.75,43.38,060910,,,A*71
$GPRMC,193005.000,A,3346.3712,N,11548.4694,W,46.46,46.06,060910,,,A*7B
$GPRMC,193008.000,A,3346.3981,N,11548.4356,W,47.27,46.43,060910,,,A*7E
$GPRMC,193011.000,A,3346.4245,N,11548.4004,W,47.73,49.47,060910,,,A*7C
$GPRMC,193014.000,A,3346.4508,N,11548.3644,W,48.32,47.75,060910,,,A*77
$GPRMC,193017.000,A,3346.4778,N,11548.3296,W,46.70,46.00,060910,,,A*71
$GPRMC,193020.000,A,3346.5055,N,11548.2970,W,46.66,44.23,060910,,,A*7A
$GPRMC,193023.000,A,3346.5325,N,11548.2635,W,46.59,47.56,060910,,,A*7E
$GPRMC,193026.000,A,3346.5585,N,11548.2290,W,46.87,48.54,060910,,,A*72
$GPRMC,193029.000,A,3346.5834,N,11548.1935,W,46.24,51.41,060910,,,A*78
$GPRMC,193032.000,A,3346.6074,N,11548.1581,W,45.06,49.50,060910,,,A*74
$GPRMC,193035.000,A,3346.6332,N,11548.1250,W,45.89,45.14,060910,,,A*72
$GPRMC,193038.000,A,3346.6611,N,11548.0931,W,46.81,42.77,060910,,,A*7F
$GPRMC,193041.000,A,3346.6899,N,11548.0619,W,45.80,42.61,060910,,,A*7F
$GPRMC,193044.000,A,3346.7171,N,11548.0308,W,44.48,44.01,060910,,,A*74
$GPRMC,193047.000,A,3346.7442,N,11548.0011,W,44.07,41.41,060910,,,A*73
$GPRMC,193050.000,A,3346.7721,N,11547.9721,W,44.41,40.98,060910,,,A*76
$GPRMC,193053.000,A,3346.8000,N,11547.9432,W,43.75,40.50,060910,,,A*7B
$GPRMC,193056.000,A,3346.8281,N,11547.9161,W,41.65,37.86,060910,,,A*7E
$GPRMC,193059.000,A,3346.8547,N,11547.8928,W,38.27,32.86,060910,,,A*75
$GPRMC,193102.000,A,3346.8825,N,11547.8764,W,35.68,19.89,060910,,,A*75
$GPRMC,193105.000,A,3346.9087,N,11547.8662,W,32.11,22.55,060910,,,A*74
$GPRMC,193108.000,A,3346.9309,N,11547.8488,W,32.75,40.84,060910,,,A*70
$GPRMC,193111.000,A,3346.9528,N,11547.8272,W,34.96,35.34,060910,,,A*7C
$GPRMC,193114.000,A,3346.9794,N,11547.8093,W,37.56,24.58,060910,,,A*74
$GPRMC,193117.000,A,3347.0085,N,11547.7954,W,36.80,21.97,060910,,,A*79
$GPRMC,193120.000,A,3347.0363,N,11547.7773,W,39.52,34.86,060910,,,A*79
$GPRMC,193123.000,A,3347.0642,N,11547.7529,W,42.38,35.77,060910,,,A*7E
$GPRMC,193126.000,A,3347.0938,N,11547.7294,W,42.51,31.15,060910,,,A*77
$GPRMC,193129.000,A,3347.1246,N,11547.7080,W,42.57,30.64,060910,,,A*7D
$GPRMC,193132.000,A,3347.1549,N,11547.6844,W,43.80,35.58,060910,,,A*7F
$GPRMC,193135.000,A,3347.1847,N,11547.6583,W,44.15,35.86,060910,,,A*75
$GPRMC,193138.000,A,3347.2152,N,11547.6338,W,44.00,30.97,060910,,,A*71
$GPRMC,193141.000,A,3347.2466,N,11547.6122,W,42.83,32.15,060910,,,A*71
$GPRMC,193144.000,A,3347.2754,N,11547.5866,W,43.46,40.12,060910,,,A*76
$GPRMC,193147.000,A,3347.3022,N,11547.5578,W,41.98,42.63,060910,,,A*75
$GPRMC,193150.000,A,3347.3248,N,11547.5320,W,34.27,44.59,060910,,,A*7F
$GPRMC,193153.000,A,3347.3450,N,11547.5107,W,32.38,34.75,060910,,,A*75
$GPRMC,193156.000,A,3347.3705,N,11547.4984,W,34.24,13.12,060910,,,A*7E
$GPRMC,193159.000,A,3347.3994,N,11547.4919,W,36.18,11.28,060910,,,A*75
$GPRMC,193202.000,A,3347.4297,N,11547.4849,W,37.26,12.81,060910,,,A*7F
$GPRMC,193205.000,A,3347.4592,N,11547.4762,W,36.73,16.00,060910,,,A*70
$GPRMC,193208.000,A,3347.4868,N,11547.4665,W,32.30,18.33,060910,,,A*7E
$GPRMC,193211.000,A,3347.5121,N,11547.4544,W,33.53,27.97,060910,,,A*75
$GPRMC,193214.000,A,3347.5361,N,11547.4363,W,33.78,34.81,060910,,,A*79
$GPRMC,193217.000,A,3347.5592,N,11547.4166,W,33.83,35.32,060910,,,A*7A
$GPRMC,193220.000,A,3347.5827,N,11547.3969,W,34.49,33.22,060910,,,A*7B
$GPRMC,193223.000,A,3347.6078,N,11547.3793,W,34.86,27.34,060910,,,A*73
