NMEA Sentence Code,UTC Time,Status,Latitude,Latitude Direction,Longitude,Longitude Direction,Speed (knots),Track Angle (degrees true),Date,MagneticVariation,Magnetic Variation Direction,[FAA Mode]-Optional,Checksum
$GPRMC,051129.0,A,3340.035530,N,11749.000201,W,67.9,112.5,210410,,,A*46
$GPRMC,051132.0,A,3340.013933,N,11748.937432,W,68.5,112.2,210410,,,A*49
$GPRMC,051135.0,A,3339.991983,N,11748.873723,W,69.4,112.7,210410,,,A*4F
$GPRMC,051138.0,A,3339.969935,N,11748.809400,W,70.3,112.0,210410,,,A*4F
$GPRMC,051141.0,A,3339.949658,N,11748.743544,W,70.3,108.7,210410,,,A*4B
$GPRMC,051144.0,A,3339.932586,N,11748.676495,W,70.0,106.1,210410,,,A*43
$GPRMC,051147.0,A,3339.918077,N,11748.608486,W,70.4,103.2,210410,,,A*4A
$GPRMC,051150.0,A,3339.906312,N,11748.539637,W,70.8,100.5,210410,,,A*42
$GPRMC,051153.0,A,3339.896256,N,11748.469496,W,71.4,99.5,210410,,,A*79
$GPRMC,051156.0,A,3339.887052,N,11748.398705,W,72.0,98.7,210410,,,A*7E
$GPRMC,051159.0,A,3339.877344,N,11748.327689,W,72.0,99.4,210410,,,A*79
$GPRMC,051202.0,A,3339.867182,N,11748.256859,W,71.8,99.9,210410,,,A*7F
$GPRMC,051205.0,A,3339.857436,N,11748.186189,W,71.3,99.6,210410,,,A*7F
$GPRMC,051208.0,A,3339.847164,N,11748.116259,W,70.9,100.0,210410,,,A*4A
$GPRMC,051211.0,A,3339.836884,N,11748.047284,W,69.6,99.9,210410,,,A*79
$GPRMC,051214.0,A,3339.827017,N,11747.978953,W,69.5,99.9,210410,,,A*76
$GPRMC,051217.0,A,3339.817701,N,11747.910723,W,69.0,99.3,210410,,,A*7E
$GPRMC,051220.0,A,3339.808032,N,11747.843247,W,68.2,99.8,210410,,,A*7B
$GPRMC,051223.0,A,3339.799462,N,11747.775902,W,68.0,99.1,210410,,,A*75
$GPRMC,051226.0,A,3339.790483,N,11747.709386,W,67.2,99.4,210410,,,A*73
$GPRMC,051229.0,A,3339.782079,N,11747.642790,W,67.2,99.4,210410,,,A*73
$GPRMC,051232.0,A,3339.773261,N,11747.576466,W,67.1,99.6,210410,,,A*73
$GPRMC,051235.0,A,3339.763808,N,11747.510333,W,67.7,99.9,210410,,,A*7E
$GPRMC,051238.0,A,3339.753908,N,11747.442480,W,70.6,100.7,210410,,,A*40
$GPRMC,051241.0,A,3339.743385,N,11747.370880,W,74.0,100.0,210410,,,A*4F
$GPRMC,051244.0,A,3339.731531,N,11747.297162,W,75.6,101.9,210410,,,A*44
$GPRMC,051247.0,A,3339.716157,N,11747.224315,W,74.6,106.8,210410,,,A*4B
$GPRMC,051250.0,A,3339.696068,N,11747.154395,W,73.3,111.1,210410,,,A*48
$GPRMC,051253.0,A,3339.671999,N,11747.088101,W,71.5,115.3,210410,,,A*48
$GPRMC,051256.0,A,3339.645241,N,11747.025272,W,70.2,119.6,210410,,,A*4B
$GPRMC,051259.0,A,3339.613902,N,11746.965958,W,69.9,123.5,210410,,,A*4D
$GPRMC,051302.0,A,3339.580833,N,11746.908581,W,69.3,124.3,210410,,,A*40
$GPRMC,051305.0,A,3339.547955,N,11746.851721,W,69.0,124.6,210410,,,A*4E
$GPRMC,051308.0,A,3339.514964,N,11746.794912,W,69.2,124.5,210410,,,A*4E
$GPRMC,051311.0,A,3339.482202,N,11746.737932,W,69.0,124.6,210410,,,A*49
$GPRMC,051314.0,A,3339.450063,N,11746.680932,W,69.1,123.4,210410,,,A*4F
$GPRMC,051317.0,A,3339.418269,N,11746.623740,W,68.7,124.2,210410,,,A*4C
$GPRMC,051320.0,A,3339.385770,N,11746.567157,W,68.3,124.2,210410,,,A*41
$GPRMC,051323.0,A,3339.353367,N,11746.510645,W,68.9,124.5,210410,,,A*42
$GPRMC,051326.0,A,3339.320681,N,11746.453710,W,69.1,124.6,210410,,,A*43
$GPRMC,051329.0,A,3339.287870,N,11746.396755,W,68.9,124.4,210410,,,A*44
$GPRMC,051332.0,A,3339.255963,N,11746.339730,W,69.0,123.6,210410,,,A*49
$GPRMC,051335.0,A,3339.225984,N,11746.281125,W,69.3,119.4,210410,,,A*48
$GPRMC,051338.0,A,3339.199544,N,11746.219548,W,69.8,115.4,210410,,,A*48
$GPRMC,051341.0,A,3339.176344,N,11746.155577,W,70.0,111.9,210410,,,A*4F
$GPRMC,051344.0,A,3339.157374,N,11746.089650,W,69.9,107.2,210410,,,A*41
$GPRMC,051347.0,A,3339.142015,N,11746.022532,W,69.5,103.7,210410,,,A*49
$GPRMC,051350.0,A,3339.130217,N,11745.954703,W,69.3,101.0,210410,,,A*42
$GPRMC,051353.0,A,3339.120372,N,11745.886282,W,69.0,100.0,210410,,,A*42
$GPRMC,051356.0,A,3339.110925,N,11745.819057,W,68.4,99.8,210410,,,A*7C
$GPRMC,051359.0,A,3339.101624,N,11745.752034,W,67.9,99.9,210410,,,A*7B
$GPRMC,051402.0,A,3339.092232,N,11745.685222,W,67.7,99.7,210410,,,A*74
$GPRMC,051405.0,A,3339.082732,N,11745.618742,W,67.5,99.8,210410,,,A*7D
$GPRMC,051408.0,A,3339.073292,N,11745.552654,W,67.1,100.1,210410,,,A*46
$GPRMC,051411.0,A,3339.061657,N,11745.486294,W,69.4,103.8,210410,,,A*41
$GPRMC,051414.0,A,3339.045778,N,11745.418989,W,69.4,108.1,210410,,,A*4C
$GPRMC,051417.0,A,3339.027336,N,11745.353359,W,68.9,109.3,210410,,,A*45
$GPRMC,051420.0,A,3339.008549,N,11745.288775,W,67.9,109.2,210410,,,A*41
$GPRMC,051423.0,A,3338.990133,N,11745.224915,W,67.2,109.1,210410,,,A*44
$GPRMC,051426.0,A,3338.971706,N,11745.162423,W,65.6,109.4,210410,,,A*44
$GPRMC,051429.0,A,3338.953780,N,11745.100856,W,65.4,109.2,210410,,,A*4B
$GPRMC,051432.0,A,3338.936017,N,11745.038872,W,66.1,108.8,210410,,,A*4A
$GPRMC,051435.0,A,3338.918369,N,11744.976545,W,65.6,108.8,210410,,,A*44
$GPRMC,051438.0,A,3338.900999,N,11744.914707,W,65.1,108.7,210410,,,A*4D
$GPRMC,051441.0,A,3338.883497,N,11744.853110,W,65.5,108.9,210410,,,A*42
$GPRMC,051444.0,A,3338.865619,N,11744.791342,W,65.7,109.4,210410,,,A*41
$GPRMC,051447.0,A,3338.847569,N,11744.729398,W,66.0,109.2,210410,,,A*40
$GPRMC,051450.0,A,3338.829452,N,11744.667178,W,66.3,109.5,210410,,,A*44
$GPRMC,051453.0,A,3338.810436,N,11744.603876,W,68.9,110.2,210410,,,A*41
$GPRMC,051456.0,A,3338.789055,N,11744.537451,W,72.8,111.1,210410,,,A*4F
$GPRMC,051459.0,A,3338.767789,N,11744.467516,W,75.4,109.2,210410,,,A*41
$GPRMC,051502.0,A,3338.747708,N,11744.394905,W,77.3,108.2,210410,,,A*44
$GPRMC,051505.0,A,3338.727154,N,11744.321993,W,76.5,109.1,210410,,,A*4E
$GPRMC,051508.0,A,3338.704088,N,11744.250619,W,76.7,113.5,210410,,,A*45
$GPRMC,051511.0,A,3338.673553,N,11744.183661,W,75.9,122.3,210410,,,A*44
$GPRMC,051514.0,A,3338.636333,N,11744.121908,W,75.2,128.8,210410,,,A*42
$GPRMC,051517.0,A,3338.593665,N,11744.067518,W,74.3,136.5,210410,,,A*47
$GPRMC,051520.0,A,3338.545521,N,11744.019465,W,73.4,143.6,210410,,,A*48
$GPRMC,051523.0,A,3338.495092,N,11743.978432,W,72.6,145.7,210410,,,A*45
$GPRMC,051526.0,A,3338.444768,N,11743.937082,W,72.8,145.1,210410,,,A*42
$GPRMC,051529.0,A,3338.394479,N,11743.895516,W,72.7,145.1,210410,,,A*4A
$GPRMC,051532.0,A,3338.344152,N,11743.854448,W,73.1,145.3,210410,,,A*43
$GPRMC,051535.0,A,3338.293840,N,11743.813566,W,72.5,145.8,210410,,,A*45
$GPRMC,051538.0,A,3338.243959,N,11743.773157,W,72.5,145.8,210410,,,A*43
$GPRMC,051541.0,A,3338.194228,N,11743.732738,W,71.9,145.8,210410,,,A*4C
$GPRMC,051544.0,A,3338.144638,N,11743.692792,W,71.3,146.1,210410,,,A*4A
$GPRMC,051547.0,A,3338.095343,N,11743.653428,W,70.6,146.1,210410,,,A*46
$GPRMC,051550.0,A,3338.046955,N,11743.614040,W,70.0,145.1,210410,,,A*4F
$GPRMC,051553.0,A,3338.000023,N,11743.572721,W,69.5,142.0,210410,,,A*4E
$GPRMC,051556.0,A,3337.955890,N,11743.527705,W,69.4,137.6,210410,,,A*4E
$GPRMC,051559.0,A,3337.913841,N,11743.479556,W,70.0,135.8,210410,,,A*41
$GPRMC,051602.0,A,3337.872247,N,11743.430653,W,70.2,135.6,210410,,,A*41
$GPRMC,051605.0,A,3337.830672,N,11743.381342,W,70.5,135.5,210410,,,A*4E
$GPRMC,051608.0,A,3337.788434,N,11743.332127,W,71.5,136.7,210410,,,A*46
$GPRMC,051611.0,A,3337.743318,N,11743.285124,W,72.0,140.9,210410,,,A*47
$GPRMC,051614.0,A,3337.695634,N,11743.240571,W,72.7,142.0,210410,,,A*42
$GPRMC,051617.0,A,3337.647945,N,11743.196068,W,72.3,142.1,210410,,,A*47
$GPRMC,051620.0,A,3337.600842,N,11743.152360,W,70.9,142.7,210410,,,A*4B
$GPRMC,051623.0,A,3337.554335,N,11743.109944,W,69.5,142.5,210410,,,A*45
$GPRMC,051626.0,A,3337.508809,N,11743.068393,W,68.0,142.5,210410,,,A*4F
$GPRMC,051629.0,A,3337.464517,N,11743.027391,W,66.0,142.1,210410,,,A*4A
$GPRMC,051632.0,A,3337.421239,N,11742.987545,W,65.1,142.6,210410,,,A*42
$GPRMC,051635.0,A,3337.377649,N,11742.947769,W,66.3,142.4,210410,,,A*41
$GPRMC,051638.0,A,3337.332902,N,11742.906294,W,69.1,142.4,210410,,,A*42
$GPRMC,051641.0,A,3337.286468,N,11742.863476,W,70.8,142.6,210410,,,A*48
$GPRMC,051644.0,A,3337.239664,N,11742.820678,W,70.3,142.5,210410,,,A*44
$GPRMC,051647.0,A,3337.193522,N,11742.778257,W,69.4,142.4,210410,,,A*40
$GPRMC,051650.0,A,3337.148132,N,11742.736591,W,68.5,142.4,210410,,,A*42
$GPRMC,051653.0,A,3337.103055,N,11742.694949,W,68.0,142.4,210410,,,A*4B
$GPRMC,051656.0,A,3337.058671,N,11742.654128,W,65.9,142.3,210410,,,A*41
$GPRMC,051659.0,A,3337.015626,N,11742.614111,W,65.3,142.0,210410,,,A*42
$GPRMC,051702.0,A,3336.973012,N,11742.573139,W,66.2,139.7,210410,,,A*45
$GPRMC,051705.0,A,3336.932230,N,11742.528656,W,66.5,136.2,210410,,,A*48
$GPRMC,051708.0,A,3336.892430,N,11742.482292,W,66.3,135.7,210410,,,A*45
$GPRMC,051711.0,A,3336.852461,N,11742.435260,W,68.0,135.4,210410,,,A*4A
$GPRMC,051714.0,A,3336.812059,N,11742.388212,W,66.6,135.7,210410,,,A*4B
$GPRMC,051717.0,A,3336.772658,N,11742.341959,W,66.4,135.5,210410,,,A*47
$GPRMC,051720.0,A,3336.733461,N,11742.295988,W,65.1,135.6,210410,,,A*4F
$GPRMC,051723.0,A,3336.694910,N,11742.250429,W,64.9,135.0,210410,,,A*4B
$GPRMC,051726.0,A,3336.657343,N,11742.203351,W,65.3,132.0,210410,,,A*4F
$GPRMC,051729.0,A,3336.622093,N,11742.152773,W,66.6,128.3,210410,,,A*41
$GPRMC,051732.0,A,3336.588599,N,11742.097291,W,70.1,124.0,210410,,,A*49
$GPRMC,051735.0,A,3336.556906,N,11742.035780,W,73.7,120.1,210410,,,A*4A
$GPRMC,051738.0,A,3336.527307,N,11741.969536,W,75.7,117.2,210410,,,A*47
$GPRMC,051741.0,A,3336.498980,N,11741.903267,W,72.5,117.1,210410,,,A*40
$GPRMC,051744.0,A,3336.471963,N,11741.839497,W,71.1,116.8,210410,,,A*41
$GPRMC,051747.0,A,3336.445606,N,11741.776452,W,70.6,116.9,210410,,,A*43
$GPRMC,051750.0,A,3336.418863,N,11741.713985,W,70.0,117.5,210410,,,A*4F
$GPRMC,051753.0,A,3336.391346,N,11741.652539,W,69.2,119.4,210410,,,A*4C
$GPRMC,051756.0,A,3336.362155,N,11741.593281,W,68.8,121.6,210410,,,A*4D
$GPRMC,051759.0,A,3336.330871,N,11741.535576,W,68.6,124.2,210410,,,A*46
$GPRMC,051802.0,A,3336.297794,N,11741.479869,W,68.3,126.5,210410,,,A*45
$GPRMC,051805.0,A,3336.262661,N,11741.425730,W,69.0,128.4,210410,,,A*44
$GPRMC,051808.0,A,3336.226410,N,11741.372305,W,68.4,129.0,210410,,,A*4A
$GPRMC,051811.0,A,3336.191360,N,11741.318926,W,67.5,126.8,210410,,,A*43
$GPRMC,051814.0,A,3336.159983,N,11741.264083,W,65.8,122.9,210410,,,A*43
$GPRMC,051817.0,A,3336.132237,N,11741.208622,W,64.3,119.1,210410,,,A*44
$GPRMC,051820.0,A,3336.107677,N,11741.151657,W,64.6,116.0,210410,,,A*40
$GPRMC,051823.0,A,3336.084657,N,11741.093404,W,64.8,115.1,210410,,,A*4C
$GPRMC,051826.0,A,3336.061870,N,11741.034991,W,64.6,115.2,210410,,,A*48
$GPRMC,051829.0,A,3336.039269,N,11740.976170,W,65.5,114.7,210410,,,A*47
$GPRMC,051832.0,A,3336.015959,N,11740.916610,W,66.5,115.0,210410,,,A*49
$GPRMC,051835.0,A,3335.992538,N,11740.856280,W,66.7,115.0,210410,,,A*4A
$GPRMC,051838.0,A,3335.969311,N,11740.796554,W,65.4,115.3,210410,,,A*40
$GPRMC,051841.0,A,3335.946315,N,11740.737462,W,65.1,115.2,210410,,,A*4C
$GPRMC,051844.0,A,3335.922072,N,11740.678384,W,66.7,117.8,210410,,,A*41
$GPRMC,051847.0,A,3335.891462,N,11740.619699,W,71.1,125.2,210410,,,A*4B
$GPRMC,051850.0,A,3335.854038,N,11740.562181,W,74.4,131.0,210410,,,A*49
$GPRMC,051853.0,A,3335.809143,N,11740.506458,W,78.9,136.3,210410,,,A*49
$GPRMC,051856.0,A,3335.759354,N,11740.454502,W,77.4,140.9,210410,,,A*43
$GPRMC,051859.0,A,3335.708520,N,11740.409401,W,74.1,145.3,210410,,,A*4E
$GPRMC,051902.0,A,3335.655223,N,11740.371089,W,75.9,152.0,210410,,,A*4C
$GPRMC,051905.0,A,3335.595429,N,11740.340753,W,78.3,158.8,210410,,,A*4F
$GPRMC,051908.0,A,3335.533297,N,11740.317347,W,77.1,165.1,210410,,,A*44
$GPRMC,051911.0,A,3335.470470,N,11740.302833,W,75.9,172.1,210410,,,A*45
$GPRMC,051914.0,A,3335.407236,N,11740.298111,W,75.5,179.4,210410,,,A*4D
$GPRMC,051917.0,A,3335.344842,N,11740.300404,W,73.8,181.2,210410,,,A*4C
$GPRMC,051920.0,A,3335.283640,N,11740.302124,W,72.7,180.5,210410,,,A*43
$GPRMC,051923.0,A,3335.223149,N,11740.303411,W,72.1,180.7,210410,,,A*42
$GPRMC,051926.0,A,3335.163016,N,11740.304639,W,71.8,180.8,210410,,,A*41
$GPRMC,051929.0,A,3335.103521,N,11740.305951,W,70.6,180.5,210410,,,A*4B
$GPRMC,051932.0,A,3335.044970,N,11740.307073,W,69.8,180.7,210410,,,A*44
$GPRMC,051935.0,A,3334.986704,N,11740.307696,W,69.9,179.8,210410,,,A*4D
$GPRMC,051938.0,A,3334.928495,N,11740.307978,W,69.5,180.4,210410,,,A*46
$GPRMC,051941.0,A,3334.870574,N,11740.309069,W,69.4,180.9,210410,,,A*41
$GPRMC,051944.0,A,3334.812455,N,11740.310447,W,69.8,180.7,210410,,,A*40
$GPRMC,051947.0,A,3334.754388,N,11740.311559,W,69.5,180.8,210410,,,A*44
$GPRMC,051950.0,A,3334.696435,N,11740.312549,W,69.0,180.8,210410,,,A*4B
$GPRMC,051953.0,A,3334.638902,N,11740.313455,W,68.9,180.8,210410,,,A*40
$GPRMC,051956.0,A,3334.581398,N,11740.314566,W,69.0,180.7,210410,,,A*4C
$GPRMC,051959.0,A,3334.523744,N,11740.315235,W,69.4,180.5,210410,,,A*48
$GPRMC,052002.0,A,3334.465456,N,11740.316004,W,70.1,180.7,210410,,,A*43
$GPRMC,052005.0,A,3334.406817,N,11740.316980,W,70.6,180.9,210410,,,A*44
$GPRMC,052008.0,A,3334.347340,N,11740.318227,W,71.9,180.8,210410,,,A*45
$GPRMC,052011.0,A,3334.286658,N,11740.318982,W,73.2,180.8,210410,,,A*40
$GPRMC,052014.0,A,3334.225149,N,11740.320329,W,73.7,180.9,210410,,,A*4F
$GPRMC,052017.0,A,3334.163600,N,11740.321984,W,73.6,182.0,210410,,,A*41
$GPRMC,052020.0,A,3334.102232,N,11740.326324,W,73.7,184.6,210410,,,A*41
$GPRMC,052023.0,A,3334.041208,N,11740.333591,W,73.5,186.3,210410,,,A*44
$GPRMC,052026.0,A,3333.980358,N,11740.342558,W,73.2,187.0,210410,,,A*40
$GPRMC,052029.0,A,3333.920069,N,11740.351384,W,72.3,187.2,210410,,,A*43
$GPRMC,052032.0,A,3333.860735,N,11740.360623,W,71.0,187.0,210410,,,A*4A
$GPRMC,052035.0,A,3333.802377,N,11740.369082,W,69.9,186.9,210410,,,A*47
$GPRMC,052038.0,A,3333.745017,N,11740.378255,W,68.4,188.1,210410,,,A*41
$GPRMC,052041.0,A,3333.690513,N,11740.388997,W,64.1,190.0,210410,,,A*4C
$GPRMC,052044.0,A,3333.638806,N,11740.400358,W,63.9,191.1,210410,,,A*43
$GPRMC,052047.0,A,3333.588756,N,11740.413389,W,57.0,192.9,210410,,,A*49
$GPRMC,052050.0,A,3333.554576,N,11740.422300,W,34.9,192.2,210410,,,A*4A
$GPRMC,052053.0,A,3333.538993,N,11740.427621,W,19.6,207.1,210410,,,A*4B
$GPRMC,052056.0,A,3333.526327,N,11740.447215,W,30.7,243.5,210410,,,A*4F
$GPRMC,052059.0,A,3333.517881,N,11740.481850,W,38.1,251.2,210410,,,A*4E
$GPRMC,052102.0,A,3333.508295,N,11740.517668,W,36.0,250.1,210410,,,A*46
$GPRMC,052105.0,A,3333.498488,N,11740.546088,W,25.9,242.1,210410,,,A*47
$GPRMC,052108.0,A,3333.489876,N,11740.564394,W,17.5,236.8,210410,,,A*4E
$GPRMC,052111.0,A,3333.483730,N,11740.576011,W,10.5,234.2,210410,,,A*43
$GPRMC,052114.0,A,3333.476197,N,11740.589333,W,21.7,235.1,210410,,,A*46
$GPRMC,052117.0,A,3333.461941,N,11740.613146,W,33.6,236.2,210410,,,A*42
$GPRMC,052120.0,A,3333.444719,N,11740.647048,W,44.1,242.1,210410,,,A*4B
$GPRMC,052123.0,A,3333.430180,N,11740.690570,W,48.7,252.5,210410,,,A*46
$GPRMC,052126.0,A,3333.420685,N,11740.739544,W,51.2,257.9,210410,,,A*41
$GPRMC,052129.0,A,3333.411773,N,11740.791148,W,54.3,257.0,210410,,,A*43
$GPRMC,052132.0,A,3333.403163,N,11740.844884,W,55.5,259.9,210410,,,A*43
$GPRMC,052135.0,A,3333.391219,N,11740.899802,W,56.7,250.4,210410,,,A*4D
$GPRMC,052138.0,A,3333.369606,N,11740.952025,W,58.0,238.6,210410,,,A*43
$GPRMC,052141.0,A,3333.340890,N,11740.997695,W,55.4,228.5,210410,,,A*48
$GPRMC,052144.0,A,3333.307514,N,11741.035071,W,53.9,219.8,210410,,,A*47
$GPRMC,052147.0,A,3333.272735,N,11741.067122,W,52.2,218.1,210410,,,A*44
$GPRMC,052150.0,A,3333.238384,N,11741.100525,W,53.9,221.1,210410,,,A*41
$GPRMC,052153.0,A,3333.205365,N,11741.138536,W,56.2,227.8,210410,,,A*4B
$GPRMC,052156.0,A,3333.176601,N,11741.184180,W,58.3,235.1,210410,,,A*45
$GPRMC,052159.0,A,3333.146629,N,11741.229890,W,58.2,227.8,210410,,,A*44
$GPRMC,052202.0,A,3333.110611,N,11741.269806,W,59.0,218.4,210410,,,A*49
$GPRMC,052205.0,A,3333.069007,N,11741.301329,W,58.6,207.8,210410,,,A*4C
$GPRMC,052208.0,A,3333.024283,N,11741.322240,W,57.1,198.5,210410,,,A*49
$GPRMC,052211.0,A,3332.978767,N,11741.339234,W,57.1,197.7,210410,,,A*4B
$GPRMC,052214.0,A,3332.933411,N,11741.356227,W,57.0,197.9,210410,,,A*47
$GPRMC,052217.0,A,3332.888433,N,11741.372823,W,56.3,197.1,210410,,,A*47
$GPRMC,052220.0,A,3332.843955,N,11741.389198,W,55.6,196.9,210410,,,A*4B
$GPRMC,052223.0,A,3332.798628,N,11741.403385,W,56.5,194.2,210410,,,A*46
$GPRMC,052226.0,A,3332.753262,N,11741.416476,W,55.7,194.0,210410,,,A*42
$GPRMC,052229.0,A,3332.709627,N,11741.430442,W,52.9,197.0,210410,,,A*4E
$GPRMC,052232.0,A,3332.669298,N,11741.449025,W,50.4,205.2,210410,,,A*4D
$GPRMC,052235.0,A,3332.634303,N,11741.471369,W,42.6,210.7,210410,,,A*41
$GPRMC,052238.0,A,3332.608204,N,11741.493623,W,33.5,218.7,210410,,,A*4F
$GPRMC,052241.0,A,3332.595194,N,11741.508213,W,15.7,221.1,210410,,,A*42
$GPRMC,052244.0,A,3332.585930,N,11741.518020,W,20.3,211.8,210410,,,A*4B
$GPRMC,052247.0,A,3332.564702,N,11741.515565,W,31.9,157.6,210410,,,A*44
$GPRMC,052250.0,A,3332.541651,N,11741.489992,W,41.6,134.7,210410,,,A*4E
$GPRMC,052253.0,A,3332.515847,N,11741.456538,W,48.0,132.5,210410,,,A*40
$GPRMC,052256.0,A,3332.488073,N,11741.418679,W,51.6,130.7,210410,,,A*4D
$GPRMC,052259.0,A,3332.459641,N,11741.379220,W,52.6,131.3,210410,,,A*47
$GPRMC,052302.0,A,3332.429373,N,11741.338022,W,55.5,133.1,210410,,,A*4A
$GPRMC,052305.0,A,3332.397338,N,11741.296370,W,56.6,133.7,210410,,,A*47
$GPRMC,052308.0,A,3332.364764,N,11741.254875,W,56.2,133.4,210410,,,A*4C
$GPRMC,052311.0,A,3332.332768,N,11741.214264,W,55.5,135.3,210410,,,A*40
$GPRMC,052314.0,A,3332.297378,N,11741.178316,W,55.2,144.9,210410,,,A*48
$GPRMC,052317.0,A,3332.257884,N,11741.148840,W,55.4,151.5,210410,,,A*4A
$GPRMC,052320.0,A,3332.215652,N,11741.125344,W,55.5,158.7,210410,,,A*43
$GPRMC,052323.0,A,3332.172178,N,11741.108647,W,52.8,166.8,210410,,,A*4C
$GPRMC,052326.0,A,3332.127630,N,11741.101053,W,54.5,175.4,210410,,,A*4D
$GPRMC,052329.0,A,3332.081193,N,11741.099686,W,55.4,180.0,210410,,,A*41
$GPRMC,052332.0,A,3332.034206,N,11741.099862,W,56.5,180.3,210410,,,A*4F
$GPRMC,052335.0,A,3331.986044,N,11741.100490,W,58.5,180.8,210410,,,A*4A
$GPRMC,052338.0,A,3331.937415,N,11741.102411,W,58.5,182.1,210410,,,A*4D
$GPRMC,052341.0,A,3331.889703,N,11741.104322,W,55.8,181.6,210410,,,A*46
$GPRMC,052344.0,A,3331.844791,N,11741.105560,W,53.0,180.7,210410,,,A*46
$GPRMC,052347.0,A,3331.803992,N,11741.106319,W,43.8,181.0,210410,,,A*4F
$GPRMC,052350.0,A,3331.777252,N,11741.107264,W,25.3,185.0,210410,,,A*47
$GPRMC,052353.0,A,3331.765451,N,11741.122623,W,23.4,253.4,210410,,,A*4F
$GPRMC,052356.0,A,3331.763784,N,11741.156339,W,36.6,258.9,210410,,,A*4A
$GPRMC,052359.0,A,3331.750982,N,11741.196944,W,44.4,243.4,210410,,,A*41
