NMEA Sentence Code,UTC Time,Status,Latitude,Latitude Direction,Longitude,Longitude Direction,Speed (knots),Track Angle (degrees true),Date,MagneticVariation,Magnetic Variation Direction,[FAA Mode]-Optional,Checksum
$GPRMC,182015.0,A,3305.729370,N,11718.491651,W,22.2,47.3,030810,,,A*76
$GPRMC,182018.0,A,3305.744025,N,11718.475754,W,25.3,40.2,030810,,,A*7D
$GPRMC,182021.0,A,3305.760920,N,11718.458846,W,26.7,41.7,030810,,,A*7D
$GPRMC,182024.0,A,3305.778532,N,11718.441777,W,26.9,35.4,030810,,,A*75
$GPRMC,182027.0,A,3305.798991,N,11718.430859,W,26.4,12.9,030810,,,A*7D
$GPRMC,182030.0,A,3305.820817,N,11718.430849,W,25.4,350.2,030810,,,A*44
$GPRMC,182033.0,A,3305.841771,N,11718.440107,W,27.3,335.8,030810,,,A*47
$GPRMC,182036.0,A,3305.863650,N,11718.452293,W,29.8,335.0,030810,,,A*40
$GPRMC,182039.0,A,3305.887949,N,11718.465313,W,32.4,335.0,030810,,,A*49
$GPRMC,182042.0,A,3305.912297,N,11718.479103,W,31.9,335.4,030810,,,A*44
$GPRMC,182045.0,A,3305.936269,N,11718.492415,W,31.3,333.7,030810,,,A*4C
$GPRMC,182048.0,A,3305.958002,N,11718.510550,W,30.0,315.2,030810,,,A*4E
$GPRMC,182051.0,A,3305.970371,N,11718.536229,W,28.3,292.9,030810,,,A*49
$GPRMC,182054.0,A,3305.976147,N,11718.563261,W,27.4,277.3,030810,,,A*48
$GPRMC,182057.0,A,3305.976876,N,11718.591806,W,28.9,268.8,030810,,,A*41
$GPRMC,182100.0,A,3305.975918,N,11718.622916,W,30.4,268.0,030810,,,A*4F
$GPRMC,182103.0,A,3305.976658,N,11718.653086,W,29.2,276.1,030810,,,A*42
$GPRMC,182106.0,A,3305.982351,N,11718.680113,W,26.5,293.4,030810,,,A*45
$GPRMC,182109.0,A,3305.994833,N,11718.702322,W,27.3,311.6,030810,,,A*47
$GPRMC,182112.0,A,3306.013074,N,11718.719506,W,28.6,331.4,030810,,,A*43
$GPRMC,182115.0,A,3306.034860,N,11718.731511,W,29.6,340.1,030810,,,A*42
$GPRMC,182118.0,A,3306.058771,N,11718.741142,W,30.0,340.3,030810,,,A*43
$GPRMC,182121.0,A,3306.082202,N,11718.751069,W,29.7,339.4,030810,,,A*40
$GPRMC,182124.0,A,3306.104229,N,11718.763456,W,28.7,328.8,030810,,,A*47
$GPRMC,182127.0,A,3306.123008,N,11718.780148,W,26.1,321.3,030810,,,A*4D
$GPRMC,182130.0,A,3306.136778,N,11718.791835,W,16.3,329.9,030810,,,A*4F
$GPRMC,182133.0,A,3306.144344,N,11718.796709,W,6.2,336.9,030810,,,A*7B
$GPRMC,182145.0,A,3306.153238,N,11718.800837,W,7.7,342.8,030810,,,A*72
$GPRMC,182148.0,A,3306.157076,N,11718.802145,W,4.7,347.1,030810,,,A*72
$GPRMC,182151.0,A,3306.161981,N,11718.802266,W,6.3,14.6,030810,,,A*48
$GPRMC,182154.0,A,3306.167036,N,11718.794973,W,14.7,67.4,030810,,,A*70
$GPRMC,182158.0,A,3306.173601,N,11718.766946,W,25.5,76.6,030810,,,A*72
$GPRMC,182201.0,A,3306.178288,N,11718.742816,W,22.3,73.9,030810,,,A*7A
$GPRMC,182204.0,A,3306.181736,N,11718.727985,W,11.2,65.3,030810,,,A*7D
$GPRMC,182207.0,A,3306.184346,N,11718.720718,W,4.9,69.9,030810,,,A*4C
$GPRMC,182237.0,A,3306.184173,N,11718.714854,W,8.6,84.6,030810,,,A*44
$GPRMC,182240.0,A,3306.186619,N,11718.701160,W,17.7,78.7,030810,,,A*7A
$GPRMC,182243.0,A,3306.190562,N,11718.680254,W,23.2,76.9,030810,,,A*7F
$GPRMC,182246.0,A,3306.194915,N,11718.658754,W,20.5,75.4,030810,,,A*78
$GPRMC,182249.0,A,3306.200185,N,11718.639970,W,18.6,71.7,030810,,,A*78
$GPRMC,182252.0,A,3306.204181,N,11718.623404,W,15.1,75.8,030810,,,A*76
$GPRMC,182255.0,A,3306.206454,N,11718.612743,W,8.2,76.3,030810,,,A*4B
$GPRMC,182258.0,A,3306.207875,N,11718.605772,W,6.5,76.2,030810,,,A*44
$GPRMC,182325.0,A,3306.209894,N,11718.597197,W,4.8,78.3,030810,,,A*4B
$GPRMC,182328.0,A,3306.211370,N,11718.590182,W,7.9,76.5,030810,,,A*47
$GPRMC,182331.0,A,3306.220113,N,11718.585319,W,13.1,357.9,030810,,,A*4F
$GPRMC,182334.0,A,3306.234268,N,11718.594653,W,22.9,320.7,030810,,,A*4F
$GPRMC,182337.0,A,3306.251181,N,11718.613728,W,31.6,315.3,030810,,,A*45
$GPRMC,182340.0,A,3306.273196,N,11718.639055,W,39.3,315.2,030810,,,A*4A
$GPRMC,182343.0,A,3306.299911,N,11718.668184,W,44.3,318.0,030810,,,A*46
$GPRMC,182346.0,A,3306.330742,N,11718.696558,W,47.2,324.4,030810,,,A*44
$GPRMC,182349.0,A,3306.365043,N,11718.722901,W,49.3,328.8,030810,,,A*4C
$GPRMC,182352.0,A,3306.402309,N,11718.748006,W,51.5,330.4,030810,,,A*45
$GPRMC,182355.0,A,3306.440641,N,11718.773922,W,53.0,330.6,030810,,,A*4F
$GPRMC,182359.0,A,3306.493978,N,11718.808633,W,54.8,331.6,030810,,,A*4A
$GPRMC,182402.0,A,3306.535410,N,11718.835041,W,56.2,332.1,030810,,,A*4C
$GPRMC,182405.0,A,3306.578138,N,11718.861026,W,57.5,333.4,030810,,,A*4F
$GPRMC,182408.0,A,3306.621537,N,11718.886856,W,57.5,332.9,030810,,,A*4C
$GPRMC,182411.0,A,3306.664770,N,11718.912957,W,57.5,333.2,030810,,,A*42
$GPRMC,182414.0,A,3306.708204,N,11718.938887,W,57.8,333.5,030810,,,A*44
$GPRMC,182417.0,A,3306.752086,N,11718.965029,W,58.8,333.2,030810,,,A*4C
$GPRMC,182420.0,A,3306.796367,N,11718.991653,W,58.7,333.1,030810,,,A*40
$GPRMC,182423.0,A,3306.839797,N,11719.017407,W,56.8,333.8,030810,,,A*4F
$GPRMC,182426.0,A,3306.882363,N,11719.042473,W,56.7,333.3,030810,,,A*42
$GPRMC,182429.0,A,3306.924759,N,11719.067915,W,55.8,333.1,030810,,,A*49
$GPRMC,182432.0,A,3306.966277,N,11719.093222,W,55.6,333.4,030810,,,A*43
$GPRMC,182435.0,A,3307.008031,N,11719.118252,W,55.8,333.2,030810,,,A*49
$GPRMC,182438.0,A,3307.049600,N,11719.143639,W,55.0,333.1,030810,,,A*49
$GPRMC,182441.0,A,3307.089793,N,11719.168166,W,52.6,332.4,030810,,,A*41
$GPRMC,182444.0,A,3307.128572,N,11719.192311,W,52.4,332.6,030810,,,A*44
$GPRMC,182447.0,A,3307.167800,N,11719.216300,W,52.8,333.1,030810,,,A*41
$GPRMC,182450.0,A,3307.207256,N,11719.240450,W,53.6,332.9,030810,,,A*4C
$GPRMC,182453.0,A,3307.248233,N,11719.265369,W,56.2,333.1,030810,,,A*45
$GPRMC,182456.0,A,3307.291273,N,11719.291139,W,58.8,333.3,030810,,,A*4A
$GPRMC,182459.0,A,3307.335177,N,11719.317532,W,58.8,333.2,030810,,,A*4C
$GPRMC,182502.0,A,3307.379089,N,11719.343683,W,58.6,333.4,030810,,,A*4B
$GPRMC,182505.0,A,3307.423149,N,11719.369935,W,58.6,333.2,030810,,,A*45
$GPRMC,182508.0,A,3307.467031,N,11719.396062,W,58.6,333.3,030810,,,A*4C
$GPRMC,182511.0,A,3307.510805,N,11719.422248,W,58.6,333.3,030810,,,A*48
$GPRMC,182514.0,A,3307.554606,N,11719.448314,W,58.6,333.5,030810,,,A*42
$GPRMC,182517.0,A,3307.598191,N,11719.474592,W,58.6,333.2,030810,,,A*48
$GPRMC,182520.0,A,3307.642158,N,11719.500718,W,59.3,333.5,030810,,,A*4C
$GPRMC,182523.0,A,3307.686631,N,11719.527297,W,59.3,333.1,030810,,,A*4C
$GPRMC,182526.0,A,3307.730971,N,11719.554092,W,59.2,333.3,030810,,,A*4E
$GPRMC,182529.0,A,3307.775071,N,11719.580425,W,59.2,333.2,030810,,,A*49
$GPRMC,182532.0,A,3307.819240,N,11719.607059,W,59.3,333.4,030810,,,A*42
$GPRMC,182535.0,A,3307.863524,N,11719.633482,W,59.2,333.3,030810,,,A*4E
$GPRMC,182538.0,A,3307.907795,N,11719.660056,W,59.2,333.2,030810,,,A*42
$GPRMC,182541.0,A,3307.951845,N,11719.686489,W,58.9,333.4,030810,,,A*4F
$GPRMC,182544.0,A,3307.996089,N,11719.712440,W,59.1,334.6,030810,,,A*4C
$GPRMC,182547.0,A,3308.041156,N,11719.736580,W,59.3,336.2,030810,,,A*4F
$GPRMC,182550.0,A,3308.086896,N,11719.759508,W,59.5,337.5,030810,,,A*4E
$GPRMC,182553.0,A,3308.132739,N,11719.782511,W,59.5,336.8,030810,,,A*4B
$GPRMC,182556.0,A,3308.178461,N,11719.805590,W,59.6,337.0,030810,,,A*4D
$GPRMC,182559.0,A,3308.224274,N,11719.828864,W,58.9,336.9,030810,,,A*45
$GPRMC,182602.0,A,3308.266637,N,11719.850379,W,50.8,337.0,030810,,,A*44
$GPRMC,182605.0,A,3308.304104,N,11719.869374,W,48.2,337.1,030810,,,A*44
$GPRMC,182608.0,A,3308.340739,N,11719.887213,W,46.4,338.7,030810,,,A*40
$GPRMC,182611.0,A,3308.373667,N,11719.902733,W,39.1,337.9,030810,,,A*45
$GPRMC,182614.0,A,3308.402514,N,11719.917071,W,36.8,337.3,030810,,,A*4F
$GPRMC,182617.0,A,3308.430801,N,11719.931192,W,37.8,337.0,030810,,,A*4E
$GPRMC,182620.0,A,3308.460626,N,11719.946320,W,40.1,336.7,030810,,,A*40
$GPRMC,182623.0,A,3308.492964,N,11719.962715,W,44.6,337.1,030810,,,A*47
$GPRMC,182626.0,A,3308.529435,N,11719.979573,W,48.2,341.4,030810,,,A*4E
$GPRMC,182629.0,A,3308.567946,N,11719.992246,W,47.6,347.1,030810,,,A*4E
$GPRMC,182632.0,A,3308.606916,N,11720.000534,W,47.2,352.7,030810,,,A*49
$GPRMC,182635.0,A,3308.646601,N,11720.004336,W,48.0,356.9,030810,,,A*44
$GPRMC,182638.0,A,3308.686757,N,11720.006318,W,48.7,357.5,030810,,,A*43
$GPRMC,182641.0,A,3308.728730,N,11720.008174,W,51.5,357.3,030810,,,A*43
$GPRMC,182644.0,A,3308.771538,N,11720.010180,W,50.1,357.5,030810,,,A*41
$GPRMC,182647.0,A,3308.811799,N,11720.013409,W,46.8,353.8,030810,,,A*42
$GPRMC,182650.0,A,3308.849296,N,11720.020485,W,44.2,347.4,030810,,,A*46
$GPRMC,182653.0,A,3308.883645,N,11720.031861,W,41.6,341.2,030810,,,A*4E
$GPRMC,182656.0,A,3308.914971,N,11720.046058,W,39.0,337.0,030810,,,A*44
$GPRMC,182659.0,A,3308.942979,N,11720.061769,W,36.1,334.2,030810,,,A*4F
$GPRMC,182702.0,A,3308.970443,N,11720.077606,W,37.5,334.2,030810,,,A*4F
$GPRMC,182705.0,A,3308.998953,N,11720.094101,W,38.4,334.2,030810,,,A*41
$GPRMC,182708.0,A,3309.028499,N,11720.111336,W,40.4,334.2,030810,,,A*41
$GPRMC,182711.0,A,3309.060379,N,11720.129874,W,44.6,334.1,030810,,,A*4F
$GPRMC,182714.0,A,3309.094776,N,11720.149910,W,45.4,334.1,030810,,,A*4C
$GPRMC,182717.0,A,3309.127860,N,11720.169136,W,43.0,334.2,030810,,,A*41
$GPRMC,182720.0,A,3309.159498,N,11720.187452,W,41.7,334.3,030810,,,A*44
$GPRMC,182723.0,A,3309.190878,N,11720.205678,W,42.3,334.2,030810,,,A*45
$GPRMC,182726.0,A,3309.222986,N,11720.224517,W,43.6,333.8,030810,,,A*4A
$GPRMC,182729.0,A,3309.256078,N,11720.243960,W,44.5,334.4,030810,,,A*4C
$GPRMC,182732.0,A,3309.289358,N,11720.262799,W,43.7,335.2,030810,,,A*4C
$GPRMC,182735.0,A,3309.322541,N,11720.280828,W,43.6,336.0,030810,,,A*4C
$GPRMC,182738.0,A,3309.355587,N,11720.298114,W,42.3,336.8,030810,,,A*48
$GPRMC,182741.0,A,3309.387052,N,11720.314307,W,40.4,336.6,030810,,,A*4A
$GPRMC,182744.0,A,3309.418715,N,11720.330360,W,42.3,337.2,030810,,,A*4D
$GPRMC,182747.0,A,3309.451533,N,11720.346947,W,42.5,336.8,030810,,,A*46
$GPRMC,182750.0,A,3309.484258,N,11720.363638,W,43.0,337.0,030810,,,A*4F
$GPRMC,182753.0,A,3309.516776,N,11720.380405,W,41.5,336.6,030810,,,A*4E
$GPRMC,182756.0,A,3309.548814,N,11720.396725,W,42.9,337.2,030810,,,A*47
$GPRMC,182759.0,A,3309.582940,N,11720.413864,W,45.6,336.8,030810,,,A*4D
$GPRMC,182802.0,A,3309.618805,N,11720.432231,W,47.4,336.6,030810,,,A*4B
$GPRMC,182805.0,A,3309.655648,N,11720.451201,W,48.8,337.0,030810,,,A*40
$GPRMC,182808.0,A,3309.693923,N,11720.470477,W,50.5,336.7,030810,,,A*43
$GPRMC,182811.0,A,3309.734020,N,11720.491213,W,52.5,336.6,030810,,,A*45
$GPRMC,182814.0,A,3309.774887,N,11720.512038,W,53.1,337.1,030810,,,A*43
$GPRMC,182817.0,A,3309.815248,N,11720.532145,W,51.5,337.2,030810,,,A*4D
$GPRMC,182820.0,A,3309.855066,N,11720.552251,W,52.2,336.9,030810,,,A*4D
$GPRMC,182823.0,A,3309.896092,N,11720.573203,W,54.7,336.8,030810,,,A*4C
$GPRMC,182826.0,A,3309.939382,N,11720.595200,W,57.4,337.0,030810,,,A*4D
$GPRMC,182829.0,A,3309.984401,N,11720.618460,W,59.6,336.7,030810,,,A*44
$GPRMC,182832.0,A,3310.030953,N,11720.642092,W,60.8,337.1,030810,,,A*4F
$GPRMC,182835.0,A,3310.076902,N,11720.665704,W,58.6,335.6,030810,,,A*43
$GPRMC,182838.0,A,3310.120894,N,11720.690990,W,58.2,333.0,030810,,,A*4F
$GPRMC,182841.0,A,3310.161419,N,11720.717117,W,51.2,330.3,030810,,,A*4D
$GPRMC,182844.0,A,3310.195054,N,11720.740764,W,43.7,328.6,030810,,,A*44
$GPRMC,182847.0,A,3310.224716,N,11720.762650,W,40.3,328.3,030810,,,A*4B
$GPRMC,182850.0,A,3310.252867,N,11720.783838,W,39.6,326.6,030810,,,A*4A
$GPRMC,182853.0,A,3310.279242,N,11720.802738,W,34.3,329.3,030810,,,A*46
$GPRMC,182856.0,A,3310.302152,N,11720.819756,W,31.5,327.8,030810,,,A*48
$GPRMC,182859.0,A,3310.323674,N,11720.836031,W,30.9,327.5,030810,,,A*4C
$GPRMC,182902.0,A,3310.347125,N,11720.853990,W,37.2,328.0,030810,,,A*45
$GPRMC,182905.0,A,3310.375857,N,11720.875348,W,43.3,328.2,030810,,,A*44
$GPRMC,182908.0,A,3310.407530,N,11720.898910,W,45.2,328.7,030810,,,A*41
$GPRMC,182911.0,A,3310.439971,N,11720.922210,W,45.4,328.5,030810,,,A*42
$GPRMC,182914.0,A,3310.472238,N,11720.946184,W,45.4,327.9,030810,,,A*41
$GPRMC,182917.0,A,3310.505573,N,11720.969559,W,47.1,332.2,030810,,,A*4A
$GPRMC,182920.0,A,3310.542326,N,11720.987357,W,47.5,343.6,030810,,,A*45
$GPRMC,182923.0,A,3310.582849,N,11720.993221,W,48.1,358.0,030810,,,A*4A
$GPRMC,182926.0,A,3310.623894,N,11720.985874,W,49.8,14.0,030810,,,A*79
$GPRMC,182929.0,A,3310.663106,N,11720.968292,W,51.2,26.1,030810,,,A*72
$GPRMC,182932.0,A,3310.697289,N,11720.937740,W,52.1,43.2,030810,,,A*77
$GPRMC,182935.0,A,3310.725855,N,11720.898513,W,52.4,51.9,030810,,,A*7E
$GPRMC,182938.0,A,3310.752466,N,11720.855664,W,54.0,54.3,030810,,,A*70
$GPRMC,182941.0,A,3310.778311,N,11720.811111,W,54.1,55.1,030810,,,A*76
$GPRMC,182944.0,A,3310.802718,N,11720.766860,W,52.4,58.8,030810,,,A*7B
$GPRMC,182947.0,A,3310.823267,N,11720.721024,W,51.6,64.3,030810,,,A*78
$GPRMC,182950.0,A,3310.839468,N,11720.673237,W,52.1,70.0,030810,,,A*78
$GPRMC,182953.0,A,3310.852433,N,11720.622468,W,53.6,75.0,030810,,,A*73
$GPRMC,182956.0,A,3310.861378,N,11720.568651,W,54.8,80.9,030810,,,A*71
$GPRMC,182959.0,A,3310.865180,N,11720.512803,W,55.3,86.9,030810,,,A*77
$GPRMC,183002.0,A,3310.865657,N,11720.457321,W,54.9,90.3,030810,,,A*71
$GPRMC,183005.0,A,3310.865202,N,11720.402232,W,55.1,90.3,030810,,,A*78
$GPRMC,183008.0,A,3310.865416,N,11720.346811,W,54.9,89.3,030810,,,A*7B
$GPRMC,183011.0,A,3310.865507,N,11720.292878,W,53.0,89.8,030810,,,A*70
$GPRMC,183014.0,A,3310.865647,N,11720.240882,W,51.0,89.5,030810,,,A*77
$GPRMC,183017.0,A,3310.865718,N,11720.190867,W,49.1,89.9,030810,,,A*7E
$GPRMC,183020.0,A,3310.865816,N,11720.141888,W,49.4,89.8,030810,,,A*72
$GPRMC,183023.0,A,3310.865771,N,11720.091320,W,52.1,89.9,030810,,,A*74
$GPRMC,183026.0,A,3310.865693,N,11720.038565,W,53.2,89.9,030810,,,A*7A
$GPRMC,183029.0,A,3310.865733,N,11719.986116,W,52.6,89.7,030810,,,A*73
$GPRMC,183032.0,A,3310.865876,N,11719.933546,W,53.1,89.9,030810,,,A*70
$GPRMC,183035.0,A,3310.865848,N,11719.880987,W,53.0,89.7,030810,,,A*7D
$GPRMC,183038.0,A,3310.865806,N,11719.828377,W,52.9,89.7,030810,,,A*75
$GPRMC,183041.0,A,3310.866741,N,11719.775963,W,53.0,86.9,030810,,,A*75
$GPRMC,183044.0,A,3310.871272,N,11719.723484,W,53.3,81.6,030810,,,A*7F
$GPRMC,183047.0,A,3310.879963,N,11719.671638,W,53.2,76.6,030810,,,A*75
$GPRMC,183050.0,A,3310.891072,N,11719.620537,W,53.0,74.9,030810,,,A*7B
$GPRMC,183053.0,A,3310.902815,N,11719.569924,W,52.7,74.6,030810,,,A*73
$GPRMC,183056.0,A,3310.914591,N,11719.519421,W,53.5,74.6,030810,,,A*7C
$GPRMC,183059.0,A,3310.924994,N,11719.466475,W,56.0,79.6,030810,,,A*7C
$GPRMC,183102.0,A,3310.930455,N,11719.411566,W,55.4,86.7,030810,,,A*73
$GPRMC,183105.0,A,3310.928979,N,11719.356698,W,55.4,96.1,030810,,,A*7F
$GPRMC,183108.0,A,3310.920666,N,11719.302484,W,55.4,103.3,030810,,,A*4A
$GPRMC,183111.0,A,3310.906356,N,11719.250468,W,54.7,109.7,030810,,,A*48
$GPRMC,183114.0,A,3310.890132,N,11719.199241,W,55.1,109.9,030810,,,A*41
$GPRMC,183117.0,A,3310.874370,N,11719.147672,W,55.2,109.7,030810,,,A*46
$GPRMC,183120.0,A,3310.858855,N,11719.095631,W,55.4,109.3,030810,,,A*4B
$GPRMC,183123.0,A,3310.843776,N,11719.043282,W,55.7,107.5,030810,,,A*40
$GPRMC,183126.0,A,3310.831047,N,11718.989797,W,56.5,104.1,030810,,,A*4C
$GPRMC,183129.0,A,3310.820586,N,11718.933270,W,59.7,100.8,030810,,,A*46
$GPRMC,183132.0,A,3310.812567,N,11718.875274,W,58.3,98.7,030810,,,A*7F
$GPRMC,183135.0,A,3310.805270,N,11718.817947,W,58.9,98.4,030810,,,A*79
$GPRMC,183138.0,A,3310.798687,N,11718.759513,W,59.7,97.4,030810,,,A*7B
$GPRMC,183141.0,A,3310.791704,N,11718.700727,W,59.8,98.2,030810,,,A*79
$GPRMC,183144.0,A,3310.785470,N,11718.642274,W,58.8,95.8,030810,,,A*7B
$GPRMC,183147.0,A,3310.783310,N,11718.586088,W,53.3,89.9,030810,,,A*79
$GPRMC,183150.0,A,3310.786343,N,11718.536531,W,48.7,82.0,030810,,,A*7C
$GPRMC,183153.0,A,3310.793761,N,11718.488779,W,49.8,78.3,030810,,,A*7D
$GPRMC,183156.0,A,3310.804611,N,11718.439866,W,52.3,72.7,030810,,,A*7B
$GPRMC,183159.0,A,3310.819854,N,11718.389293,W,55.6,69.6,030810,,,A*72
$GPRMC,183202.0,A,3310.836458,N,11718.336115,W,57.5,70.3,030810,,,A*77
$GPRMC,183205.0,A,3310.853032,N,11718.283696,W,55.7,68.9,030810,,,A*7B
$GPRMC,183208.0,A,3310.869633,N,11718.233017,W,54.1,68.9,030810,,,A*7B
$GPRMC,183211.0,A,3310.885776,N,11718.183505,W,53.1,69.1,030810,,,A*71
$GPRMC,183214.0,A,3310.901490,N,11718.135643,W,50.7,68.9,030810,,,A*72
$GPRMC,183217.0,A,3310.916779,N,11718.089043,W,50.9,69.1,030810,,,A*74
$GPRMC,183220.0,A,3310.932351,N,11718.041336,W,52.0,69.3,030810,,,A*74
$GPRMC,183223.0,A,3310.947798,N,11717.993142,W,52.1,69.4,030810,,,A*7A
$GPRMC,183226.0,A,3310.961686,N,11717.944133,W,51.9,73.7,030810,,,A*7A
$GPRMC,183229.0,A,3310.972152,N,11717.893676,W,52.9,78.5,030810,,,A*7E
$GPRMC,183232.0,A,3310.978881,N,11717.841136,W,53.9,84.2,030810,,,A*70
$GPRMC,183235.0,A,3310.982497,N,11717.787662,W,54.0,86.5,030810,,,A*71
$GPRMC,183238.0,A,3310.985673,N,11717.734363,W,53.5,86.1,030810,,,A*79
$GPRMC,183241.0,A,3310.988816,N,11717.681421,W,53.3,86.1,030810,,,A*7F
$GPRMC,183244.0,A,3310.991851,N,11717.628374,W,54.2,85.9,030810,,,A*78
$GPRMC,183247.0,A,3310.995301,N,11717.574139,W,55.0,85.7,030810,,,A*7D
$GPRMC,183250.0,A,3310.998701,N,11717.519422,W,55.2,86.1,030810,,,A*71
$GPRMC,183253.0,A,3311.002035,N,11717.464434,W,55.8,85.7,030810,,,A*7A
$GPRMC,183256.0,A,3311.006745,N,11717.409178,W,56.0,82.5,030810,,,A*73
$GPRMC,183259.0,A,3311.015129,N,11717.354431,W,56.0,77.7,030810,,,A*7D
$GPRMC,183302.0,A,3311.026794,N,11717.301032,W,54.6,73.7,030810,,,A*75
$GPRMC,183305.0,A,3311.040767,N,11717.250504,W,52.7,70.2,030810,,,A*7A
$GPRMC,183308.0,A,3311.056931,N,11717.202933,W,50.7,66.4,030810,,,A*71
$GPRMC,183311.0,A,3311.075368,N,11717.157233,W,51.1,63.0,030810,,,A*70
$GPRMC,183314.0,A,3311.096153,N,11717.113460,W,49.9,59.2,030810,,,A*78
$GPRMC,183317.0,A,3311.117831,N,11717.071678,W,49.0,59.0,030810,,,A*7B
$GPRMC,183320.0,A,3311.139195,N,11717.030444,W,48.6,58.7,030810,,,A*7D
$GPRMC,183323.0,A,3311.161145,N,11716.988551,W,50.7,58.8,030810,,,A*77
$GPRMC,183326.0,A,3311.183884,N,11716.944340,W,53.4,59.0,030810,,,A*75
$GPRMC,183329.0,A,3311.207823,N,11716.897876,W,55.7,58.7,030810,,,A*7A
$GPRMC,183332.0,A,3311.232284,N,11716.850265,W,55.5,58.9,030810,,,A*7E
$GPRMC,183335.0,A,3311.255610,N,11716.804032,W,53.3,60.0,030810,,,A*72
$GPRMC,183338.0,A,3311.278077,N,11716.757427,W,54.9,60.5,030810,,,A*76
$GPRMC,183341.0,A,3311.301832,N,11716.709670,W,56.4,59.7,030810,,,A*72
$GPRMC,183344.0,A,3311.325610,N,11716.661104,W,56.2,60.0,030810,,,A*7F
$GPRMC,183347.0,A,3311.348739,N,11716.613573,W,54.4,60.0,030810,,,A*78
$GPRMC,183351.0,A,3311.378645,N,11716.552721,W,51.8,59.9,030810,,,A*7F
$GPRMC,183354.0,A,3311.399951,N,11716.509143,W,49.9,60.0,030810,,,A*78
$GPRMC,183357.0,A,3311.420824,N,11716.466425,W,49.8,59.8,030810,,,A*73
$GPRMC,183400.0,A,3311.441245,N,11716.425021,W,46.7,59.8,030810,,,A*7B
$GPRMC,183403.0,A,3311.460306,N,11716.385979,W,45.6,60.2,030810,,,A*76
$GPRMC,183406.0,A,3311.479690,N,11716.345113,W,49.0,61.8,030810,,,A*78
$GPRMC,183409.0,A,3311.498670,N,11716.301208,W,49.4,64.0,030810,,,A*76
$GPRMC,183412.0,A,3311.516655,N,11716.256982,W,49.5,64.7,030810,,,A*70
$GPRMC,183415.0,A,3311.534566,N,11716.212227,W,50.2,64.4,030810,,,A*7C
$GPRMC,183418.0,A,3311.552877,N,11716.167141,W,50.2,64.5,030810,,,A*7F
$GPRMC,183421.0,A,3311.571093,N,11716.121648,W,51.1,64.8,030810,,,A*75
$GPRMC,183424.0,A,3311.589572,N,11716.075581,W,51.3,64.4,030810,,,A*75
$GPRMC,183427.0,A,3311.607637,N,11716.030107,W,49.6,65.6,030810,,,A*75
$GPRMC,183430.0,A,3311.623795,N,11715.984463,W,50.8,68.9,030810,,,A*7A
$GPRMC,183433.0,A,3311.637955,N,11715.935253,W,53.7,73.5,030810,,,A*7B
$GPRMC,183436.0,A,3311.648494,N,11715.882768,W,54.4,79.2,030810,,,A*7F
$GPRMC,183439.0,A,3311.654370,N,11715.829354,W,54.2,85.1,030810,,,A*7C
$GPRMC,183442.0,A,3311.655826,N,11715.775396,W,54.7,90.1,030810,,,A*70
$GPRMC,183445.0,A,3311.654441,N,11715.720805,W,55.1,91.6,030810,,,A*7B
$GPRMC,183448.0,A,3311.653050,N,11715.665942,W,55.2,91.7,030810,,,A*75
$GPRMC,183451.0,A,3311.651556,N,11715.611245,W,55.0,91.5,030810,,,A*73
$GPRMC,183454.0,A,3311.650083,N,11715.556231,W,55.8,91.9,030810,,,A*7D
$GPRMC,183457.0,A,3311.649110,N,11715.500725,W,55.6,90.0,030810,,,A*78
$GPRMC,183500.0,A,3311.650802,N,11715.445650,W,55.6,85.5,030810,,,A*7B
$GPRMC,183503.0,A,3311.656603,N,11715.390788,W,56.3,80.8,030810,,,A*74
$GPRMC,183506.0,A,3311.664489,N,11715.335447,W,56.6,80.5,030810,,,A*77
$GPRMC,183509.0,A,3311.672387,N,11715.279955,W,56.6,80.4,030810,,,A*70
$GPRMC,183512.0,A,3311.680310,N,11715.224343,W,57.2,80.5,030810,,,A*78
$GPRMC,183515.0,A,3311.688289,N,11715.167911,W,58.0,80.6,030810,,,A*71
$GPRMC,183518.0,A,3311.694500,N,11715.111112,W,57.5,85.2,030810,,,A*76
$GPRMC,183521.0,A,3311.694850,N,11715.053956,W,57.9,93.9,030810,,,A*7B
$GPRMC,183524.0,A,3311.688438,N,11714.996508,W,58.9,99.1,030810,,,A*7A
$GPRMC,183527.0,A,3311.673780,N,11714.941318,W,58.5,110.5,030810,,,A*48
$GPRMC,183530.0,A,3311.652648,N,11714.888608,W,59.0,119.0,030810,,,A*40
$GPRMC,183533.0,A,3311.625800,N,11714.839186,W,59.2,124.6,030810,,,A*40
$GPRMC,183536.0,A,3311.597239,N,11714.790600,W,59.8,124.6,030810,,,A*40
$GPRMC,183539.0,A,3311.568384,N,11714.741852,W,60.0,125.2,030810,,,A*4A
$GPRMC,183542.0,A,3311.539487,N,11714.692883,W,59.8,124.7,030810,,,A*43
$GPRMC,183545.0,A,3311.511847,N,11714.646238,W,54.4,124.9,030810,,,A*42
$GPRMC,183548.0,A,3311.486875,N,11714.604215,W,50.0,124.7,030810,,,A*46
$GPRMC,183551.0,A,3311.462687,N,11714.563514,W,50.0,125.1,030810,,,A*44
$GPRMC,183554.0,A,3311.438964,N,11714.523331,W,49.0,124.7,030810,,,A*46
$GPRMC,183557.0,A,3311.416265,N,11714.484576,W,46.1,124.8,030810,,,A*4B
$GPRMC,183600.0,A,3311.394062,N,11714.447316,W,46.8,124.8,030810,,,A*44
$GPRMC,183603.0,A,3311.371260,N,11714.408164,W,49.3,124.8,030810,,,A*44
$GPRMC,183606.0,A,3311.347354,N,11714.366945,W,51.4,124.4,030810,,,A*44
$GPRMC,183609.0,A,3311.322296,N,11714.324142,W,53.4,124.9,030810,,,A*41
$GPRMC,183612.0,A,3311.296190,N,11714.279548,W,56.1,124.9,030810,,,A*47
$GPRMC,183615.0,A,3311.268947,N,11714.233014,W,57.2,124.6,030810,,,A*4C
$GPRMC,183618.0,A,3311.242237,N,11714.186665,W,56.0,124.6,030810,,,A*4B
$GPRMC,183621.0,A,3311.215457,N,11714.141131,W,56.4,125.3,030810,,,A*4E
$GPRMC,183624.0,A,3311.187734,N,11714.095321,W,57.5,126.9,030810,,,A*47
$GPRMC,183627.0,A,3311.156460,N,11714.050949,W,59.2,132.6,030810,,,A*44
$GPRMC,183630.0,A,3311.120192,N,11714.009081,W,61.5,138.5,030810,,,A*4F
$GPRMC,183633.0,A,3311.079227,N,11713.971101,W,62.8,145.0,030810,,,A*45
$GPRMC,183636.0,A,3311.034979,N,11713.938286,W,62.0,150.2,030810,,,A*46
$GPRMC,183639.0,A,3310.990126,N,11713.908488,W,61.3,151.0,030810,,,A*45
$GPRMC,183642.0,A,3310.944668,N,11713.878615,W,63.5,150.6,030810,,,A*4E
$GPRMC,183645.0,A,3310.897708,N,11713.847555,W,64.9,150.6,030810,,,A*41
$GPRMC,183648.0,A,3310.850321,N,11713.815696,W,64.8,150.2,030810,,,A*46
$GPRMC,183652.0,A,3310.788744,N,11713.774255,W,63.0,150.1,030810,,,A*4F
$GPRMC,183655.0,A,3310.742328,N,11713.741747,W,65.9,148.9,030810,,,A*4E
$GPRMC,183658.0,A,3310.694543,N,11713.707956,W,67.1,149.7,030810,,,A*4B
$GPRMC,183701.0,A,3310.646274,N,11713.675332,W,66.4,150.6,030810,,,A*4B
$GPRMC,183704.0,A,3310.597936,N,11713.643211,W,66.0,150.6,030810,,,A*4D
$GPRMC,183707.0,A,3310.549629,N,11713.611236,W,66.4,150.9,030810,,,A*45
$GPRMC,183710.0,A,3310.500768,N,11713.579044,W,67.5,150.5,030810,,,A*4C
$GPRMC,183713.0,A,3310.451467,N,11713.545746,W,67.9,150.2,030810,,,A*47
$GPRMC,183716.0,A,3310.402526,N,11713.512846,W,66.3,150.6,030810,,,A*42
$GPRMC,183719.0,A,3310.354772,N,11713.480201,W,65.3,148.5,030810,,,A*40
$GPRMC,183722.0,A,3310.310561,N,11713.442558,W,64.6,140.7,030810,,,A*43
$GPRMC,183725.0,A,3310.272754,N,11713.397050,W,64.8,130.5,030810,,,A*4C
$GPRMC,183728.0,A,3310.240880,N,11713.344540,W,64.7,122.2,030810,,,A*47
$GPRMC,183731.0,A,3310.216963,N,11713.287213,W,64.1,112.7,030810,,,A*4F
$GPRMC,183734.0,A,3310.197818,N,11713.227060,W,65.8,110.8,030810,,,A*44
$GPRMC,183737.0,A,3310.177771,N,11713.164975,W,67.2,111.3,030810,,,A*42
$GPRMC,183740.0,A,3310.157270,N,11713.103287,W,65.7,112.6,030810,,,A*42
$GPRMC,183743.0,A,3310.133721,N,11713.044457,W,65.5,119.2,030810,,,A*46
$GPRMC,183746.0,A,3310.104006,N,11712.988920,W,66.4,125.9,030810,,,A*46
$GPRMC,183749.0,A,3310.069227,N,11712.937577,W,66.1,132.0,030810,,,A*42
$GPRMC,183752.0,A,3310.030712,N,11712.892194,W,63.4,138.3,030810,,,A*49
$GPRMC,183755.0,A,3309.989875,N,11712.853540,W,62.5,143.9,030810,,,A*45
$GPRMC,183758.0,A,3309.946826,N,11712.817848,W,63.4,145.4,030810,,,A*43
$GPRMC,183801.0,A,3309.902617,N,11712.781940,W,64.7,145.3,030810,,,A*46
$GPRMC,183804.0,A,3309.858494,N,11712.745741,W,63.8,145.3,030810,,,A*4B
$GPRMC,183807.0,A,3309.814433,N,11712.709797,W,64.4,145.5,030810,,,A*43
$GPRMC,183810.0,A,3309.769953,N,11712.673422,W,64.3,145.6,030810,,,A*4E
$GPRMC,183813.0,A,3309.726745,N,11712.638278,W,61.3,145.5,030810,,,A*4F
$GPRMC,183816.0,A,3309.686027,N,11712.605005,W,57.6,145.4,030810,,,A*45
$GPRMC,183819.0,A,3309.646360,N,11712.572441,W,58.6,145.3,030810,,,A*49
$GPRMC,183822.0,A,3309.605287,N,11712.538912,W,60.7,145.2,030810,,,A*40
$GPRMC,183825.0,A,3309.563356,N,11712.504608,W,60.2,145.4,030810,,,A*41
$GPRMC,183828.0,A,3309.523309,N,11712.471471,W,57.3,144.5,030810,,,A*48
$GPRMC,183831.0,A,3309.484615,N,11712.437540,W,57.6,143.0,030810,,,A*42
$GPRMC,183834.0,A,3309.447603,N,11712.403427,W,55.3,141.3,030810,,,A*4E
$GPRMC,183837.0,A,3309.411826,N,11712.368107,W,57.0,139.4,030810,,,A*43
$GPRMC,183840.0,A,3309.375254,N,11712.329624,W,60.0,137.7,030810,,,A*43
$GPRMC,183843.0,A,3309.337937,N,11712.288154,W,62.0,136.3,030810,,,A*45
$GPRMC,183846.0,A,3309.300915,N,11712.245195,W,61.9,135.7,030810,,,A*45
$GPRMC,183849.0,A,3309.264117,N,11712.202226,W,61.6,135.5,030810,,,A*46
$GPRMC,183852.0,A,3309.227392,N,11712.159257,W,61.9,135.6,030810,,,A*43
$GPRMC,183855.0,A,3309.190558,N,11712.115785,W,62.3,135.1,030810,,,A*47
$GPRMC,183858.0,A,3309.153564,N,11712.072318,W,62.3,136.1,030810,,,A*49
$GPRMC,183901.0,A,3309.116137,N,11712.030043,W,61.1,136.7,030810,,,A*4B
$GPRMC,183904.0,A,3309.079153,N,11711.988291,W,60.9,136.0,030810,,,A*4E
$GPRMC,183907.0,A,3309.042873,N,11711.945825,W,60.8,135.4,030810,,,A*4C
$GPRMC,183910.0,A,3309.006303,N,11711.903334,W,61.4,135.5,030810,,,A*43
$GPRMC,183913.0,A,3308.969558,N,11711.859520,W,63.4,134.1,030810,,,A*43
$GPRMC,183916.0,A,3308.932578,N,11711.814459,W,62.6,134.8,030810,,,A*46
$GPRMC,183919.0,A,3308.896022,N,11711.771183,W,60.7,135.1,030810,,,A*49
$GPRMC,183922.0,A,3308.859917,N,11711.728597,W,61.6,135.5,030810,,,A*44
$GPRMC,183925.0,A,3308.822762,N,11711.685889,W,61.8,136.7,030810,,,A*48
$GPRMC,183928.0,A,3308.785745,N,11711.644022,W,60.2,135.9,030810,,,A*40
$GPRMC,183931.0,A,3308.749611,N,11711.602209,W,61.0,135.8,030810,,,A*43
$GPRMC,183934.0,A,3308.713167,N,11711.559783,W,60.7,135.7,030810,,,A*4C
$GPRMC,183937.0,A,3308.677106,N,11711.517644,W,60.1,135.6,030810,,,A*4C
$GPRMC,183940.0,A,3308.641806,N,11711.476325,W,58.8,135.2,030810,,,A*42
$GPRMC,183943.0,A,3308.607266,N,11711.435634,W,57.5,134.6,030810,,,A*4A
$GPRMC,183946.0,A,3308.575157,N,11711.393761,W,57.6,129.5,030810,,,A*4E
$GPRMC,183949.0,A,3308.546260,N,11711.347096,W,58.9,123.5,030810,,,A*4A
$GPRMC,183952.0,A,3308.520858,N,11711.296176,W,60.6,118.4,030810,,,A*4E
$GPRMC,183955.0,A,3308.499252,N,11711.241700,W,60.4,113.2,030810,,,A*48
$GPRMC,183958.0,A,3308.479998,N,11711.187038,W,59.8,112.7,030810,,,A*41
$GPRMC,184001.0,A,3308.460860,N,11711.132025,W,60.7,112.8,030810,,,A*45
$GPRMC,184004.0,A,3308.441274,N,11711.077433,W,58.5,113.2,030810,,,A*4D
$GPRMC,184007.0,A,3308.422538,N,11711.024718,W,57.5,113.2,030810,,,A*47
$GPRMC,184010.0,A,3308.403573,N,11710.971500,W,59.2,113.3,030810,,,A*46
$GPRMC,184013.0,A,3308.383924,N,11710.916249,W,61.1,113.0,030810,,,A*44
$GPRMC,184016.0,A,3308.364082,N,11710.860682,W,60.2,113.0,030810,,,A*4C
$GPRMC,184019.0,A,3308.344425,N,11710.805191,W,61.5,113.2,030810,,,A*4A
$GPRMC,184022.0,A,3308.324407,N,11710.749528,W,60.3,113.2,030810,,,A*42
$GPRMC,184025.0,A,3308.304977,N,11710.695651,W,57.9,113.1,030810,,,A*4D
$GPRMC,184028.0,A,3308.286012,N,11710.642951,W,58.3,113.1,030810,,,A*41
$GPRMC,184032.0,A,3308.260222,N,11710.570667,W,60.4,113.2,030810,,,A*44
$GPRMC,184036.0,A,3308.233920,N,11710.496723,W,60.4,113.0,030810,,,A*45
$GPRMC,184039.0,A,3308.214311,N,11710.440674,W,62.2,111.4,030810,,,A*4D
$GPRMC,184042.0,A,3308.199098,N,11710.380681,W,63.6,102.1,030810,,,A*46
$GPRMC,184045.0,A,3308.192281,N,11710.318521,W,62.2,93.4,030810,,,A*71
$GPRMC,184048.0,A,3308.192983,N,11710.256662,W,62.2,86.3,030810,,,A*79
$GPRMC,184051.0,A,3308.196835,N,11710.195659,W,60.9,85.9,030810,,,A*7D
$GPRMC,184054.0,A,3308.200677,N,11710.135410,W,61.1,86.1,030810,,,A*7B
$GPRMC,184057.0,A,3308.204442,N,11710.074235,W,62.6,86.2,030810,,,A*7A
$GPRMC,184100.0,A,3308.208178,N,11710.012030,W,63.0,86.0,030810,,,A*7B
$GPRMC,184103.0,A,3308.212026,N,11709.949005,W,64.4,86.1,030810,,,A*72
$GPRMC,184106.0,A,3308.215755,N,11709.885134,W,64.5,86.3,030810,,,A*72
$GPRMC,184109.0,A,3308.219353,N,11709.821083,W,64.7,86.7,030810,,,A*76
$GPRMC,184112.0,A,3308.222969,N,11709.759104,W,61.1,85.8,030810,,,A*76
$GPRMC,184115.0,A,3308.226743,N,11709.700409,W,58.2,85.6,030810,,,A*70
$GPRMC,184118.0,A,3308.232424,N,11709.642886,W,57.9,81.5,030810,,,A*75
$GPRMC,184121.0,A,3308.242364,N,11709.586776,W,57.0,75.3,030810,,,A*74
$GPRMC,184124.0,A,3308.256614,N,11709.532406,W,58.0,72.2,030810,,,A*74
$GPRMC,184127.0,A,3308.271719,N,11709.477145,W,58.7,72.6,030810,,,A*7F
$GPRMC,184130.0,A,3308.286686,N,11709.421262,W,59.6,72.5,030810,,,A*70
$GPRMC,184133.0,A,3308.301743,N,11709.365207,W,58.4,72.6,030810,,,A*71
$GPRMC,184136.0,A,3308.316292,N,11709.310806,W,57.6,72.5,030810,,,A*7C
$GPRMC,184139.0,A,3308.331578,N,11709.255280,W,59.9,71.3,030810,,,A*75
$GPRMC,184142.0,A,3308.347667,N,11709.198088,W,60.6,72.7,030810,,,A*7F
$GPRMC,184145.0,A,3308.360476,N,11709.140842,W,58.7,78.1,030810,,,A*72
$GPRMC,184148.0,A,3308.368027,N,11709.082559,W,59.4,84.2,030810,,,A*7D
$GPRMC,184151.0,A,3308.370539,N,11709.024050,W,59.4,89.6,030810,,,A*7F
$GPRMC,184154.0,A,3308.369184,N,11708.964374,W,60.8,92.2,030810,,,A*71
$GPRMC,184157.0,A,3308.367298,N,11708.903034,W,62.6,92.1,030810,,,A*7B
$GPRMC,184200.0,A,3308.365676,N,11708.840491,W,63.1,91.6,030810,,,A*73
$GPRMC,184203.0,A,3308.363845,N,11708.777230,W,64.3,91.8,030810,,,A*75
$GPRMC,184206.0,A,3308.362279,N,11708.712178,W,66.5,91.8,030810,,,A*7C
$GPRMC,184209.0,A,3308.360506,N,11708.646286,W,65.6,92.5,030810,,,A*72
$GPRMC,184212.0,A,3308.354338,N,11708.582079,W,65.5,101.1,030810,,,A*41
$GPRMC,184215.0,A,3308.338996,N,11708.520733,W,63.6,111.1,030810,,,A*47
$GPRMC,184218.0,A,3308.315850,N,11708.464226,W,62.7,118.6,030810,,,A*40
$GPRMC,184221.0,A,3308.291385,N,11708.410907,W,60.0,118.0,030810,,,A*4C
$GPRMC,184224.0,A,3308.267693,N,11708.358071,W,60.8,117.2,030810,,,A*44
$GPRMC,184227.0,A,3308.244280,N,11708.303384,W,62.6,116.8,030810,,,A*40
$GPRMC,184230.0,A,3308.219846,N,11708.247294,W,64.2,117.2,030810,,,A*46
$GPRMC,184233.0,A,3308.194783,N,11708.190027,W,65.7,117.4,030810,,,A*44
$GPRMC,184236.0,A,3308.169519,N,11708.131971,W,64.9,116.8,030810,,,A*41
$GPRMC,184239.0,A,3308.146277,N,11708.075342,W,63.0,114.1,030810,,,A*42
$GPRMC,184242.0,A,3308.127652,N,11708.017487,W,62.1,107.9,030810,,,A*4A
$GPRMC,184245.0,A,3308.114644,N,11707.957203,W,63.4,101.6,030810,,,A*4F
$GPRMC,184248.0,A,3308.104691,N,11707.894595,W,64.6,100.6,030810,,,A*49
$GPRMC,184251.0,A,3308.094721,N,11707.832063,W,63.1,100.8,030810,,,A*4D
$GPRMC,184254.0,A,3308.085306,N,11707.772291,W,58.9,100.4,030810,,,A*41
$GPRMC,184257.0,A,3308.076966,N,11707.717318,W,54.7,100.5,030810,,,A*42
$GPRMC,184300.0,A,3308.068197,N,11707.664311,W,55.0,102.5,030810,,,A*40
$GPRMC,184303.0,A,3308.055944,N,11707.612163,W,54.0,108.2,030810,,,A*41
$GPRMC,184306.0,A,3308.040258,N,11707.563622,W,51.9,113.3,030810,,,A*46
$GPRMC,184309.0,A,3308.021763,N,11707.517123,W,51.5,117.3,030810,,,A*4E
$GPRMC,184312.0,A,3308.002333,N,11707.472544,W,50.0,117.0,030810,,,A*44
$GPRMC,184315.0,A,3307.983743,N,11707.428897,W,48.8,117.2,030810,,,A*40
$GPRMC,184318.0,A,3307.964775,N,11707.384962,W,51.6,117.1,030810,,,A*4E
$GPRMC,184321.0,A,3307.944822,N,11707.339172,W,51.8,117.3,030810,,,A*48
$GPRMC,184324.0,A,3307.925116,N,11707.293904,W,51.0,117.4,030810,,,A*43
$GPRMC,184327.0,A,3307.905701,N,11707.249120,W,50.8,117.0,030810,,,A*46
$GPRMC,184330.0,A,3307.886268,N,11707.204054,W,52.0,117.2,030810,,,A*43
$GPRMC,184333.0,A,3307.866265,N,11707.157831,W,51.8,117.5,030810,,,A*41
$GPRMC,184336.0,A,3307.846636,N,11707.113051,W,50.3,117.6,030810,,,A*43
$GPRMC,184339.0,A,3307.827656,N,11707.068468,W,51.3,117.1,030810,,,A*48
$GPRMC,184342.0,A,3307.807376,N,11707.021788,W,54.1,117.4,030810,,,A*43
$GPRMC,184345.0,A,3307.786359,N,11706.973850,W,54.4,117.6,030810,,,A*4D
$GPRMC,184348.0,A,3307.765332,N,11706.925736,W,55.2,117.2,030810,,,A*4F
$GPRMC,184351.0,A,3307.744202,N,11706.876646,W,55.4,117.2,030810,,,A*41
$GPRMC,184354.0,A,3307.723015,N,11706.827884,W,55.7,117.4,030810,,,A*40
$GPRMC,184357.0,A,3307.701681,N,11706.778709,W,55.6,116.9,030810,,,A*4A
$GPRMC,184400.0,A,3307.680443,N,11706.728890,W,56.8,117.4,030810,,,A*40
$GPRMC,184403.0,A,3307.658853,N,11706.679303,W,56.4,117.3,030810,,,A*44
$GPRMC,184406.0,A,3307.637552,N,11706.629756,W,55.2,116.7,030810,,,A*45
$GPRMC,184409.0,A,3307.617581,N,11706.580837,W,54.6,113.9,030810,,,A*40
$GPRMC,184412.0,A,3307.602383,N,11706.530194,W,54.0,105.6,030810,,,A*4F
$GPRMC,184415.0,A,3307.593059,N,11706.477690,W,54.1,98.7,030810,,,A*73
$GPRMC,184418.0,A,3307.589395,N,11706.423687,W,54.9,91.0,030810,,,A*77
$GPRMC,184421.0,A,3307.592199,N,11706.369840,W,53.7,82.2,030810,,,A*7C
$GPRMC,184424.0,A,3307.601470,N,11706.319312,W,49.6,74.5,030810,,,A*7D
$GPRMC,184427.0,A,3307.613741,N,11706.275810,W,44.3,69.5,030810,,,A*7A
$GPRMC,184430.0,A,3307.626138,N,11706.236321,W,43.4,70.4,030810,,,A*75
$GPRMC,184433.0,A,3307.638751,N,11706.195681,W,44.8,70.4,030810,,,A*7E
$GPRMC,184436.0,A,3307.651930,N,11706.153064,W,46.7,70.5,030810,,,A*76
$GPRMC,184439.0,A,3307.665750,N,11706.109340,W,47.8,70.0,030810,,,A*77
$GPRMC,184442.0,A,3307.679739,N,11706.064591,W,48.0,69.9,030810,,,A*7F
$GPRMC,184445.0,A,3307.693697,N,11706.020636,W,47.2,70.3,030810,,,A*78
$GPRMC,184448.0,A,3307.707042,N,11705.977386,W,45.7,70.2,030810,,,A*77
$GPRMC,184451.0,A,3307.720555,N,11705.934226,W,47.4,69.9,030810,,,A*77
$GPRMC,184454.0,A,3307.734428,N,11705.889647,W,48.6,70.2,030810,,,A*76
$GPRMC,184457.0,A,3307.748988,N,11705.843475,W,50.2,69.8,030810,,,A*73
$GPRMC,184500.0,A,3307.763268,N,11705.796729,W,49.4,70.1,030810,,,A*7E
$GPRMC,184503.0,A,3307.777259,N,11705.750878,W,48.7,70.4,030810,,,A*7C
$GPRMC,184506.0,A,3307.791391,N,11705.704877,W,50.5,70.2,030810,,,A*77
$GPRMC,184509.0,A,3307.806368,N,11705.656657,W,52.7,69.9,030810,,,A*76
$GPRMC,184512.0,A,3307.821581,N,11705.607618,W,52.0,70.1,030810,,,A*70
$GPRMC,184515.0,A,3307.836281,N,11705.560173,W,50.0,69.9,030810,,,A*7C
$GPRMC,184518.0,A,3307.850747,N,11705.513870,W,50.3,69.2,030810,,,A*78
$GPRMC,184521.0,A,3307.866888,N,11705.466440,W,51.8,68.4,030810,,,A*7A
$GPRMC,184524.0,A,3307.881531,N,11705.420026,W,48.4,70.3,030810,,,A*75
$GPRMC,184527.0,A,3307.894898,N,11705.375925,W,46.2,70.0,030810,,,A*7A
$GPRMC,184530.0,A,3307.908758,N,11705.334033,W,44.7,68.0,030810,,,A*7E
$GPRMC,184533.0,A,3307.923026,N,11705.295836,W,39.2,64.5,030810,,,A*7B
$GPRMC,184536.0,A,3307.937628,N,11705.264123,W,34.2,59.8,030810,,,A*7E
$GPRMC,184539.0,A,3307.952582,N,11705.236085,W,31.6,56.9,030810,,,A*74
$GPRMC,184542.0,A,3307.963234,N,11705.214289,W,20.4,60.6,030810,,,A*76
$GPRMC,184545.0,A,3307.968235,N,11705.204764,W,6.8,60.9,030810,,,A*4B
$GPRMC,184803.0,A,3307.972573,N,11705.201052,W,11.0,59.8,030810,,,A*78
$GPRMC,184806.0,A,3307.980323,N,11705.192497,W,14.1,24.6,030810,,,A*77
$GPRMC,184809.0,A,3307.993706,N,11705.192588,W,19.0,343.1,030810,,,A*4F
$GPRMC,184812.0,A,3308.010093,N,11705.199503,W,21.6,339.9,030810,,,A*43
$GPRMC,184815.0,A,3308.028057,N,11705.207344,W,24.1,340.0,030810,,,A*43
$GPRMC,184818.0,A,3308.047781,N,11705.216416,W,25.6,338.6,030810,,,A*44
$GPRMC,184821.0,A,3308.068806,N,11705.226313,W,28.2,338.4,030810,,,A*49
$GPRMC,184824.0,A,3308.091296,N,11705.236890,W,29.7,338.7,030810,,,A*4F
$GPRMC,184827.0,A,3308.115582,N,11705.248004,W,31.7,338.7,030810,,,A*46
$GPRMC,184830.0,A,3308.141515,N,11705.258047,W,32.4,342.4,030810,,,A*47
$GPRMC,184833.0,A,3308.167814,N,11705.269202,W,34.0,340.0,030810,,,A*49
$GPRMC,184836.0,A,3308.194886,N,11705.281337,W,34.5,338.7,030810,,,A*47
$GPRMC,184839.0,A,3308.221631,N,11705.294071,W,33.4,338.2,030810,,,A*41
$GPRMC,184842.0,A,3308.247433,N,11705.306025,W,32.8,340.0,030810,,,A*46
$GPRMC,184845.0,A,3308.272338,N,11705.316898,W,30.6,339.7,030810,,,A*41
$GPRMC,184848.0,A,3308.294800,N,11705.326700,W,26.6,339.5,030810,,,A*4C
$GPRMC,184851.0,A,3308.316612,N,11705.335944,W,28.6,340.7,030810,,,A*4C
$GPRMC,184854.0,A,3308.338260,N,11705.345167,W,25.2,340.2,030810,,,A*46
$GPRMC,184857.0,A,3308.356078,N,11705.352877,W,20.2,340.6,030810,,,A*49
$GPRMC,184900.0,A,3308.368216,N,11705.358419,W,12.6,340.9,030810,,,A*49
$GPRMC,184918.0,A,3308.379670,N,11705.360878,W,4.6,14.7,030810,,,A*4F
$GPRMC,184921.0,A,3308.385114,N,11705.354210,W,14.3,64.9,030810,,,A*7D
$GPRMC,184924.0,A,3308.390957,N,11705.336266,W,22.1,69.9,030810,,,A*7C
$GPRMC,184927.0,A,3308.398265,N,11705.312603,W,27.3,69.4,030810,,,A*76
$GPRMC,184930.0,A,3308.407385,N,11705.284445,W,31.0,69.3,030810,,,A*73
$GPRMC,184933.0,A,3308.417129,N,11705.254160,W,33.5,69.0,030810,,,A*7E
$GPRMC,184936.0,A,3308.427182,N,11705.221978,W,34.0,70.0,030810,,,A*70
$GPRMC,184939.0,A,3308.436645,N,11705.191185,W,31.6,69.8,030810,,,A*72
$GPRMC,184942.0,A,3308.445597,N,11705.162011,W,30.5,70.6,030810,,,A*72
$GPRMC,184945.0,A,3308.453658,N,11705.132631,W,31.4,73.6,030810,,,A*70
$GPRMC,184948.0,A,3308.460659,N,11705.102260,W,31.7,74.5,030810,,,A*78
$GPRMC,184951.0,A,3308.468980,N,11705.071904,W,32.0,70.0,030810,,,A*7A
$GPRMC,184954.0,A,3308.478568,N,11705.041095,W,33.4,69.6,030810,,,A*7D
$GPRMC,184957.0,A,3308.488716,N,11705.008627,W,34.9,69.7,030810,,,A*73
$GPRMC,185000.0,A,3308.498714,N,11704.976632,W,34.1,70.1,030810,,,A*79
$GPRMC,185003.0,A,3308.508338,N,11704.944822,W,33.7,69.8,030810,,,A*76
$GPRMC,185006.0,A,3308.518278,N,11704.913028,W,33.7,69.8,030810,,,A*77
$GPRMC,185009.0,A,3308.527981,N,11704.882858,W,31.6,68.0,030810,,,A*75
$GPRMC,185012.0,A,3308.539269,N,11704.854987,W,30.5,61.0,030810,,,A*7E
$GPRMC,185015.0,A,3308.552104,N,11704.828825,W,30.9,60.3,030810,,,A*70
$GPRMC,185018.0,A,3308.565358,N,11704.800667,W,33.5,61.3,030810,,,A*7E
$GPRMC,185021.0,A,3308.579802,N,11704.771211,W,34.6,59.9,030810,,,A*74
$GPRMC,185024.0,A,3308.593881,N,11704.742751,W,30.6,59.6,030810,,,A*74
$GPRMC,185027.0,A,3308.605636,N,11704.719512,W,24.1,58.8,030810,,,A*7F
$GPRMC,185030.0,A,3308.614106,N,11704.702750,W,15.6,59.0,030810,,,A*7F
$GPRMC,185033.0,A,3308.618539,N,11704.693908,W,7.0,59.0,030810,,,A*47
$GPRMC,185054.0,A,3308.624141,N,11704.684509,W,12.5,60.4,030810,,,A*76
$GPRMC,185057.0,A,3308.631431,N,11704.669592,W,19.9,59.9,030810,,,A*72
$GPRMC,185101.0,A,3308.644469,N,11704.643200,W,26.8,59.4,030810,,,A*7B
$GPRMC,185104.0,A,3308.656627,N,11704.618723,W,29.1,59.6,030810,,,A*7B
$GPRMC,185107.0,A,3308.669278,N,11704.592828,W,30.7,60.1,030810,,,A*7C
$GPRMC,185110.0,A,3308.682097,N,11704.566339,W,30.2,60.2,030810,,,A*7A
$GPRMC,185113.0,A,3308.694602,N,11704.540535,W,29.9,60.1,030810,,,A*7A
$GPRMC,185116.0,A,3308.707215,N,11704.514056,W,31.0,60.4,030810,,,A*72
$GPRMC,185119.0,A,3308.719790,N,11704.487910,W,28.4,60.5,030810,,,A*77
$GPRMC,185122.0,A,3308.730779,N,11704.464967,W,24.8,60.4,030810,,,A*7F
$GPRMC,185125.0,A,3308.740043,N,11704.445675,W,19.0,60.9,030810,,,A*75
$GPRMC,185128.0,A,3308.745321,N,11704.434183,W,8.4,60.3,030810,,,A*4C
$GPRMC,185134.0,A,3308.748122,N,11704.428204,W,6.9,61.2,030810,,,A*4F
$GPRMC,185137.0,A,3308.752724,N,11704.418150,W,16.4,61.2,030810,,,A*7A
$GPRMC,185140.0,A,3308.760479,N,11704.401685,W,21.3,60.8,030810,,,A*7F
$GPRMC,185143.0,A,3308.770371,N,11704.381141,W,26.0,59.5,030810,,,A*71
$GPRMC,185146.0,A,3308.782798,N,11704.356709,W,31.0,59.8,030810,,,A*71
$GPRMC,185149.0,A,3308.796442,N,11704.329778,W,32.1,58.7,030810,,,A*7D
$GPRMC,185152.0,A,3308.810363,N,11704.302611,W,30.5,59.2,030810,,,A*77
$GPRMC,185155.0,A,3308.823305,N,11704.276334,W,31.1,60.6,030810,,,A*7B
$GPRMC,185158.0,A,3308.836517,N,11704.248699,W,32.0,60.7,030810,,,A*7B
$GPRMC,185201.0,A,3308.849829,N,11704.220510,W,33.3,60.5,030810,,,A*70
$GPRMC,185204.0,A,3308.864092,N,11704.190582,W,34.6,60.6,030810,,,A*70
$GPRMC,185207.0,A,3308.878236,N,11704.161750,W,32.2,60.8,030810,,,A*7D
$GPRMC,185210.0,A,3308.891458,N,11704.132867,W,34.0,62.6,030810,,,A*77
$GPRMC,185213.0,A,3308.905026,N,11704.101531,W,36.3,62.2,030810,,,A*7E
$GPRMC,185216.0,A,3308.919206,N,11704.069897,W,34.8,62.7,030810,,,A*74
$GPRMC,185219.0,A,3308.932201,N,11704.038878,W,34.6,63.6,030810,,,A*7E
$GPRMC,185222.0,A,3308.945026,N,11704.008165,W,34.2,63.9,030810,,,A*7C
$GPRMC,185225.0,A,3308.957578,N,11703.977940,W,33.0,63.7,030810,,,A*74
$GPRMC,185228.0,A,3308.969603,N,11703.948665,W,33.2,64.2,030810,,,A*7F
$GPRMC,185231.0,A,3308.981698,N,11703.919199,W,32.9,63.8,030810,,,A*74
$GPRMC,185234.0,A,3308.994201,N,11703.888738,W,34.2,64.1,030810,,,A*76
$GPRMC,185237.0,A,3309.006429,N,11703.858689,W,33.0,64.4,030810,,,A*7C
$GPRMC,185240.0,A,3309.018167,N,11703.828961,W,32.4,64.6,030810,,,A*75
