NMEA Sentence Code,UTC Time,Status,Latitude,Latitude Direction,Longitude,Longitude Direction,Speed (knots),Track Angle (degrees true),Date,MagneticVariation,Magnetic Variation Direction,[FAA Mode]-Optional,Checksum
$GPRMC,213359.0,A,3335.237040,N,11740.423281,W,30.7,178.0,310110,,,A*42
$GPRMC,213402.0,A,3335.211115,N,11740.422406,W,30.7,178.1,310110,,,A*47
$GPRMC,213405.0,A,3335.184211,N,11740.421124,W,32.7,177.0,310110,,,A*42
$GPRMC,213408.0,A,3335.156015,N,11740.419429,W,33.7,176.9,310110,,,A*4C
$GPRMC,213411.0,A,3335.127166,N,11740.417306,W,35.0,176.6,310110,,,A*4D
$GPRMC,213414.0,A,3335.097474,N,11740.415375,W,35.7,176.0,310110,,,A*43
$GPRMC,213417.0,A,3335.067327,N,11740.410120,W,37.5,165.0,310110,,,A*4B
$GPRMC,213420.0,A,3335.038570,N,11740.396476,W,38.1,154.4,310110,,,A*43
$GPRMC,213423.0,A,3335.015632,N,11740.380780,W,28.5,153.6,310110,,,A*47
$GPRMC,213426.0,A,3334.998108,N,11740.377616,W,21.0,181.7,310110,,,A*45
$GPRMC,213429.0,A,3334.979681,N,11740.384486,W,24.0,207.3,310110,,,A*48
$GPRMC,213432.0,A,3334.966316,N,11740.399554,W,19.9,236.9,310110,,,A*4A
$GPRMC,213435.0,A,3334.960782,N,11740.413268,W,12.8,247.7,310110,,,A*4D
$GPRMC,213441.0,A,3334.959436,N,11740.423683,W,7.6,268.7,310110,,,A*7D
$GPRMC,213444.0,A,3334.959693,N,11740.434370,W,13.2,272.1,310110,,,A*46
$GPRMC,213447.0,A,3334.960153,N,11740.445902,W,9.7,266.0,310110,,,A*77
$GPRMC,213450.0,A,3334.954820,N,11740.454256,W,12.2,208.9,310110,,,A*4F
$GPRMC,213453.0,A,3334.938435,N,11740.457932,W,22.2,183.5,310110,,,A*4B
$GPRMC,213456.0,A,3334.919289,N,11740.459159,W,22.8,183.3,310110,,,A*4B
$GPRMC,213459.0,A,3334.901284,N,11740.459898,W,20.4,181.9,310110,,,A*42
$GPRMC,213502.0,A,3334.885302,N,11740.459959,W,17.4,180.5,310110,,,A*4A
$GPRMC,213505.0,A,3334.873521,N,11740.459908,W,10.9,179.8,310110,,,A*46
$GPRMC,213514.0,A,3334.865122,N,11740.459793,W,5.6,178.8,310110,,,A*70
$GPRMC,213517.0,A,3334.855698,N,11740.459647,W,15.3,180.1,310110,,,A*44
$GPRMC,213520.0,A,3334.841465,N,11740.459672,W,17.5,180.0,310110,,,A*46
$GPRMC,213523.0,A,3334.826956,N,11740.459154,W,17.3,175.3,310110,,,A*45
$GPRMC,213526.0,A,3334.813488,N,11740.453059,W,19.0,146.1,310110,,,A*41
$GPRMC,213529.0,A,3334.806611,N,11740.435467,W,22.4,102.9,310110,,,A*45
$GPRMC,213532.0,A,3334.802160,N,11740.411402,W,25.9,102.0,310110,,,A*4C
$GPRMC,213535.0,A,3334.798951,N,11740.385799,W,25.1,96.6,310110,,,A*74
$GPRMC,213538.0,A,3334.795753,N,11740.364038,W,20.2,107.6,310110,,,A*44
$GPRMC,213541.0,A,3334.787191,N,11740.347643,W,17.7,133.5,310110,,,A*4F
$GPRMC,213544.0,A,3334.764695,N,11740.342121,W,28.9,172.4,310110,,,A*44
$GPRMC,213547.0,A,3334.736917,N,11740.338102,W,36.8,173.2,310110,,,A*40
$GPRMC,213550.0,A,3334.703991,N,11740.332867,W,41.9,172.5,310110,,,A*49
$GPRMC,213553.0,A,3334.667967,N,11740.327456,W,44.5,173.8,310110,,,A*4F
$GPRMC,213556.0,A,3334.629731,N,11740.324116,W,47.0,177.9,310110,,,A*4C
$GPRMC,213559.0,A,3334.588449,N,11740.322904,W,51.3,179.6,310110,,,A*4F
$GPRMC,213602.0,A,3334.543939,N,11740.322301,W,54.6,178.8,310110,,,A*4F
$GPRMC,213605.0,A,3334.497658,N,11740.321677,W,55.5,180.3,310110,,,A*41
$GPRMC,213608.0,A,3334.451000,N,11740.322145,W,56.2,180.5,310110,,,A*4A
$GPRMC,213611.0,A,3334.403347,N,11740.323055,W,56.6,180.8,310110,,,A*4D
$GPRMC,213614.0,A,3334.355683,N,11740.323890,W,56.9,180.6,310110,,,A*41
$GPRMC,213617.0,A,3334.307992,N,11740.324393,W,57.1,180.5,310110,,,A*4F
$GPRMC,213620.0,A,3334.260313,N,11740.325157,W,57.3,180.9,310110,,,A*4D
$GPRMC,213623.0,A,3334.212448,N,11740.326475,W,57.4,181.7,310110,,,A*4C
$GPRMC,213626.0,A,3334.164744,N,11740.328125,W,57.0,182.2,310110,,,A*48
$GPRMC,213629.0,A,3334.117266,N,11740.331298,W,56.8,184.1,310110,,,A*47
$GPRMC,213632.0,A,3334.070556,N,11740.336176,W,55.4,185.3,310110,,,A*41
$GPRMC,213635.0,A,3334.025052,N,11740.342362,W,54.0,186.9,310110,,,A*4F
$GPRMC,213638.0,A,3333.981009,N,11740.348830,W,52.6,187.6,310110,,,A*44
$GPRMC,213641.0,A,3333.938166,N,11740.355096,W,51.1,186.3,310110,,,A*48
$GPRMC,213644.0,A,3333.896500,N,11740.360648,W,49.8,186.2,310110,,,A*4E
$GPRMC,213647.0,A,3333.855540,N,11740.366029,W,48.6,186.3,310110,,,A*4F
$GPRMC,213650.0,A,3333.815920,N,11740.370852,W,46.9,185.3,310110,,,A*46
$GPRMC,213653.0,A,3333.777062,N,11740.375771,W,46.6,186.3,310110,,,A*46
$GPRMC,213656.0,A,3333.738967,N,11740.381192,W,45.4,187.2,310110,,,A*45
$GPRMC,213659.0,A,3333.702629,N,11740.387036,W,43.1,189.2,310110,,,A*42
$GPRMC,213702.0,A,3333.668501,N,11740.393886,W,39.9,189.6,310110,,,A*4E
$GPRMC,213705.0,A,3333.637951,N,11740.400504,W,33.7,190.5,310110,,,A*4F
$GPRMC,213708.0,A,3333.613288,N,11740.405714,W,26.5,190.2,310110,,,A*4C
$GPRMC,213711.0,A,3333.593401,N,11740.410115,W,22.0,190.8,310110,,,A*40
$GPRMC,213714.0,A,3333.576666,N,11740.413655,W,20.4,189.8,310110,,,A*43
$GPRMC,213717.0,A,3333.560256,N,11740.417176,W,17.5,189.9,310110,,,A*46
$GPRMC,213720.0,A,3333.548066,N,11740.419303,W,13.1,180.0,310110,,,A*47
$GPRMC,213723.0,A,3333.538608,N,11740.414244,W,14.3,139.6,310110,,,A*43
$GPRMC,213726.0,A,3333.536214,N,11740.399961,W,15.9,87.5,310110,,,A*73
$GPRMC,213729.0,A,3333.541578,N,11740.380634,W,21.2,72.5,310110,,,A*70
$GPRMC,213732.0,A,3333.547304,N,11740.360487,W,20.4,71.1,310110,,,A*75
$GPRMC,213735.0,A,3333.549818,N,11740.343132,W,16.5,88.5,310110,,,A*76
$GPRMC,213738.0,A,3333.546748,N,11740.327194,W,17.4,110.9,310110,,,A*4C
$GPRMC,213741.0,A,3333.534796,N,11740.316517,W,16.8,150.5,310110,,,A*4C
$GPRMC,213744.0,A,3333.514395,N,11740.311981,W,23.2,169.4,310110,,,A*4F
$GPRMC,213747.0,A,3333.496967,N,11740.310870,W,18.4,191.4,310110,,,A*47
$GPRMC,213750.0,A,3333.483776,N,11740.322673,W,20.4,233.4,310110,,,A*47
$GPRMC,213753.0,A,3333.483107,N,11740.344972,W,21.9,271.6,310110,,,A*42
$GPRMC,213756.0,A,3333.495124,N,11740.362353,W,21.2,307.7,310110,,,A*46
$GPRMC,213759.0,A,3333.515763,N,11740.370963,W,21.2,332.8,310110,,,A*46
$GPRMC,213802.0,A,3333.548307,N,11740.371672,W,31.6,352.8,310110,,,A*44
$GPRMC,213805.0,A,3333.586687,N,11740.366839,W,38.5,1.1,310110,,,A*4D
$GPRMC,213808.0,A,3333.625881,N,11740.365315,W,46.2,0.4,310110,,,A*4E
$GPRMC,213811.0,A,3333.666623,N,11740.362775,W,47.4,4.0,310110,,,A*45
$GPRMC,213814.0,A,3333.708734,N,11740.357902,W,49.5,5.7,310110,,,A*4F
$GPRMC,213817.0,A,3333.751210,N,11740.352340,W,51.3,6.4,310110,,,A*45
$GPRMC,213820.0,A,3333.794074,N,11740.346843,W,50.6,6.3,310110,,,A*46
$GPRMC,213823.0,A,3333.836507,N,11740.341039,W,50.7,6.8,310110,,,A*4B
$GPRMC,213826.0,A,3333.879290,N,11740.335316,W,51.0,5.8,310110,,,A*44
$GPRMC,213829.0,A,3333.921580,N,11740.329915,W,50.6,5.7,310110,,,A*4D
$GPRMC,213832.0,A,3333.964099,N,11740.324101,W,51.0,6.5,310110,,,A*4D
$GPRMC,213835.0,A,3334.006987,N,11740.318705,W,51.6,5.8,310110,,,A*43
$GPRMC,213838.0,A,3334.050293,N,11740.313259,W,51.7,5.6,310110,,,A*4B
$GPRMC,213841.0,A,3334.093730,N,11740.308184,W,52.2,4.9,310110,,,A*47
$GPRMC,213844.0,A,3334.137810,N,11740.304377,W,52.7,3.4,310110,,,A*4D
$GPRMC,213847.0,A,3334.181851,N,11740.301641,W,52.8,1.7,310110,,,A*4D
$GPRMC,213850.0,A,3334.226391,N,11740.300615,W,53.4,0.9,310110,,,A*40
$GPRMC,213853.0,A,3334.271236,N,11740.299921,W,53.6,0.4,310110,,,A*4B
$GPRMC,213856.0,A,3334.316005,N,11740.299343,W,53.2,1.1,310110,,,A*42
$GPRMC,213859.0,A,3334.360209,N,11740.298629,W,52.4,0.6,310110,,,A*4B
$GPRMC,213902.0,A,3334.403902,N,11740.298005,W,51.9,0.8,310110,,,A*4E
$GPRMC,213905.0,A,3334.447030,N,11740.297125,W,51.7,1.2,310110,,,A*48
$GPRMC,213908.0,A,3334.490321,N,11740.296788,W,51.9,0.6,310110,,,A*47
$GPRMC,213911.0,A,3334.533704,N,11740.296059,W,51.9,0.6,310110,,,A*4F
$GPRMC,213914.0,A,3334.577269,N,11740.295677,W,51.8,0.2,310110,,,A*48
$GPRMC,213917.0,A,3334.620047,N,11740.295470,W,50.4,0.8,310110,,,A*46
$GPRMC,213920.0,A,3334.662302,N,11740.294751,W,50.8,0.8,310110,,,A*4B
$GPRMC,213923.0,A,3334.704844,N,11740.294299,W,50.9,0.7,310110,,,A*4F
$GPRMC,213926.0,A,3334.747453,N,11740.293408,W,50.9,0.8,310110,,,A*41
$GPRMC,213929.0,A,3334.790027,N,11740.292684,W,51.1,1.0,310110,,,A*44
$GPRMC,213932.0,A,3334.833087,N,11740.292116,W,52.3,0.3,310110,,,A*4D
$GPRMC,213935.0,A,3334.877605,N,11740.291472,W,54.2,1.1,310110,,,A*46
$GPRMC,213938.0,A,3334.923134,N,11740.290346,W,54.5,0.9,310110,,,A*41
$GPRMC,213941.0,A,3334.969178,N,11740.289440,W,55.3,0.9,310110,,,A*47
$GPRMC,213944.0,A,3335.015873,N,11740.288530,W,56.2,0.8,310110,,,A*47
$GPRMC,213947.0,A,3335.063019,N,11740.287700,W,56.0,0.8,310110,,,A*4D
$GPRMC,213950.0,A,3335.109114,N,11740.287052,W,54.4,0.9,310110,,,A*4D
$GPRMC,213953.0,A,3335.153275,N,11740.286322,W,52.0,0.7,310110,,,A*4C
$GPRMC,213956.0,A,3335.197302,N,11740.285729,W,53.0,0.7,310110,,,A*4D
$GPRMC,213959.0,A,3335.242127,N,11740.284904,W,53.3,1.0,310110,,,A*49
$GPRMC,214002.0,A,3335.286260,N,11740.283989,W,52.6,0.5,310110,,,A*43
$GPRMC,214005.0,A,3335.330532,N,11740.283400,W,53.6,0.8,310110,,,A*48
$GPRMC,214008.0,A,3335.375306,N,11740.282787,W,53.6,0.4,310110,,,A*44
$GPRMC,214011.0,A,3335.420101,N,11740.282204,W,53.7,0.4,310110,,,A*41
$GPRMC,214014.0,A,3335.464340,N,11740.283888,W,52.3,355.9,310110,,,A*47
$GPRMC,214017.0,A,3335.506869,N,11740.289979,W,50.4,351.1,310110,,,A*4D
$GPRMC,214020.0,A,3335.548414,N,11740.299655,W,50.9,346.5,310110,,,A*4A
$GPRMC,214023.0,A,3335.589339,N,11740.313932,W,51.5,342.6,310110,,,A*4B
$GPRMC,214026.0,A,3335.628921,N,11740.332993,W,51.8,336.8,310110,,,A*4D
$GPRMC,214029.0,A,3335.667869,N,11740.355780,W,52.3,332.0,310110,,,A*4D
$GPRMC,214032.0,A,3335.705839,N,11740.381992,W,52.8,329.1,310110,,,A*43
$GPRMC,214035.0,A,3335.741905,N,11740.411468,W,52.2,325.9,310110,,,A*42
$GPRMC,214038.0,A,3335.776747,N,11740.443317,W,52.5,322.1,310110,,,A*43
$GPRMC,214041.0,A,3335.811411,N,11740.476952,W,53.7,320.4,310110,,,A*4A
$GPRMC,214044.0,A,3335.843150,N,11740.515018,W,53.9,314.3,310110,,,A*45
$GPRMC,214047.0,A,3335.873395,N,11740.554436,W,52.9,311.9,310110,,,A*4D
$GPRMC,214050.0,A,3335.900598,N,11740.595564,W,52.1,307.4,310110,,,A*4C
$GPRMC,214053.0,A,3335.925162,N,11740.638056,W,51.4,303.6,310110,,,A*49
$GPRMC,214056.0,A,3335.946705,N,11740.681880,W,50.5,299.3,310110,,,A*48
$GPRMC,214059.0,A,3335.962325,N,11740.722002,W,43.1,295.4,310110,,,A*40
$GPRMC,214102.0,A,3335.978499,N,11740.761948,W,45.4,296.3,310110,,,A*43
$GPRMC,214105.0,A,3335.995993,N,11740.804928,W,48.0,295.9,310110,,,A*4A
$GPRMC,214108.0,A,3336.013137,N,11740.850929,W,50.2,295.4,310110,,,A*43
$GPRMC,214111.0,A,3336.030822,N,11740.897997,W,51.7,295.1,310110,,,A*48
$GPRMC,214114.0,A,3336.049287,N,11740.945220,W,52.3,295.2,310110,,,A*4B
$GPRMC,214117.0,A,3336.067731,N,11740.993078,W,53.1,294.8,310110,,,A*40
$GPRMC,214120.0,A,3336.087206,N,11741.042097,W,54.4,295.5,310110,,,A*40
$GPRMC,214123.0,A,3336.106694,N,11741.093369,W,57.0,294.9,310110,,,A*40
$GPRMC,214126.0,A,3336.126947,N,11741.145325,W,57.2,294.9,310110,,,A*46
$GPRMC,214129.0,A,3336.148205,N,11741.196295,W,56.9,297.8,310110,,,A*40
$GPRMC,214132.0,A,3336.171578,N,11741.245933,W,57.0,300.6,310110,,,A*4E
$GPRMC,214135.0,A,3336.197531,N,11741.292860,W,55.7,305.1,310110,,,A*46
$GPRMC,214138.0,A,3336.224980,N,11741.336593,W,54.7,306.9,310110,,,A*42
$GPRMC,214141.0,A,3336.253326,N,11741.380875,W,57.2,307.6,310110,,,A*4A
$GPRMC,214144.0,A,3336.283355,N,11741.426283,W,57.9,308.7,310110,,,A*4B
$GPRMC,214147.0,A,3336.313425,N,11741.474432,W,60.8,306.6,310110,,,A*41
$GPRMC,214150.0,A,3336.343258,N,11741.523456,W,60.9,305.5,310110,,,A*4E
$GPRMC,214153.0,A,3336.371868,N,11741.574105,W,61.0,303.5,310110,,,A*4A
$GPRMC,214156.0,A,3336.399209,N,11741.626488,W,61.6,301.6,310110,,,A*47
$GPRMC,214159.0,A,3336.424576,N,11741.679707,W,61.3,299.2,310110,,,A*49
$GPRMC,214202.0,A,3336.448424,N,11741.733564,W,60.8,297.8,310110,,,A*4E
$GPRMC,214205.0,A,3336.472001,N,11741.787456,W,61.0,297.5,310110,,,A*48
$GPRMC,214208.0,A,3336.495729,N,11741.842178,W,62.1,297.8,310110,,,A*41
$GPRMC,214211.0,A,3336.519808,N,11741.897790,W,63.2,297.6,310110,,,A*44
$GPRMC,214214.0,A,3336.544375,N,11741.954237,W,63.8,297.3,310110,,,A*41
$GPRMC,214217.0,A,3336.569214,N,11742.011172,W,63.9,298.1,310110,,,A*4E
$GPRMC,214220.0,A,3336.595602,N,11742.066141,W,63.2,300.8,310110,,,A*48
$GPRMC,214223.0,A,3336.624304,N,11742.118595,W,62.7,304.7,310110,,,A*4B
$GPRMC,214226.0,A,3336.655384,N,11742.168081,W,61.7,309.2,310110,,,A*4C
$GPRMC,214229.0,A,3336.688669,N,11742.213329,W,59.3,312.5,310110,,,A*49
$GPRMC,214232.0,A,3336.722814,N,11742.255231,W,58.8,315.0,310110,,,A*44
$GPRMC,214235.0,A,3336.758217,N,11742.295978,W,58.5,315.7,310110,,,A*47
$GPRMC,214238.0,A,3336.792684,N,11742.336714,W,58.0,315.5,310110,,,A*49
$GPRMC,214241.0,A,3336.826918,N,11742.376997,W,57.2,315.7,310110,,,A*43
$GPRMC,214244.0,A,3336.860980,N,11742.417431,W,57.5,315.8,310110,,,A*4C
$GPRMC,214247.0,A,3336.895415,N,11742.457272,W,57.2,315.6,310110,,,A*48
$GPRMC,214250.0,A,3336.929557,N,11742.496771,W,56.8,316.1,310110,,,A*4B
$GPRMC,214253.0,A,3336.964125,N,11742.535868,W,56.4,317.2,310110,,,A*41
$GPRMC,214256.0,A,3336.999598,N,11742.572701,W,55.9,320.9,310110,,,A*46
$GPRMC,214259.0,A,3337.036618,N,11742.607116,W,56.2,322.5,310110,,,A*48
$GPRMC,214302.0,A,3337.074849,N,11742.640891,W,57.0,323.3,310110,,,A*4A
$GPRMC,214305.0,A,3337.112789,N,11742.675391,W,57.2,322.0,310110,,,A*42
$GPRMC,214308.0,A,3337.150568,N,11742.710173,W,57.5,322.2,310110,,,A*4D
$GPRMC,214311.0,A,3337.189207,N,11742.745130,W,58.3,322.6,310110,,,A*45
$GPRMC,214314.0,A,3337.227466,N,11742.780747,W,58.0,321.7,310110,,,A*48
$GPRMC,214317.0,A,3337.265607,N,11742.816479,W,58.1,321.8,310110,,,A*48
$GPRMC,214320.0,A,3337.304435,N,11742.852749,W,59.5,322.2,310110,,,A*45
$GPRMC,214323.0,A,3337.343866,N,11742.889542,W,60.0,322.1,310110,,,A*4C
$GPRMC,214326.0,A,3337.383910,N,11742.926848,W,60.7,322.0,310110,,,A*40
$GPRMC,214329.0,A,3337.423469,N,11742.963953,W,60.1,322.3,310110,,,A*4E
$GPRMC,214332.0,A,3337.462777,N,11743.000148,W,58.9,322.7,310110,,,A*45
$GPRMC,214335.0,A,3337.502319,N,11743.035578,W,58.8,322.9,310110,,,A*47
$GPRMC,214338.0,A,3337.541451,N,11743.070878,W,59.0,322.8,310110,,,A*42
$GPRMC,214341.0,A,3337.581231,N,11743.106630,W,59.1,322.7,310110,,,A*4C
$GPRMC,214344.0,A,3337.620886,N,11743.142171,W,59.7,322.8,310110,,,A*4C
$GPRMC,214347.0,A,3337.660304,N,11743.178391,W,59.7,322.5,310110,,,A*42
$GPRMC,214350.0,A,3337.700284,N,11743.215073,W,60.6,322.0,310110,,,A*43
$GPRMC,214353.0,A,3337.741389,N,11743.252827,W,62.1,322.5,310110,,,A*43
$GPRMC,214356.0,A,3337.781230,N,11743.290526,W,60.8,321.2,310110,,,A*44
$GPRMC,214359.0,A,3337.819054,N,11743.330402,W,60.6,317.2,310110,,,A*42
$GPRMC,214402.0,A,3337.854859,N,11743.372345,W,59.8,315.8,310110,,,A*49
$GPRMC,214405.0,A,3337.890574,N,11743.413307,W,58.5,316.0,310110,,,A*45
$GPRMC,214408.0,A,3337.924530,N,11743.453430,W,56.5,315.6,310110,,,A*4A
$GPRMC,214411.0,A,3337.958817,N,11743.493648,W,58.2,316.0,310110,,,A*4C
$GPRMC,214414.0,A,3337.995150,N,11743.533317,W,59.0,319.0,310110,,,A*4A
$GPRMC,214417.0,A,3338.033562,N,11743.570538,W,58.7,322.3,310110,,,A*47
$GPRMC,214420.0,A,3338.073602,N,11743.605611,W,59.4,324.7,310110,,,A*4B
$GPRMC,214423.0,A,3338.115598,N,11743.638633,W,60.3,326.6,310110,,,A*49
$GPRMC,214426.0,A,3338.158768,N,11743.670945,W,60.3,327.3,310110,,,A*4E
$GPRMC,214429.0,A,3338.201090,N,11743.703725,W,60.6,327.1,310110,,,A*44
$GPRMC,214432.0,A,3338.243192,N,11743.736988,W,60.4,326.7,310110,,,A*41
$GPRMC,214435.0,A,3338.285721,N,11743.769742,W,59.9,327.0,310110,,,A*41
$GPRMC,214438.0,A,3338.327563,N,11743.802397,W,59.5,326.9,310110,,,A*4B
$GPRMC,214441.0,A,3338.368943,N,11743.834880,W,59.1,326.7,310110,,,A*42
$GPRMC,214444.0,A,3338.408940,N,11743.867690,W,58.1,326.3,310110,,,A*49
$GPRMC,214447.0,A,3338.449628,N,11743.900068,W,58.0,326.2,310110,,,A*4F
$GPRMC,214450.0,A,3338.490447,N,11743.932360,W,58.2,326.1,310110,,,A*4D
$GPRMC,214453.0,A,3338.530424,N,11743.965130,W,58.1,326.1,310110,,,A*46
$GPRMC,214456.0,A,3338.570903,N,11743.998101,W,58.7,325.7,310110,,,A*4C
$GPRMC,214459.0,A,3338.611727,N,11744.030991,W,58.6,326.0,310110,,,A*47
$GPRMC,214502.0,A,3338.651782,N,11744.064033,W,58.7,325.5,310110,,,A*44
$GPRMC,214505.0,A,3338.691922,N,11744.096979,W,58.1,325.6,310110,,,A*44
$GPRMC,214508.0,A,3338.733040,N,11744.129517,W,59.1,326.6,310110,,,A*4E
$GPRMC,214511.0,A,3338.775263,N,11744.162378,W,58.4,325.9,310110,,,A*4F
$GPRMC,214514.0,A,3338.817321,N,11744.195550,W,60.3,326.4,310110,,,A*40
$GPRMC,214517.0,A,3338.860172,N,11744.229014,W,60.0,326.1,310110,,,A*40
$GPRMC,214520.0,A,3338.903350,N,11744.261874,W,60.8,327.5,310110,,,A*4D
$GPRMC,214523.0,A,3338.946439,N,11744.294010,W,60.7,328.0,310110,,,A*42
$GPRMC,214526.0,A,3338.990085,N,11744.326448,W,60.9,327.9,310110,,,A*46
$GPRMC,214529.0,A,3339.031784,N,11744.359208,W,59.9,327.2,310110,,,A*47
$GPRMC,214532.0,A,3339.072867,N,11744.391722,W,58.5,326.9,310110,,,A*46
$GPRMC,214535.0,A,3339.111848,N,11744.422862,W,55.1,327.5,310110,,,A*48
$GPRMC,214538.0,A,3339.147967,N,11744.451649,W,52.0,329.7,310110,,,A*43
$GPRMC,214541.0,A,3339.182492,N,11744.476890,W,47.9,331.6,310110,,,A*49
$GPRMC,214544.0,A,3339.213819,N,11744.498184,W,41.9,332.1,310110,,,A*46
$GPRMC,214547.0,A,3339.241260,N,11744.515489,W,35.7,336.0,310110,,,A*42
$GPRMC,214550.0,A,3339.267603,N,11744.524843,W,31.0,349.8,310110,,,A*4A
$GPRMC,214553.0,A,3339.290762,N,11744.526317,W,28.6,3.9,310110,,,A*4D
$GPRMC,214556.0,A,3339.312523,N,11744.523857,W,24.8,6.0,310110,,,A*40
$GPRMC,214559.0,A,3339.329678,N,11744.521373,W,16.5,7.7,310110,,,A*4F
$GPRMC,214602.0,A,3339.337931,N,11744.520377,W,5.1,9.6,310110,,,A*73
$GPRMC,214605.0,A,3339.342809,N,11744.519799,W,9.7,0.5,310110,,,A*72
$GPRMC,214608.0,A,3339.352035,N,11744.526120,W,15.0,316.8,310110,,,A*42
$GPRMC,214611.0,A,3339.356513,N,11744.544271,W,20.7,281.7,310110,,,A*4D
$GPRMC,214614.0,A,3339.354489,N,11744.568959,W,26.1,264.9,310110,,,A*42
