NMEA Sentence Code,UTC Time,Status,Latitude,Latitude Direction,Longitude,Longitude Direction,Speed (knots),Track Angle (degrees true),Date,MagneticVariation,Magnetic Variation Direction,[FAA Mode]-Optional,Checksum
$GPRMC,032434.5,A,3245.1454,N,11704.7657,W,35.80,2.30,181210,,*26
$GPRMC,032438.5,A,3245.1861,N,11704.7640,W,36.40,1.60,181210,,*2F
$GPRMC,032442.5,A,3245.2246,N,11704.7615,W,33.30,1.20,181210,,*28
$GPRMC,032446.5,A,3245.2551,N,11704.7614,W,27.70,2.40,181210,,*28
$GPRMC,032450.5,A,3245.2780,N,11704.7598,W,17.70,1.70,181210,,*25
$GPRMC,032458.5,A,3245.2882,N,11704.7595,W,6.60,5.90,181210,,*16
$GPRMC,032502.5,A,3245.3068,N,11704.7596,W,18.50,0.80,181210,,*2E
$GPRMC,032506.5,A,3245.3321,N,11704.7594,W,22.90,0.60,181210,,*2D
$GPRMC,032510.5,A,3245.3598,N,11704.7589,W,25.10,1.20,181210,,*28
$GPRMC,032514.5,A,3245.3911,N,11704.7578,W,27.50,2.70,181210,,*2F
$GPRMC,032518.5,A,3245.4221,N,11704.7576,W,27.80,359.80,181210,,*2D
$GPRMC,032522.5,A,3245.4536,N,11704.7569,W,28.00,0.30,181210,,*28
$GPRMC,032526.5,A,3245.4834,N,11704.7589,W,26.20,357.50,181210,,*26
$GPRMC,032530.5,A,3245.5127,N,11704.7624,W,26.70,351.70,181210,,*2E
$GPRMC,032534.5,A,3245.5413,N,11704.7739,W,27.60,334.00,181210,,*21
$GPRMC,032538.5,A,3245.5644,N,11704.7974,W,27.60,316.10,181210,,*2B
$GPRMC,032542.5,A,3245.5876,N,11704.8260,W,31.10,313.70,181210,,*2B
$GPRMC,032546.5,A,3245.6122,N,11704.8581,W,34.60,314.00,181210,,*2E
$GPRMC,032550.5,A,3245.6401,N,11704.8924,W,37.50,314.00,181210,,*2E
$GPRMC,032554.5,A,3245.6685,N,11704.9265,W,34.90,317.40,181210,,*23
$GPRMC,032558.5,A,3245.7015,N,11704.9504,W,34.90,333.20,181210,,*21
$GPRMC,032602.5,A,3245.7358,N,11704.9711,W,34.30,334.00,181210,,*2E
$GPRMC,032606.5,A,3245.7707,N,11704.9889,W,33.70,338.90,181210,,*2C
$GPRMC,032610.5,A,3245.8070,N,11705.0009,W,33.40,345.40,181210,,*2F
$GPRMC,032614.5,A,3245.8486,N,11705.0059,W,36.00,353.00,181210,,*21
$GPRMC,032618.5,A,3245.8902,N,11705.0085,W,37.50,355.80,181210,,*27
$GPRMC,032622.5,A,3245.9313,N,11705.0130,W,37.70,355.20,181210,,*22
$GPRMC,032626.5,A,3245.9707,N,11705.0177,W,35.90,354.50,181210,,*2E
$GPRMC,032630.5,A,3246.0084,N,11705.0298,W,34.70,342.60,181210,,*26
$GPRMC,032634.5,A,3246.0394,N,11705.0491,W,31.80,330.60,181210,,*20
$GPRMC,032638.5,A,3246.0704,N,11705.0734,W,33.20,324.70,181210,,*21
$GPRMC,032642.5,A,3246.1005,N,11705.1003,W,34.80,322.10,181210,,*24
$GPRMC,032646.5,A,3246.1326,N,11705.1258,W,31.70,329.60,181210,,*28
$GPRMC,032650.5,A,3246.1618,N,11705.1405,W,25.00,337.20,181210,,*20
$GPRMC,032654.5,A,3246.1844,N,11705.1488,W,18.40,342.80,181210,,*24
$GPRMC,032658.5,A,3246.1919,N,11705.1530,W,6.20,344.40,181210,,*10
$GPRMC,032710.5,A,3246.1940,N,11705.1554,W,6.50,337.50,181210,,*11
$GPRMC,032714.5,A,3246.2051,N,11705.1633,W,15.30,314.60,181210,,*2B
$GPRMC,032718.5,A,3246.2082,N,11705.1862,W,16.90,277.40,181210,,*2C
$GPRMC,032722.5,A,3246.1898,N,11705.2282,W,33.50,253.40,181210,,*2F
$GPRMC,032726.5,A,3246.1798,N,11705.2755,W,37.70,258.40,181210,,*26
$GPRMC,032730.5,A,3246.1749,N,11705.3276,W,39.80,266.30,181210,,*23
$GPRMC,032734.5,A,3246.1766,N,11705.3796,W,40.70,274.70,181210,,*27
$GPRMC,032738.5,A,3246.1858,N,11705.4308,W,40.00,282.20,181210,,*26
$GPRMC,032742.5,A,3246.2015,N,11705.4804,W,40.40,289.40,181210,,*27
$GPRMC,032746.5,A,3246.2236,N,11705.5298,W,43.50,298.20,181210,,*2A
$GPRMC,032750.5,A,3246.2512,N,11705.5769,W,42.60,304.50,181210,,*26
$GPRMC,032754.5,A,3246.2793,N,11705.6183,W,39.00,305.70,181210,,*21
$GPRMC,032758.5,A,3246.3024,N,11705.6605,W,39.70,298.50,181210,,*2E
$GPRMC,032802.5,A,3246.3202,N,11705.7077,W,38.80,293.50,181210,,*2F
$GPRMC,032806.5,A,3246.3364,N,11705.7523,W,36.30,292.70,181210,,*28
$GPRMC,032810.5,A,3246.3554,N,11705.7908,W,33.30,300.60,181210,,*21
$GPRMC,032814.5,A,3246.3826,N,11705.8248,W,36.40,314.50,181210,,*29
$GPRMC,032818.5,A,3246.4266,N,11705.8474,W,42.70,334.50,181210,,*27
$GPRMC,032822.5,A,3246.4703,N,11705.8726,W,45.10,332.20,181210,,*2C
$GPRMC,032826.5,A,3246.5128,N,11705.9032,W,42.90,324.10,181210,,*2E
$GPRMC,032830.5,A,3246.5501,N,11705.9374,W,41.80,322.10,181210,,*23
$GPRMC,032834.5,A,3246.5874,N,11705.9698,W,41.50,324.40,181210,,*21
$GPRMC,032838.5,A,3246.6239,N,11705.9939,W,36.90,335.60,181210,,*27
$GPRMC,032842.5,A,3246.6608,N,11706.0092,W,35.60,343.90,181210,,*2C
$GPRMC,032846.5,A,3246.7032,N,11706.0178,W,38.50,349.60,181210,,*28
$GPRMC,032850.5,A,3246.7453,N,11706.0283,W,39.00,348.10,181210,,*29
$GPRMC,032853.5,A,3246.7742,N,11706.0396,W,37.10,342.40,181210,,*2C
$GPRMC,032856.5,A,3246.7865,N,11706.0667,W,30.90,315.10,181210,,*20
$GPRMC,032900.5,A,3246.7907,N,11706.1043,W,26.30,284.50,181210,,*26
$GPRMC,032904.5,A,3246.7743,N,11706.1445,W,33.30,251.60,181210,,*21
$GPRMC,032908.5,A,3246.7562,N,11706.1959,W,42.70,255.80,181210,,*24
$GPRMC,032912.5,A,3246.7493,N,11706.2537,W,44.80,265.60,181210,,*23
$GPRMC,032916.5,A,3246.7494,N,11706.3140,W,44.60,272.00,181210,,*2B
$GPRMC,032920.5,A,3246.7522,N,11706.3741,W,46.20,272.20,181210,,*21
$GPRMC,032924.5,A,3246.7550,N,11706.4356,W,47.80,273.50,181210,,*28
$GPRMC,032928.5,A,3246.7627,N,11706.4997,W,49.40,279.70,181210,,*2A
$GPRMC,032932.5,A,3246.7754,N,11706.5643,W,50.10,273.60,181210,,*25
$GPRMC,032936.5,A,3246.7797,N,11706.6303,W,49.50,273.00,181210,,*26
$GPRMC,032940.5,A,3246.7853,N,11706.6906,W,43.50,281.10,181210,,*29
$GPRMC,032944.5,A,3246.8016,N,11706.7428,W,42.20,290.20,181210,,*2E
$GPRMC,032948.5,A,3246.8411,N,11706.7700,W,39.40,328.20,181210,,*20
$GPRMC,032952.5,A,3246.8851,N,11706.7877,W,40.70,341.30,181210,,*2F
$GPRMC,032956.5,A,3246.9266,N,11706.8031,W,38.80,343.20,181210,,*22
$GPRMC,033000.5,A,3246.9692,N,11706.8173,W,38.60,345.20,181210,,*29
$GPRMC,033004.5,A,3247.0090,N,11706.8323,W,38.40,343.00,181210,,*20
$GPRMC,033008.5,A,3247.0531,N,11706.8459,W,42.70,346.40,181210,,*27
$GPRMC,033012.5,A,3247.1032,N,11706.8551,W,48.80,354.50,181210,,*25
$GPRMC,033016.5,A,3247.1603,N,11706.8560,W,51.40,359.60,181210,,*2D
$GPRMC,033020.5,A,3247.2223,N,11706.8487,W,56.90,7.90,181210,,*28
$GPRMC,033024.5,A,3247.2853,N,11706.8317,W,59.10,15.50,181210,,*17
$GPRMC,033028.5,A,3247.3502,N,11706.8074,W,60.40,17.50,181210,,*18
$GPRMC,033032.5,A,3247.4135,N,11706.7828,W,59.90,16.70,181210,,*1E
$GPRMC,033036.5,A,3247.4771,N,11706.7599,W,60.00,17.40,181210,,*1A
$GPRMC,033040.5,A,3247.5437,N,11706.7384,W,60.90,14.80,181210,,*17
$GPRMC,033044.5,A,3247.6096,N,11706.7234,W,60.90,9.60,181210,,*27
$GPRMC,033048.5,A,3247.6801,N,11706.7169,W,63.20,2.80,181210,,*2B
$GPRMC,033052.5,A,3247.7507,N,11706.7191,W,63.00,355.90,181210,,*2F
$GPRMC,033056.5,A,3247.8206,N,11706.7278,W,62.00,355.10,181210,,*2F
$GPRMC,033100.5,A,3247.8890,N,11706.7350,W,61.30,354.70,181210,,*24
$GPRMC,033104.5,A,3247.9569,N,11706.7431,W,61.50,355.10,181210,,*2B
$GPRMC,033108.5,A,3248.0242,N,11706.7502,W,60.80,354.80,181210,,*2A
$GPRMC,033112.5,A,3248.0919,N,11706.7577,W,61.40,354.60,181210,,*25
$GPRMC,033116.5,A,3248.1590,N,11706.7650,W,60.50,354.20,181210,,*2F
$GPRMC,033120.5,A,3248.2263,N,11706.7735,W,61.20,354.20,181210,,*26
$GPRMC,033124.5,A,3248.2934,N,11706.7841,W,61.00,352.40,181210,,*25
$GPRMC,033128.5,A,3248.3580,N,11706.7943,W,59.40,351.90,181210,,*29
$GPRMC,033132.5,A,3248.4255,N,11706.8058,W,60.20,351.80,181210,,*2B
$GPRMC,033136.5,A,3248.4928,N,11706.8178,W,60.90,352.30,181210,,*2E
$GPRMC,033140.5,A,3248.5592,N,11706.8280,W,61.50,352.90,181210,,*20
$GPRMC,033144.5,A,3248.6278,N,11706.8373,W,61.60,352.90,181210,,*2A
$GPRMC,033148.5,A,3248.6937,N,11706.8486,W,60.00,351.70,181210,,*21
$GPRMC,033152.5,A,3248.7606,N,11706.8589,W,60.20,352.50,181210,,*2B
$GPRMC,033156.5,A,3248.8264,N,11706.8702,W,59.40,351.70,181210,,*2C
$GPRMC,033200.5,A,3248.8920,N,11706.8798,W,58.50,351.70,181210,,*24
$GPRMC,033204.5,A,3248.9568,N,11706.8931,W,59.20,350.00,181210,,*2C
$GPRMC,033208.5,A,3249.0242,N,11706.9054,W,60.00,350.30,181210,,*27
$GPRMC,033212.5,A,3249.0918,N,11706.9188,W,61.20,349.40,181210,,*24
$GPRMC,033216.5,A,3249.1592,N,11706.9335,W,61.70,349.40,181210,,*2E
$GPRMC,033220.5,A,3249.2282,N,11706.9468,W,62.40,349.20,181210,,*27
$GPRMC,033224.5,A,3249.2933,N,11706.9619,W,60.10,349.50,181210,,*26
$GPRMC,033228.5,A,3249.3570,N,11706.9779,W,59.70,349.20,181210,,*2C
$GPRMC,033232.5,A,3249.4216,N,11706.9931,W,59.50,349.30,181210,,*26
$GPRMC,033236.5,A,3249.4878,N,11707.0072,W,59.20,349.10,181210,,*23
$GPRMC,033240.5,A,3249.5521,N,11707.0195,W,58.90,351.20,181210,,*2A
$GPRMC,033244.5,A,3249.6165,N,11707.0336,W,58.60,350.10,181210,,*2F
$GPRMC,033248.5,A,3249.6751,N,11707.0482,W,56.10,350.00,181210,,*22
$GPRMC,033252.5,A,3249.7340,N,11707.0625,W,56.70,349.40,181210,,*29
$GPRMC,033256.5,A,3249.8001,N,11707.0762,W,59.50,348.70,181210,,*29
$GPRMC,033300.5,A,3249.8662,N,11707.0914,W,60.60,349.00,181210,,*28
$GPRMC,033304.5,A,3249.9333,N,11707.1057,W,62.10,349.80,181210,,*2E
$GPRMC,033308.5,A,3250.0010,N,11707.1212,W,62.80,346.80,181210,,*24
$GPRMC,033312.5,A,3250.0700,N,11707.1450,W,64.20,342.90,181210,,*20
$GPRMC,033316.5,A,3250.1350,N,11707.1769,W,64.80,339.10,181210,,*23
$GPRMC,033320.5,A,3250.2015,N,11707.2078,W,62.90,339.90,181210,,*2C
$GPRMC,033324.5,A,3250.2691,N,11707.2327,W,63.90,345.60,181210,,*2E
$GPRMC,033328.5,A,3250.3397,N,11707.2456,W,63.70,353.20,181210,,*2C
$GPRMC,033332.5,A,3250.4085,N,11707.2469,W,60.90,2.20,181210,,*26
$GPRMC,033336.5,A,3250.4731,N,11707.2392,W,58.30,9.20,181210,,*23
$GPRMC,033340.5,A,3250.5346,N,11707.2218,W,58.00,15.60,181210,,*1E
$GPRMC,033344.5,A,3250.5948,N,11707.1939,W,57.80,24.60,181210,,*10
$GPRMC,033348.5,A,3250.6515,N,11707.1581,W,57.60,28.90,181210,,*19
$GPRMC,033352.5,A,3250.7064,N,11707.1205,W,58.10,29.40,181210,,*1F
$GPRMC,033356.5,A,3250.7625,N,11707.0840,W,57.80,29.20,181210,,*12
$GPRMC,033400.5,A,3250.8182,N,11707.0480,W,57.10,27.70,181210,,*11
$GPRMC,033404.5,A,3250.8750,N,11707.0163,W,56.40,22.90,181210,,*1B
$GPRMC,033408.5,A,3250.9339,N,11706.9913,W,56.50,18.20,181210,,*19
$GPRMC,033412.5,A,3250.9905,N,11706.9716,W,50.90,15.80,181210,,*11
$GPRMC,033416.5,A,3251.0451,N,11706.9537,W,49.30,15.70,181210,,*1D
$GPRMC,033420.5,A,3251.0993,N,11706.9360,W,49.50,15.80,181210,,*16
$GPRMC,033424.5,A,3251.1517,N,11706.9187,W,48.40,15.40,181210,,*14
$GPRMC,033428.5,A,3251.2034,N,11706.9016,W,47.60,15.10,181210,,*1E
$GPRMC,033432.5,A,3251.2523,N,11706.8833,W,44.40,19.10,181210,,*15
$GPRMC,033436.5,A,3251.2950,N,11706.8635,W,41.30,23.00,181210,,*1B
$GPRMC,033440.5,A,3251.3409,N,11706.8376,W,46.50,26.80,181210,,*14
$GPRMC,033444.5,A,3251.3891,N,11706.8081,W,51.20,27.70,181210,,*19
$GPRMC,033448.5,A,3251.4413,N,11706.7760,W,53.90,27.40,181210,,*19
$GPRMC,033452.5,A,3251.4964,N,11706.7437,W,57.50,24.90,181210,,*18
$GPRMC,033456.5,A,3251.5558,N,11706.7149,W,57.80,20.10,181210,,*13
$GPRMC,033500.5,A,3251.6172,N,11706.6900,W,58.20,19.50,181210,,*11
$GPRMC,033504.5,A,3251.6800,N,11706.6636,W,59.90,19.50,181210,,*19
$GPRMC,033508.5,A,3251.7436,N,11706.6356,W,60.30,21.00,181210,,*10
$GPRMC,033512.5,A,3251.8029,N,11706.6075,W,56.40,23.10,181210,,*1D
$GPRMC,033516.5,A,3251.8603,N,11706.5771,W,57.00,24.50,181210,,*11
$GPRMC,033520.5,A,3251.9168,N,11706.5473,W,55.40,23.40,181210,,*1E
$GPRMC,033524.5,A,3251.9740,N,11706.5188,W,56.50,22.80,181210,,*18
$GPRMC,033528.5,A,3252.0321,N,11706.4919,W,55.50,20.10,181210,,*14
$GPRMC,033532.5,A,3252.0901,N,11706.4690,W,55.60,17.10,181210,,*1E
$GPRMC,033536.5,A,3252.1503,N,11706.4505,W,56.80,12.60,181210,,*15
$GPRMC,033540.5,A,3252.2138,N,11706.4367,W,58.10,10.30,181210,,*19
$GPRMC,033544.5,A,3252.2808,N,11706.4265,W,60.30,5.60,181210,,*2C
$GPRMC,033548.5,A,3252.3494,N,11706.4209,W,61.10,2.20,181210,,*22
$GPRMC,033552.5,A,3252.4155,N,11706.4193,W,58.90,1.10,181210,,*24
$GPRMC,033556.5,A,3252.4826,N,11706.4211,W,61.10,357.40,181210,,*23
$GPRMC,033600.5,A,3252.5514,N,11706.4277,W,61.50,354.20,181210,,*2F
$GPRMC,033604.5,A,3252.6192,N,11706.4396,W,62.80,351.50,181210,,*20
$GPRMC,033608.5,A,3252.6895,N,11706.4555,W,64.20,348.50,181210,,*2F
$GPRMC,033612.5,A,3252.7602,N,11706.4755,W,65.50,344.80,181210,,*20
$GPRMC,033616.5,A,3252.8307,N,11706.5009,W,65.30,342.70,181210,,*2B
$GPRMC,033620.5,A,3252.9008,N,11706.5304,W,66.50,338.50,181210,,*27
$GPRMC,033624.5,A,3252.9676,N,11706.5640,W,64.60,335.60,181210,,*26
$GPRMC,033628.5,A,3253.0317,N,11706.6010,W,63.50,333.30,181210,,*27
$GPRMC,033632.5,A,3253.0942,N,11706.6381,W,62.60,332.90,181210,,*24
$GPRMC,033636.5,A,3253.1564,N,11706.6763,W,64.00,332.80,181210,,*20
$GPRMC,033640.5,A,3253.2204,N,11706.7149,W,64.80,332.70,181210,,*2B
$GPRMC,033644.5,A,3253.2847,N,11706.7531,W,63.90,333.90,181210,,*20
$GPRMC,033648.5,A,3253.3489,N,11706.7902,W,64.60,334.40,181210,,*2D
$GPRMC,033652.5,A,3253.4154,N,11706.8257,W,65.60,337.00,181210,,*26
$GPRMC,033656.5,A,3253.4839,N,11706.8575,W,66.60,339.80,181210,,*22
$GPRMC,033700.5,A,3253.5545,N,11706.8867,W,69.10,341.50,181210,,*23
$GPRMC,033704.5,A,3253.6292,N,11706.9124,W,70.20,344.90,181210,,*24
$GPRMC,033708.5,A,3253.7047,N,11706.9364,W,68.70,346.70,181210,,*25
$GPRMC,033712.5,A,3253.7782,N,11706.9530,W,65.30,350.90,181210,,*27
$GPRMC,033716.5,A,3253.8496,N,11706.9645,W,64.00,353.10,181210,,*22
$GPRMC,033720.5,A,3253.9220,N,11706.9705,W,64.50,358.20,181210,,*25
$GPRMC,033724.5,A,3253.9926,N,11706.9707,W,63.70,0.20,181210,,*25
$GPRMC,033728.5,A,3254.0640,N,11706.9705,W,64.50,359.80,181210,,*2A
$GPRMC,033732.5,A,3254.1365,N,11706.9700,W,65.60,0.40,181210,,*26
$GPRMC,033736.5,A,3254.2095,N,11706.9704,W,66.20,359.90,181210,,*2C
$GPRMC,033740.5,A,3254.2826,N,11706.9710,W,65.60,359.30,181210,,*25
$GPRMC,033744.5,A,3254.3560,N,11706.9721,W,66.10,359.50,181210,,*2F
$GPRMC,033748.5,A,3254.4297,N,11706.9724,W,66.20,359.90,181210,,*21
$GPRMC,033752.5,A,3254.5031,N,11706.9722,W,65.70,359.60,181210,,*2A
$GPRMC,033756.5,A,3254.5762,N,11706.9708,W,65.30,2.20,181210,,*2A
$GPRMC,033800.5,A,3254.6482,N,11706.9682,W,64.50,0.70,181210,,*2B
$GPRMC,033804.5,A,3254.7199,N,11706.9670,W,64.40,1.00,181210,,*2B
$GPRMC,033808.5,A,3254.7913,N,11706.9641,W,63.60,2.20,181210,,*2B
$GPRMC,033812.5,A,3254.8619,N,11706.9600,W,63.40,2.90,181210,,*26
$GPRMC,033816.5,A,3254.9303,N,11706.9555,W,61.00,3.80,181210,,*28
$GPRMC,033820.5,A,3254.9971,N,11706.9496,W,59.80,3.90,181210,,*2E
$GPRMC,033824.5,A,3255.0627,N,11706.9451,W,58.90,3.50,181210,,*29
$GPRMC,033828.5,A,3255.1268,N,11706.9379,W,57.70,6.20,181210,,*25
$GPRMC,033832.5,A,3255.1911,N,11706.9293,W,57.80,6.80,181210,,*2B
$GPRMC,033836.5,A,3255.2541,N,11706.9193,W,55.30,8.10,181210,,*28
$GPRMC,033840.5,A,3255.3131,N,11706.9092,W,52.60,8.60,181210,,*2E
$GPRMC,033844.5,A,3255.3727,N,11706.8974,W,55.40,9.50,181210,,*2C
$GPRMC,033848.5,A,3255.4350,N,11706.8854,W,57.00,10.10,181210,,*1A
$GPRMC,033852.5,A,3255.4986,N,11706.8714,W,58.70,10.50,181210,,*17
$GPRMC,033856.5,A,3255.5627,N,11706.8573,W,58.40,11.70,181210,,*15
$GPRMC,033900.5,A,3255.6254,N,11706.8414,W,57.30,12.20,181210,,*1A
$GPRMC,033904.5,A,3255.6879,N,11706.8241,W,58.10,13.40,181210,,*17
$GPRMC,033908.5,A,3255.7512,N,11706.8054,W,59.10,14.50,181210,,*1B
$GPRMC,033912.5,A,3255.8156,N,11706.7860,W,60.60,14.60,181210,,*15
$GPRMC,033916.5,A,3255.8813,N,11706.7651,W,60.80,14.50,181210,,*18
$GPRMC,033920.5,A,3255.9493,N,11706.7445,W,63.70,14.20,181210,,*14
$GPRMC,033924.5,A,3256.0182,N,11706.7241,W,63.20,14.60,181210,,*1C
$GPRMC,033928.5,A,3256.0843,N,11706.7037,W,62.20,14.50,181210,,*15
$GPRMC,033932.5,A,3256.1524,N,11706.6829,W,63.40,14.40,181210,,*13
$GPRMC,033936.5,A,3256.2205,N,11706.6626,W,63.20,14.60,181210,,*15
$GPRMC,033940.5,A,3256.2898,N,11706.6420,W,64.10,14.40,181210,,*18
$GPRMC,033944.5,A,3256.3579,N,11706.6206,W,62.70,14.50,181210,,*1C
$GPRMC,033948.5,A,3256.4235,N,11706.6007,W,61.40,14.60,181210,,*18
$GPRMC,033952.5,A,3256.4902,N,11706.5774,W,62.60,17.50,181210,,*1D
$GPRMC,033956.5,A,3256.5561,N,11706.5504,W,62.10,20.60,181210,,*14
$GPRMC,034000.5,A,3256.6193,N,11706.5201,W,60.50,23.60,181210,,*14
$GPRMC,034004.5,A,3256.6805,N,11706.4867,W,59.30,26.60,181210,,*14
$GPRMC,034008.5,A,3256.7398,N,11706.4503,W,60.30,28.80,181210,,*13
$GPRMC,034012.5,A,3256.7985,N,11706.4098,W,60.50,30.70,181210,,*19
$GPRMC,034016.5,A,3256.8579,N,11706.3679,W,61.80,30.30,181210,,*1B
$GPRMC,034020.5,A,3256.9171,N,11706.3274,W,62.00,29.80,181210,,*12
$GPRMC,034024.5,A,3256.9790,N,11706.2877,W,62.80,27.30,181210,,*1A
$GPRMC,034028.5,A,3257.0382,N,11706.2486,W,60.90,29.40,181210,,*11
$GPRMC,034032.5,A,3257.0980,N,11706.2083,W,62.10,29.40,181210,,*19
$GPRMC,034036.5,A,3257.1583,N,11706.1680,W,62.70,28.10,181210,,*17
$GPRMC,034040.5,A,3257.2202,N,11706.1290,W,62.10,27.90,181210,,*1F
$GPRMC,034044.5,A,3257.2819,N,11706.0910,W,61.60,28.00,181210,,*1B
$GPRMC,034048.5,A,3257.3430,N,11706.0525,W,62.10,28.10,181210,,*1E
$GPRMC,034052.5,A,3257.4052,N,11706.0137,W,63.10,27.60,181210,,*1C
$GPRMC,034056.5,A,3257.4688,N,11705.9746,W,64.40,27.70,181210,,*10
$GPRMC,034100.5,A,3257.5315,N,11705.9356,W,63.00,28.10,181210,,*1D
$GPRMC,034104.5,A,3257.5909,N,11705.8970,W,60.30,29.50,181210,,*14
$GPRMC,034108.5,A,3257.6478,N,11705.8591,W,56.90,29.70,181210,,*1E
$GPRMC,034112.5,A,3257.7027,N,11705.8219,W,56.60,29.30,181210,,*16
$GPRMC,034116.5,A,3257.7568,N,11705.7865,W,56.90,28.50,181210,,*1A
$GPRMC,034120.5,A,3257.8120,N,11705.7518,W,56.10,28.00,181210,,*12
$GPRMC,034124.5,A,3257.8670,N,11705.7168,W,55.80,27.50,181210,,*17
$GPRMC,034128.5,A,3257.9218,N,11705.6812,W,55.90,29.20,181210,,*1D
$GPRMC,034132.5,A,3257.9806,N,11705.6465,W,57.00,27.60,181210,,*1E
$GPRMC,034136.5,A,3258.0348,N,11705.6121,W,58.70,28.60,181210,,*1F
$GPRMC,034140.5,A,3258.0918,N,11705.5736,W,60.40,28.80,181210,,*14
$GPRMC,034144.5,A,3258.1513,N,11705.5351,W,61.10,28.10,181210,,*1E
$GPRMC,034148.5,A,3258.2105,N,11705.4976,W,60.00,28.10,181210,,*1C
$GPRMC,034152.5,A,3258.2692,N,11705.4610,W,59.30,27.80,181210,,*1E
$GPRMC,034156.5,A,3258.3270,N,11705.4244,W,58.40,27.90,181210,,*11
$GPRMC,034200.5,A,3258.3847,N,11705.3879,W,58.70,27.90,181210,,*1F
$GPRMC,034204.5,A,3258.4423,N,11705.3517,W,58.00,28.00,181210,,*16
$GPRMC,034208.5,A,3258.4997,N,11705.3151,W,59.50,28.10,181210,,*1B
$GPRMC,034212.5,A,3258.5587,N,11705.2778,W,60.80,27.70,181210,,*1E
$GPRMC,034216.5,A,3258.6197,N,11705.2399,W,61.70,28.10,181210,,*10
$GPRMC,034220.5,A,3258.6806,N,11705.2007,W,63.00,28.00,181210,,*14
$GPRMC,034224.5,A,3258.7428,N,11705.1616,W,63.40,28.00,181210,,*10
$GPRMC,034228.5,A,3258.8054,N,11705.1229,W,63.20,28.00,181210,,*12
$GPRMC,034232.5,A,3258.8678,N,11705.0837,W,63.30,28.10,181210,,*15
$GPRMC,034236.5,A,3258.9297,N,11705.0445,W,62.20,27.50,181210,,*17
$GPRMC,034240.5,A,3258.9919,N,11705.0107,W,61.70,22.00,181210,,*1E
$GPRMC,034244.5,A,3259.0552,N,11704.9838,W,60.80,17.20,181210,,*16
$GPRMC,034248.5,A,3259.1208,N,11704.9655,W,60.90,11.10,181210,,*12
$GPRMC,034252.5,A,3259.1888,N,11704.9567,W,61.30,4.10,181210,,*26
$GPRMC,034256.5,A,3259.2572,N,11704.9556,W,60.60,359.50,181210,,*20
$GPRMC,034300.5,A,3259.3241,N,11704.9609,W,60.80,354.30,181210,,*28
$GPRMC,034304.5,A,3259.3927,N,11704.9748,W,62.50,349.40,181210,,*27
$GPRMC,034308.5,A,3259.4616,N,11704.9891,W,62.20,349.80,181210,,*21
$GPRMC,034312.5,A,3259.5292,N,11705.0032,W,60.80,350.90,181210,,*2B
$GPRMC,034316.5,A,3259.5966,N,11705.0130,W,61.10,354.90,181210,,*20
$GPRMC,034320.5,A,3259.6661,N,11705.0164,W,61.60,359.70,181210,,*2B
$GPRMC,034324.5,A,3259.7357,N,11705.0127,W,62.60,4.40,181210,,*22
$GPRMC,034328.5,A,3259.8053,N,11705.0019,W,63.90,9.10,181210,,*2C
$GPRMC,034332.5,A,3259.8757,N,11704.9839,W,65.20,13.40,181210,,*15
$GPRMC,034336.5,A,3259.9456,N,11704.9594,W,65.30,17.10,181210,,*18
$GPRMC,034340.5,A,3300.0159,N,11704.9330,W,66.80,17.10,181210,,*17
$GPRMC,034344.5,A,3300.0881,N,11704.9072,W,66.50,17.30,181210,,*15
$GPRMC,034348.5,A,3300.1579,N,11704.8828,W,65.80,16.80,181210,,*10
$GPRMC,034352.5,A,3300.2274,N,11704.8586,W,64.30,14.60,181210,,*1D
$GPRMC,034356.5,A,3300.2963,N,11704.8387,W,64.70,12.50,181210,,*12
$GPRMC,034400.5,A,3300.3673,N,11704.8219,W,65.40,9.90,181210,,*2B
$GPRMC,034404.5,A,3300.4393,N,11704.8101,W,63.70,7.20,181210,,*29
$GPRMC,034408.5,A,3300.5076,N,11704.8042,W,60.00,5.20,181210,,*2C
$GPRMC,034412.5,A,3300.5735,N,11704.7964,W,59.10,6.20,181210,,*2D
$GPRMC,034416.5,A,3300.6378,N,11704.7881,W,58.60,5.90,181210,,*23
$GPRMC,034420.5,A,3300.7034,N,11704.7807,W,60.30,4.80,181210,,*2C
$GPRMC,034424.5,A,3300.7694,N,11704.7728,W,60.80,5.60,181210,,*22
$GPRMC,034428.5,A,3300.8379,N,11704.7639,W,62.80,6.00,181210,,*21
$GPRMC,034432.5,A,3300.9083,N,11704.7553,W,63.60,6.00,181210,,*2D
$GPRMC,034436.5,A,3300.9778,N,11704.7471,W,62.60,5.90,181210,,*20
$GPRMC,034440.5,A,3301.0376,N,11704.7399,W,50.80,5.80,181210,,*2C
$GPRMC,034444.5,A,3301.0974,N,11704.7328,W,53.20,5.70,181210,,*2C
$GPRMC,034448.5,A,3301.1589,N,11704.7266,W,56.10,4.90,181210,,*2D
$GPRMC,034452.5,A,3301.2231,N,11704.7215,W,59.40,4.60,181210,,*20
$GPRMC,034456.5,A,3301.2901,N,11704.7166,W,60.50,3.60,181210,,*27
$GPRMC,034500.5,A,3301.3584,N,11704.7142,W,60.50,0.70,181210,,*21
$GPRMC,034504.5,A,3301.4271,N,11704.7146,W,61.60,0.10,181210,,*2F
$GPRMC,034508.5,A,3301.4957,N,11704.7147,W,60.60,0.20,181210,,*2F
$GPRMC,034512.5,A,3301.5624,N,11704.7145,W,58.70,0.30,181210,,*27
$GPRMC,034516.5,A,3301.6267,N,11704.7137,W,57.30,0.30,181210,,*2D
$GPRMC,034520.5,A,3301.6920,N,11704.7131,W,59.20,0.60,181210,,*2C
$GPRMC,034524.5,A,3301.7594,N,11704.7092,W,60.80,3.80,181210,,*2F
$GPRMC,034528.5,A,3301.8248,N,11704.7012,W,59.20,8.50,181210,,*24
$GPRMC,034532.5,A,3301.8908,N,11704.6878,W,59.50,11.60,181210,,*19
$GPRMC,034536.5,A,3301.9553,N,11704.6682,W,60.10,15.70,181210,,*1E
$GPRMC,034540.5,A,3302.0200,N,11704.6442,W,59.40,19.10,181210,,*1F
$GPRMC,034544.5,A,3302.0838,N,11704.6178,W,60.60,19.30,181210,,*1C
$GPRMC,034548.5,A,3302.1465,N,11704.5909,W,59.40,19.30,181210,,*10
$GPRMC,034552.5,A,3302.2104,N,11704.5648,W,61.30,18.80,181210,,*16
$GPRMC,034556.5,A,3302.2692,N,11704.5403,W,54.60,19.40,181210,,*19
$GPRMC,034600.5,A,3302.3289,N,11704.5144,W,59.90,19.60,181210,,*10
$GPRMC,034604.5,A,3302.3942,N,11704.4871,W,64.30,19.50,181210,,*11
$GPRMC,034608.5,A,3302.4616,N,11704.4586,W,64.70,19.40,181210,,*14
$GPRMC,034612.5,A,3302.5314,N,11704.4300,W,66.30,19.30,181210,,*10
$GPRMC,034616.5,A,3302.6005,N,11704.4016,W,66.10,18.80,181210,,*18
$GPRMC,034620.5,A,3302.6717,N,11704.3761,W,66.50,14.10,181210,,*18
$GPRMC,034624.5,A,3302.7424,N,11704.3620,W,63.90,8.10,181210,,*2E
$GPRMC,034628.5,A,3302.8135,N,11704.3571,W,63.30,2.00,181210,,*2E
$GPRMC,034632.5,A,3302.8827,N,11704.3591,W,61.10,357.20,181210,,*20
$GPRMC,034636.5,A,3302.9465,N,11704.3636,W,55.70,357.50,181210,,*27
$GPRMC,034640.5,A,3303.0076,N,11704.3636,W,54.20,1.00,181210,,*29
$GPRMC,034644.5,A,3303.0696,N,11704.3594,W,56.00,4.50,181210,,*2E
$GPRMC,034648.5,A,3303.1312,N,11704.3508,W,55.00,8.50,181210,,*20
$GPRMC,034652.5,A,3303.1918,N,11704.3376,W,55.20,12.00,181210,,*18
$GPRMC,034656.5,A,3303.2505,N,11704.3203,W,54.00,15.70,181210,,*1F
$GPRMC,034700.5,A,3303.3090,N,11704.2972,W,55.60,20.00,181210,,*1F
$GPRMC,034704.5,A,3303.3665,N,11704.2697,W,55.60,22.50,181210,,*14
$GPRMC,034708.5,A,3303.4233,N,11704.2428,W,56.10,21.60,181210,,*1A
$GPRMC,034712.5,A,3303.4823,N,11704.2150,W,57.70,21.00,181210,,*11
$GPRMC,034716.5,A,3303.5437,N,11704.1877,W,59.30,18.80,181210,,*1A
$GPRMC,034720.5,A,3303.6062,N,11704.1645,W,59.50,16.10,181210,,*16
$GPRMC,034724.5,A,3303.6711,N,11704.1477,W,60.80,11.30,181210,,*10
$GPRMC,034728.5,A,3303.7390,N,11704.1341,W,63.10,7.10,181210,,*2D
$GPRMC,034732.5,A,3303.8084,N,11704.1270,W,62.80,4.10,181210,,*27
$GPRMC,034736.5,A,3303.8771,N,11704.1251,W,61.50,0.20,181210,,*24
$GPRMC,034740.5,A,3303.9448,N,11704.1278,W,59.90,356.80,181210,,*2B
$GPRMC,034744.5,A,3304.0122,N,11704.1365,W,58.90,353.70,181210,,*2E
$GPRMC,034748.5,A,3304.0785,N,11704.1462,W,60.00,353.00,181210,,*2C
$GPRMC,034752.5,A,3304.1433,N,11704.1536,W,58.60,355.50,181210,,*26
$GPRMC,034756.5,A,3304.2082,N,11704.1620,W,59.90,353.70,181210,,*21
$GPRMC,034800.5,A,3304.2757,N,11704.1713,W,58.60,353.70,181210,,*2D
$GPRMC,034804.5,A,3304.3407,N,11704.1799,W,58.50,353.70,181210,,*2F
$GPRMC,034808.5,A,3304.4056,N,11704.1896,W,59.20,352.60,181210,,*22
$GPRMC,034812.5,A,3304.4698,N,11704.2014,W,58.50,352.50,181210,,*29
$GPRMC,034816.5,A,3304.5335,N,11704.2116,W,57.60,351.00,181210,,*27
$GPRMC,034820.5,A,3304.5973,N,11704.2256,W,57.50,347.70,181210,,*2E
$GPRMC,034824.5,A,3304.6593,N,11704.2432,W,57.80,345.30,181210,,*24
$GPRMC,034828.5,A,3304.7197,N,11704.2655,W,56.80,341.60,181210,,*2A
$GPRMC,034832.5,A,3304.7781,N,11704.2900,W,55.70,339.50,181210,,*2F
$GPRMC,034836.5,A,3304.8350,N,11704.3177,W,55.80,337.60,181210,,*27
$GPRMC,034840.5,A,3304.8915,N,11704.3471,W,56.40,335.50,181210,,*20
$GPRMC,034844.5,A,3304.9480,N,11704.3791,W,56.70,333.50,181210,,*2C
$GPRMC,034848.5,A,3305.0048,N,11704.4149,W,58.10,330.80,181210,,*2A
$GPRMC,034852.5,A,3305.0604,N,11704.4546,W,59.00,327.90,181210,,*23
$GPRMC,034856.5,A,3305.1150,N,11704.4979,W,59.80,324.90,181210,,*2B
$GPRMC,034900.5,A,3305.1693,N,11704.5447,W,60.70,323.00,181210,,*2B
$GPRMC,034904.5,A,3305.2226,N,11704.5952,W,61.30,320.60,181210,,*2F
$GPRMC,034908.5,A,3305.2738,N,11704.6477,W,60.80,318.20,181210,,*25
$GPRMC,034912.5,A,3305.3241,N,11704.7007,W,60.40,318.00,181210,,*28
$GPRMC,034916.5,A,3305.3738,N,11704.7545,W,59.70,317.40,181210,,*26
$GPRMC,034920.5,A,3305.4216,N,11704.8062,W,57.30,318.10,181210,,*22
$GPRMC,034924.5,A,3305.4692,N,11704.8581,W,59.10,317.10,181210,,*25
$GPRMC,034928.5,A,3305.5186,N,11704.9138,W,63.50,315.20,181210,,*21
$GPRMC,034932.5,A,3305.5701,N,11704.9686,W,62.60,318.30,181210,,*2F
$GPRMC,034936.5,A,3305.6218,N,11705.0239,W,62.10,317.90,181210,,*2F
$GPRMC,034940.5,A,3305.6735,N,11705.0793,W,62.50,317.70,181210,,*2B
$GPRMC,034944.5,A,3305.7252,N,11705.1343,W,60.90,318.70,181210,,*23
$GPRMC,034948.5,A,3305.7746,N,11705.1858,W,57.40,319.60,181210,,*27
$GPRMC,034952.5,A,3305.8236,N,11705.2327,W,56.30,321.10,181210,,*2B
$GPRMC,034956.5,A,3305.8735,N,11705.2781,W,57.00,323.90,181210,,*29
$GPRMC,035000.5,A,3305.9256,N,11705.3217,W,57.80,325.30,181210,,*2C
$GPRMC,035004.5,A,3305.9791,N,11705.3648,W,58.40,326.40,181210,,*2F
$GPRMC,035008.5,A,3306.0343,N,11705.4056,W,58.80,329.90,181210,,*22
$GPRMC,035012.5,A,3306.0922,N,11705.4435,W,59.40,332.00,181210,,*2B
$GPRMC,035016.5,A,3306.1520,N,11705.4797,W,61.30,333.90,181210,,*2F
$GPRMC,035020.5,A,3306.2139,N,11705.5161,W,62.90,333.10,181210,,*2A
$GPRMC,035024.5,A,3306.2782,N,11705.5516,W,64.10,334.10,181210,,*25
$GPRMC,035028.5,A,3306.3414,N,11705.5871,W,62.20,335.30,181210,,*2E
$GPRMC,035032.5,A,3306.4035,N,11705.6221,W,61.80,335.10,181210,,*22
$GPRMC,035036.5,A,3306.4664,N,11705.6584,W,64.10,334.20,181210,,*22
$GPRMC,035040.5,A,3306.5309,N,11705.6957,W,64.70,333.90,181210,,*24
$GPRMC,035044.5,A,3306.5947,N,11705.7339,W,64.40,333.80,181210,,*21
$GPRMC,035048.5,A,3306.6608,N,11705.7731,W,65.80,334.00,181210,,*24
$GPRMC,035052.5,A,3306.7280,N,11705.8118,W,68.30,333.60,181210,,*2F
$GPRMC,035056.5,A,3306.7960,N,11705.8517,W,66.30,334.00,181210,,*2A
$GPRMC,035100.5,A,3306.8621,N,11705.8892,W,65.40,334.70,181210,,*2E
$GPRMC,035104.5,A,3306.9269,N,11705.9248,W,63.60,335.60,181210,,*2B
$GPRMC,035108.5,A,3306.9913,N,11705.9581,W,63.80,337.90,181210,,*20
$GPRMC,035112.5,A,3307.0571,N,11705.9904,W,63.50,335.80,181210,,*24
$GPRMC,035116.5,A,3307.1161,N,11706.0239,W,56.90,333.50,181210,,*2A
$GPRMC,035120.5,A,3307.1711,N,11706.0566,W,54.40,333.60,181210,,*2F
$GPRMC,035124.5,A,3307.2199,N,11706.0854,W,47.60,333.30,181210,,*27
$GPRMC,035128.5,A,3307.2638,N,11706.1139,W,44.10,329.90,181210,,*21
$GPRMC,035132.5,A,3307.3057,N,11706.1415,W,43.40,330.60,181210,,*2A
$GPRMC,035136.5,A,3307.3499,N,11706.1685,W,45.80,334.90,181210,,*22
$GPRMC,035140.5,A,3307.3999,N,11706.1902,W,48.80,343.60,181210,,*2C
$GPRMC,035144.5,A,3307.4509,N,11706.2047,W,45.80,349.10,181210,,*21
$GPRMC,035148.5,A,3307.5010,N,11706.2167,W,45.50,346.80,181210,,*29
$GPRMC,035152.5,A,3307.5468,N,11706.2389,W,44.60,331.70,181210,,*26
$GPRMC,035156.5,A,3307.5856,N,11706.2751,W,46.10,315.40,181210,,*22
$GPRMC,035200.5,A,3307.6120,N,11706.3288,W,48.70,296.00,181210,,*2F
$GPRMC,035204.5,A,3307.6241,N,11706.3911,W,49.70,280.20,181210,,*20
$GPRMC,035208.5,A,3307.6331,N,11706.4581,W,51.30,279.30,181210,,*22
$GPRMC,035212.5,A,3307.6420,N,11706.5235,W,48.40,279.00,181210,,*2B
$GPRMC,035216.5,A,3307.6515,N,11706.5855,W,48.80,283.20,181210,,*2F
$GPRMC,035220.5,A,3307.6667,N,11706.6494,W,51.70,289.00,181210,,*21
$GPRMC,035224.5,A,3307.6880,N,11706.7138,W,52.20,294.10,181210,,*2B
$GPRMC,035228.5,A,3307.7126,N,11706.7757,W,52.30,296.00,181210,,*2E
$GPRMC,035232.5,A,3307.7398,N,11706.8381,W,53.80,297.50,181210,,*2C
$GPRMC,035236.5,A,3307.7683,N,11706.9029,W,56.60,297.30,181210,,*2A
$GPRMC,035240.5,A,3307.7968,N,11706.9681,W,54.00,297.70,181210,,*25
$GPRMC,035244.5,A,3307.8240,N,11707.0301,W,52.70,296.80,181210,,*25
$GPRMC,035248.5,A,3307.8509,N,11707.0929,W,53.00,295.90,181210,,*27
$GPRMC,035252.5,A,3307.8776,N,11707.1531,W,52.10,297.10,181210,,*28
$GPRMC,035256.5,A,3307.9027,N,11707.2131,W,51.30,297.80,181210,,*21
$GPRMC,035300.5,A,3307.9281,N,11707.2712,W,47.20,297.60,181210,,*22
$GPRMC,035304.5,A,3307.9539,N,11707.3285,W,49.80,297.70,181210,,*2D
$GPRMC,035308.5,A,3307.9786,N,11707.3890,W,50.70,295.10,181210,,*2A
$GPRMC,035312.5,A,3308.0026,N,11707.4506,W,52.30,295.70,181210,,*2F
$GPRMC,035316.5,A,3308.0292,N,11707.5142,W,55.00,297.40,181210,,*26
$GPRMC,035320.5,A,3308.0552,N,11707.5810,W,56.00,291.70,181210,,*20
$GPRMC,035324.5,A,3308.0754,N,11707.6514,W,56.60,287.50,181210,,*29
$GPRMC,035328.5,A,3308.0885,N,11707.7256,W,56.30,280.90,181210,,*28
$GPRMC,035332.5,A,3308.0991,N,11707.7951,W,51.80,280.60,181210,,*28
$GPRMC,035336.5,A,3308.1096,N,11707.8626,W,53.10,280.50,181210,,*2B
$GPRMC,035340.5,A,3308.1203,N,11707.9334,W,55.30,280.00,181210,,*22
$GPRMC,035344.5,A,3308.1345,N,11708.0075,W,57.90,285.10,181210,,*29
$GPRMC,035348.5,A,3308.1551,N,11708.0805,W,58.70,291.00,181210,,*2C
$GPRMC,035352.5,A,3308.1835,N,11708.1488,W,56.20,297.20,181210,,*2F
$GPRMC,035356.5,A,3308.2125,N,11708.2144,W,56.00,297.20,181210,,*24
$GPRMC,035400.5,A,3308.2423,N,11708.2810,W,57.80,297.30,181210,,*23
$GPRMC,035404.5,A,3308.2730,N,11708.3504,W,59.20,296.90,181210,,*20
$GPRMC,035408.5,A,3308.3017,N,11708.4206,W,59.30,296.90,181210,,*2C
$GPRMC,035412.5,A,3308.3317,N,11708.4902,W,58.60,296.60,181210,,*20
$GPRMC,035416.5,A,3308.3553,N,11708.5622,W,58.50,290.00,181210,,*2D
$GPRMC,035420.5,A,3308.3676,N,11708.6380,W,58.70,278.10,181210,,*27
$GPRMC,035424.5,A,3308.3697,N,11708.7144,W,58.40,271.90,181210,,*25
$GPRMC,035428.5,A,3308.3719,N,11708.7918,W,58.10,271.70,181210,,*24
$GPRMC,035432.5,A,3308.3729,N,11708.8688,W,59.00,271.70,181210,,*25
$GPRMC,035436.5,A,3308.3753,N,11708.9468,W,58.60,272.00,181210,,*22
$GPRMC,035440.5,A,3308.3779,N,11709.0243,W,58.50,272.00,181210,,*2F
$GPRMC,035444.5,A,3308.3761,N,11709.1016,W,58.30,266.50,181210,,*27
$GPRMC,035448.5,A,3308.3625,N,11709.1800,W,59.90,255.70,181210,,*2C
$GPRMC,035452.5,A,3308.3442,N,11709.2548,W,58.30,252.60,181210,,*2B
$GPRMC,035456.5,A,3308.3252,N,11709.3275,W,57.20,252.70,181210,,*2F
$GPRMC,035500.5,A,3308.3058,N,11709.3998,W,57.70,251.50,181210,,*29
$GPRMC,035504.5,A,3308.2863,N,11709.4719,W,56.40,252.60,181210,,*2E
$GPRMC,035508.5,A,3308.2680,N,11709.5426,W,54.60,252.00,181210,,*29
$GPRMC,035512.5,A,3308.2506,N,11709.6135,W,58.00,256.50,181210,,*20
$GPRMC,035516.5,A,3308.2391,N,11709.6913,W,60.50,263.10,181210,,*2C
$GPRMC,035520.5,A,3308.2333,N,11709.7712,W,60.20,265.40,181210,,*2B
$GPRMC,035524.5,A,3308.2285,N,11709.8508,W,60.20,266.50,181210,,*27
$GPRMC,035528.5,A,3308.2242,N,11709.9295,W,59.00,266.00,181210,,*2F
$GPRMC,035532.5,A,3308.2204,N,11710.0073,W,59.70,267.70,181210,,*2C
$GPRMC,035536.5,A,3308.2167,N,11710.0848,W,59.30,266.50,181210,,*29
$GPRMC,035540.5,A,3308.2133,N,11710.1646,W,59.40,266.10,181210,,*2B
$GPRMC,035544.5,A,3308.2076,N,11710.2418,W,58.20,265.80,181210,,*28
$GPRMC,035548.5,A,3308.2060,N,11710.3177,W,58.10,271.90,181210,,*29
$GPRMC,035552.5,A,3308.2133,N,11710.3940,W,56.80,280.20,181210,,*2B
$GPRMC,035556.5,A,3308.2327,N,11710.4619,W,53.60,292.70,181210,,*21
$GPRMC,035600.5,A,3308.2560,N,11710.5257,W,51.80,293.10,181210,,*20
$GPRMC,035604.5,A,3308.2774,N,11710.5868,W,48.90,293.40,181210,,*29
$GPRMC,035608.5,A,3308.2997,N,11710.6477,W,52.60,292.80,181210,,*2E
$GPRMC,035612.5,A,3308.3235,N,11710.7147,W,56.60,293.60,181210,,*2B
$GPRMC,035616.5,A,3308.3492,N,11710.7856,W,60.10,293.10,181210,,*28
$GPRMC,035620.5,A,3308.3758,N,11710.8594,W,60.70,293.10,181210,,*22
$GPRMC,035624.5,A,3308.4021,N,11710.9327,W,59.90,293.10,181210,,*23
$GPRMC,035628.5,A,3308.4284,N,11711.0050,W,59.60,292.30,181210,,*25
$GPRMC,035632.5,A,3308.4538,N,11711.0765,W,58.10,293.00,181210,,*2B
$GPRMC,035636.5,A,3308.4786,N,11711.1470,W,57.40,293.00,181210,,*24
$GPRMC,035640.5,A,3308.5037,N,11711.2169,W,58.10,292.90,181210,,*25
$GPRMC,035644.5,A,3308.5311,N,11711.2879,W,60.00,297.20,181210,,*2A
$GPRMC,035648.5,A,3308.5654,N,11711.3565,W,61.00,304.80,181210,,*23
$GPRMC,035652.5,A,3308.6075,N,11711.4196,W,60.50,312.50,181210,,*2F
$GPRMC,035656.5,A,3308.6542,N,11711.4762,W,59.80,315.60,181210,,*24
$GPRMC,035700.5,A,3308.7019,N,11711.5320,W,60.90,315.20,181210,,*20
$GPRMC,035704.5,A,3308.7503,N,11711.5886,W,61.70,315.70,181210,,*27
$GPRMC,035708.5,A,3308.8002,N,11711.6476,W,62.90,315.30,181210,,*29
$GPRMC,035712.5,A,3308.8497,N,11711.7060,W,62.30,315.20,181210,,*23
$GPRMC,035716.5,A,3308.8993,N,11711.7636,W,62.10,315.60,181210,,*2D
$GPRMC,035720.5,A,3308.9487,N,11711.8213,W,62.20,315.30,181210,,*2B
$GPRMC,035724.5,A,3308.9970,N,11711.8781,W,61.00,315.40,181210,,*22
$GPRMC,035728.5,A,3309.0414,N,11711.9295,W,53.50,315.80,181210,,*20
$GPRMC,035732.5,A,3309.0831,N,11711.9783,W,53.90,315.30,181210,,*25
$GPRMC,035736.5,A,3309.1285,N,11712.0313,W,57.40,316.00,181210,,*2B
$GPRMC,035740.5,A,3309.1755,N,11712.0845,W,57.60,315.20,181210,,*29
$GPRMC,035744.5,A,3309.2207,N,11712.1358,W,55.60,317.10,181210,,*29
$GPRMC,035748.5,A,3309.2656,N,11712.1858,W,55.10,315.20,181210,,*28
$GPRMC,035752.5,A,3309.3093,N,11712.2358,W,54.30,315.70,181210,,*23
$GPRMC,035756.5,A,3309.3517,N,11712.2867,W,54.00,315.40,181210,,*29
$GPRMC,035800.5,A,3309.3949,N,11712.3352,W,52.90,318.50,181210,,*2D
$GPRMC,035804.5,A,3309.4390,N,11712.3802,W,51.50,319.90,181210,,*2C
$GPRMC,035808.5,A,3309.4820,N,11712.4219,W,50.70,321.80,181210,,*2E
$GPRMC,035812.5,A,3309.5279,N,11712.4642,W,53.40,324.70,181210,,*22
$GPRMC,035816.5,A,3309.5769,N,11712.5053,W,54.10,325.20,181210,,*23
$GPRMC,035820.5,A,3309.6252,N,11712.5448,W,50.80,325.10,181210,,*28
$GPRMC,035824.5,A,3309.6718,N,11712.5824,W,49.50,325.60,181210,,*23
$GPRMC,035828.5,A,3309.7135,N,11712.6183,W,45.70,325.50,181210,,*2D
$GPRMC,035832.5,A,3309.7536,N,11712.6514,W,43.60,325.70,181210,,*2E
$GPRMC,035836.5,A,3309.7960,N,11712.6847,W,45.40,325.90,181210,,*24
$GPRMC,035840.5,A,3309.8393,N,11712.7193,W,44.10,325.50,181210,,*25
$GPRMC,035844.5,A,3309.8782,N,11712.7512,W,40.80,326.70,181210,,*24
$GPRMC,035848.5,A,3309.9155,N,11712.7783,W,38.90,330.10,181210,,*20
$GPRMC,035852.5,A,3309.9515,N,11712.7997,W,35.90,336.50,181210,,*2F
$GPRMC,035856.5,A,3309.9890,N,11712.8125,W,34.40,348.10,181210,,*24
$GPRMC,035900.5,A,3310.0195,N,11712.8199,W,24.20,350.60,181210,,*25
$GPRMC,035904.5,A,3310.0351,N,11712.8233,W,10.00,347.00,181210,,*2D
$GPRMC,035908.5,A,3310.0440,N,11712.8265,W,6.30,344.40,181210,,*16
$GPRMC,035956.5,A,3310.0619,N,11712.8404,W,9.40,311.10,181210,,*1F
$GPRMC,040000.5,A,3310.0651,N,11712.8560,W,10.90,276.20,181210,,*2E
$GPRMC,040004.5,A,3310.0495,N,11712.8727,W,18.80,219.20,181210,,*21
$GPRMC,040008.5,A,3310.0312,N,11712.8872,W,20.00,214.10,181210,,*27
$GPRMC,040012.5,A,3310.0062,N,11712.9054,W,21.50,214.00,181210,,*20
$GPRMC,040016.5,A,3309.9845,N,11712.9229,W,20.60,213.80,181210,,*2D
$GPRMC,040020.5,A,3309.9642,N,11712.9394,W,22.10,213.90,181210,,*22
$GPRMC,040024.5,A,3309.9410,N,11712.9589,W,25.60,215.00,181210,,*26
$GPRMC,040028.5,A,3309.9193,N,11712.9798,W,25.00,215.90,181210,,*29
$GPRMC,040032.5,A,3309.9048,N,11712.9913,W,13.70,213.20,181210,,*27
$GPRMC,040108.5,A,3309.8902,N,11713.0022,W,8.70,221.50,181210,,*16
$GPRMC,040112.5,A,3309.8857,N,11713.0169,W,11.20,254.10,181210,,*29
$GPRMC,040116.5,A,3309.8991,N,11713.0426,W,25.10,293.10,181210,,*27
$GPRMC,040120.5,A,3309.9087,N,11713.0773,W,28.90,278.50,181210,,*2A
$GPRMC,040124.5,A,3309.9122,N,11713.1158,W,29.60,271.90,181210,,*25
$GPRMC,040128.5,A,3309.9161,N,11713.1552,W,31.90,286.10,181210,,*26
$GPRMC,040132.5,A,3309.9310,N,11713.1945,W,32.20,300.90,181210,,*2C
$GPRMC,040136.5,A,3309.9549,N,11713.2278,W,31.90,311.90,181210,,*2C
$GPRMC,040140.5,A,3309.9743,N,11713.2623,W,31.30,299.70,181210,,*2A
$GPRMC,040144.5,A,3309.9873,N,11713.3003,W,31.90,286.30,181210,,*27
$GPRMC,040148.5,A,3309.9955,N,11713.3429,W,33.70,279.60,181210,,*2B
$GPRMC,040152.5,A,3310.0019,N,11713.3867,W,30.30,280.40,181210,,*25
$GPRMC,040156.5,A,3310.0084,N,11713.4247,W,27.80,281.90,181210,,*2B
$GPRMC,040200.5,A,3310.0133,N,11713.4597,W,27.90,280.90,181210,,*2C
$GPRMC,040204.5,A,3310.0173,N,11713.4998,W,32.20,277.00,181210,,*21
$GPRMC,040208.5,A,3310.0182,N,11713.5446,W,35.70,267.50,181210,,*2A
$GPRMC,040212.5,A,3310.0172,N,11713.5915,W,35.10,272.30,181210,,*21
$GPRMC,040216.5,A,3310.0214,N,11713.6377,W,35.30,276.70,181210,,*29
$GPRMC,040220.5,A,3310.0261,N,11713.6865,W,37.20,275.90,181210,,*28
$GPRMC,040224.5,A,3310.0279,N,11713.7336,W,34.60,272.10,181210,,*21
$GPRMC,040228.5,A,3310.0283,N,11713.7759,W,32.10,271.60,181210,,*20
$GPRMC,040232.5,A,3310.0281,N,11713.8190,W,33.70,270.20,181210,,*27
