NMEA Sentence Code,UTC Time,Status,Latitude,Latitude Direction,Longitude,Longitude Direction,Speed (knots),Track Angle (degrees true),Date,MagneticVariation,Magnetic Variation Direction,[FAA Mode]-Optional,Checksum
$GPRMC,144825.2,A,3344.086700,N,11749.035120,W,62.3,124.1,010710,,,A*40
$GPRMC,144828.2,A,3344.055031,N,11748.986262,W,60.5,127.9,010710,,,A*4C
$GPRMC,144831.2,A,3344.022078,N,11748.941032,W,60.1,131.8,010710,,,A*47
$GPRMC,144834.2,A,3343.988739,N,11748.897344,W,59.4,132.2,010710,,,A*40
$GPRMC,144837.2,A,3343.956284,N,11748.853264,W,59.3,131.0,010710,,,A*4E
$GPRMC,144840.2,A,3343.925283,N,11748.807612,W,59.6,129.2,010710,,,A*47
$GPRMC,144843.2,A,3343.893987,N,11748.761601,W,60.3,129.1,010710,,,A*46
$GPRMC,144846.2,A,3343.862690,N,11748.714639,W,60.2,129.3,010710,,,A*4E
$GPRMC,144849.2,A,3343.831041,N,11748.667910,W,60.1,129.4,010710,,,A*48
$GPRMC,144852.2,A,3343.798832,N,11748.621017,W,60.1,129.4,010710,,,A*4E
$GPRMC,144855.2,A,3343.766268,N,11748.576001,W,60.2,129.9,010710,,,A*45
$GPRMC,144858.2,A,3343.733250,N,11748.529130,W,60.6,130.0,010710,,,A*4F
$GPRMC,144901.2,A,3343.701393,N,11748.483809,W,60.3,129.9,010710,,,A*4B
$GPRMC,144904.2,A,3343.668822,N,11748.437638,W,60.4,129.9,010710,,,A*45
$GPRMC,144907.2,A,3343.635871,N,11748.390264,W,60.6,129.4,010710,,,A*40
$GPRMC,144910.2,A,3343.603962,N,11748.342392,W,60.4,128.7,010710,,,A*47
$GPRMC,144913.2,A,3343.572893,N,11748.295392,W,59.7,128.5,010710,,,A*4E
$GPRMC,144916.2,A,3343.541861,N,11748.249504,W,59.0,128.1,010710,,,A*4D
$GPRMC,144919.2,A,3343.511614,N,11748.202539,W,59.2,127.8,010710,,,A*4E
$GPRMC,144922.2,A,3343.481376,N,11748.156125,W,59.4,128.4,010710,,,A*41
$GPRMC,144925.2,A,3343.450720,N,11748.108912,W,60.1,128.8,010710,,,A*49
$GPRMC,144928.2,A,3343.420130,N,11748.064040,W,59.4,129.1,010710,,,A*46
$GPRMC,144931.2,A,3343.388130,N,11748.017652,W,59.6,129.6,010710,,,A*4F
$GPRMC,144934.2,A,3343.357009,N,11747.972300,W,59.2,129.7,010710,,,A*41
$GPRMC,144937.2,A,3343.324930,N,11747.927692,W,59.0,129.6,010710,,,A*48
$GPRMC,144940.2,A,3343.293004,N,11747.882646,W,58.7,129.8,010710,,,A*44
$GPRMC,144943.2,A,3343.261123,N,11747.837325,W,59.1,129.2,010710,,,A*4D
$GPRMC,144946.2,A,3343.229695,N,11747.792295,W,59.1,129.2,010710,,,A*44
$GPRMC,144949.2,A,3343.197804,N,11747.746220,W,60.0,129.7,010710,,,A*42
$GPRMC,144952.2,A,3343.166687,N,11747.699577,W,59.9,129.6,010710,,,A*47
$GPRMC,144955.2,A,3343.134567,N,11747.654099,W,60.0,129.9,010710,,,A*42
$GPRMC,144958.2,A,3343.102327,N,11747.608583,W,60.5,129.9,010710,,,A*4A
$GPRMC,145001.2,A,3343.070601,N,11747.562175,W,61.3,129.3,010710,,,A*44
$GPRMC,145004.2,A,3343.037634,N,11747.515308,W,61.8,129.4,010710,,,A*40
$GPRMC,145007.2,A,3343.004933,N,11747.467292,W,61.2,129.6,010710,,,A*45
$GPRMC,145010.2,A,3342.973224,N,11747.422156,W,58.6,129.8,010710,,,A*4C
$GPRMC,145013.2,A,3342.941123,N,11747.377054,W,59.1,129.5,010710,,,A*45
$GPRMC,145016.2,A,3342.910147,N,11747.331082,W,59.5,129.0,010710,,,A*4E
$GPRMC,145019.2,A,3342.878778,N,11747.284134,W,60.1,129.8,010710,,,A*41
$GPRMC,145022.2,A,3342.846938,N,11747.239069,W,60.4,129.3,010710,,,A*4F
$GPRMC,145025.2,A,3342.814577,N,11747.192212,W,60.7,129.7,010710,,,A*43
$GPRMC,145028.2,A,3342.780710,N,11747.145618,W,60.8,131.1,010710,,,A*4B
$GPRMC,145031.2,A,3342.746117,N,11747.102203,W,59.8,133.1,010710,,,A*4D
$GPRMC,145034.2,A,3342.711008,N,11747.058499,W,59.3,134.4,010710,,,A*47
$GPRMC,145037.2,A,3342.675519,N,11747.017309,W,59.7,136.0,010710,,,A*45
$GPRMC,145040.2,A,3342.638540,N,11746.975652,W,59.9,137.9,010710,,,A*41
$GPRMC,145043.2,A,3342.599683,N,11746.937167,W,61.0,140.0,010710,,,A*4A
$GPRMC,145046.2,A,3342.559830,N,11746.898989,W,61.2,141.8,010710,,,A*42
$GPRMC,145049.2,A,3342.519854,N,11746.861742,W,61.1,142.6,010710,,,A*4A
$GPRMC,145052.2,A,3342.476830,N,11746.826531,W,62.1,144.9,010710,,,A*45
$GPRMC,145055.2,A,3342.433039,N,11746.791513,W,63.1,146.7,010710,,,A*4C
$GPRMC,145058.2,A,3342.386350,N,11746.757120,W,64.3,148.3,010710,,,A*45
$GPRMC,145101.2,A,3342.340707,N,11746.724389,W,63.4,149.9,010710,,,A*4A
$GPRMC,145104.2,A,3342.294821,N,11746.693083,W,63.4,150.9,010710,,,A*40
$GPRMC,145107.2,A,3342.247102,N,11746.662719,W,63.2,150.7,010710,,,A*47
$GPRMC,145110.2,A,3342.201429,N,11746.633112,W,62.6,151.7,010710,,,A*42
$GPRMC,145113.2,A,3342.155451,N,11746.604296,W,62.6,152.1,010710,,,A*42
$GPRMC,145116.2,A,3342.108626,N,11746.573339,W,62.5,151.7,010710,,,A*4C
$GPRMC,145119.2,A,3342.063729,N,11746.542695,W,62.4,151.5,010710,,,A*43
$GPRMC,145122.2,A,3342.017717,N,11746.513184,W,63.0,152.0,010710,,,A*45
$GPRMC,145125.2,A,3341.970935,N,11746.483986,W,62.8,152.1,010710,,,A*4D
$GPRMC,145128.2,A,3341.924762,N,11746.454805,W,63.5,151.4,010710,,,A*47
$GPRMC,145131.2,A,3341.879129,N,11746.424401,W,63.2,150.8,010710,,,A*4A
$GPRMC,145134.2,A,3341.834536,N,11746.394818,W,62.5,151.2,010710,,,A*49
$GPRMC,145137.2,A,3341.788779,N,11746.364701,W,61.7,151.3,010710,,,A*43
$GPRMC,145140.2,A,3341.742779,N,11746.333928,W,61.5,151.3,010710,,,A*40
$GPRMC,145143.2,A,3341.698122,N,11746.304614,W,61.3,150.9,010710,,,A*44
$GPRMC,145146.2,A,3341.652627,N,11746.274589,W,61.4,151.3,010710,,,A*48
$GPRMC,145149.2,A,3341.608343,N,11746.245548,W,61.7,151.5,010710,,,A*45
$GPRMC,145152.2,A,3341.564338,N,11746.216054,W,61.3,150.7,010710,,,A*43
$GPRMC,145155.2,A,3341.519419,N,11746.186368,W,61.0,151.2,010710,,,A*4B
$GPRMC,145158.2,A,3341.475961,N,11746.155906,W,60.4,150.9,010710,,,A*4C
$GPRMC,145201.2,A,3341.430454,N,11746.128185,W,60.3,151.6,010710,,,A*49
$GPRMC,145204.2,A,3341.386803,N,11746.099111,W,60.5,151.3,010710,,,A*4D
$GPRMC,145207.2,A,3341.341834,N,11746.070423,W,61.0,152.0,010710,,,A*46
$GPRMC,145210.2,A,3341.298179,N,11746.041840,W,61.2,151.8,010710,,,A*47
$GPRMC,145213.2,A,3341.252852,N,11746.012408,W,61.1,151.8,010710,,,A*47
$GPRMC,145216.2,A,3341.208828,N,11745.984135,W,60.1,151.7,010710,,,A*40
$GPRMC,145219.2,A,3341.165696,N,11745.956563,W,59.4,151.4,010710,,,A*48
$GPRMC,145222.2,A,3341.121602,N,11745.928122,W,59.6,151.6,010710,,,A*45
$GPRMC,145225.2,A,3341.077509,N,11745.899207,W,59.9,151.5,010710,,,A*4B
$GPRMC,145228.2,A,3341.033316,N,11745.869575,W,61.0,151.1,010710,,,A*45
$GPRMC,145231.2,A,3340.988538,N,11745.840550,W,60.5,149.1,010710,,,A*4E
$GPRMC,145234.2,A,3340.946969,N,11745.806089,W,60.2,144.6,010710,,,A*4F
$GPRMC,145237.2,A,3340.907932,N,11745.769765,W,59.1,141.3,010710,,,A*4D
$GPRMC,145240.2,A,3340.872966,N,11745.730995,W,58.8,137.5,010710,,,A*4D
$GPRMC,145243.2,A,3340.836265,N,11745.689808,W,58.8,136.5,010710,,,A*41
$GPRMC,145246.2,A,3340.799315,N,11745.649042,W,58.6,137.0,010710,,,A*48
$GPRMC,145249.2,A,3340.764169,N,11745.607880,W,58.7,136.6,010710,,,A*46
$GPRMC,145252.2,A,3340.728986,N,11745.568195,W,58.1,136.8,010710,,,A*42
$GPRMC,145255.2,A,3340.695083,N,11745.529313,W,57.2,136.4,010710,,,A*47
$GPRMC,145258.2,A,3340.659347,N,11745.490023,W,56.8,138.8,010710,,,A*4B
$GPRMC,145301.2,A,3340.621087,N,11745.455247,W,57.5,143.9,010710,,,A*4E
$GPRMC,145304.2,A,3340.579208,N,11745.424495,W,58.6,149.9,010710,,,A*49
$GPRMC,145307.2,A,3340.534793,N,11745.397776,W,60.1,154.6,010710,,,A*4A
$GPRMC,145310.2,A,3340.486918,N,11745.375770,W,60.7,160.6,010710,,,A*42
$GPRMC,145313.2,A,3340.438141,N,11745.360108,W,60.9,166.2,010710,,,A*41
$GPRMC,145316.2,A,3340.388878,N,11745.349242,W,60.7,169.8,010710,,,A*46
$GPRMC,145319.2,A,3340.337908,N,11745.338166,W,61.2,169.3,010710,,,A*47
$GPRMC,145322.2,A,3340.286833,N,11745.326920,W,62.5,169.4,010710,,,A*4B
$GPRMC,145325.2,A,3340.236585,N,11745.312906,W,61.1,166.0,010710,,,A*48
$GPRMC,145328.2,A,3340.189292,N,11745.294599,W,59.1,160.4,010710,,,A*4F
$GPRMC,145331.2,A,3340.143640,N,11745.270347,W,59.9,154.2,010710,,,A*4C
$GPRMC,145334.2,A,3340.099913,N,11745.240799,W,60.8,150.4,010710,,,A*4B
$GPRMC,145337.2,A,3340.055911,N,11745.208519,W,62.5,147.2,010710,,,A*43
$GPRMC,145340.2,A,3340.011767,N,11745.173186,W,63.8,146.6,010710,,,A*48
$GPRMC,145343.2,A,3339.967744,N,11745.138929,W,64.1,146.6,010710,,,A*40
$GPRMC,145346.2,A,3339.922856,N,11745.101887,W,64.3,146.1,010710,,,A*42
$GPRMC,145349.2,A,3339.878591,N,11745.067810,W,63.5,146.8,010710,,,A*42
$GPRMC,145352.2,A,3339.833299,N,11745.032814,W,63.6,147.1,010710,,,A*47
$GPRMC,145355.2,A,3339.790769,N,11744.997254,W,63.2,147.3,010710,,,A*43
$GPRMC,145358.2,A,3339.746134,N,11744.962780,W,63.2,147.2,010710,,,A*4C
$GPRMC,145401.2,A,3339.704367,N,11744.929140,W,62.4,146.4,010710,,,A*40
$GPRMC,145404.2,A,3339.660514,N,11744.894583,W,62.8,146.7,010710,,,A*47
$GPRMC,145407.2,A,3339.615081,N,11744.859217,W,63.9,146.6,010710,,,A*45
$GPRMC,145410.2,A,3339.569202,N,11744.824048,W,64.3,146.2,010710,,,A*49
$GPRMC,145413.2,A,3339.523706,N,11744.788599,W,64.3,146.4,010710,,,A*43
$GPRMC,145416.2,A,3339.478440,N,11744.753101,W,64.4,145.5,010710,,,A*4E
$GPRMC,145419.2,A,3339.433512,N,11744.716729,W,64.6,145.0,010710,,,A*42
$GPRMC,145422.2,A,3339.388795,N,11744.678912,W,64.9,145.4,010710,,,A*44
$GPRMC,145425.2,A,3339.345972,N,11744.643022,W,62.8,146.3,010710,,,A*44
$GPRMC,145428.2,A,3339.302936,N,11744.608587,W,61.9,146.6,010710,,,A*48
$GPRMC,145431.2,A,3339.262808,N,11744.574354,W,61.1,145.9,010710,,,A*4F
$GPRMC,145434.2,A,3339.218534,N,11744.540480,W,61.5,146.3,010710,,,A*41
$GPRMC,145437.2,A,3339.175672,N,11744.506233,W,62.4,146.2,010710,,,A*44
$GPRMC,145440.2,A,3339.134210,N,11744.471949,W,62.2,146.4,010710,,,A*46
$GPRMC,145443.2,A,3339.090947,N,11744.437378,W,62.5,146.2,010710,,,A*48
$GPRMC,145446.2,A,3339.046610,N,11744.402467,W,62.6,146.5,010710,,,A*40
$GPRMC,145449.2,A,3339.003691,N,11744.367508,W,62.6,146.4,010710,,,A*4A
$GPRMC,145452.2,A,3338.959603,N,11744.332859,W,62.3,146.1,010710,,,A*45
$GPRMC,145455.2,A,3338.916591,N,11744.298998,W,61.5,146.1,010710,,,A*49
$GPRMC,145458.2,A,3338.874115,N,11744.264605,W,61.6,146.4,010710,,,A*47
$GPRMC,145501.2,A,3338.830418,N,11744.229468,W,62.2,146.4,010710,,,A*45
$GPRMC,145504.2,A,3338.787836,N,11744.195698,W,61.1,145.7,010710,,,A*4A
$GPRMC,145507.2,A,3338.746359,N,11744.161397,W,61.7,145.5,010710,,,A*43
$GPRMC,145510.2,A,3338.703212,N,11744.127371,W,61.6,146.1,010710,,,A*46
$GPRMC,145513.2,A,3338.660516,N,11744.093892,W,61.6,146.3,010710,,,A*48
$GPRMC,145516.2,A,3338.617883,N,11744.059803,W,61.5,146.2,010710,,,A*40
$GPRMC,145519.2,A,3338.573845,N,11744.026100,W,62.7,146.6,010710,,,A*43
$GPRMC,145522.2,A,3338.528512,N,11743.992024,W,63.2,147.0,010710,,,A*4F
$GPRMC,145525.2,A,3338.484700,N,11743.956949,W,63.3,147.0,010710,,,A*45
$GPRMC,145528.2,A,3338.440478,N,11743.922136,W,63.6,146.5,010710,,,A*4E
$GPRMC,145531.2,A,3338.396357,N,11743.887503,W,63.2,146.2,010710,,,A*4F
$GPRMC,145534.2,A,3338.352596,N,11743.852153,W,63.5,145.4,010710,,,A*42
$GPRMC,145537.2,A,3338.309244,N,11743.817341,W,63.8,145.6,010710,,,A*48
$GPRMC,145540.2,A,3338.263601,N,11743.782003,W,64.4,146.1,010710,,,A*49
$GPRMC,145543.2,A,3338.218086,N,11743.745197,W,65.0,145.4,010710,,,A*4B
$GPRMC,145546.2,A,3338.172577,N,11743.707870,W,65.4,145.6,010710,,,A*4A
$GPRMC,145549.2,A,3338.125986,N,11743.671444,W,65.5,145.9,010710,,,A*40
$GPRMC,145552.2,A,3338.080898,N,11743.635290,W,65.8,145.6,010710,,,A*47
$GPRMC,145555.2,A,3338.036440,N,11743.597839,W,65.2,144.2,010710,,,A*49
$GPRMC,145558.2,A,3337.992777,N,11743.558506,W,63.7,141.3,010710,,,A*4E
$GPRMC,145601.2,A,3337.953568,N,11743.516918,W,61.8,136.7,010710,,,A*40
$GPRMC,145604.2,A,3337.917409,N,11743.474795,W,59.9,134.9,010710,,,A*4B
$GPRMC,145607.2,A,3337.882819,N,11743.433369,W,59.2,135.3,010710,,,A*4C
$GPRMC,145610.2,A,3337.846931,N,11743.390905,W,60.2,135.2,010710,,,A*4C
$GPRMC,145613.2,A,3337.811887,N,11743.348488,W,59.3,135.3,010710,,,A*46
$GPRMC,145616.2,A,3337.774466,N,11743.307865,W,59.9,138.4,010710,,,A*48
$GPRMC,145619.2,A,3337.735013,N,11743.269427,W,60.9,141.6,010710,,,A*41
$GPRMC,145622.2,A,3337.694379,N,11743.230994,W,62.4,141.9,010710,,,A*45
$GPRMC,145625.2,A,3337.652541,N,11743.193707,W,61.9,142.1,010710,,,A*4E
$GPRMC,145628.2,A,3337.611969,N,11743.156990,W,60.7,142.5,010710,,,A*40
$GPRMC,145631.2,A,3337.572622,N,11743.120349,W,59.6,142.5,010710,,,A*4A
$GPRMC,145634.2,A,3337.533446,N,11743.085425,W,58.3,142.5,010710,,,A*4D
$GPRMC,145637.2,A,3337.494240,N,11743.048970,W,57.7,142.0,010710,,,A*40
$GPRMC,145640.2,A,3337.457121,N,11743.013073,W,56.8,141.7,010710,,,A*45
$GPRMC,145643.2,A,3337.418668,N,11742.978035,W,58.0,142.4,010710,,,A*46
$GPRMC,145646.2,A,3337.379956,N,11742.942745,W,59.2,142.2,010710,,,A*4D
$GPRMC,145649.2,A,3337.340371,N,11742.905908,W,60.8,142.8,010710,,,A*49
$GPRMC,145652.2,A,3337.300853,N,11742.869611,W,60.5,141.8,010710,,,A*4E
$GPRMC,145655.2,A,3337.259797,N,11742.832002,W,60.7,142.2,010710,,,A*42
$GPRMC,145658.2,A,3337.220319,N,11742.795523,W,59.8,142.0,010710,,,A*40
$GPRMC,145701.2,A,3337.180879,N,11742.760108,W,58.6,142.1,010710,,,A*40
$GPRMC,145704.2,A,3337.141082,N,11742.725227,W,58.3,142.6,010710,,,A*49
$GPRMC,145707.2,A,3337.103058,N,11742.690280,W,57.8,142.8,010710,,,A*43
$GPRMC,145710.2,A,3337.064604,N,11742.654659,W,57.9,142.1,010710,,,A*4A
$GPRMC,145713.2,A,3337.025790,N,11742.619031,W,58.1,142.1,010710,,,A*46
$GPRMC,145716.2,A,3336.987287,N,11742.583132,W,58.6,140.6,010710,,,A*40
$GPRMC,145719.2,A,3336.950263,N,11742.543827,W,59.5,137.5,010710,,,A*4F
$GPRMC,145722.2,A,3336.914711,N,11742.500435,W,60.8,135.3,010710,,,A*4C
$GPRMC,145725.2,A,3336.879067,N,11742.457886,W,61.6,135.3,010710,,,A*4F
$GPRMC,145728.2,A,3336.840303,N,11742.413029,W,64.0,135.9,010710,,,A*4D
$GPRMC,145731.2,A,3336.801520,N,11742.368392,W,65.4,135.5,010710,,,A*46
$GPRMC,145734.2,A,3336.762377,N,11742.322348,W,66.7,135.7,010710,,,A*46
$GPRMC,145737.2,A,3336.724015,N,11742.276658,W,65.3,136.0,010710,,,A*47
$GPRMC,145740.2,A,3336.684545,N,11742.229607,W,65.4,134.2,010710,,,A*4B
$GPRMC,145743.2,A,3336.648580,N,11742.181620,W,64.4,131.2,010710,,,A*41
$GPRMC,145746.2,A,3336.616466,N,11742.130964,W,63.8,126.3,010710,,,A*4F
$GPRMC,145749.2,A,3336.586603,N,11742.078632,W,63.0,123.6,010710,,,A*42
$GPRMC,145752.2,A,3336.559293,N,11742.025223,W,62.8,119.7,010710,,,A*4A
$GPRMC,145755.2,A,3336.535610,N,11741.970289,W,62.3,117.3,010710,,,A*43
$GPRMC,145758.2,A,3336.510354,N,11741.914680,W,62.8,117.4,010710,,,A*4F
$GPRMC,145801.2,A,3336.485940,N,11741.858458,W,64.0,117.0,010710,,,A*4A
$GPRMC,145804.2,A,3336.462934,N,11741.801084,W,64.2,116.6,010710,,,A*49
$GPRMC,145807.2,A,3336.438805,N,11741.744428,W,64.9,117.1,010710,,,A*47
$GPRMC,145810.2,A,3336.413054,N,11741.687730,W,63.6,118.0,010710,,,A*46
$GPRMC,145813.2,A,3336.388373,N,11741.634314,W,61.4,119.1,010710,,,A*4C
$GPRMC,145816.2,A,3336.361625,N,11741.581396,W,61.6,121.1,010710,,,A*46
$GPRMC,145819.2,A,3336.333561,N,11741.530278,W,61.7,123.4,010710,,,A*40
$GPRMC,145822.2,A,3336.304146,N,11741.479512,W,61.8,125.6,010710,,,A*41
$GPRMC,145825.2,A,3336.273002,N,11741.429781,W,62.5,127.2,010710,,,A*43
$GPRMC,145828.2,A,3336.238273,N,11741.380873,W,63.9,129.1,010710,,,A*43
$GPRMC,145831.2,A,3336.205032,N,11741.331117,W,63.5,127.5,010710,,,A*45
$GPRMC,145834.2,A,3336.174811,N,11741.277826,W,63.6,124.1,010710,,,A*40
$GPRMC,145837.2,A,3336.148036,N,11741.226051,W,62.3,120.7,010710,,,A*4B
$GPRMC,145840.2,A,3336.123501,N,11741.170928,W,62.5,117.9,010710,,,A*4C
$GPRMC,145843.2,A,3336.101154,N,11741.114928,W,62.3,115.0,010710,,,A*44
$GPRMC,145846.2,A,3336.079021,N,11741.058658,W,62.7,115.2,010710,,,A*4B
$GPRMC,145849.2,A,3336.056441,N,11741.002369,W,62.2,115.7,010710,,,A*43
$GPRMC,145852.2,A,3336.035699,N,11740.945378,W,62.9,114.4,010710,,,A*49
$GPRMC,145855.2,A,3336.012861,N,11740.888105,W,63.9,114.8,010710,,,A*47
$GPRMC,145858.2,A,3335.990187,N,11740.832386,W,63.5,115.6,010710,,,A*40
$GPRMC,145901.2,A,3335.966922,N,11740.775404,W,63.4,115.3,010710,,,A*46
$GPRMC,145904.2,A,3335.944040,N,11740.718138,W,62.2,115.3,010710,,,A*48
$GPRMC,145907.2,A,3335.920387,N,11740.662075,W,61.8,118.2,010710,,,A*40
$GPRMC,145910.2,A,3335.892549,N,11740.609844,W,60.8,123.8,010710,,,A*4E
$GPRMC,145913.2,A,3335.861250,N,11740.562864,W,61.0,130.2,010710,,,A*43
$GPRMC,145916.2,A,3335.826461,N,11740.518282,W,61.5,134.5,010710,,,A*48
$GPRMC,145919.2,A,3335.788566,N,11740.476601,W,62.5,138.0,010710,,,A*46
$GPRMC,145922.2,A,3335.747781,N,11740.437416,W,63.3,142.0,010710,,,A*4D
$GPRMC,145925.2,A,3335.705133,N,11740.400057,W,62.9,145.4,010710,,,A*4E
$GPRMC,145928.2,A,3335.659420,N,11740.368280,W,63.1,150.1,010710,,,A*45
$GPRMC,145931.2,A,3335.612101,N,11740.340890,W,62.7,155.9,010710,,,A*4F
$GPRMC,145934.2,A,3335.563163,N,11740.321679,W,60.8,162.8,010710,,,A*4D
$GPRMC,145937.2,A,3335.515065,N,11740.307655,W,59.1,168.2,010710,,,A*41
$GPRMC,145940.2,A,3335.466852,N,11740.299281,W,58.4,173.7,010710,,,A*48
$GPRMC,145943.2,A,3335.416693,N,11740.298198,W,59.9,179.3,010710,,,A*47
$GPRMC,145946.2,A,3335.365215,N,11740.299367,W,62.1,180.7,010710,,,A*4A
$GPRMC,145949.2,A,3335.312439,N,11740.300351,W,63.2,180.7,010710,,,A*4B
$GPRMC,145952.2,A,3335.258423,N,11740.301243,W,64.0,180.4,010710,,,A*40
$GPRMC,145955.2,A,3335.203981,N,11740.301638,W,64.8,180.4,010710,,,A*4C
$GPRMC,145958.2,A,3335.149158,N,11740.303401,W,66.5,181.0,010710,,,A*40
$GPRMC,150001.2,A,3335.092670,N,11740.305054,W,67.6,180.8,010710,,,A*42
$GPRMC,150004.2,A,3335.035703,N,11740.305771,W,68.7,180.4,010710,,,A*4D
$GPRMC,150007.2,A,3334.976630,N,11740.306784,W,69.7,180.6,010710,,,A*4A
$GPRMC,150010.2,A,3334.918142,N,11740.306695,W,70.1,180.7,010710,,,A*48
$GPRMC,150013.2,A,3334.859216,N,11740.307993,W,70.2,180.7,010710,,,A*46
$GPRMC,150016.2,A,3334.801696,N,11740.308852,W,69.4,181.2,010710,,,A*4B
$GPRMC,150019.2,A,3334.742748,N,11740.309342,W,70.2,180.7,010710,,,A*4F
$GPRMC,150022.2,A,3334.683302,N,11740.311210,W,70.5,180.7,010710,,,A*49
$GPRMC,150025.2,A,3334.625230,N,11740.311824,W,70.1,180.8,010710,,,A*44
$GPRMC,150028.2,A,3334.568518,N,11740.312754,W,68.2,180.5,010710,,,A*42
$GPRMC,150031.2,A,3334.513782,N,11740.313004,W,65.9,180.9,010710,,,A*4E
$GPRMC,150034.2,A,3334.459155,N,11740.314465,W,64.5,180.9,010710,,,A*41
$GPRMC,150037.2,A,3334.406716,N,11740.315438,W,62.5,180.6,010710,,,A*49
$GPRMC,150040.2,A,3334.354547,N,11740.315887,W,62.4,180.6,010710,,,A*46
$GPRMC,150043.2,A,3334.302726,N,11740.316681,W,62.7,180.8,010710,,,A*45
$GPRMC,150046.2,A,3334.251231,N,11740.318106,W,63.2,180.9,010710,,,A*47
$GPRMC,150049.2,A,3334.198091,N,11740.318375,W,64.2,181.1,010710,,,A*4E
$GPRMC,150052.2,A,3334.145122,N,11740.320214,W,64.3,182.4,010710,,,A*47
$GPRMC,150055.2,A,3334.091136,N,11740.324126,W,64.9,184.7,010710,,,A*44
$GPRMC,150058.2,A,3334.036785,N,11740.330216,W,65.5,185.9,010710,,,A*4D
$GPRMC,150101.2,A,3333.983081,N,11740.337341,W,65.6,186.3,010710,,,A*4D
$GPRMC,150104.2,A,3333.928221,N,11740.344770,W,65.7,186.1,010710,,,A*40
$GPRMC,150107.2,A,3333.875141,N,11740.351624,W,65.3,186.1,010710,,,A*4F
$GPRMC,150110.2,A,3333.822091,N,11740.359356,W,64.6,187.1,010710,,,A*4A
$GPRMC,150113.2,A,3333.767378,N,11740.366111,W,64.9,185.8,010710,,,A*4A
$GPRMC,150116.2,A,3333.713464,N,11740.372117,W,65.4,185.5,010710,,,A*44
$GPRMC,150119.2,A,3333.659542,N,11740.377886,W,65.7,184.8,010710,,,A*4A
$GPRMC,150122.2,A,3333.603430,N,11740.381574,W,66.5,183.0,010710,,,A*4E
$GPRMC,150125.2,A,3333.548448,N,11740.383878,W,66.2,181.5,010710,,,A*49
$GPRMC,150128.2,A,3333.492077,N,11740.382195,W,66.4,179.3,010710,,,A*46
$GPRMC,150131.2,A,3333.437737,N,11740.381639,W,65.8,179.1,010710,,,A*4D
$GPRMC,150134.2,A,3333.382595,N,11740.379966,W,66.4,179.0,010710,,,A*47
$GPRMC,150137.2,A,3333.328189,N,11740.379164,W,65.6,178.7,010710,,,A*40
$GPRMC,150140.2,A,3333.273881,N,11740.377382,W,65.4,178.7,010710,,,A*48
$GPRMC,150143.2,A,3333.219562,N,11740.376364,W,65.2,178.8,010710,,,A*47
$GPRMC,150146.2,A,3333.165647,N,11740.375535,W,64.6,178.9,010710,,,A*4B
$GPRMC,150149.2,A,3333.112000,N,11740.373609,W,63.7,178.8,010710,,,A*4C
$GPRMC,150152.2,A,3333.059701,N,11740.372104,W,62.9,179.0,010710,,,A*43
$GPRMC,150155.2,A,3333.007742,N,11740.371567,W,62.7,179.6,010710,,,A*42
$GPRMC,150158.2,A,3332.955610,N,11740.370631,W,62.7,180.4,010710,,,A*43
$GPRMC,150201.2,A,3332.903812,N,11740.372174,W,62.8,182.1,010710,,,A*4F
$GPRMC,150204.2,A,3332.851131,N,11740.376424,W,62.8,184.0,010710,,,A*47
$GPRMC,150207.2,A,3332.797976,N,11740.383346,W,63.1,185.7,010710,,,A*4D
$GPRMC,150210.2,A,3332.744890,N,11740.391061,W,63.9,187.5,010710,,,A*41
$GPRMC,150213.2,A,3332.690783,N,11740.401054,W,65.4,189.1,010710,,,A*4E
$GPRMC,150216.2,A,3332.637317,N,11740.412152,W,66.2,189.9,010710,,,A*47
$GPRMC,150219.2,A,3332.582070,N,11740.423812,W,66.9,189.9,010710,,,A*43
$GPRMC,150222.2,A,3332.526192,N,11740.435355,W,67.0,189.7,010710,,,A*41
$GPRMC,150225.2,A,3332.471530,N,11740.446687,W,66.7,189.9,010710,,,A*4F
$GPRMC,150228.2,A,3332.418590,N,11740.458623,W,66.5,190.5,010710,,,A*40
$GPRMC,150231.2,A,3332.364998,N,11740.470373,W,65.4,190.5,010710,,,A*48
$GPRMC,150234.2,A,3332.312219,N,11740.481942,W,65.2,189.7,010710,,,A*44
$GPRMC,150237.2,A,3332.257627,N,11740.491836,W,66.2,187.5,010710,,,A*42
$GPRMC,150240.2,A,3332.203669,N,11740.498863,W,65.9,185.1,010710,,,A*4E
$GPRMC,150243.2,A,3332.148659,N,11740.502498,W,66.3,182.6,010710,,,A*41
$GPRMC,150246.2,A,3332.094084,N,11740.502946,W,65.8,179.5,010710,,,A*43
$GPRMC,150249.2,A,3332.039147,N,11740.500916,W,65.8,178.0,010710,,,A*46
$GPRMC,150252.2,A,3331.984418,N,11740.496628,W,65.1,174.7,010710,,,A*41
$GPRMC,150255.2,A,3331.932781,N,11740.484141,W,64.2,166.3,010710,,,A*46
$GPRMC,150258.2,A,3331.882552,N,11740.462742,W,64.6,159.5,010710,,,A*4E
$GPRMC,150301.2,A,3331.836179,N,11740.433649,W,62.9,151.3,010710,,,A*48
$GPRMC,150304.2,A,3331.797153,N,11740.394600,W,62.6,140.8,010710,,,A*42
$GPRMC,150307.2,A,3331.758538,N,11740.351121,W,62.6,133.8,010710,,,A*42
$GPRMC,150310.2,A,3331.723927,N,11740.301932,W,65.2,130.1,010710,,,A*4C
$GPRMC,150313.2,A,3331.689949,N,11740.250397,W,66.9,129.2,010710,,,A*45
$GPRMC,150316.2,A,3331.653165,N,11740.198303,W,67.9,131.4,010710,,,A*45
$GPRMC,150319.2,A,3331.614504,N,11740.151252,W,65.6,137.2,010710,,,A*47
$GPRMC,150322.2,A,3331.571551,N,11740.111814,W,64.2,144.4,010710,,,A*44
$GPRMC,150325.2,A,3331.526529,N,11740.078514,W,62.5,149.0,010710,,,A*45
$GPRMC,150328.2,A,3331.479296,N,11740.051821,W,61.8,155.1,010710,,,A*42
$GPRMC,150331.2,A,3331.430435,N,11740.029029,W,63.8,159.4,010710,,,A*4C
$GPRMC,150334.2,A,3331.380103,N,11740.007329,W,64.7,160.0,010710,,,A*4C
$GPRMC,150337.2,A,3331.328223,N,11739.985531,W,65.9,160.1,010710,,,A*40
$GPRMC,150340.2,A,3331.274446,N,11739.962836,W,67.0,160.3,010710,,,A*47
$GPRMC,150343.2,A,3331.220241,N,11739.940514,W,67.9,160.1,010710,,,A*42
$GPRMC,150346.2,A,3331.165932,N,11739.918299,W,67.9,160.6,010710,,,A*42
$GPRMC,150349.2,A,3331.112552,N,11739.895163,W,68.1,160.7,010710,,,A*43
$GPRMC,150352.2,A,3331.058617,N,11739.872363,W,68.3,160.1,010710,,,A*4B
$GPRMC,150355.2,A,3331.005922,N,11739.848995,W,68.7,160.2,010710,,,A*40
$GPRMC,150358.2,A,3330.952555,N,11739.825304,W,68.0,160.2,010710,,,A*45
$GPRMC,150401.2,A,3330.898218,N,11739.802412,W,68.7,160.4,010710,,,A*43
$GPRMC,150404.2,A,3330.844358,N,11739.780385,W,69.0,160.6,010710,,,A*4A
$GPRMC,150407.2,A,3330.789685,N,11739.757167,W,70.4,159.7,010710,,,A*41
$GPRMC,150410.2,A,3330.732863,N,11739.733164,W,70.8,160.6,010710,,,A*47
$GPRMC,150413.2,A,3330.678490,N,11739.709066,W,70.3,160.2,010710,,,A*4E
$GPRMC,150416.2,A,3330.624167,N,11739.685926,W,70.3,160.4,010710,,,A*41
$GPRMC,150419.2,A,3330.569491,N,11739.661741,W,70.3,160.1,010710,,,A*48
$GPRMC,150422.2,A,3330.511134,N,11739.639128,W,70.0,160.9,010710,,,A*4A
$GPRMC,150425.2,A,3330.457449,N,11739.617107,W,68.2,160.9,010710,,,A*4B
$GPRMC,150428.2,A,3330.403392,N,11739.594585,W,68.0,160.5,010710,,,A*4E
$GPRMC,150431.2,A,3330.349798,N,11739.572024,W,68.1,160.5,010710,,,A*46
$GPRMC,150434.2,A,3330.297530,N,11739.550193,W,67.0,162.3,010710,,,A*46
$GPRMC,150437.2,A,3330.243054,N,11739.532046,W,67.8,165.8,010710,,,A*42
$GPRMC,150440.2,A,3330.186950,N,11739.518471,W,68.4,169.0,010710,,,A*4A
$GPRMC,150443.2,A,3330.130149,N,11739.508731,W,69.2,172.9,010710,,,A*46
$GPRMC,150446.2,A,3330.071249,N,11739.504714,W,69.4,177.4,010710,,,A*41
$GPRMC,150449.2,A,3330.014285,N,11739.504993,W,68.3,180.6,010710,,,A*40
$GPRMC,150452.2,A,3329.957997,N,11739.508743,W,67.6,184.0,010710,,,A*43
$GPRMC,150455.2,A,3329.902623,N,11739.516347,W,66.8,187.4,010710,,,A*43
$GPRMC,150458.2,A,3329.848409,N,11739.527484,W,66.0,190.6,010710,,,A*4D
$GPRMC,150501.2,A,3329.794622,N,11739.543460,W,66.3,194.4,010710,,,A*48
$GPRMC,150504.2,A,3329.742975,N,11739.562787,W,65.4,198.0,010710,,,A*4E
$GPRMC,150507.2,A,3329.692064,N,11739.586403,W,64.4,201.1,010710,,,A*4E
$GPRMC,150510.2,A,3329.643590,N,11739.614006,W,63.8,204.9,010710,,,A*45
$GPRMC,150513.2,A,3329.596966,N,11739.642571,W,64.0,208.3,010710,,,A*47
$GPRMC,150516.2,A,3329.550860,N,11739.676238,W,64.9,211.8,010710,,,A*48
$GPRMC,150519.2,A,3329.504895,N,11739.710903,W,63.8,212.2,010710,,,A*41
$GPRMC,150522.2,A,3329.458780,N,11739.746300,W,65.2,212.3,010710,,,A*4D
$GPRMC,150525.2,A,3329.411402,N,11739.781933,W,66.3,212.0,010710,,,A*4E
$GPRMC,150528.2,A,3329.363595,N,11739.818770,W,67.4,212.2,010710,,,A*4C
$GPRMC,150531.2,A,3329.315098,N,11739.853801,W,68.0,211.7,010710,,,A*46
$GPRMC,150534.2,A,3329.267177,N,11739.890134,W,68.5,211.8,010710,,,A*4D
$GPRMC,150537.2,A,3329.217992,N,11739.926215,W,68.4,211.8,010710,,,A*47
$GPRMC,150540.2,A,3329.168800,N,11739.963847,W,69.0,212.4,010710,,,A*40
$GPRMC,150543.2,A,3329.120267,N,11740.002875,W,69.0,213.6,010710,,,A*46
$GPRMC,150546.2,A,3329.073131,N,11740.042067,W,68.1,215.3,010710,,,A*48
$GPRMC,150549.2,A,3329.027517,N,11740.080972,W,66.3,215.6,010710,,,A*4C
$GPRMC,150552.2,A,3328.983257,N,11740.119630,W,66.3,215.9,010710,,,A*44
$GPRMC,150555.2,A,3328.938769,N,11740.159560,W,65.6,215.8,010710,,,A*4E
$GPRMC,150558.2,A,3328.895459,N,11740.196823,W,63.3,215.6,010710,,,A*41
$GPRMC,150601.2,A,3328.851691,N,11740.234717,W,63.3,215.9,010710,,,A*4C
$GPRMC,150604.2,A,3328.809330,N,11740.270564,W,62.2,215.4,010710,,,A*41
$GPRMC,150607.2,A,3328.767173,N,11740.306935,W,61.8,216.0,010710,,,A*46
$GPRMC,150610.2,A,3328.724443,N,11740.344899,W,62.9,216.4,010710,,,A*46
$GPRMC,150613.2,A,3328.681079,N,11740.380905,W,63.9,215.0,010710,,,A*4C
$GPRMC,150616.2,A,3328.635749,N,11740.414215,W,63.2,210.6,010710,,,A*4A
$GPRMC,150619.2,A,3328.589330,N,11740.441068,W,63.1,204.5,010710,,,A*46
$GPRMC,150622.2,A,3328.538265,N,11740.463664,W,64.5,198.9,010710,,,A*46
$GPRMC,150625.2,A,3328.486018,N,11740.479234,W,64.9,192.4,010710,,,A*4C
$GPRMC,150628.2,A,3328.432975,N,11740.487154,W,64.1,187.0,010710,,,A*40
$GPRMC,150631.2,A,3328.381250,N,11740.490315,W,62.8,181.6,010710,,,A*45
$GPRMC,150634.2,A,3328.328634,N,11740.488268,W,60.9,176.1,010710,,,A*4B
$GPRMC,150637.2,A,3328.280011,N,11740.477978,W,59.6,169.7,010710,,,A*4D
$GPRMC,150640.2,A,3328.233948,N,11740.461271,W,57.5,161.2,010710,,,A*45
$GPRMC,150643.2,A,3328.191678,N,11740.437785,W,56.4,154.1,010710,,,A*49
$GPRMC,150646.2,A,3328.152972,N,11740.408648,W,55.8,145.4,010710,,,A*40
$GPRMC,150649.2,A,3328.117530,N,11740.371359,W,57.2,137.3,010710,,,A*42
$GPRMC,150652.2,A,3328.083972,N,11740.329041,W,58.2,130.6,010710,,,A*44
$GPRMC,150655.2,A,3328.056754,N,11740.279647,W,59.3,120.6,010710,,,A*44
$GPRMC,150658.2,A,3328.035074,N,11740.226420,W,59.2,116.5,010710,,,A*47
$GPRMC,150701.2,A,3328.012084,N,11740.171809,W,59.9,117.6,010710,,,A*4F
$GPRMC,150704.2,A,3327.985824,N,11740.119943,W,60.3,122.5,010710,,,A*44
$GPRMC,150707.2,A,3327.954976,N,11740.071324,W,60.5,127.2,010710,,,A*4D
$GPRMC,150710.2,A,3327.923614,N,11740.023328,W,61.3,128.6,010710,,,A*47
$GPRMC,150713.2,A,3327.890980,N,11739.975767,W,62.1,128.9,010710,,,A*4A
$GPRMC,150716.2,A,3327.857080,N,11739.928137,W,62.8,129.3,010710,,,A*44
$GPRMC,150719.2,A,3327.824387,N,11739.879669,W,63.1,129.5,010710,,,A*4C
$GPRMC,150722.2,A,3327.790762,N,11739.830723,W,64.1,128.4,010710,,,A*4E
$GPRMC,150725.2,A,3327.756119,N,11739.780574,W,65.4,129.0,010710,,,A*4C
$GPRMC,150728.2,A,3327.723560,N,11739.728496,W,66.6,128.6,010710,,,A*40
$GPRMC,150731.2,A,3327.687452,N,11739.676525,W,67.1,129.0,010710,,,A*45
$GPRMC,150734.2,A,3327.653064,N,11739.622563,W,65.6,124.1,010710,,,A*42
$GPRMC,150737.2,A,3327.626687,N,11739.567132,W,63.5,117.8,010710,,,A*46
$GPRMC,150740.2,A,3327.602693,N,11739.509756,W,64.0,116.5,010710,,,A*47
$GPRMC,150743.2,A,3327.577770,N,11739.451294,W,65.3,117.9,010710,,,A*41
$GPRMC,150746.2,A,3327.548685,N,11739.394742,W,66.4,122.6,010710,,,A*4E
$GPRMC,150749.2,A,3327.515675,N,11739.340043,W,68.1,125.1,010710,,,A*42
$GPRMC,150752.2,A,3327.482363,N,11739.285871,W,67.9,125.7,010710,,,A*45
$GPRMC,150755.2,A,3327.450390,N,11739.230604,W,68.2,125.2,010710,,,A*42
$GPRMC,150758.2,A,3327.417292,N,11739.175118,W,68.0,124.4,010710,,,A*42
$GPRMC,150801.2,A,3327.386710,N,11739.117496,W,68.6,121.8,010710,,,A*49
$GPRMC,150804.2,A,3327.358380,N,11739.057227,W,70.2,118.8,010710,,,A*4C
$GPRMC,150807.2,A,3327.330952,N,11738.995484,W,71.1,117.5,010710,,,A*4D
$GPRMC,150810.2,A,3327.302613,N,11738.931312,W,72.0,117.5,010710,,,A*44
$GPRMC,150813.2,A,3327.274567,N,11738.867141,W,70.8,117.4,010710,,,A*4A
$GPRMC,150816.2,A,3327.248008,N,11738.804657,W,69.3,117.1,010710,,,A*4F
$GPRMC,150819.2,A,3327.221917,N,11738.744376,W,68.9,117.6,010710,,,A*49
$GPRMC,150822.2,A,3327.194829,N,11738.684409,W,67.9,119.1,010710,,,A*44
$GPRMC,150825.2,A,3327.165386,N,11738.625920,W,67.6,121.8,010710,,,A*43
$GPRMC,150828.2,A,3327.134950,N,11738.570593,W,67.0,124.0,010710,,,A*47
$GPRMC,150831.2,A,3327.101785,N,11738.516128,W,66.7,126.4,010710,,,A*4B
$GPRMC,150834.2,A,3327.067464,N,11738.464707,W,66.1,128.5,010710,,,A*45
$GPRMC,150837.2,A,3327.032863,N,11738.416546,W,63.7,130.3,010710,,,A*43
$GPRMC,150840.2,A,3326.999652,N,11738.371081,W,59.6,130.5,010710,,,A*40
$GPRMC,150843.2,A,3326.968497,N,11738.327418,W,57.7,130.1,010710,,,A*4A
$GPRMC,150846.2,A,3326.936171,N,11738.284209,W,58.6,130.2,010710,,,A*4A
$GPRMC,150849.2,A,3326.904931,N,11738.237627,W,60.8,126.0,010710,,,A*48
$GPRMC,150852.2,A,3326.878406,N,11738.185406,W,62.4,122.2,010710,,,A*42
$GPRMC,150855.2,A,3326.849642,N,11738.131220,W,64.9,121.8,010710,,,A*4A
$GPRMC,150858.2,A,3326.820976,N,11738.074691,W,66.4,121.0,010710,,,A*49
$GPRMC,150901.2,A,3326.792278,N,11738.017854,W,67.2,121.3,010710,,,A*41
$GPRMC,150904.2,A,3326.762968,N,11737.960925,W,65.9,122.2,010710,,,A*4B
$GPRMC,150907.2,A,3326.732013,N,11737.907986,W,64.3,126.2,010710,,,A*4F
$GPRMC,150910.2,A,3326.697017,N,11737.859517,W,63.6,131.6,010710,,,A*4D
$GPRMC,150913.2,A,3326.660508,N,11737.815436,W,62.0,134.7,010710,,,A*44
$GPRMC,150916.2,A,3326.623821,N,11737.773073,W,61.5,135.2,010710,,,A*48
$GPRMC,150919.2,A,3326.588307,N,11737.728974,W,61.8,134.7,010710,,,A*43
$GPRMC,150922.2,A,3326.551633,N,11737.685610,W,61.8,135.2,010710,,,A*42
$GPRMC,150925.2,A,3326.515185,N,11737.641858,W,62.4,134.6,010710,,,A*4F
$GPRMC,150928.2,A,3326.479148,N,11737.596180,W,63.8,132.9,010710,,,A*49
$GPRMC,150931.2,A,3326.445174,N,11737.546334,W,64.0,128.1,010710,,,A*4D
$GPRMC,150934.2,A,3326.414253,N,11737.491425,W,66.0,124.7,010710,,,A*4E
$GPRMC,150937.2,A,3326.383051,N,11737.437450,W,66.3,123.7,010710,,,A*4E
$GPRMC,150940.2,A,3326.351645,N,11737.382679,W,66.9,123.4,010710,,,A*4B
$GPRMC,150943.2,A,3326.321928,N,11737.326872,W,66.4,123.4,010710,,,A*4D
$GPRMC,150946.2,A,3326.291547,N,11737.271910,W,65.2,123.6,010710,,,A*46
$GPRMC,150949.2,A,3326.260885,N,11737.218324,W,64.7,124.4,010710,,,A*47
$GPRMC,150952.2,A,3326.227770,N,11737.168552,W,62.3,129.7,010710,,,A*44
$GPRMC,150955.2,A,3326.191704,N,11737.124875,W,61.0,135.4,010710,,,A*40
$GPRMC,150958.2,A,3326.153109,N,11737.085536,W,59.4,140.3,010710,,,A*42
$GPRMC,151001.2,A,3326.110691,N,11737.051486,W,60.5,146.3,010710,,,A*49
$GPRMC,151004.2,A,3326.066919,N,11737.021078,W,59.6,148.8,010710,,,A*4D
$GPRMC,151007.2,A,3326.024362,N,11736.993201,W,57.7,149.7,010710,,,A*42
$GPRMC,151010.2,A,3325.983368,N,11736.963922,W,56.7,149.6,010710,,,A*4C
$GPRMC,151013.2,A,3325.943125,N,11736.933762,W,56.9,147.7,010710,,,A*46
$GPRMC,151016.2,A,3325.903114,N,11736.903921,W,56.6,143.2,010710,,,A*41
$GPRMC,151019.2,A,3325.864072,N,11736.868583,W,57.2,138.6,010710,,,A*4A
$GPRMC,151022.2,A,3325.828695,N,11736.830566,W,58.0,135.1,010710,,,A*44
$GPRMC,151025.2,A,3325.794316,N,11736.787802,W,59.7,133.9,010710,,,A*41
$GPRMC,151028.2,A,3325.757492,N,11736.745305,W,61.1,136.7,010710,,,A*4C
$GPRMC,151031.2,A,3325.716190,N,11736.704790,W,64.2,141.5,010710,,,A*4F
$GPRMC,151034.2,A,3325.671591,N,11736.667169,W,65.1,145.8,010710,,,A*40
$GPRMC,151037.2,A,3325.624155,N,11736.632466,W,65.7,149.2,010710,,,A*45
$GPRMC,151040.2,A,3325.578227,N,11736.600321,W,64.7,149.9,010710,,,A*46
$GPRMC,151043.2,A,3325.531282,N,11736.567828,W,65.5,150.1,010710,,,A*44
$GPRMC,151046.2,A,3325.484498,N,11736.534609,W,65.2,150.0,010710,,,A*4E
$GPRMC,151049.2,A,3325.433791,N,11736.506355,W,65.5,154.9,010710,,,A*40
$GPRMC,151052.2,A,3325.381892,N,11736.480318,W,66.9,157.1,010710,,,A*4A
$GPRMC,151055.2,A,3325.328261,N,11736.454980,W,67.1,156.4,010710,,,A*47
$GPRMC,151058.2,A,3325.279100,N,11736.424999,W,68.4,152.1,010710,,,A*4F
$GPRMC,151101.2,A,3325.228770,N,11736.389685,W,69.6,146.7,010710,,,A*45
$GPRMC,151104.2,A,3325.181726,N,11736.350047,W,70.0,144.4,010710,,,A*40
$GPRMC,151107.2,A,3325.133661,N,11736.310661,W,68.0,147.0,010710,,,A*40
$GPRMC,151110.2,A,3325.084337,N,11736.279017,W,65.9,153.9,010710,,,A*4C
$GPRMC,151113.2,A,3325.032717,N,11736.253835,W,67.2,156.9,010710,,,A*48
$GPRMC,151116.2,A,3324.977876,N,11736.228260,W,70.0,157.2,010710,,,A*44
$GPRMC,151119.2,A,3324.920581,N,11736.200905,W,72.7,157.0,010710,,,A*49
$GPRMC,151122.2,A,3324.862800,N,11736.173661,W,73.7,157.7,010710,,,A*4E
$GPRMC,151125.2,A,3324.807344,N,11736.146968,W,71.4,157.6,010710,,,A*41
$GPRMC,151128.2,A,3324.753683,N,11736.119881,W,69.4,157.5,010710,,,A*4A
$GPRMC,151131.2,A,3324.700288,N,11736.094086,W,68.5,157.3,010710,,,A*46
$GPRMC,151134.2,A,3324.647554,N,11736.067288,W,68.3,157.0,010710,,,A*42
$GPRMC,151137.2,A,3324.594414,N,11736.040454,W,68.4,157.0,010710,,,A*4C
$GPRMC,151140.2,A,3324.542238,N,11736.014922,W,67.2,157.8,010710,,,A*43
$GPRMC,151143.2,A,3324.491206,N,11735.989284,W,65.1,157.1,010710,,,A*43
$GPRMC,151146.2,A,3324.441184,N,11735.963818,W,65.3,157.5,010710,,,A*4F
$GPRMC,151149.2,A,3324.392446,N,11735.939308,W,63.8,157.8,010710,,,A*47
$GPRMC,151152.2,A,3324.343286,N,11735.914867,W,64.4,157.3,010710,,,A*46
$GPRMC,151155.2,A,3324.294390,N,11735.890425,W,63.3,158.0,010710,,,A*47
$GPRMC,151158.2,A,3324.246150,N,11735.866434,W,62.9,157.0,010710,,,A*46
$GPRMC,151201.2,A,3324.199800,N,11735.841864,W,62.1,156.1,010710,,,A*40
$GPRMC,151204.2,A,3324.152359,N,11735.816823,W,62.1,156.8,010710,,,A*4D
$GPRMC,151207.2,A,3324.102771,N,11735.793654,W,63.9,157.1,010710,,,A*48
$GPRMC,151210.2,A,3324.052935,N,11735.768133,W,66.0,157.4,010710,,,A*4F
$GPRMC,151213.2,A,3324.002228,N,11735.741110,W,66.9,156.9,010710,,,A*41
$GPRMC,151216.2,A,3323.950432,N,11735.714682,W,68.5,156.8,010710,,,A*4F
$GPRMC,151219.2,A,3323.896071,N,11735.688532,W,70.3,158.0,010710,,,A*4D
$GPRMC,151222.2,A,3323.843756,N,11735.661733,W,68.7,157.0,010710,,,A*49
$GPRMC,151225.2,A,3323.793029,N,11735.633966,W,66.8,154.7,010710,,,A*4F
$GPRMC,151228.2,A,3323.743994,N,11735.605010,W,65.3,152.8,010710,,,A*4C
$GPRMC,151231.2,A,3323.696393,N,11735.574601,W,65.2,152.0,010710,,,A*4A
$GPRMC,151234.2,A,3323.648131,N,11735.541694,W,66.1,150.4,010710,,,A*4A
$GPRMC,151237.2,A,3323.600211,N,11735.507075,W,67.7,148.9,010710,,,A*4C
$GPRMC,151240.2,A,3323.552898,N,11735.471046,W,68.3,147.7,010710,,,A*49
$GPRMC,151243.2,A,3323.504376,N,11735.434678,W,68.5,147.4,010710,,,A*4D
$GPRMC,151246.2,A,3323.457493,N,11735.397548,W,68.2,147.4,010710,,,A*4A
$GPRMC,151249.2,A,3323.410798,N,11735.359694,W,67.4,147.0,010710,,,A*43
$GPRMC,151252.2,A,3323.363792,N,11735.323756,W,66.7,147.1,010710,,,A*41
$GPRMC,151255.2,A,3323.318823,N,11735.284919,W,66.1,143.9,010710,,,A*4C
$GPRMC,151258.2,A,3323.277933,N,11735.242752,W,65.9,138.9,010710,,,A*45
$GPRMC,151301.2,A,3323.239021,N,11735.196978,W,65.5,135.1,010710,,,A*4D
$GPRMC,151304.2,A,3323.204794,N,11735.148233,W,64.7,130.1,010710,,,A*4E
$GPRMC,151307.2,A,3323.174437,N,11735.096517,W,65.0,125.1,010710,,,A*42
$GPRMC,151310.2,A,3323.147472,N,11735.042763,W,63.5,121.2,010710,,,A*49
$GPRMC,151313.2,A,3323.122830,N,11734.987423,W,63.5,117.5,010710,,,A*47
$GPRMC,151316.2,A,3323.099178,N,11734.928129,W,65.7,115.1,010710,,,A*4E
$GPRMC,151319.2,A,3323.077001,N,11734.868893,W,65.3,114.6,010710,,,A*41
$GPRMC,151322.2,A,3323.053193,N,11734.808979,W,66.0,115.0,010710,,,A*41
$GPRMC,151325.2,A,3323.030406,N,11734.750128,W,64.8,114.6,010710,,,A*49
$GPRMC,151328.2,A,3323.007783,N,11734.692740,W,63.5,114.9,010710,,,A*4C
$GPRMC,151331.2,A,3322.986279,N,11734.634806,W,63.4,114.6,010710,,,A*4A
$GPRMC,151334.2,A,3322.963457,N,11734.577351,W,62.9,114.8,010710,,,A*41
$GPRMC,151337.2,A,3322.941416,N,11734.521652,W,62.1,114.7,010710,,,A*45
$GPRMC,151340.2,A,3322.919709,N,11734.465014,W,62.1,114.9,010710,,,A*4E
$GPRMC,151343.2,A,3322.898585,N,11734.408303,W,63.2,114.8,010710,,,A*4E
$GPRMC,151346.2,A,3322.876704,N,11734.351927,W,61.7,114.7,010710,,,A*4F
$GPRMC,151349.2,A,3322.855454,N,11734.297148,W,60.8,114.7,010710,,,A*43
$GPRMC,151352.2,A,3322.833344,N,11734.241896,W,61.0,114.9,010710,,,A*49
$GPRMC,151355.2,A,3322.812528,N,11734.186739,W,61.0,114.1,010710,,,A*4B
$GPRMC,151358.2,A,3322.790920,N,11734.131413,W,61.1,114.5,010710,,,A*45
$GPRMC,151401.2,A,3322.769757,N,11734.075675,W,62.1,114.2,010710,,,A*41
$GPRMC,151404.2,A,3322.748189,N,11734.019269,W,62.7,114.5,010710,,,A*40
$GPRMC,151407.2,A,3322.722894,N,11733.964132,W,62.4,118.0,010710,,,A*49
$GPRMC,151410.2,A,3322.694866,N,11733.911605,W,62.2,124.3,010710,,,A*45
$GPRMC,151413.2,A,3322.662172,N,11733.863511,W,61.9,130.7,010710,,,A*48
$GPRMC,151416.2,A,3322.625523,N,11733.819850,W,61.5,135.9,010710,,,A*4C
$GPRMC,151419.2,A,3322.587838,N,11733.777502,W,62.5,135.9,010710,,,A*41
$GPRMC,151422.2,A,3322.547653,N,11733.733363,W,64.0,135.7,010710,,,A*4A
$GPRMC,151425.2,A,3322.511387,N,11733.686968,W,64.4,130.8,010710,,,A*42
$GPRMC,151428.2,A,3322.477738,N,11733.635702,W,65.5,125.4,010710,,,A*4C
$GPRMC,151431.2,A,3322.448796,N,11733.581116,W,65.1,122.9,010710,,,A*4D
$GPRMC,151434.2,A,3322.419853,N,11733.527222,W,64.6,122.9,010710,,,A*44
$GPRMC,151437.2,A,3322.391024,N,11733.473807,W,63.8,122.7,010710,,,A*42
$GPRMC,151440.2,A,3322.362205,N,11733.420756,W,64.0,123.2,010710,,,A*49
$GPRMC,151443.2,A,3322.333119,N,11733.367487,W,63.3,122.9,010710,,,A*45
$GPRMC,151446.2,A,3322.303918,N,11733.314600,W,63.1,122.9,010710,,,A*41
$GPRMC,151449.2,A,3322.275822,N,11733.262314,W,62.3,122.5,010710,,,A*49
$GPRMC,151452.2,A,3322.248537,N,11733.209433,W,63.0,122.4,010710,,,A*48
$GPRMC,151455.2,A,3322.219022,N,11733.156533,W,62.5,123.4,010710,,,A*47
$GPRMC,151458.2,A,3322.192182,N,11733.106330,W,60.5,123.5,010710,,,A*42
$GPRMC,151501.2,A,3322.164804,N,11733.056143,W,60.7,123.0,010710,,,A*44
$GPRMC,151504.2,A,3322.138334,N,11733.004624,W,61.1,123.1,010710,,,A*47
$GPRMC,151507.2,A,3322.110496,N,11732.953116,W,61.0,122.6,010710,,,A*4A
$GPRMC,151510.2,A,3322.082531,N,11732.902492,W,60.3,123.6,010710,,,A*44
$GPRMC,151513.2,A,3322.054901,N,11732.852365,W,59.6,123.8,010710,,,A*49
$GPRMC,151516.2,A,3322.025396,N,11732.804936,W,60.1,126.8,010710,,,A*49
$GPRMC,151519.2,A,3321.992659,N,11732.758638,W,61.1,129.1,010710,,,A*46
$GPRMC,151522.2,A,3321.960047,N,11732.710371,W,62.2,128.3,010710,,,A*4D
$GPRMC,151525.2,A,3321.927701,N,11732.660619,W,63.8,128.4,010710,,,A*4D
$GPRMC,151528.2,A,3321.893924,N,11732.611001,W,65.0,128.8,010710,,,A*4C
$GPRMC,151531.2,A,3321.858074,N,11732.561215,W,66.1,129.0,010710,,,A*47
$GPRMC,151534.2,A,3321.821686,N,11732.510085,W,66.6,129.4,010710,,,A*49
$GPRMC,151537.2,A,3321.785968,N,11732.458856,W,65.9,129.3,010710,,,A*44
$GPRMC,151540.2,A,3321.752075,N,11732.409102,W,63.9,129.8,010710,,,A*4A
$GPRMC,151543.2,A,3321.717989,N,11732.359688,W,64.2,129.6,010710,,,A*47
$GPRMC,151546.2,A,3321.683743,N,11732.310304,W,64.5,129.3,010710,,,A*48
$GPRMC,151549.2,A,3321.648538,N,11732.260028,W,65.6,129.8,010710,,,A*4C
$GPRMC,151552.2,A,3321.613811,N,11732.210114,W,65.5,129.4,010710,,,A*48
$GPRMC,151555.2,A,3321.580684,N,11732.160849,W,62.9,128.7,010710,,,A*48
$GPRMC,151558.2,A,3321.549633,N,11732.112535,W,61.3,128.8,010710,,,A*49
$GPRMC,151601.2,A,3321.517687,N,11732.066371,W,60.0,129.0,010710,,,A*4D
$GPRMC,151604.2,A,3321.487021,N,11732.019495,W,60.3,129.0,010710,,,A*4C
$GPRMC,151607.2,A,3321.453870,N,11731.974896,W,60.5,129.9,010710,,,A*4B
$GPRMC,151610.2,A,3321.420213,N,11731.928543,W,61.6,129.3,010710,,,A*42
$GPRMC,151613.2,A,3321.387039,N,11731.881106,W,63.1,128.9,010710,,,A*48
$GPRMC,151616.2,A,3321.352995,N,11731.831602,W,63.9,129.3,010710,,,A*41
$GPRMC,151619.2,A,3321.318701,N,11731.780769,W,65.3,129.4,010710,,,A*41
$GPRMC,151622.2,A,3321.285605,N,11731.731037,W,63.3,129.2,010710,,,A*4F
$GPRMC,151625.2,A,3321.253862,N,11731.683129,W,61.5,129.1,010710,,,A*4D
$GPRMC,151628.2,A,3321.221553,N,11731.634492,W,61.5,129.0,010710,,,A*42
$GPRMC,151631.2,A,3321.189211,N,11731.586928,W,62.0,129.5,010710,,,A*4F
$GPRMC,151634.2,A,3321.157417,N,11731.538155,W,63.3,128.6,010710,,,A*4E
$GPRMC,151637.2,A,3321.122817,N,11731.488031,W,66.0,128.9,010710,,,A*43
$GPRMC,151640.2,A,3321.087848,N,11731.436665,W,66.8,129.3,010710,,,A*46
$GPRMC,151643.2,A,3321.052430,N,11731.385677,W,67.2,129.4,010710,,,A*4E
$GPRMC,151646.2,A,3321.016239,N,11731.335173,W,66.3,130.0,010710,,,A*40
$GPRMC,151649.2,A,3320.979729,N,11731.284970,W,67.3,130.1,010710,,,A*4A
$GPRMC,151652.2,A,3320.942778,N,11731.233911,W,67.6,130.3,010710,,,A*40
$GPRMC,151655.2,A,3320.908403,N,11731.182250,W,66.9,129.3,010710,,,A*47
$GPRMC,151658.2,A,3320.873267,N,11731.130337,W,67.4,128.7,010710,,,A*43
$GPRMC,151701.2,A,3320.837201,N,11731.077683,W,68.4,130.0,010710,,,A*47
$GPRMC,151704.2,A,3320.800117,N,11731.025366,W,69.1,131.0,010710,,,A*4E
$GPRMC,151707.2,A,3320.762831,N,11730.973576,W,68.6,130.8,010710,,,A*48
$GPRMC,151710.2,A,3320.726927,N,11730.921190,W,68.2,130.9,010710,,,A*46
$GPRMC,151713.2,A,3320.689637,N,11730.870737,W,67.5,130.9,010710,,,A*49
$GPRMC,151716.2,A,3320.653508,N,11730.819546,W,66.5,130.9,010710,,,A*4E
$GPRMC,151719.2,A,3320.616801,N,11730.769967,W,65.7,131.0,010710,,,A*4A
$GPRMC,151722.2,A,3320.580419,N,11730.722164,W,64.9,131.5,010710,,,A*45
$GPRMC,151725.2,A,3320.545815,N,11730.673613,W,64.6,130.7,010710,,,A*45
$GPRMC,151728.2,A,3320.510814,N,11730.625569,W,64.7,130.9,010710,,,A*4B
$GPRMC,151731.2,A,3320.474312,N,11730.576814,W,66.4,130.9,010710,,,A*4E
$GPRMC,151734.2,A,3320.437563,N,11730.526529,W,67.3,131.2,010710,,,A*46
$GPRMC,151737.2,A,3320.400857,N,11730.476507,W,67.4,130.8,010710,,,A*4F
$GPRMC,151740.2,A,3320.364481,N,11730.425822,W,67.6,130.8,010710,,,A*43
$GPRMC,151743.2,A,3320.326972,N,11730.375674,W,67.6,131.0,010710,,,A*41
$GPRMC,151746.2,A,3320.287950,N,11730.324538,W,69.0,131.4,010710,,,A*4D
$GPRMC,151749.2,A,3320.250022,N,11730.271886,W,69.6,131.6,010710,,,A*49
$GPRMC,151752.2,A,3320.209978,N,11730.219708,W,69.8,132.1,010710,,,A*44
$GPRMC,151755.2,A,3320.171506,N,11730.167882,W,69.8,131.5,010710,,,A*4A
$GPRMC,151758.2,A,3320.133835,N,11730.115933,W,69.2,131.2,010710,,,A*4F
$GPRMC,151801.2,A,3320.096426,N,11730.064160,W,67.8,131.4,010710,,,A*47
$GPRMC,151804.2,A,3320.059990,N,11730.014039,W,66.4,131.3,010710,,,A*41
$GPRMC,151807.2,A,3320.023436,N,11729.963764,W,66.2,131.1,010710,,,A*44
$GPRMC,151810.2,A,3319.988791,N,11729.914999,W,64.3,130.9,010710,,,A*48
$GPRMC,151813.2,A,3319.952995,N,11729.866953,W,64.6,131.5,010710,,,A*4C
$GPRMC,151816.2,A,3319.916406,N,11729.817558,W,65.5,131.4,010710,,,A*4C
$GPRMC,151819.2,A,3319.880985,N,11729.767556,W,65.6,131.0,010710,,,A*4A
$GPRMC,151822.2,A,3319.845388,N,11729.719008,W,65.6,131.1,010710,,,A*4A
$GPRMC,151825.2,A,3319.810942,N,11729.669829,W,65.3,130.8,010710,,,A*41
$GPRMC,151828.2,A,3319.774458,N,11729.620287,W,65.8,131.1,010710,,,A*47
$GPRMC,151831.2,A,3319.738528,N,11729.570885,W,65.4,131.0,010710,,,A*42
$GPRMC,151834.2,A,3319.701760,N,11729.521894,W,65.1,131.1,010710,,,A*43
$GPRMC,151837.2,A,3319.666450,N,11729.472595,W,65.1,130.9,010710,,,A*42
$GPRMC,151840.2,A,3319.630516,N,11729.423817,W,64.9,131.3,010710,,,A*43
$GPRMC,151843.2,A,3319.594715,N,11729.374857,W,65.5,130.9,010710,,,A*4B
$GPRMC,151846.2,A,3319.558663,N,11729.324568,W,66.5,130.7,010710,,,A*47
$GPRMC,151849.2,A,3319.522266,N,11729.275497,W,66.2,131.1,010710,,,A*40
$GPRMC,151852.2,A,3319.487120,N,11729.226413,W,65.6,131.1,010710,,,A*48
$GPRMC,151855.2,A,3319.452023,N,11729.177312,W,63.7,130.6,010710,,,A*45
$GPRMC,151858.2,A,3319.417170,N,11729.129827,W,63.7,131.3,010710,,,A*4C
$GPRMC,151901.2,A,3319.381866,N,11729.084136,W,62.5,135.5,010710,,,A*49
$GPRMC,151904.2,A,3319.341952,N,11729.045739,W,60.3,141.4,010710,,,A*44
$GPRMC,151907.2,A,3319.300907,N,11729.013198,W,58.8,147.2,010710,,,A*4C
$GPRMC,151910.2,A,3319.257624,N,11728.986995,W,58.1,153.7,010710,,,A*4F
$GPRMC,151913.2,A,3319.210659,N,11728.967103,W,58.4,160.5,010710,,,A*4A
$GPRMC,151916.2,A,3319.162342,N,11728.954305,W,58.8,167.9,010710,,,A*45
$GPRMC,151919.2,A,3319.109923,N,11728.948320,W,62.0,175.0,010710,,,A*4B
$GPRMC,151922.2,A,3319.055746,N,11728.943998,W,64.6,175.2,010710,,,A*46
$GPRMC,151925.2,A,3319.000448,N,11728.938858,W,65.3,175.1,010710,,,A*4A
$GPRMC,151928.2,A,3318.944196,N,11728.932991,W,67.2,175.0,010710,,,A*45
$GPRMC,151931.2,A,3318.888505,N,11728.924781,W,67.8,171.5,010710,,,A*41
$GPRMC,151934.2,A,3318.833520,N,11728.908761,W,68.9,163.5,010710,,,A*4E
$GPRMC,151937.2,A,3318.781455,N,11728.883074,W,68.2,155.5,010710,,,A*47
$GPRMC,151940.2,A,3318.731621,N,11728.849842,W,68.8,149.1,010710,,,A*45
$GPRMC,151943.2,A,3318.689193,N,11728.807511,W,67.2,140.5,010710,,,A*43
$GPRMC,151946.2,A,3318.649292,N,11728.761951,W,65.2,136.0,010710,,,A*49
$GPRMC,151949.2,A,3318.611806,N,11728.717998,W,64.8,134.9,010710,,,A*48
$GPRMC,151952.2,A,3318.574526,N,11728.669921,W,66.1,134.0,010710,,,A*45
$GPRMC,151955.2,A,3318.535308,N,11728.621646,W,67.7,134.4,010710,,,A*4C
$GPRMC,151958.2,A,3318.496871,N,11728.571514,W,67.8,133.9,010710,,,A*4B
$GPRMC,152001.2,A,3318.457629,N,11728.524223,W,66.8,134.6,010710,,,A*49
$GPRMC,152004.2,A,3318.418360,N,11728.476468,W,67.2,134.5,010710,,,A*48
$GPRMC,152007.2,A,3318.378096,N,11728.429253,W,68.3,134.7,010710,,,A*48
$GPRMC,152010.2,A,3318.337904,N,11728.380378,W,69.3,134.8,010710,,,A*45
$GPRMC,152013.2,A,3318.298034,N,11728.332576,W,68.5,134.4,010710,,,A*42
$GPRMC,152016.2,A,3318.257693,N,11728.283758,W,69.1,134.6,010710,,,A*4D
$GPRMC,152019.2,A,3318.216027,N,11728.236244,W,69.6,135.9,010710,,,A*41
$GPRMC,152022.2,A,3318.175102,N,11728.187985,W,68.9,134.7,010710,,,A*47
$GPRMC,152025.2,A,3318.135906,N,11728.138435,W,68.5,134.5,010710,,,A*44
$GPRMC,152028.2,A,3318.095223,N,11728.089866,W,68.7,134.9,010710,,,A*41
$GPRMC,152031.2,A,3318.054805,N,11728.042312,W,68.3,135.3,010710,,,A*4A
$GPRMC,152034.2,A,3318.015086,N,11727.994940,W,67.1,134.5,010710,,,A*43
$GPRMC,152037.2,A,3317.975345,N,11727.948389,W,67.2,134.5,010710,,,A*41
$GPRMC,152040.2,A,3317.936127,N,11727.900912,W,67.9,134.7,010710,,,A*4D
$GPRMC,152043.2,A,3317.897386,N,11727.852541,W,68.4,134.5,010710,,,A*41
$GPRMC,152046.2,A,3317.856081,N,11727.803266,W,69.5,134.8,010710,,,A*46
$GPRMC,152049.2,A,3317.816558,N,11727.753910,W,69.1,134.5,010710,,,A*45
$GPRMC,152052.2,A,3317.776399,N,11727.706192,W,68.1,134.8,010710,,,A*43
$GPRMC,152055.2,A,3317.736097,N,11727.658829,W,66.5,134.5,010710,,,A*49
$GPRMC,152058.2,A,3317.696991,N,11727.611345,W,66.6,133.6,010710,,,A*4B
$GPRMC,152101.2,A,3317.657425,N,11727.564924,W,66.2,135.6,010710,,,A*47
$GPRMC,152104.2,A,3317.614793,N,11727.523666,W,65.0,141.8,010710,,,A*4D
$GPRMC,152107.2,A,3317.569593,N,11727.488265,W,65.1,146.2,010710,,,A*4E
$GPRMC,152110.2,A,3317.523806,N,11727.452548,W,65.7,146.7,010710,,,A*4B
$GPRMC,152113.2,A,3317.477604,N,11727.415211,W,66.4,146.0,010710,,,A*4B
$GPRMC,152116.2,A,3317.431708,N,11727.378688,W,66.7,145.9,010710,,,A*40
$GPRMC,152119.2,A,3317.384406,N,11727.341682,W,67.8,146.6,010710,,,A*49
$GPRMC,152122.2,A,3317.337516,N,11727.303689,W,68.2,146.6,010710,,,A*41
$GPRMC,152125.2,A,3317.289812,N,11727.266892,W,67.5,147.5,010710,,,A*47
$GPRMC,152128.2,A,3317.243989,N,11727.230582,W,66.8,147.3,010710,,,A*4A
$GPRMC,152131.2,A,3317.197445,N,11727.195453,W,65.1,147.6,010710,,,A*4B
$GPRMC,152134.2,A,3317.152877,N,11727.160548,W,64.0,147.2,010710,,,A*4F
$GPRMC,152137.2,A,3317.106155,N,11727.125965,W,64.8,146.7,010710,,,A*4A
$GPRMC,152140.2,A,3317.059821,N,11727.090624,W,66.5,147.1,010710,,,A*46
$GPRMC,152143.2,A,3317.011849,N,11727.053752,W,68.0,146.5,010710,,,A*46
$GPRMC,152146.2,A,3316.961787,N,11727.015053,W,70.7,147.4,010710,,,A*4B
$GPRMC,152149.2,A,3316.910424,N,11726.977497,W,72.7,147.6,010710,,,A*48
$GPRMC,152152.2,A,3316.857589,N,11726.938706,W,74.1,147.4,010710,,,A*44
$GPRMC,152155.2,A,3316.804467,N,11726.899721,W,74.7,147.9,010710,,,A*40
$GPRMC,152158.2,A,3316.751434,N,11726.860490,W,72.5,147.4,010710,,,A*42
$GPRMC,152201.2,A,3316.701617,N,11726.822273,W,70.1,147.0,010710,,,A*44
$GPRMC,152204.2,A,3316.653561,N,11726.784163,W,69.5,146.9,010710,,,A*40
$GPRMC,152207.2,A,3316.604607,N,11726.747180,W,69.0,147.3,010710,,,A*4E
$GPRMC,152210.2,A,3316.558147,N,11726.709430,W,68.0,146.8,010710,,,A*4E
$GPRMC,152213.2,A,3316.508282,N,11726.673991,W,68.3,147.9,010710,,,A*4B
$GPRMC,152216.2,A,3316.460195,N,11726.638078,W,68.6,147.9,010710,,,A*40
$GPRMC,152219.2,A,3316.413036,N,11726.601170,W,67.7,147.5,010710,,,A*42
$GPRMC,152222.2,A,3316.367185,N,11726.563113,W,67.4,143.5,010710,,,A*42
$GPRMC,152225.2,A,3316.324544,N,11726.518102,W,68.2,136.5,010710,,,A*4C
$GPRMC,152228.2,A,3316.285952,N,11726.468189,W,68.9,132.4,010710,,,A*4B
$GPRMC,152231.2,A,3316.247695,N,11726.417289,W,69.7,131.9,010710,,,A*43
$GPRMC,152234.2,A,3316.210570,N,11726.364449,W,69.5,131.1,010710,,,A*4F
$GPRMC,152237.2,A,3316.172548,N,11726.312811,W,69.5,131.0,010710,,,A*41
$GPRMC,152240.2,A,3316.132867,N,11726.261216,W,69.7,131.7,010710,,,A*48
$GPRMC,152243.2,A,3316.093603,N,11726.209752,W,69.2,132.1,010710,,,A*46
$GPRMC,152246.2,A,3316.056804,N,11726.160156,W,66.9,130.9,010710,,,A*43
$GPRMC,152249.2,A,3316.019866,N,11726.109194,W,67.2,131.4,010710,,,A*44
$GPRMC,152252.2,A,3315.983021,N,11726.059594,W,66.2,131.0,010710,,,A*49
$GPRMC,152255.2,A,3315.947716,N,11726.010468,W,66.1,131.1,010710,,,A*48
$GPRMC,152258.2,A,3315.912718,N,11725.962371,W,65.0,131.8,010710,,,A*40
$GPRMC,152301.2,A,3315.874885,N,11725.915426,W,64.1,135.5,010710,,,A*4B
$GPRMC,152304.2,A,3315.835344,N,11725.874337,W,63.7,141.1,010710,,,A*4A
$GPRMC,152307.2,A,3315.789718,N,11725.837538,W,65.4,145.5,010710,,,A*47
$GPRMC,152310.2,A,3315.742929,N,11725.801625,W,66.5,146.0,010710,,,A*44
$GPRMC,152313.2,A,3315.696337,N,11725.764166,W,67.5,146.1,010710,,,A*46
$GPRMC,152316.2,A,3315.648435,N,11725.726539,W,68.3,146.3,010710,,,A*46
$GPRMC,152319.2,A,3315.601209,N,11725.687844,W,68.8,146.4,010710,,,A*4C
$GPRMC,152322.2,A,3315.553303,N,11725.649702,W,69.3,146.1,010710,,,A*4B
$GPRMC,152325.2,A,3315.506915,N,11725.611231,W,68.7,146.4,010710,,,A*49
$GPRMC,152328.2,A,3315.459313,N,11725.573741,W,68.6,146.8,010710,,,A*4B
$GPRMC,152331.2,A,3315.412341,N,11725.537031,W,68.7,147.5,010710,,,A*46
$GPRMC,152334.2,A,3315.365096,N,11725.500012,W,68.2,146.7,010710,,,A*4E
$GPRMC,152337.2,A,3315.315767,N,11725.464614,W,67.9,147.6,010710,,,A*44
$GPRMC,152340.2,A,3315.268408,N,11725.428019,W,67.1,147.3,010710,,,A*4B
$GPRMC,152343.2,A,3315.221712,N,11725.390605,W,66.8,146.4,010710,,,A*4C
$GPRMC,152346.2,A,3315.174046,N,11725.354115,W,66.6,146.4,010710,,,A*4C
$GPRMC,152349.2,A,3315.129822,N,11725.317847,W,65.5,146.4,010710,,,A*48
$GPRMC,152352.2,A,3315.084089,N,11725.281926,W,65.5,146.4,010710,,,A*45
$GPRMC,152355.2,A,3315.038825,N,11725.246884,W,64.1,146.5,010710,,,A*4D
$GPRMC,152358.2,A,3314.994252,N,11725.211577,W,64.2,145.8,010710,,,A*4A
$GPRMC,152401.2,A,3314.950192,N,11725.174485,W,64.7,146.0,010710,,,A*44
$GPRMC,152404.2,A,3314.906404,N,11725.138918,W,64.7,146.3,010710,,,A*4A
$GPRMC,152407.2,A,3314.858945,N,11725.104702,W,65.8,150.0,010710,,,A*4B
$GPRMC,152410.2,A,3314.805863,N,11725.079234,W,65.4,156.8,010710,,,A*49
$GPRMC,152413.2,A,3314.751499,N,11725.055676,W,67.7,158.5,010710,,,A*43
$GPRMC,152416.2,A,3314.695681,N,11725.031476,W,69.6,159.4,010710,,,A*4B
$GPRMC,152419.2,A,3314.641926,N,11725.006883,W,68.8,158.8,010710,,,A*4F
$GPRMC,152422.2,A,3314.590267,N,11724.980623,W,67.5,156.9,010710,,,A*49
$GPRMC,152425.2,A,3314.541541,N,11724.949942,W,67.5,151.5,010710,,,A*47
$GPRMC,152428.2,A,3314.494741,N,11724.913236,W,67.3,144.1,010710,,,A*40
$GPRMC,152431.2,A,3314.453240,N,11724.868460,W,68.4,137.1,010710,,,A*43
$GPRMC,152434.2,A,3314.418075,N,11724.816756,W,68.0,129.2,010710,,,A*4A
$GPRMC,152437.2,A,3314.384497,N,11724.762260,W,67.7,126.0,010710,,,A*4A
$GPRMC,152440.2,A,3314.351783,N,11724.706762,W,66.8,125.1,010710,,,A*4D
$GPRMC,152443.2,A,3314.319884,N,11724.651965,W,66.5,125.0,010710,,,A*4C
$GPRMC,152446.2,A,3314.288285,N,11724.599184,W,66.1,126.0,010710,,,A*4C
$GPRMC,152449.2,A,3314.254131,N,11724.549611,W,65.0,131.0,010710,,,A*4C
$GPRMC,152452.2,A,3314.215184,N,11724.504132,W,64.5,136.0,010710,,,A*41
$GPRMC,152455.2,A,3314.175237,N,11724.460522,W,64.7,136.5,010710,,,A*49
$GPRMC,152458.2,A,3314.136102,N,11724.416633,W,64.8,136.4,010710,,,A*4A
$GPRMC,152501.2,A,3314.095805,N,11724.372830,W,64.9,137.4,010710,,,A*49
$GPRMC,152504.2,A,3314.055569,N,11724.329384,W,64.4,137.6,010710,,,A*42
$GPRMC,152507.2,A,3314.016629,N,11724.287014,W,62.4,136.7,010710,,,A*48
$GPRMC,152510.2,A,3313.978743,N,11724.244766,W,61.4,136.2,010710,,,A*4E
$GPRMC,152513.2,A,3313.941091,N,11724.203549,W,61.9,136.6,010710,,,A*4A
$GPRMC,152516.2,A,3313.903831,N,11724.162513,W,61.4,136.0,010710,,,A*4B
$GPRMC,152519.2,A,3313.867881,N,11724.120054,W,61.1,135.5,010710,,,A*4F
$GPRMC,152522.2,A,3313.830660,N,11724.078379,W,61.7,137.0,010710,,,A*45
$GPRMC,152525.2,A,3313.792899,N,11724.034918,W,62.8,136.4,010710,,,A*41
$GPRMC,152528.2,A,3313.755133,N,11723.992281,W,61.9,136.5,010710,,,A*44
$GPRMC,152531.2,A,3313.717002,N,11723.949389,W,62.2,137.1,010710,,,A*4B
$GPRMC,152534.2,A,3313.680217,N,11723.908148,W,61.6,137.3,010710,,,A*48
$GPRMC,152537.2,A,3313.642041,N,11723.867523,W,61.0,137.4,010710,,,A*44
$GPRMC,152540.2,A,3313.605361,N,11723.826504,W,60.5,137.2,010710,,,A*44
$GPRMC,152543.2,A,3313.569547,N,11723.784949,W,60.4,136.9,010710,,,A*45
$GPRMC,152546.2,A,3313.532092,N,11723.744573,W,60.4,137.2,010710,,,A*40
$GPRMC,152549.2,A,3313.494785,N,11723.703024,W,60.4,136.9,010710,,,A*4D
$GPRMC,152552.2,A,3313.457917,N,11723.662157,W,60.4,136.3,010710,,,A*44
$GPRMC,152555.2,A,3313.421019,N,11723.621131,W,59.4,137.7,010710,,,A*4D
$GPRMC,152558.2,A,3313.382042,N,11723.582592,W,59.2,141.7,010710,,,A*40
$GPRMC,152601.2,A,3313.340435,N,11723.550789,W,59.2,148.3,010710,,,A*4F
$GPRMC,152604.2,A,3313.292478,N,11723.524532,W,61.9,156.2,010710,,,A*42
$GPRMC,152607.2,A,3313.242180,N,11723.505736,W,63.1,163.3,010710,,,A*46
$GPRMC,152610.2,A,3313.190670,N,11723.490727,W,62.9,165.5,010710,,,A*40
$GPRMC,152613.2,A,3313.139900,N,11723.474847,W,63.0,165.6,010710,,,A*40
$GPRMC,152616.2,A,3313.086784,N,11723.461137,W,63.9,166.1,010710,,,A*45
$GPRMC,152619.2,A,3313.032926,N,11723.446201,W,64.4,166.0,010710,,,A*4B
$GPRMC,152622.2,A,3312.980884,N,11723.431397,W,64.7,165.7,010710,,,A*42
$GPRMC,152625.2,A,3312.929558,N,11723.414201,W,63.7,164.2,010710,,,A*40
$GPRMC,152628.2,A,3312.877751,N,11723.395482,W,64.2,163.1,010710,,,A*49
$GPRMC,152631.2,A,3312.829632,N,11723.370454,W,64.5,155.6,010710,,,A*4B
$GPRMC,152634.2,A,3312.782883,N,11723.341187,W,63.9,152.3,010710,,,A*44
$GPRMC,152637.2,A,3312.734162,N,11723.311505,W,65.9,152.3,010710,,,A*41
$GPRMC,152640.2,A,3312.686056,N,11723.280198,W,66.3,151.6,010710,,,A*49
$GPRMC,152643.2,A,3312.636992,N,11723.249709,W,67.3,151.7,010710,,,A*4B
$GPRMC,152646.2,A,3312.585642,N,11723.217652,W,68.7,152.3,010710,,,A*4F
$GPRMC,152649.2,A,3312.535914,N,11723.185695,W,68.2,152.1,010710,,,A*43
$GPRMC,152652.2,A,3312.485983,N,11723.153903,W,68.2,152.3,010710,,,A*44
$GPRMC,152655.2,A,3312.435866,N,11723.122404,W,68.4,152.4,010710,,,A*4F
$GPRMC,152658.2,A,3312.387721,N,11723.091730,W,65.8,151.4,010710,,,A*4F
$GPRMC,152701.2,A,3312.341794,N,11723.056691,W,65.6,147.1,010710,,,A*4B
$GPRMC,152704.2,A,3312.299607,N,11723.016615,W,64.9,140.5,010710,,,A*44
$GPRMC,152707.2,A,3312.262256,N,11722.971882,W,64.4,135.1,010710,,,A*41
$GPRMC,152710.2,A,3312.228388,N,11722.922631,W,63.4,127.9,010710,,,A*47
$GPRMC,152713.2,A,3312.200028,N,11722.872100,W,61.8,122.3,010710,,,A*47
$GPRMC,152716.2,A,3312.176593,N,11722.818857,W,61.7,117.6,010710,,,A*4E
$GPRMC,152719.2,A,3312.159811,N,11722.764672,W,59.7,112.4,010710,,,A*4A
$GPRMC,152722.2,A,3312.142420,N,11722.710244,W,59.5,111.8,010710,,,A*49
$GPRMC,152725.2,A,3312.125288,N,11722.655372,W,58.8,111.7,010710,,,A*4C
$GPRMC,152728.2,A,3312.105932,N,11722.601221,W,59.2,112.1,010710,,,A*41
$GPRMC,152731.2,A,3312.087617,N,11722.545503,W,60.4,111.9,010710,,,A*49
$GPRMC,152734.2,A,3312.068633,N,11722.488931,W,61.1,112.3,010710,,,A*4B
$GPRMC,152737.2,A,3312.049359,N,11722.432128,W,61.7,111.7,010710,,,A*42
$GPRMC,152740.2,A,3312.030213,N,11722.374755,W,61.7,112.1,010710,,,A*4F
$GPRMC,152743.2,A,3312.010417,N,11722.318859,W,61.6,114.2,010710,,,A*41
$GPRMC,152746.2,A,3311.984725,N,11722.265919,W,62.2,120.4,010710,,,A*49
$GPRMC,152749.2,A,3311.954939,N,11722.214912,W,61.6,126.1,010710,,,A*41
$GPRMC,152752.2,A,3311.918314,N,11722.168601,W,62.6,133.5,010710,,,A*40
$GPRMC,152755.2,A,3311.879580,N,11722.126745,W,62.5,138.0,010710,,,A*4C
$GPRMC,152758.2,A,3311.838406,N,11722.087287,W,62.5,142.2,010710,,,A*45
$GPRMC,152801.2,A,3311.794451,N,11722.049221,W,65.2,143.6,010710,,,A*46
$GPRMC,152804.2,A,3311.749810,N,11722.009908,W,66.6,143.9,010710,,,A*46
$GPRMC,152807.2,A,3311.702513,N,11721.970613,W,67.7,145.0,010710,,,A*4A
$GPRMC,152810.2,A,3311.653441,N,11721.931658,W,70.1,145.6,010710,,,A*43
$GPRMC,152813.2,A,3311.603777,N,11721.893048,W,70.1,145.9,010710,,,A*42
$GPRMC,152816.2,A,3311.553910,N,11721.854658,W,69.4,145.7,010710,,,A*41
$GPRMC,152819.2,A,3311.504433,N,11721.817484,W,70.2,145.6,010710,,,A*4B
$GPRMC,152822.2,A,3311.455633,N,11721.778099,W,70.2,145.6,010710,,,A*4A
$GPRMC,152825.2,A,3311.406114,N,11721.739347,W,68.8,146.2,010710,,,A*48
$GPRMC,152828.2,A,3311.360922,N,11721.699097,W,68.1,145.4,010710,,,A*46
$GPRMC,152831.2,A,3311.314919,N,11721.660211,W,66.5,145.3,010710,,,A*42
$GPRMC,152834.2,A,3311.270119,N,11721.624185,W,64.1,145.4,010710,,,A*43
$GPRMC,152837.2,A,3311.226887,N,11721.588673,W,62.8,144.9,010710,,,A*45
$GPRMC,152840.2,A,3311.185459,N,11721.552677,W,61.7,143.7,010710,,,A*46
$GPRMC,152843.2,A,3311.143182,N,11721.516576,W,62.4,144.3,010710,,,A*4D
$GPRMC,152846.2,A,3311.100062,N,11721.480383,W,63.6,145.7,010710,,,A*44
$GPRMC,152849.2,A,3311.054803,N,11721.444474,W,64.0,145.0,010710,,,A*45
$GPRMC,152852.2,A,3311.012040,N,11721.406715,W,64.6,144.5,010710,,,A*42
$GPRMC,152855.2,A,3310.966611,N,11721.371317,W,65.4,145.4,010710,,,A*4E
$GPRMC,152858.2,A,3310.921778,N,11721.333908,W,66.4,145.1,010710,,,A*4A
$GPRMC,152901.2,A,3310.877484,N,11721.295992,W,65.3,145.3,010710,,,A*4D
$GPRMC,152904.2,A,3310.833251,N,11721.256752,W,66.3,144.3,010710,,,A*49
$GPRMC,152907.2,A,3310.787159,N,11721.218953,W,66.8,145.2,010710,,,A*4F
$GPRMC,152910.2,A,3310.740676,N,11721.181842,W,67.4,145.5,010710,,,A*40
$GPRMC,152913.2,A,3310.692684,N,11721.144730,W,68.9,145.6,010710,,,A*42
$GPRMC,152916.2,A,3310.645383,N,11721.105073,W,70.3,145.8,010710,,,A*47
$GPRMC,152919.2,A,3310.595868,N,11721.066072,W,71.1,146.7,010710,,,A*42
$GPRMC,152922.2,A,3310.544078,N,11721.029286,W,72.2,148.3,010710,,,A*47
$GPRMC,152925.2,A,3310.490397,N,11720.990927,W,73.4,147.8,010710,,,A*43
$GPRMC,152928.2,A,3310.440152,N,11720.953337,W,70.7,147.4,010710,,,A*40
$GPRMC,152931.2,A,3310.390760,N,11720.918021,W,68.6,147.7,010710,,,A*45
$GPRMC,152934.2,A,3310.346055,N,11720.881915,W,66.1,146.6,010710,,,A*4C
$GPRMC,152937.2,A,3310.300109,N,11720.846691,W,65.2,146.7,010710,,,A*4C
$GPRMC,152940.2,A,3310.255550,N,11720.809348,W,64.7,146.6,010710,,,A*4A
$GPRMC,152943.2,A,3310.210376,N,11720.775271,W,64.3,147.2,010710,,,A*44
$GPRMC,152946.2,A,3310.166062,N,11720.740555,W,63.7,147.7,010710,,,A*44
$GPRMC,152949.2,A,3310.119238,N,11720.708651,W,64.5,150.4,010710,,,A*45
$GPRMC,152952.2,A,3310.070023,N,11720.679888,W,64.2,153.7,010710,,,A*43
