NMEA Sentence Code,UTC Time,Status,Latitude,Latitude Direction,Longitude,Longitude Direction,Speed (knots),Track Angle (degrees true),Date,MagneticVariation,Magnetic Variation Direction,[FAA Mode]-Optional,Checksum
$GPRMC,202246.6,A,3347.633131,N,11729.928456,W,7.3,165.6,030310,,,A*75
$GPRMC,202249.6,A,3347.622602,N,11729.922861,W,11.1,155.7,030310,,,A*48
$GPRMC,202252.6,A,3347.602211,N,11729.910436,W,19.8,153.3,030310,,,A*4A
$GPRMC,202255.6,A,3347.570284,N,11729.882896,W,34.3,145.8,030310,,,A*43
$GPRMC,202258.6,A,3347.540186,N,11729.858116,W,38.1,146.1,030310,,,A*4E
$GPRMC,202301.6,A,3347.511507,N,11729.837120,W,38.8,147.1,030310,,,A*4E
$GPRMC,202304.6,A,3347.484514,N,11729.814447,W,39.6,146.3,030310,,,A*4D
$GPRMC,202307.6,A,3347.454896,N,11729.791940,W,40.5,146.6,030310,,,A*44
$GPRMC,202310.6,A,3347.426280,N,11729.766702,W,41.1,145.0,030310,,,A*4A
$GPRMC,202313.6,A,3347.396840,N,11729.741643,W,42.4,141.4,030310,,,A*44
$GPRMC,202316.6,A,3347.374885,N,11729.710984,W,42.9,129.2,030310,,,A*41
$GPRMC,202319.6,A,3347.355602,N,11729.674916,W,43.7,121.0,030310,,,A*41
$GPRMC,202323.6,A,3347.328017,N,11729.624434,W,43.9,125.8,030310,,,A*4A
$GPRMC,202326.6,A,3347.305647,N,11729.592516,W,40.9,132.3,030310,,,A*42
$GPRMC,202329.6,A,3347.282489,N,11729.566602,W,36.6,140.3,030310,,,A*45
$GPRMC,202332.6,A,3347.256569,N,11729.550448,W,34.3,153.3,030310,,,A*45
$GPRMC,202335.6,A,3347.220099,N,11729.531207,W,42.2,151.4,030310,,,A*46
$GPRMC,202338.6,A,3347.189461,N,11729.506630,W,44.9,145.7,030310,,,A*47
$GPRMC,202341.6,A,3347.156150,N,11729.478996,W,46.5,144.9,030310,,,A*46
$GPRMC,202344.6,A,3347.121347,N,11729.453524,W,46.7,146.5,030310,,,A*47
$GPRMC,202347.6,A,3347.090347,N,11729.429420,W,45.3,147.3,030310,,,A*47
$GPRMC,202350.6,A,3347.062421,N,11729.405156,W,43.7,145.8,030310,,,A*4A
$GPRMC,202353.6,A,3347.034628,N,11729.380049,W,42.0,145.5,030310,,,A*4F
$GPRMC,202356.6,A,3347.007447,N,11729.359472,W,36.3,149.7,030310,,,A*47
$GPRMC,202359.6,A,3346.985377,N,11729.346478,W,29.8,157.6,030310,,,A*41
$GPRMC,202402.6,A,3346.975087,N,11729.340428,W,19.2,159.9,030310,,,A*40
$GPRMC,202405.6,A,3346.968554,N,11729.332405,W,16.3,144.0,030310,,,A*41
$GPRMC,202408.6,A,3346.953074,N,11729.318179,W,23.1,141.9,030310,,,A*4D
$GPRMC,202411.6,A,3346.935009,N,11729.300501,W,28.2,144.4,030310,,,A*4D
$GPRMC,202414.6,A,3346.909709,N,11729.277143,W,36.3,143.4,030310,,,A*4A
$GPRMC,202417.6,A,3346.881645,N,11729.255017,W,40.2,146.6,030310,,,A*46
$GPRMC,202420.6,A,3346.850718,N,11729.232744,W,40.8,148.5,030310,,,A*40
$GPRMC,202423.6,A,3346.820404,N,11729.215275,W,39.1,157.0,030310,,,A*44
$GPRMC,202426.6,A,3346.790343,N,11729.201546,W,37.9,159.3,030310,,,A*48
$GPRMC,202429.6,A,3346.763169,N,11729.190156,W,35.7,161.1,030310,,,A*4A
$GPRMC,202432.6,A,3346.734540,N,11729.180016,W,36.1,166.0,030310,,,A*4A
$GPRMC,202435.6,A,3346.705528,N,11729.179124,W,36.5,179.6,030310,,,A*4B
$GPRMC,202438.6,A,3346.678060,N,11729.182472,W,34.0,183.6,030310,,,A*44
$GPRMC,202441.6,A,3346.669579,N,11729.197341,W,21.2,203.6,030310,,,A*49
$GPRMC,202445.6,A,3346.669031,N,11729.213969,W,8.5,272.5,030310,,,A*72
$GPRMC,202448.6,A,3346.684173,N,11729.229601,W,21.3,316.3,030310,,,A*4B
$GPRMC,202451.6,A,3346.707662,N,11729.250920,W,32.5,319.4,030310,,,A*40
$GPRMC,202454.6,A,3346.732055,N,11729.276581,W,40.6,318.1,030310,,,A*40
$GPRMC,202457.6,A,3346.761409,N,11729.303277,W,44.2,322.7,030310,,,A*4A
$GPRMC,202500.6,A,3346.795160,N,11729.329143,W,48.2,328.5,030310,,,A*40
$GPRMC,202503.6,A,3346.832757,N,11729.354116,W,51.9,331.0,030310,,,A*47
$GPRMC,202506.6,A,3346.873330,N,11729.380070,W,54.7,331.5,030310,,,A*44
$GPRMC,202509.6,A,3346.913387,N,11729.407620,W,55.1,331.6,030310,,,A*4F
$GPRMC,202512.6,A,3346.953130,N,11729.433900,W,54.9,331.7,030310,,,A*4D
$GPRMC,202515.6,A,3346.993897,N,11729.459732,W,55.6,331.5,030310,,,A*4D
$GPRMC,202518.6,A,3347.035484,N,11729.489650,W,58.2,328.6,030310,,,A*40
$GPRMC,202521.6,A,3347.078615,N,11729.521884,W,61.0,328.2,030310,,,A*41
$GPRMC,202524.6,A,3347.121818,N,11729.554985,W,62.4,327.6,030310,,,A*44
$GPRMC,202527.6,A,3347.166125,N,11729.588922,W,61.6,327.2,030310,,,A*4A
$GPRMC,202530.6,A,3347.208344,N,11729.621205,W,59.2,327.2,030310,,,A*43
$GPRMC,202533.6,A,3347.248932,N,11729.652805,W,58.6,327.6,030310,,,A*40
$GPRMC,202536.6,A,3347.290037,N,11729.684416,W,57.7,327.5,030310,,,A*44
$GPRMC,202539.6,A,3347.331731,N,11729.716559,W,57.9,327.0,030310,,,A*4B
$GPRMC,202542.6,A,3347.371498,N,11729.748886,W,58.4,326.2,030310,,,A*46
$GPRMC,202545.6,A,3347.414919,N,11729.781504,W,60.9,327.1,030310,,,A*47
$GPRMC,202548.6,A,3347.456933,N,11729.814729,W,61.2,326.9,030310,,,A*49
$GPRMC,202551.6,A,3347.499564,N,11729.848321,W,61.9,326.9,030310,,,A*42
$GPRMC,202554.6,A,3347.543058,N,11729.882175,W,62.1,326.9,030310,,,A*45
$GPRMC,202557.6,A,3347.586185,N,11729.915547,W,61.6,327.5,030310,,,A*4D
$GPRMC,202600.6,A,3347.629211,N,11729.947399,W,60.8,327.8,030310,,,A*44
