NMEA Sentence Code,UTC Time,Status,Latitude,Latitude Direction,Longitude,Longitude Direction,Speed (knots),Track Angle (degrees true),Date,MagneticVariation,Magnetic Variation Direction,[FAA Mode]-Optional,Checksum
$GPRMC,163130.803,A,3334.1644,N,11605.4732,W,29.30,268.74,010410,,,A*43
$GPRMC,163133.794,A,3334.1643,N,11605.5013,W,26.23,270.22,010410,,,A*44
$GPRMC,163136.784,A,3334.1644,N,11605.5231,W,16.17,273.51,010410,,,A*46
$GPRMC,163142.764,A,3334.1676,N,11605.5359,W,7.69,303.26,010410,,,A*7A
$GPRMC,163145.754,A,3334.1748,N,11605.5421,W,13.17,343.40,010410,,,A*42
$GPRMC,163148.744,A,3334.1876,N,11605.5428,W,18.27,0.86,010410,,,A*43
$GPRMC,163151.734,A,3334.2052,N,11605.5428,W,23.90,357.49,010410,,,A*47
$GPRMC,163154.724,A,3334.2266,N,11605.5443,W,27.76,355.86,010410,,,A*46
$GPRMC,163157.814,A,3334.2500,N,11605.5466,W,26.62,353.81,010410,,,A*4C
$GPRMC,163200.804,A,3334.2731,N,11605.5493,W,29.92,352.32,010410,,,A*4F
$GPRMC,163203.794,A,3334.2995,N,11605.5542,W,34.58,350.70,010410,,,A*49
$GPRMC,163206.784,A,3334.3296,N,11605.5606,W,38.96,348.42,010410,,,A*41
$GPRMC,163209.774,A,3334.3629,N,11605.5697,W,43.16,346.15,010410,,,A*41
$GPRMC,163212.764,A,3334.3990,N,11605.5812,W,46.46,344.29,010410,,,A*49
$GPRMC,163215.755,A,3334.4368,N,11605.5944,W,48.55,343.91,010410,,,A*4C
$GPRMC,163218.745,A,3334.4762,N,11605.6083,W,50.68,343.96,010410,,,A*4F
$GPRMC,163221.735,A,3334.5175,N,11605.6226,W,52.19,343.84,010410,,,A*49
$GPRMC,163224.725,A,3334.5596,N,11605.6372,W,53.34,343.83,010410,,,A*4D
$GPRMC,163227.815,A,3334.6027,N,11605.6524,W,51.47,343.82,010410,,,A*4C
$GPRMC,163230.805,A,3334.6437,N,11605.6665,W,51.08,343.86,010410,,,A*47
$GPRMC,163233.795,A,3334.6846,N,11605.6806,W,51.16,343.80,010410,,,A*4A
$GPRMC,163236.785,A,3334.7254,N,11605.6949,W,51.06,343.75,010410,,,A*47
$GPRMC,163239.775,A,3334.7663,N,11605.7085,W,51.09,344.48,010410,,,A*49
$GPRMC,163242.765,A,3334.8072,N,11605.7212,W,51.08,347.14,010410,,,A*4A
$GPRMC,163245.755,A,3334.8496,N,11605.7309,W,51.29,350.65,010410,,,A*48
$GPRMC,163248.745,A,3334.8920,N,11605.7382,W,51.47,353.21,010410,,,A*4C
$GPRMC,163251.735,A,3334.9347,N,11605.7427,W,51.50,356.36,010410,,,A*44
$GPRMC,163254.726,A,3334.9775,N,11605.7444,W,51.46,359.59,010410,,,A*42
$GPRMC,163257.815,A,3335.0216,N,11605.7445,W,51.48,0.24,010410,,,A*4C
$GPRMC,163300.805,A,3335.0643,N,11605.7443,W,51.42,0.13,010410,,,A*42
$GPRMC,163303.796,A,3335.1069,N,11605.7442,W,51.48,0.28,010410,,,A*48
$GPRMC,163306.786,A,3335.1498,N,11605.7439,W,51.45,0.36,010410,,,A*48
$GPRMC,163309.776,A,3335.1926,N,11605.7435,W,51.05,0.32,010410,,,A*4C
$GPRMC,163312.766,A,3335.2347,N,11605.7436,W,50.44,0.25,010410,,,A*48
$GPRMC,163315.756,A,3335.2767,N,11605.7435,W,50.53,0.19,010410,,,A*40
$GPRMC,163318.746,A,3335.3189,N,11605.7435,W,50.80,359.80,010410,,,A*4A
$GPRMC,163321.736,A,3335.3614,N,11605.7439,W,51.43,358.69,010410,,,A*40
$GPRMC,163324.726,A,3335.4046,N,11605.7461,W,52.02,355.84,010410,,,A*47
$GPRMC,163327.816,A,3335.4492,N,11605.7510,W,52.21,353.26,010410,,,A*4D
$GPRMC,163330.806,A,3335.4920,N,11605.7587,W,51.98,350.18,010410,,,A*4F
$GPRMC,163333.796,A,3335.5344,N,11605.7685,W,51.87,348.03,010410,,,A*4F
$GPRMC,163336.786,A,3335.5764,N,11605.7797,W,51.78,346.68,010410,,,A*4C
$GPRMC,163339.776,A,3335.6179,N,11605.7927,W,51.66,344.27,010410,,,A*46
$GPRMC,163342.767,A,3335.6592,N,11605.8078,W,51.72,342.23,010410,,,A*40
$GPRMC,163345.757,A,3335.6999,N,11605.8247,W,51.95,339.63,010410,,,A*4C
$GPRMC,163348.747,A,3335.7399,N,11605.8435,W,51.24,337.83,010410,,,A*42
$GPRMC,163351.737,A,3335.7771,N,11605.8632,W,45.85,335.27,010410,,,A*48
$GPRMC,163354.727,A,3335.8094,N,11605.8819,W,40.15,333.35,010410,,,A*41
$GPRMC,163357.817,A,3335.8381,N,11605.8998,W,35.36,331.82,010410,,,A*4C
$GPRMC,163400.807,A,3335.8616,N,11605.9154,W,29.41,330.81,010410,,,A*45
$GPRMC,163403.797,A,3335.8805,N,11605.9284,W,23.04,328.53,010410,,,A*4F
$GPRMC,163406.787,A,3335.8960,N,11605.9398,W,20.62,328.02,010410,,,A*42
$GPRMC,163409.777,A,3335.9104,N,11605.9511,W,21.93,327.29,010410,,,A*47
$GPRMC,163412.767,A,3335.9270,N,11605.9642,W,26.30,326.17,010410,,,A*4B
$GPRMC,163415.757,A,3335.9475,N,11605.9812,W,33.64,324.44,010410,,,A*46
$GPRMC,163418.747,A,3335.9721,N,11606.0022,W,38.78,324.32,010410,,,A*4E
$GPRMC,163421.738,A,3335.9999,N,11606.0271,W,44.20,322.25,010410,,,A*43
$GPRMC,163424.728,A,3336.0299,N,11606.0551,W,47.34,320.17,010410,,,A*46
$GPRMC,163427.817,A,3336.0614,N,11606.0889,W,50.55,316.80,010410,,,A*45
$GPRMC,163430.807,A,3336.0920,N,11606.1248,W,52.45,314.25,010410,,,A*42
$GPRMC,163433.798,A,3336.1216,N,11606.1623,W,51.08,312.25,010410,,,A*42
$GPRMC,163436.788,A,3336.1497,N,11606.2009,W,51.61,309.70,010410,,,A*41
$GPRMC,163439.778,A,3336.1775,N,11606.2411,W,52.74,309.69,010410,,,A*4C
$GPRMC,163442.768,A,3336.2056,N,11606.2814,W,52.93,310.10,010410,,,A*42
$GPRMC,163445.758,A,3336.2343,N,11606.3205,W,52.07,312.90,010410,,,A*4D
$GPRMC,163448.748,A,3336.2641,N,11606.3577,W,51.59,315.33,010410,,,A*42
$GPRMC,163451.738,A,3336.2953,N,11606.3927,W,51.43,317.94,010410,,,A*4C
$GPRMC,163454.728,A,3336.3275,N,11606.4263,W,51.27,320.28,010410,,,A*4B
$GPRMC,163457.818,A,3336.3620,N,11606.4588,W,51.26,322.88,010410,,,A*4B
$GPRMC,163500.808,A,3336.3967,N,11606.4888,W,51.36,324.37,010410,,,A*4B
$GPRMC,163503.798,A,3336.4313,N,11606.5189,W,51.36,323.73,010410,,,A*4E
$GPRMC,163506.788,A,3336.4659,N,11606.5490,W,51.39,323.95,010410,,,A*4B
$GPRMC,163509.778,A,3336.5004,N,11606.5790,W,51.46,323.86,010410,,,A*4D
$GPRMC,163512.769,A,3336.5347,N,11606.6095,W,51.51,323.93,010410,,,A*40
$GPRMC,163515.759,A,3336.5691,N,11606.6393,W,51.41,323.96,010410,,,A*4B
$GPRMC,163518.749,A,3336.6039,N,11606.6695,W,51.26,323.76,010410,,,A*4C
$GPRMC,163521.739,A,3336.6386,N,11606.6997,W,51.41,323.97,010410,,,A*45
$GPRMC,163524.729,A,3336.6734,N,11606.7297,W,51.25,324.16,010410,,,A*4A
$GPRMC,163527.819,A,3336.7095,N,11606.7606,W,51.26,324.13,010410,,,A*42
$GPRMC,163530.809,A,3336.7441,N,11606.7907,W,51.53,323.85,010410,,,A*4C
$GPRMC,163533.799,A,3336.7785,N,11606.8211,W,51.37,323.89,010410,,,A*4F
$GPRMC,163536.789,A,3336.8129,N,11606.8511,W,51.38,324.13,010410,,,A*48
$GPRMC,163539.779,A,3336.8476,N,11606.8812,W,51.44,323.92,010410,,,A*4C
$GPRMC,163542.769,A,3336.8821,N,11606.9113,W,51.57,324.05,010410,,,A*4D
$GPRMC,163545.759,A,3336.9167,N,11606.9413,W,51.44,324.02,010410,,,A*43
$GPRMC,163548.749,A,3336.9514,N,11606.9715,W,51.40,323.92,010410,,,A*40
$GPRMC,163551.740,A,3336.9859,N,11607.0013,W,51.46,324.04,010410,,,A*42
$GPRMC,163554.730,A,3337.0206,N,11607.0315,W,51.24,323.92,010410,,,A*41
$GPRMC,163557.819,A,3337.0560,N,11607.0624,W,51.35,324.28,010410,,,A*40
$GPRMC,163600.810,A,3337.0912,N,11607.0916,W,51.26,326.21,010410,,,A*46
$GPRMC,163603.800,A,3337.1269,N,11607.1192,W,51.30,328.67,010410,,,A*4C
$GPRMC,163606.790,A,3337.1636,N,11607.1448,W,51.33,331.50,010410,,,A*4C
$GPRMC,163609.780,A,3337.2016,N,11607.1681,W,51.42,333.91,010410,,,A*4B
$GPRMC,163612.770,A,3337.2403,N,11607.1896,W,51.37,336.29,010410,,,A*42
$GPRMC,163615.760,A,3337.2795,N,11607.2093,W,51.39,338.88,010410,,,A*4D
$GPRMC,163618.750,A,3337.3197,N,11607.2265,W,51.35,341.42,010410,,,A*49
$GPRMC,163621.740,A,3337.3603,N,11607.2417,W,51.38,343.65,010410,,,A*41
$GPRMC,163624.730,A,3337.4017,N,11607.2546,W,51.38,345.69,010410,,,A*48
$GPRMC,163627.720,A,3337.4429,N,11607.2671,W,51.33,345.65,010410,,,A*43
$GPRMC,163630.810,A,3337.4857,N,11607.2804,W,51.30,345.69,010410,,,A*4F
$GPRMC,163633.800,A,3337.5270,N,11607.2928,W,51.27,345.62,010410,,,A*41
$GPRMC,163636.790,A,3337.5680,N,11607.3052,W,51.21,345.18,010410,,,A*47
$GPRMC,163639.781,A,3337.6094,N,11607.3192,W,51.49,343.02,010410,,,A*46
$GPRMC,163642.771,A,3337.6505,N,11607.3351,W,52.72,342.12,010410,,,A*4E
$GPRMC,163645.761,A,3337.6906,N,11607.3530,W,51.55,338.42,010410,,,A*48
$GPRMC,163648.751,A,3337.7299,N,11607.3730,W,51.31,335.90,010410,,,A*48
$GPRMC,163651.741,A,3337.7687,N,11607.3949,W,51.40,333.52,010410,,,A*44
$GPRMC,163654.731,A,3337.8064,N,11607.4187,W,51.27,331.15,010410,,,A*4F
$GPRMC,163657.721,A,3337.8433,N,11607.4446,W,51.35,328.66,010410,,,A*4C
$GPRMC,163700.811,A,3337.8804,N,11607.4724,W,51.19,327.58,010410,,,A*40
$GPRMC,163703.801,A,3337.9163,N,11607.4997,W,51.17,327.78,010410,,,A*41
$GPRMC,163706.791,A,3337.9522,N,11607.5271,W,51.22,327.62,010410,,,A*4C
$GPRMC,163709.781,A,3337.9883,N,11607.5541,W,51.28,327.77,010410,,,A*4E
$GPRMC,163712.771,A,3338.0248,N,11607.5815,W,51.43,327.68,010410,,,A*4F
$GPRMC,163715.761,A,3338.0611,N,11607.6089,W,51.55,327.76,010410,,,A*47
$GPRMC,163718.751,A,3338.0974,N,11607.6362,W,51.51,327.70,010410,,,A*41
$GPRMC,163721.742,A,3338.1337,N,11607.6637,W,51.41,327.78,010410,,,A*49
$GPRMC,163724.732,A,3338.1702,N,11607.6912,W,51.40,327.85,010410,,,A*42
$GPRMC,163727.722,A,3338.2064,N,11607.7184,W,51.40,327.61,010410,,,A*48
$GPRMC,163730.812,A,3338.2436,N,11607.7466,W,51.23,327.80,010410,,,A*42
$GPRMC,163733.802,A,3338.2796,N,11607.7737,W,51.31,327.69,010410,,,A*4A
$GPRMC,163736.792,A,3338.3158,N,11607.8010,W,51.39,327.80,010410,,,A*4E
$GPRMC,163739.782,A,3338.3520,N,11607.8284,W,51.39,327.72,010410,,,A*49
$GPRMC,163742.772,A,3338.3880,N,11607.8561,W,51.30,327.59,010410,,,A*41
$GPRMC,163745.762,A,3338.4242,N,11607.8833,W,51.39,327.83,010410,,,A*40
$GPRMC,163748.752,A,3338.4597,N,11607.9100,W,46.75,327.66,010410,,,A*4C
$GPRMC,163751.742,A,3338.4883,N,11607.9319,W,35.51,327.90,010410,,,A*4C
$GPRMC,163754.732,A,3338.5105,N,11607.9487,W,28.34,327.89,010410,,,A*4F
$GPRMC,163757.722,A,3338.5267,N,11607.9609,W,16.90,327.75,010410,,,A*4E
$GPRMC,163800.812,A,3338.5351,N,11607.9674,W,7.32,327.42,010410,,,A*7D
$GPRMC,163848.754,A,3338.5406,N,11607.9702,W,5.65,327.59,010410,,,A*73
$GPRMC,163851.744,A,3338.5485,N,11607.9765,W,16.21,327.61,010410,,,A*49
$GPRMC,163854.734,A,3338.5619,N,11607.9869,W,23.34,328.32,010410,,,A*44
$GPRMC,163857.724,A,3338.5809,N,11608.0011,W,30.22,327.98,010410,,,A*42
$GPRMC,163900.814,A,3338.6048,N,11608.0192,W,35.34,327.46,010410,,,A*48
$GPRMC,163903.804,A,3338.6314,N,11608.0393,W,39.84,327.77,010410,,,A*46
$GPRMC,163906.794,A,3338.6606,N,11608.0614,W,42.33,327.63,010410,,,A*4C
$GPRMC,163909.784,A,3338.6912,N,11608.0845,W,45.12,327.62,010410,,,A*47
$GPRMC,163912.774,A,3338.7241,N,11608.1090,W,47.81,327.87,010410,,,A*4C
$GPRMC,163915.764,A,3338.7584,N,11608.1352,W,49.78,327.82,010410,,,A*44
$GPRMC,163918.754,A,3338.7940,N,11608.1622,W,51.34,327.55,010410,,,A*47
$GPRMC,163921.744,A,3338.8306,N,11608.1900,W,52.29,327.54,010410,,,A*4A
$GPRMC,163924.734,A,3338.8673,N,11608.2175,W,51.98,328.72,010410,,,A*44
$GPRMC,163927.724,A,3338.9046,N,11608.2436,W,52.29,330.49,010410,,,A*4D
$GPRMC,163930.814,A,3338.9438,N,11608.2694,W,51.94,332.00,010410,,,A*4A
$GPRMC,163933.804,A,3338.9818,N,11608.2935,W,51.57,333.50,010410,,,A*49
$GPRMC,163936.794,A,3339.0203,N,11608.3156,W,51.51,335.07,010410,,,A*4C
$GPRMC,163939.785,A,3339.0592,N,11608.3364,W,51.38,336.60,010410,,,A*42
$GPRMC,163942.775,A,3339.0985,N,11608.3560,W,51.31,338.12,010410,,,A*4B
$GPRMC,163945.765,A,3339.1380,N,11608.3746,W,51.38,339.50,010410,,,A*4B
$GPRMC,163948.755,A,3339.1782,N,11608.3920,W,51.32,340.89,010410,,,A*4D
$GPRMC,163951.745,A,3339.2184,N,11608.4082,W,51.35,342.51,010410,,,A*41
$GPRMC,163954.735,A,3339.2594,N,11608.4229,W,51.30,344.09,010410,,,A*4B
$GPRMC,163957.725,A,3339.3005,N,11608.4364,W,51.34,345.45,010410,,,A*40
$GPRMC,164000.815,A,3339.3436,N,11608.4489,W,51.28,346.85,010410,,,A*42
$GPRMC,164003.805,A,3339.3854,N,11608.4598,W,51.43,348.74,010410,,,A*44
$GPRMC,164006.795,A,3339.4278,N,11608.4689,W,51.34,349.95,010410,,,A*49
$GPRMC,164009.785,A,3339.4699,N,11608.4770,W,51.29,351.64,010410,,,A*40
$GPRMC,164012.775,A,3339.5121,N,11608.4839,W,51.32,352.44,010410,,,A*49
$GPRMC,164015.765,A,3339.5546,N,11608.4907,W,51.36,352.40,010410,,,A*46
$GPRMC,164018.756,A,3339.5970,N,11608.4972,W,51.48,352.51,010410,,,A*49
$GPRMC,164021.746,A,3339.6395,N,11608.5038,W,51.44,352.46,010410,,,A*4C
$GPRMC,164024.736,A,3339.6820,N,11608.5104,W,51.51,352.62,010410,,,A*47
$GPRMC,164027.726,A,3339.7244,N,11608.5172,W,51.41,352.57,010410,,,A*4A
$GPRMC,164030.816,A,3339.7683,N,11608.5241,W,51.36,352.57,010410,,,A*4C
$GPRMC,164033.806,A,3339.8106,N,11608.5309,W,51.43,352.50,010410,,,A*43
$GPRMC,164036.796,A,3339.8529,N,11608.5377,W,51.33,351.85,010410,,,A*4C
$GPRMC,164039.786,A,3339.8952,N,11608.5457,W,51.35,349.61,010410,,,A*42
$GPRMC,164042.776,A,3339.9371,N,11608.5557,W,51.35,347.88,010410,,,A*43
$GPRMC,164045.766,A,3339.9787,N,11608.5677,W,51.48,345.75,010410,,,A*43
$GPRMC,164048.756,A,3340.0200,N,11608.5809,W,51.48,344.32,010410,,,A*45
$GPRMC,164051.746,A,3340.0606,N,11608.5959,W,51.33,342.05,010410,,,A*44
$GPRMC,164054.736,A,3340.1009,N,11608.6128,W,51.15,339.76,010410,,,A*4F
$GPRMC,164057.726,A,3340.1405,N,11608.6313,W,51.15,338.23,010410,,,A*4E
$GPRMC,164100.816,A,3340.1810,N,11608.6520,W,51.19,336.12,010410,,,A*4F
$GPRMC,164103.806,A,3340.2200,N,11608.6734,W,51.47,334.11,010410,,,A*48
$GPRMC,164106.796,A,3340.2583,N,11608.6961,W,51.60,332.26,010410,,,A*4E
$GPRMC,164109.787,A,3340.2949,N,11608.7201,W,48.89,330.40,010410,,,A*4A
$GPRMC,164112.777,A,3340.3297,N,11608.7444,W,48.65,328.53,010410,,,A*48
$GPRMC,164115.767,A,3340.3639,N,11608.7708,W,48.74,326.13,010410,,,A*4F
$GPRMC,164118.757,A,3340.3972,N,11608.7982,W,48.14,324.60,010410,,,A*4D
$GPRMC,164121.747,A,3340.4290,N,11608.8265,W,47.41,322.81,010410,,,A*4D
$GPRMC,164124.737,A,3340.4604,N,11608.8555,W,47.65,321.06,010410,,,A*48
$GPRMC,164127.727,A,3340.4912,N,11608.8864,W,48.73,319.07,010410,,,A*4F
$GPRMC,164130.817,A,3340.5229,N,11608.9207,W,50.03,317.21,010410,,,A*4D
$GPRMC,164133.807,A,3340.5536,N,11608.9556,W,51.44,315.28,010410,,,A*4C
$GPRMC,164136.797,A,3340.5835,N,11608.9929,W,52.01,313.43,010410,,,A*4C
$GPRMC,164139.787,A,3340.6128,N,11609.0304,W,51.58,313.73,010410,,,A*45
$GPRMC,164142.777,A,3340.6425,N,11609.0676,W,52.06,313.88,010410,,,A*42
$GPRMC,164145.767,A,3340.6726,N,11609.1051,W,52.01,313.59,010410,,,A*4D
$GPRMC,164148.758,A,3340.7022,N,11609.1425,W,51.75,313.92,010410,,,A*4E
$GPRMC,164151.748,A,3340.7317,N,11609.1796,W,51.56,313.73,010410,,,A*47
$GPRMC,164154.738,A,3340.7612,N,11609.2165,W,51.37,313.70,010410,,,A*48
$GPRMC,164157.728,A,3340.7909,N,11609.2531,W,51.33,313.76,010410,,,A*48
$GPRMC,164200.818,A,3340.8210,N,11609.2917,W,51.29,313.71,010410,,,A*4D
$GPRMC,164203.808,A,3340.8506,N,11609.3285,W,51.27,313.68,010410,,,A*48
$GPRMC,164206.798,A,3340.8802,N,11609.3655,W,51.17,313.59,010410,,,A*4A
$GPRMC,164209.788,A,3340.9097,N,11609.4025,W,51.17,313.81,010410,,,A*42
$GPRMC,164212.778,A,3340.9392,N,11609.4394,W,51.38,313.68,010410,,,A*42
$GPRMC,164215.768,A,3340.9688,N,11609.4766,W,51.41,313.59,010410,,,A*4F
$GPRMC,164218.758,A,3340.9985,N,11609.5134,W,51.36,313.81,010410,,,A*46
$GPRMC,164221.748,A,3341.0279,N,11609.5503,W,51.34,313.81,010410,,,A*4F
$GPRMC,164224.738,A,3341.0575,N,11609.5872,W,51.26,313.60,010410,,,A*41
$GPRMC,164227.729,A,3341.0871,N,11609.6240,W,51.33,313.80,010410,,,A*49
$GPRMC,164230.818,A,3341.1174,N,11609.6619,W,51.33,313.91,010410,,,A*47
$GPRMC,164233.808,A,3341.1465,N,11609.6981,W,49.20,313.85,010410,,,A*40
$GPRMC,164236.798,A,3341.1734,N,11609.7317,W,43.55,313.79,010410,,,A*4B
$GPRMC,164239.789,A,3341.1957,N,11609.7592,W,33.08,313.64,010410,,,A*47
$GPRMC,164242.779,A,3341.2125,N,11609.7802,W,25.37,313.99,010410,,,A*47
$GPRMC,164245.769,A,3341.2248,N,11609.7961,W,18.00,313.47,010410,,,A*44
$GPRMC,164248.759,A,3341.2333,N,11609.8071,W,11.69,313.36,010410,,,A*40
$GPRMC,164251.749,A,3341.2384,N,11609.8135,W,5.82,312.52,010410,,,A*77
$GPRMC,164312.779,A,3341.2446,N,11609.8212,W,10.89,311.05,010410,,,A*43
$GPRMC,164315.769,A,3341.2527,N,11609.8319,W,17.82,313.91,010410,,,A*4A
$GPRMC,164318.760,A,3341.2648,N,11609.8466,W,23.32,313.92,010410,,,A*44
$GPRMC,164321.750,A,3341.2794,N,11609.8651,W,28.05,313.88,010410,,,A*4F
$GPRMC,164324.740,A,3341.2971,N,11609.8869,W,33.27,313.71,010410,,,A*47
$GPRMC,164327.730,A,3341.3176,N,11609.9125,W,37.42,313.70,010410,,,A*4B
$GPRMC,164330.820,A,3341.3404,N,11609.9416,W,40.60,313.81,010410,,,A*48
$GPRMC,164333.810,A,3341.3642,N,11609.9714,W,42.31,314.00,010410,,,A*41
$GPRMC,164336.800,A,3341.3898,N,11610.0026,W,45.11,315.23,010410,,,A*4E
$GPRMC,164339.790,A,3341.4178,N,11610.0347,W,48.17,316.65,010410,,,A*49
$GPRMC,164342.780,A,3341.4480,N,11610.0678,W,50.56,318.22,010410,,,A*4E
$GPRMC,164345.770,A,3341.4805,N,11610.1017,W,52.60,319.61,010410,,,A*48
$GPRMC,164348.760,A,3341.5145,N,11610.1354,W,52.91,321.20,010410,,,A*4C
$GPRMC,164351.750,A,3341.5487,N,11610.1672,W,51.57,322.54,010410,,,A*44
$GPRMC,164354.740,A,3341.5831,N,11610.1977,W,52.15,324.17,010410,,,A*4F
$GPRMC,164357.731,A,3341.6187,N,11610.2277,W,52.85,325.78,010410,,,A*44
$GPRMC,164400.721,A,3341.6555,N,11610.2567,W,52.51,327.06,010410,,,A*4F
$GPRMC,164403.810,A,3341.6933,N,11610.2850,W,51.79,328.79,010410,,,A*4A
$GPRMC,164406.800,A,3341.7303,N,11610.3113,W,51.53,330.31,010410,,,A*44
$GPRMC,164409.791,A,3341.7677,N,11610.3361,W,51.44,331.93,010410,,,A*42
$GPRMC,164412.781,A,3341.8057,N,11610.3593,W,51.33,333.45,010410,,,A*40
$GPRMC,164415.771,A,3341.8440,N,11610.3821,W,51.38,333.50,010410,,,A*41
$GPRMC,164418.761,A,3341.8823,N,11610.4053,W,51.43,333.78,010410,,,A*48
$GPRMC,164421.751,A,3341.9208,N,11610.4281,W,51.36,333.59,010410,,,A*4F
$GPRMC,164424.741,A,3341.9591,N,11610.4508,W,51.37,333.66,010410,,,A*47
$GPRMC,164427.731,A,3341.9972,N,11610.4738,W,51.39,333.67,010410,,,A*4C
$GPRMC,164430.721,A,3342.0353,N,11610.4964,W,51.34,333.49,010410,,,A*4E
$GPRMC,164433.811,A,3342.0747,N,11610.5199,W,51.31,333.61,010410,,,A*44
$GPRMC,164436.801,A,3342.1129,N,11610.5426,W,51.33,333.53,010410,,,A*4D
$GPRMC,164439.791,A,3342.1512,N,11610.5654,W,51.36,333.18,010410,,,A*45
$GPRMC,164442.781,A,3342.1892,N,11610.5885,W,51.36,332.29,010410,,,A*4C
$GPRMC,164445.771,A,3342.2265,N,11610.6133,W,51.39,329.66,010410,,,A*4C
$GPRMC,164448.762,A,3342.2628,N,11610.6400,W,51.38,327.12,010410,,,A*47
$GPRMC,164451.752,A,3342.2982,N,11610.6686,W,51.07,324.82,010410,,,A*49
$GPRMC,164454.742,A,3342.3325,N,11610.6984,W,50.42,322.40,010410,,,A*4E
$GPRMC,164457.732,A,3342.3653,N,11610.7299,W,50.65,320.13,010410,,,A*49
$GPRMC,164500.722,A,3342.3971,N,11610.7630,W,51.16,317.21,010410,,,A*43
$GPRMC,164503.812,A,3342.4288,N,11610.8000,W,51.56,314.74,010410,,,A*4B
$GPRMC,164506.802,A,3342.4588,N,11610.8366,W,51.85,314.51,010410,,,A*42
$GPRMC,164509.792,A,3342.4891,N,11610.8737,W,51.88,314.59,010410,,,A*4B
$GPRMC,164512.782,A,3342.5193,N,11610.9110,W,51.91,314.83,010410,,,A*47
$GPRMC,164515.772,A,3342.5496,N,11610.9478,W,51.76,314.79,010410,,,A*48
$GPRMC,164518.762,A,3342.5798,N,11610.9845,W,51.58,314.93,010410,,,A*43
$GPRMC,164521.752,A,3342.6099,N,11611.0214,W,51.65,314.34,010410,,,A*4A
$GPRMC,164524.742,A,3342.6399,N,11611.0577,W,51.48,314.53,010410,,,A*41
$GPRMC,164527.733,A,3342.6698,N,11611.0940,W,51.22,314.48,010410,,,A*4E
$GPRMC,164530.723,A,3342.7000,N,11611.1303,W,51.01,314.06,010410,,,A*48
$GPRMC,164533.812,A,3342.7308,N,11611.1678,W,50.91,314.71,010410,,,A*4C
$GPRMC,164536.802,A,3342.7602,N,11611.2037,W,50.75,314.18,010410,,,A*4C
$GPRMC,164539.793,A,3342.7895,N,11611.2402,W,50.80,314.22,010410,,,A*45
$GPRMC,164542.783,A,3342.8189,N,11611.2766,W,51.09,314.74,010410,,,A*41
$GPRMC,164545.773,A,3342.8496,N,11611.3124,W,51.26,316.33,010410,,,A*4F
$GPRMC,164548.763,A,3342.8807,N,11611.3472,W,51.30,317.54,010410,,,A*46
$GPRMC,164551.753,A,3342.9127,N,11611.3814,W,51.49,318.25,010410,,,A*4C
$GPRMC,164554.743,A,3342.9448,N,11611.4157,W,51.66,318.24,010410,,,A*41
$GPRMC,164557.733,A,3342.9775,N,11611.4501,W,52.00,318.63,010410,,,A*4F
$GPRMC,164600.723,A,3343.0102,N,11611.4842,W,51.98,318.78,010410,,,A*43
$GPRMC,164603.813,A,3343.0438,N,11611.5193,W,51.84,318.50,010410,,,A*43
$GPRMC,164606.803,A,3343.0760,N,11611.5536,W,51.75,318.67,010410,,,A*48
$GPRMC,164609.793,A,3343.1084,N,11611.5878,W,51.78,318.77,010410,,,A*46
$GPRMC,164612.783,A,3343.1406,N,11611.6215,W,51.52,318.73,010410,,,A*4D
$GPRMC,164615.773,A,3343.1728,N,11611.6551,W,50.69,318.58,010410,,,A*4D
$GPRMC,164618.764,A,3343.2042,N,11611.6884,W,50.80,318.41,010410,,,A*44
$GPRMC,164621.754,A,3343.2362,N,11611.7222,W,51.22,318.53,010410,,,A*41
$GPRMC,164624.744,A,3343.2684,N,11611.7556,W,51.47,318.94,010410,,,A*44
$GPRMC,164627.734,A,3343.3003,N,11611.7895,W,51.44,318.54,010410,,,A*45
$GPRMC,164630.724,A,3343.3327,N,11611.8232,W,51.47,318.77,010410,,,A*4D
$GPRMC,164633.814,A,3343.3659,N,11611.8585,W,51.56,318.66,010410,,,A*45
$GPRMC,164636.804,A,3343.3981,N,11611.8923,W,51.45,318.47,010410,,,A*4A
$GPRMC,164639.794,A,3343.4300,N,11611.9263,W,51.41,318.58,010410,,,A*43
$GPRMC,164642.784,A,3343.4624,N,11611.9601,W,51.51,318.62,010410,,,A*45
$GPRMC,164645.774,A,3343.4945,N,11611.9938,W,51.21,318.16,010410,,,A*44
$GPRMC,164648.764,A,3343.5261,N,11612.0280,W,51.29,316.20,010410,,,A*45
$GPRMC,164651.754,A,3343.5565,N,11612.0642,W,51.42,314.47,010410,,,A*49
$GPRMC,164654.744,A,3343.5852,N,11612.1018,W,51.31,312.09,010410,,,A*44
$GPRMC,164657.735,A,3343.6136,N,11612.1404,W,50.87,310.66,010410,,,A*47
$GPRMC,164700.725,A,3343.6411,N,11612.1787,W,50.87,310.58,010410,,,A*40
$GPRMC,164703.814,A,3343.6694,N,11612.2184,W,51.02,310.07,010410,,,A*41
$GPRMC,164706.804,A,3343.6966,N,11612.2571,W,51.35,310.52,010410,,,A*4D
$GPRMC,164709.795,A,3343.7243,N,11612.2962,W,51.64,310.52,010410,,,A*42
$GPRMC,164712.785,A,3343.7527,N,11612.3351,W,51.79,312.24,010410,,,A*48
$GPRMC,164715.775,A,3343.7821,N,11612.3726,W,51.75,314.27,010410,,,A*46
$GPRMC,164718.765,A,3343.8123,N,11612.4092,W,51.57,315.68,010410,,,A*4B
$GPRMC,164721.755,A,3343.8436,N,11612.4446,W,51.68,317.42,010410,,,A*48
$GPRMC,164724.745,A,3343.8760,N,11612.4787,W,51.51,319.04,010410,,,A*44
$GPRMC,164727.735,A,3343.9085,N,11612.5119,W,51.46,320.77,010410,,,A*45
$GPRMC,164730.725,A,3343.9418,N,11612.5437,W,51.43,321.57,010410,,,A*4D
$GPRMC,164733.815,A,3343.9766,N,11612.5766,W,51.32,321.90,010410,,,A*42
$GPRMC,164736.805,A,3344.0102,N,11612.6082,W,51.45,321.89,010410,,,A*4A
$GPRMC,164739.795,A,3344.0440,N,11612.6397,W,51.43,321.73,010410,,,A*44
$GPRMC,164742.785,A,3344.0774,N,11612.6714,W,51.34,321.88,010410,,,A*46
$GPRMC,164745.775,A,3344.1108,N,11612.7029,W,51.18,321.48,010410,,,A*48
$GPRMC,164748.766,A,3344.1435,N,11612.7357,W,51.26,318.11,010410,,,A*4D
$GPRMC,164751.756,A,3344.1742,N,11612.7711,W,51.30,313.00,010410,,,A*4F
$GPRMC,164754.746,A,3344.2021,N,11612.8099,W,51.25,308.85,010410,,,A*41
$GPRMC,164757.736,A,3344.2274,N,11612.8511,W,51.27,303.63,010410,,,A*43
$GPRMC,164800.726,A,3344.2492,N,11612.8951,W,51.35,298.54,010410,,,A*4D
$GPRMC,164803.816,A,3344.2690,N,11612.9425,W,51.41,293.60,010410,,,A*42
$GPRMC,164806.806,A,3344.2839,N,11612.9902,W,49.83,285.85,010410,,,A*48
$GPRMC,164809.796,A,3344.2959,N,11613.0393,W,51.39,283.77,010410,,,A*4F
$GPRMC,164812.786,A,3344.3045,N,11613.0894,W,51.35,279.14,010410,,,A*41
$GPRMC,164815.776,A,3344.3099,N,11613.1401,W,51.53,275.72,010410,,,A*45
$GPRMC,164818.766,A,3344.3141,N,11613.1910,W,51.46,275.40,010410,,,A*45
$GPRMC,164821.756,A,3344.3182,N,11613.2417,W,51.33,275.36,010410,,,A*49
$GPRMC,164824.746,A,3344.3221,N,11613.2926,W,51.25,275.45,010410,,,A*4B
$GPRMC,164827.737,A,3344.3262,N,11613.3435,W,51.32,275.29,010410,,,A*4B
$GPRMC,164830.727,A,3344.3302,N,11613.3945,W,51.43,275.45,010410,,,A*4D
$GPRMC,164833.816,A,3344.3344,N,11613.4471,W,51.37,275.42,010410,,,A*48
$GPRMC,164836.806,A,3344.3385,N,11613.4980,W,51.27,275.91,010410,,,A*4D
$GPRMC,164839.797,A,3344.3429,N,11613.5489,W,51.30,275.36,010410,,,A*4A
$GPRMC,164842.787,A,3344.3470,N,11613.5997,W,51.19,275.33,010410,,,A*47
$GPRMC,164845.777,A,3344.3510,N,11613.6503,W,51.27,275.49,010410,,,A*4A
$GPRMC,164848.767,A,3344.3547,N,11613.7013,W,51.24,275.41,010410,,,A*4A
$GPRMC,164851.757,A,3344.3588,N,11613.7522,W,51.30,275.62,010410,,,A*41
$GPRMC,164854.747,A,3344.3628,N,11613.8030,W,51.45,275.54,010410,,,A*42
$GPRMC,164857.737,A,3344.3670,N,11613.8541,W,51.43,275.61,010410,,,A*48
$GPRMC,164900.727,A,3344.3710,N,11613.9052,W,51.51,275.47,010410,,,A*4C
$GPRMC,164903.817,A,3344.3750,N,11613.9579,W,51.29,274.81,010410,,,A*4F
$GPRMC,164906.807,A,3344.3774,N,11614.0092,W,51.43,271.25,010410,,,A*44
$GPRMC,164909.797,A,3344.3764,N,11614.0606,W,51.61,266.24,010410,,,A*40
$GPRMC,164912.787,A,3344.3720,N,11614.1117,W,51.51,261.54,010410,,,A*4E
$GPRMC,164915.777,A,3344.3636,N,11614.1620,W,51.49,257.36,010410,,,A*4B
$GPRMC,164918.768,A,3344.3540,N,11614.2119,W,51.48,256.81,010410,,,A*48
$GPRMC,164921.758,A,3344.3443,N,11614.2619,W,51.31,256.65,010410,,,A*40
$GPRMC,164924.748,A,3344.3345,N,11614.3116,W,51.28,256.85,010410,,,A*4A
$GPRMC,164927.738,A,3344.3251,N,11614.3615,W,51.43,258.28,010410,,,A*4A
$GPRMC,164930.728,A,3344.3173,N,11614.4120,W,51.52,260.83,010410,,,A*42
$GPRMC,164933.818,A,3344.3110,N,11614.4645,W,51.29,263.36,010410,,,A*4D
$GPRMC,164936.808,A,3344.3069,N,11614.5154,W,51.25,265.57,010410,,,A*4D
$GPRMC,164939.798,A,3344.3048,N,11614.5662,W,51.38,268.32,010410,,,A*47
$GPRMC,164942.788,A,3344.3043,N,11614.6174,W,51.31,270.62,010410,,,A*47
$GPRMC,164945.778,A,3344.3059,N,11614.6682,W,51.10,273.37,010410,,,A*4A
$GPRMC,164948.768,A,3344.3093,N,11614.7188,W,51.08,275.68,010410,,,A*49
$GPRMC,164951.758,A,3344.3145,N,11614.7692,W,51.11,278.51,010410,,,A*4B
$GPRMC,164954.748,A,3344.3217,N,11614.8197,W,51.51,280.74,010410,,,A*42
$GPRMC,164957.738,A,3344.3307,N,11614.8702,W,51.80,283.30,010410,,,A*43
$GPRMC,165000.729,A,3344.3416,N,11614.9203,W,51.71,285.61,010410,,,A*47
$GPRMC,165003.818,A,3344.3547,N,11614.9709,W,51.44,288.54,010410,,,A*4E
$GPRMC,165006.808,A,3344.3690,N,11615.0193,W,51.37,290.65,010410,,,A*41
$GPRMC,165009.799,A,3344.3852,N,11615.0668,W,51.39,293.63,010410,,,A*41
$GPRMC,165012.789,A,3344.4032,N,11615.1129,W,51.41,296.03,010410,,,A*4C
$GPRMC,165015.779,A,3344.4226,N,11615.1585,W,51.34,298.29,010410,,,A*45
$GPRMC,165018.769,A,3344.4437,N,11615.2030,W,51.32,300.40,010410,,,A*4E
$GPRMC,165021.759,A,3344.4656,N,11615.2474,W,51.18,300.94,010410,,,A*47
$GPRMC,165024.749,A,3344.4874,N,11615.2909,W,51.19,300.91,010410,,,A*4E
$GPRMC,165027.739,A,3344.5091,N,11615.3346,W,51.18,300.91,010410,,,A*49
$GPRMC,165030.729,A,3344.5310,N,11615.3784,W,51.26,301.12,010410,,,A*49
$GPRMC,165033.819,A,3344.5537,N,11615.4239,W,51.54,300.59,010410,,,A*4A
$GPRMC,165036.809,A,3344.5755,N,11615.4683,W,51.60,301.07,010410,,,A*40
$GPRMC,165039.799,A,3344.5978,N,11615.5122,W,51.64,300.99,010410,,,A*47
$GPRMC,165042.789,A,3344.6198,N,11615.5560,W,51.46,300.69,010410,,,A*42
$GPRMC,165045.779,A,3344.6415,N,11615.6001,W,51.34,301.03,010410,,,A*43
$GPRMC,165048.770,A,3344.6636,N,11615.6440,W,51.39,300.79,010410,,,A*44
$GPRMC,165051.760,A,3344.6856,N,11615.6880,W,51.52,301.15,010410,,,A*43
$GPRMC,165054.750,A,3344.7085,N,11615.7312,W,51.38,304.18,010410,,,A*47
$GPRMC,165057.740,A,3344.7335,N,11615.7723,W,51.29,307.81,010410,,,A*48
$GPRMC,165100.730,A,3344.7606,N,11615.8117,W,51.32,311.72,010410,,,A*46
$GPRMC,165103.820,A,3344.7911,N,11615.8498,W,51.36,315.33,010410,,,A*45
$GPRMC,165106.810,A,3344.8219,N,11615.8852,W,51.36,316.41,010410,,,A*43
$GPRMC,165109.800,A,3344.8526,N,11615.9207,W,51.34,315.66,010410,,,A*49
$GPRMC,165112.790,A,3344.8826,N,11615.9569,W,51.40,312.71,010410,,,A*45
$GPRMC,165115.780,A,3344.9103,N,11615.9962,W,51.23,307.53,010410,,,A*4A
$GPRMC,165118.770,A,3344.9354,N,11616.0378,W,51.44,303.32,010410,,,A*41
$GPRMC,165121.760,A,3344.9571,N,11616.0819,W,51.35,298.17,010410,,,A*45
$GPRMC,165124.750,A,3344.9754,N,11616.1279,W,51.27,293.57,010410,,,A*47
$GPRMC,165127.740,A,3344.9904,N,11616.1757,W,51.18,288.05,010410,,,A*46
$GPRMC,165130.731,A,3345.0019,N,11616.2250,W,51.40,282.75,010410,,,A*4A
$GPRMC,165133.721,A,3345.0099,N,11616.2754,W,52.42,280.13,010410,,,A*42
$GPRMC,165136.810,A,3345.0176,N,11616.3281,W,51.77,279.04,010410,,,A*43
$GPRMC,165139.801,A,3345.0248,N,11616.3789,W,51.46,280.59,010410,,,A*43
$GPRMC,165142.791,A,3345.0341,N,11616.4285,W,51.29,285.00,010410,,,A*4F
$GPRMC,165145.781,A,3345.0472,N,11616.4772,W,51.22,290.44,010410,,,A*4C
$GPRMC,165148.771,A,3345.0637,N,11616.5241,W,51.11,295.09,010410,,,A*45
$GPRMC,165151.761,A,3345.0820,N,11616.5698,W,50.88,295.66,010410,,,A*4C
$GPRMC,165154.751,A,3345.1005,N,11616.6154,W,51.06,295.72,010410,,,A*42
$GPRMC,165157.741,A,3345.1191,N,11616.6611,W,51.20,296.09,010410,,,A*41
$GPRMC,165200.731,A,3345.1376,N,11616.7071,W,51.44,295.63,010410,,,A*40
$GPRMC,165203.721,A,3345.1562,N,11616.7532,W,51.65,295.80,010410,,,A*4D
$GPRMC,165206.811,A,3345.1756,N,11616.8011,W,51.86,295.78,010410,,,A*40
$GPRMC,165209.801,A,3345.1941,N,11616.8475,W,51.74,295.80,010410,,,A*4A
$GPRMC,165212.791,A,3345.2129,N,11616.8937,W,51.52,295.71,010410,,,A*42
$GPRMC,165215.781,A,3345.2318,N,11616.9400,W,51.42,296.06,010410,,,A*4E
$GPRMC,165218.772,A,3345.2504,N,11616.9860,W,51.43,295.63,010410,,,A*4F
$GPRMC,165221.762,A,3345.2689,N,11617.0320,W,51.36,295.49,010410,,,A*4F
$GPRMC,165224.752,A,3345.2872,N,11617.0782,W,51.32,295.59,010410,,,A*4A
$GPRMC,165227.742,A,3345.3055,N,11617.1244,W,51.43,294.17,010410,,,A*47
$GPRMC,165230.732,A,3345.3226,N,11617.1715,W,51.41,292.60,010410,,,A*45
$GPRMC,165233.722,A,3345.3385,N,11617.2188,W,51.16,291.62,010410,,,A*4D
$GPRMC,165236.812,A,3345.3545,N,11617.2679,W,51.07,290.36,010410,,,A*47
$GPRMC,165239.802,A,3345.3691,N,11617.3159,W,51.30,290.05,010410,,,A*43
$GPRMC,165242.792,A,3345.3836,N,11617.3640,W,51.64,289.84,010410,,,A*45
$GPRMC,165245.782,A,3345.3983,N,11617.4124,W,51.65,289.80,010410,,,A*4B
$GPRMC,165248.772,A,3345.4128,N,11617.4607,W,51.49,289.54,010410,,,A*46
$GPRMC,165251.762,A,3345.4272,N,11617.5090,W,51.27,289.89,010410,,,A*42
$GPRMC,165254.752,A,3345.4418,N,11617.5568,W,51.28,289.84,010410,,,A*4E
$GPRMC,165257.742,A,3345.4563,N,11617.6050,W,51.32,289.79,010410,,,A*45
$GPRMC,165300.733,A,3345.4707,N,11617.6532,W,51.55,289.84,010410,,,A*42
$GPRMC,165303.723,A,3345.4853,N,11617.7014,W,51.55,289.94,010410,,,A*4F
$GPRMC,165306.812,A,3345.5005,N,11617.7513,W,51.36,290.55,010410,,,A*4F
$GPRMC,165309.803,A,3345.5172,N,11617.7983,W,51.26,294.76,010410,,,A*40
$GPRMC,165312.793,A,3345.5358,N,11617.8442,W,51.27,297.06,010410,,,A*4C
$GPRMC,165315.783,A,3345.5557,N,11617.8896,W,51.24,298.15,010410,,,A*48
$GPRMC,165318.773,A,3345.5758,N,11617.9340,W,51.15,298.09,010410,,,A*49
$GPRMC,165321.763,A,3345.5956,N,11617.9793,W,51.39,296.87,010410,,,A*4E
$GPRMC,165324.753,A,3345.6141,N,11618.0256,W,51.68,293.60,010410,,,A*47
$GPRMC,165327.743,A,3345.6301,N,11618.0733,W,51.14,290.79,010410,,,A*45
$GPRMC,165330.733,A,3345.6441,N,11618.1217,W,51.55,287.79,010410,,,A*46
$GPRMC,165333.723,A,3345.6567,N,11618.1710,W,51.46,284.83,010410,,,A*47
$GPRMC,165336.813,A,3345.6671,N,11618.2222,W,51.47,282.62,010410,,,A*45
$GPRMC,165339.803,A,3345.6759,N,11618.2725,W,51.41,281.36,010410,,,A*46
$GPRMC,165342.793,A,3345.6848,N,11618.3229,W,51.35,281.81,010410,,,A*44
$GPRMC,165345.783,A,3345.6939,N,11618.3727,W,51.51,283.55,010410,,,A*47
$GPRMC,165348.774,A,3345.7051,N,11618.4223,W,51.53,286.93,010410,,,A*4F
$GPRMC,165351.764,A,3345.7181,N,11618.4709,W,51.36,289.53,010410,,,A*47
$GPRMC,165354.754,A,3345.7324,N,11618.5191,W,51.12,290.18,010410,,,A*4B
$GPRMC,165357.744,A,3345.7468,N,11618.5670,W,51.13,289.85,010410,,,A*43
$GPRMC,165400.734,A,3345.7612,N,11618.6149,W,51.39,289.80,010410,,,A*4D
$GPRMC,165403.724,A,3345.7758,N,11618.6631,W,51.68,289.98,010410,,,A*45
$GPRMC,165406.814,A,3345.7910,N,11618.7134,W,51.48,289.81,010410,,,A*47
$GPRMC,165409.804,A,3345.8054,N,11618.7617,W,51.31,289.73,010410,,,A*4A
$GPRMC,165412.794,A,3345.8198,N,11618.8098,W,51.36,289.84,010410,,,A*46
$GPRMC,165415.784,A,3345.8344,N,11618.8581,W,51.51,289.77,010410,,,A*43
$GPRMC,165418.774,A,3345.8488,N,11618.9065,W,51.64,289.74,010410,,,A*4D
$GPRMC,165421.764,A,3345.8632,N,11618.9545,W,51.52,289.71,010410,,,A*42
$GPRMC,165424.754,A,3345.8778,N,11619.0028,W,51.47,289.79,010410,,,A*41
$GPRMC,165427.744,A,3345.8926,N,11619.0507,W,51.38,291.60,010410,,,A*47
$GPRMC,165430.735,A,3345.9091,N,11619.0979,W,51.35,294.25,010410,,,A*4F
$GPRMC,165433.725,A,3345.9274,N,11619.1441,W,51.43,296.54,010410,,,A*46
$GPRMC,165436.814,A,3345.9479,N,11619.1911,W,51.35,298.33,010410,,,A*43
$GPRMC,165439.805,A,3345.9685,N,11619.2357,W,51.03,299.61,010410,,,A*45
$GPRMC,165442.795,A,3345.9899,N,11619.2797,W,51.17,300.80,010410,,,A*4F
$GPRMC,165445.785,A,3346.0125,N,11619.3238,W,52.96,302.25,010410,,,A*4B
$GPRMC,165448.775,A,3346.0367,N,11619.3683,W,53.87,303.42,010410,,,A*48
$GPRMC,165451.765,A,3346.0617,N,11619.4126,W,53.75,304.88,010410,,,A*40
$GPRMC,165454.755,A,3346.0874,N,11619.4563,W,53.42,305.52,010410,,,A*4A
$GPRMC,165457.745,A,3346.1134,N,11619.4993,W,53.23,305.54,010410,,,A*46
$GPRMC,165500.735,A,3346.1391,N,11619.5425,W,53.07,305.33,010410,,,A*49
$GPRMC,165503.725,A,3346.1647,N,11619.5857,W,53.06,305.38,010410,,,A*46
$GPRMC,165506.815,A,3346.1914,N,11619.6305,W,53.22,305.42,010410,,,A*42
$GPRMC,165509.805,A,3346.2171,N,11619.6736,W,53.21,305.31,010410,,,A*47
$GPRMC,165512.795,A,3346.2425,N,11619.7169,W,53.13,305.15,010410,,,A*45
$GPRMC,165515.785,A,3346.2679,N,11619.7601,W,53.19,305.59,010410,,,A*43
$GPRMC,165518.776,A,3346.2936,N,11619.8031,W,53.16,305.60,010410,,,A*49
$GPRMC,165521.766,A,3346.3191,N,11619.8461,W,53.10,305.33,010410,,,A*47
$GPRMC,165524.756,A,3346.3446,N,11619.8892,W,53.10,305.54,010410,,,A*4F
$GPRMC,165527.746,A,3346.3703,N,11619.9325,W,53.13,305.33,010410,,,A*4B
$GPRMC,165530.736,A,3346.3962,N,11619.9757,W,53.23,305.26,010410,,,A*45
$GPRMC,165533.726,A,3346.4219,N,11620.0188,W,53.15,305.46,010410,,,A*43
$GPRMC,165536.816,A,3346.4482,N,11620.0634,W,53.14,305.54,010410,,,A*4C
$GPRMC,165539.806,A,3346.4736,N,11620.1065,W,53.10,305.41,010410,,,A*4D
$GPRMC,165542.796,A,3346.4993,N,11620.1495,W,53.16,305.44,010410,,,A*4E
$GPRMC,165545.786,A,3346.5252,N,11620.1928,W,53.26,305.54,010410,,,A*46
$GPRMC,165548.776,A,3346.5507,N,11620.2361,W,53.15,305.35,010410,,,A*40
$GPRMC,165551.766,A,3346.5763,N,11620.2792,W,53.14,305.27,010410,,,A*43
$GPRMC,165554.756,A,3346.6019,N,11620.3225,W,53.21,305.49,010410,,,A*4A
$GPRMC,165557.746,A,3346.6273,N,11620.3655,W,53.21,305.34,010410,,,A*4F
$GPRMC,165600.737,A,3346.6530,N,11620.4089,W,53.25,305.54,010410,,,A*4A
$GPRMC,165603.727,A,3346.6785,N,11620.4523,W,53.14,305.29,010410,,,A*49
$GPRMC,165606.816,A,3346.7049,N,11620.4970,W,53.12,305.44,010410,,,A*40
$GPRMC,165609.807,A,3346.7307,N,11620.5401,W,53.20,305.59,010410,,,A*41
$GPRMC,165612.797,A,3346.7563,N,11620.5835,W,53.28,305.41,010410,,,A*43
$GPRMC,165615.787,A,3346.7821,N,11620.6268,W,53.15,305.49,010410,,,A*49
$GPRMC,165618.777,A,3346.8074,N,11620.6700,W,53.14,305.52,010410,,,A*4C
$GPRMC,165621.767,A,3346.8331,N,11620.7129,W,53.15,305.30,010410,,,A*4C
$GPRMC,165624.757,A,3346.8583,N,11620.7562,W,53.04,305.27,010410,,,A*48
$GPRMC,165627.747,A,3346.8839,N,11620.7995,W,53.10,305.51,010410,,,A*46
$GPRMC,165630.737,A,3346.9096,N,11620.8426,W,53.24,305.44,010410,,,A*42
$GPRMC,165633.727,A,3346.9350,N,11620.8858,W,53.17,305.41,010410,,,A*49
$GPRMC,165636.817,A,3346.9614,N,11620.9305,W,53.11,305.27,010410,,,A*41
$GPRMC,165639.807,A,3346.9869,N,11620.9736,W,53.17,305.10,010410,,,A*4D
$GPRMC,165642.797,A,3347.0125,N,11621.0169,W,53.08,305.46,010410,,,A*47
$GPRMC,165645.787,A,3347.0382,N,11621.0600,W,53.14,305.49,010410,,,A*44
$GPRMC,165648.778,A,3347.0640,N,11621.1029,W,53.17,305.55,010410,,,A*40
$GPRMC,165651.768,A,3347.0897,N,11621.1463,W,53.12,305.08,010410,,,A*4A
$GPRMC,165654.758,A,3347.1153,N,11621.1893,W,53.03,305.49,010410,,,A*4A
$GPRMC,165657.748,A,3347.1411,N,11621.2324,W,53.08,305.34,010410,,,A*4E
$GPRMC,165700.738,A,3347.1666,N,11621.2755,W,53.85,305.04,010410,,,A*4C
$GPRMC,165703.728,A,3347.1922,N,11621.3187,W,52.98,305.40,010410,,,A*44
$GPRMC,165706.818,A,3347.2189,N,11621.3631,W,53.13,305.45,010410,,,A*4A
$GPRMC,165709.808,A,3347.2448,N,11621.4062,W,53.20,305.52,010410,,,A*4D
$GPRMC,165712.798,A,3347.2705,N,11621.4492,W,53.02,305.25,010410,,,A*40
$GPRMC,165715.788,A,3347.2961,N,11621.4921,W,53.10,305.52,010410,,,A*4C
$GPRMC,165718.778,A,3347.3218,N,11621.5352,W,53.20,305.21,010410,,,A*42
$GPRMC,165721.768,A,3347.3474,N,11621.5785,W,53.16,305.16,010410,,,A*4A
$GPRMC,165724.758,A,3347.3731,N,11621.6217,W,53.09,305.68,010410,,,A*44
$GPRMC,165727.748,A,3347.3987,N,11621.6648,W,53.14,305.25,010410,,,A*4E
$GPRMC,165730.739,A,3347.4246,N,11621.7079,W,53.18,305.33,010410,,,A*41
$GPRMC,165733.729,A,3347.4503,N,11621.7512,W,53.05,305.40,010410,,,A*45
$GPRMC,165736.818,A,3347.4770,N,11621.7956,W,53.07,306.20,010410,,,A*40
$GPRMC,165739.809,A,3347.5032,N,11621.8381,W,52.97,306.70,010410,,,A*4D
$GPRMC,165742.799,A,3347.5292,N,11621.8805,W,52.34,305.87,010410,,,A*4A
$GPRMC,165745.789,A,3347.5544,N,11621.9230,W,52.26,305.33,010410,,,A*41
$GPRMC,165748.779,A,3347.5795,N,11621.9656,W,51.66,305.39,010410,,,A*44
$GPRMC,165751.769,A,3347.6041,N,11622.0072,W,51.17,305.37,010410,,,A*42
$GPRMC,165754.759,A,3347.6286,N,11622.0487,W,51.18,305.29,010410,,,A*43
