NMEA Sentence Code,UTC Time,Status,Latitude,Latitude Direction,Longitude,Longitude Direction,Speed (knots),Track Angle (degrees true),Date,MagneticVariation,Magnetic Variation Direction,[FAA Mode]-Optional,Checksum
$GPRMC,165402.000,A,3344.3245,N,11613.5094,W,54.92,94.10,200810,,,A*79
$GPRMC,165405.000,A,3344.3277,N,11613.4647,W,52.00,90.90,200810,,,A*77
$GPRMC,165408.000,A,3344.3226,N,11613.4071,W,53.94,93.70,200810,,,A*7C
$GPRMC,165411.000,A,3344.3171,N,11613.3462,W,57.83,94.30,200810,,,A*75
$GPRMC,165414.000,A,3344.3033,N,11613.2721,W,60.75,97.00,200810,,,A*7F
$GPRMC,165417.000,A,3344.2965,N,11613.2083,W,61.23,96.30,200810,,,A*78
$GPRMC,165420.000,A,3344.2888,N,11613.1427,W,60.75,96.20,200810,,,A*74
$GPRMC,165423.000,A,3344.2823,N,11613.0823,W,61.23,97.40,200810,,,A*7A
$GPRMC,165426.000,A,3344.2696,N,11613.0203,W,61.72,103.20,200810,,,A*49
$GPRMC,165429.000,A,3344.2566,N,11612.9631,W,60.75,105.70,200810,,,A*42
$GPRMC,165432.000,A,3344.2339,N,11612.9101,W,60.26,115.00,200810,,,A*40
$GPRMC,165435.000,A,3344.2114,N,11612.8578,W,60.26,118.80,200810,,,A*44
$GPRMC,165438.000,A,3344.1768,N,11612.8064,W,62.21,128.90,200810,,,A*48
$GPRMC,165441.000,A,3344.1420,N,11612.7632,W,60.26,134.10,200810,,,A*43
$GPRMC,165444.000,A,3344.1042,N,11612.7213,W,61.72,139.00,200810,,,A*4D
$GPRMC,165447.000,A,3344.0616,N,11612.6839,W,63.18,142.30,200810,,,A*4A
$GPRMC,165450.000,A,3344.0193,N,11612.6457,W,63.18,142.10,200810,,,A*40
$GPRMC,165453.000,A,3343.9793,N,11612.6082,W,60.26,142.30,200810,,,A*4B
$GPRMC,165456.000,A,3343.9423,N,11612.5723,W,57.83,141.30,200810,,,A*41
$GPRMC,165459.000,A,3343.9036,N,11612.5351,W,57.35,141.10,200810,,,A*40
$GPRMC,165502.000,A,3343.8670,N,11612.4983,W,58.32,139.60,200810,,,A*4E
$GPRMC,165505.000,A,3343.8304,N,11612.4602,W,59.29,138.90,200810,,,A*4C
$GPRMC,165508.000,A,3343.7920,N,11612.4167,W,62.21,137.40,200810,,,A*44
$GPRMC,165511.000,A,3343.7574,N,11612.3724,W,60.75,133.40,200810,,,A*40
$GPRMC,165514.000,A,3343.7235,N,11612.3322,W,58.80,132.90,200810,,,A*48
$GPRMC,165517.000,A,3343.6931,N,11612.2879,W,59.29,129.90,200810,,,A*49
$GPRMC,165520.000,A,3343.6583,N,11612.2393,W,61.72,130.40,200810,,,A*47
$GPRMC,165523.000,A,3343.6230,N,11612.1892,W,63.66,130.20,200810,,,A*43
$GPRMC,165526.000,A,3343.5891,N,11612.1403,W,63.66,130.50,200810,,,A*47
$GPRMC,165529.000,A,3343.5537,N,11612.0927,W,63.66,133.40,200810,,,A*41
$GPRMC,165532.000,A,3343.5145,N,11612.0477,W,64.64,137.50,200810,,,A*42
$GPRMC,165535.000,A,3343.4739,N,11612.0080,W,62.21,140.90,200810,,,A*4E
$GPRMC,165538.000,A,3343.4324,N,11611.9671,W,63.66,140.50,200810,,,A*47
$GPRMC,165541.000,A,3343.3929,N,11611.9276,W,63.18,140.30,200810,,,A*45
$GPRMC,165544.000,A,3343.3520,N,11611.8876,W,63.66,140.80,200810,,,A*4C
$GPRMC,165547.000,A,3343.3128,N,11611.8486,W,62.21,140.40,200810,,,A*4E
$GPRMC,165550.000,A,3343.2728,N,11611.8083,W,63.18,140.60,200810,,,A*47
$GPRMC,165553.000,A,3343.2304,N,11611.7688,W,63.66,141.00,200810,,,A*42
$GPRMC,165556.000,A,3343.1894,N,11611.7304,W,63.18,141.10,200810,,,A*4F
$GPRMC,165559.000,A,3343.1479,N,11611.6890,W,63.18,140.80,200810,,,A*40
$GPRMC,165602.000,A,3343.1076,N,11611.6477,W,63.18,138.70,200810,,,A*43
$GPRMC,165605.000,A,3343.0706,N,11611.6046,W,62.21,135.20,200810,,,A*40
$GPRMC,165608.000,A,3343.0367,N,11611.5549,W,63.66,129.30,200810,,,A*49
$GPRMC,165611.000,A,3343.0059,N,11611.5037,W,63.66,125.00,200810,,,A*4C
$GPRMC,165613.000,A,3342.9869,N,11611.4667,W,63.66,121.80,200810,,,A*43
$GPRMC,165617.000,A,3342.9627,N,11611.4077,W,64.64,116.40,200810,,,A*49
$GPRMC,165620.000,A,3342.9335,N,11611.3302,W,64.64,112.70,200810,,,A*4A
$GPRMC,165623.000,A,3342.9160,N,11611.2694,W,64.64,108.50,200810,,,A*49
$GPRMC,165626.000,A,3342.9072,N,11611.2088,W,63.18,102.60,200810,,,A*40
$GPRMC,165629.000,A,3342.8971,N,11611.1426,W,65.61,98.50,200810,,,A*7E
$GPRMC,165632.000,A,3342.8955,N,11611.0833,W,64.15,92.90,200810,,,A*7F
$GPRMC,165635.000,A,3342.8944,N,11611.0199,W,64.15,90.80,200810,,,A*72
$GPRMC,165638.000,A,3342.8943,N,11610.9557,W,63.66,90.40,200810,,,A*79
$GPRMC,165641.000,A,3342.8958,N,11610.8927,W,63.66,89.70,200810,,,A*7C
$GPRMC,165644.000,A,3342.8960,N,11610.8315,W,62.21,90.40,200810,,,A*70
$GPRMC,165647.000,A,3342.8975,N,11610.7730,W,60.75,89.20,200810,,,A*76
$GPRMC,165650.000,A,3342.8971,N,11610.7111,W,62.21,89.70,200810,,,A*77
$GPRMC,165653.000,A,3342.8940,N,11610.6440,W,64.15,90.30,200810,,,A*7B
$GPRMC,165656.000,A,3342.8927,N,11610.5823,W,62.21,90.30,200810,,,A*74
$GPRMC,165659.000,A,3342.8914,N,11610.5160,W,64.64,90.50,200810,,,A*74
$GPRMC,165702.000,A,3342.8933,N,11610.4555,W,61.72,89.50,200810,,,A*77
$GPRMC,165705.000,A,3342.8924,N,11610.3938,W,62.69,89.90,200810,,,A*73
$GPRMC,165708.000,A,3342.8946,N,11610.3298,W,63.66,88.70,200810,,,A*7A
$GPRMC,165711.000,A,3342.8946,N,11610.2638,W,65.12,90.20,200810,,,A*74
$GPRMC,165714.000,A,3342.8973,N,11610.2021,W,64.15,89.60,200810,,,A*73
$GPRMC,165717.000,A,3342.8955,N,11610.1381,W,64.15,92.50,200810,,,A*77
$GPRMC,165720.000,A,3342.8899,N,11610.0753,W,63.18,95.00,200810,,,A*70
$GPRMC,165723.000,A,3342.8721,N,11610.0112,W,63.18,103.10,200810,,,A*43
$GPRMC,165726.000,A,3342.8546,N,11609.9488,W,63.66,106.50,200810,,,A*4A
$GPRMC,165729.000,A,3342.8389,N,11609.8909,W,62.21,109.00,200810,,,A*4D
$GPRMC,165732.000,A,3342.8257,N,11609.8329,W,61.23,108.40,200810,,,A*49
$GPRMC,165735.000,A,3342.8079,N,11609.7744,W,62.21,109.60,200810,,,A*42
$GPRMC,165738.000,A,3342.7876,N,11609.7155,W,63.66,109.90,200810,,,A*4C
$GPRMC,165741.000,A,3342.7686,N,11609.6551,W,63.66,109.90,200810,,,A*42
$GPRMC,165744.000,A,3342.7460,N,11609.5924,W,65.12,111.30,200810,,,A*46
$GPRMC,165747.000,A,3342.7286,N,11609.5330,W,64.15,110.20,200810,,,A*42
$GPRMC,165750.000,A,3342.7073,N,11609.4728,W,64.64,111.40,200810,,,A*41
$GPRMC,165753.000,A,3342.6859,N,11609.4114,W,65.12,111.10,200810,,,A*4F
$GPRMC,165756.000,A,3342.6712,N,11609.3523,W,63.66,109.50,200810,,,A*45
$GPRMC,165759.000,A,3342.6539,N,11609.2949,W,62.69,109.50,200810,,,A*4E
$GPRMC,165802.000,A,3342.6373,N,11609.2360,W,63.18,108.90,200810,,,A*4C
$GPRMC,165805.000,A,3342.6229,N,11609.1781,W,62.21,107.40,200810,,,A*44
$GPRMC,165808.000,A,3342.6070,N,11609.1201,W,61.72,108.00,200810,,,A*44
$GPRMC,165811.000,A,3342.5867,N,11609.0607,W,62.69,110.60,200810,,,A*44
$GPRMC,165814.000,A,3342.5663,N,11609.0007,W,63.66,111.70,200810,,,A*43
$GPRMC,165817.000,A,3342.5506,N,11608.9431,W,62.69,109.50,200810,,,A*4C
$GPRMC,165820.000,A,3342.5266,N,11608.8810,W,64.15,111.60,200810,,,A*40
$GPRMC,165823.000,A,3342.5117,N,11608.8238,W,63.18,109.50,200810,,,A*46
$GPRMC,165826.000,A,3342.4986,N,11608.7656,W,62.69,107.50,200810,,,A*48
$GPRMC,165829.000,A,3342.4807,N,11608.7048,W,63.66,108.30,200810,,,A*41
$GPRMC,165832.000,A,3342.4662,N,11608.6431,W,64.15,107.60,200810,,,A*44
$GPRMC,165835.000,A,3342.4466,N,11608.5817,W,64.64,109.30,200810,,,A*43
$GPRMC,165838.000,A,3342.4270,N,11608.5195,W,64.64,109.70,200810,,,A*48
$GPRMC,165841.000,A,3342.4096,N,11608.4615,W,63.18,109.70,200810,,,A*4E
$GPRMC,165844.000,A,3342.3927,N,11608.4051,W,61.72,109.50,200810,,,A*45
$GPRMC,165847.000,A,3342.3721,N,11608.3444,W,63.18,110.30,200810,,,A*49
$GPRMC,165850.000,A,3342.3586,N,11608.2871,W,62.21,109.60,200810,,,A*4D
$GPRMC,165853.000,A,3342.3395,N,11608.2292,W,62.21,110.70,200810,,,A*44
$GPRMC,165856.000,A,3342.3217,N,11608.1710,W,62.69,110.40,200810,,,A*49
$GPRMC,165859.000,A,3342.2993,N,11608.1105,W,64.64,111.40,200810,,,A*48
$GPRMC,165902.000,A,3342.2763,N,11608.0466,W,66.09,111.80,200810,,,A*42
$GPRMC,165905.000,A,3342.2562,N,11607.9897,W,63.66,111.60,200810,,,A*40
$GPRMC,165908.000,A,3342.2312,N,11607.9314,W,64.64,113.20,200810,,,A*4F
$GPRMC,165911.000,A,3342.2191,N,11607.8747,W,62.21,110.30,200810,,,A*48
$GPRMC,165914.000,A,3342.2042,N,11607.8186,W,60.75,110.10,200810,,,A*48
$GPRMC,165917.000,A,3342.1816,N,11607.7596,W,63.18,112.40,200810,,,A*44
$GPRMC,165920.000,A,3342.1604,N,11607.6982,W,64.64,111.10,200810,,,A*4F
$GPRMC,165923.000,A,3342.1411,N,11607.6359,W,66.09,109.20,200810,,,A*45
$GPRMC,165926.000,A,3342.1358,N,11607.5769,W,62.69,101.90,200810,,,A*4F
$GPRMC,165929.000,A,3342.1242,N,11607.5190,W,60.75,103.20,200810,,,A*4C
$GPRMC,165932.000,A,3342.1124,N,11607.4618,W,60.26,103.70,200810,,,A*40
$GPRMC,165935.000,A,3342.1023,N,11607.3973,W,62.69,102.10,200810,,,A*4A
$GPRMC,165938.000,A,3342.0931,N,11607.3389,W,60.26,101.70,200810,,,A*4F
$GPRMC,165941.000,A,3342.0837,N,11607.2812,W,60.26,101.40,200810,,,A*4D
$GPRMC,165944.000,A,3342.0706,N,11607.2197,W,61.23,102.80,200810,,,A*4A
$GPRMC,165947.000,A,3342.0548,N,11607.1584,W,62.21,104.00,200810,,,A*4B
$GPRMC,165950.000,A,3342.0442,N,11607.0929,W,64.64,101.60,200810,,,A*48
$GPRMC,165953.000,A,3342.0337,N,11607.0278,W,63.66,102.40,200810,,,A*45
$GPRMC,165956.000,A,3342.0201,N,11606.9679,W,60.26,104.40,200810,,,A*48
$GPRMC,165959.000,A,3342.0104,N,11606.9175,W,54.92,103.80,200810,,,A*49
$GPRMC,170002.000,A,3342.0072,N,11606.8720,W,49.08,101.60,200810,,,A*4E
$GPRMC,170005.000,A,3341.9997,N,11606.8269,W,47.63,102.40,200810,,,A*4B
$GPRMC,170008.000,A,3341.9897,N,11606.7801,W,47.14,102.60,200810,,,A*4E
$GPRMC,170011.000,A,3341.9821,N,11606.7381,W,44.71,102.00,200810,,,A*4E
$GPRMC,170014.000,A,3341.9712,N,11606.6921,W,45.68,103.60,200810,,,A*4B
$GPRMC,170017.000,A,3341.9656,N,11606.6526,W,42.77,101.40,200810,,,A*4B
$GPRMC,170020.000,A,3341.9537,N,11606.6078,W,45.20,104.30,200810,,,A*42
$GPRMC,170023.000,A,3341.9494,N,11606.5660,W,42.28,100.40,200810,,,A*49
$GPRMC,170026.000,A,3341.9386,N,11606.5235,W,42.28,103.30,200810,,,A*48
$GPRMC,170029.000,A,3341.9310,N,11606.4829,W,41.31,102.10,200810,,,A*46
$GPRMC,170032.000,A,3341.9250,N,11606.4481,W,37.91,101.60,200810,,,A*48
$GPRMC,170035.000,A,3341.9162,N,11606.4072,W,38.88,102.80,200810,,,A*4F
$GPRMC,170038.000,A,3341.9077,N,11606.3708,W,37.42,103.80,200810,,,A*42
$GPRMC,170041.000,A,3341.9027,N,11606.3381,W,35.48,102.30,200810,,,A*4E
$GPRMC,170044.000,A,3341.8975,N,11606.3047,W,34.99,101.40,200810,,,A*44
$GPRMC,170047.000,A,3341.8897,N,11606.2694,W,34.99,103.30,200810,,,A*46
$GPRMC,170050.000,A,3341.8835,N,11606.2341,W,35.48,103.10,200810,,,A*4A
$GPRMC,170053.000,A,3341.8751,N,11606.2020,W,34.02,104.00,200810,,,A*49
$GPRMC,170056.000,A,3341.8734,N,11606.1727,W,33.05,97.60,200810,,,A*71
$GPRMC,170059.000,A,3341.8713,N,11606.1403,W,32.56,96.40,200810,,,A*7A
$GPRMC,170101.000,A,3341.8723,N,11606.1200,W,32.07,93.30,200810,,,A*76
$GPRMC,170105.000,A,3341.8697,N,11606.0857,W,31.65,90.00,200810,,,A*72
$GPRMC,170108.000,A,3341.8705,N,11606.0548,W,31.10,88.30,200810,,,A*7E
$GPRMC,170111.000,A,3341.8742,N,11606.0153,W,31.59,85.70,200810,,,A*7F
$GPRMC,170114.000,A,3341.8806,N,11605.9827,W,31.59,80.20,200810,,,A*75
$GPRMC,170117.000,A,3341.8834,N,11605.9543,W,29.16,83.90,200810,,,A*72
$GPRMC,170120.000,A,3341.8853,N,11605.9210,W,31.10,85.50,200810,,,A*73
$GPRMC,170123.000,A,3341.8884,N,11605.8907,W,31.10,83.30,200810,,,A*76
$GPRMC,170126.000,A,3341.8923,N,11605.8596,W,31.10,82.70,200810,,,A*7E
$GPRMC,170129.000,A,3341.8960,N,11605.8305,W,29.16,82.20,200810,,,A*70
$GPRMC,170132.000,A,3341.9018,N,11605.7990,W,30.62,81.10,200810,,,A*7F
$GPRMC,170135.000,A,3341.9060,N,11605.7684,W,31.10,81.20,200810,,,A*7A
$GPRMC,170138.000,A,3341.9106,N,11605.7391,W,30.13,80.00,200810,,,A*76
$GPRMC,170141.000,A,3341.9155,N,11605.7083,W,30.62,81.20,200810,,,A*7B
$GPRMC,170144.000,A,3341.9178,N,11605.6764,W,32.56,84.60,200810,,,A*7A
$GPRMC,170147.000,A,3341.9229,N,11605.6435,W,34.50,82.60,200810,,,A*7F
$GPRMC,170150.000,A,3341.9267,N,11605.6065,W,36.45,83.60,200810,,,A*75
$GPRMC,170153.000,A,3341.9340,N,11605.5672,W,36.93,81.50,200810,,,A*7B
$GPRMC,170156.000,A,3341.9389,N,11605.5333,W,34.50,80.40,200810,,,A*76
$GPRMC,170159.000,A,3341.9414,N,11605.5012,W,32.07,83.20,200810,,,A*7B
$GPRMC,170202.000,A,3341.9467,N,11605.4679,W,32.07,81.80,200810,,,A*70
$GPRMC,170205.000,A,3341.9521,N,11605.4351,W,32.56,80.80,200810,,,A*7E
$GPRMC,170208.000,A,3341.9554,N,11605.4032,W,32.56,82.10,200810,,,A*7C
$GPRMC,170211.000,A,3341.9576,N,11605.3732,W,31.59,83.20,200810,,,A*7A
$GPRMC,170214.000,A,3341.9621,N,11605.3404,W,32.56,82.60,200810,,,A*71
$GPRMC,170217.000,A,3341.9652,N,11605.3108,W,30.62,82.80,200810,,,A*74
$GPRMC,170220.000,A,3341.9710,N,11605.2745,W,35.96,80.70,200810,,,A*7A
$GPRMC,170223.000,A,3341.9763,N,11605.2371,W,38.88,81.20,200810,,,A*78
$GPRMC,170226.000,A,3341.9827,N,11605.1942,W,42.77,81.50,200810,,,A*71
$GPRMC,170229.000,A,3341.9878,N,11605.1479,W,45.68,82.20,200810,,,A*7C
$GPRMC,170232.000,A,3341.9941,N,11605.0979,W,50.54,82.70,200810,,,A*7F
$GPRMC,170235.000,A,3342.0000,N,11605.0453,W,52.49,83.80,200810,,,A*7B
$GPRMC,170238.000,A,3342.0036,N,11604.9893,W,55.40,85.20,200810,,,A*79
$GPRMC,170241.000,A,3342.0055,N,11604.9329,W,56.86,87.70,200810,,,A*76
$GPRMC,170244.000,A,3342.0102,N,11604.8757,W,56.37,87.00,200810,,,A*71
$GPRMC,170247.000,A,3342.0119,N,11604.8181,W,58.32,88.50,200810,,,A*74
$GPRMC,170250.000,A,3342.0091,N,11604.7623,W,57.83,91.60,200810,,,A*7D
$GPRMC,170253.000,A,3342.0062,N,11604.7016,W,59.29,93.30,200810,,,A*7B
$GPRMC,170256.000,A,3342.0039,N,11604.6422,W,60.26,93.90,200810,,,A*7D
$GPRMC,170259.000,A,3341.9993,N,11604.5841,W,59.29,94.70,200810,,,A*77
$GPRMC,170302.000,A,3341.9937,N,11604.5239,W,60.26,94.80,200810,,,A*79
$GPRMC,170305.000,A,3341.9883,N,11604.4624,W,61.23,95.80,200810,,,A*7C
$GPRMC,170308.000,A,3341.9884,N,11604.4041,W,60.75,92.50,200810,,,A*7B
$GPRMC,170311.000,A,3341.9826,N,11604.3425,W,62.69,94.10,200810,,,A*77
$GPRMC,170314.000,A,3341.9733,N,11604.2804,W,62.69,97.00,200810,,,A*75
$GPRMC,170317.000,A,3341.9702,N,11604.2218,W,60.75,95.40,200810,,,A*7A
$GPRMC,170320.000,A,3341.9668,N,11604.1613,W,60.75,94.80,200810,,,A*72
$GPRMC,170323.000,A,3341.9584,N,11604.0920,W,62.69,96.60,200810,,,A*7D
$GPRMC,170325.000,A,3341.9534,N,11604.0516,W,62.21,97.30,200810,,,A*71
$GPRMC,170329.000,A,3341.9434,N,11603.9682,W,61.23,100.70,200810,,,A*46
$GPRMC,170332.000,A,3341.9327,N,11603.9090,W,60.75,104.10,200810,,,A*4C
$GPRMC,170335.000,A,3341.9169,N,11603.8520,W,60.26,108.20,200810,,,A*45
$GPRMC,170338.000,A,3341.9025,N,11603.7985,W,56.86,110.20,200810,,,A*4B
$GPRMC,170341.000,A,3341.8802,N,11603.7438,W,59.29,115.50,200810,,,A*4A
$GPRMC,170344.000,A,3341.8537,N,11603.6925,W,59.29,120.70,200810,,,A*40
$GPRMC,170347.000,A,3341.8290,N,11603.6443,W,57.35,122.00,200810,,,A*42
$GPRMC,170350.000,A,3341.8032,N,11603.5963,W,57.35,121.80,200810,,,A*49
$GPRMC,170353.000,A,3341.7810,N,11603.5503,W,55.40,120.80,200810,,,A*46
$GPRMC,170356.000,A,3341.7592,N,11603.5017,W,52.97,120.80,200810,,,A*49
$GPRMC,170359.000,A,3341.7369,N,11603.4549,W,53.46,120.70,200810,,,A*49
$GPRMC,170402.000,A,3341.7159,N,11603.4129,W,49.57,122.00,200810,,,A*4D
$GPRMC,170405.000,A,3341.6974,N,11603.3787,W,44.71,122.00,200810,,,A*40
$GPRMC,170408.000,A,3341.6780,N,11603.3404,W,44.22,121.20,200810,,,A*47
$GPRMC,170411.000,A,3341.6589,N,11603.3056,W,41.79,121.90,200810,,,A*47
$GPRMC,170414.000,A,3341.6409,N,11603.2729,W,40.34,123.00,200810,,,A*46
$GPRMC,170417.000,A,3341.6276,N,11603.2392,W,40.34,120.40,200810,,,A*48
$GPRMC,170420.000,A,3341.6096,N,11603.2022,W,45.20,121.50,200810,,,A*48
$GPRMC,170423.000,A,3341.5873,N,11603.1615,W,48.60,121.70,200810,,,A*41
$GPRMC,170426.000,A,3341.5637,N,11603.1193,W,51.51,122.30,200810,,,A*4E
$GPRMC,170429.000,A,3341.5403,N,11603.0744,W,52.00,119.80,200810,,,A*4D
$GPRMC,170431.000,A,3341.5277,N,11603.0425,W,53.46,117.10,200810,,,A*41
$GPRMC,170435.000,A,3341.5095,N,11602.9888,W,54.43,112.10,200810,,,A*4F
$GPRMC,170438.000,A,3341.4943,N,11602.9371,W,54.43,108.20,200810,,,A*44
$GPRMC,170441.000,A,3341.4794,N,11602.8840,W,56.37,108.00,200810,,,A*45
$GPRMC,170444.000,A,3341.4655,N,11602.8313,W,55.41,105.40,200810,,,A*4A
$GPRMC,170447.000,A,3341.4550,N,11602.7829,W,55.89,104.60,200810,,,A*45
$GPRMC,170450.000,A,3341.4373,N,11602.7107,W,56.37,106.40,200810,,,A*47
$GPRMC,170453.000,A,3341.4247,N,11602.6567,W,54.92,106.30,200810,,,A*4B
$GPRMC,170456.000,A,3341.4124,N,11602.6036,W,54.92,105.90,200810,,,A*40
$GPRMC,170459.000,A,3341.3948,N,11602.5505,W,55.89,108.40,200810,,,A*47
$GPRMC,170502.000,A,3341.3793,N,11602.4979,W,55.89,108.10,200810,,,A*43
$GPRMC,170505.000,A,3341.3669,N,11602.4458,W,56.37,106.20,200810,,,A*45
$GPRMC,170508.000,A,3341.3551,N,11602.3917,W,57.83,106.20,200810,,,A*4F
$GPRMC,170511.000,A,3341.3424,N,11602.3345,W,59.78,105.10,200810,,,A*43
$GPRMC,170514.000,A,3341.3316,N,11602.2772,W,59.78,104.00,200810,,,A*41
$GPRMC,170517.000,A,3341.3120,N,11602.2161,W,62.69,106.60,200810,,,A*4D
$GPRMC,170520.000,A,3341.2960,N,11602.1554,W,62.69,107.10,200810,,,A*43
$GPRMC,170523.000,A,3341.2806,N,11602.0960,W,62.21,107.00,200810,,,A*46
$GPRMC,170526.000,A,3341.2650,N,11602.0365,W,63.18,106.90,200810,,,A*42
$GPRMC,170529.000,A,3341.2475,N,11601.9764,W,62.69,110.00,200810,,,A*4E
$GPRMC,170532.000,A,3341.2334,N,11601.9150,W,64.15,107.10,200810,,,A*4D
$GPRMC,170535.000,A,3341.2178,N,11601.8535,W,64.15,107.10,200810,,,A*46
$GPRMC,170538.000,A,3341.2009,N,11601.7932,W,64.64,107.70,200810,,,A*48
$GPRMC,170541.000,A,3341.1856,N,11601.7317,W,64.64,106.50,200810,,,A*49
$GPRMC,170544.000,A,3341.1693,N,11601.6704,W,65.12,107.60,200810,,,A*4E
$GPRMC,170547.000,A,3341.1549,N,11601.6070,W,66.09,106.10,200810,,,A*42
$GPRMC,170550.000,A,3341.1415,N,11601.5422,W,66.09,105.60,200810,,,A*48
$GPRMC,170553.000,A,3341.1256,N,11601.4808,W,65.12,106.20,200810,,,A*41
$GPRMC,170556.000,A,3341.1112,N,11601.4190,W,63.66,105.50,200810,,,A*4E
$GPRMC,170559.000,A,3341.0954,N,11601.3617,W,60.26,106.70,200810,,,A*43
$GPRMC,170602.000,A,3341.0822,N,11601.3081,W,58.80,105.40,200810,,,A*40
$GPRMC,170605.000,A,3341.0718,N,11601.2510,W,59.29,105.00,200810,,,A*4B
$GPRMC,170609.000,A,3341.0528,N,11601.1687,W,64.64,104.60,200810,,,A*48
$GPRMC,170613.000,A,3341.0379,N,11601.1063,W,64.64,105.40,200810,,,A*4E
$GPRMC,170616.000,A,3341.0195,N,11601.0229,W,66.58,104.10,200810,,,A*4F
$GPRMC,170619.000,A,3341.0053,N,11600.9580,W,66.58,104.70,200810,,,A*41
$GPRMC,170622.000,A,3340.9884,N,11600.8964,W,66.09,106.60,200810,,,A*43
$GPRMC,170625.000,A,3340.9717,N,11600.8336,W,66.58,107.50,200810,,,A*4A
$GPRMC,170628.000,A,3340.9581,N,11600.7694,W,67.55,105.50,200810,,,A*46
$GPRMC,170631.000,A,3340.9449,N,11600.7007,W,69.01,104.70,200810,,,A*4B
$GPRMC,170634.000,A,3340.9303,N,11600.6345,W,69.50,104.70,200810,,,A*47
$GPRMC,170637.000,A,3340.9193,N,11600.5630,W,70.95,102.50,200810,,,A*4E
$GPRMC,170640.000,A,3340.9035,N,11600.4964,W,69.01,104.60,200810,,,A*4C
$GPRMC,170643.000,A,3340.8868,N,11600.4288,W,69.50,105.00,200810,,,A*44
$GPRMC,170646.000,A,3340.8723,N,11600.3650,W,68.52,104.50,200810,,,A*40
$GPRMC,170649.000,A,3340.8572,N,11600.2986,W,68.04,105.00,200810,,,A*4B
$GPRMC,170652.000,A,3340.8448,N,11600.2322,W,67.55,104.40,200810,,,A*43
$GPRMC,170655.000,A,3340.8355,N,11600.1655,W,68.04,102.70,200810,,,A*47
$GPRMC,170658.000,A,3340.8192,N,11600.1031,W,66.58,105.80,200810,,,A*48
$GPRMC,170701.000,A,3340.8025,N,11600.0374,W,68.52,105.40,200810,,,A*43
$GPRMC,170704.000,A,3340.7867,N,11559.9734,W,68.52,106.50,200810,,,A*43
$GPRMC,170707.000,A,3340.7711,N,11559.9059,W,69.98,106.20,200810,,,A*42
$GPRMC,170710.000,A,3340.7577,N,11559.8371,W,70.95,104.00,200810,,,A*4B
$GPRMC,170713.000,A,3340.7457,N,11559.7703,W,69.98,101.30,200810,,,A*46
$GPRMC,170716.000,A,3340.7381,N,11559.7035,W,69.01,97.60,200810,,,A*76
$GPRMC,170719.000,A,3340.7378,N,11559.6333,W,69.01,91.10,200810,,,A*7A
$GPRMC,170722.000,A,3340.7406,N,11559.5651,W,68.04,88.10,200810,,,A*72
$GPRMC,170725.000,A,3340.7414,N,11559.4976,W,67.55,88.40,200810,,,A*73
$GPRMC,170728.000,A,3340.7448,N,11559.4296,W,68.52,88.00,200810,,,A*7E
$GPRMC,170731.000,A,3340.7475,N,11559.3605,W,69.01,87.40,200810,,,A*7D
$GPRMC,170734.000,A,3340.7524,N,11559.2912,W,69.50,86.40,200810,,,A*70
$GPRMC,170737.000,A,3340.7581,N,11559.2199,W,69.98,85.10,200810,,,A*75
$GPRMC,170740.000,A,3340.7634,N,11559.1498,W,69.98,85.90,200810,,,A*77
$GPRMC,170743.000,A,3340.7656,N,11559.0827,W,67.55,88.00,200810,,,A*72
$GPRMC,170746.000,A,3340.7664,N,11559.0191,W,66.58,88.60,200810,,,A*78
$GPRMC,170749.000,A,3340.7687,N,11558.9522,W,66.58,87.50,200810,,,A*72
$GPRMC,170752.000,A,3340.7716,N,11558.8843,W,66.58,87.60,200810,,,A*79
$GPRMC,170755.000,A,3340.7753,N,11558.8137,W,68.52,87.40,200810,,,A*73
$GPRMC,170758.000,A,3340.7779,N,11558.7487,W,66.58,87.40,200810,,,A*73
$GPRMC,170801.000,A,3340.7834,N,11558.6845,W,66.09,86.10,200810,,,A*75
$GPRMC,170804.000,A,3340.7839,N,11558.6177,W,66.58,88.30,200810,,,A*7D
$GPRMC,170807.000,A,3340.7875,N,11558.5496,W,68.04,87.30,200810,,,A*77
$GPRMC,170810.000,A,3340.7844,N,11558.4857,W,67.07,91.60,200810,,,A*7D
$GPRMC,170813.000,A,3340.7824,N,11558.4167,W,68.52,93.90,200810,,,A*70
$GPRMC,170816.000,A,3340.7770,N,11558.3473,W,69.01,97.60,200810,,,A*70
$GPRMC,170819.000,A,3340.7679,N,11558.2781,W,69.50,99.00,200810,,,A*74
$GPRMC,170822.000,A,3340.7557,N,11558.2143,W,67.55,101.10,200810,,,A*41
$GPRMC,170825.000,A,3340.7445,N,11558.1457,W,68.52,100.70,200810,,,A*48
$GPRMC,170828.000,A,3340.7330,N,11558.0809,W,67.07,101.30,200810,,,A*4C
$GPRMC,170831.000,A,3340.7185,N,11558.0197,W,65.61,103.70,200810,,,A*42
$GPRMC,170834.000,A,3340.7060,N,11557.9554,W,66.58,102.70,200810,,,A*48
$GPRMC,170837.000,A,3340.6955,N,11557.8890,W,67.07,101.50,200810,,,A*4B
$GPRMC,170840.000,A,3340.6835,N,11557.8226,W,67.55,101.70,200810,,,A*4E
$GPRMC,170843.000,A,3340.6753,N,11557.7545,W,68.04,100.20,200810,,,A*40
$GPRMC,170846.000,A,3340.6663,N,11557.6865,W,68.04,100.10,200810,,,A*4A
$GPRMC,170849.000,A,3340.6529,N,11557.6225,W,66.58,101.70,200810,,,A*46
$GPRMC,170852.000,A,3340.6410,N,11557.5580,W,67.07,102.40,200810,,,A*47
$GPRMC,170855.000,A,3340.6271,N,11557.4930,W,67.07,102.10,200810,,,A*42
$GPRMC,170858.000,A,3340.6160,N,11557.4284,W,66.58,102.10,200810,,,A*43
$GPRMC,170901.000,A,3340.6044,N,11557.3636,W,66.58,101.30,200810,,,A*42
$GPRMC,170904.000,A,3340.5961,N,11557.2964,W,67.55,99.90,200810,,,A*75
$GPRMC,170907.000,A,3340.5843,N,11557.2287,W,68.04,101.30,200810,,,A*40
$GPRMC,170910.000,A,3340.5708,N,11557.1651,W,66.58,102.10,200810,,,A*4C
$GPRMC,170913.000,A,3340.5662,N,11557.0935,W,68.52,98.50,200810,,,A*7C
$GPRMC,170916.000,A,3340.5522,N,11557.0313,W,66.58,101.80,200810,,,A*48
$GPRMC,170919.000,A,3340.5393,N,11556.9665,W,67.07,102.40,200810,,,A*43
$GPRMC,170922.000,A,3340.5303,N,11556.8950,W,68.52,100.20,200810,,,A*41
$GPRMC,170925.000,A,3340.5189,N,11556.8295,W,68.04,100.60,200810,,,A*43
$GPRMC,170928.000,A,3340.5046,N,11556.7653,W,67.55,101.70,200810,,,A*46
$GPRMC,170931.000,A,3340.4945,N,11556.7008,W,67.07,101.00,200810,,,A*4D
$GPRMC,170934.000,A,3340.4835,N,11556.6335,W,67.55,100.80,200810,,,A*4C
$GPRMC,170937.000,A,3340.4755,N,11556.5650,W,68.04,100.00,200810,,,A*40
$GPRMC,170940.000,A,3340.4663,N,11556.4987,W,67.55,99.70,200810,,,A*7D
$GPRMC,170943.000,A,3340.4538,N,11556.4323,W,67.55,101.00,200810,,,A*40
$GPRMC,170946.000,A,3340.4415,N,11556.3661,W,67.07,101.50,200810,,,A*4D
$GPRMC,170949.000,A,3340.4313,N,11556.3008,W,66.58,101.10,200810,,,A*45
$GPRMC,170952.000,A,3340.4188,N,11556.2359,W,66.58,101.40,200810,,,A*4C
$GPRMC,170955.000,A,3340.4052,N,11556.1710,W,67.07,102.20,200810,,,A*49
$GPRMC,170958.000,A,3340.3943,N,11556.1056,W,67.07,101.20,200810,,,A*4C
$GPRMC,171001.000,A,3340.3800,N,11556.0432,W,66.09,102.00,200810,,,A*47
$GPRMC,171004.000,A,3340.3688,N,11555.9779,W,66.58,101.10,200810,,,A*4C
$GPRMC,171007.000,A,3340.3581,N,11555.9138,W,64.15,100.40,200810,,,A*49
$GPRMC,171010.000,A,3340.3455,N,11555.8571,W,59.29,101.70,200810,,,A*4C
$GPRMC,171013.000,A,3340.3395,N,11555.7975,W,58.80,99.90,200810,,,A*7F
$GPRMC,171016.000,A,3340.3321,N,11555.7382,W,59.78,99.10,200810,,,A*79
$GPRMC,171019.000,A,3340.3228,N,11555.6775,W,60.75,100.10,200810,,,A*45
$GPRMC,171022.000,A,3340.3099,N,11555.6161,W,64.15,102.50,200810,,,A*42
$GPRMC,171025.000,A,3340.2998,N,11555.5490,W,67.55,101.40,200810,,,A*41
$GPRMC,171028.000,A,3340.2866,N,11555.4851,W,67.07,102.20,200810,,,A*4E
$GPRMC,171031.000,A,3340.2737,N,11555.4167,W,68.04,102.40,200810,,,A*4B
$GPRMC,171033.000,A,3340.2639,N,11555.3703,W,68.52,102.70,200810,,,A*45
$GPRMC,171037.000,A,3340.2528,N,11555.3033,W,67.55,101.60,200810,,,A*4C
$GPRMC,171040.000,A,3340.2405,N,11555.2184,W,66.58,100.60,200810,,,A*43
$GPRMC,171043.000,A,3340.2276,N,11555.1509,W,67.55,102.00,200810,,,A*48
$GPRMC,171046.000,A,3340.2182,N,11555.0866,W,67.07,101.40,200810,,,A*40
$GPRMC,171049.000,A,3340.2067,N,11555.0168,W,68.52,101.10,200810,,,A*48
$GPRMC,171052.000,A,3340.1974,N,11554.9525,W,67.07,100.70,200810,,,A*47
$GPRMC,171055.000,A,3340.1860,N,11554.8885,W,66.58,101.40,200810,,,A*4B
$GPRMC,171058.000,A,3340.1731,N,11554.8275,W,65.61,103.10,200810,,,A*46
$GPRMC,171101.000,A,3340.1575,N,11554.7666,W,65.12,103.60,200810,,,A*43
$GPRMC,171104.000,A,3340.1502,N,11554.6957,W,67.55,100.70,200810,,,A*49
$GPRMC,171107.000,A,3340.1384,N,11554.6296,W,67.55,101.50,200810,,,A*47
$GPRMC,171110.000,A,3340.1280,N,11554.5623,W,68.04,101.20,200810,,,A*41
$GPRMC,171113.000,A,3340.1121,N,11554.4995,W,67.07,102.90,200810,,,A*4D
$GPRMC,171116.000,A,3340.0992,N,11554.4367,W,66.09,103.30,200810,,,A*4A
$GPRMC,171119.000,A,3340.0870,N,11554.3731,W,65.61,103.00,200810,,,A*46
$GPRMC,171122.000,A,3340.0822,N,11554.2987,W,69.01,99.70,200810,,,A*74
$GPRMC,171125.000,A,3340.0694,N,11554.2348,W,67.07,101.00,200810,,,A*46
$GPRMC,171128.000,A,3340.0575,N,11554.1698,W,67.07,101.90,200810,,,A*45
$GPRMC,171131.000,A,3340.0492,N,11554.1000,W,69.01,100.10,200810,,,A*43
$GPRMC,171134.000,A,3340.0379,N,11554.0344,W,68.52,100.80,200810,,,A*48
$GPRMC,171137.000,A,3340.0249,N,11553.9662,W,69.01,102.10,200810,,,A*4A
$GPRMC,171140.000,A,3340.0131,N,11553.9013,W,67.55,102.00,200810,,,A*48
$GPRMC,171143.000,A,3340.0019,N,11553.8352,W,67.07,101.60,200810,,,A*45
$GPRMC,171146.000,A,3339.9907,N,11553.7704,W,67.07,101.30,200810,,,A*4C
$GPRMC,171149.000,A,3339.9795,N,11553.7036,W,67.07,101.40,200810,,,A*47
$GPRMC,171152.000,A,3339.9680,N,11553.6396,W,66.09,101.80,200810,,,A*43
$GPRMC,171155.000,A,3339.9574,N,11553.5752,W,67.07,101.20,200810,,,A*46
$GPRMC,171158.000,A,3339.9444,N,11553.5092,W,67.55,102.00,200810,,,A*44
$GPRMC,171201.000,A,3339.9330,N,11553.4453,W,66.58,102.40,200810,,,A*4F
$GPRMC,171204.000,A,3339.9233,N,11553.3741,W,68.52,100.90,200810,,,A*44
$GPRMC,171207.000,A,3339.9126,N,11553.3080,W,68.04,99.60,200810,,,A*77
$GPRMC,171210.000,A,3339.9069,N,11553.2404,W,67.55,97.00,200810,,,A*71
$GPRMC,171213.000,A,3339.9021,N,11553.1743,W,66.58,95.10,200810,,,A*72
$GPRMC,171216.000,A,3339.8955,N,11553.1129,W,65.12,94.90,200810,,,A*72
$GPRMC,171219.000,A,3339.8916,N,11553.0449,W,67.55,94.40,200810,,,A*74
$GPRMC,171222.000,A,3339.8872,N,11552.9773,W,67.07,94.50,200810,,,A*7B
$GPRMC,171225.000,A,3339.8819,N,11552.9097,W,67.55,95.00,200810,,,A*7F
$GPRMC,171228.000,A,3339.8792,N,11552.8431,W,66.09,94.20,200810,,,A*7C
$GPRMC,171231.000,A,3339.8746,N,11552.7772,W,66.58,94.40,200810,,,A*74
$GPRMC,171234.000,A,3339.8703,N,11552.7097,W,67.55,94.90,200810,,,A*7D
$GPRMC,171237.000,A,3339.8642,N,11552.6433,W,67.07,95.20,200810,,,A*7C
$GPRMC,171240.000,A,3339.8605,N,11552.5777,W,67.55,94.70,200810,,,A*7C
$GPRMC,171243.000,A,3339.8578,N,11552.5112,W,67.07,93.80,200810,,,A*7C
$GPRMC,171246.000,A,3339.8525,N,11552.4430,W,67.55,94.80,200810,,,A*75
$GPRMC,171249.000,A,3339.8486,N,11552.3768,W,67.55,94.40,200810,,,A*77
$GPRMC,171252.000,A,3339.8431,N,11552.3088,W,67.55,94.30,200810,,,A*7F
$GPRMC,171255.000,A,3339.8390,N,11552.2390,W,68.52,94.50,200810,,,A*71
$GPRMC,171258.000,A,3339.8334,N,11552.1724,W,67.07,94.90,200810,,,A*79
$GPRMC,171301.000,A,3339.8293,N,11552.1071,W,67.55,94.40,200810,,,A*75
$GPRMC,171304.000,A,3339.8259,N,11552.0393,W,68.04,94.00,200810,,,A*77
$GPRMC,171307.000,A,3339.8201,N,11551.9718,W,68.04,95.40,200810,,,A*71
$GPRMC,171310.000,A,3339.8163,N,11551.9049,W,67.55,94.50,200810,,,A*78
$GPRMC,171313.000,A,3339.8119,N,11551.8385,W,67.55,94.60,200810,,,A*77
$GPRMC,171316.000,A,3339.8069,N,11551.7734,W,67.07,94.60,200810,,,A*72
$GPRMC,171319.000,A,3339.8037,N,11551.7043,W,68.04,94.00,200810,,,A*7B
$GPRMC,171322.000,A,3339.7994,N,11551.6376,W,67.55,94.10,200810,,,A*72
$GPRMC,171325.000,A,3339.7936,N,11551.5697,W,67.55,94.80,200810,,,A*7D
$GPRMC,171328.000,A,3339.7884,N,11551.5025,W,67.55,94.80,200810,,,A*77
$GPRMC,171331.000,A,3339.7848,N,11551.4366,W,67.07,94.50,200810,,,A*70
$GPRMC,171335.000,A,3339.7800,N,11551.3620,W,67.56,94.60,200810,,,A*7F
$GPRMC,171338.000,A,3339.7761,N,11551.2950,W,67.56,94.60,200810,,,A*73
$GPRMC,171341.000,A,3339.7716,N,11551.2342,W,67.55,94.70,200810,,,A*76
$GPRMC,171344.000,A,3339.7653,N,11551.1475,W,66.58,94.80,200810,,,A*70
$GPRMC,171347.000,A,3339.7607,N,11551.0800,W,67.07,94.30,200810,,,A*7D
$GPRMC,171350.000,A,3339.7562,N,11551.0146,W,67.07,94.20,200810,,,A*71
$GPRMC,171353.000,A,3339.7519,N,11550.9463,W,67.55,94.00,200810,,,A*71
$GPRMC,171356.000,A,3339.7489,N,11550.8770,W,68.52,93.90,200810,,,A*7A
$GPRMC,171359.000,A,3339.7457,N,11550.8117,W,67.07,94.10,200810,,,A*71
$GPRMC,171402.000,A,3339.7393,N,11550.7456,W,67.07,95.40,200810,,,A*7C
$GPRMC,171405.000,A,3339.7339,N,11550.6775,W,68.04,94.90,200810,,,A*78
$GPRMC,171408.000,A,3339.7290,N,11550.6106,W,67.55,94.90,200810,,,A*7E
$GPRMC,171411.000,A,3339.7254,N,11550.5442,W,67.07,94.40,200810,,,A*72
$GPRMC,171414.000,A,3339.7212,N,11550.4754,W,68.52,94.60,200810,,,A*7D
$GPRMC,171417.000,A,3339.7165,N,11550.4099,W,66.58,94.70,200810,,,A*7E
$GPRMC,171420.000,A,3339.7123,N,11550.3448,W,66.09,94.40,200810,,,A*70
$GPRMC,171423.000,A,3339.7082,N,11550.2755,W,68.04,94.30,200810,,,A*73
$GPRMC,171426.000,A,3339.7028,N,11550.2091,W,68.04,94.90,200810,,,A*73
$GPRMC,171429.000,A,3339.6994,N,11550.1422,W,67.55,94.10,200810,,,A*7F
$GPRMC,171432.000,A,3339.6934,N,11550.0747,W,67.55,95.00,200810,,,A*7E
$GPRMC,171435.000,A,3339.6897,N,11550.0107,W,66.09,94.90,200810,,,A*73
$GPRMC,171438.000,A,3339.6840,N,11549.9429,W,67.55,95.10,200810,,,A*7D
$GPRMC,171441.000,A,3339.6800,N,11549.8758,W,67.07,94.70,200810,,,A*73
$GPRMC,171444.000,A,3339.6756,N,11549.8084,W,68.04,94.70,200810,,,A*70
$GPRMC,171447.000,A,3339.6709,N,11549.7427,W,66.58,94.80,200810,,,A*73
$GPRMC,171450.000,A,3339.6682,N,11549.6754,W,67.55,94.70,200810,,,A*72
$GPRMC,171453.000,A,3339.6616,N,11549.6086,W,67.55,95.80,200810,,,A*7A
$GPRMC,171456.000,A,3339.6563,N,11549.5420,W,67.07,95.10,200810,,,A*7B
$GPRMC,171459.000,A,3339.6518,N,11549.4736,W,68.04,94.90,200810,,,A*78
$GPRMC,171502.000,A,3339.6499,N,11549.4056,W,67.55,94.20,200810,,,A*7E
$GPRMC,171505.000,A,3339.6458,N,11549.3378,W,67.55,94.70,200810,,,A*79
$GPRMC,171508.000,A,3339.6390,N,11549.2728,W,66.09,96.30,200810,,,A*79
$GPRMC,171511.000,A,3339.6327,N,11549.2089,W,65.61,95.70,200810,,,A*7B
$GPRMC,171514.000,A,3339.6301,N,11549.1405,W,67.55,94.10,200810,,,A*7B
$GPRMC,171517.000,A,3339.6265,N,11549.0735,W,67.07,93.80,200810,,,A*73
$GPRMC,171520.000,A,3339.6206,N,11549.0057,W,67.55,95.20,200810,,,A*7A
$GPRMC,171523.000,A,3339.6147,N,11548.9392,W,67.07,95.70,200810,,,A*7F
$GPRMC,171526.000,A,3339.6117,N,11548.8724,W,68.04,93.80,200810,,,A*72
$GPRMC,171529.000,A,3339.6058,N,11548.8065,W,67.55,95.10,200810,,,A*71
$GPRMC,171532.000,A,3339.6053,N,11548.7379,W,67.55,93.80,200810,,,A*7E
$GPRMC,171535.000,A,3339.5989,N,11548.6709,W,67.07,95.20,200810,,,A*7D
$GPRMC,171538.000,A,3339.5938,N,11548.6088,W,64.15,94.20,200810,,,A*75
$GPRMC,171541.000,A,3339.5946,N,11548.5412,W,67.07,91.20,200810,,,A*73
$GPRMC,171544.000,A,3339.5963,N,11548.4719,W,68.04,89.50,200810,,,A*7A
$GPRMC,171547.000,A,3339.5974,N,11548.4024,W,68.04,90.00,200810,,,A*7B
$GPRMC,171550.000,A,3339.5977,N,11548.3349,W,67.55,89.90,200810,,,A*7B
$GPRMC,171553.000,A,3339.5987,N,11548.2668,W,68.04,89.70,200810,,,A*75
$GPRMC,171556.000,A,3339.5980,N,11548.1995,W,67.07,89.90,200810,,,A*7B
$GPRMC,171559.000,A,3339.5982,N,11548.1323,W,67.07,89.90,200810,,,A*71
$GPRMC,171602.000,A,3339.5999,N,11548.0641,W,67.55,89.10,200810,,,A*79
$GPRMC,171605.000,A,3339.5976,N,11547.9983,W,66.58,90.90,200810,,,A*74
$GPRMC,171608.000,A,3339.5969,N,11547.9309,W,67.07,90.60,200810,,,A*7B
$GPRMC,171611.000,A,3339.5951,N,11547.8655,W,66.58,91.20,200810,,,A*7B
$GPRMC,171614.000,A,3339.5984,N,11547.7949,W,67.55,88.90,200810,,,A*74
$GPRMC,171617.000,A,3339.5982,N,11547.7274,W,68.04,89.30,200810,,,A*74
$GPRMC,171620.000,A,3339.5973,N,11547.6608,W,67.07,89.70,200810,,,A*78
$GPRMC,171623.000,A,3339.5978,N,11547.5955,W,66.09,89.90,200810,,,A*75
$GPRMC,171626.000,A,3339.5955,N,11547.5290,W,66.09,91.00,200810,,,A*7D
$GPRMC,171629.000,A,3339.5971,N,11547.4612,W,67.07,89.30,200810,,,A*7E
$GPRMC,171632.000,A,3339.5976,N,11547.3940,W,68.04,89.40,200810,,,A*77
$GPRMC,171635.000,A,3339.5981,N,11547.3243,W,67.07,89.70,200810,,,A*7F
$GPRMC,171638.000,A,3339.5986,N,11547.2568,W,67.55,89.40,200810,,,A*7E
$GPRMC,171641.000,A,3339.5978,N,11547.1910,W,67.07,90.20,200810,,,A*78
$GPRMC,171644.000,A,3339.5956,N,11547.1266,W,66.09,91.30,200810,,,A*74
$GPRMC,171647.000,A,3339.5941,N,11547.0579,W,67.55,91.00,200810,,,A*72
$GPRMC,171650.000,A,3339.5966,N,11546.9921,W,67.55,89.20,200810,,,A*73
$GPRMC,171653.000,A,3339.5958,N,11546.9234,W,68.04,90.00,200810,,,A*73
$GPRMC,171656.000,A,3339.5969,N,11546.8562,W,67.07,89.80,200810,,,A*7D
$GPRMC,171659.000,A,3339.5957,N,11546.7878,W,67.55,90.50,200810,,,A*74
$GPRMC,171701.000,A,3339.5948,N,11546.7471,W,65.12,90.80,200810,,,A*7F
$GPRMC,171705.000,A,3339.5929,N,11546.6749,W,65.61,91.20,200810,,,A*7A
$GPRMC,171708.000,A,3339.5919,N,11546.6100,W,65.61,91.20,200810,,,A*7F
$GPRMC,171711.000,A,3339.5918,N,11546.5429,W,66.58,90.60,200810,,,A*77
$GPRMC,171714.000,A,3339.5923,N,11546.4759,W,66.58,90.10,200810,,,A*78
$GPRMC,171717.000,A,3339.5917,N,11546.4157,W,66.58,90.10,200810,,,A*74
$GPRMC,171720.000,A,3339.5938,N,11546.3271,W,65.61,90.20,200810,,,A*77
$GPRMC,171723.000,A,3339.5890,N,11546.2632,W,65.12,92.70,200810,,,A*76
$GPRMC,171726.000,A,3339.5887,N,11546.1976,W,65.61,91.20,200810,,,A*7B
$GPRMC,171729.000,A,3339.5941,N,11546.1290,W,67.07,89.20,200810,,,A*77
$GPRMC,171732.000,A,3339.5943,N,11546.0629,W,66.09,90.40,200810,,,A*79
$GPRMC,171735.000,A,3339.5928,N,11545.9967,W,66.09,91.00,200810,,,A*79
$GPRMC,171738.000,A,3339.5944,N,11545.9296,W,67.07,89.50,200810,,,A*78
$GPRMC,171741.000,A,3339.5969,N,11545.8610,W,68.04,88.30,200810,,,A*79
$GPRMC,171744.000,A,3339.5923,N,11545.7970,W,66.09,90.20,200810,,,A*7F
$GPRMC,171747.000,A,3339.5896,N,11545.7300,W,67.07,90.80,200810,,,A*7B
$GPRMC,171750.000,A,3339.5865,N,11545.6666,W,64.64,92.20,200810,,,A*7B
$GPRMC,171753.000,A,3339.5875,N,11545.6001,W,65.12,90.50,200810,,,A*7B
$GPRMC,171756.000,A,3339.5876,N,11545.5313,W,67.07,90.10,200810,,,A*7C
$GPRMC,171759.000,A,3339.5858,N,11545.4684,W,65.12,91.20,200810,,,A*71
$GPRMC,171802.000,A,3339.5888,N,11545.4000,W,67.07,89.70,200810,,,A*7D
$GPRMC,171805.000,A,3339.5876,N,11545.3337,W,66.58,90.90,200810,,,A*76
$GPRMC,171808.000,A,3339.5878,N,11545.2673,W,66.58,90.80,200810,,,A*70
$GPRMC,171811.000,A,3339.5913,N,11545.1994,W,66.58,89.30,200810,,,A*72
$GPRMC,171814.000,A,3339.5934,N,11545.1305,W,67.55,89.40,200810,,,A*7B
$GPRMC,171817.000,A,3339.5930,N,11545.0644,W,66.58,89.60,200810,,,A*73
$GPRMC,171820.000,A,3339.5855,N,11545.0025,W,65.12,93.10,200810,,,A*75
$GPRMC,171823.000,A,3339.5854,N,11544.9374,W,65.12,91.60,200810,,,A*7D
$GPRMC,171826.000,A,3339.5896,N,11544.8680,W,67.07,89.50,200810,,,A*75
$GPRMC,171829.000,A,3339.5903,N,11544.7991,W,67.07,89.90,200810,,,A*7B
$GPRMC,171832.000,A,3339.5908,N,11544.7322,W,66.09,89.60,200810,,,A*78
$GPRMC,171835.000,A,3339.5890,N,11544.6665,W,66.09,90.50,200810,,,A*73
$GPRMC,171838.000,A,3339.5857,N,11544.6025,W,66.09,92.00,200810,,,A*70
$GPRMC,171841.000,A,3339.5875,N,11544.5331,W,66.58,90.00,200810,,,A*7D
$GPRMC,171844.000,A,3339.5877,N,11544.4675,W,66.09,89.80,200810,,,A*7A
$GPRMC,171847.000,A,3339.5875,N,11544.4023,W,66.09,90.30,200810,,,A*7D
$GPRMC,171850.000,A,3339.5889,N,11544.3340,W,67.07,89.60,200810,,,A*7B
$GPRMC,171853.000,A,3339.5886,N,11544.2680,W,66.58,90.10,200810,,,A*7B
$GPRMC,171856.000,A,3339.5885,N,11544.2021,W,66.58,90.00,200810,,,A*71
$GPRMC,171859.000,A,3339.5892,N,11544.1364,W,66.09,89.70,200810,,,A*72
$GPRMC,171902.000,A,3339.5869,N,11544.0717,W,66.09,90.70,200810,,,A*70
$GPRMC,171905.000,A,3339.5854,N,11544.0047,W,66.58,91.10,200810,,,A*78
$GPRMC,171908.000,A,3339.5868,N,11543.9388,W,66.09,90.10,200810,,,A*71
$GPRMC,171911.000,A,3339.5857,N,11543.8735,W,67.07,90.50,200810,,,A*7D
$GPRMC,171914.000,A,3339.5867,N,11543.8066,W,66.58,89.60,200810,,,A*7A
$GPRMC,171917.000,A,3339.5873,N,11543.7386,W,66.58,90.00,200810,,,A*70
$GPRMC,171920.000,A,3339.5876,N,11543.6736,W,66.09,89.90,200810,,,A*7A
$GPRMC,171923.000,A,3339.5866,N,11543.6076,W,66.09,90.20,200810,,,A*78
$GPRMC,171926.000,A,3339.5836,N,11543.5439,W,65.12,90.70,200810,,,A*78
$GPRMC,171929.000,A,3339.5844,N,11543.4787,W,65.12,89.80,200810,,,A*72
$GPRMC,171932.000,A,3339.5870,N,11543.4125,W,66.09,87.00,200810,,,A*7E
$GPRMC,171935.000,A,3339.5929,N,11543.3445,W,67.07,85.50,200810,,,A*78
$GPRMC,171938.000,A,3339.6001,N,11543.2754,W,67.55,84.00,200810,,,A*74
$GPRMC,171941.000,A,3339.6075,N,11543.2088,W,67.07,82.60,200810,,,A*78
$GPRMC,171944.000,A,3339.6141,N,11543.1444,W,66.58,82.60,200810,,,A*77
$GPRMC,171947.000,A,3339.6223,N,11543.0809,W,65.61,80.60,200810,,,A*7C
$GPRMC,171950.000,A,3339.6350,N,11543.0136,W,67.07,78.70,200810,,,A*7E
$GPRMC,171953.000,A,3339.6446,N,11542.9467,W,67.07,79.20,200810,,,A*70
$GPRMC,171956.000,A,3339.6537,N,11542.8818,W,66.58,79.90,200810,,,A*77
$GPRMC,171959.000,A,3339.6635,N,11542.8187,W,65.12,79.70,200810,,,A*75
$GPRMC,172002.000,A,3339.6707,N,11542.7554,W,65.61,80.50,200810,,,A*74
$GPRMC,172005.000,A,3339.6842,N,11542.6864,W,67.55,78.50,200810,,,A*70
$GPRMC,172008.000,A,3339.6953,N,11542.6244,W,65.61,78.30,200810,,,A*77
$GPRMC,172011.000,A,3339.7050,N,11542.5592,W,66.58,79.50,200810,,,A*75
$GPRMC,172014.000,A,3339.7150,N,11542.4922,W,67.07,79.20,200810,,,A*7B
$GPRMC,172017.000,A,3339.7243,N,11542.4279,W,65.61,79.10,200810,,,A*7D
$GPRMC,172020.000,A,3339.7371,N,11542.3625,W,66.58,78.50,200810,,,A*7F
$GPRMC,172023.000,A,3339.7465,N,11542.2990,W,65.61,80.00,200810,,,A*75
$GPRMC,172026.000,A,3339.7563,N,11542.2335,W,66.58,79.40,200810,,,A*79
$GPRMC,172029.000,A,3339.7708,N,11542.1658,W,68.04,77.40,200810,,,A*7D
$GPRMC,172032.000,A,3339.7834,N,11542.0993,W,67.55,77.90,200810,,,A*78
$GPRMC,172035.000,A,3339.7914,N,11542.0340,W,67.07,80.00,200810,,,A*7E
$GPRMC,172038.000,A,3339.8007,N,11541.9717,W,65.12,79.70,200810,,,A*7C
$GPRMC,172041.000,A,3339.8099,N,11541.9046,W,66.09,80.30,200810,,,A*7D
$GPRMC,172044.000,A,3339.8224,N,11541.8385,W,66.58,78.90,200810,,,A*78
$GPRMC,172047.000,A,3339.8330,N,11541.7738,W,66.58,79.00,200810,,,A*7A
$GPRMC,172050.000,A,3339.8438,N,11541.7090,W,67.07,79.10,200810,,,A*7C
$GPRMC,172053.000,A,3339.8550,N,11541.6443,W,67.07,78.40,200810,,,A*7F
$GPRMC,172056.000,A,3339.8648,N,11541.5790,W,66.09,79.30,200810,,,A*77
$GPRMC,172059.000,A,3339.8744,N,11541.5149,W,65.61,79.00,200810,,,A*79
$GPRMC,172102.000,A,3339.8830,N,11541.4511,W,66.09,79.60,200810,,,A*79
$GPRMC,172105.000,A,3339.8919,N,11541.3875,W,65.61,79.70,200810,,,A*70
$GPRMC,172108.000,A,3339.9006,N,11541.3230,W,66.09,79.90,200810,,,A*73
$GPRMC,172111.000,A,3339.9136,N,11541.2550,W,67.55,79.50,200810,,,A*7D
$GPRMC,172114.000,A,3339.9252,N,11541.1890,W,68.04,78.10,200810,,,A*75
$GPRMC,172117.000,A,3339.9346,N,11541.1245,W,66.58,79.40,200810,,,A*73
$GPRMC,172120.000,A,3339.9446,N,11541.0584,W,67.55,80.30,200810,,,A*76
$GPRMC,172123.000,A,3339.9502,N,11540.9941,W,66.58,83.00,200810,,,A*75
$GPRMC,172126.000,A,3339.9564,N,11540.9252,W,69.01,84.30,200810,,,A*7E
$GPRMC,172129.000,A,3339.9635,N,11540.8557,W,68.04,84.40,200810,,,A*76
$GPRMC,172132.000,A,3339.9681,N,11540.7901,W,66.58,84.30,200810,,,A*73
$GPRMC,172135.000,A,3339.9725,N,11540.7238,W,67.07,85.40,200810,,,A*77
$GPRMC,172138.000,A,3339.9785,N,11540.6531,W,68.52,84.10,200810,,,A*74
$GPRMC,172141.000,A,3339.9850,N,11540.5863,W,67.07,84.20,200810,,,A*78
$GPRMC,172144.000,A,3339.9898,N,11540.5213,W,66.58,84.90,200810,,,A*74
$GPRMC,172147.000,A,3339.9930,N,11540.4551,W,67.07,85.00,200810,,,A*77
$GPRMC,172150.000,A,3339.9979,N,11540.3894,W,67.07,84.20,200810,,,A*7C
$GPRMC,172153.000,A,3340.0032,N,11540.3227,W,67.07,85.10,200810,,,A*7E
$GPRMC,172156.000,A,3340.0093,N,11540.2539,W,67.07,84.80,200810,,,A*71
$GPRMC,172159.000,A,3340.0135,N,11540.1883,W,66.58,84.40,200810,,,A*7B
$GPRMC,172202.000,A,3340.0172,N,11540.1238,W,65.61,85.20,200810,,,A*71
$GPRMC,172205.000,A,3340.0229,N,11540.0556,W,67.55,84.90,200810,,,A*7A
$GPRMC,172208.000,A,3340.0266,N,11539.9884,W,67.07,84.90,200810,,,A*7E
$GPRMC,172211.000,A,3340.0317,N,11539.9226,W,66.58,84.70,200810,,,A*76
$GPRMC,172214.000,A,3340.0365,N,11539.8556,W,66.58,85.00,200810,,,A*71
