NMEA Sentence Code,UTC Time,Status,Latitude,Latitude Direction,Longitude,Longitude Direction,Speed (knots),Track Angle (degrees true),Date,MagneticVariation,Magnetic Variation Direction,[FAA Mode]-Optional,Checksum
$GPRMC,171312.732,A,3246.4429,N,11539.8940,W,57.37,269.97,120210,,,A*4A
$GPRMC,171315.722,A,3246.4428,N,11539.9502,W,57.37,270.19,120210,,,A*48
$GPRMC,171318.812,A,3246.4432,N,11540.0084,W,57.41,270.42,120210,,,A*41
$GPRMC,171321.802,A,3246.4434,N,11540.0648,W,57.38,270.02,120210,,,A*40
$GPRMC,171324.792,A,3246.4432,N,11540.1209,W,57.39,269.94,120210,,,A*43
$GPRMC,171327.782,A,3246.4434,N,11540.1776,W,57.47,270.10,120210,,,A*47
$GPRMC,171330.772,A,3246.4431,N,11540.2344,W,57.56,269.73,120210,,,A*40
$GPRMC,171333.762,A,3246.4431,N,11540.2909,W,57.44,270.02,120210,,,A*4C
$GPRMC,171336.752,A,3246.4432,N,11540.3477,W,57.43,270.02,120210,,,A*4B
$GPRMC,171339.742,A,3246.4433,N,11540.4041,W,57.54,270.07,120210,,,A*41
$GPRMC,171342.733,A,3246.4434,N,11540.4607,W,57.51,270.10,120210,,,A*4B
$GPRMC,171345.723,A,3246.4437,N,11540.5171,W,57.36,270.41,120210,,,A*4C
$GPRMC,171348.812,A,3246.4440,N,11540.5756,W,57.27,270.06,120210,,,A*4C
$GPRMC,171351.803,A,3246.4439,N,11540.6324,W,57.43,270.14,120210,,,A*49
$GPRMC,171354.793,A,3246.4443,N,11540.6893,W,57.56,270.33,120210,,,A*41
$GPRMC,171357.783,A,3246.4444,N,11540.7460,W,57.50,270.02,120210,,,A*41
$GPRMC,171400.773,A,3246.4446,N,11540.8029,W,57.45,270.21,120210,,,A*4A
$GPRMC,171403.763,A,3246.4447,N,11540.8593,W,57.57,270.06,120210,,,A*4B
$GPRMC,171406.753,A,3246.4448,N,11540.9158,W,57.46,270.23,120210,,,A*47
$GPRMC,171409.743,A,3246.4447,N,11540.9721,W,57.49,269.91,120210,,,A*40
$GPRMC,171412.733,A,3246.4446,N,11541.0288,W,57.41,270.14,120210,,,A*4F
$GPRMC,171415.723,A,3246.4447,N,11541.0856,W,57.41,270.14,120210,,,A*41
$GPRMC,171418.813,A,3246.4447,N,11541.1439,W,57.51,270.17,120210,,,A*46
$GPRMC,171421.803,A,3246.4446,N,11541.2003,W,57.39,269.92,120210,,,A*49
$GPRMC,171424.793,A,3246.4447,N,11541.2571,W,57.65,270.22,120210,,,A*41
$GPRMC,171427.783,A,3246.4450,N,11541.3144,W,57.88,270.20,120210,,,A*47
$GPRMC,171430.773,A,3246.4452,N,11541.3716,W,57.99,269.81,120210,,,A*4E
$GPRMC,171433.764,A,3246.4451,N,11541.4286,W,57.63,269.96,120210,,,A*40
$GPRMC,171436.754,A,3246.4450,N,11541.4850,W,57.42,270.25,120210,,,A*45
$GPRMC,171439.744,A,3246.4453,N,11541.5417,W,57.53,270.10,120210,,,A*40
$GPRMC,171442.734,A,3246.4454,N,11541.5984,W,57.49,270.09,120210,,,A*48
$GPRMC,171445.724,A,3246.4454,N,11541.6547,W,57.05,269.97,120210,,,A*49
$GPRMC,171448.814,A,3246.4457,N,11541.7126,W,56.77,270.42,120210,,,A*4D
$GPRMC,171451.804,A,3246.4458,N,11541.7684,W,56.79,270.11,120210,,,A*4C
$GPRMC,171454.794,A,3246.4459,N,11541.8247,W,57.01,269.86,120210,,,A*42
$GPRMC,171457.784,A,3246.4458,N,11541.8809,W,57.12,270.15,120210,,,A*41
$GPRMC,171500.774,A,3246.4457,N,11541.9375,W,57.37,269.81,120210,,,A*41
$GPRMC,171503.764,A,3246.4456,N,11541.9938,W,57.57,269.84,120210,,,A*42
$GPRMC,171506.754,A,3246.4459,N,11542.0506,W,57.93,270.29,120210,,,A*47
$GPRMC,171509.744,A,3246.4463,N,11542.1075,W,57.79,270.32,120210,,,A*4E
$GPRMC,171512.735,A,3246.4464,N,11542.1646,W,57.63,270.39,120210,,,A*43
$GPRMC,171515.725,A,3246.4466,N,11542.2213,W,57.50,270.13,120210,,,A*48
$GPRMC,171518.814,A,3246.4467,N,11542.2798,W,57.43,270.10,120210,,,A*4E
$GPRMC,171521.805,A,3246.4466,N,11542.3365,W,57.45,270.10,120210,,,A*44
$GPRMC,171524.795,A,3246.4466,N,11542.3928,W,57.54,270.19,120210,,,A*4D
$GPRMC,171527.785,A,3246.4467,N,11542.4496,W,57.40,270.14,120210,,,A*49
$GPRMC,171530.775,A,3246.4466,N,11542.5060,W,57.37,269.98,120210,,,A*41
$GPRMC,171533.765,A,3246.4468,N,11542.5627,W,57.60,270.04,120210,,,A*47
$GPRMC,171536.755,A,3246.4469,N,11542.6193,W,57.51,269.89,120210,,,A*44
$GPRMC,171539.745,A,3246.4470,N,11542.6758,W,57.47,270.18,120210,,,A*44
$GPRMC,171542.735,A,3246.4470,N,11542.7322,W,57.53,270.35,120210,,,A*4D
$GPRMC,171545.725,A,3246.4474,N,11542.7886,W,57.37,270.15,120210,,,A*4A
$GPRMC,171548.815,A,3246.4477,N,11542.8471,W,57.43,270.09,120210,,,A*4D
$GPRMC,171551.805,A,3246.4475,N,11542.9037,W,57.36,269.98,120210,,,A*43
$GPRMC,171554.795,A,3246.4475,N,11542.9600,W,57.35,270.15,120210,,,A*4C
$GPRMC,171557.785,A,3246.4476,N,11543.0165,W,57.48,270.11,120210,,,A*4F
$GPRMC,171600.776,A,3246.4479,N,11543.0730,W,57.51,270.17,120210,,,A*45
$GPRMC,171603.766,A,3246.4475,N,11543.1298,W,57.49,269.90,120210,,,A*43
$GPRMC,171606.756,A,3246.4473,N,11543.1863,W,57.37,270.24,120210,,,A*43
$GPRMC,171609.746,A,3246.4474,N,11543.2429,W,57.48,270.06,120210,,,A*43
$GPRMC,171612.736,A,3246.4474,N,11543.2996,W,57.45,269.95,120210,,,A*48
$GPRMC,171615.726,A,3246.4476,N,11543.3562,W,57.38,270.33,120210,,,A*44
$GPRMC,171618.816,A,3246.4479,N,11543.4147,W,57.37,270.13,120210,,,A*43
$GPRMC,171621.806,A,3246.4480,N,11543.4713,W,57.50,270.06,120210,,,A*4C
$GPRMC,171624.796,A,3246.4484,N,11543.5280,W,57.24,270.24,120210,,,A*46
$GPRMC,171627.786,A,3246.4484,N,11543.5845,W,57.31,269.89,120210,,,A*4C
$GPRMC,171630.776,A,3246.4483,N,11543.6412,W,57.45,269.64,120210,,,A*4F
$GPRMC,171633.766,A,3246.4481,N,11543.6980,W,57.40,270.26,120210,,,A*42
$GPRMC,171636.756,A,3246.4482,N,11543.7544,W,57.90,270.12,120210,,,A*48
$GPRMC,171639.746,A,3246.4482,N,11543.8123,W,59.39,269.97,120210,,,A*44
$GPRMC,171642.737,A,3246.4483,N,11543.8707,W,59.40,270.07,120210,,,A*40
$GPRMC,171645.727,A,3246.4486,N,11543.9292,W,59.53,269.99,120210,,,A*46
$GPRMC,171648.816,A,3246.4485,N,11543.9896,W,59.21,270.15,120210,,,A*42
$GPRMC,171651.807,A,3246.4488,N,11544.0479,W,59.26,270.19,120210,,,A*4F
$GPRMC,171654.797,A,3246.4487,N,11544.1064,W,59.15,270.03,120210,,,A*41
$GPRMC,171657.787,A,3246.4491,N,11544.1647,W,59.19,270.09,120210,,,A*45
$GPRMC,171700.777,A,3246.4492,N,11544.2230,W,59.21,270.07,120210,,,A*48
$GPRMC,171703.767,A,3246.4493,N,11544.2812,W,59.22,270.08,120210,,,A*4D
$GPRMC,171706.757,A,3246.4494,N,11544.3392,W,59.21,270.41,120210,,,A*40
$GPRMC,171709.747,A,3246.4497,N,11544.3974,W,59.11,269.99,120210,,,A*41
$GPRMC,171712.737,A,3246.4497,N,11544.4555,W,59.06,269.29,120210,,,A*49
$GPRMC,171715.727,A,3246.4474,N,11544.5136,W,59.20,264.88,120210,,,A*40
$GPRMC,171718.817,A,3246.4407,N,11544.5735,W,59.29,260.07,120210,,,A*4A
$GPRMC,171721.807,A,3246.4307,N,11544.6304,W,59.23,257.45,120210,,,A*4B
$GPRMC,171724.797,A,3246.4201,N,11544.6877,W,59.19,257.08,120210,,,A*40
$GPRMC,171727.787,A,3246.4094,N,11544.7444,W,59.15,258.42,120210,,,A*4C
$GPRMC,171730.778,A,3246.4019,N,11544.8018,W,59.11,263.56,120210,,,A*44
$GPRMC,171733.768,A,3246.3986,N,11544.8597,W,58.97,268.38,120210,,,A*40
$GPRMC,171736.758,A,3246.3980,N,11544.9178,W,59.15,269.82,120210,,,A*4F
$GPRMC,171739.748,A,3246.3978,N,11544.9764,W,59.26,269.99,120210,,,A*47
$GPRMC,171742.738,A,3246.3979,N,11545.0348,W,59.13,269.73,120210,,,A*4D
$GPRMC,171745.728,A,3246.3979,N,11545.0933,W,59.22,270.19,120210,,,A*4B
$GPRMC,171748.818,A,3246.3982,N,11545.1536,W,59.16,269.88,120210,,,A*41
$GPRMC,171751.808,A,3246.3980,N,11545.2117,W,59.04,269.80,120210,,,A*45
$GPRMC,171754.798,A,3246.3982,N,11545.2698,W,59.17,270.18,120210,,,A*4F
$GPRMC,171757.788,A,3246.3984,N,11545.3280,W,59.18,270.09,120210,,,A*48
$GPRMC,171800.778,A,3246.3983,N,11545.3860,W,59.24,269.91,120210,,,A*4F
$GPRMC,171803.768,A,3246.3980,N,11545.4441,W,59.07,269.98,120210,,,A*4E
$GPRMC,171806.758,A,3246.3981,N,11545.5026,W,59.22,270.02,120210,,,A*41
$GPRMC,171809.748,A,3246.3981,N,11545.5608,W,59.30,270.18,120210,,,A*4D
$GPRMC,171812.739,A,3246.3981,N,11545.6189,W,59.18,270.04,120210,,,A*4B
$GPRMC,171815.729,A,3246.3980,N,11545.6770,W,59.15,269.92,120210,,,A*46
$GPRMC,171818.818,A,3246.3977,N,11545.7371,W,58.98,270.03,120210,,,A*4E
$GPRMC,171821.809,A,3246.3979,N,11545.7954,W,58.98,269.90,120210,,,A*45
$GPRMC,171824.799,A,3246.3978,N,11545.8535,W,58.91,269.83,120210,,,A*48
$GPRMC,171827.789,A,3246.3980,N,11545.9114,W,59.01,270.02,120210,,,A*42
$GPRMC,171830.779,A,3246.3980,N,11545.9697,W,59.11,270.13,120210,,,A*46
$GPRMC,171833.769,A,3246.3980,N,11546.0282,W,59.22,270.09,120210,,,A*45
$GPRMC,171836.759,A,3246.3981,N,11546.0865,W,59.12,270.04,120210,,,A*4F
$GPRMC,171839.749,A,3246.3981,N,11546.1445,W,58.71,269.96,120210,,,A*49
$GPRMC,171842.739,A,3246.3982,N,11546.2024,W,58.45,269.72,120210,,,A*4C
$GPRMC,171845.729,A,3246.3978,N,11546.2602,W,58.71,269.99,120210,,,A*4F
$GPRMC,171848.819,A,3246.3978,N,11546.3198,W,59.11,270.22,120210,,,A*44
$GPRMC,171851.809,A,3246.3978,N,11546.3782,W,59.47,269.85,120210,,,A*46
$GPRMC,171854.799,A,3246.3979,N,11546.4372,W,59.79,270.20,120210,,,A*42
$GPRMC,171857.789,A,3246.3982,N,11546.4956,W,59.55,269.87,120210,,,A*43
$GPRMC,171900.779,A,3246.3982,N,11546.5542,W,59.31,269.73,120210,,,A*4E
$GPRMC,171903.770,A,3246.3974,N,11546.6125,W,59.19,268.96,120210,,,A*4B
$GPRMC,171906.760,A,3246.3960,N,11546.6708,W,58.89,267.71,120210,,,A*4D
$GPRMC,171909.750,A,3246.3930,N,11546.7287,W,58.78,265.05,120210,,,A*48
$GPRMC,171912.740,A,3246.3881,N,11546.7862,W,58.91,262.66,120210,,,A*4C
$GPRMC,171915.730,A,3246.3812,N,11546.8437,W,58.88,260.78,120210,,,A*40
$GPRMC,171918.820,A,3246.3720,N,11546.9025,W,58.94,258.71,120210,,,A*44
$GPRMC,171921.810,A,3246.3618,N,11546.9593,W,59.28,256.74,120210,,,A*42
$GPRMC,171924.800,A,3246.3506,N,11547.0163,W,59.31,256.51,120210,,,A*46
$GPRMC,171927.790,A,3246.3391,N,11547.0729,W,59.06,256.52,120210,,,A*44
$GPRMC,171930.780,A,3246.3278,N,11547.1298,W,59.06,256.60,120210,,,A*4A
$GPRMC,171933.770,A,3246.3167,N,11547.1865,W,59.02,257.03,120210,,,A*43
$GPRMC,171936.760,A,3246.3050,N,11547.2429,W,59.13,256.44,120210,,,A*47
$GPRMC,171939.750,A,3246.2936,N,11547.2994,W,59.05,256.48,120210,,,A*43
$GPRMC,171942.741,A,3246.2825,N,11547.3561,W,59.21,256.49,120210,,,A*4C
$GPRMC,171945.731,A,3246.2709,N,11547.4126,W,59.21,256.37,120210,,,A*44
$GPRMC,171948.721,A,3246.2595,N,11547.4692,W,59.35,256.56,120210,,,A*45
$GPRMC,171951.811,A,3246.2476,N,11547.5276,W,59.17,256.45,120210,,,A*40
$GPRMC,171954.801,A,3246.2363,N,11547.5841,W,58.94,256.30,120210,,,A*41
$GPRMC,171957.791,A,3246.2248,N,11547.6407,W,59.10,256.55,120210,,,A*4F
$GPRMC,172000.781,A,3246.2134,N,11547.6975,W,59.04,256.56,120210,,,A*40
$GPRMC,172003.771,A,3246.2019,N,11547.7541,W,59.14,256.32,120210,,,A*4B
$GPRMC,172006.761,A,3246.1905,N,11547.8107,W,59.23,256.39,120210,,,A*4E
$GPRMC,172009.751,A,3246.1788,N,11547.8671,W,59.18,256.36,120210,,,A*48
$GPRMC,172012.741,A,3246.1675,N,11547.9238,W,59.18,256.35,120210,,,A*4B
$GPRMC,172015.731,A,3246.1559,N,11547.9803,W,59.16,256.48,120210,,,A*40
$GPRMC,172018.721,A,3246.1446,N,11548.0370,W,59.11,256.56,120210,,,A*42
$GPRMC,172021.811,A,3246.1327,N,11548.0958,W,59.10,256.39,120210,,,A*4C
$GPRMC,172024.801,A,3246.1215,N,11548.1522,W,59.04,256.61,120210,,,A*40
$GPRMC,172027.791,A,3246.1100,N,11548.2087,W,58.91,256.47,120210,,,A*42
$GPRMC,172030.781,A,3246.0984,N,11548.2652,W,58.84,256.58,120210,,,A*44
$GPRMC,172033.772,A,3246.0871,N,11548.3218,W,59.15,256.68,120210,,,A*41
$GPRMC,172036.762,A,3246.0757,N,11548.3786,W,59.22,256.48,120210,,,A*4A
$GPRMC,172039.752,A,3246.0641,N,11548.4354,W,59.18,256.11,120210,,,A*49
$GPRMC,172042.742,A,3246.0523,N,11548.4922,W,59.20,256.33,120210,,,A*43
$GPRMC,172045.732,A,3246.0410,N,11548.5485,W,59.21,256.81,120210,,,A*4B
$GPRMC,172048.722,A,3246.0295,N,11548.6053,W,59.16,256.39,120210,,,A*47
$GPRMC,172051.812,A,3246.0176,N,11548.6639,W,59.07,256.37,120210,,,A*49
$GPRMC,172054.802,A,3246.0061,N,11548.7204,W,59.16,256.42,120210,,,A*43
$GPRMC,172057.792,A,3245.9945,N,11548.7765,W,59.10,256.39,120210,,,A*4B
$GPRMC,172100.782,A,3245.9829,N,11548.8331,W,59.35,256.56,120210,,,A*46
$GPRMC,172103.772,A,3245.9713,N,11548.8899,W,59.14,256.38,120210,,,A*4E
$GPRMC,172106.762,A,3245.9599,N,11548.9463,W,59.06,257.10,120210,,,A*4A
$GPRMC,172109.752,A,3245.9485,N,11549.0029,W,59.11,256.51,120210,,,A*4A
$GPRMC,172112.743,A,3245.9369,N,11549.0596,W,59.28,256.38,120210,,,A*41
$GPRMC,172115.733,A,3245.9253,N,11549.1161,W,59.18,256.62,120210,,,A*48
$GPRMC,172118.723,A,3245.9142,N,11549.1730,W,59.08,256.66,120210,,,A*40
$GPRMC,172121.813,A,3245.9023,N,11549.2313,W,59.17,256.38,120210,,,A*43
$GPRMC,172124.803,A,3245.8909,N,11549.2880,W,59.06,256.18,120210,,,A*44
$GPRMC,172127.793,A,3245.8794,N,11549.3445,W,59.10,256.54,120210,,,A*40
$GPRMC,172130.783,A,3245.8681,N,11549.4013,W,59.18,256.36,120210,,,A*4E
$GPRMC,172133.773,A,3245.8565,N,11549.4579,W,59.20,256.36,120210,,,A*49
$GPRMC,172136.763,A,3245.8448,N,11549.5146,W,59.06,256.57,120210,,,A*49
$GPRMC,172139.753,A,3245.8332,N,11549.5708,W,59.14,256.52,120210,,,A*45
$GPRMC,172142.743,A,3245.8218,N,11549.6273,W,59.08,256.47,120210,,,A*42
$GPRMC,172145.733,A,3245.8102,N,11549.6834,W,59.05,256.38,120210,,,A*46
$GPRMC,172148.723,A,3245.7989,N,11549.7400,W,59.11,256.17,120210,,,A*4C
$GPRMC,172151.813,A,3245.7862,N,11549.7982,W,59.14,255.27,120210,,,A*4E
$GPRMC,172154.803,A,3245.7739,N,11549.8547,W,59.39,255.98,120210,,,A*4A
$GPRMC,172157.793,A,3245.7624,N,11549.9115,W,59.19,256.43,120210,,,A*47
$GPRMC,172200.783,A,3245.7509,N,11549.9684,W,59.07,256.29,120210,,,A*47
$GPRMC,172203.774,A,3245.7395,N,11550.0249,W,59.04,256.38,120210,,,A*48
$GPRMC,172206.764,A,3245.7280,N,11550.0815,W,58.96,256.48,120210,,,A*47
$GPRMC,172209.754,A,3245.7164,N,11550.1380,W,58.89,256.26,120210,,,A*42
$GPRMC,172212.744,A,3245.7048,N,11550.1939,W,58.87,256.39,120210,,,A*4E
$GPRMC,172215.734,A,3245.6932,N,11550.2503,W,58.98,256.56,120210,,,A*4A
$GPRMC,172218.724,A,3245.6819,N,11550.3066,W,58.98,256.41,120210,,,A*4F
$GPRMC,172221.814,A,3245.6703,N,11550.3652,W,59.12,256.61,120210,,,A*4D
$GPRMC,172224.804,A,3245.6590,N,11550.4220,W,59.11,257.09,120210,,,A*4B
$GPRMC,172227.794,A,3245.6485,N,11550.4789,W,59.06,258.04,120210,,,A*49
$GPRMC,172230.784,A,3245.6390,N,11550.5358,W,58.92,258.91,120210,,,A*44
$GPRMC,172233.774,A,3245.6298,N,11550.5927,W,58.83,259.40,120210,,,A*4E
$GPRMC,172236.764,A,3245.6208,N,11550.6502,W,59.18,260.07,120210,,,A*41
$GPRMC,172239.754,A,3245.6120,N,11550.7077,W,59.23,259.56,120210,,,A*44
$GPRMC,172242.745,A,3245.6034,N,11550.7653,W,59.11,260.42,120210,,,A*42
$GPRMC,172245.735,A,3245.5955,N,11550.8226,W,59.14,260.45,120210,,,A*44
$GPRMC,172248.725,A,3245.5869,N,11550.8798,W,59.37,259.51,120210,,,A*48
$GPRMC,172251.814,A,3245.5779,N,11550.9393,W,59.14,259.40,120210,,,A*4C
$GPRMC,172254.805,A,3245.5688,N,11550.9963,W,59.15,259.31,120210,,,A*44
$GPRMC,172257.795,A,3245.5596,N,11551.0532,W,59.07,259.15,120210,,,A*48
$GPRMC,172300.785,A,3245.5503,N,11551.1102,W,59.17,259.71,120210,,,A*43
$GPRMC,172303.775,A,3245.5416,N,11551.1674,W,59.14,259.56,120210,,,A*4A
$GPRMC,172306.765,A,3245.5326,N,11551.2247,W,59.01,259.55,120210,,,A*4A
$GPRMC,172309.755,A,3245.5239,N,11551.2817,W,59.15,259.39,120210,,,A*49
$GPRMC,172312.745,A,3245.5148,N,11551.3392,W,59.21,259.32,120210,,,A*4C
$GPRMC,172315.735,A,3245.5057,N,11551.3963,W,59.08,259.26,120210,,,A*49
$GPRMC,172318.725,A,3245.4968,N,11551.4534,W,59.05,259.43,120210,,,A*46
$GPRMC,172321.815,A,3245.4875,N,11551.5124,W,58.93,259.39,120210,,,A*4A
$GPRMC,172324.805,A,3245.4789,N,11551.5696,W,58.94,259.61,120210,,,A*46
$GPRMC,172327.795,A,3245.4702,N,11551.6265,W,59.00,259.71,120210,,,A*46
$GPRMC,172330.785,A,3245.4614,N,11551.6840,W,59.20,259.51,120210,,,A*4A
$GPRMC,172333.776,A,3245.4524,N,11551.7414,W,59.16,259.45,120210,,,A*49
$GPRMC,172336.766,A,3245.4431,N,11551.7985,W,59.14,259.20,120210,,,A*4C
$GPRMC,172339.756,A,3245.4341,N,11551.8554,W,59.07,259.53,120210,,,A*49
$GPRMC,172342.746,A,3245.4252,N,11551.9127,W,59.21,259.34,120210,,,A*43
$GPRMC,172345.736,A,3245.4160,N,11551.9701,W,59.15,259.54,120210,,,A*42
$GPRMC,172348.726,A,3245.4067,N,11552.0275,W,59.21,259.27,120210,,,A*47
$GPRMC,172351.816,A,3245.3972,N,11552.0867,W,59.26,259.49,120210,,,A*4F
$GPRMC,172354.806,A,3245.3884,N,11552.1446,W,59.50,259.47,120210,,,A*42
$GPRMC,172357.796,A,3245.3794,N,11552.2019,W,59.54,259.43,120210,,,A*44
$GPRMC,172400.786,A,3245.3708,N,11552.2596,W,59.49,259.70,120210,,,A*4B
$GPRMC,172403.776,A,3245.3619,N,11552.3174,W,59.30,259.52,120210,,,A*41
$GPRMC,172406.766,A,3245.3529,N,11552.3749,W,59.06,259.41,120210,,,A*4A
$GPRMC,172409.756,A,3245.3437,N,11552.4321,W,59.16,259.19,120210,,,A*49
$GPRMC,172412.746,A,3245.3344,N,11552.4891,W,59.20,259.38,120210,,,A*47
$GPRMC,172415.737,A,3245.3254,N,11552.5461,W,59.00,259.69,120210,,,A*42
$GPRMC,172418.727,A,3245.3165,N,11552.6036,W,59.05,259.29,120210,,,A*4B
$GPRMC,172421.816,A,3245.3071,N,11552.6625,W,59.01,259.32,120210,,,A*42
$GPRMC,172424.807,A,3245.2981,N,11552.7196,W,59.02,259.25,120210,,,A*4B
$GPRMC,172427.797,A,3245.2893,N,11552.7767,W,58.96,259.53,120210,,,A*49
$GPRMC,172430.787,A,3245.2803,N,11552.8338,W,58.80,259.60,120210,,,A*41
$GPRMC,172433.777,A,3245.2718,N,11552.8908,W,58.88,259.62,120210,,,A*4B
$GPRMC,172436.767,A,3245.2628,N,11552.9478,W,59.14,259.27,120210,,,A*43
$GPRMC,172439.757,A,3245.2537,N,11553.0047,W,58.97,259.50,120210,,,A*48
$GPRMC,172442.747,A,3245.2447,N,11553.0619,W,58.98,259.30,120210,,,A*47
$GPRMC,172445.737,A,3245.2353,N,11553.1190,W,59.01,259.47,120210,,,A*43
$GPRMC,172448.727,A,3245.2263,N,11553.1767,W,59.06,259.37,120210,,,A*43
$GPRMC,172451.817,A,3245.2169,N,11553.2359,W,59.17,259.32,120210,,,A*41
$GPRMC,172454.807,A,3245.2077,N,11553.2934,W,59.09,259.22,120210,,,A*44
$GPRMC,172457.797,A,3245.1990,N,11553.3502,W,59.04,259.57,120210,,,A*45
$GPRMC,172500.787,A,3245.1903,N,11553.4072,W,59.06,259.54,120210,,,A*49
$GPRMC,172503.778,A,3245.1813,N,11553.4646,W,59.02,259.37,120210,,,A*4A
$GPRMC,172506.768,A,3245.1723,N,11553.5217,W,59.10,259.44,120210,,,A*44
$GPRMC,172509.758,A,3245.1636,N,11553.5788,W,59.00,259.34,120210,,,A*48
$GPRMC,172512.748,A,3245.1546,N,11553.6358,W,59.11,259.20,120210,,,A*48
$GPRMC,172515.738,A,3245.1459,N,11553.6930,W,59.13,259.58,120210,,,A*4E
$GPRMC,172518.728,A,3245.1366,N,11553.7502,W,59.17,259.22,120210,,,A*4C
$GPRMC,172521.818,A,3245.1272,N,11553.8094,W,59.20,259.55,120210,,,A*4F
$GPRMC,172524.808,A,3245.1183,N,11553.8669,W,59.40,259.90,120210,,,A*4D
$GPRMC,172527.798,A,3245.1099,N,11553.9241,W,59.46,260.92,120210,,,A*43
$GPRMC,172530.788,A,3245.1021,N,11553.9818,W,59.36,260.88,120210,,,A*4D
$GPRMC,172533.778,A,3245.0944,N,11554.0394,W,59.31,260.94,120210,,,A*41
$GPRMC,172536.768,A,3245.0866,N,11554.0970,W,59.24,260.78,120210,,,A*42
$GPRMC,172539.758,A,3245.0786,N,11554.1542,W,59.18,260.87,120210,,,A*4C
$GPRMC,172542.748,A,3245.0708,N,11554.2120,W,59.29,260.78,120210,,,A*46
$GPRMC,172545.739,A,3245.0631,N,11554.2696,W,59.25,260.77,120210,,,A*45
$GPRMC,172548.729,A,3245.0552,N,11554.3271,W,59.22,260.65,120210,,,A*47
$GPRMC,172551.818,A,3245.0471,N,11554.3865,W,59.16,260.86,120210,,,A*47
$GPRMC,172554.809,A,3245.0393,N,11554.4439,W,59.12,260.71,120210,,,A*47
$GPRMC,172557.799,A,3245.0316,N,11554.5014,W,59.14,260.64,120210,,,A*47
$GPRMC,172600.789,A,3245.0236,N,11554.5589,W,59.23,260.79,120210,,,A*4D
$GPRMC,172603.779,A,3245.0157,N,11554.6167,W,59.21,260.97,120210,,,A*40
$GPRMC,172606.769,A,3245.0078,N,11554.6742,W,59.15,260.99,120210,,,A*40
$GPRMC,172609.759,A,3244.9997,N,11554.7317,W,59.15,260.73,120210,,,A*4D
$GPRMC,172612.749,A,3244.9921,N,11554.7897,W,59.15,260.71,120210,,,A*4A
$GPRMC,172615.739,A,3244.9846,N,11554.8469,W,59.14,260.84,120210,,,A*43
$GPRMC,172618.729,A,3244.9765,N,11554.9042,W,59.10,260.73,120210,,,A*41
$GPRMC,172621.819,A,3244.9689,N,11554.9637,W,59.20,262.05,120210,,,A*40
$GPRMC,172624.809,A,3244.9625,N,11555.0214,W,59.20,262.33,120210,,,A*4A
$GPRMC,172627.799,A,3244.9550,N,11555.0790,W,58.98,260.93,120210,,,A*4D
$GPRMC,172630.789,A,3244.9474,N,11555.1365,W,59.06,260.97,120210,,,A*40
$GPRMC,172633.779,A,3244.9395,N,11555.1939,W,59.24,260.65,120210,,,A*4A
$GPRMC,172636.770,A,3244.9315,N,11555.2514,W,59.25,260.68,120210,,,A*42
$GPRMC,172639.760,A,3244.9234,N,11555.3089,W,59.21,260.81,120210,,,A*4D
$GPRMC,172642.750,A,3244.9158,N,11555.3665,W,59.36,261.00,120210,,,A*41
$GPRMC,172645.740,A,3244.9079,N,11555.4242,W,59.26,260.65,120210,,,A*40
$GPRMC,172648.730,A,3244.8998,N,11555.4819,W,59.25,260.74,120210,,,A*4A
$GPRMC,172651.820,A,3244.8916,N,11555.5416,W,59.23,260.67,120210,,,A*4C
$GPRMC,172654.810,A,3244.8839,N,11555.5992,W,59.31,260.93,120210,,,A*4F
$GPRMC,172657.800,A,3244.8760,N,11555.6569,W,59.27,260.36,120210,,,A*4D
$GPRMC,172700.790,A,3244.8680,N,11555.7142,W,59.33,260.57,120210,,,A*49
$GPRMC,172703.780,A,3244.8601,N,11555.7719,W,59.28,260.92,120210,,,A*49
$GPRMC,172706.770,A,3244.8525,N,11555.8294,W,59.04,261.00,120210,,,A*4D
$GPRMC,172709.760,A,3244.8451,N,11555.8868,W,59.07,260.86,120210,,,A*44
$GPRMC,172712.750,A,3244.8373,N,11555.9440,W,58.89,260.78,120210,,,A*4B
$GPRMC,172715.741,A,3244.8295,N,11556.0012,W,59.00,260.96,120210,,,A*4C
$GPRMC,172718.731,A,3244.8217,N,11556.0584,W,58.92,260.86,120210,,,A*4D
$GPRMC,172721.721,A,3244.8140,N,11556.1158,W,58.92,260.79,120210,,,A*43
$GPRMC,172724.811,A,3244.8061,N,11556.1748,W,58.78,260.59,120210,,,A*49
$GPRMC,172727.801,A,3244.7983,N,11556.2314,W,58.81,260.70,120210,,,A*42
$GPRMC,172730.791,A,3244.7903,N,11556.2888,W,59.01,260.76,120210,,,A*4B
$GPRMC,172733.781,A,3244.7823,N,11556.3467,W,59.50,260.73,120210,,,A*47
$GPRMC,172736.771,A,3244.7744,N,11556.4045,W,59.53,260.77,120210,,,A*47
$GPRMC,172739.761,A,3244.7666,N,11556.4625,W,59.48,260.99,120210,,,A*42
$GPRMC,172742.751,A,3244.7591,N,11556.5203,W,59.35,260.93,120210,,,A*47
$GPRMC,172745.741,A,3244.7512,N,11556.5777,W,59.54,261.09,120210,,,A*49
$GPRMC,172748.731,A,3244.7433,N,11556.6356,W,59.51,260.92,120210,,,A*43
$GPRMC,172751.721,A,3244.7355,N,11556.6937,W,59.48,260.79,120210,,,A*4D
$GPRMC,172754.811,A,3244.7275,N,11556.7533,W,59.50,260.78,120210,,,A*46
$GPRMC,172757.801,A,3244.7193,N,11556.8110,W,59.33,260.48,120210,,,A*43
$GPRMC,172800.791,A,3244.7117,N,11556.8688,W,59.26,261.22,120210,,,A*4B
$GPRMC,172803.781,A,3244.7039,N,11556.9268,W,59.37,261.21,120210,,,A*4C
$GPRMC,172806.772,A,3244.6959,N,11556.9843,W,59.07,260.88,120210,,,A*49
$GPRMC,172809.762,A,3244.6880,N,11557.0416,W,58.78,260.60,120210,,,A*49
$GPRMC,172812.752,A,3244.6801,N,11557.0988,W,58.75,260.82,120210,,,A*42
$GPRMC,172815.742,A,3244.6723,N,11557.1561,W,58.91,260.99,120210,,,A*41
$GPRMC,172818.732,A,3244.6644,N,11557.2135,W,59.10,260.80,120210,,,A*4D
$GPRMC,172821.722,A,3244.6565,N,11557.2710,W,59.20,260.74,120210,,,A*4F
$GPRMC,172824.812,A,3244.6478,N,11557.3303,W,58.77,259.92,120210,,,A*4D
$GPRMC,172827.802,A,3244.6393,N,11557.3872,W,58.78,259.96,120210,,,A*4B
$GPRMC,172830.792,A,3244.6309,N,11557.4442,W,58.49,260.68,120210,,,A*49
$GPRMC,172833.782,A,3244.6229,N,11557.5007,W,58.72,260.31,120210,,,A*48
$GPRMC,172836.772,A,3244.6150,N,11557.5578,W,59.03,260.33,120210,,,A*47
$GPRMC,172839.762,A,3244.6059,N,11557.6152,W,59.64,257.21,120210,,,A*48
$GPRMC,172842.752,A,3244.5940,N,11557.6722,W,59.51,255.14,120210,,,A*46
$GPRMC,172845.743,A,3244.5803,N,11557.7286,W,59.53,252.94,120210,,,A*40
$GPRMC,172848.733,A,3244.5651,N,11557.7845,W,59.56,250.55,120210,,,A*4C
$GPRMC,172851.723,A,3244.5480,N,11557.8397,W,59.49,248.64,120210,,,A*45
$GPRMC,172854.812,A,3244.5283,N,11557.8958,W,59.65,246.15,120210,,,A*47
$GPRMC,172857.803,A,3244.5084,N,11557.9499,W,59.48,246.21,120210,,,A*48
$GPRMC,172900.793,A,3244.4883,N,11558.0038,W,59.07,246.21,120210,,,A*41
$GPRMC,172903.783,A,3244.4687,N,11558.0572,W,58.68,245.89,120210,,,A*4B
$GPRMC,172906.773,A,3244.4486,N,11558.1102,W,58.70,245.96,120210,,,A*47
$GPRMC,172909.763,A,3244.4293,N,11558.1632,W,58.78,247.32,120210,,,A*4B
$GPRMC,172912.753,A,3244.4113,N,11558.2172,W,59.00,249.54,120210,,,A*49
$GPRMC,172915.743,A,3244.3946,N,11558.2720,W,59.19,250.34,120210,,,A*47
$GPRMC,172918.733,A,3244.3777,N,11558.3265,W,59.10,250.13,120210,,,A*48
$GPRMC,172921.723,A,3244.3615,N,11558.3816,W,59.14,251.24,120210,,,A*49
$GPRMC,172924.813,A,3244.3462,N,11558.4387,W,59.23,252.85,120210,,,A*4A
$GPRMC,172927.803,A,3244.3320,N,11558.4945,W,59.16,253.77,120210,,,A*47
$GPRMC,172930.793,A,3244.3189,N,11558.5504,W,59.07,254.78,120210,,,A*46
$GPRMC,172933.783,A,3244.3062,N,11558.6065,W,59.05,255.17,120210,,,A*4B
$GPRMC,172936.774,A,3244.2936,N,11558.6626,W,58.97,255.10,120210,,,A*43
$GPRMC,172939.764,A,3244.2806,N,11558.7187,W,59.03,254.84,120210,,,A*42
$GPRMC,172942.754,A,3244.2678,N,11558.7748,W,59.20,254.77,120210,,,A*42
$GPRMC,172945.744,A,3244.2547,N,11558.8313,W,59.32,254.58,120210,,,A*40
$GPRMC,172948.734,A,3244.2418,N,11558.8876,W,59.21,254.92,120210,,,A*4D
$GPRMC,172951.724,A,3244.2293,N,11558.9439,W,59.19,255.23,120210,,,A*47
$GPRMC,172954.814,A,3244.2162,N,11559.0020,W,59.25,254.96,120210,,,A*47
$GPRMC,172957.804,A,3244.2033,N,11559.0582,W,59.21,254.87,120210,,,A*49
$GPRMC,173000.794,A,3244.1907,N,11559.1146,W,59.16,255.02,120210,,,A*4D
$GPRMC,173003.784,A,3244.1779,N,11559.1710,W,59.15,255.14,120210,,,A*49
$GPRMC,173006.774,A,3244.1655,N,11559.2272,W,59.20,255.12,120210,,,A*4E
$GPRMC,173009.764,A,3244.1527,N,11559.2834,W,59.22,254.63,120210,,,A*4B
$GPRMC,173012.754,A,3244.1398,N,11559.3395,W,58.99,254.86,120210,,,A*4B
$GPRMC,173015.744,A,3244.1268,N,11559.3952,W,58.62,255.08,120210,,,A*41
$GPRMC,173018.735,A,3244.1142,N,11559.4509,W,58.30,255.17,120210,,,A*4D
$GPRMC,173021.725,A,3244.1017,N,11559.5064,W,58.72,254.69,120210,,,A*46
$GPRMC,173024.814,A,3244.0883,N,11559.5639,W,58.82,254.72,120210,,,A*41
$GPRMC,173027.805,A,3244.0757,N,11559.6200,W,59.04,255.10,120210,,,A*43
$GPRMC,173030.795,A,3244.0629,N,11559.6760,W,59.32,255.23,120210,,,A*4D
$GPRMC,173033.785,A,3244.0505,N,11559.7325,W,59.22,255.14,120210,,,A*43
$GPRMC,173036.775,A,3244.0378,N,11559.7889,W,59.21,254.53,120210,,,A*49
$GPRMC,173039.765,A,3244.0247,N,11559.8452,W,59.23,255.08,120210,,,A*42
$GPRMC,173042.755,A,3244.0121,N,11559.9012,W,58.98,255.37,120210,,,A*42
$GPRMC,173045.745,A,3244.0005,N,11559.9573,W,58.76,256.51,120210,,,A*42
$GPRMC,173048.735,A,3243.9902,N,11600.0134,W,58.85,258.05,120210,,,A*4A
$GPRMC,173051.725,A,3243.9802,N,11600.0704,W,59.16,258.01,120210,,,A*48
$GPRMC,173054.815,A,3243.9694,N,11600.1291,W,59.34,258.10,120210,,,A*48
$GPRMC,173057.805,A,3243.9593,N,11600.1860,W,59.24,257.66,120210,,,A*45
$GPRMC,173100.795,A,3243.9492,N,11600.2431,W,59.05,257.65,120210,,,A*4B
$GPRMC,173103.785,A,3243.9391,N,11600.3000,W,59.12,258.32,120210,,,A*41
$GPRMC,173106.776,A,3243.9289,N,11600.3571,W,59.30,257.68,120210,,,A*43
$GPRMC,173109.766,A,3243.9185,N,11600.4140,W,59.21,257.60,120210,,,A*4B
$GPRMC,173112.756,A,3243.9079,N,11600.4707,W,59.15,257.95,120210,,,A*48
$GPRMC,173115.746,A,3243.8979,N,11600.5275,W,59.12,258.00,120210,,,A*43
$GPRMC,173118.736,A,3243.8875,N,11600.5844,W,59.11,257.92,120210,,,A*4B
$GPRMC,173121.726,A,3243.8773,N,11600.6408,W,59.05,257.23,120210,,,A*41
$GPRMC,173124.816,A,3243.8653,N,11600.6989,W,59.01,254.67,120210,,,A*48
$GPRMC,173127.806,A,3243.8509,N,11600.7546,W,59.14,251.08,120210,,,A*40
$GPRMC,173130.796,A,3243.8337,N,11600.8095,W,59.21,247.77,120210,,,A*46
$GPRMC,173133.786,A,3243.8137,N,11600.8634,W,59.18,244.35,120210,,,A*44
$GPRMC,173136.776,A,3243.7911,N,11600.9155,W,59.14,240.92,120210,,,A*49
$GPRMC,173139.766,A,3243.7659,N,11600.9664,W,59.29,238.99,120210,,,A*4B
$GPRMC,173142.756,A,3243.7406,N,11601.0169,W,59.19,238.92,120210,,,A*46
$GPRMC,173145.746,A,3243.7148,N,11601.0669,W,59.13,238.87,120210,,,A*46
$GPRMC,173148.737,A,3243.6897,N,11601.1173,W,58.98,239.99,120210,,,A*46
$GPRMC,173151.727,A,3243.6680,N,11601.1691,W,58.52,247.81,120210,,,A*4A
$GPRMC,173154.816,A,3243.6526,N,11601.2249,W,58.08,255.63,120210,,,A*4F
$GPRMC,173157.807,A,3243.6442,N,11601.2803,W,57.91,263.07,120210,,,A*43
$GPRMC,173200.797,A,3243.6392,N,11601.3370,W,58.68,263.88,120210,,,A*4E
$GPRMC,173203.787,A,3243.6341,N,11601.3948,W,59.57,263.41,120210,,,A*4B
$GPRMC,173206.777,A,3243.6285,N,11601.4533,W,59.97,263.60,120210,,,A*40
$GPRMC,173209.767,A,3243.6227,N,11601.5117,W,60.03,262.65,120210,,,A*46
$GPRMC,173212.757,A,3243.6157,N,11601.5698,W,59.78,261.76,120210,,,A*4C
$GPRMC,173215.747,A,3243.6081,N,11601.6277,W,59.44,260.36,120210,,,A*4C
$GPRMC,173218.737,A,3243.5996,N,11601.6852,W,59.17,258.87,120210,,,A*40
$GPRMC,173221.727,A,3243.5896,N,11601.7420,W,58.81,258.24,120210,,,A*45
$GPRMC,173224.817,A,3243.5794,N,11601.7999,W,58.37,258.43,120210,,,A*42
$GPRMC,173227.807,A,3243.5697,N,11601.8563,W,58.64,258.74,120210,,,A*46
$GPRMC,173230.797,A,3243.5598,N,11601.9127,W,58.88,258.54,120210,,,A*4F
$GPRMC,173233.787,A,3243.5503,N,11601.9695,W,58.86,258.89,120210,,,A*4F
$GPRMC,173236.777,A,3243.5412,N,11602.0262,W,58.83,258.79,120210,,,A*48
$GPRMC,173239.768,A,3243.5318,N,11602.0830,W,58.73,258.70,120210,,,A*4F
$GPRMC,173242.758,A,3243.5224,N,11602.1394,W,58.29,259.15,120210,,,A*47
$GPRMC,173245.748,A,3243.5127,N,11602.1957,W,58.62,258.93,120210,,,A*44
$GPRMC,173248.738,A,3243.5043,N,11602.2528,W,59.08,261.89,120210,,,A*46
$GPRMC,173251.728,A,3243.4989,N,11602.3109,W,59.10,265.85,120210,,,A*46
$GPRMC,173254.818,A,3243.4967,N,11602.3708,W,58.26,270.59,120210,,,A*49
$GPRMC,173257.808,A,3243.5004,N,11602.4281,W,58.33,277.63,120210,,,A*4F
$GPRMC,173300.798,A,3243.5089,N,11602.4849,W,58.73,282.67,120210,,,A*4B
$GPRMC,173303.788,A,3243.5204,N,11602.5404,W,57.83,285.24,120210,,,A*4A
$GPRMC,173306.778,A,3243.5330,N,11602.5952,W,57.50,285.46,120210,,,A*42
$GPRMC,173309.768,A,3243.5460,N,11602.6497,W,57.71,285.48,120210,,,A*44
$GPRMC,173312.758,A,3243.5582,N,11602.7044,W,57.59,285.28,120210,,,A*47
$GPRMC,173315.748,A,3243.5711,N,11602.7591,W,57.46,285.59,120210,,,A*4C
$GPRMC,173318.739,A,3243.5837,N,11602.8138,W,57.33,285.44,120210,,,A*4A
$GPRMC,173321.729,A,3243.5966,N,11602.8685,W,57.41,285.51,120210,,,A*44
$GPRMC,173324.818,A,3243.6097,N,11602.9244,W,57.43,285.22,120210,,,A*46
$GPRMC,173327.809,A,3243.6225,N,11602.9793,W,57.50,285.29,120210,,,A*48
$GPRMC,173330.799,A,3243.6353,N,11603.0338,W,57.44,285.72,120210,,,A*4E
$GPRMC,173333.789,A,3243.6480,N,11603.0883,W,57.44,285.29,120210,,,A*40
$GPRMC,173336.779,A,3243.6606,N,11603.1428,W,57.36,285.15,120210,,,A*40
$GPRMC,173339.769,A,3243.6730,N,11603.1970,W,56.96,285.37,120210,,,A*41
$GPRMC,173342.759,A,3243.6856,N,11603.2508,W,56.84,285.26,120210,,,A*42
$GPRMC,173345.749,A,3243.6980,N,11603.3048,W,56.99,285.09,120210,,,A*4F
$GPRMC,173348.739,A,3243.7108,N,11603.3591,W,57.28,285.67,120210,,,A*4E
$GPRMC,173351.729,A,3243.7237,N,11603.4137,W,57.37,285.50,120210,,,A*4D
$GPRMC,173354.819,A,3243.7371,N,11603.4698,W,57.36,285.65,120210,,,A*42
$GPRMC,173357.809,A,3243.7487,N,11603.5244,W,57.24,281.25,120210,,,A*49
$GPRMC,173400.799,A,3243.7551,N,11603.5803,W,57.37,274.05,120210,,,A*43
$GPRMC,173403.789,A,3243.7552,N,11603.6365,W,57.39,265.32,120210,,,A*40
$GPRMC,173406.779,A,3243.7480,N,11603.6925,W,57.55,256.93,120210,,,A*4B
$GPRMC,173409.770,A,3243.7341,N,11603.7465,W,57.31,249.27,120210,,,A*4C
$GPRMC,173412.760,A,3243.7136,N,11603.7978,W,57.37,240.64,120210,,,A*4C
$GPRMC,173415.750,A,3243.6878,N,11603.8455,W,57.30,232.98,120210,,,A*46
$GPRMC,173418.740,A,3243.6560,N,11603.8880,W,57.55,224.16,120210,,,A*48
$GPRMC,173421.730,A,3243.6208,N,11603.9266,W,57.43,223.58,120210,,,A*45
$GPRMC,173424.820,A,3243.5851,N,11603.9660,W,57.38,223.28,120210,,,A*42
$GPRMC,173427.810,A,3243.5505,N,11604.0045,W,57.28,223.52,120210,,,A*4D
$GPRMC,173430.800,A,3243.5158,N,11604.0434,W,57.12,223.30,120210,,,A*49
$GPRMC,173433.790,A,3243.4804,N,11604.0813,W,57.04,221.06,120210,,,A*44
$GPRMC,173436.780,A,3243.4436,N,11604.1153,W,56.71,215.08,120210,,,A*4B
$GPRMC,173439.770,A,3243.4034,N,11604.1444,W,56.71,208.09,120210,,,A*43
$GPRMC,173442.760,A,3243.3605,N,11604.1680,W,56.93,201.52,120210,,,A*4C
$GPRMC,173445.750,A,3243.3157,N,11604.1860,W,57.08,195.17,120210,,,A*44
$GPRMC,173448.741,A,3243.2694,N,11604.1979,W,57.37,188.76,120210,,,A*4E
$GPRMC,173451.731,A,3243.2224,N,11604.2033,W,57.63,181.95,120210,,,A*4F
$GPRMC,173454.721,A,3243.1746,N,11604.2021,W,57.56,175.07,120210,,,A*4C
$GPRMC,173457.810,A,3243.1256,N,11604.1943,W,57.50,168.92,120210,,,A*4E
$GPRMC,173500.801,A,3243.0795,N,11604.1805,W,57.10,161.91,120210,,,A*4B
$GPRMC,173503.791,A,3243.0348,N,11604.1604,W,57.05,157.42,120210,,,A*4A
$GPRMC,173506.781,A,3242.9909,N,11604.1385,W,57.13,156.83,120210,,,A*4E
$GPRMC,173509.771,A,3242.9474,N,11604.1163,W,57.09,156.81,120210,,,A*4A
$GPRMC,173512.761,A,3242.9035,N,11604.0944,W,57.40,157.61,120210,,,A*4E
$GPRMC,173515.751,A,3242.8596,N,11604.0724,W,57.47,156.71,120210,,,A*48
$GPRMC,173518.741,A,3242.8156,N,11604.0500,W,57.35,156.78,120210,,,A*44
$GPRMC,173521.731,A,3242.7720,N,11604.0277,W,56.96,157.34,120210,,,A*47
$GPRMC,173524.721,A,3242.7282,N,11604.0064,W,56.83,157.25,120210,,,A*4A
$GPRMC,173527.811,A,3242.6832,N,11603.9836,W,56.84,157.20,120210,,,A*46
$GPRMC,173530.801,A,3242.6393,N,11603.9619,W,57.21,156.58,120210,,,A*42
$GPRMC,173533.791,A,3242.5958,N,11603.9396,W,57.29,157.70,120210,,,A*48
$GPRMC,173536.781,A,3242.5508,N,11603.9213,W,57.42,166.59,120210,,,A*4D
$GPRMC,173539.772,A,3242.5038,N,11603.9154,W,57.04,180.89,120210,,,A*4F
$GPRMC,173542.762,A,3242.4574,N,11603.9227,W,56.87,194.93,120210,,,A*4D
$GPRMC,173545.752,A,3242.4140,N,11603.9435,W,56.98,208.78,120210,,,A*42
$GPRMC,173548.742,A,3242.3757,N,11603.9759,W,56.87,222.25,120210,,,A*4E
$GPRMC,173551.732,A,3242.3448,N,11604.0184,W,56.80,235.19,120210,,,A*4A
$GPRMC,173554.722,A,3242.3186,N,11604.0653,W,57.37,236.34,120210,,,A*45
$GPRMC,173557.812,A,3242.2916,N,11604.1143,W,57.42,236.14,120210,,,A*4D
$GPRMC,173600.802,A,3242.2653,N,11604.1619,W,57.32,236.24,120210,,,A*4F
$GPRMC,173603.792,A,3242.2385,N,11604.2089,W,57.47,236.25,120210,,,A*4B
$GPRMC,173606.782,A,3242.2130,N,11604.2569,W,57.30,240.07,120210,,,A*49
$GPRMC,173609.772,A,3242.1921,N,11604.3080,W,57.18,247.64,120210,,,A*49
$GPRMC,173612.762,A,3242.1767,N,11604.3607,W,56.90,253.47,120210,,,A*42
$GPRMC,173615.752,A,3242.1636,N,11604.4142,W,56.97,255.03,120210,,,A*43
$GPRMC,173618.742,A,3242.1531,N,11604.4690,W,57.79,258.53,120210,,,A*4A
$GPRMC,173621.733,A,3242.1430,N,11604.5247,W,58.46,257.13,120210,,,A*41
$GPRMC,173624.723,A,3242.1317,N,11604.5808,W,58.71,256.40,120210,,,A*45
$GPRMC,173627.812,A,3242.1197,N,11604.6383,W,57.92,255.20,120210,,,A*4D
$GPRMC,173630.803,A,3242.1044,N,11604.6926,W,57.79,247.10,120210,,,A*44
$GPRMC,173633.793,A,3242.0816,N,11604.7428,W,57.79,236.35,120210,,,A*4C
$GPRMC,173636.783,A,3242.0518,N,11604.7869,W,57.47,226.16,120210,,,A*4F
$GPRMC,173639.773,A,3242.0159,N,11604.8237,W,57.07,217.71,120210,,,A*47
$GPRMC,173642.763,A,3241.9784,N,11604.8573,W,56.80,217.14,120210,,,A*4C
$GPRMC,173645.753,A,3241.9408,N,11604.8910,W,56.94,217.60,120210,,,A*40
$GPRMC,173648.743,A,3241.9034,N,11604.9246,W,57.05,217.71,120210,,,A*47
$GPRMC,173651.733,A,3241.8660,N,11604.9585,W,56.62,217.59,120210,,,A*4C
$GPRMC,173654.723,A,3241.8285,N,11604.9920,W,56.40,217.36,120210,,,A*4D
$GPRMC,173657.813,A,3241.7901,N,11605.0273,W,56.80,219.67,120210,,,A*49
$GPRMC,173700.803,A,3241.7547,N,11605.0648,W,57.33,224.40,120210,,,A*4B
$GPRMC,173703.793,A,3241.7219,N,11605.1062,W,58.04,229.47,120210,,,A*4C
$GPRMC,173706.783,A,3241.6911,N,11605.1503,W,58.24,230.04,120210,,,A*45
$GPRMC,173709.774,A,3241.6602,N,11605.1941,W,58.12,229.68,120210,,,A*42
$GPRMC,173712.764,A,3241.6295,N,11605.2378,W,57.32,230.09,120210,,,A*42
$GPRMC,173715.754,A,3241.5991,N,11605.2805,W,56.16,229.56,120210,,,A*4E
$GPRMC,173718.744,A,3241.5683,N,11605.3217,W,56.17,225.14,120210,,,A*4D
$GPRMC,173721.734,A,3241.5332,N,11605.3577,W,56.63,215.59,120210,,,A*47
$GPRMC,173724.724,A,3241.4931,N,11605.3870,W,57.19,209.86,120210,,,A*42
$GPRMC,173727.814,A,3241.4509,N,11605.4157,W,57.41,209.41,120210,,,A*47
$GPRMC,173730.804,A,3241.4097,N,11605.4436,W,57.81,209.93,120210,,,A*43
$GPRMC,173733.794,A,3241.3674,N,11605.4719,W,58.14,208.98,120210,,,A*4D
$GPRMC,173736.784,A,3241.3244,N,11605.4978,W,57.86,203.32,120210,,,A*48
$GPRMC,173739.774,A,3241.2783,N,11605.5141,W,55.11,189.46,120210,,,A*4A
$GPRMC,173742.764,A,3241.2333,N,11605.5172,W,54.73,175.95,120210,,,A*40
$GPRMC,173745.754,A,3241.1879,N,11605.5090,W,55.20,167.58,120210,,,A*4A
$GPRMC,173748.744,A,3241.1429,N,11605.4974,W,55.79,168.72,120210,,,A*46
$GPRMC,173751.735,A,3241.0980,N,11605.4871,W,53.53,168.75,120210,,,A*4A
$GPRMC,173754.725,A,3241.0565,N,11605.4778,W,48.66,170.40,120210,,,A*4C
$GPRMC,173757.814,A,3241.0166,N,11605.4727,W,45.22,178.46,120210,,,A*4C
$GPRMC,173800.805,A,3240.9804,N,11605.4763,W,43.64,190.62,120210,,,A*40
$GPRMC,173803.795,A,3240.9453,N,11605.4889,W,44.24,203.92,120210,,,A*45
$GPRMC,173806.785,A,3240.9129,N,11605.5106,W,46.38,213.82,120210,,,A*49
$GPRMC,173809.775,A,3240.8830,N,11605.5404,W,47.56,225.99,120210,,,A*48
$GPRMC,173812.765,A,3240.8577,N,11605.5773,W,48.85,237.32,120210,,,A*4D
$GPRMC,173815.755,A,3240.8388,N,11605.6208,W,50.09,246.08,120210,,,A*47
$GPRMC,173818.745,A,3240.8216,N,11605.6665,W,51.48,246.36,120210,,,A*4B
$GPRMC,173821.735,A,3240.8044,N,11605.7137,W,52.64,246.37,120210,,,A*4E
$GPRMC,173824.725,A,3240.7865,N,11605.7615,W,53.48,246.15,120210,,,A*46
$GPRMC,173827.815,A,3240.7677,N,11605.8116,W,53.62,246.46,120210,,,A*41
$GPRMC,173830.805,A,3240.7501,N,11605.8598,W,52.24,246.11,120210,,,A*47
$GPRMC,173833.795,A,3240.7332,N,11605.9055,W,49.11,246.64,120210,,,A*4F
$GPRMC,173836.785,A,3240.7190,N,11605.9497,W,47.53,253.43,120210,,,A*42
$GPRMC,173839.775,A,3240.7109,N,11605.9952,W,47.52,264.24,120210,,,A*42
$GPRMC,173842.766,A,3240.7116,N,11606.0420,W,47.75,276.07,120210,,,A*47
$GPRMC,173845.756,A,3240.7175,N,11606.0886,W,48.46,279.30,120210,,,A*42
$GPRMC,173848.746,A,3240.7244,N,11606.1350,W,48.00,278.66,120210,,,A*4E
$GPRMC,173851.736,A,3240.7277,N,11606.1813,W,47.54,269.81,120210,,,A*4A
$GPRMC,173854.726,A,3240.7237,N,11606.2278,W,48.38,258.07,120210,,,A*47
$GPRMC,173857.816,A,3240.7105,N,11606.2750,W,49.37,246.33,120210,,,A*43
$GPRMC,173900.806,A,3240.6905,N,11606.3172,W,49.94,234.84,120210,,,A*4F
$GPRMC,173903.796,A,3240.6629,N,11606.3543,W,50.96,223.00,120210,,,A*4D
$GPRMC,173906.786,A,3240.6285,N,11606.3845,W,52.19,210.30,120210,,,A*46
$GPRMC,173909.776,A,3240.5890,N,11606.4068,W,53.25,202.96,120210,,,A*4A
$GPRMC,173912.766,A,3240.5481,N,11606.4273,W,51.53,202.54,120210,,,A*48
$GPRMC,173915.756,A,3240.5081,N,11606.4441,W,51.51,194.33,120210,,,A*40
$GPRMC,173918.746,A,3240.4658,N,11606.4514,W,52.28,181.33,120210,,,A*47
$GPRMC,173921.737,A,3240.4225,N,11606.4474,W,52.64,169.11,120210,,,A*4C
$GPRMC,173924.727,A,3240.3811,N,11606.4325,W,52.34,156.98,120210,,,A*49
$GPRMC,173927.816,A,3240.3406,N,11606.4096,W,52.72,153.06,120210,,,A*46
$GPRMC,173930.807,A,3240.3011,N,11606.3873,W,51.69,157.46,120210,,,A*4F
$GPRMC,173933.797,A,3240.2609,N,11606.3726,W,51.00,169.33,120210,,,A*4B
$GPRMC,173936.787,A,3240.2186,N,11606.3683,W,51.81,180.84,120210,,,A*43
$GPRMC,173939.777,A,3240.1762,N,11606.3737,W,52.62,189.99,120210,,,A*49
$GPRMC,173942.767,A,3240.1338,N,11606.3821,W,51.09,188.39,120210,,,A*42
$GPRMC,173945.757,A,3240.0924,N,11606.3898,W,50.47,188.58,120210,,,A*4E
$GPRMC,173948.747,A,3240.0503,N,11606.3955,W,51.82,184.10,120210,,,A*43
$GPRMC,173951.737,A,3240.0074,N,11606.3975,W,52.18,179.27,120210,,,A*4D
$GPRMC,173954.727,A,3239.9640,N,11606.3966,W,53.00,178.96,120210,,,A*4E
$GPRMC,173957.817,A,3239.9193,N,11606.3960,W,50.93,179.16,120210,,,A*4E
$GPRMC,174000.807,A,3239.8771,N,11606.3938,W,50.13,174.34,120210,,,A*40
$GPRMC,174003.797,A,3239.8369,N,11606.3836,W,49.86,160.89,120210,,,A*40
$GPRMC,174006.787,A,3239.7992,N,11606.3631,W,50.12,148.55,120210,,,A*42
$GPRMC,174009.777,A,3239.7659,N,11606.3331,W,50.63,136.11,120210,,,A*40
$GPRMC,174012.768,A,3239.7385,N,11606.2948,W,51.39,123.54,120210,,,A*4E
$GPRMC,174015.758,A,3239.7184,N,11606.2498,W,52.25,112.13,120210,,,A*46
$GPRMC,174018.748,A,3239.7024,N,11606.2015,W,53.54,112.06,120210,,,A*43
$GPRMC,174021.738,A,3239.6845,N,11606.1528,W,54.15,115.35,120210,,,A*4D
$GPRMC,174024.728,A,3239.6626,N,11606.1061,W,54.47,121.73,120210,,,A*48
$GPRMC,174027.818,A,3239.6363,N,11606.0606,W,53.38,124.34,120210,,,A*4C
$GPRMC,174030.808,A,3239.6115,N,11606.0185,W,50.66,124.94,120210,,,A*46
$GPRMC,174033.798,A,3239.5860,N,11605.9787,W,50.16,131.37,120210,,,A*4F
$GPRMC,174036.788,A,3239.5560,N,11605.9453,W,48.99,142.99,120210,,,A*42
$GPRMC,174039.778,A,3239.5208,N,11605.9209,W,49.18,155.59,120210,,,A*40
$GPRMC,174042.768,A,3239.4818,N,11605.9060,W,49.23,168.19,120210,,,A*48
$GPRMC,174045.758,A,3239.4410,N,11605.9016,W,50.29,181.13,120210,,,A*46
$GPRMC,174048.748,A,3239.3997,N,11605.9077,W,51.28,193.23,120210,,,A*48
$GPRMC,174051.739,A,3239.3586,N,11605.9215,W,51.56,196.40,120210,,,A*45
$GPRMC,174054.729,A,3239.3176,N,11605.9354,W,51.37,195.81,120210,,,A*47
$GPRMC,174057.818,A,3239.2747,N,11605.9501,W,52.39,196.70,120210,,,A*4A
$GPRMC,174100.809,A,3239.2333,N,11605.9668,W,53.33,202.05,120210,,,A*45
$GPRMC,174103.799,A,3239.1932,N,11605.9900,W,54.51,210.23,120210,,,A*4D
$GPRMC,174106.789,A,3239.1548,N,11606.0194,W,55.66,215.32,120210,,,A*47
$GPRMC,174109.779,A,3239.1165,N,11606.0514,W,57.08,215.45,120210,,,A*4A
$GPRMC,174112.769,A,3239.0775,N,11606.0844,W,58.37,215.52,120210,,,A*4A
$GPRMC,174115.759,A,3239.0375,N,11606.1174,W,59.36,215.06,120210,,,A*40
$GPRMC,174118.749,A,3238.9970,N,11606.1515,W,60.33,216.10,120210,,,A*43
$GPRMC,174121.739,A,3238.9560,N,11606.1865,W,60.90,215.81,120210,,,A*4B
$GPRMC,174124.729,A,3238.9152,N,11606.2212,W,60.19,215.13,120210,,,A*49
$GPRMC,174127.819,A,3238.8722,N,11606.2548,W,59.98,211.32,120210,,,A*4A
$GPRMC,174130.809,A,3238.8283,N,11606.2830,W,60.76,206.58,120210,,,A*41
$GPRMC,174133.799,A,3238.7828,N,11606.3096,W,61.53,207.01,120210,,,A*4E
$GPRMC,174136.789,A,3238.7370,N,11606.3372,W,61.62,206.66,120210,,,A*47
$GPRMC,174139.779,A,3238.6913,N,11606.3643,W,61.23,206.65,120210,,,A*48
$GPRMC,174142.770,A,3238.6463,N,11606.3911,W,60.63,206.59,120210,,,A*45
$GPRMC,174145.760,A,3238.6012,N,11606.4179,W,60.65,206.51,120210,,,A*4E
$GPRMC,174148.750,A,3238.5567,N,11606.4445,W,60.08,206.70,120210,,,A*46
$GPRMC,174151.740,A,3238.5116,N,11606.4708,W,59.69,206.25,120210,,,A*4A
$GPRMC,174154.730,A,3238.4678,N,11606.4967,W,57.85,207.00,120210,,,A*4B
$GPRMC,174157.820,A,3238.4245,N,11606.5232,W,56.71,207.26,120210,,,A*48
$GPRMC,174200.810,A,3238.3833,N,11606.5507,W,56.93,212.72,120210,,,A*4E
$GPRMC,174203.800,A,3238.3453,N,11606.5843,W,57.84,221.25,120210,,,A*4E
$GPRMC,174206.790,A,3238.3114,N,11606.6255,W,58.86,230.76,120210,,,A*4E
$GPRMC,174209.780,A,3238.2843,N,11606.6737,W,59.01,240.10,120210,,,A*42
$GPRMC,174212.770,A,3238.2633,N,11606.7262,W,58.51,248.68,120210,,,A*49
$GPRMC,174215.760,A,3238.2494,N,11606.7806,W,57.82,258.03,120210,,,A*45
$GPRMC,174218.750,A,3238.2425,N,11606.8375,W,58.97,263.62,120210,,,A*45
$GPRMC,174221.741,A,3238.2375,N,11606.8955,W,59.68,264.20,120210,,,A*45
$GPRMC,174224.731,A,3238.2323,N,11606.9540,W,59.90,263.38,120210,,,A*44
$GPRMC,174227.721,A,3238.2261,N,11607.0127,W,60.14,263.65,120210,,,A*42
$GPRMC,174230.811,A,3238.2205,N,11607.0729,W,59.33,263.94,120210,,,A*43
$GPRMC,174233.801,A,3238.2153,N,11607.1318,W,61.02,263.90,120210,,,A*4B
$GPRMC,174236.791,A,3238.2098,N,11607.1915,W,60.49,263.71,120210,,,A*48
$GPRMC,174239.781,A,3238.2048,N,11607.2507,W,60.47,263.94,120210,,,A*42
$GPRMC,174242.771,A,3238.1993,N,11607.3104,W,60.84,263.90,120210,,,A*40
$GPRMC,174245.761,A,3238.1936,N,11607.3697,W,60.29,263.52,120210,,,A*4D
$GPRMC,174248.751,A,3238.1883,N,11607.4283,W,59.27,263.81,120210,,,A*40
$GPRMC,174251.741,A,3238.1833,N,11607.4862,W,59.44,264.10,120210,,,A*4D
$GPRMC,174254.731,A,3238.1780,N,11607.5454,W,61.47,263.50,120210,,,A*4B
$GPRMC,174257.721,A,3238.1724,N,11607.6057,W,61.87,264.00,120210,,,A*4D
$GPRMC,174300.811,A,3238.1665,N,11607.6677,W,60.24,263.78,120210,,,A*42
$GPRMC,174303.801,A,3238.1611,N,11607.7256,W,58.63,263.71,120210,,,A*44
$GPRMC,174306.791,A,3238.1560,N,11607.7829,W,58.32,263.91,120210,,,A*4A
$GPRMC,174309.781,A,3238.1508,N,11607.8407,W,59.64,263.87,120210,,,A*40
$GPRMC,174312.772,A,3238.1457,N,11607.8995,W,59.85,263.78,120210,,,A*44
$GPRMC,174315.762,A,3238.1403,N,11607.9579,W,59.84,263.77,120210,,,A*42
$GPRMC,174318.752,A,3238.1348,N,11608.0159,W,59.51,263.40,120210,,,A*48
$GPRMC,174321.742,A,3238.1292,N,11608.0737,W,59.42,263.71,120210,,,A*4B
$GPRMC,174324.732,A,3238.1240,N,11608.1319,W,59.49,263.75,120210,,,A*40
$GPRMC,174327.722,A,3238.1186,N,11608.1900,W,59.53,263.78,120210,,,A*4F
$GPRMC,174330.812,A,3238.1132,N,11608.2501,W,59.43,263.93,120210,,,A*40
$GPRMC,174333.802,A,3238.1081,N,11608.3082,W,59.38,263.74,120210,,,A*41
$GPRMC,174336.792,A,3238.1028,N,11608.3661,W,59.40,263.78,120210,,,A*49
$GPRMC,174339.782,A,3238.0973,N,11608.4241,W,59.32,263.93,120210,,,A*40
$GPRMC,174342.772,A,3238.0918,N,11608.4824,W,59.43,263.61,120210,,,A*4C
$GPRMC,174345.762,A,3238.0864,N,11608.5405,W,59.41,264.02,120210,,,A*4E
$GPRMC,174348.752,A,3238.0810,N,11608.5981,W,59.08,263.83,120210,,,A*41
$GPRMC,174351.743,A,3238.0756,N,11608.6554,W,58.66,263.88,120210,,,A*41
$GPRMC,174354.733,A,3238.0705,N,11608.7131,W,59.16,263.76,120210,,,A*44
$GPRMC,174357.723,A,3238.0650,N,11608.7713,W,59.52,263.28,120210,,,A*4A
$GPRMC,174400.813,A,3238.0593,N,11608.8311,W,59.69,264.36,120210,,,A*46
$GPRMC,174403.803,A,3238.0564,N,11608.8895,W,59.92,268.68,120210,,,A*48
$GPRMC,174406.793,A,3238.0573,N,11608.9479,W,59.81,272.63,120210,,,A*40
$GPRMC,174409.783,A,3238.0617,N,11609.0061,W,59.57,277.37,120210,,,A*45
$GPRMC,174412.773,A,3238.0689,N,11609.0637,W,59.35,279.02,120210,,,A*4E
$GPRMC,174415.763,A,3238.0768,N,11609.1213,W,58.82,278.82,120210,,,A*41
$GPRMC,174418.753,A,3238.0841,N,11609.1781,W,58.36,278.39,120210,,,A*4A
$GPRMC,174421.743,A,3238.0915,N,11609.2345,W,58.65,278.69,120210,,,A*4D
$GPRMC,174424.733,A,3238.0992,N,11609.2914,W,59.09,278.59,120210,,,A*46
$GPRMC,174427.723,A,3238.1063,N,11609.3492,W,59.37,278.44,120210,,,A*41
$GPRMC,174430.813,A,3238.1142,N,11609.4086,W,59.68,278.74,120210,,,A*46
$GPRMC,174433.803,A,3238.1220,N,11609.4662,W,59.76,278.72,120210,,,A*46
$GPRMC,174436.793,A,3238.1294,N,11609.5239,W,59.52,278.64,120210,,,A*40
$GPRMC,174439.783,A,3238.1367,N,11609.5819,W,59.48,278.55,120210,,,A*42
$GPRMC,174442.774,A,3238.1441,N,11609.6395,W,59.38,278.55,120210,,,A*4E
$GPRMC,174445.764,A,3238.1513,N,11609.6973,W,59.41,278.57,120210,,,A*40
$GPRMC,174448.754,A,3238.1587,N,11609.7544,W,59.14,278.48,120210,,,A*44
$GPRMC,174451.744,A,3238.1662,N,11609.8119,W,59.27,279.57,120210,,,A*49
$GPRMC,174454.734,A,3238.1756,N,11609.8691,W,59.26,283.31,120210,,,A*4E
$GPRMC,174457.724,A,3238.1887,N,11609.9253,W,59.26,287.75,120210,,,A*40
$GPRMC,174500.814,A,3238.2058,N,11609.9823,W,59.15,292.06,120210,,,A*4B
$GPRMC,174503.804,A,3238.2259,N,11610.0357,W,59.19,296.30,120210,,,A*4E
$GPRMC,174506.794,A,3238.2493,N,11610.0867,W,59.22,300.74,120210,,,A*43
$GPRMC,174509.784,A,3238.2759,N,11610.1355,W,59.32,305.32,120210,,,A*45
$GPRMC,174512.774,A,3238.3055,N,11610.1819,W,59.15,308.52,120210,,,A*47
$GPRMC,174515.764,A,3238.3367,N,11610.2267,W,58.98,309.66,120210,,,A*41
$GPRMC,174518.754,A,3238.3679,N,11610.2713,W,59.09,309.72,120210,,,A*4F
$GPRMC,174521.745,A,3238.3994,N,11610.3160,W,59.09,309.83,120210,,,A*44
$GPRMC,174524.735,A,3238.4307,N,11610.3607,W,59.15,309.67,120210,,,A*40
$GPRMC,174527.725,A,3238.4622,N,11610.4054,W,59.20,309.81,120210,,,A*49
$GPRMC,174530.815,A,3238.4945,N,11610.4514,W,59.27,309.72,120210,,,A*47
$GPRMC,174533.805,A,3238.5256,N,11610.4965,W,59.08,308.13,120210,,,A*4C
$GPRMC,174536.795,A,3238.5548,N,11610.5434,W,59.25,303.67,120210,,,A*48
$GPRMC,174539.785,A,3238.5800,N,11610.5937,W,59.31,298.05,120210,,,A*4B
$GPRMC,174542.775,A,3238.6014,N,11610.6466,W,59.12,293.87,120210,,,A*4C
$GPRMC,174545.765,A,3238.6212,N,11610.6999,W,58.95,293.58,120210,,,A*4F
$GPRMC,174548.755,A,3238.6411,N,11610.7530,W,59.12,293.77,120210,,,A*49
$GPRMC,174551.745,A,3238.6609,N,11610.8060,W,59.19,293.73,120210,,,A*4B
$GPRMC,174554.735,A,3238.6808,N,11610.8590,W,59.08,293.87,120210,,,A*47
$GPRMC,174557.725,A,3238.7006,N,11610.9123,W,59.24,293.82,120210,,,A*44
$GPRMC,174600.815,A,3238.7211,N,11610.9679,W,59.27,293.84,120210,,,A*40
$GPRMC,174603.805,A,3238.7411,N,11611.0213,W,59.15,293.72,120210,,,A*4C
$GPRMC,174606.795,A,3238.7610,N,11611.0747,W,59.04,293.73,120210,,,A*49
$GPRMC,174609.785,A,3238.7808,N,11611.1278,W,59.42,293.63,120210,,,A*4B
$GPRMC,174612.776,A,3238.8007,N,11611.1813,W,59.51,293.59,120210,,,A*49
$GPRMC,174615.766,A,3238.8205,N,11611.2350,W,59.60,293.64,120210,,,A*4C
$GPRMC,174618.756,A,3238.8405,N,11611.2885,W,59.45,293.62,120210,,,A*46
$GPRMC,174621.746,A,3238.8606,N,11611.3421,W,59.29,293.74,120210,,,A*42
$GPRMC,174624.736,A,3238.8804,N,11611.3956,W,59.16,293.77,120210,,,A*4E
$GPRMC,174627.726,A,3238.9003,N,11611.4488,W,58.75,293.73,120210,,,A*4B
$GPRMC,174630.816,A,3238.9205,N,11611.5032,W,58.53,293.69,120210,,,A*4E
$GPRMC,174633.806,A,3238.9401,N,11611.5562,W,58.41,293.68,120210,,,A*4C
$GPRMC,174636.796,A,3238.9600,N,11611.6087,W,58.52,295.38,120210,,,A*40
$GPRMC,174639.786,A,3238.9823,N,11611.6600,W,58.82,299.40,120210,,,A*46
$GPRMC,174642.776,A,3239.0080,N,11611.7093,W,58.85,304.10,120210,,,A*46
$GPRMC,174645.766,A,3239.0370,N,11611.7558,W,58.88,308.50,120210,,,A*4B
$GPRMC,174648.756,A,3239.0686,N,11611.7991,W,58.88,312.52,120210,,,A*49
$GPRMC,174651.747,A,3239.1032,N,11611.8397,W,58.96,316.94,120210,,,A*4B
$GPRMC,174654.737,A,3239.1393,N,11611.8790,W,59.06,317.40,120210,,,A*42
$GPRMC,174657.727,A,3239.1753,N,11611.9180,W,59.08,317.21,120210,,,A*47
$GPRMC,174700.817,A,3239.2124,N,11611.9583,W,59.19,317.15,120210,,,A*4D
$GPRMC,174703.807,A,3239.2482,N,11611.9972,W,58.98,317.36,120210,,,A*4D
$GPRMC,174706.797,A,3239.2843,N,11612.0363,W,59.02,317.45,120210,,,A*49
$GPRMC,174709.787,A,3239.3202,N,11612.0753,W,58.99,317.15,120210,,,A*48
$GPRMC,174712.777,A,3239.3562,N,11612.1146,W,59.04,317.15,120210,,,A*4A
$GPRMC,174715.767,A,3239.3922,N,11612.1538,W,59.10,317.22,120210,,,A*48
$GPRMC,174718.757,A,3239.4285,N,11612.1933,W,59.27,317.35,120210,,,A*42
$GPRMC,174721.747,A,3239.4646,N,11612.2329,W,59.42,316.43,120210,,,A*43
$GPRMC,174724.737,A,3239.4999,N,11612.2738,W,59.84,313.69,120210,,,A*4F
$GPRMC,174727.727,A,3239.5329,N,11612.3177,W,59.68,309.31,120210,,,A*45
$GPRMC,174730.817,A,3239.5637,N,11612.3662,W,59.41,305.08,120210,,,A*4B
$GPRMC,174733.807,A,3239.5910,N,11612.4153,W,59.33,300.98,120210,,,A*48
$GPRMC,174736.797,A,3239.6149,N,11612.4664,W,59.03,297.44,120210,,,A*42
$GPRMC,174739.787,A,3239.6359,N,11612.5192,W,58.50,293.22,120210,,,A*43
$GPRMC,174742.778,A,3239.6536,N,11612.5730,W,58.57,289.13,120210,,,A*40
$GPRMC,174745.768,A,3239.6681,N,11612.6280,W,58.92,285.25,120210,,,A*44
$GPRMC,174748.758,A,3239.6795,N,11612.6844,W,58.99,281.57,120210,,,A*46
$GPRMC,174751.748,A,3239.6875,N,11612.7414,W,59.01,277.22,120210,,,A*4D
$GPRMC,174754.738,A,3239.6917,N,11612.7990,W,59.03,273.70,120210,,,A*4A
$GPRMC,174757.728,A,3239.6943,N,11612.8570,W,59.03,272.99,120210,,,A*42
$GPRMC,174800.818,A,3239.6970,N,11612.9167,W,58.70,272.78,120210,,,A*4A
$GPRMC,174803.808,A,3239.6995,N,11612.9742,W,58.77,272.82,120210,,,A*40
$GPRMC,174806.798,A,3239.7022,N,11613.0320,W,58.68,273.35,120210,,,A*4C
$GPRMC,174809.788,A,3239.7049,N,11613.0898,W,58.73,272.84,120210,,,A*46
$GPRMC,174812.778,A,3239.7069,N,11613.1475,W,59.15,272.69,120210,,,A*4D
$GPRMC,174815.768,A,3239.7089,N,11613.2057,W,59.35,272.87,120210,,,A*40
$GPRMC,174818.758,A,3239.7116,N,11613.2641,W,59.30,272.91,120210,,,A*4A
$GPRMC,174821.749,A,3239.7144,N,11613.3224,W,59.28,272.65,120210,,,A*43
$GPRMC,174824.739,A,3239.7166,N,11613.3803,W,59.07,272.04,120210,,,A*44
$GPRMC,174827.729,A,3239.7154,N,11613.4388,W,59.13,265.71,120210,,,A*49
$GPRMC,174830.818,A,3239.7083,N,11613.4981,W,59.12,257.82,120210,,,A*46
$GPRMC,174833.809,A,3239.6963,N,11613.5553,W,59.20,254.99,120210,,,A*49
$GPRMC,174836.799,A,3239.6832,N,11613.6116,W,59.05,254.93,120210,,,A*44
$GPRMC,174839.789,A,3239.6715,N,11613.6684,W,58.95,258.97,120210,,,A*4C
$GPRMC,174842.779,A,3239.6659,N,11613.7263,W,58.88,268.31,120210,,,A*49
$GPRMC,174845.769,A,3239.6663,N,11613.7842,W,59.15,271.32,120210,,,A*41
$GPRMC,174848.759,A,3239.6671,N,11613.8426,W,59.33,270.44,120210,,,A*49
$GPRMC,174851.749,A,3239.6678,N,11613.9006,W,59.13,271.11,120210,,,A*4D
$GPRMC,174854.739,A,3239.6687,N,11613.9586,W,59.11,270.90,120210,,,A*48
$GPRMC,174857.729,A,3239.6693,N,11614.0167,W,59.12,270.56,120210,,,A*43
$GPRMC,174900.819,A,3239.6702,N,11614.0766,W,59.10,272.75,120210,,,A*43
$GPRMC,174903.809,A,3239.6760,N,11614.1344,W,58.94,279.49,120210,,,A*49
$GPRMC,174906.799,A,3239.6873,N,11614.1907,W,58.70,286.65,120210,,,A*4E
$GPRMC,174909.789,A,3239.7031,N,11614.2452,W,58.76,288.68,120210,,,A*44
$GPRMC,174912.780,A,3239.7187,N,11614.3002,W,58.71,288.50,120210,,,A*47
$GPRMC,174915.770,A,3239.7348,N,11614.3548,W,58.92,288.70,120210,,,A*4A
$GPRMC,174918.760,A,3239.7504,N,11614.4095,W,58.97,288.46,120210,,,A*4A
$GPRMC,174921.750,A,3239.7660,N,11614.4647,W,59.00,288.61,120210,,,A*41
$GPRMC,174924.740,A,3239.7820,N,11614.5197,W,58.85,288.84,120210,,,A*43
$GPRMC,174927.730,A,3239.7976,N,11614.5745,W,58.97,288.54,120210,,,A*42
$GPRMC,174930.820,A,3239.8139,N,11614.6314,W,58.95,288.71,120210,,,A*40
$GPRMC,174933.810,A,3239.8295,N,11614.6868,W,59.41,288.22,120210,,,A*4B
$GPRMC,174936.800,A,3239.8454,N,11614.7422,W,59.49,288.84,120210,,,A*43
$GPRMC,174939.790,A,3239.8616,N,11614.7976,W,59.50,288.71,120210,,,A*40
$GPRMC,174942.780,A,3239.8777,N,11614.8530,W,59.29,288.56,120210,,,A*41
$GPRMC,174945.770,A,3239.8935,N,11614.9081,W,59.09,288.42,120210,,,A*48
$GPRMC,174948.760,A,3239.9092,N,11614.9635,W,59.23,288.49,120210,,,A*4B
$GPRMC,174951.751,A,3239.9248,N,11615.0188,W,59.32,288.43,120210,,,A*47
$GPRMC,174954.741,A,3239.9406,N,11615.0740,W,59.23,288.64,120210,,,A*48
$GPRMC,174957.731,A,3239.9564,N,11615.1293,W,59.05,288.46,120210,,,A*47
$GPRMC,175000.721,A,3239.9719,N,11615.1840,W,58.92,288.58,120210,,,A*40
$GPRMC,175003.811,A,3239.9878,N,11615.2410,W,58.87,288.74,120210,,,A*47
$GPRMC,175006.801,A,3240.0034,N,11615.2958,W,58.91,288.60,120210,,,A*47
$GPRMC,175009.791,A,3240.0187,N,11615.3510,W,58.96,288.39,120210,,,A*4D
$GPRMC,175012.781,A,3240.0343,N,11615.4062,W,58.91,288.42,120210,,,A*40
$GPRMC,175015.771,A,3240.0498,N,11615.4613,W,59.06,288.50,120210,,,A*45
$GPRMC,175018.761,A,3240.0657,N,11615.5164,W,59.27,288.70,120210,,,A*4F
$GPRMC,175021.751,A,3240.0816,N,11615.5715,W,59.66,289.02,120210,,,A*4C
$GPRMC,175024.741,A,3240.0976,N,11615.6269,W,59.64,288.60,120210,,,A*45
$GPRMC,175027.731,A,3240.1133,N,11615.6824,W,59.43,288.49,120210,,,A*44
$GPRMC,175030.721,A,3240.1292,N,11615.7380,W,59.17,288.55,120210,,,A*43
$GPRMC,175033.811,A,3240.1456,N,11615.7954,W,59.21,288.52,120210,,,A*43
$GPRMC,175036.801,A,3240.1613,N,11615.8505,W,59.15,288.55,120210,,,A*43
$GPRMC,175039.791,A,3240.1772,N,11615.9056,W,59.10,288.59,120210,,,A*47
$GPRMC,175042.782,A,3240.1928,N,11615.9609,W,58.75,288.61,120210,,,A*4D
$GPRMC,175045.772,A,3240.2084,N,11616.0155,W,58.27,288.84,120210,,,A*41
$GPRMC,175048.762,A,3240.2242,N,11616.0698,W,58.23,288.58,120210,,,A*46
$GPRMC,175051.752,A,3240.2395,N,11616.1239,W,58.57,288.50,120210,,,A*43
$GPRMC,175054.742,A,3240.2550,N,11616.1785,W,58.79,288.44,120210,,,A*43
$GPRMC,175057.732,A,3240.2703,N,11616.2334,W,58.90,288.35,120210,,,A*4F
$GPRMC,175100.722,A,3240.2861,N,11616.2881,W,58.96,288.61,120210,,,A*44
$GPRMC,175103.812,A,3240.3022,N,11616.3450,W,59.01,288.79,120210,,,A*42
$GPRMC,175106.802,A,3240.3179,N,11616.4001,W,59.01,288.50,120210,,,A*45
$GPRMC,175109.792,A,3240.3335,N,11616.4549,W,59.01,288.75,120210,,,A*48
$GPRMC,175112.782,A,3240.3494,N,11616.5100,W,58.95,288.63,120210,,,A*4C
$GPRMC,175115.772,A,3240.3652,N,11616.5647,W,58.85,288.59,120210,,,A*40
$GPRMC,175118.762,A,3240.3806,N,11616.6195,W,58.85,288.58,120210,,,A*49
$GPRMC,175121.752,A,3240.3964,N,11616.6743,W,58.84,288.55,120210,,,A*44
$GPRMC,175124.743,A,3240.4122,N,11616.7290,W,58.85,288.61,120210,,,A*40
$GPRMC,175127.733,A,3240.4280,N,11616.7845,W,59.28,288.49,120210,,,A*41
$GPRMC,175130.723,A,3240.4436,N,11616.8394,W,59.12,288.66,120210,,,A*41
$GPRMC,175133.813,A,3240.4599,N,11616.8962,W,59.13,288.35,120210,,,A*4E
$GPRMC,175136.803,A,3240.4753,N,11616.9514,W,58.96,288.46,120210,,,A*4A
$GPRMC,175139.793,A,3240.4908,N,11617.0063,W,59.07,288.49,120210,,,A*48
$GPRMC,175142.783,A,3240.5064,N,11617.0615,W,59.29,288.58,120210,,,A*4C
$GPRMC,175145.773,A,3240.5223,N,11617.1171,W,59.59,288.66,120210,,,A*4B
$GPRMC,175148.763,A,3240.5382,N,11617.1726,W,59.77,288.70,120210,,,A*42
$GPRMC,175151.753,A,3240.5539,N,11617.2283,W,59.74,288.64,120210,,,A*40
$GPRMC,175154.743,A,3240.5699,N,11617.2840,W,59.54,288.94,120210,,,A*45
$GPRMC,175157.733,A,3240.5862,N,11617.3393,W,59.22,290.88,120210,,,A*4A
$GPRMC,175200.723,A,3240.6049,N,11617.3929,W,58.80,294.40,120210,,,A*4A
$GPRMC,175203.813,A,3240.6272,N,11617.4461,W,58.31,298.58,120210,,,A*46
$GPRMC,175206.803,A,3240.6515,N,11617.4954,W,58.38,301.67,120210,,,A*4B
$GPRMC,175209.793,A,3240.6780,N,11617.5434,W,58.52,305.23,120210,,,A*4E
$GPRMC,175212.783,A,3240.7072,N,11617.5892,W,58.78,308.66,120210,,,A*4A
$GPRMC,175215.774,A,3240.7385,N,11617.6330,W,59.05,311.84,120210,,,A*41
$GPRMC,175218.764,A,3240.7717,N,11617.6754,W,59.02,313.35,120210,,,A*4B
$GPRMC,175221.754,A,3240.8054,N,11617.7172,W,58.96,313.69,120210,,,A*4B
$GPRMC,175224.744,A,3240.8391,N,11617.7590,W,59.11,313.45,120210,,,A*4D
$GPRMC,175227.734,A,3240.8727,N,11617.8012,W,59.01,313.48,120210,,,A*4C
$GPRMC,175230.724,A,3240.9063,N,11617.8432,W,59.00,313.57,120210,,,A*44
$GPRMC,175233.814,A,3240.9410,N,11617.8863,W,58.98,313.46,120210,,,A*43
$GPRMC,175236.804,A,3240.9746,N,11617.9284,W,58.93,313.48,120210,,,A*40
$GPRMC,175239.794,A,3241.0083,N,11617.9703,W,58.93,313.57,120210,,,A*4B
$GPRMC,175242.784,A,3241.0417,N,11618.0124,W,59.12,313.43,120210,,,A*47
$GPRMC,175245.774,A,3241.0754,N,11618.0545,W,59.07,313.37,120210,,,A*4F
$GPRMC,175248.764,A,3241.1092,N,11618.0965,W,59.09,313.85,120210,,,A*46
$GPRMC,175251.754,A,3241.1432,N,11618.1388,W,59.22,313.51,120210,,,A*4B
$GPRMC,175254.745,A,3241.1773,N,11618.1809,W,59.22,313.59,120210,,,A*42
$GPRMC,175257.735,A,3241.2110,N,11618.2232,W,59.21,313.47,120210,,,A*4B
$GPRMC,175300.725,A,3241.2450,N,11618.2656,W,59.02,313.48,120210,,,A*40
$GPRMC,175303.815,A,3241.2801,N,11618.3091,W,58.85,313.37,120210,,,A*4D
$GPRMC,175306.805,A,3241.3135,N,11618.3508,W,58.68,313.42,120210,,,A*42
$GPRMC,175309.795,A,3241.3471,N,11618.3931,W,58.80,313.49,120210,,,A*45
$GPRMC,175312.785,A,3241.3808,N,11618.4352,W,58.94,313.47,120210,,,A*4F
$GPRMC,175315.775,A,3241.4146,N,11618.4774,W,58.93,313.60,120210,,,A*41
$GPRMC,175318.765,A,3241.4482,N,11618.5195,W,59.03,313.57,120210,,,A*44
$GPRMC,175321.755,A,3241.4817,N,11618.5616,W,58.92,313.43,120210,,,A*4D
$GPRMC,175324.745,A,3241.5155,N,11618.6038,W,59.09,313.41,120210,,,A*4F
$GPRMC,175327.735,A,3241.5491,N,11618.6461,W,59.06,313.41,120210,,,A*41
$GPRMC,175330.725,A,3241.5831,N,11618.6884,W,59.13,313.45,120210,,,A*47
$GPRMC,175333.815,A,3241.6180,N,11618.7318,W,59.00,313.70,120210,,,A*43
$GPRMC,175336.805,A,3241.6520,N,11618.7738,W,58.92,313.39,120210,,,A*48
$GPRMC,175339.795,A,3241.6858,N,11618.8155,W,59.00,313.77,120210,,,A*41
$GPRMC,175342.785,A,3241.7197,N,11618.8575,W,59.08,313.62,120210,,,A*4D
$GPRMC,175345.776,A,3241.7535,N,11618.9000,W,59.12,313.43,120210,,,A*44
$GPRMC,175348.766,A,3241.7872,N,11618.9421,W,58.99,313.54,120210,,,A*45
$GPRMC,175351.756,A,3241.8210,N,11618.9842,W,58.95,313.11,120210,,,A*4B
$GPRMC,175354.746,A,3241.8539,N,11619.0272,W,58.84,311.02,120210,,,A*42
$GPRMC,175357.736,A,3241.8848,N,11619.0720,W,58.91,307.68,120210,,,A*40
$GPRMC,175400.726,A,3241.9137,N,11619.1192,W,59.14,304.32,120210,,,A*4A
$GPRMC,175403.816,A,3241.9410,N,11619.1700,W,59.20,300.70,120210,,,A*4D
$GPRMC,175406.806,A,3241.9650,N,11619.2209,W,59.03,297.37,120210,,,A*4D
$GPRMC,175409.796,A,3241.9863,N,11619.2732,W,58.97,293.88,120210,,,A*4B
$GPRMC,175412.786,A,3242.0053,N,11619.3270,W,59.10,290.73,120210,,,A*4A
$GPRMC,175415.776,A,3242.0214,N,11619.3822,W,59.43,286.75,120210,,,A*49
$GPRMC,175418.766,A,3242.0343,N,11619.4385,W,59.85,283.81,120210,,,A*43
$GPRMC,175421.756,A,3242.0449,N,11619.4958,W,59.79,280.36,120210,,,A*41
$GPRMC,175424.747,A,3242.0531,N,11619.5538,W,59.62,278.92,120210,,,A*42
$GPRMC,175427.737,A,3242.0609,N,11619.6115,W,59.48,279.14,120210,,,A*41
$GPRMC,175430.727,A,3242.0686,N,11619.6694,W,59.34,278.67,120210,,,A*41
$GPRMC,175433.816,A,3242.0765,N,11619.7290,W,59.24,278.70,120210,,,A*45
$GPRMC,175436.807,A,3242.0839,N,11619.7867,W,59.21,278.85,120210,,,A*4B
$GPRMC,175439.797,A,3242.0915,N,11619.8444,W,59.28,278.74,120210,,,A*48
