NMEA Sentence Code,UTC Time,Status,Latitude,Latitude Direction,Longitude,Longitude Direction,Speed (knots),Track Angle (degrees true),Date,MagneticVariation,Magnetic Variation Direction,[FAA Mode]-Optional,Checksum
$GPRMC,142431.3,A,3340.049091,N,11749.027910,W,70.7,112.3,220510,,,A*4D
$GPRMC,142434.3,A,3340.026374,N,11748.962928,W,70.8,112.4,220510,,,A*43
$GPRMC,142437.3,A,3340.003893,N,11748.896151,W,72.0,111.9,220510,,,A*4D
$GPRMC,142440.3,A,3339.981209,N,11748.829579,W,72.0,111.8,220510,,,A*42
$GPRMC,142443.3,A,3339.960838,N,11748.762016,W,71.6,109.7,220510,,,A*49
$GPRMC,142446.3,A,3339.943686,N,11748.695099,W,69.1,107.3,220510,,,A*4C
$GPRMC,142449.3,A,3339.928961,N,11748.631003,W,66.1,104.7,220510,,,A*4D
$GPRMC,142452.3,A,3339.917041,N,11748.567993,W,65.2,102.2,220510,,,A*43
$GPRMC,142455.3,A,3339.907626,N,11748.504350,W,65.9,100.1,220510,,,A*48
$GPRMC,142458.3,A,3339.898077,N,11748.439085,W,66.9,99.8,220510,,,A*7F
$GPRMC,142501.3,A,3339.889242,N,11748.372292,W,68.3,99.5,220510,,,A*73
$GPRMC,142504.3,A,3339.880809,N,11748.304386,W,69.2,99.4,220510,,,A*7E
$GPRMC,142507.3,A,3339.871612,N,11748.236007,W,69.0,99.3,220510,,,A*78
$GPRMC,142510.3,A,3339.861388,N,11748.168969,W,66.8,99.7,220510,,,A*73
$GPRMC,142513.3,A,3339.852428,N,11748.104088,W,64.9,99.4,220510,,,A*71
$GPRMC,142516.3,A,3339.843864,N,11748.041141,W,64.1,99.6,220510,,,A*7E
$GPRMC,142519.3,A,3339.834758,N,11747.979662,W,61.7,99.6,220510,,,A*79
$GPRMC,142522.3,A,3339.825505,N,11747.920327,W,59.3,100.1,220510,,,A*4A
$GPRMC,142525.3,A,3339.817945,N,11747.861530,W,59.1,99.5,220510,,,A*77
$GPRMC,142528.3,A,3339.809551,N,11747.803523,W,60.1,99.6,220510,,,A*73
$GPRMC,142531.3,A,3339.802253,N,11747.742651,W,62.6,99.3,220510,,,A*79
$GPRMC,142534.3,A,3339.793415,N,11747.680883,W,62.6,99.7,220510,,,A*75
$GPRMC,142537.3,A,3339.784222,N,11747.621385,W,59.4,100.0,220510,,,A*48
$GPRMC,142540.3,A,3339.777059,N,11747.563697,W,57.4,99.4,220510,,,A*72
$GPRMC,142543.3,A,3339.768773,N,11747.507434,W,57.7,99.8,220510,,,A*76
$GPRMC,142546.3,A,3339.760910,N,11747.449753,W,59.8,99.4,220510,,,A*74
$GPRMC,142549.3,A,3339.751489,N,11747.389968,W,60.5,99.8,220510,,,A*72
$GPRMC,142552.3,A,3339.742949,N,11747.329680,W,61.5,100.3,220510,,,A*43
$GPRMC,142555.3,A,3339.732328,N,11747.268954,W,62.3,103.4,220510,,,A*4D
$GPRMC,142558.3,A,3339.716432,N,11747.207804,W,63.2,107.5,220510,,,A*42
$GPRMC,142601.3,A,3339.697779,N,11747.147696,W,64.6,110.8,220510,,,A*43
$GPRMC,142604.3,A,3339.674968,N,11747.089230,W,64.9,114.9,220510,,,A*44
$GPRMC,142607.3,A,3339.649296,N,11747.032394,W,64.5,119.3,220510,,,A*47
$GPRMC,142610.3,A,3339.621037,N,11746.978286,W,63.7,122.5,220510,,,A*49
$GPRMC,142613.3,A,3339.591867,N,11746.925450,W,64.5,124.2,220510,,,A*4E
$GPRMC,142616.3,A,3339.561154,N,11746.871760,W,65.6,124.3,220510,,,A*4E
$GPRMC,142619.3,A,3339.530545,N,11746.818286,W,65.1,124.5,220510,,,A*42
$GPRMC,142622.3,A,3339.499455,N,11746.764655,W,64.8,124.8,220510,,,A*43
$GPRMC,142625.3,A,3339.470204,N,11746.713077,W,61.3,124.3,220510,,,A*42
$GPRMC,142628.3,A,3339.441501,N,11746.664020,W,58.8,124.7,220510,,,A*49
$GPRMC,142631.3,A,3339.413800,N,11746.616838,W,58.0,124.9,220510,,,A*48
$GPRMC,142634.3,A,3339.386952,N,11746.570108,W,56.9,124.7,220510,,,A*40
$GPRMC,142637.3,A,3339.359907,N,11746.523766,W,57.6,124.5,220510,,,A*45
$GPRMC,142640.3,A,3339.332815,N,11746.475559,W,58.9,124.6,220510,,,A*45
$GPRMC,142643.3,A,3339.304639,N,11746.424912,W,60.9,124.3,220510,,,A*4A
$GPRMC,142646.3,A,3339.275623,N,11746.374408,W,60.8,124.3,220510,,,A*46
$GPRMC,142649.3,A,3339.248175,N,11746.326374,W,59.0,122.7,220510,,,A*48
$GPRMC,142652.3,A,3339.222961,N,11746.275060,W,59.5,119.6,220510,,,A*4E
$GPRMC,142655.3,A,3339.201480,N,11746.221932,W,59.7,115.8,220510,,,A*45
$GPRMC,142658.3,A,3339.181683,N,11746.164258,W,62.3,111.9,220510,,,A*4E
$GPRMC,142701.3,A,3339.165325,N,11746.105227,W,62.2,108.5,220510,,,A*4A
$GPRMC,142704.3,A,3339.149810,N,11746.047965,W,60.3,107.8,220510,,,A*47
$GPRMC,142707.3,A,3339.140092,N,11745.989673,W,59.9,101.7,220510,,,A*46
$GPRMC,142710.3,A,3339.131646,N,11745.930404,W,60.3,100.5,220510,,,A*4A
$GPRMC,142713.3,A,3339.123832,N,11745.872011,W,58.8,99.6,220510,,,A*72
$GPRMC,142716.3,A,3339.115776,N,11745.814735,W,58.0,100.0,220510,,,A*43
$GPRMC,142719.3,A,3339.107978,N,11745.757383,W,59.0,99.6,220510,,,A*78
$GPRMC,142722.3,A,3339.098617,N,11745.697028,W,63.5,100.4,220510,,,A*41
$GPRMC,142725.3,A,3339.090190,N,11745.633871,W,64.5,99.8,220510,,,A*76
$GPRMC,142728.3,A,3339.079595,N,11745.571149,W,62.8,101.5,220510,,,A*4C
$GPRMC,142731.3,A,3339.069412,N,11745.510630,W,62.5,102.0,220510,,,A*4E
$GPRMC,142734.3,A,3339.056375,N,11745.449030,W,64.6,105.4,220510,,,A*4C
$GPRMC,142737.3,A,3339.038719,N,11745.387016,W,64.7,108.9,220510,,,A*49
$GPRMC,142740.3,A,3339.020969,N,11745.327545,W,61.9,109.4,220510,,,A*47
$GPRMC,142743.3,A,3339.004719,N,11745.270691,W,59.9,109.3,220510,,,A*4E
$GPRMC,142746.3,A,3338.988432,N,11745.213923,W,61.2,109.1,220510,,,A*4C
$GPRMC,142749.3,A,3338.970925,N,11745.155837,W,60.9,109.6,220510,,,A*47
$GPRMC,142752.3,A,3338.954706,N,11745.098898,W,60.0,109.1,220510,,,A*4F
$GPRMC,142755.3,A,3338.938609,N,11745.042262,W,60.2,108.8,220510,,,A*4E
$GPRMC,142758.3,A,3338.922068,N,11744.986529,W,58.9,109.2,220510,,,A*4A
$GPRMC,142801.3,A,3338.906469,N,11744.931084,W,58.0,108.7,220510,,,A*49
$GPRMC,142804.3,A,3338.891357,N,11744.877785,W,56.1,109.0,220510,,,A*45
$GPRMC,142807.3,A,3338.875157,N,11744.824000,W,57.1,109.5,220510,,,A*46
$GPRMC,142810.3,A,3338.859518,N,11744.769526,W,58.0,109.5,220510,,,A*48
$GPRMC,142813.3,A,3338.843678,N,11744.714203,W,58.6,109.2,220510,,,A*4E
$GPRMC,142816.3,A,3338.827776,N,11744.658617,W,59.1,109.4,220510,,,A*4E
$GPRMC,142819.3,A,3338.811238,N,11744.602362,W,60.1,109.2,220510,,,A*4F
$GPRMC,142822.3,A,3338.794938,N,11744.545691,W,60.2,109.3,220510,,,A*45
$GPRMC,142825.3,A,3338.778311,N,11744.490052,W,57.4,109.7,220510,,,A*47
$GPRMC,142828.3,A,3338.762440,N,11744.436256,W,57.0,109.3,220510,,,A*48
$GPRMC,142831.3,A,3338.745784,N,11744.382888,W,56.9,110.2,220510,,,A*4E
$GPRMC,142834.3,A,3338.730454,N,11744.330856,W,54.3,109.6,220510,,,A*49
$GPRMC,142837.3,A,3338.715083,N,11744.280634,W,53.8,110.9,220510,,,A*48
$GPRMC,142840.3,A,3338.697077,N,11744.230545,W,53.6,114.6,220510,,,A*43
$GPRMC,142843.3,A,3338.673831,N,11744.185333,W,53.3,121.6,220510,,,A*49
$GPRMC,142846.3,A,3338.649009,N,11744.141103,W,54.0,125.1,220510,,,A*48
$GPRMC,142849.3,A,3338.618900,N,11744.098567,W,55.2,131.3,220510,,,A*44
$GPRMC,142852.3,A,3338.586935,N,11744.062614,W,52.7,137.4,220510,,,A*4D
$GPRMC,142855.3,A,3338.553155,N,11744.030654,W,50.6,142.6,220510,,,A*4C
$GPRMC,142858.3,A,3338.518964,N,11744.000486,W,52.0,144.9,220510,,,A*47
$GPRMC,142901.3,A,3338.481495,N,11743.969248,W,55.4,144.3,220510,,,A*44
$GPRMC,142904.3,A,3338.442119,N,11743.935696,W,59.8,144.3,220510,,,A*41
$GPRMC,142907.3,A,3338.398231,N,11743.898756,W,65.8,144.7,220510,,,A*4B
$GPRMC,142910.3,A,3338.347797,N,11743.860167,W,70.9,145.9,220510,,,A*4F
$GPRMC,142913.3,A,3338.297900,N,11743.820224,W,72.1,146.2,220510,,,A*42
$GPRMC,142916.3,A,3338.247605,N,11743.780138,W,72.3,146.1,220510,,,A*4A
$GPRMC,142919.3,A,3338.199240,N,11743.740117,W,71.3,145.9,220510,,,A*49
$GPRMC,142922.3,A,3338.150242,N,11743.700666,W,71.0,145.9,220510,,,A*40
$GPRMC,142925.3,A,3338.098814,N,11743.660947,W,71.1,146.2,220510,,,A*49
$GPRMC,142928.3,A,3338.050735,N,11743.621189,W,70.1,145.5,220510,,,A*46
$GPRMC,142931.3,A,3338.002546,N,11743.580241,W,70.7,143.3,220510,,,A*46
$GPRMC,142934.3,A,3337.958271,N,11743.536054,W,69.3,139.1,220510,,,A*41
$GPRMC,142937.3,A,3337.919385,N,11743.489604,W,68.1,135.9,220510,,,A*4C
$GPRMC,142940.3,A,3337.878152,N,11743.442245,W,68.9,135.5,220510,,,A*40
$GPRMC,142943.3,A,3337.836609,N,11743.393733,W,69.2,135.3,220510,,,A*43
$GPRMC,142946.3,A,3337.794694,N,11743.344867,W,70.2,136.0,220510,,,A*49
$GPRMC,142949.3,A,3337.750222,N,11743.297860,W,70.8,139.1,220510,,,A*4B
$GPRMC,142952.3,A,3337.703430,N,11743.252746,W,70.6,141.2,220510,,,A*42
$GPRMC,142955.3,A,3337.655216,N,11743.208354,W,72.5,142.6,220510,,,A*4B
$GPRMC,142958.3,A,3337.605951,N,11743.165186,W,72.6,143.3,220510,,,A*49
$GPRMC,143001.3,A,3337.558214,N,11743.121829,W,71.7,142.7,220510,,,A*47
$GPRMC,143004.3,A,3337.510209,N,11743.079158,W,71.9,143.1,220510,,,A*48
$GPRMC,143007.3,A,3337.463151,N,11743.035989,W,70.8,143.0,220510,,,A*4D
$GPRMC,143010.3,A,3337.417859,N,11742.992876,W,69.7,142.3,220510,,,A*48
$GPRMC,143013.3,A,3337.373062,N,11742.950153,W,69.7,142.1,220510,,,A*4C
$GPRMC,143016.3,A,3337.326095,N,11742.906376,W,71.6,142.2,220510,,,A*4C
$GPRMC,143019.3,A,3337.278814,N,11742.862094,W,72.4,142.4,220510,,,A*43
$GPRMC,143022.3,A,3337.231505,N,11742.818854,W,70.6,143.0,220510,,,A*47
$GPRMC,143025.3,A,3337.184743,N,11742.777616,W,69.4,143.3,220510,,,A*4A
$GPRMC,143028.3,A,3337.139458,N,11742.737289,W,67.8,144.1,220510,,,A*49
$GPRMC,143031.3,A,3337.095143,N,11742.697409,W,67.6,143.2,220510,,,A*46
$GPRMC,143034.3,A,3337.049508,N,11742.656538,W,68.3,143.1,220510,,,A*4E
$GPRMC,143037.3,A,3337.002703,N,11742.614572,W,69.4,142.8,220510,,,A*4D
$GPRMC,143040.3,A,3336.959150,N,11742.571084,W,68.5,139.8,220510,,,A*4B
$GPRMC,143043.3,A,3336.918691,N,11742.522827,W,69.4,135.5,220510,,,A*41
$GPRMC,143046.3,A,3336.878590,N,11742.473804,W,70.1,134.6,220510,,,A*4A
$GPRMC,143049.3,A,3336.837440,N,11742.423212,W,70.5,134.9,220510,,,A*41
$GPRMC,143052.3,A,3336.796322,N,11742.374085,W,69.8,135.6,220510,,,A*4E
$GPRMC,143055.3,A,3336.754704,N,11742.326487,W,69.1,135.6,220510,,,A*4F
$GPRMC,143058.3,A,3336.713779,N,11742.277683,W,68.9,135.5,220510,,,A*42
$GPRMC,143101.3,A,3336.674095,N,11742.230014,W,67.9,134.2,220510,,,A*48
$GPRMC,143104.3,A,3336.636124,N,11742.179947,W,69.1,131.7,220510,,,A*47
$GPRMC,143107.3,A,3336.600545,N,11742.125960,W,69.4,127.5,220510,,,A*4E
$GPRMC,143110.3,A,3336.568984,N,11742.066008,W,70.9,122.1,220510,,,A*41
$GPRMC,143113.3,A,3336.540199,N,11742.004175,W,72.1,118.0,220510,,,A*41
$GPRMC,143116.3,A,3336.513819,N,11741.938650,W,72.6,116.7,220510,,,A*48
$GPRMC,143119.3,A,3336.486584,N,11741.875065,W,71.7,117.2,220510,,,A*4D
$GPRMC,143122.3,A,3336.459398,N,11741.811198,W,72.0,116.9,220510,,,A*43
$GPRMC,143125.3,A,3336.432063,N,11741.746001,W,72.9,116.9,220510,,,A*4B
$GPRMC,143128.3,A,3336.405231,N,11741.682221,W,71.7,117.7,220510,,,A*4C
$GPRMC,143131.3,A,3336.375750,N,11741.619833,W,70.8,120.5,220510,,,A*45
$GPRMC,143134.3,A,3336.343572,N,11741.560878,W,70.8,122.8,220510,,,A*4A
$GPRMC,143137.3,A,3336.310387,N,11741.502107,W,71.3,125.2,220510,,,A*41
$GPRMC,143140.3,A,3336.274916,N,11741.445907,W,70.4,127.8,220510,,,A*44
$GPRMC,143143.3,A,3336.237582,N,11741.392195,W,70.0,129.5,220510,,,A*48
$GPRMC,143146.3,A,3336.201130,N,11741.338626,W,69.9,128.2,220510,,,A*4D
$GPRMC,143149.3,A,3336.168701,N,11741.282393,W,69.3,124.3,220510,,,A*46
$GPRMC,143152.3,A,3336.138670,N,11741.223564,W,69.2,120.3,220510,,,A*4E
$GPRMC,143155.3,A,3336.112697,N,11741.161578,W,71.4,116.6,220510,,,A*4F
$GPRMC,143158.3,A,3336.087538,N,11741.095955,W,70.5,114.6,220510,,,A*42
$GPRMC,143201.3,A,3336.063598,N,11741.033671,W,68.5,114.7,220510,,,A*40
$GPRMC,143204.3,A,3336.039681,N,11740.972108,W,68.8,115.0,220510,,,A*4E
$GPRMC,143207.3,A,3336.015709,N,11740.908973,W,69.4,114.9,220510,,,A*4E
$GPRMC,143210.3,A,3335.991657,N,11740.846382,W,69.2,114.9,220510,,,A*4D
$GPRMC,143213.3,A,3335.967505,N,11740.784674,W,68.7,115.3,220510,,,A*41
$GPRMC,143216.3,A,3335.941901,N,11740.723840,W,67.0,115.7,220510,,,A*40
$GPRMC,143219.3,A,3335.916984,N,11740.665882,W,64.5,118.2,220510,,,A*43
$GPRMC,143222.3,A,3335.887660,N,11740.610715,W,64.7,123.8,220510,,,A*44
$GPRMC,143225.3,A,3335.853206,N,11740.560459,W,65.9,130.7,220510,,,A*43
$GPRMC,143228.3,A,3335.813330,N,11740.512070,W,67.3,135.7,220510,,,A*49
$GPRMC,143231.3,A,3335.771761,N,11740.467821,W,67.1,139.5,220510,,,A*49
$GPRMC,143234.3,A,3335.728251,N,11740.426335,W,67.1,142.4,220510,,,A*40
$GPRMC,143237.3,A,3335.679848,N,11740.387451,W,68.6,147.3,220510,,,A*47
$GPRMC,143240.3,A,3335.628818,N,11740.354713,W,69.4,154.2,220510,,,A*4D
$GPRMC,143243.3,A,3335.573389,N,11740.328722,W,69.9,161.0,220510,,,A*40
$GPRMC,143246.3,A,3335.517624,N,11740.312546,W,67.6,168.7,220510,,,A*43
$GPRMC,143249.3,A,3335.461559,N,11740.303466,W,68.1,174.0,220510,,,A*44
$GPRMC,143252.3,A,3335.404037,N,11740.301242,W,69.2,179.6,220510,,,A*4B
$GPRMC,143255.3,A,3335.346244,N,11740.303364,W,70.0,181.7,220510,,,A*40
$GPRMC,143258.3,A,3335.287306,N,11740.306629,W,70.9,181.4,220510,,,A*45
$GPRMC,143301.3,A,3335.227376,N,11740.308018,W,71.3,181.5,220510,,,A*45
$GPRMC,143304.3,A,3335.167753,N,11740.308978,W,71.6,180.9,220510,,,A*43
$GPRMC,143307.3,A,3335.109371,N,11740.310287,W,70.0,181.0,220510,,,A*41
$GPRMC,143310.3,A,3335.051928,N,11740.311558,W,68.0,180.7,220510,,,A*46
$GPRMC,143313.3,A,3334.995199,N,11740.311780,W,67.1,180.7,220510,,,A*4E
$GPRMC,143316.3,A,3334.939851,N,11740.312959,W,65.9,180.8,220510,,,A*4C
$GPRMC,143319.3,A,3334.884926,N,11740.314068,W,65.6,181.0,220510,,,A*4E
$GPRMC,143322.3,A,3334.830269,N,11740.315755,W,66.0,181.0,220510,,,A*44
$GPRMC,143325.3,A,3334.774842,N,11740.316603,W,66.6,181.1,220510,,,A*49
$GPRMC,143328.3,A,3334.717800,N,11740.318068,W,68.0,181.2,220510,,,A*49
$GPRMC,143331.3,A,3334.661374,N,11740.318870,W,68.1,180.8,220510,,,A*42
$GPRMC,143334.3,A,3334.603534,N,11740.320109,W,69.1,180.6,220510,,,A*42
$GPRMC,143337.3,A,3334.544888,N,11740.321286,W,71.2,181.1,220510,,,A*42
$GPRMC,143340.3,A,3334.483724,N,11740.321450,W,73.4,180.6,220510,,,A*4E
$GPRMC,143343.3,A,3334.423012,N,11740.321887,W,73.3,180.7,220510,,,A*45
$GPRMC,143346.3,A,3334.361218,N,11740.323716,W,72.9,181.5,220510,,,A*44
$GPRMC,143349.3,A,3334.300765,N,11740.325525,W,72.3,181.5,220510,,,A*4D
$GPRMC,143352.3,A,3334.240481,N,11740.326982,W,72.1,181.1,220510,,,A*4F
$GPRMC,143355.3,A,3334.180444,N,11740.327674,W,71.5,181.5,220510,,,A*4A
$GPRMC,143358.3,A,3334.120431,N,11740.331522,W,71.7,183.2,220510,,,A*4F
$GPRMC,143401.3,A,3334.060666,N,11740.337309,W,71.4,184.9,220510,,,A*47
$GPRMC,143404.3,A,3334.001409,N,11740.344539,W,70.7,185.5,220510,,,A*40
$GPRMC,143407.3,A,3333.943259,N,11740.351107,W,70.0,184.9,220510,,,A*4F
$GPRMC,143410.3,A,3333.884779,N,11740.357594,W,70.3,185.7,220510,,,A*40
$GPRMC,143413.3,A,3333.827003,N,11740.364079,W,68.8,185.9,220510,,,A*4A
$GPRMC,143416.3,A,3333.771533,N,11740.371993,W,65.8,185.8,220510,,,A*40
$GPRMC,143419.3,A,3333.719405,N,11740.378757,W,62.9,186.2,220510,,,A*45
$GPRMC,143422.3,A,3333.668439,N,11740.385015,W,62.1,185.8,220510,,,A*47
$GPRMC,143425.3,A,3333.615456,N,11740.389700,W,64.9,183.9,220510,,,A*45
$GPRMC,143428.3,A,3333.558936,N,11740.391734,W,67.9,181.7,220510,,,A*48
$GPRMC,143431.3,A,3333.500226,N,11740.391224,W,70.2,179.2,220510,,,A*4C
$GPRMC,143434.3,A,3333.440919,N,11740.389589,W,70.4,178.9,220510,,,A*4E
$GPRMC,143437.3,A,3333.382927,N,11740.388056,W,69.8,178.8,220510,,,A*4A
$GPRMC,143440.3,A,3333.323724,N,11740.386785,W,70.5,178.8,220510,,,A*4E
$GPRMC,143443.3,A,3333.265563,N,11740.384905,W,70.8,178.9,220510,,,A*47
$GPRMC,143446.3,A,3333.206455,N,11740.384619,W,71.2,179.1,220510,,,A*43
$GPRMC,143449.3,A,3333.146622,N,11740.383302,W,71.0,179.0,220510,,,A*42
$GPRMC,143452.3,A,3333.087485,N,11740.381153,W,70.9,178.7,220510,,,A*41
$GPRMC,143455.3,A,3333.029892,N,11740.379838,W,69.5,179.1,220510,,,A*48
$GPRMC,143458.3,A,3332.972337,N,11740.379262,W,69.4,179.9,220510,,,A*4B
$GPRMC,143501.3,A,3332.912344,N,11740.380581,W,71.3,181.9,220510,,,A*41
$GPRMC,143504.3,A,3332.851682,N,11740.386702,W,71.9,184.5,220510,,,A*41
$GPRMC,143507.3,A,3332.791810,N,11740.393257,W,71.6,186.4,220510,,,A*49
$GPRMC,143510.3,A,3332.732854,N,11740.403182,W,72.2,189.1,220510,,,A*4E
$GPRMC,143513.3,A,3332.673018,N,11740.416494,W,73.3,190.5,220510,,,A*43
$GPRMC,143516.3,A,3332.612499,N,11740.429793,W,73.8,190.2,220510,,,A*48
$GPRMC,143519.3,A,3332.551967,N,11740.443273,W,73.5,190.9,220510,,,A*4E
$GPRMC,143522.3,A,3332.491872,N,11740.456965,W,73.1,190.5,220510,,,A*4E
$GPRMC,143525.3,A,3332.432025,N,11740.469275,W,73.1,190.4,220510,,,A*4D
$GPRMC,143528.3,A,3332.371170,N,11740.482331,W,73.9,190.5,220510,,,A*4C
$GPRMC,143531.3,A,3332.310700,N,11740.495978,W,74.4,189.5,220510,,,A*41
$GPRMC,143534.3,A,3332.248962,N,11740.506039,W,74.7,186.7,220510,,,A*4B
$GPRMC,143537.3,A,3332.187478,N,11740.512148,W,74.2,183.6,220510,,,A*4D
$GPRMC,143540.3,A,3332.124990,N,11740.514982,W,74.5,181.2,220510,,,A*46
$GPRMC,143543.3,A,3332.062308,N,11740.514338,W,74.8,178.6,220510,,,A*49
$GPRMC,143546.3,A,3331.999639,N,11740.508628,W,75.3,174.3,220510,,,A*4F
$GPRMC,143549.3,A,3331.939358,N,11740.494707,W,73.8,166.5,220510,,,A*48
$GPRMC,143552.3,A,3331.881691,N,11740.469491,W,73.6,156.7,220510,,,A*41
$GPRMC,143555.3,A,3331.827470,N,11740.432778,W,76.2,147.5,220510,,,A*4E
$GPRMC,143558.3,A,3331.778257,N,11740.386104,W,76.0,141.9,220510,,,A*48
$GPRMC,143601.3,A,3331.736563,N,11740.330315,W,75.8,132.4,220510,,,A*40
$GPRMC,143604.3,A,3331.697559,N,11740.272555,W,74.8,130.2,220510,,,A*46
$GPRMC,143607.3,A,3331.657437,N,11740.216620,W,74.4,131.5,220510,,,A*49
$GPRMC,143610.3,A,3331.613865,N,11740.163369,W,74.0,137.0,220510,,,A*4A
$GPRMC,143613.3,A,3331.564887,N,11740.117190,W,72.9,144.6,220510,,,A*4C
$GPRMC,143616.3,A,3331.511989,N,11740.080022,W,72.5,152.0,220510,,,A*4E
$GPRMC,143619.3,A,3331.455055,N,11740.051290,W,73.5,159.0,220510,,,A*45
$GPRMC,143622.3,A,3331.396695,N,11740.026237,W,73.7,159.3,220510,,,A*43
$GPRMC,143625.3,A,3331.339342,N,11739.999783,W,73.7,158.8,220510,,,A*4D
$GPRMC,143628.3,A,3331.281939,N,11739.973120,W,73.3,159.0,220510,,,A*42
$GPRMC,143631.3,A,3331.225068,N,11739.948214,W,73.0,160.2,220510,,,A*4E
$GPRMC,143634.3,A,3331.168005,N,11739.923491,W,73.2,160.4,220510,,,A*48
$GPRMC,143637.3,A,3331.110582,N,11739.899294,W,73.1,160.1,220510,,,A*4B
$GPRMC,143640.3,A,3331.053745,N,11739.875662,W,72.7,160.5,220510,,,A*48
$GPRMC,143643.3,A,3330.996369,N,11739.850832,W,72.6,160.1,220510,,,A*49
$GPRMC,143646.3,A,3330.939875,N,11739.826190,W,71.8,160.5,220510,,,A*46
$GPRMC,143649.3,A,3330.883066,N,11739.802614,W,72.1,160.5,220510,,,A*44
$GPRMC,143652.3,A,3330.825852,N,11739.777870,W,73.3,160.3,220510,,,A*49
$GPRMC,143655.3,A,3330.767499,N,11739.752936,W,74.2,160.3,220510,,,A*4E
$GPRMC,143658.3,A,3330.709345,N,11739.727884,W,74.4,160.3,220510,,,A*41
$GPRMC,143701.3,A,3330.650984,N,11739.703486,W,73.9,160.5,220510,,,A*42
$GPRMC,143704.3,A,3330.593919,N,11739.678651,W,73.6,160.3,220510,,,A*43
$GPRMC,143707.3,A,3330.535913,N,11739.653614,W,73.1,160.4,220510,,,A*4E
$GPRMC,143710.3,A,3330.479524,N,11739.629209,W,71.7,160.2,220510,,,A*4E
$GPRMC,143713.3,A,3330.422698,N,11739.604869,W,71.9,160.2,220510,,,A*4A
$GPRMC,143716.3,A,3330.366405,N,11739.581664,W,70.8,160.4,220510,,,A*45
$GPRMC,143719.3,A,3330.311483,N,11739.559798,W,69.1,162.6,220510,,,A*42
$GPRMC,143722.3,A,3330.255801,N,11739.542877,W,69.7,166.2,220510,,,A*4F
$GPRMC,143725.3,A,3330.196045,N,11739.528152,W,73.4,169.5,220510,,,A*4E
$GPRMC,143728.3,A,3330.136577,N,11739.517242,W,71.5,174.1,220510,,,A*48
$GPRMC,143731.3,A,3330.077810,N,11739.513434,W,69.8,177.6,220510,,,A*4B
$GPRMC,143734.3,A,3330.020807,N,11739.513450,W,69.2,181.4,220510,,,A*49
$GPRMC,143737.3,A,3329.961294,N,11739.519691,W,71.0,186.0,220510,,,A*43
$GPRMC,143740.3,A,3329.901825,N,11739.529222,W,71.9,188.8,220510,,,A*45
$GPRMC,143743.3,A,3329.842139,N,11739.542114,W,73.1,191.6,220510,,,A*43
$GPRMC,143746.3,A,3329.783217,N,11739.560183,W,71.5,194.6,220510,,,A*46
$GPRMC,143749.3,A,3329.726384,N,11739.579572,W,70.5,196.4,220510,,,A*4E
$GPRMC,143752.3,A,3329.671344,N,11739.604578,W,71.3,201.8,220510,,,A*4E
$GPRMC,143755.3,A,3329.619447,N,11739.635788,W,70.7,206.2,220510,,,A*44
$GPRMC,143758.3,A,3329.570214,N,11739.670914,W,70.3,209.8,220510,,,A*4E
$GPRMC,143801.3,A,3329.520377,N,11739.707523,W,70.6,211.1,220510,,,A*40
$GPRMC,143804.3,A,3329.468304,N,11739.746304,W,72.2,211.7,220510,,,A*4A
$GPRMC,143807.3,A,3329.416658,N,11739.783271,W,72.0,211.5,220510,,,A*46
$GPRMC,143810.3,A,3329.365962,N,11739.821218,W,72.8,212.8,220510,,,A*4B
$GPRMC,143813.3,A,3329.313785,N,11739.861174,W,73.8,213.0,220510,,,A*4B
$GPRMC,143816.3,A,3329.259264,N,11739.900948,W,75.6,211.7,220510,,,A*47
$GPRMC,143819.3,A,3329.203044,N,11739.939871,W,76.8,211.2,220510,,,A*4E
$GPRMC,143822.3,A,3329.148993,N,11739.980096,W,76.2,212.4,220510,,,A*45
$GPRMC,143825.3,A,3329.097893,N,11740.022682,W,75.0,214.6,220510,,,A*49
$GPRMC,143828.3,A,3329.049328,N,11740.064705,W,73.3,215.8,220510,,,A*4A
$GPRMC,143831.3,A,3328.997988,N,11740.107832,W,74.3,216.0,220510,,,A*4A
$GPRMC,143834.3,A,3328.949094,N,11740.149777,W,73.4,215.8,220510,,,A*47
$GPRMC,143837.3,A,3328.899480,N,11740.192030,W,72.5,215.7,220510,,,A*44
$GPRMC,143840.3,A,3328.851711,N,11740.232991,W,71.2,215.7,220510,,,A*44
$GPRMC,143843.3,A,3328.804236,N,11740.274271,W,69.7,215.6,220510,,,A*4D
$GPRMC,143846.3,A,3328.757678,N,11740.315249,W,67.1,216.1,220510,,,A*4E
$GPRMC,143849.3,A,3328.713908,N,11740.352423,W,64.2,216.1,220510,,,A*40
$GPRMC,143852.3,A,3328.673658,N,11740.386703,W,62.5,214.2,220510,,,A*4F
$GPRMC,143855.3,A,3328.627342,N,11740.418918,W,64.2,209.7,220510,,,A*4B
$GPRMC,143858.3,A,3328.575246,N,11740.444832,W,66.7,203.4,220510,,,A*49
$GPRMC,143901.3,A,3328.522999,N,11740.464493,W,65.6,196.7,220510,,,A*44
$GPRMC,143904.3,A,3328.470250,N,11740.480556,W,65.3,190.1,220510,,,A*4E
$GPRMC,143907.3,A,3328.416491,N,11740.488118,W,64.1,184.7,220510,,,A*40
$GPRMC,143910.3,A,3328.362632,N,11740.489324,W,65.5,178.8,220510,,,A*4C
$GPRMC,143913.3,A,3328.305767,N,11740.483241,W,69.2,172.3,220510,,,A*4D
$GPRMC,143916.3,A,3328.248634,N,11740.469236,W,71.0,166.4,220510,,,A*4A
$GPRMC,143919.3,A,3328.193088,N,11740.443508,W,73.0,156.5,220510,,,A*43
$GPRMC,143922.3,A,3328.143228,N,11740.406787,W,71.2,148.8,220510,,,A*48
$GPRMC,143925.3,A,3328.102472,N,11740.363206,W,68.5,139.9,220510,,,A*43
$GPRMC,143928.3,A,3328.072585,N,11740.315244,W,61.7,127.8,220510,,,A*43
$GPRMC,143931.3,A,3328.045368,N,11740.262007,W,62.8,120.0,220510,,,A*4D
$GPRMC,143934.3,A,3328.021483,N,11740.206723,W,63.8,117.9,220510,,,A*47
$GPRMC,143937.3,A,3327.996041,N,11740.149906,W,64.1,119.5,220510,,,A*49
$GPRMC,143940.3,A,3327.967144,N,11740.097377,W,63.7,126.0,220510,,,A*45
$GPRMC,143943.3,A,3327.933345,N,11740.046508,W,65.8,128.1,220510,,,A*40
$GPRMC,143946.3,A,3327.897682,N,11739.993286,W,68.5,128.1,220510,,,A*4A
$GPRMC,143949.3,A,3327.861205,N,11739.938622,W,70.1,129.1,220510,,,A*40
$GPRMC,143952.3,A,3327.823771,N,11739.882999,W,71.6,129.4,220510,,,A*46
$GPRMC,143955.3,A,3327.783474,N,11739.827398,W,73.5,129.6,220510,,,A*45
$GPRMC,143958.3,A,3327.743460,N,11739.770828,W,73.8,129.8,220510,,,A*4F
$GPRMC,144001.3,A,3327.704194,N,11739.713811,W,73.4,129.3,220510,,,A*48
$GPRMC,144004.3,A,3327.666142,N,11739.658583,W,72.0,127.3,220510,,,A*40
$GPRMC,144007.3,A,3327.634144,N,11739.598929,W,71.0,120.2,220510,,,A*44
$GPRMC,144010.3,A,3327.607394,N,11739.537709,W,69.3,117.3,220510,,,A*4B
$GPRMC,144013.3,A,3327.582893,N,11739.475683,W,69.3,116.3,220510,,,A*4F
$GPRMC,144016.3,A,3327.555184,N,11739.416673,W,66.7,121.2,220510,,,A*4B
$GPRMC,144019.3,A,3327.523184,N,11739.362262,W,64.8,124.9,220510,,,A*46
$GPRMC,144022.3,A,3327.489932,N,11739.308452,W,65.8,126.2,220510,,,A*4B
$GPRMC,144025.3,A,3327.458226,N,11739.256507,W,65.9,126.0,220510,,,A*46
$GPRMC,144028.3,A,3327.426420,N,11739.201614,W,67.4,124.4,220510,,,A*48
$GPRMC,144031.3,A,3327.395209,N,11739.144318,W,68.7,122.2,220510,,,A*45
$GPRMC,144034.3,A,3327.365990,N,11739.085399,W,69.5,120.6,220510,,,A*44
$GPRMC,144037.3,A,3327.338110,N,11739.024870,W,69.4,118.5,220510,,,A*41
$GPRMC,144040.3,A,3327.312178,N,11738.963701,W,68.7,117.2,220510,,,A*4F
$GPRMC,144043.3,A,3327.285430,N,11738.903996,W,69.0,117.0,220510,,,A*48
$GPRMC,144046.3,A,3327.259495,N,11738.842585,W,69.2,116.5,220510,,,A*4F
$GPRMC,144049.3,A,3327.234713,N,11738.780433,W,69.5,116.7,220510,,,A*4E
$GPRMC,144052.3,A,3327.207772,N,11738.718062,W,69.6,117.8,220510,,,A*4F
$GPRMC,144055.3,A,3327.177940,N,11738.657505,W,69.9,120.2,220510,,,A*4C
$GPRMC,144058.3,A,3327.147023,N,11738.597829,W,69.2,122.8,220510,,,A*41
$GPRMC,144101.3,A,3327.113073,N,11738.542409,W,68.7,126.2,220510,,,A*44
$GPRMC,144104.3,A,3327.079174,N,11738.487749,W,68.0,127.5,220510,,,A*44
$GPRMC,144107.3,A,3327.043038,N,11738.434699,W,68.5,129.7,220510,,,A*4A
$GPRMC,144110.3,A,3327.005100,N,11738.383768,W,68.6,130.7,220510,,,A*4B
$GPRMC,144113.3,A,3326.966892,N,11738.331829,W,68.3,130.8,220510,,,A*4E
$GPRMC,144116.3,A,3326.929903,N,11738.280585,W,67.7,129.5,220510,,,A*47
$GPRMC,144119.3,A,3326.896140,N,11738.227163,W,67.0,124.0,220510,,,A*4C
$GPRMC,144122.3,A,3326.867228,N,11738.171795,W,66.5,122.0,220510,,,A*4A
$GPRMC,144125.3,A,3326.838642,N,11738.114812,W,66.6,121.2,220510,,,A*4E
$GPRMC,144128.3,A,3326.808760,N,11738.056478,W,67.9,120.9,220510,,,A*42
$GPRMC,144131.3,A,3326.778906,N,11737.998577,W,68.5,121.7,220510,,,A*4A
$GPRMC,144134.3,A,3326.747453,N,11737.940354,W,68.0,124.2,220510,,,A*49
$GPRMC,144137.3,A,3326.714400,N,11737.887285,W,66.5,128.3,220510,,,A*4B
$GPRMC,144140.3,A,3326.673358,N,11737.838453,W,67.9,134.1,220510,,,A*4A
$GPRMC,144143.3,A,3326.633101,N,11737.790898,W,68.5,134.9,220510,,,A*4E
$GPRMC,144146.3,A,3326.593405,N,11737.742255,W,68.4,134.4,220510,,,A*4B
$GPRMC,144149.3,A,3326.554401,N,11737.693462,W,68.6,133.3,220510,,,A*46
$GPRMC,144152.3,A,3326.513270,N,11737.642751,W,69.3,134.3,220510,,,A*43
$GPRMC,144155.3,A,3326.474441,N,11737.592734,W,68.6,131.8,220510,,,A*47
$GPRMC,144158.3,A,3326.437868,N,11737.538421,W,70.2,125.5,220510,,,A*48
$GPRMC,144201.3,A,3326.406903,N,11737.481107,W,69.4,123.1,220510,,,A*47
$GPRMC,144204.3,A,3326.376236,N,11737.424402,W,68.6,123.1,220510,,,A*43
$GPRMC,144207.3,A,3326.344278,N,11737.366792,W,68.9,123.4,220510,,,A*4A
$GPRMC,144210.3,A,3326.311469,N,11737.308427,W,71.0,123.9,220510,,,A*43
$GPRMC,144213.3,A,3326.277000,N,11737.248343,W,73.5,123.8,220510,,,A*4C
$GPRMC,144216.3,A,3326.237440,N,11737.186544,W,74.6,128.9,220510,,,A*43
$GPRMC,144219.3,A,3326.197139,N,11737.133817,W,70.0,133.9,220510,,,A*43
$GPRMC,144222.3,A,3326.153051,N,11737.089087,W,67.9,141.3,220510,,,A*4D
$GPRMC,144225.3,A,3326.104027,N,11737.053027,W,68.9,148.5,220510,,,A*44
$GPRMC,144228.3,A,3326.053692,N,11737.020652,W,69.5,150.6,220510,,,A*45
$GPRMC,144231.3,A,3326.002891,N,11736.987335,W,68.7,150.5,220510,,,A*45
$GPRMC,144234.3,A,3325.954158,N,11736.953957,W,67.8,149.7,220510,,,A*48
$GPRMC,144237.3,A,3325.905553,N,11736.917406,W,68.4,146.5,220510,,,A*47
$GPRMC,144240.3,A,3325.865699,N,11736.878176,W,63.7,139.3,220510,,,A*49
$GPRMC,144243.3,A,3325.828189,N,11736.834559,W,63.5,134.5,220510,,,A*4D
$GPRMC,144246.3,A,3325.790290,N,11736.787508,W,66.4,133.7,220510,,,A*4D
$GPRMC,144249.3,A,3325.749520,N,11736.741227,W,67.1,137.7,220510,,,A*4A
$GPRMC,144252.3,A,3325.706244,N,11736.700826,W,65.6,143.6,220510,,,A*47
$GPRMC,144255.3,A,3325.662206,N,11736.665345,W,64.3,146.5,220510,,,A*4B
$GPRMC,144258.3,A,3325.613366,N,11736.632701,W,66.0,150.0,220510,,,A*42
$GPRMC,144301.3,A,3325.565299,N,11736.599430,W,66.6,150.5,220510,,,A*4C
$GPRMC,144304.3,A,3325.518822,N,11736.567641,W,65.1,150.4,220510,,,A*49
$GPRMC,144307.3,A,3325.469478,N,11736.535393,W,67.3,151.4,220510,,,A*42
$GPRMC,144310.3,A,3325.416863,N,11736.505240,W,69.8,156.5,220510,,,A*45
$GPRMC,144313.3,A,3325.360870,N,11736.477831,W,71.7,158.0,220510,,,A*47
$GPRMC,144316.3,A,3325.307303,N,11736.450956,W,70.7,155.7,220510,,,A*42
$GPRMC,144319.3,A,3325.256466,N,11736.418470,W,71.4,149.4,220510,,,A*45
$GPRMC,144322.3,A,3325.208782,N,11736.378704,W,70.8,144.4,220510,,,A*4E
$GPRMC,144325.3,A,3325.160600,N,11736.337633,W,71.3,145.1,220510,,,A*4F
$GPRMC,144328.3,A,3325.108758,N,11736.298659,W,72.4,149.9,220510,,,A*48
$GPRMC,144331.3,A,3325.051655,N,11736.267890,W,74.6,156.9,220510,,,A*40
$GPRMC,144334.3,A,3324.992997,N,11736.238763,W,76.0,156.9,220510,,,A*4E
$GPRMC,144337.3,A,3324.933058,N,11736.209271,W,76.9,156.4,220510,,,A*4C
$GPRMC,144340.3,A,3324.874076,N,11736.177125,W,76.3,156.0,220510,,,A*44
$GPRMC,144343.3,A,3324.816152,N,11736.146965,W,76.3,156.7,220510,,,A*4D
$GPRMC,144346.3,A,3324.754854,N,11736.117235,W,76.8,157.2,220510,,,A*4B
$GPRMC,144349.3,A,3324.695988,N,11736.087830,W,74.4,157.7,220510,,,A*44
$GPRMC,144352.3,A,3324.637698,N,11736.058723,W,74.8,157.2,220510,,,A*4E
$GPRMC,144355.3,A,3324.580230,N,11736.029885,W,75.0,157.4,220510,,,A*4A
$GPRMC,144358.3,A,3324.522187,N,11736.001243,W,75.2,157.8,220510,,,A*44
$GPRMC,144401.3,A,3324.463339,N,11735.972994,W,75.0,157.9,220510,,,A*40
$GPRMC,144404.3,A,3324.407247,N,11735.945381,W,73.8,157.5,220510,,,A*47
$GPRMC,144407.3,A,3324.351309,N,11735.917571,W,72.8,157.2,220510,,,A*43
$GPRMC,144410.3,A,3324.296003,N,11735.889408,W,72.7,157.2,220510,,,A*40
$GPRMC,144413.3,A,3324.240078,N,11735.861562,W,72.0,157.5,220510,,,A*4F
$GPRMC,144416.3,A,3324.184350,N,11735.833346,W,72.0,157.4,220510,,,A*4E
$GPRMC,144419.3,A,3324.129136,N,11735.805284,W,71.6,157.1,220510,,,A*4E
$GPRMC,144422.3,A,3324.074405,N,11735.778649,W,70.9,156.9,220510,,,A*4D
$GPRMC,144425.3,A,3324.021548,N,11735.751148,W,70.1,156.8,220510,,,A*46
$GPRMC,144428.3,A,3323.968246,N,11735.723630,W,69.4,157.0,220510,,,A*48
$GPRMC,144431.3,A,3323.914492,N,11735.696972,W,69.1,157.4,220510,,,A*43
$GPRMC,144434.3,A,3323.861586,N,11735.671058,W,67.0,156.5,220510,,,A*46
$GPRMC,144437.3,A,3323.810774,N,11735.643461,W,66.1,154.9,220510,,,A*4D
$GPRMC,144440.3,A,3323.760856,N,11735.613782,W,66.3,153.8,220510,,,A*45
$GPRMC,144443.3,A,3323.712663,N,11735.583158,W,65.8,151.4,220510,,,A*46
$GPRMC,144446.3,A,3323.664685,N,11735.551263,W,66.4,150.0,220510,,,A*45
$GPRMC,144449.3,A,3323.616830,N,11735.516571,W,67.1,147.7,220510,,,A*4D
$GPRMC,144452.3,A,3323.570099,N,11735.479614,W,67.1,146.6,220510,,,A*47
$GPRMC,144455.3,A,3323.524616,N,11735.443740,W,65.4,146.5,220510,,,A*4D
$GPRMC,144458.3,A,3323.479875,N,11735.408015,W,64.7,146.4,220510,,,A*49
$GPRMC,144501.3,A,3323.433777,N,11735.372154,W,66.8,146.8,220510,,,A*48
$GPRMC,144504.3,A,3323.383944,N,11735.335028,W,69.0,147.1,220510,,,A*49
$GPRMC,144507.3,A,3323.334675,N,11735.296959,W,68.4,144.6,220510,,,A*4D
$GPRMC,144510.3,A,3323.290006,N,11735.255151,W,67.2,139.8,220510,,,A*44
$GPRMC,144513.3,A,3323.250360,N,11735.209713,W,67.2,135.1,220510,,,A*44
$GPRMC,144516.3,A,3323.212990,N,11735.160718,W,67.2,131.0,220510,,,A*40
$GPRMC,144519.3,A,3323.179469,N,11735.107632,W,66.6,125.7,220510,,,A*45
$GPRMC,144522.3,A,3323.151519,N,11735.052593,W,66.5,121.1,220510,,,A*49
$GPRMC,144525.3,A,3323.125391,N,11734.993868,W,68.4,116.7,220510,,,A*4A
$GPRMC,144528.3,A,3323.100923,N,11734.932893,W,67.0,115.1,220510,,,A*42
$GPRMC,144531.3,A,3323.078912,N,11734.873237,W,65.1,114.7,220510,,,A*42
$GPRMC,144534.3,A,3323.056586,N,11734.815694,W,63.8,114.8,220510,,,A*47
$GPRMC,144537.3,A,3323.033723,N,11734.757054,W,64.9,115.0,220510,,,A*46
$GPRMC,144540.3,A,3323.011424,N,11734.698087,W,65.7,114.5,220510,,,A*45
$GPRMC,144543.3,A,3322.987301,N,11734.638012,W,66.4,115.0,220510,,,A*43
$GPRMC,144546.3,A,3322.964376,N,11734.578256,W,66.0,114.7,220510,,,A*4C
$GPRMC,144549.3,A,3322.940129,N,11734.517713,W,67.2,115.1,220510,,,A*44
$GPRMC,144552.3,A,3322.914626,N,11734.455918,W,69.1,115.8,220510,,,A*41
$GPRMC,144555.3,A,3322.888840,N,11734.393331,W,70.6,115.6,220510,,,A*41
$GPRMC,144558.3,A,3322.864486,N,11734.329326,W,70.9,114.9,220510,,,A*4E
$GPRMC,144601.3,A,3322.840088,N,11734.266187,W,70.4,115.2,220510,,,A*49
$GPRMC,144604.3,A,3322.815232,N,11734.203108,W,70.1,115.2,220510,,,A*4E
$GPRMC,144607.3,A,3322.790460,N,11734.139214,W,69.7,115.1,220510,,,A*47
$GPRMC,144610.3,A,3322.767275,N,11734.079136,W,65.7,115.0,220510,,,A*40
$GPRMC,144613.3,A,3322.743542,N,11734.020548,W,64.3,115.5,220510,,,A*47
$GPRMC,144616.3,A,3322.720207,N,11733.965124,W,63.1,117.2,220510,,,A*40
$GPRMC,144619.3,A,3322.690102,N,11733.911634,W,64.7,124.7,220510,,,A*42
$GPRMC,144622.3,A,3322.654764,N,11733.860263,W,66.0,131.1,220510,,,A*42
$GPRMC,144625.3,A,3322.615027,N,11733.812022,W,67.7,135.2,220510,,,A*43
$GPRMC,144628.3,A,3322.572446,N,11733.765309,W,69.0,136.7,220510,,,A*45
$GPRMC,144631.3,A,3322.530900,N,11733.717769,W,68.6,134.5,220510,,,A*44
$GPRMC,144634.3,A,3322.492780,N,11733.666732,W,68.7,129.7,220510,,,A*48
$GPRMC,144637.3,A,3322.459472,N,11733.610566,W,68.7,123.9,220510,,,A*44
$GPRMC,144640.3,A,3322.428041,N,11733.554663,W,68.5,123.4,220510,,,A*4C
$GPRMC,144643.3,A,3322.399640,N,11733.496687,W,68.9,122.4,220510,,,A*4D
$GPRMC,144646.3,A,3322.368997,N,11733.439748,W,68.8,123.3,220510,,,A*43
$GPRMC,144649.3,A,3322.336953,N,11733.381964,W,69.8,123.2,220510,,,A*4B
$GPRMC,144652.3,A,3322.304423,N,11733.323703,W,69.9,123.3,220510,,,A*4D
$GPRMC,144655.3,A,3322.272220,N,11733.265200,W,70.3,123.5,220510,,,A*4E
$GPRMC,144658.3,A,3322.240402,N,11733.206690,W,70.6,123.3,220510,,,A*4F
$GPRMC,144701.3,A,3322.207587,N,11733.146841,W,71.9,123.1,220510,,,A*44
$GPRMC,144704.3,A,3322.173827,N,11733.086337,W,72.4,123.3,220510,,,A*4D
$GPRMC,144707.3,A,3322.142086,N,11733.026074,W,71.8,123.1,220510,,,A*4C
$GPRMC,144710.3,A,3322.110159,N,11732.966565,W,71.2,123.0,220510,,,A*4C
$GPRMC,144713.3,A,3322.076999,N,11732.907279,W,70.7,123.3,220510,,,A*40
$GPRMC,144716.3,A,3322.044306,N,11732.849620,W,69.8,124.8,220510,,,A*40
$GPRMC,144719.3,A,3322.008411,N,11732.793695,W,69.0,127.8,220510,,,A*4B
$GPRMC,144722.3,A,3321.974460,N,11732.741755,W,67.2,128.0,220510,,,A*4D
$GPRMC,144725.3,A,3321.939200,N,11732.688474,W,68.0,128.6,220510,,,A*4C
$GPRMC,144728.3,A,3321.901029,N,11732.635289,W,69.0,129.7,220510,,,A*40
$GPRMC,144731.3,A,3321.864242,N,11732.584259,W,67.9,129.5,220510,,,A*44
$GPRMC,144734.3,A,3321.828778,N,11732.531789,W,68.0,128.9,220510,,,A*48
$GPRMC,144737.3,A,3321.793836,N,11732.478280,W,68.5,129.0,220510,,,A*4C
$GPRMC,144740.3,A,3321.757804,N,11732.426125,W,68.3,129.8,220510,,,A*4C
$GPRMC,144743.3,A,3321.722947,N,11732.374948,W,66.2,129.5,220510,,,A*4A
$GPRMC,144746.3,A,3321.689923,N,11732.324009,W,64.7,127.9,220510,,,A*41
$GPRMC,144749.3,A,3321.655408,N,11732.273155,W,65.2,128.8,220510,,,A*4A
$GPRMC,144752.3,A,3321.619515,N,11732.222098,W,66.6,129.3,220510,,,A*4C
$GPRMC,144755.3,A,3321.586570,N,11732.170616,W,65.9,129.1,220510,,,A*47
$GPRMC,144758.3,A,3321.553147,N,11732.120593,W,65.2,129.0,220510,,,A*43
$GPRMC,144801.3,A,3321.515239,N,11732.069396,W,66.6,129.9,220510,,,A*49
$GPRMC,144804.3,A,3321.479972,N,11732.018600,W,66.7,129.4,220510,,,A*43
$GPRMC,144807.3,A,3321.443494,N,11731.967400,W,66.5,130.0,220510,,,A*42
$GPRMC,144810.3,A,3321.412562,N,11731.918837,W,64.7,129.6,220510,,,A*46
$GPRMC,144813.3,A,3321.378458,N,11731.868519,W,66.8,129.2,220510,,,A*48
$GPRMC,144816.3,A,3321.340915,N,11731.815982,W,68.3,129.6,220510,,,A*47
$GPRMC,144819.3,A,3321.302535,N,11731.763436,W,68.8,129.8,220510,,,A*49
$GPRMC,144822.3,A,3321.267497,N,11731.712166,W,67.1,129.6,220510,,,A*44
$GPRMC,144825.3,A,3321.231920,N,11731.662250,W,65.4,130.6,220510,,,A*4E
$GPRMC,144828.3,A,3321.198608,N,11731.612682,W,65.1,129.2,220510,,,A*43
$GPRMC,144831.3,A,3321.165261,N,11731.562136,W,65.2,128.9,220510,,,A*47
$GPRMC,144834.3,A,3321.130511,N,11731.511602,W,65.1,130.1,220510,,,A*44
$GPRMC,144837.3,A,3321.098530,N,11731.463387,W,63.8,129.7,220510,,,A*4A
$GPRMC,144840.3,A,3321.066832,N,11731.416026,W,62.5,129.1,220510,,,A*44
$GPRMC,144843.3,A,3321.033065,N,11731.367808,W,62.4,129.4,220510,,,A*4C
$GPRMC,144846.3,A,3320.998423,N,11731.319346,W,63.6,129.1,220510,,,A*48
$GPRMC,144849.3,A,3320.965044,N,11731.270061,W,64.2,128.2,220510,,,A*49
$GPRMC,144852.3,A,3320.932698,N,11731.220765,W,64.3,128.1,220510,,,A*42
$GPRMC,144855.3,A,3320.898117,N,11731.168317,W,66.5,128.9,220510,,,A*46
$GPRMC,144858.3,A,3320.863642,N,11731.117116,W,66.6,129.1,220510,,,A*49
$GPRMC,144901.3,A,3320.826954,N,11731.065841,W,67.2,131.2,220510,,,A*4D
$GPRMC,144904.3,A,3320.790262,N,11731.015708,W,68.0,131.2,220510,,,A*4C
$GPRMC,144907.3,A,3320.751412,N,11730.964619,W,69.6,132.1,220510,,,A*4B
$GPRMC,144910.3,A,3320.712585,N,11730.912166,W,71.4,130.9,220510,,,A*4A
$GPRMC,144913.3,A,3320.671531,N,11730.856949,W,73.5,131.4,220510,,,A*49
$GPRMC,144916.3,A,3320.631159,N,11730.803756,W,72.7,131.6,220510,,,A*43
$GPRMC,144919.3,A,3320.591783,N,11730.749190,W,72.2,131.0,220510,,,A*4A
$GPRMC,144922.3,A,3320.553364,N,11730.694976,W,71.3,130.9,220510,,,A*4A
$GPRMC,144925.3,A,3320.513510,N,11730.641243,W,72.0,131.1,220510,,,A*40
$GPRMC,144928.3,A,3320.473132,N,11730.586721,W,72.9,131.1,220510,,,A*4E
$GPRMC,144931.3,A,3320.434030,N,11730.532187,W,72.1,130.7,220510,,,A*4C
$GPRMC,144934.3,A,3320.396931,N,11730.478204,W,71.0,130.4,220510,,,A*48
$GPRMC,144937.3,A,3320.358772,N,11730.424980,W,71.0,130.7,220510,,,A*4D
$GPRMC,144940.3,A,3320.319311,N,11730.371602,W,71.3,130.8,220510,,,A*47
$GPRMC,144943.3,A,3320.280067,N,11730.318110,W,71.9,131.1,220510,,,A*4E
$GPRMC,144946.3,A,3320.240143,N,11730.263135,W,72.4,131.1,220510,,,A*44
$GPRMC,144949.3,A,3320.201357,N,11730.208683,W,71.4,130.8,220510,,,A*45
$GPRMC,144952.3,A,3320.163669,N,11730.154876,W,71.0,130.2,220510,,,A*40
$GPRMC,144955.3,A,3320.124598,N,11730.101190,W,71.4,130.4,220510,,,A*4A
$GPRMC,144958.3,A,3320.085661,N,11730.047083,W,71.9,131.1,220510,,,A*41
$GPRMC,145001.3,A,3320.046082,N,11729.992569,W,71.7,130.9,220510,,,A*4E
$GPRMC,145004.3,A,3320.007785,N,11729.939267,W,71.1,130.5,220510,,,A*4C
$GPRMC,145007.3,A,3319.968192,N,11729.885282,W,71.8,130.9,220510,,,A*4D
$GPRMC,145010.3,A,3319.928498,N,11729.831554,W,72.1,131.3,220510,,,A*42
$GPRMC,145013.3,A,3319.889601,N,11729.777495,W,72.0,131.6,220510,,,A*4C
$GPRMC,145016.3,A,3319.850367,N,11729.724531,W,71.9,131.5,220510,,,A*48
$GPRMC,145019.3,A,3319.811504,N,11729.670984,W,71.1,131.6,220510,,,A*48
$GPRMC,145022.3,A,3319.771728,N,11729.618549,W,71.4,131.4,220510,,,A*41
$GPRMC,145025.3,A,3319.732243,N,11729.564379,W,72.1,130.9,220510,,,A*4E
$GPRMC,145028.3,A,3319.692872,N,11729.509887,W,72.3,130.7,220510,,,A*4D
$GPRMC,145031.3,A,3319.652183,N,11729.455295,W,73.0,131.0,220510,,,A*4B
$GPRMC,145034.3,A,3319.611039,N,11729.399696,W,74.0,130.7,220510,,,A*48
$GPRMC,145037.3,A,3319.570989,N,11729.344403,W,73.6,130.8,220510,,,A*4D
$GPRMC,145040.3,A,3319.530812,N,11729.289063,W,73.6,130.8,220510,,,A*48
$GPRMC,145043.3,A,3319.490595,N,11729.233759,W,73.5,131.1,220510,,,A*46
$GPRMC,145046.3,A,3319.449896,N,11729.178511,W,73.4,131.2,220510,,,A*49
$GPRMC,145049.3,A,3319.408972,N,11729.124087,W,72.9,131.6,220510,,,A*43
$GPRMC,145052.3,A,3319.365364,N,11729.072465,W,72.5,137.2,220510,,,A*4C
$GPRMC,145055.3,A,3319.316969,N,11729.029483,W,71.8,145.6,220510,,,A*41
$GPRMC,145058.3,A,3319.262274,N,11728.995602,W,72.8,154.6,220510,,,A*4E
$GPRMC,145101.3,A,3319.207528,N,11728.971718,W,70.0,161.5,220510,,,A*41
$GPRMC,145104.3,A,3319.147820,N,11728.956661,W,72.4,170.5,220510,,,A*4A
$GPRMC,145107.3,A,3319.087238,N,11728.950207,W,72.8,174.9,220510,,,A*41
$GPRMC,145110.3,A,3319.027126,N,11728.943779,W,73.5,174.3,220510,,,A*49
$GPRMC,145113.3,A,3318.967447,N,11728.936505,W,73.4,174.7,220510,,,A*4A
$GPRMC,145116.3,A,3318.907586,N,11728.927522,W,72.3,172.4,220510,,,A*43
$GPRMC,145119.3,A,3318.847998,N,11728.914311,W,72.8,166.9,220510,,,A*4F
$GPRMC,145122.3,A,3318.791629,N,11728.889926,W,72.3,157.8,220510,,,A*45
$GPRMC,145125.3,A,3318.741421,N,11728.855157,W,70.7,148.4,220510,,,A*4E
$GPRMC,145128.3,A,3318.692345,N,11728.813342,W,72.5,142.7,220510,,,A*44
$GPRMC,145131.3,A,3318.650709,N,11728.765617,W,71.6,137.4,220510,,,A*44
$GPRMC,145134.3,A,3318.609579,N,11728.715828,W,71.1,135.2,220510,,,A*4E
$GPRMC,145137.3,A,3318.571379,N,11728.665867,W,69.6,134.1,220510,,,A*46
$GPRMC,145140.3,A,3318.529594,N,11728.616752,W,69.3,134.8,220510,,,A*4F
$GPRMC,145143.3,A,3318.488551,N,11728.568332,W,68.7,135.0,220510,,,A*4B
$GPRMC,145146.3,A,3318.449672,N,11728.519968,W,67.8,134.4,220510,,,A*47
$GPRMC,145149.3,A,3318.409470,N,11728.471454,W,68.1,134.5,220510,,,A*46
$GPRMC,145152.3,A,3318.370284,N,11728.423103,W,68.1,133.9,220510,,,A*43
$GPRMC,145155.3,A,3318.330068,N,11728.374134,W,68.1,134.4,220510,,,A*4B
$GPRMC,145158.3,A,3318.291352,N,11728.325657,W,67.9,134.4,220510,,,A*47
$GPRMC,145201.3,A,3318.251094,N,11728.276703,W,68.7,133.3,220510,,,A*4B
$GPRMC,145204.3,A,3318.210611,N,11728.226446,W,70.2,134.1,220510,,,A*4E
$GPRMC,145207.3,A,3318.169360,N,11728.176321,W,71.5,134.5,220510,,,A*41
$GPRMC,145210.3,A,3318.126996,N,11728.125344,W,71.7,134.4,220510,,,A*49
$GPRMC,145213.3,A,3318.085452,N,11728.073975,W,71.6,134.5,220510,,,A*4D
$GPRMC,145216.3,A,3318.042894,N,11728.023036,W,72.2,134.9,220510,,,A*45
$GPRMC,145219.3,A,3318.001282,N,11727.972483,W,71.3,134.2,220510,,,A*41
$GPRMC,145222.3,A,3317.959799,N,11727.921704,W,70.8,134.3,220510,,,A*4C
$GPRMC,145225.3,A,3317.918396,N,11727.871436,W,71.4,134.0,220510,,,A*4D
$GPRMC,145228.3,A,3317.877085,N,11727.819938,W,71.9,134.0,220510,,,A*49
$GPRMC,145231.3,A,3317.833755,N,11727.767209,W,72.6,134.2,220510,,,A*4A
$GPRMC,145234.3,A,3317.792411,N,11727.716297,W,71.8,134.0,220510,,,A*46
$GPRMC,145237.3,A,3317.749982,N,11727.664863,W,72.4,134.3,220510,,,A*4D
$GPRMC,145240.3,A,3317.707065,N,11727.612380,W,72.9,134.5,220510,,,A*4B
$GPRMC,145243.3,A,3317.663733,N,11727.561756,W,72.6,135.6,220510,,,A*4A
$GPRMC,145246.3,A,3317.614840,N,11727.516232,W,72.4,144.2,220510,,,A*43
$GPRMC,145249.3,A,3317.564479,N,11727.478098,W,71.8,147.7,220510,,,A*4C
$GPRMC,145252.3,A,3317.513998,N,11727.440362,W,70.7,147.6,220510,,,A*46
$GPRMC,145255.3,A,3317.463772,N,11727.403249,W,70.5,148.0,220510,,,A*49
$GPRMC,145258.3,A,3317.414289,N,11727.366088,W,70.7,147.7,220510,,,A*44
$GPRMC,145301.3,A,3317.363504,N,11727.327472,W,71.1,147.6,220510,,,A*4E
$GPRMC,145304.3,A,3317.312837,N,11727.289713,W,72.1,147.8,220510,,,A*4C
$GPRMC,145307.3,A,3317.261133,N,11727.251622,W,73.0,147.6,220510,,,A*4F
$GPRMC,145310.3,A,3317.210340,N,11727.212867,W,72.4,147.6,220510,,,A*44
$GPRMC,145313.3,A,3317.159478,N,11727.174679,W,72.1,147.6,220510,,,A*42
$GPRMC,145316.3,A,3317.107570,N,11727.135740,W,72.9,148.1,220510,,,A*4B
$GPRMC,145319.3,A,3317.056915,N,11727.097301,W,71.8,147.6,220510,,,A*4C
$GPRMC,145322.3,A,3317.007585,N,11727.058845,W,71.2,147.3,220510,,,A*42
$GPRMC,145325.3,A,3316.957249,N,11727.020529,W,71.0,147.8,220510,,,A*4E
$GPRMC,145328.3,A,3316.908986,N,11726.984111,W,69.4,147.9,220510,,,A*44
$GPRMC,145331.3,A,3316.860363,N,11726.948602,W,69.1,148.0,220510,,,A*44
$GPRMC,145334.3,A,3316.810648,N,11726.912298,W,69.0,147.8,220510,,,A*44
$GPRMC,145337.3,A,3316.763112,N,11726.876146,W,67.6,147.5,220510,,,A*42
$GPRMC,145340.3,A,3316.716481,N,11726.840342,W,67.3,147.6,220510,,,A*4A
$GPRMC,145343.3,A,3316.668619,N,11726.804076,W,68.2,147.6,220510,,,A*48
$GPRMC,145346.3,A,3316.620460,N,11726.767109,W,68.5,147.5,220510,,,A*4A
$GPRMC,145349.3,A,3316.571527,N,11726.730292,W,69.3,147.5,220510,,,A*44
$GPRMC,145352.3,A,3316.523094,N,11726.692965,W,69.7,147.5,220510,,,A*4A
$GPRMC,145355.3,A,3316.472753,N,11726.656173,W,70.4,147.9,220510,,,A*44
$GPRMC,145358.3,A,3316.423957,N,11726.619503,W,69.5,147.7,220510,,,A*48
$GPRMC,145401.3,A,3316.377152,N,11726.582296,W,68.5,144.6,220510,,,A*41
$GPRMC,145404.3,A,3316.335055,N,11726.538273,W,68.0,137.3,220510,,,A*4A
$GPRMC,145407.3,A,3316.296528,N,11726.489939,W,68.2,132.8,220510,,,A*4C
$GPRMC,145410.3,A,3316.259336,N,11726.438025,W,68.1,131.8,220510,,,A*4E
$GPRMC,145413.3,A,3316.220781,N,11726.387755,W,68.2,131.8,220510,,,A*4B
$GPRMC,145416.3,A,3316.184453,N,11726.336559,W,67.6,131.2,220510,,,A*4A
$GPRMC,145419.3,A,3316.147677,N,11726.285818,W,67.8,131.0,220510,,,A*43
$GPRMC,145422.3,A,3316.109332,N,11726.234039,W,68.3,131.5,220510,,,A*45
$GPRMC,145425.3,A,3316.072081,N,11726.182899,W,68.6,131.4,220510,,,A*4C
$GPRMC,145428.3,A,3316.033495,N,11726.131472,W,69.6,131.3,220510,,,A*42
$GPRMC,145431.3,A,3315.994197,N,11726.079363,W,69.9,131.4,220510,,,A*48
$GPRMC,145434.3,A,3315.955671,N,11726.028233,W,68.7,132.6,220510,,,A*41
$GPRMC,145437.3,A,3315.917721,N,11725.977165,W,68.7,132.3,220510,,,A*45
$GPRMC,145440.3,A,3315.879591,N,11725.928053,W,67.3,133.6,220510,,,A*44
$GPRMC,145443.3,A,3315.839041,N,11725.883286,W,65.4,137.7,220510,,,A*41
$GPRMC,145446.3,A,3315.789582,N,11725.845481,W,68.4,145.9,220510,,,A*47
$GPRMC,145449.3,A,3315.741980,N,11725.808067,W,68.2,146.6,220510,,,A*4D
$GPRMC,145452.3,A,3315.694546,N,11725.771006,W,67.8,146.4,220510,,,A*49
$GPRMC,145455.3,A,3315.647300,N,11725.733954,W,67.8,146.3,220510,,,A*4B
$GPRMC,145458.3,A,3315.600705,N,11725.696127,W,67.9,146.1,220510,,,A*45
$GPRMC,145501.3,A,3315.553702,N,11725.657786,W,68.2,146.0,220510,,,A*4F
$GPRMC,145504.3,A,3315.506076,N,11725.620798,W,68.5,146.7,220510,,,A*41
$GPRMC,145507.3,A,3315.458260,N,11725.582790,W,68.5,146.4,220510,,,A*4D
$GPRMC,145510.3,A,3315.410576,N,11725.545016,W,68.8,146.2,220510,,,A*4E
$GPRMC,145513.3,A,3315.362963,N,11725.507362,W,68.8,146.6,220510,,,A*45
$GPRMC,145516.3,A,3315.315690,N,11725.470025,W,68.5,147.1,220510,,,A*49
$GPRMC,145519.3,A,3315.265440,N,11725.432270,W,70.2,147.1,220510,,,A*45
$GPRMC,145522.3,A,3315.216015,N,11725.394038,W,69.2,147.0,220510,,,A*41
$GPRMC,145525.3,A,3315.168162,N,11725.356642,W,69.1,146.5,220510,,,A*4F
$GPRMC,145528.3,A,3315.120910,N,11725.319725,W,68.3,146.6,220510,,,A*48
$GPRMC,145531.3,A,3315.075011,N,11725.281982,W,68.0,146.0,220510,,,A*4F
$GPRMC,145534.3,A,3315.027033,N,11725.243697,W,69.2,146.4,220510,,,A*4F
$GPRMC,145537.3,A,3314.978358,N,11725.204718,W,70.1,146.2,220510,,,A*48
$GPRMC,145540.3,A,3314.929628,N,11725.165225,W,70.5,146.0,220510,,,A*47
$GPRMC,145543.3,A,3314.879782,N,11725.126820,W,70.1,147.3,220510,,,A*4F
$GPRMC,145546.3,A,3314.827225,N,11725.094998,W,69.6,154.3,220510,,,A*4E
$GPRMC,145549.3,A,3314.775859,N,11725.069986,W,67.7,158.7,220510,,,A*42
$GPRMC,145552.3,A,3314.722705,N,11725.046138,W,67.8,159.3,220510,,,A*46
$GPRMC,145555.3,A,3314.670373,N,11725.022843,W,67.3,159.6,220510,,,A*4B
$GPRMC,145558.3,A,3314.619867,N,11724.999306,W,66.4,158.2,220510,,,A*46
$GPRMC,145601.3,A,3314.569009,N,11724.971088,W,66.7,152.9,220510,,,A*4C
$GPRMC,145604.3,A,3314.520435,N,11724.935960,W,67.8,147.5,220510,,,A*46
$GPRMC,145607.3,A,3314.476342,N,11724.895807,W,66.4,140.7,220510,,,A*43
$GPRMC,145610.3,A,3314.437001,N,11724.851073,W,66.1,136.0,220510,,,A*44
$GPRMC,145613.3,A,3314.403196,N,11724.801194,W,66.3,129.3,220510,,,A*4D
$GPRMC,145616.3,A,3314.372813,N,11724.746458,W,67.8,125.1,220510,,,A*40
$GPRMC,145619.3,A,3314.340690,N,11724.690155,W,68.5,124.7,220510,,,A*4C
$GPRMC,145622.3,A,3314.308535,N,11724.634009,W,68.0,124.8,220510,,,A*48
$GPRMC,145625.3,A,3314.275930,N,11724.581118,W,66.1,128.0,220510,,,A*4A
$GPRMC,145628.3,A,3314.238474,N,11724.532715,W,64.7,133.5,220510,,,A*4B
$GPRMC,145631.3,A,3314.199822,N,11724.487412,W,65.5,135.3,220510,,,A*4C
$GPRMC,145634.3,A,3314.158422,N,11724.440912,W,67.3,136.0,220510,,,A*4A
$GPRMC,145637.3,A,3314.118968,N,11724.394016,W,67.0,136.1,220510,,,A*4F
$GPRMC,145640.3,A,3314.076864,N,11724.348083,W,67.6,136.7,220510,,,A*46
$GPRMC,145643.3,A,3314.035301,N,11724.301469,W,68.5,136.7,220510,,,A*4B
$GPRMC,145646.3,A,3313.993887,N,11724.254549,W,68.2,136.7,220510,,,A*4C
$GPRMC,145649.3,A,3313.951940,N,11724.208920,W,67.8,137.1,220510,,,A*4F
$GPRMC,145652.3,A,3313.910976,N,11724.162632,W,68.1,136.6,220510,,,A*46
$GPRMC,145655.3,A,3313.869189,N,11724.116456,W,67.9,137.0,220510,,,A*45
$GPRMC,145658.3,A,3313.828910,N,11724.070312,W,66.9,136.8,220510,,,A*4B
$GPRMC,145701.3,A,3313.789290,N,11724.025576,W,66.5,136.9,220510,,,A*48
$GPRMC,145704.3,A,3313.747322,N,11723.980778,W,67.2,137.6,220510,,,A*42
$GPRMC,145707.3,A,3313.704693,N,11723.934743,W,68.1,136.9,220510,,,A*4C
$GPRMC,145710.3,A,3313.663873,N,11723.887660,W,68.7,136.8,220510,,,A*44
$GPRMC,145713.3,A,3313.621817,N,11723.840656,W,69.7,136.8,220510,,,A*4C
$GPRMC,145716.3,A,3313.578116,N,11723.791884,W,71.3,136.4,220510,,,A*4D
$GPRMC,145719.3,A,3313.535573,N,11723.741292,W,71.4,135.9,220510,,,A*45
$GPRMC,145722.3,A,3313.493839,N,11723.696800,W,69.6,136.9,220510,,,A*41
$GPRMC,145725.3,A,3313.450920,N,11723.649745,W,69.4,137.2,220510,,,A*44
$GPRMC,145728.3,A,3313.408875,N,11723.604879,W,68.1,138.5,220510,,,A*40
$GPRMC,145731.3,A,3313.360270,N,11723.565966,W,68.5,145.5,220510,,,A*4B
$GPRMC,145734.3,A,3313.310839,N,11723.533133,W,67.1,153.8,220510,,,A*44
$GPRMC,145737.3,A,3313.258586,N,11723.509823,W,66.0,161.4,220510,,,A*4F
$GPRMC,145740.3,A,3313.203120,N,11723.491187,W,67.9,164.9,220510,,,A*4E
$GPRMC,145743.3,A,3313.147659,N,11723.474594,W,68.1,165.8,220510,,,A*4D
$GPRMC,145746.3,A,3313.091585,N,11723.457770,W,68.5,166.0,220510,,,A*46
$GPRMC,145749.3,A,3313.037009,N,11723.441413,W,67.9,166.2,220510,,,A*44
$GPRMC,145752.3,A,3312.981947,N,11723.425699,W,68.0,166.1,220510,,,A*4F
$GPRMC,145755.3,A,3312.926194,N,11723.410179,W,68.5,166.4,220510,,,A*4C
$GPRMC,145758.3,A,3312.872007,N,11723.391524,W,68.7,161.4,220510,,,A*4D
$GPRMC,145801.3,A,3312.817700,N,11723.363902,W,69.7,154.6,220510,,,A*4D
$GPRMC,145804.3,A,3312.765599,N,11723.331270,W,69.8,151.6,220510,,,A*43
$GPRMC,145807.3,A,3312.714577,N,11723.298112,W,69.1,152.0,220510,,,A*4F
$GPRMC,145810.3,A,3312.665469,N,11723.267236,W,67.2,152.0,220510,,,A*48
$GPRMC,145813.3,A,3312.616933,N,11723.235731,W,66.9,151.6,220510,,,A*47
$GPRMC,145816.3,A,3312.567062,N,11723.205464,W,67.5,152.3,220510,,,A*41
$GPRMC,145819.3,A,3312.516764,N,11723.172191,W,68.0,151.8,220510,,,A*47
$GPRMC,145822.3,A,3312.466290,N,11723.141584,W,67.8,152.4,220510,,,A*4F
$GPRMC,145825.3,A,3312.415410,N,11723.110856,W,67.9,151.8,220510,,,A*4A
$GPRMC,145828.3,A,3312.366785,N,11723.077158,W,68.1,148.4,220510,,,A*4F
$GPRMC,145831.3,A,3312.319541,N,11723.037673,W,69.2,142.6,220510,,,A*45
$GPRMC,145834.3,A,3312.277316,N,11722.993009,W,68.3,138.5,220510,,,A*4E
$GPRMC,145837.3,A,3312.239879,N,11722.941197,W,68.8,130.9,220510,,,A*43
$GPRMC,145840.3,A,3312.208263,N,11722.885829,W,68.6,124.2,220510,,,A*45
$GPRMC,145843.3,A,3312.180526,N,11722.826818,W,68.6,117.9,220510,,,A*43
$GPRMC,145846.3,A,3312.157079,N,11722.764483,W,68.0,113.8,220510,,,A*47
$GPRMC,145849.3,A,3312.136609,N,11722.703712,W,66.5,112.4,220510,,,A*42
$GPRMC,145852.3,A,3312.116947,N,11722.641486,W,66.6,111.8,220510,,,A*4A
$GPRMC,145855.3,A,3312.096405,N,11722.580284,W,66.4,111.9,220510,,,A*46
$GPRMC,145858.3,A,3312.074568,N,11722.519780,W,66.1,112.5,220510,,,A*46
$GPRMC,145901.3,A,3312.054264,N,11722.459206,W,66.4,112.0,220510,,,A*4C
$GPRMC,145904.3,A,3312.033332,N,11722.397984,W,66.5,112.5,220510,,,A*4A
$GPRMC,145907.3,A,3312.011605,N,11722.338318,W,66.1,114.2,220510,,,A*47
$GPRMC,145910.3,A,3311.989190,N,11722.281899,W,64.3,117.7,220510,,,A*46
$GPRMC,145913.3,A,3311.959369,N,11722.227071,W,65.2,124.7,220510,,,A*4E
$GPRMC,145916.3,A,3311.923933,N,11722.176741,W,66.1,131.9,220510,,,A*4A
$GPRMC,145919.3,A,3311.884088,N,11722.133099,W,65.1,137.8,220510,,,A*47
$GPRMC,145922.3,A,3311.838620,N,11722.092885,W,66.7,143.6,220510,,,A*4B
$GPRMC,145925.3,A,3311.790855,N,11722.054745,W,68.6,145.1,220510,,,A*4A
$GPRMC,145928.3,A,3311.743191,N,11722.015849,W,69.1,145.0,220510,,,A*49
$GPRMC,145931.3,A,3311.695710,N,11721.975415,W,69.5,144.6,220510,,,A*4E
$GPRMC,145934.3,A,3311.645699,N,11721.936270,W,70.5,145.9,220510,,,A*42
$GPRMC,145937.3,A,3311.598977,N,11721.896449,W,69.7,145.0,220510,,,A*49
$GPRMC,145940.3,A,3311.550116,N,11721.857013,W,70.1,145.0,220510,,,A*4A
$GPRMC,145943.3,A,3311.502374,N,11721.816077,W,70.4,144.5,220510,,,A*4E
$GPRMC,145946.3,A,3311.453932,N,11721.775769,W,70.9,144.8,220510,,,A*44
$GPRMC,145949.3,A,3311.406589,N,11721.735112,W,70.1,144.5,220510,,,A*4C
$GPRMC,145952.3,A,3311.357774,N,11721.694842,W,70.6,145.1,220510,,,A*41
$GPRMC,145955.3,A,3311.309953,N,11721.655562,W,70.6,145.5,220510,,,A*40
$GPRMC,145958.3,A,3311.261863,N,11721.614795,W,71.0,145.1,220510,,,A*4C
$GPRMC,150001.3,A,3311.212967,N,11721.574917,W,70.5,145.3,220510,,,A*4B
$GPRMC,150004.3,A,3311.164507,N,11721.535521,W,69.5,145.5,220510,,,A*44
$GPRMC,150007.3,A,3311.118176,N,11721.496368,W,68.3,145.2,220510,,,A*4D
$GPRMC,150010.3,A,3311.071930,N,11721.457726,W,67.5,144.5,220510,,,A*43
$GPRMC,150013.3,A,3311.025211,N,11721.420348,W,66.4,145.6,220510,,,A*47
$GPRMC,150016.3,A,3310.982071,N,11721.384538,W,62.7,145.4,220510,,,A*4E
$GPRMC,150019.3,A,3310.940381,N,11721.350123,W,60.1,145.5,220510,,,A*41
$GPRMC,150022.3,A,3310.899931,N,11721.315973,W,61.6,144.9,220510,,,A*4A
$GPRMC,150025.3,A,3310.855158,N,11721.278416,W,65.6,144.4,220510,,,A*47
$GPRMC,150028.3,A,3310.809473,N,11721.240404,W,67.3,144.6,220510,,,A*42
$GPRMC,150031.3,A,3310.759745,N,11721.202516,W,69.1,145.9,220510,,,A*40
$GPRMC,150034.3,A,3310.713933,N,11721.163711,W,67.5,145.4,220510,,,A*42
$GPRMC,150037.3,A,3310.667292,N,11721.126066,W,68.1,145.9,220510,,,A*43
$GPRMC,150040.3,A,3310.618806,N,11721.087994,W,68.6,145.0,220510,,,A*4C
$GPRMC,150043.3,A,3310.572867,N,11721.050208,W,67.7,146.3,220510,,,A*4D
$GPRMC,150046.3,A,3310.525675,N,11721.013355,W,68.7,147.3,220510,,,A*47
$GPRMC,150049.3,A,3310.475610,N,11720.976533,W,70.0,148.1,220510,,,A*41
$GPRMC,150052.3,A,3310.425231,N,11720.939372,W,70.0,148.1,220510,,,A*41
$GPRMC,150055.3,A,3310.377248,N,11720.902781,W,68.9,147.7,220510,,,A*41
$GPRMC,150058.3,A,3310.328705,N,11720.866784,W,69.2,147.7,220510,,,A*46
$GPRMC,150101.3,A,3310.279957,N,11720.829091,W,70.0,147.2,220510,,,A*40
$GPRMC,150104.3,A,3310.229862,N,11720.790912,W,70.8,147.3,220510,,,A*41
$GPRMC,150107.3,A,3310.180315,N,11720.753706,W,70.0,148.2,220510,,,A*4B
$GPRMC,150110.3,A,3310.130156,N,11720.718765,W,69.1,149.7,220510,,,A*44
$GPRMC,150113.3,A,3310.080805,N,11720.686425,W,68.1,152.3,220510,,,A*4C
$GPRMC,150116.3,A,3310.028351,N,11720.658630,W,68.3,154.7,220510,,,A*44
$GPRMC,150119.3,A,3309.973021,N,11720.632856,W,70.3,157.0,220510,,,A*4F
$GPRMC,150122.3,A,3309.920290,N,11720.607819,W,70.0,157.5,220510,,,A*42
$GPRMC,150125.3,A,3309.865984,N,11720.580717,W,70.6,157.5,220510,,,A*40
$GPRMC,150128.3,A,3309.811592,N,11720.553254,W,70.6,157.1,220510,,,A*4D
$GPRMC,150131.3,A,3309.757049,N,11720.525820,W,70.7,156.6,220510,,,A*44
$GPRMC,150134.3,A,3309.703977,N,11720.497138,W,70.1,156.6,220510,,,A*4A
$GPRMC,150137.3,A,3309.650076,N,11720.469525,W,70.0,157.1,220510,,,A*48
$GPRMC,150140.3,A,3309.598095,N,11720.443506,W,68.1,156.8,220510,,,A*4B
$GPRMC,150143.3,A,3309.545430,N,11720.416946,W,68.0,156.9,220510,,,A*4B
$GPRMC,150146.3,A,3309.493791,N,11720.390412,W,67.2,156.9,220510,,,A*44
$GPRMC,150149.3,A,3309.442192,N,11720.363845,W,67.0,156.8,220510,,,A*43
$GPRMC,150152.3,A,3309.390798,N,11720.337677,W,66.8,156.9,220510,,,A*4B
$GPRMC,150155.3,A,3309.339856,N,11720.311610,W,66.7,156.7,220510,,,A*46
$GPRMC,150158.3,A,3309.288465,N,11720.284954,W,67.5,155.8,220510,,,A*41
$GPRMC,150201.3,A,3309.235672,N,11720.256127,W,69.2,154.9,220510,,,A*46
$GPRMC,150204.3,A,3309.184378,N,11720.226738,W,68.9,154.2,220510,,,A*4B
$GPRMC,150207.3,A,3309.132739,N,11720.196218,W,68.9,153.5,220510,,,A*4B
$GPRMC,150210.3,A,3309.081255,N,11720.166144,W,68.1,153.9,220510,,,A*4A
$GPRMC,150213.3,A,3309.031305,N,11720.137699,W,67.6,154.2,220510,,,A*41
$GPRMC,150216.3,A,3308.979189,N,11720.108826,W,68.6,154.7,220510,,,A*4A
$GPRMC,150219.3,A,3308.928348,N,11720.078951,W,68.2,154.7,220510,,,A*4D
$GPRMC,150222.3,A,3308.877406,N,11720.052645,W,66.7,158.2,220510,,,A*43
$GPRMC,150225.3,A,3308.820972,N,11720.036522,W,68.6,167.8,220510,,,A*41
$GPRMC,150228.3,A,3308.763333,N,11720.026513,W,68.5,174.3,220510,,,A*42
$GPRMC,150231.3,A,3308.705265,N,11720.023823,W,69.1,177.3,220510,,,A*45
$GPRMC,150234.3,A,3308.648519,N,11720.020666,W,67.6,177.3,220510,,,A*41
$GPRMC,150237.3,A,3308.593594,N,11720.016697,W,65.7,174.3,220510,,,A*49
$GPRMC,150240.3,A,3308.539388,N,11720.003089,W,66.9,165.5,220510,,,A*44
$GPRMC,150243.3,A,3308.489017,N,11719.980287,W,66.7,158.0,220510,,,A*49
$GPRMC,150246.3,A,3308.438218,N,11719.952946,W,67.3,155.9,220510,,,A*43
$GPRMC,150249.3,A,3308.384533,N,11719.924859,W,69.0,156.6,220510,,,A*4D
$GPRMC,150252.3,A,3308.330001,N,11719.898574,W,70.1,156.8,220510,,,A*4F
$GPRMC,150255.3,A,3308.277314,N,11719.871373,W,69.5,156.9,220510,,,A*46
$GPRMC,150258.3,A,3308.222298,N,11719.844287,W,71.0,157.1,220510,,,A*47
$GPRMC,150301.3,A,3308.166688,N,11719.817639,W,72.7,157.6,220510,,,A*48
$GPRMC,150304.3,A,3308.110064,N,11719.788868,W,73.0,157.0,220510,,,A*4B
$GPRMC,150307.3,A,3308.054865,N,11719.761919,W,71.2,157.2,220510,,,A*42
$GPRMC,150310.3,A,3308.000727,N,11719.734600,W,70.6,155.8,220510,,,A*46
$GPRMC,150313.3,A,3307.947738,N,11719.704265,W,71.1,153.9,220510,,,A*4B
$GPRMC,150316.3,A,3307.894835,N,11719.671958,W,71.8,153.2,220510,,,A*47
$GPRMC,150319.3,A,3307.839952,N,11719.640003,W,72.6,153.8,220510,,,A*4D
$GPRMC,150322.3,A,3307.785873,N,11719.606461,W,73.1,153.1,220510,,,A*42
$GPRMC,150325.3,A,3307.731192,N,11719.573709,W,73.2,153.1,220510,,,A*43
$GPRMC,150328.3,A,3307.676604,N,11719.541606,W,72.8,153.5,220510,,,A*44
$GPRMC,150331.3,A,3307.624091,N,11719.509462,W,71.6,153.1,220510,,,A*44
$GPRMC,150334.3,A,3307.570993,N,11719.478302,W,70.3,153.5,220510,,,A*4E
$GPRMC,150337.3,A,3307.520734,N,11719.447624,W,67.5,153.3,220510,,,A*40
$GPRMC,150340.3,A,3307.471278,N,11719.420077,W,66.5,154.4,220510,,,A*48
$GPRMC,150343.3,A,3307.421181,N,11719.390013,W,68.0,153.7,220510,,,A*4A
$GPRMC,150346.3,A,3307.369825,N,11719.359370,W,68.6,153.3,220510,,,A*42
$GPRMC,150349.3,A,3307.318141,N,11719.328182,W,68.8,152.7,220510,,,A*42
$GPRMC,150352.3,A,3307.266417,N,11719.298125,W,68.3,153.5,220510,,,A*49
$GPRMC,150355.3,A,3307.216015,N,11719.267640,W,67.5,153.4,220510,,,A*43
$GPRMC,150358.3,A,3307.166941,N,11719.238680,W,66.9,153.0,220510,,,A*4D
$GPRMC,150401.3,A,3307.118035,N,11719.207989,W,66.6,153.0,220510,,,A*40
$GPRMC,150404.3,A,3307.068764,N,11719.179187,W,65.4,153.6,220510,,,A*4B
$GPRMC,150407.3,A,3307.019288,N,11719.149549,W,65.1,153.4,220510,,,A*4B
$GPRMC,150410.3,A,3306.969995,N,11719.119739,W,65.7,152.8,220510,,,A*4E
$GPRMC,150413.3,A,3306.922109,N,11719.088621,W,65.6,151.9,220510,,,A*4D
$GPRMC,150416.3,A,3306.876871,N,11719.060279,W,62.0,152.9,220510,,,A*43
$GPRMC,150419.3,A,3306.831479,N,11719.031433,W,61.6,152.9,220510,,,A*42
$GPRMC,150422.3,A,3306.785644,N,11719.003903,W,61.3,152.9,220510,,,A*4C
$GPRMC,150425.3,A,3306.739704,N,11718.977837,W,62.1,152.9,220510,,,A*45
$GPRMC,150428.3,A,3306.693397,N,11718.947586,W,62.8,150.9,220510,,,A*48
$GPRMC,150431.3,A,3306.647546,N,11718.919171,W,62.2,151.9,220510,,,A*4F
$GPRMC,150434.3,A,3306.600314,N,11718.893969,W,61.8,153.7,220510,,,A*4F
$GPRMC,150437.3,A,3306.554593,N,11718.866577,W,61.1,154.1,220510,,,A*46
$GPRMC,150440.3,A,3306.510129,N,11718.837584,W,60.2,151.5,220510,,,A*48
$GPRMC,150443.3,A,3306.465925,N,11718.808585,W,60.6,151.4,220510,,,A*44
$GPRMC,150446.3,A,3306.420492,N,11718.778053,W,61.7,151.2,220510,,,A*41
$GPRMC,150449.3,A,3306.374129,N,11718.746648,W,62.0,150.6,220510,,,A*4D
$GPRMC,150452.3,A,3306.330930,N,11718.716987,W,60.2,151.0,220510,,,A*49
$GPRMC,150455.3,A,3306.288039,N,11718.687325,W,59.9,150.9,220510,,,A*4E
$GPRMC,150458.3,A,3306.243814,N,11718.659366,W,60.1,150.3,220510,,,A*4F
$GPRMC,150501.3,A,3306.198755,N,11718.633576,W,61.2,152.2,220510,,,A*47
$GPRMC,150504.3,A,3306.155431,N,11718.604474,W,60.7,151.3,220510,,,A*43
$GPRMC,150507.3,A,3306.110254,N,11718.574909,W,61.4,150.9,220510,,,A*4E
$GPRMC,150510.3,A,3306.067067,N,11718.544639,W,61.0,150.6,220510,,,A*4F
$GPRMC,150513.3,A,3306.019915,N,11718.514161,W,63.1,150.8,220510,,,A*4B
$GPRMC,150516.3,A,3305.974261,N,11718.481875,W,63.0,151.3,220510,,,A*4D
$GPRMC,150519.3,A,3305.927719,N,11718.448294,W,64.8,149.2,220510,,,A*49
$GPRMC,150522.3,A,3305.879374,N,11718.418015,W,65.3,150.5,220510,,,A*4F
$GPRMC,150525.3,A,3305.831210,N,11718.389909,W,64.6,151.5,220510,,,A*49
$GPRMC,150528.3,A,3305.784041,N,11718.361256,W,63.7,152.1,220510,,,A*45
$GPRMC,150531.3,A,3305.739251,N,11718.332758,W,62.6,151.2,220510,,,A*45
$GPRMC,150534.3,A,3305.692550,N,11718.302020,W,63.3,151.4,220510,,,A*4F
$GPRMC,150537.3,A,3305.646262,N,11718.272681,W,63.3,151.6,220510,,,A*4A
$GPRMC,150540.3,A,3305.598474,N,11718.242869,W,64.6,151.7,220510,,,A*43
$GPRMC,150543.3,A,3305.547226,N,11718.209294,W,68.4,152.8,220510,,,A*46
$GPRMC,150546.3,A,3305.493580,N,11718.175598,W,71.5,152.4,220510,,,A*46
$GPRMC,150549.3,A,3305.438942,N,11718.141349,W,73.6,151.2,220510,,,A*43
$GPRMC,150552.3,A,3305.386179,N,11718.107806,W,72.4,151.1,220510,,,A*49
$GPRMC,150555.3,A,3305.333294,N,11718.073311,W,71.5,151.4,220510,,,A*48
$GPRMC,150558.3,A,3305.280971,N,11718.039687,W,70.9,151.5,220510,,,A*44
