NMEA Sentence Code,UTC Time,Status,Latitude,Latitude Direction,Longitude,Longitude Direction,Speed (knots),Track Angle (degrees true),Date,MagneticVariation,Magnetic Variation Direction,[FAA Mode]-Optional,Checksum
$GPRMC,200858.8,A,3314.223419,N,11708.805367,W,52.1,344.0,080510,,,A*40
$GPRMC,200901.8,A,3314.266153,N,11708.820393,W,53.4,343.2,080510,,,A*4A
$GPRMC,200904.8,A,3314.308852,N,11708.836123,W,53.1,342.8,080510,,,A*4E
$GPRMC,200907.8,A,3314.351403,N,11708.852343,W,53.8,342.2,080510,,,A*4C
$GPRMC,200910.8,A,3314.394992,N,11708.868337,W,54.5,343.1,080510,,,A*44
$GPRMC,200913.8,A,3314.439726,N,11708.884603,W,55.5,343.5,080510,,,A*43
$GPRMC,200916.8,A,3314.484946,N,11708.900928,W,56.3,342.9,080510,,,A*4B
$GPRMC,200919.8,A,3314.530166,N,11708.917513,W,56.5,342.8,080510,,,A*45
$GPRMC,200922.8,A,3314.575541,N,11708.934061,W,56.6,343.3,080510,,,A*45
$GPRMC,200925.8,A,3314.620645,N,11708.950526,W,56.6,343.1,080510,,,A*40
$GPRMC,200928.8,A,3314.665558,N,11708.967019,W,56.2,343.0,080510,,,A*4B
$GPRMC,200931.8,A,3314.710104,N,11708.983325,W,55.5,343.1,080510,,,A*4E
$GPRMC,200934.8,A,3314.753311,N,11709.001887,W,55.3,338.2,080510,,,A*42
$GPRMC,200937.8,A,3314.794058,N,11709.026433,W,55.4,331.7,080510,,,A*49
$GPRMC,200940.8,A,3314.830137,N,11709.057466,W,54.2,322.3,080510,,,A*47
$GPRMC,200943.8,A,3314.863221,N,11709.092715,W,53.8,317.8,080510,,,A*48
$GPRMC,200946.8,A,3314.896681,N,11709.127891,W,53.4,319.4,080510,,,A*4B
$GPRMC,200949.8,A,3314.933033,N,11709.158228,W,53.0,327.0,080510,,,A*48
$GPRMC,200952.8,A,3314.968323,N,11709.180484,W,45.0,334.3,080510,,,A*4D
$GPRMC,200955.8,A,3314.996588,N,11709.193429,W,34.4,341.2,080510,,,A*48
$GPRMC,200958.8,A,3315.015462,N,11709.199809,W,22.4,345.6,080510,,,A*40
$GPRMC,201001.8,A,3315.031962,N,11709.204160,W,21.2,347.7,080510,,,A*48
$GPRMC,201004.8,A,3315.049970,N,11709.208610,W,23.2,349.2,080510,,,A*44
$GPRMC,201007.8,A,3315.071681,N,11709.213318,W,27.6,350.3,080510,,,A*43
$GPRMC,201010.8,A,3315.096651,N,11709.219034,W,31.1,348.7,080510,,,A*4B
$GPRMC,201013.8,A,3315.122656,N,11709.225577,W,31.0,349.0,080510,,,A*4B
$GPRMC,201016.8,A,3315.143828,N,11709.230188,W,23.5,350.4,080510,,,A*44
$GPRMC,201019.8,A,3315.155262,N,11709.232843,W,10.7,350.9,080510,,,A*4B
$GPRMC,201046.8,A,3315.164428,N,11709.239226,W,13.6,308.1,080510,,,A*4E
$GPRMC,201049.8,A,3315.168643,N,11709.257442,W,21.3,278.5,080510,,,A*48
$GPRMC,201052.8,A,3315.170800,N,11709.282478,W,26.7,275.4,080510,,,A*4C
$GPRMC,201055.8,A,3315.173803,N,11709.312054,W,31.5,276.9,080510,,,A*43
$GPRMC,201058.8,A,3315.177561,N,11709.345206,W,34.5,278.0,080510,,,A*46
$GPRMC,201101.8,A,3315.182286,N,11709.379827,W,35.6,278.6,080510,,,A*4D
$GPRMC,201104.8,A,3315.187251,N,11709.414792,W,36.4,279.6,080510,,,A*4A
$GPRMC,201107.8,A,3315.192197,N,11709.450343,W,37.1,278.0,080510,,,A*4F
$GPRMC,201110.8,A,3315.196509,N,11709.486599,W,37.3,276.1,080510,,,A*49
$GPRMC,201113.8,A,3315.199454,N,11709.523931,W,37.9,274.3,080510,,,A*46
$GPRMC,201116.8,A,3315.200256,N,11709.561218,W,37.9,270.6,080510,,,A*43
$GPRMC,201119.8,A,3315.200012,N,11709.597884,W,36.8,270.0,080510,,,A*4E
$GPRMC,201122.8,A,3315.199476,N,11709.633558,W,36.1,269.5,080510,,,A*46
$GPRMC,201125.8,A,3315.198452,N,11709.668660,W,36.3,269.1,080510,,,A*46
$GPRMC,201128.8,A,3315.198312,N,11709.704910,W,37.0,269.6,080510,,,A*4E
$GPRMC,201131.8,A,3315.197979,N,11709.741027,W,37.2,269.1,080510,,,A*47
$GPRMC,201134.8,A,3315.195918,N,11709.779857,W,37.3,267.6,080510,,,A*4B
$GPRMC,201137.8,A,3315.192181,N,11709.816820,W,36.0,263.8,080510,,,A*49
$GPRMC,201140.8,A,3315.186600,N,11709.852894,W,35.5,259.2,080510,,,A*48
$GPRMC,201143.8,A,3315.178120,N,11709.886451,W,36.5,255.1,080510,,,A*4F
$GPRMC,201146.8,A,3315.167564,N,11709.922509,W,38.8,251.9,080510,,,A*4C
$GPRMC,201149.8,A,3315.155604,N,11709.961011,W,41.6,250.1,080510,,,A*45
$GPRMC,201152.8,A,3315.143411,N,11710.000296,W,42.1,250.2,080510,,,A*42
$GPRMC,201155.8,A,3315.131833,N,11710.040926,W,43.2,251.9,080510,,,A*40
$GPRMC,201158.8,A,3315.122044,N,11710.083560,W,44.2,255.3,080510,,,A*4F
$GPRMC,201201.8,A,3315.114528,N,11710.126828,W,43.8,259.1,080510,,,A*46
$GPRMC,201204.8,A,3315.110598,N,11710.170945,W,44.3,262.8,080510,,,A*48
$GPRMC,201207.8,A,3315.105569,N,11710.215069,W,45.0,262.3,080510,,,A*4F
$GPRMC,201210.8,A,3315.101165,N,11710.260613,W,45.8,263.1,080510,,,A*47
$GPRMC,201213.8,A,3315.095925,N,11710.305808,W,45.9,262.4,080510,,,A*47
$GPRMC,201216.8,A,3315.091520,N,11710.351579,W,45.5,263.8,080510,,,A*44
$GPRMC,201219.8,A,3315.088761,N,11710.396477,W,44.7,266.2,080510,,,A*4C
$GPRMC,201222.8,A,3315.090039,N,11710.440751,W,44.0,273.3,080510,,,A*4E
$GPRMC,201225.8,A,3315.095581,N,11710.483858,W,43.3,280.1,080510,,,A*49
$GPRMC,201228.8,A,3315.105358,N,11710.524941,W,42.1,286.7,080510,,,A*48
$GPRMC,201231.8,A,3315.119861,N,11710.562858,W,41.0,294.6,080510,,,A*47
$GPRMC,201234.8,A,3315.136644,N,11710.598483,W,40.7,301.0,080510,,,A*44
$GPRMC,201237.8,A,3315.155966,N,11710.630976,W,39.7,306.1,080510,,,A*43
$GPRMC,201240.8,A,3315.175405,N,11710.663401,W,40.1,304.4,080510,,,A*4D
$GPRMC,201243.8,A,3315.192588,N,11710.696809,W,40.2,298.8,080510,,,A*46
$GPRMC,201246.8,A,3315.206039,N,11710.732156,W,39.6,291.4,080510,,,A*41
$GPRMC,201249.8,A,3315.214389,N,11710.769508,W,39.4,282.5,080510,,,A*45
$GPRMC,201252.8,A,3315.217924,N,11710.807824,W,39.1,275.0,080510,,,A*4D
$GPRMC,201255.8,A,3315.217343,N,11710.845324,W,37.1,268.1,080510,,,A*4F
$GPRMC,201258.8,A,3315.214508,N,11710.878547,W,31.3,261.8,080510,,,A*41
$GPRMC,201301.8,A,3315.207738,N,11710.909372,W,33.6,253.6,080510,,,A*40
$GPRMC,201304.8,A,3315.197759,N,11710.941400,W,34.3,249.6,080510,,,A*4F
$GPRMC,201307.8,A,3315.187967,N,11710.971271,W,30.5,248.5,080510,,,A*4D
$GPRMC,201310.8,A,3315.181439,N,11710.993357,W,19.3,251.4,080510,,,A*46
$GPRMC,201313.8,A,3315.183606,N,11711.003632,W,8.6,312.7,080510,,,A*7E
$GPRMC,201316.8,A,3315.193820,N,11711.004364,W,12.7,359.1,080510,,,A*42
$GPRMC,201319.8,A,3315.205345,N,11711.003694,W,14.6,1.1,080510,,,A*4D
$GPRMC,201322.8,A,3315.218022,N,11711.003183,W,15.4,0.8,080510,,,A*41
$GPRMC,201325.8,A,3315.231625,N,11711.003032,W,15.9,360.0,080510,,,A*47
$GPRMC,201328.8,A,3315.244673,N,11711.002684,W,15.6,1.3,080510,,,A*49
$GPRMC,201331.8,A,3315.257284,N,11711.002167,W,14.9,1.0,080510,,,A*48
$GPRMC,201334.8,A,3315.269624,N,11711.002013,W,14.5,1.4,080510,,,A*44
$GPRMC,201337.8,A,3315.281165,N,11711.001630,W,13.7,3.0,080510,,,A*44
$GPRMC,201340.8,A,3315.290910,N,11711.001257,W,11.3,0.6,080510,,,A*48
$GPRMC,201343.8,A,3315.299949,N,11711.001262,W,10.8,357.9,080510,,,A*4C
$GPRMC,201346.8,A,3315.309619,N,11711.001009,W,11.5,0.8,080510,,,A*48
$GPRMC,201349.8,A,3315.319657,N,11711.000939,W,11.7,357.5,080510,,,A*49
$GPRMC,201352.8,A,3315.329474,N,11711.001221,W,11.0,358.7,080510,,,A*4A
$GPRMC,201355.8,A,3315.338144,N,11711.000541,W,8.9,2.1,080510,,,A*70
$GPRMC,201358.8,A,3315.343203,N,11711.000232,W,5.4,359.9,080510,,,A*77
$GPRMC,201404.8,A,3315.350872,N,11710.999363,W,5.1,356.2,080510,,,A*7B
$GPRMC,201407.8,A,3315.357060,N,11710.999083,W,7.1,359.4,080510,,,A*72
$GPRMC,201410.8,A,3315.363120,N,11710.998453,W,7.3,6.8,080510,,,A*79
$GPRMC,201413.8,A,3315.373538,N,11710.997287,W,11.3,6.0,080510,,,A*49
$GPRMC,201416.8,A,3315.384679,N,11710.996793,W,12.8,1.8,080510,,,A*44
$GPRMC,201419.8,A,3315.396710,N,11710.996520,W,14.1,1.8,080510,,,A*43
$GPRMC,201422.8,A,3315.412513,N,11710.997121,W,16.4,0.8,080510,,,A*43
$GPRMC,201425.8,A,3315.428830,N,11710.997521,W,18.6,357.9,080510,,,A*49
$GPRMC,201428.8,A,3315.444304,N,11710.997374,W,18.4,0.8,080510,,,A*46
$GPRMC,201431.8,A,3315.458869,N,11710.996714,W,17.3,1.1,080510,,,A*40
$GPRMC,201434.8,A,3315.472945,N,11710.996395,W,16.6,0.1,080510,,,A*4A
$GPRMC,201437.8,A,3315.486296,N,11710.996337,W,15.6,0.2,080510,,,A*4F
$GPRMC,201440.8,A,3315.498897,N,11710.996021,W,14.9,0.4,080510,,,A*47
$GPRMC,201443.8,A,3315.511861,N,11710.995786,W,15.7,359.9,080510,,,A*49
$GPRMC,201446.8,A,3315.525029,N,11710.996030,W,15.7,359.6,080510,,,A*49
$GPRMC,201449.8,A,3315.536705,N,11710.993129,W,14.1,18.7,080510,,,A*71
$GPRMC,201452.8,A,3315.544804,N,11710.984576,W,13.9,43.8,080510,,,A*76
$GPRMC,201455.8,A,3315.553663,N,11710.973574,W,15.9,44.6,080510,,,A*7D
$GPRMC,201458.8,A,3315.564411,N,11710.962881,W,17.1,37.2,080510,,,A*7E
$GPRMC,201501.8,A,3315.577152,N,11710.953653,W,17.5,28.4,080510,,,A*7C
$GPRMC,201504.8,A,3315.590812,N,11710.947268,W,17.7,20.3,080510,,,A*79
$GPRMC,201507.8,A,3315.603482,N,11710.942428,W,16.1,18.1,080510,,,A*7F
$GPRMC,201510.8,A,3315.616559,N,11710.938684,W,16.6,13.5,080510,,,A*7B
$GPRMC,201513.8,A,3315.628680,N,11710.933815,W,14.8,21.7,080510,,,A*70
$GPRMC,201516.8,A,3315.635339,N,11710.923453,W,14.6,57.2,080510,,,A*7B
$GPRMC,201519.8,A,3315.642825,N,11710.911781,W,15.0,49.2,080510,,,A*77
$GPRMC,201522.8,A,3315.653004,N,11710.904650,W,13.6,23.1,080510,,,A*72
$GPRMC,201525.8,A,3315.665205,N,11710.906202,W,15.0,351.7,080510,,,A*42
$GPRMC,201528.8,A,3315.678087,N,11710.911728,W,17.2,342.2,080510,,,A*47
$GPRMC,201531.8,A,3315.692824,N,11710.917209,W,17.3,345.1,080510,,,A*4F
$GPRMC,201534.8,A,3315.707285,N,11710.920528,W,17.3,348.1,080510,,,A*4B
$GPRMC,201537.8,A,3315.721097,N,11710.923455,W,15.7,346.8,080510,,,A*44
$GPRMC,201540.8,A,3315.731430,N,11710.926580,W,12.6,337.4,080510,,,A*4C
$GPRMC,201543.8,A,3315.740963,N,11710.933791,W,15.2,319.4,080510,,,A*4B
$GPRMC,201546.8,A,3315.747349,N,11710.949486,W,17.9,307.6,080510,,,A*47
$GPRMC,201549.8,A,3315.754197,N,11710.965953,W,18.0,299.0,080510,,,A*46
$GPRMC,201552.8,A,3315.759425,N,11710.978057,W,11.3,300.0,080510,,,A*47
$GPRMC,201555.8,A,3315.765719,N,11710.986839,W,12.3,316.6,080510,,,A*40
