NMEA Sentence Code,UTC Time,Status,Latitude,Latitude Direction,Longitude,Longitude Direction,Speed (knots),Track Angle (degrees true),Date,MagneticVariation,Magnetic Variation Direction,[FAA Mode]-Optional,Checksum
$GPRMC,024610.000,A,3328.8232,N,11708.4113,W,11.40,108.30,251010,,,A*4D
$GPRMC,024613.000,A,3328.8253,N,11708.3993,W,12.90,42.70,251010,,,A*7B
$GPRMC,024616.000,A,3328.8361,N,11708.3970,W,14.30,350.60,251010,,,A*4E
$GPRMC,024619.000,A,3328.8524,N,11708.4058,W,24.20,333.20,251010,,,A*41
$GPRMC,024622.000,A,3328.8725,N,11708.4181,W,29.60,334.10,251010,,,A*42
$GPRMC,024625.000,A,3328.8972,N,11708.4322,W,35.60,335.30,251010,,,A*4C
$GPRMC,024628.000,A,3328.9263,N,11708.4477,W,39.50,336.50,251010,,,A*46
$GPRMC,024631.000,A,3328.9599,N,11708.4644,W,45.00,337.80,251010,,,A*4C
$GPRMC,024634.000,A,3328.9952,N,11708.4805,W,44.90,340.40,251010,,,A*4D
$GPRMC,024637.000,A,3329.0312,N,11708.4952,W,47.00,341.20,251010,,,A*46
$GPRMC,024640.000,A,3329.0697,N,11708.5111,W,50.30,340.30,251010,,,A*45
$GPRMC,024643.000,A,3329.1108,N,11708.5281,W,53.60,341.20,251010,,,A*4A
$GPRMC,024646.000,A,3329.1546,N,11708.5445,W,56.10,343.00,251010,,,A*4D
$GPRMC,024649.000,A,3329.2006,N,11708.5611,W,58.70,343.20,251010,,,A*49
$GPRMC,024652.000,A,3329.2483,N,11708.5784,W,60.10,343.20,251010,,,A*4A
$GPRMC,024655.000,A,3329.2973,N,11708.5961,W,61.50,343.10,251010,,,A*4C
$GPRMC,024658.000,A,3329.3473,N,11708.6143,W,62.80,343.10,251010,,,A*48
$GPRMC,024701.000,A,3329.3982,N,11708.6326,W,64.40,341.70,251010,,,A*49
$GPRMC,024704.000,A,3329.4497,N,11708.6515,W,64.50,343.00,251010,,,A*40
$GPRMC,024707.000,A,3329.5013,N,11708.6700,W,64.70,342.90,251010,,,A*46
$GPRMC,024710.000,A,3329.5519,N,11708.6896,W,63.90,340.80,251010,,,A*45
$GPRMC,024713.000,A,3329.5999,N,11708.7146,W,62.80,334.50,251010,,,A*49
$GPRMC,024716.000,A,3329.6462,N,11708.7442,W,62.40,329.70,251010,,,A*45
$GPRMC,024719.000,A,3329.6900,N,11708.7780,W,62.30,324.00,251010,,,A*43
$GPRMC,024722.000,A,3329.7311,N,11708.8166,W,62.80,320.60,251010,,,A*48
$GPRMC,024725.000,A,3329.7717,N,11708.8567,W,63.60,320.10,251010,,,A*40
$GPRMC,024728.000,A,3329.8130,N,11708.8973,W,64.50,321.70,251010,,,A*4B
$GPRMC,024731.000,A,3329.8565,N,11708.9361,W,65.60,324.40,251010,,,A*4B
$GPRMC,024734.000,A,3329.9020,N,11708.9734,W,66.70,326.70,251010,,,A*4C
$GPRMC,024737.000,A,3329.9491,N,11709.0080,W,66.00,330.20,251010,,,A*44
$GPRMC,024740.000,A,3329.9969,N,11709.0392,W,64.50,332.90,251010,,,A*40
$GPRMC,024743.000,A,3330.0450,N,11709.0673,W,64.10,334.70,251010,,,A*43
$GPRMC,024746.000,A,3330.0945,N,11709.0927,W,64.90,338.30,251010,,,A*41
$GPRMC,024749.000,A,3330.1450,N,11709.1160,W,64.60,339.10,251010,,,A*40
$GPRMC,024752.000,A,3330.1954,N,11709.1390,W,64.70,339.10,251010,,,A*4F
$GPRMC,024755.000,A,3330.2461,N,11709.1618,W,64.80,339.20,251010,,,A*49
$GPRMC,024758.000,A,3330.2968,N,11709.1848,W,64.90,339.00,251010,,,A*48
$GPRMC,024801.000,A,3330.3474,N,11709.2077,W,64.80,339.20,251010,,,A*4E
$GPRMC,024804.000,A,3330.3979,N,11709.2306,W,64.80,339.10,251010,,,A*4D
$GPRMC,024807.000,A,3330.4484,N,11709.2535,W,64.70,339.20,251010,,,A*4C
$GPRMC,024810.000,A,3330.4991,N,11709.2765,W,64.90,339.00,251010,,,A*48
$GPRMC,024813.000,A,3330.5501,N,11709.2998,W,66.90,339.30,251010,,,A*42
$GPRMC,024816.000,A,3330.6037,N,11709.3240,W,69.90,339.10,251010,,,A*46
$GPRMC,024819.000,A,3330.6586,N,11709.3500,W,71.60,338.00,251010,,,A*43
$GPRMC,024822.000,A,3330.7132,N,11709.3764,W,69.70,338.00,251010,,,A*49
$GPRMC,024825.000,A,3330.7650,N,11709.4001,W,64.40,339.60,251010,,,A*47
$GPRMC,024828.000,A,3330.8140,N,11709.4225,W,61.50,338.50,251010,,,A*41
$GPRMC,024831.000,A,3330.8607,N,11709.4459,W,59.90,336.20,251010,,,A*4E
$GPRMC,024834.000,A,3330.9057,N,11709.4718,W,59.50,332.80,251010,,,A*4D
$GPRMC,024837.000,A,3330.9496,N,11709.5001,W,59.60,330.70,251010,,,A*47
$GPRMC,024840.000,A,3330.9934,N,11709.5292,W,60.10,330.80,251010,,,A*48
$GPRMC,024843.000,A,3331.0379,N,11709.5584,W,60.80,331.20,251010,,,A*42
$GPRMC,024846.000,A,3331.0825,N,11709.5887,W,61.30,329.70,251010,,,A*4D
$GPRMC,024849.000,A,3331.1271,N,11709.6185,W,60.40,330.70,251010,,,A*4E
$GPRMC,024852.000,A,3331.1705,N,11709.6477,W,58.80,330.70,251010,,,A*4D
$GPRMC,024855.000,A,3331.2127,N,11709.6761,W,58.50,331.00,251010,,,A*40
$GPRMC,024858.000,A,3331.2557,N,11709.7043,W,59.10,330.90,251010,,,A*45
$GPRMC,024901.000,A,3331.2993,N,11709.7332,W,60.00,330.90,251010,,,A*42
$GPRMC,024904.000,A,3331.3432,N,11709.7626,W,60.90,329.90,251010,,,A*41
$GPRMC,024907.000,A,3331.3879,N,11709.7926,W,61.40,330.70,251010,,,A*44
$GPRMC,024910.000,A,3331.4323,N,11709.8221,W,59.90,330.80,251010,,,A*4B
$GPRMC,024913.000,A,3331.4756,N,11709.8511,W,60.10,330.60,251010,,,A*46
$GPRMC,024915.000,A,3331.5050,N,11709.8710,W,61.60,330.70,251010,,,A*44
$GPRMC,024919.000,A,3331.5660,N,11709.9117,W,63.30,330.40,251010,,,A*49
$GPRMC,024922.000,A,3331.6110,N,11709.9431,W,61.80,329.50,251010,,,A*43
$GPRMC,024925.000,A,3331.6558,N,11709.9741,W,62.00,330.70,251010,,,A*49
$GPRMC,024928.000,A,3331.7010,N,11710.0041,W,62.00,330.50,251010,,,A*48
$GPRMC,024931.000,A,3331.7462,N,11710.0347,W,62.90,330.80,251010,,,A*40
$GPRMC,024934.000,A,3331.7923,N,11710.0653,W,63.10,331.00,251010,,,A*4D
$GPRMC,024937.000,A,3331.8383,N,11710.0957,W,62.80,331.00,251010,,,A*42
$GPRMC,024940.000,A,3331.8839,N,11710.1260,W,62.40,330.50,251010,,,A*4E
$GPRMC,024943.000,A,3331.9293,N,11710.1565,W,62.30,330.80,251010,,,A*4E
$GPRMC,024946.000,A,3331.9748,N,11710.1867,W,62.40,330.90,251010,,,A*41
$GPRMC,024949.000,A,3332.0203,N,11710.2173,W,62.60,330.50,251010,,,A*4F
$GPRMC,024952.000,A,3332.0659,N,11710.2481,W,62.80,330.70,251010,,,A*4A
$GPRMC,024955.000,A,3332.1116,N,11710.2786,W,62.90,331.00,251010,,,A*43
$GPRMC,024958.000,A,3332.1574,N,11710.3089,W,62.60,330.80,251010,,,A*41
$GPRMC,025001.000,A,3332.2032,N,11710.3396,W,62.90,331.10,251010,,,A*4B
$GPRMC,025004.000,A,3332.2490,N,11710.3696,W,62.30,331.10,251010,,,A*4D
$GPRMC,025007.000,A,3332.2945,N,11710.3995,W,61.90,330.80,251010,,,A*46
$GPRMC,025010.000,A,3332.3396,N,11710.4297,W,62.00,330.60,251010,,,A*4F
$GPRMC,025013.000,A,3332.3849,N,11710.4601,W,62.50,330.70,251010,,,A*4A
$GPRMC,025016.000,A,3332.4306,N,11710.4905,W,62.50,330.90,251010,,,A*4D
$GPRMC,025019.000,A,3332.4761,N,11710.5209,W,62.60,330.60,251010,,,A*4D
$GPRMC,025022.000,A,3332.5217,N,11710.5517,W,62.80,330.60,251010,,,A*46
$GPRMC,025025.000,A,3332.5676,N,11710.5822,W,62.90,331.10,251010,,,A*4E
$GPRMC,025028.000,A,3332.6136,N,11710.6127,W,63.10,330.80,251010,,,A*4D
$GPRMC,025031.000,A,3332.6594,N,11710.6433,W,62.80,330.60,251010,,,A*4F
$GPRMC,025034.000,A,3332.7050,N,11710.6739,W,62.70,330.90,251010,,,A*4F
$GPRMC,025037.000,A,3332.7505,N,11710.7047,W,62.70,329.70,251010,,,A*40
$GPRMC,025040.000,A,3332.7951,N,11710.7376,W,62.80,326.60,251010,,,A*4D
$GPRMC,025043.000,A,3332.8378,N,11710.7738,W,62.80,323.30,251010,,,A*4E
$GPRMC,025046.000,A,3332.8791,N,11710.8126,W,62.60,320.00,251010,,,A*40
$GPRMC,025049.000,A,3332.9181,N,11710.8543,W,62.60,316.50,251010,,,A*4E
$GPRMC,025052.000,A,3332.9547,N,11710.8988,W,62.60,313.60,251010,,,A*47
$GPRMC,025055.000,A,3332.9885,N,11710.9463,W,62.70,308.60,251010,,,A*41
$GPRMC,025058.000,A,3333.0198,N,11710.9967,W,62.70,304.80,251010,,,A*4A
$GPRMC,025101.000,A,3333.0485,N,11711.0491,W,62.60,301.90,251010,,,A*47
$GPRMC,025104.000,A,3333.0755,N,11711.1013,W,60.00,301.60,251010,,,A*48
$GPRMC,025107.000,A,3333.1013,N,11711.1514,W,58.40,301.60,251010,,,A*42
$GPRMC,025110.000,A,3333.1268,N,11711.2013,W,58.90,301.50,251010,,,A*45
$GPRMC,025113.000,A,3333.1529,N,11711.2520,W,60.30,301.60,251010,,,A*43
$GPRMC,025116.000,A,3333.1797,N,11711.3037,W,61.80,301.70,251010,,,A*48
$GPRMC,025119.000,A,3333.2069,N,11711.3568,W,62.80,301.30,251010,,,A*4A
$GPRMC,025122.000,A,3333.2346,N,11711.4107,W,63.60,301.50,251010,,,A*4F
$GPRMC,025125.000,A,3333.2625,N,11711.4646,W,63.40,302.40,251010,,,A*4A
$GPRMC,025128.000,A,3333.2910,N,11711.5174,W,62.90,303.20,251010,,,A*42
$GPRMC,025131.000,A,3333.3212,N,11711.5702,W,64.10,304.70,251010,,,A*49
$GPRMC,025134.000,A,3333.3522,N,11711.6219,W,63.30,305.90,251010,,,A*4E
$GPRMC,025137.000,A,3333.3836,N,11711.6721,W,62.60,307.40,251010,,,A*40
$GPRMC,025140.000,A,3333.4156,N,11711.7219,W,63.20,308.00,251010,,,A*49
$GPRMC,025143.000,A,3333.4490,N,11711.7709,W,63.10,310.00,251010,,,A*4B
$GPRMC,025146.000,A,3333.4828,N,11711.8184,W,62.20,311.00,251010,,,A*4E
$GPRMC,025149.000,A,3333.5170,N,11711.8645,W,61.70,311.80,251010,,,A*40
$GPRMC,025152.000,A,3333.5511,N,11711.9096,W,60.60,312.50,251010,,,A*4E
$GPRMC,025155.000,A,3333.5853,N,11711.9541,W,60.80,312.40,251010,,,A*42
$GPRMC,025158.000,A,3333.6195,N,11711.9994,W,61.40,312.30,251010,,,A*41
$GPRMC,025201.000,A,3333.6542,N,11712.0447,W,61.90,312.40,251010,,,A*43
$GPRMC,025204.000,A,3333.6893,N,11712.0907,W,62.50,312.40,251010,,,A*41
$GPRMC,025207.000,A,3333.7245,N,11712.1369,W,62.80,312.50,251010,,,A*4D
$GPRMC,025210.000,A,3333.7602,N,11712.1833,W,63.30,312.30,251010,,,A*44
$GPRMC,025213.000,A,3333.7957,N,11712.2300,W,63.00,312.30,251010,,,A*43
$GPRMC,025216.000,A,3333.8309,N,11712.2759,W,61.90,312.50,251010,,,A*4D
$GPRMC,025219.000,A,3333.8650,N,11712.3207,W,60.10,312.10,251010,,,A*49
$GPRMC,025222.000,A,3333.8986,N,11712.3648,W,59.80,312.50,251010,,,A*4D
$GPRMC,025225.000,A,3333.9323,N,11712.4089,W,59.90,312.30,251010,,,A*45
$GPRMC,025228.000,A,3333.9660,N,11712.4532,W,60.30,312.10,251010,,,A*4D
$GPRMC,025231.000,A,3334.0000,N,11712.4979,W,60.80,312.30,251010,,,A*41
$GPRMC,025234.000,A,3334.0340,N,11712.5429,W,60.70,312.00,251010,,,A*46
$GPRMC,025237.000,A,3334.0678,N,11712.5880,W,60.70,311.40,251010,,,A*43
$GPRMC,025240.000,A,3334.1013,N,11712.6331,W,60.10,311.60,251010,,,A*4F
$GPRMC,025243.000,A,3334.1346,N,11712.6777,W,59.90,311.80,251010,,,A*45
$GPRMC,025246.000,A,3334.1679,N,11712.7221,W,59.70,311.90,251010,,,A*41
$GPRMC,025249.000,A,3334.2013,N,11712.7664,W,60.10,312.00,251010,,,A*44
$GPRMC,025252.000,A,3334.2353,N,11712.8113,W,61.20,312.10,251010,,,A*42
$GPRMC,025255.000,A,3334.2701,N,11712.8568,W,62.30,312.60,251010,,,A*4B
$GPRMC,025258.000,A,3334.3056,N,11712.9030,W,62.80,312.50,251010,,,A*43
$GPRMC,025301.000,A,3334.3412,N,11712.9496,W,63.60,312.30,251010,,,A*4B
$GPRMC,025304.000,A,3334.3774,N,11712.9969,W,64.60,312.40,251010,,,A*40
$GPRMC,025307.000,A,3334.4141,N,11713.0447,W,65.30,312.70,251010,,,A*4A
$GPRMC,025310.000,A,3334.4511,N,11713.0929,W,65.00,312.30,251010,,,A*4F
$GPRMC,025313.000,A,3334.4873,N,11713.1404,W,64.20,312.30,251010,,,A*45
$GPRMC,025316.000,A,3334.5231,N,11713.1874,W,63.00,312.30,251010,,,A*43
$GPRMC,025319.000,A,3334.5580,N,11713.2333,W,61.50,312.40,251010,,,A*4A
$GPRMC,025322.000,A,3334.5925,N,11713.2784,W,61.40,312.60,251010,,,A*4A
$GPRMC,025325.000,A,3334.6274,N,11713.3239,W,62.40,312.40,251010,,,A*42
$GPRMC,025328.000,A,3334.6628,N,11713.3702,W,63.60,312.40,251010,,,A*4C
$GPRMC,025331.000,A,3334.6988,N,11713.4179,W,65.10,312.20,251010,,,A*4B
$GPRMC,025334.000,A,3334.7357,N,11713.4663,W,65.90,312.40,251010,,,A*45
$GPRMC,025337.000,A,3334.7729,N,11713.5150,W,66.10,312.40,251010,,,A*46
$GPRMC,025340.000,A,3334.8094,N,11713.5629,W,63.50,312.20,251010,,,A*46
$GPRMC,025343.000,A,3334.8442,N,11713.6087,W,60.50,312.40,251010,,,A*4E
$GPRMC,025346.000,A,3334.8783,N,11713.6529,W,60.00,312.50,251010,,,A*40
$GPRMC,025349.000,A,3334.9120,N,11713.6969,W,59.90,312.30,251010,,,A*4C
$GPRMC,025352.000,A,3334.9457,N,11713.7412,W,60.10,312.20,251010,,,A*40
$GPRMC,025355.000,A,3334.9797,N,11713.7857,W,60.60,312.60,251010,,,A*46
$GPRMC,025358.000,A,3335.0141,N,11713.8304,W,61.10,312.40,251010,,,A*48
$GPRMC,025401.000,A,3335.0487,N,11713.8758,W,61.90,312.30,251010,,,A*4E
$GPRMC,025404.000,A,3335.0836,N,11713.9217,W,62.50,312.40,251010,,,A*4A
$GPRMC,025407.000,A,3335.1187,N,11713.9676,W,62.20,312.40,251010,,,A*4F
$GPRMC,025410.000,A,3335.1537,N,11714.0135,W,62.20,312.40,251010,,,A*48
$GPRMC,025413.000,A,3335.1889,N,11714.0596,W,63.00,312.30,251010,,,A*4A
$GPRMC,025416.000,A,3335.2248,N,11714.1065,W,64.00,312.40,251010,,,A*43
$GPRMC,025419.000,A,3335.2609,N,11714.1540,W,64.60,312.30,251010,,,A*4E
$GPRMC,025422.000,A,3335.2973,N,11714.2018,W,65.00,312.40,251010,,,A*4F
$GPRMC,025425.000,A,3335.3340,N,11714.2498,W,65.10,312.40,251010,,,A*4E
$GPRMC,025428.000,A,3335.3703,N,11714.2972,W,64.20,312.40,251010,,,A*4B
$GPRMC,025431.000,A,3335.4066,N,11714.3448,W,65.30,312.30,251010,,,A*42
$GPRMC,025434.000,A,3335.4440,N,11714.3929,W,66.50,313.90,251010,,,A*43
$GPRMC,025437.000,A,3335.4844,N,11714.4394,W,67.50,318.20,251010,,,A*42
$GPRMC,025440.000,A,3335.5270,N,11714.4818,W,65.10,321.80,251010,,,A*47
$GPRMC,025443.000,A,3335.5696,N,11714.5208,W,63.50,322.80,251010,,,A*43
$GPRMC,025446.000,A,3335.6110,N,11714.5586,W,62.00,322.30,251010,,,A*42
$GPRMC,025449.000,A,3335.6523,N,11714.5962,W,62.30,322.70,251010,,,A*48
$GPRMC,025452.000,A,3335.6935,N,11714.6333,W,62.00,322.70,251010,,,A*47
$GPRMC,025455.000,A,3335.7351,N,11714.6715,W,63.70,322.40,251010,,,A*4C
$GPRMC,025458.000,A,3335.7774,N,11714.7107,W,64.70,322.20,251010,,,A*47
$GPRMC,025501.000,A,3335.8207,N,11714.7501,W,65.00,322.60,251010,,,A*44
$GPRMC,025504.000,A,3335.8639,N,11714.7895,W,65.50,322.60,251010,,,A*4D
$GPRMC,025507.000,A,3335.9073,N,11714.8292,W,65.70,322.50,251010,,,A*44
$GPRMC,025510.000,A,3335.9510,N,11714.8692,W,66.00,322.50,251010,,,A*42
$GPRMC,025513.000,A,3335.9949,N,11714.9093,W,66.50,322.60,251010,,,A*41
$GPRMC,025516.000,A,3336.0393,N,11714.9498,W,67.40,322.80,251010,,,A*42
$GPRMC,025519.000,A,3336.0844,N,11714.9909,W,68.30,322.40,251010,,,A*4D
$GPRMC,025522.000,A,3336.1299,N,11715.0327,W,69.10,322.50,251010,,,A*42
$GPRMC,025525.000,A,3336.1760,N,11715.0749,W,69.80,322.60,251010,,,A*40
$GPRMC,025528.000,A,3336.2224,N,11715.1174,W,70.20,322.60,251010,,,A*40
$GPRMC,025531.000,A,3336.2692,N,11715.1600,W,70.80,322.60,251010,,,A*4F
$GPRMC,025534.000,A,3336.3164,N,11715.2030,W,71.30,322.60,251010,,,A*49
$GPRMC,025537.000,A,3336.3639,N,11715.2466,W,72.10,322.40,251010,,,A*41
$GPRMC,025540.000,A,3336.4120,N,11715.2905,W,72.80,322.70,251010,,,A*4B
$GPRMC,025543.000,A,3336.4605,N,11715.3347,W,73.20,322.40,251010,,,A*4D
$GPRMC,025546.000,A,3336.5090,N,11715.3793,W,73.30,322.60,251010,,,A*4D
$GPRMC,025549.000,A,3336.5572,N,11715.4232,W,71.50,322.70,251010,,,A*47
$GPRMC,025552.000,A,3336.6041,N,11715.4661,W,70.00,322.50,251010,,,A*4F
$GPRMC,025555.000,A,3336.6502,N,11715.5082,W,69.10,322.50,251010,,,A*49
$GPRMC,025558.000,A,3336.6958,N,11715.5500,W,68.80,322.60,251010,,,A*43
$GPRMC,025601.000,A,3336.7417,N,11715.5920,W,69.50,322.60,251010,,,A*49
$GPRMC,025604.000,A,3336.7878,N,11715.6341,W,68.50,322.60,251010,,,A*46
$GPRMC,025607.000,A,3336.8324,N,11715.6750,W,66.00,322.70,251010,,,A*46
$GPRMC,025610.000,A,3336.8754,N,11715.7142,W,64.20,322.50,251010,,,A*45
$GPRMC,025613.000,A,3336.9177,N,11715.7530,W,63.70,322.60,251010,,,A*40
$GPRMC,025616.000,A,3336.9601,N,11715.7919,W,64.50,322.50,251010,,,A*42
$GPRMC,025619.000,A,3337.0034,N,11715.8313,W,65.60,322.60,251010,,,A*4B
$GPRMC,025622.000,A,3337.0473,N,11715.8713,W,66.70,322.60,251010,,,A*42
$GPRMC,025625.000,A,3337.0919,N,11715.9119,W,67.60,322.60,251010,,,A*49
$GPRMC,025628.000,A,3337.1367,N,11715.9529,W,67.40,322.70,251010,,,A*42
$GPRMC,025631.000,A,3337.1813,N,11715.9935,W,67.00,322.60,251010,,,A*46
$GPRMC,025634.000,A,3337.2253,N,11716.0334,W,65.40,323.10,251010,,,A*4F
$GPRMC,025637.000,A,3337.2689,N,11716.0723,W,65.20,323.60,251010,,,A*4C
$GPRMC,025640.000,A,3337.3128,N,11716.1108,W,65.50,324.00,251010,,,A*49
$GPRMC,025643.000,A,3337.3574,N,11716.1492,W,66.00,324.50,251010,,,A*42
$GPRMC,025646.000,A,3337.4025,N,11716.1874,W,66.40,324.70,251010,,,A*43
$GPRMC,025649.000,A,3337.4479,N,11716.2257,W,66.70,325.00,251010,,,A*4C
$GPRMC,025652.000,A,3337.4938,N,11716.2639,W,67.20,325.30,251010,,,A*45
$GPRMC,025655.000,A,3337.5401,N,11716.3020,W,67.60,325.80,251010,,,A*44
$GPRMC,025658.000,A,3337.5869,N,11716.3397,W,67.50,326.20,251010,,,A*4E
$GPRMC,025701.000,A,3337.6340,N,11716.3772,W,67.70,326.50,251010,,,A*4A
$GPRMC,025704.000,A,3337.6815,N,11716.4142,W,67.90,327.10,251010,,,A*4D
$GPRMC,025707.000,A,3337.7291,N,11716.4508,W,67.60,327.50,251010,,,A*48
$GPRMC,025710.000,A,3337.7770,N,11716.4869,W,67.60,327.90,251010,,,A*42
$GPRMC,025713.000,A,3337.8249,N,11716.5226,W,67.70,328.10,251010,,,A*47
$GPRMC,025716.000,A,3337.8732,N,11716.5581,W,68.10,328.60,251010,,,A*4F
$GPRMC,025719.000,A,3337.9218,N,11716.5932,W,68.00,329.20,251010,,,A*4C
$GPRMC,025722.000,A,3337.9705,N,11716.6279,W,67.90,329.30,251010,,,A*4D
$GPRMC,025725.000,A,3338.0193,N,11716.6621,W,67.10,329.90,251010,,,A*4E
$GPRMC,025728.000,A,3338.0674,N,11716.6953,W,66.40,330.10,251010,,,A*43
$GPRMC,025731.000,A,3338.1157,N,11716.7283,W,66.90,330.60,251010,,,A*41
$GPRMC,025734.000,A,3338.1645,N,11716.7610,W,66.90,330.50,251010,,,A*4D
$GPRMC,025737.000,A,3338.2130,N,11716.7940,W,66.40,330.50,251010,,,A*4F
$GPRMC,025740.000,A,3338.2608,N,11716.8262,W,65.50,330.50,251010,,,A*45
$GPRMC,025743.000,A,3338.3085,N,11716.8586,W,65.90,330.30,251010,,,A*43
$GPRMC,025746.000,A,3338.3565,N,11716.8912,W,66.40,330.50,251010,,,A*44
$GPRMC,025749.000,A,3338.4047,N,11716.9238,W,66.40,330.60,251010,,,A*48
$GPRMC,025752.000,A,3338.4527,N,11716.9563,W,65.90,330.60,251010,,,A*46
$GPRMC,025755.000,A,3338.5004,N,11716.9883,W,65.30,330.60,251010,,,A*4D
$GPRMC,025758.000,A,3338.5477,N,11717.0201,W,64.70,330.60,251010,,,A*4D
$GPRMC,025801.000,A,3338.5940,N,11717.0516,W,63.20,330.30,251010,,,A*41
$GPRMC,025804.000,A,3338.6391,N,11717.0822,W,60.70,330.40,251010,,,A*4A
$GPRMC,025807.000,A,3338.6822,N,11717.1115,W,58.40,330.40,251010,,,A*4E
$GPRMC,025810.000,A,3338.7243,N,11717.1401,W,58.20,330.30,251010,,,A*45
$GPRMC,025813.000,A,3338.7671,N,11717.1689,W,59.60,330.60,251010,,,A*41
$GPRMC,025816.000,A,3338.8110,N,11717.1984,W,61.30,330.60,251010,,,A*47
$GPRMC,025819.000,A,3338.8562,N,11717.2286,W,62.70,330.40,251010,,,A*46
$GPRMC,025822.000,A,3338.9018,N,11717.2595,W,63.10,330.50,251010,,,A*44
$GPRMC,025825.000,A,3338.9480,N,11717.2907,W,63.60,330.60,251010,,,A*45
$GPRMC,025829.000,A,3339.0059,N,11717.3302,W,58.60,330.10,251010,,,A*40
$GPRMC,025832.000,A,3339.0480,N,11717.3590,W,57.00,330.50,251010,,,A*4A
$GPRMC,025835.000,A,3339.0890,N,11717.3867,W,55.60,330.80,251010,,,A*4C
$GPRMC,025838.000,A,3339.1293,N,11717.4140,W,55.90,330.20,251010,,,A*47
$GPRMC,025841.000,A,3339.1703,N,11717.4416,W,55.80,330.50,251010,,,A*45
$GPRMC,025844.000,A,3339.2103,N,11717.4688,W,55.10,330.40,251010,,,A*48
$GPRMC,025847.000,A,3339.2506,N,11717.4962,W,56.00,330.20,251010,,,A*45
$GPRMC,025850.000,A,3339.2919,N,11717.5247,W,58.50,329.80,251010,,,A*45
$GPRMC,025853.000,A,3339.3350,N,11717.5551,W,60.90,328.60,251010,,,A*48
$GPRMC,025856.000,A,3339.3778,N,11717.5875,W,60.80,326.90,251010,,,A*48
$GPRMC,025859.000,A,3339.4206,N,11717.6211,W,61.10,326.60,251010,,,A*40
$GPRMC,025902.000,A,3339.4626,N,11717.6552,W,61.10,325.10,251010,,,A*4D
$GPRMC,025905.000,A,3339.5043,N,11717.6907,W,61.00,324.40,251010,,,A*47
$GPRMC,025908.000,A,3339.5451,N,11717.7266,W,60.30,323.20,251010,,,A*43
$GPRMC,025911.000,A,3339.5849,N,11717.7627,W,59.30,322.70,251010,,,A*41
$GPRMC,025914.000,A,3339.6242,N,11717.7991,W,59.70,321.90,251010,,,A*4D
$GPRMC,025917.000,A,3339.6633,N,11717.8365,W,60.50,320.70,251010,,,A*45
$GPRMC,025920.000,A,3339.7024,N,11717.8758,W,62.00,319.60,251010,,,A*46
$GPRMC,025923.000,A,3339.7421,N,11717.9170,W,63.50,318.50,251010,,,A*4F
$GPRMC,025926.000,A,3339.7819,N,11717.9601,W,64.70,317.50,251010,,,A*46
$GPRMC,025929.000,A,3339.8214,N,11718.0045,W,64.80,316.30,251010,,,A*49
$GPRMC,025932.000,A,3339.8600,N,11718.0493,W,63.90,315.20,251010,,,A*49
$GPRMC,025935.000,A,3339.8975,N,11718.0946,W,63.70,314.20,251010,,,A*49
$GPRMC,025938.000,A,3339.9344,N,11718.1407,W,63.60,313.10,251010,,,A*41
$GPRMC,025941.000,A,3339.9702,N,11718.1875,W,63.30,311.80,251010,,,A*4E
$GPRMC,025944.000,A,3340.0051,N,11718.2348,W,63.00,311.00,251010,,,A*40
$GPRMC,025947.000,A,3340.0389,N,11718.2822,W,61.90,310.00,251010,,,A*48
$GPRMC,025950.000,A,3340.0712,N,11718.3294,W,60.80,308.90,251010,,,A*4E
$GPRMC,025953.000,A,3340.1028,N,11718.3768,W,60.70,307.80,251010,,,A*45
$GPRMC,025956.000,A,3340.1334,N,11718.4250,W,61.20,306.70,251010,,,A*4D
$GPRMC,025959.000,A,3340.1634,N,11718.4742,W,61.40,305.70,251010,,,A*44
$GPRMC,030002.000,A,3340.1929,N,11718.5246,W,61.90,304.60,251010,,,A*49
$GPRMC,030005.000,A,3340.2222,N,11718.5760,W,62.50,303.80,251010,,,A*4A
$GPRMC,030008.000,A,3340.2508,N,11718.6284,W,62.80,302.30,251010,,,A*43
$GPRMC,030011.000,A,3340.2781,N,11718.6809,W,61.40,301.50,251010,,,A*4D
$GPRMC,030014.000,A,3340.3047,N,11718.7336,W,61.70,300.60,251010,,,A*43
$GPRMC,030017.000,A,3340.3306,N,11718.7872,W,62.30,299.10,251010,,,A*4C
$GPRMC,030020.000,A,3340.3557,N,11718.8422,W,63.10,298.30,251010,,,A*4C
$GPRMC,030023.000,A,3340.3806,N,11718.8984,W,64.20,297.20,251010,,,A*4D
$GPRMC,030026.000,A,3340.4048,N,11718.9561,W,65.20,296.20,251010,,,A*4B
$GPRMC,030029.000,A,3340.4287,N,11719.0153,W,66.50,295.50,251010,,,A*48
$GPRMC,030032.000,A,3340.4530,N,11719.0759,W,67.80,295.90,251010,,,A*45
$GPRMC,030035.000,A,3340.4792,N,11719.1369,W,69.30,298.60,251010,,,A*49
$GPRMC,030038.000,A,3340.5083,N,11719.1975,W,70.70,301.40,251010,,,A*4A
$GPRMC,030041.000,A,3340.5408,N,11719.2576,W,73.40,304.50,251010,,,A*4B
$GPRMC,030044.000,A,3340.5773,N,11719.3183,W,76.30,307.20,251010,,,A*48
$GPRMC,030047.000,A,3340.6168,N,11719.3773,W,74.90,310.30,251010,,,A*42
$GPRMC,030050.000,A,3340.6582,N,11719.4321,W,73.00,313.60,251010,,,A*48
$GPRMC,030053.000,A,3340.7009,N,11719.4831,W,71.40,316.50,251010,,,A*46
$GPRMC,030056.000,A,3340.7448,N,11719.5304,W,70.50,319.60,251010,,,A*42
$GPRMC,030059.000,A,3340.7903,N,11719.5748,W,70.80,321.70,251010,,,A*44
$GPRMC,030102.000,A,3340.8376,N,11719.6183,W,71.80,322.80,251010,,,A*43
$GPRMC,030105.000,A,3340.8855,N,11719.6619,W,72.50,322.80,251010,,,A*44
$GPRMC,030108.000,A,3340.9337,N,11719.7058,W,72.80,322.80,251010,,,A*48
$GPRMC,030111.000,A,3340.9819,N,11719.7497,W,72.10,322.80,251010,,,A*49
$GPRMC,030114.000,A,3341.0294,N,11719.7928,W,70.40,322.80,251010,,,A*45
$GPRMC,030117.000,A,3341.0757,N,11719.8350,W,69.00,322.80,251010,,,A*4A
$GPRMC,030120.000,A,3341.1214,N,11719.8763,W,68.60,322.60,251010,,,A*40
$GPRMC,030123.000,A,3341.1668,N,11719.9180,W,68.50,322.70,251010,,,A*44
$GPRMC,030126.000,A,3341.2123,N,11719.9593,W,68.70,322.60,251010,,,A*4F
$GPRMC,030129.000,A,3341.2581,N,11720.0010,W,69.30,322.70,251010,,,A*45
$GPRMC,030132.000,A,3341.3043,N,11720.0431,W,70.10,322.60,251010,,,A*49
$GPRMC,030135.000,A,3341.3509,N,11720.0854,W,70.30,322.90,251010,,,A*47
$GPRMC,030138.000,A,3341.3976,N,11720.1280,W,70.60,322.70,251010,,,A*47
$GPRMC,030141.000,A,3341.4447,N,11720.1706,W,70.80,322.80,251010,,,A*4B
$GPRMC,030144.000,A,3341.4909,N,11720.2133,W,68.70,321.60,251010,,,A*41
$GPRMC,030147.000,A,3341.5349,N,11720.2562,W,68.20,320.20,251010,,,A*4D
$GPRMC,030150.000,A,3341.5768,N,11720.3011,W,67.50,317.70,251010,,,A*45
$GPRMC,030153.000,A,3341.6172,N,11720.3471,W,66.00,315.40,251010,,,A*4F
$GPRMC,030156.000,A,3341.6560,N,11720.3939,W,65.70,313.80,251010,,,A*42
$GPRMC,030159.000,A,3341.6933,N,11720.4420,W,65.70,311.80,251010,,,A*47
$GPRMC,030202.000,A,3341.7293,N,11720.4916,W,65.70,309.90,251010,,,A*4A
$GPRMC,030205.000,A,3341.7639,N,11720.5424,W,65.70,308.70,251010,,,A*4B
$GPRMC,030208.000,A,3341.7982,N,11720.5939,W,66.20,308.50,251010,,,A*4C
$GPRMC,030211.000,A,3341.8328,N,11720.6461,W,67.10,308.60,251010,,,A*43
$GPRMC,030214.000,A,3341.8680,N,11720.6989,W,67.90,308.60,251010,,,A*42
$GPRMC,030217.000,A,3341.9035,N,11720.7522,W,68.60,308.50,251010,,,A*47
$GPRMC,030220.000,A,3341.9394,N,11720.8064,W,69.90,308.50,251010,,,A*4D
$GPRMC,030223.000,A,3341.9762,N,11720.8615,W,71.40,308.70,251010,,,A*45
$GPRMC,030226.000,A,3342.0134,N,11720.9176,W,71.50,308.30,251010,,,A*49
$GPRMC,030229.000,A,3342.0499,N,11720.9731,W,69.40,308.50,251010,,,A*4F
$GPRMC,030232.000,A,3342.0855,N,11721.0264,W,68.00,308.70,251010,,,A*43
$GPRMC,030235.000,A,3342.1210,N,11721.0794,W,68.30,308.50,251010,,,A*45
$GPRMC,030238.000,A,3342.1569,N,11721.1329,W,68.40,308.60,251010,,,A*46
$GPRMC,030241.000,A,3342.1917,N,11721.1855,W,65.80,308.50,251010,,,A*4F
$GPRMC,030244.000,A,3342.2254,N,11721.2364,W,64.80,308.40,251010,,,A*4F
$GPRMC,030247.000,A,3342.2598,N,11721.2873,W,66.50,310.10,251010,,,A*45
$GPRMC,030250.000,A,3342.2979,N,11721.3375,W,69.20,314.50,251010,,,A*44
$GPRMC,030253.000,A,3342.3405,N,11721.3860,W,71.50,318.10,251010,,,A*49
$GPRMC,030256.000,A,3342.3870,N,11721.4322,W,72.90,322.50,251010,,,A*4A
$GPRMC,030259.000,A,3342.4353,N,11721.4734,W,69.90,325.80,251010,,,A*4B
$GPRMC,030302.000,A,3342.4837,N,11721.5079,W,66.10,330.80,251010,,,A*41
$GPRMC,030305.000,A,3342.5316,N,11721.5376,W,63.60,334.70,251010,,,A*4A
$GPRMC,030308.000,A,3342.5799,N,11721.5627,W,63.10,338.20,251010,,,A*4B
$GPRMC,030311.000,A,3342.6296,N,11721.5843,W,63.80,341.80,251010,,,A*4B
$GPRMC,030314.000,A,3342.6808,N,11721.6024,W,64.00,344.80,251010,,,A*43
$GPRMC,030317.000,A,3342.7329,N,11721.6171,W,63.80,347.40,251010,,,A*48
$GPRMC,030320.000,A,3342.7842,N,11721.6307,W,62.10,346.70,251010,,,A*43
$GPRMC,030323.000,A,3342.8348,N,11721.6453,W,62.30,345.80,251010,,,A*46
$GPRMC,030326.000,A,3342.8842,N,11721.6623,W,61.90,343.10,251010,,,A*41
$GPRMC,030329.000,A,3342.9356,N,11721.6810,W,63.30,343.30,251010,,,A*45
$GPRMC,030332.000,A,3342.9848,N,11721.7060,W,64.90,337.50,251010,,,A*4D
$GPRMC,030335.000,A,3343.0354,N,11721.7326,W,66.30,335.60,251010,,,A*4C
$GPRMC,030338.000,A,3343.0842,N,11721.7628,W,66.30,331.70,251010,,,A*43
$GPRMC,030341.000,A,3343.1319,N,11721.7957,W,67.30,328.80,251010,,,A*48
$GPRMC,030344.000,A,3343.1793,N,11721.8323,W,68.10,326.30,251010,,,A*45
$GPRMC,030347.000,A,3343.2254,N,11721.8713,W,67.80,323.50,251010,,,A*49
$GPRMC,030350.000,A,3343.2701,N,11721.9131,W,68.10,321.40,251010,,,A*48
$GPRMC,030353.000,A,3343.3128,N,11721.9580,W,68.00,317.90,251010,,,A*40
$GPRMC,030356.000,A,3343.3540,N,11722.0047,W,68.40,315.10,251010,,,A*45
$GPRMC,030359.000,A,3343.3932,N,11722.0547,W,69.30,311.90,251010,,,A*4C
$GPRMC,030402.000,A,3343.4312,N,11722.1075,W,70.20,309.40,251010,,,A*42
$GPRMC,030405.000,A,3343.4672,N,11722.1632,W,70.90,306.40,251010,,,A*47
$GPRMC,030408.000,A,3343.5007,N,11722.2214,W,70.00,303.10,251010,,,A*45
$GPRMC,030411.000,A,3343.5313,N,11722.2803,W,69.00,300.60,251010,,,A*4B
$GPRMC,030414.000,A,3343.5593,N,11722.3401,W,68.30,298.00,251010,,,A*4B
$GPRMC,030417.000,A,3343.5846,N,11722.4006,W,67.30,295.10,251010,,,A*4A
$GPRMC,030420.000,A,3343.6071,N,11722.4623,W,67.50,292.10,251010,,,A*41
$GPRMC,030423.000,A,3343.6271,N,11722.5253,W,67.80,289.40,251010,,,A*40
$GPRMC,030426.000,A,3343.6445,N,11722.5899,W,68.20,286.50,251010,,,A*43
$GPRMC,030429.000,A,3343.6594,N,11722.6561,W,68.90,283.90,251010,,,A*4A
$GPRMC,030432.000,A,3343.6729,N,11722.7235,W,70.00,283.40,251010,,,A*4E
$GPRMC,030435.000,A,3343.6869,N,11722.7920,W,71.10,283.80,251010,,,A*41
$GPRMC,030438.000,A,3343.7008,N,11722.8609,W,69.80,283.50,251010,,,A*44
$GPRMC,030441.000,A,3343.7140,N,11722.9275,W,67.40,283.40,251010,,,A*4A
$GPRMC,030444.000,A,3343.7266,N,11722.9920,W,65.80,283.40,251010,,,A*4D
$GPRMC,030447.000,A,3343.7392,N,11723.0554,W,65.10,283.40,251010,,,A*4A
$GPRMC,030450.000,A,3343.7522,N,11723.1190,W,65.90,283.60,251010,,,A*46
$GPRMC,030453.000,A,3343.7653,N,11723.1838,W,67.60,283.50,251010,,,A*45
$GPRMC,030456.000,A,3343.7787,N,11723.2503,W,69.10,283.40,251010,,,A*46
$GPRMC,030459.000,A,3343.7917,N,11723.3179,W,69.10,282.00,251010,,,A*43
$GPRMC,030502.000,A,3343.8018,N,11723.3859,W,68.90,278.10,251010,,,A*43
$GPRMC,030505.000,A,3343.8078,N,11723.4542,W,68.30,274.10,251010,,,A*44
$GPRMC,030508.000,A,3343.8098,N,11723.5219,W,66.70,270.00,251010,,,A*40
$GPRMC,030511.000,A,3343.8093,N,11723.5873,W,64.40,269.20,251010,,,A*4E
$GPRMC,030514.000,A,3343.8090,N,11723.6514,W,64.10,269.90,251010,,,A*49
$GPRMC,030517.000,A,3343.8104,N,11723.7160,W,65.20,273.40,251010,,,A*44
$GPRMC,030520.000,A,3343.8157,N,11723.7812,W,66.20,278.10,251010,,,A*47
$GPRMC,030523.000,A,3343.8259,N,11723.8468,W,67.40,283.00,251010,,,A*45
$GPRMC,030526.000,A,3343.8410,N,11723.9119,W,66.80,288.00,251010,,,A*4F
$GPRMC,030529.000,A,3343.8601,N,11723.9735,W,65.00,292.90,251010,,,A*43
$GPRMC,030532.000,A,3343.8827,N,11724.0315,W,63.40,297.30,251010,,,A*46
$GPRMC,030535.000,A,3343.9078,N,11724.0863,W,61.90,299.40,251010,,,A*4E
$GPRMC,030538.000,A,3343.9326,N,11724.1396,W,60.10,298.30,251010,,,A*44
$GPRMC,030541.000,A,3343.9547,N,11724.1924,W,57.90,294.20,251010,,,A*49
$GPRMC,030544.000,A,3343.9723,N,11724.2449,W,55.30,289.70,251010,,,A*48
$GPRMC,030547.000,A,3343.9860,N,11724.2961,W,52.60,286.20,251010,,,A*4C
$GPRMC,030550.000,A,3343.9967,N,11724.3464,W,52.10,282.30,251010,,,A*47
$GPRMC,030553.000,A,3344.0046,N,11724.3981,W,53.30,278.50,251010,,,A*46
$GPRMC,030556.000,A,3344.0099,N,11724.4519,W,55.30,275.20,251010,,,A*47
$GPRMC,030559.000,A,3344.0120,N,11724.5081,W,56.70,270.10,251010,,,A*4F
$GPRMC,030602.000,A,3344.0113,N,11724.5647,W,56.50,268.40,251010,,,A*40
$GPRMC,030605.000,A,3344.0099,N,11724.6216,W,57.50,268.50,251010,,,A*47
$GPRMC,030608.000,A,3344.0086,N,11724.6797,W,59.00,268.40,251010,,,A*42
$GPRMC,030611.000,A,3344.0071,N,11724.7399,W,61.50,268.10,251010,,,A*42
$GPRMC,030614.000,A,3344.0054,N,11724.8027,W,64.10,268.30,251010,,,A*4A
$GPRMC,030617.000,A,3344.0044,N,11724.8679,W,66.40,270.20,251010,,,A*4A
$GPRMC,030620.000,A,3344.0069,N,11724.9346,W,66.90,275.00,251010,,,A*43
$GPRMC,030623.000,A,3344.0140,N,11725.0001,W,65.20,279.80,251010,,,A*4E
$GPRMC,030626.000,A,3344.0254,N,11725.0623,W,62.10,284.70,251010,,,A*42
$GPRMC,030629.000,A,3344.0402,N,11725.1201,W,59.00,289.10,251010,,,A*4F
$GPRMC,030632.000,A,3344.0573,N,11725.1736,W,55.70,292.90,251010,,,A*4A
$GPRMC,030635.000,A,3344.0767,N,11725.2237,W,54.50,296.90,251010,,,A*4A
$GPRMC,030638.000,A,3344.0986,N,11725.2706,W,53.80,301.30,251010,,,A*4E
$GPRMC,030641.000,A,3344.1236,N,11725.3160,W,55.10,305.40,251010,,,A*4A
$GPRMC,030644.000,A,3344.1515,N,11725.3605,W,56.10,307.70,251010,,,A*4F
$GPRMC,030647.000,A,3344.1804,N,11725.4054,W,57.20,307.60,251010,,,A*47
$GPRMC,030650.000,A,3344.2096,N,11725.4515,W,58.80,306.90,251010,,,A*4A
$GPRMC,030653.000,A,3344.2393,N,11725.4986,W,58.70,307.50,251010,,,A*4B
$GPRMC,030656.000,A,3344.2688,N,11725.5449,W,58.20,306.90,251010,,,A*46
$GPRMC,030659.000,A,3344.2981,N,11725.5917,W,59.40,307.10,251010,,,A*47
$GPRMC,030702.000,A,3344.3281,N,11725.6390,W,59.00,307.60,251010,,,A*47
$GPRMC,030705.000,A,3344.3578,N,11725.6853,W,58.10,307.10,251010,,,A*42
$GPRMC,030708.000,A,3344.3865,N,11725.7314,W,57.50,305.80,251010,,,A*47
$GPRMC,030711.000,A,3344.4140,N,11725.7797,W,59.50,302.40,251010,,,A*4C
$GPRMC,030714.000,A,3344.4396,N,11725.8318,W,61.40,298.50,251010,,,A*45
$GPRMC,030717.000,A,3344.4629,N,11725.8871,W,62.30,295.30,251010,,,A*4C
$GPRMC,030720.000,A,3344.4839,N,11725.9443,W,62.20,291.20,251010,,,A*4F
$GPRMC,030723.000,A,3344.5010,N,11726.0022,W,60.50,288.10,251010,,,A*49
$GPRMC,030726.000,A,3344.5150,N,11726.0596,W,59.00,284.60,251010,,,A*47
$GPRMC,030729.000,A,3344.5259,N,11726.1164,W,57.50,281.60,251010,,,A*44
$GPRMC,030732.000,A,3344.5351,N,11726.1730,W,58.10,281.10,251010,,,A*4C
$GPRMC,030735.000,A,3344.5445,N,11726.2304,W,59.10,281.10,251010,,,A*48
$GPRMC,030738.000,A,3344.5547,N,11726.2889,W,60.00,282.80,251010,,,A*49
$GPRMC,030741.000,A,3344.5669,N,11726.3460,W,58.00,285.90,251010,,,A*4F
$GPRMC,030744.000,A,3344.5812,N,11726.4003,W,56.30,289.50,251010,,,A*43
$GPRMC,030747.000,A,3344.5982,N,11726.4532,W,57.20,292.60,251010,,,A*46
$GPRMC,030750.000,A,3344.6183,N,11726.5062,W,59.10,296.10,251010,,,A*45
$GPRMC,030753.000,A,3344.6417,N,11726.5594,W,60.90,298.50,251010,,,A*4A
$GPRMC,030756.000,A,3344.6665,N,11726.6136,W,62.40,298.50,251010,,,A*48
$GPRMC,030759.000,A,3344.6917,N,11726.6687,W,63.50,298.60,251010,,,A*43
$GPRMC,030802.000,A,3344.7173,N,11726.7249,W,64.40,298.50,251010,,,A*4B
$GPRMC,030805.000,A,3344.7432,N,11726.7820,W,65.70,298.60,251010,,,A*48
$GPRMC,030808.000,A,3344.7698,N,11726.8400,W,66.90,298.70,251010,,,A*4A
$GPRMC,030811.000,A,3344.7965,N,11726.8989,W,66.20,298.50,251010,,,A*4A
$GPRMC,030814.000,A,3344.8226,N,11726.9560,W,63.90,298.60,251010,,,A*4B
$GPRMC,030817.000,A,3344.8480,N,11727.0109,W,61.70,300.30,251010,,,A*48
$GPRMC,030820.000,A,3344.8753,N,11727.0625,W,61.20,304.60,251010,,,A*4C
$GPRMC,030823.000,A,3344.9059,N,11727.1112,W,61.10,309.10,251010,,,A*48
$GPRMC,030826.000,A,3344.9398,N,11727.1568,W,61.30,313.80,251010,,,A*4A
$GPRMC,030829.000,A,3344.9764,N,11727.1993,W,60.80,318.10,251010,,,A*42
$GPRMC,030832.000,A,3345.0150,N,11727.2376,W,59.60,322.50,251010,,,A*4A
$GPRMC,030835.000,A,3345.0557,N,11727.2719,W,60.00,326.90,251010,,,A*47
$GPRMC,030838.000,A,3345.0987,N,11727.3038,W,61.40,328.70,251010,,,A*4B
$GPRMC,030841.000,A,3345.1430,N,11727.3358,W,62.80,328.60,251010,,,A*4E
$GPRMC,030844.000,A,3345.1878,N,11727.3695,W,63.70,326.60,251010,,,A*4F
$GPRMC,030847.000,A,3345.2305,N,11727.4065,W,62.90,321.60,251010,,,A*48
$GPRMC,030850.000,A,3345.2704,N,11727.4472,W,62.40,317.60,251010,,,A*41
$GPRMC,030853.000,A,3345.3070,N,11727.4909,W,61.50,312.90,251010,,,A*4E
$GPRMC,030856.000,A,3345.3403,N,11727.5374,W,60.80,309.00,251010,,,A*45
$GPRMC,030859.000,A,3345.3716,N,11727.5850,W,60.10,307.80,251010,,,A*4F
$GPRMC,030902.000,A,3345.4020,N,11727.6320,W,58.90,307.90,251010,,,A*48
$GPRMC,030905.000,A,3345.4324,N,11727.6786,W,59.50,308.20,251010,,,A*49
$GPRMC,030908.000,A,3345.4630,N,11727.7259,W,60.10,307.40,251010,,,A*45
$GPRMC,030911.000,A,3345.4938,N,11727.7736,W,60.60,308.10,251010,,,A*4B
$GPRMC,030914.000,A,3345.5250,N,11727.8215,W,60.90,307.50,251010,,,A*45
$GPRMC,030917.000,A,3345.5547,N,11727.8710,W,61.10,303.80,251010,,,A*47
$GPRMC,030920.000,A,3345.5814,N,11727.9231,W,61.30,299.20,251010,,,A*45
$GPRMC,030923.000,A,3345.6050,N,11727.9778,W,61.70,294.90,251010,,,A*47
$GPRMC,030926.000,A,3345.6251,N,11728.0347,W,62.00,290.50,251010,,,A*43
$GPRMC,030929.000,A,3345.6420,N,11728.0928,W,60.50,288.70,251010,,,A*43
$GPRMC,030932.000,A,3345.6582,N,11728.1494,W,59.70,289.40,251010,,,A*41
$GPRMC,030935.000,A,3345.6763,N,11728.2056,W,60.80,293.00,251010,,,A*48
$GPRMC,030938.000,A,3345.6981,N,11728.2610,W,61.50,297.40,251010,,,A*4F
$GPRMC,030941.000,A,3345.7237,N,11728.3142,W,61.60,302.20,251010,,,A*4F
$GPRMC,030944.000,A,3345.7527,N,11728.3651,W,61.70,306.40,251010,,,A*4A
$GPRMC,030947.000,A,3345.7848,N,11728.4133,W,61.80,310.90,251010,,,A*4C
$GPRMC,030950.000,A,3345.8203,N,11728.4583,W,61.90,315.80,251010,,,A*4A
$GPRMC,030953.000,A,3345.8583,N,11728.4991,W,60.50,320.10,251010,,,A*4B
$GPRMC,030956.000,A,3345.8978,N,11728.5361,W,60.00,323.30,251010,,,A*46
$GPRMC,030959.000,A,3345.9377,N,11728.5715,W,59.20,323.30,251010,,,A*42
$GPRMC,031002.000,A,3345.9776,N,11728.6067,W,59.60,323.50,251010,,,A*42
$GPRMC,031005.000,A,3346.0169,N,11728.6438,W,60.40,319.50,251010,,,A*48
$GPRMC,031008.000,A,3346.0541,N,11728.6850,W,61.20,315.10,251010,,,A*46
$GPRMC,031011.000,A,3346.0889,N,11728.7299,W,60.60,310.80,251010,,,A*40
$GPRMC,031014.000,A,3346.1197,N,11728.7760,W,58.10,306.30,251010,,,A*41
$GPRMC,031017.000,A,3346.1473,N,11728.8224,W,55.90,305.30,251010,,,A*41
$GPRMC,031020.000,A,3346.1745,N,11728.8678,W,56.50,306.20,251010,,,A*43
$GPRMC,031023.000,A,3346.2038,N,11728.9130,W,58.10,309.60,251010,,,A*45
$GPRMC,031026.000,A,3346.2361,N,11728.9561,W,58.00,314.10,251010,,,A*45
$GPRMC,031029.000,A,3346.2710,N,11728.9965,W,58.10,318.20,251010,,,A*4E
$GPRMC,031032.000,A,3346.3089,N,11729.0340,W,59.90,322.40,251010,,,A*41
$GPRMC,031035.000,A,3346.3505,N,11729.0694,W,62.20,326.90,251010,,,A*41
$GPRMC,031038.000,A,3346.3959,N,11729.1013,W,63.80,331.90,251010,,,A*4C
$GPRMC,031041.000,A,3346.4436,N,11729.1306,W,64.70,333.00,251010,,,A*45
$GPRMC,031044.000,A,3346.4914,N,11729.1595,W,63.70,333.10,251010,,,A*47
$GPRMC,031047.000,A,3346.5388,N,11729.1882,W,63.20,333.30,251010,,,A*46
$GPRMC,031050.000,A,3346.5854,N,11729.2163,W,61.80,333.00,251010,,,A*44
$GPRMC,031053.000,A,3346.6309,N,11729.2440,W,60.40,332.90,251010,,,A*46
$GPRMC,031056.000,A,3346.6759,N,11729.2714,W,60.80,333.00,251010,,,A*44
$GPRMC,031059.000,A,3346.7219,N,11729.2993,W,62.70,333.40,251010,,,A*43
$GPRMC,031102.000,A,3346.7697,N,11729.3279,W,65.30,333.40,251010,,,A*43
$GPRMC,031105.000,A,3346.8193,N,11729.3578,W,67.50,333.00,251010,,,A*4E
$GPRMC,031108.000,A,3346.8689,N,11729.3881,W,65.60,333.00,251010,,,A*45
$GPRMC,031111.000,A,3346.9172,N,11729.4172,W,64.10,333.20,251010,,,A*49
$GPRMC,031114.000,A,3346.9647,N,11729.4464,W,64.30,332.60,251010,,,A*48
$GPRMC,031117.000,A,3347.0123,N,11729.4770,W,65.00,330.70,251010,,,A*41
$GPRMC,031120.000,A,3347.0587,N,11729.5095,W,64.50,328.60,251010,,,A*4E
$GPRMC,031123.000,A,3347.1045,N,11729.5443,W,65.60,327.20,251010,,,A*41
$GPRMC,031126.000,A,3347.1509,N,11729.5794,W,65.60,327.50,251010,,,A*47
$GPRMC,031129.000,A,3347.1968,N,11729.6150,W,65.70,326.90,251010,,,A*42
$GPRMC,031132.000,A,3347.2429,N,11729.6510,W,66.10,326.80,251010,,,A*47
$GPRMC,031135.000,A,3347.2895,N,11729.6873,W,67.20,327.10,251010,,,A*49
$GPRMC,031138.000,A,3347.3370,N,11729.7243,W,68.20,327.00,251010,,,A*43
$GPRMC,031141.000,A,3347.3852,N,11729.7616,W,69.10,326.90,251010,,,A*48
$GPRMC,031144.000,A,3347.4336,N,11729.7993,W,69.40,327.20,251010,,,A*4E
$GPRMC,031147.000,A,3347.4823,N,11729.8371,W,69.30,326.80,251010,,,A*47
$GPRMC,031150.000,A,3347.5308,N,11729.8745,W,68.80,327.20,251010,,,A*40
$GPRMC,031153.000,A,3347.5787,N,11729.9120,W,68.10,326.60,251010,,,A*48
$GPRMC,031156.000,A,3347.6256,N,11729.9486,W,66.40,327.50,251010,,,A*47
