NMEA Sentence Code,UTC Time,Status,Latitude,Latitude Direction,Longitude,Longitude Direction,Speed (knots),Track Angle (degrees true),Date,MagneticVariation,Magnetic Variation Direction,[FAA Mode]-Optional,Checksum
$GPRMC,161954.63,A,3312.4849,N,11717.5234,W,7.498,182.169,101110,0,W,A*24
$GPRMC,162000.63,A,3312.4811,N,11717.5247,W,4.477,214.826,101110,0,W,A*2A
$GPRMC,162003.63,A,3312.4781,N,11717.5338,W,14.330,265.906,101110,0,W,A*16
$GPRMC,162006.63,A,3312.4789,N,11717.5517,W,19.222,274.323,101110,0,W,A*12
$GPRMC,162009.63,A,3312.4817,N,11717.5735,W,22.082,284.887,101110,0,W,A*1D
$GPRMC,162012.63,A,3312.4887,N,11717.5946,W,21.715,295.584,101110,0,W,A*10
$GPRMC,162015.63,A,3312.4996,N,11717.6125,W,21.320,309.050,101110,0,W,A*12
$GPRMC,162018.63,A,3312.5115,N,11717.6277,W,19.168,320.589,101110,0,W,A*16
$GPRMC,162021.63,A,3312.5200,N,11717.6356,W,9.131,324.554,101110,0,W,A*20
$GPRMC,162042.63,A,3312.5234,N,11717.6381,W,4.550,324.682,101110,0,W,A*2E
$GPRMC,162045.63,A,3312.5300,N,11717.6437,W,14.782,325.876,101110,0,W,A*1D
$GPRMC,162048.63,A,3312.5433,N,11717.6547,W,23.774,324.707,101110,0,W,A*14
$GPRMC,162051.63,A,3312.5622,N,11717.6703,W,29.142,324.429,101110,0,W,A*1A
$GPRMC,162054.63,A,3312.5849,N,11717.6878,W,32.847,330.726,101110,0,W,A*10
$GPRMC,162057.63,A,3312.6128,N,11717.7013,W,35.455,343.043,101110,0,W,A*12
$GPRMC,162100.63,A,3312.6423,N,11717.7080,W,35.664,352.403,101110,0,W,A*15
$GPRMC,162103.63,A,3312.6738,N,11717.7073,W,37.781,6.258,101110,0,W,A*11
$GPRMC,162106.63,A,3312.7062,N,11717.6983,W,39.500,16.948,101110,0,W,A*24
$GPRMC,162109.63,A,3312.7388,N,11717.6826,W,41.025,21.611,101110,0,W,A*28
$GPRMC,162112.63,A,3312.7715,N,11717.6674,W,41.272,21.415,101110,0,W,A*2D
$GPRMC,162115.63,A,3312.8024,N,11717.6518,W,38.817,22.548,101110,0,W,A*24
$GPRMC,162118.63,A,3312.8317,N,11717.6377,W,36.268,17.639,101110,0,W,A*2A
$GPRMC,162121.63,A,3312.8602,N,11717.6354,W,34.065,352.532,101110,0,W,A*17
$GPRMC,162124.63,A,3312.8894,N,11717.6413,W,36.151,351.478,101110,0,W,A*1F
$GPRMC,162127.63,A,3312.9192,N,11717.6474,W,36.001,352.343,101110,0,W,A*1B
$GPRMC,162130.63,A,3312.9470,N,11717.6521,W,30.319,356.892,101110,0,W,A*1A
$GPRMC,162133.63,A,3312.9682,N,11717.6493,W,22.943,15.575,101110,0,W,A*28
$GPRMC,162136.63,A,3312.9821,N,11717.6406,W,16.101,30.045,101110,0,W,A*2E
$GPRMC,162139.63,A,3312.9892,N,11717.6338,W,5.665,33.393,101110,0,W,A*1F
$GPRMC,162154.63,A,3312.9917,N,11717.6312,W,9.089,23.434,101110,0,W,A*13
$GPRMC,162157.63,A,3313.0018,N,11717.6338,W,16.295,314.493,101110,0,W,A*1D
$GPRMC,162200.63,A,3313.0120,N,11717.6501,W,24.250,307.124,101110,0,W,A*19
$GPRMC,162203.63,A,3313.0275,N,11717.6711,W,30.143,317.678,101110,0,W,A*11
$GPRMC,162206.63,A,3313.0484,N,11717.6930,W,33.951,321.884,101110,0,W,A*11
$GPRMC,162209.63,A,3313.0725,N,11717.7152,W,37.303,319.819,101110,0,W,A*1D
$GPRMC,162212.63,A,3313.0959,N,11717.7427,W,39.329,311.548,101110,0,W,A*12
$GPRMC,162215.63,A,3313.1165,N,11717.7753,W,41.196,305.307,101110,0,W,A*12
$GPRMC,162218.63,A,3313.1370,N,11717.8105,W,43.150,306.691,101110,0,W,A*12
$GPRMC,162221.63,A,3313.1580,N,11717.8463,W,40.851,305.112,101110,0,W,A*10
$GPRMC,162224.63,A,3313.1761,N,11717.8761,W,32.881,308.745,101110,0,W,A*18
$GPRMC,162227.63,A,3313.1901,N,11717.8966,W,22.540,306.266,101110,0,W,A*11
$GPRMC,162230.63,A,3313.1977,N,11717.9101,W,11.757,306.828,101110,0,W,A*1A
$GPRMC,162312.63,A,3313.2042,N,11717.9202,W,14.072,308.407,101110,0,W,A*1D
$GPRMC,162315.63,A,3313.2141,N,11717.9348,W,23.382,308.925,101110,0,W,A*12
$GPRMC,162318.63,A,3313.2291,N,11717.9541,W,28.774,313.727,101110,0,W,A*1E
$GPRMC,162321.63,A,3313.2485,N,11717.9744,W,33.214,322.361,101110,0,W,A*1D
$GPRMC,162324.63,A,3313.2725,N,11717.9939,W,35.550,328.094,101110,0,W,A*17
$GPRMC,162327.63,A,3313.2995,N,11718.0117,W,36.826,333.919,101110,0,W,A*1A
$GPRMC,162330.63,A,3313.3278,N,11718.0281,W,37.375,333.477,101110,0,W,A*10
$GPRMC,162333.63,A,3313.3552,N,11718.0448,W,36.066,333.006,101110,0,W,A*1D
$GPRMC,162336.63,A,3313.3811,N,11718.0602,W,29.994,333.722,101110,0,W,A*15
$GPRMC,162339.63,A,3313.4006,N,11718.0718,W,21.708,332.963,101110,0,W,A*10
$GPRMC,162342.63,A,3313.4099,N,11718.0769,W,5.647,335.584,101110,0,W,A*22
$GPRMC,162345.63,A,3313.4121,N,11718.0781,W,4.701,334.500,101110,0,W,A*2E
$GPRMC,162348.63,A,3313.4213,N,11718.0836,W,18.770,331.168,101110,0,W,A*16
$GPRMC,162351.63,A,3313.4387,N,11718.0965,W,29.022,324.737,101110,0,W,A*1F
$GPRMC,162354.63,A,3313.4594,N,11718.1166,W,34.321,315.971,101110,0,W,A*16
$GPRMC,162357.63,A,3313.4809,N,11718.1422,W,38.403,314.289,101110,0,W,A*1F
$GPRMC,162400.63,A,3313.5047,N,11718.1707,W,41.844,314.257,101110,0,W,A*1F
$GPRMC,162403.63,A,3313.5296,N,11718.2014,W,43.511,314.228,101110,0,W,A*13
$GPRMC,162406.63,A,3313.5556,N,11718.2338,W,44.271,314.012,101110,0,W,A*1D
$GPRMC,162409.63,A,3313.5814,N,11718.2650,W,43.742,314.636,101110,0,W,A*10
$GPRMC,162412.63,A,3313.6065,N,11718.2941,W,39.802,315.351,101110,0,W,A*1B
$GPRMC,162415.63,A,3313.6295,N,11718.3186,W,36.555,324.378,101110,0,W,A*1A
$GPRMC,162418.63,A,3313.6561,N,11718.3372,W,37.518,334.823,101110,0,W,A*1E
$GPRMC,162421.63,A,3313.6842,N,11718.3480,W,34.536,342.056,101110,0,W,A*16
$GPRMC,162424.63,A,3313.7088,N,11718.3573,W,27.503,341.772,101110,0,W,A*17
$GPRMC,162427.63,A,3313.7269,N,11718.3637,W,19.594,341.295,101110,0,W,A*15
$GPRMC,162430.63,A,3313.7426,N,11718.3699,W,20.352,341.327,101110,0,W,A*14
$GPRMC,162433.63,A,3313.7618,N,11718.3771,W,26.851,341.673,101110,0,W,A*15
$GPRMC,162436.63,A,3313.7860,N,11718.3858,W,30.398,342.179,101110,0,W,A*12
$GPRMC,162439.63,A,3313.8121,N,11718.3959,W,33.125,341.368,101110,0,W,A*18
$GPRMC,162442.63,A,3313.8393,N,11718.4068,W,34.598,341.296,101110,0,W,A*16
$GPRMC,162445.63,A,3313.8673,N,11718.4175,W,34.687,341.893,101110,0,W,A*15
$GPRMC,162448.63,A,3313.8945,N,11718.4284,W,34.030,341.015,101110,0,W,A*13
$GPRMC,162451.63,A,3313.9200,N,11718.4388,W,29.681,340.636,101110,0,W,A*1B
$GPRMC,162454.63,A,3313.9389,N,11718.4482,W,21.068,336.131,101110,0,W,A*1B
$GPRMC,162457.63,A,3313.9519,N,11718.4558,W,13.694,329.933,101110,0,W,A*11
$GPRMC,162500.63,A,3313.9582,N,11718.4604,W,5.504,327.247,101110,0,W,A*21
$GPRMC,162536.63,A,3313.9629,N,11718.4650,W,5.552,326.600,101110,0,W,A*22
$GPRMC,162539.63,A,3313.9707,N,11718.4714,W,17.083,326.636,101110,0,W,A*1E
$GPRMC,162542.63,A,3313.9863,N,11718.4850,W,27.309,324.665,101110,0,W,A*16
$GPRMC,162545.63,A,3314.0092,N,11718.4999,W,32.217,338.570,101110,0,W,A*1D
$GPRMC,162548.63,A,3314.0375,N,11718.5096,W,34.462,349.221,101110,0,W,A*1A
$GPRMC,162551.63,A,3314.0662,N,11718.5124,W,34.660,359.206,101110,0,W,A*1D
$GPRMC,162554.63,A,3314.0966,N,11718.5126,W,36.024,359.944,101110,0,W,A*18
$GPRMC,162557.63,A,3314.1267,N,11718.5126,W,35.872,358.957,101110,0,W,A*1B
$GPRMC,162600.63,A,3314.1576,N,11718.5165,W,35.054,348.553,101110,0,W,A*1F
$GPRMC,162603.63,A,3314.1851,N,11718.5260,W,32.358,339.097,101110,0,W,A*11
$GPRMC,162606.63,A,3314.2068,N,11718.5385,W,23.809,328.640,101110,0,W,A*1C
$GPRMC,162609.63,A,3314.2194,N,11718.5493,W,13.854,325.331,101110,0,W,A*14
$GPRMC,162612.63,A,3314.2237,N,11718.5523,W,5.781,338.510,101110,0,W,A*27
$GPRMC,162615.63,A,3314.2307,N,11718.5497,W,14.107,28.988,101110,0,W,A*2B
$GPRMC,162618.63,A,3314.2443,N,11718.5346,W,29.228,44.325,101110,0,W,A*2D
$GPRMC,162621.63,A,3314.2649,N,11718.5092,W,38.389,43.116,101110,0,W,A*2A
$GPRMC,162624.63,A,3314.2904,N,11718.4801,W,43.423,41.967,101110,0,W,A*2D
$GPRMC,162627.63,A,3314.3180,N,11718.4474,W,46.302,44.150,101110,0,W,A*2D
$GPRMC,162630.63,A,3314.3469,N,11718.4144,W,47.738,43.511,101110,0,W,A*25
$GPRMC,162633.63,A,3314.3764,N,11718.3810,W,48.392,43.832,101110,0,W,A*20
$GPRMC,162636.63,A,3314.4060,N,11718.3474,W,48.523,43.858,101110,0,W,A*2F
$GPRMC,162639.63,A,3314.4336,N,11718.3135,W,45.512,50.535,101110,0,W,A*2B
$GPRMC,162642.63,A,3314.4535,N,11718.2768,W,42.908,63.757,101110,0,W,A*2B
$GPRMC,162645.63,A,3314.4645,N,11718.2374,W,41.080,76.385,101110,0,W,A*24
$GPRMC,162648.63,A,3314.4676,N,11718.1957,W,40.657,88.184,101110,0,W,A*2E
$GPRMC,162651.63,A,3314.4668,N,11718.1549,W,41.217,90.337,101110,0,W,A*28
$GPRMC,162654.63,A,3314.4659,N,11718.1154,W,36.213,90.133,101110,0,W,A*25
$GPRMC,162657.63,A,3314.4640,N,11718.0840,W,28.729,96.540,101110,0,W,A*26
$GPRMC,162700.63,A,3314.4609,N,11718.0621,W,16.962,84.669,101110,0,W,A*26
$GPRMC,162703.63,A,3314.4691,N,11718.0505,W,17.237,21.713,101110,0,W,A*28
$GPRMC,162706.63,A,3314.4824,N,11718.0470,W,12.549,16.887,101110,0,W,A*23
$GPRMC,162709.63,A,3314.4919,N,11718.0440,W,10.964,22.254,101110,0,W,A*22
$GPRMC,162712.63,A,3314.4972,N,11718.0392,W,5.606,30.738,101110,0,W,A*1E
$GPRMC,162715.63,A,3314.5013,N,11718.0358,W,7.488,38.717,101110,0,W,A*13
$GPRMC,162718.63,A,3314.5098,N,11718.0260,W,19.655,50.271,101110,0,W,A*21
$GPRMC,162721.63,A,3314.5196,N,11718.0077,W,23.468,66.536,101110,0,W,A*24
$GPRMC,162724.63,A,3314.5235,N,11717.9884,W,18.389,86.159,101110,0,W,A*2A
$GPRMC,162727.63,A,3314.5227,N,11717.9724,W,15.597,91.089,101110,0,W,A*21
$GPRMC,162730.63,A,3314.5218,N,11717.9604,W,9.108,87.175,101110,0,W,A*12
$GPRMC,162736.63,A,3314.5211,N,11717.9500,W,7.390,71.706,101110,0,W,A*1C
$GPRMC,162739.63,A,3314.5283,N,11717.9456,W,12.489,5.833,101110,0,W,A*1B
$GPRMC,162742.63,A,3314.5432,N,11717.9450,W,20.544,0.850,101110,0,W,A*1C
$GPRMC,162745.63,A,3314.5631,N,11717.9423,W,26.049,10.083,101110,0,W,A*27
$GPRMC,162748.63,A,3314.5859,N,11717.9384,W,28.631,9.885,101110,0,W,A*11
$GPRMC,162751.63,A,3314.6090,N,11717.9349,W,27.175,9.278,101110,0,W,A*16
$GPRMC,162754.63,A,3314.6312,N,11717.9307,W,26.401,9.678,101110,0,W,A*13
$GPRMC,162757.63,A,3314.6524,N,11717.9265,W,25.861,11.169,101110,0,W,A*21
$GPRMC,162800.63,A,3314.6736,N,11717.9213,W,25.456,11.835,101110,0,W,A*24
$GPRMC,162803.63,A,3314.6941,N,11717.9158,W,24.638,12.516,101110,0,W,A*21
$GPRMC,162806.63,A,3314.7144,N,11717.9100,W,24.435,12.167,101110,0,W,A*28
$GPRMC,162809.63,A,3314.7347,N,11717.9043,W,24.316,13.810,101110,0,W,A*2E
$GPRMC,162812.63,A,3314.7541,N,11717.8964,W,24.150,24.237,101110,0,W,A*22
$GPRMC,162815.63,A,3314.7707,N,11717.8850,W,18.938,34.191,101110,0,W,A*24
$GPRMC,162818.63,A,3314.7783,N,11717.8777,W,5.955,36.043,101110,0,W,A*14
$GPRMC,162821.63,A,3314.7817,N,11717.8739,W,5.132,37.221,101110,0,W,A*18
$GPRMC,162824.63,A,3314.7893,N,11717.8673,W,16.932,38.895,101110,0,W,A*2E
$GPRMC,162827.63,A,3314.8026,N,11717.8529,W,24.325,43.073,101110,0,W,A*29
$GPRMC,162830.63,A,3314.8158,N,11717.8376,W,17.751,51.164,101110,0,W,A*28
$GPRMC,162833.63,A,3314.8162,N,11717.8220,W,16.525,101.452,101110,0,W,A*14
$GPRMC,162836.63,A,3314.8143,N,11717.8042,W,19.612,86.129,101110,0,W,A*2B
$GPRMC,162839.63,A,3314.8180,N,11717.7831,W,22.120,66.283,101110,0,W,A*2B
$GPRMC,162842.63,A,3314.8294,N,11717.7637,W,24.641,45.930,101110,0,W,A*2D
$GPRMC,162845.63,A,3314.8477,N,11717.7478,W,27.389,31.609,101110,0,W,A*2C
$GPRMC,162848.63,A,3314.8706,N,11717.7348,W,29.431,19.183,101110,0,W,A*25
$GPRMC,162851.63,A,3314.8946,N,11717.7260,W,28.852,16.874,101110,0,W,A*2A
$GPRMC,162854.63,A,3314.9171,N,11717.7208,W,24.342,2.409,101110,0,W,A*19
$GPRMC,162857.63,A,3314.9333,N,11717.7242,W,13.988,348.243,101110,0,W,A*1D
$GPRMC,163003.63,A,3314.9461,N,11717.7236,W,5.244,18.218,101110,0,W,A*12
$GPRMC,163006.63,A,3314.9520,N,11717.7208,W,10.816,12.218,101110,0,W,A*2D
$GPRMC,163009.63,A,3314.9619,N,11717.7281,W,17.077,302.964,101110,0,W,A*10
$GPRMC,163012.63,A,3314.9696,N,11717.7485,W,24.962,293.501,101110,0,W,A*14
$GPRMC,163015.63,A,3314.9783,N,11717.7744,W,29.516,292.635,101110,0,W,A*1F
$GPRMC,163018.63,A,3314.9872,N,11717.8052,W,33.791,289.281,101110,0,W,A*1B
$GPRMC,163021.63,A,3314.9959,N,11717.8386,W,35.119,289.045,101110,0,W,A*19
$GPRMC,163024.63,A,3315.0057,N,11717.8724,W,35.048,291.230,101110,0,W,A*13
$GPRMC,163027.63,A,3315.0159,N,11717.9047,W,33.424,290.918,101110,0,W,A*14
$GPRMC,163030.63,A,3315.0256,N,11717.9350,W,32.548,291.224,101110,0,W,A*14
$GPRMC,163033.63,A,3315.0358,N,11717.9638,W,27.758,290.872,101110,0,W,A*1C
$GPRMC,163036.63,A,3315.0438,N,11717.9852,W,19.288,292.995,101110,0,W,A*15
$GPRMC,163039.63,A,3315.0498,N,11718.0011,W,16.100,294.617,101110,0,W,A*16
$GPRMC,163042.63,A,3315.0589,N,11718.0097,W,14.639,346.461,101110,0,W,A*17
$GPRMC,163045.63,A,3315.0752,N,11718.0071,W,24.837,10.378,101110,0,W,A*20
$GPRMC,163048.63,A,3315.0987,N,11718.0017,W,32.136,9.514,101110,0,W,A*10
$GPRMC,163051.63,A,3315.1277,N,11717.9965,W,37.467,7.707,101110,0,W,A*1D
$GPRMC,163054.63,A,3315.1620,N,11717.9907,W,41.607,8.259,101110,0,W,A*1E
$GPRMC,163057.63,A,3315.1976,N,11717.9840,W,43.295,8.844,101110,0,W,A*18
$GPRMC,163100.63,A,3315.2345,N,11717.9773,W,44.247,8.669,101110,0,W,A*14
$GPRMC,163103.63,A,3315.2716,N,11717.9701,W,45.222,8.995,101110,0,W,A*1E
$GPRMC,163106.63,A,3315.3094,N,11717.9632,W,45.208,8.892,101110,0,W,A*18
$GPRMC,163109.63,A,3315.3466,N,11717.9564,W,45.413,8.839,101110,0,W,A*13
$GPRMC,163112.63,A,3315.3842,N,11717.9495,W,45.561,8.734,101110,0,W,A*1A
$GPRMC,163115.63,A,3315.4229,N,11717.9425,W,47.964,8.574,101110,0,W,A*1B
$GPRMC,163118.63,A,3315.4636,N,11717.9350,W,49.738,8.911,101110,0,W,A*1F
$GPRMC,163121.63,A,3315.5049,N,11717.9267,W,48.316,9.288,101110,0,W,A*1C
$GPRMC,163124.63,A,3315.5437,N,11717.9191,W,46.683,8.992,101110,0,W,A*18
$GPRMC,163127.63,A,3315.5820,N,11717.9114,W,46.164,9.232,101110,0,W,A*12
$GPRMC,163130.63,A,3315.6201,N,11717.9040,W,46.555,8.785,101110,0,W,A*10
$GPRMC,163133.63,A,3315.6588,N,11717.8967,W,46.758,8.777,101110,0,W,A*1A
$GPRMC,163136.63,A,3315.6979,N,11717.8894,W,47.500,9.140,101110,0,W,A*1D
$GPRMC,163139.63,A,3315.7372,N,11717.8815,W,47.922,9.452,101110,0,W,A*11
$GPRMC,163142.63,A,3315.7778,N,11717.8732,W,49.640,8.955,101110,0,W,A*17
$GPRMC,163145.63,A,3315.8194,N,11717.8653,W,50.441,8.807,101110,0,W,A*10
$GPRMC,163148.63,A,3315.8606,N,11717.8571,W,49.715,8.842,101110,0,W,A*19
$GPRMC,163151.63,A,3315.9017,N,11717.8490,W,49.169,9.218,101110,0,W,A*11
$GPRMC,163154.63,A,3315.9426,N,11717.8410,W,49.481,9.266,101110,0,W,A*10
$GPRMC,163157.63,A,3315.9835,N,11717.8332,W,49.016,9.197,101110,0,W,A*1D
$GPRMC,163200.63,A,3316.0237,N,11717.8256,W,48.501,8.600,101110,0,W,A*17
$GPRMC,163203.63,A,3316.0639,N,11717.8182,W,48.270,9.009,101110,0,W,A*1B
$GPRMC,163206.63,A,3316.1032,N,11717.8106,W,47.606,9.155,101110,0,W,A*1C
$GPRMC,163209.63,A,3316.1423,N,11717.8030,W,47.212,9.448,101110,0,W,A*1B
$GPRMC,163212.63,A,3316.1813,N,11717.7953,W,47.175,8.709,101110,0,W,A*18
$GPRMC,163215.63,A,3316.2207,N,11717.7879,W,48.693,9.216,101110,0,W,A*10
$GPRMC,163218.63,A,3316.2619,N,11717.7800,W,51.186,8.933,101110,0,W,A*1E
$GPRMC,163221.63,A,3316.3052,N,11717.7720,W,52.302,9.135,101110,0,W,A*13
$GPRMC,163224.63,A,3316.3477,N,11717.7642,W,50.516,8.258,101110,0,W,A*18
$GPRMC,163227.63,A,3316.3890,N,11717.7596,W,48.366,2.990,101110,0,W,A*19
$GPRMC,163230.63,A,3316.4286,N,11717.7612,W,45.967,356.702,101110,0,W,A*1B
$GPRMC,163233.63,A,3316.4668,N,11717.7665,W,45.181,351.680,101110,0,W,A*10
$GPRMC,163236.63,A,3316.5036,N,11717.7748,W,44.295,347.391,101110,0,W,A*12
$GPRMC,163239.63,A,3316.5391,N,11717.7856,W,43.099,342.703,101110,0,W,A*10
$GPRMC,163242.63,A,3316.5715,N,11717.8006,W,41.683,336.770,101110,0,W,A*1E
$GPRMC,163245.63,A,3316.6026,N,11717.8176,W,40.777,335.865,101110,0,W,A*18
$GPRMC,163248.63,A,3316.6312,N,11717.8333,W,34.138,336.131,101110,0,W,A*17
$GPRMC,163251.63,A,3316.6537,N,11717.8462,W,29.589,335.430,101110,0,W,A*18
$GPRMC,163254.63,A,3316.6767,N,11717.8600,W,32.470,334.763,101110,0,W,A*15
$GPRMC,163257.63,A,3316.7001,N,11717.8742,W,30.056,335.642,101110,0,W,A*16
$GPRMC,163300.63,A,3316.7219,N,11717.8870,W,27.622,334.335,101110,0,W,A*17
$GPRMC,163303.63,A,3316.7415,N,11717.8985,W,23.509,333.491,101110,0,W,A*15
$GPRMC,163306.63,A,3316.7576,N,11717.9074,W,18.823,336.919,101110,0,W,A*17
$GPRMC,163309.63,A,3316.7680,N,11717.9119,W,10.408,336.237,101110,0,W,A*12
$GPRMC,163312.63,A,3316.7743,N,11717.9146,W,7.256,334.735,101110,0,W,A*22
$GPRMC,163318.63,A,3316.7781,N,11717.9174,W,5.599,335.056,101110,0,W,A*22
$GPRMC,163321.63,A,3316.7860,N,11717.9219,W,13.820,333.887,101110,0,W,A*1A
$GPRMC,163324.63,A,3316.7998,N,11717.9305,W,20.735,335.788,101110,0,W,A*18
$GPRMC,163327.63,A,3316.8180,N,11717.9402,W,26.215,336.108,101110,0,W,A*19
$GPRMC,163330.63,A,3316.8407,N,11717.9526,W,32.242,335.408,101110,0,W,A*13
$GPRMC,163333.63,A,3316.8678,N,11717.9659,W,37.506,335.883,101110,0,W,A*1C
$GPRMC,163336.63,A,3316.8982,N,11717.9822,W,40.781,335.314,101110,0,W,A*19
$GPRMC,163339.63,A,3316.9300,N,11717.9995,W,42.198,335.470,101110,0,W,A*13
$GPRMC,163342.63,A,3316.9624,N,11718.0174,W,41.433,335.557,101110,0,W,A*1E
$GPRMC,163345.63,A,3316.9930,N,11718.0359,W,39.856,331.855,101110,0,W,A*15
$GPRMC,163348.63,A,3317.0206,N,11718.0559,W,37.026,326.722,101110,0,W,A*10
$GPRMC,163351.63,A,3317.0460,N,11718.0765,W,35.976,324.453,101110,0,W,A*1A
$GPRMC,163354.63,A,3317.0703,N,11718.0989,W,36.255,320.431,101110,0,W,A*1C
$GPRMC,163357.63,A,3317.0936,N,11718.1226,W,37.294,319.337,101110,0,W,A*1F
$GPRMC,163400.63,A,3317.1171,N,11718.1476,W,38.323,318.427,101110,0,W,A*16
$GPRMC,163403.63,A,3317.1410,N,11718.1736,W,39.474,318.486,101110,0,W,A*1F
$GPRMC,163406.63,A,3317.1660,N,11718.2001,W,40.831,318.842,101110,0,W,A*18
$GPRMC,163409.63,A,3317.1920,N,11718.2275,W,42.583,318.818,101110,0,W,A*14
$GPRMC,163412.63,A,3317.2188,N,11718.2563,W,43.832,318.673,101110,0,W,A*12
$GPRMC,163415.63,A,3317.2466,N,11718.2855,W,44.297,318.561,101110,0,W,A*1A
$GPRMC,163418.63,A,3317.2747,N,11718.3145,W,43.381,318.764,101110,0,W,A*18
$GPRMC,163421.63,A,3317.3018,N,11718.3427,W,41.800,318.592,101110,0,W,A*14
$GPRMC,163424.63,A,3317.3278,N,11718.3701,W,40.287,318.352,101110,0,W,A*1C
$GPRMC,163427.63,A,3317.3526,N,11718.3966,W,39.638,316.294,101110,0,W,A*17
$GPRMC,163430.63,A,3317.3759,N,11718.4243,W,39.207,314.207,101110,0,W,A*10
$GPRMC,163433.63,A,3317.3982,N,11718.4536,W,40.079,312.050,101110,0,W,A*1D
$GPRMC,163436.63,A,3317.4213,N,11718.4841,W,41.752,311.978,101110,0,W,A*1E
$GPRMC,163439.63,A,3317.4441,N,11718.5156,W,42.233,311.590,101110,0,W,A*15
$GPRMC,163442.63,A,3317.4674,N,11718.5468,W,41.364,311.508,101110,0,W,A*14
$GPRMC,163445.63,A,3317.4901,N,11718.5776,W,41.253,311.650,101110,0,W,A*19
$GPRMC,163448.63,A,3317.5130,N,11718.6089,W,41.917,311.354,101110,0,W,A*11
$GPRMC,163451.63,A,3317.5363,N,11718.6403,W,42.048,311.884,101110,0,W,A*1D
$GPRMC,163454.63,A,3317.5598,N,11718.6716,W,41.524,311.948,101110,0,W,A*10
$GPRMC,163457.63,A,3317.5823,N,11718.7023,W,40.899,311.244,101110,0,W,A*13
$GPRMC,163500.63,A,3317.6066,N,11718.7317,W,41.312,316.993,101110,0,W,A*11
$GPRMC,163503.63,A,3317.6336,N,11718.7560,W,40.053,327.508,101110,0,W,A*19
$GPRMC,163506.63,A,3317.6631,N,11718.7738,W,39.971,337.073,101110,0,W,A*1E
$GPRMC,163509.63,A,3317.6957,N,11718.7852,W,40.303,346.791,101110,0,W,A*11
$GPRMC,163512.63,A,3317.7283,N,11718.7924,W,39.951,346.905,101110,0,W,A*18
$GPRMC,163515.63,A,3317.7607,N,11718.8010,W,39.824,346.820,101110,0,W,A*13
$GPRMC,163518.63,A,3317.7933,N,11718.8077,W,39.993,351.688,101110,0,W,A*10
$GPRMC,163521.63,A,3317.8268,N,11718.8108,W,39.296,358.050,101110,0,W,A*1D
$GPRMC,163524.63,A,3317.8599,N,11718.8103,W,38.903,2.796,101110,0,W,A*1D
$GPRMC,163527.63,A,3317.8926,N,11718.8050,W,38.119,7.825,101110,0,W,A*10
$GPRMC,163530.63,A,3317.9245,N,11718.7981,W,38.215,8.673,101110,0,W,A*1E
$GPRMC,163533.63,A,3317.9553,N,11718.7918,W,37.319,8.538,101110,0,W,A*13
$GPRMC,163536.63,A,3317.9866,N,11718.7855,W,38.100,9.223,101110,0,W,A*1C
$GPRMC,163539.63,A,3318.0175,N,11718.7790,W,36.950,8.340,101110,0,W,A*1E
$GPRMC,163542.63,A,3318.0471,N,11718.7723,W,34.538,8.915,101110,0,W,A*11
$GPRMC,163545.63,A,3318.0742,N,11718.7661,W,32.354,10.613,101110,0,W,A*28
$GPRMC,163548.63,A,3318.1001,N,11718.7598,W,32.734,11.431,101110,0,W,A*20
$GPRMC,163551.63,A,3318.1277,N,11718.7531,W,33.414,13.862,101110,0,W,A*20
$GPRMC,163554.63,A,3318.1535,N,11718.7461,W,28.394,12.909,101110,0,W,A*28
$GPRMC,163557.63,A,3318.1761,N,11718.7402,W,27.905,14.695,101110,0,W,A*2C
$GPRMC,163600.63,A,3318.1998,N,11718.7339,W,30.817,11.214,101110,0,W,A*26
$GPRMC,163603.63,A,3318.2258,N,11718.7286,W,32.375,9.421,101110,0,W,A*10
$GPRMC,163606.63,A,3318.2533,N,11718.7235,W,33.760,9.069,101110,0,W,A*1E
$GPRMC,163609.63,A,3318.2813,N,11718.7184,W,33.640,9.306,101110,0,W,A*1E
$GPRMC,163612.63,A,3318.3089,N,11718.7131,W,32.883,9.720,101110,0,W,A*10
$GPRMC,163615.63,A,3318.3357,N,11718.7079,W,32.717,8.870,101110,0,W,A*13
$GPRMC,163618.63,A,3318.3621,N,11718.7023,W,30.834,9.894,101110,0,W,A*12
$GPRMC,163621.63,A,3318.3860,N,11718.6971,W,25.812,8.438,101110,0,W,A*17
$GPRMC,163624.63,A,3318.4050,N,11718.6927,W,21.475,9.504,101110,0,W,A*1B
$GPRMC,163627.63,A,3318.4213,N,11718.6896,W,19.148,10.497,101110,0,W,A*25
$GPRMC,163630.63,A,3318.4364,N,11718.6867,W,17.634,9.942,101110,0,W,A*13
$GPRMC,163633.63,A,3318.4492,N,11718.6842,W,12.870,9.822,101110,0,W,A*15
$GPRMC,163636.63,A,3318.4599,N,11718.6824,W,15.966,9.616,101110,0,W,A*12
$GPRMC,163639.63,A,3318.4754,N,11718.6794,W,21.363,8.169,101110,0,W,A*1C
$GPRMC,163642.63,A,3318.4947,N,11718.6758,W,24.686,11.228,101110,0,W,A*29
$GPRMC,163645.63,A,3318.5174,N,11718.6701,W,28.315,11.768,101110,0,W,A*29
$GPRMC,163648.63,A,3318.5419,N,11718.6632,W,31.626,13.098,101110,0,W,A*2C
$GPRMC,163651.63,A,3318.5689,N,11718.6559,W,33.665,12.654,101110,0,W,A*23
$GPRMC,163654.63,A,3318.5976,N,11718.6480,W,35.099,12.936,101110,0,W,A*24
$GPRMC,163657.63,A,3318.6261,N,11718.6404,W,34.717,12.901,101110,0,W,A*21
$GPRMC,163700.63,A,3318.6531,N,11718.6330,W,31.822,12.205,101110,0,W,A*23
$GPRMC,163703.63,A,3318.6780,N,11718.6272,W,29.602,10.819,101110,0,W,A*2F
$GPRMC,163706.63,A,3318.7007,N,11718.6230,W,25.063,9.789,101110,0,W,A*16
$GPRMC,163709.63,A,3318.7189,N,11718.6192,W,20.410,11.501,101110,0,W,A*2B
$GPRMC,163712.63,A,3318.7293,N,11718.6164,W,7.656,12.356,101110,0,W,A*12
$GPRMC,163748.63,A,3318.7324,N,11718.6157,W,5.111,9.204,101110,0,W,A*2A
$GPRMC,163751.63,A,3318.7417,N,11718.6140,W,13.619,6.002,101110,0,W,A*10
$GPRMC,163754.63,A,3318.7517,N,11718.6191,W,12.892,301.588,101110,0,W,A*17
$GPRMC,163757.63,A,3318.7526,N,11718.6365,W,20.306,268.552,101110,0,W,A*11
$GPRMC,163800.63,A,3318.7522,N,11718.6634,W,29.850,270.055,101110,0,W,A*13
$GPRMC,163803.63,A,3318.7527,N,11718.6975,W,34.618,269.847,101110,0,W,A*12
$GPRMC,163806.63,A,3318.7523,N,11718.7349,W,37.617,269.576,101110,0,W,A*14
$GPRMC,163809.63,A,3318.7520,N,11718.7745,W,39.257,269.554,101110,0,W,A*1E
$GPRMC,163812.63,A,3318.7516,N,11718.8147,W,40.430,269.615,101110,0,W,A*15
$GPRMC,163815.63,A,3318.7514,N,11718.8559,W,40.952,269.076,101110,0,W,A*11
$GPRMC,163818.63,A,3318.7506,N,11718.8966,W,40.098,269.824,101110,0,W,A*1F
$GPRMC,163821.63,A,3318.7526,N,11718.9362,W,38.287,280.079,101110,0,W,A*1C
$GPRMC,163824.63,A,3318.7640,N,11718.9699,W,34.919,303.207,101110,0,W,A*1A
$GPRMC,163827.63,A,3318.7839,N,11718.9939,W,32.939,323.765,101110,0,W,A*1B
$GPRMC,163830.63,A,3318.8074,N,11719.0104,W,32.958,330.988,101110,0,W,A*15
$GPRMC,163833.63,A,3318.8326,N,11719.0250,W,34.249,330.607,101110,0,W,A*15
$GPRMC,163836.63,A,3318.8557,N,11719.0449,W,35.140,315.151,101110,0,W,A*16
$GPRMC,163839.63,A,3318.8733,N,11719.0751,W,37.926,294.476,101110,0,W,A*11
$GPRMC,163842.63,A,3318.8829,N,11719.1120,W,39.977,280.245,101110,0,W,A*11
$GPRMC,163845.63,A,3318.8880,N,11719.1523,W,43.084,278.894,101110,0,W,A*1B
$GPRMC,163848.63,A,3318.8942,N,11719.1967,W,46.400,279.467,101110,0,W,A*19
$GPRMC,163851.63,A,3318.9003,N,11719.2444,W,48.540,279.682,101110,0,W,A*11
$GPRMC,163854.63,A,3318.9071,N,11719.2924,W,48.366,278.996,101110,0,W,A*13
$GPRMC,163857.63,A,3318.9126,N,11719.3408,W,47.719,275.739,101110,0,W,A*14
$GPRMC,163900.63,A,3318.9124,N,11719.3883,W,47.133,265.005,101110,0,W,A*1D
$GPRMC,163903.63,A,3318.9055,N,11719.4347,W,46.689,256.733,101110,0,W,A*18
$GPRMC,163906.63,A,3318.8951,N,11719.4778,W,43.704,259.799,101110,0,W,A*17
$GPRMC,163909.63,A,3318.8928,N,11719.5214,W,43.599,273.016,101110,0,W,A*16
$GPRMC,163912.63,A,3318.9004,N,11719.5621,W,41.303,288.392,101110,0,W,A*14
$GPRMC,163915.63,A,3318.9120,N,11719.6006,W,41.360,286.104,101110,0,W,A*12
$GPRMC,163918.63,A,3318.9195,N,11719.6399,W,39.968,279.406,101110,0,W,A*1E
$GPRMC,163921.63,A,3318.9234,N,11719.6779,W,35.533,274.830,101110,0,W,A*1C
$GPRMC,163924.63,A,3318.9265,N,11719.7097,W,29.408,281.683,101110,0,W,A*13
$GPRMC,163927.63,A,3318.9328,N,11719.7334,W,22.476,290.337,101110,0,W,A*1A
$GPRMC,163930.63,A,3318.9388,N,11719.7518,W,21.479,291.329,101110,0,W,A*1C
$GPRMC,163933.63,A,3318.9425,N,11719.7725,W,20.118,262.292,101110,0,W,A*1D
$GPRMC,163936.63,A,3318.9329,N,11719.7903,W,23.659,231.165,101110,0,W,A*15
$GPRMC,163939.63,A,3318.9178,N,11719.8116,W,31.390,233.877,101110,0,W,A*14
$GPRMC,163942.63,A,3318.9011,N,11719.8400,W,38.207,237.100,101110,0,W,A*1F
$GPRMC,163945.63,A,3318.8829,N,11719.8751,W,42.871,238.952,101110,0,W,A*1B
$GPRMC,163948.63,A,3318.8634,N,11719.9134,W,45.048,238.814,101110,0,W,A*16
$GPRMC,163951.63,A,3318.8424,N,11719.9515,W,45.863,233.271,101110,0,W,A*19
$GPRMC,163954.63,A,3318.8174,N,11719.9864,W,45.887,228.878,101110,0,W,A*14
$GPRMC,163957.63,A,3318.7913,N,11720.0209,W,47.785,229.709,101110,0,W,A*14
$GPRMC,164000.63,A,3318.7648,N,11720.0572,W,48.309,230.002,101110,0,W,A*19
$GPRMC,164003.63,A,3318.7389,N,11720.0923,W,45.818,228.166,101110,0,W,A*16
$GPRMC,164006.63,A,3318.7131,N,11720.1259,W,44.764,227.690,101110,0,W,A*11
$GPRMC,164009.63,A,3318.6882,N,11720.1586,W,43.915,227.703,101110,0,W,A*1F
$GPRMC,164012.63,A,3318.6617,N,11720.1881,W,43.590,217.848,101110,0,W,A*1F
$GPRMC,164015.63,A,3318.6325,N,11720.2130,W,44.127,218.086,101110,0,W,A*16
$GPRMC,164018.63,A,3318.6055,N,11720.2432,W,43.920,227.246,101110,0,W,A*12
$GPRMC,164021.63,A,3318.5821,N,11720.2769,W,43.790,234.554,101110,0,W,A*1E
$GPRMC,164024.63,A,3318.5635,N,11720.3141,W,43.064,237.792,101110,0,W,A*1A
$GPRMC,164027.63,A,3318.5449,N,11720.3505,W,42.672,237.692,101110,0,W,A*15
$GPRMC,164030.63,A,3318.5264,N,11720.3868,W,42.626,237.887,101110,0,W,A*17
$GPRMC,164033.63,A,3318.5075,N,11720.4222,W,41.690,236.196,101110,0,W,A*13
$GPRMC,164036.63,A,3318.4871,N,11720.4544,W,39.869,229.963,101110,0,W,A*17
$GPRMC,164039.63,A,3318.4649,N,11720.4824,W,38.013,223.439,101110,0,W,A*1A
$GPRMC,164042.63,A,3318.4421,N,11720.5060,W,32.852,219.707,101110,0,W,A*13
$GPRMC,164045.63,A,3318.4215,N,11720.5209,W,24.581,207.187,101110,0,W,A*1D
$GPRMC,164048.63,A,3318.4080,N,11720.5315,W,17.257,230.192,101110,0,W,A*1E
$GPRMC,164051.63,A,3318.4066,N,11720.5491,W,21.981,287.729,101110,0,W,A*1A
$GPRMC,164054.63,A,3318.4176,N,11720.5711,W,30.216,303.535,101110,0,W,A*13
$GPRMC,164057.63,A,3318.4374,N,11720.5939,W,35.264,323.914,101110,0,W,A*19
$GPRMC,164100.63,A,3318.4651,N,11720.6131,W,40.248,330.905,101110,0,W,A*15
$GPRMC,164103.63,A,3318.4967,N,11720.6337,W,43.668,330.555,101110,0,W,A*14
$GPRMC,164106.63,A,3318.5299,N,11720.6549,W,44.512,330.782,101110,0,W,A*14
$GPRMC,164109.63,A,3318.5633,N,11720.6765,W,45.182,331.174,101110,0,W,A*11
$GPRMC,164112.63,A,3318.5974,N,11720.6985,W,46.587,330.841,101110,0,W,A*1B
$GPRMC,164115.63,A,3318.6323,N,11720.7209,W,47.643,331.069,101110,0,W,A*10
$GPRMC,164118.63,A,3318.6682,N,11720.7442,W,49.044,331.159,101110,0,W,A*17
$GPRMC,164121.63,A,3318.7045,N,11720.7684,W,49.942,330.770,101110,0,W,A*1A
$GPRMC,164124.63,A,3318.7412,N,11720.7930,W,49.792,330.828,101110,0,W,A*18
$GPRMC,164127.63,A,3318.7771,N,11720.8168,W,47.642,331.205,101110,0,W,A*11
$GPRMC,164130.63,A,3318.8111,N,11720.8383,W,44.485,330.506,101110,0,W,A*10
$GPRMC,164133.63,A,3318.8433,N,11720.8590,W,42.552,330.687,101110,0,W,A*15
$GPRMC,164136.63,A,3318.8737,N,11720.8787,W,40.116,329.377,101110,0,W,A*17
$GPRMC,164139.63,A,3318.9007,N,11720.8984,W,35.223,328.802,101110,0,W,A*1F
$GPRMC,164142.63,A,3318.9217,N,11720.9120,W,20.243,332.403,101110,0,W,A*13
$GPRMC,164145.63,A,3318.9298,N,11720.9203,W,12.354,285.224,101110,0,W,A*19
$GPRMC,164148.63,A,3318.9250,N,11720.9344,W,20.500,240.066,101110,0,W,A*19
$GPRMC,164151.63,A,3318.9127,N,11720.9592,W,33.418,240.875,101110,0,W,A*1F
$GPRMC,164154.63,A,3318.8972,N,11720.9915,W,38.482,240.437,101110,0,W,A*12
$GPRMC,164157.63,A,3318.8801,N,11721.0272,W,41.208,241.520,101110,0,W,A*1A
$GPRMC,164200.63,A,3318.8623,N,11721.0641,W,41.962,239.515,101110,0,W,A*1F
$GPRMC,164203.63,A,3318.8422,N,11721.0992,W,42.180,229.835,101110,0,W,A*17
$GPRMC,164206.63,A,3318.8169,N,11721.1296,W,41.645,222.252,101110,0,W,A*1B
$GPRMC,164209.63,A,3318.7926,N,11721.1588,W,40.538,230.954,101110,0,W,A*16
$GPRMC,164212.63,A,3318.7716,N,11721.1913,W,40.688,232.568,101110,0,W,A*16
$GPRMC,164215.63,A,3318.7509,N,11721.2233,W,39.462,232.586,101110,0,W,A*1F
$GPRMC,164218.63,A,3318.7302,N,11721.2547,W,42.181,232.700,101110,0,W,A*13
$GPRMC,164221.63,A,3318.7084,N,11721.2896,W,45.061,233.418,101110,0,W,A*16
$GPRMC,164224.63,A,3318.6849,N,11721.3268,W,47.238,233.231,101110,0,W,A*10
$GPRMC,164227.63,A,3318.6609,N,11721.3649,W,47.499,233.277,101110,0,W,A*11
$GPRMC,164230.63,A,3318.6368,N,11721.4031,W,47.868,233.085,101110,0,W,A*16
$GPRMC,164233.63,A,3318.6135,N,11721.4405,W,45.820,233.421,101110,0,W,A*18
$GPRMC,164236.63,A,3318.5913,N,11721.4761,W,43.752,233.628,101110,0,W,A*14
$GPRMC,164239.63,A,3318.5698,N,11721.5102,W,41.959,232.597,101110,0,W,A*14
$GPRMC,164242.63,A,3318.5491,N,11721.5425,W,40.375,232.495,101110,0,W,A*15
$GPRMC,164245.63,A,3318.5298,N,11721.5741,W,38.455,236.598,101110,0,W,A*1E
$GPRMC,164248.63,A,3318.5152,N,11721.6081,W,38.097,245.721,101110,0,W,A*10
$GPRMC,164251.63,A,3318.5048,N,11721.6401,W,33.513,254.598,101110,0,W,A*1C
$GPRMC,164254.63,A,3318.5031,N,11721.6744,W,35.618,272.871,101110,0,W,A*15
$GPRMC,164257.63,A,3318.5083,N,11721.7108,W,37.433,279.859,101110,0,W,A*18
$GPRMC,164300.63,A,3318.5135,N,11721.7468,W,35.271,279.526,101110,0,W,A*13
$GPRMC,164303.63,A,3318.5182,N,11721.7801,W,32.221,278.876,101110,0,W,A*14
$GPRMC,164306.63,A,3318.5222,N,11721.8092,W,26.826,279.472,101110,0,W,A*14
$GPRMC,164309.63,A,3318.5251,N,11721.8266,W,10.877,279.451,101110,0,W,A*16
$GPRMC,164312.63,A,3318.5285,N,11721.8362,W,11.283,293.641,101110,0,W,A*17
$GPRMC,164315.63,A,3318.5349,N,11721.8455,W,13.368,315.306,101110,0,W,A*1D
$GPRMC,164318.63,A,3318.5450,N,11721.8527,W,13.912,329.139,101110,0,W,A*1D
$GPRMC,164321.63,A,3318.5544,N,11721.8587,W,11.404,331.053,101110,0,W,A*15
$GPRMC,164324.63,A,3318.5617,N,11721.8625,W,8.482,330.515,101110,0,W,A*2E
$GPRMC,164327.63,A,3318.5669,N,11721.8660,W,6.441,327.585,101110,0,W,A*2B
$GPRMC,164330.63,A,3318.5710,N,11721.8686,W,5.437,327.191,101110,0,W,A*29
$GPRMC,164333.63,A,3318.5761,N,11721.8718,W,7.944,331.864,101110,0,W,A*25
$GPRMC,164336.63,A,3318.5810,N,11721.8751,W,6.553,329.310,101110,0,W,A*2E
$GPRMC,164339.63,A,3318.5855,N,11721.8780,W,7.226,328.604,101110,0,W,A*29
$GPRMC,164342.63,A,3318.5914,N,11721.8820,W,8.682,327.283,101110,0,W,A*25
$GPRMC,164345.63,A,3318.5983,N,11721.8867,W,10.169,330.708,101110,0,W,A*14
$GPRMC,164348.63,A,3318.6059,N,11721.8920,W,10.175,331.507,101110,0,W,A*17
$GPRMC,164351.63,A,3318.6119,N,11721.8987,W,10.069,293.328,101110,0,W,A*19
$GPRMC,164354.63,A,3318.6094,N,11721.9097,W,12.529,241.388,101110,0,W,A*17
$GPRMC,164357.63,A,3318.6037,N,11721.9214,W,12.898,239.718,101110,0,W,A*11
$GPRMC,164400.63,A,3318.5982,N,11721.9320,W,12.285,239.226,101110,0,W,A*18
$GPRMC,164403.63,A,3318.5948,N,11721.9426,W,11.027,271.242,101110,0,W,A*1B
$GPRMC,164406.63,A,3318.5975,N,11721.9539,W,12.573,290.131,101110,0,W,A*10
$GPRMC,164409.63,A,3318.6008,N,11721.9658,W,12.013,288.058,101110,0,W,A*1F
$GPRMC,164412.63,A,3318.6031,N,11721.9745,W,6.199,289.550,101110,0,W,A*28
$GPRMC,164418.63,A,3318.6058,N,11721.9837,W,4.658,241.056,101110,0,W,A*28
$GPRMC,164424.63,A,3318.6007,N,11721.9851,W,4.705,182.408,101110,0,W,A*27
$GPRMC,164427.63,A,3318.5940,N,11721.9843,W,8.415,185.071,101110,0,W,A*2D
$GPRMC,164430.63,A,3318.5872,N,11721.9865,W,9.209,205.269,101110,0,W,A*25
$GPRMC,164433.63,A,3318.5802,N,11721.9914,W,9.671,217.009,101110,0,W,A*2A
$GPRMC,164436.63,A,3318.5741,N,11721.9993,W,12.796,229.492,101110,0,W,A*11
$GPRMC,164439.63,A,3318.5670,N,11722.0097,W,13.480,228.201,101110,0,W,A*12
$GPRMC,164442.63,A,3318.5596,N,11722.0197,W,12.830,230.177,101110,0,W,A*19
$GPRMC,164445.63,A,3318.5531,N,11722.0289,W,11.370,228.858,101110,0,W,A*1E
$GPRMC,164448.63,A,3318.5480,N,11722.0357,W,6.100,212.362,101110,0,W,A*22
$GPRMC,164451.63,A,3318.5432,N,11722.0360,W,5.306,170.257,101110,0,W,A*20
$GPRMC,164454.63,A,3318.5397,N,11722.0315,W,6.096,112.760,101110,0,W,A*23
$GPRMC,164457.63,A,3318.5368,N,11722.0250,W,7.638,112.900,101110,0,W,A*2B
$GPRMC,164500.63,A,3318.5347,N,11722.0180,W,8.694,111.030,101110,0,W,A*2B
$GPRMC,164503.63,A,3318.5320,N,11722.0091,W,8.839,108.649,101110,0,W,A*21
$GPRMC,164506.63,A,3318.5296,N,11722.0005,W,9.634,109.504,101110,0,W,A*2C
$GPRMC,164509.63,A,3318.5265,N,11721.9918,W,9.571,109.137,101110,0,W,A*26
$GPRMC,164512.63,A,3318.5237,N,11721.9827,W,10.282,108.901,101110,0,W,A*19
$GPRMC,164515.63,A,3318.5211,N,11721.9734,W,9.680,109.292,101110,0,W,A*29
$GPRMC,164518.63,A,3318.5186,N,11721.9648,W,9.162,108.310,101110,0,W,A*22
$GPRMC,164521.63,A,3318.5162,N,11721.9562,W,8.911,109.779,101110,0,W,A*2E
$GPRMC,164524.63,A,3318.5136,N,11721.9484,W,8.277,109.666,101110,0,W,A*27
$GPRMC,164527.63,A,3318.5119,N,11721.9421,W,4.634,107.718,101110,0,W,A*2F
$GPRMC,164530.63,A,3318.5110,N,11721.9379,W,4.986,110.176,101110,0,W,A*24
$GPRMC,164533.63,A,3318.5099,N,11721.9339,W,5.099,106.729,101110,0,W,A*2E
$GPRMC,164536.63,A,3318.5083,N,11721.9288,W,6.124,106.988,101110,0,W,A*2A
$GPRMC,164539.63,A,3318.5063,N,11721.9237,W,6.440,110.557,101110,0,W,A*21
$GPRMC,164542.63,A,3318.5045,N,11721.9169,W,7.408,109.841,101110,0,W,A*2E
$GPRMC,164545.63,A,3318.5028,N,11721.9102,W,5.710,106.689,101110,0,W,A*22
$GPRMC,164551.63,A,3318.5005,N,11721.9051,W,5.183,152.247,101110,0,W,A*24
$GPRMC,164554.63,A,3318.4937,N,11721.9056,W,9.429,200.192,101110,0,W,A*29
$GPRMC,164557.63,A,3318.4862,N,11721.9100,W,11.371,199.989,101110,0,W,A*1B
$GPRMC,164600.63,A,3318.4771,N,11721.9143,W,11.874,202.572,101110,0,W,A*17
$GPRMC,164603.63,A,3318.4673,N,11721.9195,W,13.528,203.450,101110,0,W,A*1A
$GPRMC,164606.63,A,3318.4566,N,11721.9256,W,13.956,206.124,101110,0,W,A*12
$GPRMC,164609.63,A,3318.4461,N,11721.9318,W,13.916,205.951,101110,0,W,A*1D
$GPRMC,164612.63,A,3318.4362,N,11721.9375,W,12.542,204.731,101110,0,W,A*1D
$GPRMC,164615.63,A,3318.4273,N,11721.9425,W,10.785,205.927,101110,0,W,A*1A
$GPRMC,164618.63,A,3318.4211,N,11721.9475,W,7.809,234.162,101110,0,W,A*20
$GPRMC,164621.63,A,3318.4215,N,11721.9554,W,8.939,290.376,101110,0,W,A*28
$GPRMC,164624.63,A,3318.4247,N,11721.9648,W,10.835,291.684,101110,0,W,A*19
$GPRMC,164627.63,A,3318.4281,N,11721.9754,W,10.849,288.175,101110,0,W,A*16
$GPRMC,164630.63,A,3318.4313,N,11721.9853,W,9.648,289.649,101110,0,W,A*2C
$GPRMC,164633.63,A,3318.4342,N,11721.9935,W,8.253,283.763,101110,0,W,A*26
$GPRMC,164636.63,A,3318.4332,N,11722.0013,W,7.944,243.164,101110,0,W,A*2C
