NMEA Sentence Code,UTC Time,Status,Latitude,Latitude Direction,Longitude,Longitude Direction,Speed (knots),Track Angle (degrees true),Date,MagneticVariation,Magnetic Variation Direction,[FAA Mode]-Optional,Checksum
$GPRMC,175255.9,A,3337.037062,N,11742.258595,W,32.5,46.5,290510,,,A*7B
$GPRMC,175258.9,A,3337.058307,N,11742.233471,W,34.2,44.6,290510,,,A*79
$GPRMC,175301.9,A,3337.078657,N,11742.208254,W,35.7,46.5,290510,,,A*7A
$GPRMC,175304.9,A,3337.102765,N,11742.183600,W,38.7,44.1,290510,,,A*7D
$GPRMC,175307.9,A,3337.123494,N,11742.152906,W,39.7,47.0,290510,,,A*76
$GPRMC,175310.9,A,3337.149788,N,11742.123410,W,41.4,44.3,290510,,,A*72
$GPRMC,175313.9,A,3337.173351,N,11742.093535,W,40.7,44.9,290510,,,A*7C
$GPRMC,175316.9,A,3337.200374,N,11742.065655,W,39.5,41.5,290510,,,A*70
$GPRMC,175319.9,A,3337.214480,N,11742.044774,W,23.6,43.7,290510,,,A*7F
$GPRMC,175322.9,A,3337.217351,N,11742.038544,W,6.4,31.9,290510,,,A*4B
$GPRMC,175334.9,A,3337.212173,N,11742.040191,W,4.8,170.6,290510,,,A*7D
$GPRMC,175455.9,A,3337.224031,N,11742.032915,W,10.1,58.9,290510,,,A*76
$GPRMC,175458.9,A,3337.237462,N,11742.010796,W,25.7,54.9,290510,,,A*72
$GPRMC,175501.9,A,3337.257309,N,11741.986253,W,32.7,49.7,290510,,,A*7E
$GPRMC,175504.9,A,3337.279361,N,11741.961462,W,34.7,46.5,290510,,,A*7F
$GPRMC,175507.9,A,3337.302634,N,11741.936837,W,37.4,42.5,290510,,,A*7E
$GPRMC,175510.9,A,3337.324565,N,11741.908805,W,36.8,44.9,290510,,,A*70
$GPRMC,175513.9,A,3337.345030,N,11741.882677,W,37.4,47.6,290510,,,A*78
$GPRMC,175516.9,A,3337.368834,N,11741.856581,W,38.9,45.7,290510,,,A*7C
$GPRMC,175519.9,A,3337.389743,N,11741.830160,W,35.3,44.9,290510,,,A*70
$GPRMC,175522.9,A,3337.410496,N,11741.805254,W,35.8,43.1,290510,,,A*72
$GPRMC,175525.9,A,3337.432815,N,11741.782418,W,35.6,41.5,290510,,,A*74
$GPRMC,175528.9,A,3337.455841,N,11741.755240,W,39.3,42.5,290510,,,A*72
$GPRMC,175531.9,A,3337.481075,N,11741.728865,W,40.7,42.1,290510,,,A*75
$GPRMC,175534.9,A,3337.506626,N,11741.700514,W,42.4,42.5,290510,,,A*7A
$GPRMC,175537.9,A,3337.535422,N,11741.673214,W,43.5,40.2,290510,,,A*78
$GPRMC,175540.9,A,3337.563219,N,11741.646527,W,43.2,37.9,290510,,,A*78
$GPRMC,175543.9,A,3337.590343,N,11741.615468,W,44.2,45.8,290510,,,A*76
$GPRMC,175546.9,A,3337.608598,N,11741.581917,W,41.1,52.8,290510,,,A*7A
$GPRMC,175549.9,A,3337.624802,N,11741.548606,W,38.2,55.1,290510,,,A*7C
$GPRMC,175552.9,A,3337.647199,N,11741.521265,W,37.1,50.8,290510,,,A*76
$GPRMC,175555.9,A,3337.666499,N,11741.493800,W,34.1,49.1,290510,,,A*74
$GPRMC,175558.9,A,3337.680092,N,11741.470398,W,27.3,48.1,290510,,,A*78
$GPRMC,175601.9,A,3337.688148,N,11741.459073,W,11.7,43.6,290510,,,A*79
$GPRMC,175604.9,A,3337.694105,N,11741.455891,W,6.5,15.3,290510,,,A*42
$GPRMC,175610.9,A,3337.699209,N,11741.446210,W,12.4,48.9,290510,,,A*72
$GPRMC,175613.9,A,3337.709595,N,11741.428099,W,23.4,57.0,290510,,,A*75
$GPRMC,175616.9,A,3337.728174,N,11741.407247,W,29.4,50.3,290510,,,A*7A
$GPRMC,175619.9,A,3337.749157,N,11741.382702,W,34.0,44.8,290510,,,A*7B
$GPRMC,175622.9,A,3337.769665,N,11741.359581,W,33.5,44.7,290510,,,A*75
$GPRMC,175625.9,A,3337.793363,N,11741.334133,W,36.4,44.7,290510,,,A*76
$GPRMC,175628.9,A,3337.813156,N,11741.308649,W,36.6,46.0,290510,,,A*7A
$GPRMC,175631.9,A,3337.833518,N,11741.280958,W,37.4,46.5,290510,,,A*76
$GPRMC,175634.9,A,3337.858706,N,11741.253085,W,41.1,43.3,290510,,,A*73
$GPRMC,175637.9,A,3337.880367,N,11741.220882,W,42.8,48.3,290510,,,A*7C
$GPRMC,175640.9,A,3337.909130,N,11741.191630,W,43.0,43.2,290510,,,A*71
$GPRMC,175643.9,A,3337.931518,N,11741.159939,W,43.3,46.8,290510,,,A*79
$GPRMC,175646.9,A,3337.960003,N,11741.126231,W,47.3,45.6,290510,,,A*75
$GPRMC,175649.9,A,3337.986123,N,11741.090665,W,48.1,46.6,290510,,,A*76
$GPRMC,175652.9,A,3338.013090,N,11741.055375,W,48.0,47.1,290510,,,A*75
$GPRMC,175655.9,A,3338.040781,N,11741.024127,W,44.7,45.2,290510,,,A*7A
$GPRMC,175658.9,A,3338.065636,N,11740.995630,W,42.6,46.0,290510,,,A*78
$GPRMC,175701.9,A,3338.087942,N,11740.963384,W,42.1,46.9,290510,,,A*78
$GPRMC,175704.9,A,3338.117030,N,11740.932394,W,45.5,41.6,290510,,,A*77
$GPRMC,175707.9,A,3338.139823,N,11740.902837,W,42.6,44.4,290510,,,A*70
$GPRMC,175710.9,A,3338.163702,N,11740.873543,W,40.2,46.8,290510,,,A*74
$GPRMC,175713.9,A,3338.189912,N,11740.844923,W,40.9,44.7,290510,,,A*74
$GPRMC,175716.9,A,3338.211234,N,11740.815681,W,40.7,46.4,290510,,,A*70
$GPRMC,175719.9,A,3338.235462,N,11740.785317,W,43.4,46.9,290510,,,A*7D
$GPRMC,175722.9,A,3338.257463,N,11740.749399,W,43.0,50.4,290510,,,A*78
$GPRMC,175725.9,A,3338.275445,N,11740.715326,W,42.8,58.1,290510,,,A*72
$GPRMC,175728.9,A,3338.294970,N,11740.677279,W,44.0,60.6,290510,,,A*77
$GPRMC,175731.9,A,3338.310646,N,11740.638318,W,43.1,64.2,290510,,,A*73
$GPRMC,175734.9,A,3338.315157,N,11740.593997,W,42.7,78.5,290510,,,A*76
$GPRMC,175737.9,A,3338.319437,N,11740.552687,W,42.4,83.2,290510,,,A*79
$GPRMC,175740.9,A,3338.318392,N,11740.512190,W,41.6,89.3,290510,,,A*7F
$GPRMC,175743.9,A,3338.316665,N,11740.472015,W,41.3,90.3,290510,,,A*79
$GPRMC,175746.9,A,3338.320025,N,11740.426610,W,44.8,81.3,290510,,,A*77
$GPRMC,175749.9,A,3338.330264,N,11740.383419,W,44.2,73.7,290510,,,A*7E
$GPRMC,175752.9,A,3338.342526,N,11740.339793,W,45.4,68.7,290510,,,A*7D
$GPRMC,175755.9,A,3338.361512,N,11740.298847,W,46.7,60.5,290510,,,A*7A
$GPRMC,175758.9,A,3338.387111,N,11740.260674,W,50.0,54.0,290510,,,A*73
$GPRMC,175801.9,A,3338.419632,N,11740.229516,W,47.6,39.4,290510,,,A*73
$GPRMC,175804.9,A,3338.452286,N,11740.201724,W,46.4,34.6,290510,,,A*77
$GPRMC,175807.9,A,3338.484296,N,11740.176964,W,45.7,34.1,290510,,,A*70
$GPRMC,175810.9,A,3338.515950,N,11740.151153,W,44.7,37.2,290510,,,A*76
$GPRMC,175813.9,A,3338.548613,N,11740.122616,W,50.9,39.4,290510,,,A*74
$GPRMC,175816.9,A,3338.581473,N,11740.087027,W,52.2,42.4,290510,,,A*7F
$GPRMC,175819.9,A,3338.604011,N,11740.049537,W,47.6,51.2,290510,,,A*7C
$GPRMC,175822.9,A,3338.626171,N,11740.013124,W,45.9,53.6,290510,,,A*71
$GPRMC,175825.9,A,3338.641246,N,11739.971245,W,44.9,61.3,290510,,,A*72
$GPRMC,175828.9,A,3338.663504,N,11739.938051,W,43.9,49.0,290510,,,A*7A
$GPRMC,175831.9,A,3338.692411,N,11739.906157,W,45.7,43.4,290510,,,A*75
$GPRMC,175834.9,A,3338.721824,N,11739.878768,W,44.2,38.0,290510,,,A*7D
$GPRMC,175837.9,A,3338.754049,N,11739.855794,W,45.2,28.1,290510,,,A*72
$GPRMC,175840.9,A,3338.789101,N,11739.824605,W,50.0,38.0,290510,,,A*76
$GPRMC,175843.9,A,3338.818506,N,11739.792180,W,48.4,42.5,290510,,,A*7C
$GPRMC,175846.9,A,3338.844794,N,11739.757547,W,47.8,44.6,290510,,,A*79
$GPRMC,175849.9,A,3338.873461,N,11739.724056,W,47.4,43.7,290510,,,A*70
$GPRMC,175852.9,A,3338.905075,N,11739.692401,W,47.9,39.8,290510,,,A*7E
$GPRMC,175855.9,A,3338.934525,N,11739.665188,W,45.4,37.8,290510,,,A*76
$GPRMC,175858.9,A,3338.968088,N,11739.641272,W,45.8,31.0,290510,,,A*72
$GPRMC,175901.9,A,3339.008799,N,11739.623048,W,48.0,19.7,290510,,,A*71
$GPRMC,175904.9,A,3339.045678,N,11739.617479,W,44.8,9.0,290510,,,A*40
$GPRMC,175907.9,A,3339.080104,N,11739.612312,W,43.4,7.7,290510,,,A*4B
$GPRMC,175910.9,A,3339.116116,N,11739.602605,W,45.4,13.4,290510,,,A*72
$GPRMC,175913.9,A,3339.153129,N,11739.590413,W,45.3,17.9,290510,,,A*7F
$GPRMC,175916.9,A,3339.188701,N,11739.575559,W,42.8,20.7,290510,,,A*72
$GPRMC,175919.9,A,3339.216925,N,11739.562905,W,37.4,19.1,290510,,,A*70
$GPRMC,175922.9,A,3339.245920,N,11739.550032,W,36.4,19.9,290510,,,A*7E
$GPRMC,175925.9,A,3339.274151,N,11739.537025,W,37.6,20.2,290510,,,A*70
$GPRMC,175928.9,A,3339.306231,N,11739.523424,W,40.7,20.8,290510,,,A*77
$GPRMC,175931.9,A,3339.338966,N,11739.505108,W,43.4,23.6,290510,,,A*79
$GPRMC,175934.9,A,3339.372702,N,11739.487510,W,45.9,24.1,290510,,,A*73
$GPRMC,175937.9,A,3339.409369,N,11739.466516,W,48.8,24.5,290510,,,A*73
$GPRMC,175940.9,A,3339.446136,N,11739.442324,W,52.0,30.8,290510,,,A*7A
$GPRMC,175943.9,A,3339.482221,N,11739.409903,W,56.8,38.0,290510,,,A*78
$GPRMC,175946.9,A,3339.517606,N,11739.373077,W,56.0,42.4,290510,,,A*70
$GPRMC,175949.9,A,3339.537717,N,11739.327334,W,51.1,61.0,290510,,,A*7A
$GPRMC,175952.9,A,3339.552102,N,11739.281443,W,46.2,68.6,290510,,,A*71
$GPRMC,175955.9,A,3339.562831,N,11739.247598,W,33.3,67.2,290510,,,A*79
$GPRMC,175958.9,A,3339.570802,N,11739.226358,W,20.6,65.9,290510,,,A*74
$GPRMC,180001.9,A,3339.574413,N,11739.211606,W,15.0,71.0,290510,,,A*75
$GPRMC,180004.9,A,3339.577074,N,11739.199692,W,13.3,72.5,290510,,,A*7B
$GPRMC,180007.9,A,3339.578040,N,11739.194195,W,6.4,71.6,290510,,,A*4E
$GPRMC,180019.9,A,3339.581932,N,11739.185260,W,9.8,68.8,290510,,,A*47
$GPRMC,180022.9,A,3339.585671,N,11739.172230,W,14.5,71.6,290510,,,A*79
$GPRMC,180025.9,A,3339.590974,N,11739.158456,W,14.3,60.7,290510,,,A*79
$GPRMC,180028.9,A,3339.602598,N,11739.155696,W,14.0,350.9,290510,,,A*4C
$GPRMC,180031.9,A,3339.623364,N,11739.165993,W,23.3,333.4,290510,,,A*44
$GPRMC,180034.9,A,3339.649330,N,11739.170701,W,30.3,348.9,290510,,,A*4E
$GPRMC,180037.9,A,3339.678398,N,11739.174511,W,36.1,353.2,290510,,,A*4F
$GPRMC,180040.9,A,3339.715089,N,11739.179805,W,44.4,354.1,290510,,,A*47
$GPRMC,180043.9,A,3339.755045,N,11739.180652,W,46.5,0.4,290510,,,A*4E
$GPRMC,180046.9,A,3339.795057,N,11739.176228,W,46.8,7.3,290510,,,A*49
$GPRMC,180049.9,A,3339.827410,N,11739.168905,W,40.8,11.1,290510,,,A*7F
$GPRMC,180052.9,A,3339.856052,N,11739.160974,W,36.0,13.3,290510,,,A*76
$GPRMC,180055.9,A,3339.875187,N,11739.151359,W,21.3,17.5,290510,,,A*79
$GPRMC,180058.9,A,3339.881277,N,11739.150779,W,5.1,348.9,290510,,,A*75
$GPRMC,180122.9,A,3339.883755,N,11739.149398,W,5.0,46.4,290510,,,A*4C
$GPRMC,180125.9,A,3339.903426,N,11739.136456,W,22.0,33.0,290510,,,A*7B
$GPRMC,180128.9,A,3339.931370,N,11739.119749,W,31.8,28.0,290510,,,A*73
$GPRMC,180131.3,A,3339.951896,N,11739.106762,W,36.8,30.0,290510,,,A*7D
$GPRMC,180134.9,A,3339.984583,N,11739.081672,W,39.0,34.1,290510,,,A*7F
$GPRMC,180137.9,A,3340.016069,N,11739.063421,W,39.1,22.6,290510,,,A*78
$GPRMC,180140.9,A,3340.044183,N,11739.056454,W,28.4,14.5,290510,,,A*7D
$GPRMC,180143.9,A,3340.058954,N,11739.053968,W,14.2,13.0,290510,,,A*7D
$GPRMC,180234.3,A,3340.076557,N,11739.055820,W,9.8,358.7,290510,,,A*71
$GPRMC,180237.9,A,3340.126674,N,11739.055292,W,30.8,353.6,290510,,,A*4D
$GPRMC,180240.9,A,3340.180205,N,11739.061471,W,42.3,348.5,290510,,,A*48
$GPRMC,180243.3,A,3340.206903,N,11739.070951,W,41.9,339.8,290510,,,A*4C
$GPRMC,180246.9,A,3340.249624,N,11739.089680,W,40.6,335.5,290510,,,A*48
$GPRMC,180249.9,A,3340.270730,N,11739.107142,W,30.6,327.2,290510,,,A*44
$GPRMC,180252.9,A,3340.286064,N,11739.113232,W,19.7,0.9,290510,,,A*47
$GPRMC,180255.9,A,3340.295733,N,11739.098458,W,22.4,52.1,290510,,,A*7B
$GPRMC,180258.9,A,3340.307544,N,11739.075336,W,29.2,58.6,290510,,,A*72
$GPRMC,180301.9,A,3340.319145,N,11739.042399,W,36.2,65.6,290510,,,A*74
$GPRMC,180304.9,A,3340.337140,N,11739.012284,W,34.7,59.4,290510,,,A*7A
$GPRMC,180307.9,A,3340.346196,N,11738.984807,W,27.7,64.4,290510,,,A*7E
$GPRMC,180310.9,A,3340.350474,N,11738.964583,W,15.9,72.6,290510,,,A*73
$GPRMC,180313.9,A,3340.338693,N,11738.953422,W,18.7,145.4,290510,,,A*4F
$GPRMC,180316.9,A,3340.316867,N,11738.941976,W,27.3,153.8,290510,,,A*4F
$GPRMC,180319.9,A,3340.294822,N,11738.928959,W,31.6,152.3,290510,,,A*40
$GPRMC,180322.9,A,3340.269892,N,11738.912351,W,33.3,151.6,290510,,,A*4B
$GPRMC,180325.9,A,3340.241415,N,11738.897446,W,37.5,152.9,290510,,,A*46
$GPRMC,180328.9,A,3340.212405,N,11738.878645,W,36.4,152.8,290510,,,A*4D
$GPRMC,180331.9,A,3340.188945,N,11738.867774,W,28.9,159.3,290510,,,A*43
$GPRMC,180334.9,A,3340.169831,N,11738.861841,W,21.9,166.8,290510,,,A*4A
$GPRMC,180337.9,A,3340.157222,N,11738.858294,W,13.3,171.0,290510,,,A*41
$GPRMC,180340.9,A,3340.147520,N,11738.859868,W,11.9,195.9,290510,,,A*46
$GPRMC,180343.9,A,3340.145990,N,11738.865275,W,6.8,228.0,290510,,,A*72
$GPRMC,180346.9,A,3340.141321,N,11738.872711,W,8.4,235.3,290510,,,A*7F
$GPRMC,180349.9,A,3340.144391,N,11738.883721,W,9.8,280.7,290510,,,A*74
$GPRMC,180352.9,A,3340.130861,N,11738.899930,W,16.6,246.5,290510,,,A*44
$GPRMC,180355.9,A,3340.123306,N,11738.914972,W,17.1,243.8,290510,,,A*47
$GPRMC,180358.9,A,3340.116382,N,11738.926939,W,12.6,231.1,290510,,,A*40
$GPRMC,180401.9,A,3340.109619,N,11738.938446,W,16.2,241.9,290510,,,A*47
$GPRMC,180404.9,A,3340.103714,N,11738.952130,W,12.5,235.8,290510,,,A*4D
$GPRMC,180407.9,A,3340.094954,N,11738.948201,W,10.6,137.9,290510,,,A*40
$GPRMC,180410.9,A,3340.089443,N,11738.934009,W,15.8,112.0,290510,,,A*45
$GPRMC,180413.9,A,3340.092745,N,11738.912571,W,21.6,84.8,290510,,,A*78
$GPRMC,180416.9,A,3340.111504,N,11738.897749,W,21.4,51.4,290510,,,A*73
$GPRMC,180419.9,A,3340.126652,N,11738.882006,W,20.1,60.1,290510,,,A*73
$GPRMC,180422.9,A,3340.136088,N,11738.864539,W,20.7,62.5,290510,,,A*7A
$GPRMC,180425.9,A,3340.144370,N,11738.851881,W,13.9,60.5,290510,,,A*78
