NMEA Sentence Code,UTC Time,Status,Latitude,Latitude Direction,Longitude,Longitude Direction,Speed (knots),Track Angle (degrees true),Date,MagneticVariation,Magnetic Variation Direction,[FAA Mode]-Optional,Checksum
$GPRMC,175331.9,A,3333.336680,N,11742.237283,W,39.5,269.4,190110,,,A*4F
$GPRMC,175334.9,A,3333.339552,N,11742.267593,W,30.5,275.7,190110,,,A*4D
$GPRMC,175337.9,A,3333.340737,N,11742.296914,W,29.6,271.9,190110,,,A*4D
$GPRMC,175340.9,A,3333.337988,N,11742.327580,W,32.8,267.1,190110,,,A*46
$GPRMC,175343.9,A,3333.334585,N,11742.364167,W,37.8,267.2,190110,,,A*4B
$GPRMC,175346.9,A,3333.337210,N,11742.407024,W,40.8,271.4,190110,,,A*43
$GPRMC,175349.9,A,3333.336740,N,11742.438737,W,31.3,270.8,190110,,,A*44
$GPRMC,175352.9,A,3333.338714,N,11742.465876,W,25.1,271.3,190110,,,A*4E
$GPRMC,175355.9,A,3333.337740,N,11742.489830,W,25.1,270.1,190110,,,A*44
$GPRMC,175358.9,A,3333.340125,N,11742.517011,W,28.8,271.2,190110,,,A*47
$GPRMC,175401.9,A,3333.340687,N,11742.542925,W,27.9,271.0,190110,,,A*41
$GPRMC,175404.9,A,3333.341423,N,11742.570231,W,24.4,273.8,190110,,,A*42
$GPRMC,175407.9,A,3333.346749,N,11742.584803,W,14.9,306.4,190110,,,A*48
$GPRMC,175410.9,A,3333.360487,N,11742.587087,W,18.1,358.5,190110,,,A*42
$GPRMC,175413.9,A,3333.383707,N,11742.581612,W,28.5,16.8,190110,,,A*78
$GPRMC,175416.9,A,3333.411323,N,11742.567577,W,36.4,23.2,190110,,,A*79
$GPRMC,175419.9,A,3333.442576,N,11742.550129,W,41.1,25.1,190110,,,A*7D
$GPRMC,175422.9,A,3333.474448,N,11742.531679,W,42.2,26.4,190110,,,A*7F
$GPRMC,175425.9,A,3333.507915,N,11742.515299,W,42.9,22.1,190110,,,A*7E
$GPRMC,175428.9,A,3333.544253,N,11742.505942,W,43.4,13.8,190110,,,A*76
$GPRMC,175431.9,A,3333.582528,N,11742.500210,W,44.3,7.0,190110,,,A*4B
$GPRMC,175434.9,A,3333.618984,N,11742.497543,W,44.0,4.5,190110,,,A*4F
$GPRMC,175437.9,A,3333.655788,N,11742.492919,W,44.4,5.9,190110,,,A*48
$GPRMC,175440.9,A,3333.691434,N,11742.486914,W,44.1,6.4,190110,,,A*47
$GPRMC,175443.9,A,3333.725221,N,11742.482358,W,39.7,5.5,190110,,,A*40
$GPRMC,175446.9,A,3333.752071,N,11742.478164,W,31.5,5.6,190110,,,A*43
$GPRMC,175449.9,A,3333.772776,N,11742.478074,W,23.5,359.2,190110,,,A*43
$GPRMC,175452.9,A,3333.786343,N,11742.476744,W,15.6,0.7,190110,,,A*46
$GPRMC,175455.9,A,3333.790220,N,11742.476679,W,5.5,353.3,190110,,,A*7E
$GPRMC,175504.9,A,3333.795287,N,11742.474187,W,10.5,9.7,190110,,,A*4B
$GPRMC,175507.9,A,3333.811738,N,11742.472394,W,20.6,9.3,190110,,,A*48
$GPRMC,175510.9,A,3333.837163,N,11742.470944,W,29.0,5.6,190110,,,A*41
$GPRMC,175513.9,A,3333.860675,N,11742.467851,W,26.5,2.5,190110,,,A*4D
$GPRMC,175516.9,A,3333.880728,N,11742.468282,W,20.5,0.1,190110,,,A*44
$GPRMC,175519.9,A,3333.890440,N,11742.470506,W,12.7,338.9,190110,,,A*46
$GPRMC,175522.9,A,3333.894861,N,11742.482095,W,12.2,297.2,190110,,,A*4D
$GPRMC,175525.9,A,3333.897128,N,11742.493588,W,12.4,281.4,190110,,,A*43
$GPRMC,175528.9,A,3333.894048,N,11742.508865,W,14.5,266.5,190110,,,A*48
$GPRMC,175531.9,A,3333.896444,N,11742.519178,W,8.2,281.2,190110,,,A*7B
$GPRMC,175534.9,A,3333.898660,N,11742.524518,W,5.5,308.4,190110,,,A*74
$GPRMC,175537.9,A,3333.904952,N,11742.524194,W,8.9,4.2,190110,,,A*75
$GPRMC,175540.9,A,3333.915495,N,11742.520774,W,11.7,8.5,190110,,,A*42
$GPRMC,175821.9,A,3334.123986,N,11742.538178,W,6.2,267.9,190110,,,A*7A
$GPRMC,175827.9,A,3334.115832,N,11742.548908,W,7.5,223.6,190110,,,A*76
$GPRMC,175830.9,A,3334.106289,N,11742.548749,W,8.3,189.8,190110,,,A*77
$GPRMC,175833.2,A,3334.100883,N,11742.547940,W,7.6,179.4,190110,,,A*78
$GPRMC,175836.2,A,3334.094390,N,11742.548130,W,9.8,183.1,190110,,,A*78
$GPRMC,175839.2,A,3334.086410,N,11742.548440,W,9.8,180.5,190110,,,A*7E
$GPRMC,175842.9,A,3334.078176,N,11742.548673,W,8.3,177.3,190110,,,A*7B
$GPRMC,175845.9,A,3334.069192,N,11742.541741,W,10.8,156.0,190110,,,A*4D
$GPRMC,175848.9,A,3334.061570,N,11742.535741,W,9.4,147.1,190110,,,A*76
$GPRMC,175903.9,A,3334.042888,N,11742.539168,W,8.3,189.8,190110,,,A*7F
$GPRMC,175906.9,A,3334.034754,N,11742.538104,W,7.6,180.8,190110,,,A*7D
$GPRMC,175909.9,A,3334.030886,N,11742.534343,W,5.3,165.0,190110,,,A*7F
$GPRMC,175912.9,A,3334.027428,N,11742.539529,W,5.9,202.9,190110,,,A*7D
$GPRMC,175915.9,A,3334.021376,N,11742.544094,W,7.9,212.6,190110,,,A*75
$GPRMC,175918.9,A,3334.014220,N,11742.549083,W,9.0,211.7,190110,,,A*72
$GPRMC,175921.9,A,3334.006995,N,11742.552120,W,9.6,199.8,190110,,,A*76
$GPRMC,175924.9,A,3333.994541,N,11742.552734,W,12.1,182.0,190110,,,A*4F
$GPRMC,175927.9,A,3333.985733,N,11742.550375,W,10.7,164.1,190110,,,A*45
$GPRMC,175930.9,A,3333.978155,N,11742.547651,W,10.1,160.6,190110,,,A*47
