NMEA Sentence Code,UTC Time,Status,Latitude,Latitude Direction,Longitude,Longitude Direction,Speed (knots),Track Angle (degrees true),Date,MagneticVariation,Magnetic Variation Direction,[FAA Mode]-Optional,Checksum
$GPRMC,215804.0,A,3338.980282,N,11744.652210,W,6.8,322.5,301210,,,A*78
$GPRMC,215807.0,A,3338.987658,N,11744.655837,W,9.0,335.8,301210,,,A*7B
$GPRMC,215810.0,A,3338.991736,N,11744.657389,W,7.1,346.1,301210,,,A*7D
$GPRMC,215813.0,A,3338.992612,N,11744.656900,W,5.8,355.9,301210,,,A*71
$GPRMC,215816.0,A,3338.995729,N,11744.655574,W,6.0,344.6,301210,,,A*72
$GPRMC,215819.0,A,3339.006166,N,11744.662373,W,10.1,326.9,301210,,,A*4A
$GPRMC,215822.0,A,3339.009739,N,11744.674845,W,8.6,285.6,301210,,,A*71
$GPRMC,215825.0,A,3339.009073,N,11744.679622,W,4.5,270.4,301210,,,A*7A
$GPRMC,215840.0,A,3339.006780,N,11744.699965,W,9.1,260.8,301210,,,A*7B
$GPRMC,215843.0,A,3339.004715,N,11744.709056,W,9.1,254.0,301210,,,A*78
$GPRMC,215846.0,A,3339.002597,N,11744.717072,W,7.8,246.8,301210,,,A*76
$GPRMC,215849.0,A,3339.001312,N,11744.723645,W,5.2,244.1,301210,,,A*77
$GPRMC,215904.0,A,3338.979696,N,11744.729638,W,10.6,160.6,301210,,,A*43
$GPRMC,215907.0,A,3338.968814,N,11744.722128,W,13.5,151.6,301210,,,A*4B
$GPRMC,215910.0,A,3338.954989,N,11744.716891,W,16.4,165.4,301210,,,A*4A
$GPRMC,215913.0,A,3338.939361,N,11744.712849,W,18.3,169.4,301210,,,A*4A
$GPRMC,215916.0,A,3338.926117,N,11744.715261,W,14.7,189.5,301210,,,A*42
$GPRMC,215919.0,A,3338.921652,N,11744.717920,W,7.4,208.7,301210,,,A*79
$GPRMC,215922.0,A,3338.916697,N,11744.726315,W,8.6,240.2,301210,,,A*76
$GPRMC,215925.0,A,3338.916194,N,11744.738085,W,8.9,257.6,301210,,,A*7D
$GPRMC,215928.0,A,3338.921971,N,11744.759304,W,14.8,279.3,301210,,,A*4F
$GPRMC,215931.0,A,3338.931814,N,11744.795585,W,27.5,289.0,301210,,,A*4A
$GPRMC,215934.0,A,3338.938673,N,11744.819703,W,20.3,282.2,301210,,,A*46
$GPRMC,215937.0,A,3338.941126,N,11744.834123,W,12.8,270.5,301210,,,A*47
$GPRMC,220034.0,A,3338.937376,N,11744.853547,W,6.6,244.0,301210,,,A*73
$GPRMC,220040.0,A,3338.918048,N,11744.849334,W,10.1,155.4,301210,,,A*4D
$GPRMC,220043.0,A,3338.892205,N,11744.834830,W,24.0,152.5,301210,,,A*43
$GPRMC,220046.0,A,3338.864547,N,11744.821893,W,27.4,155.5,301210,,,A*43
$GPRMC,220049.0,A,3338.841279,N,11744.813771,W,24.0,170.6,301210,,,A*40
$GPRMC,220052.0,A,3338.822207,N,11744.813714,W,21.6,179.0,301210,,,A*49
$GPRMC,220055.0,A,3338.810687,N,11744.827238,W,19.3,210.1,301210,,,A*4C
$GPRMC,220058.0,A,3338.805619,N,11744.849563,W,19.6,238.9,301210,,,A*44
$GPRMC,220101.0,A,3338.825025,N,11744.864449,W,14.6,289.3,301210,,,A*49
$GPRMC,220104.0,A,3338.852181,N,11744.860284,W,12.2,346.4,301210,,,A*47
$GPRMC,220107.0,A,3338.863174,N,11744.852953,W,12.2,12.5,301210,,,A*7F
$GPRMC,220110.0,A,3338.866536,N,11744.802308,W,22.9,74.1,301210,,,A*73
$GPRMC,220113.0,A,3338.844765,N,11744.739052,W,41.4,105.3,301210,,,A*42
$GPRMC,220116.0,A,3338.829146,N,11744.689843,W,46.4,108.2,301210,,,A*42
$GPRMC,220119.0,A,3338.815272,N,11744.642437,W,48.2,108.5,301210,,,A*41
$GPRMC,220122.0,A,3338.801104,N,11744.594064,W,51.2,109.8,301210,,,A*40
$GPRMC,220125.0,A,3338.787531,N,11744.543733,W,53.6,108.3,301210,,,A*47
$GPRMC,220128.0,A,3338.773522,N,11744.491436,W,55.3,107.7,301210,,,A*43
$GPRMC,220131.0,A,3338.758206,N,11744.435881,W,57.4,108.8,301210,,,A*48
$GPRMC,220134.0,A,3338.743302,N,11744.383959,W,56.0,109.1,301210,,,A*41
$GPRMC,220137.0,A,3338.726530,N,11744.328376,W,57.8,109.3,301210,,,A*4B
$GPRMC,220140.0,A,3338.709495,N,11744.275697,W,57.2,111.2,301210,,,A*49
$GPRMC,220143.0,A,3338.688539,N,11744.222417,W,56.8,114.5,301210,,,A*44
$GPRMC,220146.0,A,3338.664682,N,11744.175959,W,54.6,122.4,301210,,,A*4E
$GPRMC,220149.0,A,3338.636870,N,11744.134929,W,52.5,130.8,301210,,,A*4D
$GPRMC,220152.0,A,3338.607302,N,11744.100705,W,49.9,134.8,301210,,,A*4E
$GPRMC,220155.0,A,3338.577854,N,11744.067175,W,49.0,136.6,301210,,,A*41
$GPRMC,220158.0,A,3338.542352,N,11744.034986,W,51.9,142.4,301210,,,A*44
$GPRMC,220201.0,A,3338.504055,N,11744.003873,W,54.3,146.8,301210,,,A*45
$GPRMC,220204.0,A,3338.464033,N,11743.973488,W,56.4,148.3,301210,,,A*46
$GPRMC,220207.0,A,3338.422290,N,11743.944156,W,58.1,147.4,301210,,,A*4D
$GPRMC,220210.0,A,3338.380830,N,11743.912596,W,59.2,146.7,301210,,,A*4F
$GPRMC,220213.0,A,3338.338158,N,11743.878560,W,61.7,146.1,301210,,,A*44
$GPRMC,220216.0,A,3338.298000,N,11743.844155,W,61.1,145.9,301210,,,A*46
$GPRMC,220219.0,A,3338.255391,N,11743.810192,W,61.6,146.0,301210,,,A*44
$GPRMC,220222.0,A,3338.213219,N,11743.776601,W,61.5,146.3,301210,,,A*4D
$GPRMC,220225.0,A,3338.170265,N,11743.741421,W,62.5,145.4,301210,,,A*44
$GPRMC,220228.0,A,3338.128287,N,11743.706184,W,61.7,145.5,301210,,,A*41
$GPRMC,220231.0,A,3338.086172,N,11743.671027,W,61.0,145.9,301210,,,A*47
$GPRMC,220234.0,A,3338.045781,N,11743.638315,W,58.8,145.7,301210,,,A*44
$GPRMC,220237.0,A,3338.007841,N,11743.607847,W,55.0,143.9,301210,,,A*4F
$GPRMC,220240.0,A,3337.973990,N,11743.573951,W,52.0,140.6,301210,,,A*4A
$GPRMC,220243.0,A,3337.941620,N,11743.539386,W,52.0,138.3,301210,,,A*48
$GPRMC,220246.0,A,3337.910402,N,11743.504870,W,50.4,136.9,301210,,,A*45
$GPRMC,220249.0,A,3337.881485,N,11743.469211,W,48.6,136.5,301210,,,A*4C
$GPRMC,220252.0,A,3337.850403,N,11743.439459,W,46.7,145.4,301210,,,A*41
$GPRMC,220255.0,A,3337.816215,N,11743.422915,W,42.5,159.4,301210,,,A*41
$GPRMC,220258.0,A,3337.782811,N,11743.418404,W,38.2,174.6,301210,,,A*43
$GPRMC,220301.0,A,3337.754268,N,11743.423506,W,33.7,186.7,301210,,,A*48
$GPRMC,220304.0,A,3337.739778,N,11743.428732,W,20.0,192.3,301210,,,A*48
$GPRMC,220307.0,A,3337.738584,N,11743.428429,W,5.8,195.5,301210,,,A*7C
$GPRMC,220419.0,A,3337.736317,N,11743.430368,W,5.6,169.6,301210,,,A*73
$GPRMC,220422.0,A,3337.728970,N,11743.426330,W,8.1,150.8,301210,,,A*7B
$GPRMC,220425.0,A,3337.726316,N,11743.419555,W,7.4,124.2,301210,,,A*72
$GPRMC,220428.0,A,3337.726840,N,11743.404421,W,10.5,98.8,301210,,,A*72
$GPRMC,220431.0,A,3337.725356,N,11743.379344,W,17.2,93.0,301210,,,A*7F
$GPRMC,220434.0,A,3337.721717,N,11743.329985,W,29.1,89.0,301210,,,A*78
$GPRMC,220437.0,A,3337.705877,N,11743.257646,W,41.4,96.5,301210,,,A*7C
$GPRMC,220440.0,A,3337.701147,N,11743.211014,W,37.4,93.1,301210,,,A*71
$GPRMC,220443.0,A,3337.699082,N,11743.176940,W,30.5,91.6,301210,,,A*73
$GPRMC,220446.0,A,3337.699859,N,11743.151580,W,24.3,87.0,301210,,,A*7F
$GPRMC,220449.0,A,3337.704147,N,11743.133794,W,18.3,73.3,301210,,,A*77
$GPRMC,220452.0,A,3337.705556,N,11743.126790,W,9.4,60.9,301210,,,A*47
$GPRMC,220501.0,A,3337.703955,N,11743.127290,W,9.1,76.9,301210,,,A*4F
$GPRMC,220504.0,A,3337.706794,N,11743.110421,W,18.1,76.5,301210,,,A*78
$GPRMC,220507.0,A,3337.711760,N,11743.091163,W,21.2,73.2,301210,,,A*76
$GPRMC,220510.0,A,3337.717703,N,11743.071815,W,20.2,68.6,301210,,,A*7A
$GPRMC,220513.0,A,3337.725261,N,11743.057434,W,13.9,59.1,301210,,,A*7C
$GPRMC,220516.0,A,3337.727722,N,11743.050515,W,8.7,61.0,301210,,,A*42
$GPRMC,220616.0,A,3337.729226,N,11743.044700,W,4.6,75.8,301210,,,A*4D
$GPRMC,220619.0,A,3337.731691,N,11743.038348,W,6.5,62.9,301210,,,A*46
$GPRMC,220622.0,A,3337.742318,N,11743.021109,W,16.9,53.3,301210,,,A*74
$GPRMC,220625.0,A,3337.756609,N,11742.999990,W,22.8,49.6,301210,,,A*78
$GPRMC,220628.0,A,3337.772378,N,11742.976230,W,26.1,50.2,301210,,,A*71
$GPRMC,220631.0,A,3337.791297,N,11742.950985,W,31.1,47.7,301210,,,A*70
$GPRMC,220634.0,A,3337.810724,N,11742.924404,W,34.4,47.5,301210,,,A*7B
$GPRMC,220637.0,A,3337.831190,N,11742.898547,W,30.5,44.8,301210,,,A*79
$GPRMC,220640.0,A,3337.846559,N,11742.877984,W,23.9,48.0,301210,,,A*70
$GPRMC,220643.0,A,3337.853888,N,11742.866408,W,14.8,53.1,301210,,,A*71
$GPRMC,220734.0,A,3337.855767,N,11742.864531,W,4.6,55.6,301210,,,A*4F
$GPRMC,220737.0,A,3337.859836,N,11742.859221,W,6.0,46.5,301210,,,A*46
$GPRMC,220740.0,A,3337.866297,N,11742.856879,W,6.7,28.7,301210,,,A*4E
$GPRMC,220743.0,A,3337.880495,N,11742.859491,W,10.6,4.0,301210,,,A*4B
$GPRMC,220746.0,A,3337.902311,N,11742.879709,W,20.1,331.2,301210,,,A*4D
$GPRMC,220749.0,A,3337.923376,N,11742.902014,W,22.6,325.5,301210,,,A*41
$GPRMC,220752.0,A,3337.938846,N,11742.921365,W,17.6,322.1,301210,,,A*48
$GPRMC,220755.0,A,3337.946322,N,11742.936957,W,15.6,299.3,301210,,,A*43
$GPRMC,220758.0,A,3337.945664,N,11742.949341,W,10.7,274.5,301210,,,A*4E
$GPRMC,220801.0,A,3337.936565,N,11742.956808,W,8.9,210.1,301210,,,A*72
$GPRMC,220804.0,A,3337.930529,N,11742.957695,W,6.7,176.0,301210,,,A*70
$GPRMC,220807.0,A,3337.924680,N,11742.955599,W,5.9,148.6,301210,,,A*7D
$GPRMC,220810.0,A,3337.920980,N,11742.952076,W,5.8,143.7,301210,,,A*78
$GPRMC,221116.0,A,3337.916717,N,11742.950711,W,5.5,145.6,301210,,,A*7D
$GPRMC,221119.0,A,3337.912509,N,11742.947458,W,6.1,146.3,301210,,,A*72
$GPRMC,221258.0,A,3337.913663,N,11742.951126,W,6.1,312.0,301210,,,A*71
$GPRMC,221301.0,A,3337.917499,N,11742.956239,W,6.2,313.8,301210,,,A*7F
$GPRMC,221304.0,A,3337.924241,N,11742.957254,W,6.7,334.7,301210,,,A*7C
$GPRMC,221307.0,A,3337.927732,N,11742.960131,W,4.8,333.4,301210,,,A*70
$GPRMC,221310.0,A,3337.931820,N,11742.957586,W,4.4,18.1,301210,,,A*42
$GPRMC,221313.0,A,3337.938250,N,11742.953041,W,7.6,41.4,301210,,,A*47
$GPRMC,221316.0,A,3337.940461,N,11742.948014,W,4.8,67.2,301210,,,A*4C
$GPRMC,221331.0,A,3337.936018,N,11742.933165,W,6.9,122.5,301210,,,A*7D
$GPRMC,221334.0,A,3337.921685,N,11742.925622,W,11.5,152.5,301210,,,A*42
$GPRMC,221337.0,A,3337.908367,N,11742.918097,W,13.9,161.8,301210,,,A*46
$GPRMC,221340.0,A,3337.889494,N,11742.895885,W,19.0,142.2,301210,,,A*42
$GPRMC,221343.0,A,3337.880010,N,11742.885125,W,8.3,150.4,301210,,,A*74
$GPRMC,221401.0,A,3337.859684,N,11742.872854,W,5.7,201.4,301210,,,A*73
$GPRMC,221404.0,A,3337.851385,N,11742.880306,W,9.4,214.2,301210,,,A*76
$GPRMC,221407.0,A,3337.844422,N,11742.890196,W,9.5,221.1,301210,,,A*75
$GPRMC,221437.0,A,3337.831891,N,11742.910812,W,6.6,226.6,301210,,,A*70
$GPRMC,221440.0,A,3337.819657,N,11742.926392,W,16.2,226.0,301210,,,A*4B
$GPRMC,221443.0,A,3337.801765,N,11742.948931,W,25.7,227.5,301210,,,A*4B
$GPRMC,221446.0,A,3337.783206,N,11742.977352,W,27.4,229.5,301210,,,A*47
$GPRMC,221449.0,A,3337.772496,N,11742.994349,W,17.0,231.6,301210,,,A*43
$GPRMC,221452.0,A,3337.766959,N,11743.003067,W,7.5,232.6,301210,,,A*7C
$GPRMC,221634.0,A,3337.757712,N,11743.014365,W,5.7,213.2,301210,,,A*7D
$GPRMC,221637.0,A,3337.752105,N,11743.025767,W,9.6,239.0,301210,,,A*78
$GPRMC,221640.0,A,3337.744342,N,11743.046146,W,16.2,248.7,301210,,,A*45
$GPRMC,221643.0,A,3337.736031,N,11743.077478,W,23.9,263.0,301210,,,A*4D
$GPRMC,221646.0,A,3337.725675,N,11743.133904,W,36.7,264.9,301210,,,A*4F
$GPRMC,221649.0,A,3337.728636,N,11743.180917,W,40.1,276.0,301210,,,A*4D
$GPRMC,221652.0,A,3337.740927,N,11743.222545,W,40.5,291.4,301210,,,A*4F
$GPRMC,221655.0,A,3337.760212,N,11743.258496,W,40.3,301.3,301210,,,A*4C
$GPRMC,221658.0,A,3337.787119,N,11743.287149,W,40.5,310.0,301210,,,A*40
$GPRMC,221701.0,A,3337.826311,N,11743.325422,W,53.0,315.9,301210,,,A*49
$GPRMC,221704.0,A,3337.863280,N,11743.364966,W,56.6,315.7,301210,,,A*41
$GPRMC,221707.0,A,3337.898639,N,11743.407723,W,59.7,315.5,301210,,,A*41
$GPRMC,221710.0,A,3337.936244,N,11743.451482,W,61.4,315.3,301210,,,A*49
$GPRMC,221713.0,A,3337.974882,N,11743.495535,W,63.6,316.4,301210,,,A*4D
$GPRMC,221716.0,A,3338.016464,N,11743.536923,W,63.2,321.3,301210,,,A*4A
$GPRMC,221719.0,A,3338.058543,N,11743.574255,W,62.2,323.9,301210,,,A*4E
$GPRMC,221722.0,A,3338.101008,N,11743.612363,W,62.3,324.3,301210,,,A*4A
$GPRMC,221725.0,A,3338.145542,N,11743.650482,W,63.2,324.7,301210,,,A*4C
$GPRMC,221728.0,A,3338.191503,N,11743.685662,W,64.7,326.9,301210,,,A*47
$GPRMC,221731.0,A,3338.238233,N,11743.720714,W,64.7,327.5,301210,,,A*48
$GPRMC,221734.0,A,3338.284361,N,11743.755412,W,64.3,326.8,301210,,,A*43
