NMEA Sentence Code,UTC Time,Status,Latitude,Latitude Direction,Longitude,Longitude Direction,Speed (knots),Track Angle (degrees true),Date,MagneticVariation,Magnetic Variation Direction,[FAA Mode]-Optional,Checksum
$GPRMC,172832.8,A,3247.6249,N,11658.1435,W,26.50,220.20,120310,,*25
$GPRMC,172835.8,A,3247.6090,N,11658.1591,W,24.50,220.70,120310,,*2C
$GPRMC,172838.8,A,3247.5907,N,11658.1759,W,26.10,219.60,120310,,*2E
$GPRMC,172841.8,A,3247.5727,N,11658.1936,W,28.10,219.60,120310,,*25
$GPRMC,172844.8,A,3247.5549,N,11658.2092,W,26.20,218.00,120310,,*24
$GPRMC,172847.8,A,3247.5397,N,11658.2243,W,25.20,219.50,120310,,*2B
$GPRMC,172851.8,A,3247.5171,N,11658.2476,W,28.00,220.90,120310,,*2F
$GPRMC,172854.8,A,3247.4971,N,11658.2660,W,29.70,221.00,120310,,*28
$GPRMC,172857.8,A,3247.4766,N,11658.2854,W,31.10,220.00,120310,,*24
$GPRMC,172900.8,A,3247.4557,N,11658.3060,W,33.80,219.00,120310,,*28
$GPRMC,172903.8,A,3247.4340,N,11658.3304,W,35.70,222.10,120310,,*2A
$GPRMC,172906.8,A,3247.4103,N,11658.3537,W,36.30,220.70,120310,,*2F
$GPRMC,172910.8,A,3247.3797,N,11658.3844,W,35.60,220.60,120310,,*2A
$GPRMC,172913.8,A,3247.3595,N,11658.4043,W,30.00,220.50,120310,,*21
$GPRMC,172916.8,A,3247.3423,N,11658.4226,W,26.10,219.30,120310,,*23
$GPRMC,172919.8,A,3247.3279,N,11658.4382,W,24.40,218.90,120310,,*26
$GPRMC,172922.8,A,3247.3132,N,11658.4513,W,20.90,220.10,120310,,*26
$GPRMC,172925.8,A,3247.3007,N,11658.4620,W,16.90,219.50,120310,,*2E
$GPRMC,172928.8,A,3247.2920,N,11658.4699,W,11.90,217.30,120310,,*23
$GPRMC,172931.8,A,3247.2870,N,11658.4742,W,5.40,219.60,120310,,*1B
$GPRMC,172946.8,A,3247.2805,N,11658.4817,W,10.00,220.00,120310,,*2A
$GPRMC,172949.8,A,3247.2686,N,11658.4923,W,17.60,219.70,120310,,*2A
$GPRMC,172952.8,A,3247.2549,N,11658.5058,W,19.70,220.10,120310,,*27
$GPRMC,172956.8,A,3247.2380,N,11658.5237,W,20.80,220.00,120310,,*2F
$GPRMC,172959.8,A,3247.2234,N,11658.5389,W,22.90,220.10,120310,,*28
$GPRMC,173002.8,A,3247.2089,N,11658.5531,W,20.90,219.60,120310,,*20
$GPRMC,173005.8,A,3247.1958,N,11658.5639,W,17.70,216.20,120310,,*2B
$GPRMC,173008.8,A,3247.1889,N,11658.5716,W,8.70,217.80,120310,,*12
$GPRMC,173012.8,A,3247.1832,N,11658.5769,W,7.10,220.80,120310,,*1C
$GPRMC,173015.8,A,3247.1761,N,11658.5824,W,11.10,218.60,120310,,*26
$GPRMC,173018.8,A,3247.1673,N,11658.5935,W,16.20,222.50,120310,,*26
$GPRMC,173021.8,A,3247.1521,N,11658.6072,W,23.90,219.90,120310,,*28
$GPRMC,173024.8,A,3247.1363,N,11658.6214,W,23.00,218.30,120310,,*2D
$GPRMC,173027.8,A,3247.1230,N,11658.6354,W,21.20,218.90,120310,,*26
$GPRMC,173030.8,A,3247.1148,N,11658.6427,W,14.80,214.10,120310,,*27
$GPRMC,173033.8,A,3247.1078,N,11658.6480,W,9.30,214.50,120310,,*18
$GPRMC,173040.8,A,3247.1039,N,11658.6529,W,5.80,227.40,120310,,*1D
$GPRMC,173043.8,A,3247.0949,N,11658.6628,W,17.10,219.90,120310,,*29
$GPRMC,173046.8,A,3247.0823,N,11658.6778,W,21.80,220.20,120310,,*28
$GPRMC,173049.8,A,3247.0681,N,11658.6914,W,21.00,221.20,120310,,*2C
$GPRMC,173052.8,A,3247.0557,N,11658.7019,W,19.00,217.80,120310,,*2F
$GPRMC,173055.8,A,3247.0485,N,11658.7071,W,6.30,213.20,120310,,*1B
$GPRMC,173109.8,A,3247.0398,N,11658.7127,W,7.00,218.00,120310,,*11
$GPRMC,173112.8,A,3247.0353,N,11658.7166,W,8.00,219.20,120310,,*15
$GPRMC,173115.8,A,3247.0285,N,11658.7241,W,12.30,221.90,120310,,*26
$GPRMC,173118.8,A,3247.0188,N,11658.7344,W,18.00,224.00,120310,,*24
$GPRMC,173121.8,A,3247.0056,N,11658.7483,W,22.50,225.40,120310,,*29
$GPRMC,173124.8,A,3246.9920,N,11658.7681,W,26.70,229.40,120310,,*26
$GPRMC,173127.8,A,3246.9762,N,11658.7933,W,31.30,234.70,120310,,*26
$GPRMC,173129.8,A,3246.9682,N,11658.8118,W,31.50,233.60,120310,,*29
$GPRMC,173131.8,A,3246.9612,N,11658.8288,W,29.80,240.90,120310,,*2C
$GPRMC,173134.8,A,3246.9522,N,11658.8499,W,20.80,244.50,120310,,*2E
$GPRMC,173139.8,A,3246.9465,N,11658.8724,W,12.70,250.60,120310,,*2C
$GPRMC,173142.8,A,3246.9423,N,11658.8806,W,10.30,240.40,120310,,*28
$GPRMC,173145.8,A,3246.9395,N,11658.8871,W,11.10,247.90,120310,,*2C
$GPRMC,173148.8,A,3246.9325,N,11658.8985,W,15.20,246.40,120310,,*2B
$GPRMC,173151.8,A,3246.9259,N,11658.9167,W,17.00,240.90,120310,,*27
$GPRMC,173154.8,A,3246.9165,N,11658.9336,W,20.10,230.80,120310,,*2B
$GPRMC,173157.8,A,3246.8909,N,11658.9413,W,27.20,207.50,120310,,*26
$GPRMC,173203.8,A,3246.8513,N,11658.9677,W,27.60,212.70,120310,,*21
$GPRMC,173206.8,A,3246.8328,N,11658.9841,W,27.60,218.60,120310,,*2A
$GPRMC,173209.8,A,3246.8143,N,11659.0032,W,30.60,221.20,120310,,*26
$GPRMC,173212.8,A,3246.7949,N,11659.0265,W,33.40,227.80,120310,,*2C
$GPRMC,173215.8,A,3246.7750,N,11659.0580,W,39.20,235.90,120310,,*2F
$GPRMC,173218.8,A,3246.7607,N,11659.0962,W,41.40,248.40,120310,,*2F
$GPRMC,173221.8,A,3246.7521,N,11659.1381,W,45.00,258.10,120310,,*20
$GPRMC,173223.8,A,3246.7481,N,11659.1679,W,45.70,261.00,120310,,*27
$GPRMC,173225.8,A,3246.7463,N,11659.1993,W,46.60,267.00,120310,,*22
$GPRMC,173228.8,A,3246.7462,N,11659.2431,W,44.30,270.50,120310,,*2C
$GPRMC,173231.8,A,3246.7463,N,11659.2910,W,49.10,270.70,120310,,*26
$GPRMC,173234.8,A,3246.7483,N,11659.3406,W,49.30,271.80,120310,,*2A
$GPRMC,173237.8,A,3246.7489,N,11659.3939,W,54.20,271.00,120310,,*27
$GPRMC,173241.8,A,3246.7517,N,11659.4735,W,61.70,272.00,120310,,*25
$GPRMC,173245.8,A,3246.7546,N,11659.5549,W,61.60,271.90,120310,,*26
$GPRMC,173248.8,A,3246.7557,N,11659.6150,W,59.60,272.20,120310,,*27
$GPRMC,173251.8,A,3246.7583,N,11659.6744,W,61.30,273.00,120310,,*28
$GPRMC,173254.8,A,3246.7614,N,11659.7347,W,61.70,273.00,120310,,*22
$GPRMC,173257.8,A,3246.7640,N,11659.7970,W,64.10,273.20,120310,,*2F
$GPRMC,173300.8,A,3246.7667,N,11659.8608,W,65.20,272.90,120310,,*2E
$GPRMC,173303.8,A,3246.7679,N,11659.9256,W,65.00,269.50,120310,,*28
$GPRMC,173306.8,A,3246.7602,N,11659.9912,W,64.10,260.40,120310,,*22
$GPRMC,173309.8,A,3246.7451,N,11700.0529,W,64.20,251.60,120310,,*2A
$GPRMC,173312.8,A,3246.7238,N,11700.1112,W,64.10,245.70,120310,,*23
$GPRMC,173315.8,A,3246.6968,N,11700.1663,W,65.00,240.70,120310,,*2F
$GPRMC,173318.8,A,3246.6642,N,11700.2225,W,68.20,236.80,120310,,*21
$GPRMC,173321.8,A,3246.6360,N,11700.2856,W,71.40,242.40,120310,,*21
$GPRMC,173324.8,A,3246.6156,N,11700.3481,W,69.10,247.70,120310,,*2E
$GPRMC,173327.8,A,3246.5945,N,11700.4110,W,69.00,247.70,120310,,*2F
$GPRMC,173330.8,A,3246.5730,N,11700.4747,W,68.40,247.80,120310,,*2B
$GPRMC,173334.8,A,3246.5442,N,11700.5553,W,66.10,247.50,120310,,*29
$GPRMC,173337.8,A,3246.5228,N,11700.6135,W,64.80,249.10,120310,,*26
$GPRMC,173340.8,A,3246.5013,N,11700.6734,W,66.70,247.00,120310,,*29
$GPRMC,173343.8,A,3246.4787,N,11700.7327,W,66.70,246.50,120310,,*22
$GPRMC,173346.8,A,3246.4554,N,11700.7937,W,66.80,246.50,120310,,*2F
$GPRMC,173349.8,A,3246.4346,N,11700.8549,W,66.50,247.90,120310,,*2F
$GPRMC,173353.8,A,3246.4056,N,11700.9362,W,66.30,244.90,120310,,*2D
$GPRMC,173356.8,A,3246.3780,N,11700.9939,W,66.40,241.50,120310,,*29
$GPRMC,173402.8,A,3246.3199,N,11701.1055,W,66.60,239.10,120310,,*22
$GPRMC,173405.8,A,3246.2893,N,11701.1585,W,66.00,238.80,120310,,*21
$GPRMC,173408.8,A,3246.2741,N,11701.2200,W,65.20,253.00,120310,,*21
$GPRMC,173411.8,A,3246.2634,N,11701.2822,W,64.40,259.30,120310,,*2E
$GPRMC,173414.8,A,3246.2583,N,11701.3459,W,64.30,266.00,120310,,*2D
$GPRMC,173417.8,A,3246.2598,N,11701.4121,W,67.90,273.10,120310,,*25
$GPRMC,173421.8,A,3246.2731,N,11701.4985,W,65.90,283.00,120310,,*2B
$GPRMC,173425.8,A,3246.3028,N,11701.5763,W,63.80,296.60,120310,,*23
$GPRMC,173428.8,A,3246.3276,N,11701.6304,W,62.40,297.20,120310,,*29
$GPRMC,173431.8,A,3246.3523,N,11701.6878,W,64.70,297.00,120310,,*21
$GPRMC,173434.8,A,3246.3766,N,11701.7461,W,65.50,297.10,120310,,*20
$GPRMC,173437.8,A,3246.4049,N,11701.8037,W,65.20,299.00,120310,,*2E
$GPRMC,173442.8,A,3246.4391,N,11701.9086,W,68.50,288.50,120310,,*2E
$GPRMC,173445.8,A,3246.4480,N,11701.9697,W,64.00,284.40,120310,,*2C
$GPRMC,173448.8,A,3246.4523,N,11702.0301,W,60.90,277.60,120310,,*2A
$GPRMC,173451.8,A,3246.4418,N,11702.0946,W,63.00,266.10,120310,,*2F
$GPRMC,173453.8,A,3246.4301,N,11702.1347,W,60.70,258.60,120310,,*26
$GPRMC,173455.8,A,3246.4158,N,11702.1788,W,66.10,254.50,120310,,*26
$GPRMC,173458.8,A,3246.4004,N,11702.2414,W,65.80,254.10,120310,,*28
$GPRMC,173501.8,A,3246.3851,N,11702.3054,W,66.40,254.40,120310,,*21
$GPRMC,173504.8,A,3246.3704,N,11702.3693,W,66.80,255.30,120310,,*2C
$GPRMC,173507.8,A,3246.3618,N,11702.4343,W,66.50,263.40,120310,,*23
$GPRMC,173510.8,A,3246.3617,N,11702.5020,W,68.30,272.90,120310,,*28
$GPRMC,173513.8,A,3246.3708,N,11702.5675,W,67.40,281.30,120310,,*2C
$GPRMC,173516.8,A,3246.3892,N,11702.6300,W,66.00,290.60,120310,,*21
$GPRMC,173519.8,A,3246.4141,N,11702.6863,W,64.90,298.30,120310,,*26
$GPRMC,173522.8,A,3246.4432,N,11702.7405,W,65.10,301.30,120310,,*2A
$GPRMC,173525.8,A,3246.4725,N,11702.7959,W,65.10,301.70,120310,,*28
$GPRMC,173527.8,A,3246.4916,N,11702.8330,W,64.40,301.40,120310,,*29
$GPRMC,173529.8,A,3246.5101,N,11702.8687,W,63.80,301.40,120310,,*2A
$GPRMC,173532.8,A,3246.5364,N,11702.9220,W,63.10,299.10,120310,,*25
$GPRMC,173535.8,A,3246.5606,N,11702.9799,W,64.70,295.80,120310,,*20
$GPRMC,173538.8,A,3246.5812,N,11703.0391,W,65.50,292.70,120310,,*29
$GPRMC,173541.8,A,3246.6014,N,11703.0984,W,64.70,289.50,120310,,*2F
$GPRMC,173544.8,A,3246.6176,N,11703.1614,W,66.00,286.10,120310,,*26
$GPRMC,173548.8,A,3246.6320,N,11703.2473,W,66.90,281.70,120310,,*23
$GPRMC,173550.8,A,3246.6391,N,11703.2872,W,64.20,281.30,120310,,*20
$GPRMC,173552.8,A,3246.6468,N,11703.3287,W,63.50,281.50,120310,,*24
$GPRMC,173555.8,A,3246.6573,N,11703.3891,W,62.20,281.30,120310,,*25
$GPRMC,173559.8,A,3246.6715,N,11703.4698,W,62.10,281.30,120310,,*28
$GPRMC,173602.8,A,3246.6834,N,11703.5313,W,64.40,283.40,120310,,*28
$GPRMC,173605.8,A,3246.7025,N,11703.5919,W,65.10,288.30,120310,,*2E
$GPRMC,173608.8,A,3246.7194,N,11703.6522,W,62.80,286.30,120310,,*2F
$GPRMC,173611.8,A,3246.7372,N,11703.7163,W,66.40,288.50,120310,,*2D
$GPRMC,173614.8,A,3246.7552,N,11703.7797,W,67.10,287.30,120310,,*2C
$GPRMC,173617.8,A,3246.7668,N,11703.8438,W,65.30,279.20,120310,,*2C
$GPRMC,173620.8,A,3246.7699,N,11703.9064,W,63.00,272.40,120310,,*22
$GPRMC,173623.8,A,3246.7683,N,11703.9660,W,60.10,268.30,120310,,*26
$GPRMC,173626.8,A,3246.7661,N,11704.0243,W,59.00,268.10,120310,,*2D
$GPRMC,173630.8,A,3246.7632,N,11704.1021,W,58.30,267.90,120310,,*2E
$GPRMC,173632.8,A,3246.7616,N,11704.1399,W,58.80,268.20,120310,,*25
$GPRMC,173634.8,A,3246.7606,N,11704.1791,W,59.60,268.10,120310,,*22
$GPRMC,173637.8,A,3246.7584,N,11704.2385,W,61.50,268.60,120310,,*25
$GPRMC,173640.8,A,3246.7576,N,11704.3020,W,64.30,269.30,120310,,*22
$GPRMC,173646.8,A,3246.7613,N,11704.4297,W,64.70,272.80,120310,,*28
$GPRMC,173649.8,A,3246.7654,N,11704.4950,W,67.70,274.70,120310,,*2E
$GPRMC,173652.8,A,3246.7721,N,11704.5602,W,66.50,276.80,120310,,*20
$GPRMC,173655.8,A,3246.7810,N,11704.6219,W,64.30,279.40,120310,,*20
$GPRMC,173658.8,A,3246.7895,N,11704.6828,W,64.20,280.10,120310,,*2A
$GPRMC,173702.8,A,3246.8017,N,11704.7696,W,66.20,279.90,120310,,*2F
$GPRMC,173705.8,A,3246.8127,N,11704.8327,W,65.30,281.00,120310,,*26
$GPRMC,173708.8,A,3246.8239,N,11704.8946,W,65.90,280.70,120310,,*26
$GPRMC,173711.8,A,3246.8363,N,11704.9577,W,65.50,282.60,120310,,*20
$GPRMC,173714.8,A,3246.8456,N,11705.0217,W,66.00,279.80,120310,,*21
$GPRMC,173717.8,A,3246.8564,N,11705.0842,W,65.10,278.80,120310,,*2B
$GPRMC,173720.8,A,3246.8623,N,11705.1483,W,65.40,274.10,120310,,*2F
$GPRMC,173724.8,A,3246.8620,N,11705.2350,W,64.70,268.20,120310,,*2E
$GPRMC,173726.8,A,3246.8590,N,11705.2774,W,64.70,265.80,120310,,*21
$GPRMC,173728.8,A,3246.8563,N,11705.3192,W,64.90,264.70,120310,,*2C
$GPRMC,173731.8,A,3246.8507,N,11705.3860,W,66.30,264.60,120310,,*2B
$GPRMC,173734.8,A,3246.8457,N,11705.4490,W,64.10,262.80,120310,,*26
$GPRMC,173737.8,A,3246.8402,N,11705.5116,W,65.30,263.50,120310,,*20
$GPRMC,173740.8,A,3246.8330,N,11705.5752,W,65.90,262.00,120310,,*2E
$GPRMC,173743.8,A,3246.8230,N,11705.6390,W,66.10,259.20,120310,,*24
$GPRMC,173746.8,A,3246.8114,N,11705.6992,W,63.60,258.10,120310,,*2C
$GPRMC,173750.8,A,3246.7980,N,11705.7799,W,62.80,257.90,120310,,*2D
$GPRMC,173752.8,A,3246.7916,N,11705.8207,W,62.90,258.70,120310,,*2D
$GPRMC,173754.8,A,3246.7853,N,11705.8615,W,63.40,259.50,120310,,*23
$GPRMC,173757.8,A,3246.7743,N,11705.9238,W,64.10,258.30,120310,,*21
$GPRMC,173800.8,A,3246.7633,N,11705.9871,W,64.00,257.70,120310,,*27
$GPRMC,173803.8,A,3246.7528,N,11706.0521,W,66.60,259.10,120310,,*23
$GPRMC,173806.8,A,3246.7447,N,11706.1166,W,67.20,261.50,120310,,*22
$GPRMC,173809.8,A,3246.7373,N,11706.1840,W,67.80,263.30,120310,,*2E
$GPRMC,173812.8,A,3246.7312,N,11706.2519,W,68.10,264.80,120310,,*2B
$GPRMC,173816.8,A,3246.7263,N,11706.3385,W,66.20,267.10,120310,,*2D
$GPRMC,173819.8,A,3246.7237,N,11706.4047,W,66.40,267.60,120310,,*28
$GPRMC,173822.8,A,3246.7250,N,11706.4673,W,66.20,269.00,120310,,*2E
$GPRMC,173825.8,A,3246.7239,N,11706.5343,W,67.00,269.10,120310,,*23
$GPRMC,173828.8,A,3246.7223,N,11706.5975,W,64.90,269.00,120310,,*21
$GPRMC,173831.8,A,3246.7212,N,11706.6656,W,68.40,269.90,120310,,*2E
$GPRMC,173834.8,A,3246.7213,N,11706.7334,W,69.10,270.30,120310,,*2C
$GPRMC,173837.8,A,3246.7207,N,11706.8003,W,67.80,268.90,120310,,*26
$GPRMC,173839.8,A,3246.7216,N,11706.8429,W,66.10,269.40,120310,,*20
$GPRMC,173841.8,A,3246.7212,N,11706.8869,W,65.90,269.00,120310,,*2C
$GPRMC,173844.8,A,3246.7185,N,11706.9515,W,64.90,267.30,120310,,*2F
$GPRMC,173847.8,A,3246.7125,N,11707.0169,W,64.10,262.10,120310,,*2E
$GPRMC,173850.8,A,3246.7010,N,11707.0767,W,63.00,256.50,120310,,*22
$GPRMC,173853.8,A,3246.6849,N,11707.1347,W,61.40,251.00,120310,,*27
$GPRMC,173856.8,A,3246.6668,N,11707.1881,W,58.60,246.70,120310,,*27
$GPRMC,173902.8,A,3246.6254,N,11707.2885,W,54.90,243.70,120310,,*2D
$GPRMC,173905.8,A,3246.5988,N,11707.3358,W,55.60,238.70,120310,,*2B
$GPRMC,173908.8,A,3246.5687,N,11707.3805,W,55.70,234.40,120310,,*2B
$GPRMC,173911.8,A,3246.5387,N,11707.4265,W,58.20,232.80,120310,,*2F
$GPRMC,173914.8,A,3246.5128,N,11707.4753,W,60.10,234.00,120310,,*2B
$GPRMC,173919.8,A,3246.4638,N,11707.5598,W,61.00,236.50,120310,,*22
$GPRMC,173922.8,A,3246.4423,N,11707.6077,W,56.60,239.00,120310,,*2D
$GPRMC,173925.8,A,3246.4202,N,11707.6551,W,55.20,241.80,120310,,*2E
$GPRMC,173928.8,A,3246.4028,N,11707.7032,W,55.10,248.40,120310,,*2E
$GPRMC,173931.8,A,3246.3875,N,11707.7534,W,52.60,250.80,120310,,*27
$GPRMC,173934.8,A,3246.3744,N,11707.8013,W,51.20,254.50,120310,,*2E
$GPRMC,173937.8,A,3246.3700,N,11707.8518,W,49.30,266.70,120310,,*28
$GPRMC,173940.8,A,3246.3787,N,11707.8949,W,43.60,284.40,120310,,*2F
$GPRMC,173942.8,A,3246.3957,N,11707.9256,W,49.10,299.30,120310,,*2C
$GPRMC,173944.8,A,3246.4178,N,11707.9497,W,51.30,313.60,120310,,*2E
$GPRMC,173947.8,A,3246.4504,N,11707.9836,W,49.80,318.30,120310,,*29
$GPRMC,173950.8,A,3246.4835,N,11708.0142,W,50.60,320.90,120310,,*2B
$GPRMC,173953.8,A,3246.5176,N,11708.0458,W,53.10,321.70,120310,,*22
$GPRMC,173956.8,A,3246.5540,N,11708.0794,W,55.90,322.60,120310,,*29
$GPRMC,173959.8,A,3246.5932,N,11708.1090,W,54.60,326.60,120310,,*27
$GPRMC,174002.8,A,3246.6315,N,11708.1381,W,54.00,326.90,120310,,*21
$GPRMC,174006.8,A,3246.6822,N,11708.1740,W,52.20,326.60,120310,,*28
$GPRMC,174009.8,A,3246.7223,N,11708.2017,W,53.80,328.50,120310,,*2D
$GPRMC,174012.8,A,3246.7615,N,11708.2321,W,56.60,329.20,120310,,*2D
$GPRMC,174015.8,A,3246.8031,N,11708.2611,W,58.40,327.80,120310,,*2B
$GPRMC,174018.8,A,3246.8450,N,11708.2940,W,59.00,327.50,120310,,*26
$GPRMC,174021.8,A,3246.8879,N,11708.3288,W,60.30,326.60,120310,,*2E
$GPRMC,174024.8,A,3246.9273,N,11708.3828,W,66.50,314.30,120310,,*2E
$GPRMC,174030.8,A,3246.9949,N,11708.4870,W,64.30,306.50,120310,,*22
$GPRMC,174033.8,A,3247.0260,N,11708.5391,W,64.90,305.30,120310,,*23
$GPRMC,174036.8,A,3247.0574,N,11708.5912,W,64.90,305.10,120310,,*27
$GPRMC,174039.8,A,3247.0890,N,11708.6442,W,64.90,305.70,120310,,*22
$GPRMC,174042.8,A,3247.1221,N,11708.6961,W,65.80,307.60,120310,,*20
$GPRMC,174045.8,A,3247.1585,N,11708.7448,W,66.60,313.10,120310,,*26
$GPRMC,174048.8,A,3247.2022,N,11708.7908,W,70.80,318.10,120310,,*2B
$GPRMC,174051.8,A,3247.2485,N,11708.8353,W,71.50,320.90,120310,,*2E
$GPRMC,174054.8,A,3247.2974,N,11708.8732,W,68.40,328.40,120310,,*27
$GPRMC,174057.8,A,3247.3471,N,11708.9048,W,65.70,333.90,120310,,*2F
$GPRMC,174100.8,A,3247.3974,N,11708.9301,W,65.30,338.50,120310,,*29
$GPRMC,174105.8,A,3247.4845,N,11708.9599,W,64.90,346.20,120310,,*2A
$GPRMC,174108.8,A,3247.5403,N,11708.9680,W,66.30,352.30,120310,,*2F
$GPRMC,174111.8,A,3247.5941,N,11708.9743,W,64.20,354.60,120310,,*22
$GPRMC,174114.8,A,3247.6481,N,11708.9792,W,64.10,354.50,120310,,*29
$GPRMC,174117.8,A,3247.7019,N,11708.9754,W,63.00,1.30,120310,,*27
$GPRMC,174120.8,A,3247.7569,N,11708.9718,W,64.90,2.10,120310,,*26
$GPRMC,174123.8,A,3247.8116,N,11708.9639,W,64.70,4.70,120310,,*2A
$GPRMC,174127.8,A,3247.8851,N,11708.9616,W,66.00,1.90,120310,,*27
$GPRMC,174130.8,A,3247.9401,N,11708.9649,W,66.60,355.50,120310,,*2B
$GPRMC,174133.8,A,3247.9940,N,11708.9734,W,65.10,350.50,120310,,*2A
$GPRMC,174136.8,A,3248.0469,N,11708.9871,W,64.80,348.20,120310,,*27
$GPRMC,174139.8,A,3248.1000,N,11709.0015,W,65.80,347.50,120310,,*29
$GPRMC,174142.8,A,3248.1549,N,11709.0168,W,68.30,347.20,120310,,*27
$GPRMC,174145.8,A,3248.2110,N,11709.0320,W,68.90,347.10,120310,,*2C
$GPRMC,174149.8,A,3248.2849,N,11709.0523,W,68.30,347.20,120310,,*29
$GPRMC,174152.8,A,3248.3410,N,11709.0667,W,67.60,346.90,120310,,*21
$GPRMC,174155.8,A,3248.3948,N,11709.0838,W,67.40,343.40,120310,,*28
$GPRMC,174158.8,A,3248.4476,N,11709.1081,W,67.40,338.80,120310,,*29
$GPRMC,174201.8,A,3248.4977,N,11709.1359,W,68.10,333.90,120310,,*2C
$GPRMC,174204.8,A,3248.5460,N,11709.1688,W,67.10,329.80,120310,,*2F
$GPRMC,174209.8,A,3248.6220,N,11709.2391,W,68.80,321.20,120310,,*29
$GPRMC,174215.8,A,3248.7090,N,11709.3195,W,64.30,322.60,120310,,*2B
$GPRMC,174218.8,A,3248.7515,N,11709.3630,W,65.90,320.90,120310,,*20
$GPRMC,174221.8,A,3248.7938,N,11709.4041,W,65.10,321.00,120310,,*2E
$GPRMC,174224.8,A,3248.8368,N,11709.4476,W,65.80,320.20,120310,,*21
$GPRMC,174227.8,A,3248.8822,N,11709.4867,W,66.60,325.40,120310,,*25
$GPRMC,174230.8,A,3248.9312,N,11709.5204,W,66.70,330.70,120310,,*22
$GPRMC,174234.8,A,3248.9951,N,11709.5617,W,66.50,333.60,120310,,*2D
$GPRMC,174237.8,A,3249.0466,N,11709.5906,W,67.70,333.60,120310,,*23
$GPRMC,174240.8,A,3249.0973,N,11709.6199,W,67.30,333.60,120310,,*23
$GPRMC,174243.8,A,3249.1481,N,11709.6480,W,67.00,333.90,120310,,*20
$GPRMC,174246.8,A,3249.1964,N,11709.6785,W,65.40,333.50,120310,,*2F
$GPRMC,174249.8,A,3249.2455,N,11709.7060,W,64.30,333.70,120310,,*25
$GPRMC,174252.8,A,3249.2950,N,11709.7354,W,66.10,333.00,120310,,*24
$GPRMC,174254.8,A,3249.3279,N,11709.7554,W,67.00,332.80,120310,,*2C
$GPRMC,174256.8,A,3249.3608,N,11709.7753,W,66.50,333.60,120310,,*22
$GPRMC,174259.8,A,3249.4100,N,11709.8037,W,64.90,333.90,120310,,*2E
$GPRMC,174302.8,A,3249.4590,N,11709.8337,W,67.10,332.50,120310,,*29
$GPRMC,174304.8,A,3249.4909,N,11709.8540,W,66.30,333.00,120310,,*22
$GPRMC,174306.8,A,3249.5240,N,11709.8730,W,66.40,333.10,120310,,*24
$GPRMC,174309.8,A,3249.5729,N,11709.9024,W,65.70,332.60,120310,,*24
$GPRMC,174313.8,A,3249.6380,N,11709.9421,W,66.30,332.40,120310,,*2F
$GPRMC,174317.8,A,3249.7048,N,11709.9823,W,67.00,332.80,120310,,*2D
$GPRMC,174320.8,A,3249.7537,N,11710.0121,W,66.30,332.80,120310,,*2C
$GPRMC,174323.8,A,3249.8023,N,11710.0427,W,66.40,332.60,120310,,*2A
$GPRMC,174326.8,A,3249.8522,N,11710.0721,W,65.40,332.80,120310,,*23
$GPRMC,174330.8,A,3249.9174,N,11710.1110,W,65.70,333.30,120310,,*2E
$GPRMC,174333.8,A,3249.9666,N,11710.1396,W,65.80,332.50,120310,,*2D
$GPRMC,174336.8,A,3250.0151,N,11710.1683,W,64.50,334.20,120310,,*26
$GPRMC,174339.8,A,3250.0656,N,11710.1961,W,64.40,336.80,120310,,*23
$GPRMC,174342.8,A,3250.1145,N,11710.2266,W,65.80,332.80,120310,,*2D
$GPRMC,174345.8,A,3250.1624,N,11710.2586,W,66.40,332.20,120310,,*26
$GPRMC,174348.8,A,3250.2120,N,11710.2892,W,67.20,332.30,120310,,*25
$GPRMC,174351.8,A,3250.2606,N,11710.3209,W,67.40,332.00,120310,,*22
$GPRMC,174354.8,A,3250.3102,N,11710.3517,W,67.00,332.40,120310,,*2D
$GPRMC,174357.8,A,3250.3612,N,11710.3820,W,69.30,332.80,120310,,*20
$GPRMC,174400.8,A,3250.4127,N,11710.4139,W,69.40,332.90,120310,,*23
$GPRMC,174404.8,A,3250.4819,N,11710.4543,W,69.40,333.10,120310,,*23
$GPRMC,174407.8,A,3250.5333,N,11710.4858,W,70.00,333.20,120310,,*2A
$GPRMC,174412.8,A,3250.6211,N,11710.5370,W,69.80,333.80,120310,,*26
$GPRMC,174414.8,A,3250.6556,N,11710.5573,W,69.10,333.60,120310,,*26
$GPRMC,174416.8,A,3250.6894,N,11710.5783,W,68.50,332.90,120310,,*21
$GPRMC,174419.8,A,3250.7389,N,11710.6078,W,66.80,334.40,120310,,*20
$GPRMC,174422.8,A,3250.7905,N,11710.6379,W,68.40,333.00,120310,,*25
$GPRMC,174425.8,A,3250.8399,N,11710.6698,W,68.50,330.30,120310,,*29
$GPRMC,174428.8,A,3250.8900,N,11710.6992,W,68.00,332.70,120310,,*28
$GPRMC,174432.8,A,3250.9530,N,11710.7392,W,65.50,332.40,120310,,*2D
$GPRMC,174434.8,A,3250.9865,N,11710.7584,W,66.60,332.70,120310,,*24
$GPRMC,174436.8,A,3251.0191,N,11710.7794,W,66.60,332.60,120310,,*2E
$GPRMC,174439.8,A,3251.0685,N,11710.8103,W,67.70,331.70,120310,,*26
$GPRMC,174442.8,A,3251.1174,N,11710.8419,W,66.40,332.30,120310,,*29
$GPRMC,174445.8,A,3251.1678,N,11710.8708,W,67.20,332.60,120310,,*24
$GPRMC,174448.8,A,3251.2173,N,11710.9011,W,66.80,332.70,120310,,*22
$GPRMC,174451.8,A,3251.2667,N,11710.9309,W,66.00,332.90,120310,,*24
$GPRMC,174454.8,A,3251.3151,N,11710.9600,W,65.40,332.90,120310,,*29
$GPRMC,174457.8,A,3251.3638,N,11710.9892,W,64.70,333.00,120310,,*2D
$GPRMC,174500.8,A,3251.4114,N,11711.0188,W,64.50,332.40,120310,,*2D
$GPRMC,174503.8,A,3251.4588,N,11711.0480,W,64.90,332.30,120310,,*29
$GPRMC,174507.8,A,3251.5251,N,11711.0872,W,67.00,333.20,120310,,*24
$GPRMC,174510.8,A,3251.5741,N,11711.1173,W,66.10,331.90,120310,,*26
$GPRMC,174513.8,A,3251.6216,N,11711.1510,W,66.40,328.60,120310,,*22
$GPRMC,174516.8,A,3251.6676,N,11711.1890,W,67.50,324.50,120310,,*2F
$GPRMC,174519.8,A,3251.7115,N,11711.2306,W,67.20,322.10,120310,,*21
$GPRMC,174522.8,A,3251.7556,N,11711.2715,W,67.90,322.30,120310,,*25
$GPRMC,174525.8,A,3251.8002,N,11711.3130,W,66.10,321.40,120310,,*24
$GPRMC,174528.8,A,3251.8444,N,11711.3536,W,65.40,322.10,120310,,*2D
$GPRMC,174534.8,A,3251.9264,N,11711.4321,W,63.50,321.40,120310,,*23
$GPRMC,174537.8,A,3251.9671,N,11711.4704,W,62.60,321.30,120310,,*26
$GPRMC,174540.8,A,3252.0083,N,11711.5097,W,63.60,321.10,120310,,*28
$GPRMC,174543.8,A,3252.0490,N,11711.5496,W,63.50,320.90,120310,,*22
$GPRMC,174546.8,A,3252.0886,N,11711.5898,W,63.20,320.20,120310,,*22
$GPRMC,174549.8,A,3252.1287,N,11711.6296,W,62.40,321.10,120310,,*25
$GPRMC,174552.8,A,3252.1699,N,11711.6685,W,64.90,320.40,120310,,*2D
$GPRMC,174555.8,A,3252.2139,N,11711.7110,W,69.60,320.20,120310,,*2A
$GPRMC,174558.8,A,3252.2607,N,11711.7558,W,70.40,321.40,120310,,*28
$GPRMC,174603.8,A,3252.3357,N,11711.8262,W,67.10,322.00,120310,,*21
$GPRMC,174606.8,A,3252.3818,N,11711.8655,W,68.70,325.10,120310,,*2B
$GPRMC,174609.8,A,3252.4315,N,11711.9029,W,70.40,329.00,120310,,*2E
$GPRMC,174613.8,A,3252.5006,N,11711.9444,W,69.80,334.60,120310,,*24
$GPRMC,174616.8,A,3252.5543,N,11711.9702,W,69.50,339.40,120310,,*26
$GPRMC,174619.8,A,3252.6104,N,11711.9913,W,69.60,343.60,120310,,*2F
$GPRMC,174622.8,A,3252.6654,N,11712.0089,W,68.50,345.40,120310,,*23
$GPRMC,174625.8,A,3252.7205,N,11712.0254,W,67.30,345.80,120310,,*22
