NMEA Sentence Code,UTC Time,Status,Latitude,Latitude Direction,Longitude,Longitude Direction,Speed (knots),Track Angle (degrees true),Date,MagneticVariation,Magnetic Variation Direction,[FAA Mode]-Optional,Checksum
$GPRMC,152123.2,A,3243.173277,N,11710.097063,W,9.1,358.8,101010,,,A*7B
$GPRMC,152242.2,A,3243.197045,N,11710.118408,W,4.5,265.8,101010,,,A*7F
$GPRMC,152245.2,A,3243.194047,N,11710.123599,W,5.0,246.1,101010,,,A*74
$GPRMC,152248.2,A,3243.190806,N,11710.135587,W,8.8,259.1,101010,,,A*73
$GPRMC,152251.2,A,3243.192040,N,11710.147929,W,10.4,274.6,101010,,,A*43
$GPRMC,152254.2,A,3243.192616,N,11710.163656,W,11.5,264.9,101010,,,A*4C
$GPRMC,152257.2,A,3243.191295,N,11710.178319,W,12.4,264.3,101010,,,A*4F
$GPRMC,152300.2,A,3243.192332,N,11710.193047,W,14.1,271.3,101010,,,A*49
$GPRMC,152303.2,A,3243.191677,N,11710.206912,W,13.6,263.9,101010,,,A*42
$GPRMC,152306.0,A,3243.190704,N,11710.213033,W,5.1,269.2,101010,,,A*7E
$GPRMC,152309.2,A,3243.190165,N,11710.218837,W,5.6,270.7,101010,,,A*7F
$GPRMC,152312.9,A,3243.188333,N,11710.226797,W,7.2,265.1,101010,,,A*7A
$GPRMC,152316.2,A,3243.187933,N,11710.235825,W,7.2,265.3,101010,,,A*76
$GPRMC,152319.0,A,3243.192792,N,11710.250245,W,11.8,275.1,101010,,,A*4B
$GPRMC,152322.9,A,3243.193294,N,11710.270082,W,13.4,267.5,101010,,,A*4A
$GPRMC,152325.9,A,3243.194580,N,11710.284602,W,14.9,272.6,101010,,,A*40
$GPRMC,152328.9,A,3243.196239,N,11710.297334,W,15.0,271.4,101010,,,A*41
$GPRMC,152331.9,A,3243.195540,N,11710.312629,W,15.4,268.7,101010,,,A*49
$GPRMC,152334.2,A,3243.195051,N,11710.324201,W,15.8,267.0,101010,,,A*4D
$GPRMC,152337.2,A,3243.195460,N,11710.340257,W,13.7,270.0,101010,,,A*46
$GPRMC,152340.9,A,3243.196108,N,11710.358323,W,13.9,271.4,101010,,,A*45
$GPRMC,152343.9,A,3243.195229,N,11710.367367,W,8.0,277.5,101010,,,A*7D
$GPRMC,152346.9,A,3243.199291,N,11710.375008,W,8.1,305.0,101010,,,A*7E
$GPRMC,152349.9,A,3243.206824,N,11710.377810,W,10.7,347.9,101010,,,A*43
$GPRMC,152353.2,A,3243.219723,N,11710.377008,W,13.8,2.8,101010,,,A*4B
$GPRMC,152356.9,A,3243.235796,N,11710.378483,W,13.5,355.2,101010,,,A*4B
$GPRMC,152359.9,A,3243.239740,N,11710.374347,W,9.5,9.0,101010,,,A*73
$GPRMC,152403.2,A,3243.251186,N,11710.374260,W,12.7,0.2,101010,,,A*45
$GPRMC,152406.9,A,3243.268228,N,11710.374782,W,15.7,0.7,101010,,,A*4D
$GPRMC,152410.2,A,3243.283829,N,11710.373580,W,18.0,357.5,101010,,,A*41
$GPRMC,152413.9,A,3243.303239,N,11710.376435,W,17.1,359.4,101010,,,A*40
$GPRMC,152416.9,A,3243.318718,N,11710.376961,W,17.6,0.2,101010,,,A*4B
$GPRMC,152419.2,A,3243.328387,N,11710.376392,W,16.5,1.2,101010,,,A*4B
$GPRMC,152422.0,A,3243.342033,N,11710.375745,W,16.9,0.2,101010,,,A*41
$GPRMC,152425.2,A,3243.358503,N,11710.375876,W,18.7,356.7,101010,,,A*43
$GPRMC,152428.9,A,3243.376822,N,11710.376162,W,17.2,357.7,101010,,,A*43
$GPRMC,152431.9,A,3243.390155,N,11710.375863,W,17.3,359.6,101010,,,A*4F
$GPRMC,152434.2,A,3243.401414,N,11710.375913,W,17.1,356.7,101010,,,A*44
$GPRMC,152437.2,A,3243.415997,N,11710.375165,W,14.7,2.2,101010,,,A*4F
$GPRMC,152440.2,A,3243.425807,N,11710.374549,W,9.4,4.4,101010,,,A*70
$GPRMC,152443.2,A,3243.431527,N,11710.373173,W,6.9,7.8,101010,,,A*7E
$GPRMC,152449.9,A,3243.444441,N,11710.374927,W,8.8,357.9,101010,,,A*7A
$GPRMC,152452.9,A,3243.451391,N,11710.373097,W,9.8,32.7,101010,,,A*44
$GPRMC,152455.9,A,3243.455146,N,11710.363011,W,12.3,63.6,101010,,,A*74
$GPRMC,152458.9,A,3243.459124,N,11710.350218,W,13.1,70.7,101010,,,A*7A
$GPRMC,152501.9,A,3243.461355,N,11710.339547,W,11.5,72.9,101010,,,A*70
$GPRMC,152504.9,A,3243.464033,N,11710.331271,W,9.5,70.3,101010,,,A*48
$GPRMC,152507.9,A,3243.466839,N,11710.322864,W,7.5,71.4,101010,,,A*4F
$GPRMC,152510.9,A,3243.468367,N,11710.316499,W,5.3,71.2,101010,,,A*4C
$GPRMC,152513.9,A,3243.469179,N,11710.311769,W,4.6,57.2,101010,,,A*48
$GPRMC,152534.9,A,3243.473937,N,11710.303966,W,4.6,62.3,101010,,,A*41
$GPRMC,152537.9,A,3243.479847,N,11710.296703,W,7.8,37.5,101010,,,A*45
$GPRMC,152540.9,A,3243.488300,N,11710.295394,W,10.1,354.6,101010,,,A*40
$GPRMC,152543.9,A,3243.500106,N,11710.299763,W,16.0,339.1,101010,,,A*4D
$GPRMC,152546.9,A,3243.512481,N,11710.303864,W,12.4,341.5,101010,,,A*40
$GPRMC,152549.2,A,3243.519112,N,11710.305821,W,9.1,337.7,101010,,,A*7B
$GPRMC,152552.9,A,3243.523979,N,11710.307346,W,4.6,342.2,101010,,,A*73
$GPRMC,152640.9,A,3243.540703,N,11710.314603,W,8.7,340.4,101010,,,A*7A
$GPRMC,152643.9,A,3243.555239,N,11710.322949,W,16.5,335.8,101010,,,A*46
$GPRMC,152646.9,A,3243.570048,N,11710.333637,W,18.8,335.1,101010,,,A*4C
$GPRMC,152649.9,A,3243.590971,N,11710.339070,W,20.7,342.3,101010,,,A*47
$GPRMC,152652.2,A,3243.604996,N,11710.344415,W,20.8,339.1,101010,,,A*4D
$GPRMC,152655.9,A,3243.626720,N,11710.353505,W,20.8,342.9,101010,,,A*40
$GPRMC,152658.9,A,3243.645357,N,11710.360652,W,22.1,342.1,101010,,,A*4E
$GPRMC,152701.9,A,3243.662075,N,11710.369324,W,21.3,338.9,101010,,,A*4C
$GPRMC,152704.9,A,3243.679012,N,11710.375140,W,21.1,341.2,101010,,,A*48
$GPRMC,152707.9,A,3243.696467,N,11710.382128,W,20.7,340.9,101010,,,A*47
$GPRMC,152711.2,A,3243.713817,N,11710.388416,W,18.8,338.6,101010,,,A*4A
$GPRMC,152714.9,A,3243.730475,N,11710.394819,W,16.9,342.9,101010,,,A*4E
$GPRMC,152717.9,A,3243.742331,N,11710.400072,W,15.6,342.7,101010,,,A*42
$GPRMC,152720.9,A,3243.751952,N,11710.407136,W,11.4,338.0,101010,,,A*41
$GPRMC,152723.9,A,3243.758303,N,11710.407814,W,7.7,346.0,101010,,,A*71
$GPRMC,152809.9,A,3243.768698,N,11710.402298,W,6.8,59.0,101010,,,A*4A
$GPRMC,152812.9,A,3243.775281,N,11710.394730,W,8.9,55.1,101010,,,A*4D
$GPRMC,152815.9,A,3243.781178,N,11710.384637,W,12.2,67.6,101010,,,A*75
$GPRMC,152818.9,A,3243.785635,N,11710.370689,W,13.3,76.0,101010,,,A*7A
$GPRMC,152821.2,A,3243.787100,N,11710.361349,W,12.9,77.8,101010,,,A*73
$GPRMC,152824.2,A,3243.791510,N,11710.349020,W,13.3,69.1,101010,,,A*7F
$GPRMC,152828.2,A,3243.799548,N,11710.337499,W,7.6,70.5,101010,,,A*45
$GPRMC,152831.2,A,3243.803333,N,11710.330222,W,8.5,62.7,101010,,,A*47
$GPRMC,152834.2,A,3243.806370,N,11710.319874,W,9.6,61.2,101010,,,A*46
$GPRMC,152837.9,A,3243.811466,N,11710.305801,W,12.4,74.2,101010,,,A*7B
$GPRMC,152841.2,A,3243.814483,N,11710.294122,W,10.2,64.7,101010,,,A*7E
$GPRMC,152844.2,A,3243.817662,N,11710.284101,W,10.3,64.5,101010,,,A*76
$GPRMC,152847.9,A,3243.821424,N,11710.272240,W,11.3,63.1,101010,,,A*76
$GPRMC,152850.9,A,3243.827453,N,11710.267065,W,10.6,26.2,101010,,,A*71
$GPRMC,152853.9,A,3243.839817,N,11710.267778,W,15.4,353.9,101010,,,A*47
$GPRMC,152856.2,A,3243.850701,N,11710.269613,W,16.5,349.6,101010,,,A*4A
$GPRMC,152907.2,A,3243.918982,N,11710.290550,W,24.8,339.8,101010,,,A*40
$GPRMC,152910.9,A,3243.941996,N,11710.306116,W,21.8,325.7,101010,,,A*4B
$GPRMC,152913.9,A,3243.958642,N,11710.316335,W,22.9,326.0,101010,,,A*42
$GPRMC,152916.9,A,3243.977923,N,11710.332152,W,25.1,325.1,101010,,,A*4A
$GPRMC,152919.9,A,3243.994090,N,11710.347157,W,25.1,325.2,101010,,,A*4D
$GPRMC,152922.9,A,3244.012698,N,11710.360943,W,25.6,325.2,101010,,,A*44
$GPRMC,152925.9,A,3244.032255,N,11710.377888,W,27.8,326.4,101010,,,A*4D
$GPRMC,152928.9,A,3244.052363,N,11710.394140,W,28.7,326.1,101010,,,A*47
$GPRMC,152931.9,A,3244.073501,N,11710.408651,W,29.4,327.7,101010,,,A*4E
$GPRMC,152934.9,A,3244.091023,N,11710.426655,W,28.8,320.0,101010,,,A*47
$GPRMC,152937.9,A,3244.110560,N,11710.446857,W,29.6,318.4,101010,,,A*44
$GPRMC,152940.9,A,3244.129122,N,11710.464694,W,29.2,323.0,101010,,,A*45
$GPRMC,152943.9,A,3244.149179,N,11710.480306,W,29.5,325.4,101010,,,A*4F
$GPRMC,152946.9,A,3244.172561,N,11710.499515,W,31.3,321.7,101010,,,A*4B
$GPRMC,152949.9,A,3244.195139,N,11710.516938,W,31.1,324.4,101010,,,A*45
$GPRMC,152952.9,A,3244.209197,N,11710.532495,W,29.2,323.3,101010,,,A*4B
$GPRMC,152955.9,A,3244.230210,N,11710.550424,W,28.7,325.1,101010,,,A*44
$GPRMC,152958.9,A,3244.250162,N,11710.567297,W,28.8,322.8,101010,,,A*42
$GPRMC,153001.9,A,3244.267561,N,11710.585229,W,28.3,321.6,101010,,,A*4A
$GPRMC,153004.9,A,3244.287249,N,11710.604451,W,28.6,323.3,101010,,,A*4D
$GPRMC,153007.9,A,3244.304882,N,11710.620221,W,27.6,322.6,101010,,,A*45
$GPRMC,153010.9,A,3244.323454,N,11710.635646,W,28.4,323.1,101010,,,A*4B
$GPRMC,153013.9,A,3244.344333,N,11710.652778,W,29.2,324.8,101010,,,A*4B
$GPRMC,153016.9,A,3244.364841,N,11710.668234,W,29.3,324.4,101010,,,A*4B
$GPRMC,153019.9,A,3244.385532,N,11710.687310,W,32.4,322.4,101010,,,A*4F
$GPRMC,153022.9,A,3244.408333,N,11710.708234,W,33.0,322.2,101010,,,A*40
$GPRMC,153025.9,A,3244.431714,N,11710.731177,W,34.3,319.1,101010,,,A*4D
$GPRMC,153028.9,A,3244.453862,N,11710.754577,W,35.6,318.2,101010,,,A*4B
$GPRMC,153031.9,A,3244.469687,N,11710.776990,W,32.8,318.0,101010,,,A*41
$GPRMC,153034.9,A,3244.490872,N,11710.799019,W,32.1,315.5,101010,,,A*4E
$GPRMC,153037.9,A,3244.504689,N,11710.821393,W,29.3,306.5,101010,,,A*4C
$GPRMC,153040.2,A,3244.515893,N,11710.841229,W,30.6,300.9,101010,,,A*43
$GPRMC,153043.9,A,3244.532967,N,11710.874224,W,32.6,297.4,101010,,,A*4F
$GPRMC,153046.9,A,3244.544262,N,11710.907645,W,36.9,294.1,101010,,,A*4E
$GPRMC,153049.9,A,3244.557821,N,11710.941493,W,37.9,296.0,101010,,,A*47
$GPRMC,153052.9,A,3244.572412,N,11710.971241,W,34.0,297.0,101010,,,A*47
$GPRMC,153055.9,A,3244.585218,N,11711.003182,W,38.7,296.7,101010,,,A*48
$GPRMC,153058.9,A,3244.602744,N,11711.044526,W,46.7,297.1,101010,,,A*42
$GPRMC,153101.9,A,3244.623732,N,11711.086405,W,50.1,297.6,101010,,,A*45
$GPRMC,153104.9,A,3244.643388,N,11711.133331,W,51.4,297.5,101010,,,A*4B
$GPRMC,153107.9,A,3244.663044,N,11711.174728,W,50.3,298.1,101010,,,A*4B
$GPRMC,153110.9,A,3244.683139,N,11711.221599,W,53.4,298.0,101010,,,A*46
$GPRMC,153113.9,A,3244.705604,N,11711.264591,W,52.8,300.3,101010,,,A*44
$GPRMC,153116.9,A,3244.729847,N,11711.311072,W,53.8,300.5,101010,,,A*4A
$GPRMC,153119.9,A,3244.749850,N,11711.358788,W,54.6,298.3,101010,,,A*45
$GPRMC,153122.9,A,3244.774867,N,11711.407362,W,55.8,300.3,101010,,,A*45
$GPRMC,153125.9,A,3244.798104,N,11711.459565,W,57.5,297.8,101010,,,A*4D
$GPRMC,153128.9,A,3244.819957,N,11711.507433,W,57.9,298.5,101010,,,A*4E
$GPRMC,153131.9,A,3244.842836,N,11711.559054,W,59.8,300.3,101010,,,A*49
$GPRMC,153134.9,A,3244.870290,N,11711.606594,W,58.6,306.5,101010,,,A*44
$GPRMC,153137.2,A,3244.893923,N,11711.642032,W,58.5,310.2,101010,,,A*48
$GPRMC,153140.9,A,3244.933126,N,11711.694059,W,56.4,312.0,101010,,,A*4C
$GPRMC,153143.9,A,3244.970040,N,11711.735242,W,59.6,317.3,101010,,,A*40
$GPRMC,153146.9,A,3245.010720,N,11711.772900,W,60.0,321.7,101010,,,A*49
$GPRMC,153149.9,A,3245.052300,N,11711.805381,W,60.0,325.2,101010,,,A*4B
$GPRMC,153152.9,A,3245.090132,N,11711.839632,W,58.2,323.9,101010,,,A*4A
$GPRMC,153155.9,A,3245.130463,N,11711.873469,W,58.2,323.0,101010,,,A*4C
$GPRMC,153158.9,A,3245.165706,N,11711.912013,W,57.6,317.0,101010,,,A*42
$GPRMC,153201.9,A,3245.194573,N,11711.950911,W,54.9,311.7,101010,,,A*43
$GPRMC,153204.9,A,3245.225811,N,11711.994501,W,57.4,310.1,101010,,,A*4A
$GPRMC,153207.9,A,3245.255054,N,11712.040769,W,58.1,308.0,101010,,,A*4A
$GPRMC,153210.9,A,3245.286725,N,11712.082308,W,57.0,310.1,101010,,,A*48
$GPRMC,153213.9,A,3245.322209,N,11712.121331,W,56.3,317.7,101010,,,A*4E
$GPRMC,153216.9,A,3245.359788,N,11712.153417,W,55.3,326.2,101010,,,A*49
$GPRMC,153219.9,A,3245.401525,N,11712.179166,W,56.3,334.1,101010,,,A*41
$GPRMC,153222.9,A,3245.445506,N,11712.196563,W,54.6,341.8,101010,,,A*44
$GPRMC,153225.9,A,3245.495168,N,11712.209016,W,58.1,346.6,101010,,,A*42
$GPRMC,153228.2,A,3245.531369,N,11712.218448,W,56.4,347.1,101010,,,A*4A
$GPRMC,153231.9,A,3245.587155,N,11712.231559,W,53.2,347.6,101010,,,A*47
$GPRMC,153234.9,A,3245.632654,N,11712.240551,W,53.6,348.9,101010,,,A*43
$GPRMC,153237.9,A,3245.675765,N,11712.250758,W,52.6,347.8,101010,,,A*45
$GPRMC,153240.9,A,3245.715629,N,11712.261727,W,51.1,347.8,101010,,,A*45
$GPRMC,153243.9,A,3245.757857,N,11712.273530,W,51.9,348.0,101010,,,A*4F
$GPRMC,153246.9,A,3245.800216,N,11712.283625,W,52.4,348.4,101010,,,A*4A
$GPRMC,153249.9,A,3245.845608,N,11712.293888,W,54.5,348.5,101010,,,A*41
$GPRMC,153252.9,A,3245.892462,N,11712.306308,W,55.8,348.0,101010,,,A*48
$GPRMC,153255.9,A,3245.937784,N,11712.318080,W,55.2,347.5,101010,,,A*46
$GPRMC,153259.2,A,3245.986386,N,11712.330745,W,54.2,348.5,101010,,,A*47
$GPRMC,153302.9,A,3246.041371,N,11712.343559,W,54.3,347.9,101010,,,A*43
$GPRMC,153305.9,A,3246.086762,N,11712.356624,W,55.4,347.6,101010,,,A*4D
$GPRMC,153308.9,A,3246.130817,N,11712.367375,W,55.9,347.1,101010,,,A*48
$GPRMC,153311.9,A,3246.178287,N,11712.381571,W,57.2,347.4,101010,,,A*49
$GPRMC,153314.9,A,3246.225105,N,11712.392752,W,59.3,347.9,101010,,,A*4D
$GPRMC,153317.9,A,3246.275204,N,11712.403164,W,60.9,348.8,101010,,,A*4B
$GPRMC,153320.9,A,3246.324589,N,11712.417260,W,60.3,347.3,101010,,,A*44
$GPRMC,153323.9,A,3246.373730,N,11712.429261,W,60.1,348.1,101010,,,A*46
$GPRMC,153326.9,A,3246.422309,N,11712.441894,W,59.0,348.0,101010,,,A*4A
$GPRMC,153329.9,A,3246.471721,N,11712.456061,W,59.7,347.2,101010,,,A*43
$GPRMC,153333.2,A,3246.525966,N,11712.469333,W,59.2,347.9,101010,,,A*48
$GPRMC,153336.2,A,3246.571583,N,11712.482278,W,57.0,348.1,101010,,,A*4B
$GPRMC,153339.2,A,3246.618619,N,11712.493414,W,57.7,350.1,101010,,,A*4A
$GPRMC,153342.9,A,3246.676902,N,11712.500868,W,57.4,355.5,101010,,,A*4E
$GPRMC,153345.9,A,3246.725274,N,11712.499573,W,56.1,1.1,101010,,,A*40
$GPRMC,153348.9,A,3246.771174,N,11712.493457,W,55.7,6.8,101010,,,A*49
$GPRMC,153351.9,A,3246.818978,N,11712.485337,W,57.8,8.7,101010,,,A*4F
$GPRMC,153354.9,A,3246.865599,N,11712.476839,W,57.7,8.5,101010,,,A*47
$GPRMC,153357.9,A,3246.914995,N,11712.470234,W,58.4,8.4,101010,,,A*4F
$GPRMC,153400.9,A,3246.965370,N,11712.459310,W,59.7,9.3,101010,,,A*45
$GPRMC,153403.9,A,3247.013714,N,11712.453661,W,59.0,7.9,101010,,,A*43
$GPRMC,153406.9,A,3247.061885,N,11712.444571,W,59.6,9.3,101010,,,A*42
$GPRMC,153409.9,A,3247.109480,N,11712.436887,W,58.9,9.1,101010,,,A*46
$GPRMC,153412.9,A,3247.158104,N,11712.427632,W,57.7,8.9,101010,,,A*49
$GPRMC,153415.9,A,3247.204736,N,11712.418207,W,56.4,9.6,101010,,,A*41
$GPRMC,153418.9,A,3247.249699,N,11712.413369,W,55.4,6.3,101010,,,A*4A
$GPRMC,153421.9,A,3247.297811,N,11712.406348,W,57.6,4.6,101010,,,A*4D
$GPRMC,153424.9,A,3247.342342,N,11712.404369,W,54.2,1.3,101010,,,A*4A
$GPRMC,153427.9,A,3247.387912,N,11712.403521,W,55.3,359.4,101010,,,A*4B
$GPRMC,153430.9,A,3247.434501,N,11712.408249,W,55.5,356.5,101010,,,A*46
$GPRMC,153433.2,A,3247.471140,N,11712.415152,W,57.2,351.8,101010,,,A*44
$GPRMC,153436.9,A,3247.528842,N,11712.427516,W,56.6,349.6,101010,,,A*4B
$GPRMC,153439.9,A,3247.574023,N,11712.440402,W,55.3,345.5,101010,,,A*4E
$GPRMC,153442.9,A,3247.615460,N,11712.457838,W,54.5,341.2,101010,,,A*42
$GPRMC,153445.9,A,3247.659106,N,11712.474322,W,55.4,341.7,101010,,,A*4C
$GPRMC,153448.9,A,3247.701910,N,11712.492683,W,54.8,339.6,101010,,,A*47
$GPRMC,153451.9,A,3247.744553,N,11712.517568,W,55.7,334.7,101010,,,A*4D
$GPRMC,153454.9,A,3247.786214,N,11712.544653,W,55.8,332.2,101010,,,A*43
$GPRMC,153457.9,A,3247.827149,N,11712.568782,W,54.9,333.4,101010,,,A*4B
$GPRMC,153500.9,A,3247.866252,N,11712.594020,W,54.6,332.2,101010,,,A*40
$GPRMC,153503.9,A,3247.907619,N,11712.615607,W,54.9,334.1,101010,,,A*4D
$GPRMC,153506.9,A,3247.947675,N,11712.640011,W,54.8,334.1,101010,,,A*46
$GPRMC,153509.9,A,3247.991169,N,11712.662947,W,56.6,335.8,101010,,,A*46
$GPRMC,153512.9,A,3248.031986,N,11712.683078,W,54.9,336.2,101010,,,A*47
$GPRMC,153515.9,A,3248.073488,N,11712.704674,W,53.8,336.3,101010,,,A*46
$GPRMC,153518.9,A,3248.114909,N,11712.726693,W,53.9,334.9,101010,,,A*4F
$GPRMC,153521.9,A,3248.157593,N,11712.752373,W,55.5,333.2,101010,,,A*43
$GPRMC,153524.9,A,3248.199971,N,11712.778313,W,56.1,332.3,101010,,,A*4D
$GPRMC,153527.9,A,3248.241107,N,11712.803487,W,55.4,331.3,101010,,,A*4D
$GPRMC,153530.9,A,3248.280414,N,11712.833497,W,56.4,328.8,101010,,,A*43
$GPRMC,153533.9,A,3248.319910,N,11712.861077,W,55.6,328.7,101010,,,A*4B
$GPRMC,153536.9,A,3248.359668,N,11712.894043,W,56.4,326.1,101010,,,A*4E
$GPRMC,153539.9,A,3248.395910,N,11712.927447,W,56.6,323.3,101010,,,A*4D
$GPRMC,153542.9,A,3248.432825,N,11712.961295,W,58.3,323.1,101010,,,A*4E
$GPRMC,153545.9,A,3248.472842,N,11712.994982,W,58.2,324.3,101010,,,A*4F
$GPRMC,153548.9,A,3248.509339,N,11713.026730,W,55.4,324.9,101010,,,A*4F
$GPRMC,153551.9,A,3248.549325,N,11713.057319,W,57.4,325.4,101010,,,A*49
$GPRMC,153554.9,A,3248.593300,N,11713.091201,W,60.1,326.1,101010,,,A*49
$GPRMC,153557.9,A,3248.632293,N,11713.125796,W,60.1,325.6,101010,,,A*48
$GPRMC,153600.9,A,3248.677177,N,11713.158513,W,60.4,326.3,101010,,,A*47
$GPRMC,153603.9,A,3248.718539,N,11713.190015,W,59.6,326.5,101010,,,A*4B
$GPRMC,153606.2,A,3248.751223,N,11713.217298,W,60.6,326.5,101010,,,A*45
$GPRMC,153609.9,A,3248.802249,N,11713.254895,W,59.8,328.3,101010,,,A*48
$GPRMC,153612.9,A,3248.846918,N,11713.284524,W,60.8,328.8,101010,,,A*46
$GPRMC,153615.9,A,3248.887902,N,11713.317330,W,60.8,327.3,101010,,,A*4B
$GPRMC,153618.9,A,3248.930970,N,11713.350367,W,60.7,326.7,101010,,,A*45
$GPRMC,153621.9,A,3248.971388,N,11713.385131,W,59.8,325.0,101010,,,A*4F
$GPRMC,153624.9,A,3249.011203,N,11713.417964,W,58.2,323.9,101010,,,A*46
$GPRMC,153627.9,A,3249.050699,N,11713.454764,W,59.1,322.3,101010,,,A*47
$GPRMC,153630.9,A,3249.089458,N,11713.488228,W,57.4,321.1,101010,,,A*4C
$GPRMC,153633.9,A,3249.125134,N,11713.527286,W,57.7,318.4,101010,,,A*4B
$GPRMC,153636.9,A,3249.161850,N,11713.564375,W,57.8,319.5,101010,,,A*40
$GPRMC,153639.9,A,3249.197898,N,11713.602338,W,57.2,318.8,101010,,,A*4E
$GPRMC,153642.9,A,3249.233402,N,11713.639988,W,55.9,318.4,101010,,,A*4C
$GPRMC,153645.9,A,3249.269025,N,11713.674897,W,55.2,319.6,101010,,,A*4B
$GPRMC,153648.9,A,3249.302937,N,11713.713212,W,56.0,318.7,101010,,,A*46
$GPRMC,153651.9,A,3249.339521,N,11713.749255,W,56.3,318.9,101010,,,A*4C
$GPRMC,153654.9,A,3249.374205,N,11713.783060,W,56.1,319.5,101010,,,A*4C
$GPRMC,153657.9,A,3249.410386,N,11713.818446,W,55.3,320.0,101010,,,A*43
$GPRMC,153700.9,A,3249.445757,N,11713.853137,W,55.9,323.3,101010,,,A*4E
$GPRMC,153703.2,A,3249.475866,N,11713.877412,W,55.6,327.0,101010,,,A*44
$GPRMC,153706.2,A,3249.517532,N,11713.902802,W,55.4,334.8,101010,,,A*4E
$GPRMC,153709.2,A,3249.560203,N,11713.923812,W,56.2,340.2,101010,,,A*4A
$GPRMC,153712.2,A,3249.605953,N,11713.940291,W,57.5,346.0,101010,,,A*48
$GPRMC,153715.2,A,3249.652895,N,11713.951030,W,57.4,351.9,101010,,,A*41
$GPRMC,153718.9,A,3249.710790,N,11713.958365,W,56.0,356.6,101010,,,A*4D
$GPRMC,153721.9,A,3249.759825,N,11713.956118,W,57.2,360.0,101010,,,A*4D
$GPRMC,153724.9,A,3249.806356,N,11713.955825,W,56.3,0.2,101010,,,A*41
$GPRMC,153727.9,A,3249.850256,N,11713.954992,W,55.0,359.7,101010,,,A*46
$GPRMC,153730.9,A,3249.898146,N,11713.957789,W,56.7,359.4,101010,,,A*46
$GPRMC,153733.9,A,3249.947510,N,11713.958974,W,58.4,358.4,101010,,,A*4E
$GPRMC,153736.9,A,3249.997713,N,11713.962224,W,58.9,354.4,101010,,,A*41
$GPRMC,153739.9,A,3250.043934,N,11713.973760,W,59.5,347.8,101010,,,A*4B
$GPRMC,153742.9,A,3250.088470,N,11713.990828,W,58.2,342.6,101010,,,A*4E
$GPRMC,153745.9,A,3250.133872,N,11714.008233,W,58.6,341.8,101010,,,A*40
$GPRMC,153748.9,A,3250.177777,N,11714.033241,W,58.7,337.7,101010,,,A*45
$GPRMC,153751.9,A,3250.224396,N,11714.053453,W,59.0,339.5,101010,,,A*4A
$GPRMC,153754.9,A,3250.270224,N,11714.073789,W,59.1,339.1,101010,,,A*45
$GPRMC,153758.2,A,3250.322182,N,11714.097101,W,60.7,340.2,101010,,,A*46
$GPRMC,153801.9,A,3250.381396,N,11714.123892,W,60.6,339.4,101010,,,A*44
$GPRMC,153804.9,A,3250.426590,N,11714.143891,W,58.7,339.2,101010,,,A*42
$GPRMC,153807.9,A,3250.474699,N,11714.161365,W,58.7,343.6,101010,,,A*45
$GPRMC,153811.2,A,3250.529341,N,11714.175133,W,59.4,349.2,101010,,,A*48
$GPRMC,153814.9,A,3250.592318,N,11714.180217,W,60.3,357.2,101010,,,A*47
$GPRMC,153817.9,A,3250.642651,N,11714.176103,W,59.3,4.1,101010,,,A*41
$GPRMC,153820.9,A,3250.690083,N,11714.169387,W,57.7,6.7,101010,,,A*4D
$GPRMC,153823.9,A,3250.737838,N,11714.161011,W,55.7,7.1,101010,,,A*4B
$GPRMC,153826.2,A,3250.770451,N,11714.156541,W,53.3,7.6,101010,,,A*44
$GPRMC,153829.9,A,3250.827798,N,11714.147094,W,54.0,6.7,101010,,,A*42
$GPRMC,153832.9,A,3250.872458,N,11714.138641,W,55.9,10.0,101010,,,A*79
$GPRMC,153835.9,A,3250.921615,N,11714.126768,W,58.5,13.8,101010,,,A*7D
$GPRMC,153838.9,A,3250.965861,N,11714.105909,W,55.7,20.9,101010,,,A*7B
$GPRMC,153841.9,A,3251.007960,N,11714.076876,W,57.4,27.5,101010,,,A*7F
$GPRMC,153844.9,A,3251.047391,N,11714.047944,W,57.9,30.4,101010,,,A*72
$GPRMC,153847.9,A,3251.090367,N,11714.017792,W,59.0,29.9,101010,,,A*70
$GPRMC,153850.9,A,3251.132510,N,11713.989554,W,58.9,29.2,101010,,,A*7B
$GPRMC,153853.9,A,3251.176919,N,11713.961775,W,59.0,28.4,101010,,,A*75
$GPRMC,153856.9,A,3251.218357,N,11713.931693,W,60.1,30.7,101010,,,A*76
$GPRMC,153859.9,A,3251.261529,N,11713.898401,W,60.2,30.7,101010,,,A*70
$GPRMC,153902.9,A,3251.305958,N,11713.873089,W,59.5,25.6,101010,,,A*7F
$GPRMC,153905.9,A,3251.351543,N,11713.850610,W,59.3,21.3,101010,,,A*7F
$GPRMC,153908.9,A,3251.397483,N,11713.836815,W,58.8,14.2,101010,,,A*73
$GPRMC,153911.9,A,3251.447397,N,11713.824573,W,60.3,10.6,101010,,,A*7D
$GPRMC,153914.9,A,3251.494740,N,11713.817621,W,59.1,6.5,101010,,,A*40
$GPRMC,153917.9,A,3251.542961,N,11713.816987,W,58.1,4.3,101010,,,A*43
$GPRMC,153920.9,A,3251.593323,N,11713.812815,W,59.7,4.1,101010,,,A*4C
$GPRMC,153923.9,A,3251.643176,N,11713.809268,W,60.5,3.6,101010,,,A*41
$GPRMC,153926.9,A,3251.694118,N,11713.800774,W,61.3,6.1,101010,,,A*42
$GPRMC,153929.9,A,3251.744477,N,11713.797390,W,61.3,4.4,101010,,,A*45
$GPRMC,153932.9,A,3251.795016,N,11713.790414,W,61.6,6.0,101010,,,A*4F
$GPRMC,153935.9,A,3251.850922,N,11713.786808,W,64.1,4.5,101010,,,A*43
$GPRMC,153938.9,A,3251.903211,N,11713.782564,W,63.5,4.4,101010,,,A*43
$GPRMC,153941.9,A,3251.955085,N,11713.777833,W,62.9,5.5,101010,,,A*49
$GPRMC,153944.9,A,3252.005654,N,11713.771017,W,62.2,5.6,101010,,,A*49
$GPRMC,153947.9,A,3252.056364,N,11713.765914,W,61.5,4.7,101010,,,A*41
$GPRMC,153951.2,A,3252.114974,N,11713.759645,W,63.3,5.3,101010,,,A*44
$GPRMC,153954.9,A,3252.179264,N,11713.753944,W,62.9,4.8,101010,,,A*4E
$GPRMC,153957.9,A,3252.232460,N,11713.747704,W,63.2,5.9,101010,,,A*46
$GPRMC,154000.9,A,3252.284040,N,11713.742357,W,61.1,5.5,101010,,,A*4B
$GPRMC,154003.9,A,3252.331000,N,11713.734868,W,58.7,5.9,101010,,,A*45
$GPRMC,154006.2,A,3252.368934,N,11713.732248,W,60.4,5.3,101010,,,A*45
$GPRMC,154009.9,A,3252.436606,N,11713.731284,W,61.8,2.7,101010,,,A*4E
$GPRMC,154012.9,A,3252.481329,N,11713.722750,W,58.1,5.8,101010,,,A*45
$GPRMC,154015.9,A,3252.527479,N,11713.719450,W,57.5,4.7,101010,,,A*43
$GPRMC,154018.9,A,3252.577290,N,11713.714370,W,58.5,4.2,101010,,,A*48
$GPRMC,154021.9,A,3252.625050,N,11713.710447,W,57.4,4.4,101010,,,A*47
$GPRMC,154024.9,A,3252.672522,N,11713.707711,W,57.3,4.6,101010,,,A*43
$GPRMC,154027.9,A,3252.721358,N,11713.702565,W,57.5,5.1,101010,,,A*48
$GPRMC,154030.9,A,3252.767132,N,11713.698965,W,56.8,4.0,101010,,,A*40
$GPRMC,154033.9,A,3252.815225,N,11713.693988,W,57.2,4.9,101010,,,A*46
$GPRMC,154036.9,A,3252.861209,N,11713.689906,W,55.2,4.5,101010,,,A*4D
$GPRMC,154039.9,A,3252.904807,N,11713.683017,W,54.1,4.7,101010,,,A*47
$GPRMC,154042.2,A,3252.938721,N,11713.680304,W,52.4,4.5,101010,,,A*47
$GPRMC,154045.9,A,3252.994837,N,11713.678116,W,53.9,3.0,101010,,,A*4D
$GPRMC,154048.9,A,3253.040001,N,11713.671744,W,54.0,4.5,101010,,,A*48
$GPRMC,154051.9,A,3253.085860,N,11713.664267,W,54.5,6.0,101010,,,A*44
$GPRMC,154054.9,A,3253.130739,N,11713.657934,W,53.4,5.0,101010,,,A*45
$GPRMC,154057.9,A,3253.173782,N,11713.654557,W,52.9,3.9,101010,,,A*48
$GPRMC,154100.9,A,3253.220811,N,11713.651154,W,54.9,4.3,101010,,,A*42
$GPRMC,154103.2,A,3253.258702,N,11713.648862,W,58.4,5.1,101010,,,A*4E
$GPRMC,154106.9,A,3253.320141,N,11713.641290,W,59.2,4.5,101010,,,A*43
$GPRMC,154109.9,A,3253.370500,N,11713.635510,W,59.6,4.5,101010,,,A*40
$GPRMC,154112.9,A,3253.416761,N,11713.632263,W,57.9,4.6,101010,,,A*4E
$GPRMC,154115.9,A,3253.466340,N,11713.626896,W,58.1,5.2,101010,,,A*4E
$GPRMC,154118.9,A,3253.515522,N,11713.620269,W,59.1,5.8,101010,,,A*43
$GPRMC,154121.9,A,3253.562520,N,11713.617962,W,56.6,4.5,101010,,,A*4B
$GPRMC,154124.9,A,3253.608763,N,11713.610124,W,56.7,8.4,101010,,,A*45
$GPRMC,154127.9,A,3253.653013,N,11713.601314,W,55.6,10.6,101010,,,A*70
$GPRMC,154130.9,A,3253.696298,N,11713.583454,W,56.6,17.9,101010,,,A*7F
$GPRMC,154133.9,A,3253.745094,N,11713.564785,W,59.8,18.6,101010,,,A*7A
$GPRMC,154136.9,A,3253.794512,N,11713.545620,W,61.5,19.0,101010,,,A*74
$GPRMC,154139.9,A,3253.842819,N,11713.525583,W,62.1,19.5,101010,,,A*77
$GPRMC,154142.9,A,3253.897913,N,11713.504272,W,64.6,18.2,101010,,,A*75
$GPRMC,154145.9,A,3253.945573,N,11713.486817,W,61.9,17.8,101010,,,A*7B
$GPRMC,154148.9,A,3253.996330,N,11713.465997,W,62.7,18.3,101010,,,A*74
$GPRMC,154151.9,A,3254.046077,N,11713.448537,W,62.3,17.0,101010,,,A*7E
$GPRMC,154154.9,A,3254.096415,N,11713.432320,W,61.8,13.8,101010,,,A*7F
$GPRMC,154157.9,A,3254.150030,N,11713.424468,W,63.6,7.0,101010,,,A*49
$GPRMC,154201.2,A,3254.209940,N,11713.421065,W,64.6,0.1,101010,,,A*4E
$GPRMC,154204.9,A,3254.277892,N,11713.428900,W,66.1,352.5,101010,,,A*41
$GPRMC,154207.9,A,3254.334897,N,11713.444346,W,68.8,347.3,101010,,,A*46
$GPRMC,154210.9,A,3254.384705,N,11713.465583,W,65.7,340.1,101010,,,A*44
$GPRMC,154213.9,A,3254.433376,N,11713.490241,W,63.2,333.3,101010,,,A*4A
$GPRMC,154216.9,A,3254.476166,N,11713.524562,W,62.7,327.0,101010,,,A*47
$GPRMC,154219.9,A,3254.514888,N,11713.560952,W,61.7,323.8,101010,,,A*44
$GPRMC,154222.9,A,3254.557624,N,11713.597192,W,62.4,325.3,101010,,,A*42
$GPRMC,154225.9,A,3254.603674,N,11713.628560,W,62.7,330.0,101010,,,A*48
$GPRMC,154228.9,A,3254.646522,N,11713.652307,W,59.6,333.3,101010,,,A*47
$GPRMC,154231.9,A,3254.692720,N,11713.684839,W,61.2,331.9,101010,,,A*4C
$GPRMC,154234.9,A,3254.736682,N,11713.710881,W,60.5,332.7,101010,,,A*4B
$GPRMC,154237.9,A,3254.780488,N,11713.740948,W,60.0,331.5,101010,,,A*48
$GPRMC,154240.9,A,3254.825315,N,11713.764928,W,59.8,332.9,101010,,,A*46
$GPRMC,154243.9,A,3254.867955,N,11713.797733,W,60.1,328.0,101010,,,A*44
$GPRMC,154246.9,A,3254.909112,N,11713.832957,W,60.3,323.0,101010,,,A*46
$GPRMC,154249.9,A,3254.942084,N,11713.869818,W,57.8,316.8,101010,,,A*4D
$GPRMC,154252.9,A,3254.977813,N,11713.914578,W,60.0,311.3,101010,,,A*47
$GPRMC,154255.9,A,3255.009711,N,11713.959845,W,59.4,309.9,101010,,,A*4B
$GPRMC,154258.9,A,3255.042272,N,11714.005402,W,59.1,310.6,101010,,,A*43
$GPRMC,154301.9,A,3255.074926,N,11714.051583,W,59.8,311.6,101010,,,A*40
$GPRMC,154304.9,A,3255.107949,N,11714.095708,W,58.4,313.8,101010,,,A*41
$GPRMC,154307.9,A,3255.145356,N,11714.135722,W,60.4,318.5,101010,,,A*4E
$GPRMC,154310.9,A,3255.183594,N,11714.171752,W,60.3,321.8,101010,,,A*4D
$GPRMC,154313.9,A,3255.226870,N,11714.203893,W,61.0,326.4,101010,,,A*48
$GPRMC,154316.9,A,3255.271529,N,11714.234415,W,62.0,330.1,101010,,,A*49
$GPRMC,154319.9,A,3255.320879,N,11714.262677,W,62.8,333.8,101010,,,A*4C
$GPRMC,154322.9,A,3255.369092,N,11714.288640,W,62.2,336.3,101010,,,A*40
$GPRMC,154325.9,A,3255.415351,N,11714.307407,W,60.5,341.2,101010,,,A*44
$GPRMC,154328.9,A,3255.467009,N,11714.327001,W,62.7,342.9,101010,,,A*4A
$GPRMC,154331.9,A,3255.517322,N,11714.345725,W,62.1,342.4,101010,,,A*40
$GPRMC,154334.9,A,3255.563080,N,11714.364696,W,60.1,343.0,101010,,,A*40
$GPRMC,154337.9,A,3255.613117,N,11714.379896,W,61.0,344.2,101010,,,A*4F
$GPRMC,154340.9,A,3255.662713,N,11714.393610,W,59.8,345.9,101010,,,A*46
$GPRMC,154343.9,A,3255.710460,N,11714.408004,W,58.6,345.9,101010,,,A*4F
$GPRMC,154346.9,A,3255.755236,N,11714.422208,W,57.0,346.3,101010,,,A*48
$GPRMC,154349.9,A,3255.803147,N,11714.435313,W,58.1,347.8,101010,,,A*47
$GPRMC,154352.9,A,3255.853694,N,11714.443453,W,59.0,351.0,101010,,,A*4C
$GPRMC,154355.9,A,3255.901608,N,11714.452660,W,56.6,352.6,101010,,,A*46
$GPRMC,154358.2,A,3255.936371,N,11714.457265,W,55.6,354.2,101010,,,A*4A
$GPRMC,154401.9,A,3255.994065,N,11714.463112,W,56.4,356.0,101010,,,A*41
$GPRMC,154404.9,A,3256.042729,N,11714.467486,W,58.7,355.5,101010,,,A*4D
$GPRMC,154407.9,A,3256.090565,N,11714.467199,W,58.8,357.3,101010,,,A*4B
$GPRMC,154410.9,A,3256.139790,N,11714.471108,W,59.6,356.8,101010,,,A*4D
$GPRMC,154413.9,A,3256.188047,N,11714.475664,W,59.2,356.6,101010,,,A*4A
$GPRMC,154416.9,A,3256.237665,N,11714.481296,W,60.4,356.4,101010,,,A*42
$GPRMC,154419.9,A,3256.288883,N,11714.484017,W,59.6,355.9,101010,,,A*47
$GPRMC,154422.9,A,3256.337960,N,11714.487191,W,59.3,355.3,101010,,,A*45
$GPRMC,154425.9,A,3256.386122,N,11714.493643,W,59.0,353.5,101010,,,A*48
$GPRMC,154428.9,A,3256.433911,N,11714.501675,W,59.6,352.2,101010,,,A*4B
$GPRMC,154431.9,A,3256.482891,N,11714.512190,W,59.6,350.5,101010,,,A*4B
$GPRMC,154434.2,A,3256.520689,N,11714.522140,W,59.5,350.0,101010,,,A*43
$GPRMC,154437.9,A,3256.580735,N,11714.535111,W,59.1,349.5,101010,,,A*4C
$GPRMC,154440.9,A,3256.629468,N,11714.542807,W,59.2,351.9,101010,,,A*4F
$GPRMC,154443.2,A,3256.666549,N,11714.549195,W,59.2,351.9,101010,,,A*47
$GPRMC,154446.9,A,3256.725709,N,11714.560701,W,58.5,351.1,101010,,,A*47
$GPRMC,154449.2,A,3256.763096,N,11714.568399,W,58.8,351.8,101010,,,A*49
$GPRMC,154452.9,A,3256.823571,N,11714.578433,W,58.6,352.4,101010,,,A*48
$GPRMC,154455.9,A,3256.868318,N,11714.587411,W,56.7,351.7,101010,,,A*46
$GPRMC,154458.9,A,3256.914714,N,11714.596000,W,55.9,351.6,101010,,,A*41
$GPRMC,154502.2,A,3256.967984,N,11714.605747,W,56.8,350.8,101010,,,A*47
$GPRMC,154506.2,A,3257.030502,N,11714.616697,W,55.8,351.0,101010,,,A*4F
$GPRMC,154509.9,A,3257.089955,N,11714.626877,W,58.1,350.8,101010,,,A*49
$GPRMC,154512.9,A,3257.138426,N,11714.638871,W,58.5,349.1,101010,,,A*4D
$GPRMC,154515.9,A,3257.190222,N,11714.646515,W,59.4,351.8,101010,,,A*4C
$GPRMC,154518.9,A,3257.236844,N,11714.655391,W,57.4,352.0,101010,,,A*49
$GPRMC,154521.9,A,3257.282682,N,11714.662723,W,57.8,351.6,101010,,,A*48
$GPRMC,154524.9,A,3257.329759,N,11714.672535,W,58.1,350.7,101010,,,A*48
$GPRMC,154527.9,A,3257.376248,N,11714.684837,W,57.5,349.4,101010,,,A*42
$GPRMC,154530.9,A,3257.423469,N,11714.689433,W,56.4,352.3,101010,,,A*4E
$GPRMC,154533.9,A,3257.470986,N,11714.698959,W,57.5,352.1,101010,,,A*44
$GPRMC,154536.9,A,3257.518815,N,11714.706794,W,58.2,350.9,101010,,,A*4E
$GPRMC,154539.9,A,3257.568471,N,11714.717593,W,58.5,348.9,101010,,,A*43
$GPRMC,154542.9,A,3257.618866,N,11714.732043,W,58.8,346.9,101010,,,A*4D
$GPRMC,154545.9,A,3257.665938,N,11714.745621,W,58.0,345.0,101010,,,A*4A
$GPRMC,154548.9,A,3257.714177,N,11714.761852,W,59.3,343.2,101010,,,A*49
$GPRMC,154551.9,A,3257.760669,N,11714.779280,W,59.3,342.4,101010,,,A*41
$GPRMC,154554.9,A,3257.805695,N,11714.801276,W,58.5,339.9,101010,,,A*44
$GPRMC,154557.9,A,3257.851952,N,11714.819611,W,58.0,340.6,101010,,,A*4A
$GPRMC,154600.9,A,3257.899515,N,11714.838012,W,58.6,341.0,101010,,,A*47
$GPRMC,154603.2,A,3257.938800,N,11714.849332,W,60.3,342.7,101010,,,A*41
$GPRMC,154606.2,A,3257.986912,N,11714.868117,W,60.0,342.5,101010,,,A*44
$GPRMC,154609.2,A,3258.035460,N,11714.887313,W,61.2,342.2,101010,,,A*4E
$GPRMC,154612.9,A,3258.095687,N,11714.910991,W,60.9,341.3,101010,,,A*49
$GPRMC,154615.9,A,3258.144437,N,11714.930090,W,61.0,342.1,101010,,,A*49
$GPRMC,154618.9,A,3258.189945,N,11714.949522,W,58.4,341.4,101010,,,A*47
$GPRMC,154621.9,A,3258.240738,N,11714.967163,W,61.1,341.9,101010,,,A*40
$GPRMC,154624.9,A,3258.285060,N,11714.987613,W,58.7,341.9,101010,,,A*44
$GPRMC,154627.9,A,3258.331558,N,11715.001567,W,58.8,343.4,101010,,,A*41
$GPRMC,154630.9,A,3258.382882,N,11715.018492,W,59.9,342.8,101010,,,A*4B
$GPRMC,154633.9,A,3258.430065,N,11715.035632,W,58.7,342.9,101010,,,A*4E
$GPRMC,154636.9,A,3258.477518,N,11715.051132,W,58.8,342.8,101010,,,A*4C
$GPRMC,154639.9,A,3258.525721,N,11715.070122,W,59.9,342.6,101010,,,A*41
$GPRMC,154642.9,A,3258.572661,N,11715.088338,W,58.9,342.7,101010,,,A*44
$GPRMC,154645.9,A,3258.617657,N,11715.106048,W,57.4,342.0,101010,,,A*40
$GPRMC,154648.9,A,3258.664132,N,11715.121012,W,58.0,343.4,101010,,,A*49
$GPRMC,154651.9,A,3258.712522,N,11715.136361,W,58.7,342.3,101010,,,A*44
$GPRMC,154654.9,A,3258.760506,N,11715.157463,W,60.6,340.8,101010,,,A*43
$GPRMC,154657.9,A,3258.806839,N,11715.178005,W,60.7,340.8,101010,,,A*46
$GPRMC,154700.9,A,3258.852546,N,11715.198440,W,59.0,341.2,101010,,,A*4C
$GPRMC,154703.9,A,3258.901651,N,11715.214500,W,59.8,343.1,101010,,,A*46
$GPRMC,154706.9,A,3258.947406,N,11715.230263,W,59.0,342.8,101010,,,A*45
$GPRMC,154709.9,A,3258.996591,N,11715.247853,W,60.2,342.7,101010,,,A*47
$GPRMC,154712.9,A,3259.045395,N,11715.264253,W,62.0,344.2,101010,,,A*41
$GPRMC,154715.9,A,3259.095513,N,11715.281555,W,62.1,346.0,101010,,,A*48
$GPRMC,154718.9,A,3259.148343,N,11715.293463,W,62.7,350.4,101010,,,A*45
$GPRMC,154721.9,A,3259.198715,N,11715.298166,W,62.0,354.8,101010,,,A*41
$GPRMC,154724.9,A,3259.247025,N,11715.305494,W,61.9,352.3,101010,,,A*4B
$GPRMC,154727.9,A,3259.297579,N,11715.311026,W,61.6,354.0,101010,,,A*4B
$GPRMC,154730.9,A,3259.349797,N,11715.320973,W,61.9,352.2,101010,,,A*4D
$GPRMC,154733.9,A,3259.399477,N,11715.327405,W,60.3,353.5,101010,,,A*48
$GPRMC,154736.9,A,3259.447384,N,11715.335540,W,59.1,352.3,101010,,,A*4E
$GPRMC,154739.9,A,3259.496246,N,11715.343902,W,59.1,352.2,101010,,,A*48
$GPRMC,154742.9,A,3259.545502,N,11715.350727,W,59.4,352.6,101010,,,A*46
$GPRMC,154745.9,A,3259.596391,N,11715.360449,W,61.2,352.5,101010,,,A*45
$GPRMC,154748.9,A,3259.647427,N,11715.365921,W,61.5,353.0,101010,,,A*48
$GPRMC,154751.9,A,3259.699100,N,11715.376233,W,61.6,352.0,101010,,,A*4B
$GPRMC,154754.9,A,3259.750609,N,11715.384283,W,61.9,352.6,101010,,,A*4B
$GPRMC,154757.9,A,3259.800420,N,11715.390920,W,61.7,352.9,101010,,,A*4D
$GPRMC,154800.9,A,3259.851841,N,11715.399863,W,62.0,352.1,101010,,,A*4C
$GPRMC,154803.9,A,3259.903831,N,11715.406022,W,62.5,352.8,101010,,,A*4E
$GPRMC,154806.9,A,3259.960821,N,11715.412372,W,63.8,353.1,101010,,,A*48
$GPRMC,154809.9,A,3300.013203,N,11715.424086,W,63.4,351.5,101010,,,A*4A
$GPRMC,154812.9,A,3300.060788,N,11715.435118,W,62.1,351.4,101010,,,A*41
$GPRMC,154815.9,A,3300.108660,N,11715.442008,W,60.9,352.9,101010,,,A*4A
$GPRMC,154818.9,A,3300.159475,N,11715.452753,W,61.3,348.8,101010,,,A*4C
$GPRMC,154821.9,A,3300.209042,N,11715.469920,W,61.8,343.2,101010,,,A*48
$GPRMC,154824.9,A,3300.258747,N,11715.490970,W,62.7,338.1,101010,,,A*4B
$GPRMC,154827.9,A,3300.305342,N,11715.519200,W,63.1,330.7,101010,,,A*45
$GPRMC,154830.9,A,3300.349984,N,11715.554876,W,64.3,325.3,101010,,,A*4C
$GPRMC,154833.9,A,3300.391902,N,11715.595212,W,65.5,319.9,101010,,,A*43
$GPRMC,154836.9,A,3300.428617,N,11715.639391,W,63.3,315.5,101010,,,A*47
$GPRMC,154839.9,A,3300.464168,N,11715.681425,W,62.1,315.1,101010,,,A*43
$GPRMC,154842.9,A,3300.499364,N,11715.725337,W,61.1,315.4,101010,,,A*4E
$GPRMC,154845.9,A,3300.537833,N,11715.766343,W,60.9,316.2,101010,,,A*4D
$GPRMC,154848.9,A,3300.571420,N,11715.804731,W,57.5,315.9,101010,,,A*46
$GPRMC,154851.9,A,3300.607865,N,11715.844850,W,58.2,316.0,101010,,,A*4F
$GPRMC,154854.9,A,3300.641495,N,11715.884579,W,56.3,315.5,101010,,,A*48
$GPRMC,154857.9,A,3300.674335,N,11715.924255,W,56.6,316.5,101010,,,A*44
$GPRMC,154900.9,A,3300.711214,N,11715.962615,W,57.1,317.6,101010,,,A*41
$GPRMC,154903.9,A,3300.745633,N,11716.002333,W,57.4,316.2,101010,,,A*4F
$GPRMC,154906.9,A,3300.780210,N,11716.042295,W,57.8,317.2,101010,,,A*42
$GPRMC,154909.9,A,3300.811209,N,11716.080975,W,56.1,315.5,101010,,,A*44
$GPRMC,154912.9,A,3300.849847,N,11716.122526,W,58.0,317.3,101010,,,A*4B
$GPRMC,154915.9,A,3300.883441,N,11716.158044,W,56.9,316.9,101010,,,A*40
$GPRMC,154918.9,A,3300.920142,N,11716.197886,W,58.6,318.8,101010,,,A*48
$GPRMC,154921.9,A,3300.958434,N,11716.232626,W,57.9,323.2,101010,,,A*43
$GPRMC,154924.9,A,3300.999794,N,11716.265000,W,58.2,326.5,101010,,,A*44
$GPRMC,154927.9,A,3301.039400,N,11716.293084,W,57.0,331.5,101010,,,A*45
$GPRMC,154930.9,A,3301.080703,N,11716.316658,W,56.4,334.7,101010,,,A*48
$GPRMC,154933.2,A,3301.115439,N,11716.332820,W,57.3,338.0,101010,,,A*4D
$GPRMC,154936.2,A,3301.157240,N,11716.355006,W,54.8,340.6,101010,,,A*4A
$GPRMC,154939.2,A,3301.202589,N,11716.369477,W,56.2,345.5,101010,,,A*47
$GPRMC,154942.2,A,3301.247892,N,11716.379858,W,54.9,348.9,101010,,,A*45
$GPRMC,154945.2,A,3301.291832,N,11716.387654,W,52.6,350.3,101010,,,A*4A
$GPRMC,154948.9,A,3301.346830,N,11716.396177,W,54.1,350.9,101010,,,A*48
$GPRMC,154951.9,A,3301.390746,N,11716.408173,W,53.5,348.9,101010,,,A*4B
$GPRMC,154954.9,A,3301.432890,N,11716.415719,W,52.5,348.6,101010,,,A*4D
$GPRMC,154957.9,A,3301.475615,N,11716.423557,W,52.7,346.0,101010,,,A*49
$GPRMC,155000.9,A,3301.518482,N,11716.442001,W,54.8,340.6,101010,,,A*4D
$GPRMC,155003.9,A,3301.562429,N,11716.463537,W,56.2,337.5,101010,,,A*4A
$GPRMC,155006.9,A,3301.602687,N,11716.484939,W,55.3,335.2,101010,,,A*40
$GPRMC,155009.9,A,3301.642130,N,11716.512826,W,55.0,331.2,101010,,,A*46
$GPRMC,155012.9,A,3301.680289,N,11716.540500,W,53.4,330.7,101010,,,A*4B
$GPRMC,155015.9,A,3301.718999,N,11716.566123,W,52.3,330.5,101010,,,A*43
$GPRMC,155018.9,A,3301.754976,N,11716.593050,W,51.6,329.4,101010,,,A*47
$GPRMC,155021.9,A,3301.792044,N,11716.616511,W,50.2,330.7,101010,,,A*4F
$GPRMC,155025.2,A,3301.831368,N,11716.643133,W,48.3,330.5,101010,,,A*45
$GPRMC,155028.9,A,3301.876270,N,11716.669826,W,48.4,331.1,101010,,,A*4F
$GPRMC,155031.9,A,3301.911959,N,11716.693995,W,49.6,330.1,101010,,,A*49
$GPRMC,155034.9,A,3301.948195,N,11716.719433,W,50.3,330.5,101010,,,A*43
$GPRMC,155037.9,A,3301.985826,N,11716.744714,W,50.4,331.4,101010,,,A*49
$GPRMC,155040.9,A,3302.021412,N,11716.765810,W,47.8,333.5,101010,,,A*47
$GPRMC,155043.9,A,3302.053167,N,11716.785232,W,42.2,335.0,101010,,,A*4E
$GPRMC,155046.9,A,3302.079819,N,11716.797053,W,32.8,337.9,101010,,,A*43
$GPRMC,155049.9,A,3302.101830,N,11716.807111,W,27.8,344.4,101010,,,A*45
$GPRMC,155052.2,A,3302.117213,N,11716.811316,W,25.5,345.9,101010,,,A*49
$GPRMC,155055.0,A,3302.132940,N,11716.816093,W,22.1,345.1,101010,,,A*44
$GPRMC,155058.9,A,3302.152532,N,11716.819377,W,17.3,352.9,101010,,,A*43
$GPRMC,155101.9,A,3302.164241,N,11716.823617,W,14.5,346.6,101010,,,A*4D
$GPRMC,155104.9,A,3302.176088,N,11716.827895,W,12.5,319.5,101010,,,A*43
$GPRMC,155107.9,A,3302.177474,N,11716.841250,W,16.6,270.4,101010,,,A*4D
$GPRMC,155110.9,A,3302.175257,N,11716.862904,W,21.2,265.9,101010,,,A*4C
$GPRMC,155113.2,A,3302.175370,N,11716.879088,W,22.7,267.0,101010,,,A*4A
$GPRMC,155116.2,A,3302.175025,N,11716.903740,W,22.8,270.6,101010,,,A*4C
$GPRMC,155119.9,A,3302.175910,N,11716.930320,W,24.8,274.5,101010,,,A*44
$GPRMC,155122.9,A,3302.177930,N,11716.962334,W,30.3,274.4,101010,,,A*41
$GPRMC,155125.9,A,3302.178104,N,11716.992751,W,30.0,270.7,101010,,,A*4A
$GPRMC,155128.9,A,3302.178265,N,11717.021161,W,28.1,269.9,101010,,,A*48
$GPRMC,155131.9,A,3302.178215,N,11717.048856,W,26.6,269.1,101010,,,A*44
$GPRMC,155134.9,A,3302.177363,N,11717.073185,W,24.8,269.4,101010,,,A*48
$GPRMC,155137.9,A,3302.177662,N,11717.096912,W,22.6,269.9,101010,,,A*47
$GPRMC,155140.9,A,3302.174943,N,11717.117442,W,20.2,268.4,101010,,,A*42
$GPRMC,155143.9,A,3302.173546,N,11717.132785,W,13.2,267.8,101010,,,A*43
$GPRMC,155147.2,A,3302.175280,N,11717.145062,W,10.9,281.6,101010,,,A*47
$GPRMC,155150.9,A,3302.175337,N,11717.158078,W,10.3,260.9,101010,,,A*4A
$GPRMC,155153.9,A,3302.175145,N,11717.173005,W,16.6,264.9,101010,,,A*4A
$GPRMC,155156.9,A,3302.171512,N,11717.191676,W,20.9,265.3,101010,,,A*42
$GPRMC,155159.9,A,3302.171034,N,11717.216958,W,25.1,269.2,101010,,,A*43
$GPRMC,155202.9,A,3302.171165,N,11717.247218,W,27.9,269.9,101010,,,A*41
$GPRMC,155205.9,A,3302.172026,N,11717.272463,W,25.7,268.8,101010,,,A*43
$GPRMC,155208.9,A,3302.173380,N,11717.295012,W,22.5,269.0,101010,,,A*47
$GPRMC,155211.9,A,3302.173399,N,11717.313468,W,19.5,269.7,101010,,,A*4E
$GPRMC,155214.9,A,3302.171708,N,11717.333258,W,18.6,269.5,101010,,,A*42
$GPRMC,155217.9,A,3302.171614,N,11717.349037,W,17.1,270.8,101010,,,A*46
$GPRMC,155220.9,A,3302.171651,N,11717.368415,W,20.0,270.7,101010,,,A*4E
$GPRMC,155223.9,A,3302.171183,N,11717.390864,W,21.2,269.1,101010,,,A*45
$GPRMC,155226.9,A,3302.168690,N,11717.411011,W,19.9,267.3,101010,,,A*45
$GPRMC,155229.9,A,3302.168857,N,11717.429467,W,17.0,269.0,101010,,,A*4B
$GPRMC,155232.9,A,3302.168064,N,11717.438248,W,10.3,267.2,101010,,,A*4A
$GPRMC,155235.9,A,3302.168445,N,11717.449113,W,10.7,270.7,101010,,,A*46
$GPRMC,155238.9,A,3302.169340,N,11717.449729,W,7.1,264.7,101010,,,A*72
$GPRMC,155241.9,A,3302.170147,N,11717.457971,W,6.7,265.3,101010,,,A*7F
$GPRMC,155244.9,A,3302.169916,N,11717.464537,W,5.5,265.6,101010,,,A*74
$GPRMC,155250.9,A,3302.170538,N,11717.463935,W,6.9,245.5,101010,,,A*7E
$GPRMC,155253.9,A,3302.158817,N,11717.464839,W,16.6,176.7,101010,,,A*42
$GPRMC,155256.9,A,3302.137916,N,11717.458663,W,25.1,165.2,101010,,,A*40
$GPRMC,155259.9,A,3302.118890,N,11717.452363,W,24.6,165.0,101010,,,A*46
$GPRMC,155302.9,A,3302.099729,N,11717.445718,W,24.8,164.7,101010,,,A*4A
$GPRMC,155305.9,A,3302.078168,N,11717.442964,W,25.2,167.7,101010,,,A*4B
$GPRMC,155308.9,A,3302.060920,N,11717.431746,W,23.9,158.4,101010,,,A*43
$GPRMC,155311.9,A,3302.041107,N,11717.426210,W,22.6,161.0,101010,,,A*45
$GPRMC,155314.9,A,3302.021948,N,11717.417186,W,23.9,160.5,101010,,,A*41
$GPRMC,155317.9,A,3302.005805,N,11717.408473,W,22.9,156.7,101010,,,A*4B
$GPRMC,155320.9,A,3301.983961,N,11717.396805,W,25.9,157.0,101010,,,A*44
$GPRMC,155323.9,A,3301.965744,N,11717.386041,W,24.8,156.7,101010,,,A*49
$GPRMC,155326.9,A,3301.945660,N,11717.375240,W,25.2,156.3,101010,,,A*49
$GPRMC,155329.9,A,3301.927879,N,11717.364815,W,25.0,154.9,101010,,,A*44
$GPRMC,155332.9,A,3301.909852,N,11717.357314,W,25.2,157.3,101010,,,A*4A
$GPRMC,155335.9,A,3301.890440,N,11717.343845,W,25.4,160.2,101010,,,A*4A
$GPRMC,155338.9,A,3301.872081,N,11717.335157,W,25.1,157.2,101010,,,A*48
$GPRMC,155341.9,A,3301.855192,N,11717.324312,W,23.2,155.4,101010,,,A*42
$GPRMC,155344.9,A,3301.837214,N,11717.316308,W,22.0,156.6,101010,,,A*46
$GPRMC,155347.9,A,3301.823822,N,11717.310311,W,18.4,157.3,101010,,,A*48
$GPRMC,155350.9,A,3301.813186,N,11717.300424,W,15.1,151.0,101010,,,A*47
$GPRMC,155353.9,A,3301.803814,N,11717.299617,W,9.8,158.0,101010,,,A*79
$GPRMC,155356.9,A,3301.798745,N,11717.300461,W,4.5,197.4,101010,,,A*7F
