NMEA Sentence Code,UTC Time,Status,Latitude,Latitude Direction,Longitude,Longitude Direction,Speed (knots),Track Angle (degrees true),Date,MagneticVariation,Magnetic Variation Direction,[FAA Mode]-Optional,Checksum
$GPRMC,185112.000,A,3233.8850,N,11658.5728,W,4.57,70.38,110210,,*21
$GPRMC,185115.000,A,3233.8866,N,11658.5672,W,6.87,79.53,110210,,*26
$GPRMC,185118.000,A,3233.8876,N,11658.5590,W,8.80,87.14,110210,,*2E
$GPRMC,185121.000,A,3233.8879,N,11658.5498,W,8.91,86.72,110210,,*23
$GPRMC,185124.000,A,3233.8887,N,11658.5415,W,7.76,73.90,110210,,*22
$GPRMC,185127.000,A,3233.8931,N,11658.5350,W,8.97,30.58,110210,,*28
$GPRMC,185130.000,A,3233.9009,N,11658.5324,W,9.83,3.01,110210,,*16
$GPRMC,185133.000,A,3233.9093,N,11658.5323,W,9.72,357.94,110210,,*11
$GPRMC,185136.000,A,3233.9182,N,11658.5316,W,10.37,2.96,110210,,*2B
$GPRMC,185139.000,A,3233.9264,N,11658.5313,W,8.41,1.90,110210,,*17
$GPRMC,185142.000,A,3233.9331,N,11658.5313,W,6.90,359.80,110210,,*17
$GPRMC,185145.000,A,3233.9392,N,11658.5307,W,6.18,1.37,110210,,*1E
$GPRMC,185148.000,A,3233.9446,N,11658.5302,W,5.98,19.65,110210,,*2D
$GPRMC,185151.000,A,3233.9491,N,11658.5272,W,6.20,31.90,110210,,*29
$GPRMC,185206.000,A,3233.9602,N,11658.5216,W,5.83,25.76,110210,,*25
$GPRMC,185209.000,A,3233.9648,N,11658.5188,W,6.81,28.51,110210,,*29
$GPRMC,185212.000,A,3233.9710,N,11658.5160,W,9.15,16.69,110210,,*2D
$GPRMC,185215.000,A,3233.9803,N,11658.5156,W,13.13,358.30,110210,,*2A
$GPRMC,185218.000,A,3233.9931,N,11658.5160,W,15.29,357.56,110210,,*22
$GPRMC,185221.000,A,3234.0071,N,11658.5164,W,17.29,359.28,110210,,*2A
$GPRMC,185224.000,A,3234.0220,N,11658.5165,W,17.15,0.89,110210,,*23
$GPRMC,185227.000,A,3234.0354,N,11658.5165,W,14.07,0.00,110210,,*23
$GPRMC,185230.000,A,3234.0453,N,11658.5163,W,9.30,1.27,110210,,*1F
$GPRMC,185233.000,A,3234.0509,N,11658.5162,W,4.87,359.71,110210,,*1F
$GPRMC,185342.000,A,3234.0622,N,11658.5162,W,8.70,1.50,110210,,*1B
$GPRMC,185345.000,A,3234.0712,N,11658.5184,W,12.24,333.07,110210,,*2C
$GPRMC,185348.000,A,3234.0790,N,11658.5284,W,15.38,297.62,110210,,*2E
$GPRMC,185351.000,A,3234.0820,N,11658.5446,W,17.67,274.85,110210,,*26
$GPRMC,185354.000,A,3234.0819,N,11658.5641,W,20.99,270.48,110210,,*2C
$GPRMC,185357.000,A,3234.0821,N,11658.5854,W,22.17,271.65,110210,,*24
$GPRMC,185400.000,A,3234.0824,N,11658.6089,W,24.63,271.34,110210,,*2E
$GPRMC,185403.000,A,3234.0829,N,11658.6339,W,24.95,271.48,110210,,*2A
$GPRMC,185406.000,A,3234.0834,N,11658.6579,W,23.11,271.42,110210,,*20
$GPRMC,185409.000,A,3234.0837,N,11658.6817,W,25.28,270.85,110210,,*2F
$GPRMC,185412.000,A,3234.0840,N,11658.7087,W,28.58,270.57,110210,,*20
$GPRMC,185415.000,A,3234.0843,N,11658.7386,W,30.72,270.82,110210,,*2F
$GPRMC,185418.000,A,3234.0847,N,11658.7699,W,32.27,270.79,110210,,*2B
$GPRMC,185421.000,A,3234.0852,N,11658.8032,W,34.51,271.41,110210,,*20
$GPRMC,185424.000,A,3234.0858,N,11658.8386,W,36.40,270.91,110210,,*2D
$GPRMC,185427.000,A,3234.0863,N,11658.8748,W,36.49,270.99,110210,,*21
$GPRMC,185430.000,A,3234.0869,N,11658.9116,W,37.31,270.85,110210,,*22
$GPRMC,185433.000,A,3234.0875,N,11658.9489,W,37.58,271.06,110210,,*2A
$GPRMC,185436.000,A,3234.0880,N,11658.9856,W,36.32,271.17,110210,,*26
$GPRMC,185439.000,A,3234.0887,N,11659.0212,W,35.42,271.18,110210,,*27
$GPRMC,185442.000,A,3234.0893,N,11659.0562,W,35.15,271.18,110210,,*2C
$GPRMC,185445.000,A,3234.0899,N,11659.0907,W,34.49,271.24,110210,,*29
$GPRMC,185448.000,A,3234.0906,N,11659.1230,W,29.99,271.08,110210,,*22
$GPRMC,185451.000,A,3234.0910,N,11659.1504,W,26.60,270.50,110210,,*28
$GPRMC,185454.000,A,3234.0915,N,11659.1759,W,24.79,271.35,110210,,*2A
$GPRMC,185457.000,A,3234.0920,N,11659.1979,W,20.34,271.11,110210,,*28
$GPRMC,185501.000,A,3234.0926,N,11659.2208,W,15.14,271.03,110210,,*25
$GPRMC,185504.000,A,3234.0930,N,11659.2332,W,10.18,271.33,110210,,*25
$GPRMC,185522.000,A,3234.0934,N,11659.2481,W,6.08,270.18,110210,,*14
$GPRMC,185525.000,A,3234.0935,N,11659.2567,W,10.76,271.12,110210,,*2E
$GPRMC,185528.000,A,3234.0936,N,11659.2691,W,14.24,271.23,110210,,*2B
$GPRMC,185531.000,A,3234.0938,N,11659.2856,W,17.97,270.80,110210,,*2B
$GPRMC,185534.000,A,3234.0939,N,11659.3063,W,23.34,270.57,110210,,*24
$GPRMC,185537.000,A,3234.0940,N,11659.3305,W,25.73,270.80,110210,,*25
$GPRMC,185540.000,A,3234.0942,N,11659.3586,W,30.45,270.47,110210,,*20
$GPRMC,185543.000,A,3234.0945,N,11659.3897,W,31.83,270.88,110210,,*21
$GPRMC,185546.000,A,3234.0948,N,11659.4219,W,32.88,270.57,110210,,*28
$GPRMC,185549.000,A,3234.0952,N,11659.4549,W,33.53,270.82,110210,,*21
$GPRMC,185552.000,A,3234.0956,N,11659.4887,W,34.66,270.66,110210,,*2B
$GPRMC,185555.000,A,3234.0958,N,11659.5234,W,34.99,270.46,110210,,*23
$GPRMC,185558.000,A,3234.0962,N,11659.5585,W,35.59,270.34,110210,,*22
$GPRMC,185600.000,A,3234.0964,N,11659.5816,W,33.85,270.58,110210,,*20
$GPRMC,185603.000,A,3234.0967,N,11659.6124,W,28.79,270.59,110210,,*23
$GPRMC,185606.000,A,3234.0971,N,11659.6392,W,25.81,270.89,110210,,*29
$GPRMC,185609.000,A,3234.0975,N,11659.6629,W,22.82,270.84,110210,,*2E
$GPRMC,185612.000,A,3234.0979,N,11659.6836,W,18.67,270.55,110210,,*26
$GPRMC,185615.000,A,3234.0982,N,11659.6991,W,13.84,270.39,110210,,*25
$GPRMC,185618.000,A,3234.0984,N,11659.7118,W,12.76,270.37,110210,,*24
$GPRMC,185621.000,A,3234.0987,N,11659.7242,W,13.52,270.99,110210,,*22
$GPRMC,185624.000,A,3234.0989,N,11659.7392,W,17.36,270.82,110210,,*29
$GPRMC,185627.000,A,3234.0991,N,11659.7590,W,21.64,270.67,110210,,*2E
$GPRMC,185630.000,A,3234.0993,N,11659.7817,W,24.63,270.69,110210,,*24
$GPRMC,185633.000,A,3234.0996,N,11659.8073,W,26.07,270.75,110210,,*2A
$GPRMC,185636.000,A,3234.0995,N,11659.8342,W,27.83,270.62,110210,,*26
$GPRMC,185639.000,A,3234.0992,N,11659.8634,W,30.24,270.68,110210,,*2B
$GPRMC,185642.000,A,3234.0991,N,11659.8944,W,32.15,270.74,110210,,*21
$GPRMC,185645.000,A,3234.0994,N,11659.9272,W,33.28,270.46,110210,,*22
$GPRMC,185648.000,A,3234.1002,N,11659.9606,W,33.07,270.83,110210,,*2B
$GPRMC,185651.000,A,3234.1007,N,11659.9934,W,32.90,270.43,110210,,*2B
$GPRMC,185654.000,A,3234.1012,N,11700.0263,W,33.35,270.52,110210,,*29
$GPRMC,185657.000,A,3234.1016,N,11700.0589,W,32.34,270.65,110210,,*29
$GPRMC,185700.000,A,3234.1019,N,11700.0900,W,31.58,270.36,110210,,*27
$GPRMC,185703.000,A,3234.1019,N,11700.1218,W,33.20,269.77,110210,,*27
$GPRMC,185706.000,A,3234.1014,N,11700.1547,W,33.39,268.65,110210,,*28
$GPRMC,185709.000,A,3234.1009,N,11700.1872,W,32.57,268.05,110210,,*2F
$GPRMC,185712.000,A,3234.0998,N,11700.2199,W,33.97,267.35,110210,,*2B
$GPRMC,185715.000,A,3234.0984,N,11700.2550,W,36.45,268.88,110210,,*23
$GPRMC,185718.000,A,3234.0982,N,11700.2925,W,39.37,269.55,110210,,*2D
$GPRMC,185721.000,A,3234.0984,N,11700.3324,W,41.12,271.09,110210,,*23
$GPRMC,185724.000,A,3234.0990,N,11700.3737,W,41.70,270.62,110210,,*2D
$GPRMC,185727.000,A,3234.0994,N,11700.4150,W,41.95,270.51,110210,,*21
$GPRMC,185730.000,A,3234.1002,N,11700.4568,W,41.80,270.70,110210,,*28
$GPRMC,185733.000,A,3234.1007,N,11700.4967,W,39.41,270.98,110210,,*29
$GPRMC,185736.000,A,3234.1009,N,11700.5342,W,36.52,270.23,110210,,*23
$GPRMC,185739.000,A,3234.1013,N,11700.5685,W,34.39,270.66,110210,,*27
$GPRMC,185742.000,A,3234.1016,N,11700.6023,W,34.82,270.46,110210,,*25
$GPRMC,185745.000,A,3234.1024,N,11700.6377,W,36.63,271.32,110210,,*2E
$GPRMC,185748.000,A,3234.1037,N,11700.6742,W,37.47,272.59,110210,,*2A
$GPRMC,185751.000,A,3234.1059,N,11700.7121,W,39.28,273.74,110210,,*21
$GPRMC,185754.000,A,3234.1084,N,11700.7513,W,39.82,274.00,110210,,*25
$GPRMC,185757.000,A,3234.1104,N,11700.7901,W,39.36,272.53,110210,,*2F
$GPRMC,185800.000,A,3234.1117,N,11700.8297,W,40.66,271.27,110210,,*20
$GPRMC,185803.000,A,3234.1123,N,11700.8701,W,40.53,270.53,110210,,*2A
$GPRMC,185806.000,A,3234.1122,N,11700.9106,W,39.89,270.49,110210,,*2C
$GPRMC,185809.000,A,3234.1126,N,11700.9503,W,40.08,270.83,110210,,*27
$GPRMC,185812.000,A,3234.1131,N,11700.9899,W,40.76,270.63,110210,,*22
$GPRMC,185815.000,A,3234.1135,N,11701.0309,W,42.26,270.87,110210,,*26
$GPRMC,185818.000,A,3234.1139,N,11701.0725,W,42.23,270.64,110210,,*25
$GPRMC,185821.000,A,3234.1142,N,11701.1141,W,42.37,270.94,110210,,*2C
$GPRMC,185824.000,A,3234.1152,N,11701.1558,W,42.65,271.35,110210,,*29
$GPRMC,185827.000,A,3234.1160,N,11701.1980,W,42.95,270.91,110210,,*22
$GPRMC,185831.000,A,3234.1169,N,11701.2546,W,43.47,271.44,110210,,*2E
$GPRMC,185834.000,A,3234.1185,N,11701.2974,W,43.72,272.58,110210,,*2C
$GPRMC,185837.000,A,3234.1205,N,11701.3404,W,44.23,272.81,110210,,*28
$GPRMC,185840.000,A,3234.1230,N,11701.3839,W,44.26,274.16,110210,,*21
$GPRMC,185843.000,A,3234.1258,N,11701.4264,W,42.68,273.82,110210,,*2F
$GPRMC,185846.000,A,3234.1278,N,11701.4660,W,37.91,272.55,110210,,*27
$GPRMC,185849.000,A,3234.1288,N,11701.5005,W,32.34,271.29,110210,,*21
$GPRMC,185852.000,A,3234.1288,N,11701.5309,W,29.23,270.19,110210,,*2A
$GPRMC,185855.000,A,3234.1280,N,11701.5584,W,26.92,267.34,110210,,*2A
$GPRMC,185858.000,A,3234.1265,N,11701.5855,W,28.10,266.40,110210,,*2B
$GPRMC,185900.000,A,3234.1253,N,11701.6041,W,28.60,265.33,110210,,*2C
$GPRMC,185903.000,A,3234.1231,N,11701.6326,W,29.11,265.14,110210,,*2B
$GPRMC,185906.000,A,3234.1210,N,11701.6608,W,29.18,265.14,110210,,*2D
$GPRMC,185909.000,A,3234.1189,N,11701.6908,W,31.35,264.94,110210,,*21
$GPRMC,185912.000,A,3234.1169,N,11701.7233,W,34.09,265.21,110210,,*22
$GPRMC,185915.000,A,3234.1143,N,11701.7579,W,35.69,264.25,110210,,*26
$GPRMC,185918.000,A,3234.1113,N,11701.7937,W,37.20,264.72,110210,,*25
$GPRMC,185921.000,A,3234.1083,N,11701.8313,W,38.72,265.42,110210,,*2E
$GPRMC,185924.000,A,3234.1059,N,11701.8695,W,38.47,265.84,110210,,*2B
$GPRMC,185927.000,A,3234.1044,N,11701.9068,W,37.35,268.87,110210,,*25
$GPRMC,185930.000,A,3234.1049,N,11701.9442,W,37.70,271.27,110210,,*21
$GPRMC,185933.000,A,3234.1063,N,11701.9814,W,37.92,272.29,110210,,*24
$GPRMC,185936.000,A,3234.1079,N,11702.0189,W,38.24,272.57,110210,,*26
$GPRMC,185939.000,A,3234.1093,N,11702.0558,W,34.69,271.72,110210,,*24
$GPRMC,185942.000,A,3234.1094,N,11702.0883,W,32.05,270.45,110210,,*2D
$GPRMC,185945.000,A,3234.1109,N,11702.1210,W,34.69,275.76,110210,,*27
$GPRMC,185948.000,A,3234.1141,N,11702.1566,W,37.59,275.40,110210,,*25
$GPRMC,185951.000,A,3234.1173,N,11702.1941,W,39.04,277.98,110210,,*24
$GPRMC,185954.000,A,3234.1253,N,11702.2328,W,41.74,289.11,110210,,*2E
$GPRMC,185957.000,A,3234.1410,N,11702.2705,W,44.09,301.67,110210,,*28
$GPRMC,190000.000,A,3234.1648,N,11702.3047,W,46.03,314.51,110210,,*21
$GPRMC,190003.000,A,3234.1964,N,11702.3320,W,48.20,329.36,110210,,*21
$GPRMC,190006.000,A,3234.2356,N,11702.3505,W,50.75,344.38,110210,,*21
$GPRMC,190009.000,A,3234.2788,N,11702.3580,W,51.67,354.71,110210,,*2A
$GPRMC,190012.000,A,3234.3227,N,11702.3599,W,51.61,0.14,110210,,*2E
$GPRMC,190015.000,A,3234.3657,N,11702.3570,W,50.43,5.28,110210,,*26
$GPRMC,190018.000,A,3234.4064,N,11702.3498,W,46.66,9.65,110210,,*28
$GPRMC,190021.000,A,3234.4445,N,11702.3417,W,45.93,9.62,110210,,*2C
$GPRMC,190024.000,A,3234.4822,N,11702.3346,W,45.48,8.05,110210,,*21
$GPRMC,190027.000,A,3234.5204,N,11702.3280,W,47.29,8.93,110210,,*2C
$GPRMC,190030.000,A,3234.5596,N,11702.3191,W,48.20,11.48,110210,,*1D
$GPRMC,190033.000,A,3234.5997,N,11702.3093,W,49.50,11.32,110210,,*1B
$GPRMC,190036.000,A,3234.6410,N,11702.2996,W,50.67,10.79,110210,,*10
$GPRMC,190039.000,A,3234.6832,N,11702.2893,W,51.70,10.97,110210,,*10
$GPRMC,190042.000,A,3234.7259,N,11702.2790,W,52.21,11.11,110210,,*1E
$GPRMC,190045.000,A,3234.7694,N,11702.2686,W,53.22,11.08,110210,,*10
$GPRMC,190048.000,A,3234.8139,N,11702.2579,W,54.14,11.10,110210,,*1A
$GPRMC,190051.000,A,3234.8591,N,11702.2473,W,55.31,10.83,110210,,*12
$GPRMC,190054.000,A,3234.9052,N,11702.2366,W,56.46,11.04,110210,,*12
$GPRMC,190057.000,A,3234.9522,N,11702.2254,W,57.59,11.27,110210,,*1D
$GPRMC,190100.000,A,3235.0000,N,11702.2142,W,58.49,11.11,110210,,*1C
$GPRMC,190103.000,A,3235.0487,N,11702.2030,W,59.03,10.88,110210,,*1E
$GPRMC,190106.000,A,3235.0968,N,11702.1924,W,58.63,10.24,110210,,*19
$GPRMC,190109.000,A,3235.1451,N,11702.1836,W,58.44,8.12,110210,,*2B
$GPRMC,190112.000,A,3235.1936,N,11702.1764,W,58.35,6.39,110210,,*24
$GPRMC,190115.000,A,3235.2418,N,11702.1714,W,58.06,4.37,110210,,*2A
$GPRMC,190118.000,A,3235.2901,N,11702.1680,W,57.98,2.90,110210,,*2D
$GPRMC,190121.000,A,3235.3385,N,11702.1662,W,57.94,1.46,110210,,*28
$GPRMC,190124.000,A,3235.3867,N,11702.1659,W,57.67,0.08,110210,,*25
$GPRMC,190127.000,A,3235.4339,N,11702.1662,W,55.82,0.18,110210,,*21
$GPRMC,190130.000,A,3235.4799,N,11702.1663,W,55.18,0.25,110210,,*25
$GPRMC,190133.000,A,3235.5257,N,11702.1664,W,54.92,0.05,110210,,*26
$GPRMC,190136.000,A,3235.5713,N,11702.1664,W,54.80,0.14,110210,,*25
$GPRMC,190139.000,A,3235.6171,N,11702.1665,W,55.18,0.07,110210,,*28
$GPRMC,190142.000,A,3235.6633,N,11702.1663,W,55.53,0.25,110210,,*2C
$GPRMC,190145.000,A,3235.7098,N,11702.1664,W,55.85,0.09,110210,,*2F
$GPRMC,190148.000,A,3235.7563,N,11702.1664,W,55.63,359.96,110210,,*22
$GPRMC,190151.000,A,3235.8026,N,11702.1666,W,54.78,0.07,110210,,*2F
$GPRMC,190154.000,A,3235.8472,N,11702.1667,W,52.23,0.03,110210,,*22
$GPRMC,190157.000,A,3235.8899,N,11702.1668,W,50.14,0.10,110210,,*23
$GPRMC,190200.000,A,3235.9316,N,11702.1668,W,49.73,0.05,110210,,*22
$GPRMC,190203.000,A,3235.9731,N,11702.1669,W,49.84,0.04,110210,,*28
$GPRMC,190206.000,A,3236.0146,N,11702.1669,W,49.70,0.20,110210,,*2C
$GPRMC,190209.000,A,3236.0561,N,11702.1668,W,49.77,0.14,110210,,*23
$GPRMC,190212.000,A,3236.0974,N,11702.1669,W,48.98,359.88,110210,,*2A
$GPRMC,190215.000,A,3236.1383,N,11702.1669,W,49.09,0.07,110210,,*2F
$GPRMC,190218.000,A,3236.1794,N,11702.1669,W,49.07,0.19,110210,,*21
$GPRMC,190221.000,A,3236.2204,N,11702.1668,W,49.38,0.13,110210,,*23
$GPRMC,190224.000,A,3236.2619,N,11702.1667,W,49.99,0.06,110210,,*2E
$GPRMC,190227.000,A,3236.3034,N,11702.1666,W,49.67,0.11,110210,,*23
$GPRMC,190230.000,A,3236.3448,N,11702.1666,W,49.65,359.79,110210,,*29
$GPRMC,190233.000,A,3236.3861,N,11702.1664,W,48.51,0.08,110210,,*20
$GPRMC,190236.000,A,3236.4256,N,11702.1665,W,46.88,359.70,110210,,*27
$GPRMC,190239.000,A,3236.4648,N,11702.1672,W,47.33,358.62,110210,,*26
$GPRMC,190242.000,A,3236.5047,N,11702.1693,W,48.27,356.98,110210,,*2C
$GPRMC,190245.000,A,3236.5454,N,11702.1730,W,49.26,354.90,110210,,*2F
$GPRMC,190248.000,A,3236.5865,N,11702.1783,W,49.08,353.20,110210,,*24
$GPRMC,190251.000,A,3236.6268,N,11702.1849,W,48.47,351.63,110210,,*2E
$GPRMC,190254.000,A,3236.6669,N,11702.1931,W,49.18,349.77,110210,,*27
$GPRMC,190257.000,A,3236.7078,N,11702.2030,W,50.73,348.02,110210,,*2E
$GPRMC,190300.000,A,3236.7497,N,11702.2144,W,51.96,346.03,110210,,*2F
$GPRMC,190303.000,A,3236.7918,N,11702.2280,W,52.19,344.12,110210,,*2B
$GPRMC,190306.000,A,3236.8338,N,11702.2433,W,52.70,342.22,110210,,*2D
$GPRMC,190309.000,A,3236.8759,N,11702.2595,W,53.01,341.91,110210,,*20
$GPRMC,190314.000,A,3236.9468,N,11702.2866,W,52.88,342.00,110210,,*26
$GPRMC,190319.000,A,3237.0168,N,11702.3136,W,52.60,341.53,110210,,*28
$GPRMC,190322.000,A,3237.0586,N,11702.3300,W,52.56,341.88,110210,,*20
$GPRMC,190325.000,A,3237.1001,N,11702.3464,W,51.66,341.50,110210,,*2C
$GPRMC,190329.000,A,3237.1543,N,11702.3673,W,50.42,342.02,110210,,*24
$GPRMC,190332.000,A,3237.1945,N,11702.3825,W,50.37,342.09,110210,,*20
$GPRMC,190336.000,A,3237.2476,N,11702.4029,W,50.26,342.25,110210,,*27
$GPRMC,190339.000,A,3237.2873,N,11702.4183,W,49.44,341.92,110210,,*23
$GPRMC,190342.000,A,3237.3262,N,11702.4333,W,48.76,342.12,110210,,*26
$GPRMC,190348.000,A,3237.4034,N,11702.4633,W,48.93,341.97,110210,,*2A
$GPRMC,190354.000,A,3237.4828,N,11702.4941,W,50.77,341.73,110210,,*21
$GPRMC,190359.000,A,3237.5503,N,11702.5213,W,51.45,340.28,110210,,*2B
$GPRMC,190400.000,A,3237.5638,N,11702.5271,W,51.75,340.18,110210,,*2F
$GPRMC,190404.000,A,3237.6180,N,11702.5513,W,52.15,338.65,110210,,*2F
$GPRMC,190407.000,A,3237.6587,N,11702.5707,W,52.58,338.02,110210,,*20
$GPRMC,190410.000,A,3237.6996,N,11702.5901,W,52.80,338.09,110210,,*2C
$GPRMC,190413.000,A,3237.7410,N,11702.6099,W,53.49,338.11,110210,,*2B
$GPRMC,190416.000,A,3237.7831,N,11702.6299,W,54.42,338.33,110210,,*2F
$GPRMC,190419.000,A,3237.8258,N,11702.6499,W,54.94,338.12,110210,,*24
$GPRMC,190423.000,A,3237.8829,N,11702.6771,W,54.79,337.96,110210,,*24
$GPRMC,190426.000,A,3237.9247,N,11702.6989,W,54.81,335.02,110210,,*23
$GPRMC,190429.000,A,3237.9650,N,11702.7235,W,53.79,331.86,110210,,*2B
$GPRMC,190432.000,A,3238.0038,N,11702.7502,W,52.94,328.54,110210,,*29
$GPRMC,190435.000,A,3238.0412,N,11702.7790,W,53.86,325.68,110210,,*2B
$GPRMC,190438.000,A,3238.0791,N,11702.8105,W,56.16,325.02,110210,,*2B
$GPRMC,190441.000,A,3238.1159,N,11702.8447,W,56.01,319.87,110210,,*21
$GPRMC,190444.000,A,3238.1502,N,11702.8820,W,55.68,316.39,110210,,*25
$GPRMC,190447.000,A,3238.1826,N,11702.9208,W,55.18,312.75,110210,,*27
$GPRMC,190450.000,A,3238.2127,N,11702.9621,W,55.24,309.61,110210,,*25
$GPRMC,190453.000,A,3238.2412,N,11703.0054,W,55.66,307.02,110210,,*24
$GPRMC,190456.000,A,3238.2680,N,11703.0507,W,56.29,304.54,110210,,*23
$GPRMC,190459.000,A,3238.2942,N,11703.0968,W,56.22,304.40,110210,,*26
$GPRMC,190500.000,A,3238.3030,N,11703.1121,W,56.21,304.60,110210,,*23
$GPRMC,190503.000,A,3238.3296,N,11703.1580,W,56.25,304.65,110210,,*20
$GPRMC,190506.000,A,3238.3558,N,11703.2034,W,54.78,304.64,110210,,*22
$GPRMC,190509.000,A,3238.3821,N,11703.2465,W,53.46,308.49,110210,,*27
$GPRMC,190512.000,A,3238.4108,N,11703.2856,W,51.64,313.93,110210,,*2B
$GPRMC,190515.000,A,3238.4415,N,11703.3196,W,48.99,320.06,110210,,*27
$GPRMC,190518.000,A,3238.4735,N,11703.3499,W,49.42,323.45,110210,,*22
$GPRMC,190521.000,A,3238.5079,N,11703.3768,W,49.98,329.08,110210,,*2F
$GPRMC,190524.000,A,3238.5448,N,11703.4003,W,50.30,333.57,110210,,*2A
$GPRMC,190527.000,A,3238.5834,N,11703.4209,W,50.47,334.76,110210,,*22
$GPRMC,190530.000,A,3238.6219,N,11703.4422,W,50.87,334.23,110210,,*21
$GPRMC,190533.000,A,3238.6603,N,11703.4639,W,50.77,334.56,110210,,*28
$GPRMC,190536.000,A,3238.6988,N,11703.4855,W,50.75,334.49,110210,,*29
$GPRMC,190539.000,A,3238.7367,N,11703.5080,W,50.36,331.91,110210,,*2A
$GPRMC,190542.000,A,3238.7729,N,11703.5335,W,50.16,327.37,110210,,*2C
$GPRMC,190545.000,A,3238.8069,N,11703.5623,W,49.97,322.21,110210,,*26
$GPRMC,190548.000,A,3238.8388,N,11703.5939,W,49.37,317.97,110210,,*22
$GPRMC,190551.000,A,3238.8678,N,11703.6278,W,48.74,313.38,110210,,*2A
$GPRMC,190554.000,A,3238.8942,N,11703.6648,W,49.16,308.27,110210,,*2F
$GPRMC,190557.000,A,3238.9179,N,11703.7042,W,48.58,303.94,110210,,*28
$GPRMC,190600.000,A,3238.9386,N,11703.7450,W,47.54,299.15,110210,,*24
$GPRMC,190603.000,A,3238.9563,N,11703.7865,W,45.81,296.55,110210,,*21
$GPRMC,190606.000,A,3238.9725,N,11703.8259,W,42.99,296.55,110210,,*20
$GPRMC,190609.000,A,3238.9879,N,11703.8633,W,41.87,296.68,110210,,*23
$GPRMC,190612.000,A,3239.0035,N,11703.9011,W,43.24,296.44,110210,,*23
$GPRMC,190615.000,A,3239.0202,N,11703.9398,W,44.24,298.73,110210,,*2D
$GPRMC,190618.000,A,3239.0400,N,11703.9774,W,45.72,305.26,110210,,*25
$GPRMC,190621.000,A,3239.0641,N,11704.0142,W,48.29,308.79,110210,,*21
$GPRMC,190624.000,A,3239.0900,N,11704.0519,W,49.42,309.25,110210,,*20
$GPRMC,190627.000,A,3239.1173,N,11704.0886,W,48.85,312.77,110210,,*22
$GPRMC,190630.000,A,3239.1460,N,11704.1225,W,48.17,317.25,110210,,*28
$GPRMC,190633.000,A,3239.1774,N,11704.1525,W,48.08,323.23,110210,,*25
$GPRMC,190636.000,A,3239.2104,N,11704.1801,W,48.38,325.20,110210,,*2F
$GPRMC,190639.000,A,3239.2439,N,11704.2074,W,48.86,325.19,110210,,*2D
$GPRMC,190642.000,A,3239.2776,N,11704.2349,W,48.58,324.95,110210,,*22
$GPRMC,190645.000,A,3239.3108,N,11704.2619,W,47.44,325.53,110210,,*22
$GPRMC,190648.000,A,3239.3429,N,11704.2881,W,46.14,325.57,110210,,*26
$GPRMC,190651.000,A,3239.3759,N,11704.3109,W,45.85,335.60,110210,,*2C
$GPRMC,190654.000,A,3239.4129,N,11704.3224,W,45.87,352.33,110210,,*26
$GPRMC,190657.000,A,3239.4515,N,11704.3216,W,46.20,7.40,110210,,*26
$GPRMC,190700.000,A,3239.4891,N,11704.3078,W,47.13,24.27,110210,,*1F
$GPRMC,190703.000,A,3239.5231,N,11704.2803,W,49.31,40.97,110210,,*1F
$GPRMC,190706.000,A,3239.5510,N,11704.2426,W,50.92,53.16,110210,,*1F
$GPRMC,190709.000,A,3239.5753,N,11704.2010,W,51.10,55.78,110210,,*11
$GPRMC,190712.000,A,3239.5989,N,11704.1592,W,50.49,55.59,110210,,*10
$GPRMC,190715.000,A,3239.6230,N,11704.1177,W,51.29,54.82,110210,,*12
$GPRMC,190718.000,A,3239.6471,N,11704.0747,W,51.46,56.88,110210,,*19
$GPRMC,190721.000,A,3239.6711,N,11704.0316,W,51.97,56.61,110210,,*1D
$GPRMC,190724.000,A,3239.6952,N,11703.9882,W,51.88,56.79,110210,,*1E
$GPRMC,190727.000,A,3239.7184,N,11703.9441,W,52.05,59.54,110210,,*1A
$GPRMC,190730.000,A,3239.7387,N,11703.8970,W,52.42,65.29,110210,,*15
$GPRMC,190733.000,A,3239.7550,N,11703.8479,W,52.67,70.62,110210,,*12
$GPRMC,190736.000,A,3239.7682,N,11703.7981,W,52.22,72.83,110210,,*12
$GPRMC,190739.000,A,3239.7812,N,11703.7489,W,51.88,71.88,110210,,*14
$GPRMC,190742.000,A,3239.7945,N,11703.6999,W,52.08,72.25,110210,,*19
$GPRMC,190745.000,A,3239.8071,N,11703.6505,W,52.13,73.64,110210,,*18
$GPRMC,190748.000,A,3239.8182,N,11703.6008,W,51.81,76.71,110210,,*19
$GPRMC,190751.000,A,3239.8268,N,11703.5508,W,51.62,78.77,110210,,*15
$GPRMC,190754.000,A,3239.8348,N,11703.5011,W,51.17,78.70,110210,,*1B
$GPRMC,190757.000,A,3239.8430,N,11703.4514,W,51.13,78.78,110210,,*1D
$GPRMC,190800.000,A,3239.8512,N,11703.4031,W,50.47,77.88,110210,,*13
$GPRMC,190803.000,A,3239.8613,N,11703.3544,W,51.84,74.76,110210,,*1E
$GPRMC,190806.000,A,3239.8736,N,11703.3045,W,52.97,72.27,110210,,*1A
$GPRMC,190809.000,A,3239.8879,N,11703.2544,W,53.14,69.76,110210,,*10
$GPRMC,190812.000,A,3239.9042,N,11703.2054,W,52.92,67.50,110210,,*1A
$GPRMC,190815.000,A,3239.9220,N,11703.1573,W,53.27,64.99,110210,,*11
$GPRMC,190818.000,A,3239.9419,N,11703.1102,W,53.11,62.22,110210,,*11
$GPRMC,190821.000,A,3239.9637,N,11703.0644,W,53.04,59.62,110210,,*19
$GPRMC,190824.000,A,3239.9868,N,11703.0198,W,52.90,58.05,110210,,*12
$GPRMC,190827.000,A,3240.0104,N,11702.9756,W,52.84,58.02,110210,,*1B
$GPRMC,190830.000,A,3240.0337,N,11702.9315,W,52.64,58.38,110210,,*1B
$GPRMC,190833.000,A,3240.0568,N,11702.8876,W,52.21,58.02,110210,,*13
$GPRMC,190836.000,A,3240.0801,N,11702.8443,W,52.01,57.35,110210,,*17
$GPRMC,190839.000,A,3240.1034,N,11702.8011,W,51.88,57.74,110210,,*13
$GPRMC,190842.000,A,3240.1264,N,11702.7579,W,51.66,57.95,110210,,*13
$GPRMC,190845.000,A,3240.1493,N,11702.7145,W,51.74,58.30,110210,,*12
$GPRMC,190848.000,A,3240.1722,N,11702.6710,W,52.12,57.94,110210,,*13
$GPRMC,190851.000,A,3240.1954,N,11702.6272,W,52.54,58.25,110210,,*12
$GPRMC,190854.000,A,3240.2188,N,11702.5829,W,53.14,57.97,110210,,*19
$GPRMC,190857.000,A,3240.2421,N,11702.5390,W,53.84,58.23,110210,,*1C
$GPRMC,190900.000,A,3240.2667,N,11702.4942,W,54.51,55.82,110210,,*12
$GPRMC,190903.000,A,3240.2938,N,11702.4505,W,54.93,52.07,110210,,*1F
$GPRMC,190906.000,A,3240.3237,N,11702.4087,W,55.42,48.11,110210,,*11
$GPRMC,190909.000,A,3240.3559,N,11702.3691,W,55.75,44.67,110210,,*1E
$GPRMC,190912.000,A,3240.3904,N,11702.3315,W,55.53,41.58,110210,,*14
$GPRMC,190915.000,A,3240.4268,N,11702.2971,W,56.02,37.36,110210,,*12
$GPRMC,190918.000,A,3240.4653,N,11702.2655,W,56.27,33.39,110210,,*16
$GPRMC,190921.000,A,3240.5048,N,11702.2353,W,56.56,32.89,110210,,*1E
$GPRMC,190924.000,A,3240.5448,N,11702.2049,W,56.59,34.13,110210,,*1D
$GPRMC,190927.000,A,3240.5830,N,11702.1734,W,54.71,36.98,110210,,*1A
$GPRMC,190930.000,A,3240.6182,N,11702.1394,W,54.24,41.64,110210,,*12
$GPRMC,190934.000,A,3240.6616,N,11702.0898,W,53.98,46.96,110210,,*10
$GPRMC,190937.000,A,3240.6919,N,11702.0500,W,54.31,48.67,110210,,*1B
$GPRMC,190940.000,A,3240.7223,N,11702.0096,W,54.82,48.14,110210,,*1E
$GPRMC,190943.000,A,3240.7531,N,11701.9688,W,55.72,48.55,110210,,*11
$GPRMC,190946.000,A,3240.7843,N,11701.9271,W,56.58,48.37,110210,,*11
$GPRMC,190949.000,A,3240.8162,N,11701.8850,W,57.47,48.07,110210,,*1F
$GPRMC,190952.000,A,3240.8485,N,11701.8423,W,58.24,48.28,110210,,*16
$GPRMC,190955.000,A,3240.8810,N,11701.7993,W,58.55,48.38,110210,,*1F
$GPRMC,190958.000,A,3240.9140,N,11701.7559,W,58.26,47.70,110210,,*12
$GPRMC,191000.000,A,3240.9361,N,11701.7279,W,58.55,47.08,110210,,*18
$GPRMC,191003.000,A,3240.9690,N,11701.6858,W,58.47,48.17,110210,,*1A
$GPRMC,191006.000,A,3241.0012,N,11701.6436,W,57.47,48.04,110210,,*12
$GPRMC,191009.000,A,3241.0325,N,11701.6024,W,55.28,48.19,110210,,*1A
$GPRMC,191012.000,A,3241.0629,N,11701.5623,W,54.62,48.70,110210,,*1B
$GPRMC,191015.000,A,3241.0927,N,11701.5218,W,54.58,49.61,110210,,*19
$GPRMC,191018.000,A,3241.1217,N,11701.4807,W,54.12,50.73,110210,,*1D
$GPRMC,191021.000,A,3241.1496,N,11701.4399,W,53.12,51.53,110210,,*10
$GPRMC,191024.000,A,3241.1770,N,11701.3993,W,52.56,51.46,110210,,*1C
$GPRMC,191027.000,A,3241.2042,N,11701.3587,W,53.28,51.55,110210,,*19
$GPRMC,191030.000,A,3241.2324,N,11701.3176,W,54.39,50.09,110210,,*19
$GPRMC,191033.000,A,3241.2619,N,11701.2766,W,54.92,49.42,110210,,*11
$GPRMC,191036.000,A,3241.2918,N,11701.2373,W,54.14,47.70,110210,,*1B
$GPRMC,191039.000,A,3241.3221,N,11701.1988,W,53.65,46.71,110210,,*18
$GPRMC,191043.000,A,3241.3634,N,11701.1488,W,53.28,45.26,110210,,*10
$GPRMC,191046.000,A,3241.3945,N,11701.1114,W,53.21,45.70,110210,,*16
$GPRMC,191049.000,A,3241.4257,N,11701.0740,W,53.48,45.63,110210,,*1D
$GPRMC,191052.000,A,3241.4571,N,11701.0369,W,52.76,43.89,110210,,*15
$GPRMC,191055.000,A,3241.4892,N,11701.0018,W,52.41,41.94,110210,,*1D
$GPRMC,191058.000,A,3241.5223,N,11700.9684,W,51.99,39.57,110210,,*1C
$GPRMC,191100.000,A,3241.5448,N,11700.9471,W,51.95,38.15,110210,,*18
$GPRMC,191103.000,A,3241.5796,N,11700.9165,W,52.23,35.88,110210,,*1C
$GPRMC,191106.000,A,3241.6157,N,11700.8872,W,52.65,33.59,110210,,*17
$GPRMC,191109.000,A,3241.6531,N,11700.8597,W,53.05,31.43,110210,,*14
$GPRMC,191112.000,A,3241.6919,N,11700.8335,W,53.34,29.08,110210,,*12
$GPRMC,191115.000,A,3241.7317,N,11700.8088,W,53.99,26.42,110210,,*13
$GPRMC,191118.000,A,3241.7723,N,11700.7865,W,53.36,24.47,110210,,*1B
$GPRMC,191121.000,A,3241.8132,N,11700.7647,W,54.28,24.82,110210,,*17
$GPRMC,191124.000,A,3241.8552,N,11700.7420,W,54.88,24.76,110210,,*12
$GPRMC,191127.000,A,3241.8972,N,11700.7199,W,54.87,23.74,110210,,*12
$GPRMC,191130.000,A,3241.9401,N,11700.6999,W,55.18,20.20,110210,,*10
$GPRMC,191133.000,A,3241.9844,N,11700.6825,W,55.77,17.37,110210,,*13
$GPRMC,191136.000,A,3242.0297,N,11700.6678,W,55.75,14.02,110210,,*19
$GPRMC,191139.000,A,3242.0753,N,11700.6563,W,55.51,11.03,110210,,*10
$GPRMC,191142.000,A,3242.1213,N,11700.6476,W,55.39,8.11,110210,,*2C
$GPRMC,191145.000,A,3242.1674,N,11700.6421,W,55.21,4.70,110210,,*2E
$GPRMC,191148.000,A,3242.2136,N,11700.6396,W,55.12,1.59,110210,,*24
$GPRMC,191151.000,A,3242.2599,N,11700.6400,W,55.32,358.92,110210,,*2F
$GPRMC,191154.000,A,3242.3064,N,11700.6444,W,55.99,354.83,110210,,*21
$GPRMC,191157.000,A,3242.3535,N,11700.6517,W,56.87,351.83,110210,,*2D
$GPRMC,191200.000,A,3242.4009,N,11700.6619,W,57.38,348.72,110210,,*2F
$GPRMC,191203.000,A,3242.4479,N,11700.6750,W,57.12,345.30,110210,,*20
$GPRMC,191206.000,A,3242.4937,N,11700.6913,W,56.58,341.98,110210,,*22
$GPRMC,191209.000,A,3242.5390,N,11700.7095,W,57.47,341.26,110210,,*27
$GPRMC,191212.000,A,3242.5848,N,11700.7281,W,57.87,341.30,110210,,*2F
$GPRMC,191215.000,A,3242.6308,N,11700.7467,W,57.93,341.37,110210,,*28
$GPRMC,191218.000,A,3242.6765,N,11700.7652,W,57.19,341.61,110210,,*2F
$GPRMC,191221.000,A,3242.7211,N,11700.7832,W,55.18,341.22,110210,,*2E
$GPRMC,191224.000,A,3242.7643,N,11700.8007,W,54.10,341.17,110210,,*26
$GPRMC,191227.000,A,3242.8071,N,11700.8181,W,54.10,341.32,110210,,*25
$GPRMC,191230.000,A,3242.8502,N,11700.8338,W,53.83,344.48,110210,,*27
$GPRMC,191233.000,A,3242.8940,N,11700.8462,W,53.70,347.73,110210,,*21
$GPRMC,191236.000,A,3242.9385,N,11700.8557,W,54.24,350.88,110210,,*25
$GPRMC,191239.000,A,3242.9836,N,11700.8625,W,54.26,354.14,110210,,*2C
$GPRMC,191242.000,A,3243.0289,N,11700.8664,W,54.36,357.32,110210,,*25
$GPRMC,191245.000,A,3243.0744,N,11700.8678,W,54.86,359.51,110210,,*2B
$GPRMC,191248.000,A,3243.1205,N,11700.8677,W,55.42,0.00,110210,,*2A
$GPRMC,191251.000,A,3243.1669,N,11700.8677,W,55.50,359.97,110210,,*2E
$GPRMC,191254.000,A,3243.2126,N,11700.8675,W,54.01,0.02,110210,,*20
$GPRMC,191257.000,A,3243.2576,N,11700.8674,W,53.52,0.11,110210,,*20
$GPRMC,191300.000,A,3243.3020,N,11700.8673,W,53.06,359.97,110210,,*23
$GPRMC,191303.000,A,3243.3460,N,11700.8675,W,52.43,0.18,110210,,*2E
$GPRMC,191306.000,A,3243.3897,N,11700.8674,W,52.48,0.17,110210,,*2A
$GPRMC,191309.000,A,3243.4336,N,11700.8673,W,52.81,0.11,110210,,*26
$GPRMC,191312.000,A,3243.4778,N,11700.8677,W,52.90,359.01,110210,,*28
$GPRMC,191315.000,A,3243.5219,N,11700.8690,W,53.11,358.18,110210,,*24
$GPRMC,191318.000,A,3243.5662,N,11700.8717,W,53.62,357.47,110210,,*2E
$GPRMC,191321.000,A,3243.6108,N,11700.8748,W,54.30,356.82,110210,,*2E
$GPRMC,191324.000,A,3243.6560,N,11700.8785,W,54.40,356.14,110210,,*28
$GPRMC,191327.000,A,3243.7010,N,11700.8829,W,54.37,355.18,110210,,*2E
$GPRMC,191330.000,A,3243.7461,N,11700.8881,W,54.62,354.36,110210,,*25
$GPRMC,191333.000,A,3243.7913,N,11700.8936,W,54.51,353.94,110210,,*2C
$GPRMC,191336.000,A,3243.8368,N,11700.8998,W,54.33,353.08,110210,,*25
$GPRMC,191339.000,A,3243.8818,N,11700.9066,W,54.03,352.68,110210,,*2B
$GPRMC,191342.000,A,3243.9266,N,11700.9132,W,53.82,352.92,110210,,*2E
$GPRMC,191345.000,A,3243.9710,N,11700.9196,W,53.08,353.07,110210,,*2C
$GPRMC,191348.000,A,3244.0150,N,11700.9261,W,52.90,352.87,110210,,*2F
$GPRMC,191351.000,A,3244.0587,N,11700.9324,W,52.61,352.96,110210,,*27
$GPRMC,191354.000,A,3244.1022,N,11700.9385,W,52.38,353.70,110210,,*27
$GPRMC,191357.000,A,3244.1457,N,11700.9424,W,52.19,357.61,110210,,*29
$GPRMC,191400.000,A,3244.1893,N,11700.9425,W,52.28,1.33,110210,,*2C
$GPRMC,191403.000,A,3244.2328,N,11700.9400,W,52.59,3.73,110210,,*20
$GPRMC,191406.000,A,3244.2764,N,11700.9368,W,52.33,3.68,110210,,*26
$GPRMC,191409.000,A,3244.3198,N,11700.9334,W,52.13,3.88,110210,,*28
$GPRMC,191412.000,A,3244.3633,N,11700.9318,W,52.05,358.56,110210,,*23
$GPRMC,191415.000,A,3244.4069,N,11700.9363,W,52.39,351.55,110210,,*23
$GPRMC,191418.000,A,3244.4498,N,11700.9475,W,52.78,344.08,110210,,*2D
$GPRMC,191421.000,A,3244.4913,N,11700.9653,W,52.79,337.50,110210,,*27
$GPRMC,191424.000,A,3244.5314,N,11700.9870,W,52.70,335.02,110210,,*2D
$GPRMC,191427.000,A,3244.5716,N,11701.0090,W,52.57,335.42,110210,,*27
$GPRMC,191430.000,A,3244.6115,N,11701.0307,W,52.02,335.53,110210,,*2A
$GPRMC,191433.000,A,3244.6506,N,11701.0518,W,50.78,335.62,110210,,*2A
$GPRMC,191436.000,A,3244.6884,N,11701.0725,W,48.83,335.26,110210,,*29
$GPRMC,191439.000,A,3244.7254,N,11701.0898,W,47.01,343.06,110210,,*2F
$GPRMC,191442.000,A,3244.7639,N,11701.0989,W,46.95,352.72,110210,,*22
$GPRMC,191445.000,A,3244.8037,N,11701.1005,W,47.13,2.70,110210,,*25
$GPRMC,191448.000,A,3244.8426,N,11701.0860,W,48.47,19.98,110210,,*14
$GPRMC,191451.000,A,3244.8791,N,11701.0654,W,48.24,26.97,110210,,*1C
$GPRMC,191454.000,A,3244.9121,N,11701.0337,W,49.12,41.63,110210,,*1B
$GPRMC,191457.000,A,3244.9409,N,11700.9980,W,49.07,43.78,110210,,*15
$GPRMC,191500.000,A,3244.9700,N,11700.9622,W,50.95,45.52,110210,,*16
$GPRMC,191503.000,A,3244.9996,N,11700.9248,W,52.21,45.10,110210,,*17
$GPRMC,191506.000,A,3245.0300,N,11700.8870,W,53.03,45.73,110210,,*1B
$GPRMC,191509.000,A,3245.0609,N,11700.8490,W,53.28,44.91,110210,,*1E
$GPRMC,191512.000,A,3245.0933,N,11700.8113,W,54.79,44.02,110210,,*15
$GPRMC,191515.000,A,3245.1266,N,11700.7733,W,55.08,43.78,110210,,*1E
$GPRMC,191518.000,A,3245.1598,N,11700.7355,W,54.87,43.91,110210,,*10
$GPRMC,191521.000,A,3245.1926,N,11700.6979,W,54.38,44.08,110210,,*15
$GPRMC,191524.000,A,3245.2252,N,11700.6607,W,54.21,43.47,110210,,*19
$GPRMC,191527.000,A,3245.2580,N,11700.6240,W,53.45,42.94,110210,,*1F
$GPRMC,191530.000,A,3245.2897,N,11700.5883,W,52.00,43.83,110210,,*13
$GPRMC,191533.000,A,3245.3207,N,11700.5533,W,51.26,43.50,110210,,*1D
$GPRMC,191536.000,A,3245.3512,N,11700.5190,W,50.74,43.29,110210,,*1E
$GPRMC,191539.000,A,3245.3818,N,11700.4843,W,50.87,43.41,110210,,*12
$GPRMC,191542.000,A,3245.4123,N,11700.4500,W,50.34,43.73,110210,,*1B
$GPRMC,191545.000,A,3245.4423,N,11700.4154,W,50.40,44.84,110210,,*10
$GPRMC,191548.000,A,3245.4711,N,11700.3797,W,49.82,47.20,110210,,*1A
$GPRMC,191551.000,A,3245.4984,N,11700.3435,W,48.63,48.58,110210,,*15
$GPRMC,191554.000,A,3245.5246,N,11700.3084,W,46.69,48.57,110210,,*11
$GPRMC,191557.000,A,3245.5497,N,11700.2747,W,45.30,48.03,110210,,*1F
$GPRMC,191600.000,A,3245.5758,N,11700.2423,W,45.46,44.41,110210,,*14
$GPRMC,191603.000,A,3245.6047,N,11700.2121,W,46.92,39.46,110210,,*1D
$GPRMC,191606.000,A,3245.6368,N,11700.1844,W,48.08,34.67,110210,,*1C
$GPRMC,191609.000,A,3245.6722,N,11700.1594,W,50.10,28.61,110210,,*12
$GPRMC,191612.000,A,3245.7116,N,11700.1386,W,52.62,21.54,110210,,*15
$GPRMC,191615.000,A,3245.7543,N,11700.1233,W,53.78,14.00,110210,,*14
$GPRMC,191618.000,A,3245.7992,N,11700.1137,W,54.52,8.57,110210,,*2E
$GPRMC,191621.000,A,3245.8455,N,11700.1092,W,55.63,2.42,110210,,*2E
$GPRMC,191624.000,A,3245.8928,N,11700.1104,W,56.58,357.39,110210,,*26
$GPRMC,191627.000,A,3245.9405,N,11700.1140,W,57.11,357.02,110210,,*22
$GPRMC,191630.000,A,3245.9884,N,11700.1173,W,57.39,357.63,110210,,*2C
$GPRMC,191633.000,A,3246.0365,N,11700.1174,W,57.29,3.40,110210,,*24
$GPRMC,191636.000,A,3246.0836,N,11700.1127,W,55.72,5.51,110210,,*20
$GPRMC,191639.000,A,3246.1296,N,11700.1079,W,54.63,4.87,110210,,*2F
$GPRMC,191642.000,A,3246.1746,N,11700.1035,W,53.51,4.67,110210,,*2B
$GPRMC,191645.000,A,3246.2192,N,11700.0995,W,53.97,4.38,110210,,*22
$GPRMC,191648.000,A,3246.2646,N,11700.0969,W,54.66,0.57,110210,,*26
$GPRMC,191651.000,A,3246.3101,N,11700.0993,W,54.75,355.41,110210,,*28
$GPRMC,191654.000,A,3246.3556,N,11700.1065,W,55.06,350.75,110210,,*2D
$GPRMC,191657.000,A,3246.4008,N,11700.1166,W,54.77,348.73,110210,,*2D
$GPRMC,191700.000,A,3246.4435,N,11700.1272,W,47.58,348.36,110210,,*2C
$GPRMC,191703.000,A,3246.4775,N,11700.1358,W,38.01,347.78,110210,,*20
$GPRMC,191706.000,A,3246.5074,N,11700.1438,W,37.47,347.74,110210,,*22
$GPRMC,191709.000,A,3246.5391,N,11700.1508,W,39.91,353.50,110210,,*21
$GPRMC,191712.000,A,3246.5728,N,11700.1523,W,40.81,1.89,110210,,*2B
$GPRMC,191715.000,A,3246.6068,N,11700.1480,W,41.02,9.96,110210,,*28
$GPRMC,191718.000,A,3246.6394,N,11700.1367,W,40.66,21.86,110210,,*13
$GPRMC,191721.000,A,3246.6689,N,11700.1175,W,39.58,33.71,110210,,*19
$GPRMC,191724.000,A,3246.6934,N,11700.0922,W,39.13,46.04,110210,,*11
$GPRMC,191727.000,A,3246.7139,N,11700.0607,W,41.13,56.73,110210,,*10
$GPRMC,191730.000,A,3246.7312,N,11700.0239,W,43.72,63.03,110210,,*10
$GPRMC,191733.000,A,3246.7446,N,11659.9824,W,44.37,72.78,110210,,*1D
$GPRMC,191736.000,A,3246.7515,N,11659.9397,W,43.52,82.27,110210,,*1D
$GPRMC,191739.000,A,3246.7539,N,11659.8959,W,44.94,88.49,110210,,*1A
$GPRMC,191742.000,A,3246.7537,N,11659.8507,W,46.12,91.16,110210,,*11
$GPRMC,191745.000,A,3246.7515,N,11659.8045,W,47.81,92.41,110210,,*1F
$GPRMC,191748.000,A,3246.7488,N,11659.7560,W,48.83,92.58,110210,,*1F
$GPRMC,191751.000,A,3246.7466,N,11659.7063,W,49.72,92.08,110210,,*1B
$GPRMC,191754.000,A,3246.7445,N,11659.6564,W,49.83,92.47,110210,,*19
$GPRMC,191757.000,A,3246.7427,N,11659.6065,W,50.09,91.03,110210,,*13
$GPRMC,191800.000,A,3246.7418,N,11659.5557,W,51.99,90.91,110210,,*17
$GPRMC,191803.000,A,3246.7403,N,11659.5032,W,52.98,91.90,110210,,*1A
$GPRMC,191806.000,A,3246.7385,N,11659.4503,W,53.23,92.27,110210,,*1E
$GPRMC,191809.000,A,3246.7367,N,11659.3979,W,52.18,91.86,110210,,*1A
$GPRMC,191812.000,A,3246.7349,N,11659.3465,W,51.55,92.18,110210,,*12
$GPRMC,191815.000,A,3246.7330,N,11659.2961,W,50.09,92.10,110210,,*13
$GPRMC,191818.000,A,3246.7314,N,11659.2466,W,49.78,92.01,110210,,*1C
$GPRMC,191821.000,A,3246.7297,N,11659.1976,W,49.07,91.46,110210,,*1B
$GPRMC,191824.000,A,3246.7309,N,11659.1493,W,49.28,84.47,110210,,*16
$GPRMC,191827.000,A,3246.7383,N,11659.1013,W,49.57,75.91,110210,,*16
$GPRMC,191830.000,A,3246.7519,N,11659.0542,W,50.93,67.33,110210,,*1E
$GPRMC,191833.000,A,3246.7719,N,11659.0092,W,51.67,58.33,110210,,*11
$GPRMC,191836.000,A,3246.7986,N,11658.9684,W,52.32,49.40,110210,,*12
$GPRMC,191839.000,A,3246.8308,N,11658.9326,W,53.00,40.01,110210,,*1F
$GPRMC,191842.000,A,3246.8684,N,11658.9036,W,53.13,30.20,110210,,*16
$GPRMC,191845.000,A,3246.9089,N,11658.8806,W,53.58,23.90,110210,,*17
$GPRMC,191848.000,A,3246.9509,N,11658.8593,W,54.98,24.43,110210,,*14
$GPRMC,191851.000,A,3246.9931,N,11658.8367,W,55.32,25.16,110210,,*16
$GPRMC,191854.000,A,3247.0348,N,11658.8138,W,54.59,26.33,110210,,*1F
$GPRMC,191857.000,A,3247.0751,N,11658.7884,W,54.44,30.30,110210,,*19
$GPRMC,191900.000,A,3247.1134,N,11658.7602,W,53.80,33.22,110210,,*11
$GPRMC,191903.000,A,3247.1511,N,11658.7312,W,53.44,33.05,110210,,*18
$GPRMC,191906.000,A,3247.1887,N,11658.7039,W,52.18,29.13,110210,,*11
$GPRMC,191909.000,A,3247.2277,N,11658.6824,W,51.23,21.90,110210,,*15
$GPRMC,191912.000,A,3247.2682,N,11658.6671,W,50.73,14.72,110210,,*11
$GPRMC,191915.000,A,3247.3102,N,11658.6584,W,50.70,7.55,110210,,*25
$GPRMC,191918.000,A,3247.3527,N,11658.6554,W,50.74,1.02,110210,,*26
$GPRMC,191921.000,A,3247.3956,N,11658.6564,W,52.31,0.21,110210,,*26
$GPRMC,191924.000,A,3247.4394,N,11658.6575,W,53.58,0.43,110210,,*2A
$GPRMC,191927.000,A,3247.4842,N,11658.6569,W,54.51,3.19,110210,,*26
$GPRMC,191930.000,A,3247.5297,N,11658.6519,W,54.29,6.91,110210,,*2E
$GPRMC,191933.000,A,3247.5754,N,11658.6462,W,54.37,6.92,110210,,*26
$GPRMC,191936.000,A,3247.6209,N,11658.6391,W,54.30,7.71,110210,,*2D
$GPRMC,191939.000,A,3247.6658,N,11658.6318,W,54.07,7.83,110210,,*2A
$GPRMC,191942.000,A,3247.7105,N,11658.6246,W,53.75,7.70,110210,,*2C
$GPRMC,191945.000,A,3247.7549,N,11658.6173,W,53.55,7.86,110210,,*29
$GPRMC,191948.000,A,3247.7991,N,11658.6102,W,52.92,7.65,110210,,*2C
$GPRMC,191951.000,A,3247.8428,N,11658.6031,W,52.16,7.82,110210,,*20
$GPRMC,191954.000,A,3247.8859,N,11658.5935,W,52.27,12.98,110210,,*1C
$GPRMC,191957.000,A,3247.9277,N,11658.5781,W,51.71,19.41,110210,,*16
$GPRMC,192000.000,A,3247.9674,N,11658.5578,W,51.54,25.92,110210,,*1B
$GPRMC,192003.000,A,3248.0049,N,11658.5325,W,51.70,32.44,110210,,*13
$GPRMC,192006.000,A,3248.0403,N,11658.5021,W,52.13,38.43,110210,,*10
$GPRMC,192009.000,A,3248.0723,N,11658.4671,W,52.25,45.01,110210,,*15
$GPRMC,192012.000,A,3248.1013,N,11658.4278,W,52.80,51.54,110210,,*1D
$GPRMC,192015.000,A,3248.1262,N,11658.3840,W,53.54,58.42,110210,,*1E
$GPRMC,192018.000,A,3248.1467,N,11658.3371,W,52.94,64.76,110210,,*1C
$GPRMC,192021.000,A,3248.1623,N,11658.2889,W,52.00,71.23,110210,,*10
$GPRMC,192024.000,A,3248.1734,N,11658.2395,W,51.55,77.43,110210,,*17
$GPRMC,192027.000,A,3248.1799,N,11658.1890,W,51.60,84.11,110210,,*13
$GPRMC,192030.000,A,3248.1815,N,11658.1375,W,52.34,89.12,110210,,*12
$GPRMC,192033.000,A,3248.1809,N,11658.0854,W,52.33,90.33,110210,,*19
$GPRMC,192036.000,A,3248.1802,N,11658.0341,W,51.18,90.01,110210,,*13
$GPRMC,192039.000,A,3248.1799,N,11657.9836,W,50.72,89.82,110210,,*12
$GPRMC,192042.000,A,3248.1797,N,11657.9337,W,50.01,90.09,110210,,*15
$GPRMC,192045.000,A,3248.1791,N,11657.8845,W,49.05,89.98,110210,,*17
$GPRMC,192048.000,A,3248.1785,N,11657.8363,W,47.98,90.37,110210,,*17
$GPRMC,192051.000,A,3248.1781,N,11657.7894,W,46.55,90.52,110210,,*14
$GPRMC,192054.000,A,3248.1774,N,11657.7434,W,46.85,90.76,110210,,*16
$GPRMC,192057.000,A,3248.1768,N,11657.6964,W,48.06,90.21,110210,,*16
$GPRMC,192100.000,A,3248.1764,N,11657.6483,W,48.73,90.19,110210,,*14
$GPRMC,192103.000,A,3248.1764,N,11657.6001,W,48.82,89.81,110210,,*1E
$GPRMC,192106.000,A,3248.1768,N,11657.5514,W,49.76,88.45,110210,,*16
$GPRMC,192109.000,A,3248.1783,N,11657.5015,W,50.87,88.39,110210,,*15
$GPRMC,192112.000,A,3248.1785,N,11657.4508,W,51.95,90.05,110210,,*15
$GPRMC,192115.000,A,3248.1785,N,11657.3984,W,53.72,90.19,110210,,*1B
$GPRMC,192118.000,A,3248.1786,N,11657.3444,W,55.38,89.57,110210,,*1E
$GPRMC,192121.000,A,3248.1786,N,11657.2888,W,56.27,89.58,110210,,*1B
$GPRMC,192124.000,A,3248.1785,N,11657.2330,W,55.97,90.09,110210,,*11
$GPRMC,192127.000,A,3248.1786,N,11657.1785,W,54.84,90.08,110210,,*1A
$GPRMC,192130.000,A,3248.1785,N,11657.1247,W,53.95,90.06,110210,,*1D
$GPRMC,192133.000,A,3248.1785,N,11657.0717,W,53.56,89.86,110210,,*10
$GPRMC,192136.000,A,3248.1783,N,11657.0186,W,53.75,89.76,110210,,*13
$GPRMC,192139.000,A,3248.1783,N,11656.9650,W,54.25,90.21,110210,,*10
$GPRMC,192142.000,A,3248.1782,N,11656.9109,W,55.29,90.40,110210,,*1C
$GPRMC,192145.000,A,3248.1774,N,11656.8558,W,56.16,91.30,110210,,*1A
$GPRMC,192148.000,A,3248.1766,N,11656.8006,W,55.26,90.69,110210,,*17
$GPRMC,192151.000,A,3248.1764,N,11656.7469,W,53.95,90.12,110210,,*1D
$GPRMC,192154.000,A,3248.1764,N,11656.6938,W,53.48,89.96,110210,,*14
$GPRMC,192157.000,A,3248.1764,N,11656.6409,W,53.63,89.88,110210,,*1E
$GPRMC,192200.000,A,3248.1764,N,11656.5877,W,54.10,90.13,110210,,*10
$GPRMC,192203.000,A,3248.1763,N,11656.5340,W,54.69,89.92,110210,,*14
$GPRMC,192206.000,A,3248.1763,N,11656.4798,W,54.89,89.98,110210,,*15
$GPRMC,192209.000,A,3248.1763,N,11656.4257,W,54.66,89.68,110210,,*12
$GPRMC,192212.000,A,3248.1763,N,11656.3719,W,54.31,89.93,110210,,*16
$GPRMC,192215.000,A,3248.1763,N,11656.3183,W,54.39,89.96,110210,,*19
$GPRMC,192218.000,A,3248.1766,N,11656.2645,W,54.22,89.11,110210,,*18
$GPRMC,192221.000,A,3248.1775,N,11656.2119,W,52.96,88.83,110210,,*1D
$GPRMC,192224.000,A,3248.1781,N,11656.1598,W,52.72,89.94,110210,,*10
$GPRMC,192227.000,A,3248.1780,N,11656.1076,W,52.93,90.42,110210,,*1B
$GPRMC,192230.000,A,3248.1780,N,11656.0551,W,53.50,89.97,110210,,*12
$GPRMC,192233.000,A,3248.1774,N,11656.0024,W,52.97,90.91,110210,,*19
$GPRMC,192236.000,A,3248.1769,N,11655.9506,W,52.17,90.85,110210,,*12
$GPRMC,192239.000,A,3248.1766,N,11655.8993,W,51.49,90.20,110210,,*14
$GPRMC,192242.000,A,3248.1764,N,11655.8490,W,50.50,90.55,110210,,*1F
$GPRMC,192245.000,A,3248.1761,N,11655.8000,W,49.14,89.75,110210,,*12
$GPRMC,192248.000,A,3248.1762,N,11655.7518,W,48.40,90.03,110210,,*16
$GPRMC,192251.000,A,3248.1762,N,11655.7048,W,47.44,89.99,110210,,*1E
$GPRMC,192254.000,A,3248.1764,N,11655.6586,W,46.33,88.81,110210,,*12
$GPRMC,192257.000,A,3248.1790,N,11655.6131,W,46.54,83.76,110210,,*10
$GPRMC,192300.000,A,3248.1849,N,11655.5670,W,47.74,79.25,110210,,*19
$GPRMC,192303.000,A,3248.1946,N,11655.5207,W,48.52,73.88,110210,,*16
$GPRMC,192306.000,A,3248.2076,N,11655.4750,W,48.95,69.31,110210,,*1E
$GPRMC,192309.000,A,3248.2238,N,11655.4307,W,48.65,64.27,110210,,*1A
$GPRMC,192312.000,A,3248.2428,N,11655.3886,W,48.10,59.73,110210,,*1F
$GPRMC,192315.000,A,3248.2654,N,11655.3489,W,48.70,53.69,110210,,*15
$GPRMC,192318.000,A,3248.2912,N,11655.3114,W,48.96,49.68,110210,,*16
$GPRMC,192321.000,A,3248.3192,N,11655.2763,W,48.69,44.56,110210,,*1A
$GPRMC,192324.000,A,3248.3495,N,11655.2443,W,48.49,39.81,110210,,*1E
$GPRMC,192327.000,A,3248.3819,N,11655.2156,W,48.51,34.54,110210,,*18
$GPRMC,192330.000,A,3248.4166,N,11655.1905,W,48.52,29.86,110210,,*15
$GPRMC,192333.000,A,3248.4533,N,11655.1690,W,48.77,27.47,110210,,*15
$GPRMC,192336.000,A,3248.4899,N,11655.1477,W,48.62,27.30,110210,,*12
$GPRMC,192339.000,A,3248.5264,N,11655.1261,W,48.55,27.48,110210,,*1E
$GPRMC,192342.000,A,3248.5626,N,11655.1045,W,48.45,27.35,110210,,*1F
$GPRMC,192345.000,A,3248.5988,N,11655.0829,W,48.59,27.31,110210,,*19
$GPRMC,192348.000,A,3248.6351,N,11655.0610,W,48.97,27.61,110210,,*1A
$GPRMC,192351.000,A,3248.6716,N,11655.0389,W,49.34,27.50,110210,,*1A
$GPRMC,192354.000,A,3248.7085,N,11655.0167,W,49.72,27.36,110210,,*13
$GPRMC,192357.000,A,3248.7455,N,11654.9942,W,50.06,27.37,110210,,*14
$GPRMC,192400.000,A,3248.7824,N,11654.9702,W,50.67,30.78,110210,,*1B
$GPRMC,192403.000,A,3248.8181,N,11654.9427,W,51.16,35.36,110210,,*1D
$GPRMC,192406.000,A,3248.8520,N,11654.9116,W,51.45,39.86,110210,,*11
$GPRMC,192409.000,A,3248.8843,N,11654.8778,W,51.67,42.11,110210,,*1B
$GPRMC,192412.000,A,3248.9163,N,11654.8435,W,51.93,41.99,110210,,*19
$GPRMC,192415.000,A,3248.9487,N,11654.8089,W,52.44,41.96,110210,,*14
$GPRMC,192418.000,A,3248.9813,N,11654.7741,W,52.68,42.03,110210,,*15
$GPRMC,192421.000,A,3249.0139,N,11654.7390,W,53.04,42.45,110210,,*17
$GPRMC,192424.000,A,3249.0469,N,11654.7039,W,52.79,40.63,110210,,*1F
$GPRMC,192427.000,A,3249.0820,N,11654.6714,W,53.06,34.98,110210,,*1A
$GPRMC,192430.000,A,3249.1195,N,11654.6429,W,53.39,30.74,110210,,*1D
$GPRMC,192433.000,A,3249.1588,N,11654.6188,W,52.57,25.26,110210,,*12
$GPRMC,192436.000,A,3249.1988,N,11654.5979,W,52.88,24.01,110210,,*18
$GPRMC,192439.000,A,3249.2389,N,11654.5767,W,53.05,24.77,110210,,*1B
$GPRMC,192442.000,A,3249.2786,N,11654.5543,W,52.92,27.86,110210,,*1A
$GPRMC,192445.000,A,3249.3164,N,11654.5277,W,52.79,33.38,110210,,*13
$GPRMC,192448.000,A,3249.3519,N,11654.4972,W,52.44,38.35,110210,,*17
$GPRMC,192451.000,A,3249.3850,N,11654.4633,W,52.44,43.22,110210,,*1F
$GPRMC,192454.000,A,3249.4153,N,11654.4258,W,52.37,47.79,110210,,*10
$GPRMC,192457.000,A,3249.4436,N,11654.3877,W,50.53,48.86,110210,,*1A
$GPRMC,192500.000,A,3249.4716,N,11654.3500,W,51.23,48.43,110210,,*1A
$GPRMC,192503.000,A,3249.5004,N,11654.3113,W,52.75,48.48,110210,,*11
$GPRMC,192506.000,A,3249.5297,N,11654.2723,W,52.79,48.32,110210,,*19
$GPRMC,192509.000,A,3249.5593,N,11654.2327,W,54.01,48.36,110210,,*18
$GPRMC,192512.000,A,3249.5894,N,11654.1923,W,54.83,48.54,110210,,*1B
$GPRMC,192515.000,A,3249.6199,N,11654.1516,W,55.00,48.24,110210,,*1C
$GPRMC,192518.000,A,3249.6504,N,11654.1109,W,54.88,48.57,110210,,*1E
$GPRMC,192521.000,A,3249.6808,N,11654.0703,W,54.86,48.29,110210,,*1F
$GPRMC,192524.000,A,3249.7114,N,11654.0297,W,55.04,48.32,110210,,*16
$GPRMC,192527.000,A,3249.7421,N,11653.9891,W,55.19,48.13,110210,,*1B
$GPRMC,192530.000,A,3249.7728,N,11653.9484,W,55.33,48.60,110210,,*13
$GPRMC,192533.000,A,3249.8036,N,11653.9074,W,55.46,48.15,110210,,*1C
$GPRMC,192536.000,A,3249.8349,N,11653.8670,W,55.75,46.69,110210,,*14
$GPRMC,192539.000,A,3249.8673,N,11653.8276,W,55.61,45.21,110210,,*1F
$GPRMC,192542.000,A,3249.9002,N,11653.7900,W,55.53,43.48,110210,,*1F
$GPRMC,192545.000,A,3249.9339,N,11653.7533,W,55.25,42.21,110210,,*10
$GPRMC,192548.000,A,3249.9681,N,11653.7176,W,54.76,41.73,110210,,*1D
$GPRMC,192551.000,A,3250.0027,N,11653.6820,W,55.06,41.53,110210,,*11
$GPRMC,192554.000,A,3250.0374,N,11653.6461,W,55.35,41.60,110210,,*18
$GPRMC,192557.000,A,3250.0722,N,11653.6097,W,55.83,41.96,110210,,*15
$GPRMC,192600.000,A,3250.1071,N,11653.5733,W,56.21,41.30,110210,,*19
$GPRMC,192603.000,A,3250.1423,N,11653.5365,W,56.51,41.40,110210,,*1E
$GPRMC,192606.000,A,3250.1774,N,11653.4994,W,56.14,41.84,110210,,*16
$GPRMC,192609.000,A,3250.2126,N,11653.4625,W,55.85,41.80,110210,,*11
$GPRMC,192612.000,A,3250.2472,N,11653.4265,W,54.89,41.88,110210,,*1A
$GPRMC,192615.000,A,3250.2813,N,11653.3909,W,54.40,41.53,110210,,*13
$GPRMC,192618.000,A,3250.3153,N,11653.3555,W,54.17,41.69,110210,,*1C
$GPRMC,192621.000,A,3250.3489,N,11653.3200,W,54.01,41.95,110210,,*17
$GPRMC,192624.000,A,3250.3828,N,11653.2844,W,54.55,41.56,110210,,*10
$GPRMC,192627.000,A,3250.4170,N,11653.2484,W,55.04,41.50,110210,,*13
$GPRMC,192630.000,A,3250.4515,N,11653.2118,W,55.57,41.85,110210,,*1C
$GPRMC,192633.000,A,3250.4864,N,11653.1746,W,55.96,41.73,110210,,*1E
$GPRMC,192636.000,A,3250.5211,N,11653.1376,W,55.89,41.77,110210,,*1F
$GPRMC,192639.000,A,3250.5554,N,11653.1002,W,55.29,43.53,110210,,*18
$GPRMC,192642.000,A,3250.5870,N,11653.0611,W,53.96,48.56,110210,,*16
$GPRMC,192645.000,A,3250.6145,N,11653.0191,W,53.62,54.20,110210,,*15
$GPRMC,192648.000,A,3250.6386,N,11652.9747,W,53.27,59.37,110210,,*1A
$GPRMC,192651.000,A,3250.6583,N,11652.9274,W,53.00,67.20,110210,,*1A
$GPRMC,192654.000,A,3250.6731,N,11652.8783,W,52.21,71.99,110210,,*1F
$GPRMC,192657.000,A,3250.6846,N,11652.8287,W,51.71,75.47,110210,,*13
$GPRMC,192700.000,A,3250.6950,N,11652.7788,W,52.08,75.65,110210,,*1E
$GPRMC,192703.000,A,3250.7055,N,11652.7286,W,52.30,75.77,110210,,*13
$GPRMC,192706.000,A,3250.7160,N,11652.6783,W,52.26,75.35,110210,,*11
$GPRMC,192709.000,A,3250.7286,N,11652.6287,W,52.48,70.79,110210,,*11
$GPRMC,192712.000,A,3250.7446,N,11652.5805,W,52.28,66.04,110210,,*19
$GPRMC,192715.000,A,3250.7640,N,11652.5350,W,51.08,60.80,110210,,*1A
$GPRMC,192718.000,A,3250.7866,N,11652.4924,W,50.70,55.50,110210,,*10
$GPRMC,192721.000,A,3250.8125,N,11652.4528,W,50.76,49.88,110210,,*15
$GPRMC,192724.000,A,3250.8413,N,11652.4158,W,50.76,45.38,110210,,*14
$GPRMC,192727.000,A,3250.8725,N,11652.3818,W,50.94,40.97,110210,,*17
$GPRMC,192730.000,A,3250.9051,N,11652.3487,W,52.10,40.92,110210,,*15
$GPRMC,192733.000,A,3250.9383,N,11652.3149,W,52.70,40.80,110210,,*18
$GPRMC,192736.000,A,3250.9716,N,11652.2808,W,52.87,40.71,110210,,*1E
$GPRMC,192739.000,A,3251.0052,N,11652.2468,W,53.23,40.70,110210,,*1A
$GPRMC,192742.000,A,3251.0386,N,11652.2116,W,53.64,43.92,110210,,*1C
$GPRMC,192745.000,A,3251.0691,N,11652.1726,W,53.96,50.09,110210,,*13
$GPRMC,192748.000,A,3251.0963,N,11652.1303,W,53.84,55.03,110210,,*13
$GPRMC,192751.000,A,3251.1201,N,11652.0856,W,53.50,60.50,110210,,*16
$GPRMC,192754.000,A,3251.1397,N,11652.0384,W,53.18,65.93,110210,,*1F
$GPRMC,192757.000,A,3251.1559,N,11651.9900,W,52.34,69.57,110210,,*1F
$GPRMC,192800.000,A,3251.1706,N,11651.9416,W,51.90,69.49,110210,,*12
$GPRMC,192803.000,A,3251.1854,N,11651.8934,W,52.00,70.17,110210,,*1C
$GPRMC,192806.000,A,3251.2002,N,11651.8444,W,52.33,69.60,110210,,*13
$GPRMC,192809.000,A,3251.2152,N,11651.7956,W,52.24,70.16,110210,,*16
$GPRMC,192812.000,A,3251.2292,N,11651.7463,W,52.50,73.28,110210,,*15
$GPRMC,192815.000,A,3251.2393,N,11651.6956,W,52.66,79.12,110210,,*1E
$GPRMC,192818.000,A,3251.2454,N,11651.6439,W,52.86,84.01,110210,,*15
$GPRMC,192821.000,A,3251.2479,N,11651.5916,W,52.71,89.29,110210,,*1C
$GPRMC,192824.000,A,3251.2456,N,11651.5392,W,52.97,94.74,110210,,*1E
$GPRMC,192827.000,A,3251.2400,N,11651.4871,W,52.89,98.03,110210,,*1A
$GPRMC,192830.000,A,3251.2334,N,11651.4355,W,52.44,98.16,110210,,*14
$GPRMC,192833.000,A,3251.2270,N,11651.3844,W,52.04,98.49,110210,,*14
$GPRMC,192836.000,A,3251.2206,N,11651.3335,W,51.85,97.62,110210,,*11
$GPRMC,192839.000,A,3251.2147,N,11651.2832,W,51.04,97.89,110210,,*19
$GPRMC,192842.000,A,3251.2082,N,11651.2335,W,50.63,98.78,110210,,*10
$GPRMC,192845.000,A,3251.2016,N,11651.1844,W,50.01,98.44,110210,,*1F
$GPRMC,192848.000,A,3251.1953,N,11651.1357,W,49.73,98.23,110210,,*1C
$GPRMC,192851.000,A,3251.1892,N,11651.0872,W,49.47,98.49,110210,,*1E
$GPRMC,192854.000,A,3251.1830,N,11651.0389,W,49.28,98.08,110210,,*10
$GPRMC,192857.000,A,3251.1774,N,11650.9908,W,49.06,97.53,110210,,*1A
$GPRMC,192900.000,A,3251.1726,N,11650.9427,W,49.05,95.57,110210,,*1B
$GPRMC,192903.000,A,3251.1692,N,11650.8944,W,49.05,93.72,110210,,*1E
$GPRMC,192906.000,A,3251.1672,N,11650.8461,W,48.99,91.76,110210,,*1D
$GPRMC,192909.000,A,3251.1664,N,11650.7978,W,48.86,90.58,110210,,*1C
$GPRMC,192912.000,A,3251.1666,N,11650.7497,W,48.60,88.65,110210,,*17
$GPRMC,192915.000,A,3251.1683,N,11650.7017,W,48.59,86.89,110210,,*11
$GPRMC,192918.000,A,3251.1713,N,11650.6537,W,48.62,84.61,110210,,*1E
$GPRMC,192921.000,A,3251.1755,N,11650.6060,W,48.56,83.84,110210,,*1A
$GPRMC,192924.000,A,3251.1804,N,11650.5582,W,48.84,83.47,110210,,*1E
$GPRMC,192927.000,A,3251.1853,N,11650.5100,W,49.30,83.29,110210,,*17
$GPRMC,192930.000,A,3251.1903,N,11650.4615,W,49.48,82.86,110210,,*1C
$GPRMC,192933.000,A,3251.1960,N,11650.4130,W,49.54,80.96,110210,,*14
$GPRMC,192936.000,A,3251.2046,N,11650.3650,W,49.83,75.73,110210,,*12
$GPRMC,192939.000,A,3251.2166,N,11650.3171,W,50.71,71.45,110210,,*1E
$GPRMC,192942.000,A,3251.2319,N,11650.2700,W,51.13,66.89,110210,,*1A
$GPRMC,192945.000,A,3251.2498,N,11650.2235,W,52.04,65.15,110210,,*13
$GPRMC,192948.000,A,3251.2686,N,11650.1767,W,52.28,64.90,110210,,*10
$GPRMC,192951.000,A,3251.2873,N,11650.1299,W,52.33,65.17,110210,,*1C
$GPRMC,192954.000,A,3251.3060,N,11650.0829,W,52.48,64.94,110210,,*14
$GPRMC,192957.000,A,3251.3241,N,11650.0354,W,52.81,67.28,110210,,*16
$GPRMC,193000.000,A,3251.3400,N,11649.9864,W,53.20,70.63,110210,,*15
$GPRMC,193003.000,A,3251.3539,N,11649.9364,W,53.30,73.44,110210,,*11
$GPRMC,193006.000,A,3251.3653,N,11649.8856,W,53.16,76.79,110210,,*1F
$GPRMC,193009.000,A,3251.3741,N,11649.8340,W,53.31,79.85,110210,,*17
$GPRMC,193012.000,A,3251.3808,N,11649.7818,W,53.59,82.84,110210,,*1D
$GPRMC,193015.000,A,3251.3847,N,11649.7290,W,53.60,86.60,110210,,*1F
$GPRMC,193018.000,A,3251.3868,N,11649.6760,W,53.75,87.18,110210,,*1E
$GPRMC,193021.000,A,3251.3891,N,11649.6229,W,53.67,87.31,110210,,*12
$GPRMC,193024.000,A,3251.3910,N,11649.5699,W,53.68,87.28,110210,,*14
$GPRMC,193027.000,A,3251.3930,N,11649.5173,W,52.71,87.18,110210,,*1C
$GPRMC,193030.000,A,3251.3949,N,11649.4658,W,51.58,87.20,110210,,*18
$GPRMC,193033.000,A,3251.3971,N,11649.4156,W,50.49,87.19,110210,,*12
$GPRMC,193036.000,A,3251.3990,N,11649.3660,W,50.27,87.45,110210,,*1C
$GPRMC,193039.000,A,3251.4009,N,11649.3159,W,50.99,87.41,110210,,*11
$GPRMC,193042.000,A,3251.4029,N,11649.2651,W,51.50,87.23,110210,,*11
$GPRMC,193045.000,A,3251.4049,N,11649.2137,W,52.03,87.12,110210,,*10
$GPRMC,193048.000,A,3251.4070,N,11649.1620,W,52.56,87.50,110210,,*13
$GPRMC,193051.000,A,3251.4089,N,11649.1099,W,52.86,87.45,110210,,*10
$GPRMC,193054.000,A,3251.4099,N,11649.0577,W,52.85,90.40,110210,,*10
$GPRMC,193057.000,A,3251.4070,N,11649.0057,W,52.84,96.64,110210,,*12
$GPRMC,193100.000,A,3251.3993,N,11648.9547,W,52.57,103.49,110210,,*22
$GPRMC,193103.000,A,3251.3863,N,11648.9052,W,52.28,110.14,110210,,*2C
$GPRMC,193106.000,A,3251.3688,N,11648.8587,W,50.93,116.14,110210,,*2A
$GPRMC,193109.000,A,3251.3476,N,11648.8158,W,50.18,122.74,110210,,*22
$GPRMC,193112.000,A,3251.3225,N,11648.7755,W,51.38,128.45,110210,,*27
$GPRMC,193115.000,A,3251.2930,N,11648.7376,W,52.48,135.53,110210,,*24
$GPRMC,193118.000,A,3251.2595,N,11648.7039,W,52.75,142.06,110210,,*2C
$GPRMC,193121.000,A,3251.2228,N,11648.6745,W,53.24,147.69,110210,,*23
$GPRMC,193124.000,A,3251.1841,N,11648.6474,W,54.50,148.95,110210,,*29
$GPRMC,193127.000,A,3251.1437,N,11648.6193,W,56.86,148.86,110210,,*20
$GPRMC,193130.000,A,3251.1020,N,11648.5902,W,58.20,148.84,110210,,*27
$GPRMC,193133.000,A,3251.0598,N,11648.5603,W,59.02,148.62,110210,,*24
$GPRMC,193136.000,A,3251.0172,N,11648.5304,W,58.72,148.57,110210,,*23
$GPRMC,193139.000,A,3250.9760,N,11648.4996,W,57.35,145.12,110210,,*21
$GPRMC,193142.000,A,3250.9389,N,11648.4650,W,56.01,138.24,110210,,*22
$GPRMC,193145.000,A,3250.9056,N,11648.4263,W,55.77,133.12,110210,,*2C
$GPRMC,193148.000,A,3250.8745,N,11648.3854,W,55.09,131.35,110210,,*22
$GPRMC,193151.000,A,3250.8444,N,11648.3447,W,54.21,131.06,110210,,*2D
$GPRMC,193154.000,A,3250.8148,N,11648.3048,W,53.17,131.42,110210,,*28
$GPRMC,193157.000,A,3250.7855,N,11648.2659,W,52.36,131.66,110210,,*22
$GPRMC,193200.000,A,3250.7566,N,11648.2275,W,51.59,131.36,110210,,*2B
$GPRMC,193203.000,A,3250.7281,N,11648.1899,W,50.67,131.52,110210,,*23
$GPRMC,193206.000,A,3250.7010,N,11648.1519,W,50.00,127.80,110210,,*20
$GPRMC,193209.000,A,3250.6779,N,11648.1110,W,49.54,121.43,110210,,*2B
$GPRMC,193212.000,A,3250.6578,N,11648.0684,W,49.23,118.37,110210,,*20
$GPRMC,193215.000,A,3250.6399,N,11648.0250,W,48.76,114.81,110210,,*23
$GPRMC,193218.000,A,3250.6229,N,11647.9814,W,48.53,114.72,110210,,*23
$GPRMC,193221.000,A,3250.6067,N,11647.9377,W,48.12,112.96,110210,,*26
$GPRMC,193224.000,A,3250.5914,N,11647.8940,W,47.64,112.63,110210,,*26
$GPRMC,193227.000,A,3250.5760,N,11647.8510,W,47.06,112.90,110210,,*29
$GPRMC,193230.000,A,3250.5609,N,11647.8085,W,46.57,112.88,110210,,*24
$GPRMC,193233.000,A,3250.5458,N,11647.7664,W,46.03,112.92,110210,,*2D
$GPRMC,193236.000,A,3250.5309,N,11647.7247,W,45.72,112.81,110210,,*29
$GPRMC,193239.000,A,3250.5163,N,11647.6833,W,45.24,112.74,110210,,*29
$GPRMC,193242.000,A,3250.5017,N,11647.6424,W,44.74,112.92,110210,,*21
$GPRMC,193246.000,A,3250.4831,N,11647.5881,W,44.25,111.20,110210,,*26
$GPRMC,193249.000,A,3250.4695,N,11647.5477,W,43.89,111.77,110210,,*2F
$GPRMC,193252.000,A,3250.4556,N,11647.5079,W,43.48,112.73,110210,,*29
$GPRMC,193255.000,A,3250.4416,N,11647.4686,W,43.00,112.54,110210,,*25
$GPRMC,193258.000,A,3250.4282,N,11647.4293,W,42.62,112.94,110210,,*2A
$GPRMC,193300.000,A,3250.4192,N,11647.4035,W,42.31,112.87,110210,,*2E
$GPRMC,193303.000,A,3250.4057,N,11647.3651,W,41.89,112.93,110210,,*23
$GPRMC,193306.000,A,3250.3923,N,11647.3272,W,41.38,112.66,110210,,*2E
$GPRMC,193309.000,A,3250.3794,N,11647.2898,W,40.77,110.87,110210,,*2B
$GPRMC,193312.000,A,3250.3681,N,11647.2521,W,40.45,107.63,110210,,*26
$GPRMC,193315.000,A,3250.3584,N,11647.2142,W,39.96,106.25,110210,,*25
$GPRMC,193318.000,A,3250.3510,N,11647.1760,W,39.33,100.89,110210,,*2F
$GPRMC,193321.000,A,3250.3467,N,11647.1378,W,38.74,96.07,110210,,*13
$GPRMC,193324.000,A,3250.3448,N,11647.1001,W,37.72,92.30,110210,,*1F
$GPRMC,193327.000,A,3250.3446,N,11647.0639,W,36.35,89.16,110210,,*12
$GPRMC,193330.000,A,3250.3463,N,11647.0276,W,37.34,85.46,110210,,*15
$GPRMC,193333.000,A,3250.3500,N,11646.9905,W,38.25,82.39,110210,,*15
$GPRMC,193336.000,A,3250.3557,N,11646.9530,W,38.97,78.87,110210,,*11
$GPRMC,193339.000,A,3250.3625,N,11646.9147,W,39.85,78.46,110210,,*13
$GPRMC,193342.000,A,3250.3694,N,11646.8759,W,40.38,78.60,110210,,*11
$GPRMC,193345.000,A,3250.3763,N,11646.8363,W,40.89,78.58,110210,,*13
$GPRMC,193348.000,A,3250.3833,N,11646.7964,W,41.28,78.43,110210,,*16
$GPRMC,193351.000,A,3250.3904,N,11646.7562,W,41.17,77.71,110210,,*13
$GPRMC,193354.000,A,3250.3976,N,11646.7158,W,41.95,78.53,110210,,*1B
$GPRMC,193357.000,A,3250.4045,N,11646.6750,W,42.21,79.09,110210,,*1B
$GPRMC,193400.000,A,3250.4104,N,11646.6338,W,42.33,82.52,110210,,*19
$GPRMC,193403.000,A,3250.4129,N,11646.5919,W,42.38,89.34,110210,,*1F
$GPRMC,193406.000,A,3250.4111,N,11646.5500,W,42.37,95.87,110210,,*1F
$GPRMC,193409.000,A,3250.4057,N,11646.5086,W,42.23,100.51,110210,,*2B
$GPRMC,193412.000,A,3250.3993,N,11646.4674,W,42.35,99.71,110210,,*19
$GPRMC,193415.000,A,3250.3936,N,11646.4260,W,42.29,98.46,110210,,*18
$GPRMC,193418.000,A,3250.3880,N,11646.3846,W,42.53,99.22,110210,,*1E
$GPRMC,193421.000,A,3250.3820,N,11646.3432,W,42.48,99.87,110210,,*14
$GPRMC,193424.000,A,3250.3756,N,11646.3018,W,42.59,100.04,110210,,*29
$GPRMC,193427.000,A,3250.3692,N,11646.2602,W,42.85,100.50,110210,,*2F
$GPRMC,193430.000,A,3250.3616,N,11646.2188,W,43.03,103.06,110210,,*2F
$GPRMC,193433.000,A,3250.3543,N,11646.1769,W,43.38,100.27,110210,,*2D
$GPRMC,193436.000,A,3250.3478,N,11646.1347,W,43.40,100.31,110210,,*21
$GPRMC,193439.000,A,3250.3413,N,11646.0924,W,43.54,100.34,110210,,*2D
$GPRMC,193442.000,A,3250.3348,N,11646.0501,W,43.50,100.22,110210,,*20
$GPRMC,193445.000,A,3250.3283,N,11646.0077,W,43.72,100.48,110210,,*29
$GPRMC,193448.000,A,3250.3218,N,11645.9646,W,44.61,100.04,110210,,*25
$GPRMC,193451.000,A,3250.3151,N,11645.9208,W,45.35,100.44,110210,,*29
$GPRMC,193454.000,A,3250.3084,N,11645.8772,W,44.25,100.43,110210,,*2B
$GPRMC,193457.000,A,3250.3018,N,11645.8337,W,45.18,100.14,110210,,*25
$GPRMC,193500.000,A,3250.2951,N,11645.7890,W,46.62,100.02,110210,,*23
$GPRMC,193503.000,A,3250.2881,N,11645.7431,W,47.52,100.40,110210,,*2F
$GPRMC,193506.000,A,3250.2806,N,11645.6965,W,48.25,101.61,110210,,*25
$GPRMC,193509.000,A,3250.2711,N,11645.6499,W,48.68,105.37,110210,,*23
$GPRMC,193512.000,A,3250.2590,N,11645.6037,W,49.01,108.25,110210,,*22
$GPRMC,193515.000,A,3250.2458,N,11645.5576,W,49.36,108.64,110210,,*22
$GPRMC,193518.000,A,3250.2325,N,11645.5111,W,49.66,108.28,110210,,*2A
$GPRMC,193521.000,A,3250.2192,N,11645.4643,W,50.05,108.57,110210,,*2A
$GPRMC,193524.000,A,3250.2057,N,11645.4172,W,50.35,108.77,110210,,*23
$GPRMC,193527.000,A,3250.1922,N,11645.3697,W,50.75,108.55,110210,,*27
$GPRMC,193530.000,A,3250.1786,N,11645.3219,W,51.03,108.74,110210,,*20
$GPRMC,193533.000,A,3250.1648,N,11645.2738,W,51.19,108.64,110210,,*2D
$GPRMC,193536.000,A,3250.1512,N,11645.2257,W,51.29,108.43,110210,,*2E
$GPRMC,193539.000,A,3250.1374,N,11645.1775,W,51.39,108.56,110210,,*24
$GPRMC,193542.000,A,3250.1238,N,11645.1294,W,50.75,108.57,110210,,*23
$GPRMC,193545.000,A,3250.1104,N,11645.0824,W,49.78,108.43,110210,,*28
$GPRMC,193548.000,A,3250.0975,N,11645.0356,W,50.04,107.80,110210,,*27
$GPRMC,193551.000,A,3250.0858,N,11644.9875,W,51.06,104.66,110210,,*2B
$GPRMC,193554.000,A,3250.0764,N,11644.9377,W,52.11,101.22,110210,,*27
$GPRMC,193557.000,A,3250.0690,N,11644.8862,W,53.57,98.32,110210,,*13
$GPRMC,193600.000,A,3250.0641,N,11644.8330,W,54.65,94.88,110210,,*19
