NMEA Sentence Code,UTC Time,Status,Latitude,Latitude Direction,Longitude,Longitude Direction,Speed (knots),Track Angle (degrees true),Date,MagneticVariation,Magnetic Variation Direction,[FAA Mode]-Optional,Checksum
$GPRMC,052445.5,A,3350.272973,N,11743.115892,W,41.8,178.3,080810,,,A*43
$GPRMC,052448.5,A,3350.238747,N,11743.112550,W,41.8,176.3,080810,,,A*43
$GPRMC,052451.5,A,3350.204144,N,11743.107040,W,42.1,174.0,080810,,,A*4A
$GPRMC,052454.5,A,3350.170828,N,11743.100638,W,41.8,172.8,080810,,,A*46
$GPRMC,052457.5,A,3350.135824,N,11743.096486,W,42.4,173.6,080810,,,A*41
$GPRMC,052500.5,A,3350.099928,N,11743.090846,W,42.1,172.6,080810,,,A*4A
$GPRMC,052503.5,A,3350.064943,N,11743.086168,W,42.0,173.0,080810,,,A*42
$GPRMC,052506.5,A,3350.030145,N,11743.081665,W,41.7,172.5,080810,,,A*45
$GPRMC,052509.5,A,3349.997387,N,11743.075037,W,41.4,172.6,080810,,,A*40
$GPRMC,052512.5,A,3349.964619,N,11743.069320,W,40.7,171.6,080810,,,A*4D
$GPRMC,052515.5,A,3349.931332,N,11743.063985,W,40.6,172.5,080810,,,A*48
$GPRMC,052518.5,A,3349.898483,N,11743.058766,W,39.8,173.3,080810,,,A*46
$GPRMC,052521.5,A,3349.865904,N,11743.053985,W,40.5,173.6,080810,,,A*42
$GPRMC,052524.5,A,3349.835249,N,11743.050027,W,38.8,174.8,080810,,,A*49
$GPRMC,052527.5,A,3349.804161,N,11743.046309,W,39.3,174.1,080810,,,A*4A
$GPRMC,052530.5,A,3349.772384,N,11743.042332,W,39.8,174.2,080810,,,A*4F
$GPRMC,052533.5,A,3349.738254,N,11743.038347,W,40.1,174.6,080810,,,A*42
$GPRMC,052536.5,A,3349.700427,N,11743.031948,W,41.6,175.0,080810,,,A*43
$GPRMC,052539.5,A,3349.660267,N,11743.024263,W,43.1,174.6,080810,,,A*4D
$GPRMC,052542.5,A,3349.620261,N,11743.018399,W,43.9,176.0,080810,,,A*44
$GPRMC,052545.5,A,3349.578779,N,11743.013513,W,46.6,178.6,080810,,,A*4C
$GPRMC,052548.5,A,3349.536653,N,11743.012121,W,49.5,179.5,080810,,,A*48
$GPRMC,052551.5,A,3349.495015,N,11743.013067,W,51.4,181.3,080810,,,A*47
$GPRMC,052554.5,A,3349.450323,N,11743.015791,W,53.3,183.1,080810,,,A*40
$GPRMC,052557.5,A,3349.403893,N,11743.021194,W,56.1,184.8,080810,,,A*48
$GPRMC,052600.5,A,3349.355858,N,11743.026264,W,56.6,186.1,080810,,,A*4D
$GPRMC,052603.5,A,3349.305652,N,11743.032969,W,58.5,188.0,080810,,,A*4E
$GPRMC,052606.5,A,3349.255064,N,11743.041727,W,60.3,189.1,080810,,,A*41
$GPRMC,052609.5,A,3349.204339,N,11743.052943,W,62.7,190.3,080810,,,A*43
$GPRMC,052612.5,A,3349.151853,N,11743.066498,W,64.3,192.5,080810,,,A*47
$GPRMC,052615.5,A,3349.099923,N,11743.081533,W,64.4,194.8,080810,,,A*46
$GPRMC,052618.5,A,3349.048951,N,11743.099171,W,64.7,196.5,080810,,,A*45
$GPRMC,052621.5,A,3348.998386,N,11743.119405,W,64.0,198.2,080810,,,A*4B
$GPRMC,052624.5,A,3348.947204,N,11743.141241,W,63.0,200.4,080810,,,A*4F
$GPRMC,052627.5,A,3348.898466,N,11743.165524,W,61.0,202.3,080810,,,A*48
$GPRMC,052630.5,A,3348.851486,N,11743.190121,W,61.4,204.1,080810,,,A*4E
$GPRMC,052633.5,A,3348.805559,N,11743.216711,W,62.4,206.1,080810,,,A*46
$GPRMC,052636.5,A,3348.758372,N,11743.245638,W,62.3,208.2,080810,,,A*4D
$GPRMC,052639.5,A,3348.713340,N,11743.274788,W,61.0,208.2,080810,,,A*44
$GPRMC,052642.5,A,3348.670110,N,11743.303936,W,60.3,208.6,080810,,,A*47
$GPRMC,052645.5,A,3348.626836,N,11743.333195,W,60.2,209.1,080810,,,A*4B
$GPRMC,052648.5,A,3348.582439,N,11743.362808,W,61.7,208.8,080810,,,A*4D
$GPRMC,052651.5,A,3348.537080,N,11743.391669,W,61.2,207.9,080810,,,A*43
$GPRMC,052654.5,A,3348.491662,N,11743.418638,W,61.6,206.2,080810,,,A*4D
$GPRMC,052657.5,A,3348.444069,N,11743.444765,W,62.8,203.3,080810,,,A*42
$GPRMC,052700.5,A,3348.393991,N,11743.466182,W,63.5,199.2,080810,,,A*40
$GPRMC,052703.5,A,3348.343089,N,11743.482230,W,62.5,195.0,080810,,,A*41
$GPRMC,052706.5,A,3348.291741,N,11743.497114,W,62.9,193.2,080810,,,A*40
$GPRMC,052709.5,A,3348.240063,N,11743.512279,W,63.8,193.1,080810,,,A*43
$GPRMC,052712.5,A,3348.186882,N,11743.529081,W,64.1,193.4,080810,,,A*41
$GPRMC,052715.5,A,3348.134030,N,11743.543753,W,64.1,193.2,080810,,,A*4C
$GPRMC,052718.5,A,3348.083381,N,11743.559147,W,62.3,193.3,080810,,,A*48
$GPRMC,052721.5,A,3348.033119,N,11743.572955,W,62.0,194.0,080810,,,A*4F
$GPRMC,052724.5,A,3347.988303,N,11743.589046,W,63.0,198.6,080810,,,A*41
$GPRMC,052727.5,A,3347.941918,N,11743.613403,W,63.9,204.6,080810,,,A*4D
$GPRMC,052730.5,A,3347.896937,N,11743.646270,W,63.7,211.0,080810,,,A*43
$GPRMC,052733.5,A,3347.854780,N,11743.683349,W,64.2,217.6,080810,,,A*4C
$GPRMC,052736.5,A,3347.815637,N,11743.725662,W,63.7,222.3,080810,,,A*41
$GPRMC,052739.5,A,3347.779903,N,11743.774790,W,63.5,228.7,080810,,,A*47
$GPRMC,052742.5,A,3347.749075,N,11743.829817,W,65.1,233.7,080810,,,A*4F
$GPRMC,052745.5,A,3347.717760,N,11743.885679,W,66.4,234.2,080810,,,A*44
$GPRMC,052748.5,A,3347.686061,N,11743.938862,W,66.5,233.7,080810,,,A*46
$GPRMC,052751.5,A,3347.653610,N,11743.992452,W,66.8,233.3,080810,,,A*40
$GPRMC,052754.5,A,3347.619518,N,11744.044741,W,66.5,232.7,080810,,,A*4C
$GPRMC,052757.5,A,3347.586735,N,11744.099208,W,66.9,232.9,080810,,,A*4D
$GPRMC,052800.5,A,3347.554373,N,11744.151225,W,65.8,233.2,080810,,,A*4B
$GPRMC,052803.5,A,3347.521814,N,11744.205511,W,65.6,233.7,080810,,,A*49
$GPRMC,052806.5,A,3347.490060,N,11744.260132,W,65.2,234.2,080810,,,A*4C
$GPRMC,052809.5,A,3347.457184,N,11744.311573,W,64.9,233.3,080810,,,A*49
$GPRMC,052812.5,A,3347.425332,N,11744.363429,W,63.4,234.1,080810,,,A*4D
$GPRMC,052815.5,A,3347.393987,N,11744.413372,W,62.4,234.0,080810,,,A*4D
$GPRMC,052818.5,A,3347.363414,N,11744.463738,W,61.5,234.0,080810,,,A*47
$GPRMC,052821.5,A,3347.332432,N,11744.512539,W,62.7,233.1,080810,,,A*4E
$GPRMC,052824.5,A,3347.301227,N,11744.564018,W,63.1,233.5,080810,,,A*4D
$GPRMC,052827.5,A,3347.268511,N,11744.614271,W,63.9,232.6,080810,,,A*41
$GPRMC,052830.5,A,3347.235776,N,11744.664153,W,63.4,230.6,080810,,,A*47
$GPRMC,052833.5,A,3347.200866,N,11744.710172,W,62.5,226.7,080810,,,A*4B
$GPRMC,052836.5,A,3347.161451,N,11744.751237,W,62.7,221.1,080810,,,A*46
$GPRMC,052839.5,A,3347.119450,N,11744.788996,W,63.3,215.2,080810,,,A*42
$GPRMC,052842.5,A,3347.075083,N,11744.821758,W,62.4,211.0,080810,,,A*4F
$GPRMC,052845.5,A,3347.027640,N,11744.848508,W,62.1,205.0,080810,,,A*4E
$GPRMC,052848.5,A,3346.979297,N,11744.869436,W,63.0,198.7,080810,,,A*41
$GPRMC,052851.5,A,3346.928238,N,11744.886232,W,63.0,194.0,080810,,,A*40
$GPRMC,052854.5,A,3346.876431,N,11744.896585,W,62.3,188.3,080810,,,A*46
$GPRMC,052857.5,A,3346.824206,N,11744.901279,W,61.8,183.5,080810,,,A*4E
$GPRMC,052900.5,A,3346.772503,N,11744.898229,W,61.5,176.8,080810,,,A*4D
$GPRMC,052903.5,A,3346.721455,N,11744.888460,W,60.4,172.2,080810,,,A*4E
$GPRMC,052906.5,A,3346.673160,N,11744.873556,W,60.1,165.5,080810,,,A*4A
$GPRMC,052909.5,A,3346.626085,N,11744.854991,W,58.1,161.1,080810,,,A*46
$GPRMC,052912.5,A,3346.582349,N,11744.832612,W,56.7,155.5,080810,,,A*4D
$GPRMC,052915.5,A,3346.541983,N,11744.803107,W,56.4,150.2,080810,,,A*49
$GPRMC,052918.5,A,3346.502619,N,11744.770029,W,56.8,145.9,080810,,,A*4A
$GPRMC,052921.5,A,3346.464527,N,11744.736369,W,57.2,143.7,080810,,,A*49
$GPRMC,052924.5,A,3346.431251,N,11744.697866,W,55.6,137.9,080810,,,A*4F
$GPRMC,052927.5,A,3346.405487,N,11744.652525,W,55.5,128.9,080810,,,A*48
$GPRMC,052930.5,A,3346.377518,N,11744.607076,W,55.6,126.4,080810,,,A*48
$GPRMC,052933.5,A,3346.351173,N,11744.561837,W,55.1,124.2,080810,,,A*4B
$GPRMC,052936.5,A,3346.323326,N,11744.517369,W,55.2,126.1,080810,,,A*4A
$GPRMC,052939.5,A,3346.296677,N,11744.471844,W,56.0,125.9,080810,,,A*44
$GPRMC,052942.5,A,3346.269034,N,11744.427759,W,56.3,126.7,080810,,,A*47
$GPRMC,052945.5,A,3346.239916,N,11744.382449,W,57.1,126.5,080810,,,A*47
$GPRMC,052948.5,A,3346.210797,N,11744.336392,W,58.2,126.9,080810,,,A*48
$GPRMC,052951.5,A,3346.181863,N,11744.288930,W,58.3,126.0,080810,,,A*41
$GPRMC,052954.5,A,3346.152802,N,11744.239661,W,60.1,125.8,080810,,,A*4E
$GPRMC,052957.5,A,3346.123563,N,11744.190362,W,60.5,126.1,080810,,,A*49
$GPRMC,053000.5,A,3346.093993,N,11744.143410,W,59.0,128.0,080810,,,A*46
$GPRMC,053003.5,A,3346.062773,N,11744.099527,W,57.9,134.1,080810,,,A*43
$GPRMC,053006.5,A,3346.026399,N,11744.059277,W,58.1,138.8,080810,,,A*4A
$GPRMC,053009.5,A,3345.986270,N,11744.023913,W,58.2,145.5,080810,,,A*43
$GPRMC,053012.5,A,3345.944700,N,11743.994967,W,57.3,151.0,080810,,,A*4A
$GPRMC,053015.5,A,3345.901537,N,11743.971961,W,57.1,156.2,080810,,,A*40
$GPRMC,053018.5,A,3345.854116,N,11743.952207,W,57.4,162.4,080810,,,A*45
$GPRMC,053021.5,A,3345.807866,N,11743.941526,W,57.0,168.4,080810,,,A*4F
$GPRMC,053024.5,A,3345.759324,N,11743.935322,W,57.7,174.5,080810,,,A*49
$GPRMC,053027.5,A,3345.710366,N,11743.936623,W,58.6,181.3,080810,,,A*44
$GPRMC,053030.5,A,3345.660415,N,11743.942769,W,58.8,185.5,080810,,,A*47
$GPRMC,053033.5,A,3345.612040,N,11743.951010,W,58.6,188.5,080810,,,A*4D
$GPRMC,053036.5,A,3345.562573,N,11743.960256,W,59.0,188.4,080810,,,A*4D
$GPRMC,053039.5,A,3345.513835,N,11743.969430,W,59.8,189.3,080810,,,A*4A
$GPRMC,053042.5,A,3345.461504,N,11743.977059,W,60.9,185.7,080810,,,A*4A
$GPRMC,053045.5,A,3345.409424,N,11743.977182,W,63.0,179.5,080810,,,A*4C
$GPRMC,053048.5,A,3345.354847,N,11743.968208,W,64.5,172.1,080810,,,A*45
$GPRMC,053051.5,A,3345.301826,N,11743.954302,W,63.8,167.1,080810,,,A*40
$GPRMC,053054.5,A,3345.250131,N,11743.931839,W,64.2,160.9,080810,,,A*4D
$GPRMC,053057.5,A,3345.204206,N,11743.907795,W,63.0,156.4,080810,,,A*49
$GPRMC,053100.5,A,3345.159655,N,11743.873229,W,63.1,148.8,080810,,,A*41
$GPRMC,053103.5,A,3345.118523,N,11743.835773,W,62.3,142.5,080810,,,A*49
$GPRMC,053106.5,A,3345.079293,N,11743.793680,W,62.4,137.5,080810,,,A*4D
$GPRMC,053109.5,A,3345.044402,N,11743.745036,W,63.9,129.8,080810,,,A*4C
$GPRMC,053112.5,A,3345.013351,N,11743.689181,W,64.6,123.9,080810,,,A*4A
$GPRMC,053115.5,A,3344.985967,N,11743.635209,W,63.8,120.7,080810,,,A*45
$GPRMC,053118.5,A,3344.956818,N,11743.579228,W,64.7,120.9,080810,,,A*41
$GPRMC,053121.5,A,3344.930239,N,11743.524244,W,63.6,121.0,080810,,,A*4E
$GPRMC,053124.5,A,3344.903356,N,11743.469729,W,63.7,121.2,080810,,,A*46
$GPRMC,053127.5,A,3344.874933,N,11743.415452,W,64.8,123.6,080810,,,A*47
$GPRMC,053130.5,A,3344.842987,N,11743.363682,W,64.9,127.4,080810,,,A*45
$GPRMC,053133.5,A,3344.805414,N,11743.312482,W,66.6,132.3,080810,,,A*48
$GPRMC,053136.5,A,3344.765979,N,11743.268354,W,66.4,136.8,080810,,,A*4F
$GPRMC,053139.5,A,3344.725047,N,11743.227711,W,65.8,140.0,080810,,,A*48
$GPRMC,053142.5,A,3344.680175,N,11743.190615,W,65.3,145.4,080810,,,A*4A
$GPRMC,053145.5,A,3344.632082,N,11743.156337,W,66.3,149.1,080810,,,A*48
$GPRMC,053148.5,A,3344.583116,N,11743.129221,W,65.0,153.7,080810,,,A*43
$GPRMC,053151.5,A,3344.535725,N,11743.106482,W,63.4,158.5,080810,,,A*49
$GPRMC,053154.5,A,3344.486095,N,11743.087636,W,63.0,163.7,080810,,,A*42
$GPRMC,053157.5,A,3344.433848,N,11743.073364,W,63.1,167.7,080810,,,A*4B
$GPRMC,053200.5,A,3344.380140,N,11743.062507,W,63.7,171.8,080810,,,A*49
$GPRMC,053203.5,A,3344.326914,N,11743.056791,W,63.9,174.8,080810,,,A*4E
$GPRMC,053206.5,A,3344.271604,N,11743.055824,W,66.1,180.4,080810,,,A*4E
$GPRMC,053209.5,A,3344.216792,N,11743.057503,W,65.7,183.4,080810,,,A*42
$GPRMC,053212.5,A,3344.163066,N,11743.065196,W,65.1,185.2,080810,,,A*4A
$GPRMC,053215.5,A,3344.108766,N,11743.073047,W,65.4,185.8,080810,,,A*42
$GPRMC,053218.5,A,3344.054438,N,11743.080629,W,65.8,186.3,080810,,,A*49
$GPRMC,053221.5,A,3343.999604,N,11743.087372,W,66.5,186.1,080810,,,A*41
$GPRMC,053224.5,A,3343.943497,N,11743.094449,W,66.9,186.2,080810,,,A*49
$GPRMC,053227.5,A,3343.888618,N,11743.102859,W,65.5,186.4,080810,,,A*43
$GPRMC,053230.5,A,3343.835942,N,11743.109397,W,64.6,186.1,080810,,,A*46
$GPRMC,053233.5,A,3343.781911,N,11743.116816,W,65.4,185.9,080810,,,A*47
$GPRMC,053236.5,A,3343.727232,N,11743.124025,W,65.5,186.6,080810,,,A*40
$GPRMC,053239.5,A,3343.672884,N,11743.133147,W,65.4,187.4,080810,,,A*48
$GPRMC,053242.5,A,3343.618341,N,11743.140023,W,64.1,186.9,080810,,,A*45
$GPRMC,053245.5,A,3343.565985,N,11743.146599,W,63.5,186.0,080810,,,A*41
$GPRMC,053248.5,A,3343.513605,N,11743.152754,W,64.3,185.8,080810,,,A*46
$GPRMC,053251.5,A,3343.461146,N,11743.159636,W,63.6,186.8,080810,,,A*45
$GPRMC,053254.5,A,3343.408024,N,11743.166440,W,63.5,186.6,080810,,,A*48
$GPRMC,053257.5,A,3343.356892,N,11743.176831,W,62.0,189.2,080810,,,A*46
$GPRMC,053300.5,A,3343.304389,N,11743.191630,W,62.8,192.5,080810,,,A*40
$GPRMC,053303.5,A,3343.251662,N,11743.208689,W,64.6,191.4,080810,,,A*49
$GPRMC,053306.5,A,3343.198614,N,11743.223977,W,64.3,189.4,080810,,,A*40
$GPRMC,053309.5,A,3343.147542,N,11743.233585,W,62.0,188.2,080810,,,A*4F
$GPRMC,053312.5,A,3343.097462,N,11743.244960,W,61.4,191.9,080810,,,A*49
$GPRMC,053315.5,A,3343.047630,N,11743.263181,W,62.0,198.0,080810,,,A*43
$GPRMC,053318.5,A,3343.001149,N,11743.290493,W,64.7,204.1,080810,,,A*49
$GPRMC,053321.5,A,3342.951328,N,11743.317082,W,65.6,203.1,080810,,,A*46
$GPRMC,053324.5,A,3342.902306,N,11743.343184,W,65.4,203.3,080810,,,A*4F
$GPRMC,053327.5,A,3342.852594,N,11743.368902,W,65.1,202.5,080810,,,A*48
$GPRMC,053330.5,A,3342.801771,N,11743.394014,W,64.6,201.7,080810,,,A*4B
$GPRMC,053333.5,A,3342.751932,N,11743.419295,W,64.6,202.2,080810,,,A*44
$GPRMC,053336.5,A,3342.701141,N,11743.443764,W,64.8,201.9,080810,,,A*4A
$GPRMC,053339.5,A,3342.651429,N,11743.467023,W,63.0,202.1,080810,,,A*4C
$GPRMC,053342.5,A,3342.603366,N,11743.491436,W,63.2,201.4,080810,,,A*46
$GPRMC,053345.5,A,3342.552375,N,11743.512358,W,63.4,199.6,080810,,,A*47
$GPRMC,053348.5,A,3342.502757,N,11743.533496,W,63.4,200.6,080810,,,A*4E
$GPRMC,053351.5,A,3342.453588,N,11743.557139,W,64.4,202.6,080810,,,A*44
$GPRMC,053354.5,A,3342.404907,N,11743.582704,W,63.9,203.8,080810,,,A*4D
$GPRMC,053357.5,A,3342.358326,N,11743.612440,W,64.4,208.7,080810,,,A*4E
$GPRMC,053400.5,A,3342.312591,N,11743.646594,W,64.8,211.9,080810,,,A*4C
$GPRMC,053403.5,A,3342.267926,N,11743.684588,W,65.4,215.0,080810,,,A*4F
$GPRMC,053406.5,A,3342.224347,N,11743.724228,W,65.3,217.0,080810,,,A*43
$GPRMC,053409.5,A,3342.184211,N,11743.768986,W,65.9,221.9,080810,,,A*46
$GPRMC,053412.5,A,3342.147170,N,11743.815546,W,65.7,223.7,080810,,,A*40
$GPRMC,053415.5,A,3342.107312,N,11743.860487,W,65.5,223.5,080810,,,A*4B
$GPRMC,053418.5,A,3342.069524,N,11743.906921,W,64.8,224.1,080810,,,A*43
$GPRMC,053421.5,A,3342.030724,N,11743.950147,W,64.2,223.7,080810,,,A*47
$GPRMC,053424.5,A,3341.990810,N,11743.994694,W,65.1,223.6,080810,,,A*48
$GPRMC,053427.5,A,3341.948965,N,11744.037148,W,66.1,220.7,080810,,,A*4D
$GPRMC,053430.5,A,3341.903958,N,11744.076838,W,66.6,218.0,080810,,,A*4A
$GPRMC,053433.5,A,3341.859849,N,11744.116569,W,65.2,216.7,080810,,,A*46
$GPRMC,053436.5,A,3341.815660,N,11744.154964,W,65.3,216.5,080810,,,A*4A
$GPRMC,053439.5,A,3341.770824,N,11744.192808,W,65.0,214.8,080810,,,A*4A
$GPRMC,053442.5,A,3341.726590,N,11744.228469,W,63.1,215.2,080810,,,A*42
$GPRMC,053445.5,A,3341.683709,N,11744.262299,W,63.4,214.7,080810,,,A*4F
$GPRMC,053448.5,A,3341.641101,N,11744.300881,W,64.6,215.4,080810,,,A*43
$GPRMC,053451.5,A,3341.598068,N,11744.338954,W,65.9,215.6,080810,,,A*4C
$GPRMC,053454.5,A,3341.553178,N,11744.377691,W,66.5,215.4,080810,,,A*4E
$GPRMC,053457.5,A,3341.507275,N,11744.415669,W,66.8,214.9,080810,,,A*47
$GPRMC,053500.5,A,3341.461850,N,11744.452266,W,65.9,214.9,080810,,,A*42
$GPRMC,053503.5,A,3341.417616,N,11744.488648,W,65.8,214.6,080810,,,A*4D
$GPRMC,053506.5,A,3341.373254,N,11744.528824,W,64.9,215.4,080810,,,A*43
$GPRMC,053509.5,A,3341.329390,N,11744.566129,W,64.3,215.8,080810,,,A*42
$GPRMC,053512.5,A,3341.286877,N,11744.602978,W,64.0,216.0,080810,,,A*4B
$GPRMC,053515.5,A,3341.246278,N,11744.641565,W,63.2,216.8,080810,,,A*4F
$GPRMC,053518.5,A,3341.205489,N,11744.678334,W,62.5,217.6,080810,,,A*4C
$GPRMC,053521.5,A,3341.162540,N,11744.716757,W,62.8,216.6,080810,,,A*44
$GPRMC,053524.5,A,3341.118325,N,11744.752154,W,63.2,215.5,080810,,,A*47
$GPRMC,053527.5,A,3341.073647,N,11744.787507,W,63.8,214.9,080810,,,A*44
$GPRMC,053530.5,A,3341.030825,N,11744.821419,W,62.9,215.8,080810,,,A*42
$GPRMC,053533.5,A,3340.985740,N,11744.855205,W,62.5,215.1,080810,,,A*46
$GPRMC,053536.5,A,3340.942526,N,11744.890945,W,62.7,214.9,080810,,,A*47
$GPRMC,053539.5,A,3340.902308,N,11744.926897,W,61.7,215.6,080810,,,A*49
$GPRMC,053542.5,A,3340.860637,N,11744.964403,W,62.1,214.9,080810,,,A*45
$GPRMC,053545.5,A,3340.818366,N,11745.000739,W,61.3,216.0,080810,,,A*46
$GPRMC,053548.5,A,3340.776275,N,11745.035516,W,60.3,215.2,080810,,,A*46
$GPRMC,053551.5,A,3340.733289,N,11745.069561,W,61.1,215.4,080810,,,A*40
$GPRMC,053554.5,A,3340.691962,N,11745.105721,W,61.0,215.4,080810,,,A*4E
$GPRMC,053557.5,A,3340.649662,N,11745.140125,W,61.2,214.4,080810,,,A*47
$GPRMC,053600.5,A,3340.605714,N,11745.168834,W,60.4,209.7,080810,,,A*45
$GPRMC,053603.5,A,3340.559531,N,11745.192563,W,60.5,203.2,080810,,,A*4D
$GPRMC,053606.5,A,3340.511214,N,11745.209771,W,60.4,196.5,080810,,,A*4D
$GPRMC,053609.5,A,3340.462263,N,11745.221535,W,59.5,190.8,080810,,,A*4F
$GPRMC,053612.5,A,3340.413366,N,11745.229020,W,58.6,185.9,080810,,,A*49
$GPRMC,053615.5,A,3340.364093,N,11745.230797,W,58.9,181.2,080810,,,A*43
$GPRMC,053618.5,A,3340.314768,N,11745.232119,W,60.5,180.9,080810,,,A*45
$GPRMC,053621.5,A,3340.263714,N,11745.233978,W,60.5,181.8,080810,,,A*4B
$GPRMC,053624.5,A,3340.212413,N,11745.232700,W,60.5,180.4,080810,,,A*41
$GPRMC,053627.5,A,3340.161488,N,11745.235143,W,60.4,181.1,080810,,,A*44
$GPRMC,053630.5,A,3340.112238,N,11745.234049,W,59.2,180.7,080810,,,A*4A
$GPRMC,053633.5,A,3340.061782,N,11745.231172,W,57.6,175.7,080810,,,A*44
$GPRMC,053636.5,A,3340.013112,N,11745.219552,W,58.1,166.2,080810,,,A*48
$GPRMC,053639.5,A,3339.966380,N,11745.199264,W,60.3,156.6,080810,,,A*4C
$GPRMC,053642.5,A,3339.924427,N,11745.163124,W,61.8,146.5,080810,,,A*46
$GPRMC,053645.5,A,3339.883323,N,11745.123193,W,64.1,142.9,080810,,,A*42
$GPRMC,053648.5,A,3339.839922,N,11745.082545,W,65.5,142.0,080810,,,A*4C
$GPRMC,053651.5,A,3339.796294,N,11745.041488,W,66.3,142.4,080810,,,A*46
$GPRMC,053654.5,A,3339.753276,N,11744.999259,W,66.8,141.2,080810,,,A*4F
$GPRMC,053657.5,A,3339.709686,N,11744.955681,W,67.2,141.1,080810,,,A*41
$GPRMC,053700.5,A,3339.665801,N,11744.915965,W,65.8,143.2,080810,,,A*40
$GPRMC,053703.5,A,3339.622466,N,11744.877391,W,65.6,143.2,080810,,,A*47
$GPRMC,053706.5,A,3339.578108,N,11744.840124,W,64.6,145.6,080810,,,A*48
$GPRMC,053709.5,A,3339.534902,N,11744.803616,W,64.6,145.5,080810,,,A*4F
$GPRMC,053712.5,A,3339.491307,N,11744.767337,W,62.9,144.8,080810,,,A*4A
$GPRMC,053715.5,A,3339.450421,N,11744.730447,W,62.4,143.4,080810,,,A*47
$GPRMC,053718.5,A,3339.408426,N,11744.693289,W,63.0,144.4,080810,,,A*4E
$GPRMC,053721.5,A,3339.365274,N,11744.657464,W,63.6,144.7,080810,,,A*41
$GPRMC,053724.5,A,3339.320857,N,11744.621032,W,65.0,145.7,080810,,,A*49
$GPRMC,053727.5,A,3339.276141,N,11744.584503,W,64.5,146.3,080810,,,A*4E
$GPRMC,053730.5,A,3339.231026,N,11744.550209,W,64.5,146.3,080810,,,A*4F
$GPRMC,053733.5,A,3339.186625,N,11744.513613,W,64.9,146.4,080810,,,A*45
$GPRMC,053736.5,A,3339.141614,N,11744.478199,W,64.9,145.4,080810,,,A*43
$GPRMC,053739.5,A,3339.095355,N,11744.442724,W,65.5,146.8,080810,,,A*4F
$GPRMC,053742.5,A,3339.049255,N,11744.407171,W,65.0,146.5,080810,,,A*4C
$GPRMC,053745.5,A,3339.006145,N,11744.371416,W,63.5,145.8,080810,,,A*4D
$GPRMC,053748.5,A,3338.962245,N,11744.335846,W,62.8,146.4,080810,,,A*43
$GPRMC,053751.5,A,3338.918993,N,11744.301244,W,62.1,146.7,080810,,,A*43
$GPRMC,053754.5,A,3338.876013,N,11744.266967,W,62.7,146.5,080810,,,A*40
$GPRMC,053757.5,A,3338.833229,N,11744.232403,W,62.4,146.1,080810,,,A*40
$GPRMC,053800.5,A,3338.791075,N,11744.198440,W,61.8,146.0,080810,,,A*4B
$GPRMC,053803.5,A,3338.747703,N,11744.163956,W,62.6,146.3,080810,,,A*45
$GPRMC,053806.5,A,3338.704606,N,11744.128885,W,62.2,145.7,080810,,,A*40
$GPRMC,053809.5,A,3338.661516,N,11744.094068,W,62.9,146.1,080810,,,A*4C
$GPRMC,053812.5,A,3338.617582,N,11744.060024,W,63.1,147.1,080810,,,A*41
$GPRMC,053815.5,A,3338.571891,N,11744.026440,W,63.4,147.0,080810,,,A*4A
$GPRMC,053818.5,A,3338.526936,N,11743.992056,W,64.0,147.2,080810,,,A*4A
$GPRMC,053821.5,A,3338.482301,N,11743.958531,W,63.4,147.6,080810,,,A*44
$GPRMC,053824.5,A,3338.437335,N,11743.923476,W,63.9,147.3,080810,,,A*4E
$GPRMC,053827.5,A,3338.391760,N,11743.889219,W,65.1,146.6,080810,,,A*46
$GPRMC,053830.5,A,3338.348471,N,11743.853416,W,64.4,146.0,080810,,,A*4B
$GPRMC,053833.5,A,3338.302157,N,11743.816777,W,65.1,146.5,080810,,,A*43
$GPRMC,053836.5,A,3338.257025,N,11743.781092,W,64.9,146.6,080810,,,A*44
$GPRMC,053839.5,A,3338.212641,N,11743.746455,W,64.4,146.1,080810,,,A*40
$GPRMC,053842.5,A,3338.167992,N,11743.710643,W,64.7,146.1,080810,,,A*49
$GPRMC,053845.5,A,3338.123470,N,11743.674698,W,63.8,145.9,080810,,,A*49
$GPRMC,053848.5,A,3338.079676,N,11743.638020,W,64.0,145.7,080810,,,A*42
$GPRMC,053851.5,A,3338.037069,N,11743.603521,W,62.8,144.5,080810,,,A*49
$GPRMC,053854.5,A,3337.995540,N,11743.564033,W,63.3,141.4,080810,,,A*46
$GPRMC,053857.5,A,3337.956250,N,11743.523505,W,61.6,138.4,080810,,,A*46
$GPRMC,053900.5,A,3337.919255,N,11743.481342,W,60.9,135.8,080810,,,A*48
$GPRMC,053903.5,A,3337.881903,N,11743.438420,W,61.0,135.1,080810,,,A*43
$GPRMC,053906.5,A,3337.845142,N,11743.394913,W,61.7,135.4,080810,,,A*4D
$GPRMC,053909.5,A,3337.809585,N,11743.351332,W,61.8,135.5,080810,,,A*4B
$GPRMC,053912.5,A,3337.772232,N,11743.308108,W,61.9,137.2,080810,,,A*4A
$GPRMC,053915.5,A,3337.734401,N,11743.268573,W,59.1,139.1,080810,,,A*48
$GPRMC,053918.5,A,3337.693202,N,11743.232133,W,60.8,142.1,080810,,,A*4C
$GPRMC,053921.5,A,3337.651862,N,11743.195178,W,61.2,142.7,080810,,,A*48
$GPRMC,053924.5,A,3337.610893,N,11743.157113,W,60.9,142.7,080810,,,A*4F
$GPRMC,053927.5,A,3337.570636,N,11743.119754,W,60.2,142.1,080810,,,A*4A
$GPRMC,053930.5,A,3337.531391,N,11743.083548,W,59.8,142.2,080810,,,A*4F
$GPRMC,053933.5,A,3337.492779,N,11743.046992,W,59.4,141.7,080810,,,A*4E
$GPRMC,053936.5,A,3337.452109,N,11743.009594,W,60.6,141.9,080810,,,A*41
$GPRMC,053939.5,A,3337.411504,N,11742.973138,W,61.4,142.0,080810,,,A*4E
$GPRMC,053942.5,A,3337.370650,N,11742.935817,W,62.0,142.5,080810,,,A*44
$GPRMC,053945.5,A,3337.328443,N,11742.898401,W,62.4,142.3,080810,,,A*41
$GPRMC,053948.5,A,3337.286870,N,11742.859233,W,63.1,141.9,080810,,,A*42
$GPRMC,053951.5,A,3337.244215,N,11742.820597,W,63.7,142.5,080810,,,A*43
$GPRMC,053954.5,A,3337.202022,N,11742.782886,W,62.5,143.5,080810,,,A*4A
$GPRMC,053957.5,A,3337.159802,N,11742.745522,W,62.4,143.7,080810,,,A*45
$GPRMC,054000.5,A,3337.117419,N,11742.707713,W,62.6,143.6,080810,,,A*40
$GPRMC,054003.5,A,3337.077162,N,11742.669865,W,61.7,142.4,080810,,,A*4B
$GPRMC,054006.5,A,3337.039499,N,11742.631196,W,61.9,142.5,080810,,,A*42
$GPRMC,054009.5,A,3336.998606,N,11742.593791,W,62.8,141.7,080810,,,A*43
$GPRMC,054012.5,A,3336.957530,N,11742.554013,W,63.3,138.7,080810,,,A*4E
$GPRMC,054015.5,A,3336.917652,N,11742.510612,W,64.0,136.4,080810,,,A*44
$GPRMC,054018.5,A,3336.879885,N,11742.465723,W,64.7,135.4,080810,,,A*40
$GPRMC,054021.5,A,3336.841936,N,11742.420136,W,65.5,135.2,080810,,,A*4E
$GPRMC,054024.5,A,3336.801293,N,11742.373416,W,66.3,135.7,080810,,,A*4D
$GPRMC,054027.5,A,3336.760596,N,11742.327471,W,67.0,135.8,080810,,,A*49
$GPRMC,054030.5,A,3336.720486,N,11742.281285,W,67.0,136.0,080810,,,A*40
$GPRMC,054033.5,A,3336.681187,N,11742.233585,W,67.0,134.8,080810,,,A*49
$GPRMC,054036.5,A,3336.643083,N,11742.184087,W,68.2,131.9,080810,,,A*46
$GPRMC,054039.5,A,3336.608885,N,11742.131147,W,67.1,128.2,080810,,,A*44
$GPRMC,054042.5,A,3336.578534,N,11742.075733,W,66.7,122.1,080810,,,A*41
$GPRMC,054045.5,A,3336.550570,N,11742.018347,W,67.1,118.5,080810,,,A*4A
$GPRMC,054048.5,A,3336.524593,N,11741.958183,W,67.4,116.9,080810,,,A*4A
$GPRMC,054051.5,A,3336.499009,N,11741.898252,W,67.4,117.0,080810,,,A*49
$GPRMC,054054.5,A,3336.473180,N,11741.837874,W,66.7,116.5,080810,,,A*45
$GPRMC,054057.5,A,3336.448610,N,11741.779227,W,66.3,116.9,080810,,,A*41
$GPRMC,054100.5,A,3336.423573,N,11741.720132,W,66.7,117.3,080810,,,A*4D
$GPRMC,054103.5,A,3336.396952,N,11741.661693,W,66.9,119.2,080810,,,A*41
$GPRMC,054106.5,A,3336.368391,N,11741.604176,W,66.8,121.3,080810,,,A*44
$GPRMC,054109.5,A,3336.338408,N,11741.547764,W,66.4,123.1,080810,,,A*44
$GPRMC,054112.5,A,3336.306767,N,11741.493335,W,66.2,125.2,080810,,,A*42
$GPRMC,054115.5,A,3336.274561,N,11741.440457,W,64.6,126.8,080810,,,A*47
$GPRMC,054118.5,A,3336.240065,N,11741.390538,W,64.7,129.4,080810,,,A*4C
$GPRMC,054121.5,A,3336.206414,N,11741.340004,W,64.9,128.0,080810,,,A*4A
$GPRMC,054124.5,A,3336.175571,N,11741.285582,W,65.6,124.0,080810,,,A*4B
$GPRMC,054127.5,A,3336.144879,N,11741.229148,W,66.1,121.3,080810,,,A*49
$GPRMC,054130.5,A,3336.118927,N,11741.171812,W,65.5,117.7,080810,,,A*42
$GPRMC,054133.5,A,3336.095461,N,11741.112789,W,65.9,115.7,080810,,,A*4C
$GPRMC,054136.5,A,3336.072509,N,11741.053855,W,66.4,114.7,080810,,,A*4A
$GPRMC,054139.5,A,3336.049306,N,11740.993454,W,66.1,114.8,080810,,,A*47
$GPRMC,054142.5,A,3336.025194,N,11740.935023,W,65.6,115.6,080810,,,A*4B
$GPRMC,054145.5,A,3336.001207,N,11740.876765,W,65.5,115.3,080810,,,A*46
$GPRMC,054148.5,A,3335.978954,N,11740.817351,W,65.5,114.5,080810,,,A*41
$GPRMC,054151.5,A,3335.954430,N,11740.757318,W,66.0,114.8,080810,,,A*45
$GPRMC,054154.5,A,3335.930856,N,11740.698750,W,65.8,115.4,080810,,,A*42
$GPRMC,054157.5,A,3335.905176,N,11740.640789,W,65.3,120.3,080810,,,A*47
$GPRMC,054200.5,A,3335.875530,N,11740.587164,W,64.5,126.5,080810,,,A*4C
$GPRMC,054203.5,A,3335.839628,N,11740.538564,W,65.4,133.2,080810,,,A*4E
$GPRMC,054206.5,A,3335.800161,N,11740.494155,W,65.1,137.4,080810,,,A*4D
$GPRMC,054209.5,A,3335.759019,N,11740.452061,W,65.2,139.7,080810,,,A*4D
$GPRMC,054212.5,A,3335.715153,N,11740.411582,W,66.2,142.8,080810,,,A*4F
$GPRMC,054215.5,A,3335.667641,N,11740.375496,W,66.5,148.1,080810,,,A*4D
$GPRMC,054218.5,A,3335.616503,N,11740.346273,W,67.2,154.5,080810,,,A*41
$GPRMC,054221.5,A,3335.565653,N,11740.323662,W,65.2,161.3,080810,,,A*4F
$GPRMC,054224.5,A,3335.513203,N,11740.309077,W,64.9,168.1,080810,,,A*41
$GPRMC,054227.5,A,3335.460252,N,11740.302267,W,64.6,173.7,080810,,,A*48
$GPRMC,054230.5,A,3335.405180,N,11740.300981,W,65.2,179.4,080810,,,A*4C
$GPRMC,054233.5,A,3335.351672,N,11740.302391,W,64.7,180.8,080810,,,A*44
$GPRMC,054236.5,A,3335.297188,N,11740.302260,W,64.3,180.4,080810,,,A*4F
$GPRMC,054239.5,A,3335.243638,N,11740.303283,W,64.6,180.6,080810,,,A*4E
$GPRMC,054242.5,A,3335.189357,N,11740.305110,W,65.9,181.2,080810,,,A*4F
$GPRMC,054245.5,A,3335.132553,N,11740.306623,W,66.2,180.9,080810,,,A*4C
$GPRMC,054248.5,A,3335.077517,N,11740.306950,W,66.4,180.3,080810,,,A*46
$GPRMC,054251.5,A,3335.022203,N,11740.307464,W,66.6,181.0,080810,,,A*47
$GPRMC,054254.5,A,3334.967234,N,11740.307148,W,66.6,180.4,080810,,,A*41
$GPRMC,054257.5,A,3334.912618,N,11740.307587,W,66.0,180.5,080810,,,A*4A
$GPRMC,054300.5,A,3334.857537,N,11740.308629,W,66.5,180.5,080810,,,A*4A
$GPRMC,054303.5,A,3334.802549,N,11740.310059,W,66.3,180.8,080810,,,A*43
$GPRMC,054306.5,A,3334.746169,N,11740.310763,W,66.9,180.9,080810,,,A*4A
$GPRMC,054309.5,A,3334.690379,N,11740.313031,W,67.3,180.8,080810,,,A*45
$GPRMC,054312.5,A,3334.635149,N,11740.313650,W,66.8,180.4,080810,,,A*46
$GPRMC,054315.5,A,3334.580419,N,11740.313857,W,66.3,180.3,080810,,,A*49
$GPRMC,054318.5,A,3334.525776,N,11740.313875,W,66.3,180.4,080810,,,A*46
$GPRMC,054321.5,A,3334.469181,N,11740.315592,W,67.1,181.0,080810,,,A*4F
$GPRMC,054324.5,A,3334.413746,N,11740.317284,W,67.3,181.1,080810,,,A*4B
$GPRMC,054327.5,A,3334.358674,N,11740.319185,W,67.1,180.8,080810,,,A*46
$GPRMC,054330.5,A,3334.302090,N,11740.319248,W,67.7,180.8,080810,,,A*47
$GPRMC,054333.5,A,3334.245273,N,11740.318730,W,67.9,180.7,080810,,,A*43
$GPRMC,054336.5,A,3334.189031,N,11740.319532,W,67.9,181.6,080810,,,A*40
$GPRMC,054339.5,A,3334.131797,N,11740.322923,W,69.0,182.9,080810,,,A*48
$GPRMC,054342.5,A,3334.076407,N,11740.326636,W,68.0,184.3,080810,,,A*4E
$GPRMC,054345.5,A,3334.022318,N,11740.333306,W,67.2,186.1,080810,,,A*4E
$GPRMC,054348.5,A,3333.965947,N,11740.340794,W,66.7,186.3,080810,,,A*43
$GPRMC,054351.5,A,3333.911458,N,11740.348066,W,66.0,186.2,080810,,,A*4F
$GPRMC,054354.5,A,3333.856654,N,11740.356154,W,66.2,186.0,080810,,,A*49
$GPRMC,054357.5,A,3333.801690,N,11740.364666,W,66.5,186.4,080810,,,A*44
$GPRMC,054400.5,A,3333.746628,N,11740.371317,W,66.4,185.9,080810,,,A*46
$GPRMC,054403.5,A,3333.692711,N,11740.379834,W,66.6,186.2,080810,,,A*4E
$GPRMC,054406.5,A,3333.636661,N,11740.383942,W,66.5,183.8,080810,,,A*4A
$GPRMC,054409.5,A,3333.581325,N,11740.386350,W,66.0,181.7,080810,,,A*4B
$GPRMC,054412.5,A,3333.525436,N,11740.386589,W,66.3,180.3,080810,,,A*4E
$GPRMC,054415.5,A,3333.471502,N,11740.386459,W,65.8,179.1,080810,,,A*4F
$GPRMC,054418.5,A,3333.416215,N,11740.383925,W,66.2,179.0,080810,,,A*49
$GPRMC,054421.5,A,3333.360261,N,11740.381876,W,66.4,178.6,080810,,,A*42
$GPRMC,054424.5,A,3333.304477,N,11740.380095,W,66.2,178.7,080810,,,A*47
$GPRMC,054427.5,A,3333.249202,N,11740.378739,W,66.1,178.7,080810,,,A*4D
$GPRMC,054430.5,A,3333.194091,N,11740.378265,W,64.5,179.6,080810,,,A*4A
$GPRMC,054433.5,A,3333.139883,N,11740.376513,W,66.2,179.0,080810,,,A*4E
$GPRMC,054436.5,A,3333.084097,N,11740.375127,W,66.0,179.2,080810,,,A*41
$GPRMC,054439.5,A,3333.028647,N,11740.373690,W,66.8,178.7,080810,,,A*42
$GPRMC,054442.5,A,3332.973373,N,11740.373104,W,66.5,179.6,080810,,,A*4D
$GPRMC,054445.5,A,3332.917342,N,11740.374956,W,67.0,182.3,080810,,,A*47
$GPRMC,054448.5,A,3332.861822,N,11740.378384,W,66.4,183.3,080810,,,A*4A
$GPRMC,054451.5,A,3332.803738,N,11740.383488,W,68.0,184.7,080810,,,A*44
$GPRMC,054454.5,A,3332.748538,N,11740.391462,W,67.8,186.8,080810,,,A*4E
$GPRMC,054457.5,A,3332.693166,N,11740.401314,W,67.6,188.8,080810,,,A*4D
$GPRMC,054500.5,A,3332.638119,N,11740.414202,W,67.1,190.4,080810,,,A*47
$GPRMC,054503.5,A,3332.582286,N,11740.426564,W,67.5,190.3,080810,,,A*46
$GPRMC,054506.5,A,3332.526881,N,11740.440114,W,67.4,191.0,080810,,,A*40
$GPRMC,054509.5,A,3332.470559,N,11740.451869,W,67.6,191.0,080810,,,A*44
$GPRMC,054512.5,A,3332.414117,N,11740.462991,W,68.1,190.5,080810,,,A*48
$GPRMC,054515.5,A,3332.358482,N,11740.476467,W,67.8,190.7,080810,,,A*4C
$GPRMC,054518.5,A,3332.302501,N,11740.488845,W,67.7,190.1,080810,,,A*40
$GPRMC,054521.5,A,3332.246901,N,11740.498392,W,67.7,187.4,080810,,,A*44
$GPRMC,054524.5,A,3332.188639,N,11740.503186,W,67.5,184.3,080810,,,A*46
$GPRMC,054527.5,A,3332.133060,N,11740.506422,W,66.9,182.3,080810,,,A*4A
$GPRMC,054530.5,A,3332.076946,N,11740.506533,W,66.3,179.6,080810,,,A*4B
$GPRMC,054533.5,A,3332.020581,N,11740.502223,W,66.7,177.6,080810,,,A*44
$GPRMC,054536.5,A,3331.966151,N,11740.495891,W,66.4,172.0,080810,,,A*4C
$GPRMC,054539.5,A,3331.912953,N,11740.480217,W,65.1,165.0,080810,,,A*4A
$GPRMC,054542.5,A,3331.861990,N,11740.455146,W,66.0,156.4,080810,,,A*45
$GPRMC,054545.5,A,3331.813303,N,11740.418778,W,68.6,146.9,080810,,,A*41
$GPRMC,054548.5,A,3331.767834,N,11740.376362,W,68.0,141.3,080810,,,A*44
$GPRMC,054551.5,A,3331.732382,N,11740.323054,W,68.0,131.0,080810,,,A*48
$GPRMC,054554.5,A,3331.696346,N,11740.269440,W,68.3,129.4,080810,,,A*4A
$GPRMC,054557.5,A,3331.660652,N,11740.215302,W,68.0,129.7,080810,,,A*4A
$GPRMC,054600.5,A,3331.621868,N,11740.165543,W,67.7,134.9,080810,,,A*44
$GPRMC,054603.5,A,3331.578735,N,11740.121365,W,67.0,139.9,080810,,,A*47
$GPRMC,054606.5,A,3331.532169,N,11740.085368,W,66.0,147.9,080810,,,A*49
$GPRMC,054609.5,A,3331.482100,N,11740.055514,W,67.5,154.5,080810,,,A*49
$GPRMC,054612.5,A,3331.430595,N,11740.031243,W,67.3,159.5,080810,,,A*4E
$GPRMC,054615.5,A,3331.377955,N,11740.008243,W,67.3,160.3,080810,,,A*4B
$GPRMC,054618.5,A,3331.325203,N,11739.985902,W,66.8,160.4,080810,,,A*48
$GPRMC,054621.5,A,3331.272796,N,11739.963638,W,67.0,160.6,080810,,,A*4D
$GPRMC,054624.5,A,3331.219787,N,11739.942075,W,67.2,160.5,080810,,,A*48
$GPRMC,054627.5,A,3331.166655,N,11739.919638,W,67.6,160.1,080810,,,A*4F
$GPRMC,054630.5,A,3331.112696,N,11739.897010,W,68.1,160.7,080810,,,A*40
$GPRMC,054633.5,A,3331.058666,N,11739.874977,W,68.6,160.5,080810,,,A*43
$GPRMC,054636.5,A,3331.005630,N,11739.850740,W,68.9,159.4,080810,,,A*45
$GPRMC,054639.5,A,3330.951734,N,11739.827091,W,69.6,160.4,080810,,,A*49
$GPRMC,054642.5,A,3330.897197,N,11739.803723,W,69.2,160.3,080810,,,A*4A
$GPRMC,054645.5,A,3330.842976,N,11739.781431,W,68.9,160.6,080810,,,A*48
$GPRMC,054648.5,A,3330.788973,N,11739.758485,W,68.4,160.6,080810,,,A*4F
$GPRMC,054651.5,A,3330.735381,N,11739.736205,W,68.0,160.5,080810,,,A*47
$GPRMC,054654.5,A,3330.681233,N,11739.713502,W,69.3,160.5,080810,,,A*41
$GPRMC,054657.5,A,3330.627656,N,11739.691186,W,69.1,161.0,080810,,,A*4C
$GPRMC,054700.5,A,3330.573007,N,11739.668014,W,69.9,160.1,080810,,,A*4B
$GPRMC,054703.5,A,3330.518491,N,11739.645086,W,69.9,160.8,080810,,,A*43
$GPRMC,054706.5,A,3330.462654,N,11739.621498,W,70.7,160.4,080810,,,A*42
$GPRMC,054709.5,A,3330.408166,N,11739.599687,W,69.8,160.6,080810,,,A*4E
$GPRMC,054712.5,A,3330.352741,N,11739.574557,W,69.2,160.0,080810,,,A*4E
$GPRMC,054715.5,A,3330.296685,N,11739.551203,W,70.2,162.4,080810,,,A*46
$GPRMC,054718.5,A,3330.237370,N,11739.532821,W,70.5,167.2,080810,,,A*44
$GPRMC,054721.5,A,3330.179467,N,11739.519858,W,70.2,169.5,080810,,,A*4F
$GPRMC,054724.5,A,3330.121722,N,11739.512140,W,69.8,173.1,080810,,,A*43
$GPRMC,054727.5,A,3330.064462,N,11739.508285,W,69.2,176.3,080810,,,A*4B
$GPRMC,054730.5,A,3330.005823,N,11739.506914,W,70.2,179.4,080810,,,A*4E
$GPRMC,054733.5,A,3329.951753,N,11739.511155,W,67.7,183.8,080810,,,A*44
$GPRMC,054736.5,A,3329.895562,N,11739.519581,W,68.1,187.9,080810,,,A*41
$GPRMC,054739.5,A,3329.840544,N,11739.531815,W,68.1,191.2,080810,,,A*44
$GPRMC,054742.5,A,3329.786894,N,11739.548396,W,67.5,194.4,080810,,,A*4B
$GPRMC,054745.5,A,3329.733274,N,11739.570266,W,67.5,198.9,080810,,,A*42
$GPRMC,054748.5,A,3329.681684,N,11739.594300,W,66.6,201.1,080810,,,A*4E
$GPRMC,054751.5,A,3329.631449,N,11739.621644,W,65.7,205.2,080810,,,A*43
$GPRMC,054754.5,A,3329.585516,N,11739.653701,W,64.5,209.2,080810,,,A*4B
$GPRMC,054757.5,A,3329.540126,N,11739.688394,W,64.8,212.1,080810,,,A*4C
$GPRMC,054800.5,A,3329.493000,N,11739.723101,W,65.9,212.3,080810,,,A*47
$GPRMC,054803.5,A,3329.446587,N,11739.759459,W,65.9,212.6,080810,,,A*46
$GPRMC,054806.5,A,3329.399837,N,11739.794529,W,65.4,212.3,080810,,,A*4F
$GPRMC,054809.5,A,3329.352994,N,11739.828250,W,65.5,212.1,080810,,,A*4D
$GPRMC,054812.5,A,3329.306898,N,11739.863531,W,66.5,212.5,080810,,,A*43
$GPRMC,054815.5,A,3329.258381,N,11739.898258,W,68.2,211.8,080810,,,A*46
$GPRMC,054818.5,A,3329.210178,N,11739.934808,W,67.9,212.2,080810,,,A*46
$GPRMC,054821.5,A,3329.161714,N,11739.970131,W,67.2,212.4,080810,,,A*4B
$GPRMC,054824.5,A,3329.115934,N,11740.007014,W,64.9,214.7,080810,,,A*4D
$GPRMC,054827.5,A,3329.074127,N,11740.045757,W,62.8,217.5,080810,,,A*42
$GPRMC,054830.5,A,3329.031133,N,11740.082863,W,63.8,216.1,080810,,,A*47
$GPRMC,054833.5,A,3328.987511,N,11740.120499,W,64.8,216.4,080810,,,A*47
$GPRMC,054836.5,A,3328.943109,N,11740.158556,W,64.3,215.8,080810,,,A*4E
$GPRMC,054839.5,A,3328.900386,N,11740.195374,W,63.1,216.2,080810,,,A*48
$GPRMC,054842.5,A,3328.857008,N,11740.232600,W,62.7,215.7,080810,,,A*4B
$GPRMC,054845.5,A,3328.813029,N,11740.269205,W,63.6,216.1,080810,,,A*45
$GPRMC,054848.5,A,3328.770078,N,11740.306884,W,63.3,215.4,080810,,,A*4E
$GPRMC,054851.5,A,3328.727866,N,11740.344803,W,63.4,216.7,080810,,,A*4D
$GPRMC,054854.5,A,3328.684500,N,11740.380279,W,62.1,214.4,080810,,,A*47
$GPRMC,054857.5,A,3328.640299,N,11740.414015,W,61.4,211.4,080810,,,A*4A
$GPRMC,054900.5,A,3328.596090,N,11740.442233,W,59.6,206.8,080810,,,A*4C
$GPRMC,054903.5,A,3328.550259,N,11740.463088,W,57.7,200.5,080810,,,A*47
$GPRMC,054906.5,A,3328.503340,N,11740.478357,W,57.0,195.3,080810,,,A*48
$GPRMC,054909.5,A,3328.456499,N,11740.488162,W,56.8,189.5,080810,,,A*4C
$GPRMC,054912.5,A,3328.407363,N,11740.490975,W,57.8,184.0,080810,,,A*4E
$GPRMC,054915.5,A,3328.359347,N,11740.491650,W,57.8,178.4,080810,,,A*4D
$GPRMC,054918.5,A,3328.311603,N,11740.485152,W,56.8,173.3,080810,,,A*44
$GPRMC,054921.5,A,3328.265047,N,11740.474488,W,56.8,166.8,080810,,,A*49
$GPRMC,054924.5,A,3328.219812,N,11740.457544,W,55.9,159.7,080810,,,A*4E
$GPRMC,054927.5,A,3328.177497,N,11740.433535,W,56.0,152.5,080810,,,A*40
$GPRMC,054930.5,A,3328.138867,N,11740.402479,W,55.5,144.0,080810,,,A*41
$GPRMC,054933.5,A,3328.105001,N,11740.364901,W,56.1,136.6,080810,,,A*45
$GPRMC,054936.5,A,3328.072490,N,11740.319682,W,58.0,129.8,080810,,,A*4C
$GPRMC,054939.5,A,3328.051211,N,11740.268058,W,57.9,116.9,080810,,,A*40
$GPRMC,054942.5,A,3328.029139,N,11740.215673,W,58.4,117.2,080810,,,A*47
$GPRMC,054945.5,A,3328.005560,N,11740.163301,W,59.0,119.9,080810,,,A*44
$GPRMC,054948.5,A,3327.979883,N,11740.113574,W,57.8,124.2,080810,,,A*44
$GPRMC,054951.5,A,3327.950381,N,11740.067893,W,58.0,128.4,080810,,,A*45
$GPRMC,054954.5,A,3327.918975,N,11740.022348,W,58.4,129.6,080810,,,A*46
$GPRMC,054957.5,A,3327.889461,N,11739.978459,W,56.6,129.0,080810,,,A*41
$GPRMC,055000.5,A,3327.859192,N,11739.934458,W,57.7,129.4,080810,,,A*42
$GPRMC,055003.5,A,3327.827377,N,11739.887950,W,59.9,128.8,080810,,,A*40
$GPRMC,055006.5,A,3327.796003,N,11739.839112,W,61.6,128.9,080810,,,A*4E
$GPRMC,055009.5,A,3327.762606,N,11739.791293,W,62.3,129.8,080810,,,A*48
$GPRMC,055012.5,A,3327.729431,N,11739.743995,W,62.1,129.5,080810,,,A*46
$GPRMC,055015.5,A,3327.696825,N,11739.697027,W,61.5,129.1,080810,,,A*46
$GPRMC,055018.5,A,3327.664427,N,11739.649606,W,61.9,126.8,080810,,,A*44
$GPRMC,055021.5,A,3327.638106,N,11739.598011,W,61.0,119.2,080810,,,A*41
$GPRMC,055024.5,A,3327.615401,N,11739.543416,W,61.0,116.5,080810,,,A*44
$GPRMC,055027.5,A,3327.592289,N,11739.486716,W,61.5,116.4,080810,,,A*42
$GPRMC,055030.5,A,3327.567278,N,11739.432759,W,62.0,120.0,080810,,,A*43
$GPRMC,055033.5,A,3327.538566,N,11739.379581,W,63.4,123.0,080810,,,A*4B
$GPRMC,055036.5,A,3327.508408,N,11739.327653,W,63.9,124.7,080810,,,A*4E
$GPRMC,055039.5,A,3327.476387,N,11739.276297,W,64.0,126.3,080810,,,A*48
$GPRMC,055042.5,A,3327.444149,N,11739.225811,W,64.1,126.9,080810,,,A*4C
$GPRMC,055045.5,A,3327.413595,N,11739.174393,W,63.7,124.3,080810,,,A*43
$GPRMC,055048.5,A,3327.384882,N,11739.118739,W,64.9,121.3,080810,,,A*4E
$GPRMC,055051.5,A,3327.358068,N,11739.062454,W,65.4,119.2,080810,,,A*49
$GPRMC,055054.5,A,3327.333767,N,11739.004913,W,65.4,116.9,080810,,,A*43
$GPRMC,055057.5,A,3327.307465,N,11738.946235,W,66.4,117.7,080810,,,A*4B
$GPRMC,055100.5,A,3327.281188,N,11738.888017,W,66.4,117.2,080810,,,A*45
$GPRMC,055103.5,A,3327.255939,N,11738.829210,W,66.3,117.1,080810,,,A*47
$GPRMC,055106.5,A,3327.230525,N,11738.769723,W,66.9,116.9,080810,,,A*4D
$GPRMC,055109.5,A,3327.204983,N,11738.710313,W,67.2,118.0,080810,,,A*41
$GPRMC,055112.5,A,3327.176866,N,11738.652355,W,67.0,120.1,080810,,,A*4A
$GPRMC,055115.5,A,3327.146270,N,11738.596458,W,67.0,123.1,080810,,,A*41
$GPRMC,055118.5,A,3327.114084,N,11738.543093,W,66.0,125.7,080810,,,A*48
$GPRMC,055121.5,A,3327.081558,N,11738.492037,W,65.3,127.7,080810,,,A*4A
$GPRMC,055124.5,A,3327.046808,N,11738.441935,W,65.0,129.7,080810,,,A*44
$GPRMC,055127.5,A,3327.010694,N,11738.392612,W,65.2,130.3,080810,,,A*42
$GPRMC,055130.5,A,3326.976508,N,11738.343874,W,64.9,130.1,080810,,,A*40
$GPRMC,055133.5,A,3326.942155,N,11738.295111,W,65.5,129.5,080810,,,A*49
$GPRMC,055136.5,A,3326.908311,N,11738.243017,W,66.2,126.8,080810,,,A*4A
$GPRMC,055139.5,A,3326.878325,N,11738.187296,W,66.5,122.4,080810,,,A*4B
$GPRMC,055142.5,A,3326.849309,N,11738.131254,W,66.5,121.6,080810,,,A*49
$GPRMC,055145.5,A,3326.820680,N,11738.074351,W,66.4,121.5,080810,,,A*43
$GPRMC,055148.5,A,3326.791614,N,11738.017217,W,66.7,120.9,080810,,,A*4E
$GPRMC,055151.5,A,3326.762675,N,11737.960447,W,66.5,122.0,080810,,,A*41
$GPRMC,055154.5,A,3326.729246,N,11737.907841,W,65.8,126.8,080810,,,A*46
$GPRMC,055157.5,A,3326.694174,N,11737.858609,W,64.9,131.7,080810,,,A*40
$GPRMC,055200.5,A,3326.657096,N,11737.813677,W,64.5,133.9,080810,,,A*45
$GPRMC,055203.5,A,3326.615843,N,11737.769768,W,64.5,135.8,080810,,,A*4A
$GPRMC,055206.5,A,3326.576694,N,11737.723435,W,64.9,136.0,080810,,,A*4F
$GPRMC,055209.5,A,3326.537275,N,11737.679116,W,64.9,135.4,080810,,,A*43
$GPRMC,055212.5,A,3326.500666,N,11737.631817,W,65.4,134.8,080810,,,A*4E
$GPRMC,055215.5,A,3326.462986,N,11737.584796,W,66.0,132.4,080810,,,A*4B
$GPRMC,055218.5,A,3326.428839,N,11737.533427,W,66.1,127.2,080810,,,A*4B
$GPRMC,055221.5,A,3326.396245,N,11737.479180,W,66.1,124.1,080810,,,A*45
$GPRMC,055224.5,A,3326.366010,N,11737.425437,W,66.2,123.4,080810,,,A*4C
$GPRMC,055227.5,A,3326.335584,N,11737.369051,W,66.1,123.4,080810,,,A*49
$GPRMC,055230.5,A,3326.305336,N,11737.315488,W,65.1,124.8,080810,,,A*40
$GPRMC,055233.5,A,3326.274950,N,11737.261829,W,64.5,124.1,080810,,,A*47
$GPRMC,055236.5,A,3326.244700,N,11737.208854,W,63.3,125.5,080810,,,A*4B
$GPRMC,055239.5,A,3326.211047,N,11737.161201,W,62.7,131.4,080810,,,A*47
$GPRMC,055242.5,A,3326.174824,N,11737.120535,W,59.5,136.2,080810,,,A*48
$GPRMC,055245.5,A,3326.134923,N,11737.086233,W,57.2,143.3,080810,,,A*4B
$GPRMC,055248.5,A,3326.095921,N,11737.058576,W,53.6,148.2,080810,,,A*41
$GPRMC,055251.5,A,3326.056028,N,11737.035973,W,49.4,151.0,080810,,,A*47
$GPRMC,055254.5,A,3326.022164,N,11737.013568,W,45.3,150.8,080810,,,A*48
$GPRMC,055257.5,A,3325.995157,N,11736.997109,W,38.7,155.1,080810,,,A*48
$GPRMC,055300.5,A,3325.971313,N,11736.983810,W,33.5,156.3,080810,,,A*4F
$GPRMC,055303.5,A,3325.949128,N,11736.971152,W,30.2,153.4,080810,,,A*49
$GPRMC,055306.5,A,3325.928113,N,11736.957204,W,29.9,151.7,080810,,,A*45
$GPRMC,055309.5,A,3325.904767,N,11736.942660,W,32.3,152.1,080810,,,A*46
$GPRMC,055312.5,A,3325.882204,N,11736.927860,W,30.2,148.4,080810,,,A*43
$GPRMC,055315.5,A,3325.863755,N,11736.912829,W,23.8,144.2,080810,,,A*43
$GPRMC,055318.5,A,3325.853213,N,11736.902446,W,17.1,143.7,080810,,,A*42
$GPRMC,055321.5,A,3325.843760,N,11736.896674,W,11.7,168.3,080810,,,A*4A
$GPRMC,055324.5,A,3325.832187,N,11736.901134,W,14.6,203.1,080810,,,A*42
$GPRMC,055327.5,A,3325.820791,N,11736.914289,W,17.1,220.5,080810,,,A*43
$GPRMC,055330.5,A,3325.809312,N,11736.923766,W,14.2,206.9,080810,,,A*49
$GPRMC,055333.5,A,3325.800265,N,11736.927499,W,10.7,191.1,080810,,,A*41
$GPRMC,055412.5,A,3325.784597,N,11736.930392,W,13.6,186.5,080810,,,A*46
$GPRMC,055415.5,A,3325.769773,N,11736.933651,W,17.8,191.2,080810,,,A*48
$GPRMC,055418.5,A,3325.753350,N,11736.938655,W,18.7,196.7,080810,,,A*44
$GPRMC,055421.5,A,3325.740340,N,11736.949616,W,17.8,217.8,080810,,,A*49
$GPRMC,055424.5,A,3325.730339,N,11736.964904,W,19.3,229.8,080810,,,A*4E
$GPRMC,055427.5,A,3325.720445,N,11736.983630,W,22.5,232.7,080810,,,A*4A
$GPRMC,055430.5,A,3325.708029,N,11737.001258,W,21.4,231.4,080810,,,A*42
$GPRMC,055433.5,A,3325.699476,N,11737.013353,W,13.7,232.7,080810,,,A*4D
$GPRMC,055436.5,A,3325.695607,N,11737.018790,W,8.7,227.7,080810,,,A*7E
$GPRMC,055439.5,A,3325.688234,N,11737.029793,W,16.8,232.1,080810,,,A*4A
$GPRMC,055442.5,A,3325.676158,N,11737.048446,W,25.2,231.7,080810,,,A*4D
$GPRMC,055445.5,A,3325.661950,N,11737.068714,W,26.5,231.3,080810,,,A*4A
$GPRMC,055448.5,A,3325.648734,N,11737.085230,W,22.2,226.6,080810,,,A*40
$GPRMC,055451.5,A,3325.636966,N,11737.094641,W,16.0,209.0,080810,,,A*44
$GPRMC,055454.5,A,3325.622608,N,11737.103110,W,18.4,207.2,080810,,,A*49
$GPRMC,055457.5,A,3325.605336,N,11737.110536,W,21.2,200.2,080810,,,A*4E
$GPRMC,055500.5,A,3325.591191,N,11737.112078,W,15.1,181.7,080810,,,A*4A
$GPRMC,055503.5,A,3325.584695,N,11737.110542,W,8.2,171.4,080810,,,A*73
$GPRMC,055506.5,A,3325.574095,N,11737.108235,W,14.7,166.4,080810,,,A*4F
$GPRMC,055509.5,A,3325.556534,N,11737.105840,W,21.7,175.9,080810,,,A*42
$GPRMC,055512.5,A,3325.535765,N,11737.107434,W,24.5,186.0,080810,,,A*44
$GPRMC,055515.5,A,3325.517889,N,11737.109798,W,21.0,187.5,080810,,,A*41
$GPRMC,055518.5,A,3325.500892,N,11737.115644,W,22.0,200.7,080810,,,A*40
$GPRMC,055521.5,A,3325.484316,N,11737.126044,W,20.1,211.0,080810,,,A*42
$GPRMC,055524.5,A,3325.476401,N,11737.132957,W,8.1,213.1,080810,,,A*7C
$GPRMC,055527.5,A,3325.473512,N,11737.140326,W,10.4,246.1,080810,,,A*4C
$GPRMC,055530.5,A,3325.473046,N,11737.153870,W,15.4,270.6,080810,,,A*43
