NMEA Sentence Code,UTC Time,Status,Latitude,Latitude Direction,Longitude,Longitude Direction,Speed (knots),Track Angle (degrees true),Date,MagneticVariation,Magnetic Variation Direction,[FAA Mode]-Optional,Checksum
$GPRMC,205000.1,A,3334.844457,N,11743.581590,W,7.6,167.4,010410,,,A*72
$GPRMC,205003.1,A,3334.830886,N,11743.571265,W,13.8,149.7,010410,,,A*44
$GPRMC,205006.1,A,3334.805739,N,11743.558285,W,24.0,161.5,010410,,,A*4D
$GPRMC,205009.1,A,3334.777084,N,11743.555345,W,27.2,178.6,010410,,,A*43
$GPRMC,205012.1,A,3334.749620,N,11743.559222,W,28.5,191.9,010410,,,A*40
$GPRMC,205015.1,A,3334.722048,N,11743.563964,W,31.3,183.5,010410,,,A*43
$GPRMC,205018.1,A,3334.695528,N,11743.560844,W,30.9,169.3,010410,,,A*49
$GPRMC,205021.1,A,3334.669752,N,11743.550911,W,31.3,157.2,010410,,,A*4A
$GPRMC,205024.1,A,3334.649621,N,11743.532810,W,31.0,142.5,010410,,,A*4C
$GPRMC,205027.1,A,3334.629199,N,11743.508009,W,31.7,133.1,010410,,,A*41
$GPRMC,205030.1,A,3334.614635,N,11743.482142,W,30.7,126.4,010410,,,A*45
$GPRMC,205033.1,A,3334.602803,N,11743.459363,W,25.4,120.3,010410,,,A*4B
$GPRMC,205036.1,A,3334.597502,N,11743.439085,W,20.8,113.7,010410,,,A*4D
$GPRMC,205039.1,A,3334.595772,N,11743.426711,W,11.2,103.5,010410,,,A*4A
$GPRMC,205130.1,A,3334.596444,N,11743.401979,W,7.4,85.9,010410,,,A*40
$GPRMC,205133.1,A,3334.600747,N,11743.395222,W,7.4,54.7,010410,,,A*42
$GPRMC,205136.1,A,3334.609354,N,11743.389891,W,8.9,41.8,010410,,,A*4E
$GPRMC,205139.1,A,3334.623932,N,11743.383405,W,13.8,30.8,010410,,,A*75
$GPRMC,205142.1,A,3334.651783,N,11743.376076,W,27.0,20.2,010410,,,A*76
$GPRMC,205145.1,A,3334.678860,N,11743.366380,W,30.8,21.4,010410,,,A*7A
$GPRMC,205148.1,A,3334.710344,N,11743.352030,W,34.7,25.5,010410,,,A*74
$GPRMC,205151.1,A,3334.733046,N,11743.335019,W,33.3,29.3,010410,,,A*7F
$GPRMC,205154.1,A,3334.756137,N,11743.317649,W,32.9,33.9,010410,,,A*77
$GPRMC,205157.1,A,3334.779889,N,11743.296487,W,34.9,36.5,010410,,,A*72
$GPRMC,205200.1,A,3334.802828,N,11743.275069,W,34.0,38.4,010410,,,A*74
$GPRMC,205203.1,A,3334.823987,N,11743.254749,W,32.4,39.4,010410,,,A*75
$GPRMC,205206.1,A,3334.843009,N,11743.235063,W,29.1,38.3,010410,,,A*78
$GPRMC,205209.1,A,3334.863927,N,11743.217697,W,30.2,33.7,010410,,,A*79
$GPRMC,205212.1,A,3334.888903,N,11743.200831,W,34.3,29.9,010410,,,A*74
$GPRMC,205215.1,A,3334.916058,N,11743.185430,W,34.9,23.2,010410,,,A*7A
$GPRMC,205218.1,A,3334.946100,N,11743.175716,W,35.2,16.2,010410,,,A*7A
$GPRMC,205221.1,A,3334.973901,N,11743.167800,W,34.4,11.3,010410,,,A*75
$GPRMC,205224.1,A,3335.004471,N,11743.163863,W,34.3,4.8,010410,,,A*4B
$GPRMC,205227.1,A,3335.032182,N,11743.162623,W,34.0,359.6,010410,,,A*49
$GPRMC,205230.1,A,3335.060528,N,11743.162344,W,34.3,360.0,010410,,,A*47
$GPRMC,205233.1,A,3335.091792,N,11743.162944,W,36.0,0.1,010410,,,A*46
$GPRMC,205236.1,A,3335.118504,N,11743.164009,W,33.6,358.8,010410,,,A*4C
$GPRMC,205239.1,A,3335.147355,N,11743.167923,W,33.7,353.6,010410,,,A*4D
$GPRMC,205242.1,A,3335.173987,N,11743.173135,W,31.9,350.3,010410,,,A*43
$GPRMC,205245.1,A,3335.194701,N,11743.179336,W,26.6,347.9,010410,,,A*43
$GPRMC,205248.1,A,3335.211979,N,11743.185452,W,23.4,345.0,010410,,,A*4B
$GPRMC,205251.1,A,3335.219588,N,11743.189172,W,11.5,349.9,010410,,,A*47
$GPRMC,205254.1,A,3335.225434,N,11743.186264,W,9.5,31.2,010410,,,A*4E
$GPRMC,205257.1,A,3335.231110,N,11743.172098,W,17.3,75.7,010410,,,A*7D
$GPRMC,205300.1,A,3335.236213,N,11743.150148,W,24.7,80.5,010410,,,A*79
$GPRMC,205303.1,A,3335.240269,N,11743.121676,W,30.6,81.3,010410,,,A*79
$GPRMC,205306.1,A,3335.242422,N,11743.089872,W,31.8,82.9,010410,,,A*78
$GPRMC,205309.1,A,3335.248353,N,11743.057089,W,33.6,79.0,010410,,,A*72
$GPRMC,205312.1,A,3335.262477,N,11743.021398,W,34.8,70.2,010410,,,A*71
$GPRMC,205315.1,A,3335.276912,N,11742.988965,W,33.8,63.6,010410,,,A*7F
$GPRMC,205318.1,A,3335.294862,N,11742.958720,W,35.4,56.9,010410,,,A*79
$GPRMC,205321.1,A,3335.319379,N,11742.929445,W,37.7,46.2,010410,,,A*7B
$GPRMC,205324.1,A,3335.345536,N,11742.905512,W,38.9,38.1,010410,,,A*7C
$GPRMC,205327.1,A,3335.375574,N,11742.885774,W,39.9,30.5,010410,,,A*7C
$GPRMC,205330.1,A,3335.405148,N,11742.866039,W,41.0,29.9,010410,,,A*70
$GPRMC,205333.1,A,3335.434348,N,11742.844753,W,41.1,32.0,010410,,,A*7A
$GPRMC,205336.1,A,3335.458560,N,11742.823994,W,34.9,36.5,010410,,,A*76
$GPRMC,205339.1,A,3335.472618,N,11742.807301,W,25.2,42.6,010410,,,A*76
$GPRMC,205342.1,A,3335.484693,N,11742.795716,W,18.8,34.1,010410,,,A*74
$GPRMC,205439.1,A,3335.482429,N,11742.787500,W,5.6,74.6,010410,,,A*4D
$GPRMC,205442.1,A,3335.489934,N,11742.780918,W,7.2,45.8,010410,,,A*43
$GPRMC,205445.1,A,3335.501455,N,11742.778662,W,8.3,21.3,010410,,,A*4D
$GPRMC,205448.1,A,3335.518814,N,11742.782850,W,12.7,359.5,010410,,,A*4E
$GPRMC,205451.1,A,3335.541750,N,11742.794247,W,19.6,344.6,010410,,,A*4B
$GPRMC,205454.1,A,3335.579468,N,11742.822320,W,35.6,332.1,010410,,,A*47
$GPRMC,205457.1,A,3335.617412,N,11742.848282,W,39.7,332.6,010410,,,A*4D
$GPRMC,205500.1,A,3335.650645,N,11742.868346,W,41.6,332.6,010410,,,A*48
$GPRMC,205503.1,A,3335.682218,N,11742.889438,W,40.5,332.2,010410,,,A*4F
$GPRMC,205506.1,A,3335.707849,N,11742.912232,W,35.3,331.8,010410,,,A*4A
$GPRMC,205509.1,A,3335.729332,N,11742.926143,W,28.2,333.9,010410,,,A*42
$GPRMC,205512.1,A,3335.743955,N,11742.940544,W,22.8,320.1,010410,,,A*46
$GPRMC,205515.1,A,3335.750092,N,11742.949289,W,15.3,311.3,010410,,,A*41
$GPRMC,205518.1,A,3335.757387,N,11742.947919,W,12.3,337.9,010410,,,A*49
$GPRMC,205521.1,A,3335.771529,N,11742.954235,W,19.7,337.4,010410,,,A*40
$GPRMC,205524.1,A,3335.792617,N,11742.959723,W,27.4,341.7,010410,,,A*45
$GPRMC,205527.1,A,3335.821343,N,11742.962990,W,32.5,348.8,010410,,,A*48
$GPRMC,205530.1,A,3335.851786,N,11742.967740,W,36.3,350.5,010410,,,A*44
$GPRMC,205533.1,A,3335.882205,N,11742.973037,W,38.1,350.7,010410,,,A*4B
$GPRMC,205536.1,A,3335.917613,N,11742.976932,W,41.4,352.3,010410,,,A*44
$GPRMC,205539.1,A,3335.952708,N,11742.984051,W,42.9,351.8,010410,,,A*46
$GPRMC,205542.1,A,3335.989709,N,11742.989866,W,43.9,352.5,010410,,,A*43
$GPRMC,205545.1,A,3336.027278,N,11742.995199,W,43.6,351.4,010410,,,A*40
$GPRMC,205548.1,A,3336.061923,N,11743.007739,W,43.5,342.9,010410,,,A*49
$GPRMC,205551.1,A,3336.093211,N,11743.025997,W,43.1,334.0,010410,,,A*40
$GPRMC,205554.1,A,3336.123030,N,11743.053269,W,45.9,323.1,010410,,,A*4C
$GPRMC,205557.1,A,3336.149655,N,11743.085302,W,45.4,318.0,010410,,,A*45
$GPRMC,205600.1,A,3336.171504,N,11743.111796,W,36.9,318.9,010410,,,A*4D
$GPRMC,205603.1,A,3336.190786,N,11743.128165,W,23.3,325.8,010410,,,A*48
$GPRMC,205606.1,A,3336.201293,N,11743.139293,W,16.0,326.2,010410,,,A*41
$GPRMC,205609.1,A,3336.209510,N,11743.146143,W,12.8,326.6,010410,,,A*44
$GPRMC,205612.1,A,3336.222551,N,11743.154435,W,18.4,328.4,010410,,,A*4F
$GPRMC,205615.1,A,3336.239684,N,11743.164631,W,24.2,331.1,010410,,,A*48
$GPRMC,205618.1,A,3336.261388,N,11743.175656,W,28.9,336.3,010410,,,A*42
$GPRMC,205621.1,A,3336.288441,N,11743.189178,W,35.4,337.3,010410,,,A*45
$GPRMC,205624.1,A,3336.317264,N,11743.204316,W,37.0,336.8,010410,,,A*46
$GPRMC,205627.1,A,3336.344159,N,11743.221822,W,37.3,329.9,010410,,,A*49
$GPRMC,205630.1,A,3336.370220,N,11743.245540,W,38.7,323.1,010410,,,A*47
$GPRMC,205633.1,A,3336.393453,N,11743.272542,W,39.2,315.5,010410,,,A*48
$GPRMC,205636.1,A,3336.416305,N,11743.300271,W,39.5,312.3,010410,,,A*46
$GPRMC,205639.1,A,3336.439065,N,11743.330521,W,39.8,311.1,010410,,,A*4C
$GPRMC,205642.1,A,3336.461146,N,11743.359971,W,38.5,311.1,010410,,,A*47
$GPRMC,205645.1,A,3336.477741,N,11743.389590,W,35.9,308.3,010410,,,A*43
$GPRMC,205648.1,A,3336.494730,N,11743.416229,W,32.6,311.0,010410,,,A*42
$GPRMC,205651.1,A,3336.514752,N,11743.437618,W,29.8,318.3,010410,,,A*4C
$GPRMC,205654.1,A,3336.532643,N,11743.455325,W,27.4,322.7,010410,,,A*4C
$GPRMC,205657.1,A,3336.550766,N,11743.469314,W,25.8,329.2,010410,,,A*40
$GPRMC,205700.1,A,3336.567079,N,11743.482989,W,24.9,327.4,010410,,,A*4D
$GPRMC,205703.1,A,3336.584553,N,11743.495474,W,23.1,329.0,010410,,,A*42
$GPRMC,205706.1,A,3336.596011,N,11743.503148,W,14.5,333.8,010410,,,A*40
$GPRMC,205709.1,A,3336.597952,N,11743.504976,W,4.6,355.5,010410,,,A*7D
$GPRMC,205854.1,A,3336.602423,N,11743.506926,W,5.5,311.3,010410,,,A*7D
$GPRMC,205857.1,A,3336.607757,N,11743.517568,W,10.5,299.2,010410,,,A*49
$GPRMC,205900.1,A,3336.608027,N,11743.532099,W,12.6,272.2,010410,,,A*4D
$GPRMC,205903.1,A,3336.596653,N,11743.555281,W,21.8,244.2,010410,,,A*4E
$GPRMC,205906.1,A,3336.582337,N,11743.579629,W,25.8,243.3,010410,,,A*43
$GPRMC,205909.1,A,3336.575036,N,11743.607431,W,29.7,252.8,010410,,,A*4F
$GPRMC,205912.1,A,3336.566867,N,11743.638529,W,30.9,258.2,010410,,,A*49
$GPRMC,205915.1,A,3336.563004,N,11743.671197,W,32.8,265.0,010410,,,A*45
$GPRMC,205918.1,A,3336.561538,N,11743.703315,W,31.3,267.2,010410,,,A*44
$GPRMC,205921.1,A,3336.560361,N,11743.729531,W,22.0,264.0,010410,,,A*4D
$GPRMC,205924.1,A,3336.559574,N,11743.742338,W,10.9,262.9,010410,,,A*45
$GPRMC,205927.1,A,3336.559297,N,11743.746916,W,5.5,257.8,010410,,,A*71
$GPRMC,205930.1,A,3336.559519,N,11743.757409,W,13.5,271.0,010410,,,A*4E
$GPRMC,205933.1,A,3336.558949,N,11743.775358,W,18.4,268.6,010410,,,A*42
$GPRMC,205936.1,A,3336.557469,N,11743.796715,W,20.6,267.7,010410,,,A*40
$GPRMC,205939.1,A,3336.554639,N,11743.819998,W,24.6,267.3,010410,,,A*48
$GPRMC,205942.1,A,3336.555356,N,11743.844943,W,24.3,270.2,010410,,,A*45
$GPRMC,205945.1,A,3336.555002,N,11743.867223,W,19.6,267.5,010410,,,A*46
$GPRMC,205948.1,A,3336.554495,N,11743.882660,W,15.8,268.5,010410,,,A*45
$GPRMC,205951.1,A,3336.553961,N,11743.899463,W,18.4,268.4,010410,,,A*47
$GPRMC,205954.1,A,3336.552790,N,11743.921009,W,23.7,268.4,010410,,,A*42
$GPRMC,205957.1,A,3336.552812,N,11743.950119,W,29.7,268.0,010410,,,A*4C
$GPRMC,210000.1,A,3336.548998,N,11743.982278,W,32.6,265.5,010410,,,A*43
$GPRMC,210003.1,A,3336.544331,N,11744.015556,W,32.7,264.5,010410,,,A*4E
$GPRMC,210006.1,A,3336.541385,N,11744.050433,W,34.5,265.1,010410,,,A*43
$GPRMC,210009.1,A,3336.538602,N,11744.084221,W,36.0,264.3,010410,,,A*40
$GPRMC,210012.1,A,3336.531568,N,11744.121388,W,37.8,258.9,010410,,,A*4C
$GPRMC,210015.1,A,3336.524760,N,11744.158976,W,37.7,254.2,010410,,,A*48
$GPRMC,210018.1,A,3336.511307,N,11744.194351,W,38.0,247.6,010410,,,A*47
$GPRMC,210021.1,A,3336.496820,N,11744.227641,W,37.4,245.3,010410,,,A*4E
$GPRMC,210024.1,A,3336.483147,N,11744.261254,W,37.5,245.0,010410,,,A*47
$GPRMC,210027.1,A,3336.471204,N,11744.294836,W,37.6,245.3,010410,,,A*49
$GPRMC,210030.1,A,3336.457413,N,11744.328964,W,38.3,245.3,010410,,,A*41
$GPRMC,210033.1,A,3336.443971,N,11744.363136,W,37.7,243.2,010410,,,A*42
$GPRMC,210036.1,A,3336.426575,N,11744.396685,W,39.1,235.5,010410,,,A*47
$GPRMC,210039.1,A,3336.404046,N,11744.425539,W,38.4,225.8,010410,,,A*4E
$GPRMC,210042.1,A,3336.377781,N,11744.448913,W,38.3,217.9,010410,,,A*45
$GPRMC,210045.1,A,3336.349337,N,11744.467957,W,38.5,207.0,010410,,,A*45
$GPRMC,210048.1,A,3336.319332,N,11744.483166,W,38.7,204.4,010410,,,A*4D
$GPRMC,210051.1,A,3336.289623,N,11744.499239,W,38.2,205.0,010410,,,A*4A
$GPRMC,210054.1,A,3336.261813,N,11744.517296,W,38.6,208.4,010410,,,A*4B
$GPRMC,210057.1,A,3336.232658,N,11744.538178,W,39.2,212.2,010410,,,A*49
$GPRMC,210100.1,A,3336.206505,N,11744.559048,W,38.2,213.2,010410,,,A*43
$GPRMC,210103.1,A,3336.181272,N,11744.579884,W,37.1,214.5,010410,,,A*4D
$GPRMC,210106.1,A,3336.156219,N,11744.601244,W,36.6,217.2,010410,,,A*47
$GPRMC,210109.1,A,3336.134454,N,11744.626926,W,36.4,224.1,010410,,,A*48
$GPRMC,210112.1,A,3336.117766,N,11744.651486,W,33.5,230.1,010410,,,A*47
$GPRMC,210115.1,A,3336.101177,N,11744.677783,W,33.0,232.0,010410,,,A*45
$GPRMC,210118.1,A,3336.084917,N,11744.702832,W,32.5,231.4,010410,,,A*4F
$GPRMC,210121.1,A,3336.065247,N,11744.728324,W,34.7,226.2,010410,,,A*44
$GPRMC,210124.1,A,3336.044799,N,11744.752961,W,34.9,221.9,010410,,,A*40
$GPRMC,210127.1,A,3336.022770,N,11744.775097,W,33.0,219.7,010410,,,A*4A
$GPRMC,210130.1,A,3336.004738,N,11744.794183,W,29.2,221.0,010410,,,A*4A
$GPRMC,210133.1,A,3335.986771,N,11744.812069,W,28.6,219.9,010410,,,A*47
$GPRMC,210136.1,A,3335.966958,N,11744.831164,W,29.8,218.6,010410,,,A*45
$GPRMC,210139.1,A,3335.945074,N,11744.849855,W,32.8,217.4,010410,,,A*4F
$GPRMC,210142.1,A,3335.923550,N,11744.866586,W,32.2,213.6,010410,,,A*42
$GPRMC,210145.1,A,3335.897596,N,11744.882071,W,33.2,206.4,010410,,,A*41
$GPRMC,210148.1,A,3335.873006,N,11744.893642,W,33.2,200.4,010410,,,A*4A
$GPRMC,210151.1,A,3335.846550,N,11744.902366,W,33.2,195.4,010410,,,A*47
$GPRMC,210154.1,A,3335.818587,N,11744.909987,W,33.3,193.3,010410,,,A*4D
$GPRMC,210157.1,A,3335.792099,N,11744.916231,W,32.4,192.5,010410,,,A*40
$GPRMC,210200.1,A,3335.766173,N,11744.923638,W,32.1,193.8,010410,,,A*4D
$GPRMC,210203.1,A,3335.742292,N,11744.931668,W,31.6,195.2,010410,,,A*4A
$GPRMC,210206.1,A,3335.716297,N,11744.941649,W,32.5,198.1,010410,,,A*41
$GPRMC,210209.1,A,3335.691588,N,11744.952091,W,32.8,201.9,010410,,,A*4E
$GPRMC,210212.1,A,3335.670265,N,11744.963303,W,26.7,202.0,010410,,,A*45
$GPRMC,210215.1,A,3335.657047,N,11744.970574,W,18.8,201.1,010410,,,A*41
$GPRMC,210218.1,A,3335.647475,N,11744.975186,W,14.2,200.9,010410,,,A*4B
$GPRMC,210221.1,A,3335.634944,N,11744.981562,W,16.6,203.3,010410,,,A*40
$GPRMC,210224.1,A,3335.619061,N,11744.989407,W,21.6,203.2,010410,,,A*4B
$GPRMC,210227.1,A,3335.598770,N,11745.000038,W,25.8,203.4,010410,,,A*48
$GPRMC,210230.1,A,3335.576270,N,11745.010546,W,28.6,202.8,010410,,,A*48
$GPRMC,210233.1,A,3335.553708,N,11745.023063,W,27.8,203.8,010410,,,A*44
$GPRMC,210236.1,A,3335.534197,N,11745.035022,W,26.6,206.3,010410,,,A*43
$GPRMC,210239.1,A,3335.517885,N,11745.047342,W,22.8,211.9,010410,,,A*41
$GPRMC,210242.1,A,3335.501131,N,11745.060076,W,25.9,213.7,010410,,,A*47
$GPRMC,210245.1,A,3335.480803,N,11745.078868,W,31.7,221.5,010410,,,A*46
$GPRMC,210248.1,A,3335.460572,N,11745.103951,W,34.8,228.5,010410,,,A*4B
$GPRMC,210251.1,A,3335.442550,N,11745.131162,W,34.7,231.7,010410,,,A*4F
$GPRMC,210254.1,A,3335.424563,N,11745.158358,W,32.6,232.7,010410,,,A*4A
$GPRMC,210257.1,A,3335.406653,N,11745.182530,W,32.0,224.6,010410,,,A*46
$GPRMC,210300.1,A,3335.383741,N,11745.202919,W,33.5,215.2,010410,,,A*43
$GPRMC,210303.1,A,3335.358350,N,11745.219621,W,33.9,207.9,010410,,,A*48
$GPRMC,210306.1,A,3335.331628,N,11745.235029,W,34.2,206.4,010410,,,A*48
$GPRMC,210309.1,A,3335.305877,N,11745.249929,W,33.6,207.0,010410,,,A*40
$GPRMC,210312.1,A,3335.282830,N,11745.266453,W,32.3,209.6,010410,,,A*46
$GPRMC,210315.1,A,3335.260923,N,11745.285382,W,32.4,216.4,010410,,,A*43
$GPRMC,210318.1,A,3335.240786,N,11745.307364,W,32.8,222.6,010410,,,A*47
$GPRMC,210321.1,A,3335.220958,N,11745.329927,W,33.3,224.5,010410,,,A*48
$GPRMC,210324.1,A,3335.202077,N,11745.353331,W,33.8,225.1,010410,,,A*47
$GPRMC,210327.1,A,3335.182705,N,11745.378356,W,34.5,226.0,010410,,,A*4D
$GPRMC,210330.1,A,3335.161981,N,11745.403431,W,35.5,225.6,010410,,,A*4D
$GPRMC,210333.1,A,3335.141751,N,11745.429129,W,35.0,227.6,010410,,,A*4C
$GPRMC,210336.1,A,3335.122028,N,11745.454066,W,34.1,227.0,010410,,,A*43
$GPRMC,210339.1,A,3335.104309,N,11745.479304,W,33.9,228.9,010410,,,A*49
$GPRMC,210342.1,A,3335.083711,N,11745.504377,W,34.1,227.4,010410,,,A*44
$GPRMC,210345.1,A,3335.067502,N,11745.527743,W,32.6,228.4,010410,,,A*45
$GPRMC,210348.1,A,3335.050300,N,11745.552209,W,32.0,228.7,010410,,,A*44
$GPRMC,210351.1,A,3335.032280,N,11745.575307,W,31.5,228.2,010410,,,A*48
$GPRMC,210354.1,A,3335.014063,N,11745.598308,W,30.5,227.2,010410,,,A*44
$GPRMC,210357.1,A,3334.999087,N,11745.615989,W,25.7,225.4,010410,,,A*47
$GPRMC,210400.1,A,3334.990342,N,11745.628121,W,19.4,227.8,010410,,,A*47
$GPRMC,210403.1,A,3334.987809,N,11745.633431,W,7.2,232.1,010410,,,A*7C
$GPRMC,210445.1,A,3334.981327,N,11745.646730,W,9.1,252.3,010410,,,A*76
$GPRMC,210448.1,A,3334.980433,N,11745.658522,W,12.3,265.1,010410,,,A*48
$GPRMC,210451.1,A,3334.977347,N,11745.672843,W,13.6,255.0,010410,,,A*48
$GPRMC,210454.1,A,3334.969384,N,11745.682066,W,10.7,213.4,010410,,,A*49
$GPRMC,210457.1,A,3334.951466,N,11745.683160,W,18.5,171.8,010410,,,A*4D
$GPRMC,210500.1,A,3334.926736,N,11745.681082,W,23.9,175.4,010410,,,A*4B
$GPRMC,210503.1,A,3334.898869,N,11745.687095,W,29.4,188.5,010410,,,A*4D
$GPRMC,210506.1,A,3334.870810,N,11745.696937,W,33.4,196.0,010410,,,A*40
$GPRMC,210509.1,A,3334.843398,N,11745.707182,W,33.8,196.4,010410,,,A*43
$GPRMC,210512.1,A,3334.815091,N,11745.715893,W,33.7,192.7,010410,,,A*42
$GPRMC,210515.1,A,3334.789349,N,11745.722382,W,33.0,192.4,010410,,,A*42
$GPRMC,210518.1,A,3334.762936,N,11745.729491,W,32.5,192.5,010410,,,A*43
$GPRMC,210521.1,A,3334.733452,N,11745.735135,W,34.0,189.3,010410,,,A*4B
$GPRMC,210524.1,A,3334.707922,N,11745.739557,W,33.4,190.6,010410,,,A*41
$GPRMC,210527.1,A,3334.679640,N,11745.747135,W,34.1,191.9,010410,,,A*44
$GPRMC,210530.1,A,3334.651651,N,11745.753519,W,33.4,191.3,010410,,,A*4F
$GPRMC,210533.1,A,3334.627169,N,11745.757954,W,31.5,191.5,010410,,,A*45
$GPRMC,210536.1,A,3334.600072,N,11745.763663,W,31.9,191.5,010410,,,A*4E
$GPRMC,210539.1,A,3334.575148,N,11745.770981,W,31.4,190.9,010410,,,A*49
$GPRMC,210542.1,A,3334.548287,N,11745.775217,W,32.6,190.3,010410,,,A*41
$GPRMC,210545.1,A,3334.518434,N,11745.781393,W,34.3,190.7,010410,,,A*4C
$GPRMC,210548.1,A,3334.488415,N,11745.789232,W,36.0,191.2,010410,,,A*4D
$GPRMC,210551.1,A,3334.457562,N,11745.797741,W,36.1,191.0,010410,,,A*4B
$GPRMC,210554.1,A,3334.426770,N,11745.801071,W,36.3,185.4,010410,,,A*4E
$GPRMC,210557.1,A,3334.396455,N,11745.799334,W,37.0,174.8,010410,,,A*49
$GPRMC,210600.1,A,3334.365092,N,11745.790862,W,37.3,169.4,010410,,,A*49
$GPRMC,210603.1,A,3334.335964,N,11745.784924,W,36.1,172.0,010410,,,A*44
$GPRMC,210606.1,A,3334.304446,N,11745.784172,W,36.6,181.1,010410,,,A*4F
$GPRMC,210609.1,A,3334.272294,N,11745.788258,W,38.3,186.7,010410,,,A*44
$GPRMC,210612.1,A,3334.240741,N,11745.794152,W,38.6,190.0,010410,,,A*43
$GPRMC,210615.1,A,3334.212147,N,11745.800769,W,36.4,189.6,010410,,,A*4D
$GPRMC,210618.1,A,3334.181714,N,11745.808466,W,36.9,189.1,010410,,,A*47
$GPRMC,210621.1,A,3334.147381,N,11745.815609,W,38.7,189.4,010410,,,A*4D
$GPRMC,210624.1,A,3334.118924,N,11745.819763,W,36.6,188.0,010410,,,A*4C
$GPRMC,210627.1,A,3334.094925,N,11745.826402,W,34.7,189.6,010410,,,A*47
$GPRMC,210630.1,A,3334.067238,N,11745.832031,W,34.7,191.0,010410,,,A*44
$GPRMC,210633.1,A,3334.040063,N,11745.836541,W,35.7,189.9,010410,,,A*49
$GPRMC,210636.1,A,3334.009184,N,11745.842802,W,36.8,189.8,010410,,,A*4D
$GPRMC,210639.1,A,3333.978765,N,11745.847793,W,38.0,186.6,010410,,,A*46
$GPRMC,210642.1,A,3333.946768,N,11745.846203,W,37.8,180.0,010410,,,A*40
$GPRMC,210645.1,A,3333.915768,N,11745.842701,W,36.5,175.9,010410,,,A*4D
$GPRMC,210648.1,A,3333.883269,N,11745.839353,W,35.7,175.6,010410,,,A*4B
$GPRMC,210651.1,A,3333.854374,N,11745.840080,W,34.7,182.6,010410,,,A*4E
$GPRMC,210654.1,A,3333.827425,N,11745.848258,W,34.4,198.0,010410,,,A*4D
$GPRMC,210657.1,A,3333.803518,N,11745.868139,W,35.7,217.4,010410,,,A*43
$GPRMC,210700.1,A,3333.787633,N,11745.896729,W,35.7,233.4,010410,,,A*49
$GPRMC,210703.1,A,3333.777618,N,11745.930527,W,38.2,246.9,010410,,,A*4A
$GPRMC,210706.1,A,3333.776235,N,11745.965769,W,37.9,261.1,010410,,,A*44
$GPRMC,210709.1,A,3333.784481,N,11745.998695,W,35.9,277.1,010410,,,A*4A
$GPRMC,210712.1,A,3333.799528,N,11746.032094,W,35.8,287.8,010410,,,A*44
$GPRMC,210715.1,A,3333.808919,N,11746.066542,W,36.3,287.1,010410,,,A*44
$GPRMC,210718.1,A,3333.815658,N,11746.101222,W,34.8,281.1,010410,,,A*41
$GPRMC,210721.1,A,3333.814098,N,11746.136021,W,33.7,271.9,010410,,,A*4A
$GPRMC,210724.1,A,3333.806941,N,11746.171885,W,33.4,261.4,010410,,,A*4B
$GPRMC,210727.1,A,3333.799111,N,11746.201888,W,30.7,253.1,010410,,,A*41
$GPRMC,210730.1,A,3333.784531,N,11746.229694,W,31.5,240.1,010410,,,A*45
$GPRMC,210733.1,A,3333.771118,N,11746.255417,W,32.7,232.2,010410,,,A*46
$GPRMC,210736.1,A,3333.751010,N,11746.278864,W,34.1,222.1,010410,,,A*4D
$GPRMC,210739.1,A,3333.724643,N,11746.298996,W,36.4,214.1,010410,,,A*40
$GPRMC,210742.1,A,3333.695651,N,11746.319567,W,37.5,212.2,010410,,,A*4B
$GPRMC,210745.1,A,3333.669585,N,11746.340185,W,37.4,212.8,010410,,,A*4A
$GPRMC,210748.1,A,3333.641585,N,11746.359258,W,37.4,210.9,010410,,,A*45
$GPRMC,210751.1,A,3333.614722,N,11746.377877,W,37.5,210.8,010410,,,A*49
$GPRMC,210754.1,A,3333.585834,N,11746.398427,W,39.7,211.9,010410,,,A*4B
$GPRMC,210757.1,A,3333.557450,N,11746.416752,W,39.4,208.1,010410,,,A*4A
$GPRMC,210800.1,A,3333.528672,N,11746.430389,W,37.6,199.9,010410,,,A*44
$GPRMC,210803.1,A,3333.500895,N,11746.437535,W,35.8,191.2,010410,,,A*43
$GPRMC,210806.1,A,3333.470430,N,11746.443644,W,35.9,189.1,010410,,,A*4E
$GPRMC,210809.1,A,3333.443966,N,11746.445799,W,33.3,188.2,010410,,,A*46
$GPRMC,210812.1,A,3333.415083,N,11746.451366,W,33.7,189.1,010410,,,A*4A
$GPRMC,210815.1,A,3333.390493,N,11746.457143,W,32.9,192.5,010410,,,A*40
$GPRMC,210818.1,A,3333.360796,N,11746.468785,W,33.8,200.6,010410,,,A*4F
$GPRMC,210821.1,A,3333.332378,N,11746.482004,W,34.6,203.3,010410,,,A*43
$GPRMC,210824.1,A,3333.304902,N,11746.498337,W,35.6,206.0,010410,,,A*4B
$GPRMC,210827.1,A,3333.278529,N,11746.515592,W,34.6,210.8,010410,,,A*44
$GPRMC,210830.1,A,3333.253647,N,11746.533046,W,34.6,210.1,010410,,,A*41
$GPRMC,210833.1,A,3333.228263,N,11746.552570,W,36.5,213.1,010410,,,A*49
$GPRMC,210836.1,A,3333.202267,N,11746.575016,W,38.9,215.9,010410,,,A*4C
$GPRMC,210839.1,A,3333.177169,N,11746.599919,W,39.7,218.5,010410,,,A*45
$GPRMC,210842.1,A,3333.153265,N,11746.625865,W,39.8,222.8,010410,,,A*45
$GPRMC,210845.1,A,3333.126370,N,11746.654032,W,41.2,225.2,010410,,,A*41
$GPRMC,210848.1,A,3333.103575,N,11746.683175,W,40.0,225.2,010410,,,A*43
$GPRMC,210851.1,A,3333.083585,N,11746.710779,W,37.3,227.5,010410,,,A*4A
$GPRMC,210854.1,A,3333.065405,N,11746.735541,W,36.3,227.2,010410,,,A*46
$GPRMC,210857.1,A,3333.043641,N,11746.763442,W,37.2,227.0,010410,,,A*40
$GPRMC,210900.1,A,3333.020670,N,11746.791409,W,38.2,226.2,010410,,,A*4A
$GPRMC,210903.1,A,3333.000062,N,11746.818619,W,35.6,227.1,010410,,,A*48
$GPRMC,210906.1,A,3332.979590,N,11746.842263,W,34.4,222.6,010410,,,A*44
$GPRMC,210909.1,A,3332.960129,N,11746.861586,W,32.5,219.2,010410,,,A*43
$GPRMC,210912.1,A,3332.938792,N,11746.879568,W,30.6,215.0,010410,,,A*44
$GPRMC,210915.1,A,3332.916935,N,11746.895476,W,28.4,213.0,010410,,,A*4D
$GPRMC,210918.1,A,3332.900940,N,11746.907076,W,25.1,209.8,010410,,,A*40
$GPRMC,210921.1,A,3332.879850,N,11746.917660,W,25.7,205.0,010410,,,A*47
$GPRMC,210924.1,A,3332.857833,N,11746.927521,W,25.5,200.0,010410,,,A*49
$GPRMC,210927.1,A,3332.837865,N,11746.933370,W,26.5,190.1,010410,,,A*40
$GPRMC,210930.1,A,3332.816352,N,11746.934726,W,26.3,185.4,010410,,,A*4D
$GPRMC,210933.1,A,3332.800169,N,11746.935629,W,20.9,186.4,010410,,,A*43
$GPRMC,210936.1,A,3332.785558,N,11746.940641,W,17.8,199.9,010410,,,A*48
$GPRMC,210939.1,A,3332.774509,N,11746.946030,W,15.0,208.3,010410,,,A*40
$GPRMC,210942.1,A,3332.779583,N,11746.942616,W,5.3,213.1,010410,,,A*7F
$GPRMC,211000.1,A,3332.784125,N,11746.936384,W,5.2,172.0,010410,,,A*72
$GPRMC,211003.1,A,3332.772026,N,11746.937775,W,12.1,182.1,010410,,,A*4A
$GPRMC,211006.1,A,3332.757608,N,11746.944899,W,18.3,210.9,010410,,,A*43
$GPRMC,211009.1,A,3332.742975,N,11746.959497,W,21.6,222.0,010410,,,A*44
$GPRMC,211012.1,A,3332.719297,N,11746.979314,W,26.7,219.7,010410,,,A*40
$GPRMC,211015.1,A,3332.697116,N,11747.000080,W,28.8,220.5,010410,,,A*4B
$GPRMC,211018.1,A,3332.675345,N,11747.018051,W,29.6,217.5,010410,,,A*40
$GPRMC,211021.1,A,3332.655954,N,11747.036731,W,29.1,218.2,010410,,,A*40
$GPRMC,211024.1,A,3332.641786,N,11747.050211,W,25.1,216.5,010410,,,A*43
$GPRMC,211027.1,A,3332.627914,N,11747.063356,W,22.9,218.1,010410,,,A*42
$GPRMC,211030.1,A,3332.614633,N,11747.077038,W,21.9,219.0,010410,,,A*43
$GPRMC,211033.1,A,3332.599870,N,11747.091171,W,22.1,218.3,010410,,,A*42
$GPRMC,211036.1,A,3332.587134,N,11747.104870,W,21.3,220.3,010410,,,A*4E
$GPRMC,211039.1,A,3332.575499,N,11747.116751,W,18.3,218.2,010410,,,A*41
$GPRMC,211042.1,A,3332.572365,N,11747.120703,W,8.2,212.7,010410,,,A*73
$GPRMC,211057.1,A,3332.574394,N,11747.121029,W,7.5,245.9,010410,,,A*75
$GPRMC,211100.1,A,3332.573684,N,11747.131048,W,13.0,278.1,010410,,,A*45
$GPRMC,211103.1,A,3332.578973,N,11747.149860,W,21.3,288.3,010410,,,A*48
$GPRMC,211106.1,A,3332.588061,N,11747.173479,W,25.9,292.2,010410,,,A*41
$GPRMC,211109.1,A,3332.595625,N,11747.197458,W,25.4,290.5,010410,,,A*45
$GPRMC,211112.1,A,3332.603960,N,11747.220706,W,25.3,292.6,010410,,,A*4C
$GPRMC,211115.1,A,3332.612257,N,11747.243657,W,22.9,295.1,010410,,,A*49
$GPRMC,211118.1,A,3332.620873,N,11747.260121,W,16.9,296.9,010410,,,A*42
$GPRMC,211121.1,A,3332.627433,N,11747.270182,W,13.3,305.2,010410,,,A*40
$GPRMC,211130.1,A,3332.627331,N,11747.269208,W,5.6,285.3,010410,,,A*76
$GPRMC,211133.1,A,3332.629074,N,11747.278274,W,11.4,287.0,010410,,,A*44
$GPRMC,211136.1,A,3332.635334,N,11747.292126,W,17.3,293.7,010410,,,A*48
$GPRMC,211139.1,A,3332.640598,N,11747.310819,W,20.0,289.0,010410,,,A*40
$GPRMC,211142.1,A,3332.645207,N,11747.330141,W,19.4,289.9,010410,,,A*49
$GPRMC,211145.1,A,3332.649810,N,11747.346788,W,18.0,292.1,010410,,,A*4B
$GPRMC,211148.1,A,3332.655483,N,11747.362585,W,17.1,294.1,010410,,,A*4C
$GPRMC,211151.1,A,3332.660974,N,11747.375761,W,13.7,299.7,010410,,,A*40
$GPRMC,211154.1,A,3332.664255,N,11747.383184,W,8.1,303.7,010410,,,A*73
$GPRMC,211200.1,A,3332.670140,N,11747.388813,W,5.3,294.7,010410,,,A*7F
$GPRMC,211203.1,A,3332.673020,N,11747.396217,W,8.5,286.2,010410,,,A*74
$GPRMC,211206.1,A,3332.677353,N,11747.407850,W,12.9,289.5,010410,,,A*4B
$GPRMC,211209.1,A,3332.682668,N,11747.424045,W,16.5,287.1,010410,,,A*4C
$GPRMC,211212.1,A,3332.690243,N,11747.442815,W,19.7,290.3,010410,,,A*4C
$GPRMC,211215.1,A,3332.698581,N,11747.463941,W,23.8,291.0,010410,,,A*4D
$GPRMC,211218.1,A,3332.707078,N,11747.488372,W,24.4,291.8,010410,,,A*48
$GPRMC,211221.1,A,3332.712094,N,11747.512098,W,25.0,291.0,010410,,,A*4C
$GPRMC,211224.1,A,3332.721195,N,11747.536610,W,26.3,292.4,010410,,,A*4E
$GPRMC,211227.1,A,3332.731019,N,11747.563186,W,28.4,292.5,010410,,,A*49
$GPRMC,211230.1,A,3332.741880,N,11747.586864,W,27.0,294.9,010410,,,A*4F
$GPRMC,211233.1,A,3332.751345,N,11747.608914,W,24.6,296.8,010410,,,A*4A
$GPRMC,211236.1,A,3332.758233,N,11747.629254,W,21.7,296.2,010410,,,A*44
$GPRMC,211239.1,A,3332.764161,N,11747.646110,W,22.6,298.7,010410,,,A*43
$GPRMC,211242.1,A,3332.775485,N,11747.665374,W,24.5,304.4,010410,,,A*43
$GPRMC,211245.1,A,3332.790357,N,11747.686212,W,27.7,306.6,010410,,,A*4A
$GPRMC,211248.1,A,3332.805903,N,11747.710675,W,31.0,305.3,010410,,,A*42
$GPRMC,211251.1,A,3332.818430,N,11747.739901,W,32.7,299.4,010410,,,A*4B
$GPRMC,211254.1,A,3332.824883,N,11747.772653,W,33.4,290.8,010410,,,A*45
$GPRMC,211257.1,A,3332.835077,N,11747.804435,W,34.6,291.5,010410,,,A*40
$GPRMC,211300.1,A,3332.847041,N,11747.836178,W,34.8,292.9,010410,,,A*4F
$GPRMC,211303.1,A,3332.858616,N,11747.869191,W,36.0,293.5,010410,,,A*4C
$GPRMC,211306.1,A,3332.870100,N,11747.902358,W,35.7,293.4,010410,,,A*4D
$GPRMC,211309.1,A,3332.885086,N,11747.934466,W,35.3,296.0,010410,,,A*4D
$GPRMC,211312.1,A,3332.895101,N,11747.964418,W,32.9,294.0,010410,,,A*4B
$GPRMC,211315.1,A,3332.905421,N,11747.992771,W,30.1,293.5,010410,,,A*4E
$GPRMC,211318.1,A,3332.912866,N,11748.017526,W,27.9,293.1,010410,,,A*4B
$GPRMC,211321.1,A,3332.920720,N,11748.042980,W,28.6,291.2,010410,,,A*4C
$GPRMC,211324.1,A,3332.929369,N,11748.068831,W,29.7,292.1,010410,,,A*4A
$GPRMC,211327.1,A,3332.937893,N,11748.095696,W,28.9,292.8,010410,,,A*4F
$GPRMC,211330.1,A,3332.950261,N,11748.123463,W,29.8,294.0,010410,,,A*45
$GPRMC,211333.1,A,3332.961827,N,11748.149237,W,29.0,296.9,010410,,,A*44
$GPRMC,211336.1,A,3332.969640,N,11748.170960,W,26.2,297.2,010410,,,A*42
$GPRMC,211339.1,A,3332.979197,N,11748.195123,W,27.9,296.4,010410,,,A*48
$GPRMC,211342.1,A,3332.990848,N,11748.222493,W,32.2,297.5,010410,,,A*46
$GPRMC,211345.1,A,3333.003639,N,11748.253171,W,35.1,298.6,010410,,,A*4C
$GPRMC,211348.1,A,3333.022217,N,11748.282442,W,35.2,307.1,010410,,,A*40
$GPRMC,211351.1,A,3333.044985,N,11748.306563,W,35.2,317.5,010410,,,A*42
$GPRMC,211354.1,A,3333.073306,N,11748.323569,W,37.1,328.5,010410,,,A*42
$GPRMC,211357.1,A,3333.103801,N,11748.339565,W,38.4,332.9,010410,,,A*41
$GPRMC,211400.1,A,3333.131811,N,11748.358592,W,39.6,330.5,010410,,,A*46
$GPRMC,211403.1,A,3333.151354,N,11748.387459,W,39.0,315.9,010410,,,A*40
$GPRMC,211406.1,A,3333.167609,N,11748.422247,W,39.6,304.7,010410,,,A*44
$GPRMC,211409.1,A,3333.179738,N,11748.459071,W,39.7,296.4,010410,,,A*44
$GPRMC,211412.1,A,3333.189460,N,11748.495875,W,40.8,288.0,010410,,,A*49
$GPRMC,211415.1,A,3333.196886,N,11748.534594,W,40.3,283.1,010410,,,A*4D
$GPRMC,211418.1,A,3333.203158,N,11748.572193,W,39.3,282.1,010410,,,A*4B
$GPRMC,211421.1,A,3333.216169,N,11748.609942,W,39.0,293.4,010410,,,A*4A
$GPRMC,211424.1,A,3333.232458,N,11748.643231,W,41.1,303.4,010410,,,A*49
$GPRMC,211427.1,A,3333.250754,N,11748.677469,W,43.3,305.0,010410,,,A*4F
$GPRMC,211430.1,A,3333.271907,N,11748.713442,W,44.3,304.8,010410,,,A*46
$GPRMC,211433.1,A,3333.293360,N,11748.750092,W,45.6,305.4,010410,,,A*45
$GPRMC,211436.1,A,3333.316185,N,11748.787967,W,46.0,305.7,010410,,,A*4A
$GPRMC,211439.1,A,3333.336772,N,11748.824294,W,44.6,304.8,010410,,,A*42
$GPRMC,211442.1,A,3333.354321,N,11748.863099,W,45.3,299.3,010410,,,A*4E
$GPRMC,211445.1,A,3333.373440,N,11748.902009,W,44.9,297.6,010410,,,A*43
$GPRMC,211448.1,A,3333.390404,N,11748.941077,W,44.2,297.1,010410,,,A*41
$GPRMC,211451.1,A,3333.406664,N,11748.978380,W,42.7,297.3,010410,,,A*45
$GPRMC,211454.1,A,3333.420999,N,11749.014468,W,40.8,297.7,010410,,,A*43
$GPRMC,211457.1,A,3333.438717,N,11749.049855,W,41.1,300.3,010410,,,A*48
$GPRMC,211500.1,A,3333.460667,N,11749.082989,W,42.2,307.8,010410,,,A*4B
$GPRMC,211503.1,A,3333.488166,N,11749.115086,W,45.6,316.2,010410,,,A*48
$GPRMC,211506.1,A,3333.521691,N,11749.145302,W,48.7,320.1,010410,,,A*40
$GPRMC,211509.1,A,3333.555418,N,11749.176545,W,50.2,319.8,010410,,,A*45
$GPRMC,211512.1,A,3333.586774,N,11749.213555,W,52.9,313.9,010410,,,A*4B
$GPRMC,211515.1,A,3333.615346,N,11749.255405,W,54.3,309.8,010410,,,A*40
$GPRMC,211518.1,A,3333.643574,N,11749.297445,W,54.7,309.8,010410,,,A*47
$GPRMC,211521.1,A,3333.672640,N,11749.338478,W,53.9,310.4,010410,,,A*4C
$GPRMC,211524.1,A,3333.701541,N,11749.376426,W,51.2,312.4,010410,,,A*44
$GPRMC,211527.1,A,3333.730795,N,11749.411540,W,49.0,316.1,010410,,,A*43
$GPRMC,211530.1,A,3333.764571,N,11749.438695,W,45.5,324.1,010410,,,A*44
$GPRMC,211533.1,A,3333.792782,N,11749.463549,W,42.1,322.9,010410,,,A*41
$GPRMC,211536.1,A,3333.816512,N,11749.490640,W,40.7,316.3,010410,,,A*43
$GPRMC,211539.1,A,3333.838912,N,11749.521655,W,41.6,309.0,010410,,,A*4E
$GPRMC,211542.1,A,3333.859584,N,11749.555709,W,43.3,306.6,010410,,,A*43
$GPRMC,211545.1,A,3333.881579,N,11749.590904,W,44.5,306.1,010410,,,A*4F
$GPRMC,211548.1,A,3333.903476,N,11749.628950,W,46.2,306.1,010410,,,A*43
$GPRMC,211551.1,A,3333.928118,N,11749.668088,W,47.9,307.2,010410,,,A*4F
$GPRMC,211554.1,A,3333.949301,N,11749.703266,W,44.9,307.0,010410,,,A*48
$GPRMC,211557.1,A,3333.972040,N,11749.736459,W,40.9,307.3,010410,,,A*4E
$GPRMC,211600.1,A,3333.991317,N,11749.766600,W,37.0,307.4,010410,,,A*46
$GPRMC,211603.1,A,3334.008979,N,11749.793479,W,33.9,308.7,010410,,,A*4E
$GPRMC,211606.1,A,3334.025441,N,11749.818742,W,33.4,307.7,010410,,,A*47
$GPRMC,211609.1,A,3334.040944,N,11749.843698,W,34.4,307.0,010410,,,A*4B
$GPRMC,211612.1,A,3334.058112,N,11749.873159,W,37.4,306.2,010410,,,A*4A
$GPRMC,211615.1,A,3334.075944,N,11749.903716,W,38.7,306.7,010410,,,A*4B
$GPRMC,211618.1,A,3334.093603,N,11749.934765,W,39.3,306.1,010410,,,A*41
$GPRMC,211621.1,A,3334.116683,N,11749.968087,W,43.3,309.7,010410,,,A*49
$GPRMC,211624.1,A,3334.142217,N,11750.001030,W,45.2,313.2,010410,,,A*4F
$GPRMC,211627.1,A,3334.167907,N,11750.033144,W,44.9,313.9,010410,,,A*43
$GPRMC,211630.1,A,3334.194259,N,11750.064387,W,44.5,314.9,010410,,,A*4D
$GPRMC,211633.1,A,3334.219236,N,11750.092777,W,40.1,316.6,010410,,,A*4E
$GPRMC,211636.1,A,3334.238943,N,11750.115532,W,32.3,316.7,010410,,,A*4A
$GPRMC,211639.1,A,3334.252422,N,11750.131886,W,24.9,316.1,010410,,,A*4C
$GPRMC,211642.1,A,3334.260775,N,11750.139568,W,15.2,320.3,010410,,,A*4B
$GPRMC,211645.1,A,3334.266938,N,11750.147053,W,12.5,316.1,010410,,,A*4E
$GPRMC,211715.1,A,3334.263790,N,11750.144018,W,5.5,313.7,010410,,,A*7A
$GPRMC,211718.1,A,3334.272304,N,11750.155463,W,10.4,312.0,010410,,,A*45
$GPRMC,211721.1,A,3334.291513,N,11750.175345,W,19.8,316.6,010410,,,A*44
$GPRMC,211724.1,A,3334.316089,N,11750.205687,W,29.1,315.6,010410,,,A*4F
$GPRMC,211727.1,A,3334.348475,N,11750.247132,W,44.1,313.2,010410,,,A*46
$GPRMC,211730.1,A,3334.385548,N,11750.288296,W,49.0,320.2,010410,,,A*4C
$GPRMC,211733.1,A,3334.418820,N,11750.318738,W,49.6,323.8,010410,,,A*49
$GPRMC,211736.1,A,3334.457981,N,11750.344927,W,51.4,331.0,010410,,,A*44
$GPRMC,211739.1,A,3334.495876,N,11750.364878,W,49.4,336.4,010410,,,A*4F
$GPRMC,211742.1,A,3334.532114,N,11750.382121,W,47.8,338.6,010410,,,A*41
$GPRMC,211745.1,A,3334.569858,N,11750.400199,W,48.4,337.2,010410,,,A*4F
$GPRMC,211748.1,A,3334.605469,N,11750.422981,W,48.9,330.9,010410,,,A*45
$GPRMC,211751.1,A,3334.637919,N,11750.450716,W,48.2,324.3,010410,,,A*47
$GPRMC,211754.1,A,3334.666816,N,11750.480973,W,46.3,318.4,010410,,,A*4F
$GPRMC,211757.1,A,3334.689941,N,11750.508867,W,39.2,316.1,010410,,,A*49
$GPRMC,211800.1,A,3334.704695,N,11750.529265,W,27.7,314.1,010410,,,A*45
$GPRMC,211803.1,A,3334.712526,N,11750.538558,W,14.0,317.5,010410,,,A*43
$GPRMC,211815.1,A,3334.718193,N,11750.547453,W,11.2,304.0,010410,,,A*46
$GPRMC,211818.1,A,3334.730147,N,11750.564906,W,23.7,307.3,010410,,,A*40
$GPRMC,211821.1,A,3334.744807,N,11750.588461,W,30.7,308.3,010410,,,A*47
$GPRMC,211824.1,A,3334.765896,N,11750.616614,W,36.0,309.7,010410,,,A*49
$GPRMC,211827.1,A,3334.786991,N,11750.646797,W,38.2,309.8,010410,,,A*4D
$GPRMC,211830.1,A,3334.808329,N,11750.676696,W,40.1,309.9,010410,,,A*45
$GPRMC,211833.1,A,3334.829492,N,11750.707453,W,41.2,310.2,010410,,,A*4F
$GPRMC,211836.1,A,3334.849323,N,11750.738082,W,40.6,309.5,010410,,,A*4F
$GPRMC,211839.1,A,3334.869202,N,11750.768844,W,38.7,309.1,010410,,,A*4D
$GPRMC,211842.1,A,3334.890006,N,11750.796946,W,36.1,309.6,010410,,,A*4C
$GPRMC,211845.1,A,3334.909470,N,11750.823582,W,34.9,310.4,010410,,,A*4A
$GPRMC,211848.1,A,3334.928018,N,11750.849610,W,33.2,311.4,010410,,,A*47
$GPRMC,211851.1,A,3334.944166,N,11750.871866,W,30.0,312.4,010410,,,A*4B
$GPRMC,211854.1,A,3334.956714,N,11750.891243,W,24.4,312.6,010410,,,A*4E
$GPRMC,211857.1,A,3334.967816,N,11750.906557,W,18.3,314.3,010410,,,A*44
$GPRMC,211900.1,A,3334.973365,N,11750.916226,W,12.3,313.2,010410,,,A*41
$GPRMC,211915.1,A,3334.980019,N,11750.928278,W,12.0,302.6,010410,,,A*40
$GPRMC,211918.1,A,3334.990582,N,11750.943155,W,19.5,300.5,010410,,,A*45
$GPRMC,211921.1,A,3335.006696,N,11750.967297,W,31.3,305.1,010410,,,A*48
$GPRMC,211924.1,A,3335.025721,N,11750.995829,W,37.3,307.8,010410,,,A*4E
$GPRMC,211927.1,A,3335.048992,N,11751.028846,W,44.0,308.7,010410,,,A*40
$GPRMC,211930.1,A,3335.072626,N,11751.064764,W,46.1,308.2,010410,,,A*4E
$GPRMC,211933.1,A,3335.098254,N,11751.102575,W,48.1,308.8,010410,,,A*4F
$GPRMC,211936.1,A,3335.124370,N,11751.141312,W,49.6,309.3,010410,,,A*47
$GPRMC,211939.1,A,3335.151363,N,11751.179537,W,48.6,309.7,010410,,,A*47
$GPRMC,211942.1,A,3335.175406,N,11751.215393,W,45.7,310.5,010410,,,A*4E
$GPRMC,211945.1,A,3335.200021,N,11751.249913,W,44.2,310.0,010410,,,A*43
$GPRMC,211948.1,A,3335.223319,N,11751.284782,W,45.0,308.9,010410,,,A*43
$GPRMC,211951.1,A,3335.247361,N,11751.319443,W,45.9,309.2,010410,,,A*4E
$GPRMC,211954.1,A,3335.274759,N,11751.354529,W,46.9,310.7,010410,,,A*4E
$GPRMC,211957.1,A,3335.296801,N,11751.388341,W,44.1,310.4,010410,,,A*43
$GPRMC,212000.1,A,3335.319025,N,11751.418604,W,40.4,311.5,010410,,,A*48
$GPRMC,212003.1,A,3335.337908,N,11751.448771,W,35.8,307.2,010410,,,A*49
$GPRMC,212006.1,A,3335.351603,N,11751.474644,W,27.2,305.0,010410,,,A*49
$GPRMC,212009.1,A,3335.360174,N,11751.490482,W,16.2,305.5,010410,,,A*46
$GPRMC,212012.1,A,3335.365230,N,11751.498370,W,8.4,310.6,010410,,,A*76
$GPRMC,212018.1,A,3335.369885,N,11751.507980,W,11.1,301.0,010410,,,A*4D
$GPRMC,212021.1,A,3335.378504,N,11751.523869,W,21.3,299.5,010410,,,A*47
$GPRMC,212024.1,A,3335.389621,N,11751.547261,W,29.8,299.2,010410,,,A*4C
$GPRMC,212027.1,A,3335.404139,N,11751.576878,W,35.1,300.3,010410,,,A*47
$GPRMC,212030.1,A,3335.419104,N,11751.607375,W,36.2,300.5,010410,,,A*46
$GPRMC,212033.1,A,3335.435631,N,11751.638169,W,36.8,300.8,010410,,,A*4E
$GPRMC,212036.1,A,3335.452676,N,11751.669840,W,38.7,301.3,010410,,,A*44
