NMEA Sentence Code,UTC Time,Status,Latitude,Latitude Direction,Longitude,Longitude Direction,Speed (knots),Track Angle (degrees true),Date,MagneticVariation,Magnetic Variation Direction,[FAA Mode]-Optional,Checksum
$GPRMC,020855.18,A,3312.2437,N,11723.0589,W,26.223,178.394,091210,0,W,A*17
$GPRMC,020858.18,A,3312.2212,N,11723.0586,W,26.742,179.359,091210,0,W,A*16
$GPRMC,020901.18,A,3312.1988,N,11723.0592,W,26.270,178.711,091210,0,W,A*18
$GPRMC,020904.18,A,3312.1766,N,11723.0588,W,26.463,178.525,091210,0,W,A*19
$GPRMC,020907.18,A,3312.1543,N,11723.0586,W,26.085,178.848,091210,0,W,A*1B
$GPRMC,020910.18,A,3312.1327,N,11723.0595,W,24.628,180.820,091210,0,W,A*11
$GPRMC,020913.18,A,3312.1146,N,11723.0594,W,17.036,176.735,091210,0,W,A*1D
$GPRMC,020916.18,A,3312.1049,N,11723.0583,W,7.363,174.056,091210,0,W,A*22
$GPRMC,020949.18,A,3312.0944,N,11723.0558,W,14.269,169.299,091210,0,W,A*1F
$GPRMC,020952.18,A,3312.0803,N,11723.0508,W,19.082,160.313,091210,0,W,A*12
$GPRMC,020955.18,A,3312.0647,N,11723.0405,W,23.777,146.123,091210,0,W,A*16
$GPRMC,020958.18,A,3312.0475,N,11723.0265,W,24.493,144.450,091210,0,W,A*15
$GPRMC,021001.18,A,3312.0307,N,11723.0121,W,24.035,144.704,091210,0,W,A*1A
$GPRMC,021004.18,A,3312.0145,N,11722.9982,W,22.831,144.677,091210,0,W,A*1D
$GPRMC,021007.18,A,3311.9992,N,11722.9850,W,21.602,145.008,091210,0,W,A*1A
$GPRMC,021010.18,A,3311.9848,N,11722.9734,W,19.222,145.738,091210,0,W,A*1E
$GPRMC,021013.18,A,3311.9734,N,11722.9640,W,13.725,145.709,091210,0,W,A*11
$GPRMC,021016.18,A,3311.9656,N,11722.9584,W,7.456,146.690,091210,0,W,A*2A
$GPRMC,021037.18,A,3311.9568,N,11722.9509,W,12.191,145.342,091210,0,W,A*11
$GPRMC,021040.18,A,3311.9457,N,11722.9413,W,20.175,144.824,091210,0,W,A*17
$GPRMC,021043.18,A,3311.9308,N,11722.9285,W,22.698,142.922,091210,0,W,A*17
$GPRMC,021046.18,A,3311.9150,N,11722.9145,W,23.943,145.034,091210,0,W,A*13
$GPRMC,021049.18,A,3311.8986,N,11722.9004,W,23.780,145.543,091210,0,W,A*1E
$GPRMC,021052.18,A,3311.8832,N,11722.8857,W,24.294,144.601,091210,0,W,A*16
$GPRMC,021055.18,A,3311.8677,N,11722.8723,W,21.979,146.764,091210,0,W,A*1F
$GPRMC,021058.18,A,3311.8557,N,11722.8625,W,13.306,141.999,091210,0,W,A*1C
$GPRMC,021101.18,A,3311.8538,N,11722.8507,W,11.100,75.996,091210,0,W,A*24
$GPRMC,021104.18,A,3311.8610,N,11722.8386,W,16.016,55.085,091210,0,W,A*2F
$GPRMC,021107.18,A,3311.8700,N,11722.8247,W,16.975,53.722,091210,0,W,A*20
$GPRMC,021110.18,A,3311.8800,N,11722.8113,W,16.789,50.601,091210,0,W,A*25
$GPRMC,021113.18,A,3311.8890,N,11722.7985,W,15.916,54.813,091210,0,W,A*25
$GPRMC,021116.18,A,3311.8966,N,11722.7866,W,13.066,55.121,091210,0,W,A*25
$GPRMC,021119.18,A,3311.9024,N,11722.7774,W,9.901,55.256,091210,0,W,A*18
$GPRMC,021125.18,A,3311.9086,N,11722.7659,W,9.417,55.821,091210,0,W,A*11
$GPRMC,021128.18,A,3311.9164,N,11722.7547,W,17.544,53.842,091210,0,W,A*26
$GPRMC,021131.18,A,3311.9261,N,11722.7388,W,20.391,55.998,091210,0,W,A*27
$GPRMC,021134.18,A,3311.9369,N,11722.7214,W,22.557,54.547,091210,0,W,A*2E
$GPRMC,021137.18,A,3311.9483,N,11722.7025,W,22.634,54.505,091210,0,W,A*2E
$GPRMC,021140.18,A,3311.9598,N,11722.6844,W,21.772,53.610,091210,0,W,A*2B
$GPRMC,021143.18,A,3311.9709,N,11722.6681,W,20.153,53.373,091210,0,W,A*21
$GPRMC,021146.18,A,3311.9795,N,11722.6532,W,17.325,55.827,091210,0,W,A*21
$GPRMC,021149.18,A,3311.9860,N,11722.6415,W,10.439,55.055,091210,0,W,A*2F
$GPRMC,021155.18,A,3311.9890,N,11722.6309,W,7.967,108.593,091210,0,W,A*21
$GPRMC,021158.18,A,3311.9831,N,11722.6223,W,12.540,141.553,091210,0,W,A*12
$GPRMC,021201.18,A,3311.9716,N,11722.6137,W,16.567,144.446,091210,0,W,A*10
$GPRMC,021204.18,A,3311.9580,N,11722.6039,W,18.501,144.412,091210,0,W,A*18
$GPRMC,021207.18,A,3311.9432,N,11722.5925,W,21.430,145.166,091210,0,W,A*1A
$GPRMC,021210.18,A,3311.9275,N,11722.5806,W,21.313,145.622,091210,0,W,A*18
$GPRMC,021213.18,A,3311.9125,N,11722.5698,W,19.828,148.290,091210,0,W,A*1C
$GPRMC,021216.18,A,3311.9006,N,11722.5605,W,12.774,144.833,091210,0,W,A*1F
$GPRMC,021328.18,A,3311.8933,N,11722.5548,W,8.079,145.664,091210,0,W,A*2B
$GPRMC,021331.18,A,3311.8869,N,11722.5482,W,11.145,126.799,091210,0,W,A*1A
$GPRMC,021334.18,A,3311.8854,N,11722.5364,W,12.309,76.657,091210,0,W,A*20
$GPRMC,021337.18,A,3311.8923,N,11722.5230,W,18.427,54.547,091210,0,W,A*21
$GPRMC,021340.18,A,3311.9038,N,11722.5054,W,23.823,54.538,091210,0,W,A*2B
$GPRMC,021343.18,A,3311.9174,N,11722.4845,W,26.449,53.832,091210,0,W,A*2D
$GPRMC,021346.18,A,3311.9315,N,11722.4623,W,28.528,55.267,091210,0,W,A*27
$GPRMC,021349.18,A,3311.9449,N,11722.4378,W,29.081,57.500,091210,0,W,A*2E
$GPRMC,021352.18,A,3311.9575,N,11722.4134,W,27.203,59.397,091210,0,W,A*20
$GPRMC,021355.18,A,3311.9684,N,11722.3886,W,28.425,65.135,091210,0,W,A*25
$GPRMC,021358.18,A,3311.9778,N,11722.3627,W,28.868,68.744,091210,0,W,A*27
$GPRMC,021401.18,A,3311.9842,N,11722.3343,W,29.025,82.476,091210,0,W,A*2B
$GPRMC,021404.18,A,3311.9809,N,11722.3034,W,32.073,106.717,091210,0,W,A*12
$GPRMC,021407.18,A,3311.9685,N,11722.2722,W,34.839,117.910,091210,0,W,A*13
$GPRMC,021410.18,A,3311.9526,N,11722.2407,W,37.311,122.245,091210,0,W,A*14
$GPRMC,021413.18,A,3311.9342,N,11722.2093,W,39.674,125.053,091210,0,W,A*10
$GPRMC,021416.18,A,3311.9115,N,11722.1778,W,41.452,130.730,091210,0,W,A*1B
$GPRMC,021419.18,A,3311.8859,N,11722.1453,W,44.593,137.001,091210,0,W,A*15
$GPRMC,021422.18,A,3311.8560,N,11722.1161,W,46.902,142.116,091210,0,W,A*1D
$GPRMC,021425.18,A,3311.8236,N,11722.0875,W,48.873,143.441,091210,0,W,A*1C
$GPRMC,021428.18,A,3311.7891,N,11722.0586,W,49.384,144.493,091210,0,W,A*12
$GPRMC,021431.18,A,3311.7546,N,11722.0308,W,49.013,145.064,091210,0,W,A*1D
$GPRMC,021434.18,A,3311.7197,N,11722.0036,W,48.734,145.110,091210,0,W,A*1F
$GPRMC,021437.18,A,3311.6860,N,11721.9764,W,48.526,145.433,091210,0,W,A*13
$GPRMC,021440.18,A,3311.6521,N,11721.9491,W,47.894,144.847,091210,0,W,A*17
$GPRMC,021443.18,A,3311.6191,N,11721.9232,W,46.391,147.373,091210,0,W,A*14
$GPRMC,021446.18,A,3311.5859,N,11721.8998,W,45.279,150.264,091210,0,W,A*10
$GPRMC,021449.18,A,3311.5531,N,11721.8775,W,43.570,150.555,091210,0,W,A*1C
$GPRMC,021452.18,A,3311.5222,N,11721.8590,W,39.983,158.864,091210,0,W,A*10
$GPRMC,021455.18,A,3311.4904,N,11721.8522,W,38.944,180.246,091210,0,W,A*15
$GPRMC,021458.18,A,3311.4599,N,11721.8551,W,33.497,182.740,091210,0,W,A*1D
$GPRMC,021501.18,A,3311.4334,N,11721.8521,W,31.357,163.262,091210,0,W,A*15
$GPRMC,021504.18,A,3311.4127,N,11721.8381,W,27.373,144.659,091210,0,W,A*14
$GPRMC,021507.18,A,3311.3973,N,11721.8229,W,21.976,140.975,091210,0,W,A*16
$GPRMC,021510.18,A,3311.3869,N,11721.8127,W,12.593,144.221,091210,0,W,A*1E
$GPRMC,021646.18,A,3311.3819,N,11721.8083,W,8.704,121.382,091210,0,W,A*2A
$GPRMC,021649.18,A,3311.3804,N,11721.7952,W,16.756,80.435,091210,0,W,A*2A
$GPRMC,021652.18,A,3311.3885,N,11721.7765,W,23.663,57.904,091210,0,W,A*27
$GPRMC,021655.18,A,3311.4021,N,11721.7543,W,28.085,52.576,091210,0,W,A*2E
$GPRMC,021658.18,A,3311.4180,N,11721.7312,W,28.612,52.003,091210,0,W,A*24
$GPRMC,021701.18,A,3311.4330,N,11721.7105,W,24.395,49.976,091210,0,W,A*23
$GPRMC,021704.18,A,3311.4452,N,11721.6950,W,16.164,47.332,091210,0,W,A*25
$GPRMC,021707.18,A,3311.4534,N,11721.6867,W,9.849,48.741,091210,0,W,A*15
$GPRMC,021758.18,A,3311.4601,N,11721.6775,W,14.681,51.867,091210,0,W,A*23
$GPRMC,021801.18,A,3311.4703,N,11721.6610,W,24.231,57.431,091210,0,W,A*24
$GPRMC,021804.18,A,3311.4823,N,11721.6366,W,29.595,58.513,091210,0,W,A*22
$GPRMC,021807.18,A,3311.4965,N,11721.6085,W,33.737,59.356,091210,0,W,A*2B
