NMEA Sentence Code,UTC Time,Status,Latitude,Latitude Direction,Longitude,Longitude Direction,Speed (knots),Track Angle (degrees true),Date,MagneticVariation,Magnetic Variation Direction,[FAA Mode]-Optional,Checksum
$GPRMC,204246.000,A,3245.9225,N,11714.3460,W,16.90,113.10,281010,,,A*43
$GPRMC,204249.000,A,3245.9168,N,11714.3307,W,16.60,113.20,281010,,,A*4C
$GPRMC,204252.000,A,3245.9114,N,11714.3164,W,15.70,113.60,281010,,,A*4C
$GPRMC,204255.000,A,3245.9067,N,11714.3027,W,14.40,113.90,281010,,,A*45
$GPRMC,204301.000,A,3245.9022,N,11714.2890,W,8.10,87.90,281010,,,A*45
$GPRMC,204304.000,A,3245.9075,N,11714.2821,W,11.10,32.70,281010,,,A*70
$GPRMC,204307.000,A,3245.9154,N,11714.2781,W,6.20,37.40,281010,,,A*47
$GPRMC,204310.000,A,3245.9189,N,11714.2728,W,10.20,71.60,281010,,,A*75
$GPRMC,204313.000,A,3245.9166,N,11714.2555,W,26.90,106.50,281010,,,A*43
$GPRMC,204316.000,A,3245.9081,N,11714.2251,W,36.00,106.80,281010,,,A*48
$GPRMC,204319.000,A,3245.8985,N,11714.1906,W,37.60,108.00,281010,,,A*40
$GPRMC,204322.000,A,3245.8883,N,11714.1554,W,37.90,109.10,281010,,,A*4B
$GPRMC,204325.000,A,3245.8778,N,11714.1200,W,38.20,109.20,281010,,,A*46
$GPRMC,204328.000,A,3245.8670,N,11714.0839,W,38.90,109.00,281010,,,A*4A
$GPRMC,204331.000,A,3245.8561,N,11714.0481,W,38.80,109.80,281010,,,A*47
$GPRMC,204334.000,A,3245.8411,N,11714.0121,W,40.00,119.70,281010,,,A*42
$GPRMC,204337.000,A,3245.8214,N,11713.9792,W,41.00,127.90,281010,,,A*40
$GPRMC,204340.000,A,3245.7972,N,11713.9513,W,41.30,136.50,281010,,,A*40
$GPRMC,204343.000,A,3245.7701,N,11713.9256,W,41.80,140.30,281010,,,A*43
$GPRMC,204346.000,A,3245.7430,N,11713.8990,W,42.10,139.30,281010,,,A*43
$GPRMC,204349.000,A,3245.7188,N,11713.8702,W,40.20,133.70,281010,,,A*40
$GPRMC,204352.000,A,3245.6973,N,11713.8403,W,39.50,128.60,281010,,,A*47
$GPRMC,204355.000,A,3245.6786,N,11713.8074,W,39.70,123.60,281010,,,A*49
$GPRMC,204358.000,A,3245.6592,N,11713.7754,W,40.10,126.30,281010,,,A*41
$GPRMC,204401.000,A,3245.6389,N,11713.7444,W,38.50,127.90,281010,,,A*44
$GPRMC,204404.000,A,3245.6187,N,11713.7113,W,39.70,126.60,281010,,,A*47
$GPRMC,204407.000,A,3245.5985,N,11713.6786,W,39.70,126.40,281010,,,A*44
$GPRMC,204410.000,A,3245.5781,N,11713.6447,W,39.80,126.30,281010,,,A*4E
$GPRMC,204413.000,A,3245.5589,N,11713.6132,W,38.60,126.40,281010,,,A*48
$GPRMC,204416.000,A,3245.5395,N,11713.5815,W,39.20,126.30,281010,,,A*4B
$GPRMC,204419.000,A,3245.5201,N,11713.5505,W,38.20,126.40,281010,,,A*42
$GPRMC,204422.000,A,3245.5011,N,11713.5200,W,38.30,126.50,281010,,,A*4B
$GPRMC,204425.000,A,3245.4820,N,11713.4896,W,37.90,126.40,281010,,,A*47
$GPRMC,204428.000,A,3245.4636,N,11713.4603,W,37.00,126.30,281010,,,A*4F
$GPRMC,204431.000,A,3245.4452,N,11713.4327,W,36.50,128.30,281010,,,A*4E
$GPRMC,204434.000,A,3245.4263,N,11713.4029,W,37.30,126.90,281010,,,A*41
$GPRMC,204437.000,A,3245.4074,N,11713.3735,W,38.10,126.60,281010,,,A*49
$GPRMC,204440.000,A,3245.3894,N,11713.3411,W,38.80,123.50,281010,,,A*42
$GPRMC,204443.000,A,3245.3709,N,11713.3098,W,39.00,124.70,281010,,,A*43
$GPRMC,204446.000,A,3245.3523,N,11713.2787,W,38.70,124.80,281010,,,A*4D
$GPRMC,204449.000,A,3245.3358,N,11713.2520,W,33.50,123.90,281010,,,A*48
$GPRMC,204452.000,A,3245.3224,N,11713.2304,W,28.50,124.40,281010,,,A*48
$GPRMC,204455.000,A,3245.3105,N,11713.2131,W,23.40,125.60,281010,,,A*42
$GPRMC,204458.000,A,3245.3019,N,11713.1979,W,18.40,121.10,281010,,,A*4F
$GPRMC,204501.000,A,3245.2967,N,11713.1874,W,13.10,115.10,281010,,,A*46
$GPRMC,204504.000,A,3245.2946,N,11713.1850,W,6.20,114.90,281010,,,A*78
$GPRMC,204601.000,A,3245.2921,N,11713.1854,W,5.10,158.00,281010,,,A*7A
$GPRMC,204604.000,A,3245.2829,N,11713.1740,W,14.10,144.60,281010,,,A*47
$GPRMC,204607.000,A,3245.2696,N,11713.1474,W,27.10,123.10,281010,,,A*4C
$GPRMC,204610.000,A,3245.2556,N,11713.1218,W,27.10,124.30,281010,,,A*4C
$GPRMC,204613.000,A,3245.2441,N,11713.1028,W,21.60,124.60,281010,,,A*4D
$GPRMC,204616.000,A,3245.2358,N,11713.0894,W,15.60,124.20,281010,,,A*4A
$GPRMC,204643.000,A,3245.2287,N,11713.0781,W,4.70,136.60,281010,,,A*74
$GPRMC,204646.000,A,3245.2199,N,11713.0630,W,13.90,130.90,281010,,,A*47
$GPRMC,204649.000,A,3245.2068,N,11713.0413,W,24.30,126.80,281010,,,A*4C
$GPRMC,204652.000,A,3245.1924,N,11713.0182,W,28.60,127.20,281010,,,A*4B
$GPRMC,204655.000,A,3245.1766,N,11712.9938,W,30.30,128.00,281010,,,A*44
$GPRMC,204658.000,A,3245.1602,N,11712.9680,W,31.50,128.20,281010,,,A*43
$GPRMC,204701.000,A,3245.1443,N,11712.9430,W,31.40,125.90,281010,,,A*47
$GPRMC,204704.000,A,3245.1295,N,11712.9186,W,29.80,125.80,281010,,,A*43
$GPRMC,204707.000,A,3245.1156,N,11712.8942,W,29.20,125.30,281010,,,A*4C
$GPRMC,204710.000,A,3245.1021,N,11712.8725,W,27.70,126.00,281010,,,A*4F
$GPRMC,204713.000,A,3245.0887,N,11712.8516,W,26.00,126.10,281010,,,A*4C
$GPRMC,204716.000,A,3245.0777,N,11712.8338,W,21.50,127.40,281010,,,A*45
$GPRMC,204719.000,A,3245.0686,N,11712.8226,W,13.80,131.30,281010,,,A*47
$GPRMC,204749.000,A,3245.0638,N,11712.8160,W,2.90,151.20,281010,,,A*70
$GPRMC,204752.000,A,3245.0548,N,11712.8055,W,12.10,141.50,281010,,,A*46
$GPRMC,204755.000,A,3245.0433,N,11712.7829,W,22.90,124.60,281010,,,A*4B
$GPRMC,204758.000,A,3245.0330,N,11712.7590,W,24.40,116.90,281010,,,A*48
$GPRMC,204801.000,A,3245.0259,N,11712.7341,W,25.20,104.50,281010,,,A*47
$GPRMC,204804.000,A,3245.0228,N,11712.7084,W,25.30,93.00,281010,,,A*75
$GPRMC,204807.000,A,3245.0225,N,11712.6826,W,24.80,90.10,281010,,,A*72
$GPRMC,204810.000,A,3245.0228,N,11712.6589,W,22.90,89.50,281010,,,A*7A
$GPRMC,204813.000,A,3245.0230,N,11712.6370,W,21.20,90.30,281010,,,A*76
$GPRMC,204816.000,A,3245.0228,N,11712.6162,W,20.30,90.60,281010,,,A*7E
$GPRMC,204819.000,A,3245.0228,N,11712.5985,W,15.10,90.80,281010,,,A*79
$GPRMC,204822.000,A,3245.0226,N,11712.5872,W,10.00,90.50,281010,,,A*7F
$GPRMC,204825.000,A,3245.0225,N,11712.5746,W,14.30,90.80,281010,,,A*79
$GPRMC,204828.000,A,3245.0226,N,11712.5577,W,19.20,90.40,281010,,,A*77
$GPRMC,204831.000,A,3245.0224,N,11712.5354,W,25.40,89.30,281010,,,A*7C
$GPRMC,204834.000,A,3245.0227,N,11712.5093,W,26.80,89.60,281010,,,A*78
$GPRMC,204837.000,A,3245.0220,N,11712.4837,W,24.80,95.20,281010,,,A*70
$GPRMC,204840.000,A,3245.0188,N,11712.4607,W,23.20,101.70,281010,,,A*48
$GPRMC,204843.000,A,3245.0133,N,11712.4395,W,21.90,108.90,281010,,,A*4B
$GPRMC,204846.000,A,3245.0065,N,11712.4205,W,20.70,115.10,281010,,,A*4F
$GPRMC,204849.000,A,3244.9971,N,11712.4009,W,22.40,119.90,281010,,,A*4F
$GPRMC,204852.000,A,3244.9877,N,11712.3845,W,17.10,124.10,281010,,,A*40
$GPRMC,205052.000,A,3244.9823,N,11712.3739,W,6.20,101.20,281010,,,A*7B
$GPRMC,205055.000,A,3244.9815,N,11712.3588,W,15.00,54.30,281010,,,A*71
$GPRMC,205058.000,A,3244.9937,N,11712.3464,W,24.60,39.80,281010,,,A*7A
$GPRMC,205101.000,A,3245.0090,N,11712.3324,W,19.40,34.80,281010,,,A*79
$GPRMC,205104.000,A,3245.0206,N,11712.3229,W,16.10,34.60,281010,,,A*79
$GPRMC,205107.000,A,3245.0325,N,11712.3133,W,19.20,34.50,281010,,,A*7D
$GPRMC,205110.000,A,3245.0464,N,11712.3021,W,19.90,34.10,281010,,,A*74
$GPRMC,205113.000,A,3245.0591,N,11712.2924,W,15.90,33.60,281010,,,A*7D
$GPRMC,205116.000,A,3245.0723,N,11712.2818,W,20.30,34.80,281010,,,A*78
$GPRMC,205119.000,A,3245.0837,N,11712.2725,W,9.40,33.90,281010,,,A*46
$GPRMC,205128.000,A,3245.0917,N,11712.2660,W,14.60,36.30,281010,,,A*76
$GPRMC,205131.000,A,3245.1014,N,11712.2578,W,10.30,35.30,281010,,,A*7D
$GPRMC,205134.000,A,3245.1086,N,11712.2522,W,10.80,33.40,281010,,,A*76
$GPRMC,205137.000,A,3245.1175,N,11712.2449,W,16.60,35.80,281010,,,A*76
$GPRMC,205140.000,A,3245.1300,N,11712.2355,W,18.40,33.60,281010,,,A*78
$GPRMC,205143.000,A,3245.1435,N,11712.2242,W,21.00,36.30,281010,,,A*73
$GPRMC,205146.000,A,3245.1591,N,11712.2105,W,23.20,36.60,281010,,,A*7C
$GPRMC,205149.000,A,3245.1746,N,11712.1969,W,23.00,36.50,281010,,,A*7B
$GPRMC,205152.000,A,3245.1876,N,11712.1857,W,14.70,36.70,281010,,,A*70
$GPRMC,205155.000,A,3245.1995,N,11712.1754,W,22.30,36.40,281010,,,A*75
$GPRMC,205158.000,A,3245.2162,N,11712.1610,W,25.70,36.00,281010,,,A*7D
$GPRMC,205201.000,A,3245.2337,N,11712.1462,W,25.30,35.10,281010,,,A*71
$GPRMC,205204.000,A,3245.2506,N,11712.1322,W,23.90,35.30,281010,,,A*7D
$GPRMC,205207.000,A,3245.2657,N,11712.1188,W,21.90,38.10,281010,,,A*76
$GPRMC,205210.000,A,3245.2794,N,11712.1055,W,21.20,39.20,281010,,,A*76
$GPRMC,205212.000,A,3245.2881,N,11712.0967,W,20.20,41.10,281010,,,A*7B
$GPRMC,205217.000,A,3245.3060,N,11712.0809,W,14.30,34.40,281010,,,A*70
$GPRMC,205223.000,A,3245.3089,N,11712.0732,W,5.70,104.50,281010,,,A*70
$GPRMC,205226.000,A,3245.3026,N,11712.0673,W,12.20,151.60,281010,,,A*44
$GPRMC,205229.000,A,3245.2841,N,11712.0632,W,22.40,166.10,281010,,,A*40
$GPRMC,205232.000,A,3245.2640,N,11712.0577,W,25.10,166.80,281010,,,A*4C
$GPRMC,205235.000,A,3245.2371,N,11712.0517,W,30.70,168.80,281010,,,A*46
$GPRMC,205238.000,A,3245.2089,N,11712.0469,W,32.40,170.40,281010,,,A*43
$GPRMC,205241.000,A,3245.1813,N,11712.0420,W,33.00,170.40,281010,,,A*4D
$GPRMC,205244.000,A,3245.1532,N,11712.0364,W,35.30,170.40,281010,,,A*44
$GPRMC,205247.000,A,3245.1231,N,11712.0302,W,37.60,170.00,281010,,,A*40
$GPRMC,205250.000,A,3245.0918,N,11712.0236,W,38.80,169.40,281010,,,A*4C
$GPRMC,205253.000,A,3245.0596,N,11712.0159,W,39.90,167.80,281010,,,A*4D
$GPRMC,205256.000,A,3245.0268,N,11712.0061,W,41.20,164.20,281010,,,A*49
$GPRMC,205259.000,A,3244.9941,N,11711.9940,W,40.10,162.30,281010,,,A*4B
$GPRMC,205302.000,A,3244.9626,N,11711.9802,W,40.20,159.10,281010,,,A*44
$GPRMC,205305.000,A,3244.9324,N,11711.9637,W,39.20,154.40,281010,,,A*4A
$GPRMC,205308.000,A,3244.9041,N,11711.9468,W,36.00,150.40,281010,,,A*46
$GPRMC,205311.000,A,3244.8817,N,11711.9299,W,27.40,145.00,281010,,,A*48
$GPRMC,205314.000,A,3244.8649,N,11711.9160,W,21.50,145.40,281010,,,A*4E
$GPRMC,205317.000,A,3244.8565,N,11711.9065,W,10.60,140.00,281010,,,A*44
$GPRMC,205335.000,A,3244.8533,N,11711.9017,W,4.20,131.90,281010,,,A*7C
$GPRMC,205338.000,A,3244.8475,N,11711.8941,W,10.60,134.40,281010,,,A*40
$GPRMC,205341.000,A,3244.8384,N,11711.8826,W,14.40,131.80,281010,,,A*48
$GPRMC,205344.000,A,3244.8300,N,11711.8724,W,14.50,131.30,281010,,,A*46
$GPRMC,205347.000,A,3244.8205,N,11711.8586,W,19.30,131.10,281010,,,A*42
$GPRMC,205350.000,A,3244.8089,N,11711.8427,W,22.10,128.90,281010,,,A*42
$GPRMC,205353.000,A,3244.7969,N,11711.8251,W,23.80,128.90,281010,,,A*46
$GPRMC,205356.000,A,3244.7840,N,11711.8050,W,24.80,128.70,281010,,,A*43
$GPRMC,205359.000,A,3244.7697,N,11711.7842,W,27.10,129.20,281010,,,A*42
$GPRMC,205402.000,A,3244.7549,N,11711.7633,W,28.40,130.20,281010,,,A*41
$GPRMC,205405.000,A,3244.7390,N,11711.7403,W,29.80,129.60,281010,,,A*44
$GPRMC,205408.000,A,3244.7243,N,11711.7167,W,30.50,125.30,281010,,,A*4D
$GPRMC,205411.000,A,3244.7111,N,11711.6889,W,32.90,121.70,281010,,,A*47
$GPRMC,205414.000,A,3244.6939,N,11711.6608,W,37.50,124.40,281010,,,A*49
$GPRMC,205417.000,A,3244.6771,N,11711.6290,W,37.40,120.90,281010,,,A*45
$GPRMC,205420.000,A,3244.6642,N,11711.6051,W,25.30,124.30,281010,,,A*45
$GPRMC,205423.000,A,3244.6513,N,11711.6000,W,17.30,189.10,281010,,,A*41
$GPRMC,205426.000,A,3244.6415,N,11711.6069,W,13.80,240.50,281010,,,A*41
$GPRMC,205432.000,A,3244.6401,N,11711.6170,W,5.60,278.90,281010,,,A*76
$GPRMC,205435.000,A,3244.6463,N,11711.6238,W,12.00,336.40,281010,,,A*4C
$GPRMC,205438.000,A,3244.6584,N,11711.6210,W,16.50,23.20,281010,,,A*73
$GPRMC,205441.000,A,3244.6737,N,11711.6106,W,21.80,31.40,281010,,,A*7F
$GPRMC,205444.000,A,3244.6868,N,11711.5990,W,16.10,35.90,281010,,,A*7F
$GPRMC,205447.000,A,3244.6955,N,11711.5908,W,9.20,35.70,281010,,,A*41
$GPRMC,205450.000,A,3244.6992,N,11711.5876,W,3.80,35.30,281010,,,A*40
$GPRMC,205456.000,A,3244.7066,N,11711.5813,W,12.10,36.80,281010,,,A*77
$GPRMC,205459.000,A,3244.7178,N,11711.5719,W,18.90,36.50,281010,,,A*7C
$GPRMC,205502.000,A,3244.7314,N,11711.5611,W,19.50,34.60,281010,,,A*7E
$GPRMC,205505.000,A,3244.7433,N,11711.5503,W,16.90,36.40,281010,,,A*78
$GPRMC,205508.000,A,3244.7543,N,11711.5396,W,15.80,37.20,281010,,,A*7C
