NMEA Sentence Code,UTC Time,Status,Latitude,Latitude Direction,Longitude,Longitude Direction,Speed (knots),Track Angle (degrees true),Date,MagneticVariation,Magnetic Variation Direction,[FAA Mode]-Optional,Checksum
$GPRMC,201447.7,A,3324.378716,N,11648.713471,W,43.9,128.0,141010,,,A*48
$GPRMC,201450.7,A,3324.357802,N,11648.676858,W,45.3,124.2,141010,,,A*4E
$GPRMC,201453.7,A,3324.337305,N,11648.638834,W,47.1,124.5,141010,,,A*40
$GPRMC,201456.7,A,3324.314246,N,11648.600088,W,47.9,126.0,141010,,,A*49
$GPRMC,201459.9,A,3324.287535,N,11648.557142,W,49.4,126.6,141010,,,A*43
$GPRMC,201502.9,A,3324.262533,N,11648.517139,W,50.0,126.7,141010,,,A*44
$GPRMC,201505.2,A,3324.241773,N,11648.489206,W,49.5,129.3,141010,,,A*40
$GPRMC,201509.2,A,3324.207755,N,11648.439719,W,48.3,129.6,141010,,,A*48
$GPRMC,201512.2,A,3324.181302,N,11648.403724,W,47.7,130.6,141010,,,A*4D
$GPRMC,201515.2,A,3324.154487,N,11648.367693,W,47.7,132.4,141010,,,A*40
$GPRMC,201518.2,A,3324.127050,N,11648.335733,W,46.6,135.4,141010,,,A*4C
$GPRMC,201521.2,A,3324.099543,N,11648.303964,W,43.8,135.2,141010,,,A*41
$GPRMC,201524.2,A,3324.074132,N,11648.272969,W,44.2,134.2,141010,,,A*43
$GPRMC,201527.2,A,3324.048788,N,11648.240260,W,44.4,133.1,141010,,,A*49
$GPRMC,201530.2,A,3324.022832,N,11648.207181,W,45.2,133.9,141010,,,A*4D
$GPRMC,201533.2,A,3323.996976,N,11648.174766,W,46.7,134.3,141010,,,A*4D
$GPRMC,201536.2,A,3323.969681,N,11648.141591,W,47.0,134.3,141010,,,A*45
$GPRMC,201539.2,A,3323.942677,N,11648.107397,W,47.0,133.7,141010,,,A*4B
$GPRMC,201542.2,A,3323.915091,N,11648.073829,W,47.2,134.5,141010,,,A*40
$GPRMC,201545.2,A,3323.887420,N,11648.040528,W,47.0,134.3,141010,,,A*4B
$GPRMC,201548.2,A,3323.859219,N,11648.008151,W,46.7,137.8,141010,,,A*41
$GPRMC,201551.2,A,3323.829362,N,11647.978386,W,46.4,142.2,141010,,,A*41
$GPRMC,201554.2,A,3323.797990,N,11647.951692,W,46.3,146.5,141010,,,A*46
$GPRMC,201557.2,A,3323.764948,N,11647.927900,W,46.5,149.9,141010,,,A*4C
$GPRMC,201600.2,A,3323.731793,N,11647.907413,W,45.0,152.9,141010,,,A*44
$GPRMC,201603.2,A,3323.696145,N,11647.888155,W,46.7,155.4,141010,,,A*49
$GPRMC,201606.2,A,3323.660595,N,11647.869132,W,45.5,154.9,141010,,,A*4F
$GPRMC,201609.2,A,3323.627188,N,11647.850758,W,43.3,155.2,141010,,,A*41
$GPRMC,201612.2,A,3323.594378,N,11647.832737,W,43.6,155.2,141010,,,A*45
$GPRMC,201615.2,A,3323.560896,N,11647.814189,W,44.1,155.5,141010,,,A*42
$GPRMC,201618.2,A,3323.527400,N,11647.795663,W,44.2,154.1,141010,,,A*4C
$GPRMC,201621.2,A,3323.493281,N,11647.772344,W,44.8,149.4,141010,,,A*4D
$GPRMC,201624.2,A,3323.466204,N,11647.743971,W,43.5,140.6,141010,,,A*40
$GPRMC,201627.2,A,3323.438161,N,11647.717217,W,44.1,139.7,141010,,,A*4E
$GPRMC,201630.2,A,3323.410158,N,11647.689028,W,44.9,140.9,141010,,,A*48
$GPRMC,201633.2,A,3323.380855,N,11647.661761,W,44.7,143.0,141010,,,A*49
$GPRMC,201636.2,A,3323.351665,N,11647.636466,W,42.6,144.5,141010,,,A*4E
$GPRMC,201639.9,A,3323.313971,N,11647.606849,W,42.9,146.4,141010,,,A*48
$GPRMC,201642.9,A,3323.283178,N,11647.581235,W,44.3,145.7,141010,,,A*4C
$GPRMC,201645.9,A,3323.251516,N,11647.556047,W,45.0,145.8,141010,,,A*48
$GPRMC,201648.9,A,3323.217745,N,11647.528215,W,46.3,144.6,141010,,,A*40
$GPRMC,201651.9,A,3323.189983,N,11647.499976,W,44.7,139.0,141010,,,A*47
$GPRMC,201654.9,A,3323.161889,N,11647.468443,W,44.7,137.4,141010,,,A*40
$GPRMC,201658.2,A,3323.134377,N,11647.436773,W,42.8,140.3,141010,,,A*48
$GPRMC,201701.9,A,3323.104358,N,11647.401159,W,41.6,134.2,141010,,,A*45
$GPRMC,201704.2,A,3323.091079,N,11647.375120,W,39.7,121.5,141010,,,A*41
$GPRMC,201707.9,A,3323.082618,N,11647.329888,W,38.6,100.5,141010,,,A*4B
$GPRMC,201710.9,A,3323.085641,N,11647.287389,W,42.0,84.3,141010,,,A*79
$GPRMC,201713.9,A,3323.094754,N,11647.238394,W,46.6,79.7,141010,,,A*73
$GPRMC,201716.9,A,3323.102505,N,11647.191743,W,48.6,79.8,141010,,,A*71
$GPRMC,201719.9,A,3323.110317,N,11647.143564,W,50.2,80.8,141010,,,A*7B
$GPRMC,201722.9,A,3323.116659,N,11647.093334,W,50.6,81.4,141010,,,A*7C
$GPRMC,201725.2,A,3323.123161,N,11647.054887,W,50.5,80.6,141010,,,A*72
$GPRMC,201728.9,A,3323.132286,N,11646.995640,W,49.7,80.6,141010,,,A*74
$GPRMC,201731.9,A,3323.140428,N,11646.945012,W,50.1,79.7,141010,,,A*7E
$GPRMC,201734.9,A,3323.146564,N,11646.896148,W,49.5,80.7,141010,,,A*7F
$GPRMC,201737.9,A,3323.154305,N,11646.848457,W,49.2,81.0,141010,,,A*77
$GPRMC,201741.2,A,3323.150560,N,11646.797143,W,46.5,96.8,141010,,,A*77
$GPRMC,201744.9,A,3323.139258,N,11646.739490,W,49.0,101.8,141010,,,A*40
$GPRMC,201747.2,A,3323.134230,N,11646.703266,W,47.3,99.5,141010,,,A*7D
$GPRMC,201750.0,A,3323.128105,N,11646.662257,W,46.5,98.3,141010,,,A*75
$GPRMC,201753.9,A,3323.114882,N,11646.600669,W,46.9,107.3,141010,,,A*40
$GPRMC,201756.2,A,3323.102232,N,11646.568163,W,46.9,113.9,141010,,,A*47
$GPRMC,201759.9,A,3323.082692,N,11646.517264,W,46.6,113.0,141010,,,A*4E
$GPRMC,201802.9,A,3323.072960,N,11646.469201,W,48.0,102.7,141010,,,A*46
$GPRMC,201805.2,A,3323.069774,N,11646.433275,W,47.9,97.6,141010,,,A*7D
$GPRMC,201808.2,A,3323.064043,N,11646.384853,W,48.7,100.0,141010,,,A*43
$GPRMC,201811.9,A,3323.054033,N,11646.324668,W,50.0,101.6,141010,,,A*41
$GPRMC,201814.9,A,3323.045048,N,11646.276200,W,48.9,101.9,141010,,,A*4B
$GPRMC,201817.9,A,3323.038742,N,11646.229489,W,46.5,99.4,141010,,,A*7D
$GPRMC,201820.9,A,3323.032966,N,11646.185766,W,45.1,99.4,141010,,,A*7B
$GPRMC,201823.9,A,3323.027920,N,11646.144141,W,44.4,98.1,141010,,,A*70
$GPRMC,201826.9,A,3323.023875,N,11646.100823,W,45.2,97.6,141010,,,A*72
$GPRMC,201829.9,A,3323.017320,N,11646.055344,W,45.5,101.1,141010,,,A*44
$GPRMC,201833.2,A,3323.001326,N,11646.009163,W,42.8,115.5,141010,,,A*40
$GPRMC,201836.2,A,3322.978895,N,11645.971340,W,45.5,124.0,141010,,,A*4B
$GPRMC,201839.2,A,3322.959610,N,11645.932476,W,45.4,118.7,141010,,,A*48
$GPRMC,201842.9,A,3322.946912,N,11645.879657,W,44.7,103.9,141010,,,A*45
$GPRMC,201845.9,A,3322.945022,N,11645.834669,W,45.4,94.1,141010,,,A*7A
$GPRMC,201848.9,A,3322.942978,N,11645.788953,W,45.1,95.7,141010,,,A*7A
$GPRMC,201851.0,A,3322.937695,N,11645.759320,W,44.6,102.9,141010,,,A*40
$GPRMC,201854.9,A,3322.919878,N,11645.701957,W,47.3,110.1,141010,,,A*47
$GPRMC,201857.9,A,3322.907500,N,11645.658486,W,47.2,109.0,141010,,,A*4D
$GPRMC,201900.2,A,3322.897759,N,11645.624110,W,47.1,110.1,141010,,,A*48
$GPRMC,201904.2,A,3322.878544,N,11645.564411,W,48.5,112.7,141010,,,A*4F
$GPRMC,201907.2,A,3322.860854,N,11645.522238,W,48.3,118.0,141010,,,A*4D
$GPRMC,201910.9,A,3322.835471,N,11645.468167,W,51.3,118.7,141010,,,A*42
$GPRMC,201913.9,A,3322.815857,N,11645.421825,W,52.6,115.0,141010,,,A*45
$GPRMC,201916.9,A,3322.801923,N,11645.370869,W,54.4,109.2,141010,,,A*47
$GPRMC,201919.9,A,3322.790970,N,11645.316882,W,54.4,102.9,141010,,,A*4C
$GPRMC,201922.9,A,3322.785091,N,11645.267251,W,50.5,98.1,141010,,,A*7A
$GPRMC,201925.9,A,3322.781911,N,11645.218420,W,50.2,97.1,141010,,,A*78
$GPRMC,201928.9,A,3322.772333,N,11645.168467,W,48.4,103.4,141010,,,A*42
$GPRMC,201931.9,A,3322.758849,N,11645.126091,W,46.5,113.8,141010,,,A*41
$GPRMC,201934.9,A,3322.741114,N,11645.083655,W,48.5,118.3,141010,,,A*43
$GPRMC,201937.9,A,3322.722344,N,11645.043303,W,47.7,118.8,141010,,,A*4E
$GPRMC,201940.9,A,3322.704636,N,11645.000739,W,47.8,112.9,141010,,,A*44
$GPRMC,201943.9,A,3322.694361,N,11644.953287,W,47.7,105.1,141010,,,A*47
$GPRMC,201946.9,A,3322.687170,N,11644.908058,W,47.1,102.1,141010,,,A*4D
$GPRMC,201949.9,A,3322.679805,N,11644.862137,W,45.8,101.0,141010,,,A*44
$GPRMC,201952.9,A,3322.671024,N,11644.816365,W,43.5,104.4,141010,,,A*41
$GPRMC,201955.9,A,3322.663549,N,11644.779998,W,40.5,106.4,141010,,,A*44
$GPRMC,201958.9,A,3322.651863,N,11644.744950,W,37.7,116.8,141010,,,A*48
$GPRMC,202001.9,A,3322.630542,N,11644.722653,W,35.9,143.7,141010,,,A*48
$GPRMC,202004.9,A,3322.601520,N,11644.706452,W,37.9,152.5,141010,,,A*4E
$GPRMC,202007.9,A,3322.572866,N,11644.691986,W,36.3,163.4,141010,,,A*46
$GPRMC,202010.9,A,3322.544870,N,11644.695170,W,34.2,193.3,141010,,,A*4C
$GPRMC,202013.9,A,3322.521990,N,11644.720389,W,36.8,227.3,141010,,,A*4C
$GPRMC,202016.9,A,3322.510306,N,11644.755560,W,37.4,237.1,141010,,,A*43
$GPRMC,202019.9,A,3322.486121,N,11644.781890,W,37.3,215.9,141010,,,A*41
$GPRMC,202022.9,A,3322.454697,N,11644.796385,W,39.8,201.5,141010,,,A*49
$GPRMC,202025.9,A,3322.419387,N,11644.812420,W,43.7,199.9,141010,,,A*44
$GPRMC,202028.9,A,3322.384602,N,11644.821341,W,43.0,190.8,141010,,,A*4D
$GPRMC,202031.9,A,3322.346996,N,11644.825887,W,45.7,186.6,141010,,,A*44
$GPRMC,202034.9,A,3322.309553,N,11644.829672,W,46.2,182.5,141010,,,A*46
$GPRMC,202037.9,A,3322.269794,N,11644.829394,W,47.6,178.3,141010,,,A*40
$GPRMC,202041.2,A,3322.227680,N,11644.833679,W,46.6,190.4,141010,,,A*49
$GPRMC,202044.9,A,3322.181608,N,11644.848962,W,46.9,194.6,141010,,,A*48
$GPRMC,202047.9,A,3322.143981,N,11644.861922,W,45.7,196.9,141010,,,A*44
$GPRMC,202050.9,A,3322.110163,N,11644.871976,W,42.7,194.3,141010,,,A*4F
$GPRMC,202053.9,A,3322.070954,N,11644.879849,W,45.0,189.6,141010,,,A*4B
$GPRMC,202056.9,A,3322.038439,N,11644.882869,W,41.9,180.6,141010,,,A*46
$GPRMC,202059.9,A,3322.000824,N,11644.871516,W,45.6,165.3,141010,,,A*4E
$GPRMC,202102.9,A,3321.962773,N,11644.859953,W,46.2,164.1,141010,,,A*41
$GPRMC,202105.9,A,3321.930993,N,11644.848912,W,43.1,163.9,141010,,,A*4D
$GPRMC,202108.9,A,3321.896797,N,11644.836405,W,42.0,164.4,141010,,,A*4F
$GPRMC,202111.9,A,3321.862680,N,11644.823957,W,42.6,165.2,141010,,,A*44
$GPRMC,202114.9,A,3321.825418,N,11644.813949,W,44.7,166.2,141010,,,A*49
$GPRMC,202117.9,A,3321.789279,N,11644.800920,W,45.8,164.3,141010,,,A*42
$GPRMC,202120.9,A,3321.752189,N,11644.787052,W,46.6,164.6,141010,,,A*48
$GPRMC,202123.9,A,3321.712260,N,11644.777209,W,47.5,167.0,141010,,,A*4F
$GPRMC,202126.9,A,3321.675373,N,11644.765574,W,48.3,165.6,141010,,,A*4A
$GPRMC,202129.9,A,3321.636943,N,11644.752023,W,47.6,164.7,141010,,,A*42
$GPRMC,202132.9,A,3321.597185,N,11644.740501,W,48.3,166.2,141010,,,A*49
$GPRMC,202135.9,A,3321.557635,N,11644.731857,W,48.0,169.7,141010,,,A*4F
$GPRMC,202138.9,A,3321.518200,N,11644.725772,W,47.6,171.8,141010,,,A*49
$GPRMC,202141.9,A,3321.478235,N,11644.719241,W,48.1,172.3,141010,,,A*4C
$GPRMC,202144.9,A,3321.441206,N,11644.712510,W,45.2,171.8,141010,,,A*4D
$GPRMC,202147.9,A,3321.405943,N,11644.708341,W,44.4,172.8,141010,,,A*49
$GPRMC,202150.9,A,3321.365219,N,11644.703008,W,46.8,173.1,141010,,,A*49
$GPRMC,202153.9,A,3321.326508,N,11644.696149,W,46.6,171.3,141010,,,A*4D
$GPRMC,202156.9,A,3321.291048,N,11644.685596,W,44.7,162.8,141010,,,A*4A
$GPRMC,202159.2,A,3321.263435,N,11644.670267,W,45.9,154.8,141010,,,A*44
$GPRMC,202203.2,A,3321.234790,N,11644.628546,W,42.2,128.8,141010,,,A*48
$GPRMC,202206.9,A,3321.211139,N,11644.575116,W,48.0,120.0,141010,,,A*46
$GPRMC,202210.2,A,3321.189667,N,11644.529711,W,46.0,121.5,141010,,,A*46
$GPRMC,202213.2,A,3321.169699,N,11644.491154,W,45.6,121.7,141010,,,A*48
$GPRMC,202216.2,A,3321.153418,N,11644.452930,W,45.7,112.7,141010,,,A*4B
$GPRMC,202219.2,A,3321.139872,N,11644.411088,W,46.1,110.6,141010,,,A*43
$GPRMC,202222.2,A,3321.126950,N,11644.369797,W,43.5,110.9,141010,,,A*4B
$GPRMC,202225.2,A,3321.106214,N,11644.334197,W,42.3,124.3,141010,,,A*41
$GPRMC,202228.9,A,3321.076851,N,11644.289519,W,44.9,126.5,141010,,,A*47
$GPRMC,202232.2,A,3321.054116,N,11644.256084,W,41.3,131.5,141010,,,A*47
$GPRMC,202235.9,A,3321.021607,N,11644.217304,W,44.1,134.1,141010,,,A*46
$GPRMC,202238.9,A,3320.999953,N,11644.182079,W,45.5,128.0,141010,,,A*41
$GPRMC,202241.0,A,3320.982315,N,11644.158977,W,46.2,128.1,141010,,,A*41
$GPRMC,202245.2,A,3320.949029,N,11644.106638,W,45.6,127.3,141010,,,A*49
$GPRMC,202248.2,A,3320.933009,N,11644.064498,W,46.5,113.0,141010,,,A*42
$GPRMC,202251.0,A,3320.920478,N,11644.025420,W,46.1,111.3,141010,,,A*4B
$GPRMC,202255.2,A,3320.900818,N,11643.966405,W,44.0,114.8,141010,,,A*46
$GPRMC,202258.2,A,3320.880800,N,11643.927086,W,47.2,122.5,141010,,,A*48
$GPRMC,202301.0,A,3320.860875,N,11643.891146,W,47.7,123.8,141010,,,A*43
$GPRMC,202304.9,A,3320.826808,N,11643.840562,W,48.9,132.8,141010,,,A*48
$GPRMC,202307.9,A,3320.795184,N,11643.812081,W,48.1,139.3,141010,,,A*46
$GPRMC,202310.9,A,3320.765822,N,11643.777234,W,48.1,136.0,141010,,,A*46
$GPRMC,202314.2,A,3320.737539,N,11643.739797,W,46.1,132.8,141010,,,A*4D
$GPRMC,202317.9,A,3320.706794,N,11643.696411,W,47.8,130.1,141010,,,A*48
$GPRMC,202320.9,A,3320.677520,N,11643.663216,W,47.9,134.9,141010,,,A*40
$GPRMC,202323.2,A,3320.654226,N,11643.638275,W,48.4,138.7,141010,,,A*43
$GPRMC,202326.9,A,3320.622250,N,11643.596023,W,48.9,132.5,141010,,,A*4E
$GPRMC,202329.2,A,3320.600817,N,11643.566360,W,51.2,130.9,141010,,,A*45
$GPRMC,202332.2,A,3320.575139,N,11643.526789,W,48.8,127.8,141010,,,A*49
$GPRMC,202335.2,A,3320.549202,N,11643.487824,W,48.6,126.5,141010,,,A*4A
$GPRMC,202338.2,A,3320.525818,N,11643.446080,W,53.0,122.7,141010,,,A*4D
$GPRMC,202341.2,A,3320.502344,N,11643.401449,W,52.8,122.0,141010,,,A*48
$GPRMC,202344.2,A,3320.478401,N,11643.359145,W,51.8,124.6,141010,,,A*47
$GPRMC,202347.9,A,3320.443590,N,11643.307566,W,55.3,129.6,141010,,,A*42
$GPRMC,202350.9,A,3320.410025,N,11643.274808,W,52.6,137.0,141010,,,A*42
$GPRMC,202354.2,A,3320.376282,N,11643.233096,W,52.9,130.3,141010,,,A*42
$GPRMC,202357.2,A,3320.350650,N,11643.192583,W,51.6,127.4,141010,,,A*4A
$GPRMC,202400.2,A,3320.325575,N,11643.154911,W,48.9,128.7,141010,,,A*4F
$GPRMC,202403.0,A,3320.303687,N,11643.125419,W,44.9,132.3,141010,,,A*44
$GPRMC,202406.9,A,3320.271092,N,11643.093974,W,40.3,150.6,141010,,,A*4B
$GPRMC,202409.9,A,3320.235279,N,11643.083811,W,43.3,163.9,141010,,,A*4C
$GPRMC,202412.2,A,3320.208364,N,11643.071808,W,44.6,157.6,141010,,,A*41
$GPRMC,202415.9,A,3320.167577,N,11643.044941,W,45.4,150.6,141010,,,A*4D
$GPRMC,202418.9,A,3320.134501,N,11643.022304,W,45.1,150.1,141010,,,A*4E
$GPRMC,202421.9,A,3320.101694,N,11642.998064,W,45.4,144.1,141010,,,A*41
$GPRMC,202424.9,A,3320.074841,N,11642.967093,W,44.9,131.8,141010,,,A*4E
$GPRMC,202427.0,A,3320.066557,N,11642.939369,W,44.3,116.1,141010,,,A*46
$GPRMC,202430.9,A,3320.050631,N,11642.880401,W,48.3,108.7,141010,,,A*40
$GPRMC,202433.9,A,3320.038860,N,11642.836090,W,47.9,109.1,141010,,,A*44
$GPRMC,202437.2,A,3320.018135,N,11642.784827,W,49.9,117.9,141010,,,A*4B
$GPRMC,202440.9,A,3319.986978,N,11642.732619,W,51.3,126.4,141010,,,A*47
$GPRMC,202443.9,A,3319.958775,N,11642.695349,W,50.8,132.5,141010,,,A*46
$GPRMC,202446.9,A,3319.932307,N,11642.660646,W,48.9,132.8,141010,,,A*4B
$GPRMC,202449.9,A,3319.904161,N,11642.623833,W,49.5,133.8,141010,,,A*44
$GPRMC,202452.9,A,3319.876012,N,11642.591325,W,47.5,131.1,141010,,,A*4C
$GPRMC,202455.9,A,3319.854395,N,11642.549123,W,46.8,119.3,141010,,,A*42
$GPRMC,202458.9,A,3319.840128,N,11642.507124,W,47.3,108.9,141010,,,A*43
$GPRMC,202501.9,A,3319.831746,N,11642.462076,W,47.2,105.1,141010,,,A*46
$GPRMC,202504.9,A,3319.823123,N,11642.417512,W,45.9,106.4,141010,,,A*4F
$GPRMC,202507.9,A,3319.803858,N,11642.369309,W,50.2,114.2,141010,,,A*43
$GPRMC,202510.9,A,3319.786078,N,11642.325455,W,49.9,115.8,141010,,,A*43
$GPRMC,202513.9,A,3319.765157,N,11642.280335,W,49.8,118.7,141010,,,A*4D
$GPRMC,202516.9,A,3319.745304,N,11642.239941,W,47.2,122.1,141010,,,A*4E
$GPRMC,202519.9,A,3319.720044,N,11642.207814,W,44.8,136.6,141010,,,A*42
$GPRMC,202522.9,A,3319.690233,N,11642.180111,W,44.4,141.9,141010,,,A*41
$GPRMC,202525.9,A,3319.658389,N,11642.160065,W,43.6,156.1,141010,,,A*45
$GPRMC,202528.9,A,3319.620716,N,11642.148310,W,46.1,164.9,141010,,,A*45
$GPRMC,202531.9,A,3319.581852,N,11642.135714,W,48.2,167.2,141010,,,A*45
$GPRMC,202534.2,A,3319.552211,N,11642.129941,W,49.0,168.3,141010,,,A*46
$GPRMC,202538.2,A,3319.495734,N,11642.115877,W,47.5,170.0,141010,,,A*48
$GPRMC,202541.0,A,3319.458891,N,11642.106183,W,48.5,167.7,141010,,,A*4B
$GPRMC,202544.9,A,3319.409998,N,11642.094305,W,45.4,165.9,141010,,,A*4D
$GPRMC,202547.9,A,3319.373723,N,11642.076324,W,44.9,153.2,141010,,,A*47
$GPRMC,202551.2,A,3319.348225,N,11642.041178,W,41.1,127.4,141010,,,A*47
$GPRMC,202554.2,A,3319.331560,N,11642.008000,W,37.3,122.3,141010,,,A*48
$GPRMC,202558.2,A,3319.308976,N,11641.968416,W,35.3,127.5,141010,,,A*4B
$GPRMC,202601.0,A,3319.296919,N,11641.951791,W,25.8,133.9,141010,,,A*4C
$GPRMC,202604.9,A,3319.275733,N,11641.935494,W,25.1,152.4,141010,,,A*4C
$GPRMC,202607.9,A,3319.250173,N,11641.929151,W,32.0,166.1,141010,,,A*4E
$GPRMC,202610.9,A,3319.218611,N,11641.916963,W,39.9,162.8,141010,,,A*4D
$GPRMC,202613.9,A,3319.187620,N,11641.904987,W,40.8,163.1,141010,,,A*47
$GPRMC,202616.9,A,3319.153022,N,11641.889868,W,41.7,159.9,141010,,,A*44
$GPRMC,202619.9,A,3319.124897,N,11641.870475,W,39.1,144.8,141010,,,A*4F
$GPRMC,202622.9,A,3319.108520,N,11641.838979,W,36.6,116.8,141010,,,A*4A
$GPRMC,202625.9,A,3319.102040,N,11641.801211,W,38.2,106.1,141010,,,A*49
$GPRMC,202628.9,A,3319.088047,N,11641.764883,W,41.1,119.2,141010,,,A*4D
$GPRMC,202631.0,A,3319.075121,N,11641.740462,W,41.7,123.3,141010,,,A*44
$GPRMC,202634.2,A,3319.052794,N,11641.702231,W,42.8,125.3,141010,,,A*42
$GPRMC,202637.9,A,3319.018247,N,11641.658886,W,47.6,132.6,141010,,,A*4F
$GPRMC,202640.9,A,3318.987232,N,11641.635515,W,45.0,146.3,141010,,,A*4D
$GPRMC,202643.9,A,3318.952532,N,11641.620792,W,45.1,158.1,141010,,,A*44
$GPRMC,202646.9,A,3318.917203,N,11641.608498,W,44.9,161.8,141010,,,A*4C
$GPRMC,202649.9,A,3318.881092,N,11641.592271,W,46.2,163.2,141010,,,A*47
$GPRMC,202652.2,A,3318.847726,N,11641.581002,W,49.6,163.7,141010,,,A*4E
$GPRMC,202655.2,A,3318.806483,N,11641.567763,W,50.9,167.4,141010,,,A*48
$GPRMC,202659.2,A,3318.754125,N,11641.558277,W,51.3,172.9,141010,,,A*4B
$GPRMC,202702.2,A,3318.710239,N,11641.557940,W,53.2,180.4,141010,,,A*49
$GPRMC,202705.2,A,3318.664183,N,11641.559779,W,55.3,182.1,141010,,,A*44
$GPRMC,202708.2,A,3318.617481,N,11641.564303,W,56.0,184.2,141010,,,A*48
$GPRMC,202711.2,A,3318.570516,N,11641.568324,W,55.9,184.4,141010,,,A*48
$GPRMC,202714.2,A,3318.524957,N,11641.571446,W,53.2,182.8,141010,,,A*49
$GPRMC,202717.2,A,3318.482750,N,11641.569261,W,48.8,170.9,141010,,,A*48
$GPRMC,202720.2,A,3318.443762,N,11641.557202,W,48.2,160.2,141010,,,A*48
$GPRMC,202724.2,A,3318.395996,N,11641.531055,W,46.3,153.0,141010,,,A*48
$GPRMC,202727.2,A,3318.364868,N,11641.509289,W,42.5,150.6,141010,,,A*4A
$GPRMC,202730.9,A,3318.326674,N,11641.488102,W,40.2,155.9,141010,,,A*45
$GPRMC,202733.2,A,3318.302186,N,11641.479963,W,40.3,163.0,141010,,,A*4D
$GPRMC,202736.9,A,3318.259637,N,11641.471559,W,43.6,171.7,141010,,,A*4E
$GPRMC,202739.9,A,3318.219913,N,11641.471185,W,47.2,180.4,141010,,,A*44
$GPRMC,202743.2,A,3318.176615,N,11641.473153,W,47.0,180.6,141010,,,A*48
$GPRMC,202746.2,A,3318.136225,N,11641.474075,W,48.1,179.2,141010,,,A*40
$GPRMC,202749.2,A,3318.096257,N,11641.469330,W,47.4,170.5,141010,,,A*4B
$GPRMC,202752.9,A,3318.048032,N,11641.446997,W,50.6,157.6,141010,,,A*40
$GPRMC,202755.2,A,3318.017224,N,11641.428224,W,51.8,155.4,141010,,,A*47
$GPRMC,202758.2,A,3317.978932,N,11641.408301,W,49.6,158.0,141010,,,A*43
$GPRMC,202801.0,A,3317.942301,N,11641.383869,W,52.5,156.3,141010,,,A*44
$GPRMC,202804.2,A,3317.902333,N,11641.357363,W,51.4,152.2,141010,,,A*49
$GPRMC,202807.9,A,3317.852719,N,11641.326525,W,53.4,153.1,141010,,,A*4B
$GPRMC,202810.9,A,3317.815791,N,11641.305931,W,49.5,153.6,141010,,,A*4B
$GPRMC,202813.9,A,3317.779729,N,11641.282315,W,50.2,150.0,141010,,,A*46
$GPRMC,202816.9,A,3317.743131,N,11641.255250,W,51.8,146.6,141010,,,A*45
$GPRMC,202819.2,A,3317.717465,N,11641.231917,W,51.0,143.9,141010,,,A*4C
$GPRMC,202822.2,A,3317.684387,N,11641.201495,W,50.5,143.7,141010,,,A*4A
$GPRMC,202825.2,A,3317.648275,N,11641.171470,W,50.3,144.3,141010,,,A*4B
$GPRMC,202828.2,A,3317.611436,N,11641.145987,W,50.8,149.8,141010,,,A*44
$GPRMC,202831.2,A,3317.576003,N,11641.123289,W,48.6,152.2,141010,,,A*4E
$GPRMC,202834.2,A,3317.540312,N,11641.101993,W,49.3,158.0,141010,,,A*41
$GPRMC,202837.2,A,3317.501808,N,11641.088030,W,47.3,166.8,141010,,,A*4C
$GPRMC,202840.2,A,3317.457042,N,11641.085366,W,51.2,176.3,141010,,,A*49
$GPRMC,202843.2,A,3317.414416,N,11641.080139,W,50.8,170.8,141010,,,A*43
$GPRMC,202846.9,A,3317.364528,N,11641.059061,W,52.6,157.7,141010,,,A*4F
$GPRMC,202849.2,A,3317.337621,N,11641.035501,W,52.1,148.2,141010,,,A*42
$GPRMC,202852.2,A,3317.314861,N,11640.991893,W,51.6,119.8,141010,,,A*49
$GPRMC,202855.2,A,3317.293546,N,11640.945549,W,53.2,118.8,141010,,,A*4C
$GPRMC,202858.2,A,3317.271656,N,11640.898452,W,54.7,118.9,141010,,,A*46
$GPRMC,202901.2,A,3317.249193,N,11640.850252,W,55.3,118.7,141010,,,A*47
$GPRMC,202904.2,A,3317.226403,N,11640.800362,W,56.5,118.3,141010,,,A*41
$GPRMC,202907.2,A,3317.205453,N,11640.749627,W,56.6,117.5,141010,,,A*4A
$GPRMC,202910.2,A,3317.181445,N,11640.701166,W,56.6,118.9,141010,,,A*49
$GPRMC,202913.2,A,3317.157019,N,11640.650590,W,57.4,119.1,141010,,,A*4E
$GPRMC,202916.2,A,3317.133402,N,11640.599342,W,57.9,119.8,141010,,,A*4C
$GPRMC,202919.2,A,3317.111481,N,11640.552208,W,55.3,118.4,141010,,,A*45
$GPRMC,202922.9,A,3317.090905,N,11640.491115,W,54.1,109.1,141010,,,A*48
$GPRMC,202926.2,A,3317.088310,N,11640.431927,W,55.0,91.5,141010,,,A*77
$GPRMC,202929.9,A,3317.089593,N,11640.365820,W,54.8,88.3,141010,,,A*78
$GPRMC,202932.9,A,3317.094521,N,11640.311585,W,53.6,86.8,141010,,,A*7A
$GPRMC,202935.9,A,3317.099123,N,11640.255838,W,55.0,85.9,141010,,,A*7E
$GPRMC,202938.9,A,3317.099930,N,11640.202121,W,53.8,87.0,141010,,,A*7F
$GPRMC,202941.9,A,3317.101790,N,11640.148400,W,54.3,87.7,141010,,,A*75
$GPRMC,202945.2,A,3317.102685,N,11640.090714,W,52.7,87.6,141010,,,A*7D
$GPRMC,202948.0,A,3317.105394,N,11640.042738,W,53.4,86.9,141010,,,A*7D
$GPRMC,202951.9,A,3317.109319,N,11639.970779,W,54.7,87.5,141010,,,A*7F
$GPRMC,202954.9,A,3317.110227,N,11639.917477,W,54.6,88.7,141010,,,A*7E
$GPRMC,202957.2,A,3317.110904,N,11639.877325,W,52.6,87.9,141010,,,A*7C
$GPRMC,203000.9,A,3317.114420,N,11639.816205,W,49.6,85.9,141010,,,A*7E
$GPRMC,203003.2,A,3317.119999,N,11639.779630,W,46.9,81.2,141010,,,A*7F
$GPRMC,203006.2,A,3317.135404,N,11639.735424,W,48.1,64.7,141010,,,A*7A
$GPRMC,203009.2,A,3317.152194,N,11639.692347,W,49.1,66.3,141010,,,A*71
$GPRMC,203012.2,A,3317.167835,N,11639.649034,W,47.9,67.2,141010,,,A*78
$GPRMC,203015.2,A,3317.183327,N,11639.605517,W,46.8,67.0,141010,,,A*73
$GPRMC,203019.2,A,3317.204936,N,11639.550134,W,45.6,62.7,141010,,,A*70
$GPRMC,203022.9,A,3317.234211,N,11639.504396,W,47.6,50.7,141010,,,A*76
$GPRMC,203025.9,A,3317.261775,N,11639.465330,W,49.6,52.3,141010,,,A*74
$GPRMC,203028.2,A,3317.278517,N,11639.433572,W,49.2,58.1,141010,,,A*73
$GPRMC,203031.9,A,3317.299776,N,11639.382204,W,46.1,64.6,141010,,,A*75
$GPRMC,203034.9,A,3317.311724,N,11639.339255,W,45.5,72.7,141010,,,A*73
$GPRMC,203037.2,A,3317.317100,N,11639.305040,W,44.9,78.0,141010,,,A*74
$GPRMC,203040.2,A,3317.317779,N,11639.260755,W,44.5,87.3,141010,,,A*72
$GPRMC,203043.9,A,3317.314416,N,11639.206236,W,43.5,94.2,141010,,,A*77
$GPRMC,203046.2,A,3317.310443,N,11639.174523,W,42.6,98.2,141010,,,A*76
$GPRMC,203049.2,A,3317.304493,N,11639.129372,W,47.0,101.2,141010,,,A*49
$GPRMC,203052.9,A,3317.296642,N,11639.072817,W,46.1,99.9,141010,,,A*70
$GPRMC,203055.2,A,3317.289203,N,11639.036781,W,49.2,101.6,141010,,,A*40
$GPRMC,203058.2,A,3317.280253,N,11638.988185,W,49.2,101.6,141010,,,A*4E
$GPRMC,203101.2,A,3317.271900,N,11638.942199,W,48.3,102.2,141010,,,A*4C
$GPRMC,203104.2,A,3317.263637,N,11638.895313,W,47.7,101.8,141010,,,A*48
$GPRMC,203107.2,A,3317.256193,N,11638.847970,W,48.1,101.2,141010,,,A*47
$GPRMC,203110.2,A,3317.249609,N,11638.801248,W,46.7,101.0,141010,,,A*43
$GPRMC,203113.2,A,3317.241488,N,11638.755920,W,46.5,105.7,141010,,,A*49
$GPRMC,203116.9,A,3317.222675,N,11638.704744,W,46.2,116.3,141010,,,A*4B
$GPRMC,203119.9,A,3317.205375,N,11638.664515,W,44.1,114.5,141010,,,A*40
$GPRMC,203122.9,A,3317.196482,N,11638.621412,W,44.1,99.4,141010,,,A*7C
$GPRMC,203125.9,A,3317.195690,N,11638.577810,W,44.5,92.1,141010,,,A*7D
$GPRMC,203128.9,A,3317.195174,N,11638.532482,W,45.3,91.9,141010,,,A*77
$GPRMC,203131.9,A,3317.187064,N,11638.481369,W,49.7,97.2,141010,,,A*72
$GPRMC,203134.9,A,3317.183147,N,11638.432867,W,49.9,97.3,141010,,,A*71
$GPRMC,203137.2,A,3317.178283,N,11638.396259,W,46.6,99.3,141010,,,A*76
$GPRMC,203140.9,A,3317.173176,N,11638.342970,W,42.2,100.5,141010,,,A*41
$GPRMC,203144.2,A,3317.152469,N,11638.301743,W,40.5,121.2,141010,,,A*4E
$GPRMC,203147.9,A,3317.130150,N,11638.272182,W,34.7,125.4,141010,,,A*40
$GPRMC,203150.9,A,3317.118599,N,11638.243407,W,33.6,109.4,141010,,,A*4F
$GPRMC,203153.2,A,3317.117226,N,11638.216991,W,33.7,100.4,141010,,,A*41
$GPRMC,203156.9,A,3317.107610,N,11638.176705,W,33.8,107.6,141010,,,A*43
$GPRMC,203159.2,A,3317.098256,N,11638.153085,W,32.4,114.3,141010,,,A*44
$GPRMC,203202.9,A,3317.078716,N,11638.117663,W,34.6,129.3,141010,,,A*49
$GPRMC,203205.9,A,3317.057281,N,11638.096406,W,35.8,142.6,141010,,,A*46
$GPRMC,203208.9,A,3317.030543,N,11638.078105,W,36.7,153.2,141010,,,A*4D
$GPRMC,203211.9,A,3317.002103,N,11638.067264,W,35.8,161.0,141010,,,A*41
$GPRMC,203214.9,A,3316.974181,N,11638.055425,W,35.4,159.4,141010,,,A*46
$GPRMC,203217.9,A,3316.945423,N,11638.041358,W,35.8,157.0,141010,,,A*44
$GPRMC,203220.9,A,3316.918392,N,11638.028666,W,35.8,157.0,141010,,,A*42
$GPRMC,203223.9,A,3316.890436,N,11638.017563,W,35.4,161.0,141010,,,A*4A
$GPRMC,203226.9,A,3316.863318,N,11638.005301,W,33.7,165.5,141010,,,A*4D
$GPRMC,203229.9,A,3316.837739,N,11638.000422,W,31.6,169.7,141010,,,A*4A
$GPRMC,203232.9,A,3316.811148,N,11637.997582,W,30.6,173.4,141010,,,A*4E
$GPRMC,203235.9,A,3316.788971,N,11637.994694,W,25.6,175.6,141010,,,A*43
$GPRMC,203238.9,A,3316.773939,N,11637.993794,W,14.4,173.9,141010,,,A*49
$GPRMC,203241.9,A,3316.768219,N,11637.987136,W,12.5,120.3,141010,,,A*44
$GPRMC,203244.9,A,3316.767129,N,11637.970618,W,16.0,96.4,141010,,,A*77
$GPRMC,203247.9,A,3316.767192,N,11637.959674,W,9.5,95.0,141010,,,A*49
$GPRMC,203250.9,A,3316.773053,N,11637.955192,W,5.4,22.8,141010,,,A*4C
$GPRMC,203253.9,A,3316.775400,N,11637.961992,W,8.8,266.7,141010,,,A*78
$GPRMC,203256.9,A,3316.774599,N,11637.975436,W,12.8,268.5,141010,,,A*4C
$GPRMC,203259.9,A,3316.775655,N,11637.985724,W,8.1,274.5,141010,,,A*71
$GPRMC,203314.9,A,3316.770316,N,11638.000888,W,10.9,229.8,141010,,,A*48
$GPRMC,203317.9,A,3316.758717,N,11638.009710,W,17.2,205.5,141010,,,A*4C
$GPRMC,203320.9,A,3316.739695,N,11638.022411,W,26.9,217.2,141010,,,A*42
$GPRMC,203323.9,A,3316.721979,N,11638.044769,W,32.8,233.1,141010,,,A*48
$GPRMC,203326.9,A,3316.712722,N,11638.078699,W,37.7,256.1,141010,,,A*45
$GPRMC,203330.2,A,3316.706150,N,11638.126973,W,44.7,261.4,141010,,,A*4B
$GPRMC,203333.2,A,3316.702572,N,11638.173281,W,47.0,263.4,141010,,,A*48
$GPRMC,203336.9,A,3316.695368,N,11638.230765,W,48.5,261.3,141010,,,A*40
$GPRMC,203340.2,A,3316.686407,N,11638.284958,W,51.3,257.5,141010,,,A*44
$GPRMC,203343.9,A,3316.669310,N,11638.345597,W,50.2,249.4,141010,,,A*41
$GPRMC,203346.9,A,3316.650591,N,11638.389897,W,49.8,242.9,141010,,,A*48
$GPRMC,203349.2,A,3316.633668,N,11638.422831,W,49.9,239.0,141010,,,A*42
$GPRMC,203353.2,A,3316.601073,N,11638.477251,W,47.4,231.3,141010,,,A*40
$GPRMC,203356.2,A,3316.576372,N,11638.510369,W,42.4,226.4,141010,,,A*4A
$GPRMC,203359.2,A,3316.552220,N,11638.538835,W,37.4,223.9,141010,,,A*47
$GPRMC,203402.9,A,3316.525797,N,11638.569661,W,34.9,221.6,141010,,,A*44
$GPRMC,203405.9,A,3316.507433,N,11638.589829,W,30.6,222.9,141010,,,A*45
$GPRMC,203408.9,A,3316.491039,N,11638.609889,W,30.0,224.3,141010,,,A*43
$GPRMC,203411.9,A,3316.471805,N,11638.630293,W,30.3,222.7,141010,,,A*48
$GPRMC,203414.9,A,3316.454652,N,11638.650550,W,26.8,222.9,141010,,,A*4A
$GPRMC,203417.9,A,3316.438587,N,11638.668028,W,26.1,222.1,141010,,,A*48
$GPRMC,203420.9,A,3316.421700,N,11638.684793,W,27.2,222.8,141010,,,A*47
$GPRMC,203423.9,A,3316.404137,N,11638.705083,W,29.1,224.7,141010,,,A*4B
$GPRMC,203426.9,A,3316.384708,N,11638.728269,W,32.5,223.1,141010,,,A*4D
$GPRMC,203429.9,A,3316.369362,N,11638.751905,W,33.4,230.2,141010,,,A*47
$GPRMC,203432.9,A,3316.350954,N,11638.780977,W,37.4,236.3,141010,,,A*42
$GPRMC,203435.9,A,3316.337678,N,11638.817203,W,39.3,248.3,141010,,,A*4C
$GPRMC,203438.9,A,3316.329651,N,11638.854319,W,41.6,258.2,141010,,,A*42
$GPRMC,203441.9,A,3316.322849,N,11638.895396,W,44.0,261.2,141010,,,A*43
$GPRMC,203444.9,A,3316.314657,N,11638.942835,W,48.1,259.7,141010,,,A*48
$GPRMC,203447.9,A,3316.306237,N,11638.988586,W,48.6,257.9,141010,,,A*4E
$GPRMC,203450.9,A,3316.295666,N,11639.036153,W,49.2,252.1,141010,,,A*4A
$GPRMC,203453.9,A,3316.279901,N,11639.082431,W,50.2,246.8,141010,,,A*4F
$GPRMC,203456.9,A,3316.260844,N,11639.129749,W,49.8,245.0,141010,,,A*47
$GPRMC,203459.9,A,3316.245261,N,11639.173141,W,47.2,245.4,141010,,,A*43
$GPRMC,203502.9,A,3316.229596,N,11639.213145,W,44.9,244.6,141010,,,A*43
$GPRMC,203505.9,A,3316.212834,N,11639.251005,W,42.8,238.5,141010,,,A*45
$GPRMC,203508.9,A,3316.188898,N,11639.282211,W,41.4,226.7,141010,,,A*45
$GPRMC,203511.9,A,3316.163027,N,11639.304864,W,41.0,214.3,141010,,,A*42
$GPRMC,203514.2,A,3316.135916,N,11639.314781,W,44.0,196.6,141010,,,A*48
$GPRMC,203517.9,A,3316.090822,N,11639.327513,W,44.0,191.3,141010,,,A*43
$GPRMC,203520.2,A,3316.066701,N,11639.336961,W,40.3,196.0,141010,,,A*41
$GPRMC,203523.0,A,3316.038142,N,11639.365285,W,44.9,217.3,141010,,,A*4A
$GPRMC,203526.2,A,3316.006542,N,11639.399312,W,45.6,219.5,141010,,,A*4E
$GPRMC,203529.9,A,3315.971404,N,11639.438311,W,46.7,222.0,141010,,,A*43
$GPRMC,203532.9,A,3315.943615,N,11639.470342,W,48.7,224.0,141010,,,A*48
$GPRMC,203536.2,A,3315.909828,N,11639.507104,W,50.4,222.1,141010,,,A*45
$GPRMC,203539.2,A,3315.879922,N,11639.541680,W,47.6,223.1,141010,,,A*4B
$GPRMC,203542.9,A,3315.844825,N,11639.582338,W,47.4,223.6,141010,,,A*48
$GPRMC,203546.2,A,3315.812249,N,11639.618682,W,46.8,222.7,141010,,,A*4D
$GPRMC,203549.9,A,3315.781222,N,11639.655860,W,43.2,225.2,141010,,,A*47
$GPRMC,203552.9,A,3315.756358,N,11639.683270,W,41.5,223.2,141010,,,A*48
$GPRMC,203555.2,A,3315.736528,N,11639.704895,W,41.4,223.5,141010,,,A*4A
$GPRMC,203558.2,A,3315.708149,N,11639.737629,W,46.6,225.1,141010,,,A*47
$GPRMC,203601.9,A,3315.674899,N,11639.781166,W,49.0,227.0,141010,,,A*46
$GPRMC,203604.2,A,3315.653221,N,11639.808145,W,49.1,226.3,141010,,,A*48
$GPRMC,203607.2,A,3315.626530,N,11639.844303,W,48.2,226.9,141010,,,A*4E
$GPRMC,203610.2,A,3315.600192,N,11639.878236,W,44.7,227.8,141010,,,A*41
$GPRMC,203613.9,A,3315.569405,N,11639.919123,W,44.8,227.4,141010,,,A*4C
$GPRMC,203616.9,A,3315.544172,N,11639.950393,W,44.2,226.5,141010,,,A*4D
$GPRMC,203619.9,A,3315.519506,N,11639.982948,W,43.7,227.8,141010,,,A*40
$GPRMC,203622.9,A,3315.494926,N,11640.014205,W,44.0,228.0,141010,,,A*4F
$GPRMC,203625.9,A,3315.471116,N,11640.047488,W,43.2,224.4,141010,,,A*40
$GPRMC,203629.2,A,3315.437161,N,11640.076694,W,45.0,213.4,141010,,,A*48
$GPRMC,203632.2,A,3315.399957,N,11640.091388,W,45.5,201.5,141010,,,A*4A
$GPRMC,203635.2,A,3315.362241,N,11640.103638,W,46.7,196.7,141010,,,A*4F
$GPRMC,203638.2,A,3315.325502,N,11640.116769,W,46.2,196.9,141010,,,A*4B
$GPRMC,203641.2,A,3315.287902,N,11640.130398,W,46.9,198.0,141010,,,A*42
$GPRMC,203644.2,A,3315.251786,N,11640.146315,W,45.3,201.8,141010,,,A*48
$GPRMC,203647.2,A,3315.217760,N,11640.163319,W,46.2,204.9,141010,,,A*4C
$GPRMC,203650.2,A,3315.183197,N,11640.183789,W,46.3,207.6,141010,,,A*44
$GPRMC,203653.2,A,3315.148821,N,11640.209725,W,47.5,211.8,141010,,,A*4D
$GPRMC,203656.9,A,3315.108511,N,11640.246422,W,48.2,218.0,141010,,,A*4F
$GPRMC,203659.9,A,3315.079469,N,11640.276052,W,46.1,221.0,141010,,,A*4E
$GPRMC,203702.9,A,3315.049486,N,11640.306437,W,47.9,218.8,141010,,,A*49
$GPRMC,203705.9,A,3315.027821,N,11640.338049,W,42.5,227.2,141010,,,A*48
$GPRMC,203709.2,A,3315.003666,N,11640.372218,W,40.5,230.5,141010,,,A*4F
$GPRMC,203712.9,A,3314.977896,N,11640.412326,W,39.7,232.7,141010,,,A*45
$GPRMC,203715.9,A,3314.960093,N,11640.444395,W,39.6,235.1,141010,,,A*42
$GPRMC,203718.2,A,3314.943873,N,11640.471585,W,42.0,236.3,141010,,,A*49
$GPRMC,203722.0,A,3314.915896,N,11640.516174,W,44.4,234.0,141010,,,A*43
$GPRMC,203725.2,A,3314.894020,N,11640.553273,W,44.3,234.6,141010,,,A*4F
$GPRMC,203728.2,A,3314.872871,N,11640.587173,W,44.8,233.8,141010,,,A*4E
$GPRMC,203731.2,A,3314.849935,N,11640.626684,W,46.2,234.6,141010,,,A*49
$GPRMC,203734.9,A,3314.819547,N,11640.674752,W,49.0,233.2,141010,,,A*48
$GPRMC,203737.9,A,3314.796679,N,11640.712386,W,47.5,234.6,141010,,,A*49
$GPRMC,203740.9,A,3314.773419,N,11640.751156,W,47.9,233.6,141010,,,A*45
$GPRMC,203743.9,A,3314.747884,N,11640.788649,W,48.7,233.6,141010,,,A*45
$GPRMC,203746.9,A,3314.723675,N,11640.829627,W,49.0,233.9,141010,,,A*47
$GPRMC,203749.2,A,3314.705691,N,11640.859280,W,49.2,233.4,141010,,,A*4C
$GPRMC,203752.9,A,3314.675793,N,11640.907392,W,48.4,233.3,141010,,,A*40
$GPRMC,203756.2,A,3314.649836,N,11640.950602,W,48.1,234.5,141010,,,A*4A
$GPRMC,203759.9,A,3314.624000,N,11640.998646,W,47.3,238.2,141010,,,A*4A
$GPRMC,203802.2,A,3314.609578,N,11641.029963,W,46.5,240.8,141010,,,A*4D
$GPRMC,203805.2,A,3314.590294,N,11641.071676,W,46.9,241.3,141010,,,A*4C
$GPRMC,203808.0,A,3314.573318,N,11641.107770,W,45.7,241.6,141010,,,A*44
$GPRMC,203811.0,A,3314.553766,N,11641.149744,W,47.7,240.4,141010,,,A*4F
$GPRMC,203814.2,A,3314.535622,N,11641.192165,W,45.0,241.7,141010,,,A*4D
$GPRMC,203817.2,A,3314.518211,N,11641.230341,W,43.5,241.8,141010,,,A*46
$GPRMC,203820.9,A,3314.495618,N,11641.276461,W,43.6,239.3,141010,,,A*40
$GPRMC,203823.9,A,3314.474063,N,11641.311912,W,43.1,233.0,141010,,,A*41
$GPRMC,203826.9,A,3314.450207,N,11641.345985,W,44.9,231.6,141010,,,A*46
$GPRMC,203829.9,A,3314.427417,N,11641.379721,W,44.9,231.3,141010,,,A*44
$GPRMC,203832.9,A,3314.403520,N,11641.415056,W,45.8,231.5,141010,,,A*41
$GPRMC,203835.9,A,3314.382719,N,11641.446200,W,41.5,228.0,141010,,,A*43
$GPRMC,203838.9,A,3314.356483,N,11641.472890,W,41.7,218.8,141010,,,A*4A
$GPRMC,203841.9,A,3314.324498,N,11641.495734,W,43.0,213.0,141010,,,A*45
$GPRMC,203844.9,A,3314.293140,N,11641.521814,W,44.8,214.9,141010,,,A*4F
$GPRMC,203847.9,A,3314.262110,N,11641.545222,W,45.6,214.5,141010,,,A*49
$GPRMC,203850.9,A,3314.231477,N,11641.570249,W,46.8,214.2,141010,,,A*4C
$GPRMC,203853.2,A,3314.205272,N,11641.589593,W,50.3,211.2,141010,,,A*4F
$GPRMC,203856.9,A,3314.161296,N,11641.617947,W,49.4,207.5,141010,,,A*44
$GPRMC,203859.9,A,3314.124105,N,11641.627672,W,46.5,199.7,141010,,,A*41
$GPRMC,203902.2,A,3314.096111,N,11641.642356,W,46.4,203.1,141010,,,A*4F
$GPRMC,203905.0,A,3314.064766,N,11641.660938,W,44.6,204.3,141010,,,A*46
$GPRMC,203908.9,A,3314.025659,N,11641.689581,W,41.3,213.3,141010,,,A*45
$GPRMC,203911.0,A,3314.005743,N,11641.708240,W,41.9,215.3,141010,,,A*42
$GPRMC,203914.2,A,3313.979516,N,11641.734374,W,37.7,218.5,141010,,,A*4F
$GPRMC,203923.2,A,3313.924320,N,11641.796304,W,31.4,220.1,141010,,,A*45
$GPRMC,203926.0,A,3313.904923,N,11641.815395,W,36.3,220.6,141010,,,A*42
$GPRMC,203929.9,A,3313.874969,N,11641.850052,W,38.9,224.4,141010,,,A*47
$GPRMC,203933.2,A,3313.845537,N,11641.883425,W,42.9,226.5,141010,,,A*46
$GPRMC,203936.2,A,3313.817471,N,11641.915370,W,46.8,224.4,141010,,,A*48
$GPRMC,203939.2,A,3313.787928,N,11641.947919,W,47.9,223.2,141010,,,A*43
$GPRMC,203942.2,A,3313.757417,N,11641.982084,W,50.1,222.8,141010,,,A*42
$GPRMC,203945.2,A,3313.726763,N,11642.015853,W,49.9,222.9,141010,,,A*44
$GPRMC,203948.2,A,3313.694369,N,11642.048151,W,50.9,220.7,141010,,,A*48
$GPRMC,203951.2,A,3313.660781,N,11642.076978,W,50.5,213.6,141010,,,A*4A
$GPRMC,203954.2,A,3313.622092,N,11642.097133,W,51.2,205.8,141010,,,A*4B
$GPRMC,203957.2,A,3313.584365,N,11642.116899,W,49.4,207.3,141010,,,A*4B
$GPRMC,204000.9,A,3313.535718,N,11642.143259,W,52.2,207.3,141010,,,A*42
$GPRMC,204003.9,A,3313.496991,N,11642.164055,W,51.7,204.1,141010,,,A*4A
$GPRMC,204006.9,A,3313.458639,N,11642.187968,W,51.4,206.0,141010,,,A*4A
$GPRMC,204009.9,A,3313.418512,N,11642.210486,W,51.7,207.1,141010,,,A*48
$GPRMC,204012.0,A,3313.393491,N,11642.227326,W,51.1,208.2,141010,,,A*46
$GPRMC,204016.2,A,3313.336558,N,11642.261356,W,52.6,205.0,141010,,,A*45
$GPRMC,204019.9,A,3313.293714,N,11642.287238,W,48.8,204.8,141010,,,A*48
$GPRMC,204022.9,A,3313.257885,N,11642.312486,W,48.6,206.4,141010,,,A*41
$GPRMC,204025.9,A,3313.220088,N,11642.333541,W,48.9,205.9,141010,,,A*4B
$GPRMC,204028.9,A,3313.186592,N,11642.350022,W,45.1,203.4,141010,,,A*4C
$GPRMC,204031.9,A,3313.151207,N,11642.369280,W,46.3,202.7,141010,,,A*46
$GPRMC,204034.9,A,3313.116670,N,11642.381959,W,46.1,204.3,141010,,,A*4D
$GPRMC,204037.2,A,3313.089847,N,11642.397508,W,45.8,208.3,141010,,,A*41
$GPRMC,204040.9,A,3313.051464,N,11642.429666,W,46.6,218.8,141010,,,A*4C
$GPRMC,204044.1,A,3313.021030,N,11642.465856,W,48.4,224.6,141010,,,A*4A
$GPRMC,204047.9,A,3312.988721,N,11642.509403,W,46.6,227.6,141010,,,A*45
$GPRMC,204051.2,A,3312.955391,N,11642.538371,W,45.3,216.5,141010,,,A*41
$GPRMC,204054.9,A,3312.920065,N,11642.572782,W,44.6,214.3,141010,,,A*43
$GPRMC,204057.9,A,3312.887118,N,11642.589546,W,43.3,199.1,141010,,,A*4F
$GPRMC,204100.9,A,3312.848353,N,11642.594559,W,46.9,191.2,141010,,,A*44
$GPRMC,204103.9,A,3312.808063,N,11642.603003,W,48.1,190.5,141010,,,A*44
$GPRMC,204106.2,A,3312.778318,N,11642.610003,W,47.4,191.1,141010,,,A*40
$GPRMC,204109.2,A,3312.739405,N,11642.619631,W,46.1,192.7,141010,,,A*4E
$GPRMC,204112.9,A,3312.689790,N,11642.633682,W,48.5,192.3,141010,,,A*44
$GPRMC,204115.9,A,3312.650533,N,11642.644170,W,50.5,191.8,141010,,,A*47
$GPRMC,204118.9,A,3312.608341,N,11642.652923,W,51.8,190.9,141010,,,A*41
$GPRMC,204121.9,A,3312.566830,N,11642.664050,W,51.8,192.7,141010,,,A*49
$GPRMC,204124.9,A,3312.525962,N,11642.673143,W,49.9,191.2,141010,,,A*46
$GPRMC,204127.9,A,3312.485297,N,11642.680863,W,49.4,189.3,141010,,,A*4D
$GPRMC,204130.2,A,3312.451738,N,11642.687490,W,51.0,187.9,141010,,,A*47
$GPRMC,204133.2,A,3312.411551,N,11642.689554,W,49.3,180.4,141010,,,A*4A
$GPRMC,204136.2,A,3312.370375,N,11642.689227,W,50.3,177.5,141010,,,A*4D
$GPRMC,204139.2,A,3312.329137,N,11642.680553,W,49.0,170.0,141010,,,A*4E
$GPRMC,204142.2,A,3312.289974,N,11642.671948,W,46.0,170.0,141010,,,A*41
$GPRMC,204145.2,A,3312.252589,N,11642.664045,W,46.1,170.3,141010,,,A*4C
$GPRMC,204148.2,A,3312.215426,N,11642.656819,W,45.3,170.5,141010,,,A*41
$GPRMC,204151.2,A,3312.179161,N,11642.649829,W,44.5,170.4,141010,,,A*4D
$GPRMC,204154.2,A,3312.142751,N,11642.642553,W,44.1,169.5,141010,,,A*43
$GPRMC,204157.2,A,3312.105597,N,11642.635512,W,43.9,171.2,141010,,,A*4F
$GPRMC,204200.2,A,3312.070648,N,11642.628798,W,42.1,171.0,141010,,,A*4B
$GPRMC,204203.2,A,3312.037005,N,11642.623433,W,39.9,173.0,141010,,,A*4B
$GPRMC,204206.9,A,3311.995439,N,11642.620406,W,39.6,177.7,141010,,,A*45
$GPRMC,204209.9,A,3311.964948,N,11642.617967,W,37.7,176.8,141010,,,A*40
$GPRMC,204212.2,A,3311.942426,N,11642.612576,W,37.2,173.9,141010,,,A*48
$GPRMC,204215.2,A,3311.906303,N,11642.612254,W,40.9,177.8,141010,,,A*46
$GPRMC,204218.2,A,3311.873318,N,11642.605474,W,39.3,172.6,141010,,,A*4F
$GPRMC,204221.0,A,3311.841032,N,11642.590680,W,43.9,164.2,141010,,,A*4F
$GPRMC,204224.2,A,3311.793231,N,11642.572224,W,52.4,162.1,141010,,,A*47
$GPRMC,204227.9,A,3311.761224,N,11642.551956,W,40.1,152.7,141010,,,A*4A
$GPRMC,204230.9,A,3311.734824,N,11642.532073,W,40.6,147.2,141010,,,A*4B
$GPRMC,204233.9,A,3311.706099,N,11642.508297,W,43.8,144.3,141010,,,A*49
$GPRMC,204236.9,A,3311.673508,N,11642.477169,W,47.8,141.0,141010,,,A*4B
$GPRMC,204239.2,A,3311.647480,N,11642.452763,W,49.7,142.0,141010,,,A*40
$GPRMC,204242.9,A,3311.606194,N,11642.413876,W,50.4,141.2,141010,,,A*46
$GPRMC,204245.9,A,3311.574766,N,11642.384878,W,48.8,141.8,141010,,,A*44
$GPRMC,204248.9,A,3311.541433,N,11642.354550,W,49.3,142.7,141010,,,A*40
$GPRMC,204251.9,A,3311.509365,N,11642.323248,W,49.5,142.1,141010,,,A*4E
$GPRMC,204254.9,A,3311.478055,N,11642.290879,W,49.5,140.5,141010,,,A*4B
$GPRMC,204257.9,A,3311.445892,N,11642.263753,W,48.5,141.9,141010,,,A*42
$GPRMC,204300.9,A,3311.413736,N,11642.233256,W,49.0,140.5,141010,,,A*4F
$GPRMC,204303.9,A,3311.382384,N,11642.204826,W,48.6,141.0,141010,,,A*44
$GPRMC,204306.9,A,3311.349781,N,11642.172848,W,48.7,141.2,141010,,,A*4E
$GPRMC,204309.2,A,3311.324202,N,11642.149743,W,49.0,143.9,141010,,,A*4C
$GPRMC,204312.0,A,3311.297521,N,11642.122461,W,48.1,141.3,141010,,,A*4D
$GPRMC,204315.9,A,3311.255221,N,11642.080734,W,50.0,139.9,141010,,,A*4D
$GPRMC,204318.9,A,3311.222122,N,11642.051137,W,49.3,141.0,141010,,,A*44
$GPRMC,204321.9,A,3311.189786,N,11642.017664,W,48.1,139.8,141010,,,A*43
$GPRMC,204324.9,A,3311.159459,N,11641.988546,W,48.9,139.1,141010,,,A*44
$GPRMC,204327.9,A,3311.128949,N,11641.956716,W,48.6,138.3,141010,,,A*45
$GPRMC,204330.9,A,3311.098761,N,11641.924661,W,48.7,137.7,141010,,,A*43
$GPRMC,204333.2,A,3311.076080,N,11641.898116,W,50.6,138.9,141010,,,A*4B
$GPRMC,204336.2,A,3311.046731,N,11641.865062,W,49.0,136.1,141010,,,A*48
$GPRMC,204339.9,A,3311.011236,N,11641.827252,W,48.2,137.6,141010,,,A*4E
$GPRMC,204342.2,A,3310.990126,N,11641.800534,W,48.7,136.6,141010,,,A*4C
$GPRMC,204345.2,A,3310.959987,N,11641.765588,W,49.2,137.1,141010,,,A*44
$GPRMC,204348.2,A,3310.928889,N,11641.731163,W,48.9,136.5,141010,,,A*4F
$GPRMC,204351.2,A,3310.899366,N,11641.699433,W,48.7,137.4,141010,,,A*4B
$GPRMC,204354.0,A,3310.871601,N,11641.669373,W,49.4,137.8,141010,,,A*4C
$GPRMC,204357.0,A,3310.841579,N,11641.637279,W,48.6,137.4,141010,,,A*4F
$GPRMC,204400.9,A,3310.801116,N,11641.593158,W,49.0,137.3,141010,,,A*47
$GPRMC,204403.9,A,3310.771392,N,11641.560031,W,49.7,136.5,141010,,,A*40
$GPRMC,204406.9,A,3310.741166,N,11641.525083,W,50.2,136.5,141010,,,A*4A
$GPRMC,204409.9,A,3310.710879,N,11641.495288,W,49.7,138.2,141010,,,A*41
$GPRMC,204412.9,A,3310.678973,N,11641.461532,W,49.8,137.1,141010,,,A*41
$GPRMC,204415.9,A,3310.648153,N,11641.427509,W,49.7,136.7,141010,,,A*4D
$GPRMC,204418.9,A,3310.620660,N,11641.393015,W,49.1,135.7,141010,,,A*4C
$GPRMC,204421.9,A,3310.592031,N,11641.360851,W,48.5,136.3,141010,,,A*48
$GPRMC,204424.9,A,3310.562615,N,11641.327854,W,48.3,136.2,141010,,,A*43
$GPRMC,204427.9,A,3310.532030,N,11641.293261,W,48.0,136.4,141010,,,A*43
$GPRMC,204430.9,A,3310.499825,N,11641.260818,W,49.6,138.2,141010,,,A*4E
$GPRMC,204433.9,A,3310.469862,N,11641.228824,W,48.5,137.8,141010,,,A*45
$GPRMC,204437.2,A,3310.439902,N,11641.196534,W,44.4,135.0,141010,,,A*45
$GPRMC,204440.2,A,3310.411638,N,11641.166321,W,46.7,139.1,141010,,,A*48
$GPRMC,204444.2,A,3310.371366,N,11641.127150,W,46.8,141.8,141010,,,A*4B
$GPRMC,204447.0,A,3310.340292,N,11641.103675,W,47.4,146.7,141010,,,A*41
$GPRMC,204450.9,A,3310.294815,N,11641.071673,W,47.9,149.7,141010,,,A*43
$GPRMC,204453.9,A,3310.257289,N,11641.046942,W,49.5,152.6,141010,,,A*40
$GPRMC,204456.9,A,3310.220713,N,11641.021476,W,50.0,153.4,141010,,,A*46
$GPRMC,204459.2,A,3310.191834,N,11641.005845,W,48.9,156.0,141010,,,A*4A
$GPRMC,204502.2,A,3310.154704,N,11640.987362,W,48.1,157.3,141010,,,A*46
$GPRMC,204505.2,A,3310.117960,N,11640.969148,W,48.0,157.9,141010,,,A*4B
$GPRMC,204508.2,A,3310.081362,N,11640.952199,W,47.0,157.9,141010,,,A*4B
$GPRMC,204511.2,A,3310.043551,N,11640.935763,W,49.7,156.7,141010,,,A*4F
$GPRMC,204514.2,A,3310.005425,N,11640.915857,W,48.4,157.0,141010,,,A*44
$GPRMC,204517.9,A,3309.959679,N,11640.892788,W,47.6,156.9,141010,,,A*49
$GPRMC,204520.9,A,3309.921428,N,11640.869373,W,49.9,152.2,141010,,,A*4E
$GPRMC,204523.9,A,3309.886227,N,11640.847455,W,49.1,149.7,141010,,,A*40
$GPRMC,204526.9,A,3309.853023,N,11640.822626,W,48.6,146.2,141010,,,A*42
$GPRMC,204530.2,A,3309.815942,N,11640.787120,W,49.6,140.7,141010,,,A*41
$GPRMC,204533.2,A,3309.787312,N,11640.750001,W,49.9,135.4,141010,,,A*4F
$GPRMC,204536.2,A,3309.758664,N,11640.713570,W,49.5,133.3,141010,,,A*45
$GPRMC,204539.2,A,3309.731644,N,11640.677939,W,49.4,131.4,141010,,,A*41
$GPRMC,204542.2,A,3309.703452,N,11640.641443,W,50.3,131.4,141010,,,A*43
$GPRMC,204545.9,A,3309.668970,N,11640.600775,W,49.0,134.3,141010,,,A*44
$GPRMC,204548.9,A,3309.637813,N,11640.566881,W,49.2,137.5,141010,,,A*47
$GPRMC,204551.9,A,3309.604660,N,11640.534571,W,49.7,142.5,141010,,,A*47
$GPRMC,204554.2,A,3309.577400,N,11640.515170,W,50.2,147.2,141010,,,A*43
$GPRMC,204557.2,A,3309.540925,N,11640.491921,W,49.1,150.4,141010,,,A*44
$GPRMC,204600.2,A,3309.502756,N,11640.470750,W,50.0,157.7,141010,,,A*43
$GPRMC,204604.2,A,3309.450832,N,11640.445454,W,49.1,159.0,141010,,,A*4D
$GPRMC,204607.2,A,3309.413574,N,11640.436211,W,46.0,165.9,141010,,,A*4D
$GPRMC,204610.2,A,3309.374790,N,11640.431947,W,45.7,174.8,141010,,,A*4F
$GPRMC,204613.2,A,3309.336533,N,11640.428635,W,46.2,176.9,141010,,,A*46
$GPRMC,204616.2,A,3309.297409,N,11640.428473,W,46.9,181.6,141010,,,A*4D
$GPRMC,204619.2,A,3309.258010,N,11640.431801,W,48.5,187.2,141010,,,A*4C
$GPRMC,204622.0,A,3309.221802,N,11640.438849,W,48.8,190.1,141010,,,A*4E
$GPRMC,204625.2,A,3309.176591,N,11640.449451,W,52.1,190.0,141010,,,A*4D
$GPRMC,204628.2,A,3309.135576,N,11640.464146,W,51.6,194.8,141010,,,A*4A
$GPRMC,204631.2,A,3309.093552,N,11640.477024,W,52.1,194.6,141010,,,A*44
$GPRMC,204634.2,A,3309.051429,N,11640.490469,W,52.2,194.7,141010,,,A*44
$GPRMC,204637.0,A,3309.012907,N,11640.502678,W,51.9,195.5,141010,,,A*40
$GPRMC,204640.9,A,3308.958548,N,11640.520210,W,50.8,194.9,141010,,,A*4F
$GPRMC,204643.2,A,3308.926007,N,11640.531475,W,52.4,195.2,141010,,,A*41
$GPRMC,204646.2,A,3308.885697,N,11640.544216,W,50.3,195.5,141010,,,A*40
$GPRMC,204649.2,A,3308.843864,N,11640.556540,W,51.4,194.9,141010,,,A*4B
$GPRMC,204652.2,A,3308.801833,N,11640.570859,W,53.5,195.5,141010,,,A*4A
$GPRMC,204655.2,A,3308.758287,N,11640.585067,W,54.5,194.8,141010,,,A*4F
$GPRMC,204658.0,A,3308.718419,N,11640.597512,W,55.3,194.1,141010,,,A*4F
$GPRMC,204701.9,A,3308.657869,N,11640.615675,W,58.1,194.7,141010,,,A*48
$GPRMC,204704.9,A,3308.612899,N,11640.632686,W,57.8,195.9,141010,,,A*43
$GPRMC,204707.9,A,3308.564852,N,11640.647275,W,58.6,195.1,141010,,,A*46
$GPRMC,204710.9,A,3308.516502,N,11640.661636,W,58.9,194.4,141010,,,A*41
$GPRMC,204713.9,A,3308.468072,N,11640.676655,W,58.8,195.2,141010,,,A*4D
$GPRMC,204716.9,A,3308.422567,N,11640.691178,W,56.5,195.1,141010,,,A*46
$GPRMC,204719.9,A,3308.375405,N,11640.704113,W,56.3,193.9,141010,,,A*41
$GPRMC,204722.9,A,3308.332799,N,11640.716813,W,54.0,194.9,141010,,,A*40
$GPRMC,204725.9,A,3308.291562,N,11640.732888,W,52.8,195.0,141010,,,A*4B
$GPRMC,204728.9,A,3308.246642,N,11640.743952,W,53.5,192.9,141010,,,A*4F
$GPRMC,204731.9,A,3308.205088,N,11640.755710,W,53.1,192.2,141010,,,A*40
$GPRMC,204734.9,A,3308.159998,N,11640.762901,W,54.1,189.6,141010,,,A*44
$GPRMC,204737.9,A,3308.116704,N,11640.771707,W,53.7,188.5,141010,,,A*4E
$GPRMC,204740.9,A,3308.073620,N,11640.778937,W,53.9,185.6,141010,,,A*4F
$GPRMC,204743.9,A,3308.026468,N,11640.780984,W,55.5,180.7,141010,,,A*43
$GPRMC,204746.9,A,3307.980443,N,11640.781079,W,53.9,178.4,141010,,,A*41
$GPRMC,204749.9,A,3307.935925,N,11640.777216,W,55.0,176.9,141010,,,A*43
$GPRMC,204752.9,A,3307.891049,N,11640.771851,W,54.8,173.1,141010,,,A*4E
$GPRMC,204755.9,A,3307.845882,N,11640.764763,W,54.6,171.0,141010,,,A*48
$GPRMC,204758.9,A,3307.800543,N,11640.756345,W,53.6,171.3,141010,,,A*41
$GPRMC,204801.9,A,3307.756308,N,11640.747315,W,53.4,171.0,141010,,,A*43
$GPRMC,204804.9,A,3307.713266,N,11640.741944,W,53.3,171.6,141010,,,A*47
$GPRMC,204807.9,A,3307.670744,N,11640.733908,W,50.7,171.6,141010,,,A*4F
$GPRMC,204810.9,A,3307.632069,N,11640.726927,W,45.1,172.0,141010,,,A*49
$GPRMC,204813.2,A,3307.605730,N,11640.724245,W,37.5,173.7,141010,,,A*44
$GPRMC,204816.0,A,3307.583360,N,11640.721935,W,26.2,175.0,141010,,,A*40
$GPRMC,204819.9,A,3307.564486,N,11640.720722,W,14.0,178.9,141010,,,A*4E
$GPRMC,204822.9,A,3307.557986,N,11640.720065,W,7.0,170.5,141010,,,A*79
$GPRMC,204825.9,A,3307.561976,N,11640.715838,W,5.8,35.5,141010,,,A*48
$GPRMC,204829.2,A,3307.575856,N,11640.713268,W,16.8,357.4,141010,,,A*44
$GPRMC,204832.2,A,3307.595727,N,11640.717542,W,26.6,352.0,141010,,,A*4E
$GPRMC,204835.2,A,3307.619991,N,11640.722923,W,31.8,349.8,141010,,,A*4A
$GPRMC,204838.2,A,3307.648193,N,11640.728045,W,35.4,352.0,141010,,,A*40
$GPRMC,204841.0,A,3307.676489,N,11640.732654,W,39.2,351.6,141010,,,A*4D
$GPRMC,204844.9,A,3307.718958,N,11640.739115,W,38.5,352.6,141010,,,A*45
$GPRMC,204847.9,A,3307.750696,N,11640.745542,W,37.8,351.4,141010,,,A*49
$GPRMC,204850.9,A,3307.780627,N,11640.750855,W,33.6,349.1,141010,,,A*41
$GPRMC,204853.9,A,3307.792985,N,11640.753755,W,17.6,346.3,141010,,,A*41
