NMEA Sentence Code,UTC Time,Status,Latitude,Latitude Direction,Longitude,Longitude Direction,Speed (knots),Track Angle (degrees true),Date,MagneticVariation,Magnetic Variation Direction,[FAA Mode]-Optional,Checksum
$GPRMC,220010.9,A,3247.564697,N,11655.611070,W,9.3,276.9,180410,,,A*72
$GPRMC,220013.9,A,3247.566058,N,11655.625980,W,17.3,273.1,180410,,,A*45
$GPRMC,220016.9,A,3247.564430,N,11655.648440,W,23.2,268.0,180410,,,A*4F
$GPRMC,220019.9,A,3247.564366,N,11655.670601,W,23.2,268.7,180410,,,A*4F
$GPRMC,220022.9,A,3247.563645,N,11655.696751,W,25.2,269.1,180410,,,A*49
$GPRMC,220025.9,A,3247.564907,N,11655.719814,W,24.5,272.0,180410,,,A*45
$GPRMC,220028.9,A,3247.565616,N,11655.746931,W,27.0,271.0,180410,,,A*4F
$GPRMC,220031.9,A,3247.565111,N,11655.775792,W,30.1,268.8,180410,,,A*47
$GPRMC,220034.9,A,3247.565362,N,11655.807516,W,33.3,269.3,180410,,,A*4B
$GPRMC,220037.9,A,3247.565185,N,11655.840850,W,33.8,269.5,180410,,,A*42
$GPRMC,220040.9,A,3247.565736,N,11655.875614,W,34.3,270.1,180410,,,A*44
$GPRMC,220043.9,A,3247.565463,N,11655.909770,W,33.9,270.3,180410,,,A*42
$GPRMC,220046.9,A,3247.563025,N,11655.943503,W,33.7,268.4,180410,,,A*4F
$GPRMC,220049.9,A,3247.563754,N,11655.973262,W,29.2,270.4,180410,,,A*45
$GPRMC,220052.9,A,3247.563523,N,11655.995802,W,19.8,267.4,180410,,,A*46
$GPRMC,220055.9,A,3247.560617,N,11656.006356,W,9.7,250.9,180410,,,A*7B
$GPRMC,220058.9,A,3247.560074,N,11656.011763,W,5.4,255.5,180410,,,A*77
$GPRMC,220101.9,A,3247.562450,N,11656.021167,W,12.4,294.5,180410,,,A*40
$GPRMC,220104.2,A,3247.570869,N,11656.033295,W,18.9,308.6,180410,,,A*46
$GPRMC,220107.2,A,3247.582982,N,11656.050339,W,24.9,311.4,180410,,,A*4B
$GPRMC,220110.2,A,3247.599835,N,11656.070889,W,32.9,317.3,180410,,,A*4E
$GPRMC,220113.9,A,3247.626300,N,11656.102527,W,38.6,314.4,180410,,,A*40
$GPRMC,220116.9,A,3247.654050,N,11656.125677,W,38.6,326.7,180410,,,A*47
$GPRMC,220119.9,A,3247.684947,N,11656.138329,W,38.1,346.5,180410,,,A*4B
$GPRMC,220122.9,A,3247.716506,N,11656.141067,W,38.7,357.3,180410,,,A*47
$GPRMC,220125.9,A,3247.746194,N,11656.139538,W,36.2,0.7,180410,,,A*44
$GPRMC,220128.9,A,3247.777262,N,11656.140033,W,36.3,359.2,180410,,,A*4A
$GPRMC,220131.9,A,3247.807003,N,11656.141080,W,35.5,0.2,180410,,,A*4C
$GPRMC,220134.9,A,3247.837758,N,11656.139139,W,34.6,5.3,180410,,,A*49
$GPRMC,220137.9,A,3247.871099,N,11656.139682,W,39.0,359.6,180410,,,A*41
$GPRMC,220140.9,A,3247.901523,N,11656.139101,W,38.4,359.1,180410,,,A*4D
$GPRMC,220143.9,A,3247.934485,N,11656.139463,W,38.3,360.0,180410,,,A*48
$GPRMC,220146.9,A,3247.966138,N,11656.139751,W,36.3,1.8,180410,,,A*49
$GPRMC,220149.9,A,3247.994982,N,11656.139229,W,34.7,359.1,180410,,,A*49
$GPRMC,220152.9,A,3248.022140,N,11656.138322,W,32.6,359.7,180410,,,A*44
$GPRMC,220155.9,A,3248.049210,N,11656.138083,W,31.3,359.4,180410,,,A*45
$GPRMC,220158.9,A,3248.073992,N,11656.139014,W,30.1,359.4,180410,,,A*4C
$GPRMC,220201.9,A,3248.100598,N,11656.140511,W,30.8,358.8,180410,,,A*4A
$GPRMC,220204.9,A,3248.125691,N,11656.139634,W,30.0,0.9,180410,,,A*4F
$GPRMC,220207.9,A,3248.148803,N,11656.140125,W,26.9,0.3,180410,,,A*4F
$GPRMC,220210.9,A,3248.171107,N,11656.140410,W,25.5,359.6,180410,,,A*48
$GPRMC,220213.2,A,3248.183197,N,11656.140850,W,20.0,356.4,180410,,,A*41
$GPRMC,220216.2,A,3248.196936,N,11656.142768,W,15.0,354.1,180410,,,A*44
$GPRMC,220219.9,A,3248.209824,N,11656.151414,W,14.0,319.4,180410,,,A*40
$GPRMC,220222.9,A,3248.210355,N,11656.171526,W,20.2,271.2,180410,,,A*43
$GPRMC,220225.9,A,3248.208837,N,11656.197078,W,25.5,266.7,180410,,,A*45
$GPRMC,220228.9,A,3248.204906,N,11656.225052,W,29.1,263.7,180410,,,A*48
$GPRMC,220231.9,A,3248.203188,N,11656.257151,W,32.1,266.1,180410,,,A*47
$GPRMC,220234.9,A,3248.200237,N,11656.288022,W,31.1,263.9,180410,,,A*4F
$GPRMC,220237.9,A,3248.199039,N,11656.324511,W,37.2,266.2,180410,,,A*4A
$GPRMC,220240.9,A,3248.197951,N,11656.366066,W,42.5,267.2,180410,,,A*44
$GPRMC,220243.9,A,3248.196937,N,11656.409768,W,45.0,267.5,180410,,,A*44
$GPRMC,220246.9,A,3248.195137,N,11656.457627,W,49.9,267.7,180410,,,A*4C
$GPRMC,220249.9,A,3248.194537,N,11656.508836,W,52.5,269.6,180410,,,A*4A
$GPRMC,220252.9,A,3248.197239,N,11656.560448,W,53.9,272.7,180410,,,A*47
$GPRMC,220255.9,A,3248.193993,N,11656.619224,W,56.5,269.1,180410,,,A*4B
$GPRMC,220258.9,A,3248.194448,N,11656.672833,W,54.9,269.5,180410,,,A*41
$GPRMC,220301.9,A,3248.194911,N,11656.726733,W,54.9,270.1,180410,,,A*4E
$GPRMC,220304.9,A,3248.194633,N,11656.783592,W,59.2,270.3,180410,,,A*46
$GPRMC,220307.9,A,3248.193733,N,11656.841999,W,60.3,269.4,180410,,,A*41
$GPRMC,220310.9,A,3248.192680,N,11656.901950,W,61.2,269.3,180410,,,A*48
$GPRMC,220313.9,A,3248.192487,N,11656.964122,W,60.8,270.2,180410,,,A*42
$GPRMC,220316.9,A,3248.192182,N,11657.023211,W,59.4,269.0,180410,,,A*43
$GPRMC,220319.9,A,3248.193458,N,11657.081046,W,59.1,269.7,180410,,,A*45
$GPRMC,220322.9,A,3248.193477,N,11657.138608,W,60.1,269.8,180410,,,A*4A
$GPRMC,220325.9,A,3248.193292,N,11657.200014,W,62.3,269.7,180410,,,A*4C
$GPRMC,220328.9,A,3248.191845,N,11657.262634,W,63.1,269.6,180410,,,A*41
$GPRMC,220331.9,A,3248.190810,N,11657.324440,W,61.6,269.0,180410,,,A*49
$GPRMC,220334.9,A,3248.191060,N,11657.385543,W,61.1,269.3,180410,,,A*4F
$GPRMC,220337.9,A,3248.188969,N,11657.444671,W,60.8,269.1,180410,,,A*46
$GPRMC,220340.9,A,3248.189352,N,11657.506733,W,61.9,270.0,180410,,,A*4C
$GPRMC,220343.9,A,3248.190977,N,11657.567972,W,62.8,270.6,180410,,,A*42
$GPRMC,220346.9,A,3248.192288,N,11657.628622,W,62.4,270.4,180410,,,A*42
$GPRMC,220349.9,A,3248.190293,N,11657.688789,W,61.0,268.8,180410,,,A*4D
$GPRMC,220352.9,A,3248.191521,N,11657.752189,W,62.6,270.1,180410,,,A*4D
$GPRMC,220355.9,A,3248.188586,N,11657.813663,W,62.2,268.2,180410,,,A*48
$GPRMC,220359.2,A,3248.187630,N,11657.883669,W,62.4,269.3,180410,,,A*4B
$GPRMC,220402.9,A,3248.187167,N,11657.959430,W,62.5,269.4,180410,,,A*42
$GPRMC,220405.9,A,3248.186173,N,11658.021707,W,62.5,269.8,180410,,,A*43
$GPRMC,220408.9,A,3248.186601,N,11658.083454,W,62.5,269.6,180410,,,A*4F
$GPRMC,220411.9,A,3248.185981,N,11658.141510,W,60.3,269.2,180410,,,A*4D
$GPRMC,220414.9,A,3248.183486,N,11658.204625,W,62.4,265.8,180410,,,A*40
$GPRMC,220417.9,A,3248.174609,N,11658.265675,W,62.8,259.0,180410,,,A*47
$GPRMC,220420.9,A,3248.159406,N,11658.322342,W,61.5,251.3,180410,,,A*47
$GPRMC,220423.9,A,3248.135663,N,11658.378926,W,62.2,242.7,180410,,,A*4A
$GPRMC,220426.9,A,3248.106554,N,11658.429844,W,61.3,234.9,180410,,,A*43
$GPRMC,220429.9,A,3248.074855,N,11658.475983,W,60.6,228.8,180410,,,A*4F
$GPRMC,220433.2,A,3248.033664,N,11658.520359,W,60.6,219.1,180410,,,A*47
$GPRMC,220436.2,A,3247.988659,N,11658.554277,W,62.2,210.0,180410,,,A*4A
$GPRMC,220439.2,A,3247.941778,N,11658.581681,W,62.1,202.9,180410,,,A*4E
$GPRMC,220442.2,A,3247.892926,N,11658.601166,W,61.9,194.7,180410,,,A*44
$GPRMC,220445.2,A,3247.841145,N,11658.613505,W,62.4,188.6,180410,,,A*40
$GPRMC,220448.9,A,3247.777277,N,11658.622516,W,62.7,186.4,180410,,,A*41
$GPRMC,220451.9,A,3247.724190,N,11658.630017,W,63.0,186.8,180410,,,A*48
$GPRMC,220454.9,A,3247.674341,N,11658.638118,W,61.8,187.5,180410,,,A*47
$GPRMC,220457.9,A,3247.621425,N,11658.646680,W,62.6,187.6,180410,,,A*40
$GPRMC,220500.9,A,3247.569285,N,11658.656033,W,62.3,187.8,180410,,,A*44
$GPRMC,220503.9,A,3247.516439,N,11658.662651,W,63.0,188.1,180410,,,A*4F
$GPRMC,220506.9,A,3247.466947,N,11658.670319,W,60.3,183.9,180410,,,A*41
$GPRMC,220509.9,A,3247.421230,N,11658.669755,W,56.0,180.2,180410,,,A*4C
$GPRMC,220512.9,A,3247.375588,N,11658.668577,W,54.8,179.6,180410,,,A*4F
$GPRMC,220515.9,A,3247.330737,N,11658.669846,W,55.3,181.8,180410,,,A*42
$GPRMC,220518.9,A,3247.283411,N,11658.675126,W,56.7,187.8,180410,,,A*42
$GPRMC,220521.9,A,3247.236131,N,11658.693006,W,58.6,198.5,180410,,,A*46
$GPRMC,220524.9,A,3247.189643,N,11658.718976,W,60.2,205.3,180410,,,A*44
$GPRMC,220527.9,A,3247.144330,N,11658.750333,W,61.0,210.8,180410,,,A*4C
$GPRMC,220530.9,A,3247.104833,N,11658.783278,W,58.3,213.3,180410,,,A*47
$GPRMC,220533.9,A,3247.061535,N,11658.812895,W,60.3,209.4,180410,,,A*44
$GPRMC,220536.9,A,3247.014155,N,11658.842504,W,62.3,207.2,180410,,,A*4B
$GPRMC,220539.9,A,3246.966831,N,11658.868225,W,62.1,204.7,180410,,,A*4A
$GPRMC,220542.9,A,3246.920951,N,11658.893387,W,62.1,204.9,180410,,,A*40
$GPRMC,220545.9,A,3246.876148,N,11658.921436,W,62.1,208.4,180410,,,A*41
$GPRMC,220548.9,A,3246.833315,N,11658.956109,W,62.3,216.3,180410,,,A*44
$GPRMC,220551.9,A,3246.797243,N,11658.999405,W,62.4,223.5,180410,,,A*42
$GPRMC,220554.9,A,3246.772422,N,11659.045791,W,55.5,238.4,180410,,,A*44
$GPRMC,220557.9,A,3246.756136,N,11659.095070,W,53.6,249.2,180410,,,A*41
$GPRMC,220600.9,A,3246.744868,N,11659.145598,W,53.3,256.8,180410,,,A*4F
$GPRMC,220603.9,A,3246.741665,N,11659.199428,W,54.6,266.0,180410,,,A*48
$GPRMC,220606.9,A,3246.742956,N,11659.253698,W,55.1,272.3,180410,,,A*4D
$GPRMC,220609.9,A,3246.745700,N,11659.305681,W,52.9,273.6,180410,,,A*49
$GPRMC,220612.9,A,3246.750670,N,11659.359997,W,55.2,274.0,180410,,,A*4D
$GPRMC,220615.9,A,3246.753736,N,11659.417079,W,58.4,273.7,180410,,,A*45
$GPRMC,220618.9,A,3246.756767,N,11659.479151,W,61.7,272.9,180410,,,A*4C
$GPRMC,220621.9,A,3246.760435,N,11659.538781,W,60.6,272.7,180410,,,A*46
$GPRMC,220624.9,A,3246.764925,N,11659.598506,W,61.9,274.1,180410,,,A*42
$GPRMC,220627.9,A,3246.767157,N,11659.659938,W,61.2,272.8,180410,,,A*44
$GPRMC,220630.9,A,3246.768669,N,11659.719132,W,60.0,272.5,180410,,,A*4E
$GPRMC,220633.9,A,3246.771288,N,11659.775776,W,58.7,275.1,180410,,,A*4D
$GPRMC,220636.9,A,3246.776403,N,11659.836967,W,61.6,276.7,180410,,,A*42
$GPRMC,220639.9,A,3246.781303,N,11659.894985,W,58.9,274.0,180410,,,A*46
$GPRMC,220642.9,A,3246.783756,N,11659.953859,W,59.2,269.2,180410,,,A*42
$GPRMC,220645.9,A,3246.779450,N,11700.010772,W,58.9,265.2,180410,,,A*46
$GPRMC,220648.9,A,3246.769041,N,11700.070203,W,58.9,257.2,180410,,,A*4A
$GPRMC,220651.9,A,3246.754581,N,11700.119808,W,52.6,253.2,180410,,,A*4B
$GPRMC,220654.9,A,3246.748008,N,11700.167089,W,46.3,261.3,180410,,,A*4F
$GPRMC,220657.9,A,3246.756516,N,11700.204914,W,40.7,279.6,180410,,,A*4C
$GPRMC,220700.9,A,3246.785753,N,11700.227014,W,38.6,318.7,180410,,,A*43
$GPRMC,220703.9,A,3246.826344,N,11700.246649,W,49.8,332.8,180410,,,A*42
$GPRMC,220706.9,A,3246.867022,N,11700.270825,W,53.7,333.2,180410,,,A*4F
$GPRMC,220709.9,A,3246.917162,N,11700.285977,W,59.0,342.4,180410,,,A*42
$GPRMC,220712.2,A,3246.954083,N,11700.299917,W,60.8,342.5,180410,,,A*42
$GPRMC,220715.9,A,3247.017050,N,11700.321378,W,61.6,344.7,180410,,,A*45
$GPRMC,220718.9,A,3247.070165,N,11700.338192,W,64.0,345.2,180410,,,A*47
$GPRMC,220721.9,A,3247.120047,N,11700.353845,W,62.2,346.5,180410,,,A*46
$GPRMC,220724.9,A,3247.171528,N,11700.364555,W,63.5,349.3,180410,,,A*4C
$GPRMC,220727.9,A,3247.223770,N,11700.373560,W,63.4,352.2,180410,,,A*4E
$GPRMC,220730.9,A,3247.277476,N,11700.379480,W,63.8,355.0,180410,,,A*40
$GPRMC,220733.9,A,3247.331458,N,11700.382165,W,64.6,358.5,180410,,,A*47
$GPRMC,220736.9,A,3247.386447,N,11700.379668,W,64.4,1.8,180410,,,A*4E
$GPRMC,220739.9,A,3247.436874,N,11700.377456,W,61.9,3.6,180410,,,A*44
$GPRMC,220742.2,A,3247.476761,N,11700.372640,W,62.6,5.7,180410,,,A*47
$GPRMC,220745.9,A,3247.539882,N,11700.361926,W,62.3,9.7,180410,,,A*47
$GPRMC,220748.9,A,3247.591517,N,11700.350488,W,64.1,10.2,180410,,,A*7B
$GPRMC,220751.9,A,3247.644764,N,11700.339417,W,62.4,10.3,180410,,,A*75
$GPRMC,220754.9,A,3247.696115,N,11700.329110,W,62.4,9.6,180410,,,A*41
$GPRMC,220757.9,A,3247.745565,N,11700.319420,W,61.6,5.8,180410,,,A*48
$GPRMC,220800.9,A,3247.799268,N,11700.316291,W,64.1,2.8,180410,,,A*48
$GPRMC,220803.9,A,3247.849858,N,11700.317791,W,62.3,360.0,180410,,,A*4F
$GPRMC,220806.9,A,3247.903489,N,11700.317664,W,62.7,0.7,180410,,,A*48
$GPRMC,220809.9,A,3247.956206,N,11700.316473,W,62.6,1.3,180410,,,A*47
$GPRMC,220812.9,A,3248.007328,N,11700.316379,W,62.3,0.2,180410,,,A*4A
$GPRMC,220815.9,A,3248.058872,N,11700.317024,W,62.2,0.4,180410,,,A*4E
$GPRMC,220818.9,A,3248.110049,N,11700.317398,W,62.2,359.8,180410,,,A*49
$GPRMC,220821.9,A,3248.162461,N,11700.318570,W,61.5,359.7,180410,,,A*4C
$GPRMC,220824.9,A,3248.214764,N,11700.316707,W,62.5,0.8,180410,,,A*42
$GPRMC,220827.9,A,3248.267472,N,11700.317249,W,62.2,0.0,180410,,,A*40
$GPRMC,220830.9,A,3248.318263,N,11700.317639,W,61.8,359.2,180410,,,A*4E
$GPRMC,220833.9,A,3248.369647,N,11700.317606,W,62.2,359.6,180410,,,A*48
$GPRMC,220836.9,A,3248.422707,N,11700.318744,W,62.9,359.7,180410,,,A*42
$GPRMC,220839.9,A,3248.473010,N,11700.316733,W,61.6,3.2,180410,,,A*43
$GPRMC,220842.9,A,3248.524451,N,11700.307583,W,61.9,9.8,180410,,,A*4B
$GPRMC,220845.9,A,3248.574584,N,11700.294472,W,62.2,14.7,180410,,,A*7F
$GPRMC,220848.9,A,3248.623177,N,11700.273028,W,61.9,21.6,180410,,,A*76
$GPRMC,220851.9,A,3248.669872,N,11700.245878,W,62.1,28.0,180410,,,A*70
$GPRMC,220855.2,A,3248.719979,N,11700.213121,W,61.2,29.2,180410,,,A*76
$GPRMC,220858.9,A,3248.774211,N,11700.172199,W,61.7,31.6,180410,,,A*71
$GPRMC,220901.9,A,3248.819665,N,11700.142043,W,62.3,29.4,180410,,,A*76
$GPRMC,220904.9,A,3248.866220,N,11700.112881,W,62.8,27.6,180410,,,A*7A
$GPRMC,220907.9,A,3248.913664,N,11700.088337,W,62.1,22.1,180410,,,A*71
$GPRMC,220910.9,A,3248.962648,N,11700.069516,W,61.1,16.1,180410,,,A*71
$GPRMC,220913.9,A,3249.012561,N,11700.057112,W,61.2,9.8,180410,,,A*4C
$GPRMC,220916.9,A,3249.063702,N,11700.050799,W,61.1,4.3,180410,,,A*4F
$GPRMC,220919.9,A,3249.117358,N,11700.051443,W,61.8,358.0,180410,,,A*4C
$GPRMC,220922.9,A,3249.169207,N,11700.057074,W,62.0,353.5,180410,,,A*45
$GPRMC,220925.9,A,3249.219085,N,11700.067914,W,60.5,348.6,180410,,,A*4C
$GPRMC,220928.9,A,3249.269604,N,11700.086432,W,62.4,341.9,180410,,,A*4A
$GPRMC,220931.9,A,3249.321379,N,11700.107153,W,64.3,341.1,180410,,,A*43
$GPRMC,220934.9,A,3249.371932,N,11700.127466,W,62.7,341.8,180410,,,A*4C
$GPRMC,220937.9,A,3249.420990,N,11700.144895,W,62.0,343.9,180410,,,A*45
$GPRMC,220940.9,A,3249.471532,N,11700.157007,W,62.3,347.9,180410,,,A*43
$GPRMC,220943.9,A,3249.521460,N,11700.168722,W,61.6,349.8,180410,,,A*47
$GPRMC,220946.9,A,3249.572470,N,11700.175747,W,62.0,353.8,180410,,,A*44
$GPRMC,220949.9,A,3249.623242,N,11700.177023,W,61.4,357.6,180410,,,A*41
$GPRMC,220952.9,A,3249.677259,N,11700.178238,W,62.9,359.3,180410,,,A*42
$GPRMC,220955.9,A,3249.730114,N,11700.178497,W,63.3,358.8,180410,,,A*4F
$GPRMC,220958.9,A,3249.781047,N,11700.177811,W,61.6,359.9,180410,,,A*45
$GPRMC,221001.9,A,3249.833365,N,11700.178805,W,62.7,359.5,180410,,,A*40
$GPRMC,221004.9,A,3249.886623,N,11700.180515,W,62.4,359.3,180410,,,A*42
$GPRMC,221007.9,A,3249.937542,N,11700.178141,W,61.4,1.7,180410,,,A*45
$GPRMC,221010.9,A,3249.988464,N,11700.174512,W,61.5,2.4,180410,,,A*4D
$GPRMC,221013.9,A,3250.041120,N,11700.172819,W,61.6,2.4,180410,,,A*4C
$GPRMC,221016.9,A,3250.094588,N,11700.173916,W,63.5,0.1,180410,,,A*4E
$GPRMC,221019.9,A,3250.140248,N,11700.191719,W,59.4,338.5,180410,,,A*4B
$GPRMC,221022.9,A,3250.183523,N,11700.226786,W,64.9,324.4,180410,,,A*40
$GPRMC,221025.9,A,3250.217358,N,11700.276711,W,64.7,311.3,180410,,,A*47
$GPRMC,221028.9,A,3250.232195,N,11700.335929,W,60.9,291.7,180410,,,A*4A
$GPRMC,221031.9,A,3250.227758,N,11700.401165,W,62.5,266.6,180410,,,A*46
$GPRMC,221034.9,A,3250.218952,N,11700.463928,W,64.0,261.2,180410,,,A*4E
$GPRMC,221037.9,A,3250.204218,N,11700.523654,W,61.9,255.0,180410,,,A*4D
$GPRMC,221040.9,A,3250.188400,N,11700.581349,W,62.4,254.1,180410,,,A*4A
$GPRMC,221043.9,A,3250.177652,N,11700.640526,W,61.6,256.5,180410,,,A*4A
$GPRMC,221046.9,A,3250.167581,N,11700.700669,W,61.8,260.0,180410,,,A*40
$GPRMC,221049.9,A,3250.165054,N,11700.762669,W,62.2,267.2,180410,,,A*48
$GPRMC,221052.9,A,3250.167516,N,11700.824599,W,62.4,272.4,180410,,,A*46
$GPRMC,221055.9,A,3250.169120,N,11700.886058,W,62.1,273.0,180410,,,A*4E
$GPRMC,221058.9,A,3250.172310,N,11700.947814,W,62.0,273.5,180410,,,A*40
$GPRMC,221101.9,A,3250.175889,N,11701.009542,W,62.3,273.7,180410,,,A*4C
$GPRMC,221104.9,A,3250.180520,N,11701.070185,W,61.6,275.5,180410,,,A*4E
$GPRMC,221107.9,A,3250.191512,N,11701.128320,W,61.4,282.3,180410,,,A*41
$GPRMC,221110.9,A,3250.209901,N,11701.185334,W,61.4,291.6,180410,,,A*4E
$GPRMC,221113.9,A,3250.233615,N,11701.239858,W,61.1,299.4,180410,,,A*44
$GPRMC,221116.9,A,3250.263725,N,11701.289066,W,60.9,307.7,180410,,,A*44
$GPRMC,221119.9,A,3250.301295,N,11701.332845,W,62.3,317.5,180410,,,A*43
$GPRMC,221122.9,A,3250.343493,N,11701.366528,W,60.9,326.7,180410,,,A*42
$GPRMC,221125.9,A,3250.391816,N,11701.396688,W,63.7,333.0,180410,,,A*43
$GPRMC,221128.9,A,3250.440347,N,11701.425697,W,64.1,334.4,180410,,,A*49
$GPRMC,221131.9,A,3250.485831,N,11701.451983,W,62.0,334.4,180410,,,A*4C
$GPRMC,221134.9,A,3250.535007,N,11701.476966,W,63.3,335.3,180410,,,A*44
$GPRMC,221137.9,A,3250.579451,N,11701.501071,W,61.0,334.9,180410,,,A*4C
$GPRMC,221140.9,A,3250.625949,N,11701.526702,W,61.0,334.9,180410,,,A*44
$GPRMC,221143.9,A,3250.673293,N,11701.553140,W,62.5,334.1,180410,,,A*44
$GPRMC,221146.9,A,3250.719466,N,11701.582064,W,62.0,332.5,180410,,,A*4C
$GPRMC,221149.9,A,3250.763149,N,11701.611062,W,62.0,329.3,180410,,,A*45
$GPRMC,221152.9,A,3250.807651,N,11701.647625,W,62.8,324.3,180410,,,A*4F
$GPRMC,221155.9,A,3250.849120,N,11701.683910,W,61.5,322.5,180410,,,A*4C
$GPRMC,221158.9,A,3250.886206,N,11701.725891,W,61.1,316.2,180410,,,A*44
$GPRMC,221201.9,A,3250.922331,N,11701.770881,W,63.5,312.1,180410,,,A*41
$GPRMC,221204.9,A,3250.954791,N,11701.820973,W,63.1,307.8,180410,,,A*44
$GPRMC,221207.9,A,3250.982783,N,11701.873996,W,62.5,302.7,180410,,,A*4D
$GPRMC,221210.9,A,3251.007515,N,11701.927772,W,61.7,298.6,180410,,,A*45
$GPRMC,221213.9,A,3251.027794,N,11701.982329,W,61.7,293.6,180410,,,A*41
$GPRMC,221216.9,A,3251.047953,N,11702.040840,W,63.4,290.8,180410,,,A*4B
$GPRMC,221219.9,A,3251.063233,N,11702.100029,W,62.2,285.9,180410,,,A*4F
$GPRMC,221222.9,A,3251.074438,N,11702.158763,W,60.1,282.3,180410,,,A*44
$GPRMC,221225.9,A,3251.080557,N,11702.219685,W,62.5,279.3,180410,,,A*4D
$GPRMC,221228.9,A,3251.088223,N,11702.279287,W,61.5,279.2,180410,,,A*4E
$GPRMC,221231.9,A,3251.096857,N,11702.338300,W,60.5,279.4,180410,,,A*4D
$GPRMC,221234.9,A,3251.107425,N,11702.399550,W,61.6,280.8,180410,,,A*48
$GPRMC,221237.9,A,3251.116724,N,11702.459728,W,60.1,280.0,180410,,,A*41
$GPRMC,221240.9,A,3251.127147,N,11702.518037,W,60.1,280.6,180410,,,A*4B
$GPRMC,221243.9,A,3251.136962,N,11702.574863,W,56.3,280.3,180410,,,A*46
$GPRMC,221246.9,A,3251.144455,N,11702.627045,W,53.9,279.6,180410,,,A*4A
$GPRMC,221249.9,A,3251.151430,N,11702.683251,W,56.6,280.1,180410,,,A*40
$GPRMC,221252.9,A,3251.160881,N,11702.738779,W,57.3,280.6,180410,,,A*43
$GPRMC,221255.9,A,3251.169328,N,11702.794523,W,57.6,280.0,180410,,,A*4D
$GPRMC,221258.9,A,3251.177287,N,11702.850570,W,57.4,280.0,180410,,,A*48
$GPRMC,221301.9,A,3251.185570,N,11702.906565,W,59.1,280.5,180410,,,A*4F
$GPRMC,221304.9,A,3251.194188,N,11702.967199,W,60.4,280.3,180410,,,A*40
$GPRMC,221307.9,A,3251.203109,N,11703.026516,W,60.5,280.1,180410,,,A*4A
$GPRMC,221310.9,A,3251.212421,N,11703.085474,W,61.0,280.3,180410,,,A*49
$GPRMC,221313.9,A,3251.221735,N,11703.146663,W,62.4,279.7,180410,,,A*43
$GPRMC,221316.9,A,3251.230567,N,11703.209834,W,63.1,279.1,180410,,,A*45
$GPRMC,221319.9,A,3251.240252,N,11703.270996,W,62.2,280.5,180410,,,A*4B
$GPRMC,221322.9,A,3251.248279,N,11703.329370,W,61.3,280.1,180410,,,A*4B
$GPRMC,221325.9,A,3251.258126,N,11703.392168,W,62.4,280.2,180410,,,A*48
$GPRMC,221328.9,A,3251.266700,N,11703.452540,W,61.7,280.4,180410,,,A*49
$GPRMC,221331.9,A,3251.275731,N,11703.514264,W,61.7,280.8,180410,,,A*4F
$GPRMC,221334.2,A,3251.282543,N,11703.560131,W,61.2,279.6,180410,,,A*43
$GPRMC,221337.2,A,3251.289362,N,11703.621017,W,60.8,276.6,180410,,,A*49
$GPRMC,221340.2,A,3251.292903,N,11703.681471,W,60.6,272.6,180410,,,A*4A
$GPRMC,221343.9,A,3251.295477,N,11703.753981,W,60.5,270.7,180410,,,A*47
$GPRMC,221346.9,A,3251.292322,N,11703.814172,W,61.5,266.1,180410,,,A*4A
$GPRMC,221349.9,A,3251.283379,N,11703.877565,W,63.0,261.0,180410,,,A*4D
$GPRMC,221352.9,A,3251.272386,N,11703.940814,W,64.6,257.7,180410,,,A*44
$GPRMC,221355.9,A,3251.258941,N,11704.000839,W,63.1,253.5,180410,,,A*49
$GPRMC,221358.9,A,3251.238419,N,11704.059021,W,64.5,247.5,180410,,,A*49
$GPRMC,221401.9,A,3251.216238,N,11704.118439,W,64.8,245.2,180410,,,A*4A
$GPRMC,221404.9,A,3251.190988,N,11704.173614,W,63.2,241.0,180410,,,A*49
$GPRMC,221407.9,A,3251.161820,N,11704.226472,W,64.9,238.4,180410,,,A*40
$GPRMC,221410.9,A,3251.129497,N,11704.278218,W,64.1,233.3,180410,,,A*4F
$GPRMC,221413.9,A,3251.094347,N,11704.327261,W,65.1,228.1,180410,,,A*4D
$GPRMC,221416.9,A,3251.058672,N,11704.374544,W,65.8,227.7,180410,,,A*4D
$GPRMC,221419.9,A,3251.020565,N,11704.422747,W,67.2,227.0,180410,,,A*42
$GPRMC,221422.9,A,3250.982377,N,11704.472843,W,69.3,227.9,180410,,,A*47
$GPRMC,221425.9,A,3250.942132,N,11704.523330,W,70.0,227.0,180410,,,A*47
$GPRMC,221428.9,A,3250.903095,N,11704.571672,W,67.5,227.0,180410,,,A*44
$GPRMC,221431.9,A,3250.864880,N,11704.620061,W,67.8,227.2,180410,,,A*4C
$GPRMC,221434.9,A,3250.826550,N,11704.669724,W,68.5,227.3,180410,,,A*47
$GPRMC,221437.9,A,3250.789566,N,11704.718023,W,68.1,228.6,180410,,,A*42
$GPRMC,221440.9,A,3250.752439,N,11704.771173,W,70.1,232.4,180410,,,A*44
$GPRMC,221443.9,A,3250.719460,N,11704.828816,W,71.8,236.7,180410,,,A*42
$GPRMC,221446.9,A,3250.688593,N,11704.889392,W,71.5,240.2,180410,,,A*46
$GPRMC,221449.9,A,3250.662662,N,11704.949669,W,70.3,243.9,180410,,,A*43
$GPRMC,221452.9,A,3250.641259,N,11705.015904,W,71.7,249.0,180410,,,A*47
$GPRMC,221455.9,A,3250.622023,N,11705.080812,W,69.8,251.2,180410,,,A*4D
$GPRMC,221458.9,A,3250.608223,N,11705.148319,W,70.7,255.3,180410,,,A*4D
$GPRMC,221501.9,A,3250.594693,N,11705.217441,W,72.5,256.4,180410,,,A*4E
$GPRMC,221504.9,A,3250.580114,N,11705.285182,W,70.2,255.1,180410,,,A*44
$GPRMC,221507.9,A,3250.565513,N,11705.350319,W,68.9,255.0,180410,,,A*45
$GPRMC,221510.9,A,3250.548544,N,11705.416516,W,69.6,254.1,180410,,,A*4C
$GPRMC,221513.9,A,3250.535085,N,11705.482629,W,69.6,255.1,180410,,,A*4E
$GPRMC,221516.9,A,3250.519368,N,11705.546172,W,68.7,253.8,180410,,,A*4A
$GPRMC,221519.9,A,3250.505469,N,11705.613081,W,69.4,255.2,180410,,,A*4E
$GPRMC,221522.9,A,3250.494103,N,11705.676684,W,66.8,258.6,180410,,,A*4C
$GPRMC,221525.9,A,3250.488834,N,11705.741200,W,66.7,264.3,180410,,,A*43
$GPRMC,221528.9,A,3250.488809,N,11705.808233,W,65.6,270.1,180410,,,A*47
$GPRMC,221531.9,A,3250.489880,N,11705.870680,W,63.6,271.5,180410,,,A*4F
$GPRMC,221534.9,A,3250.491862,N,11705.935412,W,65.1,271.7,180410,,,A*45
$GPRMC,221537.9,A,3250.493778,N,11705.996640,W,63.8,272.3,180410,,,A*44
$GPRMC,221540.9,A,3250.495507,N,11706.059883,W,63.6,272.5,180410,,,A*48
$GPRMC,221543.9,A,3250.497558,N,11706.120888,W,62.1,272.2,180410,,,A*46
$GPRMC,221546.9,A,3250.502696,N,11706.185487,W,64.5,273.8,180410,,,A*4A
$GPRMC,221549.9,A,3250.505951,N,11706.247313,W,62.6,273.5,180410,,,A*49
$GPRMC,221552.9,A,3250.507610,N,11706.307434,W,62.1,273.6,180410,,,A*48
$GPRMC,221555.9,A,3250.510827,N,11706.369241,W,60.7,273.5,180410,,,A*48
$GPRMC,221558.9,A,3250.513401,N,11706.427025,W,59.3,273.1,180410,,,A*49
$GPRMC,221601.9,A,3250.515130,N,11706.485119,W,59.5,272.3,180410,,,A*44
$GPRMC,221604.9,A,3250.518530,N,11706.544701,W,60.9,274.3,180410,,,A*4B
$GPRMC,221607.9,A,3250.521203,N,11706.603574,W,59.7,272.9,180410,,,A*4D
$GPRMC,221610.9,A,3250.521747,N,11706.664186,W,61.2,272.1,180410,,,A*40
$GPRMC,221613.9,A,3250.522971,N,11706.726198,W,61.6,271.5,180410,,,A*40
$GPRMC,221616.9,A,3250.527611,N,11706.787268,W,62.1,273.5,180410,,,A*48
$GPRMC,221619.9,A,3250.529685,N,11706.848684,W,62.1,272.3,180410,,,A*49
$GPRMC,221622.9,A,3250.533093,N,11706.909779,W,62.8,272.2,180410,,,A*44
$GPRMC,221625.9,A,3250.535232,N,11706.973228,W,62.9,271.7,180410,,,A*47
$GPRMC,221628.9,A,3250.535787,N,11707.029383,W,56.3,272.8,180410,,,A*47
$GPRMC,221631.9,A,3250.542498,N,11707.078981,W,50.7,283.2,180410,,,A*48
$GPRMC,221634.9,A,3250.560787,N,11707.122642,W,49.3,294.8,180410,,,A*4E
$GPRMC,221637.9,A,3250.607357,N,11707.142536,W,50.5,331.1,180410,,,A*49
$GPRMC,221640.9,A,3250.652660,N,11707.142044,W,53.0,358.4,180410,,,A*44
$GPRMC,221643.9,A,3250.700140,N,11707.108463,W,59.8,23.9,180410,,,A*7B
$GPRMC,221646.9,A,3250.748767,N,11707.078930,W,63.8,25.2,180410,,,A*78
$GPRMC,221649.9,A,3250.798372,N,11707.048784,W,65.5,27.5,180410,,,A*76
$GPRMC,221652.9,A,3250.845946,N,11707.021637,W,60.7,24.5,180410,,,A*7C
$GPRMC,221655.9,A,3250.884725,N,11706.999412,W,50.5,23.5,180410,,,A*75
$GPRMC,221658.9,A,3250.924498,N,11706.983891,W,50.7,19.4,180410,,,A*70
$GPRMC,221701.9,A,3250.966307,N,11706.968807,W,53.6,17.0,180410,,,A*78
$GPRMC,221704.2,A,3251.000669,N,11706.957316,W,57.5,15.7,180410,,,A*76
$GPRMC,221707.2,A,3251.047926,N,11706.941165,W,60.3,16.1,180410,,,A*74
$GPRMC,221710.2,A,3251.097805,N,11706.925050,W,63.7,15.1,180410,,,A*7E
$GPRMC,221713.2,A,3251.149647,N,11706.909357,W,63.5,14.4,180410,,,A*7B
$GPRMC,221716.0,A,3251.196343,N,11706.894690,W,61.7,15.4,180410,,,A*75
$GPRMC,221719.9,A,3251.260859,N,11706.872122,W,62.7,18.5,180410,,,A*70
$GPRMC,221722.9,A,3251.310608,N,11706.847853,W,63.1,23.0,180410,,,A*77
$GPRMC,221725.9,A,3251.358050,N,11706.822096,W,62.3,24.7,180410,,,A*76
$GPRMC,221728.9,A,3251.404102,N,11706.792252,W,62.8,27.9,180410,,,A*7B
$GPRMC,221731.9,A,3251.450703,N,11706.763965,W,63.0,27.8,180410,,,A*7C
$GPRMC,221734.9,A,3251.496383,N,11706.739628,W,60.8,24.4,180410,,,A*72
$GPRMC,221737.9,A,3251.542305,N,11706.715984,W,60.4,24.3,180410,,,A*7B
$GPRMC,221740.9,A,3251.587739,N,11706.693091,W,61.7,22.7,180410,,,A*7B
$GPRMC,221743.9,A,3251.635067,N,11706.673241,W,61.9,19.6,180410,,,A*78
$GPRMC,221746.9,A,3251.683899,N,11706.651823,W,63.5,20.2,180410,,,A*77
$GPRMC,221749.9,A,3251.734652,N,11706.628215,W,65.0,21.4,180410,,,A*79
$GPRMC,221752.9,A,3251.785118,N,11706.604803,W,65.9,21.5,180410,,,A*7B
$GPRMC,221755.9,A,3251.837569,N,11706.582144,W,67.1,21.4,180410,,,A*74
$GPRMC,221758.9,A,3251.887147,N,11706.555577,W,65.7,23.2,180410,,,A*74
$GPRMC,221801.9,A,3251.941416,N,11706.532307,W,66.2,20.6,180410,,,A*7C
$GPRMC,221804.9,A,3251.989223,N,11706.508060,W,63.5,22.1,180410,,,A*71
$GPRMC,221807.9,A,3252.037722,N,11706.485915,W,62.5,20.2,180410,,,A*76
$GPRMC,221810.9,A,3252.087580,N,11706.466017,W,61.2,17.9,180410,,,A*7C
$GPRMC,221813.9,A,3252.134726,N,11706.449000,W,56.1,16.4,180410,,,A*78
$GPRMC,221816.9,A,3252.179330,N,11706.437214,W,55.5,13.2,180410,,,A*7D
$GPRMC,221819.9,A,3252.222395,N,11706.428415,W,53.7,9.9,180410,,,A*4D
$GPRMC,221822.9,A,3252.266586,N,11706.422676,W,53.2,7.4,180410,,,A*4A
$GPRMC,221825.9,A,3252.310445,N,11706.416621,W,51.3,5.8,180410,,,A*4B
$GPRMC,221828.9,A,3252.350605,N,11706.412289,W,48.7,4.6,180410,,,A*45
$GPRMC,221831.9,A,3252.391667,N,11706.410878,W,49.9,1.4,180410,,,A*4A
$GPRMC,221834.9,A,3252.434378,N,11706.411461,W,50.4,359.9,180410,,,A*4F
$GPRMC,221837.9,A,3252.476512,N,11706.413094,W,49.9,358.5,180410,,,A*44
$GPRMC,221840.9,A,3252.516738,N,11706.416685,W,51.0,355.5,180410,,,A*47
$GPRMC,221843.9,A,3252.560007,N,11706.420802,W,52.5,353.9,180410,,,A*46
$GPRMC,221846.9,A,3252.603965,N,11706.427002,W,52.6,352.2,180410,,,A*4E
$GPRMC,221849.9,A,3252.648535,N,11706.436709,W,52.6,349.5,180410,,,A*46
$GPRMC,221852.9,A,3252.691390,N,11706.446702,W,52.4,347.8,180410,,,A*4C
$GPRMC,221855.9,A,3252.734848,N,11706.458741,W,53.8,346.5,180410,,,A*42
$GPRMC,221858.9,A,3252.779192,N,11706.472270,W,53.6,344.7,180410,,,A*49
$GPRMC,221901.9,A,3252.821984,N,11706.487636,W,55.1,343.3,180410,,,A*47
$GPRMC,221904.9,A,3252.864613,N,11706.505179,W,54.8,340.7,180410,,,A*4A
$GPRMC,221907.9,A,3252.908282,N,11706.525991,W,55.4,337.5,180410,,,A*4D
$GPRMC,221910.9,A,3252.949977,N,11706.546294,W,56.5,337.8,180410,,,A*4B
$GPRMC,221913.9,A,3252.998123,N,11706.573336,W,61.6,334.3,180410,,,A*4D
$GPRMC,221916.9,A,3253.044386,N,11706.601813,W,63.7,332.4,180410,,,A*44
$GPRMC,221919.9,A,3253.093332,N,11706.631950,W,66.3,332.5,180410,,,A*4B
$GPRMC,221922.9,A,3253.141627,N,11706.662041,W,65.2,332.2,180410,,,A*46
$GPRMC,221925.9,A,3253.188099,N,11706.691049,W,63.7,332.1,180410,,,A*43
$GPRMC,221928.9,A,3253.236999,N,11706.719058,W,64.5,333.3,180410,,,A*46
$GPRMC,221931.9,A,3253.286443,N,11706.748517,W,66.2,333.5,180410,,,A*46
$GPRMC,221934.9,A,3253.336161,N,11706.778225,W,67.7,333.0,180410,,,A*48
$GPRMC,221937.9,A,3253.388381,N,11706.808861,W,69.5,334.9,180410,,,A*42
$GPRMC,221940.9,A,3253.444527,N,11706.835835,W,71.6,337.3,180410,,,A*43
$GPRMC,221943.9,A,3253.501610,N,11706.862648,W,74.1,338.8,180410,,,A*47
$GPRMC,221946.9,A,3253.560130,N,11706.886539,W,74.9,342.0,180410,,,A*42
$GPRMC,221950.2,A,3253.624952,N,11706.908735,W,74.4,344.6,180410,,,A*45
$GPRMC,221953.9,A,3253.697837,N,11706.934700,W,72.9,345.1,180410,,,A*43
$GPRMC,221956.9,A,3253.758093,N,11706.950415,W,72.4,348.9,180410,,,A*4F
$GPRMC,221959.9,A,3253.817099,N,11706.960045,W,70.9,351.8,180410,,,A*4A
$GPRMC,222002.9,A,3253.876055,N,11706.968246,W,71.2,353.8,180410,,,A*48
$GPRMC,222005.9,A,3253.933149,N,11706.973298,W,68.6,357.8,180410,,,A*42
$GPRMC,222008.9,A,3253.991421,N,11706.972207,W,70.0,0.2,180410,,,A*4F
$GPRMC,222011.9,A,3254.051279,N,11706.973164,W,70.8,0.2,180410,,,A*41
$GPRMC,222014.9,A,3254.111553,N,11706.974398,W,71.1,360.0,180410,,,A*47
$GPRMC,222017.9,A,3254.170350,N,11706.972467,W,70.7,0.1,180410,,,A*44
$GPRMC,222021.2,A,3254.237128,N,11706.974557,W,73.4,358.4,180410,,,A*48
$GPRMC,222024.9,A,3254.311717,N,11706.974793,W,73.6,359.7,180410,,,A*43
$GPRMC,222027.9,A,3254.370623,N,11706.973020,W,70.9,0.8,180410,,,A*45
$GPRMC,222030.9,A,3254.430225,N,11706.974969,W,71.1,359.3,180410,,,A*4C
$GPRMC,222033.9,A,3254.489925,N,11706.975918,W,72.0,359.7,180410,,,A*47
$GPRMC,222036.9,A,3254.550357,N,11706.975297,W,71.0,359.8,180410,,,A*48
$GPRMC,222039.9,A,3254.608084,N,11706.975489,W,68.9,0.2,180410,,,A*49
$GPRMC,222042.9,A,3254.663204,N,11706.974002,W,65.6,0.5,180410,,,A*41
$GPRMC,222045.9,A,3254.716886,N,11706.974498,W,64.4,0.7,180410,,,A*43
$GPRMC,222048.9,A,3254.770958,N,11706.972600,W,64.6,1.8,180410,,,A*45
$GPRMC,222051.9,A,3254.825514,N,11706.970019,W,64.7,1.7,180410,,,A*44
$GPRMC,222054.9,A,3254.880643,N,11706.965285,W,65.0,3.7,180410,,,A*48
$GPRMC,222057.9,A,3254.934926,N,11706.960693,W,65.9,3.7,180410,,,A*46
$GPRMC,222100.9,A,3254.991340,N,11706.955115,W,67.9,4.0,180410,,,A*4D
$GPRMC,222103.9,A,3255.049518,N,11706.950384,W,67.9,4.8,180410,,,A*4F
$GPRMC,222106.9,A,3255.105795,N,11706.943010,W,67.7,6.3,180410,,,A*4F
$GPRMC,222109.9,A,3255.161875,N,11706.935746,W,67.7,6.5,180410,,,A*40
$GPRMC,222112.9,A,3255.217844,N,11706.928104,W,68.5,6.8,180410,,,A*46
$GPRMC,222115.9,A,3255.274469,N,11706.918308,W,68.9,8.6,180410,,,A*46
$GPRMC,222118.9,A,3255.331978,N,11706.907330,W,70.0,10.2,180410,,,A*7E
$GPRMC,222121.9,A,3255.388944,N,11706.895298,W,68.5,10.0,180410,,,A*7E
$GPRMC,222124.9,A,3255.445946,N,11706.884340,W,68.2,9.5,180410,,,A*41
$GPRMC,222127.9,A,3255.501576,N,11706.872027,W,67.8,11.0,180410,,,A*7E
$GPRMC,222130.9,A,3255.557959,N,11706.858886,W,67.6,11.7,180410,,,A*78
$GPRMC,222133.9,A,3255.610588,N,11706.842301,W,66.8,14.6,180410,,,A*7F
$GPRMC,222136.9,A,3255.663338,N,11706.825606,W,65.0,14.0,180410,,,A*7D
$GPRMC,222139.9,A,3255.715607,N,11706.810913,W,65.0,12.9,180410,,,A*79
$GPRMC,222142.9,A,3255.770630,N,11706.795615,W,66.4,13.6,180410,,,A*70
$GPRMC,222145.9,A,3255.821531,N,11706.777693,W,64.7,16.0,180410,,,A*7E
$GPRMC,222148.9,A,3255.876559,N,11706.764175,W,66.5,12.9,180410,,,A*7F
$GPRMC,222151.9,A,3255.929143,N,11706.747000,W,66.0,14.4,180410,,,A*7F
$GPRMC,222154.9,A,3255.982412,N,11706.733022,W,64.3,14.0,180410,,,A*7C
$GPRMC,222157.9,A,3256.035268,N,11706.715744,W,65.3,14.6,180410,,,A*76
$GPRMC,222200.9,A,3256.087822,N,11706.699879,W,64.5,14.3,180410,,,A*7C
$GPRMC,222203.9,A,3256.136952,N,11706.684718,W,61.0,14.4,180410,,,A*71
$GPRMC,222206.9,A,3256.190373,N,11706.669717,W,65.3,14.1,180410,,,A*7F
$GPRMC,222209.9,A,3256.244580,N,11706.652648,W,67.4,12.2,180410,,,A*73
$GPRMC,222212.9,A,3256.295731,N,11706.637874,W,64.3,14.2,180410,,,A*7D
$GPRMC,222215.9,A,3256.347134,N,11706.621814,W,64.1,14.9,180410,,,A*7F
$GPRMC,222218.9,A,3256.400229,N,11706.606865,W,64.7,13.5,180410,,,A*77
$GPRMC,222221.9,A,3256.452727,N,11706.589796,W,64.7,15.3,180410,,,A*76
$GPRMC,222224.9,A,3256.504393,N,11706.571785,W,64.1,16.7,180410,,,A*7E
$GPRMC,222227.9,A,3256.559859,N,11706.551573,W,66.0,18.3,180410,,,A*78
$GPRMC,222230.9,A,3256.607687,N,11706.525929,W,63.6,22.9,180410,,,A*7B
$GPRMC,222233.9,A,3256.658353,N,11706.500638,W,65.1,23.5,180410,,,A*7A
$GPRMC,222236.9,A,3256.704021,N,11706.472354,W,63.9,27.7,180410,,,A*72
$GPRMC,222239.9,A,3256.753907,N,11706.441667,W,65.4,29.1,180410,,,A*74
$GPRMC,222242.9,A,3256.800216,N,11706.409090,W,63.5,30.6,180410,,,A*70
$GPRMC,222245.9,A,3256.849256,N,11706.376695,W,65.7,29.4,180410,,,A*7C
$GPRMC,222248.9,A,3256.894863,N,11706.342946,W,64.8,30.7,180410,,,A*7E
$GPRMC,222251.9,A,3256.942268,N,11706.310245,W,64.6,29.8,180410,,,A*7B
$GPRMC,222254.9,A,3256.989682,N,11706.278564,W,65.1,29.7,180410,,,A*7B
$GPRMC,222257.9,A,3257.036783,N,11706.245952,W,64.4,30.1,180410,,,A*79
$GPRMC,222300.9,A,3257.086033,N,11706.213979,W,65.9,29.8,180410,,,A*7A
$GPRMC,222303.9,A,3257.132588,N,11706.182045,W,65.8,29.3,180410,,,A*75
$GPRMC,222306.9,A,3257.180880,N,11706.151187,W,65.7,28.3,180410,,,A*73
$GPRMC,222309.9,A,3257.230887,N,11706.120628,W,66.4,27.1,180410,,,A*7A
$GPRMC,222312.9,A,3257.277292,N,11706.092141,W,64.5,27.7,180410,,,A*78
$GPRMC,222315.9,A,3257.324243,N,11706.061969,W,64.8,27.8,180410,,,A*78
$GPRMC,222318.9,A,3257.372491,N,11706.031482,W,65.4,28.4,180410,,,A*7C
$GPRMC,222321.9,A,3257.420558,N,11706.000884,W,65.0,28.0,180410,,,A*7A
$GPRMC,222324.9,A,3257.468475,N,11705.969451,W,65.0,28.6,180410,,,A*7A
$GPRMC,222327.9,A,3257.517981,N,11705.940816,W,66.2,27.2,180410,,,A*78
$GPRMC,222330.9,A,3257.564074,N,11705.912868,W,63.7,27.7,180410,,,A*72
$GPRMC,222333.9,A,3257.611284,N,11705.883174,W,64.9,29.0,180410,,,A*70
$GPRMC,222336.9,A,3257.659166,N,11705.850844,W,66.3,29.9,180410,,,A*73
$GPRMC,222339.9,A,3257.707711,N,11705.817635,W,64.8,29.2,180410,,,A*79
$GPRMC,222342.9,A,3257.755113,N,11705.785676,W,64.9,29.4,180410,,,A*72
$GPRMC,222345.2,A,3257.792636,N,11705.762611,W,65.1,28.1,180410,,,A*70
$GPRMC,222348.9,A,3257.851038,N,11705.723980,W,65.4,28.7,180410,,,A*7F
$GPRMC,222352.2,A,3257.902654,N,11705.692213,W,64.0,28.6,180410,,,A*7A
$GPRMC,222355.9,A,3257.962222,N,11705.656561,W,65.6,27.6,180410,,,A*77
$GPRMC,222358.9,A,3258.010057,N,11705.626717,W,64.9,28.2,180410,,,A*78
$GPRMC,222401.9,A,3258.057506,N,11705.596115,W,64.8,29.5,180410,,,A*7A
$GPRMC,222404.9,A,3258.104952,N,11705.565030,W,65.1,28.3,180410,,,A*70
$GPRMC,222407.9,A,3258.152986,N,11705.534247,W,65.4,28.5,180410,,,A*7C
$GPRMC,222410.9,A,3258.200599,N,11705.504519,W,64.7,28.3,180410,,,A*77
$GPRMC,222413.9,A,3258.249438,N,11705.475417,W,65.0,26.9,180410,,,A*79
$GPRMC,222416.9,A,3258.299652,N,11705.446038,W,66.0,27.4,180410,,,A*79
$GPRMC,222419.9,A,3258.345747,N,11705.416205,W,64.7,28.0,180410,,,A*74
$GPRMC,222422.9,A,3258.392598,N,11705.385209,W,65.2,29.0,180410,,,A*72
$GPRMC,222425.9,A,3258.441235,N,11705.355447,W,65.2,27.7,180410,,,A*74
$GPRMC,222428.9,A,3258.488262,N,11705.323249,W,64.9,29.5,180410,,,A*71
$GPRMC,222431.9,A,3258.536432,N,11705.294739,W,64.6,27.8,180410,,,A*7D
$GPRMC,222434.9,A,3258.584909,N,11705.264613,W,65.3,27.6,180410,,,A*78
$GPRMC,222437.9,A,3258.631640,N,11705.235257,W,64.4,28.2,180410,,,A*79
$GPRMC,222440.9,A,3258.680496,N,11705.204431,W,65.6,28.1,180410,,,A*7E
$GPRMC,222443.9,A,3258.728374,N,11705.175014,W,64.8,27.8,180410,,,A*7A
$GPRMC,222446.0,A,3258.760804,N,11705.153659,W,64.8,28.6,180410,,,A*7C
$GPRMC,222449.9,A,3258.824205,N,11705.113332,W,65.6,28.4,180410,,,A*7F
$GPRMC,222452.9,A,3258.872783,N,11705.083218,W,65.5,28.1,180410,,,A*7A
$GPRMC,222455.9,A,3258.919545,N,11705.051917,W,64.9,28.4,180410,,,A*7A
$GPRMC,222458.9,A,3258.967931,N,11705.023358,W,65.6,25.5,180410,,,A*77
$GPRMC,222501.9,A,3259.016831,N,11704.997796,W,64.6,22.0,180410,,,A*77
$GPRMC,222504.9,A,3259.067165,N,11704.978167,W,64.6,17.1,180410,,,A*72
$GPRMC,222507.9,A,3259.119195,N,11704.964992,W,64.0,12.0,180410,,,A*7B
$GPRMC,222510.9,A,3259.173155,N,11704.955725,W,64.6,8.2,180410,,,A*42
$GPRMC,222513.9,A,3259.227814,N,11704.949894,W,64.6,3.5,180410,,,A*4B
$GPRMC,222516.9,A,3259.281989,N,11704.948652,W,65.0,359.2,180410,,,A*4E
$GPRMC,222519.9,A,3259.336310,N,11704.956088,W,65.2,354.0,180410,,,A*45
$GPRMC,222522.9,A,3259.390502,N,11704.966589,W,64.7,350.6,180410,,,A*45
$GPRMC,222525.9,A,3259.444996,N,11704.982160,W,66.0,349.1,180410,,,A*4E
$GPRMC,222528.9,A,3259.499346,N,11704.995465,W,65.7,349.7,180410,,,A*40
$GPRMC,222531.9,A,3259.550574,N,11705.004797,W,64.3,351.1,180410,,,A*4F
$GPRMC,222534.9,A,3259.603307,N,11705.011852,W,65.5,354.7,180410,,,A*4B
$GPRMC,222537.9,A,3259.657962,N,11705.014296,W,65.3,358.8,180410,,,A*42
$GPRMC,222540.9,A,3259.711620,N,11705.011377,W,65.3,3.0,180410,,,A*46
$GPRMC,222543.9,A,3259.765447,N,11705.004205,W,64.8,6.7,180410,,,A*4D
$GPRMC,222546.9,A,3259.819707,N,11704.995074,W,65.1,9.4,180410,,,A*4B
$GPRMC,222549.9,A,3259.872662,N,11704.982334,W,64.9,13.1,180410,,,A*7D
$GPRMC,222552.9,A,3259.924499,N,11704.965249,W,64.6,15.8,180410,,,A*71
$GPRMC,222555.9,A,3259.977333,N,11704.945766,W,65.5,16.9,180410,,,A*7D
$GPRMC,222558.9,A,3300.030372,N,11704.927672,W,66.0,17.7,180410,,,A*7B
$GPRMC,222601.9,A,3300.081239,N,11704.908463,W,64.5,17.4,180410,,,A*7B
$GPRMC,222604.2,A,3300.121019,N,11704.893824,W,65.0,17.1,180410,,,A*73
$GPRMC,222607.2,A,3300.173218,N,11704.874699,W,65.4,16.9,180410,,,A*78
$GPRMC,222610.2,A,3300.225406,N,11704.856494,W,65.3,15.3,180410,,,A*76
$GPRMC,222613.9,A,3300.289970,N,11704.838469,W,64.9,12.1,180410,,,A*70
$GPRMC,222616.9,A,3300.343024,N,11704.825114,W,65.0,10.8,180410,,,A*7A
$GPRMC,222619.9,A,3300.395217,N,11704.815234,W,64.2,8.7,180410,,,A*4B
$GPRMC,222622.9,A,3300.450561,N,11704.808149,W,64.2,6.1,180410,,,A*46
$GPRMC,222625.9,A,3300.507004,N,11704.804786,W,65.4,3.5,180410,,,A*4B
$GPRMC,222628.9,A,3300.560848,N,11704.796531,W,64.8,5.6,180410,,,A*45
$GPRMC,222631.9,A,3300.613603,N,11704.788270,W,63.3,7.8,180410,,,A*46
$GPRMC,222634.9,A,3300.665953,N,11704.782895,W,63.7,4.3,180410,,,A*4F
$GPRMC,222637.9,A,3300.719964,N,11704.776944,W,65.0,4.8,180410,,,A*4E
$GPRMC,222640.9,A,3300.778821,N,11704.770882,W,67.1,4.7,180410,,,A*48
$GPRMC,222643.9,A,3300.830813,N,11704.764365,W,64.6,5.9,180410,,,A*45
$GPRMC,222646.9,A,3300.884893,N,11704.756240,W,64.9,5.8,180410,,,A*4E
$GPRMC,222649.9,A,3300.939276,N,11704.750010,W,64.9,6.2,180410,,,A*4F
$GPRMC,222652.9,A,3300.992265,N,11704.744008,W,64.8,5.4,180410,,,A*4E
$GPRMC,222655.9,A,3301.046150,N,11704.740509,W,64.1,4.6,180410,,,A*47
$GPRMC,222658.9,A,3301.100408,N,11704.733525,W,65.2,5.3,180410,,,A*4D
$GPRMC,222701.9,A,3301.154829,N,11704.727666,W,64.3,5.4,180410,,,A*48
$GPRMC,222704.9,A,3301.208339,N,11704.720953,W,64.9,5.4,180410,,,A*49
$GPRMC,222707.9,A,3301.261491,N,11704.714661,W,64.9,4.2,180410,,,A*4E
$GPRMC,222710.9,A,3301.315603,N,11704.712854,W,65.5,2.0,180410,,,A*44
$GPRMC,222713.9,A,3301.371273,N,11704.711926,W,65.6,0.4,180410,,,A*44
$GPRMC,222716.9,A,3301.424879,N,11704.711225,W,64.7,0.5,180410,,,A*4F
$GPRMC,222719.9,A,3301.478331,N,11704.711070,W,64.9,0.1,180410,,,A*46
$GPRMC,222722.9,A,3301.533776,N,11704.711653,W,65.4,359.4,180410,,,A*46
$GPRMC,222725.9,A,3301.588440,N,11704.712827,W,65.8,360.0,180410,,,A*4B
$GPRMC,222728.9,A,3301.642570,N,11704.711487,W,65.0,0.8,180410,,,A*41
$GPRMC,222731.9,A,3301.697304,N,11704.710575,W,65.0,0.7,180410,,,A*46
$GPRMC,222734.9,A,3301.751835,N,11704.708945,W,65.1,2.6,180410,,,A*45
$GPRMC,222737.9,A,3301.807468,N,11704.702135,W,66.1,6.2,180410,,,A*48
$GPRMC,222740.9,A,3301.861561,N,11704.693492,W,65.9,7.9,180410,,,A*40
$GPRMC,222743.9,A,3301.912879,N,11704.680915,W,64.8,12.5,180410,,,A*7A
$GPRMC,222746.9,A,3301.965767,N,11704.663579,W,65.5,15.4,180410,,,A*7E
$GPRMC,222749.9,A,3302.016589,N,11704.642006,W,65.1,19.1,180410,,,A*7E
$GPRMC,222752.9,A,3302.067273,N,11704.621609,W,64.6,19.4,180410,,,A*7F
$GPRMC,222755.9,A,3302.120461,N,11704.600697,W,65.7,18.3,180410,,,A*7D
$GPRMC,222758.9,A,3302.171659,N,11704.580725,W,65.0,19.0,180410,,,A*7B
$GPRMC,222801.9,A,3302.222525,N,11704.559950,W,63.9,18.8,180410,,,A*7B
$GPRMC,222804.9,A,3302.272599,N,11704.537293,W,64.6,19.2,180410,,,A*73
$GPRMC,222807.9,A,3302.323122,N,11704.516687,W,65.0,18.2,180410,,,A*75
$GPRMC,222810.9,A,3302.376799,N,11704.495544,W,66.2,18.3,180410,,,A*73
$GPRMC,222813.9,A,3302.428811,N,11704.474325,W,65.1,18.3,180410,,,A*7D
$GPRMC,222816.9,A,3302.479704,N,11704.452452,W,65.5,19.2,180410,,,A*70
$GPRMC,222819.9,A,3302.530416,N,11704.431268,W,65.4,18.8,180410,,,A*73
$GPRMC,222822.9,A,3302.582526,N,11704.410991,W,65.1,18.5,180410,,,A*76
$GPRMC,222825.9,A,3302.633541,N,11704.388679,W,64.6,18.8,180410,,,A*7D
$GPRMC,222828.9,A,3302.685038,N,11704.372577,W,64.2,13.8,180410,,,A*71
$GPRMC,222831.9,A,3302.738766,N,11704.361198,W,64.5,9.0,180410,,,A*41
$GPRMC,222834.9,A,3302.791795,N,11704.355064,W,64.5,4.2,180410,,,A*41
$GPRMC,222837.9,A,3302.846064,N,11704.355385,W,64.8,358.5,180410,,,A*42
$GPRMC,222840.9,A,3302.901242,N,11704.359587,W,65.8,357.1,180410,,,A*44
$GPRMC,222843.9,A,3302.955828,N,11704.362829,W,65.1,357.5,180410,,,A*4C
$GPRMC,222846.9,A,3303.009364,N,11704.364233,W,64.6,0.1,180410,,,A*4F
$GPRMC,222849.9,A,3303.063856,N,11704.359394,W,65.8,3.9,180410,,,A*40
$GPRMC,222852.9,A,3303.119130,N,11704.351836,W,66.4,7.0,180410,,,A*46
$GPRMC,222855.9,A,3303.172773,N,11704.341316,W,65.3,9.2,180410,,,A*4D
$GPRMC,222858.9,A,3303.224734,N,11704.326569,W,64.6,13.4,180410,,,A*75
$GPRMC,222901.9,A,3303.277298,N,11704.308962,W,65.4,16.5,180410,,,A*71
$GPRMC,222904.9,A,3303.328912,N,11704.287725,W,66.0,19.2,180410,,,A*72
$GPRMC,222907.9,A,3303.380683,N,11704.263895,W,66.0,21.1,180410,,,A*72
$GPRMC,222910.9,A,3303.429227,N,11704.239447,W,64.0,21.8,180410,,,A*7D
$GPRMC,222913.9,A,3303.479805,N,11704.216222,W,64.6,21.5,180410,,,A*72
$GPRMC,222916.9,A,3303.529592,N,11704.191329,W,64.3,21.3,180410,,,A*75
$GPRMC,222919.9,A,3303.580468,N,11704.170753,W,64.9,17.7,180410,,,A*70
$GPRMC,222922.9,A,3303.631537,N,11704.151898,W,63.9,16.0,180410,,,A*70
$GPRMC,222925.9,A,3303.683256,N,11704.138715,W,62.0,11.9,180410,,,A*7D
$GPRMC,222928.9,A,3303.739930,N,11704.128211,W,65.4,8.6,180410,,,A*4F
$GPRMC,222931.9,A,3303.795051,N,11704.124678,W,65.7,4.1,180410,,,A*40
$GPRMC,222934.2,A,3303.836808,N,11704.121172,W,65.2,2.0,180410,,,A*46
$GPRMC,222937.2,A,3303.891614,N,11704.120091,W,64.9,358.9,180410,,,A*49
$GPRMC,222940.2,A,3303.945192,N,11704.123650,W,64.9,355.9,180410,,,A*4D
$GPRMC,222943.2,A,3303.999333,N,11704.130093,W,65.1,353.7,180410,,,A*4C
$GPRMC,222946.9,A,3304.065724,N,11704.139917,W,65.4,353.3,180410,,,A*40
$GPRMC,222949.9,A,3304.120053,N,11704.148517,W,65.4,353.4,180410,,,A*45
$GPRMC,222953.2,A,3304.177747,N,11704.157689,W,63.0,353.3,180410,,,A*4A
$GPRMC,222956.9,A,3304.244746,N,11704.167269,W,64.7,353.8,180410,,,A*44
$GPRMC,222959.9,A,3304.298711,N,11704.173072,W,64.9,353.9,180410,,,A*4A
$GPRMC,223002.9,A,3304.353520,N,11704.180925,W,66.2,353.3,180410,,,A*4E
$GPRMC,223005.9,A,3304.407591,N,11704.187981,W,65.0,352.8,180410,,,A*47
$GPRMC,223008.2,A,3304.446864,N,11704.193284,W,62.5,352.8,180410,,,A*4A
$GPRMC,223011.9,A,3304.514534,N,11704.203720,W,65.2,352.0,180410,,,A*4E
$GPRMC,223014.9,A,3304.566758,N,11704.215428,W,64.8,349.7,180410,,,A*4C
$GPRMC,223017.9,A,3304.619839,N,11704.228506,W,64.9,348.5,180410,,,A*4D
$GPRMC,223020.9,A,3304.672507,N,11704.246040,W,64.9,342.9,180410,,,A*4D
$GPRMC,223023.9,A,3304.723061,N,11704.269904,W,64.4,339.4,180410,,,A*46
$GPRMC,223026.9,A,3304.771525,N,11704.290111,W,63.3,340.3,180410,,,A*42
$GPRMC,223029.9,A,3304.822801,N,11704.311898,W,63.5,342.1,180410,,,A*49
$GPRMC,223032.9,A,3304.872652,N,11704.337762,W,63.9,336.3,180410,,,A*4D
$GPRMC,223035.9,A,3304.923207,N,11704.365415,W,66.0,335.0,180410,,,A*43
$GPRMC,223038.9,A,3304.973001,N,11704.395006,W,65.7,332.2,180410,,,A*47
$GPRMC,223041.9,A,3305.018805,N,11704.426828,W,65.1,329.5,180410,,,A*40
$GPRMC,223044.9,A,3305.064548,N,11704.460396,W,64.5,327.7,180410,,,A*4F
$GPRMC,223047.9,A,3305.110311,N,11704.495717,W,65.8,326.6,180410,,,A*4F
$GPRMC,223050.9,A,3305.154629,N,11704.535164,W,65.4,324.1,180410,,,A*47
$GPRMC,223053.9,A,3305.194669,N,11704.573887,W,62.3,321.1,180410,,,A*4F
$GPRMC,223056.9,A,3305.234788,N,11704.616700,W,64.4,319.2,180410,,,A*44
$GPRMC,223059.9,A,3305.273198,N,11704.659393,W,63.9,317.7,180410,,,A*4B
$GPRMC,223102.9,A,3305.316245,N,11704.701072,W,64.8,319.1,180410,,,A*4B
$GPRMC,223105.9,A,3305.359250,N,11704.743399,W,66.0,318.2,180410,,,A*4B
$GPRMC,223108.9,A,3305.401470,N,11704.786962,W,65.2,319.2,180410,,,A*4F
$GPRMC,223111.9,A,3305.440399,N,11704.830862,W,64.3,317.7,180410,,,A*4A
$GPRMC,223114.9,A,3305.479564,N,11704.876508,W,65.5,316.8,180410,,,A*4B
$GPRMC,223117.9,A,3305.520045,N,11704.916964,W,64.0,318.6,180410,,,A*46
$GPRMC,223120.9,A,3305.559980,N,11704.959921,W,65.7,317.4,180410,,,A*4D
$GPRMC,223123.9,A,3305.601357,N,11705.004737,W,66.0,317.6,180410,,,A*4F
$GPRMC,223126.9,A,3305.641600,N,11705.048444,W,64.8,317.5,180410,,,A*4F
$GPRMC,223129.9,A,3305.682036,N,11705.091404,W,64.3,317.6,180410,,,A*44
$GPRMC,223132.9,A,3305.719786,N,11705.137026,W,64.4,317.4,180410,,,A*4D
$GPRMC,223135.9,A,3305.760182,N,11705.182019,W,64.9,317.9,180410,,,A*44
$GPRMC,223138.9,A,3305.803922,N,11705.221691,W,66.7,320.9,180410,,,A*45
$GPRMC,223141.9,A,3305.848140,N,11705.262020,W,64.9,321.4,180410,,,A*43
$GPRMC,223144.9,A,3305.890025,N,11705.299652,W,63.5,323.7,180410,,,A*4C
$GPRMC,223147.9,A,3305.933156,N,11705.333492,W,62.9,327.4,180410,,,A*47
$GPRMC,223150.9,A,3305.977714,N,11705.369748,W,64.4,327.5,180410,,,A*40
$GPRMC,223153.9,A,3306.026299,N,11705.403037,W,65.2,329.8,180410,,,A*4D
$GPRMC,223156.9,A,3306.072694,N,11705.434304,W,64.2,331.9,180410,,,A*4E
$GPRMC,223159.9,A,3306.121613,N,11705.464178,W,64.1,334.8,180410,,,A*42
$GPRMC,223202.9,A,3306.170335,N,11705.489361,W,65.4,335.2,180410,,,A*4C
$GPRMC,223205.9,A,3306.219947,N,11705.518645,W,65.6,333.8,180410,,,A*4C
$GPRMC,223208.9,A,3306.267688,N,11705.545714,W,65.5,334.7,180410,,,A*42
$GPRMC,223211.9,A,3306.318806,N,11705.573592,W,65.4,334.8,180410,,,A*4C
$GPRMC,223214.9,A,3306.367444,N,11705.602318,W,66.1,333.6,180410,,,A*45
$GPRMC,223217.9,A,3306.418008,N,11705.630646,W,65.9,333.8,180410,,,A*4F
$GPRMC,223220.9,A,3306.467407,N,11705.659250,W,65.6,333.9,180410,,,A*4A
$GPRMC,223223.9,A,3306.513707,N,11705.685851,W,62.7,334.6,180410,,,A*4C
$GPRMC,223226.9,A,3306.558267,N,11705.714551,W,59.7,332.8,180410,,,A*41
$GPRMC,223229.9,A,3306.603846,N,11705.740905,W,63.3,332.1,180410,,,A*42
$GPRMC,223232.9,A,3306.651209,N,11705.769710,W,63.1,333.4,180410,,,A*49
$GPRMC,223235.9,A,3306.698103,N,11705.797460,W,62.3,333.8,180410,,,A*48
$GPRMC,223238.9,A,3306.746430,N,11705.823737,W,63.6,334.4,180410,,,A*4C
$GPRMC,223241.9,A,3306.792724,N,11705.853115,W,63.5,333.2,180410,,,A*4E
$GPRMC,223244.9,A,3306.839472,N,11705.880552,W,62.6,333.6,180410,,,A*4A
$GPRMC,223247.9,A,3306.885462,N,11705.907806,W,61.9,333.7,180410,,,A*40
$GPRMC,223250.9,A,3306.931683,N,11705.933068,W,60.7,333.6,180410,,,A*4C
$GPRMC,223253.9,A,3306.976691,N,11705.960577,W,60.2,332.5,180410,,,A*45
$GPRMC,223256.9,A,3307.020947,N,11705.986949,W,60.4,333.7,180410,,,A*43
$GPRMC,223259.9,A,3307.068138,N,11706.012008,W,62.7,335.0,180410,,,A*4B
$GPRMC,223302.9,A,3307.115642,N,11706.041662,W,64.4,334.3,180410,,,A*4E
$GPRMC,223305.9,A,3307.162029,N,11706.065579,W,58.8,336.2,180410,,,A*4D
$GPRMC,223308.9,A,3307.200542,N,11706.086942,W,49.2,335.0,180410,,,A*4D
$GPRMC,223311.9,A,3307.236486,N,11706.105241,W,47.1,334.1,180410,,,A*46
$GPRMC,223314.9,A,3307.271273,N,11706.125191,W,45.8,334.3,180410,,,A*49
$GPRMC,223317.9,A,3307.303392,N,11706.144783,W,43.5,334.2,180410,,,A*48
$GPRMC,223320.9,A,3307.338162,N,11706.163190,W,46.1,336.7,180410,,,A*4E
$GPRMC,223323.9,A,3307.376817,N,11706.180833,W,48.2,341.9,180410,,,A*42
$GPRMC,223326.9,A,3307.417179,N,11706.195965,W,51.0,343.7,180410,,,A*46
$GPRMC,223329.9,A,3307.460592,N,11706.204784,W,53.6,351.2,180410,,,A*40
$GPRMC,223332.9,A,3307.504792,N,11706.214645,W,53.2,347.8,180410,,,A*4F
$GPRMC,223335.9,A,3307.546238,N,11706.230653,W,50.7,344.0,180410,,,A*47
$GPRMC,223338.9,A,3307.583395,N,11706.261320,W,56.2,325.5,180410,,,A*41
$GPRMC,223341.9,A,3307.607601,N,11706.306711,W,55.6,303.8,180410,,,A*40
$GPRMC,223344.9,A,3307.623814,N,11706.362908,W,58.1,286.3,180410,,,A*40
$GPRMC,223347.9,A,3307.632979,N,11706.422543,W,61.9,280.0,180410,,,A*4E
$GPRMC,223350.9,A,3307.638841,N,11706.485615,W,64.4,278.7,180410,,,A*4D
$GPRMC,223353.9,A,3307.647805,N,11706.551078,W,67.1,279.5,180410,,,A*46
$GPRMC,223356.9,A,3307.660405,N,11706.616174,W,68.8,283.7,180410,,,A*46
$GPRMC,223359.9,A,3307.680022,N,11706.678900,W,68.6,290.6,180410,,,A*48
$GPRMC,223402.9,A,3307.703847,N,11706.740090,W,66.9,294.7,180410,,,A*4E
$GPRMC,223405.9,A,3307.727894,N,11706.798361,W,66.2,296.8,180410,,,A*4F
$GPRMC,223408.9,A,3307.752665,N,11706.857034,W,64.4,297.2,180410,,,A*40
$GPRMC,223411.9,A,3307.776813,N,11706.912262,W,61.6,297.3,180410,,,A*46
$GPRMC,223414.9,A,3307.799989,N,11706.967258,W,62.0,296.8,180410,,,A*44
$GPRMC,223417.9,A,3307.825147,N,11707.021775,W,62.4,299.0,180410,,,A*46
$GPRMC,223420.9,A,3307.848176,N,11707.076437,W,61.0,297.4,180410,,,A*41
$GPRMC,223423.9,A,3307.873047,N,11707.128779,W,60.4,297.1,180410,,,A*4A
$GPRMC,223426.9,A,3307.895343,N,11707.182961,W,60.8,297.1,180410,,,A*4B
$GPRMC,223429.9,A,3307.919191,N,11707.237419,W,61.6,298.2,180410,,,A*40
$GPRMC,223433.2,A,3307.945924,N,11707.299760,W,64.7,297.2,180410,,,A*4D
$GPRMC,223436.9,A,3307.977247,N,11707.372030,W,64.2,297.2,180410,,,A*4F
$GPRMC,223439.9,A,3308.001937,N,11707.426770,W,61.5,297.9,180410,,,A*47
$GPRMC,223442.9,A,3308.024385,N,11707.481087,W,58.9,296.4,180410,,,A*47
$GPRMC,223445.9,A,3308.046932,N,11707.527716,W,54.9,298.3,180410,,,A*45
$GPRMC,223448.9,A,3308.064430,N,11707.575879,W,53.1,294.8,180410,,,A*4E
$GPRMC,223451.9,A,3308.076430,N,11707.625063,W,51.8,288.4,180410,,,A*4A
$GPRMC,223454.9,A,3308.087986,N,11707.675211,W,52.3,285.6,180410,,,A*44
$GPRMC,223457.9,A,3308.096454,N,11707.725287,W,48.9,282.7,180410,,,A*49
$GPRMC,223500.9,A,3308.105576,N,11707.770306,W,47.6,281.2,180410,,,A*4E
$GPRMC,223503.9,A,3308.111724,N,11707.819102,W,49.5,279.3,180410,,,A*40
$GPRMC,223506.9,A,3308.118301,N,11707.869346,W,51.7,278.2,180410,,,A*41
$GPRMC,223509.9,A,3308.126797,N,11707.921216,W,52.9,280.9,180410,,,A*40
$GPRMC,223512.9,A,3308.131635,N,11707.970016,W,52.1,280.0,180410,,,A*42
$GPRMC,223515.9,A,3308.143746,N,11708.022643,W,56.6,284.9,180410,,,A*4C
$GPRMC,223518.9,A,3308.161692,N,11708.079863,W,61.7,291.5,180410,,,A*46
$GPRMC,223521.9,A,3308.183849,N,11708.138854,W,65.0,294.2,180410,,,A*49
$GPRMC,223524.9,A,3308.209116,N,11708.195887,W,65.8,296.9,180410,,,A*46
$GPRMC,223527.9,A,3308.233878,N,11708.255088,W,66.0,296.8,180410,,,A*4F
$GPRMC,223530.9,A,3308.259809,N,11708.310414,W,64.3,298.3,180410,,,A*46
$GPRMC,223533.9,A,3308.283380,N,11708.367127,W,63.7,296.1,180410,,,A*42
$GPRMC,223536.9,A,3308.306906,N,11708.421720,W,62.3,297.8,180410,,,A*46
$GPRMC,223539.9,A,3308.333248,N,11708.478696,W,64.3,298.1,180410,,,A*4E
$GPRMC,223542.9,A,3308.355618,N,11708.536514,W,65.2,295.2,180410,,,A*4F
$GPRMC,223545.9,A,3308.367568,N,11708.603094,W,68.9,282.6,180410,,,A*41
$GPRMC,223548.9,A,3308.372609,N,11708.670485,W,67.9,273.5,180410,,,A*4E
$GPRMC,223551.9,A,3308.375013,N,11708.735834,W,67.2,272.2,180410,,,A*47
$GPRMC,223554.9,A,3308.377436,N,11708.804845,W,68.0,272.0,180410,,,A*47
$GPRMC,223557.9,A,3308.379738,N,11708.871712,W,66.9,272.3,180410,,,A*4C
$GPRMC,223600.9,A,3308.382556,N,11708.939241,W,68.4,272.9,180410,,,A*44
$GPRMC,223603.9,A,3308.383725,N,11709.004920,W,65.6,271.5,180410,,,A*4A
$GPRMC,223606.9,A,3308.383623,N,11709.067187,W,62.6,268.7,180410,,,A*45
$GPRMC,223609.9,A,3308.378755,N,11709.128251,W,61.3,263.6,180410,,,A*40
$GPRMC,223612.9,A,3308.368645,N,11709.186054,W,59.6,257.1,180410,,,A*46
$GPRMC,223615.9,A,3308.357241,N,11709.242312,W,59.7,256.5,180410,,,A*43
$GPRMC,223618.9,A,3308.342658,N,11709.300102,W,60.4,253.2,180410,,,A*49
$GPRMC,223621.9,A,3308.326101,N,11709.359670,W,62.5,251.8,180410,,,A*4F
$GPRMC,223624.9,A,3308.310826,N,11709.417044,W,60.7,252.1,180410,,,A*45
$GPRMC,223627.9,A,3308.295238,N,11709.473103,W,60.7,252.0,180410,,,A*4E
$GPRMC,223630.9,A,3308.281689,N,11709.530841,W,60.6,255.3,180410,,,A*4F
$GPRMC,223633.9,A,3308.270235,N,11709.585782,W,54.8,255.3,180410,,,A*46
$GPRMC,223636.9,A,3308.262011,N,11709.634596,W,48.7,261.6,180410,,,A*4A
$GPRMC,223639.9,A,3308.268288,N,11709.680666,W,48.2,280.1,180410,,,A*43
$GPRMC,223642.9,A,3308.291896,N,11709.716645,W,44.2,302.6,180410,,,A*43
$GPRMC,223645.9,A,3308.308035,N,11709.748220,W,33.9,298.7,180410,,,A*40
$GPRMC,223648.9,A,3308.311871,N,11709.775107,W,25.4,275.4,180410,,,A*4F
$GPRMC,223651.9,A,3308.309904,N,11709.795190,W,18.7,267.3,180410,,,A*44
$GPRMC,223654.9,A,3308.305517,N,11709.810157,W,15.4,248.0,180410,,,A*4A
$GPRMC,223657.9,A,3308.294639,N,11709.818397,W,17.4,202.6,180410,,,A*43
$GPRMC,223700.9,A,3308.274291,N,11709.821242,W,24.2,186.1,180410,,,A*45
$GPRMC,223703.9,A,3308.251082,N,11709.824137,W,28.7,186.2,180410,,,A*4F
$GPRMC,223706.9,A,3308.230395,N,11709.830300,W,25.8,192.2,180410,,,A*4C
$GPRMC,223709.9,A,3308.215011,N,11709.830487,W,16.6,184.5,180410,,,A*4D
$GPRMC,223712.9,A,3308.206151,N,11709.831017,W,8.0,180.6,180410,,,A*72
$GPRMC,223742.9,A,3308.201239,N,11709.834618,W,7.4,189.1,180410,,,A*74
$GPRMC,223745.9,A,3308.187407,N,11709.835784,W,18.2,187.9,180410,,,A*4E
$GPRMC,223748.9,A,3308.167420,N,11709.838346,W,27.5,187.5,180410,,,A*48
$GPRMC,223751.9,A,3308.140843,N,11709.842463,W,33.0,187.9,180410,,,A*4D
$GPRMC,223754.9,A,3308.105710,N,11709.846088,W,40.1,186.0,180410,,,A*48
$GPRMC,223800.9,A,3308.035695,N,11709.859275,W,43.9,188.8,180410,,,A*4B
$GPRMC,223803.9,A,3308.004576,N,11709.863560,W,37.7,186.5,180410,,,A*40
$GPRMC,223809.9,A,3307.958659,N,11709.872194,W,21.1,187.5,180410,,,A*44
$GPRMC,223812.9,A,3307.952241,N,11709.874484,W,6.7,186.4,180410,,,A*78
$GPRMC,223819.9,A,3307.930110,N,11709.878715,W,19.0,186.4,180410,,,A*4E
$GPRMC,223822.9,A,3307.909269,N,11709.883358,W,27.4,189.8,180410,,,A*42
$GPRMC,223825.9,A,3307.881461,N,11709.889575,W,32.0,190.6,180410,,,A*4F
$GPRMC,223828.9,A,3307.854257,N,11709.892542,W,32.6,186.3,180410,,,A*43
$GPRMC,223831.9,A,3307.825868,N,11709.895871,W,30.7,187.2,180410,,,A*42
$GPRMC,223834.2,A,3307.808535,N,11709.898850,W,28.0,187.9,180410,,,A*4D
$GPRMC,223837.2,A,3307.792948,N,11709.900935,W,13.9,188.7,180410,,,A*46
$GPRMC,223843.9,A,3307.782521,N,11709.904290,W,7.9,200.0,180410,,,A*7D
$GPRMC,223846.9,A,3307.769753,N,11709.908055,W,16.7,188.7,180410,,,A*47
$GPRMC,223849.9,A,3307.745571,N,11709.910167,W,26.2,186.7,180410,,,A*45
$GPRMC,223852.9,A,3307.720252,N,11709.913912,W,30.0,187.6,180410,,,A*46
$GPRMC,223855.9,A,3307.695494,N,11709.917382,W,28.2,186.6,180410,,,A*4F
$GPRMC,223858.9,A,3307.676175,N,11709.923555,W,24.3,189.1,180410,,,A*4B
$GPRMC,223901.9,A,3307.661946,N,11709.924765,W,14.8,188.1,180410,,,A*47
$GPRMC,223904.9,A,3307.653009,N,11709.925802,W,8.8,184.6,180410,,,A*78
$GPRMC,223907.9,A,3307.649696,N,11709.927396,W,7.7,189.8,180410,,,A*77
$GPRMC,223910.9,A,3307.640203,N,11709.929636,W,14.0,189.5,180410,,,A*49
$GPRMC,223913.9,A,3307.618632,N,11709.933509,W,24.2,189.5,180410,,,A*44
$GPRMC,223916.9,A,3307.594554,N,11709.938678,W,27.9,190.4,180410,,,A*4A
$GPRMC,223919.9,A,3307.565501,N,11709.941925,W,32.0,186.0,180410,,,A*4C
$GPRMC,223922.9,A,3307.533065,N,11709.946251,W,37.7,187.7,180410,,,A*4B
$GPRMC,223925.9,A,3307.499069,N,11709.951813,W,40.0,187.2,180410,,,A*49
$GPRMC,223928.9,A,3307.466620,N,11709.956324,W,37.6,186.7,180410,,,A*45
$GPRMC,223931.9,A,3307.443230,N,11709.961812,W,32.2,187.7,180410,,,A*45
$GPRMC,223934.9,A,3307.418126,N,11709.965030,W,28.9,188.4,180410,,,A*4A
$GPRMC,223937.9,A,3307.399164,N,11709.969034,W,23.8,189.1,180410,,,A*47
$GPRMC,223940.9,A,3307.378222,N,11709.973105,W,25.4,186.6,180410,,,A*43
$GPRMC,223943.9,A,3307.355439,N,11709.976185,W,27.0,188.9,180410,,,A*49
$GPRMC,223946.9,A,3307.328406,N,11709.980522,W,31.4,184.3,180410,,,A*4F
$GPRMC,223949.9,A,3307.303550,N,11709.980741,W,31.2,179.9,180410,,,A*42
$GPRMC,223952.9,A,3307.272141,N,11709.975369,W,38.9,171.5,180410,,,A*49
$GPRMC,223955.9,A,3307.237655,N,11709.964413,W,43.2,162.0,180410,,,A*47
$GPRMC,223958.9,A,3307.205670,N,11709.946013,W,43.4,154.3,180410,,,A*48
$GPRMC,224001.9,A,3307.179075,N,11709.924245,W,35.7,148.8,180410,,,A*40
$GPRMC,224004.9,A,3307.159852,N,11709.907344,W,26.8,142.5,180410,,,A*41
$GPRMC,224007.9,A,3307.146272,N,11709.897339,W,17.7,145.4,180410,,,A*4D
$GPRMC,224010.9,A,3307.140338,N,11709.894776,W,5.8,149.9,180410,,,A*73
$GPRMC,224019.9,A,3307.130567,N,11709.888641,W,12.1,141.6,180410,,,A*41
$GPRMC,224022.9,A,3307.119410,N,11709.878501,W,19.1,144.2,180410,,,A*41
$GPRMC,224025.9,A,3307.100391,N,11709.863159,W,27.6,145.5,180410,,,A*4F
$GPRMC,224028.9,A,3307.080232,N,11709.844010,W,30.0,144.6,180410,,,A*48
$GPRMC,224031.9,A,3307.052038,N,11709.830294,W,36.3,156.9,180410,,,A*43
$GPRMC,224034.9,A,3307.022409,N,11709.819021,W,38.5,161.4,180410,,,A*41
$GPRMC,224037.9,A,3306.991707,N,11709.813532,W,38.1,172.7,180410,,,A*47
$GPRMC,224040.9,A,3306.956493,N,11709.813867,W,41.0,181.8,180410,,,A*43
$GPRMC,224043.9,A,3306.922815,N,11709.818860,W,41.2,185.6,180410,,,A*45
$GPRMC,224046.9,A,3306.887188,N,11709.822002,W,42.2,184.2,180410,,,A*40
$GPRMC,224049.9,A,3306.852541,N,11709.824736,W,42.4,184.1,180410,,,A*45
$GPRMC,224052.9,A,3306.817854,N,11709.827747,W,42.1,185.1,180410,,,A*46
$GPRMC,224055.9,A,3306.783907,N,11709.832011,W,41.5,183.1,180410,,,A*45
$GPRMC,224058.9,A,3306.748436,N,11709.834578,W,44.1,184.1,180410,,,A*4A
$GPRMC,224101.9,A,3306.713455,N,11709.837532,W,42.4,183.1,180410,,,A*45
$GPRMC,224104.9,A,3306.678189,N,11709.839122,W,42.2,181.7,180410,,,A*41
$GPRMC,224107.9,A,3306.644832,N,11709.844165,W,40.9,184.4,180410,,,A*42
$GPRMC,224110.9,A,3306.612228,N,11709.844454,W,39.9,182.1,180410,,,A*4C
$GPRMC,224113.9,A,3306.577584,N,11709.847281,W,40.3,185.5,180410,,,A*44
$GPRMC,224116.9,A,3306.547954,N,11709.854178,W,37.1,194.1,180410,,,A*42
$GPRMC,224119.9,A,3306.521597,N,11709.867501,W,38.6,202.8,180410,,,A*49
$GPRMC,224122.9,A,3306.496698,N,11709.885676,W,38.1,213.9,180410,,,A*49
$GPRMC,224125.9,A,3306.475293,N,11709.912479,W,38.6,226.2,180410,,,A*44
$GPRMC,224128.9,A,3306.456681,N,11709.944912,W,40.1,237.9,180410,,,A*4F
$GPRMC,224131.9,A,3306.442688,N,11709.982731,W,41.4,247.1,180410,,,A*45
$GPRMC,224134.9,A,3306.436110,N,11710.026393,W,43.5,259.1,180410,,,A*4A
$GPRMC,224137.9,A,3306.437442,N,11710.069022,W,43.6,273.8,180410,,,A*4A
$GPRMC,224140.9,A,3306.442518,N,11710.113778,W,45.4,277.6,180410,,,A*4C
$GPRMC,224143.9,A,3306.450097,N,11710.160420,W,46.5,278.3,180410,,,A*4C
$GPRMC,224146.9,A,3306.454844,N,11710.204315,W,43.7,278.6,180410,,,A*49
$GPRMC,224149.9,A,3306.461116,N,11710.246397,W,42.0,279.7,180410,,,A*44
$GPRMC,224152.9,A,3306.464837,N,11710.287328,W,42.5,277.8,180410,,,A*4C
$GPRMC,224155.9,A,3306.460268,N,11710.328154,W,41.5,263.0,180410,,,A*4C
$GPRMC,224158.9,A,3306.448633,N,11710.366413,W,41.4,249.1,180410,,,A*45
$GPRMC,224201.9,A,3306.429998,N,11710.404508,W,44.3,238.4,180410,,,A*4A
$GPRMC,224204.2,A,3306.411136,N,11710.430209,W,44.3,229.9,180410,,,A*4F
$GPRMC,224207.2,A,3306.386291,N,11710.464826,W,46.1,230.1,180410,,,A*4D
$GPRMC,224210.2,A,3306.361617,N,11710.499934,W,46.3,230.1,180410,,,A*4A
$GPRMC,224213.2,A,3306.336772,N,11710.535273,W,47.1,230.5,180410,,,A*41
$GPRMC,224216.9,A,3306.306038,N,11710.580324,W,47.7,231.8,180410,,,A*42
$GPRMC,224219.9,A,3306.281161,N,11710.617625,W,48.6,231.1,180410,,,A*40
$GPRMC,224222.9,A,3306.255257,N,11710.656671,W,50.5,231.0,180410,,,A*48
$GPRMC,224225.9,A,3306.228769,N,11710.694870,W,50.3,231.1,180410,,,A*4B
$GPRMC,224228.9,A,3306.202148,N,11710.733437,W,51.0,231.3,180410,,,A*48
$GPRMC,224231.9,A,3306.175432,N,11710.773011,W,50.1,231.3,180410,,,A*4F
$GPRMC,224234.9,A,3306.153088,N,11710.816059,W,49.0,240.8,180410,,,A*4F
$GPRMC,224237.9,A,3306.138763,N,11710.859012,W,47.3,250.3,180410,,,A*40
$GPRMC,224240.9,A,3306.129453,N,11710.907065,W,50.4,260.3,180410,,,A*48
$GPRMC,224243.9,A,3306.129786,N,11710.955937,W,50.8,271.4,180410,,,A*42
$GPRMC,224246.9,A,3306.135738,N,11711.004851,W,50.7,276.4,180410,,,A*4A
