NMEA Sentence Code,UTC Time,Status,Latitude,Latitude Direction,Longitude,Longitude Direction,Speed (knots),Track Angle (degrees true),Date,MagneticVariation,Magnetic Variation Direction,[FAA Mode]-Optional,Checksum
$GPRMC,154012.9,A,3245.754543,N,11655.514771,W,33.3,268.5,270510,,,A*4E
$GPRMC,154015.9,A,3245.756540,N,11655.553136,W,37.7,274.3,270510,,,A*45
$GPRMC,154018.9,A,3245.753742,N,11655.587484,W,38.0,269.7,270510,,,A*48
$GPRMC,154021.9,A,3245.753794,N,11655.625581,W,38.2,269.4,270510,,,A*47
$GPRMC,154024.9,A,3245.755196,N,11655.657618,W,28.1,270.9,270510,,,A*41
$GPRMC,154027.9,A,3245.747253,N,11655.674211,W,17.5,239.8,270510,,,A*43
$GPRMC,154030.9,A,3245.724003,N,11655.670799,W,23.3,181.5,270510,,,A*4A
$GPRMC,154033.9,A,3245.699667,N,11655.672744,W,28.2,180.4,270510,,,A*42
$GPRMC,154036.9,A,3245.671792,N,11655.672228,W,34.8,179.7,270510,,,A*47
$GPRMC,154039.9,A,3245.641790,N,11655.669026,W,38.3,173.0,270510,,,A*45
$GPRMC,154042.9,A,3245.605738,N,11655.659815,W,44.0,168.6,270510,,,A*44
$GPRMC,154045.9,A,3245.569181,N,11655.650066,W,45.0,168.3,270510,,,A*4F
$GPRMC,154048.9,A,3245.531822,N,11655.643884,W,45.2,173.0,270510,,,A*42
$GPRMC,154051.9,A,3245.493921,N,11655.638702,W,45.9,175.9,270510,,,A*48
$GPRMC,154054.9,A,3245.456561,N,11655.636936,W,43.3,177.9,270510,,,A*45
$GPRMC,154057.9,A,3245.416996,N,11655.635230,W,47.1,179.2,270510,,,A*4B
$GPRMC,154100.9,A,3245.378061,N,11655.637641,W,47.0,181.6,270510,,,A*44
$GPRMC,154103.9,A,3245.337354,N,11655.638089,W,46.8,180.8,270510,,,A*42
$GPRMC,154106.9,A,3245.296130,N,11655.637283,W,46.4,180.6,270510,,,A*48
$GPRMC,154109.9,A,3245.258150,N,11655.639251,W,41.8,181.7,270510,,,A*49
$GPRMC,154112.9,A,3245.225869,N,11655.640696,W,35.3,181.8,270510,,,A*4C
$GPRMC,154115.9,A,3245.200872,N,11655.644236,W,30.5,183.5,270510,,,A*40
$GPRMC,154118.9,A,3245.172174,N,11655.646988,W,33.7,183.6,270510,,,A*4A
$GPRMC,154121.9,A,3245.145138,N,11655.647115,W,33.5,180.9,270510,,,A*4F
$GPRMC,154124.9,A,3245.119282,N,11655.644091,W,32.8,176.4,270510,,,A*47
$GPRMC,154127.9,A,3245.090553,N,11655.640191,W,31.7,175.8,270510,,,A*49
$GPRMC,154130.9,A,3245.069490,N,11655.637727,W,23.7,173.2,270510,,,A*43
$GPRMC,154133.9,A,3245.058498,N,11655.638303,W,13.6,176.6,270510,,,A*44
$GPRMC,154136.9,A,3245.053239,N,11655.637508,W,7.3,171.8,270510,,,A*7C
$GPRMC,154200.9,A,3245.060113,N,11655.637231,W,5.1,342.3,270510,,,A*75
$GPRMC,154206.9,A,3245.049025,N,11655.634994,W,9.9,176.6,270510,,,A*7F
$GPRMC,154209.9,A,3245.037450,N,11655.633119,W,17.1,176.8,270510,,,A*4C
$GPRMC,154212.9,A,3245.018155,N,11655.633465,W,22.4,179.8,270510,,,A*49
$GPRMC,154215.9,A,3244.997157,N,11655.634146,W,26.6,180.4,270510,,,A*4C
$GPRMC,154218.9,A,3244.968989,N,11655.635486,W,31.9,183.6,270510,,,A*4A
$GPRMC,154221.9,A,3244.937360,N,11655.636525,W,36.6,181.0,270510,,,A*40
$GPRMC,154224.9,A,3244.905484,N,11655.636908,W,37.5,180.0,270510,,,A*49
$GPRMC,154227.9,A,3244.876906,N,11655.637681,W,34.0,180.3,270510,,,A*42
$GPRMC,154230.9,A,3244.850056,N,11655.638585,W,30.4,183.2,270510,,,A*46
$GPRMC,154233.9,A,3244.823150,N,11655.641976,W,30.9,190.5,270510,,,A*40
$GPRMC,154236.9,A,3244.799091,N,11655.649846,W,31.3,199.4,270510,,,A*4E
$GPRMC,154239.9,A,3244.768704,N,11655.665950,W,35.6,204.6,270510,,,A*48
$GPRMC,154242.9,A,3244.749136,N,11655.689119,W,29.8,220.3,270510,,,A*47
$GPRMC,154245.9,A,3244.733958,N,11655.708965,W,26.8,226.4,270510,,,A*48
$GPRMC,154248.9,A,3244.726436,N,11655.727568,W,17.2,237.8,270510,,,A*4C
$GPRMC,154251.9,A,3244.716771,N,11655.737514,W,14.9,233.4,270510,,,A*4D
$GPRMC,154254.9,A,3244.706728,N,11655.753244,W,20.7,240.2,270510,,,A*4E
$GPRMC,154257.9,A,3244.695799,N,11655.774804,W,28.0,244.8,270510,,,A*46
$GPRMC,154300.9,A,3244.684302,N,11655.801651,W,32.7,246.1,270510,,,A*47
$GPRMC,154303.9,A,3244.673587,N,11655.835248,W,35.7,247.5,270510,,,A*4E
$GPRMC,154306.9,A,3244.662390,N,11655.869546,W,36.3,247.7,270510,,,A*4E
$GPRMC,154309.9,A,3244.650833,N,11655.903467,W,36.2,247.7,270510,,,A*4C
$GPRMC,154312.9,A,3244.640833,N,11655.935646,W,34.3,248.3,270510,,,A*4B
$GPRMC,154315.9,A,3244.631224,N,11655.964253,W,30.0,247.1,270510,,,A*48
$GPRMC,154321.9,A,3244.615072,N,11656.000547,W,13.3,241.1,270510,,,A*46
$GPRMC,154324.9,A,3244.613755,N,11656.013815,W,14.3,253.8,270510,,,A*42
$GPRMC,154327.9,A,3244.607707,N,11656.032589,W,21.5,245.1,270510,,,A*46
$GPRMC,154330.9,A,3244.597298,N,11656.056131,W,28.8,242.3,270510,,,A*4D
$GPRMC,154333.9,A,3244.585004,N,11656.087408,W,35.4,243.3,270510,,,A*48
$GPRMC,154336.9,A,3244.572127,N,11656.120429,W,37.3,243.9,270510,,,A*45
$GPRMC,154339.9,A,3244.555530,N,11656.152986,W,38.7,240.8,270510,,,A*49
$GPRMC,154342.9,A,3244.539856,N,11656.185648,W,39.1,242.3,270510,,,A*4B
$GPRMC,154345.9,A,3244.521729,N,11656.217191,W,39.9,238.3,270510,,,A*4C
$GPRMC,154348.9,A,3244.503116,N,11656.250630,W,39.0,238.9,270510,,,A*47
$GPRMC,154351.9,A,3244.487678,N,11656.280497,W,36.7,239.5,270510,,,A*4A
$GPRMC,154354.9,A,3244.471761,N,11656.315172,W,40.6,240.8,270510,,,A*4F
$GPRMC,154357.9,A,3244.454385,N,11656.348903,W,40.3,237.9,270510,,,A*47
$GPRMC,154400.9,A,3244.435552,N,11656.382358,W,40.4,237.0,270510,,,A*45
$GPRMC,154403.9,A,3244.422347,N,11656.411333,W,29.1,239.8,270510,,,A*4E
$GPRMC,154406.9,A,3244.408936,N,11656.433728,W,28.2,236.4,270510,,,A*40
$GPRMC,154409.9,A,3244.396602,N,11656.462879,W,34.2,240.8,270510,,,A*48
$GPRMC,154412.9,A,3244.391508,N,11656.495238,W,33.6,260.5,270510,,,A*47
$GPRMC,154415.9,A,3244.390873,N,11656.518713,W,19.7,271.0,270510,,,A*44
$GPRMC,154530.9,A,3244.393013,N,11656.540190,W,13.0,272.8,270510,,,A*49
$GPRMC,154533.9,A,3244.394413,N,11656.578820,W,32.0,269.1,270510,,,A*40
$GPRMC,154536.9,A,3244.392773,N,11656.620144,W,38.5,267.9,270510,,,A*4A
$GPRMC,154539.9,A,3244.391499,N,11656.664659,W,42.8,266.5,270510,,,A*47
$GPRMC,154542.9,A,3244.385208,N,11656.705709,W,43.4,262.0,270510,,,A*4E
$GPRMC,154545.9,A,3244.379903,N,11656.749706,W,44.7,262.7,270510,,,A*4E
$GPRMC,154548.9,A,3244.376207,N,11656.793301,W,45.6,264.6,270510,,,A*40
$GPRMC,154551.9,A,3244.372769,N,11656.840416,W,47.5,264.7,270510,,,A*41
$GPRMC,154554.9,A,3244.372439,N,11656.886021,W,45.3,269.3,270510,,,A*45
$GPRMC,154557.9,A,3244.379201,N,11656.932280,W,45.7,277.5,270510,,,A*4A
$GPRMC,154600.9,A,3244.389550,N,11656.979158,W,44.7,282.8,270510,,,A*48
$GPRMC,154603.9,A,3244.398195,N,11657.018802,W,38.8,285.2,270510,,,A*46
$GPRMC,154606.9,A,3244.403974,N,11657.044761,W,24.9,289.0,270510,,,A*40
$GPRMC,154609.9,A,3244.407051,N,11657.060765,W,18.2,286.7,270510,,,A*4B
$GPRMC,154612.9,A,3244.407639,N,11657.067926,W,7.6,281.7,270510,,,A*7A
$GPRMC,154615.9,A,3244.396919,N,11657.071024,W,7.5,201.6,270510,,,A*79
$GPRMC,154654.9,A,3244.414722,N,11657.071751,W,6.4,293.2,270510,,,A*7D
$GPRMC,154657.9,A,3244.429281,N,11657.080339,W,11.7,311.4,270510,,,A*40
$GPRMC,154700.9,A,3244.439825,N,11657.106863,W,28.4,298.6,270510,,,A*46
$GPRMC,154703.9,A,3244.452445,N,11657.135969,W,35.0,299.7,270510,,,A*41
$GPRMC,154706.9,A,3244.470212,N,11657.170070,W,41.1,307.8,270510,,,A*4B
$GPRMC,154709.9,A,3244.488748,N,11657.205432,W,45.7,309.8,270510,,,A*46
$GPRMC,154712.9,A,3244.510099,N,11657.241658,W,46.0,315.3,270510,,,A*4B
$GPRMC,154715.9,A,3244.542703,N,11657.265166,W,46.6,326.2,270510,,,A*44
$GPRMC,154718.9,A,3244.576975,N,11657.286313,W,46.1,331.7,270510,,,A*48
$GPRMC,154721.9,A,3244.610223,N,11657.311180,W,48.0,326.5,270510,,,A*45
$GPRMC,154724.9,A,3244.644947,N,11657.337780,W,48.0,328.8,270510,,,A*49
$GPRMC,154727.9,A,3244.678743,N,11657.361395,W,45.1,324.9,270510,,,A*4D
$GPRMC,154730.9,A,3244.707194,N,11657.393915,W,46.0,315.3,270510,,,A*4B
$GPRMC,154733.9,A,3244.729434,N,11657.423918,W,36.1,310.8,270510,,,A*42
$GPRMC,154736.9,A,3244.745243,N,11657.444883,W,25.4,310.2,270510,,,A*44
$GPRMC,154739.9,A,3244.746767,N,11657.455439,W,9.1,302.4,270510,,,A*78
$GPRMC,154742.9,A,3244.746388,N,11657.460795,W,9.3,293.5,270510,,,A*78
$GPRMC,154815.9,A,3244.732814,N,11657.462690,W,5.4,292.1,270510,,,A*70
$GPRMC,154818.9,A,3244.741313,N,11657.475216,W,17.4,297.9,270510,,,A*47
$GPRMC,154821.9,A,3244.749891,N,11657.495377,W,26.0,286.9,270510,,,A*4A
$GPRMC,154824.9,A,3244.758854,N,11657.523774,W,33.3,283.1,270510,,,A*47
$GPRMC,154827.9,A,3244.763040,N,11657.566020,W,43.2,273.8,270510,,,A*46
$GPRMC,154830.9,A,3244.763003,N,11657.613167,W,47.6,267.5,270510,,,A*4C
$GPRMC,154833.2,A,3244.761647,N,11657.650432,W,50.6,265.4,270510,,,A*47
$GPRMC,154836.2,A,3244.758530,N,11657.703190,W,53.6,260.3,270510,,,A*40
$GPRMC,154839.2,A,3244.747693,N,11657.756508,W,55.5,253.9,270510,,,A*41
$GPRMC,154842.9,A,3244.731416,N,11657.823223,W,57.5,254.4,270510,,,A*43
$GPRMC,154846.2,A,3244.715581,N,11657.884324,W,58.4,252.9,270510,,,A*4B
$GPRMC,154849.9,A,3244.693355,N,11657.950026,W,57.6,252.3,270510,,,A*41
$GPRMC,154852.9,A,3244.690888,N,11658.011882,W,60.8,265.0,270510,,,A*4B
$GPRMC,154855.9,A,3244.692932,N,11658.069743,W,60.2,269.9,270510,,,A*4C
$GPRMC,154858.9,A,3244.694022,N,11658.136165,W,64.1,271.8,270510,,,A*49
$GPRMC,154901.9,A,3244.696249,N,11658.201076,W,64.2,271.5,270510,,,A*43
$GPRMC,154904.9,A,3244.696312,N,11658.265378,W,63.6,270.9,270510,,,A*48
$GPRMC,154907.9,A,3244.696555,N,11658.331520,W,66.1,270.8,270510,,,A*46
$GPRMC,154910.9,A,3244.698281,N,11658.397008,W,66.1,271.4,270510,,,A*4E
$GPRMC,154913.9,A,3244.699046,N,11658.461271,W,64.4,270.7,270510,,,A*42
$GPRMC,154916.9,A,3244.690751,N,11658.521130,W,64.9,266.3,270510,,,A*42
$GPRMC,154919.9,A,3244.692245,N,11658.588659,W,69.7,270.1,270510,,,A*42
$GPRMC,154922.9,A,3244.692501,N,11658.654642,W,67.5,270.5,270510,,,A*4D
$GPRMC,154925.9,A,3244.692560,N,11658.722525,W,65.9,269.6,270510,,,A*4A
$GPRMC,154928.9,A,3244.695251,N,11658.785458,W,63.7,272.7,270510,,,A*40
$GPRMC,154931.9,A,3244.695772,N,11658.844442,W,59.6,270.7,270510,,,A*4F
$GPRMC,154934.9,A,3244.694453,N,11658.903711,W,59.5,269.8,270510,,,A*48
$GPRMC,154937.9,A,3244.692425,N,11658.965226,W,59.9,270.5,270510,,,A*44
$GPRMC,154940.9,A,3244.693595,N,11659.022615,W,58.4,272.2,270510,,,A*49
$GPRMC,154943.9,A,3244.700684,N,11659.078152,W,58.9,279.6,270510,,,A*4B
$GPRMC,154946.9,A,3244.714854,N,11659.142097,W,63.1,280.9,270510,,,A*41
$GPRMC,154949.9,A,3244.740423,N,11659.198712,W,61.0,292.9,270510,,,A*4E
$GPRMC,154952.9,A,3244.767170,N,11659.258504,W,64.1,296.1,270510,,,A*40
$GPRMC,154955.9,A,3244.791288,N,11659.315938,W,63.7,296.1,270510,,,A*40
$GPRMC,154958.9,A,3244.802947,N,11659.367885,W,60.2,293.3,270510,,,A*43
$GPRMC,155001.9,A,3244.821471,N,11659.423001,W,62.0,293.1,270510,,,A*4F
$GPRMC,155004.9,A,3244.841431,N,11659.478723,W,62.4,294.3,270510,,,A*40
$GPRMC,155007.9,A,3244.863538,N,11659.535377,W,62.8,295.3,270510,,,A*4B
$GPRMC,155010.9,A,3244.887495,N,11659.590717,W,63.0,297.6,270510,,,A*42
$GPRMC,155013.9,A,3244.911175,N,11659.641019,W,59.5,295.5,270510,,,A*4F
$GPRMC,155016.9,A,3244.928430,N,11659.699080,W,61.0,293.9,270510,,,A*45
$GPRMC,155019.9,A,3244.947177,N,11659.755895,W,60.9,293.6,270510,,,A*4F
$GPRMC,155022.9,A,3244.971148,N,11659.812603,W,62.5,293.2,270510,,,A*49
$GPRMC,155025.9,A,3244.991492,N,11659.870634,W,63.2,289.4,270510,,,A*49
$GPRMC,155028.9,A,3245.004718,N,11659.929497,W,63.5,285.7,270510,,,A*4F
$GPRMC,155031.9,A,3245.015013,N,11659.987930,W,60.7,284.5,270510,,,A*4D
$GPRMC,155034.9,A,3245.023830,N,11700.042521,W,59.2,283.9,270510,,,A*41
$GPRMC,155037.9,A,3245.036318,N,11700.099573,W,59.2,285.2,270510,,,A*4B
$GPRMC,155040.9,A,3245.051382,N,11700.154866,W,60.1,287.4,270510,,,A*4D
$GPRMC,155043.9,A,3245.073119,N,11700.211210,W,60.7,295.7,270510,,,A*41
$GPRMC,155046.9,A,3245.103839,N,11700.262959,W,61.5,306.5,270510,,,A*41
$GPRMC,155049.9,A,3245.132346,N,11700.312411,W,59.7,302.9,270510,,,A*49
$GPRMC,155052.9,A,3245.173041,N,11700.357391,W,65.4,314.3,270510,,,A*4D
$GPRMC,155055.9,A,3245.206393,N,11700.405719,W,64.6,306.5,270510,,,A*45
$GPRMC,155058.9,A,3245.229942,N,11700.461711,W,61.9,296.8,270510,,,A*46
$GPRMC,155101.9,A,3245.247283,N,11700.515867,W,60.1,288.0,270510,,,A*47
$GPRMC,155104.9,A,3245.254549,N,11700.575009,W,61.1,276.3,270510,,,A*44
$GPRMC,155107.9,A,3245.258012,N,11700.641646,W,66.2,270.2,270510,,,A*4A
$GPRMC,155110.9,A,3245.246802,N,11700.703992,W,64.9,260.0,270510,,,A*41
$GPRMC,155113.9,A,3245.217019,N,11700.762999,W,68.9,242.1,270510,,,A*45
$GPRMC,155116.9,A,3245.185416,N,11700.820481,W,63.3,234.0,270510,,,A*4F
$GPRMC,155119.9,A,3245.156449,N,11700.862703,W,51.2,228.7,270510,,,A*41
$GPRMC,155122.9,A,3245.131773,N,11700.886940,W,34.4,220.3,270510,,,A*48
$GPRMC,155125.9,A,3245.119651,N,11700.900361,W,17.9,217.5,270510,,,A*4C
$GPRMC,155128.9,A,3245.112951,N,11700.904800,W,9.2,218.8,270510,,,A*7B
$GPRMC,155131.9,A,3245.109198,N,11700.907955,W,9.7,221.2,270510,,,A*73
$GPRMC,155134.9,A,3245.100215,N,11700.920564,W,18.9,228.2,270510,,,A*45
$GPRMC,155137.9,A,3245.080303,N,11700.939794,W,32.9,220.4,270510,,,A*4A
$GPRMC,155140.9,A,3245.052132,N,11700.962189,W,41.3,215.9,270510,,,A*44
$GPRMC,155143.9,A,3245.018276,N,11700.987233,W,48.6,213.9,270510,,,A*49
$GPRMC,155146.2,A,3244.986716,N,11701.009205,W,56.1,210.3,270510,,,A*41
$GPRMC,155149.9,A,3244.942574,N,11701.053304,W,56.7,219.6,270510,,,A*4E
$GPRMC,155152.9,A,3244.909829,N,11701.091054,W,56.7,224.4,270510,,,A*4A
$GPRMC,155155.9,A,3244.878391,N,11701.133399,W,56.2,232.7,270510,,,A*48
$GPRMC,155158.9,A,3244.850399,N,11701.176778,W,55.6,238.8,270510,,,A*4F
$GPRMC,155201.9,A,3244.833765,N,11701.229543,W,57.2,251.5,270510,,,A*45
$GPRMC,155204.2,A,3244.824155,N,11701.272887,W,59.7,254.0,270510,,,A*48
$GPRMC,155207.2,A,3244.821268,N,11701.332012,W,61.9,269.4,270510,,,A*4D
$GPRMC,155210.2,A,3244.824977,N,11701.393577,W,63.7,273.3,270510,,,A*46
$GPRMC,155213.2,A,3244.831415,N,11701.459636,W,69.5,275.2,270510,,,A*40
$GPRMC,155216.9,A,3244.839021,N,11701.545335,W,69.6,275.5,270510,,,A*4B
$GPRMC,155220.2,A,3244.845280,N,11701.621779,W,71.2,276.0,270510,,,A*41
$GPRMC,155223.9,A,3244.846052,N,11701.709341,W,71.2,271.0,270510,,,A*44
$GPRMC,155226.9,A,3244.830204,N,11701.771001,W,67.0,256.8,270510,,,A*41
$GPRMC,155229.9,A,3244.811973,N,11701.835611,W,67.5,252.6,270510,,,A*41
$GPRMC,155232.9,A,3244.790209,N,11701.898592,W,68.5,250.9,270510,,,A*46
$GPRMC,155235.9,A,3244.770835,N,11701.965338,W,70.1,251.2,270510,,,A*48
$GPRMC,155238.9,A,3244.753242,N,11702.032032,W,70.7,252.6,270510,,,A*4E
$GPRMC,155241.9,A,3244.733544,N,11702.096901,W,70.1,251.8,270510,,,A*4B
$GPRMC,155244.9,A,3244.720867,N,11702.162757,W,68.5,256.3,270510,,,A*46
$GPRMC,155247.9,A,3244.708229,N,11702.227001,W,67.2,259.9,270510,,,A*44
$GPRMC,155250.9,A,3244.700414,N,11702.290415,W,65.8,266.0,270510,,,A*42
$GPRMC,155253.9,A,3244.700997,N,11702.352549,W,63.6,268.9,270510,,,A*4F
$GPRMC,155256.9,A,3244.702497,N,11702.414196,W,63.9,270.9,270510,,,A*40
$GPRMC,155259.9,A,3244.703130,N,11702.476634,W,64.3,270.3,270510,,,A*4A
$GPRMC,155302.9,A,3244.702829,N,11702.539854,W,63.2,270.5,270510,,,A*47
$GPRMC,155305.9,A,3244.703835,N,11702.600905,W,60.3,270.9,270510,,,A*4E
$GPRMC,155308.9,A,3244.705205,N,11702.664537,W,62.8,270.8,270510,,,A*4B
$GPRMC,155311.9,A,3244.703801,N,11702.728510,W,62.6,268.3,270510,,,A*4B
$GPRMC,155314.9,A,3244.693508,N,11702.790401,W,61.0,256.7,270510,,,A*4C
$GPRMC,155317.9,A,3244.674895,N,11702.848093,W,62.9,250.1,270510,,,A*40
$GPRMC,155320.9,A,3244.648309,N,11702.894557,W,58.8,236.4,270510,,,A*44
$GPRMC,155323.9,A,3244.615374,N,11702.940462,W,62.1,229.8,270510,,,A*48
$GPRMC,155326.9,A,3244.579325,N,11702.989251,W,65.9,230.2,270510,,,A*4E
$GPRMC,155329.9,A,3244.539784,N,11703.039420,W,69.6,227.9,270510,,,A*47
$GPRMC,155332.9,A,3244.500939,N,11703.094157,W,73.6,229.3,270510,,,A*42
$GPRMC,155335.9,A,3244.454408,N,11703.146571,W,75.9,225.0,270510,,,A*42
$GPRMC,155338.9,A,3244.407169,N,11703.193445,W,74.6,219.7,270510,,,A*43
$GPRMC,155341.9,A,3244.357417,N,11703.239719,W,75.2,217.9,270510,,,A*4F
$GPRMC,155344.9,A,3244.311968,N,11703.285093,W,71.4,219.7,270510,,,A*4D
$GPRMC,155347.9,A,3244.262869,N,11703.328810,W,74.0,217.1,270510,,,A*47
$GPRMC,155350.9,A,3244.209365,N,11703.369999,W,75.3,215.6,270510,,,A*49
$GPRMC,155353.9,A,3244.156721,N,11703.414877,W,77.1,215.8,270510,,,A*45
$GPRMC,155356.9,A,3244.104036,N,11703.460512,W,78.3,216.4,270510,,,A*49
$GPRMC,155359.9,A,3244.052380,N,11703.507840,W,78.8,218.0,270510,,,A*41
$GPRMC,155402.9,A,3244.005560,N,11703.558214,W,76.1,222.7,270510,,,A*4A
$GPRMC,155405.9,A,3243.961009,N,11703.611982,W,76.7,226.5,270510,,,A*41
$GPRMC,155408.9,A,3243.920279,N,11703.670657,W,76.4,230.4,270510,,,A*49
$GPRMC,155411.9,A,3243.879080,N,11703.729904,W,78.7,228.5,270510,,,A*49
$GPRMC,155414.9,A,3243.837970,N,11703.789582,W,78.0,232.7,270510,,,A*46
$GPRMC,155417.9,A,3243.804669,N,11703.854749,W,77.3,237.7,270510,,,A*41
$GPRMC,155420.9,A,3243.775393,N,11703.923454,W,77.1,243.1,270510,,,A*45
$GPRMC,155423.9,A,3243.747290,N,11703.992382,W,76.9,245.0,270510,,,A*4D
$GPRMC,155426.9,A,3243.723633,N,11704.061989,W,77.3,247.5,270510,,,A*48
$GPRMC,155429.9,A,3243.699530,N,11704.131324,W,75.1,248.1,270510,,,A*45
$GPRMC,155432.9,A,3243.675361,N,11704.197330,W,71.5,247.0,270510,,,A*48
$GPRMC,155435.9,A,3243.650688,N,11704.262107,W,71.8,244.2,270510,,,A*49
$GPRMC,155438.9,A,3243.618658,N,11704.319780,W,69.2,235.6,270510,,,A*40
$GPRMC,155441.9,A,3243.580190,N,11704.372215,W,70.1,229.2,270510,,,A*49
$GPRMC,155444.9,A,3243.539885,N,11704.424026,W,72.1,228.2,270510,,,A*46
$GPRMC,155447.9,A,3243.499681,N,11704.477806,W,72.7,227.9,270510,,,A*4A
$GPRMC,155450.9,A,3243.459524,N,11704.530714,W,71.1,228.6,270510,,,A*47
$GPRMC,155453.9,A,3243.417979,N,11704.583089,W,73.1,228.6,270510,,,A*43
$GPRMC,155456.9,A,3243.378368,N,11704.640412,W,76.6,230.0,270510,,,A*45
$GPRMC,155459.9,A,3243.335017,N,11704.699469,W,79.1,228.9,270510,,,A*48
$GPRMC,155502.9,A,3243.291654,N,11704.756476,W,77.5,228.3,270510,,,A*45
$GPRMC,155505.9,A,3243.250207,N,11704.812686,W,76.5,229.6,270510,,,A*4A
$GPRMC,155508.9,A,3243.207921,N,11704.872978,W,77.9,229.2,270510,,,A*4B
$GPRMC,155511.9,A,3243.164226,N,11704.931110,W,78.6,227.7,270510,,,A*42
$GPRMC,155514.9,A,3243.127487,N,11704.991207,W,74.6,234.9,270510,,,A*42
$GPRMC,155517.9,A,3243.101750,N,11705.057186,W,73.5,245.7,270510,,,A*48
$GPRMC,155520.9,A,3243.085191,N,11705.128929,W,74.8,257.2,270510,,,A*42
$GPRMC,155523.9,A,3243.081411,N,11705.200946,W,73.3,267.2,270510,,,A*47
$GPRMC,155526.9,A,3243.084801,N,11705.270871,W,70.2,271.0,270510,,,A*4F
$GPRMC,155529.9,A,3243.088469,N,11705.339876,W,69.5,270.5,270510,,,A*4E
$GPRMC,155532.9,A,3243.088535,N,11705.409346,W,68.4,270.7,270510,,,A*42
$GPRMC,155535.9,A,3243.088520,N,11705.474654,W,63.8,270.6,270510,,,A*4B
$GPRMC,155538.9,A,3243.093641,N,11705.540417,W,68.4,278.2,270510,,,A*40
$GPRMC,155541.9,A,3243.112510,N,11705.608367,W,70.7,287.5,270510,,,A*43
$GPRMC,155544.9,A,3243.139387,N,11705.678644,W,74.8,292.7,270510,,,A*49
$GPRMC,155547.9,A,3243.160334,N,11705.747602,W,75.2,287.7,270510,,,A*4E
$GPRMC,155550.9,A,3243.168394,N,11705.825330,W,77.2,275.1,270510,,,A*4C
$GPRMC,155553.9,A,3243.167610,N,11705.897376,W,73.8,271.0,270510,,,A*49
$GPRMC,155556.9,A,3243.167498,N,11705.968879,W,72.5,270.1,270510,,,A*47
$GPRMC,155559.9,A,3243.166979,N,11706.035830,W,69.4,269.7,270510,,,A*41
$GPRMC,155602.9,A,3243.163855,N,11706.103606,W,69.0,269.4,270510,,,A*4E
$GPRMC,155605.9,A,3243.161684,N,11706.175856,W,72.8,267.7,270510,,,A*4C
$GPRMC,155608.9,A,3243.152642,N,11706.244486,W,70.7,259.2,270510,,,A*4E
$GPRMC,155611.9,A,3243.139153,N,11706.313647,W,71.9,256.6,270510,,,A*44
$GPRMC,155614.9,A,3243.121337,N,11706.381578,W,71.7,254.4,270510,,,A*42
$GPRMC,155617.9,A,3243.106196,N,11706.451049,W,73.0,260.0,270510,,,A*46
$GPRMC,155620.9,A,3243.108180,N,11706.527981,W,75.3,269.7,270510,,,A*4D
$GPRMC,155623.9,A,3243.109778,N,11706.602780,W,74.3,270.1,270510,,,A*4A
$GPRMC,155626.2,A,3243.108260,N,11706.662070,W,74.1,266.0,270510,,,A*43
$GPRMC,155629.9,A,3243.098518,N,11706.748199,W,70.9,260.3,270510,,,A*41
$GPRMC,155632.9,A,3243.084205,N,11706.809991,W,68.4,258.2,270510,,,A*49
$GPRMC,155635.9,A,3243.069882,N,11706.875679,W,68.6,258.0,270510,,,A*4A
$GPRMC,155638.9,A,3243.059571,N,11706.941200,W,65.8,259.3,270510,,,A*48
$GPRMC,155641.9,A,3243.050359,N,11707.002565,W,61.4,259.3,270510,,,A*40
$GPRMC,155644.9,A,3243.041787,N,11707.055607,W,52.9,258.7,270510,,,A*4F
$GPRMC,155647.9,A,3243.034595,N,11707.106988,W,52.0,259.1,270510,,,A*4E
$GPRMC,155650.9,A,3243.025710,N,11707.155023,W,51.9,253.8,270510,,,A*40
$GPRMC,155653.9,A,3243.010592,N,11707.207269,W,53.9,251.6,270510,,,A*4B
$GPRMC,155656.9,A,3242.997173,N,11707.258804,W,53.3,251.4,270510,,,A*41
$GPRMC,155659.9,A,3242.978763,N,11707.305856,W,53.2,248.7,270510,,,A*4C
$GPRMC,155702.9,A,3242.963110,N,11707.354768,W,53.2,250.1,270510,,,A*42
$GPRMC,155705.9,A,3242.948920,N,11707.404859,W,52.4,250.3,270510,,,A*4D
$GPRMC,155708.9,A,3242.932807,N,11707.452396,W,50.6,249.0,270510,,,A*49
$GPRMC,155711.9,A,3242.916878,N,11707.499331,W,51.7,249.2,270510,,,A*47
$GPRMC,155714.9,A,3242.900596,N,11707.547631,W,52.5,249.3,270510,,,A*4F
$GPRMC,155717.9,A,3242.885394,N,11707.596406,W,52.2,249.9,270510,,,A*43
$GPRMC,155720.9,A,3242.869455,N,11707.646507,W,54.8,249.7,270510,,,A*43
$GPRMC,155723.9,A,3242.855697,N,11707.699523,W,56.0,251.3,270510,,,A*40
$GPRMC,155726.9,A,3242.843468,N,11707.750442,W,54.4,253.5,270510,,,A*40
$GPRMC,155730.2,A,3242.831164,N,11707.809552,W,56.2,255.7,270510,,,A*43
$GPRMC,155733.9,A,3242.814302,N,11707.875630,W,57.8,255.2,270510,,,A*4C
$GPRMC,155736.9,A,3242.808911,N,11707.935427,W,60.3,262.9,270510,,,A*4D
$GPRMC,155739.9,A,3242.808450,N,11707.996521,W,61.9,266.9,270510,,,A*4B
$GPRMC,155742.9,A,3242.807390,N,11708.059752,W,62.3,269.4,270510,,,A*4B
$GPRMC,155745.9,A,3242.811858,N,11708.123247,W,62.7,270.9,270510,,,A*48
$GPRMC,155748.9,A,3242.814053,N,11708.184424,W,61.9,271.1,270510,,,A*49
$GPRMC,155751.9,A,3242.812699,N,11708.243564,W,59.6,269.7,270510,,,A*41
$GPRMC,155754.9,A,3242.814651,N,11708.300306,W,56.9,270.4,270510,,,A*49
$GPRMC,155757.9,A,3242.812022,N,11708.358140,W,58.8,268.8,270510,,,A*49
$GPRMC,155800.9,A,3242.810384,N,11708.419146,W,60.9,270.4,270510,,,A*42
$GPRMC,155803.9,A,3242.810274,N,11708.477081,W,58.8,270.4,270510,,,A*47
$GPRMC,155806.9,A,3242.810487,N,11708.533189,W,55.1,271.1,270510,,,A*40
$GPRMC,155809.9,A,3242.811208,N,11708.583393,W,51.4,271.2,270510,,,A*4F
$GPRMC,155812.9,A,3242.810862,N,11708.633276,W,51.0,271.8,270510,,,A*4E
$GPRMC,155815.2,A,3242.808148,N,11708.675309,W,55.4,266.5,270510,,,A*4A
$GPRMC,155818.9,A,3242.822155,N,11708.729969,W,47.6,286.5,270510,,,A*43
$GPRMC,155821.9,A,3242.842311,N,11708.768642,W,43.6,299.0,270510,,,A*41
$GPRMC,155824.9,A,3242.870027,N,11708.802058,W,45.5,315.4,270510,,,A*49
$GPRMC,155827.9,A,3242.898716,N,11708.826875,W,43.7,329.2,270510,,,A*45
$GPRMC,155830.9,A,3242.931923,N,11708.838762,W,42.2,347.3,270510,,,A*42
$GPRMC,155834.2,A,3242.972496,N,11708.842795,W,44.4,356.6,270510,,,A*49
$GPRMC,155837.9,A,3243.019290,N,11708.840877,W,46.7,359.8,270510,,,A*45
$GPRMC,155840.9,A,3243.057470,N,11708.841930,W,44.6,358.0,270510,,,A*4E
$GPRMC,155843.9,A,3243.091943,N,11708.842923,W,42.6,357.6,270510,,,A*44
$GPRMC,155846.9,A,3243.127603,N,11708.846943,W,42.9,354.1,270510,,,A*4F
$GPRMC,155849.9,A,3243.163990,N,11708.850436,W,43.9,353.3,270510,,,A*49
$GPRMC,155852.9,A,3243.203259,N,11708.864226,W,47.8,346.1,270510,,,A*4B
$GPRMC,155855.9,A,3243.239230,N,11708.878425,W,46.2,342.9,270510,,,A*45
$GPRMC,155858.9,A,3243.272333,N,11708.895589,W,42.9,339.4,270510,,,A*4F
$GPRMC,155901.9,A,3243.303231,N,11708.912399,W,39.8,335.9,270510,,,A*43
$GPRMC,155904.9,A,3243.332426,N,11708.927430,W,36.9,334.8,270510,,,A*48
$GPRMC,155907.9,A,3243.358801,N,11708.941691,W,33.8,332.6,270510,,,A*4B
$GPRMC,155910.9,A,3243.383238,N,11708.957589,W,32.3,328.9,270510,,,A*48
$GPRMC,155913.9,A,3243.405646,N,11708.971740,W,32.0,333.2,270510,,,A*4E
$GPRMC,155916.9,A,3243.425310,N,11708.995492,W,34.1,314.8,270510,,,A*41
$GPRMC,155919.9,A,3243.447712,N,11709.022579,W,37.6,310.9,270510,,,A*4D
$GPRMC,155922.9,A,3243.466766,N,11709.054660,W,37.4,302.9,270510,,,A*4E
$GPRMC,155925.2,A,3243.472585,N,11709.088063,W,42.0,288.3,270510,,,A*43
$GPRMC,155928.9,A,3243.478844,N,11709.136465,W,45.1,280.0,270510,,,A*44
$GPRMC,155931.9,A,3243.488028,N,11709.183201,W,48.4,280.0,270510,,,A*43
