NMEA Sentence Code,UTC Time,Status,Latitude,Latitude Direction,Longitude,Longitude Direction,Speed (knots),Track Angle (degrees true),Date,MagneticVariation,Magnetic Variation Direction,[FAA Mode]-Optional,Checksum
$GPRMC,233033.9,A,3308.966944,N,11706.951714,W,32.1,305.6,041010,,,A*45
$GPRMC,233036.9,A,3308.984597,N,11706.980195,W,34.8,305.7,041010,,,A*43
$GPRMC,233039.9,A,3308.998814,N,11707.007089,W,31.8,306.9,041010,,,A*44
$GPRMC,233042.9,A,3309.013695,N,11707.036090,W,35.1,304.2,041010,,,A*4A
$GPRMC,233045.9,A,3309.032662,N,11707.066725,W,37.7,304.9,041010,,,A*45
$GPRMC,233048.9,A,3309.049428,N,11707.099082,W,37.0,303.2,041010,,,A*49
$GPRMC,233051.9,A,3309.068626,N,11707.126529,W,34.9,306.6,041010,,,A*44
$GPRMC,233054.9,A,3309.083773,N,11707.152479,W,32.2,306.4,041010,,,A*4D
$GPRMC,233057.9,A,3309.097193,N,11707.177384,W,30.1,300.5,041010,,,A*47
$GPRMC,233100.9,A,3309.111597,N,11707.201212,W,28.6,304.3,041010,,,A*4B
$GPRMC,233103.9,A,3309.122189,N,11707.222304,W,26.6,301.7,041010,,,A*4B
$GPRMC,233106.9,A,3309.136313,N,11707.242221,W,25.5,304.8,041010,,,A*40
$GPRMC,233109.9,A,3309.141581,N,11707.259169,W,16.7,297.9,041010,,,A*4F
$GPRMC,233112.9,A,3309.145847,N,11707.269207,W,10.5,300.2,041010,,,A*4E
$GPRMC,233115.9,A,3309.151840,N,11707.273853,W,9.8,311.3,041010,,,A*7F
$GPRMC,233118.9,A,3309.153099,N,11707.284951,W,11.7,269.2,041010,,,A*4E
$GPRMC,233121.9,A,3309.148384,N,11707.295460,W,15.0,233.2,041010,,,A*42
$GPRMC,233124.9,A,3309.128276,N,11707.306653,W,25.3,207.1,041010,,,A*40
$GPRMC,233127.9,A,3309.106069,N,11707.314380,W,27.7,198.1,041010,,,A*48
$GPRMC,233130.9,A,3309.083485,N,11707.320496,W,25.8,191.2,041010,,,A*44
$GPRMC,233133.9,A,3309.062434,N,11707.323992,W,25.3,183.8,041010,,,A*4A
$GPRMC,233136.9,A,3309.040680,N,11707.322861,W,27.3,179.7,041010,,,A*46
$GPRMC,233139.9,A,3309.012784,N,11707.323597,W,31.9,181.5,041010,,,A*46
$GPRMC,233142.9,A,3308.984058,N,11707.323253,W,34.6,180.7,041010,,,A*4D
$GPRMC,233145.9,A,3308.951770,N,11707.323528,W,36.2,180.5,041010,,,A*40
$GPRMC,233148.9,A,3308.920024,N,11707.324865,W,37.8,181.8,041010,,,A*49
$GPRMC,233151.9,A,3308.891186,N,11707.325362,W,35.0,181.5,041010,,,A*49
$GPRMC,233154.9,A,3308.867459,N,11707.329519,W,29.7,184.4,041010,,,A*4A
$GPRMC,233157.9,A,3308.849237,N,11707.330706,W,21.2,182.3,041010,,,A*43
$GPRMC,233200.9,A,3308.838749,N,11707.330442,W,11.5,178.2,041010,,,A*4B
$GPRMC,233206.9,A,3308.832440,N,11707.333253,W,5.1,181.3,041010,,,A*7E
$GPRMC,233209.9,A,3308.824320,N,11707.325859,W,13.2,141.1,041010,,,A*4A
$GPRMC,233212.9,A,3308.813181,N,11707.309061,W,22.9,126.9,041010,,,A*40
$GPRMC,233215.9,A,3308.798935,N,11707.285594,W,29.0,124.9,041010,,,A*46
$GPRMC,233218.9,A,3308.782910,N,11707.259975,W,32.4,126.1,041010,,,A*41
$GPRMC,233221.9,A,3308.766330,N,11707.230229,W,35.1,125.0,041010,,,A*44
$GPRMC,233224.9,A,3308.750432,N,11707.201678,W,34.2,123.1,041010,,,A*46
$GPRMC,233227.9,A,3308.736072,N,11707.176864,W,30.9,124.8,041010,,,A*44
$GPRMC,233230.9,A,3308.722090,N,11707.152680,W,28.4,124.7,041010,,,A*42
$GPRMC,233233.9,A,3308.708990,N,11707.136362,W,20.8,130.9,041010,,,A*44
$GPRMC,233236.9,A,3308.704544,N,11707.126287,W,11.2,124.0,041010,,,A*47
$GPRMC,233239.9,A,3308.700698,N,11707.119038,W,7.4,125.4,041010,,,A*70
$GPRMC,233245.9,A,3308.698548,N,11707.108604,W,8.7,88.7,041010,,,A*45
$GPRMC,233248.9,A,3308.708798,N,11707.099519,W,16.0,40.8,041010,,,A*7A
$GPRMC,233251.9,A,3308.725316,N,11707.086949,W,22.2,36.3,041010,,,A*77
$GPRMC,233254.9,A,3308.743400,N,11707.074405,W,25.3,34.4,041010,,,A*79
$GPRMC,233257.9,A,3308.761641,N,11707.057907,W,28.1,35.6,041010,,,A*7F
$GPRMC,233300.9,A,3308.781898,N,11707.040284,W,28.1,34.5,041010,,,A*7C
$GPRMC,233303.9,A,3308.800008,N,11707.022900,W,27.8,37.8,041010,,,A*73
$GPRMC,233306.9,A,3308.819985,N,11707.005777,W,28.9,35.0,041010,,,A*7D
$GPRMC,233309.9,A,3308.838053,N,11706.991812,W,26.9,35.8,041010,,,A*7C
$GPRMC,233312.9,A,3308.858947,N,11706.974899,W,30.1,35.1,041010,,,A*72
$GPRMC,233315.9,A,3308.878929,N,11706.956767,W,30.4,36.6,041010,,,A*70
$GPRMC,233318.9,A,3308.899334,N,11706.940671,W,28.4,33.6,041010,,,A*79
$GPRMC,233321.9,A,3308.916355,N,11706.928343,W,21.5,31.4,041010,,,A*70
$GPRMC,233324.9,A,3308.926000,N,11706.921573,W,14.1,25.7,041010,,,A*7D
$GPRMC,233342.9,A,3308.928686,N,11706.915370,W,7.7,49.2,041010,,,A*42
$GPRMC,233345.9,A,3308.927209,N,11706.904322,W,13.1,103.5,041010,,,A*45
$GPRMC,233348.9,A,3308.918304,N,11706.886414,W,24.1,120.1,041010,,,A*40
$GPRMC,233351.9,A,3308.902403,N,11706.856558,W,35.3,121.0,041010,,,A*45
$GPRMC,233354.9,A,3308.883167,N,11706.824722,W,39.9,124.9,041010,,,A*4F
$GPRMC,233357.9,A,3308.865406,N,11706.789784,W,40.3,120.2,041010,,,A*49
$GPRMC,233400.9,A,3308.851670,N,11706.753633,W,39.3,111.2,041010,,,A*4E
$GPRMC,233403.9,A,3308.844248,N,11706.712469,W,42.3,99.9,041010,,,A*78
$GPRMC,233406.9,A,3308.841815,N,11706.670660,W,42.0,95.8,041010,,,A*7A
$GPRMC,233409.9,A,3308.837161,N,11706.628399,W,41.0,97.2,041010,,,A*7B
$GPRMC,233412.9,A,3308.835208,N,11706.593981,W,35.6,95.4,041010,,,A*7E
$GPRMC,233415.9,A,3308.834154,N,11706.564975,W,30.5,95.6,041010,,,A*75
$GPRMC,233418.9,A,3308.830329,N,11706.543966,W,18.8,103.6,041010,,,A*4A
$GPRMC,233506.9,A,3308.829967,N,11706.532898,W,11.0,97.6,041010,,,A*77
$GPRMC,233509.9,A,3308.832771,N,11706.507380,W,21.2,87.4,041010,,,A*7D
$GPRMC,233512.9,A,3308.828485,N,11706.479594,W,25.2,95.9,041010,,,A*75
$GPRMC,233515.9,A,3308.825116,N,11706.448839,W,29.3,95.6,041010,,,A*7A
$GPRMC,233518.9,A,3308.819889,N,11706.419025,W,30.8,97.7,041010,,,A*76
$GPRMC,233521.9,A,3308.819003,N,11706.389339,W,30.2,95.0,041010,,,A*79
$GPRMC,233524.9,A,3308.816771,N,11706.357779,W,30.8,96.3,041010,,,A*78
$GPRMC,233527.9,A,3308.812053,N,11706.327632,W,28.7,99.6,041010,,,A*7D
$GPRMC,233530.9,A,3308.806314,N,11706.308818,W,17.2,113.6,041010,,,A*4F
$GPRMC,233533.9,A,3308.792913,N,11706.302567,W,18.2,163.6,041010,,,A*44
$GPRMC,233536.9,A,3308.767825,N,11706.301432,W,30.5,175.5,041010,,,A*44
$GPRMC,233539.9,A,3308.735712,N,11706.302675,W,38.4,177.7,041010,,,A*4C
$GPRMC,233542.9,A,3308.697855,N,11706.300918,W,43.4,177.7,041010,,,A*4F
$GPRMC,233545.9,A,3308.658746,N,11706.298652,W,46.1,177.4,041010,,,A*44
$GPRMC,233548.9,A,3308.617413,N,11706.298338,W,49.3,178.8,041010,,,A*46
$GPRMC,233551.9,A,3308.575675,N,11706.296313,W,50.2,179.0,041010,,,A*4C
$GPRMC,233554.9,A,3308.532182,N,11706.296228,W,52.1,180.5,041010,,,A*4E
$GPRMC,233557.9,A,3308.487951,N,11706.297730,W,52.6,181.6,041010,,,A*4C
$GPRMC,233600.9,A,3308.445143,N,11706.300266,W,52.7,182.3,041010,,,A*46
$GPRMC,233603.9,A,3308.398707,N,11706.303041,W,52.6,182.4,041010,,,A*46
$GPRMC,233606.9,A,3308.358515,N,11706.305285,W,49.4,182.5,041010,,,A*4B
$GPRMC,233609.9,A,3308.319099,N,11706.309125,W,47.0,182.6,041010,,,A*4C
$GPRMC,233612.9,A,3308.282023,N,11706.309350,W,45.7,181.2,041010,,,A*46
$GPRMC,233615.9,A,3308.246600,N,11706.309054,W,44.0,181.4,041010,,,A*49
$GPRMC,233618.9,A,3308.207498,N,11706.311841,W,47.0,183.0,041010,,,A*42
$GPRMC,233621.9,A,3308.165999,N,11706.315481,W,47.4,183.6,041010,,,A*45
$GPRMC,233624.9,A,3308.130221,N,11706.319362,W,44.8,183.2,041010,,,A*45
$GPRMC,233627.9,A,3308.091049,N,11706.320529,W,45.8,182.3,041010,,,A*42
$GPRMC,233630.9,A,3308.053724,N,11706.322547,W,45.0,182.0,041010,,,A*47
$GPRMC,233633.9,A,3308.016733,N,11706.323513,W,43.7,181.3,041010,,,A*42
$GPRMC,233636.9,A,3307.981382,N,11706.325597,W,42.9,182.3,041010,,,A*47
$GPRMC,233639.9,A,3307.943120,N,11706.326824,W,46.1,182.5,041010,,,A*40
$GPRMC,233642.9,A,3307.901533,N,11706.329904,W,50.0,182.8,041010,,,A*4B
$GPRMC,233645.9,A,3307.856432,N,11706.332058,W,54.0,181.3,041010,,,A*49
$GPRMC,233648.9,A,3307.809249,N,11706.329265,W,55.9,178.2,041010,,,A*4D
$GPRMC,233651.9,A,3307.758245,N,11706.324735,W,58.7,175.7,041010,,,A*44
$GPRMC,233654.9,A,3307.708589,N,11706.319235,W,60.2,173.8,041010,,,A*4F
$GPRMC,233657.9,A,3307.660081,N,11706.310870,W,59.8,171.6,041010,,,A*40
$GPRMC,233700.9,A,3307.609683,N,11706.299231,W,61.3,169.8,041010,,,A*40
$GPRMC,233703.9,A,3307.561249,N,11706.286098,W,59.1,166.4,041010,,,A*49
$GPRMC,233706.9,A,3307.511435,N,11706.269404,W,60.9,164.2,041010,,,A*40
$GPRMC,233709.9,A,3307.467033,N,11706.249207,W,57.1,160.7,041010,,,A*47
$GPRMC,233712.9,A,3307.422846,N,11706.229792,W,57.8,159.3,041010,,,A*4E
$GPRMC,233715.9,A,3307.375317,N,11706.210575,W,59.5,158.6,041010,,,A*45
$GPRMC,233718.9,A,3307.329705,N,11706.188218,W,58.5,157.6,041010,,,A*46
$GPRMC,233721.9,A,3307.285860,N,11706.165565,W,57.3,157.2,041010,,,A*44
$GPRMC,233724.9,A,3307.243468,N,11706.144723,W,56.1,156.3,041010,,,A*4F
$GPRMC,233727.9,A,3307.200730,N,11706.122260,W,56.4,155.6,041010,,,A*44
$GPRMC,233730.9,A,3307.160424,N,11706.097558,W,55.8,154.8,041010,,,A*42
$GPRMC,233733.9,A,3307.121123,N,11706.073951,W,54.2,153.4,041010,,,A*49
$GPRMC,233736.9,A,3307.081125,N,11706.049743,W,54.5,152.9,041010,,,A*4E
$GPRMC,233739.9,A,3307.040576,N,11706.025045,W,53.2,153.9,041010,,,A*44
$GPRMC,233742.9,A,3306.999863,N,11706.004269,W,52.4,155.4,041010,,,A*4E
$GPRMC,233745.9,A,3306.964710,N,11705.980948,W,49.0,153.1,041010,,,A*43
$GPRMC,233748.9,A,3306.931754,N,11705.963463,W,45.4,153.4,041010,,,A*4A
$GPRMC,233751.9,A,3306.895762,N,11705.943424,W,47.2,154.8,041010,,,A*46
$GPRMC,233754.9,A,3306.856915,N,11705.923832,W,48.7,156.6,041010,,,A*49
$GPRMC,233757.9,A,3306.823724,N,11705.902248,W,46.7,154.3,041010,,,A*49
$GPRMC,233800.9,A,3306.789917,N,11705.882231,W,45.3,154.8,041010,,,A*4E
$GPRMC,233803.9,A,3306.755843,N,11705.863865,W,44.6,154.4,041010,,,A*40
$GPRMC,233806.9,A,3306.722922,N,11705.847591,W,42.7,156.1,041010,,,A*43
$GPRMC,233809.9,A,3306.692668,N,11705.832025,W,41.3,156.1,041010,,,A*48
$GPRMC,233812.9,A,3306.658767,N,11705.818238,W,42.2,159.0,041010,,,A*40
$GPRMC,233815.9,A,3306.626588,N,11705.801978,W,40.7,157.4,041010,,,A*47
$GPRMC,233818.9,A,3306.601312,N,11705.785480,W,36.9,154.1,041010,,,A*4A
$GPRMC,233821.9,A,3306.576363,N,11705.772187,W,32.7,155.0,041010,,,A*45
$GPRMC,233824.9,A,3306.557270,N,11705.759770,W,24.9,155.9,041010,,,A*47
$GPRMC,233827.9,A,3306.542879,N,11705.751376,W,19.1,155.4,041010,,,A*42
$GPRMC,233830.9,A,3306.531495,N,11705.745085,W,12.8,156.8,041010,,,A*49
$GPRMC,233833.2,A,3306.529265,N,11705.743523,W,5.5,159.1,041010,,,A*73
$GPRMC,233903.9,A,3306.520014,N,11705.741261,W,12.6,156.2,041010,,,A*4D
$GPRMC,233906.9,A,3306.501558,N,11705.734212,W,19.7,153.7,041010,,,A*4A
$GPRMC,233909.9,A,3306.481259,N,11705.724021,W,27.5,151.7,041010,,,A*44
$GPRMC,233912.9,A,3306.453338,N,11705.704885,W,36.5,151.2,041010,,,A*46
$GPRMC,233915.9,A,3306.424926,N,11705.685286,W,40.4,150.5,041010,,,A*43
$GPRMC,233918.9,A,3306.393250,N,11705.665464,W,41.9,150.7,041010,,,A*45
$GPRMC,233921.9,A,3306.361850,N,11705.644285,W,43.5,152.4,041010,,,A*4D
$GPRMC,233924.9,A,3306.331287,N,11705.625720,W,41.9,151.0,041010,,,A*49
$GPRMC,233927.9,A,3306.302087,N,11705.605944,W,40.4,150.9,041010,,,A*42
$GPRMC,233930.9,A,3306.273521,N,11705.586222,W,40.5,150.9,041010,,,A*48
$GPRMC,233933.9,A,3306.243179,N,11705.567017,W,41.0,152.0,041010,,,A*45
$GPRMC,233936.9,A,3306.213609,N,11705.547799,W,42.8,151.7,041010,,,A*49
$GPRMC,233939.9,A,3306.175976,N,11705.526879,W,46.4,152.8,041010,,,A*40
$GPRMC,233942.9,A,3306.145117,N,11705.506231,W,43.4,150.4,041010,,,A*4F
$GPRMC,233945.9,A,3306.114106,N,11705.485339,W,43.1,151.1,041010,,,A*4E
$GPRMC,233948.9,A,3306.080986,N,11705.464822,W,44.0,151.5,041010,,,A*43
$GPRMC,233951.9,A,3306.049381,N,11705.442951,W,45.7,150.1,041010,,,A*41
$GPRMC,233954.9,A,3306.014937,N,11705.419073,W,49.7,149.6,041010,,,A*4F
$GPRMC,233957.9,A,3305.974996,N,11705.391299,W,52.1,148.6,041010,,,A*47
$GPRMC,234000.9,A,3305.940621,N,11705.362209,W,50.7,146.2,041010,,,A*44
$GPRMC,234003.9,A,3305.903935,N,11705.334348,W,51.5,146.1,041010,,,A*4D
$GPRMC,234006.9,A,3305.869104,N,11705.305386,W,51.4,145.6,041010,,,A*4A
$GPRMC,234009.9,A,3305.834148,N,11705.276547,W,51.0,143.4,041010,,,A*4B
$GPRMC,234012.9,A,3305.801688,N,11705.244921,W,50.8,140.7,041010,,,A*48
$GPRMC,234015.9,A,3305.768196,N,11705.211479,W,52.4,140.3,041010,,,A*4D
$GPRMC,234018.9,A,3305.733120,N,11705.174540,W,55.2,138.8,041010,,,A*4D
$GPRMC,234021.9,A,3305.699425,N,11705.137663,W,56.5,137.7,041010,,,A*47
$GPRMC,234024.9,A,3305.665754,N,11705.102142,W,53.9,139.1,041010,,,A*47
$GPRMC,234027.9,A,3305.630794,N,11705.067729,W,54.1,139.4,041010,,,A*4B
$GPRMC,234030.9,A,3305.598341,N,11705.032802,W,52.3,138.9,041010,,,A*4E
$GPRMC,234033.9,A,3305.567011,N,11704.998115,W,50.9,137.3,041010,,,A*41
$GPRMC,234036.9,A,3305.537532,N,11704.965563,W,48.7,137.5,041010,,,A*43
$GPRMC,234039.9,A,3305.508669,N,11704.933481,W,46.7,137.8,041010,,,A*40
$GPRMC,234042.9,A,3305.476851,N,11704.903254,W,48.5,140.4,041010,,,A*4C
$GPRMC,234045.9,A,3305.446818,N,11704.869502,W,48.9,137.7,041010,,,A*43
$GPRMC,234048.9,A,3305.418386,N,11704.836086,W,48.1,137.2,041010,,,A*47
$GPRMC,234051.9,A,3305.388577,N,11704.805930,W,48.7,138.6,041010,,,A*40
$GPRMC,234054.9,A,3305.356605,N,11704.771962,W,50.9,138.5,041010,,,A*4F
$GPRMC,234057.9,A,3305.326901,N,11704.737148,W,50.5,136.3,041010,,,A*46
$GPRMC,234100.9,A,3305.292734,N,11704.702849,W,52.1,138.1,041010,,,A*47
$GPRMC,234103.9,A,3305.261441,N,11704.668460,W,52.3,137.6,041010,,,A*49
$GPRMC,234106.9,A,3305.228007,N,11704.633655,W,54.1,138.8,041010,,,A*48
$GPRMC,234109.9,A,3305.191994,N,11704.597312,W,55.5,140.7,041010,,,A*4B
$GPRMC,234112.9,A,3305.154757,N,11704.561963,W,56.9,141.8,041010,,,A*4D
$GPRMC,234115.9,A,3305.114539,N,11704.528807,W,58.7,143.9,041010,,,A*49
$GPRMC,234118.9,A,3305.073137,N,11704.494228,W,59.4,144.6,041010,,,A*45
$GPRMC,234121.9,A,3305.031459,N,11704.462736,W,59.4,147.2,041010,,,A*40
$GPRMC,234124.9,A,3304.988918,N,11704.431309,W,59.4,149.1,041010,,,A*44
$GPRMC,234127.9,A,3304.941974,N,11704.401312,W,60.9,151.2,041010,,,A*4C
$GPRMC,234130.9,A,3304.898782,N,11704.374245,W,59.6,152.7,041010,,,A*4D
$GPRMC,234133.9,A,3304.853111,N,11704.350392,W,59.6,155.0,041010,,,A*48
$GPRMC,234136.9,A,3304.809496,N,11704.324848,W,58.6,156.0,041010,,,A*45
$GPRMC,234139.9,A,3304.764251,N,11704.303264,W,58.7,158.5,041010,,,A*48
$GPRMC,234142.9,A,3304.718070,N,11704.280450,W,59.0,158.9,041010,,,A*4F
$GPRMC,234145.9,A,3304.668136,N,11704.264384,W,60.8,163.2,041010,,,A*48
$GPRMC,234148.9,A,3304.621627,N,11704.249735,W,59.0,165.3,041010,,,A*4B
$GPRMC,234151.9,A,3304.570197,N,11704.239215,W,61.0,169.1,041010,,,A*4D
$GPRMC,234154.9,A,3304.518228,N,11704.228713,W,61.7,170.6,041010,,,A*4A
$GPRMC,234157.9,A,3304.468848,N,11704.220462,W,61.1,172.6,041010,,,A*4A
$GPRMC,234200.9,A,3304.419369,N,11704.213498,W,60.0,172.8,041010,,,A*4E
$GPRMC,234203.2,A,3304.381812,N,11704.210328,W,56.9,173.2,041010,,,A*4F
$GPRMC,234206.2,A,3304.333979,N,11704.204848,W,56.4,173.5,041010,,,A*4D
$GPRMC,234209.2,A,3304.287293,N,11704.199106,W,55.3,173.4,041010,,,A*42
$GPRMC,234212.2,A,3304.240315,N,11704.192791,W,57.0,173.4,041010,,,A*4E
$GPRMC,234215.2,A,3304.192503,N,11704.186582,W,56.7,173.3,041010,,,A*40
$GPRMC,234218.9,A,3304.134935,N,11704.178386,W,56.2,172.3,041010,,,A*44
$GPRMC,234221.9,A,3304.089893,N,11704.170631,W,54.0,172.6,041010,,,A*40
$GPRMC,234224.9,A,3304.043418,N,11704.162851,W,55.3,172.8,041010,,,A*4B
$GPRMC,234227.9,A,3303.999952,N,11704.157444,W,53.8,172.6,041010,,,A*4F
$GPRMC,234230.9,A,3303.953346,N,11704.152610,W,57.6,173.9,041010,,,A*42
$GPRMC,234233.9,A,3303.905198,N,11704.148970,W,57.5,177.2,041010,,,A*4D
$GPRMC,234236.9,A,3303.855504,N,11704.149678,W,58.0,180.3,041010,,,A*48
$GPRMC,234239.9,A,3303.808193,N,11704.151375,W,57.1,182.7,041010,,,A*4C
$GPRMC,234242.9,A,3303.761200,N,11704.156048,W,55.5,185.0,041010,,,A*45
$GPRMC,234245.9,A,3303.714767,N,11704.162897,W,55.7,186.3,041010,,,A*4B
$GPRMC,234248.9,A,3303.669601,N,11704.174367,W,55.1,190.2,041010,,,A*4F
$GPRMC,234251.2,A,3303.634784,N,11704.183285,W,55.1,191.3,041010,,,A*4D
$GPRMC,234254.9,A,3303.574919,N,11704.201662,W,57.4,195.0,041010,,,A*4A
$GPRMC,234257.9,A,3303.531512,N,11704.218256,W,57.4,197.5,041010,,,A*43
$GPRMC,234300.9,A,3303.486207,N,11704.239042,W,59.2,200.4,041010,,,A*4E
$GPRMC,234303.9,A,3303.440083,N,11704.262877,W,59.1,202.5,041010,,,A*49
$GPRMC,234306.9,A,3303.393630,N,11704.284400,W,60.2,202.1,041010,,,A*42
$GPRMC,234309.9,A,3303.345588,N,11704.307134,W,61.6,201.3,041010,,,A*4A
$GPRMC,234312.9,A,3303.297999,N,11704.325791,W,58.7,199.1,041010,,,A*40
$GPRMC,234315.9,A,3303.253732,N,11704.341717,W,55.3,195.8,041010,,,A*40
$GPRMC,234318.2,A,3303.221554,N,11704.354320,W,54.4,195.9,041010,,,A*42
$GPRMC,234322.2,A,3303.161494,N,11704.370653,W,55.4,192.5,041010,,,A*4C
$GPRMC,234325.9,A,3303.107877,N,11704.383282,W,54.6,190.2,041010,,,A*43
$GPRMC,234328.9,A,3303.064223,N,11704.388516,W,52.8,187.2,041010,,,A*4E
$GPRMC,234331.9,A,3303.021086,N,11704.390863,W,52.3,183.0,041010,,,A*41
$GPRMC,234334.9,A,3302.976293,N,11704.392546,W,52.5,181.0,041010,,,A*44
$GPRMC,234337.9,A,3302.931991,N,11704.390000,W,52.3,177.8,041010,,,A*4F
$GPRMC,234340.9,A,3302.888748,N,11704.388257,W,52.9,176.9,041010,,,A*45
$GPRMC,234343.9,A,3302.844372,N,11704.385478,W,54.1,177.2,041010,,,A*49
$GPRMC,234346.9,A,3302.799178,N,11704.385370,W,54.5,180.5,041010,,,A*4F
$GPRMC,234349.9,A,3302.751245,N,11704.387791,W,57.1,184.7,041010,,,A*41
$GPRMC,234352.9,A,3302.703249,N,11704.394510,W,58.1,187.9,041010,,,A*4B
$GPRMC,234355.9,A,3302.659613,N,11704.406273,W,56.1,192.2,041010,,,A*46
$GPRMC,234358.9,A,3302.617644,N,11704.424850,W,54.6,197.7,041010,,,A*4D
$GPRMC,234401.9,A,3302.575325,N,11704.442477,W,54.5,198.7,041010,,,A*46
$GPRMC,234404.9,A,3302.530808,N,11704.460452,W,56.8,199.7,041010,,,A*4F
$GPRMC,234407.9,A,3302.488764,N,11704.478974,W,55.0,199.0,041010,,,A*47
$GPRMC,234410.9,A,3302.443255,N,11704.496986,W,55.9,199.1,041010,,,A*44
$GPRMC,234413.9,A,3302.401008,N,11704.513726,W,54.7,198.7,041010,,,A*4B
$GPRMC,234416.9,A,3302.359379,N,11704.529021,W,53.3,198.0,041010,,,A*4C
$GPRMC,234419.9,A,3302.319060,N,11704.547285,W,52.4,198.9,041010,,,A*47
$GPRMC,234422.9,A,3302.278166,N,11704.564811,W,52.9,199.0,041010,,,A*4D
$GPRMC,234425.9,A,3302.238052,N,11704.582951,W,52.0,199.3,041010,,,A*4F
$GPRMC,234428.9,A,3302.196571,N,11704.598970,W,52.1,197.8,041010,,,A*4D
$GPRMC,234431.9,A,3302.157718,N,11704.615009,W,49.9,200.1,041010,,,A*42
$GPRMC,234434.9,A,3302.117773,N,11704.630907,W,50.3,198.8,041010,,,A*47
$GPRMC,234437.9,A,3302.079155,N,11704.647297,W,50.7,198.9,041010,,,A*48
$GPRMC,234440.9,A,3302.037681,N,11704.665477,W,52.7,198.8,041010,,,A*47
$GPRMC,234443.9,A,3301.994826,N,11704.681765,W,53.4,198.2,041010,,,A*46
$GPRMC,234446.2,A,3301.961602,N,11704.693183,W,53.3,196.4,041010,,,A*48
$GPRMC,234449.2,A,3301.918166,N,11704.708835,W,53.1,195.5,041010,,,A*4B
$GPRMC,234452.2,A,3301.874893,N,11704.720592,W,54.3,194.0,041010,,,A*42
$GPRMC,234455.0,A,3301.832090,N,11704.730380,W,55.2,189.8,041010,,,A*4E
$GPRMC,234458.9,A,3301.773228,N,11704.741260,W,54.2,189.1,041010,,,A*40
$GPRMC,234501.9,A,3301.727355,N,11704.740566,W,53.9,182.2,041010,,,A*43
$GPRMC,234504.9,A,3301.686483,N,11704.740871,W,51.7,180.8,041010,,,A*4F
$GPRMC,234507.9,A,3301.642707,N,11704.740224,W,52.3,180.5,041010,,,A*4B
$GPRMC,234510.9,A,3301.598802,N,11704.740374,W,50.8,181.0,041010,,,A*4A
$GPRMC,234513.9,A,3301.556966,N,11704.740486,W,51.4,181.4,041010,,,A*4B
$GPRMC,234516.9,A,3301.512976,N,11704.742414,W,52.7,181.4,041010,,,A*46
$GPRMC,234519.9,A,3301.468571,N,11704.743683,W,51.0,181.1,041010,,,A*42
$GPRMC,234522.9,A,3301.424908,N,11704.743375,W,52.2,180.7,041010,,,A*4A
$GPRMC,234525.9,A,3301.382511,N,11704.743557,W,50.4,181.0,041010,,,A*46
$GPRMC,234528.9,A,3301.344163,N,11704.744454,W,48.7,181.5,041010,,,A*4A
$GPRMC,234531.9,A,3301.304318,N,11704.745656,W,47.9,181.8,041010,,,A*45
$GPRMC,234534.9,A,3301.266849,N,11704.750603,W,47.5,186.1,041010,,,A*4C
$GPRMC,234537.9,A,3301.225607,N,11704.755580,W,47.9,185.7,041010,,,A*48
$GPRMC,234540.9,A,3301.187626,N,11704.760981,W,46.1,186.1,041010,,,A*47
$GPRMC,234543.9,A,3301.149634,N,11704.766191,W,44.9,185.9,041010,,,A*4B
$GPRMC,234546.9,A,3301.112060,N,11704.770307,W,45.1,185.4,041010,,,A*49
$GPRMC,234549.9,A,3301.073245,N,11704.773657,W,46.2,185.1,041010,,,A*43
$GPRMC,234552.9,A,3301.035947,N,11704.780491,W,45.3,186.3,041010,,,A*45
$GPRMC,234555.9,A,3300.994247,N,11704.785425,W,48.7,185.9,041010,,,A*40
$GPRMC,234558.2,A,3300.963609,N,11704.788760,W,48.3,184.9,041010,,,A*4A
$GPRMC,234601.9,A,3300.915861,N,11704.795792,W,47.0,186.4,041010,,,A*4D
$GPRMC,234604.9,A,3300.876921,N,11704.798886,W,46.4,185.3,041010,,,A*4F
$GPRMC,234607.9,A,3300.839557,N,11704.804051,W,44.2,186.0,041010,,,A*46
$GPRMC,234610.9,A,3300.805742,N,11704.805849,W,42.9,186.1,041010,,,A*45
$GPRMC,234613.9,A,3300.768353,N,11704.810494,W,45.4,186.4,041010,,,A*41
$GPRMC,234616.9,A,3300.731484,N,11704.815784,W,46.2,186.7,041010,,,A*44
$GPRMC,234619.9,A,3300.688687,N,11704.819934,W,50.0,184.9,041010,,,A*49
$GPRMC,234622.9,A,3300.647887,N,11704.824255,W,49.1,185.7,041010,,,A*48
$GPRMC,234625.9,A,3300.606705,N,11704.827885,W,48.0,184.6,041010,,,A*4B
$GPRMC,234628.9,A,3300.570685,N,11704.832967,W,45.7,185.4,041010,,,A*4D
$GPRMC,234631.9,A,3300.530392,N,11704.838731,W,47.4,186.5,041010,,,A*46
$GPRMC,234634.9,A,3300.491406,N,11704.843774,W,46.5,186.0,041010,,,A*4B
$GPRMC,234637.9,A,3300.450057,N,11704.846385,W,47.0,184.5,041010,,,A*49
$GPRMC,234640.9,A,3300.414787,N,11704.852320,W,46.1,187.3,041010,,,A*4C
$GPRMC,234643.9,A,3300.375339,N,11704.862222,W,47.7,189.8,041010,,,A*4C
$GPRMC,234646.9,A,3300.336222,N,11704.868912,W,47.9,189.1,041010,,,A*40
$GPRMC,234649.9,A,3300.298636,N,11704.879436,W,47.6,192.2,041010,,,A*46
$GPRMC,234652.0,A,3300.270613,N,11704.885009,W,48.8,191.8,041010,,,A*47
$GPRMC,234655.9,A,3300.220064,N,11704.901056,W,47.4,194.8,041010,,,A*4B
$GPRMC,234658.9,A,3300.180843,N,11704.910894,W,49.0,194.8,041010,,,A*4E
$GPRMC,234701.9,A,3300.142374,N,11704.925330,W,48.0,196.7,041010,,,A*4D
$GPRMC,234704.9,A,3300.107336,N,11704.936395,W,46.5,196.4,041010,,,A*4A
$GPRMC,234707.9,A,3300.069779,N,11704.948706,W,46.7,196.1,041010,,,A*4F
$GPRMC,234710.9,A,3300.029989,N,11704.961309,W,48.6,196.4,041010,,,A*46
$GPRMC,234713.9,A,3259.990507,N,11704.977344,W,49.0,197.6,041010,,,A*43
$GPRMC,234716.9,A,3259.948948,N,11704.991035,W,50.2,196.2,041010,,,A*46
$GPRMC,234719.9,A,3259.910390,N,11705.002726,W,49.5,195.4,041010,,,A*46
$GPRMC,234722.9,A,3259.869319,N,11705.016011,W,50.9,194.4,041010,,,A*43
$GPRMC,234725.9,A,3259.825057,N,11705.026909,W,53.3,191.8,041010,,,A*46
$GPRMC,234728.9,A,3259.782065,N,11705.034442,W,53.8,188.9,041010,,,A*4B
$GPRMC,234731.9,A,3259.737852,N,11705.039147,W,53.9,186.6,041010,,,A*4C
$GPRMC,234734.9,A,3259.688882,N,11705.040562,W,56.1,182.3,041010,,,A*40
$GPRMC,234737.9,A,3259.645153,N,11705.043169,W,54.8,180.7,041010,,,A*46
$GPRMC,234740.9,A,3259.598048,N,11705.043192,W,55.9,179.2,041010,,,A*49
$GPRMC,234743.9,A,3259.551258,N,11705.038111,W,55.1,174.5,041010,,,A*49
$GPRMC,234746.9,A,3259.505580,N,11705.030347,W,54.7,171.6,041010,,,A*47
$GPRMC,234749.9,A,3259.463332,N,11705.017983,W,53.1,169.4,041010,,,A*4B
$GPRMC,234752.9,A,3259.419790,N,11705.007442,W,53.0,169.9,041010,,,A*4D
$GPRMC,234755.9,A,3259.377255,N,11704.996852,W,52.6,169.2,041010,,,A*48
$GPRMC,234758.9,A,3259.330960,N,11704.988165,W,53.3,172.0,041010,,,A*45
$GPRMC,234801.9,A,3259.286519,N,11704.981711,W,51.6,174.4,041010,,,A*41
$GPRMC,234804.9,A,3259.244830,N,11704.980901,W,51.1,179.1,041010,,,A*4D
$GPRMC,234807.9,A,3259.200671,N,11704.981002,W,51.4,182.0,041010,,,A*4E
$GPRMC,234810.9,A,3259.156967,N,11704.986769,W,52.0,185.5,041010,,,A*48
$GPRMC,234813.9,A,3259.117636,N,11704.992985,W,49.7,188.3,041010,,,A*4A
$GPRMC,234816.9,A,3259.079110,N,11705.004170,W,49.1,193.5,041010,,,A*4A
$GPRMC,234819.9,A,3259.040082,N,11705.018131,W,49.3,196.0,041010,,,A*4F
$GPRMC,234822.9,A,3259.003455,N,11705.036878,W,48.8,201.0,041010,,,A*41
$GPRMC,234825.9,A,3258.964283,N,11705.056865,W,49.7,204.3,041010,,,A*40
$GPRMC,234828.9,A,3258.930146,N,11705.076402,W,46.7,206.7,041010,,,A*40
$GPRMC,234831.9,A,3258.897387,N,11705.098992,W,46.3,208.7,041010,,,A*45
$GPRMC,234834.9,A,3258.862403,N,11705.120279,W,46.7,207.7,041010,,,A*46
$GPRMC,234837.9,A,3258.826737,N,11705.140972,W,48.1,206.8,041010,,,A*41
$GPRMC,234840.9,A,3258.791207,N,11705.162030,W,47.9,207.3,041010,,,A*46
$GPRMC,234843.9,A,3258.757072,N,11705.183618,W,46.6,207.8,041010,,,A*49
$GPRMC,234847.2,A,3258.720659,N,11705.210430,W,47.1,210.1,041010,,,A*41
$GPRMC,234850.9,A,3258.673792,N,11705.237002,W,50.8,207.3,041010,,,A*46
$GPRMC,234853.9,A,3258.636287,N,11705.260370,W,50.3,207.5,041010,,,A*4C
$GPRMC,234856.9,A,3258.598966,N,11705.283649,W,50.4,207.6,041010,,,A*4C
$GPRMC,234859.9,A,3258.560964,N,11705.307490,W,50.1,207.5,041010,,,A*4B
$GPRMC,234902.9,A,3258.527200,N,11705.329681,W,48.3,208.4,041010,,,A*45
$GPRMC,234905.9,A,3258.490631,N,11705.354460,W,49.3,208.1,041010,,,A*4A
$GPRMC,234908.9,A,3258.456032,N,11705.375384,W,47.8,207.9,041010,,,A*44
$GPRMC,234911.9,A,3258.421859,N,11705.395631,W,46.2,207.2,041010,,,A*4C
$GPRMC,234914.9,A,3258.385655,N,11705.418743,W,48.2,208.0,041010,,,A*47
$GPRMC,234917.9,A,3258.350238,N,11705.442190,W,48.8,208.5,041010,,,A*4B
$GPRMC,234920.9,A,3258.315477,N,11705.465367,W,48.9,208.7,041010,,,A*4F
$GPRMC,234923.9,A,3258.278209,N,11705.489354,W,50.6,208.9,041010,,,A*43
$GPRMC,234926.9,A,3258.239007,N,11705.513700,W,52.1,207.8,041010,,,A*43
$GPRMC,234929.9,A,3258.200046,N,11705.539176,W,51.8,208.6,041010,,,A*47
$GPRMC,234932.9,A,3258.161580,N,11705.564109,W,52.7,208.3,041010,,,A*4F
$GPRMC,234935.9,A,3258.122977,N,11705.588790,W,52.2,207.9,041010,,,A*4F
$GPRMC,234938.9,A,3258.084725,N,11705.614688,W,52.7,209.4,041010,,,A*4E
$GPRMC,234941.9,A,3258.045601,N,11705.639706,W,53.9,209.0,041010,,,A*49
$GPRMC,234944.9,A,3258.007014,N,11705.664126,W,53.2,208.7,041010,,,A*49
$GPRMC,234947.9,A,3257.969592,N,11705.689003,W,51.4,209.0,041010,,,A*48
$GPRMC,234950.9,A,3257.931036,N,11705.713240,W,53.9,208.6,041010,,,A*47
$GPRMC,234953.9,A,3257.896689,N,11705.735411,W,46.1,208.4,041010,,,A*42
$GPRMC,234956.2,A,3257.871682,N,11705.751200,W,44.9,208.2,041010,,,A*46
$GPRMC,234959.2,A,3257.847660,N,11705.768029,W,28.3,207.8,041010,,,A*46
$GPRMC,235002.9,A,3257.822522,N,11705.783512,W,23.9,204.8,041010,,,A*47
$GPRMC,235005.9,A,3257.810491,N,11705.789794,W,14.7,203.6,041010,,,A*4D
$GPRMC,235008.9,A,3257.800843,N,11705.795225,W,12.8,205.1,041010,,,A*48
$GPRMC,235011.9,A,3257.792212,N,11705.800502,W,12.1,204.9,041010,,,A*4B
$GPRMC,235014.9,A,3257.784943,N,11705.805824,W,9.1,205.0,041010,,,A*78
$GPRMC,235017.9,A,3257.780030,N,11705.810196,W,8.7,209.9,041010,,,A*74
$GPRMC,235020.9,A,3257.773886,N,11705.816053,W,10.9,217.0,041010,,,A*46
$GPRMC,235023.9,A,3257.763471,N,11705.821274,W,12.8,209.3,041010,,,A*4C
$GPRMC,235026.9,A,3257.755057,N,11705.826734,W,12.6,206.8,041010,,,A*40
$GPRMC,235029.9,A,3257.745740,N,11705.833726,W,12.6,208.5,041010,,,A*4B
$GPRMC,235032.9,A,3257.736669,N,11705.838172,W,10.6,204.3,041010,,,A*4B
$GPRMC,235035.9,A,3257.729565,N,11705.840003,W,7.2,200.7,041010,,,A*77
$GPRMC,235038.9,A,3257.727297,N,11705.843556,W,4.5,214.6,041010,,,A*78
$GPRMC,235041.9,A,3257.723543,N,11705.846884,W,6.5,218.1,041010,,,A*72
$GPRMC,235044.9,A,3257.713933,N,11705.848505,W,10.8,206.2,041010,,,A*43
$GPRMC,235047.9,A,3257.707740,N,11705.853732,W,9.8,210.2,041010,,,A*7C
$GPRMC,235050.9,A,3257.699302,N,11705.856421,W,9.9,202.1,041010,,,A*7B
$GPRMC,235053.9,A,3257.693687,N,11705.861711,W,8.7,206.1,041010,,,A*75
$GPRMC,235056.9,A,3257.689954,N,11705.867493,W,8.4,214.2,041010,,,A*76
$GPRMC,235059.9,A,3257.682027,N,11705.871310,W,11.6,209.4,041010,,,A*44
$GPRMC,235103.2,A,3257.673726,N,11705.875819,W,9.4,206.1,041010,,,A*7E
$GPRMC,235106.2,A,3257.669983,N,11705.879927,W,5.6,209.9,041010,,,A*78
$GPRMC,235109.2,A,3257.665949,N,11705.882464,W,5.5,210.2,041010,,,A*73
$GPRMC,235112.9,A,3257.661167,N,11705.886213,W,6.1,209.6,041010,,,A*7B
$GPRMC,235115.9,A,3257.654081,N,11705.888787,W,6.9,204.5,041010,,,A*73
$GPRMC,235118.9,A,3257.651128,N,11705.891983,W,5.4,216.8,041010,,,A*7B
$GPRMC,235124.9,A,3257.645414,N,11705.895586,W,4.7,217.8,041010,,,A*75
$GPRMC,235127.9,A,3257.641658,N,11705.898387,W,6.2,216.1,041010,,,A*7D
$GPRMC,235130.9,A,3257.635663,N,11705.902025,W,8.1,211.4,041010,,,A*76
$GPRMC,235133.9,A,3257.631712,N,11705.906419,W,6.5,215.1,041010,,,A*72
$GPRMC,235136.9,A,3257.628051,N,11705.908801,W,4.9,212.0,041010,,,A*7C
$GPRMC,235142.9,A,3257.620825,N,11705.916897,W,7.4,219.1,041010,,,A*78
$GPRMC,235145.9,A,3257.615634,N,11705.922424,W,9.1,219.8,041010,,,A*76
$GPRMC,235148.9,A,3257.608503,N,11705.929890,W,10.8,219.1,041010,,,A*40
$GPRMC,235151.9,A,3257.598579,N,11705.933574,W,10.6,202.4,041010,,,A*42
$GPRMC,235154.9,A,3257.594805,N,11705.938483,W,8.3,213.5,041010,,,A*72
$GPRMC,235157.9,A,3257.587648,N,11705.943341,W,9.9,211.0,041010,,,A*7D
$GPRMC,235200.9,A,3257.578922,N,11705.953030,W,16.1,217.5,041010,,,A*4E
$GPRMC,235203.9,A,3257.564819,N,11705.963202,W,19.9,211.5,041010,,,A*48
$GPRMC,235206.9,A,3257.548103,N,11705.973187,W,23.8,210.9,041010,,,A*4B
$GPRMC,235209.9,A,3257.528816,N,11705.985164,W,25.7,209.0,041010,,,A*43
$GPRMC,235212.9,A,3257.510857,N,11705.998899,W,24.3,209.7,041010,,,A*42
$GPRMC,235215.9,A,3257.496673,N,11706.007795,W,18.5,204.8,041010,,,A*46
$GPRMC,235218.2,A,3257.488569,N,11706.017644,W,16.1,215.9,041010,,,A*40
$GPRMC,235221.0,A,3257.476574,N,11706.022667,W,15.9,208.0,041010,,,A*4C
$GPRMC,235224.9,A,3257.456512,N,11706.030230,W,18.1,201.6,041010,,,A*4D
$GPRMC,235227.9,A,3257.445810,N,11706.038507,W,16.3,208.2,041010,,,A*49
$GPRMC,235230.9,A,3257.430798,N,11706.044275,W,17.7,202.0,041010,,,A*46
$GPRMC,235233.9,A,3257.417159,N,11706.052767,W,20.1,202.7,041010,,,A*4F
$GPRMC,235236.9,A,3257.402148,N,11706.061409,W,21.3,203.1,041010,,,A*41
$GPRMC,235239.9,A,3257.382589,N,11706.070970,W,24.5,201.8,041010,,,A*43
$GPRMC,235242.9,A,3257.364291,N,11706.080709,W,24.9,203.5,041010,,,A*45
$GPRMC,235245.9,A,3257.344777,N,11706.091183,W,27.4,204.8,041010,,,A*4D
$GPRMC,235248.9,A,3257.321808,N,11706.100805,W,30.0,203.1,041010,,,A*46
$GPRMC,235251.9,A,3257.297419,N,11706.112804,W,31.6,204.2,041010,,,A*4F
$GPRMC,235254.9,A,3257.274363,N,11706.128291,W,33.0,208.7,041010,,,A*4F
$GPRMC,235257.9,A,3257.251498,N,11706.143882,W,30.9,208.7,041010,,,A*47
$GPRMC,235300.9,A,3257.230619,N,11706.158482,W,29.5,209.1,041010,,,A*4D
$GPRMC,235303.9,A,3257.208319,N,11706.172031,W,30.3,207.5,041010,,,A*40
$GPRMC,235306.9,A,3257.183767,N,11706.186115,W,32.1,207.7,041010,,,A*46
$GPRMC,235309.9,A,3257.159545,N,11706.201399,W,32.0,208.3,041010,,,A*4C
$GPRMC,235312.9,A,3257.139013,N,11706.215258,W,28.7,208.2,041010,,,A*42
$GPRMC,235315.9,A,3257.116128,N,11706.229036,W,31.6,210.7,041010,,,A*41
$GPRMC,235318.9,A,3257.089206,N,11706.247013,W,35.9,210.0,041010,,,A*47
$GPRMC,235321.9,A,3257.061839,N,11706.265992,W,37.1,209.4,041010,,,A*4B
$GPRMC,235324.9,A,3257.035957,N,11706.284454,W,38.0,210.5,041010,,,A*49
$GPRMC,235327.9,A,3257.007183,N,11706.305134,W,40.0,209.8,041010,,,A*4B
$GPRMC,235330.9,A,3256.980635,N,11706.324264,W,39.3,210.9,041010,,,A*41
$GPRMC,235333.9,A,3256.951101,N,11706.345302,W,40.9,210.8,041010,,,A*4D
$GPRMC,235336.9,A,3256.917246,N,11706.365003,W,42.3,207.5,041010,,,A*49
$GPRMC,235339.2,A,3256.895267,N,11706.378883,W,40.6,208.9,041010,,,A*4D
$GPRMC,235342.9,A,3256.859106,N,11706.402056,W,42.8,208.4,041010,,,A*45
$GPRMC,235345.9,A,3256.827046,N,11706.422862,W,44.9,209.5,041010,,,A*44
$GPRMC,235348.9,A,3256.794004,N,11706.448712,W,46.9,211.1,041010,,,A*43
$GPRMC,235351.9,A,3256.758839,N,11706.473429,W,50.9,210.3,041010,,,A*4A
$GPRMC,235354.9,A,3256.720715,N,11706.500768,W,53.5,210.2,041010,,,A*4C
$GPRMC,235357.9,A,3256.681584,N,11706.523254,W,52.6,206.8,041010,,,A*4B
$GPRMC,235400.9,A,3256.639394,N,11706.545259,W,54.6,204.9,041010,,,A*42
$GPRMC,235403.9,A,3256.594610,N,11706.564217,W,54.9,201.6,041010,,,A*40
$GPRMC,235406.9,A,3256.551501,N,11706.584637,W,53.9,201.7,041010,,,A*41
$GPRMC,235409.9,A,3256.510310,N,11706.604242,W,51.4,200.3,041010,,,A*4A
$GPRMC,235413.2,A,3256.465621,N,11706.620393,W,50.1,197.0,041010,,,A*4F
$GPRMC,235416.9,A,3256.418188,N,11706.636141,W,49.8,194.6,041010,,,A*41
$GPRMC,235419.9,A,3256.378210,N,11706.650156,W,50.2,195.2,041010,,,A*4C
$GPRMC,235422.9,A,3256.336573,N,11706.661690,W,51.9,194.4,041010,,,A*4E
$GPRMC,235425.9,A,3256.294594,N,11706.676250,W,54.6,195.0,041010,,,A*48
$GPRMC,235428.9,A,3256.250677,N,11706.688804,W,54.1,193.9,041010,,,A*41
$GPRMC,235431.9,A,3256.208488,N,11706.701406,W,54.2,193.8,041010,,,A*4A
$GPRMC,235434.2,A,3256.173618,N,11706.711898,W,54.1,194.2,041010,,,A*44
$GPRMC,235437.2,A,3256.129787,N,11706.724881,W,54.2,194.2,041010,,,A*42
$GPRMC,235440.2,A,3256.086913,N,11706.737986,W,51.7,194.4,041010,,,A*47
$GPRMC,235443.2,A,3256.047219,N,11706.749819,W,48.0,194.1,041010,,,A*4C
$GPRMC,235446.2,A,3256.008355,N,11706.761865,W,47.9,194.5,041010,,,A*48
$GPRMC,235449.9,A,3255.960366,N,11706.776457,W,48.9,194.1,041010,,,A*48
$GPRMC,235452.9,A,3255.920250,N,11706.789698,W,51.0,194.8,041010,,,A*4B
$GPRMC,235455.9,A,3255.877514,N,11706.804255,W,50.1,194.4,041010,,,A*4B
$GPRMC,235458.9,A,3255.837443,N,11706.815694,W,48.4,193.0,041010,,,A*47
$GPRMC,235501.9,A,3255.799275,N,11706.825224,W,46.9,193.4,041010,,,A*49
$GPRMC,235504.9,A,3255.762888,N,11706.834174,W,45.2,193.1,041010,,,A*4B
$GPRMC,235507.9,A,3255.728191,N,11706.846959,W,44.0,194.2,041010,,,A*42
$GPRMC,235510.9,A,3255.695164,N,11706.857734,W,41.7,193.6,041010,,,A*4D
$GPRMC,235513.9,A,3255.661641,N,11706.865449,W,42.5,193.2,041010,,,A*48
$GPRMC,235516.9,A,3255.626426,N,11706.876907,W,44.3,193.0,041010,,,A*4A
$GPRMC,235519.9,A,3255.591390,N,11706.887945,W,44.1,193.8,041010,,,A*42
$GPRMC,235522.9,A,3255.555672,N,11706.897220,W,43.6,192.5,041010,,,A*4E
$GPRMC,235525.9,A,3255.515139,N,11706.904586,W,45.6,191.0,041010,,,A*45
$GPRMC,235528.9,A,3255.475622,N,11706.911987,W,46.4,190.6,041010,,,A*4D
$GPRMC,235531.9,A,3255.435347,N,11706.918597,W,47.6,189.9,041010,,,A*47
$GPRMC,235534.9,A,3255.392582,N,11706.928511,W,49.8,190.8,041010,,,A*43
$GPRMC,235537.9,A,3255.354676,N,11706.937812,W,48.1,191.8,041010,,,A*4B
$GPRMC,235540.9,A,3255.309304,N,11706.943064,W,50.4,187.7,041010,,,A*4D
$GPRMC,235543.9,A,3255.268268,N,11706.950518,W,50.5,188.5,041010,,,A*43
$GPRMC,235546.9,A,3255.226087,N,11706.959337,W,51.5,188.7,041010,,,A*4E
$GPRMC,235549.9,A,3255.182333,N,11706.965675,W,52.4,188.3,041010,,,A*4A
$GPRMC,235552.9,A,3255.143178,N,11706.973062,W,49.1,187.0,041010,,,A*44
$GPRMC,235555.9,A,3255.105213,N,11706.978471,W,47.3,186.6,041010,,,A*49
$GPRMC,235558.9,A,3255.057942,N,11706.982833,W,51.7,187.1,041010,,,A*47
$GPRMC,235601.9,A,3255.015488,N,11706.986510,W,52.5,184.5,041010,,,A*4B
$GPRMC,235604.9,A,3254.971517,N,11706.990399,W,52.7,185.7,041010,,,A*42
$GPRMC,235607.9,A,3254.925470,N,11706.992590,W,54.6,183.9,041010,,,A*42
$GPRMC,235610.9,A,3254.878177,N,11706.996129,W,54.7,183.6,041010,,,A*43
$GPRMC,235613.9,A,3254.836403,N,11707.000410,W,52.1,183.3,041010,,,A*41
$GPRMC,235616.9,A,3254.792062,N,11707.003744,W,51.7,182.9,041010,,,A*49
$GPRMC,235619.9,A,3254.752625,N,11707.006562,W,48.6,182.7,041010,,,A*4B
$GPRMC,235622.9,A,3254.709127,N,11707.005854,W,51.3,181.5,041010,,,A*4F
$GPRMC,235625.9,A,3254.666658,N,11707.007052,W,52.7,180.6,041010,,,A*46
$GPRMC,235628.9,A,3254.621380,N,11707.008750,W,56.3,180.0,041010,,,A*44
$GPRMC,235631.9,A,3254.571051,N,11707.005974,W,58.6,177.9,041010,,,A*4A
$GPRMC,235634.9,A,3254.521059,N,11707.002519,W,59.7,177.4,041010,,,A*4F
$GPRMC,235637.9,A,3254.470428,N,11706.999535,W,60.2,176.5,041010,,,A*40
$GPRMC,235640.9,A,3254.421105,N,11707.001606,W,60.2,179.8,041010,,,A*46
$GPRMC,235643.9,A,3254.368896,N,11706.999126,W,61.5,178.6,041010,,,A*49
$GPRMC,235646.9,A,3254.319571,N,11707.000822,W,59.3,180.2,041010,,,A*45
$GPRMC,235649.9,A,3254.269127,N,11707.001908,W,60.6,181.4,041010,,,A*4B
$GPRMC,235652.9,A,3254.219331,N,11707.000848,W,60.4,179.3,041010,,,A*45
$GPRMC,235655.2,A,3254.178795,N,11707.002077,W,62.7,180.2,041010,,,A*47
$GPRMC,235658.9,A,3254.118629,N,11707.003593,W,61.0,179.3,041010,,,A*4C
$GPRMC,235701.9,A,3254.070798,N,11707.005041,W,58.6,180.1,041010,,,A*41
$GPRMC,235704.9,A,3254.020338,N,11707.005141,W,59.3,180.0,041010,,,A*4B
$GPRMC,235707.9,A,3253.968044,N,11707.002674,W,61.6,178.7,041010,,,A*4A
$GPRMC,235710.9,A,3253.917829,N,11707.002791,W,60.4,179.3,041010,,,A*4B
$GPRMC,235713.9,A,3253.864936,N,11706.998766,W,61.1,175.7,041010,,,A*4D
$GPRMC,235716.9,A,3253.816692,N,11706.992649,W,59.8,173.8,041010,,,A*41
$GPRMC,235719.9,A,3253.767481,N,11706.985679,W,59.7,172.2,041010,,,A*46
$GPRMC,235722.9,A,3253.716909,N,11706.972896,W,61.0,168.5,041010,,,A*42
$GPRMC,235725.9,A,3253.672266,N,11706.959749,W,57.1,165.4,041010,,,A*48
$GPRMC,235728.9,A,3253.621214,N,11706.942737,W,58.7,165.3,041010,,,A*4B
$GPRMC,235732.2,A,3253.568822,N,11706.924465,W,59.8,163.0,041010,,,A*45
$GPRMC,235735.9,A,3253.509743,N,11706.903679,W,61.1,162.1,041010,,,A*4E
$GPRMC,235738.9,A,3253.459310,N,11706.884247,W,62.4,160.6,041010,,,A*41
$GPRMC,235741.9,A,3253.411571,N,11706.863508,W,61.1,159.2,041010,,,A*4F
$GPRMC,235744.9,A,3253.370188,N,11706.839238,W,58.3,156.7,041010,,,A*41
$GPRMC,235747.9,A,3253.324297,N,11706.816578,W,57.5,156.6,041010,,,A*48
$GPRMC,235750.9,A,3253.282213,N,11706.791749,W,56.7,154.7,041010,,,A*4F
$GPRMC,235753.9,A,3253.239854,N,11706.767944,W,56.6,154.9,041010,,,A*40
$GPRMC,235756.9,A,3253.198268,N,11706.746484,W,56.5,155.8,041010,,,A*49
$GPRMC,235759.9,A,3253.150621,N,11706.718053,W,60.0,154.5,041010,,,A*42
$GPRMC,235802.9,A,3253.107449,N,11706.693751,W,58.8,154.4,041010,,,A*48
$GPRMC,235805.9,A,3253.065902,N,11706.670333,W,57.9,154.1,041010,,,A*4E
$GPRMC,235808.9,A,3253.020996,N,11706.643790,W,59.2,153.7,041010,,,A*46
$GPRMC,235811.9,A,3252.977167,N,11706.619865,W,57.7,154.3,041010,,,A*40
$GPRMC,235814.9,A,3252.933876,N,11706.594967,W,57.3,155.8,041010,,,A*47
$GPRMC,235817.9,A,3252.892099,N,11706.571023,W,57.6,156.5,041010,,,A*4E
$GPRMC,235820.9,A,3252.847385,N,11706.548619,W,57.3,158.2,041010,,,A*45
$GPRMC,235823.9,A,3252.801140,N,11706.534083,W,54.5,163.1,041010,,,A*4F
$GPRMC,235826.9,A,3252.760102,N,11706.518721,W,51.4,164.4,041010,,,A*43
$GPRMC,235829.9,A,3252.716966,N,11706.504973,W,53.8,165.8,041010,,,A*40
$GPRMC,235832.9,A,3252.673049,N,11706.495566,W,55.0,169.4,041010,,,A*43
$GPRMC,235835.9,A,3252.625257,N,11706.482879,W,58.1,170.4,041010,,,A*4B
$GPRMC,235838.9,A,3252.577386,N,11706.471299,W,57.6,170.8,041010,,,A*43
$GPRMC,235841.9,A,3252.528395,N,11706.466677,W,58.5,175.3,041010,,,A*45
$GPRMC,235844.9,A,3252.481353,N,11706.463307,W,58.2,176.6,041010,,,A*4E
$GPRMC,235847.9,A,3252.431414,N,11706.462568,W,60.1,178.6,041010,,,A*4A
$GPRMC,235850.9,A,3252.381689,N,11706.464862,W,58.8,180.6,041010,,,A*42
$GPRMC,235853.9,A,3252.332536,N,11706.465135,W,57.8,180.5,041010,,,A*48
$GPRMC,235856.9,A,3252.283502,N,11706.464434,W,58.9,182.3,041010,,,A*4E
$GPRMC,235859.9,A,3252.235984,N,11706.474776,W,58.7,187.1,041010,,,A*43
$GPRMC,235902.9,A,3252.188099,N,11706.485250,W,58.7,191.3,041010,,,A*46
$GPRMC,235905.9,A,3252.138169,N,11706.494389,W,59.9,192.5,041010,,,A*4B
$GPRMC,235908.9,A,3252.088117,N,11706.510035,W,62.0,196.3,041010,,,A*4F
$GPRMC,235911.9,A,3252.040208,N,11706.527614,W,60.5,198.4,041010,,,A*41
$GPRMC,235914.9,A,3251.993670,N,11706.549465,W,61.7,201.3,041010,,,A*40
$GPRMC,235917.9,A,3251.947497,N,11706.573674,W,59.8,203.4,041010,,,A*4B
$GPRMC,235920.9,A,3251.903080,N,11706.603817,W,60.8,208.4,041010,,,A*43
$GPRMC,235923.9,A,3251.862269,N,11706.638150,W,59.4,212.3,041010,,,A*4B
$GPRMC,235926.9,A,3251.817821,N,11706.668549,W,60.9,210.6,041010,,,A*43
$GPRMC,235929.9,A,3251.774377,N,11706.695408,W,60.0,209.0,041010,,,A*4F
$GPRMC,235932.9,A,3251.730459,N,11706.729805,W,61.4,210.4,041010,,,A*40
$GPRMC,235935.9,A,3251.685462,N,11706.763729,W,61.2,211.4,041010,,,A*48
$GPRMC,235938.9,A,3251.636596,N,11706.793880,W,62.4,210.0,041010,,,A*44
$GPRMC,235941.9,A,3251.591929,N,11706.825916,W,61.3,211.6,041010,,,A*43
$GPRMC,235944.9,A,3251.551814,N,11706.855099,W,60.1,211.4,041010,,,A*4D
$GPRMC,235947.9,A,3251.507836,N,11706.889327,W,60.5,212.2,041010,,,A*4B
$GPRMC,235950.9,A,3251.469506,N,11706.921156,W,57.4,212.6,041010,,,A*4C
$GPRMC,235953.9,A,3251.431728,N,11706.948101,W,55.0,212.2,041010,,,A*43
$GPRMC,235956.9,A,3251.394289,N,11706.983394,W,58.4,218.3,041010,,,A*4B
$GPRMC,235959.9,A,3251.359829,N,11707.024227,W,57.7,226.7,041010,,,A*4C
$GPRMC,000002.9,A,3251.334063,N,11707.068568,W,55.6,235.9,051010,,,A*48
$GPRMC,000005.9,A,3251.312208,N,11707.119748,W,57.6,242.6,051010,,,A*4E
$GPRMC,000008.2,A,3251.296623,N,11707.158640,W,56.2,245.6,051010,,,A*46
$GPRMC,000011.9,A,3251.274702,N,11707.223822,W,56.2,244.3,051010,,,A*4A
$GPRMC,000014.9,A,3251.253910,N,11707.274534,W,56.3,239.9,051010,,,A*4E
$GPRMC,000017.9,A,3251.226532,N,11707.318423,W,55.6,234.9,051010,,,A*44
$GPRMC,000020.9,A,3251.196412,N,11707.359357,W,56.5,228.8,051010,,,A*46
$GPRMC,000023.9,A,3251.161493,N,11707.399671,W,56.5,223.5,051010,,,A*4F
$GPRMC,000026.9,A,3251.122925,N,11707.437227,W,58.3,219.0,051010,,,A*4D
$GPRMC,000029.9,A,3251.083101,N,11707.471941,W,59.1,217.3,051010,,,A*41
$GPRMC,000032.9,A,3251.048266,N,11707.506143,W,55.6,217.8,051010,,,A*45
$GPRMC,000035.9,A,3251.014175,N,11707.536686,W,51.8,218.0,051010,,,A*4A
$GPRMC,000038.9,A,3250.978276,N,11707.566462,W,51.9,216.3,051010,,,A*44
$GPRMC,000041.9,A,3250.948243,N,11707.593558,W,49.1,216.3,051010,,,A*4C
$GPRMC,000044.9,A,3250.915827,N,11707.621289,W,50.8,216.0,051010,,,A*4A
$GPRMC,000047.9,A,3250.880319,N,11707.652613,W,51.8,216.5,051010,,,A*45
$GPRMC,000050.9,A,3250.846296,N,11707.684473,W,51.6,217.5,051010,,,A*4F
$GPRMC,000053.9,A,3250.811538,N,11707.715544,W,51.6,217.2,051010,,,A*46
$GPRMC,000056.9,A,3250.775207,N,11707.746986,W,52.9,217.0,051010,,,A*4F
$GPRMC,000059.9,A,3250.738706,N,11707.777996,W,53.2,216.2,051010,,,A*47
$GPRMC,000102.9,A,3250.703744,N,11707.811034,W,53.9,217.5,051010,,,A*45
$GPRMC,000105.9,A,3250.665162,N,11707.844857,W,55.8,217.1,051010,,,A*4F
$GPRMC,000108.9,A,3250.626464,N,11707.876923,W,56.7,216.6,051010,,,A*4F
$GPRMC,000111.9,A,3250.589037,N,11707.909863,W,57.2,216.9,051010,,,A*44
$GPRMC,000114.9,A,3250.551806,N,11707.945499,W,57.9,218.1,051010,,,A*42
$GPRMC,000117.9,A,3250.514773,N,11707.982105,W,57.1,217.9,051010,,,A*49
$GPRMC,000120.9,A,3250.478666,N,11708.014959,W,55.2,216.8,051010,,,A*4A
$GPRMC,000123.9,A,3250.443065,N,11708.049498,W,56.7,218.6,051010,,,A*4A
$GPRMC,000126.9,A,3250.405834,N,11708.086299,W,58.9,218.0,051010,,,A*43
$GPRMC,000129.9,A,3250.365097,N,11708.119999,W,58.5,217.0,051010,,,A*43
$GPRMC,000132.9,A,3250.325675,N,11708.154079,W,58.8,216.9,051010,,,A*4C
$GPRMC,000135.9,A,3250.283152,N,11708.189282,W,60.7,216.1,051010,,,A*4E
$GPRMC,000138.9,A,3250.243887,N,11708.225351,W,59.2,217.3,051010,,,A*48
$GPRMC,000141.9,A,3250.207413,N,11708.262203,W,58.5,218.6,051010,,,A*4E
$GPRMC,000144.9,A,3250.168020,N,11708.294512,W,60.5,215.9,051010,,,A*42
$GPRMC,000147.9,A,3250.130065,N,11708.328534,W,58.1,216.3,051010,,,A*49
$GPRMC,000150.9,A,3250.087781,N,11708.362413,W,60.9,215.3,051010,,,A*45
$GPRMC,000153.9,A,3250.047102,N,11708.396524,W,58.2,214.8,051010,,,A*43
$GPRMC,000156.9,A,3250.007080,N,11708.429139,W,57.9,212.8,051010,,,A*40
$GPRMC,000159.9,A,3249.965485,N,11708.455192,W,56.8,208.8,051010,,,A*4A
$GPRMC,000202.2,A,3249.933886,N,11708.474770,W,56.3,207.7,051010,,,A*42
$GPRMC,000205.9,A,3249.882989,N,11708.500305,W,53.2,204.5,051010,,,A*4A
$GPRMC,000208.9,A,3249.843781,N,11708.519315,W,51.2,202.8,051010,,,A*4C
$GPRMC,000211.9,A,3249.805816,N,11708.538843,W,51.1,204.4,051010,,,A*45
$GPRMC,000214.9,A,3249.767920,N,11708.561630,W,50.1,204.7,051010,,,A*4B
$GPRMC,000217.9,A,3249.730276,N,11708.583361,W,50.8,205.2,051010,,,A*42
$GPRMC,000220.9,A,3249.691370,N,11708.605540,W,51.8,204.8,051010,,,A*49
$GPRMC,000223.9,A,3249.654283,N,11708.627407,W,49.9,205.4,051010,,,A*49
$GPRMC,000226.9,A,3249.617630,N,11708.646710,W,47.9,203.7,051010,,,A*4E
$GPRMC,000229.9,A,3249.582924,N,11708.666190,W,47.0,204.6,051010,,,A*47
$GPRMC,000232.9,A,3249.545228,N,11708.682870,W,47.3,203.1,051010,,,A*4F
$GPRMC,000235.9,A,3249.513562,N,11708.703320,W,44.3,207.6,051010,,,A*44
$GPRMC,000238.9,A,3249.486767,N,11708.727220,W,41.1,210.1,051010,,,A*42
$GPRMC,000241.9,A,3249.456746,N,11708.742780,W,39.5,205.2,051010,,,A*42
$GPRMC,000244.9,A,3249.426444,N,11708.762750,W,40.5,208.1,051010,,,A*4E
$GPRMC,000247.9,A,3249.399663,N,11708.780033,W,36.1,211.2,051010,,,A*49
$GPRMC,000250.9,A,3249.380064,N,11708.807683,W,35.6,231.8,051010,,,A*47
$GPRMC,000253.9,A,3249.368855,N,11708.836902,W,31.7,249.3,051010,,,A*4D
$GPRMC,000256.9,A,3249.369278,N,11708.868013,W,28.9,266.5,051010,,,A*43
$GPRMC,000259.9,A,3249.370580,N,11708.899082,W,30.1,267.1,051010,,,A*46
$GPRMC,000302.9,A,3249.375704,N,11708.918636,W,19.7,280.9,051010,,,A*4F
$GPRMC,000305.9,A,3249.377732,N,11708.926925,W,11.5,293.9,051010,,,A*47
