NMEA Sentence Code,UTC Time,Status,Latitude,Latitude Direction,Longitude,Longitude Direction,Speed (knots),Track Angle (degrees true),Date,MagneticVariation,Magnetic Variation Direction,[FAA Mode]-Optional,Checksum
$GPRMC,164232.000,A,3243.0954,N,11709.4352,W,20.90,156.09,250610,,,A*4C
$GPRMC,164235.000,A,3243.0896,N,11709.4275,W,14.09,157.85,250610,,,A*42
$GPRMC,164238.000,A,3243.0860,N,11709.4172,W,13.12,128.67,250610,,,A*4B
$GPRMC,164241.000,A,3243.0812,N,11709.4091,W,10.69,138.87,250610,,,A*4C
$GPRMC,164245.000,A,3243.0706,N,11709.3908,W,12.15,127.97,250610,,,A*4A
$GPRMC,164248.000,A,3243.0735,N,11709.3763,W,10.69,103.36,250610,,,A*40
$GPRMC,164251.000,A,3243.0780,N,11709.3573,W,14.58,92.11,250610,,,A*7F
$GPRMC,164254.000,A,3243.0796,N,11709.3393,W,18.47,88.59,250610,,,A*70
$GPRMC,164257.000,A,3243.0893,N,11709.3190,W,20.41,81.91,250610,,,A*78
$GPRMC,164300.000,A,3243.1115,N,11709.3052,W,16.04,57.66,250610,,,A*75
$GPRMC,164303.000,A,3243.1314,N,11709.2958,W,14.09,20.74,250610,,,A*7B
$GPRMC,164306.000,A,3243.1659,N,11709.2952,W,22.36,02.11,250610,,,A*72
$GPRMC,164309.000,A,3243.1926,N,11709.2949,W,26.24,02.46,250610,,,A*75
$GPRMC,164312.000,A,3243.2196,N,11709.2939,W,30.13,01.41,250610,,,A*7F
$GPRMC,164315.000,A,3243.2486,N,11709.2926,W,32.56,02.46,250610,,,A*75
$GPRMC,164318.000,A,3243.2804,N,11709.2907,W,36.45,03.16,250610,,,A*7F
$GPRMC,164321.000,A,3243.3152,N,11709.2913,W,37.91,359.30,250610,,,A*4B
$GPRMC,164324.000,A,3243.3477,N,11709.2952,W,38.88,351.56,250610,,,A*46
$GPRMC,164327.000,A,3243.3812,N,11709.3029,W,40.34,347.34,250610,,,A*45
$GPRMC,164330.000,A,3243.4153,N,11709.3126,W,41.31,345.94,250610,,,A*4A
$GPRMC,164333.000,A,3243.4478,N,11709.3222,W,40.82,346.29,250610,,,A*4E
$GPRMC,164336.000,A,3243.4800,N,11709.3322,W,39.85,344.88,250610,,,A*49
$GPRMC,164339.000,A,3243.5119,N,11709.3416,W,40.34,346.29,250610,,,A*4B
$GPRMC,164342.000,A,3243.5453,N,11709.3496,W,40.34,350.51,250610,,,A*4C
$GPRMC,164345.000,A,3243.5791,N,11709.3538,W,40.34,355.43,250610,,,A*45
$GPRMC,164348.000,A,3243.6149,N,11709.3538,W,42.28,02.46,250610,,,A*73
$GPRMC,164351.000,A,3243.6496,N,11709.3457,W,42.77,13.01,250610,,,A*7D
$GPRMC,164354.000,A,3243.6831,N,11709.3319,W,43.74,20.04,250610,,,A*73
$GPRMC,164357.000,A,3243.7156,N,11709.3158,W,43.25,21.80,250610,,,A*77
$GPRMC,164400.000,A,3243.7465,N,11709.2997,W,41.31,22.15,250610,,,A*75
$GPRMC,164403.000,A,3243.7758,N,11709.2846,W,39.85,22.15,250610,,,A*76
$GPRMC,164406.000,A,3243.8057,N,11709.2720,W,38.39,17.23,250610,,,A*7E
$GPRMC,164409.000,A,3243.8395,N,11709.2650,W,38.88,10.20,250610,,,A*74
$GPRMC,164412.000,A,3243.8746,N,11709.2637,W,40.82,00.35,250610,,,A*75
$GPRMC,164415.000,A,3243.9103,N,11709.2701,W,42.28,349.80,250610,,,A*42
$GPRMC,164418.000,A,3243.9464,N,11709.2833,W,43.74,341.02,250610,,,A*4F
$GPRMC,164421.000,A,3243.9827,N,11709.3036,W,47.14,334.69,250610,,,A*4F
$GPRMC,164424.000,A,3244.0207,N,11709.3248,W,49.57,336.45,250610,,,A*42
$GPRMC,164427.000,A,3244.0606,N,11709.3393,W,50.06,345.23,250610,,,A*4B
$GPRMC,164430.000,A,3244.0999,N,11709.3438,W,48.11,355.78,250610,,,A*42
$GPRMC,164433.000,A,3244.1401,N,11709.3425,W,48.60,03.16,250610,,,A*7E
$GPRMC,164436.000,A,3244.1849,N,11709.3432,W,50.54,00.35,250610,,,A*71
$GPRMC,164439.000,A,3244.2270,N,11709.3445,W,49.57,358.24,250610,,,A*48
$GPRMC,164442.000,A,3244.2695,N,11709.3490,W,49.57,355.43,250610,,,A*4F
$GPRMC,164445.000,A,3244.3114,N,11709.3557,W,49.57,352.62,250610,,,A*49
$GPRMC,164448.000,A,3244.3532,N,11709.3628,W,50.06,352.27,250610,,,A*42
$GPRMC,164451.000,A,3244.3947,N,11709.3699,W,50.06,352.27,250610,,,A*4E
$GPRMC,164454.000,A,3244.4363,N,11709.3747,W,50.06,355.78,250610,,,A*4F
$GPRMC,164457.000,A,3244.4784,N,11709.3770,W,50.06,358.59,250610,,,A*4B
$GPRMC,164500.000,A,3244.5206,N,11709.3760,W,50.54,01.76,250610,,,A*72
$GPRMC,164503.000,A,3244.5627,N,11709.3728,W,50.54,04.22,250610,,,A*7E
$GPRMC,164506.000,A,3244.6046,N,11709.3689,W,49.57,03.52,250610,,,A*78
$GPRMC,164509.000,A,3244.6458,N,11709.3696,W,49.08,357.89,250610,,,A*4C
$GPRMC,164512.000,A,3244.6876,N,11709.3728,W,50.06,355.78,250610,,,A*48
$GPRMC,164514.000,A,3244.7153,N,11709.3757,W,50.06,355.08,250610,,,A*4E
$GPRMC,164518.000,A,3244.7710,N,11709.3811,W,50.06,357.54,250610,,,A*45
$GPRMC,164521.000,A,3244.8128,N,11709.3786,W,51.03,05.27,250610,,,A*78
$GPRMC,164524.000,A,3244.8531,N,11709.3654,W,51.03,15.47,250610,,,A*78
$GPRMC,164527.000,A,3244.8949,N,11709.3531,W,51.03,15.82,250610,,,A*71
$GPRMC,164529.000,A,3244.9213,N,11709.3425,W,50.54,16.88,250610,,,A*74
$GPRMC,164535.000,A,3245.0005,N,11709.3155,W,48.60,13.01,250610,,,A*7C
$GPRMC,164538.000,A,3245.0369,N,11709.3129,W,43.25,358.59,250610,,,A*48
$GPRMC,164541.000,A,3245.0684,N,11709.3229,W,38.88,341.02,250610,,,A*4E
$GPRMC,164544.000,A,3245.0990,N,11709.3451,W,42.28,324.84,250610,,,A*42
$GPRMC,164547.000,A,3245.1254,N,11709.3773,W,46.17,310.78,250610,,,A*4C
$GPRMC,164550.000,A,3245.1508,N,11709.4156,W,49.08,308.32,250610,,,A*44
$GPRMC,164553.000,A,3245.1801,N,11709.4526,W,50.06,315.70,250610,,,A*4C
$GPRMC,164556.000,A,3245.2145,N,11709.4832,W,50.54,326.60,250610,,,A*4D
$GPRMC,164559.000,A,3245.2525,N,11709.5054,W,51.51,336.09,250610,,,A*43
$GPRMC,164602.000,A,3245.2934,N,11709.5202,W,51.51,344.88,250610,,,A*4F
$GPRMC,164605.000,A,3245.3346,N,11709.5324,W,50.54,344.88,250610,,,A*47
$GPRMC,164608.000,A,3245.3745,N,11709.5492,W,49.57,338.55,250610,,,A*47
$GPRMC,164611.000,A,3245.4122,N,11709.5710,W,50.06,331.52,250610,,,A*44
$GPRMC,164614.000,A,3245.4479,N,11709.5971,W,49.57,324.84,250610,,,A*40
$GPRMC,164615.000,A,3245.4588,N,11709.6068,W,49.57,322.38,250610,,,A*4D
$GPRMC,164621.000,A,3245.5197,N,11709.6747,W,50.54,315.70,250610,,,A*48
$GPRMC,164624.000,A,3245.5499,N,11709.7104,W,50.06,315.70,250610,,,A*41
$GPRMC,164627.000,A,3245.5821,N,11709.7439,W,49.57,319.92,250610,,,A*4A
$GPRMC,164630.000,A,3245.6169,N,11709.7703,W,49.57,330.47,250610,,,A*43
$GPRMC,164633.000,A,3245.6545,N,11709.7893,W,50.06,339.61,250610,,,A*4D
$GPRMC,164636.000,A,3245.6941,N,11709.7964,W,49.57,350.16,250610,,,A*4A
$GPRMC,164639.000,A,3245.7356,N,11709.8018,W,50.06,354.38,250610,,,A*41
$GPRMC,164642.000,A,3245.7781,N,11709.8038,W,50.54,358.95,250610,,,A*4D
$GPRMC,164645.000,A,3245.8209,N,11709.7967,W,52.00,08.09,250610,,,A*7C
$GPRMC,164648.000,A,3245.8634,N,11709.7848,W,52.49,13.01,250610,,,A*78
$GPRMC,164651.000,A,3245.9065,N,11709.7719,W,52.00,14.77,250610,,,A*73
$GPRMC,164654.000,A,3245.9542,N,11709.7600,W,52.97,12.66,250610,,,A*77
$GPRMC,164659.000,A,3246.0240,N,11709.7410,W,51.51,12.66,250610,,,A*7F
$GPRMC,164702.000,A,3246.0662,N,11709.7297,W,51.51,13.01,250610,,,A*7D
$GPRMC,164706.000,A,3246.1232,N,11709.7149,W,51.51,11.95,250610,,,A*76
$GPRMC,164709.000,A,3246.1656,N,11709.7043,W,51.51,12.30,250610,,,A*78
$GPRMC,164712.000,A,3246.2081,N,11709.6934,W,51.51,12.30,250610,,,A*75
$GPRMC,164715.000,A,3246.2484,N,11709.6818,W,51.03,12.66,250610,,,A*78
$GPRMC,164718.000,A,3246.2896,N,11709.6708,W,51.03,12.30,250610,,,A*77
$GPRMC,164721.000,A,3246.3320,N,11709.6615,W,51.03,10.55,250610,,,A*76
$GPRMC,164724.000,A,3246.3745,N,11709.6567,W,50.54,03.16,250610,,,A*74
$GPRMC,164727.000,A,3246.4173,N,11709.6579,W,50.54,356.84,250610,,,A*44
$GPRMC,164730.000,A,3246.4592,N,11709.6650,W,51.03,349.45,250610,,,A*41
$GPRMC,164733.000,A,3246.5010,N,11709.6785,W,51.51,342.42,250610,,,A*4E
$GPRMC,164736.000,A,3246.5419,N,11709.6972,W,52.97,338.20,250610,,,A*40
$GPRMC,164739.000,A,3246.5841,N,11709.7175,W,54.43,338.20,250610,,,A*4F
$GPRMC,164742.000,A,3246.6262,N,11709.7368,W,54.92,340.31,250610,,,A*46
$GPRMC,164745.000,A,3246.6703,N,11709.7529,W,54.92,345.23,250610,,,A*46
$GPRMC,164748.000,A,3246.7144,N,11709.7638,W,54.92,349.80,250610,,,A*49
$GPRMC,164751.000,A,3246.7601,N,11709.7696,W,54.92,355.78,250610,,,A*49
$GPRMC,164754.000,A,3246.8065,N,11709.7706,W,55.40,00.70,250610,,,A*7A
$GPRMC,164757.000,A,3246.8531,N,11709.7664,W,56.37,05.98,250610,,,A*78
$GPRMC,164800.000,A,3246.8995,N,11709.7568,W,57.35,10.90,250610,,,A*77
$GPRMC,164803.000,A,3246.9449,N,11709.7410,W,57.83,15.82,250610,,,A*7C
$GPRMC,164806.000,A,3246.9896,N,11709.7239,W,57.35,17.23,250610,,,A*7E
$GPRMC,164809.000,A,3247.0337,N,11709.7062,W,56.37,17.58,250610,,,A*7A
$GPRMC,164812.000,A,3247.0788,N,11709.6895,W,56.86,17.58,250610,,,A*7B
$GPRMC,164815.000,A,3247.1232,N,11709.6724,W,56.37,17.58,250610,,,A*76
$GPRMC,164818.000,A,3247.1676,N,11709.6547,W,56.37,17.93,250610,,,A*7F
$GPRMC,164821.000,A,3247.2123,N,11709.6373,W,56.86,17.93,250610,,,A*7A
$GPRMC,164824.000,A,3247.2629,N,11709.6232,W,56.86,17.23,250610,,,A*7D
$GPRMC,164827.000,A,3247.3124,N,11709.6106,W,56.86,16.52,250610,,,A*76
$GPRMC,164829.000,A,3247.3437,N,11709.6007,W,56.86,16.88,250610,,,A*78
$GPRMC,164833.000,A,3247.4022,N,11709.5794,W,56.86,16.88,250610,,,A*7A
$GPRMC,164836.000,A,3247.4460,N,11709.5627,W,56.86,16.88,250610,,,A*74
$GPRMC,164839.000,A,3247.4898,N,11709.5456,W,56.37,17.23,250610,,,A*7E
$GPRMC,164842.000,A,3247.5345,N,11709.5292,W,56.37,16.88,250610,,,A*76
$GPRMC,164845.000,A,3247.5780,N,11709.5128,W,55.89,16.88,250610,,,A*78
$GPRMC,164848.000,A,3247.6214,N,11709.4964,W,56.37,17.23,250610,,,A*79
$GPRMC,164851.000,A,3247.6662,N,11709.4800,W,56.37,16.88,250610,,,A*77
$GPRMC,164854.000,A,3247.7106,N,11709.4635,W,56.37,16.88,250610,,,A*7E
$GPRMC,164857.000,A,3247.7544,N,11709.4471,W,56.37,16.88,250610,,,A*7D
$GPRMC,164900.000,A,3247.7991,N,11709.4304,W,56.37,16.88,250610,,,A*7F
$GPRMC,164903.000,A,3247.8429,N,11709.4140,W,56.37,17.23,250610,,,A*7F
$GPRMC,164906.000,A,3247.8873,N,11709.3972,W,56.37,17.23,250610,,,A*77
$GPRMC,164909.000,A,3247.9317,N,11709.3811,W,56.37,16.88,250610,,,A*74
$GPRMC,164914.000,A,3248.0067,N,11709.3535,W,56.86,17.23,250610,,,A*7B
$GPRMC,164917.000,A,3248.0518,N,11709.3367,W,56.86,16.88,250610,,,A*74
$GPRMC,164922.000,A,3248.1306,N,11709.3094,W,59.30,17.93,250610,,,A*7C
$GPRMC,164925.000,A,3248.1754,N,11709.2936,W,57.35,16.52,250610,,,A*7F
$GPRMC,164928.000,A,3248.2198,N,11709.2772,W,56.86,16.88,250610,,,A*77
$GPRMC,164931.000,A,3248.2648,N,11709.2608,W,56.37,17.23,250610,,,A*73
$GPRMC,164934.000,A,3248.3083,N,11709.2444,W,55.89,17.58,250610,,,A*76
$GPRMC,164937.000,A,3248.3524,N,11709.2276,W,56.37,17.23,250610,,,A*70
$GPRMC,164940.000,A,3248.3965,N,11709.2112,W,56.37,17.23,250610,,,A*78
$GPRMC,164943.000,A,3248.4415,N,11709.1951,W,56.37,17.58,250610,,,A*76
$GPRMC,164946.000,A,3248.4856,N,11709.1784,W,55.89,17.58,250610,,,A*78
$GPRMC,164949.000,A,3248.5301,N,11709.1620,W,55.40,17.23,250610,,,A*79
$GPRMC,164952.000,A,3248.5732,N,11709.1455,W,55.40,17.58,250610,,,A*7B
$GPRMC,164955.000,A,3248.6176,N,11709.1301,W,55.40,16.88,250610,,,A*73
$GPRMC,164958.000,A,3248.6604,N,11709.1130,W,54.92,17.58,250610,,,A*7E
$GPRMC,165001.000,A,3248.7058,N,11709.0973,W,55.89,16.88,250610,,,A*7D
$GPRMC,165004.000,A,3248.7509,N,11709.0812,W,55.89,17.23,250610,,,A*7F
$GPRMC,165007.000,A,3248.7956,N,11709.0638,W,55.89,18.63,250610,,,A*77
$GPRMC,165010.000,A,3248.8381,N,11709.0451,W,54.43,20.74,250610,,,A*79
$GPRMC,165013.000,A,3248.8838,N,11709.0248,W,56.86,21.80,250610,,,A*7C
$GPRMC,165016.000,A,3248.9269,N,11709.0023,W,56.86,23.91,250610,,,A*7B
$GPRMC,165019.000,A,3248.9694,N,11708.9791,W,56.37,24.96,250610,,,A*7E
$GPRMC,165022.000,A,3249.0119,N,11708.9560,W,56.37,24.96,250610,,,A*70
$GPRMC,165025.000,A,3249.0541,N,11708.9325,W,56.37,24.96,250610,,,A*79
$GPRMC,165028.000,A,3249.0965,N,11708.9090,W,56.37,24.61,250610,,,A*7B
$GPRMC,165031.000,A,3249.1400,N,11708.8851,W,57.35,25.31,250610,,,A*7F
$GPRMC,165033.000,A,3249.1696,N,11708.8691,W,58.32,24.96,250610,,,A*76
$GPRMC,165039.000,A,3249.2604,N,11708.8205,W,58.32,24.96,250610,,,A*7D
$GPRMC,165041.000,A,3249.2900,N,11708.8040,W,58.32,24.61,250610,,,A*72
$GPRMC,165043.000,A,3249.3196,N,11708.7879,W,58.32,24.96,250610,,,A*73
$GPRMC,165048.000,A,3249.3946,N,11708.7474,W,58.80,24.96,250610,,,A*75
$GPRMC,165051.000,A,3249.4393,N,11708.7226,W,58.80,24.61,250610,,,A*71
$GPRMC,165054.000,A,3249.4841,N,11708.6985,W,58.80,24.96,250610,,,A*7B
$GPRMC,165057.000,A,3249.5285,N,11708.6740,W,58.80,24.61,250610,,,A*74
$GPRMC,165100.000,A,3249.5732,N,11708.6499,W,59.29,24.61,250610,,,A*7B
$GPRMC,165103.000,A,3249.6176,N,11708.6254,W,58.80,24.96,250610,,,A*70
$GPRMC,165106.000,A,3249.6617,N,11708.6009,W,58.32,24.96,250610,,,A*76
$GPRMC,165109.000,A,3249.7065,N,11708.5765,W,58.80,24.61,250610,,,A*74
$GPRMC,165112.000,A,3249.7515,N,11708.5520,W,59.78,24.96,250610,,,A*71
$GPRMC,165115.000,A,3249.7972,N,11708.5269,W,60.75,24.96,250610,,,A*76
$GPRMC,165118.000,A,3249.8429,N,11708.5012,W,60.75,24.61,250610,,,A*71
$GPRMC,165121.000,A,3249.8896,N,11708.4767,W,60.26,24.96,250610,,,A*79
$GPRMC,165124.000,A,3249.9356,N,11708.4510,W,60.75,25.31,250610,,,A*72
$GPRMC,165127.000,A,3249.9804,N,11708.4230,W,61.23,28.48,250610,,,A*79
$GPRMC,165130.000,A,3250.0251,N,11708.3924,W,62.21,31.29,250610,,,A*73
$GPRMC,165133.000,A,3250.0673,N,11708.3586,W,62.21,33.75,250610,,,A*7B
$GPRMC,165136.000,A,3250.1082,N,11708.3238,W,61.72,34.80,250610,,,A*7D
$GPRMC,165140.000,A,3250.1619,N,11708.2765,W,61.23,35.86,250610,,,A*77
$GPRMC,165143.000,A,3250.2012,N,11708.2408,W,60.75,36.91,250610,,,A*75
$GPRMC,165146.000,A,3250.2401,N,11708.2038,W,60.75,37.27,250610,,,A*7D
$GPRMC,165149.000,A,3250.2807,N,11708.1677,W,59.78,37.27,250610,,,A*71
$GPRMC,165152.000,A,3250.3200,N,11708.1336,W,56.86,36.21,250610,,,A*7E
$GPRMC,165155.000,A,3250.3576,N,11708.1011,W,55.40,35.86,250610,,,A*7E
$GPRMC,165158.000,A,3250.3946,N,11708.0683,W,56.37,36.56,250610,,,A*7D
$GPRMC,165201.000,A,3250.4323,N,11708.0338,W,58.32,37.62,250610,,,A*74
$GPRMC,165204.000,A,3250.4728,N,11707.9974,W,60.26,37.97,250610,,,A*7E
$GPRMC,165207.000,A,3250.5131,N,11707.9608,W,60.75,37.97,250610,,,A*70
$GPRMC,165210.000,A,3250.5539,N,11707.9244,W,60.75,37.27,250610,,,A*7D
$GPRMC,165213.000,A,3250.5945,N,11707.8880,W,60.26,37.27,250610,,,A*7C
$GPRMC,165216.000,A,3250.6347,N,11707.8516,W,60.26,37.62,250610,,,A*71
$GPRMC,165219.000,A,3250.6759,N,11707.8159,W,60.75,36.91,250610,,,A*71
$GPRMC,165222.000,A,3250.7168,N,11707.7795,W,60.75,37.62,250610,,,A*78
$GPRMC,165225.000,A,3250.7574,N,11707.7429,W,60.75,37.62,250610,,,A*72
$GPRMC,165228.000,A,3250.7979,N,11707.7068,W,60.75,37.27,250610,,,A*7E
$GPRMC,165231.000,A,3250.8385,N,11707.6704,W,60.75,37.27,250610,,,A*7C
$GPRMC,165234.000,A,3250.8787,N,11707.6341,W,60.26,37.27,250610,,,A*7C
$GPRMC,165237.000,A,3250.9189,N,11707.5977,W,60.26,37.62,250610,,,A*7B
$GPRMC,165240.000,A,3250.9589,N,11707.5613,W,60.26,37.62,250610,,,A*72
$GPRMC,165243.000,A,3250.9994,N,11707.5249,W,60.75,37.27,250610,,,A*7D
$GPRMC,165246.000,A,3251.0396,N,11707.4886,W,59.78,37.62,250610,,,A*76
$GPRMC,165249.000,A,3251.0808,N,11707.4529,W,61.23,36.91,250610,,,A*75
$GPRMC,165252.000,A,3251.1208,N,11707.4165,W,60.26,37.27,250610,,,A*70
$GPRMC,165255.000,A,3251.1594,N,11707.3788,W,61.72,40.08,250610,,,A*7A
$GPRMC,165258.000,A,3251.1954,N,11707.3363,W,62.21,45.00,250610,,,A*7E
$GPRMC,165301.000,A,3251.2273,N,11707.2897,W,61.23,51.33,250610,,,A*7B
$GPRMC,165304.000,A,3251.2559,N,11707.2398,W,61.23,56.60,250610,,,A*74
$GPRMC,165307.000,A,3251.2801,N,11707.1867,W,60.26,61.52,250610,,,A*7E
$GPRMC,165310.000,A,3251.3013,N,11707.1323,W,60.75,64.34,250610,,,A*7A
$GPRMC,165313.000,A,3251.3200,N,11707.0766,W,60.75,66.80,250610,,,A*70
$GPRMC,165316.000,A,3251.3390,N,11707.0209,W,60.26,66.80,250610,,,A*77
$GPRMC,165319.000,A,3251.3596,N,11706.9675,W,57.35,65.04,250610,,,A*76
$GPRMC,165322.000,A,3251.3818,N,11706.9202,W,52.97,59.41,250610,,,A*72
$GPRMC,165325.000,A,3251.4053,N,11706.8786,W,49.57,52.73,250610,,,A*71
$GPRMC,165328.000,A,3251.4317,N,11706.8436,W,46.65,46.76,250610,,,A*79
$GPRMC,165331.000,A,3251.4606,N,11706.8114,W,47.14,42.54,250610,,,A*72
$GPRMC,165334.000,A,3251.4925,N,11706.7805,W,49.08,38.67,250610,,,A*71
$GPRMC,165337.000,A,3251.5286,N,11706.7518,W,51.03,33.40,250610,,,A*7C
$GPRMC,165340.000,A,3251.5752,N,11706.7277,W,56.86,26.02,250610,,,A*76
$GPRMC,165343.000,A,3251.6209,N,11706.7035,W,59.78,24.61,250610,,,A*70
$GPRMC,165346.000,A,3251.6682,N,11706.6794,W,60.75,23.91,250610,,,A*70
$GPRMC,165349.000,A,3251.7152,N,11706.6556,W,60.26,23.91,250610,,,A*7E
$GPRMC,165352.000,A,3251.7616,N,11706.6315,W,60.26,23.55,250610,,,A*7A
$GPRMC,165355.000,A,3251.8079,N,11706.6073,W,60.26,23.55,250610,,,A*7E
$GPRMC,165358.000,A,3251.8552,N,11706.5835,W,60.75,23.91,250610,,,A*78
$GPRMC,165401.000,A,3251.9019,N,11706.5590,W,60.75,23.91,250610,,,A*7A
$GPRMC,165404.000,A,3251.9486,N,11706.5346,W,60.75,23.91,250610,,,A*70
$GPRMC,165409.000,A,3252.0278,N,11706.4963,W,60.26,21.09,250610,,,A*79
$GPRMC,165412.000,A,3252.0757,N,11706.4766,W,60.26,18.28,250610,,,A*79
$GPRMC,165415.000,A,3252.1246,N,11706.4596,W,60.26,15.82,250610,,,A*7A
$GPRMC,165418.000,A,3252.1745,N,11706.4454,W,60.26,12.30,250610,,,A*70
$GPRMC,165421.000,A,3252.2251,N,11706.4351,W,60.26,09.14,250610,,,A*77
$GPRMC,165424.000,A,3252.2753,N,11706.4277,W,60.26,06.68,250610,,,A*74
$GPRMC,165427.000,A,3252.3255,N,11706.4222,W,59.78,04.57,250610,,,A*7A
$GPRMC,165430.000,A,3252.3767,N,11706.4190,W,60.26,02.11,250610,,,A*77
$GPRMC,165433.000,A,3252.4269,N,11706.4184,W,60.26,00.00,250610,,,A*7F
$GPRMC,165436.000,A,3252.4771,N,11706.4197,W,60.26,357.89,250610,,,A*44
$GPRMC,165439.000,A,3252.5276,N,11706.4235,W,60.75,355.43,250610,,,A*41
$GPRMC,165442.000,A,3252.5785,N,11706.4306,W,60.75,351.91,250610,,,A*4E
$GPRMC,165445.000,A,3252.6280,N,11706.4396,W,60.75,350.86,250610,,,A*44
$GPRMC,165448.000,A,3252.6779,N,11706.4502,W,60.75,349.10,250610,,,A*46
$GPRMC,165451.000,A,3252.7269,N,11706.4631,W,60.26,346.29,250610,,,A*4B
$GPRMC,165454.000,A,3252.7758,N,11706.4786,W,60.75,344.53,250610,,,A*4D
$GPRMC,165457.000,A,3252.8241,N,11706.4959,W,61.23,342.77,250610,,,A*42
$GPRMC,165500.000,A,3252.8714,N,11706.5153,W,60.75,341.02,250610,,,A*44
$GPRMC,165503.000,A,3252.9203,N,11706.5371,W,61.72,338.91,250610,,,A*45
$GPRMC,165506.000,A,3252.9689,N,11706.5610,W,62.69,337.15,250610,,,A*4E
$GPRMC,165509.000,A,3253.0169,N,11706.5870,W,62.21,334.34,250610,,,A*44
$GPRMC,165512.000,A,3253.0639,N,11706.6150,W,62.69,333.28,250610,,,A*42
$GPRMC,165515.000,A,3253.1108,N,11706.6434,W,62.21,332.93,250610,,,A*4B
$GPRMC,165518.000,A,3253.1575,N,11706.6720,W,62.21,332.58,250610,,,A*49
$GPRMC,165521.000,A,3253.2035,N,11706.7000,W,62.21,332.58,250610,,,A*45
$GPRMC,165524.000,A,3253.2499,N,11706.7287,W,62.21,332.93,250610,,,A*48
$GPRMC,165527.000,A,3253.2966,N,11706.7563,W,62.21,333.28,250610,,,A*4A
$GPRMC,165530.000,A,3253.3432,N,11706.7830,W,62.21,334.34,250610,,,A*40
$GPRMC,165533.000,A,3253.3905,N,11706.8091,W,62.21,336.09,250610,,,A*4A
$GPRMC,165536.000,A,3253.4388,N,11706.8333,W,62.69,337.85,250610,,,A*45
$GPRMC,165539.000,A,3253.4881,N,11706.8558,W,62.69,339.61,250610,,,A*47
$GPRMC,165542.000,A,3253.5370,N,11706.8761,W,62.21,341.37,250610,,,A*47
$GPRMC,165545.000,A,3253.5856,N,11706.8944,W,62.21,342.77,250610,,,A*41
$GPRMC,165548.000,A,3253.6355,N,11706.9108,W,62.21,344.53,250610,,,A*46
$GPRMC,165551.000,A,3253.6857,N,11706.9266,W,62.21,345.23,250610,,,A*4A
$GPRMC,165554.000,A,3253.7365,N,11706.9411,W,62.21,348.40,250610,,,A*4A
$GPRMC,165557.000,A,3253.7880,N,11706.9514,W,62.21,350.86,250610,,,A*4E
$GPRMC,165600.000,A,3253.8402,N,11706.9607,W,62.69,352.27,250610,,,A*42
$GPRMC,165603.000,A,3253.8927,N,11706.9675,W,62.69,355.08,250610,,,A*44
$GPRMC,165606.000,A,3253.9448,N,11706.9697,W,62.69,358.95,250610,,,A*41
$GPRMC,165609.000,A,3253.9976,N,11706.9701,W,62.69,359.65,250610,,,A*4E
$GPRMC,165612.000,A,3254.0494,N,11706.9701,W,62.69,00.00,250610,,,A*77
$GPRMC,165615.000,A,3254.1025,N,11706.9694,W,64.15,00.00,250610,,,A*7F
$GPRMC,165618.000,A,3254.1572,N,11706.9694,W,65.12,00.00,250610,,,A*73
$GPRMC,165621.000,A,3254.2116,N,11706.9691,W,64.64,00.35,250610,,,A*7F
$GPRMC,165624.000,A,3254.2657,N,11706.9694,W,65.12,00.00,250610,,,A*7B
$GPRMC,165627.000,A,3254.3198,N,11706.9697,W,65.12,359.65,250610,,,A*42
$GPRMC,165628.000,A,3254.3378,N,11706.9694,W,65.12,359.65,250610,,,A*42
$GPRMC,165633.000,A,3254.4286,N,11706.9701,W,65.12,359.65,250610,,,A*42
$GPRMC,165634.000,A,3254.4466,N,11706.9701,W,65.12,00.00,250610,,,A*71
$GPRMC,165639.000,A,3254.5373,N,11706.9697,W,64.64,00.35,250610,,,A*76
$GPRMC,165642.000,A,3254.5898,N,11706.9678,W,62.69,01.76,250610,,,A*78
$GPRMC,165645.000,A,3254.6403,N,11706.9655,W,60.75,01.41,250610,,,A*76
$GPRMC,165648.000,A,3254.6918,N,11706.9646,W,61.72,01.05,250610,,,A*78
$GPRMC,165651.000,A,3254.7430,N,11706.9620,W,62.21,01.76,250610,,,A*77
$GPRMC,165654.000,A,3254.7965,N,11706.9598,W,63.18,02.46,250610,,,A*74
$GPRMC,165657.000,A,3254.8505,N,11706.9572,W,64.15,02.81,250610,,,A*77
$GPRMC,165700.000,A,3254.9056,N,11706.9543,W,65.12,03.16,250610,,,A*7D
$GPRMC,165703.000,A,3254.9606,N,11706.9507,W,65.12,03.52,250610,,,A*7D
$GPRMC,165706.000,A,3255.0153,N,11706.9469,W,65.12,03.87,250610,,,A*76
$GPRMC,165709.000,A,3255.0694,N,11706.9427,W,64.64,03.87,250610,,,A*7F
$GPRMC,165712.000,A,3255.1235,N,11706.9372,W,64.64,05.62,250610,,,A*71
$GPRMC,165715.000,A,3255.1769,N,11706.9308,W,64.15,05.98,250610,,,A*74
$GPRMC,165718.000,A,3255.2297,N,11706.9231,W,63.66,07.38,250610,,,A*7E
$GPRMC,165721.000,A,3255.2821,N,11706.9147,W,63.66,08.09,250610,,,A*7C
$GPRMC,165724.000,A,3255.3349,N,11706.9050,W,64.15,08.79,250610,,,A*7E
$GPRMC,165727.000,A,3255.3871,N,11706.8951,W,64.15,09.49,250610,,,A*76
$GPRMC,165730.000,A,3255.4402,N,11706.8838,W,64.15,10.20,250610,,,A*76
$GPRMC,165733.000,A,3255.4926,N,11706.8722,W,63.66,10.55,250610,,,A*7B
$GPRMC,165736.000,A,3255.5425,N,11706.8603,W,61.72,10.90,250610,,,A*7D
$GPRMC,165739.000,A,3255.5898,N,11706.8477,W,59.29,11.60,250610,,,A*72
$GPRMC,165742.000,A,3255.6372,N,11706.8355,W,58.32,12.30,250610,,,A*78
$GPRMC,165745.000,A,3255.6842,N,11706.8226,W,57.83,13.36,250610,,,A*70
$GPRMC,165748.000,A,3255.7308,N,11706.8088,W,57.83,14.06,250610,,,A*7B
$GPRMC,165751.000,A,3255.7765,N,11706.7933,W,57.35,15.12,250610,,,A*73
$GPRMC,165754.000,A,3255.8242,N,11706.7785,W,58.32,15.47,250610,,,A*72
$GPRMC,165757.000,A,3255.8718,N,11706.7624,W,58.80,15.82,250610,,,A*71
$GPRMC,165800.000,A,3255.9207,N,11706.7470,W,59.78,14.77,250610,,,A*78
$GPRMC,165803.000,A,3255.9709,N,11706.7332,W,59.78,14.41,250610,,,A*74
$GPRMC,165806.000,A,3256.0186,N,11706.7180,W,59.29,14.77,250610,,,A*70
$GPRMC,165809.000,A,3256.0675,N,11706.7035,W,59.29,14.77,250610,,,A*7B
$GPRMC,165812.000,A,3256.1158,N,11706.6887,W,59.29,14.77,250610,,,A*78
$GPRMC,165815.000,A,3256.1634,N,11706.6739,W,58.80,14.77,250610,,,A*7A
$GPRMC,165818.000,A,3256.2107,N,11706.6591,W,58.80,14.77,250610,,,A*73
$GPRMC,165821.000,A,3256.2584,N,11706.6446,W,58.80,14.77,250610,,,A*7D
$GPRMC,165824.000,A,3256.3050,N,11706.6295,W,58.32,15.12,250610,,,A*76
$GPRMC,165827.000,A,3256.3536,N,11706.6144,W,58.80,14.77,250610,,,A*74
$GPRMC,165830.000,A,3256.4022,N,11706.5993,W,59.29,15.12,250610,,,A*74
$GPRMC,165833.000,A,3256.4505,N,11706.5835,W,59.29,15.47,250610,,,A*7A
$GPRMC,165836.000,A,3256.4991,N,11706.5664,W,60.26,17.93,250610,,,A*7A
$GPRMC,165839.000,A,3256.5484,N,11706.5465,W,60.75,20.39,250610,,,A*7C
$GPRMC,165842.000,A,3256.5950,N,11706.5243,W,60.75,22.50,250610,,,A*7B
$GPRMC,165845.000,A,3256.6423,N,11706.5005,W,60.75,24.26,250610,,,A*71
$GPRMC,165848.000,A,3256.6881,N,11706.4744,W,60.75,26.72,250610,,,A*78
$GPRMC,165851.000,A,3256.7331,N,11706.4467,W,60.75,28.48,250610,,,A*74
$GPRMC,165854.000,A,3256.7769,N,11706.4171,W,60.75,30.23,250610,,,A*7E
$GPRMC,165857.000,A,3256.8223,N,11706.3878,W,60.26,29.53,250610,,,A*77
$GPRMC,165900.000,A,3256.8686,N,11706.3592,W,60.75,29.53,250610,,,A*70
$GPRMC,165903.000,A,3256.9137,N,11706.3299,W,60.75,29.53,250610,,,A*73
$GPRMC,165906.000,A,3256.9575,N,11706.3003,W,60.26,30.23,250610,,,A*7C
$GPRMC,165909.000,A,3257.0012,N,11706.2706,W,60.26,29.88,250610,,,A*75
$GPRMC,165912.000,A,3257.0447,N,11706.2407,W,60.26,30.59,250610,,,A*7D
$GPRMC,165915.000,A,3257.0881,N,11706.2105,W,60.26,30.59,250610,,,A*7B
$GPRMC,165918.000,A,3257.1332,N,11706.1812,W,60.26,28.83,250610,,,A*76
$GPRMC,165921.000,A,3257.1783,N,11706.1538,W,60.75,27.42,250610,,,A*73
$GPRMC,165924.000,A,3257.2220,N,11706.1252,W,60.75,28.12,250610,,,A*78
$GPRMC,165927.000,A,3257.2664,N,11706.0965,W,60.75,28.48,250610,,,A*7E
$GPRMC,165930.000,A,3257.3105,N,11706.0675,W,60.75,28.48,250610,,,A*77
$GPRMC,165933.000,A,3257.3550,N,11706.0392,W,60.26,28.48,250610,,,A*7A
$GPRMC,165936.000,A,3257.4000,N,11706.0119,W,60.75,27.77,250610,,,A*7C
$GPRMC,165939.000,A,3257.4444,N,11705.9839,W,61.23,27.77,250610,,,A*74
$GPRMC,165942.000,A,3257.4895,N,11705.9555,W,61.23,27.77,250610,,,A*7F
$GPRMC,165945.000,A,3257.5336,N,11705.9272,W,60.26,28.12,250610,,,A*71
$GPRMC,165948.000,A,3257.5777,N,11705.8989,W,60.75,28.48,250610,,,A*7A
$GPRMC,165951.000,A,3257.6215,N,11705.8690,W,60.75,30.23,250610,,,A*73
$GPRMC,165954.000,A,3257.6649,N,11705.8384,W,60.75,29.88,250610,,,A*72
$GPRMC,165959.000,A,3257.7389,N,11705.7904,W,60.75,28.48,250610,,,A*77
$GPRMC,170002.000,A,3257.7850,N,11705.7631,W,60.75,27.42,250610,,,A*77
$GPRMC,170005.000,A,3257.8300,N,11705.7354,W,60.75,27.77,250610,,,A*71
$GPRMC,170008.000,A,3257.8748,N,11705.7077,W,60.75,27.77,250610,,,A*76
$GPRMC,170011.000,A,3257.9198,N,11705.6794,W,60.75,27.77,250610,,,A*7F
$GPRMC,170014.000,A,3257.9633,N,11705.6514,W,58.80,27.77,250610,,,A*77
$GPRMC,170017.000,A,3258.0061,N,11705.6250,W,57.35,27.77,250610,,,A*75
$GPRMC,170020.000,A,3258.0476,N,11705.5986,W,56.86,27.77,250610,,,A*79
$GPRMC,170023.000,A,3258.0885,N,11705.5725,W,55.89,27.77,250610,,,A*71
$GPRMC,170026.000,A,3258.1284,N,11705.5474,W,53.94,27.77,250610,,,A*73
$GPRMC,170029.000,A,3258.1673,N,11705.5226,W,52.97,27.77,250610,,,A*73
$GPRMC,170032.000,A,3258.2069,N,11705.4982,W,53.46,28.12,250610,,,A*72
$GPRMC,170035.000,A,3258.2465,N,11705.4734,W,53.46,27.77,250610,,,A*72
$GPRMC,170038.000,A,3258.2864,N,11705.4486,W,53.94,27.77,250610,,,A*77
$GPRMC,170041.000,A,3258.3257,N,11705.4235,W,53.94,27.77,250610,,,A*7C
$GPRMC,170044.000,A,3258.3650,N,11705.3987,W,53.46,27.77,250610,,,A*70
$GPRMC,170047.000,A,3258.4042,N,11705.3733,W,53.46,28.12,250610,,,A*7C
$GPRMC,170050.000,A,3258.4441,N,11705.3485,W,53.94,27.77,250610,,,A*70
$GPRMC,170053.000,A,3258.4837,N,11705.3237,W,53.94,27.77,250610,,,A*71
$GPRMC,170055.000,A,3258.5108,N,11705.3070,W,54.92,27.77,250610,,,A*73
$GPRMC,170100.000,A,3258.5793,N,11705.2638,W,55.40,27.77,250610,,,A*73
$GPRMC,170103.000,A,3258.6199,N,11705.2381,W,55.40,28.48,250610,,,A*7B
$GPRMC,170106.000,A,3258.6614,N,11705.2120,W,55.90,28.48,250610,,,A*78
$GPRMC,170109.000,A,3258.7016,N,11705.1863,W,55.40,27.77,250610,,,A*71
$GPRMC,170112.000,A,3258.7425,N,11705.1605,W,55.40,28.12,250610,,,A*7D
$GPRMC,170115.000,A,3258.7840,N,11705.1341,W,57.35,28.48,250610,,,A*7F
$GPRMC,170118.000,A,3258.8265,N,11705.1074,W,58.32,28.12,250610,,,A*72
$GPRMC,170121.000,A,3258.8693,N,11705.0801,W,58.32,28.12,250610,,,A*7E
$GPRMC,170124.000,A,3258.9115,N,11705.0524,W,57.83,28.12,250610,,,A*7C
$GPRMC,170127.000,A,3258.9546,N,11705.0260,W,57.35,26.37,250610,,,A*7E
$GPRMC,170130.000,A,3258.9997,N,11705.0031,W,57.35,22.85,250610,,,A*73
$GPRMC,170133.000,A,3259.0447,N,11704.9838,W,56.86,18.98,250610,,,A*7D
$GPRMC,170136.000,A,3259.0908,N,11704.9681,W,56.37,15.12,250610,,,A*77
$GPRMC,170139.000,A,3259.1391,N,11704.9571,W,57.35,10.55,250610,,,A*7A
$GPRMC,170142.000,A,3259.1867,N,11704.9503,W,57.35,06.33,250610,,,A*76
$GPRMC,170145.000,A,3259.2337,N,11704.9481,W,56.86,02.11,250610,,,A*7A
$GPRMC,170148.000,A,3259.2820,N,11704.9491,W,57.35,358.24,250610,,,A*48
$GPRMC,170151.000,A,3259.3293,N,11704.9545,W,56.86,354.02,250610,,,A*4A
$GPRMC,170154.000,A,3259.3772,N,11704.9632,W,57.83,350.51,250610,,,A*40
$GPRMC,170157.000,A,3259.4245,N,11704.9732,W,57.83,349.80,250610,,,A*40
$GPRMC,170200.000,A,3259.4719,N,11704.9835,W,57.83,350.16,250610,,,A*42
$GPRMC,170203.000,A,3259.5192,N,11704.9935,W,57.83,350.16,250610,,,A*44
$GPRMC,170206.000,A,3259.5671,N,11705.0012,W,58.32,354.02,250610,,,A*4B
$GPRMC,170209.000,A,3259.6157,N,11705.0060,W,58.80,356.48,250610,,,A*44
$GPRMC,170212.000,A,3259.6647,N,11705.0073,W,58.80,359.65,250610,,,A*4A
$GPRMC,170215.000,A,3259.7142,N,11705.0057,W,58.80,02.81,250610,,,A*7F
$GPRMC,170218.000,A,3259.7632,N,11705.0015,W,58.80,05.62,250610,,,A*7E
$GPRMC,170221.000,A,3259.8111,N,11704.9938,W,58.80,08.79,250610,,,A*74
$GPRMC,170224.000,A,3259.8591,N,11704.9829,W,58.32,12.30,250610,,,A*73
$GPRMC,170227.000,A,3259.9061,N,11704.9687,W,58.80,15.82,250610,,,A*76
$GPRMC,170230.000,A,3259.9527,N,11704.9520,W,58.32,16.52,250610,,,A*7E
$GPRMC,170233.000,A,3300.0000,N,11704.9343,W,59.29,17.58,250610,,,A*7A
$GPRMC,170236.000,A,3300.0474,N,11704.9162,W,59.78,17.58,250610,,,A*7D
$GPRMC,170239.000,A,3300.0950,N,11704.8989,W,59.78,17.23,250610,,,A*79
$GPRMC,170242.000,A,3300.1430,N,11704.8818,W,59.78,16.88,250610,,,A*76
$GPRMC,170245.000,A,3300.1906,N,11704.8647,W,59.29,16.52,250610,,,A*7E
$GPRMC,170248.000,A,3300.2385,N,11704.8486,W,59.29,15.12,250610,,,A*79
$GPRMC,170251.000,A,3300.2888,N,11704.8354,W,59.78,12.66,250610,,,A*7F
$GPRMC,170254.000,A,3300.3390,N,11704.8248,W,59.78,10.55,250610,,,A*77
$GPRMC,170257.000,A,3300.3885,N,11704.8155,W,59.78,08.79,250610,,,A*73
$GPRMC,170300.000,A,3300.4391,N,11704.8078,W,59.78,06.68,250610,,,A*79
$GPRMC,170303.000,A,3300.4886,N,11704.8020,W,59.78,05.27,250610,,,A*72
$GPRMC,170306.000,A,3300.5379,N,11704.7968,W,59.29,04.92,250610,,,A*7C
$GPRMC,170309.000,A,3300.5878,N,11704.7913,W,59.29,04.92,250610,,,A*75
$GPRMC,170312.000,A,3300.6383,N,11704.7865,W,60.26,04.57,250610,,,A*7F
$GPRMC,170315.000,A,3300.6885,N,11704.7810,W,60.26,05.27,250610,,,A*71
$GPRMC,170318.000,A,3300.7387,N,11704.7746,W,60.26,05.62,250610,,,A*79
$GPRMC,170321.000,A,3300.7880,N,11704.7675,W,60.26,06.33,250610,,,A*79
$GPRMC,170324.000,A,3300.8382,N,11704.7608,W,60.26,05.98,250610,,,A*72
$GPRMC,170326.000,A,3300.8720,N,11704.7572,W,60.26,05.27,250610,,,A*76
$GPRMC,170332.000,A,3300.9718,N,11704.7444,W,60.26,06.33,250610,,,A*7B
$GPRMC,170335.000,A,3301.0213,N,11704.7373,W,60.26,05.62,250610,,,A*7E
$GPRMC,170338.000,A,3301.0719,N,11704.7315,W,60.26,05.62,250610,,,A*7C
$GPRMC,170341.000,A,3301.1214,N,11704.7263,W,60.26,05.27,250610,,,A*7A
$GPRMC,170344.000,A,3301.1710,N,11704.7218,W,60.75,04.57,250610,,,A*72
$GPRMC,170347.000,A,3301.2212,N,11704.7173,W,60.26,04.57,250610,,,A*7D
$GPRMC,170350.000,A,3301.2727,N,11704.7128,W,60.75,04.92,250610,,,A*79
$GPRMC,170353.000,A,3301.3245,N,11704.7099,W,60.26,01.76,250610,,,A*78
$GPRMC,170356.000,A,3301.3757,N,11704.7096,W,60.75,00.35,250610,,,A*74
$GPRMC,170359.000,A,3301.4272,N,11704.7096,W,60.75,00.00,250610,,,A*78
$GPRMC,170402.000,A,3301.4784,N,11704.7102,W,61.23,359.65,250610,,,A*4F
$GPRMC,170405.000,A,3301.5302,N,11704.7106,W,61.23,00.00,250610,,,A*7B
$GPRMC,170408.000,A,3301.5810,N,11704.7106,W,61.23,359.65,250610,,,A*42
$GPRMC,170411.000,A,3301.6316,N,11704.7106,W,60.75,00.35,250610,,,A*7C
$GPRMC,170414.000,A,3301.6818,N,11704.7099,W,60.26,00.70,250610,,,A*7C
$GPRMC,170417.000,A,3301.7317,N,11704.7093,W,59.29,01.41,250610,,,A*76
$GPRMC,170420.000,A,3301.7809,N,11704.7067,W,58.80,03.16,250610,,,A*7F
$GPRMC,170423.000,A,3301.8295,N,11704.7006,W,59.29,06.68,250610,,,A*75
$GPRMC,170425.000,A,3301.8624,N,11704.6945,W,60.26,09.14,250610,,,A*73
$GPRMC,170429.000,A,3301.9293,N,11704.6777,W,61.72,13.36,250610,,,A*72
$GPRMC,170432.000,A,3301.9789,N,11704.6616,W,61.72,15.82,250610,,,A*79
$GPRMC,170435.000,A,3302.0268,N,11704.6420,W,61.23,18.98,250610,,,A*7B
$GPRMC,170438.000,A,3302.0748,N,11704.6220,W,60.26,18.98,250610,,,A*73
$GPRMC,170441.000,A,3302.1231,N,11704.6027,W,60.26,18.63,250610,,,A*76
$GPRMC,170444.000,A,3302.1717,N,11704.5831,W,61.72,18.63,250610,,,A*7E
$GPRMC,170447.000,A,3302.2225,N,11704.5631,W,64.64,18.28,250610,,,A*79
$GPRMC,170450.000,A,3302.2743,N,11704.5422,W,65.12,18.98,250610,,,A*71
$GPRMC,170453.000,A,3302.3271,N,11704.5210,W,66.09,19.34,250610,,,A*7E
$GPRMC,170456.000,A,3302.3809,N,11704.4991,W,67.55,19.34,250610,,,A*75
$GPRMC,170459.000,A,3302.4346,N,11704.4772,W,67.55,18.98,250610,,,A*79
$GPRMC,170502.000,A,3302.4874,N,11704.4540,W,67.55,19.34,250610,,,A*78
$GPRMC,170505.000,A,3302.5399,N,11704.4315,W,67.07,18.28,250610,,,A*7B
$GPRMC,170508.000,A,3302.5923,N,11704.4099,W,67.07,18.28,250610,,,A*7A
$GPRMC,170511.000,A,3302.6458,N,11704.3903,W,66.58,16.52,250610,,,A*75
$GPRMC,170514.000,A,3302.7008,N,11704.3755,W,66.58,11.95,250610,,,A*71
$GPRMC,170517.000,A,3302.7562,N,11704.3655,W,66.09,07.38,250610,,,A*7E
$GPRMC,170520.000,A,3302.8128,N,11704.3617,W,66.09,01.76,250610,,,A*75
$GPRMC,170523.000,A,3302.8698,N,11704.3646,W,67.07,356.84,250610,,,A*4D
$GPRMC,170526.000,A,3302.9258,N,11704.3700,W,67.55,355.78,250610,,,A*45
$GPRMC,170529.000,A,3302.9831,N,11704.3736,W,68.04,358.59,250610,,,A*4F
$GPRMC,170532.000,A,3303.0401,N,11704.3723,W,68.52,02.11,250610,,,A*75
$GPRMC,170535.000,A,3303.0967,N,11704.3668,W,68.52,05.27,250610,,,A*73
$GPRMC,170538.000,A,3303.1540,N,11704.3578,W,69.01,08.44,250610,,,A*7B
$GPRMC,170541.000,A,3303.2100,N,11704.3446,W,68.52,11.60,250610,,,A*73
$GPRMC,170544.000,A,3303.2660,N,11704.3279,W,69.01,15.12,250610,,,A*7B
$GPRMC,170547.000,A,3303.3146,N,11704.3037,W,67.55,19.34,250610,,,A*75
$GPRMC,170550.000,A,3303.3658,N,11704.2783,W,67.07,22.15,250610,,,A*7E
$GPRMC,170553.000,A,3303.4163,N,11704.2513,W,67.07,22.50,250610,,,A*7F
$GPRMC,170556.000,A,3303.4681,N,11704.2252,W,67.07,22.50,250610,,,A*73
$GPRMC,170559.000,A,3303.5200,N,11704.2014,W,66.09,20.74,250610,,,A*7B
$GPRMC,170602.000,A,3303.5727,N,11704.1801,W,66.58,17.58,250610,,,A*77
$GPRMC,170604.000,A,3303.6094,N,11704.1685,W,66.58,15.47,250610,,,A*73
$GPRMC,170607.000,A,3303.6645,N,11704.1537,W,66.58,12.30,250610,,,A*77
$GPRMC,170612.000,A,3303.7597,N,11704.1370,W,67.55,06.68,250610,,,A*7F
$GPRMC,170615.000,A,3303.8170,N,11704.1322,W,67.55,03.52,250610,,,A*71
$GPRMC,170618.000,A,3303.8737,N,11704.1302,W,67.55,01.05,250610,,,A*7B
$GPRMC,170621.000,A,3303.9300,N,11704.1309,W,67.55,358.95,250610,,,A*4D
$GPRMC,170624.000,A,3303.9863,N,11704.1351,W,67.07,355.43,250610,,,A*4A
$GPRMC,170629.000,A,3304.0794,N,11704.1479,W,67.55,353.32,250610,,,A*44
$GPRMC,170632.000,A,3304.1354,N,11704.1557,W,67.55,353.32,250610,,,A*4A
$GPRMC,170635.000,A,3304.1914,N,11704.1637,W,67.55,353.32,250610,,,A*46
$GPRMC,170638.000,A,3304.2474,N,11704.1708,W,67.55,353.67,250610,,,A*4E
$GPRMC,170645.000,A,3304.3774,N,11704.1888,W,67.55,352.97,250610,,,A*4F
$GPRMC,170648.000,A,3304.4324,N,11704.1975,W,66.58,352.27,250610,,,A*40
$GPRMC,170651.000,A,3304.4878,N,11704.2062,W,67.07,352.27,250610,,,A*4D
$GPRMC,170654.000,A,3304.5432,N,11704.2155,W,67.07,350.51,250610,,,A*4D
$GPRMC,170657.000,A,3304.5976,N,11704.2281,W,66.58,348.05,250610,,,A*4A
$GPRMC,170700.000,A,3304.6503,N,11704.2442,W,65.61,344.53,250610,,,A*4B
$GPRMC,170703.000,A,3304.7009,N,11704.2641,W,64.64,340.31,250610,,,A*43
$GPRMC,170706.000,A,3304.7521,N,11704.2867,W,65.12,339.96,250610,,,A*40
$GPRMC,170709.000,A,3304.8039,N,11704.3095,W,65.61,339.61,250610,,,A*44
$GPRMC,170712.000,A,3304.8525,N,11704.3320,W,61.23,337.85,250610,,,A*4D
$GPRMC,170715.000,A,3304.8953,N,11704.3539,W,55.89,335.39,250610,,,A*4B
$GPRMC,170718.000,A,3304.9355,N,11704.3765,W,53.94,333.63,250610,,,A*43
$GPRMC,170721.000,A,3304.9745,N,11704.4000,W,54.43,332.58,250610,,,A*4B
$GPRMC,170724.000,A,3305.0147,N,11704.4264,W,56.86,330.12,250610,,,A*45
$GPRMC,170727.000,A,3305.0559,N,11704.4566,W,59.29,328.36,250610,,,A*4D
$GPRMC,170730.000,A,3305.0984,N,11704.4904,W,62.21,326.25,250610,,,A*43
$GPRMC,170733.000,A,3305.1425,N,11704.5277,W,65.61,324.49,250610,,,A*42
$GPRMC,170736.000,A,3305.1856,N,11704.5670,W,65.12,322.03,250610,,,A*40
$GPRMC,170739.000,A,3305.2252,N,11704.6063,W,61.72,319.57,250610,,,A*4E
$GPRMC,170742.000,A,3305.2629,N,11704.6462,W,60.26,318.52,250610,,,A*4B
$GPRMC,170745.000,A,3305.3002,N,11704.6864,W,60.75,318.16,250610,,,A*4E
$GPRMC,170748.000,A,3305.3379,N,11704.7276,W,61.72,317.81,250610,,,A*43
$GPRMC,170751.000,A,3305.3765,N,11704.7688,W,61.72,317.81,250610,,,A*47
$GPRMC,170754.000,A,3305.4148,N,11704.8103,W,62.21,318.16,250610,,,A*43
$GPRMC,170757.000,A,3305.4537,N,11704.8519,W,62.69,317.81,250610,,,A*4E
$GPRMC,170800.000,A,3305.4930,N,11704.8940,W,62.69,317.81,250610,,,A*48
$GPRMC,170803.000,A,3305.5316,N,11704.9359,W,62.69,317.81,250610,,,A*47
$GPRMC,170806.000,A,3305.5709,N,11704.9777,W,62.69,317.81,250610,,,A*40
$GPRMC,170809.000,A,3305.6095,N,11705.0196,W,62.21,318.16,250610,,,A*42
$GPRMC,170812.000,A,3305.6485,N,11705.0611,W,62.21,317.81,250610,,,A*44
$GPRMC,170815.000,A,3305.6871,N,11705.1026,W,62.21,317.81,250610,,,A*47
$GPRMC,170818.000,A,3305.7257,N,11705.1444,W,62.21,317.81,250610,,,A*45
$GPRMC,170821.000,A,3305.7646,N,11705.1856,W,62.21,318.87,250610,,,A*4D
$GPRMC,170824.000,A,3305.8042,N,11705.2252,W,62.21,320.98,250610,,,A*4D
$GPRMC,170827.000,A,3305.8454,N,11705.2626,W,61.72,322.73,250610,,,A*48
$GPRMC,170829.000,A,3305.8728,N,11705.2867,W,61.72,324.14,250610,,,A*42
$GPRMC,170833.000,A,3305.9298,N,11705.3330,W,61.72,326.60,250610,,,A*4F
$GPRMC,170836.000,A,3305.9732,N,11705.3656,W,62.21,328.36,250610,,,A*42
$GPRMC,170839.000,A,3306.0180,N,11705.3968,W,62.69,330.82,250610,,,A*40
$GPRMC,170842.000,A,3306.0643,N,11705.4257,W,62.69,332.93,250610,,,A*46
$GPRMC,170845.000,A,3306.1113,N,11705.4534,W,62.69,333.98,250610,,,A*4A
$GPRMC,170848.000,A,3306.1586,N,11705.4808,W,62.69,333.98,250610,,,A*4D
$GPRMC,170851.000,A,3306.2053,N,11705.5081,W,62.69,333.98,250610,,,A*43
$GPRMC,170854.000,A,3306.2523,N,11705.5355,W,62.69,333.63,250610,,,A*4A
$GPRMC,170857.000,A,3306.2996,N,11705.5629,W,62.69,333.98,250610,,,A*41
$GPRMC,170900.000,A,3306.3463,N,11705.5902,W,62.69,333.98,250610,,,A*42
$GPRMC,170903.000,A,3306.3932,N,11705.6179,W,62.69,333.63,250610,,,A*4B
$GPRMC,170906.000,A,3306.4399,N,11705.6459,W,62.69,333.63,250610,,,A*45
$GPRMC,170909.000,A,3306.4872,N,11705.6729,W,62.69,334.69,250610,,,A*4D
$GPRMC,170912.000,A,3306.5336,N,11705.6990,W,61.72,334.69,250610,,,A*48
$GPRMC,170915.000,A,3306.5790,N,11705.7248,W,60.26,333.98,250610,,,A*41
$GPRMC,170918.000,A,3306.6231,N,11705.7508,W,58.80,333.63,250610,,,A*41
$GPRMC,170921.000,A,3306.6662,N,11705.7763,W,57.35,333.63,250610,,,A*47
$GPRMC,170924.000,A,3306.7080,N,11705.8004,W,55.89,333.63,250610,,,A*45
$GPRMC,170927.000,A,3306.7492,N,11705.8249,W,54.92,333.28,250610,,,A*4E
$GPRMC,170930.000,A,3306.7901,N,11705.8493,W,54.43,333.28,250610,,,A*42
$GPRMC,170933.000,A,3306.8303,N,11705.8735,W,54.92,333.28,250610,,,A*45
$GPRMC,170936.000,A,3306.8715,N,11705.8986,W,54.92,332.93,250610,,,A*44
$GPRMC,170939.000,A,3306.9124,N,11705.9230,W,54.92,332.93,250610,,,A*49
$GPRMC,170942.000,A,3306.9539,N,11705.9475,W,55.40,333.63,250610,,,A*4A
$GPRMC,170945.000,A,3306.9955,N,11705.9716,W,54.92,333.63,250610,,,A*43
$GPRMC,170948.000,A,3307.0370,N,11705.9961,W,55.89,333.63,250610,,,A*4E
$GPRMC,170951.000,A,3307.0788,N,11706.0206,W,55.89,333.63,250610,,,A*45
$GPRMC,170954.000,A,3307.1203,N,11706.0447,W,55.89,333.63,250610,,,A*44
$GPRMC,170957.000,A,3307.1632,N,11706.0698,W,56.86,333.98,250610,,,A*49
$GPRMC,171000.000,A,3307.2069,N,11706.0955,W,57.83,333.98,250610,,,A*42
$GPRMC,171001.000,A,3307.2217,N,11706.1039,W,57.83,333.98,250610,,,A*4A
$GPRMC,171006.000,A,3307.2938,N,11706.1458,W,57.83,333.98,250610,,,A*48
$GPRMC,171009.000,A,3307.3373,N,11706.1705,W,57.83,334.69,250610,,,A*41
$GPRMC,171012.000,A,3307.3820,N,11706.1934,W,58.32,338.20,250610,,,A*4E
$GPRMC,171015.000,A,3307.4277,N,11706.2140,W,58.32,339.61,250610,,,A*4A
$GPRMC,171018.000,A,3307.4734,N,11706.2327,W,58.32,341.37,250610,,,A*4A
$GPRMC,171021.000,A,3307.5195,N,11706.2494,W,57.83,343.48,250610,,,A*4C
$GPRMC,171024.000,A,3307.5661,N,11706.2639,W,57.83,345.59,250610,,,A*46
$GPRMC,171027.000,A,3307.6134,N,11706.2751,W,57.83,348.75,250610,,,A*4D
$GPRMC,171030.000,A,3307.6614,N,11706.2861,W,58.32,350.16,250610,,,A*4B
$GPRMC,171033.000,A,3307.7087,N,11706.2935,W,58.32,352.62,250610,,,A*44
$GPRMC,171036.000,A,3307.7567,N,11706.2993,W,57.83,354.73,250610,,,A*45
$GPRMC,171039.000,A,3307.8030,N,11706.3025,W,55.40,356.84,250610,,,A*40
$GPRMC,171042.000,A,3307.8484,N,11706.3041,W,54.92,358.95,250610,,,A*45
$GPRMC,171045.000,A,3307.8941,N,11706.3035,W,54.92,01.05,250610,,,A*73
$GPRMC,171048.000,A,3307.9388,N,11706.3012,W,53.46,02.46,250610,,,A*7F
$GPRMC,171051.000,A,3307.9833,N,11706.2990,W,53.46,02.11,250610,,,A*7C
$GPRMC,171054.000,A,3308.0293,N,11706.2980,W,55.40,01.41,250610,,,A*78
$GPRMC,171057.000,A,3308.0763,N,11706.2961,W,56.86,01.76,250610,,,A*73
$GPRMC,171100.000,A,3308.1239,N,11706.2935,W,57.35,02.46,250610,,,A*73
$GPRMC,171103.000,A,3308.1725,N,11706.2916,W,57.83,02.46,250610,,,A*74
$GPRMC,171106.000,A,3308.2211,N,11706.2890,W,58.32,02.46,250610,,,A*7A
$GPRMC,171109.000,A,3308.2697,N,11706.2864,W,58.32,02.46,250610,,,A*74
$GPRMC,171112.000,A,3308.3190,N,11706.2845,W,58.32,02.46,250610,,,A*7C
$GPRMC,171115.000,A,3308.3672,N,11706.2819,W,57.83,02.46,250610,,,A*7C
$GPRMC,171118.000,A,3308.4158,N,11706.2790,W,57.83,02.46,250610,,,A*77
$GPRMC,171121.000,A,3308.4645,N,11706.2764,W,57.83,02.46,250610,,,A*7D
$GPRMC,171124.000,A,3308.5127,N,11706.2732,W,57.83,02.81,250610,,,A*72
$GPRMC,171127.000,A,3308.5610,N,11706.2706,W,57.83,02.81,250610,,,A*75
$GPRMC,171130.000,A,3308.6090,N,11706.2684,W,57.83,02.46,250610,,,A*7E
$GPRMC,171133.000,A,3308.6569,N,11706.2658,W,57.83,02.46,250610,,,A*7F
$GPRMC,171136.000,A,3308.7049,N,11706.2629,W,57.83,02.81,250610,,,A*71
$GPRMC,171139.000,A,3308.7532,N,11706.2603,W,57.83,02.46,250610,,,A*74
$GPRMC,171142.000,A,3308.8018,N,11706.2578,W,57.83,02.46,250610,,,A*75
$GPRMC,171145.000,A,3308.8504,N,11706.2555,W,58.32,02.46,250610,,,A*70
$GPRMC,171148.000,A,3308.8983,N,11706.2529,W,57.83,02.46,250610,,,A*70
$GPRMC,171151.000,A,3308.9463,N,11706.2504,W,57.83,02.81,250610,,,A*7E
$GPRMC,171155.000,A,3309.0107,N,11706.2465,W,57.83,02.81,250610,,,A*73
$GPRMC,171158.000,A,3309.0589,N,11706.2439,W,57.83,02.46,250610,,,A*7E
$GPRMC,171201.000,A,3309.1075,N,11706.2414,W,57.83,02.81,250610,,,A*72
$GPRMC,171204.000,A,3309.1555,N,11706.2388,W,57.83,02.81,250610,,,A*72
$GPRMC,171207.000,A,3309.2035,N,11706.2359,W,57.83,02.81,250610,,,A*7D
$GPRMC,171210.000,A,3309.2511,N,11706.2336,W,57.35,02.11,250610,,,A*75
$GPRMC,171213.000,A,3309.2987,N,11706.2323,W,57.35,00.70,250610,,,A*74
$GPRMC,171216.000,A,3309.3454,N,11706.2333,W,56.37,358.59,250610,,,A*44
$GPRMC,171219.000,A,3309.3934,N,11706.2365,W,56.86,356.13,250610,,,A*49
$GPRMC,171222.000,A,3309.4420,N,11706.2420,W,57.35,354.02,250610,,,A*43
$GPRMC,171225.000,A,3309.4893,N,11706.2500,W,57.35,351.56,250610,,,A*47
$GPRMC,171228.000,A,3309.5359,N,11706.2600,W,56.86,349.80,250610,,,A*4E
$GPRMC,171231.000,A,3309.5829,N,11706.2719,W,57.35,347.70,250610,,,A*4B
$GPRMC,171234.000,A,3309.6302,N,11706.2864,W,57.35,345.23,250610,,,A*4E
$GPRMC,171237.000,A,3309.6769,N,11706.3028,W,57.83,342.77,250610,,,A*4E
$GPRMC,171240.000,A,3309.7226,N,11706.3215,W,57.83,340.66,250610,,,A*4F
$GPRMC,171243.000,A,3309.7696,N,11706.3424,W,57.83,338.55,250610,,,A*48
$GPRMC,171246.000,A,3309.8156,N,11706.3659,W,58.32,336.09,250610,,,A*43
$GPRMC,171249.000,A,3309.8604,N,11706.3907,W,57.83,334.69,250610,,,A*49
$GPRMC,171252.000,A,3309.9045,N,11706.4158,W,57.83,334.69,250610,,,A*44
$GPRMC,171255.000,A,3309.9479,N,11706.4406,W,57.83,334.69,250610,,,A*46
$GPRMC,171258.000,A,3309.9914,N,11706.4650,W,57.83,334.34,250610,,,A*44
$GPRMC,171301.000,A,3310.0345,N,11706.4902,W,57.83,333.98,250610,,,A*4F
$GPRMC,171304.000,A,3310.0773,N,11706.5149,W,57.83,334.34,250610,,,A*4C
$GPRMC,171307.000,A,3310.1211,N,11706.5400,W,57.83,334.34,250610,,,A*47
$GPRMC,171310.000,A,3310.1645,N,11706.5655,W,57.83,333.98,250610,,,A*47
$GPRMC,171313.000,A,3310.2077,N,11706.5909,W,57.83,334.34,250610,,,A*47
$GPRMC,171316.000,A,3310.2514,N,11706.6160,W,57.83,334.34,250610,,,A*46
$GPRMC,171319.000,A,3310.2955,N,11706.6418,W,58.32,333.98,250610,,,A*4E
$GPRMC,171322.000,A,3310.3390,N,11706.6672,W,57.83,333.98,250610,,,A*4F
$GPRMC,171325.000,A,3310.3821,N,11706.6926,W,57.83,333.98,250610,,,A*47
$GPRMC,171328.000,A,3310.4253,N,11706.7174,W,57.83,334.34,250610,,,A*4D
$GPRMC,171331.000,A,3310.4690,N,11706.7425,W,57.83,334.34,250610,,,A*4F
$GPRMC,171334.000,A,3310.5128,N,11706.7673,W,57.83,333.98,250610,,,A*4F
$GPRMC,171337.000,A,3310.5563,N,11706.7921,W,57.83,334.34,250610,,,A*4E
$GPRMC,171340.000,A,3310.5994,N,11706.8168,W,57.83,334.34,250610,,,A*40
$GPRMC,171343.000,A,3310.6432,N,11706.8426,W,57.83,333.98,250610,,,A*4F
$GPRMC,171346.000,A,3310.6866,N,11706.8680,W,57.83,334.34,250610,,,A*48
$GPRMC,171348.000,A,3310.7156,N,11706.8844,W,58.32,334.34,250610,,,A*4E
$GPRMC,171353.000,A,3310.7896,N,11706.9269,W,58.80,334.34,250610,,,A*4C
$GPRMC,171356.000,A,3310.8340,N,11706.9520,W,58.80,334.34,250610,,,A*4C
$GPRMC,171359.000,A,3310.8784,N,11706.9771,W,58.80,334.69,250610,,,A*41
$GPRMC,171402.000,A,3310.9229,N,11707.0026,W,58.80,334.34,250610,,,A*4E
$GPRMC,171405.000,A,3310.9676,N,11707.0280,W,58.80,333.98,250610,,,A*48
$GPRMC,171408.000,A,3311.0123,N,11707.0537,W,58.80,334.34,250610,,,A*40
$GPRMC,171411.000,A,3311.0571,N,11707.0792,W,58.80,334.34,250610,,,A*46
$GPRMC,171413.000,A,3311.0870,N,11707.0962,W,58.80,334.34,250610,,,A*49
$GPRMC,171417.000,A,3311.1456,N,11707.1307,W,58.80,333.63,250610,,,A*49
$GPRMC,171420.000,A,3311.1900,N,11707.1564,W,58.80,334.34,250610,,,A*45
$GPRMC,171423.000,A,3311.2344,N,11707.1815,W,58.80,334.34,250610,,,A*44
$GPRMC,171426.000,A,3311.2785,N,11707.2073,W,58.80,333.98,250610,,,A*42
$GPRMC,171429.000,A,3311.3229,N,11707.2327,W,58.80,333.98,250610,,,A*4D
$GPRMC,171432.000,A,3311.3674,N,11707.2588,W,59.29,333.98,250610,,,A*4A
$GPRMC,171435.000,A,3311.4114,N,11707.2842,W,58.80,334.34,250610,,,A*43
$GPRMC,171438.000,A,3311.4555,N,11707.3103,W,59.29,333.98,250610,,,A*41
$GPRMC,171441.000,A,3311.5003,N,11707.3357,W,59.29,334.34,250610,,,A*4A
$GPRMC,171444.000,A,3311.5450,N,11707.3611,W,59.29,334.34,250610,,,A*4A
$GPRMC,171447.000,A,3311.5888,N,11707.3865,W,58.80,334.34,250610,,,A*4F
$GPRMC,171450.000,A,3311.6335,N,11707.4123,W,59.29,333.98,250610,,,A*48
$GPRMC,171453.000,A,3311.6783,N,11707.4380,W,59.29,333.98,250610,,,A*49
$GPRMC,171456.000,A,3311.7233,N,11707.4638,W,59.78,333.98,250610,,,A*41
$GPRMC,171459.000,A,3311.7684,N,11707.4899,W,59.78,334.34,250610,,,A*42
$GPRMC,171502.000,A,3311.8135,N,11707.5159,W,59.78,333.98,250610,,,A*4A
$GPRMC,171505.000,A,3311.8588,N,11707.5420,W,59.78,333.98,250610,,,A*44
$GPRMC,171508.000,A,3311.9033,N,11707.5681,W,59.78,333.63,250610,,,A*40
$GPRMC,171511.000,A,3311.9477,N,11707.5941,W,59.78,333.63,250610,,,A*4F
$GPRMC,171514.000,A,3311.9924,N,11707.6199,W,59.78,333.98,250610,,,A*4B
$GPRMC,171517.000,A,3312.0378,N,11707.6463,W,59.78,333.63,250610,,,A*45
$GPRMC,171520.000,A,3312.0825,N,11707.6733,W,60.26,332.58,250610,,,A*4C
$GPRMC,171523.000,A,3312.1270,N,11707.7013,W,60.26,331.88,250610,,,A*4E
$GPRMC,171526.000,A,3312.1710,N,11707.7293,W,60.26,331.52,250610,,,A*45
$GPRMC,171529.000,A,3312.2148,N,11707.7583,W,60.26,330.82,250610,,,A*48
$GPRMC,171532.000,A,3312.2583,N,11707.7879,W,59.78,330.47,250610,,,A*41
$GPRMC,171535.000,A,3312.3011,N,11707.8178,W,59.78,329.41,250610,,,A*40
$GPRMC,171538.000,A,3312.3442,N,11707.8478,W,59.78,329.41,250610,,,A*4A
$GPRMC,171541.000,A,3312.3861,N,11707.8780,W,59.78,328.71,250610,,,A*4F
$GPRMC,171544.000,A,3312.4282,N,11707.9089,W,59.78,328.01,250610,,,A*42
$GPRMC,171547.000,A,3312.4691,N,11707.9395,W,59.29,327.66,250610,,,A*43
$GPRMC,171550.000,A,3312.5106,N,11707.9704,W,59.29,327.66,250610,,,A*41
$GPRMC,171553.000,A,3312.5525,N,11708.0016,W,59.29,328.01,250610,,,A*4B
$GPRMC,171556.000,A,3312.5946,N,11708.0332,W,59.29,327.66,250610,,,A*4C
$GPRMC,171559.000,A,3312.6365,N,11708.0641,W,59.29,327.66,250610,,,A*4A
$GPRMC,171602.000,A,3312.6786,N,11708.0956,W,59.29,327.66,250610,,,A*47
$GPRMC,171605.000,A,3312.7202,N,11708.1275,W,59.29,327.30,250610,,,A*40
$GPRMC,171608.000,A,3312.7626,N,11708.1590,W,59.78,328.01,250610,,,A*4A
$GPRMC,171611.000,A,3312.8054,N,11708.1906,W,59.78,328.01,250610,,,A*4D
$GPRMC,171614.000,A,3312.8470,N,11708.2215,W,59.78,328.01,250610,,,A*40
$GPRMC,171617.000,A,3312.8888,N,11708.2530,W,59.78,327.66,250610,,,A*46
$GPRMC,171620.000,A,3312.9316,N,11708.2845,W,59.78,328.01,250610,,,A*4E
$GPRMC,171623.000,A,3312.9731,N,11708.3158,W,59.29,328.01,250610,,,A*4C
$GPRMC,171626.000,A,3313.0163,N,11708.3470,W,59.78,328.71,250610,,,A*4C
$GPRMC,171629.000,A,3313.0613,N,11708.3789,W,60.75,329.41,250610,,,A*43
$GPRMC,171632.000,A,3313.1080,N,11708.4094,W,61.23,331.17,250610,,,A*40
$GPRMC,171635.000,A,3313.1553,N,11708.4390,W,62.21,332.23,250610,,,A*4E
$GPRMC,171638.000,A,3313.2026,N,11708.4670,W,61.23,333.28,250610,,,A*47
$GPRMC,171641.000,A,3313.2445,N,11708.4928,W,60.26,333.98,250610,,,A*45
$GPRMC,171644.000,A,3313.2889,N,11708.5173,W,59.78,335.04,250610,,,A*49
$GPRMC,171647.000,A,3313.3346,N,11708.5411,W,59.78,336.09,250610,,,A*4C
$GPRMC,171650.000,A,3313.3784,N,11708.5630,W,59.29,337.50,250610,,,A*48
$GPRMC,171653.000,A,3313.4237,N,11708.5839,W,59.29,338.55,250610,,,A*4C
$GPRMC,171656.000,A,3313.4691,N,11708.6045,W,59.29,339.26,250610,,,A*44
$GPRMC,171700.000,A,3313.5329,N,11708.6312,W,59.78,340.31,250610,,,A*4C
$GPRMC,171703.000,A,3313.5821,N,11708.6524,W,59.78,339.96,250610,,,A*4C
$GPRMC,171707.000,A,3313.6474,N,11708.6804,W,59.78,339.96,250610,,,A*48
$GPRMC,171710.000,A,3313.6967,N,11708.7017,W,60.26,340.31,250610,,,A*48
$GPRMC,171713.000,A,3313.7456,N,11708.7226,W,60.26,339.96,250610,,,A*46
$GPRMC,171716.000,A,3313.7932,N,11708.7429,W,59.78,339.96,250610,,,A*44
$GPRMC,171719.000,A,3313.8399,N,11708.7635,W,59.78,339.96,250610,,,A*40
$GPRMC,171722.000,A,3313.8866,N,11708.7831,W,59.78,340.31,250610,,,A*4A
$GPRMC,171725.000,A,3313.9349,N,11708.8028,W,60.26,341.02,250610,,,A*45
$GPRMC,171728.000,A,3313.9828,N,11708.8224,W,60.26,341.02,250610,,,A*4A
$GPRMC,171731.000,A,3314.0292,N,11708.8414,W,59.78,340.31,250610,,,A*42
$GPRMC,171734.000,A,3314.0755,N,11708.8613,W,59.78,339.96,250610,,,A*4F
$GPRMC,171737.000,A,3314.1222,N,11708.8813,W,59.78,339.96,250610,,,A*46
$GPRMC,171740.000,A,3314.1692,N,11708.9016,W,59.78,340.31,250610,,,A*46
$GPRMC,171743.000,A,3314.2162,N,11708.9222,W,59.78,339.96,250610,,,A*48
$GPRMC,171746.000,A,3314.2635,N,11708.9418,W,59.78,340.31,250610,,,A*44
$GPRMC,171749.000,A,3314.3092,N,11708.9614,W,59.29,339.61,250610,,,A*40
$GPRMC,171752.000,A,3314.3546,N,11708.9824,W,59.78,339.26,250610,,,A*4C
$GPRMC,171755.000,A,3314.4009,N,11709.0030,W,59.78,339.26,250610,,,A*47
$GPRMC,171758.000,A,3314.4476,N,11709.0239,W,59.78,339.61,250610,,,A*4E
$GPRMC,171801.000,A,3314.4949,N,11709.0442,W,59.78,340.31,250610,,,A*4D
$GPRMC,171804.000,A,3314.5416,N,11709.0641,W,59.78,340.31,250610,,,A*4F
$GPRMC,171807.000,A,3314.5883,N,11709.0841,W,59.78,339.96,250610,,,A*41
$GPRMC,171810.000,A,3314.6349,N,11709.1047,W,59.78,339.96,250610,,,A*46
$GPRMC,171813.000,A,3314.6813,N,11709.1253,W,59.78,339.61,250610,,,A*4E
$GPRMC,171816.000,A,3314.7276,N,11709.1449,W,59.29,340.31,250610,,,A*41
$GPRMC,171819.000,A,3314.7743,N,11709.1649,W,59.78,339.96,250610,,,A*48
$GPRMC,171822.000,A,3314.8216,N,11709.1848,W,59.78,340.31,250610,,,A*46
$GPRMC,171825.000,A,3314.8683,N,11709.2051,W,59.78,339.96,250610,,,A*49
$GPRMC,171828.000,A,3314.9149,N,11709.2247,W,59.78,339.96,250610,,,A*41
$GPRMC,171831.000,A,3314.9623,N,11709.2450,W,59.78,340.31,250610,,,A*41
$GPRMC,171834.000,A,3315.0096,N,11709.2650,W,59.78,340.31,250610,,,A*46
$GPRMC,171837.000,A,3315.0559,N,11709.2849,W,59.78,339.96,250610,,,A*46
$GPRMC,171840.000,A,3315.1026,N,11709.3045,W,59.78,340.31,250610,,,A*4C
$GPRMC,171844.000,A,3315.1654,N,11709.3319,W,59.78,340.31,250610,,,A*41
$GPRMC,171846.000,A,3315.1959,N,11709.3448,W,59.29,339.96,250610,,,A*45
$GPRMC,171855.000,A,3315.3388,N,11709.4059,W,60.26,340.31,250610,,,A*46
$GPRMC,171859.000,A,3315.4045,N,11709.4330,W,60.26,341.37,250610,,,A*44
$GPRMC,171902.000,A,3315.4525,N,11709.4500,W,60.26,344.18,250610,,,A*45
$GPRMC,171905.000,A,3315.5011,N,11709.4639,W,60.26,346.64,250610,,,A*41
$GPRMC,171908.000,A,3315.5503,N,11709.4761,W,60.26,348.40,250610,,,A*4E
$GPRMC,171911.000,A,3315.6012,N,11709.4864,W,60.75,350.51,250610,,,A*45
$GPRMC,171914.000,A,3315.6533,N,11709.4951,W,61.72,352.97,250610,,,A*4F
$GPRMC,171917.000,A,3315.7006,N,11709.5002,W,60.26,355.43,250610,,,A*4E
$GPRMC,171920.000,A,3315.7499,N,11709.5035,W,60.26,357.19,250610,,,A*41
$GPRMC,171923.000,A,3315.8020,N,11709.5051,W,60.75,359.30,250610,,,A*4A
$GPRMC,171926.000,A,3315.8564,N,11709.5051,W,62.21,01.41,250610,,,A*71
$GPRMC,171929.000,A,3315.9069,N,11709.5025,W,61.72,03.16,250610,,,A*71
$GPRMC,171932.000,A,3315.9575,N,11709.4980,W,61.72,05.27,250610,,,A*70
$GPRMC,171935.000,A,3316.0086,N,11709.4909,W,60.26,07.38,250610,,,A*79
$GPRMC,171938.000,A,3316.0563,N,11709.4812,W,59.78,09.84,250610,,,A*79
$GPRMC,171941.000,A,3316.1042,N,11709.4697,W,59.78,12.30,250610,,,A*76
$GPRMC,171944.000,A,3316.1493,N,11709.4555,W,59.29,14.41,250610,,,A*72
$GPRMC,171947.000,A,3316.1937,N,11709.4384,W,59.29,16.88,250610,,,A*7F
$GPRMC,171950.000,A,3316.2381,N,11709.4201,W,55.89,18.63,250610,,,A*7C
$GPRMC,171953.000,A,3316.2771,N,11709.4024,W,50.06,19.69,250610,,,A*78
$GPRMC,171956.000,A,3316.3125,N,11709.3844,W,46.17,21.80,250610,,,A*79
$GPRMC,171959.000,A,3316.3472,N,11709.3660,W,46.17,23.91,250610,,,A*7B
$GPRMC,172002.000,A,3316.3810,N,11709.3454,W,46.17,26.37,250610,,,A*7B
$GPRMC,172005.000,A,3316.4142,N,11709.3248,W,45.68,26.72,250610,,,A*74
$GPRMC,172008.000,A,3316.4467,N,11709.3039,W,44.71,26.37,250610,,,A*77
$GPRMC,172011.000,A,3316.4789,N,11709.2839,W,43.74,26.37,250610,,,A*77
$GPRMC,172014.000,A,3316.5108,N,11709.2643,W,43.25,26.72,250610,,,A*7A
$GPRMC,172017.000,A,3316.5433,N,11709.2450,W,44.22,26.37,250610,,,A*75
$GPRMC,172020.000,A,3316.5761,N,11709.2260,W,43.74,26.02,250610,,,A*72
$GPRMC,172023.000,A,3316.6089,N,11709.2073,W,44.22,26.02,250610,,,A*77
$GPRMC,172026.000,A,3316.6418,N,11709.1877,W,43.74,25.66,250610,,,A*74
$GPRMC,172029.000,A,3316.6759,N,11709.1694,W,45.68,25.31,250610,,,A*77
$GPRMC,172032.000,A,3316.7126,N,11709.1484,W,50.54,26.02,250610,,,A*79
$GPRMC,172035.000,A,3316.7541,N,11709.1230,W,56.86,28.12,250610,,,A*74
$GPRMC,172038.000,A,3316.7991,N,11709.0944,W,61.23,28.83,250610,,,A*72
$GPRMC,172041.000,A,3316.8471,N,11709.0670,W,62.21,26.02,250610,,,A*7E
$GPRMC,172044.000,A,3316.8931,N,11709.0442,W,58.80,22.85,250610,,,A*78
$GPRMC,172047.000,A,3316.9388,N,11709.0242,W,57.83,20.04,250610,,,A*73
$GPRMC,172050.000,A,3316.9858,N,11709.0065,W,58.80,17.93,250610,,,A*72
$GPRMC,172053.000,A,3317.0344,N,11708.9910,W,59.29,15.47,250610,,,A*75
$GPRMC,172056.000,A,3317.0827,N,11708.9775,W,58.80,13.01,250610,,,A*75
$GPRMC,172059.000,A,3317.1310,N,11708.9663,W,58.80,10.20,250610,,,A*72
$GPRMC,172102.000,A,3317.1793,N,11708.9579,W,58.32,08.44,250610,,,A*78
$GPRMC,172105.000,A,3317.2279,N,11708.9518,W,58.80,05.98,250610,,,A*7F
$GPRMC,172108.000,A,3317.2771,N,11708.9482,W,58.32,02.81,250610,,,A*7B
$GPRMC,172111.000,A,3317.3280,N,11708.9476,W,59.29,00.35,250610,,,A*74
$GPRMC,172114.000,A,3317.3798,N,11708.9495,W,59.78,357.89,250610,,,A*42
$GPRMC,172117.000,A,3317.4287,N,11708.9527,W,59.29,357.19,250610,,,A*48
$GPRMC,172120.000,A,3317.4786,N,11708.9560,W,59.78,357.54,250610,,,A*46
$GPRMC,172123.000,A,3317.5272,N,11708.9592,W,59.29,357.19,250610,,,A*4A
$GPRMC,172126.000,A,3317.5771,N,11708.9621,W,59.78,357.19,250610,,,A*46
$GPRMC,172129.000,A,3317.6270,N,11708.9653,W,59.78,357.19,250610,,,A*4B
$GPRMC,172132.000,A,3317.6772,N,11708.9675,W,59.78,357.54,250610,,,A*4B
$GPRMC,172135.000,A,3317.7280,N,11708.9704,W,59.78,357.19,250610,,,A*4B
$GPRMC,172138.000,A,3317.7789,N,11708.9737,W,59.78,357.19,250610,,,A*4A
$GPRMC,172141.000,A,3317.8294,N,11708.9766,W,60.26,357.19,250610,,,A*47
$GPRMC,172144.000,A,3317.8800,N,11708.9791,W,60.26,357.54,250610,,,A*44
$GPRMC,172147.000,A,3317.9302,N,11708.9824,W,59.78,356.84,250610,,,A*43
$GPRMC,172150.000,A,3317.9797,N,11708.9852,W,59.29,357.19,250610,,,A*4D
$GPRMC,172153.000,A,3318.0303,N,11708.9885,W,59.78,357.54,250610,,,A*46
$GPRMC,172156.000,A,3318.0802,N,11708.9910,W,59.78,357.19,250610,,,A*4D
$GPRMC,172159.000,A,3318.1307,N,11708.9939,W,60.26,357.19,250610,,,A*47
$GPRMC,172202.000,A,3318.1809,N,11708.9965,W,60.75,357.19,250610,,,A*40
$GPRMC,172205.000,A,3318.2327,N,11709.0001,W,60.75,356.84,250610,,,A*45
$GPRMC,172208.000,A,3318.2839,N,11709.0033,W,60.26,357.19,250610,,,A*4E
$GPRMC,172211.000,A,3318.3357,N,11709.0058,W,60.75,357.54,250610,,,A*46
$GPRMC,172214.000,A,3318.3853,N,11709.0087,W,59.78,356.84,250610,,,A*45
$GPRMC,172217.000,A,3318.4365,N,11709.0139,W,60.26,355.08,250610,,,A*4D
$GPRMC,172220.000,A,3318.4880,N,11709.0207,W,61.23,352.97,250610,,,A*42
$GPRMC,172223.000,A,3318.5398,N,11709.0297,W,61.72,350.86,250610,,,A*4D
$GPRMC,172226.000,A,3318.5916,N,11709.0409,W,62.21,348.75,250610,,,A*45
$GPRMC,172229.000,A,3318.6425,N,11709.0541,W,62.21,346.99,250610,,,A*45
$GPRMC,172232.000,A,3318.6914,N,11709.0699,W,60.75,344.53,250610,,,A*41
$GPRMC,172235.000,A,3318.7374,N,11709.0873,W,60.26,342.42,250610,,,A*41
$GPRMC,172238.000,A,3318.7851,N,11709.1072,W,60.75,339.61,250610,,,A*43
$GPRMC,172241.000,A,3318.8333,N,11709.1294,W,61.23,337.85,250610,,,A*41
$GPRMC,172244.000,A,3318.8800,N,11709.1539,W,61.23,335.74,250610,,,A*43
$GPRMC,172247.000,A,3318.9235,N,11709.1803,W,61.72,333.63,250610,,,A*4D
$GPRMC,172250.000,A,3318.9653,N,11709.2089,W,62.69,331.52,250610,,,A*4F
$GPRMC,172253.000,A,3319.0091,N,11709.2379,W,62.69,331.88,250610,,,A*47
$GPRMC,172256.000,A,3319.0545,N,11709.2675,W,62.69,331.88,250610,,,A*47
$GPRMC,172259.000,A,3319.0998,N,11709.2965,W,62.69,331.88,250610,,,A*4A
$GPRMC,172302.000,A,3319.1459,N,11709.3258,W,62.69,331.88,250610,,,A*40
$GPRMC,172305.000,A,3319.1916,N,11709.3554,W,62.69,331.88,250610,,,A*4A
$GPRMC,172308.000,A,3319.2376,N,11709.3850,W,62.69,331.88,250610,,,A*41
$GPRMC,172311.000,A,3319.2849,N,11709.4120,W,62.69,334.69,250610,,,A*4D
$GPRMC,172314.000,A,3319.3325,N,11709.4368,W,62.69,336.80,250610,,,A*43
$GPRMC,172317.000,A,3319.3821,N,11709.4597,W,62.69,339.61,250610,,,A*49
$GPRMC,172320.000,A,3319.4317,N,11709.4796,W,62.69,342.07,250610,,,A*4B
$GPRMC,172323.000,A,3319.4825,N,11709.4977,W,62.69,343.83,250610,,,A*4E
$GPRMC,172326.000,A,3319.5331,N,11709.5115,W,62.69,346.99,250610,,,A*47
$GPRMC,172329.000,A,3319.5833,N,11709.5237,W,62.21,348.75,250610,,,A*42
$GPRMC,172332.000,A,3319.6335,N,11709.5331,W,62.21,351.56,250610,,,A*48
$GPRMC,172335.000,A,3319.6840,N,11709.5395,W,62.21,353.67,250610,,,A*48
$GPRMC,172338.000,A,3319.7358,N,11709.5440,W,62.21,356.48,250610,,,A*41
$GPRMC,172341.000,A,3319.7883,N,11709.5459,W,62.21,358.95,250610,,,A*44
$GPRMC,172344.000,A,3319.8411,N,11709.5463,W,62.69,00.35,250610,,,A*78
$GPRMC,172347.000,A,3319.8926,N,11709.5447,W,61.72,01.41,250610,,,A*7F
$GPRMC,172350.000,A,3319.9444,N,11709.5437,W,62.21,01.05,250610,,,A*73
$GPRMC,172353.000,A,3319.9975,N,11709.5437,W,62.69,00.70,250610,,,A*70
$GPRMC,172356.000,A,3320.0497,N,11709.5427,W,62.69,00.70,250610,,,A*76
$GPRMC,172359.000,A,3320.1015,N,11709.5418,W,62.21,00.70,250610,,,A*76
$GPRMC,172402.000,A,3320.1530,N,11709.5408,W,62.21,00.70,250610,,,A*7C
$GPRMC,172405.000,A,3320.2045,N,11709.5398,W,62.21,00.70,250610,,,A*71
$GPRMC,172408.000,A,3320.2569,N,11709.5389,W,62.69,00.70,250610,,,A*7B
$GPRMC,172411.000,A,3320.3088,N,11709.5379,W,62.69,00.70,250610,,,A*77
$GPRMC,172414.000,A,3320.3612,N,11709.5372,W,62.69,00.70,250610,,,A*7C
$GPRMC,172417.000,A,3320.4130,N,11709.5366,W,62.69,01.05,250610,,,A*79
$GPRMC,172420.000,A,3320.4642,N,11709.5353,W,62.21,00.70,250610,,,A*76
$GPRMC,172423.000,A,3320.5167,N,11709.5347,W,62.69,00.70,250610,,,A*7D
$GPRMC,172426.000,A,3320.5688,N,11709.5337,W,62.69,00.70,250610,,,A*79
$GPRMC,172429.000,A,3320.6207,N,11709.5331,W,62.21,00.70,250610,,,A*7C
$GPRMC,172432.000,A,3320.6721,N,11709.5315,W,62.21,00.70,250610,,,A*71
$GPRMC,172435.000,A,3320.7243,N,11709.5308,W,62.21,01.05,250610,,,A*79
$GPRMC,172438.000,A,3320.7761,N,11709.5295,W,62.21,01.05,250610,,,A*74
$GPRMC,172441.000,A,3320.8279,N,11709.5286,W,62.21,00.70,250610,,,A*78
$GPRMC,172444.000,A,3320.8801,N,11709.5276,W,62.21,00.70,250610,,,A*77
$GPRMC,172447.000,A,3320.9319,N,11709.5269,W,62.21,01.05,250610,,,A*7A
$GPRMC,172450.000,A,3320.9840,N,11709.5257,W,62.69,00.70,250610,,,A*79
$GPRMC,172453.000,A,3321.0365,N,11709.5253,W,62.69,00.70,250610,,,A*7A
$GPRMC,172456.000,A,3321.0883,N,11709.5244,W,62.21,00.70,250610,,,A*76
