NMEA Sentence Code,UTC Time,Status,Latitude,Latitude Direction,Longitude,Longitude Direction,Speed (knots),Track Angle (degrees true),Date,MagneticVariation,Magnetic Variation Direction,[FAA Mode]-Optional,Checksum
$GPRMC,221813.000,A,3252.6918,N,11710.0603,W,9.28,106.52,60410,,,A*44
$GPRMC,221816.000,A,3252.6976,N,11710.0358,W,28.19,78.40,60410,,,A*48
$GPRMC,221819.000,A,3252.7024,N,11710.0033,W,36.93,78.75,60410,,,A*4D
$GPRMC,221822.000,A,3252.7085,N,11709.9647,W,42.28,79.45,60410,,,A*4B
$GPRMC,221825.000,A,3252.7146,N,11709.9219,W,44.71,79.80,60410,,,A*4E
$GPRMC,221828.000,A,3252.7214,N,11709.8768,W,46.65,78.75,60410,,,A*49
$GPRMC,221831.000,A,3252.7301,N,11709.8298,W,47.63,78.05,60410,,,A*4E
$GPRMC,221834.000,A,3252.7365,N,11709.7832,W,50.06,79.45,60410,,,A*4C
$GPRMC,221837.000,A,3252.7462,N,11709.7310,W,53.46,78.05,60410,,,A*46
$GPRMC,221840.000,A,3252.7561,N,11709.6814,W,49.57,76.29,60410,,,A*41
$GPRMC,221843.000,A,3252.7677,N,11709.6386,W,40.82,65.39,60410,,,A*44
$GPRMC,221846.000,A,3252.7809,N,11709.6093,W,24.79,60.12,60410,,,A*4B
$GPRMC,221849.000,A,3252.7883,N,11709.5955,W,11.66,55.90,60410,,,A*42
$GPRMC,221907.000,A,3252.7899,N,11709.5952,W,1.46,54.84,60410,,,A*72
$GPRMC,221910.000,A,3252.7948,N,11709.5868,W,15.55,56.25,60410,,,A*4F
$GPRMC,221913.000,A,3252.8044,N,11709.5691,W,25.76,56.95,60410,,,A*47
$GPRMC,221917.000,A,3252.8282,N,11709.5282,W,41.31,55.90,60410,,,A*4A
$GPRMC,221920.000,A,3252.8479,N,11709.4935,W,41.79,55.90,60410,,,A*46
$GPRMC,221923.000,A,3252.8665,N,11709.4600,W,40.82,55.90,60410,,,A*46
$GPRMC,221926.000,A,3252.8849,N,11709.4278,W,36.95,55.20,60410,,,A*44
$GPRMC,221929.000,A,3252.8997,N,11709.4024,W,27.70,54.84,60410,,,A*46
$GPRMC,221932.000,A,3252.9090,N,11709.3873,W,17.50,54.49,60410,,,A*4E
$GPRMC,221953.000,A,3252.9155,N,11709.3766,W,2.43,58.71,60410,,,A*7B
$GPRMC,221956.000,A,3252.9190,N,11709.3676,W,13.61,58.01,60410,,,A*40
$GPRMC,221959.000,A,3252.9300,N,11709.3490,W,25.27,56.60,60410,,,A*40
$GPRMC,222002.000,A,3252.9451,N,11709.3219,W,34.02,57.66,60410,,,A*40
$GPRMC,222005.000,A,3252.9631,N,11709.2891,W,39.36,56.95,60410,,,A*4F
$GPRMC,222008.000,A,3252.9818,N,11709.2559,W,41.31,56.25,60410,,,A*4D
$GPRMC,222011.000,A,3253.0021,N,11709.2212,W,42.77,55.20,60410,,,A*40
$GPRMC,222014.000,A,3253.0227,N,11709.1851,W,44.22,55.90,60410,,,A*42
$GPRMC,222017.000,A,3253.0439,N,11709.1484,W,45.20,55.55,60410,,,A*46
$GPRMC,222020.000,A,3253.0655,N,11709.1111,W,45.69,55.55,60410,,,A*4E
$GPRMC,222023.000,A,3253.0873,N,11709.0747,W,44.71,55.20,60410,,,A*49
$GPRMC,222026.000,A,3253.1083,N,11709.0390,W,44.71,55.55,60410,,,A*46
$GPRMC,222029.000,A,3253.1298,N,11709.0010,W,47.14,57.30,60410,,,A*4B
$GPRMC,222032.000,A,3253.1520,N,11708.9621,W,47.63,56.60,60410,,,A*4D
$GPRMC,222035.000,A,3253.1739,N,11708.9231,W,47.63,55.90,60410,,,A*49
$GPRMC,222038.000,A,3253.1958,N,11708.8835,W,48.11,56.25,60410,,,A*45
$GPRMC,222041.000,A,3253.2174,N,11708.8440,W,48.60,56.25,60410,,,A*46
$GPRMC,222043.000,A,3253.2335,N,11708.8169,W,49.08,55.55,60410,,,A*46
$GPRMC,222051.000,A,3253.2969,N,11708.7065,W,50.06,56.25,60410,,,A*46
$GPRMC,222054.000,A,3253.3217,N,11708.6653,W,51.51,55.20,60410,,,A*47
$GPRMC,222057.000,A,3253.3461,N,11708.6244,W,50.06,55.55,60410,,,A*40
$GPRMC,222100.000,A,3253.3693,N,11708.5832,W,50.54,55.90,60410,,,A*4A
$GPRMC,222104.000,A,3253.4031,N,11708.5256,W,53.46,55.55,60410,,,A*46
$GPRMC,222107.000,A,3253.4282,N,11708.4819,W,52.97,55.90,60410,,,A*4B
$GPRMC,222110.000,A,3253.4523,N,11708.4397,W,52.00,55.20,60410,,,A*49
$GPRMC,222113.000,A,3253.4771,N,11708.3985,W,51.03,55.55,60410,,,A*43
$GPRMC,222116.000,A,3253.5009,N,11708.3573,W,50.54,55.55,60410,,,A*49
$GPRMC,222119.000,A,3253.5238,N,11708.3174,W,48.11,55.55,60410,,,A*4D
$GPRMC,222122.000,A,3253.5454,N,11708.2788,W,46.65,55.90,60410,,,A*49
$GPRMC,222125.000,A,3253.5656,N,11708.2437,W,39.85,55.55,60410,,,A*46
$GPRMC,222128.000,A,3253.5846,N,11708.2099,W,41.79,58.36,60410,,,A*40
$GPRMC,222131.000,A,3253.6007,N,11708.1703,W,46.17,67.85,60410,,,A*4A
$GPRMC,222134.000,A,3253.6101,N,11708.1220,W,52.49,83.32,60410,,,A*44
$GPRMC,222137.000,A,3253.6117,N,11708.0705,W,51.04,89.30,60410,,,A*41
$GPRMC,222140.000,A,3253.6123,N,11708.0209,W,49.09,88.95,60410,,,A*45
$GPRMC,222143.000,A,3253.6136,N,11707.9739,W,46.65,88.24,60410,,,A*4D
$GPRMC,222146.000,A,3253.6149,N,11707.9305,W,44.22,87.89,60410,,,A*42
$GPRMC,222149.000,A,3253.6162,N,11707.8896,W,39.85,88.95,60410,,,A*41
$GPRMC,222152.000,A,3253.6175,N,11707.8529,W,36.45,86.84,60410,,,A*49
$GPRMC,222155.000,A,3253.6187,N,11707.8178,W,34.50,88.95,60410,,,A*4B
$GPRMC,222158.000,A,3253.6204,N,11707.7834,W,34.02,89.65,60410,,,A*49
$GPRMC,222201.000,A,3253.6213,N,11707.7506,W,33.05,89.30,60410,,,A*4C
$GPRMC,222204.000,A,3253.6220,N,11707.7165,W,36.45,89.30,60410,,,A*49
$GPRMC,222207.000,A,3253.6226,N,11707.6788,W,38.39,89.30,60410,,,A*4D
$GPRMC,222210.000,A,3253.6226,N,11707.6428,W,34.50,89.65,60410,,,A*41
$GPRMC,222213.000,A,3253.6236,N,11707.6077,W,36.93,89.65,60410,,,A*40
$GPRMC,222216.000,A,3253.6233,N,11707.5690,W,39.85,91.05,60410,,,A*4B
$GPRMC,222219.000,A,3253.6229,N,11707.5288,W,40.34,89.65,60410,,,A*49
$GPRMC,222222.000,A,3253.6236,N,11707.4905,W,38.39,88.95,60410,,,A*4C
$GPRMC,222225.000,A,3253.6242,N,11707.4522,W,39.36,89.30,60410,,,A*41
$GPRMC,222228.000,A,3253.6249,N,11707.4142,W,37.42,89.65,60410,,,A*48
$GPRMC,222231.000,A,3253.6255,N,11707.3769,W,38.39,88.59,60410,,,A*48
$GPRMC,222234.000,A,3253.6258,N,11707.3383,W,39.36,89.30,60410,,,A*40
$GPRMC,222237.000,A,3253.6258,N,11707.3003,W,35.48,90.70,60410,,,A*41
$GPRMC,222240.000,A,3253.6252,N,11707.2687,W,29.16,90.00,60410,,,A*41
$GPRMC,222243.000,A,3253.6252,N,11707.2391,W,31.59,88.95,60410,,,A*47
$GPRMC,222246.000,A,3253.6249,N,11707.2024,W,38.39,90.35,60410,,,A*49
$GPRMC,222249.000,A,3253.6245,N,11707.1661,W,35.48,90.70,60410,,,A*44
$GPRMC,222252.000,A,3253.6220,N,11707.1316,W,36.46,95.27,60410,,,A*42
$GPRMC,222255.000,A,3253.6165,N,11707.0927,W,43.25,102.30,60410,,,A*70
$GPRMC,222258.000,A,3253.6062,N,11707.0508,W,45.68,108.28,60410,,,A*76
$GPRMC,222301.000,A,3253.5949,N,11707.0093,W,44.22,107.58,60410,,,A*78
$GPRMC,222304.000,A,3253.5866,N,11706.9668,W,43.74,101.25,60410,,,A*73
$GPRMC,222307.000,A,3253.5853,N,11706.9256,W,40.82,89.30,60410,,,A*40
$GPRMC,222310.000,A,3253.5869,N,11706.8870,W,36.93,86.13,60410,,,A*4F
$GPRMC,222313.000,A,3253.5901,N,11706.8532,W,32.07,82.97,60410,,,A*49
$GPRMC,222316.000,A,3253.5927,N,11706.8294,W,19.93,93.16,60410,,,A*4E
$GPRMC,222320.000,A,3253.5804,N,11706.8120,W,20.41,155.39,60410,,,A*74
$GPRMC,222327.000,A,3253.5383,N,11706.8281,W,25.27,229.57,60410,,,A*7A
$GPRMC,222336.000,A,3253.5563,N,11706.8677,W,4.37,337.50,60410,,,A*44
$GPRMC,222339.000,A,3253.5624,N,11706.8712,W,8.75,332.23,60410,,,A*42
$GPRMC,222342.000,A,3253.5869,N,11706.8815,W,24.30,336.80,60410,,,A*73
$GPRMC,222345.000,A,3253.6155,N,11706.8934,W,34.99,341.37,60410,,,A*7D
$GPRMC,222348.000,A,3253.6500,N,11706.9060,W,40.82,343.48,60410,,,A*7E
$GPRMC,222351.000,A,3253.6847,N,11706.9179,W,43.25,343.12,60410,,,A*70
$GPRMC,222354.000,A,3253.7211,N,11706.9292,W,47.14,346.99,60410,,,A*7B
$GPRMC,222357.000,A,3253.7613,N,11706.9392,W,48.60,349.10,60410,,,A*7D
$GPRMC,222401.000,A,3253.8173,N,11706.9517,W,53.46,351.21,60410,,,A*79
$GPRMC,222404.000,A,3253.8627,N,11706.9588,W,55.89,354.02,60410,,,A*7D
$GPRMC,222407.000,A,3253.9094,N,11706.9633,W,56.37,357.19,60410,,,A*7D
$GPRMC,222410.000,A,3253.9554,N,11706.9639,W,53.94,359.65,60410,,,A*71
$GPRMC,222413.000,A,3253.9998,N,11706.9636,W,52.49,00.00,60410,,,A*4C
$GPRMC,222416.000,A,3254.0430,N,11706.9630,W,50.54,359.65,60410,,,A*7C
$GPRMC,222419.000,A,3254.0842,N,11706.9633,W,48.11,358.59,60410,,,A*7F
$GPRMC,222422.000,A,3254.1244,N,11706.9646,W,48.11,358.24,60410,,,A*72
$GPRMC,222425.000,A,3254.1659,N,11706.9655,W,50.06,358.59,60410,,,A*7A
$GPRMC,222428.000,A,3254.2094,N,11706.9662,W,51.03,358.95,60410,,,A*73
$GPRMC,222431.000,A,3254.2567,N,11706.9681,W,54.92,358.59,60410,,,A*72
$GPRMC,222434.000,A,3254.3050,N,11706.9691,W,58.33,359.30,60410,,,A*7F
$GPRMC,222437.000,A,3254.3568,N,11706.9707,W,58.32,359.30,60410,,,A*7D
$GPRMC,222440.000,A,3254.4073,N,11706.9720,W,58.80,359.30,60410,,,A*79
$GPRMC,222443.000,A,3254.4582,N,11706.9729,W,60.76,359.65,60410,,,A*7A
$GPRMC,222446.000,A,3254.5090,N,11706.9729,W,61.24,00.00,60410,,,A*42
$GPRMC,222449.000,A,3254.5589,N,11706.9726,W,61.73,00.00,60410,,,A*4D
$GPRMC,222452.000,A,3254.6107,N,11706.9729,W,61.73,359.65,60410,,,A*75
$GPRMC,222455.000,A,3254.6616,N,11706.9733,W,62.21,00.35,60410,,,A*40
$GPRMC,222458.000,A,3254.7137,N,11706.9726,W,62.70,01.05,60410,,,A*4A
$GPRMC,222501.000,A,3254.7662,N,11706.9713,W,62.21,01.76,60410,,,A*46
$GPRMC,222504.000,A,3254.8183,N,11706.9694,W,62.69,00.70,60410,,,A*41
$GPRMC,222507.000,A,3254.8708,N,11706.9681,W,63.66,02.11,60410,,,A*48
$GPRMC,222510.000,A,3254.9236,N,11706.9649,W,63.18,03.52,60410,,,A*4C
$GPRMC,222513.000,A,3254.9773,N,11706.9598,W,64.64,04.57,60410,,,A*4A
$GPRMC,222516.000,A,3255.0314,N,11706.9536,W,64.64,05.27,60410,,,A*40
$GPRMC,222519.000,A,3255.0819,N,11706.9475,W,63.18,05.27,60410,,,A*43
$GPRMC,222522.000,A,3255.1347,N,11706.9401,W,64.15,06.33,60410,,,A*45
$GPRMC,222525.000,A,3255.1888,N,11706.9337,W,64.15,07.38,60410,,,A*42
$GPRMC,222528.000,A,3255.2409,N,11706.9256,W,64.15,07.73,60410,,,A*40
$GPRMC,222531.000,A,3255.2944,N,11706.9166,W,64.64,08.44,60410,,,A*41
$GPRMC,222534.000,A,3255.3475,N,11706.9073,W,64.64,09.14,60410,,,A*4B
$GPRMC,222537.000,A,3255.4019,N,11706.8973,W,64.18,08.44,60410,,,A*46
$GPRMC,222540.000,A,3255.4553,N,11706.8870,W,63.69,09.84,60410,,,A*43
$GPRMC,222543.000,A,3255.5084,N,11706.8751,W,63.67,10.90,60410,,,A*41
$GPRMC,222546.000,A,3255.5602,N,11706.8619,W,62.70,12.66,60410,,,A*4D
$GPRMC,222549.000,A,3255.6117,N,11706.8477,W,63.18,13.01,60410,,,A*47
$GPRMC,222552.000,A,3255.6636,N,11706.8329,W,63.66,13.36,60410,,,A*48
$GPRMC,222555.000,A,3255.7163,N,11706.8178,W,65.12,13.71,60410,,,A*49
$GPRMC,222558.000,A,3255.7685,N,11706.8017,W,65.61,14.77,60410,,,A*46
$GPRMC,222601.000,A,3255.8235,N,11706.7847,W,67.55,14.06,60410,,,A*48
$GPRMC,222603.000,A,3255.8612,N,11706.7734,W,69.50,14.06,60410,,,A*4B
$GPRMC,222608.000,A,3255.9555,N,11706.7447,W,69.50,14.77,60410,,,A*40
$GPRMC,222611.000,A,3256.0115,N,11706.7280,W,69.50,14.41,60410,,,A*4A
$GPRMC,222614.000,A,3256.0678,N,11706.7103,W,69.99,14.41,60410,,,A*4E
$GPRMC,222615.000,A,3256.0871,N,11706.7052,W,69.98,14.41,60410,,,A*4C
$GPRMC,222618.000,A,3256.1422,N,11706.6894,W,68.52,14.41,60410,,,A*4E
$GPRMC,222622.000,A,3256.2172,N,11706.6675,W,68.52,14.41,60410,,,A*45
$GPRMC,222629.000,A,3256.3446,N,11706.6273,W,67.07,15.12,60410,,,A*47
$GPRMC,222632.000,A,3256.3984,N,11706.6099,W,66.09,15.82,60410,,,A*4E
$GPRMC,222637.000,A,3256.4914,N,11706.5793,W,67.55,16.52,60410,,,A*4D
$GPRMC,222640.000,A,3256.5442,N,11706.5577,W,67.55,20.04,60410,,,A*4C
$GPRMC,222645.000,A,3256.6308,N,11706.5159,W,67.55,23.55,60410,,,A*4C
$GPRMC,222648.000,A,3256.6803,N,11706.4876,W,67.55,26.37,60410,,,A*45
$GPRMC,222649.000,A,3256.6984,N,11706.4776,W,68.04,27.07,60410,,,A*4C
$GPRMC,222656.000,A,3256.8136,N,11706.3987,W,68.04,30.59,60410,,,A*47
$GPRMC,222659.000,A,3256.8628,N,11706.3656,W,66.58,29.88,60410,,,A*40
$GPRMC,222702.000,A,3256.9117,N,11706.3324,W,66.59,29.88,60410,,,A*44
$GPRMC,222705.000,A,3256.9607,N,11706.3009,W,65.64,29.18,60410,,,A*4D
$GPRMC,222708.000,A,3257.0083,N,11706.2697,W,64.67,29.53,60410,,,A*4F
$GPRMC,222711.000,A,3257.0547,N,11706.2388,W,61.75,29.88,60410,,,A*41
$GPRMC,222714.000,A,3257.0997,N,11706.2088,W,61.75,29.18,60410,,,A*4F
$GPRMC,222717.000,A,3257.1448,N,11706.1789,W,62.72,28.48,60410,,,A*47
$GPRMC,222720.000,A,3257.1911,N,11706.1487,W,63.69,28.12,60410,,,A*4B
$GPRMC,222723.000,A,3257.2388,N,11706.1190,W,64.18,27.77,60410,,,A*4F
$GPRMC,222726.000,A,3257.2845,N,11706.0898,W,62.24,28.12,60410,,,A*45
$GPRMC,222729.000,A,3257.3308,N,11706.0605,W,63.21,28.12,60410,,,A*47
$GPRMC,222732.000,A,3257.3778,N,11706.0305,W,64.64,27.77,60410,,,A*41
$GPRMC,222735.000,A,3257.4254,N,11706.0012,W,64.15,27.77,60410,,,A*49
$GPRMC,222738.000,A,3257.4734,N,11705.9713,W,64.16,27.77,60410,,,A*48
$GPRMC,222741.000,A,3257.5201,N,11705.9414,W,62.70,27.77,60410,,,A*46
$GPRMC,222744.000,A,3257.5671,N,11705.9118,W,63.67,28.48,60410,,,A*4D
$GPRMC,222747.000,A,3257.6128,N,11705.8815,W,62.21,29.88,60410,,,A*4D
$GPRMC,222750.000,A,3257.6562,N,11705.8512,W,59.78,30.23,60410,,,A*46
$GPRMC,222753.000,A,3257.6987,N,11705.8223,W,59.30,28.83,60410,,,A*48
$GPRMC,222756.000,A,3257.7418,N,11705.7946,W,58.33,27.77,60410,,,A*46
$GPRMC,222759.000,A,3257.7853,N,11705.7669,W,58.32,27.77,60410,,,A*49
$GPRMC,222802.000,A,3257.8262,N,11705.7402,W,54.92,27.77,60410,,,A*46
$GPRMC,222805.000,A,3257.8667,N,11705.7157,W,53.95,27.42,60410,,,A*43
$GPRMC,222808.000,A,3257.9057,N,11705.6922,W,52.49,27.42,60410,,,A*41
$GPRMC,222811.000,A,3257.9453,N,11705.6671,W,54.44,28.12,60410,,,A*41
$GPRMC,222814.000,A,3257.9858,N,11705.6414,W,56.87,27.77,60410,,,A*43
$GPRMC,222817.000,A,3258.0273,N,11705.6150,W,57.35,28.12,60410,,,A*44
$GPRMC,222820.000,A,3258.0685,N,11705.5886,W,54.92,27.77,60410,,,A*4E
$GPRMC,222823.000,A,3258.1078,N,11705.5641,W,52.98,27.77,60410,,,A*41
$GPRMC,222826.000,A,3258.1480,N,11705.5394,W,54.92,28.12,60410,,,A*4A
$GPRMC,222829.000,A,3258.1892,N,11705.5130,W,56.87,28.12,60410,,,A*40
$GPRMC,222832.000,A,3258.2311,N,11705.4866,W,57.84,27.77,60410,,,A*4C
$GPRMC,222835.000,A,3258.2736,N,11705.4602,W,56.38,27.77,60410,,,A*40
$GPRMC,222838.000,A,3258.3157,N,11705.4338,W,56.86,28.12,60410,,,A*48
$GPRMC,222841.000,A,3258.3572,N,11705.4068,W,56.86,28.12,60410,,,A*43
$GPRMC,222844.000,A,3258.3988,N,11705.3804,W,57.35,27.77,60410,,,A*4F
$GPRMC,222847.000,A,3258.4416,N,11705.3536,W,58.80,28.12,60410,,,A*40
$GPRMC,222850.000,A,3258.4853,N,11705.3263,W,59.30,27.77,60410,,,A*4A
$GPRMC,222853.000,A,3258.5298,N,11705.2986,W,60.76,28.12,60410,,,A*40
$GPRMC,222856.000,A,3258.5745,N,11705.2703,W,60.76,27.77,60410,,,A*4F
$GPRMC,222859.000,A,3258.6202,N,11705.2420,W,61.73,28.12,60410,,,A*4F
$GPRMC,222902.000,A,3258.6659,N,11705.2130,W,62.21,28.12,60410,,,A*4A
$GPRMC,222905.000,A,3258.7119,N,11705.1840,W,62.70,28.12,60410,,,A*46
$GPRMC,222908.000,A,3258.7573,N,11705.1554,W,61.72,28.12,60410,,,A*4A
$GPRMC,222911.000,A,3258.8033,N,11705.1271,W,61.73,27.77,60410,,,A*41
$GPRMC,222914.000,A,3258.8491,N,11705.0984,W,62.70,28.12,60410,,,A*44
$GPRMC,222917.000,A,3258.8954,N,11705.0688,W,62.70,27.42,60410,,,A*4A
$GPRMC,222920.000,A,3258.9405,N,11705.0411,W,59.81,26.72,60410,,,A*40
$GPRMC,222923.000,A,3258.9849,N,11705.0170,W,57.84,23.55,60410,,,A*4E
$GPRMC,222926.000,A,3259.0290,N,11704.9973,W,56.87,20.04,60410,,,A*4B
$GPRMC,222929.000,A,3259.0756,N,11704.9812,W,58.84,14.77,60410,,,A*43
$GPRMC,222932.000,A,3259.1246,N,11704.9684,W,60.29,10.20,60410,,,A*47
$GPRMC,222935.000,A,3259.1745,N,11704.9603,W,60.78,05.98,60410,,,A*4A
$GPRMC,222938.000,A,3259.2247,N,11704.9552,W,61.75,01.76,60410,,,A*4C
$GPRMC,222941.000,A,3259.2755,N,11704.9552,W,60.75,358.59,60410,,,A*77
$GPRMC,222944.000,A,3259.3273,N,11704.9613,W,62.21,353.67,60410,,,A*71
$GPRMC,222947.000,A,3259.3801,N,11704.9716,W,63.66,350.16,60410,,,A*7E
$GPRMC,222950.000,A,3259.4336,N,11704.9832,W,64.64,349.10,60410,,,A*72
$GPRMC,222953.000,A,3259.4876,N,11704.9944,W,65.61,349.80,60410,,,A*73
$GPRMC,222956.000,A,3259.5411,N,11705.0054,W,66.09,350.51,60410,,,A*73
$GPRMC,222959.000,A,3259.5955,N,11705.0131,W,66.58,354.38,60410,,,A*7C
$GPRMC,223002.000,A,3259.6518,N,11705.0147,W,68.04,359.65,60410,,,A*7F
$GPRMC,223005.000,A,3259.7091,N,11705.0109,W,69.50,03.52,60410,,,A*4F
$GPRMC,223008.000,A,3259.7693,N,11705.0038,W,72.41,05.98,60410,,,A*4F
$GPRMC,223011.000,A,3259.8288,N,11704.9928,W,72.90,10.20,60410,,,A*4D
$GPRMC,223015.000,A,3259.9102,N,11704.9697,W,75.81,15.47,60410,,,A*41
$GPRMC,223018.000,A,3259.9708,N,11704.9494,W,74.84,15.47,60410,,,A*45
$GPRMC,223021.000,A,3300.0297,N,11704.9294,W,71.93,15.82,60410,,,A*44
$GPRMC,223024.000,A,3300.0824,N,11704.9101,W,65.61,15.82,60410,,,A*44
$GPRMC,223027.000,A,3300.1314,N,11704.8911,W,62.21,16.52,60410,,,A*4B
$GPRMC,223030.000,A,3300.1803,N,11704.8734,W,61.72,16.17,60410,,,A*4D
$GPRMC,223033.000,A,3300.2305,N,11704.8570,W,62.69,15.12,60410,,,A*4D
$GPRMC,223035.000,A,3300.2649,N,11704.8474,W,63.66,13.36,60410,,,A*4D
$GPRMC,223038.000,A,3300.3168,N,11704.8348,W,64.15,11.60,60410,,,A*4F
$GPRMC,223044.000,A,3300.4236,N,11704.8145,W,64.15,07.38,60410,,,A*4E
$GPRMC,223105.000,A,3300.7986,N,11704.7698,W,66.58,05.62,60410,,,A*47
$GPRMC,223108.000,A,3300.8543,N,11704.7627,W,67.07,05.98,60410,,,A*4A
$GPRMC,223111.000,A,3300.9103,N,11704.7556,W,67.07,05.98,60410,,,A*46
$GPRMC,223114.000,A,3300.9666,N,11704.7495,W,67.07,05.27,60410,,,A*4D
$GPRMC,223117.000,A,3301.0210,N,11704.7431,W,65.61,04.92,60410,,,A*40
$GPRMC,223120.000,A,3301.0760,N,11704.7386,W,65.12,04.92,60410,,,A*49
$GPRMC,223123.000,A,3301.1279,N,11704.7324,W,61.72,05.27,60410,,,A*43
$GPRMC,223126.000,A,3301.1794,N,11704.7263,W,62.21,05.27,60410,,,A*47
$GPRMC,223129.000,A,3301.2315,N,11704.7205,W,63.18,04.92,60410,,,A*42
$GPRMC,223132.000,A,3301.2843,N,11704.7164,W,63.66,03.87,60410,,,A*4E
$GPRMC,223135.000,A,3301.3380,N,11704.7151,W,63.18,01.41,60410,,,A*4B
$GPRMC,223138.000,A,3301.3892,N,11704.7141,W,62.69,00.35,60410,,,A*4A
$GPRMC,223141.000,A,3301.4423,N,11704.7151,W,63.18,00.00,60410,,,A*45
$GPRMC,223144.000,A,3301.4961,N,11704.7151,W,63.66,00.35,60410,,,A*44
$GPRMC,223147.000,A,3301.5482,N,11704.7160,W,63.18,359.65,60410,,,A*77
$GPRMC,223150.000,A,3301.6007,N,11704.7154,W,63.18,00.00,60410,,,A*40
$GPRMC,223153.000,A,3301.6528,N,11704.7144,W,62.69,00.70,60410,,,A*4A
$GPRMC,223156.000,A,3301.7034,N,11704.7135,W,61.23,00.70,60410,,,A*4D
$GPRMC,223159.000,A,3301.7555,N,11704.7102,W,62.21,03.52,60410,,,A*46
$GPRMC,223200.000,A,3301.7726,N,11704.7086,W,62.69,04.57,60410,,,A*4C
$GPRMC,223205.000,A,3301.8575,N,11704.6961,W,60.75,08.79,60410,,,A*4C
$GPRMC,223209.000,A,3301.9248,N,11704.6800,W,62.69,13.36,60410,,,A*40
$GPRMC,223210.000,A,3301.9415,N,11704.6748,W,63.18,14.06,60410,,,A*46
$GPRMC,223215.000,A,3302.0243,N,11704.6436,W,62.69,18.98,60410,,,A*4A
$GPRMC,223218.000,A,3302.0732,N,11704.6227,W,63.18,18.98,60410,,,A*45
$GPRMC,223222.000,A,3302.1398,N,11704.5944,W,64.64,19.34,60410,,,A*4F
$GPRMC,223230.000,A,3302.2753,N,11704.5380,W,65.12,19.34,60410,,,A*4E
$GPRMC,223233.000,A,3302.3271,N,11704.5165,W,65.12,18.98,60410,,,A*47
$GPRMC,223243.000,A,3302.5016,N,11704.4441,W,65.61,18.98,60410,,,A*43
$GPRMC,223246.000,A,3302.5534,N,11704.4225,W,65.61,18.98,60410,,,A*47
$GPRMC,223249.000,A,3302.6039,N,11704.4016,W,65.13,18.63,60410,,,A*40
$GPRMC,223252.000,A,3302.6564,N,11704.3829,W,65.61,14.41,60410,,,A*4D
$GPRMC,223255.000,A,3302.7092,N,11704.3684,W,64.64,11.60,60410,,,A*4C
$GPRMC,223258.000,A,3302.7636,N,11704.3594,W,63.66,06.33,60410,,,A*4E
$GPRMC,223301.000,A,3302.8151,N,11704.3565,W,61.72,01.76,60410,,,A*45
$GPRMC,223304.000,A,3302.8698,N,11704.3588,W,63.66,358.24,60410,,,A*7E
$GPRMC,223305.000,A,3302.8888,N,11704.3597,W,66.09,358.59,60410,,,A*78
$GPRMC,223310.000,A,3302.9834,N,11704.3626,W,69.50,359.30,60410,,,A*7E
$GPRMC,223313.000,A,3303.0442,N,11704.3620,W,71.93,01.41,60410,,,A*40
$GPRMC,223320.000,A,3303.1810,N,11704.3407,W,71.93,10.20,60410,,,A*4A
$GPRMC,223323.000,A,3303.2399,N,11704.3253,W,72.41,13.01,60410,,,A*4B
$GPRMC,223326.000,A,3303.2950,N,11704.3060,W,70.47,16.17,60410,,,A*45
$GPRMC,223327.000,A,3303.3127,N,11704.2989,W,69.98,16.88,60410,,,A*4E
$GPRMC,223337.000,A,3303.4723,N,11704.2197,W,61.72,22.15,60410,,,A*42
$GPRMC,223340.000,A,3303.5193,N,11704.1969,W,61.72,20.74,60410,,,A*41
$GPRMC,223343.000,A,3303.5682,N,11704.1769,W,61.72,18.28,60410,,,A*49
$GPRMC,223346.000,A,3303.6172,N,11704.1595,W,61.23,15.82,60410,,,A*4F
$GPRMC,223349.000,A,3303.6690,N,11704.1460,W,62.69,11.95,60410,,,A*4F
$GPRMC,223352.000,A,3303.7205,N,11704.1357,W,61.72,09.14,60410,,,A*46
$GPRMC,223355.000,A,3303.7717,N,11704.1280,W,59.78,05.27,60410,,,A*41
$GPRMC,223358.000,A,3303.8219,N,11704.1235,W,60.75,02.46,60410,,,A*41
$GPRMC,223401.000,A,3303.8730,N,11704.1222,W,61.23,00.35,60410,,,A*46
$GPRMC,223404.000,A,3303.9236,N,11704.1238,W,60.75,358.59,60410,,,A*7C
$GPRMC,223407.000,A,3303.9757,N,11704.1302,W,59.78,354.02,60410,,,A*70
$GPRMC,223410.000,A,3304.0263,N,11704.1364,W,60.26,353.67,60410,,,A*7F
$GPRMC,223413.000,A,3304.0765,N,11704.1428,W,60.75,353.67,60410,,,A*76
$GPRMC,223416.000,A,3304.1257,N,11704.1505,W,60.27,352.27,60410,,,A*7A
$GPRMC,223419.000,A,3304.1746,N,11704.1573,W,59.29,353.32,60410,,,A*70
$GPRMC,223422.000,A,3304.2232,N,11704.1637,W,58.81,353.67,60410,,,A*7D
$GPRMC,223425.000,A,3304.2734,N,11704.1708,W,59.78,353.67,60410,,,A*73
$GPRMC,223428.000,A,3304.3217,N,11704.1779,W,59.29,353.32,60410,,,A*79
$GPRMC,223431.000,A,3304.3723,N,11704.1846,W,59.78,353.32,60410,,,A*74
$GPRMC,223434.000,A,3304.4212,N,11704.1917,W,58.81,352.62,60410,,,A*77
$GPRMC,223437.000,A,3304.4695,N,11704.1994,W,57.83,352.62,60410,,,A*79
$GPRMC,223440.000,A,3304.5155,N,11704.2072,W,56.37,351.56,60410,,,A*7B
$GPRMC,223443.000,A,3304.5622,N,11704.2159,W,56.37,349.80,60410,,,A*75
$GPRMC,223446.000,A,3304.6127,N,11704.2294,W,58.32,347.34,60410,,,A*79
$GPRMC,223449.000,A,3304.6590,N,11704.2426,W,57.35,344.53,60410,,,A*7B
$GPRMC,223452.000,A,3304.7041,N,11704.2628,W,57.35,339.96,60410,,,A*76
$GPRMC,223455.000,A,3304.7488,N,11704.2828,W,57.35,340.66,60410,,,A*7F
$GPRMC,223458.000,A,3304.7952,N,11704.3034,W,60.82,337.50,60410,,,A*71
$GPRMC,223501.000,A,3304.8428,N,11704.3279,W,62.70,336.80,60410,,,A*7B
$GPRMC,223504.000,A,3304.8885,N,11704.3533,W,60.82,335.04,60410,,,A*7C
$GPRMC,223507.000,A,3304.9336,N,11704.3790,W,60.27,333.98,60410,,,A*7A
$GPRMC,223510.000,A,3304.9787,N,11704.4058,W,60.26,332.58,60410,,,A*7A
$GPRMC,223513.000,A,3305.0195,N,11704.4350,W,56.37,330.12,60410,,,A*76
$GPRMC,223516.000,A,3305.0569,N,11704.4627,W,51.04,328.01,60410,,,A*7D
$GPRMC,223519.000,A,3305.0932,N,11704.4904,W,49.57,327.30,60410,,,A*7C
$GPRMC,223522.000,A,3305.1232,N,11704.5152,W,42.28,326.25,60410,,,A*72
$GPRMC,223525.000,A,3305.1492,N,11704.5364,W,38.88,325.20,60410,,,A*7F
$GPRMC,223528.000,A,3305.1734,N,11704.5593,W,40.35,322.38,60410,,,A*74
$GPRMC,223531.000,A,3305.1998,N,11704.5834,W,41.31,321.68,60410,,,A*77
$GPRMC,223534.000,A,3305.2246,N,11704.6082,W,38.88,320.62,60410,,,A*78
$GPRMC,223537.000,A,3305.2484,N,11704.6330,W,38.39,319.57,60410,,,A*7F
$GPRMC,223540.000,A,3305.2732,N,11704.6587,W,39.36,318.52,60410,,,A*71
$GPRMC,223543.000,A,3305.2941,N,11704.6826,W,36.93,318.87,60410,,,A*76
$GPRMC,223546.000,A,3305.3156,N,11704.7070,W,36.93,317.46,60410,,,A*74
$GPRMC,223549.000,A,3305.3379,N,11704.7302,W,36.45,318.16,60410,,,A*73
$GPRMC,223552.000,A,3305.3594,N,11704.7524,W,35.98,319.22,60410,,,A*7B
$GPRMC,223555.000,A,3305.3781,N,11704.7736,W,29.65,318.16,60410,,,A*72
$GPRMC,223558.000,A,3305.3935,N,11704.7904,W,22.84,317.81,60410,,,A*74
$GPRMC,223601.000,A,3305.4071,N,11704.8039,W,19.44,318.16,60410,,,A*78
$GPRMC,223604.000,A,3305.4186,N,11704.8171,W,19.44,317.11,60410,,,A*71
$GPRMC,223607.000,A,3305.4338,N,11704.8335,W,27.22,318.16,60410,,,A*72
$GPRMC,223610.000,A,3305.4511,N,11704.8515,W,27.70,317.11,60410,,,A*72
$GPRMC,223613.000,A,3305.4669,N,11704.8702,W,26.73,318.16,60410,,,A*73
$GPRMC,223616.000,A,3305.4846,N,11704.8857,W,24.79,320.98,60410,,,A*7F
$GPRMC,223619.000,A,3305.4978,N,11704.9014,W,23.33,318.87,60410,,,A*7E
$GPRMC,223622.000,A,3305.5101,N,11704.9140,W,19.93,320.27,60410,,,A*73
$GPRMC,223625.000,A,3305.5191,N,11704.9259,W,18.47,315.70,60410,,,A*7A
$GPRMC,223628.000,A,3305.5313,N,11704.9413,W,22.36,313.59,60410,,,A*75
$GPRMC,223631.000,A,3305.5516,N,11704.9606,W,27.70,317.81,60410,,,A*7E
$GPRMC,223634.000,A,3305.5680,N,11704.9764,W,22.84,319.57,60410,,,A*79
$GPRMC,223637.000,A,3305.5796,N,11704.9890,W,18.95,320.27,60410,,,A*7C
$GPRMC,223640.000,A,3305.5873,N,11704.9980,W,14.58,318.16,60410,,,A*7C
$GPRMC,223643.000,A,3305.5979,N,11705.0089,W,16.52,318.16,60410,,,A*74
$GPRMC,223646.000,A,3305.6069,N,11705.0192,W,15.07,317.46,60410,,,A*78
$GPRMC,223649.000,A,3305.6192,N,11705.0311,W,18.47,316.76,60410,,,A*70
$GPRMC,223652.000,A,3305.6314,N,11705.0443,W,18.47,317.81,60410,,,A*7F
$GPRMC,223655.000,A,3305.6407,N,11705.0550,W,15.55,317.46,60410,,,A*7B
$GPRMC,223658.000,A,3305.6494,N,11705.0643,W,14.09,318.87,60410,,,A*77
$GPRMC,223701.000,A,3305.6581,N,11705.0752,W,15.55,315.00,60410,,,A*74
$GPRMC,223704.000,A,3305.6681,N,11705.0875,W,19.44,312.19,60410,,,A*7B
$GPRMC,223707.000,A,3305.6839,N,11705.1048,W,24.30,315.00,60410,,,A*70
$GPRMC,223710.000,A,3305.7016,N,11705.1216,W,25.27,318.16,60410,,,A*76
$GPRMC,223713.000,A,3305.7199,N,11705.1402,W,28.19,317.46,60410,,,A*7A
$GPRMC,223716.000,A,3305.7373,N,11705.1602,W,28.19,317.81,60410,,,A*70
$GPRMC,223719.000,A,3305.7531,N,11705.1776,W,24.79,319.22,60410,,,A*70
$GPRMC,223722.000,A,3305.7695,N,11705.1940,W,27.22,318.87,60410,,,A*7D
$GPRMC,223725.000,A,3305.7885,N,11705.2120,W,28.19,319.57,60410,,,A*73
$GPRMC,223728.000,A,3305.8068,N,11705.2288,W,28.67,320.98,60410,,,A*7B
$GPRMC,223731.000,A,3305.8261,N,11705.2481,W,30.13,320.27,60410,,,A*79
$GPRMC,223734.000,A,3305.8441,N,11705.2655,W,25.78,322.73,60410,,,A*79
$GPRMC,223737.000,A,3305.8609,N,11705.2809,W,25.76,322.73,60410,,,A*7D
$GPRMC,223740.000,A,3305.8805,N,11705.2967,W,26.73,324.49,60410,,,A*7F
$GPRMC,223743.000,A,3305.9005,N,11705.3118,W,27.22,325.55,60410,,,A*7D
$GPRMC,223746.000,A,3305.9204,N,11705.3295,W,27.22,324.49,60410,,,A*71
$GPRMC,223749.000,A,3305.9365,N,11705.3421,W,23.33,327.30,60410,,,A*78
$GPRMC,223752.000,A,3305.9488,N,11705.3533,W,18.47,326.25,60410,,,A*7A
$GPRMC,223755.000,A,3305.9619,N,11705.3633,W,19.93,326.95,60410,,,A*77
$GPRMC,223758.000,A,3305.9787,N,11705.3752,W,24.79,326.60,60410,,,A*7A
$GPRMC,223801.000,A,3305.9996,N,11705.3881,W,28.19,329.06,60410,,,A*73
$GPRMC,223804.000,A,3306.0225,N,11705.4048,W,31.10,328.36,60410,,,A*76
$GPRMC,223807.000,A,3306.0492,N,11705.4222,W,34.03,331.52,60410,,,A*7C
$GPRMC,223810.000,A,3306.0749,N,11705.4370,W,33.53,332.58,60410,,,A*72
$GPRMC,223813.000,A,3306.0984,N,11705.4512,W,32.56,333.98,60410,,,A*75
$GPRMC,223816.000,A,3306.1226,N,11705.4637,W,32.56,335.04,60410,,,A*75
$GPRMC,223819.000,A,3306.1483,N,11705.4798,W,34.99,333.63,60410,,,A*75
$GPRMC,223822.000,A,3306.1776,N,11705.4975,W,38.88,333.28,60410,,,A*7A
$GPRMC,223825.000,A,3306.2072,N,11705.5146,W,39.36,334.34,60410,,,A*7A
$GPRMC,223828.000,A,3306.2326,N,11705.5291,W,33.05,334.69,60410,,,A*7E
$GPRMC,223831.000,A,3306.2526,N,11705.5416,W,27.22,333.63,60410,,,A*74
$GPRMC,223834.000,A,3306.2713,N,11705.5522,W,24.30,333.28,60410,,,A*7C
$GPRMC,223837.000,A,3306.2909,N,11705.5638,W,27.70,335.39,60410,,,A*73
$GPRMC,223840.000,A,3306.3115,N,11705.5754,W,29.65,333.98,60410,,,A*7B
$GPRMC,223843.000,A,3306.3334,N,11705.5876,W,27.70,334.34,60410,,,A*7D
$GPRMC,223846.000,A,3306.3524,N,11705.5992,W,26.73,333.28,60410,,,A*7C
$GPRMC,223849.000,A,3306.3765,N,11705.6124,W,33.05,333.98,60410,,,A*7C
$GPRMC,223852.000,A,3306.4023,N,11705.6282,W,34.99,333.28,60410,,,A*72
$GPRMC,223855.000,A,3306.4287,N,11705.6436,W,34.50,333.63,60410,,,A*7A
$GPRMC,223858.000,A,3306.4534,N,11705.6578,W,34.50,333.63,60410,,,A*73
$GPRMC,223900.000,A,3306.4699,N,11705.6675,W,35.48,333.98,60410,,,A*79
$GPRMC,223904.000,A,3306.5085,N,11705.6890,W,39.85,333.98,60410,,,A*7F
$GPRMC,223906.000,A,3306.5288,N,11705.7009,W,40.34,333.63,60410,,,A*7B
$GPRMC,223909.000,A,3306.5609,N,11705.7186,W,41.79,334.34,60410,,,A*72
$GPRMC,223915.000,A,3306.6256,N,11705.7560,W,44.22,333.98,60410,,,A*74
$GPRMC,223918.000,A,3306.6614,N,11705.7766,W,48.11,333.98,60410,,,A*73
$GPRMC,223921.000,A,3306.6993,N,11705.7994,W,52.00,333.63,60410,,,A*75
$GPRMC,223923.000,A,3306.7267,N,11705.8149,W,53.46,333.98,60410,,,A*76
$GPRMC,223933.000,A,3306.8629,N,11705.8950,W,56.37,332.58,60410,,,A*78
$GPRMC,223938.000,A,3306.9395,N,11705.9391,W,60.75,333.98,60410,,,A*78
$GPRMC,223941.000,A,3306.9861,N,11705.9668,W,62.21,333.63,60410,,,A*72
$GPRMC,223944.000,A,3307.0334,N,11705.9948,W,63.66,333.28,60410,,,A*74
$GPRMC,223947.000,A,3307.0817,N,11706.0234,W,64.15,333.63,60410,,,A*7B
$GPRMC,223950.000,A,3307.1306,N,11706.0524,W,64.64,333.63,60410,,,A*77
$GPRMC,223953.000,A,3307.1792,N,11706.0817,W,66.09,333.63,60410,,,A*79
$GPRMC,223956.000,A,3307.2291,N,11706.1104,W,67.07,333.98,60410,,,A*78
$GPRMC,223959.000,A,3307.2793,N,11706.1393,W,67.55,333.98,60410,,,A*7B
$GPRMC,224002.000,A,3307.3308,N,11706.1696,W,68.52,333.63,60410,,,A*70
$GPRMC,224005.000,A,3307.3827,N,11706.1976,W,69.02,336.80,60410,,,A*7C
$GPRMC,224008.000,A,3307.4351,N,11706.2224,W,69.50,339.96,60410,,,A*7C
$GPRMC,224011.000,A,3307.4911,N,11706.2449,W,70.47,342.42,60410,,,A*7C
$GPRMC,224014.000,A,3307.5475,N,11706.2645,W,70.47,344.18,60410,,,A*70
$GPRMC,224017.000,A,3307.6054,N,11706.2793,W,70.95,347.70,60410,,,A*7F
$GPRMC,224020.000,A,3307.6646,N,11706.2909,W,71.44,349.80,60410,,,A*7F
$GPRMC,224023.000,A,3307.7238,N,11706.3015,W,72.41,352.27,60410,,,A*74
$GPRMC,224026.000,A,3307.7821,N,11706.3073,W,69.99,356.13,60410,,,A*7F
$GPRMC,224029.000,A,3307.8404,N,11706.3106,W,70.47,358.59,60410,,,A*7C
$GPRMC,224032.000,A,3307.8983,N,11706.3093,W,69.99,01.76,60410,,,A*40
$GPRMC,224035.000,A,3307.9565,N,11706.3057,W,69.98,02.81,60410,,,A*40
$GPRMC,224038.000,A,3308.0154,N,11706.3025,W,69.50,02.46,60410,,,A*47
$GPRMC,224041.000,A,3308.0731,N,11706.2996,W,68.52,02.46,60410,,,A*4F
$GPRMC,224044.000,A,3308.1304,N,11706.2970,W,68.52,02.46,60410,,,A*41
$GPRMC,224047.000,A,3308.1880,N,11706.2941,W,69.01,02.46,60410,,,A*40
$GPRMC,224050.000,A,3308.2459,N,11706.2916,W,69.98,02.46,60410,,,A*4F
$GPRMC,224053.000,A,3308.3038,N,11706.2883,W,68.52,02.46,60410,,,A*44
$GPRMC,224056.000,A,3308.3605,N,11706.2854,W,69.50,02.46,60410,,,A*40
$GPRMC,224059.000,A,3308.4187,N,11706.2825,W,69.50,02.46,60410,,,A*43
$GPRMC,224102.000,A,3308.4770,N,11706.2793,W,69.50,02.46,60410,,,A*40
$GPRMC,224105.000,A,3308.5349,N,11706.2764,W,69.98,02.46,60410,,,A*44
$GPRMC,224108.000,A,3308.5935,N,11706.2729,W,70.47,02.46,60410,,,A*4B
$GPRMC,224111.000,A,3308.6524,N,11706.2700,W,70.47,02.46,60410,,,A*47
$GPRMC,224114.000,A,3308.7113,N,11706.2671,W,70.96,02.46,60410,,,A*48
$GPRMC,224117.000,A,3308.7699,N,11706.2639,W,69.50,02.81,60410,,,A*4B
$GPRMC,224120.000,A,3308.8269,N,11706.2603,W,68.53,02.46,60410,,,A*4B
$GPRMC,224123.000,A,3308.8845,N,11706.2574,W,69.50,02.46,60410,,,A*4D
$GPRMC,224126.000,A,3308.9427,N,11706.2539,W,70.47,02.46,60410,,,A*46
$GPRMC,224129.000,A,3309.0013,N,11706.2510,W,69.50,02.46,60410,,,A*47
$GPRMC,224132.000,A,3309.0589,N,11706.2481,W,69.02,02.46,60410,,,A*45
$GPRMC,224135.000,A,3309.1159,N,11706.2452,W,68.04,02.46,60410,,,A*43
$GPRMC,224138.000,A,3309.1722,N,11706.2423,W,67.07,02.46,60410,,,A*4E
$GPRMC,224141.000,A,3309.2276,N,11706.2397,W,66.59,02.11,60410,,,A*47
$GPRMC,224144.000,A,3309.2836,N,11706.2381,W,67.09,01.05,60410,,,A*49
$GPRMC,224147.000,A,3309.3399,N,11706.2385,W,68.07,358.24,60410,,,A*7C
$GPRMC,224150.000,A,3309.3963,N,11706.2423,W,68.55,355.08,60410,,,A*7A
$GPRMC,224153.000,A,3309.4535,N,11706.2491,W,69.02,353.67,60410,,,A*74
$GPRMC,224156.000,A,3309.5112,N,11706.2584,W,69.50,351.56,60410,,,A*73
$GPRMC,224159.000,A,3309.5684,N,11706.2700,W,70.01,348.40,60410,,,A*79
$GPRMC,224202.000,A,3309.6261,N,11706.2871,W,70.01,344.88,60410,,,A*79
$GPRMC,224205.000,A,3309.6821,N,11706.3067,W,70.01,342.42,60410,,,A*7E
$GPRMC,224208.000,A,3309.7368,N,11706.3292,W,70.01,339.61,60410,,,A*71
$GPRMC,224211.000,A,3309.7912,N,11706.3553,W,69.50,337.50,60410,,,A*74
$GPRMC,224214.000,A,3309.8443,N,11706.3823,W,68.52,336.45,60410,,,A*7B
$GPRMC,224217.000,A,3309.8942,N,11706.4107,W,66.58,334.69,60410,,,A*74
$GPRMC,224220.000,A,3309.9434,N,11706.4412,W,67.07,331.17,60410,,,A*7B
$GPRMC,224223.000,A,3309.9940,N,11706.4708,W,67.07,333.28,60410,,,A*70
$GPRMC,224226.000,A,3310.0451,N,11706.4998,W,67.56,333.98,60410,,,A*71
$GPRMC,224229.000,A,3310.0963,N,11706.5307,W,68.52,333.63,60410,,,A*70
$GPRMC,224232.000,A,3310.1484,N,11706.5616,W,69.50,333.63,60410,,,A*79
$GPRMC,224235.000,A,3310.1999,N,11706.5922,W,69.98,333.63,60410,,,A*73
$GPRMC,224238.000,A,3310.2534,N,11706.6218,W,70.95,334.34,60410,,,A*77
$GPRMC,224241.000,A,3310.3078,N,11706.6521,W,71.93,333.98,60410,,,A*7E
$GPRMC,224244.000,A,3310.3615,N,11706.6829,W,72.41,333.98,60410,,,A*7F
$GPRMC,224247.000,A,3310.4169,N,11706.7145,W,73.38,333.98,60410,,,A*7A
$GPRMC,224250.000,A,3310.4722,N,11706.7460,W,73.38,334.34,60410,,,A*76
$GPRMC,224253.000,A,3310.5279,N,11706.7779,W,73.87,334.34,60410,,,A*70
$GPRMC,224256.000,A,3310.5836,N,11706.8104,W,73.88,333.63,60410,,,A*7D
$GPRMC,224259.000,A,3310.6383,N,11706.8429,W,73.39,332.93,60410,,,A*7A
$GPRMC,224302.000,A,3310.6934,N,11706.8751,W,72.90,333.63,60410,,,A*73
$GPRMC,224305.000,A,3310.7474,N,11706.9073,W,71.93,333.63,60410,,,A*7A
$GPRMC,224308.000,A,3310.8005,N,11706.9388,W,71.44,333.63,60410,,,A*77
$GPRMC,224311.000,A,3310.8530,N,11706.9694,W,69.98,333.63,60410,,,A*7C
$GPRMC,224314.000,A,3310.9039,N,11706.9968,W,64.67,334.34,60410,,,A*70
$GPRMC,224317.000,A,3310.9509,N,11707.0235,W,60.76,334.34,60410,,,A*7A
$GPRMC,224320.000,A,3310.9950,N,11707.0483,W,56.87,334.34,60410,,,A*7E
$GPRMC,224323.000,A,3311.0374,N,11707.0727,W,55.41,333.98,60410,,,A*7C
$GPRMC,224326.000,A,3311.0799,N,11707.0969,W,55.90,333.98,60410,,,A*76
$GPRMC,224329.000,A,3311.1227,N,11707.1213,W,56.37,334.34,60410,,,A*70
$GPRMC,224332.000,A,3311.1662,N,11707.1474,W,58.32,333.98,60410,,,A*72
$GPRMC,224335.000,A,3311.2112,N,11707.1725,W,60.26,334.34,60410,,,A*7E
$GPRMC,224338.000,A,3311.2586,N,11707.1995,W,63.18,333.98,60410,,,A*70
$GPRMC,224341.000,A,3311.3072,N,11707.2272,W,64.15,334.34,60410,,,A*7B
$GPRMC,224344.000,A,3311.3564,N,11707.2555,W,66.09,333.98,60410,,,A*70
$GPRMC,224345.000,A,3311.3731,N,11707.2655,W,65.61,333.98,60410,,,A*7D
$GPRMC,224413.000,A,3311.8205,N,11707.5233,W,61.72,333.98,60410,,,A*75
$GPRMC,224416.000,A,3311.8666,N,11707.5497,W,60.75,334.34,60410,,,A*7E
$GPRMC,224422.000,A,3311.9586,N,11707.6032,W,63.66,333.98,60410,,,A*7D
$GPRMC,224425.000,A,3312.0075,N,11707.6308,W,65.61,333.63,60410,,,A*76
$GPRMC,224439.000,A,3312.2354,N,11707.7754,W,67.07,330.47,60410,,,A*72
$GPRMC,224442.000,A,3312.2811,N,11707.8072,W,64.64,329.77,60410,,,A*75
$GPRMC,224445.000,A,3312.3268,N,11707.8378,W,63.18,329.77,60410,,,A*72
$GPRMC,224447.000,A,3312.3584,N,11707.8590,W,64.15,329.77,60410,,,A*7F
$GPRMC,224452.000,A,3312.4353,N,11707.9131,W,65.12,328.71,60410,,,A*7F
$GPRMC,224455.000,A,3312.4810,N,11707.9482,W,65.61,328.01,60410,,,A*7A
$GPRMC,224458.000,A,3312.5286,N,11707.9826,W,66.09,328.36,60410,,,A*78
$GPRMC,224501.000,A,3312.5753,N,11708.0164,W,66.09,328.71,60410,,,A*72
$GPRMC,224504.000,A,3312.6213,N,11708.0512,W,65.12,328.36,60410,,,A*7A
$GPRMC,224505.000,A,3312.6371,N,11708.0628,W,65.61,328.36,60410,,,A*70
$GPRMC,224514.000,A,3312.7771,N,11708.1690,W,68.52,328.01,60410,,,A*7E
$GPRMC,224517.000,A,3312.8273,N,11708.2047,W,69.98,328.71,60410,,,A*7A
$GPRMC,224520.000,A,3312.8756,N,11708.2427,W,70.95,328.01,60410,,,A*7C
$GPRMC,224523.000,A,3312.9265,N,11708.2804,W,70.95,328.36,60410,,,A*72
$GPRMC,224524.000,A,3312.9432,N,11708.2926,W,70.47,328.36,60410,,,A*7F
$GPRMC,224532.000,A,3313.0745,N,11708.3872,W,70.47,329.41,60410,,,A*73
$GPRMC,224535.000,A,3313.1280,N,11708.4226,W,72.41,330.82,60410,,,A*76
$GPRMC,224536.000,A,3313.1463,N,11708.4339,W,72.41,331.88,60410,,,A*7A
$GPRMC,224541.000,A,3313.2351,N,11708.4880,W,71.93,333.63,60410,,,A*7D
$GPRMC,224551.000,A,3313.4192,N,11708.5842,W,73.87,337.85,60410,,,A*73
$GPRMC,224609.000,A,3313.7472,N,11708.7265,W,69.01,339.96,60410,,,A*71
$GPRMC,224612.000,A,3313.8023,N,11708.7496,W,71.44,339.96,60410,,,A*76
$GPRMC,224614.000,A,3313.8399,N,11708.7661,W,72.41,340.31,60410,,,A*7D
$GPRMC,224617.000,A,3313.8972,N,11708.7912,W,73.87,339.96,60410,,,A*72
$GPRMC,224621.000,A,3313.9745,N,11708.8246,W,73.87,340.31,60410,,,A*7A
$GPRMC,224624.000,A,3314.0327,N,11708.8491,W,74.36,340.31,60410,,,A*70
$GPRMC,224627.000,A,3314.0910,N,11708.8742,W,73.87,339.96,60410,,,A*7E
$GPRMC,224630.000,A,3314.1476,N,11708.8983,W,71.44,340.31,60410,,,A*79
$GPRMC,224633.000,A,3314.2027,N,11708.9218,W,70.47,339.96,60410,,,A*70
$GPRMC,224636.000,A,3314.2577,N,11708.9460,W,70.95,340.31,60410,,,A*70
$GPRMC,224639.000,A,3314.3134,N,11708.9704,W,71.44,339.96,60410,,,A*72
$GPRMC,224643.000,A,3314.3874,N,11709.0020,W,70.95,340.31,60410,,,A*75
$GPRMC,224646.000,A,3314.4431,N,11709.0258,W,70.95,339.96,60410,,,A*74
$GPRMC,224648.000,A,3314.4804,N,11709.0409,W,70.47,340.66,60410,,,A*7C
$GPRMC,224652.000,A,3314.5490,N,11709.0709,W,60.26,339.96,60410,,,A*73
$GPRMC,224655.000,A,3314.5950,N,11709.0908,W,58.32,339.96,60410,,,A*74
$GPRMC,224657.000,A,3314.6259,N,11709.1047,W,59.78,339.61,60410,,,A*73
$GPRMC,224701.000,A,3314.6890,N,11709.1320,W,61.72,339.96,60410,,,A*75
$GPRMC,224704.000,A,3314.7386,N,11709.1536,W,63.66,339.96,60410,,,A*7B
$GPRMC,224709.000,A,3314.8261,N,11709.1903,W,66.58,339.61,60410,,,A*7B
$GPRMC,224713.000,A,3314.8972,N,11709.2209,W,67.55,339.96,60410,,,A*7F
$GPRMC,224725.000,A,3315.1129,N,11709.3119,W,70.95,339.96,60410,,,A*7D
$GPRMC,224738.000,A,3315.3514,N,11709.4133,W,66.58,340.31,60410,,,A*73
$GPRMC,224742.000,A,3315.4203,N,11709.4407,W,66.09,343.83,60410,,,A*74
$GPRMC,224747.000,A,3315.5120,N,11709.4674,W,69.98,346.29,60410,,,A*76
$GPRMC,224750.000,A,3315.5722,N,11709.4809,W,72.90,349.10,60410,,,A*77
$GPRMC,224753.000,A,3315.6343,N,11709.4919,W,74.84,351.21,60410,,,A*7C
$GPRMC,224756.000,A,3315.6955,N,11709.5015,W,72.90,354.38,60410,,,A*7E
$GPRMC,224759.000,A,3315.7550,N,11709.5041,W,71.44,357.89,60410,,,A*7B
$GPRMC,224802.000,A,3315.8146,N,11709.5047,W,70.95,00.35,60410,,,A*4B
$GPRMC,224805.000,A,3315.8735,N,11709.5025,W,70.95,02.81,60410,,,A*47
$GPRMC,224810.000,A,3315.9739,N,11709.4906,W,71.93,07.73,60410,,,A*48
$GPRMC,224817.000,A,3316.1068,N,11709.4597,W,69.50,13.71,60410,,,A*42
$GPRMC,224820.000,A,3316.1612,N,11709.4423,W,68.04,15.82,60410,,,A*49
$GPRMC,224823.000,A,3316.2156,N,11709.4220,W,68.52,17.93,60410,,,A*4A
$GPRMC,224826.000,A,3316.2684,N,11709.3998,W,65.64,20.39,60410,,,A*44
$GPRMC,224829.000,A,3316.3189,N,11709.3763,W,64.15,21.80,60410,,,A*4E
$GPRMC,224832.000,A,3316.3666,N,11709.3506,W,62.21,24.61,60410,,,A*48
$GPRMC,224835.000,A,3316.4103,N,11709.3248,W,60.26,25.66,60410,,,A*42
$GPRMC,224838.000,A,3316.4551,N,11709.2984,W,59.78,25.66,60410,,,A*47
$GPRMC,224841.000,A,3316.4976,N,11709.2730,W,58.80,26.02,60410,,,A*46
$GPRMC,224844.000,A,3316.5429,N,11709.2472,W,59.85,25.66,60410,,,A*45
$GPRMC,224847.000,A,3316.5877,N,11709.2209,W,60.33,26.02,60410,,,A*4D
$GPRMC,224850.000,A,3316.6337,N,11709.1945,W,60.82,25.66,60410,,,A*4C
$GPRMC,224853.000,A,3316.6791,N,11709.1681,W,59.29,26.02,60410,,,A*4A
$GPRMC,224856.000,A,3316.7261,N,11709.1410,W,61.79,25.66,60410,,,A*41
$GPRMC,224859.000,A,3316.7731,N,11709.1150,W,62.21,24.96,60410,,,A*4F
$GPRMC,224902.000,A,3316.8197,N,11709.0905,W,61.72,24.26,60410,,,A*42
$GPRMC,224905.000,A,3316.8677,N,11709.0651,W,62.72,22.85,60410,,,A*4E
$GPRMC,224908.000,A,3316.9173,N,11709.0429,W,61.26,19.34,60410,,,A*4C
$GPRMC,224911.000,A,3316.9643,N,11709.0239,W,59.29,18.28,60410,,,A*4F
$GPRMC,224914.000,A,3317.0106,N,11709.0068,W,58.84,15.82,60410,,,A*49
$GPRMC,224917.000,A,3317.0586,N,11708.9917,W,59.78,14.06,60410,,,A*40
$GPRMC,224920.000,A,3317.1072,N,11708.9791,W,60.29,10.90,60410,,,A*4E
$GPRMC,224923.000,A,3317.1577,N,11708.9688,W,61.24,08.79,60410,,,A*46
$GPRMC,224926.000,A,3317.2086,N,11708.9601,W,62.21,06.68,60410,,,A*42
$GPRMC,224929.000,A,3317.2626,N,11708.9550,W,63.67,03.87,60410,,,A*41
$GPRMC,224932.000,A,3317.3154,N,11708.9527,W,62.21,01.76,60410,,,A*47
$GPRMC,224935.000,A,3317.3676,N,11708.9547,W,62.21,358.24,60410,,,A*79
$GPRMC,224938.000,A,3317.4194,N,11708.9569,W,63.21,357.19,60410,,,A*74
$GPRMC,224941.000,A,3317.4725,N,11708.9608,W,64.18,357.19,60410,,,A*7F
$GPRMC,224944.000,A,3317.5259,N,11708.9640,W,63.67,357.19,60410,,,A*76
$GPRMC,224947.000,A,3317.5797,N,11708.9669,W,64.64,357.19,60410,,,A*7D
$GPRMC,224950.000,A,3317.6347,N,11708.9698,W,67.07,357.19,60410,,,A*79
$GPRMC,224953.000,A,3317.6904,N,11708.9730,W,65.61,357.19,60410,,,A*76
$GPRMC,224956.000,A,3317.7438,N,11708.9759,W,63.66,357.19,60410,,,A*7E
$GPRMC,224959.000,A,3317.7973,N,11708.9788,W,63.66,357.19,60410,,,A*7F
$GPRMC,225002.000,A,3317.8500,N,11708.9817,W,64.15,357.19,60410,,,A*74
$GPRMC,225005.000,A,3317.9057,N,11708.9843,W,67.07,357.19,60410,,,A*74
$GPRMC,225009.000,A,3317.9823,N,11708.9878,W,69.50,356.84,60410,,,A*72
$GPRMC,225011.000,A,3318.0213,N,11708.9907,W,69.98,357.19,60410,,,A*7C
$GPRMC,225014.000,A,3318.0808,N,11708.9946,W,71.44,357.19,60410,,,A*74
$GPRMC,225021.000,A,3318.2228,N,11709.0020,W,72.41,357.54,60410,,,A*76
$GPRMC,225022.000,A,3318.2424,N,11709.0030,W,71.93,357.54,60410,,,A*72
$GPRMC,225034.000,A,3318.4719,N,11709.0213,W,68.04,353.67,60410,,,A*7F
$GPRMC,225040.000,A,3318.5810,N,11709.0425,W,66.58,348.75,60410,,,A*76
$GPRMC,225043.000,A,3318.6364,N,11709.0564,W,67.07,347.34,60410,,,A*7B
$GPRMC,225046.000,A,3318.6888,N,11709.0760,W,67.07,343.48,60410,,,A*7E
$GPRMC,225049.000,A,3318.7442,N,11709.0976,W,69.98,341.72,60410,,,A*70
$GPRMC,225052.000,A,3318.8015,N,11709.1220,W,71.93,339.61,60410,,,A*75
$GPRMC,225055.000,A,3318.8575,N,11709.1484,W,71.93,337.50,60410,,,A*75
$GPRMC,225056.000,A,3318.8752,N,11709.1587,W,71.44,335.74,60410,,,A*7D
$GPRMC,225104.000,A,3319.0100,N,11709.2424,W,69.01,332.58,60410,,,A*79
$GPRMC,225110.000,A,3319.1146,N,11709.3097,W,73.87,331.52,60410,,,A*7E
$GPRMC,225111.000,A,3319.1333,N,11709.3210,W,74.84,331.88,60410,,,A*71
$GPRMC,225117.000,A,3319.2453,N,11709.3914,W,77.76,332.58,60410,,,A*7A
$GPRMC,225120.000,A,3319.3023,N,11709.4259,W,77.76,335.04,60410,,,A*77
$GPRMC,225123.000,A,3319.3622,N,11709.4552,W,78.24,338.20,60410,,,A*7C
$GPRMC,225124.000,A,3319.3811,N,11709.4639,W,77.27,339.26,60410,,,A*70
$GPRMC,225129.000,A,3319.4845,N,11709.5047,W,78.73,343.83,60410,,,A*79
$GPRMC,225137.000,A,3319.6538,N,11709.5418,W,76.79,352.27,60410,,,A*77
$GPRMC,225140.000,A,3319.7172,N,11709.5472,W,75.81,356.48,60410,,,A*79
$GPRMC,225143.000,A,3319.7787,N,11709.5501,W,73.38,358.59,60410,,,A*79
$GPRMC,225146.000,A,3319.8385,N,11709.5495,W,71.93,00.70,60410,,,A*4F
$GPRMC,225149.000,A,3319.8974,N,11709.5485,W,70.47,00.70,60410,,,A*4D
$GPRMC,225152.000,A,3319.9544,N,11709.5466,W,67.55,01.05,60410,,,A*42
$GPRMC,225155.000,A,3320.0104,N,11709.5453,W,68.04,00.70,60410,,,A*48
$GPRMC,225158.000,A,3320.0667,N,11709.5440,W,68.52,01.05,60410,,,A*45
$GPRMC,225201.000,A,3320.1243,N,11709.5430,W,70.47,00.70,60410,,,A*40
$GPRMC,225204.000,A,3320.1836,N,11709.5418,W,70.95,00.70,60410,,,A*48
$GPRMC,225207.000,A,3320.2415,N,11709.5414,W,68.52,00.70,60410,,,A*4B
$GPRMC,225210.000,A,3320.2978,N,11709.5401,W,66.09,01.05,60410,,,A*4C
$GPRMC,225213.000,A,3320.3525,N,11709.5392,W,66.09,01.05,60410,,,A*47
$GPRMC,225216.000,A,3320.4085,N,11709.5382,W,67.55,00.70,60410,,,A*40
$GPRMC,225219.000,A,3320.4655,N,11709.5372,W,68.52,01.05,60410,,,A*40
$GPRMC,225222.000,A,3320.5228,N,11709.5363,W,69.50,00.70,60410,,,A*47
$GPRMC,225225.000,A,3320.5801,N,11709.5356,W,67.55,00.70,60410,,,A*4C
$GPRMC,225228.000,A,3320.6358,N,11709.5353,W,65.12,00.70,60410,,,A*41
$GPRMC,225231.000,A,3320.6905,N,11709.5344,W,66.09,00.70,60410,,,A*44
$GPRMC,225234.000,A,3320.7455,N,11709.5334,W,66.10,00.70,60410,,,A*47
$GPRMC,225237.000,A,3320.8015,N,11709.5324,W,68.04,00.35,60410,,,A*40
$GPRMC,225240.000,A,3320.8585,N,11709.5318,W,67.55,00.70,60410,,,A*49
$GPRMC,225243.000,A,3320.9139,N,11709.5305,W,66.58,00.70,60410,,,A*48
$GPRMC,225246.000,A,3320.9702,N,11709.5298,W,68.52,00.70,60410,,,A*42
$GPRMC,225249.000,A,3321.0281,N,11709.5286,W,69.50,01.05,60410,,,A*44
$GPRMC,225252.000,A,3321.0870,N,11709.5282,W,70.95,00.35,60410,,,A*4D
$GPRMC,225255.000,A,3321.1472,N,11709.5276,W,72.90,01.05,60410,,,A*4B
$GPRMC,225258.000,A,3321.2087,N,11709.5260,W,74.36,01.05,60410,,,A*46
$GPRMC,225301.000,A,3321.2708,N,11709.5250,W,74.36,00.70,60410,,,A*4B
$GPRMC,225304.000,A,3321.3339,N,11709.5247,W,75.33,00.00,60410,,,A*4C
$GPRMC,225307.000,A,3321.3960,N,11709.5257,W,71.93,357.89,60410,,,A*76
$GPRMC,225310.000,A,3321.4565,N,11709.5302,W,71.93,355.78,60410,,,A*73
$GPRMC,225313.000,A,3321.5164,N,11709.5379,W,71.44,353.32,60410,,,A*7A
$GPRMC,225316.000,A,3321.5753,N,11709.5492,W,70.98,349.80,60410,,,A*7D
$GPRMC,225319.000,A,3321.6329,N,11709.5630,W,70.98,347.70,60410,,,A*73
$GPRMC,225322.000,A,3321.6905,N,11709.5801,W,70.96,345.23,60410,,,A*79
$GPRMC,225325.000,A,3321.7472,N,11709.5990,W,70.49,342.42,60410,,,A*79
$GPRMC,225328.000,A,3321.8025,N,11709.6209,W,69.99,340.66,60410,,,A*74
$GPRMC,225331.000,A,3321.8569,N,11709.6460,W,69.98,338.20,60410,,,A*74
$GPRMC,225334.000,A,3321.9100,N,11709.6769,W,69.50,334.69,60410,,,A*74
$GPRMC,225337.000,A,3321.9622,N,11709.7075,W,68.55,332.58,60410,,,A*7B
$GPRMC,225340.000,A,3322.0121,N,11709.7407,W,68.10,329.77,60410,,,A*72
$GPRMC,225343.000,A,3322.0604,N,11709.7761,W,67.58,327.66,60410,,,A*7F
$GPRMC,225346.000,A,3322.1064,N,11709.8137,W,67.09,325.20,60410,,,A*75
$GPRMC,225349.000,A,3322.1511,N,11709.8527,W,66.16,322.73,60410,,,A*76
$GPRMC,225352.000,A,3322.1942,N,11709.8939,W,65.19,319.92,60410,,,A*7E
$GPRMC,225355.000,A,3322.2351,N,11709.9360,W,64.22,318.16,60410,,,A*71
$GPRMC,225358.000,A,3322.2747,N,11709.9785,W,63.73,317.81,60410,,,A*72
$GPRMC,225401.000,A,3322.3133,N,11710.0210,W,63.25,317.81,60410,,,A*76
$GPRMC,225404.000,A,3322.3526,N,11710.0632,W,63.25,318.16,60410,,,A*76
$GPRMC,225407.000,A,3322.3919,N,11710.1044,W,62.76,319.92,60410,,,A*79
$GPRMC,225410.000,A,3322.4328,N,11710.1436,W,62.76,322.03,60410,,,A*71
$GPRMC,225413.000,A,3322.4743,N,11710.1810,W,62.27,324.49,60410,,,A*7F
$GPRMC,225416.000,A,3322.5177,N,11710.2161,W,62.27,326.25,60410,,,A*7E
$GPRMC,225419.000,A,3322.5628,N,11710.2499,W,65.13,328.36,60410,,,A*72
$GPRMC,225422.000,A,3322.6120,N,11710.2830,W,68.04,331.17,60410,,,A*79
$GPRMC,225425.000,A,3322.6645,N,11710.3142,W,69.98,333.28,60410,,,A*7D
$GPRMC,225428.000,A,3322.7186,N,11710.3432,W,70.98,336.45,60410,,,A*7D
$GPRMC,225431.000,A,3322.7746,N,11710.3686,W,70.49,339.26,60410,,,A*74
$GPRMC,225434.000,A,3322.8296,N,11710.3921,W,70.49,341.72,60410,,,A*7A
$GPRMC,225437.000,A,3322.8856,N,11710.4124,W,70.49,344.53,60410,,,A*73
$GPRMC,225440.000,A,3322.9423,N,11710.4291,W,70.04,347.34,60410,,,A*7A
$GPRMC,225443.000,A,3322.9996,N,11710.4436,W,69.56,349.45,60410,,,A*76
$GPRMC,225446.000,A,3323.0568,N,11710.4546,W,69.02,351.91,60410,,,A*71
$GPRMC,225449.000,A,3323.1141,N,11710.4620,W,69.02,354.38,60410,,,A*75
$GPRMC,225452.000,A,3323.1724,N,11710.4668,W,69.50,356.48,60410,,,A*74
$GPRMC,225455.000,A,3323.2294,N,11710.4684,W,69.04,358.95,60410,,,A*73
$GPRMC,225458.000,A,3323.2854,N,11710.4674,W,68.04,01.41,60410,,,A*40
$GPRMC,225501.000,A,3323.3420,N,11710.4642,W,68.10,03.16,60410,,,A*43
$GPRMC,225504.000,A,3323.3974,N,11710.4597,W,67.07,05.98,60410,,,A*48
$GPRMC,225507.000,A,3323.4527,N,11710.4504,W,64.70,09.49,60410,,,A*4F
$GPRMC,225510.000,A,3323.5010,N,11710.4398,W,54.92,12.30,60410,,,A*41
$GPRMC,225513.000,A,3323.5374,N,11710.4304,W,44.24,14.06,60410,,,A*49
$GPRMC,225516.000,A,3323.5702,N,11710.4195,W,41.31,16.17,60410,,,A*40
$GPRMC,225519.000,A,3323.6027,N,11710.4063,W,41.35,18.63,60410,,,A*4D
$GPRMC,225522.000,A,3323.6375,N,11710.3921,W,44.75,18.63,60410,,,A*48
$GPRMC,225525.000,A,3323.6729,N,11710.3780,W,44.27,19.34,60410,,,A*43
$GPRMC,225528.000,A,3323.7080,N,11710.3628,W,45.21,20.39,60410,,,A*48
$GPRMC,225531.000,A,3323.7431,N,11710.3464,W,43.78,22.50,60410,,,A*43
$GPRMC,225534.000,A,3323.7749,N,11710.3300,W,39.90,24.26,60410,,,A*43
$GPRMC,225537.000,A,3323.8045,N,11710.3139,W,39.41,24.96,60410,,,A*4B
$GPRMC,225540.000,A,3323.8345,N,11710.2972,W,39.85,26.37,60410,,,A*4F
$GPRMC,225543.000,A,3323.8641,N,11710.2772,W,40.82,29.88,60410,,,A*41
$GPRMC,225546.000,A,3323.8950,N,11710.2569,W,42.28,28.83,60410,,,A*4B
$GPRMC,225549.000,A,3323.9291,N,11710.2376,W,42.81,27.77,60410,,,A*4C
$GPRMC,225552.000,A,3323.9606,N,11710.2180,W,42.81,29.18,60410,,,A*40
$GPRMC,225555.000,A,3323.9922,N,11710.1971,W,43.30,29.18,60410,,,A*40
$GPRMC,225558.000,A,3324.0247,N,11710.1749,W,42.81,30.23,60410,,,A*45
$GPRMC,225601.000,A,3324.0566,N,11710.1530,W,43.75,30.94,60410,,,A*44
$GPRMC,225604.000,A,3324.0900,N,11710.1298,W,47.14,29.88,60410,,,A*4E
$GPRMC,225607.000,A,3324.1254,N,11710.1037,W,49.08,32.34,60410,,,A*4F
$GPRMC,225610.000,A,3324.1641,N,11710.0732,W,53.47,33.75,60410,,,A*4E
$GPRMC,225613.000,A,3324.2017,N,11710.0426,W,52.98,35.16,60410,,,A*4D
$GPRMC,225616.000,A,3324.2387,N,11710.0114,W,54.92,35.16,60410,,,A*4A
$GPRMC,225619.000,A,3324.2774,N,11709.9788,W,56.37,35.51,60410,,,A*41
$GPRMC,225622.000,A,3324.3153,N,11709.9467,W,55.40,35.16,60410,,,A*49
$GPRMC,225625.000,A,3324.3533,N,11709.9148,W,55.40,35.16,60410,,,A*44
$GPRMC,225628.000,A,3324.3884,N,11709.8849,W,52.97,34.80,60410,,,A*42
$GPRMC,225631.000,A,3324.4254,N,11709.8543,W,52.97,34.10,60410,,,A*44
$GPRMC,225632.000,A,3324.4376,N,11709.8446,W,52.49,33.75,60410,,,A*45
$GPRMC,225658.000,A,3324.7914,N,11709.5859,W,63.18,31.64,60410,,,A*4F
$GPRMC,225701.000,A,3324.8361,N,11709.5527,W,63.19,31.64,60410,,,A*40
$GPRMC,225704.000,A,3324.8815,N,11709.5195,W,63.19,31.64,60410,,,A*40
$GPRMC,225707.000,A,3324.9269,N,11709.4864,W,65.13,31.29,60410,,,A*40
$GPRMC,225710.000,A,3324.9739,N,11709.4523,W,66.10,31.64,60410,,,A*41
$GPRMC,225713.000,A,3325.0215,N,11709.4188,W,66.59,30.23,60410,,,A*4B
$GPRMC,225716.000,A,3325.0698,N,11709.3847,W,69.02,31.29,60410,,,A*48
$GPRMC,225719.000,A,3325.1187,N,11709.3490,W,67.56,31.64,60410,,,A*4F
$GPRMC,225722.000,A,3325.1673,N,11709.3142,W,69.02,30.59,60410,,,A*41
$GPRMC,225725.000,A,3325.2166,N,11709.2798,W,69.01,30.23,60410,,,A*48
$GPRMC,225728.000,A,3325.2668,N,11709.2450,W,69.50,30.23,60410,,,A*4F
$GPRMC,225731.000,A,3325.3176,N,11709.2093,W,70.95,30.59,60410,,,A*49
$GPRMC,225733.000,A,3325.3517,N,11709.1858,W,69.50,29.88,60410,,,A*41
$GPRMC,225737.000,A,3325.4171,N,11709.1410,W,66.58,30.23,60410,,,A*48
$GPRMC,225740.000,A,3325.4644,N,11709.1079,W,65.12,30.23,60410,,,A*4F
$GPRMC,225743.000,A,3325.5091,N,11709.0751,W,62.21,32.34,60410,,,A*4C
$GPRMC,225744.000,A,3325.5236,N,11709.0641,W,62.69,34.10,60410,,,A*48
$GPRMC,225749.000,A,3325.5935,N,11709.0020,W,62.69,38.67,60410,,,A*40
$GPRMC,225752.000,A,3325.6363,N,11708.9589,W,64.16,42.54,60410,,,A*4D
$GPRMC,225755.000,A,3325.6739,N,11708.9160,W,61.75,44.65,60410,,,A*46
$GPRMC,225758.000,A,3325.7093,N,11708.8723,W,62.24,45.35,60410,,,A*4E
$GPRMC,225801.000,A,3325.7454,N,11708.8275,W,62.21,45.70,60410,,,A*40
$GPRMC,225804.000,A,3325.7801,N,11708.7847,W,59.78,45.70,60410,,,A*49
$GPRMC,225807.000,A,3325.8159,N,11708.7416,W,61.23,45.00,60410,,,A*4B
$GPRMC,225810.000,A,3325.8529,N,11708.6985,W,62.21,43.59,60410,,,A*43
$GPRMC,225813.000,A,3325.8947,N,11708.6534,W,66.12,41.84,60410,,,A*44
$GPRMC,225816.000,A,3325.9369,N,11708.6103,W,65.64,39.38,60410,,,A*4C
$GPRMC,225819.000,A,3325.9797,N,11708.5694,W,65.13,37.62,60410,,,A*4D
$GPRMC,225822.000,A,3326.0219,N,11708.5317,W,61.24,35.51,60410,,,A*40
$GPRMC,225825.000,A,3326.0644,N,11708.4976,W,59.78,33.05,60410,,,A*42
$GPRMC,225828.000,A,3326.1068,N,11708.4661,W,60.27,31.64,60410,,,A*4A
$GPRMC,225831.000,A,3326.1496,N,11708.4365,W,59.30,29.53,60410,,,A*47
$GPRMC,225834.000,A,3326.1937,N,11708.4078,W,61.23,27.77,60410,,,A*4A
$GPRMC,225837.000,A,3326.2398,N,11708.3801,W,61.72,25.66,60410,,,A*42
$GPRMC,225840.000,A,3326.2868,N,11708.3547,W,61.72,23.55,60410,,,A*4F
$GPRMC,225843.000,A,3326.3344,N,11708.3312,W,61.72,21.80,60410,,,A*44
$GPRMC,225846.000,A,3326.3827,N,11708.3090,W,63.18,19.69,60410,,,A*44
$GPRMC,225849.000,A,3326.4339,N,11708.2884,W,65.12,17.58,60410,,,A*44
$GPRMC,225852.000,A,3326.4866,N,11708.2701,W,66.59,15.82,60410,,,A*44
$GPRMC,225855.000,A,3326.5407,N,11708.2524,W,67.56,15.12,60410,,,A*4B
$GPRMC,225858.000,A,3326.5948,N,11708.2350,W,67.07,15.12,60410,,,A*41
$GPRMC,225901.000,A,3326.6479,N,11708.2179,W,65.15,15.12,60410,,,A*48
$GPRMC,225904.000,A,3326.7004,N,11708.2012,W,65.15,15.12,60410,,,A*4E
$GPRMC,225907.000,A,3326.7531,N,11708.1841,W,66.12,15.12,60410,,,A*47
$GPRMC,225910.000,A,3326.8069,N,11708.1667,W,66.61,15.12,60410,,,A*48
$GPRMC,225913.000,A,3326.8606,N,11708.1490,W,67.56,15.12,60410,,,A*4B
$GPRMC,225916.000,A,3326.9147,N,11708.1333,W,65.61,12.66,60410,,,A*41
$GPRMC,225919.000,A,3326.9688,N,11708.1207,W,65.61,08.79,60410,,,A*49
$GPRMC,225922.000,A,3327.0222,N,11708.1133,W,63.18,04.92,60410,,,A*48
$GPRMC,225925.000,A,3327.0747,N,11708.1101,W,62.21,01.05,60410,,,A*48
$GPRMC,225928.000,A,3327.1265,N,11708.1104,W,61.72,357.54,60410,,,A*75
$GPRMC,225940.000,A,3327.3441,N,11708.1323,W,69.98,354.73,60410,,,A*74
$GPRMC,225941.000,A,3327.3637,N,11708.1339,W,70.47,355.08,60410,,,A*7A
$GPRMC,225948.000,A,3327.5008,N,11708.1474,W,70.95,355.08,60410,,,A*7E
$GPRMC,225951.000,A,3327.5581,N,11708.1539,W,69.50,355.43,60410,,,A*74
$GPRMC,225954.000,A,3327.6154,N,11708.1597,W,69.50,355.43,60410,,,A*7A
$GPRMC,225957.000,A,3327.6743,N,11708.1639,W,69.98,355.78,60410,,,A*72
$GPRMC,230000.000,A,3327.7323,N,11708.1690,W,70.47,356.13,60410,,,A*79
$GPRMC,230003.000,A,3327.7912,N,11708.1738,W,71.44,357.54,60410,,,A*71
$GPRMC,230009.000,A,3327.9096,N,11708.1722,W,70.47,02.81,60410,,,A*42
$GPRMC,230027.000,A,3328.2440,N,11708.2166,W,68.04,345.94,60410,,,A*7A
$GPRMC,230032.000,A,3328.3316,N,11708.2491,W,66.09,343.48,60410,,,A*72
$GPRMC,230035.000,A,3328.3808,N,11708.2707,W,64.64,342.42,60410,,,A*7F
