NMEA Sentence Code,UTC Time,Status,Latitude,Latitude Direction,Longitude,Longitude Direction,Speed (knots),Track Angle (degrees true),Date,MagneticVariation,Magnetic Variation Direction,[FAA Mode]-Optional,Checksum
$GPRMC,184205.50,A,3309.191248,N,11711.382129,W,8.9,92.4,030110,,,A*74
$GPRMC,184235.70,A,3309.189544,N,11711.374121,W,4.8,134.3,030110,,,A*41
$GPRMC,184238.90,A,3309.179804,N,11711.370336,W,14.5,175.2,030110,,,A*7C
$GPRMC,184241.90,A,3309.165706,N,11711.369153,W,19.3,175.3,030110,,,A*71
$GPRMC,184244.90,A,3309.145018,N,11711.367958,W,24.6,176.4,030110,,,A*7C
$GPRMC,184247.00,A,3309.130229,N,11711.366558,W,28.0,176.4,030110,,,A*73
$GPRMC,184250.10,A,3309.103878,N,11711.363119,W,32.4,170.8,030110,,,A*7B
$GPRMC,184253.10,A,3309.077093,N,11711.354150,W,33.6,160.0,030110,,,A*74
$GPRMC,184256.10,A,3309.052205,N,11711.342760,W,29.8,159.2,030110,,,A*74
$GPRMC,184259.20,A,3309.026819,N,11711.331787,W,33.2,162.5,030110,,,A*7F
$GPRMC,184302.30,A,3308.998718,N,11711.323690,W,33.4,170.3,030110,,,A*75
$GPRMC,184305.40,A,3308.971928,N,11711.322109,W,30.1,179.5,030110,,,A*70
$GPRMC,184308.50,A,3308.948750,N,11711.324848,W,24.5,189.0,030110,,,A*76
$GPRMC,184311.60,A,3308.932985,N,11711.329496,W,14.3,197.4,030110,,,A*7A
$GPRMC,184314.60,A,3308.924846,N,11711.332330,W,8.1,191.7,030110,,,A*4D
$GPRMC,184332.80,A,3308.915939,N,11711.339061,W,11.0,228.8,030110,,,A*77
$GPRMC,184335.90,A,3308.916844,N,11711.351146,W,15.2,294.6,030110,,,A*7C
$GPRMC,184338.00,A,3308.923051,N,11711.362418,W,21.5,304.8,030110,,,A*7A
$GPRMC,184341.10,A,3308.935955,N,11711.381933,W,24.4,310.7,030110,,,A*78
$GPRMC,184344.20,A,3308.952007,N,11711.404121,W,30.5,311.7,030110,,,A*75
$GPRMC,184347.20,A,3308.971316,N,11711.428213,W,34.1,313.0,030110,,,A*7D
$GPRMC,184350.20,A,3308.990315,N,11711.452768,W,32.3,311.2,030110,,,A*77
$GPRMC,184353.30,A,3309.008180,N,11711.476250,W,30.2,311.3,030110,,,A*78
$GPRMC,184356.40,A,3309.024540,N,11711.497068,W,27.1,311.2,030110,,,A*7E
$GPRMC,184359.50,A,3309.038515,N,11711.516200,W,23.8,309.0,030110,,,A*7F
$GPRMC,184402.60,A,3309.049331,N,11711.534127,W,20.6,301.4,030110,,,A*74
$GPRMC,184405.60,A,3309.053014,N,11711.552245,W,17.9,274.5,030110,,,A*72
$GPRMC,184408.70,A,3309.052580,N,11711.572207,W,21.0,269.7,030110,,,A*71
$GPRMC,184411.80,A,3309.060480,N,11711.592964,W,23.3,308.3,030110,,,A*75
$GPRMC,184414.90,A,3309.076726,N,11711.611817,W,28.1,316.5,030110,,,A*74
$GPRMC,184417.00,A,3309.088415,N,11711.626192,W,30.5,313.6,030110,,,A*77
$GPRMC,184420.10,A,3309.106350,N,11711.650111,W,31.9,309.2,030110,,,A*7B
$GPRMC,184423.10,A,3309.124159,N,11711.674595,W,31.5,312.2,030110,,,A*7B
$GPRMC,184426.20,A,3309.143248,N,11711.696374,W,30.1,318.0,030110,,,A*77
$GPRMC,184429.30,A,3309.160828,N,11711.713286,W,22.9,324.6,030110,,,A*76
$GPRMC,184432.40,A,3309.170933,N,11711.720763,W,9.6,326.2,030110,,,A*4F
$GPRMC,184444.50,A,3309.175782,N,11711.723510,W,5.1,324.5,030110,,,A*45
$GPRMC,184447.60,A,3309.180910,N,11711.732596,W,12.1,297.8,030110,,,A*76
$GPRMC,184450.70,A,3309.179733,N,11711.747935,W,17.2,254.4,030110,,,A*7A
$GPRMC,184453.80,A,3309.171530,N,11711.768003,W,23.3,241.4,030110,,,A*7C
$GPRMC,184456.80,A,3309.162488,N,11711.787271,W,22.4,239.8,030110,,,A*7A
$GPRMC,184459.90,A,3309.152800,N,11711.808293,W,24.4,240.8,030110,,,A*77
$GPRMC,184503.00,A,3309.142681,N,11711.827388,W,22.2,232.1,030110,,,A*7C
$GPRMC,184506.00,A,3309.130744,N,11711.840867,W,19.9,215.4,030110,,,A*7C
$GPRMC,184509.10,A,3309.114806,N,11711.851372,W,22.1,206.4,030110,,,A*70
$GPRMC,184512.10,A,3309.097858,N,11711.860498,W,21.5,204.6,030110,,,A*7D
$GPRMC,184515.20,A,3309.081218,N,11711.868767,W,21.1,203.4,030110,,,A*7A
$GPRMC,184518.20,A,3309.067442,N,11711.875582,W,14.6,202.4,030110,,,A*73
$GPRMC,184521.30,A,3309.060718,N,11711.878994,W,5.1,209.4,030110,,,A*49
$GPRMC,184527.40,A,3309.054333,N,11711.883103,W,6.9,206.5,030110,,,A*45
$GPRMC,184530.40,A,3309.051066,N,11711.886933,W,8.9,244.2,030110,,,A*44
$GPRMC,184533.50,A,3309.053264,N,11711.897698,W,12.9,305.2,030110,,,A*75
$GPRMC,184536.50,A,3309.063389,N,11711.913397,W,24.4,308.6,030110,,,A*77
$GPRMC,184539.60,A,3309.077708,N,11711.935432,W,29.9,307.7,030110,,,A*71
$GPRMC,184542.70,A,3309.095953,N,11711.962963,W,36.7,308.4,030110,,,A*77
$GPRMC,184546.70,A,3309.124410,N,11712.004736,W,42.9,309.2,030110,,,A*7C
$GPRMC,184549.80,A,3309.149221,N,11712.039331,W,46.5,310.5,030110,,,A*79
$GPRMC,184552.80,A,3309.176351,N,11712.075201,W,47.2,312.9,030110,,,A*7B
$GPRMC,184555.90,A,3309.205487,N,11712.112931,W,52.6,311.2,030110,,,A*76
$GPRMC,184558.90,A,3309.236851,N,11712.152096,W,54.3,313.0,030110,,,A*7F
$GPRMC,184601.00,A,3309.259035,N,11712.179118,W,54.7,314.5,030110,,,A*72
$GPRMC,184604.00,A,3309.290705,N,11712.216896,W,53.5,315.0,030110,,,A*72
$GPRMC,184607.00,A,3309.322955,N,11712.254735,W,52.9,315.7,030110,,,A*78
$GPRMC,184610.00,A,3309.354529,N,11712.291382,W,54.8,316.5,030110,,,A*7F
$GPRMC,184613.10,A,3309.389888,N,11712.330467,W,58.5,318.3,030110,,,A*74
$GPRMC,184616.20,A,3309.427402,N,11712.368885,W,58.1,319.8,030110,,,A*7C
$GPRMC,184619.20,A,3309.465787,N,11712.406301,W,59.0,320.7,030110,,,A*76
$GPRMC,184622.30,A,3309.506204,N,11712.442214,W,58.7,322.6,030110,,,A*75
$GPRMC,184625.40,A,3309.546445,N,11712.477341,W,59.1,324.7,030110,,,A*75
$GPRMC,184628.40,A,3309.586481,N,11712.510067,W,57.7,325.3,030110,,,A*76
$GPRMC,184631.40,A,3309.627004,N,11712.543269,W,58.1,325.5,030110,,,A*7A
$GPRMC,184634.50,A,3309.667608,N,11712.575648,W,58.8,327.1,030110,,,A*7D
$GPRMC,184637.50,A,3309.706487,N,11712.610027,W,56.6,323.1,030110,,,A*76
$GPRMC,184640.50,A,3309.746470,N,11712.641693,W,57.1,325.0,030110,,,A*76
$GPRMC,184643.50,A,3309.787087,N,11712.674500,W,57.4,325.8,030110,,,A*76
$GPRMC,184646.60,A,3309.827071,N,11712.706433,W,56.8,325.8,030110,,,A*74
$GPRMC,184649.70,A,3309.869480,N,11712.740915,W,58.8,327.1,030110,,,A*74
$GPRMC,184652.80,A,3309.911009,N,11712.774998,W,58.7,325.4,030110,,,A*70
$GPRMC,184655.90,A,3309.951842,N,11712.808647,W,58.0,325.6,030110,,,A*79
$GPRMC,184658.90,A,3309.992396,N,11712.842171,W,57.9,324.8,030110,,,A*7C
$GPRMC,184701.00,A,3310.018550,N,11712.865709,W,57.0,321.8,030110,,,A*77
$GPRMC,184704.10,A,3310.055373,N,11712.903394,W,56.2,318.7,030110,,,A*7A
$GPRMC,184707.10,A,3310.089252,N,11712.946744,W,56.5,310.4,030110,,,A*7E
$GPRMC,184710.20,A,3310.119892,N,11712.994233,W,60.0,305.2,030110,,,A*7D
$GPRMC,184713.30,A,3310.145338,N,11713.046006,W,58.7,300.1,030110,,,A*74
$GPRMC,184716.30,A,3310.166324,N,11713.098983,W,57.4,294.2,030110,,,A*79
$GPRMC,184719.50,A,3310.184902,N,11713.154006,W,56.6,291.4,030110,,,A*77
$GPRMC,184722.50,A,3310.203279,N,11713.208105,W,57.8,292.1,030110,,,A*75
$GPRMC,184725.50,A,3310.220875,N,11713.262901,W,57.9,291.4,030110,,,A*72
$GPRMC,184728.70,A,3310.239654,N,11713.319364,W,59.4,292.3,030110,,,A*7B
$GPRMC,184731.70,A,3310.265929,N,11713.368584,W,57.0,306.2,030110,,,A*76
$GPRMC,184734.80,A,3310.297298,N,11713.413238,W,57.8,311.4,030110,,,A*73
$GPRMC,184737.80,A,3310.335485,N,11713.453978,W,61.9,321.0,030110,,,A*7B
$GPRMC,184740.90,A,3310.376499,N,11713.486103,W,58.9,328.3,030110,,,A*7C
$GPRMC,184743.90,A,3310.420370,N,11713.514871,W,59.3,330.8,030110,,,A*74
$GPRMC,184746.00,A,3310.449400,N,11713.533529,W,58.9,331.0,030110,,,A*70
$GPRMC,184749.10,A,3310.493658,N,11713.562854,W,59.9,329.9,030110,,,A*74
$GPRMC,184752.10,A,3310.537763,N,11713.592909,W,58.7,329.7,030110,,,A*7F
$GPRMC,184755.20,A,3310.580992,N,11713.622062,W,58.3,330.0,030110,,,A*70
$GPRMC,184758.30,A,3310.624188,N,11713.650970,W,57.9,330.9,030110,,,A*71
$GPRMC,184801.50,A,3310.668716,N,11713.680472,W,57.6,331.1,030110,,,A*79
$GPRMC,184804.50,A,3310.711492,N,11713.708955,W,57.5,331.3,030110,,,A*74
$GPRMC,184807.60,A,3310.753738,N,11713.737496,W,56.7,330.2,030110,,,A*7C
$GPRMC,184810.70,A,3310.795894,N,11713.767573,W,56.5,329.0,030110,,,A*7F
$GPRMC,184813.70,A,3310.837406,N,11713.795984,W,55.9,328.9,030110,,,A*72
$GPRMC,184816.80,A,3310.880014,N,11713.826012,W,56.2,328.6,030110,,,A*75
$GPRMC,184819.80,A,3310.922536,N,11713.853648,W,58.5,330.5,030110,,,A*7E
$GPRMC,184822.90,A,3310.967105,N,11713.881110,W,58.9,332.2,030110,,,A*7E
$GPRMC,184825.00,A,3310.997774,N,11713.901489,W,58.8,331.6,030110,,,A*75
$GPRMC,184828.10,A,3311.043152,N,11713.931591,W,61.1,330.4,030110,,,A*71
$GPRMC,184831.20,A,3311.088122,N,11713.962659,W,61.7,331.4,030110,,,A*7C
$GPRMC,184834.40,A,3311.129692,N,11714.004784,W,62.9,318.9,030110,,,A*7D
$GPRMC,184837.40,A,3311.167634,N,11714.046932,W,61.0,312.9,030110,,,A*7D
$GPRMC,184840.50,A,3311.200952,N,11714.093474,W,58.8,307.4,030110,,,A*7D
$GPRMC,184843.50,A,3311.228852,N,11714.140878,W,58.2,305.1,030110,,,A*77
$GPRMC,184846.50,A,3311.255449,N,11714.187592,W,56.7,304.1,030110,,,A*76
$GPRMC,184849.60,A,3311.283614,N,11714.235314,W,58.2,305.4,030110,,,A*76
$GPRMC,184852.60,A,3311.312176,N,11714.284376,W,59.1,304.6,030110,,,A*79
$GPRMC,184855.60,A,3311.340235,N,11714.332648,W,59.4,303.5,030110,,,A*78
$GPRMC,184858.70,A,3311.367922,N,11714.381088,W,58.0,304.0,030110,,,A*79
$GPRMC,184905.50,A,3311.429894,N,11714.488044,W,58.4,304.7,030110,,,A*7E
$GPRMC,184924.10,A,3311.606290,N,11714.792204,W,61.5,305.4,030110,,,A*7F
$GPRMC,184927.40,A,3311.635734,N,11714.845957,W,60.4,303.9,030110,,,A*71
$GPRMC,184930.40,A,3311.662937,N,11714.897053,W,61.9,300.5,030110,,,A*79
$GPRMC,184933.50,A,3311.680066,N,11714.952962,W,59.2,287.7,030110,,,A*75
$GPRMC,184936.60,A,3311.692466,N,11715.012687,W,60.1,284.5,030110,,,A*74
$GPRMC,184939.70,A,3311.697734,N,11715.075803,W,60.2,274.2,030110,,,A*73
$GPRMC,184942.80,A,3311.694847,N,11715.135325,W,57.8,266.9,030110,,,A*74
$GPRMC,184945.90,A,3311.688871,N,11715.198476,W,58.6,263.7,030110,,,A*76
$GPRMC,184948.00,A,3311.683963,N,11715.238214,W,58.8,262.4,030110,,,A*7C
$GPRMC,184951.00,A,3311.674435,N,11715.294607,W,57.4,258.6,030110,,,A*7A
$GPRMC,184954.20,A,3311.663941,N,11715.353038,W,57.6,258.0,030110,,,A*71
$GPRMC,184957.50,A,3311.658710,N,11715.418451,W,58.4,263.2,030110,,,A*73
$GPRMC,185000.80,A,3311.653004,N,11715.481546,W,58.2,263.5,030110,,,A*7B
$GPRMC,185003.90,A,3311.651422,N,11715.543202,W,59.6,267.6,030110,,,A*71
$GPRMC,185006.00,A,3311.653463,N,11715.582445,W,58.6,270.7,030110,,,A*74
$GPRMC,185009.00,A,3311.655211,N,11715.641603,W,57.9,271.0,030110,,,A*74
$GPRMC,185012.10,A,3311.656621,N,11715.701490,W,58.1,270.9,030110,,,A*79
$GPRMC,185015.10,A,3311.658834,N,11715.758712,W,57.7,273.5,030110,,,A*79
$GPRMC,185018.10,A,3311.658972,N,11715.815677,W,56.5,270.2,030110,,,A*74
$GPRMC,185021.20,A,3311.653677,N,11715.870937,W,55.6,262.3,030110,,,A*76
$GPRMC,185024.20,A,3311.644622,N,11715.926522,W,56.7,258.5,030110,,,A*72
$GPRMC,185027.30,A,3311.630054,N,11715.983208,W,57.5,251.8,030110,,,A*73
$GPRMC,185030.30,A,3311.610561,N,11716.037488,W,56.6,244.8,030110,,,A*79
$GPRMC,185036.20,A,3311.570008,N,11716.137869,W,58.0,244.3,030110,,,A*70
$GPRMC,185039.40,A,3311.548556,N,11716.193588,W,59.1,245.1,030110,,,A*73
$GPRMC,185042.90,A,3311.523882,N,11716.254948,W,58.3,243.8,030110,,,A*7F
$GPRMC,185045.10,A,3311.507518,N,11716.293679,W,57.6,243.6,030110,,,A*7A
$GPRMC,185048.60,A,3311.480389,N,11716.353352,W,58.0,241.4,030110,,,A*78
$GPRMC,185051.80,A,3311.455649,N,11716.407057,W,58.6,240.4,030110,,,A*78
$GPRMC,185054.40,A,3311.434437,N,11716.450549,W,60.3,239.5,030110,,,A*74
$GPRMC,185057.60,A,3311.407805,N,11716.506002,W,60.6,241.2,030110,,,A*7D
$GPRMC,185101.10,A,3311.377745,N,11716.567648,W,61.3,239.1,030110,,,A*74
$GPRMC,185104.60,A,3311.347738,N,11716.629083,W,60.8,238.7,030110,,,A*7A
$GPRMC,185107.80,A,3311.320861,N,11716.684345,W,59.8,238.6,030110,,,A*70
$GPRMC,185110.10,A,3311.302246,N,11716.722220,W,58.7,239.7,030110,,,A*71
$GPRMC,185113.60,A,3311.273216,N,11716.781879,W,59.1,240.0,030110,,,A*76
$GPRMC,185117.10,A,3311.243666,N,11716.841948,W,61.5,237.9,030110,,,A*73
$GPRMC,185120.30,A,3311.216061,N,11716.897287,W,61.4,238.5,030110,,,A*75
$GPRMC,185123.80,A,3311.184878,N,11716.957397,W,59.7,239.0,030110,,,A*74
$GPRMC,185126.10,A,3311.165988,N,11716.994907,W,58.6,238.9,030110,,,A*7D
$GPRMC,185129.60,A,3311.135794,N,11717.053351,W,59.2,238.1,030110,,,A*74
$GPRMC,185133.10,A,3311.104033,N,11717.112263,W,60.7,237.9,030110,,,A*7C
$GPRMC,185136.30,A,3311.076952,N,11717.167397,W,60.3,240.7,030110,,,A*73
$GPRMC,185139.80,A,3311.052944,N,11717.230794,W,59.7,250.3,030110,,,A*7B
$GPRMC,185142.10,A,3311.040139,N,11717.272326,W,59.5,250.7,030110,,,A*72
$GPRMC,185145.60,A,3311.023938,N,11717.339070,W,59.8,256.4,030110,,,A*78
$GPRMC,185148.80,A,3311.013629,N,11717.401160,W,59.3,261.5,030110,,,A*75
$GPRMC,185151.40,A,3311.008412,N,11717.451329,W,59.4,264.4,030110,,,A*78
$GPRMC,185154.60,A,3311.004225,N,11717.514908,W,60.1,266.5,030110,,,A*74
$GPRMC,185158.10,A,3311.000195,N,11717.584055,W,58.5,265.6,030110,,,A*74
$GPRMC,185203.20,A,3310.994772,N,11717.682908,W,58.9,266.0,030110,,,A*7D
$GPRMC,185206.40,A,3310.991141,N,11717.744563,W,58.3,265.1,030110,,,A*7F
$GPRMC,185209.90,A,3310.986740,N,11717.812571,W,58.4,265.9,030110,,,A*7C
$GPRMC,185212.20,A,3310.983065,N,11717.855869,W,58.6,262.3,030110,,,A*70
$GPRMC,185215.70,A,3310.972437,N,11717.922155,W,57.8,256.9,030110,,,A*74
$GPRMC,185218.90,A,3310.957881,N,11717.980909,W,58.1,248.9,030110,,,A*71
$GPRMC,185221.40,A,3310.942853,N,11718.027049,W,58.4,248.3,030110,,,A*74
$GPRMC,185224.50,A,3310.925665,N,11718.083045,W,58.8,247.6,030110,,,A*7E
$GPRMC,185227.50,A,3310.907559,N,11718.138668,W,59.4,248.0,030110,,,A*7D
$GPRMC,185230.50,A,3310.889924,N,11718.193273,W,59.5,248.0,030110,,,A*74
$GPRMC,185233.60,A,3310.871144,N,11718.248352,W,59.0,248.1,030110,,,A*7E
$GPRMC,185236.60,A,3310.851965,N,11718.303298,W,59.0,247.3,030110,,,A*76
$GPRMC,185239.70,A,3310.833994,N,11718.358392,W,57.3,248.6,030110,,,A*70
$GPRMC,185242.80,A,3310.817041,N,11718.413434,W,56.9,249.6,030110,,,A*7D
$GPRMC,185245.90,A,3310.802344,N,11718.469397,W,56.5,253.9,030110,,,A*72
$GPRMC,185248.90,A,3310.792935,N,11718.526201,W,57.2,259.3,030110,,,A*77
$GPRMC,185251.00,A,3310.788160,N,11718.564330,W,56.4,260.9,030110,,,A*77
$GPRMC,185254.00,A,3310.786623,N,11718.621809,W,57.3,270.4,030110,,,A*75
$GPRMC,185257.00,A,3310.791282,N,11718.679880,W,59.0,276.3,030110,,,A*7F
$GPRMC,185300.10,A,3310.799878,N,11718.738502,W,58.7,278.4,030110,,,A*76
$GPRMC,185303.10,A,3310.807009,N,11718.797387,W,59.1,277.5,030110,,,A*74
$GPRMC,185306.10,A,3310.815428,N,11718.856498,W,58.7,277.5,030110,,,A*79
$GPRMC,185309.20,A,3310.823176,N,11718.915232,W,58.0,278.5,030110,,,A*76
$GPRMC,185312.20,A,3310.834249,N,11718.972111,W,56.1,282.7,030110,,,A*7E
$GPRMC,185315.30,A,3310.847430,N,11719.028665,W,56.5,286.0,030110,,,A*70
$GPRMC,185318.50,A,3310.863385,N,11719.085242,W,55.1,289.3,030110,,,A*79
$GPRMC,185321.60,A,3310.879249,N,11719.138691,W,54.8,289.2,030110,,,A*7E
$GPRMC,185324.70,A,3310.895488,N,11719.192530,W,55.8,290.3,030110,,,A*73
$GPRMC,185327.80,A,3310.911316,N,11719.245934,W,54.3,289.5,030110,,,A*77
$GPRMC,185330.90,A,3310.925897,N,11719.300778,W,55.8,284.5,030110,,,A*74
$GPRMC,185333.00,A,3310.931857,N,11719.337485,W,55.4,279.0,030110,,,A*79
$GPRMC,185336.00,A,3310.935653,N,11719.393601,W,55.1,270.8,030110,,,A*76
$GPRMC,185339.10,A,3310.932766,N,11719.449547,W,55.1,265.5,030110,,,A*70
$GPRMC,185342.30,A,3310.923251,N,11719.505894,W,54.8,255.9,030110,,,A*72
$GPRMC,185345.40,A,3310.910734,N,11719.561631,W,56.1,255.3,030110,,,A*76
$GPRMC,185348.50,A,3310.898498,N,11719.616552,W,55.2,254.0,030110,,,A*79
$GPRMC,185351.60,A,3310.887044,N,11719.671853,W,55.3,256.3,030110,,,A*74
$GPRMC,185354.60,A,3310.877281,N,11719.727688,W,55.2,259.5,030110,,,A*77
$GPRMC,185357.70,A,3310.872184,N,11719.785042,W,57.0,265.8,030110,,,A*7C
$GPRMC,185400.90,A,3310.871295,N,11719.844678,W,57.4,269.6,030110,,,A*7C
$GPRMC,185404.00,A,3310.871790,N,11719.904327,W,57.6,270.3,030110,,,A*74
$GPRMC,185407.10,A,3310.872557,N,11719.966200,W,57.4,270.1,030110,,,A*7C
$GPRMC,185410.20,A,3310.873225,N,11720.026164,W,58.6,269.5,030110,,,A*7D
$GPRMC,185413.30,A,3310.872362,N,11720.087680,W,59.6,268.6,030110,,,A*79
$GPRMC,185416.40,A,3310.872687,N,11720.149648,W,61.0,269.5,030110,,,A*7D
$GPRMC,185419.40,A,3310.872834,N,11720.211146,W,61.7,269.5,030110,,,A*74
$GPRMC,185422.60,A,3310.873190,N,11720.273156,W,59.5,270.2,030110,,,A*7B
$GPRMC,185425.60,A,3310.874159,N,11720.332176,W,58.8,271.1,030110,,,A*76
$GPRMC,185428.70,A,3310.873922,N,11720.392598,W,58.8,269.3,030110,,,A*7C
$GPRMC,185431.80,A,3310.874874,N,11720.450150,W,56.5,272.0,030110,,,A*7D
$GPRMC,185434.90,A,3310.874388,N,11720.503901,W,51.6,267.3,030110,,,A*79
$GPRMC,185438.00,A,3310.871541,N,11720.557391,W,52.9,263.6,030110,,,A*75
$GPRMC,185441.00,A,3310.862645,N,11720.609668,W,53.7,257.8,030110,,,A*73
$GPRMC,185444.10,A,3310.852239,N,11720.662142,W,53.8,255.9,030110,,,A*75
$GPRMC,185447.20,A,3310.837075,N,11720.714652,W,53.9,251.0,030110,,,A*76
$GPRMC,185450.30,A,3310.816540,N,11720.763465,W,53.3,243.8,030110,,,A*76
$GPRMC,185453.40,A,3310.792511,N,11720.807912,W,50.6,237.3,030110,,,A*7B
$GPRMC,185456.40,A,3310.767232,N,11720.849396,W,50.3,233.7,030110,,,A*7B
$GPRMC,185459.50,A,3310.743348,N,11720.891513,W,48.6,237.0,030110,,,A*7E
$GPRMC,185502.60,A,3310.722088,N,11720.931851,W,47.1,239.3,030110,,,A*7F
$GPRMC,185505.60,A,3310.703363,N,11720.972678,W,45.9,244.5,030110,,,A*79
$GPRMC,185508.60,A,3310.694621,N,11721.016265,W,44.0,259.5,030110,,,A*7E
$GPRMC,185511.70,A,3310.697804,N,11721.061430,W,44.1,280.1,030110,,,A*7A
$GPRMC,185514.70,A,3310.711456,N,11721.103522,W,44.1,296.8,030110,,,A*72
$GPRMC,185517.70,A,3310.732973,N,11721.139711,W,43.8,312.5,030110,,,A*7F
$GPRMC,185520.70,A,3310.761236,N,11721.169610,W,44.9,320.6,030110,,,A*76
$GPRMC,185523.90,A,3310.794947,N,11721.199394,W,49.3,324.0,030110,,,A*7F
$GPRMC,185526.00,A,3310.818773,N,11721.219853,W,49.7,325.0,030110,,,A*7F
$GPRMC,185529.20,A,3310.856247,N,11721.251561,W,53.4,325.7,030110,,,A*75
$GPRMC,185532.20,A,3310.892534,N,11721.281642,W,53.4,325.2,030110,,,A*7E
$GPRMC,185535.20,A,3310.928010,N,11721.311753,W,52.9,323.8,030110,,,A*73
$GPRMC,185538.20,A,3310.964719,N,11721.343735,W,54.5,323.2,030110,,,A*7F
$GPRMC,185541.40,A,3311.005682,N,11721.378063,W,57.5,324.9,030110,,,A*78
$GPRMC,185544.40,A,3311.045213,N,11721.410872,W,57.2,325.3,030110,,,A*78
$GPRMC,185547.40,A,3311.084884,N,11721.443221,W,57.4,325.1,030110,,,A*7C
$GPRMC,185550.40,A,3311.124440,N,11721.476522,W,57.4,323.7,030110,,,A*77
$GPRMC,185553.50,A,3311.163990,N,11721.509153,W,57.8,324.2,030110,,,A*73
$GPRMC,185556.50,A,3311.202631,N,11721.542623,W,55.3,324.7,030110,,,A*75
$GPRMC,185559.50,A,3311.240503,N,11721.574457,W,55.1,325.7,030110,,,A*79
$GPRMC,185602.60,A,3311.279618,N,11721.607103,W,57.4,325.3,030110,,,A*74
$GPRMC,185605.60,A,3311.317755,N,11721.639091,W,55.7,325.5,030110,,,A*72
$GPRMC,185608.60,A,3311.356151,N,11721.671257,W,57.0,324.2,030110,,,A*7F
$GPRMC,185611.60,A,3311.395938,N,11721.705034,W,57.8,324.3,030110,,,A*73
$GPRMC,185614.60,A,3311.434516,N,11721.736863,W,56.0,325.9,030110,,,A*72
$GPRMC,185617.60,A,3311.473155,N,11721.768716,W,56.0,325.3,030110,,,A*7D
$GPRMC,185620.70,A,3311.511082,N,11721.799929,W,54.5,325.7,030110,,,A*79
$GPRMC,185623.70,A,3311.549372,N,11721.830916,W,54.9,325.8,030110,,,A*78
$GPRMC,185626.80,A,3311.589269,N,11721.863569,W,55.7,326.0,030110,,,A*73
$GPRMC,185629.80,A,3311.628672,N,11721.897445,W,55.9,325.0,030110,,,A*73
$GPRMC,185632.90,A,3311.666283,N,11721.928370,W,53.9,325.6,030110,,,A*7C
$GPRMC,185635.90,A,3311.704432,N,11721.959671,W,54.4,325.2,030110,,,A*7E
$GPRMC,185638.90,A,3311.742565,N,11721.991560,W,54.6,325.4,030110,,,A*71
$GPRMC,185641.00,A,3311.767528,N,11722.013680,W,54.0,324.1,030110,,,A*77
$GPRMC,185644.00,A,3311.803682,N,11722.043114,W,53.6,325.5,030110,,,A*77
$GPRMC,185647.10,A,3311.838452,N,11722.071248,W,51.4,326.5,030110,,,A*7A
$GPRMC,185650.10,A,3311.877997,N,11722.105946,W,56.8,324.7,030110,,,A*7F
$GPRMC,185653.10,A,3311.913853,N,11722.141981,W,54.9,319.1,030110,,,A*76
$GPRMC,185656.10,A,3311.946961,N,11722.180954,W,54.7,314.8,030110,,,A*7C
$GPRMC,185659.10,A,3311.977059,N,11722.224602,W,56.0,309.3,030110,,,A*70
$GPRMC,185702.20,A,3312.002312,N,11722.274798,W,57.8,300.2,030110,,,A*7E
$GPRMC,185705.30,A,3312.023865,N,11722.324868,W,56.2,297.4,030110,,,A*76
$GPRMC,185708.30,A,3312.042268,N,11722.379537,W,58.7,292.2,030110,,,A*7C
$GPRMC,185711.30,A,3312.062198,N,11722.437241,W,60.2,292.7,030110,,,A*7A
$GPRMC,185714.40,A,3312.081418,N,11722.493879,W,59.2,292.3,030110,,,A*79
$GPRMC,185717.40,A,3312.100922,N,11722.549268,W,59.4,293.3,030110,,,A*7D
$GPRMC,185720.50,A,3312.120059,N,11722.604936,W,59.9,292.3,030110,,,A*79
$GPRMC,185723.50,A,3312.139077,N,11722.659829,W,59.5,292.4,030110,,,A*72
$GPRMC,185726.50,A,3312.157359,N,11722.712911,W,57.8,292.4,030110,,,A*77
$GPRMC,185729.50,A,3312.177192,N,11722.768600,W,60.0,293.0,030110,,,A*74
$GPRMC,185732.50,A,3312.198550,N,11722.823471,W,60.8,295.8,030110,,,A*77
$GPRMC,185735.50,A,3312.222823,N,11722.875816,W,60.2,300.7,030110,,,A*7D
$GPRMC,185738.50,A,3312.250643,N,11722.925326,W,59.2,304.3,030110,,,A*7B
$GPRMC,185741.60,A,3312.282680,N,11722.970500,W,58.7,309.6,030110,,,A*78
$GPRMC,185744.70,A,3312.318195,N,11723.014519,W,60.1,313.6,030110,,,A*79
$GPRMC,185747.70,A,3312.358207,N,11723.048262,W,59.3,322.6,030110,,,A*7E
$GPRMC,185750.70,A,3312.401960,N,11723.082233,W,61.7,326.3,030110,,,A*75
$GPRMC,185753.80,A,3312.448673,N,11723.110304,W,61.1,331.9,030110,,,A*7C
$GPRMC,185756.90,A,3312.494782,N,11723.140770,W,61.6,331.5,030110,,,A*7F
$GPRMC,185759.90,A,3312.539276,N,11723.169438,W,60.0,331.6,030110,,,A*78
$GPRMC,185802.00,A,3312.570257,N,11723.190647,W,60.9,330.2,030110,,,A*7E
$GPRMC,185805.00,A,3312.616241,N,11723.216972,W,60.4,332.8,030110,,,A*7C
$GPRMC,185808.10,A,3312.660244,N,11723.245739,W,59.1,332.0,030110,,,A*74
$GPRMC,185811.10,A,3312.701633,N,11723.271887,W,55.6,331.6,030110,,,A*7D
$GPRMC,185814.20,A,3312.747590,N,11723.298367,W,59.0,333.3,030110,,,A*7C
$GPRMC,185817.20,A,3312.792043,N,11723.324829,W,58.2,331.0,030110,,,A*79
$GPRMC,185820.30,A,3312.834314,N,11723.350598,W,57.3,332.8,030110,,,A*7F
$GPRMC,185823.30,A,3312.879281,N,11723.370505,W,57.2,338.0,030110,,,A*7D
$GPRMC,185826.30,A,3312.928844,N,11723.387335,W,60.7,344.4,030110,,,A*7D
$GPRMC,185829.30,A,3312.978562,N,11723.402664,W,60.9,345.7,030110,,,A*79
$GPRMC,185832.30,A,3313.027723,N,11723.417984,W,58.3,345.6,030110,,,A*73
$GPRMC,185835.30,A,3313.077655,N,11723.433618,W,60.9,345.1,030110,,,A*7B
$GPRMC,185838.40,A,3313.126940,N,11723.448324,W,58.6,347.0,030110,,,A*7E
$GPRMC,185842.60,A,3313.196154,N,11723.469728,W,60.2,345.4,030110,,,A*75
$GPRMC,185846.20,A,3313.253109,N,11723.487317,W,60.1,345.4,030110,,,A*7C
$GPRMC,185849.40,A,3313.303661,N,11723.501705,W,58.5,344.6,030110,,,A*7C
$GPRMC,185852.90,A,3313.359362,N,11723.523500,W,61.7,336.4,030110,,,A*7A
$GPRMC,185855.10,A,3313.393927,N,11723.542589,W,61.2,331.7,030110,,,A*7F
$GPRMC,185858.60,A,3313.444858,N,11723.579299,W,61.0,325.5,030110,,,A*7A
$GPRMC,185901.80,A,3313.489485,N,11723.615744,W,60.9,325.5,030110,,,A*70
$GPRMC,185904.10,A,3313.517143,N,11723.647670,W,61.7,317.9,030110,,,A*76
$GPRMC,185907.60,A,3313.561498,N,11723.695185,W,61.4,317.6,030110,,,A*7E
$GPRMC,185910.80,A,3313.601023,N,11723.738850,W,61.2,317.3,030110,,,A*73
$GPRMC,185913.00,A,3313.628536,N,11723.768906,W,60.8,317.8,030110,,,A*75
$GPRMC,185916.60,A,3313.671523,N,11723.815153,W,60.4,317.7,030110,,,A*70
$GPRMC,185919.80,A,3313.709684,N,11723.857005,W,59.9,317.7,030110,,,A*72
$GPRMC,185922.00,A,3313.737316,N,11723.891524,W,61.3,316.8,030110,,,A*72
$GPRMC,185927.20,A,3313.797475,N,11723.961848,W,59.7,317.3,030110,,,A*71
$GPRMC,185945.90,A,3314.043676,N,11724.214270,W,62.1,323.7,030110,,,A*74
$GPRMC,185948.60,A,3314.078931,N,11724.248119,W,59.7,321.9,030110,,,A*75
$GPRMC,185951.70,A,3314.116266,N,11724.282758,W,58.4,322.7,030110,,,A*76
$GPRMC,185954.70,A,3314.156762,N,11724.318385,W,59.1,323.1,030110,,,A*73
$GPRMC,185957.80,A,3314.198105,N,11724.355904,W,57.8,322.8,030110,,,A*7F
$GPRMC,190000.80,A,3314.243945,N,11724.399499,W,60.4,318.5,030110,,,A*7C
$GPRMC,190003.80,A,3314.280855,N,11724.441937,W,60.1,315.8,030110,,,A*7E
$GPRMC,190006.80,A,3314.309519,N,11724.487172,W,59.2,307.4,030110,,,A*7B
$GPRMC,190009.80,A,3314.335828,N,11724.535718,W,59.5,303.2,030110,,,A*73
$GPRMC,190012.90,A,3314.354345,N,11724.586354,W,55.8,294.2,030110,,,A*75
$GPRMC,190015.90,A,3314.371837,N,11724.638800,W,55.9,291.7,030110,,,A*76
$GPRMC,190018.90,A,3314.388141,N,11724.689388,W,55.2,291.4,030110,,,A*7C
$GPRMC,190021.00,A,3314.399260,N,11724.722081,W,54.3,291.7,030110,,,A*76
$GPRMC,190024.00,A,3314.420324,N,11724.770699,W,55.8,299.1,030110,,,A*7B
$GPRMC,190027.00,A,3314.446430,N,11724.819440,W,55.6,304.3,030110,,,A*75
$GPRMC,190030.10,A,3314.475832,N,11724.862781,W,55.1,308.6,030110,,,A*70
$GPRMC,190033.10,A,3314.510181,N,11724.900547,W,55.8,316.6,030110,,,A*7B
$GPRMC,190036.10,A,3314.547379,N,11724.935892,W,56.7,321.5,030110,,,A*71
$GPRMC,190039.90,A,3314.600410,N,11724.968737,W,56.9,335.2,030110,,,A*7A
$GPRMC,190043.10,A,3314.646884,N,11724.991233,W,56.4,339.0,030110,,,A*78
$GPRMC,190046.60,A,3314.698774,N,11725.014001,W,56.2,339.9,030110,,,A*70
$GPRMC,190050.20,A,3314.750623,N,11725.036262,W,56.5,338.8,030110,,,A*75
$GPRMC,190053.40,A,3314.796441,N,11725.056791,W,56.7,338.2,030110,,,A*7B
$GPRMC,190056.90,A,3314.846087,N,11725.081268,W,54.9,333.2,030110,,,A*71
$GPRMC,190059.10,A,3314.876618,N,11725.099898,W,56.3,330.9,030110,,,A*79
$GPRMC,190102.60,A,3314.924468,N,11725.134501,W,57.1,327.8,030110,,,A*7D
$GPRMC,190105.80,A,3314.968738,N,11725.170512,W,60.5,325.2,030110,,,A*70
$GPRMC,190108.40,A,3315.002252,N,11725.197751,W,56.0,326.7,030110,,,A*76
$GPRMC,190111.60,A,3315.043398,N,11725.229132,W,55.9,327.3,030110,,,A*74
$GPRMC,190115.10,A,3315.091418,N,11725.266358,W,58.5,326.1,030110,,,A*70
$GPRMC,190118.60,A,3315.139273,N,11725.304999,W,59.5,325.4,030110,,,A*77
$GPRMC,190121.80,A,3315.181006,N,11725.337166,W,57.8,325.1,030110,,,A*7E
$GPRMC,190124.10,A,3315.211830,N,11725.361948,W,61.3,325.7,030110,,,A*7A
$GPRMC,190127.60,A,3315.259628,N,11725.399667,W,58.0,325.8,030110,,,A*76
$GPRMC,190131.10,A,3315.306956,N,11725.436902,W,58.9,327.7,030110,,,A*71
$GPRMC,190134.30,A,3315.351136,N,11725.471207,W,58.1,326.7,030110,,,A*7E
$GPRMC,190137.80,A,3315.397623,N,11725.506173,W,55.8,326.2,030110,,,A*7F
$GPRMC,190140.10,A,3315.427027,N,11725.530696,W,57.8,325.5,030110,,,A*77
$GPRMC,190143.60,A,3315.474068,N,11725.568809,W,59.9,325.2,030110,,,A*73
$GPRMC,190146.80,A,3315.518511,N,11725.603094,W,58.8,327.1,030110,,,A*7B
$GPRMC,190149.40,A,3315.553219,N,11725.629640,W,58.0,326.4,030110,,,A*73
$GPRMC,190152.60,A,3315.595815,N,11725.662383,W,57.8,326.3,030110,,,A*72
$GPRMC,190156.10,A,3315.642256,N,11725.699305,W,55.8,326.5,030110,,,A*7B
$GPRMC,190159.60,A,3315.688231,N,11725.735423,W,56.7,326.1,030110,,,A*78
$GPRMC,190202.80,A,3315.730496,N,11725.768644,W,58.6,326.9,030110,,,A*7E
$GPRMC,190205.00,A,3315.759179,N,11725.790780,W,56.2,325.6,030110,,,A*72
$GPRMC,190213.20,A,3315.864977,N,11725.882938,W,56.5,319.1,030110,,,A*7E
$GPRMC,190217.00,A,3315.908980,N,11725.933187,W,56.4,312.6,030110,,,A*71
$GPRMC,190220.20,A,3315.942830,N,11725.978198,W,56.2,311.6,030110,,,A*77
$GPRMC,190223.80,A,3315.980518,N,11726.029528,W,57.1,311.4,030110,,,A*76
$GPRMC,190226.00,A,3316.005169,N,11726.061523,W,57.1,311.5,030110,,,A*78
$GPRMC,190229.90,A,3316.047346,N,11726.117908,W,57.8,311.6,030110,,,A*78
$GPRMC,190233.00,A,3316.078613,N,11726.160557,W,56.5,312.4,030110,,,A*78
$GPRMC,190236.00,A,3316.111004,N,11726.203568,W,57.1,312.6,030110,,,A*7E
$GPRMC,190239.10,A,3316.142522,N,11726.247115,W,58.2,310.4,030110,,,A*75
$GPRMC,190242.10,A,3316.174327,N,11726.291844,W,58.1,310.0,030110,,,A*7E
$GPRMC,190245.20,A,3316.207759,N,11726.335819,W,57.3,311.4,030110,,,A*7F
$GPRMC,190248.30,A,3316.242124,N,11726.381320,W,59.4,312.1,030110,,,A*7F
$GPRMC,190251.30,A,3316.273992,N,11726.426165,W,57.6,310.4,030110,,,A*72
$GPRMC,190254.40,A,3316.308974,N,11726.472242,W,58.3,311.7,030110,,,A*7A
$GPRMC,190257.50,A,3316.342350,N,11726.516086,W,59.3,313.2,030110,,,A*75
$GPRMC,190300.50,A,3316.378941,N,11726.555051,W,58.3,320.0,030110,,,A*7B
$GPRMC,190303.60,A,3316.419414,N,11726.590002,W,58.4,324.6,030110,,,A*7C
$GPRMC,190306.60,A,3316.460342,N,11726.620172,W,57.9,326.6,030110,,,A*7D
$GPRMC,190309.80,A,3316.504330,N,11726.650958,W,58.0,328.5,030110,,,A*76
$GPRMC,190312.80,A,3316.544798,N,11726.681941,W,56.1,326.9,030110,,,A*77
$GPRMC,190315.90,A,3316.586335,N,11726.712290,W,56.8,328.2,030110,,,A*7C
$GPRMC,190318.90,A,3316.626639,N,11726.743249,W,57.1,327.1,030110,,,A*75
$GPRMC,190321.90,A,3316.668474,N,11726.773339,W,57.9,327.6,030110,,,A*74
$GPRMC,190324.00,A,3316.696955,N,11726.794318,W,58.3,328.1,030110,,,A*70
$GPRMC,190327.00,A,3316.738731,N,11726.825581,W,58.2,328.0,030110,,,A*79
$GPRMC,190330.00,A,3316.780507,N,11726.857789,W,58.6,327.6,030110,,,A*79
$GPRMC,190333.10,A,3316.821060,N,11726.887664,W,56.2,328.2,030110,,,A*75
$GPRMC,190336.10,A,3316.860859,N,11726.918234,W,56.1,327.4,030110,,,A*7B
$GPRMC,190339.10,A,3316.902560,N,11726.950128,W,57.8,327.9,030110,,,A*71
$GPRMC,190342.20,A,3316.943605,N,11726.981360,W,57.3,327.6,030110,,,A*7D
$GPRMC,190345.20,A,3316.984954,N,11727.014027,W,57.9,327.4,030110,,,A*76
$GPRMC,190348.30,A,3317.030814,N,11727.048598,W,56.8,327.0,030110,,,A*74
$GPRMC,190351.30,A,3317.071453,N,11727.079247,W,56.4,327.9,030110,,,A*74
$GPRMC,190354.40,A,3317.114106,N,11727.114029,W,57.3,326.6,030110,,,A*79
$GPRMC,190357.50,A,3317.155331,N,11727.145237,W,57.0,327.8,030110,,,A*7D
$GPRMC,190400.70,A,3317.198170,N,11727.177796,W,57.2,326.9,030110,,,A*71
$GPRMC,190403.80,A,3317.240962,N,11727.209104,W,56.5,329.0,030110,,,A*77
$GPRMC,190406.90,A,3317.281376,N,11727.239895,W,56.8,327.5,030110,,,A*75
$GPRMC,190409.90,A,3317.321576,N,11727.271321,W,56.4,327.7,030110,,,A*71
$GPRMC,190412.00,A,3317.349752,N,11727.292830,W,57.3,327.9,030110,,,A*76
$GPRMC,190415.00,A,3317.391879,N,11727.325210,W,59.6,326.9,030110,,,A*7D
$GPRMC,190418.10,A,3317.434853,N,11727.357299,W,60.3,328.1,030110,,,A*7C
$GPRMC,190421.10,A,3317.477549,N,11727.389633,W,59.0,327.1,030110,,,A*76
$GPRMC,190424.20,A,3317.519648,N,11727.421856,W,59.0,328.0,030110,,,A*7D
$GPRMC,190427.20,A,3317.561975,N,11727.453823,W,59.1,327.1,030110,,,A*78
$GPRMC,190430.30,A,3317.604007,N,11727.485978,W,59.1,326.8,030110,,,A*7F
$GPRMC,190433.30,A,3317.645300,N,11727.520984,W,60.1,321.8,030110,,,A*7D
$GPRMC,190436.30,A,3317.682343,N,11727.560980,W,59.3,315.6,030110,,,A*75
$GPRMC,190439.40,A,3317.717589,N,11727.603449,W,60.3,314.6,030110,,,A*75
$GPRMC,190442.50,A,3317.753377,N,11727.646399,W,58.6,315.0,030110,,,A*7D
$GPRMC,190445.50,A,3317.788732,N,11727.689507,W,59.3,314.0,030110,,,A*7E
$GPRMC,190448.60,A,3317.824430,N,11727.732935,W,58.6,314.1,030110,,,A*71
$GPRMC,190451.70,A,3317.859663,N,11727.776021,W,59.8,314.2,030110,,,A*76
$GPRMC,190454.70,A,3317.895262,N,11727.819268,W,59.8,314.3,030110,,,A*7E
$GPRMC,190457.80,A,3317.931271,N,11727.862816,W,59.6,314.3,030110,,,A*7E
$GPRMC,190500.90,A,3317.967070,N,11727.905663,W,59.5,314.1,030110,,,A*71
$GPRMC,190503.00,A,3317.991971,N,11727.936013,W,59.8,314.5,030110,,,A*72
$GPRMC,190506.00,A,3318.026906,N,11727.978532,W,59.6,314.6,030110,,,A*7C
$GPRMC,190509.10,A,3318.062716,N,11728.021631,W,59.8,314.6,030110,,,A*79
$GPRMC,190512.10,A,3318.097527,N,11728.063535,W,59.6,314.7,030110,,,A*77
$GPRMC,190515.10,A,3318.132880,N,11728.106852,W,59.6,314.1,030110,,,A*76
$GPRMC,190518.20,A,3318.168185,N,11728.149367,W,59.3,314.9,030110,,,A*70
$GPRMC,190521.20,A,3318.202740,N,11728.191123,W,59.1,314.6,030110,,,A*70
$GPRMC,190524.30,A,3318.239134,N,11728.235210,W,59.7,314.3,030110,,,A*74
$GPRMC,190527.30,A,3318.274033,N,11728.277745,W,58.9,314.4,030110,,,A*73
$GPRMC,190530.30,A,3318.308608,N,11728.319655,W,59.0,314.0,030110,,,A*74
$GPRMC,190533.30,A,3318.343243,N,11728.361862,W,58.9,314.1,030110,,,A*7F
$GPRMC,190536.40,A,3318.377829,N,11728.403870,W,57.6,314.6,030110,,,A*7B
$GPRMC,190539.40,A,3318.411328,N,11728.444123,W,57.5,314.4,030110,,,A*74
$GPRMC,190542.50,A,3318.446296,N,11728.486507,W,57.5,314.2,030110,,,A*75
$GPRMC,190545.50,A,3318.479629,N,11728.527068,W,57.1,314.0,030110,,,A*7E
$GPRMC,190548.60,A,3318.514183,N,11728.569150,W,58.6,314.3,030110,,,A*76
$GPRMC,190551.60,A,3318.548483,N,11728.610435,W,57.5,314.3,030110,,,A*75
$GPRMC,190554.60,A,3318.583088,N,11728.652594,W,57.6,314.7,030110,,,A*73
$GPRMC,190557.80,A,3318.618142,N,11728.694972,W,57.8,314.6,030110,,,A*79
$GPRMC,190600.80,A,3318.652082,N,11728.736413,W,58.0,313.7,030110,,,A*79
$GPRMC,190603.90,A,3318.686998,N,11728.778650,W,57.1,314.7,030110,,,A*76
$GPRMC,190606.90,A,3318.722362,N,11728.814864,W,54.6,322.0,030110,,,A*79
$GPRMC,190610.00,A,3318.761252,N,11728.847024,W,55.2,327.9,030110,,,A*71
$GPRMC,190613.20,A,3318.803917,N,11728.873037,W,54.8,335.2,030110,,,A*77
$GPRMC,190616.20,A,3318.847462,N,11728.893806,W,54.9,338.1,030110,,,A*76
$GPRMC,190619.30,A,3318.893493,N,11728.906265,W,56.5,347.4,030110,,,A*7E
$GPRMC,190622.30,A,3318.940228,N,11728.914408,W,56.6,353.8,030110,,,A*7B
$GPRMC,190625.40,A,3318.987105,N,11728.919025,W,56.0,354.9,030110,,,A*7A
$GPRMC,190628.40,A,3319.033942,N,11728.923524,W,55.9,355.6,030110,,,A*72
$GPRMC,190631.40,A,3319.080682,N,11728.927399,W,56.1,355.3,030110,,,A*7B
$GPRMC,190634.50,A,3319.127818,N,11728.931559,W,55.4,355.1,030110,,,A*77
$GPRMC,190637.50,A,3319.174001,N,11728.938080,W,55.1,351.3,030110,,,A*79
$GPRMC,190640.60,A,3319.219941,N,11728.950718,W,55.8,344.8,030110,,,A*71
$GPRMC,190643.60,A,3319.264838,N,11728.969491,W,55.7,338.7,030110,,,A*74
$GPRMC,190646.70,A,3319.307407,N,11728.994433,W,55.0,330.9,030110,,,A*7F
$GPRMC,190649.70,A,3319.347226,N,11729.024332,W,56.8,325.6,030110,,,A*74
$GPRMC,190652.80,A,3319.384031,N,11729.059140,W,55.5,319.7,030110,,,A*77
$GPRMC,190655.90,A,3319.417138,N,11729.099759,W,55.5,312.1,030110,,,A*7B
$GPRMC,190658.90,A,3319.448155,N,11729.142733,W,56.3,310.8,030110,,,A*72
$GPRMC,190702.10,A,3319.479881,N,11729.186421,W,55.1,310.9,030110,,,A*7E
$GPRMC,190705.10,A,3319.510270,N,11729.228121,W,55.6,310.6,030110,,,A*79
$GPRMC,190708.10,A,3319.541242,N,11729.270629,W,55.5,311.2,030110,,,A*75
$GPRMC,190711.20,A,3319.572176,N,11729.313035,W,55.9,310.7,030110,,,A*7D
$GPRMC,190714.30,A,3319.603180,N,11729.355697,W,55.5,310.9,030110,,,A*7B
$GPRMC,190717.30,A,3319.634224,N,11729.398648,W,55.9,311.0,030110,,,A*76
$GPRMC,190720.30,A,3319.665248,N,11729.441408,W,56.3,310.9,030110,,,A*78
$GPRMC,190723.40,A,3319.696065,N,11729.483632,W,55.4,311.2,030110,,,A*76
$GPRMC,190726.40,A,3319.727156,N,11729.526025,W,56.0,311.1,030110,,,A*73
$GPRMC,190729.40,A,3319.757900,N,11729.568076,W,54.7,310.8,030110,,,A*71
$GPRMC,190732.50,A,3319.789231,N,11729.611222,W,55.8,310.7,030110,,,A*7F
$GPRMC,190735.60,A,3319.820899,N,11729.654711,W,58.6,310.9,030110,,,A*76
$GPRMC,190738.60,A,3319.853907,N,11729.700068,W,59.5,310.7,030110,,,A*7C
$GPRMC,190741.60,A,3319.886441,N,11729.744873,W,58.7,310.6,030110,,,A*75
$GPRMC,190744.70,A,3319.919278,N,11729.789345,W,58.0,311.3,030110,,,A*76
$GPRMC,190747.80,A,3319.952036,N,11729.834366,W,58.2,310.8,030110,,,A*7D
$GPRMC,190750.90,A,3319.984984,N,11729.880250,W,59.0,310.7,030110,,,A*76
$GPRMC,190754.00,A,3320.018089,N,11729.925758,W,58.5,311.1,030110,,,A*79
$GPRMC,190757.00,A,3320.051096,N,11729.970896,W,58.2,310.6,030110,,,A*75
$GPRMC,190800.10,A,3320.083098,N,11730.015127,W,57.8,311.1,030110,,,A*7A
$GPRMC,190803.20,A,3320.116067,N,11730.060280,W,58.6,310.7,030110,,,A*7D
$GPRMC,190806.20,A,3320.148677,N,11730.104841,W,58.5,311.1,030110,,,A*74
$GPRMC,190809.30,A,3320.181341,N,11730.149693,W,58.7,311.0,030110,,,A*74
$GPRMC,190812.40,A,3320.214472,N,11730.195109,W,58.1,310.7,030110,,,A*74
$GPRMC,190815.40,A,3320.247344,N,11730.240422,W,60.5,310.8,030110,,,A*70
$GPRMC,190818.50,A,3320.281348,N,11730.286839,W,60.8,311.1,030110,,,A*73
$GPRMC,190821.50,A,3320.315573,N,11730.333957,W,60.9,311.0,030110,,,A*7D
$GPRMC,190824.60,A,3320.349098,N,11730.380083,W,59.8,310.7,030110,,,A*77
$GPRMC,190827.60,A,3320.382580,N,11730.426649,W,60.2,310.6,030110,,,A*75
$GPRMC,190830.70,A,3320.416399,N,11730.473308,W,60.6,311.0,030110,,,A*75
$GPRMC,190833.80,A,3320.450549,N,11730.520357,W,61.1,311.4,030110,,,A*7F
$GPRMC,190836.90,A,3320.484770,N,11730.567164,W,60.8,310.8,030110,,,A*7E
$GPRMC,190839.90,A,3320.517976,N,11730.612831,W,57.4,310.3,030110,,,A*79
$GPRMC,190842.00,A,3320.538931,N,11730.641686,W,56.0,311.1,030110,,,A*70
$GPRMC,190845.00,A,3320.569230,N,11730.683313,W,54.5,310.7,030110,,,A*7E
$GPRMC,190848.20,A,3320.600057,N,11730.725881,W,54.4,310.8,030110,,,A*7D
$GPRMC,190851.20,A,3320.630467,N,11730.767744,W,55.1,311.3,030110,,,A*7F
$GPRMC,190854.30,A,3320.661389,N,11730.809947,W,54.7,310.8,030110,,,A*7F
$GPRMC,190857.40,A,3320.692422,N,11730.852649,W,55.5,311.0,030110,,,A*74
$GPRMC,190900.40,A,3320.723861,N,11730.895855,W,56.6,311.0,030110,,,A*7F
$GPRMC,190903.60,A,3320.756128,N,11730.940104,W,56.3,311.1,030110,,,A*78
$GPRMC,190906.60,A,3320.786871,N,11730.982328,W,55.3,311.0,030110,,,A*75
$GPRMC,190909.70,A,3320.818113,N,11731.025212,W,55.9,311.1,030110,,,A*78
$GPRMC,190912.70,A,3320.849434,N,11731.068507,W,55.7,310.7,030110,,,A*75
$GPRMC,190915.80,A,3320.880233,N,11731.111990,W,56.0,310.6,030110,,,A*71
$GPRMC,190918.90,A,3320.910956,N,11731.155578,W,55.2,309.5,030110,,,A*7D
$GPRMC,190922.00,A,3320.941727,N,11731.199449,W,56.8,310.0,030110,,,A*76
$GPRMC,190925.00,A,3320.972222,N,11731.243261,W,56.6,309.5,030110,,,A*7A
$GPRMC,190928.10,A,3321.001933,N,11731.286679,W,54.9,309.0,030110,,,A*7D
$GPRMC,190931.60,A,3321.036529,N,11731.337324,W,55.8,309.8,030110,,,A*7F
$GPRMC,190934.80,A,3321.068053,N,11731.383175,W,56.1,309.3,030110,,,A*7F
$GPRMC,190937.00,A,3321.090204,N,11731.415333,W,55.8,309.2,030110,,,A*70
$GPRMC,190940.60,A,3321.124720,N,11731.465668,W,55.4,309.4,030110,,,A*7D
$GPRMC,190944.10,A,3321.159177,N,11731.515863,W,55.4,309.0,030110,,,A*77
$GPRMC,190947.60,A,3321.193753,N,11731.565872,W,55.6,309.3,030110,,,A*73
$GPRMC,190950.80,A,3321.225018,N,11731.611691,W,54.8,309.0,030110,,,A*72
$GPRMC,190953.00,A,3321.246185,N,11731.643774,W,55.1,307.0,030110,,,A*72
$GPRMC,190956.60,A,3321.279524,N,11731.695395,W,57.2,308.2,030110,,,A*7E
$GPRMC,191000.10,A,3321.314838,N,11731.748523,W,59.1,308.4,030110,,,A*79
$GPRMC,191003.30,A,3321.348678,N,11731.798312,W,61.0,308.9,030110,,,A*75
$GPRMC,191006.80,A,3321.385774,N,11731.852843,W,59.9,308.9,030110,,,A*73
$GPRMC,191009.00,A,3321.409141,N,11731.887432,W,59.4,308.8,030110,,,A*79
$GPRMC,191012.60,A,3321.446011,N,11731.941688,W,60.2,309.1,030110,,,A*76
$GPRMC,191016.10,A,3321.483082,N,11731.996129,W,59.8,309.0,030110,,,A*71
$GPRMC,191019.30,A,3321.517013,N,11732.045290,W,60.5,309.4,030110,,,A*7E
$GPRMC,191023.00,A,3321.557761,N,11732.105565,W,62.7,308.9,030110,,,A*76
$GPRMC,191027.00,A,3321.599920,N,11732.169379,W,61.4,309.5,030110,,,A*77
$GPRMC,191030.10,A,3321.633116,N,11732.217812,W,60.8,308.8,030110,,,A*73
$GPRMC,191033.10,A,3321.665839,N,11732.265894,W,60.8,309.1,030110,,,A*74
$GPRMC,191036.20,A,3321.698789,N,11732.314279,W,61.0,308.9,030110,,,A*7A
$GPRMC,191039.20,A,3321.732520,N,11732.363254,W,61.6,309.4,030110,,,A*70
$GPRMC,191042.30,A,3321.765959,N,11732.411992,W,61.6,309.1,030110,,,A*7B
$GPRMC,191045.40,A,3321.799307,N,11732.460742,W,61.6,309.0,030110,,,A*7D
$GPRMC,191048.50,A,3321.833038,N,11732.510118,W,61.4,309.1,030110,,,A*7D
$GPRMC,191051.50,A,3321.866371,N,11732.558759,W,61.5,309.3,030110,,,A*77
$GPRMC,191054.60,A,3321.900071,N,11732.607798,W,61.7,309.3,030110,,,A*75
$GPRMC,191057.60,A,3321.932660,N,11732.655557,W,61.3,308.9,030110,,,A*78
$GPRMC,191100.70,A,3321.966052,N,11732.704414,W,61.8,309.1,030110,,,A*7D
$GPRMC,191103.80,A,3321.999226,N,11732.753021,W,61.5,308.7,030110,,,A*7A
$GPRMC,191106.90,A,3322.031933,N,11732.801640,W,61.4,308.2,030110,,,A*74
$GPRMC,191109.90,A,3322.063207,N,11732.851945,W,61.9,304.8,030110,,,A*74
$GPRMC,191112.00,A,3322.082560,N,11732.886565,W,61.5,303.0,030110,,,A*79
$GPRMC,191115.10,A,3322.111723,N,11732.940467,W,61.5,303.1,030110,,,A*78
$GPRMC,191118.20,A,3322.140602,N,11732.992963,W,62.0,303.0,030110,,,A*71
$GPRMC,191121.30,A,3322.169251,N,11733.045869,W,61.6,302.9,030110,,,A*77
$GPRMC,191124.40,A,3322.197751,N,11733.098504,W,60.8,302.7,030110,,,A*76
$GPRMC,191127.40,A,3322.226359,N,11733.150631,W,61.3,302.9,030110,,,A*74
$GPRMC,191130.60,A,3322.255845,N,11733.204130,W,61.2,303.0,030110,,,A*7F
$GPRMC,191133.50,A,3322.283464,N,11733.254846,W,61.8,302.9,030110,,,A*74
$GPRMC,191136.70,A,3322.313517,N,11733.309661,W,61.5,302.8,030110,,,A*70
$GPRMC,191139.00,A,3322.334491,N,11733.347882,W,61.7,303.3,030110,,,A*73
$GPRMC,191142.50,A,3322.367495,N,11733.407722,W,61.2,303.3,030110,,,A*7B
$GPRMC,191146.00,A,3322.400185,N,11733.467662,W,61.3,302.8,030110,,,A*70
$GPRMC,191149.50,A,3322.433087,N,11733.527958,W,61.5,303.0,030110,,,A*75
$GPRMC,191152.70,A,3322.463109,N,11733.582700,W,61.6,303.2,030110,,,A*72
$GPRMC,191155.00,A,3322.484290,N,11733.620760,W,61.2,303.9,030110,,,A*7A
$GPRMC,191158.50,A,3322.519325,N,11733.678765,W,61.3,308.5,030110,,,A*76
$GPRMC,191202.00,A,3322.559990,N,11733.731530,W,61.4,316.3,030110,,,A*7F
$GPRMC,191205.30,A,3322.600919,N,11733.777133,W,61.3,317.0,030110,,,A*75
$GPRMC,191208.40,A,3322.639676,N,11733.821183,W,61.7,316.6,030110,,,A*77
$GPRMC,191211.40,A,3322.676762,N,11733.866124,W,61.6,312.2,030110,,,A*7F
$GPRMC,191214.50,A,3322.709461,N,11733.915694,W,61.6,305.9,030110,,,A*76
$GPRMC,191217.60,A,3322.737697,N,11733.969364,W,61.6,299.7,030110,,,A*7B
$GPRMC,191220.70,A,3322.761305,N,11734.025443,W,61.7,295.1,030110,,,A*7C
$GPRMC,191223.80,A,3322.783324,N,11734.082492,W,61.1,295.1,030110,,,A*78
$GPRMC,191226.80,A,3322.805051,N,11734.139007,W,61.3,294.9,030110,,,A*7F
$GPRMC,191229.90,A,3322.827193,N,11734.195934,W,61.8,294.9,030110,,,A*7A
$GPRMC,191232.00,A,3322.841917,N,11734.234095,W,61.7,294.7,030110,,,A*76
$GPRMC,191235.00,A,3322.863929,N,11734.291120,W,61.2,294.7,030110,,,A*79
$GPRMC,191238.10,A,3322.885953,N,11734.347349,W,61.2,294.6,030110,,,A*76
$GPRMC,191241.20,A,3322.907741,N,11734.403443,W,60.9,294.9,030110,,,A*72
$GPRMC,191244.40,A,3322.930871,N,11734.462778,W,61.4,295.0,030110,,,A*71
$GPRMC,191247.50,A,3322.953895,N,11734.521206,W,62.4,295.3,030110,,,A*76
$GPRMC,191250.60,A,3322.976122,N,11734.578122,W,61.4,294.8,030110,,,A*71
$GPRMC,191253.70,A,3322.998528,N,11734.636101,W,61.6,295.2,030110,,,A*7C
$GPRMC,191256.80,A,3323.021164,N,11734.693543,W,61.1,295.0,030110,,,A*78
$GPRMC,191259.10,A,3323.037641,N,11734.735438,W,61.7,295.2,030110,,,A*7D
$GPRMC,191307.00,A,3323.095205,N,11734.882219,W,61.5,295.0,030110,,,A*7C
$GPRMC,191310.10,A,3323.117030,N,11734.938962,W,61.5,294.9,030110,,,A*7B
$GPRMC,191313.30,A,3323.139791,N,11734.997378,W,61.0,295.6,030110,,,A*75
$GPRMC,191316.60,A,3323.166224,N,11735.055443,W,61.7,300.0,030110,,,A*71
$GPRMC,191319.60,A,3323.195140,N,11735.106976,W,61.6,305.1,030110,,,A*7A
$GPRMC,191322.70,A,3323.227582,N,11735.157701,W,61.4,309.7,030110,,,A*71
$GPRMC,191325.90,A,3323.263919,N,11735.205179,W,61.3,313.9,030110,,,A*79
$GPRMC,191329.00,A,3323.302513,N,11735.247745,W,57.9,319.1,030110,,,A*7E
$GPRMC,191332.10,A,3323.341190,N,11735.283955,W,58.1,323.6,030110,,,A*73
$GPRMC,191335.40,A,3323.385107,N,11735.319517,W,58.3,326.4,030110,,,A*7A
$GPRMC,191338.50,A,3323.427467,N,11735.352476,W,58.3,327.2,030110,,,A*74
$GPRMC,191341.50,A,3323.468945,N,11735.384782,W,57.9,326.9,030110,,,A*70
$GPRMC,191344.60,A,3323.510747,N,11735.417459,W,58.8,326.8,030110,,,A*73
$GPRMC,191347.60,A,3323.552473,N,11735.449830,W,58.8,327.4,030110,,,A*77
$GPRMC,191350.70,A,3323.594680,N,11735.482384,W,59.1,327.3,030110,,,A*78
$GPRMC,191353.80,A,3323.636680,N,11735.514862,W,59.0,327.6,030110,,,A*76
$GPRMC,191356.00,A,3323.667403,N,11735.537656,W,58.0,328.5,030110,,,A*73
$GPRMC,191400.00,A,3323.723137,N,11735.576221,W,58.2,330.3,030110,,,A*78
$GPRMC,191403.20,A,3323.769476,N,11735.605247,W,59.7,332.2,030110,,,A*77
$GPRMC,191406.20,A,3323.814905,N,11735.632316,W,59.1,334.5,030110,,,A*78
$GPRMC,191409.30,A,3323.860772,N,11735.657493,W,58.7,336.2,030110,,,A*70
$GPRMC,191412.50,A,3323.907086,N,11735.681323,W,57.6,337.1,030110,,,A*7B
$GPRMC,191415.60,A,3323.953598,N,11735.704538,W,58.2,336.7,030110,,,A*78
$GPRMC,191418.70,A,3323.999300,N,11735.727513,W,57.6,336.9,030110,,,A*78
$GPRMC,191421.80,A,3324.045429,N,11735.750786,W,58.1,337.3,030110,,,A*73
$GPRMC,191424.90,A,3324.091744,N,11735.774088,W,58.9,337.0,030110,,,A*72
$GPRMC,191427.90,A,3324.137972,N,11735.797459,W,59.5,337.0,030110,,,A*7F
$GPRMC,191431.00,A,3324.184332,N,11735.820743,W,58.9,337.2,030110,,,A*73
$GPRMC,191434.00,A,3324.230212,N,11735.843875,W,58.6,337.2,030110,,,A*79
$GPRMC,191437.00,A,3324.276023,N,11735.866951,W,58.5,337.2,030110,,,A*7B
$GPRMC,191440.10,A,3324.321566,N,11735.889774,W,60.0,337.0,030110,,,A*79
$GPRMC,191443.10,A,3324.366323,N,11735.912144,W,57.9,337.2,030110,,,A*77
$GPRMC,191446.20,A,3324.411947,N,11735.935094,W,57.9,337.2,030110,,,A*77
$GPRMC,191449.20,A,3324.457226,N,11735.957875,W,58.4,337.0,030110,,,A*75
$GPRMC,191452.20,A,3324.503323,N,11735.981287,W,58.7,337.1,030110,,,A*75
$GPRMC,191455.30,A,3324.549706,N,11736.004252,W,59.1,337.3,030110,,,A*74
$GPRMC,191458.40,A,3324.596008,N,11736.027503,W,58.3,336.9,030110,,,A*7F
$GPRMC,191501.40,A,3324.641634,N,11736.050308,W,58.5,337.5,030110,,,A*74
$GPRMC,191504.50,A,3324.688511,N,11736.073469,W,59.2,337.3,030110,,,A*70
$GPRMC,191507.60,A,3324.734096,N,11736.096800,W,59.1,336.5,030110,,,A*70
$GPRMC,191510.60,A,3324.778877,N,11736.119349,W,58.0,337.5,030110,,,A*78
$GPRMC,191513.70,A,3324.824908,N,11736.142288,W,58.3,337.0,030110,,,A*71
$GPRMC,191516.80,A,3324.870534,N,11736.164996,W,57.6,337.6,030110,,,A*75
$GPRMC,191519.80,A,3324.916121,N,11736.187973,W,58.5,336.9,030110,,,A*7F
$GPRMC,191524.70,A,3324.989693,N,11736.225410,W,59.1,336.3,030110,,,A*7A
$GPRMC,191530.50,A,3325.076332,N,11736.268688,W,58.8,336.7,030110,,,A*7D
$GPRMC,191533.60,A,3325.123246,N,11736.295162,W,58.9,332.0,030110,,,A*7D
$GPRMC,191536.80,A,3325.166684,N,11736.329013,W,58.1,323.7,030110,,,A*73
$GPRMC,191539.80,A,3325.207001,N,11736.364041,W,58.6,324.2,030110,,,A*78
$GPRMC,191542.90,A,3325.247341,N,11736.398126,W,58.8,325.3,030110,,,A*7B
$GPRMC,191545.90,A,3325.289310,N,11736.428837,W,58.1,330.2,030110,,,A*73
$GPRMC,191548.00,A,3325.320169,N,11736.447332,W,59.0,335.1,030110,,,A*78
$GPRMC,191551.00,A,3325.365403,N,11736.470180,W,59.0,338.2,030110,,,A*79
$GPRMC,191554.00,A,3325.411401,N,11736.492095,W,58.8,338.2,030110,,,A*7A
$GPRMC,191557.10,A,3325.456682,N,11736.515405,W,58.3,335.6,030110,,,A*73
$GPRMC,191600.10,A,3325.500775,N,11736.542939,W,58.2,331.1,030110,,,A*7B
$GPRMC,191603.20,A,3325.545446,N,11736.572996,W,59.2,330.4,030110,,,A*7A
$GPRMC,191606.40,A,3325.590267,N,11736.603735,W,58.7,330.3,030110,,,A*75
$GPRMC,191609.50,A,3325.634355,N,11736.633452,W,58.5,330.1,030110,,,A*77
$GPRMC,191612.60,A,3325.676905,N,11736.664506,W,57.8,327.3,030110,,,A*73
$GPRMC,191615.70,A,3325.718320,N,11736.698614,W,59.0,324.0,030110,,,A*74
$GPRMC,191618.70,A,3325.757587,N,11736.735328,W,58.7,320.3,030110,,,A*74
$GPRMC,191621.80,A,3325.794580,N,11736.775663,W,58.6,315.6,030110,,,A*75
$GPRMC,191624.80,A,3325.829426,N,11736.818510,W,59.0,313.7,030110,,,A*77
$GPRMC,191627.90,A,3325.864606,N,11736.861484,W,59.5,315.5,030110,,,A*7F
$GPRMC,191631.00,A,3325.902783,N,11736.900711,W,59.6,321.2,030110,,,A*76
$GPRMC,191634.00,A,3325.943581,N,11736.934744,W,58.4,327.3,030110,,,A*75
$GPRMC,191637.10,A,3325.986283,N,11736.964610,W,58.9,330.3,030110,,,A*75
$GPRMC,191640.10,A,3326.029357,N,11736.993454,W,58.9,330.7,030110,,,A*7C
$GPRMC,191643.10,A,3326.072669,N,11737.022207,W,58.8,330.7,030110,,,A*7A
$GPRMC,191646.10,A,3326.115670,N,11737.051219,W,58.4,329.9,030110,,,A*76
$GPRMC,191649.20,A,3326.157544,N,11737.083569,W,58.6,325.5,030110,,,A*75
$GPRMC,191652.30,A,3326.196397,N,11737.120918,W,58.3,318.6,030110,,,A*71
$GPRMC,191655.30,A,3326.231588,N,11737.161852,W,58.6,313.1,030110,,,A*73
$GPRMC,191658.30,A,3326.263290,N,11737.206813,W,58.7,307.5,030110,,,A*70
$GPRMC,191701.40,A,3326.292112,N,11737.256997,W,57.7,303.2,030110,,,A*79
$GPRMC,191704.40,A,3326.318533,N,11737.304771,W,57.9,303.4,030110,,,A*70
$GPRMC,191707.60,A,3326.346578,N,11737.355275,W,57.5,303.3,030110,,,A*7B
$GPRMC,191710.60,A,3326.373305,N,11737.403667,W,58.3,303.0,030110,,,A*7E
$GPRMC,191713.70,A,3326.400761,N,11737.453465,W,58.7,303.8,030110,,,A*70
$GPRMC,191716.70,A,3326.428514,N,11737.503226,W,58.9,303.6,030110,,,A*7A
$GPRMC,191719.80,A,3326.456669,N,11737.551914,W,58.4,305.9,030110,,,A*73
$GPRMC,191722.90,A,3326.488978,N,11737.598532,W,58.0,311.4,030110,,,A*77
$GPRMC,191728.20,A,3326.549344,N,11737.672513,W,58.7,314.5,030110,,,A*78
$GPRMC,191731.70,A,3326.589001,N,11737.719917,W,58.6,315.1,030110,,,A*7B
$GPRMC,191734.70,A,3326.625050,N,11737.762090,W,59.4,315.1,030110,,,A*76
$GPRMC,191737.80,A,3326.660466,N,11737.804478,W,59.5,314.9,030110,,,A*7F
$GPRMC,191740.80,A,3326.695896,N,11737.847180,W,59.2,314.5,030110,,,A*78
$GPRMC,191743.00,A,3326.719540,N,11737.876931,W,58.6,313.0,030110,,,A*77
$GPRMC,191746.00,A,3326.750870,N,11737.922750,W,58.9,307.6,030110,,,A*74
$GPRMC,191749.10,A,3326.778905,N,11737.972447,W,58.7,301.9,030110,,,A*74
$GPRMC,191752.20,A,3326.805207,N,11738.024076,W,59.0,301.5,030110,,,A*78
$GPRMC,191755.30,A,3326.830833,N,11738.074742,W,57.7,301.1,030110,,,A*7D
$GPRMC,191758.40,A,3326.857079,N,11738.126678,W,57.7,300.9,030110,,,A*77
$GPRMC,191801.50,A,3326.883298,N,11738.178034,W,58.4,301.2,030110,,,A*72
$GPRMC,191804.60,A,3326.910744,N,11738.229348,W,58.7,303.6,030110,,,A*71
$GPRMC,191807.70,A,3326.940357,N,11738.277106,W,58.4,308.5,030110,,,A*78
$GPRMC,191810.80,A,3326.972603,N,11738.322740,W,58.7,310.8,030110,,,A*76
$GPRMC,191813.90,A,3327.006644,N,11738.370115,W,59.7,310.7,030110,,,A*73
$GPRMC,191816.00,A,3327.028352,N,11738.400473,W,59.1,310.6,030110,,,A*73
$GPRMC,191819.00,A,3327.060680,N,11738.445854,W,58.4,310.6,030110,,,A*76
$GPRMC,191822.10,A,3327.092189,N,11738.491334,W,58.1,309.0,030110,,,A*73
$GPRMC,191825.10,A,3327.122774,N,11738.538380,W,59.0,306.9,030110,,,A*71
$GPRMC,191828.20,A,3327.152267,N,11738.588349,W,58.9,304.3,030110,,,A*71
$GPRMC,191831.30,A,3327.179639,N,11738.638297,W,58.4,302.1,030110,,,A*7D
$GPRMC,191834.30,A,3327.204631,N,11738.688195,W,57.5,299.9,030110,,,A*76
$GPRMC,191837.40,A,3327.228146,N,11738.739512,W,57.7,298.5,030110,,,A*74
$GPRMC,191840.40,A,3327.250660,N,11738.791151,W,58.5,297.5,030110,,,A*7B
$GPRMC,191843.50,A,3327.273593,N,11738.844364,W,58.9,297.3,030110,,,A*7E
$GPRMC,191846.50,A,3327.295982,N,11738.896802,W,59.0,297.2,030110,,,A*72
$GPRMC,191859.80,A,3327.398563,N,11739.124774,W,59.4,301.2,030110,,,A*7B
$GPRMC,191902.60,A,3327.422484,N,11739.171093,W,58.7,303.2,030110,,,A*7A
$GPRMC,191905.60,A,3327.450642,N,11739.219883,W,59.1,305.4,030110,,,A*73
$GPRMC,191908.60,A,3327.479698,N,11739.267814,W,58.9,306.0,030110,,,A*7B
$GPRMC,191911.80,A,3327.509704,N,11739.317413,W,59.5,306.0,030110,,,A*7F
$GPRMC,191914.90,A,3327.539446,N,11739.366280,W,57.9,305.2,030110,,,A*74
$GPRMC,191917.00,A,3327.558317,N,11739.398982,W,58.2,303.9,030110,,,A*7B
$GPRMC,191920.00,A,3327.584260,N,11739.448284,W,58.2,300.4,030110,,,A*76
$GPRMC,191923.00,A,3327.607432,N,11739.501399,W,59.0,296.0,030110,,,A*74
$GPRMC,191926.10,A,3327.630034,N,11739.555569,W,59.3,296.3,030110,,,A*7E
$GPRMC,191929.10,A,3327.652841,N,11739.608900,W,59.6,298.4,030110,,,A*7B
$GPRMC,191932.20,A,3327.679220,N,11739.658096,W,57.5,306.2,030110,,,A*78
$GPRMC,191935.20,A,3327.710198,N,11739.703232,W,58.1,309.8,030110,,,A*7C
$GPRMC,191938.20,A,3327.741364,N,11739.748523,W,58.6,309.2,030110,,,A*71
$GPRMC,191941.30,A,3327.773093,N,11739.795237,W,59.3,308.9,030110,,,A*78
$GPRMC,191944.40,A,3327.804800,N,11739.841591,W,58.7,309.4,030110,,,A*73
$GPRMC,191947.50,A,3327.837292,N,11739.888840,W,57.8,309.5,030110,,,A*75
$GPRMC,191950.60,A,3327.868844,N,11739.934983,W,58.2,309.2,030110,,,A*71
$GPRMC,191953.70,A,3327.900625,N,11739.981333,W,58.9,309.3,030110,,,A*70
$GPRMC,191956.80,A,3327.933142,N,11740.028663,W,59.4,309.4,030110,,,A*73
$GPRMC,191959.90,A,3327.965027,N,11740.075390,W,58.9,308.8,030110,,,A*7C
$GPRMC,192002.00,A,3327.986132,N,11740.107327,W,58.1,307.3,030110,,,A*7D
$GPRMC,192005.00,A,3328.013526,N,11740.156886,W,58.7,301.2,030110,,,A*74
$GPRMC,192008.10,A,3328.037202,N,11740.210579,W,58.6,297.1,030110,,,A*7F
$GPRMC,192011.30,A,3328.061351,N,11740.264970,W,59.3,298.9,030110,,,A*74
$GPRMC,192014.30,A,3328.087885,N,11740.315611,W,57.8,305.5,030110,,,A*78
$GPRMC,192017.40,A,3328.120126,N,11740.360634,W,58.2,314.5,030110,,,A*70
$GPRMC,192020.50,A,3328.157656,N,11740.399076,W,57.7,323.2,030110,,,A*7A
$GPRMC,192023.60,A,3328.200842,N,11740.430499,W,59.3,332.6,030110,,,A*7F
$GPRMC,192026.70,A,3328.247546,N,11740.453554,W,58.6,340.5,030110,,,A*76
$GPRMC,192029.80,A,3328.297354,N,11740.467844,W,58.8,350.0,030110,,,A*7F
$GPRMC,192032.80,A,3328.346540,N,11740.474840,W,58.2,355.2,030110,,,A*70
$GPRMC,192035.00,A,3328.381045,N,11740.476581,W,58.7,359.8,030110,,,A*75
$GPRMC,192038.00,A,3328.430832,N,11740.473681,W,57.7,4.6,030110,,,A*71
$GPRMC,192041.10,A,3328.480774,N,11740.465640,W,58.8,9.8,030110,,,A*71
$GPRMC,192044.30,A,3328.530907,N,11740.450876,W,58.3,16.3,030110,,,A*45
$GPRMC,192047.40,A,3328.579970,N,11740.430342,W,58.7,21.3,030110,,,A*46
$GPRMC,192050.70,A,3328.627573,N,11740.404043,W,59.0,27.0,030110,,,A*42
$GPRMC,192053.80,A,3328.672333,N,11740.371916,W,58.7,33.2,030110,,,A*41
$GPRMC,192056.00,A,3328.700705,N,11740.348108,W,58.6,35.0,030110,,,A*41
$GPRMC,192059.10,A,3328.742188,N,11740.312177,W,58.7,35.9,030110,,,A*45
$GPRMC,192102.20,A,3328.783763,N,11740.276331,W,58.9,35.7,030110,,,A*44
$GPRMC,192105.40,A,3328.824902,N,11740.240796,W,58.7,35.7,030110,,,A*4C
$GPRMC,192108.50,A,3328.865812,N,11740.205389,W,58.4,35.6,030110,,,A*4C
$GPRMC,192111.60,A,3328.907158,N,11740.169554,W,58.8,35.7,030110,,,A*47
$GPRMC,192114.80,A,3328.949752,N,11740.132835,W,58.8,35.2,030110,,,A*4B
$GPRMC,192117.90,A,3328.991240,N,11740.097190,W,58.6,35.4,030110,,,A*4A
$GPRMC,192120.00,A,3329.018553,N,11740.073459,W,58.2,35.9,030110,,,A*48
$GPRMC,192123.10,A,3329.059608,N,11740.038210,W,58.4,35.2,030110,,,A*4B
$GPRMC,192126.20,A,3329.100652,N,11740.002535,W,58.6,36.1,030110,,,A*44
$GPRMC,192129.40,A,3329.143121,N,11739.968148,W,58.7,34.0,030110,,,A*4E
$GPRMC,192132.40,A,3329.184831,N,11739.935987,W,58.6,32.1,030110,,,A*42
$GPRMC,192135.50,A,3329.227178,N,11739.904330,W,58.5,31.5,030110,,,A*4A
$GPRMC,192138.60,A,3329.270545,N,11739.871880,W,58.2,32.2,030110,,,A*4C
$GPRMC,192141.70,A,3329.312851,N,11739.840341,W,58.4,31.9,030110,,,A*44
$GPRMC,192144.80,A,3329.355205,N,11739.808772,W,58.4,32.8,030110,,,A*4C
$GPRMC,192147.90,A,3329.398526,N,11739.776788,W,58.5,31.4,030110,,,A*44
$GPRMC,192151.00,A,3329.440789,N,11739.745330,W,59.0,31.7,030110,,,A*4F
$GPRMC,192154.00,A,3329.483079,N,11739.713464,W,59.1,32.4,030110,,,A*49
$GPRMC,192157.10,A,3329.526007,N,11739.680959,W,59.1,32.0,030110,,,A*40
$GPRMC,192200.20,A,3329.569391,N,11739.648909,W,58.8,30.2,030110,,,A*4C
$GPRMC,192203.40,A,3329.613939,N,11739.618768,W,58.7,28.7,030110,,,A*40
$GPRMC,192206.40,A,3329.658588,N,11739.592347,W,59.0,25.3,030110,,,A*4B
$GPRMC,192209.40,A,3329.703989,N,11739.569179,W,58.2,22.2,030110,,,A*48
$GPRMC,192212.50,A,3329.750429,N,11739.548556,W,58.1,19.2,030110,,,A*43
$GPRMC,192215.70,A,3329.799391,N,11739.530767,W,58.2,15.5,030110,,,A*40
$GPRMC,192218.70,A,3329.847244,N,11739.516696,W,58.8,12.5,030110,,,A*4E
$GPRMC,192221.70,A,3329.896076,N,11739.505825,W,58.6,9.3,030110,,,A*7D
$GPRMC,192224.90,A,3329.946587,N,11739.498109,W,58.6,6.0,030110,,,A*7F
$GPRMC,192227.90,A,3329.995768,N,11739.493685,W,58.7,3.1,030110,,,A*7C
$GPRMC,192231.10,A,3330.047316,N,11739.492526,W,58.3,0.1,030110,,,A*7C
$GPRMC,192234.00,A,3330.094636,N,11739.494332,W,58.2,356.9,030110,,,A*7D
$GPRMC,192237.10,A,3330.144199,N,11739.499524,W,59.1,353.2,030110,,,A*71
$GPRMC,192240.20,A,3330.194815,N,11739.508947,W,58.5,350.6,030110,,,A*70
$GPRMC,192243.20,A,3330.242939,N,11739.519844,W,58.3,347.9,030110,,,A*79
$GPRMC,192246.30,A,3330.292390,N,11739.534716,W,58.1,344.1,030110,,,A*77
$GPRMC,192249.40,A,3330.340010,N,11739.552537,W,58.3,341.6,030110,,,A*7B
$GPRMC,192252.40,A,3330.386888,N,11739.572390,W,59.5,339.9,030110,,,A*7C
$GPRMC,192255.50,A,3330.433484,N,11739.592280,W,58.9,340.3,030110,,,A*74
$GPRMC,192258.50,A,3330.480650,N,11739.611922,W,58.4,341.6,030110,,,A*78
$GPRMC,192301.60,A,3330.527512,N,11739.630104,W,58.0,341.1,030110,,,A*73
$GPRMC,192304.60,A,3330.573902,N,11739.649657,W,58.1,340.6,030110,,,A*72
$GPRMC,192307.70,A,3330.620605,N,11739.669412,W,58.8,340.4,030110,,,A*77
$GPRMC,192310.90,A,3330.670252,N,11739.690670,W,58.4,340.3,030110,,,A*77
$GPRMC,192313.00,A,3330.700460,N,11739.703616,W,55.0,340.3,030110,,,A*7E
$GPRMC,192316.00,A,3330.745755,N,11739.722661,W,56.0,340.5,030110,,,A*79
$GPRMC,192319.30,A,3330.791830,N,11739.742245,W,52.0,340.1,030110,,,A*74
$GPRMC,192322.70,A,3330.838125,N,11739.761957,W,52.9,340.7,030110,,,A*7F
$GPRMC,192325.70,A,3330.879605,N,11739.779448,W,52.6,340.5,030110,,,A*7F
$GPRMC,192328.80,A,3330.922903,N,11739.797606,W,51.9,340.5,030110,,,A*7F
$GPRMC,192331.90,A,3330.965741,N,11739.815613,W,53.0,340.3,030110,,,A*71
$GPRMC,192334.90,A,3331.009021,N,11739.832712,W,54.1,341.2,030110,,,A*74
$GPRMC,192337.90,A,3331.052149,N,11739.849899,W,53.7,341.7,030110,,,A*72
$GPRMC,192340.00,A,3331.080665,N,11739.861999,W,53.6,340.8,030110,,,A*79
$GPRMC,192343.00,A,3331.123122,N,11739.880517,W,53.0,340.2,030110,,,A*7F
$GPRMC,192346.10,A,3331.166534,N,11739.899048,W,54.7,340.0,030110,,,A*7C
$GPRMC,192349.20,A,3331.209370,N,11739.917226,W,53.2,340.1,030110,,,A*72
$GPRMC,192352.20,A,3331.252146,N,11739.936024,W,54.5,340.4,030110,,,A*77
$GPRMC,192355.20,A,3331.294360,N,11739.953326,W,52.3,341.2,030110,,,A*79
$GPRMC,192358.20,A,3331.336542,N,11739.971705,W,52.9,340.1,030110,,,A*76
$GPRMC,192401.40,A,3331.381600,N,11739.990796,W,53.7,340.2,030110,,,A*7B
$GPRMC,192404.40,A,3331.423868,N,11740.008661,W,53.6,340.4,030110,,,A*79
$GPRMC,192407.50,A,3331.466224,N,11740.027015,W,53.5,339.6,030110,,,A*7F
$GPRMC,192410.50,A,3331.507289,N,11740.047713,W,53.5,335.1,030110,,,A*74
$GPRMC,192413.50,A,3331.547312,N,11740.072623,W,52.9,330.5,030110,,,A*78
$GPRMC,192416.60,A,3331.585558,N,11740.101986,W,51.7,325.2,030110,,,A*73
$GPRMC,192419.70,A,3331.620670,N,11740.132756,W,51.3,322.3,030110,,,A*79
$GPRMC,192422.80,A,3331.653524,N,11740.168209,W,51.9,315.7,030110,,,A*72
$GPRMC,192425.80,A,3331.683656,N,11740.208357,W,52.6,309.6,030110,,,A*71
$GPRMC,192428.90,A,3331.711775,N,11740.249240,W,51.0,309.5,030110,,,A*73
$GPRMC,192431.00,A,3331.730177,N,11740.275934,W,50.4,309.7,030110,,,A*75
$GPRMC,192434.10,A,3331.757844,N,11740.316292,W,51.0,310.0,030110,,,A*70
$GPRMC,192437.20,A,3331.787110,N,11740.355910,W,50.6,313.5,030110,,,A*72
$GPRMC,192440.40,A,3331.820730,N,11740.391701,W,51.5,321.3,030110,,,A*71
$GPRMC,192443.40,A,3331.856842,N,11740.421274,W,50.9,328.6,030110,,,A*73
$GPRMC,192446.60,A,3331.895461,N,11740.444557,W,49.3,335.8,030110,,,A*73
$GPRMC,192449.80,A,3331.936918,N,11740.462236,W,50.2,343.2,030110,,,A*7F
$GPRMC,192452.90,A,3331.980853,N,11740.473248,W,52.3,351.3,030110,,,A*7F
$GPRMC,192455.10,A,3332.012798,N,11740.476949,W,53.1,356.6,030110,,,A*77
$GPRMC,192458.10,A,3332.058339,N,11740.477597,W,53.9,0.2,030110,,,A*79
$GPRMC,192501.30,A,3332.105099,N,11740.476379,W,54.5,2.0,030110,,,A*7A
$GPRMC,192504.30,A,3332.152417,N,11740.473549,W,55.3,3.3,030110,,,A*7A
$GPRMC,192507.40,A,3332.198851,N,11740.468704,W,54.1,6.0,030110,,,A*72
$GPRMC,192510.60,A,3332.246122,N,11740.460230,W,55.5,9.8,030110,,,A*73
$GPRMC,192513.70,A,3332.294415,N,11740.449216,W,55.3,11.2,030110,,,A*45
$GPRMC,192516.90,A,3332.340565,N,11740.436897,W,53.2,13.2,030110,,,A*4E
$GPRMC,192520.00,A,3332.384651,N,11740.424023,W,51.0,13.5,030110,,,A*4D
$GPRMC,192523.10,A,3332.426801,N,11740.413836,W,48.5,9.0,030110,,,A*70
$GPRMC,192526.30,A,3332.468623,N,11740.410237,W,47.8,0.9,030110,,,A*79
$GPRMC,192529.50,A,3332.510500,N,11740.413620,W,47.5,353.4,030110,,,A*78
$GPRMC,192532.60,A,3332.552356,N,11740.422333,W,49.0,348.0,030110,,,A*72
$GPRMC,192535.70,A,3332.593974,N,11740.432638,W,50.6,348.0,030110,,,A*72
$GPRMC,192538.90,A,3332.638394,N,11740.443616,W,50.0,348.5,030110,,,A*7E
