NMEA Sentence Code,UTC Time,Status,Latitude,Latitude Direction,Longitude,Longitude Direction,Speed (knots),Track Angle (degrees true),Date,MagneticVariation,Magnetic Variation Direction,[FAA Mode]-Optional,Checksum
$GPRMC,013453.7,A,3245.423253,N,11702.202191,W,20.1,329.2,160410,,,A*4D
$GPRMC,013456.7,A,3245.436780,N,11702.212344,W,19.4,328.7,160410,,,A*47
$GPRMC,013459.7,A,3245.447677,N,11702.220719,W,10.9,327.9,160410,,,A*4F
$GPRMC,013502.7,A,3245.453962,N,11702.224976,W,5.7,331.4,160410,,,A*7D
$GPRMC,013523.7,A,3245.460737,N,11702.226092,W,5.3,30.6,160410,,,A*45
$GPRMC,013526.7,A,3245.466053,N,11702.218702,W,9.7,55.2,160410,,,A*4F
$GPRMC,013529.7,A,3245.483062,N,11702.195220,W,26.1,52.7,160410,,,A*73
$GPRMC,013532.7,A,3245.499889,N,11702.171128,W,30.7,52.0,160410,,,A*78
$GPRMC,013535.7,A,3245.516507,N,11702.146682,W,29.4,51.7,160410,,,A*7E
$GPRMC,013538.7,A,3245.531544,N,11702.124231,W,28.0,52.3,160410,,,A*7B
$GPRMC,013541.7,A,3245.546052,N,11702.102288,W,27.7,51.9,160410,,,A*70
$GPRMC,013544.7,A,3245.560714,N,11702.080921,W,27.6,51.3,160410,,,A*7C
$GPRMC,013547.7,A,3245.574970,N,11702.059772,W,27.4,52.3,160410,,,A*7B
$GPRMC,013550.7,A,3245.589650,N,11702.038467,W,29.3,49.9,160410,,,A*7B
$GPRMC,013553.7,A,3245.606994,N,11702.013612,W,34.6,51.5,160410,,,A*7E
$GPRMC,013556.7,A,3245.626496,N,11701.985218,W,38.3,51.7,160410,,,A*76
$GPRMC,013559.7,A,3245.646693,N,11701.954895,W,40.5,51.5,160410,,,A*70
$GPRMC,013602.7,A,3245.667952,N,11701.921442,W,43.2,54.3,160410,,,A*7F
$GPRMC,013605.7,A,3245.689482,N,11701.885819,W,44.8,55.3,160410,,,A*79
$GPRMC,013608.7,A,3245.710590,N,11701.849744,W,45.2,55.6,160410,,,A*7E
$GPRMC,013611.7,A,3245.731847,N,11701.812730,W,44.5,55.6,160410,,,A*79
$GPRMC,013614.7,A,3245.753439,N,11701.776188,W,45.1,54.9,160410,,,A*7E
$GPRMC,013617.7,A,3245.774795,N,11701.738263,W,46.6,55.9,160410,,,A*74
$GPRMC,013620.7,A,3245.797302,N,11701.700611,W,47.4,53.3,160410,,,A*72
$GPRMC,013623.7,A,3245.823311,N,11701.665258,W,47.6,47.1,160410,,,A*7D
$GPRMC,013626.7,A,3245.851042,N,11701.631592,W,45.7,45.1,160410,,,A*79
$GPRMC,013629.7,A,3245.874551,N,11701.603085,W,35.4,45.7,160410,,,A*76
$GPRMC,013632.7,A,3245.893896,N,11701.580430,W,31.5,44.8,160410,,,A*7A
$GPRMC,013635.7,A,3245.912124,N,11701.558551,W,30.8,45.7,160410,,,A*74
$GPRMC,013638.7,A,3245.928380,N,11701.537388,W,28.6,47.5,160410,,,A*70
$GPRMC,013641.7,A,3245.937771,N,11701.524373,W,9.3,48.0,160410,,,A*40
$GPRMC,013702.7,A,3245.941038,N,11701.519661,W,10.1,50.3,160410,,,A*75
$GPRMC,013705.7,A,3245.947903,N,11701.510080,W,13.6,50.5,160410,,,A*77
$GPRMC,013708.7,A,3245.957684,N,11701.497349,W,17.4,45.8,160410,,,A*7C
$GPRMC,013711.7,A,3245.970904,N,11701.484817,W,21.7,38.9,160410,,,A*79
$GPRMC,013714.7,A,3245.984403,N,11701.474242,W,16.2,32.2,160410,,,A*78
$GPRMC,013717.7,A,3245.995964,N,11701.465195,W,16.1,32.6,160410,,,A*79
$GPRMC,013720.7,A,3246.005519,N,11701.457235,W,13.4,35.9,160410,,,A*78
$GPRMC,013723.7,A,3246.014948,N,11701.448845,W,16.5,36.8,160410,,,A*76
$GPRMC,013726.7,A,3246.026361,N,11701.438853,W,16.1,37.2,160410,,,A*7C
$GPRMC,013729.7,A,3246.035493,N,11701.430871,W,10.1,37.7,160410,,,A*70
$GPRMC,013747.9,A,3246.044343,N,11701.423785,W,7.8,37.0,160410,,,A*44
$GPRMC,013750.9,A,3246.053985,N,11701.416342,W,12.7,35.9,160410,,,A*7D
$GPRMC,013753.9,A,3246.067510,N,11701.408692,W,15.1,9.2,160410,,,A*4B
$GPRMC,013756.2,A,3246.078975,N,11701.411494,W,14.7,347.2,160410,,,A*46
$GPRMC,013759.2,A,3246.093142,N,11701.428613,W,24.3,325.2,160410,,,A*44
$GPRMC,013802.2,A,3246.110629,N,11701.441272,W,23.8,331.7,160410,,,A*45
$GPRMC,013805.2,A,3246.126775,N,11701.452168,W,20.4,331.0,160410,,,A*4D
$GPRMC,013808.2,A,3246.141382,N,11701.461359,W,20.0,334.0,160410,,,A*4C
$GPRMC,013811.2,A,3246.155922,N,11701.470497,W,18.2,332.1,160410,,,A*4A
$GPRMC,013814.2,A,3246.167940,N,11701.477860,W,13.6,334.1,160410,,,A*40
$GPRMC,013824.2,A,3246.174533,N,11701.480386,W,6.0,321.0,160410,,,A*75
$GPRMC,013827.2,A,3246.182579,N,11701.484542,W,11.2,353.7,160410,,,A*4D
$GPRMC,013830.9,A,3246.190104,N,11701.474977,W,12.7,51.4,160410,,,A*7C
$GPRMC,013833.9,A,3246.198350,N,11701.447184,W,27.3,71.4,160410,,,A*70
$GPRMC,013836.9,A,3246.205952,N,11701.417044,W,28.5,71.6,160410,,,A*79
$GPRMC,013839.9,A,3246.209599,N,11701.393173,W,24.9,76.2,160410,,,A*7C
$GPRMC,013842.9,A,3246.218435,N,11701.366810,W,30.1,72.6,160410,,,A*7C
$GPRMC,013845.9,A,3246.224889,N,11701.342272,W,21.4,69.6,160410,,,A*78
$GPRMC,013848.9,A,3246.228695,N,11701.332801,W,8.0,65.1,160410,,,A*47
$GPRMC,013851.9,A,3246.230324,N,11701.327609,W,5.1,65.3,160410,,,A*45
$GPRMC,013857.9,A,3246.230402,N,11701.318371,W,6.1,77.2,160410,,,A*47
$GPRMC,013900.9,A,3246.231705,N,11701.313579,W,5.6,70.0,160410,,,A*45
$GPRMC,013903.9,A,3246.232895,N,11701.309473,W,4.9,71.3,160410,,,A*4F
$GPRMC,013906.9,A,3246.235545,N,11701.301827,W,7.7,69.8,160410,,,A*47
$GPRMC,013909.9,A,3246.237575,N,11701.291418,W,12.0,74.8,160410,,,A*7E
$GPRMC,013912.9,A,3246.239195,N,11701.281527,W,11.2,73.8,160410,,,A*7A
$GPRMC,013915.9,A,3246.242140,N,11701.271335,W,6.8,71.8,160410,,,A*4D
$GPRMC,013918.9,A,3246.244632,N,11701.265702,W,7.2,73.0,160410,,,A*40
$GPRMC,013924.9,A,3246.244298,N,11701.258890,W,8.3,91.0,160410,,,A*43
$GPRMC,013927.9,A,3246.250501,N,11701.242660,W,20.5,72.0,160410,,,A*79
$GPRMC,013930.9,A,3246.256764,N,11701.215394,W,29.0,74.7,160410,,,A*79
$GPRMC,013933.2,A,3246.262826,N,11701.191747,W,34.0,74.2,160410,,,A*73
$GPRMC,013936.2,A,3246.276490,N,11701.155259,W,41.1,64.5,160410,,,A*75
$GPRMC,013939.2,A,3246.293720,N,11701.117512,W,44.5,60.4,160410,,,A*73
$GPRMC,013942.2,A,3246.314680,N,11701.077569,W,49.9,56.9,160410,,,A*78
$GPRMC,013945.2,A,3246.338356,N,11701.036017,W,51.7,57.3,160410,,,A*7A
$GPRMC,013948.9,A,3246.367384,N,11700.979948,W,54.2,59.0,160410,,,A*74
$GPRMC,013951.9,A,3246.387107,N,11700.932303,W,56.5,63.4,160410,,,A*79
$GPRMC,013954.9,A,3246.409207,N,11700.881913,W,56.5,64.2,160410,,,A*7D
$GPRMC,013957.9,A,3246.428788,N,11700.831877,W,56.9,65.8,160410,,,A*70
$GPRMC,014000.9,A,3246.447856,N,11700.777968,W,58.5,65.9,160410,,,A*78
$GPRMC,014003.9,A,3246.469494,N,11700.723684,W,60.1,66.0,160410,,,A*7C
$GPRMC,014006.9,A,3246.489277,N,11700.669704,W,58.0,66.8,160410,,,A*78
$GPRMC,014009.9,A,3246.507800,N,11700.619950,W,55.1,66.5,160410,,,A*73
$GPRMC,014012.9,A,3246.525144,N,11700.570470,W,53.7,66.6,160410,,,A*70
$GPRMC,014015.9,A,3246.542313,N,11700.523734,W,53.4,67.2,160410,,,A*75
$GPRMC,014018.9,A,3246.560257,N,11700.474331,W,54.1,66.7,160410,,,A*7D
$GPRMC,014021.9,A,3246.576105,N,11700.425915,W,53.9,68.1,160410,,,A*7B
$GPRMC,014024.9,A,3246.593441,N,11700.376189,W,54.3,68.0,160410,,,A*70
$GPRMC,014027.9,A,3246.612623,N,11700.327285,W,55.5,67.0,160410,,,A*7C
$GPRMC,014030.9,A,3246.631025,N,11700.276322,W,56.4,65.9,160410,,,A*7B
$GPRMC,014033.9,A,3246.650485,N,11700.225314,W,56.5,66.3,160410,,,A*7A
$GPRMC,014036.2,A,3246.665136,N,11700.193941,W,52.4,57.7,160410,,,A*78
$GPRMC,014039.9,A,3246.696297,N,11700.136788,W,54.2,57.3,160410,,,A*78
$GPRMC,014042.9,A,3246.720541,N,11700.089310,W,55.5,60.6,160410,,,A*73
$GPRMC,014045.9,A,3246.737668,N,11700.040709,W,53.5,66.7,160410,,,A*72
$GPRMC,014048.9,A,3246.749838,N,11659.988972,W,54.1,74.3,160410,,,A*7B
$GPRMC,014051.9,A,3246.756847,N,11659.938052,W,55.8,81.1,160410,,,A*75
$GPRMC,014054.9,A,3246.757930,N,11659.880956,W,57.0,89.5,160410,,,A*79
$GPRMC,014057.9,A,3246.756750,N,11659.825361,W,56.4,91.8,160410,,,A*73
$GPRMC,014100.9,A,3246.754467,N,11659.770174,W,57.8,92.9,160410,,,A*73
$GPRMC,014103.9,A,3246.751673,N,11659.712378,W,58.3,93.6,160410,,,A*72
$GPRMC,014106.9,A,3246.750032,N,11659.653706,W,58.5,91.5,160410,,,A*7B
$GPRMC,014109.9,A,3246.747716,N,11659.596835,W,58.1,92.4,160410,,,A*70
$GPRMC,014112.9,A,3246.746700,N,11659.538813,W,59.7,92.0,160410,,,A*7F
$GPRMC,014115.9,A,3246.744866,N,11659.476828,W,63.5,92.2,160410,,,A*7F
