NMEA Sentence Code,UTC Time,Status,Latitude,Latitude Direction,Longitude,Longitude Direction,Speed (knots),Track Angle (degrees true),Date,MagneticVariation,Magnetic Variation Direction,[FAA Mode]-Optional,Checksum
$GPRMC,203918.000,A,3347.6346,N,11622.0892,W,53.34,125.35,250210,,*24
$GPRMC,203921.000,A,3347.6091,N,11622.0462,W,52.19,125.23,250210,,*2D
$GPRMC,203924.000,A,3347.5837,N,11622.0032,W,53.00,125.52,250210,,*21
$GPRMC,203927.000,A,3347.5576,N,11621.9597,W,53.94,125.64,250210,,*22
$GPRMC,203930.000,A,3347.5318,N,11621.9163,W,52.49,125.10,250210,,*27
$GPRMC,203933.000,A,3347.5069,N,11621.8735,W,52.28,125.04,250210,,*27
$GPRMC,203936.000,A,3347.4816,N,11621.8306,W,52.72,125.05,250210,,*29
$GPRMC,203939.000,A,3347.4565,N,11621.7881,W,51.70,125.25,250210,,*27
$GPRMC,203942.000,A,3347.4314,N,11621.7458,W,52.27,125.38,250210,,*2E
$GPRMC,203945.000,A,3347.4059,N,11621.7028,W,53.19,125.22,250210,,*27
$GPRMC,203948.000,A,3347.3800,N,11621.6591,W,53.72,125.39,250210,,*28
$GPRMC,203951.000,A,3347.3541,N,11621.6153,W,53.26,125.52,250210,,*2E
$GPRMC,203954.000,A,3347.3286,N,11621.5725,W,52.27,125.40,250210,,*20
$GPRMC,203957.000,A,3347.3033,N,11621.5297,W,52.64,125.31,250210,,*22
$GPRMC,204000.000,A,3347.2778,N,11621.4867,W,52.93,125.46,250210,,*2B
$GPRMC,204003.000,A,3347.2522,N,11621.4436,W,52.62,125.25,250210,,*26
$GPRMC,204006.000,A,3347.2269,N,11621.4012,W,52.00,125.70,250210,,*2D
$GPRMC,204009.000,A,3347.2014,N,11621.3586,W,52.94,125.54,250210,,*2E
$GPRMC,204012.000,A,3347.1757,N,11621.3151,W,53.42,125.20,250210,,*20
$GPRMC,204015.000,A,3347.1496,N,11621.2718,W,54.13,126.23,250210,,*20
$GPRMC,204018.000,A,3347.1234,N,11621.2285,W,53.29,125.50,250210,,*2B
$GPRMC,204021.000,A,3347.0972,N,11621.1856,W,53.48,125.59,250210,,*20
$GPRMC,204024.000,A,3347.0710,N,11621.1425,W,53.39,125.24,250210,,*2B
$GPRMC,204027.000,A,3347.0453,N,11621.0994,W,52.86,125.51,250210,,*2D
$GPRMC,204031.000,A,3347.0115,N,11621.0426,W,52.44,125.28,250210,,*29
$GPRMC,204034.000,A,3346.9861,N,11620.9998,W,52.61,125.41,250210,,*26
$GPRMC,204037.000,A,3346.9610,N,11620.9576,W,51.24,125.17,250210,,*20
$GPRMC,204040.000,A,3346.9366,N,11620.9161,W,51.29,125.34,250210,,*2A
$GPRMC,204043.000,A,3346.9115,N,11620.8741,W,51.94,125.59,250210,,*27
$GPRMC,204046.000,A,3346.8866,N,11620.8323,W,51.22,125.36,250210,,*2A
$GPRMC,204049.000,A,3346.8620,N,11620.7908,W,51.07,125.47,250210,,*24
$GPRMC,204052.000,A,3346.8375,N,11620.7493,W,50.80,125.35,250210,,*2F
$GPRMC,204055.000,A,3346.8130,N,11620.7079,W,50.75,125.33,250210,,*27
$GPRMC,204058.000,A,3346.7885,N,11620.6665,W,50.75,125.33,250210,,*28
$GPRMC,204100.000,A,3346.7721,N,11620.6389,W,50.99,125.44,250210,,*20
$GPRMC,204103.000,A,3346.7477,N,11620.5975,W,50.64,125.19,250210,,*23
$GPRMC,204106.000,A,3346.7230,N,11620.5561,W,51.05,125.53,250210,,*22
$GPRMC,204109.000,A,3346.6984,N,11620.5145,W,51.10,125.20,250210,,*2A
$GPRMC,204112.000,A,3346.6731,N,11620.4716,W,52.55,125.29,250210,,*2A
$GPRMC,204115.000,A,3346.6470,N,11620.4274,W,54.76,125.15,250210,,*22
$GPRMC,204118.000,A,3346.6210,N,11620.3813,W,56.66,123.62,250210,,*26
$GPRMC,204121.000,A,3346.5943,N,11620.3346,W,56.02,125.22,250210,,*29
$GPRMC,204124.000,A,3346.5675,N,11620.2899,W,55.23,125.38,250210,,*25
$GPRMC,204127.000,A,3346.5406,N,11620.2448,W,55.75,125.42,250210,,*2E
$GPRMC,204130.000,A,3346.5136,N,11620.1993,W,56.13,125.27,250210,,*26
$GPRMC,204133.000,A,3346.4861,N,11620.1529,W,58.02,125.54,250210,,*28
$GPRMC,204136.000,A,3346.4575,N,11620.1051,W,59.18,125.46,250210,,*26
$GPRMC,204139.000,A,3346.4292,N,11620.0576,W,57.83,125.44,250210,,*28
$GPRMC,204142.000,A,3346.4015,N,11620.0114,W,56.49,125.37,250210,,*2A
$GPRMC,204145.000,A,3346.3742,N,11619.9652,W,57.22,125.43,250210,,*26
$GPRMC,204149.000,A,3346.3363,N,11619.9034,W,58.16,127.42,250210,,*20
$GPRMC,204152.000,A,3346.3074,N,11619.8570,W,57.47,125.97,250210,,*2A
$GPRMC,204155.000,A,3346.2797,N,11619.8104,W,56.94,125.39,250210,,*2A
$GPRMC,204158.000,A,3346.2527,N,11619.7647,W,55.45,125.53,250210,,*22
$GPRMC,204200.000,A,3346.2349,N,11619.7351,W,54.26,125.75,250210,,*20
$GPRMC,204203.000,A,3346.2092,N,11619.6917,W,52.88,125.10,250210,,*2E
$GPRMC,204206.000,A,3346.1836,N,11619.6484,W,53.14,125.39,250210,,*26
$GPRMC,204209.000,A,3346.1579,N,11619.6049,W,53.47,125.19,250210,,*2E
$GPRMC,204212.000,A,3346.1320,N,11619.5611,W,53.84,125.54,250210,,*20
$GPRMC,204215.000,A,3346.1058,N,11619.5171,W,54.07,125.54,250210,,*26
$GPRMC,204218.000,A,3346.0796,N,11619.4731,W,54.00,125.32,250210,,*2B
$GPRMC,204221.000,A,3346.0537,N,11619.4292,W,53.81,124.97,250210,,*24
$GPRMC,204224.000,A,3346.0283,N,11619.3851,W,53.90,124.22,250210,,*25
$GPRMC,204227.000,A,3346.0034,N,11619.3404,W,53.88,122.78,250210,,*24
$GPRMC,204230.000,A,3345.9794,N,11619.2948,W,53.88,121.48,250210,,*21
$GPRMC,204233.000,A,3345.9567,N,11619.2482,W,54.17,119.80,250210,,*29
$GPRMC,204236.000,A,3345.9349,N,11619.2007,W,54.27,118.49,250210,,*28
$GPRMC,204239.000,A,3345.9137,N,11619.1525,W,54.16,117.04,250210,,*2E
$GPRMC,204242.000,A,3345.8939,N,11619.1037,W,53.99,114.80,250210,,*2C
$GPRMC,204245.000,A,3345.8762,N,11619.0541,W,53.82,111.70,250210,,*2E
$GPRMC,204248.000,A,3345.8603,N,11619.0037,W,53.71,109.99,250210,,*23
$GPRMC,204251.000,A,3345.8451,N,11618.9532,W,53.58,110.12,250210,,*26
$GPRMC,204254.000,A,3345.8297,N,11618.9029,W,53.52,109.80,250210,,*29
$GPRMC,204257.000,A,3345.8146,N,11618.8526,W,53.53,109.76,250210,,*26
$GPRMC,204300.000,A,3345.7994,N,11618.8023,W,53.67,109.59,250210,,*27
$GPRMC,204303.000,A,3345.7842,N,11618.7517,W,53.93,109.90,250210,,*2D
$GPRMC,204306.000,A,3345.7688,N,11618.7010,W,54.07,109.80,250210,,*29
$GPRMC,204309.000,A,3345.7534,N,11618.6502,W,53.96,109.81,250210,,*2B
$GPRMC,204312.000,A,3345.7381,N,11618.5996,W,53.88,109.81,250210,,*24
$GPRMC,204315.000,A,3345.7228,N,11618.5489,W,53.98,109.71,250210,,*2C
$GPRMC,204318.000,A,3345.7077,N,11618.4981,W,53.84,109.50,250210,,*23
$GPRMC,204321.000,A,3345.6930,N,11618.4473,W,53.76,108.18,250210,,*22
$GPRMC,204324.000,A,3345.6808,N,11618.3956,W,53.93,104.33,250210,,*2E
$GPRMC,204327.000,A,3345.6707,N,11618.3429,W,54.06,101.99,250210,,*26
$GPRMC,204330.000,A,3345.6619,N,11618.2897,W,54.30,101.15,250210,,*27
$GPRMC,204333.000,A,3345.6531,N,11618.2367,W,54.23,101.75,250210,,*2D
$GPRMC,204336.000,A,3345.6435,N,11618.1840,W,54.29,103.43,250210,,*2D
$GPRMC,204339.000,A,3345.6317,N,11618.1317,W,54.14,106.93,250210,,*2A
$GPRMC,204342.000,A,3345.6171,N,11618.0807,W,54.59,110.31,250210,,*29
$GPRMC,204345.000,A,3345.6003,N,11618.0304,W,54.00,113.31,250210,,*2D
$GPRMC,204348.000,A,3345.5811,N,11617.9817,W,53.95,116.59,250210,,*27
$GPRMC,204351.000,A,3345.5601,N,11617.9340,W,53.91,118.60,250210,,*29
$GPRMC,204354.000,A,3345.5386,N,11617.8867,W,53.89,118.47,250210,,*25
$GPRMC,204357.000,A,3345.5174,N,11617.8394,W,53.07,117.88,250210,,*24
$GPRMC,204400.000,A,3345.4980,N,11617.7919,W,53.35,114.45,250210,,*20
$GPRMC,204403.000,A,3345.4808,N,11617.7428,W,53.63,110.97,250210,,*25
$GPRMC,204406.000,A,3345.4664,N,11617.6920,W,53.72,107.98,250210,,*29
$GPRMC,204409.000,A,3345.4517,N,11617.6412,W,53.85,109.91,250210,,*22
$GPRMC,204412.000,A,3345.4363,N,11617.5905,W,53.92,109.86,250210,,*25
$GPRMC,204415.000,A,3345.4211,N,11617.5398,W,54.03,109.58,250210,,*24
$GPRMC,204418.000,A,3345.4059,N,11617.4889,W,54.19,109.98,250210,,*2A
$GPRMC,204421.000,A,3345.3905,N,11617.4380,W,54.26,110.04,250210,,*24
$GPRMC,204424.000,A,3345.3750,N,11617.3870,W,54.26,109.77,250210,,*20
$GPRMC,204427.000,A,3345.3597,N,11617.3359,W,54.24,109.76,250210,,*29
$GPRMC,204430.000,A,3345.3443,N,11617.2850,W,54.26,109.93,250210,,*2D
$GPRMC,204433.000,A,3345.3285,N,11617.2341,W,54.31,110.98,250210,,*2C
$GPRMC,204436.000,A,3345.3117,N,11617.1838,W,54.29,112.64,250210,,*2F
$GPRMC,204439.000,A,3345.2940,N,11617.1339,W,54.17,113.48,250210,,*23
$GPRMC,204442.000,A,3345.2753,N,11617.0846,W,54.10,115.24,250210,,*2A
$GPRMC,204445.000,A,3345.2559,N,11617.0359,W,53.84,115.76,250210,,*2D
$GPRMC,204448.000,A,3345.2361,N,11616.9876,W,53.79,115.98,250210,,*21
$GPRMC,204451.000,A,3345.2167,N,11616.9393,W,53.76,115.60,250210,,*25
$GPRMC,204454.000,A,3345.1973,N,11616.8908,W,53.73,115.75,250210,,*26
$GPRMC,204457.000,A,3345.1778,N,11616.8425,W,53.78,115.82,250210,,*21
$GPRMC,204500.000,A,3345.1583,N,11616.7940,W,53.94,115.96,250210,,*22
$GPRMC,204503.000,A,3345.1386,N,11616.7456,W,54.02,115.80,250210,,*27
$GPRMC,204506.000,A,3345.1187,N,11616.6971,W,54.13,115.99,250210,,*20
$GPRMC,204509.000,A,3345.0987,N,11616.6484,W,54.55,115.95,250210,,*2F
$GPRMC,204512.000,A,3345.0785,N,11616.5993,W,54.79,115.80,250210,,*2B
$GPRMC,204515.000,A,3345.0587,N,11616.5499,W,54.71,115.35,250210,,*2D
$GPRMC,204518.000,A,3345.0398,N,11616.5003,W,54.17,113.37,250210,,*2B
$GPRMC,204521.000,A,3345.0241,N,11616.4496,W,54.03,108.14,250210,,*23
$GPRMC,204524.000,A,3345.0118,N,11616.3975,W,53.87,104.19,250210,,*24
$GPRMC,204527.000,A,3345.0026,N,11616.3448,W,54.12,100.05,250210,,*2A
$GPRMC,204530.000,A,3344.9959,N,11616.2910,W,54.40,99.07,250210,,*10
$GPRMC,204533.000,A,3344.9882,N,11616.2378,W,54.63,101.23,250210,,*27
$GPRMC,204536.000,A,3344.9770,N,11616.1854,W,54.03,107.18,250210,,*2E
$GPRMC,204539.000,A,3344.9615,N,11616.1346,W,53.95,112.57,250210,,*2C
$GPRMC,204542.000,A,3344.9425,N,11616.0858,W,53.81,117.52,250210,,*21
$GPRMC,204545.000,A,3344.9195,N,11616.0396,W,53.84,123.18,250210,,*2D
$GPRMC,204548.000,A,3344.8931,N,11615.9961,W,53.82,128.14,250210,,*2E
$GPRMC,204551.000,A,3344.8636,N,11615.9559,W,53.59,133.33,250210,,*20
$GPRMC,204554.000,A,3344.8315,N,11615.9185,W,53.48,136.00,250210,,*21
$GPRMC,204557.000,A,3344.7992,N,11615.8814,W,53.71,136.04,250210,,*26
$GPRMC,204600.000,A,3344.7666,N,11615.8440,W,53.42,135.26,250210,,*2D
$GPRMC,204603.000,A,3344.7354,N,11615.8056,W,53.46,132.15,250210,,*2A
$GPRMC,204606.000,A,3344.7067,N,11615.7647,W,53.66,128.04,250210,,*2C
$GPRMC,204609.000,A,3344.6805,N,11615.7215,W,53.67,123.91,250210,,*2B
$GPRMC,204612.000,A,3344.6563,N,11615.6760,W,53.98,121.34,250210,,*27
$GPRMC,204615.000,A,3344.6333,N,11615.6297,W,53.89,120.98,250210,,*29
$GPRMC,204618.000,A,3344.6106,N,11615.5834,W,53.79,120.63,250210,,*2B
$GPRMC,204621.000,A,3344.5877,N,11615.5370,W,53.84,120.83,250210,,*2A
$GPRMC,204624.000,A,3344.5646,N,11615.4907,W,53.94,121.11,250210,,*23
$GPRMC,204627.000,A,3344.5416,N,11615.4443,W,53.87,120.85,250210,,*24
$GPRMC,204630.000,A,3344.5186,N,11615.3979,W,53.94,120.58,250210,,*2F
$GPRMC,204633.000,A,3344.4955,N,11615.3515,W,54.27,121.07,250210,,*29
$GPRMC,204636.000,A,3344.4721,N,11615.3049,W,54.36,120.89,250210,,*2A
$GPRMC,204639.000,A,3344.4489,N,11615.2581,W,54.41,120.75,250210,,*27
$GPRMC,204642.000,A,3344.4257,N,11615.2115,W,54.15,121.00,250210,,*25
$GPRMC,204645.000,A,3344.4031,N,11615.1647,W,53.92,118.65,250210,,*22
$GPRMC,204648.000,A,3344.3825,N,11615.1163,W,54.04,116.21,250210,,*22
$GPRMC,204651.000,A,3344.3637,N,11615.0673,W,53.75,113.36,250210,,*22
$GPRMC,204654.000,A,3344.3469,N,11615.0174,W,53.94,110.81,250210,,*2E
$GPRMC,204657.000,A,3344.3317,N,11614.9668,W,53.89,108.40,250210,,*29
$GPRMC,204700.000,A,3344.3186,N,11614.9153,W,53.90,105.61,250210,,*29
$GPRMC,204703.000,A,3344.3074,N,11614.8631,W,53.91,103.04,250210,,*20
$GPRMC,204706.000,A,3344.2984,N,11614.8103,W,53.82,100.89,250210,,*20
$GPRMC,204709.000,A,3344.2914,N,11614.7571,W,54.16,97.92,250210,,*17
$GPRMC,204712.000,A,3344.2864,N,11614.7031,W,54.29,95.27,250210,,*1A
$GPRMC,204715.000,A,3344.2838,N,11614.6489,W,54.40,92.78,250210,,*10
$GPRMC,204718.000,A,3344.2829,N,11614.5945,W,54.43,90.28,250210,,*17
$GPRMC,204721.000,A,3344.2841,N,11614.5403,W,54.18,87.78,250210,,*11
$GPRMC,204724.000,A,3344.2872,N,11614.4864,W,54.04,84.98,250210,,*18
$GPRMC,204727.000,A,3344.2924,N,11614.4327,W,53.92,82.67,250210,,*1B
$GPRMC,204730.000,A,3344.2995,N,11614.3797,W,53.85,79.98,250210,,*1D
$GPRMC,204733.000,A,3344.3087,N,11614.3272,W,53.96,77.27,250210,,*13
$GPRMC,204736.000,A,3344.3191,N,11614.2746,W,54.17,76.86,250210,,*17
$GPRMC,204739.000,A,3344.3299,N,11614.2221,W,54.02,76.70,250210,,*1A
$GPRMC,204742.000,A,3344.3405,N,11614.1696,W,53.91,76.80,250210,,*1C
$GPRMC,204745.000,A,3344.3501,N,11614.1168,W,54.05,79.56,250210,,*16
$GPRMC,204748.000,A,3344.3562,N,11614.0634,W,53.97,84.97,250210,,*12
$GPRMC,204751.000,A,3344.3584,N,11614.0094,W,54.52,88.62,250210,,*16
$GPRMC,204754.000,A,3344.3565,N,11613.9555,W,53.81,94.75,250210,,*18
$GPRMC,204757.000,A,3344.3523,N,11613.9019,W,54.02,95.62,250210,,*1F
$GPRMC,204800.000,A,3344.3478,N,11613.8481,W,53.93,95.71,250210,,*14
$GPRMC,204803.000,A,3344.3435,N,11613.7944,W,53.84,95.23,250210,,*14
$GPRMC,204806.000,A,3344.3392,N,11613.7408,W,53.97,95.53,250210,,*1B
$GPRMC,204809.000,A,3344.3349,N,11613.6869,W,54.18,95.35,250210,,*18
$GPRMC,204812.000,A,3344.3306,N,11613.6329,W,54.20,95.34,250210,,*1C
$GPRMC,204815.000,A,3344.3262,N,11613.5791,W,54.01,95.53,250210,,*1E
$GPRMC,204818.000,A,3344.3218,N,11613.5253,W,53.98,95.52,250210,,*13
$GPRMC,204821.000,A,3344.3174,N,11613.4716,W,53.97,95.47,250210,,*1E
$GPRMC,204824.000,A,3344.3130,N,11613.4177,W,54.10,95.57,250210,,*13
$GPRMC,204827.000,A,3344.3086,N,11613.3643,W,53.92,95.15,250210,,*10
$GPRMC,204830.000,A,3344.3041,N,11613.3110,W,54.02,95.76,250210,,*17
$GPRMC,204833.000,A,3344.2998,N,11613.2572,W,54.20,95.29,250210,,*13
$GPRMC,204836.000,A,3344.2954,N,11613.2032,W,54.17,95.53,250210,,*1E
$GPRMC,204839.000,A,3344.2909,N,11613.1494,W,53.90,95.63,250210,,*19
$GPRMC,204842.000,A,3344.2859,N,11613.0957,W,54.22,97.33,250210,,*1B
$GPRMC,204845.000,A,3344.2777,N,11613.0430,W,54.12,103.00,250210,,*2C
$GPRMC,204848.000,A,3344.2655,N,11612.9912,W,53.91,108.48,250210,,*2E
$GPRMC,204851.000,A,3344.2488,N,11612.9411,W,53.67,114.31,250210,,*20
$GPRMC,204854.000,A,3344.2284,N,11612.8931,W,53.62,119.13,250210,,*29
$GPRMC,204857.000,A,3344.2043,N,11612.8476,W,53.80,124.66,250210,,*2D
$GPRMC,204900.000,A,3344.1768,N,11612.8055,W,52.78,130.26,250210,,*21
$GPRMC,204903.000,A,3344.1471,N,11612.7673,W,51.54,134.74,250210,,*2A
$GPRMC,204906.000,A,3344.1153,N,11612.7331,W,50.18,140.06,250210,,*26
$GPRMC,204909.000,A,3344.0825,N,11612.7026,W,49.26,141.84,250210,,*2B
$GPRMC,204912.000,A,3344.0500,N,11612.6729,W,48.68,141.63,250210,,*20
$GPRMC,204915.000,A,3344.0178,N,11612.6430,W,48.59,141.75,250210,,*22
$GPRMC,204918.000,A,3343.9854,N,11612.6130,W,49.17,141.55,250210,,*2A
$GPRMC,204921.000,A,3343.9528,N,11612.5822,W,49.95,141.63,250210,,*20
$GPRMC,204924.000,A,3343.9198,N,11612.5512,W,49.69,141.36,250210,,*27
$GPRMC,204927.000,A,3343.8874,N,11612.5205,W,49.55,141.10,250210,,*24
$GPRMC,204930.000,A,3343.8545,N,11612.4879,W,51.61,138.98,250210,,*2D
$GPRMC,204933.000,A,3343.8221,N,11612.4534,W,51.59,137.26,250210,,*2E
$GPRMC,204936.000,A,3343.7906,N,11612.4179,W,51.63,135.84,250210,,*24
$GPRMC,204939.000,A,3343.7601,N,11612.3812,W,51.85,134.07,250210,,*22
$GPRMC,204942.000,A,3343.7310,N,11612.3421,W,52.27,132.02,250210,,*2F
$GPRMC,204945.000,A,3343.7027,N,11612.3028,W,51.38,130.90,250210,,*26
$GPRMC,204948.000,A,3343.6753,N,11612.2636,W,50.67,130.11,250210,,*24
$GPRMC,204951.000,A,3343.6481,N,11612.2249,W,50.88,129.99,250210,,*25
$GPRMC,204954.000,A,3343.6206,N,11612.1857,W,51.79,130.20,250210,,*2A
$GPRMC,204957.000,A,3343.5922,N,11612.1458,W,53.06,130.70,250210,,*2B
$GPRMC,205000.000,A,3343.5631,N,11612.1062,W,52.28,132.56,250210,,*2A
$GPRMC,205003.000,A,3343.5327,N,11612.0689,W,51.50,136.54,250210,,*23
$GPRMC,205006.000,A,3343.5016,N,11612.0359,W,50.11,139.36,250210,,*20
$GPRMC,205009.000,A,3343.4697,N,11612.0042,W,49.48,140.43,250210,,*20
$GPRMC,205012.000,A,3343.4376,N,11611.9727,W,49.52,140.72,250210,,*27
$GPRMC,205015.000,A,3343.4054,N,11611.9411,W,49.99,140.64,250210,,*25
$GPRMC,205018.000,A,3343.3720,N,11611.9103,W,50.21,142.67,250210,,*27
$GPRMC,205021.000,A,3343.3390,N,11611.8800,W,48.92,141.07,250210,,*2D
$GPRMC,205024.000,A,3343.3075,N,11611.8494,W,48.27,140.66,250210,,*29
$GPRMC,205027.000,A,3343.2764,N,11611.8187,W,48.57,140.57,250210,,*2E
$GPRMC,205030.000,A,3343.2447,N,11611.7877,W,49.23,140.83,250210,,*28
$GPRMC,205033.000,A,3343.2129,N,11611.7566,W,49.07,140.75,250210,,*24
$GPRMC,205036.000,A,3343.1810,N,11611.7262,W,48.44,141.92,250210,,*2C
$GPRMC,205039.000,A,3343.1479,N,11611.6972,W,49.41,143.95,250210,,*2A
$GPRMC,205042.000,A,3343.1141,N,11611.6677,W,50.19,142.72,250210,,*2F
$GPRMC,205045.000,A,3343.0811,N,11611.6361,W,50.31,139.15,250210,,*20
$GPRMC,205048.000,A,3343.0505,N,11611.6022,W,49.44,135.33,250210,,*23
$GPRMC,205051.000,A,3343.0220,N,11611.5673,W,48.46,134.37,250210,,*2C
$GPRMC,205054.000,A,3342.9941,N,11611.5329,W,47.44,134.29,250210,,*25
$GPRMC,205057.000,A,3342.9667,N,11611.4993,W,46.48,134.29,250210,,*2A
$GPRMC,205100.000,A,3342.9392,N,11611.4653,W,48.89,134.53,250210,,*2B
$GPRMC,205103.000,A,3342.9102,N,11611.4297,W,50.22,134.36,250210,,*24
$GPRMC,205106.000,A,3342.8810,N,11611.3939,W,50.05,134.40,250210,,*26
$GPRMC,205109.000,A,3342.8517,N,11611.3582,W,49.96,134.65,250210,,*2A
$GPRMC,205112.000,A,3342.8225,N,11611.3225,W,49.93,134.51,250210,,*2E
$GPRMC,205116.000,A,3342.7836,N,11611.2749,W,49.97,134.03,250210,,*20
$GPRMC,205119.000,A,3342.7545,N,11611.2391,W,50.12,134.50,250210,,*24
$GPRMC,205122.000,A,3342.7253,N,11611.2034,W,49.90,134.46,250210,,*25
$GPRMC,205125.000,A,3342.6961,N,11611.1677,W,50.08,134.33,250210,,*20
$GPRMC,205128.000,A,3342.6669,N,11611.1320,W,50.01,134.28,250210,,*2E
$GPRMC,205131.000,A,3342.6378,N,11611.0962,W,49.73,134.53,250210,,*2F
$GPRMC,205134.000,A,3342.6087,N,11611.0608,W,49.61,134.09,250210,,*26
$GPRMC,205137.000,A,3342.5797,N,11611.0252,W,49.76,134.57,250210,,*26
$GPRMC,205140.000,A,3342.5509,N,11610.9893,W,50.00,133.83,250210,,*2B
$GPRMC,205143.000,A,3342.5220,N,11610.9532,W,50.27,133.84,250210,,*20
$GPRMC,205146.000,A,3342.4931,N,11610.9171,W,50.23,133.92,250210,,*2F
$GPRMC,205149.000,A,3342.4640,N,11610.8810,W,50.30,134.35,250210,,*2E
$GPRMC,205152.000,A,3342.4347,N,11610.8450,W,50.60,134.75,250210,,*2F
$GPRMC,205155.000,A,3342.4049,N,11610.8090,W,50.80,134.55,250210,,*21
$GPRMC,205158.000,A,3342.3744,N,11610.7734,W,51.01,137.35,250210,,*2A
$GPRMC,205200.000,A,3342.3533,N,11610.7512,W,51.04,138.96,250210,,*23
$GPRMC,205203.000,A,3342.3203,N,11610.7193,W,51.19,141.68,250210,,*2A
$GPRMC,205206.000,A,3342.2861,N,11610.6886,W,51.59,143.98,250210,,*25
$GPRMC,205209.000,A,3342.2504,N,11610.6599,W,51.17,146.82,250210,,*23
$GPRMC,205212.000,A,3342.2142,N,11610.6331,W,50.55,149.10,250210,,*28
$GPRMC,205215.000,A,3342.1773,N,11610.6086,W,50.39,152.07,250210,,*21
$GPRMC,205218.000,A,3342.1398,N,11610.5860,W,50.22,153.47,250210,,*21
$GPRMC,205221.000,A,3342.1027,N,11610.5638,W,50.20,153.49,250210,,*23
$GPRMC,205224.000,A,3342.0656,N,11610.5416,W,50.08,153.52,250210,,*29
$GPRMC,205227.000,A,3342.0284,N,11610.5194,W,50.05,153.52,250210,,*23
$GPRMC,205230.000,A,3341.9912,N,11610.4972,W,50.13,153.67,250210,,*2B
$GPRMC,205233.000,A,3341.9538,N,11610.4751,W,50.07,153.59,250210,,*2B
$GPRMC,205236.000,A,3341.9161,N,11610.4530,W,50.16,153.55,250210,,*2F
$GPRMC,205239.000,A,3341.8783,N,11610.4308,W,50.23,153.26,250210,,*24
$GPRMC,205242.000,A,3341.8406,N,11610.4086,W,50.24,153.74,250210,,*23
$GPRMC,205245.000,A,3341.8030,N,11610.3863,W,49.97,153.19,250210,,*2A
$GPRMC,205248.000,A,3341.7659,N,11610.3636,W,49.98,152.37,250210,,*2D
$GPRMC,205251.000,A,3341.7293,N,11610.3397,W,49.93,150.91,250210,,*2C
$GPRMC,205254.000,A,3341.6930,N,11610.3149,W,49.97,149.19,250210,,*27
$GPRMC,205257.000,A,3341.6572,N,11610.2890,W,50.01,148.24,250210,,*2A
$GPRMC,205300.000,A,3341.6219,N,11610.2620,W,50.12,146.28,250210,,*26
$GPRMC,205303.000,A,3341.5871,N,11610.2340,W,50.16,145.26,250210,,*28
$GPRMC,205306.000,A,3341.5530,N,11610.2048,W,50.08,143.68,250210,,*2D
$GPRMC,205309.000,A,3341.5198,N,11610.1750,W,50.06,142.29,250210,,*23
$GPRMC,205312.000,A,3341.4869,N,11610.1440,W,50.19,140.93,250210,,*20
$GPRMC,205315.000,A,3341.4545,N,11610.1119,W,50.29,139.51,250210,,*2E
$GPRMC,205318.000,A,3341.4229,N,11610.0786,W,50.35,138.03,250210,,*24
$GPRMC,205321.000,A,3341.3919,N,11610.0443,W,50.52,136.36,250210,,*22
$GPRMC,205324.000,A,3341.3620,N,11610.0090,W,48.57,134.93,250210,,*29
$GPRMC,205327.000,A,3341.3367,N,11609.9783,W,39.53,133.82,250210,,*2D
$GPRMC,205330.000,A,3341.3153,N,11609.9509,W,35.94,133.80,250210,,*2B
$GPRMC,205333.000,A,3341.2969,N,11609.9273,W,29.18,133.55,250210,,*23
$GPRMC,205336.000,A,3341.2820,N,11609.9081,W,24.69,133.94,250210,,*23
$GPRMC,205339.000,A,3341.2691,N,11609.8916,W,19.95,133.68,250210,,*20
$GPRMC,205342.000,A,3341.2605,N,11609.8807,W,11.16,133.61,250210,,*2A
$GPRMC,205354.000,A,3341.2563,N,11609.8754,W,4.77,133.86,250210,,*1D
$GPRMC,205357.000,A,3341.2534,N,11609.8723,W,7.48,133.71,250210,,*1B
$GPRMC,205400.000,A,3341.2469,N,11609.8645,W,13.29,133.87,250210,,*2D
$GPRMC,205403.000,A,3341.2388,N,11609.8546,W,16.40,134.20,250210,,*26
$GPRMC,205406.000,A,3341.2270,N,11609.8402,W,23.67,133.72,250210,,*27
$GPRMC,205409.000,A,3341.2130,N,11609.8228,W,25.53,133.70,250210,,*22
$GPRMC,205412.000,A,3341.1964,N,11609.8019,W,30.61,133.51,250210,,*24
$GPRMC,205415.000,A,3341.1783,N,11609.7793,W,32.76,133.86,250210,,*20
$GPRMC,205418.000,A,3341.1577,N,11609.7539,W,37.59,133.93,250210,,*2A
$GPRMC,205421.000,A,3341.1354,N,11609.7262,W,38.29,133.66,250210,,*2C
$GPRMC,205424.000,A,3341.1124,N,11609.6977,W,41.40,133.86,250210,,*2D
$GPRMC,205427.000,A,3341.0881,N,11609.6673,W,41.93,133.48,250210,,*2E
$GPRMC,205430.000,A,3341.0637,N,11609.6363,W,43.10,133.86,250210,,*24
$GPRMC,205433.000,A,3341.0383,N,11609.6041,W,45.27,133.72,250210,,*27
$GPRMC,205436.000,A,3341.0116,N,11609.5705,W,47.28,133.72,250210,,*25
$GPRMC,205439.000,A,3340.9838,N,11609.5358,W,48.10,133.75,250210,,*28
$GPRMC,205442.000,A,3340.9556,N,11609.5006,W,49.40,133.91,250210,,*27
$GPRMC,205445.000,A,3340.9264,N,11609.4642,W,51.09,133.59,250210,,*21
$GPRMC,205448.000,A,3340.8967,N,11609.4271,W,50.93,133.67,250210,,*2E
$GPRMC,205451.000,A,3340.8673,N,11609.3900,W,51.43,133.66,250210,,*2B
$GPRMC,205454.000,A,3340.8373,N,11609.3524,W,52.16,133.69,250210,,*2D
$GPRMC,205457.000,A,3340.8072,N,11609.3144,W,51.69,133.74,250210,,*29
$GPRMC,205500.000,A,3340.7780,N,11609.2767,W,50.33,133.67,250210,,*25
$GPRMC,205503.000,A,3340.7498,N,11609.2401,W,48.88,133.24,250210,,*21
$GPRMC,205507.000,A,3340.7124,N,11609.1923,W,49.47,133.75,250210,,*2F
$GPRMC,205510.000,A,3340.6841,N,11609.1566,W,48.44,133.66,250210,,*2F
$GPRMC,205513.000,A,3340.6568,N,11609.1221,W,46.41,133.98,250210,,*24
$GPRMC,205516.000,A,3340.6307,N,11609.0890,W,44.59,133.64,250210,,*27
$GPRMC,205519.000,A,3340.6068,N,11609.0588,W,40.04,133.65,250210,,*2B
$GPRMC,205522.000,A,3340.5844,N,11609.0307,W,36.95,133.80,250210,,*25
$GPRMC,205526.000,A,3340.5577,N,11608.9973,W,33.81,133.64,250210,,*27
$GPRMC,205529.000,A,3340.5385,N,11608.9735,W,32.83,134.80,250210,,*21
$GPRMC,205532.000,A,3340.5201,N,11608.9520,W,29.05,136.11,250210,,*2E
$GPRMC,205535.000,A,3340.5032,N,11608.9329,W,27.92,137.28,250210,,*2F
$GPRMC,205538.000,A,3340.4872,N,11608.9158,W,24.44,139.02,250210,,*25
$GPRMC,205541.000,A,3340.4738,N,11608.9025,W,18.56,139.37,250210,,*2B
$GPRMC,205544.000,A,3340.4647,N,11608.8934,W,11.57,140.27,250210,,*28
$GPRMC,205547.000,A,3340.4598,N,11608.8887,W,4.95,139.37,250210,,*16
$GPRMC,205615.000,A,3340.4563,N,11608.8851,W,4.87,139.47,250210,,*19
$GPRMC,205618.000,A,3340.4527,N,11608.8816,W,7.93,140.23,250210,,*1D
$GPRMC,205621.000,A,3340.4452,N,11608.8742,W,13.40,140.94,250210,,*2D
$GPRMC,205624.000,A,3340.4364,N,11608.8658,W,13.24,141.61,250210,,*29
$GPRMC,205627.000,A,3340.4262,N,11608.8565,W,17.78,142.48,250210,,*25
$GPRMC,205630.000,A,3340.4126,N,11608.8440,W,21.29,142.51,250210,,*2F
$GPRMC,205633.000,A,3340.3966,N,11608.8296,W,26.98,143.48,250210,,*2E
$GPRMC,205636.000,A,3340.3771,N,11608.8129,W,29.09,144.52,250210,,*2F
$GPRMC,205639.000,A,3340.3550,N,11608.7948,W,34.25,146.56,250210,,*25
$GPRMC,205642.000,A,3340.3290,N,11608.7748,W,37.66,147.39,250210,,*20
$GPRMC,205645.000,A,3340.3014,N,11608.7547,W,39.86,149.09,250210,,*29
$GPRMC,205648.000,A,3340.2706,N,11608.7337,W,44.27,150.89,250210,,*21
$GPRMC,205651.000,A,3340.2369,N,11608.7121,W,45.40,152.56,250210,,*21
$GPRMC,205654.000,A,3340.2023,N,11608.6917,W,46.45,154.33,250210,,*26
$GPRMC,205657.000,A,3340.1661,N,11608.6718,W,47.85,155.85,250210,,*26
$GPRMC,205700.000,A,3340.1285,N,11608.6529,W,49.45,158.20,250210,,*2B
$GPRMC,205703.000,A,3340.0889,N,11608.6350,W,50.91,159.95,250210,,*29
$GPRMC,205706.000,A,3340.0491,N,11608.6187,W,49.59,162.01,250210,,*28
$GPRMC,205709.000,A,3340.0097,N,11608.6044,W,49.12,164.05,250210,,*26
$GPRMC,205712.000,A,3339.9698,N,11608.5915,W,49.75,165.57,250210,,*2B
$GPRMC,205715.000,A,3339.9288,N,11608.5800,W,50.52,167.89,250210,,*20
$GPRMC,205718.000,A,3339.8872,N,11608.5702,W,49.98,169.38,250210,,*24
$GPRMC,205721.000,A,3339.8463,N,11608.5621,W,48.84,171.75,250210,,*2E
$GPRMC,205724.000,A,3339.8061,N,11608.5558,W,48.49,172.60,250210,,*26
$GPRMC,205727.000,A,3339.7657,N,11608.5495,W,48.85,172.52,250210,,*28
$GPRMC,205730.000,A,3339.7254,N,11608.5430,W,48.68,172.16,250210,,*25
$GPRMC,205733.000,A,3339.6850,N,11608.5364,W,48.94,172.21,250210,,*28
$GPRMC,205736.000,A,3339.6442,N,11608.5300,W,49.54,172.61,250210,,*29
$GPRMC,205739.000,A,3339.6030,N,11608.5236,W,49.88,172.54,250210,,*24
$GPRMC,205742.000,A,3339.5617,N,11608.5171,W,49.39,172.33,250210,,*23
$GPRMC,205745.000,A,3339.5210,N,11608.5107,W,48.71,172.32,250210,,*2A
$GPRMC,205748.000,A,3339.4803,N,11608.5042,W,49.32,172.13,250210,,*2B
$GPRMC,205751.000,A,3339.4389,N,11608.4969,W,50.32,170.81,250210,,*2A
$GPRMC,205754.000,A,3339.3968,N,11608.4882,W,51.39,169.37,250210,,*26
$GPRMC,205757.000,A,3339.3543,N,11608.4779,W,51.75,167.71,250210,,*2F
$GPRMC,205800.000,A,3339.3127,N,11608.4667,W,50.56,166.46,250210,,*2F
$GPRMC,205803.000,A,3339.2719,N,11608.4541,W,50.13,164.71,250210,,*26
$GPRMC,205806.000,A,3339.2313,N,11608.4403,W,50.73,163.58,250210,,*20
$GPRMC,205809.000,A,3339.1906,N,11608.4250,W,51.32,161.92,250210,,*22
$GPRMC,205812.000,A,3339.1500,N,11608.4083,W,51.77,160.49,250210,,*28
$GPRMC,205815.000,A,3339.1092,N,11608.3904,W,52.45,159.11,250210,,*25
$GPRMC,205818.000,A,3339.0679,N,11608.3704,W,52.89,157.46,250210,,*28
$GPRMC,205821.000,A,3339.0275,N,11608.3493,W,51.57,155.87,250210,,*28
$GPRMC,205824.000,A,3338.9888,N,11608.3278,W,50.39,154.38,250210,,*22
$GPRMC,205827.000,A,3338.9509,N,11608.3052,W,50.81,153.11,250210,,*20
$GPRMC,205830.000,A,3338.9131,N,11608.2815,W,51.20,151.52,250210,,*2C
$GPRMC,205833.000,A,3338.8763,N,11608.2566,W,49.99,150.01,250210,,*2A
$GPRMC,205836.000,A,3338.8409,N,11608.2314,W,48.68,148.49,250210,,*29
$GPRMC,205839.000,A,3338.8069,N,11608.2060,W,47.36,147.91,250210,,*2A
$GPRMC,205842.000,A,3338.7744,N,11608.1814,W,44.90,147.63,250210,,*2B
$GPRMC,205845.000,A,3338.7432,N,11608.1576,W,43.90,147.62,250210,,*21
$GPRMC,205848.000,A,3338.7128,N,11608.1345,W,41.95,147.71,250210,,*21
$GPRMC,205851.000,A,3338.6861,N,11608.1142,W,33.87,147.64,250210,,*2B
$GPRMC,205854.000,A,3338.6631,N,11608.0966,W,31.58,147.79,250210,,*26
$GPRMC,205857.000,A,3338.6428,N,11608.0811,W,26.62,147.41,250210,,*2A
$GPRMC,205900.000,A,3338.6259,N,11608.0682,W,22.57,147.64,250210,,*28
$GPRMC,205903.000,A,3338.6106,N,11608.0563,W,21.90,147.54,250210,,*25
$GPRMC,205907.000,A,3338.5936,N,11608.0437,W,12.52,148.08,250210,,*21
$GPRMC,205922.000,A,3338.5862,N,11608.0381,W,7.30,146.66,250210,,*1A
$GPRMC,205925.000,A,3338.5794,N,11608.0328,W,11.15,147.25,250210,,*2E
$GPRMC,205928.000,A,3338.5717,N,11608.0270,W,11.01,148.02,250210,,*2B
$GPRMC,205931.000,A,3338.5623,N,11608.0200,W,15.88,147.49,250210,,*27
$GPRMC,205934.000,A,3338.5487,N,11608.0098,W,22.48,147.69,250210,,*27
$GPRMC,205937.000,A,3338.5321,N,11607.9971,W,23.94,147.75,250210,,*2A
$GPRMC,205940.000,A,3338.5141,N,11607.9832,W,27.32,147.09,250210,,*2B
$GPRMC,205943.000,A,3338.4939,N,11607.9677,W,29.47,147.53,250210,,*22
$GPRMC,205946.000,A,3338.4730,N,11607.9520,W,29.54,148.14,250210,,*2F
$GPRMC,205949.000,A,3338.4513,N,11607.9358,W,31.72,148.06,250210,,*24
$GPRMC,205952.000,A,3338.4278,N,11607.9179,W,34.62,147.47,250210,,*2B
$GPRMC,205955.000,A,3338.4022,N,11607.8985,W,36.97,147.91,250210,,*28
$GPRMC,205958.000,A,3338.3762,N,11607.8789,W,36.52,147.73,250210,,*26
$GPRMC,210000.000,A,3338.3585,N,11607.8655,W,38.31,147.68,250210,,*2C
$GPRMC,210003.000,A,3338.3303,N,11607.8441,W,41.28,147.66,250210,,*28
$GPRMC,210006.000,A,3338.3000,N,11607.8210,W,44.24,147.51,250210,,*22
$GPRMC,210009.000,A,3338.2672,N,11607.7962,W,48.28,147.68,250210,,*24
$GPRMC,210012.000,A,3338.2320,N,11607.7695,W,49.86,147.67,250210,,*21
$GPRMC,210015.000,A,3338.1972,N,11607.7431,W,48.39,147.76,250210,,*21
$GPRMC,210018.000,A,3338.1630,N,11607.7172,W,49.00,147.61,250210,,*2A
$GPRMC,210021.000,A,3338.1277,N,11607.6905,W,49.94,147.91,250210,,*2C
$GPRMC,210024.000,A,3338.0924,N,11607.6639,W,49.59,147.56,250210,,*2F
$GPRMC,210027.000,A,3338.0573,N,11607.6373,W,49.51,147.76,250210,,*23
$GPRMC,210030.000,A,3338.0222,N,11607.6108,W,49.56,147.70,250210,,*29
$GPRMC,210033.000,A,3337.9871,N,11607.5841,W,49.73,147.58,250210,,*2A
$GPRMC,210036.000,A,3337.9520,N,11607.5576,W,49.80,147.73,250210,,*2A
$GPRMC,210039.000,A,3337.9169,N,11607.5310,W,49.53,147.55,250210,,*20
$GPRMC,210042.000,A,3337.8818,N,11607.5044,W,49.63,147.73,250210,,*27
$GPRMC,210045.000,A,3337.8466,N,11607.4781,W,49.77,147.65,250210,,*28
$GPRMC,210048.000,A,3337.8111,N,11607.4524,W,49.61,149.45,250210,,*26
$GPRMC,210051.000,A,3337.7750,N,11607.4282,W,49.56,151.89,250210,,*24
$GPRMC,210054.000,A,3337.7381,N,11607.4058,W,49.54,154.09,250210,,*23
$GPRMC,210057.000,A,3337.7003,N,11607.3856,W,49.58,157.01,250210,,*2F
$GPRMC,210100.000,A,3337.6620,N,11607.3674,W,49.14,159.27,250210,,*26
$GPRMC,210103.000,A,3337.6228,N,11607.3508,W,49.25,161.36,250210,,*28
$GPRMC,210106.000,A,3337.5832,N,11607.3368,W,49.33,164.14,250210,,*2D
$GPRMC,210109.000,A,3337.5436,N,11607.3241,W,49.42,165.72,250210,,*27
$GPRMC,210112.000,A,3337.5038,N,11607.3124,W,49.48,165.75,250210,,*2A
$GPRMC,210115.000,A,3337.4638,N,11607.3002,W,49.59,165.57,250210,,*2F
$GPRMC,210118.000,A,3337.4238,N,11607.2881,W,49.62,165.30,250210,,*2D
$GPRMC,210121.000,A,3337.3837,N,11607.2759,W,49.43,165.55,250210,,*2F
$GPRMC,210124.000,A,3337.3440,N,11607.2629,W,49.48,163.57,250210,,*2F
$GPRMC,210127.000,A,3337.3047,N,11607.2483,W,49.38,161.61,250210,,*2D
$GPRMC,210130.000,A,3337.2659,N,11607.2316,W,49.35,158.79,250210,,*26
$GPRMC,210133.000,A,3337.2276,N,11607.2128,W,49.43,156.54,250210,,*23
$GPRMC,210136.000,A,3337.1899,N,11607.1921,W,49.58,154.24,250210,,*23
$GPRMC,210139.000,A,3337.1529,N,11607.1694,W,49.42,151.81,250210,,*2A
$GPRMC,210142.000,A,3337.1170,N,11607.1451,W,49.41,149.52,250210,,*21
$GPRMC,210145.000,A,3337.0820,N,11607.1189,W,49.60,147.00,250210,,*21
$GPRMC,210148.000,A,3337.0478,N,11607.0910,W,49.54,145.06,250210,,*27
$GPRMC,210151.000,A,3337.0144,N,11607.0620,W,49.63,143.64,250210,,*2F
$GPRMC,210154.000,A,3336.9811,N,11607.0326,W,49.59,143.94,250210,,*2E
$GPRMC,210157.000,A,3336.9477,N,11607.0033,W,49.57,143.89,250210,,*24
$GPRMC,210200.000,A,3336.9143,N,11606.9739,W,49.52,144.07,250210,,*26
$GPRMC,210203.000,A,3336.8808,N,11606.9446,W,49.64,144.00,250210,,*2B
$GPRMC,210206.000,A,3336.8474,N,11606.9151,W,49.70,143.87,250210,,*27
$GPRMC,210209.000,A,3336.8139,N,11606.8856,W,49.79,143.92,250210,,*26
$GPRMC,210212.000,A,3336.7804,N,11606.8562,W,49.68,143.96,250210,,*2A
$GPRMC,210215.000,A,3336.7470,N,11606.8268,W,49.65,143.78,250210,,*22
$GPRMC,210218.000,A,3336.7136,N,11606.7975,W,49.62,143.96,250210,,*27
$GPRMC,210221.000,A,3336.6802,N,11606.7683,W,49.61,144.16,250210,,*28
$GPRMC,210224.000,A,3336.6469,N,11606.7392,W,49.51,143.85,250210,,*27
$GPRMC,210227.000,A,3336.6136,N,11606.7101,W,49.37,143.83,250210,,*25
$GPRMC,210230.000,A,3336.5804,N,11606.6811,W,49.29,143.83,250210,,*2E
$GPRMC,210233.000,A,3336.5471,N,11606.6521,W,49.24,143.78,250210,,*24
$GPRMC,210236.000,A,3336.5139,N,11606.6231,W,49.12,143.95,250210,,*28
$GPRMC,210239.000,A,3336.4808,N,11606.5943,W,49.23,144.29,250210,,*22
$GPRMC,210242.000,A,3336.4474,N,11606.5656,W,49.46,144.29,250210,,*21
$GPRMC,210245.000,A,3336.4140,N,11606.5367,W,49.47,143.98,250210,,*2F
$GPRMC,210248.000,A,3336.3806,N,11606.5077,W,49.43,143.78,250210,,*26
$GPRMC,210251.000,A,3336.3473,N,11606.4785,W,49.49,142.82,250210,,*25
$GPRMC,210254.000,A,3336.3148,N,11606.4480,W,49.48,141.10,250210,,*22
$GPRMC,210257.000,A,3336.2833,N,11606.4161,W,49.68,138.66,250210,,*22
$GPRMC,210300.000,A,3336.2529,N,11606.3824,W,49.47,136.05,250210,,*2E
$GPRMC,210303.000,A,3336.2239,N,11606.3474,W,49.25,133.85,250210,,*2B
$GPRMC,210306.000,A,3336.1963,N,11606.3110,W,49.28,131.36,250210,,*29
$GPRMC,210309.000,A,3336.1701,N,11606.2733,W,48.44,129.50,250210,,*28
$GPRMC,210312.000,A,3336.1449,N,11606.2361,W,47.19,129.80,250210,,*24
$GPRMC,210315.000,A,3336.1202,N,11606.2005,W,45.76,130.30,250210,,*23
$GPRMC,210318.000,A,3336.0954,N,11606.1670,W,44.39,132.66,250210,,*2B
$GPRMC,210321.000,A,3336.0706,N,11606.1357,W,43.13,134.45,250210,,*20
$GPRMC,210324.000,A,3336.0455,N,11606.1060,W,42.19,136.26,250210,,*2B
$GPRMC,210327.000,A,3336.0190,N,11606.0766,W,44.85,138.26,250210,,*29
$GPRMC,210330.000,A,3335.9894,N,11606.0465,W,47.65,140.83,250210,,*25
$GPRMC,210333.000,A,3335.9585,N,11606.0176,W,47.08,143.02,250210,,*2D
$GPRMC,210336.000,A,3335.9259,N,11605.9896,W,48.23,145.00,250210,,*21
$GPRMC,210339.000,A,3335.8926,N,11605.9632,W,47.37,147.05,250210,,*21
$GPRMC,210342.000,A,3335.8584,N,11605.9380,W,48.51,149.55,250210,,*21
$GPRMC,210345.000,A,3335.8226,N,11605.9143,W,48.94,151.35,250210,,*22
$GPRMC,210348.000,A,3335.7868,N,11605.8922,W,48.12,153.74,250210,,*27
$GPRMC,210351.000,A,3335.7499,N,11605.8722,W,48.28,156.11,250210,,*2C
$GPRMC,210354.000,A,3335.7126,N,11605.8538,W,47.67,158.29,250210,,*20
$GPRMC,210357.000,A,3335.6752,N,11605.8373,W,47.64,160.39,250210,,*27
$GPRMC,210400.000,A,3335.6373,N,11605.8226,W,47.33,162.57,250210,,*2C
$GPRMC,210403.000,A,3335.5993,N,11605.8095,W,47.73,164.99,250210,,*22
$GPRMC,210406.000,A,3335.5604,N,11605.7981,W,48.48,166.99,250210,,*20
$GPRMC,210409.000,A,3335.5218,N,11605.7889,W,47.27,169.14,250210,,*23
$GPRMC,210412.000,A,3335.4834,N,11605.7814,W,46.92,171.49,250210,,*26
$GPRMC,210415.000,A,3335.4442,N,11605.7753,W,47.49,173.44,250210,,*28
$GPRMC,210418.000,A,3335.4051,N,11605.7711,W,46.53,175.51,250210,,*2D
$GPRMC,210421.000,A,3335.3657,N,11605.7684,W,47.68,177.53,250210,,*24
$GPRMC,210424.000,A,3335.3256,N,11605.7676,W,47.94,179.76,250210,,*23
$GPRMC,210427.000,A,3335.2852,N,11605.7681,W,48.72,180.60,250210,,*21
$GPRMC,210430.000,A,3335.2443,N,11605.7685,W,49.03,180.03,250210,,*2D
$GPRMC,210433.000,A,3335.2026,N,11605.7688,W,50.41,180.30,250210,,*2A
$GPRMC,210436.000,A,3335.1601,N,11605.7692,W,50.51,180.21,250210,,*25
$GPRMC,210439.000,A,3335.1182,N,11605.7697,W,49.57,180.44,250210,,*2E
$GPRMC,210442.000,A,3335.0768,N,11605.7699,W,49.45,179.86,250210,,*24
$GPRMC,210445.000,A,3335.0351,N,11605.7702,W,50.22,180.67,250210,,*2E
$GPRMC,210448.000,A,3334.9931,N,11605.7708,W,50.30,179.88,250210,,*29
$GPRMC,210451.000,A,3334.9512,N,11605.7699,W,49.73,178.16,250210,,*2C
$GPRMC,210454.000,A,3334.9100,N,11605.7674,W,49.43,175.57,250210,,*26
$GPRMC,210457.000,A,3334.8688,N,11605.7621,W,49.69,172.41,250210,,*2B
$GPRMC,210500.000,A,3334.8276,N,11605.7543,W,50.03,169.31,250210,,*23
$GPRMC,210503.000,A,3334.7869,N,11605.7439,W,49.53,166.84,250210,,*2B
$GPRMC,210506.000,A,3334.7477,N,11605.7314,W,48.63,164.46,250210,,*2B
$GPRMC,210509.000,A,3334.7088,N,11605.7181,W,49.11,163.87,250210,,*20
$GPRMC,210512.000,A,3334.6694,N,11605.7047,W,49.61,163.91,250210,,*2B
$GPRMC,210515.000,A,3334.6299,N,11605.6909,W,48.74,163.67,250210,,*2B
$GPRMC,210518.000,A,3334.5913,N,11605.6774,W,47.57,163.84,250210,,*2B
$GPRMC,210521.000,A,3334.5530,N,11605.6641,W,47.91,163.76,250210,,*2C
$GPRMC,210524.000,A,3334.5143,N,11605.6506,W,48.57,163.75,250210,,*2F
$GPRMC,210527.000,A,3334.4750,N,11605.6371,W,49.10,164.07,250210,,*2F
$GPRMC,210530.000,A,3334.4359,N,11605.6236,W,48.18,163.89,250210,,*2E
$GPRMC,210533.000,A,3334.3979,N,11605.6103,W,45.82,164.02,250210,,*2D
$GPRMC,210536.000,A,3334.3634,N,11605.5986,W,40.55,164.83,250210,,*2E
$GPRMC,210539.000,A,3334.3323,N,11605.5893,W,37.56,167.52,250210,,*2B
$GPRMC,210542.000,A,3334.3038,N,11605.5823,W,31.72,169.71,250210,,*2A
$GPRMC,210545.000,A,3334.2815,N,11605.5779,W,23.69,171.09,250210,,*24
$GPRMC,210548.000,A,3334.2642,N,11605.5748,W,20.15,172.23,250210,,*24
$GPRMC,210551.000,A,3334.2485,N,11605.5725,W,18.69,173.35,250210,,*28
$GPRMC,210554.000,A,3334.2362,N,11605.5710,W,13.21,174.61,250210,,*24
$GPRMC,210557.000,A,3334.2273,N,11605.5701,W,9.15,175.21,250210,,*1F
$GPRMC,210600.000,A,3334.2213,N,11605.5696,W,7.75,175.91,250210,,*14
$GPRMC,210603.000,A,3334.2151,N,11605.5691,W,8.68,175.92,250210,,*15
$GPRMC,210606.000,A,3334.2081,N,11605.5687,W,8.87,177.67,250210,,*12
$GPRMC,210609.000,A,3334.1989,N,11605.5681,W,13.35,177.12,250210,,*28
$GPRMC,210612.000,A,3334.1853,N,11605.5675,W,19.39,178.38,250210,,*2E
$GPRMC,210615.000,A,3334.1656,N,11605.5671,W,26.02,179.16,250210,,*2F
$GPRMC,210618.000,A,3334.1427,N,11605.5671,W,28.94,181.23,250210,,*26
$GPRMC,210621.000,A,3334.1156,N,11605.5681,W,34.62,182.81,250210,,*2F
$GPRMC,210624.000,A,3334.0863,N,11605.5708,W,35.71,185.46,250210,,*2B
$GPRMC,210627.000,A,3334.0549,N,11605.5751,W,38.99,187.19,250210,,*22
$GPRMC,210630.000,A,3334.0216,N,11605.5811,W,39.90,189.80,250210,,*24
$GPRMC,210633.000,A,3333.9880,N,11605.5891,W,41.11,192.29,250210,,*2B
$GPRMC,210636.000,A,3333.9534,N,11605.5989,W,43.16,193.92,250210,,*20
$GPRMC,210639.000,A,3333.9174,N,11605.6097,W,44.90,194.46,250210,,*2D
$GPRMC,210642.000,A,3333.8805,N,11605.6212,W,45.28,194.50,250210,,*25
$GPRMC,210645.000,A,3333.8431,N,11605.6325,W,46.46,193.69,250210,,*2A
$GPRMC,210648.000,A,3333.8044,N,11605.6427,W,47.93,191.14,250210,,*25
$GPRMC,210651.000,A,3333.7637,N,11605.6508,W,49.78,188.31,250210,,*28
$GPRMC,210654.000,A,3333.7217,N,11605.6567,W,51.04,185.49,250210,,*22
$GPRMC,210657.000,A,3333.6786,N,11605.6601,W,50.82,182.61,250210,,*2C
$GPRMC,210700.000,A,3333.6366,N,11605.6611,W,49.76,180.44,250210,,*22
$GPRMC,210703.000,A,3333.5944,N,11605.6609,W,50.85,180.52,250210,,*22
$GPRMC,210706.000,A,3333.5512,N,11605.6610,W,51.29,180.28,250210,,*2A
$GPRMC,210709.000,A,3333.5087,N,11605.6615,W,50.15,181.11,250210,,*2C
$GPRMC,210712.000,A,3333.4668,N,11605.6640,W,50.51,184.15,250210,,*21
$GPRMC,210715.000,A,3333.4244,N,11605.6691,W,51.50,187.18,250210,,*2E
$GPRMC,210718.000,A,3333.3817,N,11605.6770,W,51.14,190.38,250210,,*22
$GPRMC,210721.000,A,3333.3406,N,11605.6875,W,49.65,193.35,250210,,*2F
$GPRMC,210724.000,A,3333.3002,N,11605.7003,W,50.32,195.99,250210,,*28
$GPRMC,210727.000,A,3333.2603,N,11605.7156,W,49.36,198.84,250210,,*21
$GPRMC,210730.000,A,3333.2221,N,11605.7329,W,48.86,202.31,250210,,*2D
$GPRMC,210733.000,A,3333.1844,N,11605.7527,W,49.62,205.06,250210,,*24
$GPRMC,210736.000,A,3333.1468,N,11605.7749,W,50.69,207.47,250210,,*2D
$GPRMC,210739.000,A,3333.1098,N,11605.7999,W,50.39,210.63,250210,,*2F
$GPRMC,210742.000,A,3333.0741,N,11605.8266,W,50.46,212.85,250210,,*27
$GPRMC,210745.000,A,3333.0396,N,11605.8541,W,49.72,212.81,250210,,*27
$GPRMC,210748.000,A,3333.0049,N,11605.8803,W,49.27,210.87,250210,,*24
$GPRMC,210751.000,A,3332.9692,N,11605.9046,W,49.28,208.01,250210,,*24
$GPRMC,210754.000,A,3332.9324,N,11605.9271,W,49.68,205.30,250210,,*24
$GPRMC,210757.000,A,3332.8944,N,11605.9471,W,50.52,202.23,250210,,*28
$GPRMC,210800.000,A,3332.8549,N,11605.9652,W,51.18,199.41,250210,,*2D
$GPRMC,210803.000,A,3332.8146,N,11605.9809,W,50.42,196.61,250210,,*26
$GPRMC,210806.000,A,3332.7746,N,11605.9938,W,49.11,193.49,250210,,*28
$GPRMC,210809.000,A,3332.7343,N,11606.0041,W,49.76,190.72,250210,,*21
$GPRMC,210812.000,A,3332.6933,N,11606.0118,W,49.36,187.89,250210,,*2C
$GPRMC,210816.000,A,3332.6383,N,11606.0182,W,49.41,184.01,250210,,*29
$GPRMC,210819.000,A,3332.5968,N,11606.0202,W,49.46,181.70,250210,,*25
$GPRMC,210822.000,A,3332.5555,N,11606.0204,W,49.42,179.97,250210,,*23
$GPRMC,210825.000,A,3332.5139,N,11606.0201,W,49.52,179.71,250210,,*26
$GPRMC,210828.000,A,3332.4724,N,11606.0203,W,49.49,180.71,250210,,*2E
$GPRMC,210831.000,A,3332.4309,N,11606.0201,W,49.57,179.75,250210,,*22
$GPRMC,210834.000,A,3332.3893,N,11606.0201,W,49.60,180.46,250210,,*2A
$GPRMC,210837.000,A,3332.3479,N,11606.0201,W,49.60,179.59,250210,,*29
$GPRMC,210840.000,A,3332.3065,N,11606.0200,W,49.61,180.05,250210,,*2F
$GPRMC,210843.000,A,3332.2651,N,11606.0199,W,49.50,180.04,250210,,*2C
$GPRMC,210846.000,A,3332.2239,N,11606.0200,W,49.42,180.15,250210,,*23
$GPRMC,210849.000,A,3332.1826,N,11606.0200,W,49.48,180.08,250210,,*2D
$GPRMC,210852.000,A,3332.1413,N,11606.0200,W,49.46,180.24,250210,,*2D
$GPRMC,210855.000,A,3332.0999,N,11606.0203,W,49.48,180.11,250210,,*2F
$GPRMC,210858.000,A,3332.0586,N,11606.0201,W,49.45,180.15,250210,,*2B
$GPRMC,210900.000,A,3332.0311,N,11606.0202,W,49.39,180.05,250210,,*26
$GPRMC,210903.000,A,3331.9898,N,11606.0200,W,49.31,179.76,250210,,*2D
$GPRMC,210906.000,A,3331.9487,N,11606.0200,W,49.16,180.00,250210,,*28
$GPRMC,210909.000,A,3331.9074,N,11606.0201,W,49.98,180.35,250210,,*2E
$GPRMC,210912.000,A,3331.8652,N,11606.0201,W,50.54,179.85,250210,,*22
$GPRMC,210915.000,A,3331.8228,N,11606.0203,W,51.56,180.36,250210,,*23
$GPRMC,210918.000,A,3331.7797,N,11606.0206,W,51.60,180.15,250210,,*21
$GPRMC,210921.000,A,3331.7367,N,11606.0208,W,51.50,180.00,250210,,*29
$GPRMC,210924.000,A,3331.6937,N,11606.0209,W,51.55,180.27,250210,,*23
$GPRMC,210927.000,A,3331.6507,N,11606.0211,W,51.56,180.20,250210,,*22
$GPRMC,210930.000,A,3331.6075,N,11606.0212,W,51.81,180.10,250210,,*2E
$GPRMC,210933.000,A,3331.5643,N,11606.0214,W,51.86,180.19,250210,,*25
$GPRMC,210936.000,A,3331.5210,N,11606.0215,W,51.87,179.99,250210,,*2C
$GPRMC,210939.000,A,3331.4777,N,11606.0215,W,52.01,180.00,250210,,*2D
$GPRMC,210942.000,A,3331.4341,N,11606.0216,W,52.07,180.04,250210,,*21
$GPRMC,210945.000,A,3331.3907,N,11606.0217,W,51.99,180.07,250210,,*2F
$GPRMC,210948.000,A,3331.3473,N,11606.0218,W,51.99,180.16,250210,,*23
$GPRMC,210951.000,A,3331.3038,N,11606.0220,W,52.04,180.26,250210,,*2F
$GPRMC,210954.000,A,3331.2602,N,11606.0221,W,52.05,180.08,250210,,*28
$GPRMC,210957.000,A,3331.2165,N,11606.0217,W,51.93,179.19,250210,,*22
$GPRMC,211000.000,A,3331.1730,N,11606.0197,W,51.87,176.85,250210,,*29
$GPRMC,211003.000,A,3331.1295,N,11606.0153,W,51.86,174.44,250210,,*26
$GPRMC,211007.000,A,3331.0723,N,11606.0061,W,51.86,170.70,250210,,*28
$GPRMC,211010.000,A,3331.0299,N,11605.9965,W,51.87,168.52,250210,,*25
$GPRMC,211013.000,A,3330.9879,N,11605.9848,W,51.85,166.06,250210,,*29
$GPRMC,211016.000,A,3330.9461,N,11605.9709,W,51.92,163.44,250210,,*26
$GPRMC,211019.000,A,3330.9047,N,11605.9549,W,51.86,161.14,250210,,*2D
$GPRMC,211022.000,A,3330.8639,N,11605.9369,W,51.85,158.54,250210,,*22
$GPRMC,211025.000,A,3330.8239,N,11605.9165,W,51.88,155.77,250210,,*2E
$GPRMC,211028.000,A,3330.7847,N,11605.8943,W,51.81,153.66,250210,,*2D
$GPRMC,211031.000,A,3330.7468,N,11605.8701,W,51.73,151.31,250210,,*21
$GPRMC,211034.000,A,3330.7092,N,11605.8447,W,51.78,149.67,250210,,*25
$GPRMC,211037.000,A,3330.6715,N,11605.8185,W,51.79,149.92,250210,,*2F
$GPRMC,211040.000,A,3330.6340,N,11605.7919,W,51.61,149.57,250210,,*29
$GPRMC,211043.000,A,3330.5966,N,11605.7656,W,51.65,149.84,250210,,*29
$GPRMC,211046.000,A,3330.5592,N,11605.7392,W,51.62,149.61,250210,,*2A
$GPRMC,211049.000,A,3330.5219,N,11605.7130,W,51.59,149.96,250210,,*2B
$GPRMC,211052.000,A,3330.4844,N,11605.6869,W,51.78,149.78,250210,,*25
$GPRMC,211055.000,A,3330.4470,N,11605.6606,W,51.76,149.79,250210,,*21
$GPRMC,211058.000,A,3330.4094,N,11605.6349,W,51.82,151.42,250210,,*26
$GPRMC,211100.000,A,3330.3838,N,11605.6188,W,51.76,153.24,250210,,*25
$GPRMC,211103.000,A,3330.3447,N,11605.5966,W,51.74,155.75,250210,,*29
$GPRMC,211106.000,A,3330.3049,N,11605.5768,W,51.85,158.51,250210,,*23
$GPRMC,211109.000,A,3330.2645,N,11605.5590,W,51.88,160.85,250210,,*2D
$GPRMC,211112.000,A,3330.2233,N,11605.5433,W,51.99,163.55,250210,,*24
$GPRMC,211115.000,A,3330.1813,N,11605.5298,W,51.97,165.93,250210,,*2D
$GPRMC,211118.000,A,3330.1390,N,11605.5185,W,52.09,168.52,250210,,*2B
$GPRMC,211121.000,A,3330.0962,N,11605.5095,W,52.04,171.19,250210,,*2D
$GPRMC,211124.000,A,3330.0535,N,11605.5028,W,51.81,173.40,250210,,*20
$GPRMC,211127.000,A,3330.0107,N,11605.4982,W,51.77,175.87,250210,,*2A
$GPRMC,211130.000,A,3329.9676,N,11605.4960,W,51.70,178.41,250210,,*20
$GPRMC,211133.000,A,3329.9246,N,11605.4954,W,51.72,179.75,250210,,*27
$GPRMC,211136.000,A,3329.8815,N,11605.4959,W,51.67,180.36,250210,,*27
$GPRMC,211139.000,A,3329.8385,N,11605.4962,W,51.67,179.94,250210,,*2C
$GPRMC,211142.000,A,3329.7954,N,11605.4963,W,51.61,179.85,250210,,*2E
$GPRMC,211145.000,A,3329.7523,N,11605.4964,W,51.76,179.84,250210,,*25
$GPRMC,211148.000,A,3329.7091,N,11605.4965,W,51.92,180.07,250210,,*22
$GPRMC,211151.000,A,3329.6657,N,11605.4965,W,51.98,179.67,250210,,*2D
$GPRMC,211154.000,A,3329.6223,N,11605.4963,W,52.05,179.73,250210,,*2B
$GPRMC,211157.000,A,3329.5788,N,11605.4963,W,52.03,180.02,250210,,*29
$GPRMC,211200.000,A,3329.5353,N,11605.4963,W,52.05,179.83,250210,,*23
$GPRMC,211203.000,A,3329.4918,N,11605.4962,W,52.09,179.87,250210,,*2D
$GPRMC,211206.000,A,3329.4482,N,11605.4961,W,52.11,179.81,250210,,*2A
$GPRMC,211209.000,A,3329.4046,N,11605.4960,W,52.14,179.78,250210,,*2B
$GPRMC,211212.000,A,3329.3610,N,11605.4958,W,52.15,179.78,250210,,*29
$GPRMC,211215.000,A,3329.3174,N,11605.4957,W,52.09,179.83,250210,,*2D
$GPRMC,211218.000,A,3329.2739,N,11605.4956,W,52.12,179.87,250210,,*21
$GPRMC,211221.000,A,3329.2303,N,11605.4955,W,52.10,179.72,250210,,*2D
$GPRMC,211224.000,A,3329.1868,N,11605.4954,W,52.00,179.87,250210,,*27
$GPRMC,211227.000,A,3329.1435,N,11605.4953,W,51.56,180.01,250210,,*2F
$GPRMC,211230.000,A,3329.1005,N,11605.4953,W,51.28,179.81,250210,,*29
$GPRMC,211233.000,A,3329.0577,N,11605.4953,W,51.12,179.79,250210,,*25
$GPRMC,211236.000,A,3329.0151,N,11605.4950,W,50.91,179.70,250210,,*20
$GPRMC,211239.000,A,3328.9726,N,11605.4948,W,50.68,179.71,250210,,*2F
$GPRMC,211242.000,A,3328.9303,N,11605.4946,W,50.69,179.91,250210,,*21
$GPRMC,211245.000,A,3328.8879,N,11605.4944,W,50.72,179.63,250210,,*24
$GPRMC,211248.000,A,3328.8454,N,11605.4942,W,50.79,179.79,250210,,*2C
$GPRMC,211251.000,A,3328.8029,N,11605.4942,W,50.91,180.19,250210,,*2C
$GPRMC,211254.000,A,3328.7603,N,11605.4942,W,50.98,179.90,250210,,*26
$GPRMC,211257.000,A,3328.7177,N,11605.4941,W,51.26,179.73,250210,,*2B
$GPRMC,211300.000,A,3328.6744,N,11605.4938,W,51.97,179.52,250210,,*28
$GPRMC,211303.000,A,3328.6310,N,11605.4935,W,51.86,179.95,250210,,*28
$GPRMC,211306.000,A,3328.5877,N,11605.4935,W,51.71,179.86,250210,,*2E
$GPRMC,211309.000,A,3328.5445,N,11605.4934,W,51.67,179.96,250210,,*2B
$GPRMC,211312.000,A,3328.5013,N,11605.4932,W,51.67,179.53,250210,,*29
$GPRMC,211315.000,A,3328.4581,N,11605.4929,W,51.73,179.93,250210,,*22
$GPRMC,211318.000,A,3328.4149,N,11605.4929,W,51.74,180.09,250210,,*2D
$GPRMC,211321.000,A,3328.3717,N,11605.4928,W,51.63,179.54,250210,,*24
$GPRMC,211324.000,A,3328.3285,N,11605.4926,W,51.65,179.79,250210,,*28
$GPRMC,211327.000,A,3328.2854,N,11605.4923,W,51.69,179.78,250210,,*24
$GPRMC,211330.000,A,3328.2421,N,11605.4923,W,51.69,179.85,250210,,*2E
$GPRMC,211333.000,A,3328.1989,N,11605.4922,W,51.73,179.93,250210,,*2C
$GPRMC,211336.000,A,3328.1557,N,11605.4921,W,51.66,179.66,250210,,*2B
$GPRMC,211339.000,A,3328.1125,N,11605.4918,W,51.62,179.67,250210,,*2A
$GPRMC,211342.000,A,3328.0693,N,11605.4917,W,51.72,179.86,250210,,*2C
$GPRMC,211345.000,A,3328.0261,N,11605.4915,W,51.69,179.75,250210,,*26
$GPRMC,211348.000,A,3327.9829,N,11605.4915,W,51.66,180.12,250210,,*23
$GPRMC,211351.000,A,3327.9397,N,11605.4914,W,51.72,179.74,250210,,*27
$GPRMC,211354.000,A,3327.8965,N,11605.4911,W,51.69,179.68,250210,,*26
$GPRMC,211357.000,A,3327.8533,N,11605.4909,W,51.65,179.74,250210,,*22
$GPRMC,211400.000,A,3327.8101,N,11605.4908,W,51.70,180.01,250210,,*23
$GPRMC,211403.000,A,3327.7671,N,11605.4908,W,51.62,179.68,250210,,*25
$GPRMC,211406.000,A,3327.7239,N,11605.4894,W,51.79,177.43,250210,,*21
$GPRMC,211409.000,A,3327.6806,N,11605.4860,W,51.81,175.05,250210,,*25
$GPRMC,211412.000,A,3327.6376,N,11605.4803,W,51.78,172.32,250210,,*23
$GPRMC,211415.000,A,3327.5948,N,11605.4724,W,51.74,170.32,250210,,*24
$GPRMC,211418.000,A,3327.5524,N,11605.4622,W,51.74,167.28,250210,,*25
$GPRMC,211421.000,A,3327.5104,N,11605.4498,W,51.63,165.08,250210,,*2C
$GPRMC,211424.000,A,3327.4693,N,11605.4351,W,51.34,162.03,250210,,*2D
$GPRMC,211427.000,A,3327.4287,N,11605.4179,W,51.32,159.42,250210,,*2C
$GPRMC,211430.000,A,3327.3887,N,11605.3987,W,51.44,157.13,250210,,*22
$GPRMC,211433.000,A,3327.3489,N,11605.3772,W,52.66,154.46,250210,,*27
$GPRMC,211436.000,A,3327.3095,N,11605.3534,W,52.79,152.31,250210,,*23
$GPRMC,211439.000,A,3327.2709,N,11605.3279,W,52.74,150.17,250210,,*2A
$GPRMC,211442.000,A,3327.2336,N,11605.3003,W,52.74,147.75,250210,,*23
$GPRMC,211445.000,A,3327.1972,N,11605.2709,W,52.66,145.07,250210,,*25
$GPRMC,211448.000,A,3327.1619,N,11605.2395,W,52.63,142.53,250210,,*28
$GPRMC,211451.000,A,3327.1276,N,11605.2062,W,52.78,140.07,250210,,*2F
$GPRMC,211454.000,A,3327.0938,N,11605.1714,W,53.76,139.16,250210,,*2E
$GPRMC,211457.000,A,3327.0592,N,11605.1358,W,55.60,139.40,250210,,*2F
$GPRMC,211500.000,A,3327.0241,N,11605.0993,W,54.77,138.95,250210,,*27
$GPRMC,211503.000,A,3326.9899,N,11605.0637,W,53.95,139.16,250210,,*23
$GPRMC,211506.000,A,3326.9558,N,11605.0283,W,54.19,139.04,250210,,*2D
$GPRMC,211509.000,A,3326.9221,N,11604.9921,W,54.59,137.94,250210,,*23
$GPRMC,211512.000,A,3326.8873,N,11604.9553,W,56.48,138.83,250210,,*27
$GPRMC,211515.000,A,3326.8513,N,11604.9179,W,58.01,139.33,250210,,*2E
$GPRMC,211518.000,A,3326.8142,N,11604.8798,W,57.85,139.18,250210,,*21
$GPRMC,211521.000,A,3326.7784,N,11604.8427,W,55.91,139.30,250210,,*22
$GPRMC,211524.000,A,3326.7438,N,11604.8070,W,54.61,139.15,250210,,*2C
$GPRMC,211527.000,A,3326.7096,N,11604.7717,W,54.24,139.32,250210,,*22
$GPRMC,211531.000,A,3326.6643,N,11604.7251,W,53.74,139.48,250210,,*22
$GPRMC,211534.000,A,3326.6300,N,11604.6900,W,55.01,139.24,250210,,*25
$GPRMC,211537.000,A,3326.5942,N,11604.6541,W,56.80,140.79,250210,,*2C
$GPRMC,211540.000,A,3326.5567,N,11604.6175,W,58.91,139.66,250210,,*2A
$GPRMC,211543.000,A,3326.5196,N,11604.5797,W,57.83,139.36,250210,,*23
$GPRMC,211546.000,A,3326.4835,N,11604.5426,W,56.31,139.11,250210,,*23
$GPRMC,211549.000,A,3326.4483,N,11604.5065,W,54.86,139.26,250210,,*24
$GPRMC,211552.000,A,3326.4136,N,11604.4712,W,54.07,139.53,250210,,*28
$GPRMC,211555.000,A,3326.3797,N,11604.4365,W,53.46,139.16,250210,,*22
$GPRMC,211558.000,A,3326.3459,N,11604.4015,W,53.55,138.98,250210,,*2F
$GPRMC,211600.000,A,3326.3232,N,11604.3784,W,53.54,139.59,250210,,*2F
$GPRMC,211603.000,A,3326.2894,N,11604.3438,W,53.20,139.20,250210,,*22
$GPRMC,211606.000,A,3326.2556,N,11604.3092,W,53.21,139.11,250210,,*23
$GPRMC,211609.000,A,3326.2220,N,11604.2745,W,53.39,139.40,250210,,*2B
$GPRMC,211612.000,A,3326.1880,N,11604.2399,W,53.43,139.41,250210,,*2B
$GPRMC,211615.000,A,3326.1541,N,11604.2052,W,53.49,139.36,250210,,*22
$GPRMC,211618.000,A,3326.1205,N,11604.1707,W,52.80,139.19,250210,,*25
$GPRMC,211621.000,A,3326.0873,N,11604.1366,W,52.36,139.41,250210,,*26
$GPRMC,211624.000,A,3326.0541,N,11604.1028,W,52.16,139.13,250210,,*23
$GPRMC,211627.000,A,3326.0210,N,11604.0686,W,52.44,139.17,250210,,*23
$GPRMC,211630.000,A,3325.9878,N,11604.0344,W,52.72,139.25,250210,,*24
$GPRMC,211633.000,A,3325.9543,N,11604.0003,W,52.81,139.46,250210,,*2B
$GPRMC,211636.000,A,3325.9209,N,11603.9661,W,52.73,139.29,250210,,*2F
$GPRMC,211639.000,A,3325.8877,N,11603.9319,W,52.55,139.32,250210,,*26
$GPRMC,211642.000,A,3325.8543,N,11603.8978,W,52.65,139.48,250210,,*22
$GPRMC,211645.000,A,3325.8209,N,11603.8636,W,52.76,139.10,250210,,*26
$GPRMC,211648.000,A,3325.7875,N,11603.8292,W,52.80,139.25,250210,,*20
$GPRMC,211651.000,A,3325.7539,N,11603.7950,W,52.88,139.57,250210,,*2A
$GPRMC,211654.000,A,3325.7202,N,11603.7611,W,52.90,140.12,250210,,*2C
$GPRMC,211657.000,A,3325.6861,N,11603.7275,W,52.97,140.71,250210,,*25
$GPRMC,211700.000,A,3325.6519,N,11603.6941,W,53.00,140.65,250210,,*23
$GPRMC,211703.000,A,3325.6179,N,11603.6606,W,52.92,140.23,250210,,*26
$GPRMC,211706.000,A,3325.5841,N,11603.6268,W,52.81,139.37,250210,,*27
$GPRMC,211709.000,A,3325.5510,N,11603.5918,W,52.73,137.46,250210,,*2B
$GPRMC,211712.000,A,3325.5191,N,11603.5557,W,52.54,135.75,250210,,*2C
$GPRMC,211715.000,A,3325.4878,N,11603.5183,W,52.33,134.63,250210,,*2E
$GPRMC,211718.000,A,3325.4566,N,11603.4812,W,52.36,134.92,250210,,*2A
$GPRMC,211721.000,A,3325.4256,N,11603.4443,W,52.38,135.21,250210,,*2B
$GPRMC,211724.000,A,3325.3946,N,11603.4075,W,52.42,135.22,250210,,*2C
$GPRMC,211727.000,A,3325.3635,N,11603.3707,W,52.38,135.24,250210,,*2A
$GPRMC,211730.000,A,3325.3323,N,11603.3340,W,52.45,135.01,250210,,*24
$GPRMC,211733.000,A,3325.3012,N,11603.2971,W,52.80,135.09,250210,,*2E
$GPRMC,211736.000,A,3325.2699,N,11603.2600,W,52.71,134.81,250210,,*29
$GPRMC,211739.000,A,3325.2387,N,11603.2229,W,52.82,135.08,250210,,*2F
$GPRMC,211742.000,A,3325.2075,N,11603.1858,W,52.76,135.01,250210,,*20
$GPRMC,211745.000,A,3325.1764,N,11603.1487,W,52.69,135.04,250210,,*26
$GPRMC,211748.000,A,3325.1448,N,11603.1121,W,52.77,136.61,250210,,*20
$GPRMC,211751.000,A,3325.1119,N,11603.0772,W,52.72,139.99,250210,,*25
$GPRMC,211754.000,A,3325.0774,N,11603.0447,W,52.75,143.02,250210,,*21
$GPRMC,211757.000,A,3325.0413,N,11603.0147,W,52.78,146.37,250210,,*2B
$GPRMC,211800.000,A,3325.0039,N,11602.9868,W,52.76,149.32,250210,,*22
$GPRMC,211803.000,A,3324.9652,N,11602.9614,W,52.74,152.58,250210,,*23
$GPRMC,211806.000,A,3324.9253,N,11602.9386,W,52.66,155.62,250210,,*20
$GPRMC,211809.000,A,3324.8847,N,11602.9184,W,52.57,158.77,250210,,*2A
$GPRMC,211812.000,A,3324.8433,N,11602.9010,W,52.49,161.88,250210,,*26
$GPRMC,211815.000,A,3324.8011,N,11602.8861,W,52.53,164.83,250210,,*2F
$GPRMC,211818.000,A,3324.7581,N,11602.8740,W,52.90,168.04,250210,,*21
$GPRMC,211821.000,A,3324.7145,N,11602.8637,W,53.13,168.31,250210,,*2A
$GPRMC,211824.000,A,3324.6708,N,11602.8535,W,53.36,168.61,250210,,*22
$GPRMC,211827.000,A,3324.6268,N,11602.8431,W,53.79,168.25,250210,,*2C
$GPRMC,211830.000,A,3324.5825,N,11602.8325,W,54.09,168.85,250210,,*22
$GPRMC,211833.000,A,3324.5380,N,11602.8223,W,54.33,168.75,250210,,*24
$GPRMC,211836.000,A,3324.4934,N,11602.8121,W,54.36,168.89,250210,,*22
$GPRMC,211839.000,A,3324.4488,N,11602.8018,W,53.99,168.69,250210,,*20
$GPRMC,211842.000,A,3324.4047,N,11602.7915,W,53.35,168.75,250210,,*2B
$GPRMC,211845.000,A,3324.3608,N,11602.7812,W,53.34,168.75,250210,,*21
$GPRMC,211848.000,A,3324.3169,N,11602.7708,W,53.40,168.69,250210,,*26
$GPRMC,211851.000,A,3324.2728,N,11602.7600,W,53.31,168.80,250210,,*24
$GPRMC,211854.000,A,3324.2287,N,11602.7491,W,53.38,168.46,250210,,*28
$GPRMC,211857.000,A,3324.1850,N,11602.7388,W,53.32,168.73,250210,,*2B
$GPRMC,211900.000,A,3324.1412,N,11602.7284,W,53.36,168.58,250210,,*22
$GPRMC,211903.000,A,3324.0971,N,11602.7176,W,53.45,168.94,250210,,*22
$GPRMC,211906.000,A,3324.0524,N,11602.7061,W,53.74,168.73,250210,,*27
$GPRMC,211909.000,A,3324.0083,N,11602.6955,W,53.62,168.88,250210,,*2C
$GPRMC,211912.000,A,3323.9644,N,11602.6851,W,53.62,168.70,250210,,*27
$GPRMC,211915.000,A,3323.9208,N,11602.6748,W,53.21,168.56,250210,,*28
$GPRMC,211918.000,A,3323.8773,N,11602.6643,W,53.10,168.60,250210,,*20
$GPRMC,211921.000,A,3323.8339,N,11602.6541,W,53.08,168.71,250210,,*28
$GPRMC,211924.000,A,3323.7905,N,11602.6437,W,52.97,168.63,250210,,*23
$GPRMC,211927.000,A,3323.7472,N,11602.6333,W,53.01,168.69,250210,,*2A
$GPRMC,211930.000,A,3323.7038,N,11602.6229,W,53.02,168.59,250210,,*2C
$GPRMC,211933.000,A,3323.6605,N,11602.6127,W,52.67,168.85,250210,,*28
$GPRMC,211936.000,A,3323.6176,N,11602.6023,W,52.14,167.77,250210,,*2D
$GPRMC,211939.000,A,3323.5754,N,11602.5895,W,52.16,163.54,250210,,*26
$GPRMC,211942.000,A,3323.5340,N,11602.5727,W,52.48,158.93,250210,,*25
$GPRMC,211945.000,A,3323.4938,N,11602.5517,W,52.61,154.33,250210,,*2A
$GPRMC,211948.000,A,3323.4548,N,11602.5270,W,52.39,150.34,250210,,*24
$GPRMC,211951.000,A,3323.4177,N,11602.4985,W,52.29,145.47,250210,,*25
$GPRMC,211954.000,A,3323.3824,N,11602.4667,W,52.52,141.50,250210,,*25
$GPRMC,211957.000,A,3323.3487,N,11602.4317,W,53.33,137.78,250210,,*2C
$GPRMC,212000.000,A,3323.3161,N,11602.3956,W,53.28,137.19,250210,,*2C
$GPRMC,212003.000,A,3323.2837,N,11602.3593,W,52.98,137.16,250210,,*24
$GPRMC,212006.000,A,3323.2517,N,11602.3234,W,52.55,137.16,250210,,*25
$GPRMC,212009.000,A,3323.2197,N,11602.2876,W,52.59,137.19,250210,,*28
$GPRMC,212012.000,A,3323.1876,N,11602.2519,W,52.63,137.17,250210,,*24
$GPRMC,212015.000,A,3323.1555,N,11602.2163,W,52.46,137.13,250210,,*25
$GPRMC,212018.000,A,3323.1234,N,11602.1808,W,52.85,137.20,250210,,*20
$GPRMC,212021.000,A,3323.0909,N,11602.1449,W,53.18,137.38,250210,,*2B
$GPRMC,212024.000,A,3323.0582,N,11602.1090,W,53.32,137.38,250210,,*29
$GPRMC,212027.000,A,3323.0259,N,11602.0733,W,52.78,137.11,250210,,*20
$GPRMC,212030.000,A,3322.9938,N,11602.0378,W,52.62,137.18,250210,,*2B
$GPRMC,212033.000,A,3322.9618,N,11602.0024,W,52.45,137.25,250210,,*24
$GPRMC,212036.000,A,3322.9300,N,11601.9670,W,52.67,137.17,250210,,*21
$GPRMC,212039.000,A,3322.8978,N,11601.9316,W,52.61,137.40,250210,,*2B
$GPRMC,212042.000,A,3322.8658,N,11601.8962,W,52.47,136.99,250210,,*23
$GPRMC,212045.000,A,3322.8339,N,11601.8607,W,52.25,137.16,250210,,*28
$GPRMC,212048.000,A,3322.8019,N,11601.8254,W,52.60,137.26,250210,,*24
$GPRMC,212051.000,A,3322.7699,N,11601.7898,W,52.76,137.01,250210,,*2A
$GPRMC,212054.000,A,3322.7372,N,11601.7544,W,52.68,138.70,250210,,*25
$GPRMC,212057.000,A,3322.7033,N,11601.7209,W,52.41,141.69,250210,,*23
$GPRMC,212100.000,A,3322.6685,N,11601.6900,W,52.28,144.62,250210,,*28
$GPRMC,212103.000,A,3322.6318,N,11601.6610,W,52.29,147.77,250210,,*22
$GPRMC,212106.000,A,3322.5943,N,11601.6345,W,52.18,150.97,250210,,*2F
$GPRMC,212109.000,A,3322.5551,N,11601.6101,W,52.81,153.67,250210,,*21
$GPRMC,212112.000,A,3322.5153,N,11601.5872,W,52.73,154.03,250210,,*2B
$GPRMC,212115.000,A,3322.4756,N,11601.5644,W,52.39,154.30,250210,,*2B
$GPRMC,212118.000,A,3322.4360,N,11601.5418,W,52.42,154.12,250210,,*20
$GPRMC,212121.000,A,3322.3965,N,11601.5192,W,52.20,154.36,250210,,*27
$GPRMC,212124.000,A,3322.3571,N,11601.4967,W,52.36,154.08,250210,,*22
$GPRMC,212127.000,A,3322.3175,N,11601.4739,W,52.64,154.33,250210,,*2B
$GPRMC,212130.000,A,3322.2779,N,11601.4511,W,52.45,154.26,250210,,*29
$GPRMC,212133.000,A,3322.2385,N,11601.4285,W,52.38,153.93,250210,,*24
$GPRMC,212136.000,A,3322.1990,N,11601.4056,W,52.52,154.08,250210,,*29
$GPRMC,212139.000,A,3322.1591,N,11601.3825,W,53.66,154.29,250210,,*25
$GPRMC,212142.000,A,3322.1184,N,11601.3590,W,53.72,154.16,250210,,*23
$GPRMC,212145.000,A,3322.0776,N,11601.3369,W,53.48,156.67,250210,,*23
$GPRMC,212148.000,A,3322.0360,N,11601.3174,W,53.53,160.09,250210,,*24
$GPRMC,212151.000,A,3321.9936,N,11601.3010,W,53.26,163.28,250210,,*2E
$GPRMC,212154.000,A,3321.9502,N,11601.2867,W,53.22,165.54,250210,,*20
$GPRMC,212157.000,A,3321.9067,N,11601.2734,W,53.41,164.99,250210,,*29
$GPRMC,212200.000,A,3321.8632,N,11601.2596,W,53.62,164.86,250210,,*2A
$GPRMC,212203.000,A,3321.8197,N,11601.2461,W,53.35,165.57,250210,,*27
$GPRMC,212206.000,A,3321.7765,N,11601.2327,W,53.14,165.09,250210,,*2B
$GPRMC,212209.000,A,3321.7334,N,11601.2191,W,53.11,165.27,250210,,*22
$GPRMC,212212.000,A,3321.6903,N,11601.2057,W,52.79,165.24,250210,,*20
$GPRMC,212215.000,A,3321.6491,N,11601.1929,W,49.95,165.11,250210,,*2C
$GPRMC,212218.000,A,3321.6092,N,11601.1803,W,48.99,164.85,250210,,*2E
$GPRMC,212221.000,A,3321.5695,N,11601.1678,W,49.21,165.27,250210,,*2F
$GPRMC,212224.000,A,3321.5297,N,11601.1554,W,49.08,165.59,250210,,*23
$GPRMC,212227.000,A,3321.4899,N,11601.1432,W,49.15,165.23,250210,,*25
$GPRMC,212230.000,A,3321.4501,N,11601.1307,W,49.09,165.14,250210,,*27
$GPRMC,212233.000,A,3321.4104,N,11601.1182,W,49.06,165.14,250210,,*25
$GPRMC,212236.000,A,3321.3706,N,11601.1058,W,49.44,165.22,250210,,*26
$GPRMC,212239.000,A,3321.3300,N,11601.0930,W,50.99,164.88,250210,,*24
$GPRMC,212242.000,A,3321.2881,N,11601.0798,W,52.57,165.12,250210,,*25
$GPRMC,212245.000,A,3321.2450,N,11601.0660,W,53.89,164.92,250210,,*2F
