NMEA Sentence Code,UTC Time,Status,Latitude,Latitude Direction,Longitude,Longitude Direction,Speed (knots),Track Angle (degrees true),Date,MagneticVariation,Magnetic Variation Direction,[FAA Mode]-Optional,Checksum
$GPRMC,023315.000,A,3248.5713,N,11710.6110,W,38.28,149.70,280310,,,A*45
$GPRMC,023318.000,A,3248.5401,N,11710.5948,W,41.41,161.47,280310,,,A*41
$GPRMC,023321.000,A,3248.5056,N,11710.5859,W,41.46,171.52,280310,,,A*4E
$GPRMC,023324.000,A,3248.4693,N,11710.5808,W,43.04,173.04,280310,,,A*44
$GPRMC,023327.000,A,3248.4336,N,11710.5758,W,43.04,172.69,280310,,,A*4D
$GPRMC,023330.000,A,3248.3980,N,11710.5705,W,41.98,171.66,280310,,,A*48
$GPRMC,023333.000,A,3248.3648,N,11710.5615,W,39.43,162.34,280310,,,A*4C
$GPRMC,023336.000,A,3248.3364,N,11710.5481,W,35.65,156.09,280310,,,A*4C
$GPRMC,023339.000,A,3248.3173,N,11710.5333,W,25.47,147.27,280310,,,A*44
$GPRMC,023342.000,A,3248.3036,N,11710.5223,W,17.94,149.16,280310,,,A*4B
$GPRMC,023345.000,A,3248.2891,N,11710.5121,W,23.79,151.34,280310,,,A*44
$GPRMC,023348.000,A,3248.2683,N,11710.4989,W,31.42,152.13,280310,,,A*42
$GPRMC,023351.000,A,3248.2421,N,11710.4823,W,36.34,151.48,280310,,,A*4A
$GPRMC,023354.000,A,3248.2137,N,11710.4662,W,38.05,156.11,280310,,,A*41
$GPRMC,023357.000,A,3248.1824,N,11710.4530,W,40.84,162.44,280310,,,A*4F
$GPRMC,023400.000,A,3248.1483,N,11710.4416,W,42.98,163.75,280310,,,A*42
$GPRMC,023403.000,A,3248.1131,N,11710.4303,W,42.96,164.69,280310,,,A*4A
$GPRMC,023406.000,A,3248.0785,N,11710.4184,W,42.95,161.63,280310,,,A*46
$GPRMC,023409.000,A,3248.0459,N,11710.4012,W,42.39,150.89,280310,,,A*45
$GPRMC,023412.000,A,3248.0169,N,11710.3796,W,40.47,147.87,280310,,,A*46
$GPRMC,023415.000,A,3247.9894,N,11710.3590,W,38.19,147.69,280310,,,A*4C
$GPRMC,023418.000,A,3247.9633,N,11710.3401,W,37.14,150.93,280310,,,A*4A
$GPRMC,023421.000,A,3247.9366,N,11710.3244,W,35.37,156.08,280310,,,A*45
$GPRMC,023424.000,A,3247.9077,N,11710.3122,W,37.70,163.21,280310,,,A*4C
$GPRMC,023427.000,A,3247.8760,N,11710.3043,W,39.77,170.97,280310,,,A*4F
$GPRMC,023430.000,A,3247.8430,N,11710.3000,W,39.45,174.01,280310,,,A*42
$GPRMC,023433.000,A,3247.8094,N,11710.2960,W,40.70,174.00,280310,,,A*4C
$GPRMC,023436.000,A,3247.7763,N,11710.2914,W,39.30,172.66,280310,,,A*46
$GPRMC,023439.000,A,3247.7431,N,11710.2873,W,38.67,172.88,280310,,,A*4E
$GPRMC,023442.000,A,3247.7109,N,11710.2820,W,38.89,170.80,280310,,,A*40
$GPRMC,023445.000,A,3247.6787,N,11710.2716,W,40.55,160.81,280310,,,A*42
$GPRMC,023448.000,A,3247.6509,N,11710.2541,W,37.32,151.14,280310,,,A*44
$GPRMC,023451.000,A,3247.6265,N,11710.2326,W,36.19,143.11,280310,,,A*48
$GPRMC,023454.000,A,3247.6080,N,11710.2032,W,35.53,124.92,280310,,,A*45
$GPRMC,023457.000,A,3247.5928,N,11710.1714,W,36.58,118.82,280310,,,A*48
$GPRMC,023500.000,A,3247.5774,N,11710.1373,W,37.65,119.10,280310,,,A*4C
$GPRMC,023503.000,A,3247.5621,N,11710.1048,W,38.21,119.39,280310,,,A*41
$GPRMC,023506.000,A,3247.5474,N,11710.0713,W,38.09,118.35,280310,,,A*49
$GPRMC,023509.000,A,3247.5326,N,11710.0389,W,35.79,118.98,280310,,,A*4C
$GPRMC,023512.000,A,3247.5190,N,11710.0105,W,30.75,119.73,280310,,,A*42
$GPRMC,023515.000,A,3247.5089,N,11709.9887,W,22.11,118.19,280310,,,A*42
$GPRMC,023518.000,A,3247.5024,N,11709.9741,W,12.74,120.94,280310,,,A*43
$GPRMC,023554.000,A,3247.4966,N,11709.9608,W,12.96,120.02,280310,,,A*4A
$GPRMC,023557.000,A,3247.4891,N,11709.9446,W,19.86,115.70,280310,,,A*41
$GPRMC,023600.000,A,3247.4800,N,11709.9220,W,27.21,111.42,280310,,,A*4B
$GPRMC,023603.000,A,3247.4733,N,11709.8932,W,31.38,100.60,280310,,,A*41
$GPRMC,023606.000,A,3247.4711,N,11709.8605,W,33.87,91.42,280310,,,A*70
$GPRMC,023609.000,A,3247.4711,N,11709.8252,W,35.97,90.25,280310,,,A*7E
$GPRMC,023612.000,A,3247.4710,N,11709.7892,W,36.17,90.59,280310,,,A*7C
$GPRMC,023615.000,A,3247.4707,N,11709.7528,W,36.99,90.69,280310,,,A*74
$GPRMC,023618.000,A,3247.4703,N,11709.7154,W,37.50,91.45,280310,,,A*79
$GPRMC,023621.000,A,3247.4691,N,11709.6787,W,36.39,92.16,280310,,,A*7B
$GPRMC,023624.000,A,3247.4668,N,11709.6440,W,33.29,98.07,280310,,,A*7E
$GPRMC,023627.000,A,3247.4584,N,11709.6152,W,29.34,116.75,280310,,,A*4F
$GPRMC,023630.000,A,3247.4390,N,11709.5978,W,27.57,146.22,280310,,,A*45
$GPRMC,023633.000,A,3247.4096,N,11709.5990,W,33.48,185.37,280310,,,A*45
$GPRMC,023636.000,A,3247.3773,N,11709.6085,W,38.76,193.40,280310,,,A*44
$GPRMC,023639.000,A,3247.3425,N,11709.6185,W,44.15,193.18,280310,,,A*49
$GPRMC,023642.000,A,3247.3041,N,11709.6297,W,49.27,195.04,280310,,,A*44
$GPRMC,023645.000,A,3247.2612,N,11709.6433,W,54.61,194.25,280310,,,A*46
$GPRMC,023648.000,A,3247.2160,N,11709.6584,W,56.90,196.66,280310,,,A*4D
$GPRMC,023651.000,A,3247.1699,N,11709.6760,W,57.79,197.03,280310,,,A*4B
$GPRMC,023654.000,A,3247.1237,N,11709.6925,W,58.18,196.84,280310,,,A*47
$GPRMC,023657.000,A,3247.0771,N,11709.7101,W,60.31,196.77,280310,,,A*41
$GPRMC,023700.000,A,3247.0287,N,11709.7279,W,61.07,196.27,280310,,,A*43
$GPRMC,023703.000,A,3246.9793,N,11709.7458,W,61.49,197.13,280310,,,A*41
$GPRMC,023706.000,A,3246.9307,N,11709.7636,W,59.36,196.72,280310,,,A*42
$GPRMC,023709.000,A,3246.8832,N,11709.7781,W,58.34,192.02,280310,,,A*4C
$GPRMC,023712.000,A,3246.8350,N,11709.7872,W,58.52,186.47,280310,,,A*4E
$GPRMC,023715.000,A,3246.7871,N,11709.7904,W,56.92,180.85,280310,,,A*44
$GPRMC,023718.000,A,3246.7394,N,11709.7879,W,57.27,175.52,280310,,,A*4D
$GPRMC,023721.000,A,3246.6912,N,11709.7806,W,57.32,170.34,280310,,,A*4B
$GPRMC,023724.000,A,3246.6451,N,11709.7669,W,56.42,164.27,280310,,,A*42
$GPRMC,023727.000,A,3246.6008,N,11709.7486,W,55.49,159.80,280310,,,A*41
$GPRMC,023730.000,A,3246.5575,N,11709.7280,W,54.71,157.36,280310,,,A*42
$GPRMC,023733.000,A,3246.5152,N,11709.7069,W,54.72,157.66,280310,,,A*43
$GPRMC,023736.000,A,3246.4727,N,11709.6886,W,54.45,162.80,280310,,,A*41
$GPRMC,023739.000,A,3246.4285,N,11709.6757,W,55.03,170.01,280310,,,A*49
$GPRMC,023742.000,A,3246.3825,N,11709.6730,W,55.08,179.10,280310,,,A*41
$GPRMC,023745.000,A,3246.3369,N,11709.6775,W,55.04,187.39,280310,,,A*42
$GPRMC,023748.000,A,3246.2927,N,11709.6886,W,54.14,192.81,280310,,,A*4A
$GPRMC,023751.000,A,3246.2486,N,11709.7008,W,53.54,192.39,280310,,,A*4B
$GPRMC,023754.000,A,3246.2055,N,11709.7125,W,52.40,192.09,280310,,,A*4D
$GPRMC,023757.000,A,3246.1626,N,11709.7235,W,51.71,192.15,280310,,,A*41
$GPRMC,023800.000,A,3246.1209,N,11709.7338,W,49.23,191.67,280310,,,A*41
$GPRMC,023803.000,A,3246.0805,N,11709.7435,W,49.06,191.24,280310,,,A*4F
$GPRMC,023806.000,A,3246.0407,N,11709.7534,W,47.51,191.96,280310,,,A*41
$GPRMC,023809.000,A,3246.0032,N,11709.7632,W,45.75,192.37,280310,,,A*45
$GPRMC,023812.000,A,3245.9664,N,11709.7730,W,45.37,192.49,280310,,,A*4C
$GPRMC,023815.000,A,3245.9291,N,11709.7830,W,46.54,192.43,280310,,,A*46
$GPRMC,023818.000,A,3245.8908,N,11709.7937,W,47.59,193.43,280310,,,A*4A
$GPRMC,023821.000,A,3245.8523,N,11709.8047,W,47.36,192.76,280310,,,A*4A
$GPRMC,023824.000,A,3245.8138,N,11709.8138,W,47.42,188.85,280310,,,A*4C
$GPRMC,023827.000,A,3245.7756,N,11709.8168,W,45.76,181.70,280310,,,A*4D
$GPRMC,023830.000,V,3245.7384,N,11709.8178,W,43.70,181.45,280310,,,E*54
$GPRMC,023833.000,A,3245.7067,N,11709.8181,W,37.02,179.21,280310,,,A*4F
$GPRMC,023836.000,A,3245.6833,N,11709.8188,W,28.80,182.32,280310,,,A*49
$GPRMC,023839.000,A,3245.6636,N,11709.8234,W,24.78,199.58,280310,,,A*44
$GPRMC,023842.000,A,3245.6530,N,11709.8411,W,21.34,237.83,280310,,,A*40
$GPRMC,023845.000,A,3245.6557,N,11709.8635,W,19.92,276.21,280310,,,A*48
$GPRMC,023848.000,A,3245.6746,N,11709.8746,W,20.17,337.69,280310,,,A*4D
$GPRMC,023851.000,A,3245.6951,N,11709.8714,W,22.83,22.12,280310,,,A*7E
$GPRMC,023854.000,A,3245.7139,N,11709.8556,W,24.59,38.69,280310,,,A*7E
$GPRMC,023857.000,A,3245.7242,N,11709.8309,W,27.77,67.49,280310,,,A*79
$GPRMC,023900.000,A,3245.7315,N,11709.8024,W,30.59,70.05,280310,,,A*71
$GPRMC,023903.000,A,3245.7397,N,11709.7719,W,32.96,74.09,280310,,,A*77
$GPRMC,023906.000,A,3245.7470,N,11709.7382,W,35.45,71.58,280310,,,A*72
$GPRMC,023909.000,A,3245.7601,N,11709.7059,W,36.89,58.14,280310,,,A*7C
$GPRMC,023912.000,A,3245.7787,N,11709.6744,W,39.69,56.05,280310,,,A*7C
$GPRMC,023915.000,A,3245.7983,N,11709.6395,W,42.28,57.30,280310,,,A*77
$GPRMC,023918.000,A,3245.8162,N,11709.6024,W,43.24,64.08,280310,,,A*7D
$GPRMC,023921.000,A,3245.8294,N,11709.5605,W,44.61,72.25,280310,,,A*75
$GPRMC,023924.000,A,3245.8402,N,11709.5172,W,46.03,74.22,280310,,,A*79
$GPRMC,023927.000,A,3245.8503,N,11709.4727,W,46.44,73.87,280310,,,A*76
$GPRMC,023930.000,A,3245.8612,N,11709.4300,W,44.76,73.41,280310,,,A*7B
$GPRMC,023933.000,A,3245.8720,N,11709.3866,W,45.44,72.32,280310,,,A*71
$GPRMC,023936.000,A,3245.8834,N,11709.3442,W,44.73,72.47,280310,,,A*73
$GPRMC,023939.000,A,3245.8952,N,11709.3017,W,44.85,72.50,280310,,,A*76
$GPRMC,023942.000,A,3245.9066,N,11709.2603,W,43.62,72.68,280310,,,A*72
$GPRMC,023945.000,A,3245.9173,N,11709.2188,W,43.87,74.66,280310,,,A*77
$GPRMC,023948.000,A,3245.9284,N,11709.1746,W,47.99,74.05,280310,,,A*78
$GPRMC,023951.000,A,3245.9397,N,11709.1287,W,48.14,73.73,280310,,,A*77
$GPRMC,023954.000,A,3245.9509,N,11709.0824,W,49.38,73.62,280310,,,A*7E
$GPRMC,023957.000,A,3245.9627,N,11709.0342,W,51.27,73.70,280310,,,A*7D
$GPRMC,024000.000,A,3245.9751,N,11708.9851,W,52.00,73.29,280310,,,A*7A
$GPRMC,024003.000,A,3245.9875,N,11708.9358,W,51.42,74.15,280310,,,A*7F
$GPRMC,024006.000,A,3245.9994,N,11708.8872,W,50.77,73.35,280310,,,A*74
$GPRMC,024009.000,A,3246.0113,N,11708.8404,W,48.15,72.31,280310,,,A*73
$GPRMC,024012.000,A,3246.0240,N,11708.7967,W,46.19,69.85,280310,,,A*7C
$GPRMC,024015.000,A,3246.0388,N,11708.7547,W,45.95,65.62,280310,,,A*72
$GPRMC,024018.000,A,3246.0563,N,11708.7146,W,45.25,62.31,280310,,,A*73
$GPRMC,024021.000,A,3246.0734,N,11708.6747,W,45.24,64.95,280310,,,A*76
$GPRMC,024024.000,A,3246.0884,N,11708.6348,W,43.34,66.70,280310,,,A*72
$GPRMC,024027.000,A,3246.1030,N,11708.5972,W,40.92,64.61,280310,,,A*7A
$GPRMC,024030.000,A,3246.1170,N,11708.5632,W,36.83,63.50,280310,,,A*76
$GPRMC,024033.000,A,3246.1302,N,11708.5316,W,35.93,65.39,280310,,,A*7A
$GPRMC,024036.000,A,3246.1426,N,11708.4985,W,37.65,66.45,280310,,,A*7C
$GPRMC,024039.000,A,3246.1549,N,11708.4647,W,36.72,67.32,280310,,,A*7C
$GPRMC,024042.000,A,3246.1661,N,11708.4313,W,36.89,68.60,280310,,,A*71
$GPRMC,024045.000,A,3246.1768,N,11708.3971,W,36.36,69.88,280310,,,A*74
$GPRMC,024048.000,A,3246.1867,N,11708.3656,W,32.79,69.52,280310,,,A*7B
$GPRMC,024051.000,A,3246.1949,N,11708.3343,W,32.74,72.82,280310,,,A*75
$GPRMC,024054.000,A,3246.1996,N,11708.3035,W,31.70,86.55,280310,,,A*76
$GPRMC,024057.000,A,3246.1960,N,11708.2720,W,32.64,102.39,280310,,,A*4F
$GPRMC,024100.000,A,3246.1887,N,11708.2391,W,33.90,101.82,280310,,,A*43
$GPRMC,024103.000,A,3246.1875,N,11708.2069,W,32.49,83.36,280310,,,A*78
$GPRMC,024106.000,A,3246.1948,N,11708.1756,W,33.31,70.00,280310,,,A*7D
$GPRMC,024109.000,A,3246.2081,N,11708.1477,W,32.47,57.06,280310,,,A*7E
$GPRMC,024112.000,A,3246.2273,N,11708.1220,W,35.48,48.02,280310,,,A*7D
$GPRMC,024115.000,A,3246.2481,N,11708.0938,W,39.05,55.35,280310,,,A*7F
$GPRMC,024118.000,A,3246.2623,N,11708.0581,W,40.51,71.27,280310,,,A*7C
$GPRMC,024121.000,A,3246.2726,N,11708.0181,W,43.09,72.79,280310,,,A*70
$GPRMC,024124.000,A,3246.2833,N,11707.9760,W,45.68,72.64,280310,,,A*7C
$GPRMC,024127.000,A,3246.2952,N,11707.9312,W,47.16,74.34,280310,,,A*70
$GPRMC,024130.000,A,3246.3069,N,11707.8848,W,48.20,74.38,280310,,,A*75
$GPRMC,024133.000,A,3246.3177,N,11707.8385,W,47.57,73.37,280310,,,A*75
$GPRMC,024136.000,A,3246.3313,N,11707.7927,W,49.23,69.68,280310,,,A*71
$GPRMC,024139.000,A,3246.3472,N,11707.7464,W,49.99,66.47,280310,,,A*77
$GPRMC,024142.000,A,3246.3660,N,11707.7010,W,51.77,62.46,280310,,,A*71
$GPRMC,024145.000,A,3246.3874,N,11707.6565,W,50.87,59.38,280310,,,A*74
$GPRMC,024148.000,A,3246.4105,N,11707.6140,W,51.50,57.12,280310,,,A*7F
$GPRMC,024151.000,A,3246.4342,N,11707.5709,W,52.46,57.59,280310,,,A*75
$GPRMC,024154.000,A,3246.4583,N,11707.5269,W,52.70,57.61,280310,,,A*76
$GPRMC,024157.000,A,3246.4805,N,11707.4828,W,51.07,60.16,280310,,,A*7F
$GPRMC,024200.000,A,3246.5023,N,11707.4401,W,49.44,58.44,280310,,,A*76
$GPRMC,024203.000,A,3246.5240,N,11707.3984,W,49.16,59.02,280310,,,A*71
$GPRMC,024206.000,A,3246.5456,N,11707.3581,W,47.51,56.96,280310,,,A*73
$GPRMC,024209.000,A,3246.5672,N,11707.3193,W,47.07,57.07,280310,,,A*75
$GPRMC,024212.000,A,3246.5882,N,11707.2807,W,46.63,57.15,280310,,,A*7B
$GPRMC,024215.000,A,3246.6091,N,11707.2419,W,46.95,57.16,280310,,,A*7C
$GPRMC,024218.000,A,3246.6299,N,11707.2035,W,45.97,57.47,280310,,,A*74
$GPRMC,024221.000,A,3246.6497,N,11707.1642,W,46.69,61.11,280310,,,A*77
$GPRMC,024224.000,A,3246.6660,N,11707.1233,W,45.35,66.33,280310,,,A*77
$GPRMC,024227.000,A,3246.6796,N,11707.0815,W,44.92,70.34,280310,,,A*7F
$GPRMC,024230.000,A,3246.6902,N,11707.0391,W,44.85,75.28,280310,,,A*73
$GPRMC,024233.000,A,3246.6966,N,11706.9966,W,43.17,82.89,280310,,,A*77
$GPRMC,024236.000,A,3246.6990,N,11706.9552,W,42.23,86.78,280310,,,A*7C
$GPRMC,024239.000,A,3246.6997,N,11706.9137,W,41.98,89.52,280310,,,A*77
$GPRMC,024242.000,A,3246.6993,N,11706.8744,W,37.80,90.97,280310,,,A*75
$GPRMC,024245.000,A,3246.6970,N,11706.8402,W,33.87,95.94,280310,,,A*7B
$GPRMC,024248.000,A,3246.6902,N,11706.8084,W,33.63,105.33,280310,,,A*46
$GPRMC,024251.000,A,3246.6779,N,11706.7783,W,34.50,119.57,280310,,,A*4B
$GPRMC,024254.000,A,3246.6587,N,11706.7517,W,35.79,133.69,280310,,,A*4D
$GPRMC,024257.000,A,3246.6318,N,11706.7312,W,36.58,149.65,280310,,,A*4C
$GPRMC,024300.000,A,3246.6015,N,11706.7185,W,38.14,165.18,280310,,,A*4F
$GPRMC,024303.000,A,3246.5676,N,11706.7135,W,39.92,174.57,280310,,,A*43
$GPRMC,024306.000,A,3246.5325,N,11706.7159,W,40.71,184.85,280310,,,A*4C
$GPRMC,024309.000,A,3246.4984,N,11706.7234,W,40.63,190.15,280310,,,A*44
$GPRMC,024312.000,A,3246.4655,N,11706.7339,W,41.32,195.38,280310,,,A*4E
$GPRMC,024315.000,A,3246.4321,N,11706.7489,W,40.77,196.95,280310,,,A*47
$GPRMC,024318.000,A,3246.3991,N,11706.7617,W,40.35,196.61,280310,,,A*44
$GPRMC,024321.000,A,3246.3656,N,11706.7719,W,41.33,190.68,280310,,,A*4D
$GPRMC,024324.000,A,3246.3307,N,11706.7773,W,42.43,184.67,280310,,,A*4B
$GPRMC,024327.000,A,3246.2944,N,11706.7787,W,43.97,179.14,280310,,,A*41
$GPRMC,024330.000,A,3246.2571,N,11706.7745,W,45.00,173.53,280310,,,A*42
$GPRMC,024333.000,A,3246.2186,N,11706.7673,W,47.08,169.22,280310,,,A*4E
$GPRMC,024336.000,A,3246.1807,N,11706.7567,W,47.39,166.34,280310,,,A*44
$GPRMC,024339.000,A,3246.1432,N,11706.7436,W,46.46,162.06,280310,,,A*48
$GPRMC,024342.000,A,3246.1071,N,11706.7276,W,46.35,158.88,280310,,,A*4E
$GPRMC,024345.000,A,3246.0719,N,11706.7089,W,45.97,155.07,280310,,,A*42
$GPRMC,024348.000,A,3246.0377,N,11706.6875,W,46.45,150.47,280310,,,A*44
$GPRMC,024351.000,A,3246.0034,N,11706.6633,W,48.31,149.72,280310,,,A*47
$GPRMC,024354.000,A,3245.9674,N,11706.6389,W,49.62,150.73,280310,,,A*40
$GPRMC,024357.000,A,3245.9316,N,11706.6149,W,48.09,151.45,280310,,,A*44
$GPRMC,024400.000,A,3245.8972,N,11706.5949,W,44.70,157.09,280310,,,A*4F
$GPRMC,024403.000,A,3245.8605,N,11706.5814,W,44.71,163.94,280310,,,A*48
$GPRMC,024406.000,A,3245.8230,N,11706.5733,W,45.94,170.77,280310,,,A*40
$GPRMC,024409.000,A,3245.7834,N,11706.5691,W,46.10,173.86,280310,,,A*45
$GPRMC,024412.000,A,3245.7446,N,11706.5646,W,46.59,174.16,280310,,,A*4F
$GPRMC,024415.000,A,3245.7067,N,11706.5603,W,45.83,175.16,280310,,,A*4B
$GPRMC,024418.000,A,3245.6681,N,11706.5568,W,46.70,174.95,280310,,,A*42
$GPRMC,024421.000,A,3245.6279,N,11706.5536,W,49.54,175.98,280310,,,A*45
$GPRMC,024424.000,A,3245.5852,N,11706.5505,W,52.79,176.76,280310,,,A*46
$GPRMC,024427.000,A,3245.5412,N,11706.5486,W,51.96,179.28,280310,,,A*41
$GPRMC,024430.000,A,3245.4977,N,11706.5492,W,52.16,179.78,280310,,,A*43
$GPRMC,024433.000,A,3245.4551,N,11706.5492,W,48.12,179.73,280310,,,A*4C
$GPRMC,024436.000,A,3245.4176,N,11706.5495,W,45.15,181.53,280310,,,A*40
$GPRMC,024439.000,A,3245.3869,N,11706.5524,W,35.80,182.14,280310,,,A*4F
$GPRMC,024442.000,A,3245.3618,N,11706.5556,W,28.83,187.36,280310,,,A*44
$GPRMC,024445.000,A,3245.3430,N,11706.5634,W,23.88,195.73,280310,,,A*4E
$GPRMC,024448.000,A,3245.3280,N,11706.5667,W,16.49,182.68,280310,,,A*4F
$GPRMC,024554.000,A,3245.3209,N,11706.5640,W,8.29,198.42,280310,,,A*7D
$GPRMC,024557.000,A,3245.3158,N,11706.5732,W,12.79,260.98,280310,,,A*40
$GPRMC,024600.000,A,3245.3168,N,11706.5928,W,22.25,271.23,280310,,,A*4D
$GPRMC,024603.000,A,3245.3172,N,11706.6197,W,28.86,270.22,280310,,,A*49
$GPRMC,024606.000,A,3245.3173,N,11706.6510,W,31.15,270.00,280310,,,A*44
$GPRMC,024609.000,A,3245.3172,N,11706.6822,W,30.23,269.92,280310,,,A*41
$GPRMC,024612.000,A,3245.3177,N,11706.7122,W,30.15,271.09,280310,,,A*48
$GPRMC,024615.000,A,3245.3181,N,11706.7431,W,30.29,270.62,280310,,,A*42
$GPRMC,024618.000,A,3245.3180,N,11706.7715,W,25.91,269.48,280310,,,A*4C
$GPRMC,024621.000,A,3245.3169,N,11706.7937,W,20.04,262.77,280310,,,A*41
$GPRMC,024624.000,A,3245.3180,N,11706.8060,W,11.45,270.49,280310,,,A*4E
$GPRMC,024636.000,A,3245.3182,N,11706.8130,W,5.62,278.05,280310,,,A*7B
$GPRMC,024639.000,A,3245.3184,N,11706.8256,W,16.96,272.13,280310,,,A*45
$GPRMC,024642.000,A,3245.3188,N,11706.8474,W,24.95,271.05,280310,,,A*45
$GPRMC,024645.000,A,3245.3193,N,11706.8754,W,29.77,270.88,280310,,,A*4C
$GPRMC,024648.000,A,3245.3195,N,11706.9049,W,28.37,270.45,280310,,,A*49
$GPRMC,024651.000,A,3245.3198,N,11706.9334,W,29.33,270.43,280310,,,A*46
$GPRMC,024654.000,A,3245.3199,N,11706.9634,W,30.51,270.38,280310,,,A*47
$GPRMC,024657.000,A,3245.3201,N,11706.9956,W,33.63,270.82,280310,,,A*4E
$GPRMC,024700.000,A,3245.3204,N,11707.0308,W,36.03,270.22,280310,,,A*48
$GPRMC,024703.000,A,3245.3206,N,11707.0668,W,35.91,270.78,280310,,,A*4D
$GPRMC,024706.000,A,3245.3210,N,11707.1024,W,35.87,270.32,280310,,,A*49
$GPRMC,024709.000,A,3245.3213,N,11707.1381,W,36.23,270.19,280310,,,A*4D
$GPRMC,024712.000,A,3245.3214,N,11707.1735,W,34.25,270.19,280310,,,A*4F
$GPRMC,024715.000,A,3245.3216,N,11707.2063,W,32.61,270.80,280310,,,A*4B
$GPRMC,024718.000,A,3245.3218,N,11707.2384,W,31.15,270.39,280310,,,A*40
$GPRMC,024721.000,A,3245.3218,N,11707.2681,W,28.24,269.94,280310,,,A*4F
$GPRMC,024724.000,A,3245.3219,N,11707.2934,W,23.50,270.19,280310,,,A*4F
$GPRMC,024727.000,A,3245.3217,N,11707.3131,W,15.96,269.99,280310,,,A*41
$GPRMC,024730.000,A,3245.3219,N,11707.3218,W,4.91,271.49,280310,,,A*72
$GPRMC,024821.000,A,3245.3225,N,11707.3207,W,5.32,269.91,280310,,,A*78
$GPRMC,024824.000,A,3245.3230,N,11707.3332,W,16.48,270.78,280310,,,A*4E
$GPRMC,024827.000,A,3245.3231,N,11707.3556,W,24.56,272.26,280310,,,A*4F
$GPRMC,024830.000,A,3245.3231,N,11707.3808,W,24.15,270.42,280310,,,A*48
$GPRMC,024833.000,A,3245.3230,N,11707.4028,W,18.55,269.36,280310,,,A*47
$GPRMC,024836.000,A,3245.3229,N,11707.4174,W,12.02,270.00,280310,,,A*47
$GPRMC,024839.000,A,3245.3226,N,11707.4273,W,7.70,267.55,280310,,,A*74
$GPRMC,024915.000,A,3245.3237,N,11707.4363,W,10.13,274.41,280310,,,A*4F
$GPRMC,024918.000,A,3245.3240,N,11707.4531,W,19.29,272.52,280310,,,A*47
$GPRMC,024921.000,A,3245.3249,N,11707.4747,W,22.68,270.55,280310,,,A*4F
$GPRMC,024924.000,A,3245.3248,N,11707.4970,W,21.55,271.54,280310,,,A*4C
$GPRMC,024927.000,A,3245.3250,N,11707.5204,W,24.37,270.64,280310,,,A*4C
$GPRMC,024930.000,A,3245.3254,N,11707.5457,W,26.16,271.67,280310,,,A*4D
$GPRMC,024933.000,A,3245.3259,N,11707.5729,W,26.38,271.71,280310,,,A*42
$GPRMC,024936.000,A,3245.3265,N,11707.5972,W,22.11,271.09,280310,,,A*48
$GPRMC,024939.000,A,3245.3265,N,11707.6158,W,16.74,269.14,280310,,,A*45
$GPRMC,024942.000,A,3245.3259,N,11707.6296,W,12.30,269.03,280310,,,A*45
$GPRMC,024945.000,A,3245.3256,N,11707.6396,W,8.10,267.12,280310,,,A*7B
$GPRMC,025006.000,A,3245.3268,N,11707.6534,W,13.34,271.28,280310,,,A*45
$GPRMC,025009.000,A,3245.3270,N,11707.6713,W,19.10,270.44,280310,,,A*43
$GPRMC,025012.000,A,3245.3271,N,11707.6929,W,22.55,270.99,280310,,,A*46
$GPRMC,025015.000,A,3245.3270,N,11707.7150,W,19.76,270.38,280310,,,A*45
$GPRMC,025018.000,A,3245.3268,N,11707.7325,W,16.15,269.53,280310,,,A*4E
$GPRMC,025021.000,A,3245.3267,N,11707.7490,W,16.77,269.64,280310,,,A*42
$GPRMC,025024.000,A,3245.3272,N,11707.7645,W,15.44,270.01,280310,,,A*41
$GPRMC,025027.000,A,3245.3273,N,11707.7776,W,10.98,271.25,280310,,,A*41
$GPRMC,025030.000,A,3245.3270,N,11707.7865,W,6.72,269.64,280310,,,A*76
$GPRMC,025127.000,A,3245.3257,N,11707.8015,W,10.67,277.13,280310,,,A*48
$GPRMC,025130.000,A,3245.3260,N,11707.8156,W,16.28,271.02,280310,,,A*47
$GPRMC,025133.000,A,3245.3259,N,11707.8353,W,22.08,271.15,280310,,,A*4A
$GPRMC,025136.000,A,3245.3265,N,11707.8609,W,25.19,269.70,280310,,,A*47
$GPRMC,025139.000,A,3245.3265,N,11707.8859,W,24.21,269.99,280310,,,A*4E
$GPRMC,025142.000,A,3245.3265,N,11707.9083,W,20.70,270.28,280310,,,A*4E
$GPRMC,025145.000,A,3245.3269,N,11707.9275,W,17.85,272.11,280310,,,A*48
$GPRMC,025148.000,A,3245.3272,N,11707.9467,W,20.17,271.44,280310,,,A*46
$GPRMC,025151.000,A,3245.3269,N,11707.9694,W,24.20,269.73,280310,,,A*47
$GPRMC,025154.000,A,3245.3262,N,11707.9940,W,24.01,269.96,280310,,,A*47
$GPRMC,025157.000,A,3245.3257,N,11708.0187,W,24.76,269.56,280310,,,A*4B
$GPRMC,025200.000,A,3245.3256,N,11708.0424,W,22.91,270.92,280310,,,A*48
$GPRMC,025203.000,A,3245.3258,N,11708.0670,W,26.70,270.72,280310,,,A*43
$GPRMC,025206.000,A,3245.3258,N,11708.0955,W,30.04,269.49,280310,,,A*4A
$GPRMC,025209.000,A,3245.3254,N,11708.1267,W,32.46,269.64,280310,,,A*49
$GPRMC,025212.000,A,3245.3252,N,11708.1599,W,33.16,269.99,280310,,,A*45
$GPRMC,025215.000,A,3245.3249,N,11708.1917,W,30.12,269.08,280310,,,A*4D
$GPRMC,025218.000,A,3245.3240,N,11708.2191,W,25.99,268.11,280310,,,A*42
$GPRMC,025221.000,A,3245.3236,N,11708.2438,W,26.10,268.31,280310,,,A*4F
$GPRMC,025224.000,A,3245.3226,N,11708.2671,W,19.58,266.58,280310,,,A*45
$GPRMC,025227.000,A,3245.3225,N,11708.2772,W,7.13,270.36,280310,,,A*78
$GPRMC,025248.000,A,3245.3232,N,11708.2864,W,5.53,271.59,280310,,,A*71
$GPRMC,025251.000,A,3245.3231,N,11708.2941,W,10.23,268.85,280310,,,A*46
$GPRMC,025254.000,A,3245.3227,N,11708.3083,W,15.61,269.80,280310,,,A*45
$GPRMC,025257.000,A,3245.3228,N,11708.3251,W,18.12,270.71,280310,,,A*4B
$GPRMC,025300.000,A,3245.3226,N,11708.3454,W,21.93,269.00,280310,,,A*48
$GPRMC,025303.000,A,3245.3227,N,11708.3683,W,22.62,270.01,280310,,,A*46
$GPRMC,025306.000,A,3245.3227,N,11708.3904,W,21.68,269.57,280310,,,A*41
$GPRMC,025309.000,A,3245.3224,N,11708.4132,W,23.55,270.09,280310,,,A*48
$GPRMC,025312.000,A,3245.3222,N,11708.4360,W,22.07,269.66,280310,,,A*46
$GPRMC,025315.000,A,3245.3225,N,11708.4601,W,26.56,269.44,280310,,,A*44
$GPRMC,025318.000,A,3245.3222,N,11708.4878,W,28.17,269.16,280310,,,A*42
$GPRMC,025321.000,A,3245.3215,N,11708.5176,W,29.80,269.39,280310,,,A*48
$GPRMC,025324.000,A,3245.3211,N,11708.5480,W,30.03,269.96,280310,,,A*43
$GPRMC,025327.000,A,3245.3212,N,11708.5754,W,25.71,269.54,280310,,,A*46
$GPRMC,025330.000,A,3245.3208,N,11708.5992,W,23.04,267.66,280310,,,A*44
$GPRMC,025333.000,A,3245.3206,N,11708.6216,W,22.53,269.96,280310,,,A*4F
$GPRMC,025336.000,A,3245.3210,N,11708.6436,W,22.05,272.07,280310,,,A*48
$GPRMC,025339.000,A,3245.3214,N,11708.6665,W,24.35,271.73,280310,,,A*42
$GPRMC,025342.000,A,3245.3211,N,11708.6906,W,23.38,271.70,280310,,,A*48
$GPRMC,025345.000,A,3245.3205,N,11708.7136,W,22.59,266.83,280310,,,A*4C
$GPRMC,025348.000,A,3245.3192,N,11708.7336,W,16.80,267.67,280310,,,A*46
$GPRMC,025351.000,A,3245.3187,N,11708.7445,W,7.55,269.17,280310,,,A*78
$GPRMC,025412.000,A,3245.3165,N,11708.7492,W,4.70,270.08,280310,,,A*7C
$GPRMC,025415.000,A,3245.3168,N,11708.7583,W,12.46,270.76,280310,,,A*4C
$GPRMC,025418.000,A,3245.3165,N,11708.7723,W,13.28,260.63,280310,,,A*48
$GPRMC,025421.000,A,3245.3096,N,11708.7824,W,13.96,207.88,280310,,,A*46
$GPRMC,025424.000,A,3245.2945,N,11708.7857,W,20.63,184.81,280310,,,A*4A
$GPRMC,025427.000,A,3245.2744,N,11708.7866,W,25.36,184.16,280310,,,A*4F
$GPRMC,025430.000,A,3245.2512,N,11708.7874,W,28.52,179.40,280310,,,A*45
$GPRMC,025433.000,A,3245.2271,N,11708.7869,W,27.91,178.90,280310,,,A*44
$GPRMC,025436.000,A,3245.2041,N,11708.7867,W,26.61,180.37,280310,,,A*4A
$GPRMC,025439.000,A,3245.1829,N,11708.7867,W,23.50,180.14,280310,,,A*46
$GPRMC,025442.000,A,3245.1652,N,11708.7867,W,20.02,179.76,280310,,,A*4E
$GPRMC,025445.000,A,3245.1474,N,11708.7865,W,22.85,179.54,280310,,,A*40
$GPRMC,025448.000,A,3245.1273,N,11708.7865,W,25.37,180.26,280310,,,A*41
$GPRMC,025451.000,A,3245.1050,N,11708.7866,W,27.83,179.91,280310,,,A*4E
$GPRMC,025454.000,A,3245.0812,N,11708.7865,W,28.98,179.95,280310,,,A*46
$GPRMC,025457.000,A,3245.0581,N,11708.7867,W,24.74,180.41,280310,,,A*41
$GPRMC,025500.000,A,3245.0407,N,11708.7861,W,16.51,178.07,280310,,,A*48
$GPRMC,025503.000,A,3245.0319,N,11708.7862,W,5.33,181.75,280310,,,A*75
$GPRMC,025509.000,A,3245.0236,N,11708.7868,W,12.25,178.11,280310,,,A*4C
$GPRMC,025512.000,A,3245.0090,N,11708.7868,W,19.89,178.67,280310,,,A*44
$GPRMC,025515.000,A,3244.9912,N,11708.7859,W,22.07,178.69,280310,,,A*4A
$GPRMC,025518.000,A,3244.9730,N,11708.7849,W,22.03,179.05,280310,,,A*47
$GPRMC,025521.000,A,3244.9556,N,11708.7850,W,20.27,180.01,280310,,,A*41
$GPRMC,025524.000,A,3244.9401,N,11708.7846,W,16.55,180.46,280310,,,A*43
$GPRMC,025527.000,A,3244.9285,N,11708.7852,W,11.00,184.49,280310,,,A*43
$GPRMC,025530.000,A,3244.9211,N,11708.7869,W,6.39,186.03,280310,,,A*70
$GPRMC,025545.000,A,3244.9101,N,11708.7913,W,5.09,208.92,280310,,,A*71
$GPRMC,025548.000,A,3244.9067,N,11708.7991,W,11.47,259.10,280310,,,A*46
$GPRMC,025551.000,A,3244.9078,N,11708.8155,W,19.49,271.01,280310,,,A*43
$GPRMC,025554.000,A,3244.9073,N,11708.8371,W,22.43,266.44,280310,,,A*4C
$GPRMC,025557.000,A,3244.9070,N,11708.8604,W,23.38,269.50,280310,,,A*4C
$GPRMC,025600.000,A,3244.9073,N,11708.8844,W,23.95,270.16,280310,,,A*49
$GPRMC,025603.000,A,3244.9073,N,11708.9094,W,25.13,269.03,280310,,,A*4A
$GPRMC,025606.000,A,3244.9073,N,11708.9336,W,23.30,270.39,280310,,,A*42
$GPRMC,025609.000,A,3244.9074,N,11708.9575,W,23.65,272.21,280310,,,A*40
$GPRMC,025612.000,A,3244.9088,N,11708.9812,W,22.29,278.79,280310,,,A*4B
$GPRMC,025615.000,A,3244.9125,N,11709.0037,W,23.92,279.26,280310,,,A*47
$GPRMC,025618.000,A,3244.9150,N,11709.0278,W,24.86,273.88,280310,,,A*4D
$GPRMC,025621.000,A,3244.9152,N,11709.0526,W,24.86,270.30,280310,,,A*49
$GPRMC,025624.000,A,3244.9152,N,11709.0769,W,24.01,270.71,280310,,,A*4F
$GPRMC,025627.000,A,3244.9152,N,11709.1005,W,23.74,269.69,280310,,,A*44
$GPRMC,025630.000,A,3244.9150,N,11709.1246,W,24.31,269.75,280310,,,A*4E
$GPRMC,025633.000,A,3244.9149,N,11709.1482,W,22.52,269.53,280310,,,A*4C
$GPRMC,025636.000,A,3244.9151,N,11709.1704,W,22.42,270.63,280310,,,A*47
$GPRMC,025639.000,A,3244.9146,N,11709.1921,W,19.49,267.16,280310,,,A*40
$GPRMC,025642.000,A,3244.9136,N,11709.2025,W,5.01,253.00,280310,,,A*74
$GPRMC,025724.000,A,3244.9141,N,11709.2035,W,10.65,269.37,280310,,,A*4F
$GPRMC,025727.000,A,3244.9137,N,11709.2193,W,18.37,267.88,280310,,,A*45
$GPRMC,025730.000,A,3244.9131,N,11709.2402,W,22.07,267.57,280310,,,A*40
$GPRMC,025733.000,A,3244.9115,N,11709.2642,W,22.94,267.27,280310,,,A*4E
$GPRMC,025736.000,A,3244.9104,N,11709.2872,W,22.05,267.05,280310,,,A*4E
$GPRMC,025739.000,A,3244.9094,N,11709.3086,W,21.64,267.01,280310,,,A*4B
$GPRMC,025742.000,A,3244.9081,N,11709.3296,W,20.80,264.12,280310,,,A*4A
$GPRMC,025745.000,A,3244.9066,N,11709.3504,W,20.25,267.10,280310,,,A*46
$GPRMC,025748.000,A,3244.9055,N,11709.3701,W,19.40,269.00,280310,,,A*4A
$GPRMC,025751.000,A,3244.9049,N,11709.3888,W,17.97,267.93,280310,,,A*41
$GPRMC,025754.000,A,3244.9050,N,11709.4028,W,12.14,269.60,280310,,,A*45
$GPRMC,025757.000,A,3244.9054,N,11709.4140,W,11.36,274.74,280310,,,A*47
$GPRMC,025800.000,A,3244.9059,N,11709.4263,W,13.45,271.78,280310,,,A*4A
$GPRMC,025803.000,A,3244.9059,N,11709.4409,W,15.86,270.17,280310,,,A*42
$GPRMC,025806.000,A,3244.9053,N,11709.4571,W,15.98,268.79,280310,,,A*4D
$GPRMC,025809.000,A,3244.9052,N,11709.4730,W,16.03,270.65,280310,,,A*41
$GPRMC,025812.000,A,3244.9049,N,11709.4856,W,9.63,269.46,280310,,,A*7F
$GPRMC,025815.000,A,3244.9051,N,11709.4929,W,7.04,272.68,280310,,,A*71
$GPRMC,025818.000,A,3244.9060,N,11709.5017,W,10.96,276.30,280310,,,A*4F
$GPRMC,025821.000,A,3244.9053,N,11709.5165,W,16.18,267.63,280310,,,A*47
$GPRMC,025824.000,A,3244.9045,N,11709.5323,W,15.27,267.80,280310,,,A*47
$GPRMC,025827.000,A,3244.9039,N,11709.5462,W,10.60,269.46,280310,,,A*4F
$GPRMC,025857.000,A,3244.9058,N,11709.5597,W,5.67,282.91,280310,,,A*78
$GPRMC,025900.000,A,3244.9060,N,11709.5720,W,15.33,271.53,280310,,,A*4C
$GPRMC,025903.000,A,3244.9053,N,11709.5876,W,14.12,268.95,280310,,,A*43
$GPRMC,025906.000,A,3244.9051,N,11709.5998,W,10.57,268.50,280310,,,A*49
$GPRMC,025909.000,A,3244.9044,N,11709.6076,W,5.53,268.67,280310,,,A*7C
$GPRMC,025936.000,A,3244.9048,N,11709.6143,W,7.84,259.64,280310,,,A*72
$GPRMC,025939.000,A,3244.9020,N,11709.6234,W,10.57,257.84,280310,,,A*48
$GPRMC,025942.000,A,3244.9010,N,11709.6341,W,8.69,255.81,280310,,,A*77
$GPRMC,025945.000,A,3244.9001,N,11709.6393,W,5.19,262.93,280310,,,A*72
$GPRMC,025948.000,A,3244.9012,N,11709.6447,W,6.05,280.57,280310,,,A*79
$GPRMC,025951.000,A,3244.9029,N,11709.6514,W,6.72,279.03,280310,,,A*79
$GPRMC,025954.000,A,3244.9030,N,11709.6586,W,6.41,270.82,280310,,,A*7F
$GPRMC,025957.000,A,3244.9033,N,11709.6657,W,6.81,274.26,280310,,,A*76
$GPRMC,030000.000,A,3244.9049,N,11709.6741,W,8.24,281.13,280310,,,A*7F
$GPRMC,030012.000,A,3244.9001,N,11709.6914,W,5.03,264.91,280310,,,A*77
$GPRMC,030015.000,A,3244.8970,N,11709.6973,W,7.40,209.35,280310,,,A*7F
$GPRMC,030018.000,A,3244.8872,N,11709.6979,W,10.70,175.55,280310,,,A*40
$GPRMC,030021.000,A,3244.8743,N,11709.6965,W,15.74,176.63,280310,,,A*4D
$GPRMC,030024.000,A,3244.8585,N,11709.6975,W,15.77,180.54,280310,,,A*4F
$GPRMC,030027.000,A,3244.8443,N,11709.6975,W,16.37,181.15,280310,,,A*44
$GPRMC,030030.000,A,3244.8338,N,11709.6979,W,8.57,183.62,280310,,,A*7E
$GPRMC,030033.000,A,3244.8289,N,11709.6980,W,4.37,176.86,280310,,,A*7A
$GPRMC,030054.000,A,3244.8178,N,11709.6973,W,11.40,177.87,280310,,,A*4E
$GPRMC,030057.000,A,3244.8056,N,11709.6971,W,15.82,179.17,280310,,,A*4F
$GPRMC,030100.000,A,3244.7924,N,11709.6970,W,14.73,179.06,280310,,,A*41
$GPRMC,030103.000,A,3244.7801,N,11709.6967,W,14.33,178.61,280310,,,A*46
$GPRMC,030106.000,A,3244.7670,N,11709.6964,W,16.72,179.97,280310,,,A*47
$GPRMC,030109.000,A,3244.7518,N,11709.6961,W,18.26,178.72,280310,,,A*45
$GPRMC,030112.000,A,3244.7375,N,11709.6959,W,14.80,178.12,280310,,,A*4F
$GPRMC,030115.000,A,3244.7275,N,11709.6960,W,9.62,180.19,280310,,,A*7F
$GPRMC,030118.000,A,3244.7215,N,11709.6960,W,5.30,176.73,280310,,,A*7A
$GPRMC,030130.000,A,3244.7107,N,11709.6962,W,7.77,176.41,280310,,,A*72
$GPRMC,030133.000,A,3244.6993,N,11709.6960,W,16.56,178.79,280310,,,A*41
$GPRMC,030136.000,A,3244.6833,N,11709.6957,W,20.48,178.24,280310,,,A*49
$GPRMC,030139.000,A,3244.6648,N,11709.6952,W,22.91,179.18,280310,,,A*49
$GPRMC,030142.000,A,3244.6452,N,11709.6950,W,23.91,179.48,280310,,,A*4A
$GPRMC,030145.000,A,3244.6240,N,11709.6957,W,24.46,179.62,280310,,,A*4A
$GPRMC,030148.000,A,3244.6035,N,11709.6955,W,24.28,179.70,280310,,,A*4E
$GPRMC,030151.000,A,3244.5828,N,11709.6955,W,24.73,180.04,280310,,,A*4A
$GPRMC,030154.000,A,3244.5618,N,11709.6954,W,24.68,178.99,280310,,,A*4A
$GPRMC,030157.000,A,3244.5414,N,11709.6952,W,23.81,179.83,280310,,,A*4B
$GPRMC,030200.000,A,3244.5220,N,11709.6954,W,22.08,181.12,280310,,,A*42
$GPRMC,030203.000,A,3244.5052,N,11709.6953,W,15.11,176.58,280310,,,A*4B
$GPRMC,030206.000,A,3244.4955,N,11709.6929,W,9.64,168.52,280310,,,A*76
$GPRMC,030221.000,A,3244.4856,N,11709.6849,W,12.10,155.19,280310,,,A*4E
$GPRMC,030224.000,A,3244.4738,N,11709.6802,W,15.27,169.90,280310,,,A*4E
$GPRMC,030227.000,A,3244.4605,N,11709.6797,W,15.12,181.98,280310,,,A*49
$GPRMC,030230.000,A,3244.4511,N,11709.6822,W,9.25,202.52,280310,,,A*7F
$GPRMC,030233.000,A,3244.4482,N,11709.6885,W,6.66,263.23,280310,,,A*73
$GPRMC,030236.000,A,3244.4490,N,11709.6990,W,12.79,271.34,280310,,,A*4E
$GPRMC,030239.000,A,3244.4501,N,11709.7139,W,14.81,271.63,280310,,,A*41
$GPRMC,030242.000,A,3244.4500,N,11709.7297,W,16.03,270.07,280310,,,A*40
$GPRMC,030245.000,A,3244.4499,N,11709.7475,W,18.75,267.96,280310,,,A*4D
$GPRMC,030248.000,A,3244.4496,N,11709.7666,W,18.74,270.81,280310,,,A*4E
$GPRMC,030251.000,A,3244.4500,N,11709.7839,W,15.63,272.09,280310,,,A*45
$GPRMC,030254.000,A,3244.4504,N,11709.7992,W,15.44,270.36,280310,,,A*4F
$GPRMC,030257.000,A,3244.4502,N,11709.8149,W,15.39,269.32,280310,,,A*4D
$GPRMC,030300.000,A,3244.4501,N,11709.8289,W,11.97,269.12,280310,,,A*40
$GPRMC,030306.000,A,3244.4502,N,11709.8362,W,4.69,273.41,280310,,,A*79
$GPRMC,030309.000,A,3244.4500,N,11709.8451,W,10.87,269.74,280310,,,A*4B
$GPRMC,030312.000,A,3244.4497,N,11709.8572,W,12.88,269.31,280310,,,A*42
$GPRMC,030315.000,A,3244.4496,N,11709.8710,W,14.64,269.69,280310,,,A*4B
$GPRMC,030318.000,A,3244.4494,N,11709.8832,W,9.34,269.25,280310,,,A*7A
$GPRMC,030321.000,A,3244.4494,N,11709.8908,W,6.64,280.91,280310,,,A*7A
$GPRMC,030324.000,A,3244.4523,N,11709.8946,W,5.33,333.42,280310,,,A*7E
$GPRMC,030327.000,A,3244.4599,N,11709.8948,W,10.20,0.44,280310,,,A*41
$GPRMC,030330.000,A,3244.4706,N,11709.8944,W,12.37,359.90,280310,,,A*4D
$GPRMC,030333.000,A,3244.4800,N,11709.8943,W,9.35,4.08,280310,,,A*72
$GPRMC,030339.000,A,3244.4852,N,11709.8949,W,5.30,350.77,280310,,,A*76
$GPRMC,030342.000,A,3244.4907,N,11709.9005,W,10.87,297.79,280310,,,A*47
$GPRMC,030345.000,A,3244.4904,N,11709.9127,W,13.50,268.07,280310,,,A*42
$GPRMC,030348.000,A,3244.4893,N,11709.9281,W,15.02,270.22,280310,,,A*40
$GPRMC,030351.000,A,3244.4884,N,11709.9420,W,11.24,270.34,280310,,,A*44
$GPRMC,030354.000,A,3244.4872,N,11709.9505,W,7.57,239.82,280310,,,A*7D
$GPRMC,030357.000,A,3244.4809,N,11709.9541,W,9.69,185.66,280310,,,A*7F
$GPRMC,030400.000,A,3244.4715,N,11709.9537,W,11.56,178.66,280310,,,A*4E
$GPRMC,030403.000,A,3244.4612,N,11709.9536,W,10.91,179.41,280310,,,A*44
$GPRMC,030406.000,A,3244.4526,N,11709.9552,W,9.58,199.05,280310,,,A*74
$GPRMC,030409.000,A,3244.4477,N,11709.9636,W,11.58,259.14,280310,,,A*49
$GPRMC,030412.000,A,3244.4481,N,11709.9780,W,14.54,271.60,280310,,,A*46
$GPRMC,030415.000,A,3244.4484,N,11709.9929,W,14.30,270.10,280310,,,A*4D
$GPRMC,030418.000,A,3244.4472,N,11710.0056,W,10.87,247.75,280310,,,A*46
$GPRMC,030421.000,A,3244.4407,N,11710.0110,W,9.29,185.65,280310,,,A*7D
$GPRMC,030424.000,A,3244.4303,N,11710.0102,W,12.93,179.58,280310,,,A*4E
$GPRMC,030427.000,A,3244.4172,N,11710.0109,W,15.60,180.12,280310,,,A*41
$GPRMC,030430.000,A,3244.4038,N,11710.0109,W,15.23,179.67,280310,,,A*4B
$GPRMC,030433.000,A,3244.3936,N,11710.0102,W,8.14,179.42,280310,,,A*7C
$GPRMC,030439.000,A,3244.3869,N,11710.0121,W,7.05,225.20,280310,,,A*7D
$GPRMC,030442.000,A,3244.3847,N,11710.0253,W,15.96,270.68,280310,,,A*4E
$GPRMC,030445.000,A,3244.3843,N,11710.0435,W,16.00,270.12,280310,,,A*4A
$GPRMC,030448.000,A,3244.3852,N,11710.0560,W,10.19,261.44,280310,,,A*4B
$GPRMC,030451.000,A,3244.3808,N,11710.0634,W,7.94,203.89,280310,,,A*78
$GPRMC,030454.000,A,3244.3737,N,11710.0639,W,8.03,171.54,280310,,,A*74
$GPRMC,030457.000,A,3244.3658,N,11710.0631,W,11.49,173.91,280310,,,A*4A
$GPRMC,030500.000,A,3244.3540,N,11710.0626,W,14.95,178.58,280310,,,A*4F
$GPRMC,030503.000,A,3244.3408,N,11710.0622,W,15.83,178.52,280310,,,A*49
$GPRMC,030506.000,A,3244.3291,N,11710.0619,W,9.58,177.95,280310,,,A*7D
$GPRMC,030509.000,A,3244.3238,N,11710.0627,W,4.63,203.39,280310,,,A*7F
$GPRMC,030512.000,A,3244.3214,N,11710.0666,W,5.97,259.58,280310,,,A*7C
$GPRMC,030515.000,A,3244.3211,N,11710.0738,W,6.60,269.90,280310,,,A*78
$GPRMC,030518.000,A,3244.3213,N,11710.0805,W,5.74,267.05,280310,,,A*72
$GPRMC,030521.000,A,3244.3216,N,11710.0891,W,9.86,280.31,280310,,,A*7F
$GPRMC,030524.000,A,3244.3231,N,11710.1003,W,11.05,269.40,280310,,,A*4E
$GPRMC,030527.000,A,3244.3226,N,11710.1096,W,5.62,277.60,280310,,,A*7E
$GPRMC,030530.000,A,3244.3255,N,11710.1141,W,6.54,326.45,280310,,,A*73
$GPRMC,030533.000,A,3244.3312,N,11710.1151,W,6.41,1.65,280310,,,A*73
$GPRMC,030536.000,A,3244.3358,N,11710.1146,W,6.76,3.75,280310,,,A*79
$GPRMC,030539.000,A,3244.3413,N,11710.1147,W,5.67,7.27,280310,,,A*7F
$GPRMC,030609.000,A,3244.3454,N,11710.1142,W,6.81,160.89,280310,,,A*76
$GPRMC,030612.000,A,3244.3377,N,11710.1130,W,9.13,171.17,280310,,,A*7C
$GPRMC,030615.000,A,3244.3277,N,11710.1130,W,9.59,175.60,280310,,,A*70
$GPRMC,030618.000,A,3244.3193,N,11710.1133,W,8.08,180.81,280310,,,A*77
$GPRMC,030621.000,A,3244.3108,N,11710.1135,W,10.15,179.15,280310,,,A*47
$GPRMC,030624.000,A,3244.3000,N,11710.1133,W,12.92,178.77,280310,,,A*45
$GPRMC,030627.000,A,3244.2883,N,11710.1130,W,14.21,178.82,280310,,,A*43
$GPRMC,030630.000,A,3244.2768,N,11710.1133,W,11.75,180.14,280310,,,A*40
$GPRMC,030633.000,A,3244.2691,N,11710.1130,W,7.73,176.33,280310,,,A*7A
$GPRMC,030636.000,A,3244.2629,N,11710.1162,W,8.03,221.25,280310,,,A*75
$GPRMC,030639.000,A,3244.2613,N,11710.1238,W,7.07,269.83,280310,,,A*74
$GPRMC,030642.000,A,3244.2616,N,11710.1319,W,8.08,273.11,280310,,,A*7F
$GPRMC,030645.000,A,3244.2618,N,11710.1404,W,8.19,267.37,280310,,,A*7C
$GPRMC,030648.000,A,3244.2616,N,11710.1487,W,8.55,271.31,280310,,,A*7D
$GPRMC,030651.000,A,3244.2625,N,11710.1577,W,8.78,286.39,280310,,,A*74
$GPRMC,030654.000,A,3244.2672,N,11710.1636,W,8.19,341.13,280310,,,A*70
$GPRMC,030657.000,A,3244.2757,N,11710.1647,W,11.85,354.86,280310,,,A*46
$GPRMC,030700.000,A,3244.2874,N,11710.1651,W,14.37,358.43,280310,,,A*45
$GPRMC,030703.000,A,3244.3008,N,11710.1649,W,16.28,0.42,280310,,,A*4E
$GPRMC,030706.000,A,3244.3142,N,11710.1647,W,14.02,0.48,280310,,,A*4A
$GPRMC,030709.000,A,3244.3250,N,11710.1640,W,11.58,358.96,280310,,,A*45
$GPRMC,030712.000,A,3244.3358,N,11710.1644,W,14.15,359.08,280310,,,A*48
$GPRMC,030715.000,A,3244.3474,N,11710.1644,W,12.31,0.51,280310,,,A*45
$GPRMC,030718.000,A,3244.3555,N,11710.1646,W,5.63,0.87,280310,,,A*72
$GPRMC,030721.000,A,3244.3572,N,11710.1681,W,7.20,280.90,280310,,,A*7F
$GPRMC,030724.000,A,3244.3489,N,11710.1805,W,16.73,221.17,280310,,,A*4F
$GPRMC,030727.000,A,3244.3328,N,11710.1925,W,20.39,209.58,280310,,,A*49
$GPRMC,030730.000,A,3244.3166,N,11710.2002,W,17.85,191.60,280310,,,A*42
$GPRMC,030733.000,A,3244.3008,N,11710.2007,W,18.80,179.35,280310,,,A*41
$GPRMC,030736.000,A,3244.2847,N,11710.1998,W,18.23,178.72,280310,,,A*41
$GPRMC,030739.000,A,3244.2709,N,11710.1998,W,13.61,178.80,280310,,,A*4B
$GPRMC,030742.000,A,3244.2616,N,11710.2003,W,9.84,186.48,280310,,,A*75
$GPRMC,030745.000,A,3244.2560,N,11710.2059,W,8.34,248.74,280310,,,A*7B
$GPRMC,030748.000,A,3244.2564,N,11710.2143,W,9.27,273.53,280310,,,A*76
$GPRMC,030751.000,A,3244.2598,N,11710.2224,W,8.20,300.71,280310,,,A*7C
$GPRMC,030754.000,A,3244.2674,N,11710.2265,W,10.91,348.84,280310,,,A*48
$GPRMC,030757.000,A,3244.2802,N,11710.2270,W,14.13,357.34,280310,,,A*4B
$GPRMC,030800.000,A,3244.2940,N,11710.2270,W,16.15,359.34,280310,,,A*4B
$GPRMC,030803.000,A,3244.3095,N,11710.2261,W,15.01,1.21,280310,,,A*44
$GPRMC,030806.000,A,3244.3218,N,11710.2261,W,12.93,359.36,280310,,,A*42
$GPRMC,030809.000,A,3244.3327,N,11710.2263,W,12.50,359.33,280310,,,A*48
$GPRMC,030812.000,A,3244.3434,N,11710.2263,W,13.44,0.41,280310,,,A*49
$GPRMC,030815.000,A,3244.3548,N,11710.2261,W,13.53,359.71,280310,,,A*4C
$GPRMC,030818.000,A,3244.3651,N,11710.2259,W,11.48,358.52,280310,,,A*49
$GPRMC,030821.000,A,3244.3741,N,11710.2259,W,9.36,359.73,280310,,,A*71
$GPRMC,030827.000,A,3244.3811,N,11710.2254,W,5.20,356.61,280310,,,A*77
$GPRMC,030830.000,A,3244.3880,N,11710.2245,W,10.38,5.48,280310,,,A*4A
$GPRMC,030833.000,A,3244.3972,N,11710.2255,W,11.29,349.58,280310,,,A*4F
