NMEA Sentence Code,UTC Time,Status,Latitude,Latitude Direction,Longitude,Longitude Direction,Speed (knots),Track Angle (degrees true),Date,MagneticVariation,Magnetic Variation Direction,[FAA Mode]-Optional,Checksum
$GPRMC,194315.2,A,3234.217548,N,11525.403934,W,11.9,163.8,111110,,,A*41
$GPRMC,194318.0,A,3234.203846,N,11525.398038,W,14.7,162.1,111110,,,A*4B
$GPRMC,194321.2,A,3234.188288,N,11525.392490,W,16.7,162.7,111110,,,A*43
$GPRMC,194325.3,A,3234.168318,N,11525.382131,W,17.7,157.6,111110,,,A*49
$GPRMC,194328.3,A,3234.151162,N,11525.373697,W,23.4,155.4,111110,,,A*40
$GPRMC,194331.2,A,3234.126169,N,11525.364919,W,33.8,162.6,111110,,,A*46
$GPRMC,194334.2,A,3234.097914,N,11525.355181,W,35.5,164.6,111110,,,A*4C
$GPRMC,194338.2,A,3234.060005,N,11525.340689,W,34.4,160.9,111110,,,A*41
$GPRMC,194341.0,A,3234.034057,N,11525.331333,W,35.9,161.7,111110,,,A*4A
$GPRMC,194344.0,A,3234.005004,N,11525.320805,W,36.2,161.7,111110,,,A*4D
$GPRMC,194347.9,A,3233.965793,N,11525.305138,W,36.8,160.5,111110,,,A*4F
$GPRMC,194351.2,A,3233.935389,N,11525.294820,W,36.6,162.0,111110,,,A*49
$GPRMC,194354.2,A,3233.904557,N,11525.282841,W,38.2,162.7,111110,,,A*46
$GPRMC,194357.0,A,3233.877124,N,11525.273588,W,39.0,163.3,111110,,,A*42
$GPRMC,194401.3,A,3233.834230,N,11525.257817,W,37.7,164.6,111110,,,A*42
$GPRMC,194404.3,A,3233.806512,N,11525.247680,W,33.9,163.2,111110,,,A*49
$GPRMC,194407.3,A,3233.783606,N,11525.238537,W,27.0,162.1,111110,,,A*47
$GPRMC,194410.3,A,3233.768507,N,11525.233064,W,15.7,163.4,111110,,,A*4C
$GPRMC,194414.2,A,3233.755857,N,11525.227635,W,8.7,160.8,111110,,,A*7B
$GPRMC,194501.9,A,3233.748010,N,11525.223248,W,6.1,152.4,111110,,,A*7D
$GPRMC,194504.2,A,3233.741180,N,11525.222666,W,5.8,167.1,111110,,,A*72
$GPRMC,194507.2,A,3233.720044,N,11525.215005,W,19.8,164.6,111110,,,A*41
$GPRMC,194510.2,A,3233.691444,N,11525.204095,W,30.0,162.1,111110,,,A*43
$GPRMC,194513.3,A,3233.664529,N,11525.193544,W,33.2,163.3,111110,,,A*47
$GPRMC,194516.3,A,3233.637583,N,11525.182750,W,32.9,162.8,111110,,,A*43
$GPRMC,194519.0,A,3233.612013,N,11525.173496,W,35.4,162.0,111110,,,A*41
$GPRMC,194522.3,A,3233.577767,N,11525.162986,W,39.6,164.4,111110,,,A*4E
$GPRMC,194525.3,A,3233.546425,N,11525.150588,W,39.4,162.5,111110,,,A*48
$GPRMC,194528.2,A,3233.513218,N,11525.137565,W,41.6,162.4,111110,,,A*42
$GPRMC,194531.3,A,3233.479606,N,11525.123568,W,41.4,162.0,111110,,,A*43
$GPRMC,194534.9,A,3233.437270,N,11525.107637,W,43.2,162.8,111110,,,A*40
$GPRMC,194537.9,A,3233.402823,N,11525.095148,W,44.4,162.8,111110,,,A*4D
$GPRMC,194540.9,A,3233.366292,N,11525.080042,W,45.4,162.2,111110,,,A*4C
$GPRMC,194543.3,A,3233.339590,N,11525.069567,W,44.3,162.9,111110,,,A*42
$GPRMC,194546.3,A,3233.304583,N,11525.056159,W,44.5,161.8,111110,,,A*4A
$GPRMC,194549.3,A,3233.267853,N,11525.042764,W,45.2,162.6,111110,,,A*47
$GPRMC,194552.9,A,3233.222020,N,11525.027469,W,45.8,162.3,111110,,,A*48
$GPRMC,194555.9,A,3233.185979,N,11525.013154,W,46.9,162.2,111110,,,A*4B
$GPRMC,194558.3,A,3233.155639,N,11525.001306,W,48.5,161.9,111110,,,A*46
$GPRMC,194601.3,A,3233.117926,N,11524.987230,W,47.3,162.7,111110,,,A*48
$GPRMC,194604.3,A,3233.080606,N,11524.971498,W,47.3,161.6,111110,,,A*40
$GPRMC,194607.3,A,3233.042922,N,11524.957190,W,47.0,161.3,111110,,,A*4B
$GPRMC,194610.3,A,3233.005592,N,11524.941880,W,48.1,161.0,111110,,,A*4B
$GPRMC,194613.3,A,3232.966545,N,11524.926877,W,49.6,161.8,111110,,,A*48
$GPRMC,194616.3,A,3232.927112,N,11524.912081,W,50.0,161.9,111110,,,A*47
$GPRMC,194619.3,A,3232.886315,N,11524.896200,W,51.0,162.4,111110,,,A*4E
$GPRMC,194622.3,A,3232.846177,N,11524.881589,W,50.8,162.1,111110,,,A*40
$GPRMC,194625.3,A,3232.806129,N,11524.866317,W,50.1,162.1,111110,,,A*49
$GPRMC,194628.3,A,3232.767069,N,11524.851713,W,49.4,162.4,111110,,,A*45
$GPRMC,194631.3,A,3232.727374,N,11524.836245,W,50.1,162.1,111110,,,A*49
$GPRMC,194634.3,A,3232.687767,N,11524.820943,W,50.2,162.0,111110,,,A*49
$GPRMC,194637.3,A,3232.648534,N,11524.804575,W,49.9,161.1,111110,,,A*43
$GPRMC,194640.3,A,3232.607788,N,11524.789948,W,49.8,162.4,111110,,,A*42
$GPRMC,194643.3,A,3232.568000,N,11524.775886,W,50.0,163.1,111110,,,A*48
$GPRMC,194646.3,A,3232.529004,N,11524.761919,W,49.2,162.1,111110,,,A*45
$GPRMC,194649.3,A,3232.488371,N,11524.747722,W,50.4,162.4,111110,,,A*48
$GPRMC,194652.3,A,3232.448150,N,11524.732841,W,50.8,162.2,111110,,,A*4D
$GPRMC,194655.3,A,3232.408409,N,11524.717449,W,50.2,161.9,111110,,,A*46
$GPRMC,194658.3,A,3232.367993,N,11524.701616,W,50.5,162.4,111110,,,A*4D
$GPRMC,194701.3,A,3232.328566,N,11524.687425,W,50.2,162.1,111110,,,A*42
$GPRMC,194704.3,A,3232.287759,N,11524.673668,W,50.4,162.6,111110,,,A*4C
$GPRMC,194707.3,A,3232.247659,N,11524.657939,W,50.7,161.9,111110,,,A*40
$GPRMC,194710.3,A,3232.205917,N,11524.642066,W,51.3,162.2,111110,,,A*4F
$GPRMC,194713.3,A,3232.165102,N,11524.625323,W,51.6,162.4,111110,,,A*45
$GPRMC,194716.3,A,3232.124732,N,11524.609884,W,50.9,161.6,111110,,,A*47
$GPRMC,194719.3,A,3232.084593,N,11524.594489,W,50.5,161.8,111110,,,A*4E
$GPRMC,194722.3,A,3232.044486,N,11524.579555,W,51.1,162.7,111110,,,A*45
$GPRMC,194725.3,A,3232.002969,N,11524.563117,W,51.5,161.5,111110,,,A*40
$GPRMC,194728.3,A,3231.961550,N,11524.548081,W,51.7,162.3,111110,,,A*44
$GPRMC,194731.3,A,3231.921258,N,11524.533171,W,50.8,162.5,111110,,,A*4D
$GPRMC,194734.3,A,3231.881848,N,11524.517851,W,50.5,162.4,111110,,,A*49
$GPRMC,194737.3,A,3231.842617,N,11524.503152,W,50.0,162.2,111110,,,A*4D
$GPRMC,194740.3,A,3231.801732,N,11524.488553,W,50.9,162.7,111110,,,A*47
$GPRMC,194743.3,A,3231.760387,N,11524.473515,W,51.1,162.3,111110,,,A*4D
$GPRMC,194746.3,A,3231.720984,N,11524.458268,W,50.1,161.8,111110,,,A*48
$GPRMC,194749.3,A,3231.680230,N,11524.443699,W,50.8,162.5,111110,,,A*4F
$GPRMC,194752.3,A,3231.640286,N,11524.429782,W,50.2,162.7,111110,,,A*4B
$GPRMC,194755.3,A,3231.600168,N,11524.415033,W,50.2,162.1,111110,,,A*4F
$GPRMC,194758.3,A,3231.560349,N,11524.400157,W,50.4,162.1,111110,,,A*47
$GPRMC,194801.3,A,3231.519537,N,11524.385003,W,50.8,162.2,111110,,,A*40
$GPRMC,194804.3,A,3231.479840,N,11524.370500,W,50.2,162.9,111110,,,A*42
$GPRMC,194807.3,A,3231.439597,N,11524.355676,W,50.1,162.1,111110,,,A*4C
$GPRMC,194810.3,A,3231.399994,N,11524.339817,W,49.5,161.8,111110,,,A*4D
$GPRMC,194813.3,A,3231.362142,N,11524.324615,W,48.6,162.2,111110,,,A*42
$GPRMC,194816.3,A,3231.323972,N,11524.310798,W,48.2,162.8,111110,,,A*44
$GPRMC,194819.3,A,3231.285543,N,11524.295613,W,48.2,162.4,111110,,,A*4A
$GPRMC,194822.3,A,3231.246112,N,11524.280563,W,49.5,162.3,111110,,,A*4C
$GPRMC,194825.3,A,3231.207003,N,11524.266013,W,49.6,162.5,111110,,,A*40
$GPRMC,194828.3,A,3231.167206,N,11524.251378,W,50.2,162.2,111110,,,A*4E
$GPRMC,194831.3,A,3231.127375,N,11524.237084,W,49.7,164.2,111110,,,A*4C
$GPRMC,194834.3,A,3231.085321,N,11524.221935,W,52.0,163.0,111110,,,A*4D
$GPRMC,194837.3,A,3231.044757,N,11524.206205,W,51.5,162.0,111110,,,A*4C
$GPRMC,194840.3,A,3231.003107,N,11524.190816,W,51.9,162.6,111110,,,A*42
$GPRMC,194843.3,A,3230.961588,N,11524.174790,W,52.1,162.3,111110,,,A*4B
$GPRMC,194846.3,A,3230.920590,N,11524.159069,W,52.3,161.8,111110,,,A*46
$GPRMC,194849.3,A,3230.879386,N,11524.142386,W,51.6,159.2,111110,,,A*4A
$GPRMC,194852.3,A,3230.841898,N,11524.128403,W,46.4,162.0,111110,,,A*47
$GPRMC,194855.3,A,3230.807787,N,11524.114829,W,42.9,161.3,111110,,,A*41
$GPRMC,194858.3,A,3230.773372,N,11524.101934,W,44.3,162.6,111110,,,A*4D
$GPRMC,194901.3,A,3230.737808,N,11524.088186,W,45.2,162.6,111110,,,A*47
$GPRMC,194904.3,A,3230.699421,N,11524.074779,W,46.9,162.4,111110,,,A*4F
$GPRMC,194907.3,A,3230.663311,N,11524.060070,W,46.6,161.9,111110,,,A*47
$GPRMC,194910.3,A,3230.626425,N,11524.046892,W,45.4,161.9,111110,,,A*41
$GPRMC,194913.3,A,3230.590372,N,11524.034779,W,45.1,163.2,111110,,,A*4A
$GPRMC,194916.3,A,3230.555122,N,11524.020621,W,45.0,161.7,111110,,,A*4E
$GPRMC,194919.3,A,3230.519105,N,11524.007697,W,44.8,162.6,111110,,,A*4F
$GPRMC,194922.3,A,3230.483433,N,11523.994229,W,45.6,162.2,111110,,,A*4B
$GPRMC,194925.3,A,3230.446264,N,11523.979062,W,47.5,161.9,111110,,,A*46
$GPRMC,194928.3,A,3230.407435,N,11523.964340,W,47.8,162.4,111110,,,A*40
$GPRMC,194931.3,A,3230.368826,N,11523.949083,W,47.3,161.7,111110,,,A*40
$GPRMC,194934.3,A,3230.331118,N,11523.934255,W,47.8,162.7,111110,,,A*46
$GPRMC,194937.3,A,3230.293770,N,11523.918687,W,47.3,162.3,111110,,,A*4E
$GPRMC,194940.3,A,3230.255251,N,11523.904959,W,47.9,163.0,111110,,,A*4B
$GPRMC,194943.3,A,3230.218879,N,11523.890513,W,46.8,159.2,111110,,,A*44
$GPRMC,194946.3,A,3230.180881,N,11523.877119,W,48.0,162.6,111110,,,A*49
$GPRMC,194949.3,A,3230.142967,N,11523.862458,W,48.2,162.1,111110,,,A*40
$GPRMC,194952.3,A,3230.103493,N,11523.848170,W,49.1,161.3,111110,,,A*4D
$GPRMC,194955.3,A,3230.064558,N,11523.833236,W,49.3,161.3,111110,,,A*43
$GPRMC,194958.3,A,3230.025436,N,11523.820228,W,49.6,163.4,111110,,,A*4F
$GPRMC,195001.3,A,3229.986205,N,11523.804789,W,49.2,162.3,111110,,,A*4F
$GPRMC,195004.3,A,3229.947081,N,11523.788389,W,49.3,162.6,111110,,,A*42
$GPRMC,195007.3,A,3229.907924,N,11523.773832,W,49.1,162.5,111110,,,A*4D
$GPRMC,195010.3,A,3229.867698,N,11523.759522,W,49.5,162.5,111110,,,A*44
$GPRMC,195013.3,A,3229.828317,N,11523.744923,W,50.2,162.2,111110,,,A*47
$GPRMC,195016.3,A,3229.789217,N,11523.730820,W,50.3,162.4,111110,,,A*41
$GPRMC,195019.3,A,3229.748629,N,11523.715708,W,50.4,163.7,111110,,,A*4D
$GPRMC,195022.3,A,3229.706693,N,11523.699250,W,52.6,162.4,111110,,,A*41
$GPRMC,195025.3,A,3229.665156,N,11523.683811,W,51.8,161.3,111110,,,A*41
$GPRMC,195028.3,A,3229.624073,N,11523.668687,W,52.0,161.9,111110,,,A*4A
$GPRMC,195031.3,A,3229.582382,N,11523.652981,W,52.3,161.8,111110,,,A*42
$GPRMC,195034.3,A,3229.541033,N,11523.637230,W,52.7,161.8,111110,,,A*47
$GPRMC,195037.3,A,3229.498626,N,11523.622298,W,52.3,162.9,111110,,,A*43
$GPRMC,195040.3,A,3229.457014,N,11523.606225,W,52.4,162.2,111110,,,A*4B
$GPRMC,195043.3,A,3229.415988,N,11523.591789,W,51.5,162.9,111110,,,A*45
$GPRMC,195046.3,A,3229.373219,N,11523.576069,W,52.2,162.3,111110,,,A*4A
$GPRMC,195049.3,A,3229.331819,N,11523.560358,W,51.3,162.4,111110,,,A*4A
$GPRMC,195052.3,A,3229.290668,N,11523.544028,W,53.3,162.3,111110,,,A*45
$GPRMC,195055.3,A,3229.249552,N,11523.527749,W,53.9,162.3,111110,,,A*43
$GPRMC,195058.3,A,3229.206175,N,11523.512309,W,54.0,162.2,111110,,,A*4D
$GPRMC,195101.9,A,3229.153674,N,11523.491006,W,54.6,162.7,111110,,,A*4A
$GPRMC,195104.2,A,3229.118102,N,11523.478371,W,56.7,163.6,111110,,,A*4A
$GPRMC,195107.2,A,3229.072741,N,11523.460256,W,56.7,162.4,111110,,,A*4B
$GPRMC,195110.2,A,3229.028213,N,11523.441582,W,56.3,162.1,111110,,,A*4C
$GPRMC,195113.2,A,3228.983413,N,11523.425869,W,55.5,162.4,111110,,,A*4A
$GPRMC,195116.2,A,3228.938960,N,11523.409708,W,55.8,162.4,111110,,,A*4D
$GPRMC,195119.2,A,3228.893660,N,11523.393593,W,55.9,162.2,111110,,,A*4E
$GPRMC,195122.2,A,3228.848286,N,11523.375387,W,56.9,161.9,111110,,,A*4C
$GPRMC,195125.2,A,3228.803111,N,11523.359257,W,57.5,162.1,111110,,,A*4D
$GPRMC,195128.2,A,3228.757315,N,11523.341571,W,57.4,161.8,111110,,,A*49
$GPRMC,195131.2,A,3228.712383,N,11523.323469,W,56.7,161.7,111110,,,A*4E
$GPRMC,195134.2,A,3228.666626,N,11523.306880,W,57.0,162.4,111110,,,A*49
$GPRMC,195137.2,A,3228.620857,N,11523.290420,W,56.3,162.6,111110,,,A*48
$GPRMC,195140.2,A,3228.576262,N,11523.273658,W,56.9,162.7,111110,,,A*4F
$GPRMC,195143.2,A,3228.529869,N,11523.257136,W,57.6,162.0,111110,,,A*47
$GPRMC,195146.2,A,3228.484398,N,11523.239346,W,58.0,162.4,111110,,,A*41
$GPRMC,195149.2,A,3228.438875,N,11523.221989,W,58.4,162.1,111110,,,A*40
$GPRMC,195152.2,A,3228.393472,N,11523.205411,W,58.2,162.3,111110,,,A*49
$GPRMC,195155.2,A,3228.347351,N,11523.188418,W,57.8,162.6,111110,,,A*4E
$GPRMC,195158.2,A,3228.301734,N,11523.171263,W,57.2,162.2,111110,,,A*44
$GPRMC,195201.2,A,3228.256103,N,11523.153643,W,58.1,161.7,111110,,,A*46
$GPRMC,195204.2,A,3228.212390,N,11523.136268,W,56.6,161.5,111110,,,A*4E
$GPRMC,195207.2,A,3228.167545,N,11523.121201,W,55.7,162.4,111110,,,A*4B
$GPRMC,195210.2,A,3228.122719,N,11523.104585,W,56.1,162.5,111110,,,A*4F
$GPRMC,195213.2,A,3228.077846,N,11523.087207,W,56.7,162.5,111110,,,A*49
$GPRMC,195216.2,A,3228.033258,N,11523.070662,W,56.3,162.4,111110,,,A*43
$GPRMC,195219.2,A,3227.988145,N,11523.054090,W,56.2,162.4,111110,,,A*49
$GPRMC,195222.2,A,3227.942147,N,11523.036559,W,58.0,162.1,111110,,,A*48
$GPRMC,195225.2,A,3227.896631,N,11523.018744,W,57.8,162.1,111110,,,A*44
$GPRMC,195228.2,A,3227.850930,N,11523.001849,W,57.5,161.8,111110,,,A*40
$GPRMC,195231.2,A,3227.805176,N,11522.984020,W,57.3,162.7,111110,,,A*4A
$GPRMC,195234.2,A,3227.759697,N,11522.967692,W,57.0,162.4,111110,,,A*43
$GPRMC,195237.2,A,3227.713521,N,11522.950963,W,57.9,162.4,111110,,,A*4C
$GPRMC,195240.2,A,3227.667151,N,11522.934082,W,58.1,163.2,111110,,,A*49
$GPRMC,195243.2,A,3227.621337,N,11522.916684,W,57.4,163.2,111110,,,A*40
$GPRMC,195246.2,A,3227.575144,N,11522.900620,W,57.4,162.6,111110,,,A*4D
$GPRMC,195249.2,A,3227.530505,N,11522.884013,W,57.0,162.8,111110,,,A*43
$GPRMC,195252.2,A,3227.484187,N,11522.867370,W,57.0,162.4,111110,,,A*4E
$GPRMC,195255.2,A,3227.439331,N,11522.850623,W,56.1,162.4,111110,,,A*47
$GPRMC,195258.2,A,3227.396019,N,11522.834427,W,55.7,162.4,111110,,,A*40
$GPRMC,195301.2,A,3227.351089,N,11522.817211,W,56.7,162.3,111110,,,A*49
$GPRMC,195304.2,A,3227.308221,N,11522.799259,W,54.3,159.5,111110,,,A*4D
$GPRMC,195307.2,A,3227.265026,N,11522.783062,W,54.6,162.2,111110,,,A*4A
$GPRMC,195310.2,A,3227.221705,N,11522.767410,W,55.4,162.4,111110,,,A*44
$GPRMC,195313.2,A,3227.176986,N,11522.751288,W,55.6,162.1,111110,,,A*46
$GPRMC,195316.2,A,3227.133242,N,11522.734685,W,54.8,162.3,111110,,,A*46
$GPRMC,195319.2,A,3227.089451,N,11522.718756,W,54.8,162.1,111110,,,A*4E
$GPRMC,195322.2,A,3227.044876,N,11522.701115,W,55.1,162.5,111110,,,A*4B
$GPRMC,195325.2,A,3227.000084,N,11522.684152,W,54.7,162.7,111110,,,A*43
$GPRMC,195328.2,A,3226.958131,N,11522.668703,W,52.7,162.4,111110,,,A*41
$GPRMC,195331.2,A,3226.916993,N,11522.652224,W,52.8,162.0,111110,,,A*41
$GPRMC,195334.2,A,3226.873843,N,11522.637336,W,53.1,162.4,111110,,,A*47
$GPRMC,195337.2,A,3226.832568,N,11522.621858,W,51.6,162.3,111110,,,A*43
$GPRMC,195340.2,A,3226.791417,N,11522.606601,W,50.7,162.6,111110,,,A*4E
$GPRMC,195343.2,A,3226.751428,N,11522.590326,W,51.0,162.2,111110,,,A*43
$GPRMC,195346.2,A,3226.711882,N,11522.574540,W,51.2,162.5,111110,,,A*47
$GPRMC,195349.2,A,3226.670774,N,11522.561223,W,51.5,162.7,111110,,,A*4B
$GPRMC,195352.2,A,3226.629940,N,11522.545476,W,51.5,162.4,111110,,,A*47
$GPRMC,195355.2,A,3226.588523,N,11522.530076,W,52.5,165.1,111110,,,A*46
$GPRMC,195358.2,A,3226.547586,N,11522.513711,W,52.2,162.5,111110,,,A*44
$GPRMC,195401.2,A,3226.506032,N,11522.497259,W,52.3,162.2,111110,,,A*42
$GPRMC,195404.2,A,3226.464686,N,11522.481315,W,51.8,162.6,111110,,,A*49
$GPRMC,195407.2,A,3226.421529,N,11522.464260,W,53.5,162.0,111110,,,A*4C
$GPRMC,195410.2,A,3226.380867,N,11522.448294,W,52.4,162.3,111110,,,A*47
$GPRMC,195413.2,A,3226.338967,N,11522.433344,W,52.8,162.7,111110,,,A*4E
$GPRMC,195416.2,A,3226.295829,N,11522.418205,W,53.9,163.1,111110,,,A*4C
$GPRMC,195419.2,A,3226.253032,N,11522.403262,W,54.5,162.4,111110,,,A*4F
$GPRMC,195422.3,A,3226.209682,N,11522.385151,W,52.9,162.3,111110,,,A*43
$GPRMC,195425.3,A,3226.166144,N,11522.370503,W,54.4,163.0,111110,,,A*43
$GPRMC,195428.3,A,3226.122976,N,11522.353675,W,54.0,162.1,111110,,,A*40
$GPRMC,195431.3,A,3226.080638,N,11522.338225,W,52.5,162.9,111110,,,A*43
$GPRMC,195434.3,A,3226.040421,N,11522.322580,W,50.2,162.0,111110,,,A*4F
$GPRMC,195437.3,A,3226.001360,N,11522.309141,W,48.7,162.2,111110,,,A*45
$GPRMC,195440.3,A,3225.962284,N,11522.294359,W,48.8,162.2,111110,,,A*40
$GPRMC,195443.3,A,3225.923640,N,11522.279333,W,48.3,162.0,111110,,,A*4C
$GPRMC,195446.3,A,3225.886172,N,11522.264908,W,46.7,162.5,111110,,,A*40
$GPRMC,195449.3,A,3225.850972,N,11522.251581,W,44.0,163.1,111110,,,A*47
$GPRMC,195452.3,A,3225.814304,N,11522.240167,W,45.6,162.6,111110,,,A*4B
$GPRMC,195455.3,A,3225.778140,N,11522.226774,W,46.1,163.0,111110,,,A*4C
$GPRMC,195458.3,A,3225.740339,N,11522.212875,W,47.1,162.5,111110,,,A*4A
$GPRMC,195501.3,A,3225.703717,N,11522.198984,W,46.6,163.8,111110,,,A*4C
$GPRMC,195504.3,A,3225.665093,N,11522.183690,W,49.2,162.5,111110,,,A*44
$GPRMC,195507.3,A,3225.626635,N,11522.168530,W,48.0,162.7,111110,,,A*47
$GPRMC,195510.3,A,3225.588156,N,11522.153169,W,49.0,162.2,111110,,,A*40
$GPRMC,195513.3,A,3225.549470,N,11522.139255,W,49.8,162.6,111110,,,A*43
$GPRMC,195516.3,A,3225.509691,N,11522.124468,W,50.6,162.1,111110,,,A*4A
$GPRMC,195519.3,A,3225.468574,N,11522.108272,W,51.9,162.1,111110,,,A*46
$GPRMC,195522.3,A,3225.427416,N,11522.091740,W,53.1,162.1,111110,,,A*4F
$GPRMC,195525.3,A,3225.384959,N,11522.074970,W,54.1,162.1,111110,,,A*41
$GPRMC,195528.3,A,3225.341240,N,11522.058189,W,55.6,161.3,111110,,,A*41
$GPRMC,195531.3,A,3225.297986,N,11522.040797,W,56.2,161.9,111110,,,A*4F
$GPRMC,195534.3,A,3225.252346,N,11522.023823,W,56.6,161.6,111110,,,A*4B
$GPRMC,195537.3,A,3225.205617,N,11522.006176,W,58.7,161.7,111110,,,A*4B
$GPRMC,195540.3,A,3225.157569,N,11521.988321,W,60.1,162.6,111110,,,A*46
$GPRMC,195543.3,A,3225.108323,N,11521.968752,W,61.5,162.0,111110,,,A*4A
$GPRMC,195546.3,A,3225.058778,N,11521.950292,W,62.6,162.5,111110,,,A*46
$GPRMC,195549.3,A,3225.009683,N,11521.931348,W,61.4,161.9,111110,,,A*47
$GPRMC,195552.3,A,3224.960667,N,11521.914861,W,61.5,163.3,111110,,,A*4E
$GPRMC,195555.3,A,3224.911963,N,11521.898931,W,60.6,163.2,111110,,,A*46
$GPRMC,195558.3,A,3224.862922,N,11521.880994,W,59.9,162.4,111110,,,A*4F
$GPRMC,195601.3,A,3224.814115,N,11521.863611,W,60.3,162.7,111110,,,A*41
$GPRMC,195604.3,A,3224.765127,N,11521.845112,W,61.3,162.6,111110,,,A*4C
$GPRMC,195607.3,A,3224.717229,N,11521.828056,W,60.7,163.4,111110,,,A*4B
$GPRMC,195610.3,A,3224.669682,N,11521.808555,W,62.7,162.5,111110,,,A*46
$GPRMC,195613.9,A,3224.609423,N,11521.785845,W,63.6,162.0,111110,,,A*43
$GPRMC,195617.2,A,3224.554225,N,11521.763345,W,63.8,160.6,111110,,,A*4E
$GPRMC,195620.2,A,3224.503618,N,11521.743984,W,63.5,161.9,111110,,,A*44
$GPRMC,195623.2,A,3224.454235,N,11521.724082,W,62.8,161.3,111110,,,A*47
$GPRMC,195626.2,A,3224.402729,N,11521.705984,W,62.9,162.2,111110,,,A*46
$GPRMC,195629.2,A,3224.353954,N,11521.686283,W,62.3,161.2,111110,,,A*41
$GPRMC,195632.2,A,3224.305063,N,11521.667125,W,62.1,161.3,111110,,,A*46
$GPRMC,195635.2,A,3224.256131,N,11521.649023,W,61.4,161.8,111110,,,A*46
$GPRMC,195638.2,A,3224.207344,N,11521.629843,W,59.8,161.9,111110,,,A*41
$GPRMC,195641.2,A,3224.159959,N,11521.611956,W,59.6,161.7,111110,,,A*4F
$GPRMC,195644.2,A,3224.111994,N,11521.593528,W,60.1,162.0,111110,,,A*42
$GPRMC,195647.2,A,3224.064112,N,11521.576474,W,59.3,162.3,111110,,,A*4C
$GPRMC,195650.2,A,3224.016742,N,11521.559726,W,59.5,162.1,111110,,,A*41
$GPRMC,195653.2,A,3223.968299,N,11521.542192,W,60.6,161.7,111110,,,A*49
$GPRMC,195656.2,A,3223.919245,N,11521.524330,W,60.3,162.1,111110,,,A*41
$GPRMC,195659.2,A,3223.870736,N,11521.506647,W,59.4,162.1,111110,,,A*49
$GPRMC,195702.2,A,3223.824449,N,11521.488854,W,59.3,162.4,111110,,,A*45
$GPRMC,195705.2,A,3223.775292,N,11521.471350,W,60.3,162.8,111110,,,A*46
$GPRMC,195708.9,A,3223.715271,N,11521.449599,W,59.7,163.7,111110,,,A*43
$GPRMC,195711.9,A,3223.669225,N,11521.431750,W,59.8,162.5,111110,,,A*44
$GPRMC,195714.9,A,3223.621547,N,11521.413773,W,57.0,162.1,111110,,,A*4D
$GPRMC,195717.9,A,3223.575812,N,11521.397648,W,56.7,162.6,111110,,,A*42
$GPRMC,195720.9,A,3223.531517,N,11521.383876,W,57.2,163.3,111110,,,A*48
$GPRMC,195723.9,A,3223.482562,N,11521.361135,W,60.2,160.2,111110,,,A*44
$GPRMC,195726.9,A,3223.438137,N,11521.345706,W,57.2,161.2,111110,,,A*41
$GPRMC,195729.9,A,3223.397036,N,11521.331124,W,54.4,160.7,111110,,,A*48
$GPRMC,195732.9,A,3223.352371,N,11521.309560,W,55.7,156.9,111110,,,A*4D
$GPRMC,195735.9,A,3223.310099,N,11521.283630,W,56.7,152.1,111110,,,A*43
$GPRMC,195739.2,A,3223.264220,N,11521.252672,W,57.3,148.1,111110,,,A*42
$GPRMC,195742.2,A,3223.226090,N,11521.221268,W,55.9,145.6,111110,,,A*48
$GPRMC,195745.2,A,3223.187903,N,11521.191673,W,55.8,145.5,111110,,,A*40
$GPRMC,195749.3,A,3223.138658,N,11521.149020,W,55.5,144.6,111110,,,A*42
$GPRMC,195752.3,A,3223.101647,N,11521.117882,W,55.2,144.6,111110,,,A*40
$GPRMC,195755.3,A,3223.062384,N,11521.085830,W,57.3,144.9,111110,,,A*46
$GPRMC,195758.3,A,3223.022719,N,11521.054653,W,56.6,145.8,111110,,,A*4C
$GPRMC,195801.3,A,3222.983159,N,11521.022764,W,57.0,145.2,111110,,,A*47
$GPRMC,195804.3,A,3222.944635,N,11520.990123,W,57.9,143.9,111110,,,A*44
$GPRMC,195807.3,A,3222.905109,N,11520.955491,W,59.8,145.0,111110,,,A*4F
$GPRMC,195810.3,A,3222.864082,N,11520.921218,W,59.1,144.5,111110,,,A*44
$GPRMC,195813.3,A,3222.820907,N,11520.887280,W,62.3,145.7,111110,,,A*46
$GPRMC,195816.3,A,3222.778610,N,11520.852612,W,61.7,145.0,111110,,,A*4F
$GPRMC,195819.3,A,3222.735884,N,11520.817325,W,62.0,145.3,111110,,,A*4D
$GPRMC,195822.3,A,3222.692149,N,11520.782926,W,63.0,145.2,111110,,,A*4B
$GPRMC,195825.3,A,3222.649274,N,11520.748348,W,61.2,145.5,111110,,,A*44
$GPRMC,195828.3,A,3222.607741,N,11520.715280,W,61.7,145.5,111110,,,A*48
$GPRMC,195831.3,A,3222.563448,N,11520.679567,W,63.3,145.5,111110,,,A*48
$GPRMC,195834.3,A,3222.519877,N,11520.642662,W,64.7,145.0,111110,,,A*48
$GPRMC,195837.3,A,3222.477074,N,11520.605483,W,64.0,144.4,111110,,,A*45
$GPRMC,195840.3,A,3222.432727,N,11520.568233,W,65.1,145.2,111110,,,A*47
$GPRMC,195843.3,A,3222.387657,N,11520.531235,W,65.7,145.2,111110,,,A*47
$GPRMC,195846.3,A,3222.342391,N,11520.494955,W,65.8,146.2,111110,,,A*4B
$GPRMC,195849.3,A,3222.296421,N,11520.456766,W,67.3,145.8,111110,,,A*40
$GPRMC,195852.3,A,3222.250183,N,11520.419250,W,67.4,145.1,111110,,,A*48
$GPRMC,195855.3,A,3222.205936,N,11520.380285,W,66.0,144.1,111110,,,A*42
$GPRMC,195858.3,A,3222.160668,N,11520.343738,W,65.0,144.9,111110,,,A*4C
$GPRMC,195901.3,A,3222.116712,N,11520.306837,W,64.8,145.3,111110,,,A*4F
$GPRMC,195904.3,A,3222.073129,N,11520.272498,W,62.3,147.6,111110,,,A*47
$GPRMC,195907.3,A,3222.027677,N,11520.245245,W,60.9,155.0,111110,,,A*46
$GPRMC,195910.3,A,3221.980305,N,11520.227649,W,59.1,162.9,111110,,,A*44
$GPRMC,195913.3,A,3221.930503,N,11520.216361,W,59.8,169.0,111110,,,A*4A
$GPRMC,195916.3,A,3221.880629,N,11520.205747,W,59.9,169.5,111110,,,A*48
$GPRMC,195919.3,A,3221.830399,N,11520.196517,W,61.5,170.0,111110,,,A*46
$GPRMC,195922.3,A,3221.780640,N,11520.186665,W,60.6,170.1,111110,,,A*4F
$GPRMC,195925.3,A,3221.729512,N,11520.175756,W,62.4,169.5,111110,,,A*4E
$GPRMC,195928.3,A,3221.677699,N,11520.164239,W,62.9,169.7,111110,,,A*4A
$GPRMC,195931.3,A,3221.628509,N,11520.152878,W,59.6,170.3,111110,,,A*43
$GPRMC,195934.3,A,3221.578172,N,11520.144567,W,60.5,170.7,111110,,,A*41
$GPRMC,195937.3,A,3221.527435,N,11520.134045,W,61.7,170.2,111110,,,A*4A
$GPRMC,195940.3,A,3221.476356,N,11520.124014,W,61.9,170.0,111110,,,A*44
$GPRMC,195943.3,A,3221.426244,N,11520.114306,W,60.7,170.5,111110,,,A*49
$GPRMC,195946.3,A,3221.376041,N,11520.104556,W,61.8,170.6,111110,,,A*46
$GPRMC,195949.3,A,3221.325144,N,11520.094416,W,61.4,171.3,111110,,,A*4E
$GPRMC,195952.3,A,3221.274965,N,11520.084532,W,60.8,171.2,111110,,,A*40
$GPRMC,195955.3,A,3221.223426,N,11520.074331,W,62.5,170.3,111110,,,A*4A
$GPRMC,195958.3,A,3221.169886,N,11520.064043,W,62.6,170.1,111110,,,A*4A
$GPRMC,200001.3,A,3221.117798,N,11520.054700,W,62.5,170.5,111110,,,A*4D
$GPRMC,200004.3,A,3221.067048,N,11520.043847,W,61.9,170.2,111110,,,A*46
$GPRMC,200007.3,A,3221.016724,N,11520.032810,W,62.1,169.9,111110,,,A*42
$GPRMC,200010.3,A,3220.964773,N,11520.021871,W,63.2,169.8,111110,,,A*4D
$GPRMC,200013.3,A,3220.913109,N,11520.011418,W,63.9,170.0,111110,,,A*4E
$GPRMC,200016.3,A,3220.861286,N,11520.000384,W,62.9,169.9,111110,,,A*49
$GPRMC,200019.3,A,3220.809425,N,11519.989308,W,63.1,170.0,111110,,,A*49
$GPRMC,200022.3,A,3220.758094,N,11519.979237,W,63.1,170.3,111110,,,A*45
$GPRMC,200025.3,A,3220.706488,N,11519.967281,W,63.4,169.8,111110,,,A*44
$GPRMC,200028.3,A,3220.654418,N,11519.956746,W,63.0,169.8,111110,,,A*4E
$GPRMC,200031.3,A,3220.603889,N,11519.945630,W,61.5,169.7,111110,,,A*4A
$GPRMC,200034.3,A,3220.553386,N,11519.935507,W,60.8,170.3,111110,,,A*4D
$GPRMC,200037.3,A,3220.503876,N,11519.926735,W,59.3,170.3,111110,,,A*4F
$GPRMC,200040.3,A,3220.456758,N,11519.917853,W,56.3,170.2,111110,,,A*4E
$GPRMC,200043.3,A,3220.412095,N,11519.908965,W,53.0,169.6,111110,,,A*4B
$GPRMC,200046.3,A,3220.374683,N,11519.901745,W,44.7,170.3,111110,,,A*41
$GPRMC,200049.3,A,3220.340003,N,11519.896641,W,41.2,173.6,111110,,,A*4B
$GPRMC,200052.3,A,3220.308568,N,11519.887916,W,36.9,169.6,111110,,,A*48
$GPRMC,200055.3,A,3220.290167,N,11519.882360,W,25.0,168.1,111110,,,A*47
$GPRMC,200058.3,A,3220.274246,N,11519.878725,W,19.9,168.7,111110,,,A*40
$GPRMC,200101.3,A,3220.258039,N,11519.874523,W,23.0,168.2,111110,,,A*44
$GPRMC,200104.3,A,3220.236525,N,11519.868429,W,28.1,167.3,111110,,,A*43
$GPRMC,200107.3,A,3220.212838,N,11519.863154,W,28.9,169.4,111110,,,A*42
$GPRMC,200110.3,A,3220.189905,N,11519.857813,W,27.9,170.6,111110,,,A*42
$GPRMC,200113.3,A,3220.165582,N,11519.852690,W,30.4,169.2,111110,,,A*47
$GPRMC,200116.3,A,3220.137792,N,11519.848355,W,34.4,171.0,111110,,,A*4E
$GPRMC,200119.3,A,3220.108070,N,11519.841953,W,36.5,169.8,111110,,,A*41
$GPRMC,200122.3,A,3220.077971,N,11519.835767,W,36.5,169.5,111110,,,A*4F
$GPRMC,200125.3,A,3220.048841,N,11519.829341,W,35.5,170.4,111110,,,A*41
$GPRMC,200128.3,A,3220.019705,N,11519.822601,W,35.1,169.4,111110,,,A*41
$GPRMC,200131.3,A,3219.991071,N,11519.816219,W,34.9,170.1,111110,,,A*40
$GPRMC,200134.3,A,3219.961732,N,11519.810899,W,36.6,171.4,111110,,,A*47
$GPRMC,200137.3,A,3219.931254,N,11519.805201,W,37.7,171.0,111110,,,A*4F
$GPRMC,200140.3,A,3219.899144,N,11519.799210,W,37.7,171.6,111110,,,A*42
$GPRMC,200143.3,A,3219.868450,N,11519.796814,W,36.2,174.6,111110,,,A*4F
$GPRMC,200146.3,A,3219.839929,N,11519.794754,W,32.5,175.2,111110,,,A*42
$GPRMC,200149.3,A,3219.814058,N,11519.792884,W,30.1,175.8,111110,,,A*45
$GPRMC,200152.3,A,3219.787295,N,11519.792999,W,31.3,177.0,111110,,,A*4D
$GPRMC,200155.3,A,3219.760378,N,11519.790309,W,31.7,176.3,111110,,,A*46
$GPRMC,200158.3,A,3219.734625,N,11519.787983,W,30.3,175.8,111110,,,A*44
$GPRMC,200201.3,A,3219.710867,N,11519.783938,W,28.1,172.5,111110,,,A*40
$GPRMC,200204.3,A,3219.688405,N,11519.781319,W,25.3,176.4,111110,,,A*4C
$GPRMC,200207.3,A,3219.667996,N,11519.779334,W,23.6,176.2,111110,,,A*44
$GPRMC,200210.3,A,3219.650257,N,11519.778486,W,20.8,176.7,111110,,,A*47
$GPRMC,200213.3,A,3219.630397,N,11519.778158,W,25.8,176.5,111110,,,A*4E
$GPRMC,200216.3,A,3219.605599,N,11519.775492,W,30.7,175.7,111110,,,A*41
$GPRMC,200219.9,A,3219.572991,N,11519.774826,W,32.0,178.5,111110,,,A*4B
$GPRMC,200222.9,A,3219.545616,N,11519.773937,W,31.9,176.8,111110,,,A*48
$GPRMC,200225.2,A,3219.526115,N,11519.771276,W,31.3,176.3,111110,,,A*48
$GPRMC,200228.2,A,3219.502048,N,11519.767795,W,28.2,175.4,111110,,,A*48
$GPRMC,200231.0,A,3219.481554,N,11519.766741,W,29.7,177.3,111110,,,A*49
$GPRMC,200235.2,A,3219.441887,N,11519.762876,W,33.6,174.4,111110,,,A*41
$GPRMC,200238.2,A,3219.408638,N,11519.759681,W,38.3,175.4,111110,,,A*4A
$GPRMC,200241.2,A,3219.375635,N,11519.756060,W,39.3,175.9,111110,,,A*4E
$GPRMC,200244.2,A,3219.341804,N,11519.753168,W,41.5,176.2,111110,,,A*4D
$GPRMC,200247.2,A,3219.306386,N,11519.750264,W,42.5,175.7,111110,,,A*45
$GPRMC,200250.0,A,3219.271461,N,11519.746801,W,46.5,176.4,111110,,,A*44
$GPRMC,200253.2,A,3219.228940,N,11519.742028,W,45.6,174.9,111110,,,A*4F
$GPRMC,200256.0,A,3219.195077,N,11519.740098,W,45.8,176.9,111110,,,A*45
$GPRMC,200259.9,A,3219.140452,N,11519.733060,W,49.9,172.2,111110,,,A*49
$GPRMC,200302.3,A,3219.107778,N,11519.725821,W,52.3,169.8,111110,,,A*4E
$GPRMC,200305.3,A,3219.065579,N,11519.715029,W,51.3,167.2,111110,,,A*4B
$GPRMC,200308.3,A,3219.026767,N,11519.701684,W,51.7,164.3,111110,,,A*4E
$GPRMC,200311.3,A,3218.984412,N,11519.688389,W,54.0,165.4,111110,,,A*4B
$GPRMC,200314.3,A,3218.940063,N,11519.675011,W,55.0,165.6,111110,,,A*47
$GPRMC,200317.3,A,3218.895405,N,11519.661574,W,54.9,165.2,111110,,,A*46
$GPRMC,200320.3,A,3218.852059,N,11519.645446,W,54.5,165.0,111110,,,A*4C
$GPRMC,200323.3,A,3218.807324,N,11519.631552,W,55.4,166.5,111110,,,A*47
$GPRMC,200326.3,A,3218.762630,N,11519.618408,W,55.2,166.3,111110,,,A*4B
$GPRMC,200329.3,A,3218.718189,N,11519.605738,W,54.7,165.5,111110,,,A*41
$GPRMC,200332.3,A,3218.673754,N,11519.591558,W,55.2,165.1,111110,,,A*4B
$GPRMC,200335.3,A,3218.629430,N,11519.576613,W,55.7,164.9,111110,,,A*4B
$GPRMC,200338.3,A,3218.582051,N,11519.563657,W,57.9,166.3,111110,,,A*47
$GPRMC,200341.3,A,3218.535267,N,11519.549308,W,58.3,166.1,111110,,,A*42
$GPRMC,200344.3,A,3218.487241,N,11519.535768,W,61.0,167.9,111110,,,A*42
$GPRMC,200347.3,A,3218.438759,N,11519.521443,W,61.1,167.2,111110,,,A*4C
$GPRMC,200350.3,A,3218.391940,N,11519.505893,W,59.6,166.0,111110,,,A*40
$GPRMC,200353.3,A,3218.342398,N,11519.492385,W,59.7,165.6,111110,,,A*45
$GPRMC,200356.3,A,3218.293510,N,11519.478515,W,59.5,165.7,111110,,,A*43
$GPRMC,200359.3,A,3218.244432,N,11519.464289,W,59.5,165.3,111110,,,A*4C
$GPRMC,200402.3,A,3218.196967,N,11519.449793,W,58.6,166.3,111110,,,A*44
$GPRMC,200405.3,A,3218.148756,N,11519.441075,W,59.3,171.6,111110,,,A*4C
$GPRMC,200408.3,A,3218.099193,N,11519.436455,W,60.5,176.1,111110,,,A*49
$GPRMC,200411.0,A,3218.051560,N,11519.432574,W,61.6,177.0,111110,,,A*4A
$GPRMC,200414.2,A,3217.996528,N,11519.429631,W,61.1,176.6,111110,,,A*44
$GPRMC,200417.2,A,3217.945847,N,11519.426221,W,59.4,176.5,111110,,,A*4A
$GPRMC,200420.2,A,3217.897119,N,11519.422147,W,58.8,176.2,111110,,,A*4F
$GPRMC,200423.2,A,3217.849922,N,11519.420393,W,56.7,176.2,111110,,,A*47
$GPRMC,200426.2,A,3217.802853,N,11519.417487,W,56.1,176.8,111110,,,A*40
$GPRMC,200429.2,A,3217.756894,N,11519.415318,W,55.6,176.7,111110,,,A*42
$GPRMC,200432.0,A,3217.713613,N,11519.412096,W,56.6,176.9,111110,,,A*45
$GPRMC,200435.9,A,3217.649489,N,11519.409499,W,57.7,177.0,111110,,,A*4D
$GPRMC,200438.9,A,3217.602802,N,11519.404782,W,57.4,176.5,111110,,,A*43
$GPRMC,200441.9,A,3217.551282,N,11519.400966,W,59.7,175.9,111110,,,A*48
$GPRMC,200444.3,A,3217.512825,N,11519.399521,W,59.4,178.5,111110,,,A*4D
$GPRMC,200447.9,A,3217.454274,N,11519.395330,W,57.1,177.5,111110,,,A*47
$GPRMC,200450.3,A,3217.417470,N,11519.392787,W,56.2,176.6,111110,,,A*41
$GPRMC,200453.3,A,3217.372027,N,11519.388267,W,56.0,176.6,111110,,,A*42
$GPRMC,200456.3,A,3217.326498,N,11519.384832,W,55.3,176.7,111110,,,A*41
$GPRMC,200459.3,A,3217.279966,N,11519.382581,W,56.3,176.6,111110,,,A*48
$GPRMC,200502.9,A,3217.221742,N,11519.379400,W,55.2,175.9,111110,,,A*4A
$GPRMC,200505.3,A,3217.185748,N,11519.374897,W,56.8,174.1,111110,,,A*4F
$GPRMC,200508.3,A,3217.139960,N,11519.369635,W,55.4,176.1,111110,,,A*46
$GPRMC,200511.0,A,3217.097592,N,11519.367430,W,57.0,177.2,111110,,,A*44
$GPRMC,200514.3,A,3217.045954,N,11519.362456,W,58.0,176.7,111110,,,A*45
$GPRMC,200517.9,A,3216.988738,N,11519.362040,W,56.6,178.4,111110,,,A*47
$GPRMC,200520.3,A,3216.952501,N,11519.360936,W,55.5,178.6,111110,,,A*4E
$GPRMC,200523.3,A,3216.905319,N,11519.357699,W,56.7,177.1,111110,,,A*47
$GPRMC,200526.3,A,3216.857469,N,11519.354005,W,57.0,176.6,111110,,,A*44
$GPRMC,200529.3,A,3216.809287,N,11519.351933,W,57.1,178.2,111110,,,A*44
$GPRMC,200532.3,A,3216.761501,N,11519.348085,W,56.6,176.4,111110,,,A*44
$GPRMC,200535.3,A,3216.714862,N,11519.345810,W,57.5,177.5,111110,,,A*42
$GPRMC,200538.3,A,3216.666891,N,11519.342262,W,57.6,177.2,111110,,,A*4B
$GPRMC,200541.3,A,3216.617040,N,11519.336970,W,58.7,176.8,111110,,,A*49
$GPRMC,200544.0,A,3216.572330,N,11519.335818,W,57.6,176.9,111110,,,A*48
$GPRMC,200548.2,A,3216.505287,N,11519.329734,W,58.4,177.1,111110,,,A*43
$GPRMC,200551.2,A,3216.458644,N,11519.326491,W,55.2,176.8,111110,,,A*49
$GPRMC,200554.2,A,3216.413516,N,11519.322909,W,53.2,176.3,111110,,,A*42
$GPRMC,200557.2,A,3216.370124,N,11519.320214,W,52.7,176.7,111110,,,A*43
$GPRMC,200600.2,A,3216.325151,N,11519.316513,W,53.9,176.6,111110,,,A*4B
$GPRMC,200603.2,A,3216.279922,N,11519.314222,W,55.4,176.6,111110,,,A*40
$GPRMC,200606.2,A,3216.233373,N,11519.309821,W,55.2,175.5,111110,,,A*46
$GPRMC,200609.2,A,3216.187118,N,11519.306063,W,55.4,174.5,111110,,,A*4C
$GPRMC,200612.2,A,3216.140439,N,11519.301105,W,56.7,174.5,111110,,,A*4D
$GPRMC,200615.2,A,3216.092082,N,11519.295942,W,57.9,175.7,111110,,,A*4B
$GPRMC,200618.9,A,3216.030128,N,11519.291657,W,60.2,178.2,111110,,,A*4C
$GPRMC,200621.2,A,3215.993120,N,11519.288284,W,58.9,176.8,111110,,,A*40
$GPRMC,200624.2,A,3215.944338,N,11519.283905,W,59.4,175.8,111110,,,A*42
$GPRMC,200627.2,A,3215.894701,N,11519.281022,W,60.2,176.5,111110,,,A*4F
$GPRMC,200630.2,A,3215.845942,N,11519.278206,W,59.2,177.0,111110,,,A*40
$GPRMC,200633.2,A,3215.796712,N,11519.276664,W,58.6,178.3,111110,,,A*4E
$GPRMC,200636.2,A,3215.748014,N,11519.276289,W,57.7,178.1,111110,,,A*42
$GPRMC,200639.2,A,3215.699349,N,11519.270017,W,56.9,176.8,111110,,,A*40
$GPRMC,200642.2,A,3215.652747,N,11519.267987,W,55.3,176.8,111110,,,A*4E
$GPRMC,200645.2,A,3215.605580,N,11519.263899,W,55.8,176.6,111110,,,A*4D
$GPRMC,200648.2,A,3215.560335,N,11519.259588,W,54.9,176.6,111110,,,A*4C
$GPRMC,200651.2,A,3215.514337,N,11519.255167,W,54.4,176.3,111110,,,A*44
$GPRMC,200654.2,A,3215.470174,N,11519.252256,W,54.1,176.9,111110,,,A*4E
$GPRMC,200657.2,A,3215.424477,N,11519.249277,W,53.8,176.3,111110,,,A*47
$GPRMC,200700.2,A,3215.380457,N,11519.245656,W,53.0,176.0,111110,,,A*4F
$GPRMC,200703.2,A,3215.336412,N,11519.243924,W,52.6,176.6,111110,,,A*4D
$GPRMC,200706.2,A,3215.293934,N,11519.240564,W,50.6,176.8,111110,,,A*48
$GPRMC,200709.2,A,3215.253520,N,11519.236756,W,48.4,176.3,111110,,,A*40
$GPRMC,200712.2,A,3215.212554,N,11519.234607,W,49.1,176.9,111110,,,A*45
$GPRMC,200715.2,A,3215.171035,N,11519.231822,W,50.7,176.7,111110,,,A*4A
$GPRMC,200718.2,A,3215.128439,N,11519.228355,W,52.7,175.7,111110,,,A*41
$GPRMC,200721.2,A,3215.083422,N,11519.225459,W,54.4,176.9,111110,,,A*4F
$GPRMC,200724.2,A,3215.037244,N,11519.221845,W,55.7,175.9,111110,,,A*47
$GPRMC,200727.2,A,3214.990038,N,11519.219819,W,55.8,178.1,111110,,,A*40
$GPRMC,200730.2,A,3214.943454,N,11519.216373,W,56.6,177.1,111110,,,A*4C
$GPRMC,200733.2,A,3214.897391,N,11519.213774,W,57.5,176.8,111110,,,A*45
$GPRMC,200736.2,A,3214.848132,N,11519.210555,W,59.6,176.4,111110,,,A*4A
$GPRMC,200739.3,A,3214.797670,N,11519.206910,W,60.5,176.3,111110,,,A*4C
$GPRMC,200742.3,A,3214.745445,N,11519.203975,W,62.5,176.9,111110,,,A*45
$GPRMC,200745.3,A,3214.692962,N,11519.199678,W,63.1,176.9,111110,,,A*46
$GPRMC,200748.3,A,3214.642150,N,11519.196952,W,62.0,176.9,111110,,,A*47
$GPRMC,200751.3,A,3214.589643,N,11519.193930,W,62.1,177.0,111110,,,A*46
$GPRMC,200754.3,A,3214.538485,N,11519.190887,W,62.1,176.6,111110,,,A*48
$GPRMC,200757.3,A,3214.486280,N,11519.187170,W,61.7,177.3,111110,,,A*4A
$GPRMC,200800.3,A,3214.434544,N,11519.184178,W,62.8,177.1,111110,,,A*44
$GPRMC,200803.3,A,3214.383788,N,11519.181043,W,62.5,176.7,111110,,,A*48
$GPRMC,200806.3,A,3214.332046,N,11519.177124,W,61.8,176.7,111110,,,A*45
$GPRMC,200809.3,A,3214.280299,N,11519.173289,W,62.0,177.0,111110,,,A*4F
$GPRMC,200812.3,A,3214.228596,N,11519.169672,W,62.6,176.0,111110,,,A*43
$GPRMC,200815.3,A,3214.177650,N,11519.166873,W,61.3,176.7,111110,,,A*45
$GPRMC,200818.3,A,3214.125102,N,11519.159663,W,61.4,173.9,111110,,,A*40
$GPRMC,200821.3,A,3214.072832,N,11519.156861,W,62.1,175.9,111110,,,A*40
$GPRMC,200824.3,A,3214.020615,N,11519.153887,W,62.0,176.5,111110,,,A*4A
$GPRMC,200827.3,A,3213.969169,N,11519.151870,W,61.4,177.1,111110,,,A*4E
$GPRMC,200830.3,A,3213.918679,N,11519.149206,W,61.4,176.9,111110,,,A*43
$GPRMC,200833.3,A,3213.867662,N,11519.145766,W,61.4,176.3,111110,,,A*46
$GPRMC,200836.3,A,3213.816253,N,11519.142564,W,61.8,177.0,111110,,,A*4A
$GPRMC,200839.3,A,3213.764702,N,11519.139773,W,61.4,176.7,111110,,,A*4C
$GPRMC,200842.3,A,3213.713616,N,11519.137337,W,61.4,176.8,111110,,,A*41
$GPRMC,200845.3,A,3213.663955,N,11519.132698,W,60.8,176.3,111110,,,A*4B
$GPRMC,200848.3,A,3213.613287,N,11519.129873,W,60.3,177.8,111110,,,A*45
$GPRMC,200851.3,A,3213.563183,N,11519.126067,W,59.4,176.1,111110,,,A*49
$GPRMC,200854.3,A,3213.513667,N,11519.121946,W,59.8,176.6,111110,,,A*40
$GPRMC,200857.3,A,3213.463549,N,11519.117890,W,59.1,176.3,111110,,,A*49
$GPRMC,200900.3,A,3213.414577,N,11519.115907,W,59.1,177.0,111110,,,A*48
$GPRMC,200903.3,A,3213.365536,N,11519.111958,W,59.1,176.4,111110,,,A*44
$GPRMC,200906.3,A,3213.316629,N,11519.107925,W,57.6,175.5,111110,,,A*4E
$GPRMC,200909.3,A,3213.267781,N,11519.105097,W,58.4,178.2,111110,,,A*40
$GPRMC,200912.3,A,3213.216873,N,11519.101437,W,59.9,176.9,111110,,,A*4D
$GPRMC,200915.3,A,3213.165203,N,11519.098879,W,60.7,178.1,111110,,,A*45
$GPRMC,200918.3,A,3213.116572,N,11519.092681,W,60.3,175.9,111110,,,A*4F
$GPRMC,200921.3,A,3213.065957,N,11519.090158,W,60.7,177.0,111110,,,A*45
$GPRMC,200924.9,A,3213.003749,N,11519.085280,W,61.2,177.0,111110,,,A*4D
$GPRMC,200927.9,A,3212.954600,N,11519.081936,W,60.1,177.0,111110,,,A*48
$GPRMC,200930.9,A,3212.903221,N,11519.080023,W,60.7,176.9,111110,,,A*49
$GPRMC,200933.9,A,3212.852238,N,11519.074894,W,59.6,176.2,111110,,,A*48
$GPRMC,200936.9,A,3212.802514,N,11519.072275,W,58.6,177.0,111110,,,A*40
$GPRMC,200939.9,A,3212.753749,N,11519.068601,W,59.0,176.9,111110,,,A*4D
$GPRMC,200942.3,A,3212.716905,N,11519.066133,W,57.4,176.6,111110,,,A*41
$GPRMC,200945.9,A,3212.655732,N,11519.061402,W,59.5,176.3,111110,,,A*4A
$GPRMC,200948.9,A,3212.607495,N,11519.057376,W,59.3,176.5,111110,,,A*4F
$GPRMC,200951.9,A,3212.557513,N,11519.053890,W,60.4,176.8,111110,,,A*49
$GPRMC,200954.9,A,3212.506190,N,11519.051498,W,59.3,176.6,111110,,,A*42
$GPRMC,200957.9,A,3212.456756,N,11519.047140,W,60.0,176.6,111110,,,A*47
$GPRMC,201000.3,A,3212.417468,N,11519.044637,W,61.5,177.0,111110,,,A*4B
$GPRMC,201003.9,A,3212.354377,N,11519.040865,W,60.5,176.1,111110,,,A*47
$GPRMC,201006.9,A,3212.307604,N,11519.037852,W,58.7,177.1,111110,,,A*49
$GPRMC,201009.9,A,3212.259916,N,11519.033922,W,55.9,175.2,111110,,,A*40
$GPRMC,201012.3,A,3212.220903,N,11519.030954,W,60.6,176.8,111110,,,A*48
$GPRMC,201015.9,A,3212.158536,N,11519.026430,W,60.7,175.9,111110,,,A*48
$GPRMC,201018.9,A,3212.107650,N,11519.022728,W,61.0,177.1,111110,,,A*4E
$GPRMC,201021.2,A,3212.068690,N,11519.020523,W,61.8,177.0,111110,,,A*49
$GPRMC,201024.2,A,3212.016109,N,11519.018130,W,62.0,176.7,111110,,,A*42
$GPRMC,201028.2,A,3211.947270,N,11519.013856,W,62.9,176.3,111110,,,A*42
$GPRMC,201031.2,A,3211.894771,N,11519.010655,W,62.5,176.4,111110,,,A*44
$GPRMC,201034.2,A,3211.841815,N,11519.007119,W,62.7,176.9,111110,,,A*42
$GPRMC,201037.2,A,3211.789925,N,11519.003576,W,62.2,176.1,111110,,,A*4C
$GPRMC,201040.2,A,3211.738521,N,11519.000056,W,62.2,176.3,111110,,,A*48
$GPRMC,201043.0,A,3211.691068,N,11518.997101,W,61.8,177.1,111110,,,A*4C
$GPRMC,201046.2,A,3211.634425,N,11518.993761,W,62.5,176.8,111110,,,A*4B
$GPRMC,201049.0,A,3211.587613,N,11518.990200,W,62.2,176.5,111110,,,A*41
$GPRMC,201052.2,A,3211.531406,N,11518.986181,W,62.5,176.3,111110,,,A*4E
$GPRMC,201055.2,A,3211.478492,N,11518.982684,W,63.3,176.1,111110,,,A*4B
$GPRMC,201058.3,A,3211.426693,N,11518.980102,W,61.7,177.7,111110,,,A*45
$GPRMC,201101.3,A,3211.374832,N,11518.976955,W,61.3,176.9,111110,,,A*45
$GPRMC,201104.3,A,3211.323576,N,11518.973341,W,60.2,177.5,111110,,,A*48
$GPRMC,201107.3,A,3211.272480,N,11518.970662,W,62.3,176.7,111110,,,A*41
$GPRMC,201110.3,A,3211.219124,N,11518.966371,W,62.8,176.9,111110,,,A*44
$GPRMC,201113.9,A,3211.154915,N,11518.961237,W,62.5,175.7,111110,,,A*49
$GPRMC,201116.3,A,3211.114762,N,11518.959327,W,61.7,178.0,111110,,,A*4C
$GPRMC,201119.9,A,3211.053627,N,11518.956645,W,60.8,178.2,111110,,,A*49
$GPRMC,201122.3,A,3211.015011,N,11518.954944,W,60.9,178.6,111110,,,A*43
$GPRMC,201125.0,A,3210.968212,N,11518.952113,W,60.6,176.9,111110,,,A*46
$GPRMC,201128.2,A,3210.913015,N,11518.949822,W,59.0,176.8,111110,,,A*4C
$GPRMC,201131.9,A,3210.855149,N,11518.944606,W,56.2,176.3,111110,,,A*47
$GPRMC,201134.9,A,3210.808701,N,11518.942608,W,55.3,174.1,111110,,,A*4A
$GPRMC,201137.9,A,3210.764267,N,11518.928935,W,54.3,162.3,111110,,,A*40
$GPRMC,201140.9,A,3210.723895,N,11518.899908,W,56.6,147.2,111110,,,A*40
$GPRMC,201143.9,A,3210.688794,N,11518.858289,W,59.3,136.9,111110,,,A*45
$GPRMC,201146.9,A,3210.654284,N,11518.814938,W,60.2,134.4,111110,,,A*48
$GPRMC,201149.9,A,3210.620764,N,11518.772874,W,59.4,135.0,111110,,,A*40
