NMEA Sentence Code,UTC Time,Status,Latitude,Latitude Direction,Longitude,Longitude Direction,Speed (knots),Track Angle (degrees true),Date,MagneticVariation,Magnetic Variation Direction,[FAA Mode]-Optional,Checksum
$GPRMC,221742.5,A,3332.2954,N,11740.4853,W,67.70,188.50,140210,,*22
$GPRMC,221745.5,A,3332.2398,N,11740.4938,W,67.20,186.10,140210,,*2C
$GPRMC,221748.5,A,3332.1846,N,11740.4999,W,66.10,183.60,140210,,*21
$GPRMC,221751.5,A,3332.1300,N,11740.5018,W,65.50,181.10,140210,,*23
$GPRMC,221754.5,A,3332.0752,N,11740.5008,W,64.70,179.10,140210,,*21
$GPRMC,221757.5,A,3332.0209,N,11740.4972,W,64.50,176.30,140210,,*23
$GPRMC,221800.5,A,3331.9681,N,11740.4898,W,63.60,170.70,140210,,*23
$GPRMC,221803.5,A,3331.9165,N,11740.4752,W,63.10,161.90,140210,,*2D
$GPRMC,221806.5,A,3331.8691,N,11740.4526,W,61.70,156.20,140210,,*2F
$GPRMC,221809.5,A,3331.8250,N,11740.4191,W,61.90,144.70,140210,,*29
$GPRMC,221812.5,A,3331.7855,N,11740.3803,W,61.40,135.80,140210,,*22
$GPRMC,221815.5,A,3331.7519,N,11740.3356,W,61.40,129.90,140210,,*27
$GPRMC,221818.5,A,3331.7197,N,11740.2882,W,62.40,129.50,140210,,*24
$GPRMC,221821.5,A,3331.6866,N,11740.2391,W,63.40,129.00,140210,,*25
$GPRMC,221824.5,A,3331.6521,N,11740.1921,W,62.60,132.10,140210,,*24
$GPRMC,221827.5,A,3331.6121,N,11740.1474,W,63.80,139.30,140210,,*28
$GPRMC,221830.5,A,3331.5686,N,11740.1077,W,64.10,146.20,140210,,*27
$GPRMC,221833.5,A,3331.5230,N,11740.0736,W,64.00,149.50,140210,,*27
$GPRMC,221836.5,A,3331.4736,N,11740.0471,W,64.30,156.70,140210,,*2F
$GPRMC,221839.5,A,3331.4220,N,11740.0242,W,65.30,159.30,140210,,*2E
$GPRMC,221842.5,A,3331.3725,N,11740.0045,W,66.00,160.20,140210,,*2B
$GPRMC,221845.5,A,3331.3206,N,11739.9824,W,67.40,160.30,140210,,*24
$GPRMC,221848.5,A,3331.2677,N,11739.9599,W,68.20,160.30,140210,,*28
$GPRMC,221851.5,A,3331.2138,N,11739.9370,W,68.50,160.40,140210,,*2D
$GPRMC,221854.5,A,3331.1573,N,11739.9128,W,71.80,160.00,140210,,*2E
$GPRMC,221857.5,A,3331.1008,N,11739.8881,W,70.80,159.90,140210,,*2D
$GPRMC,221900.5,A,3331.0461,N,11739.8657,W,70.20,160.30,140210,,*2B
$GPRMC,221903.5,A,3330.9915,N,11739.8425,W,70.00,160.50,140210,,*2D
$GPRMC,221906.5,A,3330.9365,N,11739.8196,W,70.80,160.50,140210,,*20
$GPRMC,221909.5,A,3330.8812,N,11739.7953,W,69.80,160.20,140210,,*24
$GPRMC,221912.5,A,3330.8266,N,11739.7720,W,69.70,160.30,140210,,*23
$GPRMC,221915.5,A,3330.7717,N,11739.7489,W,68.80,160.30,140210,,*26
$GPRMC,221918.5,A,3330.7168,N,11739.7252,W,69.00,160.50,140210,,*2A
$GPRMC,221921.5,A,3330.6627,N,11739.7012,W,69.10,160.30,140210,,*2C
$GPRMC,221924.5,A,3330.6085,N,11739.6781,W,69.30,160.40,140210,,*2E
$GPRMC,221927.5,A,3330.5535,N,11739.6538,W,70.20,160.10,140210,,*2C
$GPRMC,221930.5,A,3330.4990,N,11739.6315,W,68.40,160.30,140210,,*2C
$GPRMC,221933.5,A,3330.4454,N,11739.6088,W,67.80,160.50,140210,,*28
$GPRMC,221936.5,A,3330.3921,N,11739.5869,W,68.20,160.10,140210,,*20
$GPRMC,221939.5,A,3330.3382,N,11739.5636,W,69.00,160.40,140210,,*2E
$GPRMC,221942.5,A,3330.2838,N,11739.5425,W,69.40,162.50,140210,,*2E
$GPRMC,221945.5,A,3330.2269,N,11739.5263,W,70.10,168.20,140210,,*23
$GPRMC,221948.5,A,3330.1707,N,11739.5154,W,70.50,171.70,140210,,*2E
$GPRMC,221951.5,A,3330.1121,N,11739.5072,W,70.60,174.60,140210,,*26
$GPRMC,221954.5,A,3330.0531,N,11739.5032,W,70.50,179.10,140210,,*2A
$GPRMC,221957.5,A,3329.9936,N,11739.5031,W,71.80,180.70,140210,,*2C
$GPRMC,222000.5,A,3329.9365,N,11739.5107,W,69.80,186.50,140210,,*21
$GPRMC,222003.5,A,3329.8782,N,11739.5203,W,69.60,189.30,140210,,*2E
$GPRMC,222006.5,A,3329.8216,N,11739.5331,W,69.10,191.10,140210,,*2F
$GPRMC,222009.5,A,3329.7644,N,11739.5508,W,70.90,193.90,140210,,*2A
$GPRMC,222012.5,A,3329.7116,N,11739.5735,W,68.10,197.90,140210,,*29
$GPRMC,222015.5,A,3329.6607,N,11739.6056,W,68.60,204.00,140210,,*2E
$GPRMC,222018.5,A,3329.6099,N,11739.6355,W,69.00,208.60,140210,,*2F
$GPRMC,222021.5,A,3329.5608,N,11739.6693,W,68.90,211.70,140210,,*26
$GPRMC,222024.5,A,3329.5123,N,11739.7060,W,68.70,212.30,140210,,*2F
$GPRMC,222027.5,A,3329.4639,N,11739.7427,W,68.40,212.30,140210,,*25
$GPRMC,222030.5,A,3329.4160,N,11739.7787,W,67.00,212.10,140210,,*28
$GPRMC,222033.5,A,3329.3686,N,11739.8143,W,66.70,212.10,140210,,*24
$GPRMC,222036.5,A,3329.3211,N,11739.8500,W,67.00,212.20,140210,,*2D
$GPRMC,222039.5,A,3329.2734,N,11739.8859,W,68.10,212.30,140210,,*2F
$GPRMC,222042.5,A,3329.2252,N,11739.9225,W,68.10,212.20,140210,,*27
$GPRMC,222045.5,A,3329.1774,N,11739.9582,W,66.90,212.30,140210,,*2F
$GPRMC,222048.5,A,3329.1310,N,11739.9940,W,65.40,213.40,140210,,*2E
$GPRMC,222051.5,A,3329.0869,N,11740.0312,W,63.70,215.90,140210,,*26
$GPRMC,222054.5,A,3329.0446,N,11740.0677,W,62.20,215.70,140210,,*2E
$GPRMC,222057.5,A,3329.0028,N,11740.1037,W,61.00,216.00,140210,,*27
$GPRMC,222100.5,A,3328.9616,N,11740.1387,W,60.40,215.80,140210,,*21
$GPRMC,222103.5,A,3328.9205,N,11740.1737,W,60.70,215.80,140210,,*28
$GPRMC,222106.5,A,3328.8789,N,11740.2095,W,61.50,216.20,140210,,*2B
$GPRMC,222109.5,A,3328.8371,N,11740.2456,W,62.20,215.80,140210,,*21
$GPRMC,222112.5,A,3328.7948,N,11740.2819,W,62.40,215.90,140210,,*24
$GPRMC,222115.5,A,3328.7525,N,11740.3178,W,62.70,215.90,140210,,*28
$GPRMC,222118.5,A,3328.7103,N,11740.3545,W,61.90,215.90,140210,,*22
$GPRMC,222121.5,A,3328.6682,N,11740.3890,W,60.20,212.40,140210,,*22
$GPRMC,222124.5,A,3328.6250,N,11740.4187,W,59.70,206.90,140210,,*23
$GPRMC,222127.5,A,3328.5792,N,11740.4430,W,59.90,201.80,140210,,*29
$GPRMC,222130.5,A,3328.5321,N,11740.4627,W,60.30,196.60,140210,,*24
$GPRMC,222133.5,A,3328.4843,N,11740.4776,W,58.90,194.70,140210,,*2E
$GPRMC,222136.5,A,3328.4334,N,11740.4858,W,62.00,185.60,140210,,*22
$GPRMC,222139.5,A,3328.3816,N,11740.4893,W,61.90,180.90,140210,,*26
$GPRMC,222143.5,A,3328.3107,N,11740.4821,W,64.40,171.90,140210,,*2D
$GPRMC,222146.5,A,3328.2574,N,11740.4689,W,64.40,164.40,140210,,*2C
$GPRMC,222149.5,A,3328.2071,N,11740.4476,W,63.40,157.90,140210,,*2B
$GPRMC,222152.5,A,3328.1618,N,11740.4171,W,61.10,148.60,140210,,*2F
$GPRMC,222155.5,A,3328.1228,N,11740.3790,W,60.00,137.30,140210,,*2C
$GPRMC,222158.5,A,3328.0894,N,11740.3352,W,59.50,129.60,140210,,*22
$GPRMC,222201.5,A,3328.0616,N,11740.2857,W,59.10,120.30,140210,,*2E
$GPRMC,222204.5,A,3328.0378,N,11740.2329,W,59.40,117.00,140210,,*26
$GPRMC,222207.5,A,3328.0150,N,11740.1795,W,60.20,117.40,140210,,*25
$GPRMC,222210.5,A,3327.9892,N,11740.1270,W,61.40,121.60,140210,,*2C
$GPRMC,222213.5,A,3327.9595,N,11740.0774,W,60.70,127.50,140210,,*22
$GPRMC,222216.5,A,3327.9286,N,11740.0293,W,63.60,127.80,140210,,*21
$GPRMC,222219.5,A,3327.8938,N,11739.9810,W,64.40,129.30,140210,,*27
$GPRMC,222222.5,A,3327.8584,N,11739.9301,W,66.00,129.20,140210,,*28
$GPRMC,222225.5,A,3327.8212,N,11739.8753,W,68.20,128.90,140210,,*23
$GPRMC,222228.5,A,3327.7821,N,11739.8213,W,69.90,129.90,140210,,*21
$GPRMC,222231.5,A,3327.7460,N,11739.7667,W,68.90,129.20,140210,,*22
$GPRMC,222234.5,A,3327.7104,N,11739.7152,W,66.70,129.30,140210,,*20
$GPRMC,222237.5,A,3327.6757,N,11739.6649,W,65.90,127.50,140210,,*2B
$GPRMC,222240.5,A,3327.6450,N,11739.6101,W,64.10,119.80,140210,,*2D
$GPRMC,222243.5,A,3327.6212,N,11739.5539,W,63.10,116.00,140210,,*22
$GPRMC,222246.5,A,3327.5981,N,11739.4978,W,62.10,116.10,140210,,*2D
$GPRMC,222249.5,A,3327.5750,N,11739.4445,W,59.90,119.20,140210,,*2F
$GPRMC,222252.5,A,3327.5488,N,11739.3956,W,58.60,123.10,140210,,*2F
$GPRMC,222255.5,A,3327.5187,N,11739.3453,W,61.00,125.60,140210,,*27
$GPRMC,222258.5,A,3327.4892,N,11739.2957,W,61.10,125.50,140210,,*2C
$GPRMC,222301.5,A,3327.4608,N,11739.2473,W,60.60,125.20,140210,,*26
$GPRMC,222304.5,A,3327.4305,N,11739.1966,W,62.00,124.30,140210,,*25
$GPRMC,222307.5,A,3327.3955,N,11739.1356,W,64.00,122.50,140210,,*21
$GPRMC,222310.5,A,3327.3693,N,11739.0819,W,63.10,119.50,140210,,*2D
$GPRMC,222313.5,A,3327.3440,N,11739.0258,W,64.10,117.30,140210,,*22
$GPRMC,222316.5,A,3327.3192,N,11738.9692,W,64.20,117.50,140210,,*22
$GPRMC,222319.5,A,3327.2948,N,11738.9149,W,62.60,117.90,140210,,*2C
$GPRMC,222322.5,A,3327.2703,N,11738.8574,W,63.30,117.30,140210,,*20
$GPRMC,222325.5,A,3327.2465,N,11738.8005,W,62.80,117.60,140210,,*28
$GPRMC,222328.5,A,3327.2226,N,11738.7450,W,63.00,117.70,140210,,*27
$GPRMC,222331.5,A,3327.1981,N,11738.6906,W,63.70,119.30,140210,,*28
$GPRMC,222334.5,A,3327.1710,N,11738.6357,W,64.10,121.00,140210,,*2C
$GPRMC,222337.5,A,3327.1421,N,11738.5835,W,63.00,123.80,140210,,*2E
$GPRMC,222340.5,A,3327.1130,N,11738.5333,W,62.10,125.80,140210,,*20
$GPRMC,222343.5,A,3327.0819,N,11738.4860,W,60.40,128.60,140210,,*28
$GPRMC,222346.5,A,3327.0474,N,11738.4378,W,61.70,130.50,140210,,*20
$GPRMC,222349.5,A,3327.0202,N,11738.3988,W,57.00,130.10,140210,,*2C
$GPRMC,222352.5,A,3326.9919,N,11738.3594,W,54.90,130.40,140210,,*21
$GPRMC,222355.5,A,3326.9592,N,11738.3129,W,56.00,129.40,140210,,*28
$GPRMC,222358.5,A,3326.9307,N,11738.2734,W,55.70,129.20,140210,,*26
$GPRMC,222401.5,A,3326.9048,N,11738.2301,W,55.90,125.40,140210,,*23
$GPRMC,222404.5,A,3326.8790,N,11738.1839,W,56.70,122.50,140210,,*2D
$GPRMC,222407.5,A,3326.8519,N,11738.1324,W,60.10,121.80,140210,,*27
$GPRMC,222410.5,A,3326.8246,N,11738.0781,W,62.20,121.30,140210,,*2C
$GPRMC,222413.5,A,3326.7979,N,11738.0246,W,62.70,120.80,140210,,*26
$GPRMC,222416.5,A,3326.7713,N,11737.9717,W,62.00,121.10,140210,,*29
$GPRMC,222419.5,A,3326.7429,N,11737.9199,W,65.10,126.60,140210,,*2A
$GPRMC,222422.5,A,3326.7094,N,11737.8709,W,63.10,130.80,140210,,*21
$GPRMC,222425.5,A,3326.6747,N,11737.8283,W,61.30,134.00,140210,,*25
$GPRMC,222428.5,A,3326.6360,N,11737.7836,W,63.10,135.00,140210,,*23
$GPRMC,222431.5,A,3326.5987,N,11737.7386,W,62.90,135.10,140210,,*23
$GPRMC,222434.5,A,3326.5616,N,11737.6952,W,61.90,135.50,140210,,*24
$GPRMC,222437.5,A,3326.5244,N,11737.6526,W,61.70,135.60,140210,,*26
$GPRMC,222440.5,A,3326.4906,N,11737.6102,W,60.40,133.80,140210,,*22
$GPRMC,222443.5,A,3326.4568,N,11737.5639,W,61.30,129.80,140210,,*24
$GPRMC,222446.5,A,3326.4271,N,11737.5157,W,60.70,125.30,140210,,*23
$GPRMC,222449.5,A,3326.3969,N,11737.4631,W,62.10,124.10,140210,,*28
$GPRMC,222452.5,A,3326.3694,N,11737.4144,W,60.70,123.70,140210,,*2F
$GPRMC,222455.5,A,3326.3411,N,11737.3617,W,61.90,123.70,140210,,*2E
$GPRMC,222458.5,A,3326.3123,N,11737.3107,W,62.20,123.50,140210,,*2B
$GPRMC,222501.5,A,3326.2841,N,11737.2603,W,62.00,123.70,140210,,*28
$GPRMC,222504.5,A,3326.2549,N,11737.2068,W,62.30,125.40,140210,,*25
$GPRMC,222507.5,A,3326.2225,N,11737.1605,W,60.90,131.80,140210,,*24
$GPRMC,222510.5,A,3326.1869,N,11737.1187,W,60.20,137.50,140210,,*2E
$GPRMC,222513.5,A,3326.1477,N,11737.0840,W,59.50,144.10,140210,,*20
$GPRMC,222516.5,A,3326.1058,N,11737.0511,W,58.70,148.80,140210,,*23
$GPRMC,222519.5,A,3326.0608,N,11737.0223,W,59.10,150.90,140210,,*27
$GPRMC,222522.5,A,3326.0165,N,11736.9922,W,61.10,150.40,140210,,*27
$GPRMC,222525.5,A,3325.9702,N,11736.9636,W,62.00,151.70,140210,,*27
$GPRMC,222528.5,A,3325.9277,N,11736.9305,W,60.60,146.40,140210,,*29
$GPRMC,222531.5,A,3325.8859,N,11736.8930,W,61.30,141.30,140210,,*2F
$GPRMC,222534.5,A,3325.8494,N,11736.8504,W,61.10,135.00,140210,,*2E
$GPRMC,222537.5,A,3325.8140,N,11736.8064,W,60.40,133.70,140210,,*27
$GPRMC,222540.5,A,3325.7783,N,11736.7636,W,60.30,136.10,140210,,*2B
$GPRMC,222543.5,A,3325.7399,N,11736.7252,W,59.70,140.40,140210,,*2B
$GPRMC,222546.5,A,3325.6942,N,11736.6865,W,62.70,145.90,140210,,*2C
$GPRMC,222549.5,A,3325.6509,N,11736.6530,W,64.50,148.60,140210,,*2B
$GPRMC,222552.5,A,3325.6045,N,11736.6213,W,65.10,150.10,140210,,*21
$GPRMC,222555.5,A,3325.5558,N,11736.5887,W,66.40,150.50,140210,,*2A
$GPRMC,222558.5,A,3325.5052,N,11736.5524,W,68.50,149.70,140210,,*29
$GPRMC,222601.5,A,3325.4569,N,11736.5216,W,67.30,152.90,140210,,*21
$GPRMC,222604.5,A,3325.4033,N,11736.4949,W,68.60,158.30,140210,,*24
$GPRMC,222607.5,A,3325.3497,N,11736.4706,W,69.00,157.50,140210,,*21
$GPRMC,222610.5,A,3325.2976,N,11736.4427,W,68.50,154.00,140210,,*26
$GPRMC,222613.5,A,3325.2487,N,11736.4092,W,67.10,148.60,140210,,*2C
$GPRMC,222616.5,A,3325.2017,N,11736.3692,W,68.80,143.90,140210,,*27
$GPRMC,222619.5,A,3325.1545,N,11736.3275,W,68.90,144.50,140210,,*2E
$GPRMC,222622.5,A,3325.1064,N,11736.2928,W,66.30,152.80,140210,,*2C
$GPRMC,222625.5,A,3325.0563,N,11736.2653,W,65.70,156.20,140210,,*22
$GPRMC,222628.5,A,3325.0050,N,11736.2398,W,67.40,157.10,140210,,*2B
$GPRMC,222631.5,A,3324.9524,N,11736.2143,W,68.90,157.20,140210,,*28
$GPRMC,222634.5,A,3324.8994,N,11736.1880,W,69.40,157.20,140210,,*22
$GPRMC,222637.5,A,3324.8463,N,11736.1617,W,68.90,157.40,140210,,*2E
$GPRMC,222640.5,A,3324.7934,N,11736.1353,W,68.70,157.10,140210,,*20
$GPRMC,222643.5,A,3324.7402,N,11736.1086,W,69.30,157.30,140210,,*27
$GPRMC,222646.5,A,3324.6866,N,11736.0821,W,69.90,157.40,140210,,*24
$GPRMC,222649.5,A,3324.6319,N,11736.0544,W,71.70,157.20,140210,,*27
$GPRMC,222652.5,A,3324.5765,N,11736.0257,W,72.50,157.00,140210,,*27
$GPRMC,222655.5,A,3324.5204,N,11735.9973,W,73.20,157.10,140210,,*22
$GPRMC,222658.5,A,3324.4638,N,11735.9689,W,73.40,157.10,140210,,*29
$GPRMC,222701.5,A,3324.4071,N,11735.9404,W,73.60,157.20,140210,,*29
$GPRMC,222704.5,A,3324.3506,N,11735.9123,W,73.00,157.10,140210,,*2B
$GPRMC,222707.5,A,3324.2947,N,11735.8841,W,71.90,157.30,140210,,*25
$GPRMC,222710.5,A,3324.2407,N,11735.8568,W,69.80,157.10,140210,,*26
$GPRMC,222713.5,A,3324.1883,N,11735.8300,W,68.50,156.90,140210,,*2B
$GPRMC,222716.5,A,3324.1358,N,11735.8040,W,66.80,157.00,140210,,*2F
$GPRMC,222719.5,A,3324.0839,N,11735.7778,W,67.50,157.40,140210,,*26
$GPRMC,222722.5,A,3324.0310,N,11735.7526,W,68.60,157.20,140210,,*2D
$GPRMC,222725.5,A,3323.9779,N,11735.7264,W,70.30,157.20,140210,,*22
$GPRMC,222728.5,A,3323.9234,N,11735.6986,W,71.70,157.00,140210,,*22
$GPRMC,222731.5,A,3323.8687,N,11735.6706,W,71.70,156.80,140210,,*28
$GPRMC,222734.5,A,3323.8146,N,11735.6414,W,70.80,155.10,140210,,*23
$GPRMC,222737.5,A,3323.7630,N,11735.6109,W,68.90,153.00,140210,,*2F
$GPRMC,222740.5,A,3323.7126,N,11735.5805,W,66.90,152.10,140210,,*27
$GPRMC,222743.5,A,3323.6647,N,11735.5483,W,66.40,150.50,140210,,*2C
$GPRMC,222746.5,A,3323.6159,N,11735.5137,W,67.80,149.10,140210,,*2A
$GPRMC,222749.5,A,3323.5679,N,11735.4771,W,68.90,147.50,140210,,*22
$GPRMC,222752.5,A,3323.5201,N,11735.4398,W,69.00,147.40,140210,,*29
$GPRMC,222755.5,A,3323.4675,N,11735.3978,W,71.30,146.80,140210,,*2C
$GPRMC,222758.5,A,3323.4187,N,11735.3598,W,70.40,147.20,140210,,*24
$GPRMC,222801.5,A,3323.3710,N,11735.3223,W,69.30,146.60,140210,,*25
$GPRMC,222804.5,A,3323.3242,N,11735.2838,W,69.20,143.30,140210,,*22
$GPRMC,222807.5,A,3323.2805,N,11735.2409,W,68.50,139.00,140210,,*2F
$GPRMC,222810.5,A,3323.2387,N,11735.1913,W,69.90,134.30,140210,,*2E
$GPRMC,222813.5,A,3323.2049,N,11735.1423,W,66.60,129.00,140210,,*2D
$GPRMC,222816.5,A,3323.1733,N,11735.0909,W,64.80,124.90,140210,,*2D
$GPRMC,222819.5,A,3323.1441,N,11735.0329,W,64.90,120.10,140210,,*21
$GPRMC,222822.5,A,3323.1198,N,11734.9749,W,65.00,115.90,140210,,*24
$GPRMC,222825.5,A,3323.0974,N,11734.9169,W,64.60,115.10,140210,,*23
$GPRMC,222828.5,A,3323.0763,N,11734.8594,W,64.40,114.30,140210,,*20
$GPRMC,222831.5,A,3323.0567,N,11734.8007,W,64.30,113.30,140210,,*21
$GPRMC,222834.5,A,3323.0324,N,11734.7411,W,65.70,114.70,140210,,*2F
$GPRMC,222837.5,A,3323.0104,N,11734.6815,W,65.50,114.80,140210,,*28
$GPRMC,222840.5,A,3322.9852,N,11734.6220,W,64.70,115.20,140210,,*2E
$GPRMC,222843.5,A,3322.9609,N,11734.5627,W,65.50,115.50,140210,,*29
$GPRMC,222846.5,A,3322.9378,N,11734.5043,W,65.60,115.00,140210,,*2D
$GPRMC,222849.5,A,3322.9134,N,11734.4428,W,66.80,115.20,140210,,*2F
$GPRMC,222852.5,A,3322.8914,N,11734.3866,W,65.40,114.60,140210,,*25
$GPRMC,222855.5,A,3322.8657,N,11734.3262,W,66.80,115.30,140210,,*2F
$GPRMC,222858.5,A,3322.8419,N,11734.2648,W,66.80,115.10,140210,,*25
$GPRMC,222901.5,A,3322.8190,N,11734.2054,W,66.00,114.80,140210,,*27
$GPRMC,222904.5,A,3322.7970,N,11734.1455,W,66.20,114.40,140210,,*23
$GPRMC,222907.5,A,3322.7740,N,11734.0841,W,66.90,114.40,140210,,*2E
$GPRMC,222910.5,A,3322.7493,N,11734.0219,W,67.90,114.70,140210,,*20
$GPRMC,222913.5,A,3322.7230,N,11733.9617,W,67.80,117.70,140210,,*2A
$GPRMC,222916.5,A,3322.6934,N,11733.9068,W,65.70,124.60,140210,,*23
$GPRMC,222919.5,A,3322.6582,N,11733.8568,W,66.00,131.40,140210,,*2B
$GPRMC,222922.5,A,3322.6179,N,11733.8102,W,65.80,136.30,140210,,*20
$GPRMC,222925.5,A,3322.5761,N,11733.7651,W,66.70,136.90,140210,,*23
$GPRMC,222928.5,A,3322.5379,N,11733.7197,W,66.70,134.40,140210,,*21
$GPRMC,222931.5,A,3322.5023,N,11733.6703,W,65.70,129.60,140210,,*22
$GPRMC,222934.5,A,3322.4698,N,11733.6157,W,66.60,124.10,140210,,*2F
$GPRMC,222937.5,A,3322.4388,N,11733.5571,W,68.10,122.80,140210,,*2D
$GPRMC,222940.5,A,3322.4086,N,11733.5011,W,68.00,123.00,140210,,*2B
$GPRMC,222943.5,A,3322.3775,N,11733.4437,W,68.30,123.00,140210,,*26
$GPRMC,222946.5,A,3322.3452,N,11733.3854,W,69.10,123.20,140210,,*2A
$GPRMC,222949.5,A,3322.3143,N,11733.3271,W,69.30,122.80,140210,,*24
$GPRMC,222952.5,A,3322.2841,N,11733.2708,W,68.10,122.80,140210,,*2D
$GPRMC,222955.5,A,3322.2528,N,11733.2147,W,67.60,122.90,140210,,*2C
$GPRMC,222958.5,A,3322.2222,N,11733.1588,W,67.60,123.00,140210,,*20
$GPRMC,223001.5,A,3322.1904,N,11733.0995,W,69.30,122.70,140210,,*24
$GPRMC,223004.5,A,3322.1572,N,11733.0404,W,70.00,123.10,140210,,*25
$GPRMC,223007.5,A,3322.1263,N,11732.9830,W,69.60,123.10,140210,,*2C
$GPRMC,223010.5,A,3322.0956,N,11732.9262,W,69.40,122.90,140210,,*20
$GPRMC,223013.5,A,3322.0638,N,11732.8667,W,70.00,123.10,140210,,*21
$GPRMC,223016.5,A,3322.0299,N,11732.8116,W,69.10,126.90,140210,,*2E
$GPRMC,223019.5,A,3321.9939,N,11732.7591,W,68.60,129.00,140210,,*2E
$GPRMC,223022.5,A,3321.9579,N,11732.7055,W,68.80,128.70,140210,,*2B
$GPRMC,223025.5,A,3321.9224,N,11732.6531,W,68.50,128.90,140210,,*26
$GPRMC,223028.5,A,3321.8855,N,11732.5995,W,68.90,129.10,140210,,*22
$GPRMC,223031.5,A,3321.8478,N,11732.5474,W,69.00,129.60,140210,,*24
$GPRMC,223034.5,A,3321.8135,N,11732.4977,W,68.90,129.10,140210,,*2D
$GPRMC,223037.5,A,3321.7766,N,11732.4437,W,69.40,129.20,140210,,*27
$GPRMC,223040.5,A,3321.7405,N,11732.3907,W,70.00,129.10,140210,,*27
$GPRMC,223043.5,A,3321.7033,N,11732.3352,W,70.50,129.00,140210,,*2B
$GPRMC,223046.5,A,3321.6656,N,11732.2800,W,70.90,129.40,140210,,*2F
$GPRMC,223049.5,A,3321.6258,N,11732.2230,W,72.50,129.30,140210,,*2A
$GPRMC,223052.5,A,3321.5916,N,11732.1729,W,69.00,129.10,140210,,*21
$GPRMC,223055.5,A,3321.5578,N,11732.1230,W,67.20,129.10,140210,,*23
$GPRMC,223058.5,A,3321.5213,N,11732.0705,W,67.50,129.30,140210,,*23
$GPRMC,223101.5,A,3321.4853,N,11732.0174,W,68.10,128.90,140210,,*21
$GPRMC,223104.5,A,3321.4476,N,11731.9630,W,69.20,129.40,140210,,*2C
$GPRMC,223107.5,A,3321.4111,N,11731.9105,W,68.70,129.30,140210,,*29
$GPRMC,223110.5,A,3321.3767,N,11731.8598,W,67.30,129.40,140210,,*22
$GPRMC,223113.5,A,3321.3412,N,11731.8075,W,67.20,129.40,140210,,*27
$GPRMC,223116.5,A,3321.3067,N,11731.7567,W,66.60,129.20,140210,,*2E
$GPRMC,223119.5,A,3321.2671,N,11731.7009,W,68.90,129.70,140210,,*28
$GPRMC,223122.5,A,3321.2363,N,11731.6552,W,65.90,129.10,140210,,*27
$GPRMC,223125.5,A,3321.2004,N,11731.6037,W,66.70,129.40,140210,,*2C
$GPRMC,223128.5,A,3321.1646,N,11731.5523,W,67.40,129.40,140210,,*23
$GPRMC,223131.5,A,3321.1311,N,11731.5008,W,66.60,128.80,140210,,*2E
$GPRMC,223134.5,A,3321.0946,N,11731.4488,W,67.10,129.10,140210,,*21
$GPRMC,223137.5,A,3321.0610,N,11731.3983,W,66.30,129.00,140210,,*2D
$GPRMC,223140.5,A,3321.0234,N,11731.3450,W,67.40,129.50,140210,,*2F
$GPRMC,223143.5,A,3320.9894,N,11731.2947,W,67.00,129.00,140210,,*2F
$GPRMC,223146.5,A,3320.9532,N,11731.2418,W,68.10,129.10,140210,,*23
$GPRMC,223149.5,A,3320.9169,N,11731.1896,W,68.20,129.30,140210,,*2E
$GPRMC,223152.5,A,3320.8812,N,11731.1356,W,68.60,129.20,140210,,*22
$GPRMC,223155.5,A,3320.8456,N,11731.0851,W,67.50,130.20,140210,,*20
$GPRMC,223158.5,A,3320.8090,N,11731.0351,W,66.00,130.60,140210,,*28
$GPRMC,223201.5,A,3320.7718,N,11730.9835,W,66.70,130.70,140210,,*28
$GPRMC,223204.5,A,3320.7368,N,11730.9345,W,65.70,130.70,140210,,*21
$GPRMC,223207.5,A,3320.6990,N,11730.8855,W,66.20,131.40,140210,,*21
$GPRMC,223210.5,A,3320.6633,N,11730.8353,W,66.20,130.60,140210,,*2F
$GPRMC,223213.5,A,3320.6272,N,11730.7854,W,66.00,130.70,140210,,*2D
$GPRMC,223216.5,A,3320.5914,N,11730.7361,W,66.10,130.70,140210,,*2C
$GPRMC,223219.5,A,3320.5515,N,11730.6813,W,68.30,130.80,140210,,*22
$GPRMC,223222.5,A,3320.5153,N,11730.6323,W,68.20,131.30,140210,,*2F
$GPRMC,223225.5,A,3320.4770,N,11730.5804,W,69.10,131.00,140210,,*22
$GPRMC,223228.5,A,3320.4387,N,11730.5279,W,69.30,130.90,140210,,*29
$GPRMC,223231.5,A,3320.4000,N,11730.4744,W,69.50,131.00,140210,,*29
$GPRMC,223234.5,A,3320.3633,N,11730.4229,W,68.50,130.60,140210,,*25
$GPRMC,223237.5,A,3320.3269,N,11730.3730,W,67.70,131.10,140210,,*2C
$GPRMC,223240.5,A,3320.2914,N,11730.3230,W,67.00,130.90,140210,,*27
$GPRMC,223243.5,A,3320.2558,N,11730.2743,W,66.20,131.10,140210,,*2A
$GPRMC,223246.5,A,3320.2217,N,11730.2273,W,66.20,130.60,140210,,*23
$GPRMC,223249.5,A,3320.1845,N,11730.1764,W,66.70,130.60,140210,,*27
$GPRMC,223252.5,A,3320.1480,N,11730.1257,W,66.20,130.70,140210,,*29
$GPRMC,223255.5,A,3320.1107,N,11730.0763,W,66.40,131.20,140210,,*25
$GPRMC,223258.5,A,3320.0732,N,11730.0238,W,68.20,130.90,140210,,*20
$GPRMC,223301.5,A,3320.0360,N,11729.9714,W,68.30,130.80,140210,,*24
$GPRMC,223304.5,A,3319.9970,N,11729.9200,W,68.70,131.10,140210,,*25
$GPRMC,223307.5,A,3319.9581,N,11729.8682,W,69.20,131.30,140210,,*2D
$GPRMC,223310.5,A,3319.9206,N,11729.8156,W,69.20,130.90,140210,,*26
$GPRMC,223313.5,A,3319.8853,N,11729.7658,W,67.90,130.70,140210,,*23
$GPRMC,223316.5,A,3319.8492,N,11729.7144,W,67.80,130.60,140210,,*2D
$GPRMC,223319.5,A,3319.8107,N,11729.6634,W,68.40,131.10,140210,,*2F
$GPRMC,223322.5,A,3319.7705,N,11729.6095,W,70.70,130.90,140210,,*22
$GPRMC,223325.5,A,3319.7318,N,11729.5562,W,70.70,130.80,140210,,*22
$GPRMC,223328.5,A,3319.6946,N,11729.5049,W,69.80,131.20,140210,,*2F
$GPRMC,223331.5,A,3319.6560,N,11729.4524,W,69.70,131.20,140210,,*2F
$GPRMC,223334.5,A,3319.6185,N,11729.4000,W,69.10,130.80,140210,,*2B
$GPRMC,223337.5,A,3319.5807,N,11729.3492,W,68.80,131.10,140210,,*20
$GPRMC,223340.5,A,3319.5412,N,11729.2952,W,69.40,131.00,140210,,*24
$GPRMC,223343.5,A,3319.5035,N,11729.2437,W,69.00,130.90,140210,,*24
$GPRMC,223346.5,A,3319.4639,N,11729.1895,W,70.40,130.80,140210,,*20
$GPRMC,223349.5,A,3319.4287,N,11729.1398,W,68.50,130.70,140210,,*2F
$GPRMC,223352.5,A,3319.3897,N,11729.0885,W,68.80,133.40,140210,,*22
$GPRMC,223355.5,A,3319.3457,N,11729.0408,W,67.90,140.10,140210,,*23
$GPRMC,223358.5,A,3319.2976,N,11729.0071,W,67.70,150.10,140210,,*24
$GPRMC,223401.5,A,3319.2465,N,11728.9799,W,67.80,157.30,140210,,*23
$GPRMC,223404.5,A,3319.1944,N,11728.9625,W,65.60,167.00,140210,,*21
$GPRMC,223407.5,A,3319.1405,N,11728.9515,W,65.70,172.70,140210,,*28
$GPRMC,223410.5,A,3319.0853,N,11728.9464,W,66.50,175.70,140210,,*21
$GPRMC,223413.5,A,3319.0303,N,11728.9412,W,66.60,175.20,140210,,*2B
$GPRMC,223416.5,A,3318.9757,N,11728.9359,W,65.50,175.70,140210,,*2E
$GPRMC,223419.5,A,3318.9218,N,11728.9312,W,64.70,174.80,140210,,*2D
$GPRMC,223422.5,A,3318.8707,N,11728.9206,W,63.20,167.30,140210,,*20
$GPRMC,223425.5,A,3318.8201,N,11728.9013,W,63.20,160.40,140210,,*22
$GPRMC,223428.5,A,3318.7698,N,11728.8734,W,65.70,152.70,140210,,*26
$GPRMC,223431.5,A,3318.7226,N,11728.8384,W,66.30,143.90,140210,,*29
$GPRMC,223434.5,A,3318.6798,N,11728.7962,W,66.30,137.90,140210,,*23
$GPRMC,223437.5,A,3318.6403,N,11728.7493,W,65.70,133.90,140210,,*21
$GPRMC,223440.5,A,3318.6016,N,11728.7012,W,66.30,134.20,140210,,*27
$GPRMC,223443.5,A,3318.5642,N,11728.6547,W,64.30,134.40,140210,,*20
$GPRMC,223446.5,A,3318.5261,N,11728.6094,W,63.70,134.70,140210,,*2B
$GPRMC,223449.5,A,3318.4890,N,11728.5649,W,62.80,135.00,140210,,*2C
$GPRMC,223452.5,A,3318.4524,N,11728.5207,W,63.00,134.60,140210,,*24
$GPRMC,223455.5,A,3318.4160,N,11728.4747,W,64.20,134.70,140210,,*23
$GPRMC,223458.5,A,3318.3789,N,11728.4307,W,64.60,134.80,140210,,*23
$GPRMC,223501.5,A,3318.3408,N,11728.3842,W,66.00,134.40,140210,,*21
$GPRMC,223504.5,A,3318.3021,N,11728.3371,W,66.00,134.20,140210,,*26
$GPRMC,223507.5,A,3318.2620,N,11728.2878,W,68.60,134.90,140210,,*23
$GPRMC,223510.5,A,3318.2216,N,11728.2387,W,68.70,134.40,140210,,*23
$GPRMC,223513.5,A,3318.1820,N,11728.1908,W,67.20,134.60,140210,,*2A
$GPRMC,223516.5,A,3318.1423,N,11728.1438,W,66.50,134.50,140210,,*2B
$GPRMC,223519.5,A,3318.1035,N,11728.0961,W,67.50,134.10,140210,,*22
$GPRMC,223522.5,A,3318.0647,N,11728.0486,W,66.40,134.10,140210,,*2C
$GPRMC,223525.5,A,3318.0258,N,11728.0006,W,66.90,134.20,140210,,*23
$GPRMC,223528.5,A,3317.9882,N,11727.9534,W,66.10,134.40,140210,,*29
$GPRMC,223531.5,A,3317.9493,N,11727.9084,W,65.30,135.30,140210,,*24
$GPRMC,223534.5,A,3317.9102,N,11727.8629,W,65.20,134.90,140210,,*26
$GPRMC,223537.5,A,3317.8719,N,11727.8162,W,66.40,134.50,140210,,*29
$GPRMC,223540.5,A,3317.8332,N,11727.7678,W,67.50,133.80,140210,,*2D
$GPRMC,223543.5,A,3317.7929,N,11727.7206,W,68.30,134.80,140210,,*22
$GPRMC,223546.5,A,3317.7526,N,11727.6712,W,70.50,134.30,140210,,*21
$GPRMC,223549.5,A,3317.7104,N,11727.6201,W,71.20,134.30,140210,,*2B
$GPRMC,223552.5,A,3317.6695,N,11727.5701,W,70.50,135.30,140210,,*2E
$GPRMC,223555.5,A,3317.6249,N,11727.5245,W,69.20,142.30,140210,,*26
$GPRMC,223558.5,A,3317.5775,N,11727.4871,W,67.40,147.40,140210,,*24
$GPRMC,223601.5,A,3317.5313,N,11727.4510,W,65.40,147.60,140210,,*25
$GPRMC,223604.5,A,3317.4859,N,11727.4175,W,63.80,147.40,140210,,*2B
$GPRMC,223607.5,A,3317.4412,N,11727.3826,W,63.70,147.40,140210,,*2C
$GPRMC,223610.5,A,3317.3968,N,11727.3487,W,63.70,147.40,140210,,*2A
$GPRMC,223613.5,A,3317.3510,N,11727.3144,W,65.30,147.30,140210,,*25
$GPRMC,223616.5,A,3317.3052,N,11727.2803,W,65.80,147.70,140210,,*27
$GPRMC,223619.5,A,3317.2578,N,11727.2437,W,66.70,147.80,140210,,*2C
$GPRMC,223622.5,A,3317.2113,N,11727.2074,W,67.00,147.40,140210,,*24
$GPRMC,223625.5,A,3317.1629,N,11727.1694,W,68.30,147.50,140210,,*28
$GPRMC,223628.5,A,3317.1147,N,11727.1328,W,68.50,147.20,140210,,*29
$GPRMC,223631.5,A,3317.0668,N,11727.0959,W,68.50,147.80,140210,,*2D
$GPRMC,223634.5,A,3317.0182,N,11727.0590,W,67.80,147.30,140210,,*2B
$GPRMC,223637.5,A,3316.9703,N,11727.0233,W,67.90,147.40,140210,,*27
$GPRMC,223640.5,A,3316.9225,N,11726.9868,W,67.80,147.70,140210,,*28
$GPRMC,223643.5,A,3316.8745,N,11726.9510,W,68.00,147.80,140210,,*23
$GPRMC,223646.5,A,3316.8260,N,11726.9147,W,69.50,147.40,140210,,*2A
$GPRMC,223649.5,A,3316.7774,N,11726.8783,W,69.20,147.40,140210,,*22
$GPRMC,223652.5,A,3316.7286,N,11726.8413,W,69.30,146.80,140210,,*26
$GPRMC,223655.5,A,3316.6802,N,11726.8043,W,69.10,147.30,140210,,*2F
$GPRMC,223658.5,A,3316.6318,N,11726.7678,W,67.70,147.50,140210,,*2D
$GPRMC,223701.5,A,3316.5845,N,11726.7321,W,66.60,147.40,140210,,*28
$GPRMC,223704.5,A,3316.5376,N,11726.6973,W,66.20,147.40,140210,,*2E
$GPRMC,223707.5,A,3316.4908,N,11726.6621,W,65.90,147.80,140210,,*23
$GPRMC,223710.5,A,3316.4443,N,11726.6273,W,64.70,147.60,140210,,*25
$GPRMC,223713.5,A,3316.3992,N,11726.5927,W,64.10,146.60,140210,,*2E
$GPRMC,223716.5,A,3316.3570,N,11726.5544,W,63.00,140.80,140210,,*2C
$GPRMC,223719.5,A,3316.3184,N,11726.5108,W,63.70,133.60,140210,,*2D
$GPRMC,223722.5,A,3316.2820,N,11726.4626,W,65.20,131.80,140210,,*26
$GPRMC,223725.5,A,3316.2457,N,11726.4129,W,67.20,131.20,140210,,*2D
$GPRMC,223728.5,A,3316.2089,N,11726.3629,W,67.20,131.50,140210,,*20
$GPRMC,223731.5,A,3316.1716,N,11726.3124,W,68.40,131.30,140210,,*2F
$GPRMC,223734.5,A,3316.1343,N,11726.2613,W,68.40,131.10,140210,,*2E
$GPRMC,223737.5,A,3316.0964,N,11726.2102,W,68.90,131.50,140210,,*2D
$GPRMC,223740.5,A,3316.0583,N,11726.1595,W,69.10,131.20,140210,,*2F
$GPRMC,223743.5,A,3316.0208,N,11726.1075,W,69.20,130.90,140210,,*2A
$GPRMC,223746.5,A,3315.9832,N,11726.0556,W,69.20,131.20,140210,,*29
$GPRMC,223749.5,A,3315.9440,N,11726.0041,W,68.80,131.10,140210,,*24
$GPRMC,223752.5,A,3315.9068,N,11725.9529,W,68.90,131.60,140210,,*27
$GPRMC,223755.5,A,3315.8664,N,11725.9043,W,67.50,135.60,140210,,*25
$GPRMC,223758.5,A,3315.8210,N,11725.8630,W,67.70,145.80,140210,,*27
$GPRMC,223801.5,A,3315.7737,N,11725.8253,W,67.50,146.20,140210,,*21
$GPRMC,223804.5,A,3315.7268,N,11725.7877,W,67.80,146.50,140210,,*22
$GPRMC,223807.5,A,3315.6794,N,11725.7499,W,68.30,146.40,140210,,*2F
$GPRMC,223810.5,A,3315.6318,N,11725.7124,W,68.60,146.30,140210,,*28
$GPRMC,223813.5,A,3315.5838,N,11725.6743,W,69.10,146.30,140210,,*21
$GPRMC,223816.5,A,3315.5359,N,11725.6362,W,69.60,146.30,140210,,*28
$GPRMC,223819.5,A,3315.4872,N,11725.5979,W,69.80,146.30,140210,,*29
$GPRMC,223822.5,A,3315.4385,N,11725.5596,W,69.90,146.40,140210,,*29
$GPRMC,223825.5,A,3315.3902,N,11725.5213,W,68.70,146.30,140210,,*2E
$GPRMC,223828.5,A,3315.3431,N,11725.4837,W,68.20,146.20,140210,,*27
$GPRMC,223831.5,A,3315.2960,N,11725.4466,W,68.80,146.20,140210,,*25
$GPRMC,223834.5,A,3315.2478,N,11725.4084,W,69.10,146.00,140210,,*26
$GPRMC,223837.5,A,3315.2001,N,11725.3706,W,68.80,146.10,140210,,*2C
$GPRMC,223840.5,A,3315.1522,N,11725.3326,W,68.60,146.10,140210,,*23
$GPRMC,223843.5,A,3315.1053,N,11725.2952,W,67.00,146.30,140210,,*20
$GPRMC,223846.5,A,3315.0597,N,11725.2583,W,66.60,146.20,140210,,*2F
$GPRMC,223849.5,A,3315.0133,N,11725.2210,W,66.60,146.30,140210,,*26
$GPRMC,223852.5,A,3314.9677,N,11725.1844,W,66.10,146.30,140210,,*2C
$GPRMC,223855.5,A,3314.9211,N,11725.1476,W,66.40,146.20,140210,,*26
$GPRMC,223858.5,A,3314.8732,N,11725.1130,W,67.10,148.80,140210,,*29
$GPRMC,223901.5,A,3314.8223,N,11725.0831,W,67.10,157.30,140210,,*2D
$GPRMC,223904.5,A,3314.7692,N,11725.0588,W,67.60,159.00,140210,,*2C
$GPRMC,223907.5,A,3314.7163,N,11725.0352,W,69.40,159.30,140210,,*28
$GPRMC,223910.5,A,3314.6616,N,11725.0110,W,70.10,159.70,140210,,*27
$GPRMC,223913.5,A,3314.6070,N,11724.9869,W,69.60,158.70,140210,,*23
$GPRMC,223916.5,A,3314.5547,N,11724.9560,W,70.60,151.30,140210,,*25
$GPRMC,223919.5,A,3314.5067,N,11724.9176,W,69.80,144.60,140210,,*29
$GPRMC,223922.5,A,3314.4628,N,11724.8733,W,69.70,137.30,140210,,*25
$GPRMC,223925.5,A,3314.4239,N,11724.8225,W,67.70,128.00,140210,,*27
$GPRMC,223928.5,A,3314.3899,N,11724.7690,W,66.80,126.00,140210,,*28
$GPRMC,223931.5,A,3314.3594,N,11724.7147,W,64.70,124.40,140210,,*26
$GPRMC,223934.5,A,3314.3300,N,11724.6626,W,62.90,123.90,140210,,*2B
$GPRMC,223937.5,A,3314.3003,N,11724.6115,W,62.30,125.60,140210,,*2C
$GPRMC,223940.5,A,3314.2671,N,11724.5635,W,63.00,130.60,140210,,*2E
$GPRMC,223943.5,A,3314.2305,N,11724.5178,W,63.80,136.00,140210,,*2D
$GPRMC,223946.5,A,3314.1917,N,11724.4741,W,64.50,136.60,140210,,*23
$GPRMC,223949.5,A,3314.1523,N,11724.4301,W,65.10,136.60,140210,,*22
$GPRMC,223952.5,A,3314.1128,N,11724.3854,W,65.10,136.00,140210,,*2D
$GPRMC,223955.5,A,3314.0725,N,11724.3411,W,65.80,137.10,140210,,*24
$GPRMC,223958.5,A,3314.0328,N,11724.2970,W,65.00,136.90,140210,,*2A
$GPRMC,224001.5,A,3313.9940,N,11724.2528,W,64.40,136.70,140210,,*28
$GPRMC,224004.5,A,3313.9555,N,11724.2090,W,63.50,136.70,140210,,*25
$GPRMC,224007.5,A,3313.9169,N,11724.1661,W,63.40,136.70,140210,,*27
$GPRMC,224010.5,A,3313.8779,N,11724.1227,W,63.20,136.90,140210,,*29
$GPRMC,224013.5,A,3313.8391,N,11724.0799,W,63.20,137.00,140210,,*21
$GPRMC,224016.5,A,3313.8007,N,11724.0385,W,63.10,137.70,140210,,*25
$GPRMC,224019.5,A,3313.7631,N,11723.9958,W,62.80,137.00,140210,,*2D
$GPRMC,224022.5,A,3313.7247,N,11723.9533,W,63.60,137.80,140210,,*26
$GPRMC,224025.5,A,3313.6860,N,11723.9111,W,63.10,137.00,140210,,*24
$GPRMC,224028.5,A,3313.6470,N,11723.8689,W,63.30,138.00,140210,,*2E
$GPRMC,224031.5,A,3313.6079,N,11723.8248,W,64.80,136.50,140210,,*25
$GPRMC,224034.5,A,3313.5673,N,11723.7796,W,66.90,137.30,140210,,*22
$GPRMC,224037.5,A,3313.5261,N,11723.7342,W,67.40,137.00,140210,,*24
$GPRMC,224040.5,A,3313.4858,N,11723.6886,W,66.80,136.70,140210,,*2C
$GPRMC,224043.5,A,3313.4448,N,11723.6426,W,67.60,136.90,140210,,*25
$GPRMC,224046.5,A,3313.4019,N,11723.5988,W,67.90,140.80,140210,,*25
$GPRMC,224049.5,A,3313.3565,N,11723.5596,W,67.90,148.70,140210,,*27
$GPRMC,224052.5,A,3313.3061,N,11723.5286,W,68.40,156.60,140210,,*26
$GPRMC,224055.5,A,3313.2520,N,11723.5067,W,69.00,164.40,140210,,*2B
$GPRMC,224058.5,A,3313.1962,N,11723.4893,W,69.70,166.00,140210,,*2C
$GPRMC,224101.5,A,3313.1392,N,11723.4731,W,70.20,165.90,140210,,*24
$GPRMC,224104.5,A,3313.0823,N,11723.4566,W,69.90,165.90,140210,,*22
$GPRMC,224107.5,A,3313.0267,N,11723.4402,W,68.10,166.00,140210,,*2B
$GPRMC,224110.5,A,3312.9730,N,11723.4239,W,65.40,165.90,140210,,*2E
$GPRMC,224113.5,A,3312.9206,N,11723.4077,W,64.30,165.50,140210,,*2F
$GPRMC,224116.5,A,3312.8709,N,11723.3895,W,62.50,161.20,140210,,*21
$GPRMC,224119.5,A,3312.8240,N,11723.3652,W,59.90,153.40,140210,,*20
$GPRMC,224122.5,A,3312.7803,N,11723.3378,W,59.50,152.00,140210,,*2E
$GPRMC,224125.5,A,3312.7368,N,11723.3103,W,57.10,152.10,140210,,*2A
$GPRMC,224128.5,A,3312.6953,N,11723.2843,W,55.20,152.00,140210,,*28
$GPRMC,224131.5,A,3312.6550,N,11723.2590,W,55.20,152.10,140210,,*2D
$GPRMC,224134.5,A,3312.6142,N,11723.2328,W,56.40,152.50,140210,,*2B
$GPRMC,224137.5,A,3312.5721,N,11723.2069,W,57.40,152.40,140210,,*2E
$GPRMC,224140.5,A,3312.5296,N,11723.1800,W,58.60,152.10,140210,,*2B
$GPRMC,224143.5,A,3312.4860,N,11723.1527,W,59.30,152.20,140210,,*25
$GPRMC,224146.5,A,3312.4423,N,11723.1249,W,59.30,152.40,140210,,*22
$GPRMC,224149.5,A,3312.3979,N,11723.0964,W,60.30,150.80,140210,,*29
$GPRMC,224152.5,A,3312.3549,N,11723.0648,W,61.30,145.80,140210,,*28
$GPRMC,224155.5,A,3312.3136,N,11723.0278,W,61.70,140.90,140210,,*24
$GPRMC,224158.5,A,3312.2764,N,11722.9858,W,61.20,133.80,140210,,*29
$GPRMC,224201.5,A,3312.2431,N,11722.9401,W,61.30,128.70,140210,,*21
$GPRMC,224204.5,A,3312.2140,N,11722.8893,W,60.80,121.70,140210,,*22
$GPRMC,224207.5,A,3312.1898,N,11722.8367,W,60.60,116.50,140210,,*26
$GPRMC,224210.5,A,3312.1699,N,11722.7810,W,60.20,112.40,140210,,*2A
$GPRMC,224213.5,A,3312.1509,N,11722.7258,W,60.40,112.20,140210,,*25
$GPRMC,224216.5,A,3312.1317,N,11722.6707,W,60.50,111.90,140210,,*2E
$GPRMC,224219.5,A,3312.1131,N,11722.6155,W,59.90,112.30,140210,,*29
$GPRMC,224222.5,A,3312.0946,N,11722.5605,W,60.10,112.50,140210,,*2D
$GPRMC,224225.5,A,3312.0757,N,11722.5052,W,60.30,112.10,140210,,*26
$GPRMC,224228.5,A,3312.0580,N,11722.4511,W,59.70,111.70,140210,,*2B
$GPRMC,224231.5,A,3312.0386,N,11722.3960,W,60.00,112.20,140210,,*25
$GPRMC,224234.5,A,3312.0191,N,11722.3415,W,60.20,114.90,140210,,*24
$GPRMC,224237.5,A,3311.9958,N,11722.2879,W,61.30,120.20,140210,,*2B
$GPRMC,224240.5,A,3311.9678,N,11722.2359,W,62.40,126.20,140210,,*2D
$GPRMC,224243.5,A,3311.9341,N,11722.1875,W,63.00,132.00,140210,,*25
$GPRMC,224246.5,A,3311.8951,N,11722.1433,W,63.70,139.10,140210,,*29
$GPRMC,224249.5,A,3311.8540,N,11722.1042,W,63.20,142.50,140210,,*25
$GPRMC,224252.5,A,3311.8110,N,11722.0681,W,64.20,145.10,140210,,*22
$GPRMC,224255.5,A,3311.7671,N,11722.0322,W,63.90,145.20,140210,,*29
$GPRMC,224258.5,A,3311.7228,N,11721.9965,W,64.80,145.50,140210,,*2E
$GPRMC,224301.5,A,3311.6778,N,11721.9593,W,66.00,145.10,140210,,*29
$GPRMC,224304.5,A,3311.6328,N,11721.9218,W,65.80,145.40,140210,,*27
$GPRMC,224307.5,A,3311.5875,N,11721.8844,W,65.90,145.30,140210,,*20
$GPRMC,224310.5,A,3311.5420,N,11721.8464,W,66.40,145.20,140210,,*2B
$GPRMC,224313.5,A,3311.4966,N,11721.8093,W,66.20,145.40,140210,,*2A
$GPRMC,224316.5,A,3311.4512,N,11721.7716,W,67.20,145.10,140210,,*21
$GPRMC,224319.5,A,3311.4052,N,11721.7325,W,68.50,145.10,140210,,*23
$GPRMC,224322.5,A,3311.3575,N,11721.6933,W,69.30,145.10,140210,,*27
$GPRMC,224325.5,A,3311.3104,N,11721.6539,W,68.50,145.40,140210,,*26
$GPRMC,224328.5,A,3311.2630,N,11721.6147,W,69.00,145.20,140210,,*25
$GPRMC,224331.5,A,3311.2158,N,11721.5755,W,69.10,145.00,140210,,*21
$GPRMC,224334.5,A,3311.1681,N,11721.5361,W,69.70,145.10,140210,,*20
$GPRMC,224337.5,A,3311.1203,N,11721.4964,W,69.40,145.20,140210,,*23
$GPRMC,224340.5,A,3311.0728,N,11721.4565,W,69.40,144.90,140210,,*29
$GPRMC,224343.5,A,3311.0251,N,11721.4170,W,70.00,145.00,140210,,*25
$GPRMC,224346.5,A,3310.9769,N,11721.3773,W,70.30,144.90,140210,,*2F
$GPRMC,224349.5,A,3310.9286,N,11721.3374,W,70.30,145.10,140210,,*2E
$GPRMC,224352.5,A,3310.8808,N,11721.2978,W,69.70,145.20,140210,,*21
$GPRMC,224355.5,A,3310.8335,N,11721.2576,W,69.30,144.80,140210,,*2E
$GPRMC,224358.5,A,3310.7862,N,11721.2180,W,69.50,145.20,140210,,*25
$GPRMC,224401.5,A,3310.7387,N,11721.1790,W,69.20,145.40,140210,,*2B
$GPRMC,224404.5,A,3310.6917,N,11721.1396,W,68.80,144.70,140210,,*27
$GPRMC,224407.5,A,3310.6444,N,11721.1004,W,69.00,145.90,140210,,*21
$GPRMC,224410.5,A,3310.5964,N,11721.0628,W,69.60,147.20,140210,,*2D
$GPRMC,224413.5,A,3310.5471,N,11721.0254,W,70.20,147.80,140210,,*2E
$GPRMC,224416.5,A,3310.4968,N,11720.9882,W,70.50,147.50,140210,,*2C
$GPRMC,224419.5,A,3310.4469,N,11720.9510,W,69.60,148.20,140210,,*2A
$GPRMC,224422.5,A,3310.3981,N,11720.9141,W,68.40,147.80,140210,,*28
$GPRMC,224425.5,A,3310.3503,N,11720.8781,W,67.90,148.00,140210,,*27
$GPRMC,224428.5,A,3310.3027,N,11720.8421,W,67.80,147.60,140210,,*28
$GPRMC,224431.5,A,3310.2550,N,11720.8053,W,67.10,147.30,140210,,*29
$GPRMC,224434.5,A,3310.2075,N,11720.7702,W,67.30,148.60,140210,,*2A
$GPRMC,224437.5,A,3310.1595,N,11720.7350,W,67.80,149.30,140210,,*2D
$GPRMC,224440.5,A,3310.1094,N,11720.7024,W,68.30,152.70,140210,,*23
$GPRMC,224443.5,A,3310.0572,N,11720.6733,W,68.80,156.00,140210,,*24
$GPRMC,224446.5,A,3310.0038,N,11720.6462,W,68.90,156.80,140210,,*24
$GPRMC,224449.5,A,3309.9511,N,11720.6196,W,68.50,156.60,140210,,*28
$GPRMC,224452.5,A,3309.8991,N,11720.5930,W,66.90,156.90,140210,,*2D
$GPRMC,224455.5,A,3309.8482,N,11720.5669,W,65.90,156.90,140210,,*25
$GPRMC,224458.5,A,3309.7977,N,11720.5415,W,65.10,156.90,140210,,*21
$GPRMC,224501.5,A,3309.7476,N,11720.5167,W,65.20,157.00,140210,,*2B
$GPRMC,224504.5,A,3309.6968,N,11720.4912,W,66.50,156.90,140210,,*2A
$GPRMC,224507.5,A,3309.6447,N,11720.4643,W,67.50,156.70,140210,,*2D
$GPRMC,224510.5,A,3309.5933,N,11720.4379,W,66.80,156.50,140210,,*24
$GPRMC,224513.5,A,3309.5423,N,11720.4125,W,66.10,156.90,140210,,*25
$GPRMC,224516.5,A,3309.4918,N,11720.3874,W,65.60,157.00,140210,,*22
$GPRMC,224519.5,A,3309.4413,N,11720.3621,W,66.00,157.20,140210,,*22
$GPRMC,224522.5,A,3309.3908,N,11720.3365,W,66.60,157.10,140210,,*2A
$GPRMC,224525.5,A,3309.3383,N,11720.3102,W,68.30,157.10,140210,,*2C
$GPRMC,224528.5,A,3309.2855,N,11720.2827,W,67.70,154.90,140210,,*2F
$GPRMC,224531.5,A,3309.2357,N,11720.2540,W,66.30,154.10,140210,,*2F
$GPRMC,224534.5,A,3309.1864,N,11720.2253,W,65.70,154.50,140210,,*24
$GPRMC,224537.5,A,3309.1373,N,11720.1966,W,65.10,154.30,140210,,*24
$GPRMC,224540.5,A,3309.0878,N,11720.1680,W,66.10,154.20,140210,,*20
$GPRMC,224543.5,A,3309.0379,N,11720.1390,W,66.50,153.90,140210,,*25
$GPRMC,224546.5,A,3308.9875,N,11720.1099,W,66.70,153.70,140210,,*29
$GPRMC,224549.5,A,3308.9384,N,11720.0811,W,66.00,154.20,140210,,*2F
$GPRMC,224552.5,A,3308.8875,N,11720.0555,W,66.10,158.50,140210,,*26
$GPRMC,224555.5,A,3308.8337,N,11720.0381,W,66.10,167.80,140210,,*22
$GPRMC,224558.5,A,3308.7797,N,11720.0277,W,65.50,175.50,140210,,*2F
$GPRMC,224601.5,A,3308.7258,N,11720.0244,W,64.40,177.40,140210,,*25
$GPRMC,224604.5,A,3308.6728,N,11720.0219,W,63.20,177.30,140210,,*2D
$GPRMC,224607.5,A,3308.6201,N,11720.0185,W,62.80,177.00,140210,,*2E
$GPRMC,224610.5,A,3308.5675,N,11720.0117,W,61.80,169.60,140210,,*2D
$GPRMC,224613.5,A,3308.5179,N,11719.9956,W,62.00,160.40,140210,,*2B
$GPRMC,224616.5,A,3308.4698,N,11719.9720,W,62.10,156.80,140210,,*20
$GPRMC,224619.5,A,3308.4211,N,11719.9466,W,63.60,157.00,140210,,*24
$GPRMC,224622.5,A,3308.3727,N,11719.9214,W,64.00,156.40,140210,,*2C
$GPRMC,224625.5,A,3308.3232,N,11719.8960,W,63.30,156.80,140210,,*2B
$GPRMC,224628.5,A,3308.2750,N,11719.8714,W,62.10,156.70,140210,,*27
$GPRMC,224631.5,A,3308.2280,N,11719.8475,W,61.70,156.90,140210,,*28
$GPRMC,224634.5,A,3308.1804,N,11719.8229,W,61.70,156.70,140210,,*29
$GPRMC,224637.5,A,3308.1328,N,11719.7987,W,62.40,157.00,140210,,*29
$GPRMC,224640.5,A,3308.0846,N,11719.7742,W,62.70,156.80,140210,,*26
$GPRMC,224643.5,A,3308.0368,N,11719.7499,W,62.80,156.40,140210,,*24
$GPRMC,224646.5,A,3307.9899,N,11719.7246,W,61.10,154.60,140210,,*2C
$GPRMC,224649.5,A,3307.9445,N,11719.6982,W,59.90,153.70,140210,,*29
$GPRMC,224652.5,A,3307.8999,N,11719.6715,W,60.70,153.40,140210,,*29
$GPRMC,224655.5,A,3307.8542,N,11719.6439,W,61.80,153.20,140210,,*21
$GPRMC,224658.5,A,3307.8078,N,11719.6161,W,62.20,153.20,140210,,*21
$GPRMC,224701.5,A,3307.7612,N,11719.5882,W,62.70,153.30,140210,,*2A
$GPRMC,224704.5,A,3307.7134,N,11719.5590,W,63.70,153.30,140210,,*23
$GPRMC,224707.5,A,3307.6670,N,11719.5312,W,62.30,153.30,140210,,*2F
$GPRMC,224710.5,A,3307.6210,N,11719.5040,W,61.40,153.30,140210,,*2B
$GPRMC,224713.5,A,3307.5751,N,11719.4761,W,61.30,153.20,140210,,*28
$GPRMC,224716.5,A,3307.5296,N,11719.4484,W,61.00,153.30,140210,,*29
$GPRMC,224719.5,A,3307.4841,N,11719.4213,W,61.20,153.20,140210,,*2C
$GPRMC,224722.5,A,3307.4387,N,11719.3940,W,61.10,153.30,140210,,*2D
$GPRMC,224725.5,A,3307.3930,N,11719.3664,W,61.70,153.20,140210,,*25
$GPRMC,224728.5,A,3307.3467,N,11719.3386,W,62.30,153.30,140210,,*28
$GPRMC,224731.5,A,3307.2999,N,11719.3105,W,63.10,153.40,140210,,*20
$GPRMC,224734.5,A,3307.2525,N,11719.2826,W,63.40,153.20,140210,,*24
$GPRMC,224737.5,A,3307.2054,N,11719.2542,W,62.90,153.30,140210,,*26
$GPRMC,224740.5,A,3307.1585,N,11719.2257,W,62.80,153.10,140210,,*2C
$GPRMC,224743.5,A,3307.1115,N,11719.1975,W,62.80,153.30,140210,,*28
$GPRMC,224746.5,A,3307.0647,N,11719.1694,W,62.50,153.40,140210,,*26
$GPRMC,224749.5,A,3307.0183,N,11719.1420,W,62.00,153.60,140210,,*2C
$GPRMC,224752.5,A,3306.9722,N,11719.1143,W,62.20,153.20,140210,,*25
$GPRMC,224755.5,A,3306.9259,N,11719.0862,W,62.80,153.10,140210,,*29
$GPRMC,224758.5,A,3306.8791,N,11719.0577,W,63.10,153.10,140210,,*25
$GPRMC,224801.5,A,3306.8320,N,11719.0299,W,63.10,153.50,140210,,*2B
$GPRMC,224804.5,A,3306.7850,N,11719.0018,W,62.60,153.00,140210,,*25
$GPRMC,224807.5,A,3306.7380,N,11718.9736,W,63.50,153.10,140210,,*20
$GPRMC,224810.5,A,3306.6905,N,11718.9451,W,64.20,153.30,140210,,*20
$GPRMC,224813.5,A,3306.6421,N,11718.9163,W,64.40,153.30,140210,,*2A
$GPRMC,224816.5,A,3306.5943,N,11718.8874,W,64.00,153.30,140210,,*2F
$GPRMC,224819.5,A,3306.5474,N,11718.8594,W,62.50,152.90,140210,,*22
$GPRMC,224822.5,A,3306.5012,N,11718.8310,W,62.30,152.00,140210,,*2B
$GPRMC,224825.5,A,3306.4552,N,11718.8014,W,63.10,151.30,140210,,*28
$GPRMC,224828.5,A,3306.4090,N,11718.7717,W,62.40,151.30,140210,,*21
$GPRMC,224831.5,A,3306.3641,N,11718.7426,W,60.70,151.60,140210,,*21
$GPRMC,224834.5,A,3306.3218,N,11718.7153,W,57.10,151.10,140210,,*2E
$GPRMC,224837.5,A,3306.2801,N,11718.6882,W,57.20,151.10,140210,,*29
$GPRMC,224840.5,A,3306.2380,N,11718.6608,W,58.10,151.40,140210,,*2E
$GPRMC,224843.5,A,3306.1953,N,11718.6329,W,58.50,151.40,140210,,*28
$GPRMC,224846.5,A,3306.1522,N,11718.6043,W,59.10,151.20,140210,,*2B
$GPRMC,224849.5,A,3306.1086,N,11718.5764,W,60.20,151.30,140210,,*26
$GPRMC,224852.5,A,3306.0646,N,11718.5472,W,60.30,151.00,140210,,*21
$GPRMC,224855.5,A,3306.0200,N,11718.5176,W,61.60,151.30,140210,,*26
$GPRMC,224858.5,A,3305.9754,N,11718.4882,W,61.40,151.20,140210,,*25
$GPRMC,224901.5,A,3305.9299,N,11718.4589,W,61.50,151.40,140210,,*2D
$GPRMC,224904.5,A,3305.8846,N,11718.4291,W,62.40,151.30,140210,,*2A
$GPRMC,224907.5,A,3305.8387,N,11718.3989,W,63.20,150.90,140210,,*26
$GPRMC,224910.5,A,3305.7912,N,11718.3680,W,65.30,151.20,140210,,*22
$GPRMC,224913.5,A,3305.7419,N,11718.3368,W,67.10,151.30,140210,,*25
$GPRMC,224916.5,A,3305.6927,N,11718.3050,W,67.30,151.20,140210,,*2A
$GPRMC,224919.5,A,3305.6441,N,11718.2734,W,65.70,151.30,140210,,*2B
$GPRMC,224922.5,A,3305.5966,N,11718.2428,W,64.70,151.50,140210,,*21
$GPRMC,224925.5,A,3305.5501,N,11718.2124,W,63.00,151.10,140210,,*26
$GPRMC,224928.5,A,3305.5041,N,11718.1823,W,63.40,151.10,140210,,*23
$GPRMC,224931.5,A,3305.4571,N,11718.1521,W,64.90,151.50,140210,,*2D
$GPRMC,224934.5,A,3305.4090,N,11718.1212,W,66.00,151.50,140210,,*2E
$GPRMC,224937.5,A,3305.3608,N,11718.0894,W,66.20,151.20,140210,,*2D
$GPRMC,224940.5,A,3305.3125,N,11718.0577,W,65.90,151.00,140210,,*2F
$GPRMC,224943.5,A,3305.2648,N,11718.0261,W,63.70,151.40,140210,,*2D
$GPRMC,224946.5,A,3305.2187,N,11717.9964,W,62.70,151.40,140210,,*25
$GPRMC,224949.5,A,3305.1725,N,11717.9666,W,63.40,151.40,140210,,*28
$GPRMC,224952.5,A,3305.1257,N,11717.9363,W,63.90,151.20,140210,,*29
$GPRMC,224955.5,A,3305.0782,N,11717.9069,W,64.20,154.50,140210,,*25
$GPRMC,224958.5,A,3305.0288,N,11717.8815,W,64.50,158.20,140210,,*29
$GPRMC,225001.5,A,3304.9775,N,11717.8617,W,64.30,163.20,140210,,*20
$GPRMC,225004.5,A,3304.9254,N,11717.8464,W,63.20,166.00,140210,,*24
$GPRMC,225007.5,A,3304.8736,N,11717.8310,W,63.30,165.90,140210,,*28
$GPRMC,225010.5,A,3304.8219,N,11717.8150,W,62.80,165.70,140210,,*24
$GPRMC,225013.5,A,3304.7702,N,11717.7991,W,64.00,165.80,140210,,*2C
$GPRMC,225016.5,A,3304.7184,N,11717.7838,W,63.30,165.90,140210,,*26
$GPRMC,225019.5,A,3304.6667,N,11717.7682,W,64.00,165.70,140210,,*27
$GPRMC,225022.5,A,3304.6149,N,11717.7524,W,64.00,165.70,140210,,*2B
$GPRMC,225025.5,A,3304.5632,N,11717.7371,W,63.90,165.90,140210,,*22
$GPRMC,225028.5,A,3304.5115,N,11717.7218,W,63.90,165.70,140210,,*2D
$GPRMC,225031.5,A,3304.4598,N,11717.7065,W,64.00,165.80,140210,,*2C
$GPRMC,225034.5,A,3304.4077,N,11717.6907,W,64.00,165.70,140210,,*2E
$GPRMC,225037.5,A,3304.3556,N,11717.6753,W,64.50,165.80,140210,,*29
$GPRMC,225040.5,A,3304.3033,N,11717.6597,W,64.60,165.70,140210,,*29
$GPRMC,225043.5,A,3304.2513,N,11717.6439,W,64.20,165.70,140210,,*2D
$GPRMC,225046.5,A,3304.1999,N,11717.6283,W,63.20,165.90,140210,,*2B
$GPRMC,225049.5,A,3304.1488,N,11717.6131,W,63.40,166.10,140210,,*2E
$GPRMC,225052.5,A,3304.0967,N,11717.5974,W,64.40,165.70,140210,,*21
$GPRMC,225055.5,A,3304.0444,N,11717.5815,W,65.50,165.70,140210,,*2C
$GPRMC,225058.5,A,3303.9910,N,11717.5657,W,66.30,165.80,140210,,*21
$GPRMC,225101.5,A,3303.9377,N,11717.5495,W,65.60,165.70,140210,,*22
$GPRMC,225104.5,A,3303.8853,N,11717.5333,W,64.40,165.40,140210,,*20
$GPRMC,225107.5,A,3303.8333,N,11717.5176,W,64.20,165.90,140210,,*26
$GPRMC,225110.5,A,3303.7808,N,11717.5025,W,64.60,165.80,140210,,*2E
$GPRMC,225113.5,A,3303.7284,N,11717.4865,W,64.10,165.70,140210,,*26
$GPRMC,225116.5,A,3303.6768,N,11717.4708,W,64.80,165.60,140210,,*29
$GPRMC,225119.5,A,3303.6244,N,11717.4547,W,64.90,165.60,140210,,*25
$GPRMC,225122.5,A,3303.5718,N,11717.4391,W,65.80,165.90,140210,,*20
$GPRMC,225125.5,A,3303.5184,N,11717.4232,W,65.90,165.90,140210,,*2D
$GPRMC,225128.5,A,3303.4654,N,11717.4073,W,66.20,165.80,140210,,*25
$GPRMC,225131.5,A,3303.4118,N,11717.3909,W,66.90,165.80,140210,,*2A
$GPRMC,225134.5,A,3303.3570,N,11717.3747,W,68.10,165.70,140210,,*2F
$GPRMC,225137.5,A,3303.3015,N,11717.3580,W,69.00,165.70,140210,,*23
$GPRMC,225140.5,A,3303.2452,N,11717.3412,W,69.50,166.00,140210,,*2E
$GPRMC,225143.5,A,3303.1888,N,11717.3243,W,69.80,165.80,140210,,*21
$GPRMC,225146.5,A,3303.1323,N,11717.3072,W,69.80,165.80,140210,,*2E
$GPRMC,225149.5,A,3303.0755,N,11717.2902,W,70.40,165.80,140210,,*2E
$GPRMC,225152.5,A,3303.0181,N,11717.2731,W,70.90,165.70,140210,,*27
$GPRMC,225155.5,A,3302.9612,N,11717.2560,W,70.10,165.80,140210,,*24
$GPRMC,225158.5,A,3302.9048,N,11717.2396,W,69.30,165.90,140210,,*24
$GPRMC,225201.5,A,3302.8490,N,11717.2232,W,69.00,165.80,140210,,*26
$GPRMC,225204.5,A,3302.7932,N,11717.2062,W,68.80,165.70,140210,,*28
$GPRMC,225207.5,A,3302.7375,N,11717.1892,W,68.00,165.80,140210,,*21
$GPRMC,225210.5,A,3302.6828,N,11717.1729,W,67.10,165.70,140210,,*2B
$GPRMC,225213.5,A,3302.6287,N,11717.1568,W,65.90,165.80,140210,,*25
$GPRMC,225216.5,A,3302.5760,N,11717.1400,W,65.40,164.50,140210,,*21
$GPRMC,225219.5,A,3302.5255,N,11717.1191,W,63.70,158.70,140210,,*28
$GPRMC,225222.5,A,3302.4776,N,11717.0937,W,63.10,154.40,140210,,*29
$GPRMC,225225.5,A,3302.4309,N,11717.0649,W,62.40,151.50,140210,,*24
$GPRMC,225228.5,A,3302.3862,N,11717.0349,W,61.90,150.50,140210,,*22
$GPRMC,225231.5,A,3302.3424,N,11717.0049,W,60.30,150.30,140210,,*2A
$GPRMC,225234.5,A,3302.2974,N,11716.9752,W,60.20,150.10,140210,,*20
$GPRMC,225237.5,A,3302.2544,N,11716.9448,W,60.40,150.70,140210,,*24
$GPRMC,225240.5,A,3302.2105,N,11716.9158,W,59.70,150.50,140210,,*2A
$GPRMC,225243.5,A,3302.1659,N,11716.8856,W,61.80,150.40,140210,,*27
$GPRMC,225246.5,A,3302.1210,N,11716.8552,W,62.60,150.60,140210,,*2D
$GPRMC,225249.5,A,3302.0747,N,11716.8246,W,63.60,150.70,140210,,*26
$GPRMC,225252.5,A,3302.0284,N,11716.7932,W,64.80,150.30,140210,,*2C
$GPRMC,225255.5,A,3301.9808,N,11716.7606,W,65.30,150.40,140210,,*2A
$GPRMC,225258.5,A,3301.9325,N,11716.7279,W,66.30,150.50,140210,,*2D
$GPRMC,225301.5,A,3301.8841,N,11716.6955,W,66.70,150.70,140210,,*2A
$GPRMC,225304.5,A,3301.8361,N,11716.6630,W,66.30,150.40,140210,,*2D
$GPRMC,225307.5,A,3301.7879,N,11716.6304,W,66.30,150.40,140210,,*21
$GPRMC,225310.5,A,3301.7388,N,11716.5976,W,67.10,150.80,140210,,*21
$GPRMC,225313.5,A,3301.6906,N,11716.5660,W,66.80,150.80,140210,,*2F
$GPRMC,225316.5,A,3301.6408,N,11716.5332,W,67.90,150.80,140210,,*2B
$GPRMC,225319.5,A,3301.5905,N,11716.5006,W,68.10,152.10,140210,,*2F
$GPRMC,225322.5,A,3301.5390,N,11716.4710,W,68.80,156.20,140210,,*2E
$GPRMC,225325.5,A,3301.4834,N,11716.4476,W,70.10,162.90,140210,,*22
$GPRMC,225328.5,A,3301.4269,N,11716.4300,W,70.10,167.80,140210,,*2F
$GPRMC,225331.5,A,3301.3696,N,11716.4173,W,70.00,170.30,140210,,*2E
$GPRMC,225334.5,A,3301.3118,N,11716.4054,W,70.20,170.30,140210,,*2C
$GPRMC,225337.5,A,3301.2540,N,11716.3933,W,69.80,170.50,140210,,*2C
$GPRMC,225340.5,A,3301.1962,N,11716.3804,W,70.50,168.00,140210,,*2F
$GPRMC,225343.5,A,3301.1405,N,11716.3628,W,68.50,162.70,140210,,*24
$GPRMC,225346.5,A,3301.0866,N,11716.3398,W,69.00,158.00,140210,,*2D
$GPRMC,225349.5,A,3301.0354,N,11716.3110,W,68.60,152.60,140210,,*21
$GPRMC,225352.5,A,3300.9855,N,11716.2782,W,68.30,148.70,140210,,*2A
$GPRMC,225355.5,A,3300.9386,N,11716.2402,W,67.70,143.90,140210,,*2D
$GPRMC,225358.5,A,3300.8956,N,11716.1973,W,67.20,138.70,140210,,*29
$GPRMC,225401.5,A,3300.8548,N,11716.1524,W,66.40,136.40,140210,,*25
$GPRMC,225404.5,A,3300.8161,N,11716.1064,W,65.90,135.80,140210,,*2F
$GPRMC,225407.5,A,3300.7760,N,11716.0611,W,65.20,136.40,140210,,*25
$GPRMC,225410.5,A,3300.7388,N,11716.0174,W,63.00,135.80,140210,,*2E
$GPRMC,225413.5,A,3300.6998,N,11715.9742,W,63.50,136.20,140210,,*22
$GPRMC,225416.5,A,3300.6627,N,11715.9310,W,63.40,135.70,140210,,*28
$GPRMC,225419.5,A,3300.6259,N,11715.8874,W,61.10,135.80,140210,,*2A
$GPRMC,225422.5,A,3300.5885,N,11715.8445,W,62.00,135.70,140210,,*29
$GPRMC,225425.5,A,3300.5513,N,11715.8013,W,63.30,135.50,140210,,*2B
$GPRMC,225428.5,A,3300.5142,N,11715.7583,W,62.10,135.50,140210,,*26
$GPRMC,225431.5,A,3300.4772,N,11715.7157,W,62.70,135.90,140210,,*2D
$GPRMC,225434.5,A,3300.4396,N,11715.6728,W,64.40,136.20,140210,,*24
$GPRMC,225437.5,A,3300.4015,N,11715.6290,W,63.50,136.30,140210,,*2E
$GPRMC,225440.5,A,3300.3620,N,11715.5855,W,64.00,139.30,140210,,*24
$GPRMC,225443.5,A,3300.3192,N,11715.5473,W,64.00,145.00,140210,,*29
$GPRMC,225446.5,A,3300.2733,N,11715.5147,W,63.70,150.50,140210,,*23
$GPRMC,225449.5,A,3300.2283,N,11715.4902,W,59.30,158.40,140210,,*2E
$GPRMC,225452.5,A,3300.1818,N,11715.4724,W,58.60,163.70,140210,,*2A
$GPRMC,225455.5,A,3300.1347,N,11715.4594,W,56.80,169.90,140210,,*21
$GPRMC,225458.5,A,3300.0877,N,11715.4513,W,56.50,172.50,140210,,*21
$GPRMC,225501.5,A,3300.0408,N,11715.4438,W,57.30,172.20,140210,,*20
$GPRMC,225504.5,A,3259.9935,N,11715.4370,W,57.30,172.60,140210,,*2D
$GPRMC,225507.5,A,3259.9457,N,11715.4300,W,57.90,172.70,140210,,*2B
$GPRMC,225510.5,A,3259.8969,N,11715.4230,W,59.60,173.10,140210,,*28
$GPRMC,225513.5,A,3259.8463,N,11715.4156,W,62.20,173.00,140210,,*22
$GPRMC,225516.5,A,3259.7935,N,11715.4080,W,64.50,172.30,140210,,*2F
$GPRMC,225519.5,A,3259.7391,N,11715.3995,W,67.10,172.80,140210,,*22
$GPRMC,225522.5,A,3259.6820,N,11715.3905,W,70.10,172.30,140210,,*2E
$GPRMC,225525.5,A,3259.6216,N,11715.3806,W,74.80,171.90,140210,,*20
$GPRMC,225528.5,A,3259.5604,N,11715.3692,W,74.40,171.20,140210,,*2D
$GPRMC,225531.5,A,3259.4982,N,11715.3582,W,74.80,172.00,140210,,*2A
$GPRMC,225534.5,A,3259.4358,N,11715.3487,W,74.50,172.50,140210,,*2E
$GPRMC,225537.5,A,3259.3735,N,11715.3397,W,74.10,173.00,140210,,*23
$GPRMC,225540.5,A,3259.3125,N,11715.3313,W,73.80,172.60,140210,,*21
$GPRMC,225543.5,A,3259.2514,N,11715.3211,W,73.80,172.30,140210,,*23
$GPRMC,225546.5,A,3259.1901,N,11715.3117,W,73.70,172.60,140210,,*22
$GPRMC,225549.5,A,3259.1296,N,11715.3015,W,73.80,171.90,140210,,*28
$GPRMC,225552.5,A,3259.0687,N,11715.2888,W,74.40,168.00,140210,,*20
$GPRMC,225555.5,A,3259.0094,N,11715.2697,W,73.80,163.60,140210,,*25
$GPRMC,225558.5,A,3258.9511,N,11715.2474,W,73.60,162.20,140210,,*2C
$GPRMC,225601.5,A,3258.8936,N,11715.2254,W,73.60,161.90,140210,,*27
$GPRMC,225604.5,A,3258.8358,N,11715.2031,W,71.80,162.00,140210,,*27
$GPRMC,225607.5,A,3258.7783,N,11715.1815,W,72.30,162.70,140210,,*2B
$GPRMC,225610.5,A,3258.7204,N,11715.1596,W,73.20,162.50,140210,,*23
$GPRMC,225613.5,A,3258.6614,N,11715.1382,W,74.20,162.50,140210,,*20
$GPRMC,225616.5,A,3258.6032,N,11715.1158,W,74.10,162.10,140210,,*25
$GPRMC,225619.5,A,3258.5454,N,11715.0939,W,73.10,162.50,140210,,*20
$GPRMC,225622.5,A,3258.4873,N,11715.0717,W,73.00,162.20,140210,,*24
$GPRMC,225625.5,A,3258.4290,N,11715.0499,W,72.70,162.40,140210,,*21
$GPRMC,225628.5,A,3258.3709,N,11715.0280,W,72.20,162.50,140210,,*24
$GPRMC,225631.5,A,3258.3121,N,11715.0055,W,72.90,162.50,140210,,*21
$GPRMC,225634.5,A,3258.2558,N,11714.9852,W,71.30,162.80,140210,,*2C
$GPRMC,225637.5,A,3258.1997,N,11714.9644,W,71.00,162.20,140210,,*23
$GPRMC,225640.5,A,3258.1440,N,11714.9410,W,69.80,162.20,140210,,*26
$GPRMC,225643.5,A,3258.0891,N,11714.9196,W,68.20,162.60,140210,,*20
$GPRMC,225646.5,A,3258.0341,N,11714.8987,W,67.90,162.20,140210,,*2A
$GPRMC,225649.5,A,3257.9811,N,11714.8791,W,66.80,162.50,140210,,*23
$GPRMC,225652.5,A,3257.9291,N,11714.8590,W,65.90,161.90,140210,,*25
$GPRMC,225655.5,A,3257.8768,N,11714.8401,W,65.60,162.10,140210,,*2D
$GPRMC,225658.5,A,3257.8254,N,11714.8217,W,65.30,162.60,140210,,*29
$GPRMC,225701.5,A,3257.7736,N,11714.8019,W,65.50,162.10,140210,,*27
$GPRMC,225704.5,A,3257.7219,N,11714.7821,W,64.70,162.20,140210,,*26
$GPRMC,225707.5,A,3257.6703,N,11714.7643,W,65.10,163.70,140210,,*23
$GPRMC,225710.5,A,3257.6179,N,11714.7480,W,65.60,165.50,140210,,*20
$GPRMC,225713.5,A,3257.5643,N,11714.7332,W,65.60,167.60,140210,,*21
$GPRMC,225716.5,A,3257.5099,N,11714.7202,W,66.30,169.20,140210,,*2B
$GPRMC,225719.5,A,3257.4545,N,11714.7080,W,68.10,171.10,140210,,*2F
$GPRMC,225722.5,A,3257.3961,N,11714.6960,W,70.40,170.50,140210,,*25
$GPRMC,225725.5,A,3257.3365,N,11714.6834,W,72.30,170.40,140210,,*28
$GPRMC,225728.5,A,3257.2750,N,11714.6705,W,73.70,170.30,140210,,*29
$GPRMC,225731.5,A,3257.2143,N,11714.6604,W,72.30,170.60,140210,,*25
$GPRMC,225734.5,A,3257.1546,N,11714.6513,W,72.40,171.30,140210,,*24
$GPRMC,225737.5,A,3257.0933,N,11714.6412,W,73.90,170.90,140210,,*2F
$GPRMC,225740.5,A,3257.0319,N,11714.6302,W,74.20,171.00,140210,,*2F
$GPRMC,225743.5,A,3256.9707,N,11714.6179,W,74.30,170.60,140210,,*27
$GPRMC,225746.5,A,3256.9086,N,11714.6074,W,75.20,171.00,140210,,*27
$GPRMC,225749.5,A,3256.8462,N,11714.5971,W,74.60,171.60,140210,,*2B
$GPRMC,225752.5,A,3256.7819,N,11714.5856,W,77.50,170.80,140210,,*25
$GPRMC,225755.5,A,3256.7190,N,11714.5732,W,76.70,170.80,140210,,*24
$GPRMC,225758.5,A,3256.6572,N,11714.5606,W,75.70,170.60,140210,,*2B
$GPRMC,225801.5,A,3256.5944,N,11714.5492,W,74.30,171.10,140210,,*2E
$GPRMC,225804.5,A,3256.5350,N,11714.5381,W,73.00,170.90,140210,,*2C
$GPRMC,225807.5,A,3256.4747,N,11714.5275,W,72.90,171.20,140210,,*24
$GPRMC,225810.5,A,3256.4142,N,11714.5167,W,72.70,171.70,140210,,*2A
$GPRMC,225813.5,A,3256.3538,N,11714.5075,W,73.10,173.50,140210,,*22
$GPRMC,225816.5,A,3256.2931,N,11714.5004,W,74.40,175.20,140210,,*26
$GPRMC,225819.5,A,3256.2325,N,11714.4954,W,73.60,176.20,140210,,*2D
$GPRMC,225822.5,A,3256.1697,N,11714.4901,W,73.60,176.20,140210,,*2A
$GPRMC,225825.5,A,3256.1087,N,11714.4861,W,72.80,175.90,140210,,*2A
$GPRMC,225828.5,A,3256.0499,N,11714.4833,W,71.20,176.80,140210,,*21
$GPRMC,225831.5,A,3255.9901,N,11714.4779,W,72.40,175.50,140210,,*25
$GPRMC,225834.5,A,3255.9300,N,11714.4722,W,73.00,174.60,140210,,*22
$GPRMC,225837.5,A,3255.8693,N,11714.4645,W,73.70,173.50,140210,,*2C
$GPRMC,225840.5,A,3255.8085,N,11714.4531,W,73.30,170.40,140210,,*2B
$GPRMC,225843.5,A,3255.7508,N,11714.4397,W,72.60,168.40,140210,,*20
$GPRMC,225846.5,A,3255.6946,N,11714.4239,W,72.60,165.50,140210,,*2B
$GPRMC,225849.5,A,3255.6347,N,11714.4039,W,73.40,164.50,140210,,*2F
$GPRMC,225852.5,A,3255.5762,N,11714.3849,W,72.40,164.20,140210,,*2B
$GPRMC,225855.5,A,3255.5180,N,11714.3647,W,72.30,164.30,140210,,*20
$GPRMC,225858.5,A,3255.4604,N,11714.3453,W,72.00,164.40,140210,,*24
$GPRMC,225901.5,A,3255.4028,N,11714.3239,W,72.20,162.00,140210,,*2B
$GPRMC,225904.5,A,3255.3465,N,11714.2983,W,72.10,157.70,140210,,*2D
$GPRMC,225907.5,A,3255.2928,N,11714.2680,W,71.70,153.30,140210,,*22
$GPRMC,225910.5,A,3255.2404,N,11714.2338,W,72.10,149.40,140210,,*28
$GPRMC,225913.5,A,3255.1886,N,11714.1925,W,74.70,144.50,140210,,*27
$GPRMC,225916.5,A,3255.1372,N,11714.1470,W,74.60,140.50,140210,,*2A
$GPRMC,225919.5,A,3255.0908,N,11714.0979,W,73.40,136.60,140210,,*21
$GPRMC,225922.5,A,3255.0485,N,11714.0453,W,72.30,132.50,140210,,*25
$GPRMC,225925.5,A,3255.0109,N,11713.9926,W,70.10,130.50,140210,,*20
$GPRMC,225928.5,A,3254.9733,N,11713.9394,W,69.30,130.30,140210,,*25
$GPRMC,225931.5,A,3254.9346,N,11713.8891,W,67.60,134.70,140210,,*2F
$GPRMC,225934.5,A,3254.8925,N,11713.8460,W,66.80,141.20,140210,,*2E
$GPRMC,225937.5,A,3254.8461,N,11713.8088,W,66.40,147.40,140210,,*2E
$GPRMC,225940.5,A,3254.7979,N,11713.7777,W,65.40,152.10,140210,,*2F
$GPRMC,225943.5,A,3254.7498,N,11713.7471,W,66.90,151.60,140210,,*21
$GPRMC,225946.5,A,3254.7014,N,11713.7162,W,67.50,152.10,140210,,*2A
$GPRMC,225949.5,A,3254.6518,N,11713.6859,W,68.90,152.20,140210,,*2D
$GPRMC,225952.5,A,3254.6000,N,11713.6540,W,69.40,152.40,140210,,*24
$GPRMC,225955.5,A,3254.5483,N,11713.6209,W,70.50,152.20,140210,,*2A
$GPRMC,225958.5,A,3254.4952,N,11713.5897,W,69.00,154.20,140210,,*22
$GPRMC,230001.5,A,3254.4426,N,11713.5596,W,68.80,153.90,140210,,*24
$GPRMC,230004.5,A,3254.3913,N,11713.5302,W,68.50,154.30,140210,,*26
$GPRMC,230007.5,A,3254.3405,N,11713.4987,W,67.70,152.00,140210,,*21
$GPRMC,230010.5,A,3254.2929,N,11713.4651,W,65.70,148.30,140210,,*2B
$GPRMC,230013.5,A,3254.2488,N,11713.4303,W,64.20,146.20,140210,,*27
$GPRMC,230016.5,A,3254.2055,N,11713.3919,W,64.70,143.20,140210,,*20
$GPRMC,230019.5,A,3254.1628,N,11713.3512,W,64.50,141.20,140210,,*27
$GPRMC,230022.5,A,3254.1208,N,11713.3115,W,65.00,140.70,140210,,*2A
$GPRMC,230025.5,A,3254.0797,N,11713.2682,W,66.70,140.10,140210,,*25
$GPRMC,230028.5,A,3254.0372,N,11713.2273,W,66.60,140.30,140210,,*2E
$GPRMC,230031.5,A,3253.9934,N,11713.1852,W,67.30,141.20,140210,,*2E
$GPRMC,230034.5,A,3253.9496,N,11713.1431,W,67.60,141.20,140210,,*22
$GPRMC,230037.5,A,3253.9047,N,11713.1002,W,68.60,141.80,140210,,*28
$GPRMC,230040.5,A,3253.8591,N,11713.0592,W,69.10,141.80,140210,,*2C
$GPRMC,230043.5,A,3253.8140,N,11713.0175,W,69.30,143.90,140210,,*2B
$GPRMC,230046.5,A,3253.7685,N,11712.9731,W,69.90,139.30,140210,,*2C
$GPRMC,230049.5,A,3253.7258,N,11712.9258,W,69.70,134.80,140210,,*25
$GPRMC,230052.5,A,3253.6875,N,11712.8760,W,67.40,131.20,140210,,*26
$GPRMC,230055.5,A,3253.6519,N,11712.8255,W,66.30,128.00,140210,,*29
$GPRMC,230058.5,A,3253.6208,N,11712.7720,W,65.60,123.50,140210,,*23
$GPRMC,230101.5,A,3253.5921,N,11712.7161,W,66.00,119.40,140210,,*23
$GPRMC,230104.5,A,3253.5657,N,11712.6572,W,67.70,116.10,140210,,*23
$GPRMC,230107.5,A,3253.5426,N,11712.5979,W,66.30,114.50,140210,,*23
$GPRMC,230110.5,A,3253.5198,N,11712.5393,W,63.50,115.20,140210,,*2E
$GPRMC,230113.5,A,3253.4967,N,11712.4843,W,62.00,118.80,140210,,*20
$GPRMC,230116.5,A,3253.4694,N,11712.4327,W,61.60,123.70,140210,,*2D
$GPRMC,230119.5,A,3253.4388,N,11712.3850,W,61.70,127.70,140210,,*23
$GPRMC,230122.5,A,3253.4043,N,11712.3416,W,59.20,135.20,140210,,*29
$GPRMC,230125.5,A,3253.3673,N,11712.3029,W,57.30,138.60,140210,,*22
$GPRMC,230128.5,A,3253.3301,N,11712.2675,W,57.20,142.00,140210,,*2B
$GPRMC,230131.5,A,3253.2893,N,11712.2378,W,56.40,148.80,140210,,*2F
$GPRMC,230134.5,A,3253.2470,N,11712.2119,W,56.80,153.00,140210,,*20
$GPRMC,230137.5,A,3253.2015,N,11712.1907,W,57.90,159.00,140210,,*2A
