NMEA Sentence Code,UTC Time,Status,Latitude,Latitude Direction,Longitude,Longitude Direction,Speed (knots),Track Angle (degrees true),Date,MagneticVariation,Magnetic Variation Direction,[FAA Mode]-Optional,Checksum
$GPRMC,175520.60,A,3256.079882,N,11715.353218,W,24.6,133.0,040110,,,A*78
$GPRMC,175523.70,A,3256.067278,N,11715.337675,W,20.6,131.7,040110,,,A*76
$GPRMC,175526.70,A,3256.063520,N,11715.332303,W,7.8,135.6,040110,,,A*42
$GPRMC,175529.80,A,3256.059683,N,11715.328289,W,10.2,143.4,040110,,,A*76
$GPRMC,175532.00,A,3256.054682,N,11715.318749,W,16.7,128.6,040110,,,A*7E
$GPRMC,175535.00,A,3256.043979,N,11715.300414,W,23.3,122.9,040110,,,A*71
$GPRMC,175538.10,A,3256.032639,N,11715.278759,W,24.8,121.6,040110,,,A*74
$GPRMC,175541.20,A,3256.022455,N,11715.253636,W,26.3,117.2,040110,,,A*79
$GPRMC,175544.30,A,3256.009986,N,11715.227919,W,29.5,117.9,040110,,,A*74
$GPRMC,175547.30,A,3255.998746,N,11715.201757,W,29.6,117.9,040110,,,A*74
$GPRMC,175550.30,A,3255.986475,N,11715.175491,W,30.0,120.2,040110,,,A*76
$GPRMC,175553.30,A,3255.973458,N,11715.151327,W,29.7,119.4,040110,,,A*7F
$GPRMC,175556.40,A,3255.960925,N,11715.125704,W,29.5,119.4,040110,,,A*7C
$GPRMC,175559.40,A,3255.948510,N,11715.099849,W,29.8,118.9,040110,,,A*72
$GPRMC,175602.40,A,3255.937749,N,11715.074628,W,28.7,116.9,040110,,,A*73
$GPRMC,175605.40,A,3255.927547,N,11715.050500,W,26.1,115.3,040110,,,A*77
$GPRMC,175608.40,A,3255.918095,N,11715.029492,W,22.6,113.3,040110,,,A*7D
$GPRMC,175611.40,A,3255.913155,N,11715.011314,W,17.2,101.5,040110,,,A*76
$GPRMC,175614.40,A,3255.909971,N,11715.004387,W,6.6,100.4,040110,,,A*4C
$GPRMC,175617.60,A,3255.907572,N,11714.999689,W,8.8,123.5,040110,,,A*4B
$GPRMC,175620.70,A,3255.901829,N,11714.990444,W,14.3,129.2,040110,,,A*7A
$GPRMC,175623.70,A,3255.896508,N,11714.973836,W,21.0,111.2,040110,,,A*72
$GPRMC,175626.70,A,3255.890557,N,11714.952517,W,23.4,110.0,040110,,,A*73
$GPRMC,175629.90,A,3255.883465,N,11714.929512,W,24.1,110.4,040110,,,A*7F
$GPRMC,175632.90,A,3255.876432,N,11714.908867,W,22.8,110.4,040110,,,A*7E
$GPRMC,175635.90,A,3255.868665,N,11714.885606,W,26.3,108.2,040110,,,A*7B
$GPRMC,175638.00,A,3255.863912,N,11714.868542,W,26.8,106.6,040110,,,A*7A
$GPRMC,175641.00,A,3255.856878,N,11714.841209,W,29.4,107.5,040110,,,A*7D
$GPRMC,175644.00,A,3255.848760,N,11714.812567,W,31.1,111.5,040110,,,A*73
$GPRMC,175647.00,A,3255.840061,N,11714.783908,W,30.2,108.8,040110,,,A*7B
$GPRMC,175650.00,A,3255.832040,N,11714.753710,W,32.6,106.1,040110,,,A*70
$GPRMC,175653.00,A,3255.828979,N,11714.722518,W,32.1,94.6,040110,,,A*4D
$GPRMC,175656.10,A,3255.831810,N,11714.690656,W,32.1,79.9,040110,,,A*42
$GPRMC,175659.20,A,3255.840319,N,11714.659954,W,33.4,64.4,040110,,,A*47
$GPRMC,175702.40,A,3255.853277,N,11714.629608,W,33.9,61.2,040110,,,A*4A
$GPRMC,175705.50,A,3255.866636,N,11714.601398,W,31.9,59.8,040110,,,A*4E
$GPRMC,175708.60,A,3255.882017,N,11714.573453,W,32.4,54.2,040110,,,A*40
$GPRMC,175711.70,A,3255.896380,N,11714.549032,W,29.0,55.6,040110,,,A*40
$GPRMC,175714.80,A,3255.908346,N,11714.528807,W,24.0,53.1,040110,,,A*43
$GPRMC,175718.90,A,3255.919701,N,11714.510205,W,7.1,38.1,040110,,,A*77
$GPRMC,175727.20,A,3255.923654,N,11714.503337,W,8.2,88.9,040110,,,A*75
$GPRMC,175730.70,A,3255.916564,N,11714.494046,W,14.8,143.6,040110,,,A*74
$GPRMC,175733.00,A,3255.906935,N,11714.487937,W,20.3,147.6,040110,,,A*7C
$GPRMC,175736.50,A,3255.884764,N,11714.475556,W,27.3,153.9,040110,,,A*76
$GPRMC,175739.70,A,3255.861028,N,11714.464556,W,29.3,160.7,040110,,,A*7F
$GPRMC,175742.20,A,3255.838945,N,11714.457893,W,33.8,165.5,040110,,,A*7B
$GPRMC,175745.40,A,3255.805884,N,11714.451404,W,40.3,168.8,040110,,,A*73
$GPRMC,175749.00,A,3255.767255,N,11714.441534,W,42.4,165.4,040110,,,A*71
$GPRMC,175752.30,A,3255.726862,N,11714.430164,W,45.9,165.7,040110,,,A*7D
$GPRMC,175756.00,A,3255.680838,N,11714.415469,W,47.2,163.5,040110,,,A*7A
$GPRMC,175759.10,A,3255.639204,N,11714.402364,W,50.4,164.8,040110,,,A*75
$GPRMC,175802.20,A,3255.594814,N,11714.390110,W,53.0,166.2,040110,,,A*7A
$GPRMC,175805.30,A,3255.550680,N,11714.377091,W,53.6,165.9,040110,,,A*78
$GPRMC,175808.30,A,3255.503724,N,11714.364673,W,56.0,166.6,040110,,,A*7B
$GPRMC,175811.40,A,3255.458399,N,11714.350342,W,54.7,165.6,040110,,,A*7F
$GPRMC,175814.70,A,3255.408999,N,11714.333825,W,57.4,163.2,040110,,,A*7B
$GPRMC,175817.70,A,3255.363855,N,11714.315480,W,56.4,159.9,040110,,,A*77
$GPRMC,175820.80,A,3255.318651,N,11714.294182,W,56.8,157.9,040110,,,A*77
$GPRMC,175823.90,A,3255.273057,N,11714.266934,W,58.2,155.1,040110,,,A*7F
$GPRMC,175826.00,A,3255.240328,N,11714.250606,W,59.2,156.7,040110,,,A*77
$GPRMC,175829.50,A,3255.196266,N,11714.213935,W,56.0,148.7,040110,,,A*74
$GPRMC,175832.30,A,3255.159738,N,11714.180972,W,56.9,143.2,040110,,,A*78
$GPRMC,175835.40,A,3255.121582,N,11714.144198,W,57.1,140.2,040110,,,A*7A
$GPRMC,175838.60,A,3255.083689,N,11714.105375,W,57.6,138.9,040110,,,A*73
$GPRMC,175841.70,A,3255.051757,N,11714.062918,W,57.1,133.9,040110,,,A*7C
$GPRMC,175844.80,A,3255.018891,N,11714.019131,W,57.4,130.5,040110,,,A*7B
$GPRMC,175848.00,A,3254.986308,N,11713.971418,W,59.8,128.7,040110,,,A*7C
$GPRMC,175851.00,A,3254.954286,N,11713.925960,W,59.7,130.7,040110,,,A*79
$GPRMC,175854.00,A,3254.918278,N,11713.883857,W,60.9,135.0,040110,,,A*7B
$GPRMC,175857.10,A,3254.881080,N,11713.845748,W,57.8,140.5,040110,,,A*74
$GPRMC,175900.20,A,3254.838643,N,11713.809562,W,59.8,146.8,040110,,,A*78
$GPRMC,175903.30,A,3254.792519,N,11713.778033,W,62.6,151.0,040110,,,A*79
$GPRMC,175907.40,A,3254.730385,N,11713.742033,W,61.0,152.5,040110,,,A*7B
$GPRMC,175910.30,A,3254.687502,N,11713.715930,W,59.6,152.8,040110,,,A*76
$GPRMC,175913.80,A,3254.636037,N,11713.684667,W,58.9,152.3,040110,,,A*76
$GPRMC,175916.10,A,3254.603102,N,11713.664045,W,60.4,151.5,040110,,,A*70
$GPRMC,175919.60,A,3254.552428,N,11713.632137,W,57.9,152.3,040110,,,A*79
$GPRMC,175923.10,A,3254.501672,N,11713.601488,W,58.8,153.9,040110,,,A*78
$GPRMC,175926.30,A,3254.455312,N,11713.572662,W,58.5,152.2,040110,,,A*7A
$GPRMC,175929.80,A,3254.403502,N,11713.540520,W,61.3,151.9,040110,,,A*7A
$GPRMC,175932.10,A,3254.370463,N,11713.519549,W,60.1,151.7,040110,,,A*72
$GPRMC,175935.60,A,3254.318943,N,11713.485901,W,61.3,149.3,040110,,,A*79
$GPRMC,175938.80,A,3254.274312,N,11713.452927,W,58.5,145.4,040110,,,A*76
$GPRMC,175941.70,A,3254.235754,N,11713.421240,W,58.5,145.4,040110,,,A*7A
$GPRMC,175944.50,A,3254.199977,N,11713.382807,W,61.6,136.7,040110,,,A*7E
$GPRMC,175947.10,A,3254.165761,N,11713.350032,W,59.2,142.1,040110,,,A*78
$GPRMC,175950.20,A,3254.127076,N,11713.313401,W,57.9,141.3,040110,,,A*7D
$GPRMC,175953.30,A,3254.088336,N,11713.276199,W,57.9,140.5,040110,,,A*7D
$GPRMC,175956.40,A,3254.049376,N,11713.239108,W,58.2,140.8,040110,,,A*7C
$GPRMC,175959.50,A,3254.009228,N,11713.201973,W,58.2,141.8,040110,,,A*72
$GPRMC,180002.60,A,3253.969068,N,11713.163731,W,57.7,141.8,040110,,,A*77
$GPRMC,180005.70,A,3253.929555,N,11713.127330,W,58.5,142.0,040110,,,A*7D
$GPRMC,180008.90,A,3253.887465,N,11713.089335,W,58.9,143.2,040110,,,A*76
$GPRMC,180011.00,A,3253.861470,N,11713.064692,W,55.8,143.2,040110,,,A*7C
$GPRMC,180014.20,A,3253.819583,N,11713.026997,W,58.9,143.2,040110,,,A*79
$GPRMC,180017.40,A,3253.779595,N,11712.991216,W,57.4,142.7,040110,,,A*72
$GPRMC,180020.50,A,3253.740406,N,11712.951462,W,57.9,138.6,040110,,,A*7E
$GPRMC,180023.70,A,3253.704367,N,11712.910251,W,58.2,135.5,040110,,,A*76
$GPRMC,180026.90,A,3253.669826,N,11712.865523,W,58.3,131.5,040110,,,A*7D
$GPRMC,180029.00,A,3253.648984,N,11712.834025,W,57.2,127.9,040110,,,A*73
$GPRMC,180032.10,A,3253.619154,N,11712.786526,W,57.8,126.5,040110,,,A*7E
$GPRMC,180035.30,A,3253.590286,N,11712.738222,W,56.8,125.7,040110,,,A*73
$GPRMC,180038.50,A,3253.562793,N,11712.687807,W,57.2,123.9,040110,,,A*7F
$GPRMC,180041.60,A,3253.542716,N,11712.633981,W,58.0,115.8,040110,,,A*74
$GPRMC,180044.70,A,3253.522423,N,11712.580870,W,57.0,114.8,040110,,,A*79
$GPRMC,180047.80,A,3253.501796,N,11712.528170,W,57.4,114.9,040110,,,A*77
$GPRMC,180050.90,A,3253.479502,N,11712.477742,W,56.7,118.0,040110,,,A*7A
$GPRMC,180053.00,A,3253.462156,N,11712.445382,W,56.3,121.5,040110,,,A*7D
$GPRMC,180056.00,A,3253.435338,N,11712.395794,W,58.3,130.2,040110,,,A*70
$GPRMC,180059.10,A,3253.401654,N,11712.351560,W,57.5,131.4,040110,,,A*79
$GPRMC,180102.20,A,3253.366390,N,11712.310824,W,57.8,135.5,040110,,,A*7E
$GPRMC,180105.20,A,3253.327255,N,11712.273949,W,57.4,140.6,040110,,,A*77
$GPRMC,180108.30,A,3253.286406,N,11712.240831,W,58.0,145.7,040110,,,A*70
$GPRMC,180111.40,A,3253.244796,N,11712.215735,W,56.6,152.7,040110,,,A*7E
$GPRMC,180114.40,A,3253.201545,N,11712.193474,W,55.0,156.9,040110,,,A*72
$GPRMC,180117.50,A,3253.156257,N,11712.175544,W,54.8,162.1,040110,,,A*79
$GPRMC,180120.50,A,3253.108896,N,11712.161120,W,56.7,164.7,040110,,,A*7F
$GPRMC,180123.60,A,3253.060989,N,11712.148133,W,56.8,166.1,040110,,,A*7D
$GPRMC,180126.70,A,3253.008468,N,11712.136051,W,61.4,168.8,040110,,,A*76
$GPRMC,180129.90,A,3252.954084,N,11712.123885,W,61.9,169.4,040110,,,A*75
$GPRMC,180132.10,A,3252.921361,N,11712.113275,W,58.3,167.2,040110,,,A*73
$GPRMC,180135.20,A,3252.871818,N,11712.099260,W,59.5,167.4,040110,,,A*70
$GPRMC,180138.20,A,3252.828966,N,11712.082797,W,54.9,162.7,040110,,,A*79
$GPRMC,180141.20,A,3252.782781,N,11712.064753,W,56.9,162.0,040110,,,A*7A
$GPRMC,180144.40,A,3252.734054,N,11712.050166,W,56.5,165.3,040110,,,A*74
$GPRMC,180147.50,A,3252.685730,N,11712.034726,W,57.4,164.1,040110,,,A*7B
$GPRMC,180150.50,A,3252.637171,N,11712.021322,W,59.0,165.3,040110,,,A*7A
$GPRMC,180153.50,A,3252.587655,N,11712.006610,W,60.2,165.3,040110,,,A*79
$GPRMC,180156.60,A,3252.538762,N,11711.988628,W,59.5,162.8,040110,,,A*78
$GPRMC,180159.60,A,3252.492075,N,11711.967760,W,59.5,158.0,040110,,,A*7A
$GPRMC,180202.60,A,3252.447701,N,11711.944715,W,57.5,155.4,040110,,,A*7F
$GPRMC,180205.70,A,3252.404820,N,11711.916776,W,57.3,150.9,040110,,,A*7E
$GPRMC,180208.80,A,3252.361605,N,11711.885216,W,57.7,147.7,040110,,,A*75
$GPRMC,180211.80,A,3252.321163,N,11711.851689,W,58.3,144.0,040110,,,A*7A
$GPRMC,180214.90,A,3252.283741,N,11711.815843,W,58.1,141.3,040110,,,A*7D
$GPRMC,180217.90,A,3252.245533,N,11711.778598,W,59.1,141.0,040110,,,A*7E
$GPRMC,180220.90,A,3252.208206,N,11711.742942,W,57.1,140.8,040110,,,A*77
$GPRMC,180223.00,A,3252.181960,N,11711.717963,W,58.7,141.2,040110,,,A*75
$GPRMC,180226.10,A,3252.141099,N,11711.680171,W,59.5,142.2,040110,,,A*76
$GPRMC,180229.30,A,3252.097314,N,11711.641223,W,60.2,142.3,040110,,,A*72
$GPRMC,180232.40,A,3252.056401,N,11711.600993,W,60.4,140.3,040110,,,A*70
$GPRMC,180235.60,A,3252.016365,N,11711.561246,W,58.7,140.9,040110,,,A*71
$GPRMC,180238.80,A,3251.975156,N,11711.522264,W,59.7,140.9,040110,,,A*79
$GPRMC,180241.00,A,3251.946919,N,11711.494950,W,60.1,141.0,040110,,,A*78
$GPRMC,180244.00,A,3251.905920,N,11711.454836,W,62.2,142.6,040110,,,A*79
$GPRMC,180247.10,A,3251.867078,N,11711.416056,W,60.5,141.3,040110,,,A*71
$GPRMC,180250.20,A,3251.826148,N,11711.377211,W,60.9,142.2,040110,,,A*7C
$GPRMC,180253.20,A,3251.785814,N,11711.338528,W,60.8,142.1,040110,,,A*7D
$GPRMC,180256.20,A,3251.747123,N,11711.300783,W,61.4,141.3,040110,,,A*7F
$GPRMC,180259.30,A,3251.706867,N,11711.262798,W,59.4,142.9,040110,,,A*70
$GPRMC,180302.40,A,3251.666670,N,11711.223722,W,60.1,140.6,040110,,,A*71
$GPRMC,180305.40,A,3251.625381,N,11711.188201,W,60.6,145.0,040110,,,A*78
$GPRMC,180308.60,A,3251.582451,N,11711.152633,W,60.8,145.0,040110,,,A*7F
$GPRMC,180311.70,A,3251.536938,N,11711.122999,W,59.3,149.7,040110,,,A*79
$GPRMC,180314.80,A,3251.491433,N,11711.092794,W,61.1,151.9,040110,,,A*7E
$GPRMC,180317.80,A,3251.445804,N,11711.064674,W,61.4,152.5,040110,,,A*70
$GPRMC,180320.80,A,3251.399173,N,11711.034915,W,62.5,152.1,040110,,,A*70
$GPRMC,180323.80,A,3251.352817,N,11711.006234,W,61.4,152.7,040110,,,A*72
$GPRMC,180327.00,A,3251.303634,N,11710.977304,W,62.0,153.7,040110,,,A*7F
$GPRMC,180330.00,A,3251.256201,N,11710.947538,W,64.0,152.4,040110,,,A*74
$GPRMC,180333.00,A,3251.207082,N,11710.917882,W,64.6,152.0,040110,,,A*71
$GPRMC,180336.10,A,3251.159251,N,11710.888597,W,62.9,151.1,040110,,,A*74
$GPRMC,180339.20,A,3251.110059,N,11710.858627,W,63.9,153.2,040110,,,A*7A
$GPRMC,180342.40,A,3251.060289,N,11710.827538,W,64.1,151.1,040110,,,A*72
$GPRMC,180345.40,A,3251.011084,N,11710.797436,W,64.5,152.9,040110,,,A*78
$GPRMC,180348.50,A,3250.960857,N,11710.767076,W,65.3,153.1,040110,,,A*7D
$GPRMC,180351.60,A,3250.910781,N,11710.736573,W,65.5,150.7,040110,,,A*72
$GPRMC,180354.70,A,3250.860450,N,11710.706047,W,65.2,152.6,040110,,,A*7A
$GPRMC,180357.80,A,3250.811029,N,11710.676068,W,63.6,152.6,040110,,,A*73
$GPRMC,180400.90,A,3250.759339,N,11710.645044,W,65.6,153.9,040110,,,A*70
$GPRMC,180403.90,A,3250.709440,N,11710.614394,W,65.5,153.3,040110,,,A*7C
$GPRMC,180406.00,A,3250.675974,N,11710.594318,W,65.8,153.2,040110,,,A*73
$GPRMC,180409.10,A,3250.627483,N,11710.565049,W,63.7,152.8,040110,,,A*74
$GPRMC,180412.10,A,3250.580438,N,11710.536704,W,62.6,153.0,040110,,,A*71
$GPRMC,180415.60,A,3250.526193,N,11710.504075,W,61.7,153.2,040110,,,A*79
$GPRMC,180419.10,A,3250.472502,N,11710.471709,W,60.9,152.5,040110,,,A*78
$GPRMC,180422.60,A,3250.419172,N,11710.439090,W,60.9,152.8,040110,,,A*7F
$GPRMC,180425.80,A,3250.370298,N,11710.409818,W,60.1,153.1,040110,,,A*72
$GPRMC,180428.10,A,3250.336809,N,11710.389057,W,60.0,152.6,040110,,,A*7D
$GPRMC,180431.60,A,3250.284372,N,11710.356872,W,61.0,153.2,040110,,,A*74
$GPRMC,180435.10,A,3250.232200,N,11710.325282,W,59.4,153.7,040110,,,A*75
$GPRMC,180438.60,A,3250.180530,N,11710.294124,W,58.8,153.2,040110,,,A*7D
$GPRMC,180441.80,A,3250.134265,N,11710.265708,W,58.6,153.3,040110,,,A*7C
$GPRMC,180444.10,A,3250.101854,N,11710.245776,W,58.9,152.4,040110,,,A*7C
$GPRMC,180447.60,A,3250.050455,N,11710.214429,W,59.4,153.1,040110,,,A*75
$GPRMC,180451.50,A,3249.992596,N,11710.178761,W,60.3,152.7,040110,,,A*7C
$GPRMC,180454.40,A,3249.947407,N,11710.152056,W,60.7,153.1,040110,,,A*71
$GPRMC,180457.60,A,3249.902046,N,11710.125386,W,58.6,152.2,040110,,,A*76
$GPRMC,180500.70,A,3249.856575,N,11710.096448,W,59.9,152.1,040110,,,A*70
$GPRMC,180503.80,A,3249.810685,N,11710.068595,W,59.4,152.5,040110,,,A*7B
$GPRMC,180506.90,A,3249.764893,N,11710.040889,W,60.2,152.5,040110,,,A*7C
$GPRMC,180510.00,A,3249.719355,N,11710.012476,W,60.7,153.2,040110,,,A*71
$GPRMC,180513.00,A,3249.674215,N,11709.982696,W,60.3,149.6,040110,,,A*72
$GPRMC,180516.10,A,3249.628260,N,11709.955001,W,60.8,153.4,040110,,,A*7D
$GPRMC,180519.20,A,3249.582459,N,11709.926949,W,60.4,152.4,040110,,,A*72
$GPRMC,180522.40,A,3249.536782,N,11709.898032,W,59.8,151.6,040110,,,A*70
$GPRMC,180525.60,A,3249.489318,N,11709.867716,W,59.6,151.9,040110,,,A*77
$GPRMC,180528.80,A,3249.441046,N,11709.839416,W,61.0,153.9,040110,,,A*7F
$GPRMC,180531.90,A,3249.393194,N,11709.811367,W,60.9,153.7,040110,,,A*7D
$GPRMC,180534.10,A,3249.361046,N,11709.792770,W,60.4,152.7,040110,,,A*79
$GPRMC,180537.30,A,3249.312373,N,11709.764635,W,61.8,154.3,040110,,,A*7F
$GPRMC,180540.50,A,3249.262122,N,11709.736327,W,62.0,154.3,040110,,,A*73
$GPRMC,180543.60,A,3249.214027,N,11709.707793,W,61.0,154.9,040110,,,A*76
$GPRMC,180546.70,A,3249.166741,N,11709.680993,W,60.1,154.2,040110,,,A*78
$GPRMC,180549.80,A,3249.119980,N,11709.654394,W,60.0,153.4,040110,,,A*77
$GPRMC,180552.90,A,3249.073734,N,11709.626543,W,59.0,152.8,040110,,,A*7E
$GPRMC,180555.00,A,3249.042651,N,11709.608215,W,61.3,154.7,040110,,,A*79
$GPRMC,180558.10,A,3248.997147,N,11709.581618,W,59.3,153.9,040110,,,A*7C
$GPRMC,180601.20,A,3248.950891,N,11709.555232,W,60.7,152.9,040110,,,A*73
$GPRMC,180604.30,A,3248.904715,N,11709.528674,W,58.7,153.2,040110,,,A*78
$GPRMC,180607.40,A,3248.861188,N,11709.497311,W,59.4,147.3,040110,,,A*79
$GPRMC,180610.50,A,3248.819946,N,11709.462683,W,58.6,144.1,040110,,,A*7D
$GPRMC,180613.60,A,3248.780135,N,11709.425369,W,59.4,141.1,040110,,,A*7A
$GPRMC,180616.70,A,3248.742231,N,11709.385732,W,58.9,138.8,040110,,,A*7B
$GPRMC,180619.80,A,3248.702765,N,11709.346207,W,60.4,139.7,040110,,,A*7F
$GPRMC,180622.90,A,3248.664969,N,11709.306615,W,58.5,138.8,040110,,,A*72
$GPRMC,180625.00,A,3248.633500,N,11709.278783,W,62.5,141.5,040110,,,A*71
$GPRMC,180628.10,A,3248.593357,N,11709.237907,W,63.2,139.9,040110,,,A*7C
$GPRMC,180631.20,A,3248.549062,N,11709.197738,W,63.8,142.3,040110,,,A*72
$GPRMC,180634.70,A,3248.502899,N,11709.159032,W,59.7,143.9,040110,,,A*73
$GPRMC,180637.80,A,3248.451366,N,11709.129262,W,62.9,153.5,040110,,,A*78
$GPRMC,180640.90,A,3248.398827,N,11709.100625,W,64.9,156.1,040110,,,A*7E
$GPRMC,180643.90,A,3248.348026,N,11709.078950,W,62.2,160.5,040110,,,A*76
$GPRMC,180647.00,A,3248.297921,N,11709.062303,W,61.2,164.2,040110,,,A*71
$GPRMC,180650.00,A,3248.244558,N,11709.048428,W,63.0,167.0,040110,,,A*7C
$GPRMC,180653.00,A,3248.197076,N,11709.031075,W,60.7,163.8,040110,,,A*71
$GPRMC,180656.00,A,3248.140412,N,11709.017296,W,67.0,167.2,040110,,,A*7D
$GPRMC,180659.00,A,3248.086848,N,11709.003235,W,66.3,167.5,040110,,,A*73
$GPRMC,180702.00,A,3248.032562,N,11708.989216,W,65.8,167.2,040110,,,A*72
$GPRMC,180705.20,A,3247.971501,N,11708.979806,W,69.6,173.5,040110,,,A*77
$GPRMC,180708.40,A,3247.914185,N,11708.974786,W,66.9,175.6,040110,,,A*78
$GPRMC,180711.40,A,3247.855788,N,11708.975246,W,64.5,179.7,040110,,,A*74
$GPRMC,180714.40,A,3247.800679,N,11708.978692,W,65.5,181.5,040110,,,A*7A
$GPRMC,180717.50,A,3247.747111,N,11708.984537,W,63.6,185.0,040110,,,A*76
$GPRMC,180720.50,A,3247.692271,N,11708.989179,W,65.8,183.3,040110,,,A*70
$GPRMC,180723.50,A,3247.634509,N,11708.990954,W,69.6,181.4,040110,,,A*7F
$GPRMC,180726.60,A,3247.578844,N,11708.993369,W,65.9,181.5,040110,,,A*73
$GPRMC,180729.60,A,3247.525981,N,11708.986457,W,62.4,174.7,040110,,,A*70
$GPRMC,180733.10,A,3247.465284,N,11708.975273,W,62.4,170.3,040110,,,A*7B
$GPRMC,180736.90,A,3247.401307,N,11708.957648,W,61.5,167.3,040110,,,A*76
$GPRMC,180739.90,A,3247.355691,N,11708.936430,W,58.3,160.1,040110,,,A*76
$GPRMC,180743.00,A,3247.315693,N,11708.915827,W,50.6,157.7,040110,,,A*70
$GPRMC,180746.00,A,3247.279343,N,11708.893304,W,50.5,151.9,040110,,,A*78
$GPRMC,180749.00,A,3247.243168,N,11708.867509,W,51.2,148.6,040110,,,A*74
$GPRMC,180752.10,A,3247.203970,N,11708.836505,W,54.3,145.7,040110,,,A*7A
$GPRMC,180755.20,A,3247.163962,N,11708.799307,W,59.4,142.4,040110,,,A*78
$GPRMC,180758.30,A,3247.126502,N,11708.756527,W,59.9,133.7,040110,,,A*70
$GPRMC,180801.30,A,3247.090148,N,11708.709935,W,63.1,132.6,040110,,,A*71
$GPRMC,180804.50,A,3247.058432,N,11708.659330,W,60.7,127.4,040110,,,A*76
$GPRMC,180809.00,A,3247.018443,N,11708.587252,W,59.0,123.5,040110,,,A*71
$GPRMC,180812.50,A,3246.986480,N,11708.530871,W,57.9,125.0,040110,,,A*7D
$GPRMC,180816.00,A,3246.955180,N,11708.476893,W,56.5,125.2,040110,,,A*77
$GPRMC,180819.20,A,3246.924264,N,11708.428572,W,57.7,131.6,040110,,,A*7E
$GPRMC,180822.70,A,3246.885056,N,11708.379830,W,57.8,134.3,040110,,,A*7D
$GPRMC,180825.00,A,3246.857945,N,11708.351890,W,58.8,141.5,040110,,,A*72
$GPRMC,180828.50,A,3246.814317,N,11708.310397,W,58.3,144.8,040110,,,A*7A
$GPRMC,180832.00,A,3246.766934,N,11708.273141,W,58.5,148.0,040110,,,A*7A
$GPRMC,180835.20,A,3246.723123,N,11708.240863,W,57.8,149.8,040110,,,A*72
$GPRMC,180838.70,A,3246.675100,N,11708.205100,W,57.9,148.7,040110,,,A*7B
$GPRMC,180841.00,A,3246.644488,N,11708.182722,W,58.5,148.5,040110,,,A*7E
$GPRMC,180844.50,A,3246.597508,N,11708.147314,W,56.5,148.7,040110,,,A*7E
$GPRMC,180847.70,A,3246.554422,N,11708.117727,W,54.6,151.2,040110,,,A*74
$GPRMC,180850.20,A,3246.519981,N,11708.095800,W,54.6,151.6,040110,,,A*7F
$GPRMC,180853.40,A,3246.477782,N,11708.067644,W,52.8,150.1,040110,,,A*73
$GPRMC,180857.00,A,3246.432087,N,11708.036926,W,53.8,150.5,040110,,,A*7A
$GPRMC,180900.50,A,3246.386009,N,11708.005649,W,53.4,150.2,040110,,,A*7F
$GPRMC,180903.70,A,3246.346605,N,11707.973208,W,54.0,138.6,040110,,,A*77
$GPRMC,180906.50,A,3246.318198,N,11707.937534,W,52.8,132.5,040110,,,A*77
$GPRMC,180909.40,A,3246.305293,N,11707.889026,W,52.0,104.4,040110,,,A*73
$GPRMC,180914.20,A,3246.307925,N,11707.808273,W,52.8,73.9,040110,,,A*42
$GPRMC,180917.80,A,3246.331140,N,11707.751880,W,54.2,54.9,040110,,,A*49
$GPRMC,180920.00,A,3246.352276,N,11707.719516,W,55.8,52.3,040110,,,A*4F
$GPRMC,180923.50,A,3246.386115,N,11707.666646,W,57.3,53.4,040110,,,A*46
$GPRMC,180926.70,A,3246.415542,N,11707.616538,W,57.3,55.0,040110,,,A*45
$GPRMC,180929.30,A,3246.437974,N,11707.575595,W,57.7,56.1,040110,,,A*40
$GPRMC,180932.50,A,3246.466682,N,11707.524160,W,58.0,55.7,040110,,,A*49
$GPRMC,180936.00,A,3246.497490,N,11707.467235,W,58.2,59.9,040110,,,A*42
$GPRMC,180939.50,A,3246.528502,N,11707.409267,W,58.6,57.7,040110,,,A*4C
$GPRMC,180942.70,A,3246.555964,N,11707.356680,W,57.9,57.5,040110,,,A*46
$GPRMC,180945.30,A,3246.578444,N,11707.315180,W,58.4,57.8,040110,,,A*4A
$GPRMC,180948.50,A,3246.606226,N,11707.263485,W,58.0,57.0,040110,,,A*45
$GPRMC,180952.00,A,3246.636726,N,11707.206882,W,58.0,58.6,040110,,,A*4C
$GPRMC,180955.50,A,3246.663476,N,11707.147718,W,58.9,65.1,040110,,,A*42
$GPRMC,180958.70,A,3246.683089,N,11707.090682,W,58.3,70.7,040110,,,A*46
$GPRMC,181001.00,A,3246.693756,N,11707.049240,W,59.0,75.6,040110,,,A*49
$GPRMC,181004.50,A,3246.705318,N,11706.982749,W,58.6,81.5,040110,,,A*45
$GPRMC,181007.90,A,3246.710029,N,11706.916979,W,59.6,88.3,040110,,,A*41
$GPRMC,181010.00,A,3246.711051,N,11706.875008,W,58.2,88.8,040110,,,A*45
$GPRMC,181013.30,A,3246.711804,N,11706.810547,W,59.0,88.9,040110,,,A*42
$GPRMC,181016.70,A,3246.712446,N,11706.746768,W,58.9,88.9,040110,,,A*41
$GPRMC,181019.90,A,3246.713452,N,11706.683464,W,58.8,88.9,040110,,,A*42
$GPRMC,181022.10,A,3246.713589,N,11706.641448,W,58.7,89.4,040110,,,A*46
$GPRMC,181025.30,A,3246.714819,N,11706.579196,W,59.4,88.2,040110,,,A*4B
$GPRMC,181028.50,A,3246.717077,N,11706.519211,W,57.5,87.0,040110,,,A*4B
$GPRMC,181031.60,A,3246.718837,N,11706.458762,W,59.0,89.2,040110,,,A*41
$GPRMC,181034.80,A,3246.719590,N,11706.398201,W,58.7,88.9,040110,,,A*4C
$GPRMC,181037.90,A,3246.720680,N,11706.337850,W,59.8,88.9,040110,,,A*43
$GPRMC,181040.00,A,3246.722610,N,11706.297506,W,58.6,87.0,040110,,,A*4D
$GPRMC,181043.10,A,3246.725749,N,11706.236464,W,59.5,87.7,040110,,,A*4E
$GPRMC,181046.10,A,3246.729919,N,11706.176935,W,59.1,85.9,040110,,,A*4A
$GPRMC,181049.30,A,3246.735470,N,11706.117237,W,58.9,83.8,040110,,,A*48
$GPRMC,181052.40,A,3246.742321,N,11706.059055,W,57.3,80.4,040110,,,A*41
$GPRMC,181055.40,A,3246.750805,N,11706.001391,W,58.7,80.3,040110,,,A*42
$GPRMC,181058.50,A,3246.761481,N,11705.945081,W,57.6,77.9,040110,,,A*48
$GPRMC,181101.50,A,3246.769945,N,11705.888469,W,57.6,78.1,040110,,,A*4D
$GPRMC,181104.50,A,3246.780455,N,11705.832038,W,58.6,78.9,040110,,,A*45
$GPRMC,181107.50,A,3246.789774,N,11705.774653,W,60.0,79.3,040110,,,A*4F
$GPRMC,181110.50,A,3246.801225,N,11705.717605,W,59.3,77.1,040110,,,A*44
$GPRMC,181113.60,A,3246.811103,N,11705.657821,W,60.5,78.3,040110,,,A*4E
$GPRMC,181116.60,A,3246.820156,N,11705.598221,W,62.5,80.8,040110,,,A*4D
$GPRMC,181119.70,A,3246.827804,N,11705.536810,W,61.5,81.9,040110,,,A*45
$GPRMC,181122.70,A,3246.832405,N,11705.474936,W,61.7,85.5,040110,,,A*4C
$GPRMC,181125.80,A,3246.834852,N,11705.413276,W,61.8,86.6,040110,,,A*4D
$GPRMC,181128.80,A,3246.836989,N,11705.351466,W,61.6,87.6,040110,,,A*4C
$GPRMC,181131.80,A,3246.839628,N,11705.289164,W,62.2,86.2,040110,,,A*4E
$GPRMC,181134.90,A,3246.841642,N,11705.226188,W,62.2,87.8,040110,,,A*45
$GPRMC,181137.90,A,3246.839242,N,11705.162045,W,63.1,94.4,040110,,,A*42
$GPRMC,181140.00,A,3246.833873,N,11705.119274,W,64.1,99.2,040110,,,A*49
$GPRMC,181143.10,A,3246.825240,N,11705.054800,W,63.2,99.1,040110,,,A*40
$GPRMC,181146.20,A,3246.815266,N,11704.993268,W,63.4,98.7,040110,,,A*47
$GPRMC,181149.20,A,3246.806470,N,11704.931812,W,62.7,99.9,040110,,,A*49
$GPRMC,181152.20,A,3246.797412,N,11704.869532,W,63.7,99.2,040110,,,A*49
$GPRMC,181155.30,A,3246.787527,N,11704.808369,W,61.9,100.6,040110,,,A*7F
$GPRMC,181158.30,A,3246.779845,N,11704.747177,W,61.8,98.9,040110,,,A*4D
$GPRMC,181201.30,A,3246.771964,N,11704.686413,W,62.0,97.5,040110,,,A*4B
$GPRMC,181204.40,A,3246.763928,N,11704.624875,W,61.6,98.9,040110,,,A*40
$GPRMC,181207.50,A,3246.756207,N,11704.564133,W,61.0,96.9,040110,,,A*46
$GPRMC,181210.50,A,3246.751877,N,11704.501907,W,61.6,96.4,040110,,,A*4D
$GPRMC,181213.70,A,3246.747934,N,11704.437652,W,63.5,95.5,040110,,,A*45
$GPRMC,181216.80,A,3246.747191,N,11704.374616,W,61.2,89.9,040110,,,A*4C
$GPRMC,181220.00,A,3246.747204,N,11704.308013,W,63.0,89.7,040110,,,A*48
$GPRMC,181223.10,A,3246.748576,N,11704.245234,W,61.2,88.5,040110,,,A*4B
$GPRMC,181226.30,A,3246.748685,N,11704.181489,W,61.2,89.8,040110,,,A*44
$GPRMC,181229.40,A,3246.751083,N,11704.117190,W,61.2,87.9,040110,,,A*49
$GPRMC,181232.70,A,3246.751051,N,11704.051147,W,61.0,89.3,040110,,,A*40
$GPRMC,181235.30,A,3246.751717,N,11703.999660,W,61.5,89.0,040110,,,A*48
$GPRMC,181238.10,A,3246.753157,N,11703.944059,W,60.4,88.6,040110,,,A*4C
$GPRMC,181241.40,A,3246.751776,N,11703.876659,W,61.1,91.3,040110,,,A*4F
$GPRMC,181244.50,A,3246.747327,N,11703.814127,W,61.9,95.5,040110,,,A*4C
$GPRMC,181247.70,A,3246.732853,N,11703.752570,W,62.4,104.7,040110,,,A*79
$GPRMC,181251.00,A,3246.712640,N,11703.688518,W,61.9,109.3,040110,,,A*78
$GPRMC,181254.10,A,3246.694835,N,11703.628190,W,62.8,109.2,040110,,,A*72
$GPRMC,181257.40,A,3246.675780,N,11703.563986,W,63.4,109.5,040110,,,A*73
$GPRMC,181300.60,A,3246.661347,N,11703.501517,W,60.7,104.9,040110,,,A*79
$GPRMC,181303.80,A,3246.649932,N,11703.436385,W,62.1,102.5,040110,,,A*70
$GPRMC,181307.00,A,3246.637672,N,11703.371578,W,62.0,102.9,040110,,,A*73
$GPRMC,181310.20,A,3246.627480,N,11703.306268,W,62.8,102.2,040110,,,A*7C
$GPRMC,181313.50,A,3246.615376,N,11703.238040,W,62.4,102.3,040110,,,A*7E
$GPRMC,181317.90,A,3246.597268,N,11703.147763,W,63.8,103.5,040110,,,A*76
$GPRMC,181320.00,A,3246.585802,N,11703.106349,W,64.0,106.0,040110,,,A*78
$GPRMC,181323.30,A,3246.565088,N,11703.042658,W,62.4,109.2,040110,,,A*77
$GPRMC,181326.40,A,3246.544924,N,11702.982150,W,61.9,111.6,040110,,,A*71
$GPRMC,181329.60,A,3246.520716,N,11702.923142,W,63.8,115.8,040110,,,A*70
$GPRMC,181332.70,A,3246.494446,N,11702.866774,W,62.3,118.5,040110,,,A*7A
$GPRMC,181335.10,A,3246.474287,N,11702.829162,W,62.3,121.4,040110,,,A*7F
$GPRMC,181338.30,A,3246.445896,N,11702.774383,W,60.6,122.1,040110,,,A*73
$GPRMC,181342.80,A,3246.405675,N,11702.698343,W,61.0,122.5,040110,,,A*7E
$GPRMC,181345.50,A,3246.380902,N,11702.650507,W,62.5,121.9,040110,,,A*7A
$GPRMC,181348.80,A,3246.350742,N,11702.592742,W,62.5,121.8,040110,,,A*72
$GPRMC,181351.80,A,3246.324517,N,11702.537999,W,62.8,120.6,040110,,,A*7E
$GPRMC,181354.90,A,3246.338784,N,11702.473577,W,59.3,96.0,040110,,,A*4B
$GPRMC,181357.90,A,3246.339150,N,11702.413145,W,59.4,90.4,040110,,,A*40
$GPRMC,181400.00,A,3246.343095,N,11702.370971,W,61.1,86.3,040110,,,A*4A
$GPRMC,181403.10,A,3246.357827,N,11702.308386,W,62.2,77.4,040110,,,A*48
$GPRMC,181406.20,A,3246.374160,N,11702.252938,W,59.8,73.0,040110,,,A*46
$GPRMC,181409.60,A,3246.391266,N,11702.188798,W,59.8,72.9,040110,,,A*4B
$GPRMC,181412.60,A,3246.406495,N,11702.132051,W,59.7,72.7,040110,,,A*40
$GPRMC,181415.60,A,3246.424190,N,11702.073157,W,63.1,72.2,040110,,,A*4E
$GPRMC,181418.60,A,3246.429943,N,11702.015035,W,60.9,80.0,040110,,,A*49
$GPRMC,181422.90,A,3246.430463,N,11701.929575,W,61.5,92.8,040110,,,A*4A
$GPRMC,181425.90,A,3246.422171,N,11701.871482,W,59.9,99.6,040110,,,A*4F
$GPRMC,181429.30,A,3246.399866,N,11701.809919,W,60.4,112.0,040110,,,A*72
$GPRMC,181432.50,A,3246.373665,N,11701.751564,W,60.7,117.6,040110,,,A*73
$GPRMC,181435.60,A,3246.350394,N,11701.696690,W,60.7,117.0,040110,,,A*79
$GPRMC,181458.20,A,3246.239461,N,11701.316490,W,60.4,82.0,040110,,,A*44
$GPRMC,181502.30,A,3246.266256,N,11701.231381,W,59.1,76.9,040110,,,A*4D
$GPRMC,181505.80,A,3246.274977,N,11701.170064,W,58.9,67.8,040110,,,A*4C
$GPRMC,181508.40,A,3246.292168,N,11701.124345,W,59.0,61.6,040110,,,A*42
$GPRMC,181511.60,A,3246.318172,N,11701.070833,W,58.9,59.4,040110,,,A*4B
$GPRMC,181515.10,A,3246.351816,N,11701.010719,W,59.3,58.8,040110,,,A*49
$GPRMC,181518.60,A,3246.380265,N,11700.950500,W,60.2,61.2,040110,,,A*4C
$GPRMC,181521.80,A,3246.404053,N,11700.893099,W,60.9,65.7,040110,,,A*45
$GPRMC,181524.40,A,3246.423124,N,11700.844908,W,61.4,66.7,040110,,,A*4C
$GPRMC,181527.60,A,3246.444650,N,11700.784921,W,61.2,67.3,040110,,,A*43
$GPRMC,181530.20,A,3246.462708,N,11700.737389,W,60.8,66.0,040110,,,A*40
$GPRMC,181533.40,A,3246.483556,N,11700.679485,W,59.3,67.1,040110,,,A*42
$GPRMC,181536.90,A,3246.507961,N,11700.615809,W,59.5,66.7,040110,,,A*4C
$GPRMC,181539.10,A,3246.522582,N,11700.575183,W,59.1,66.6,040110,,,A*46
$GPRMC,181542.60,A,3246.545503,N,11700.511579,W,59.4,67.6,040110,,,A*42
$GPRMC,181546.20,A,3246.566722,N,11700.448892,W,58.7,66.9,040110,,,A*4B
$GPRMC,181549.40,A,3246.587112,N,11700.391763,W,58.6,68.3,040110,,,A*4F
$GPRMC,181552.90,A,3246.609159,N,11700.329218,W,57.3,66.5,040110,,,A*4A
$GPRMC,181555.10,A,3246.623152,N,11700.290270,W,56.5,66.3,040110,,,A*4A
$GPRMC,181558.60,A,3246.645700,N,11700.230821,W,55.8,64.6,040110,,,A*4C
$GPRMC,181602.20,A,3246.671482,N,11700.175241,W,55.4,58.1,040110,,,A*40
$GPRMC,181605.40,A,3246.697116,N,11700.125920,W,55.1,59.8,040110,,,A*45
$GPRMC,181608.90,A,3246.722584,N,11700.067974,W,57.1,66.3,040110,,,A*46
$GPRMC,181611.10,A,3246.735168,N,11700.028575,W,57.3,72.3,040110,,,A*47
$GPRMC,181614.60,A,3246.747796,N,11659.963487,W,58.6,81.2,040110,,,A*47
$GPRMC,181618.20,A,3246.752325,N,11659.895879,W,59.7,89.9,040110,,,A*41
$GPRMC,181621.40,A,3246.750881,N,11659.832760,W,59.3,91.3,040110,,,A*47
$GPRMC,181624.50,A,3246.749749,N,11659.770691,W,59.5,91.1,040110,,,A*42
$GPRMC,181627.60,A,3246.747301,N,11659.712998,W,58.9,92.6,040110,,,A*4F
$GPRMC,181630.60,A,3246.745409,N,11659.654416,W,59.3,92.2,040110,,,A*43
$GPRMC,181633.60,A,3246.743854,N,11659.594525,W,60.6,92.4,040110,,,A*45
$GPRMC,181636.60,A,3246.742656,N,11659.534860,W,60.5,90.7,040110,,,A*49
$GPRMC,181639.60,A,3246.740894,N,11659.474845,W,60.7,92.5,040110,,,A*44
$GPRMC,181642.20,A,3246.738912,N,11659.423110,W,61.1,93.2,040110,,,A*46
$GPRMC,181645.30,A,3246.736740,N,11659.359351,W,60.8,92.6,040110,,,A*47
$GPRMC,181648.50,A,3246.735716,N,11659.298742,W,61.0,91.2,040110,,,A*48
$GPRMC,181651.60,A,3246.734418,N,11659.237635,W,59.2,90.8,040110,,,A*49
$GPRMC,181654.70,A,3246.734027,N,11659.177047,W,59.3,90.7,040110,,,A*4F
$GPRMC,181657.00,A,3246.737901,N,11659.131691,W,57.1,83.5,040110,,,A*46
$GPRMC,181700.20,A,3246.753121,N,11659.073011,W,55.7,69.3,040110,,,A*40
$GPRMC,181703.60,A,3246.778705,N,11659.013366,W,58.2,62.2,040110,,,A*49
$GPRMC,181706.20,A,3246.805247,N,11658.972897,W,59.1,50.5,040110,,,A*40
$GPRMC,181709.40,A,3246.843903,N,11658.927684,W,60.2,44.5,040110,,,A*40
$GPRMC,181714.60,A,3246.921415,N,11658.876687,W,62.1,26.1,040110,,,A*46
$GPRMC,181717.80,A,3246.971985,N,11658.848374,W,62.4,25.6,040110,,,A*4F
$GPRMC,181720.10,A,3247.007834,N,11658.828833,W,63.1,24.7,040110,,,A*4A
$GPRMC,181723.20,A,3247.057699,N,11658.799180,W,63.4,28.0,040110,,,A*4C
$GPRMC,181726.50,A,3247.109103,N,11658.764214,W,63.7,29.8,040110,,,A*46
$GPRMC,181729.70,A,3247.155387,N,11658.727411,W,63.9,32.9,040110,,,A*4D
$GPRMC,181732.90,A,3247.204695,N,11658.693597,W,63.6,27.6,040110,,,A*4D
$GPRMC,181736.00,A,3247.255749,N,11658.669973,W,63.6,20.8,040110,,,A*4E
$GPRMC,181739.00,A,3247.308368,N,11658.657715,W,63.3,7.9,040110,,,A*7D
$GPRMC,181742.50,A,3247.367018,N,11658.656968,W,64.9,0.5,040110,,,A*7A
$GPRMC,181745.60,A,3247.422327,N,11658.657606,W,64.9,0.7,040110,,,A*73
$GPRMC,181748.70,A,3247.479489,N,11658.656848,W,64.8,3.1,040110,,,A*73
$GPRMC,181751.80,A,3247.537330,N,11658.651290,W,66.4,6.4,040110,,,A*7C
$GPRMC,181754.00,A,3247.577164,N,11658.644594,W,65.4,7.0,040110,,,A*77
$GPRMC,181757.20,A,3247.635152,N,11658.635685,W,65.7,8.2,040110,,,A*7D
$GPRMC,181800.20,A,3247.689513,N,11658.628054,W,65.9,6.7,040110,,,A*75
$GPRMC,181803.20,A,3247.742278,N,11658.620074,W,63.9,7.9,040110,,,A*79
$GPRMC,181806.60,A,3247.800204,N,11658.611052,W,64.1,7.8,040110,,,A*72
$GPRMC,181809.50,A,3247.852359,N,11658.602099,W,64.4,8.2,040110,,,A*75
$GPRMC,181812.50,A,3247.905352,N,11658.586392,W,64.3,14.8,040110,,,A*40
$GPRMC,181815.50,A,3247.953892,N,11658.562736,W,63.7,21.9,040110,,,A*47
$GPRMC,181818.50,A,3248.001499,N,11658.531699,W,65.1,31.2,040110,,,A*44
$GPRMC,181821.60,A,3248.045014,N,11658.493430,W,63.4,40.3,040110,,,A*40
$GPRMC,181824.60,A,3248.083939,N,11658.448110,W,66.6,48.0,040110,,,A*44
$GPRMC,181827.60,A,3248.116827,N,11658.396158,W,65.8,53.8,040110,,,A*43
$GPRMC,181830.60,A,3248.144054,N,11658.340834,W,65.5,61.0,040110,,,A*42
$GPRMC,181833.60,A,3248.165409,N,11658.280245,W,67.9,69.4,040110,,,A*4D
$GPRMC,181836.60,A,3248.178378,N,11658.217938,W,64.8,78.0,040110,,,A*4C
$GPRMC,181839.60,A,3248.185336,N,11658.155520,W,62.3,84.9,040110,,,A*4C
$GPRMC,181842.70,A,3248.185495,N,11658.089610,W,64.4,90.3,040110,,,A*41
$GPRMC,181845.70,A,3248.186339,N,11658.024763,W,64.9,89.4,040110,,,A*44
$GPRMC,181848.80,A,3248.186214,N,11657.958639,W,63.2,92.2,040110,,,A*4B
$GPRMC,181851.90,A,3248.186061,N,11657.895205,W,63.7,90.3,040110,,,A*4F
$GPRMC,181854.90,A,3248.185471,N,11657.832839,W,62.5,90.3,040110,,,A*47
$GPRMC,181858.10,A,3248.185798,N,11657.768141,W,60.1,89.5,040110,,,A*49
$GPRMC,181901.20,A,3248.187152,N,11657.706464,W,59.1,88.5,040110,,,A*44
$GPRMC,181904.40,A,3248.186513,N,11657.642851,W,60.8,91.8,040110,,,A*4A
$GPRMC,181907.80,A,3248.186809,N,11657.573878,W,61.8,90.0,040110,,,A*41
$GPRMC,181910.90,A,3248.187870,N,11657.512198,W,62.4,89.3,040110,,,A*4D
$GPRMC,181914.00,A,3248.185878,N,11657.448193,W,62.6,91.8,040110,,,A*4F
$GPRMC,181917.10,A,3248.185402,N,11657.382285,W,63.7,89.5,040110,,,A*4D
$GPRMC,181920.20,A,3248.185375,N,11657.316138,W,64.6,89.3,040110,,,A*45
$GPRMC,181923.30,A,3248.185795,N,11657.253213,W,62.2,89.1,040110,,,A*47
$GPRMC,181926.50,A,3248.184921,N,11657.190936,W,59.4,88.9,040110,,,A*43
$GPRMC,181929.50,A,3248.185777,N,11657.129145,W,60.0,88.7,040110,,,A*4E
$GPRMC,181932.60,A,3248.187741,N,11657.067514,W,62.1,89.4,040110,,,A*4A
$GPRMC,181935.70,A,3248.187656,N,11657.002387,W,64.8,90.2,040110,,,A*45
$GPRMC,181938.80,A,3248.187556,N,11656.936123,W,64.5,90.8,040110,,,A*40
$GPRMC,181941.80,A,3248.186215,N,11656.870135,W,63.8,91.7,040110,,,A*4F
$GPRMC,181944.90,A,3248.186427,N,11656.804568,W,64.6,89.3,040110,,,A*47
$GPRMC,181948.00,A,3248.185554,N,11656.739022,W,64.8,90.6,040110,,,A*4D
$GPRMC,181951.00,A,3248.183931,N,11656.674928,W,63.7,91.6,040110,,,A*4E
$GPRMC,181954.20,A,3248.183805,N,11656.609867,W,62.9,89.7,040110,,,A*48
$GPRMC,181957.30,A,3248.184301,N,11656.545968,W,61.9,90.4,040110,,,A*4F
$GPRMC,182000.40,A,3248.183908,N,11656.484335,W,62.8,88.6,040110,,,A*43
$GPRMC,182003.50,A,3248.184786,N,11656.420444,W,62.3,88.9,040110,,,A*45
$GPRMC,182006.60,A,3248.183674,N,11656.355967,W,62.3,92.1,040110,,,A*42
$GPRMC,182009.70,A,3248.184416,N,11656.291491,W,63.7,89.7,040110,,,A*49
$GPRMC,182012.80,A,3248.183841,N,11656.227106,W,62.7,91.3,040110,,,A*4F
$GPRMC,182015.90,A,3248.183299,N,11656.162753,W,62.9,90.8,040110,,,A*46
$GPRMC,182018.90,A,3248.182864,N,11656.099221,W,63.8,91.4,040110,,,A*4A
$GPRMC,182021.00,A,3248.183902,N,11656.056052,W,63.3,89.1,040110,,,A*4B
$GPRMC,182024.10,A,3248.184695,N,11655.990028,W,64.3,89.2,040110,,,A*40
$GPRMC,182027.30,A,3248.184881,N,11655.922812,W,64.0,89.5,040110,,,A*46
$GPRMC,182030.40,A,3248.184702,N,11655.860187,W,61.5,89.4,040110,,,A*40
$GPRMC,182033.50,A,3248.182495,N,11655.798044,W,61.3,89.9,040110,,,A*44
$GPRMC,182036.50,A,3248.182206,N,11655.738408,W,58.9,89.9,040110,,,A*4B
$GPRMC,182039.60,A,3248.181867,N,11655.677846,W,58.1,91.3,040110,,,A*4E
$GPRMC,182042.70,A,3248.183665,N,11655.621016,W,57.8,85.8,040110,,,A*4B
$GPRMC,182045.70,A,3248.191996,N,11655.563979,W,57.0,79.1,040110,,,A*4B
$GPRMC,182048.70,A,3248.204319,N,11655.508600,W,58.6,73.8,040110,,,A*42
$GPRMC,182051.80,A,3248.221595,N,11655.454748,W,56.7,67.1,040110,,,A*46
$GPRMC,182054.90,A,3248.243055,N,11655.402680,W,56.1,61.1,040110,,,A*49
$GPRMC,182057.90,A,3248.268838,N,11655.354381,W,56.0,57.5,040110,,,A*40
$GPRMC,182100.90,A,3248.298060,N,11655.309128,W,56.3,52.2,040110,,,A*41
$GPRMC,182103.00,A,3248.320053,N,11655.279947,W,56.1,47.2,040110,,,A*48
$GPRMC,182106.10,A,3248.356333,N,11655.243300,W,55.6,38.0,040110,,,A*46
$GPRMC,182109.20,A,3248.392792,N,11655.207411,W,54.0,40.4,040110,,,A*46
$GPRMC,182112.30,A,3248.434063,N,11655.180416,W,54.7,28.7,040110,,,A*4E
$GPRMC,182115.40,A,3248.475544,N,11655.154536,W,55.1,27.9,040110,,,A*47
$GPRMC,182118.40,A,3248.517429,N,11655.128835,W,56.7,27.3,040110,,,A*4F
$GPRMC,182121.40,A,3248.560203,N,11655.103221,W,56.3,27.0,040110,,,A*4A
$GPRMC,182124.50,A,3248.602948,N,11655.077291,W,56.5,27.5,040110,,,A*47
$GPRMC,182127.60,A,3248.646947,N,11655.052275,W,56.5,26.2,040110,,,A*43
$GPRMC,182130.70,A,3248.690646,N,11655.026336,W,56.6,26.9,040110,,,A*4C
$GPRMC,182133.80,A,3248.734453,N,11654.999767,W,57.3,27.3,040110,,,A*4A
$GPRMC,182136.80,A,3248.777766,N,11654.972162,W,57.5,28.1,040110,,,A*40
$GPRMC,182139.90,A,3248.817931,N,11654.941489,W,57.8,32.7,040110,,,A*4B
$GPRMC,182142.90,A,3248.854951,N,11654.904971,W,57.3,42.0,040110,,,A*46
$GPRMC,182145.90,A,3248.890843,N,11654.867346,W,56.1,42.7,040110,,,A*45
$GPRMC,182148.90,A,3248.926623,N,11654.829805,W,57.4,41.5,040110,,,A*4F
$GPRMC,182151.90,A,3248.962885,N,11654.791567,W,57.3,43.8,040110,,,A*48
$GPRMC,182154.00,A,3248.987456,N,11654.767241,W,58.4,42.2,040110,,,A*44
$GPRMC,182157.00,A,3249.023777,N,11654.728877,W,58.6,42.1,040110,,,A*44
$GPRMC,182200.00,A,3249.059856,N,11654.691166,W,57.4,41.6,040110,,,A*47
$GPRMC,182203.00,A,3249.098203,N,11654.653627,W,59.9,39.2,040110,,,A*47
$GPRMC,182206.20,A,3249.142766,N,11654.620486,W,60.5,33.5,040110,,,A*46
$GPRMC,182209.20,A,3249.187834,N,11654.594241,W,61.2,28.1,040110,,,A*41
$GPRMC,182212.50,A,3249.235864,N,11654.564217,W,59.4,29.5,040110,,,A*47
$GPRMC,182215.60,A,3249.282820,N,11654.543833,W,59.2,26.7,040110,,,A*4D
$GPRMC,182219.70,A,3249.340293,N,11654.499288,W,60.6,36.7,040110,,,A*4E
$GPRMC,182226.00,A,3249.418711,N,11654.411553,W,61.6,47.9,040110,,,A*48
$GPRMC,182229.20,A,3249.458542,N,11654.361809,W,62.5,49.8,040110,,,A*48
$GPRMC,182232.50,A,3249.495819,N,11654.311460,W,61.3,50.0,040110,,,A*46
$GPRMC,182235.70,A,3249.531562,N,11654.264035,W,60.1,49.3,040110,,,A*42
$GPRMC,182238.80,A,3249.565471,N,11654.218480,W,61.5,48.9,040110,,,A*4D
$GPRMC,182242.20,A,3249.606234,N,11654.165551,W,62.4,48.2,040110,,,A*46
$GPRMC,182245.20,A,3249.640702,N,11654.121159,W,62.4,48.0,040110,,,A*4D
$GPRMC,182248.30,A,3249.678678,N,11654.073295,W,62.1,46.7,040110,,,A*4F
$GPRMC,182251.50,A,3249.715924,N,11654.025483,W,62.5,47.8,040110,,,A*45
$GPRMC,182254.60,A,3249.753132,N,11653.975929,W,63.6,46.9,040110,,,A*4A
$GPRMC,182257.70,A,3249.790806,N,11653.926948,W,64.2,48.6,040110,,,A*4A
$GPRMC,182300.80,A,3249.827984,N,11653.876435,W,63.6,46.8,040110,,,A*4E
$GPRMC,182303.90,A,3249.867168,N,11653.828629,W,64.5,45.8,040110,,,A*41
$GPRMC,182306.10,A,3249.895021,N,11653.796937,W,65.0,43.9,040110,,,A*44
$GPRMC,182309.20,A,3249.936729,N,11653.751751,W,64.7,41.8,040110,,,A*4F
$GPRMC,182312.40,A,3249.980481,N,11653.707844,W,64.9,40.0,040110,,,A*40
$GPRMC,182315.50,A,3250.022402,N,11653.664974,W,63.9,42.2,040110,,,A*45
$GPRMC,182318.60,A,3250.064986,N,11653.621857,W,63.6,40.1,040110,,,A*47
$GPRMC,182321.70,A,3250.106432,N,11653.577319,W,64.0,41.9,040110,,,A*42
$GPRMC,182324.80,A,3250.148518,N,11653.533798,W,65.1,40.9,040110,,,A*47
$GPRMC,182328.00,A,3250.191943,N,11653.486426,W,65.2,43.2,040110,,,A*47
$GPRMC,182331.10,A,3250.233550,N,11653.441271,W,65.2,44.2,040110,,,A*43
$GPRMC,182334.20,A,3250.273716,N,11653.397365,W,63.1,43.0,040110,,,A*49
$GPRMC,182337.30,A,3250.315288,N,11653.355220,W,62.0,42.2,040110,,,A*45
$GPRMC,182340.40,A,3250.354722,N,11653.311924,W,62.4,41.0,040110,,,A*48
$GPRMC,182343.00,A,3250.387815,N,11653.276912,W,62.3,41.6,040110,,,A*4E
$GPRMC,182346.70,A,3250.437042,N,11653.226404,W,63.0,40.6,040110,,,A*46
$GPRMC,182349.80,A,3250.477098,N,11653.184257,W,62.8,40.8,040110,,,A*49
$GPRMC,182352.90,A,3250.515816,N,11653.141322,W,62.1,41.6,040110,,,A*45
$GPRMC,182355.00,A,3250.542024,N,11653.113282,W,61.9,41.9,040110,,,A*48
$GPRMC,182358.10,A,3250.580390,N,11653.067849,W,61.7,45.7,040110,,,A*4D
$GPRMC,182401.20,A,3250.615725,N,11653.020250,W,62.0,49.4,040110,,,A*4A
$GPRMC,182404.30,A,3250.642510,N,11652.965553,W,62.2,59.2,040110,,,A*40
$GPRMC,182407.40,A,3250.662454,N,11652.907393,W,60.8,69.5,040110,,,A*45
$GPRMC,182410.40,A,3250.677123,N,11652.847846,W,61.8,75.2,040110,,,A*4F
$GPRMC,182413.50,A,3250.688789,N,11652.788656,W,62.5,75.6,040110,,,A*42
$GPRMC,182416.50,A,3250.701223,N,11652.729345,W,62.4,76.9,040110,,,A*43
$GPRMC,182419.60,A,3250.714569,N,11652.667264,W,62.2,74.1,040110,,,A*47
$GPRMC,182422.60,A,3250.731507,N,11652.610217,W,61.6,68.6,040110,,,A*49
$GPRMC,182425.70,A,3250.754865,N,11652.554465,W,62.0,60.8,040110,,,A*46
$GPRMC,182428.80,A,3250.783575,N,11652.500707,W,62.6,55.9,040110,,,A*45
$GPRMC,182431.90,A,3250.818436,N,11652.449880,W,64.5,49.1,040110,,,A*4B
$GPRMC,182434.00,A,3250.843362,N,11652.418086,W,65.5,45.4,040110,,,A*4D
$GPRMC,182440.20,A,3250.927707,N,11652.332554,W,65.3,40.0,040110,,,A*4A
$GPRMC,182443.40,A,3250.969630,N,11652.289974,W,62.7,41.2,040110,,,A*4F
$GPRMC,182446.50,A,3251.011819,N,11652.246529,W,64.4,41.5,040110,,,A*4C
$GPRMC,182449.60,A,3251.052310,N,11652.201639,W,65.1,46.1,040110,,,A*43
$GPRMC,182452.70,A,3251.088063,N,11652.152502,W,65.1,51.4,040110,,,A*45
$GPRMC,182455.80,A,3251.117913,N,11652.097066,W,63.0,58.7,040110,,,A*46
$GPRMC,182458.90,A,3251.141827,N,11652.040701,W,60.7,63.9,040110,,,A*41
$GPRMC,182502.00,A,3251.159998,N,11651.983821,W,60.1,69.9,040110,,,A*4E
$GPRMC,182507.00,A,3251.187974,N,11651.890465,W,58.3,70.0,040110,,,A*4D
$GPRMC,182510.20,A,3251.205955,N,11651.832761,W,58.4,70.5,040110,,,A*4E
$GPRMC,182513.80,A,3251.224688,N,11651.767228,W,60.1,73.2,040110,,,A*46
$GPRMC,182516.00,A,3251.233935,N,11651.723515,W,61.1,77.4,040110,,,A*4E
$GPRMC,182519.50,A,3251.243495,N,11651.652396,W,63.4,84.2,040110,,,A*43
$GPRMC,182522.70,A,3251.244870,N,11651.585359,W,63.5,92.5,040110,,,A*42
$GPRMC,182525.30,A,3251.240778,N,11651.531274,W,64.5,97.1,040110,,,A*45
$GPRMC,182528.50,A,3251.232166,N,11651.463754,W,63.5,98.4,040110,,,A*4E
$GPRMC,182532.00,A,3251.223536,N,11651.392155,W,60.7,99.1,040110,,,A*4A
$GPRMC,182535.50,A,3251.215374,N,11651.323734,W,59.0,98.0,040110,,,A*4B
$GPRMC,182538.70,A,3251.207366,N,11651.261409,W,58.9,98.3,040110,,,A*45
$GPRMC,182541.00,A,3251.201657,N,11651.217748,W,59.7,98.7,040110,,,A*41
$GPRMC,182544.50,A,3251.193840,N,11651.150296,W,56.7,97.0,040110,,,A*40
$GPRMC,182548.00,A,3251.186081,N,11651.086656,W,54.4,97.7,040110,,,A*4C
$GPRMC,182551.20,A,3251.179515,N,11651.030149,W,54.2,99.4,040110,,,A*41
$GPRMC,182554.70,A,3251.172153,N,11650.968393,W,53.4,96.4,040110,,,A*42
$GPRMC,182557.00,A,3251.168255,N,11650.928340,W,55.2,96.3,040110,,,A*45
$GPRMC,182600.50,A,3251.163489,N,11650.864218,W,55.5,93.1,040110,,,A*48
$GPRMC,182604.00,A,3251.160696,N,11650.800043,W,56.5,91.0,040110,,,A*48
$GPRMC,182607.20,A,3251.161437,N,11650.740180,W,57.4,87.7,040110,,,A*44
$GPRMC,182610.70,A,3251.165137,N,11650.673265,W,58.7,85.1,040110,,,A*47
$GPRMC,182613.20,A,3251.173524,N,11650.587471,W,58.9,83.3,040110,,,A*41
$GPRMC,182616.70,A,3251.180382,N,11650.519188,W,58.9,83.8,040110,,,A*48
$GPRMC,182619.00,A,3251.184729,N,11650.475950,W,58.9,84.3,040110,,,A*4B
$GPRMC,182622.50,A,3251.193048,N,11650.407315,W,59.6,79.7,040110,,,A*46
$GPRMC,182625.70,A,3251.206290,N,11650.345217,W,60.4,72.8,040110,,,A*45
$GPRMC,182628.20,A,3251.220736,N,11650.297492,W,59.3,68.0,040110,,,A*4B
$GPRMC,182632.70,A,3251.253132,N,11650.216761,W,60.6,64.6,040110,,,A*40
$GPRMC,182635.80,A,3251.274511,N,11650.159205,W,59.2,67.9,040110,,,A*45
$GPRMC,182638.80,A,3251.296351,N,11650.103180,W,62.8,63.3,040110,,,A*4B
$GPRMC,182641.90,A,3251.318583,N,11650.046373,W,63.6,66.5,040110,,,A*48
$GPRMC,182644.90,A,3251.337564,N,11649.986887,W,64.9,70.6,040110,,,A*48
$GPRMC,182647.90,A,3251.352685,N,11649.926667,W,61.9,75.2,040110,,,A*4A
$GPRMC,182650.90,A,3251.364658,N,11649.866796,W,62.6,78.8,040110,,,A*48
$GPRMC,182653.00,A,3251.371408,N,11649.824175,W,61.1,81.9,040110,,,A*4F
$GPRMC,182656.00,A,3251.377159,N,11649.763675,W,62.2,86.2,040110,,,A*4A
$GPRMC,182659.00,A,3251.379547,N,11649.703796,W,60.5,87.2,040110,,,A*4E
$GPRMC,182702.00,A,3251.380097,N,11649.642130,W,62.1,88.4,040110,,,A*4E
$GPRMC,182705.00,A,3251.382207,N,11649.581644,W,61.4,87.9,040110,,,A*4C
$GPRMC,182708.30,A,3251.385195,N,11649.515805,W,60.7,87.8,040110,,,A*48
$GPRMC,182711.50,A,3251.387300,N,11649.453244,W,61.5,89.2,040110,,,A*41
$GPRMC,182714.60,A,3251.389399,N,11649.390493,W,61.3,87.8,040110,,,A*4F
$GPRMC,182717.70,A,3251.390934,N,11649.328152,W,59.6,88.8,040110,,,A*42
$GPRMC,182720.80,A,3251.392632,N,11649.266584,W,61.1,88.1,040110,,,A*43
$GPRMC,182723.80,A,3251.393526,N,11649.206508,W,60.8,89.3,040110,,,A*4E
$GPRMC,182727.90,A,3251.394257,N,11649.124683,W,60.0,89.7,040110,,,A*42
$GPRMC,182730.10,A,3251.396083,N,11649.082444,W,58.9,88.4,040110,,,A*41
$GPRMC,182734.20,A,3251.391522,N,11649.000766,W,60.1,96.6,040110,,,A*48
$GPRMC,182739.40,A,3251.369881,N,11648.900283,W,59.8,107.9,040110,,,A*73
$GPRMC,182742.60,A,3251.345717,N,11648.840259,W,62.0,116.1,040110,,,A*79
$GPRMC,182745.80,A,3251.314924,N,11648.787997,W,59.7,124.7,040110,,,A*7F
$GPRMC,182749.00,A,3251.275860,N,11648.739318,W,62.2,135.9,040110,,,A*77
$GPRMC,182752.10,A,3251.234880,N,11648.699341,W,61.2,141.7,040110,,,A*7E
$GPRMC,182755.30,A,3251.190086,N,11648.662786,W,63.0,145.1,040110,,,A*71
$GPRMC,182758.30,A,3251.146255,N,11648.628415,W,62.5,146.4,040110,,,A*7E
$GPRMC,182801.40,A,3251.100974,N,11648.593119,W,62.6,146.2,040110,,,A*7F
$GPRMC,182804.40,A,3251.056719,N,11648.560899,W,61.9,147.7,040110,,,A*78
$GPRMC,182807.40,A,3251.012514,N,11648.527930,W,63.1,147.8,040110,,,A*70
$GPRMC,182810.40,A,3250.968778,N,11648.496125,W,61.5,146.0,040110,,,A*73
$GPRMC,182813.50,A,3250.929537,N,11648.458298,W,60.9,140.1,040110,,,A*70
$GPRMC,182816.60,A,3250.895257,N,11648.416723,W,58.3,132.8,040110,,,A*73
$GPRMC,182819.70,A,3250.860648,N,11648.375123,W,57.1,133.7,040110,,,A*7A
$GPRMC,182822.80,A,3250.827242,N,11648.331347,W,57.9,131.8,040110,,,A*75
$GPRMC,182825.90,A,3250.794747,N,11648.286008,W,57.9,130.9,040110,,,A*71
$GPRMC,182828.00,A,3250.771802,N,11648.256039,W,58.9,132.6,040110,,,A*7D
$GPRMC,182831.10,A,3250.737856,N,11648.210455,W,58.9,132.8,040110,,,A*75
$GPRMC,182834.30,A,3250.703097,N,11648.164216,W,58.4,131.9,040110,,,A*7E
$GPRMC,182837.50,A,3250.671804,N,11648.113143,W,60.7,124.9,040110,,,A*72
$GPRMC,182840.50,A,3250.646169,N,11648.062754,W,60.3,119.0,040110,,,A*70
$GPRMC,182845.70,A,3250.609138,N,11647.967250,W,61.8,113.5,040110,,,A*7F
$GPRMC,182848.90,A,3250.588195,N,11647.908051,W,60.9,113.6,040110,,,A*78
$GPRMC,182851.00,A,3250.574345,N,11647.868514,W,60.9,113.8,040110,,,A*78
$GPRMC,182855.10,A,3250.546850,N,11647.792991,W,61.6,113.4,040110,,,A*7A
$GPRMC,182859.30,A,3250.518980,N,11647.716487,W,60.8,113.9,040110,,,A*77
$GPRMC,182902.50,A,3250.497540,N,11647.657177,W,61.7,113.6,040110,,,A*77
$GPRMC,182905.70,A,3250.476597,N,11647.599012,W,60.9,113.4,040110,,,A*79
$GPRMC,182908.80,A,3250.455971,N,11647.542603,W,60.7,113.7,040110,,,A*73
$GPRMC,182911.80,A,3250.436020,N,11647.486629,W,58.8,113.7,040110,,,A*76
$GPRMC,182914.90,A,3250.415312,N,11647.429970,W,60.1,113.4,040110,,,A*76
$GPRMC,182917.10,A,3250.401402,N,11647.390437,W,59.3,112.8,040110,,,A*70
$GPRMC,182920.20,A,3250.380756,N,11647.333906,W,59.7,115.0,040110,,,A*76
$GPRMC,182923.20,A,3250.362205,N,11647.278717,W,58.8,110.6,040110,,,A*77
$GPRMC,182926.30,A,3250.347737,N,11647.219086,W,60.2,105.2,040110,,,A*79
$GPRMC,182929.40,A,3250.337433,N,11647.158249,W,59.4,99.6,040110,,,A*4A
$GPRMC,182932.50,A,3250.331724,N,11647.099738,W,60.6,96.0,040110,,,A*4C
$GPRMC,182935.50,A,3250.331677,N,11647.040143,W,58.3,89.7,040110,,,A*45
$GPRMC,182938.60,A,3250.337583,N,11646.981305,W,57.6,77.8,040110,,,A*44
$GPRMC,182941.70,A,3250.350910,N,11646.922368,W,57.9,76.9,040110,,,A*41
$GPRMC,182944.10,A,3250.358949,N,11646.877311,W,58.8,79.5,040110,,,A*44
$GPRMC,182947.20,A,3250.370608,N,11646.819251,W,57.2,78.0,040110,,,A*48
$GPRMC,182950.40,A,3250.383240,N,11646.759757,W,57.9,77.1,040110,,,A*41
$GPRMC,182953.50,A,3250.393664,N,11646.701806,W,57.9,77.8,040110,,,A*4F
$GPRMC,182956.70,A,3250.401913,N,11646.641569,W,58.5,83.5,040110,,,A*4F
$GPRMC,182959.80,A,3250.402782,N,11646.582366,W,57.2,91.0,040110,,,A*41
$GPRMC,183002.90,A,3250.398372,N,11646.522822,W,57.9,94.9,040110,,,A*4F
$GPRMC,183006.00,A,3250.388528,N,11646.466306,W,57.3,101.3,040110,,,A*7B
$GPRMC,183009.00,A,3250.378788,N,11646.410377,W,56.6,101.7,040110,,,A*74
$GPRMC,183012.20,A,3250.370279,N,11646.351424,W,57.7,100.0,040110,,,A*7A
$GPRMC,183015.30,A,3250.359978,N,11646.292480,W,58.1,101.2,040110,,,A*77
$GPRMC,183018.40,A,3250.350997,N,11646.236606,W,55.6,100.7,040110,,,A*79
$GPRMC,183021.50,A,3250.341808,N,11646.177636,W,58.5,100.2,040110,,,A*7B
$GPRMC,183024.60,A,3250.332094,N,11646.119787,W,57.9,101.1,040110,,,A*76
$GPRMC,183027.70,A,3250.323005,N,11646.064473,W,55.9,101.1,040110,,,A*7D
$GPRMC,183030.80,A,3250.313235,N,11646.004400,W,57.5,101.2,040110,,,A*79
$GPRMC,183033.90,A,3250.304182,N,11645.944380,W,60.1,100.2,040110,,,A*72
$GPRMC,183036.90,A,3250.294337,N,11645.883859,W,60.8,101.3,040110,,,A*7F
$GPRMC,183039.00,A,3250.287439,N,11645.842695,W,64.1,101.0,040110,,,A*7F
$GPRMC,183042.10,A,3250.279085,N,11645.778447,W,61.6,98.9,040110,,,A*41
$GPRMC,183045.30,A,3250.269305,N,11645.712847,W,62.2,99.7,040110,,,A*46
$GPRMC,183048.30,A,3250.255792,N,11645.650572,W,62.6,105.6,040110,,,A*73
$GPRMC,183051.40,A,3250.237597,N,11645.586154,W,66.1,110.9,040110,,,A*7F
$GPRMC,183054.50,A,3250.216834,N,11645.525707,W,64.5,110.5,040110,,,A*7F
$GPRMC,183057.70,A,3250.196118,N,11645.462286,W,65.3,111.0,040110,,,A*7F
$GPRMC,183100.80,A,3250.175535,N,11645.399554,W,64.0,109.2,040110,,,A*77
$GPRMC,183103.90,A,3250.155976,N,11645.337363,W,64.3,108.6,040110,,,A*7C
$GPRMC,183106.00,A,3250.142994,N,11645.294596,W,64.8,110.1,040110,,,A*7B
$GPRMC,183109.10,A,3250.123845,N,11645.234388,W,63.5,110.8,040110,,,A*7F
$GPRMC,183112.30,A,3250.104130,N,11645.172039,W,63.5,110.6,040110,,,A*7F
$GPRMC,183115.50,A,3250.084477,N,11645.110320,W,63.7,110.8,040110,,,A*72
$GPRMC,183118.50,A,3250.065794,N,11645.050197,W,64.7,110.2,040110,,,A*78
$GPRMC,183121.60,A,3250.051911,N,11644.987102,W,62.5,104.9,040110,,,A*71
$GPRMC,183124.70,A,3250.041666,N,11644.921786,W,64.5,101.8,040110,,,A*7F
$GPRMC,183127.90,A,3250.034540,N,11644.855790,W,64.6,98.4,040110,,,A*4C
$GPRMC,183130.00,A,3250.032064,N,11644.813200,W,64.1,95.8,040110,,,A*4E
$GPRMC,183133.10,A,3250.031671,N,11644.748474,W,62.0,91.2,040110,,,A*40
$GPRMC,183136.30,A,3250.038898,N,11644.676808,W,66.4,88.8,040110,,,A*4E
$GPRMC,183139.40,A,3250.048835,N,11644.614730,W,61.2,84.9,040110,,,A*4A
$GPRMC,183142.50,A,3250.054954,N,11644.550757,W,61.9,84.8,040110,,,A*44
$GPRMC,183145.60,A,3250.059649,N,11644.489640,W,62.1,86.3,040110,,,A*4E
$GPRMC,183148.70,A,3250.063484,N,11644.428220,W,61.8,86.6,040110,,,A*4E
$GPRMC,183151.70,A,3250.061902,N,11644.366192,W,60.7,91.1,040110,,,A*4F
$GPRMC,183154.80,A,3250.059672,N,11644.304618,W,61.6,92.5,040110,,,A*40
$GPRMC,183157.80,A,3250.050358,N,11644.243227,W,60.7,100.1,040110,,,A*73
$GPRMC,183200.80,A,3250.039761,N,11644.181068,W,61.2,101.0,040110,,,A*73
$GPRMC,183203.90,A,3250.031424,N,11644.121139,W,61.7,99.3,040110,,,A*42
$GPRMC,183206.00,A,3250.025457,N,11644.079344,W,61.9,99.2,040110,,,A*44
$GPRMC,183209.00,A,3250.015416,N,11644.018462,W,61.0,100.2,040110,,,A*71
$GPRMC,183212.10,A,3250.004299,N,11643.958741,W,63.0,101.6,040110,,,A*74
$GPRMC,183215.10,A,3249.995503,N,11643.898334,W,61.8,100.2,040110,,,A*7A
$GPRMC,183218.10,A,3249.990553,N,11643.837708,W,60.9,96.4,040110,,,A*41
$GPRMC,183221.20,A,3249.992806,N,11643.778717,W,59.0,89.5,040110,,,A*41
$GPRMC,183224.20,A,3249.996601,N,11643.720406,W,61.2,86.7,040110,,,A*43
$GPRMC,183227.30,A,3250.000392,N,11643.660003,W,60.2,85.8,040110,,,A*49
$GPRMC,183230.40,A,3250.002316,N,11643.599067,W,59.9,88.7,040110,,,A*42
$GPRMC,183233.60,A,3250.001125,N,11643.535169,W,60.9,91.4,040110,,,A*4A
$GPRMC,183236.70,A,3249.995275,N,11643.474673,W,59.3,96.5,040110,,,A*4A
$GPRMC,183239.70,A,3249.988813,N,11643.414737,W,60.1,97.5,040110,,,A*4D
$GPRMC,183242.70,A,3249.984600,N,11643.353356,W,60.9,94.5,040110,,,A*4D
$GPRMC,183245.90,A,3249.987960,N,11643.289347,W,59.3,84.8,040110,,,A*44
$GPRMC,183248.90,A,3250.000284,N,11643.226947,W,60.2,77.5,040110,,,A*43
$GPRMC,183251.90,A,3250.020521,N,11643.173276,W,59.7,68.2,040110,,,A*4D
$GPRMC,183254.00,A,3250.034302,N,11643.140090,W,58.6,62.6,040110,,,A*47
$GPRMC,183257.00,A,3250.060152,N,11643.090627,W,58.6,55.8,040110,,,A*4E
$GPRMC,183300.00,A,3250.088153,N,11643.041642,W,58.3,55.6,040110,,,A*4E
$GPRMC,183303.00,A,3250.115025,N,11642.991366,W,57.5,59.4,040110,,,A*49
$GPRMC,183306.10,A,3250.141135,N,11642.939899,W,57.9,64.6,040110,,,A*45
$GPRMC,183309.10,A,3250.161754,N,11642.887266,W,57.8,69.7,040110,,,A*4A
$GPRMC,183312.10,A,3250.178085,N,11642.832998,W,58.1,75.4,040110,,,A*4F
$GPRMC,183315.20,A,3250.189564,N,11642.775459,W,58.4,78.4,040110,,,A*4B
$GPRMC,183318.20,A,3250.200018,N,11642.717678,W,59.0,78.0,040110,,,A*4E
$GPRMC,183321.40,A,3250.211872,N,11642.656254,W,59.1,77.4,040110,,,A*42
$GPRMC,183324.50,A,3250.223191,N,11642.595661,W,61.4,77.7,040110,,,A*40
$GPRMC,183327.60,A,3250.234711,N,11642.535085,W,60.6,77.9,040110,,,A*43
$GPRMC,183330.80,A,3250.246852,N,11642.471725,W,62.6,78.5,040110,,,A*4B
$GPRMC,183333.90,A,3250.258843,N,11642.407863,W,61.8,78.7,040110,,,A*45
$GPRMC,183336.00,A,3250.266924,N,11642.365621,W,62.4,77.0,040110,,,A*48
$GPRMC,183339.10,A,3250.278707,N,11642.302794,W,62.6,78.4,040110,,,A*41
$GPRMC,183342.20,A,3250.289949,N,11642.238393,W,61.9,79.9,040110,,,A*4F
$GPRMC,183345.50,A,3250.298678,N,11642.172786,W,62.1,83.0,040110,,,A*48
$GPRMC,183348.60,A,3250.302585,N,11642.109999,W,61.2,87.6,040110,,,A*4B
$GPRMC,183351.70,A,3250.304580,N,11642.044860,W,61.9,87.9,040110,,,A*4A
$GPRMC,183354.90,A,3250.303184,N,11641.980984,W,62.1,90.9,040110,,,A*42
$GPRMC,183357.00,A,3250.302359,N,11641.937071,W,62.5,91.1,040110,,,A*49
$GPRMC,183400.00,A,3250.300649,N,11641.874005,W,63.0,91.6,040110,,,A*4C
$GPRMC,183403.00,A,3250.300029,N,11641.812483,W,63.8,92.4,040110,,,A*4C
$GPRMC,183406.00,A,3250.298153,N,11641.750057,W,62.8,91.8,040110,,,A*4F
$GPRMC,183409.10,A,3250.297903,N,11641.688145,W,62.0,90.5,040110,,,A*41
$GPRMC,183412.10,A,3250.298951,N,11641.624520,W,62.7,89.3,040110,,,A*4B
$GPRMC,183415.10,A,3250.299208,N,11641.563058,W,62.5,89.5,040110,,,A*44
$GPRMC,183418.10,A,3250.296835,N,11641.501050,W,61.4,91.5,040110,,,A*45
$GPRMC,183421.10,A,3250.295420,N,11641.439292,W,62.7,91.1,040110,,,A*46
$GPRMC,183424.10,A,3250.294237,N,11641.376469,W,62.2,91.6,040110,,,A*4E
$GPRMC,183427.20,A,3250.293866,N,11641.315129,W,61.5,90.6,040110,,,A*46
$GPRMC,183430.20,A,3250.292374,N,11641.253656,W,60.7,91.4,040110,,,A*45
$GPRMC,183433.20,A,3250.290931,N,11641.191333,W,61.8,91.3,040110,,,A*4D
$GPRMC,183436.20,A,3250.288408,N,11641.128659,W,61.0,94.2,040110,,,A*41
$GPRMC,183439.30,A,3250.284605,N,11641.068136,W,60.4,97.0,040110,,,A*43
$GPRMC,183442.30,A,3250.276939,N,11641.005430,W,61.7,99.1,040110,,,A*47
$GPRMC,183445.50,A,3250.268181,N,11640.939705,W,61.3,99.3,040110,,,A*46
$GPRMC,183448.50,A,3250.258627,N,11640.879918,W,60.9,99.7,040110,,,A*4B
$GPRMC,183451.50,A,3250.249174,N,11640.821242,W,59.2,100.8,040110,,,A*74
$GPRMC,183454.60,A,3250.242445,N,11640.757995,W,60.9,98.5,040110,,,A*4D
$GPRMC,183457.70,A,3250.235739,N,11640.696465,W,61.7,98.2,040110,,,A*41
$GPRMC,183500.70,A,3250.229325,N,11640.634813,W,62.6,99.3,040110,,,A*41
$GPRMC,183505.70,A,3250.225549,N,11640.530332,W,64.0,89.8,040110,,,A*41
$GPRMC,183508.90,A,3250.230377,N,11640.462858,W,64.1,84.7,040110,,,A*4F
$GPRMC,183511.10,A,3250.237330,N,11640.416157,W,64.1,81.0,040110,,,A*4C
$GPRMC,183514.60,A,3250.249399,N,11640.343384,W,64.2,80.3,040110,,,A*4E
$GPRMC,183518.20,A,3250.261926,N,11640.270349,W,65.1,80.3,040110,,,A*40
$GPRMC,183521.70,A,3250.272005,N,11640.197061,W,62.7,83.9,040110,,,A*4E
$GPRMC,183524.90,A,3250.275987,N,11640.130498,W,63.4,88.8,040110,,,A*46
$GPRMC,183527.10,A,3250.276214,N,11640.083992,W,62.5,90.6,040110,,,A*46
$GPRMC,183530.60,A,3250.273143,N,11640.011793,W,62.3,95.4,040110,,,A*46
$GPRMC,183534.20,A,3250.265392,N,11639.939602,W,62.5,99.7,040110,,,A*42
$GPRMC,183537.40,A,3250.254478,N,11639.874987,W,61.8,102.0,040110,,,A*76
$GPRMC,183540.90,A,3250.240971,N,11639.804708,W,62.0,104.0,040110,,,A*79
$GPRMC,183543.10,A,3250.232649,N,11639.760708,W,61.1,103.0,040110,,,A*7B
$GPRMC,183546.60,A,3250.223902,N,11639.691063,W,60.5,96.4,040110,,,A*40
$GPRMC,183550.20,A,3250.221320,N,11639.621666,W,60.5,90.1,040110,,,A*40
$GPRMC,183553.40,A,3250.224967,N,11639.558628,W,59.8,83.0,040110,,,A*4A
$GPRMC,183556.90,A,3250.235234,N,11639.490408,W,59.6,80.0,040110,,,A*47
$GPRMC,183559.10,A,3250.242770,N,11639.446405,W,60.7,78.9,040110,,,A*46
$GPRMC,183602.60,A,3250.254188,N,11639.378877,W,60.6,79.5,040110,,,A*45
$GPRMC,183606.20,A,3250.265705,N,11639.311302,W,59.4,79.2,040110,,,A*4D
$GPRMC,183609.40,A,3250.274090,N,11639.249382,W,59.2,82.9,040110,,,A*42
$GPRMC,183612.90,A,3250.277992,N,11639.181493,W,59.0,88.1,040110,,,A*4D
$GPRMC,183615.10,A,3250.277656,N,11639.136646,W,60.8,90.6,040110,,,A*4F
$GPRMC,183618.60,A,3250.273498,N,11639.066493,W,59.6,97.2,040110,,,A*48
$GPRMC,183621.80,A,3250.265262,N,11639.002309,W,62.2,99.6,040110,,,A*48
$GPRMC,183624.10,A,3250.257289,N,11638.957187,W,62.3,104.5,040110,,,A*7B
$GPRMC,183627.60,A,3250.242595,N,11638.886854,W,63.7,104.8,040110,,,A*73
$GPRMC,183631.10,A,3250.226166,N,11638.817538,W,62.9,106.1,040110,,,A*72
$GPRMC,183634.20,A,3250.212009,N,11638.755299,W,61.9,105.2,040110,,,A*7D
$GPRMC,183637.30,A,3250.198020,N,11638.695867,W,59.9,105.7,040110,,,A*7D
$GPRMC,183640.50,A,3250.185304,N,11638.635735,W,60.4,105.5,040110,,,A*75
$GPRMC,183643.60,A,3250.172361,N,11638.575933,W,59.4,104.5,040110,,,A*7A
$GPRMC,183646.80,A,3250.158214,N,11638.517396,W,56.8,107.1,040110,,,A*7F
$GPRMC,183649.90,A,3250.146135,N,11638.459847,W,59.0,104.4,040110,,,A*73
$GPRMC,183652.10,A,3250.137238,N,11638.419262,W,59.0,104.7,040110,,,A*73
$GPRMC,183655.20,A,3250.122052,N,11638.363458,W,56.9,108.5,040110,,,A*70
$GPRMC,183659.50,A,3250.096137,N,11638.290238,W,57.6,110.8,040110,,,A*70
$GPRMC,183702.60,A,3250.072811,N,11638.240828,W,56.3,114.1,040110,,,A*74
$GPRMC,183705.80,A,3250.050330,N,11638.190008,W,57.3,114.0,040110,,,A*71
$GPRMC,183708.90,A,3250.029591,N,11638.138686,W,56.4,113.6,040110,,,A*7B
$GPRMC,183711.00,A,3250.016136,N,11638.103069,W,57.7,113.1,040110,,,A*75
$GPRMC,183714.20,A,3249.996630,N,11638.049040,W,56.0,113.1,040110,,,A*78
$GPRMC,183717.30,A,3249.976632,N,11637.994749,W,57.1,114.7,040110,,,A*7F
$GPRMC,183720.40,A,3249.957695,N,11637.945198,W,55.9,116.4,040110,,,A*7F
$GPRMC,183723.50,A,3249.933488,N,11637.893517,W,61.1,120.1,040110,,,A*77
$GPRMC,183726.60,A,3249.903667,N,11637.841452,W,62.0,125.9,040110,,,A*71
$GPRMC,183729.80,A,3249.870343,N,11637.792241,W,60.2,131.1,040110,,,A*7E
$GPRMC,183732.00,A,3249.842210,N,11637.756751,W,61.9,135.2,040110,,,A*7B
$GPRMC,183735.00,A,3249.799209,N,11637.707861,W,65.0,138.0,040110,,,A*77
$GPRMC,183738.00,A,3249.757001,N,11637.669997,W,63.7,145.1,040110,,,A*79
$GPRMC,183741.00,A,3249.711999,N,11637.640698,W,63.3,149.2,040110,,,A*7D
$GPRMC,183744.10,A,3249.666612,N,11637.608754,W,65.7,148.7,040110,,,A*7F
$GPRMC,183747.20,A,3249.622543,N,11637.574782,W,63.2,146.9,040110,,,A*78
$GPRMC,183750.30,A,3249.576948,N,11637.535810,W,63.8,142.0,040110,,,A*7C
$GPRMC,183753.40,A,3249.535793,N,11637.493673,W,63.1,137.8,040110,,,A*72
$GPRMC,183756.40,A,3249.499101,N,11637.445395,W,63.2,131.8,040110,,,A*7E
$GPRMC,183759.50,A,3249.464628,N,11637.396612,W,63.7,128.6,040110,,,A*7E
$GPRMC,183802.50,A,3249.437646,N,11637.337624,W,64.2,121.4,040110,,,A*76
$GPRMC,183805.60,A,3249.412429,N,11637.285243,W,61.3,117.2,040110,,,A*74
$GPRMC,183808.70,A,3249.391654,N,11637.228439,W,60.8,112.7,040110,,,A*7A
$GPRMC,183811.90,A,3249.373295,N,11637.165569,W,61.6,110.2,040110,,,A*7F
$GPRMC,183814.10,A,3249.364478,N,11637.120141,W,62.3,106.7,040110,,,A*7A
