NMEA Sentence Code,UTC Time,Status,Latitude,Latitude Direction,Longitude,Longitude Direction,Speed (knots),Track Angle (degrees true),Date,MagneticVariation,Magnetic Variation Direction,[FAA Mode]-Optional,Checksum
$GPRMC,180745.9,A,3243.631064,N,11709.616145,W,22.4,358.0,160410,,,A*4D
$GPRMC,180748.9,A,3243.650696,N,11709.615106,W,24.8,359.8,160410,,,A*4B
$GPRMC,180751.9,A,3243.669544,N,11709.614830,W,23.9,358.2,160410,,,A*45
$GPRMC,180754.9,A,3243.687487,N,11709.620989,W,19.1,342.5,160410,,,A*47
$GPRMC,180757.9,A,3243.695727,N,11709.629431,W,11.8,300.0,160410,,,A*4B
$GPRMC,180800.9,A,3243.696127,N,11709.641142,W,12.7,271.3,160410,,,A*44
$GPRMC,180803.9,A,3243.692770,N,11709.657558,W,15.4,264.4,160410,,,A*48
$GPRMC,180806.9,A,3243.693711,N,11709.665624,W,4.6,281.0,160410,,,A*7F
$GPRMC,180809.9,A,3243.690432,N,11709.668402,W,7.8,218.6,160410,,,A*71
$GPRMC,180812.9,A,3243.678399,N,11709.673839,W,18.4,191.5,160410,,,A*46
$GPRMC,180815.9,A,3243.656661,N,11709.673500,W,25.0,179.6,160410,,,A*47
$GPRMC,180818.0,A,3243.642574,N,11709.672408,W,22.3,178.3,160410,,,A*49
$GPRMC,180821.9,A,3243.631358,N,11709.678940,W,12.4,227.9,160410,,,A*4A
$GPRMC,180824.9,A,3243.629689,N,11709.693265,W,14.1,264.5,160410,,,A*4E
$GPRMC,180827.9,A,3243.628004,N,11709.712829,W,20.5,266.8,160410,,,A*49
$GPRMC,180830.9,A,3243.627590,N,11709.736254,W,22.8,267.4,160410,,,A*4C
$GPRMC,180833.9,A,3243.628306,N,11709.757415,W,22.1,266.7,160410,,,A*46
$GPRMC,180836.9,A,3243.630331,N,11709.778977,W,20.8,270.5,160410,,,A*44
$GPRMC,180839.9,A,3243.630351,N,11709.801492,W,23.5,269.9,160410,,,A*40
$GPRMC,180842.9,A,3243.630276,N,11709.820966,W,17.2,272.6,160410,,,A*48
$GPRMC,180845.9,A,3243.632126,N,11709.827965,W,6.7,304.5,160410,,,A*79
$GPRMC,180848.9,A,3243.630197,N,11709.829979,W,6.1,273.9,160410,,,A*74
$GPRMC,180851.9,A,3243.631104,N,11709.841921,W,13.9,271.1,160410,,,A*42
$GPRMC,180854.9,A,3243.631363,N,11709.859283,W,19.1,265.5,160410,,,A*4D
$GPRMC,180857.9,A,3243.632184,N,11709.884456,W,23.8,269.9,160410,,,A*48
$GPRMC,180900.9,A,3243.627616,N,11709.906966,W,24.3,264.1,160410,,,A*4F
$GPRMC,180903.9,A,3243.629240,N,11709.929860,W,20.0,269.9,160410,,,A*4D
$GPRMC,180906.9,A,3243.629779,N,11709.938788,W,4.4,284.2,160410,,,A*74
$GPRMC,180909.9,A,3243.631773,N,11709.942790,W,8.8,275.1,160410,,,A*71
$GPRMC,180912.9,A,3243.632080,N,11709.960034,W,20.8,268.2,160410,,,A*4F
$GPRMC,180915.9,A,3243.628817,N,11709.988179,W,30.1,265.0,160410,,,A*4C
$GPRMC,180918.9,A,3243.634265,N,11710.017045,W,30.5,278.7,160410,,,A*45
$GPRMC,180921.9,A,3243.645570,N,11710.047594,W,34.4,297.7,160410,,,A*42
$GPRMC,180924.9,A,3243.668704,N,11710.073992,W,38.7,318.2,160410,,,A*48
$GPRMC,180927.9,A,3243.697108,N,11710.098386,W,41.4,322.5,160410,,,A*48
$GPRMC,180930.9,A,3243.726996,N,11710.126758,W,46.0,320.5,160410,,,A*48
$GPRMC,180933.9,A,3243.757643,N,11710.156666,W,47.3,321.0,160410,,,A*47
$GPRMC,180936.9,A,3243.787651,N,11710.185432,W,47.1,322.3,160410,,,A*43
$GPRMC,180939.9,A,3243.820471,N,11710.215436,W,52.2,320.9,160410,,,A*4F
$GPRMC,180942.9,A,3243.856614,N,11710.249131,W,55.6,323.0,160410,,,A*41
$GPRMC,180945.9,A,3243.894550,N,11710.283104,W,58.3,322.5,160410,,,A*47
$GPRMC,180948.9,A,3243.935843,N,11710.318923,W,62.3,322.5,160410,,,A*48
$GPRMC,180951.9,A,3243.977850,N,11710.357527,W,63.8,322.7,160410,,,A*4F
$GPRMC,180954.9,A,3244.018573,N,11710.395758,W,64.2,322.5,160410,,,A*4A
$GPRMC,180957.9,A,3244.061150,N,11710.433632,W,64.6,323.1,160410,,,A*45
$GPRMC,181000.9,A,3244.107313,N,11710.471312,W,65.6,323.8,160410,,,A*42
$GPRMC,181003.9,A,3244.151297,N,11710.508519,W,64.9,323.8,160410,,,A*43
$GPRMC,181006.9,A,3244.193063,N,11710.546817,W,63.5,323.7,160410,,,A*4C
$GPRMC,181009.9,A,3244.236299,N,11710.583450,W,63.6,323.6,160410,,,A*4C
$GPRMC,181012.9,A,3244.277272,N,11710.620663,W,62.3,322.7,160410,,,A*4A
$GPRMC,181015.9,A,3244.320361,N,11710.657722,W,63.1,323.6,160410,,,A*4A
$GPRMC,181018.9,A,3244.364160,N,11710.695021,W,63.3,323.6,160410,,,A*4C
$GPRMC,181021.9,A,3244.404844,N,11710.732417,W,63.1,323.0,160410,,,A*41
$GPRMC,181024.9,A,3244.445635,N,11710.770278,W,62.2,321.0,160410,,,A*40
$GPRMC,181027.9,A,3244.483075,N,11710.811182,W,61.6,313.1,160410,,,A*42
$GPRMC,181030.9,A,3244.514385,N,11710.860799,W,62.2,302.9,160410,,,A*42
$GPRMC,181033.9,A,3244.540087,N,11710.917892,W,64.3,297.4,160410,,,A*43
$GPRMC,181036.9,A,3244.566162,N,11710.974717,W,66.3,298.5,160410,,,A*43
$GPRMC,181039.9,A,3244.593522,N,11711.033772,W,67.5,298.2,160410,,,A*4E
$GPRMC,181042.9,A,3244.619913,N,11711.090622,W,67.5,298.9,160410,,,A*4B
$GPRMC,181045.9,A,3244.646418,N,11711.152478,W,70.1,298.3,160410,,,A*4A
$GPRMC,181048.9,A,3244.674220,N,11711.214042,W,69.8,298.4,160410,,,A*41
$GPRMC,181051.9,A,3244.702494,N,11711.273900,W,69.7,298.4,160410,,,A*41
$GPRMC,181054.9,A,3244.731613,N,11711.334199,W,70.1,298.5,160410,,,A*4C
$GPRMC,181057.9,A,3244.758880,N,11711.393942,W,68.6,298.4,160410,,,A*48
$GPRMC,181100.9,A,3244.787845,N,11711.456010,W,70.8,298.2,160410,,,A*41
$GPRMC,181103.9,A,3244.815901,N,11711.517307,W,70.9,298.7,160410,,,A*42
$GPRMC,181106.9,A,3244.846970,N,11711.574960,W,68.4,302.4,160410,,,A*4C
$GPRMC,181109.9,A,3244.880548,N,11711.631190,W,68.7,306.9,160410,,,A*41
$GPRMC,181112.9,A,3244.917058,N,11711.681630,W,67.5,312.0,160410,,,A*47
$GPRMC,181115.9,A,3244.958334,N,11711.728122,W,66.8,317.0,160410,,,A*4D
$GPRMC,181118.9,A,3245.000297,N,11711.769950,W,65.1,322.0,160410,,,A*49
$GPRMC,181121.9,A,3245.045798,N,11711.806182,W,65.1,325.0,160410,,,A*4E
$GPRMC,181124.9,A,3245.087413,N,11711.843054,W,62.2,324.5,160410,,,A*4E
$GPRMC,181127.9,A,3245.125416,N,11711.876924,W,58.3,321.1,160410,,,A*40
$GPRMC,181130.9,A,3245.161981,N,11711.914992,W,57.9,316.7,160410,,,A*4A
$GPRMC,181133.9,A,3245.193777,N,11711.958795,W,58.6,308.8,160410,,,A*42
$GPRMC,181136.9,A,3245.225785,N,11712.006710,W,61.3,309.2,160410,,,A*4C
$GPRMC,181139.9,A,3245.260002,N,11712.053896,W,64.2,310.4,160410,,,A*41
$GPRMC,181142.9,A,3245.295619,N,11712.101113,W,63.5,312.9,160410,,,A*46
$GPRMC,181145.9,A,3245.334177,N,11712.142121,W,61.3,321.6,160410,,,A*49
$GPRMC,181148.9,A,3245.377059,N,11712.172990,W,59.9,330.8,160410,,,A*40
$GPRMC,181151.9,A,3245.422338,N,11712.193951,W,58.6,340.4,160410,,,A*4C
$GPRMC,181154.9,A,3245.471182,N,11712.208074,W,60.1,346.8,160410,,,A*45
$GPRMC,181157.9,A,3245.521356,N,11712.221326,W,61.9,347.9,160410,,,A*4F
$GPRMC,181200.9,A,3245.572391,N,11712.234246,W,61.9,347.5,160410,,,A*4C
$GPRMC,181203.9,A,3245.623837,N,11712.245949,W,62.1,347.9,160410,,,A*4A
$GPRMC,181206.9,A,3245.674274,N,11712.260853,W,62.2,347.6,160410,,,A*41
$GPRMC,181209.9,A,3245.724488,N,11712.275901,W,62.8,346.7,160410,,,A*47
$GPRMC,181212.9,A,3245.775448,N,11712.286793,W,63.9,348.7,160410,,,A*42
$GPRMC,181215.9,A,3245.831424,N,11712.300758,W,67.7,347.4,160410,,,A*4E
$GPRMC,181218.9,A,3245.888642,N,11712.314862,W,68.5,347.5,160410,,,A*4C
$GPRMC,181221.9,A,3245.943770,N,11712.329135,W,68.6,347.9,160410,,,A*4A
$GPRMC,181224.9,A,3245.998649,N,11712.342405,W,68.1,347.9,160410,,,A*4E
$GPRMC,181227.9,A,3246.056478,N,11712.358646,W,69.4,347.9,160410,,,A*4F
$GPRMC,181230.9,A,3246.112984,N,11712.373462,W,69.1,347.7,160410,,,A*40
$GPRMC,181233.9,A,3246.169839,N,11712.387136,W,69.7,347.7,160410,,,A*41
$GPRMC,181236.9,A,3246.227511,N,11712.400949,W,70.9,348.1,160410,,,A*4D
$GPRMC,181239.9,A,3246.286508,N,11712.415014,W,71.2,348.4,160410,,,A*4B
$GPRMC,181242.9,A,3246.345160,N,11712.430975,W,72.7,347.7,160410,,,A*40
$GPRMC,181245.9,A,3246.405195,N,11712.445287,W,71.9,348.1,160410,,,A*4E
$GPRMC,181248.9,A,3246.462442,N,11712.460521,W,70.0,347.6,160410,,,A*41
$GPRMC,181251.9,A,3246.519048,N,11712.475300,W,70.1,347.4,160410,,,A*48
$GPRMC,181254.9,A,3246.576389,N,11712.490482,W,69.7,347.9,160410,,,A*4F
$GPRMC,181257.9,A,3246.635816,N,11712.505685,W,71.2,348.6,160410,,,A*41
$GPRMC,181300.9,A,3246.693188,N,11712.511788,W,69.5,357.0,160410,,,A*4F
$GPRMC,181303.9,A,3246.749940,N,11712.506705,W,69.9,5.7,160410,,,A*4A
$GPRMC,181306.9,A,3246.808752,N,11712.498001,W,70.4,8.3,160410,,,A*41
$GPRMC,181309.9,A,3246.867433,N,11712.488928,W,69.5,8.0,160410,,,A*4A
$GPRMC,181312.9,A,3246.923817,N,11712.478431,W,68.6,8.2,160410,,,A*41
$GPRMC,181315.9,A,3246.979422,N,11712.469329,W,68.4,8.3,160410,,,A*4E
$GPRMC,181318.9,A,3247.035937,N,11712.457229,W,68.0,9.5,160410,,,A*45
$GPRMC,181321.9,A,3247.091391,N,11712.445799,W,67.4,9.0,160410,,,A*44
$GPRMC,181324.9,A,3247.147385,N,11712.436454,W,66.9,8.2,160410,,,A*47
$GPRMC,181327.9,A,3247.200522,N,11712.427239,W,64.6,9.1,160410,,,A*4D
$GPRMC,181330.9,A,3247.255317,N,11712.420657,W,65.9,6.3,160410,,,A*43
$GPRMC,181333.9,A,3247.310679,N,11712.415778,W,66.9,2.8,160410,,,A*4B
$GPRMC,181336.9,A,3247.367427,N,11712.417008,W,67.9,359.1,160410,,,A*40
$GPRMC,181339.9,A,3247.426994,N,11712.420482,W,70.3,355.7,160410,,,A*4C
$GPRMC,181342.9,A,3247.485680,N,11712.431241,W,69.9,351.3,160410,,,A*48
$GPRMC,181345.9,A,3247.540847,N,11712.443483,W,66.9,348.0,160410,,,A*4B
$GPRMC,181348.9,A,3247.597239,N,11712.458678,W,68.0,345.2,160410,,,A*4B
$GPRMC,181351.9,A,3247.648503,N,11712.478636,W,64.5,341.4,160410,,,A*4F
$GPRMC,181354.9,A,3247.697610,N,11712.502446,W,63.9,337.3,160410,,,A*4D
$GPRMC,181357.9,A,3247.747576,N,11712.530083,W,66.2,335.3,160410,,,A*41
$GPRMC,181400.9,A,3247.798955,N,11712.556430,W,68.0,334.4,160410,,,A*4D
$GPRMC,181403.9,A,3247.850614,N,11712.589042,W,70.3,332.8,160410,,,A*4C
$GPRMC,181406.9,A,3247.902205,N,11712.618291,W,68.6,333.9,160410,,,A*40
$GPRMC,181409.9,A,3247.952619,N,11712.646279,W,65.8,335.6,160410,,,A*44
$GPRMC,181412.9,A,3248.000451,N,11712.674663,W,65.6,335.1,160410,,,A*46
$GPRMC,181415.9,A,3248.050233,N,11712.699906,W,66.3,336.7,160410,,,A*4A
$GPRMC,181418.9,A,3248.100846,N,11712.726296,W,65.7,335.2,160410,,,A*4D
$GPRMC,181421.9,A,3248.149781,N,11712.756604,W,66.0,332.7,160410,,,A*40
$GPRMC,181424.9,A,3248.198908,N,11712.784644,W,65.8,332.8,160410,,,A*49
$GPRMC,181427.9,A,3248.243837,N,11712.817852,W,64.3,329.1,160410,,,A*47
$GPRMC,181430.9,A,3248.291095,N,11712.851816,W,65.4,328.0,160410,,,A*4A
$GPRMC,181433.9,A,3248.336831,N,11712.886229,W,66.1,326.8,160410,,,A*4F
$GPRMC,181436.9,A,3248.381964,N,11712.924351,W,67.1,324.3,160410,,,A*48
$GPRMC,181439.9,A,3248.427489,N,11712.962861,W,66.3,324.4,160410,,,A*4C
$GPRMC,181442.9,A,3248.473740,N,11713.001958,W,67.4,324.7,160410,,,A*44
$GPRMC,181445.9,A,3248.519111,N,11713.039558,W,67.4,325.0,160410,,,A*4D
$GPRMC,181448.9,A,3248.566040,N,11713.074469,W,66.1,327.1,160410,,,A*40
$GPRMC,181451.9,A,3248.612291,N,11713.112774,W,68.8,325.5,160410,,,A*49
$GPRMC,181454.9,A,3248.661501,N,11713.151322,W,69.6,326.3,160410,,,A*4C
$GPRMC,181457.9,A,3248.709657,N,11713.187458,W,68.4,327.0,160410,,,A*40
$GPRMC,181500.9,A,3248.758751,N,11713.222601,W,68.6,328.4,160410,,,A*4B
$GPRMC,181503.9,A,3248.809867,N,11713.258143,W,68.1,329.6,160410,,,A*41
$GPRMC,181506.9,A,3248.855449,N,11713.293382,W,66.4,327.9,160410,,,A*4F
$GPRMC,181509.9,A,3248.901472,N,11713.329002,W,66.1,326.8,160410,,,A*46
$GPRMC,181512.9,A,3248.949808,N,11713.367028,W,67.8,325.6,160410,,,A*46
$GPRMC,181515.9,A,3248.992330,N,11713.407851,W,67.3,323.1,160410,,,A*4A
$GPRMC,181518.9,A,3249.038331,N,11713.446976,W,67.4,323.6,160410,,,A*4F
$GPRMC,181521.9,A,3249.082822,N,11713.489218,W,68.4,320.3,160410,,,A*44
$GPRMC,181524.9,A,3249.125457,N,11713.533676,W,67.8,319.3,160410,,,A*46
$GPRMC,181527.9,A,3249.166626,N,11713.576641,W,67.1,318.1,160410,,,A*49
$GPRMC,181530.9,A,3249.208411,N,11713.619433,W,65.9,319.1,160410,,,A*44
$GPRMC,181533.9,A,3249.250733,N,11713.661595,W,65.8,318.9,160410,,,A*43
$GPRMC,181536.9,A,3249.291039,N,11713.702379,W,65.5,318.5,160410,,,A*47
$GPRMC,181539.9,A,3249.334107,N,11713.746317,W,66.3,318.8,160410,,,A*4A
$GPRMC,181542.9,A,3249.376482,N,11713.788572,W,66.3,318.8,160410,,,A*4F
$GPRMC,181545.9,A,3249.418319,N,11713.831272,W,66.1,320.4,160410,,,A*4D
$GPRMC,181548.9,A,3249.463970,N,11713.869627,W,66.4,326.6,160410,,,A*41
$GPRMC,181551.9,A,3249.510665,N,11713.903229,W,67.0,330.8,160410,,,A*4C
$GPRMC,181554.9,A,3249.560731,N,11713.925187,W,66.7,339.3,160410,,,A*49
$GPRMC,181557.9,A,3249.617580,N,11713.944800,W,68.6,345.9,160410,,,A*4E
$GPRMC,181600.9,A,3249.670710,N,11713.955968,W,65.7,352.6,160410,,,A*4F
$GPRMC,181603.2,A,3249.713504,N,11713.958834,W,65.3,357.2,160410,,,A*44
$GPRMC,181606.2,A,3249.767820,N,11713.958171,W,64.7,359.7,160410,,,A*4F
$GPRMC,181609.2,A,3249.821835,N,11713.958539,W,64.9,359.8,160410,,,A*40
$GPRMC,181612.9,A,3249.889009,N,11713.958503,W,66.1,0.1,160410,,,A*41
$GPRMC,181615.9,A,3249.941520,N,11713.959241,W,63.9,359.4,160410,,,A*4A
$GPRMC,181618.9,A,3249.996249,N,11713.965197,W,66.1,353.3,160410,,,A*42
$GPRMC,181621.9,A,3250.051417,N,11713.976832,W,64.8,346.7,160410,,,A*40
$GPRMC,181624.9,A,3250.102163,N,11713.995739,W,63.3,342.6,160410,,,A*44
$GPRMC,181627.9,A,3250.148448,N,11714.016564,W,59.2,339.6,160410,,,A*4E
$GPRMC,181630.9,A,3250.193079,N,11714.035871,W,58.8,338.8,160410,,,A*44
$GPRMC,181633.9,A,3250.242043,N,11714.059392,W,60.4,338.4,160410,,,A*46
$GPRMC,181636.9,A,3250.288129,N,11714.084830,W,60.4,336.8,160410,,,A*49
$GPRMC,181639.9,A,3250.335441,N,11714.104427,W,59.1,339.3,160410,,,A*42
$GPRMC,181642.9,A,3250.379804,N,11714.123457,W,58.4,339.5,160410,,,A*4B
$GPRMC,181645.9,A,3250.424063,N,11714.145735,W,57.9,337.7,160410,,,A*43
$GPRMC,181648.9,A,3250.473197,N,11714.162047,W,60.1,344.5,160410,,,A*4B
$GPRMC,181651.9,A,3250.524140,N,11714.175301,W,61.9,350.2,160410,,,A*46
$GPRMC,181654.9,A,3250.575784,N,11714.181255,W,61.4,355.7,160410,,,A*4F
$GPRMC,181657.9,A,3250.625393,N,11714.181454,W,60.3,1.5,160410,,,A*49
$GPRMC,181700.9,A,3250.675918,N,11714.173387,W,61.4,7.2,160410,,,A*45
$GPRMC,181703.9,A,3250.726448,N,11714.166622,W,62.1,7.6,160410,,,A*45
$GPRMC,181706.9,A,3250.778805,N,11714.158422,W,62.4,7.5,160410,,,A*47
$GPRMC,181709.9,A,3250.831088,N,11714.150051,W,62.7,7.3,160410,,,A*4A
$GPRMC,181712.9,A,3250.882290,N,11714.138194,W,62.8,12.2,160410,,,A*7F
$GPRMC,181715.9,A,3250.934455,N,11714.121286,W,66.3,17.2,160410,,,A*79
$GPRMC,181718.9,A,3250.984745,N,11714.096178,W,66.6,24.3,160410,,,A*76
$GPRMC,181721.9,A,3251.031029,N,11714.062985,W,66.4,30.1,160410,,,A*73
$GPRMC,181724.9,A,3251.078854,N,11714.029362,W,67.2,30.9,160410,,,A*7A
$GPRMC,181727.9,A,3251.126140,N,11713.995519,W,66.0,30.3,160410,,,A*75
$GPRMC,181730.9,A,3251.173942,N,11713.963672,W,67.1,29.4,160410,,,A*71
$GPRMC,181733.9,A,3251.220482,N,11713.930557,W,66.6,30.3,160410,,,A*7D
$GPRMC,181736.9,A,3251.268013,N,11713.897751,W,65.2,29.3,160410,,,A*7F
$GPRMC,181739.9,A,3251.316960,N,11713.868544,W,65.1,24.5,160410,,,A*7B
$GPRMC,181742.9,A,3251.368123,N,11713.848173,W,63.9,19.0,160410,,,A*76
$GPRMC,181745.9,A,3251.421336,N,11713.833961,W,63.8,12.1,160410,,,A*71
$GPRMC,181748.9,A,3251.471619,N,11713.826347,W,62.7,6.2,160410,,,A*43
$GPRMC,181751.9,A,3251.525014,N,11713.821317,W,64.1,4.5,160410,,,A*47
$GPRMC,181754.9,A,3251.580055,N,11713.816742,W,64.4,4.2,160410,,,A*4A
$GPRMC,181757.9,A,3251.635506,N,11713.811874,W,66.1,4.6,160410,,,A*49
$GPRMC,181800.9,A,3251.686316,N,11713.806924,W,63.3,4.8,160410,,,A*40
$GPRMC,181803.9,A,3251.741084,N,11713.801946,W,66.3,4.9,160410,,,A*46
$GPRMC,181806.9,A,3251.794741,N,11713.795839,W,66.2,4.4,160410,,,A*42
$GPRMC,181809.9,A,3251.849471,N,11713.790235,W,66.5,4.6,160410,,,A*44
$GPRMC,181812.9,A,3251.903437,N,11713.785080,W,65.7,5.3,160410,,,A*4E
$GPRMC,181815.9,A,3251.961042,N,11713.781058,W,67.6,3.9,160410,,,A*45
$GPRMC,181818.9,A,3252.015146,N,11713.774731,W,65.7,5.2,160410,,,A*48
$GPRMC,181821.9,A,3252.071084,N,11713.769284,W,66.0,4.8,160410,,,A*47
$GPRMC,181824.9,A,3252.126872,N,11713.763484,W,66.0,4.6,160410,,,A*42
$GPRMC,181827.9,A,3252.180744,N,11713.755977,W,64.4,5.8,160410,,,A*4A
$GPRMC,181830.9,A,3252.234763,N,11713.753162,W,63.8,4.1,160410,,,A*4C
$GPRMC,181833.9,A,3252.290290,N,11713.750335,W,66.5,4.0,160410,,,A*42
$GPRMC,181837.2,A,3252.351402,N,11713.742124,W,67.8,5.8,160410,,,A*48
$GPRMC,181840.9,A,3252.420045,N,11713.736211,W,68.3,4.7,160410,,,A*49
$GPRMC,181843.9,A,3252.477302,N,11713.731682,W,68.0,4.5,160410,,,A*40
$GPRMC,181846.9,A,3252.531813,N,11713.726310,W,66.8,4.9,160410,,,A*4F
$GPRMC,181849.9,A,3252.585360,N,11713.720520,W,65.9,4.8,160410,,,A*40
$GPRMC,181852.9,A,3252.643911,N,11713.715770,W,67.3,4.2,160410,,,A*4C
$GPRMC,181855.9,A,3252.696092,N,11713.709884,W,64.6,5.1,160410,,,A*4C
$GPRMC,181858.9,A,3252.748569,N,11713.703814,W,63.4,4.7,160410,,,A*43
$GPRMC,181901.9,A,3252.800713,N,11713.697808,W,63.0,5.0,160410,,,A*41
$GPRMC,181904.9,A,3252.853117,N,11713.692335,W,62.0,5.1,160410,,,A*40
$GPRMC,181907.9,A,3252.906153,N,11713.688278,W,63.1,4.3,160410,,,A*42
$GPRMC,181910.9,A,3252.958128,N,11713.683973,W,63.0,4.5,160410,,,A*4F
$GPRMC,181913.9,A,3253.009618,N,11713.678087,W,63.1,4.6,160410,,,A*40
$GPRMC,181916.9,A,3253.066780,N,11713.673784,W,66.4,4.5,160410,,,A*40
$GPRMC,181919.9,A,3253.120791,N,11713.668191,W,64.9,4.9,160410,,,A*47
$GPRMC,181922.9,A,3253.175260,N,11713.662621,W,65.1,4.8,160410,,,A*4A
$GPRMC,181925.9,A,3253.229793,N,11713.658157,W,66.1,3.9,160410,,,A*44
$GPRMC,181928.9,A,3253.285612,N,11713.651809,W,66.1,4.6,160410,,,A*44
$GPRMC,181931.9,A,3253.341952,N,11713.646686,W,67.6,4.5,160410,,,A*44
$GPRMC,181934.2,A,3253.385922,N,11713.642882,W,68.4,4.7,160410,,,A*44
$GPRMC,181937.2,A,3253.443003,N,11713.636587,W,68.8,4.5,160410,,,A*45
$GPRMC,181940.2,A,3253.500216,N,11713.630843,W,67.6,4.6,160410,,,A*44
$GPRMC,181943.2,A,3253.556532,N,11713.626376,W,67.9,3.9,160410,,,A*48
$GPRMC,181946.9,A,3253.625856,N,11713.615702,W,68.6,9.9,160410,,,A*43
$GPRMC,181949.9,A,3253.681251,N,11713.599194,W,69.3,15.0,160410,,,A*71
$GPRMC,181952.9,A,3253.736254,N,11713.577203,W,70.8,19.0,160410,,,A*71
$GPRMC,181955.9,A,3253.790561,N,11713.554497,W,70.4,19.1,160410,,,A*7C
$GPRMC,181958.9,A,3253.849254,N,11713.532438,W,71.3,19.1,160410,,,A*78
$GPRMC,182001.9,A,3253.900161,N,11713.509996,W,67.6,18.8,160410,,,A*7C
$GPRMC,182004.9,A,3253.953037,N,11713.488927,W,66.3,18.5,160410,,,A*76
$GPRMC,182007.9,A,3254.008290,N,11713.469163,W,67.7,17.6,160410,,,A*74
$GPRMC,182010.9,A,3254.057769,N,11713.448048,W,64.9,17.6,160410,,,A*7D
$GPRMC,182013.9,A,3254.111979,N,11713.432359,W,66.5,11.6,160410,,,A*74
$GPRMC,182016.9,A,3254.166361,N,11713.425423,W,65.5,4.1,160410,,,A*4E
$GPRMC,182019.9,A,3254.223255,N,11713.425828,W,67.3,357.8,160410,,,A*4A
$GPRMC,182022.9,A,3254.278326,N,11713.432476,W,65.3,351.3,160410,,,A*47
$GPRMC,182025.9,A,3254.332949,N,11713.447804,W,66.9,345.5,160410,,,A*4D
$GPRMC,182028.9,A,3254.382887,N,11713.468646,W,65.3,339.3,160410,,,A*49
$GPRMC,182031.9,A,3254.431794,N,11713.494823,W,65.3,334.0,160410,,,A*43
$GPRMC,182034.9,A,3254.479820,N,11713.530548,W,66.8,327.0,160410,,,A*4F
$GPRMC,182037.9,A,3254.522628,N,11713.566783,W,63.8,325.0,160410,,,A*44
$GPRMC,182040.9,A,3254.565972,N,11713.604879,W,64.3,324.6,160410,,,A*41
$GPRMC,182043.9,A,3254.612957,N,11713.637810,W,63.9,331.1,160410,,,A*47
$GPRMC,182046.9,A,3254.659554,N,11713.665812,W,61.3,333.8,160410,,,A*44
$GPRMC,182049.9,A,3254.701143,N,11713.691397,W,57.6,334.0,160410,,,A*47
$GPRMC,182052.9,A,3254.746071,N,11713.714904,W,57.0,334.2,160410,,,A*46
$GPRMC,182055.9,A,3254.785251,N,11713.740814,W,54.1,332.0,160410,,,A*49
$GPRMC,182058.9,A,3254.827131,N,11713.765518,W,55.5,332.8,160410,,,A*4D
$GPRMC,182101.9,A,3254.865858,N,11713.792700,W,53.6,328.6,160410,,,A*43
$GPRMC,182104.9,A,3254.902443,N,11713.826015,W,56.9,321.8,160410,,,A*4E
$GPRMC,182107.9,A,3254.938574,N,11713.865102,W,60.1,317.0,160410,,,A*41
$GPRMC,182110.9,A,3254.973725,N,11713.911121,W,62.6,311.7,160410,,,A*49
$GPRMC,182113.9,A,3255.005074,N,11713.958697,W,62.5,307.7,160410,,,A*43
$GPRMC,182116.9,A,3255.036048,N,11714.008991,W,63.5,307.5,160410,,,A*48
$GPRMC,182119.9,A,3255.070601,N,11714.058188,W,64.6,310.0,160410,,,A*4C
$GPRMC,182122.9,A,3255.110180,N,11714.106598,W,67.0,315.5,160410,,,A*47
$GPRMC,182125.9,A,3255.153481,N,11714.148750,W,66.5,320.6,160410,,,A*4E
$GPRMC,182128.9,A,3255.197086,N,11714.191491,W,66.6,322.6,160410,,,A*43
$GPRMC,182131.9,A,3255.241775,N,11714.225887,W,66.2,327.3,160410,,,A*4B
$GPRMC,182134.9,A,3255.290566,N,11714.259106,W,65.7,331.0,160410,,,A*4B
$GPRMC,182137.9,A,3255.340305,N,11714.287274,W,65.6,333.6,160410,,,A*47
$GPRMC,182140.9,A,3255.395675,N,11714.310212,W,68.4,340.2,160410,,,A*4D
$GPRMC,182143.9,A,3255.448978,N,11714.332131,W,67.7,343.4,160410,,,A*40
$GPRMC,182146.9,A,3255.503024,N,11714.349499,W,67.6,343.9,160410,,,A*4C
$GPRMC,182149.9,A,3255.554644,N,11714.367597,W,65.3,343.6,160410,,,A*4A
$GPRMC,182152.9,A,3255.608165,N,11714.385846,W,64.1,344.4,160410,,,A*45
$GPRMC,182155.9,A,3255.657502,N,11714.402634,W,60.6,344.1,160410,,,A*48
$GPRMC,182158.9,A,3255.707162,N,11714.418763,W,59.8,344.8,160410,,,A*46
$GPRMC,182201.9,A,3255.753882,N,11714.430563,W,57.1,347.4,160410,,,A*4F
$GPRMC,182204.9,A,3255.799239,N,11714.442636,W,57.5,347.0,160410,,,A*40
$GPRMC,182207.9,A,3255.848048,N,11714.453319,W,60.1,350.3,160410,,,A*49
$GPRMC,182210.9,A,3255.900935,N,11714.463251,W,62.2,351.2,160410,,,A*4E
$GPRMC,182213.9,A,3255.950957,N,11714.470461,W,61.6,353.6,160410,,,A*4A
$GPRMC,182216.9,A,3256.002614,N,11714.474019,W,62.0,356.4,160410,,,A*47
$GPRMC,182219.9,A,3256.055457,N,11714.478531,W,62.9,356.2,160410,,,A*43
$GPRMC,182222.9,A,3256.105954,N,11714.482295,W,62.1,356.6,160410,,,A*41
$GPRMC,182225.9,A,3256.158724,N,11714.485944,W,62.3,356.8,160410,,,A*4B
$GPRMC,182228.9,A,3256.213069,N,11714.489600,W,65.4,356.6,160410,,,A*49
$GPRMC,182231.9,A,3256.265664,N,11714.493150,W,64.2,356.3,160410,,,A*40
$GPRMC,182234.9,A,3256.318421,N,11714.498478,W,63.9,356.0,160410,,,A*46
$GPRMC,182237.9,A,3256.371336,N,11714.503478,W,64.7,354.4,160410,,,A*47
$GPRMC,182240.9,A,3256.425005,N,11714.512576,W,64.0,352.2,160410,,,A*4A
$GPRMC,182243.9,A,3256.475658,N,11714.521248,W,61.9,351.7,160410,,,A*42
$GPRMC,182246.9,A,3256.528156,N,11714.531136,W,64.2,351.3,160410,,,A*46
$GPRMC,182249.9,A,3256.583437,N,11714.542608,W,65.8,350.6,160410,,,A*4B
$GPRMC,182252.9,A,3256.634753,N,11714.552092,W,63.7,350.8,160410,,,A*4C
$GPRMC,182255.9,A,3256.687731,N,11714.560268,W,64.6,351.7,160410,,,A*49
$GPRMC,182258.9,A,3256.739872,N,11714.568521,W,63.8,351.3,160410,,,A*47
$GPRMC,182301.9,A,3256.792100,N,11714.577353,W,64.2,351.4,160410,,,A*40
$GPRMC,182304.9,A,3256.844203,N,11714.587802,W,64.6,351.3,160410,,,A*42
$GPRMC,182307.9,A,3256.898589,N,11714.598547,W,65.1,350.4,160410,,,A*47
$GPRMC,182310.9,A,3256.951572,N,11714.608702,W,64.4,350.9,160410,,,A*41
$GPRMC,182313.9,A,3257.004932,N,11714.618661,W,65.5,351.1,160410,,,A*4E
$GPRMC,182316.0,A,3257.043661,N,11714.623190,W,65.4,351.4,160410,,,A*4D
$GPRMC,182319.9,A,3257.111007,N,11714.635946,W,62.7,351.0,160410,,,A*4F
$GPRMC,182322.9,A,3257.163533,N,11714.645485,W,63.6,350.7,160410,,,A*43
$GPRMC,182325.9,A,3257.216056,N,11714.656089,W,63.5,350.7,160410,,,A*4A
$GPRMC,182328.9,A,3257.267811,N,11714.666928,W,63.1,349.2,160410,,,A*42
$GPRMC,182331.9,A,3257.320821,N,11714.676766,W,64.5,350.9,160410,,,A*4E
$GPRMC,182334.9,A,3257.374016,N,11714.687509,W,65.9,350.7,160410,,,A*40
$GPRMC,182337.9,A,3257.431371,N,11714.699738,W,68.1,350.2,160410,,,A*48
$GPRMC,182340.9,A,3257.486610,N,11714.708946,W,65.8,349.9,160410,,,A*4F
$GPRMC,182343.9,A,3257.542514,N,11714.718690,W,67.3,349.5,160410,,,A*42
$GPRMC,182346.9,A,3257.596668,N,11714.732795,W,67.0,347.4,160410,,,A*46
$GPRMC,182349.9,A,3257.649857,N,11714.750441,W,65.9,344.9,160410,,,A*41
$GPRMC,182352.9,A,3257.702868,N,11714.768989,W,66.5,343.2,160410,,,A*48
$GPRMC,182355.9,A,3257.756617,N,11714.788858,W,66.9,342.9,160410,,,A*4D
$GPRMC,182358.9,A,3257.810052,N,11714.808886,W,65.5,342.4,160410,,,A*4C
$GPRMC,182401.9,A,3257.862332,N,11714.827006,W,65.8,343.3,160410,,,A*41
$GPRMC,182404.9,A,3257.913866,N,11714.846392,W,65.3,343.4,160410,,,A*4C
$GPRMC,182407.9,A,3257.964592,N,11714.865984,W,64.3,342.6,160410,,,A*47
$GPRMC,182410.9,A,3258.016029,N,11714.884235,W,63.4,342.5,160410,,,A*4A
$GPRMC,182413.9,A,3258.066288,N,11714.903578,W,63.2,341.8,160410,,,A*4F
$GPRMC,182416.9,A,3258.117157,N,11714.922395,W,64.3,342.8,160410,,,A*4F
$GPRMC,182419.9,A,3258.169650,N,11714.941949,W,64.1,341.7,160410,,,A*49
$GPRMC,182422.9,A,3258.219501,N,11714.960986,W,62.6,342.0,160410,,,A*47
$GPRMC,182425.9,A,3258.270166,N,11714.979910,W,63.7,342.1,160410,,,A*4C
$GPRMC,182428.9,A,3258.320572,N,11714.998670,W,64.0,342.2,160410,,,A*41
$GPRMC,182431.9,A,3258.371811,N,11715.017239,W,64.4,342.5,160410,,,A*40
$GPRMC,182434.9,A,3258.422210,N,11715.035591,W,63.0,343.0,160410,,,A*4D
$GPRMC,182437.9,A,3258.471396,N,11715.056581,W,62.2,342.5,160410,,,A*44
$GPRMC,182440.9,A,3258.520684,N,11715.074723,W,61.6,342.2,160410,,,A*4D
$GPRMC,182443.9,A,3258.568761,N,11715.091101,W,58.5,342.7,160410,,,A*49
$GPRMC,182446.9,A,3258.615170,N,11715.109320,W,58.9,342.5,160410,,,A*4C
$GPRMC,182449.9,A,3258.661894,N,11715.128445,W,58.9,341.6,160410,,,A*44
$GPRMC,182452.9,A,3258.707153,N,11715.144221,W,56.0,342.4,160410,,,A*45
$GPRMC,182455.9,A,3258.752598,N,11715.160885,W,57.5,343.1,160410,,,A*43
$GPRMC,182458.9,A,3258.797801,N,11715.177161,W,56.1,342.4,160410,,,A*4E
$GPRMC,182501.9,A,3258.842564,N,11715.194666,W,57.6,342.2,160410,,,A*47
$GPRMC,182504.9,A,3258.889294,N,11715.212231,W,59.1,342.3,160410,,,A*4E
$GPRMC,182507.9,A,3258.936693,N,11715.230372,W,59.1,342.8,160410,,,A*46
$GPRMC,182510.9,A,3258.986080,N,11715.247802,W,60.8,342.9,160410,,,A*41
$GPRMC,182513.9,A,3259.032934,N,11715.264726,W,60.6,343.6,160410,,,A*4B
$GPRMC,182516.9,A,3259.082877,N,11715.279173,W,60.3,348.4,160410,,,A*45
$GPRMC,182519.9,A,3259.134648,N,11715.287652,W,62.6,352.7,160410,,,A*4E
$GPRMC,182522.9,A,3259.186195,N,11715.297234,W,62.2,352.7,160410,,,A*49
$GPRMC,182525.9,A,3259.234893,N,11715.302577,W,58.6,353.8,160410,,,A*45
$GPRMC,182528.9,A,3259.282672,N,11715.310617,W,56.4,352.0,160410,,,A*47
$GPRMC,182531.9,A,3259.328251,N,11715.318369,W,53.6,352.5,160410,,,A*4D
$GPRMC,182534.9,A,3259.370300,N,11715.326341,W,52.1,351.5,160410,,,A*42
$GPRMC,182537.9,A,3259.411513,N,11715.333558,W,50.2,351.9,160410,,,A*42
$GPRMC,182540.9,A,3259.453864,N,11715.341760,W,52.8,352.0,160410,,,A*47
$GPRMC,182543.9,A,3259.498168,N,11715.349184,W,52.6,352.1,160410,,,A*4D
$GPRMC,182546.9,A,3259.541815,N,11715.354695,W,51.2,353.0,160410,,,A*42
$GPRMC,182549.9,A,3259.585121,N,11715.361334,W,52.5,353.0,160410,,,A*47
$GPRMC,182552.9,A,3259.628267,N,11715.369120,W,54.0,350.6,160410,,,A*41
$GPRMC,182555.9,A,3259.673018,N,11715.378160,W,55.9,351.5,160410,,,A*4C
$GPRMC,182558.9,A,3259.719763,N,11715.386251,W,58.0,352.1,160410,,,A*44
$GPRMC,182601.9,A,3259.768479,N,11715.394201,W,59.3,352.7,160410,,,A*47
$GPRMC,182604.9,A,3259.820216,N,11715.401358,W,61.1,352.6,160410,,,A*40
$GPRMC,182607.9,A,3259.871533,N,11715.408834,W,61.6,352.4,160410,,,A*4A
$GPRMC,182610.9,A,3259.921716,N,11715.418078,W,61.7,351.7,160410,,,A*4D
$GPRMC,182613.9,A,3259.973418,N,11715.425013,W,63.4,353.6,160410,,,A*45
$GPRMC,182616.9,A,3300.026939,N,11715.431865,W,64.4,353.8,160410,,,A*4F
$GPRMC,182619.9,A,3300.080933,N,11715.441099,W,64.0,351.9,160410,,,A*4D
$GPRMC,182622.9,A,3300.133851,N,11715.448825,W,64.4,351.7,160410,,,A*45
$GPRMC,182625.9,A,3300.185959,N,11715.464324,W,65.3,345.2,160410,,,A*44
$GPRMC,182628.9,A,3300.238666,N,11715.485847,W,65.8,338.6,160410,,,A*4B
$GPRMC,182631.9,A,3300.284696,N,11715.514163,W,64.4,331.6,160410,,,A*49
$GPRMC,182634.9,A,3300.332434,N,11715.549661,W,66.4,326.9,160410,,,A*4C
$GPRMC,182637.9,A,3300.377111,N,11715.587500,W,65.1,320.8,160410,,,A*4B
$GPRMC,182640.9,A,3300.412822,N,11715.633659,W,65.8,315.3,160410,,,A*41
$GPRMC,182643.9,A,3300.451997,N,11715.677652,W,65.2,316.1,160410,,,A*4A
$GPRMC,182646.9,A,3300.492018,N,11715.722406,W,64.5,316.3,160410,,,A*48
$GPRMC,182649.9,A,3300.531183,N,11715.767730,W,65.2,316.6,160410,,,A*48
$GPRMC,182652.9,A,3300.572393,N,11715.812624,W,66.5,317.2,160410,,,A*4E
$GPRMC,182655.9,A,3300.611790,N,11715.856861,W,64.1,316.4,160410,,,A*46
$GPRMC,182658.9,A,3300.649286,N,11715.898929,W,61.8,315.7,160410,,,A*47
$GPRMC,182701.9,A,3300.688765,N,11715.941006,W,63.4,317.8,160410,,,A*4D
$GPRMC,182704.9,A,3300.726457,N,11715.984271,W,63.4,316.3,160410,,,A*4E
$GPRMC,182707.9,A,3300.764723,N,11716.027192,W,63.4,316.8,160410,,,A*4D
$GPRMC,182710.9,A,3300.802171,N,11716.069669,W,61.1,317.0,160410,,,A*42
$GPRMC,182713.9,A,3300.835212,N,11716.110602,W,56.6,315.1,160410,,,A*41
$GPRMC,182716.9,A,3300.868043,N,11716.148588,W,53.4,316.2,160410,,,A*41
$GPRMC,182719.9,A,3300.897976,N,11716.183858,W,50.8,316.4,160410,,,A*4F
$GPRMC,182722.9,A,3300.930945,N,11716.216457,W,52.3,321.1,160410,,,A*4F
$GPRMC,182725.9,A,3300.965914,N,11716.248217,W,54.0,323.1,160410,,,A*42
$GPRMC,182728.9,A,3301.005720,N,11716.278311,W,56.1,328.7,160410,,,A*42
$GPRMC,182731.9,A,3301.048331,N,11716.305185,W,57.3,332.7,160410,,,A*4B
$GPRMC,182734.9,A,3301.093945,N,11716.330145,W,58.6,336.5,160410,,,A*47
$GPRMC,182737.9,A,3301.137658,N,11716.350628,W,57.2,340.9,160410,,,A*44
$GPRMC,182740.9,A,3301.185692,N,11716.366118,W,57.9,345.8,160410,,,A*45
$GPRMC,182743.9,A,3301.232796,N,11716.376849,W,57.8,349.5,160410,,,A*40
$GPRMC,182746.9,A,3301.279998,N,11716.386740,W,57.6,350.5,160410,,,A*45
$GPRMC,182749.9,A,3301.327495,N,11716.396246,W,57.5,351.0,160410,,,A*45
$GPRMC,182752.9,A,3301.374134,N,11716.405486,W,56.7,350.8,160410,,,A*4A
$GPRMC,182755.9,A,3301.421499,N,11716.414947,W,57.9,349.3,160410,,,A*44
$GPRMC,182758.9,A,3301.467369,N,11716.426447,W,56.4,347.1,160410,,,A*4F
$GPRMC,182801.9,A,3301.513163,N,11716.442787,W,56.4,342.1,160410,,,A*4E
$GPRMC,182804.9,A,3301.556199,N,11716.463613,W,56.8,336.0,160410,,,A*4E
$GPRMC,182807.9,A,3301.600985,N,11716.490484,W,59.6,333.5,160410,,,A*49
$GPRMC,182810.9,A,3301.645634,N,11716.519007,W,59.8,332.7,160410,,,A*49
$GPRMC,182813.9,A,3301.689352,N,11716.547713,W,58.0,332.0,160410,,,A*48
$GPRMC,182816.9,A,3301.732483,N,11716.576253,W,58.0,330.4,160410,,,A*42
$GPRMC,182819.9,A,3301.771657,N,11716.602210,W,54.2,331.2,160410,,,A*4F
$GPRMC,182822.9,A,3301.809230,N,11716.627896,W,52.4,330.1,160410,,,A*43
$GPRMC,182825.9,A,3301.846820,N,11716.653829,W,50.6,330.1,160410,,,A*43
$GPRMC,182828.9,A,3301.883099,N,11716.676740,W,49.5,330.9,160410,,,A*49
$GPRMC,182831.9,A,3301.919299,N,11716.702535,W,51.1,330.2,160410,,,A*45
$GPRMC,182834.2,A,3301.947504,N,11716.719855,W,50.2,330.3,160410,,,A*41
$GPRMC,182837.2,A,3301.983567,N,11716.744164,W,48.8,330.5,160410,,,A*49
$GPRMC,182840.2,A,3302.019751,N,11716.766646,W,50.3,337.0,160410,,,A*40
$GPRMC,182843.9,A,3302.066543,N,11716.789180,W,47.4,336.8,160410,,,A*45
$GPRMC,182846.9,A,3302.099052,N,11716.805506,W,42.3,342.6,160410,,,A*4B
$GPRMC,182849.9,A,3302.129400,N,11716.813855,W,35.8,351.5,160410,,,A*4B
$GPRMC,182852.9,A,3302.154142,N,11716.817212,W,27.3,350.1,160410,,,A*48
$GPRMC,182855.9,A,3302.165560,N,11716.819504,W,11.9,351.4,160410,,,A*4C
$GPRMC,182901.9,A,3302.171546,N,11716.808628,W,12.0,76.7,160410,,,A*7F
$GPRMC,182904.9,A,3302.170802,N,11716.791544,W,19.9,85.2,160410,,,A*7B
$GPRMC,182907.9,A,3302.171712,N,11716.765426,W,27.1,88.4,160410,,,A*77
$GPRMC,182910.9,A,3302.173093,N,11716.733960,W,31.4,88.6,160410,,,A*71
$GPRMC,182913.9,A,3302.173449,N,11716.703536,W,29.5,89.4,160410,,,A*76
$GPRMC,182916.9,A,3302.174898,N,11716.676162,W,26.7,89.2,160410,,,A*79
$GPRMC,182919.9,A,3302.174268,N,11716.651032,W,26.4,89.5,160410,,,A*76
$GPRMC,182922.9,A,3302.175238,N,11716.622953,W,29.0,90.3,160410,,,A*75
$GPRMC,182925.9,A,3302.173700,N,11716.589962,W,33.7,91.8,160410,,,A*7C
$GPRMC,182928.9,A,3302.174711,N,11716.557529,W,32.5,89.4,160410,,,A*70
$GPRMC,182931.9,A,3302.176820,N,11716.524993,W,30.5,85.6,160410,,,A*72
$GPRMC,182934.9,A,3302.176113,N,11716.498571,W,25.9,88.2,160410,,,A*79
$GPRMC,182937.9,A,3302.176918,N,11716.473817,W,25.8,87.0,160410,,,A*7D
$GPRMC,182940.9,A,3302.175437,N,11716.450815,W,23.3,89.8,160410,,,A*76
$GPRMC,182943.9,A,3302.176530,N,11716.430463,W,19.3,87.2,160410,,,A*76
$GPRMC,182946.9,A,3302.177202,N,11716.410024,W,21.0,88.8,160410,,,A*7C
$GPRMC,182949.9,A,3302.177218,N,11716.388687,W,23.3,89.6,160410,,,A*7F
$GPRMC,182952.9,A,3302.176839,N,11716.363338,W,27.7,90.6,160410,,,A*71
$GPRMC,182955.9,A,3302.176439,N,11716.336618,W,28.4,90.1,160410,,,A*76
$GPRMC,182958.9,A,3302.176495,N,11716.306670,W,29.2,89.7,160410,,,A*79
$GPRMC,183001.9,A,3302.175690,N,11716.278790,W,27.9,92.2,160410,,,A*74
$GPRMC,183004.9,A,3302.175158,N,11716.248291,W,30.1,91.3,160410,,,A*79
$GPRMC,183007.9,A,3302.175092,N,11716.217813,W,30.5,89.1,160410,,,A*78
$GPRMC,183010.9,A,3302.175265,N,11716.189164,W,28.0,89.5,160410,,,A*71
$GPRMC,183013.9,A,3302.176249,N,11716.159224,W,29.3,88.0,160410,,,A*73
$GPRMC,183016.9,A,3302.173989,N,11716.131515,W,28.7,93.5,160410,,,A*75
$GPRMC,183019.9,A,3302.174140,N,11716.100647,W,31.6,89.9,160410,,,A*78
$GPRMC,183022.9,A,3302.173053,N,11716.071446,W,30.6,90.4,160410,,,A*74
$GPRMC,183025.9,A,3302.173902,N,11716.039545,W,31.3,89.1,160410,,,A*79
$GPRMC,183028.9,A,3302.174583,N,11716.012115,W,26.8,88.8,160410,,,A*7B
$GPRMC,183031.9,A,3302.174138,N,11715.994320,W,16.0,86.5,160410,,,A*7F
$GPRMC,183034.9,A,3302.173334,N,11715.980281,W,15.9,88.8,160410,,,A*75
$GPRMC,183037.9,A,3302.171315,N,11715.960656,W,21.7,93.7,160410,,,A*7B
$GPRMC,183040.9,A,3302.172694,N,11715.932545,W,27.2,88.9,160410,,,A*75
$GPRMC,183043.9,A,3302.172621,N,11715.905565,W,28.3,90.0,160410,,,A*70
$GPRMC,183046.9,A,3302.173323,N,11715.876633,W,31.1,87.6,160410,,,A*7C
$GPRMC,183049.9,A,3302.175514,N,11715.847094,W,31.9,81.4,160410,,,A*72
$GPRMC,183052.9,A,3302.183852,N,11715.814002,W,34.6,71.6,160410,,,A*70
$GPRMC,183055.9,A,3302.194442,N,11715.784361,W,33.7,64.8,160410,,,A*70
$GPRMC,183058.9,A,3302.209312,N,11715.754836,W,34.9,61.3,160410,,,A*7B
$GPRMC,183101.9,A,3302.225463,N,11715.726909,W,35.0,60.0,160410,,,A*7B
$GPRMC,183104.9,A,3302.240171,N,11715.696350,W,34.8,60.3,160410,,,A*7D
$GPRMC,183107.9,A,3302.254263,N,11715.667044,W,33.3,59.2,160410,,,A*74
$GPRMC,183110.9,A,3302.268903,N,11715.640952,W,32.6,57.4,160410,,,A*77
$GPRMC,183113.9,A,3302.285157,N,11715.612928,W,31.8,56.4,160410,,,A*78
$GPRMC,183116.9,A,3302.297418,N,11715.590224,W,25.9,60.6,160410,,,A*7D
$GPRMC,183119.9,A,3302.303580,N,11715.573492,W,15.8,65.8,160410,,,A*71
$GPRMC,183143.9,A,3302.306242,N,11715.558844,W,11.5,64.4,160410,,,A*78
$GPRMC,183146.9,A,3302.316046,N,11715.553831,W,14.8,12.5,160410,,,A*7B
$GPRMC,183149.9,A,3302.333860,N,11715.556376,W,22.2,348.6,160410,,,A*42
$GPRMC,183152.9,A,3302.355250,N,11715.561574,W,25.7,347.3,160410,,,A*49
$GPRMC,183155.9,A,3302.375323,N,11715.567313,W,24.0,350.0,160410,,,A*4B
$GPRMC,183158.9,A,3302.391724,N,11715.569153,W,14.2,354.6,160410,,,A*44
$GPRMC,183201.9,A,3302.395752,N,11715.569910,W,4.8,353.4,160410,,,A*7F
$GPRMC,183207.2,A,3302.399918,N,11715.569804,W,8.1,356.0,160410,,,A*7E
$GPRMC,183210.2,A,3302.409242,N,11715.569532,W,14.6,0.4,160410,,,A*44
$GPRMC,183213.2,A,3302.424851,N,11715.570042,W,21.5,358.6,160410,,,A*43
$GPRMC,183216.0,A,3302.443782,N,11715.570860,W,26.6,358.9,160410,,,A*47
$GPRMC,183219.9,A,3302.475304,N,11715.572507,W,28.7,358.2,160410,,,A*44
$GPRMC,183222.9,A,3302.497776,N,11715.572570,W,25.3,359.8,160410,,,A*43
$GPRMC,183225.9,A,3302.517942,N,11715.571738,W,25.4,0.0,160410,,,A*49
$GPRMC,183228.9,A,3302.541801,N,11715.571923,W,26.9,2.1,160410,,,A*48
$GPRMC,183231.9,A,3302.563940,N,11715.572468,W,27.0,359.4,160410,,,A*45
$GPRMC,183234.9,A,3302.584778,N,11715.571392,W,25.4,2.7,160410,,,A*45
$GPRMC,183237.9,A,3302.609431,N,11715.568493,W,30.1,4.1,160410,,,A*41
$GPRMC,183240.9,A,3302.635792,N,11715.570270,W,30.0,0.0,160410,,,A*42
$GPRMC,183243.9,A,3302.659421,N,11715.569906,W,26.9,1.4,160410,,,A*49
$GPRMC,183246.9,A,3302.680096,N,11715.568811,W,23.9,1.1,160410,,,A*46
$GPRMC,183249.9,A,3302.698323,N,11715.569273,W,19.9,0.6,160410,,,A*4D
$GPRMC,183252.9,A,3302.712426,N,11715.567968,W,14.9,2.2,160410,,,A*42
$GPRMC,183255.9,A,3302.722032,N,11715.568391,W,10.5,357.7,160410,,,A*4A
$GPRMC,183428.9,A,3302.729773,N,11715.568606,W,5.6,7.2,160410,,,A*70
$GPRMC,183431.9,A,3302.748082,N,11715.567494,W,18.9,1.2,160410,,,A*45
$GPRMC,183434.9,A,3302.767448,N,11715.568689,W,18.4,359.6,160410,,,A*49
$GPRMC,183437.9,A,3302.782930,N,11715.570189,W,18.7,357.5,160410,,,A*43
$GPRMC,183440.9,A,3302.800371,N,11715.570654,W,20.3,358.9,160410,,,A*42
$GPRMC,183443.9,A,3302.815708,N,11715.569600,W,16.6,2.1,160410,,,A*42
$GPRMC,183446.9,A,3302.825874,N,11715.570188,W,10.9,356.4,160410,,,A*41
$GPRMC,183449.9,A,3302.835249,N,11715.569803,W,12.8,357.6,160410,,,A*49
$GPRMC,183452.9,A,3302.851403,N,11715.569716,W,20.2,359.5,160410,,,A*44
$GPRMC,183455.9,A,3302.874434,N,11715.571601,W,28.0,354.5,160410,,,A*49
$GPRMC,183458.9,A,3302.897867,N,11715.573610,W,28.0,352.6,160410,,,A*44
$GPRMC,183501.9,A,3302.921138,N,11715.579667,W,29.0,346.9,160410,,,A*47
$GPRMC,183504.9,A,3302.943455,N,11715.586402,W,26.1,344.9,160410,,,A*45
$GPRMC,183507.9,A,3302.961947,N,11715.593050,W,22.7,345.5,160410,,,A*40
$GPRMC,183510.9,A,3302.978289,N,11715.600324,W,22.9,342.2,160410,,,A*40
$GPRMC,183513.9,A,3302.999696,N,11715.607044,W,26.3,344.6,160410,,,A*48
$GPRMC,183516.9,A,3303.020791,N,11715.614181,W,23.3,344.4,160410,,,A*4C
$GPRMC,183519.9,A,3303.035348,N,11715.618399,W,16.0,344.1,160410,,,A*40
$GPRMC,183522.9,A,3303.040045,N,11715.620757,W,4.6,342.6,160410,,,A*7D
$GPRMC,183525.9,A,3303.042176,N,11715.623201,W,5.7,337.1,160410,,,A*79
$GPRMC,183528.9,A,3303.052398,N,11715.624724,W,13.4,344.9,160410,,,A*4A
$GPRMC,183531.9,A,3303.065449,N,11715.629989,W,15.9,342.9,160410,,,A*44
$GPRMC,183534.9,A,3303.075746,N,11715.632577,W,11.7,347.3,160410,,,A*4E
$GPRMC,183537.9,A,3303.084740,N,11715.634926,W,14.2,344.9,160410,,,A*42
$GPRMC,183540.9,A,3303.097544,N,11715.640426,W,16.1,342.8,160410,,,A*4E
$GPRMC,183543.9,A,3303.112654,N,11715.645914,W,21.7,344.0,160410,,,A*46
$GPRMC,183546.9,A,3303.135236,N,11715.653152,W,27.1,343.6,160410,,,A*4A
$GPRMC,183549.9,A,3303.154989,N,11715.660202,W,24.9,344.1,160410,,,A*40
$GPRMC,183552.9,A,3303.177080,N,11715.668984,W,25.4,345.0,160410,,,A*4A
$GPRMC,183555.9,A,3303.191767,N,11715.672238,W,18.0,345.6,160410,,,A*40
$GPRMC,183558.9,A,3303.209761,N,11715.678621,W,24.9,343.0,160410,,,A*49
$GPRMC,183601.9,A,3303.234533,N,11715.685041,W,30.8,345.5,160410,,,A*48
$GPRMC,183604.9,A,3303.260402,N,11715.696148,W,33.6,342.9,160410,,,A*43
$GPRMC,183607.9,A,3303.290253,N,11715.704993,W,34.7,345.2,160410,,,A*43
$GPRMC,183610.9,A,3303.317207,N,11715.714511,W,30.6,346.0,160410,,,A*49
$GPRMC,183613.9,A,3303.333999,N,11715.719192,W,16.7,357.1,160410,,,A*46
$GPRMC,183616.9,A,3303.338462,N,11715.710511,W,11.3,73.2,160410,,,A*72
$GPRMC,183619.9,A,3303.335997,N,11715.696210,W,12.2,98.1,160410,,,A*7A
$GPRMC,183622.9,A,3303.338773,N,11715.688153,W,5.3,56.0,160410,,,A*44
