NMEA Sentence Code,UTC Time,Status,Latitude,Latitude Direction,Longitude,Longitude Direction,Speed (knots),Track Angle (degrees true),Date,MagneticVariation,Magnetic Variation Direction,[FAA Mode]-Optional,Checksum
$GPRMC,193438.2,A,3243.722967,N,11712.730199,W,30.6,79.8,310110,,,A*73
$GPRMC,193441.2,A,3243.725947,N,11712.699448,W,33.1,83.3,310110,,,A*79
$GPRMC,193444.2,A,3243.728222,N,11712.666401,W,34.9,84.8,310110,,,A*77
$GPRMC,193447.9,A,3243.731800,N,11712.620519,W,37.5,84.3,310110,,,A*73
$GPRMC,193450.2,A,3243.735916,N,11712.592062,W,37.3,82.4,310110,,,A*78
$GPRMC,193453.0,A,3243.739239,N,11712.554929,W,42.2,84.7,310110,,,A*79
$GPRMC,193457.2,A,3243.747964,N,11712.495195,W,42.2,80.5,310110,,,A*70
$GPRMC,193501.2,A,3243.753462,N,11712.438427,W,41.7,81.7,310110,,,A*72
$GPRMC,193504.2,A,3243.756499,N,11712.397425,W,40.2,82.3,310110,,,A*75
$GPRMC,193507.2,A,3243.761106,N,11712.357128,W,40.6,82.9,310110,,,A*7B
$GPRMC,193510.2,A,3243.762741,N,11712.317549,W,42.1,86.7,310110,,,A*73
$GPRMC,193513.9,A,3243.761708,N,11712.265245,W,43.3,89.8,310110,,,A*79
$GPRMC,193516.9,A,3243.757359,N,11712.222876,W,43.4,91.8,310110,,,A*7E
$GPRMC,193519.9,A,3243.759071,N,11712.176261,W,44.7,89.7,310110,,,A*7A
$GPRMC,193522.2,A,3243.757986,N,11712.143630,W,43.3,92.0,310110,,,A*7E
$GPRMC,193526.2,A,3243.756055,N,11712.086232,W,42.9,91.9,310110,,,A*73
$GPRMC,193529.9,A,3243.762676,N,11712.035525,W,43.0,86.5,310110,,,A*7C
$GPRMC,193532.9,A,3243.762662,N,11711.988000,W,46.5,87.6,310110,,,A*7F
$GPRMC,193535.9,A,3243.762907,N,11711.943536,W,46.7,88.6,310110,,,A*7E
$GPRMC,193538.9,A,3243.765476,N,11711.897614,W,47.3,89.2,310110,,,A*74
$GPRMC,193541.9,A,3243.763963,N,11711.849303,W,48.2,91.1,310110,,,A*71
$GPRMC,193544.2,A,3243.760674,N,11711.814817,W,44.0,91.4,310110,,,A*78
$GPRMC,193547.2,A,3243.758976,N,11711.775446,W,37.9,91.7,310110,,,A*73
$GPRMC,193551.2,A,3243.760312,N,11711.739039,W,25.6,92.1,310110,,,A*7A
$GPRMC,193555.2,A,3243.761545,N,11711.720277,W,11.6,96.0,310110,,,A*79
$GPRMC,193558.2,A,3243.757904,N,11711.706521,W,16.9,111.4,310110,,,A*4A
$GPRMC,193601.2,A,3243.753733,N,11711.704779,W,6.5,132.6,310110,,,A*78
$GPRMC,193730.2,A,3243.758667,N,11711.704186,W,10.6,86.7,310110,,,A*7D
$GPRMC,193733.0,A,3243.755952,N,11711.681690,W,23.1,91.7,310110,,,A*75
$GPRMC,193736.9,A,3243.755846,N,11711.635192,W,35.6,92.0,310110,,,A*73
$GPRMC,193739.9,A,3243.753873,N,11711.591021,W,41.4,91.8,310110,,,A*72
$GPRMC,193742.2,A,3243.753343,N,11711.554985,W,43.9,92.1,310110,,,A*76
$GPRMC,193746.2,A,3243.750800,N,11711.500720,W,34.9,93.4,310110,,,A*79
$GPRMC,193749.9,A,3243.748178,N,11711.476916,W,16.2,97.5,310110,,,A*77
$GPRMC,193819.9,A,3243.746055,N,11711.453097,W,8.9,76.7,310110,,,A*43
$GPRMC,193822.2,A,3243.743112,N,11711.426940,W,23.6,94.6,310110,,,A*7D
$GPRMC,193825.2,A,3243.738904,N,11711.392568,W,25.2,91.2,310110,,,A*74
$GPRMC,193828.2,A,3243.738449,N,11711.366900,W,19.2,91.3,310110,,,A*7A
$GPRMC,193831.2,A,3243.738413,N,11711.350990,W,13.3,94.5,310110,,,A*79
$GPRMC,193834.2,A,3243.738193,N,11711.340149,W,8.4,93.4,310110,,,A*47
$GPRMC,193843.2,A,3243.736538,N,11711.325395,W,4.7,98.5,310110,,,A*49
$GPRMC,193847.2,A,3243.735913,N,11711.306293,W,17.4,98.2,310110,,,A*7B
$GPRMC,193850.2,A,3243.734916,N,11711.283029,W,23.3,94.6,310110,,,A*7E
$GPRMC,193853.2,A,3243.734755,N,11711.259192,W,23.6,91.4,310110,,,A*70
$GPRMC,193856.2,A,3243.733662,N,11711.236389,W,23.3,93.1,310110,,,A*74
$GPRMC,193900.2,A,3243.732844,N,11711.203336,W,24.6,92.1,310110,,,A*7C
$GPRMC,193903.2,A,3243.731315,N,11711.176780,W,28.1,91.9,310110,,,A*7B
$GPRMC,193906.2,A,3243.727792,N,11711.146361,W,27.6,96.6,310110,,,A*7A
$GPRMC,193909.2,A,3243.722925,N,11711.113298,W,34.2,100.9,310110,,,A*42
$GPRMC,193912.9,A,3243.712076,N,11711.069962,W,36.9,107.0,310110,,,A*4A
$GPRMC,193915.9,A,3243.701429,N,11711.032750,W,38.3,109.1,310110,,,A*4B
$GPRMC,193918.9,A,3243.689875,N,11710.999321,W,32.8,112.5,310110,,,A*46
$GPRMC,193921.9,A,3243.680779,N,11710.972453,W,27.9,113.9,310110,,,A*49
$GPRMC,193924.9,A,3243.674678,N,11710.950771,W,25.3,110.9,310110,,,A*4F
$GPRMC,193927.9,A,3243.666630,N,11710.925585,W,27.2,110.8,310110,,,A*4A
$GPRMC,193930.9,A,3243.659833,N,11710.901077,W,27.9,109.7,310110,,,A*4F
$GPRMC,193933.9,A,3243.654343,N,11710.876947,W,25.9,104.2,310110,,,A*4C
$GPRMC,193936.9,A,3243.648672,N,11710.852899,W,24.6,100.8,310110,,,A*47
$GPRMC,193939.2,A,3243.646564,N,11710.833689,W,25.2,97.5,310110,,,A*76
$GPRMC,193942.2,A,3243.648975,N,11710.808192,W,26.6,89.3,310110,,,A*73
$GPRMC,193945.9,A,3243.649532,N,11710.771924,W,26.2,87.5,310110,,,A*79
$GPRMC,193948.9,A,3243.653860,N,11710.758602,W,18.7,82.1,310110,,,A*7C
$GPRMC,193951.9,A,3243.654631,N,11710.740085,W,20.6,85.3,310110,,,A*76
$GPRMC,193954.9,A,3243.659783,N,11710.720377,W,20.7,82.3,310110,,,A*78
$GPRMC,193957.2,A,3243.661091,N,11710.702979,W,17.9,82.1,310110,,,A*73
$GPRMC,194000.2,A,3243.661824,N,11710.690351,W,12.0,88.8,310110,,,A*7C
$GPRMC,194004.2,A,3243.658490,N,11710.672247,W,14.3,92.6,310110,,,A*7B
$GPRMC,194007.2,A,3243.657785,N,11710.657381,W,15.3,98.3,310110,,,A*72
$GPRMC,194010.2,A,3243.662881,N,11710.646618,W,12.2,55.0,310110,,,A*78
$GPRMC,194014.2,A,3243.679127,N,11710.639985,W,17.5,16.8,310110,,,A*7D
$GPRMC,194017.9,A,3243.702710,N,11710.628963,W,23.5,36.7,310110,,,A*78
$GPRMC,194020.9,A,3243.714001,N,11710.606957,W,28.1,63.0,310110,,,A*7F
$GPRMC,194023.2,A,3243.719353,N,11710.584547,W,29.6,66.4,310110,,,A*7D
$GPRMC,194026.9,A,3243.726945,N,11710.550090,W,27.6,71.4,310110,,,A*7C
$GPRMC,194029.9,A,3243.736154,N,11710.526777,W,23.5,69.2,310110,,,A*7D
$GPRMC,194032.9,A,3243.742988,N,11710.507748,W,20.3,68.2,310110,,,A*76
$GPRMC,194036.2,A,3243.746953,N,11710.493854,W,12.1,65.6,310110,,,A*7F
$GPRMC,194039.9,A,3243.750563,N,11710.487083,W,5.6,65.3,310110,,,A*40
$GPRMC,194100.9,A,3243.750280,N,11710.481617,W,5.8,74.8,310110,,,A*49
$GPRMC,194103.9,A,3243.753734,N,11710.473121,W,9.7,68.5,310110,,,A*4F
$GPRMC,194106.9,A,3243.755624,N,11710.461935,W,11.5,68.3,310110,,,A*7F
$GPRMC,194109.9,A,3243.757318,N,11710.448758,W,12.2,82.2,310110,,,A*77
$GPRMC,194112.9,A,3243.762639,N,11710.434679,W,13.7,70.9,310110,,,A*76
$GPRMC,194116.2,A,3243.769175,N,11710.423056,W,11.3,53.5,310110,,,A*7B
$GPRMC,194119.9,A,3243.780403,N,11710.421172,W,10.9,5.8,310110,,,A*4C
$GPRMC,194122.9,A,3243.796019,N,11710.428128,W,20.0,340.5,310110,,,A*4F
$GPRMC,194125.9,A,3243.814639,N,11710.437941,W,23.5,338.1,310110,,,A*4D
$GPRMC,194128.9,A,3243.840314,N,11710.450694,W,31.6,337.7,310110,,,A*44
$GPRMC,194131.9,A,3243.872313,N,11710.465731,W,37.5,339.9,310110,,,A*47
$GPRMC,194134.9,A,3243.901539,N,11710.477533,W,36.4,339.4,310110,,,A*47
$GPRMC,194137.9,A,3243.923580,N,11710.488891,W,29.7,334.1,310110,,,A*46
$GPRMC,194140.9,A,3243.938653,N,11710.497830,W,17.7,333.3,310110,,,A*4C
$GPRMC,194143.2,A,3243.944510,N,11710.499722,W,11.4,334.3,310110,,,A*4B
$GPRMC,194219.9,A,3243.966491,N,11710.522576,W,14.9,314.3,310110,,,A*4C
$GPRMC,194222.9,A,3243.989735,N,11710.544835,W,29.8,320.8,310110,,,A*41
$GPRMC,194225.9,A,3244.017423,N,11710.565766,W,34.8,324.4,310110,,,A*45
$GPRMC,194228.9,A,3244.044812,N,11710.589927,W,38.0,322.6,310110,,,A*49
$GPRMC,194231.9,A,3244.070180,N,11710.613541,W,35.7,323.0,310110,,,A*45
$GPRMC,194234.9,A,3244.092410,N,11710.633987,W,35.1,325.0,310110,,,A*44
$GPRMC,194237.2,A,3244.111350,N,11710.650348,W,37.7,322.6,310110,,,A*4C
$GPRMC,194240.2,A,3244.135441,N,11710.665806,W,30.8,326.2,310110,,,A*42
$GPRMC,194243.9,A,3244.154272,N,11710.681043,W,23.0,326.7,310110,,,A*47
$GPRMC,194246.9,A,3244.160720,N,11710.685508,W,12.7,331.4,310110,,,A*49
$GPRMC,194252.9,A,3244.159853,N,11710.686330,W,5.2,323.9,310110,,,A*7E
$GPRMC,194255.9,A,3244.164237,N,11710.684387,W,7.9,9.7,310110,,,A*7D
$GPRMC,194259.2,A,3244.169593,N,11710.672964,W,13.5,49.7,310110,,,A*7D
$GPRMC,194302.2,A,3244.174710,N,11710.662895,W,12.4,59.9,310110,,,A*76
$GPRMC,194305.2,A,3244.180635,N,11710.651738,W,13.0,57.3,310110,,,A*75
$GPRMC,194308.2,A,3244.190129,N,11710.637129,W,16.3,50.7,310110,,,A*70
$GPRMC,194311.2,A,3244.199341,N,11710.625711,W,15.4,47.6,310110,,,A*70
$GPRMC,194314.9,A,3244.208535,N,11710.615198,W,8.5,46.6,310110,,,A*48
$GPRMC,194404.9,A,3244.212193,N,11710.608132,W,7.1,52.1,310110,,,A*48
$GPRMC,194408.2,A,3244.217336,N,11710.598430,W,8.8,52.6,310110,,,A*4B
$GPRMC,194411.2,A,3244.220565,N,11710.592630,W,7.2,54.5,310110,,,A*4F
$GPRMC,194414.2,A,3244.230208,N,11710.580010,W,9.0,47.0,310110,,,A*4B
$GPRMC,194417.2,A,3244.234732,N,11710.572657,W,6.5,46.8,310110,,,A*4B
$GPRMC,194420.2,A,3244.237409,N,11710.568021,W,5.2,46.4,310110,,,A*43
$GPRMC,194429.2,A,3244.242449,N,11710.565695,W,6.1,8.8,310110,,,A*7E
$GPRMC,194432.9,A,3244.251619,N,11710.571168,W,9.1,328.6,310110,,,A*7A
$GPRMC,194435.9,A,3244.272973,N,11710.589211,W,26.1,325.0,310110,,,A*43
$GPRMC,194438.9,A,3244.298539,N,11710.611739,W,31.8,321.7,310110,,,A*49
$GPRMC,194441.9,A,3244.322838,N,11710.633243,W,33.8,322.7,310110,,,A*42
$GPRMC,194444.9,A,3244.349770,N,11710.655465,W,37.1,323.4,310110,,,A*44
$GPRMC,194447.9,A,3244.377038,N,11710.677633,W,36.6,323.7,310110,,,A*45
$GPRMC,194450.9,A,3244.401536,N,11710.701841,W,36.7,322.8,310110,,,A*4A
$GPRMC,194453.9,A,3244.426593,N,11710.728515,W,38.4,319.0,310110,,,A*49
$GPRMC,194456.9,A,3244.447109,N,11710.749811,W,35.0,317.3,310110,,,A*46
$GPRMC,194459.9,A,3244.467206,N,11710.772902,W,33.8,317.1,310110,,,A*40
$GPRMC,194502.2,A,3244.483042,N,11710.788654,W,32.5,317.1,310110,,,A*49
$GPRMC,194505.9,A,3244.507866,N,11710.821738,W,36.4,308.9,310110,,,A*42
$GPRMC,194508.9,A,3244.526841,N,11710.855528,W,41.7,299.5,310110,,,A*4F
$GPRMC,194511.9,A,3244.542670,N,11710.897355,W,48.9,294.2,310110,,,A*46
$GPRMC,194514.9,A,3244.562547,N,11710.948708,W,55.5,295.9,310110,,,A*43
$GPRMC,194517.9,A,3244.583863,N,11710.998368,W,57.1,296.2,310110,,,A*45
$GPRMC,194520.9,A,3244.604159,N,11711.051847,W,59.3,296.3,310110,,,A*4B
$GPRMC,194523.9,A,3244.627824,N,11711.102576,W,60.2,298.4,310110,,,A*40
$GPRMC,194526.9,A,3244.651802,N,11711.156533,W,62.5,297.1,310110,,,A*4F
$GPRMC,194529.9,A,3244.677694,N,11711.211002,W,63.0,298.8,310110,,,A*40
$GPRMC,194532.9,A,3244.704005,N,11711.267767,W,62.8,298.1,310110,,,A*44
$GPRMC,194535.9,A,3244.729690,N,11711.322036,W,62.8,298.5,310110,,,A*41
$GPRMC,194538.9,A,3244.755910,N,11711.376339,W,63.8,299.0,310110,,,A*48
$GPRMC,194541.9,A,3244.781310,N,11711.432140,W,64.8,297.6,310110,,,A*41
$GPRMC,194544.9,A,3244.807633,N,11711.487915,W,64.4,299.0,310110,,,A*43
$GPRMC,194547.9,A,3244.833088,N,11711.540950,W,62.2,299.4,310110,,,A*4E
$GPRMC,194550.9,A,3244.859386,N,11711.592030,W,60.2,303.4,310110,,,A*49
$GPRMC,194553.9,A,3244.891245,N,11711.640066,W,60.7,308.6,310110,,,A*43
$GPRMC,194556.9,A,3244.926583,N,11711.683978,W,60.9,314.0,310110,,,A*4A
$GPRMC,194559.9,A,3244.963427,N,11711.725344,W,61.8,317.8,310110,,,A*48
$GPRMC,194602.9,A,3245.003768,N,11711.764628,W,61.7,321.7,310110,,,A*4C
$GPRMC,194605.9,A,3245.045912,N,11711.801258,W,61.7,324.3,310110,,,A*44
$GPRMC,194608.9,A,3245.087451,N,11711.836425,W,61.2,322.6,310110,,,A*43
$GPRMC,194611.9,A,3245.122019,N,11711.870923,W,60.3,321.7,310110,,,A*46
$GPRMC,194614.9,A,3245.162838,N,11711.912996,W,63.1,316.3,310110,,,A*46
$GPRMC,194617.9,A,3245.197264,N,11711.958846,W,62.6,310.6,310110,,,A*4B
$GPRMC,194620.9,A,3245.231914,N,11712.005632,W,61.1,310.1,310110,,,A*40
$GPRMC,194623.9,A,3245.263907,N,11712.052468,W,60.2,309.7,310110,,,A*45
$GPRMC,194626.9,A,3245.297949,N,11712.098003,W,61.5,313.0,310110,,,A*44
$GPRMC,194629.9,A,3245.337749,N,11712.138050,W,61.7,320.4,310110,,,A*45
$GPRMC,194632.9,A,3245.380000,N,11712.168352,W,59.9,328.8,310110,,,A*4C
$GPRMC,194635.2,A,3245.416548,N,11712.187410,W,60.3,336.4,310110,,,A*42
$GPRMC,194638.0,A,3245.460356,N,11712.201151,W,60.1,345.5,310110,,,A*4F
$GPRMC,194641.2,A,3245.516297,N,11712.215998,W,61.4,344.5,310110,,,A*42
$GPRMC,194645.2,A,3245.584214,N,11712.232945,W,60.4,346.7,310110,,,A*42
$GPRMC,194648.0,A,3245.629763,N,11712.243638,W,61.9,348.2,310110,,,A*48
$GPRMC,194651.9,A,3245.697238,N,11712.258874,W,61.3,349.0,310110,,,A*42
$GPRMC,194654.9,A,3245.749666,N,11712.274549,W,62.1,347.2,310110,,,A*4A
$GPRMC,194657.9,A,3245.808629,N,11712.286876,W,66.2,348.4,310110,,,A*4A
$GPRMC,194700.9,A,3245.858967,N,11712.300622,W,65.6,348.0,310110,,,A*4A
$GPRMC,194703.2,A,3245.900066,N,11712.312289,W,66.7,348.2,310110,,,A*40
$GPRMC,194706.2,A,3245.951981,N,11712.325708,W,65.3,348.2,310110,,,A*4E
$GPRMC,194709.2,A,3246.000771,N,11712.339250,W,62.1,347.3,310110,,,A*40
$GPRMC,194712.2,A,3246.049968,N,11712.351511,W,60.2,347.5,310110,,,A*4A
$GPRMC,194715.2,A,3246.102774,N,11712.365221,W,63.0,347.2,310110,,,A*45
$GPRMC,194718.9,A,3246.169880,N,11712.383143,W,66.4,347.9,310110,,,A*4F
$GPRMC,194722.2,A,3246.230241,N,11712.397914,W,66.6,347.6,310110,,,A*47
$GPRMC,194725.2,A,3246.285215,N,11712.410898,W,67.6,347.7,310110,,,A*42
$GPRMC,194728.9,A,3246.350834,N,11712.427451,W,67.4,347.9,310110,,,A*45
$GPRMC,194731.9,A,3246.404825,N,11712.440839,W,66.6,348.3,310110,,,A*4E
$GPRMC,194734.9,A,3246.456061,N,11712.452786,W,63.9,347.8,310110,,,A*42
$GPRMC,194737.9,A,3246.507590,N,11712.468137,W,60.6,346.8,310110,,,A*47
$GPRMC,194740.9,A,3246.557575,N,11712.481126,W,60.0,347.5,310110,,,A*44
$GPRMC,194743.9,A,3246.606727,N,11712.491853,W,60.1,348.5,310110,,,A*41
$GPRMC,194746.2,A,3246.644739,N,11712.500346,W,61.5,350.7,310110,,,A*4E
$GPRMC,194749.9,A,3246.706891,N,11712.509555,W,59.9,357.9,310110,,,A*43
$GPRMC,194752.9,A,3246.759684,N,11712.505597,W,61.0,4.3,310110,,,A*46
$GPRMC,194755.9,A,3246.804708,N,11712.497416,W,57.4,7.8,310110,,,A*48
$GPRMC,194758.9,A,3246.852396,N,11712.487168,W,58.5,8.6,310110,,,A*47
$GPRMC,194801.9,A,3246.900100,N,11712.477409,W,59.0,9.0,310110,,,A*41
$GPRMC,194804.9,A,3246.946219,N,11712.467980,W,58.1,8.0,310110,,,A*41
$GPRMC,194807.9,A,3246.995305,N,11712.462593,W,58.8,7.9,310110,,,A*44
$GPRMC,194810.9,A,3247.043533,N,11712.452862,W,58.1,8.4,310110,,,A*49
$GPRMC,194813.9,A,3247.093318,N,11712.441875,W,58.5,9.1,310110,,,A*4C
$GPRMC,194816.9,A,3247.139747,N,11712.434946,W,56.8,8.4,310110,,,A*42
$GPRMC,194819.9,A,3247.185405,N,11712.426507,W,56.4,8.2,310110,,,A*4F
$GPRMC,194822.9,A,3247.231974,N,11712.419026,W,56.0,7.5,310110,,,A*46
$GPRMC,194825.9,A,3247.279814,N,11712.413916,W,56.3,4.1,310110,,,A*4E
$GPRMC,194828.9,A,3247.326969,N,11712.410638,W,55.6,3.7,310110,,,A*44
$GPRMC,194831.9,A,3247.374201,N,11712.410264,W,56.3,359.8,310110,,,A*46
$GPRMC,194834.9,A,3247.420956,N,11712.412967,W,56.1,355.2,310110,,,A*42
$GPRMC,194837.2,A,3247.457793,N,11712.417176,W,56.8,353.6,310110,,,A*4B
$GPRMC,194840.9,A,3247.516918,N,11712.427852,W,59.3,349.8,310110,,,A*44
$GPRMC,194843.9,A,3247.565929,N,11712.441412,W,58.8,346.1,310110,,,A*45
$GPRMC,194846.9,A,3247.611270,N,11712.456389,W,57.4,343.9,310110,,,A*4A
$GPRMC,194849.9,A,3247.655914,N,11712.474784,W,57.3,340.2,310110,,,A*4A
$GPRMC,194852.9,A,3247.700426,N,11712.495874,W,56.8,337.8,310110,,,A*42
$GPRMC,194855.9,A,3247.742606,N,11712.517512,W,55.9,335.1,310110,,,A*4C
$GPRMC,194858.9,A,3247.784549,N,11712.543325,W,56.0,333.1,310110,,,A*4C
$GPRMC,194901.9,A,3247.824957,N,11712.570295,W,55.7,332.4,310110,,,A*4D
$GPRMC,194904.2,A,3247.856232,N,11712.587788,W,56.0,333.3,310110,,,A*4D
$GPRMC,194908.2,A,3247.910179,N,11712.620137,W,56.7,333.6,310110,,,A*40
$GPRMC,194911.9,A,3247.959618,N,11712.648476,W,55.4,333.4,310110,,,A*42
$GPRMC,194914.2,A,3247.995237,N,11712.667479,W,56.1,336.8,310110,,,A*48
$GPRMC,194917.2,A,3248.040345,N,11712.690007,W,59.6,337.0,310110,,,A*45
$GPRMC,194920.9,A,3248.095442,N,11712.718308,W,58.0,336.3,310110,,,A*4A
$GPRMC,194923.9,A,3248.138409,N,11712.741680,W,56.8,334.1,310110,,,A*4F
$GPRMC,194926.9,A,3248.179786,N,11712.768664,W,55.5,332.3,310110,,,A*40
$GPRMC,194929.9,A,3248.215192,N,11712.789932,W,49.1,332.8,310110,,,A*44
$GPRMC,194932.9,A,3248.254778,N,11712.810911,W,48.4,334.6,310110,,,A*4B
$GPRMC,194935.9,A,3248.288705,N,11712.830861,W,44.6,334.0,310110,,,A*4B
$GPRMC,194938.2,A,3248.311453,N,11712.845544,W,42.8,332.2,310110,,,A*48
$GPRMC,194941.2,A,3248.341043,N,11712.865675,W,40.1,329.5,310110,,,A*43
$GPRMC,194944.9,A,3248.375437,N,11712.891741,W,38.1,329.3,310110,,,A*49
$GPRMC,194947.9,A,3248.393061,N,11712.905345,W,26.6,331.5,310110,,,A*4E
$GPRMC,194950.2,A,3248.401784,N,11712.908589,W,14.4,342.7,310110,,,A*4D
$GPRMC,194953.9,A,3248.411283,N,11712.902263,W,10.7,46.9,310110,,,A*71
$GPRMC,194956.2,A,3248.416553,N,11712.890196,W,15.9,55.9,310110,,,A*78
$GPRMC,194959.2,A,3248.421661,N,11712.862633,W,28.3,71.7,310110,,,A*78
$GPRMC,195002.2,A,3248.428942,N,11712.830655,W,32.8,74.8,310110,,,A*74
$GPRMC,195005.2,A,3248.434905,N,11712.799374,W,31.4,77.6,310110,,,A*75
$GPRMC,195008.2,A,3248.436125,N,11712.776954,W,22.2,89.9,310110,,,A*73
$GPRMC,195011.2,A,3248.425256,N,11712.759427,W,21.6,126.5,310110,,,A*45
$GPRMC,195014.9,A,3248.402370,N,11712.752094,W,21.6,171.4,310110,,,A*4F
$GPRMC,195017.2,A,3248.389213,N,11712.759354,W,22.0,198.3,310110,,,A*46
$GPRMC,195020.2,A,3248.382997,N,11712.775501,W,13.7,275.4,310110,,,A*44
$GPRMC,195023.2,A,3248.383652,N,11712.786813,W,7.5,284.5,310110,,,A*7A
$GPRMC,195026.2,A,3248.398425,N,11712.789310,W,17.7,355.8,310110,,,A*43
$GPRMC,195030.2,A,3248.425673,N,11712.792215,W,21.7,1.8,310110,,,A*4D
$GPRMC,195033.2,A,3248.450886,N,11712.794100,W,25.3,358.2,310110,,,A*4C
$GPRMC,195036.2,A,3248.469847,N,11712.792931,W,23.6,3.6,310110,,,A*48
$GPRMC,195039.2,A,3248.487560,N,11712.790294,W,20.3,11.3,310110,,,A*79
$GPRMC,195042.2,A,3248.497459,N,11712.780077,W,16.7,42.6,310110,,,A*73
$GPRMC,195045.2,A,3248.503290,N,11712.765311,W,15.6,72.5,310110,,,A*71
$GPRMC,195049.2,A,3248.490547,N,11712.739275,W,17.8,127.5,310110,,,A*4C
$GPRMC,195052.9,A,3248.463931,N,11712.740631,W,22.5,190.5,310110,,,A*41
$GPRMC,195055.9,A,3248.450633,N,11712.763128,W,25.7,242.7,310110,,,A*4E
$GPRMC,195059.2,A,3248.444036,N,11712.795845,W,31.5,249.6,310110,,,A*49
$GPRMC,195102.9,A,3248.435730,N,11712.839611,W,33.3,257.3,310110,,,A*42
$GPRMC,195106.2,A,3248.427395,N,11712.876861,W,34.5,251.9,310110,,,A*4A
$GPRMC,195109.2,A,3248.421436,N,11712.908336,W,34.0,255.7,310110,,,A*43
$GPRMC,195112.9,A,3248.412311,N,11712.943382,W,31.3,255.4,310110,,,A*45
$GPRMC,195115.2,A,3248.410023,N,11712.962862,W,29.0,259.0,310110,,,A*4D
$GPRMC,195118.0,A,3248.403434,N,11712.990547,W,28.9,255.6,310110,,,A*47
$GPRMC,195121.2,A,3248.398003,N,11713.018537,W,26.9,255.1,310110,,,A*4C
$GPRMC,195124.9,A,3248.389564,N,11713.049713,W,26.2,255.9,310110,,,A*45
$GPRMC,195127.9,A,3248.383099,N,11713.072009,W,24.9,257.7,310110,,,A*4A
$GPRMC,195130.2,A,3248.380760,N,11713.088834,W,21.6,255.1,310110,,,A*48
$GPRMC,195133.9,A,3248.376107,N,11713.104793,W,11.5,253.3,310110,,,A*4D
$GPRMC,195214.2,A,3248.369729,N,11713.129194,W,12.0,253.3,310110,,,A*4C
$GPRMC,195217.0,A,3248.364348,N,11713.158958,W,25.0,255.2,310110,,,A*4E
$GPRMC,195221.2,A,3248.357949,N,11713.196616,W,24.3,257.4,310110,,,A*43
$GPRMC,195224.2,A,3248.353656,N,11713.215365,W,18.6,250.2,310110,,,A*41
$GPRMC,195228.2,A,3248.346631,N,11713.242135,W,21.3,256.4,310110,,,A*42
$GPRMC,195231.2,A,3248.341388,N,11713.264280,W,24.4,254.1,310110,,,A*46
$GPRMC,195234.2,A,3248.336566,N,11713.287907,W,24.4,255.8,310110,,,A*44
$GPRMC,195237.2,A,3248.331382,N,11713.308511,W,20.1,253.6,310110,,,A*48
$GPRMC,195241.2,A,3248.326571,N,11713.318493,W,5.1,241.2,310110,,,A*7F
$GPRMC,195418.9,A,3248.323640,N,11713.312948,W,9.3,82.8,310110,,,A*42
$GPRMC,195421.2,A,3248.325417,N,11713.303650,W,12.0,80.9,310110,,,A*79
$GPRMC,195424.2,A,3248.328647,N,11713.292217,W,10.4,69.4,310110,,,A*74
$GPRMC,195427.2,A,3248.331068,N,11713.280333,W,14.0,75.6,310110,,,A*7F
$GPRMC,195430.2,A,3248.334173,N,11713.264607,W,15.0,75.5,310110,,,A*7D
$GPRMC,195433.9,A,3248.337977,N,11713.249316,W,9.0,73.3,310110,,,A*4D
$GPRMC,195446.9,A,3248.338560,N,11713.232548,W,7.4,93.5,310110,,,A*49
$GPRMC,195449.9,A,3248.340734,N,11713.219739,W,13.4,84.9,310110,,,A*78
$GPRMC,195452.9,A,3248.345834,N,11713.199089,W,21.4,77.9,310110,,,A*72
$GPRMC,195455.9,A,3248.351704,N,11713.171042,W,27.6,77.8,310110,,,A*78
$GPRMC,195458.0,A,3248.357351,N,11713.151263,W,29.5,79.1,310110,,,A*77
$GPRMC,195501.9,A,3248.366439,N,11713.114048,W,29.0,72.6,310110,,,A*7B
$GPRMC,195504.2,A,3248.371316,N,11713.091656,W,31.2,76.0,310110,,,A*75
$GPRMC,195507.2,A,3248.377626,N,11713.062984,W,31.3,77.9,310110,,,A*73
$GPRMC,195510.9,A,3248.386567,N,11713.021784,W,33.1,74.9,310110,,,A*7C
$GPRMC,195513.2,A,3248.391951,N,11712.999934,W,27.9,74.4,310110,,,A*75
$GPRMC,195516.2,A,3248.397249,N,11712.974445,W,27.2,76.3,310110,,,A*72
$GPRMC,195522.2,A,3248.415009,N,11712.902673,W,43.0,76.0,310110,,,A*7B
$GPRMC,195525.2,A,3248.423534,N,11712.858438,W,46.7,75.4,310110,,,A*74
$GPRMC,195528.9,A,3248.437515,N,11712.803724,W,49.2,72.0,310110,,,A*7D
$GPRMC,195531.2,A,3248.446153,N,11712.767451,W,50.3,74.7,310110,,,A*7A
$GPRMC,195534.9,A,3248.457033,N,11712.697371,W,54.1,75.7,310110,,,A*7F
$GPRMC,195537.2,A,3248.465748,N,11712.660436,W,51.2,75.4,310110,,,A*74
$GPRMC,195540.9,A,3248.477284,N,11712.602018,W,49.0,76.3,310110,,,A*7A
$GPRMC,195543.9,A,3248.487702,N,11712.557974,W,48.6,71.4,310110,,,A*7A
$GPRMC,195546.2,A,3248.503595,N,11712.523223,W,51.0,64.8,310110,,,A*79
$GPRMC,195549.9,A,3248.529904,N,11712.471937,W,49.7,54.8,310110,,,A*74
$GPRMC,195552.9,A,3248.555314,N,11712.434796,W,49.7,51.8,310110,,,A*7F
$GPRMC,195555.9,A,3248.581291,N,11712.396160,W,48.4,50.1,310110,,,A*77
$GPRMC,195559.2,A,3248.609157,N,11712.357259,W,45.7,50.8,310110,,,A*79
$GPRMC,195603.2,A,3248.640778,N,11712.310785,W,43.4,49.9,310110,,,A*78
$GPRMC,195606.2,A,3248.663142,N,11712.277811,W,42.8,52.4,310110,,,A*7B
$GPRMC,195609.2,A,3248.681572,N,11712.240869,W,43.5,62.8,310110,,,A*77
$GPRMC,195612.9,A,3248.697347,N,11712.194802,W,39.2,72.2,310110,,,A*77
$GPRMC,195615.9,A,3248.706024,N,11712.160702,W,34.3,79.1,310110,,,A*7F
$GPRMC,195618.9,A,3248.706641,N,11712.129518,W,30.8,88.9,310110,,,A*7A
$GPRMC,195621.9,A,3248.706390,N,11712.109236,W,20.4,88.5,310110,,,A*71
$GPRMC,195624.2,A,3248.705832,N,11712.099107,W,12.0,92.8,310110,,,A*75
$GPRMC,195627.9,A,3248.704750,N,11712.091760,W,6.8,87.9,310110,,,A*40
$GPRMC,195718.9,A,3248.704189,N,11712.074408,W,9.1,78.2,310110,,,A*44
$GPRMC,195721.9,A,3248.702192,N,11712.050300,W,20.7,92.0,310110,,,A*70
$GPRMC,195724.9,A,3248.702046,N,11712.016530,W,29.8,90.8,310110,,,A*76
$GPRMC,195727.9,A,3248.703944,N,11711.978226,W,37.2,85.5,310110,,,A*71
$GPRMC,195730.9,A,3248.706298,N,11711.931159,W,47.0,84.1,310110,,,A*7E
$GPRMC,195733.9,A,3248.714281,N,11711.885063,W,48.5,77.1,310110,,,A*76
$GPRMC,195736.9,A,3248.729188,N,11711.836795,W,52.4,68.2,310110,,,A*76
$GPRMC,195739.9,A,3248.750316,N,11711.787988,W,55.4,61.0,310110,,,A*79
$GPRMC,195742.9,A,3248.775321,N,11711.744499,W,54.0,54.0,310110,,,A*77
$GPRMC,195745.2,A,3248.799314,N,11711.709275,W,57.5,51.6,310110,,,A*77
$GPRMC,195748.9,A,3248.840800,N,11711.664907,W,53.6,42.4,310110,,,A*77
$GPRMC,195751.9,A,3248.870408,N,11711.632047,W,47.0,42.5,310110,,,A*74
$GPRMC,195755.2,A,3248.901963,N,11711.597269,W,46.0,45.8,310110,,,A*75
$GPRMC,195758.0,A,3248.924937,N,11711.565303,W,46.8,51.6,310110,,,A*7F
$GPRMC,195801.2,A,3248.946685,N,11711.524229,W,44.4,62.0,310110,,,A*78
$GPRMC,195804.2,A,3248.960049,N,11711.485849,W,42.9,67.4,310110,,,A*73
$GPRMC,195807.2,A,3248.972254,N,11711.441500,W,44.0,70.6,310110,,,A*7E
$GPRMC,195810.9,A,3248.984128,N,11711.389225,W,42.4,72.8,310110,,,A*7F
$GPRMC,195813.9,A,3248.995625,N,11711.354980,W,41.2,69.5,310110,,,A*70
$GPRMC,195816.9,A,3249.010349,N,11711.315263,W,41.1,67.1,310110,,,A*75
$GPRMC,195819.2,A,3249.020315,N,11711.286698,W,40.3,67.4,310110,,,A*76
$GPRMC,195822.2,A,3249.033650,N,11711.251902,W,39.5,66.4,310110,,,A*77
$GPRMC,195825.9,A,3249.048897,N,11711.209178,W,37.3,67.6,310110,,,A*71
$GPRMC,195828.9,A,3249.060773,N,11711.174350,W,38.0,66.8,310110,,,A*71
$GPRMC,195831.9,A,3249.074078,N,11711.140116,W,39.2,66.0,310110,,,A*7C
$GPRMC,195834.9,A,3249.085992,N,11711.106700,W,37.5,66.8,310110,,,A*78
$GPRMC,195837.9,A,3249.100325,N,11711.069885,W,39.6,66.2,310110,,,A*7C
$GPRMC,195840.9,A,3249.112676,N,11711.033499,W,39.5,69.0,310110,,,A*7C
$GPRMC,195843.9,A,3249.124074,N,11711.001739,W,36.8,68.4,310110,,,A*71
$GPRMC,195846.9,A,3249.135507,N,11710.969943,W,34.8,63.7,310110,,,A*7A
$GPRMC,195849.2,A,3249.144306,N,11710.948732,W,30.4,65.3,310110,,,A*7E
$GPRMC,195852.9,A,3249.151375,N,11710.932063,W,15.7,68.6,310110,,,A*7D
$GPRMC,200016.9,A,3249.152525,N,11710.922683,W,4.8,79.9,310110,,,A*43
$GPRMC,200019.9,A,3249.162668,N,11710.898335,W,18.6,66.2,310110,,,A*7B
$GPRMC,200022.9,A,3249.178327,N,11710.858521,W,33.0,66.2,310110,,,A*76
$GPRMC,200025.2,A,3249.189141,N,11710.825777,W,40.4,71.5,310110,,,A*7C
$GPRMC,200028.9,A,3249.202957,N,11710.775649,W,42.0,75.3,310110,,,A*77
$GPRMC,200031.9,A,3249.209994,N,11710.734586,W,42.2,78.6,310110,,,A*74
$GPRMC,200034.9,A,3249.214666,N,11710.693719,W,41.6,82.8,310110,,,A*7B
$GPRMC,200037.9,A,3249.217745,N,11710.655012,W,39.6,85.1,310110,,,A*7C
$GPRMC,200040.9,A,3249.218559,N,11710.618591,W,33.7,90.1,310110,,,A*74
$GPRMC,200043.9,A,3249.217247,N,11710.594629,W,21.9,93.3,310110,,,A*7B
$GPRMC,200046.9,A,3249.216441,N,11710.580477,W,8.9,86.4,310110,,,A*4B
$GPRMC,200134.9,A,3249.217635,N,11710.556944,W,12.8,80.2,310110,,,A*73
$GPRMC,200137.9,A,3249.216416,N,11710.518545,W,31.9,91.0,310110,,,A*77
$GPRMC,200140.9,A,3249.216933,N,11710.467362,W,42.2,90.7,310110,,,A*7E
$GPRMC,200143.9,A,3249.214126,N,11710.419298,W,42.8,91.2,310110,,,A*70
$GPRMC,200146.9,A,3249.212924,N,11710.376892,W,40.6,91.2,310110,,,A*7B
$GPRMC,200149.9,A,3249.213411,N,11710.333534,W,40.9,90.0,310110,,,A*72
$GPRMC,200152.9,A,3249.216302,N,11710.293170,W,40.9,88.0,310110,,,A*7E
$GPRMC,200155.9,A,3249.215828,N,11710.251328,W,41.8,89.8,310110,,,A*71
$GPRMC,200158.9,A,3249.214148,N,11710.209376,W,44.1,90.9,310110,,,A*71
$GPRMC,200201.9,A,3249.215347,N,11710.167031,W,43.5,89.2,310110,,,A*79
$GPRMC,200204.9,A,3249.214851,N,11710.125384,W,39.9,88.8,310110,,,A*70
$GPRMC,200207.9,A,3249.217781,N,11710.090933,W,33.7,84.8,310110,,,A*73
$GPRMC,200210.2,A,3249.220740,N,11710.071122,W,23.5,79.2,310110,,,A*7B
$GPRMC,200213.9,A,3249.225049,N,11710.050789,W,15.2,80.0,310110,,,A*7A
$GPRMC,200216.9,A,3249.226706,N,11710.043047,W,7.2,73.6,310110,,,A*4E
$GPRMC,200259.9,A,3249.229933,N,11710.023273,W,9.6,72.5,310110,,,A*49
$GPRMC,200302.9,A,3249.236909,N,11710.000366,W,22.3,66.8,310110,,,A*71
$GPRMC,200305.9,A,3249.245832,N,11709.966311,W,31.4,68.2,310110,,,A*7B
$GPRMC,200308.9,A,3249.258300,N,11709.929030,W,38.5,67.9,310110,,,A*77
$GPRMC,200311.9,A,3249.271838,N,11709.892047,W,40.1,67.0,310110,,,A*77
$GPRMC,200314.9,A,3249.284413,N,11709.854946,W,40.3,70.9,310110,,,A*72
$GPRMC,200317.9,A,3249.292351,N,11709.814119,W,41.1,76.6,310110,,,A*7B
$GPRMC,200320.9,A,3249.295496,N,11709.772817,W,42.3,83.5,310110,,,A*74
$GPRMC,200323.9,A,3249.297453,N,11709.731177,W,39.4,89.0,310110,,,A*70
$GPRMC,200326.9,A,3249.297519,N,11709.699152,W,31.4,90.4,310110,,,A*7A
$GPRMC,200329.9,A,3249.296418,N,11709.670797,W,26.8,92.2,310110,,,A*72
