NMEA Sentence Code,UTC Time,Status,Latitude,Latitude Direction,Longitude,Longitude Direction,Speed (knots),Track Angle (degrees true),Date,MagneticVariation,Magnetic Variation Direction,[FAA Mode]-Optional,Checksum
$GPRMC,001209.5,A,3233.1315,N,11702.4269,W,17.20,336.90,120710,,*2B
$GPRMC,001213.5,A,3233.1568,N,11702.4368,W,24.70,340.80,120710,,*29
$GPRMC,001217.5,A,3233.1856,N,11702.4488,W,28.80,339.70,120710,,*26
$GPRMC,001221.5,A,3233.2183,N,11702.4622,W,30.70,341.40,120710,,*29
$GPRMC,001225.5,A,3233.2519,N,11702.4760,W,33.30,340.70,120710,,*28
$GPRMC,001229.5,A,3233.2883,N,11702.4918,W,35.30,341.00,120710,,*2B
$GPRMC,001233.5,A,3233.3290,N,11702.5060,W,39.20,344.70,120710,,*21
$GPRMC,001237.5,A,3233.3738,N,11702.5183,W,41.30,347.80,120710,,*2C
$GPRMC,001241.5,A,3233.4202,N,11702.5261,W,41.60,352.40,120710,,*24
$GPRMC,001245.5,A,3233.4679,N,11702.5309,W,42.30,354.40,120710,,*27
$GPRMC,001249.5,A,3233.5150,N,11702.5343,W,42.60,357.80,120710,,*22
$GPRMC,001253.5,A,3233.5617,N,11702.5340,W,42.30,0.30,120710,,*21
$GPRMC,001257.5,A,3233.6088,N,11702.5295,W,42.40,3.90,120710,,*21
$GPRMC,001301.5,A,3233.6554,N,11702.5237,W,42.70,6.00,120710,,*20
$GPRMC,001305.5,A,3233.7036,N,11702.5116,W,43.50,11.10,120710,,*10
$GPRMC,001309.5,A,3233.7510,N,11702.5002,W,43.60,10.60,120710,,*1C
$GPRMC,001313.5,A,3233.7977,N,11702.4913,W,43.50,10.00,120710,,*17
$GPRMC,001317.5,A,3233.8506,N,11702.4805,W,45.90,9.50,120710,,*27
$GPRMC,001321.5,A,3233.9010,N,11702.4662,W,45.50,11.30,120710,,*1D
$GPRMC,001325.5,A,3233.9536,N,11702.4589,W,46.50,10.40,120710,,*1B
$GPRMC,001329.5,A,3234.0108,N,11702.4483,W,47.50,10.90,120710,,*17
$GPRMC,001333.5,A,3234.0626,N,11702.4385,W,47.90,10.10,120710,,*12
$GPRMC,001337.5,A,3234.1158,N,11702.4278,W,48.40,10.60,120710,,*1F
$GPRMC,001341.5,A,3234.1690,N,11702.4143,W,47.90,11.10,120710,,*12
$GPRMC,001345.5,A,3234.2213,N,11702.3978,W,47.50,11.00,120710,,*10
$GPRMC,001349.5,A,3234.2707,N,11702.3827,W,48.30,11.30,120710,,*1D
$GPRMC,001353.5,A,3234.3249,N,11702.3694,W,49.40,10.60,120710,,*1C
$GPRMC,001357.5,A,3234.3775,N,11702.3546,W,48.80,11.30,120710,,*17
$GPRMC,001401.5,A,3234.4304,N,11702.3445,W,47.70,10.60,120710,,*10
$GPRMC,001405.5,A,3234.4841,N,11702.3325,W,47.40,11.70,120710,,*1C
$GPRMC,001409.5,A,3234.5366,N,11702.3199,W,46.80,10.90,120710,,*18
$GPRMC,001413.5,A,3234.5888,N,11702.3076,W,46.50,11.00,120710,,*1D
$GPRMC,001417.5,A,3234.6397,N,11702.2956,W,46.80,10.60,120710,,*1F
$GPRMC,001421.5,A,3234.6920,N,11702.2830,W,44.90,11.80,120710,,*11
$GPRMC,001425.5,A,3234.7415,N,11702.2715,W,45.60,10.40,120710,,*14
$GPRMC,001429.5,A,3234.7940,N,11702.2589,W,48.70,11.60,120710,,*1D
$GPRMC,001433.5,A,3234.8506,N,11702.2472,W,51.00,10.20,120710,,*18
$GPRMC,001437.5,A,3234.9065,N,11702.2350,W,51.40,10.40,120710,,*18
$GPRMC,001441.5,A,3234.9645,N,11702.2222,W,52.90,10.80,120710,,*1B
$GPRMC,001445.5,A,3235.0215,N,11702.2106,W,51.80,10.50,120710,,*1C
$GPRMC,001449.5,A,3235.0766,N,11702.1962,W,51.10,11.70,120710,,*12
$GPRMC,001453.5,A,3235.1331,N,11702.1867,W,50.80,9.20,120710,,*2E
$GPRMC,001457.5,A,3235.1876,N,11702.1772,W,50.50,6.50,120710,,*2C
$GPRMC,001501.5,A,3235.2423,N,11702.1725,W,49.50,4.60,120710,,*2A
$GPRMC,001505.5,A,3235.2994,N,11702.1696,W,49.10,2.60,120710,,*24
$GPRMC,001509.5,A,3235.3533,N,11702.1686,W,49.00,1.20,120710,,*2F
$GPRMC,001513.5,A,3235.4077,N,11702.1687,W,48.50,0.10,120710,,*21
$GPRMC,001517.5,A,3235.4608,N,11702.1695,W,48.10,359.70,120710,,*25
$GPRMC,001521.5,A,3235.5163,N,11702.1682,W,49.10,0.60,120710,,*22
$GPRMC,001525.5,A,3235.5689,N,11702.1671,W,49.10,0.30,120710,,*2C
$GPRMC,001529.5,A,3235.6228,N,11702.1672,W,49.40,359.80,120710,,*2E
$GPRMC,001533.5,A,3235.6777,N,11702.1681,W,48.20,0.00,120710,,*26
$GPRMC,001537.5,A,3235.7330,N,11702.1685,W,48.40,359.70,120710,,*2E
$GPRMC,001541.5,A,3235.7870,N,11702.1675,W,48.00,359.80,120710,,*24
$GPRMC,001545.5,A,3235.8406,N,11702.1660,W,47.50,359.60,120710,,*22
$GPRMC,001549.5,A,3235.8916,N,11702.1662,W,46.20,359.70,120710,,*27
$GPRMC,001553.5,A,3235.9434,N,11702.1684,W,46.70,359.60,120710,,*2C
$GPRMC,001557.5,A,3235.9945,N,11702.1682,W,48.10,359.80,120710,,*23
$GPRMC,001601.5,A,3236.0504,N,11702.1665,W,49.60,0.30,120710,,*2B
$GPRMC,001605.5,A,3236.1058,N,11702.1658,W,49.80,360.00,120710,,*24
$GPRMC,001609.5,A,3236.1627,N,11702.1656,W,50.40,359.70,120710,,*21
$GPRMC,001613.5,A,3236.2183,N,11702.1665,W,48.90,359.80,120710,,*2B
$GPRMC,001617.5,A,3236.2723,N,11702.1665,W,49.00,0.00,120710,,*2C
$GPRMC,001621.5,A,3236.3280,N,11702.1669,W,50.10,359.80,120710,,*26
$GPRMC,001625.5,A,3236.3831,N,11702.1680,W,50.10,359.50,120710,,*28
$GPRMC,001629.5,A,3236.4429,N,11702.1656,W,51.20,0.70,120710,,*22
$GPRMC,001633.5,A,3236.4979,N,11702.1664,W,49.80,357.60,120710,,*23
$GPRMC,001637.5,A,3236.5533,N,11702.1723,W,49.60,355.10,120710,,*2D
$GPRMC,001641.5,A,3236.6084,N,11702.1791,W,49.80,353.20,120710,,*24
$GPRMC,001645.5,A,3236.6628,N,11702.1900,W,49.60,350.10,120710,,*28
$GPRMC,001649.5,A,3236.7165,N,11702.2040,W,49.80,347.90,120710,,*25
$GPRMC,001653.5,A,3236.7728,N,11702.2210,W,50.20,345.00,120710,,*2F
$GPRMC,001657.5,A,3236.8280,N,11702.2379,W,50.00,343.60,120710,,*2F
$GPRMC,001701.5,A,3236.8829,N,11702.2581,W,50.80,341.90,120710,,*20
$GPRMC,001705.5,A,3236.9394,N,11702.2798,W,52.10,342.20,120710,,*21
$GPRMC,001709.5,A,3236.9945,N,11702.3016,W,51.20,342.30,120710,,*2A
$GPRMC,001713.5,A,3237.0461,N,11702.3246,W,50.40,340.90,120710,,*2A
$GPRMC,001717.5,A,3237.1049,N,11702.3481,W,51.20,341.40,120710,,*27
$GPRMC,001721.5,A,3237.1589,N,11702.3677,W,50.10,342.10,120710,,*24
$GPRMC,001725.5,A,3237.2130,N,11702.3901,W,51.00,341.70,120710,,*2E
$GPRMC,001729.5,A,3237.2676,N,11702.4129,W,51.20,340.70,120710,,*21
$GPRMC,001733.5,A,3237.3214,N,11702.4332,W,50.60,342.00,120710,,*23
$GPRMC,001737.5,A,3237.3751,N,11702.4540,W,50.60,342.00,120710,,*20
$GPRMC,001741.5,A,3237.4284,N,11702.4746,W,50.90,341.30,120710,,*20
$GPRMC,001745.5,A,3237.4822,N,11702.4955,W,51.80,341.30,120710,,*2E
$GPRMC,001749.5,A,3237.5370,N,11702.5174,W,52.00,341.10,120710,,*2C
$GPRMC,001753.5,A,3237.5928,N,11702.5405,W,52.30,340.00,120710,,*20
$GPRMC,001757.5,A,3237.6507,N,11702.5690,W,54.30,338.20,120710,,*23
$GPRMC,001801.5,A,3237.7048,N,11702.5936,W,52.90,338.30,120710,,*2E
$GPRMC,001805.5,A,3237.7592,N,11702.6195,W,52.70,338.50,120710,,*22
$GPRMC,001809.5,A,3237.8137,N,11702.6428,W,52.00,338.30,120710,,*28
$GPRMC,001813.5,A,3237.8688,N,11702.6709,W,54.00,337.80,120710,,*22
$GPRMC,001817.5,A,3237.9245,N,11702.6987,W,54.20,336.40,120710,,*25
$GPRMC,001821.5,A,3237.9800,N,11702.7302,W,54.60,333.50,120710,,*2D
$GPRMC,001825.5,A,3238.0280,N,11702.7660,W,53.40,328.80,120710,,*2E
$GPRMC,001829.5,A,3238.0764,N,11702.8071,W,53.60,324.40,120710,,*26
$GPRMC,001833.5,A,3238.1246,N,11702.8544,W,55.20,319.50,120710,,*27
$GPRMC,001837.5,A,3238.1665,N,11702.9027,W,55.50,315.20,120710,,*2B
$GPRMC,001841.5,A,3238.2080,N,11702.9572,W,55.50,310.20,120710,,*24
$GPRMC,001845.5,A,3238.2444,N,11703.0145,W,54.70,306.20,120710,,*20
$GPRMC,001849.5,A,3238.2791,N,11703.0746,W,54.70,304.30,120710,,*21
$GPRMC,001853.5,A,3238.3130,N,11703.1329,W,54.00,304.80,120710,,*26
$GPRMC,001857.5,A,3238.3462,N,11703.1904,W,53.30,304.50,120710,,*2C
$GPRMC,001901.5,A,3238.3801,N,11703.2465,W,53.20,308.10,120710,,*27
$GPRMC,001905.5,A,3238.4216,N,11703.2961,W,52.10,315.80,120710,,*26
$GPRMC,001909.5,A,3238.4676,N,11703.3424,W,53.60,321.90,120710,,*25
$GPRMC,001913.5,A,3238.5181,N,11703.3828,W,54.30,330.40,120710,,*2F
$GPRMC,001917.5,A,3238.5727,N,11703.4143,W,54.40,334.50,120710,,*20
$GPRMC,001921.5,A,3238.6278,N,11703.4449,W,54.90,334.10,120710,,*2F
$GPRMC,001925.5,A,3238.6827,N,11703.4765,W,55.30,334.50,120710,,*29
$GPRMC,001929.5,A,3238.7376,N,11703.5078,W,54.80,331.60,120710,,*2D
$GPRMC,001933.5,A,3238.7886,N,11703.5465,W,54.40,324.50,120710,,*21
$GPRMC,001937.5,A,3238.8358,N,11703.5913,W,54.30,318.80,120710,,*2B
$GPRMC,001941.5,A,3238.8770,N,11703.6416,W,53.30,312.20,120710,,*28
$GPRMC,001945.5,A,3238.9134,N,11703.6960,W,52.40,307.30,120710,,*24
$GPRMC,001949.5,A,3238.9429,N,11703.7542,W,51.20,300.20,120710,,*2F
$GPRMC,001953.5,A,3238.9684,N,11703.8160,W,50.90,296.80,120710,,*24
$GPRMC,001957.5,A,3238.9939,N,11703.8755,W,51.60,296.70,120710,,*28
$GPRMC,002001.5,A,3239.0197,N,11703.9377,W,52.50,297.80,120710,,*2E
$GPRMC,002005.5,A,3239.0499,N,11703.9960,W,52.10,303.00,120710,,*2D
$GPRMC,002009.5,A,3239.0864,N,11704.0525,W,53.80,310.80,120710,,*2E
$GPRMC,002013.5,A,3239.1274,N,11704.1042,W,53.50,314.40,120710,,*2F
$GPRMC,002017.5,A,3239.1718,N,11704.1492,W,52.60,323.20,120710,,*2D
$GPRMC,002021.5,A,3239.2199,N,11704.1906,W,53.90,324.00,120710,,*2F
$GPRMC,002025.5,A,3239.2685,N,11704.2339,W,54.40,322.50,120710,,*2D
$GPRMC,002029.5,A,3239.3156,N,11704.2767,W,53.20,322.60,120710,,*24
$GPRMC,002033.5,A,3239.3620,N,11704.3180,W,51.40,322.70,120710,,*22
$GPRMC,002037.5,A,3239.4079,N,11704.3587,W,50.30,322.60,120710,,*2F
$GPRMC,002041.5,A,3239.4516,N,11704.3974,W,47.90,324.10,120710,,*2F
$GPRMC,002045.5,A,3239.4937,N,11704.4310,W,43.70,326.10,120710,,*23
$GPRMC,002049.5,A,3239.5296,N,11704.4588,W,35.00,330.10,120710,,*28
$GPRMC,002053.5,A,3239.5622,N,11704.4689,W,29.80,347.70,120710,,*29
$GPRMC,002057.5,A,3239.5712,N,11704.4442,W,19.80,49.30,120710,,*10
$GPRMC,002101.5,A,3239.5666,N,11704.4181,W,15.20,90.20,120710,,*19
$GPRMC,002105.5,A,3239.5403,N,11704.4051,W,13.40,139.40,120710,,*24
$GPRMC,002109.5,A,3239.5251,N,11704.4133,W,11.20,177.90,120710,,*2F
$GPRMC,002113.5,A,3239.5151,N,11704.4413,W,13.50,228.60,120710,,*23
$GPRMC,002117.5,A,3239.5144,N,11704.5386,W,36.70,268.60,120710,,*28
$GPRMC,002121.5,A,3239.5216,N,11704.6204,W,47.50,277.30,120710,,*2E
$GPRMC,002125.5,A,3239.5305,N,11704.6929,W,48.60,279.20,120710,,*2E
$GPRMC,002129.5,A,3239.5407,N,11704.7565,W,49.90,279.50,120710,,*2B
$GPRMC,002133.5,A,3239.5495,N,11704.8200,W,49.10,279.50,120710,,*28
$GPRMC,002137.5,A,3239.5595,N,11704.8848,W,49.30,279.00,120710,,*2C
$GPRMC,002141.5,A,3239.5609,N,11704.9484,W,48.10,270.50,120710,,*29
$GPRMC,002145.5,A,3239.5550,N,11705.0115,W,47.40,260.80,120710,,*21
$GPRMC,002149.5,A,3239.5415,N,11705.0732,W,47.80,252.10,120710,,*2A
$GPRMC,002153.5,A,3239.5211,N,11705.1303,W,47.40,245.90,120710,,*26
$GPRMC,002157.5,A,3239.4929,N,11705.1887,W,49.50,239.40,120710,,*2D
$GPRMC,002201.5,A,3239.4646,N,11705.2447,W,49.10,239.10,120710,,*29
$GPRMC,002205.5,A,3239.4354,N,11705.3007,W,50.70,239.20,120710,,*27
$GPRMC,002209.5,A,3239.4036,N,11705.3612,W,52.70,238.80,120710,,*27
$GPRMC,002214.5,A,3239.3656,N,11705.4358,W,53.70,238.90,120710,,*20
$GPRMC,002217.5,A,3239.3412,N,11705.4808,W,53.90,238.90,120710,,*21
$GPRMC,002221.5,A,3239.3103,N,11705.5432,W,54.20,241.50,120710,,*2B
$GPRMC,002225.5,A,3239.2853,N,11705.6059,W,53.90,246.10,120710,,*27
$GPRMC,002229.5,A,3239.2646,N,11705.6719,W,53.30,250.90,120710,,*27
$GPRMC,002233.5,A,3239.2445,N,11705.7399,W,53.70,251.30,120710,,*2F
$GPRMC,002237.5,A,3239.2271,N,11705.8049,W,53.10,251.50,120710,,*2B
$GPRMC,002241.5,A,3239.2093,N,11705.8695,W,52.30,253.50,120710,,*22
$GPRMC,002245.5,A,3239.1935,N,11705.9343,W,50.90,255.90,120710,,*2D
$GPRMC,002249.5,A,3239.1830,N,11705.9992,W,49.30,260.10,120710,,*2F
$GPRMC,002253.5,A,3239.1705,N,11706.0588,W,47.20,259.00,120710,,*24
$GPRMC,002257.5,A,3239.1624,N,11706.1173,W,44.30,260.30,120710,,*28
$GPRMC,002301.5,A,3239.1587,N,11706.1746,W,43.10,267.20,120710,,*23
$GPRMC,002305.5,A,3239.1714,N,11706.2286,W,42.40,288.20,120710,,*20
$GPRMC,002309.5,A,3239.1974,N,11706.2757,W,43.50,307.30,120710,,*2A
$GPRMC,002313.5,A,3239.2403,N,11706.3122,W,46.70,327.70,120710,,*2B
$GPRMC,002317.5,A,3239.2912,N,11706.3331,W,48.20,338.50,120710,,*25
$GPRMC,002321.5,A,3239.3451,N,11706.3568,W,51.40,337.80,120710,,*2D
$GPRMC,002325.5,A,3239.4012,N,11706.3834,W,54.10,338.00,120710,,*2E
$GPRMC,002329.5,A,3239.4603,N,11706.4071,W,56.90,341.20,120710,,*2C
$GPRMC,002333.5,A,3239.5232,N,11706.4325,W,57.40,341.20,120710,,*2E
$GPRMC,002337.5,A,3239.5831,N,11706.4570,W,56.60,339.80,120710,,*23
$GPRMC,002341.5,A,3239.6407,N,11706.4802,W,54.20,341.50,120710,,*24
$GPRMC,002345.5,A,3239.6960,N,11706.5044,W,52.90,340.60,120710,,*28
$GPRMC,002349.5,A,3239.7528,N,11706.5279,W,53.90,340.90,120710,,*27
$GPRMC,002353.5,A,3239.8110,N,11706.5520,W,55.30,341.00,120710,,*23
$GPRMC,002357.5,A,3239.8698,N,11706.5757,W,56.20,340.00,120710,,*21
$GPRMC,002401.5,A,3239.9289,N,11706.5998,W,56.60,340.40,120710,,*2D
$GPRMC,002405.5,A,3239.9886,N,11706.6250,W,56.20,340.90,120710,,*29
$GPRMC,002409.5,A,3240.0481,N,11706.6469,W,56.10,342.20,120710,,*2F
$GPRMC,002413.5,A,3240.1083,N,11706.6629,W,54.60,348.70,120710,,*2F
$GPRMC,002417.5,A,3240.1672,N,11706.6715,W,53.80,355.80,120710,,*27
$GPRMC,002421.5,A,3240.2280,N,11706.6709,W,52.40,2.80,120710,,*29
$GPRMC,002425.5,A,3240.2855,N,11706.6605,W,52.10,9.30,120710,,*27
$GPRMC,002429.5,A,3240.3434,N,11706.6433,W,53.50,16.60,120710,,*18
$GPRMC,002433.5,A,3240.3999,N,11706.6180,W,54.00,21.30,120710,,*17
$GPRMC,002437.5,A,3240.4564,N,11706.5913,W,54.00,22.40,120710,,*1F
$GPRMC,002441.5,A,3240.5106,N,11706.5664,W,52.60,18.70,120710,,*1A
$GPRMC,002445.5,A,3240.5659,N,11706.5522,W,52.10,10.20,120710,,*18
$GPRMC,002449.5,A,3240.6226,N,11706.5480,W,53.50,0.60,120710,,*22
$GPRMC,002453.5,A,3240.6830,N,11706.5563,W,54.80,352.80,120710,,*28
$GPRMC,002457.5,A,3240.7399,N,11706.5772,W,53.10,342.80,120710,,*28
$GPRMC,002501.5,A,3240.7954,N,11706.5978,W,53.00,341.80,120710,,*27
$GPRMC,002505.5,A,3240.8501,N,11706.6190,W,52.70,342.10,120710,,*21
$GPRMC,002509.5,A,3240.9058,N,11706.6417,W,51.80,342.00,120710,,*22
$GPRMC,002513.5,A,3240.9598,N,11706.6620,W,51.20,342.10,120710,,*2D
$GPRMC,002517.5,A,3241.0148,N,11706.6829,W,51.40,342.40,120710,,*2C
$GPRMC,002521.5,A,3241.0684,N,11706.7048,W,50.80,340.70,120710,,*2C
$GPRMC,002525.5,A,3241.1218,N,11706.7318,W,51.80,336.30,120710,,*2A
$GPRMC,002529.5,A,3241.1720,N,11706.7643,W,52.20,330.30,120710,,*2C
$GPRMC,002533.5,A,3241.2210,N,11706.8028,W,52.60,324.20,120710,,*26
$GPRMC,002537.5,A,3241.2657,N,11706.8498,W,53.40,317.00,120710,,*2B
$GPRMC,002541.5,A,3241.3034,N,11706.9025,W,54.60,311.20,120710,,*2A
$GPRMC,002545.5,A,3241.3430,N,11706.9596,W,56.10,310.00,120710,,*25
$GPRMC,002549.5,A,3241.3824,N,11707.0160,W,55.90,310.10,120710,,*2F
$GPRMC,002553.5,A,3241.4236,N,11707.0715,W,56.70,310.30,120710,,*21
$GPRMC,002557.5,A,3241.4645,N,11707.1309,W,56.70,309.90,120710,,*2F
$GPRMC,002601.5,A,3241.5046,N,11707.1868,W,56.00,311.00,120710,,*20
$GPRMC,002605.5,A,3241.5440,N,11707.2428,W,55.00,309.90,120710,,*2E
$GPRMC,002609.5,A,3241.5832,N,11707.2973,W,54.60,309.30,120710,,*25
$GPRMC,002613.5,A,3241.6168,N,11707.3553,W,53.30,303.50,120710,,*2A
$GPRMC,002617.5,A,3241.6459,N,11707.4174,W,53.70,295.20,120710,,*22
$GPRMC,002621.5,A,3241.6641,N,11707.4849,W,54.70,286.90,120710,,*25
$GPRMC,002625.5,A,3241.6764,N,11707.5536,W,52.50,280.70,120710,,*2F
$GPRMC,002629.5,A,3241.6813,N,11707.6264,W,53.10,273.00,120710,,*21
$GPRMC,002633.5,A,3241.6790,N,11707.6957,W,52.60,269.00,120710,,*28
$GPRMC,002637.5,A,3241.6778,N,11707.7641,W,51.50,267.90,120710,,*24
$GPRMC,002641.5,A,3241.6762,N,11707.8338,W,52.60,268.40,120710,,*28
$GPRMC,002645.5,A,3241.6771,N,11707.9034,W,52.80,271.90,120710,,*2B
$GPRMC,002649.5,A,3241.6899,N,11707.9711,W,53.40,285.90,120710,,*28
$GPRMC,002653.5,A,3241.7131,N,11708.0367,W,54.70,297.30,120710,,*27
$GPRMC,002657.5,A,3241.7490,N,11708.0927,W,54.20,307.80,120710,,*25
$GPRMC,002701.5,A,3241.7871,N,11708.1471,W,53.90,309.50,120710,,*24
$GPRMC,002705.5,A,3241.8243,N,11708.2007,W,53.40,310.10,120710,,*23
$GPRMC,002709.5,A,3241.8637,N,11708.2535,W,53.60,310.20,120710,,*2D
$GPRMC,002713.5,A,3241.9037,N,11708.3071,W,53.50,311.20,120710,,*27
$GPRMC,002717.5,A,3241.9419,N,11708.3614,W,52.60,310.10,120710,,*2E
$GPRMC,002721.5,A,3241.9800,N,11708.4136,W,52.50,309.70,120710,,*22
$GPRMC,002725.5,A,3242.0169,N,11708.4690,W,53.80,309.40,120710,,*2E
$GPRMC,002729.5,A,3242.0542,N,11708.5220,W,52.50,309.40,120710,,*2D
$GPRMC,002733.5,A,3242.0899,N,11708.5771,W,52.60,308.80,120710,,*22
$GPRMC,002737.5,A,3242.1276,N,11708.6311,W,52.50,309.40,120710,,*23
$GPRMC,002741.5,A,3242.1652,N,11708.6844,W,51.90,309.10,120710,,*21
$GPRMC,002745.5,A,3242.2005,N,11708.7365,W,51.50,309.40,120710,,*22
$GPRMC,002749.5,A,3242.2405,N,11708.7872,W,52.50,313.20,120710,,*29
$GPRMC,002753.5,A,3242.2897,N,11708.8267,W,51.40,330.20,120710,,*27
$GPRMC,002757.5,A,3242.3417,N,11708.8486,W,49.30,345.40,120710,,*25
$GPRMC,002801.5,A,3242.3967,N,11708.8517,W,49.60,358.30,120710,,*24
$GPRMC,002805.5,A,3242.4557,N,11708.8511,W,52.10,359.70,120710,,*26
$GPRMC,002809.5,A,3242.5170,N,11708.8528,W,54.40,358.10,120710,,*24
$GPRMC,002813.5,A,3242.5784,N,11708.8553,W,56.10,357.60,120710,,*21
$GPRMC,002817.5,A,3242.6428,N,11708.8560,W,57.30,359.60,120710,,*2E
$GPRMC,002821.5,A,3242.7086,N,11708.8536,W,57.50,0.30,120710,,*25
$GPRMC,002825.5,A,3242.7701,N,11708.8538,W,55.40,0.30,120710,,*24
$GPRMC,002829.5,A,3242.8290,N,11708.8539,W,53.00,359.90,120710,,*2C
$GPRMC,002833.5,A,3242.8885,N,11708.8549,W,53.70,359.70,120710,,*27
$GPRMC,002837.5,A,3242.9489,N,11708.8533,W,54.40,0.30,120710,,*20
$GPRMC,002841.5,A,3243.0080,N,11708.8562,W,52.90,359.40,120710,,*23
$GPRMC,002845.5,A,3243.0647,N,11708.8578,W,52.40,359.40,120710,,*2C
$GPRMC,002849.5,A,3243.1222,N,11708.8635,W,52.10,354.10,120710,,*21
$GPRMC,002853.5,A,3243.1793,N,11708.8740,W,51.80,348.00,120710,,*20
$GPRMC,002857.5,A,3243.2355,N,11708.8905,W,51.80,342.30,120710,,*2F
$GPRMC,002901.5,A,3243.2903,N,11708.9140,W,52.50,337.50,120710,,*26
$GPRMC,002905.5,A,3243.3437,N,11708.9450,W,53.00,331.60,120710,,*2C
$GPRMC,002909.5,A,3243.3924,N,11708.9836,W,53.10,324.40,120710,,*24
$GPRMC,002913.5,A,3243.4345,N,11709.0341,W,51.60,311.20,120710,,*23
$GPRMC,002917.5,A,3243.4600,N,11709.0976,W,51.80,291.50,120710,,*2D
$GPRMC,002921.5,A,3243.4684,N,11709.1664,W,51.30,274.80,120710,,*24
$GPRMC,002925.5,A,3243.4648,N,11709.2361,W,54.50,263.90,120710,,*27
$GPRMC,002929.5,A,3243.4572,N,11709.3121,W,56.30,264.00,120710,,*2C
$GPRMC,002933.5,A,3243.4497,N,11709.3871,W,56.30,263.10,120710,,*27
$GPRMC,002937.5,A,3243.4334,N,11709.4592,W,55.40,253.40,120710,,*28
$GPRMC,002941.5,A,3243.4060,N,11709.5262,W,55.20,244.80,120710,,*2E
$GPRMC,002945.5,A,3243.3794,N,11709.5949,W,58.10,248.90,120710,,*20
$GPRMC,002949.5,A,3243.3642,N,11709.6683,W,58.10,257.10,120710,,*2A
$GPRMC,002953.5,A,3243.3637,N,11709.7463,W,58.10,269.20,120710,,*20
$GPRMC,002957.5,A,3243.3851,N,11709.8283,W,62.70,282.70,120710,,*22
$GPRMC,003001.5,A,3243.4196,N,11709.8880,W,58.00,293.90,120710,,*25
$GPRMC,003005.5,A,3243.4857,N,11709.9193,W,54.80,320.60,120710,,*2D
$GPRMC,003009.5,A,3243.5341,N,11709.9640,W,54.60,321.00,120710,,*2C
$GPRMC,003013.5,A,3243.5820,N,11710.0104,W,54.90,320.90,120710,,*2A
$GPRMC,003017.5,A,3243.6318,N,11710.0568,W,55.70,323.00,120710,,*26
$GPRMC,003021.5,A,3243.6808,N,11710.0986,W,54.70,323.80,120710,,*2C
$GPRMC,003025.5,A,3243.7313,N,11710.1413,W,55.70,324.70,120710,,*21
$GPRMC,003029.5,A,3243.7825,N,11710.1845,W,56.20,324.50,120710,,*28
$GPRMC,003033.5,A,3243.8324,N,11710.2281,W,56.10,323.90,120710,,*2F
$GPRMC,003037.5,A,3243.8823,N,11710.2716,W,56.70,323.60,120710,,*25
$GPRMC,003041.5,A,3243.9317,N,11710.3139,W,55.30,323.50,120710,,*27
$GPRMC,003045.5,A,3243.9820,N,11710.3572,W,54.90,324.00,120710,,*2E
$GPRMC,003049.5,A,3244.0320,N,11710.4003,W,55.50,323.90,120710,,*20
$GPRMC,003053.5,A,3244.0833,N,11710.4453,W,56.40,323.60,120710,,*2E
$GPRMC,003057.5,A,3244.1351,N,11710.4907,W,57.20,323.50,120710,,*2C
$GPRMC,003101.5,A,3244.1836,N,11710.5367,W,55.90,323.40,120710,,*21
$GPRMC,003105.5,A,3244.2331,N,11710.5792,W,54.60,324.10,120710,,*28
$GPRMC,003109.5,A,3244.2848,N,11710.6221,W,55.60,323.40,120710,,*2C
$GPRMC,003113.5,A,3244.3346,N,11710.6661,W,54.40,323.50,120710,,*21
$GPRMC,003117.5,A,3244.3827,N,11710.7068,W,55.20,324.30,120710,,*21
$GPRMC,003121.5,A,3244.4303,N,11710.7499,W,55.90,322.60,120710,,*2C
$GPRMC,003125.5,A,3244.4758,N,11710.7999,W,56.60,315.40,120710,,*25
$GPRMC,003129.5,A,3244.5135,N,11710.8557,W,56.30,305.20,120710,,*26
$GPRMC,003133.5,A,3244.5452,N,11710.9224,W,57.60,299.20,120710,,*2B
$GPRMC,003137.5,A,3244.5767,N,11710.9903,W,58.90,298.90,120710,,*2E
$GPRMC,003141.5,A,3244.6073,N,11711.0581,W,58.20,298.60,120710,,*24
