NMEA Sentence Code,UTC Time,Status,Latitude,Latitude Direction,Longitude,Longitude Direction,Speed (knots),Track Angle (degrees true),Date,MagneticVariation,Magnetic Variation Direction,[FAA Mode]-Optional,Checksum
$GPRMC,205822.243,A,3238.0761,N,11609.9469,W,4.57,344.42,250210,,*1B
$GPRMC,205826.242,A,3238.0800,N,11609.9493,W,4.45,316.01,250210,,*10
$GPRMC,205848.241,A,3238.0994,N,11609.9485,W,5.10,015.70,250210,,*17
$GPRMC,205851.241,A,3238.1051,N,11609.9478,W,7.46,351.20,250210,,*1B
$GPRMC,205852.241,A,3238.1071,N,11609.9483,W,7.32,343.45,250210,,*1D
$GPRMC,205853.241,A,3238.1092,N,11609.9494,W,8.70,330.41,250210,,*1E
$GPRMC,205854.241,A,3238.1116,N,11609.9514,W,10.18,320.08,250210,,*26
$GPRMC,205855.240,A,3238.1141,N,11609.9537,W,10.37,314.15,250210,,*23
$GPRMC,205856.240,A,3238.1163,N,11609.9563,W,10.60,312.48,250210,,*2D
$GPRMC,205857.240,A,3238.1184,N,11609.9589,W,10.20,312.83,250210,,*22
$GPRMC,205858.240,A,3238.1204,N,11609.9614,W,9.52,314.61,250210,,*16
$GPRMC,205900.240,A,3238.1238,N,11609.9651,W,6.42,320.95,250210,,*16
$GPRMC,205911.239,A,3238.1288,N,11609.9695,W,5.58,334.54,250210,,*1B
$GPRMC,205912.239,A,3238.1303,N,11609.9701,W,5.79,342.35,250210,,*13
$GPRMC,205913.239,A,3238.1320,N,11609.9706,W,6.28,353.90,250210,,*1C
$GPRMC,205915.239,A,3238.1360,N,11609.9704,W,8.35,007.82,250210,,*1F
$GPRMC,205916.239,A,3238.1383,N,11609.9697,W,8.66,015.53,250210,,*13
$GPRMC,205917.239,A,3238.1407,N,11609.9684,W,9.75,020.69,250210,,*17
$GPRMC,205918.239,A,3238.1434,N,11609.9671,W,10.97,022.02,250210,,*29
$GPRMC,205921.239,A,3238.1532,N,11609.9627,W,12.98,018.27,250210,,*24
$GPRMC,205922.239,A,3238.1568,N,11609.9613,W,12.79,017.78,250210,,*25
$GPRMC,205923.239,A,3238.1602,N,11609.9600,W,12.59,018.12,250210,,*28
$GPRMC,205924.239,A,3238.1634,N,11609.9587,W,11.93,019.13,250210,,*23
$GPRMC,205925.239,A,3238.1664,N,11609.9573,W,11.43,018.23,250210,,*23
$GPRMC,205926.238,A,3238.1696,N,11609.9561,W,12.66,018.12,250210,,*29
$GPRMC,205927.238,A,3238.1729,N,11609.9549,W,12.17,015.41,250210,,*2A
$GPRMC,205928.238,A,3238.1763,N,11609.9539,W,12.49,011.70,250210,,*21
$GPRMC,205930.238,A,3238.1822,N,11609.9518,W,10.45,017.46,250210,,*2C
$GPRMC,205931.238,A,3238.1850,N,11609.9508,W,10.60,017.01,250210,,*2D
$GPRMC,205932.238,A,3238.1876,N,11609.9498,W,10.23,018.66,250210,,*2B
$GPRMC,205933.238,A,3238.1901,N,11609.9487,W,10.20,018.83,250210,,*2D
$GPRMC,205936.238,A,3238.1971,N,11609.9461,W,7.12,009.16,250210,,*1C
$GPRMC,205937.238,A,3238.2002,N,11609.9454,W,6.28,009.95,250210,,*16
$GPRMC,205938.238,A,3238.2019,N,11609.9452,W,5.92,001.74,250210,,*10
$GPRMC,205939.238,A,3238.2037,N,11609.9456,W,6.63,349.08,250210,,*10
$GPRMC,205940.238,A,3238.2055,N,11609.9465,W,7.47,336.48,250210,,*11
$GPRMC,205941.237,A,3238.2072,N,11609.9481,W,7.99,318.41,250210,,*16
$GPRMC,205942.237,A,3238.2085,N,11609.9504,W,8.81,305.27,250210,,*1B
$GPRMC,205943.237,A,3238.2096,N,11609.9531,W,9.32,294.32,250210,,*1A
$GPRMC,205945.237,A,3238.2114,N,11609.9600,W,11.82,286.81,250210,,*2F
$GPRMC,205946.237,A,3238.2124,N,11609.9640,W,13.10,286.93,250210,,*21
$GPRMC,205947.237,A,3238.2136,N,11609.9686,W,14.76,288.04,250210,,*2E
$GPRMC,205948.237,A,3238.2149,N,11609.9736,W,15.93,287.41,250210,,*27
$GPRMC,205951.237,A,3238.2197,N,11609.9911,W,20.11,288.58,250210,,*2C
$GPRMC,205952.237,A,3238.2216,N,11609.9977,W,21.23,288.65,250210,,*2B
$GPRMC,205953.237,A,3238.2235,N,11610.0047,W,22.34,288.65,250210,,*25
$GPRMC,205954.237,A,3238.2256,N,11610.0119,W,23.18,288.77,250210,,*21
$GPRMC,205955.237,A,3238.2277,N,11610.0193,W,23.83,289.74,250210,,*21
$GPRMC,205956.237,A,3238.2294,N,11610.0268,W,24.58,290.77,250210,,*22
$GPRMC,205957.236,A,3238.2321,N,11610.0345,W,24.93,293.00,250210,,*27
$GPRMC,205958.236,A,3238.2349,N,11610.0420,W,25.05,293.07,250210,,*2B
$GPRMC,210000.236,A,3238.2407,N,11610.0574,W,25.52,294.62,250210,,*20
$GPRMC,210001.236,A,3238.2438,N,11610.0653,W,26.18,295.62,250210,,*27
$GPRMC,210002.236,A,3238.2471,N,11610.0734,W,27.20,295.97,250210,,*29
$GPRMC,210003.236,A,3238.2506,N,11610.0816,W,28.19,296.68,250210,,*20
$GPRMC,210006.236,A,3238.2635,N,11610.1081,W,32.66,300.85,250210,,*2F
$GPRMC,210007.236,A,3238.2684,N,11610.1175,W,34.12,302.18,250210,,*2D
$GPRMC,210008.236,A,3238.2737,N,11610.1274,W,35.63,301.90,250210,,*2D
$GPRMC,210009.236,A,3238.2791,N,11610.1376,W,37.03,302.56,250210,,*2E
$GPRMC,210010.236,A,3238.2849,N,11610.1481,W,38.33,303.52,250210,,*2A
$GPRMC,210011.236,A,3238.2910,N,11610.1589,W,39.20,304.81,250210,,*25
$GPRMC,210012.235,A,3238.2976,N,11610.1695,W,39.59,305.98,250210,,*2C
$GPRMC,210013.235,A,3238.3043,N,11610.1800,W,39.87,307.28,250210,,*2B
$GPRMC,210015.235,A,3238.3183,N,11610.2008,W,40.27,308.89,250210,,*23
$GPRMC,210016.235,A,3238.3255,N,11610.2111,W,40.47,309.70,250210,,*20
$GPRMC,210017.235,A,3238.3327,N,11610.2214,W,40.69,309.26,250210,,*2C
$GPRMC,210018.235,A,3238.3401,N,11610.2319,W,40.90,309.17,250210,,*28
$GPRMC,210021.235,A,3238.3622,N,11610.2634,W,41.68,309.57,250210,,*29
$GPRMC,210022.235,A,3238.3696,N,11610.2741,W,42.07,309.43,250210,,*29
$GPRMC,210023.235,A,3238.3771,N,11610.2849,W,42.46,309.18,250210,,*2C
$GPRMC,210024.235,A,3238.3847,N,11610.2958,W,42.82,309.13,250210,,*23
$GPRMC,210025.235,A,3238.3924,N,11610.3068,W,43.27,309.45,250210,,*20
$GPRMC,210026.235,A,3238.4002,N,11610.3179,W,43.89,309.60,250210,,*2B
$GPRMC,210027.235,A,3238.4082,N,11610.3291,W,44.47,309.76,250210,,*25
$GPRMC,210028.234,A,3238.4162,N,11610.3406,W,45.18,309.64,250210,,*24
$GPRMC,210030.234,A,3238.4326,N,11610.3640,W,46.48,309.45,250210,,*2A
$GPRMC,210031.234,A,3238.4410,N,11610.3760,W,47.08,309.45,250210,,*2F
$GPRMC,210032.234,A,3238.4498,N,11610.3880,W,47.77,309.29,250210,,*2F
$GPRMC,210033.234,A,3238.4583,N,11610.4003,W,48.38,309.79,250210,,*20
$GPRMC,210036.234,A,3238.4849,N,11610.4379,W,50.01,309.45,250210,,*2C
$GPRMC,210037.234,A,3238.4938,N,11610.4507,W,50.02,309.16,250210,,*20
$GPRMC,210038.234,A,3238.5026,N,11610.4635,W,49.94,309.12,250210,,*29
$GPRMC,210039.234,A,3238.5115,N,11610.4763,W,49.90,309.25,250210,,*2B
$GPRMC,210040.234,A,3238.5203,N,11610.4891,W,50.13,309.55,250210,,*27
$GPRMC,210041.234,A,3238.5292,N,11610.5020,W,50.39,309.04,250210,,*21
$GPRMC,210042.234,A,3238.5379,N,11610.5151,W,50.72,307.41,250210,,*21
$GPRMC,210043.233,A,3238.5464,N,11610.5285,W,50.99,305.72,250210,,*21
$GPRMC,210045.233,A,3238.5626,N,11610.5563,W,51.61,302.77,250210,,*28
$GPRMC,210046.233,A,3238.5701,N,11610.5708,W,51.54,300.60,250210,,*22
$GPRMC,210047.233,A,3238.5772,N,11610.5859,W,51.88,299.08,250210,,*22
$GPRMC,210048.233,A,3238.5841,N,11610.6011,W,52.09,297.90,250210,,*20
$GPRMC,210051.233,A,3238.6025,N,11610.6479,W,51.56,293.88,250210,,*2F
$GPRMC,210052.233,A,3238.6082,N,11610.6634,W,51.52,294.15,250210,,*2D
$GPRMC,210053.233,A,3238.6139,N,11610.6791,W,51.44,293.98,250210,,*26
$GPRMC,210054.233,A,3238.6196,N,11610.6946,W,51.43,293.87,250210,,*29
$GPRMC,210055.233,A,3238.6253,N,11610.7102,W,51.57,293.94,250210,,*2C
$GPRMC,210056.233,A,3238.6311,N,11610.7258,W,51.72,293.86,250210,,*20
$GPRMC,210057.233,A,3238.6369,N,11610.7414,W,51.88,293.68,250210,,*25
$GPRMC,210058.232,A,3238.6427,N,11610.7571,W,51.99,293.80,250210,,*22
$GPRMC,210100.232,A,3238.6543,N,11610.7884,W,51.97,293.75,250210,,*2E
$GPRMC,210101.232,A,3238.6602,N,11610.8040,W,51.84,294.16,250210,,*26
$GPRMC,210102.232,A,3238.6661,N,11610.8196,W,51.88,294.25,250210,,*26
$GPRMC,210103.232,A,3238.6719,N,11610.8351,W,51.65,293.78,250210,,*2C
$GPRMC,210106.232,A,3238.6893,N,11610.8818,W,51.75,293.33,250210,,*2C
$GPRMC,210107.232,A,3238.6950,N,11610.8975,W,51.77,293.66,250210,,*2B
$GPRMC,210108.232,A,3238.7008,N,11610.9131,W,52.00,293.73,250210,,*2F
$GPRMC,210109.232,A,3238.7066,N,11610.9287,W,51.99,293.57,250210,,*2D
$GPRMC,210110.232,A,3238.7125,N,11610.9443,W,51.96,293.63,250210,,*25
$GPRMC,210111.232,A,3238.7183,N,11610.9599,W,51.77,293.69,250210,,*2B
$GPRMC,210112.232,A,3238.7241,N,11610.9755,W,51.68,293.93,250210,,*2C
$GPRMC,210113.232,A,3238.7300,N,11610.9910,W,51.56,294.00,250210,,*26
$GPRMC,210115.231,A,3238.7414,N,11611.0224,W,51.50,293.64,250210,,*26
$GPRMC,210116.231,A,3238.7472,N,11611.0379,W,51.71,293.67,250210,,*2C
$GPRMC,210117.231,A,3238.7529,N,11611.0535,W,51.91,293.53,250210,,*25
$GPRMC,210118.231,A,3238.7589,N,11611.0692,W,52.16,293.83,250210,,*2F
$GPRMC,210121.231,A,3238.7765,N,11611.1159,W,51.77,293.88,250210,,*2B
$GPRMC,210122.231,A,3238.7824,N,11611.1314,W,51.62,294.06,250210,,*2C
$GPRMC,210123.231,A,3238.7883,N,11611.1470,W,51.71,293.28,250210,,*2C
$GPRMC,210124.231,A,3238.7940,N,11611.1626,W,51.74,293.31,250210,,*29
$GPRMC,210125.231,A,3238.7996,N,11611.1782,W,51.61,293.55,250210,,*2A
$GPRMC,210126.231,A,3238.8053,N,11611.1939,W,51.74,293.42,250210,,*2A
$GPRMC,210127.231,A,3238.8111,N,11611.2096,W,51.94,293.22,250210,,*2B
$GPRMC,210128.231,A,3238.8169,N,11611.2252,W,51.76,293.65,250210,,*2E
$GPRMC,210130.230,A,3238.8286,N,11611.2562,W,51.70,294.05,250210,,*27
$GPRMC,210131.230,A,3238.8343,N,11611.2719,W,51.75,293.65,250210,,*24
$GPRMC,210132.230,A,3238.8401,N,11611.2875,W,51.66,293.64,250210,,*20
$GPRMC,210133.230,A,3238.8459,N,11611.3031,W,51.66,293.68,250210,,*29
$GPRMC,210136.230,A,3238.8632,N,11611.3500,W,51.68,293.72,250210,,*21
$GPRMC,210137.230,A,3238.8690,N,11611.3656,W,51.66,293.99,250210,,*23
$GPRMC,210138.230,A,3238.8748,N,11611.3812,W,51.72,293.85,250210,,*2E
$GPRMC,210139.230,A,3238.8807,N,11611.3967,W,51.68,293.93,250210,,*24
$GPRMC,210140.230,A,3238.8865,N,11611.4123,W,51.63,293.82,250210,,*2A
$GPRMC,210141.230,A,3238.8923,N,11611.4277,W,51.54,293.42,250210,,*22
$GPRMC,210142.230,A,3238.8981,N,11611.4432,W,51.57,293.72,250210,,*2E
$GPRMC,210143.230,A,3238.9039,N,11611.4587,W,51.67,294.21,250210,,*29
$GPRMC,210145.229,A,3238.9156,N,11611.4897,W,51.53,293.93,250210,,*2A
$GPRMC,210146.229,A,3238.9214,N,11611.5053,W,51.52,293.44,250210,,*26
$GPRMC,210147.229,A,3238.9271,N,11611.5208,W,51.39,293.25,250210,,*22
$GPRMC,210148.229,A,3238.9327,N,11611.5363,W,51.35,293.41,250210,,*2D
$GPRMC,210151.229,A,3238.9500,N,11611.5822,W,50.99,294.35,250210,,*2B
$GPRMC,210152.229,A,3238.9558,N,11611.5975,W,51.07,294.42,250210,,*20
$GPRMC,210153.229,A,3238.9617,N,11611.6127,W,51.33,294.56,250210,,*27
$GPRMC,210154.229,A,3238.9677,N,11611.6280,W,51.54,295.37,250210,,*2F
$GPRMC,210155.229,A,3238.9741,N,11611.6432,W,51.78,296.96,250210,,*23
$GPRMC,210156.229,A,3238.9809,N,11611.6582,W,51.82,298.62,250210,,*29
$GPRMC,210157.229,A,3238.9880,N,11611.6730,W,52.05,300.04,250210,,*2E
$GPRMC,210158.229,A,3238.9954,N,11611.6876,W,52.02,301.70,250210,,*21
$GPRMC,210200.228,A,3239.0111,N,11611.7161,W,51.89,304.21,250210,,*20
$GPRMC,210201.228,A,3239.0194,N,11611.7300,W,51.76,305.51,250210,,*2F
$GPRMC,210202.228,A,3239.0279,N,11611.7436,W,51.61,306.24,250210,,*29
$GPRMC,210203.228,A,3239.0366,N,11611.7571,W,51.55,307.41,250210,,*20
$GPRMC,210206.228,A,3239.0641,N,11611.7960,W,51.24,311.60,250210,,*2B
$GPRMC,210207.228,A,3239.0741,N,11611.8081,W,51.14,313.53,250210,,*23
$GPRMC,210208.228,A,3239.0842,N,11611.8200,W,51.08,314.77,250210,,*27
$GPRMC,210209.228,A,3239.0944,N,11611.8319,W,51.19,315.25,250210,,*2E
$GPRMC,210210.228,A,3239.1045,N,11611.8436,W,50.66,315.45,250210,,*2A
$GPRMC,210211.228,A,3239.1149,N,11611.8551,W,51.01,316.45,250210,,*25
$GPRMC,210212.228,A,3239.1255,N,11611.8664,W,51.23,317.62,250210,,*29
$GPRMC,210213.228,A,3239.1361,N,11611.8778,W,51.27,317.27,250210,,*27
$GPRMC,210215.228,A,3239.1573,N,11611.9006,W,51.37,317.34,250210,,*28
$GPRMC,210216.227,A,3239.1679,N,11611.9120,W,51.45,317.14,250210,,*2F
$GPRMC,210217.227,A,3239.1785,N,11611.9234,W,51.50,317.13,250210,,*29
$GPRMC,210218.227,A,3239.1892,N,11611.9349,W,51.57,317.28,250210,,*2B
$GPRMC,210221.227,A,3239.2212,N,11611.9693,W,51.63,317.13,250210,,*2D
$GPRMC,210222.227,A,3239.2319,N,11611.9808,W,51.62,317.28,250210,,*21
$GPRMC,210223.227,A,3239.2424,N,11611.9923,W,51.56,317.32,250210,,*2D
$GPRMC,210224.227,A,3239.2530,N,11612.0037,W,51.55,317.32,250210,,*2B
$GPRMC,210225.227,A,3239.2636,N,11612.0152,W,51.52,317.39,250210,,*21
$GPRMC,210226.227,A,3239.2742,N,11612.0266,W,51.55,317.30,250210,,*2A
$GPRMC,210227.227,A,3239.2847,N,11612.0382,W,51.49,316.58,250210,,*28
$GPRMC,210228.227,A,3239.2952,N,11612.0498,W,51.56,316.90,250210,,*24
$GPRMC,210230.227,A,3239.3162,N,11612.0729,W,51.43,316.83,250210,,*28
$GPRMC,210231.226,A,3239.3268,N,11612.0843,W,51.42,317.23,250210,,*28
$GPRMC,210232.226,A,3239.3373,N,11612.0958,W,51.42,317.28,250210,,*20
$GPRMC,210233.226,A,3239.3478,N,11612.1072,W,51.35,317.10,250210,,*26
$GPRMC,210236.226,A,3239.3793,N,11612.1416,W,51.26,317.44,250210,,*20
$GPRMC,210237.226,A,3239.3898,N,11612.1530,W,51.23,317.32,250210,,*24
$GPRMC,210238.226,A,3239.4004,N,11612.1644,W,51.33,317.72,250210,,*24
$GPRMC,210239.226,A,3239.4110,N,11612.1758,W,51.44,317.69,250210,,*27
$GPRMC,210240.226,A,3239.4216,N,11612.1873,W,51.61,317.31,250210,,*20
$GPRMC,210241.226,A,3239.4322,N,11612.1988,W,51.82,317.30,250210,,*2E
$GPRMC,210242.226,A,3239.4430,N,11612.2104,W,52.11,317.59,250210,,*20
$GPRMC,210243.226,A,3239.4537,N,11612.2220,W,52.18,317.52,250210,,*20
$GPRMC,210245.226,A,3239.4753,N,11612.2453,W,52.28,316.03,250210,,*22
$GPRMC,210246.225,A,3239.4857,N,11612.2572,W,52.00,315.44,250210,,*21
$GPRMC,210247.225,A,3239.4960,N,11612.2692,W,51.83,314.52,250210,,*26
$GPRMC,210248.225,A,3239.5061,N,11612.2814,W,51.54,313.59,250210,,*26
$GPRMC,210251.225,A,3239.5353,N,11612.3192,W,51.53,310.00,250210,,*22
$GPRMC,210252.225,A,3239.5443,N,11612.3325,W,51.69,308.56,250210,,*2A
$GPRMC,210253.225,A,3239.5530,N,11612.3461,W,51.76,307.38,250210,,*20
$GPRMC,210254.225,A,3239.5615,N,11612.3598,W,51.71,306.44,250210,,*29
$GPRMC,210255.225,A,3239.5698,N,11612.3736,W,51.80,305.66,250210,,*26
$GPRMC,210256.225,A,3239.5780,N,11612.3875,W,51.71,304.98,250210,,*2B
$GPRMC,210257.225,A,3239.5860,N,11612.4017,W,52.04,303.14,250210,,*22
$GPRMC,210258.225,A,3239.5936,N,11612.4161,W,51.66,301.39,250210,,*25
$GPRMC,210300.225,A,3239.6079,N,11612.4457,W,51.66,299.39,250210,,*28
$GPRMC,210301.225,A,3239.6147,N,11612.4608,W,51.53,298.03,250210,,*23
$GPRMC,210302.224,A,3239.6211,N,11612.4759,W,51.42,296.83,250210,,*22
$GPRMC,210303.224,A,3239.6273,N,11612.4912,W,51.31,296.02,250210,,*2B
$GPRMC,210306.224,A,3239.6445,N,11612.5376,W,51.14,292.40,250210,,*21
$GPRMC,210307.224,A,3239.6496,N,11612.5533,W,50.90,290.97,250210,,*2C
$GPRMC,210308.224,A,3239.6545,N,11612.5691,W,51.05,290.13,250210,,*26
$GPRMC,210309.224,A,3239.6592,N,11612.5851,W,51.32,289.02,250210,,*23
$GPRMC,210310.224,A,3239.6636,N,11612.6012,W,51.55,287.93,250210,,*2D
$GPRMC,210311.224,A,3239.6678,N,11612.6175,W,51.78,286.71,250210,,*24
$GPRMC,210312.224,A,3239.6715,N,11612.6341,W,51.96,285.70,250210,,*2A
$GPRMC,210313.224,A,3239.6750,N,11612.6508,W,52.15,284.35,250210,,*29
$GPRMC,210315.224,A,3239.6811,N,11612.6845,W,52.29,282.15,250210,,*2A
$GPRMC,210316.224,A,3239.6837,N,11612.7014,W,52.10,280.93,250210,,*26
$GPRMC,210317.223,A,3239.6861,N,11612.7183,W,51.86,279.84,250210,,*20
$GPRMC,210318.223,A,3239.6882,N,11612.7351,W,51.61,278.65,250210,,*28
$GPRMC,210321.223,A,3239.6928,N,11612.7858,W,51.49,275.23,250210,,*24
$GPRMC,210322.223,A,3239.6937,N,11612.8027,W,51.57,273.90,250210,,*27
$GPRMC,210323.223,A,3239.6944,N,11612.8198,W,51.71,273.16,250210,,*2D
$GPRMC,210324.223,A,3239.6950,N,11612.8369,W,51.82,272.80,250210,,*21
$GPRMC,210325.223,A,3239.6956,N,11612.8540,W,51.91,272.75,250210,,*23
$GPRMC,210326.223,A,3239.6962,N,11612.8710,W,51.70,272.75,250210,,*2F
$GPRMC,210327.223,A,3239.6969,N,11612.8880,W,51.37,272.87,250210,,*2D
$GPRMC,210328.223,A,3239.6975,N,11612.9049,W,51.28,272.73,250210,,*26
$GPRMC,210330.223,A,3239.6989,N,11612.9384,W,50.99,272.97,250210,,*2F
$GPRMC,210331.223,A,3239.6996,N,11612.9551,W,50.81,272.70,250210,,*2E
$GPRMC,210332.223,A,3239.7003,N,11612.9718,W,50.79,272.72,250210,,*23
$GPRMC,210333.222,A,3239.7009,N,11612.9885,W,50.66,272.54,250210,,*28
$GPRMC,210336.222,A,3239.7033,N,11613.0384,W,50.61,273.32,250210,,*20
$GPRMC,210337.222,A,3239.7041,N,11613.0550,W,50.62,273.07,250210,,*2E
$GPRMC,210338.222,A,3239.7048,N,11613.0717,W,50.59,272.69,250210,,*28
$GPRMC,210339.222,A,3239.7054,N,11613.0883,W,50.54,272.69,250210,,*2B
$GPRMC,210340.222,A,3239.7061,N,11613.1049,W,50.45,272.80,250210,,*2B
$GPRMC,210341.222,A,3239.7067,N,11613.1215,W,50.37,272.93,250210,,*20
$GPRMC,210342.222,A,3239.7075,N,11613.1382,W,50.39,272.99,250210,,*2B
$GPRMC,210343.222,A,3239.7081,N,11613.1548,W,50.50,272.76,250210,,*2F
$GPRMC,210345.222,A,3239.7094,N,11613.1881,W,50.64,272.35,250210,,*25
$GPRMC,210346.222,A,3239.7100,N,11613.2049,W,50.78,272.53,250210,,*28
$GPRMC,210347.222,A,3239.7107,N,11613.2216,W,50.88,272.77,250210,,*2F
$GPRMC,210348.221,A,3239.7114,N,11613.2384,W,50.96,272.92,250210,,*2F
$GPRMC,210351.221,A,3239.7137,N,11613.2888,W,51.06,272.92,250210,,*29
$GPRMC,210352.221,A,3239.7144,N,11613.3056,W,51.11,272.58,250210,,*24
$GPRMC,210353.221,A,3239.7150,N,11613.3224,W,51.15,272.52,250210,,*29
$GPRMC,210354.221,A,3239.7157,N,11613.3393,W,51.13,272.67,250210,,*24
$GPRMC,210355.221,A,3239.7164,N,11613.3561,W,51.13,272.60,250210,,*29
$GPRMC,210356.221,A,3239.7170,N,11613.3729,W,51.11,272.42,250210,,*23
$GPRMC,210357.221,A,3239.7175,N,11613.3897,W,51.06,272.20,250210,,*2F
$GPRMC,210358.221,A,3239.7180,N,11613.4065,W,51.08,271.89,250210,,*26
$GPRMC,210400.221,A,3239.7175,N,11613.4402,W,51.33,267.86,250210,,*23
$GPRMC,210401.221,A,3239.7164,N,11613.4571,W,51.45,265.37,250210,,*2E
$GPRMC,210402.221,A,3239.7144,N,11613.4739,W,51.60,261.91,250210,,*2E
$GPRMC,210403.220,A,3239.7118,N,11613.4906,W,51.77,259.83,250210,,*2B
$GPRMC,210406.220,A,3239.7020,N,11613.5404,W,52.09,255.95,250210,,*2B
$GPRMC,210407.220,A,3239.6982,N,11613.5570,W,52.24,255.16,250210,,*2C
$GPRMC,210408.220,A,3239.6944,N,11613.5736,W,52.26,254.88,250210,,*2D
$GPRMC,210409.220,A,3239.6907,N,11613.5901,W,52.13,255.09,250210,,*2F
$GPRMC,210410.220,A,3239.6869,N,11613.6066,W,51.84,254.78,250210,,*2F
$GPRMC,210411.220,A,3239.6830,N,11613.6229,W,51.57,254.35,250210,,*2C
$GPRMC,210412.220,A,3239.6792,N,11613.6392,W,51.41,254.62,250210,,*2C
$GPRMC,210413.220,A,3239.6756,N,11613.6556,W,51.32,255.74,250210,,*29
$GPRMC,210415.220,A,3239.6700,N,11613.6887,W,51.50,260.31,250210,,*2E
$GPRMC,210416.220,A,3239.6681,N,11613.7055,W,51.56,262.91,250210,,*2D
$GPRMC,210417.220,A,3239.6670,N,11613.7223,W,51.24,265.84,250210,,*27
$GPRMC,210418.220,A,3239.6665,N,11613.7392,W,51.42,268.27,250210,,*23
$GPRMC,210421.219,A,3239.6671,N,11613.7903,W,51.44,271.03,250210,,*2C
$GPRMC,210422.219,A,3239.6674,N,11613.8073,W,51.43,270.84,250210,,*22
$GPRMC,210423.219,A,3239.6677,N,11613.8243,W,51.45,270.90,250210,,*22
$GPRMC,210424.219,A,3239.6680,N,11613.8413,W,51.48,270.79,250210,,*24
$GPRMC,210425.219,A,3239.6682,N,11613.8583,W,51.48,270.21,250210,,*22
$GPRMC,210426.219,A,3239.6686,N,11613.8753,W,51.43,270.98,250210,,*23
$GPRMC,210427.219,A,3239.6689,N,11613.8923,W,51.54,270.82,250210,,*29
$GPRMC,210428.219,A,3239.6692,N,11613.9093,W,51.59,271.13,250210,,*2B
$GPRMC,210430.219,A,3239.6701,N,11613.9434,W,51.73,271.40,250210,,*2E
$GPRMC,210431.219,A,3239.6703,N,11613.9605,W,51.84,270.81,250210,,*29
$GPRMC,210432.219,A,3239.6706,N,11613.9776,W,51.89,270.69,250210,,*21
$GPRMC,210433.219,A,3239.6709,N,11613.9947,W,52.07,270.89,250210,,*28
$GPRMC,210436.218,A,3239.6719,N,11614.0458,W,51.58,271.54,250210,,*28
$GPRMC,210437.218,A,3239.6723,N,11614.0628,W,51.54,271.08,250210,,*20
$GPRMC,210438.218,A,3239.6726,N,11614.0797,W,51.52,271.21,250210,,*22
$GPRMC,210439.218,A,3239.6733,N,11614.0967,W,51.51,272.50,250210,,*20
$GPRMC,210440.218,A,3239.6744,N,11614.1136,W,51.47,274.44,250210,,*27
$GPRMC,210441.218,A,3239.6763,N,11614.1304,W,51.49,277.56,250210,,*2E
$GPRMC,210442.218,A,3239.6787,N,11614.1470,W,51.32,279.78,250210,,*2D
$GPRMC,210443.218,A,3239.6816,N,11614.1634,W,51.33,281.79,250210,,*2E
$GPRMC,210445.218,A,3239.6889,N,11614.1959,W,51.02,285.68,250210,,*2C
$GPRMC,210446.218,A,3239.6933,N,11614.2118,W,51.07,287.91,250210,,*20
$GPRMC,210447.218,A,3239.6979,N,11614.2276,W,50.96,288.77,250210,,*2A
$GPRMC,210448.218,A,3239.7025,N,11614.2433,W,50.89,289.04,250210,,*28
$GPRMC,210451.217,A,3239.7161,N,11614.2907,W,51.02,288.60,250210,,*25
$GPRMC,210452.217,A,3239.7207,N,11614.3065,W,50.93,288.54,250210,,*27
$GPRMC,210453.217,A,3239.7252,N,11614.3222,W,50.90,288.61,250210,,*22
$GPRMC,210454.217,A,3239.7297,N,11614.3380,W,50.87,288.30,250210,,*27
$GPRMC,210455.217,A,3239.7342,N,11614.3537,W,50.87,288.58,250210,,*2B
$GPRMC,210456.217,A,3239.7388,N,11614.3695,W,50.71,288.66,250210,,*21
$GPRMC,210457.217,A,3239.7433,N,11614.3852,W,50.66,288.70,250210,,*23
$GPRMC,210458.217,A,3239.7479,N,11614.4009,W,50.69,288.76,250210,,*2A
$GPRMC,210500.217,A,3239.7569,N,11614.4323,W,50.63,288.71,250210,,*20
$GPRMC,210501.217,A,3239.7615,N,11614.4480,W,50.59,288.87,250210,,*27
$GPRMC,210502.217,A,3239.7660,N,11614.4637,W,50.49,288.70,250210,,*21
$GPRMC,210503.217,A,3239.7705,N,11614.4794,W,50.48,288.52,250210,,*2B
$GPRMC,210506.216,A,3239.7839,N,11614.5263,W,50.07,288.77,250210,,*2F
$GPRMC,210507.216,A,3239.7884,N,11614.5418,W,50.04,288.80,250210,,*29
$GPRMC,210508.216,A,3239.7930,N,11614.5574,W,50.01,288.97,250210,,*20
$GPRMC,210509.216,A,3239.7974,N,11614.5729,W,49.97,288.80,250210,,*2A
$GPRMC,210510.216,A,3239.8019,N,11614.5884,W,49.86,288.43,250210,,*28
$GPRMC,210511.216,A,3239.8062,N,11614.6039,W,49.71,288.33,250210,,*27
$GPRMC,210512.216,A,3239.8106,N,11614.6194,W,49.62,288.48,250210,,*2F
$GPRMC,210513.216,A,3239.8151,N,11614.6349,W,49.84,288.78,250210,,*25
$GPRMC,210515.216,A,3239.8240,N,11614.6658,W,49.76,288.50,250210,,*22
$GPRMC,210516.216,A,3239.8285,N,11614.6813,W,49.83,288.68,250210,,*28
$GPRMC,210517.216,A,3239.8329,N,11614.6969,W,49.90,288.58,250210,,*23
$GPRMC,210518.216,A,3239.8375,N,11614.7126,W,50.17,288.88,250210,,*2D
$GPRMC,210521.215,A,3239.8511,N,11614.7598,W,50.95,288.35,250210,,*2D
$GPRMC,210522.215,A,3239.8555,N,11614.7758,W,51.20,288.16,250210,,*2E
$GPRMC,210523.215,A,3239.8601,N,11614.7919,W,51.38,288.67,250210,,*29
$GPRMC,210524.215,A,3239.8647,N,11614.8080,W,51.68,288.55,250210,,*2E
$GPRMC,210525.215,A,3239.8692,N,11614.8242,W,51.82,288.18,250210,,*26
$GPRMC,210526.215,A,3239.8737,N,11614.8405,W,52.11,288.19,250210,,*26
$GPRMC,210527.215,A,3239.8784,N,11614.8568,W,52.21,288.72,250210,,*2B
$GPRMC,210528.215,A,3239.8831,N,11614.8731,W,52.28,288.55,250210,,*27
$GPRMC,210530.215,A,3239.8922,N,11614.9056,W,51.93,288.59,250210,,*25
$GPRMC,210531.215,A,3239.8968,N,11614.9216,W,51.52,288.73,250210,,*29
$GPRMC,210532.215,A,3239.9013,N,11614.9376,W,51.29,288.58,250210,,*2C
$GPRMC,210533.215,A,3239.9059,N,11614.9536,W,51.27,288.73,250210,,*26
$GPRMC,210536.214,A,3239.9196,N,11615.0011,W,51.02,288.71,250210,,*2D
$GPRMC,210537.214,A,3239.9242,N,11615.0171,W,51.27,288.81,250210,,*29
$GPRMC,210538.214,A,3239.9289,N,11615.0331,W,51.53,288.79,250210,,*23
$GPRMC,210539.214,A,3239.9335,N,11615.0492,W,51.68,288.70,250210,,*2B
$GPRMC,210540.214,A,3239.9381,N,11615.0654,W,52.00,288.60,250210,,*2E
$GPRMC,210541.214,A,3239.9428,N,11615.0816,W,52.17,288.79,250210,,*2D
$GPRMC,210542.214,A,3239.9475,N,11615.0979,W,52.33,288.61,250210,,*21
$GPRMC,210543.214,A,3239.9522,N,11615.1142,W,52.29,288.34,250210,,*29
$GPRMC,210545.214,A,3239.9612,N,11615.1465,W,51.67,288.33,250210,,*21
$GPRMC,210546.214,A,3239.9656,N,11615.1625,W,51.39,288.40,250210,,*2B
$GPRMC,210547.214,A,3239.9701,N,11615.1784,W,51.27,288.67,250210,,*29
$GPRMC,210548.214,A,3239.9746,N,11615.1943,W,51.15,288.43,250210,,*27
$GPRMC,210551.213,A,3239.9885,N,11615.2419,W,51.18,289.18,250210,,*2B
$GPRMC,210552.213,A,3239.9932,N,11615.2578,W,51.20,289.13,250210,,*23
$GPRMC,210553.213,A,3239.9977,N,11615.2738,W,51.41,288.45,250210,,*20
$GPRMC,210554.213,A,3240.0022,N,11615.2898,W,51.47,288.44,250210,,*2B
$GPRMC,210555.213,A,3240.0068,N,11615.3059,W,51.65,288.57,250210,,*22
$GPRMC,210556.213,A,3240.0113,N,11615.3221,W,51.78,288.60,250210,,*29
$GPRMC,210557.213,A,3240.0159,N,11615.3383,W,51.95,288.28,250210,,*20
$GPRMC,210558.213,A,3240.0203,N,11615.3545,W,51.86,287.95,250210,,*24
$GPRMC,210600.213,A,3240.0294,N,11615.3869,W,51.92,288.81,250210,,*28
$GPRMC,210601.213,A,3240.0341,N,11615.4031,W,51.88,288.92,250210,,*2B
$GPRMC,210602.213,A,3240.0388,N,11615.4193,W,51.87,288.88,250210,,*20
$GPRMC,210603.213,A,3240.0434,N,11615.4355,W,51.72,288.63,250210,,*26
$GPRMC,210606.213,A,3240.0571,N,11615.4839,W,51.60,288.71,250210,,*22
$GPRMC,210607.212,A,3240.0617,N,11615.5000,W,51.54,288.87,250210,,*2C
$GPRMC,210608.212,A,3240.0663,N,11615.5161,W,51.63,288.81,250210,,*24
$GPRMC,210609.212,A,3240.0709,N,11615.5323,W,51.76,288.71,250210,,*27
$GPRMC,210610.212,A,3240.0755,N,11615.5485,W,51.78,288.49,250210,,*28
$GPRMC,210611.212,A,3240.0801,N,11615.5646,W,51.77,288.82,250210,,*22
$GPRMC,210612.212,A,3240.0848,N,11615.5807,W,51.89,288.88,250210,,*2C
$GPRMC,210613.212,A,3240.0895,N,11615.5968,W,51.88,288.90,250210,,*2D
$GPRMC,210615.212,A,3240.0987,N,11615.6291,W,51.73,288.93,250210,,*20
$GPRMC,210616.212,A,3240.1032,N,11615.6451,W,51.56,288.41,250210,,*27
$GPRMC,210617.212,A,3240.1077,N,11615.6612,W,51.52,288.24,250210,,*25
$GPRMC,210618.212,A,3240.1121,N,11615.6773,W,51.49,288.08,250210,,*2A
$GPRMC,210621.212,A,3240.1259,N,11615.7255,W,51.62,288.56,250210,,*2E
$GPRMC,210622.211,A,3240.1305,N,11615.7416,W,51.77,288.51,250210,,*24
$GPRMC,210623.211,A,3240.1351,N,11615.7577,W,51.75,288.45,250210,,*25
$GPRMC,210624.211,A,3240.1397,N,11615.7738,W,51.76,288.77,250210,,*23
$GPRMC,210625.211,A,3240.1443,N,11615.7899,W,51.87,288.64,250210,,*24
$GPRMC,210626.211,A,3240.1489,N,11615.8060,W,51.77,288.65,250210,,*2E
$GPRMC,210627.211,A,3240.1534,N,11615.8220,W,51.60,288.56,250210,,*28
$GPRMC,210628.211,A,3240.1580,N,11615.8381,W,51.56,288.51,250210,,*20
$GPRMC,210630.211,A,3240.1671,N,11615.8701,W,51.50,288.70,250210,,*2D
$GPRMC,210631.211,A,3240.1716,N,11615.8862,W,51.57,288.76,250210,,*27
$GPRMC,210632.211,A,3240.1763,N,11615.9022,W,51.62,289.05,250210,,*28
$GPRMC,210633.211,A,3240.1810,N,11615.9183,W,51.66,288.91,250210,,*20
$GPRMC,210636.211,A,3240.1946,N,11615.9666,W,51.43,288.75,250210,,*26
$GPRMC,210637.211,A,3240.1992,N,11615.9825,W,51.11,288.87,250210,,*2D
$GPRMC,210638.210,A,3240.2037,N,11615.9984,W,50.79,288.97,250210,,*22
$GPRMC,210639.210,A,3240.2082,N,11616.0143,W,50.88,288.93,250210,,*2E
$GPRMC,210640.210,A,3240.2127,N,11616.0301,W,50.78,288.87,250210,,*20
$GPRMC,210641.210,A,3240.2172,N,11616.0460,W,50.71,288.95,250210,,*2B
$GPRMC,210642.210,A,3240.2218,N,11616.0617,W,50.48,289.21,250210,,*21
$GPRMC,210643.210,A,3240.2264,N,11616.0775,W,50.67,289.29,250210,,*2B
$GPRMC,210645.210,A,3240.2351,N,11616.1091,W,50.30,288.03,250210,,*2D
$GPRMC,210646.210,A,3240.2395,N,11616.1248,W,50.30,288.34,250210,,*24
$GPRMC,210647.210,A,3240.2439,N,11616.1404,W,49.91,288.67,250210,,*2F
$GPRMC,210648.210,A,3240.2483,N,11616.1559,W,49.69,288.88,250210,,*2E
$GPRMC,210651.210,A,3240.2614,N,11616.2021,W,49.19,288.40,250210,,*20
$GPRMC,210652.210,A,3240.2657,N,11616.2173,W,48.91,288.66,250210,,*27
$GPRMC,210653.209,A,3240.2701,N,11616.2325,W,48.62,288.88,250210,,*21
$GPRMC,210654.209,A,3240.2743,N,11616.2476,W,48.46,288.51,250210,,*23
$GPRMC,210655.209,A,3240.2786,N,11616.2627,W,48.35,288.82,250210,,*27
$GPRMC,210656.209,A,3240.2829,N,11616.2777,W,48.18,288.61,250210,,*28
$GPRMC,210657.209,A,3240.2872,N,11616.2926,W,47.91,288.81,250210,,*2D
$GPRMC,210658.209,A,3240.2914,N,11616.3075,W,47.80,288.80,250210,,*2C
$GPRMC,210700.209,A,3240.2998,N,11616.3375,W,48.29,288.56,250210,,*20
$GPRMC,210701.209,A,3240.3041,N,11616.3526,W,48.40,288.68,250210,,*2F
$GPRMC,210702.209,A,3240.3084,N,11616.3678,W,48.53,288.62,250210,,*25
$GPRMC,210703.209,A,3240.3126,N,11616.3827,W,47.98,288.73,250210,,*21
$GPRMC,210706.209,A,3240.3251,N,11616.4269,W,46.89,288.38,250210,,*2E
$GPRMC,210707.209,A,3240.3292,N,11616.4414,W,46.61,288.65,250210,,*22
$GPRMC,210708.209,A,3240.3333,N,11616.4559,W,46.46,288.82,250210,,*23
$GPRMC,210709.208,A,3240.3373,N,11616.4703,W,46.33,288.57,250210,,*20
$GPRMC,210710.208,A,3240.3415,N,11616.4846,W,46.14,289.05,250210,,*22
$GPRMC,210711.208,A,3240.3455,N,11616.4989,W,45.90,289.04,250210,,*2B
$GPRMC,210712.208,A,3240.3496,N,11616.5131,W,45.79,288.87,250210,,*20
$GPRMC,210713.208,A,3240.3537,N,11616.5274,W,45.99,288.90,250210,,*21
$GPRMC,210715.208,A,3240.3619,N,11616.5562,W,46.50,288.71,250210,,*21
$GPRMC,210716.208,A,3240.3660,N,11616.5707,W,46.69,288.49,250210,,*2C
$GPRMC,210717.208,A,3240.3701,N,11616.5853,W,46.89,288.64,250210,,*24
$GPRMC,210718.208,A,3240.3742,N,11616.6000,W,47.01,288.68,250210,,*2C
$GPRMC,210721.208,A,3240.3868,N,11616.6444,W,47.72,289.14,250210,,*2B
$GPRMC,210722.208,A,3240.3911,N,11616.6593,W,47.87,288.87,250210,,*2D
$GPRMC,210723.208,A,3240.3954,N,11616.6743,W,48.06,288.67,250210,,*2A
$GPRMC,210724.207,A,3240.3996,N,11616.6893,W,48.26,288.51,250210,,*29
$GPRMC,210725.207,A,3240.4039,N,11616.7044,W,48.42,288.40,250210,,*22
$GPRMC,210726.207,A,3240.4081,N,11616.7196,W,48.63,288.45,250210,,*2A
$GPRMC,210727.207,A,3240.4125,N,11616.7348,W,48.87,288.62,250210,,*2A
$GPRMC,210728.207,A,3240.4168,N,11616.7501,W,49.07,288.61,250210,,*2D
$GPRMC,210730.207,A,3240.4257,N,11616.7808,W,49.40,288.75,250210,,*29
$GPRMC,210731.207,A,3240.4301,N,11616.7963,W,49.70,288.55,250210,,*27
$GPRMC,210732.207,A,3240.4345,N,11616.8119,W,49.89,288.40,250210,,*2C
$GPRMC,210733.207,A,3240.4389,N,11616.8275,W,50.08,288.61,250210,,*26
$GPRMC,210736.207,A,3240.4522,N,11616.8747,W,50.55,288.38,250210,,*24
$GPRMC,210737.207,A,3240.4566,N,11616.8905,W,50.73,288.45,250210,,*23
$GPRMC,210738.207,A,3240.4611,N,11616.9063,W,50.90,288.62,250210,,*2F
$GPRMC,210739.206,A,3240.4656,N,11616.9223,W,51.02,288.59,250210,,*28
$GPRMC,210740.206,A,3240.4701,N,11616.9382,W,51.11,288.64,250210,,*23
$GPRMC,210741.206,A,3240.4747,N,11616.9541,W,51.22,288.66,250210,,*2B
$GPRMC,210742.206,A,3240.4792,N,11616.9702,W,51.37,288.50,250210,,*24
$GPRMC,210743.206,A,3240.4837,N,11616.9862,W,51.44,288.31,250210,,*2F
$GPRMC,210745.206,A,3240.4926,N,11617.0180,W,50.61,288.32,250210,,*20
$GPRMC,210746.206,A,3240.4969,N,11617.0337,W,50.23,288.05,250210,,*24
$GPRMC,210747.206,A,3240.5013,N,11617.0494,W,50.06,288.46,250210,,*2E
$GPRMC,210748.206,A,3240.5058,N,11617.0650,W,50.05,288.60,250210,,*23
$GPRMC,210751.206,A,3240.5192,N,11617.1118,W,50.13,288.97,250210,,*29
$GPRMC,210752.206,A,3240.5238,N,11617.1274,W,50.18,289.01,250210,,*25
$GPRMC,210753.206,A,3240.5283,N,11617.1431,W,50.44,288.65,250210,,*29
$GPRMC,210754.206,A,3240.5328,N,11617.1590,W,50.85,288.72,250210,,*2F
$GPRMC,210755.205,A,3240.5374,N,11617.1749,W,51.02,288.63,250210,,*2C
$GPRMC,210756.205,A,3240.5420,N,11617.1909,W,51.50,288.70,250210,,*26
$GPRMC,210757.205,A,3240.5467,N,11617.2071,W,51.96,289.00,250210,,*2D
$GPRMC,210758.205,A,3240.5514,N,11617.2233,W,52.20,288.75,250210,,*2E
$GPRMC,210800.205,A,3240.5608,N,11617.2568,W,53.81,288.64,250210,,*21
$GPRMC,210801.205,A,3240.5655,N,11617.2738,W,54.40,288.26,250210,,*23
$GPRMC,210802.205,A,3240.5703,N,11617.2911,W,55.06,288.00,250210,,*20
$GPRMC,210803.205,A,3240.5755,N,11617.3092,W,55.30,288.39,250210,,*2E
$GPRMC,210806.205,A,3240.5912,N,11617.3601,W,53.89,292.15,250210,,*2B
$GPRMC,210807.205,A,3240.5969,N,11617.3762,W,53.13,293.44,250210,,*24
$GPRMC,210808.205,A,3240.6030,N,11617.3919,W,52.64,295.33,250210,,*28
$GPRMC,210809.205,A,3240.6093,N,11617.4072,W,51.88,295.60,250210,,*24
$GPRMC,210810.204,A,3240.6156,N,11617.4224,W,51.81,296.33,250210,,*28
$GPRMC,210811.204,A,3240.6220,N,11617.4375,W,51.68,297.14,250210,,*2D
$GPRMC,210812.204,A,3240.6286,N,11617.4525,W,51.57,298.07,250210,,*20
$GPRMC,210813.204,A,3240.6355,N,11617.4673,W,51.43,299.36,250210,,*28
$GPRMC,210815.204,A,3240.6500,N,11617.4962,W,51.15,301.40,250210,,*25
$GPRMC,210816.204,A,3240.6575,N,11617.5102,W,51.13,302.25,250210,,*2D
$GPRMC,210817.204,A,3240.6651,N,11617.5241,W,50.90,302.70,250210,,*27
$GPRMC,210818.204,A,3240.6727,N,11617.5376,W,50.53,304.00,250210,,*23
$GPRMC,210821.204,A,3240.6970,N,11617.5771,W,49.96,307.07,250210,,*23
$GPRMC,210822.204,A,3240.7054,N,11617.5899,W,49.90,307.82,250210,,*2C
$GPRMC,210823.204,A,3240.7140,N,11617.6027,W,49.74,308.90,250210,,*21
$GPRMC,210824.204,A,3240.7228,N,11617.6152,W,49.49,310.01,250210,,*27
$GPRMC,210825.204,A,3240.7318,N,11617.6274,W,49.31,310.76,250210,,*2C
$GPRMC,210826.203,A,3240.7409,N,11617.6394,W,49.20,311.91,250210,,*28
$GPRMC,210827.203,A,3240.7500,N,11617.6512,W,49.02,313.05,250210,,*26
$GPRMC,210828.203,A,3240.7595,N,11617.6626,W,48.92,313.59,250210,,*20
$GPRMC,210830.203,A,3240.7786,N,11617.6856,W,48.74,313.54,250210,,*25
$GPRMC,210831.203,A,3240.7879,N,11617.6972,W,48.64,313.45,250210,,*2D
$GPRMC,210832.203,A,3240.7972,N,11617.7088,W,48.52,313.55,250210,,*2D
$GPRMC,210833.203,A,3240.8064,N,11617.7203,W,48.47,313.52,250210,,*2F
$GPRMC,210836.203,A,3240.8341,N,11617.7549,W,48.09,313.15,250210,,*2E
$GPRMC,210837.203,A,3240.8433,N,11617.7663,W,47.99,313.67,250210,,*25
$GPRMC,210838.203,A,3240.8525,N,11617.7776,W,47.84,313.75,250210,,*26
$GPRMC,210839.203,A,3240.8617,N,11617.7891,W,48.08,313.62,250210,,*2E
$GPRMC,210840.203,A,3240.8710,N,11617.8006,W,48.28,313.44,250210,,*29
$GPRMC,210841.202,A,3240.8803,N,11617.8121,W,48.60,313.58,250210,,*21
$GPRMC,210842.202,A,3240.8897,N,11617.8237,W,48.78,313.64,250210,,*2D
$GPRMC,210843.202,A,3240.8990,N,11617.8354,W,49.02,313.57,250210,,*22
$GPRMC,210845.202,A,3240.9179,N,11617.8589,W,49.60,313.35,250210,,*2C
$GPRMC,210846.202,A,3240.9274,N,11617.8708,W,49.77,313.28,250210,,*20
$GPRMC,210847.202,A,3240.9370,N,11617.8827,W,49.99,313.57,250210,,*2E
$GPRMC,210848.202,A,3240.9467,N,11617.8946,W,50.21,313.80,250210,,*27
$GPRMC,210851.202,A,3240.9756,N,11617.9307,W,50.68,313.28,250210,,*2F
$GPRMC,210852.202,A,3240.9855,N,11617.9429,W,51.30,313.96,250210,,*22
$GPRMC,210853.202,A,3240.9953,N,11617.9549,W,50.91,313.85,250210,,*2B
$GPRMC,210854.202,A,3241.0051,N,11617.9670,W,51.01,313.70,250210,,*24
$GPRMC,210855.202,A,3241.0149,N,11617.9791,W,51.17,313.76,250210,,*22
$GPRMC,210856.202,A,3241.0248,N,11617.9913,W,51.34,313.75,250210,,*25
$GPRMC,210857.201,A,3241.0346,N,11618.0036,W,51.47,313.44,250210,,*26
$GPRMC,210858.201,A,3241.0445,N,11618.0159,W,51.58,313.42,250210,,*2D
$GPRMC,210900.201,A,3241.0643,N,11618.0406,W,51.79,313.55,250210,,*2F
$GPRMC,210901.201,A,3241.0742,N,11618.0529,W,51.96,313.53,250210,,*25
$GPRMC,210902.201,A,3241.0842,N,11618.0654,W,52.10,313.46,250210,,*29
$GPRMC,210903.201,A,3241.0942,N,11618.0779,W,52.33,313.43,250210,,*23
$GPRMC,210906.201,A,3241.1245,N,11618.1155,W,53.05,313.62,250210,,*25
$GPRMC,210907.201,A,3241.1347,N,11618.1282,W,53.11,313.42,250210,,*29
$GPRMC,210908.201,A,3241.1448,N,11618.1408,W,52.97,313.56,250210,,*20
$GPRMC,210909.201,A,3241.1549,N,11618.1534,W,52.68,313.57,250210,,*2E
$GPRMC,210910.201,A,3241.1650,N,11618.1658,W,52.42,313.52,250210,,*29
$GPRMC,210911.201,A,3241.1750,N,11618.1783,W,52.23,313.59,250210,,*22
$GPRMC,210912.200,A,3241.1849,N,11618.1907,W,52.22,313.44,250210,,*28
$GPRMC,210913.200,A,3241.1950,N,11618.2032,W,52.30,313.48,250210,,*23
$GPRMC,210915.200,A,3241.2150,N,11618.2282,W,52.56,313.49,250210,,*26
$GPRMC,210916.200,A,3241.2251,N,11618.2408,W,52.67,313.50,250210,,*29
$GPRMC,210917.200,A,3241.2352,N,11618.2534,W,52.71,313.41,250210,,*23
$GPRMC,210918.200,A,3241.2453,N,11618.2659,W,52.60,313.35,250210,,*21
$GPRMC,210921.200,A,3241.2754,N,11618.3034,W,52.34,313.56,250210,,*27
$GPRMC,210922.200,A,3241.2854,N,11618.3159,W,52.31,313.43,250210,,*20
$GPRMC,210923.200,A,3241.2955,N,11618.3284,W,52.31,313.42,250210,,*23
$GPRMC,210924.200,A,3241.3055,N,11618.3410,W,52.35,313.38,250210,,*2E
$GPRMC,210925.200,A,3241.3156,N,11618.3534,W,52.29,313.82,250210,,*26
$GPRMC,210926.200,A,3241.3257,N,11618.3658,W,52.39,314.00,250210,,*22
$GPRMC,210927.199,A,3241.3357,N,11618.3783,W,52.37,313.53,250210,,*29
$GPRMC,210928.199,A,3241.3457,N,11618.3908,W,52.47,313.17,250210,,*2B
$GPRMC,210930.199,A,3241.3657,N,11618.4160,W,52.48,313.36,250210,,*2D
$GPRMC,210931.199,A,3241.3758,N,11618.4285,W,52.51,313.73,250210,,*23
$GPRMC,210932.199,A,3241.3859,N,11618.4410,W,52.63,313.87,250210,,*2E
$GPRMC,210933.199,A,3241.3960,N,11618.4535,W,52.56,313.70,250210,,*2C
$GPRMC,210936.199,A,3241.4260,N,11618.4912,W,52.55,313.27,250210,,*2D
$GPRMC,210937.199,A,3241.4360,N,11618.5038,W,52.47,313.51,250210,,*2F
$GPRMC,210938.199,A,3241.4462,N,11618.5162,W,52.52,313.88,250210,,*2B
$GPRMC,210939.199,A,3241.4562,N,11618.5288,W,52.48,313.45,250210,,*26
$GPRMC,210940.199,A,3241.4662,N,11618.5413,W,52.48,313.32,250210,,*2F
$GPRMC,210941.199,A,3241.4763,N,11618.5538,W,52.46,313.90,250210,,*20
$GPRMC,210942.199,A,3241.4864,N,11618.5662,W,52.48,313.91,250210,,*28
$GPRMC,210943.198,A,3241.4965,N,11618.5787,W,52.46,313.60,250210,,*22
$GPRMC,210945.198,A,3241.5165,N,11618.6039,W,52.46,313.02,250210,,*28
$GPRMC,210946.198,A,3241.5264,N,11618.6165,W,52.31,313.17,250210,,*25
$GPRMC,210947.198,A,3241.5365,N,11618.6290,W,52.39,313.60,250210,,*25
$GPRMC,210948.198,A,3241.5465,N,11618.6415,W,52.41,313.55,250210,,*2F
$GPRMC,210951.198,A,3241.5767,N,11618.6791,W,52.56,313.51,250210,,*2B
$GPRMC,210952.198,A,3241.5866,N,11618.6918,W,52.61,313.02,250210,,*2B
$GPRMC,210953.198,A,3241.5966,N,11618.7044,W,52.50,313.16,250210,,*2D
$GPRMC,210954.198,A,3241.6066,N,11618.7169,W,52.46,313.47,250210,,*2D
$GPRMC,210955.198,A,3241.6167,N,11618.7293,W,52.33,313.63,250210,,*2E
$GPRMC,210956.198,A,3241.6268,N,11618.7417,W,52.31,313.83,250210,,*27
$GPRMC,210957.198,A,3241.6369,N,11618.7541,W,52.39,313.89,250210,,*26
$GPRMC,210958.197,A,3241.6470,N,11618.7666,W,52.40,313.66,250210,,*20
$GPRMC,211000.197,A,3241.6671,N,11618.7917,W,52.50,313.42,250210,,*28
$GPRMC,211001.197,A,3241.6772,N,11618.8043,W,52.52,313.36,250210,,*2D
$GPRMC,211002.197,A,3241.6872,N,11618.8168,W,52.52,313.61,250210,,*2B
$GPRMC,211003.197,A,3241.6973,N,11618.8294,W,52.55,313.54,250210,,*2B
$GPRMC,211006.197,A,3241.7274,N,11618.8672,W,52.33,313.42,250210,,*28
$GPRMC,211007.197,A,3241.7373,N,11618.8795,W,51.59,313.74,250210,,*2D
$GPRMC,211008.197,A,3241.7470,N,11618.8916,W,50.73,313.60,250210,,*2F
$GPRMC,211009.197,A,3241.7566,N,11618.9037,W,50.13,313.37,250210,,*27
$GPRMC,211010.197,A,3241.7660,N,11618.9156,W,49.63,313.29,250210,,*2C
$GPRMC,211011.197,A,3241.7755,N,11618.9274,W,49.45,313.43,250210,,*21
$GPRMC,211012.197,A,3241.7848,N,11618.9392,W,49.00,313.24,250210,,*28
$GPRMC,211013.197,A,3241.7940,N,11618.9508,W,48.70,313.35,250210,,*23
$GPRMC,211015.196,A,3241.8125,N,11618.9735,W,47.60,313.75,250210,,*26
$GPRMC,211016.196,A,3241.8215,N,11618.9848,W,47.00,312.99,250210,,*25
$GPRMC,211017.196,A,3241.8302,N,11618.9960,W,46.24,312.67,250210,,*2E
$GPRMC,211018.196,A,3241.8389,N,11619.0069,W,45.51,312.80,250210,,*22
$GPRMC,211021.196,A,3241.8638,N,11619.0398,W,44.53,310.86,250210,,*2D
$GPRMC,211022.196,A,3241.8716,N,11619.0509,W,44.28,309.98,250210,,*26
$GPRMC,211023.196,A,3241.8793,N,11619.0622,W,44.13,308.80,250210,,*20
$GPRMC,211024.196,A,3241.8867,N,11619.0737,W,43.98,307.56,250210,,*26
$GPRMC,211025.196,A,3241.8940,N,11619.0852,W,43.88,307.14,250210,,*28
$GPRMC,211026.196,A,3241.9012,N,11619.0968,W,43.73,306.45,250210,,*2D
$GPRMC,211027.196,A,3241.9081,N,11619.1085,W,43.64,305.29,250210,,*22
$GPRMC,211028.196,A,3241.9150,N,11619.1202,W,43.58,305.06,250210,,*2F
$GPRMC,211030.195,A,3241.9283,N,11619.1440,W,43.46,303.06,250210,,*21
$GPRMC,211031.195,A,3241.9347,N,11619.1561,W,43.48,302.03,250210,,*21
$GPRMC,211032.195,A,3241.9409,N,11619.1684,W,43.39,300.85,250210,,*2D
$GPRMC,211033.195,A,3241.9470,N,11619.1807,W,43.31,300.58,250210,,*2F
$GPRMC,211036.195,A,3241.9645,N,11619.2178,W,42.95,298.44,250210,,*2E
$GPRMC,211037.195,A,3241.9701,N,11619.2302,W,42.90,297.95,250210,,*27
$GPRMC,211038.195,A,3241.9755,N,11619.2428,W,42.80,297.01,250210,,*2A
$GPRMC,211039.195,A,3241.9807,N,11619.2554,W,42.65,296.07,250210,,*25
$GPRMC,211040.195,A,3241.9857,N,11619.2681,W,42.63,295.16,250210,,*20
$GPRMC,211041.195,A,3241.9906,N,11619.2809,W,42.58,294.22,250210,,*24
$GPRMC,211042.195,A,3241.9953,N,11619.2937,W,42.48,293.20,250210,,*2F
$GPRMC,211043.195,A,3241.9998,N,11619.3067,W,42.51,292.59,250210,,*23
$GPRMC,211045.194,A,3242.0084,N,11619.3330,W,42.64,291.11,250210,,*22
$GPRMC,211046.194,A,3242.0125,N,11619.3463,W,42.91,290.09,250210,,*28
$GPRMC,211047.194,A,3242.0164,N,11619.3597,W,42.70,289.07,250210,,*2F
$GPRMC,211048.194,A,3242.0201,N,11619.3731,W,42.83,288.20,250210,,*26
$GPRMC,211051.194,A,3242.0306,N,11619.4144,W,43.69,286.12,250210,,*21
$GPRMC,211052.194,A,3242.0338,N,11619.4285,W,44.05,285.15,250210,,*28
$GPRMC,211053.194,A,3242.0369,N,11619.4427,W,44.45,284.37,250210,,*26
$GPRMC,211054.194,A,3242.0398,N,11619.4571,W,44.89,283.46,250210,,*2C
$GPRMC,211055.194,A,3242.0425,N,11619.4716,W,45.12,282.47,250210,,*2C
$GPRMC,211056.194,A,3242.0450,N,11619.4863,W,45.53,281.60,250210,,*23
$GPRMC,211057.194,A,3242.0472,N,11619.5011,W,45.57,280.50,250210,,*28
$GPRMC,211058.194,A,3242.0492,N,11619.5158,W,45.44,279.81,250210,,*2D
$GPRMC,211100.193,A,3242.0530,N,11619.5457,W,46.15,278.67,250210,,*2B
$GPRMC,211101.193,A,3242.0547,N,11619.5609,W,46.51,278.52,250210,,*25
$GPRMC,211102.193,A,3242.0567,N,11619.5762,W,47.01,279.03,250210,,*29
$GPRMC,211103.193,A,3242.0586,N,11619.5917,W,47.48,279.19,250210,,*2D
$GPRMC,211106.193,A,3242.0644,N,11619.6391,W,48.87,278.83,250210,,*2C
$GPRMC,211107.193,A,3242.0664,N,11619.6551,W,49.32,278.49,250210,,*2C
$GPRMC,211108.193,A,3242.0683,N,11619.6713,W,49.73,278.39,250210,,*2C
$GPRMC,211109.193,A,3242.0702,N,11619.6875,W,49.90,278.56,250210,,*2E
$GPRMC,211111.193,A,3242.0743,N,11619.7203,W,50.49,278.83,250210,,*2C
$GPRMC,211112.193,A,3242.0763,N,11619.7367,W,50.35,278.87,250210,,*21
$GPRMC,211113.193,A,3242.0784,N,11619.7531,W,50.21,278.88,250210,,*26
$GPRMC,211115.192,A,3242.0824,N,11619.7856,W,49.60,278.74,250210,,*26
$GPRMC,211116.192,A,3242.0845,N,11619.8017,W,49.53,278.73,250210,,*27
$GPRMC,211117.192,A,3242.0866,N,11619.8179,W,49.57,279.22,250210,,*2F
$GPRMC,211118.192,A,3242.0888,N,11619.8341,W,49.71,279.29,250210,,*26
$GPRMC,211121.192,A,3242.0950,N,11619.8829,W,50.09,278.84,250210,,*2C
$GPRMC,211122.192,A,3242.0971,N,11619.8992,W,49.96,279.20,250210,,*2C
$GPRMC,211123.192,A,3242.0992,N,11619.9155,W,49.89,279.03,250210,,*2D
$GPRMC,211124.192,A,3242.1013,N,11619.9317,W,49.79,278.90,250210,,*2B
$GPRMC,211125.192,A,3242.1033,N,11619.9480,W,49.70,278.76,250210,,*20
$GPRMC,211126.192,A,3242.1054,N,11619.9642,W,49.67,279.09,250210,,*21
$GPRMC,211127.192,A,3242.1075,N,11619.9804,W,49.65,279.36,250210,,*21
$GPRMC,211128.192,A,3242.1098,N,11619.9967,W,49.80,279.32,250210,,*26
$GPRMC,211130.192,A,3242.1142,N,11620.0295,W,50.01,279.27,250210,,*29
$GPRMC,211131.191,A,3242.1164,N,11620.0457,W,49.88,279.47,250210,,*28
$GPRMC,211132.191,A,3242.1186,N,11620.0620,W,49.99,279.24,250210,,*20
$GPRMC,211133.191,A,3242.1207,N,11620.0783,W,50.02,278.98,250210,,*2F
$GPRMC,211136.191,A,3242.1273,N,11620.1269,W,49.77,279.10,250210,,*22
$GPRMC,211137.191,A,3242.1294,N,11620.1432,W,49.73,278.34,250210,,*21
$GPRMC,211138.191,A,3242.1316,N,11620.1594,W,49.74,278.66,250210,,*28
$GPRMC,211139.191,A,3242.1339,N,11620.1756,W,49.73,279.17,250210,,*28
$GPRMC,211140.191,A,3242.1361,N,11620.1918,W,49.86,279.18,250210,,*2A
$GPRMC,211141.191,A,3242.1383,N,11620.2081,W,49.97,278.96,250210,,*2A
$GPRMC,211142.191,A,3242.1404,N,11620.2243,W,50.01,279.00,250210,,*24
$GPRMC,211143.191,A,3242.1426,N,11620.2406,W,49.97,278.84,250210,,*28
$GPRMC,211145.191,A,3242.1469,N,11620.2731,W,49.86,279.01,250210,,*2E
$GPRMC,211146.190,A,3242.1491,N,11620.2893,W,49.78,279.09,250210,,*25
$GPRMC,211147.190,A,3242.1513,N,11620.3055,W,49.77,279.00,250210,,*2A
$GPRMC,211148.190,A,3242.1534,N,11620.3217,W,49.89,278.81,250210,,*2D
$GPRMC,211151.190,A,3242.1598,N,11620.3705,W,50.09,278.58,250210,,*21
$GPRMC,211152.190,A,3242.1620,N,11620.3868,W,50.14,278.86,250210,,*29
$GPRMC,211153.190,A,3242.1642,N,11620.4030,W,50.12,279.20,250210,,*25
$GPRMC,211154.190,A,3242.1664,N,11620.4192,W,50.02,278.88,250210,,*2D
$GPRMC,211155.190,A,3242.1687,N,11620.4354,W,49.98,279.01,250210,,*22
$GPRMC,211156.190,A,3242.1709,N,11620.4516,W,50.01,278.77,250210,,*2E
$GPRMC,211157.190,A,3242.1731,N,11620.4678,W,49.95,278.88,250210,,*2A
$GPRMC,211158.190,A,3242.1753,N,11620.4840,W,49.89,278.93,250210,,*23
$GPRMC,211200.190,A,3242.1798,N,11620.5163,W,49.91,279.35,250210,,*27
$GPRMC,211201.190,A,3242.1820,N,11620.5325,W,50.02,278.91,250210,,*27
$GPRMC,211202.189,A,3242.1842,N,11620.5487,W,50.08,278.87,250210,,*2A
$GPRMC,211203.189,A,3242.1864,N,11620.5649,W,50.04,279.00,250210,,*2D
$GPRMC,211206.189,A,3242.1930,N,11620.6136,W,49.94,278.69,250210,,*2B
$GPRMC,211207.189,A,3242.1951,N,11620.6298,W,49.82,278.70,250210,,*25
$GPRMC,211208.189,A,3242.1972,N,11620.6460,W,49.68,278.67,250210,,*28
$GPRMC,211209.189,A,3242.1994,N,11620.6622,W,49.72,278.79,250210,,*21
$GPRMC,211210.189,A,3242.2016,N,11620.6784,W,49.75,278.81,250210,,*24
$GPRMC,211211.189,A,3242.2037,N,11620.6946,W,49.84,278.83,250210,,*2A
$GPRMC,211212.189,A,3242.2059,N,11620.7109,W,49.92,278.97,250210,,*21
$GPRMC,211213.189,A,3242.2081,N,11620.7271,W,49.90,279.35,250210,,*22
$GPRMC,211215.189,A,3242.2124,N,11620.7595,W,49.72,278.99,250210,,*2C
$GPRMC,211216.189,A,3242.2144,N,11620.7756,W,49.51,278.78,250210,,*2A
$GPRMC,211217.188,A,3242.2164,N,11620.7917,W,49.56,278.77,250210,,*2B
$GPRMC,211218.188,A,3242.2186,N,11620.8077,W,49.59,279.14,250210,,*23
$GPRMC,211221.188,A,3242.2250,N,11620.8559,W,49.44,278.77,250210,,*20
$GPRMC,211222.188,A,3242.2270,N,11620.8720,W,49.53,278.67,250210,,*2A
$GPRMC,211223.188,A,3242.2292,N,11620.8881,W,49.46,279.30,250210,,*24
$GPRMC,211224.188,A,3242.2314,N,11620.9041,W,49.42,279.33,250210,,*2E
$GPRMC,211225.188,A,3242.2336,N,11620.9201,W,49.28,279.10,250210,,*24
$GPRMC,211226.188,A,3242.2357,N,11620.9361,W,49.18,279.05,250210,,*20
$GPRMC,211227.188,A,3242.2377,N,11620.9521,W,49.44,278.79,250210,,*22
$GPRMC,211228.188,A,3242.2399,N,11620.9683,W,49.73,279.28,250210,,*27
$GPRMC,211230.188,A,3242.2441,N,11621.0007,W,50.02,278.78,250210,,*24
$GPRMC,211231.188,A,3242.2462,N,11621.0170,W,50.31,278.74,250210,,*29
$GPRMC,211232.187,A,3242.2483,N,11621.0334,W,50.37,278.80,250210,,*25
$GPRMC,211233.187,A,3242.2504,N,11621.0498,W,50.44,278.60,250210,,*21
$GPRMC,211236.187,A,3242.2570,N,11621.0985,W,49.58,279.13,250210,,*26
$GPRMC,211237.187,A,3242.2591,N,11621.1145,W,49.44,278.94,250210,,*2E
$GPRMC,211238.187,A,3242.2613,N,11621.1306,W,49.46,278.92,250210,,*29
$GPRMC,211239.187,A,3242.2635,N,11621.1466,W,49.56,278.99,250210,,*27
$GPRMC,211240.187,A,3242.2657,N,11621.1627,W,49.66,279.09,250210,,*21
$GPRMC,211241.187,A,3242.2678,N,11621.1789,W,49.72,278.96,250210,,*2A
$GPRMC,211242.187,A,3242.2699,N,11621.1951,W,49.88,278.93,250210,,*2D
$GPRMC,211243.187,A,3242.2720,N,11621.2113,W,49.98,278.56,250210,,*2A
$GPRMC,211245.187,A,3242.2761,N,11621.2438,W,49.88,279.27,250210,,*23
$GPRMC,211246.187,A,3242.2782,N,11621.2600,W,49.79,279.07,250210,,*28
$GPRMC,211247.187,A,3242.2803,N,11621.2761,W,49.68,279.05,250210,,*2B
$GPRMC,211248.186,A,3242.2824,N,11621.2922,W,49.65,279.15,250210,,*25
$GPRMC,211251.186,A,3242.2884,N,11621.3407,W,50.00,278.55,250210,,*22
$GPRMC,211252.186,A,3242.2904,N,11621.3570,W,50.15,278.60,250210,,*2B
$GPRMC,211253.186,A,3242.2924,N,11621.3732,W,49.97,278.65,250210,,*2B
$GPRMC,211254.186,A,3242.2943,N,11621.3894,W,50.02,278.36,250210,,*2C
$GPRMC,211255.186,A,3242.2964,N,11621.4057,W,50.03,278.77,250210,,*2C
$GPRMC,211256.186,A,3242.2985,N,11621.4218,W,49.84,279.07,250210,,*28
$GPRMC,211257.186,A,3242.3006,N,11621.4381,W,49.99,278.54,250210,,*20
$GPRMC,211258.186,A,3242.3026,N,11621.4543,W,49.88,278.45,250210,,*25
$GPRMC,211300.186,A,3242.3067,N,11621.4867,W,49.91,278.55,250210,,*2E
$GPRMC,211301.186,A,3242.3090,N,11621.5030,W,50.03,279.05,250210,,*2B
$GPRMC,211302.186,A,3242.3114,N,11621.5193,W,50.08,279.65,250210,,*20
$GPRMC,211303.185,A,3242.3139,N,11621.5355,W,49.91,279.66,250210,,*2E
$GPRMC,211306.185,A,3242.3228,N,11621.5837,W,49.69,283.36,250210,,*20
$GPRMC,211307.185,A,3242.3262,N,11621.5996,W,49.70,284.03,250210,,*2C
$GPRMC,211308.185,A,3242.3299,N,11621.6154,W,49.70,285.22,250210,,*20
$GPRMC,211309.185,A,3242.3338,N,11621.6311,W,49.79,285.52,250210,,*26
$GPRMC,211310.185,A,3242.3377,N,11621.6468,W,49.86,285.99,250210,,*2B
$GPRMC,211311.185,A,3242.3419,N,11621.6625,W,49.89,287.24,250210,,*25
$GPRMC,211312.185,A,3242.3463,N,11621.6781,W,49.98,288.07,250210,,*2A
$GPRMC,211313.185,A,3242.3507,N,11621.6938,W,49.97,287.97,250210,,*2D
$GPRMC,211315.185,A,3242.3595,N,11621.7251,W,49.82,288.19,250210,,*28
$GPRMC,211316.185,A,3242.3640,N,11621.7407,W,49.75,288.46,250210,,*27
$GPRMC,211317.185,A,3242.3684,N,11621.7562,W,49.67,288.28,250210,,*27
$GPRMC,211318.185,A,3242.3728,N,11621.7717,W,49.69,288.12,250210,,*28
$GPRMC,211321.184,A,3242.3858,N,11621.8184,W,49.75,288.09,250210,,*2F
$GPRMC,211322.184,A,3242.3902,N,11621.8340,W,49.72,288.02,250210,,*24
$GPRMC,211323.184,A,3242.3945,N,11621.8496,W,49.71,287.92,250210,,*2F
$GPRMC,211324.184,A,3242.3988,N,11621.8651,W,49.59,287.89,250210,,*20
$GPRMC,211325.184,A,3242.4032,N,11621.8807,W,49.62,288.22,250210,,*25
$GPRMC,211326.184,A,3242.4076,N,11621.8962,W,49.66,288.34,250210,,*27
$GPRMC,211327.184,A,3242.4119,N,11621.9117,W,49.74,288.13,250210,,*23
$GPRMC,211328.184,A,3242.4162,N,11621.9273,W,49.74,287.95,250210,,*20
$GPRMC,211330.184,A,3242.4250,N,11621.9585,W,49.70,287.72,250210,,*28
$GPRMC,211331.184,A,3242.4292,N,11621.9741,W,49.72,287.68,250210,,*24
$GPRMC,211332.184,A,3242.4334,N,11621.9896,W,49.56,287.84,250210,,*2B
$GPRMC,211333.184,A,3242.4376,N,11622.0051,W,49.57,288.12,250210,,*24
$GPRMC,211336.183,A,3242.4505,N,11622.0515,W,49.79,288.23,250210,,*2F
$GPRMC,211337.183,A,3242.4547,N,11622.0671,W,49.88,287.98,250210,,*28
$GPRMC,211338.183,A,3242.4590,N,11622.0827,W,50.03,288.00,250210,,*25
$GPRMC,211339.183,A,3242.4634,N,11622.0983,W,50.08,288.05,250210,,*28
$GPRMC,211340.183,A,3242.4678,N,11622.1140,W,50.13,288.22,250210,,*27
$GPRMC,211341.183,A,3242.4721,N,11622.1297,W,50.13,288.12,250210,,*21
$GPRMC,211342.183,A,3242.4765,N,11622.1454,W,50.15,288.11,250210,,*2E
$GPRMC,211343.183,A,3242.4809,N,11622.1610,W,50.07,288.00,250210,,*2B
$GPRMC,211345.183,A,3242.4894,N,11622.1922,W,49.78,287.77,250210,,*28
$GPRMC,211346.183,A,3242.4937,N,11622.2077,W,49.68,287.69,250210,,*27
$GPRMC,211347.183,A,3242.4979,N,11622.2232,W,49.61,287.75,250210,,*2B
$GPRMC,211348.183,A,3242.5021,N,11622.2387,W,49.56,287.74,250210,,*2B
$GPRMC,211351.182,A,3242.5149,N,11622.2853,W,49.72,287.93,250210,,*20
$GPRMC,211352.182,A,3242.5192,N,11622.3008,W,49.77,287.90,250210,,*24
$GPRMC,211353.182,A,3242.5235,N,11622.3165,W,49.85,287.99,250210,,*25
$GPRMC,211354.182,A,3242.5278,N,11622.3321,W,49.75,288.00,250210,,*29
$GPRMC,211355.182,A,3242.5320,N,11622.3477,W,49.82,288.06,250210,,*2E
$GPRMC,211356.182,A,3242.5363,N,11622.3633,W,49.89,287.51,250210,,*2E
$GPRMC,211357.182,A,3242.5405,N,11622.3791,W,49.82,287.69,250210,,*21
$GPRMC,211358.182,A,3242.5447,N,11622.3948,W,49.85,287.99,250210,,*2A
$GPRMC,211400.182,A,3242.5532,N,11622.4260,W,49.88,288.11,250210,,*27
$GPRMC,211401.182,A,3242.5575,N,11622.4416,W,49.90,287.80,250210,,*2C
$GPRMC,211402.182,A,3242.5618,N,11622.4572,W,49.85,288.08,250210,,*2F
$GPRMC,211403.182,A,3242.5661,N,11622.4728,W,49.80,288.33,250210,,*20
$GPRMC,211406.181,A,3242.5797,N,11622.5193,W,49.89,289.91,250210,,*29
$GPRMC,211407.181,A,3242.5846,N,11622.5347,W,50.03,290.71,250210,,*2C
$GPRMC,211408.181,A,3242.5897,N,11622.5501,W,50.05,291.47,250210,,*29
$GPRMC,211409.181,A,3242.5951,N,11622.5653,W,49.93,292.09,250210,,*29
$GPRMC,211410.181,A,3242.6004,N,11622.5805,W,49.89,292.61,250210,,*23
$GPRMC,211411.181,A,3242.6058,N,11622.5956,W,49.59,293.38,250210,,*2C
$GPRMC,211412.181,A,3242.6113,N,11622.6104,W,49.28,294.18,250210,,*2E
$GPRMC,211413.181,A,3242.6171,N,11622.6249,W,49.02,294.89,250210,,*21
$GPRMC,211415.181,A,3242.6290,N,11622.6537,W,48.59,296.28,250210,,*23
$GPRMC,211416.181,A,3242.6351,N,11622.6678,W,48.17,297.03,250210,,*26
$GPRMC,211417.181,A,3242.6412,N,11622.6818,W,47.82,297.63,250210,,*2A
$GPRMC,211418.181,A,3242.6475,N,11622.6956,W,47.59,298.14,250210,,*26
$GPRMC,211421.180,A,3242.6668,N,11622.7363,W,46.93,300.03,250210,,*2F
$GPRMC,211422.180,A,3242.6733,N,11622.7496,W,46.76,300.35,250210,,*20
$GPRMC,211423.180,A,3242.6799,N,11622.7627,W,46.39,300.34,250210,,*23
$GPRMC,211424.180,A,3242.6866,N,11622.7759,W,46.54,301.30,250210,,*2D
$GPRMC,211425.180,A,3242.6937,N,11622.7887,W,46.71,302.68,250210,,*2C
$GPRMC,211426.180,A,3242.7009,N,11622.8016,W,46.98,302.74,250210,,*2F
$GPRMC,211427.180,A,3242.7083,N,11622.8143,W,46.85,303.84,250210,,*2F
$GPRMC,211428.180,A,3242.7160,N,11622.8268,W,46.80,304.89,250210,,*29
$GPRMC,211430.180,A,3242.7312,N,11622.8516,W,46.05,305.12,250210,,*27
$GPRMC,211431.180,A,3242.7388,N,11622.8634,W,44.96,306.25,250210,,*29
$GPRMC,211432.180,A,3242.7463,N,11622.8749,W,43.59,306.98,250210,,*21
$GPRMC,211433.180,A,3242.7537,N,11622.8858,W,42.13,307.57,250210,,*22
$GPRMC,211436.179,A,3242.7749,N,11622.9162,W,38.59,309.63,250210,,*21
$GPRMC,211437.179,A,3242.7818,N,11622.9256,W,37.49,310.15,250210,,*28
$GPRMC,211438.179,A,3242.7885,N,11622.9346,W,36.42,310.31,250210,,*2F
$GPRMC,211439.179,A,3242.7952,N,11622.9435,W,35.74,310.51,250210,,*26
$GPRMC,211440.179,A,3242.8019,N,11622.9522,W,35.38,311.16,250210,,*2C
$GPRMC,211441.179,A,3242.8086,N,11622.9609,W,35.60,311.78,250210,,*24
$GPRMC,211442.179,A,3242.8154,N,11622.9697,W,36.02,312.42,250210,,*23
$GPRMC,211443.179,A,3242.8225,N,11622.9785,W,36.62,313.11,250210,,*24
$GPRMC,211445.179,A,3242.8370,N,11622.9960,W,37.44,314.26,250210,,*20
$GPRMC,211446.179,A,3242.8444,N,11623.0049,W,38.10,314.62,250210,,*27
$GPRMC,211447.179,A,3242.8520,N,11623.0139,W,38.51,314.73,250210,,*26
$GPRMC,211448.179,A,3242.8596,N,11623.0231,W,38.99,314.57,250210,,*2D
$GPRMC,211451.178,A,3242.8832,N,11623.0511,W,40.42,314.74,250210,,*2A
$GPRMC,211452.178,A,3242.8911,N,11623.0607,W,40.84,314.41,250210,,*21
$GPRMC,211453.178,A,3242.8992,N,11623.0703,W,41.27,314.72,250210,,*26
$GPRMC,211454.178,A,3242.9075,N,11623.0800,W,41.80,315.03,250210,,*26
$GPRMC,211455.178,A,3242.9158,N,11623.0899,W,42.29,314.84,250210,,*27
$GPRMC,211456.178,A,3242.9242,N,11623.0999,W,42.76,314.83,250210,,*20
$GPRMC,211457.178,A,3242.9328,N,11623.1099,W,43.28,315.01,250210,,*25
$GPRMC,211458.178,A,3242.9415,N,11623.1200,W,43.67,315.42,250210,,*2D
$GPRMC,211500.178,A,3242.9591,N,11623.1407,W,44.57,314.74,250210,,*2D
$GPRMC,211501.178,A,3242.9680,N,11623.1513,W,44.94,314.70,250210,,*20
$GPRMC,211502.178,A,3242.9768,N,11623.1619,W,45.21,314.40,250210,,*21
$GPRMC,211503.178,A,3242.9858,N,11623.1726,W,45.58,314.65,250210,,*28
$GPRMC,211506.177,A,3243.0134,N,11623.2048,W,46.51,315.16,250210,,*2A
$GPRMC,211507.177,A,3243.0226,N,11623.2157,W,46.77,314.70,250210,,*21
$GPRMC,211508.177,A,3243.0318,N,11623.2268,W,46.96,314.32,250210,,*24
$GPRMC,211509.177,A,3243.0409,N,11623.2380,W,47.34,313.50,250210,,*2F
$GPRMC,211510.177,A,3243.0499,N,11623.2494,W,47.59,312.70,250210,,*24
$GPRMC,211511.177,A,3243.0589,N,11623.2611,W,47.85,311.82,250210,,*25
$GPRMC,211512.177,A,3243.0678,N,11623.2729,W,48.03,311.12,250210,,*29
$GPRMC,211513.177,A,3243.0764,N,11623.2851,W,48.24,310.10,250210,,*22
$GPRMC,211515.177,A,3243.0934,N,11623.3101,W,48.70,308.04,250210,,*2F
$GPRMC,211516.177,A,3243.1017,N,11623.3229,W,48.87,307.19,250210,,*27
$GPRMC,211517.177,A,3243.1098,N,11623.3361,W,49.33,305.96,250210,,*27
$GPRMC,211518.177,A,3243.1178,N,11623.3494,W,49.66,305.42,250210,,*23
$GPRMC,211521.177,A,3243.1411,N,11623.3909,W,50.52,302.74,250210,,*27
$GPRMC,211522.176,A,3243.1486,N,11623.4052,W,50.83,301.73,250210,,*23
$GPRMC,211523.176,A,3243.1559,N,11623.4197,W,51.20,300.76,250210,,*25
$GPRMC,211524.176,A,3243.1633,N,11623.4345,W,51.70,300.43,250210,,*23
$GPRMC,211525.176,A,3243.1707,N,11623.4492,W,51.97,300.68,250210,,*29
$GPRMC,211526.176,A,3243.1782,N,11623.4641,W,52.18,300.58,250210,,*2C
$GPRMC,211527.176,A,3243.1856,N,11623.4791,W,52.47,300.44,250210,,*20
$GPRMC,211528.176,A,3243.1931,N,11623.4941,W,52.74,300.65,250210,,*2F
$GPRMC,211530.176,A,3243.2082,N,11623.5243,W,53.26,300.44,250210,,*29
$GPRMC,211531.176,A,3243.2158,N,11623.5396,W,53.49,300.36,250210,,*2B
$GPRMC,211532.176,A,3243.2233,N,11623.5553,W,53.78,300.28,250210,,*24
$GPRMC,211533.176,A,3243.2310,N,11623.5706,W,53.96,300.33,250210,,*2D
$GPRMC,211536.176,A,3243.2541,N,11623.6168,W,54.72,300.60,250210,,*2C
$GPRMC,211537.175,A,3243.2619,N,11623.6324,W,54.92,300.37,250210,,*26
$GPRMC,211538.175,A,3243.2697,N,11623.6481,W,55.06,300.28,250210,,*25
$GPRMC,211539.175,A,3243.2774,N,11623.6637,W,55.35,300.27,250210,,*28
$GPRMC,211540.175,A,3243.2854,N,11623.6795,W,55.49,300.57,250210,,*2E
$GPRMC,211541.175,A,3243.2934,N,11623.6952,W,55.64,300.86,250210,,*2E
$GPRMC,211542.175,A,3243.3013,N,11623.7110,W,55.84,300.54,250210,,*2E
$GPRMC,211543.175,A,3243.3092,N,11623.7268,W,55.95,300.42,250210,,*2D
$GPRMC,211545.175,A,3243.3251,N,11623.7585,W,56.36,300.59,250210,,*22
$GPRMC,211546.175,A,3243.3314,N,11623.7715,W,56.51,300.12,250210,,*24
$GPRMC,211547.175,A,3243.3394,N,11623.7877,W,56.64,300.41,250210,,*26
$GPRMC,211548.175,A,3243.3475,N,11623.8040,W,56.85,300.64,250210,,*2A
$GPRMC,211551.175,A,3243.3721,N,11623.8527,W,57.35,300.94,250210,,*21
$GPRMC,211552.175,A,3243.3804,N,11623.8691,W,57.54,300.69,250210,,*21
$GPRMC,211553.174,A,3243.3886,N,11623.8855,W,57.78,300.61,250210,,*2B
$GPRMC,211554.174,A,3243.3968,N,11623.9020,W,57.92,300.31,250210,,*27
$GPRMC,211555.174,A,3243.4049,N,11623.9186,W,58.08,300.21,250210,,*2B
$GPRMC,211556.174,A,3243.4130,N,11623.9352,W,58.09,300.06,250210,,*28
$GPRMC,211557.174,A,3243.4213,N,11623.9519,W,58.36,300.38,250210,,*23
$GPRMC,211558.174,A,3243.4295,N,11623.9685,W,58.28,300.12,250210,,*23
$GPRMC,211600.174,A,3243.4457,N,11624.0020,W,58.72,299.52,250210,,*28
$GPRMC,211601.174,A,3243.4537,N,11624.0189,W,58.38,299.00,250210,,*25
$GPRMC,211602.174,A,3243.4615,N,11624.0358,W,58.53,298.39,250210,,*2D
$GPRMC,211603.174,A,3243.4691,N,11624.0529,W,58.41,297.29,250210,,*2D
$GPRMC,211606.174,A,3243.4907,N,11624.1056,W,58.91,295.33,250210,,*20
$GPRMC,211607.174,A,3243.4977,N,11624.1233,W,58.75,295.54,250210,,*2C
$GPRMC,211608.173,A,3243.5046,N,11624.1409,W,58.66,295.16,250210,,*25
$GPRMC,211609.173,A,3243.5114,N,11624.1586,W,58.65,294.44,250210,,*21
$GPRMC,211610.173,A,3243.5181,N,11624.1763,W,58.68,293.86,250210,,*28
$GPRMC,211611.173,A,3243.5246,N,11624.1940,W,58.74,293.00,250210,,*2D
$GPRMC,211612.173,A,3243.5307,N,11624.2119,W,58.78,292.29,250210,,*2B
$GPRMC,211613.173,A,3243.5368,N,11624.2299,W,58.65,291.46,250210,,*2E
$GPRMC,211615.173,A,3243.5486,N,11624.2661,W,58.63,290.79,250210,,*27
$GPRMC,211616.173,A,3243.5543,N,11624.2841,W,58.45,290.23,250210,,*2B
$GPRMC,211617.173,A,3243.5599,N,11624.3022,W,58.35,289.68,250210,,*21
$GPRMC,211618.173,A,3243.5652,N,11624.3205,W,58.34,288.89,250210,,*22
$GPRMC,211621.173,A,3243.5800,N,11624.3751,W,57.74,287.00,250210,,*20
$GPRMC,211622.173,A,3243.5846,N,11624.3933,W,57.66,286.45,250210,,*28
$GPRMC,211623.173,A,3243.5890,N,11624.4115,W,57.22,286.11,250210,,*28
$GPRMC,211624.172,A,3243.5934,N,11624.4296,W,56.95,285.87,250210,,*28
$GPRMC,211625.172,A,3243.5975,N,11624.4476,W,56.61,284.88,250210,,*21
$GPRMC,211626.172,A,3243.6015,N,11624.4656,W,56.44,284.86,250210,,*27
$GPRMC,211627.172,A,3243.6054,N,11624.4835,W,56.17,284.32,250210,,*21
$GPRMC,211628.172,A,3243.6091,N,11624.5014,W,55.82,283.66,250210,,*24
$GPRMC,211630.172,A,3243.6158,N,11624.5370,W,54.98,281.52,250210,,*27
$GPRMC,211631.172,A,3243.6188,N,11624.5546,W,54.62,281.60,250210,,*2C
$GPRMC,211632.172,A,3243.6217,N,11624.5722,W,54.40,281.19,250210,,*24
$GPRMC,211633.172,A,3243.6245,N,11624.5896,W,53.92,280.84,250210,,*2F
$GPRMC,211636.172,A,3243.6321,N,11624.6416,W,52.83,279.70,250210,,*22
$GPRMC,211637.172,A,3243.6346,N,11624.6587,W,52.53,280.56,250210,,*24
$GPRMC,211638.172,A,3243.6373,N,11624.6756,W,52.21,280.40,250210,,*21
$GPRMC,211639.171,A,3243.6398,N,11624.6925,W,51.95,280.14,250210,,*21
$GPRMC,211640.171,A,3243.6424,N,11624.7093,W,51.60,280.27,250210,,*20
$GPRMC,211641.171,A,3243.6448,N,11624.7259,W,51.30,280.13,250210,,*2D
$GPRMC,211642.171,A,3243.6472,N,11624.7425,W,50.91,279.84,250210,,*28
$GPRMC,211643.171,A,3243.6496,N,11624.7589,W,50.65,279.86,250210,,*2D
