NMEA Sentence Code,UTC Time,Status,Latitude,Latitude Direction,Longitude,Longitude Direction,Speed (knots),Track Angle (degrees true),Date,MagneticVariation,Magnetic Variation Direction,[FAA Mode]-Optional,Checksum
$GPRMC,025957.000,A,3257.2573,N,11703.4075,W,33.05,47.60,271210,,,A*75
$GPRMC,030000.000,A,3257.2762,N,11703.3829,W,34.99,47.00,271210,,,A*7A
$GPRMC,030003.000,A,3257.2957,N,11703.3575,W,34.52,48.20,271210,,,A*7F
$GPRMC,030006.000,A,3257.3151,N,11703.3320,W,35.00,47.90,271210,,,A*71
$GPRMC,030009.000,A,3257.3347,N,11703.3063,W,34.02,48.10,271210,,,A*7B
$GPRMC,030012.000,A,3257.3526,N,11703.2824,W,28.67,50.40,271210,,,A*78
$GPRMC,030015.000,A,3257.3645,N,11703.2642,W,17.04,56.20,271210,,,A*7E
$GPRMC,030018.000,A,3257.3704,N,11703.2528,W,10.69,61.40,271210,,,A*76
$GPRMC,030027.000,A,3257.3727,N,11703.2481,W,4.37,61.60,271210,,,A*45
$GPRMC,030030.000,A,3257.3766,N,11703.2392,W,15.58,64.00,271210,,,A*79
$GPRMC,030033.000,A,3257.3829,N,11703.2206,W,24.80,71.00,271210,,,A*71
$GPRMC,030036.000,A,3257.3893,N,11703.1930,W,33.06,77.70,271210,,,A*71
$GPRMC,030038.000,A,3257.3927,N,11703.1698,W,37.42,81.10,271210,,,A*77
$GPRMC,030042.000,A,3257.3940,N,11703.1207,W,41.79,88.90,271210,,,A*71
$GPRMC,030044.000,A,3257.3939,N,11703.0939,W,39.36,90.70,271210,,,A*7D
$GPRMC,030048.000,A,3257.3929,N,11703.0432,W,37.42,91.40,271210,,,A*79
$GPRMC,030051.000,A,3257.3923,N,11703.0067,W,35.98,91.00,271210,,,A*7E
$GPRMC,030054.000,A,3257.3919,N,11702.9708,W,35.49,91.10,271210,,,A*79
$GPRMC,030057.000,A,3257.3913,N,11702.9362,W,34.99,91.60,271210,,,A*73
$GPRMC,030100.000,A,3257.3906,N,11702.9016,W,35.00,90.80,271210,,,A*7A
$GPRMC,030103.000,A,3257.3903,N,11702.8685,W,30.13,90.80,271210,,,A*76
$GPRMC,030106.000,A,3257.3899,N,11702.8432,W,20.90,90.70,271210,,,A*7A
$GPRMC,030109.000,A,3257.3897,N,11702.8265,W,13.12,90.80,271210,,,A*7A
$GPRMC,030142.000,A,3257.3901,N,11702.8125,W,4.37,93.20,271210,,,A*44
$GPRMC,030145.000,A,3257.3906,N,11702.7823,W,23.81,87.80,271210,,,A*73
$GPRMC,030149.000,A,3257.3884,N,11702.7201,W,34.99,91.90,271210,,,A*77
$GPRMC,030151.000,A,3257.3885,N,11702.6767,W,36.93,90.40,271210,,,A*7F
$GPRMC,030155.000,A,3257.3880,N,11702.6406,W,35.48,90.50,271210,,,A*7E
$GPRMC,030200.000,A,3257.3866,N,11702.5747,W,31.59,91.80,271210,,,A*78
$GPRMC,030203.000,A,3257.3840,N,11702.5444,W,30.13,93.40,271210,,,A*7E
$GPRMC,030207.000,A,3257.3834,N,11702.5156,W,24.30,91.30,271210,,,A*7E
$GPRMC,030210.000,A,3257.3838,N,11702.4946,W,17.98,92.10,271210,,,A*7F
$GPRMC,030213.000,A,3257.3840,N,11702.4807,W,9.72,90.90,271210,,,A*46
$GPRMC,030220.000,A,3257.3844,N,11702.4694,W,7.29,90.90,271210,,,A*46
$GPRMC,030223.000,A,3257.3840,N,11702.4562,W,14.58,94.80,271210,,,A*7A
$GPRMC,030226.000,A,3257.3852,N,11702.4345,W,22.84,90.10,271210,,,A*76
$GPRMC,030228.000,A,3257.3831,N,11702.4195,W,22.84,93.10,271210,,,A*71
$GPRMC,030232.000,A,3257.3832,N,11702.3922,W,25.76,90.90,271210,,,A*7B
$GPRMC,030235.000,A,3257.3832,N,11702.3649,W,28.67,91.10,271210,,,A*7A
$GPRMC,030238.000,A,3257.3833,N,11702.3348,W,30.63,91.00,271210,,,A*7E
$GPRMC,030241.000,A,3257.3828,N,11702.3045,W,30.13,91.00,271210,,,A*73
$GPRMC,030244.000,A,3257.3825,N,11702.2750,W,29.65,90.50,271210,,,A*74
$GPRMC,030247.000,A,3257.3822,N,11702.2454,W,30.62,90.50,271210,,,A*78
$GPRMC,030250.000,A,3257.3821,N,11702.2135,W,33.05,90.50,271210,,,A*7D
$GPRMC,030253.000,A,3257.3817,N,11702.1802,W,34.02,90.60,271210,,,A*76
$GPRMC,030256.000,A,3257.3815,N,11702.1471,W,33.05,90.10,271210,,,A*7E
$GPRMC,030259.000,A,3257.3814,N,11702.1147,W,33.05,90.90,271210,,,A*78
$GPRMC,030302.000,A,3257.3806,N,11702.0818,W,33.53,91.10,271210,,,A*7C
$GPRMC,030305.000,A,3257.3803,N,11702.0414,W,33.05,90.30,271210,,,A*7E
$GPRMC,030308.000,A,3257.3800,N,11702.0086,W,33.53,90.40,271210,,,A*7B
$GPRMC,030311.000,A,3257.3787,N,11701.9763,W,33.53,90.40,271210,,,A*75
$GPRMC,030314.000,A,3257.3784,N,11701.9415,W,34.02,90.60,271210,,,A*70
$GPRMC,030317.000,A,3257.3795,N,11701.9073,W,33.05,90.50,271210,,,A*74
$GPRMC,030320.000,A,3257.3803,N,11701.8734,W,33.53,89.80,271210,,,A*73
$GPRMC,030323.000,A,3257.3781,N,11701.8413,W,33.53,92.10,271210,,,A*70
$GPRMC,030326.000,A,3257.3789,N,11701.8071,W,34.02,90.40,271210,,,A*79
$GPRMC,030329.000,A,3257.3771,N,11701.7738,W,34.02,91.30,271210,,,A*72
$GPRMC,030332.000,A,3257.3780,N,11701.7396,W,34.02,89.60,271210,,,A*7A
$GPRMC,030334.000,A,3257.3764,N,11701.7182,W,34.02,92.30,271210,,,A*7E
$GPRMC,030338.000,A,3257.3745,N,11701.6734,W,33.53,91.70,271210,,,A*7F
$GPRMC,030343.000,A,3257.3765,N,11701.6153,W,35.96,88.80,271210,,,A*7E
$GPRMC,030346.000,A,3257.3755,N,11701.5795,W,34.99,90.80,271210,,,A*70
$GPRMC,030349.000,A,3257.3757,N,11701.5446,W,34.02,90.30,271210,,,A*79
$GPRMC,030352.000,A,3257.3752,N,11701.5128,W,33.53,90.80,271210,,,A*73
$GPRMC,030355.000,A,3257.3762,N,11701.4825,W,31.10,82.70,271210,,,A*7B
$GPRMC,030358.000,A,3257.3815,N,11701.4618,W,31.10,72.40,271210,,,A*75
$GPRMC,030401.000,A,3257.4000,N,11701.4277,W,30.13,51.20,271210,,,A*7D
$GPRMC,030405.000,A,3257.4257,N,11701.4009,W,30.62,35.20,271210,,,A*76
$GPRMC,030408.000,A,3257.4567,N,11701.3891,W,34.99,13.60,271210,,,A*71
$GPRMC,030411.000,A,3257.4873,N,11701.3855,W,36.45,02.10,271210,,,A*7D
$GPRMC,030412.000,A,3257.4984,N,11701.3856,W,37.91,00.90,271210,,,A*76
$GPRMC,030417.000,A,3257.5612,N,11701.3883,W,44.71,358.90,271210,,,A*4E
$GPRMC,030420.000,A,3257.5956,N,11701.3887,W,43.25,00.50,271210,,,A*75
$GPRMC,030425.000,A,3257.6586,N,11701.3870,W,44.22,01.30,271210,,,A*7D
$GPRMC,030428.000,A,3257.7002,N,11701.3865,W,47.14,00.90,271210,,,A*71
$GPRMC,030430.000,A,3257.7259,N,11701.3854,W,46.17,01.80,271210,,,A*74
$GPRMC,030434.000,A,3257.7672,N,11701.3798,W,46.17,10.20,271210,,,A*78
$GPRMC,030437.000,A,3257.8027,N,11701.3675,W,44.22,20.10,271210,,,A*74
$GPRMC,030440.000,A,3257.8349,N,11701.3474,W,45.24,31.70,271210,,,A*7D
$GPRMC,030443.000,A,3257.8649,N,11701.3227,W,45.21,34.00,271210,,,A*7C
$GPRMC,030446.000,A,3257.8946,N,11701.2968,W,45.69,34.50,271210,,,A*71
$GPRMC,030449.000,A,3257.9246,N,11701.2706,W,45.69,34.20,271210,,,A*75
$GPRMC,030452.000,A,3257.9553,N,11701.2449,W,46.18,34.00,271210,,,A*73
$GPRMC,030455.000,A,3257.9860,N,11701.2180,W,45.69,35.20,271210,,,A*7F
$GPRMC,030458.000,A,3258.0156,N,11701.1916,W,45.21,34.80,271210,,,A*7B
$GPRMC,030501.000,A,3258.0449,N,11701.1644,W,45.72,37.70,271210,,,A*7F
$GPRMC,030504.000,A,3258.0739,N,11701.1336,W,47.64,45.10,271210,,,A*78
$GPRMC,030507.000,A,3258.0998,N,11701.0981,W,46.66,52.90,271210,,,A*74
$GPRMC,030510.000,A,3258.1208,N,11701.0630,W,47.14,54.90,271210,,,A*76
$GPRMC,030513.000,A,3258.1469,N,11701.0147,W,43.25,56.50,271210,,,A*7B
$GPRMC,030515.000,A,3258.1624,N,11700.9893,W,45.69,54.50,271210,,,A*72
$GPRMC,030519.000,A,3258.1861,N,11700.9509,W,43.43,53.80,271210,,,A*7B
$GPRMC,030522.000,A,3258.2077,N,11700.9169,W,42.33,52.50,271210,,,A*77
$GPRMC,030525.000,A,3258.2288,N,11700.8816,W,43.74,54.80,271210,,,A*7B
$GPRMC,030528.000,A,3258.2496,N,11700.8466,W,43.74,56.40,271210,,,A*7A
$GPRMC,030531.000,A,3258.2707,N,11700.8136,W,43.26,55.10,271210,,,A*78
$GPRMC,030534.000,A,3258.2910,N,11700.7781,W,43.75,58.00,271210,,,A*7A
$GPRMC,030537.000,A,3258.3117,N,11700.7457,W,42.29,56.70,271210,,,A*7E
$GPRMC,030540.000,A,3258.3289,N,11700.7114,W,43.78,63.90,271210,,,A*75
$GPRMC,030543.000,A,3258.3412,N,11700.6723,W,44.24,71.60,271210,,,A*73
$GPRMC,030547.000,A,3258.3485,N,11700.6158,W,44.24,80.00,271210,,,A*7B
$GPRMC,030550.000,A,3258.3517,N,11700.5744,W,43.25,83.10,271210,,,A*7B
$GPRMC,030553.000,A,3258.3547,N,11700.5279,W,44.24,88.90,271210,,,A*73
$GPRMC,030556.000,A,3258.3544,N,11700.4842,W,42.78,89.80,271210,,,A*79
$GPRMC,030559.000,A,3258.3606,N,11700.4445,W,39.36,78.90,271210,,,A*71
$GPRMC,030602.000,A,3258.3744,N,11700.4036,W,44.32,71.30,271210,,,A*76
$GPRMC,030605.000,A,3258.3875,N,11700.3625,W,42.33,71.30,271210,,,A*78
$GPRMC,030608.000,A,3258.3976,N,11700.3282,W,31.12,71.20,271210,,,A*78
$GPRMC,030611.000,A,3258.4060,N,11700.2991,W,31.60,71.60,271210,,,A*70
$GPRMC,030614.000,A,3258.4142,N,11700.2709,W,29.18,71.00,271210,,,A*7B
$GPRMC,030617.000,A,3258.4233,N,11700.2421,W,32.58,67.30,271210,,,A*7E
$GPRMC,030620.000,A,3258.4366,N,11700.2106,W,37.47,61.80,271210,,,A*7D
$GPRMC,030623.000,A,3258.4534,N,11700.1779,W,40.38,55.00,271210,,,A*75
$GPRMC,030626.000,A,3258.4743,N,11700.1446,W,43.30,53.10,271210,,,A*71
$GPRMC,030628.000,A,3258.4894,N,11700.1213,W,45.24,53.10,271210,,,A*7F
$GPRMC,030631.000,A,3258.5184,N,11700.0748,W,48.12,53.50,271210,,,A*78
$GPRMC,030635.000,A,3258.5469,N,11700.0310,W,52.52,53.10,271210,,,A*78
$GPRMC,030638.000,A,3258.5659,N,11659.9903,W,49.57,62.80,271210,,,A*7C
$GPRMC,030642.000,A,3258.5721,N,11659.9184,W,46.66,89.20,271210,,,A*7A
$GPRMC,030645.000,A,3258.5680,N,11659.8733,W,45.20,95.10,271210,,,A*73
$GPRMC,030648.000,A,3258.5654,N,11659.8297,W,44.71,91.20,271210,,,A*7E
$GPRMC,030651.000,A,3258.5689,N,11659.7858,W,45.20,83.40,271210,,,A*70
$GPRMC,030654.000,A,3258.5810,N,11659.7431,W,44.71,75.30,271210,,,A*73
$GPRMC,030657.000,A,3258.5882,N,11659.6994,W,45.68,79.30,271210,,,A*7D
$GPRMC,030700.000,A,3258.5931,N,11659.6551,W,45.21,82.10,271210,,,A*79
$GPRMC,030704.000,A,3258.5988,N,11659.5977,W,43.74,82.30,271210,,,A*70
$GPRMC,030707.000,A,3258.6083,N,11659.5503,W,46.65,77.10,271210,,,A*70
$GPRMC,030710.000,A,3258.6221,N,11659.5051,W,46.65,71.90,271210,,,A*70
$GPRMC,030713.000,A,3258.6327,N,11659.4615,W,44.72,74.60,271210,,,A*7D
$GPRMC,030716.000,A,3258.6403,N,11659.4157,W,46.65,78.80,271210,,,A*7E
$GPRMC,030719.000,A,3258.6486,N,11659.3713,W,44.72,76.10,271210,,,A*7E
$GPRMC,030722.000,A,3258.6599,N,11659.3287,W,42.78,69.30,271210,,,A*71
$GPRMC,030725.000,A,3258.6829,N,11659.2921,W,44.22,55.70,271210,,,A*74
$GPRMC,030728.000,A,3258.7037,N,11659.2564,W,45.20,57.80,271210,,,A*7C
$GPRMC,030731.000,A,3258.7159,N,11659.2120,W,47.14,72.00,271210,,,A*73
$GPRMC,030735.000,A,3258.7159,N,11659.1658,W,45.69,88.90,271210,,,A*78
$GPRMC,030738.000,A,3258.7078,N,11659.1076,W,45.68,95.80,271210,,,A*71
$GPRMC,030741.000,A,3258.7026,N,11659.0633,W,45.20,97.10,271210,,,A*75
$GPRMC,030744.000,A,3258.6975,N,11659.0165,W,46.65,98.00,271210,,,A*76
$GPRMC,030747.000,A,3258.6898,N,11658.9711,W,46.18,99.90,271210,,,A*78
$GPRMC,030750.000,A,3258.6813,N,11658.9268,W,45.69,101.80,271210,,,A*42
$GPRMC,030753.000,A,3258.6741,N,11658.8823,W,45.69,100.60,271210,,,A*42
$GPRMC,030756.000,A,3258.6675,N,11658.8357,W,46.65,98.90,271210,,,A*79
$GPRMC,030759.000,A,3258.6588,N,11658.7903,W,47.63,98.40,271210,,,A*79
$GPRMC,030802.000,A,3258.6594,N,11658.7446,W,46.17,89.20,271210,,,A*7D
$GPRMC,030805.000,A,3258.6655,N,11658.7027,W,44.22,83.40,271210,,,A*7F
$GPRMC,030808.000,A,3258.6710,N,11658.6573,W,45.68,81.10,271210,,,A*7F
$GPRMC,030811.000,A,3258.6774,N,11658.6115,W,45.68,80.80,271210,,,A*79
$GPRMC,030814.000,A,3258.6867,N,11658.5631,W,48.60,79.60,271210,,,A*7E
$GPRMC,030818.000,A,3258.6929,N,11658.5125,W,44.24,81.80,271210,,,A*7E
$GPRMC,030821.000,A,3258.6965,N,11658.4738,W,35.49,83.70,271210,,,A*77
$GPRMC,030824.000,A,3258.6999,N,11658.4448,W,27.22,80.80,271210,,,A*77
$GPRMC,030827.000,A,3258.7043,N,11658.4237,W,18.49,67.60,271210,,,A*73
$GPRMC,030909.000,A,3258.7127,N,11658.4089,W,6.87,30.40,271210,,,A*47
$GPRMC,030912.000,A,3258.7289,N,11658.4039,W,17.04,06.10,271210,,,A*7A
$GPRMC,030915.000,A,3258.7581,N,11658.4142,W,34.03,344.00,271210,,,A*4D
$GPRMC,030917.000,A,3258.7788,N,11658.4212,W,37.96,344.80,271210,,,A*45
$GPRMC,030921.000,A,3258.8245,N,11658.4368,W,44.27,344.40,271210,,,A*45
$GPRMC,030924.000,A,3258.8611,N,11658.4487,W,47.23,345.40,271210,,,A*45
$GPRMC,030927.000,A,3258.9002,N,11658.4603,W,49.61,347.10,271210,,,A*42
$GPRMC,030930.000,A,3258.9412,N,11658.4702,W,50.55,349.10,271210,,,A*40
$GPRMC,030933.000,A,3258.9832,N,11658.4793,W,51.03,349.60,271210,,,A*40
$GPRMC,030937.000,A,3259.0485,N,11658.4929,W,50.54,350.30,271210,,,A*4D
$GPRMC,030940.000,A,3259.0910,N,11658.5012,W,51.51,348.10,271210,,,A*43
$GPRMC,030943.000,A,3259.1291,N,11658.5158,W,49.57,339.40,271210,,,A*40
$GPRMC,030946.000,A,3259.1677,N,11658.5391,W,50.54,331.70,271210,,,A*4E
$GPRMC,030949.000,A,3259.2018,N,11658.5689,W,51.03,321.50,271210,,,A*41
$GPRMC,030952.000,A,3259.2297,N,11658.6080,W,52.49,310.80,271210,,,A*40
$GPRMC,030955.000,A,3259.2556,N,11658.6511,W,53.46,305.90,271210,,,A*4B
$GPRMC,030958.000,A,3259.2795,N,11658.6929,W,51.03,306.40,271210,,,A*41
$GPRMC,031001.000,A,3259.3107,N,11658.7272,W,48.60,317.30,271210,,,A*47
$GPRMC,031004.000,A,3259.3500,N,11658.7509,W,49.08,336.70,271210,,,A*42
$GPRMC,031007.000,A,3259.3904,N,11658.7619,W,48.60,351.10,271210,,,A*43
$GPRMC,031010.000,A,3259.4329,N,11658.7618,W,49.57,02.50,271210,,,A*72
$GPRMC,031013.000,A,3259.4749,N,11658.7539,W,50.54,11.30,271210,,,A*7C
$GPRMC,031016.000,A,3259.5139,N,11658.7399,W,49.09,18.50,271210,,,A*7A
$GPRMC,031019.000,A,3259.5490,N,11658.7221,W,47.63,25.40,271210,,,A*7C
$GPRMC,031022.000,A,3259.5852,N,11658.6945,W,50.54,36.50,271210,,,A*7F
$GPRMC,031025.000,A,3259.6128,N,11658.6636,W,49.09,44.00,271210,,,A*74
$GPRMC,031028.000,A,3259.6394,N,11658.6249,W,50.54,50.90,271210,,,A*7C
$GPRMC,031031.000,A,3259.6637,N,11658.5848,W,50.54,52.80,271210,,,A*73
$GPRMC,031034.000,A,3259.6898,N,11658.5426,W,52.00,53.60,271210,,,A*75
$GPRMC,031037.000,A,3259.7122,N,11658.4995,W,51.03,58.70,271210,,,A*71
$GPRMC,031040.000,A,3259.7292,N,11658.4526,W,51.51,66.10,271210,,,A*71
$GPRMC,031043.000,A,3259.7440,N,11658.4055,W,50.06,69.00,271210,,,A*77
$GPRMC,031046.000,A,3259.7573,N,11658.3586,W,51.03,71.10,271210,,,A*73
$GPRMC,031049.000,A,3259.7704,N,11658.3103,W,50.54,72.30,271210,,,A*75
$GPRMC,031052.000,A,3259.7804,N,11658.2610,W,51.03,77.20,271210,,,A*73
$GPRMC,031055.000,A,3259.7838,N,11658.2108,W,51.51,82.40,271210,,,A*7E
$GPRMC,031058.000,A,3259.7893,N,11658.1604,W,50.54,80.00,271210,,,A*78
$GPRMC,031101.000,A,3259.8038,N,11658.1131,W,51.03,72.70,271210,,,A*7B
$GPRMC,031104.000,A,3259.8188,N,11658.0653,W,50.54,70.30,271210,,,A*73
$GPRMC,031107.000,A,3259.8353,N,11658.0183,W,51.03,67.80,271210,,,A*70
$GPRMC,031110.000,A,3259.8558,N,11657.9750,W,50.54,64.40,271210,,,A*79
$GPRMC,031113.000,A,3259.8700,N,11657.9280,W,50.54,69.60,271210,,,A*72
$GPRMC,031116.000,A,3259.8784,N,11657.8792,W,50.06,76.70,271210,,,A*74
$GPRMC,031119.000,A,3259.8836,N,11657.8311,W,49.57,79.80,271210,,,A*7E
$GPRMC,031122.000,A,3259.8906,N,11657.7821,W,49.57,80.20,271210,,,A*7F
$GPRMC,031125.000,A,3259.8978,N,11657.7322,W,50.54,81.40,271210,,,A*75
$GPRMC,031128.000,A,3259.9021,N,11657.6818,W,50.06,83.50,271210,,,A*7B
$GPRMC,031131.000,A,3259.9097,N,11657.6339,W,49.08,78.70,271210,,,A*76
$GPRMC,031134.000,A,3259.9241,N,11657.5874,W,47.63,69.10,271210,,,A*7E
$GPRMC,031137.000,A,3259.9431,N,11657.5481,W,46.17,56.30,271210,,,A*76
$GPRMC,031140.000,A,3259.9750,N,11657.5154,W,47.63,38.20,271210,,,A*74
$GPRMC,031143.000,A,3300.0151,N,11657.4933,W,50.06,23.20,271210,,,A*73
$GPRMC,031146.000,A,3300.0556,N,11657.4802,W,50.06,13.00,271210,,,A*77
$GPRMC,031149.000,A,3300.1001,N,11657.4732,W,52.97,08.00,271210,,,A*72
$GPRMC,031152.000,A,3300.1404,N,11657.4693,W,50.54,06.40,271210,,,A*74
$GPRMC,031154.000,A,3300.1679,N,11657.4634,W,50.54,11.30,271210,,,A*76
$GPRMC,031158.000,A,3300.2209,N,11657.4399,W,52.00,23.70,271210,,,A*7E
$GPRMC,031201.000,A,3300.2565,N,11657.4134,W,51.03,29.60,271210,,,A*72
$GPRMC,031204.000,A,3300.2952,N,11657.3911,W,51.03,26.70,271210,,,A*79
$GPRMC,031207.000,A,3300.3318,N,11657.3715,W,49.57,23.10,271210,,,A*7E
$GPRMC,031210.000,A,3300.3725,N,11657.3531,W,51.03,19.00,271210,,,A*76
$GPRMC,031213.000,A,3300.4135,N,11657.3377,W,51.03,17.70,271210,,,A*78
$GPRMC,031216.000,A,3300.4530,N,11657.3219,W,50.54,18.10,271210,,,A*7F
$GPRMC,031219.000,A,3300.4935,N,11657.3073,W,50.54,17.60,271210,,,A*7F
$GPRMC,031222.000,A,3300.5332,N,11657.2931,W,50.54,15.40,271210,,,A*75
$GPRMC,031225.000,A,3300.5749,N,11657.2788,W,50.54,13.30,271210,,,A*77
$GPRMC,031228.000,A,3300.6154,N,11657.2694,W,49.57,10.80,271210,,,A*7C
$GPRMC,031231.000,A,3300.6554,N,11657.2599,W,48.60,16.60,271210,,,A*73
$GPRMC,031234.000,A,3300.6914,N,11657.2400,W,48.60,29.00,271210,,,A*75
$GPRMC,031237.000,A,3300.7241,N,11657.2078,W,51.03,42.20,271210,,,A*75
$GPRMC,031240.000,A,3300.7413,N,11657.1636,W,50.07,64.90,271210,,,A*71
$GPRMC,031243.000,A,3300.7483,N,11657.1160,W,49.57,80.90,271210,,,A*78
$GPRMC,031246.000,A,3300.7478,N,11657.0676,W,49.57,93.90,271210,,,A*7A
$GPRMC,031249.000,A,3300.7349,N,11657.0206,W,49.08,106.40,271210,,,A*49
$GPRMC,031252.000,A,3300.7185,N,11656.9759,W,50.06,110.50,271210,,,A*46
$GPRMC,031255.000,A,3300.7096,N,11656.9430,W,50.06,109.70,271210,,,A*44
$GPRMC,031258.000,A,3300.6900,N,11656.8828,W,49.57,111.40,271210,,,A*4C
$GPRMC,031301.000,A,3300.6807,N,11656.8356,W,47.63,104.50,271210,,,A*49
$GPRMC,031304.000,A,3300.6771,N,11656.7862,W,48.60,98.50,271210,,,A*79
$GPRMC,031307.000,A,3300.6710,N,11656.7387,W,49.08,97.20,271210,,,A*7A
$GPRMC,031309.000,A,3300.6670,N,11656.7054,W,50.54,97.90,271210,,,A*74
$GPRMC,031313.000,A,3300.6649,N,11656.6385,W,49.57,96.00,271210,,,A*78
$GPRMC,031316.000,A,3300.6531,N,11656.5917,W,49.08,102.80,271210,,,A*4D
$GPRMC,031319.000,A,3300.6406,N,11656.5470,W,47.63,105.40,271210,,,A*43
$GPRMC,031322.000,A,3300.6357,N,11656.4974,W,50.06,98.00,271210,,,A*74
$GPRMC,031325.000,A,3300.6362,N,11656.4471,W,51.03,89.50,271210,,,A*7C
$GPRMC,031329.000,A,3300.6411,N,11656.3765,W,52.49,85.90,271210,,,A*7F
$GPRMC,031331.000,A,3300.6432,N,11656.3432,W,52.00,85.60,271210,,,A*74
$GPRMC,031335.000,A,3300.6482,N,11656.2857,W,52.98,85.40,271210,,,A*76
$GPRMC,031338.000,A,3300.6517,N,11656.2337,W,52.98,85.20,271210,,,A*7D
$GPRMC,031342.000,A,3300.6563,N,11656.1688,W,53.46,85.40,271210,,,A*75
$GPRMC,031345.000,A,3300.6590,N,11656.0966,W,54.43,87.90,271210,,,A*7D
$GPRMC,031348.000,A,3300.6594,N,11656.0435,W,53.94,90.00,271210,,,A*7D
$GPRMC,031351.000,A,3300.6595,N,11655.9919,W,52.00,90.00,271210,,,A*71
$GPRMC,031354.000,A,3300.6591,N,11655.9426,W,49.57,91.80,271210,,,A*70
$GPRMC,031357.000,A,3300.6592,N,11655.8926,W,49.57,91.80,271210,,,A*7C
$GPRMC,031401.000,A,3300.6488,N,11655.8284,W,49.08,101.80,271210,,,A*43
$GPRMC,031404.000,A,3300.6362,N,11655.7807,W,50.54,106.10,271210,,,A*44
$GPRMC,031407.000,A,3300.6194,N,11655.7374,W,49.08,110.80,271210,,,A*4C
$GPRMC,031410.000,A,3300.6017,N,11655.6928,W,49.08,111.50,271210,,,A*4E
$GPRMC,031413.000,A,3300.5868,N,11655.6470,W,49.08,111.30,271210,,,A*48
$GPRMC,031416.000,A,3300.5716,N,11655.6046,W,46.17,116.70,271210,,,A*48
$GPRMC,031419.000,A,3300.5508,N,11655.5656,W,47.14,121.10,271210,,,A*4E
$GPRMC,031422.000,A,3300.5306,N,11655.5258,W,47.14,119.80,271210,,,A*46
$GPRMC,031425.000,A,3300.5135,N,11655.4841,W,44.71,115.00,271210,,,A*44
$GPRMC,031428.000,A,3300.5110,N,11655.4382,W,46.17,93.80,271210,,,A*7F
$GPRMC,031431.000,A,3300.5158,N,11655.3915,W,47.14,82.00,271210,,,A*72
$GPRMC,031434.000,A,3300.5319,N,11655.3466,W,47.14,65.50,271210,,,A*75
$GPRMC,031437.000,A,3300.5510,N,11655.3071,W,47.14,62.40,271210,,,A*7D
$GPRMC,031440.000,A,3300.5701,N,11655.2665,W,46.65,62.00,271210,,,A*7E
$GPRMC,031443.000,A,3300.5869,N,11655.2225,W,49.08,67.30,271210,,,A*7E
$GPRMC,031446.000,A,3300.5976,N,11655.1764,W,49.08,76.70,271210,,,A*73
$GPRMC,031449.000,A,3300.6002,N,11655.1271,W,50.06,88.10,271210,,,A*75
$GPRMC,031452.000,A,3300.5943,N,11655.0809,W,47.14,99.60,271210,,,A*76
$GPRMC,031456.000,A,3300.5701,N,11655.0225,W,50.06,113.40,271210,,,A*4A
$GPRMC,031459.000,A,3300.5513,N,11654.9787,W,50.06,115.80,271210,,,A*4B
$GPRMC,031502.000,A,3300.5384,N,11654.9317,W,48.11,107.80,271210,,,A*4D
$GPRMC,031505.000,A,3300.5351,N,11654.8849,W,48.11,92.60,271210,,,A*70
$GPRMC,031508.000,A,3300.5456,N,11654.8389,W,48.11,77.50,271210,,,A*72
$GPRMC,031511.000,A,3300.5631,N,11654.8000,W,43.74,58.90,271210,,,A*72
$GPRMC,031514.000,A,3300.5903,N,11654.7644,W,47.63,50.00,271210,,,A*73
$GPRMC,031517.000,A,3300.6205,N,11654.7287,W,49.57,46.00,271210,,,A*7B
$GPRMC,031521.000,A,3300.6590,N,11654.6812,W,48.60,45.80,271210,,,A*7C
$GPRMC,031524.000,A,3300.6880,N,11654.6471,W,48.11,44.70,271210,,,A*74
$GPRMC,031527.000,A,3300.7086,N,11654.6153,W,41.79,49.70,271210,,,A*77
$GPRMC,031530.000,A,3300.7307,N,11654.5843,W,39.36,49.40,271210,,,A*77
$GPRMC,031533.000,A,3300.7488,N,11654.5580,W,34.99,48.60,271210,,,A*7D
$GPRMC,031535.000,A,3300.7616,N,11654.5423,W,32.07,46.00,271210,,,A*7F
$GPRMC,031539.000,A,3300.7772,N,11654.5203,W,17.01,56.10,271210,,,A*75
$GPRMC,031542.000,A,3300.7775,N,11654.5069,W,14.58,97.40,271210,,,A*77
$GPRMC,031545.000,A,3300.7669,N,11654.4927,W,19.93,132.80,271210,,,A*46
$GPRMC,031548.000,A,3300.7508,N,11654.4772,W,27.70,139.60,271210,,,A*44
$GPRMC,031551.000,A,3300.7272,N,11654.4567,W,34.99,143.10,271210,,,A*4F
$GPRMC,031554.000,A,3300.7009,N,11654.4335,W,39.85,143.20,271210,,,A*46
$GPRMC,031557.000,A,3300.6729,N,11654.4099,W,42.28,143.30,271210,,,A*4E
$GPRMC,031600.000,A,3300.6435,N,11654.3827,W,45.20,143.10,271210,,,A*46
$GPRMC,031603.000,A,3300.6099,N,11654.3552,W,48.60,143.50,271210,,,A*45
$GPRMC,031607.000,A,3300.5662,N,11654.3178,W,47.63,144.40,271210,,,A*46
$GPRMC,031610.000,A,3300.5356,N,11654.2906,W,43.74,141.70,271210,,,A*46
$GPRMC,031613.000,A,3300.5168,N,11654.2612,W,39.36,122.50,271210,,,A*4C
$GPRMC,031616.000,A,3300.5078,N,11654.2231,W,38.39,105.90,271210,,,A*4B
$GPRMC,031619.000,A,3300.5086,N,11654.1777,W,44.71,91.00,271210,,,A*73
$GPRMC,031622.000,A,3300.5105,N,11654.1308,W,48.11,88.30,271210,,,A*7C
$GPRMC,031625.000,A,3300.5095,N,11654.0828,W,49.08,90.70,271210,,,A*7F
$GPRMC,031628.000,A,3300.5096,N,11654.0351,W,48.60,90.20,271210,,,A*7E
$GPRMC,031631.000,A,3300.5106,N,11653.9855,W,49.08,89.40,271210,,,A*7E
$GPRMC,031634.000,A,3300.5088,N,11653.9375,W,48.60,91.40,271210,,,A*73
$GPRMC,031637.000,A,3300.5085,N,11653.9071,W,48.11,90.30,271210,,,A*7A
$GPRMC,031640.000,A,3300.5058,N,11653.8404,W,51.03,91.40,271210,,,A*70
$GPRMC,031643.000,A,3300.5062,N,11653.7898,W,51.03,91.00,271210,,,A*78
$GPRMC,031646.000,A,3300.5054,N,11653.7395,W,50.54,91.60,271210,,,A*7B
$GPRMC,031649.000,A,3300.5046,N,11653.6894,W,50.06,90.90,271210,,,A*75
$GPRMC,031652.000,A,3300.5038,N,11653.6394,W,50.54,90.60,271210,,,A*75
$GPRMC,031655.000,A,3300.5030,N,11653.5883,W,50.54,89.80,271210,,,A*72
$GPRMC,031658.000,A,3300.5041,N,11653.5373,W,52.00,89.10,271210,,,A*77
$GPRMC,031701.000,A,3300.5059,N,11653.4875,W,50.54,88.50,271210,,,A*79
$GPRMC,031705.000,A,3300.5053,N,11653.4314,W,52.00,90.80,271210,,,A*7C
$GPRMC,031708.000,A,3300.5048,N,11653.3799,W,52.00,90.40,271210,,,A*71
$GPRMC,031711.000,A,3300.5042,N,11653.3285,W,51.51,90.50,271210,,,A*7D
$GPRMC,031714.000,A,3300.5040,N,11653.2773,W,51.51,90.40,271210,,,A*76
$GPRMC,031717.000,A,3300.5034,N,11653.2312,W,51.03,90.60,271210,,,A*70
$GPRMC,031720.000,A,3300.5022,N,11653.1651,W,50.54,90.30,271210,,,A*74
$GPRMC,031723.000,A,3300.5041,N,11653.1129,W,51.51,90.10,271210,,,A*7C
$GPRMC,031726.000,A,3300.5031,N,11653.0632,W,50.06,91.00,271210,,,A*71
$GPRMC,031729.000,A,3300.5028,N,11653.0127,W,50.54,90.80,271210,,,A*7B
$GPRMC,031732.000,A,3300.5016,N,11652.9649,W,48.11,91.30,271210,,,A*79
$GPRMC,031735.000,A,3300.5008,N,11652.9204,W,44.71,91.20,271210,,,A*77
$GPRMC,031738.000,A,3300.5016,N,11652.8755,W,42.77,89.80,271210,,,A*76
$GPRMC,031741.000,A,3300.5019,N,11652.8361,W,38.39,90.20,271210,,,A*71
$GPRMC,031744.000,A,3300.5013,N,11652.8029,W,30.62,90.80,271210,,,A*7D
$GPRMC,031747.000,A,3300.5026,N,11652.7821,W,19.44,77.60,271210,,,A*7F
$GPRMC,031750.000,A,3300.5118,N,11652.7730,W,15.07,21.90,271210,,,A*7D
$GPRMC,031753.000,A,3300.5290,N,11652.7711,W,20.41,04.60,271210,,,A*72
$GPRMC,031756.000,A,3300.5531,N,11652.7711,W,26.24,01.30,271210,,,A*7E
$GPRMC,031759.000,A,3300.5834,N,11652.7698,W,33.53,03.70,271210,,,A*7B
$GPRMC,031802.000,A,3300.6226,N,11652.7708,W,41.79,01.10,271210,,,A*71
$GPRMC,031805.000,A,3300.6646,N,11652.7705,W,47.14,01.20,271210,,,A*77
$GPRMC,031808.000,A,3300.7038,N,11652.7719,W,47.63,00.20,271210,,,A*78
$GPRMC,031811.000,A,3300.7430,N,11652.7726,W,47.63,359.90,271210,,,A*44
$GPRMC,031815.000,A,3300.8008,N,11652.7725,W,51.03,00.00,271210,,,A*74
$GPRMC,031818.000,A,3300.8418,N,11652.7736,W,48.11,358.30,271210,,,A*48
$GPRMC,031821.000,A,3300.8681,N,11652.7715,W,33.05,359.50,271210,,,A*4F
$GPRMC,031824.000,A,3300.8885,N,11652.7685,W,23.81,11.10,271210,,,A*7E
$GPRMC,031827.000,A,3300.8978,N,11652.7568,W,17.50,49.70,271210,,,A*7E
$GPRMC,031830.000,A,3300.8964,N,11652.7333,W,25.78,92.40,271210,,,A*73
$GPRMC,031833.000,A,3300.8943,N,11652.6998,W,34.50,93.00,271210,,,A*70
$GPRMC,031836.000,A,3300.8918,N,11652.6630,W,38.39,91.50,271210,,,A*72
$GPRMC,031839.000,A,3300.8930,N,11652.6216,W,42.28,88.60,271210,,,A*71
$GPRMC,031842.000,A,3300.8920,N,11652.5780,W,45.68,90.70,271210,,,A*7E
$GPRMC,031845.000,A,3300.8924,N,11652.5466,W,46.65,90.70,271210,,,A*78
$GPRMC,031848.000,A,3300.8918,N,11652.4841,W,47.14,90.80,271210,,,A*7A
$GPRMC,031851.000,A,3300.8932,N,11652.4369,W,46.65,89.40,271210,,,A*78
$GPRMC,031854.000,A,3300.8906,N,11652.3898,W,47.14,91.20,271210,,,A*70
$GPRMC,031857.000,A,3300.8911,N,11652.3441,W,45.20,90.50,271210,,,A*7E
$GPRMC,031901.000,A,3300.8920,N,11652.2837,W,44.71,90.20,271210,,,A*70
$GPRMC,031904.000,A,3300.8918,N,11652.2411,W,42.77,89.50,271210,,,A*79
$GPRMC,031907.000,A,3300.8916,N,11652.1992,W,42.77,90.10,271210,,,A*7D
$GPRMC,031910.000,A,3300.8918,N,11652.1570,W,44.22,89.50,271210,,,A*7F
$GPRMC,031913.000,A,3300.8927,N,11652.1137,W,42.28,88.60,271210,,,A*79
$GPRMC,031916.000,A,3300.8909,N,11652.0744,W,39.36,90.90,271210,,,A*76
$GPRMC,031919.000,A,3300.8880,N,11652.0389,W,33.55,91.90,271210,,,A*72
$GPRMC,031922.000,A,3300.8846,N,11652.0136,W,24.30,100.80,271210,,,A*4B
$GPRMC,031925.000,A,3300.8848,N,11652.0010,W,9.23,103.00,271210,,,A*71
$GPRMC,031928.000,A,3300.8853,N,11651.9968,W,6.80,122.80,271210,,,A*77
$GPRMC,031931.000,A,3300.8777,N,11651.9946,W,10.69,184.20,271210,,,A*4C
$GPRMC,031935.000,A,3300.8477,N,11651.9953,W,27.22,179.20,271210,,,A*46
$GPRMC,031938.000,A,3300.8156,N,11651.9941,W,35.48,178.60,271210,,,A*44
$GPRMC,031941.000,A,3300.7833,N,11651.9932,W,40.34,179.00,271210,,,A*45
$GPRMC,031944.000,A,3300.7489,N,11651.9938,W,41.79,181.10,271210,,,A*49
$GPRMC,031948.000,A,3300.6983,N,11651.9938,W,45.20,180.10,271210,,,A*4A
$GPRMC,031951.000,A,3300.6585,N,11651.9935,W,47.14,179.50,271210,,,A*42
$GPRMC,031954.000,A,3300.6200,N,11651.9935,W,45.20,180.10,271210,,,A*4A
$GPRMC,031957.000,A,3300.5818,N,11651.9922,W,44.71,173.70,271210,,,A*40
$GPRMC,032000.000,A,3300.5445,N,11651.9802,W,46.65,161.00,271210,,,A*4C
$GPRMC,032003.000,A,3300.5067,N,11651.9605,W,48.11,156.70,271210,,,A*4C
$GPRMC,032006.000,A,3300.4704,N,11651.9429,W,46.65,161.10,271210,,,A*49
$GPRMC,032009.000,A,3300.4346,N,11651.9334,W,45.20,172.10,271210,,,A*4F
$GPRMC,032012.000,A,3300.3976,N,11651.9330,W,45.68,182.30,271210,,,A*4E
$GPRMC,032015.000,A,3300.3623,N,11651.9403,W,43.74,189.20,271210,,,A*40
$GPRMC,032018.000,A,3300.3241,N,11651.9434,W,43.25,179.50,271210,,,A*45
$GPRMC,032021.000,A,3300.2872,N,11651.9364,W,43.25,166.40,271210,,,A*49
$GPRMC,032024.000,A,3300.2541,N,11651.9250,W,41.79,163.50,271210,,,A*48
$GPRMC,032027.000,A,3300.2201,N,11651.9068,W,44.71,153.80,271210,,,A*42
$GPRMC,032030.000,A,3300.1978,N,11651.8780,W,42.28,134.80,271210,,,A*49
$GPRMC,032033.000,A,3300.1727,N,11651.8494,W,41.31,138.40,271210,,,A*43
$GPRMC,032036.000,A,3300.1415,N,11651.8300,W,41.32,153.70,271210,,,A*43
$GPRMC,032039.000,A,3300.1063,N,11651.8130,W,44.22,157.90,271210,,,A*46
$GPRMC,032042.000,A,3300.0727,N,11651.7981,W,44.22,158.70,271210,,,A*40
$GPRMC,032045.000,A,3300.0386,N,11651.7826,W,44.24,158.20,271210,,,A*47
$GPRMC,032048.000,A,3300.0044,N,11651.7657,W,42.77,156.80,271210,,,A*4B
$GPRMC,032051.000,A,3259.9755,N,11651.7482,W,40.34,148.10,271210,,,A*49
$GPRMC,032054.000,A,3259.9541,N,11651.7195,W,40.34,132.30,271210,,,A*47
$GPRMC,032057.000,A,3259.9431,N,11651.6796,W,42.77,113.60,271210,,,A*45
$GPRMC,032100.000,A,3259.9324,N,11651.6357,W,46.65,109.80,271210,,,A*4E
$GPRMC,032103.000,A,3259.9187,N,11651.5956,W,45.68,110.70,271210,,,A*47
$GPRMC,032106.000,A,3259.9070,N,11651.5538,W,45.20,108.20,271210,,,A*4F
$GPRMC,032109.000,A,3259.8975,N,11651.5047,W,48.60,101.80,271210,,,A*4A
$GPRMC,032112.000,A,3259.8937,N,11651.4563,W,45.20,98.80,271210,,,A*7C
$GPRMC,032115.000,A,3259.8883,N,11651.4165,W,40.34,101.00,271210,,,A*4E
$GPRMC,032118.000,A,3259.8772,N,11651.3816,W,37.42,112.30,271210,,,A*48
$GPRMC,032121.000,A,3259.8632,N,11651.3441,W,39.36,111.10,271210,,,A*45
$GPRMC,032124.000,A,3259.8630,N,11651.3005,W,42.28,92.60,271210,,,A*78
$GPRMC,032127.000,A,3259.8664,N,11651.2584,W,44.71,84.70,271210,,,A*7B
$GPRMC,032130.000,A,3259.8664,N,11651.2111,W,47.63,91.00,271210,,,A*76
$GPRMC,032133.000,A,3259.8617,N,11651.1664,W,46.17,94.80,271210,,,A*78
$GPRMC,032136.000,A,3259.8571,N,11651.1224,W,45.20,97.20,271210,,,A*70
$GPRMC,032139.000,A,3259.8587,N,11651.0747,W,45.20,86.20,271210,,,A*77
$GPRMC,032142.000,A,3259.8673,N,11651.0336,W,42.28,73.70,271210,,,A*71
$GPRMC,032145.000,A,3259.8819,N,11650.9948,W,42.77,67.10,271210,,,A*76
$GPRMC,032148.000,A,3259.8954,N,11650.9563,W,42.28,71.30,271210,,,A*79
$GPRMC,032151.000,A,3259.8936,N,11650.9140,W,43.25,89.80,271210,,,A*70
$GPRMC,032154.000,A,3259.8936,N,11650.8693,W,43.25,89.30,271210,,,A*76
$GPRMC,032157.000,A,3259.8969,N,11650.8266,W,43.25,84.60,271210,,,A*79
$GPRMC,032200.000,A,3259.8970,N,11650.7854,W,42.28,91.60,271210,,,A*7C
$GPRMC,032203.000,A,3259.8919,N,11650.7465,W,38.88,98.70,271210,,,A*71
$GPRMC,032206.000,A,3259.8844,N,11650.7142,W,31.59,103.20,271210,,,A*4E
$GPRMC,032209.000,A,3259.8818,N,11650.6897,W,21.38,97.90,271210,,,A*79
$GPRMC,032215.000,A,3259.8785,N,11650.6790,W,4.86,108.40,271210,,,A*7F
$GPRMC,032218.000,A,3259.8743,N,11650.6665,W,17.01,107.10,271210,,,A*44
$GPRMC,032221.000,A,3259.8728,N,11650.6421,W,25.76,94.40,271210,,,A*7E
