NMEA Sentence Code,UTC Time,Status,Latitude,Latitude Direction,Longitude,Longitude Direction,Speed (knots),Track Angle (degrees true),Date,MagneticVariation,Magnetic Variation Direction,[FAA Mode]-Optional,Checksum
$GPRMC,031621.1,A,3306.170813,N,11718.801386,W,6.1,143.8,280310,,,A*7B
$GPRMC,031624.1,A,3306.163103,N,11718.793575,W,7.5,142.1,280310,,,A*77
$GPRMC,031627.1,A,3306.165620,N,11718.774006,W,9.3,114.9,280310,,,A*7F
$GPRMC,031630.1,A,3306.163963,N,11718.759228,W,10.4,114.6,280310,,,A*46
$GPRMC,031633.1,A,3306.155862,N,11718.740393,W,15.7,124.8,280310,,,A*42
$GPRMC,031636.1,A,3306.142195,N,11718.723647,W,20.1,129.7,280310,,,A*4B
$GPRMC,031639.1,A,3306.127544,N,11718.697873,W,26.3,128.6,280310,,,A*4C
$GPRMC,031642.1,A,3306.102706,N,11718.671514,W,31.8,132.2,280310,,,A*45
$GPRMC,031645.1,A,3306.078040,N,11718.636921,W,36.5,132.3,280310,,,A*49
$GPRMC,031648.1,A,3306.038547,N,11718.570726,W,46.8,131.6,280310,,,A*46
$GPRMC,031651.1,A,3306.008130,N,11718.533267,W,49.7,132.4,280310,,,A*4F
$GPRMC,031654.1,A,3305.976651,N,11718.496364,W,51.1,133.3,280310,,,A*4C
$GPRMC,031657.1,A,3305.929738,N,11718.479532,W,51.9,146.8,280310,,,A*4E
$GPRMC,031700.1,A,3305.890902,N,11718.450094,W,53.9,149.0,280310,,,A*4E
$GPRMC,031703.1,A,3305.849948,N,11718.421332,W,55.1,150.3,280310,,,A*4B
$GPRMC,031706.1,A,3305.810534,N,11718.395209,W,54.9,151.6,280310,,,A*49
$GPRMC,031709.1,A,3305.770951,N,11718.368055,W,54.8,152.0,280310,,,A*4D
$GPRMC,031712.1,A,3305.729339,N,11718.338464,W,55.4,150.9,280310,,,A*4A
$GPRMC,031715.1,A,3305.687249,N,11718.311855,W,55.6,151.1,280310,,,A*40
$GPRMC,031718.1,A,3305.647220,N,11718.285381,W,55.3,150.9,280310,,,A*4C
$GPRMC,031721.1,A,3305.607675,N,11718.258297,W,55.7,151.0,280310,,,A*4C
$GPRMC,031724.1,A,3305.563934,N,11718.231033,W,56.5,152.0,280310,,,A*43
$GPRMC,031727.1,A,3305.520755,N,11718.204605,W,56.7,151.7,280310,,,A*4D
$GPRMC,031730.1,A,3305.480040,N,11718.178673,W,55.7,151.3,280310,,,A*4D
$GPRMC,031733.1,A,3305.437492,N,11718.151937,W,56.7,151.5,280310,,,A*48
$GPRMC,031736.1,A,3305.393006,N,11718.122711,W,60.8,150.5,280310,,,A*48
$GPRMC,031739.1,A,3305.348433,N,11718.091920,W,62.4,150.1,280310,,,A*4C
$GPRMC,031742.1,A,3305.303281,N,11718.062316,W,61.7,151.7,280310,,,A*44
$GPRMC,031745.1,A,3305.258656,N,11718.033716,W,60.4,150.7,280310,,,A*41
$GPRMC,031748.1,A,3305.215067,N,11718.004764,W,59.4,150.7,280310,,,A*4A
$GPRMC,031751.1,A,3305.170399,N,11717.975233,W,60.1,150.3,280310,,,A*4C
$GPRMC,031754.1,A,3305.127248,N,11717.945367,W,60.4,150.1,280310,,,A*42
$GPRMC,031757.1,A,3305.081409,N,11717.917895,W,61.5,152.4,280310,,,A*49
$GPRMC,031800.1,A,3305.034986,N,11717.891583,W,61.0,155.5,280310,,,A*46
$GPRMC,031803.1,A,3304.986900,N,11717.873094,W,60.9,160.0,280310,,,A*4E
$GPRMC,031806.1,A,3304.937855,N,11717.854554,W,61.3,163.3,280310,,,A*47
$GPRMC,031809.1,A,3304.888889,N,11717.840109,W,60.9,164.4,280310,,,A*4E
$GPRMC,031812.1,A,3304.838483,N,11717.825101,W,61.8,165.2,280310,,,A*45
$GPRMC,031815.1,A,3304.787817,N,11717.807257,W,62.3,165.8,280310,,,A*4A
$GPRMC,031818.1,A,3304.735984,N,11717.793900,W,62.5,166.6,280310,,,A*45
$GPRMC,031821.1,A,3304.688768,N,11717.777261,W,61.2,165.4,280310,,,A*47
$GPRMC,031824.1,A,3304.638544,N,11717.765516,W,60.6,166.7,280310,,,A*44
$GPRMC,031827.1,A,3304.591708,N,11717.751837,W,57.9,165.5,280310,,,A*4E
$GPRMC,031830.1,A,3304.547154,N,11717.739120,W,56.4,165.9,280310,,,A*4D
$GPRMC,031833.1,A,3304.502499,N,11717.726335,W,53.9,167.2,280310,,,A*42
$GPRMC,031836.1,A,3304.459670,N,11717.712320,W,53.6,166.8,280310,,,A*4A
$GPRMC,031839.1,A,3304.417310,N,11717.701307,W,51.7,165.9,280310,,,A*4A
$GPRMC,031842.1,A,3304.376879,N,11717.686148,W,51.6,165.3,280310,,,A*4E
$GPRMC,031845.1,A,3304.333549,N,11717.674172,W,52.7,166.2,280310,,,A*42
$GPRMC,031848.1,A,3304.291541,N,11717.663634,W,51.9,167.0,280310,,,A*43
$GPRMC,031851.1,A,3304.246458,N,11717.650144,W,52.5,166.1,280310,,,A*47
$GPRMC,031854.1,A,3304.203857,N,11717.638986,W,52.6,166.8,280310,,,A*42
$GPRMC,031857.1,A,3304.159225,N,11717.627544,W,54.0,167.5,280310,,,A*42
$GPRMC,031900.1,A,3304.114785,N,11717.615996,W,53.8,167.3,280310,,,A*4C
$GPRMC,031903.1,A,3304.073042,N,11717.604343,W,53.3,166.0,280310,,,A*48
$GPRMC,031906.1,A,3304.029529,N,11717.589191,W,55.3,165.1,280310,,,A*45
$GPRMC,031909.1,A,3303.984323,N,11717.576836,W,55.1,166.5,280310,,,A*4E
$GPRMC,031912.1,A,3303.937264,N,11717.562460,W,57.0,165.1,280310,,,A*40
$GPRMC,031915.1,A,3303.891109,N,11717.549204,W,56.9,165.9,280310,,,A*4F
$GPRMC,031918.1,A,3303.844902,N,11717.535165,W,57.1,166.7,280310,,,A*42
$GPRMC,031921.1,A,3303.799312,N,11717.521604,W,56.2,166.8,280310,,,A*44
$GPRMC,031924.1,A,3303.753374,N,11717.508144,W,55.9,165.7,280310,,,A*4B
$GPRMC,031927.1,A,3303.707323,N,11717.492239,W,57.2,166.4,280310,,,A*49
$GPRMC,031930.1,A,3303.661520,N,11717.475868,W,57.1,165.2,280310,,,A*4A
$GPRMC,031933.1,A,3303.614518,N,11717.460090,W,57.6,164.8,280310,,,A*47
$GPRMC,031936.1,A,3303.567846,N,11717.444801,W,58.4,165.9,280310,,,A*48
$GPRMC,031939.1,A,3303.519552,N,11717.431089,W,59.4,166.2,280310,,,A*45
$GPRMC,031942.1,A,3303.470166,N,11717.415349,W,60.2,166.3,280310,,,A*40
$GPRMC,031945.1,A,3303.421540,N,11717.400305,W,60.3,166.2,280310,,,A*4F
$GPRMC,031948.1,A,3303.372045,N,11717.384841,W,61.5,165.4,280310,,,A*41
$GPRMC,031951.1,A,3303.321924,N,11717.369734,W,61.8,166.0,280310,,,A*45
$GPRMC,031954.1,A,3303.272221,N,11717.355000,W,60.9,166.3,280310,,,A*45
$GPRMC,031957.1,A,3303.224015,N,11717.341235,W,59.9,165.9,280310,,,A*42
$GPRMC,032000.1,A,3303.175117,N,11717.326681,W,59.3,165.9,280310,,,A*4E
$GPRMC,032003.1,A,3303.126557,N,11717.311733,W,59.6,165.9,280310,,,A*42
$GPRMC,032006.1,A,3303.078115,N,11717.297701,W,59.5,165.6,280310,,,A*4D
$GPRMC,032009.1,A,3303.032215,N,11717.283760,W,59.2,165.6,280310,,,A*4A
$GPRMC,032012.1,A,3302.984082,N,11717.270069,W,59.7,165.6,280310,,,A*4E
$GPRMC,032015.1,A,3302.936745,N,11717.255758,W,58.7,165.7,280310,,,A*4E
$GPRMC,032018.1,A,3302.889753,N,11717.241897,W,58.2,166.1,280310,,,A*48
$GPRMC,032021.1,A,3302.842829,N,11717.227602,W,57.9,165.9,280310,,,A*4A
$GPRMC,032024.1,A,3302.796528,N,11717.212523,W,57.2,165.6,280310,,,A*47
$GPRMC,032027.1,A,3302.752955,N,11717.200229,W,55.8,166.3,280310,,,A*4A
$GPRMC,032030.1,A,3302.706415,N,11717.187351,W,56.0,167.0,280310,,,A*4F
$GPRMC,032033.1,A,3302.660346,N,11717.173943,W,56.7,166.3,280310,,,A*4B
$GPRMC,032036.1,A,3302.612841,N,11717.161781,W,58.3,167.9,280310,,,A*45
$GPRMC,032039.1,A,3302.566988,N,11717.148677,W,56.5,166.1,280310,,,A*4C
$GPRMC,032042.1,A,3302.524569,N,11717.133096,W,53.4,161.1,280310,,,A*43
$GPRMC,032045.1,A,3302.483849,N,11717.110067,W,54.0,157.1,280310,,,A*4E
$GPRMC,032048.1,A,3302.448164,N,11717.083203,W,51.9,152.6,280310,,,A*47
$GPRMC,032051.1,A,3302.412947,N,11717.057782,W,50.1,150.9,280310,,,A*48
$GPRMC,032054.1,A,3302.379059,N,11717.034121,W,47.6,150.7,280310,,,A*44
$GPRMC,032057.1,A,3302.344495,N,11717.013133,W,45.5,152.6,280310,,,A*49
$GPRMC,032100.1,A,3302.310190,N,11716.995884,W,43.6,155.4,280310,,,A*48
$GPRMC,032103.1,A,3302.277835,N,11716.981113,W,39.9,157.4,280310,,,A*4F
$GPRMC,032106.1,A,3302.248269,N,11716.969655,W,37.4,162.3,280310,,,A*44
$GPRMC,032109.1,A,3302.219475,N,11716.961161,W,35.1,165.1,280310,,,A*4E
$GPRMC,032112.1,A,3302.193739,N,11716.953499,W,31.3,165.8,280310,,,A*42
$GPRMC,032115.1,A,3302.180082,N,11716.951134,W,22.4,168.9,280310,,,A*49
$GPRMC,032118.1,A,3302.164600,N,11716.949280,W,19.5,173.8,280310,,,A*45
$GPRMC,032121.1,A,3302.155553,N,11716.944827,W,17.6,169.4,280310,,,A*48
$GPRMC,032124.1,A,3302.149298,N,11716.941808,W,14.1,164.1,280310,,,A*44
$GPRMC,032127.1,A,3302.154363,N,11716.932359,W,11.8,137.0,280310,,,A*4E
$GPRMC,032130.1,A,3302.151370,N,11716.918124,W,14.3,124.2,280310,,,A*41
$GPRMC,032133.1,A,3302.149292,N,11716.898015,W,16.9,111.1,280310,,,A*41
$GPRMC,032136.1,A,3302.160340,N,11716.869340,W,16.1,95.3,280310,,,A*7B
$GPRMC,032139.1,A,3302.168008,N,11716.854016,W,8.9,90.9,280310,,,A*45
$GPRMC,032203.1,A,3302.167379,N,11716.834954,W,8.6,132.4,280310,,,A*77
$GPRMC,032206.1,A,3302.164899,N,11716.817426,W,13.3,116.5,280310,,,A*45
$GPRMC,032209.1,A,3302.167070,N,11716.786383,W,21.7,93.4,280310,,,A*71
$GPRMC,032212.1,A,3302.168298,N,11716.757896,W,23.6,92.3,280310,,,A*76
$GPRMC,032215.1,A,3302.169084,N,11716.733378,W,23.0,88.3,280310,,,A*7B
$GPRMC,032218.1,A,3302.170231,N,11716.708776,W,21.2,88.3,280310,,,A*70
$GPRMC,032221.1,A,3302.171241,N,11716.681585,W,23.0,89.0,280310,,,A*70
$GPRMC,032224.1,A,3302.171731,N,11716.649254,W,26.0,91.0,280310,,,A*74
$GPRMC,032227.1,A,3302.173406,N,11716.618208,W,28.8,88.6,280310,,,A*77
$GPRMC,032230.1,A,3302.173034,N,11716.586963,W,31.6,90.8,280310,,,A*77
$GPRMC,032233.1,A,3302.175103,N,11716.554330,W,33.7,88.3,280310,,,A*75
$GPRMC,032236.1,A,3302.176494,N,11716.521476,W,31.8,88.1,280310,,,A*70
$GPRMC,032239.1,A,3302.177847,N,11716.489777,W,31.5,88.0,280310,,,A*71
$GPRMC,032242.1,A,3302.178648,N,11716.456802,W,32.2,89.3,280310,,,A*7A
$GPRMC,032245.1,A,3302.177789,N,11716.423818,W,32.4,90.1,280310,,,A*7B
$GPRMC,032248.1,A,3302.179411,N,11716.389303,W,33.2,88.1,280310,,,A*72
$GPRMC,032251.1,A,3302.179520,N,11716.357085,W,32.6,87.7,280310,,,A*7B
$GPRMC,032254.1,A,3302.178840,N,11716.322974,W,32.7,91.0,280310,,,A*70
$GPRMC,032257.1,A,3302.178521,N,11716.291998,W,30.5,90.9,280310,,,A*7A
$GPRMC,032300.1,A,3302.181079,N,11716.264820,W,27.1,88.1,280310,,,A*7C
$GPRMC,032303.1,A,3302.182061,N,11716.242812,W,23.3,85.9,280310,,,A*73
