NMEA Sentence Code,UTC Time,Status,Latitude,Latitude Direction,Longitude,Longitude Direction,Speed (knots),Track Angle (degrees true),Date,MagneticVariation,Magnetic Variation Direction,[FAA Mode]-Optional,Checksum
$GPRMC,165530.4,A,3249.6082,N,11713.9418,W,64.10,346.30,280410,,*2E
$GPRMC,165533.4,A,3249.6621,N,11713.9518,W,65.50,352.20,280410,,*22
$GPRMC,165536.4,A,3249.7172,N,11713.9602,W,65.40,351.80,280410,,*27
$GPRMC,165539.4,A,3249.7763,N,11713.9579,W,69.50,359.80,280410,,*24
$GPRMC,165542.4,A,3249.8351,N,11713.9564,W,67.80,359.90,280410,,*2C
$GPRMC,165545.4,A,3249.8910,N,11713.9565,W,66.20,359.70,280410,,*20
$GPRMC,165548.4,A,3249.9458,N,11713.9575,W,65.80,358.50,280410,,*26
$GPRMC,165551.4,A,3249.9994,N,11713.9623,W,65.00,352.50,280410,,*21
$GPRMC,165554.4,A,3250.0521,N,11713.9747,W,64.40,347.30,280410,,*23
$GPRMC,165557.4,A,3250.1033,N,11713.9954,W,64.00,340.50,280410,,*2E
$GPRMC,165600.4,A,3250.1500,N,11714.0155,W,58.30,340.20,280410,,*26
$GPRMC,165603.4,A,3250.1879,N,11714.0322,W,49.50,340.20,280410,,*22
$GPRMC,165606.4,A,3250.2211,N,11714.0462,W,43.00,340.80,280410,,*26
$GPRMC,165609.4,A,3250.2459,N,11714.0565,W,35.00,343.20,280410,,*2D
$GPRMC,165612.4,A,3250.2694,N,11714.0655,W,30.20,344.30,280410,,*25
$GPRMC,165615.4,A,3250.2893,N,11714.0744,W,28.00,343.60,280410,,*23
$GPRMC,165618.4,A,3250.3068,N,11714.0834,W,25.20,340.40,280410,,*25
$GPRMC,165621.4,A,3250.3149,N,11714.0923,W,20.10,337.30,280410,,*2B
$GPRMC,165624.4,A,3250.3236,N,11714.0998,W,16.40,335.30,280410,,*27
$GPRMC,165627.4,A,3250.3399,N,11714.1100,W,19.60,335.60,280410,,*20
$GPRMC,165630.4,A,3250.3502,N,11714.1155,W,19.70,339.40,280410,,*2D
$GPRMC,165633.4,A,3250.3636,N,11714.1206,W,17.80,340.20,280410,,*26
$GPRMC,165636.4,A,3250.3774,N,11714.1266,W,18.40,338.20,280410,,*2E
$GPRMC,165639.4,A,3250.3952,N,11714.1351,W,20.60,338.30,280410,,*26
$GPRMC,165642.4,A,3250.4105,N,11714.1422,W,20.90,339.10,280410,,*28
$GPRMC,165645.4,A,3250.4278,N,11714.1494,W,19.50,340.20,280410,,*20
$GPRMC,165648.4,A,3250.4432,N,11714.1555,W,19.10,341.90,280410,,*27
$GPRMC,165651.4,A,3250.4572,N,11714.1607,W,17.00,342.80,280410,,*23
$GPRMC,165654.4,A,3250.4701,N,11714.1652,W,15.30,344.60,280410,,*29
$GPRMC,165657.4,A,3250.4823,N,11714.1691,W,15.10,347.10,280410,,*2C
$GPRMC,165700.4,A,3250.4954,N,11714.1729,W,17.20,346.10,280410,,*2C
$GPRMC,165703.4,A,3250.5088,N,11714.1762,W,16.00,349.80,280410,,*2C
$GPRMC,165706.4,A,3250.5220,N,11714.1780,W,15.00,351.90,280410,,*2E
$GPRMC,165709.4,A,3250.5345,N,11714.1793,W,14.50,352.70,280410,,*28
$GPRMC,165712.4,A,3250.5443,N,11714.1800,W,13.40,353.40,280410,,*22
$GPRMC,165715.4,A,3250.5538,N,11714.1829,W,9.60,356.10,280410,,*1A
$GPRMC,165718.4,A,3250.5629,N,11714.1836,W,12.30,355.00,280410,,*27
$GPRMC,165721.4,A,3250.5776,N,11714.1851,W,20.30,356.30,280410,,*26
$GPRMC,165724.4,A,3250.6004,N,11714.1845,W,27.00,1.20,280410,,*23
$GPRMC,165727.4,A,3250.6242,N,11714.1840,W,27.60,2.80,280410,,*2A
$GPRMC,165730.4,A,3250.6464,N,11714.1822,W,26.20,5.70,280410,,*27
$GPRMC,165733.4,A,3250.6686,N,11714.1800,W,27.40,6.60,280410,,*2F
$GPRMC,165736.4,A,3250.6918,N,11714.1759,W,26.20,7.30,280410,,*22
$GPRMC,165739.4,A,3250.7129,N,11714.1723,W,24.30,7.80,280410,,*23
$GPRMC,165742.4,A,3250.7314,N,11714.1692,W,21.30,7.50,280410,,*20
$GPRMC,165745.4,A,3250.7483,N,11714.1666,W,20.20,7.70,280410,,*27
$GPRMC,165748.4,A,3250.7631,N,11714.1645,W,14.80,6.90,280410,,*22
$GPRMC,165751.4,A,3250.7749,N,11714.1626,W,11.40,7.40,280410,,*24
$GPRMC,165754.4,A,3250.7831,N,11714.1611,W,9.60,8.00,280410,,*15
$GPRMC,165757.4,A,3250.7934,N,11714.1593,W,12.70,8.90,280410,,*29
$GPRMC,165800.4,A,3250.8026,N,11714.1575,W,9.60,7.80,280410,,*1C
$GPRMC,165803.4,A,3250.8100,N,11714.1558,W,7.60,9.40,280410,,*19
$GPRMC,165806.4,A,3250.8144,N,11714.1553,W,6.00,7.00,280410,,*1A
$GPRMC,165809.4,A,3250.8222,N,11714.1542,W,11.90,6.30,280410,,*2B
$GPRMC,165812.4,A,3250.8314,N,11714.1527,W,9.00,8.30,280410,,*18
$GPRMC,165818.4,A,3250.8419,N,11714.1511,W,9.40,9.20,280410,,*19
$GPRMC,165821.4,A,3250.8522,N,11714.1489,W,14.20,9.40,280410,,*26
$GPRMC,165824.4,A,3250.8650,N,11714.1462,W,16.40,10.60,280410,,*1E
$GPRMC,165827.4,A,3250.8802,N,11714.1427,W,19.00,12.80,280410,,*12
$GPRMC,165830.4,A,3250.8972,N,11714.1380,W,22.10,14.60,280410,,*19
$GPRMC,165833.4,A,3250.9178,N,11714.1300,W,26.90,18.90,280410,,*1E
$GPRMC,165836.4,A,3250.9384,N,11714.1208,W,25.80,19.70,280410,,*1E
$GPRMC,165839.4,A,3250.9579,N,11714.1120,W,25.20,22.50,280410,,*1C
$GPRMC,165842.4,A,3250.9776,N,11714.1027,W,23.40,24.80,280410,,*10
$GPRMC,165845.4,A,3250.9927,N,11714.0934,W,18.10,27.70,280410,,*16
$GPRMC,165848.4,A,3251.0045,N,11714.0855,W,15.70,28.30,280410,,*18
$GPRMC,165851.4,A,3251.0152,N,11714.0786,W,13.50,29.30,280410,,*13
$GPRMC,165854.4,A,3251.0243,N,11714.0724,W,11.70,29.50,280410,,*1B
$GPRMC,165857.4,A,3251.0329,N,11714.0663,W,14.00,31.50,280410,,*1C
$GPRMC,165900.4,A,3251.0457,N,11714.0571,W,18.30,30.90,280410,,*13
$GPRMC,165903.4,A,3251.0595,N,11714.0480,W,19.20,27.90,280410,,*16
$GPRMC,165906.4,A,3251.0743,N,11714.0388,W,20.10,30.70,280410,,*14
$GPRMC,165909.4,A,3251.0887,N,11714.0285,W,19.80,31.50,280410,,*10
$GPRMC,165912.4,A,3251.1021,N,11714.0183,W,19.40,30.20,280410,,*10
$GPRMC,165915.4,A,3251.1167,N,11714.0084,W,20.00,29.50,280410,,*13
$GPRMC,165918.4,A,3251.1301,N,11713.9988,W,18.10,31.30,280410,,*12
$GPRMC,165921.4,A,3251.1427,N,11713.9899,W,18.20,30.40,280410,,*1F
$GPRMC,165924.4,A,3251.1570,N,11713.9805,W,19.30,29.40,280410,,*14
$GPRMC,165927.4,A,3251.1692,N,11713.9717,W,16.30,30.60,280410,,*11
$GPRMC,165930.4,A,3251.1781,N,11713.9649,W,10.20,31.70,280410,,*19
$GPRMC,165933.4,A,3251.1831,N,11713.9611,W,7.10,30.60,280410,,*26
$GPRMC,165936.4,A,3251.1900,N,11713.9565,W,10.70,29.30,280410,,*1D
$GPRMC,165939.4,A,3251.1988,N,11713.9505,W,14.60,30.30,280410,,*19
$GPRMC,165942.4,A,3251.2099,N,11713.9428,W,14.60,31.40,280410,,*17
$GPRMC,165945.4,A,3251.2207,N,11713.9353,W,14.40,30.80,280410,,*11
$GPRMC,165948.4,A,3251.2301,N,11713.9286,W,12.30,29.80,280410,,*1B
$GPRMC,165951.4,A,3251.2370,N,11713.9239,W,8.10,31.20,280410,,*2B
$GPRMC,170000.4,A,3251.2460,N,11713.9175,W,9.80,30.20,280410,,*26
$GPRMC,170003.4,A,3251.2528,N,11713.9127,W,8.60,29.00,280410,,*2A
$GPRMC,170006.4,A,3251.2584,N,11713.9087,W,7.30,29.70,280410,,*2F
$GPRMC,170009.4,A,3251.2638,N,11713.9053,W,6.90,29.20,280410,,*23
$GPRMC,170012.4,A,3251.2682,N,11713.9030,W,5.20,27.30,280410,,*2A
$GPRMC,170024.4,A,3251.2782,N,11713.8964,W,6.70,26.50,280410,,*26
$GPRMC,170027.4,A,3251.2824,N,11713.8937,W,5.40,32.20,280410,,*22
$GPRMC,170039.4,A,3251.2940,N,11713.8872,W,5.20,25.70,280410,,*2B
$GPRMC,170042.4,A,3251.2997,N,11713.8842,W,9.50,24.60,280410,,*25
$GPRMC,170045.4,A,3251.3073,N,11713.8801,W,11.00,24.30,280410,,*1E
$GPRMC,170048.4,A,3251.3177,N,11713.8746,W,14.60,23.70,280410,,*1A
$GPRMC,170051.4,A,3251.3309,N,11713.8682,W,17.80,21.40,280410,,*1C
$GPRMC,170054.4,A,3251.3468,N,11713.8614,W,20.40,19.80,280410,,*19
$GPRMC,170057.4,A,3251.3652,N,11713.8532,W,24.60,19.90,280410,,*11
$GPRMC,170100.4,A,3251.3872,N,11713.8447,W,28.70,16.50,280410,,*13
$GPRMC,170103.4,A,3251.4133,N,11713.8397,W,30.80,11.60,280410,,*13
$GPRMC,170106.4,A,3251.4387,N,11713.8342,W,30.20,9.00,280410,,*26
$GPRMC,170109.4,A,3251.4630,N,11713.8308,W,30.30,6.20,280410,,*22
$GPRMC,170112.4,A,3251.4866,N,11713.8279,W,28.50,4.10,280410,,*2C
$GPRMC,170115.4,A,3251.5077,N,11713.8252,W,25.00,5.00,280410,,*23
$GPRMC,170118.4,A,3251.5277,N,11713.8241,W,22.30,4.30,280410,,*28
$GPRMC,170121.4,A,3251.5468,N,11713.8228,W,23.70,5.70,280410,,*25
$GPRMC,170124.4,A,3251.5692,N,11713.8210,W,26.70,4.80,280410,,*27
$GPRMC,170127.4,A,3251.5915,N,11713.8190,W,26.00,4.20,280410,,*22
$GPRMC,170130.4,A,3251.6136,N,11713.8174,W,25.90,3.60,280410,,*2D
$GPRMC,170133.4,A,3251.6317,N,11713.8151,W,21.80,4.50,280410,,*29
$GPRMC,170136.4,A,3251.6452,N,11713.8130,W,14.90,5.20,280410,,*2C
$GPRMC,170139.4,A,3251.6569,N,11713.8113,W,13.10,4.50,280410,,*22
$GPRMC,170142.4,A,3251.6669,N,11713.8111,W,11.50,4.10,280410,,*2D
$GPRMC,170145.4,A,3251.6777,N,11713.8097,W,14.30,7.50,280410,,*2F
$GPRMC,170148.4,A,3251.6923,N,11713.8087,W,18.20,6.80,280410,,*2D
$GPRMC,170151.4,A,3251.7093,N,11713.8068,W,20.30,4.90,280410,,*2E
$GPRMC,170154.4,A,3251.7260,N,11713.8058,W,20.20,4.40,280410,,*2A
$GPRMC,170157.4,A,3251.7435,N,11713.8044,W,21.70,4.30,280410,,*21
$GPRMC,170200.4,A,3251.7608,N,11713.8030,W,19.90,4.80,280410,,*21
$GPRMC,170203.4,A,3251.7766,N,11713.8015,W,20.40,4.30,280410,,*20
$GPRMC,170206.4,A,3251.7958,N,11713.7996,W,24.20,4.90,280410,,*23
$GPRMC,170209.4,A,3251.8164,N,11713.7975,W,24.20,5.40,280410,,*25
$GPRMC,170212.4,A,3251.8348,N,11713.7955,W,20.70,3.90,280410,,*2B
$GPRMC,170215.4,A,3251.8512,N,11713.7942,W,18.10,3.90,280410,,*2E
$GPRMC,170218.4,A,3251.8651,N,11713.7928,W,16.20,4.40,280410,,*2C
$GPRMC,170221.4,A,3251.8789,N,11713.7916,W,17.50,4.60,280410,,*2B
$GPRMC,170224.4,A,3251.8927,N,11713.7900,W,14.00,5.10,280410,,*23
$GPRMC,170227.4,A,3251.9037,N,11713.7892,W,12.30,1.60,280410,,*25
$GPRMC,170230.4,A,3251.9110,N,11713.7882,W,8.80,3.90,280410,,*1B
$GPRMC,170233.4,A,3251.9186,N,11713.7873,W,8.70,4.50,280410,,*1D
$GPRMC,170236.4,A,3251.9293,N,11713.7857,W,14.30,5.30,280410,,*27
$GPRMC,170239.4,A,3251.9442,N,11713.7848,W,19.10,5.10,280410,,*21
$GPRMC,170242.4,A,3251.9599,N,11713.7831,W,19.10,4.20,280410,,*26
$GPRMC,170245.4,A,3251.9755,N,11713.7817,W,17.40,4.50,280410,,*2B
$GPRMC,170248.4,A,3251.9895,N,11713.7804,W,17.30,4.90,280410,,*2C
$GPRMC,170251.4,A,3252.0036,N,11713.7790,W,17.00,4.80,280410,,*2F
$GPRMC,170254.4,A,3252.0180,N,11713.7772,W,18.70,5.40,280410,,*2F
$GPRMC,170257.4,A,3252.0332,N,11713.7757,W,17.60,4.40,280410,,*2F
$GPRMC,170300.4,A,3252.0445,N,11713.7743,W,13.00,4.70,280410,,*2F
$GPRMC,170303.4,A,3252.0570,N,11713.7727,W,17.30,8.90,280410,,*2C
$GPRMC,170306.4,A,3252.0737,N,11713.7695,W,20.60,5.80,280410,,*2D
$GPRMC,170309.4,A,3252.0910,N,11713.7680,W,21.40,3.50,280410,,*25
$GPRMC,170312.4,A,3252.1108,N,11713.7668,W,23.90,3.60,280410,,*25
$GPRMC,170315.4,A,3252.1366,N,11713.7647,W,33.40,3.80,280410,,*27
$GPRMC,170318.4,A,3252.1682,N,11713.7616,W,39.50,4.20,280410,,*27
$GPRMC,170321.4,A,3252.2039,N,11713.7573,W,44.10,5.80,280410,,*2D
$GPRMC,170324.4,A,3252.2443,N,11713.7532,W,49.30,5.70,280410,,*24
$GPRMC,170327.4,A,3252.2884,N,11713.7501,W,54.30,4.50,280410,,*2F
$GPRMC,170330.4,A,3252.3347,N,11713.7459,W,57.10,5.10,280410,,*24
$GPRMC,170333.4,A,3252.3858,N,11713.7420,W,60.50,4.30,280410,,*2F
$GPRMC,170336.4,A,3252.4371,N,11713.7378,W,61.60,4.50,280410,,*23
$GPRMC,170339.4,A,3252.4885,N,11713.7325,W,61.80,4.50,280410,,*2A
$GPRMC,170342.4,A,3252.5401,N,11713.7275,W,61.80,4.50,280410,,*23
$GPRMC,170345.4,A,3252.5911,N,11713.7229,W,62.00,4.70,280410,,*28
$GPRMC,170348.4,A,3252.6436,N,11713.7174,W,62.80,5.20,280410,,*29
$GPRMC,170351.4,A,3252.6975,N,11713.7126,W,63.50,4.80,280410,,*2B
$GPRMC,170354.4,A,3252.7496,N,11713.7074,W,62.80,4.60,280410,,*2B
$GPRMC,170357.4,A,3252.8011,N,11713.7014,W,61.00,4.70,280410,,*20
$GPRMC,170400.4,A,3252.8508,N,11713.6959,W,59.50,4.70,280410,,*27
$GPRMC,170403.4,A,3252.8997,N,11713.6910,W,60.20,4.50,280410,,*2C
$GPRMC,170406.4,A,3252.9501,N,11713.6868,W,61.50,4.70,280410,,*21
$GPRMC,170409.4,A,3253.0020,N,11713.6820,W,62.50,4.70,280410,,*2F
$GPRMC,170412.4,A,3253.0549,N,11713.6769,W,63.70,4.50,280410,,*2C
$GPRMC,170415.4,A,3253.1080,N,11713.6720,W,64.80,4.60,280410,,*2C
$GPRMC,170418.4,A,3253.1615,N,11713.6666,W,65.10,4.80,280410,,*2E
$GPRMC,170421.4,A,3253.2159,N,11713.6613,W,65.60,4.80,280410,,*2D
$GPRMC,170424.4,A,3253.2714,N,11713.6560,W,66.70,4.90,280410,,*23
$GPRMC,170427.4,A,3253.3256,N,11713.6500,W,66.00,4.90,280410,,*23
$GPRMC,170430.4,A,3253.3804,N,11713.6444,W,65.10,5.00,280410,,*23
$GPRMC,170433.4,A,3253.4341,N,11713.6394,W,64.30,5.00,280410,,*24
$GPRMC,170436.4,A,3253.4866,N,11713.6334,W,63.50,5.10,280410,,*25
$GPRMC,170439.4,A,3253.5391,N,11713.6277,W,63.30,5.00,280410,,*29
$GPRMC,170442.4,A,3253.5927,N,11713.6223,W,65.00,7.40,280410,,*20
$GPRMC,170445.4,A,3253.6474,N,11713.6092,W,66.40,12.20,280410,,*12
$GPRMC,170448.4,A,3253.7024,N,11713.5910,W,67.40,16.50,280410,,*1D
$GPRMC,170451.4,A,3253.7582,N,11713.5673,W,69.80,18.70,280410,,*18
$GPRMC,170454.4,A,3253.8137,N,11713.5458,W,69.30,18.50,280410,,*1A
$GPRMC,170457.4,A,3253.8669,N,11713.5249,W,66.90,18.40,280410,,*17
$GPRMC,170500.4,A,3253.9193,N,11713.5045,W,65.60,18.30,280410,,*12
$GPRMC,170503.4,A,3253.9703,N,11713.4840,W,64.10,18.60,280410,,*11
$GPRMC,170506.4,A,3254.0212,N,11713.4642,W,63.50,18.10,280410,,*17
$GPRMC,170509.4,A,3254.0733,N,11713.4458,W,62.90,15.60,280410,,*10
$GPRMC,170512.4,A,3254.1252,N,11713.4339,W,63.00,7.90,280410,,*2D
$GPRMC,170515.4,A,3254.1776,N,11713.4286,W,62.60,2.00,280410,,*27
$GPRMC,170518.4,A,3254.2297,N,11713.4300,W,61.60,355.60,280410,,*28
$GPRMC,170521.4,A,3254.2806,N,11713.4385,W,61.50,349.90,280410,,*2C
$GPRMC,170524.4,A,3254.3312,N,11713.4514,W,61.70,345.50,280410,,*2A
$GPRMC,170527.4,A,3254.3807,N,11713.4713,W,62.70,339.70,280410,,*29
$GPRMC,170530.4,A,3254.4286,N,11713.4969,W,62.90,333.10,280410,,*2A
$GPRMC,170533.4,A,3254.4734,N,11713.5300,W,62.00,326.90,280410,,*24
$GPRMC,170536.4,A,3254.5146,N,11713.5656,W,61.20,324.40,280410,,*2B
$GPRMC,170539.4,A,3254.5574,N,11713.6010,W,62.00,325.70,280410,,*25
$GPRMC,170542.4,A,3254.6013,N,11713.6329,W,60.30,331.00,280410,,*24
$GPRMC,170545.4,A,3254.6456,N,11713.6603,W,58.10,333.10,280410,,*21
$GPRMC,170548.4,A,3254.6887,N,11713.6857,W,57.70,334.20,280410,,*2E
$GPRMC,170551.4,A,3254.7326,N,11713.7109,W,59.20,333.90,280410,,*23
$GPRMC,170554.4,A,3254.7775,N,11713.7378,W,59.40,332.20,280410,,*2C
$GPRMC,170557.4,A,3254.8211,N,11713.7654,W,58.60,331.90,280410,,*27
$GPRMC,170600.4,A,3254.8615,N,11713.7925,W,53.80,328.30,280410,,*28
$GPRMC,170603.4,A,3254.8972,N,11713.8218,W,51.80,322.70,280410,,*23
$GPRMC,170606.4,A,3254.9296,N,11713.8552,W,53.10,317.40,280410,,*21
$GPRMC,170609.4,A,3254.9617,N,11713.8933,W,56.30,312.60,280410,,*28
$GPRMC,170612.4,A,3254.9920,N,11713.9365,W,58.40,309.60,280410,,*22
$GPRMC,170615.4,A,3255.0232,N,11713.9826,W,60.10,308.80,280410,,*28
$GPRMC,170618.4,A,3255.0541,N,11714.0291,W,59.00,310.80,280410,,*2C
$GPRMC,170621.4,A,3255.0855,N,11714.0708,W,54.90,314.40,280410,,*27
$GPRMC,170624.4,A,3255.1177,N,11714.1076,W,52.80,316.80,280410,,*2C
$GPRMC,170627.4,A,3255.1498,N,11714.1411,W,50.50,320.10,280410,,*2D
$GPRMC,170630.4,A,3255.1829,N,11714.1707,W,48.70,322.90,280410,,*28
$GPRMC,170633.4,A,3255.2166,N,11714.1987,W,50.50,326.10,280410,,*2B
$GPRMC,170636.4,A,3255.2534,N,11714.2263,W,53.20,328.50,280410,,*21
$GPRMC,170639.4,A,3255.2915,N,11714.2532,W,52.90,330.80,280410,,*2C
$GPRMC,170642.4,A,3255.3307,N,11714.2765,W,52.70,335.50,280410,,*2E
$GPRMC,170645.4,A,3255.3709,N,11714.2964,W,52.30,338.70,280410,,*27
$GPRMC,170648.4,A,3255.4122,N,11714.3143,W,53.20,341.40,280410,,*23
$GPRMC,170651.4,A,3255.4544,N,11714.3297,W,53.40,344.10,280410,,*23
$GPRMC,170654.4,A,3255.4979,N,11714.3440,W,54.30,343.80,280410,,*26
$GPRMC,170657.4,A,3255.5420,N,11714.3597,W,56.20,342.80,280410,,*2C
$GPRMC,170700.4,A,3255.5876,N,11714.3751,W,57.50,343.70,280410,,*20
$GPRMC,170703.4,A,3255.6343,N,11714.3914,W,59.50,343.80,280410,,*23
$GPRMC,170706.4,A,3255.6847,N,11714.4073,W,63.60,344.40,280410,,*27
$GPRMC,170709.4,A,3255.7355,N,11714.4231,W,62.70,346.60,280410,,*25
$GPRMC,170712.4,A,3255.7868,N,11714.4368,W,63.10,348.20,280410,,*2A
$GPRMC,170715.4,A,3255.8387,N,11714.4485,W,62.90,350.10,280410,,*2F
$GPRMC,170718.4,A,3255.8897,N,11714.4577,W,61.10,352.50,280410,,*29
$GPRMC,170721.4,A,3255.9403,N,11714.4642,W,59.80,353.90,280410,,*29
$GPRMC,170724.4,A,3255.9914,N,11714.4690,W,60.80,355.50,280410,,*28
$GPRMC,170727.4,A,3256.0424,N,11714.4722,W,61.20,356.70,280410,,*2D
$GPRMC,170730.4,A,3256.0939,N,11714.4758,W,61.90,356.20,280410,,*29
$GPRMC,170733.4,A,3256.1452,N,11714.4784,W,60.10,356.60,280410,,*27
$GPRMC,170736.4,A,3256.1952,N,11714.4823,W,59.70,356.60,280410,,*21
$GPRMC,170739.4,A,3256.2449,N,11714.4862,W,59.60,356.30,280410,,*2B
$GPRMC,170742.4,A,3256.2943,N,11714.4911,W,60.00,355.10,280410,,*28
$GPRMC,170745.4,A,3256.3457,N,11714.4990,W,61.50,353.70,280410,,*2B
$GPRMC,170748.4,A,3256.3967,N,11714.5060,W,62.70,352.80,280410,,*20
$GPRMC,170751.4,A,3256.4492,N,11714.5147,W,63.80,351.60,280410,,*2F
$GPRMC,170754.4,A,3256.5035,N,11714.5244,W,65.10,351.00,280410,,*2B
$GPRMC,170757.4,A,3256.5559,N,11714.5340,W,64.90,350.70,280410,,*2D
$GPRMC,170800.4,A,3256.6083,N,11714.5437,W,63.80,351.40,280410,,*22
$GPRMC,170803.4,A,3256.6604,N,11714.5529,W,63.20,350.80,280410,,*21
$GPRMC,170806.4,A,3256.7123,N,11714.5629,W,63.30,351.20,280410,,*2E
$GPRMC,170809.4,A,3256.7653,N,11714.5729,W,64.40,351.20,280410,,*20
$GPRMC,170812.4,A,3256.8189,N,11714.5825,W,65.30,351.20,280410,,*20
$GPRMC,170815.4,A,3256.8728,N,11714.5924,W,66.10,351.00,280410,,*29
$GPRMC,170818.4,A,3256.9269,N,11714.6028,W,65.40,350.90,280410,,*2D
$GPRMC,170821.4,A,3256.9796,N,11714.6127,W,62.20,351.20,280410,,*27
$GPRMC,170824.4,A,3257.0301,N,11714.6224,W,61.10,350.60,280410,,*25
$GPRMC,170827.4,A,3257.0810,N,11714.6320,W,62.60,351.20,280410,,*29
$GPRMC,170830.4,A,3257.1334,N,11714.6422,W,65.90,350.50,280410,,*28
$GPRMC,170833.4,A,3257.1881,N,11714.6528,W,66.90,350.80,280410,,*2B
$GPRMC,170836.4,A,3257.2434,N,11714.6631,W,66.90,351.10,280410,,*2C
$GPRMC,170839.4,A,3257.2979,N,11714.6732,W,66.40,351.20,280410,,*2B
$GPRMC,170842.4,A,3257.3518,N,11714.6830,W,64.60,351.70,280410,,*25
$GPRMC,170845.4,A,3257.4046,N,11714.6922,W,63.60,351.60,280410,,*2F
$GPRMC,170848.4,A,3257.4580,N,11714.7029,W,63.90,350.70,280410,,*21
$GPRMC,170851.4,A,3257.5096,N,11714.7131,W,63.30,350.20,280410,,*2D
$GPRMC,170854.4,A,3257.5630,N,11714.7245,W,64.10,348.90,280410,,*25
$GPRMC,170857.4,A,3257.6174,N,11714.7402,W,65.80,346.10,280410,,*29
$GPRMC,170900.4,A,3257.6699,N,11714.7567,W,65.50,344.90,280410,,*2B
$GPRMC,170903.4,A,3257.7219,N,11714.7761,W,65.50,342.40,280410,,*2A
$GPRMC,170906.4,A,3257.7733,N,11714.7956,W,64.50,342.50,280410,,*28
$GPRMC,170909.4,A,3257.8241,N,11714.8150,W,64.20,342.20,280410,,*29
$GPRMC,170912.4,A,3257.8745,N,11714.8335,W,63.50,342.60,280410,,*27
$GPRMC,170915.4,A,3257.9258,N,11714.8529,W,64.50,342.20,280410,,*20
$GPRMC,170918.4,A,3257.9774,N,11714.8726,W,65.10,342.10,280410,,*2D
$GPRMC,170921.4,A,3258.0307,N,11714.8923,W,67.00,342.40,280410,,*2C
$GPRMC,170924.4,A,3258.0833,N,11714.9106,W,66.50,342.70,280410,,*2C
$GPRMC,170927.4,A,3258.1367,N,11714.9315,W,66.70,342.50,280410,,*24
$GPRMC,170930.4,A,3258.1897,N,11714.9508,W,66.60,342.70,280410,,*2F
$GPRMC,170933.4,A,3258.2431,N,11714.9720,W,66.60,342.50,280410,,*25
$GPRMC,170936.4,A,3258.2950,N,11714.9914,W,65.50,342.30,280410,,*25
$GPRMC,170939.4,A,3258.3470,N,11715.0115,W,65.70,342.30,280410,,*27
$GPRMC,170942.4,A,3258.4004,N,11715.0303,W,66.70,342.80,280410,,*26
$GPRMC,170945.4,A,3258.4548,N,11715.0504,W,67.80,342.30,280410,,*28
$GPRMC,170948.4,A,3258.5075,N,11715.0704,W,67.20,342.30,280410,,*27
$GPRMC,170951.4,A,3258.5616,N,11715.0919,W,66.80,342.40,280410,,*22
$GPRMC,170954.4,A,3258.6137,N,11715.1112,W,65.90,342.40,280410,,*20
$GPRMC,170957.4,A,3258.6649,N,11715.1320,W,64.10,341.80,280410,,*28
$GPRMC,171000.4,A,3258.7146,N,11715.1504,W,63.40,342.10,280410,,*23
$GPRMC,171003.4,A,3258.7637,N,11715.1674,W,62.10,342.40,280410,,*24
$GPRMC,171006.4,A,3258.8156,N,11715.1865,W,62.50,342.20,280410,,*22
$GPRMC,171009.4,A,3258.8646,N,11715.2058,W,62.20,341.60,280410,,*2E
$GPRMC,171012.4,A,3258.9138,N,11715.2252,W,61.50,341.40,280410,,*25
$GPRMC,171015.4,A,3258.9621,N,11715.2433,W,60.60,342.10,280410,,*28
$GPRMC,171018.4,A,3259.0111,N,11715.2618,W,59.40,342.20,280410,,*29
$GPRMC,171021.4,A,3259.0582,N,11715.2777,W,58.90,345.60,280410,,*2A
$GPRMC,171024.4,A,3259.1057,N,11715.2888,W,59.70,349.00,280410,,*29
$GPRMC,171027.4,A,3259.1560,N,11715.2972,W,61.10,352.60,280410,,*2E
$GPRMC,171030.4,A,3259.2067,N,11715.3049,W,61.90,352.70,280410,,*20
$GPRMC,171033.4,A,3259.2572,N,11715.3126,W,62.60,352.90,280410,,*28
$GPRMC,171036.4,A,3259.3108,N,11715.3213,W,64.20,352.50,280410,,*2E
$GPRMC,171039.4,A,3259.3643,N,11715.3286,W,63.50,352.80,280410,,*28
$GPRMC,171042.4,A,3259.4179,N,11715.3373,W,64.40,352.40,280410,,*2C
$GPRMC,171045.4,A,3259.4731,N,11715.3454,W,66.10,352.30,280410,,*23
$GPRMC,171048.4,A,3259.5294,N,11715.3547,W,68.50,351.60,280410,,*2A
$GPRMC,171051.4,A,3259.5879,N,11715.3650,W,70.20,351.50,280410,,*23
$GPRMC,171054.4,A,3259.6471,N,11715.3742,W,70.40,352.20,280410,,*21
$GPRMC,171057.4,A,3259.7035,N,11715.3843,W,69.10,351.80,280410,,*2D
$GPRMC,171100.4,A,3259.7610,N,11715.3938,W,68.30,352.10,280410,,*2B
$GPRMC,171103.4,A,3259.8188,N,11715.4035,W,69.80,352.50,280410,,*2C
$GPRMC,171106.4,A,3259.8763,N,11715.4129,W,69.70,352.40,280410,,*28
$GPRMC,171109.4,A,3259.9347,N,11715.4230,W,69.50,351.90,280410,,*23
$GPRMC,171112.4,A,3259.9904,N,11715.4324,W,66.20,351.70,280410,,*26
$GPRMC,171115.4,A,3300.0469,N,11715.4408,W,67.40,352.70,280410,,*2E
$GPRMC,171118.4,A,3300.1008,N,11715.4490,W,65.60,352.30,280410,,*24
$GPRMC,171121.4,A,3300.1526,N,11715.4595,W,63.10,348.90,280410,,*23
$GPRMC,171124.4,A,3300.2034,N,11715.4766,W,64.90,341.50,280410,,*27
$GPRMC,171127.4,A,3300.2544,N,11715.4984,W,64.20,338.80,280410,,*2C
$GPRMC,171130.4,A,3300.3020,N,11715.5277,W,64.00,331.10,280410,,*28
$GPRMC,171133.4,A,3300.3464,N,11715.5636,W,65.30,324.20,280410,,*2B
$GPRMC,171136.4,A,3300.3900,N,11715.6063,W,66.10,317.90,280410,,*2E
$GPRMC,171139.4,A,3300.4306,N,11715.6532,W,68.30,316.10,280410,,*2E
$GPRMC,171142.4,A,3300.4721,N,11715.7014,W,70.20,316.50,280410,,*2F
$GPRMC,171145.4,A,3300.5154,N,11715.7482,W,70.20,317.20,280410,,*20
$GPRMC,171148.4,A,3300.5574,N,11715.7962,W,69.90,315.70,280410,,*2C
$GPRMC,171151.4,A,3300.5994,N,11715.8446,W,71.10,315.90,280410,,*2D
$GPRMC,171154.4,A,3300.6431,N,11715.8938,W,72.00,316.00,280410,,*25
$GPRMC,171157.4,A,3300.6854,N,11715.9446,W,72.40,316.10,280410,,*29
$GPRMC,171200.4,A,3300.7291,N,11715.9935,W,71.10,316.30,280410,,*27
$GPRMC,171203.4,A,3300.7714,N,11716.0423,W,69.90,316.10,280410,,*2F
$GPRMC,171206.4,A,3300.8130,N,11716.0896,W,68.60,316.10,280410,,*29
$GPRMC,171209.4,A,3300.8537,N,11716.1367,W,67.60,316.00,280410,,*2F
$GPRMC,171212.4,A,3300.8943,N,11716.1813,W,66.10,317.20,280410,,*27
$GPRMC,171215.4,A,3300.9356,N,11716.2232,W,64.50,320.70,280410,,*22
$GPRMC,171218.4,A,3300.9792,N,11716.2623,W,64.90,324.50,280410,,*2D
$GPRMC,171221.4,A,3301.0261,N,11716.2955,W,65.10,329.60,280410,,*2F
$GPRMC,171224.4,A,3301.0747,N,11716.3255,W,65.00,334.60,280410,,*2C
$GPRMC,171227.4,A,3301.1251,N,11716.3493,W,64.50,339.50,280410,,*2A
$GPRMC,171230.4,A,3301.1761,N,11716.3666,W,64.70,344.30,280410,,*2C
$GPRMC,171233.4,A,3301.2286,N,11716.3785,W,64.00,349.70,280410,,*22
$GPRMC,171236.4,A,3301.2819,N,11716.3898,W,65.50,350.60,280410,,*25
$GPRMC,171239.4,A,3301.3351,N,11716.4007,W,64.50,350.00,280410,,*22
$GPRMC,171242.4,A,3301.3883,N,11716.4116,W,63.50,350.60,280410,,*2A
$GPRMC,171245.4,A,3301.4407,N,11716.4234,W,63.90,347.80,280410,,*2D
$GPRMC,171248.4,A,3301.4925,N,11716.4401,W,64.40,343.20,280410,,*29
$GPRMC,171251.4,A,3301.5432,N,11716.4620,W,64.80,338.90,280410,,*21
$GPRMC,171254.4,A,3301.5925,N,11716.4900,W,65.70,333.30,280410,,*2D
$GPRMC,171257.4,A,3301.6398,N,11716.5209,W,65.30,330.40,280410,,*22
$GPRMC,171300.4,A,3301.6868,N,11716.5522,W,65.10,330.50,280410,,*28
$GPRMC,171303.4,A,3301.7339,N,11716.5833,W,64.80,330.40,280410,,*21
$GPRMC,171306.4,A,3301.7816,N,11716.6161,W,65.60,330.20,280410,,*26
$GPRMC,171309.4,A,3301.8296,N,11716.6490,W,65.70,330.30,280410,,*2F
$GPRMC,171312.4,A,3301.8769,N,11716.6811,W,65.90,330.80,280410,,*20
$GPRMC,171315.4,A,3301.9253,N,11716.7129,W,66.70,330.90,280410,,*25
$GPRMC,171318.4,A,3301.9749,N,11716.7459,W,67.80,330.60,280410,,*25
$GPRMC,171321.4,A,3302.0236,N,11716.7789,W,66.80,330.30,280410,,*22
$GPRMC,171324.4,A,3302.0715,N,11716.8120,W,65.60,330.30,280410,,*24
$GPRMC,171327.4,A,3302.1200,N,11716.8443,W,66.80,330.50,280410,,*2C
$GPRMC,171330.4,A,3302.1691,N,11716.8771,W,68.00,330.20,280410,,*25
$GPRMC,171333.4,A,3302.2185,N,11716.9114,W,69.40,330.20,280410,,*26
$GPRMC,171336.4,A,3302.2691,N,11716.9459,W,70.20,330.40,280410,,*25
$GPRMC,171339.4,A,3302.3205,N,11716.9801,W,69.60,330.50,280410,,*2E
$GPRMC,171342.4,A,3302.3722,N,11717.0148,W,70.50,330.10,280410,,*21
$GPRMC,171345.4,A,3302.4230,N,11717.0491,W,70.00,330.90,280410,,*2B
$GPRMC,171348.4,A,3302.4741,N,11717.0813,W,70.00,332.40,280410,,*2C
$GPRMC,171351.4,A,3302.5263,N,11717.1083,W,68.10,338.50,280410,,*23
$GPRMC,171354.4,A,3302.5809,N,11717.1301,W,68.60,343.00,280410,,*27
$GPRMC,171357.4,A,3302.6355,N,11717.1483,W,68.30,343.70,280410,,*2A
$GPRMC,171400.4,A,3302.6906,N,11717.1643,W,69.80,345.60,280410,,*20
$GPRMC,171403.4,A,3302.7464,N,11717.1817,W,69.30,346.00,280410,,*2A
$GPRMC,171406.4,A,3302.8030,N,11717.1974,W,69.40,345.90,280410,,*2C
$GPRMC,171409.4,A,3302.8591,N,11717.2143,W,70.00,346.00,280410,,*24
$GPRMC,171412.4,A,3302.9170,N,11717.2331,W,70.60,345.50,280410,,*23
$GPRMC,171415.4,A,3302.9739,N,11717.2500,W,71.30,345.70,280410,,*2D
$GPRMC,171418.4,A,3303.0316,N,11717.2668,W,70.90,345.80,280410,,*28
$GPRMC,171421.4,A,3303.0877,N,11717.2836,W,69.00,345.60,280410,,*24
$GPRMC,171424.4,A,3303.1440,N,11717.3009,W,68.20,346.10,280410,,*2A
$GPRMC,171427.4,A,3303.1986,N,11717.3178,W,68.00,345.70,280410,,*2E
$GPRMC,171430.4,A,3303.2537,N,11717.3346,W,68.20,345.90,280410,,*2E
$GPRMC,171433.4,A,3303.3089,N,11717.3503,W,68.50,346.10,280410,,*27
$GPRMC,171436.4,A,3303.3641,N,11717.3674,W,68.40,345.90,280410,,*29
$GPRMC,171439.4,A,3303.4194,N,11717.3847,W,68.50,345.70,280410,,*2F
$GPRMC,171442.4,A,3303.4753,N,11717.4022,W,68.20,345.50,280410,,*27
$GPRMC,171445.4,A,3303.5290,N,11717.4184,W,65.70,345.60,280410,,*2D
$GPRMC,171448.4,A,3303.5833,N,11717.4342,W,66.00,346.40,280410,,*2E
$GPRMC,171451.4,A,3303.6374,N,11717.4501,W,66.40,345.50,280410,,*2A
$GPRMC,171454.4,A,3303.6904,N,11717.4660,W,65.30,345.60,280410,,*21
$GPRMC,171457.4,A,3303.7429,N,11717.4811,W,64.30,345.80,280410,,*26
$GPRMC,171501.4,A,3303.8116,N,11717.5013,W,63.90,346.10,280410,,*2E
$GPRMC,171504.4,A,3303.8642,N,11717.5171,W,64.30,345.60,280410,,*21
$GPRMC,171507.4,A,3303.9164,N,11717.5334,W,64.50,345.50,280410,,*26
$GPRMC,171510.4,A,3303.9690,N,11717.5492,W,64.70,345.80,280410,,*28
$GPRMC,171513.4,A,3304.0224,N,11717.5651,W,65.50,345.80,280410,,*20
$GPRMC,171516.4,A,3304.0761,N,11717.5808,W,65.90,345.80,280410,,*2F
$GPRMC,171519.4,A,3304.1295,N,11717.5974,W,66.20,345.90,280410,,*2C
$GPRMC,171522.4,A,3304.1831,N,11717.6135,W,66.60,345.60,280410,,*25
$GPRMC,171525.4,A,3304.2356,N,11717.6295,W,65.20,345.60,280410,,*25
$GPRMC,171528.4,A,3304.2887,N,11717.6459,W,65.00,345.90,280410,,*24
$GPRMC,171531.4,A,3304.3400,N,11717.6614,W,63.20,345.40,280410,,*2C
$GPRMC,171534.4,A,3304.3922,N,11717.6759,W,62.40,346.30,280410,,*2F
$GPRMC,171537.4,A,3304.4388,N,11717.6912,W,57.00,345.50,280410,,*27
$GPRMC,171540.4,A,3304.4822,N,11717.7040,W,53.00,345.80,280410,,*2A
$GPRMC,171543.4,A,3304.5226,N,11717.7154,W,50.20,346.20,280410,,*2A
$GPRMC,171546.4,A,3304.5616,N,11717.7279,W,47.90,345.60,280410,,*2E
$GPRMC,171549.4,A,3304.6013,N,11717.7402,W,49.50,345.90,280410,,*26
$GPRMC,171552.4,A,3304.6423,N,11717.7514,W,50.10,346.10,280410,,*2A
$GPRMC,171555.4,A,3304.6827,N,11717.7632,W,50.30,346.20,280410,,*23
$GPRMC,171558.4,A,3304.7245,N,11717.7766,W,51.50,346.20,280410,,*26
$GPRMC,171601.4,A,3304.7672,N,11717.7899,W,52.30,345.80,280410,,*2A
$GPRMC,171604.4,A,3304.8105,N,11717.8028,W,53.70,345.80,280410,,*2F
$GPRMC,171607.4,A,3304.8546,N,11717.8162,W,55.60,346.00,280410,,*2C
$GPRMC,171610.4,A,3304.9012,N,11717.8305,W,57.50,345.70,280410,,*29
$GPRMC,171613.4,A,3304.9485,N,11717.8447,W,58.40,345.50,280410,,*2D
$GPRMC,171616.4,A,3304.9966,N,11717.8601,W,58.90,343.50,280410,,*23
$GPRMC,171619.4,A,3305.0450,N,11717.8800,W,61.30,339.30,280410,,*28
$GPRMC,171622.4,A,3305.0926,N,11717.9056,W,62.70,334.70,280410,,*28
$GPRMC,171625.4,A,3305.1407,N,11717.9359,W,65.30,331.50,280410,,*28
$GPRMC,171628.4,A,3305.1884,N,11717.9666,W,64.90,331.20,280410,,*27
$GPRMC,171631.4,A,3305.2363,N,11717.9975,W,64.80,331.30,280410,,*23
$GPRMC,171634.4,A,3305.2831,N,11718.0282,W,63.30,331.60,280410,,*26
$GPRMC,171637.4,A,3305.3295,N,11718.0584,W,63.20,331.30,280410,,*25
$GPRMC,171640.4,A,3305.3755,N,11718.0888,W,62.60,331.40,280410,,*2F
$GPRMC,171643.4,A,3305.4210,N,11718.1180,W,61.40,331.90,280410,,*23
$GPRMC,171646.4,A,3305.4639,N,11718.1460,W,57.80,331.30,280410,,*21
$GPRMC,171649.4,A,3305.5062,N,11718.1735,W,57.30,331.30,280410,,*2F
$GPRMC,171652.4,A,3305.5483,N,11718.2009,W,57.70,331.20,280410,,*20
$GPRMC,171655.4,A,3305.5921,N,11718.2298,W,60.00,331.40,280410,,*2D
$GPRMC,171658.4,A,3305.6367,N,11718.2590,W,60.20,330.90,280410,,*2A
$GPRMC,171701.4,A,3305.6791,N,11718.2888,W,58.00,330.10,280410,,*2F
$GPRMC,171704.4,A,3305.7256,N,11718.3167,W,62.00,332.20,280410,,*24
$GPRMC,171707.4,A,3305.7719,N,11718.3450,W,62.60,331.90,280410,,*26
$GPRMC,171710.4,A,3305.8188,N,11718.3763,W,63.70,331.20,280410,,*29
$GPRMC,171713.4,A,3305.8654,N,11718.4055,W,62.80,331.20,280410,,*27
$GPRMC,171716.4,A,3305.9101,N,11718.4353,W,61.00,331.10,280410,,*29
$GPRMC,171719.4,A,3305.9550,N,11718.4645,W,61.10,331.50,280410,,*21
$GPRMC,171722.4,A,3305.9988,N,11718.4931,W,59.90,331.00,280410,,*2A
$GPRMC,171725.4,A,3306.0441,N,11718.5213,W,61.60,331.20,280410,,*23
$GPRMC,171728.4,A,3306.0898,N,11718.5514,W,63.00,331.10,280410,,*21
$GPRMC,171731.4,A,3306.1356,N,11718.5825,W,63.50,331.10,280410,,*2B
$GPRMC,171734.4,A,3306.1823,N,11718.6127,W,64.30,330.90,280410,,*27
$GPRMC,171737.4,A,3306.2294,N,11718.6442,W,65.70,330.70,280410,,*2C
$GPRMC,171740.4,A,3306.2796,N,11718.6767,W,68.10,331.50,280410,,*27
$GPRMC,171743.4,A,3306.3298,N,11718.7095,W,68.90,331.20,280410,,*2A
$GPRMC,171746.4,A,3306.3791,N,11718.7421,W,67.60,331.10,280410,,*2B
$GPRMC,171749.4,A,3306.4279,N,11718.7740,W,66.60,331.40,280410,,*20
$GPRMC,171752.4,A,3306.4758,N,11718.8045,W,64.50,331.60,280410,,*22
$GPRMC,171755.4,A,3306.5231,N,11718.8353,W,63.60,332.00,280410,,*2B
$GPRMC,171758.4,A,3306.5718,N,11718.8641,W,64.30,333.60,280410,,*2B
$GPRMC,171801.4,A,3306.6196,N,11718.8940,W,65.20,333.20,280410,,*21
$GPRMC,171804.4,A,3306.6693,N,11718.9234,W,66.80,333.10,280410,,*25
$GPRMC,171807.4,A,3306.7195,N,11718.9544,W,67.80,333.10,280410,,*27
$GPRMC,171810.4,A,3306.7712,N,11718.9843,W,68.10,333.50,280410,,*20
$GPRMC,171813.4,A,3306.8224,N,11719.0142,W,69.00,333.30,280410,,*2A
$GPRMC,171816.4,A,3306.8752,N,11719.0454,W,71.00,334.30,280410,,*27
$GPRMC,171819.4,A,3306.9284,N,11719.0755,W,72.00,333.50,280410,,*27
$GPRMC,171822.4,A,3306.9829,N,11719.1084,W,73.30,332.60,280410,,*28
$GPRMC,171825.4,A,3307.0374,N,11719.1403,W,72.60,333.30,280410,,*2F
$GPRMC,171828.4,A,3307.0912,N,11719.1729,W,72.60,332.80,280410,,*29
$GPRMC,171831.4,A,3307.1445,N,11719.2050,W,71.90,333.20,280410,,*22
$GPRMC,171834.4,A,3307.1986,N,11719.2368,W,71.80,333.70,280410,,*29
$GPRMC,171837.4,A,3307.2528,N,11719.2696,W,71.70,333.10,280410,,*2C
$GPRMC,171840.4,A,3307.3048,N,11719.3004,W,69.20,333.10,280410,,*2E
$GPRMC,171843.4,A,3307.3560,N,11719.3308,W,68.20,333.70,280410,,*2A
$GPRMC,171846.4,A,3307.4064,N,11719.3607,W,68.60,333.10,280410,,*21
$GPRMC,171849.4,A,3307.4575,N,11719.3906,W,68.10,333.20,280410,,*21
$GPRMC,171852.4,A,3307.5089,N,11719.4226,W,67.80,332.90,280410,,*2E
$GPRMC,171855.4,A,3307.5580,N,11719.4525,W,68.90,332.70,280410,,*21
$GPRMC,171858.4,A,3307.6089,N,11719.4851,W,70.40,332.30,280410,,*2D
$GPRMC,171901.4,A,3307.6622,N,11719.5172,W,70.70,332.90,280410,,*27
$GPRMC,171904.4,A,3307.7157,N,11719.5488,W,71.10,333.40,280410,,*2D
$GPRMC,171908.4,A,3307.7856,N,11719.5911,W,70.90,332.80,280410,,*20
$GPRMC,171911.4,A,3307.8387,N,11719.6220,W,71.00,333.20,280410,,*29
$GPRMC,171914.4,A,3307.8912,N,11719.6525,W,70.20,333.60,280410,,*2F
$GPRMC,171917.4,A,3307.9437,N,11719.6840,W,71.00,332.80,280410,,*25
$GPRMC,171920.4,A,3307.9969,N,11719.7160,W,70.70,334.50,280410,,*20
$GPRMC,171923.4,A,3308.0498,N,11719.7429,W,69.60,336.40,280410,,*24
$GPRMC,171926.4,A,3308.1016,N,11719.7704,W,68.80,336.80,280410,,*2D
$GPRMC,171929.4,A,3308.1541,N,11719.7976,W,68.20,336.50,280410,,*29
$GPRMC,171932.4,A,3308.2064,N,11719.8238,W,68.00,336.90,280410,,*22
$GPRMC,171935.4,A,3308.2596,N,11719.8511,W,68.50,337.00,280410,,*2C
$GPRMC,171938.4,A,3308.3111,N,11719.8769,W,67.20,336.80,280410,,*27
$GPRMC,171941.4,A,3308.3622,N,11719.9026,W,65.30,336.60,280410,,*2E
$GPRMC,171944.4,A,3308.4122,N,11719.9285,W,65.00,336.80,280410,,*2D
$GPRMC,171947.4,A,3308.4611,N,11719.9533,W,64.30,336.90,280410,,*20
$GPRMC,171950.4,A,3308.5103,N,11719.9773,W,62.90,339.30,280410,,*2C
$GPRMC,171953.4,A,3308.5602,N,11719.9967,W,62.70,345.10,280410,,*25
$GPRMC,171956.4,A,3308.6116,N,11720.0058,W,63.50,352.90,280410,,*2A
$GPRMC,171959.4,A,3308.6653,N,11720.0094,W,64.50,357.30,280410,,*2B
$GPRMC,172002.4,A,3308.7200,N,11720.0110,W,64.00,357.60,280410,,*21
$GPRMC,172005.4,A,3308.7734,N,11720.0127,W,62.60,357.00,280410,,*26
$GPRMC,172008.4,A,3308.8242,N,11720.0204,W,60.40,350.40,280410,,*21
$GPRMC,172011.4,A,3308.8748,N,11720.0354,W,62.40,341.70,280410,,*23
$GPRMC,172014.4,A,3308.9229,N,11720.0585,W,62.70,335.60,280410,,*2E
$GPRMC,172017.4,A,3308.9711,N,11720.0872,W,65.10,334.50,280410,,*25
$GPRMC,172020.4,A,3309.0206,N,11720.1162,W,66.30,333.70,280410,,*27
$GPRMC,172023.4,A,3309.0703,N,11720.1449,W,66.10,333.80,280410,,*25
$GPRMC,172026.4,A,3309.1194,N,11720.1728,W,64.70,334.20,280410,,*24
$GPRMC,172029.4,A,3309.1675,N,11720.1993,W,63.60,334.30,280410,,*2A
$GPRMC,172032.4,A,3309.2146,N,11720.2283,W,63.60,333.90,280410,,*20
$GPRMC,172035.4,A,3309.2638,N,11720.2558,W,64.00,334.50,280410,,*22
$GPRMC,172038.4,A,3309.3125,N,11720.2835,W,64.40,335.10,280410,,*22
$GPRMC,172041.4,A,3309.3600,N,11720.3074,W,62.80,337.60,280410,,*2F
$GPRMC,172044.4,A,3309.4083,N,11720.3319,W,62.90,336.90,280410,,*27
$GPRMC,172047.4,A,3309.4564,N,11720.3571,W,62.60,336.70,280410,,*21
$GPRMC,172050.4,A,3309.5034,N,11720.3799,W,61.60,337.00,280410,,*27
$GPRMC,172053.4,A,3309.5489,N,11720.4036,W,60.90,336.60,280410,,*2A
$GPRMC,172056.4,A,3309.5964,N,11720.4275,W,61.60,337.00,280410,,*2D
$GPRMC,172059.4,A,3309.6474,N,11720.4549,W,64.60,336.30,280410,,*22
$GPRMC,172102.4,A,3309.6973,N,11720.4780,W,64.90,337.10,280410,,*2C
$GPRMC,172105.4,A,3309.7465,N,11720.5033,W,64.10,337.00,280410,,*27
$GPRMC,172108.4,A,3309.7962,N,11720.5285,W,65.10,336.80,280410,,*27
$GPRMC,172111.4,A,3309.8471,N,11720.5557,W,66.10,336.90,280410,,*25
$GPRMC,172114.4,A,3309.8974,N,11720.5814,W,65.50,336.70,280410,,*2B
$GPRMC,172117.4,A,3309.9454,N,11720.6052,W,62.60,336.80,280410,,*24
$GPRMC,172120.4,A,3309.9920,N,11720.6291,W,60.10,336.70,280410,,*29
$GPRMC,172123.4,A,3310.0376,N,11720.6530,W,59.20,336.70,280410,,*27
$GPRMC,172126.4,A,3310.0832,N,11720.6771,W,60.20,335.50,280410,,*25
$GPRMC,172129.4,A,3310.1292,N,11720.7056,W,62.00,332.10,280410,,*2B
$GPRMC,172132.4,A,3310.1753,N,11720.7367,W,63.40,329.80,280410,,*2E
$GPRMC,172135.4,A,3310.2203,N,11720.7698,W,62.40,327.90,280410,,*21
$GPRMC,172138.4,A,3310.2645,N,11720.8026,W,62.00,327.50,280410,,*2E
$GPRMC,172141.4,A,3310.3089,N,11720.8366,W,64.10,327.90,280410,,*2B
$GPRMC,172144.4,A,3310.3556,N,11720.8708,W,66.20,327.50,280410,,*28
$GPRMC,172147.4,A,3310.4010,N,11720.9053,W,64.50,327.50,280410,,*26
$GPRMC,172150.4,A,3310.4475,N,11720.9401,W,65.70,327.70,280410,,*25
$GPRMC,172153.4,A,3310.4967,N,11720.9765,W,70.10,327.50,280410,,*29
$GPRMC,172156.4,A,3310.5487,N,11721.0157,W,74.90,327.70,280410,,*2F
$GPRMC,172159.4,A,3310.6053,N,11721.0578,W,78.60,327.40,280410,,*27
$GPRMC,172202.4,A,3310.6572,N,11721.0995,W,73.50,325.80,280410,,*25
$GPRMC,172205.4,A,3310.7060,N,11721.1390,W,69.10,325.80,280410,,*24
$GPRMC,172208.4,A,3310.7515,N,11721.1778,W,66.40,324.90,280410,,*26
$GPRMC,172211.4,A,3310.7945,N,11721.2137,W,62.70,325.20,280410,,*24
$GPRMC,172214.4,A,3310.8384,N,11721.2484,W,63.80,325.00,280410,,*28
$GPRMC,172217.4,A,3310.8829,N,11721.2851,W,63.70,325.00,280410,,*2C
$GPRMC,172220.4,A,3310.9252,N,11721.3214,W,63.70,325.40,280410,,*21
$GPRMC,172223.4,A,3310.9689,N,11721.3577,W,63.50,325.10,280410,,*25
$GPRMC,172226.4,A,3311.0110,N,11721.3923,W,62.80,325.20,280410,,*2D
$GPRMC,172229.4,A,3311.0540,N,11721.4283,W,63.30,324.80,280410,,*24
$GPRMC,172232.4,A,3311.0977,N,11721.4638,W,63.80,325.20,280410,,*22
$GPRMC,172235.4,A,3311.1398,N,11721.4993,W,62.80,325.40,280410,,*26
$GPRMC,172238.4,A,3311.1823,N,11721.5348,W,62.40,325.30,280410,,*26
$GPRMC,172241.4,A,3311.2257,N,11721.5708,W,63.40,324.80,280410,,*29
$GPRMC,172244.4,A,3311.2703,N,11721.6077,W,64.60,324.30,280410,,*2A
$GPRMC,172247.4,A,3311.3138,N,11721.6448,W,63.90,324.80,280410,,*2D
$GPRMC,172250.4,A,3311.3581,N,11721.6814,W,65.60,324.90,280410,,*20
$GPRMC,172253.4,A,3311.4039,N,11721.7192,W,65.50,325.20,280410,,*2D
$GPRMC,172256.4,A,3311.4487,N,11721.7564,W,64.40,325.40,280410,,*22
$GPRMC,172259.4,A,3311.4926,N,11721.7930,W,63.80,325.40,280410,,*2D
$GPRMC,172302.4,A,3311.5366,N,11721.8292,W,64.00,325.20,280410,,*28
$GPRMC,172305.4,A,3311.5797,N,11721.8651,W,64.40,325.80,280410,,*20
$GPRMC,172308.4,A,3311.6238,N,11721.9010,W,64.90,325.60,280410,,*2F
$GPRMC,172311.4,A,3311.6685,N,11721.9373,W,63.30,325.20,280410,,*2A
$GPRMC,172314.4,A,3311.7115,N,11721.9730,W,62.60,325.60,280410,,*23
$GPRMC,172317.4,A,3311.7553,N,11722.0090,W,63.70,325.40,280410,,*23
$GPRMC,172320.4,A,3311.7996,N,11722.0442,W,61.60,326.70,280410,,*2A
$GPRMC,172323.4,A,3311.8436,N,11722.0802,W,63.40,325.90,280410,,*24
$GPRMC,172326.4,A,3311.8849,N,11722.1173,W,62.80,322.90,280410,,*21
$GPRMC,172329.4,A,3311.9239,N,11722.1581,W,62.70,317.20,280410,,*29
$GPRMC,172332.4,A,3311.9597,N,11722.2050,W,63.00,311.60,280410,,*2E
$GPRMC,172335.4,A,3311.9905,N,11722.2545,W,63.90,305.00,280410,,*25
$GPRMC,172338.4,A,3312.0182,N,11722.3089,W,65.00,299.30,280410,,*29
$GPRMC,172341.4,A,3312.0410,N,11722.3684,W,65.80,293.60,280410,,*25
$GPRMC,172344.4,A,3312.0607,N,11722.4295,W,65.00,291.00,280410,,*2B
$GPRMC,172347.4,A,3312.0809,N,11722.4880,W,62.50,293.20,280410,,*24
$GPRMC,172350.4,A,3312.1012,N,11722.5419,W,58.80,293.40,280410,,*2E
$GPRMC,172353.4,A,3312.1203,N,11722.5945,W,57.60,293.80,280410,,*26
$GPRMC,172356.4,A,3312.1383,N,11722.6485,W,60.30,292.40,280410,,*24
$GPRMC,172359.4,A,3312.1570,N,11722.7063,W,61.90,291.80,280410,,*28
$GPRMC,172402.4,A,3312.1755,N,11722.7622,W,59.70,291.90,280410,,*23
$GPRMC,172405.4,A,3312.1964,N,11722.8167,W,58.90,292.70,280410,,*23
$GPRMC,172408.4,A,3312.2180,N,11722.8687,W,58.90,298.10,280410,,*2A
$GPRMC,172411.4,A,3312.2452,N,11722.9191,W,60.00,304.20,280410,,*2C
