NMEA Sentence Code,UTC Time,Status,Latitude,Latitude Direction,Longitude,Longitude Direction,Speed (knots),Track Angle (degrees true),Date,MagneticVariation,Magnetic Variation Direction,[FAA Mode]-Optional,Checksum
$GPRMC,151041.0,A,3305.715831,N,11718.510626,W,21.1,57.0,020810,,,A*73
$GPRMC,151044.0,A,3305.727823,N,11718.492521,W,24.4,46.9,020810,,,A*72
$GPRMC,151047.0,A,3305.744160,N,11718.474924,W,26.9,40.4,020810,,,A*7F
$GPRMC,151050.0,A,3305.761506,N,11718.456950,W,28.1,40.4,020810,,,A*7F
$GPRMC,151053.0,A,3305.780601,N,11718.439660,W,29.0,32.8,020810,,,A*7B
$GPRMC,151056.0,A,3305.802192,N,11718.431633,W,28.1,10.0,020810,,,A*70
$GPRMC,151059.0,A,3305.825683,N,11718.436743,W,30.8,342.3,020810,,,A*4B
$GPRMC,151102.0,A,3305.849061,N,11718.449346,W,31.4,334.9,020810,,,A*4B
$GPRMC,151105.0,A,3305.873711,N,11718.463246,W,32.6,335.2,020810,,,A*47
$GPRMC,151108.0,A,3305.897856,N,11718.476795,W,31.1,335.9,020810,,,A*4C
$GPRMC,151111.0,A,3305.920618,N,11718.489705,W,29.9,335.1,020810,,,A*4D
$GPRMC,151114.0,A,3305.942676,N,11718.504259,W,29.7,325.0,020810,,,A*42
$GPRMC,151117.0,A,3305.959257,N,11718.524662,W,27.4,306.9,020810,,,A*47
$GPRMC,151120.0,A,3305.969335,N,11718.548420,W,26.2,288.7,020810,,,A*45
$GPRMC,151123.0,A,3305.973502,N,11718.575552,W,28.6,274.6,020810,,,A*4D
$GPRMC,151126.0,A,3305.973052,N,11718.605294,W,29.9,266.9,020810,,,A*43
$GPRMC,151129.0,A,3305.973165,N,11718.634579,W,30.1,270.2,020810,,,A*43
$GPRMC,151132.0,A,3305.975360,N,11718.664055,W,27.6,279.6,020810,,,A*4A
$GPRMC,151135.0,A,3305.981709,N,11718.684961,W,17.2,296.7,020810,,,A*4A
$GPRMC,151138.0,A,3305.987055,N,11718.694466,W,7.0,303.2,020810,,,A*7F
$GPRMC,151208.0,A,3305.991702,N,11718.703690,W,10.2,310.3,020810,,,A*4E
$GPRMC,151211.0,A,3306.001021,N,11718.713154,W,19.1,323.0,020810,,,A*44
$GPRMC,151214.0,A,3306.017743,N,11718.724515,W,25.6,334.7,020810,,,A*49
$GPRMC,151217.0,A,3306.040052,N,11718.734845,W,31.0,340.2,020810,,,A*43
$GPRMC,151220.0,A,3306.065296,N,11718.745401,W,32.0,340.1,020810,,,A*40
$GPRMC,151223.0,A,3306.089728,N,11718.756772,W,30.5,335.8,020810,,,A*48
$GPRMC,151226.0,A,3306.110651,N,11718.772020,W,28.5,322.4,020810,,,A*46
$GPRMC,151229.0,A,3306.128409,N,11718.788687,W,25.3,322.6,020810,,,A*4A
$GPRMC,151232.0,A,3306.145461,N,11718.800827,W,21.6,336.9,020810,,,A*45
$GPRMC,151235.0,A,3306.155117,N,11718.804584,W,7.3,348.5,020810,,,A*73
$GPRMC,151241.0,A,3306.161159,N,11718.801999,W,8.2,48.2,020810,,,A*42
$GPRMC,151244.0,A,3306.165009,N,11718.789205,W,17.6,78.7,020810,,,A*7A
$GPRMC,151247.0,A,3306.169080,N,11718.766151,W,26.4,80.4,020810,,,A*73
$GPRMC,151250.0,A,3306.172968,N,11718.740845,W,22.6,78.8,020810,,,A*75
$GPRMC,151253.0,A,3306.174854,N,11718.725003,W,8.9,83.1,020810,,,A*4D
$GPRMC,151308.0,A,3306.177557,N,11718.717907,W,6.5,81.3,020810,,,A*41
$GPRMC,151311.0,A,3306.177114,N,11718.708885,W,11.1,114.7,020810,,,A*44
$GPRMC,151314.0,A,3306.168137,N,11718.700582,W,17.2,155.8,020810,,,A*43
$GPRMC,151317.0,A,3306.153603,N,11718.689960,W,23.3,140.8,020810,,,A*4A
$GPRMC,151320.0,A,3306.140821,N,11718.670286,W,26.2,122.6,020810,,,A*49
$GPRMC,151323.0,A,3306.128963,N,11718.648062,W,26.0,123.6,020810,,,A*43
$GPRMC,151326.0,A,3306.117609,N,11718.627991,W,21.6,125.3,020810,,,A*47
$GPRMC,151329.0,A,3306.108426,N,11718.613044,W,16.0,128.8,020810,,,A*4B
$GPRMC,151332.0,A,3306.101848,N,11718.603605,W,8.8,132.1,020810,,,A*7B
$GPRMC,151335.0,A,3306.097855,N,11718.598606,W,8.9,135.3,020810,,,A*78
$GPRMC,151338.0,A,3306.089192,N,11718.588708,W,18.3,137.4,020810,,,A*48
$GPRMC,151341.0,A,3306.073848,N,11718.573219,W,27.0,143.4,020810,,,A*40
$GPRMC,151344.0,A,3306.053053,N,11718.556658,W,32.1,147.7,020810,,,A*41
$GPRMC,151347.0,A,3306.028201,N,11718.538769,W,36.5,149.6,020810,,,A*4F
$GPRMC,151350.0,A,3305.999819,N,11718.519638,W,40.7,150.2,020810,,,A*43
$GPRMC,151353.0,A,3305.968123,N,11718.498209,W,45.5,150.1,020810,,,A*44
$GPRMC,151356.0,A,3305.933198,N,11718.474778,W,49.2,150.6,020810,,,A*42
$GPRMC,151359.0,A,3305.897019,N,11718.450608,W,49.6,150.7,020810,,,A*4F
$GPRMC,151402.0,A,3305.859785,N,11718.425603,W,52.3,150.4,020810,,,A*43
$GPRMC,151405.0,A,3305.820913,N,11718.399125,W,53.6,150.0,020810,,,A*48
$GPRMC,151408.0,A,3305.782294,N,11718.372782,W,52.7,150.9,020810,,,A*41
$GPRMC,151411.0,A,3305.743142,N,11718.347048,W,54.4,151.0,020810,,,A*46
$GPRMC,151414.0,A,3305.702514,N,11718.320162,W,55.4,151.1,020810,,,A*49
$GPRMC,151417.0,A,3305.662412,N,11718.293659,W,53.6,151.2,020810,,,A*4B
$GPRMC,151420.0,A,3305.624271,N,11718.268659,W,50.5,151.3,020810,,,A*4B
$GPRMC,151423.0,A,3305.589069,N,11718.245630,W,45.9,151.8,020810,,,A*44
$GPRMC,151426.0,A,3305.556543,N,11718.224593,W,43.6,151.2,020810,,,A*40
$GPRMC,151429.0,A,3305.525053,N,11718.204406,W,41.4,151.6,020810,,,A*44
$GPRMC,151432.0,A,3305.495673,N,11718.185482,W,38.7,151.5,020810,,,A*48
$GPRMC,151435.0,A,3305.467754,N,11718.167452,W,37.7,151.3,020810,,,A*4E
$GPRMC,151438.0,A,3305.440237,N,11718.149870,W,37.4,151.6,020810,,,A*40
$GPRMC,151441.0,A,3305.412383,N,11718.132012,W,37.8,151.4,020810,,,A*49
$GPRMC,151444.0,A,3305.384607,N,11718.114365,W,37.6,151.7,020810,,,A*47
$GPRMC,151447.0,A,3305.357316,N,11718.096370,W,37.3,150.8,020810,,,A*4B
$GPRMC,151450.0,A,3305.329744,N,11718.078125,W,38.6,151.2,020810,,,A*44
$GPRMC,151453.0,A,3305.301694,N,11718.059497,W,38.2,151.2,020810,,,A*4A
$GPRMC,151456.0,A,3305.274242,N,11718.041462,W,37.4,151.4,020810,,,A*4F
$GPRMC,151459.0,A,3305.246962,N,11718.023714,W,36.9,151.7,020810,,,A*41
$GPRMC,151502.0,A,3305.220619,N,11718.006987,W,33.9,152.8,020810,,,A*47
$GPRMC,151505.0,A,3305.198561,N,11717.992539,W,28.0,151.3,020810,,,A*45
$GPRMC,151508.0,A,3305.180434,N,11717.980861,W,21.6,151.9,020810,,,A*46
$GPRMC,151511.0,A,3305.167833,N,11717.972432,W,15.0,151.5,020810,,,A*46
$GPRMC,151514.0,A,3305.157931,N,11717.965960,W,13.2,151.8,020810,,,A*46
$GPRMC,151517.0,A,3305.148702,N,11717.960025,W,12.3,150.8,020810,,,A*49
$GPRMC,151520.0,A,3305.139024,N,11717.953613,W,15.1,152.4,020810,,,A*40
$GPRMC,151523.0,A,3305.127457,N,11717.946291,W,16.4,151.9,020810,,,A*4E
$GPRMC,151526.0,A,3305.115558,N,11717.938747,W,16.3,151.8,020810,,,A*45
$GPRMC,151529.0,A,3305.102990,N,11717.931017,W,18.0,153.6,020810,,,A*4E
$GPRMC,151532.0,A,3305.089011,N,11717.922669,W,19.9,152.8,020810,,,A*4C
$GPRMC,151535.0,A,3305.073967,N,11717.914255,W,20.3,154.9,020810,,,A*4F
$GPRMC,151538.0,A,3305.057335,N,11717.905595,W,22.7,155.8,020810,,,A*44
$GPRMC,151541.0,A,3305.040058,N,11717.896653,W,22.4,157.0,020810,,,A*4F
$GPRMC,151544.0,A,3305.023122,N,11717.889356,W,21.5,161.5,020810,,,A*4F
$GPRMC,151547.0,A,3305.007567,N,11717.882712,W,20.1,161.8,020810,,,A*48
$GPRMC,151550.0,A,3304.991911,N,11717.876537,W,20.2,162.6,020810,,,A*44
$GPRMC,151553.0,A,3304.975956,N,11717.870813,W,20.1,163.2,020810,,,A*45
$GPRMC,151556.0,A,3304.960283,N,11717.865457,W,19.2,165.3,020810,,,A*41
$GPRMC,151559.0,A,3304.947403,N,11717.861142,W,13.7,166.7,020810,,,A*48
$GPRMC,151602.0,A,3304.939173,N,11717.857949,W,9.0,163.8,020810,,,A*7E
$GPRMC,151605.0,A,3304.933050,N,11717.856158,W,7.2,166.4,020810,,,A*7F
$GPRMC,151608.0,A,3304.926570,N,11717.854358,W,9.8,166.0,020810,,,A*71
$GPRMC,151611.0,A,3304.919338,N,11717.852366,W,8.6,166.2,020810,,,A*79
$GPRMC,151614.0,A,3304.912255,N,11717.850541,W,9.7,166.4,020810,,,A*7A
$GPRMC,151617.0,A,3304.904746,N,11717.848222,W,9.3,166.1,020810,,,A*73
$GPRMC,151620.0,A,3304.898902,N,11717.846397,W,5.5,168.0,020810,,,A*79
$GPRMC,151626.0,A,3304.894869,N,11717.845109,W,4.9,164.9,020810,,,A*71
$GPRMC,151629.0,A,3304.889785,N,11717.843601,W,7.4,165.4,020810,,,A*74
$GPRMC,151632.0,A,3304.882980,N,11717.841493,W,9.5,165.9,020810,,,A*77
$GPRMC,151635.0,A,3304.874710,N,11717.839039,W,10.5,166.3,020810,,,A*44
$GPRMC,151638.0,A,3304.867023,N,11717.836821,W,9.0,166.7,020810,,,A*7B
$GPRMC,151641.0,A,3304.858621,N,11717.834433,W,12.3,165.5,020810,,,A*48
$GPRMC,151644.0,A,3304.847945,N,11717.831279,W,13.8,165.8,020810,,,A*44
$GPRMC,151647.0,A,3304.835875,N,11717.827477,W,16.4,165.5,020810,,,A*4B
$GPRMC,151650.0,A,3304.821763,N,11717.823122,W,17.6,165.4,020810,,,A*43
$GPRMC,151653.0,A,3304.806851,N,11717.818701,W,19.0,165.9,020810,,,A*41
$GPRMC,151656.0,A,3304.790773,N,11717.813994,W,20.6,166.3,020810,,,A*47
$GPRMC,151659.0,A,3304.773835,N,11717.809076,W,21.1,165.7,020810,,,A*47
$GPRMC,151702.0,A,3304.756598,N,11717.803946,W,21.3,165.9,020810,,,A*49
$GPRMC,151705.0,A,3304.738621,N,11717.798535,W,23.3,165.4,020810,,,A*4D
$GPRMC,151708.0,A,3304.718628,N,11717.792489,W,25.4,165.8,020810,,,A*4A
$GPRMC,151711.0,A,3304.697344,N,11717.786042,W,26.8,165.9,020810,,,A*43
$GPRMC,151714.0,A,3304.675085,N,11717.779509,W,28.2,166.1,020810,,,A*41
$GPRMC,151717.0,A,3304.652308,N,11717.772976,W,27.9,165.9,020810,,,A*41
$GPRMC,151720.0,A,3304.629642,N,11717.766117,W,28.5,165.9,020810,,,A*4B
$GPRMC,151723.0,A,3304.606390,N,11717.759026,W,29.5,165.8,020810,,,A*40
$GPRMC,151726.0,A,3304.581843,N,11717.751532,W,31.7,165.9,020810,,,A*4E
$GPRMC,151729.0,A,3304.555734,N,11717.743561,W,32.9,165.5,020810,,,A*43
$GPRMC,151732.0,A,3304.528705,N,11717.735132,W,34.3,165.5,020810,,,A*4E
$GPRMC,151735.0,A,3304.500770,N,11717.726442,W,34.6,164.7,020810,,,A*47
$GPRMC,151738.0,A,3304.472730,N,11717.716856,W,35.5,163.9,020810,,,A*4B
$GPRMC,151741.0,A,3304.444105,N,11717.707386,W,35.0,165.1,020810,,,A*4D
$GPRMC,151744.0,A,3304.416605,N,11717.699113,W,32.5,166.2,020810,,,A*42
$GPRMC,151747.0,A,3304.391729,N,11717.691439,W,29.6,165.6,020810,,,A*4D
$GPRMC,151750.0,A,3304.368735,N,11717.684458,W,27.9,165.6,020810,,,A*42
$GPRMC,151753.0,A,3304.346703,N,11717.677755,W,26.1,165.8,020810,,,A*4D
$GPRMC,151756.0,A,3304.326946,N,11717.671916,W,23.2,166.0,020810,,,A*43
$GPRMC,151759.0,A,3304.310226,N,11717.667017,W,18.4,166.4,020810,,,A*41
$GPRMC,151802.0,A,3304.296336,N,11717.663115,W,16.7,165.9,020810,,,A*4B
$GPRMC,151805.0,A,3304.281128,N,11717.658473,W,21.2,165.0,020810,,,A*42
$GPRMC,151808.0,A,3304.261848,N,11717.652730,W,25.9,165.8,020810,,,A*47
$GPRMC,151811.0,A,3304.239222,N,11717.645810,W,29.4,165.8,020810,,,A*4E
$GPRMC,151814.0,A,3304.214574,N,11717.638231,W,31.2,165.6,020810,,,A*42
$GPRMC,151817.0,A,3304.188772,N,11717.630290,W,33.0,165.6,020810,,,A*40
$GPRMC,151820.0,A,3304.160544,N,11717.621639,W,36.6,165.9,020810,,,A*4E
$GPRMC,151823.0,A,3304.130238,N,11717.612647,W,38.0,165.9,020810,,,A*45
$GPRMC,151826.0,A,3304.098997,N,11717.603208,W,39.2,165.5,020810,,,A*4D
$GPRMC,151829.0,A,3304.066929,N,11717.593230,W,40.3,165.5,020810,,,A*48
$GPRMC,151832.0,A,3304.033533,N,11717.583187,W,42.4,165.8,020810,,,A*43
$GPRMC,151835.0,A,3303.998221,N,11717.572454,W,44.2,165.6,020810,,,A*44
$GPRMC,151838.0,A,3303.962969,N,11717.561476,W,43.0,165.6,020810,,,A*4C
$GPRMC,151841.0,A,3303.928130,N,11717.551176,W,43.2,166.0,020810,,,A*49
$GPRMC,151844.0,A,3303.892551,N,11717.540419,W,44.5,165.3,020810,,,A*43
$GPRMC,151847.0,A,3303.855775,N,11717.529410,W,45.8,165.7,020810,,,A*41
$GPRMC,151850.0,A,3303.818359,N,11717.518336,W,46.2,165.9,020810,,,A*42
$GPRMC,151853.0,A,3303.780856,N,11717.507020,W,46.0,165.7,020810,,,A*4D
$GPRMC,151856.0,A,3303.744015,N,11717.495805,W,45.4,165.8,020810,,,A*42
$GPRMC,151859.0,A,3303.707501,N,11717.484786,W,45.1,165.8,020810,,,A*4B
$GPRMC,151902.0,A,3303.670824,N,11717.473813,W,44.8,166.0,020810,,,A*47
$GPRMC,151905.0,A,3303.635381,N,11717.463372,W,42.5,165.6,020810,,,A*46
$GPRMC,151908.0,A,3303.601844,N,11717.453229,W,40.2,165.7,020810,,,A*46
$GPRMC,151911.0,A,3303.570686,N,11717.443990,W,37.1,165.8,020810,,,A*4F
$GPRMC,151914.0,A,3303.542329,N,11717.435466,W,33.9,165.9,020810,,,A*43
$GPRMC,151917.0,A,3303.516668,N,11717.427776,W,30.2,165.8,020810,,,A*49
$GPRMC,151920.0,A,3303.491909,N,11717.420253,W,31.8,165.9,020810,,,A*44
$GPRMC,151923.0,A,3303.465227,N,11717.412171,W,33.9,165.4,020810,,,A*47
$GPRMC,151926.0,A,3303.438060,N,11717.403903,W,33.5,165.9,020810,,,A*47
$GPRMC,151929.0,A,3303.411335,N,11717.396022,W,32.4,165.8,020810,,,A*40
$GPRMC,151932.0,A,3303.385324,N,11717.388222,W,32.0,165.5,020810,,,A*44
$GPRMC,151935.0,A,3303.359276,N,11717.380371,W,32.3,165.8,020810,,,A*45
$GPRMC,151938.0,A,3303.334726,N,11717.372948,W,26.8,165.9,020810,,,A*41
$GPRMC,151941.0,A,3303.317089,N,11717.367723,W,17.4,166.0,020810,,,A*4F
$GPRMC,151944.0,A,3303.304906,N,11717.364057,W,14.6,166.0,020810,,,A*40
$GPRMC,151947.0,A,3303.293361,N,11717.360662,W,14.2,165.6,020810,,,A*42
$GPRMC,151950.0,A,3303.282493,N,11717.357428,W,13.3,165.8,020810,,,A*4E
$GPRMC,151953.0,A,3303.271276,N,11717.354069,W,14.8,165.5,020810,,,A*4F
$GPRMC,151956.0,A,3303.258995,N,11717.350257,W,15.5,165.3,020810,,,A*46
$GPRMC,151959.0,A,3303.247264,N,11717.346641,W,13.2,166.1,020810,,,A*46
$GPRMC,152002.0,A,3303.238946,N,11717.344051,W,9.2,165.6,020810,,,A*7B
$GPRMC,152005.0,A,3303.231523,N,11717.341888,W,9.9,166.0,020810,,,A*7D
$GPRMC,152008.0,A,3303.223109,N,11717.339168,W,11.3,165.7,020810,,,A*40
$GPRMC,152011.0,A,3303.215483,N,11717.336668,W,6.9,166.0,020810,,,A*7A
$GPRMC,152035.0,A,3303.206081,N,11717.334596,W,9.3,165.2,020810,,,A*7C
$GPRMC,152038.0,A,3303.198077,N,11717.332227,W,10.8,165.4,020810,,,A*42
$GPRMC,152041.0,A,3303.188697,N,11717.329195,W,12.4,164.6,020810,,,A*48
$GPRMC,152044.0,A,3303.178808,N,11717.325926,W,11.2,164.9,020810,,,A*4C
$GPRMC,152047.0,A,3303.171349,N,11717.323799,W,8.1,166.2,020810,,,A*76
$GPRMC,152050.0,A,3303.165199,N,11717.321998,W,7.6,166.4,020810,,,A*79
$GPRMC,152053.0,A,3303.159081,N,11717.320163,W,7.8,166.1,020810,,,A*7B
$GPRMC,152056.0,A,3303.152852,N,11717.318397,W,6.8,166.2,020810,,,A*73
$GPRMC,152117.0,A,3303.145115,N,11717.316190,W,4.6,166.0,020810,,,A*7E
$GPRMC,152120.0,A,3303.140161,N,11717.314605,W,7.8,165.5,020810,,,A*7E
$GPRMC,152123.0,A,3303.132185,N,11717.312111,W,11.0,165.6,020810,,,A*4A
$GPRMC,152126.0,A,3303.123578,N,11717.309476,W,9.9,165.8,020810,,,A*79
$GPRMC,152129.0,A,3303.115478,N,11717.307052,W,9.9,166.0,020810,,,A*75
$GPRMC,152132.0,A,3303.107396,N,11717.304592,W,10.0,165.4,020810,,,A*47
$GPRMC,152135.0,A,3303.098324,N,11717.301907,W,12.9,166.0,020810,,,A*47
$GPRMC,152138.0,A,3303.086435,N,11717.298331,W,16.2,165.4,020810,,,A*44
$GPRMC,152141.0,A,3303.071584,N,11717.293825,W,20.1,165.7,020810,,,A*49
$GPRMC,152144.0,A,3303.054580,N,11717.288821,W,21.5,165.7,020810,,,A*44
$GPRMC,152147.0,A,3303.036704,N,11717.283530,W,22.6,165.7,020810,,,A*4B
$GPRMC,152150.0,A,3303.017246,N,11717.277596,W,25.4,165.9,020810,,,A*41
$GPRMC,152153.0,A,3302.996584,N,11717.271340,W,25.1,165.6,020810,,,A*4B
$GPRMC,152156.0,A,3302.976619,N,11717.265269,W,23.6,166.0,020810,,,A*4C
$GPRMC,152159.0,A,3302.958169,N,11717.259677,W,22.6,165.7,020810,,,A*4E
$GPRMC,152202.0,A,3302.938618,N,11717.253828,W,26.0,166.0,020810,,,A*4C
$GPRMC,152205.0,A,3302.915597,N,11717.246833,W,30.4,165.2,020810,,,A*4C
$GPRMC,152208.0,A,3302.889856,N,11717.239063,W,32.5,165.8,020810,,,A*49
$GPRMC,152211.0,A,3302.863649,N,11717.231308,W,31.7,165.9,020810,,,A*43
$GPRMC,152214.0,A,3302.837653,N,11717.223673,W,32.3,166.2,020810,,,A*49
$GPRMC,152217.0,A,3302.810933,N,11717.215908,W,33.0,165.8,020810,,,A*4B
$GPRMC,152220.0,A,3302.784271,N,11717.207837,W,32.7,165.7,020810,,,A*47
$GPRMC,152223.0,A,3302.757197,N,11717.199705,W,34.1,166.0,020810,,,A*4F
$GPRMC,152226.0,A,3302.727839,N,11717.191110,W,37.7,165.9,020810,,,A*45
$GPRMC,152229.0,A,3302.696717,N,11717.181529,W,38.1,165.6,020810,,,A*4B
$GPRMC,152232.0,A,3302.667407,N,11717.172980,W,33.8,166.1,020810,,,A*48
$GPRMC,152235.0,A,3302.642301,N,11717.165421,W,29.5,165.9,020810,,,A*44
$GPRMC,152238.0,A,3302.619102,N,11717.158621,W,27.9,166.1,020810,,,A*43
$GPRMC,152241.0,A,3302.597824,N,11717.152551,W,23.7,167.4,020810,,,A*45
$GPRMC,152244.0,A,3302.581376,N,11717.147195,W,18.6,164.6,020810,,,A*4B
$GPRMC,152247.0,A,3302.567279,N,11717.142327,W,17.3,163.7,020810,,,A*4C
$GPRMC,152250.0,A,3302.552428,N,11717.137147,W,19.4,162.8,020810,,,A*4F
$GPRMC,152253.0,A,3302.537783,N,11717.131424,W,17.8,161.5,020810,,,A*47
$GPRMC,152256.0,A,3302.524385,N,11717.125862,W,17.6,159.5,020810,,,A*4C
$GPRMC,152259.0,A,3302.509673,N,11717.119097,W,19.4,158.1,020810,,,A*44
$GPRMC,152302.0,A,3302.495221,N,11717.112062,W,18.2,157.1,020810,,,A*45
$GPRMC,152305.0,A,3302.482116,N,11717.105308,W,16.8,156.4,020810,,,A*4A
$GPRMC,152308.0,A,3302.468109,N,11717.097834,W,19.6,155.1,020810,,,A*44
$GPRMC,152311.0,A,3302.454081,N,11717.088309,W,19.9,152.1,020810,,,A*41
$GPRMC,152314.0,A,3302.439662,N,11717.078950,W,20.3,151.4,020810,,,A*4B
$GPRMC,152317.0,A,3302.423541,N,11717.068167,W,23.9,150.7,020810,,,A*47
$GPRMC,152320.0,A,3302.404735,N,11717.055202,W,27.6,150.6,020810,,,A*43
$GPRMC,152323.0,A,3302.383527,N,11717.040582,W,30.6,150.4,020810,,,A*46
$GPRMC,152326.0,A,3302.360536,N,11717.024746,W,33.1,150.3,020810,,,A*45
$GPRMC,152329.0,A,3302.336263,N,11717.008305,W,34.3,150.6,020810,,,A*43
$GPRMC,152332.0,A,3302.310743,N,11716.990900,W,36.0,150.3,020810,,,A*48
$GPRMC,152335.0,A,3302.284146,N,11716.972800,W,36.9,150.6,020810,,,A*41
$GPRMC,152338.0,A,3302.257014,N,11716.954564,W,37.9,151.2,020810,,,A*4B
$GPRMC,152341.0,A,3302.229150,N,11716.935926,W,38.2,150.4,020810,,,A*43
$GPRMC,152344.0,A,3302.201995,N,11716.917268,W,36.4,150.1,020810,,,A*41
$GPRMC,152347.0,A,3302.175361,N,11716.899455,W,37.0,150.7,020810,,,A*4F
$GPRMC,152350.0,A,3302.148178,N,11716.881264,W,37.0,150.5,020810,,,A*42
$GPRMC,152353.0,A,3302.121275,N,11716.863054,W,36.8,150.5,020810,,,A*44
$GPRMC,152356.0,A,3302.093949,N,11716.844738,W,38.1,150.5,020810,,,A*42
$GPRMC,152359.0,A,3302.066253,N,11716.826130,W,38.0,150.5,020810,,,A*4C
$GPRMC,152402.0,A,3302.038628,N,11716.807406,W,38.1,150.4,020810,,,A*45
$GPRMC,152405.0,A,3302.011750,N,11716.789196,W,36.2,150.7,020810,,,A*4C
$GPRMC,152408.0,A,3301.986099,N,11716.772142,W,34.4,150.7,020810,,,A*4E
$GPRMC,152411.0,A,3301.961801,N,11716.755747,W,32.6,150.5,020810,,,A*46
$GPRMC,152414.0,A,3301.938810,N,11716.740096,W,30.8,150.0,020810,,,A*49
$GPRMC,152417.0,A,3301.918281,N,11716.726246,W,26.3,150.5,020810,,,A*4C
$GPRMC,152420.0,A,3301.900151,N,11716.713975,W,24.2,150.6,020810,,,A*42
$GPRMC,152423.0,A,3301.883200,N,11716.702614,W,23.0,150.6,020810,,,A*41
$GPRMC,152426.0,A,3301.865593,N,11716.690695,W,25.9,150.4,020810,,,A*4F
$GPRMC,152429.0,A,3301.846583,N,11716.677780,W,26.5,150.7,020810,,,A*40
$GPRMC,152432.0,A,3301.825855,N,11716.663930,W,30.6,150.5,020810,,,A*4F
$GPRMC,152435.0,A,3301.802364,N,11716.648038,W,34.0,150.3,020810,,,A*48
$GPRMC,152438.0,A,3301.776477,N,11716.630381,W,36.8,149.9,020810,,,A*4A
$GPRMC,152441.0,A,3301.749478,N,11716.612064,W,37.5,150.2,020810,,,A*40
$GPRMC,152444.0,A,3301.722441,N,11716.593532,W,37.3,150.1,020810,,,A*4B
$GPRMC,152447.0,A,3301.695734,N,11716.575206,W,36.8,150.2,020810,,,A*45
$GPRMC,152450.0,A,3301.669223,N,11716.557066,W,36.5,150.1,020810,,,A*49
$GPRMC,152453.0,A,3301.642805,N,11716.539323,W,36.5,150.4,020810,,,A*42
$GPRMC,152456.0,A,3301.616417,N,11716.521605,W,36.0,150.4,020810,,,A*44
$GPRMC,152459.0,A,3301.590693,N,11716.504642,W,34.7,151.3,020810,,,A*4F
$GPRMC,152502.0,A,3301.565564,N,11716.489293,W,33.1,154.0,020810,,,A*4A
$GPRMC,152505.0,A,3301.541706,N,11716.476519,W,29.9,156.9,020810,,,A*40
$GPRMC,152508.0,A,3301.521150,N,11716.466425,W,24.7,158.2,020810,,,A*47
$GPRMC,152511.0,A,3301.504209,N,11716.458887,W,19.5,160.1,020810,,,A*4A
$GPRMC,152514.0,A,3301.491422,N,11716.453621,W,13.5,160.4,020810,,,A*4B
$GPRMC,152517.0,A,3301.482692,N,11716.450222,W,9.8,161.9,020810,,,A*7D
$GPRMC,152520.0,A,3301.475953,N,11716.447828,W,7.9,162.8,020810,,,A*78
$GPRMC,152523.0,A,3301.469671,N,11716.445746,W,7.8,163.7,020810,,,A*73
$GPRMC,152526.0,A,3301.463340,N,11716.443613,W,8.6,164.4,020810,,,A*79
$GPRMC,152529.0,A,3301.454078,N,11716.440681,W,13.7,165.6,020810,,,A*4A
$GPRMC,152532.0,A,3301.442886,N,11716.437322,W,14.4,166.0,020810,,,A*43
$GPRMC,152535.0,A,3301.429843,N,11716.433867,W,18.0,166.6,020810,,,A*40
$GPRMC,152538.0,A,3301.414529,N,11716.430040,W,18.7,168.8,020810,,,A*4B
$GPRMC,152541.0,A,3301.400060,N,11716.426896,W,16.9,170.2,020810,,,A*4F
$GPRMC,152544.0,A,3301.386851,N,11716.424090,W,16.0,170.0,020810,,,A*4E
$GPRMC,152547.0,A,3301.372506,N,11716.421193,W,19.5,169.1,020810,,,A*4D
$GPRMC,152550.0,A,3301.354924,N,11716.417356,W,22.5,169.0,020810,,,A*44
$GPRMC,152553.0,A,3301.335009,N,11716.413177,W,25.4,169.9,020810,,,A*4C
$GPRMC,152556.0,A,3301.313559,N,11716.409058,W,25.9,170.2,020810,,,A*44
$GPRMC,152559.0,A,3301.292261,N,11716.405120,W,25.9,170.6,020810,,,A*49
$GPRMC,152602.0,A,3301.269730,N,11716.401514,W,27.6,170.4,020810,,,A*49
$GPRMC,152605.0,A,3301.245590,N,11716.396893,W,30.3,170.1,020810,,,A*45
$GPRMC,152608.0,A,3301.218943,N,11716.391521,W,33.9,169.4,020810,,,A*45
$GPRMC,152611.0,A,3301.190094,N,11716.384506,W,35.9,167.8,020810,,,A*48
$GPRMC,152614.0,A,3301.161128,N,11716.376152,W,36.1,165.0,020810,,,A*4C
$GPRMC,152617.0,A,3301.131957,N,11716.366044,W,36.6,162.4,020810,,,A*49
$GPRMC,152620.0,A,3301.102730,N,11716.353878,W,37.6,159.2,020810,,,A*4C
$GPRMC,152623.0,A,3301.072774,N,11716.339022,W,39.2,156.7,020810,,,A*42
$GPRMC,152626.0,A,3301.042554,N,11716.322476,W,39.6,153.9,020810,,,A*44
$GPRMC,152629.0,A,3301.012693,N,11716.303687,W,40.4,150.6,020810,,,A*49
$GPRMC,152632.0,A,3300.983404,N,11716.283018,W,40.9,148.0,020810,,,A*44
$GPRMC,152635.0,A,3300.954750,N,11716.260507,W,41.2,145.5,020810,,,A*4F
$GPRMC,152638.0,A,3300.927281,N,11716.236498,W,40.2,142.0,020810,,,A*48
$GPRMC,152641.0,A,3300.902065,N,11716.211352,W,39.0,139.1,020810,,,A*4C
$GPRMC,152644.0,A,3300.878295,N,11716.185593,W,37.8,136.3,020810,,,A*46
$GPRMC,152647.0,A,3300.855812,N,11716.159718,W,37.5,136.0,020810,,,A*41
$GPRMC,152650.0,A,3300.832736,N,11716.133255,W,39.0,135.6,020810,,,A*41
$GPRMC,152653.0,A,3300.809031,N,11716.104875,W,41.2,135.1,020810,,,A*4C
$GPRMC,152656.0,A,3300.784066,N,11716.075892,W,42.2,135.8,020810,,,A*45
$GPRMC,152659.0,A,3300.758714,N,11716.046819,W,41.9,136.2,020810,,,A*4B
$GPRMC,152702.0,A,3300.733420,N,11716.018183,W,41.2,135.9,020810,,,A*4F
$GPRMC,152705.0,A,3300.710422,N,11715.991805,W,36.3,135.8,020810,,,A*47
$GPRMC,152708.0,A,3300.688940,N,11715.966946,W,35.7,135.6,020810,,,A*44
$GPRMC,152711.0,A,3300.667096,N,11715.941770,W,37.4,135.8,020810,,,A*4E
$GPRMC,152714.0,A,3300.643534,N,11715.914784,W,40.3,136.0,020810,,,A*47
$GPRMC,152717.0,A,3300.618034,N,11715.885987,W,42.8,136.1,020810,,,A*43
$GPRMC,152720.0,A,3300.591993,N,11715.856235,W,43.7,136.1,020810,,,A*43
$GPRMC,152723.0,A,3300.565686,N,11715.826135,W,43.7,135.9,020810,,,A*4F
$GPRMC,152726.0,A,3300.539313,N,11715.795553,W,43.7,135.5,020810,,,A*45
$GPRMC,152729.0,A,3300.513262,N,11715.765132,W,43.8,135.3,020810,,,A*40
$GPRMC,152732.0,A,3300.486607,N,11715.734318,W,44.8,135.8,020810,,,A*42
$GPRMC,152735.0,A,3300.459058,N,11715.703057,W,45.4,136.2,020810,,,A*43
$GPRMC,152738.0,A,3300.431423,N,11715.671680,W,45.8,136.1,020810,,,A*4F
$GPRMC,152741.0,A,3300.403689,N,11715.640142,W,46.2,135.9,020810,,,A*4B
$GPRMC,152744.0,A,3300.375566,N,11715.608127,W,46.9,136.9,020810,,,A*4D
$GPRMC,152747.0,A,3300.345497,N,11715.577384,W,47.5,142.2,020810,,,A*47
$GPRMC,152750.0,A,3300.312858,N,11715.549412,W,48.0,146.3,020810,,,A*46
$GPRMC,152753.0,A,3300.278562,N,11715.525116,W,47.7,151.6,020810,,,A*4C
$GPRMC,152756.0,A,3300.242855,N,11715.504240,W,46.8,155.9,020810,,,A*4F
$GPRMC,152759.0,A,3300.207752,N,11715.487543,W,44.0,160.1,020810,,,A*43
$GPRMC,152802.0,A,3300.173428,N,11715.474488,W,42.1,164.1,020810,,,A*45
$GPRMC,152805.0,A,3300.139863,N,11715.464993,W,40.9,168.8,020810,,,A*46
$GPRMC,152808.0,A,3300.106671,N,11715.458399,W,39.7,171.7,020810,,,A*42
$GPRMC,152811.0,A,3300.073858,N,11715.453335,W,39.9,172.6,020810,,,A*4D
$GPRMC,152814.0,A,3300.040925,N,11715.448215,W,39.7,172.3,020810,,,A*41
$GPRMC,152817.0,A,3300.008354,N,11715.443045,W,39.6,172.2,020810,,,A*4E
$GPRMC,152820.0,A,3259.975410,N,11715.437911,W,39.8,172.6,020810,,,A*42
$GPRMC,152823.0,A,3259.941730,N,11715.432866,W,41.1,172.5,020810,,,A*46
$GPRMC,152826.0,A,3259.906883,N,11715.427717,W,42.8,172.9,020810,,,A*4C
$GPRMC,152829.0,A,3259.870568,N,11715.422411,W,44.6,172.7,020810,,,A*4D
$GPRMC,152832.0,A,3259.832857,N,11715.416894,W,46.1,173.0,020810,,,A*45
$GPRMC,152835.0,A,3259.795296,N,11715.411236,W,45.3,172.8,020810,,,A*4A
$GPRMC,152838.0,A,3259.757334,N,11715.405272,W,45.9,172.3,020810,,,A*44
$GPRMC,152841.0,A,3259.719439,N,11715.399347,W,45.7,172.5,020810,,,A*47
$GPRMC,152844.0,A,3259.681837,N,11715.393232,W,45.9,172.0,020810,,,A*42
$GPRMC,152847.0,A,3259.643115,N,11715.386925,W,48.2,172.4,020810,,,A*4D
$GPRMC,152850.0,A,3259.602167,N,11715.380478,W,50.5,172.3,020810,,,A*41
$GPRMC,152853.0,A,3259.558982,N,11715.373965,W,53.2,172.5,020810,,,A*42
$GPRMC,152856.0,A,3259.513572,N,11715.366949,W,55.6,172.7,020810,,,A*41
$GPRMC,152859.0,A,3259.466863,N,11715.359476,W,57.0,172.4,020810,,,A*4A
$GPRMC,152902.0,A,3259.419489,N,11715.352466,W,57.5,172.8,020810,,,A*46
$GPRMC,152905.0,A,3259.371425,N,11715.345440,W,58.3,172.9,020810,,,A*44
$GPRMC,152908.0,A,3259.323032,N,11715.338178,W,58.7,172.5,020810,,,A*40
$GPRMC,152911.0,A,3259.275034,N,11715.330302,W,57.0,172.1,020810,,,A*47
$GPRMC,152914.0,A,3259.228683,N,11715.322899,W,55.1,172.5,020810,,,A*4D
$GPRMC,152917.0,A,3259.184034,N,11715.316009,W,52.7,172.6,020810,,,A*45
$GPRMC,152920.0,A,3259.141762,N,11715.309582,W,49.6,172.4,020810,,,A*4D
$GPRMC,152923.0,A,3259.101114,N,11715.302893,W,49.0,171.3,020810,,,A*49
$GPRMC,152926.0,A,3259.060179,N,11715.293630,W,51.7,167.3,020810,,,A*46
$GPRMC,152929.0,A,3259.017877,N,11715.280730,W,52.4,164.1,020810,,,A*4C
$GPRMC,152932.0,A,3258.976205,N,11715.265351,W,52.7,162.1,020810,,,A*4B
$GPRMC,152935.0,A,3258.934013,N,11715.249066,W,53.4,162.1,020810,,,A*44
$GPRMC,152938.0,A,3258.891670,N,11715.232862,W,53.1,162.2,020810,,,A*42
$GPRMC,152941.0,A,3258.849629,N,11715.216804,W,53.1,162.1,020810,,,A*40
$GPRMC,152944.0,A,3258.807689,N,11715.200666,W,52.8,162.3,020810,,,A*42
$GPRMC,152947.0,A,3258.765866,N,11715.184884,W,52.5,162.7,020810,,,A*41
$GPRMC,152950.0,A,3258.724321,N,11715.169088,W,52.7,162.3,020810,,,A*4B
$GPRMC,152953.0,A,3258.681344,N,11715.152990,W,54.8,162.5,020810,,,A*42
$GPRMC,152956.0,A,3258.637540,N,11715.136388,W,55.1,162.1,020810,,,A*45
$GPRMC,152959.0,A,3258.593462,N,11715.119616,W,55.6,162.4,020810,,,A*4B
$GPRMC,153002.0,A,3258.548683,N,11715.102754,W,56.8,162.3,020810,,,A*41
$GPRMC,153005.0,A,3258.503323,N,11715.085509,W,57.0,162.4,020810,,,A*4C
$GPRMC,153008.0,A,3258.458435,N,11715.068711,W,55.8,162.3,020810,,,A*4B
$GPRMC,153011.0,A,3258.414385,N,11715.052356,W,54.6,162.4,020810,,,A*41
$GPRMC,153014.0,A,3258.371091,N,11715.036243,W,54.3,162.8,020810,,,A*48
$GPRMC,153017.0,A,3258.328090,N,11715.020351,W,53.6,162.5,020810,,,A*4C
$GPRMC,153020.0,A,3258.285613,N,11715.004167,W,53.4,162.2,020810,,,A*47
$GPRMC,153023.0,A,3258.242710,N,11714.987863,W,54.7,162.3,020810,,,A*46
$GPRMC,153026.0,A,3258.198652,N,11714.971473,W,55.7,162.6,020810,,,A*40
$GPRMC,153029.0,A,3258.154001,N,11714.954706,W,56.3,162.2,020810,,,A*4A
$GPRMC,153032.0,A,3258.109128,N,11714.937496,W,56.6,162.0,020810,,,A*4A
$GPRMC,153035.0,A,3258.064424,N,11714.920382,W,55.9,162.4,020810,,,A*42
$GPRMC,153038.0,A,3258.020243,N,11714.903705,W,55.3,162.3,020810,,,A*4F
$GPRMC,153041.0,A,3257.977055,N,11714.887456,W,53.1,162.4,020810,,,A*4B
$GPRMC,153044.0,A,3257.935955,N,11714.871835,W,50.7,162.3,020810,,,A*43
$GPRMC,153047.0,A,3257.895591,N,11714.856592,W,51.1,162.4,020810,,,A*4A
$GPRMC,153050.0,A,3257.854707,N,11714.840977,W,52.0,162.3,020810,,,A*49
$GPRMC,153053.0,A,3257.813186,N,11714.825482,W,52.5,162.4,020810,,,A*40
$GPRMC,153056.0,A,3257.771235,N,11714.809881,W,52.6,162.5,020810,,,A*46
$GPRMC,153059.0,A,3257.729853,N,11714.794512,W,51.5,162.6,020810,,,A*41
$GPRMC,153102.0,A,3257.689026,N,11714.779405,W,51.1,162.6,020810,,,A*4F
$GPRMC,153105.0,A,3257.647906,N,11714.765107,W,51.5,164.5,020810,,,A*4A
$GPRMC,153108.0,A,3257.606222,N,11714.751981,W,51.6,165.5,020810,,,A*4C
$GPRMC,153111.0,A,3257.563992,N,11714.740283,W,52.1,167.7,020810,,,A*49
$GPRMC,153114.0,A,3257.521139,N,11714.730250,W,52.7,169.6,020810,,,A*43
$GPRMC,153117.0,A,3257.476623,N,11714.721233,W,55.0,170.9,020810,,,A*4D
$GPRMC,153120.0,A,3257.430551,N,11714.713091,W,56.0,171.7,020810,,,A*4A
$GPRMC,153123.0,A,3257.384338,N,11714.704792,W,55.9,171.3,020810,,,A*44
$GPRMC,153126.0,A,3257.338478,N,11714.696369,W,55.8,171.2,020810,,,A*4F
$GPRMC,153129.0,A,3257.293117,N,11714.688106,W,54.5,171.5,020810,,,A*43
$GPRMC,153132.0,A,3257.248738,N,11714.680688,W,53.5,172.0,020810,,,A*4C
$GPRMC,153135.0,A,3257.204280,N,11714.673909,W,53.9,172.7,020810,,,A*44
$GPRMC,153138.0,A,3257.160220,N,11714.666576,W,53.0,171.1,020810,,,A*4E
$GPRMC,153141.0,A,3257.117047,N,11714.658761,W,52.5,171.4,020810,,,A*4B
$GPRMC,153144.0,A,3257.073910,N,11714.650880,W,53.0,171.1,020810,,,A*4F
$GPRMC,153147.0,A,3257.029867,N,11714.642557,W,54.9,171.1,020810,,,A*48
$GPRMC,153150.0,A,3256.984539,N,11714.633384,W,55.4,170.1,020810,,,A*44
$GPRMC,153153.0,A,3256.938782,N,11714.623522,W,55.3,169.9,020810,,,A*4E
$GPRMC,153156.0,A,3256.893610,N,11714.614027,W,54.7,170.1,020810,,,A*40
$GPRMC,153159.0,A,3256.848307,N,11714.605386,W,55.0,170.9,020810,,,A*4C
$GPRMC,153202.0,A,3256.802225,N,11714.596596,W,57.3,170.6,020810,,,A*4E
$GPRMC,153205.0,A,3256.753903,N,11714.587241,W,59.4,170.9,020810,,,A*46
$GPRMC,153208.0,A,3256.705040,N,11714.578038,W,59.0,171.0,020810,,,A*46
$GPRMC,153211.0,A,3256.656780,N,11714.568794,W,58.5,170.9,020810,,,A*4E
$GPRMC,153214.0,A,3256.608754,N,11714.559591,W,58.3,170.7,020810,,,A*44
$GPRMC,153217.0,A,3256.560336,N,11714.550800,W,58.8,171.4,020810,,,A*4F
$GPRMC,153220.0,A,3256.511435,N,11714.541904,W,59.7,171.2,020810,,,A*44
$GPRMC,153223.0,A,3256.461224,N,11714.532509,W,61.7,170.9,020810,,,A*43
$GPRMC,153226.0,A,3256.410191,N,11714.523039,W,62.3,171.5,020810,,,A*41
$GPRMC,153229.0,A,3256.358127,N,11714.514912,W,63.2,173.1,020810,,,A*4A
$GPRMC,153232.0,A,3256.305615,N,11714.508731,W,63.5,175.2,020810,,,A*4E
$GPRMC,153235.0,A,3256.252915,N,11714.504447,W,64.2,176.5,020810,,,A*4F
$GPRMC,153238.0,A,3256.198442,N,11714.500504,W,65.4,176.1,020810,,,A*49
$GPRMC,153241.0,A,3256.144258,N,11714.496506,W,64.6,176.1,020810,,,A*44
$GPRMC,153244.0,A,3256.090758,N,11714.492543,W,63.9,176.3,020810,,,A*43
$GPRMC,153247.0,A,3256.038236,N,11714.488942,W,61.5,176.4,020810,,,A*40
$GPRMC,153250.0,A,3255.987635,N,11714.484949,W,59.7,175.6,020810,,,A*40
$GPRMC,153253.0,A,3255.937620,N,11714.480146,W,60.0,174.2,020810,,,A*47
$GPRMC,153256.0,A,3255.887922,N,11714.473271,W,59.8,173.0,020810,,,A*49
$GPRMC,153259.0,A,3255.839296,N,11714.465365,W,58.1,170.8,020810,,,A*47
$GPRMC,153302.0,A,3255.792092,N,11714.455473,W,56.9,169.5,020810,,,A*40
$GPRMC,153305.0,A,3255.745919,N,11714.444575,W,56.6,168.1,020810,,,A*4A
$GPRMC,153308.0,A,3255.699578,N,11714.432253,W,57.4,166.3,020810,,,A*41
$GPRMC,153311.0,A,3255.653836,N,11714.418202,W,55.9,165.1,020810,,,A*4A
$GPRMC,153314.0,A,3255.610263,N,11714.404045,W,52.9,164.5,020810,,,A*4C
$GPRMC,153317.0,A,3255.567797,N,11714.390049,W,52.6,164.4,020810,,,A*4A
$GPRMC,153320.0,A,3255.525656,N,11714.375781,W,52.4,164.0,020810,,,A*4A
$GPRMC,153323.0,A,3255.484982,N,11714.361996,W,48.4,164.3,020810,,,A*40
$GPRMC,153326.0,A,3255.447618,N,11714.349594,W,45.2,164.6,020810,,,A*4C
$GPRMC,153329.0,A,3255.412309,N,11714.337932,W,43.6,164.5,020810,,,A*4E
$GPRMC,153332.0,A,3255.377281,N,11714.325454,W,44.7,162.0,020810,,,A*4A
$GPRMC,153335.0,A,3255.341448,N,11714.309929,W,47.0,158.6,020810,,,A*49
$GPRMC,153338.0,A,3255.304748,N,11714.290638,W,49.0,154.8,020810,,,A*44
$GPRMC,153341.0,A,3255.268352,N,11714.268811,W,49.1,152.1,020810,,,A*42
$GPRMC,153344.0,A,3255.232369,N,11714.244792,W,49.6,149.4,020810,,,A*42
$GPRMC,153347.0,A,3255.197539,N,11714.218278,W,50.1,146.5,020810,,,A*47
$GPRMC,153350.0,A,3255.162740,N,11714.188813,W,52.2,143.4,020810,,,A*4F
$GPRMC,153353.0,A,3255.127964,N,11714.155826,W,54.1,140.3,020810,,,A*42
$GPRMC,153356.0,A,3255.093748,N,11714.119768,W,55.6,137.4,020810,,,A*45
$GPRMC,153359.0,A,3255.060462,N,11714.080827,W,56.2,134.4,020810,,,A*4C
$GPRMC,153402.0,A,3255.028796,N,11714.038834,W,57.4,131.1,020810,,,A*47
$GPRMC,153405.0,A,3254.996957,N,11713.995261,W,59.0,131.1,020810,,,A*47
$GPRMC,153408.0,A,3254.965105,N,11713.951427,W,57.8,130.9,020810,,,A*4A
$GPRMC,153411.0,A,3254.932672,N,11713.908961,W,58.4,134.3,020810,,,A*49
$GPRMC,153414.0,A,3254.896140,N,11713.868647,W,60.7,140.2,020810,,,A*43
$GPRMC,153417.0,A,3254.855105,N,11713.832362,W,60.9,146.4,020810,,,A*4D
$GPRMC,153420.0,A,3254.810942,N,11713.801604,W,60.9,151.7,020810,,,A*43
$GPRMC,153423.0,A,3254.765164,N,11713.773652,W,62.4,152.7,020810,,,A*44
$GPRMC,153426.0,A,3254.719449,N,11713.745504,W,60.8,152.5,020810,,,A*49
$GPRMC,153429.0,A,3254.675441,N,11713.718462,W,58.2,152.6,020810,,,A*4E
$GPRMC,153432.0,A,3254.633061,N,11713.692190,W,56.9,152.0,020810,,,A*48
$GPRMC,153435.0,A,3254.590834,N,11713.665616,W,57.4,152.1,020810,,,A*41
$GPRMC,153438.0,A,3254.548252,N,11713.638866,W,58.1,152.1,020810,,,A*48
$GPRMC,153441.0,A,3254.504954,N,11713.611864,W,59.2,152.4,020810,,,A*4D
$GPRMC,153444.0,A,3254.460461,N,11713.584325,W,60.7,152.7,020810,,,A*4D
$GPRMC,153447.0,A,3254.414326,N,11713.557836,W,61.8,155.5,020810,,,A*45
$GPRMC,153450.0,A,3254.367452,N,11713.532459,W,61.5,155.5,020810,,,A*4F
$GPRMC,153453.0,A,3254.320120,N,11713.508475,W,62.4,158.6,020810,,,A*44
$GPRMC,153456.0,A,3254.270457,N,11713.488479,W,63.1,163.6,020810,,,A*49
$GPRMC,153459.0,A,3254.220390,N,11713.475011,W,61.0,169.7,020810,,,A*4F
$GPRMC,153502.0,A,3254.170050,N,11713.467015,W,61.2,174.2,020810,,,A*45
$GPRMC,153505.0,A,3254.120589,N,11713.466271,W,58.5,180.8,020810,,,A*4B
$GPRMC,153508.0,A,3254.072447,N,11713.470178,W,57.4,185.8,020810,,,A*45
$GPRMC,153511.0,A,3254.025490,N,11713.479719,W,57.2,191.0,020810,,,A*46
$GPRMC,153514.0,A,3253.979836,N,11713.493961,W,55.2,197.1,020810,,,A*44
$GPRMC,153517.0,A,3253.937820,N,11713.511231,W,50.9,198.9,020810,,,A*46
$GPRMC,153520.0,A,3253.901992,N,11713.526062,W,41.2,198.6,020810,,,A*4B
$GPRMC,153523.0,A,3253.874133,N,11713.537488,W,31.2,198.0,020810,,,A*49
$GPRMC,153526.0,A,3253.851980,N,11713.546214,W,26.0,198.1,020810,,,A*4B
$GPRMC,153529.0,A,3253.833133,N,11713.553622,W,22.3,197.5,020810,,,A*49
$GPRMC,153532.0,A,3253.816348,N,11713.560210,W,20.7,197.1,020810,,,A*4D
$GPRMC,153535.0,A,3253.800957,N,11713.565953,W,18.8,196.7,020810,,,A*43
$GPRMC,153538.0,A,3253.787207,N,11713.571154,W,16.3,197.4,020810,,,A*4D
$GPRMC,153541.0,A,3253.775328,N,11713.575966,W,14.0,197.6,020810,,,A*4C
$GPRMC,153544.0,A,3253.767953,N,11713.579034,W,5.4,198.3,020810,,,A*70
$GPRMC,153553.0,A,3253.759753,N,11713.583068,W,4.8,195.8,020810,,,A*72
$GPRMC,153556.0,A,3253.756036,N,11713.584521,W,4.7,197.0,020810,,,A*76
$GPRMC,153611.0,A,3253.745103,N,11713.589822,W,10.2,196.7,020810,,,A*46
$GPRMC,153614.0,A,3253.733523,N,11713.594207,W,16.8,196.6,020810,,,A*48
$GPRMC,153617.0,A,3253.717993,N,11713.599860,W,21.1,196.9,020810,,,A*4E
$GPRMC,153620.0,A,3253.699504,N,11713.606694,W,24.5,196.3,020810,,,A*44
$GPRMC,153623.0,A,3253.678754,N,11713.613775,W,26.9,195.6,020810,,,A*4D
$GPRMC,153626.0,A,3253.657161,N,11713.620766,W,26.6,194.2,020810,,,A*4D
$GPRMC,153629.0,A,3253.635013,N,11713.626942,W,28.1,192.1,020810,,,A*40
$GPRMC,153632.0,A,3253.610511,N,11713.632791,W,31.3,190.5,020810,,,A*43
$GPRMC,153635.0,A,3253.583190,N,11713.638112,W,34.1,188.2,020810,,,A*4E
$GPRMC,153638.0,A,3253.554509,N,11713.642356,W,34.1,185.1,020810,,,A*4C
$GPRMC,153641.0,A,3253.526479,N,11713.645167,W,33.8,184.8,020810,,,A*40
$GPRMC,153644.0,A,3253.497559,N,11713.648049,W,35.5,184.2,020810,,,A*4C
$GPRMC,153647.0,A,3253.468638,N,11713.650574,W,33.7,184.4,020810,,,A*4B
$GPRMC,153650.0,A,3253.441748,N,11713.653355,W,31.9,185.2,020810,,,A*4D
$GPRMC,153653.0,A,3253.414009,N,11713.656337,W,34.4,185.1,020810,,,A*46
$GPRMC,153656.0,A,3253.384712,N,11713.659621,W,35.6,185.1,020810,,,A*4E
$GPRMC,153659.0,A,3253.355448,N,11713.662000,W,35.4,183.2,020810,,,A*4B
$GPRMC,153702.0,A,3253.326123,N,11713.664907,W,35.3,185.0,020810,,,A*43
$GPRMC,153705.0,A,3253.296109,N,11713.668367,W,36.2,185.9,020810,,,A*4D
$GPRMC,153708.0,A,3253.265680,N,11713.671756,W,36.8,184.4,020810,,,A*42
$GPRMC,153711.0,A,3253.233599,N,11713.674658,W,40.3,184.2,020810,,,A*44
$GPRMC,153714.0,A,3253.200957,N,11713.677615,W,38.2,184.5,020810,,,A*4C
$GPRMC,153717.0,A,3253.169354,N,11713.680376,W,38.5,184.2,020810,,,A*42
$GPRMC,153720.0,A,3253.136308,N,11713.683615,W,40.8,184.5,020810,,,A*43
$GPRMC,153723.0,A,3253.101637,N,11713.686949,W,42.3,183.7,020810,,,A*42
$GPRMC,153726.0,A,3253.065513,N,11713.690510,W,44.0,185.2,020810,,,A*40
$GPRMC,153729.0,A,3253.028621,N,11713.694574,W,44.3,184.6,020810,,,A*44
$GPRMC,153732.0,A,3252.992213,N,11713.698064,W,43.1,184.3,020810,,,A*4A
$GPRMC,153735.0,A,3252.956694,N,11713.701433,W,42.3,184.6,020810,,,A*4F
$GPRMC,153738.0,A,3252.920522,N,11713.705532,W,44.8,184.8,020810,,,A*4A
$GPRMC,153741.0,A,3252.882575,N,11713.709274,W,45.4,184.5,020810,,,A*46
$GPRMC,153744.0,A,3252.844975,N,11713.712965,W,44.6,184.6,020810,,,A*44
$GPRMC,153747.0,A,3252.807538,N,11713.716918,W,45.6,185.0,020810,,,A*4D
$GPRMC,153750.0,A,3252.769618,N,11713.720881,W,45.9,184.7,020810,,,A*40
$GPRMC,153753.0,A,3252.733202,N,11713.723989,W,43.2,184.4,020810,,,A*47
$GPRMC,153756.0,A,3252.697301,N,11713.727545,W,43.2,184.3,020810,,,A*40
$GPRMC,153759.0,A,3252.660838,N,11713.731055,W,44.9,185.0,020810,,,A*4B
$GPRMC,153802.0,A,3252.622169,N,11713.735174,W,46.9,184.6,020810,,,A*42
$GPRMC,153805.0,A,3252.584236,N,11713.738755,W,44.8,184.3,020810,,,A*4D
$GPRMC,153808.0,A,3252.549359,N,11713.742325,W,39.0,185.3,020810,,,A*44
$GPRMC,153811.0,A,3252.524631,N,11713.746072,W,25.1,188.0,020810,,,A*4B
$GPRMC,153814.0,A,3252.507031,N,11713.749743,W,20.6,189.7,020810,,,A*47
$GPRMC,153817.0,A,3252.490571,N,11713.753203,W,19.5,189.4,020810,,,A*4A
$GPRMC,153820.0,A,3252.476723,N,11713.756196,W,14.5,189.2,020810,,,A*42
$GPRMC,153823.0,A,3252.465325,N,11713.758625,W,14.1,190.1,020810,,,A*4F
$GPRMC,153826.0,A,3252.453411,N,11713.761315,W,15.7,189.6,020810,,,A*4B
$GPRMC,153829.0,A,3252.440461,N,11713.764403,W,16.1,194.5,020810,,,A*4E
$GPRMC,153832.0,A,3252.426515,N,11713.770509,W,19.6,204.4,020810,,,A*4B
$GPRMC,153835.0,A,3252.410069,N,11713.782845,W,26.8,217.5,020810,,,A*4E
$GPRMC,153838.0,A,3252.392799,N,11713.803947,W,31.3,227.8,020810,,,A*40
$GPRMC,153841.0,A,3252.376925,N,11713.826171,W,27.2,226.8,020810,,,A*40
$GPRMC,153844.0,A,3252.362954,N,11713.840610,W,19.0,211.0,020810,,,A*45
$GPRMC,153847.0,A,3252.350084,N,11713.847530,W,16.1,196.5,020810,,,A*42
$GPRMC,153850.0,A,3252.338047,N,11713.849361,W,13.1,179.4,020810,,,A*4C
$GPRMC,153853.0,A,3252.331245,N,11713.848154,W,4.7,165.4,020810,,,A*7E
$GPRMC,153917.0,A,3252.329809,N,11713.847993,W,4.6,164.8,020810,,,A*74
$GPRMC,153920.0,A,3252.326244,N,11713.846791,W,4.4,156.5,020810,,,A*7F
$GPRMC,153926.0,A,3252.320048,N,11713.845735,W,8.4,182.0,020810,,,A*7C
$GPRMC,153929.0,A,3252.312894,N,11713.853706,W,16.9,244.4,020810,,,A*43
$GPRMC,153932.0,A,3252.308994,N,11713.874220,W,21.8,263.0,020810,,,A*43
$GPRMC,153935.0,A,3252.307362,N,11713.895412,W,20.6,265.5,020810,,,A*4C
$GPRMC,153938.0,A,3252.306059,N,11713.915026,W,19.2,265.3,020810,,,A*49
$GPRMC,153941.0,A,3252.304583,N,11713.936214,W,23.4,266.2,020810,,,A*48
$GPRMC,153944.0,A,3252.303492,N,11713.959906,W,23.1,266.5,020810,,,A*48
$GPRMC,153947.0,A,3252.302572,N,11713.978826,W,15.4,265.9,020810,,,A*4A
$GPRMC,153950.0,A,3252.302529,N,11713.989312,W,7.8,268.7,020810,,,A*7C
$GPRMC,154044.0,A,3252.304038,N,11714.007708,W,10.7,274.4,020810,,,A*44
$GPRMC,154047.0,A,3252.304349,N,11714.024983,W,20.6,271.4,020810,,,A*49
$GPRMC,154050.0,A,3252.305016,N,11714.047780,W,25.0,272.6,020810,,,A*4D
$GPRMC,154053.0,A,3252.306278,N,11714.074027,W,27.4,273.9,020810,,,A*45
$GPRMC,154056.0,A,3252.307887,N,11714.101346,W,27.1,274.0,020810,,,A*47
$GPRMC,154059.0,A,3252.309213,N,11714.128991,W,28.1,272.4,020810,,,A*47
$GPRMC,154102.0,A,3252.310362,N,11714.157310,W,28.9,272.7,020810,,,A*47
$GPRMC,154105.0,A,3252.311418,N,11714.186695,W,29.6,272.4,020810,,,A*42
$GPRMC,154108.0,A,3252.311606,N,11714.217765,W,31.4,268.8,020810,,,A*4B
$GPRMC,154111.0,A,3252.310442,N,11714.249846,W,32.1,265.6,020810,,,A*40
$GPRMC,154114.0,A,3252.306899,N,11714.281243,W,32.0,259.7,020810,,,A*4C
$GPRMC,154117.0,A,3252.299635,N,11714.312690,W,33.7,251.6,020810,,,A*4E
$GPRMC,154120.0,A,3252.286262,N,11714.344465,W,35.5,239.8,020810,,,A*4D
$GPRMC,154123.0,A,3252.269543,N,11714.374408,W,36.5,233.5,020810,,,A*47
$GPRMC,154126.0,A,3252.250351,N,11714.402923,W,35.0,229.4,020810,,,A*43
$GPRMC,154129.0,A,3252.231739,N,11714.428059,W,33.1,230.0,020810,,,A*46
$GPRMC,154132.0,A,3252.217961,N,11714.454341,W,28.0,245.1,020810,,,A*42
$GPRMC,154135.0,A,3252.210742,N,11714.478406,W,24.3,256.1,020810,,,A*4A
$GPRMC,154138.0,A,3252.208537,N,11714.503199,W,25.7,269.2,020810,,,A*4A
$GPRMC,154141.0,A,3252.211205,N,11714.523834,W,17.0,277.7,020810,,,A*4A
$GPRMC,154144.0,A,3252.209412,N,11714.538202,W,13.9,240.4,020810,,,A*49
$GPRMC,154147.0,A,3252.194734,N,11714.545238,W,23.1,190.2,020810,,,A*4A
$GPRMC,154150.0,A,3252.171907,N,11714.549985,W,30.4,189.8,020810,,,A*4D
$GPRMC,154153.0,A,3252.145479,N,11714.555910,W,32.0,190.6,020810,,,A*4C
$GPRMC,154156.0,A,3252.120406,N,11714.561653,W,27.8,190.6,020810,,,A*41
$GPRMC,154159.0,A,3252.099424,N,11714.566622,W,23.9,190.7,020810,,,A*48
$GPRMC,154202.0,A,3252.080193,N,11714.570685,W,23.4,190.2,020810,,,A*46
$GPRMC,154205.0,A,3252.061022,N,11714.574794,W,23.0,190.5,020810,,,A*43
$GPRMC,154208.0,A,3252.042422,N,11714.578848,W,22.6,190.8,020810,,,A*43
$GPRMC,154211.0,A,3252.020746,N,11714.584229,W,29.4,192.9,020810,,,A*4A
$GPRMC,154214.0,A,3251.993983,N,11714.590711,W,33.6,191.3,020810,,,A*41
$GPRMC,154217.0,A,3251.966477,N,11714.597154,W,32.6,190.5,020810,,,A*48
$GPRMC,154220.0,A,3251.938542,N,11714.602349,W,35.0,186.9,020810,,,A*4B
$GPRMC,154223.0,A,3251.907932,N,11714.604728,W,37.2,181.4,020810,,,A*40
$GPRMC,154226.0,A,3251.876196,N,11714.603506,W,37.8,176.1,020810,,,A*4A
$GPRMC,154229.0,A,3251.844620,N,11714.598929,W,38.3,171.1,020810,,,A*4D
$GPRMC,154232.0,A,3251.812733,N,11714.592381,W,38.1,169.9,020810,,,A*46
$GPRMC,154235.0,A,3251.781085,N,11714.585743,W,37.9,170.4,020810,,,A*40
$GPRMC,154238.0,A,3251.750095,N,11714.578692,W,36.3,169.5,020810,,,A*4D
$GPRMC,154241.0,A,3251.721102,N,11714.575579,W,34.1,182.5,020810,,,A*44
$GPRMC,154244.0,A,3251.693998,N,11714.583012,W,32.8,200.4,020810,,,A*44
$GPRMC,154247.0,A,3251.670187,N,11714.602057,W,34.8,220.2,020810,,,A*45
$GPRMC,154250.0,A,3251.652095,N,11714.629210,W,35.7,238.8,020810,,,A*44
$GPRMC,154253.0,A,3251.642715,N,11714.666139,W,38.3,260.2,020810,,,A*44
$GPRMC,154256.0,A,3251.637214,N,11714.704425,W,38.2,259.9,020810,,,A*4A
$GPRMC,154259.0,A,3251.628000,N,11714.740067,W,37.0,243.4,020810,,,A*45
$GPRMC,154302.0,A,3251.610079,N,11714.769095,W,36.1,222.6,020810,,,A*4C
$GPRMC,154305.0,A,3251.582796,N,11714.786823,W,38.9,199.3,020810,,,A*41
$GPRMC,154308.0,A,3251.549837,N,11714.791601,W,40.9,181.3,020810,,,A*41
$GPRMC,154311.0,A,3251.515269,N,11714.788065,W,41.7,170.6,020810,,,A*49
$GPRMC,154314.0,A,3251.480204,N,11714.776558,W,44.3,160.4,020810,,,A*42
$GPRMC,154317.0,A,3251.444708,N,11714.760752,W,45.3,160.2,020810,,,A*48
$GPRMC,154320.0,A,3251.408297,N,11714.747249,W,45.6,165.0,020810,,,A*4F
$GPRMC,154323.0,A,3251.370946,N,11714.738317,W,45.6,171.9,020810,,,A*4D
$GPRMC,154326.0,A,3251.332485,N,11714.733665,W,46.6,176.0,020810,,,A*4A
$GPRMC,154329.0,A,3251.293892,N,11714.730617,W,45.4,176.9,020810,,,A*4B
$GPRMC,154332.0,A,3251.257468,N,11714.728309,W,42.5,177.0,020810,,,A*4D
$GPRMC,154335.0,A,3251.223710,N,11714.726368,W,38.9,177.0,020810,,,A*4D
$GPRMC,154338.0,A,3251.193138,N,11714.724723,W,34.4,177.6,020810,,,A*4A
$GPRMC,154341.0,A,3251.165659,N,11714.726262,W,31.7,188.9,020810,,,A*46
$GPRMC,154344.0,A,3251.140050,N,11714.738473,W,31.5,205.5,020810,,,A*4A
$GPRMC,154347.0,A,3251.120120,N,11714.759329,W,33.7,228.2,020810,,,A*4E
$GPRMC,154350.0,A,3251.104270,N,11714.792008,W,38.1,248.5,020810,,,A*43
$GPRMC,154353.0,A,3251.093757,N,11714.828188,W,38.1,251.4,020810,,,A*41
$GPRMC,154356.0,A,3251.083432,N,11714.862803,W,35.3,249.9,020810,,,A*4A
$GPRMC,154359.0,A,3251.074764,N,11714.893903,W,29.7,251.6,020810,,,A*4D
$GPRMC,154402.0,A,3251.067729,N,11714.921247,W,27.7,251.3,020810,,,A*47
$GPRMC,154405.0,A,3251.060464,N,11714.947635,W,27.5,251.6,020810,,,A*4B
$GPRMC,154408.0,A,3251.053174,N,11714.974400,W,29.4,250.7,020810,,,A*49
$GPRMC,154411.0,A,3251.044270,N,11715.004358,W,32.4,250.0,020810,,,A*48
$GPRMC,154414.0,A,3251.037154,N,11715.032486,W,26.8,252.4,020810,,,A*42
$GPRMC,154417.0,A,3251.031609,N,11715.054318,W,20.1,253.5,020810,,,A*47
$GPRMC,154420.0,A,3251.028780,N,11715.069099,W,10.6,258.6,020810,,,A*43
$GPRMC,154508.0,A,3251.029552,N,11715.086892,W,11.9,271.1,020810,,,A*44
$GPRMC,154511.0,A,3251.029402,N,11715.104021,W,18.9,271.0,020810,,,A*4B
$GPRMC,154514.0,A,3251.029992,N,11715.123227,W,19.3,272.7,020810,,,A*44
$GPRMC,154517.0,A,3251.031104,N,11715.141352,W,16.9,274.0,020810,,,A*4A
$GPRMC,154520.0,A,3251.032125,N,11715.157375,W,16.0,274.0,020810,,,A*45
