NMEA Sentence Code,UTC Time,Status,Latitude,Latitude Direction,Longitude,Longitude Direction,Speed (knots),Track Angle (degrees true),Date,MagneticVariation,Magnetic Variation Direction,[FAA Mode]-Optional,Checksum
$GPRMC,194406.520,A,3305.4411,N,11704.3387,W,5.937744,284.60,150210,,*11
$GPRMC,194409.520,A,3305.4428,N,11704.3454,W,7.879904,284.01,150210,,*19
$GPRMC,194412.520,A,3305.4441,N,11704.3539,W,9.012712,280.91,150210,,*19
$GPRMC,194415.519,A,3305.4459,N,11704.3649,W,13.142036,281.09,150210,,*27
$GPRMC,194418.519,A,3305.4480,N,11704.3796,W,15.467849,281.05,150210,,*25
$GPRMC,194421.519,A,3305.4509,N,11704.3956,W,16.199833,283.92,150210,,*2B
$GPRMC,194424.519,A,3305.4542,N,11704.4114,W,15.267376,283.76,150210,,*29
$GPRMC,194427.519,A,3305.4570,N,11704.4258,W,14.066014,283.26,150210,,*20
$GPRMC,194430.519,A,3305.4596,N,11704.4397,W,14.692099,282.22,150210,,*21
$GPRMC,194433.518,A,3305.4612,N,11704.4538,W,14.587677,276.07,150210,,*22
$GPRMC,194436.518,A,3305.4626,N,11704.4689,W,15.550496,280.85,150210,,*2C
$GPRMC,194439.518,A,3305.4653,N,11704.4850,W,16.367535,281.42,150210,,*28
$GPRMC,194442.518,A,3305.4681,N,11704.5008,W,15.635381,282.68,150210,,*2C
$GPRMC,194445.518,A,3305.4706,N,11704.5150,W,12.539860,282.87,150210,,*24
$GPRMC,194448.517,A,3305.4724,N,11704.5249,W,8.023134,281.33,150210,,*1C
$GPRMC,194457.517,A,3305.4743,N,11704.5359,W,7.849123,288.22,150210,,*17
$GPRMC,194500.517,A,3305.4759,N,11704.5443,W,8.976901,280.14,150210,,*14
$GPRMC,194503.517,A,3305.4776,N,11704.5537,W,10.467315,281.18,150210,,*2E
$GPRMC,194506.516,A,3305.4798,N,11704.5644,W,11.135929,282.31,150210,,*23
$GPRMC,194509.516,A,3305.4821,N,11704.5767,W,13.336819,281.87,150210,,*2E
$GPRMC,194512.516,A,3305.4843,N,11704.5896,W,12.389831,281.41,150210,,*24
$GPRMC,194515.516,A,3305.4864,N,11704.6006,W,9.520108,282.30,150210,,*1D
$GPRMC,194518.516,A,3305.4876,N,11704.6074,W,4.721482,282.52,150210,,*1B
$GPRMC,194524.515,A,3305.4885,N,11704.6128,W,4.877810,281.93,150210,,*16
$GPRMC,194527.515,A,3305.4895,N,11704.6198,W,9.286637,281.15,150210,,*13
$GPRMC,194530.515,A,3305.4915,N,11704.6319,W,14.732007,281.77,150210,,*20
$GPRMC,194533.515,A,3305.4945,N,11704.6487,W,18.593217,282.61,150210,,*24
$GPRMC,194536.515,A,3305.4981,N,11704.6688,W,21.433134,282.14,150210,,*25
$GPRMC,194539.514,A,3305.5022,N,11704.6913,W,23.505630,282.44,150210,,*27
$GPRMC,194542.514,A,3305.5067,N,11704.7151,W,24.272052,282.74,150210,,*24
$GPRMC,194545.514,A,3305.5107,N,11704.7386,W,23.524230,281.87,150210,,*26
$GPRMC,194548.514,A,3305.5147,N,11704.7612,W,22.685671,282.20,150210,,*21
$GPRMC,194551.514,A,3305.5186,N,11704.7829,W,21.897909,282.53,150210,,*28
$GPRMC,194554.513,A,3305.5226,N,11704.8038,W,21.183508,283.51,150210,,*26
$GPRMC,194557.513,A,3305.5271,N,11704.8234,W,20.393049,286.89,150210,,*2B
$GPRMC,194600.513,A,3305.5322,N,11704.8417,W,19.791362,288.14,150210,,*26
$GPRMC,194603.513,A,3305.5366,N,11704.8597,W,19.314700,284.96,150210,,*23
$GPRMC,194606.513,A,3305.5406,N,11704.8775,W,18.511518,286.20,150210,,*2F
$GPRMC,194609.513,A,3305.5481,N,11704.8930,W,17.854767,313.23,150210,,*27
$GPRMC,194612.512,A,3305.5588,N,11704.9060,W,18.879190,309.16,150210,,*2A
$GPRMC,194615.512,A,3305.5687,N,11704.9221,W,20.241958,301.82,150210,,*25
$GPRMC,194618.512,A,3305.5773,N,11704.9410,W,21.673822,296.16,150210,,*2C
$GPRMC,194621.512,A,3305.5867,N,11704.9606,W,23.144705,304.10,150210,,*2E
$GPRMC,194624.512,A,3305.5984,N,11704.9805,W,25.243784,304.65,150210,,*23
$GPRMC,194627.511,A,3305.6117,N,11705.0015,W,27.122510,308.32,150210,,*24
$GPRMC,194630.511,A,3305.6267,N,11705.0226,W,28.265913,310.76,150210,,*2D
$GPRMC,194633.511,A,3305.6442,N,11705.0439,W,32.148092,316.82,150210,,*2D
$GPRMC,194636.511,A,3305.6655,N,11705.0674,W,36.639759,316.87,150210,,*27
$GPRMC,194639.511,A,3305.6888,N,11705.0941,W,40.211693,316.40,150210,,*2C
$GPRMC,194642.511,A,3305.7144,N,11705.1234,W,43.686282,317.00,150210,,*28
$GPRMC,194645.510,A,3305.7427,N,11705.1541,W,46.896964,318.06,150210,,*2B
$GPRMC,194648.510,A,3305.7730,N,11705.1860,W,49.769942,318.96,150210,,*20
$GPRMC,194651.510,A,3305.8054,N,11705.2182,W,51.567303,320.99,150210,,*2A
$GPRMC,194654.510,A,3305.8394,N,11705.2504,W,52.261419,322.15,150210,,*22
$GPRMC,194657.510,A,3305.8743,N,11705.2815,W,52.307559,323.82,150210,,*29
$GPRMC,194700.509,A,3305.9096,N,11705.3113,W,51.946821,325.70,150210,,*27
$GPRMC,194703.509,A,3305.9459,N,11705.3398,W,51.752579,326.87,150210,,*22
$GPRMC,194706.509,A,3305.9831,N,11705.3671,W,51.874872,328.16,150210,,*2C
$GPRMC,194709.509,A,3306.0207,N,11705.3932,W,52.263447,329.93,150210,,*27
$GPRMC,194712.509,A,3306.0593,N,11705.4185,W,52.657081,331.13,150210,,*28
$GPRMC,194715.508,A,3306.0987,N,11705.4429,W,52.931521,333.32,150210,,*25
$GPRMC,194718.508,A,3306.1391,N,11705.4660,W,53.161239,334.04,150210,,*2B
$GPRMC,194721.508,A,3306.1790,N,11705.4891,W,53.007088,333.81,150210,,*27
$GPRMC,194724.508,A,3306.2186,N,11705.5123,W,52.929193,333.90,150210,,*2E
$GPRMC,194727.508,A,3306.2584,N,11705.5351,W,52.829634,333.85,150210,,*23
$GPRMC,194730.508,A,3306.2976,N,11705.5575,W,50.507433,334.38,150210,,*23
$GPRMC,194733.507,A,3306.3330,N,11705.5776,W,43.107450,333.70,150210,,*2F
$GPRMC,194736.507,A,3306.3627,N,11705.5950,W,37.771929,333.17,150210,,*25
$GPRMC,194739.507,A,3306.3873,N,11705.6095,W,28.857407,334.12,150210,,*20
$GPRMC,194742.507,A,3306.4071,N,11705.6216,W,27.142222,332.20,150210,,*2C
$GPRMC,194745.507,A,3306.4281,N,11705.6349,W,30.183361,331.93,150210,,*2B
$GPRMC,194748.506,A,3306.4519,N,11705.6495,W,33.260529,333.05,150210,,*2D
$GPRMC,194751.506,A,3306.4780,N,11705.6647,W,35.771790,333.81,150210,,*25
$GPRMC,194754.506,A,3306.5056,N,11705.6809,W,38.022129,334.09,150210,,*26
$GPRMC,194757.506,A,3306.5347,N,11705.6979,W,39.995113,334.01,150210,,*25
$GPRMC,194800.506,A,3306.5653,N,11705.7154,W,40.686833,334.92,150210,,*2C
$GPRMC,194803.506,A,3306.5962,N,11705.7331,W,40.487901,334.80,150210,,*23
$GPRMC,194806.505,A,3306.6269,N,11705.7504,W,40.356435,334.78,150210,,*20
$GPRMC,194809.505,A,3306.6573,N,11705.7678,W,40.732771,334.19,150210,,*29
$GPRMC,194812.505,A,3306.6875,N,11705.7859,W,40.918881,333.56,150210,,*2F
$GPRMC,194815.505,A,3306.7181,N,11705.8052,W,42.841029,330.88,150210,,*22
$GPRMC,194818.505,A,3306.7514,N,11705.8256,W,46.894155,333.66,150210,,*24
$GPRMC,194821.504,A,3306.7879,N,11705.8472,W,50.661793,333.60,150210,,*20
$GPRMC,194824.504,A,3306.8270,N,11705.8707,W,53.142241,332.74,150210,,*23
$GPRMC,194827.504,A,3306.8669,N,11705.8954,W,54.006374,333.10,150210,,*26
$GPRMC,194830.504,A,3306.9073,N,11705.9197,W,53.895208,333.82,150210,,*2E
$GPRMC,194833.504,A,3306.9480,N,11705.9435,W,53.858634,334.18,150210,,*26
$GPRMC,194836.504,A,3306.9885,N,11705.9670,W,53.787236,333.95,150210,,*20
$GPRMC,194839.503,A,3307.0289,N,11705.9905,W,53.398726,333.93,150210,,*23
$GPRMC,194842.503,A,3307.0688,N,11706.0136,W,53.144775,333.80,150210,,*2F
$GPRMC,194845.503,A,3307.1085,N,11706.0363,W,52.952400,333.87,150210,,*28
$GPRMC,194848.503,A,3307.1478,N,11706.0589,W,52.379417,334.02,150210,,*2E
$GPRMC,194851.503,A,3307.1866,N,11706.0812,W,52.055997,335.02,150210,,*23
$GPRMC,194854.502,A,3307.2255,N,11706.1029,W,52.031989,335.04,150210,,*24
$GPRMC,194857.502,A,3307.2643,N,11706.1252,W,51.879191,333.82,150210,,*24
$GPRMC,194900.502,A,3307.3030,N,11706.1479,W,52.018945,334.04,150210,,*2F
$GPRMC,194903.502,A,3307.3418,N,11706.1706,W,52.109421,334.78,150210,,*2C
$GPRMC,194906.502,A,3307.3813,N,11706.1921,W,52.299866,337.09,150210,,*25
$GPRMC,194909.502,A,3307.4215,N,11706.2118,W,52.468956,338.45,150210,,*2D
$GPRMC,194912.501,A,3307.4625,N,11706.2296,W,52.576979,341.05,150210,,*2F
$GPRMC,194915.501,A,3307.5045,N,11706.2454,W,52.590254,342.80,150210,,*23
$GPRMC,194918.501,A,3307.5469,N,11706.2595,W,52.543146,345.66,150210,,*29
$GPRMC,194921.501,A,3307.5897,N,11706.2712,W,52.789535,348.16,150210,,*2D
$GPRMC,194924.501,A,3307.6329,N,11706.2807,W,52.486728,349.66,150210,,*2A
$GPRMC,194927.500,A,3307.6758,N,11706.2891,W,52.559175,351.54,150210,,*20
$GPRMC,194930.500,A,3307.7194,N,11706.2958,W,52.476268,352.81,150210,,*2D
$GPRMC,194933.500,A,3307.7631,N,11706.3007,W,52.465693,355.22,150210,,*28
$GPRMC,194936.500,A,3307.8068,N,11706.3044,W,52.443349,355.50,150210,,*2C
$GPRMC,194939.500,A,3307.8508,N,11706.3072,W,52.363782,358.55,150210,,*2B
$GPRMC,194942.499,A,3307.8950,N,11706.3069,W,52.485270,1.37,150210,,*21
$GPRMC,194945.499,A,3307.9390,N,11706.3047,W,52.587547,2.65,150210,,*29
$GPRMC,194948.499,A,3307.9831,N,11706.3017,W,52.719356,4.23,150210,,*26
$GPRMC,194951.499,A,3308.0271,N,11706.2978,W,52.817520,3.34,150210,,*20
$GPRMC,194954.499,A,3308.0708,N,11706.2950,W,52.964209,2.87,150210,,*24
$GPRMC,194957.499,A,3308.1150,N,11706.2927,W,52.967587,2.71,150210,,*26
$GPRMC,195000.498,A,3308.1591,N,11706.2905,W,52.950033,2.51,150210,,*28
$GPRMC,195003.498,A,3308.2032,N,11706.2880,W,52.911292,2.60,150210,,*26
$GPRMC,195006.498,A,3308.2473,N,11706.2855,W,52.786398,2.57,150210,,*25
$GPRMC,195009.498,A,3308.2913,N,11706.2833,W,52.776120,2.36,150210,,*28
$GPRMC,195012.498,A,3308.3356,N,11706.2811,W,52.856608,2.41,150210,,*28
$GPRMC,195015.497,A,3308.3798,N,11706.2786,W,52.639397,2.49,150210,,*2B
$GPRMC,195018.497,A,3308.4236,N,11706.2763,W,52.623118,2.53,150210,,*2E
$GPRMC,195021.497,A,3308.4675,N,11706.2741,W,52.755795,2.41,150210,,*27
$GPRMC,195024.497,A,3308.5114,N,11706.2718,W,52.737979,2.71,150210,,*24
$GPRMC,195027.497,A,3308.5557,N,11706.2694,W,52.579009,2.80,150210,,*29
$GPRMC,195030.497,A,3308.5996,N,11706.2669,W,52.377949,2.60,150210,,*27
$GPRMC,195033.496,A,3308.6432,N,11706.2647,W,52.174139,2.46,150210,,*23
$GPRMC,195036.496,A,3308.6866,N,11706.2628,W,51.949813,2.16,150210,,*23
$GPRMC,195039.496,A,3308.7297,N,11706.2607,W,52.001028,2.58,150210,,*28
$GPRMC,195042.496,A,3308.7731,N,11706.2584,W,52.073481,2.72,150210,,*2F
$GPRMC,195045.496,A,3308.8167,N,11706.2561,W,52.265522,2.66,150210,,*21
$GPRMC,195048.495,A,3308.8605,N,11706.2537,W,52.373647,2.40,150210,,*2D
$GPRMC,195051.495,A,3308.9041,N,11706.2516,W,52.436697,2.54,150210,,*2F
$GPRMC,195054.495,A,3308.9479,N,11706.2494,W,52.601998,2.65,150210,,*2A
$GPRMC,195057.495,A,3308.9917,N,11706.2472,W,52.563329,2.48,150210,,*2C
$GPRMC,195100.495,A,3309.0356,N,11706.2452,W,52.589454,2.51,150210,,*2B
$GPRMC,195103.495,A,3309.0793,N,11706.2431,W,52.509179,2.43,150210,,*21
$GPRMC,195106.494,A,3309.1230,N,11706.2406,W,52.331969,2.67,150210,,*2E
$GPRMC,195109.494,A,3309.1667,N,11706.2382,W,52.194996,2.75,150210,,*22
$GPRMC,195112.494,A,3309.2101,N,11706.2358,W,51.903305,2.54,150210,,*2D
$GPRMC,195115.494,A,3309.2533,N,11706.2331,W,51.465079,2.48,150210,,*28
$GPRMC,195118.494,A,3309.2964,N,11706.2316,W,51.898825,0.48,150210,,*23
$GPRMC,195121.493,A,3309.3398,N,11706.2320,W,52.119407,358.62,150210,,*2A
$GPRMC,195124.493,A,3309.3833,N,11706.2346,W,52.368120,356.51,150210,,*2F
$GPRMC,195127.493,A,3309.4268,N,11706.2391,W,52.506455,354.41,150210,,*2F
$GPRMC,195130.493,A,3309.4702,N,11706.2454,W,52.605206,352.45,150210,,*2C
$GPRMC,195133.493,A,3309.5133,N,11706.2533,W,52.544715,350.75,150210,,*2A
$GPRMC,195136.492,A,3309.5561,N,11706.2631,W,52.477401,348.57,150210,,*22
$GPRMC,195139.492,A,3309.5988,N,11706.2745,W,52.406120,346.54,150210,,*29
$GPRMC,195142.492,A,3309.6413,N,11706.2881,W,52.383900,344.39,150210,,*27
$GPRMC,195145.492,A,3309.6833,N,11706.3034,W,52.394295,342.79,150210,,*2A
$GPRMC,195148.492,A,3309.7247,N,11706.3195,W,52.346288,340.92,150210,,*21
$GPRMC,195151.492,A,3309.7624,N,11706.3368,W,52.380142,338.44,150210,,*23
$GPRMC,195154.491,A,3309.8032,N,11706.3580,W,52.422733,336.52,150210,,*2D
$GPRMC,195157.491,A,3309.8437,N,11706.3804,W,52.495740,334.94,150210,,*2E
$GPRMC,195200.491,A,3309.8836,N,11706.4037,W,52.529990,334.26,150210,,*21
$GPRMC,195203.491,A,3309.9234,N,11706.4268,W,52.534378,334.34,150210,,*20
$GPRMC,195206.491,A,3309.9635,N,11706.4497,W,52.407271,334.13,150210,,*2A
$GPRMC,195209.490,A,3310.0035,N,11706.4723,W,52.517835,334.26,150210,,*23
$GPRMC,195212.490,A,3310.0430,N,11706.4947,W,52.716716,334.13,150210,,*2F
$GPRMC,195215.490,A,3310.0826,N,11706.5174,W,52.936279,334.20,150210,,*2A
$GPRMC,195218.490,A,3310.1224,N,11706.5406,W,53.172329,334.31,150210,,*23
$GPRMC,195221.490,A,3310.1624,N,11706.5638,W,53.333423,334.07,150210,,*2D
$GPRMC,195224.490,A,3310.2025,N,11706.5871,W,53.202269,334.25,150210,,*24
$GPRMC,195227.489,A,3310.2426,N,11706.6103,W,53.187056,334.17,150210,,*26
$GPRMC,195230.489,A,3310.2826,N,11706.6332,W,53.138848,334.25,150210,,*2E
$GPRMC,195233.489,A,3310.3225,N,11706.6560,W,53.003498,334.40,150210,,*2F
$GPRMC,195236.489,A,3310.3622,N,11706.6789,W,52.847831,334.19,150210,,*26
$GPRMC,195239.489,A,3310.4018,N,11706.7019,W,52.754925,334.14,150210,,*2A
$GPRMC,195242.488,A,3310.4415,N,11706.7248,W,52.718716,334.17,150210,,*2D
$GPRMC,195245.488,A,3310.4808,N,11706.7476,W,52.709439,334.26,150210,,*2D
$GPRMC,195248.488,A,3310.5203,N,11706.7707,W,52.584317,334.40,150210,,*29
$GPRMC,195251.488,A,3310.5598,N,11706.7935,W,52.523278,334.38,150210,,*21
$GPRMC,195254.488,A,3310.5991,N,11706.8163,W,52.402460,334.09,150210,,*2A
$GPRMC,195257.487,A,3310.6384,N,11706.8391,W,52.167283,334.34,150210,,*27
$GPRMC,195300.487,A,3310.6777,N,11706.8617,W,51.916696,334.25,150210,,*2A
$GPRMC,195303.487,A,3310.7166,N,11706.8838,W,51.666960,334.51,150210,,*20
$GPRMC,195306.487,A,3310.7555,N,11706.9054,W,51.693064,334.59,150210,,*2D
$GPRMC,195309.487,A,3310.7942,N,11706.9272,W,51.717915,334.09,150210,,*29
$GPRMC,195312.487,A,3310.8330,N,11706.9492,W,51.800382,334.08,150210,,*27
$GPRMC,195315.486,A,3310.8716,N,11706.9715,W,51.980730,334.34,150210,,*26
$GPRMC,195318.486,A,3310.9106,N,11706.9940,W,52.280792,334.23,150210,,*25
$GPRMC,195321.486,A,3310.9497,N,11707.0166,W,52.622052,334.24,150210,,*26
$GPRMC,195324.486,A,3310.9897,N,11707.0396,W,52.927937,334.30,150210,,*27
$GPRMC,195327.486,A,3311.0303,N,11707.0632,W,53.161126,334.15,150210,,*25
$GPRMC,195330.485,A,3311.0710,N,11707.0866,W,53.192940,334.41,150210,,*2C
$GPRMC,195333.485,A,3311.1112,N,11707.1098,W,53.218147,334.44,150210,,*29
$GPRMC,195336.485,A,3311.1510,N,11707.1329,W,53.156600,334.33,150210,,*2E
$GPRMC,195339.485,A,3311.1907,N,11707.1556,W,53.070520,334.13,150210,,*23
$GPRMC,195342.485,A,3311.2304,N,11707.1781,W,53.089712,333.98,150210,,*2C
$GPRMC,195345.485,A,3311.2703,N,11707.2008,W,53.093203,334.10,150210,,*24
$GPRMC,195348.484,A,3311.3104,N,11707.2237,W,53.186919,334.39,150210,,*28
$GPRMC,195351.484,A,3311.3502,N,11707.2463,W,53.285717,334.34,150210,,*28
$GPRMC,195354.484,A,3311.3902,N,11707.2691,W,53.518305,334.17,150210,,*2B
$GPRMC,195357.484,A,3311.4302,N,11707.2921,W,53.570942,334.10,150210,,*21
$GPRMC,195400.484,A,3311.4702,N,11707.3150,W,53.469868,334.18,150210,,*27
$GPRMC,195403.483,A,3311.5102,N,11707.3379,W,53.317515,334.32,150210,,*2C
$GPRMC,195406.483,A,3311.5502,N,11707.3611,W,53.209389,334.23,150210,,*2B
$GPRMC,195409.483,A,3311.5901,N,11707.3841,W,53.135171,334.32,150210,,*29
$GPRMC,195412.483,A,3311.6301,N,11707.4069,W,53.136687,334.19,150210,,*2B
$GPRMC,195415.483,A,3311.6700,N,11707.4294,W,53.134935,334.30,150210,,*26
$GPRMC,195418.483,A,3311.7099,N,11707.4520,W,53.048761,334.17,150210,,*25
$GPRMC,195421.482,A,3311.7498,N,11707.4749,W,53.027489,334.21,150210,,*2F
$GPRMC,195424.482,A,3311.7894,N,11707.4981,W,53.031754,334.11,150210,,*27
$GPRMC,195427.482,A,3311.8290,N,11707.5214,W,53.018892,334.12,150210,,*2E
$GPRMC,195430.482,A,3311.8686,N,11707.5445,W,53.020368,334.10,150210,,*2E
$GPRMC,195433.482,A,3311.9086,N,11707.5676,W,53.069831,334.36,150210,,*26
$GPRMC,195436.481,A,3311.9484,N,11707.5905,W,53.102166,333.99,150210,,*28
$GPRMC,195439.481,A,3311.9880,N,11707.6134,W,53.115233,334.26,150210,,*20
$GPRMC,195442.481,A,3312.0279,N,11707.6365,W,53.129038,333.59,150210,,*25
$GPRMC,195445.481,A,3312.0677,N,11707.6601,W,53.135412,333.06,150210,,*24
$GPRMC,195448.481,A,3312.1071,N,11707.6840,W,53.386236,332.70,150210,,*29
$GPRMC,195451.480,A,3312.1468,N,11707.7086,W,53.575780,331.98,150210,,*28
$GPRMC,195454.480,A,3312.1865,N,11707.7342,W,53.772602,331.14,150210,,*2D
$GPRMC,195457.480,A,3312.2258,N,11707.7603,W,53.870698,330.81,150210,,*2A
$GPRMC,195500.480,A,3312.2650,N,11707.7871,W,54.017689,330.42,150210,,*2F
$GPRMC,195503.480,A,3312.3043,N,11707.8144,W,53.852021,330.17,150210,,*23
$GPRMC,195506.480,A,3312.3435,N,11707.8417,W,54.017284,329.64,150210,,*2F
$GPRMC,195509.479,A,3312.3817,N,11707.8697,W,53.894143,328.45,150210,,*2E
$GPRMC,195512.479,A,3312.4197,N,11707.8974,W,54.267892,328.51,150210,,*21
$GPRMC,195515.479,A,3312.4578,N,11707.9258,W,54.710730,328.06,150210,,*27
$GPRMC,195518.479,A,3312.4963,N,11707.9544,W,55.103565,328.21,150210,,*24
$GPRMC,195521.479,A,3312.5349,N,11707.9833,W,55.597812,327.83,150210,,*23
$GPRMC,195524.478,A,3312.5739,N,11708.0125,W,55.941161,328.29,150210,,*29
$GPRMC,195527.478,A,3312.6135,N,11708.0421,W,56.252268,327.93,150210,,*2C
$GPRMC,195530.478,A,3312.6531,N,11708.0719,W,56.568960,328.34,150210,,*2D
$GPRMC,195533.478,A,3312.6932,N,11708.1014,W,56.767758,328.19,150210,,*2D
$GPRMC,195536.478,A,3312.7337,N,11708.1313,W,57.115741,327.94,150210,,*22
$GPRMC,195539.478,A,3312.7747,N,11708.1612,W,57.423020,328.38,150210,,*23
$GPRMC,195542.477,A,3312.8157,N,11708.1912,W,57.813272,328.02,150210,,*24
$GPRMC,195545.477,A,3312.8569,N,11708.2215,W,58.089007,328.20,150210,,*21
$GPRMC,195548.477,A,3312.8980,N,11708.2521,W,58.344231,328.09,150210,,*29
$GPRMC,195551.477,A,3312.9389,N,11708.2830,W,58.607001,328.09,150210,,*2D
$GPRMC,195554.477,A,3312.9808,N,11708.3140,W,59.018238,328.12,150210,,*2E
$GPRMC,195557.476,A,3313.0231,N,11708.3451,W,59.557033,328.71,150210,,*23
$GPRMC,195600.476,A,3313.0666,N,11708.3758,W,60.045581,329.77,150210,,*29
$GPRMC,195603.476,A,3313.1107,N,11708.4056,W,60.678211,331.05,150210,,*2F
$GPRMC,195606.476,A,3313.1560,N,11708.4351,W,61.336355,331.94,150210,,*2C
$GPRMC,195609.476,A,3313.2020,N,11708.4638,W,62.066673,333.25,150210,,*27
$GPRMC,195612.475,A,3313.2488,N,11708.4914,W,62.710367,334.34,150210,,*28
$GPRMC,195615.475,A,3313.2955,N,11708.5180,W,61.243208,334.63,150210,,*2C
$GPRMC,195618.475,A,3313.3413,N,11708.5438,W,61.034886,335.12,150210,,*20
$GPRMC,195621.475,A,3313.3875,N,11708.5680,W,60.363842,337.34,150210,,*29
$GPRMC,195624.475,A,3313.4338,N,11708.5899,W,60.268570,338.59,150210,,*2D
$GPRMC,195627.475,A,3313.4806,N,11708.6106,W,60.319520,340.04,150210,,*21
$GPRMC,195630.474,A,3313.5276,N,11708.6302,W,60.589831,340.17,150210,,*2C
$GPRMC,195633.474,A,3313.5749,N,11708.6504,W,60.415413,340.20,150210,,*2A
$GPRMC,195636.474,A,3313.6222,N,11708.6699,W,59.949513,340.87,150210,,*21
$GPRMC,195639.474,A,3313.6693,N,11708.6883,W,59.378772,341.48,150210,,*2A
$GPRMC,195642.474,A,3313.7157,N,11708.7075,W,58.379340,340.48,150210,,*2C
$GPRMC,195645.473,A,3313.7611,N,11708.7273,W,57.240736,340.32,150210,,*21
$GPRMC,195648.473,A,3313.8055,N,11708.7463,W,55.896982,340.24,150210,,*27
$GPRMC,195651.473,A,3313.8492,N,11708.7654,W,55.653771,340.04,150210,,*21
$GPRMC,195654.473,A,3313.8927,N,11708.7843,W,55.368539,340.35,150210,,*2E
$GPRMC,195657.473,A,3313.9359,N,11708.8028,W,54.640827,340.22,150210,,*2F
$GPRMC,195700.473,A,3313.9784,N,11708.8207,W,53.505314,340.15,150210,,*2D
$GPRMC,195703.472,A,3314.0199,N,11708.8387,W,52.322722,340.18,150210,,*2C
$GPRMC,195706.472,A,3314.0606,N,11708.8562,W,51.772110,340.32,150210,,*28
$GPRMC,195709.472,A,3314.1012,N,11708.8735,W,52.066814,340.38,150210,,*23
$GPRMC,195712.472,A,3314.1420,N,11708.8909,W,52.284150,340.11,150210,,*21
$GPRMC,195715.472,A,3314.1828,N,11708.9086,W,52.382779,339.95,150210,,*25
$GPRMC,195718.471,A,3314.2241,N,11708.9261,W,52.581903,340.07,150210,,*25
$GPRMC,195721.471,A,3314.2654,N,11708.9439,W,52.697012,340.37,150210,,*2A
$GPRMC,195724.471,A,3314.3069,N,11708.9618,W,52.852345,340.13,150210,,*27
$GPRMC,195727.471,A,3314.3486,N,11708.9798,W,52.888425,340.00,150210,,*2C
$GPRMC,195730.471,A,3314.3902,N,11708.9979,W,52.776663,340.19,150210,,*2C
$GPRMC,195733.470,A,3314.4316,N,11709.0158,W,52.692748,340.55,150210,,*2E
$GPRMC,195736.470,A,3314.4729,N,11709.0335,W,52.626040,340.38,150210,,*21
$GPRMC,195739.470,A,3314.5142,N,11709.0510,W,52.652410,340.30,150210,,*2F
$GPRMC,195742.470,A,3314.5554,N,11709.0687,W,52.676334,340.16,150210,,*2E
$GPRMC,195745.470,A,3314.5967,N,11709.0866,W,52.708026,340.23,150210,,*2A
$GPRMC,195748.470,A,3314.6380,N,11709.1047,W,52.754368,339.94,150210,,*2F
$GPRMC,195751.469,A,3314.6793,N,11709.1223,W,52.729908,340.25,150210,,*2B
$GPRMC,195754.469,A,3314.7209,N,11709.1398,W,52.758725,339.90,150210,,*2F
$GPRMC,195757.469,A,3314.7623,N,11709.1577,W,52.819142,339.98,150210,,*22
$GPRMC,195800.469,A,3314.8037,N,11709.1757,W,52.922105,340.29,150210,,*2D
$GPRMC,195803.469,A,3314.8453,N,11709.1935,W,53.005988,340.31,150210,,*2B
$GPRMC,195806.468,A,3314.8871,N,11709.2113,W,53.138253,340.05,150210,,*29
$GPRMC,195809.468,A,3314.9286,N,11709.2291,W,53.076635,340.27,150210,,*23
$GPRMC,195812.468,A,3314.9700,N,11709.2469,W,52.970542,340.57,150210,,*29
$GPRMC,195815.468,A,3315.0115,N,11709.2650,W,52.834066,340.42,150210,,*2A
$GPRMC,195818.468,A,3315.0527,N,11709.2833,W,52.829174,339.99,150210,,*2F
$GPRMC,195821.467,A,3315.0939,N,11709.3012,W,52.881873,340.14,150210,,*24
$GPRMC,195824.467,A,3315.1353,N,11709.3191,W,52.906670,340.14,150210,,*2F
$GPRMC,195827.467,A,3315.1768,N,11709.3373,W,53.010352,340.15,150210,,*25
$GPRMC,195830.467,A,3315.2183,N,11709.3553,W,53.074548,340.05,150210,,*29
$GPRMC,195833.467,A,3315.2598,N,11709.3735,W,53.013721,340.29,150210,,*24
$GPRMC,195836.467,A,3315.3016,N,11709.3913,W,52.954348,340.28,150210,,*28
$GPRMC,195839.466,A,3315.3430,N,11709.4090,W,52.583563,340.18,150210,,*29
$GPRMC,195842.466,A,3315.3843,N,11709.4260,W,52.093490,341.55,150210,,*21
$GPRMC,195845.466,A,3315.4260,N,11709.4409,W,52.162157,343.46,150210,,*22
$GPRMC,195848.466,A,3315.4683,N,11709.4544,W,52.432937,345.04,150210,,*20
$GPRMC,195851.466,A,3315.5113,N,11709.4665,W,52.856645,347.37,150210,,*21
$GPRMC,195854.465,A,3315.5552,N,11709.4767,W,53.200658,349.27,150210,,*2E
$GPRMC,195857.465,A,3315.5995,N,11709.4856,W,53.352634,351.02,150210,,*25
$GPRMC,195900.465,A,3315.6438,N,11709.4931,W,53.741730,353.26,150210,,*28
$GPRMC,195903.465,A,3315.6884,N,11709.4986,W,54.366867,355.00,150210,,*25
$GPRMC,195906.465,A,3315.7337,N,11709.5022,W,55.086888,357.12,150210,,*28
$GPRMC,195909.465,A,3315.7800,N,11709.5037,W,56.024025,359.24,150210,,*23
$GPRMC,195912.464,A,3315.8274,N,11709.5031,W,57.221031,1.18,150210,,*2A
$GPRMC,195915.464,A,3315.8755,N,11709.5004,W,58.137006,3.18,150210,,*20
$GPRMC,195918.464,A,3315.9245,N,11709.4959,W,59.177659,5.07,150210,,*29
$GPRMC,195921.464,A,3315.9742,N,11709.4889,W,59.795420,7.54,150210,,*2F
$GPRMC,195924.464,A,3316.0235,N,11709.4798,W,59.412005,9.46,150210,,*28
$GPRMC,195927.463,A,3316.0718,N,11709.4685,W,58.353919,11.96,150210,,*18
$GPRMC,195930.463,A,3316.1183,N,11709.4548,W,56.556996,13.84,150210,,*12
$GPRMC,195933.463,A,3316.1624,N,11709.4404,W,53.733287,15.92,150210,,*1C
$GPRMC,195936.463,A,3316.2035,N,11709.4250,W,50.894589,17.87,150210,,*15
$GPRMC,195939.463,A,3316.2422,N,11709.4091,W,49.536325,19.67,150210,,*1A
$GPRMC,195942.462,A,3316.2802,N,11709.3922,W,49.097447,21.51,150210,,*1C
$GPRMC,195945.462,A,3316.3180,N,11709.3739,W,49.011884,23.11,150210,,*16
$GPRMC,195948.462,A,3316.3555,N,11709.3539,W,48.922617,25.14,150210,,*1A
$GPRMC,195951.462,A,3316.3925,N,11709.3326,W,48.832191,25.62,150210,,*19
$GPRMC,195954.462,A,3316.4293,N,11709.3113,W,48.689430,25.75,150210,,*1F
$GPRMC,195957.462,A,3316.4659,N,11709.2900,W,48.550053,26.10,150210,,*13
$GPRMC,200000.461,A,3316.5023,N,11709.2691,W,48.293222,25.84,150210,,*1B
$GPRMC,200003.461,A,3316.5386,N,11709.2482,W,48.170747,25.69,150210,,*1F
$GPRMC,200006.461,A,3316.5747,N,11709.2272,W,48.120832,25.92,150210,,*16
$GPRMC,200009.461,A,3316.6108,N,11709.2063,W,47.975433,25.71,150210,,*12
$GPRMC,200012.461,A,3316.6469,N,11709.1855,W,47.943435,25.78,150210,,*1E
$GPRMC,200015.460,A,3316.6830,N,11709.1649,W,48.086891,25.60,150210,,*1F
$GPRMC,200018.460,A,3316.7192,N,11709.1441,W,48.425414,25.76,150210,,*13
$GPRMC,200021.460,A,3316.7558,N,11709.1231,W,48.988083,25.69,150210,,*14
$GPRMC,200024.460,A,3316.7929,N,11709.1017,W,49.653067,25.71,150210,,*16
$GPRMC,200027.460,A,3316.8306,N,11709.0803,W,50.281721,25.31,150210,,*13
$GPRMC,200030.460,A,3316.8691,N,11709.0596,W,51.212869,23.70,150210,,*14
$GPRMC,200033.459,A,3316.9089,N,11709.0401,W,52.252211,21.37,150210,,*1F
$GPRMC,200036.459,A,3316.9501,N,11709.0222,W,52.704616,19.27,150210,,*17
$GPRMC,200039.459,A,3316.9927,N,11709.0058,W,53.126848,17.19,150210,,*1E
$GPRMC,200042.459,A,3317.0351,N,11708.9916,W,52.644167,14.90,150210,,*1E
$GPRMC,200045.459,A,3317.0771,N,11708.9798,W,52.020626,12.71,150210,,*18
$GPRMC,200048.458,A,3317.1191,N,11708.9700,W,51.619750,10.86,150210,,*19
$GPRMC,200051.458,A,3317.1613,N,11708.9621,W,51.321268,8.09,150210,,*20
$GPRMC,200054.458,A,3317.2038,N,11708.9556,W,51.981167,6.55,150210,,*21
$GPRMC,200057.458,A,3317.2470,N,11708.9508,W,52.083328,4.39,150210,,*28
$GPRMC,200100.458,A,3317.2908,N,11708.9480,W,52.211928,2.14,150210,,*22
$GPRMC,200103.457,A,3317.3349,N,11708.9471,W,52.425199,359.82,150210,,*2F
$GPRMC,200106.457,A,3317.3787,N,11708.9486,W,52.588185,358.08,150210,,*2C
$GPRMC,200109.457,A,3317.4225,N,11708.9512,W,53.125743,357.29,150210,,*27
$GPRMC,200112.457,A,3317.4668,N,11708.9539,W,53.351331,357.49,150210,,*2F
$GPRMC,200115.457,A,3317.5113,N,11708.9563,W,53.038230,357.25,150210,,*2B
$GPRMC,200118.457,A,3317.5559,N,11708.9590,W,53.141612,357.14,150210,,*29
$GPRMC,200121.456,A,3317.6004,N,11708.9616,W,53.231935,357.28,150210,,*20
$GPRMC,200124.456,A,3317.6447,N,11708.9650,W,53.225520,355.49,150210,,*2C
$GPRMC,200127.456,A,3317.6890,N,11708.9688,W,53.620624,356.66,150210,,*24
$GPRMC,200130.456,A,3317.7337,N,11708.9717,W,53.949286,357.05,150210,,*2A
$GPRMC,200133.456,A,3317.7790,N,11708.9739,W,54.584051,357.66,150210,,*2B
$GPRMC,200136.455,A,3317.8247,N,11708.9765,W,55.319639,357.29,150210,,*24
$GPRMC,200139.455,A,3317.8713,N,11708.9793,W,56.348706,357.06,150210,,*21
$GPRMC,200142.455,A,3317.9187,N,11708.9823,W,57.786860,357.05,150210,,*28
$GPRMC,200145.455,A,3317.9677,N,11708.9850,W,59.143891,357.42,150210,,*2F
$GPRMC,200148.455,A,3318.0184,N,11708.9876,W,60.616194,356.89,150210,,*2C
$GPRMC,200151.454,A,3318.0701,N,11708.9901,W,62.245720,357.32,150210,,*27
$GPRMC,200154.454,A,3318.1222,N,11708.9928,W,62.404046,357.26,150210,,*2D
$GPRMC,200157.454,A,3318.1743,N,11708.9958,W,62.633519,357.35,150210,,*20
$GPRMC,200200.454,A,3318.2265,N,11708.9990,W,63.011118,357.22,150210,,*23
$GPRMC,200203.454,A,3318.2794,N,11709.0018,W,63.428971,357.76,150210,,*22
$GPRMC,200206.454,A,3318.3326,N,11709.0047,W,64.179704,357.43,150210,,*2D
$GPRMC,200209.453,A,3318.3860,N,11709.0082,W,64.599751,356.91,150210,,*21
$GPRMC,200212.453,A,3318.4401,N,11709.0134,W,65.194227,354.71,150210,,*2B
$GPRMC,200215.453,A,3318.4946,N,11709.0209,W,65.817000,352.63,150210,,*2F
$GPRMC,200218.453,A,3318.5493,N,11709.0312,W,66.441269,350.18,150210,,*22
$GPRMC,200221.453,A,3318.6039,N,11709.0447,W,66.828607,347.85,150210,,*25
$GPRMC,200224.452,A,3318.6585,N,11709.0610,W,67.329113,345.17,150210,,*23
$GPRMC,200227.452,A,3318.7130,N,11709.0800,W,67.972823,342.87,150210,,*24
$GPRMC,200230.452,A,3318.7675,N,11709.1010,W,68.357743,341.46,150210,,*29
$GPRMC,200233.452,A,3318.8210,N,11709.1245,W,68.784617,338.43,150210,,*21
$GPRMC,200236.452,A,3318.8735,N,11709.1513,W,69.203251,335.46,150210,,*27
$GPRMC,200239.451,A,3318.9248,N,11709.1819,W,69.545877,333.03,150210,,*2E
$GPRMC,200242.451,A,3318.9757,N,11709.2154,W,69.784440,331.96,150210,,*23
$GPRMC,200245.451,A,3319.0253,N,11709.2482,W,66.477640,332.06,150210,,*2B
$GPRMC,200248.451,A,3319.0740,N,11709.2798,W,66.412871,331.86,150210,,*2D
$GPRMC,200251.451,A,3319.1224,N,11709.3118,W,66.256631,331.92,150210,,*25
$GPRMC,200254.451,A,3319.1708,N,11709.3430,W,65.999569,332.01,150210,,*28
$GPRMC,200257.450,A,3319.2194,N,11709.3741,W,65.880877,331.95,150210,,*2A
$GPRMC,200300.450,A,3319.2682,N,11709.4035,W,65.661411,334.01,150210,,*2F
$GPRMC,200303.450,A,3319.3180,N,11709.4299,W,65.544843,336.56,150210,,*23
$GPRMC,200306.450,A,3319.3686,N,11709.4534,W,65.287045,339.00,150210,,*2D
$GPRMC,200309.450,A,3319.4199,N,11709.4745,W,64.756533,341.63,150210,,*2E
$GPRMC,200312.449,A,3319.4715,N,11709.4929,W,64.281539,344.41,150210,,*2A
$GPRMC,200315.449,A,3319.5236,N,11709.5085,W,63.136318,346.75,150210,,*2E
$GPRMC,200318.449,A,3319.5750,N,11709.5209,W,61.958411,349.22,150210,,*21
$GPRMC,200321.449,A,3319.6253,N,11709.5305,W,60.241697,351.36,150210,,*21
$GPRMC,200324.449,A,3319.6743,N,11709.5376,W,58.630249,353.73,150210,,*29
$GPRMC,200327.449,A,3319.7217,N,11709.5422,W,56.657531,355.96,150210,,*23
$GPRMC,200330.448,A,3319.7677,N,11709.5444,W,54.747963,358.28,150210,,*27
$GPRMC,200333.448,A,3319.8121,N,11709.5445,W,52.907667,0.33,150210,,*2D
$GPRMC,200336.448,A,3319.8550,N,11709.5437,W,51.699710,0.66,150210,,*25
$GPRMC,200339.448,A,3319.8979,N,11709.5427,W,52.714081,1.22,150210,,*25
$GPRMC,200342.448,A,3319.9412,N,11709.5414,W,52.088334,0.90,150210,,*2F
$GPRMC,200345.447,A,3319.9846,N,11709.5406,W,52.235174,0.85,150210,,*2F
$GPRMC,200348.447,A,3320.0280,N,11709.5401,W,52.456252,0.78,150210,,*20
$GPRMC,200351.447,A,3320.0717,N,11709.5396,W,52.644169,0.80,150210,,*27
$GPRMC,200354.447,A,3320.1156,N,11709.5387,W,52.789325,0.76,150210,,*23
$GPRMC,200357.447,A,3320.1597,N,11709.5378,W,52.875573,0.84,150210,,*2D
$GPRMC,200400.446,A,3320.2038,N,11709.5374,W,52.947533,0.54,150210,,*2F
$GPRMC,200403.446,A,3320.2478,N,11709.5369,W,52.923440,0.83,150210,,*2D
$GPRMC,200406.446,A,3320.2915,N,11709.5362,W,52.956500,0.86,150210,,*27
$GPRMC,200409.446,A,3320.3354,N,11709.5356,W,52.949413,0.75,150210,,*20
$GPRMC,200412.446,A,3320.3796,N,11709.5351,W,52.916106,0.59,150210,,*22
$GPRMC,200415.446,A,3320.4238,N,11709.5343,W,52.898143,1.16,150210,,*2C
$GPRMC,200418.445,A,3320.4680,N,11709.5332,W,52.836241,0.61,150210,,*27
$GPRMC,200421.445,A,3320.5123,N,11709.5325,W,52.905755,0.65,150210,,*21
$GPRMC,200424.445,A,3320.5566,N,11709.5316,W,52.850195,0.95,150210,,*25
$GPRMC,200427.445,A,3320.6008,N,11709.5309,W,52.823059,0.74,150210,,*2C
$GPRMC,200430.445,A,3320.6451,N,11709.5300,W,52.858159,1.06,150210,,*22
$GPRMC,200433.444,A,3320.6894,N,11709.5292,W,52.806180,0.89,150210,,*26
$GPRMC,200436.444,A,3320.7336,N,11709.5284,W,52.783835,0.81,150210,,*2B
$GPRMC,200439.444,A,3320.7777,N,11709.5275,W,52.804618,0.69,150210,,*2C
$GPRMC,200442.444,A,3320.8219,N,11709.5268,W,52.811065,1.00,150210,,*28
$GPRMC,200445.444,A,3320.8660,N,11709.5261,W,52.820909,0.89,150210,,*2D
$GPRMC,200448.443,A,3320.9101,N,11709.5253,W,52.829585,0.75,150210,,*25
$GPRMC,200451.443,A,3320.9540,N,11709.5248,W,52.724280,0.70,150210,,*23
$GPRMC,200454.443,A,3320.9979,N,11709.5241,W,52.606801,0.96,150210,,*23
$GPRMC,200457.443,A,3321.0418,N,11709.5233,W,52.459951,0.65,150210,,*27
$GPRMC,200500.443,A,3321.0857,N,11709.5226,W,52.301430,0.97,150210,,*2A
$GPRMC,200503.443,A,3321.1294,N,11709.5219,W,52.151754,0.80,150210,,*21
$GPRMC,200506.442,A,3321.1732,N,11709.5210,W,52.214356,0.78,150210,,*26
$GPRMC,200509.442,A,3321.2171,N,11709.5202,W,52.385322,0.84,150210,,*21
$GPRMC,200512.442,A,3321.2610,N,11709.5194,W,52.583180,0.96,150210,,*2E
$GPRMC,200515.442,A,3321.3051,N,11709.5186,W,52.653126,0.72,150210,,*20
$GPRMC,200518.442,A,3321.3492,N,11709.5181,W,52.617214,359.85,150210,,*24
$GPRMC,200521.441,A,3321.3932,N,11709.5188,W,52.665625,358.38,150210,,*27
$GPRMC,200524.441,A,3321.4371,N,11709.5215,W,52.625249,356.60,150210,,*26
$GPRMC,200527.441,A,3321.4807,N,11709.5265,W,52.403360,354.25,150210,,*27
$GPRMC,200530.441,A,3321.5238,N,11709.5329,W,51.997867,352.65,150210,,*22
$GPRMC,200533.441,A,3321.5661,N,11709.5410,W,51.693141,350.91,150210,,*2B
$GPRMC,200536.440,A,3321.6088,N,11709.5506,W,51.974060,348.73,150210,,*2A
$GPRMC,200539.440,A,3321.6517,N,11709.5619,W,52.080953,346.84,150210,,*25
$GPRMC,200542.440,A,3321.6943,N,11709.5747,W,52.241331,345.29,150210,,*2B
$GPRMC,200545.440,A,3321.7362,N,11709.5893,W,52.504959,343.31,150210,,*2F
$GPRMC,200548.440,A,3321.7774,N,11709.6060,W,52.547964,341.22,150210,,*2F
$GPRMC,200551.440,A,3321.8186,N,11709.6236,W,52.533158,339.68,150210,,*27
$GPRMC,200554.439,A,3321.8593,N,11709.6427,W,52.524750,337.25,150210,,*25
$GPRMC,200557.439,A,3321.8995,N,11709.6635,W,52.454558,335.95,150210,,*28
$GPRMC,200600.439,A,3321.9391,N,11709.6859,W,52.213686,333.90,150210,,*24
$GPRMC,200603.439,A,3321.9774,N,11709.7100,W,51.859622,331.97,150210,,*20
$GPRMC,200606.439,A,3322.0146,N,11709.7359,W,51.499158,330.01,150210,,*22
$GPRMC,200609.438,A,3322.0507,N,11709.7630,W,51.025498,328.51,150210,,*21
$GPRMC,200612.438,A,3322.0861,N,11709.7910,W,50.906162,326.56,150210,,*2B
$GPRMC,200615.438,A,3322.1210,N,11709.8196,W,50.988967,324.55,150210,,*22
$GPRMC,200618.438,A,3322.1549,N,11709.8491,W,50.878558,322.62,150210,,*2A
$GPRMC,200621.438,A,3322.1880,N,11709.8796,W,50.865449,320.57,150210,,*25
$GPRMC,200624.437,A,3322.2202,N,11709.9119,W,50.797337,319.16,150210,,*2F
$GPRMC,200627.437,A,3322.2518,N,11709.9454,W,50.961037,318.10,150210,,*2F
$GPRMC,200630.437,A,3322.2834,N,11709.9794,W,51.044577,318.06,150210,,*2C
$GPRMC,200633.437,A,3322.3148,N,11710.0134,W,50.868086,317.86,150210,,*2A
$GPRMC,200636.437,A,3322.3463,N,11710.0473,W,50.843602,317.87,150210,,*27
$GPRMC,200639.437,A,3322.3777,N,11710.0811,W,50.805220,318.51,150210,,*24
$GPRMC,200642.436,A,3322.4098,N,11710.1134,W,50.689965,320.49,150210,,*25
$GPRMC,200645.436,A,3322.4428,N,11710.1449,W,50.665849,322.34,150210,,*27
$GPRMC,200648.436,A,3322.4765,N,11710.1751,W,50.628499,324.24,150210,,*25
$GPRMC,200651.436,A,3322.5117,N,11710.2039,W,50.566995,326.08,150210,,*21
$GPRMC,200654.436,A,3322.5477,N,11710.2321,W,50.728207,327.92,150210,,*27
$GPRMC,200657.435,A,3322.5841,N,11710.2584,W,51.076887,329.56,150210,,*2E
$GPRMC,200700.435,A,3322.6212,N,11710.2837,W,51.592311,331.60,150210,,*20
$GPRMC,200703.435,A,3322.6598,N,11710.3075,W,52.247157,333.70,150210,,*26
$GPRMC,200706.435,A,3322.6994,N,11710.3300,W,52.654491,335.41,150210,,*2F
$GPRMC,200709.435,A,3322.7398,N,11710.3511,W,52.789152,337.42,150210,,*2B
$GPRMC,200712.434,A,3322.7809,N,11710.3704,W,52.756485,338.99,150210,,*21
$GPRMC,200715.434,A,3322.8222,N,11710.3878,W,52.651951,341.40,150210,,*26
$GPRMC,200718.434,A,3322.8640,N,11710.4032,W,52.546496,343.04,150210,,*2B
$GPRMC,200721.434,A,3322.9060,N,11710.4173,W,52.399490,345.07,150210,,*27
$GPRMC,200724.434,A,3322.9484,N,11710.4294,W,52.278217,346.86,150210,,*2B
$GPRMC,200727.434,A,3322.9913,N,11710.4401,W,52.067395,348.73,150210,,*22
$GPRMC,200730.433,A,3323.0344,N,11710.4490,W,52.144356,351.05,150210,,*2D
$GPRMC,200733.433,A,3323.0777,N,11710.4560,W,52.183474,352.44,150210,,*2E
$GPRMC,200736.433,A,3323.1210,N,11710.4613,W,52.316979,354.69,150210,,*2E
$GPRMC,200739.433,A,3323.1645,N,11710.4651,W,52.327751,356.25,150210,,*2F
$GPRMC,200742.433,A,3323.2083,N,11710.4669,W,52.409066,358.69,150210,,*29
$GPRMC,200745.432,A,3323.2523,N,11710.4670,W,52.102529,0.48,150210,,*25
$GPRMC,200748.432,A,3323.2959,N,11710.4653,W,52.023232,2.10,150210,,*28
$GPRMC,200751.432,A,3323.3397,N,11710.4618,W,52.005163,4.34,150210,,*25
$GPRMC,200754.432,A,3323.3833,N,11710.4567,W,52.098295,5.86,150210,,*28
$GPRMC,200757.432,A,3323.4268,N,11710.4502,W,52.121152,7.81,150210,,*25
$GPRMC,200800.431,A,3323.4700,N,11710.4418,W,52.148469,9.79,150210,,*21
$GPRMC,200803.431,A,3323.5128,N,11710.4319,W,52.135843,11.85,150210,,*1D
$GPRMC,200806.431,A,3323.5554,N,11710.4208,W,52.055315,12.15,150210,,*13
$GPRMC,200809.431,A,3323.5974,N,11710.4089,W,51.998765,14.25,150210,,*14
$GPRMC,200812.431,A,3323.6386,N,11710.3945,W,51.854404,17.92,150210,,*1E
$GPRMC,200815.431,A,3323.6796,N,11710.3778,W,51.907332,19.60,150210,,*1A
$GPRMC,200818.430,A,3323.7204,N,11710.3597,W,51.876489,21.12,150210,,*14
$GPRMC,200821.430,A,3323.7606,N,11710.3403,W,51.913711,23.06,150210,,*13
$GPRMC,200824.430,A,3323.7999,N,11710.3192,W,51.964529,24.62,150210,,*1E
$GPRMC,200827.430,A,3323.8388,N,11710.2966,W,52.009871,25.58,150210,,*13
$GPRMC,200830.430,A,3323.8774,N,11710.2740,W,52.059924,26.11,150210,,*12
$GPRMC,200833.429,A,3323.9161,N,11710.2507,W,52.151408,27.06,150210,,*16
$GPRMC,200836.429,A,3323.9550,N,11710.2265,W,52.407936,28.31,150210,,*1B
$GPRMC,200839.429,A,3323.9937,N,11710.2011,W,52.750760,29.41,150210,,*12
$GPRMC,200842.429,A,3324.0321,N,11710.1747,W,53.070507,30.12,150210,,*13
$GPRMC,200845.429,A,3324.0701,N,11710.1472,W,53.221527,31.58,150210,,*1C
$GPRMC,200848.428,A,3324.1078,N,11710.1187,W,53.290772,32.38,150210,,*1A
$GPRMC,200851.428,A,3324.1449,N,11710.0899,W,53.189934,33.54,150210,,*1F
$GPRMC,200854.428,A,3324.1814,N,11710.0605,W,52.931945,33.95,150210,,*14
$GPRMC,200857.428,A,3324.2176,N,11710.0304,W,52.841576,35.11,150210,,*1D
$GPRMC,200900.428,A,3324.2536,N,11709.9999,W,52.884090,35.28,150210,,*1F
$GPRMC,200903.428,A,3324.2898,N,11709.9691,W,53.067894,35.25,150210,,*17
$GPRMC,200906.427,A,3324.3258,N,11709.9380,W,53.262136,35.21,150210,,*1D
$GPRMC,200909.427,A,3324.3617,N,11709.9072,W,53.384307,35.16,150210,,*1E
$GPRMC,200912.427,A,3324.3981,N,11709.8769,W,53.461559,35.13,150210,,*1C
$GPRMC,200915.427,A,3324.4350,N,11709.8470,W,53.752367,34.28,150210,,*10
$GPRMC,200918.427,A,3324.4725,N,11709.8177,W,53.983892,32.76,150210,,*17
$GPRMC,200921.426,A,3324.5105,N,11709.7890,W,54.060264,33.09,150210,,*1F
$GPRMC,200924.426,A,3324.5481,N,11709.7598,W,54.040504,33.15,150210,,*18
$GPRMC,200927.426,A,3324.5866,N,11709.7316,W,53.949975,31.54,150210,,*14
$GPRMC,200930.426,A,3324.6251,N,11709.7038,W,53.684107,31.44,150210,,*12
$GPRMC,200933.426,A,3324.6634,N,11709.6761,W,53.431438,31.60,150210,,*1F
$GPRMC,200936.425,A,3324.7015,N,11709.6484,W,53.399367,31.92,150210,,*10
$GPRMC,200939.425,A,3324.7396,N,11709.6203,W,53.324016,31.80,150210,,*1E
$GPRMC,200942.425,A,3324.7773,N,11709.5926,W,52.988888,31.67,150210,,*19
$GPRMC,200945.425,A,3324.8144,N,11709.5651,W,52.324685,31.36,150210,,*17
$GPRMC,200948.425,A,3324.8513,N,11709.5379,W,51.813843,31.76,150210,,*1F
$GPRMC,200951.425,A,3324.8878,N,11709.5110,W,51.682954,31.43,150210,,*1D
$GPRMC,200954.424,A,3324.9245,N,11709.4840,W,51.970221,31.81,150210,,*14
$GPRMC,200957.424,A,3324.9616,N,11709.4566,W,52.092685,31.54,150210,,*18
$GPRMC,201000.424,A,3324.9987,N,11709.4292,W,52.231860,31.71,150210,,*10
$GPRMC,201003.424,A,3325.0358,N,11709.4019,W,52.429955,31.81,150210,,*15
$GPRMC,201006.424,A,3325.0730,N,11709.3746,W,52.526367,31.19,150210,,*14
$GPRMC,201009.423,A,3325.1106,N,11709.3476,W,52.619288,31.51,150210,,*1D
$GPRMC,201012.423,A,3325.1482,N,11709.3202,W,52.874500,31.20,150210,,*1F
$GPRMC,201015.423,A,3325.1862,N,11709.2930,W,53.200512,30.90,150210,,*10
$GPRMC,201018.423,A,3325.2245,N,11709.2664,W,53.393539,29.74,150210,,*1F
$GPRMC,201021.423,A,3325.2633,N,11709.2399,W,53.474014,30.03,150210,,*1B
$GPRMC,201024.422,A,3325.3020,N,11709.2128,W,53.724216,30.50,150210,,*12
$GPRMC,201027.422,A,3325.3408,N,11709.1858,W,53.700616,30.23,150210,,*14
$GPRMC,201030.422,A,3325.3794,N,11709.1591,W,53.585259,30.18,150210,,*14
$GPRMC,201033.422,A,3325.4178,N,11709.1323,W,53.394204,30.23,150210,,*1D
$GPRMC,201036.422,A,3325.4561,N,11709.1058,W,53.184205,30.11,150210,,*18
$GPRMC,201039.422,A,3325.4942,N,11709.0789,W,53.151719,31.56,150210,,*12
$GPRMC,201042.421,A,3325.5314,N,11709.0500,W,52.912329,33.94,150210,,*13
$GPRMC,201045.421,A,3325.5672,N,11709.0191,W,52.686493,36.64,150210,,*13
$GPRMC,201048.421,A,3325.6021,N,11708.9864,W,52.411137,38.91,150210,,*15
$GPRMC,201051.421,A,3325.6353,N,11708.9524,W,52.034775,41.98,150210,,*16
$GPRMC,201054.421,A,3325.6665,N,11708.9171,W,51.837888,44.12,150210,,*15
$GPRMC,201057.420,A,3325.6964,N,11708.8803,W,51.899130,45.83,150210,,*13
$GPRMC,201100.420,A,3325.7262,N,11708.8431,W,51.776142,45.18,150210,,*18
$GPRMC,201103.420,A,3325.7561,N,11708.8061,W,51.713727,45.57,150210,,*13
$GPRMC,201106.420,A,3325.7862,N,11708.7694,W,51.921357,45.80,150210,,*1D
$GPRMC,201109.420,A,3325.8166,N,11708.7327,W,51.935766,45.14,150210,,*13
$GPRMC,201112.419,A,3325.8473,N,11708.6966,W,52.086097,43.76,150210,,*15
$GPRMC,201115.419,A,3325.8795,N,11708.6613,W,52.438273,42.44,150210,,*1D
$GPRMC,201118.419,A,3325.9127,N,11708.6266,W,52.725028,40.84,150210,,*15
$GPRMC,201121.419,A,3325.9468,N,11708.5927,W,52.823554,39.34,150210,,*1E
$GPRMC,201124.419,A,3325.9814,N,11708.5597,W,52.993114,37.35,150210,,*1E
$GPRMC,201127.419,A,3326.0168,N,11708.5284,W,53.040038,35.92,150210,,*16
$GPRMC,201130.418,A,3326.0535,N,11708.4986,W,53.302664,33.56,150210,,*11
$GPRMC,201133.418,A,3326.0912,N,11708.4703,W,53.125676,32.42,150210,,*18
$GPRMC,201136.418,A,3326.1293,N,11708.4430,W,53.196526,30.48,150210,,*1B
$GPRMC,201139.418,A,3326.1683,N,11708.4170,W,53.136745,28.98,150210,,*19
$GPRMC,201142.418,A,3326.2076,N,11708.3922,W,53.238832,27.33,150210,,*1E
$GPRMC,201145.417,A,3326.2472,N,11708.3690,W,53.176545,25.64,150210,,*14
$GPRMC,201148.417,A,3326.2871,N,11708.3472,W,53.052610,23.46,150210,,*1A
$GPRMC,201151.417,A,3326.3278,N,11708.3268,W,52.860879,22.24,150210,,*11
$GPRMC,201154.417,A,3326.3683,N,11708.3077,W,52.608538,20.72,150210,,*11
$GPRMC,201157.417,A,3326.4097,N,11708.2906,W,52.750996,18.17,150210,,*14
$GPRMC,201200.416,A,3326.4516,N,11708.2749,W,52.728403,17.19,150210,,*12
$GPRMC,201203.416,A,3326.4941,N,11708.2605,W,52.647298,15.60,150210,,*16
$GPRMC,201206.416,A,3326.5371,N,11708.2467,W,52.594953,15.35,150210,,*1C
$GPRMC,201209.416,A,3326.5797,N,11708.2330,W,52.266746,15.26,150210,,*18
$GPRMC,201212.416,A,3326.6216,N,11708.2196,W,51.906036,15.11,150210,,*19
$GPRMC,201215.415,A,3326.6635,N,11708.2063,W,51.750133,15.38,150210,,*11
$GPRMC,201218.415,A,3326.7052,N,11708.1926,W,51.759502,15.10,150210,,*14
$GPRMC,201221.415,A,3326.7470,N,11708.1791,W,51.771864,15.24,150210,,*18
$GPRMC,201224.415,A,3326.7890,N,11708.1658,W,51.976830,15.31,150210,,*17
$GPRMC,201227.415,A,3326.8312,N,11708.1520,W,52.231414,15.24,150210,,*13
$GPRMC,201230.415,A,3326.8735,N,11708.1386,W,52.534562,14.86,150210,,*15
$GPRMC,201233.414,A,3326.9161,N,11708.1261,W,52.834214,12.88,150210,,*1A
$GPRMC,201236.414,A,3326.9598,N,11708.1166,W,53.439177,8.14,150210,,*21
$GPRMC,201239.414,A,3327.0042,N,11708.1104,W,53.432420,5.94,150210,,*29
$GPRMC,201242.414,A,3327.0486,N,11708.1060,W,53.375296,3.64,150210,,*2C
$GPRMC,201245.414,A,3327.0933,N,11708.1042,W,53.363487,0.62,150210,,*2C
$GPRMC,201248.413,A,3327.1379,N,11708.1055,W,53.504411,357.72,150210,,*2D
$GPRMC,201251.413,A,3327.1826,N,11708.1095,W,53.805266,354.99,150210,,*24
$GPRMC,201254.413,A,3327.2275,N,11708.1150,W,54.058097,354.83,150210,,*26
$GPRMC,201257.413,A,3327.2723,N,11708.1197,W,54.157148,356.10,150210,,*2D
$GPRMC,201300.413,A,3327.3171,N,11708.1238,W,54.198419,355.58,150210,,*25
$GPRMC,201303.412,A,3327.3617,N,11708.1286,W,54.347003,355.05,150210,,*22
$GPRMC,201306.412,A,3327.4063,N,11708.1342,W,54.475770,354.82,150210,,*27
$GPRMC,201309.412,A,3327.4516,N,11708.1395,W,55.005609,354.82,150210,,*28
$GPRMC,201312.412,A,3327.4973,N,11708.1447,W,55.658617,354.57,150210,,*2C
$GPRMC,201315.412,A,3327.5439,N,11708.1506,W,56.422802,354.30,150210,,*2A
$GPRMC,201318.412,A,3327.5913,N,11708.1572,W,57.073953,352.91,150210,,*28
$GPRMC,201321.411,A,3327.6392,N,11708.1635,W,57.791234,354.52,150210,,*29
$GPRMC,201324.411,A,3327.6875,N,11708.1685,W,58.537300,354.85,150210,,*28
$GPRMC,201327.411,A,3327.7365,N,11708.1734,W,59.339894,355.26,150210,,*2C
$GPRMC,201330.411,A,3327.7861,N,11708.1762,W,59.840413,359.02,150210,,*2A
$GPRMC,201333.411,A,3327.8363,N,11708.1749,W,60.365377,1.80,150210,,*21
$GPRMC,201336.410,A,3327.8868,N,11708.1714,W,60.983153,2.71,150210,,*26
$GPRMC,201339.410,A,3327.9378,N,11708.1685,W,61.388183,1.85,150210,,*2E
$GPRMC,201342.410,A,3327.9893,N,11708.1684,W,61.957909,358.51,150210,,*29
$GPRMC,201345.410,A,3328.0413,N,11708.1724,W,62.495043,355.67,150210,,*28
$GPRMC,201348.410,A,3328.0937,N,11708.1794,W,63.092901,352.75,150210,,*2C
$GPRMC,201351.409,A,3328.1462,N,11708.1895,W,63.574814,349.67,150210,,*2F
$GPRMC,201354.409,A,3328.1988,N,11708.2020,W,64.101196,348.28,150210,,*2E
$GPRMC,201357.409,A,3328.2515,N,11708.2168,W,64.639833,344.98,150210,,*26
$GPRMC,201400.409,A,3328.3033,N,11708.2351,W,65.001824,343.20,150210,,*25
$GPRMC,201403.409,A,3328.3549,N,11708.2537,W,64.793436,343.12,150210,,*2B
$GPRMC,201406.409,A,3328.4064,N,11708.2725,W,64.079657,343.10,150210,,*26
$GPRMC,201409.408,A,3328.4572,N,11708.2911,W,63.158850,343.02,150210,,*2C
$GPRMC,201412.408,A,3328.5071,N,11708.3090,W,61.988875,343.57,150210,,*20
$GPRMC,201415.408,A,3328.5561,N,11708.3263,W,60.167004,343.49,150210,,*24
$GPRMC,201418.408,A,3328.6041,N,11708.3433,W,58.362193,342.87,150210,,*2E
$GPRMC,201421.408,A,3328.6499,N,11708.3601,W,56.304428,343.08,150210,,*2B
$GPRMC,201424.407,A,3328.6933,N,11708.3761,W,54.079252,343.06,150210,,*25
$GPRMC,201427.407,A,3328.7354,N,11708.3916,W,52.833859,343.41,150210,,*20
$GPRMC,201430.407,A,3328.7772,N,11708.4064,W,52.606938,343.39,150210,,*2C
$GPRMC,201433.407,A,3328.8191,N,11708.4219,W,52.878594,343.16,150210,,*23
$GPRMC,201436.407,A,3328.8615,N,11708.4373,W,53.232698,343.13,150210,,*2F
$GPRMC,201439.406,A,3328.9045,N,11708.4525,W,53.687528,343.11,150210,,*26
$GPRMC,201442.406,A,3328.9480,N,11708.4679,W,54.113413,343.31,150210,,*2B
$GPRMC,201445.406,A,3328.9914,N,11708.4834,W,54.431816,343.07,150210,,*22
$GPRMC,201448.406,A,3329.0347,N,11708.4992,W,54.599781,342.47,150210,,*21
$GPRMC,201451.406,A,3329.0774,N,11708.5170,W,54.369599,341.04,150210,,*2E
$GPRMC,201454.406,A,3329.1208,N,11708.5330,W,54.063919,343.28,150210,,*23
$GPRMC,201457.405,A,3329.1646,N,11708.5479,W,53.979111,343.41,150210,,*2D
$GPRMC,201500.405,A,3329.2081,N,11708.5631,W,53.896376,343.24,150210,,*2E
$GPRMC,201503.405,A,3329.2514,N,11708.5786,W,53.769120,342.98,150210,,*21
$GPRMC,201506.405,A,3329.2944,N,11708.5939,W,53.736827,343.14,150210,,*26
$GPRMC,201509.405,A,3329.3374,N,11708.6095,W,53.836695,343.49,150210,,*2D
$GPRMC,201512.404,A,3329.3802,N,11708.6253,W,53.724843,343.21,150210,,*23
$GPRMC,201515.404,A,3329.4232,N,11708.6404,W,53.663247,343.97,150210,,*2F
$GPRMC,201518.404,A,3329.4667,N,11708.6548,W,53.517489,345.00,150210,,*23
$GPRMC,201521.404,A,3329.5099,N,11708.6691,W,52.923406,343.66,150210,,*23
$GPRMC,201524.404,A,3329.5518,N,11708.6847,W,52.401686,340.55,150210,,*2B
$GPRMC,201527.403,A,3329.5922,N,11708.7039,W,52.527115,336.43,150210,,*24
$GPRMC,201530.403,A,3329.6315,N,11708.7272,W,53.123213,331.91,150210,,*2E
$GPRMC,201533.403,A,3329.6693,N,11708.7544,W,53.647818,328.53,150210,,*26
$GPRMC,201536.403,A,3329.7057,N,11708.7850,W,54.011824,323.04,150210,,*20
$GPRMC,201539.403,A,3329.7406,N,11708.8189,W,54.436074,320.53,150210,,*20
$GPRMC,201542.402,A,3329.7752,N,11708.8538,W,54.376500,319.97,150210,,*26
$GPRMC,201545.402,A,3329.8106,N,11708.8882,W,54.456528,321.49,150210,,*22
$GPRMC,201548.402,A,3329.8463,N,11708.9218,W,54.483641,322.69,150210,,*24
$GPRMC,201551.402,A,3329.8825,N,11708.9534,W,52.400322,325.77,150210,,*2E
$GPRMC,201554.402,A,3329.9184,N,11708.9818,W,51.624224,328.03,150210,,*25
$GPRMC,201557.402,A,3329.9545,N,11709.0084,W,50.678138,329.43,150210,,*29
$GPRMC,201600.401,A,3329.9905,N,11709.0334,W,50.395710,331.90,150210,,*26
$GPRMC,201603.401,A,3330.0276,N,11709.0566,W,50.541006,334.47,150210,,*2A
$GPRMC,201606.401,A,3330.0661,N,11709.0781,W,51.607683,335.70,150210,,*28
$GPRMC,201609.401,A,3330.1065,N,11709.0968,W,51.898021,338.03,150210,,*22
$GPRMC,201612.401,A,3330.1472,N,11709.1156,W,52.621783,338.75,150210,,*2F
$GPRMC,201615.400,A,3330.1883,N,11709.1345,W,52.778552,339.23,150210,,*2A
$GPRMC,201618.400,A,3330.2296,N,11709.1528,W,52.453738,339.62,150210,,*26
$GPRMC,201621.400,A,3330.2707,N,11709.1710,W,52.588660,339.20,150210,,*25
$GPRMC,201624.400,A,3330.3116,N,11709.1899,W,52.456579,339.33,150210,,*22
$GPRMC,201627.400,A,3330.3522,N,11709.2084,W,51.637595,338.67,150210,,*21
$GPRMC,201630.399,A,3330.3922,N,11709.2271,W,51.562410,338.98,150210,,*2B
$GPRMC,201633.399,A,3330.4326,N,11709.2457,W,52.491331,339.39,150210,,*23
$GPRMC,201636.399,A,3330.4740,N,11709.2644,W,53.758871,339.39,150210,,*2A
$GPRMC,201639.399,A,3330.5162,N,11709.2837,W,54.766607,339.19,150210,,*2F
$GPRMC,201642.399,A,3330.5589,N,11709.3033,W,54.827682,339.10,150210,,*21
$GPRMC,201645.399,A,3330.6015,N,11709.3227,W,54.216628,339.36,150210,,*2E
$GPRMC,201648.398,A,3330.6434,N,11709.3414,W,52.935586,339.27,150210,,*28
$GPRMC,201651.398,A,3330.6840,N,11709.3599,W,51.530791,339.06,150210,,*26
$GPRMC,201654.398,A,3330.7239,N,11709.3781,W,50.851640,339.17,150210,,*2B
$GPRMC,201657.398,A,3330.7634,N,11709.3957,W,49.676050,339.18,150210,,*2F
$GPRMC,201700.398,A,3330.8018,N,11709.4129,W,48.581160,339.66,150210,,*2C
$GPRMC,201703.397,A,3330.8392,N,11709.4299,W,47.501641,338.17,150210,,*2D
$GPRMC,201706.397,A,3330.8754,N,11709.4480,W,46.953295,335.31,150210,,*26
$GPRMC,201709.397,A,3330.9102,N,11709.4692,W,46.865784,332.20,150210,,*2A
$GPRMC,201712.397,A,3330.9448,N,11709.4915,W,47.503145,332.14,150210,,*2B
$GPRMC,201715.397,A,3330.9797,N,11709.5135,W,47.687256,332.72,150210,,*28
$GPRMC,201718.396,A,3331.0141,N,11709.5362,W,47.523128,331.15,150210,,*24
$GPRMC,201721.396,A,3331.0482,N,11709.5594,W,47.153857,330.89,150210,,*2D
$GPRMC,201724.396,A,3331.0821,N,11709.5823,W,46.316982,330.65,150210,,*25
$GPRMC,201727.396,A,3331.1156,N,11709.6048,W,45.860476,331.05,150210,,*20
$GPRMC,201730.396,A,3331.1483,N,11709.6269,W,44.611896,331.02,150210,,*26
$GPRMC,201733.395,A,3331.1807,N,11709.6472,W,43.514828,334.03,150210,,*2A
$GPRMC,201736.395,A,3331.2129,N,11709.6655,W,42.127925,335.39,150210,,*2F
$GPRMC,201739.395,A,3331.2446,N,11709.6813,W,39.204088,340.47,150210,,*2B
$GPRMC,201742.395,A,3331.2745,N,11709.6896,W,34.305592,350.65,150210,,*28
$GPRMC,201745.395,A,3331.3014,N,11709.6915,W,29.920311,358.24,150210,,*26
$GPRMC,201748.395,A,3331.3225,N,11709.6905,W,21.216336,0.54,150210,,*20
$GPRMC,201751.394,A,3331.3361,N,11709.6895,W,12.577717,1.13,150210,,*25
$GPRMC,201833.392,A,3331.3491,N,11709.6906,W,5.031410,357.38,150210,,*17
$GPRMC,201857.390,A,3331.3597,N,11709.6926,W,7.308838,338.28,150210,,*17
$GPRMC,201900.390,A,3331.3669,N,11709.6969,W,11.205841,324.88,150210,,*2F
$GPRMC,201903.390,A,3331.3746,N,11709.7050,W,12.634708,314.66,150210,,*26
$GPRMC,201906.390,A,3331.3829,N,11709.7127,W,11.774421,336.00,150210,,*2A
$GPRMC,201909.389,A,3331.3925,N,11709.7129,W,11.714257,22.05,150210,,*1C
$GPRMC,201912.389,A,3331.3998,N,11709.7053,W,10.582103,52.27,150210,,*15
$GPRMC,201915.389,A,3331.4056,N,11709.6966,W,11.081179,47.66,150210,,*1B
$GPRMC,201918.389,A,3331.4120,N,11709.6866,W,13.530649,52.21,150210,,*19
$GPRMC,201921.389,A,3331.4190,N,11709.6749,W,14.946838,52.08,150210,,*13
$GPRMC,201924.388,A,3331.4263,N,11709.6630,W,15.253183,49.59,150210,,*1E
$GPRMC,201927.388,A,3331.4342,N,11709.6512,W,15.383843,52.25,150210,,*14
$GPRMC,201930.388,A,3331.4419,N,11709.6393,W,15.440300,49.35,150210,,*1B
$GPRMC,201933.388,A,3331.4509,N,11709.6283,W,15.057709,45.31,150210,,*1F
$GPRMC,201936.388,A,3331.4597,N,11709.6178,W,12.883139,47.82,150210,,*13
$GPRMC,201939.388,A,3331.4650,N,11709.6084,W,9.841489,80.25,150210,,*2A
$GPRMC,201942.387,A,3331.4624,N,11709.5988,W,10.514081,127.53,150210,,*28
$GPRMC,201945.387,A,3331.4553,N,11709.5909,W,12.132372,136.27,150210,,*2B
$GPRMC,201948.387,A,3331.4468,N,11709.5822,W,14.166993,137.75,150210,,*23
$GPRMC,201951.387,A,3331.4367,N,11709.5723,W,16.419251,138.00,150210,,*2A
$GPRMC,201954.387,A,3331.4254,N,11709.5604,W,18.506866,136.44,150210,,*2B
$GPRMC,201957.386,A,3331.4128,N,11709.5469,W,20.613985,137.52,150210,,*2E
$GPRMC,202000.386,A,3331.3992,N,11709.5323,W,22.264532,137.28,150210,,*2A
$GPRMC,202003.386,A,3331.3849,N,11709.5166,W,23.040747,137.44,150210,,*22
$GPRMC,202006.386,A,3331.3703,N,11709.5007,W,23.569150,137.54,150210,,*2F
$GPRMC,202009.386,A,3331.3549,N,11709.4851,W,23.615776,140.24,150210,,*2B
$GPRMC,202012.385,A,3331.3399,N,11709.4704,W,22.119424,140.52,150210,,*29
$GPRMC,202015.385,A,3331.3259,N,11709.4565,W,21.103313,139.31,150210,,*26
$GPRMC,202018.385,A,3331.3120,N,11709.4436,W,20.697066,144.67,150210,,*22
$GPRMC,202021.385,A,3331.2974,N,11709.4323,W,21.234629,148.64,150210,,*2D
$GPRMC,202024.385,A,3331.2818,N,11709.4222,W,21.175105,152.63,150210,,*20
$GPRMC,202027.385,A,3331.2674,N,11709.4130,W,18.344289,151.80,150210,,*24
$GPRMC,202030.384,A,3331.2549,N,11709.4058,W,15.488146,155.15,150210,,*23
$GPRMC,202033.384,A,3331.2446,N,11709.4003,W,11.602302,159.14,150210,,*2B
$GPRMC,202036.384,A,3331.2365,N,11709.3983,W,8.720608,168.94,150210,,*12
$GPRMC,202039.384,A,3331.2309,N,11709.3969,W,4.852843,168.89,150210,,*18
$GPRMC,202124.381,A,3331.2273,N,11709.3961,W,4.762310,168.73,150210,,*10
$GPRMC,202127.381,A,3331.2209,N,11709.3949,W,9.652537,169.10,150210,,*1C
$GPRMC,202130.381,A,3331.2123,N,11709.3927,W,10.700708,168.68,150210,,*27
$GPRMC,202133.380,A,3331.2036,N,11709.3904,W,10.059719,167.43,150210,,*2C
$GPRMC,202136.380,A,3331.1964,N,11709.3859,W,10.765906,131.14,150210,,*24
$GPRMC,202139.380,A,3331.1941,N,11709.3758,W,11.032872,86.76,150210,,*1D
$GPRMC,202142.380,A,3331.1960,N,11709.3645,W,12.603748,79.48,150210,,*13
$GPRMC,202145.380,A,3331.1982,N,11709.3512,W,14.220577,82.83,150210,,*17
$GPRMC,202148.379,A,3331.1992,N,11709.3363,W,15.675607,87.27,150210,,*17
$GPRMC,202151.379,A,3331.1996,N,11709.3207,W,15.616213,90.23,150210,,*1E
$GPRMC,202154.379,A,3331.2000,N,11709.3051,W,15.488401,90.15,150210,,*1A
$GPRMC,202157.379,A,3331.1995,N,11709.2893,W,15.447497,93.35,150210,,*15
$GPRMC,202200.379,A,3331.1993,N,11709.2755,W,11.840809,89.71,150210,,*18
$GPRMC,202203.378,A,3331.1997,N,11709.2664,W,6.594692,85.25,150210,,*2E
$GPRMC,202242.376,A,3331.2052,N,11709.2578,W,5.315847,10.37,150210,,*2D
$GPRMC,202245.376,A,3331.2097,N,11709.2578,W,4.451681,348.72,150210,,*1E
$GPRMC,202251.375,A,3331.2168,N,11709.2586,W,4.816616,2.45,150210,,*10
$GPRMC,202254.375,A,3331.2216,N,11709.2583,W,5.040021,4.64,150210,,*17
$GPRMC,202300.375,A,3331.2274,N,11709.2582,W,4.504431,345.06,150210,,*11
$GPRMC,202303.375,A,3331.2310,N,11709.2621,W,6.987272,303.36,150210,,*1E
