NMEA Sentence Code,UTC Time,Status,Latitude,Latitude Direction,Longitude,Longitude Direction,Speed (knots),Track Angle (degrees true),Date,MagneticVariation,Magnetic Variation Direction,[FAA Mode]-Optional,Checksum
$GPRMC,171755.9,A,3246.850235,N,11701.977698,W,7.9,312.8,200410,,,A*76
$GPRMC,171758.9,A,3246.856168,N,11701.995459,W,17.8,275.3,200410,,,A*4E
$GPRMC,171801.9,A,3246.854392,N,11702.021140,W,26.0,261.2,200410,,,A*4E
$GPRMC,171804.9,A,3246.847528,N,11702.047310,W,26.5,255.1,200410,,,A*48
$GPRMC,171807.9,A,3246.840357,N,11702.071835,W,25.4,248.4,200410,,,A*40
$GPRMC,171810.9,A,3246.828789,N,11702.092221,W,25.5,236.9,200410,,,A*48
$GPRMC,171813.9,A,3246.813701,N,11702.117591,W,31.1,235.0,200410,,,A*48
$GPRMC,171816.9,A,3246.800198,N,11702.144937,W,31.7,238.9,200410,,,A*4D
$GPRMC,171819.9,A,3246.791990,N,11702.176297,W,32.6,251.6,200410,,,A*47
$GPRMC,171822.9,A,3246.786492,N,11702.204999,W,28.6,259.7,200410,,,A*47
$GPRMC,171825.9,A,3246.784690,N,11702.229619,W,25.1,268.6,200410,,,A*43
$GPRMC,171828.9,A,3246.783002,N,11702.249463,W,17.5,269.3,200410,,,A*4C
$GPRMC,171831.9,A,3246.782498,N,11702.261378,W,11.6,268.3,200410,,,A*41
$GPRMC,171834.9,A,3246.783037,N,11702.269822,W,6.9,271.7,200410,,,A*7D
$GPRMC,171840.9,A,3246.783348,N,11702.276657,W,5.6,254.3,200410,,,A*78
$GPRMC,171843.9,A,3246.780079,N,11702.288619,W,15.0,258.6,200410,,,A*4C
$GPRMC,171846.9,A,3246.779010,N,11702.307991,W,21.1,262.5,200410,,,A*45
$GPRMC,171849.9,A,3246.776331,N,11702.331204,W,25.0,264.0,200410,,,A*41
$GPRMC,171852.9,A,3246.775314,N,11702.357407,W,26.2,261.8,200410,,,A*46
$GPRMC,171855.9,A,3246.771207,N,11702.382279,W,22.3,262.0,200410,,,A*4F
$GPRMC,171946.9,A,3246.775086,N,11702.394107,W,6.8,279.1,200410,,,A*78
$GPRMC,171949.9,A,3246.769984,N,11702.418493,W,25.7,261.9,200410,,,A*45
$GPRMC,171952.9,A,3246.765079,N,11702.452617,W,35.0,263.1,200410,,,A*44
$GPRMC,171955.9,A,3246.761192,N,11702.492228,W,40.4,256.9,200410,,,A*4F
$GPRMC,171958.9,A,3246.746392,N,11702.529679,W,41.5,244.5,200410,,,A*4B
$GPRMC,172001.9,A,3246.721626,N,11702.563803,W,43.3,230.0,200410,,,A*49
$GPRMC,172004.9,A,3246.691479,N,11702.589889,W,43.2,216.2,200410,,,A*4F
$GPRMC,172007.9,A,3246.661926,N,11702.612297,W,42.3,212.6,200410,,,A*40
$GPRMC,172010.9,A,3246.632416,N,11702.630821,W,39.9,210.6,200410,,,A*4D
$GPRMC,172013.9,A,3246.606281,N,11702.653034,W,34.9,214.0,200410,,,A*47
$GPRMC,172016.9,A,3246.580437,N,11702.675509,W,34.7,212.3,200410,,,A*40
$GPRMC,172019.9,A,3246.556180,N,11702.691414,W,33.9,210.6,200410,,,A*44
$GPRMC,172022.9,A,3246.533204,N,11702.708328,W,32.5,210.9,200410,,,A*4B
$GPRMC,172025.9,A,3246.511210,N,11702.722709,W,28.1,210.5,200410,,,A*45
$GPRMC,172028.9,A,3246.494128,N,11702.737499,W,22.7,215.4,200410,,,A*4A
$GPRMC,172031.9,A,3246.484221,N,11702.752946,W,21.7,242.2,200410,,,A*42
$GPRMC,172034.9,A,3246.485840,N,11702.776714,W,23.0,280.8,200410,,,A*45
$GPRMC,172037.9,A,3246.496287,N,11702.807392,W,36.3,290.1,200410,,,A*49
$GPRMC,172040.9,A,3246.511774,N,11702.846656,W,43.0,295.5,200410,,,A*46
$GPRMC,172043.9,A,3246.531243,N,11702.885945,W,45.8,299.0,200410,,,A*43
$GPRMC,172046.9,A,3246.549775,N,11702.927743,W,47.3,297.3,200410,,,A*4C
$GPRMC,172049.9,A,3246.568893,N,11702.971080,W,50.1,295.5,200410,,,A*4C
$GPRMC,172052.9,A,3246.586969,N,11703.019195,W,53.3,292.7,200410,,,A*45
$GPRMC,172055.9,A,3246.602744,N,11703.071628,W,55.5,288.7,200410,,,A*48
$GPRMC,172058.9,A,3246.618520,N,11703.127588,W,59.1,286.4,200410,,,A*40
$GPRMC,172101.9,A,3246.629522,N,11703.183343,W,60.5,283.7,200410,,,A*4A
$GPRMC,172104.3,A,3246.639008,N,11703.231199,W,63.6,282.1,200410,,,A*41
$GPRMC,172107.3,A,3246.650419,N,11703.292960,W,62.7,281.8,200410,,,A*44
$GPRMC,172110.3,A,3246.660371,N,11703.353169,W,62.8,282.0,200410,,,A*41
$GPRMC,172113.9,A,3246.672470,N,11703.427924,W,63.7,281.4,200410,,,A*41
$GPRMC,172116.9,A,3246.683116,N,11703.488127,W,63.0,281.9,200410,,,A*4B
$GPRMC,172119.9,A,3246.696651,N,11703.549502,W,63.7,284.0,200410,,,A*40
$GPRMC,172122.9,A,3246.710702,N,11703.611383,W,64.1,287.0,200410,,,A*43
$GPRMC,172125.9,A,3246.728971,N,11703.670785,W,65.3,288.9,200410,,,A*45
$GPRMC,172128.9,A,3246.744700,N,11703.732661,W,65.7,288.1,200410,,,A*4A
$GPRMC,172131.9,A,3246.762989,N,11703.796092,W,65.5,286.0,200410,,,A*40
$GPRMC,172134.9,A,3246.771701,N,11703.857857,W,63.9,277.3,200410,,,A*4D
$GPRMC,172137.9,A,3246.770569,N,11703.920015,W,63.0,269.0,200410,,,A*49
$GPRMC,172140.9,A,3246.771332,N,11703.980991,W,61.6,269.6,200410,,,A*4D
$GPRMC,172143.9,A,3246.765144,N,11704.039917,W,61.3,266.7,200410,,,A*41
$GPRMC,172146.9,A,3246.764611,N,11704.103206,W,63.0,268.9,200410,,,A*40
$GPRMC,172149.9,A,3246.763549,N,11704.166619,W,63.6,268.4,200410,,,A*44
$GPRMC,172152.9,A,3246.761421,N,11704.229004,W,63.2,268.3,200410,,,A*42
$GPRMC,172155.9,A,3246.760379,N,11704.291746,W,63.6,269.4,200410,,,A*4E
$GPRMC,172158.9,A,3246.762696,N,11704.355960,W,64.4,271.8,200410,,,A*46
$GPRMC,172201.9,A,3246.763688,N,11704.418811,W,63.9,273.0,200410,,,A*4E
$GPRMC,172204.9,A,3246.769392,N,11704.482130,W,63.8,276.5,200410,,,A*47
$GPRMC,172207.9,A,3246.775532,N,11704.545135,W,64.0,277.2,200410,,,A*43
$GPRMC,172210.9,A,3246.783911,N,11704.607420,W,64.0,279.5,200410,,,A*4C
$GPRMC,172213.9,A,3246.793713,N,11704.671921,W,64.8,281.4,200410,,,A*41
$GPRMC,172216.9,A,3246.804637,N,11704.732683,W,61.1,282.0,200410,,,A*48
$GPRMC,172219.9,A,3246.813583,N,11704.788998,W,58.8,280.8,200410,,,A*40
$GPRMC,172222.9,A,3246.823770,N,11704.847857,W,60.2,281.1,200410,,,A*42
$GPRMC,172225.9,A,3246.833775,N,11704.906317,W,60.4,280.5,200410,,,A*49
$GPRMC,172228.9,A,3246.845730,N,11704.967273,W,62.9,282.5,200410,,,A*4D
$GPRMC,172231.9,A,3246.857245,N,11705.032838,W,66.9,282.5,200410,,,A*48
$GPRMC,172234.9,A,3246.867427,N,11705.098169,W,67.0,279.3,200410,,,A*4B
$GPRMC,172237.9,A,3246.872872,N,11705.162910,W,65.4,275.1,200410,,,A*4A
$GPRMC,172240.9,A,3246.870417,N,11705.222562,W,61.8,267.8,200410,,,A*4B
$GPRMC,172244.3,A,3246.865339,N,11705.289541,W,61.7,264.5,200410,,,A*4B
$GPRMC,172247.9,A,3246.857001,N,11705.362794,W,61.5,264.3,200410,,,A*41
$GPRMC,172250.9,A,3246.848355,N,11705.423745,W,63.6,261.2,200410,,,A*40
$GPRMC,172253.9,A,3246.842873,N,11705.487248,W,63.0,263.3,200410,,,A*45
$GPRMC,172256.9,A,3246.838832,N,11705.548050,W,60.6,263.9,200410,,,A*4E
$GPRMC,172259.9,A,3246.831078,N,11705.606387,W,59.5,260.2,200410,,,A*4F
$GPRMC,172302.9,A,3246.819018,N,11705.662954,W,58.6,257.2,200410,,,A*4C
$GPRMC,172305.9,A,3246.808742,N,11705.720153,W,57.5,258.6,200410,,,A*4C
$GPRMC,172308.9,A,3246.800269,N,11705.777095,W,58.6,258.9,200410,,,A*4F
$GPRMC,172311.9,A,3246.792749,N,11705.829106,W,56.4,260.0,200410,,,A*45
$GPRMC,172314.9,A,3246.780975,N,11705.887046,W,59.0,257.6,200410,,,A*4A
$GPRMC,172317.9,A,3246.772413,N,11705.943330,W,59.1,258.5,200410,,,A*4F
$GPRMC,172320.9,A,3246.761943,N,11706.001771,W,60.6,258.3,200410,,,A*47
$GPRMC,172323.9,A,3246.754031,N,11706.063412,W,62.8,260.9,200410,,,A*41
$GPRMC,172326.9,A,3246.745190,N,11706.123951,W,62.9,261.5,200410,,,A*4D
$GPRMC,172329.9,A,3246.737203,N,11706.183760,W,60.9,262.6,200410,,,A*4A
$GPRMC,172332.9,A,3246.733977,N,11706.242636,W,58.9,265.6,200410,,,A*4C
$GPRMC,172335.9,A,3246.729046,N,11706.302057,W,60.1,265.5,200410,,,A*4F
$GPRMC,172338.9,A,3246.724055,N,11706.361312,W,59.6,266.1,200410,,,A*40
$GPRMC,172341.9,A,3246.725873,N,11706.422442,W,60.7,270.1,200410,,,A*4D
$GPRMC,172344.9,A,3246.723382,N,11706.482519,W,60.6,268.2,200410,,,A*45
$GPRMC,172347.9,A,3246.722395,N,11706.543198,W,61.4,269.1,200410,,,A*41
$GPRMC,172350.9,A,3246.722859,N,11706.606184,W,63.4,268.3,200410,,,A*42
$GPRMC,172353.9,A,3246.719620,N,11706.672792,W,66.8,268.2,200410,,,A*43
$GPRMC,172356.9,A,3246.719318,N,11706.738602,W,67.9,269.9,200410,,,A*45
$GPRMC,172359.3,A,3246.718751,N,11706.791218,W,68.8,268.9,200410,,,A*4B
$GPRMC,172402.9,A,3246.716293,N,11706.874004,W,66.7,268.2,200410,,,A*4C
$GPRMC,172405.9,A,3246.714646,N,11706.939008,W,65.0,268.1,200410,,,A*46
$GPRMC,172408.9,A,3246.710842,N,11707.002170,W,64.3,264.9,200410,,,A*4D
$GPRMC,172411.9,A,3246.702980,N,11707.064752,W,64.2,260.0,200410,,,A*43
$GPRMC,172414.9,A,3246.687980,N,11707.125298,W,65.6,251.9,200410,,,A*43
$GPRMC,172417.9,A,3246.668118,N,11707.185401,W,65.1,247.8,200410,,,A*45
$GPRMC,172420.9,A,3246.643817,N,11707.243042,W,63.7,241.7,200410,,,A*4D
$GPRMC,172423.9,A,3246.615568,N,11707.295127,W,63.5,236.9,200410,,,A*4D
$GPRMC,172426.9,A,3246.584032,N,11707.346331,W,64.7,234.5,200410,,,A*48
$GPRMC,172429.9,A,3246.551821,N,11707.398825,W,65.2,234.3,200410,,,A*4A
$GPRMC,172433.3,A,3246.518821,N,11707.458860,W,66.2,236.4,200410,,,A*4A
$GPRMC,172436.3,A,3246.489000,N,11707.514234,W,66.9,237.8,200410,,,A*49
$GPRMC,172439.3,A,3246.458761,N,11707.570336,W,67.0,238.6,200410,,,A*42
$GPRMC,172442.3,A,3246.428959,N,11707.626837,W,67.0,237.2,200410,,,A*4D
$GPRMC,172445.3,A,3246.397888,N,11707.681862,W,67.7,235.8,200410,,,A*46
$GPRMC,172448.9,A,3246.367854,N,11707.747899,W,62.6,242.7,200410,,,A*4B
$GPRMC,172451.9,A,3246.345139,N,11707.804979,W,59.8,247.0,200410,,,A*42
$GPRMC,172454.9,A,3246.326978,N,11707.864389,W,64.1,251.0,200410,,,A*4C
$GPRMC,172457.9,A,3246.317107,N,11707.925542,W,63.1,257.3,200410,,,A*4A
$GPRMC,172500.3,A,3246.305165,N,11707.973514,W,62.6,254.6,200410,,,A*44
$GPRMC,172503.9,A,3246.288905,N,11708.039606,W,60.0,253.7,200410,,,A*4D
$GPRMC,172506.9,A,3246.273782,N,11708.096604,W,61.2,253.3,200410,,,A*4D
$GPRMC,172509.9,A,3246.260134,N,11708.154609,W,60.8,254.3,200410,,,A*45
$GPRMC,172512.9,A,3246.247720,N,11708.212024,W,57.5,254.3,200410,,,A*48
$GPRMC,172515.9,A,3246.234599,N,11708.267485,W,57.7,254.7,200410,,,A*40
$GPRMC,172518.9,A,3246.223148,N,11708.319068,W,54.6,253.6,200410,,,A*48
$GPRMC,172521.9,A,3246.207927,N,11708.370185,W,54.5,250.6,200410,,,A*48
$GPRMC,172524.3,A,3246.197215,N,11708.409557,W,53.4,252.2,200410,,,A*45
$GPRMC,172527.9,A,3246.176571,N,11708.471410,W,56.1,247.0,200410,,,A*4D
$GPRMC,172530.9,A,3246.160679,N,11708.525831,W,58.7,248.8,200410,,,A*47
$GPRMC,172533.9,A,3246.142634,N,11708.580326,W,59.5,246.8,200410,,,A*42
$GPRMC,172536.9,A,3246.118496,N,11708.634071,W,60.2,242.9,200410,,,A*47
$GPRMC,172539.9,A,3246.094081,N,11708.689879,W,63.0,242.5,200410,,,A*44
$GPRMC,172542.9,A,3246.069907,N,11708.746201,W,64.6,242.9,200410,,,A*47
$GPRMC,172545.9,A,3246.044528,N,11708.802982,W,62.8,242.2,200410,,,A*42
$GPRMC,172548.9,A,3246.023360,N,11708.862592,W,65.4,249.8,200410,,,A*45
$GPRMC,172551.9,A,3246.006988,N,11708.925404,W,65.6,253.5,200410,,,A*4E
$GPRMC,172554.9,A,3245.989924,N,11708.985321,W,65.4,253.7,200410,,,A*4A
$GPRMC,172557.9,A,3245.974952,N,11709.048032,W,66.5,254.1,200410,,,A*41
$GPRMC,172600.9,A,3245.960840,N,11709.108596,W,65.3,254.3,200410,,,A*4E
$GPRMC,172603.9,A,3245.944833,N,11709.170150,W,65.0,253.4,200410,,,A*4D
$GPRMC,172606.9,A,3245.930964,N,11709.233380,W,65.9,254.6,200410,,,A*4F
$GPRMC,172609.9,A,3245.915444,N,11709.297848,W,65.4,254.5,200410,,,A*47
$GPRMC,172612.9,A,3245.901197,N,11709.356398,W,63.9,253.8,200410,,,A*48
$GPRMC,172615.9,A,3245.887545,N,11709.417194,W,62.3,254.4,200410,,,A*47
$GPRMC,172618.9,A,3245.871774,N,11709.475582,W,58.8,253.4,200410,,,A*41
$GPRMC,172621.9,A,3245.858299,N,11709.530636,W,60.5,252.3,200410,,,A*4A
$GPRMC,172624.9,A,3245.842561,N,11709.590717,W,64.1,254.4,200410,,,A*4D
$GPRMC,172627.9,A,3245.829777,N,11709.654486,W,65.7,256.1,200410,,,A*46
$GPRMC,172630.9,A,3245.817511,N,11709.717319,W,63.0,256.3,200410,,,A*4B
$GPRMC,172633.9,A,3245.803695,N,11709.770859,W,56.0,253.5,200410,,,A*49
$GPRMC,172636.9,A,3245.783132,N,11709.814026,W,50.8,238.3,200410,,,A*49
$GPRMC,172639.9,A,3245.752259,N,11709.843479,W,47.2,214.0,200410,,,A*49
$GPRMC,172642.9,A,3245.710824,N,11709.849887,W,45.9,183.9,200410,,,A*49
$GPRMC,172645.9,A,3245.671595,N,11709.842089,W,47.7,164.0,200410,,,A*4E
$GPRMC,172648.9,A,3245.639943,N,11709.814497,W,48.1,141.7,200410,,,A*49
$GPRMC,172651.9,A,3245.608427,N,11709.779743,W,50.2,137.3,200410,,,A*4D
$GPRMC,172654.9,A,3245.575801,N,11709.748120,W,50.0,140.7,200410,,,A*4E
$GPRMC,172657.9,A,3245.541853,N,11709.712049,W,53.1,137.1,200410,,,A*48
$GPRMC,172700.9,A,3245.513788,N,11709.677353,W,50.4,136.5,200410,,,A*4C
$GPRMC,172703.9,A,3245.481283,N,11709.642198,W,53.7,137.8,200410,,,A*44
$GPRMC,172706.9,A,3245.445664,N,11709.607816,W,55.0,141.6,200410,,,A*44
$GPRMC,172709.9,A,3245.405246,N,11709.577520,W,57.1,149.8,200410,,,A*42
$GPRMC,172712.9,A,3245.361217,N,11709.556617,W,57.3,160.1,200410,,,A*4D
$GPRMC,172715.9,A,3245.314351,N,11709.539825,W,57.4,166.4,200410,,,A*49
$GPRMC,172718.9,A,3245.267414,N,11709.529629,W,57.0,168.0,200410,,,A*4A
$GPRMC,172721.9,A,3245.219467,N,11709.514820,W,56.8,165.2,200410,,,A*42
$GPRMC,172724.9,A,3245.179240,N,11709.498587,W,51.2,164.9,200410,,,A*43
$GPRMC,172727.9,A,3245.137532,N,11709.491383,W,51.2,176.4,200410,,,A*4D
$GPRMC,172730.9,A,3245.096804,N,11709.500083,W,47.1,191.3,200410,,,A*49
$GPRMC,172733.9,A,3245.063835,N,11709.515725,W,41.9,200.4,200410,,,A*4F
$GPRMC,172736.9,A,3245.033272,N,11709.528921,W,40.5,200.4,200410,,,A*4F
$GPRMC,172739.9,A,3245.000423,N,11709.544971,W,43.5,203.5,200410,,,A*4C
$GPRMC,172742.9,A,3244.977911,N,11709.567337,W,35.6,214.8,200410,,,A*44
$GPRMC,172745.9,A,3244.954352,N,11709.578861,W,28.9,205.3,200410,,,A*41
$GPRMC,172748.9,A,3244.931758,N,11709.584522,W,26.8,188.8,200410,,,A*4A
$GPRMC,172751.9,A,3244.914348,N,11709.577039,W,16.6,176.5,200410,,,A*42
$GPRMC,172754.9,A,3244.908076,N,11709.575759,W,4.4,178.1,200410,,,A*7C
$GPRMC,172854.9,A,3244.890218,N,11709.574914,W,21.4,184.4,200410,,,A*4E
$GPRMC,172857.9,A,3244.861681,N,11709.573802,W,32.7,181.2,200410,,,A*44
$GPRMC,172900.9,A,3244.835404,N,11709.573504,W,30.5,181.6,200410,,,A*46
$GPRMC,172903.9,A,3244.816830,N,11709.571425,W,24.1,177.2,200410,,,A*43
$GPRMC,172906.9,A,3244.791706,N,11709.572483,W,29.6,180.0,200410,,,A*43
$GPRMC,172909.9,A,3244.762460,N,11709.571657,W,34.4,179.6,200410,,,A*45
$GPRMC,172912.9,A,3244.734509,N,11709.572704,W,32.8,181.4,200410,,,A*49
$GPRMC,172915.9,A,3244.706646,N,11709.575182,W,32.9,184.1,200410,,,A*49
$GPRMC,172918.9,A,3244.680740,N,11709.576276,W,31.9,178.4,200410,,,A*42
$GPRMC,172921.9,A,3244.654281,N,11709.572676,W,32.6,176.8,200410,,,A*47
$GPRMC,172924.9,A,3244.624608,N,11709.571943,W,36.0,179.6,200410,,,A*49
$GPRMC,172927.9,A,3244.592037,N,11709.572114,W,39.3,180.2,200410,,,A*49
$GPRMC,172930.9,A,3244.558071,N,11709.571448,W,40.7,179.4,200410,,,A*4E
$GPRMC,172933.9,A,3244.522946,N,11709.571935,W,39.6,180.2,200410,,,A*45
