NMEA Sentence Code,UTC Time,Status,Latitude,Latitude Direction,Longitude,Longitude Direction,Speed (knots),Track Angle (degrees true),Date,MagneticVariation,Magnetic Variation Direction,[FAA Mode]-Optional,Checksum
$GPRMC,034407.000,A,3340.0627,N,11539.8516,W,68.55,265.04,010610,,,A*47
$GPRMC,034410.000,A,3340.0578,N,11539.9197,W,68.30,265.15,010610,,,A*47
$GPRMC,034413.000,A,3340.0528,N,11539.9877,W,68.17,264.77,010610,,,A*46
$GPRMC,034416.000,A,3340.0474,N,11540.0555,W,68.30,264.70,010610,,,A*43
$GPRMC,034419.000,A,3340.0427,N,11540.1234,W,68.42,265.68,010610,,,A*46
$GPRMC,034422.000,A,3340.0382,N,11540.1915,W,68.35,264.97,010610,,,A*4F
$GPRMC,034425.000,A,3340.0329,N,11540.2595,W,68.30,264.64,010610,,,A*47
$GPRMC,034428.000,A,3340.0278,N,11540.3274,W,68.30,265.00,010610,,,A*45
$GPRMC,034431.000,A,3340.0226,N,11540.3954,W,68.48,264.84,010610,,,A*4D
$GPRMC,034434.000,A,3340.0177,N,11540.4635,W,68.45,265.16,010610,,,A*47
$GPRMC,034437.000,A,3340.0127,N,11540.5317,W,68.59,264.90,010610,,,A*47
$GPRMC,034440.000,A,3340.0082,N,11540.5971,W,62.84,266.18,010610,,,A*4B
$GPRMC,034443.000,A,3340.0049,N,11540.6576,W,59.36,265.95,010610,,,A*40
$GPRMC,034446.000,A,3340.0013,N,11540.7144,W,55.47,265.08,010610,,,A*40
$GPRMC,034449.000,A,3339.9973,N,11540.7688,W,54.14,264.91,010610,,,A*46
$GPRMC,034452.000,A,3339.9933,N,11540.8222,W,53.79,264.83,010610,,,A*4C
$GPRMC,034455.000,A,3339.9893,N,11540.8759,W,54.36,265.02,010610,,,A*4D
$GPRMC,034458.000,A,3339.9851,N,11540.9302,W,55.05,264.58,010610,,,A*4A
$GPRMC,034501.000,A,3339.9806,N,11540.9853,W,56.06,264.24,010610,,,A*41
$GPRMC,034504.000,A,3339.9754,N,11541.0414,W,57.16,263.27,010610,,,A*4F
$GPRMC,034507.000,A,3339.9690,N,11541.0985,W,58.08,261.39,010610,,,A*4D
$GPRMC,034510.000,A,3339.9607,N,11541.1542,W,55.23,259.03,010610,,,A*45
$GPRMC,034513.000,A,3339.9521,N,11541.2069,W,53.42,258.51,010610,,,A*49
$GPRMC,034516.000,A,3339.9428,N,11541.2581,W,51.52,257.52,010610,,,A*48
$GPRMC,034519.000,A,3339.9339,N,11541.3083,W,51.85,258.72,010610,,,A*41
$GPRMC,034522.000,A,3339.9253,N,11541.3600,W,53.84,258.82,010610,,,A*45
$GPRMC,034525.000,A,3339.9167,N,11541.4138,W,55.93,259.14,010610,,,A*43
$GPRMC,034528.000,A,3339.9076,N,11541.4696,W,58.03,259.27,010610,,,A*48
$GPRMC,034531.000,A,3339.8984,N,11541.5271,W,58.83,259.19,010610,,,A*4C
$GPRMC,034534.000,A,3339.8888,N,11541.5857,W,60.67,258.95,010610,,,A*4E
$GPRMC,034537.000,A,3339.8790,N,11541.6461,W,62.06,258.96,010610,,,A*47
$GPRMC,034540.000,A,3339.8695,N,11541.7066,W,61.21,259.54,010610,,,A*48
$GPRMC,034543.000,A,3339.8597,N,11541.7669,W,61.75,258.41,010610,,,A*47
$GPRMC,034546.000,A,3339.8499,N,11541.8264,W,59.88,259.28,010610,,,A*4C
$GPRMC,034549.000,A,3339.8407,N,11541.8856,W,60.63,259.38,010610,,,A*41
$GPRMC,034552.000,A,3339.8311,N,11541.9456,W,60.98,258.99,010610,,,A*48
$GPRMC,034555.000,A,3339.8216,N,11542.0041,W,58.85,258.95,010610,,,A*4A
$GPRMC,034558.000,A,3339.8122,N,11542.0618,W,59.42,258.98,010610,,,A*4E
$GPRMC,034601.000,A,3339.8029,N,11542.1196,W,57.68,259.15,010610,,,A*49
$GPRMC,034604.000,A,3339.7940,N,11542.1741,W,54.19,259.16,010610,,,A*4F
$GPRMC,034607.000,A,3339.7858,N,11542.2257,W,51.90,259.19,010610,,,A*4E
$GPRMC,034610.000,A,3339.7774,N,11542.2772,W,52.89,258.82,010610,,,A*43
$GPRMC,034613.000,A,3339.7689,N,11542.3301,W,55.14,259.21,010610,,,A*49
$GPRMC,034616.000,A,3339.7600,N,11542.3852,W,57.13,259.02,010610,,,A*44
$GPRMC,034619.000,A,3339.7509,N,11542.4420,W,57.93,259.17,010610,,,A*43
$GPRMC,034622.000,A,3339.7415,N,11542.4995,W,59.41,259.13,010610,,,A*41
$GPRMC,034625.000,A,3339.7319,N,11542.5585,W,60.91,259.09,010610,,,A*4D
$GPRMC,034628.000,A,3339.7223,N,11542.6193,W,62.75,259.23,010610,,,A*48
$GPRMC,034631.000,A,3339.7123,N,11542.6812,W,63.09,258.82,010610,,,A*43
$GPRMC,034634.000,A,3339.7023,N,11542.7427,W,62.71,259.43,010610,,,A*4E
$GPRMC,034637.000,A,3339.6927,N,11542.8041,W,62.92,259.08,010610,,,A*48
$GPRMC,034640.000,A,3339.6827,N,11542.8648,W,60.77,259.16,010610,,,A*40
$GPRMC,034643.000,A,3339.6735,N,11542.9236,W,58.98,259.33,010610,,,A*4E
$GPRMC,034646.000,A,3339.6644,N,11542.9803,W,57.11,258.92,010610,,,A*44
$GPRMC,034649.000,A,3339.6552,N,11543.0370,W,58.89,259.09,010610,,,A*45
$GPRMC,034652.000,A,3339.6456,N,11543.0961,W,61.01,258.75,010610,,,A*40
$GPRMC,034655.000,A,3339.6364,N,11543.1553,W,59.54,259.74,010610,,,A*46
$GPRMC,034658.000,A,3339.6284,N,11543.2144,W,60.25,262.16,010610,,,A*45
$GPRMC,034701.000,A,3339.6219,N,11543.2749,W,61.79,263.59,010610,,,A*45
$GPRMC,034704.000,A,3339.6177,N,11543.3371,W,62.31,266.73,010610,,,A*47
$GPRMC,034707.000,A,3339.6152,N,11543.3995,W,62.66,267.22,010610,,,A*44
$GPRMC,034710.000,A,3339.6132,N,11543.4612,W,60.84,268.18,010610,,,A*4B
$GPRMC,034713.000,A,3339.6128,N,11543.5220,W,60.93,270.23,010610,,,A*40
$GPRMC,034716.000,A,3339.6133,N,11543.5827,W,60.20,270.06,010610,,,A*4D
$GPRMC,034719.000,A,3339.6135,N,11543.6417,W,58.31,270.38,010610,,,A*4E
$GPRMC,034722.000,A,3339.6131,N,11543.7003,W,58.41,268.98,010610,,,A*46
$GPRMC,034725.000,A,3339.6126,N,11543.7583,W,58.45,269.68,010610,,,A*40
$GPRMC,034728.000,A,3339.6125,N,11543.8170,W,58.44,269.75,010610,,,A*44
$GPRMC,034731.000,A,3339.6125,N,11543.8750,W,58.22,269.90,010610,,,A*43
$GPRMC,034734.000,A,3339.6127,N,11543.9333,W,59.15,270.59,010610,,,A*4C
$GPRMC,034737.000,A,3339.6131,N,11543.9922,W,59.53,270.36,010610,,,A*49
$GPRMC,034740.000,A,3339.6133,N,11544.0526,W,61.47,270.07,010610,,,A*41
$GPRMC,034743.000,A,3339.6132,N,11544.1132,W,59.94,270.10,010610,,,A*40
$GPRMC,034746.000,A,3339.6135,N,11544.1726,W,59.61,270.32,010610,,,A*4B
$GPRMC,034749.000,A,3339.6136,N,11544.2321,W,59.68,269.99,010610,,,A*47
$GPRMC,034752.000,A,3339.6139,N,11544.2922,W,60.71,270.55,010610,,,A*41
$GPRMC,034755.000,A,3339.6141,N,11544.3540,W,63.09,270.14,010610,,,A*49
$GPRMC,034758.000,A,3339.6144,N,11544.4184,W,65.69,270.16,010610,,,A*48
$GPRMC,034801.000,A,3339.6144,N,11544.4853,W,67.71,270.08,010610,,,A*4C
$GPRMC,034804.000,A,3339.6145,N,11544.5536,W,68.76,270.18,010610,,,A*4E
$GPRMC,034807.000,A,3339.6149,N,11544.6225,W,68.99,270.59,010610,,,A*43
$GPRMC,034810.000,A,3339.6153,N,11544.6915,W,69.01,270.13,010610,,,A*48
$GPRMC,034813.000,A,3339.6152,N,11544.7604,W,68.82,270.09,010610,,,A*45
$GPRMC,034816.000,A,3339.6154,N,11544.8291,W,68.82,270.09,010610,,,A*41
$GPRMC,034819.000,A,3339.6155,N,11544.8977,W,68.64,270.29,010610,,,A*46
$GPRMC,034822.000,A,3339.6159,N,11544.9662,W,68.65,270.25,010610,,,A*45
$GPRMC,034825.000,A,3339.6164,N,11545.0350,W,68.73,270.19,010610,,,A*48
$GPRMC,034828.000,A,3339.6168,N,11545.1038,W,68.83,270.16,010610,,,A*45
$GPRMC,034831.000,A,3339.6172,N,11545.1723,W,68.64,270.10,010610,,,A*44
$GPRMC,034834.000,A,3339.6176,N,11545.2408,W,68.61,270.42,010610,,,A*4E
$GPRMC,034837.000,A,3339.6180,N,11545.3093,W,68.67,270.26,010610,,,A*47
$GPRMC,034840.000,A,3339.6181,N,11545.3778,W,68.65,270.03,010610,,,A*41
$GPRMC,034843.000,A,3339.6184,N,11545.4463,W,68.89,270.25,010610,,,A*4F
$GPRMC,034846.000,A,3339.6186,N,11545.5150,W,68.80,270.20,010610,,,A*40
$GPRMC,034849.000,A,3339.6187,N,11545.5837,W,68.84,270.22,010610,,,A*40
$GPRMC,034852.000,A,3339.6188,N,11545.6524,W,68.90,269.95,010610,,,A*48
$GPRMC,034855.000,A,3339.6188,N,11545.7211,W,68.98,270.09,010610,,,A*4A
$GPRMC,034858.000,A,3339.6190,N,11545.7898,W,69.07,270.35,010610,,,A*4D
$GPRMC,034901.000,A,3339.6191,N,11545.8583,W,68.65,270.16,010610,,,A*4D
$GPRMC,034904.000,A,3339.6193,N,11545.9267,W,68.68,270.42,010610,,,A*4A
$GPRMC,034907.000,A,3339.6198,N,11545.9953,W,68.79,270.65,010610,,,A*4B
$GPRMC,034910.000,A,3339.6209,N,11546.0644,W,68.89,271.77,010610,,,A*48
$GPRMC,034913.000,A,3339.6217,N,11546.1335,W,68.72,270.20,010610,,,A*41
$GPRMC,034916.000,A,3339.6219,N,11546.2019,W,68.84,269.85,010610,,,A*4A
$GPRMC,034919.000,A,3339.6218,N,11546.2703,W,68.76,269.94,010610,,,A*45
$GPRMC,034922.000,A,3339.6219,N,11546.3389,W,68.89,270.19,010610,,,A*46
$GPRMC,034925.000,A,3339.6222,N,11546.4074,W,68.79,270.53,010610,,,A*4E
$GPRMC,034928.000,A,3339.6222,N,11546.4761,W,68.95,269.47,010610,,,A*4F
$GPRMC,034931.000,A,3339.6221,N,11546.5447,W,68.77,270.31,010610,,,A*47
$GPRMC,034934.000,A,3339.6224,N,11546.6134,W,68.82,270.11,010610,,,A*4D
$GPRMC,034937.000,A,3339.6226,N,11546.6818,W,68.81,270.00,010610,,,A*48
$GPRMC,034940.000,A,3339.6226,N,11546.7504,W,68.69,270.05,010610,,,A*4A
$GPRMC,034943.000,A,3339.6221,N,11546.8189,W,68.88,268.89,010610,,,A*42
$GPRMC,034946.000,A,3339.6215,N,11546.8876,W,68.83,269.50,010610,,,A*47
$GPRMC,034949.000,A,3339.6214,N,11546.9562,W,68.53,270.14,010610,,,A*45
$GPRMC,034952.000,A,3339.6217,N,11547.0234,W,67.11,270.18,010610,,,A*45
$GPRMC,034955.000,A,3339.6220,N,11547.0905,W,67.80,270.24,010610,,,A*48
$GPRMC,034958.000,A,3339.6221,N,11547.1576,W,67.23,270.04,010610,,,A*46
$GPRMC,035001.000,A,3339.6222,N,11547.2248,W,67.97,270.47,010610,,,A*40
$GPRMC,035004.000,A,3339.6227,N,11547.2923,W,67.61,270.30,010610,,,A*4F
$GPRMC,035007.000,A,3339.6226,N,11547.3586,W,65.12,269.65,010610,,,A*41
$GPRMC,035010.000,A,3339.6224,N,11547.4237,W,65.20,270.32,010610,,,A*44
$GPRMC,035013.000,A,3339.6231,N,11547.4891,W,65.98,270.57,010610,,,A*45
$GPRMC,035016.000,A,3339.6232,N,11547.5550,W,66.23,270.26,010610,,,A*47
$GPRMC,035019.000,A,3339.6235,N,11547.6221,W,68.35,270.44,010610,,,A*40
$GPRMC,035022.000,A,3339.6237,N,11547.6911,W,69.36,270.20,010610,,,A*42
$GPRMC,035025.000,A,3339.6237,N,11547.7611,W,70.91,270.11,010610,,,A*4C
$GPRMC,035028.000,A,3339.6240,N,11547.8327,W,72.92,270.24,010610,,,A*49
$GPRMC,035031.000,A,3339.6243,N,11547.9069,W,75.34,270.37,010610,,,A*43
$GPRMC,035034.000,A,3339.6246,N,11547.9820,W,74.03,269.96,010610,,,A*40
$GPRMC,035037.000,A,3339.6245,N,11548.0536,W,69.79,270.05,010610,,,A*4F
$GPRMC,035040.000,A,3339.6246,N,11548.1246,W,72.42,270.15,010610,,,A*4E
$GPRMC,035043.000,A,3339.6247,N,11548.1979,W,74.38,270.01,010610,,,A*45
$GPRMC,035046.000,A,3339.6249,N,11548.2717,W,72.15,270.41,010610,,,A*46
$GPRMC,035049.000,A,3339.6253,N,11548.3419,W,69.68,270.36,010610,,,A*4E
$GPRMC,035052.000,A,3339.6257,N,11548.4118,W,69.84,271.05,010610,,,A*40
$GPRMC,035055.000,A,3339.6269,N,11548.4811,W,69.13,270.67,010610,,,A*41
$GPRMC,035058.000,A,3339.6272,N,11548.5501,W,68.90,270.35,010610,,,A*46
$GPRMC,035101.000,A,3339.6283,N,11548.6187,W,68.76,271.69,010610,,,A*4C
$GPRMC,035104.000,A,3339.6312,N,11548.6870,W,68.67,273.48,010610,,,A*40
$GPRMC,035107.000,A,3339.6353,N,11548.7557,W,68.78,274.67,010610,,,A*4B
$GPRMC,035110.000,A,3339.6395,N,11548.8249,W,68.81,274.31,010610,,,A*45
$GPRMC,035113.000,A,3339.6437,N,11548.8936,W,68.76,274.28,010610,,,A*4A
$GPRMC,035116.000,A,3339.6483,N,11548.9622,W,68.86,274.79,010610,,,A*40
$GPRMC,035119.000,A,3339.6530,N,11549.0307,W,68.81,274.47,010610,,,A*46
$GPRMC,035122.000,A,3339.6574,N,11549.0991,W,68.83,274.37,010610,,,A*4E
$GPRMC,035125.000,A,3339.6619,N,11549.1676,W,68.77,274.28,010610,,,A*43
$GPRMC,035128.000,A,3339.6665,N,11549.2360,W,68.73,274.74,010610,,,A*49
$GPRMC,035131.000,A,3339.6713,N,11549.3043,W,68.76,274.62,010610,,,A*40
$GPRMC,035134.000,A,3339.6760,N,11549.3726,W,68.73,274.61,010610,,,A*43
$GPRMC,035137.000,A,3339.6805,N,11549.4409,W,68.77,274.37,010610,,,A*42
$GPRMC,035140.000,A,3339.6849,N,11549.5094,W,68.81,274.46,010610,,,A*44
$GPRMC,035143.000,A,3339.6896,N,11549.5779,W,68.74,274.61,010610,,,A*4E
$GPRMC,035146.000,A,3339.6943,N,11549.6462,W,68.66,274.51,010610,,,A*48
$GPRMC,035149.000,A,3339.6988,N,11549.7145,W,68.74,274.43,010610,,,A*41
$GPRMC,035152.000,A,3339.7034,N,11549.7828,W,68.59,274.56,010610,,,A*4D
$GPRMC,035155.000,A,3339.7079,N,11549.8511,W,68.67,274.37,010610,,,A*41
$GPRMC,035158.000,A,3339.7126,N,11549.9194,W,68.82,274.61,010610,,,A*47
$GPRMC,035201.000,A,3339.7178,N,11549.9877,W,68.71,274.50,010610,,,A*49
$GPRMC,035204.000,A,3339.7229,N,11550.0560,W,68.73,274.89,010610,,,A*47
$GPRMC,035207.000,A,3339.7278,N,11550.1243,W,68.61,274.53,010610,,,A*43
$GPRMC,035210.000,A,3339.7325,N,11550.1927,W,68.87,274.43,010610,,,A*4C
$GPRMC,035213.000,A,3339.7370,N,11550.2611,W,68.76,274.30,010610,,,A*4C
$GPRMC,035216.000,A,3339.7414,N,11550.3295,W,68.74,274.57,010610,,,A*46
$GPRMC,035219.000,A,3339.7460,N,11550.3979,W,68.72,274.35,010610,,,A*41
$GPRMC,035222.000,A,3339.7507,N,11550.4662,W,68.56,274.90,010610,,,A*42
$GPRMC,035225.000,A,3339.7554,N,11550.5336,W,66.78,274.72,010610,,,A*48
$GPRMC,035228.000,A,3339.7599,N,11550.6005,W,67.03,274.56,010610,,,A*4F
$GPRMC,035231.000,A,3339.7644,N,11550.6666,W,65.81,274.80,010610,,,A*44
$GPRMC,035234.000,A,3339.7688,N,11550.7311,W,64.22,274.41,010610,,,A*40
$GPRMC,035237.000,A,3339.7729,N,11550.7943,W,62.97,274.34,010610,,,A*4E
$GPRMC,035240.000,A,3339.7769,N,11550.8566,W,62.65,274.59,010610,,,A*48
$GPRMC,035243.000,A,3339.7812,N,11550.9194,W,63.75,274.51,010610,,,A*48
$GPRMC,035246.000,A,3339.7855,N,11550.9824,W,62.83,274.42,010610,,,A*46
$GPRMC,035249.000,A,3339.7897,N,11551.0459,W,64.57,274.69,010610,,,A*4F
$GPRMC,035252.000,A,3339.7939,N,11551.1093,W,62.60,274.35,010610,,,A*48
$GPRMC,035255.000,A,3339.7980,N,11551.1705,W,61.50,274.46,010610,,,A*41
$GPRMC,035258.000,A,3339.8019,N,11551.2308,W,59.93,274.53,010610,,,A*40
$GPRMC,035301.000,A,3339.8060,N,11551.2899,W,59.48,275.00,010610,,,A*41
$GPRMC,035304.000,A,3339.8102,N,11551.3489,W,58.87,274.66,010610,,,A*4E
$GPRMC,035307.000,A,3339.8141,N,11551.4072,W,58.53,274.27,010610,,,A*41
$GPRMC,035310.000,A,3339.8178,N,11551.4659,W,59.41,274.52,010610,,,A*42
$GPRMC,035313.000,A,3339.8219,N,11551.5253,W,60.06,274.63,010610,,,A*41
$GPRMC,035316.000,A,3339.8258,N,11551.5852,W,60.04,274.04,010610,,,A*49
$GPRMC,035319.000,A,3339.8295,N,11551.6449,W,60.49,274.52,010610,,,A*48
$GPRMC,035322.000,A,3339.8335,N,11551.7048,W,59.82,274.45,010610,,,A*44
$GPRMC,035325.000,A,3339.8376,N,11551.7640,W,60.08,274.91,010610,,,A*4B
$GPRMC,035328.000,A,3339.8418,N,11551.8238,W,59.89,274.63,010610,,,A*43
$GPRMC,035331.000,A,3339.8456,N,11551.8832,W,60.03,274.37,010610,,,A*48
$GPRMC,035334.000,A,3339.8496,N,11551.9428,W,60.13,274.85,010610,,,A*4F
$GPRMC,035337.000,A,3339.8537,N,11552.0028,W,60.38,274.57,010610,,,A*4E
$GPRMC,035340.000,A,3339.8576,N,11552.0627,W,59.82,274.20,010610,,,A*49
$GPRMC,035343.000,A,3339.8616,N,11552.1220,W,59.54,274.63,010610,,,A*41
$GPRMC,035346.000,A,3339.8654,N,11552.1812,W,59.20,274.19,010610,,,A*47
$GPRMC,035349.000,A,3339.8683,N,11552.2404,W,60.41,273.07,010610,,,A*4F
$GPRMC,035352.000,A,3339.8719,N,11552.3016,W,62.20,274.26,010610,,,A*40
$GPRMC,035355.000,A,3339.8755,N,11552.3629,W,60.91,274.08,010610,,,A*41
$GPRMC,035358.000,A,3339.8794,N,11552.4225,W,59.46,274.70,010610,,,A*41
$GPRMC,035401.000,A,3339.8836,N,11552.4812,W,59.21,274.65,010610,,,A*46
$GPRMC,035404.000,A,3339.8876,N,11552.5401,W,59.58,274.60,010610,,,A*43
$GPRMC,035407.000,A,3339.8914,N,11552.5989,W,58.50,274.22,010610,,,A*47
$GPRMC,035410.000,A,3339.8951,N,11552.6560,W,57.00,274.57,010610,,,A*40
$GPRMC,035413.000,A,3339.8992,N,11552.7136,W,59.24,274.82,010610,,,A*4A
$GPRMC,035416.000,A,3339.9032,N,11552.7740,W,62.04,274.23,010610,,,A*4B
$GPRMC,035419.000,A,3339.9073,N,11552.8366,W,64.46,274.45,010610,,,A*4E
$GPRMC,035422.000,A,3339.9119,N,11552.9024,W,67.74,274.82,010610,,,A*46
$GPRMC,035425.000,A,3339.9168,N,11552.9702,W,68.65,274.72,010610,,,A*44
$GPRMC,035428.000,A,3339.9213,N,11553.0386,W,68.87,274.40,010610,,,A*4B
$GPRMC,035431.000,A,3339.9259,N,11553.1071,W,68.46,274.51,010610,,,A*4A
$GPRMC,035434.000,A,3339.9305,N,11553.1753,W,68.55,274.66,010610,,,A*46
$GPRMC,035437.000,A,3339.9352,N,11553.2442,W,68.54,276.27,010610,,,A*41
$GPRMC,035440.000,A,3339.9426,N,11553.3133,W,68.52,279.61,010610,,,A*4C
$GPRMC,035443.000,A,3339.9524,N,11553.3813,W,68.66,280.41,010610,,,A*44
$GPRMC,035446.000,A,3339.9635,N,11553.4487,W,68.60,281.32,010610,,,A*47
$GPRMC,035449.000,A,3339.9751,N,11553.5159,W,68.62,281.55,010610,,,A*4F
$GPRMC,035452.000,A,3339.9868,N,11553.5831,W,68.64,281.65,010610,,,A*42
$GPRMC,035455.000,A,3339.9985,N,11553.6502,W,68.84,281.47,010610,,,A*47
$GPRMC,035458.000,A,3340.0102,N,11553.7183,W,70.20,281.85,010610,,,A*4F
$GPRMC,035501.000,A,3340.0223,N,11553.7877,W,71.65,281.57,010610,,,A*4F
$GPRMC,035504.000,A,3340.0343,N,11553.8586,W,72.75,281.07,010610,,,A*46
$GPRMC,035507.000,A,3340.0455,N,11553.9289,W,69.70,280.48,010610,,,A*49
$GPRMC,035510.000,A,3340.0566,N,11553.9968,W,69.26,281.65,010610,,,A*47
$GPRMC,035513.000,A,3340.0682,N,11554.0644,W,68.99,281.37,010610,,,A*40
$GPRMC,035516.000,A,3340.0798,N,11554.1318,W,68.90,281.76,010610,,,A*4E
$GPRMC,035519.000,A,3340.0914,N,11554.1992,W,69.08,281.42,010610,,,A*44
$GPRMC,035522.000,A,3340.1029,N,11554.2667,W,68.89,281.53,010610,,,A*44
$GPRMC,035525.000,A,3340.1146,N,11554.3339,W,68.94,281.66,010610,,,A*4E
$GPRMC,035528.000,A,3340.1261,N,11554.4012,W,68.78,281.65,010610,,,A*49
$GPRMC,035531.000,A,3340.1375,N,11554.4685,W,68.84,281.07,010610,,,A*4A
$GPRMC,035534.000,A,3340.1491,N,11554.5357,W,68.79,281.69,010610,,,A*43
$GPRMC,035537.000,A,3340.1609,N,11554.6028,W,68.71,281.81,010610,,,A*45
$GPRMC,035540.000,A,3340.1725,N,11554.6700,W,68.80,281.45,010610,,,A*41
$GPRMC,035543.000,A,3340.1841,N,11554.7372,W,68.78,281.70,010610,,,A*4E
$GPRMC,035546.000,A,3340.1957,N,11554.8044,W,68.77,281.73,010610,,,A*48
$GPRMC,035549.000,A,3340.2075,N,11554.8715,W,68.67,281.97,010610,,,A*45
$GPRMC,035552.000,A,3340.2192,N,11554.9387,W,68.71,281.37,010610,,,A*44
$GPRMC,035555.000,A,3340.2305,N,11555.0059,W,68.52,281.62,010610,,,A*46
$GPRMC,035558.000,A,3340.2422,N,11555.0727,W,68.14,282.15,010610,,,A*46
$GPRMC,035601.000,A,3340.2539,N,11555.1394,W,68.18,281.87,010610,,,A*4B
$GPRMC,035604.000,A,3340.2653,N,11555.2063,W,68.35,281.63,010610,,,A*4C
$GPRMC,035607.000,A,3340.2765,N,11555.2732,W,68.40,281.50,010610,,,A*4A
$GPRMC,035610.000,A,3340.2880,N,11555.3402,W,68.41,281.91,010610,,,A*45
$GPRMC,035613.000,A,3340.2997,N,11555.4072,W,68.49,281.88,010610,,,A*45
$GPRMC,035616.000,A,3340.3112,N,11555.4743,W,68.60,281.66,010610,,,A*4A
$GPRMC,035619.000,A,3340.3227,N,11555.5415,W,68.55,281.37,010610,,,A*43
$GPRMC,035622.000,A,3340.3342,N,11555.6087,W,68.69,281.84,010610,,,A*42
$GPRMC,035625.000,A,3340.3457,N,11555.6757,W,68.52,281.46,010610,,,A*4A
$GPRMC,035628.000,A,3340.3571,N,11555.7429,W,68.55,281.61,010610,,,A*4B
$GPRMC,035631.000,A,3340.3688,N,11555.8100,W,68.56,281.90,010610,,,A*4A
$GPRMC,035634.000,A,3340.3805,N,11555.8769,W,68.14,281.77,010610,,,A*42
$GPRMC,035637.000,A,3340.3918,N,11555.9437,W,68.25,281.57,010610,,,A*45
$GPRMC,035640.000,A,3340.4035,N,11556.0105,W,68.39,282.28,010610,,,A*4C
$GPRMC,035643.000,A,3340.4150,N,11556.0775,W,68.45,281.34,010610,,,A*49
$GPRMC,035646.000,A,3340.4263,N,11556.1446,W,68.54,281.79,010610,,,A*44
$GPRMC,035649.000,A,3340.4378,N,11556.2116,W,68.43,281.50,010610,,,A*4E
$GPRMC,035652.000,A,3340.4494,N,11556.2786,W,68.63,281.95,010610,,,A*45
$GPRMC,035655.000,A,3340.4609,N,11556.3457,W,68.55,281.56,010610,,,A*40
$GPRMC,035658.000,A,3340.4724,N,11556.4129,W,68.62,281.63,010610,,,A*4A
$GPRMC,035701.000,A,3340.4839,N,11556.4800,W,68.75,281.79,010610,,,A*4B
$GPRMC,035704.000,A,3340.4956,N,11556.5471,W,68.46,281.63,010610,,,A*46
$GPRMC,035707.000,A,3340.5069,N,11556.6141,W,68.52,281.27,010610,,,A*41
$GPRMC,035710.000,A,3340.5182,N,11556.6813,W,68.68,281.49,010610,,,A*4C
$GPRMC,035713.000,A,3340.5297,N,11556.7479,W,66.69,281.44,010610,,,A*4B
$GPRMC,035716.000,A,3340.5402,N,11556.8112,W,64.26,281.30,010610,,,A*49
$GPRMC,035719.000,A,3340.5518,N,11556.8758,W,67.82,282.07,010610,,,A*4E
$GPRMC,035722.000,A,3340.5633,N,11556.9425,W,68.47,281.35,010610,,,A*40
$GPRMC,035725.000,A,3340.5746,N,11557.0092,W,66.72,281.56,010610,,,A*49
$GPRMC,035728.000,A,3340.5857,N,11557.0737,W,66.01,281.43,010610,,,A*43
$GPRMC,035731.000,A,3340.5965,N,11557.1383,W,66.07,281.39,010610,,,A*4A
$GPRMC,035734.000,A,3340.6076,N,11557.2029,W,66.06,281.83,010610,,,A*47
$GPRMC,035737.000,A,3340.6189,N,11557.2675,W,66.23,281.65,010610,,,A*45
$GPRMC,035740.000,A,3340.6299,N,11557.3323,W,66.60,281.47,010610,,,A*47
$GPRMC,035743.000,A,3340.6412,N,11557.3976,W,67.79,281.68,010610,,,A*4F
$GPRMC,035746.000,A,3340.6527,N,11557.4642,W,68.19,281.76,010610,,,A*44
$GPRMC,035749.000,A,3340.6643,N,11557.5313,W,68.82,281.43,010610,,,A*4E
$GPRMC,035752.000,A,3340.6759,N,11557.5992,W,69.27,281.58,010610,,,A*49
$GPRMC,035755.000,A,3340.6874,N,11557.6666,W,68.65,281.46,010610,,,A*41
$GPRMC,035758.000,A,3340.6989,N,11557.7336,W,68.35,281.42,010610,,,A*4F
$GPRMC,035801.000,A,3340.7103,N,11557.8005,W,68.32,281.45,010610,,,A*4B
$GPRMC,035804.000,A,3340.7218,N,11557.8673,W,68.33,281.54,010610,,,A*41
$GPRMC,035807.000,A,3340.7332,N,11557.9341,W,68.19,281.56,010610,,,A*44
$GPRMC,035810.000,A,3340.7447,N,11558.0009,W,68.30,281.67,010610,,,A*47
$GPRMC,035813.000,A,3340.7563,N,11558.0676,W,68.22,281.69,010610,,,A*40
$GPRMC,035816.000,A,3340.7680,N,11558.1343,W,68.23,281.76,010610,,,A*46
$GPRMC,035819.000,A,3340.7794,N,11558.2011,W,68.15,281.40,010610,,,A*4A
$GPRMC,035822.000,A,3340.7907,N,11558.2677,W,68.03,281.64,010610,,,A*41
$GPRMC,035825.000,A,3340.8022,N,11558.3343,W,68.07,281.70,010610,,,A*45
$GPRMC,035828.000,A,3340.8136,N,11558.4011,W,68.37,281.27,010610,,,A*4E
$GPRMC,035831.000,A,3340.8231,N,11558.4683,W,68.23,278.06,010610,,,A*4F
$GPRMC,035834.000,A,3340.8282,N,11558.5363,W,68.36,272.61,010610,,,A*47
$GPRMC,035837.000,A,3340.8285,N,11558.6044,W,67.91,268.97,010610,,,A*46
$GPRMC,035840.000,A,3340.8259,N,11558.6721,W,67.75,266.88,010610,,,A*49
$GPRMC,035843.000,A,3340.8227,N,11558.7399,W,68.02,267.18,010610,,,A*42
$GPRMC,035846.000,A,3340.8195,N,11558.8079,W,68.27,266.61,010610,,,A*47
$GPRMC,035849.000,A,3340.8160,N,11558.8760,W,68.36,266.85,010610,,,A*47
$GPRMC,035852.000,A,3340.8126,N,11558.9443,W,68.52,266.74,010610,,,A*40
$GPRMC,035855.000,A,3340.8093,N,11559.0127,W,68.64,266.59,010610,,,A*4D
$GPRMC,035858.000,A,3340.8056,N,11559.0812,W,68.71,266.48,010610,,,A*42
$GPRMC,035901.000,A,3340.8020,N,11559.1496,W,68.65,266.45,010610,,,A*47
$GPRMC,035904.000,A,3340.7988,N,11559.2179,W,68.48,266.85,010610,,,A*42
$GPRMC,035907.000,A,3340.7954,N,11559.2862,W,68.48,266.11,010610,,,A*4E
$GPRMC,035910.000,A,3340.7915,N,11559.3544,W,68.58,266.54,010610,,,A*45
$GPRMC,035913.000,A,3340.7885,N,11559.4228,W,68.73,266.76,010610,,,A*4D
$GPRMC,035916.000,A,3340.7852,N,11559.4912,W,68.73,265.97,010610,,,A*4C
$GPRMC,035919.000,A,3340.7807,N,11559.5594,W,68.51,265.26,010610,,,A*4A
$GPRMC,035922.000,A,3340.7771,N,11559.6281,W,70.39,267.44,010610,,,A*4D
$GPRMC,035925.000,A,3340.7764,N,11559.6997,W,71.70,271.97,010610,,,A*47
$GPRMC,035928.000,A,3340.7829,N,11559.7698,W,69.94,279.27,010610,,,A*4D
$GPRMC,035931.000,A,3340.7961,N,11559.8379,W,70.27,284.42,010610,,,A*4C
$GPRMC,035934.000,A,3340.8111,N,11559.9053,W,69.54,284.59,010610,,,A*45
$GPRMC,035937.000,A,3340.8263,N,11559.9718,W,68.59,285.11,010610,,,A*49
$GPRMC,035940.000,A,3340.8412,N,11600.0377,W,68.11,285.05,010610,,,A*4B
$GPRMC,035943.000,A,3340.8561,N,11600.1032,W,68.21,284.88,010610,,,A*49
$GPRMC,035946.000,A,3340.8708,N,11600.1689,W,68.16,284.78,010610,,,A*4C
$GPRMC,035949.000,A,3340.8856,N,11600.2346,W,68.22,285.36,010610,,,A*4E
$GPRMC,035952.000,A,3340.9008,N,11600.3001,W,68.24,285.16,010610,,,A*43
$GPRMC,035955.000,A,3340.9156,N,11600.3659,W,68.33,284.89,010610,,,A*44
$GPRMC,035958.000,A,3340.9304,N,11600.4317,W,68.01,285.18,010610,,,A*4C
$GPRMC,040001.000,A,3340.9451,N,11600.4969,W,66.51,285.34,010610,,,A*4A
$GPRMC,040004.000,A,3340.9592,N,11600.5593,W,63.32,285.47,010610,,,A*4D
$GPRMC,040007.000,A,3340.9734,N,11600.6184,W,60.34,286.28,010610,,,A*4E
$GPRMC,040010.000,A,3340.9868,N,11600.6749,W,57.68,285.37,010610,,,A*49
$GPRMC,040013.000,A,3340.9991,N,11600.7292,W,55.77,284.74,010610,,,A*45
$GPRMC,040016.000,A,3341.0108,N,11600.7834,W,56.41,284.31,010610,,,A*41
$GPRMC,040019.000,A,3341.0220,N,11600.8379,W,56.13,284.05,010610,,,A*4A
$GPRMC,040022.000,A,3341.0336,N,11600.8919,W,55.96,284.63,010610,,,A*46
$GPRMC,040025.000,A,3341.0453,N,11600.9460,W,56.11,284.42,010610,,,A*48
$GPRMC,040028.000,A,3341.0573,N,11601.0002,W,56.22,284.98,010610,,,A*49
$GPRMC,040031.000,A,3341.0695,N,11601.0553,W,58.61,284.83,010610,,,A*48
$GPRMC,040034.000,A,3341.0821,N,11601.1126,W,59.40,284.42,010610,,,A*44
$GPRMC,040037.000,A,3341.0947,N,11601.1704,W,60.10,284.63,010610,,,A*4C
$GPRMC,040040.000,A,3341.1077,N,11601.2286,W,60.21,285.21,010610,,,A*4E
$GPRMC,040043.000,A,3341.1204,N,11601.2867,W,60.14,284.28,010610,,,A*40
$GPRMC,040046.000,A,3341.1329,N,11601.3450,W,60.31,284.74,010610,,,A*4C
$GPRMC,040049.000,A,3341.1458,N,11601.4035,W,61.18,284.48,010610,,,A*47
$GPRMC,040052.000,A,3341.1587,N,11601.4641,W,63.53,284.96,010610,,,A*45
$GPRMC,040055.000,A,3341.1720,N,11601.5254,W,63.69,286.12,010610,,,A*4B
$GPRMC,040058.000,A,3341.1871,N,11601.5877,W,66.47,286.86,010610,,,A*42
$GPRMC,040101.000,A,3341.2030,N,11601.6514,W,66.19,286.69,010610,,,A*40
$GPRMC,040104.000,A,3341.2190,N,11601.7144,W,65.61,287.50,010610,,,A*49
$GPRMC,040107.000,A,3341.2354,N,11601.7769,W,65.33,287.34,010610,,,A*4C
$GPRMC,040110.000,A,3341.2513,N,11601.8396,W,65.63,287.17,010610,,,A*40
$GPRMC,040113.000,A,3341.2675,N,11601.9023,W,65.98,287.51,010610,,,A*4A
$GPRMC,040116.000,A,3341.2837,N,11601.9644,W,64.21,287.01,010610,,,A*46
$GPRMC,040119.000,A,3341.2990,N,11602.0257,W,63.94,286.62,010610,,,A*44
$GPRMC,040122.000,A,3341.3143,N,11602.0868,W,64.11,287.09,010610,,,A*4B
$GPRMC,040125.000,A,3341.3301,N,11602.1481,W,64.25,287.13,010610,,,A*4E
$GPRMC,040128.000,A,3341.3456,N,11602.2090,W,63.61,286.84,010610,,,A*49
$GPRMC,040131.000,A,3341.3612,N,11602.2699,W,63.73,287.03,010610,,,A*41
$GPRMC,040134.000,A,3341.3767,N,11602.3307,W,63.82,286.88,010610,,,A*48
$GPRMC,040137.000,A,3341.3922,N,11602.3916,W,63.70,286.75,010610,,,A*41
$GPRMC,040140.000,A,3341.4075,N,11602.4526,W,64.14,287.06,010610,,,A*45
$GPRMC,040143.000,A,3341.4233,N,11602.5136,W,63.64,287.14,010610,,,A*41
$GPRMC,040146.000,A,3341.4393,N,11602.5746,W,63.71,287.25,010610,,,A*48
$GPRMC,040149.000,A,3341.4541,N,11602.6332,W,59.49,286.91,010610,,,A*46
$GPRMC,040152.000,A,3341.4687,N,11602.6906,W,60.35,287.29,010610,,,A*4B
$GPRMC,040155.000,A,3341.4835,N,11602.7477,W,60.54,287.17,010610,,,A*4B
$GPRMC,040158.000,A,3341.4983,N,11602.8055,W,60.85,286.85,010610,,,A*47
$GPRMC,040201.000,A,3341.5130,N,11602.8634,W,60.41,286.79,010610,,,A*43
$GPRMC,040204.000,A,3341.5280,N,11602.9223,W,62.52,287.06,010610,,,A*44
$GPRMC,040207.000,A,3341.5455,N,11602.9820,W,63.51,291.12,010610,,,A*40
$GPRMC,040210.000,A,3341.5676,N,11603.0402,W,64.37,297.13,010610,,,A*41
$GPRMC,040213.000,A,3341.5940,N,11603.0959,W,64.02,300.54,010610,,,A*41
$GPRMC,040216.000,A,3341.6222,N,11603.1514,W,66.21,301.43,010610,,,A*48
$GPRMC,040219.000,A,3341.6519,N,11603.2090,W,68.22,300.75,010610,,,A*4B
$GPRMC,040222.000,A,3341.6815,N,11603.2671,W,67.43,301.39,010610,,,A*4A
$GPRMC,040225.000,A,3341.7114,N,11603.3252,W,68.16,301.19,010610,,,A*4D
$GPRMC,040228.000,A,3341.7415,N,11603.3835,W,68.36,301.74,010610,,,A*46
$GPRMC,040231.000,A,3341.7717,N,11603.4421,W,69.07,301.24,010610,,,A*47
$GPRMC,040234.000,A,3341.8017,N,11603.5011,W,68.77,301.30,010610,,,A*4F
$GPRMC,040237.000,A,3341.8320,N,11603.5595,W,68.48,301.34,010610,,,A*4A
$GPRMC,040240.000,A,3341.8620,N,11603.6179,W,68.55,301.35,010610,,,A*47
$GPRMC,040243.000,A,3341.8910,N,11603.6765,W,68.06,300.51,010610,,,A*46
$GPRMC,040246.000,A,3341.9181,N,11603.7358,W,67.55,297.79,010610,,,A*45
$GPRMC,040249.000,A,3341.9419,N,11603.7970,W,67.23,293.52,010610,,,A*42
$GPRMC,040252.000,A,3341.9611,N,11603.8598,W,67.36,289.81,010610,,,A*46
$GPRMC,040255.000,A,3341.9782,N,11603.9241,W,67.64,286.18,010610,,,A*40
$GPRMC,040258.000,A,3341.9919,N,11603.9897,W,67.86,282.33,010610,,,A*41
$GPRMC,040301.000,A,3342.0028,N,11604.0563,W,68.22,279.78,010610,,,A*4F
$GPRMC,040304.000,A,3342.0096,N,11604.1246,W,68.46,274.83,010610,,,A*45
$GPRMC,040307.000,A,3342.0139,N,11604.1932,W,69.11,274.53,010610,,,A*44
$GPRMC,040310.000,A,3342.0179,N,11604.2625,W,69.60,274.50,010610,,,A*49
$GPRMC,040313.000,A,3342.0221,N,11604.3318,W,69.36,274.61,010610,,,A*4F
$GPRMC,040316.000,A,3342.0268,N,11604.4003,W,67.85,274.97,010610,,,A*46
$GPRMC,040319.000,A,3342.0317,N,11604.4665,W,65.34,274.93,010610,,,A*4A
$GPRMC,040322.000,A,3342.0363,N,11604.5304,W,63.10,274.58,010610,,,A*45
$GPRMC,040325.000,A,3342.0399,N,11604.5920,W,60.94,273.63,010610,,,A*4B
$GPRMC,040328.000,A,3342.0434,N,11604.6518,W,59.37,274.09,010610,,,A*4A
$GPRMC,040331.000,A,3342.0465,N,11604.7105,W,58.53,274.47,010610,,,A*46
$GPRMC,040334.000,A,3342.0499,N,11604.7702,W,61.87,273.81,010610,,,A*4F
$GPRMC,040337.000,A,3342.0522,N,11604.8335,W,64.95,270.52,010610,,,A*49
$GPRMC,040340.000,A,3342.0501,N,11604.9002,W,68.15,266.01,010610,,,A*4B
$GPRMC,040343.000,A,3342.0447,N,11604.9690,W,69.33,264.68,010610,,,A*4E
$GPRMC,040346.000,A,3342.0388,N,11605.0382,W,69.03,264.43,010610,,,A*4B
$GPRMC,040349.000,A,3342.0328,N,11605.1065,W,68.07,264.05,010610,,,A*42
$GPRMC,040352.000,A,3342.0255,N,11605.1734,W,66.96,261.40,010610,,,A*42
$GPRMC,040355.000,A,3342.0166,N,11605.2374,W,62.31,260.77,010610,,,A*49
$GPRMC,040358.000,A,3342.0079,N,11605.2983,W,61.58,260.60,010610,,,A*43
$GPRMC,040401.000,A,3341.9997,N,11605.3585,W,60.86,260.87,010610,,,A*4B
$GPRMC,040404.000,A,3341.9913,N,11605.4198,W,63.97,260.94,010610,,,A*4C
$GPRMC,040407.000,A,3341.9824,N,11605.4841,W,65.72,260.94,010610,,,A*4A
$GPRMC,040410.000,A,3341.9737,N,11605.5484,W,64.80,261.01,010610,,,A*44
$GPRMC,040413.000,A,3341.9650,N,11605.6118,W,63.92,260.54,010610,,,A*41
$GPRMC,040416.000,A,3341.9564,N,11605.6743,W,62.94,261.06,010610,,,A*49
$GPRMC,040419.000,A,3341.9483,N,11605.7361,W,62.36,260.94,010610,,,A*49
$GPRMC,040422.000,A,3341.9401,N,11605.7972,W,61.83,261.08,010610,,,A*4A
$GPRMC,040425.000,A,3341.9321,N,11605.8577,W,60.94,260.71,010610,,,A*46
$GPRMC,040428.000,A,3341.9240,N,11605.9172,W,60.06,260.82,010610,,,A*4A
$GPRMC,040431.000,A,3341.9166,N,11605.9759,W,59.20,262.38,010610,,,A*47
$GPRMC,040434.000,A,3341.9114,N,11606.0343,W,58.53,265.91,010610,,,A*43
$GPRMC,040437.000,A,3341.9100,N,11606.0923,W,57.97,270.36,010610,,,A*47
$GPRMC,040440.000,A,3341.9121,N,11606.1497,W,57.34,274.14,010610,,,A*4A
$GPRMC,040443.000,A,3341.9180,N,11606.2066,W,58.44,278.87,010610,,,A*45
$GPRMC,040446.000,A,3341.9279,N,11606.2658,W,62.05,281.88,010610,,,A*4B
$GPRMC,040449.000,A,3341.9398,N,11606.3278,W,65.10,282.96,010610,,,A*42
$GPRMC,040452.000,A,3341.9527,N,11606.3926,W,68.29,282.79,010610,,,A*4C
$GPRMC,040455.000,A,3341.9654,N,11606.4596,W,69.03,282.65,010610,,,A*48
$GPRMC,040458.000,A,3341.9789,N,11606.5266,W,68.81,283.71,010610,,,A*42
$GPRMC,040501.000,A,3341.9931,N,11606.5933,W,68.75,284.05,010610,,,A*46
$GPRMC,040504.000,A,3342.0061,N,11606.6600,W,68.60,283.19,010610,,,A*47
$GPRMC,040507.000,A,3342.0190,N,11606.7269,W,68.54,282.48,010610,,,A*43
$GPRMC,040510.000,A,3342.0315,N,11606.7939,W,68.82,283.08,010610,,,A*4A
$GPRMC,040513.000,A,3342.0444,N,11606.8610,W,68.52,282.80,010610,,,A*4D
$GPRMC,040516.000,A,3342.0572,N,11606.9278,W,68.37,282.98,010610,,,A*4D
$GPRMC,040519.000,A,3342.0696,N,11606.9939,W,66.24,282.76,010610,,,A*49
$GPRMC,040522.000,A,3342.0808,N,11607.0538,W,58.11,282.76,010610,,,A*46
$GPRMC,040525.000,A,3342.0910,N,11607.1089,W,54.79,282.84,010610,,,A*48
$GPRMC,040528.000,A,3342.1006,N,11607.1604,W,52.14,282.84,010610,,,A*44
$GPRMC,040531.000,A,3342.1099,N,11607.2102,W,50.59,282.21,010610,,,A*4C
$GPRMC,040534.000,A,3342.1188,N,11607.2590,W,50.09,282.71,010610,,,A*47
$GPRMC,040537.000,A,3342.1285,N,11607.3089,W,53.02,282.76,010610,,,A*49
$GPRMC,040540.000,A,3342.1382,N,11607.3611,W,54.16,282.78,010610,,,A*44
$GPRMC,040543.000,A,3342.1483,N,11607.4143,W,55.65,282.64,010610,,,A*4E
$GPRMC,040546.000,A,3342.1590,N,11607.4702,W,58.90,282.57,010610,,,A*4C
$GPRMC,040549.000,A,3342.1696,N,11607.5294,W,62.18,281.34,010610,,,A*42
$GPRMC,040552.000,A,3342.1802,N,11607.5922,W,65.69,282.17,010610,,,A*4E
$GPRMC,040555.000,A,3342.1936,N,11607.6578,W,68.35,285.97,010610,,,A*44
$GPRMC,040558.000,A,3342.2119,N,11607.7236,W,69.40,290.39,010610,,,A*40
$GPRMC,040601.000,A,3342.2335,N,11607.7883,W,69.42,293.10,010610,,,A*4D
$GPRMC,040604.000,A,3342.2565,N,11607.8521,W,69.09,292.63,010610,,,A*4B
$GPRMC,040607.000,A,3342.2782,N,11607.9151,W,66.62,292.05,010610,,,A*43
$GPRMC,040610.000,A,3342.2988,N,11607.9755,W,63.76,291.28,010610,,,A*4F
$GPRMC,040613.000,A,3342.3169,N,11608.0337,W,59.39,289.72,010610,,,A*48
$GPRMC,040616.000,A,3342.3327,N,11608.0876,W,56.07,288.95,010610,,,A*41
$GPRMC,040619.000,A,3342.3474,N,11608.1401,W,55.48,288.36,010610,,,A*43
$GPRMC,040622.000,A,3342.3613,N,11608.1926,W,55.39,287.27,010610,,,A*49
$GPRMC,040625.000,A,3342.3751,N,11608.2466,W,57.72,287.53,010610,,,A*4D
$GPRMC,040628.000,A,3342.3902,N,11608.3024,W,59.56,288.52,010610,,,A*4D
$GPRMC,040631.000,A,3342.4060,N,11608.3597,W,60.55,288.24,010610,,,A*4A
$GPRMC,040634.000,A,3342.4226,N,11608.4182,W,63.34,288.95,010610,,,A*46
$GPRMC,040637.000,A,3342.4401,N,11608.4800,W,66.39,288.84,010610,,,A*4D
$GPRMC,040640.000,A,3342.4580,N,11608.5431,W,65.85,289.02,010610,,,A*41
$GPRMC,040643.000,A,3342.4765,N,11608.6072,W,68.49,288.96,010610,,,A*4A
$GPRMC,040646.000,A,3342.4950,N,11608.6726,W,69.26,288.80,010610,,,A*4E
$GPRMC,040649.000,A,3342.5147,N,11608.7381,W,69.50,289.87,010610,,,A*41
$GPRMC,040652.000,A,3342.5338,N,11608.8035,W,69.18,288.75,010610,,,A*42
$GPRMC,040655.000,A,3342.5526,N,11608.8689,W,69.00,289.08,010610,,,A*4F
$GPRMC,040658.000,A,3342.5716,N,11608.9334,W,67.19,289.36,010610,,,A*4A
$GPRMC,040701.000,A,3342.5902,N,11608.9954,W,64.89,289.78,010610,,,A*40
$GPRMC,040704.000,A,3342.6085,N,11609.0553,W,62.77,290.05,010610,,,A*46
$GPRMC,040707.000,A,3342.6263,N,11609.1129,W,60.57,289.79,010610,,,A*44
$GPRMC,040710.000,A,3342.6435,N,11609.1686,W,59.24,290.01,010610,,,A*4C
$GPRMC,040713.000,A,3342.6607,N,11609.2250,W,61.48,290.18,010610,,,A*49
$GPRMC,040716.000,A,3342.6786,N,11609.2840,W,63.86,289.82,010610,,,A*44
$GPRMC,040719.000,A,3342.6966,N,11609.3435,W,61.83,289.75,010610,,,A*4B
$GPRMC,040722.000,A,3342.7140,N,11609.4002,W,59.34,290.40,010610,,,A*40
$GPRMC,040725.000,A,3342.7310,N,11609.4551,W,58.34,290.31,010610,,,A*44
$GPRMC,040728.000,A,3342.7474,N,11609.5085,W,55.86,289.99,010610,,,A*4F
$GPRMC,040731.000,A,3342.7636,N,11609.5615,W,57.37,289.84,010610,,,A*48
$GPRMC,040734.000,A,3342.7799,N,11609.6154,W,56.72,289.99,010610,,,A*44
$GPRMC,040737.000,A,3342.7960,N,11609.6680,W,55.64,289.98,010610,,,A*44
$GPRMC,040740.000,A,3342.8116,N,11609.7190,W,53.09,289.76,010610,,,A*48
$GPRMC,040743.000,A,3342.8264,N,11609.7678,W,51.49,289.99,010610,,,A*4B
$GPRMC,040746.000,A,3342.8411,N,11609.8162,W,52.52,289.52,010610,,,A*47
$GPRMC,040749.000,A,3342.8562,N,11609.8664,W,54.48,290.23,010610,,,A*4F
$GPRMC,040752.000,A,3342.8720,N,11609.9179,W,55.58,290.05,010610,,,A*4F
$GPRMC,040755.000,A,3342.8873,N,11609.9704,W,55.66,287.43,010610,,,A*44
$GPRMC,040758.000,A,3342.8982,N,11610.0246,W,57.23,282.65,010610,,,A*46
$GPRMC,040801.000,A,3342.9075,N,11610.0812,W,57.53,279.75,010610,,,A*4C
$GPRMC,040804.000,A,3342.9140,N,11610.1374,W,55.83,276.29,010610,,,A*4D
$GPRMC,040807.000,A,3342.9169,N,11610.1927,W,55.25,272.42,010610,,,A*4C
$GPRMC,040810.000,A,3342.9177,N,11610.2479,W,55.03,270.35,010610,,,A*46
$GPRMC,040813.000,A,3342.9180,N,11610.3028,W,55.53,270.32,010610,,,A*4E
$GPRMC,040816.000,A,3342.9180,N,11610.3598,W,58.21,269.65,010610,,,A*47
$GPRMC,040819.000,A,3342.9175,N,11610.4190,W,58.90,269.75,010610,,,A*42
$GPRMC,040822.000,A,3342.9176,N,11610.4775,W,58.19,270.03,010610,,,A*4C
$GPRMC,040825.000,A,3342.9175,N,11610.5352,W,57.83,269.60,010610,,,A*49
$GPRMC,040828.000,A,3342.9175,N,11610.5932,W,58.88,270.04,010610,,,A*46
$GPRMC,040831.000,A,3342.9177,N,11610.6535,W,61.56,269.73,010610,,,A*45
$GPRMC,040834.000,A,3342.9175,N,11610.7158,W,62.19,269.90,010610,,,A*49
$GPRMC,040837.000,A,3342.9180,N,11610.7770,W,60.23,270.31,010610,,,A*44
$GPRMC,040840.000,A,3342.9182,N,11610.8367,W,60.42,270.65,010610,,,A*4D
$GPRMC,040843.000,A,3342.9192,N,11610.8985,W,62.86,271.76,010610,,,A*40
$GPRMC,040846.000,A,3342.9202,N,11610.9622,W,64.29,270.75,010610,,,A*4D
$GPRMC,040849.000,A,3342.9209,N,11611.0269,W,65.10,270.99,010610,,,A*43
$GPRMC,040852.000,A,3342.9231,N,11611.0916,W,64.18,275.15,010610,,,A*49
$GPRMC,040855.000,A,3342.9303,N,11611.1552,W,64.72,279.64,010610,,,A*45
$GPRMC,040858.000,A,3342.9412,N,11611.2170,W,61.76,283.78,010610,,,A*41
$GPRMC,040901.000,A,3342.9549,N,11611.2764,W,61.99,288.56,010610,,,A*46
$GPRMC,040904.000,A,3342.9743,N,11611.3345,W,63.51,293.44,010610,,,A*42
$GPRMC,040907.000,A,3342.9971,N,11611.3905,W,61.63,297.71,010610,,,A*41
$GPRMC,040910.000,A,3343.0233,N,11611.4444,W,63.48,302.81,010610,,,A*44
$GPRMC,040913.000,A,3343.0545,N,11611.4969,W,65.20,307.46,010610,,,A*45
$GPRMC,040916.000,A,3343.0895,N,11611.5464,W,63.65,312.14,010610,,,A*45
$GPRMC,040919.000,A,3343.1262,N,11611.5918,W,63.76,314.45,010610,,,A*4F
$GPRMC,040922.000,A,3343.1642,N,11611.6378,W,65.34,314.20,010610,,,A*4D
$GPRMC,040925.000,A,3343.2027,N,11611.6831,W,64.19,316.93,010610,,,A*4E
$GPRMC,040928.000,A,3343.2426,N,11611.7260,W,64.13,318.05,010610,,,A*42
$GPRMC,040931.000,A,3343.2828,N,11611.7682,W,63.04,318.49,010610,,,A*49
$GPRMC,040934.000,A,3343.3218,N,11611.8089,W,61.08,318.57,010610,,,A*47
$GPRMC,040937.000,A,3343.3588,N,11611.8489,W,59.54,316.65,010610,,,A*43
$GPRMC,040940.000,A,3343.3962,N,11611.8900,W,62.02,317.91,010610,,,A*46
$GPRMC,040943.000,A,3343.4354,N,11611.9326,W,64.52,317.53,010610,,,A*4F
$GPRMC,040946.000,A,3343.4761,N,11611.9766,W,65.70,317.98,010610,,,A*4E
$GPRMC,040949.000,A,3343.5171,N,11612.0209,W,66.45,317.44,010610,,,A*45
$GPRMC,040952.000,A,3343.5574,N,11612.0674,W,67.42,314.79,010610,,,A*4B
$GPRMC,040955.000,A,3343.5966,N,11612.1169,W,68.85,312.09,010610,,,A*4C
$GPRMC,040958.000,A,3343.6342,N,11612.1686,W,68.67,310.95,010610,,,A*43
$GPRMC,041001.000,A,3343.6714,N,11612.2210,W,68.81,310.17,010610,,,A*4A
$GPRMC,041004.000,A,3343.7076,N,11612.2726,W,65.62,310.36,010610,,,A*4E
$GPRMC,041007.000,A,3343.7423,N,11612.3213,W,62.37,310.89,010610,,,A*48
$GPRMC,041010.000,A,3343.7766,N,11612.3667,W,60.92,313.40,010610,,,A*40
$GPRMC,041013.000,A,3343.8121,N,11612.4101,W,61.32,315.00,010610,,,A*40
$GPRMC,041016.000,A,3343.8493,N,11612.4526,W,62.17,317.34,010610,,,A*49
$GPRMC,041019.000,A,3343.8878,N,11612.4936,W,61.06,318.96,010610,,,A*46
$GPRMC,041022.000,A,3343.9265,N,11612.5333,W,61.06,319.96,010610,,,A*46
$GPRMC,041025.000,A,3343.9666,N,11612.5718,W,62.39,321.66,010610,,,A*40
$GPRMC,041028.000,A,3344.0081,N,11612.6112,W,64.59,321.27,010610,,,A*46
$GPRMC,041031.000,A,3344.0511,N,11612.6520,W,66.29,321.79,010610,,,A*49
$GPRMC,041034.000,A,3344.0949,N,11612.6932,W,66.00,321.57,010610,,,A*45
$GPRMC,041037.000,A,3344.1374,N,11612.7341,W,64.43,320.21,010610,,,A*49
$GPRMC,041040.000,A,3344.1760,N,11612.7772,W,61.20,314.06,010610,,,A*4E
$GPRMC,041043.000,A,3344.2083,N,11612.8220,W,58.34,308.41,010610,,,A*48
$GPRMC,041046.000,A,3344.2364,N,11612.8702,W,59.19,302.35,010610,,,A*45
$GPRMC,041049.000,A,3344.2602,N,11612.9215,W,57.73,296.89,010610,,,A*44
$GPRMC,041052.000,A,3344.2792,N,11612.9736,W,56.11,291.62,010610,,,A*45
$GPRMC,041055.000,A,3344.2939,N,11613.0255,W,54.41,286.68,010610,,,A*4E
$GPRMC,041058.000,A,3344.3044,N,11613.0793,W,56.00,280.74,010610,,,A*42
$GPRMC,041101.000,A,3344.3109,N,11613.1355,W,56.56,276.26,010610,,,A*45
$GPRMC,041104.000,A,3344.3151,N,11613.1920,W,56.45,275.67,010610,,,A*41
$GPRMC,041107.000,A,3344.3196,N,11613.2497,W,59.05,275.92,010610,,,A*4A
$GPRMC,041110.000,A,3344.3244,N,11613.3099,W,61.49,275.57,010610,,,A*41
$GPRMC,041113.000,A,3344.3296,N,11613.3723,W,62.72,276.34,010610,,,A*46
$GPRMC,041116.000,A,3344.3350,N,11613.4337,W,60.60,275.83,010610,,,A*40
$GPRMC,041119.000,A,3344.3397,N,11613.4927,W,58.11,275.91,010610,,,A*41
$GPRMC,041122.000,A,3344.3443,N,11613.5499,W,57.48,275.78,010610,,,A*4A
$GPRMC,041125.000,A,3344.3489,N,11613.6073,W,57.64,275.52,010610,,,A*4E
$GPRMC,041128.000,A,3344.3535,N,11613.6643,W,57.04,275.56,010610,,,A*42
$GPRMC,041131.000,A,3344.3590,N,11613.7222,W,59.54,277.18,010610,,,A*44
$GPRMC,041134.000,A,3344.3647,N,11613.7826,W,61.51,275.80,010610,,,A*4B
$GPRMC,041137.000,A,3344.3697,N,11613.8442,W,61.95,275.48,010610,,,A*48
$GPRMC,041140.000,A,3344.3745,N,11613.9055,W,61.43,275.53,010610,,,A*44
$GPRMC,041143.000,A,3344.3795,N,11613.9673,W,62.21,274.98,010610,,,A*49
$GPRMC,041146.000,A,3344.3820,N,11614.0300,W,63.34,270.75,010610,,,A*40
$GPRMC,041149.000,A,3344.3786,N,11614.0936,W,63.89,264.01,010610,,,A*43
$GPRMC,041152.000,A,3344.3700,N,11614.1575,W,65.40,258.34,010610,,,A*47
$GPRMC,041155.000,A,3344.3565,N,11614.2221,W,65.58,256.39,010610,,,A*4E
$GPRMC,041158.000,A,3344.3437,N,11614.2839,W,62.02,256.97,010610,,,A*4A
$GPRMC,041201.000,A,3344.3315,N,11614.3438,W,61.65,256.98,010610,,,A*43
$GPRMC,041204.000,A,3344.3206,N,11614.4037,W,61.10,259.70,010610,,,A*42
$GPRMC,041207.000,A,3344.3129,N,11614.4645,W,61.25,262.88,010610,,,A*45
$GPRMC,041210.000,A,3344.3080,N,11614.5248,W,61.04,265.82,010610,,,A*47
$GPRMC,041213.000,A,3344.3055,N,11614.5870,W,63.54,268.40,010610,,,A*49
$GPRMC,041216.000,A,3344.3049,N,11614.6517,W,65.52,270.61,010610,,,A*44
$GPRMC,041219.000,A,3344.3076,N,11614.7176,W,65.46,274.83,010610,,,A*48
$GPRMC,041222.000,A,3344.3144,N,11614.7833,W,67.05,278.23,010610,,,A*4B
$GPRMC,041225.000,A,3344.3246,N,11614.8500,W,67.62,281.90,010610,,,A*40
$GPRMC,041228.000,A,3344.3380,N,11614.9155,W,67.81,284.50,010610,,,A*47
$GPRMC,041231.000,A,3344.3553,N,11614.9811,W,68.33,288.08,010610,,,A*49
$GPRMC,041234.000,A,3344.3756,N,11615.0447,W,67.69,291.71,010610,,,A*4A
$GPRMC,041237.000,A,3344.3983,N,11615.1060,W,66.69,294.96,010610,,,A*42
$GPRMC,041240.000,A,3344.4236,N,11615.1654,W,66.21,297.66,010610,,,A*41
$GPRMC,041243.000,A,3344.4514,N,11615.2231,W,66.25,300.71,010610,,,A*4C
$GPRMC,041246.000,A,3344.4802,N,11615.2799,W,66.17,301.12,010610,,,A*41
$GPRMC,041249.000,A,3344.5089,N,11615.3365,W,66.07,300.74,010610,,,A*42
$GPRMC,041252.000,A,3344.5374,N,11615.3931,W,66.02,301.10,010610,,,A*44
$GPRMC,041255.000,A,3344.5655,N,11615.4489,W,64.40,300.65,010610,,,A*4B
$GPRMC,041258.000,A,3344.5931,N,11615.5041,W,64.67,300.63,010610,,,A*49
$GPRMC,041301.000,A,3344.6207,N,11615.5586,W,63.05,301.06,010610,,,A*46
$GPRMC,041304.000,A,3344.6477,N,11615.6124,W,62.18,300.96,010610,,,A*48
$GPRMC,041307.000,A,3344.6739,N,11615.6650,W,61.09,301.07,010610,,,A*4C
$GPRMC,041310.000,A,3344.7002,N,11615.7170,W,60.60,301.55,010610,,,A*49
$GPRMC,041313.000,A,3344.7287,N,11615.7670,W,60.75,306.71,010610,,,A*47
$GPRMC,041316.000,A,3344.7606,N,11615.8138,W,60.08,311.06,010610,,,A*47
$GPRMC,041319.000,A,3344.7948,N,11615.8571,W,58.69,315.18,010610,,,A*43
$GPRMC,041322.000,A,3344.8295,N,11615.8968,W,57.11,316.35,010610,,,A*47
$GPRMC,041325.000,A,3344.8635,N,11615.9355,W,55.76,315.53,010610,,,A*4B
$GPRMC,041328.000,A,3344.8959,N,11615.9757,W,56.19,311.76,010610,,,A*4C
$GPRMC,041331.000,A,3344.9257,N,11616.0203,W,58.44,305.97,010610,,,A*42
$GPRMC,041334.000,A,3344.9523,N,11616.0698,W,59.36,300.27,010610,,,A*4F
$GPRMC,041337.000,A,3344.9751,N,11616.1223,W,59.49,295.11,010610,,,A*4E
$GPRMC,041340.000,A,3344.9936,N,11616.1779,W,59.78,288.94,010610,,,A*48
$GPRMC,041343.000,A,3345.0069,N,11616.2357,W,59.75,283.50,010610,,,A*45
$GPRMC,041346.000,A,3345.0160,N,11616.2933,W,57.42,280.12,010610,,,A*4F
$GPRMC,041349.000,A,3345.0239,N,11616.3505,W,57.85,279.34,010610,,,A*4E
$GPRMC,041352.000,A,3345.0323,N,11616.4064,W,55.93,281.99,010610,,,A*4E
$GPRMC,041355.000,A,3345.0441,N,11616.4603,W,56.16,287.37,010610,,,A*41
$GPRMC,041358.000,A,3345.0604,N,11616.5132,W,56.66,293.44,010610,,,A*4D
$GPRMC,041401.000,A,3345.0809,N,11616.5648,W,57.38,296.05,010610,,,A*45
$GPRMC,041404.000,A,3345.1019,N,11616.6166,W,57.87,295.81,010610,,,A*4B
$GPRMC,041407.000,A,3345.1236,N,11616.6693,W,59.72,296.34,010610,,,A*43
$GPRMC,041410.000,A,3345.1453,N,11616.7231,W,58.61,295.58,010610,,,A*47
$GPRMC,041413.000,A,3345.1662,N,11616.7744,W,55.99,295.66,010610,,,A*44
$GPRMC,041416.000,A,3345.1863,N,11616.8244,W,55.43,295.74,010610,,,A*40
$GPRMC,041419.000,A,3345.2067,N,11616.8747,W,56.02,295.86,010610,,,A*4D
$GPRMC,041422.000,A,3345.2270,N,11616.9242,W,55.17,296.03,010610,,,A*49
$GPRMC,041425.000,A,3345.2476,N,11616.9747,W,56.88,295.79,010610,,,A*45
$GPRMC,041428.000,A,3345.2682,N,11617.0262,W,56.86,295.69,010610,,,A*44
$GPRMC,041431.000,A,3345.2885,N,11617.0773,W,55.91,295.08,010610,,,A*42
$GPRMC,041434.000,A,3345.3078,N,11617.1272,W,54.25,294.75,010610,,,A*4C
$GPRMC,041437.000,A,3345.3256,N,11617.1762,W,53.52,293.16,010610,,,A*40
$GPRMC,041440.000,A,3345.3425,N,11617.2259,W,53.91,291.42,010610,,,A*40
$GPRMC,041443.000,A,3345.3585,N,11617.2765,W,54.50,290.44,010610,,,A*4F
$GPRMC,041446.000,A,3345.3744,N,11617.3285,W,56.21,289.68,010610,,,A*4D
$GPRMC,041449.000,A,3345.3903,N,11617.3814,W,55.53,289.63,010610,,,A*40
$GPRMC,041452.000,A,3345.4061,N,11617.4330,W,54.72,290.04,010610,,,A*41
$GPRMC,041455.000,A,3345.4214,N,11617.4838,W,53.63,289.94,010610,,,A*43
$GPRMC,041458.000,A,3345.4365,N,11617.5344,W,54.30,289.60,010610,,,A*42
$GPRMC,041501.000,A,3345.4519,N,11617.5857,W,55.31,290.17,010610,,,A*43
$GPRMC,041504.000,A,3345.4675,N,11617.6377,W,55.54,289.77,010610,,,A*48
$GPRMC,041507.000,A,3345.4832,N,11617.6902,W,55.84,289.87,010610,,,A*4C
$GPRMC,041510.000,A,3345.4989,N,11617.7417,W,54.44,290.47,010610,,,A*4A
$GPRMC,041513.000,A,3345.5153,N,11617.7926,W,54.94,292.50,010610,,,A*41
$GPRMC,041516.000,A,3345.5348,N,11617.8426,W,56.08,297.38,010610,,,A*42
$GPRMC,041519.000,A,3345.5572,N,11617.8929,W,57.95,298.48,010610,,,A*4D
$GPRMC,041522.000,A,3345.5800,N,11617.9441,W,57.95,297.48,010610,,,A*40
$GPRMC,041525.000,A,3345.6021,N,11617.9955,W,57.98,296.29,010610,,,A*4C
$GPRMC,041528.000,A,3345.6224,N,11618.0488,W,59.17,292.62,010610,,,A*4F
$GPRMC,041531.000,A,3345.6405,N,11618.1043,W,60.37,289.83,010610,,,A*4D
$GPRMC,041534.000,A,3345.6563,N,11618.1632,W,62.59,286.99,010610,,,A*47
$GPRMC,041537.000,A,3345.6699,N,11618.2249,W,64.65,284.02,010610,,,A*40
$GPRMC,041540.000,A,3345.6817,N,11618.2896,W,66.52,281.34,010610,,,A*46
$GPRMC,041543.000,A,3345.6926,N,11618.3546,W,65.31,282.09,010610,,,A*4C
$GPRMC,041546.000,A,3345.7055,N,11618.4178,W,64.15,285.83,010610,,,A*49
$GPRMC,041549.000,A,3345.7219,N,11618.4790,W,64.41,289.44,010610,,,A*4A
$GPRMC,041552.000,A,3345.7406,N,11618.5402,W,65.11,289.68,010610,,,A*4B
$GPRMC,041555.000,A,3345.7592,N,11618.6019,W,65.75,289.85,010610,,,A*4C
$GPRMC,041558.000,A,3345.7783,N,11618.6645,W,66.98,289.77,010610,,,A*41
$GPRMC,041601.000,A,3345.7974,N,11618.7276,W,67.15,289.81,010610,,,A*40
$GPRMC,041604.000,A,3345.8164,N,11618.7911,W,67.11,289.73,010610,,,A*40
$GPRMC,041607.000,A,3345.8354,N,11618.8538,W,66.10,289.78,010610,,,A*41
$GPRMC,041610.000,A,3345.8544,N,11618.9154,W,65.63,290.23,010610,,,A*4E
$GPRMC,041613.000,A,3345.8731,N,11618.9774,W,66.03,289.79,010610,,,A*4B
$GPRMC,041616.000,A,3345.8917,N,11619.0390,W,65.07,290.27,010610,,,A*46
$GPRMC,041619.000,A,3345.9112,N,11619.0987,W,62.96,293.52,010610,,,A*47
$GPRMC,041622.000,A,3345.9337,N,11619.1547,W,61.46,297.09,010610,,,A*4F
$GPRMC,041625.000,A,3345.9579,N,11619.2085,W,61.12,298.72,010610,,,A*4E
$GPRMC,041628.000,A,3345.9825,N,11619.2615,W,59.90,299.65,010610,,,A*4E
$GPRMC,041631.000,A,3346.0078,N,11619.3123,W,58.90,302.12,010610,,,A*4D
$GPRMC,041634.000,A,3346.0343,N,11619.3614,W,57.65,302.97,010610,,,A*48
$GPRMC,041637.000,A,3346.0607,N,11619.4083,W,55.96,304.46,010610,,,A*45
$GPRMC,041640.000,A,3346.0874,N,11619.4535,W,55.52,305.40,010610,,,A*48
$GPRMC,041643.000,A,3346.1145,N,11619.4995,W,57.33,304.27,010610,,,A*42
$GPRMC,041646.000,A,3346.1421,N,11619.5476,W,59.46,304.23,010610,,,A*49
$GPRMC,041649.000,A,3346.1709,N,11619.5974,W,61.48,305.11,010610,,,A*45
$GPRMC,041652.000,A,3346.2010,N,11619.6482,W,62.91,305.39,010610,,,A*49
$GPRMC,041655.000,V,3346.2315,N,11619.6997,W,63.33,305.40,010610,,,E*55
$GPRMC,041658.000,A,3346.2619,N,11619.7507,W,62.66,305.30,010610,,,A*40
$GPRMC,041701.000,A,3346.2915,N,11619.8002,W,60.86,305.43,010610,,,A*49
$GPRMC,041704.000,A,3346.3206,N,11619.8492,W,60.20,305.31,010610,,,A*40
$GPRMC,041707.000,A,3346.3499,N,11619.8980,W,60.09,305.91,010610,,,A*4C
$GPRMC,041710.000,A,3346.3791,N,11619.9470,W,60.18,305.28,010610,,,A*40
$GPRMC,041713.000,A,3346.4085,N,11619.9964,W,61.39,305.56,010610,,,A*45
$GPRMC,041716.000,A,3346.4384,N,11620.0466,W,62.00,305.46,010610,,,A*46
$GPRMC,041719.000,A,3346.4684,N,11620.0974,W,62.18,305.28,010610,,,A*43
$GPRMC,041722.000,A,3346.4985,N,11620.1478,W,61.64,305.34,010610,,,A*40
$GPRMC,041725.000,A,3346.5277,N,11620.1969,W,59.44,305.80,010610,,,A*4B
$GPRMC,041728.000,A,3346.5562,N,11620.2449,W,58.71,304.97,010610,,,A*49
$GPRMC,041731.000,A,3346.5840,N,11620.2922,W,57.07,305.52,010610,,,A*4A
$GPRMC,041734.000,A,3346.6112,N,11620.3381,W,55.92,305.39,010610,,,A*43
$GPRMC,041737.000,A,3346.6379,N,11620.3831,W,54.88,305.37,010610,,,A*4B
$GPRMC,041740.000,A,3346.6644,N,11620.4277,W,54.70,305.33,010610,,,A*4C
$GPRMC,041743.000,A,3346.6910,N,11620.4723,W,55.06,305.40,010610,,,A*41
$GPRMC,041746.000,A,3346.7177,N,11620.5173,W,55.72,305.33,010610,,,A*49
$GPRMC,041749.000,A,3346.7448,N,11620.5629,W,56.11,305.89,010610,,,A*40
$GPRMC,041752.000,A,3346.7724,N,11620.6089,W,56.92,305.24,010610,,,A*40
$GPRMC,041755.000,A,3346.7998,N,11620.6551,W,56.03,305.54,010610,,,A*41
$GPRMC,041758.000,A,3346.8267,N,11620.7004,W,55.25,305.31,010610,,,A*48
$GPRMC,041801.000,A,3346.8535,N,11620.7455,W,55.47,305.63,010610,,,A*48
$GPRMC,041804.000,A,3346.8804,N,11620.7906,W,55.66,305.39,010610,,,A*45
$GPRMC,041807.000,A,3346.9079,N,11620.8366,W,57.04,305.48,010610,,,A*46
$GPRMC,041810.000,A,3346.9351,N,11620.8826,W,55.60,305.71,010610,,,A*4C
$GPRMC,041813.000,A,3346.9620,N,11620.9276,W,55.59,305.86,010610,,,A*40
$GPRMC,041816.000,A,3346.9902,N,11620.9732,W,58.08,306.79,010610,,,A*45
$GPRMC,041819.000,A,3347.0194,N,11621.0211,W,60.36,305.77,010610,,,A*42
$GPRMC,041822.000,A,3347.0491,N,11621.0707,W,61.37,305.45,010610,,,A*49
$GPRMC,041825.000,A,3347.0791,N,11621.1211,W,62.07,305.57,010610,,,A*4D
$GPRMC,041828.000,A,3347.1091,N,11621.1715,W,61.68,305.34,010610,,,A*48
$GPRMC,041831.000,A,3347.1389,N,11621.2217,W,61.52,305.67,010610,,,A*41
$GPRMC,041834.000,A,3347.1686,N,11621.2714,W,60.77,305.54,010610,,,A*4E
$GPRMC,041837.000,A,3347.1985,N,11621.3211,W,61.03,305.28,010610,,,A*49
$GPRMC,041840.000,A,3347.2280,N,11621.3708,W,60.42,305.45,010610,,,A*46
$GPRMC,041843.000,A,3347.2567,N,11621.4192,W,58.45,305.55,010610,,,A*44
$GPRMC,041846.000,A,3347.2849,N,11621.4668,W,58.10,305.41,010610,,,A*47
$GPRMC,041849.000,A,3347.3133,N,11621.5142,W,58.77,305.59,010610,,,A*4B
$GPRMC,041852.000,A,3347.3419,N,11621.5629,W,60.04,305.18,010610,,,A*4C
$GPRMC,041855.000,A,3347.3709,N,11621.6121,W,59.91,305.40,010610,,,A*4E
$GPRMC,041858.000,A,3347.4001,N,11621.6607,W,59.85,305.78,010610,,,A*46
$GPRMC,041901.000,A,3347.4289,N,11621.7096,W,59.52,304.99,010610,,,A*42
$GPRMC,041904.000,A,3347.4575,N,11621.7577,W,58.82,305.69,010610,,,A*4B
$GPRMC,041907.000,A,3347.4859,N,11621.8056,W,58.45,305.16,010610,,,A*41
$GPRMC,041910.000,A,3347.5139,N,11621.8532,W,58.21,305.55,010610,,,A*4B
$GPRMC,041913.000,A,3347.5422,N,11621.9005,W,58.19,305.50,010610,,,A*49
$GPRMC,041916.000,A,3347.5704,N,11621.9480,W,58.27,305.10,010610,,,A*4B
$GPRMC,041919.000,A,3347.5984,N,11621.9954,W,57.95,305.32,010610,,,A*40
$GPRMC,041922.000,A,3347.6263,N,11622.0426,W,58.03,305.54,010610,,,A*4B
