NMEA Sentence Code,UTC Time,Status,Latitude,Latitude Direction,Longitude,Longitude Direction,Speed (knots),Track Angle (degrees true),Date,MagneticVariation,Magnetic Variation Direction,[FAA Mode]-Optional,Checksum
$GPRMC,225949.6,A,3333.486628,N,11741.179043,W,61.7,102.4,040910,,,A*4C
$GPRMC,225952.6,A,3333.475813,N,11741.117395,W,61.7,101.1,040910,,,A*4A
$GPRMC,225955.6,A,3333.464600,N,11741.057363,W,61.5,101.2,040910,,,A*4C
$GPRMC,225958.6,A,3333.454864,N,11740.995904,W,62.0,100.8,040910,,,A*4E
$GPRMC,230001.6,A,3333.445382,N,11740.935563,W,61.9,102.3,040910,,,A*48
$GPRMC,230004.6,A,3333.429514,N,11740.876385,W,61.8,107.6,040910,,,A*47
$GPRMC,230007.6,A,3333.404886,N,11740.821172,W,62.2,116.3,040910,,,A*49
$GPRMC,230010.6,A,3333.377420,N,11740.770889,W,59.1,124.4,040910,,,A*47
$GPRMC,230013.6,A,3333.348214,N,11740.726303,W,57.8,130.6,040910,,,A*43
$GPRMC,230016.6,A,3333.312907,N,11740.688932,W,57.1,137.8,040910,,,A*4D
$GPRMC,230019.6,A,3333.273715,N,11740.654152,W,57.8,143.0,040910,,,A*44
$GPRMC,230022.6,A,3333.229341,N,11740.625801,W,59.9,151.9,040910,,,A*4A
$GPRMC,230025.6,A,3333.180445,N,11740.602169,W,62.5,159.5,040910,,,A*4C
$GPRMC,230028.6,A,3333.128325,N,11740.585662,W,64.5,165.7,040910,,,A*49
$GPRMC,230031.6,A,3333.077872,N,11740.574490,W,61.3,168.3,040910,,,A*48
$GPRMC,230034.6,A,3333.026998,N,11740.561588,W,62.4,168.0,040910,,,A*47
$GPRMC,230037.6,A,3332.973837,N,11740.550065,W,62.7,168.3,040910,,,A*4C
$GPRMC,230040.6,A,3332.924669,N,11740.538208,W,61.7,167.6,040910,,,A*45
$GPRMC,230043.6,A,3332.876189,N,11740.524926,W,59.3,167.5,040910,,,A*4F
$GPRMC,230046.6,A,3332.828185,N,11740.512660,W,57.1,168.1,040910,,,A*42
$GPRMC,230049.6,A,3332.784357,N,11740.501829,W,55.9,167.6,040910,,,A*4A
$GPRMC,230052.6,A,3332.739078,N,11740.490226,W,55.5,167.8,040910,,,A*46
$GPRMC,230055.6,A,3332.694906,N,11740.479946,W,55.3,168.0,040910,,,A*4C
$GPRMC,230058.6,A,3332.650036,N,11740.468512,W,54.8,168.4,040910,,,A*40
$GPRMC,230101.6,A,3332.602262,N,11740.458469,W,55.0,171.2,040910,,,A*40
$GPRMC,230104.6,A,3332.556721,N,11740.456338,W,54.0,176.8,040910,,,A*44
$GPRMC,230107.6,A,3332.512271,N,11740.462207,W,53.7,184.2,040910,,,A*4A
$GPRMC,230110.6,A,3332.465999,N,11740.466268,W,54.8,185.4,040910,,,A*42
$GPRMC,230113.6,A,3332.420298,N,11740.473603,W,53.9,187.4,040910,,,A*43
$GPRMC,230116.6,A,3332.377109,N,11740.482314,W,51.2,189.6,040910,,,A*40
$GPRMC,230119.6,A,3332.333468,N,11740.492433,W,51.1,189.5,040910,,,A*4E
$GPRMC,230122.6,A,3332.290441,N,11740.498415,W,52.3,188.7,040910,,,A*49
$GPRMC,230125.6,A,3332.248979,N,11740.505311,W,49.8,187.3,040910,,,A*41
$GPRMC,230128.6,A,3332.214232,N,11740.508109,W,44.5,185.6,040910,,,A*40
$GPRMC,230131.6,A,3332.178345,N,11740.511998,W,42.6,183.5,040910,,,A*48
$GPRMC,230134.6,A,3332.148666,N,11740.514413,W,34.7,182.1,040910,,,A*44
$GPRMC,230137.6,A,3332.122375,N,11740.514215,W,31.6,178.9,040910,,,A*45
$GPRMC,230140.6,A,3332.097812,N,11740.515175,W,29.6,179.5,040910,,,A*40
$GPRMC,230143.6,A,3332.074707,N,11740.515761,W,29.0,178.9,040910,,,A*4D
$GPRMC,230146.6,A,3332.052371,N,11740.513935,W,26.6,177.0,040910,,,A*4F
$GPRMC,230149.6,A,3332.032177,N,11740.511944,W,24.4,175.3,040910,,,A*47
$GPRMC,230152.6,A,3332.015206,N,11740.510328,W,20.9,174.2,040910,,,A*45
$GPRMC,230155.6,A,3332.000332,N,11740.509668,W,18.9,176.1,040910,,,A*43
$GPRMC,230158.6,A,3331.985410,N,11740.507622,W,19.2,173.8,040910,,,A*48
$GPRMC,230201.6,A,3331.969364,N,11740.505361,W,19.3,172.6,040910,,,A*4F
$GPRMC,230204.6,A,3331.954469,N,11740.502907,W,17.7,169.9,040910,,,A*4C
$GPRMC,230207.6,A,3331.941786,N,11740.498804,W,16.3,166.4,040910,,,A*4E
$GPRMC,230210.6,A,3331.929968,N,11740.494104,W,15.7,164.3,040910,,,A*4F
$GPRMC,230213.6,A,3331.919442,N,11740.491177,W,14.8,163.5,040910,,,A*44
$GPRMC,230216.6,A,3331.906672,N,11740.485813,W,15.5,161.4,040910,,,A*4F
$GPRMC,230219.6,A,3331.891534,N,11740.479606,W,17.5,159.2,040910,,,A*48
$GPRMC,230222.6,A,3331.878851,N,11740.472888,W,15.6,157.2,040910,,,A*45
$GPRMC,230225.6,A,3331.867335,N,11740.466829,W,14.7,153.5,040910,,,A*48
$GPRMC,230228.6,A,3331.859084,N,11740.460460,W,11.3,150.5,040910,,,A*44
$GPRMC,230231.6,A,3331.851546,N,11740.455777,W,8.3,152.2,040910,,,A*71
$GPRMC,230234.6,A,3331.847276,N,11740.453887,W,6.0,150.0,040910,,,A*7C
$GPRMC,230237.6,A,3331.843497,N,11740.451113,W,5.4,148.8,040910,,,A*72
$GPRMC,230240.6,A,3331.839334,N,11740.447720,W,7.1,145.5,040910,,,A*77
$GPRMC,230243.6,A,3331.833637,N,11740.443454,W,9.5,148.2,040910,,,A*7C
$GPRMC,230246.6,A,3331.828346,N,11740.439772,W,8.3,148.3,040910,,,A*7C
$GPRMC,230249.6,A,3331.823657,N,11740.435043,W,9.0,134.8,040910,,,A*76
$GPRMC,230252.6,A,3331.818725,N,11740.429985,W,6.3,140.7,040910,,,A*7E
$GPRMC,230255.6,A,3331.816305,N,11740.427541,W,4.6,142.7,040910,,,A*7E
$GPRMC,230258.6,A,3331.811251,N,11740.423282,W,8.3,141.4,040910,,,A*71
$GPRMC,230301.6,A,3331.805878,N,11740.417416,W,8.0,141.4,040910,,,A*77
$GPRMC,230304.6,A,3331.801729,N,11740.411747,W,6.5,141.0,040910,,,A*73
$GPRMC,230307.6,A,3331.799637,N,11740.407875,W,5.0,140.4,040910,,,A*7A
$GPRMC,230310.6,A,3331.795552,N,11740.404754,W,5.3,139.0,040910,,,A*76
$GPRMC,230313.6,A,3331.791604,N,11740.400043,W,7.0,132.7,040910,,,A*79
$GPRMC,230316.6,A,3331.786923,N,11740.394199,W,7.6,133.1,040910,,,A*7D
$GPRMC,230319.6,A,3331.781467,N,11740.390148,W,6.5,141.0,040910,,,A*76
$GPRMC,230331.6,A,3331.771550,N,11740.380969,W,6.2,139.1,040910,,,A*75
$GPRMC,230334.6,A,3331.765870,N,11740.373227,W,8.9,131.9,040910,,,A*72
$GPRMC,230337.6,A,3331.760938,N,11740.365286,W,9.5,132.3,040910,,,A*71
$GPRMC,230340.6,A,3331.755656,N,11740.356027,W,11.3,128.0,040910,,,A*4E
$GPRMC,230343.6,A,3331.747985,N,11740.346930,W,13.3,129.7,040910,,,A*45
$GPRMC,230346.6,A,3331.741728,N,11740.336113,W,14.0,126.7,040910,,,A*4A
$GPRMC,230349.6,A,3331.732754,N,11740.324336,W,15.1,130.9,040910,,,A*45
$GPRMC,230352.6,A,3331.724475,N,11740.312954,W,14.6,126.7,040910,,,A*4C
$GPRMC,230355.6,A,3331.718565,N,11740.302968,W,10.0,124.0,040910,,,A*4D
$GPRMC,230358.6,A,3331.714795,N,11740.298360,W,6.3,131.2,040910,,,A*73
$GPRMC,230401.6,A,3331.712959,N,11740.295987,W,4.5,131.9,040910,,,A*71
$GPRMC,230404.6,A,3331.711415,N,11740.292361,W,4.6,127.1,040910,,,A*7B
$GPRMC,230407.6,A,3331.709649,N,11740.288748,W,4.4,124.8,040910,,,A*76
$GPRMC,230416.6,A,3331.705884,N,11740.282979,W,5.0,131.3,040910,,,A*79
$GPRMC,230419.6,A,3331.702627,N,11740.277868,W,6.6,131.0,040910,,,A*7B
$GPRMC,230422.6,A,3331.700296,N,11740.273101,W,4.7,126.5,040910,,,A*7D
$GPRMC,230425.6,A,3331.697771,N,11740.270744,W,4.8,129.6,040910,,,A*7E
$GPRMC,230428.6,A,3331.694202,N,11740.266852,W,5.7,130.0,040910,,,A*7E
$GPRMC,230431.6,A,3331.691322,N,11740.262116,W,5.8,131.6,040910,,,A*75
$GPRMC,230449.6,A,3331.677892,N,11740.245922,W,6.7,129.4,040910,,,A*7F
$GPRMC,230452.6,A,3331.674116,N,11740.240658,W,7.1,130.6,040910,,,A*79
$GPRMC,230455.6,A,3331.670877,N,11740.235390,W,6.6,129.1,040910,,,A*7E
$GPRMC,230458.6,A,3331.666232,N,11740.229243,W,8.5,130.6,040910,,,A*7F
$GPRMC,230501.6,A,3331.660310,N,11740.221613,W,9.6,133.0,040910,,,A*7B
$GPRMC,230504.6,A,3331.655784,N,11740.215177,W,8.1,134.2,040910,,,A*70
$GPRMC,230507.6,A,3331.650969,N,11740.208900,W,7.7,134.7,040910,,,A*73
$GPRMC,230510.6,A,3331.646839,N,11740.204492,W,5.3,138.2,040910,,,A*73
$GPRMC,230513.6,A,3331.643504,N,11740.200738,W,5.4,136.3,040910,,,A*79
$GPRMC,230516.6,A,3331.640173,N,11740.195881,W,6.1,129.5,040910,,,A*77
$GPRMC,230519.6,A,3331.637794,N,11740.192747,W,5.2,132.7,040910,,,A*7D
$GPRMC,230522.6,A,3331.634478,N,11740.189060,W,5.8,134.7,040910,,,A*73
$GPRMC,230525.6,A,3331.631893,N,11740.185420,W,5.4,133.8,040910,,,A*70
$GPRMC,230528.6,A,3331.628934,N,11740.182197,W,4.9,136.8,040910,,,A*7E
$GPRMC,230531.6,A,3331.624932,N,11740.177060,W,7.0,134.0,040910,,,A*7F
$GPRMC,230534.6,A,3331.619114,N,11740.170375,W,9.4,134.8,040910,,,A*7A
$GPRMC,230537.6,A,3331.613277,N,11740.163252,W,9.8,135.1,040910,,,A*77
$GPRMC,230540.6,A,3331.607112,N,11740.155932,W,10.7,133.9,040910,,,A*43
$GPRMC,230543.6,A,3331.598152,N,11740.148327,W,12.8,140.6,040910,,,A*45
$GPRMC,230546.6,A,3331.588869,N,11740.139683,W,13.6,135.6,040910,,,A*40
$GPRMC,230549.6,A,3331.580358,N,11740.130849,W,13.4,137.0,040910,,,A*49
$GPRMC,230552.6,A,3331.571338,N,11740.123823,W,12.3,144.2,040910,,,A*45
$GPRMC,230555.6,A,3331.561887,N,11740.116994,W,12.1,147.0,040910,,,A*44
$GPRMC,230558.6,A,3331.553362,N,11740.109041,W,13.2,147.1,040910,,,A*44
$GPRMC,230601.6,A,3331.542154,N,11740.101379,W,15.7,150.6,040910,,,A*4E
$GPRMC,230604.6,A,3331.531250,N,11740.092437,W,15.9,151.4,040910,,,A*43
$GPRMC,230607.6,A,3331.519982,N,11740.085727,W,16.0,151.6,040910,,,A*42
$GPRMC,230610.6,A,3331.508442,N,11740.077575,W,16.3,152.5,040910,,,A*4E
$GPRMC,230613.6,A,3331.497656,N,11740.070658,W,16.1,155.7,040910,,,A*41
$GPRMC,230616.6,A,3331.486619,N,11740.065231,W,16.0,160.3,040910,,,A*43
$GPRMC,230619.6,A,3331.475164,N,11740.058362,W,15.8,157.8,040910,,,A*40
$GPRMC,230622.6,A,3331.463469,N,11740.052698,W,16.4,161.2,040910,,,A*4D
$GPRMC,230625.6,A,3331.451257,N,11740.047458,W,14.8,162.0,040910,,,A*45
$GPRMC,230628.6,A,3331.444470,N,11740.044153,W,10.1,158.0,040910,,,A*46
$GPRMC,230631.6,A,3331.437423,N,11740.040533,W,10.1,158.7,040910,,,A*4D
$GPRMC,230634.6,A,3331.428619,N,11740.036752,W,10.7,161.2,040910,,,A*40
$GPRMC,230637.6,A,3331.418820,N,11740.032684,W,11.1,160.6,040910,,,A*48
$GPRMC,230640.6,A,3331.409934,N,11740.027337,W,10.8,156.0,040910,,,A*4E
$GPRMC,230643.6,A,3331.404469,N,11740.023379,W,9.6,161.0,040910,,,A*79
$GPRMC,230646.6,A,3331.396334,N,11740.019136,W,10.6,158.2,040910,,,A*4F
