NMEA Sentence Code,UTC Time,Status,Latitude,Latitude Direction,Longitude,Longitude Direction,Speed (knots),Track Angle (degrees true),Date,MagneticVariation,Magnetic Variation Direction,[FAA Mode]-Optional,Checksum
$GPRMC,211148.000,A,3246.4229,N,11700.3298,W,9.45,119.3,051110,,*21
$GPRMC,211151.000,A,3246.4170,N,11700.3217,W,10.60,122.3,051110,,*16
$GPRMC,211154.000,A,3246.4136,N,11700.3127,W,9.49,106.8,051110,,*2F
$GPRMC,211157.000,A,3246.4146,N,11700.3039,W,10.87,72.1,051110,,*24
$GPRMC,211200.000,A,3246.4213,N,11700.2959,W,14.42,39.0,051110,,*2B
$GPRMC,211203.000,A,3246.4345,N,11700.2891,W,21.71,24.8,051110,,*2D
$GPRMC,211206.000,A,3246.4542,N,11700.2812,W,26.87,19.4,051110,,*2E
$GPRMC,211209.000,A,3246.4765,N,11700.2724,W,29.71,18.5,051110,,*2A
$GPRMC,211212.000,A,3246.4993,N,11700.2632,W,28.28,20.1,051110,,*23
$GPRMC,211215.000,A,3246.5199,N,11700.2532,W,26.94,21.7,051110,,*2A
$GPRMC,211218.000,A,3246.5395,N,11700.2460,W,22.18,14.5,051110,,*2B
$GPRMC,211221.000,A,3246.5557,N,11700.2425,W,18.08,7.4,051110,,*13
$GPRMC,211224.000,A,3246.5697,N,11700.2435,W,16.74,354.2,051110,,*1E
$GPRMC,211227.000,A,3246.5826,N,11700.2467,W,18.35,347.4,051110,,*11
$GPRMC,211230.000,A,3246.5955,N,11700.2510,W,14.62,341.5,051110,,*1A
$GPRMC,211233.000,A,3246.6060,N,11700.2505,W,11.40,17.1,051110,,*20
$GPRMC,211236.000,A,3246.6145,N,11700.2403,W,15.23,46.6,051110,,*26
$GPRMC,211239.000,A,3246.6247,N,11700.2216,W,24.83,54.4,051110,,*23
$GPRMC,211242.000,A,3246.6382,N,11700.2006,W,28.57,52.9,051110,,*2A
$GPRMC,211245.000,A,3246.6535,N,11700.1748,W,35.48,55.8,051110,,*2D
$GPRMC,211248.000,A,3246.6694,N,11700.1377,W,41.68,60.2,051110,,*2D
$GPRMC,211251.000,A,3246.6866,N,11700.0980,W,45.44,61.9,051110,,*25
$GPRMC,211254.000,A,3246.7025,N,11700.0551,W,46.92,63.8,051110,,*25
$GPRMC,211257.000,A,3246.7200,N,11700.0114,W,46.90,65.3,051110,,*29
$GPRMC,211300.000,A,3246.7332,N,11659.9681,W,45.61,72.2,051110,,*2F
$GPRMC,211303.000,A,3246.7394,N,11659.9236,W,46.01,81.8,051110,,*2B
$GPRMC,211306.000,A,3246.7413,N,11659.8764,W,49.06,87.2,051110,,*21
$GPRMC,211309.000,A,3246.7430,N,11659.8266,W,51.04,87.6,051110,,*27
$GPRMC,211312.000,A,3246.7429,N,11659.7773,W,49.55,89.2,051110,,*2C
$GPRMC,211315.000,A,3246.7423,N,11659.7277,W,50.92,89.0,051110,,*21
$GPRMC,211318.000,A,3246.7425,N,11659.6762,W,53.11,88.8,051110,,*2B
$GPRMC,211321.000,A,3246.7421,N,11659.6234,W,52.90,90.3,051110,,*29
$GPRMC,211324.000,A,3246.7407,N,11659.5741,W,48.58,90.8,051110,,*28
$GPRMC,211327.000,A,3246.7400,N,11659.5246,W,51.86,89.8,051110,,*2D
$GPRMC,211330.000,A,3246.7395,N,11659.4717,W,55.12,90.3,051110,,*2A
$GPRMC,211333.000,A,3246.7385,N,11659.4168,W,55.95,90.1,051110,,*2B
$GPRMC,211336.000,A,3246.7387,N,11659.3611,W,56.38,89.5,051110,,*2A
$GPRMC,211339.000,A,3246.7382,N,11659.3059,W,55.06,91.0,051110,,*28
$GPRMC,211342.000,A,3246.7361,N,11659.2520,W,53.84,91.5,051110,,*2A
$GPRMC,211345.000,A,3246.7346,N,11659.1993,W,52.16,91.0,051110,,*20
$GPRMC,211348.000,A,3246.7359,N,11659.1485,W,51.10,84.9,051110,,*21
$GPRMC,211351.000,A,3246.7446,N,11659.0997,W,50.94,76.3,051110,,*25
$GPRMC,211354.000,A,3246.7591,N,11659.0524,W,50.68,68.2,051110,,*22
$GPRMC,211357.000,A,3246.7794,N,11659.0088,W,51.22,59.5,051110,,*2F
$GPRMC,211400.000,A,3246.8052,N,11658.9696,W,51.01,50.5,051110,,*21
$GPRMC,211403.000,A,3246.8357,N,11658.9356,W,51.51,42.6,051110,,*28
$GPRMC,211406.000,A,3246.8706,N,11658.9075,W,51.46,33.4,051110,,*2D
$GPRMC,211409.000,A,3246.9105,N,11658.8845,W,54.38,26.5,051110,,*25
$GPRMC,211412.000,A,3246.9514,N,11658.8622,W,54.02,25.5,051110,,*2E
$GPRMC,211415.000,A,3246.9933,N,11658.8397,W,55.32,25.2,051110,,*2E
$GPRMC,211418.000,A,3247.0359,N,11658.8163,W,55.89,26.0,051110,,*25
$GPRMC,211421.000,A,3247.0769,N,11658.7897,W,56.91,29.6,051110,,*26
$GPRMC,211424.000,A,3247.1177,N,11658.7599,W,56.62,32.4,051110,,*2C
$GPRMC,211427.000,A,3247.1577,N,11658.7296,W,56.14,32.6,051110,,*20
$GPRMC,211430.000,A,3247.1975,N,11658.7018,W,55.28,28.9,051110,,*24
$GPRMC,211433.000,A,3247.2394,N,11658.6802,W,54.85,22.5,051110,,*23
$GPRMC,211436.000,A,3247.2834,N,11658.6656,W,53.47,15.4,051110,,*24
$GPRMC,211439.000,A,3247.3280,N,11658.6587,W,53.87,6.9,051110,,*13
$GPRMC,211442.000,A,3247.3735,N,11658.6578,W,55.15,2.0,051110,,*14
$GPRMC,211445.000,A,3247.4202,N,11658.6587,W,55.98,0.5,051110,,*17
$GPRMC,211448.000,A,3247.4675,N,11658.6584,W,56.27,1.4,051110,,*1A
$GPRMC,211451.000,A,3247.5148,N,11658.6547,W,56.03,5.0,051110,,*13
$GPRMC,211454.000,A,3247.5615,N,11658.6481,W,56.35,7.3,051110,,*16
$GPRMC,211457.000,A,3247.6080,N,11658.6409,W,56.46,7.5,051110,,*1E
$GPRMC,211500.000,A,3247.6543,N,11658.6333,W,55.00,7.5,051110,,*18
$GPRMC,211503.000,A,3247.6992,N,11658.6267,W,52.96,7.6,051110,,*10
$GPRMC,211506.000,A,3247.7422,N,11658.6200,W,53.12,7.6,051110,,*1E
$GPRMC,211509.000,A,3247.7870,N,11658.6143,W,53.31,5.9,051110,,*12
$GPRMC,211512.000,A,3247.8317,N,11658.6085,W,54.11,6.9,051110,,*10
$GPRMC,211515.000,A,3247.8768,N,11658.5991,W,55.06,10.8,051110,,*25
$GPRMC,211518.000,A,3247.9209,N,11658.5840,W,55.16,17.4,051110,,*2C
$GPRMC,211521.000,A,3247.9636,N,11658.5627,W,55.83,23.6,051110,,*28
$GPRMC,211524.000,A,3248.0054,N,11658.5353,W,57.44,29.8,051110,,*22
$GPRMC,211527.000,A,3248.0444,N,11658.5011,W,58.99,36.7,051110,,*2F
$GPRMC,211530.000,A,3248.0802,N,11658.4607,W,59.45,43.4,051110,,*26
$GPRMC,211533.000,A,3248.1115,N,11658.4149,W,59.12,50.7,051110,,*25
$GPRMC,211536.000,A,3248.1381,N,11658.3648,W,59.33,58.0,051110,,*22
$GPRMC,211539.000,A,3248.1585,N,11658.3110,W,59.23,65.7,051110,,*2D
$GPRMC,211542.000,A,3248.1725,N,11658.2540,W,59.02,73.0,051110,,*2A
$GPRMC,211545.000,A,3248.1812,N,11658.1954,W,60.70,80.7,051110,,*28
$GPRMC,211548.000,A,3248.1824,N,11658.1344,W,61.25,87.2,051110,,*28
$GPRMC,211551.000,A,3248.1823,N,11658.0726,W,62.03,89.2,051110,,*2F
$GPRMC,211554.000,A,3248.1812,N,11658.0113,W,62.21,89.7,051110,,*2D
$GPRMC,211557.000,A,3248.1807,N,11657.9494,W,61.86,90.0,051110,,*27
$GPRMC,211600.000,A,3248.1798,N,11657.8880,W,61.48,90.2,051110,,*27
$GPRMC,211603.000,A,3248.1795,N,11657.8282,W,59.51,90.4,051110,,*24
$GPRMC,211606.000,A,3248.1787,N,11657.7694,W,60.16,90.3,051110,,*20
$GPRMC,211609.000,A,3248.1784,N,11657.7091,W,61.48,90.4,051110,,*22
$GPRMC,211612.000,A,3248.1780,N,11657.6473,W,63.20,89.8,051110,,*2D
$GPRMC,211615.000,A,3248.1784,N,11657.5838,W,64.21,89.8,051110,,*28
$GPRMC,211618.000,A,3248.1781,N,11657.5206,W,63.36,89.9,051110,,*27
$GPRMC,211621.000,A,3248.1781,N,11657.4582,W,62.60,90.0,051110,,*24
$GPRMC,211624.000,A,3248.1776,N,11657.3965,W,63.04,90.0,051110,,*28
$GPRMC,211627.000,A,3248.1779,N,11657.3335,W,64.06,89.7,051110,,*21
$GPRMC,211630.000,A,3248.1779,N,11657.2703,W,63.19,89.9,051110,,*20
$GPRMC,211633.000,A,3248.1778,N,11657.2096,W,59.98,89.7,051110,,*27
$GPRMC,211636.000,A,3248.1781,N,11657.1516,W,57.92,89.6,051110,,*2F
$GPRMC,211639.000,A,3248.1785,N,11657.0939,W,58.11,90.0,051110,,*2E
$GPRMC,211642.000,A,3248.1783,N,11657.0356,W,59.18,89.5,051110,,*22
$GPRMC,211645.000,A,3248.1781,N,11656.9764,W,60.64,89.7,051110,,*29
$GPRMC,211648.000,A,3248.1785,N,11656.9162,W,61.12,89.5,051110,,*22
$GPRMC,211651.000,A,3248.1786,N,11656.8558,W,60.22,89.8,051110,,*2A
$GPRMC,211654.000,A,3248.1782,N,11656.7969,W,59.13,89.7,051110,,*2D
$GPRMC,211657.000,A,3248.1785,N,11656.7386,W,58.67,89.6,051110,,*21
$GPRMC,211700.000,A,3248.1789,N,11656.6805,W,58.89,89.6,051110,,*2F
$GPRMC,211703.000,A,3248.1789,N,11656.6227,W,58.21,89.6,051110,,*24
$GPRMC,211706.000,A,3248.1793,N,11656.5649,W,58.31,89.5,051110,,*27
$GPRMC,211709.000,A,3248.1788,N,11656.5080,W,57.31,89.8,051110,,*23
$GPRMC,211712.000,A,3248.1787,N,11656.4519,W,55.83,89.8,051110,,*29
$GPRMC,211715.000,A,3248.1787,N,11656.3977,W,54.10,89.6,051110,,*28
$GPRMC,211718.000,A,3248.1792,N,11656.3447,W,52.94,89.5,051110,,*26
$GPRMC,211721.000,A,3248.1792,N,11656.2933,W,51.01,89.8,051110,,*21
$GPRMC,211724.000,A,3248.1790,N,11656.2434,W,50.86,89.8,051110,,*22
$GPRMC,211727.000,A,3248.1790,N,11656.1927,W,51.27,89.9,051110,,*26
$GPRMC,211730.000,A,3248.1789,N,11656.1425,W,50.61,89.6,051110,,*2B
$GPRMC,211733.000,A,3248.1793,N,11656.0930,W,49.75,89.4,051110,,*24
$GPRMC,211736.000,A,3248.1800,N,11656.0444,W,49.28,89.0,051110,,*26
$GPRMC,211739.000,A,3248.1803,N,11655.9953,W,50.56,89.2,051110,,*28
$GPRMC,211742.000,A,3248.1802,N,11655.9457,W,49.85,89.7,051110,,*2F
$GPRMC,211745.000,A,3248.1801,N,11655.8977,W,48.08,89.8,051110,,*2E
$GPRMC,211748.000,A,3248.1799,N,11655.8512,W,45.63,89.7,051110,,*2D
$GPRMC,211751.000,A,3248.1803,N,11655.8070,W,44.19,89.7,051110,,*24
$GPRMC,211754.000,A,3248.1804,N,11655.7634,W,43.85,89.8,051110,,*22
$GPRMC,211757.000,A,3248.1803,N,11655.7202,W,43.37,90.1,051110,,*2F
$GPRMC,211800.000,A,3248.1804,N,11655.6773,W,43.54,89.5,051110,,*2E
$GPRMC,211803.000,A,3248.1824,N,11655.6337,W,44.42,86.1,051110,,*20
$GPRMC,211806.000,A,3248.1870,N,11655.5896,W,45.16,81.9,051110,,*28
$GPRMC,211809.000,A,3248.1953,N,11655.5442,W,47.89,77.0,051110,,*26
$GPRMC,211812.000,A,3248.2076,N,11655.4985,W,49.32,72.0,051110,,*2D
$GPRMC,211815.000,A,3248.2238,N,11655.4526,W,50.99,67.1,051110,,*2B
$GPRMC,211818.000,A,3248.2427,N,11655.4079,W,49.92,61.9,051110,,*2C
$GPRMC,211821.000,A,3248.2650,N,11655.3658,W,49.71,56.8,051110,,*2E
$GPRMC,211824.000,A,3248.2908,N,11655.3271,W,49.89,51.3,051110,,*2D
$GPRMC,211827.000,A,3248.3185,N,11655.2925,W,46.18,46.4,051110,,*2F
$GPRMC,211830.000,A,3248.3442,N,11655.2641,W,40.31,42.1,051110,,*26
$GPRMC,211833.000,A,3248.3689,N,11655.2398,W,39.90,38.1,051110,,*29
$GPRMC,211836.000,A,3248.3962,N,11655.2168,W,40.74,34.0,051110,,*22
$GPRMC,211839.000,A,3248.4245,N,11655.1971,W,39.93,29.9,051110,,*25
$GPRMC,211842.000,A,3248.4539,N,11655.1785,W,41.18,27.8,051110,,*23
$GPRMC,211845.000,A,3248.4843,N,11655.1599,W,40.24,27.0,051110,,*2D
$GPRMC,211848.000,A,3248.5142,N,11655.1420,W,40.59,27.0,051110,,*20
$GPRMC,211851.000,A,3248.5448,N,11655.1231,W,42.34,27.7,051110,,*2F
$GPRMC,211854.000,A,3248.5768,N,11655.1032,W,44.76,28.0,051110,,*22
$GPRMC,211857.000,A,3248.6102,N,11655.0815,W,47.50,28.0,051110,,*23
$GPRMC,211900.000,A,3248.6455,N,11655.0588,W,49.08,27.8,051110,,*2A
$GPRMC,211903.000,A,3248.6817,N,11655.0357,W,49.05,28.0,051110,,*2D
$GPRMC,211906.000,A,3248.7178,N,11655.0132,W,48.19,28.0,051110,,*24
$GPRMC,211909.000,A,3248.7529,N,11654.9911,W,47.53,27.9,051110,,*2D
$GPRMC,211912.000,A,3248.7873,N,11654.9675,W,47.97,30.7,051110,,*28
$GPRMC,211915.000,A,3248.8201,N,11654.9416,W,46.90,34.5,051110,,*28
$GPRMC,211918.000,A,3248.8502,N,11654.9137,W,45.40,38.8,051110,,*28
$GPRMC,211921.000,A,3248.8781,N,11654.8847,W,43.01,41.1,051110,,*20
$GPRMC,211924.000,A,3248.9053,N,11654.8559,W,44.11,41.5,051110,,*2C
$GPRMC,211927.000,A,3248.9332,N,11654.8262,W,46.03,41.5,051110,,*25
$GPRMC,211930.000,A,3248.9623,N,11654.7952,W,48.17,42.0,051110,,*2C
$GPRMC,211933.000,A,3248.9920,N,11654.7633,W,47.39,41.7,051110,,*2C
$GPRMC,211936.000,A,3249.0206,N,11654.7322,W,46.00,41.7,051110,,*20
$GPRMC,211939.000,A,3249.0486,N,11654.7030,W,44.62,40.3,051110,,*22
$GPRMC,211942.000,A,3249.0788,N,11654.6759,W,45.45,36.3,051110,,*2F
$GPRMC,211945.000,A,3249.1105,N,11654.6513,W,46.28,32.0,051110,,*29
$GPRMC,211948.000,A,3249.1453,N,11654.6300,W,48.41,26.4,051110,,*26
$GPRMC,211951.000,A,3249.1848,N,11654.6100,W,54.20,23.3,051110,,*22
$GPRMC,211954.000,A,3249.2273,N,11654.5878,W,57.27,23.9,051110,,*2D
$GPRMC,211957.000,A,3249.2715,N,11654.5630,W,60.33,26.3,051110,,*27
$GPRMC,212000.000,A,3249.3152,N,11654.5321,W,60.75,31.6,051110,,*2F
$GPRMC,212003.000,A,3249.3556,N,11654.4970,W,59.98,37.5,051110,,*2F
$GPRMC,212006.000,A,3249.3926,N,11654.4576,W,60.04,43.0,051110,,*22
$GPRMC,212009.000,A,3249.4264,N,11654.4147,W,59.55,46.7,051110,,*2D
$GPRMC,212012.000,A,3249.4595,N,11654.3712,W,59.21,48.0,051110,,*25
$GPRMC,212015.000,A,3249.4918,N,11654.3278,W,57.97,48.1,051110,,*20
$GPRMC,212018.000,A,3249.5234,N,11654.2854,W,56.96,48.1,051110,,*2C
$GPRMC,212021.000,A,3249.5551,N,11654.2437,W,56.43,48.2,051110,,*20
$GPRMC,212024.000,A,3249.5868,N,11654.2016,W,57.87,48.2,051110,,*2C
$GPRMC,212027.000,A,3249.6193,N,11654.1580,W,58.64,48.1,051110,,*29
$GPRMC,212030.000,A,3249.6520,N,11654.1143,W,60.00,48.2,051110,,*22
$GPRMC,212033.000,A,3249.6860,N,11654.0698,W,61.14,48.2,051110,,*2C
$GPRMC,212036.000,A,3249.7197,N,11654.0245,W,60.36,48.3,051110,,*2D
$GPRMC,212039.000,A,3249.7530,N,11653.9804,W,59.67,48.2,051110,,*25
$GPRMC,212042.000,A,3249.7855,N,11653.9369,W,58.42,48.0,051110,,*23
$GPRMC,212045.000,A,3249.8179,N,11653.8941,W,57.72,47.8,051110,,*26
$GPRMC,212048.000,A,3249.8509,N,11653.8527,W,57.47,46.1,051110,,*2A
$GPRMC,212051.000,A,3249.8846,N,11653.8133,W,56.40,44.3,051110,,*23
$GPRMC,212054.000,A,3249.9192,N,11653.7752,W,56.29,42.9,051110,,*2A
$GPRMC,212057.000,A,3249.9542,N,11653.7380,W,56.37,41.9,051110,,*27
$GPRMC,212100.000,A,3249.9895,N,11653.7007,W,57.44,41.8,051110,,*2B
$GPRMC,212103.000,A,3250.0256,N,11653.6628,W,58.54,41.5,051110,,*25
$GPRMC,212106.000,A,3250.0621,N,11653.6244,W,58.27,41.5,051110,,*2E
$GPRMC,212109.000,A,3250.0983,N,11653.5860,W,58.87,41.7,051110,,*21
$GPRMC,212112.000,A,3250.1352,N,11653.5469,W,59.79,41.7,051110,,*29
$GPRMC,212115.000,A,3250.1727,N,11653.5077,W,58.88,41.5,051110,,*2E
$GPRMC,212118.000,A,3250.2091,N,11653.4698,W,57.41,41.7,051110,,*24
$GPRMC,212121.000,A,3250.2444,N,11653.4326,W,55.53,41.5,051110,,*21
$GPRMC,212124.000,A,3250.2782,N,11653.3962,W,54.00,41.8,051110,,*2A
$GPRMC,212127.000,A,3250.3114,N,11653.3603,W,54.38,41.8,051110,,*22
$GPRMC,212130.000,A,3250.3458,N,11653.3242,W,56.12,41.7,051110,,*2D
$GPRMC,212133.000,A,3250.3813,N,11653.2867,W,57.29,41.6,051110,,*29
$GPRMC,212136.000,A,3250.4175,N,11653.2492,W,58.04,41.5,051110,,*27
$GPRMC,212139.000,A,3250.4534,N,11653.2110,W,57.97,41.7,051110,,*21
$GPRMC,212142.000,A,3250.4899,N,11653.1724,W,59.03,41.6,051110,,*27
$GPRMC,212145.000,A,3250.5270,N,11653.1333,W,59.48,41.8,051110,,*2F
$GPRMC,212148.000,A,3250.5633,N,11653.0924,W,60.21,44.2,051110,,*26
$GPRMC,212151.000,A,3250.5958,N,11653.0477,W,58.68,50.0,051110,,*26
$GPRMC,212154.000,A,3250.6232,N,11653.0011,W,56.26,55.0,051110,,*22
$GPRMC,212157.000,A,3250.6460,N,11652.9537,W,54.30,60.2,051110,,*28
$GPRMC,212200.000,A,3250.6632,N,11652.9043,W,53.67,67.3,051110,,*29
$GPRMC,212203.000,A,3250.6769,N,11652.8537,W,53.51,73.0,051110,,*21
$GPRMC,212206.000,A,3250.6883,N,11652.8023,W,53.46,75.0,051110,,*2F
$GPRMC,212209.000,A,3250.6991,N,11652.7508,W,53.74,75.8,051110,,*28
$GPRMC,212212.000,A,3250.7100,N,11652.6992,W,54.14,75.5,051110,,*21
$GPRMC,212215.000,A,3250.7220,N,11652.6477,W,54.12,73.9,051110,,*2D
$GPRMC,212218.000,A,3250.7372,N,11652.5968,W,54.36,68.4,051110,,*27
$GPRMC,212221.000,A,3250.7585,N,11652.5486,W,54.84,62.4,051110,,*2D
$GPRMC,212224.000,A,3250.7824,N,11652.5022,W,54.70,57.5,051110,,*28
$GPRMC,212227.000,A,3250.8099,N,11652.4590,W,54.22,51.8,051110,,*2B
$GPRMC,212230.000,A,3250.8402,N,11652.4205,W,54.11,46.1,051110,,*2F
$GPRMC,212233.000,A,3250.8736,N,11652.3843,W,54.50,41.6,051110,,*22
$GPRMC,212236.000,A,3250.9084,N,11652.3491,W,55.10,40.6,051110,,*2F
$GPRMC,212239.000,A,3250.9437,N,11652.3139,W,55.46,40.4,051110,,*2A
$GPRMC,212242.000,A,3250.9790,N,11652.2778,W,55.77,40.7,051110,,*2B
$GPRMC,212245.000,A,3251.0140,N,11652.2420,W,55.83,41.1,051110,,*2D
$GPRMC,212248.000,A,3251.0479,N,11652.2038,W,55.75,44.9,051110,,*26
$GPRMC,212251.000,A,3251.0778,N,11652.1623,W,54.90,50.1,051110,,*24
$GPRMC,212254.000,A,3251.1040,N,11652.1182,W,54.09,55.6,051110,,*22
$GPRMC,212257.000,A,3251.1260,N,11652.0718,W,54.00,61.0,051110,,*2D
$GPRMC,212300.000,A,3251.1447,N,11652.0238,W,53.82,66.0,051110,,*20
$GPRMC,212303.000,A,3251.1610,N,11651.9742,W,54.01,68.7,051110,,*24
$GPRMC,212306.000,A,3251.1770,N,11651.9240,W,54.58,68.2,051110,,*28
$GPRMC,212309.000,A,3251.1934,N,11651.8737,W,54.83,69.3,051110,,*2B
$GPRMC,212312.000,A,3251.2092,N,11651.8227,W,55.13,69.8,051110,,*20
$GPRMC,212315.000,A,3251.2249,N,11651.7710,W,55.55,71.3,051110,,*2D
$GPRMC,212318.000,A,3251.2367,N,11651.7173,W,55.99,76.9,051110,,*23
$GPRMC,212321.000,A,3251.2426,N,11651.6622,W,56.28,82.5,051110,,*27
$GPRMC,212324.000,A,3251.2457,N,11651.6068,W,56.20,87.0,051110,,*24
$GPRMC,212327.000,A,3251.2440,N,11651.5509,W,56.38,92.3,051110,,*2E
$GPRMC,212330.000,A,3251.2378,N,11651.4953,W,56.25,97.2,051110,,*2E
$GPRMC,212333.000,A,3251.2309,N,11651.4400,W,56.42,97.9,051110,,*2A
$GPRMC,212336.000,A,3251.2242,N,11651.3848,W,56.02,98.4,051110,,*20
$GPRMC,212339.000,A,3251.2176,N,11651.3296,W,55.82,98.1,051110,,*2C
$GPRMC,212342.000,A,3251.2110,N,11651.2751,W,55.34,98.2,051110,,*21
$GPRMC,212345.000,A,3251.2046,N,11651.2213,W,54.91,98.3,051110,,*28
$GPRMC,212348.000,A,3251.1977,N,11651.1677,W,54.71,98.2,051110,,*27
$GPRMC,212351.000,A,3251.1910,N,11651.1143,W,54.62,98.3,051110,,*2D
$GPRMC,212354.000,A,3251.1847,N,11651.0609,W,54.67,98.4,051110,,*21
$GPRMC,212357.000,A,3251.1786,N,11651.0074,W,54.40,97.6,051110,,*24
$GPRMC,212400.000,A,3251.1737,N,11650.9538,W,55.01,96.3,051110,,*2E
$GPRMC,212403.000,A,3251.1697,N,11650.8992,W,55.72,94.5,051110,,*2B
$GPRMC,212406.000,A,3251.1674,N,11650.8436,W,56.71,92.5,051110,,*26
$GPRMC,212409.000,A,3251.1671,N,11650.7869,W,56.82,90.4,051110,,*2A
$GPRMC,212412.000,A,3251.1685,N,11650.7311,W,55.90,88.5,051110,,*27
$GPRMC,212415.000,A,3251.1704,N,11650.6759,W,55.64,86.4,051110,,*25
$GPRMC,212418.000,A,3251.1750,N,11650.6210,W,55.66,84.2,051110,,*27
$GPRMC,212421.000,A,3251.1804,N,11650.5655,W,56.54,83.7,051110,,*25
$GPRMC,212424.000,A,3251.1857,N,11650.5098,W,56.88,83.5,051110,,*22
$GPRMC,212427.000,A,3251.1921,N,11650.4538,W,56.46,82.8,051110,,*21
$GPRMC,212430.000,A,3251.2002,N,11650.3987,W,56.37,80.0,051110,,*2F
$GPRMC,212433.000,A,3251.2117,N,11650.3448,W,56.56,75.2,051110,,*28
$GPRMC,212436.000,A,3251.2275,N,11650.2917,W,57.03,69.7,051110,,*25
$GPRMC,212439.000,A,3251.2468,N,11650.2398,W,57.40,65.7,051110,,*26
$GPRMC,212442.000,A,3251.2673,N,11650.1884,W,57.04,64.9,051110,,*28
$GPRMC,212445.000,A,3251.2873,N,11650.1377,W,56.83,64.7,051110,,*26
$GPRMC,212448.000,A,3251.3070,N,11650.0867,W,56.91,65.0,051110,,*2F
$GPRMC,212451.000,A,3251.3259,N,11650.0352,W,57.10,66.7,051110,,*2F
$GPRMC,212454.000,A,3251.3425,N,11649.9825,W,57.33,70.2,051110,,*2E
$GPRMC,212457.000,A,3251.3566,N,11649.9282,W,57.32,73.5,051110,,*29
$GPRMC,212500.000,A,3251.3680,N,11649.8734,W,57.03,76.8,051110,,*22
$GPRMC,212503.000,A,3251.3768,N,11649.8181,W,56.93,80.1,051110,,*26
$GPRMC,212506.000,A,3251.3822,N,11649.7622,W,56.83,83.8,051110,,*28
$GPRMC,212509.000,A,3251.3852,N,11649.7059,W,56.97,86.2,051110,,*20
$GPRMC,212512.000,A,3251.3880,N,11649.6494,W,57.19,86.8,051110,,*2C
$GPRMC,212515.000,A,3251.3901,N,11649.5930,W,56.98,87.3,051110,,*21
$GPRMC,212518.000,A,3251.3925,N,11649.5367,W,56.78,87.0,051110,,*2F
$GPRMC,212521.000,A,3251.3952,N,11649.4806,W,56.62,87.1,051110,,*22
$GPRMC,212524.000,A,3251.3973,N,11649.4244,W,56.50,87.3,051110,,*2B
$GPRMC,212527.000,A,3251.3991,N,11649.3688,W,56.74,87.1,051110,,*23
$GPRMC,212530.000,A,3251.4015,N,11649.3124,W,57.02,87.0,051110,,*27
$GPRMC,212533.000,A,3251.4040,N,11649.2559,W,56.75,87.0,051110,,*2A
$GPRMC,212536.000,A,3251.4064,N,11649.2001,W,56.69,87.3,051110,,*2F
$GPRMC,212539.000,A,3251.4087,N,11649.1444,W,56.79,87.3,051110,,*2A
$GPRMC,212542.000,A,3251.4103,N,11649.0876,W,57.51,88.0,051110,,*20
$GPRMC,212545.000,A,3251.4089,N,11649.0311,W,57.66,93.0,051110,,*20
$GPRMC,212548.000,A,3251.4013,N,11648.9746,W,57.50,99.8,051110,,*27
$GPRMC,212551.000,A,3251.3882,N,11648.9200,W,57.56,106.9,051110,,*1F
$GPRMC,212554.000,A,3251.3693,N,11648.8672,W,58.12,113.7,051110,,*11
$GPRMC,212557.000,A,3251.3458,N,11648.8168,W,57.92,120.4,051110,,*1F
$GPRMC,212600.000,A,3251.3170,N,11648.7706,W,57.93,126.9,051110,,*1A
$GPRMC,212603.000,A,3251.2842,N,11648.7288,W,57.63,133.7,051110,,*16
$GPRMC,212606.000,A,3251.2462,N,11648.6928,W,57.48,141.3,051110,,*15
$GPRMC,212609.000,A,3251.2049,N,11648.6622,W,57.74,146.6,051110,,*1F
$GPRMC,212612.000,A,3251.1624,N,11648.6332,W,58.42,148.7,051110,,*1A
$GPRMC,212615.000,A,3251.1198,N,11648.6038,W,59.11,149.0,051110,,*15
$GPRMC,212618.000,A,3251.0764,N,11648.5741,W,59.86,149.1,051110,,*19
$GPRMC,212621.000,A,3251.0337,N,11648.5442,W,59.29,149.3,051110,,*16
$GPRMC,212624.000,A,3250.9917,N,11648.5142,W,57.56,148.1,051110,,*13
$GPRMC,212627.000,A,3250.9529,N,11648.4811,W,56.90,143.1,051110,,*1F
$GPRMC,212630.000,A,3250.9189,N,11648.4429,W,56.51,136.6,051110,,*18
$GPRMC,212633.000,A,3250.8881,N,11648.4014,W,56.04,132.7,051110,,*14
$GPRMC,212636.000,A,3250.8574,N,11648.3600,W,55.68,131.9,051110,,*16
$GPRMC,212639.000,A,3250.8268,N,11648.3190,W,55.76,131.9,051110,,*12
$GPRMC,212642.000,A,3250.7961,N,11648.2774,W,56.19,131.8,051110,,*15
$GPRMC,212645.000,A,3250.7648,N,11648.2359,W,56.47,131.9,051110,,*17
$GPRMC,212648.000,A,3250.7332,N,11648.1947,W,56.56,132.0,051110,,*1E
$GPRMC,212651.000,A,3250.7031,N,11648.1518,W,56.81,129.2,051110,,*12
$GPRMC,212654.000,A,3250.6758,N,11648.1059,W,56.66,124.5,051110,,*1D
$GPRMC,212657.000,A,3250.6525,N,11648.0573,W,56.27,119.3,051110,,*17
$GPRMC,212700.000,A,3250.6336,N,11648.0061,W,56.70,114.5,051110,,*1F
$GPRMC,212703.000,A,3250.6157,N,11647.9546,W,56.70,113.3,051110,,*1E
$GPRMC,212706.000,A,3250.5978,N,11647.9031,W,57.02,113.0,051110,,*1F
$GPRMC,212709.000,A,3250.5798,N,11647.8510,W,57.17,112.9,051110,,*1B
$GPRMC,212712.000,A,3250.5619,N,11647.7994,W,56.91,112.9,051110,,*19
$GPRMC,212715.000,A,3250.5437,N,11647.7480,W,56.62,113.1,051110,,*1D
$GPRMC,212718.000,A,3250.5255,N,11647.6964,W,56.58,113.0,051110,,*1C
$GPRMC,212721.000,A,3250.5071,N,11647.6449,W,56.59,112.9,051110,,*19
$GPRMC,212724.000,A,3250.4889,N,11647.5933,W,56.72,113.0,051110,,*10
$GPRMC,212727.000,A,3250.4701,N,11647.5414,W,57.06,113.1,051110,,*17
$GPRMC,212730.000,A,3250.4514,N,11647.4894,W,56.90,113.2,051110,,*1F
$GPRMC,212733.000,A,3250.4329,N,11647.4380,W,56.78,113.1,051110,,*1F
$GPRMC,212736.000,A,3250.4150,N,11647.3868,W,56.66,113.1,051110,,*13
$GPRMC,212739.000,A,3250.3968,N,11647.3350,W,56.69,112.8,051110,,*1F
$GPRMC,212742.000,A,3250.3786,N,11647.2828,W,56.37,111.1,051110,,*19
$GPRMC,212745.000,A,3250.3647,N,11647.2303,W,54.07,107.0,051110,,*17
$GPRMC,212748.000,A,3250.3557,N,11647.1831,W,46.83,102.3,051110,,*18
$GPRMC,212751.000,A,3250.3495,N,11647.1384,W,45.60,98.0,051110,,*25
$GPRMC,212754.000,A,3250.3477,N,11647.0930,W,46.49,93.1,051110,,*2A
$GPRMC,212757.000,A,3250.3487,N,11647.0471,W,47.40,87.9,051110,,*2B
$GPRMC,212800.000,A,3250.3538,N,11646.9982,W,52.08,83.4,051110,,*2B
$GPRMC,212803.000,A,3250.3613,N,11646.9458,W,54.88,80.8,051110,,*29
$GPRMC,212806.000,A,3250.3707,N,11646.8910,W,55.91,79.4,051110,,*2B
$GPRMC,212809.000,A,3250.3799,N,11646.8366,W,55.84,79.9,051110,,*21
$GPRMC,212812.000,A,3250.3884,N,11646.7824,W,55.04,80.0,051110,,*2D
$GPRMC,212815.000,A,3250.3971,N,11646.7297,W,53.68,79.0,051110,,*29
$GPRMC,212818.000,A,3250.4058,N,11646.6778,W,53.33,78.7,051110,,*2C
$GPRMC,212821.000,A,3250.4129,N,11646.6253,W,53.46,83.2,051110,,*2E
$GPRMC,212824.000,A,3250.4132,N,11646.5730,W,53.22,90.7,051110,,*27
$GPRMC,212827.000,A,3250.4079,N,11646.5205,W,53.13,97.4,051110,,*2F
$GPRMC,212830.000,A,3250.3999,N,11646.4683,W,53.59,99.6,051110,,*20
$GPRMC,212833.000,A,3250.3915,N,11646.4157,W,54.28,100.3,051110,,*1C
$GPRMC,212836.000,A,3250.3832,N,11646.3621,W,55.37,100.4,051110,,*14
$GPRMC,212839.000,A,3250.3738,N,11646.3082,W,55.59,101.3,051110,,*1F
$GPRMC,212842.000,A,3250.3647,N,11646.2536,W,55.99,100.9,051110,,*16
$GPRMC,212845.000,A,3250.3564,N,11646.1990,W,56.97,100.1,051110,,*15
$GPRMC,212848.000,A,3250.3480,N,11646.1425,W,58.68,100.0,051110,,*1F
$GPRMC,212851.000,A,3250.3390,N,11646.0846,W,60.07,100.1,051110,,*1A
$GPRMC,212854.000,A,3250.3296,N,11646.0260,W,60.39,100.2,051110,,*18
$GPRMC,212857.000,A,3250.3208,N,11645.9669,W,60.77,100.0,051110,,*13
$GPRMC,212900.000,A,3250.3121,N,11645.9070,W,60.37,99.8,051110,,*2B
$GPRMC,212903.000,A,3250.3035,N,11645.8480,W,60.67,100.0,051110,,*1A
$GPRMC,212906.000,A,3250.2944,N,11645.7888,W,60.99,100.0,051110,,*1B
$GPRMC,212909.000,A,3250.2849,N,11645.7297,W,60.31,100.6,051110,,*18
$GPRMC,212912.000,A,3250.2745,N,11645.6718,W,58.73,102.9,051110,,*12
$GPRMC,212915.000,A,3250.2613,N,11645.6170,W,56.55,105.9,051110,,*12
$GPRMC,212918.000,A,3250.2483,N,11645.5640,W,55.34,106.0,051110,,*1D
$GPRMC,212921.000,A,3250.2351,N,11645.5116,W,55.57,106.8,051110,,*16
$GPRMC,212924.000,A,3250.2206,N,11645.4589,W,56.93,108.3,051110,,*1D
$GPRMC,212927.000,A,3250.2047,N,11645.4051,W,58.50,109.3,051110,,*19
$GPRMC,212930.000,A,3250.1877,N,11645.3499,W,59.69,109.7,051110,,*1F
$GPRMC,212933.000,A,3250.1718,N,11645.2942,W,59.35,108.6,051110,,*19
$GPRMC,212936.000,A,3250.1561,N,11645.2390,W,59.23,108.6,051110,,*12
$GPRMC,212939.000,A,3250.1403,N,11645.1835,W,59.10,108.8,051110,,*11
$GPRMC,212942.000,A,3250.1246,N,11645.1282,W,58.93,108.6,051110,,*18
$GPRMC,212945.000,A,3250.1091,N,11645.0736,W,58.50,108.6,051110,,*13
$GPRMC,212948.000,A,3250.0950,N,11645.0180,W,58.93,106.8,051110,,*1F
$GPRMC,212951.000,A,3250.0826,N,11644.9607,W,59.89,104.0,051110,,*17
$GPRMC,212954.000,A,3250.0720,N,11644.9021,W,60.27,101.1,051110,,*13
$GPRMC,212957.000,A,3250.0653,N,11644.8432,W,60.37,97.4,051110,,*28
$GPRMC,213000.000,A,3250.0628,N,11644.7836,W,60.20,93.3,051110,,*2C
$GPRMC,213003.000,A,3250.0623,N,11644.7244,W,59.87,90.5,051110,,*29
$GPRMC,213006.000,A,3250.0654,N,11644.6651,W,60.13,86.4,051110,,*2C
$GPRMC,213009.000,A,3250.0710,N,11644.6056,W,59.97,85.1,051110,,*23
$GPRMC,213012.000,A,3250.0762,N,11644.5468,W,59.91,84.9,051110,,*29
$GPRMC,213015.000,A,3250.0806,N,11644.4880,W,59.53,85.0,051110,,*2E
$GPRMC,213018.000,A,3250.0849,N,11644.4293,W,59.10,85.8,051110,,*2F
$GPRMC,213021.000,A,3250.0860,N,11644.3708,W,58.75,89.7,051110,,*2F
$GPRMC,213024.000,A,3250.0833,N,11644.3128,W,58.63,93.9,051110,,*2A
$GPRMC,213027.000,A,3250.0769,N,11644.2549,W,58.60,97.8,051110,,*2D
$GPRMC,213030.000,A,3250.0681,N,11644.1975,W,58.71,99.9,051110,,*23
$GPRMC,213033.000,A,3250.0589,N,11644.1400,W,58.96,100.3,051110,,*16
$GPRMC,213036.000,A,3250.0494,N,11644.0828,W,59.00,100.6,051110,,*12
$GPRMC,213039.000,A,3250.0399,N,11644.0249,W,58.96,100.6,051110,,*14
$GPRMC,213042.000,A,3250.0310,N,11643.9673,W,58.92,100.3,051110,,*1B
$GPRMC,213045.000,A,3250.0234,N,11643.9104,W,58.92,98.0,051110,,*2F
$GPRMC,213048.000,A,3250.0190,N,11643.8521,W,59.19,94.3,051110,,*20
$GPRMC,213051.000,A,3250.0182,N,11643.7940,W,59.36,90.3,051110,,*26
$GPRMC,213054.000,A,3250.0205,N,11643.7366,W,57.35,86.6,051110,,*2E
$GPRMC,213057.000,A,3250.0244,N,11643.6807,W,55.73,85.6,051110,,*26
$GPRMC,213100.000,A,3250.0283,N,11643.6256,W,55.04,85.6,051110,,*20
$GPRMC,213103.000,A,3250.0299,N,11643.5715,W,55.69,89.1,051110,,*29
$GPRMC,213106.000,A,3250.0271,N,11643.5154,W,57.69,93.9,051110,,*28
$GPRMC,213109.000,A,3250.0219,N,11643.4578,W,59.57,96.1,051110,,*2C
$GPRMC,213112.000,A,3250.0158,N,11643.3992,W,59.50,96.7,051110,,*2E
$GPRMC,213115.000,A,3250.0103,N,11643.3409,W,59.27,95.0,051110,,*2C
$GPRMC,213118.000,A,3250.0108,N,11643.2834,W,58.08,89.0,051110,,*28
$GPRMC,213121.000,A,3250.0187,N,11643.2264,W,57.51,80.1,051110,,*21
$GPRMC,213124.000,A,3250.0342,N,11643.1726,W,57.49,71.3,051110,,*2A
$GPRMC,213127.000,A,3250.0570,N,11643.1215,W,58.37,62.5,051110,,*29
$GPRMC,213130.000,A,3250.0853,N,11643.0729,W,59.19,56.3,051110,,*24
$GPRMC,213133.000,A,3250.1139,N,11643.0247,W,59.13,55.9,051110,,*2D
$GPRMC,213136.000,A,3250.1402,N,11642.9748,W,59.36,59.6,051110,,*23
$GPRMC,213139.000,A,3250.1624,N,11642.9223,W,59.48,65.0,051110,,*22
$GPRMC,213142.000,A,3250.1801,N,11642.8677,W,59.66,70.4,051110,,*2F
$GPRMC,213145.000,A,3250.1940,N,11642.8107,W,59.56,74.2,051110,,*2D
$GPRMC,213148.000,A,3250.2048,N,11642.7539,W,59.34,76.7,051110,,*27
$GPRMC,213151.000,A,3250.2156,N,11642.6969,W,59.30,77.3,051110,,*28
$GPRMC,213154.000,A,3250.2257,N,11642.6396,W,59.55,77.4,051110,,*21
$GPRMC,213157.000,A,3250.2357,N,11642.5822,W,59.72,77.4,051110,,*21
$GPRMC,213200.000,A,3250.2464,N,11642.5243,W,59.93,77.4,051110,,*25
$GPRMC,213203.000,A,3250.2570,N,11642.4665,W,60.02,77.6,051110,,*23
$GPRMC,213206.000,A,3250.2677,N,11642.4087,W,60.06,77.4,051110,,*2E
$GPRMC,213209.000,A,3250.2780,N,11642.3510,W,59.79,77.5,051110,,*27
$GPRMC,213212.000,A,3250.2887,N,11642.2931,W,59.54,77.6,051110,,*27
$GPRMC,213215.000,A,3250.2991,N,11642.2359,W,59.11,78.7,051110,,*2D
$GPRMC,213218.000,A,3250.3070,N,11642.1787,W,58.55,81.5,051110,,*26
$GPRMC,213221.000,A,3250.3113,N,11642.1213,W,58.21,84.6,051110,,*25
$GPRMC,213224.000,A,3250.3136,N,11642.0630,W,58.48,87.9,051110,,*20
$GPRMC,213227.000,A,3250.3134,N,11642.0051,W,59.02,89.5,051110,,*2D
$GPRMC,213230.000,A,3250.3138,N,11641.9464,W,58.99,89.6,051110,,*2F
$GPRMC,213233.000,A,3250.3138,N,11641.8878,W,58.76,89.8,051110,,*23
$GPRMC,213236.000,A,3250.3138,N,11641.8295,W,58.77,89.8,051110,,*2E
$GPRMC,213239.000,A,3250.3141,N,11641.7713,W,59.12,89.8,051110,,*29
$GPRMC,213242.000,A,3250.3145,N,11641.7127,W,59.62,89.6,051110,,*29
$GPRMC,213245.000,A,3250.3145,N,11641.6537,W,59.56,89.7,051110,,*2C
$GPRMC,213248.000,A,3250.3149,N,11641.5950,W,59.25,89.8,051110,,*28
$GPRMC,213251.000,A,3250.3155,N,11641.5366,W,59.12,89.6,051110,,*28
$GPRMC,213254.000,A,3250.3156,N,11641.4779,W,59.14,89.6,051110,,*23
$GPRMC,213257.000,A,3250.3163,N,11641.4192,W,59.22,89.8,051110,,*2E
$GPRMC,213300.000,A,3250.3168,N,11641.3608,W,59.23,89.7,051110,,*2B
$GPRMC,213303.000,A,3250.3168,N,11641.3023,W,58.91,89.9,051110,,*21
$GPRMC,213306.000,A,3250.3169,N,11641.2442,W,58.64,89.8,051110,,*2C
$GPRMC,213309.000,A,3250.3162,N,11641.1858,W,59.72,91.1,051110,,*2A
$GPRMC,213312.000,A,3250.3135,N,11641.1260,W,61.25,93.8,051110,,*21
$GPRMC,213315.000,A,3250.3077,N,11641.0656,W,61.32,96.9,051110,,*23
$GPRMC,213318.000,A,3250.3006,N,11641.0056,W,61.16,98.2,051110,,*2D
$GPRMC,213321.000,A,3250.2930,N,11640.9454,W,61.13,98.2,051110,,*21
$GPRMC,213324.000,A,3250.2857,N,11640.8852,W,61.38,98.2,051110,,*26
$GPRMC,213327.000,A,3250.2782,N,11640.8246,W,61.59,98.4,051110,,*2C
$GPRMC,213330.000,A,3250.2707,N,11640.7643,W,61.35,98.3,051110,,*24
$GPRMC,213333.000,A,3250.2640,N,11640.7046,W,61.00,98.2,051110,,*21
$GPRMC,213336.000,A,3250.2564,N,11640.6449,W,60.81,98.0,051110,,*21
$GPRMC,213339.000,A,3250.2511,N,11640.5854,W,60.77,95.3,051110,,*28
$GPRMC,213342.000,A,3250.2492,N,11640.5252,W,60.80,90.9,051110,,*25
$GPRMC,213345.000,A,3250.2516,N,11640.4652,W,61.09,86.8,051110,,*2C
$GPRMC,213348.000,A,3250.2582,N,11640.4049,W,61.14,82.2,051110,,*22
$GPRMC,213351.000,A,3250.2671,N,11640.3457,W,60.95,80.3,051110,,*22
$GPRMC,213354.000,A,3250.2760,N,11640.2867,W,60.72,80.1,051110,,*23
$GPRMC,213357.000,A,3250.2846,N,11640.2277,W,60.55,80.8,051110,,*2C
$GPRMC,213400.000,A,3250.2913,N,11640.1679,W,60.49,83.9,051110,,*2E
$GPRMC,213403.000,A,3250.2940,N,11640.1084,W,59.89,87.4,051110,,*20
$GPRMC,213406.000,A,3250.2935,N,11640.0494,W,59.92,90.9,051110,,*22
$GPRMC,213409.000,A,3250.2905,N,11639.9903,W,60.28,94.3,051110,,*2F
$GPRMC,213412.000,A,3250.2844,N,11639.9306,W,60.60,97.9,051110,,*2B
$GPRMC,213415.000,A,3250.2749,N,11639.8717,W,60.66,101.5,051110,,*1F
$GPRMC,213418.000,A,3250.2630,N,11639.8129,W,60.60,103.2,051110,,*15
$GPRMC,213421.000,A,3250.2512,N,11639.7548,W,60.46,103.4,051110,,*12
$GPRMC,213424.000,A,3250.2415,N,11639.6963,W,60.51,100.0,051110,,*14
$GPRMC,213427.000,A,3250.2369,N,11639.6370,W,60.28,94.7,051110,,*26
$GPRMC,213430.000,A,3250.2375,N,11639.5767,W,60.45,88.6,051110,,*2B
$GPRMC,213433.000,A,3250.2434,N,11639.5171,W,60.27,83.0,051110,,*22
$GPRMC,213436.000,A,3250.2525,N,11639.4573,W,61.17,80.2,051110,,*22
$GPRMC,213439.000,A,3250.2626,N,11639.3974,W,61.19,79.2,051110,,*29
$GPRMC,213442.000,A,3250.2732,N,11639.3382,W,61.14,79.0,051110,,*2D
$GPRMC,213445.000,A,3250.2828,N,11639.2786,W,60.95,79.6,051110,,*21
$GPRMC,213448.000,A,3250.2900,N,11639.2185,W,61.04,83.0,051110,,*28
$GPRMC,213451.000,A,3250.2934,N,11639.1582,W,61.41,87.3,051110,,*21
$GPRMC,213454.000,A,3250.2926,N,11639.0970,W,61.66,91.8,051110,,*2E
$GPRMC,213457.000,A,3250.2874,N,11639.0363,W,61.89,96.2,051110,,*2F
$GPRMC,213500.000,A,3250.2785,N,11638.9757,W,61.78,100.9,051110,,*1D
$GPRMC,213503.000,A,3250.2657,N,11638.9167,W,61.21,104.2,051110,,*16
$GPRMC,213506.000,A,3250.2523,N,11638.8587,W,60.62,104.9,051110,,*15
$GPRMC,213509.000,A,3250.2394,N,11638.8011,W,60.05,104.9,051110,,*1B
$GPRMC,213512.000,A,3250.2269,N,11638.7436,W,59.81,105.1,051110,,*13
$GPRMC,213515.000,A,3250.2140,N,11638.6868,W,60.01,105.0,051110,,*19
$GPRMC,213518.000,A,3250.2013,N,11638.6293,W,61.16,104.8,051110,,*13
$GPRMC,213521.000,A,3250.1881,N,11638.5703,W,61.48,104.9,051110,,*1C
$GPRMC,213524.000,A,3250.1752,N,11638.5120,W,61.16,104.8,051110,,*15
$GPRMC,213527.000,A,3250.1616,N,11638.4537,W,60.91,105.2,051110,,*11
$GPRMC,213530.000,A,3250.1470,N,11638.3961,W,60.94,106.9,051110,,*10
$GPRMC,213533.000,A,3250.1305,N,11638.3392,W,61.05,109.3,051110,,*1C
$GPRMC,213536.000,A,3250.1122,N,11638.2826,W,60.71,111.4,051110,,*17
$GPRMC,213539.000,A,3250.0933,N,11638.2267,W,60.60,112.0,051110,,*19
$GPRMC,213542.000,A,3250.0744,N,11638.1710,W,60.73,112.4,051110,,*1B
$GPRMC,213545.000,A,3250.0553,N,11638.1153,W,61.09,112.5,051110,,*14
$GPRMC,213548.000,A,3250.0358,N,11638.0593,W,61.27,112.4,051110,,*10
$GPRMC,213551.000,A,3250.0172,N,11638.0031,W,60.92,112.3,051110,,*17
$GPRMC,213554.000,A,3249.9973,N,11637.9476,W,60.57,113.9,051110,,*19
$GPRMC,213557.000,A,3249.9742,N,11637.8948,W,60.72,118.3,051110,,*11
$GPRMC,213600.000,A,3249.9473,N,11637.8429,W,61.27,122.8,051110,,*18
$GPRMC,213603.000,A,3249.9162,N,11637.7948,W,61.60,128.0,051110,,*1A
$GPRMC,213606.000,A,3249.8817,N,11637.7502,W,61.35,133.2,051110,,*1F
$GPRMC,213609.000,A,3249.8435,N,11637.7097,W,61.44,138.0,051110,,*1A
$GPRMC,213612.000,A,3249.8026,N,11637.6728,W,61.81,143.7,051110,,*16
$GPRMC,213615.000,A,3249.7596,N,11637.6398,W,61.35,147.1,051110,,*12
$GPRMC,213618.000,A,3249.7159,N,11637.6082,W,61.14,148.0,051110,,*1D
$GPRMC,213621.000,A,3249.6724,N,11637.5765,W,61.14,148.4,051110,,*13
$GPRMC,213624.000,A,3249.6301,N,11637.5431,W,61.26,145.1,051110,,*1E
$GPRMC,213627.000,A,3249.5902,N,11637.5054,W,61.45,141.0,051110,,*10
$GPRMC,213630.000,A,3249.5529,N,11637.4649,W,60.54,137.1,051110,,*19
$GPRMC,213633.000,A,3249.5186,N,11637.4216,W,59.36,132.7,051110,,*18
$GPRMC,213636.000,A,3249.4884,N,11637.3747,W,59.03,127.6,051110,,*12
$GPRMC,213639.000,A,3249.4620,N,11637.3246,W,60.38,123.1,051110,,*18
$GPRMC,213642.000,A,3249.4377,N,11637.2716,W,60.96,118.3,051110,,*1C
$GPRMC,213645.000,A,3249.4168,N,11637.2162,W,60.42,113.6,051110,,*15
$GPRMC,213648.000,A,3249.3999,N,11637.1595,W,60.21,109.9,051110,,*17
$GPRMC,213651.000,A,3249.3868,N,11637.1016,W,59.88,105.0,051110,,*12
$GPRMC,213654.000,A,3249.3791,N,11637.0426,W,59.99,100.1,051110,,*1C
$GPRMC,213657.000,A,3249.3750,N,11636.9833,W,59.49,95.5,051110,,*26
$GPRMC,213700.000,A,3249.3745,N,11636.9236,W,59.72,90.9,051110,,*2F
$GPRMC,213703.000,A,3249.3780,N,11636.8639,W,59.62,86.3,051110,,*23
$GPRMC,213706.000,A,3249.3857,N,11636.8045,W,60.33,81.3,051110,,*27
$GPRMC,213709.000,A,3249.3959,N,11636.7452,W,60.52,79.8,051110,,*21
$GPRMC,213712.000,A,3249.4055,N,11636.6860,W,60.61,79.7,051110,,*2A
$GPRMC,213715.000,A,3249.4138,N,11636.6268,W,60.63,81.1,051110,,*26
$GPRMC,213718.000,A,3249.4205,N,11636.5671,W,60.61,83.1,051110,,*29
$GPRMC,213721.000,A,3249.4249,N,11636.5070,W,60.64,85.2,051110,,*2C
$GPRMC,213724.000,A,3249.4275,N,11636.4473,W,60.58,87.6,051110,,*29
$GPRMC,213727.000,A,3249.4278,N,11636.3876,W,60.50,89.8,051110,,*21
$GPRMC,213730.000,A,3249.4266,N,11636.3276,W,60.52,92.0,051110,,*22
$GPRMC,213733.000,A,3249.4235,N,11636.2678,W,60.72,94.1,051110,,*29
$GPRMC,213736.000,A,3249.4182,N,11636.2082,W,61.29,96.3,051110,,*2F
$GPRMC,213739.000,A,3249.4107,N,11636.1483,W,61.79,98.7,051110,,*24
$GPRMC,213742.000,A,3249.4014,N,11636.0878,W,62.10,100.9,051110,,*10
$GPRMC,213745.000,A,3249.3904,N,11636.0281,W,62.15,102.2,051110,,*18
$GPRMC,213748.000,A,3249.3780,N,11635.9685,W,61.77,104.5,051110,,*1B
$GPRMC,213751.000,A,3249.3628,N,11635.9102,W,61.64,107.7,051110,,*1B
$GPRMC,213754.000,A,3249.3452,N,11635.8529,W,61.60,109.9,051110,,*19
$GPRMC,213757.000,A,3249.3279,N,11635.7956,W,61.23,109.2,051110,,*12
$GPRMC,213800.000,A,3249.3112,N,11635.7385,W,60.94,109.1,051110,,*1B
$GPRMC,213803.000,A,3249.2947,N,11635.6821,W,60.29,108.9,051110,,*1A
$GPRMC,213806.000,A,3249.2787,N,11635.6260,W,59.75,109.0,051110,,*19
$GPRMC,213809.000,A,3249.2627,N,11635.5696,W,59.64,109.0,051110,,*13
$GPRMC,213812.000,A,3249.2462,N,11635.5138,W,59.82,109.1,051110,,*10
$GPRMC,213815.000,A,3249.2298,N,11635.4577,W,60.64,109.1,051110,,*18
$GPRMC,213818.000,A,3249.2134,N,11635.4004,W,61.38,108.9,051110,,*10
$GPRMC,213821.000,A,3249.1967,N,11635.3426,W,61.34,109.0,051110,,*10
$GPRMC,213824.000,A,3249.1799,N,11635.2850,W,61.46,109.0,051110,,*13
$GPRMC,213827.000,A,3249.1635,N,11635.2277,W,61.46,108.9,051110,,*10
$GPRMC,213830.000,A,3249.1469,N,11635.1701,W,61.60,108.9,051110,,*1E
$GPRMC,213833.000,A,3249.1312,N,11635.1120,W,61.52,107.4,051110,,*10
$GPRMC,213836.000,A,3249.1178,N,11635.0536,W,61.14,104.7,051110,,*1B
$GPRMC,213839.000,A,3249.1086,N,11634.9944,W,60.90,99.3,051110,,*29
$GPRMC,213842.000,A,3249.1045,N,11634.9344,W,60.76,94.2,051110,,*24
$GPRMC,213845.000,A,3249.1062,N,11634.8739,W,61.23,88.6,051110,,*21
$GPRMC,213848.000,A,3249.1116,N,11634.8134,W,61.39,83.3,051110,,*20
$GPRMC,213851.000,A,3249.1226,N,11634.7536,W,61.98,77.5,051110,,*27
$GPRMC,213854.000,A,3249.1366,N,11634.6945,W,61.62,75.1,051110,,*2D
$GPRMC,213857.000,A,3249.1503,N,11634.6355,W,61.79,74.8,051110,,*22
$GPRMC,213900.000,A,3249.1645,N,11634.5766,W,61.79,74.9,051110,,*26
$GPRMC,213903.000,A,3249.1785,N,11634.5181,W,61.66,74.7,051110,,*27
$GPRMC,213906.000,A,3249.1926,N,11634.4591,W,61.93,74.7,051110,,*2B
$GPRMC,213909.000,A,3249.2061,N,11634.3998,W,61.87,74.3,051110,,*2E
$GPRMC,213912.000,A,3249.2214,N,11634.3410,W,61.89,73.3,051110,,*20
$GPRMC,213915.000,A,3249.2371,N,11634.2824,W,61.83,71.5,051110,,*21
$GPRMC,213918.000,A,3249.2571,N,11634.2259,W,61.58,66.7,051110,,*28
$GPRMC,213921.000,A,3249.2804,N,11634.1715,W,61.65,62.6,051110,,*28
$GPRMC,213924.000,A,3249.3051,N,11634.1177,W,62.03,61.4,051110,,*24
$GPRMC,213927.000,A,3249.3296,N,11634.0639,W,61.99,62.0,051110,,*25
$GPRMC,213930.000,A,3249.3512,N,11634.0079,W,61.89,66.0,051110,,*2F
$GPRMC,213933.000,A,3249.3692,N,11633.9502,W,62.39,71.5,051110,,*2B
$GPRMC,213936.000,A,3249.3808,N,11633.8901,W,62.50,77.6,051110,,*27
$GPRMC,213939.000,A,3249.3869,N,11633.8278,W,62.72,83.8,051110,,*2F
$GPRMC,213942.000,A,3249.3869,N,11633.7651,W,63.19,88.2,051110,,*2E
$GPRMC,213945.000,A,3249.3859,N,11633.7014,W,63.78,89.7,051110,,*2E
$GPRMC,213948.000,A,3249.3855,N,11633.6379,W,63.92,89.9,051110,,*2C
$GPRMC,213951.000,A,3249.3856,N,11633.5745,W,64.10,89.9,051110,,*22
$GPRMC,213954.000,A,3249.3854,N,11633.5108,W,64.21,90.0,051110,,*29
$GPRMC,213957.000,A,3249.3852,N,11633.4476,W,63.94,90.1,051110,,*29
$GPRMC,214000.000,A,3249.3846,N,11633.3839,W,63.78,91.3,051110,,*21
$GPRMC,214003.000,A,3249.3801,N,11633.3212,W,63.62,96.0,051110,,*2D
$GPRMC,214006.000,A,3249.3696,N,11633.2603,W,62.01,102.3,051110,,*16
$GPRMC,214009.000,A,3249.3539,N,11633.2027,W,61.44,107.9,051110,,*12
$GPRMC,214012.000,A,3249.3335,N,11633.1474,W,61.01,114.2,051110,,*1B
$GPRMC,214015.000,A,3249.3090,N,11633.0943,W,61.15,119.9,051110,,*1B
$GPRMC,214018.000,A,3249.2801,N,11633.0453,W,60.58,125.0,051110,,*15
$GPRMC,214021.000,A,3249.2499,N,11632.9976,W,60.14,126.4,051110,,*1F
$GPRMC,214024.000,A,3249.2198,N,11632.9503,W,59.70,126.8,051110,,*14
$GPRMC,214027.000,A,3249.1897,N,11632.9035,W,59.53,126.9,051110,,*12
$GPRMC,214030.000,A,3249.1606,N,11632.8558,W,59.55,125.2,051110,,*13
$GPRMC,214033.000,A,3249.1340,N,11632.8055,W,59.96,120.2,051110,,*15
$GPRMC,214036.000,A,3249.1122,N,11632.7513,W,60.55,114.4,051110,,*1A
$GPRMC,214039.000,A,3249.0954,N,11632.6950,W,61.02,108.8,051110,,*15
$GPRMC,214042.000,A,3249.0835,N,11632.6367,W,61.45,102.6,051110,,*16
$GPRMC,214045.000,A,3249.0773,N,11632.5764,W,61.45,96.8,051110,,*2A
$GPRMC,214048.000,A,3249.0763,N,11632.5154,W,61.77,90.7,051110,,*2B
$GPRMC,214051.000,A,3249.0798,N,11632.4550,W,61.60,85.9,051110,,*2A
$GPRMC,214054.000,A,3249.0845,N,11632.3940,W,61.50,84.8,051110,,*29
$GPRMC,214057.000,A,3249.0891,N,11632.3331,W,61.78,85.2,051110,,*2E
$GPRMC,214100.000,A,3249.0927,N,11632.2718,W,61.85,86.6,051110,,*2A
$GPRMC,214103.000,A,3249.0938,N,11632.2105,W,61.91,89.4,051110,,*25
$GPRMC,214106.000,A,3249.0922,N,11632.1500,W,61.58,92.0,051110,,*22
$GPRMC,214109.000,A,3249.0884,N,11632.0891,W,61.62,94.8,051110,,*23
$GPRMC,214112.000,A,3249.0820,N,11632.0292,W,61.45,97.9,051110,,*29
$GPRMC,214115.000,A,3249.0729,N,11631.9697,W,61.36,100.8,051110,,*19
$GPRMC,214118.000,A,3249.0609,N,11631.9108,W,61.04,104.0,051110,,*1B
$GPRMC,214121.000,A,3249.0466,N,11631.8528,W,60.74,106.7,051110,,*1E
$GPRMC,214124.000,A,3249.0297,N,11631.7959,W,60.35,109.7,051110,,*1C
$GPRMC,214127.000,A,3249.0101,N,11631.7404,W,60.34,112.8,051110,,*12
$GPRMC,214130.000,A,3248.9879,N,11631.6866,W,60.43,115.9,051110,,*15
$GPRMC,214133.000,A,3248.9642,N,11631.6339,W,60.57,118.8,051110,,*18
$GPRMC,214136.000,A,3248.9383,N,11631.5823,W,60.77,121.2,051110,,*14
$GPRMC,214139.000,A,3248.9119,N,11631.5314,W,60.57,121.5,051110,,*10
$GPRMC,214142.000,A,3248.8856,N,11631.4801,W,60.41,120.8,051110,,*1A
$GPRMC,214145.000,A,3248.8608,N,11631.4277,W,60.56,118.4,051110,,*12
$GPRMC,214148.000,A,3248.8384,N,11631.3742,W,60.69,115.6,051110,,*19
$GPRMC,214151.000,A,3248.8183,N,11631.3188,W,60.52,112.7,051110,,*1A
$GPRMC,214154.000,A,3248.8004,N,11631.2621,W,60.75,109.9,051110,,*15
$GPRMC,214157.000,A,3248.7855,N,11631.2047,W,60.99,107.0,051110,,*16
$GPRMC,214200.000,A,3248.7735,N,11631.1463,W,60.91,104.0,051110,,*14
$GPRMC,214203.000,A,3248.7632,N,11631.0876,W,61.21,101.9,051110,,*1E
$GPRMC,214206.000,A,3248.7530,N,11631.0285,W,61.08,101.9,051110,,*17
$GPRMC,214209.000,A,3248.7427,N,11630.9696,W,60.90,101.9,051110,,*11
$GPRMC,214212.000,A,3248.7324,N,11630.9106,W,60.57,102.3,051110,,*13
$GPRMC,214215.000,A,3248.7209,N,11630.8524,W,60.73,104.3,051110,,*1F
$GPRMC,214218.000,A,3248.7057,N,11630.7945,W,61.14,108.0,051110,,*10
$GPRMC,214221.000,A,3248.6870,N,11630.7375,W,61.81,111.7,051110,,*1C
$GPRMC,214224.000,A,3248.6653,N,11630.6817,W,62.07,114.5,051110,,*12
$GPRMC,214227.000,A,3248.6415,N,11630.6265,W,63.45,117.0,051110,,*1F
$GPRMC,214230.000,A,3248.6146,N,11630.5716,W,64.77,121.5,051110,,*1E
$GPRMC,214233.000,A,3248.5831,N,11630.5194,W,64.34,125.9,051110,,*14
$GPRMC,214236.000,A,3248.5490,N,11630.4713,W,63.50,130.0,051110,,*16
$GPRMC,214239.000,A,3248.5126,N,11630.4260,W,63.13,133.5,051110,,*11
$GPRMC,214242.000,A,3248.4740,N,11630.3834,W,63.24,136.9,051110,,*1B
$GPRMC,214245.000,A,3248.4346,N,11630.3421,W,63.51,138.0,051110,,*13
$GPRMC,214248.000,A,3248.3952,N,11630.3001,W,63.86,137.9,051110,,*1C
$GPRMC,214251.000,A,3248.3558,N,11630.2576,W,64.28,138.0,051110,,*13
$GPRMC,214254.000,A,3248.3158,N,11630.2149,W,64.74,138.1,051110,,*12
$GPRMC,214257.000,A,3248.2756,N,11630.1719,W,65.11,138.0,051110,,*1B
$GPRMC,214300.000,A,3248.2352,N,11630.1291,W,65.05,138.1,051110,,*19
$GPRMC,214303.000,A,3248.1949,N,11630.0864,W,64.96,138.2,051110,,*10
$GPRMC,214306.000,A,3248.1539,N,11630.0441,W,64.87,139.4,051110,,*12
$GPRMC,214309.000,A,3248.1115,N,11630.0043,W,64.76,142.1,051110,,*16
$GPRMC,214312.000,A,3248.0679,N,11629.9667,W,64.80,144.6,051110,,*19
$GPRMC,214315.000,A,3248.0227,N,11629.9320,W,64.96,147.6,051110,,*13
$GPRMC,214318.000,A,3247.9755,N,11629.8998,W,65.27,150.3,051110,,*18
$GPRMC,214321.000,A,3247.9273,N,11629.8709,W,65.10,154.1,051110,,*17
$GPRMC,214324.000,A,3247.8784,N,11629.8442,W,64.28,155.8,051110,,*10
$GPRMC,214327.000,A,3247.8292,N,11629.8205,W,63.26,158.4,051110,,*1C
$GPRMC,214330.000,A,3247.7802,N,11629.7997,W,61.77,160.8,051110,,*18
$GPRMC,214333.000,A,3247.7310,N,11629.7818,W,61.88,163.6,051110,,*18
$GPRMC,214336.000,A,3247.6811,N,11629.7661,W,61.96,166.0,051110,,*1A
$GPRMC,214339.000,A,3247.6303,N,11629.7532,W,61.78,168.6,051110,,*10
$GPRMC,214342.000,A,3247.5795,N,11629.7430,W,61.92,171.0,051110,,*1D
$GPRMC,214345.000,A,3247.5285,N,11629.7347,W,61.99,172.1,051110,,*10
$GPRMC,214348.000,A,3247.4779,N,11629.7260,W,61.84,172.2,051110,,*11
$GPRMC,214351.000,A,3247.4269,N,11629.7179,W,61.82,172.4,051110,,*16
$GPRMC,214354.000,A,3247.3757,N,11629.7098,W,61.94,172.6,051110,,*17
$GPRMC,214357.000,A,3247.3246,N,11629.7013,W,62.00,172.0,051110,,*1A
$GPRMC,214400.000,A,3247.2733,N,11629.6929,W,61.77,172.3,051110,,*18
$GPRMC,214403.000,A,3247.2222,N,11629.6852,W,61.82,172.4,051110,,*1E
$GPRMC,214406.000,A,3247.1709,N,11629.6773,W,61.87,172.3,051110,,*1A
$GPRMC,214409.000,A,3247.1194,N,11629.6687,W,62.03,172.3,051110,,*12
$GPRMC,214412.000,A,3247.0682,N,11629.6606,W,61.64,172.4,051110,,*15
$GPRMC,214415.000,A,3247.0171,N,11629.6529,W,61.99,172.2,051110,,*13
$GPRMC,214418.000,A,3246.9659,N,11629.6448,W,62.47,172.2,051110,,*1D
$GPRMC,214421.000,A,3246.9141,N,11629.6361,W,62.58,172.3,051110,,*1A
$GPRMC,214424.000,A,3246.8628,N,11629.6282,W,62.20,172.6,051110,,*10
$GPRMC,214427.000,A,3246.8114,N,11629.6199,W,62.07,172.4,051110,,*15
$GPRMC,214430.000,A,3246.7600,N,11629.6121,W,61.72,172.3,051110,,*1B
$GPRMC,214433.000,A,3246.7091,N,11629.6039,W,61.35,172.1,051110,,*1F
$GPRMC,214436.000,A,3246.6588,N,11629.5961,W,60.99,172.5,051110,,*12
$GPRMC,214439.000,A,3246.6080,N,11629.5880,W,61.34,171.6,051110,,*18
$GPRMC,214442.000,A,3246.5573,N,11629.5776,W,61.56,169.4,051110,,*17
$GPRMC,214445.000,A,3246.5075,N,11629.5639,W,61.32,166.4,051110,,*14
$GPRMC,214448.000,A,3246.4581,N,11629.5475,W,61.27,163.8,051110,,*11
$GPRMC,214451.000,A,3246.4101,N,11629.5285,W,61.31,160.7,051110,,*17
$GPRMC,214454.000,A,3246.3627,N,11629.5065,W,61.12,158.0,051110,,*17
$GPRMC,214457.000,A,3246.3162,N,11629.4814,W,61.41,155.0,051110,,*16
$GPRMC,214500.000,A,3246.2711,N,11629.4533,W,60.97,152.1,051110,,*12
$GPRMC,214503.000,A,3246.2264,N,11629.4239,W,61.34,151.0,051110,,*11
$GPRMC,214506.000,A,3246.1822,N,11629.3942,W,61.12,150.9,051110,,*13
$GPRMC,214509.000,A,3246.1373,N,11629.3651,W,61.25,151.8,051110,,*1A
$GPRMC,214512.000,A,3246.0918,N,11629.3378,W,61.22,153.7,051110,,*12
$GPRMC,214515.000,A,3246.0454,N,11629.3129,W,60.95,155.5,051110,,*1F
$GPRMC,214518.000,A,3245.9984,N,11629.2892,W,61.02,157.1,051110,,*19
$GPRMC,214521.000,A,3245.9508,N,11629.2673,W,61.45,159.0,051110,,*16
$GPRMC,214524.000,A,3245.9029,N,11629.2475,W,60.14,160.8,051110,,*16
$GPRMC,214527.000,A,3245.8556,N,11629.2301,W,57.86,163.5,051110,,*1C
$GPRMC,214530.000,A,3245.8110,N,11629.2171,W,50.65,166.9,051110,,*1A
$GPRMC,214533.000,A,3245.7725,N,11629.2078,W,43.31,168.5,051110,,*1F
$GPRMC,214536.000,A,3245.7388,N,11629.2015,W,39.95,171.8,051110,,*14
$GPRMC,214539.000,A,3245.7062,N,11629.1985,W,39.82,175.7,051110,,*12
$GPRMC,214542.000,A,3245.6737,N,11629.1977,W,38.57,178.4,051110,,*12
$GPRMC,214545.000,A,3245.6436,N,11629.1973,W,33.07,178.6,051110,,*1F
$GPRMC,214548.000,A,3245.6189,N,11629.1964,W,26.12,179.3,051110,,*11
$GPRMC,214551.000,A,3245.6013,N,11629.1969,W,16.77,182.8,051110,,*19
$GPRMC,214554.000,A,3245.5935,N,11629.1988,W,5.86,193.3,051110,,*2A
$GPRMC,214557.000,A,3245.5894,N,11629.2041,W,13.26,229.7,051110,,*17
$GPRMC,214600.000,A,3245.5841,N,11629.2221,W,21.11,249.0,051110,,*1E
$GPRMC,214603.000,A,3245.5800,N,11629.2415,W,16.59,252.6,051110,,*1D
$GPRMC,214609.000,A,3245.5772,N,11629.2563,W,11.92,254.6,051110,,*1B
$GPRMC,214612.000,A,3245.5730,N,11629.2741,W,23.48,253.8,051110,,*1A
$GPRMC,214615.000,A,3245.5662,N,11629.3013,W,30.94,253.6,051110,,*17
$GPRMC,214618.000,A,3245.5583,N,11629.3349,W,36.67,253.9,051110,,*1F
$GPRMC,214621.000,A,3245.5493,N,11629.3734,W,40.75,254.3,051110,,*14
$GPRMC,214624.000,A,3245.5383,N,11629.4141,W,43.30,251.1,051110,,*11
$GPRMC,214627.000,A,3245.5223,N,11629.4549,W,45.64,243.7,051110,,*17
$GPRMC,214630.000,A,3245.5014,N,11629.4939,W,46.45,236.9,051110,,*10
$GPRMC,214633.000,A,3245.4759,N,11629.5290,W,47.45,227.9,051110,,*14
$GPRMC,214636.000,A,3245.4448,N,11629.5584,W,48.45,218.5,051110,,*1F
$GPRMC,214639.000,A,3245.4080,N,11629.5821,W,49.73,207.3,051110,,*1E
$GPRMC,214642.000,A,3245.3662,N,11629.5976,W,51.19,197.9,051110,,*19
$GPRMC,214645.000,A,3245.3239,N,11629.6065,W,50.65,189.4,051110,,*14
$GPRMC,214648.000,A,3245.2808,N,11629.6090,W,51.17,184.2,051110,,*15
$GPRMC,214651.000,A,3245.2363,N,11629.6100,W,52.08,183.3,051110,,*18
$GPRMC,214654.000,A,3245.1913,N,11629.6125,W,52.25,183.4,051110,,*1C
$GPRMC,214657.000,A,3245.1476,N,11629.6149,W,51.96,183.6,051110,,*12
$GPRMC,214700.000,A,3245.1044,N,11629.6181,W,51.83,183.6,051110,,*14
$GPRMC,214703.000,A,3245.0610,N,11629.6213,W,52.03,183.7,051110,,*13
$GPRMC,214706.000,A,3245.0170,N,11629.6248,W,52.47,183.7,051110,,*19
$GPRMC,214709.000,A,3244.9732,N,11629.6279,W,51.81,184.0,051110,,*15
$GPRMC,214712.000,A,3244.9305,N,11629.6309,W,51.64,183.7,051110,,*12
$GPRMC,214715.000,A,3244.8873,N,11629.6335,W,51.73,182.9,051110,,*18
$GPRMC,214718.000,A,3244.8440,N,11629.6364,W,52.13,183.3,051110,,*13
$GPRMC,214721.000,A,3244.8003,N,11629.6388,W,52.56,182.9,051110,,*12
$GPRMC,214724.000,A,3244.7561,N,11629.6418,W,52.79,183.8,051110,,*1A
$GPRMC,214727.000,A,3244.7119,N,11629.6448,W,53.03,183.9,051110,,*1A
$GPRMC,214730.000,A,3244.6676,N,11629.6477,W,52.59,183.7,051110,,*1F
$GPRMC,214733.000,A,3244.6240,N,11629.6514,W,51.82,184.3,051110,,*1F
$GPRMC,214736.000,A,3244.5812,N,11629.6551,W,51.44,183.8,051110,,*13
$GPRMC,214739.000,A,3244.5380,N,11629.6582,W,51.21,183.6,051110,,*1F
$GPRMC,214742.000,A,3244.4950,N,11629.6619,W,50.67,183.8,051110,,*19
$GPRMC,214745.000,A,3244.4530,N,11629.6630,W,50.16,180.8,051110,,*1A
$GPRMC,214748.000,A,3244.4117,N,11629.6591,W,49.34,174.7,051110,,*12
$GPRMC,214751.000,A,3244.3709,N,11629.6512,W,49.24,171.1,051110,,*1D
$GPRMC,214754.000,A,3244.3307,N,11629.6415,W,49.44,168.1,051110,,*1A
$GPRMC,214757.000,A,3244.2914,N,11629.6300,W,48.01,166.9,051110,,*15
$GPRMC,214800.000,A,3244.2523,N,11629.6245,W,47.20,176.2,051110,,*16
$GPRMC,214803.000,A,3244.2117,N,11629.6269,W,48.52,181.9,051110,,*11
$GPRMC,214806.000,A,3244.1707,N,11629.6286,W,47.97,182.2,051110,,*1F
$GPRMC,214809.000,A,3244.1304,N,11629.6298,W,48.27,179.8,051110,,*12
$GPRMC,214812.000,A,3244.0904,N,11629.6248,W,48.40,173.8,051110,,*15
$GPRMC,214815.000,A,3244.0499,N,11629.6224,W,48.60,179.0,051110,,*11
$GPRMC,214818.000,A,3244.0099,N,11629.6298,W,47.22,190.3,051110,,*12
$GPRMC,214821.000,A,3243.9723,N,11629.6452,W,46.99,199.7,051110,,*1C
$GPRMC,214824.000,A,3243.9352,N,11629.6662,W,49.43,204.4,051110,,*16
$GPRMC,214827.000,A,3243.8976,N,11629.6877,W,49.73,205.0,051110,,*14
$GPRMC,214830.000,A,3243.8595,N,11629.7081,W,48.10,204.0,051110,,*16
$GPRMC,214833.000,A,3243.8236,N,11629.7243,W,44.30,198.3,051110,,*1C
$GPRMC,214836.000,A,3243.7867,N,11629.7303,W,45.52,188.0,051110,,*1A
$GPRMC,214839.000,A,3243.7481,N,11629.7326,W,47.86,183.7,051110,,*11
$GPRMC,214842.000,A,3243.7077,N,11629.7336,W,47.28,181.5,051110,,*15
$GPRMC,214845.000,A,3243.6684,N,11629.7337,W,47.61,180.5,051110,,*14
$GPRMC,214848.000,A,3243.6281,N,11629.7361,W,48.90,184.2,051110,,*19
$GPRMC,214851.000,A,3243.5864,N,11629.7424,W,51.06,187.5,051110,,*16
$GPRMC,214854.000,A,3243.5435,N,11629.7494,W,51.17,187.6,051110,,*13
$GPRMC,214857.000,A,3243.5008,N,11629.7557,W,50.98,188.4,051110,,*1F
$GPRMC,214900.000,A,3243.4592,N,11629.7644,W,50.29,190.5,051110,,*18
$GPRMC,214903.000,A,3243.4185,N,11629.7727,W,49.82,189.9,051110,,*10
$GPRMC,214906.000,A,3243.3774,N,11629.7805,W,49.69,189.4,051110,,*1D
$GPRMC,214909.000,A,3243.3367,N,11629.7884,W,48.73,189.9,051110,,*1A
$GPRMC,214912.000,A,3243.2973,N,11629.7972,W,47.28,190.5,051110,,*13
$GPRMC,214915.000,A,3243.2584,N,11629.8066,W,47.16,192.3,051110,,*1A
$GPRMC,214918.000,A,3243.2209,N,11629.8219,W,48.16,201.0,051110,,*1A
$GPRMC,214921.000,A,3243.1864,N,11629.8479,W,49.62,212.6,051110,,*14
$GPRMC,214924.000,A,3243.1531,N,11629.8794,W,51.03,217.4,051110,,*15
$GPRMC,214927.000,A,3243.1196,N,11629.9114,W,51.61,218.0,051110,,*1F
$GPRMC,214930.000,A,3243.0851,N,11629.9435,W,51.83,218.0,051110,,*10
$GPRMC,214933.000,A,3243.0524,N,11629.9739,W,48.41,217.9,051110,,*13
$GPRMC,214936.000,A,3243.0215,N,11629.9986,W,41.31,212.1,051110,,*1A
$GPRMC,214939.000,A,3242.9899,N,11630.0082,W,38.78,191.5,051110,,*10
$GPRMC,214942.000,A,3242.9595,N,11630.0014,W,37.88,167.8,051110,,*16
$GPRMC,214945.000,A,3242.9315,N,11629.9810,W,39.74,146.2,051110,,*16
$GPRMC,214948.000,A,3242.9095,N,11629.9494,W,40.67,131.0,051110,,*1E
$GPRMC,214951.000,A,3242.8888,N,11629.9148,W,41.75,127.2,051110,,*10
$GPRMC,214954.000,A,3242.8680,N,11629.8812,W,42.05,127.0,051110,,*12
$GPRMC,214957.000,A,3242.8463,N,11629.8470,W,42.98,127.1,051110,,*13
$GPRMC,215000.000,A,3242.8244,N,11629.8122,W,43.96,126.8,051110,,*1F
$GPRMC,215003.000,A,3242.8024,N,11629.7766,W,44.54,125.9,051110,,*1A
$GPRMC,215006.000,A,3242.7838,N,11629.7372,W,46.04,118.0,051110,,*14
$GPRMC,215009.000,A,3242.7664,N,11629.6958,W,46.72,117.4,051110,,*15
$GPRMC,215012.000,A,3242.7442,N,11629.6576,W,46.80,125.9,051110,,*18
$GPRMC,215015.000,A,3242.7161,N,11629.6264,W,46.87,138.9,051110,,*14
$GPRMC,215018.000,A,3242.6831,N,11629.6025,W,45.20,148.2,051110,,*11
$GPRMC,215021.000,A,3242.6494,N,11629.5840,W,43.66,156.6,051110,,*1F
$GPRMC,215024.000,A,3242.6142,N,11629.5738,W,42.27,165.2,051110,,*14
$GPRMC,215027.000,A,3242.5812,N,11629.5608,W,41.27,157.9,051110,,*13
$GPRMC,215030.000,A,3242.5526,N,11629.5376,W,42.18,141.8,051110,,*1A
$GPRMC,215033.000,A,3242.5287,N,11629.5051,W,43.47,131.9,051110,,*1E
$GPRMC,215036.000,A,3242.5034,N,11629.4750,W,42.03,139.2,051110,,*14
$GPRMC,215039.000,A,3242.4722,N,11629.4588,W,40.30,158.6,051110,,*1C
$GPRMC,215042.000,A,3242.4383,N,11629.4494,W,42.67,165.5,051110,,*1E
$GPRMC,215045.000,A,3242.4030,N,11629.4395,W,43.35,166.5,051110,,*11
$GPRMC,215048.000,A,3242.3667,N,11629.4304,W,43.77,167.0,051110,,*15
$GPRMC,215051.000,A,3242.3297,N,11629.4202,W,45.89,166.5,051110,,*12
$GPRMC,215054.000,A,3242.2920,N,11629.4099,W,45.43,166.4,051110,,*16
$GPRMC,215057.000,A,3242.2556,N,11629.3994,W,43.64,166.6,051110,,*1A
$GPRMC,215100.000,A,3242.2209,N,11629.3920,W,40.24,172.0,051110,,*1F
$GPRMC,215103.000,A,3242.1880,N,11629.3919,W,37.28,178.2,051110,,*1A
$GPRMC,215106.000,A,3242.1572,N,11629.3860,W,38.15,166.0,051110,,*1C
$GPRMC,215109.000,A,3242.1266,N,11629.3708,W,40.76,157.9,051110,,*11
$GPRMC,215112.000,A,3242.0952,N,11629.3554,W,40.64,159.9,051110,,*10
$GPRMC,215115.000,A,3242.0618,N,11629.3448,W,41.66,165.7,051110,,*18
$GPRMC,215118.000,A,3242.0262,N,11629.3369,W,43.58,169.1,051110,,*1D
$GPRMC,215121.000,A,3241.9901,N,11629.3314,W,41.72,174.1,051110,,*1F
$GPRMC,215124.000,A,3241.9568,N,11629.3341,W,37.64,185.8,051110,,*18
$GPRMC,215127.000,A,3241.9287,N,11629.3464,W,34.13,201.4,051110,,*1D
$GPRMC,215130.000,A,3241.9046,N,11629.3632,W,34.37,208.1,051110,,*1F
$GPRMC,215133.000,A,3241.8773,N,11629.3774,W,36.44,201.2,051110,,*13
$GPRMC,215136.000,A,3241.8448,N,11629.3837,W,39.92,188.4,051110,,*15
$GPRMC,215139.000,A,3241.8101,N,11629.3834,W,41.23,179.6,051110,,*18
$GPRMC,215142.000,A,3241.7751,N,11629.3806,W,40.98,177.5,051110,,*15
$GPRMC,215145.000,A,3241.7399,N,11629.3787,W,41.88,177.5,051110,,*14
$GPRMC,215148.000,A,3241.7044,N,11629.3766,W,43.51,177.3,051110,,*15
$GPRMC,215151.000,A,3241.6673,N,11629.3739,W,45.35,177.4,051110,,*17
$GPRMC,215154.000,A,3241.6282,N,11629.3717,W,47.41,177.2,051110,,*13
$GPRMC,215157.000,A,3241.5883,N,11629.3692,W,47.56,177.5,051110,,*15
$GPRMC,215200.000,A,3241.5489,N,11629.3670,W,45.38,177.4,051110,,*15
$GPRMC,215203.000,A,3241.5134,N,11629.3648,W,40.39,176.4,051110,,*1B
$GPRMC,215206.000,A,3241.4831,N,11629.3621,W,33.58,176.2,051110,,*19
$GPRMC,215209.000,A,3241.4597,N,11629.3615,W,25.33,181.1,051110,,*11
$GPRMC,215212.000,A,3241.4416,N,11629.3705,W,24.80,204.2,051110,,*17
$GPRMC,215215.000,A,3241.4270,N,11629.3905,W,27.60,229.8,051110,,*10
$GPRMC,215218.000,A,3241.4180,N,11629.4181,W,30.23,249.1,051110,,*1C
$GPRMC,215221.000,A,3241.4135,N,11629.4493,W,32.14,257.4,051110,,*12
$GPRMC,215224.000,A,3241.4083,N,11629.4817,W,33.35,255.7,051110,,*18
$GPRMC,215227.000,A,3241.3977,N,11629.5139,W,35.29,245.1,051110,,*16
$GPRMC,215230.000,A,3241.3815,N,11629.5423,W,32.87,232.7,051110,,*1E
$GPRMC,215233.000,A,3241.3591,N,11629.5610,W,33.81,213.4,051110,,*19
$GPRMC,215236.000,A,3241.3315,N,11629.5711,W,34.55,195.9,051110,,*18
$GPRMC,215239.000,A,3241.3023,N,11629.5783,W,35.87,194.7,051110,,*1B
$GPRMC,215242.000,A,3241.2750,N,11629.5946,W,37.46,210.6,051110,,*13
$GPRMC,215245.000,A,3241.2508,N,11629.6210,W,39.76,222.6,051110,,*1C
$GPRMC,215248.000,A,3241.2268,N,11629.6509,W,42.05,225.2,051110,,*14
$GPRMC,215251.000,A,3241.2013,N,11629.6815,W,43.92,225.0,051110,,*1F
$GPRMC,215254.000,A,3241.1747,N,11629.7134,W,44.63,224.7,051110,,*1B
$GPRMC,215257.000,A,3241.1483,N,11629.7453,W,43.80,225.0,051110,,*1B
$GPRMC,215300.000,A,3241.1225,N,11629.7762,W,43.29,225.2,051110,,*12
$GPRMC,215303.000,A,3241.0968,N,11629.8068,W,42.18,224.8,051110,,*18
$GPRMC,215306.000,A,3241.0713,N,11629.8367,W,42.64,224.7,051110,,*17
$GPRMC,215309.000,A,3241.0461,N,11629.8660,W,42.84,224.7,051110,,*12
$GPRMC,215312.000,A,3241.0216,N,11629.8948,W,40.42,224.8,051110,,*1C
$GPRMC,215315.000,A,3240.9987,N,11629.9227,W,38.37,225.5,051110,,*12
$GPRMC,215318.000,A,3240.9774,N,11629.9499,W,37.08,227.4,051110,,*1E
$GPRMC,215321.000,A,3240.9579,N,11629.9769,W,35.25,230.4,051110,,*1C
$GPRMC,215324.000,A,3240.9407,N,11630.0036,W,34.02,233.1,051110,,*1F
$GPRMC,215327.000,A,3240.9245,N,11630.0304,W,33.58,234.4,051110,,*14
$GPRMC,215330.000,A,3240.9079,N,11630.0570,W,34.22,234.3,051110,,*17
$GPRMC,215333.000,A,3240.8914,N,11630.0843,W,33.99,234.4,051110,,*1A
$GPRMC,215336.000,A,3240.8756,N,11630.1117,W,33.46,235.3,051110,,*1A
$GPRMC,215339.000,A,3240.8592,N,11630.1384,W,33.67,234.7,051110,,*11
$GPRMC,215342.000,A,3240.8428,N,11630.1655,W,33.99,234.4,051110,,*16
$GPRMC,215345.000,A,3240.8264,N,11630.1921,W,33.66,234.3,051110,,*14
$GPRMC,215348.000,A,3240.8104,N,11630.2190,W,33.15,234.3,051110,,*19
$GPRMC,215351.000,A,3240.7951,N,11630.2453,W,32.05,235.9,051110,,*17
$GPRMC,215354.000,A,3240.7810,N,11630.2716,W,31.54,238.8,051110,,*1F
$GPRMC,215357.000,A,3240.7694,N,11630.2994,W,31.16,245.4,051110,,*1A
$GPRMC,215400.000,A,3240.7611,N,11630.3287,W,31.58,253.1,051110,,*12
$GPRMC,215403.000,A,3240.7555,N,11630.3594,W,32.67,258.6,051110,,*14
$GPRMC,215406.000,A,3240.7528,N,11630.3916,W,33.32,265.4,051110,,*10
$GPRMC,215409.000,A,3240.7524,N,11630.4247,W,33.85,269.4,051110,,*1B
$GPRMC,215412.000,A,3240.7528,N,11630.4582,W,34.16,270.2,051110,,*10
$GPRMC,215415.000,A,3240.7532,N,11630.4916,W,33.95,270.2,051110,,*11
$GPRMC,215418.000,A,3240.7531,N,11630.5243,W,32.97,269.7,051110,,*1B
$GPRMC,215421.000,A,3240.7527,N,11630.5564,W,32.05,269.5,051110,,*1D
$GPRMC,215424.000,A,3240.7528,N,11630.5864,W,30.02,269.8,051110,,*12
$GPRMC,215427.000,A,3240.7528,N,11630.6134,W,24.41,269.6,051110,,*12
$GPRMC,215430.000,A,3240.7525,N,11630.6324,W,16.81,269.5,051110,,*14
$GPRMC,215433.000,A,3240.7524,N,11630.6431,W,7.72,266.0,051110,,*23
$GPRMC,215436.000,A,3240.7505,N,11630.6468,W,5.33,266.0,051110,,*2E
$GPRMC,215439.000,A,3240.7450,N,11630.6434,W,9.82,141.0,051110,,*29
$GPRMC,215442.000,A,3240.7362,N,11630.6307,W,19.08,129.8,051110,,*11
$GPRMC,215445.000,A,3240.7238,N,11630.6115,W,25.99,127.1,051110,,*19
$GPRMC,215448.000,A,3240.7084,N,11630.5879,W,30.61,128.1,051110,,*1D
$GPRMC,215451.000,A,3240.6901,N,11630.5617,W,34.89,129.1,051110,,*15
$GPRMC,215454.000,A,3240.6698,N,11630.5337,W,37.42,130.9,051110,,*1C
$GPRMC,215457.000,A,3240.6477,N,11630.5061,W,38.00,133.4,051110,,*1B
$GPRMC,215500.000,A,3240.6250,N,11630.4787,W,38.26,134.3,051110,,*11
$GPRMC,215503.000,A,3240.6023,N,11630.4507,W,38.81,134.4,051110,,*14
$GPRMC,215506.000,A,3240.5789,N,11630.4233,W,38.64,135.8,051110,,*13
$GPRMC,215509.000,A,3240.5554,N,11630.3982,W,37.26,139.3,051110,,*16
$GPRMC,215512.000,A,3240.5299,N,11630.3761,W,37.08,144.2,051110,,*1E
$GPRMC,215515.000,A,3240.5031,N,11630.3565,W,37.15,148.7,051110,,*1A
$GPRMC,215518.000,A,3240.4758,N,11630.3393,W,37.61,152.6,051110,,*18
$GPRMC,215521.000,A,3240.4466,N,11630.3238,W,39.34,155.4,051110,,*17
$GPRMC,215524.000,A,3240.4163,N,11630.3069,W,40.66,153.5,051110,,*1A
$GPRMC,215527.000,A,3240.3876,N,11630.2854,W,39.96,146.0,051110,,*14
