NMEA Sentence Code,UTC Time,Status,Latitude,Latitude Direction,Longitude,Longitude Direction,Speed (knots),Track Angle (degrees true),Date,MagneticVariation,Magnetic Variation Direction,[FAA Mode]-Optional,Checksum
$GPRMC,170421.9,A,3258.995738,N,11705.022446,W,63.2,23.1,230510,,,A*77
$GPRMC,170424.9,A,3259.042536,N,11704.998912,W,62.2,21.2,230510,,,A*79
$GPRMC,170427.9,A,3259.089298,N,11704.979271,W,61.1,17.6,230510,,,A*7E
$GPRMC,170430.9,A,3259.143628,N,11704.971025,W,63.3,9.1,230510,,,A*43
$GPRMC,170433.2,A,3259.185083,N,11704.963948,W,63.4,6.7,230510,,,A*49
$GPRMC,170436.2,A,3259.238394,N,11704.961260,W,62.8,0.4,230510,,,A*47
$GPRMC,170439.2,A,3259.290719,N,11704.962624,W,62.7,356.6,230510,,,A*41
$GPRMC,170442.2,A,3259.343034,N,11704.968809,W,63.1,352.8,230510,,,A*4C
$GPRMC,170445.2,A,3259.396191,N,11704.979794,W,63.8,349.0,230510,,,A*4D
$GPRMC,170448.9,A,3259.464381,N,11704.993848,W,70.0,349.9,230510,,,A*4B
$GPRMC,170451.9,A,3259.508395,N,11705.000052,W,59.1,351.5,230510,,,A*43
$GPRMC,170454.9,A,3259.561670,N,11705.013082,W,60.5,352.0,230510,,,A*40
$GPRMC,170457.9,A,3259.611817,N,11705.019594,W,61.7,355.3,230510,,,A*47
$GPRMC,170500.9,A,3259.665404,N,11705.021612,W,63.0,359.7,230510,,,A*42
$GPRMC,170503.9,A,3259.719310,N,11705.019784,W,63.9,2.5,230510,,,A*4A
$GPRMC,170506.9,A,3259.770073,N,11705.014178,W,63.0,6.4,230510,,,A*42
$GPRMC,170509.9,A,3259.822137,N,11705.004707,W,62.6,9.8,230510,,,A*4F
$GPRMC,170512.9,A,3259.873606,N,11704.990922,W,62.4,12.7,230510,,,A*7F
$GPRMC,170515.9,A,3259.924794,N,11704.974736,W,63.2,15.5,230510,,,A*72
$GPRMC,170518.9,A,3259.974990,N,11704.957467,W,62.4,16.6,230510,,,A*71
$GPRMC,170521.9,A,3300.024053,N,11704.937680,W,62.2,18.0,230510,,,A*7F
$GPRMC,170524.9,A,3300.072870,N,11704.919261,W,62.6,17.7,230510,,,A*7B
$GPRMC,170527.9,A,3300.123282,N,11704.901603,W,62.7,16.6,230510,,,A*72
$GPRMC,170530.9,A,3300.174330,N,11704.887182,W,62.3,13.6,230510,,,A*7E
$GPRMC,170533.9,A,3300.226275,N,11704.869947,W,63.2,14.4,230510,,,A*7D
$GPRMC,170536.9,A,3300.276894,N,11704.855913,W,62.8,12.5,230510,,,A*7A
$GPRMC,170539.9,A,3300.329080,N,11704.843376,W,62.6,11.0,230510,,,A*75
$GPRMC,170542.9,A,3300.379329,N,11704.831862,W,61.4,9.8,230510,,,A*47
$GPRMC,170545.9,A,3300.431145,N,11704.823096,W,62.1,7.7,230510,,,A*44
$GPRMC,170548.9,A,3300.484490,N,11704.817877,W,62.8,5.1,230510,,,A*47
$GPRMC,170551.9,A,3300.537861,N,11704.812315,W,62.6,5.6,230510,,,A*47
$GPRMC,170554.9,A,3300.589316,N,11704.807357,W,62.3,4.8,230510,,,A*44
$GPRMC,170557.9,A,3300.642023,N,11704.800807,W,63.3,5.3,230510,,,A*44
$GPRMC,170600.9,A,3300.695450,N,11704.793467,W,63.8,5.5,230510,,,A*4D
$GPRMC,170603.9,A,3300.748375,N,11704.787794,W,63.1,4.9,230510,,,A*41
$GPRMC,170606.9,A,3300.800559,N,11704.782054,W,62.9,5.5,230510,,,A*45
$GPRMC,170609.9,A,3300.850639,N,11704.775248,W,61.4,6.2,230510,,,A*47
$GPRMC,170612.9,A,3300.903006,N,11704.770917,W,61.5,5.0,230510,,,A*44
$GPRMC,170615.9,A,3300.952985,N,11704.766613,W,61.3,4.2,230510,,,A*4C
$GPRMC,170618.2,A,3300.993591,N,11704.762671,W,61.2,4.4,230510,,,A*49
$GPRMC,170621.9,A,3301.060117,N,11704.756032,W,63.9,4.7,230510,,,A*4A
$GPRMC,170624.9,A,3301.113663,N,11704.748056,W,63.1,5.8,230510,,,A*45
$GPRMC,170627.9,A,3301.167339,N,11704.739892,W,63.3,6.0,230510,,,A*40
$GPRMC,170630.9,A,3301.218428,N,11704.734611,W,62.1,5.3,230510,,,A*41
$GPRMC,170633.9,A,3301.271320,N,11704.728252,W,63.5,4.7,230510,,,A*4C
$GPRMC,170636.9,A,3301.324653,N,11704.723719,W,63.2,3.0,230510,,,A*4F
$GPRMC,170639.9,A,3301.375666,N,11704.723379,W,61.4,0.6,230510,,,A*41
$GPRMC,170642.9,A,3301.427307,N,11704.722720,W,62.7,0.6,230510,,,A*46
$GPRMC,170645.9,A,3301.479714,N,11704.721277,W,63.2,1.7,230510,,,A*4C
$GPRMC,170648.9,A,3301.533859,N,11704.721348,W,63.7,359.9,230510,,,A*40
$GPRMC,170651.9,A,3301.587363,N,11704.721251,W,63.1,0.7,230510,,,A*4B
$GPRMC,170654.9,A,3301.638894,N,11704.719337,W,62.5,1.2,230510,,,A*41
$GPRMC,170657.9,A,3301.690532,N,11704.721174,W,62.2,358.1,230510,,,A*44
$GPRMC,170700.9,A,3301.743687,N,11704.719088,W,62.9,2.9,230510,,,A*43
$GPRMC,170703.9,A,3301.798085,N,11704.712177,W,63.8,6.0,230510,,,A*45
$GPRMC,170706.9,A,3301.848970,N,11704.704099,W,62.5,7.9,230510,,,A*43
$GPRMC,170709.9,A,3301.897761,N,11704.694261,W,62.0,10.6,230510,,,A*71
$GPRMC,170712.9,A,3301.949042,N,11704.682422,W,63.1,10.9,230510,,,A*76
$GPRMC,170715.9,A,3301.997852,N,11704.663006,W,62.3,17.2,230510,,,A*79
$GPRMC,170718.9,A,3302.049993,N,11704.640735,W,63.4,19.7,230510,,,A*7A
$GPRMC,170721.9,A,3302.101487,N,11704.620220,W,63.5,19.0,230510,,,A*74
$GPRMC,170724.9,A,3302.150092,N,11704.598347,W,63.0,19.4,230510,,,A*74
$GPRMC,170727.9,A,3302.198848,N,11704.575756,W,62.2,19.8,230510,,,A*74
$GPRMC,170730.9,A,3302.248759,N,11704.557909,W,63.2,16.9,230510,,,A*78
$GPRMC,170733.9,A,3302.298042,N,11704.537935,W,62.6,18.7,230510,,,A*77
$GPRMC,170736.9,A,3302.347841,N,11704.516958,W,60.7,19.2,230510,,,A*75
$GPRMC,170739.9,A,3302.396058,N,11704.495611,W,62.2,19.8,230510,,,A*73
$GPRMC,170742.9,A,3302.445557,N,11704.475959,W,62.3,19.3,230510,,,A*7B
$GPRMC,170745.9,A,3302.495834,N,11704.454678,W,62.4,19.6,230510,,,A*74
$GPRMC,170748.9,A,3302.545102,N,11704.436036,W,62.0,17.9,230510,,,A*74
$GPRMC,170751.9,A,3302.594788,N,11704.412486,W,63.2,19.6,230510,,,A*7F
$GPRMC,170754.9,A,3302.643941,N,11704.395402,W,61.3,16.4,230510,,,A*72
$GPRMC,170757.9,A,3302.696373,N,11704.379815,W,62.6,13.0,230510,,,A*7D
$GPRMC,170800.9,A,3302.748127,N,11704.367221,W,62.9,8.2,230510,,,A*44
$GPRMC,170803.9,A,3302.801703,N,11704.362796,W,63.8,2.9,230510,,,A*48
$GPRMC,170806.9,A,3302.853995,N,11704.363328,W,63.0,358.3,230510,,,A*45
$GPRMC,170809.9,A,3302.905696,N,11704.367155,W,62.2,356.7,230510,,,A*41
$GPRMC,170812.9,A,3302.957957,N,11704.370380,W,62.7,358.0,230510,,,A*4E
$GPRMC,170815.9,A,3303.010324,N,11704.369691,W,63.1,1.4,230510,,,A*4D
$GPRMC,170818.9,A,3303.062213,N,11704.366780,W,63.4,3.8,230510,,,A*45
$GPRMC,170821.9,A,3303.116567,N,11704.359087,W,63.7,7.2,230510,,,A*48
$GPRMC,170824.9,A,3303.167463,N,11704.349075,W,62.5,10.2,230510,,,A*77
$GPRMC,170827.9,A,3303.217842,N,11704.335556,W,62.2,12.3,230510,,,A*74
$GPRMC,170830.9,A,3303.269647,N,11704.317979,W,63.6,15.7,230510,,,A*77
$GPRMC,170833.9,A,3303.319543,N,11704.298610,W,63.0,19.0,230510,,,A*7E
$GPRMC,170837.2,A,3303.372241,N,11704.273296,W,61.4,22.2,230510,,,A*7A
$GPRMC,170840.9,A,3303.432089,N,11704.243415,W,62.6,22.6,230510,,,A*7F
$GPRMC,170843.9,A,3303.480919,N,11704.219732,W,62.7,21.9,230510,,,A*71
$GPRMC,170846.9,A,3303.531222,N,11704.199050,W,63.0,18.7,230510,,,A*76
$GPRMC,170849.9,A,3303.582130,N,11704.180566,W,63.2,16.6,230510,,,A*74
$GPRMC,170852.9,A,3303.633051,N,11704.161317,W,63.8,15.5,230510,,,A*74
$GPRMC,170855.9,A,3303.680442,N,11704.150230,W,56.4,10.8,230510,,,A*79
$GPRMC,170858.9,A,3303.728025,N,11704.138775,W,58.0,9.7,230510,,,A*45
$GPRMC,170901.9,A,3303.787320,N,11704.136095,W,62.8,5.3,230510,,,A*45
$GPRMC,170904.9,A,3303.841439,N,11704.130392,W,63.3,3.5,230510,,,A*42
$GPRMC,170907.9,A,3303.893433,N,11704.129584,W,62.4,0.6,230510,,,A*4B
$GPRMC,170910.9,A,3303.944707,N,11704.130129,W,62.2,358.3,230510,,,A*44
$GPRMC,170913.9,A,3303.996795,N,11704.135255,W,62.0,354.7,230510,,,A*44
$GPRMC,170916.9,A,3304.048884,N,11704.141032,W,62.8,354.7,230510,,,A*4B
$GPRMC,170919.9,A,3304.103191,N,11704.148282,W,63.7,353.2,230510,,,A*4B
$GPRMC,170922.9,A,3304.153871,N,11704.156410,W,61.7,352.7,230510,,,A*45
$GPRMC,170925.2,A,3304.193209,N,11704.161270,W,62.1,353.5,230510,,,A*42
$GPRMC,170928.9,A,3304.256776,N,11704.169343,W,62.2,354.7,230510,,,A*4C
$GPRMC,170931.9,A,3304.308161,N,11704.176381,W,63.2,353.4,230510,,,A*4B
$GPRMC,170935.2,A,3304.365568,N,11704.185381,W,63.4,354.3,230510,,,A*48
$GPRMC,170938.9,A,3304.431152,N,11704.198247,W,63.7,350.1,230510,,,A*47
$GPRMC,170941.2,A,3304.470378,N,11704.203067,W,63.3,352.0,230510,,,A*4B
$GPRMC,170945.2,A,3304.541664,N,11704.214933,W,64.0,350.4,230510,,,A*48
$GPRMC,170948.0,A,3304.586581,N,11704.225167,W,62.2,348.0,230510,,,A*46
$GPRMC,170951.9,A,3304.651307,N,11704.242831,W,60.7,345.5,230510,,,A*42
$GPRMC,170954.9,A,3304.698887,N,11704.264216,W,62.3,339.9,230510,,,A*4B
$GPRMC,170957.9,A,3304.749727,N,11704.284160,W,62.9,340.1,230510,,,A*40
$GPRMC,171000.9,A,3304.799916,N,11704.305333,W,62.8,338.7,230510,,,A*4F
$GPRMC,171003.9,A,3304.849031,N,11704.329563,W,63.4,337.0,230510,,,A*4A
$GPRMC,171006.9,A,3304.895925,N,11704.355654,W,63.7,335.0,230510,,,A*4F
$GPRMC,171009.9,A,3304.941782,N,11704.382967,W,62.2,333.0,230510,,,A*4C
$GPRMC,171012.9,A,3304.987124,N,11704.413348,W,62.9,330.8,230510,,,A*4E
$GPRMC,171015.9,A,3305.034507,N,11704.443357,W,64.3,330.5,230510,,,A*46
$GPRMC,171018.9,A,3305.079779,N,11704.478460,W,64.1,327.1,230510,,,A*42
$GPRMC,171021.9,A,3305.122130,N,11704.513315,W,60.8,325.9,230510,,,A*42
$GPRMC,171024.9,A,3305.164248,N,11704.549800,W,62.4,323.1,230510,,,A*49
$GPRMC,171027.9,A,3305.207330,N,11704.587637,W,64.6,323.6,230510,,,A*49
$GPRMC,171030.9,A,3305.246113,N,11704.630261,W,63.4,319.0,230510,,,A*4B
$GPRMC,171033.9,A,3305.285339,N,11704.671938,W,62.9,318.1,230510,,,A*43
$GPRMC,171036.9,A,3305.324534,N,11704.715462,W,63.7,318.5,230510,,,A*4D
$GPRMC,171039.9,A,3305.361368,N,11704.757500,W,62.2,317.4,230510,,,A*45
$GPRMC,171042.9,A,3305.400528,N,11704.798879,W,63.0,318.0,230510,,,A*43
$GPRMC,171045.9,A,3305.441330,N,11704.841691,W,63.6,318.1,230510,,,A*4A
$GPRMC,171048.9,A,3305.481265,N,11704.881841,W,63.8,318.6,230510,,,A*4C
$GPRMC,171051.9,A,3305.518347,N,11704.922334,W,62.2,317.0,230510,,,A*47
$GPRMC,171054.9,A,3305.556093,N,11704.964885,W,63.7,317.0,230510,,,A*45
$GPRMC,171057.9,A,3305.596416,N,11705.008122,W,63.5,317.5,230510,,,A*42
$GPRMC,171100.9,A,3305.637768,N,11705.050782,W,63.8,318.3,230510,,,A*46
$GPRMC,171103.9,A,3305.675682,N,11705.093426,W,63.0,317.0,230510,,,A*40
$GPRMC,171106.9,A,3305.714208,N,11705.135283,W,62.8,317.8,230510,,,A*40
$GPRMC,171109.9,A,3305.752547,N,11705.175535,W,61.9,318.5,230510,,,A*4F
$GPRMC,171112.9,A,3305.793990,N,11705.216670,W,63.3,320.1,230510,,,A*4D
$GPRMC,171115.9,A,3305.834947,N,11705.253497,W,62.5,322.7,230510,,,A*4B
$GPRMC,171118.9,A,3305.876684,N,11705.290200,W,62.4,324.0,230510,,,A*47
$GPRMC,171121.9,A,3305.919455,N,11705.325389,W,61.9,325.9,230510,,,A*42
$GPRMC,171124.9,A,3305.963654,N,11705.359506,W,63.0,328.3,230510,,,A*4F
$GPRMC,171127.9,A,3306.008696,N,11705.391143,W,62.3,329.5,230510,,,A*41
$GPRMC,171130.9,A,3306.052792,N,11705.423931,W,62.4,330.1,230510,,,A*45
$GPRMC,171133.9,A,3306.097906,N,11705.452091,W,62.1,333.0,230510,,,A*4E
$GPRMC,171136.9,A,3306.146363,N,11705.479262,W,63.5,333.9,230510,,,A*44
$GPRMC,171139.9,A,3306.194674,N,11705.505636,W,63.2,335.0,230510,,,A*40
$GPRMC,171142.9,A,3306.242583,N,11705.533329,W,63.5,333.8,230510,,,A*48
$GPRMC,171145.9,A,3306.291313,N,11705.559991,W,62.9,334.5,230510,,,A*4C
$GPRMC,171148.9,A,3306.338851,N,11705.589027,W,63.4,332.7,230510,,,A*4F
$GPRMC,171151.9,A,3306.385487,N,11705.616929,W,62.7,334.0,230510,,,A*47
$GPRMC,171154.9,A,3306.431673,N,11705.645008,W,62.4,333.3,230510,,,A*48
$GPRMC,171157.9,A,3306.478944,N,11705.671883,W,63.1,334.2,230510,,,A*43
$GPRMC,171200.9,A,3306.523553,N,11705.700286,W,61.9,332.6,230510,,,A*47
$GPRMC,171203.9,A,3306.572644,N,11705.727342,W,63.9,334.4,230510,,,A*4F
$GPRMC,171206.9,A,3306.620266,N,11705.754309,W,62.8,333.8,230510,,,A*4A
$GPRMC,171209.9,A,3306.668077,N,11705.782653,W,63.3,333.0,230510,,,A*48
$GPRMC,171212.9,A,3306.715501,N,11705.811329,W,63.4,333.0,230510,,,A*47
$GPRMC,171215.9,A,3306.762120,N,11705.838417,W,62.8,333.3,230510,,,A*48
$GPRMC,171218.9,A,3306.810673,N,11705.865688,W,63.4,334.8,230510,,,A*43
$GPRMC,171221.9,A,3306.858649,N,11705.892039,W,62.8,334.1,230510,,,A*4C
$GPRMC,171224.9,A,3306.904816,N,11705.920788,W,62.6,333.2,230510,,,A*4A
$GPRMC,171227.9,A,3306.951785,N,11705.948391,W,62.4,333.6,230510,,,A*48
$GPRMC,171230.9,A,3306.997902,N,11705.976432,W,62.3,333.8,230510,,,A*4F
$GPRMC,171233.9,A,3307.045846,N,11706.001958,W,63.3,334.6,230510,,,A*49
$GPRMC,171236.9,A,3307.092355,N,11706.029551,W,63.0,333.4,230510,,,A*46
$GPRMC,171239.9,A,3307.140770,N,11706.058156,W,63.6,333.6,230510,,,A*45
$GPRMC,171242.9,A,3307.187076,N,11706.084084,W,61.9,334.1,230510,,,A*41
$GPRMC,171245.9,A,3307.234671,N,11706.111866,W,63.1,333.5,230510,,,A*4C
$GPRMC,171248.9,A,3307.281483,N,11706.138723,W,63.0,333.8,230510,,,A*49
$GPRMC,171251.9,A,3307.327772,N,11706.166576,W,62.7,333.5,230510,,,A*43
$GPRMC,171254.9,A,3307.375122,N,11706.192761,W,62.6,335.7,230510,,,A*48
$GPRMC,171257.9,A,3307.422876,N,11706.215685,W,61.9,339.0,230510,,,A*46
$GPRMC,171300.9,A,3307.474091,N,11706.238284,W,63.0,341.1,230510,,,A*48
$GPRMC,171303.9,A,3307.525634,N,11706.255862,W,62.5,343.1,230510,,,A*48
$GPRMC,171306.9,A,3307.572445,N,11706.271841,W,60.2,345.3,230510,,,A*4D
$GPRMC,171309.9,A,3307.627274,N,11706.282342,W,63.2,349.9,230510,,,A*44
$GPRMC,171312.9,A,3307.678487,N,11706.292095,W,61.9,351.5,230510,,,A*4A
$GPRMC,171316.2,A,3307.735829,N,11706.300635,W,62.1,352.7,230510,,,A*49
$GPRMC,171319.9,A,3307.800077,N,11706.306804,W,63.0,355.7,230510,,,A*4A
$GPRMC,171322.9,A,3307.852685,N,11706.308042,W,63.5,359.7,230510,,,A*43
$GPRMC,171325.9,A,3307.904797,N,11706.307667,W,62.5,1.4,230510,,,A*46
$GPRMC,171328.9,A,3307.956698,N,11706.303930,W,62.9,3.0,230510,,,A*41
$GPRMC,171331.9,A,3308.009711,N,11706.300979,W,63.1,2.9,230510,,,A*4A
$GPRMC,171334.2,A,3308.050929,N,11706.298972,W,63.6,2.9,230510,,,A*41
$GPRMC,171337.2,A,3308.103940,N,11706.296078,W,63.0,2.3,230510,,,A*4B
$GPRMC,171340.2,A,3308.156396,N,11706.293854,W,63.1,2.2,230510,,,A*49
$GPRMC,171343.9,A,3308.220191,N,11706.290989,W,61.9,2.5,230510,,,A*49
$GPRMC,171346.9,A,3308.273285,N,11706.287365,W,63.5,2.7,230510,,,A*4E
$GPRMC,171349.9,A,3308.325364,N,11706.284859,W,62.8,1.9,230510,,,A*4B
$GPRMC,171352.9,A,3308.377510,N,11706.282348,W,62.5,2.3,230510,,,A*4A
$GPRMC,171355.9,A,3308.429712,N,11706.279852,W,63.2,2.7,230510,,,A*47
$GPRMC,171358.9,A,3308.483357,N,11706.275469,W,63.2,3.3,230510,,,A*42
$GPRMC,171401.9,A,3308.535989,N,11706.272011,W,63.8,3.3,230510,,,A*4A
$GPRMC,171404.9,A,3308.587443,N,11706.271053,W,62.0,1.9,230510,,,A*49
$GPRMC,171407.9,A,3308.640629,N,11706.268583,W,63.2,1.9,230510,,,A*4F
$GPRMC,171410.9,A,3308.691281,N,11706.266159,W,61.9,2.3,230510,,,A*4E
$GPRMC,171413.9,A,3308.745577,N,11706.263910,W,63.1,3.0,230510,,,A*43
$GPRMC,171416.9,A,3308.797859,N,11706.259885,W,63.2,2.9,230510,,,A*47
$GPRMC,171419.9,A,3308.848765,N,11706.258613,W,61.9,1.9,230510,,,A*4F
$GPRMC,171422.9,A,3308.901686,N,11706.254264,W,63.2,2.7,230510,,,A*4B
$GPRMC,171425.9,A,3308.953873,N,11706.251182,W,62.5,3.0,230510,,,A*41
$GPRMC,171428.9,A,3309.008644,N,11706.248922,W,63.7,2.4,230510,,,A*4C
$GPRMC,171431.2,A,3309.049277,N,11706.247213,W,62.8,2.8,230510,,,A*4A
$GPRMC,171434.9,A,3309.112216,N,11706.243606,W,63.0,2.4,230510,,,A*4D
$GPRMC,171437.9,A,3309.166555,N,11706.240873,W,64.9,3.0,230510,,,A*49
$GPRMC,171440.9,A,3309.217244,N,11706.238352,W,62.5,2.0,230510,,,A*47
$GPRMC,171443.9,A,3309.269722,N,11706.235180,W,63.5,2.5,230510,,,A*4C
$GPRMC,171446.9,A,3309.323202,N,11706.235108,W,63.2,359.8,230510,,,A*46
$GPRMC,171449.9,A,3309.374195,N,11706.238144,W,62.3,356.3,230510,,,A*47
$GPRMC,171452.9,A,3309.425677,N,11706.242596,W,62.3,354.9,230510,,,A*4B
$GPRMC,171455.9,A,3309.476621,N,11706.249925,W,62.5,352.4,230510,,,A*4B
$GPRMC,171458.2,A,3309.516000,N,11706.258794,W,62.8,349.7,230510,,,A*4F
$GPRMC,171501.2,A,3309.566856,N,11706.271704,W,61.9,348.0,230510,,,A*48
$GPRMC,171504.2,A,3309.617541,N,11706.286891,W,62.8,344.8,230510,,,A*4E
$GPRMC,171507.2,A,3309.668351,N,11706.303239,W,62.8,343.0,230510,,,A*49
$GPRMC,171510.9,A,3309.730584,N,11706.324964,W,61.9,344.8,230510,,,A*4D
$GPRMC,171513.9,A,3309.777876,N,11706.349867,W,62.8,337.6,230510,,,A*4C
$GPRMC,171516.9,A,3309.827564,N,11706.375930,W,65.0,336.1,230510,,,A*48
$GPRMC,171519.9,A,3309.875044,N,11706.403327,W,63.1,334.4,230510,,,A*4D
$GPRMC,171522.9,A,3309.923546,N,11706.430560,W,64.1,334.9,230510,,,A*4F
$GPRMC,171525.9,A,3309.969717,N,11706.458187,W,62.2,334.7,230510,,,A*48
$GPRMC,171528.9,A,3310.017374,N,11706.484178,W,62.7,334.9,230510,,,A*46
$GPRMC,171531.9,A,3310.063919,N,11706.510571,W,62.3,334.4,230510,,,A*44
$GPRMC,171534.9,A,3310.110561,N,11706.538447,W,62.8,333.5,230510,,,A*44
$GPRMC,171537.9,A,3310.158075,N,11706.565605,W,63.1,334.4,230510,,,A*49
$GPRMC,171540.9,A,3310.206911,N,11706.593823,W,63.7,334.3,230510,,,A*48
$GPRMC,171543.9,A,3310.253747,N,11706.621694,W,62.9,333.6,230510,,,A*43
$GPRMC,171546.9,A,3310.301614,N,11706.648673,W,62.5,334.4,230510,,,A*48
$GPRMC,171549.9,A,3310.347417,N,11706.675396,W,62.1,333.2,230510,,,A*41
$GPRMC,171552.9,A,3310.396625,N,11706.702168,W,63.4,335.6,230510,,,A*40
$GPRMC,171555.9,A,3310.440520,N,11706.731246,W,61.7,333.1,230510,,,A*42
$GPRMC,171558.9,A,3310.488666,N,11706.758699,W,63.4,334.5,230510,,,A*41
$GPRMC,171601.9,A,3310.536498,N,11706.785072,W,62.7,335.0,230510,,,A*4C
$GPRMC,171604.9,A,3310.585295,N,11706.811443,W,64.0,334.9,230510,,,A*47
$GPRMC,171607.9,A,3310.632174,N,11706.839289,W,63.2,333.7,230510,,,A*41
$GPRMC,171610.9,A,3310.679220,N,11706.865496,W,62.0,334.4,230510,,,A*4C
$GPRMC,171613.9,A,3310.724783,N,11706.893492,W,62.3,333.9,230510,,,A*4E
$GPRMC,171616.9,A,3310.771092,N,11706.920030,W,62.4,334.2,230510,,,A*42
$GPRMC,171619.9,A,3310.818427,N,11706.946499,W,62.6,334.2,230510,,,A*42
$GPRMC,171622.9,A,3310.867302,N,11706.973418,W,63.1,334.5,230510,,,A*4C
$GPRMC,171625.9,A,3310.912981,N,11707.001153,W,62.1,333.9,230510,,,A*44
$GPRMC,171628.9,A,3310.960665,N,11707.028527,W,62.6,333.9,230510,,,A*42
$GPRMC,171631.9,A,3311.009761,N,11707.056069,W,64.2,334.9,230510,,,A*4B
$GPRMC,171634.9,A,3311.056426,N,11707.083142,W,63.1,334.0,230510,,,A*49
$GPRMC,171637.9,A,3311.103674,N,11707.110065,W,63.5,334.1,230510,,,A*44
$GPRMC,171640.9,A,3311.152915,N,11707.137967,W,63.5,335.1,230510,,,A*47
$GPRMC,171643.9,A,3311.201046,N,11707.164875,W,63.1,334.4,230510,,,A*4A
$GPRMC,171646.9,A,3311.246850,N,11707.191483,W,61.7,333.8,230510,,,A*43
$GPRMC,171649.9,A,3311.293049,N,11707.219085,W,62.2,334.0,230510,,,A*4C
$GPRMC,171652.9,A,3311.340412,N,11707.246952,W,63.2,334.1,230510,,,A*4A
$GPRMC,171655.9,A,3311.389076,N,11707.274389,W,63.7,334.1,230510,,,A*46
$GPRMC,171658.9,A,3311.438655,N,11707.302333,W,64.3,334.5,230510,,,A*47
$GPRMC,171701.9,A,3311.483350,N,11707.329428,W,61.6,333.3,230510,,,A*4F
$GPRMC,171704.2,A,3311.520958,N,11707.349800,W,63.1,334.1,230510,,,A*4B
$GPRMC,171707.2,A,3311.567746,N,11707.377089,W,63.0,334.2,230510,,,A*4C
$GPRMC,171710.2,A,3311.614949,N,11707.404493,W,62.9,333.9,230510,,,A*44
$GPRMC,171713.2,A,3311.662286,N,11707.432037,W,62.8,334.2,230510,,,A*4C
$GPRMC,171716.0,A,3311.706011,N,11707.457220,W,63.0,334.3,230510,,,A*4B
$GPRMC,171719.9,A,3311.766490,N,11707.491774,W,62.2,334.1,230510,,,A*49
$GPRMC,171722.9,A,3311.814375,N,11707.519298,W,63.0,334.1,230510,,,A*42
$GPRMC,171726.2,A,3311.867066,N,11707.549689,W,63.3,334.4,230510,,,A*4F
$GPRMC,171729.9,A,3311.925286,N,11707.582273,W,61.8,334.6,230510,,,A*4D
$GPRMC,171732.9,A,3311.973614,N,11707.608200,W,63.2,334.3,230510,,,A*43
$GPRMC,171735.9,A,3312.020879,N,11707.637957,W,63.8,332.3,230510,,,A*44
$GPRMC,171738.9,A,3312.066293,N,11707.665722,W,62.2,333.2,230510,,,A*45
$GPRMC,171741.9,A,3312.113475,N,11707.694674,W,63.4,332.5,230510,,,A*4B
$GPRMC,171744.9,A,3312.159749,N,11707.724910,W,63.1,331.4,230510,,,A*4C
$GPRMC,171747.9,A,3312.206358,N,11707.754360,W,63.6,331.3,230510,,,A*48
$GPRMC,171750.9,A,3312.253375,N,11707.785903,W,64.1,330.3,230510,,,A*43
$GPRMC,171753.9,A,3312.300948,N,11707.816155,W,63.6,331.0,230510,,,A*4F
$GPRMC,171756.9,A,3312.345802,N,11707.847578,W,62.9,329.7,230510,,,A*4B
$GPRMC,171759.9,A,3312.389816,N,11707.879805,W,62.5,327.9,230510,,,A*47
$GPRMC,171802.9,A,3312.432307,N,11707.914066,W,62.5,327.1,230510,,,A*45
$GPRMC,171805.9,A,3312.479519,N,11707.946032,W,63.9,328.6,230510,,,A*47
$GPRMC,171808.9,A,3312.523777,N,11707.980994,W,62.8,327.4,230510,,,A*4C
$GPRMC,171811.9,A,3312.568021,N,11708.014112,W,63.1,327.9,230510,,,A*47
$GPRMC,171814.9,A,3312.612252,N,11708.046858,W,63.0,328.2,230510,,,A*4F
$GPRMC,171817.9,A,3312.658434,N,11708.080801,W,63.7,328.6,230510,,,A*41
$GPRMC,171820.9,A,3312.703479,N,11708.111553,W,63.3,330.5,230510,,,A*4E
$GPRMC,171823.9,A,3312.749735,N,11708.145262,W,64.0,328.1,230510,,,A*45
$GPRMC,171826.0,A,3312.778030,N,11708.167062,W,62.7,328.1,230510,,,A*4A
$GPRMC,171829.9,A,3312.835284,N,11708.214188,W,63.1,327.1,230510,,,A*4D
$GPRMC,171832.9,A,3312.880544,N,11708.246089,W,62.6,328.9,230510,,,A*44
$GPRMC,171835.9,A,3312.925932,N,11708.279107,W,62.9,328.4,230510,,,A*49
$GPRMC,171838.9,A,3312.971929,N,11708.311973,W,64.5,328.7,230510,,,A*42
$GPRMC,171841.9,A,3313.015571,N,11708.346322,W,63.5,327.5,230510,,,A*41
$GPRMC,171844.9,A,3313.059155,N,11708.377064,W,61.9,329.3,230510,,,A*4B
$GPRMC,171847.9,A,3313.104234,N,11708.409157,W,62.6,329.6,230510,,,A*43
$GPRMC,171850.9,A,3313.152030,N,11708.437946,W,63.7,332.6,230510,,,A*4F
$GPRMC,171853.9,A,3313.199794,N,11708.466051,W,63.0,333.0,230510,,,A*49
$GPRMC,171856.9,A,3313.247098,N,11708.493568,W,63.3,334.1,230510,,,A*47
$GPRMC,171859.9,A,3313.295212,N,11708.520634,W,64.1,334.9,230510,,,A*49
$GPRMC,171902.9,A,3313.342459,N,11708.544839,W,62.3,336.7,230510,,,A*4D
$GPRMC,171905.9,A,3313.390585,N,11708.569588,W,62.5,337.2,230510,,,A*4F
$GPRMC,171908.9,A,3313.438704,N,11708.591481,W,63.3,338.5,230510,,,A*4C
$GPRMC,171911.9,A,3313.487812,N,11708.613174,W,62.6,339.4,230510,,,A*4A
$GPRMC,171914.9,A,3313.537242,N,11708.634642,W,63.2,340.7,230510,,,A*45
$GPRMC,171917.9,A,3313.587710,N,11708.655425,W,63.5,340.4,230510,,,A*4F
$GPRMC,171920.9,A,3313.634688,N,11708.678166,W,62.3,339.6,230510,,,A*46
$GPRMC,171923.9,A,3313.683934,N,11708.698122,W,63.5,341.3,230510,,,A*42
$GPRMC,171926.9,A,3313.735833,N,11708.719040,W,62.5,340.5,230510,,,A*46
$GPRMC,171929.9,A,3313.783992,N,11708.740364,W,61.9,340.0,230510,,,A*4D
$GPRMC,171932.9,A,3313.835799,N,11708.760715,W,64.2,340.9,230510,,,A*47
$GPRMC,171935.9,A,3313.886307,N,11708.780397,W,63.5,341.3,230510,,,A*40
$GPRMC,171938.9,A,3313.935853,N,11708.801318,W,61.2,340.2,230510,,,A*4A
$GPRMC,171941.9,A,3313.987667,N,11708.822066,W,63.4,340.7,230510,,,A*4E
$GPRMC,171944.9,A,3314.033788,N,11708.845169,W,61.4,338.1,230510,,,A*4E
$GPRMC,171947.9,A,3314.081492,N,11708.867924,W,62.8,339.1,230510,,,A*43
$GPRMC,171950.9,A,3314.127648,N,11708.889975,W,62.5,339.8,230510,,,A*4D
$GPRMC,171953.9,A,3314.178412,N,11708.910704,W,63.8,340.9,230510,,,A*43
$GPRMC,171956.9,A,3314.228368,N,11708.932436,W,63.4,339.8,230510,,,A*4B
$GPRMC,171959.9,A,3314.277805,N,11708.954603,W,62.9,339.3,230510,,,A*4D
$GPRMC,172002.9,A,3314.327595,N,11708.974125,W,63.3,340.2,230510,,,A*4C
$GPRMC,172005.9,A,3314.376340,N,11708.995889,W,63.2,339.4,230510,,,A*48
$GPRMC,172008.9,A,3314.427081,N,11709.015574,W,63.8,341.3,230510,,,A*45
$GPRMC,172011.9,A,3314.474393,N,11709.039866,W,60.7,337.3,230510,,,A*46
$GPRMC,172014.9,A,3314.523683,N,11709.060459,W,62.8,340.4,230510,,,A*42
$GPRMC,172017.9,A,3314.574288,N,11709.081913,W,62.3,339.7,230510,,,A*46
$GPRMC,172020.9,A,3314.627424,N,11709.100888,W,64.2,341.2,230510,,,A*41
$GPRMC,172023.9,A,3314.674380,N,11709.122531,W,62.7,340.5,230510,,,A*47
$GPRMC,172026.9,A,3314.722714,N,11709.145141,W,63.0,340.3,230510,,,A*4B
$GPRMC,172029.9,A,3314.769786,N,11709.166979,W,59.8,339.4,230510,,,A*4A
$GPRMC,172032.9,A,3314.818483,N,11709.189156,W,62.7,339.7,230510,,,A*4F
$GPRMC,172035.9,A,3314.873355,N,11709.207475,W,65.0,341.4,230510,,,A*44
$GPRMC,172038.9,A,3314.922314,N,11709.228215,W,62.8,340.0,230510,,,A*4E
$GPRMC,172041.9,A,3314.970565,N,11709.251146,W,63.1,339.7,230510,,,A*4D
$GPRMC,172044.9,A,3315.020112,N,11709.272879,W,63.3,340.1,230510,,,A*4F
$GPRMC,172047.9,A,3315.070154,N,11709.293154,W,63.1,340.4,230510,,,A*45
$GPRMC,172050.9,A,3315.117579,N,11709.314485,W,62.0,340.1,230510,,,A*4A
$GPRMC,172053.9,A,3315.167506,N,11709.335727,W,63.1,339.8,230510,,,A*49
$GPRMC,172056.9,A,3315.220029,N,11709.354912,W,65.4,341.9,230510,,,A*46
$GPRMC,172059.9,A,3315.269224,N,11709.376909,W,63.6,340.1,230510,,,A*4C
$GPRMC,172102.9,A,3315.318925,N,11709.395948,W,62.9,340.7,230510,,,A*4E
$GPRMC,172105.9,A,3315.364757,N,11709.422222,W,62.9,339.8,230510,,,A*44
$GPRMC,172108.9,A,3315.413606,N,11709.440732,W,61.9,342.1,230510,,,A*4D
$GPRMC,172111.2,A,3315.452740,N,11709.453755,W,62.1,344.6,230510,,,A*41
$GPRMC,172114.9,A,3315.518514,N,11709.470048,W,62.9,347.2,230510,,,A*46
$GPRMC,172117.9,A,3315.567526,N,11709.482887,W,61.3,348.3,230510,,,A*4D
$GPRMC,172120.9,A,3315.618540,N,11709.494405,W,62.3,350.6,230510,,,A*4C
$GPRMC,172123.9,A,3315.670691,N,11709.499631,W,62.9,354.8,230510,,,A*46
$GPRMC,172126.2,A,3315.713281,N,11709.503848,W,64.3,355.7,230510,,,A*49
$GPRMC,172129.9,A,3315.779626,N,11709.509458,W,64.6,356.1,230510,,,A*4F
$GPRMC,172132.9,A,3315.832384,N,11709.509757,W,63.9,0.1,230510,,,A*4C
$GPRMC,172135.9,A,3315.884353,N,11709.507458,W,62.6,2.8,230510,,,A*4B
$GPRMC,172138.9,A,3315.935412,N,11709.504913,W,63.3,4.9,230510,,,A*4D
$GPRMC,172141.9,A,3315.988664,N,11709.494056,W,64.3,7.9,230510,,,A*42
$GPRMC,172144.9,A,3316.037514,N,11709.480152,W,61.8,10.6,230510,,,A*7A
$GPRMC,172147.2,A,3316.078104,N,11709.470217,W,63.7,12.1,230510,,,A*79
$GPRMC,172150.9,A,3316.137521,N,11709.452831,W,62.0,15.9,230510,,,A*7A
$GPRMC,172153.9,A,3316.186533,N,11709.432501,W,62.8,18.4,230510,,,A*70
$GPRMC,172156.9,A,3316.236146,N,11709.411103,W,62.8,19.5,230510,,,A*7C
$GPRMC,172159.9,A,3316.287000,N,11709.389797,W,63.8,21.3,230510,,,A*7B
$GPRMC,172202.9,A,3316.334450,N,11709.364991,W,63.2,24.0,230510,,,A*79
$GPRMC,172205.9,A,3316.380319,N,11709.339413,W,63.0,25.3,230510,,,A*74
$GPRMC,172208.9,A,3316.426734,N,11709.312370,W,62.9,26.4,230510,,,A*7E
$GPRMC,172211.9,A,3316.477786,N,11709.285864,W,64.2,25.7,230510,,,A*77
$GPRMC,172214.9,A,3316.524951,N,11709.257293,W,63.9,26.7,230510,,,A*73
$GPRMC,172217.9,A,3316.571657,N,11709.229580,W,62.7,26.1,230510,,,A*7C
$GPRMC,172220.9,A,3316.616350,N,11709.203931,W,62.2,26.2,230510,,,A*70
$GPRMC,172223.9,A,3316.665515,N,11709.176105,W,63.7,24.6,230510,,,A*7C
$GPRMC,172226.9,A,3316.713754,N,11709.150731,W,63.6,24.6,230510,,,A*7A
$GPRMC,172229.9,A,3316.760161,N,11709.122881,W,62.8,26.1,230510,,,A*7A
$GPRMC,172232.9,A,3316.806828,N,11709.097267,W,60.4,24.0,230510,,,A*7B
$GPRMC,172235.9,A,3316.856914,N,11709.069487,W,64.5,24.4,230510,,,A*7F
$GPRMC,172238.9,A,3316.904275,N,11709.043167,W,63.0,22.7,230510,,,A*7C
$GPRMC,172241.9,A,3316.955159,N,11709.021144,W,63.7,19.7,230510,,,A*71
$GPRMC,172244.9,A,3317.006103,N,11709.001476,W,63.4,17.3,230510,,,A*7A
$GPRMC,172247.9,A,3317.055366,N,11708.983522,W,62.2,14.8,230510,,,A*73
$GPRMC,172250.9,A,3317.106539,N,11708.971987,W,61.7,10.9,230510,,,A*73
$GPRMC,172253.9,A,3317.157785,N,11708.961429,W,62.2,9.4,230510,,,A*4A
$GPRMC,172256.9,A,3317.210977,N,11708.953398,W,64.1,6.3,230510,,,A*4D
$GPRMC,172259.9,A,3317.261181,N,11708.948257,W,62.1,3.6,230510,,,A*4B
$GPRMC,172302.9,A,3317.313951,N,11708.948210,W,63.3,0.2,230510,,,A*42
$GPRMC,172305.9,A,3317.368098,N,11708.948031,W,64.9,359.4,230510,,,A*40
$GPRMC,172308.9,A,3317.418130,N,11708.951056,W,62.3,357.7,230510,,,A*46
$GPRMC,172311.9,A,3317.470488,N,11708.952711,W,63.3,358.2,230510,,,A*4A
$GPRMC,172314.2,A,3317.510518,N,11708.954376,W,62.6,357.6,230510,,,A*47
$GPRMC,172317.0,A,3317.557818,N,11708.957890,W,63.4,357.6,230510,,,A*4B
$GPRMC,172320.2,A,3317.615415,N,11708.962085,W,64.4,356.6,230510,,,A*45
$GPRMC,172323.2,A,3317.667388,N,11708.965701,W,62.9,356.6,230510,,,A*47
$GPRMC,172326.2,A,3317.717963,N,11708.968834,W,61.5,356.3,230510,,,A*45
$GPRMC,172329.2,A,3317.771096,N,11708.972517,W,63.1,357.2,230510,,,A*48
$GPRMC,172332.2,A,3317.824117,N,11708.976202,W,63.5,356.9,230510,,,A*4C
$GPRMC,172335.2,A,3317.876922,N,11708.979175,W,63.1,357.0,230510,,,A*42
$GPRMC,172338.2,A,3317.929114,N,11708.982211,W,62.9,357.0,230510,,,A*45
$GPRMC,172341.2,A,3317.979569,N,11708.985342,W,61.2,357.3,230510,,,A*4B
$GPRMC,172344.2,A,3318.036427,N,11708.988663,W,64.2,357.2,230510,,,A*47
$GPRMC,172347.2,A,3318.090088,N,11708.993256,W,63.2,356.7,230510,,,A*42
$GPRMC,172350.2,A,3318.142402,N,11708.995568,W,63.4,357.3,230510,,,A*43
$GPRMC,172353.2,A,3318.195167,N,11708.997758,W,63.6,357.5,230510,,,A*4B
$GPRMC,172356.9,A,3318.261079,N,11709.002407,W,63.1,356.5,230510,,,A*48
$GPRMC,172359.9,A,3318.312823,N,11709.006778,W,63.0,356.6,230510,,,A*48
$GPRMC,172402.9,A,3318.365764,N,11709.006262,W,64.2,0.8,230510,,,A*48
$GPRMC,172405.2,A,3318.408547,N,11709.011487,W,65.8,356.0,230510,,,A*43
$GPRMC,172408.0,A,3318.455074,N,11709.015796,W,62.9,354.8,230510,,,A*4A
$GPRMC,172411.9,A,3318.522860,N,11709.025679,W,62.2,351.4,230510,,,A*46
$GPRMC,172414.9,A,3318.577520,N,11709.036144,W,64.9,349.5,230510,,,A*44
$GPRMC,172417.9,A,3318.628762,N,11709.048567,W,64.4,348.0,230510,,,A*4F
$GPRMC,172420.9,A,3318.680440,N,11709.065216,W,64.1,344.8,230510,,,A*45
$GPRMC,172423.9,A,3318.730659,N,11709.083938,W,64.8,342.9,230510,,,A*47
$GPRMC,172426.9,A,3318.780627,N,11709.105538,W,64.7,341.0,230510,,,A*46
$GPRMC,172429.9,A,3318.827232,N,11709.128593,W,63.6,338.1,230510,,,A*4C
$GPRMC,172432.9,A,3318.873769,N,11709.154317,W,63.2,335.4,230510,,,A*41
$GPRMC,172435.9,A,3318.920420,N,11709.182091,W,63.6,333.5,230510,,,A*4A
$GPRMC,172438.9,A,3318.968070,N,11709.211567,W,65.4,334.1,230510,,,A*48
$GPRMC,172441.9,A,3319.011264,N,11709.244028,W,62.8,331.3,230510,,,A*45
$GPRMC,172444.9,A,3319.056805,N,11709.271939,W,63.0,332.1,230510,,,A*49
$GPRMC,172447.9,A,3319.103163,N,11709.300334,W,62.8,331.9,230510,,,A*40
$GPRMC,172450.9,A,3319.150415,N,11709.331678,W,63.7,331.9,230510,,,A*45
$GPRMC,172453.9,A,3319.197933,N,11709.359613,W,64.2,332.0,230510,,,A*4F
$GPRMC,172456.9,A,3319.243802,N,11709.388348,W,61.9,332.1,230510,,,A*4B
$GPRMC,172500.2,A,3319.294883,N,11709.418679,W,61.4,332.1,230510,,,A*45
$GPRMC,172503.2,A,3319.344955,N,11709.442120,W,63.0,339.2,230510,,,A*4A
$GPRMC,172506.9,A,3319.405786,N,11709.468611,W,63.2,340.4,230510,,,A*41
$GPRMC,172509.9,A,3319.456305,N,11709.487475,W,63.1,343.6,230510,,,A*44
$GPRMC,172513.2,A,3319.512477,N,11709.504186,W,62.3,345.4,230510,,,A*43
$GPRMC,172516.2,A,3319.563710,N,11709.518010,W,62.7,348.7,230510,,,A*4B
$GPRMC,172519.2,A,3319.615359,N,11709.528820,W,62.6,351.4,230510,,,A*4D
$GPRMC,172522.9,A,3319.678421,N,11709.538290,W,61.0,353.4,230510,,,A*4A
$GPRMC,172525.9,A,3319.729891,N,11709.543423,W,62.4,355.8,230510,,,A*40
$GPRMC,172528.9,A,3319.783977,N,11709.544622,W,63.2,359.1,230510,,,A*42
$GPRMC,172531.9,A,3319.837937,N,11709.545756,W,63.2,0.4,230510,,,A*47
$GPRMC,172534.9,A,3319.889658,N,11709.542577,W,63.0,4.1,230510,,,A*44
$GPRMC,172537.2,A,3319.929656,N,11709.543216,W,62.9,0.5,230510,,,A*40
$GPRMC,172540.9,A,3319.992656,N,11709.544224,W,62.2,0.5,230510,,,A*46
$GPRMC,172543.9,A,3320.046043,N,11709.542669,W,63.3,1.1,230510,,,A*43
$GPRMC,172546.9,A,3320.098239,N,11709.541283,W,63.1,0.8,230510,,,A*43
$GPRMC,172549.9,A,3320.152575,N,11709.542256,W,64.1,0.2,230510,,,A*42
$GPRMC,172552.9,A,3320.203594,N,11709.539350,W,61.6,1.4,230510,,,A*4E
$GPRMC,172555.9,A,3320.254565,N,11709.538425,W,62.6,1.3,230510,,,A*45
$GPRMC,172558.9,A,3320.309622,N,11709.538935,W,63.7,0.8,230510,,,A*47
$GPRMC,172601.9,A,3320.361309,N,11709.536615,W,62.1,0.7,230510,,,A*41
$GPRMC,172604.2,A,3320.402005,N,11709.535608,W,63.0,0.9,230510,,,A*43
$GPRMC,172607.2,A,3320.454497,N,11709.534189,W,63.1,0.7,230510,,,A*4C
$GPRMC,172610.2,A,3320.506779,N,11709.533506,W,62.8,1.0,230510,,,A*45
$GPRMC,172613.9,A,3320.571620,N,11709.532190,W,62.6,0.7,230510,,,A*42
$GPRMC,172616.9,A,3320.623528,N,11709.531062,W,62.9,1.4,230510,,,A*4A
$GPRMC,172619.9,A,3320.675092,N,11709.529899,W,61.5,0.4,230510,,,A*49
$GPRMC,172622.9,A,3320.729088,N,11709.528419,W,63.1,1.5,230510,,,A*41
$GPRMC,172625.9,A,3320.781739,N,11709.528957,W,61.5,0.7,230510,,,A*4B
$GPRMC,172628.9,A,3320.834706,N,11709.528019,W,62.9,0.9,230510,,,A*49
$GPRMC,172631.9,A,3320.886126,N,11709.525932,W,62.5,0.5,230510,,,A*41
$GPRMC,172634.9,A,3320.942032,N,11709.526490,W,64.4,0.7,230510,,,A*4A
$GPRMC,172637.9,A,3320.992613,N,11709.526835,W,61.7,0.4,230510,,,A*47
$GPRMC,172640.9,A,3321.045207,N,11709.525689,W,62.7,1.0,230510,,,A*48
$GPRMC,172643.9,A,3321.096703,N,11709.526097,W,62.5,359.5,230510,,,A*47
$GPRMC,172646.9,A,3321.149643,N,11709.525059,W,63.3,0.7,230510,,,A*4F
$GPRMC,172649.9,A,3321.203426,N,11709.523189,W,63.5,0.5,230510,,,A*42
$GPRMC,172652.9,A,3321.254794,N,11709.521732,W,61.8,0.6,230510,,,A*48
$GPRMC,172655.9,A,3321.305980,N,11709.519978,W,61.7,1.2,230510,,,A*40
$GPRMC,172658.9,A,3321.359083,N,11709.518987,W,62.9,0.1,230510,,,A*40
$GPRMC,172701.9,A,3321.411277,N,11709.521299,W,63.3,357.2,230510,,,A*48
$GPRMC,172704.9,A,3321.461785,N,11709.526771,W,62.6,355.4,230510,,,A*46
$GPRMC,172707.9,A,3321.515118,N,11709.531961,W,63.2,353.4,230510,,,A*4F
$GPRMC,172710.9,A,3321.566103,N,11709.542028,W,63.5,351.1,230510,,,A*47
$GPRMC,172713.9,A,3321.620721,N,11709.553843,W,64.3,349.3,230510,,,A*4C
$GPRMC,172716.9,A,3321.671176,N,11709.568777,W,63.3,346.0,230510,,,A*42
$GPRMC,172719.9,A,3321.720605,N,11709.584409,W,63.0,344.2,230510,,,A*40
$GPRMC,172722.9,A,3321.769484,N,11709.602414,W,62.1,341.7,230510,,,A*4F
$GPRMC,172725.9,A,3321.819999,N,11709.624875,W,62.9,339.7,230510,,,A*49
$GPRMC,172728.9,A,3321.867610,N,11709.647097,W,62.0,337.8,230510,,,A*4A
$GPRMC,172731.9,A,3321.916614,N,11709.672808,W,63.4,334.9,230510,,,A*4E
$GPRMC,172734.9,A,3321.964233,N,11709.701733,W,62.8,333.3,230510,,,A*4D
$GPRMC,172737.9,A,3322.009081,N,11709.733055,W,62.8,330.3,230510,,,A*41
$GPRMC,172740.9,A,3322.053773,N,11709.762367,W,62.1,329.5,230510,,,A*45
$GPRMC,172743.9,A,3322.098165,N,11709.796616,W,62.9,327.5,230510,,,A*4E
$GPRMC,172746.9,A,3322.142286,N,11709.834559,W,63.0,324.5,230510,,,A*47
$GPRMC,172749.9,A,3322.184642,N,11709.873063,W,62.9,323.1,230510,,,A*4A
$GPRMC,172752.9,A,3322.224938,N,11709.912949,W,63.0,319.6,230510,,,A*4A
$GPRMC,172755.9,A,3322.260402,N,11709.953764,W,61.8,316.8,230510,,,A*46
$GPRMC,172758.9,A,3322.298369,N,11709.995922,W,62.9,317.4,230510,,,A*4F
$GPRMC,172801.9,A,3322.336837,N,11710.038957,W,62.1,317.8,230510,,,A*49
$GPRMC,172804.9,A,3322.373976,N,11710.079478,W,61.8,318.9,230510,,,A*48
$GPRMC,172807.2,A,3322.406629,N,11710.111245,W,63.0,320.8,230510,,,A*47
$GPRMC,172810.2,A,3322.448490,N,11710.150139,W,62.6,322.5,230510,,,A*4E
$GPRMC,172813.9,A,3322.502075,N,11710.196566,W,63.2,325.0,230510,,,A*45
$GPRMC,172816.9,A,3322.546079,N,11710.229677,W,63.2,327.9,230510,,,A*43
$GPRMC,172819.9,A,3322.591413,N,11710.261165,W,63.2,330.3,230510,,,A*4A
$GPRMC,172822.9,A,3322.637813,N,11710.291340,W,63.1,331.9,230510,,,A*43
$GPRMC,172825.9,A,3322.683826,N,11710.318136,W,62.3,335.2,230510,,,A*42
$GPRMC,172828.9,A,3322.732164,N,11710.344051,W,63.0,335.5,230510,,,A*47
$GPRMC,172831.9,A,3322.779311,N,11710.368911,W,62.3,337.9,230510,,,A*4F
$GPRMC,172834.9,A,3322.829003,N,11710.390274,W,62.7,341.3,230510,,,A*40
$GPRMC,172837.9,A,3322.878514,N,11710.408448,W,62.4,343.1,230510,,,A*48
$GPRMC,172840.9,A,3322.927951,N,11710.423884,W,61.9,346.4,230510,,,A*45
$GPRMC,172843.9,A,3322.979937,N,11710.436930,W,62.9,348.8,230510,,,A*46
$GPRMC,172846.9,A,3323.031944,N,11710.447808,W,62.7,351.0,230510,,,A*41
$GPRMC,172849.9,A,3323.083726,N,11710.458047,W,62.7,352.5,230510,,,A*46
$GPRMC,172852.9,A,3323.136795,N,11710.463757,W,63.7,355.0,230510,,,A*46
$GPRMC,172856.2,A,3323.195178,N,11710.470790,W,63.4,357.2,230510,,,A*4F
$GPRMC,172859.9,A,3323.260252,N,11710.474073,W,62.7,359.3,230510,,,A*4A
$GPRMC,172902.9,A,3323.309530,N,11710.467416,W,61.4,4.2,230510,,,A*47
$GPRMC,172905.9,A,3323.362889,N,11710.462363,W,63.4,5.3,230510,,,A*40
$GPRMC,172908.9,A,3323.416757,N,11710.454794,W,63.4,8.8,230510,,,A*4A
$GPRMC,172911.9,A,3323.467180,N,11710.443435,W,63.1,10.1,230510,,,A*73
$GPRMC,172914.9,A,3323.519816,N,11710.431956,W,64.2,10.1,230510,,,A*71
$GPRMC,172917.9,A,3323.569044,N,11710.419629,W,62.9,13.8,230510,,,A*70
$GPRMC,172920.9,A,3323.623831,N,11710.403953,W,65.2,15.2,230510,,,A*7A
$GPRMC,172923.9,A,3323.673634,N,11710.383504,W,65.3,17.3,230510,,,A*74
$GPRMC,172926.9,A,3323.725642,N,11710.363266,W,65.3,18.8,230510,,,A*7B
$GPRMC,172929.9,A,3323.770544,N,11710.340462,W,63.0,22.5,230510,,,A*73
$GPRMC,172933.2,A,3323.821489,N,11710.311856,W,63.5,24.9,230510,,,A*78
$GPRMC,172936.2,A,3323.865757,N,11710.284920,W,62.8,26.6,230510,,,A*71
$GPRMC,172939.2,A,3323.911654,N,11710.255670,W,62.8,28.5,230510,,,A*75
$GPRMC,172942.2,A,3323.959974,N,11710.223729,W,64.0,28.9,230510,,,A*76
$GPRMC,172945.2,A,3324.005949,N,11710.193405,W,63.3,29.4,230510,,,A*75
$GPRMC,172948.9,A,3324.062277,N,11710.153253,W,63.6,31.4,230510,,,A*71
$GPRMC,172951.9,A,3324.108572,N,11710.119928,W,63.4,32.7,230510,,,A*7D
$GPRMC,172954.9,A,3324.149994,N,11710.085639,W,61.9,34.4,230510,,,A*78
$GPRMC,172957.9,A,3324.194879,N,11710.051694,W,63.1,34.1,230510,,,A*78
$GPRMC,173000.9,A,3324.237710,N,11710.013982,W,63.2,35.6,230510,,,A*73
$GPRMC,173003.9,A,3324.280081,N,11709.978169,W,62.3,35.7,230510,,,A*73
$GPRMC,173006.2,A,3324.312842,N,11709.950563,W,62.8,35.9,230510,,,A*71
$GPRMC,173009.2,A,3324.355894,N,11709.915221,W,63.2,35.0,230510,,,A*74
$GPRMC,173012.2,A,3324.398773,N,11709.878617,W,64.0,35.8,230510,,,A*7F
$GPRMC,173015.2,A,3324.442460,N,11709.843591,W,63.1,33.5,230510,,,A*71
$GPRMC,173018.2,A,3324.486871,N,11709.809726,W,63.2,32.6,230510,,,A*79
$GPRMC,173021.2,A,3324.532028,N,11709.776222,W,63.1,31.6,230510,,,A*7F
$GPRMC,173024.9,A,3324.587115,N,11709.735972,W,63.3,31.9,230510,,,A*74
$GPRMC,173027.2,A,3324.620731,N,11709.710630,W,62.6,31.9,230510,,,A*78
$GPRMC,173030.2,A,3324.664793,N,11709.677987,W,62.9,31.8,230510,,,A*7B
$GPRMC,173033.2,A,3324.709113,N,11709.645338,W,62.9,31.6,230510,,,A*7D
$GPRMC,173036.2,A,3324.754171,N,11709.612876,W,62.8,31.3,230510,,,A*73
$GPRMC,173039.2,A,3324.798871,N,11709.579945,W,62.7,31.8,230510,,,A*7E
$GPRMC,173042.9,A,3324.853435,N,11709.537675,W,63.3,33.2,230510,,,A*76
$GPRMC,173046.2,A,3324.901371,N,11709.500125,W,62.2,30.7,230510,,,A*78
$GPRMC,173049.2,A,3324.946910,N,11709.467323,W,63.0,31.7,230510,,,A*7F
$GPRMC,173052.2,A,3324.991924,N,11709.434839,W,62.8,31.9,230510,,,A*79
$GPRMC,173055.2,A,3325.036587,N,11709.402086,W,62.9,31.5,230510,,,A*7A
$GPRMC,173058.9,A,3325.090971,N,11709.361734,W,61.4,31.6,230510,,,A*74
$GPRMC,173101.9,A,3325.135909,N,11709.327780,W,63.7,31.6,230510,,,A*74
$GPRMC,173104.9,A,3325.182160,N,11709.296207,W,62.2,29.2,230510,,,A*72
$GPRMC,173107.9,A,3325.226547,N,11709.263512,W,63.4,30.5,230510,,,A*7C
$GPRMC,173110.9,A,3325.274441,N,11709.232755,W,63.7,29.6,230510,,,A*77
$GPRMC,173113.9,A,3325.318839,N,11709.199602,W,63.3,30.6,230510,,,A*71
$GPRMC,173116.9,A,3325.364351,N,11709.169427,W,63.0,30.1,230510,,,A*74
$GPRMC,173119.9,A,3325.406242,N,11709.136333,W,60.6,32.2,230510,,,A*77
$GPRMC,173122.9,A,3325.450193,N,11709.105418,W,60.0,31.6,230510,,,A*7C
$GPRMC,173125.9,A,3325.498411,N,11709.074606,W,61.8,29.5,230510,,,A*79
$GPRMC,173128.9,A,3325.543831,N,11709.041221,W,63.4,33.5,230510,,,A*7F
$GPRMC,173131.9,A,3325.586732,N,11709.003581,W,63.0,36.6,230510,,,A*7B
$GPRMC,173134.9,A,3325.625922,N,11708.962836,W,62.6,40.5,230510,,,A*70
$GPRMC,173137.9,A,3325.662124,N,11708.919522,W,61.9,43.8,230510,,,A*78
$GPRMC,173140.9,A,3325.697778,N,11708.874669,W,62.4,45.5,230510,,,A*7E
$GPRMC,173143.9,A,3325.733802,N,11708.831914,W,60.3,44.7,230510,,,A*72
$GPRMC,173146.9,A,3325.772181,N,11708.786674,W,63.0,45.0,230510,,,A*7C
$GPRMC,173149.9,A,3325.809017,N,11708.742133,W,62.2,45.3,230510,,,A*72
$GPRMC,173152.9,A,3325.846213,N,11708.697669,W,63.2,44.7,230510,,,A*70
$GPRMC,173155.9,A,3325.883065,N,11708.655467,W,61.0,43.6,230510,,,A*79
$GPRMC,173158.9,A,3325.928267,N,11708.614845,W,63.5,39.7,230510,,,A*76
$GPRMC,173201.9,A,3325.968091,N,11708.574035,W,61.8,39.0,230510,,,A*74
$GPRMC,173204.9,A,3326.008421,N,11708.536600,W,62.3,37.7,230510,,,A*75
$GPRMC,173207.9,A,3326.053386,N,11708.499977,W,63.4,34.0,230510,,,A*7B
$GPRMC,173210.9,A,3326.097332,N,11708.465857,W,62.9,32.4,230510,,,A*74
$GPRMC,173213.9,A,3326.142413,N,11708.436142,W,62.4,29.6,230510,,,A*74
$GPRMC,173216.9,A,3326.191203,N,11708.408445,W,63.0,27.2,230510,,,A*78
$GPRMC,173219.9,A,3326.236314,N,11708.378851,W,62.7,27.7,230510,,,A*74
$GPRMC,173222.9,A,3326.284449,N,11708.352993,W,62.7,24.3,230510,,,A*7A
$GPRMC,173225.9,A,3326.336814,N,11708.327755,W,64.5,22.0,230510,,,A*76
$GPRMC,173228.2,A,3326.372502,N,11708.309663,W,61.9,22.5,230510,,,A*7E
$GPRMC,173231.0,A,3326.417935,N,11708.290961,W,62.7,18.7,230510,,,A*72
$GPRMC,173234.2,A,3326.471076,N,11708.272288,W,61.1,16.3,230510,,,A*74
$GPRMC,173237.9,A,3326.533987,N,11708.250086,W,63.1,16.6,230510,,,A*77
$GPRMC,173240.9,A,3326.582483,N,11708.235578,W,61.4,14.6,230510,,,A*76
$GPRMC,173243.0,A,3326.615359,N,11708.225026,W,61.7,15.0,230510,,,A*7A
$GPRMC,173246.2,A,3326.669373,N,11708.209383,W,62.6,14.5,230510,,,A*7A
$GPRMC,173249.2,A,3326.720682,N,11708.191295,W,62.8,15.3,230510,,,A*7F
$GPRMC,173252.2,A,3326.770845,N,11708.174236,W,62.5,15.3,230510,,,A*7A
$GPRMC,173255.2,A,3326.821940,N,11708.158861,W,62.1,14.9,230510,,,A*7B
$GPRMC,173258.0,A,3326.866434,N,11708.144149,W,63.3,15.0,230510,,,A*7C
$GPRMC,173301.9,A,3326.936193,N,11708.125808,W,64.6,11.5,230510,,,A*7C
$GPRMC,173304.9,A,3326.983848,N,11708.115918,W,62.0,8.8,230510,,,A*4E
$GPRMC,173307.9,A,3327.042230,N,11708.109260,W,65.8,4.6,230510,,,A*49
$GPRMC,173310.9,A,3327.095589,N,11708.104551,W,65.0,2.5,230510,,,A*45
$GPRMC,173313.2,A,3327.135530,N,11708.105481,W,63.8,359.1,230510,,,A*4E
$GPRMC,173316.2,A,3327.186985,N,11708.111151,W,62.6,354.9,230510,,,A*46
$GPRMC,173319.9,A,3327.252708,N,11708.119178,W,62.6,354.7,230510,,,A*4E
$GPRMC,173322.9,A,3327.308816,N,11708.125902,W,65.5,354.2,230510,,,A*43
$GPRMC,173325.9,A,3327.357903,N,11708.131648,W,62.4,354.7,230510,,,A*4C
$GPRMC,173328.9,A,3327.412078,N,11708.137154,W,62.7,354.3,230510,,,A*49
$GPRMC,173331.9,A,3327.466186,N,11708.140453,W,64.3,356.3,230510,,,A*40
$GPRMC,173334.9,A,3327.516902,N,11708.146341,W,62.9,355.3,230510,,,A*4A
$GPRMC,173337.9,A,3327.566490,N,11708.152373,W,61.2,354.5,230510,,,A*43
$GPRMC,173340.9,A,3327.620614,N,11708.160422,W,63.7,354.7,230510,,,A*4B
$GPRMC,173343.9,A,3327.673366,N,11708.167570,W,62.8,354.6,230510,,,A*40
$GPRMC,173346.9,A,3327.725395,N,11708.171825,W,64.0,356.5,230510,,,A*4E
$GPRMC,173349.9,A,3327.778122,N,11708.175289,W,62.8,357.5,230510,,,A*40
$GPRMC,173352.9,A,3327.832924,N,11708.174200,W,64.0,0.9,230510,,,A*46
$GPRMC,173355.9,A,3327.883857,N,11708.170582,W,62.4,3.3,230510,,,A*4C
$GPRMC,173358.9,A,3327.936808,N,11708.167140,W,63.0,2.3,230510,,,A*4C
$GPRMC,173401.9,A,3327.989313,N,11708.167366,W,63.9,359.5,230510,,,A*46
$GPRMC,173404.9,A,3328.042520,N,11708.169161,W,63.6,357.8,230510,,,A*43
$GPRMC,173407.9,A,3328.097381,N,11708.176068,W,64.9,355.0,230510,,,A*41
$GPRMC,173410.9,A,3328.147933,N,11708.183913,W,64.2,351.7,230510,,,A*4F
$GPRMC,173413.9,A,3328.202681,N,11708.195968,W,66.9,349.0,230510,,,A*44
$GPRMC,173416.9,A,3328.251484,N,11708.214644,W,63.2,343.6,230510,,,A*49
$GPRMC,173419.9,A,3328.300976,N,11708.233113,W,63.6,343.6,230510,,,A*47
$GPRMC,173422.9,A,3328.349115,N,11708.250622,W,62.3,343.5,230510,,,A*48
$GPRMC,173425.9,A,3328.397505,N,11708.268461,W,61.5,342.4,230510,,,A*42
$GPRMC,173428.9,A,3328.445930,N,11708.287827,W,61.1,341.9,230510,,,A*48
$GPRMC,173431.9,A,3328.499113,N,11708.304825,W,63.7,344.0,230510,,,A*48
$GPRMC,173434.2,A,3328.537959,N,11708.316838,W,62.1,344.6,230510,,,A*4B
$GPRMC,173437.9,A,3328.598948,N,11708.334995,W,60.1,347.1,230510,,,A*46
$GPRMC,173440.9,A,3328.644784,N,11708.346520,W,57.1,347.6,230510,,,A*4E
$GPRMC,173443.9,A,3328.689348,N,11708.355758,W,54.6,351.1,230510,,,A*43
$GPRMC,173446.9,A,3328.727164,N,11708.361461,W,46.5,352.1,230510,,,A*42
$GPRMC,173449.9,A,3328.759290,N,11708.368822,W,38.3,349.2,230510,,,A*48
$GPRMC,173452.9,A,3328.785220,N,11708.375298,W,30.4,348.1,230510,,,A*42
$GPRMC,173455.2,A,3328.795175,N,11708.371413,W,19.6,11.0,230510,,,A*7A
$GPRMC,173458.9,A,3328.796745,N,11708.370154,W,4.9,11.8,230510,,,A*46
$GPRMC,173523.9,A,3328.794450,N,11708.372468,W,4.4,41.6,230510,,,A*40
$GPRMC,173526.9,A,3328.796824,N,11708.357041,W,14.5,92.4,230510,,,A*7C
$GPRMC,173529.9,A,3328.787560,N,11708.338463,W,23.2,112.7,230510,,,A*4A
$GPRMC,173532.2,A,3328.777545,N,11708.320449,W,27.2,118.4,230510,,,A*4F
$GPRMC,173535.9,A,3328.762297,N,11708.288605,W,32.4,118.3,230510,,,A*43
$GPRMC,173538.9,A,3328.749384,N,11708.256962,W,35.8,117.7,230510,,,A*49
$GPRMC,173541.9,A,3328.733310,N,11708.221909,W,38.3,120.2,230510,,,A*4D
$GPRMC,173544.9,A,3328.720860,N,11708.190971,W,34.1,117.8,230510,,,A*40
$GPRMC,173547.9,A,3328.707520,N,11708.168688,W,24.6,124.3,230510,,,A*4C
$GPRMC,173550.9,A,3328.700266,N,11708.154657,W,12.1,129.1,230510,,,A*48
$GPRMC,173553.9,A,3328.697718,N,11708.151079,W,4.5,140.5,230510,,,A*7F
$GPRMC,173715.2,A,3328.700522,N,11708.141601,W,8.7,71.9,230510,,,A*49
$GPRMC,173718.2,A,3328.714300,N,11708.127000,W,18.2,37.4,230510,,,A*7B
$GPRMC,173721.2,A,3328.724524,N,11708.118405,W,9.6,37.1,230510,,,A*4E
$GPRMC,173724.2,A,3328.732987,N,11708.115492,W,7.8,1.3,230510,,,A*7D
$GPRMC,173727.2,A,3328.743270,N,11708.127416,W,21.4,314.2,230510,,,A*48
$GPRMC,173730.2,A,3328.757545,N,11708.145034,W,24.2,314.8,230510,,,A*43
$GPRMC,173733.2,A,3328.772087,N,11708.161860,W,23.9,315.0,230510,,,A*46
$GPRMC,173736.2,A,3328.790697,N,11708.179054,W,27.2,318.6,230510,,,A*4A
$GPRMC,173739.2,A,3328.809094,N,11708.198094,W,28.0,319.8,230510,,,A*4E
$GPRMC,173742.2,A,3328.826709,N,11708.215359,W,26.1,320.1,230510,,,A*44
$GPRMC,173745.2,A,3328.843420,N,11708.231682,W,23.2,319.5,230510,,,A*45
$GPRMC,173748.2,A,3328.857313,N,11708.245707,W,20.8,319.5,230510,,,A*4C
$GPRMC,173751.2,A,3328.870733,N,11708.259249,W,21.7,320.7,230510,,,A*43
$GPRMC,173754.9,A,3328.885768,N,11708.273095,W,17.8,323.4,230510,,,A*48
$GPRMC,173757.9,A,3328.893897,N,11708.284417,W,15.2,312.4,230510,,,A*4F
$GPRMC,173800.2,A,3328.901606,N,11708.292101,W,13.8,311.3,230510,,,A*48
$GPRMC,173803.2,A,3328.904616,N,11708.301112,W,7.1,240.8,230510,,,A*74
$GPRMC,173806.0,A,3328.902504,N,11708.305643,W,6.1,228.3,230510,,,A*76
$GPRMC,173809.9,A,3328.899505,N,11708.312244,W,5.8,233.7,230510,,,A*73
$GPRMC,173812.9,A,3328.893971,N,11708.315247,W,5.6,219.7,230510,,,A*7E
