NMEA Sentence Code,UTC Time,Status,Latitude,Latitude Direction,Longitude,Longitude Direction,Speed (knots),Track Angle (degrees true),Date,MagneticVariation,Magnetic Variation Direction,[FAA Mode]-Optional,Checksum
$GPRMC,154630,A,3343.1822,N,11747.8065,W,19.50,16.60,170810,,*08
$GPRMC,154633,A,3343.1890,N,11747.7951,W,10.80,50.90,170810,,*0A
$GPRMC,154654,A,3343.1886,N,11747.7665,W,16.30,106.80,170810,,*3A
$GPRMC,154657,A,3343.1769,N,11747.7404,W,32.40,121.00,170810,,*3E
$GPRMC,154700,A,3343.1564,N,11747.7088,W,39.90,128.30,170810,,*3E
$GPRMC,154703,A,3343.1337,N,11747.6755,W,44.30,129.10,170810,,*38
$GPRMC,154706,A,3343.1067,N,11747.6359,W,54.30,128.00,170810,,*32
$GPRMC,154709,A,3343.0776,N,11747.5920,W,56.10,129.40,170810,,*39
$GPRMC,154712,A,3343.0504,N,11747.5524,W,50.30,129.20,170810,,*3E
$GPRMC,154715,A,3343.0268,N,11747.5172,W,45.00,128.00,170810,,*37
$GPRMC,154718,A,3343.0027,N,11747.4798,W,49.80,128.40,170810,,*30
$GPRMC,154721,A,3342.9742,N,11747.4374,W,56.10,128.90,170810,,*3A
$GPRMC,154724,A,3342.9429,N,11747.3942,W,57.60,130.10,170810,,*3E
$GPRMC,154727,A,3342.9112,N,11747.3509,W,56.90,130.50,170810,,*39
$GPRMC,154730,A,3342.8810,N,11747.3062,W,57.00,129.20,170810,,*3A
$GPRMC,154733,A,3342.8510,N,11747.2601,W,60.20,128.80,170810,,*3B
$GPRMC,154736,A,3342.8177,N,11747.2122,W,63.10,129.80,170810,,*3C
$GPRMC,154739,A,3342.7825,N,11747.1627,W,65.70,130.50,170810,,*36
$GPRMC,154742,A,3342.7449,N,11747.1135,W,67.50,132.80,170810,,*37
$GPRMC,154745,A,3342.7047,N,11747.0649,W,67.30,134.90,170810,,*36
$GPRMC,154748,A,3342.6652,N,11747.0196,W,64.10,136.20,170810,,*35
$GPRMC,154751,A,3342.6290,N,11746.9784,W,58.50,137.30,170810,,*31
$GPRMC,154754,A,3342.5945,N,11746.9421,W,53.20,139.60,170810,,*3F
$GPRMC,154757,A,3342.5598,N,11746.9078,W,53.50,141.20,170810,,*34
$GPRMC,154800,A,3342.5239,N,11746.8751,W,54.20,143.40,170810,,*3C
$GPRMC,154803,A,3342.4868,N,11746.8417,W,56.20,143.60,170810,,*31
$GPRMC,154806,A,3342.4472,N,11746.8102,W,57.10,145.60,170810,,*36
$GPRMC,154809,A,3342.4064,N,11746.7799,W,57.70,147.80,170810,,*3B
$GPRMC,154812,A,3342.3658,N,11746.7500,W,57.80,149.20,170810,,*36
$GPRMC,154815,A,3342.3241,N,11746.7218,W,58.30,150.40,170810,,*39
$GPRMC,154818,A,3342.2807,N,11746.6925,W,57.70,151.10,170810,,*36
$GPRMC,154821,A,3342.2392,N,11746.6656,W,55.80,151.00,170810,,*3C
$GPRMC,154824,A,3342.1989,N,11746.6407,W,54.30,151.70,170810,,*31
$GPRMC,154827,A,3342.1585,N,11746.6132,W,54.50,151.30,170810,,*33
$GPRMC,154830,A,3342.1201,N,11746.5875,W,53.50,150.70,170810,,*35
$GPRMC,154833,A,3342.0805,N,11746.5606,W,52.30,151.00,170810,,*32
$GPRMC,154836,A,3342.0420,N,11746.5380,W,51.20,152.00,170810,,*36
$GPRMC,154839,A,3342.0038,N,11746.5146,W,51.20,152.00,170810,,*3C
$GPRMC,154842,A,3341.9661,N,11746.4904,W,52.80,151.50,170810,,*30
$GPRMC,154845,A,3341.9251,N,11746.4637,W,56.30,151.30,170810,,*36
$GPRMC,154848,A,3341.8826,N,11746.4352,W,58.90,151.30,170810,,*32
$GPRMC,154851,A,3341.8400,N,11746.4070,W,57.90,151.30,170810,,*3E
$GPRMC,154854,A,3341.7989,N,11746.3795,W,56.00,151.10,170810,,*39
$GPRMC,154857,A,3341.7595,N,11746.3533,W,53.00,150.90,170810,,*39
$GPRMC,154900,A,3341.7207,N,11746.3284,W,52.90,151.20,170810,,*3F
$GPRMC,154903,A,3341.6815,N,11746.3012,W,53.10,150.40,170810,,*37
$GPRMC,154906,A,3341.6423,N,11746.2763,W,52.30,151.60,170810,,*3B
$GPRMC,154909,A,3341.6037,N,11746.2509,W,53.70,151.00,170810,,*38
$GPRMC,154912,A,3341.5634,N,11746.2245,W,54.50,150.50,170810,,*3A
$GPRMC,154915,A,3341.5233,N,11746.1989,W,53.90,151.30,170810,,*3A
$GPRMC,154918,A,3341.4854,N,11746.1730,W,53.60,151.10,170810,,*3C
$GPRMC,154921,A,3341.4467,N,11746.1464,W,53.30,151.10,170810,,*3D
$GPRMC,154924,A,3341.4080,N,11746.1215,W,52.30,151.20,170810,,*37
$GPRMC,154927,A,3341.3689,N,11746.0963,W,53.10,151.80,170810,,*3E
$GPRMC,154930,A,3341.3293,N,11746.0709,W,52.70,151.60,170810,,*3C
$GPRMC,154933,A,3341.2902,N,11746.0458,W,52.40,151.80,170810,,*37
$GPRMC,154936,A,3341.2513,N,11746.0216,W,52.70,152.50,170810,,*3F
$GPRMC,154939,A,3341.2107,N,11745.9967,W,55.60,152.50,170810,,*30
$GPRMC,154942,A,3341.1674,N,11745.9678,W,60.60,150.70,170810,,*3B
$GPRMC,154945,A,3341.1225,N,11745.9402,W,59.30,151.90,170810,,*33
$GPRMC,154948,A,3341.0814,N,11745.9134,W,55.80,151.90,170810,,*30
$GPRMC,154951,A,3341.0415,N,11745.8870,W,53.20,150.90,170810,,*30
$GPRMC,154954,A,3341.0052,N,11745.8631,W,46.90,150.60,170810,,*39
$GPRMC,154957,A,3340.9744,N,11745.8413,W,42.60,148.40,170810,,*30
$GPRMC,155000,A,3340.9448,N,11745.8171,W,43.00,145.40,170810,,*3E
$GPRMC,155003,A,3340.9166,N,11745.7909,W,42.60,142.20,170810,,*3A
$GPRMC,155006,A,3340.8910,N,11745.7629,W,42.50,139.00,170810,,*37
$GPRMC,155009,A,3340.8638,N,11745.7334,W,44.10,137.30,170810,,*3B
$GPRMC,155012,A,3340.8376,N,11745.7039,W,43.10,137.20,170810,,*36
$GPRMC,155015,A,3340.8116,N,11745.6746,W,42.90,136.70,170810,,*36
$GPRMC,155018,A,3340.7848,N,11745.6445,W,43.60,136.60,170810,,*39
$GPRMC,155021,A,3340.7592,N,11745.6135,W,42.90,136.10,170810,,*32
$GPRMC,155024,A,3340.7331,N,11745.5837,W,43.20,135.90,170810,,*31
$GPRMC,155027,A,3340.7057,N,11745.5548,W,43.20,137.20,170810,,*3D
$GPRMC,155030,A,3340.6807,N,11745.5262,W,42.30,136.40,170810,,*3F
$GPRMC,155033,A,3340.6529,N,11745.4968,W,44.50,139.40,170810,,*32
$GPRMC,155036,A,3340.6237,N,11745.4683,W,45.70,143.20,170810,,*3D
$GPRMC,155039,A,3340.5921,N,11745.4434,W,44.60,147.80,170810,,*3D
$GPRMC,155042,A,3340.5592,N,11745.4219,W,44.80,152.00,170810,,*3E
$GPRMC,155045,A,3340.5266,N,11745.4038,W,43.20,156.80,170810,,*35
$GPRMC,155048,A,3340.4905,N,11745.3886,W,44.50,160.80,170810,,*38
$GPRMC,155051,A,3340.4549,N,11745.3765,W,44.70,165.00,170810,,*39
$GPRMC,155054,A,3340.4187,N,11745.3677,W,43.10,168.80,170810,,*3C
$GPRMC,155057,A,3340.3839,N,11745.3600,W,42.70,169.40,170810,,*3E
$GPRMC,155100,A,3340.3475,N,11745.3517,W,44.00,169.30,170810,,*3A
$GPRMC,155103,A,3340.3111,N,11745.3451,W,43.40,170.70,170810,,*32
$GPRMC,155106,A,3340.2760,N,11745.3384,W,42.50,169.90,170810,,*3F
$GPRMC,155109,A,3340.2416,N,11745.3288,W,42.50,166.90,170810,,*30
$GPRMC,155112,A,3340.2056,N,11745.3172,W,44.80,163.70,170810,,*3C
$GPRMC,155115,A,3340.1703,N,11745.2997,W,45.90,157.80,170810,,*35
$GPRMC,155118,A,3340.1366,N,11745.2811,W,44.70,154.40,170810,,*30
$GPRMC,155121,A,3340.1031,N,11745.2576,W,46.90,149.90,170810,,*3A
$GPRMC,155124,A,3340.0687,N,11745.2312,W,48.50,146.80,170810,,*3D
$GPRMC,155127,A,3340.0347,N,11745.2046,W,48.60,146.70,170810,,*39
$GPRMC,155130,A,3340.0030,N,11745.1778,W,47.10,146.50,170810,,*3F
$GPRMC,155133,A,3339.9708,N,11745.1516,W,46.80,147.00,170810,,*31
$GPRMC,155136,A,3339.9370,N,11745.1246,W,49.20,146.50,170810,,*3C
$GPRMC,155139,A,3339.9021,N,11745.0970,W,51.10,146.00,170810,,*34
$GPRMC,155142,A,3339.8677,N,11745.0694,W,48.90,146.40,170810,,*3D
$GPRMC,155145,A,3339.8351,N,11745.0450,W,45.40,146.90,170810,,*3C
$GPRMC,155148,A,3339.8049,N,11745.0215,W,42.80,147.90,170810,,*36
$GPRMC,155151,A,3339.7755,N,11744.9991,W,41.90,147.50,170810,,*3A
$GPRMC,155154,A,3339.7466,N,11744.9767,W,40.70,147.10,170810,,*30
$GPRMC,155157,A,3339.7170,N,11744.9548,W,42.70,146.40,170810,,*38
$GPRMC,155200,A,3339.6867,N,11744.9291,W,44.90,146.10,170810,,*39
$GPRMC,155203,A,3339.6540,N,11744.9041,W,46.10,146.60,170810,,*30
$GPRMC,155206,A,3339.6220,N,11744.8793,W,45.30,146.70,170810,,*3D
$GPRMC,155209,A,3339.5919,N,11744.8548,W,43.30,146.30,170810,,*36
$GPRMC,155212,A,3339.5639,N,11744.8325,W,40.00,147.00,170810,,*3E
$GPRMC,155215,A,3339.5368,N,11744.8111,W,39.30,146.30,170810,,*32
$GPRMC,155218,A,3339.5097,N,11744.7898,W,37.80,146.30,170810,,*3E
$GPRMC,155221,A,3339.4846,N,11744.7694,W,38.10,145.90,170810,,*3C
$GPRMC,155224,A,3339.4580,N,11744.7467,W,38.00,145.60,170810,,*3E
$GPRMC,155227,A,3339.4318,N,11744.7244,W,39.20,144.20,170810,,*3B
$GPRMC,155230,A,3339.4041,N,11744.7020,W,39.20,145.50,170810,,*34
$GPRMC,155233,A,3339.3756,N,11744.6791,W,41.80,145.90,170810,,*34
$GPRMC,155236,A,3339.3464,N,11744.6555,W,42.70,146.50,170810,,*3A
$GPRMC,155239,A,3339.3143,N,11744.6305,W,44.50,146.50,170810,,*32
$GPRMC,155242,A,3339.2836,N,11744.6053,W,45.70,146.10,170810,,*33
$GPRMC,155245,A,3339.2499,N,11744.5776,W,48.30,145.80,170810,,*3D
$GPRMC,155248,A,3339.2166,N,11744.5505,W,47.70,146.30,170810,,*30
$GPRMC,155251,A,3339.1831,N,11744.5245,W,47.60,146.30,170810,,*32
$GPRMC,155254,A,3339.1487,N,11744.4987,W,49.60,147.20,170810,,*3C
$GPRMC,155255,A,3339.1369,N,11744.4894,W,50.60,147.10,170810,,*32
$GPRMC,155257,A,3339.1132,N,11744.4691,W,52.80,146.80,170810,,*33
$GPRMC,155300,A,3339.0739,N,11744.4393,W,56.10,147.90,170810,,*36
$GPRMC,155303,A,3339.0319,N,11744.4095,W,59.00,148.90,170810,,*37
$GPRMC,155306,A,3338.9878,N,11744.3780,W,61.20,148.90,170810,,*3B
$GPRMC,155309,A,3338.9447,N,11744.3480,W,58.00,149.60,170810,,*31
$GPRMC,155312,A,3338.9035,N,11744.3192,W,55.90,151.00,170810,,*37
$GPRMC,155315,A,3338.8616,N,11744.2947,W,53.10,154.70,170810,,*3B
$GPRMC,155318,A,3338.8233,N,11744.2745,W,50.40,157.30,170810,,*38
$GPRMC,155321,A,3338.7845,N,11744.2563,W,50.30,157.80,170810,,*3C
$GPRMC,155324,A,3338.7461,N,11744.2383,W,48.40,158.20,170810,,*30
$GPRMC,155327,A,3338.7081,N,11744.2199,W,49.50,156.80,170810,,*34
$GPRMC,155330,A,3338.6704,N,11744.1978,W,49.80,151.30,170810,,*3C
$GPRMC,155333,A,3338.6357,N,11744.1687,W,52.10,141.30,170810,,*30
$GPRMC,155336,A,3338.6039,N,11744.1305,W,56.00,133.10,170810,,*33
$GPRMC,155339,A,3338.5713,N,11744.0850,W,62.00,130.90,170810,,*36
$GPRMC,155342,A,3338.5351,N,11744.0388,W,63.60,135.60,170810,,*3B
$GPRMC,155345,A,3338.4943,N,11743.9995,W,61.20,143.30,170810,,*3E
$GPRMC,155348,A,3338.4534,N,11743.9662,W,58.60,146.40,170810,,*34
$GPRMC,155351,A,3338.4123,N,11743.9338,W,58.40,146.40,170810,,*36
$GPRMC,155354,A,3338.3707,N,11743.9018,W,59.60,146.30,170810,,*31
$GPRMC,155357,A,3338.3284,N,11743.8685,W,61.70,146.50,170810,,*33
$GPRMC,155400,A,3338.2856,N,11743.8333,W,62.60,146.10,170810,,*3C
$GPRMC,155403,A,3338.2409,N,11743.7982,W,63.40,146.40,170810,,*30
$GPRMC,155406,A,3338.1976,N,11743.7635,W,61.80,146.10,170810,,*3B
$GPRMC,155409,A,3338.1564,N,11743.7297,W,60.30,145.70,170810,,*38
$GPRMC,155412,A,3338.1150,N,11743.6965,W,58.40,145.90,170810,,*34
$GPRMC,155415,A,3338.0763,N,11743.6631,W,57.20,145.00,170810,,*3A
$GPRMC,155418,A,3338.0374,N,11743.6313,W,55.90,145.60,170810,,*3F
$GPRMC,155421,A,3337.9992,N,11743.5975,W,56.80,142.60,170810,,*3D
$GPRMC,155424,A,3337.9630,N,11743.5617,W,55.80,139.40,170810,,*39
$GPRMC,155427,A,3337.9309,N,11743.5243,W,52.40,136.10,170810,,*31
$GPRMC,155430,A,3337.9020,N,11743.4913,W,47.00,135.80,170810,,*3A
$GPRMC,155433,A,3337.8745,N,11743.4589,W,45.20,136.70,170810,,*3F
$GPRMC,155436,A,3337.8454,N,11743.4352,W,42.20,149.30,170810,,*32
$GPRMC,155439,A,3337.8135,N,11743.4245,W,39.70,168.00,170810,,*31
$GPRMC,155442,A,3337.7828,N,11743.4234,W,35.10,182.40,170810,,*3B
$GPRMC,155445,A,3337.7607,N,11743.4262,W,22.30,187.80,170810,,*31
$GPRMC,155448,A,3337.7487,N,11743.4281,W,12.80,185.50,170810,,*3C
$GPRMC,155515,A,3337.7399,N,11743.4315,W,15.30,186.80,170810,,*33
$GPRMC,155518,A,3337.7259,N,11743.4264,W,17.20,148.70,170810,,*3A
$GPRMC,155521,A,3337.7206,N,11743.4106,W,19.30,105.40,170810,,*38
$GPRMC,155524,A,3337.7169,N,11743.3852,W,28.80,98.60,170810,,*06
$GPRMC,155527,A,3337.7119,N,11743.3499,W,36.70,99.00,170810,,*0E
$GPRMC,155530,A,3337.7085,N,11743.3127,W,36.50,97.80,170810,,*08
$GPRMC,155533,A,3337.7039,N,11743.2770,W,35.90,98.40,170810,,*05
$GPRMC,155536,A,3337.6995,N,11743.2405,W,37.90,97.90,170810,,*0F
$GPRMC,155539,A,3337.6976,N,11743.2049,W,34.70,92.70,170810,,*07
$GPRMC,155542,A,3337.6975,N,11743.1745,W,29.10,86.60,170810,,*0E
$GPRMC,155545,A,3337.7004,N,11743.1501,W,21.30,81.30,170810,,*0D
$GPRMC,155548,A,3337.7024,N,11743.1393,W,9.20,73.90,170810,,*33
$GPRMC,155557,A,3337.7036,N,11743.1343,W,5.90,82.30,170810,,*30
$GPRMC,155600,A,3337.7067,N,11743.1200,W,16.90,75.60,170810,,*0C
$GPRMC,155603,A,3337.7119,N,11743.0997,W,21.80,71.90,170810,,*0D
$GPRMC,155606,A,3337.7178,N,11743.0772,W,24.90,70.50,170810,,*03
$GPRMC,155609,A,3337.7265,N,11743.0561,W,21.30,61.50,170810,,*0C
$GPRMC,155612,A,3337.7332,N,11743.0429,W,13.50,59.50,170810,,*04
$GPRMC,155636,A,3337.7409,N,11743.0270,W,11.80,59.40,170810,,*09
$GPRMC,155639,A,3337.7527,N,11743.0047,W,27.20,55.00,170810,,*0A
$GPRMC,155642,A,3337.7696,N,11742.9810,W,32.30,50.40,170810,,*09
$GPRMC,155645,A,3337.7874,N,11742.9551,W,33.20,48.90,170810,,*00
$GPRMC,155648,A,3337.8069,N,11742.9301,W,33.60,47.80,170810,,*0F
$GPRMC,155651,A,3337.8282,N,11742.9035,W,35.30,44.90,170810,,*05
$GPRMC,155654,A,3337.8452,N,11742.8805,W,28.60,47.70,170810,,*05
$GPRMC,155657,A,3337.8552,N,11742.8665,W,16.00,48.70,170810,,*0B
