NMEA Sentence Code,UTC Time,Status,Latitude,Latitude Direction,Longitude,Longitude Direction,Speed (knots),Track Angle (degrees true),Date,MagneticVariation,Magnetic Variation Direction,[FAA Mode]-Optional,Checksum
$GPRMC,164846.9,A,3248.211586,N,11656.150687,W,21.1,340.8,240410,,,A*4E
$GPRMC,164849.9,A,3248.209294,N,11656.172615,W,23.1,268.8,240410,,,A*4E
$GPRMC,164852.9,A,3248.207740,N,11656.204482,W,32.6,266.0,240410,,,A*49
$GPRMC,164855.9,A,3248.205134,N,11656.239392,W,36.5,266.1,240410,,,A*47
$GPRMC,164858.9,A,3248.201367,N,11656.274960,W,37.2,265.0,240410,,,A*40
$GPRMC,164901.9,A,3248.200149,N,11656.318626,W,41.1,267.7,240410,,,A*43
$GPRMC,164904.9,A,3248.201027,N,11656.360380,W,42.0,269.2,240410,,,A*41
$GPRMC,164907.9,A,3248.196387,N,11656.402993,W,45.3,265.6,240410,,,A*41
$GPRMC,164910.9,A,3248.193648,N,11656.450998,W,49.4,267.0,240410,,,A*47
$GPRMC,164913.9,A,3248.193951,N,11656.506116,W,56.1,270.3,240410,,,A*41
$GPRMC,164916.9,A,3248.194257,N,11656.562818,W,57.1,269.7,240410,,,A*46
$GPRMC,164919.9,A,3248.192060,N,11656.625160,W,62.8,268.2,240410,,,A*44
$GPRMC,164922.9,A,3248.190577,N,11656.689606,W,66.4,267.4,240410,,,A*4D
$GPRMC,164925.9,A,3248.191386,N,11656.755259,W,66.8,270.2,240410,,,A*41
$GPRMC,164928.9,A,3248.190445,N,11656.820442,W,68.2,270.3,240410,,,A*41
$GPRMC,164931.9,A,3248.192473,N,11656.888903,W,69.0,270.9,240410,,,A*4D
$GPRMC,164934.2,A,3248.191975,N,11656.941801,W,67.8,269.9,240410,,,A*42
$GPRMC,164937.2,A,3248.191706,N,11657.006869,W,64.4,270.0,240410,,,A*40
$GPRMC,164940.2,A,3248.190966,N,11657.069342,W,64.0,269.0,240410,,,A*4E
$GPRMC,164943.2,A,3248.191104,N,11657.130713,W,62.8,271.3,240410,,,A*49
$GPRMC,164946.2,A,3248.191991,N,11657.192411,W,62.3,271.2,240410,,,A*4B
$GPRMC,164949.9,A,3248.193869,N,11657.271978,W,67.0,271.9,240410,,,A*4A
$GPRMC,164952.9,A,3248.193920,N,11657.338434,W,66.8,271.6,240410,,,A*43
$GPRMC,164955.9,A,3248.198734,N,11657.403357,W,63.2,275.9,240410,,,A*4D
$GPRMC,164958.9,A,3248.200228,N,11657.464756,W,60.8,272.3,240410,,,A*4A
$GPRMC,165001.9,A,3248.199358,N,11657.523545,W,59.5,270.8,240410,,,A*47
$GPRMC,165004.9,A,3248.201119,N,11657.580258,W,52.5,271.4,240410,,,A*43
$GPRMC,165007.9,A,3248.205452,N,11657.622104,W,40.3,280.1,240410,,,A*41
$GPRMC,165010.9,A,3248.220988,N,11657.652080,W,36.0,306.0,240410,,,A*4C
$GPRMC,165013.9,A,3248.245672,N,11657.680849,W,40.3,315.8,240410,,,A*4C
$GPRMC,165016.9,A,3248.272734,N,11657.706055,W,42.0,326.4,240410,,,A*49
$GPRMC,165019.9,A,3248.304881,N,11657.711320,W,39.7,357.0,240410,,,A*49
$GPRMC,165022.9,A,3248.343936,N,11657.703538,W,44.6,8.0,240410,,,A*41
$GPRMC,165025.9,A,3248.380566,N,11657.700484,W,43.1,2.6,240410,,,A*49
$GPRMC,165028.9,A,3248.413434,N,11657.701938,W,38.0,357.2,240410,,,A*4E
$GPRMC,165031.9,A,3248.439729,N,11657.702887,W,31.7,358.1,240410,,,A*45
$GPRMC,165034.9,A,3248.464458,N,11657.702083,W,31.1,0.2,240410,,,A*4A
$GPRMC,165037.9,A,3248.488885,N,11657.702215,W,29.5,358.1,240410,,,A*4A
$GPRMC,165040.9,A,3248.501935,N,11657.690678,W,23.5,36.7,240410,,,A*72
$GPRMC,165043.9,A,3248.510730,N,11657.666608,W,25.7,72.4,240410,,,A*73
$GPRMC,165046.9,A,3248.508134,N,11657.643461,W,19.5,96.1,240410,,,A*75
$GPRMC,165049.9,A,3248.506922,N,11657.630052,W,12.5,111.9,240410,,,A*46
$GPRMC,165052.9,A,3248.498515,N,11657.629207,W,11.3,178.9,240410,,,A*42
$GPRMC,165055.9,A,3248.485989,N,11657.629100,W,12.3,179.3,240410,,,A*4C
$GPRMC,165058.9,A,3248.479599,N,11657.626367,W,5.0,160.7,240410,,,A*7A
$GPRMC,165104.9,A,3248.474191,N,11657.632465,W,10.9,229.1,240410,,,A*46
$GPRMC,165107.9,A,3248.469639,N,11657.648852,W,20.0,259.9,240410,,,A*4C
$GPRMC,165110.9,A,3248.467428,N,11657.673786,W,26.3,265.9,240410,,,A*42
$GPRMC,165113.9,A,3248.468327,N,11657.705722,W,33.9,270.9,240410,,,A*42
$GPRMC,165116.2,A,3248.469163,N,11657.733079,W,38.0,271.1,240410,,,A*48
$GPRMC,165119.9,A,3248.471512,N,11657.783836,W,39.7,269.4,240410,,,A*45
$GPRMC,165122.9,A,3248.470242,N,11657.817978,W,34.9,268.4,240410,,,A*45
$GPRMC,165125.9,A,3248.472638,N,11657.835832,W,18.0,275.7,240410,,,A*4E
$GPRMC,165128.9,A,3248.470267,N,11657.843510,W,7.0,262.8,240410,,,A*74
$GPRMC,165204.9,A,3248.470152,N,11657.847565,W,4.7,262.5,240410,,,A*73
$GPRMC,165207.9,A,3248.468197,N,11657.859921,W,12.0,264.4,240410,,,A*44
$GPRMC,165210.9,A,3248.469269,N,11657.888618,W,29.4,268.6,240410,,,A*4A
$GPRMC,165213.9,A,3248.468403,N,11657.923217,W,34.5,268.6,240410,,,A*44
$GPRMC,165216.9,A,3248.468419,N,11657.959966,W,38.2,267.0,240410,,,A*48
$GPRMC,165219.9,A,3248.465422,N,11657.995189,W,32.7,265.0,240410,,,A*46
$GPRMC,165222.9,A,3248.462929,N,11658.023648,W,26.3,265.7,240410,,,A*48
$GPRMC,165225.9,A,3248.463729,N,11658.037944,W,11.4,274.0,240410,,,A*42
$GPRMC,165249.9,A,3248.457186,N,11658.006570,W,26.4,94.0,240410,,,A*7D
$GPRMC,165252.9,A,3248.454926,N,11657.971088,W,35.6,91.9,240410,,,A*7E
$GPRMC,165255.9,A,3248.452438,N,11657.934635,W,36.5,92.8,240410,,,A*7E
$GPRMC,165258.9,A,3248.453283,N,11657.902021,W,29.4,91.8,240410,,,A*7E
$GPRMC,165301.9,A,3248.454097,N,11657.881329,W,16.1,91.2,240410,,,A*71
$GPRMC,165401.9,A,3248.453847,N,11657.852826,W,21.9,84.3,240410,,,A*77
$GPRMC,165404.9,A,3248.456668,N,11657.816544,W,33.0,85.9,240410,,,A*7C
$GPRMC,165407.9,A,3248.450849,N,11657.779638,W,30.9,93.7,240410,,,A*79
$GPRMC,165410.9,A,3248.451353,N,11657.760896,W,10.8,98.9,240410,,,A*7A
$GPRMC,165425.9,A,3248.440585,N,11657.754890,W,8.7,154.8,240410,,,A*76
$GPRMC,165428.9,A,3248.412879,N,11657.750108,W,29.8,179.1,240410,,,A*44
$GPRMC,165431.9,A,3248.377298,N,11657.753884,W,40.8,184.2,240410,,,A*4D
$GPRMC,165434.9,A,3248.340128,N,11657.757531,W,46.3,186.3,240410,,,A*4D
$GPRMC,165437.9,A,3248.298942,N,11657.769941,W,51.4,197.7,240410,,,A*4D
$GPRMC,165440.9,A,3248.262616,N,11657.797011,W,54.4,216.3,240410,,,A*40
$GPRMC,165443.9,A,3248.230092,N,11657.839731,W,61.2,230.8,240410,,,A*4F
$GPRMC,165446.9,A,3248.205812,N,11657.896855,W,66.2,243.4,240410,,,A*4B
$GPRMC,165449.9,A,3248.198599,N,11657.963979,W,67.3,262.1,240410,,,A*4F
$GPRMC,165452.9,A,3248.196763,N,11658.030756,W,65.8,266.9,240410,,,A*4A
$GPRMC,165455.9,A,3248.196316,N,11658.090388,W,60.0,267.8,240410,,,A*4B
$GPRMC,165458.9,A,3248.194468,N,11658.147436,W,55.6,268.4,240410,,,A*40
$GPRMC,165501.9,A,3248.192191,N,11658.201772,W,56.4,265.6,240410,,,A*44
$GPRMC,165504.9,A,3248.181696,N,11658.258668,W,58.8,258.1,240410,,,A*4E
$GPRMC,165507.9,A,3248.165043,N,11658.315906,W,61.9,251.7,240410,,,A*42
$GPRMC,165510.9,A,3248.143887,N,11658.373683,W,63.2,244.6,240410,,,A*4E
$GPRMC,165513.9,A,3248.114980,N,11658.425679,W,61.6,235.9,240410,,,A*47
$GPRMC,165516.9,A,3248.082368,N,11658.470477,W,60.2,228.5,240410,,,A*49
$GPRMC,165519.9,A,3248.045151,N,11658.512769,W,63.7,222.3,240410,,,A*46
$GPRMC,165522.9,A,3248.001562,N,11658.548751,W,61.5,214.1,240410,,,A*49
$GPRMC,165525.9,A,3247.956045,N,11658.576093,W,59.7,206.4,240410,,,A*41
$GPRMC,165528.9,A,3247.909037,N,11658.597940,W,60.8,199.3,240410,,,A*4C
$GPRMC,165531.9,A,3247.860881,N,11658.613305,W,60.5,192.4,240410,,,A*4A
$GPRMC,165534.9,A,3247.809670,N,11658.622639,W,63.5,188.4,240410,,,A*40
$GPRMC,165537.9,A,3247.755364,N,11658.630361,W,64.0,186.8,240410,,,A*4E
$GPRMC,165540.9,A,3247.702539,N,11658.639192,W,64.5,188.6,240410,,,A*40
$GPRMC,165543.9,A,3247.649877,N,11658.648267,W,63.0,187.8,240410,,,A*46
$GPRMC,165546.9,A,3247.598504,N,11658.657952,W,63.3,188.2,240410,,,A*40
$GPRMC,165549.9,A,3247.547010,N,11658.667218,W,62.9,188.5,240410,,,A*47
$GPRMC,165552.9,A,3247.495955,N,11658.675777,W,62.4,186.9,240410,,,A*4B
$GPRMC,165555.9,A,3247.446309,N,11658.679599,W,58.9,182.0,240410,,,A*46
$GPRMC,165558.9,A,3247.398054,N,11658.679108,W,57.1,179.8,240410,,,A*43
$GPRMC,165601.9,A,3247.348863,N,11658.678301,W,58.3,180.0,240410,,,A*44
$GPRMC,165604.9,A,3247.302081,N,11658.680230,W,57.4,184.7,240410,,,A*44
$GPRMC,165607.9,A,3247.252979,N,11658.691833,W,61.2,194.3,240410,,,A*42
$GPRMC,165610.9,A,3247.205378,N,11658.713126,W,62.1,202.7,240410,,,A*43
$GPRMC,165613.9,A,3247.160292,N,11658.742669,W,61.9,209.9,240410,,,A*43
$GPRMC,165616.9,A,3247.119086,N,11658.776778,W,61.9,213.8,240410,,,A*43
$GPRMC,165619.9,A,3247.074192,N,11658.812209,W,64.9,212.4,240410,,,A*44
$GPRMC,165622.9,A,3247.027828,N,11658.842576,W,64.9,208.2,240410,,,A*45
$GPRMC,165625.9,A,3246.976157,N,11658.871559,W,68.5,204.9,240410,,,A*45
$GPRMC,165628.9,A,3246.923646,N,11658.898946,W,70.3,204.4,240410,,,A*48
$GPRMC,165631.9,A,3246.869757,N,11658.929786,W,70.5,208.0,240410,,,A*49
$GPRMC,165634.9,A,3246.821825,N,11658.970870,W,70.5,219.0,240410,,,A*40
$GPRMC,165637.9,A,3246.785933,N,11659.023789,W,68.3,232.6,240410,,,A*43
$GPRMC,165640.9,A,3246.760693,N,11659.083562,W,68.2,244.2,240410,,,A*44
$GPRMC,165643.9,A,3246.745271,N,11659.149168,W,67.7,255.1,240410,,,A*48
$GPRMC,165646.9,A,3246.739562,N,11659.215691,W,67.4,262.2,240410,,,A*4C
$GPRMC,165649.9,A,3246.747775,N,11659.289940,W,71.7,272.7,240410,,,A*48
$GPRMC,165652.9,A,3246.753222,N,11659.362214,W,74.0,273.4,240410,,,A*4E
$GPRMC,165655.9,A,3246.755058,N,11659.434153,W,73.9,272.9,240410,,,A*46
$GPRMC,165658.2,A,3246.755913,N,11659.487728,W,69.6,272.0,240410,,,A*49
$GPRMC,165701.9,A,3246.759856,N,11659.564325,W,60.6,272.6,240410,,,A*49
$GPRMC,165704.9,A,3246.762967,N,11659.621168,W,56.2,273.9,240410,,,A*41
$GPRMC,165707.9,A,3246.763695,N,11659.670238,W,51.9,271.7,240410,,,A*43
$GPRMC,165710.9,A,3246.764946,N,11659.721436,W,51.5,271.5,240410,,,A*40
$GPRMC,165713.9,A,3246.770753,N,11659.770069,W,50.9,275.6,240410,,,A*4C
$GPRMC,165716.9,A,3246.772914,N,11659.821352,W,52.5,274.0,240410,,,A*4F
$GPRMC,165719.2,A,3246.776773,N,11659.861197,W,52.5,275.7,240410,,,A*49
$GPRMC,165722.9,A,3246.781638,N,11659.926856,W,54.1,272.6,240410,,,A*4E
$GPRMC,165725.9,A,3246.781915,N,11659.980155,W,55.8,268.4,240410,,,A*4E
$GPRMC,165728.9,A,3246.774394,N,11700.036274,W,57.8,260.9,240410,,,A*44
$GPRMC,165731.9,A,3246.763041,N,11700.090248,W,55.3,255.3,240410,,,A*47
$GPRMC,165734.9,A,3246.751997,N,11700.135108,W,45.3,254.8,240410,,,A*43
$GPRMC,165737.9,A,3246.751070,N,11700.177615,W,41.6,271.9,240410,,,A*4A
$GPRMC,165740.9,A,3246.774787,N,11700.214017,W,44.9,312.4,240410,,,A*43
$GPRMC,165743.9,A,3246.813150,N,11700.239211,W,53.0,331.9,240410,,,A*4A
$GPRMC,165746.9,A,3246.859487,N,11700.262938,W,61.2,336.2,240410,,,A*4F
$GPRMC,165749.9,A,3246.909427,N,11700.286537,W,65.6,339.7,240410,,,A*4D
$GPRMC,165752.9,A,3246.968237,N,11700.308057,W,72.1,342.3,240410,,,A*4A
$GPRMC,165755.9,A,3247.024945,N,11700.328956,W,72.6,343.4,240410,,,A*48
$GPRMC,165758.9,A,3247.084243,N,11700.347489,W,72.5,345.9,240410,,,A*4C
$GPRMC,165801.9,A,3247.142271,N,11700.361697,W,72.5,349.7,240410,,,A*4E
$GPRMC,165804.9,A,3247.200616,N,11700.373190,W,71.8,351.8,240410,,,A*40
$GPRMC,165807.9,A,3247.261547,N,11700.381540,W,73.6,354.0,240410,,,A*46
$GPRMC,165810.9,A,3247.322325,N,11700.383959,W,73.6,358.1,240410,,,A*4F
$GPRMC,165813.9,A,3247.383551,N,11700.384302,W,74.3,1.0,240410,,,A*4D
$GPRMC,165816.9,A,3247.446332,N,11700.379799,W,75.6,3.6,240410,,,A*41
$GPRMC,165819.9,A,3247.508056,N,11700.371929,W,76.0,6.7,240410,,,A*48
$GPRMC,165822.9,A,3247.572435,N,11700.360384,W,76.8,10.1,240410,,,A*78
$GPRMC,165825.9,A,3247.634638,N,11700.343883,W,75.6,11.2,240410,,,A*73
$GPRMC,165828.9,A,3247.695609,N,11700.333928,W,73.4,7.7,240410,,,A*46
$GPRMC,165831.9,A,3247.758771,N,11700.327280,W,74.5,4.5,240410,,,A*4B
$GPRMC,165834.2,A,3247.805532,N,11700.325279,W,74.0,1.4,240410,,,A*42
$GPRMC,165837.2,A,3247.867305,N,11700.323755,W,74.3,1.8,240410,,,A*45
$GPRMC,165840.9,A,3247.944468,N,11700.322065,W,75.2,0.6,240410,,,A*48
$GPRMC,165843.9,A,3248.007013,N,11700.321525,W,75.5,0.4,240410,,,A*45
$GPRMC,165846.9,A,3248.073155,N,11700.322626,W,77.5,359.5,240410,,,A*4F
$GPRMC,165849.9,A,3248.134478,N,11700.321612,W,76.3,0.5,240410,,,A*44
$GPRMC,165852.9,A,3248.200169,N,11700.320689,W,79.4,0.2,240410,,,A*43
$GPRMC,165855.9,A,3248.267168,N,11700.320146,W,79.9,0.1,240410,,,A*4E
$GPRMC,165858.9,A,3248.334584,N,11700.320893,W,79.7,359.7,240410,,,A*44
$GPRMC,165901.9,A,3248.400983,N,11700.321766,W,78.9,359.1,240410,,,A*4F
$GPRMC,165904.9,A,3248.464131,N,11700.318624,W,76.4,2.8,240410,,,A*43
$GPRMC,165907.9,A,3248.527328,N,11700.308688,W,77.8,10.7,240410,,,A*7A
$GPRMC,165910.9,A,3248.589442,N,11700.288079,W,77.5,16.6,240410,,,A*78
$GPRMC,165913.9,A,3248.648081,N,11700.258708,W,76.4,24.1,240410,,,A*74
$GPRMC,165916.9,A,3248.702588,N,11700.224238,W,75.9,27.8,240410,,,A*7B
$GPRMC,165919.9,A,3248.762891,N,11700.181639,W,81.5,29.9,240410,,,A*76
$GPRMC,165922.9,A,3248.821903,N,11700.142841,W,81.5,31.4,240410,,,A*76
$GPRMC,165925.9,A,3248.876441,N,11700.107725,W,74.6,27.4,240410,,,A*7A
$GPRMC,165928.9,A,3248.935664,N,11700.078293,W,77.1,20.3,240410,,,A*71
$GPRMC,165931.9,A,3248.998992,N,11700.059271,W,77.2,11.7,240410,,,A*72
$GPRMC,165934.9,A,3249.064355,N,11700.050418,W,77.4,4.5,240410,,,A*4D
$GPRMC,165937.9,A,3249.129029,N,11700.052746,W,78.7,356.6,240410,,,A*4F
$GPRMC,165940.9,A,3249.192578,N,11700.063345,W,78.2,350.9,240410,,,A*47
$GPRMC,165943.9,A,3249.256719,N,11700.081742,W,77.7,343.9,240410,,,A*4D
$GPRMC,165946.9,A,3249.317753,N,11700.105117,W,77.7,341.5,240410,,,A*47
$GPRMC,165949.9,A,3249.379933,N,11700.131137,W,78.0,342.8,240410,,,A*4B
$GPRMC,165952.9,A,3249.442363,N,11700.150628,W,77.9,345.4,240410,,,A*42
$GPRMC,165955.9,A,3249.506325,N,11700.168055,W,77.6,348.5,240410,,,A*42
$GPRMC,165958.9,A,3249.568745,N,11700.175697,W,76.6,355.2,240410,,,A*4B
$GPRMC,170001.9,A,3249.634002,N,11700.179899,W,78.9,358.4,240410,,,A*42
$GPRMC,170004.9,A,3249.699572,N,11700.179985,W,79.2,0.0,240410,,,A*4E
$GPRMC,170007.9,A,3249.764661,N,11700.180941,W,78.9,359.6,240410,,,A*42
$GPRMC,170010.9,A,3249.832026,N,11700.180739,W,80.1,359.5,240410,,,A*40
$GPRMC,170013.9,A,3249.898751,N,11700.179827,W,80.3,2.6,240410,,,A*4E
$GPRMC,170016.9,A,3249.965004,N,11700.174645,W,78.7,2.8,240410,,,A*45
$GPRMC,170019.9,A,3250.028450,N,11700.172964,W,75.0,2.7,240410,,,A*48
$GPRMC,170022.9,A,3250.086114,N,11700.173899,W,68.7,355.1,240410,,,A*4F
$GPRMC,170025.9,A,3250.138324,N,11700.190396,W,64.0,337.6,240410,,,A*4C
$GPRMC,170028.9,A,3250.181149,N,11700.226537,W,61.3,320.3,240410,,,A*4C
$GPRMC,170031.9,A,3250.213401,N,11700.272431,W,60.5,304.1,240410,,,A*40
$GPRMC,170034.9,A,3250.228212,N,11700.326858,W,56.8,286.3,240410,,,A*4B
$GPRMC,170037.9,A,3250.232489,N,11700.381993,W,56.9,272.8,240410,,,A*4D
$GPRMC,170040.9,A,3250.221358,N,11700.438955,W,60.1,258.3,240410,,,A*45
$GPRMC,170043.9,A,3250.207173,N,11700.499986,W,65.4,256.5,240410,,,A*44
$GPRMC,170046.9,A,3250.193318,N,11700.564750,W,69.3,256.5,240410,,,A*4D
$GPRMC,170049.9,A,3250.180103,N,11700.633472,W,72.0,256.6,240410,,,A*40
$GPRMC,170052.9,A,3250.169674,N,11700.703927,W,73.5,261.0,240410,,,A*43
$GPRMC,170055.9,A,3250.165215,N,11700.777314,W,75.2,267.8,240410,,,A*4D
$GPRMC,170058.9,A,3250.170607,N,11700.852080,W,74.3,273.4,240410,,,A*4C
$GPRMC,170101.9,A,3250.173379,N,11700.924000,W,71.6,274.5,240410,,,A*40
$GPRMC,170104.9,A,3250.176559,N,11700.992137,W,68.6,273.8,240410,,,A*4E
$GPRMC,170107.9,A,3250.179887,N,11701.055799,W,63.5,273.6,240410,,,A*4B
$GPRMC,170110.9,A,3250.188282,N,11701.113148,W,55.9,280.2,240410,,,A*44
$GPRMC,170113.9,A,3250.199898,N,11701.163001,W,51.7,285.4,240410,,,A*44
$GPRMC,170116.9,A,3250.217571,N,11701.211798,W,54.7,293.7,240410,,,A*4E
$GPRMC,170119.9,A,3250.241604,N,11701.259875,W,57.0,303.8,240410,,,A*40
$GPRMC,170122.9,A,3250.272762,N,11701.305572,W,60.1,311.2,240410,,,A*47
$GPRMC,170125.9,A,3250.312833,N,11701.344679,W,62.9,323.2,240410,,,A*4A
$GPRMC,170128.9,A,3250.361144,N,11701.379757,W,66.8,330.1,240410,,,A*4D
$GPRMC,170131.9,A,3250.412991,N,11701.408906,W,68.3,334.7,240410,,,A*4A
$GPRMC,170134.9,A,3250.465466,N,11701.439590,W,71.9,333.6,240410,,,A*4F
$GPRMC,170137.9,A,3250.520391,N,11701.471092,W,73.8,334.4,240410,,,A*4E
$GPRMC,170140.9,A,3250.577573,N,11701.502848,W,74.9,334.4,240410,,,A*4A
$GPRMC,170143.9,A,3250.631512,N,11701.533450,W,69.9,334.6,240410,,,A*46
$GPRMC,170146.9,A,3250.680598,N,11701.560141,W,64.9,334.5,240410,,,A*46
$GPRMC,170149.9,A,3250.728936,N,11701.589051,W,64.3,331.6,240410,,,A*49
$GPRMC,170152.9,A,3250.775209,N,11701.621082,W,64.3,327.1,240410,,,A*43
$GPRMC,170155.9,A,3250.818912,N,11701.658694,W,64.0,322.5,240410,,,A*4C
$GPRMC,170158.9,A,3250.859346,N,11701.698264,W,61.6,318.6,240410,,,A*41
$GPRMC,170201.9,A,3250.894021,N,11701.741781,W,61.2,313.4,240410,,,A*4B
$GPRMC,170204.2,A,3250.919766,N,11701.776637,W,60.4,310.5,240410,,,A*48
$GPRMC,170207.2,A,3250.952102,N,11701.823275,W,61.5,307.8,240410,,,A*46
$GPRMC,170210.2,A,3250.981605,N,11701.874051,W,63.7,301.8,240410,,,A*4E
$GPRMC,170213.2,A,3251.007888,N,11701.929807,W,65.9,297.2,240410,,,A*4E
$GPRMC,170216.2,A,3251.029872,N,11701.990343,W,67.8,290.4,240410,,,A*49
$GPRMC,170219.9,A,3251.051283,N,11702.070311,W,70.6,286.5,240410,,,A*4B
$GPRMC,170222.9,A,3251.064903,N,11702.138763,W,72.2,283.5,240410,,,A*49
$GPRMC,170225.9,A,3251.076875,N,11702.209720,W,73.9,280.7,240410,,,A*40
$GPRMC,170228.9,A,3251.089233,N,11702.283441,W,75.8,279.9,240410,,,A*4C
$GPRMC,170231.9,A,3251.099006,N,11702.358134,W,75.7,279.7,240410,,,A*40
$GPRMC,170234.9,A,3251.110155,N,11702.429635,W,74.3,280.2,240410,,,A*43
$GPRMC,170237.9,A,3251.121531,N,11702.499570,W,70.9,280.4,240410,,,A*45
$GPRMC,170240.9,A,3251.129517,N,11702.566816,W,68.3,279.1,240410,,,A*45
$GPRMC,170243.9,A,3251.136782,N,11702.631977,W,64.4,278.5,240410,,,A*4F
$GPRMC,170246.9,A,3251.146639,N,11702.691522,W,60.4,280.5,240410,,,A*49
$GPRMC,170249.9,A,3251.154896,N,11702.750224,W,59.5,279.0,240410,,,A*4B
$GPRMC,170252.9,A,3251.163138,N,11702.806430,W,58.3,279.6,240410,,,A*46
$GPRMC,170255.9,A,3251.172217,N,11702.861919,W,58.1,280.7,240410,,,A*4D
$GPRMC,170258.9,A,3251.181370,N,11702.918570,W,59.0,279.9,240410,,,A*48
$GPRMC,170301.9,A,3251.190281,N,11702.977668,W,59.2,279.2,240410,,,A*40
$GPRMC,170304.9,A,3251.200524,N,11703.035685,W,59.6,281.1,240410,,,A*4A
$GPRMC,170307.9,A,3251.206931,N,11703.093359,W,59.1,279.4,240410,,,A*4A
$GPRMC,170310.9,A,3251.215596,N,11703.148647,W,58.6,279.6,240410,,,A*46
$GPRMC,170313.9,A,3251.226431,N,11703.206867,W,60.2,281.9,240410,,,A*4B
$GPRMC,170316.9,A,3251.236919,N,11703.265907,W,62.3,281.2,240410,,,A*42
$GPRMC,170319.9,A,3251.245173,N,11703.328583,W,63.4,279.4,240410,,,A*42
$GPRMC,170322.9,A,3251.252428,N,11703.389126,W,63.2,278.5,240410,,,A*41
$GPRMC,170325.9,A,3251.264428,N,11703.452049,W,65.0,280.6,240410,,,A*4A
$GPRMC,170328.9,A,3251.272969,N,11703.516338,W,65.8,279.0,240410,,,A*44
$GPRMC,170331.9,A,3251.283352,N,11703.580017,W,66.2,279.3,240410,,,A*4B
$GPRMC,170334.9,A,3251.290499,N,11703.644433,W,65.6,276.5,240410,,,A*4B
$GPRMC,170337.9,A,3251.291983,N,11703.707109,W,66.1,271.3,240410,,,A*40
$GPRMC,170340.9,A,3251.290449,N,11703.773032,W,67.7,267.6,240410,,,A*45
$GPRMC,170343.9,A,3251.285111,N,11703.839963,W,68.4,263.5,240410,,,A*4D
$GPRMC,170346.9,A,3251.276247,N,11703.908257,W,71.2,259.3,240410,,,A*4A
$GPRMC,170349.9,A,3251.262195,N,11703.977437,W,72.4,255.3,240410,,,A*4D
$GPRMC,170352.9,A,3251.242169,N,11704.047901,W,76.3,251.6,240410,,,A*41
$GPRMC,170355.9,A,3251.216705,N,11704.116854,W,75.9,244.4,240410,,,A*40
$GPRMC,170358.9,A,3251.187032,N,11704.181297,W,75.6,242.3,240410,,,A*40
$GPRMC,170401.9,A,3251.151212,N,11704.241386,W,74.9,235.3,240410,,,A*40
$GPRMC,170404.9,A,3251.113955,N,11704.302752,W,76.5,232.7,240410,,,A*4D
$GPRMC,170407.9,A,3251.069509,N,11704.359486,W,77.9,227.3,240410,,,A*4E
$GPRMC,170410.9,A,3251.026254,N,11704.414289,W,76.7,226.6,240410,,,A*40
$GPRMC,170413.9,A,3250.982273,N,11704.468817,W,76.2,227.1,240410,,,A*45
$GPRMC,170416.9,A,3250.940547,N,11704.525199,W,74.4,228.6,240410,,,A*45
$GPRMC,170419.9,A,3250.900223,N,11704.577120,W,72.2,226.6,240410,,,A*40
$GPRMC,170422.9,A,3250.859590,N,11704.627890,W,71.0,226.5,240410,,,A*4C
$GPRMC,170425.9,A,3250.819756,N,11704.677786,W,70.2,226.7,240410,,,A*4B
$GPRMC,170428.9,A,3250.780845,N,11704.731658,W,70.1,228.9,240410,,,A*46
$GPRMC,170431.9,A,3250.744917,N,11704.786106,W,69.5,232.9,240410,,,A*47
$GPRMC,170434.9,A,3250.713754,N,11704.842535,W,67.6,237.0,240410,,,A*4B
$GPRMC,170437.9,A,3250.685521,N,11704.897246,W,64.9,239.2,240410,,,A*4D
$GPRMC,170440.9,A,3250.661728,N,11704.958629,W,65.9,244.9,240410,,,A*43
$GPRMC,170443.9,A,3250.641437,N,11705.016904,W,63.8,248.6,240410,,,A*49
$GPRMC,170446.9,A,3250.623651,N,11705.079059,W,68.8,250.8,240410,,,A*4E
$GPRMC,170449.9,A,3250.609883,N,11705.146057,W,70.1,255.3,240410,,,A*45
$GPRMC,170452.9,A,3250.594649,N,11705.216302,W,71.7,255.6,240410,,,A*47
$GPRMC,170455.9,A,3250.578034,N,11705.282003,W,70.2,255.4,240410,,,A*47
$GPRMC,170458.9,A,3250.563674,N,11705.351246,W,69.8,256.9,240410,,,A*42
$GPRMC,170501.9,A,3250.547532,N,11705.417424,W,68.6,255.3,240410,,,A*49
$GPRMC,170504.9,A,3250.532444,N,11705.481918,W,67.0,255.2,240410,,,A*4B
$GPRMC,170507.9,A,3250.518992,N,11705.546498,W,69.0,255.6,240410,,,A*43
$GPRMC,170510.9,A,3250.502963,N,11705.612990,W,70.7,253.8,240410,,,A*40
$GPRMC,170513.9,A,3250.492080,N,11705.685864,W,73.2,261.4,240410,,,A*40
$GPRMC,170516.9,A,3250.484153,N,11705.759654,W,75.1,265.8,240410,,,A*4D
$GPRMC,170519.9,A,3250.486276,N,11705.835197,W,75.4,272.4,240410,,,A*46
$GPRMC,170522.9,A,3250.487627,N,11705.909946,W,74.7,272.4,240410,,,A*47
$GPRMC,170525.9,A,3250.490668,N,11705.982610,W,73.5,272.6,240410,,,A*45
$GPRMC,170528.9,A,3250.493837,N,11706.054626,W,73.2,272.3,240410,,,A*49
$GPRMC,170531.9,A,3250.496105,N,11706.129832,W,76.3,273.2,240410,,,A*48
$GPRMC,170534.9,A,3250.498446,N,11706.205622,W,77.1,273.6,240410,,,A*44
$GPRMC,170537.9,A,3250.500778,N,11706.284294,W,78.6,272.9,240410,,,A*4F
$GPRMC,170540.9,A,3250.504493,N,11706.360695,W,78.5,272.6,240410,,,A*4F
$GPRMC,170543.9,A,3250.507368,N,11706.437232,W,79.0,273.0,240410,,,A*43
$GPRMC,170546.9,A,3250.511720,N,11706.515730,W,79.3,273.2,240410,,,A*4E
$GPRMC,170549.9,A,3250.515134,N,11706.592693,W,75.2,273.3,240410,,,A*4D
$GPRMC,170552.9,A,3250.517020,N,11706.664255,W,71.9,272.0,240410,,,A*48
$GPRMC,170555.9,A,3250.519905,N,11706.734726,W,71.9,271.8,240410,,,A*41
$GPRMC,170558.9,A,3250.525526,N,11706.802467,W,67.6,274.5,240410,,,A*42
$GPRMC,170601.9,A,3250.527492,N,11706.862659,W,57.5,273.7,240410,,,A*4D
$GPRMC,170604.9,A,3250.529087,N,11706.914360,W,49.8,271.7,240410,,,A*49
$GPRMC,170607.2,A,3250.529796,N,11706.952368,W,48.4,270.2,240410,,,A*45
$GPRMC,170610.9,A,3250.530527,N,11707.012261,W,49.2,272.2,240410,,,A*49
$GPRMC,170613.9,A,3250.533931,N,11707.056134,W,42.7,277.3,240410,,,A*4B
$GPRMC,170616.9,A,3250.543768,N,11707.093165,W,39.9,292.7,240410,,,A*4B
$GPRMC,170619.9,A,3250.568076,N,11707.122169,W,40.2,320.0,240410,,,A*48
$GPRMC,170622.9,A,3250.601358,N,11707.137013,W,42.3,345.6,240410,,,A*4D
$GPRMC,170625.9,A,3250.637491,N,11707.137649,W,42.6,359.8,240410,,,A*42
$GPRMC,170628.9,A,3250.675487,N,11707.119948,W,49.2,20.2,240410,,,A*74
$GPRMC,170631.9,A,3250.717258,N,11707.097860,W,55.7,23.8,240410,,,A*70
$GPRMC,170634.9,A,3250.760518,N,11707.071545,W,58.5,25.9,240410,,,A*7C
$GPRMC,170637.9,A,3250.806478,N,11707.047031,W,60.0,25.0,240410,,,A*73
$GPRMC,170640.9,A,3250.852083,N,11707.023734,W,62.2,23.5,240410,,,A*71
$GPRMC,170643.9,A,3250.901700,N,11706.999652,W,64.1,21.5,240410,,,A*76
$GPRMC,170646.9,A,3250.952383,N,11706.980700,W,63.8,15.4,240410,,,A*7C
$GPRMC,170649.9,A,3251.007286,N,11706.967636,W,66.9,12.8,240410,,,A*7D
$GPRMC,170652.9,A,3251.062022,N,11706.949102,W,68.7,15.2,240410,,,A*79
$GPRMC,170655.9,A,3251.118635,N,11706.929348,W,71.0,15.5,240410,,,A*70
$GPRMC,170658.9,A,3251.177711,N,11706.910529,W,73.2,15.1,240410,,,A*7C
$GPRMC,170701.9,A,3251.235272,N,11706.890603,W,72.2,16.5,240410,,,A*70
$GPRMC,170704.9,A,3251.292520,N,11706.865560,W,74.0,21.5,240410,,,A*74
$GPRMC,170707.9,A,3251.349076,N,11706.834620,W,73.3,26.3,240410,,,A*70
$GPRMC,170710.9,A,3251.403149,N,11706.801859,W,72.4,27.3,240410,,,A*73
$GPRMC,170713.9,A,3251.455604,N,11706.769581,W,70.8,27.3,240410,,,A*7A
$GPRMC,170716.9,A,3251.508125,N,11706.739947,W,70.8,23.7,240410,,,A*71
$GPRMC,170719.9,A,3251.561461,N,11706.712831,W,68.7,23.4,240410,,,A*78
$GPRMC,170722.9,A,3251.615588,N,11706.689550,W,68.4,20.3,240410,,,A*78
$GPRMC,170725.9,A,3251.670265,N,11706.666606,W,69.5,19.3,240410,,,A*73
$GPRMC,170728.9,A,3251.723167,N,11706.643461,W,68.3,19.9,240410,,,A*71
$GPRMC,170731.9,A,3251.776974,N,11706.620733,W,70.3,20.5,240410,,,A*7D
$GPRMC,170734.9,A,3251.833195,N,11706.594137,W,73.0,22.1,240410,,,A*79
$GPRMC,170737.9,A,3251.890881,N,11706.566784,W,74.0,22.8,240410,,,A*72
$GPRMC,170740.9,A,3251.947519,N,11706.535952,W,73.8,24.4,240410,,,A*73
$GPRMC,170743.9,A,3252.000220,N,11706.508505,W,71.0,22.3,240410,,,A*7F
$GPRMC,170746.9,A,3252.056628,N,11706.483997,W,71.8,19.0,240410,,,A*73
$GPRMC,170749.9,A,3252.115351,N,11706.464166,W,72.1,15.4,240410,,,A*7C
$GPRMC,170752.9,A,3252.173164,N,11706.447938,W,71.3,13.2,240410,,,A*71
$GPRMC,170755.9,A,3252.235046,N,11706.435230,W,74.7,8.7,240410,,,A*4E
$GPRMC,170758.9,A,3252.295421,N,11706.427129,W,73.7,6.0,240410,,,A*4A
$GPRMC,170801.9,A,3252.358749,N,11706.422358,W,75.1,2.6,240410,,,A*47
$GPRMC,170804.9,A,3252.420102,N,11706.422070,W,74.7,360.0,240410,,,A*4C
$GPRMC,170807.9,A,3252.479190,N,11706.424838,W,71.3,357.9,240410,,,A*46
$GPRMC,170810.9,A,3252.538290,N,11706.430562,W,71.3,354.5,240410,,,A*4F
$GPRMC,170813.9,A,3252.597773,N,11706.435263,W,71.2,355.3,240410,,,A*44
$GPRMC,170816.9,A,3252.658868,N,11706.445609,W,74.4,350.3,240410,,,A*4D
$GPRMC,170819.9,A,3252.722370,N,11706.464487,W,76.6,346.3,240410,,,A*4C
$GPRMC,170822.9,A,3252.784133,N,11706.484116,W,75.1,344.5,240410,,,A*4E
$GPRMC,170825.9,A,3252.843785,N,11706.506276,W,75.5,341.6,240410,,,A*4A
$GPRMC,170828.9,A,3252.905167,N,11706.532862,W,77.3,338.7,240410,,,A*4D
$GPRMC,170831.9,A,3252.964393,N,11706.561321,W,76.7,336.5,240410,,,A*48
$GPRMC,170834.9,A,3253.023576,N,11706.594605,W,77.9,333.9,240410,,,A*44
$GPRMC,170837.9,A,3253.080755,N,11706.629079,W,76.5,333.2,240410,,,A*43
$GPRMC,170840.9,A,3253.137499,N,11706.663635,W,76.4,333.1,240410,,,A*4F
$GPRMC,170843.9,A,3253.193802,N,11706.697787,W,76.1,332.7,240410,,,A*4D
$GPRMC,170846.9,A,3253.249654,N,11706.732072,W,74.3,332.8,240410,,,A*4D
$GPRMC,170849.9,A,3253.305492,N,11706.765023,W,74.5,333.9,240410,,,A*43
$GPRMC,170852.9,A,3253.361915,N,11706.797239,W,75.6,335.1,240410,,,A*41
$GPRMC,170855.9,A,3253.420177,N,11706.827459,W,77.2,337.4,240410,,,A*4D
$GPRMC,170858.9,A,3253.481505,N,11706.856733,W,77.4,339.2,240410,,,A*4D
$GPRMC,170901.9,A,3253.541592,N,11706.880471,W,76.6,341.8,240410,,,A*4B
$GPRMC,170904.9,A,3253.603719,N,11706.903370,W,77.5,343.5,240410,,,A*4B
$GPRMC,170907.9,A,3253.664222,N,11706.924000,W,76.0,342.3,240410,,,A*46
$GPRMC,170910.9,A,3253.723431,N,11706.941800,W,72.5,346.7,240410,,,A*4C
$GPRMC,170913.9,A,3253.783799,N,11706.952449,W,74.2,352.4,240410,,,A*40
$GPRMC,170916.9,A,3253.845122,N,11706.962614,W,75.7,352.9,240410,,,A*46
$GPRMC,170919.9,A,3253.908147,N,11706.969366,W,77.0,355.6,240410,,,A*44
$GPRMC,170922.9,A,3253.973274,N,11706.972979,W,77.8,358.4,240410,,,A*4A
$GPRMC,170925.9,A,3254.039563,N,11706.972252,W,78.8,0.2,240410,,,A*49
$GPRMC,170928.9,A,3254.104386,N,11706.972962,W,77.9,359.6,240410,,,A*4B
$GPRMC,170931.9,A,3254.166889,N,11706.971668,W,76.5,0.7,240410,,,A*46
$GPRMC,170935.2,A,3254.237652,N,11706.972594,W,77.4,0.2,240410,,,A*40
$GPRMC,170938.9,A,3254.319893,N,11706.973629,W,79.6,358.4,240410,,,A*48
$GPRMC,170941.9,A,3254.388024,N,11706.974615,W,81.0,359.4,240410,,,A*42
$GPRMC,170944.9,A,3254.452926,N,11706.976198,W,79.1,359.4,240410,,,A*4A
$GPRMC,170947.9,A,3254.520517,N,11706.975277,W,80.0,0.5,240410,,,A*4B
$GPRMC,170950.9,A,3254.588437,N,11706.975567,W,79.9,359.7,240410,,,A*48
$GPRMC,170953.9,A,3254.650444,N,11706.975939,W,74.5,359.8,240410,,,A*40
$GPRMC,170956.9,A,3254.711698,N,11706.974822,W,74.6,0.6,240410,,,A*4A
$GPRMC,170959.9,A,3254.772202,N,11706.973649,W,73.3,2.1,240410,,,A*44
$GPRMC,171002.9,A,3254.832696,N,11706.970528,W,73.3,2.5,240410,,,A*43
$GPRMC,171005.9,A,3254.896577,N,11706.964930,W,76.4,3.8,240410,,,A*48
$GPRMC,171008.9,A,3254.962113,N,11706.961567,W,76.6,3.7,240410,,,A*4F
$GPRMC,171011.9,A,3255.024554,N,11706.955280,W,76.4,4.7,240410,,,A*46
$GPRMC,171014.9,A,3255.088297,N,11706.948041,W,79.1,5.8,240410,,,A*4A
$GPRMC,171017.9,A,3255.153395,N,11706.937940,W,79.4,7.0,240410,,,A*42
$GPRMC,171020.9,A,3255.219325,N,11706.928982,W,78.5,7.0,240410,,,A*40
$GPRMC,171023.9,A,3255.282326,N,11706.918595,W,75.9,8.2,240410,,,A*47
$GPRMC,171026.9,A,3255.344836,N,11706.907333,W,75.1,8.5,240410,,,A*48
$GPRMC,171029.9,A,3255.404899,N,11706.897303,W,73.1,8.5,240410,,,A*4C
$GPRMC,171032.9,A,3255.464071,N,11706.886757,W,72.4,9.1,240410,,,A*4A
$GPRMC,171035.9,A,3255.521148,N,11706.871355,W,71.7,11.5,240410,,,A*75
$GPRMC,171038.9,A,3255.582361,N,11706.856030,W,73.7,12.2,240410,,,A*7B
$GPRMC,171041.9,A,3255.642258,N,11706.838092,W,73.4,13.7,240410,,,A*76
$GPRMC,171044.9,A,3255.701125,N,11706.822557,W,72.1,13.6,240410,,,A*7E
$GPRMC,171047.9,A,3255.757504,N,11706.806061,W,70.6,14.5,240410,,,A*7E
$GPRMC,171050.9,A,3255.813474,N,11706.787508,W,70.3,15.2,240410,,,A*7E
$GPRMC,171053.9,A,3255.869250,N,11706.771020,W,68.9,14.3,240410,,,A*75
$GPRMC,171056.9,A,3255.923495,N,11706.754754,W,64.9,14.5,240410,,,A*79
$GPRMC,171059.9,A,3255.976201,N,11706.740986,W,63.2,13.3,240410,,,A*74
$GPRMC,171103.2,A,3256.033796,N,11706.723005,W,66.0,14.5,240410,,,A*70
$GPRMC,171106.2,A,3256.088622,N,11706.705756,W,70.3,14.3,240410,,,A*7C
$GPRMC,171109.2,A,3256.144520,N,11706.688295,W,68.8,14.6,240410,,,A*7A
$GPRMC,171112.9,A,3256.212617,N,11706.666991,W,69.0,14.5,240410,,,A*79
$GPRMC,171115.9,A,3256.265054,N,11706.647873,W,65.2,15.5,240410,,,A*7E
$GPRMC,171118.9,A,3256.316525,N,11706.630942,W,63.5,14.7,240410,,,A*74
$GPRMC,171121.9,A,3256.367949,N,11706.614702,W,63.2,14.8,240410,,,A*7A
$GPRMC,171124.9,A,3256.419420,N,11706.604056,W,62.7,12.3,240410,,,A*7D
$GPRMC,171127.9,A,3256.475585,N,11706.585196,W,68.4,15.5,240410,,,A*75
$GPRMC,171130.9,A,3256.531229,N,11706.563327,W,68.7,18.9,240410,,,A*71
$GPRMC,171133.9,A,3256.585267,N,11706.541035,W,68.2,20.7,240410,,,A*77
$GPRMC,171136.9,A,3256.637518,N,11706.514967,W,69.5,23.4,240410,,,A*7F
$GPRMC,171139.9,A,3256.689789,N,11706.483545,W,70.7,26.9,240410,,,A*7E
$GPRMC,171142.9,A,3256.741666,N,11706.449141,W,70.5,29.7,240410,,,A*72
$GPRMC,171145.9,A,3256.792000,N,11706.416295,W,68.0,30.5,240410,,,A*7B
$GPRMC,171148.9,A,3256.841444,N,11706.378691,W,69.8,31.5,240410,,,A*74
$GPRMC,171151.9,A,3256.889711,N,11706.346997,W,68.6,30.4,240410,,,A*70
$GPRMC,171154.2,A,3256.928748,N,11706.320483,W,67.8,30.3,240410,,,A*76
$GPRMC,171157.9,A,3256.989058,N,11706.281948,W,67.1,28.6,240410,,,A*76
$GPRMC,171200.9,A,3257.038584,N,11706.247811,W,69.4,30.6,240410,,,A*74
$GPRMC,171203.9,A,3257.088513,N,11706.213976,W,70.2,29.2,240410,,,A*71
$GPRMC,171206.9,A,3257.140574,N,11706.179758,W,71.7,29.1,240410,,,A*7A
$GPRMC,171209.9,A,3257.194654,N,11706.143205,W,73.5,28.8,240410,,,A*71
$GPRMC,171212.9,A,3257.248137,N,11706.109388,W,71.8,28.0,240410,,,A*76
$GPRMC,171215.9,A,3257.301771,N,11706.077789,W,70.5,27.1,240410,,,A*76
$GPRMC,171218.9,A,3257.351618,N,11706.045961,W,67.5,27.5,240410,,,A*7B
$GPRMC,171221.9,A,3257.399675,N,11706.013544,W,67.0,28.5,240410,,,A*7C
$GPRMC,171224.9,A,3257.445634,N,11705.984066,W,65.7,27.7,240410,,,A*73
$GPRMC,171227.9,A,3257.497375,N,11705.954594,W,68.6,26.3,240410,,,A*73
$GPRMC,171230.9,A,3257.547838,N,11705.923756,W,67.1,27.4,240410,,,A*79
$GPRMC,171233.9,A,3257.593735,N,11705.894742,W,62.8,29.2,240410,,,A*7D
$GPRMC,171236.9,A,3257.640293,N,11705.864748,W,62.9,29.6,240410,,,A*7C
$GPRMC,171239.9,A,3257.682227,N,11705.833356,W,59.5,31.0,240410,,,A*70
$GPRMC,171242.9,A,3257.727036,N,11705.803376,W,60.1,29.5,240410,,,A*73
$GPRMC,171245.2,A,3257.759353,N,11705.781323,W,58.2,30.1,240410,,,A*77
$GPRMC,171248.9,A,3257.813891,N,11705.746058,W,60.4,28.8,240410,,,A*7C
$GPRMC,171251.9,A,3257.857661,N,11705.718318,W,61.5,29.3,240410,,,A*73
$GPRMC,171255.2,A,3257.911387,N,11705.683893,W,66.4,27.8,240410,,,A*7A
$GPRMC,171258.9,A,3257.972248,N,11705.644014,W,68.5,28.5,240410,,,A*7A
$GPRMC,171301.9,A,3258.024010,N,11705.609141,W,71.5,28.2,240410,,,A*7A
$GPRMC,171304.9,A,3258.079812,N,11705.575136,W,75.0,27.6,240410,,,A*7F
$GPRMC,171307.9,A,3258.132412,N,11705.540916,W,71.9,28.6,240410,,,A*70
$GPRMC,171310.9,A,3258.185445,N,11705.504989,W,74.0,29.7,240410,,,A*72
$GPRMC,171313.9,A,3258.239179,N,11705.471257,W,74.1,28.1,240410,,,A*72
$GPRMC,171316.9,A,3258.292489,N,11705.438602,W,68.3,28.2,240410,,,A*79
$GPRMC,171319.9,A,3258.334827,N,11705.409893,W,59.8,28.1,240410,,,A*7D
$GPRMC,171322.9,A,3258.375386,N,11705.382991,W,56.6,27.6,240410,,,A*7E
$GPRMC,171325.9,A,3258.414359,N,11705.358456,W,55.2,28.4,240410,,,A*70
$GPRMC,171328.9,A,3258.457037,N,11705.335398,W,57.0,25.9,240410,,,A*7F
$GPRMC,171331.9,A,3258.495132,N,11705.310687,W,52.0,26.9,240410,,,A*77
$GPRMC,171334.9,A,3258.529263,N,11705.289723,W,45.2,27.5,240410,,,A*74
$GPRMC,171337.9,A,3258.560698,N,11705.269101,W,42.0,27.5,240410,,,A*77
$GPRMC,171340.9,A,3258.592403,N,11705.246718,W,44.5,28.4,240410,,,A*74
$GPRMC,171343.9,A,3258.624270,N,11705.226036,W,46.0,29.5,240410,,,A*71
$GPRMC,171346.9,A,3258.654180,N,11705.196445,W,48.6,39.8,240410,,,A*73
$GPRMC,171349.9,A,3258.680428,N,11705.165679,W,41.8,44.1,240410,,,A*77
$GPRMC,171352.9,A,3258.699326,N,11705.141600,W,30.4,45.3,240410,,,A*7D
$GPRMC,171355.9,A,3258.715566,N,11705.127398,W,20.8,29.7,240410,,,A*7A
$GPRMC,171358.9,A,3258.726417,N,11705.126175,W,12.0,353.6,240410,,,A*46
$GPRMC,171401.9,A,3258.733722,N,11705.131958,W,12.9,301.8,240410,,,A*4D
$GPRMC,171404.9,A,3258.733824,N,11705.154119,W,24.2,268.6,240410,,,A*41
$GPRMC,171407.9,A,3258.730933,N,11705.183608,W,31.1,266.1,240410,,,A*45
$GPRMC,171410.9,A,3258.729445,N,11705.214621,W,30.7,266.8,240410,,,A*4F
$GPRMC,171413.9,A,3258.728063,N,11705.237769,W,17.8,272.2,240410,,,A*44
$GPRMC,171510.9,A,3258.708694,N,11705.256343,W,23.8,202.3,240410,,,A*40
$GPRMC,171513.9,A,3258.671474,N,11705.265472,W,43.3,191.3,240410,,,A*41
$GPRMC,171516.9,A,3258.631509,N,11705.278583,W,50.4,196.7,240410,,,A*4E
$GPRMC,171519.9,A,3258.587839,N,11705.300586,W,57.9,205.5,240410,,,A*4B
$GPRMC,171522.9,A,3258.543385,N,11705.328312,W,58.5,207.8,240410,,,A*4A
$GPRMC,171525.9,A,3258.500080,N,11705.353968,W,56.5,208.2,240410,,,A*4C
$GPRMC,171528.9,A,3258.458215,N,11705.382661,W,58.4,208.3,240410,,,A*47
$GPRMC,171531.9,A,3258.414189,N,11705.409974,W,61.8,209.1,240410,,,A*4B
$GPRMC,171534.9,A,3258.367995,N,11705.440665,W,65.3,209.4,240410,,,A*40
$GPRMC,171537.9,A,3258.316917,N,11705.472721,W,70.5,208.5,240410,,,A*4D
$GPRMC,171540.9,A,3258.261349,N,11705.508026,W,74.3,208.8,240410,,,A*4E
$GPRMC,171543.9,A,3258.204161,N,11705.543605,W,76.4,208.7,240410,,,A*44
$GPRMC,171546.9,A,3258.149102,N,11705.581154,W,75.9,208.8,240410,,,A*42
$GPRMC,171549.9,A,3258.095124,N,11705.616419,W,75.1,209.9,240410,,,A*40
$GPRMC,171552.9,A,3258.040158,N,11705.653447,W,73.3,210.2,240410,,,A*44
$GPRMC,171555.9,A,3257.993193,N,11705.694307,W,71.5,218.2,240410,,,A*48
$GPRMC,171558.9,A,3257.956630,N,11705.749405,W,70.8,231.5,240410,,,A*46
$GPRMC,171601.9,A,3257.920883,N,11705.804298,W,70.1,231.8,240410,,,A*4E
$GPRMC,171604.9,A,3257.882691,N,11705.855569,W,70.4,226.6,240410,,,A*4F
$GPRMC,171607.9,A,3257.843720,N,11705.910584,W,72.7,232.1,240410,,,A*4A
$GPRMC,171610.9,A,3257.810459,N,11705.973977,W,76.1,240.4,240410,,,A*40
$GPRMC,171613.9,A,3257.781596,N,11706.042975,W,77.1,244.9,240410,,,A*44
$GPRMC,171616.9,A,3257.756243,N,11706.112250,W,77.4,247.0,240410,,,A*43
$GPRMC,171619.9,A,3257.733817,N,11706.186724,W,78.5,248.8,240410,,,A*46
$GPRMC,171622.9,A,3257.709227,N,11706.258504,W,78.2,247.8,240410,,,A*46
$GPRMC,171625.9,A,3257.684253,N,11706.328694,W,77.1,247.8,240410,,,A*46
$GPRMC,171628.9,A,3257.661355,N,11706.400443,W,76.9,248.6,240410,,,A*4A
$GPRMC,171631.9,A,3257.639121,N,11706.472512,W,77.8,248.7,240410,,,A*4F
$GPRMC,171634.9,A,3257.614000,N,11706.543266,W,79.5,248.2,240410,,,A*46
$GPRMC,171637.9,A,3257.589472,N,11706.617322,W,81.3,248.5,240410,,,A*46
$GPRMC,171640.9,A,3257.565169,N,11706.694500,W,82.4,248.7,240410,,,A*40
$GPRMC,171643.9,A,3257.539338,N,11706.769646,W,81.5,248.5,240410,,,A*4E
$GPRMC,171646.9,A,3257.513833,N,11706.843204,W,81.0,248.0,240410,,,A*46
$GPRMC,171649.9,A,3257.489870,N,11706.918253,W,80.8,248.4,240410,,,A*4C
$GPRMC,171652.9,A,3257.465227,N,11706.991389,W,80.9,247.8,240410,,,A*49
$GPRMC,171655.9,A,3257.439708,N,11707.067297,W,81.4,248.2,240410,,,A*49
$GPRMC,171658.9,A,3257.415593,N,11707.142907,W,80.4,248.5,240410,,,A*48
$GPRMC,171701.9,A,3257.391129,N,11707.214798,W,77.8,248.3,240410,,,A*41
$GPRMC,171704.9,A,3257.368732,N,11707.284915,W,74.7,249.1,240410,,,A*43
$GPRMC,171707.9,A,3257.346645,N,11707.352063,W,71.4,249.2,240410,,,A*4A
$GPRMC,171710.9,A,3257.327382,N,11707.414916,W,68.0,250.8,240410,,,A*45
$GPRMC,171713.9,A,3257.309230,N,11707.478388,W,66.1,251.8,240410,,,A*4B
$GPRMC,171716.9,A,3257.293983,N,11707.537048,W,64.2,254.4,240410,,,A*42
$GPRMC,171719.9,A,3257.279620,N,11707.601142,W,67.9,255.6,240410,,,A*49
$GPRMC,171722.9,A,3257.267697,N,11707.667302,W,66.9,257.3,240410,,,A*42
$GPRMC,171725.9,A,3257.254152,N,11707.734100,W,69.5,257.9,240410,,,A*45
$GPRMC,171728.9,A,3257.243557,N,11707.802742,W,71.2,260.6,240410,,,A*40
$GPRMC,171731.0,A,3257.237820,N,11707.853900,W,71.9,262.3,240410,,,A*4F
$GPRMC,171734.9,A,3257.226621,N,11707.945058,W,71.0,262.1,240410,,,A*45
$GPRMC,171737.9,A,3257.219655,N,11708.014393,W,69.9,263.5,240410,,,A*4A
$GPRMC,171740.9,A,3257.219274,N,11708.086171,W,72.5,267.8,240410,,,A*47
$GPRMC,171743.9,A,3257.216465,N,11708.161085,W,76.7,267.6,240410,,,A*47
$GPRMC,171746.9,A,3257.211198,N,11708.238738,W,79.7,266.9,240410,,,A*4D
$GPRMC,171749.9,A,3257.207032,N,11708.318523,W,80.4,267.7,240410,,,A*45
$GPRMC,171752.9,A,3257.208397,N,11708.400227,W,82.0,270.6,240410,,,A*40
$GPRMC,171755.9,A,3257.212914,N,11708.481798,W,81.1,272.8,240410,,,A*4B
$GPRMC,171758.9,A,3257.220469,N,11708.561570,W,80.3,276.5,240410,,,A*41
$GPRMC,171801.9,A,3257.232047,N,11708.641572,W,80.7,280.6,240410,,,A*44
$GPRMC,171804.9,A,3257.250982,N,11708.718030,W,79.7,287.4,240410,,,A*48
$GPRMC,171807.9,A,3257.280962,N,11708.792886,W,81.9,293.0,240410,,,A*47
$GPRMC,171810.9,A,3257.317083,N,11708.857985,W,79.7,301.5,240410,,,A*4A
$GPRMC,171813.9,A,3257.357043,N,11708.925436,W,79.8,306.7,240410,,,A*4A
$GPRMC,171816.9,A,3257.396511,N,11708.977516,W,67.3,314.9,240410,,,A*4D
$GPRMC,171819.9,A,3257.432741,N,11709.014828,W,54.3,321.4,240410,,,A*4A
$GPRMC,171822.9,A,3257.467841,N,11709.042650,W,49.6,329.0,240410,,,A*4A
$GPRMC,171825.9,A,3257.503079,N,11709.058987,W,43.8,340.4,240410,,,A*4C
$GPRMC,171828.9,A,3257.537681,N,11709.069954,W,42.7,345.7,240410,,,A*43
$GPRMC,171831.9,A,3257.569357,N,11709.083204,W,40.5,335.4,240410,,,A*40
$GPRMC,171834.9,A,3257.593616,N,11709.108858,W,39.8,310.4,240410,,,A*45
$GPRMC,171837.9,A,3257.604120,N,11709.140486,W,31.7,290.4,240410,,,A*44
$GPRMC,171840.9,A,3257.609765,N,11709.160895,W,18.4,286.9,240410,,,A*40
$GPRMC,171843.9,A,3257.609421,N,11709.170666,W,8.1,275.9,240410,,,A*7B
$GPRMC,171846.9,A,3257.613415,N,11709.174671,W,8.7,315.6,240410,,,A*7E
$GPRMC,171849.9,A,3257.625627,N,11709.179636,W,15.8,352.3,240410,,,A*4C
$GPRMC,171852.9,A,3257.647358,N,11709.176259,W,26.3,10.7,240410,,,A*77
$GPRMC,171855.9,A,3257.670198,N,11709.169352,W,26.5,13.0,240410,,,A*7C
$GPRMC,171858.9,A,3257.684263,N,11709.162867,W,15.7,19.8,240410,,,A*7B
$GPRMC,171901.9,A,3257.689685,N,11709.159772,W,6.2,36.4,240410,,,A*42
$GPRMC,171910.9,A,3257.697678,N,11709.156966,W,11.3,22.6,240410,,,A*7B
$GPRMC,171913.9,A,3257.710163,N,11709.150467,W,17.7,27.6,240410,,,A*76
$GPRMC,171916.9,A,3257.725909,N,11709.136152,W,25.2,35.8,240410,,,A*7B
$GPRMC,171919.9,A,3257.741147,N,11709.119366,W,24.7,40.3,240410,,,A*71
$GPRMC,171922.9,A,3257.754308,N,11709.108595,W,19.8,38.7,240410,,,A*74
$GPRMC,171925.9,A,3257.757239,N,11709.102914,W,6.2,47.5,240410,,,A*42
$GPRMC,171928.9,A,3257.760277,N,11709.097244,W,7.8,64.1,240410,,,A*4C
$GPRMC,171931.9,A,3257.762566,N,11709.091436,W,4.4,51.9,240410,,,A*45
$GPRMC,171955.9,A,3257.767050,N,11709.085287,W,7.9,64.9,240410,,,A*43
$GPRMC,171958.9,A,3257.774500,N,11709.071272,W,18.6,58.5,240410,,,A*7F
$GPRMC,172001.9,A,3257.784517,N,11709.051149,W,24.6,60.6,240410,,,A*7E
$GPRMC,172004.9,A,3257.795263,N,11709.026097,W,31.6,62.0,240410,,,A*7D
$GPRMC,172007.9,A,3257.811519,N,11708.996407,W,35.7,58.5,240410,,,A*70
$GPRMC,172010.9,A,3257.828060,N,11708.966467,W,36.9,57.1,240410,,,A*78
$GPRMC,172013.9,A,3257.848517,N,11708.936169,W,39.1,51.3,240410,,,A*75
$GPRMC,172016.9,A,3257.871913,N,11708.907501,W,38.8,47.6,240410,,,A*70
$GPRMC,172019.9,A,3257.891106,N,11708.883218,W,32.1,46.8,240410,,,A*73
$GPRMC,172022.9,A,3257.910302,N,11708.862072,W,30.5,41.9,240410,,,A*74
$GPRMC,172025.9,A,3257.929433,N,11708.843249,W,31.5,33.0,240410,,,A*78
$GPRMC,172028.9,A,3257.955092,N,11708.827233,W,33.6,27.2,240410,,,A*78
$GPRMC,172031.9,A,3257.974843,N,11708.816373,W,20.1,25.0,240410,,,A*75
$GPRMC,172034.9,A,3257.989294,N,11708.810405,W,18.2,19.6,240410,,,A*73
$GPRMC,172037.9,A,3257.998612,N,11708.813477,W,12.6,317.9,240410,,,A*40
$GPRMC,172040.9,A,3258.003669,N,11708.824758,W,12.1,296.2,240410,,,A*46
$GPRMC,172043.9,A,3258.007188,N,11708.834515,W,11.1,298.4,240410,,,A*48
$GPRMC,172046.9,A,3258.015241,N,11708.848095,W,15.8,299.1,240410,,,A*47
$GPRMC,172049.9,A,3258.018452,N,11708.861632,W,14.3,282.6,240410,,,A*46
$GPRMC,172052.9,A,3258.015689,N,11708.871969,W,10.6,237.3,240410,,,A*4F
