NMEA Sentence Code,UTC Time,Status,Latitude,Latitude Direction,Longitude,Longitude Direction,Speed (knots),Track Angle (degrees true),Date,MagneticVariation,Magnetic Variation Direction,[FAA Mode]-Optional,Checksum
$GPRMC,034849.000,A,3340.0614,N,11539.8713,W,60.56,264.75,120410,,,A*4A
$GPRMC,034852.000,A,3340.0569,N,11539.9316,W,60.51,265.11,120410,,,A*4D
$GPRMC,034855.000,A,3340.0525,N,11539.9918,W,60.30,265.24,120410,,,A*47
$GPRMC,034858.000,A,3340.0486,N,11540.0521,W,60.36,265.06,120410,,,A*45
$GPRMC,034901.000,A,3340.0441,N,11540.1123,W,60.27,263.83,120410,,,A*4F
$GPRMC,034904.000,A,3340.0389,N,11540.1725,W,60.38,264.40,120410,,,A*4F
$GPRMC,034907.000,A,3340.0343,N,11540.2326,W,60.42,264.84,120410,,,A*4B
$GPRMC,034910.000,A,3340.0298,N,11540.2926,W,60.45,264.91,120410,,,A*43
$GPRMC,034913.000,A,3340.0254,N,11540.3528,W,60.24,264.88,120410,,,A*4C
$GPRMC,034916.000,A,3340.0216,N,11540.4129,W,60.41,265.32,120410,,,A*4E
$GPRMC,034919.000,A,3340.0170,N,11540.4731,W,60.46,264.42,120410,,,A*4C
$GPRMC,034922.000,A,3340.0126,N,11540.5332,W,60.44,265.67,120410,,,A*45
$GPRMC,034925.000,A,3340.0089,N,11540.5935,W,60.32,266.55,120410,,,A*48
$GPRMC,034928.000,A,3340.0052,N,11540.6537,W,60.35,265.44,120410,,,A*4A
$GPRMC,034931.000,A,3340.0007,N,11540.7140,W,60.50,264.86,120410,,,A*4B
$GPRMC,034934.000,A,3339.9963,N,11540.7743,W,60.47,265.04,120410,,,A*4A
$GPRMC,034937.000,A,3339.9921,N,11540.8345,W,60.50,265.12,120410,,,A*43
$GPRMC,034940.000,A,3339.9880,N,11540.8948,W,60.44,265.20,120410,,,A*4A
$GPRMC,034943.000,A,3339.9833,N,11540.9550,W,60.51,264.28,120410,,,A*48
$GPRMC,034946.000,A,3339.9783,N,11541.0152,W,60.55,264.25,120410,,,A*4E
$GPRMC,034949.000,A,3339.9720,N,11541.0752,W,60.52,261.70,120410,,,A*4C
$GPRMC,034952.000,A,3339.9636,N,11541.1344,W,60.60,259.80,120410,,,A*47
$GPRMC,034955.000,A,3339.9528,N,11541.1936,W,60.85,257.73,120410,,,A*4A
$GPRMC,034958.000,A,3339.9421,N,11541.2527,W,60.83,258.57,120410,,,A*4F
$GPRMC,035001.000,A,3339.9321,N,11541.3119,W,60.58,258.68,120410,,,A*4E
$GPRMC,035004.000,A,3339.9224,N,11541.3708,W,60.38,258.99,120410,,,A*41
$GPRMC,035007.000,A,3339.9129,N,11541.4299,W,60.49,259.21,120410,,,A*42
$GPRMC,035010.000,A,3339.9034,N,11541.4892,W,60.62,259.60,120410,,,A*44
$GPRMC,035013.000,A,3339.8951,N,11541.5487,W,60.53,260.78,120410,,,A*44
$GPRMC,035016.000,A,3339.8862,N,11541.6081,W,60.49,259.22,120410,,,A*4F
$GPRMC,035019.000,A,3339.8765,N,11541.6674,W,60.32,258.84,120410,,,A*45
$GPRMC,035022.000,A,3339.8669,N,11541.7265,W,60.42,259.01,120410,,,A*4E
$GPRMC,035025.000,A,3339.8575,N,11541.7860,W,60.47,259.18,120410,,,A*45
$GPRMC,035028.000,A,3339.8478,N,11541.8452,W,60.56,258.93,120410,,,A*44
$GPRMC,035031.000,A,3339.8383,N,11541.9045,W,60.41,259.39,120410,,,A*4B
$GPRMC,035034.000,A,3339.8287,N,11541.9638,W,60.37,258.98,120410,,,A*4C
$GPRMC,035037.000,A,3339.8191,N,11542.0232,W,60.65,259.13,120410,,,A*4A
$GPRMC,035040.000,A,3339.8095,N,11542.0826,W,60.59,259.16,120410,,,A*4A
$GPRMC,035043.000,A,3339.8003,N,11542.1408,W,57.75,259.46,120410,,,A*48
$GPRMC,035046.000,A,3339.7913,N,11542.1956,W,55.90,258.12,120410,,,A*45
$GPRMC,035049.000,A,3339.7810,N,11542.2518,W,58.90,257.64,120410,,,A*4E
$GPRMC,035052.000,A,3339.7711,N,11542.3089,W,57.24,258.73,120410,,,A*4F
$GPRMC,035055.000,A,3339.7615,N,11542.3664,W,59.98,258.74,120410,,,A*46
$GPRMC,035058.000,A,3339.7519,N,11542.4244,W,59.28,258.69,120410,,,A*42
$GPRMC,035101.000,A,3339.7424,N,11542.4834,W,60.52,259.04,120410,,,A*40
$GPRMC,035104.000,A,3339.7329,N,11542.5432,W,60.98,259.32,120410,,,A*47
$GPRMC,035107.000,A,3339.7234,N,11542.6031,W,60.84,259.20,120410,,,A*43
$GPRMC,035110.000,A,3339.7137,N,11542.6628,W,60.82,258.97,120410,,,A*40
$GPRMC,035113.000,A,3339.7048,N,11542.7225,W,60.66,260.54,120410,,,A*4C
$GPRMC,035116.000,A,3339.6962,N,11542.7823,W,60.83,259.55,120410,,,A*45
$GPRMC,035119.000,A,3339.6867,N,11542.8419,W,60.53,259.09,120410,,,A*40
$GPRMC,035122.000,A,3339.6770,N,11542.9013,W,60.71,258.88,120410,,,A*46
$GPRMC,035125.000,A,3339.6674,N,11542.9608,W,60.49,258.95,120410,,,A*4F
$GPRMC,035128.000,A,3339.6575,N,11543.0202,W,60.73,259.08,120410,,,A*4A
$GPRMC,035131.000,A,3339.6481,N,11543.0797,W,60.78,259.23,120410,,,A*43
$GPRMC,035134.000,A,3339.6388,N,11543.1391,W,60.49,259.69,120410,,,A*47
$GPRMC,035137.000,A,3339.6301,N,11543.1988,W,60.42,260.46,120410,,,A*4B
$GPRMC,035140.000,A,3339.6229,N,11543.2588,W,60.61,263.08,120410,,,A*47
$GPRMC,035143.000,A,3339.6178,N,11543.3188,W,60.61,264.74,120410,,,A*4A
$GPRMC,035146.000,A,3339.6134,N,11543.3791,W,60.66,265.85,120410,,,A*41
$GPRMC,035149.000,A,3339.6110,N,11543.4397,W,60.57,267.43,120410,,,A*47
$GPRMC,035152.000,A,3339.6100,N,11543.5005,W,60.72,269.71,120410,,,A*4D
$GPRMC,035155.000,A,3339.6104,N,11543.5613,W,60.83,270.38,120410,,,A*44
$GPRMC,035158.000,A,3339.6107,N,11543.6220,W,60.65,270.03,120410,,,A*4D
$GPRMC,035201.000,A,3339.6111,N,11543.6827,W,60.62,270.71,120410,,,A*4A
$GPRMC,035204.000,A,3339.6118,N,11543.7434,W,60.69,270.56,120410,,,A*47
$GPRMC,035207.000,A,3339.6119,N,11543.8041,W,60.66,269.85,120410,,,A*45
$GPRMC,035210.000,A,3339.6119,N,11543.8647,W,60.65,270.53,120410,,,A*43
$GPRMC,035213.000,A,3339.6125,N,11543.9252,W,60.61,270.45,120410,,,A*4D
$GPRMC,035216.000,A,3339.6128,N,11543.9859,W,60.78,270.36,120410,,,A*48
$GPRMC,035219.000,A,3339.6129,N,11544.0465,W,60.78,270.19,120410,,,A*46
$GPRMC,035222.000,A,3339.6131,N,11544.1072,W,60.77,270.43,120410,,,A*44
$GPRMC,035225.000,A,3339.6133,N,11544.1677,W,60.53,270.46,120410,,,A*41
$GPRMC,035228.000,A,3339.6135,N,11544.2281,W,60.45,270.36,120410,,,A*44
$GPRMC,035231.000,A,3339.6136,N,11544.2885,W,60.68,270.42,120410,,,A*4D
$GPRMC,035234.000,A,3339.6139,N,11544.3490,W,60.69,270.24,120410,,,A*4F
$GPRMC,035237.000,A,3339.6139,N,11544.4097,W,60.85,270.22,120410,,,A*4C
$GPRMC,035240.000,A,3339.6141,N,11544.4704,W,60.77,270.25,120410,,,A*44
$GPRMC,035243.000,A,3339.6142,N,11544.5310,W,60.57,270.51,120410,,,A*45
$GPRMC,035246.000,A,3339.6147,N,11544.5916,W,60.84,270.37,120410,,,A*47
$GPRMC,035249.000,A,3339.6148,N,11544.6522,W,60.68,270.20,120410,,,A*4B
$GPRMC,035252.000,A,3339.6144,N,11544.7128,W,60.73,268.96,120410,,,A*4C
$GPRMC,035255.000,A,3339.6135,N,11544.7734,W,60.76,269.56,120410,,,A*4E
$GPRMC,035258.000,A,3339.6136,N,11544.8339,W,60.59,270.55,120410,,,A*40
$GPRMC,035301.000,A,3339.6138,N,11544.8945,W,60.76,270.11,120410,,,A*4F
$GPRMC,035304.000,A,3339.6141,N,11544.9552,W,60.81,270.34,120410,,,A*40
$GPRMC,035307.000,A,3339.6143,N,11545.0159,W,60.84,270.43,120410,,,A*43
$GPRMC,035310.000,A,3339.6148,N,11545.0765,W,60.62,270.62,120410,,,A*4C
$GPRMC,035313.000,A,3339.6150,N,11545.1372,W,60.70,270.10,120410,,,A*43
$GPRMC,035316.000,A,3339.6150,N,11545.1976,W,60.68,270.48,120410,,,A*4C
$GPRMC,035319.000,A,3339.6153,N,11545.2583,W,60.59,270.18,120410,,,A*42
$GPRMC,035322.000,A,3339.6160,N,11545.3187,W,60.80,270.92,120410,,,A*4D
$GPRMC,035325.000,A,3339.6163,N,11545.3794,W,60.81,270.58,120410,,,A*4A
$GPRMC,035328.000,A,3339.6164,N,11545.4400,W,60.71,270.09,120410,,,A*42
$GPRMC,035331.000,A,3339.6170,N,11545.5006,W,60.65,271.49,120410,,,A*4C
$GPRMC,035334.000,A,3339.6182,N,11545.5611,W,60.68,271.37,120410,,,A*40
$GPRMC,035337.000,A,3339.6187,N,11545.6217,W,60.66,270.57,120410,,,A*4E
$GPRMC,035340.000,A,3339.6186,N,11545.6823,W,60.70,269.94,120410,,,A*42
$GPRMC,035343.000,A,3339.6183,N,11545.7429,W,60.71,270.01,120410,,,A*46
$GPRMC,035346.000,A,3339.6187,N,11545.8034,W,60.67,270.95,120410,,,A*4A
$GPRMC,035349.000,A,3339.6189,N,11545.8641,W,60.70,270.17,120410,,,A*43
$GPRMC,035352.000,A,3339.6189,N,11545.9246,W,60.59,270.26,120410,,,A*42
$GPRMC,035355.000,A,3339.6191,N,11545.9851,W,60.60,270.71,120410,,,A*48
$GPRMC,035358.000,A,3339.6197,N,11546.0457,W,60.76,270.85,120410,,,A*4F
$GPRMC,035401.000,A,3339.6199,N,11546.1063,W,60.64,270.06,120410,,,A*40
$GPRMC,035404.000,A,3339.6196,N,11546.1669,W,60.59,269.69,120410,,,A*49
$GPRMC,035407.000,A,3339.6196,N,11546.2275,W,60.68,270.49,120410,,,A*48
$GPRMC,035410.000,A,3339.6199,N,11546.2881,W,60.67,270.36,120410,,,A*47
$GPRMC,035413.000,A,3339.6201,N,11546.3487,W,60.57,270.35,120410,,,A*4D
$GPRMC,035416.000,A,3339.6202,N,11546.4093,W,60.75,270.31,120410,,,A*49
$GPRMC,035419.000,A,3339.6202,N,11546.4698,W,60.73,270.07,120410,,,A*48
$GPRMC,035422.000,A,3339.6204,N,11546.5304,W,60.74,270.18,120410,,,A*4E
$GPRMC,035425.000,A,3339.6204,N,11546.5909,W,60.55,270.25,120410,,,A*43
$GPRMC,035428.000,A,3339.6205,N,11546.6514,W,60.63,269.91,120410,,,A*4E
$GPRMC,035431.000,A,3339.6205,N,11546.7119,W,60.65,270.10,120410,,,A*49
$GPRMC,035434.000,A,3339.6209,N,11546.7723,W,60.55,270.62,120410,,,A*49
$GPRMC,035437.000,A,3339.6212,N,11546.8329,W,60.62,270.16,120410,,,A*46
$GPRMC,035440.000,A,3339.6214,N,11546.8935,W,60.77,270.42,120410,,,A*42
$GPRMC,035443.000,A,3339.6218,N,11546.9542,W,60.65,270.64,120410,,,A*47
$GPRMC,035446.000,A,3339.6217,N,11547.0147,W,60.59,269.70,120410,,,A*46
$GPRMC,035449.000,A,3339.6219,N,11547.0753,W,60.69,270.68,120410,,,A*46
$GPRMC,035452.000,A,3339.6221,N,11547.1359,W,60.66,270.04,120410,,,A*4D
$GPRMC,035455.000,A,3339.6221,N,11547.1965,W,60.77,270.08,120410,,,A*43
$GPRMC,035458.000,A,3339.6225,N,11547.2571,W,60.55,270.65,120410,,,A*4B
$GPRMC,035501.000,A,3339.6226,N,11547.3175,W,60.57,269.96,120410,,,A*42
$GPRMC,035504.000,A,3339.6225,N,11547.3779,W,60.48,270.08,120410,,,A*4F
$GPRMC,035507.000,A,3339.6225,N,11547.4383,W,60.55,270.30,120410,,,A*4D
$GPRMC,035510.000,A,3339.6229,N,11547.4988,W,60.49,270.52,120410,,,A*4F
$GPRMC,035513.000,A,3339.6232,N,11547.5592,W,60.58,270.38,120410,,,A*4C
$GPRMC,035516.000,A,3339.6233,N,11547.6197,W,60.45,270.26,120410,,,A*49
$GPRMC,035519.000,A,3339.6236,N,11547.6801,W,60.43,270.21,120410,,,A*44
$GPRMC,035522.000,A,3339.6237,N,11547.7408,W,60.75,269.75,120410,,,A*45
$GPRMC,035525.000,A,3339.6235,N,11547.8013,W,60.71,270.41,120410,,,A*4A
$GPRMC,035528.000,A,3339.6239,N,11547.8619,W,60.67,270.45,120410,,,A*44
$GPRMC,035531.000,A,3339.6241,N,11547.9224,W,60.52,270.43,120410,,,A*48
$GPRMC,035534.000,A,3339.6245,N,11547.9828,W,60.59,270.65,120410,,,A*40
$GPRMC,035537.000,A,3339.6247,N,11548.0434,W,60.79,269.92,120410,,,A*44
$GPRMC,035540.000,A,3339.6245,N,11548.1042,W,60.99,269.93,120410,,,A*4D
$GPRMC,035543.000,A,3339.6246,N,11548.1650,W,60.71,270.39,120410,,,A*46
$GPRMC,035546.000,A,3339.6251,N,11548.2256,W,60.68,270.41,120410,,,A*43
$GPRMC,035549.000,A,3339.6252,N,11548.2860,W,60.49,270.09,120410,,,A*4F
$GPRMC,035552.000,A,3339.6252,N,11548.3464,W,60.42,270.08,120410,,,A*46
$GPRMC,035555.000,A,3339.6255,N,11548.4068,W,60.64,270.65,120410,,,A*46
$GPRMC,035558.000,A,3339.6257,N,11548.4675,W,60.81,270.04,120410,,,A*4F
$GPRMC,035601.000,A,3339.6259,N,11548.5282,W,60.79,270.54,120410,,,A*41
$GPRMC,035604.000,A,3339.6264,N,11548.5889,W,60.78,270.87,120410,,,A*44
$GPRMC,035607.000,A,3339.6277,N,11548.6494,W,60.39,272.65,120410,,,A*4D
$GPRMC,035610.000,A,3339.6311,N,11548.7097,W,60.66,274.43,120410,,,A*44
$GPRMC,035613.000,A,3339.6351,N,11548.7699,W,60.69,274.64,120410,,,A*41
$GPRMC,035616.000,A,3339.6393,N,11548.8302,W,60.58,274.71,120410,,,A*44
$GPRMC,035619.000,A,3339.6432,N,11548.8904,W,60.49,274.24,120410,,,A*4B
$GPRMC,035622.000,A,3339.6472,N,11548.9505,W,60.49,274.75,120410,,,A*4F
$GPRMC,035625.000,A,3339.6512,N,11549.0109,W,60.69,274.50,120410,,,A*4A
$GPRMC,035628.000,A,3339.6552,N,11549.0712,W,60.58,274.77,120410,,,A*48
$GPRMC,035631.000,A,3339.6594,N,11549.1314,W,60.60,274.78,120410,,,A*4D
$GPRMC,035634.000,A,3339.6632,N,11549.1917,W,60.55,273.95,120410,,,A*4C
$GPRMC,035637.000,A,3339.6660,N,11549.2520,W,60.62,273.22,120410,,,A*4B
$GPRMC,035640.000,A,3339.6693,N,11549.3125,W,60.52,274.16,120410,,,A*44
$GPRMC,035643.000,A,3339.6732,N,11549.3729,W,60.63,274.42,120410,,,A*44
$GPRMC,035646.000,A,3339.6771,N,11549.4333,W,60.71,274.59,120410,,,A*47
$GPRMC,035649.000,A,3339.6814,N,11549.4936,W,60.57,275.12,120410,,,A*41
$GPRMC,035652.000,A,3339.6856,N,11549.5540,W,60.72,274.55,120410,,,A*44
$GPRMC,035655.000,A,3339.6894,N,11549.6144,W,60.68,274.61,120410,,,A*42
$GPRMC,035658.000,A,3339.6936,N,11549.6748,W,60.71,274.95,120410,,,A*4F
$GPRMC,035701.000,A,3339.6979,N,11549.7352,W,60.56,275.13,120410,,,A*4D
$GPRMC,035704.000,A,3339.7029,N,11549.7954,W,60.65,275.76,120410,,,A*4A
$GPRMC,035707.000,A,3339.7076,N,11549.8557,W,60.58,274.86,120410,,,A*43
$GPRMC,035710.000,A,3339.7118,N,11549.9161,W,60.77,274.98,120410,,,A*4E
$GPRMC,035713.000,A,3339.7156,N,11549.9765,W,60.53,274.54,120410,,,A*43
$GPRMC,035716.000,A,3339.7198,N,11550.0368,W,60.61,274.94,120410,,,A*41
$GPRMC,035719.000,A,3339.7238,N,11550.0973,W,60.77,274.35,120410,,,A*4B
$GPRMC,035722.000,A,3339.7277,N,11550.1576,W,60.72,275.08,120410,,,A*4A
$GPRMC,035725.000,A,3339.7318,N,11550.2180,W,60.80,274.78,120410,,,A*40
$GPRMC,035728.000,A,3339.7358,N,11550.2785,W,60.75,274.52,120410,,,A*48
$GPRMC,035731.000,A,3339.7398,N,11550.3389,W,60.72,274.66,120410,,,A*45
$GPRMC,035734.000,A,3339.7441,N,11550.3993,W,60.67,274.96,120410,,,A*49
$GPRMC,035737.000,A,3339.7480,N,11550.4596,W,60.45,274.14,120410,,,A*43
$GPRMC,035740.000,A,3339.7519,N,11550.5198,W,60.38,274.88,120410,,,A*46
$GPRMC,035743.000,A,3339.7560,N,11550.5800,W,60.70,274.79,120410,,,A*41
$GPRMC,035746.000,A,3339.7601,N,11550.6405,W,60.76,274.41,120410,,,A*47
$GPRMC,035749.000,A,3339.7639,N,11550.7009,W,60.72,274.66,120410,,,A*4B
$GPRMC,035752.000,A,3339.7680,N,11550.7613,W,60.80,274.96,120410,,,A*4C
$GPRMC,035755.000,A,3339.7720,N,11550.8217,W,60.72,274.31,120410,,,A*4F
$GPRMC,035758.000,A,3339.7759,N,11550.8821,W,60.68,274.81,120410,,,A*43
$GPRMC,035801.000,A,3339.7802,N,11550.9425,W,60.66,275.11,120410,,,A*4E
$GPRMC,035804.000,A,3339.7843,N,11551.0029,W,60.65,274.53,120410,,,A*4A
$GPRMC,035807.000,A,3339.7881,N,11551.0633,W,60.66,274.30,120410,,,A*4C
$GPRMC,035810.000,A,3339.7921,N,11551.1237,W,60.58,274.63,120410,,,A*4B
$GPRMC,035813.000,A,3339.7960,N,11551.1840,W,60.72,274.67,120410,,,A*4B
$GPRMC,035816.000,A,3339.8002,N,11551.2442,W,60.42,275.07,120410,,,A*45
$GPRMC,035819.000,A,3339.8042,N,11551.3043,W,60.40,274.81,120410,,,A*47
$GPRMC,035822.000,A,3339.8084,N,11551.3645,W,60.58,274.69,120410,,,A*4A
$GPRMC,035825.000,A,3339.8122,N,11551.4247,W,60.51,274.60,120410,,,A*41
$GPRMC,035828.000,A,3339.8162,N,11551.4849,W,60.51,274.54,120410,,,A*4B
$GPRMC,035831.000,A,3339.8202,N,11551.5453,W,60.74,274.68,120410,,,A*48
$GPRMC,035834.000,A,3339.8241,N,11551.6058,W,60.92,274.37,120410,,,A*44
$GPRMC,035837.000,A,3339.8280,N,11551.6663,W,60.60,274.68,120410,,,A*43
$GPRMC,035840.000,A,3339.8322,N,11551.7266,W,60.69,274.90,120410,,,A*44
$GPRMC,035843.000,A,3339.8363,N,11551.7870,W,60.68,274.44,120410,,,A*47
$GPRMC,035846.000,A,3339.8400,N,11551.8474,W,60.53,274.07,120410,,,A*48
$GPRMC,035849.000,A,3339.8440,N,11551.9077,W,60.43,274.84,120410,,,A*4F
$GPRMC,035852.000,A,3339.8473,N,11551.9679,W,60.57,273.42,120410,,,A*45
$GPRMC,035855.000,A,3339.8505,N,11552.0283,W,60.47,273.96,120410,,,A*41
$GPRMC,035858.000,A,3339.8541,N,11552.0891,W,61.88,274.54,120410,,,A*4E
$GPRMC,035901.000,A,3339.8583,N,11552.1517,W,63.70,274.62,120410,,,A*4F
$GPRMC,035904.000,A,3339.8625,N,11552.2158,W,64.82,274.68,120410,,,A*49
$GPRMC,035907.000,A,3339.8668,N,11552.2804,W,64.87,274.33,120410,,,A*48
$GPRMC,035910.000,A,3339.8714,N,11552.3449,W,63.83,274.88,120410,,,A*43
$GPRMC,035913.000,A,3339.8754,N,11552.4079,W,62.63,274.84,120410,,,A*47
$GPRMC,035916.000,A,3339.8798,N,11552.4700,W,62.14,274.91,120410,,,A*4F
$GPRMC,035919.000,A,3339.8847,N,11552.5313,W,61.64,276.26,120410,,,A*40
$GPRMC,035922.000,A,3339.8899,N,11552.5923,W,61.10,275.02,120410,,,A*44
$GPRMC,035925.000,A,3339.8940,N,11552.6529,W,60.77,274.74,120410,,,A*43
$GPRMC,035928.000,A,3339.8981,N,11552.7134,W,60.83,274.44,120410,,,A*42
$GPRMC,035931.000,A,3339.9014,N,11552.7739,W,60.74,273.23,120410,,,A*4B
$GPRMC,035934.000,A,3339.9044,N,11552.8345,W,60.87,273.88,120410,,,A*46
$GPRMC,035937.000,A,3339.9082,N,11552.8950,W,60.70,274.97,120410,,,A*40
$GPRMC,035940.000,A,3339.9120,N,11552.9553,W,60.51,273.96,120410,,,A*42
$GPRMC,035943.000,A,3339.9156,N,11553.0156,W,60.52,274.47,120410,,,A*41
$GPRMC,035946.000,A,3339.9196,N,11553.0758,W,60.42,274.73,120410,,,A*46
$GPRMC,035949.000,A,3339.9237,N,11553.1359,W,60.36,274.81,120410,,,A*4B
$GPRMC,035952.000,A,3339.9279,N,11553.1962,W,60.41,274.73,120410,,,A*44
$GPRMC,035955.000,A,3339.9329,N,11553.2564,W,60.39,276.42,120410,,,A*41
$GPRMC,035958.000,A,3339.9397,N,11553.3161,W,60.58,278.64,120410,,,A*44
$GPRMC,040001.000,A,3339.9482,N,11553.3759,W,60.60,280.23,120410,,,A*42
$GPRMC,040004.000,A,3339.9577,N,11553.4352,W,60.56,281.42,120410,,,A*47
$GPRMC,040007.000,A,3339.9680,N,11553.4944,W,60.76,282.00,120410,,,A*45
$GPRMC,040010.000,A,3339.9786,N,11553.5534,W,60.69,282.63,120410,,,A*45
$GPRMC,040013.000,A,3339.9897,N,11553.6125,W,60.63,282.32,120410,,,A*40
$GPRMC,040016.000,A,3340.0002,N,11553.6717,W,60.70,281.74,120410,,,A*42
$GPRMC,040019.000,A,3340.0104,N,11553.7311,W,60.52,281.50,120410,,,A*4F
$GPRMC,040022.000,A,3340.0207,N,11553.7903,W,60.53,281.94,120410,,,A*47
$GPRMC,040025.000,A,3340.0310,N,11553.8495,W,60.66,281.74,120410,,,A*42
$GPRMC,040028.000,A,3340.0412,N,11553.9086,W,60.28,281.74,120410,,,A*47
$GPRMC,040031.000,A,3340.0514,N,11553.9678,W,60.62,281.60,120410,,,A*44
$GPRMC,040034.000,A,3340.0616,N,11554.0272,W,60.60,281.76,120410,,,A*45
$GPRMC,040037.000,A,3340.0719,N,11554.0865,W,60.48,281.77,120410,,,A*4F
$GPRMC,040040.000,A,3340.0820,N,11554.1458,W,60.60,281.32,120410,,,A*42
$GPRMC,040043.000,A,3340.0922,N,11554.2053,W,60.88,281.69,120410,,,A*46
$GPRMC,040046.000,A,3340.1025,N,11554.2651,W,60.92,281.60,120410,,,A*4A
$GPRMC,040049.000,A,3340.1128,N,11554.3247,W,60.73,281.58,120410,,,A*4F
$GPRMC,040052.000,A,3340.1229,N,11554.3841,W,60.68,281.55,120410,,,A*4C
$GPRMC,040055.000,A,3340.1331,N,11554.4436,W,60.68,281.62,120410,,,A*4C
$GPRMC,040058.000,A,3340.1434,N,11554.5029,W,60.68,281.68,120410,,,A*42
$GPRMC,040101.000,A,3340.1537,N,11554.5622,W,60.74,281.56,120410,,,A*40
$GPRMC,040104.000,A,3340.1639,N,11554.6216,W,60.60,282.04,120410,,,A*49
$GPRMC,040107.000,A,3340.1741,N,11554.6809,W,60.71,281.19,120410,,,A*4F
$GPRMC,040110.000,A,3340.1841,N,11554.7403,W,60.76,281.63,120410,,,A*4B
$GPRMC,040113.000,A,3340.1944,N,11554.7997,W,60.68,281.77,120410,,,A*46
$GPRMC,040116.000,A,3340.2047,N,11554.8591,W,60.72,281.77,120410,,,A*44
$GPRMC,040119.000,A,3340.2150,N,11554.9185,W,60.72,281.60,120410,,,A*4A
$GPRMC,040122.000,A,3340.2250,N,11554.9779,W,60.64,281.36,120410,,,A*40
$GPRMC,040125.000,A,3340.2352,N,11555.0371,W,60.41,282.12,120410,,,A*42
$GPRMC,040128.000,A,3340.2456,N,11555.0962,W,60.26,281.98,120410,,,A*44
$GPRMC,040131.000,A,3340.2558,N,11555.1552,W,60.38,281.61,120410,,,A*44
$GPRMC,040134.000,A,3340.2658,N,11555.2142,W,60.38,281.69,120410,,,A*4C
$GPRMC,040137.000,A,3340.2760,N,11555.2734,W,60.64,281.72,120410,,,A*41
$GPRMC,040140.000,A,3340.2861,N,11555.3326,W,60.56,281.71,120410,,,A*4B
$GPRMC,040143.000,A,3340.2965,N,11555.3917,W,60.37,281.98,120410,,,A*45
$GPRMC,040146.000,A,3340.3067,N,11555.4509,W,60.52,281.62,120410,,,A*48
$GPRMC,040149.000,A,3340.3168,N,11555.5101,W,60.64,281.45,120410,,,A*44
$GPRMC,040152.000,A,3340.3268,N,11555.5695,W,60.48,281.61,120410,,,A*4F
$GPRMC,040155.000,A,3340.3371,N,11555.6286,W,60.44,281.98,120410,,,A*4E
$GPRMC,040158.000,A,3340.3472,N,11555.6877,W,60.41,281.30,120410,,,A*44
$GPRMC,040201.000,A,3340.3573,N,11555.7470,W,60.58,281.62,120410,,,A*4E
$GPRMC,040204.000,A,3340.3676,N,11555.8063,W,60.67,281.66,120410,,,A*4C
$GPRMC,040207.000,A,3340.3778,N,11555.8654,W,60.30,281.82,120410,,,A*4A
$GPRMC,040210.000,A,3340.3879,N,11555.9246,W,60.76,281.55,120410,,,A*4C
$GPRMC,040213.000,A,3340.3981,N,11555.9839,W,60.70,281.75,120410,,,A*4F
$GPRMC,040216.000,A,3340.4084,N,11556.0429,W,60.33,281.83,120410,,,A*48
$GPRMC,040219.000,A,3340.4187,N,11556.1021,W,60.67,281.83,120410,,,A*49
$GPRMC,040222.000,A,3340.4289,N,11556.1616,W,60.80,281.42,120410,,,A*4A
$GPRMC,040225.000,A,3340.4389,N,11556.2209,W,60.59,281.64,120410,,,A*45
$GPRMC,040228.000,A,3340.4489,N,11556.2800,W,60.51,281.66,120410,,,A*46
$GPRMC,040231.000,A,3340.4592,N,11556.3392,W,60.35,281.86,120410,,,A*48
$GPRMC,040234.000,A,3340.4693,N,11556.3985,W,60.60,281.60,120410,,,A*4B
$GPRMC,040237.000,A,3340.4795,N,11556.4575,W,60.58,281.86,120410,,,A*48
$GPRMC,040240.000,A,3340.4896,N,11556.5168,W,60.56,281.67,120410,,,A*4C
$GPRMC,040243.000,A,3340.4998,N,11556.5759,W,60.38,281.73,120410,,,A*49
$GPRMC,040246.000,A,3340.5099,N,11556.6350,W,60.19,281.61,120410,,,A*4B
$GPRMC,040249.000,A,3340.5197,N,11556.6942,W,60.69,280.92,120410,,,A*48
$GPRMC,040252.000,A,3340.5297,N,11556.7536,W,60.46,282.03,120410,,,A*48
$GPRMC,040255.000,A,3340.5402,N,11556.8126,W,60.49,282.16,120410,,,A*44
$GPRMC,040258.000,A,3340.5504,N,11556.8718,W,60.76,281.46,120410,,,A*4F
$GPRMC,040301.000,A,3340.5606,N,11556.9311,W,60.45,281.65,120410,,,A*4E
$GPRMC,040304.000,A,3340.5706,N,11556.9902,W,60.49,281.38,120410,,,A*46
$GPRMC,040307.000,A,3340.5809,N,11557.0493,W,60.44,281.89,120410,,,A*4F
$GPRMC,040310.000,A,3340.5912,N,11557.1085,W,60.68,281.65,120410,,,A*4C
$GPRMC,040313.000,A,3340.6012,N,11557.1678,W,60.51,281.33,120410,,,A*48
$GPRMC,040316.000,A,3340.6114,N,11557.2272,W,60.66,281.75,120410,,,A*41
$GPRMC,040319.000,A,3340.6218,N,11557.2867,W,60.89,281.75,120410,,,A*4E
$GPRMC,040322.000,A,3340.6320,N,11557.3460,W,60.49,281.61,120410,,,A*4F
$GPRMC,040325.000,A,3340.6421,N,11557.4051,W,60.42,281.52,120410,,,A*44
$GPRMC,040328.000,A,3340.6521,N,11557.4644,W,60.71,281.71,120410,,,A*4B
$GPRMC,040331.000,A,3340.6626,N,11557.5238,W,60.73,281.69,120410,,,A*42
$GPRMC,040334.000,A,3340.6727,N,11557.5832,W,60.73,281.54,120410,,,A*49
$GPRMC,040337.000,A,3340.6828,N,11557.6426,W,60.63,281.45,120410,,,A*41
$GPRMC,040340.000,A,3340.6931,N,11557.7020,W,60.75,281.94,120410,,,A*40
$GPRMC,040343.000,A,3340.7034,N,11557.7613,W,60.69,281.55,120410,,,A*48
$GPRMC,040346.000,A,3340.7134,N,11557.8206,W,60.56,281.38,120410,,,A*44
$GPRMC,040349.000,A,3340.7235,N,11557.8799,W,60.58,281.84,120410,,,A*43
$GPRMC,040352.000,A,3340.7339,N,11557.9390,W,60.63,282.02,120410,,,A*4D
$GPRMC,040355.000,A,3340.7444,N,11557.9983,W,60.74,281.70,120410,,,A*4F
$GPRMC,040358.000,A,3340.7544,N,11558.0577,W,60.71,281.14,120410,,,A*45
$GPRMC,040401.000,A,3340.7645,N,11558.1171,W,60.72,281.69,120410,,,A*46
$GPRMC,040404.000,A,3340.7748,N,11558.1764,W,60.75,281.65,120410,,,A*46
$GPRMC,040407.000,A,3340.7849,N,11558.2359,W,60.70,281.48,120410,,,A*48
$GPRMC,040410.000,A,3340.7951,N,11558.2952,W,60.75,281.94,120410,,,A*43
$GPRMC,040413.000,A,3340.8055,N,11558.3545,W,60.72,281.44,120410,,,A*43
$GPRMC,040416.000,A,3340.8148,N,11558.4142,W,60.99,279.87,120410,,,A*42
$GPRMC,040419.000,A,3340.8223,N,11558.4739,W,60.58,276.81,120410,,,A*4D
$GPRMC,040422.000,A,3340.8264,N,11558.5340,W,60.68,272.72,120410,,,A*46
$GPRMC,040425.000,A,3340.8270,N,11558.5944,W,60.65,269.15,120410,,,A*4C
$GPRMC,040428.000,A,3340.8249,N,11558.6547,W,60.43,267.54,120410,,,A*48
$GPRMC,040431.000,A,3340.8221,N,11558.7148,W,60.49,267.40,120410,,,A*4B
$GPRMC,040434.000,A,3340.8189,N,11558.7751,W,60.64,266.04,120410,,,A*4F
$GPRMC,040437.000,A,3340.8145,N,11558.8355,W,60.70,265.25,120410,,,A*46
$GPRMC,040440.000,A,3340.8104,N,11558.8958,W,60.95,266.44,120410,,,A*4B
$GPRMC,040443.000,A,3340.8073,N,11558.9562,W,60.52,266.52,120410,,,A*41
$GPRMC,040446.000,A,3340.8037,N,11559.0168,W,61.17,266.22,120410,,,A*45
$GPRMC,040449.000,A,3340.8003,N,11559.0782,W,63.18,266.89,120410,,,A*43
$GPRMC,040452.000,A,3340.7973,N,11559.1416,W,63.86,266.74,120410,,,A*42
$GPRMC,040455.000,A,3340.7942,N,11559.2056,W,64.35,266.83,120410,,,A*43
$GPRMC,040458.000,A,3340.7912,N,11559.2703,W,65.25,267.13,120410,,,A*44
$GPRMC,040501.000,A,3340.7883,N,11559.3353,W,64.86,266.80,120410,,,A*43
$GPRMC,040504.000,A,3340.7856,N,11559.4001,W,64.79,268.21,120410,,,A*48
$GPRMC,040507.000,A,3340.7840,N,11559.4652,W,64.99,267.56,120410,,,A*4D
$GPRMC,040510.000,A,3340.7812,N,11559.5299,W,64.58,266.90,120410,,,A*48
$GPRMC,040513.000,A,3340.7781,N,11559.5942,W,63.88,266.93,120410,,,A*4A
$GPRMC,040516.000,A,3340.7761,N,11559.6572,W,63.50,268.97,120410,,,A*42
$GPRMC,040519.000,A,3340.7778,N,11559.7216,W,64.96,274.28,120410,,,A*45
$GPRMC,040522.000,A,3340.7858,N,11559.7860,W,65.14,281.68,120410,,,A*4E
$GPRMC,040525.000,A,3340.7987,N,11559.8494,W,64.88,284.70,120410,,,A*4A
$GPRMC,040528.000,A,3340.8129,N,11559.9120,W,64.82,284.65,120410,,,A*41
$GPRMC,040531.000,A,3340.8270,N,11559.9744,W,64.47,284.97,120410,,,A*46
$GPRMC,040534.000,A,3340.8408,N,11600.0355,W,62.01,284.84,120410,,,A*4E
$GPRMC,040537.000,A,3340.8539,N,11600.0949,W,60.88,284.59,120410,,,A*4A
$GPRMC,040540.000,A,3340.8666,N,11600.1530,W,59.47,284.55,120410,,,A*45
$GPRMC,040543.000,A,3340.8791,N,11600.2100,W,58.65,284.72,120410,,,A*4F
$GPRMC,040546.000,A,3340.8910,N,11600.2675,W,59.61,283.79,120410,,,A*41
$GPRMC,040549.000,A,3340.9033,N,11600.3258,W,60.41,284.00,120410,,,A*4C
$GPRMC,040552.000,A,3340.9159,N,11600.3845,W,60.96,285.20,120410,,,A*44
$GPRMC,040555.000,A,3340.9292,N,11600.4435,W,60.83,284.93,120410,,,A*46
$GPRMC,040558.000,A,3340.9423,N,11600.5021,W,60.47,284.69,120410,,,A*4A
$GPRMC,040601.000,A,3340.9551,N,11600.5606,W,60.39,284.57,120410,,,A*46
$GPRMC,040604.000,A,3340.9680,N,11600.6190,W,60.36,284.76,120410,,,A*4B
$GPRMC,040607.000,A,3340.9810,N,11600.6771,W,60.33,285.14,120410,,,A*46
$GPRMC,040610.000,A,3340.9941,N,11600.7356,W,60.57,284.57,120410,,,A*41
$GPRMC,040613.000,A,3341.0072,N,11600.7941,W,60.42,285.78,120410,,,A*47
$GPRMC,040616.000,A,3341.0215,N,11600.8522,W,60.64,286.16,120410,,,A*48
$GPRMC,040619.000,A,3341.0350,N,11600.9106,W,60.56,284.88,120410,,,A*40
$GPRMC,040622.000,A,3341.0477,N,11600.9694,W,60.80,284.33,120410,,,A*4D
$GPRMC,040625.000,A,3341.0604,N,11601.0282,W,60.71,284.67,120410,,,A*48
$GPRMC,040628.000,A,3341.0735,N,11601.0869,W,60.72,284.74,120410,,,A*48
$GPRMC,040631.000,A,3341.0865,N,11601.1455,W,60.56,285.07,120410,,,A*4B
$GPRMC,040634.000,A,3341.0996,N,11601.2041,W,60.79,284.84,120410,,,A*46
$GPRMC,040637.000,A,3341.1127,N,11601.2628,W,60.70,285.08,120410,,,A*43
$GPRMC,040640.000,A,3341.1254,N,11601.3214,W,60.71,284.30,120410,,,A*45
$GPRMC,040643.000,A,3341.1382,N,11601.3803,W,60.90,284.75,120410,,,A*4E
$GPRMC,040646.000,A,3341.1514,N,11601.4392,W,61.11,285.36,120410,,,A*48
$GPRMC,040649.000,A,3341.1651,N,11601.4981,W,61.41,285.74,120410,,,A*4E
$GPRMC,040652.000,A,3341.1794,N,11601.5566,W,60.97,286.86,120410,,,A*4C
$GPRMC,040655.000,A,3341.1944,N,11601.6148,W,60.78,286.93,120410,,,A*46
$GPRMC,040658.000,A,3341.2091,N,11601.6726,W,60.28,286.95,120410,,,A*44
$GPRMC,040701.000,A,3341.2241,N,11601.7299,W,59.96,287.57,120410,,,A*46
$GPRMC,040704.000,A,3341.2392,N,11601.7870,W,60.14,287.21,120410,,,A*40
$GPRMC,040707.000,A,3341.2540,N,11601.8446,W,60.44,287.24,120410,,,A*4C
$GPRMC,040710.000,A,3341.2692,N,11601.9030,W,61.79,287.17,120410,,,A*4D
$GPRMC,040713.000,A,3341.2843,N,11601.9631,W,63.74,286.71,120410,,,A*45
$GPRMC,040716.000,A,3341.2998,N,11602.0246,W,64.36,286.96,120410,,,A*41
$GPRMC,040719.000,A,3341.3157,N,11602.0862,W,64.53,287.18,120410,,,A*4C
$GPRMC,040722.000,A,3341.3316,N,11602.1479,W,64.43,286.96,120410,,,A*42
$GPRMC,040725.000,A,3341.3472,N,11602.2095,W,64.35,286.91,120410,,,A*43
$GPRMC,040728.000,A,3341.3629,N,11602.2709,W,64.18,286.97,120410,,,A*49
$GPRMC,040731.000,A,3341.3786,N,11602.3325,W,64.58,287.07,120410,,,A*42
$GPRMC,040734.000,A,3341.3945,N,11602.3942,W,64.48,287.04,120410,,,A*4F
$GPRMC,040737.000,A,3341.4103,N,11602.4558,W,64.40,287.10,120410,,,A*4C
$GPRMC,040740.000,A,3341.4261,N,11602.5173,W,64.42,287.17,120410,,,A*42
$GPRMC,040743.000,A,3341.4419,N,11602.5786,W,64.07,286.87,120410,,,A*4D
$GPRMC,040746.000,A,3341.4573,N,11602.6398,W,63.80,286.97,120410,,,A*44
$GPRMC,040749.000,A,3341.4731,N,11602.7009,W,63.97,287.39,120410,,,A*46
$GPRMC,040752.000,A,3341.4892,N,11602.7621,W,64.22,287.73,120410,,,A*41
$GPRMC,040755.000,A,3341.5048,N,11602.8236,W,64.54,286.52,120410,,,A*46
$GPRMC,040758.000,A,3341.5205,N,11602.8854,W,64.51,287.27,120410,,,A*48
$GPRMC,040801.000,A,3341.5368,N,11602.9467,W,64.39,288.58,120410,,,A*45
$GPRMC,040804.000,A,3341.5561,N,11603.0066,W,64.20,293.66,120410,,,A*4D
$GPRMC,040807.000,A,3341.5803,N,11603.0637,W,64.20,298.87,120410,,,A*41
$GPRMC,040810.000,A,3341.6066,N,11603.1187,W,62.87,299.65,120410,,,A*44
$GPRMC,040813.000,A,3341.6330,N,11603.1727,W,62.40,300.65,120410,,,A*41
$GPRMC,040816.000,A,3341.6596,N,11603.2256,W,61.34,300.88,120410,,,A*4D
$GPRMC,040819.000,A,3341.6860,N,11603.2771,W,60.00,301.68,120410,,,A*4F
$GPRMC,040822.000,A,3341.7118,N,11603.3275,W,58.91,301.28,120410,,,A*47
$GPRMC,040825.000,A,3341.7372,N,11603.3774,W,58.45,301.01,120410,,,A*48
$GPRMC,040828.000,A,3341.7625,N,11603.4270,W,58.30,301.30,120410,,,A*44
$GPRMC,040831.000,A,3341.7877,N,11603.4766,W,58.27,301.32,120410,,,A*43
$GPRMC,040834.000,A,3341.8133,N,11603.5267,W,59.20,301.36,120410,,,A*47
$GPRMC,040837.000,A,3341.8393,N,11603.5775,W,60.15,301.21,120410,,,A*40
$GPRMC,040840.000,A,3341.8653,N,11603.6289,W,60.28,300.60,120410,,,A*46
$GPRMC,040843.000,A,3341.8907,N,11603.6808,W,60.13,299.66,120410,,,A*47
$GPRMC,040846.000,A,3341.9151,N,11603.7330,W,59.78,297.67,120410,,,A*41
$GPRMC,040849.000,A,3341.9361,N,11603.7869,W,59.37,293.23,120410,,,A*47
$GPRMC,040852.000,A,3341.9541,N,11603.8422,W,59.47,290.26,120410,,,A*44
$GPRMC,040855.000,A,3341.9699,N,11603.8988,W,59.90,287.25,120410,,,A*47
$GPRMC,040858.000,A,3341.9828,N,11603.9566,W,59.89,283.39,120410,,,A*42
$GPRMC,040901.000,A,3341.9925,N,11604.0156,W,60.16,279.99,120410,,,A*49
$GPRMC,040904.000,A,3341.9998,N,11604.0739,W,57.83,277.75,120410,,,A*41
$GPRMC,040907.000,A,3342.0046,N,11604.1306,W,56.98,274.94,120410,,,A*4C
$GPRMC,040910.000,A,3342.0082,N,11604.1868,W,56.39,274.82,120410,,,A*4D
$GPRMC,040913.000,A,3342.0118,N,11604.2428,W,56.50,274.83,120410,,,A*49
$GPRMC,040916.000,A,3342.0158,N,11604.2992,W,57.05,274.53,120410,,,A*48
$GPRMC,040919.000,A,3342.0197,N,11604.3557,W,56.45,275.20,120410,,,A*40
$GPRMC,040922.000,A,3342.0236,N,11604.4114,W,55.39,274.37,120410,,,A*4B
$GPRMC,040925.000,A,3342.0274,N,11604.4659,W,54.22,275.00,120410,,,A*4A
$GPRMC,040928.000,A,3342.0316,N,11604.5196,W,54.18,275.53,120410,,,A*48
$GPRMC,040931.000,A,3342.0357,N,11604.5729,W,53.58,275.28,120410,,,A*48
$GPRMC,040934.000,A,3342.0401,N,11604.6259,W,52.82,275.33,120410,,,A*44
$GPRMC,040937.000,A,3342.0438,N,11604.6789,W,53.78,275.28,120410,,,A*4B
$GPRMC,040940.000,A,3342.0476,N,11604.7336,W,55.68,274.72,120410,,,A*49
$GPRMC,040943.000,A,3342.0505,N,11604.7897,W,56.35,273.48,120410,,,A*4A
$GPRMC,040946.000,A,3342.0511,N,11604.8467,W,56.97,269.94,120410,,,A*44
$GPRMC,040949.000,A,3342.0487,N,11604.9028,W,55.17,266.21,120410,,,A*41
$GPRMC,040952.000,A,3342.0441,N,11604.9586,W,56.65,265.11,120410,,,A*46
$GPRMC,040955.000,A,3342.0404,N,11605.0164,W,58.41,265.86,120410,,,A*46
$GPRMC,040958.000,A,3342.0361,N,11605.0743,W,56.18,264.46,120410,,,A*43
$GPRMC,041001.000,A,3342.0307,N,11605.1285,W,54.05,262.68,120410,,,A*4D
$GPRMC,041004.000,A,3342.0242,N,11605.1804,W,51.75,261.29,120410,,,A*4F
$GPRMC,041007.000,A,3342.0173,N,11605.2328,W,53.72,261.50,120410,,,A*40
$GPRMC,041010.000,A,3342.0105,N,11605.2846,W,51.38,260.86,120410,,,A*42
$GPRMC,041013.000,A,3342.0033,N,11605.3364,W,52.87,260.45,120410,,,A*47
$GPRMC,041016.000,A,3341.9960,N,11605.3892,W,54.06,260.82,120410,,,A*41
$GPRMC,041019.000,A,3341.9889,N,11605.4432,W,54.78,261.22,120410,,,A*4B
$GPRMC,041022.000,A,3341.9814,N,11605.4984,W,56.18,260.40,120410,,,A*46
$GPRMC,041025.000,A,3341.9732,N,11605.5540,W,57.01,259.79,120410,,,A*46
$GPRMC,041028.000,A,3341.9645,N,11605.6116,W,58.55,259.80,120410,,,A*46
$GPRMC,041031.000,A,3341.9562,N,11605.6694,W,59.61,260.85,120410,,,A*4C
$GPRMC,041034.000,A,3341.9483,N,11605.7294,W,61.17,260.75,120410,,,A*47
$GPRMC,041037.000,A,3341.9399,N,11605.7892,W,57.96,260.55,120410,,,A*4A
$GPRMC,041040.000,A,3341.9324,N,11605.8446,W,55.63,260.93,120410,,,A*44
$GPRMC,041043.000,A,3341.9248,N,11605.8999,W,57.83,260.77,120410,,,A*45
$GPRMC,041046.000,A,3341.9168,N,11605.9591,W,61.19,261.39,120410,,,A*49
$GPRMC,041049.000,A,3341.9107,N,11606.0189,W,58.78,265.36,120410,,,A*4E
$GPRMC,041052.000,A,3341.9087,N,11606.0770,W,58.54,269.41,120410,,,A*4F
$GPRMC,041055.000,A,3341.9099,N,11606.1343,W,55.56,272.96,120410,,,A*4D
$GPRMC,041058.000,A,3341.9146,N,11606.1884,W,53.88,278.00,120410,,,A*43
$GPRMC,041101.000,A,3341.9224,N,11606.2413,W,53.54,281.36,120410,,,A*4A
$GPRMC,041104.000,A,3341.9323,N,11606.2943,W,55.09,283.04,120410,,,A*4C
$GPRMC,041107.000,A,3341.9428,N,11606.3487,W,56.51,282.82,120410,,,A*46
$GPRMC,041110.000,A,3341.9534,N,11606.4049,W,58.21,282.67,120410,,,A*4F
$GPRMC,041113.000,A,3341.9643,N,11606.4630,W,60.01,282.67,120410,,,A*4E
$GPRMC,041116.000,A,3341.9753,N,11606.5215,W,60.52,282.93,120410,,,A*44
$GPRMC,041119.000,A,3341.9868,N,11606.5811,W,60.68,282.09,120410,,,A*48
$GPRMC,041122.000,A,3341.9979,N,11606.6391,W,58.27,283.23,120410,,,A*48
$GPRMC,041125.000,A,3342.0088,N,11606.6951,W,56.59,282.99,120410,,,A*43
$GPRMC,041128.000,A,3342.0198,N,11606.7491,W,54.63,283.52,120410,,,A*43
$GPRMC,041131.000,A,3342.0305,N,11606.8010,W,52.49,283.58,120410,,,A*4B
$GPRMC,041134.000,A,3342.0395,N,11606.8509,W,50.11,281.13,120410,,,A*48
$GPRMC,041137.000,A,3342.0481,N,11606.9001,W,51.51,282.22,120410,,,A*41
$GPRMC,041140.000,A,3342.0577,N,11606.9522,W,54.80,282.60,120410,,,A*42
$GPRMC,041143.000,A,3342.0679,N,11607.0076,W,58.27,282.58,120410,,,A*4A
$GPRMC,041146.000,A,3342.0788,N,11607.0654,W,59.04,283.06,120410,,,A*4C
$GPRMC,041149.000,A,3342.0895,N,11607.1205,W,55.03,282.99,120410,,,A*4D
$GPRMC,041152.000,A,3342.0994,N,11607.1736,W,53.51,282.80,120410,,,A*4B
$GPRMC,041155.000,A,3342.1091,N,11607.2250,W,52.68,282.25,120410,,,A*43
$GPRMC,041158.000,A,3342.1188,N,11607.2768,W,53.86,283.08,120410,,,A*46
$GPRMC,041201.000,A,3342.1292,N,11607.3307,W,56.24,282.80,120410,,,A*41
$GPRMC,041204.000,A,3342.1398,N,11607.3856,W,56.34,283.19,120410,,,A*40
$GPRMC,041207.000,A,3342.1502,N,11607.4407,W,56.28,282.52,120410,,,A*4A
$GPRMC,041210.000,A,3342.1604,N,11607.4952,W,56.26,282.40,120410,,,A*49
$GPRMC,041213.000,A,3342.1707,N,11607.5500,W,55.57,282.93,120410,,,A*49
$GPRMC,041216.000,A,3342.1811,N,11607.6039,W,55.29,283.30,120410,,,A*49
$GPRMC,041219.000,A,3342.1927,N,11607.6574,W,55.87,285.87,120410,,,A*40
$GPRMC,041222.000,A,3342.2073,N,11607.7109,W,56.95,289.73,120410,,,A*4B
$GPRMC,041225.000,A,3342.2239,N,11607.7635,W,55.54,291.18,120410,,,A*42
$GPRMC,041228.000,A,3342.2412,N,11607.8153,W,55.75,292.25,120410,,,A*46
$GPRMC,041231.000,A,3342.2592,N,11607.8682,W,58.20,291.60,120410,,,A*43
$GPRMC,041234.000,A,3342.2779,N,11607.9240,W,60.75,291.49,120410,,,A*4A
$GPRMC,041237.000,A,3342.2964,N,11607.9795,W,58.89,291.05,120410,,,A*46
$GPRMC,041240.000,A,3342.3130,N,11608.0337,W,57.12,289.44,120410,,,A*45
$GPRMC,041243.000,A,3342.3288,N,11608.0875,W,57.37,289.05,120410,,,A*49
$GPRMC,041246.000,A,3342.3446,N,11608.1428,W,59.01,288.80,120410,,,A*4A
$GPRMC,041249.000,A,3342.3603,N,11608.1978,W,57.58,288.86,120410,,,A*4A
$GPRMC,041252.000,A,3342.3759,N,11608.2527,W,59.28,288.65,120410,,,A*4F
$GPRMC,041255.000,A,3342.3920,N,11608.3101,W,61.29,288.70,120410,,,A*47
$GPRMC,041258.000,A,3342.4087,N,11608.3699,W,64.76,288.59,120410,,,A*4B
$GPRMC,041301.000,A,3342.4262,N,11608.4324,W,66.64,288.72,120410,,,A*43
$GPRMC,041304.000,A,3342.4439,N,11608.4946,W,64.03,289.05,120410,,,A*42
$GPRMC,041307.000,A,3342.4609,N,11608.5549,W,62.93,288.29,120410,,,A*42
$GPRMC,041310.000,A,3342.4773,N,11608.6130,W,59.86,289.17,120410,,,A*41
$GPRMC,041313.000,A,3342.4932,N,11608.6684,W,57.92,288.99,120410,,,A*4D
$GPRMC,041316.000,A,3342.5090,N,11608.7240,W,59.27,288.74,120410,,,A*46
$GPRMC,041319.000,A,3342.5256,N,11608.7792,W,58.19,290.21,120410,,,A*4E
$GPRMC,041322.000,A,3342.5414,N,11608.8332,W,56.44,288.86,120410,,,A*45
$GPRMC,041325.000,A,3342.5569,N,11608.8863,W,57.03,289.49,120410,,,A*46
$GPRMC,041328.000,A,3342.5731,N,11608.9406,W,58.71,289.58,120410,,,A*40
$GPRMC,041331.000,A,3342.5898,N,11608.9959,W,58.37,290.17,120410,,,A*42
$GPRMC,041334.000,A,3342.6062,N,11609.0503,W,57.47,290.04,120410,,,A*48
$GPRMC,041337.000,A,3342.6225,N,11609.1039,W,56.51,289.96,120410,,,A*42
$GPRMC,041340.000,A,3342.6386,N,11609.1575,W,57.67,289.55,120410,,,A*4C
$GPRMC,041343.000,A,3342.6551,N,11609.2122,W,58.55,290.10,120410,,,A*41
$GPRMC,041346.000,A,3342.6719,N,11609.2685,W,60.66,289.85,120410,,,A*4F
$GPRMC,041349.000,A,3342.6892,N,11609.3255,W,60.75,290.07,120410,,,A*44
$GPRMC,041352.000,A,3342.7064,N,11609.3825,W,60.38,289.81,120410,,,A*4C
$GPRMC,041355.000,A,3342.7234,N,11609.4392,W,59.94,289.67,120410,,,A*48
$GPRMC,041358.000,A,3342.7405,N,11609.4954,W,59.78,290.25,120410,,,A*4D
$GPRMC,041401.000,A,3342.7575,N,11609.5517,W,59.94,289.83,120410,,,A*4C
$GPRMC,041404.000,A,3342.7744,N,11609.6081,W,60.05,289.65,120410,,,A*4A
$GPRMC,041407.000,A,3342.7912,N,11609.6646,W,59.95,289.69,120410,,,A*46
$GPRMC,041410.000,A,3342.8083,N,11609.7209,W,60.06,289.99,120410,,,A*4F
$GPRMC,041413.000,A,3342.8253,N,11609.7774,W,60.11,289.89,120410,,,A*4B
$GPRMC,041416.000,A,3342.8425,N,11609.8339,W,60.12,289.83,120410,,,A*42
$GPRMC,041419.000,A,3342.8593,N,11609.8904,W,60.05,289.52,120410,,,A*4F
$GPRMC,041422.000,A,3342.8762,N,11609.9469,W,59.93,289.28,120410,,,A*44
$GPRMC,041425.000,A,3342.8915,N,11610.0039,W,59.98,285.85,120410,,,A*4D
$GPRMC,041428.000,A,3342.9032,N,11610.0622,W,60.09,281.77,120410,,,A*4A
$GPRMC,041431.000,A,3342.9110,N,11610.1215,W,59.71,277.20,120410,,,A*4C
$GPRMC,041434.000,A,3342.9149,N,11610.1810,W,59.84,272.09,120410,,,A*4E
$GPRMC,041437.000,A,3342.9144,N,11610.2408,W,59.73,269.12,120410,,,A*4E
$GPRMC,041440.000,A,3342.9134,N,11610.3005,W,59.75,269.65,120410,,,A*47
$GPRMC,041443.000,A,3342.9134,N,11610.3605,W,60.22,270.53,120410,,,A*47
$GPRMC,041446.000,A,3342.9132,N,11610.4206,W,60.17,269.58,120410,,,A*41
$GPRMC,041449.000,A,3342.9129,N,11610.4808,W,60.30,270.09,120410,,,A*49
$GPRMC,041452.000,A,3342.9128,N,11610.5411,W,60.41,269.93,120410,,,A*4A
$GPRMC,041455.000,A,3342.9127,N,11610.6012,W,60.30,270.05,120410,,,A*47
$GPRMC,041458.000,A,3342.9129,N,11610.6613,W,60.12,270.23,120410,,,A*47
$GPRMC,041501.000,A,3342.9129,N,11610.7214,W,60.17,269.94,120410,,,A*49
$GPRMC,041504.000,A,3342.9129,N,11610.7814,W,59.87,270.27,120410,,,A*45
$GPRMC,041507.000,A,3342.9131,N,11610.8413,W,59.71,270.10,120410,,,A*46
$GPRMC,041510.000,A,3342.9135,N,11610.9008,W,59.41,271.07,120410,,,A*4F
$GPRMC,041513.000,A,3342.9147,N,11610.9603,W,59.49,271.02,120410,,,A*49
$GPRMC,041516.000,A,3342.9149,N,11611.0199,W,59.79,270.62,120410,,,A*4A
$GPRMC,041519.000,A,3342.9171,N,11611.0796,W,59.79,274.52,120410,,,A*40
$GPRMC,041522.000,A,3342.9231,N,11611.1389,W,59.78,279.01,120410,,,A*4E
$GPRMC,041525.000,A,3342.9330,N,11611.1977,W,59.87,283.01,120410,,,A*47
$GPRMC,041528.000,A,3342.9463,N,11611.2556,W,60.39,287.70,120410,,,A*4A
$GPRMC,041531.000,A,3342.9637,N,11611.3123,W,60.29,291.93,120410,,,A*4D
$GPRMC,041534.000,A,3342.9846,N,11611.3672,W,60.19,296.17,120410,,,A*4B
$GPRMC,041537.000,A,3343.0089,N,11611.4198,W,60.09,301.15,120410,,,A*43
$GPRMC,041540.000,A,3343.0366,N,11611.4698,W,59.99,304.99,120410,,,A*44
$GPRMC,041543.000,A,3343.0669,N,11611.5171,W,59.73,309.12,120410,,,A*46
$GPRMC,041546.000,A,3343.1000,N,11611.5619,W,59.88,313.26,120410,,,A*4A
$GPRMC,041549.000,A,3343.1352,N,11611.6045,W,59.97,314.21,120410,,,A*43
$GPRMC,041552.000,A,3343.1704,N,11611.6474,W,59.85,314.34,120410,,,A*4F
$GPRMC,041555.000,A,3343.2063,N,11611.6885,W,58.14,317.67,120410,,,A*43
$GPRMC,041558.000,A,3343.2413,N,11611.7258,W,54.93,318.21,120410,,,A*48
$GPRMC,041601.000,A,3343.2755,N,11611.7624,W,55.29,317.66,120410,,,A*45
$GPRMC,041604.000,A,3343.3099,N,11611.7999,W,56.37,317.82,120410,,,A*49
$GPRMC,041607.000,A,3343.3453,N,11611.8376,W,56.97,318.67,120410,,,A*42
$GPRMC,041610.000,A,3343.3811,N,11611.8747,W,56.07,318.96,120410,,,A*4F
$GPRMC,041613.000,A,3343.4160,N,11611.9113,W,55.74,318.54,120410,,,A*4B
$GPRMC,041616.000,A,3343.4509,N,11611.9478,W,55.13,318.66,120410,,,A*4D
$GPRMC,041619.000,A,3343.4853,N,11611.9836,W,53.26,318.60,120410,,,A*40
$GPRMC,041622.000,A,3343.5177,N,11612.0176,W,50.40,317.59,120410,,,A*47
$GPRMC,041625.000,A,3343.5484,N,11612.0524,W,51.46,315.23,120410,,,A*42
$GPRMC,041628.000,V,3343.5791,N,11612.0897,W,52.67,314.39,120410,,,E*54
$GPRMC,041631.000,A,3343.6103,N,11612.1299,W,55.46,310.94,120410,,,A*43
$GPRMC,041634.000,A,3343.6398,N,11612.1725,W,55.98,310.74,120410,,,A*49
$GPRMC,041637.000,A,3343.6699,N,11612.2150,W,56.47,310.61,120410,,,A*4C
$GPRMC,041640.000,A,3343.7012,N,11612.2596,W,59.44,309.94,120410,,,A*48
$GPRMC,041643.000,A,3343.7335,N,11612.3050,W,60.02,310.90,120410,,,A*47
$GPRMC,041646.000,A,3343.7670,N,11612.3498,W,60.28,313.18,120410,,,A*4D
$GPRMC,041649.000,A,3343.8018,N,11612.3934,W,60.35,314.63,120410,,,A*49
$GPRMC,041652.000,A,3343.8382,N,11612.4358,W,60.42,316.39,120410,,,A*49
$GPRMC,041655.000,A,3343.8757,N,11612.4760,W,60.06,318.78,120410,,,A*46
$GPRMC,041658.000,A,3343.9140,N,11612.5149,W,59.82,320.34,120410,,,A*43
$GPRMC,041701.000,A,3343.9532,N,11612.5525,W,60.01,321.65,120410,,,A*45
$GPRMC,041704.000,A,3343.9927,N,11612.5895,W,59.81,321.78,120410,,,A*40
$GPRMC,041707.000,A,3344.0323,N,11612.6264,W,60.11,322.03,120410,,,A*48
$GPRMC,041710.000,A,3344.0716,N,11612.6637,W,60.02,321.51,120410,,,A*48
$GPRMC,041713.000,A,3344.1111,N,11612.7006,W,59.98,321.64,120410,,,A*41
$GPRMC,041716.000,A,3344.1494,N,11612.7388,W,59.72,318.76,120410,,,A*44
$GPRMC,041719.000,A,3344.1848,N,11612.7807,W,59.76,312.71,120410,,,A*43
$GPRMC,041722.000,A,3344.2165,N,11612.8268,W,59.83,306.82,120410,,,A*41
$GPRMC,041725.000,A,3344.2443,N,11612.8764,W,59.52,301.21,120410,,,A*4C
$GPRMC,041728.000,A,3344.2679,N,11612.9288,W,59.93,295.82,120410,,,A*44
$GPRMC,041731.000,A,3344.2867,N,11612.9844,W,59.67,290.08,120410,,,A*4B
$GPRMC,041734.000,A,3344.3009,N,11613.0420,W,59.93,284.18,120410,,,A*46
$GPRMC,041737.000,A,3344.3099,N,11613.1011,W,59.81,278.89,120410,,,A*43
$GPRMC,041740.000,A,3344.3155,N,11613.1614,W,60.15,275.56,120410,,,A*49
$GPRMC,041743.000,A,3344.3198,N,11613.2214,W,59.77,275.76,120410,,,A*40
$GPRMC,041746.000,A,3344.3241,N,11613.2813,W,59.70,274.36,120410,,,A*4D
$GPRMC,041749.000,A,3344.3274,N,11613.3416,W,59.92,274.10,120410,,,A*44
$GPRMC,041752.000,A,3344.3314,N,11613.4015,W,59.61,275.48,120410,,,A*49
$GPRMC,041755.000,A,3344.3363,N,11613.4614,W,60.17,275.40,120410,,,A*4A
$GPRMC,041758.000,A,3344.3410,N,11613.5214,W,59.86,275.63,120410,,,A*42
$GPRMC,041801.000,A,3344.3458,N,11613.5813,W,60.11,275.28,120410,,,A*4B
$GPRMC,041804.000,A,3344.3504,N,11613.6413,W,60.31,275.75,120410,,,A*43
$GPRMC,041807.000,A,3344.3552,N,11613.7015,W,60.19,275.33,120410,,,A*48
$GPRMC,041810.000,A,3344.3597,N,11613.7614,W,59.89,275.24,120410,,,A*45
$GPRMC,041813.000,A,3344.3643,N,11613.8212,W,59.80,275.35,120410,,,A*48
$GPRMC,041816.000,A,3344.3692,N,11613.8804,W,59.54,276.04,120410,,,A*44
$GPRMC,041819.000,A,3344.3739,N,11613.9400,W,59.95,275.33,120410,,,A*48
$GPRMC,041822.000,A,3344.3778,N,11613.9997,W,60.01,273.26,120410,,,A*43
$GPRMC,041825.000,A,3344.3783,N,11614.0596,W,60.34,267.94,120410,,,A*49
$GPRMC,041828.000,A,3344.3726,N,11614.1194,W,59.99,261.26,120410,,,A*4E
$GPRMC,041831.000,A,3344.3619,N,11614.1783,W,60.13,255.59,120410,,,A*4C
$GPRMC,041834.000,A,3344.3492,N,11614.2365,W,59.88,255.83,120410,,,A*48
$GPRMC,041837.000,A,3344.3373,N,11614.2948,W,59.78,257.14,120410,,,A*45
$GPRMC,041840.000,A,3344.3260,N,11614.3533,W,59.74,257.57,120410,,,A*4C
$GPRMC,041843.000,A,3344.3161,N,11614.4119,W,59.83,260.20,120410,,,A*4A
$GPRMC,041846.000,A,3344.3088,N,11614.4713,W,59.77,263.12,120410,,,A*4C
$GPRMC,041849.000,A,3344.3042,N,11614.5310,W,59.70,266.07,120410,,,A*45
$GPRMC,041852.000,A,3344.3031,N,11614.5910,W,59.73,270.89,120410,,,A*43
$GPRMC,041855.000,A,3344.3049,N,11614.6509,W,59.81,272.16,120410,,,A*45
$GPRMC,041858.000,A,3344.3078,N,11614.7108,W,59.97,274.85,120410,,,A*45
$GPRMC,041901.000,A,3344.3138,N,11614.7705,W,60.04,278.01,120410,,,A*46
$GPRMC,041904.000,A,3344.3223,N,11614.8298,W,60.19,280.38,120410,,,A*45
$GPRMC,041907.000,A,3344.3330,N,11614.8887,W,60.19,283.80,120410,,,A*41
$GPRMC,041910.000,A,3344.3463,N,11614.9467,W,60.17,285.96,120410,,,A*4A
$GPRMC,041913.000,A,3344.3620,N,11615.0034,W,60.20,289.59,120410,,,A*4D
$GPRMC,041916.000,A,3344.3803,N,11615.0591,W,60.13,292.29,120410,,,A*40
$GPRMC,041919.000,A,3344.4007,N,11615.1139,W,60.04,295.34,120410,,,A*4E
$GPRMC,041922.000,A,3344.4233,N,11615.1671,W,59.63,297.84,120410,,,A*4A
$GPRMC,041925.000,A,3344.4483,N,11615.2188,W,59.45,300.51,120410,,,A*41
$GPRMC,041928.000,A,3344.4742,N,11615.2692,W,59.50,301.32,120410,,,A*4E
$GPRMC,041931.000,A,3344.4999,N,11615.3200,W,59.39,300.91,120410,,,A*47
$GPRMC,041934.000,A,3344.5258,N,11615.3714,W,60.09,300.86,120410,,,A*4A
$GPRMC,041937.000,A,3344.5518,N,11615.4227,W,59.80,300.97,120410,,,A*43
$GPRMC,041940.000,A,3344.5775,N,11615.4743,W,60.10,300.53,120410,,,A*46
$GPRMC,041943.000,A,3344.6033,N,11615.5258,W,59.92,301.33,120410,,,A*4A
$GPRMC,041946.000,A,3344.6291,N,11615.5771,W,59.81,300.59,120410,,,A*44
$GPRMC,041949.000,A,3344.6548,N,11615.6286,W,59.87,300.76,120410,,,A*4D
$GPRMC,041952.000,A,3344.6806,N,11615.6802,W,60.24,301.00,120410,,,A*45
$GPRMC,041955.000,A,3344.7072,N,11615.7312,W,60.11,303.55,120410,,,A*47
$GPRMC,041958.000,A,3344.7364,N,11615.7796,W,60.17,307.39,120410,,,A*4E
$GPRMC,042001.000,A,3344.7688,N,11615.8255,W,59.98,312.27,120410,,,A*4C
$GPRMC,042004.000,A,3344.8039,N,11615.8682,W,59.94,315.87,120410,,,A*45
$GPRMC,042007.000,A,3344.8401,N,11615.9097,W,59.95,315.74,120410,,,A*47
$GPRMC,042010.000,A,3344.8759,N,11615.9514,W,59.76,314.38,120410,,,A*45
$GPRMC,042013.000,A,3344.9090,N,11615.9958,W,59.22,310.14,120410,,,A*4A
$GPRMC,042016.000,A,3344.9390,N,11616.0438,W,60.24,303.38,120410,,,A*4D
$GPRMC,042019.000,A,3344.9640,N,11616.0955,W,60.04,297.66,120410,,,A*49
$GPRMC,042022.000,A,3344.9849,N,11616.1502,W,60.00,291.95,120410,,,A*47
$GPRMC,042025.000,A,3345.0003,N,11616.2075,W,60.04,285.77,120410,,,A*45
$GPRMC,042028.000,A,3345.0111,N,11616.2663,W,59.77,280.81,120410,,,A*49
$GPRMC,042031.000,A,3345.0190,N,11616.3259,W,60.09,279.09,120410,,,A*41
$GPRMC,042034.000,A,3345.0272,N,11616.3853,W,59.94,281.15,120410,,,A*4F
$GPRMC,042037.000,A,3345.0387,N,11616.4437,W,59.99,285.69,120410,,,A*4C
$GPRMC,042040.000,A,3345.0547,N,11616.5005,W,59.83,291.46,120410,,,A*41
$GPRMC,042043.000,A,3345.0753,N,11616.5550,W,59.72,295.80,120410,,,A*40
$GPRMC,042046.000,A,3345.0972,N,11616.6087,W,59.88,295.62,120410,,,A*4D
$GPRMC,042049.000,A,3345.1190,N,11616.6626,W,59.77,295.97,120410,,,A*40
$GPRMC,042052.000,A,3345.1408,N,11616.7163,W,59.85,295.65,120410,,,A*49
$GPRMC,042055.000,A,3345.1629,N,11616.7703,W,60.10,295.82,120410,,,A*40
$GPRMC,042058.000,A,3345.1848,N,11616.8243,W,60.07,295.87,120410,,,A*49
$GPRMC,042101.000,A,3345.2069,N,11616.8784,W,60.21,295.76,120410,,,A*48
$GPRMC,042104.000,A,3345.2288,N,11616.9325,W,60.00,295.96,120410,,,A*43
$GPRMC,042107.000,A,3345.2512,N,11616.9861,W,59.89,296.99,120410,,,A*48
$GPRMC,042110.000,A,3345.2738,N,11617.0394,W,59.82,296.42,120410,,,A*40
$GPRMC,042113.000,A,3345.2956,N,11617.0935,W,60.05,294.89,120410,,,A*44
$GPRMC,042116.000,A,3345.3167,N,11617.1481,W,59.97,294.08,120410,,,A*41
$GPRMC,042119.000,A,3345.3366,N,11617.2032,W,60.07,292.02,120410,,,A*4D
$GPRMC,042122.000,A,3345.3548,N,11617.2590,W,59.94,291.06,120410,,,A*45
$GPRMC,042125.000,A,3345.3721,N,11617.3151,W,59.88,289.79,120410,,,A*4B
$GPRMC,042128.000,A,3345.3891,N,11617.3713,W,59.90,290.22,120410,,,A*4D
$GPRMC,042131.000,A,3345.4060,N,11617.4278,W,60.25,290.01,120410,,,A*4E
$GPRMC,042134.000,A,3345.4230,N,11617.4843,W,60.11,289.74,120410,,,A*43
$GPRMC,042137.000,A,3345.4399,N,11617.5407,W,59.90,289.82,120410,,,A*45
$GPRMC,042140.000,A,3345.4564,N,11617.5972,W,59.99,289.84,120410,,,A*41
$GPRMC,042143.000,A,3345.4735,N,11617.6536,W,60.04,289.92,120410,,,A*42
$GPRMC,042146.000,A,3345.4907,N,11617.7099,W,59.92,290.44,120410,,,A*4F
$GPRMC,042149.000,A,3345.5084,N,11617.7660,W,59.81,291.20,120410,,,A*42
$GPRMC,042152.000,A,3345.5280,N,11617.8209,W,59.87,295.02,120410,,,A*48
$GPRMC,042155.000,A,3345.5507,N,11617.8742,W,59.83,298.56,120410,,,A*45
$GPRMC,042158.000,A,3345.5746,N,11617.9268,W,59.88,297.74,120410,,,A*47
$GPRMC,042201.000,A,3345.5979,N,11617.9799,W,59.93,297.64,120410,,,A*4A
$GPRMC,042204.000,A,3345.6197,N,11618.0341,W,60.20,294.04,120410,,,A*44
$GPRMC,042207.000,A,3345.6383,N,11618.0895,W,60.08,290.31,120410,,,A*4A
$GPRMC,042210.000,A,3345.6535,N,11618.1467,W,59.92,286.72,120410,,,A*4E
$GPRMC,042213.000,A,3345.6663,N,11618.2047,W,60.03,283.73,120410,,,A*4E
$GPRMC,042216.000,A,3345.6766,N,11618.2634,W,59.86,281.71,120410,,,A*4A
$GPRMC,042219.000,A,3345.6864,N,11618.3223,W,60.04,281.31,120410,,,A*4F
$GPRMC,042222.000,A,3345.6970,N,11618.3810,W,60.05,283.77,120410,,,A*48
$GPRMC,042225.000,A,3345.7104,N,11618.4381,W,57.67,287.44,120410,,,A*45
$GPRMC,042228.000,A,3345.7251,N,11618.4909,W,53.83,289.66,120410,,,A*41
$GPRMC,042231.000,A,3345.7396,N,11618.5406,W,53.73,288.50,120410,,,A*4B
$GPRMC,042234.000,A,3345.7546,N,11618.5933,W,57.38,289.37,120410,,,A*45
$GPRMC,042237.000,A,3345.7709,N,11618.6490,W,59.63,289.42,120410,,,A*4A
$GPRMC,042240.000,A,3345.7876,N,11618.7057,W,60.18,289.57,120410,,,A*41
$GPRMC,042243.000,A,3345.8049,N,11618.7625,W,60.23,290.18,120410,,,A*41
$GPRMC,042246.000,A,3345.8218,N,11618.8190,W,59.83,289.66,120410,,,A*45
$GPRMC,042249.000,A,3345.8389,N,11618.8754,W,59.87,290.06,120410,,,A*47
$GPRMC,042252.000,A,3345.8561,N,11618.9318,W,59.93,290.05,120410,,,A*46
$GPRMC,042255.000,A,3345.8734,N,11618.9882,W,60.16,290.21,120410,,,A*4A
$GPRMC,042258.000,A,3345.8906,N,11619.0448,W,60.19,290.20,120410,,,A*44
$GPRMC,042301.000,A,3345.9094,N,11619.1005,W,60.00,294.16,120410,,,A*4F
$GPRMC,042304.000,A,3345.9312,N,11619.1546,W,59.99,297.03,120410,,,A*48
$GPRMC,042307.000,A,3345.9546,N,11619.2075,W,59.72,298.55,120410,,,A*43
$GPRMC,042310.000,A,3345.9790,N,11619.2595,W,59.55,300.12,120410,,,A*41
$GPRMC,042313.000,A,3346.0050,N,11619.3107,W,60.03,301.52,120410,,,A*41
$GPRMC,042316.000,A,3346.0322,N,11619.3611,W,60.01,303.35,120410,,,A*43
$GPRMC,042319.000,A,3346.0602,N,11619.4106,W,60.09,304.48,120410,,,A*48
$GPRMC,042322.000,A,3346.0889,N,11619.4597,W,60.03,305.48,120410,,,A*4A
$GPRMC,042325.000,A,3346.1181,N,11619.5085,W,60.00,305.19,120410,,,A*4D
$GPRMC,042328.000,A,3346.1469,N,11619.5571,W,59.79,305.53,120410,,,A*47
$GPRMC,042331.000,A,3346.1759,N,11619.6060,W,60.02,305.08,120410,,,A*41
$GPRMC,042334.000,A,3346.2051,N,11619.6549,W,60.15,305.69,120410,,,A*47
$GPRMC,042337.000,A,3346.2342,N,11619.7039,W,60.17,305.29,120410,,,A*40
$GPRMC,042340.000,A,3346.2633,N,11619.7528,W,59.89,305.48,120410,,,A*4C
$GPRMC,042343.000,A,3346.2922,N,11619.8017,W,60.08,305.41,120410,,,A*4C
$GPRMC,042346.000,A,3346.3210,N,11619.8510,W,59.94,304.01,120410,,,A*4A
$GPRMC,042349.000,A,3346.3493,N,11619.9005,W,60.06,305.11,120410,,,A*49
$GPRMC,042352.000,A,3346.3781,N,11619.9497,W,60.06,305.01,120410,,,A*4D
$GPRMC,042355.000,A,3346.4069,N,11619.9988,W,60.09,305.16,120410,,,A*46
$GPRMC,042358.000,A,3346.4360,N,11620.0477,W,59.91,305.52,120410,,,A*44
$GPRMC,042401.000,A,3346.4646,N,11620.0965,W,59.42,304.89,120410,,,A*49
$GPRMC,042404.000,A,3346.4938,N,11620.1453,W,59.91,305.34,120410,,,A*4A
$GPRMC,042407.000,A,3346.5231,N,11620.1942,W,60.15,305.58,120410,,,A*4B
$GPRMC,042410.000,A,3346.5524,N,11620.2433,W,60.21,305.46,120410,,,A*4E
$GPRMC,042413.000,A,3346.5814,N,11620.2923,W,60.23,305.44,120410,,,A*4F
$GPRMC,042416.000,A,3346.6104,N,11620.3413,W,59.96,305.54,120410,,,A*4B
$GPRMC,042419.000,A,3346.6395,N,11620.3900,W,59.96,305.42,120410,,,A*46
$GPRMC,042422.000,A,3346.6685,N,11620.4390,W,60.02,305.27,120410,,,A*4A
$GPRMC,042425.000,A,3346.6974,N,11620.4880,W,59.87,305.10,120410,,,A*45
$GPRMC,042428.000,A,3346.7264,N,11620.5366,W,59.91,305.46,120410,,,A*45
$GPRMC,042431.000,A,3346.7555,N,11620.5854,W,59.93,305.39,120410,,,A*48
$GPRMC,042434.000,A,3346.7845,N,11620.6342,W,60.02,305.55,120410,,,A*46
$GPRMC,042437.000,A,3346.8138,N,11620.6832,W,60.18,305.46,120410,,,A*4C
$GPRMC,042440.000,A,3346.8429,N,11620.7320,W,59.98,305.38,120410,,,A*4B
$GPRMC,042443.000,A,3346.8719,N,11620.7809,W,60.06,305.69,120410,,,A*41
$GPRMC,042446.000,A,3346.9011,N,11620.8299,W,60.17,305.29,120410,,,A*42
$GPRMC,042449.000,A,3346.9303,N,11620.8788,W,60.14,305.45,120410,,,A*41
$GPRMC,042452.000,A,3346.9593,N,11620.9277,W,60.00,305.47,120410,,,A*47
$GPRMC,042455.000,A,3346.9883,N,11620.9765,W,59.92,305.48,120410,,,A*44
$GPRMC,042458.000,A,3347.0173,N,11621.0253,W,59.87,305.34,120410,,,A*40
$GPRMC,042501.000,A,3347.0463,N,11621.0744,W,60.08,305.13,120410,,,A*42
$GPRMC,042504.000,A,3347.0754,N,11621.1232,W,59.87,305.80,120410,,,A*42
$GPRMC,042507.000,A,3347.1044,N,11621.1722,W,59.85,304.99,120410,,,A*49
$GPRMC,042510.000,A,3347.1334,N,11621.2212,W,60.24,305.72,120410,,,A*4B
$GPRMC,042513.000,A,3347.1625,N,11621.2703,W,60.08,305.38,120410,,,A*48
$GPRMC,042516.000,A,3347.1916,N,11621.3194,W,59.89,305.01,120410,,,A*42
$GPRMC,042519.000,A,3347.2205,N,11621.3683,W,60.04,305.18,120410,,,A*41
$GPRMC,042522.000,A,3347.2496,N,11621.4171,W,60.02,305.50,120410,,,A*42
$GPRMC,042525.000,A,3347.2787,N,11621.4660,W,60.10,305.88,120410,,,A*47
$GPRMC,042528.000,A,3347.3077,N,11621.5150,W,59.77,305.23,120410,,,A*4C
$GPRMC,042531.000,A,3347.3367,N,11621.5640,W,59.94,305.15,120410,,,A*48
$GPRMC,042534.000,A,3347.3655,N,11621.6130,W,59.80,305.13,120410,,,A*49
$GPRMC,042537.000,A,3347.3943,N,11621.6620,W,60.08,305.41,120410,,,A*49
$GPRMC,042540.000,A,3347.4236,N,11621.7107,W,59.97,305.70,120410,,,A*4A
$GPRMC,042543.000,A,3347.4527,N,11621.7595,W,59.89,305.22,120410,,,A*49
$GPRMC,042546.000,A,3347.4815,N,11621.8085,W,59.99,305.38,120410,,,A*41
$GPRMC,042549.000,A,3347.5105,N,11621.8573,W,59.80,305.24,120410,,,A*4E
$GPRMC,042552.000,A,3347.5395,N,11621.9063,W,59.96,305.16,120410,,,A*4C
$GPRMC,042555.000,A,3347.5685,N,11621.9552,W,60.13,305.56,120410,,,A*4B
$GPRMC,042558.000,A,3347.5977,N,11622.0043,W,59.84,305.32,120410,,,A*4D
$GPRMC,042601.000,A,3347.6267,N,11622.0533,W,59.99,305.69,120410,,,A*4B
