NMEA Sentence Code,UTC Time,Status,Latitude,Latitude Direction,Longitude,Longitude Direction,Speed (knots),Track Angle (degrees true),Date,MagneticVariation,Magnetic Variation Direction,[FAA Mode]-Optional,Checksum
$GPRMC,190204.2,A,3303.514369,N,11715.642896,W,5.5,215.7,210510,,,A*7D
$GPRMC,190207.9,A,3303.511555,N,11715.665389,W,19.9,264.3,210510,,,A*4A
$GPRMC,190210.9,A,3303.510360,N,11715.692662,W,26.8,266.6,210510,,,A*4F
$GPRMC,190213.9,A,3303.509055,N,11715.715938,W,18.9,263.9,210510,,,A*49
$GPRMC,190216.9,A,3303.509509,N,11715.727687,W,9.5,268.6,210510,,,A*72
$GPRMC,190219.9,A,3303.509682,N,11715.732749,W,5.5,270.5,210510,,,A*7C
$GPRMC,190346.9,A,3303.504049,N,11715.754554,W,10.8,240.4,210510,,,A*4E
$GPRMC,190349.9,A,3303.490881,N,11715.763105,W,15.9,190.6,210510,,,A*4D
$GPRMC,190352.9,A,3303.460583,N,11715.763958,W,33.3,175.8,210510,,,A*4C
$GPRMC,190355.9,A,3303.426089,N,11715.759227,W,39.0,171.0,210510,,,A*49
$GPRMC,190358.9,A,3303.390255,N,11715.752467,W,38.5,169.8,210510,,,A*41
$GPRMC,190401.9,A,3303.365537,N,11715.745009,W,31.0,162.7,210510,,,A*41
$GPRMC,190404.9,A,3303.350621,N,11715.741053,W,19.3,167.8,210510,,,A*4E
$GPRMC,190407.9,A,3303.342002,N,11715.738876,W,10.1,169.4,210510,,,A*41
$GPRMC,190428.9,A,3303.327904,N,11715.734851,W,10.6,160.0,210510,,,A*43
$GPRMC,190431.9,A,3303.310530,N,11715.727084,W,22.3,161.3,210510,,,A*40
$GPRMC,190434.9,A,3303.284573,N,11715.717368,W,30.0,163.5,210510,,,A*48
$GPRMC,190437.9,A,3303.257771,N,11715.707583,W,32.4,164.6,210510,,,A*45
$GPRMC,190440.9,A,3303.232477,N,11715.698979,W,31.9,164.3,210510,,,A*46
$GPRMC,190443.9,A,3303.204708,N,11715.689811,W,34.8,163.3,210510,,,A*47
$GPRMC,190446.9,A,3303.173167,N,11715.680014,W,35.3,164.1,210510,,,A*45
$GPRMC,190449.9,A,3303.144675,N,11715.670840,W,35.8,163.5,210510,,,A*44
$GPRMC,190452.9,A,3303.114767,N,11715.659010,W,38.5,162.5,210510,,,A*4E
$GPRMC,190455.9,A,3303.081721,N,11715.648851,W,40.2,164.7,210510,,,A*47
$GPRMC,190458.9,A,3303.051810,N,11715.638494,W,36.0,164.6,210510,,,A*4A
$GPRMC,190501.9,A,3303.023719,N,11715.628440,W,32.1,164.4,210510,,,A*4B
$GPRMC,190504.9,A,3303.000767,N,11715.620203,W,27.5,162.6,210510,,,A*4B
$GPRMC,190507.9,A,3302.987019,N,11715.615833,W,17.6,166.3,210510,,,A*4F
$GPRMC,190510.9,A,3302.975860,N,11715.611532,W,12.8,163.7,210510,,,A*40
$GPRMC,190513.9,A,3302.970399,N,11715.610659,W,7.1,167.9,210510,,,A*73
$GPRMC,190516.9,A,3302.965387,N,11715.608055,W,5.9,160.1,210510,,,A*7B
$GPRMC,190519.9,A,3302.959671,N,11715.605895,W,6.1,162.1,210510,,,A*77
$GPRMC,190528.9,A,3302.952170,N,11715.601539,W,6.7,165.4,210510,,,A*73
$GPRMC,190531.9,A,3302.940793,N,11715.598049,W,14.6,162.8,210510,,,A*4B
$GPRMC,190534.9,A,3302.922967,N,11715.595285,W,21.6,167.1,210510,,,A*4A
$GPRMC,190537.9,A,3302.901086,N,11715.588423,W,25.3,168.1,210510,,,A*46
$GPRMC,190540.9,A,3302.876124,N,11715.584342,W,28.7,173.1,210510,,,A*41
$GPRMC,190543.9,A,3302.852516,N,11715.581827,W,28.7,176.1,210510,,,A*49
$GPRMC,190546.9,A,3302.827008,N,11715.581692,W,28.6,179.2,210510,,,A*49
$GPRMC,190549.9,A,3302.806916,N,11715.582307,W,24.3,180.9,210510,,,A*4D
$GPRMC,190552.9,A,3302.790170,N,11715.583380,W,18.2,180.7,210510,,,A*41
$GPRMC,190555.9,A,3302.781190,N,11715.581843,W,11.4,178.9,210510,,,A*48
$GPRMC,190558.9,A,3302.775560,N,11715.580492,W,5.0,170.0,210510,,,A*74
$GPRMC,190619.9,A,3302.770241,N,11715.580525,W,9.0,184.7,210510,,,A*7E
$GPRMC,190622.9,A,3302.745615,N,11715.580066,W,23.0,179.3,210510,,,A*49
$GPRMC,190625.9,A,3302.721482,N,11715.580857,W,26.7,180.2,210510,,,A*4F
$GPRMC,190628.9,A,3302.696840,N,11715.582022,W,29.9,180.9,210510,,,A*4F
$GPRMC,190631.9,A,3302.669734,N,11715.582077,W,32.5,179.5,210510,,,A*47
$GPRMC,190634.9,A,3302.641508,N,11715.583100,W,33.2,179.6,210510,,,A*40
$GPRMC,190637.9,A,3302.611871,N,11715.582632,W,34.6,179.3,210510,,,A*44
$GPRMC,190640.9,A,3302.582226,N,11715.581305,W,34.0,178.7,210510,,,A*44
$GPRMC,190643.9,A,3302.552711,N,11715.582862,W,35.3,180.8,210510,,,A*48
$GPRMC,190646.9,A,3302.522862,N,11715.582740,W,35.4,181.2,210510,,,A*42
$GPRMC,190649.9,A,3302.492945,N,11715.582527,W,36.7,179.7,210510,,,A*42
$GPRMC,190652.9,A,3302.460514,N,11715.580087,W,39.3,178.7,210510,,,A*4A
$GPRMC,190655.9,A,3302.424318,N,11715.579845,W,43.6,180.1,210510,,,A*4E
$GPRMC,190658.9,A,3302.387000,N,11715.578666,W,45.8,175.5,210510,,,A*4F
$GPRMC,190701.9,A,3302.350457,N,11715.569943,W,44.5,168.9,210510,,,A*4A
$GPRMC,190704.9,A,3302.317337,N,11715.561212,W,41.3,164.4,210510,,,A*48
$GPRMC,190707.9,A,3302.289199,N,11715.549169,W,37.4,160.0,210510,,,A*48
$GPRMC,190710.9,A,3302.258106,N,11715.530256,W,41.5,153.5,210510,,,A*40
$GPRMC,190713.9,A,3302.224903,N,11715.507294,W,46.2,150.0,210510,,,A*49
$GPRMC,190716.2,A,3302.197419,N,11715.489679,W,46.4,152.2,210510,,,A*4C
$GPRMC,190719.9,A,3302.155354,N,11715.461602,W,48.2,151.0,210510,,,A*4B
$GPRMC,190722.9,A,3302.118063,N,11715.436128,W,49.4,153.0,210510,,,A*45
$GPRMC,190725.9,A,3302.081515,N,11715.416220,W,48.7,155.1,210510,,,A*4B
$GPRMC,190728.9,A,3302.042204,N,11715.396581,W,50.5,158.4,210510,,,A*4E
$GPRMC,190731.9,A,3302.004422,N,11715.382565,W,48.4,162.0,210510,,,A*4C
$GPRMC,190734.9,A,3301.965872,N,11715.369670,W,48.8,164.3,210510,,,A*46
$GPRMC,190737.9,A,3301.928686,N,11715.359275,W,46.7,167.0,210510,,,A*4A
$GPRMC,190740.9,A,3301.892223,N,11715.349475,W,44.6,170.1,210510,,,A*42
$GPRMC,190743.9,A,3301.854839,N,11715.342510,W,45.4,172.4,210510,,,A*47
$GPRMC,190746.9,A,3301.816903,N,11715.339603,W,47.1,177.6,210510,,,A*41
$GPRMC,190749.9,A,3301.777095,N,11715.338891,W,47.8,178.7,210510,,,A*43
$GPRMC,190752.9,A,3301.737587,N,11715.339529,W,48.1,181.4,210510,,,A*47
$GPRMC,190755.9,A,3301.697770,N,11715.339983,W,48.8,180.9,210510,,,A*48
$GPRMC,190758.9,A,3301.656782,N,11715.339099,W,48.4,179.7,210510,,,A*43
$GPRMC,190801.9,A,3301.619187,N,11715.339465,W,46.6,180.0,210510,,,A*42
$GPRMC,190804.9,A,3301.581020,N,11715.339323,W,45.6,180.0,210510,,,A*4F
$GPRMC,190807.2,A,3301.551235,N,11715.340759,W,45.7,181.8,210510,,,A*43
$GPRMC,190810.2,A,3301.515892,N,11715.340561,W,43.3,181.6,210510,,,A*47
$GPRMC,190813.2,A,3301.479170,N,11715.339266,W,43.6,177.2,210510,,,A*4C
$GPRMC,190816.9,A,3301.433164,N,11715.338043,W,44.4,179.3,210510,,,A*47
$GPRMC,190819.9,A,3301.395513,N,11715.338943,W,46.4,178.9,210510,,,A*47
$GPRMC,190822.2,A,3301.367372,N,11715.337963,W,43.1,178.8,210510,,,A*44
$GPRMC,190825.9,A,3301.334303,N,11715.339220,W,29.2,181.7,210510,,,A*4C
$GPRMC,190828.2,A,3301.324356,N,11715.339832,W,17.5,184.2,210510,,,A*48
$GPRMC,190831.9,A,3301.319819,N,11715.337334,W,5.7,175.4,210510,,,A*7F
$GPRMC,190843.0,A,3301.313990,N,11715.338835,W,9.4,182.9,210510,,,A*76
$GPRMC,190846.0,A,3301.300920,N,11715.338073,W,17.1,175.7,210510,,,A*4C
$GPRMC,190849.9,A,3301.270119,N,11715.337181,W,30.8,179.3,210510,,,A*49
$GPRMC,190852.9,A,3301.237888,N,11715.338364,W,40.4,181.0,210510,,,A*48
$GPRMC,190855.9,A,3301.198132,N,11715.337568,W,46.8,180.5,210510,,,A*4A
$GPRMC,190858.9,A,3301.158689,N,11715.338516,W,47.0,182.0,210510,,,A*44
$GPRMC,190901.9,A,3301.121490,N,11715.340800,W,47.2,182.8,210510,,,A*42
$GPRMC,190904.9,A,3301.079380,N,11715.345246,W,49.3,188.2,210510,,,A*4F
$GPRMC,190907.9,A,3301.040969,N,11715.360734,W,48.8,201.3,210510,,,A*45
$GPRMC,190910.9,A,3301.006721,N,11715.385973,W,49.4,214.3,210510,,,A*4C
$GPRMC,190913.9,A,3300.980883,N,11715.421076,W,46.6,228.4,210510,,,A*4E
$GPRMC,190916.9,A,3300.963340,N,11715.461691,W,47.6,241.9,210510,,,A*4A
$GPRMC,190919.9,A,3300.944888,N,11715.503644,W,45.6,241.0,210510,,,A*49
$GPRMC,190922.9,A,3300.923978,N,11715.537323,W,41.9,226.5,210510,,,A*42
$GPRMC,190925.9,A,3300.891478,N,11715.559438,W,43.5,207.2,210510,,,A*4F
$GPRMC,190928.9,A,3300.853643,N,11715.571680,W,44.5,199.9,210510,,,A*45
$GPRMC,190931.9,A,3300.824404,N,11715.594468,W,43.9,217.5,210510,,,A*41
$GPRMC,190934.2,A,3300.804171,N,11715.616704,W,42.0,222.9,210510,,,A*48
$GPRMC,190937.2,A,3300.779894,N,11715.644500,W,37.8,222.7,210510,,,A*49
$GPRMC,190940.2,A,3300.757989,N,11715.668379,W,33.0,222.6,210510,,,A*43
$GPRMC,190943.2,A,3300.737964,N,11715.690888,W,32.6,222.6,210510,,,A*40
$GPRMC,190946.2,A,3300.719117,N,11715.712326,W,30.1,222.7,210510,,,A*45
$GPRMC,190949.9,A,3300.697426,N,11715.736583,W,29.2,225.3,210510,,,A*46
$GPRMC,190952.9,A,3300.682314,N,11715.758404,W,28.9,230.1,210510,,,A*44
$GPRMC,190955.9,A,3300.671388,N,11715.778278,W,20.3,233.1,210510,,,A*44
$GPRMC,190958.9,A,3300.665044,N,11715.785629,W,7.1,221.1,210510,,,A*79
$GPRMC,191004.9,A,3300.665619,N,11715.787518,W,6.5,256.8,210510,,,A*79
$GPRMC,191007.9,A,3300.661326,N,11715.801466,W,16.2,252.7,210510,,,A*43
$GPRMC,191010.9,A,3300.653351,N,11715.819968,W,22.6,246.1,210510,,,A*4E
$GPRMC,191013.9,A,3300.646170,N,11715.843430,W,25.2,249.1,210510,,,A*4B
$GPRMC,191016.9,A,3300.634785,N,11715.867749,W,27.1,243.9,210510,,,A*4F
$GPRMC,191019.2,A,3300.627576,N,11715.885672,W,24.9,244.4,210510,,,A*43
$GPRMC,191022.2,A,3300.619209,N,11715.908318,W,23.2,246.2,210510,,,A*4C
$GPRMC,191025.9,A,3300.611630,N,11715.930420,W,19.6,247.3,210510,,,A*4C
$GPRMC,191028.9,A,3300.605056,N,11715.949169,W,18.9,252.5,210510,,,A*48
$GPRMC,191031.9,A,3300.604981,N,11715.967499,W,20.3,278.8,210510,,,A*40
$GPRMC,191034.9,A,3300.611508,N,11715.989538,W,25.2,286.6,210510,,,A*4D
$GPRMC,191037.2,A,3300.631418,N,11715.991339,W,24.0,345.5,210510,,,A*47
$GPRMC,191040.9,A,3300.656304,N,11715.991146,W,21.6,5.2,210510,,,A*4E
$GPRMC,191043.9,A,3300.667080,N,11715.966333,W,25.0,67.6,210510,,,A*7A
$GPRMC,191046.9,A,3300.657780,N,11715.941292,W,27.4,115.7,210510,,,A*47
$GPRMC,191049.9,A,3300.634287,N,11715.911855,W,38.1,131.6,210510,,,A*47
$GPRMC,191052.9,A,3300.608528,N,11715.882463,W,43.6,135.2,210510,,,A*49
$GPRMC,191055.9,A,3300.582430,N,11715.852011,W,44.3,135.0,210510,,,A*4B
$GPRMC,191058.9,A,3300.554723,N,11715.822399,W,45.1,134.6,210510,,,A*4C
$GPRMC,191101.9,A,3300.531111,N,11715.787505,W,46.1,131.5,210510,,,A*43
$GPRMC,191104.9,A,3300.499784,N,11715.750973,W,51.6,132.8,210510,,,A*47
$GPRMC,191107.9,A,3300.467971,N,11715.708991,W,55.5,133.4,210510,,,A*4A
$GPRMC,191110.9,A,3300.432680,N,11715.671354,W,57.8,135.9,210510,,,A*45
$GPRMC,191113.9,A,3300.394269,N,11715.627738,W,61.2,136.1,210510,,,A*47
$GPRMC,191116.9,A,3300.355865,N,11715.584918,W,62.2,137.9,210510,,,A*45
$GPRMC,191119.9,A,3300.313955,N,11715.546670,W,63.6,144.1,210510,,,A*4C
$GPRMC,191122.9,A,3300.269574,N,11715.515061,W,64.3,150.6,210510,,,A*47
$GPRMC,191125.9,A,3300.217175,N,11715.489816,W,67.0,158.0,210510,,,A*4E
$GPRMC,191128.9,A,3300.163239,N,11715.469518,W,66.2,163.6,210510,,,A*48
$GPRMC,191131.9,A,3300.110049,N,11715.458091,W,64.0,170.1,210510,,,A*42
$GPRMC,191134.9,A,3300.057146,N,11715.449569,W,62.7,171.5,210510,,,A*4D
$GPRMC,191137.9,A,3300.004997,N,11715.441223,W,61.7,172.8,210510,,,A*40
$GPRMC,191140.9,A,3259.956890,N,11715.433425,W,58.9,172.6,210510,,,A*4A
$GPRMC,191143.9,A,3259.908205,N,11715.424981,W,59.4,172.0,210510,,,A*4B
$GPRMC,191146.9,A,3259.857488,N,11715.418694,W,60.0,172.6,210510,,,A*4A
$GPRMC,191149.9,A,3259.805171,N,11715.413666,W,60.6,173.2,210510,,,A*44
$GPRMC,191152.9,A,3259.754736,N,11715.406856,W,59.7,172.9,210510,,,A*48
$GPRMC,191155.9,A,3259.704723,N,11715.396555,W,59.0,171.2,210510,,,A*41
$GPRMC,191158.9,A,3259.652142,N,11715.389840,W,62.3,172.6,210510,,,A*44
$GPRMC,191201.9,A,3259.599131,N,11715.379106,W,64.6,170.7,210510,,,A*4F
$GPRMC,191204.9,A,3259.543334,N,11715.367448,W,68.6,170.7,210510,,,A*46
$GPRMC,191207.9,A,3259.486031,N,11715.357467,W,70.1,171.9,210510,,,A*44
$GPRMC,191210.9,A,3259.431614,N,11715.347490,W,66.8,172.5,210510,,,A*47
$GPRMC,191213.9,A,3259.374131,N,11715.341179,W,68.3,173.8,210510,,,A*4F
$GPRMC,191216.9,A,3259.312210,N,11715.335589,W,71.6,172.9,210510,,,A*4F
$GPRMC,191219.9,A,3259.255753,N,11715.325698,W,69.2,172.0,210510,,,A*46
$GPRMC,191222.9,A,3259.199376,N,11715.318133,W,68.0,173.1,210510,,,A*45
$GPRMC,191225.9,A,3259.146349,N,11715.308450,W,64.8,171.9,210510,,,A*43
$GPRMC,191228.9,A,3259.093195,N,11715.299095,W,62.7,170.8,210510,,,A*49
$GPRMC,191231.9,A,3259.044676,N,11715.284874,W,61.1,164.8,210510,,,A*4A
$GPRMC,191234.9,A,3258.998384,N,11715.267274,W,59.6,163.2,210510,,,A*48
$GPRMC,191237.9,A,3258.944792,N,11715.248733,W,65.6,162.2,210510,,,A*4C
$GPRMC,191240.9,A,3258.891763,N,11715.229350,W,65.3,164.9,210510,,,A*45
$GPRMC,191243.9,A,3258.839745,N,11715.211223,W,66.5,163.4,210510,,,A*41
$GPRMC,191246.9,A,3258.787160,N,11715.190268,W,66.6,162.4,210510,,,A*48
$GPRMC,191249.9,A,3258.734743,N,11715.169795,W,67.1,162.2,210510,,,A*49
$GPRMC,191252.9,A,3258.681221,N,11715.150314,W,66.9,162.7,210510,,,A*46
$GPRMC,191255.9,A,3258.627813,N,11715.132032,W,64.6,163.2,210510,,,A*4C
$GPRMC,191258.9,A,3258.580379,N,11715.112849,W,62.1,162.5,210510,,,A*49
$GPRMC,191301.9,A,3258.532529,N,11715.093613,W,62.3,162.2,210510,,,A*42
$GPRMC,191304.9,A,3258.482135,N,11715.074787,W,63.8,162.9,210510,,,A*40
$GPRMC,191307.9,A,3258.433040,N,11715.056279,W,63.5,162.3,210510,,,A*49
$GPRMC,191310.9,A,3258.383951,N,11715.035858,W,62.6,162.7,210510,,,A*40
$GPRMC,191313.9,A,3258.333463,N,11715.018252,W,62.4,163.4,210510,,,A*4B
$GPRMC,191316.9,A,3258.282339,N,11714.997925,W,63.5,161.9,210510,,,A*46
$GPRMC,191319.9,A,3258.232539,N,11714.979419,W,62.8,161.9,210510,,,A*4A
$GPRMC,191322.9,A,3258.185084,N,11714.960595,W,61.7,162.0,210510,,,A*45
$GPRMC,191325.9,A,3258.134128,N,11714.939168,W,63.5,161.2,210510,,,A*44
$GPRMC,191328.9,A,3258.083963,N,11714.921199,W,63.5,162.3,210510,,,A*46
$GPRMC,191331.9,A,3258.034107,N,11714.903050,W,60.4,162.9,210510,,,A*44
$GPRMC,191334.9,A,3257.986925,N,11714.884988,W,58.1,163.0,210510,,,A*42
$GPRMC,191337.9,A,3257.943593,N,11714.867959,W,55.6,162.0,210510,,,A*43
$GPRMC,191340.9,A,3257.898814,N,11714.851209,W,54.7,162.5,210510,,,A*48
$GPRMC,191343.9,A,3257.856680,N,11714.835643,W,54.0,162.6,210510,,,A*46
$GPRMC,191346.9,A,3257.811602,N,11714.818282,W,57.2,162.4,210510,,,A*4F
$GPRMC,191349.9,A,3257.763556,N,11714.798825,W,59.4,161.9,210510,,,A*4E
$GPRMC,191352.9,A,3257.714657,N,11714.781179,W,61.2,162.6,210510,,,A*4F
$GPRMC,191355.9,A,3257.666222,N,11714.765191,W,61.9,164.2,210510,,,A*4F
$GPRMC,191358.9,A,3257.613471,N,11714.751510,W,64.9,166.9,210510,,,A*46
$GPRMC,191401.9,A,3257.558518,N,11714.735503,W,67.0,167.8,210510,,,A*45
$GPRMC,191404.9,A,3257.503501,N,11714.721571,W,67.3,168.0,210510,,,A*42
$GPRMC,191407.9,A,3257.448516,N,11714.710642,W,68.0,171.1,210510,,,A*4D
$GPRMC,191410.9,A,3257.389270,N,11714.700325,W,68.6,170.5,210510,,,A*40
$GPRMC,191413.9,A,3257.334139,N,11714.689418,W,67.7,170.5,210510,,,A*4C
$GPRMC,191416.9,A,3257.278991,N,11714.678218,W,67.6,170.3,210510,,,A*45
$GPRMC,191419.9,A,3257.225442,N,11714.668819,W,65.8,171.2,210510,,,A*47
$GPRMC,191422.9,A,3257.170226,N,11714.658996,W,65.6,171.3,210510,,,A*42
$GPRMC,191425.9,A,3257.116920,N,11714.648022,W,65.0,170.4,210510,,,A*4F
$GPRMC,191428.9,A,3257.064247,N,11714.637433,W,65.0,171.1,210510,,,A*44
$GPRMC,191431.9,A,3257.005554,N,11714.627398,W,68.2,170.6,210510,,,A*40
$GPRMC,191434.0,A,3256.969753,N,11714.621861,W,64.5,171.1,210510,,,A*4D
$GPRMC,191437.9,A,3256.896919,N,11714.610656,W,65.6,171.2,210510,,,A*4F
$GPRMC,191440.9,A,3256.840750,N,11714.602170,W,66.7,172.1,210510,,,A*45
$GPRMC,191443.9,A,3256.786949,N,11714.592368,W,66.6,171.0,210510,,,A*47
$GPRMC,191446.9,A,3256.728130,N,11714.581238,W,68.6,171.4,210510,,,A*4C
$GPRMC,191449.9,A,3256.670975,N,11714.570493,W,69.6,170.7,210510,,,A*4C
$GPRMC,191452.9,A,3256.614778,N,11714.557495,W,70.8,169.6,210510,,,A*4B
$GPRMC,191455.9,A,3256.552615,N,11714.545058,W,73.6,171.1,210510,,,A*42
$GPRMC,191458.9,A,3256.491759,N,11714.535159,W,72.5,171.3,210510,,,A*4F
$GPRMC,191501.9,A,3256.433224,N,11714.523668,W,71.4,171.2,210510,,,A*44
$GPRMC,191504.9,A,3256.373946,N,11714.512167,W,71.5,172.3,210510,,,A*44
$GPRMC,191507.9,A,3256.315578,N,11714.504305,W,71.2,173.7,210510,,,A*45
$GPRMC,191510.9,A,3256.253524,N,11714.499605,W,73.3,176.1,210510,,,A*49
$GPRMC,191513.9,A,3256.192975,N,11714.495397,W,73.1,176.0,210510,,,A*4D
$GPRMC,191516.9,A,3256.133005,N,11714.490059,W,73.9,176.1,210510,,,A*40
$GPRMC,191519.9,A,3256.070228,N,11714.487226,W,74.3,177.1,210510,,,A*44
$GPRMC,191522.9,A,3256.010698,N,11714.482048,W,72.6,176.5,210510,,,A*4C
$GPRMC,191525.9,A,3255.951083,N,11714.480383,W,71.5,176.5,210510,,,A*4E
$GPRMC,191528.9,A,3255.891407,N,11714.475080,W,71.8,174.7,210510,,,A*41
$GPRMC,191531.9,A,3255.832615,N,11714.463955,W,73.0,171.4,210510,,,A*4B
$GPRMC,191534.9,A,3255.773228,N,11714.451430,W,74.4,168.9,210510,,,A*47
$GPRMC,191537.9,A,3255.711800,N,11714.435970,W,75.4,166.9,210510,,,A*44
$GPRMC,191540.9,A,3255.649733,N,11714.417074,W,76.0,165.3,210510,,,A*44
$GPRMC,191543.9,A,3255.589234,N,11714.396696,W,75.0,164.3,210510,,,A*4C
$GPRMC,191546.9,A,3255.531894,N,11714.376376,W,71.7,164.0,210510,,,A*4F
$GPRMC,191549.9,A,3255.476341,N,11714.355714,W,69.8,163.4,210510,,,A*45
$GPRMC,191552.9,A,3255.422701,N,11714.337454,W,66.5,163.0,210510,,,A*4B
$GPRMC,191555.9,A,3255.372944,N,11714.317614,W,64.0,160.0,210510,,,A*41
$GPRMC,191558.9,A,3255.325683,N,11714.293705,W,62.0,156.7,210510,,,A*42
$GPRMC,191601.9,A,3255.280963,N,11714.267500,W,61.7,152.6,210510,,,A*4F
$GPRMC,191604.9,A,3255.235703,N,11714.237362,W,62.8,149.6,210510,,,A*4D
$GPRMC,191607.9,A,3255.193070,N,11714.202388,W,61.1,144.2,210510,,,A*43
$GPRMC,191610.9,A,3255.151620,N,11714.166411,W,61.8,141.1,210510,,,A*41
$GPRMC,191613.9,A,3255.111616,N,11714.122908,W,64.6,137.3,210510,,,A*4E
$GPRMC,191616.9,A,3255.071634,N,11714.076795,W,67.3,134.2,210510,,,A*42
$GPRMC,191619.9,A,3255.030607,N,11714.022800,W,72.1,131.1,210510,,,A*4A
$GPRMC,191622.9,A,3254.991666,N,11713.966315,W,72.6,129.7,210510,,,A*4F
$GPRMC,191625.9,A,3254.951644,N,11713.913539,W,70.5,132.2,210510,,,A*40
$GPRMC,191628.9,A,3254.911642,N,11713.866826,W,67.6,137.8,210510,,,A*45
$GPRMC,191631.9,A,3254.865269,N,11713.824364,W,69.3,143.9,210510,,,A*40
$GPRMC,191634.9,A,3254.816693,N,11713.791502,W,68.0,150.3,210510,,,A*4D
$GPRMC,191637.9,A,3254.766126,N,11713.759527,W,68.9,151.8,210510,,,A*4F
$GPRMC,191640.9,A,3254.713576,N,11713.728027,W,70.3,152.2,210510,,,A*45
$GPRMC,191643.9,A,3254.664528,N,11713.696683,W,69.2,151.9,210510,,,A*41
$GPRMC,191646.9,A,3254.611072,N,11713.661997,W,70.0,151.7,210510,,,A*4A
$GPRMC,191649.9,A,3254.559624,N,11713.628652,W,70.0,151.9,210510,,,A*4A
$GPRMC,191652.9,A,3254.507148,N,11713.594819,W,70.6,152.1,210510,,,A*4E
$GPRMC,191655.9,A,3254.452154,N,11713.560968,W,73.6,152.2,210510,,,A*49
$GPRMC,191658.2,A,3254.408781,N,11713.535872,W,73.5,154.5,210510,,,A*46
$GPRMC,191701.9,A,3254.344759,N,11713.497676,W,72.1,152.3,210510,,,A*4C
$GPRMC,191704.9,A,3254.292412,N,11713.465347,W,72.8,149.6,210510,,,A*43
$GPRMC,191707.9,A,3254.241746,N,11713.426252,W,73.3,147.0,210510,,,A*4C
$GPRMC,191710.2,A,3254.202517,N,11713.390650,W,73.8,145.1,210510,,,A*44
$GPRMC,191713.9,A,3254.141618,N,11713.330097,W,76.1,140.9,210510,,,A*42
$GPRMC,191716.9,A,3254.095362,N,11713.283523,W,73.8,140.2,210510,,,A*43
$GPRMC,191719.9,A,3254.045971,N,11713.234213,W,74.4,140.5,210510,,,A*4D
$GPRMC,191722.9,A,3254.000705,N,11713.186444,W,72.8,139.5,210510,,,A*43
$GPRMC,191725.9,A,3253.954590,N,11713.141536,W,72.4,140.5,210510,,,A*48
$GPRMC,191728.9,A,3253.906709,N,11713.095624,W,72.3,141.1,210510,,,A*4A
$GPRMC,191731.9,A,3253.860622,N,11713.052159,W,70.9,141.8,210510,,,A*4C
$GPRMC,191734.9,A,3253.814597,N,11713.011425,W,69.6,142.5,210510,,,A*47
$GPRMC,191737.9,A,3253.771855,N,11712.969749,W,66.6,142.9,210510,,,A*46
$GPRMC,191740.9,A,3253.728632,N,11712.924367,W,71.0,136.0,210510,,,A*4E
$GPRMC,191743.9,A,3253.688194,N,11712.870559,W,73.1,131.4,210510,,,A*46
$GPRMC,191746.9,A,3253.649189,N,11712.810098,W,75.1,127.3,210510,,,A*4A
$GPRMC,191749.9,A,3253.615020,N,11712.749770,W,75.7,123.3,210510,,,A*4E
$GPRMC,191752.9,A,3253.581906,N,11712.682316,W,77.2,119.0,210510,,,A*48
$GPRMC,191755.9,A,3253.556027,N,11712.613711,W,77.2,114.8,210510,,,A*41
$GPRMC,191758.9,A,3253.530066,N,11712.545124,W,76.4,114.2,210510,,,A*44
$GPRMC,191801.9,A,3253.499935,N,11712.476985,W,76.4,118.0,210510,,,A*46
$GPRMC,191804.9,A,3253.463962,N,11712.416786,W,72.7,126.1,210510,,,A*44
$GPRMC,191807.9,A,3253.428579,N,11712.364786,W,65.7,130.3,210510,,,A*4F
$GPRMC,191810.9,A,3253.387842,N,11712.321645,W,63.6,137.0,210510,,,A*42
$GPRMC,191813.9,A,3253.347282,N,11712.282904,W,62.5,141.7,210510,,,A*4D
$GPRMC,191816.9,A,3253.303577,N,11712.248687,W,59.5,146.9,210510,,,A*46
$GPRMC,191819.9,A,3253.261693,N,11712.219007,W,56.1,151.5,210510,,,A*4E
$GPRMC,191822.2,A,3253.231117,N,11712.200757,W,53.7,155.7,210510,,,A*4C
$GPRMC,191825.9,A,3253.179249,N,11712.177424,W,54.0,160.3,210510,,,A*41
$GPRMC,191828.9,A,3253.135177,N,11712.163814,W,53.0,165.4,210510,,,A*45
$GPRMC,191831.9,A,3253.094115,N,11712.149825,W,52.0,164.7,210510,,,A*4A
$GPRMC,191834.2,A,3253.059597,N,11712.139104,W,49.1,165.8,210510,,,A*43
$GPRMC,191837.2,A,3253.026860,N,11712.128678,W,34.5,165.6,210510,,,A*41
$GPRMC,191840.2,A,3252.998684,N,11712.120613,W,34.4,166.0,210510,,,A*49
$GPRMC,191843.9,A,3252.963395,N,11712.109722,W,36.4,163.8,210510,,,A*47
$GPRMC,191846.9,A,3252.929105,N,11712.099679,W,42.4,166.1,210510,,,A*4F
$GPRMC,191849.9,A,3252.893283,N,11712.088552,W,46.1,165.5,210510,,,A*41
$GPRMC,191852.9,A,3252.853301,N,11712.076954,W,48.8,166.5,210510,,,A*43
$GPRMC,191855.9,A,3252.812110,N,11712.069138,W,49.5,167.4,210510,,,A*43
$GPRMC,191858.9,A,3252.769951,N,11712.057957,W,49.5,168.4,210510,,,A*43
$GPRMC,191901.9,A,3252.726759,N,11712.044440,W,52.4,165.9,210510,,,A*41
$GPRMC,191904.9,A,3252.685997,N,11712.029836,W,52.9,164.3,210510,,,A*40
$GPRMC,191907.9,A,3252.641679,N,11712.016298,W,54.1,165.2,210510,,,A*48
$GPRMC,191910.9,A,3252.598144,N,11712.001852,W,54.0,164.1,210510,,,A*49
$GPRMC,191913.9,A,3252.555238,N,11711.982521,W,54.9,158.7,210510,,,A*4B
$GPRMC,191917.2,A,3252.510285,N,11711.961159,W,52.3,156.4,210510,,,A*44
$GPRMC,191920.0,A,3252.468681,N,11711.938678,W,59.3,153.6,210510,,,A*48
$GPRMC,191923.9,A,3252.411731,N,11711.902110,W,56.8,149.5,210510,,,A*4A
$GPRMC,191926.9,A,3252.370204,N,11711.872749,W,57.8,147.2,210510,,,A*48
$GPRMC,191929.9,A,3252.330638,N,11711.839378,W,59.3,143.9,210510,,,A*4B
$GPRMC,191932.9,A,3252.289572,N,11711.803581,W,60.1,142.4,210510,,,A*42
$GPRMC,191935.9,A,3252.251407,N,11711.766595,W,60.3,140.3,210510,,,A*4D
$GPRMC,191938.9,A,3252.214999,N,11711.728849,W,60.4,140.1,210510,,,A*48
$GPRMC,191942.2,A,3252.166835,N,11711.685940,W,63.1,144.2,210510,,,A*40
$GPRMC,191945.9,A,3252.116476,N,11711.641121,W,62.3,142.8,210510,,,A*48
$GPRMC,191948.9,A,3252.077588,N,11711.598873,W,63.8,139.6,210510,,,A*42
$GPRMC,191951.9,A,3252.035686,N,11711.557162,W,66.3,140.6,210510,,,A*4B
$GPRMC,191954.9,A,3251.993135,N,11711.515352,W,67.4,140.9,210510,,,A*49
$GPRMC,191957.9,A,3251.946881,N,11711.472820,W,67.0,141.3,210510,,,A*45
$GPRMC,192000.9,A,3251.904512,N,11711.432677,W,66.8,141.4,210510,,,A*4A
$GPRMC,192003.9,A,3251.859762,N,11711.391826,W,67.2,141.9,210510,,,A*47
$GPRMC,192006.9,A,3251.815341,N,11711.351015,W,67.9,141.5,210510,,,A*4C
$GPRMC,192009.9,A,3251.775026,N,11711.308025,W,66.3,140.0,210510,,,A*48
$GPRMC,192012.9,A,3251.731178,N,11711.266088,W,66.7,141.2,210510,,,A*41
$GPRMC,192015.9,A,3251.687005,N,11711.226812,W,64.8,141.2,210510,,,A*43
$GPRMC,192018.9,A,3251.642397,N,11711.184641,W,66.6,143.2,210510,,,A*42
$GPRMC,192021.9,A,3251.597567,N,11711.148478,W,65.7,146.8,210510,,,A*4F
$GPRMC,192024.9,A,3251.550523,N,11711.117194,W,64.8,150.5,210510,,,A*48
$GPRMC,192027.9,A,3251.502919,N,11711.086818,W,64.7,153.0,210510,,,A*44
$GPRMC,192030.9,A,3251.452891,N,11711.059728,W,65.0,153.5,210510,,,A*4A
$GPRMC,192033.9,A,3251.407534,N,11711.031494,W,63.9,152.4,210510,,,A*4E
$GPRMC,192036.9,A,3251.357883,N,11710.999854,W,65.6,152.1,210510,,,A*4E
$GPRMC,192039.9,A,3251.313454,N,11710.970206,W,63.9,152.0,210510,,,A*45
$GPRMC,192042.9,A,3251.266065,N,11710.939868,W,64.7,151.5,210510,,,A*4C
$GPRMC,192045.9,A,3251.214968,N,11710.909823,W,68.9,152.1,210510,,,A*43
$GPRMC,192048.9,A,3251.165282,N,11710.883050,W,65.0,154.4,210510,,,A*4C
$GPRMC,192051.9,A,3251.114004,N,11710.853119,W,66.3,153.8,210510,,,A*44
$GPRMC,192054.9,A,3251.063018,N,11710.822567,W,69.0,153.1,210510,,,A*43
$GPRMC,192057.9,A,3251.012458,N,11710.792955,W,68.6,153.3,210510,,,A*4A
$GPRMC,192100.9,A,3250.959929,N,11710.760580,W,70.4,152.6,210510,,,A*43
$GPRMC,192103.9,A,3250.908859,N,11710.731194,W,68.9,153.4,210510,,,A*40
$GPRMC,192106.9,A,3250.859614,N,11710.702074,W,63.8,154.4,210510,,,A*45
$GPRMC,192109.9,A,3250.814378,N,11710.674255,W,62.5,152.3,210510,,,A*40
$GPRMC,192112.9,A,3250.771448,N,11710.647847,W,58.8,152.4,210510,,,A*48
$GPRMC,192115.9,A,3250.727383,N,11710.620898,W,58.1,153.3,210510,,,A*40
$GPRMC,192118.9,A,3250.688555,N,11710.597172,W,56.6,152.9,210510,,,A*44
$GPRMC,192121.9,A,3250.644240,N,11710.569924,W,58.7,152.2,210510,,,A*43
$GPRMC,192124.9,A,3250.602437,N,11710.543493,W,57.9,152.5,210510,,,A*4D
$GPRMC,192127.9,A,3250.556652,N,11710.515969,W,60.3,153.7,210510,,,A*4B
$GPRMC,192131.2,A,3250.506884,N,11710.485315,W,63.3,152.5,210510,,,A*4E
$GPRMC,192134.9,A,3250.445982,N,11710.446155,W,66.4,151.1,210510,,,A*4D
$GPRMC,192137.2,A,3250.407755,N,11710.423728,W,65.5,153.1,210510,,,A*48
$GPRMC,192140.9,A,3250.350025,N,11710.388502,W,62.8,153.4,210510,,,A*45
$GPRMC,192143.9,A,3250.303315,N,11710.360301,W,63.9,152.5,210510,,,A*43
$GPRMC,192146.9,A,3250.258475,N,11710.330103,W,61.5,151.2,210510,,,A*47
$GPRMC,192149.9,A,3250.211970,N,11710.302508,W,61.4,152.4,210510,,,A*47
$GPRMC,192152.9,A,3250.168441,N,11710.276992,W,57.6,152.6,210510,,,A*47
$GPRMC,192155.9,A,3250.125207,N,11710.250869,W,58.3,152.7,210510,,,A*47
$GPRMC,192158.9,A,3250.078947,N,11710.222584,W,58.4,152.9,210510,,,A*4E
$GPRMC,192201.9,A,3250.033374,N,11710.196248,W,60.6,153.0,210510,,,A*4E
$GPRMC,192204.2,A,3249.999500,N,11710.176680,W,59.7,153.0,210510,,,A*41
$GPRMC,192207.2,A,3249.956194,N,11710.149494,W,54.2,152.7,210510,,,A*4D
$GPRMC,192210.2,A,3249.917818,N,11710.126049,W,50.1,152.9,210510,,,A*47
$GPRMC,192213.2,A,3249.880597,N,11710.103467,W,50.1,153.2,210510,,,A*44
$GPRMC,192216.2,A,3249.840365,N,11710.080888,W,55.1,153.7,210510,,,A*41
$GPRMC,192219.9,A,3249.790377,N,11710.047837,W,57.8,151.6,210510,,,A*43
$GPRMC,192222.9,A,3249.747102,N,11710.022010,W,57.0,153.2,210510,,,A*41
$GPRMC,192225.9,A,3249.702182,N,11709.996332,W,59.4,152.8,210510,,,A*43
$GPRMC,192228.9,A,3249.658178,N,11709.967364,W,58.6,153.3,210510,,,A*41
$GPRMC,192231.9,A,3249.616045,N,11709.945347,W,56.7,153.8,210510,,,A*49
$GPRMC,192234.9,A,3249.577558,N,11709.922046,W,53.1,154.1,210510,,,A*4F
$GPRMC,192237.9,A,3249.539991,N,11709.900165,W,49.2,155.5,210510,,,A*42
$GPRMC,192240.9,A,3249.504503,N,11709.880952,W,46.9,157.2,210510,,,A*4F
$GPRMC,192243.9,A,3249.466849,N,11709.862711,W,48.0,157.1,210510,,,A*4B
$GPRMC,192246.9,A,3249.432786,N,11709.847151,W,44.5,158.7,210510,,,A*46
$GPRMC,192249.9,A,3249.397351,N,11709.837714,W,40.6,174.2,210510,,,A*43
$GPRMC,192252.9,A,3249.367433,N,11709.845633,W,33.4,193.3,210510,,,A*4A
$GPRMC,192255.9,A,3249.351899,N,11709.850343,W,20.1,191.8,210510,,,A*4C
$GPRMC,192258.9,A,3249.338014,N,11709.855704,W,19.8,196.1,210510,,,A*4C
$GPRMC,192307.9,A,3249.337591,N,11709.857654,W,5.3,196.7,210510,,,A*76
$GPRMC,192310.9,A,3249.331570,N,11709.857650,W,7.7,190.9,210510,,,A*73
$GPRMC,192558.9,A,3249.293970,N,11709.865513,W,6.5,213.7,210510,,,A*7C
$GPRMC,192601.9,A,3249.290493,N,11709.868112,W,4.4,214.7,210510,,,A*7C
$GPRMC,192604.9,A,3249.287787,N,11709.871784,W,4.7,234.1,210510,,,A*7F
$GPRMC,192607.9,A,3249.287361,N,11709.878254,W,6.5,255.5,210510,,,A*72
$GPRMC,192610.9,A,3249.284554,N,11709.885287,W,7.0,253.0,210510,,,A*7C
$GPRMC,192806.9,A,3249.275393,N,11709.902006,W,8.6,252.1,210510,,,A*7A
$GPRMC,192809.9,A,3249.274085,N,11709.917562,W,12.4,257.1,210510,,,A*4F
$GPRMC,192812.9,A,3249.270078,N,11709.933929,W,13.3,252.7,210510,,,A*43
$GPRMC,192815.2,A,3249.268216,N,11709.940344,W,8.6,246.9,210510,,,A*7D
$GPRMC,192818.9,A,3249.265714,N,11709.943617,W,4.7,240.8,210510,,,A*7B
$GPRMC,192824.9,A,3249.262546,N,11709.951592,W,4.5,239.0,210510,,,A*7F
$GPRMC,192827.9,A,3249.260897,N,11709.957184,W,6.2,245.6,210510,,,A*72
$GPRMC,192830.9,A,3249.257076,N,11709.964785,W,7.6,244.5,210510,,,A*77
$GPRMC,192833.9,A,3249.255602,N,11709.969682,W,4.4,254.9,210510,,,A*74
$GPRMC,193048.9,A,3249.246452,N,11709.985859,W,10.8,243.7,210510,,,A*4F
$GPRMC,193051.9,A,3249.239719,N,11710.002341,W,11.3,232.1,210510,,,A*45
$GPRMC,193054.9,A,3249.230815,N,11710.015592,W,11.2,189.0,210510,,,A*47
$GPRMC,193057.9,A,3249.220454,N,11710.013209,W,14.4,135.1,210510,,,A*4A
$GPRMC,193100.9,A,3249.216893,N,11709.992565,W,23.3,100.9,210510,,,A*43
$GPRMC,193103.2,A,3249.215856,N,11709.973226,W,23.8,94.0,210510,,,A*70
$GPRMC,193106.2,A,3249.215932,N,11709.949219,W,23.7,91.1,210510,,,A*78
$GPRMC,193109.2,A,3249.215419,N,11709.922844,W,27.2,88.5,210510,,,A*71
$GPRMC,193112.9,A,3249.214095,N,11709.890260,W,29.3,91.9,210510,,,A*7E
$GPRMC,193115.9,A,3249.214754,N,11709.864227,W,26.4,88.3,210510,,,A*71
$GPRMC,193118.9,A,3249.216647,N,11709.838620,W,24.7,84.8,210510,,,A*71
$GPRMC,193121.9,A,3249.210321,N,11709.817153,W,21.8,108.1,210510,,,A*40
$GPRMC,193124.9,A,3249.197991,N,11709.803367,W,19.6,141.8,210510,,,A*49
$GPRMC,193127.9,A,3249.172144,N,11709.804806,W,27.6,176.1,210510,,,A*4A
$GPRMC,193130.9,A,3249.148322,N,11709.796895,W,31.0,165.0,210510,,,A*4B
$GPRMC,193133.9,A,3249.122976,N,11709.782778,W,34.5,150.8,210510,,,A*48
$GPRMC,193136.9,A,3249.099650,N,11709.759322,W,40.5,136.5,210510,,,A*44
$GPRMC,193139.9,A,3249.071002,N,11709.726168,W,44.9,132.7,210510,,,A*46
$GPRMC,193142.9,A,3249.046819,N,11709.697367,W,39.4,136.1,210510,,,A*4F
$GPRMC,193145.9,A,3249.026217,N,11709.680047,W,27.4,148.3,210510,,,A*49
$GPRMC,193148.9,A,3249.010223,N,11709.670570,W,24.0,151.0,210510,,,A*44
$GPRMC,193151.9,A,3248.992715,N,11709.660007,W,24.9,150.7,210510,,,A*45
$GPRMC,193154.9,A,3248.972521,N,11709.645001,W,26.6,150.1,210510,,,A*41
$GPRMC,193157.9,A,3248.956337,N,11709.634096,W,20.6,152.4,210510,,,A*4C
$GPRMC,193200.9,A,3248.940362,N,11709.626414,W,20.5,153.5,210510,,,A*44
$GPRMC,193203.9,A,3248.923936,N,11709.618872,W,22.6,154.9,210510,,,A*42
$GPRMC,193206.9,A,3248.905855,N,11709.606284,W,25.4,153.3,210510,,,A*43
$GPRMC,193209.9,A,3248.887912,N,11709.599463,W,22.7,163.3,210510,,,A*48
$GPRMC,193212.9,A,3248.868829,N,11709.595565,W,23.2,170.9,210510,,,A*4D
$GPRMC,193215.9,A,3248.850032,N,11709.593203,W,22.6,177.5,210510,,,A*4C
$GPRMC,193218.9,A,3248.833546,N,11709.593248,W,20.1,179.5,210510,,,A*46
$GPRMC,193221.9,A,3248.819298,N,11709.595321,W,16.4,183.0,210510,,,A*48
$GPRMC,193224.9,A,3248.805908,N,11709.595166,W,19.0,180.1,210510,,,A*4A
$GPRMC,193227.9,A,3248.786075,N,11709.591445,W,22.6,174.8,210510,,,A*42
$GPRMC,193230.9,A,3248.764349,N,11709.596369,W,25.0,186.6,210510,,,A*48
$GPRMC,193233.9,A,3248.739651,N,11709.595733,W,28.5,180.3,210510,,,A*4C
$GPRMC,193236.9,A,3248.718440,N,11709.597568,W,24.8,182.9,210510,,,A*4F
$GPRMC,193239.9,A,3248.697755,N,11709.597961,W,24.3,179.4,210510,,,A*46
$GPRMC,193242.9,A,3248.678060,N,11709.595568,W,24.6,179.8,210510,,,A*44
$GPRMC,193245.2,A,3248.661407,N,11709.595462,W,26.4,175.2,210510,,,A*48
$GPRMC,193248.9,A,3248.636994,N,11709.594668,W,24.5,181.2,210510,,,A*4A
$GPRMC,193251.9,A,3248.618787,N,11709.596297,W,22.8,180.6,210510,,,A*4A
$GPRMC,193254.9,A,3248.603563,N,11709.594827,W,19.3,177.8,210510,,,A*4B
$GPRMC,193257.9,A,3248.586203,N,11709.593035,W,20.4,178.4,210510,,,A*45
$GPRMC,193300.9,A,3248.571818,N,11709.594878,W,15.8,183.9,210510,,,A*4B
$GPRMC,193303.9,A,3248.562028,N,11709.595922,W,11.2,177.7,210510,,,A*45
$GPRMC,193306.9,A,3248.554689,N,11709.594538,W,8.3,180.0,210510,,,A*78
$GPRMC,193309.9,A,3248.545019,N,11709.596096,W,14.0,179.7,210510,,,A*44
$GPRMC,193312.9,A,3248.526453,N,11709.597928,W,24.3,182.1,210510,,,A*4E
$GPRMC,193315.9,A,3248.499327,N,11709.597422,W,28.2,179.5,210510,,,A*42
$GPRMC,193318.9,A,3248.479028,N,11709.596206,W,22.8,177.0,210510,,,A*47
$GPRMC,193321.9,A,3248.471061,N,11709.597331,W,10.2,183.4,210510,,,A*48
$GPRMC,193324.9,A,3248.459619,N,11709.598817,W,17.5,182.3,210510,,,A*48
$GPRMC,193327.9,A,3248.438387,N,11709.599482,W,26.8,181.3,210510,,,A*43
$GPRMC,193330.9,A,3248.411824,N,11709.598488,W,32.7,179.3,210510,,,A*4A
$GPRMC,193333.9,A,3248.383545,N,11709.600664,W,34.1,181.8,210510,,,A*41
$GPRMC,193336.9,A,3248.356376,N,11709.598654,W,34.7,175.6,210510,,,A*48
$GPRMC,193339.9,A,3248.351280,N,11709.599084,W,8.7,184.0,210510,,,A*75
$GPRMC,193342.9,A,3248.348755,N,11709.599767,W,4.5,199.7,210510,,,A*73
$GPRMC,193346.2,A,3248.330176,N,11709.599446,W,20.2,184.2,210510,,,A*4C
$GPRMC,193349.9,A,3248.298404,N,11709.599660,W,29.7,181.0,210510,,,A*46
$GPRMC,193352.9,A,3248.273599,N,11709.599329,W,28.3,181.8,210510,,,A*49
$GPRMC,193355.9,A,3248.261102,N,11709.606685,W,17.8,215.8,210510,,,A*44
$GPRMC,193358.9,A,3248.257985,N,11709.627568,W,24.0,260.3,210510,,,A*49
$GPRMC,193401.9,A,3248.258535,N,11709.662468,W,33.7,270.3,210510,,,A*4A
$GPRMC,193404.9,A,3248.261007,N,11709.696807,W,32.1,272.1,210510,,,A*48
$GPRMC,193407.9,A,3248.261085,N,11709.721431,W,21.7,267.8,210510,,,A*4C
$GPRMC,193410.9,A,3248.260272,N,11709.731983,W,4.8,270.9,210510,,,A*7B
$GPRMC,193416.9,A,3248.260796,N,11709.738452,W,7.7,261.3,210510,,,A*7C
$GPRMC,193419.9,A,3248.247966,N,11709.743787,W,15.5,204.6,210510,,,A*47
$GPRMC,193422.9,A,3248.228508,N,11709.754061,W,23.2,213.4,210510,,,A*4D
$GPRMC,193425.9,A,3248.216492,N,11709.771086,W,22.9,235.6,210510,,,A*47
$GPRMC,193428.9,A,3248.207850,N,11709.793651,W,25.3,243.4,210510,,,A*46
$GPRMC,193431.9,A,3248.199243,N,11709.809210,W,15.5,228.6,210510,,,A*45
$GPRMC,193434.2,A,3248.194859,N,11709.813882,W,9.6,233.6,210510,,,A*79
$GPRMC,193437.2,A,3248.197475,N,11709.824923,W,12.9,295.0,210510,,,A*4A
$GPRMC,193440.2,A,3248.200711,N,11709.833424,W,7.1,287.7,210510,,,A*72
$GPRMC,193443.2,A,3248.203772,N,11709.840459,W,10.0,310.8,210510,,,A*4E
$GPRMC,193446.2,A,3248.218449,N,11709.846962,W,20.2,343.4,210510,,,A*42
$GPRMC,193450.2,A,3248.236989,N,11709.854726,W,17.4,337.4,210510,,,A*44
