NMEA Sentence Code,UTC Time,Status,Latitude,Latitude Direction,Longitude,Longitude Direction,Speed (knots),Track Angle (degrees true),Date,MagneticVariation,Magnetic Variation Direction,[FAA Mode]-Optional,Checksum
$GPRMC,200637.7,A,3337.322459,N,11742.908098,W,11.9,63.3,180910,,,A*7B
$GPRMC,200640.7,A,3337.323305,N,11742.909142,W,6.0,51.8,180910,,,A*46
$GPRMC,200655.7,A,3337.307528,N,11742.912838,W,12.9,132.9,180910,,,A*4A
$GPRMC,200658.7,A,3337.297901,N,11742.900471,W,17.1,131.8,180910,,,A*45
$GPRMC,200701.7,A,3337.284123,N,11742.885967,W,21.3,137.0,180910,,,A*4D
$GPRMC,200704.7,A,3337.273891,N,11742.873666,W,16.1,139.5,180910,,,A*4A
$GPRMC,200707.7,A,3337.267786,N,11742.869199,W,8.5,148.5,180910,,,A*74
$GPRMC,200710.7,A,3337.263550,N,11742.865035,W,4.7,148.4,180910,,,A*7B
$GPRMC,200725.7,A,3337.254774,N,11742.856262,W,7.1,132.0,180910,,,A*71
$GPRMC,200728.7,A,3337.247764,N,11742.850114,W,11.2,140.7,180910,,,A*4D
$GPRMC,200731.7,A,3337.235381,N,11742.839564,W,18.7,143.0,180910,,,A*4B
$GPRMC,200734.7,A,3337.219430,N,11742.826390,W,22.0,144.3,180910,,,A*44
$GPRMC,200737.7,A,3337.201449,N,11742.814088,W,24.1,143.1,180910,,,A*49
$GPRMC,200740.7,A,3337.183457,N,11742.795252,W,27.1,143.0,180910,,,A*4E
$GPRMC,200743.7,A,3337.162899,N,11742.778114,W,29.2,142.5,180910,,,A*47
$GPRMC,200746.7,A,3337.143043,N,11742.761015,W,30.4,142.9,180910,,,A*44
$GPRMC,200749.7,A,3337.121423,N,11742.744232,W,31.7,144.4,180910,,,A*44
$GPRMC,200752.7,A,3337.100552,N,11742.726645,W,30.1,144.3,180910,,,A*4A
$GPRMC,200755.7,A,3337.081825,N,11742.709902,W,27.2,144.9,180910,,,A*46
$GPRMC,200758.7,A,3337.064577,N,11742.698421,W,24.2,154.5,180910,,,A*41
$GPRMC,200801.7,A,3337.048167,N,11742.691352,W,23.2,158.8,180910,,,A*45
$GPRMC,200804.7,A,3337.027944,N,11742.685807,W,25.9,166.6,180910,,,A*40
$GPRMC,200807.7,A,3337.004073,N,11742.682047,W,28.7,169.9,180910,,,A*47
$GPRMC,200810.7,A,3336.980709,N,11742.679035,W,28.3,171.7,180910,,,A*4D
$GPRMC,200813.7,A,3336.960639,N,11742.669716,W,25.3,161.6,180910,,,A*48
$GPRMC,200816.7,A,3336.943483,N,11742.657444,W,23.8,153.5,180910,,,A*49
$GPRMC,200819.7,A,3336.925729,N,11742.645499,W,23.5,141.1,180910,,,A*4C
$GPRMC,200822.7,A,3336.911913,N,11742.629932,W,21.9,135.8,180910,,,A*46
$GPRMC,200825.7,A,3336.899159,N,11742.613854,W,22.4,132.3,180910,,,A*4C
$GPRMC,200828.7,A,3336.887753,N,11742.597024,W,17.5,132.1,180910,,,A*47
$GPRMC,200831.7,A,3336.880919,N,11742.587367,W,11.3,131.6,180910,,,A*49
$GPRMC,200834.7,A,3336.876871,N,11742.581930,W,7.0,126.7,180910,,,A*77
$GPRMC,200858.7,A,3336.871421,N,11742.569606,W,6.5,128.6,180910,,,A*74
$GPRMC,200901.7,A,3336.865042,N,11742.561166,W,13.5,132.3,180910,,,A*4E
$GPRMC,200904.7,A,3336.856472,N,11742.549244,W,15.5,131.2,180910,,,A*41
$GPRMC,200907.7,A,3336.848303,N,11742.536804,W,14.8,127.6,180910,,,A*45
$GPRMC,200910.7,A,3336.841280,N,11742.524642,W,15.2,123.9,180910,,,A*4F
$GPRMC,200913.7,A,3336.838455,N,11742.509121,W,16.4,91.2,180910,,,A*77
$GPRMC,200916.7,A,3336.842402,N,11742.494331,W,16.3,69.4,180910,,,A*7D
$GPRMC,200919.7,A,3336.845932,N,11742.476880,W,18.0,77.5,180910,,,A*75
$GPRMC,200922.7,A,3336.837463,N,11742.455521,W,22.7,109.1,180910,,,A*44
$GPRMC,200925.7,A,3336.819651,N,11742.429910,W,31.3,124.4,180910,,,A*45
$GPRMC,200928.7,A,3336.804448,N,11742.404228,W,31.9,125.5,180910,,,A*4B
$GPRMC,200931.7,A,3336.787420,N,11742.380236,W,32.0,129.6,180910,,,A*48
$GPRMC,200934.7,A,3336.769314,N,11742.355504,W,32.7,132.3,180910,,,A*4B
$GPRMC,200937.7,A,3336.750748,N,11742.330882,W,32.8,133.2,180910,,,A*40
$GPRMC,200940.7,A,3336.732993,N,11742.307571,W,29.7,131.5,180910,,,A*49
$GPRMC,200943.7,A,3336.716893,N,11742.286820,W,27.4,134.6,180910,,,A*47
$GPRMC,200946.7,A,3336.700418,N,11742.268637,W,27.5,135.2,180910,,,A*46
$GPRMC,200949.7,A,3336.684301,N,11742.247898,W,29.2,133.0,180910,,,A*40
$GPRMC,200952.7,A,3336.666435,N,11742.224341,W,32.7,132.7,180910,,,A*45
$GPRMC,200955.7,A,3336.647518,N,11742.197885,W,35.6,130.4,180910,,,A*40
$GPRMC,200958.7,A,3336.627231,N,11742.168791,W,38.3,128.7,180910,,,A*4F
$GPRMC,201001.7,A,3336.607373,N,11742.137878,W,39.4,126.6,180910,,,A*45
$GPRMC,201004.7,A,3336.588228,N,11742.105285,W,39.5,124.9,180910,,,A*4E
$GPRMC,201007.7,A,3336.571036,N,11742.072507,W,39.2,122.5,180910,,,A*47
$GPRMC,201010.7,A,3336.555269,N,11742.039343,W,38.3,119.4,180910,,,A*4F
$GPRMC,201013.7,A,3336.540976,N,11742.006023,W,36.0,118.1,180910,,,A*4D
$GPRMC,201016.7,A,3336.527321,N,11741.976174,W,32.9,117.2,180910,,,A*4E
$GPRMC,201019.7,A,3336.515244,N,11741.948954,W,30.5,117.1,180910,,,A*48
$GPRMC,201022.7,A,3336.504120,N,11741.924336,W,27.8,117.8,180910,,,A*47
$GPRMC,201025.7,A,3336.494201,N,11741.900789,W,26.0,117.0,180910,,,A*4F
$GPRMC,201028.7,A,3336.485119,N,11741.879216,W,22.9,117.2,180910,,,A*4B
$GPRMC,201031.7,A,3336.478493,N,11741.863500,W,17.6,116.2,180910,,,A*45
$GPRMC,201035.7,A,3336.473342,N,11741.848485,W,13.2,113.3,180910,,,A*40
$GPRMC,201036.7,A,3336.471225,N,11741.846807,W,12.1,115.7,180910,,,A*49
$GPRMC,201039.7,A,3336.469179,N,11741.839626,W,10.3,117.0,180910,,,A*45
$GPRMC,201042.7,A,3336.464033,N,11741.829243,W,14.1,117.8,180910,,,A*43
$GPRMC,201045.7,A,3336.458278,N,11741.817056,W,15.2,114.9,180910,,,A*4D
$GPRMC,201048.7,A,3336.455064,N,11741.810135,W,6.6,112.5,180910,,,A*7D
$GPRMC,201051.7,A,3336.452863,N,11741.804595,W,6.1,118.6,180910,,,A*78
$GPRMC,201054.7,A,3336.452204,N,11741.800304,W,5.5,121.8,180910,,,A*7F
$GPRMC,201057.7,A,3336.449563,N,11741.795452,W,6.2,120.2,180910,,,A*78
$GPRMC,201100.7,A,3336.447167,N,11741.788696,W,6.9,113.9,180910,,,A*73
$GPRMC,201103.7,A,3336.444544,N,11741.781726,W,8.2,114.8,180910,,,A*76
$GPRMC,201106.7,A,3336.440846,N,11741.770722,W,12.4,117.3,180910,,,A*47
$GPRMC,201109.7,A,3336.436210,N,11741.760024,W,12.3,117.9,180910,,,A*4D
$GPRMC,201112.7,A,3336.431977,N,11741.749572,W,11.7,117.2,180910,,,A*4B
$GPRMC,201115.7,A,3336.426919,N,11741.738849,W,13.7,118.0,180910,,,A*4E
$GPRMC,201118.7,A,3336.421322,N,11741.725267,W,16.1,117.3,180910,,,A*43
$GPRMC,201121.7,A,3336.414688,N,11741.711996,W,15.8,117.0,180910,,,A*41
$GPRMC,201124.7,A,3336.407609,N,11741.697584,W,17.4,120.0,180910,,,A*45
$GPRMC,201127.7,A,3336.399084,N,11741.680586,W,21.0,119.5,180910,,,A*4F
$GPRMC,201130.7,A,3336.390103,N,11741.660847,W,22.5,118.6,180910,,,A*44
$GPRMC,201133.7,A,3336.381607,N,11741.640606,W,22.2,118.1,180910,,,A*4D
$GPRMC,201136.7,A,3336.372518,N,11741.622786,W,21.5,119.4,180910,,,A*44
$GPRMC,201139.7,A,3336.362745,N,11741.599898,W,24.3,118.5,180910,,,A*40
$GPRMC,201142.7,A,3336.352951,N,11741.578341,W,23.9,120.1,180910,,,A*46
$GPRMC,201145.7,A,3336.342570,N,11741.558363,W,23.7,121.0,180910,,,A*43
$GPRMC,201148.7,A,3336.332110,N,11741.537291,W,25.5,122.0,180910,,,A*49
$GPRMC,201151.7,A,3336.318677,N,11741.515816,W,28.3,126.2,180910,,,A*47
$GPRMC,201154.7,A,3336.303506,N,11741.491530,W,30.6,125.4,180910,,,A*40
$GPRMC,201157.7,A,3336.286798,N,11741.466339,W,30.9,127.7,180910,,,A*43
$GPRMC,201200.7,A,3336.271318,N,11741.440700,W,31.6,128.2,180910,,,A*48
$GPRMC,201203.7,A,3336.254291,N,11741.415953,W,32.4,129.3,180910,,,A*45
$GPRMC,201206.7,A,3336.237071,N,11741.389029,W,32.0,129.2,180910,,,A*4A
$GPRMC,201209.7,A,3336.220476,N,11741.365378,W,30.1,127.8,180910,,,A*42
$GPRMC,201212.7,A,3336.204319,N,11741.342299,W,29.3,128.0,180910,,,A*46
$GPRMC,201215.7,A,3336.189994,N,11741.319171,W,28.5,126.3,180910,,,A*49
$GPRMC,201218.7,A,3336.176838,N,11741.296610,W,26.1,124.1,180910,,,A*4F
$GPRMC,201221.7,A,3336.166035,N,11741.276652,W,24.3,123.7,180910,,,A*48
$GPRMC,201224.7,A,3336.155548,N,11741.256308,W,24.7,121.4,180910,,,A*4F
$GPRMC,201227.7,A,3336.144217,N,11741.234555,W,25.8,121.8,180910,,,A*49
$GPRMC,201230.7,A,3336.133397,N,11741.211191,W,26.6,120.0,180910,,,A*49
$GPRMC,201233.7,A,3336.122297,N,11741.188457,W,26.0,118.3,180910,,,A*49
$GPRMC,201236.7,A,3336.112085,N,11741.165251,W,25.6,115.5,180910,,,A*43
$GPRMC,201239.7,A,3336.101991,N,11741.140730,W,26.9,115.8,180910,,,A*46
$GPRMC,201242.7,A,3336.092564,N,11741.114430,W,28.7,115.1,180910,,,A*4C
$GPRMC,201245.7,A,3336.082324,N,11741.087724,W,30.8,114.4,180910,,,A*47
$GPRMC,201248.7,A,3336.071946,N,11741.059380,W,30.3,113.3,180910,,,A*4A
$GPRMC,201251.7,A,3336.060066,N,11741.029467,W,32.1,114.4,180910,,,A*40
$GPRMC,201254.7,A,3336.049554,N,11740.999956,W,31.7,114.2,180910,,,A*45
$GPRMC,201257.7,A,3336.038206,N,11740.970451,W,31.4,114.6,180910,,,A*4A
$GPRMC,201300.7,A,3336.026146,N,11740.940276,W,32.7,115.2,180910,,,A*44
$GPRMC,201303.7,A,3336.013822,N,11740.911246,W,33.5,115.9,180910,,,A*45
$GPRMC,201306.7,A,3336.002518,N,11740.878956,W,35.6,114.3,180910,,,A*4E
$GPRMC,201309.7,A,3335.991685,N,11740.846309,W,33.7,113.0,180910,,,A*48
$GPRMC,201312.7,A,3335.978417,N,11740.817651,W,32.0,115.8,180910,,,A*48
$GPRMC,201315.7,A,3335.968850,N,11740.790195,W,28.4,114.8,180910,,,A*40
$GPRMC,201318.7,A,3335.959715,N,11740.769759,W,21.6,116.0,180910,,,A*40
$GPRMC,201321.7,A,3335.953294,N,11740.751784,W,19.6,113.1,180910,,,A*48
$GPRMC,201324.7,A,3335.946981,N,11740.734191,W,17.8,111.7,180910,,,A*43
$GPRMC,201327.7,A,3335.944109,N,11740.724797,W,9.1,114.2,180910,,,A*7D
$GPRMC,201330.7,A,3335.942308,N,11740.718793,W,5.6,112.9,180910,,,A*73
$GPRMC,201333.7,A,3335.940949,N,11740.714875,W,5.2,114.8,180910,,,A*75
$GPRMC,201336.7,A,3335.938679,N,11740.708989,W,6.3,112.1,180910,,,A*71
$GPRMC,201339.7,A,3335.935990,N,11740.701160,W,10.3,115.4,180910,,,A*48
$GPRMC,201342.7,A,3335.930752,N,11740.686680,W,17.3,116.3,180910,,,A*45
$GPRMC,201345.7,A,3335.921699,N,11740.668499,W,22.7,120.0,180910,,,A*4A
$GPRMC,201348.7,A,3335.910665,N,11740.646600,W,25.7,121.7,180910,,,A*49
$GPRMC,201351.7,A,3335.897807,N,11740.621360,W,30.7,122.3,180910,,,A*44
$GPRMC,201354.7,A,3335.882208,N,11740.593318,W,34.6,125.1,180910,,,A*45
$GPRMC,201357.7,A,3335.862695,N,11740.565961,W,36.3,130.8,180910,,,A*4F
$GPRMC,201400.7,A,3335.841129,N,11740.538524,W,38.2,133.2,180910,,,A*48
$GPRMC,201403.7,A,3335.817128,N,11740.508642,W,40.4,134.2,180910,,,A*47
$GPRMC,201406.7,A,3335.793157,N,11740.480607,W,41.1,137.9,180910,,,A*45
$GPRMC,201409.7,A,3335.765722,N,11740.453697,W,43.8,140.8,180910,,,A*4A
$GPRMC,201412.7,A,3335.736100,N,11740.428457,W,41.8,143.5,180910,,,A*4E
$GPRMC,201415.7,A,3335.710080,N,11740.406561,W,37.2,144.9,180910,,,A*4C
$GPRMC,201418.7,A,3335.685729,N,11740.387684,W,34.3,148.0,180910,,,A*49
$GPRMC,201421.7,A,3335.662705,N,11740.371642,W,31.2,150.8,180910,,,A*42
$GPRMC,201424.7,A,3335.642329,N,11740.358742,W,26.6,152.1,180910,,,A*4C
$GPRMC,201427.7,A,3335.623537,N,11740.348845,W,23.9,156.5,180910,,,A*42
$GPRMC,201430.7,A,3335.606476,N,11740.340061,W,23.3,156.9,180910,,,A*47
$GPRMC,201433.7,A,3335.586305,N,11740.331528,W,27.7,161.1,180910,,,A*4E
$GPRMC,201436.7,A,3335.564266,N,11740.323294,W,28.4,162.4,180910,,,A*4A
$GPRMC,201439.7,A,3335.540695,N,11740.316121,W,28.4,165.8,180910,,,A*4B
$GPRMC,201442.7,A,3335.517721,N,11740.309724,W,29.1,168.7,180910,,,A*40
$GPRMC,201445.7,A,3335.491482,N,11740.305071,W,32.0,171.9,180910,,,A*44
$GPRMC,201448.7,A,3335.463547,N,11740.301317,W,32.9,174.3,180910,,,A*4D
$GPRMC,201451.7,A,3335.437008,N,11740.299739,W,31.9,176.6,180910,,,A*46
$GPRMC,201454.7,A,3335.411422,N,11740.299880,W,29.5,180.4,180910,,,A*48
$GPRMC,201457.7,A,3335.388968,N,11740.299927,W,26.5,180.6,180910,,,A*4E
$GPRMC,201500.7,A,3335.367968,N,11740.300310,W,25.1,181.2,180910,,,A*41
$GPRMC,201503.7,A,3335.348296,N,11740.300473,W,25.1,180.4,180910,,,A*40
$GPRMC,201506.7,A,3335.326701,N,11740.301122,W,27.2,180.9,180910,,,A*4A
$GPRMC,201509.7,A,3335.301582,N,11740.302420,W,28.2,181.5,180910,,,A*4F
$GPRMC,201512.7,A,3335.278336,N,11740.301735,W,28.7,180.1,180910,,,A*47
$GPRMC,201515.7,A,3335.253691,N,11740.302484,W,29.9,181.0,180910,,,A*44
$GPRMC,201518.7,A,3335.227730,N,11740.302886,W,31.4,179.4,180910,,,A*49
$GPRMC,201521.7,A,3335.203517,N,11740.303081,W,28.2,181.5,180910,,,A*44
$GPRMC,201524.7,A,3335.185398,N,11740.304428,W,20.6,182.5,180910,,,A*42
$GPRMC,201527.7,A,3335.171050,N,11740.304199,W,17.6,182.3,180910,,,A*40
$GPRMC,201530.7,A,3335.157031,N,11740.303952,W,17.1,180.7,180910,,,A*4C
$GPRMC,201533.7,A,3335.143406,N,11740.304796,W,15.6,181.2,180910,,,A*4A
$GPRMC,201536.7,A,3335.130943,N,11740.304632,W,15.3,180.9,180910,,,A*47
$GPRMC,201539.7,A,3335.116760,N,11740.305052,W,17.9,179.6,180910,,,A*43
$GPRMC,201542.7,A,3335.099272,N,11740.306114,W,20.3,178.9,180910,,,A*4F
$GPRMC,201545.7,A,3335.081005,N,11740.305741,W,22.9,179.3,180910,,,A*45
$GPRMC,201548.7,A,3335.060847,N,11740.305730,W,25.5,180.5,180910,,,A*44
$GPRMC,201551.7,A,3335.038309,N,11740.306375,W,25.4,181.1,180910,,,A*42
$GPRMC,201554.7,A,3335.018367,N,11740.305680,W,23.1,179.3,180910,,,A*47
$GPRMC,201557.7,A,3335.000203,N,11740.306538,W,22.2,181.2,180910,,,A*49
$GPRMC,201600.7,A,3334.983816,N,11740.307000,W,22.1,180.0,180910,,,A*4A
$GPRMC,201603.7,A,3334.966156,N,11740.306362,W,21.5,180.1,180910,,,A*4F
$GPRMC,201606.7,A,3334.950604,N,11740.307690,W,17.9,181.8,180910,,,A*47
$GPRMC,201609.7,A,3334.939519,N,11740.307920,W,13.5,181.6,180910,,,A*4A
$GPRMC,201612.7,A,3334.928312,N,11740.308090,W,13.4,179.5,180910,,,A*45
$GPRMC,201615.7,A,3334.917546,N,11740.307278,W,13.5,181.6,180910,,,A*47
$GPRMC,201618.7,A,3334.904963,N,11740.307677,W,16.5,179.9,180910,,,A*45
$GPRMC,201621.7,A,3334.888054,N,11740.309755,W,20.6,181.4,180910,,,A*44
$GPRMC,201624.7,A,3334.870566,N,11740.309410,W,21.4,180.5,180910,,,A*43
$GPRMC,201627.7,A,3334.852882,N,11740.309077,W,21.6,179.7,180910,,,A*44
$GPRMC,201630.7,A,3334.833170,N,11740.309695,W,24.6,181.4,180910,,,A*4A
$GPRMC,201633.7,A,3334.811730,N,11740.310210,W,25.8,180.4,180910,,,A*44
$GPRMC,201636.7,A,3334.788686,N,11740.310893,W,27.3,180.6,180910,,,A*48
$GPRMC,201639.7,A,3334.766355,N,11740.311744,W,25.7,181.6,180910,,,A*4F
$GPRMC,201642.7,A,3334.745948,N,11740.310876,W,24.7,179.9,180910,,,A*42
$GPRMC,201645.7,A,3334.726934,N,11740.310375,W,23.1,180.0,180910,,,A*4D
$GPRMC,201648.7,A,3334.706747,N,11740.311618,W,25.0,181.4,180910,,,A*45
$GPRMC,201651.7,A,3334.684203,N,11740.311332,W,26.9,180.4,180910,,,A*45
$GPRMC,201654.7,A,3334.660574,N,11740.312023,W,28.2,180.9,180910,,,A*45
$GPRMC,201657.7,A,3334.635819,N,11740.313339,W,30.0,179.5,180910,,,A*48
$GPRMC,201700.7,A,3334.608381,N,11740.313794,W,32.6,179.5,180910,,,A*48
$GPRMC,201703.7,A,3334.580427,N,11740.314731,W,34.1,180.6,180910,,,A*4F
$GPRMC,201706.7,A,3334.551628,N,11740.316151,W,33.9,181.4,180910,,,A*45
$GPRMC,201709.7,A,3334.522691,N,11740.315879,W,35.2,180.4,180910,,,A*40
$GPRMC,201712.7,A,3334.493186,N,11740.316496,W,36.0,181.1,180910,,,A*4B
$GPRMC,201715.7,A,3334.461375,N,11740.315978,W,38.6,180.0,180910,,,A*49
$GPRMC,201718.7,A,3334.427017,N,11740.317274,W,41.6,180.4,180910,,,A*4E
$GPRMC,201721.7,A,3334.391412,N,11740.317951,W,43.2,179.9,180910,,,A*4E
$GPRMC,201724.7,A,3334.354048,N,11740.318888,W,44.8,181.6,180910,,,A*46
$GPRMC,201727.7,A,3334.315696,N,11740.318937,W,45.9,180.2,180910,,,A*45
$GPRMC,201730.7,A,3334.276028,N,11740.320887,W,46.9,180.5,180910,,,A*41
$GPRMC,201733.7,A,3334.237646,N,11740.320998,W,47.0,180.8,180910,,,A*43
$GPRMC,201736.7,A,3334.197181,N,11740.320351,W,48.8,180.7,180910,,,A*44
$GPRMC,201739.7,A,3334.155646,N,11740.321805,W,50.3,182.1,180910,,,A*44
$GPRMC,201742.7,A,3334.113041,N,11740.325250,W,51.6,184.1,180910,,,A*47
$GPRMC,201745.7,A,3334.069728,N,11740.329796,W,51.6,185.6,180910,,,A*41
$GPRMC,201748.7,A,3334.025632,N,11740.333722,W,51.6,185.6,180910,,,A*4A
$GPRMC,201751.7,A,3333.983198,N,11740.339119,W,51.4,185.8,180910,,,A*4F
$GPRMC,201754.7,A,3333.939732,N,11740.345421,W,52.7,186.6,180910,,,A*45
$GPRMC,201757.7,A,3333.895978,N,11740.350143,W,53.3,185.6,180910,,,A*42
$GPRMC,201800.7,A,3333.850986,N,11740.355284,W,54.6,185.7,180910,,,A*49
$GPRMC,201803.7,A,3333.805935,N,11740.362505,W,55.2,187.0,180910,,,A*48
$GPRMC,201806.7,A,3333.760750,N,11740.368477,W,54.9,185.9,180910,,,A*43
$GPRMC,201809.7,A,3333.714350,N,11740.374015,W,56.0,186.1,180910,,,A*46
$GPRMC,201812.7,A,3333.667926,N,11740.378788,W,55.2,184.8,180910,,,A*47
$GPRMC,201815.7,A,3333.622226,N,11740.380647,W,55.4,183.5,180910,,,A*43
$GPRMC,201818.7,A,3333.575181,N,11740.383071,W,56.2,182.0,180910,,,A*40
$GPRMC,201821.7,A,3333.527220,N,11740.384907,W,56.6,180.7,180910,,,A*4B
$GPRMC,201824.7,A,3333.480779,N,11740.384809,W,56.9,179.4,180910,,,A*4E
$GPRMC,201827.7,A,3333.433553,N,11740.382878,W,56.4,179.1,180910,,,A*47
$GPRMC,201830.7,A,3333.387321,N,11740.381616,W,56.2,179.1,180910,,,A*49
$GPRMC,201833.7,A,3333.339600,N,11740.380437,W,56.0,179.3,180910,,,A*49
$GPRMC,201836.7,A,3333.292816,N,11740.379064,W,56.7,178.8,180910,,,A*4C
$GPRMC,201839.7,A,3333.246207,N,11740.378629,W,57.1,179.5,180910,,,A*45
$GPRMC,201842.7,A,3333.198094,N,11740.377179,W,58.0,178.7,180910,,,A*41
$GPRMC,201845.7,A,3333.148966,N,11740.375974,W,57.9,178.8,180910,,,A*41
$GPRMC,201848.7,A,3333.101471,N,11740.375412,W,58.1,178.9,180910,,,A*41
$GPRMC,201851.7,A,3333.053162,N,11740.372644,W,56.6,178.2,180910,,,A*4C
$GPRMC,201854.7,A,3333.005317,N,11740.372918,W,56.5,179.4,180910,,,A*48
$GPRMC,201857.7,A,3332.957994,N,11740.372657,W,56.8,180.3,180910,,,A*4D
$GPRMC,201900.7,A,3332.909540,N,11740.373168,W,57.5,181.6,180910,,,A*42
$GPRMC,201903.7,A,3332.860704,N,11740.376808,W,58.4,183.5,180910,,,A*48
$GPRMC,201906.7,A,3332.811733,N,11740.381575,W,57.1,184.8,180910,,,A*40
$GPRMC,201909.7,A,3332.765587,N,11740.387361,W,56.9,186.8,180910,,,A*40
$GPRMC,201912.7,A,3332.719144,N,11740.395358,W,57.2,188.2,180910,,,A*4D
$GPRMC,201915.7,A,3332.673335,N,11740.404837,W,57.1,189.5,180910,,,A*4B
$GPRMC,201918.7,A,3332.626478,N,11740.414206,W,58.0,190.0,180910,,,A*42
$GPRMC,201921.7,A,3332.578316,N,11740.425033,W,58.0,190.2,180910,,,A*4B
$GPRMC,201924.7,A,3332.528572,N,11740.435997,W,58.5,189.8,180910,,,A*4E
$GPRMC,201927.7,A,3332.479725,N,11740.446775,W,58.6,190.5,180910,,,A*48
$GPRMC,201930.7,A,3332.430718,N,11740.457946,W,58.9,190.3,180910,,,A*4A
$GPRMC,201933.7,A,3332.383723,N,11740.468463,W,58.6,190.5,180910,,,A*41
$GPRMC,201936.7,A,3332.335355,N,11740.477983,W,59.3,190.5,180910,,,A*45
$GPRMC,201939.7,A,3332.286861,N,11740.487871,W,60.0,188.9,180910,,,A*40
$GPRMC,201942.7,A,3332.236999,N,11740.496650,W,59.9,186.8,180910,,,A*40
$GPRMC,201945.7,A,3332.187060,N,11740.501736,W,59.0,184.0,180910,,,A*4C
$GPRMC,201948.7,A,3332.138395,N,11740.504158,W,58.6,181.9,180910,,,A*4C
$GPRMC,201951.7,A,3332.090019,N,11740.503218,W,57.8,179.6,180910,,,A*49
$GPRMC,201954.7,A,3332.042187,N,11740.500387,W,57.7,177.3,180910,,,A*45
$GPRMC,201957.7,A,3331.994457,N,11740.496973,W,57.4,175.3,180910,,,A*41
$GPRMC,202000.7,A,3331.947552,N,11740.487997,W,56.4,169.0,180910,,,A*46
$GPRMC,202003.7,A,3331.903398,N,11740.471568,W,54.7,160.9,180910,,,A*41
$GPRMC,202006.7,A,3331.861671,N,11740.450731,W,55.6,154.5,180910,,,A*45
$GPRMC,202009.7,A,3331.821175,N,11740.421449,W,56.8,146.9,180910,,,A*45
$GPRMC,202012.7,A,3331.785720,N,11740.385727,W,56.8,138.3,180910,,,A*49
$GPRMC,202015.7,A,3331.752199,N,11740.344046,W,57.1,131.7,180910,,,A*48
$GPRMC,202018.7,A,3331.721236,N,11740.298906,W,58.5,129.8,180910,,,A*47
$GPRMC,202021.7,A,3331.689425,N,11740.254872,W,59.2,130.0,180910,,,A*4E
$GPRMC,202024.7,A,3331.658316,N,11740.209394,W,59.1,130.9,180910,,,A*41
$GPRMC,202027.7,A,3331.624874,N,11740.167612,W,58.8,135.8,180910,,,A*4A
$GPRMC,202030.7,A,3331.587670,N,11740.129280,W,58.2,141.2,180910,,,A*4A
$GPRMC,202033.7,A,3331.547393,N,11740.095949,W,58.4,147.0,180910,,,A*47
$GPRMC,202036.7,A,3331.504963,N,11740.068103,W,57.8,152.3,180910,,,A*40
$GPRMC,202039.7,A,3331.461041,N,11740.044994,W,57.9,157.2,180910,,,A*49
$GPRMC,202042.7,A,3331.415315,N,11740.025012,W,58.6,159.4,180910,,,A*4C
$GPRMC,202045.7,A,3331.368478,N,11740.004589,W,58.6,159.9,180910,,,A*43
$GPRMC,202048.7,A,3331.323111,N,11739.985987,W,57.7,160.7,180910,,,A*4D
$GPRMC,202051.7,A,3331.277330,N,11739.966483,W,59.0,160.7,180910,,,A*49
$GPRMC,202054.7,A,3331.229498,N,11739.948170,W,60.0,162.3,180910,,,A*4B
$GPRMC,202057.7,A,3331.183475,N,11739.929550,W,57.7,161.1,180910,,,A*4B
$GPRMC,202100.7,A,3331.138652,N,11739.909968,W,57.6,160.1,180910,,,A*4A
$GPRMC,202103.7,A,3331.094454,N,11739.891432,W,56.1,159.9,180910,,,A*4C
$GPRMC,202106.7,A,3331.050020,N,11739.872380,W,57.7,160.3,180910,,,A*42
$GPRMC,202109.7,A,3331.005339,N,11739.852769,W,57.1,159.9,180910,,,A*41
$GPRMC,202112.7,A,3330.960112,N,11739.833446,W,57.0,160.3,180910,,,A*43
$GPRMC,202115.7,A,3330.917066,N,11739.813715,W,56.2,159.9,180910,,,A*42
$GPRMC,202118.7,A,3330.872691,N,11739.795043,W,55.7,160.3,180910,,,A*40
$GPRMC,202121.7,A,3330.828940,N,11739.776399,W,56.1,160.5,180910,,,A*4C
$GPRMC,202124.7,A,3330.783188,N,11739.757159,W,57.3,160.9,180910,,,A*49
$GPRMC,202127.7,A,3330.736737,N,11739.739499,W,58.8,162.2,180910,,,A*4A
$GPRMC,202130.7,A,3330.690141,N,11739.721294,W,58.4,161.1,180910,,,A*48
$GPRMC,202133.7,A,3330.644672,N,11739.701890,W,58.5,160.5,180910,,,A*4D
$GPRMC,202136.7,A,3330.598965,N,11739.681750,W,58.1,160.0,180910,,,A*48
$GPRMC,202139.7,A,3330.553538,N,11739.662037,W,58.3,160.0,180910,,,A*4D
$GPRMC,202142.7,A,3330.508553,N,11739.643927,W,57.2,160.4,180910,,,A*43
$GPRMC,202145.7,A,3330.463888,N,11739.626171,W,56.5,161.0,180910,,,A*48
$GPRMC,202148.7,A,3330.419966,N,11739.607294,W,57.0,160.2,180910,,,A*45
$GPRMC,202151.7,A,3330.375524,N,11739.587724,W,57.2,160.6,180910,,,A*49
$GPRMC,202154.7,A,3330.330690,N,11739.568748,W,56.2,160.7,180910,,,A*4A
$GPRMC,202157.7,A,3330.285672,N,11739.551694,W,56.6,163.3,180910,,,A*43
$GPRMC,202200.7,A,3330.240231,N,11739.537745,W,56.7,166.9,180910,,,A*4B
$GPRMC,202203.7,A,3330.193571,N,11739.526424,W,57.9,169.9,180910,,,A*42
$GPRMC,202206.7,A,3330.146495,N,11739.518257,W,56.3,172.6,180910,,,A*45
$GPRMC,202209.7,A,3330.100319,N,11739.511958,W,56.0,174.2,180910,,,A*47
$GPRMC,202212.7,A,3330.053402,N,11739.509707,W,56.7,177.8,180910,,,A*44
$GPRMC,202215.7,A,3330.006156,N,11739.511219,W,56.8,181.8,180910,,,A*42
$GPRMC,202218.7,A,3329.958931,N,11739.515033,W,57.1,184.6,180910,,,A*41
$GPRMC,202221.7,A,3329.911346,N,11739.522325,W,57.7,187.2,180910,,,A*4D
$GPRMC,202224.7,A,3329.864556,N,11739.531418,W,56.1,190.3,180910,,,A*47
$GPRMC,202227.7,A,3329.819587,N,11739.542245,W,54.5,192.6,180910,,,A*49
$GPRMC,202230.7,A,3329.775067,N,11739.556331,W,55.4,195.9,180910,,,A*4E
$GPRMC,202233.7,A,3329.731295,N,11739.574920,W,55.6,199.6,180910,,,A*49
$GPRMC,202236.7,A,3329.688170,N,11739.594439,W,55.5,202.2,180910,,,A*4A
$GPRMC,202239.7,A,3329.647637,N,11739.616568,W,53.8,205.5,180910,,,A*45
$GPRMC,202242.7,A,3329.606769,N,11739.640524,W,53.8,207.7,180910,,,A*4D
$GPRMC,202245.7,A,3329.567574,N,11739.669583,W,54.9,211.2,180910,,,A*42
$GPRMC,202248.7,A,3329.527254,N,11739.700259,W,56.1,212.2,180910,,,A*49
$GPRMC,202251.7,A,3329.488666,N,11739.729031,W,55.6,212.3,180910,,,A*42
$GPRMC,202254.7,A,3329.450995,N,11739.757396,W,55.0,212.1,180910,,,A*42
$GPRMC,202257.7,A,3329.410119,N,11739.788444,W,56.3,211.9,180910,,,A*48
$GPRMC,202300.7,A,3329.371118,N,11739.817306,W,56.6,212.1,180910,,,A*4C
$GPRMC,202303.7,A,3329.331236,N,11739.848090,W,56.6,212.1,180910,,,A*42
$GPRMC,202306.7,A,3329.289506,N,11739.879003,W,58.2,212.0,180910,,,A*42
$GPRMC,202309.7,A,3329.247516,N,11739.909955,W,57.2,211.9,180910,,,A*47
$GPRMC,202312.7,A,3329.207433,N,11739.940849,W,57.5,212.3,180910,,,A*40
$GPRMC,202315.7,A,3329.167953,N,11739.971379,W,55.8,212.6,180910,,,A*49
$GPRMC,202318.7,A,3329.128101,N,11740.001983,W,55.5,214.2,180910,,,A*40
$GPRMC,202321.7,A,3329.093213,N,11740.030731,W,52.6,215.1,180910,,,A*48
$GPRMC,202324.7,A,3329.058022,N,11740.061661,W,53.4,215.6,180910,,,A*4E
$GPRMC,202327.7,A,3329.019427,N,11740.096791,W,53.5,215.6,180910,,,A*4E
$GPRMC,202330.7,A,3328.982676,N,11740.127394,W,53.0,215.4,180910,,,A*49
$GPRMC,202333.7,A,3328.947936,N,11740.158425,W,52.1,216.1,180910,,,A*4B
$GPRMC,202336.7,A,3328.912242,N,11740.188642,W,52.5,215.8,180910,,,A*46
$GPRMC,202339.7,A,3328.875749,N,11740.220226,W,53.9,216.1,180910,,,A*47
$GPRMC,202342.7,A,3328.838574,N,11740.252276,W,54.2,216.1,180910,,,A*42
$GPRMC,202345.7,A,3328.803108,N,11740.283532,W,53.7,215.9,180910,,,A*40
$GPRMC,202348.7,A,3328.766429,N,11740.315592,W,53.7,216.2,180910,,,A*4B
$GPRMC,202351.7,A,3328.730559,N,11740.345822,W,53.5,215.8,180910,,,A*4E
$GPRMC,202354.7,A,3328.693668,N,11740.377038,W,53.0,215.1,180910,,,A*4C
$GPRMC,202357.7,A,3328.655084,N,11740.405641,W,54.3,211.8,180910,,,A*42
$GPRMC,202400.7,A,3328.616004,N,11740.430907,W,54.4,207.0,180910,,,A*4B
$GPRMC,202403.7,A,3328.574810,N,11740.451051,W,54.6,202.3,180910,,,A*4B
$GPRMC,202406.7,A,3328.532210,N,11740.467725,W,54.6,196.8,180910,,,A*42
$GPRMC,202409.7,A,3328.488334,N,11740.480606,W,55.2,192.2,180910,,,A*48
$GPRMC,202412.7,A,3328.443587,N,11740.488875,W,54.5,187.7,180910,,,A*4E
$GPRMC,202415.7,A,3328.398418,N,11740.491945,W,54.6,183.0,180910,,,A*45
$GPRMC,202418.7,A,3328.353299,N,11740.491102,W,53.8,178.3,180910,,,A*45
$GPRMC,202421.7,A,3328.308125,N,11740.487412,W,54.0,174.5,180910,,,A*43
$GPRMC,202424.7,A,3328.265068,N,11740.476166,W,52.4,166.4,180910,,,A*4C
$GPRMC,202427.7,A,3328.223537,N,11740.460186,W,52.3,159.8,180910,,,A*4C
$GPRMC,202430.7,A,3328.183771,N,11740.438040,W,52.7,153.5,180910,,,A*46
$GPRMC,202433.7,A,3328.146106,N,11740.407568,W,53.6,145.6,180910,,,A*4D
$GPRMC,202436.7,A,3328.110699,N,11740.372065,W,52.7,137.8,180910,,,A*4C
$GPRMC,202439.7,A,3328.083388,N,11740.332295,W,52.8,129.1,180910,,,A*4D
$GPRMC,202442.7,A,3328.059270,N,11740.288107,W,53.0,122.7,180910,,,A*4C
$GPRMC,202445.7,A,3328.039289,N,11740.242766,W,53.0,117.0,180910,,,A*4D
$GPRMC,202448.7,A,3328.018893,N,11740.193801,W,54.5,117.0,180910,,,A*41
$GPRMC,202451.7,A,3327.996589,N,11740.146513,W,55.0,119.7,180910,,,A*44
$GPRMC,202454.7,A,3327.971562,N,11740.101150,W,54.7,123.6,180910,,,A*43
$GPRMC,202457.7,A,3327.942207,N,11740.057857,W,55.7,128.3,180910,,,A*47
$GPRMC,202500.7,A,3327.912427,N,11740.014625,W,55.9,128.9,180910,,,A*4D
$GPRMC,202503.7,A,3327.883975,N,11739.970603,W,55.6,129.3,180910,,,A*48
$GPRMC,202506.7,A,3327.856449,N,11739.928680,W,53.5,129.5,180910,,,A*42
$GPRMC,202509.7,A,3327.824151,N,11739.885406,W,55.8,128.8,180910,,,A*49
$GPRMC,202512.7,A,3327.793797,N,11739.842220,W,55.9,129.3,180910,,,A*4E
$GPRMC,202515.7,A,3327.762764,N,11739.798408,W,57.6,129.6,180910,,,A*47
$GPRMC,202518.7,A,3327.731333,N,11739.754770,W,57.5,129.8,180910,,,A*4B
$GPRMC,202521.7,A,3327.703653,N,11739.711026,W,57.6,128.8,180910,,,A*44
$GPRMC,202524.7,A,3327.671505,N,11739.663946,W,58.0,128.1,180910,,,A*4E
$GPRMC,202527.7,A,3327.644805,N,11739.617217,W,56.8,122.6,180910,,,A*41
$GPRMC,202530.7,A,3327.623245,N,11739.567321,W,56.5,117.1,180910,,,A*44
$GPRMC,202533.7,A,3327.602388,N,11739.516184,W,56.7,116.4,180910,,,A*49
$GPRMC,202536.7,A,3327.582303,N,11739.465563,W,56.2,116.6,180910,,,A*4B
$GPRMC,202539.7,A,3327.559755,N,11739.416946,W,55.9,119.3,180910,,,A*48
$GPRMC,202542.7,A,3327.535436,N,11739.371450,W,53.8,122.3,180910,,,A*4B
$GPRMC,202545.7,A,3327.509584,N,11739.330895,W,51.8,125.0,180910,,,A*4D
$GPRMC,202548.7,A,3327.483530,N,11739.292302,W,50.4,125.5,180910,,,A*48
$GPRMC,202551.7,A,3327.457974,N,11739.250072,W,50.7,126.7,180910,,,A*4D
$GPRMC,202554.7,A,3327.434677,N,11739.211289,W,48.9,126.0,180910,,,A*42
$GPRMC,202557.7,A,3327.412123,N,11739.173681,W,47.2,125.1,180910,,,A*4E
$GPRMC,202600.7,A,3327.392645,N,11739.134240,W,46.6,122.3,180910,,,A*4D
$GPRMC,202603.7,A,3327.372117,N,11739.095313,W,46.0,121.1,180910,,,A*4A
$GPRMC,202606.7,A,3327.354259,N,11739.055648,W,43.8,118.9,180910,,,A*4A
$GPRMC,202609.7,A,3327.337754,N,11739.018125,W,41.4,117.6,180910,,,A*43
$GPRMC,202612.7,A,3327.321444,N,11738.981960,W,41.0,118.6,180910,,,A*46
$GPRMC,202615.7,A,3327.304857,N,11738.945649,W,42.2,118.2,180910,,,A*41
$GPRMC,202618.7,A,3327.289046,N,11738.907257,W,42.7,116.7,180910,,,A*43
$GPRMC,202621.7,A,3327.272801,N,11738.869423,W,42.6,116.4,180910,,,A*48
$GPRMC,202624.7,A,3327.257172,N,11738.830089,W,43.6,116.9,180910,,,A*43
$GPRMC,202627.7,A,3327.239633,N,11738.790966,W,45.3,118.3,180910,,,A*40
$GPRMC,202630.7,A,3327.221904,N,11738.749826,W,46.3,117.2,180910,,,A*48
$GPRMC,202633.7,A,3327.202278,N,11738.708818,W,47.3,118.6,180910,,,A*48
$GPRMC,202636.7,A,3327.182269,N,11738.668927,W,46.5,120.6,180910,,,A*40
$GPRMC,202639.7,A,3327.160973,N,11738.628742,W,46.6,121.9,180910,,,A*47
$GPRMC,202642.7,A,3327.140451,N,11738.588248,W,47.2,122.8,180910,,,A*45
$GPRMC,202645.7,A,3327.118198,N,11738.549069,W,47.4,125.5,180910,,,A*4F
$GPRMC,202648.7,A,3327.094194,N,11738.512067,W,47.6,127.3,180910,,,A*4D
$GPRMC,202651.7,A,3327.069378,N,11738.475526,W,48.0,129.2,180910,,,A*41
$GPRMC,202654.7,A,3327.043376,N,11738.440418,W,47.9,130.8,180910,,,A*4C
$GPRMC,202657.7,A,3327.017304,N,11738.404598,W,47.3,130.9,180910,,,A*49
$GPRMC,202700.7,A,3326.992004,N,11738.368385,W,47.0,130.0,180910,,,A*41
$GPRMC,202703.7,A,3326.966199,N,11738.332779,W,47.9,130.3,180910,,,A*4E
$GPRMC,202706.7,A,3326.941214,N,11738.296290,W,48.6,129.2,180910,,,A*4C
$GPRMC,202709.7,A,3326.914336,N,11738.257055,W,50.8,127.7,180910,,,A*48
$GPRMC,202712.7,A,3326.890093,N,11738.213953,W,51.6,123.3,180910,,,A*43
$GPRMC,202715.7,A,3326.866533,N,11738.169555,W,52.6,122.4,180910,,,A*43
$GPRMC,202718.7,A,3326.843125,N,11738.124211,W,54.1,121.3,180910,,,A*41
$GPRMC,202721.7,A,3326.818614,N,11738.077376,W,55.0,121.8,180910,,,A*4C
$GPRMC,202724.7,A,3326.795519,N,11738.030555,W,53.7,121.2,180910,,,A*42
$GPRMC,202727.7,A,3326.773379,N,11737.986088,W,50.5,120.7,180910,,,A*42
$GPRMC,202730.7,A,3326.751310,N,11737.945236,W,48.3,123.4,180910,,,A*4C
$GPRMC,202733.7,A,3326.728655,N,11737.909155,W,44.5,126.7,180910,,,A*47
$GPRMC,202736.7,A,3326.707069,N,11737.877120,W,41.7,131.1,180910,,,A*4B
$GPRMC,202739.7,A,3326.683838,N,11737.850020,W,38.7,134.5,180910,,,A*4E
$GPRMC,202742.7,A,3326.661885,N,11737.823398,W,37.2,133.6,180910,,,A*42
$GPRMC,202745.7,A,3326.640619,N,11737.797173,W,37.1,134.8,180910,,,A*40
$GPRMC,202748.7,A,3326.618153,N,11737.770746,W,38.4,134.9,180910,,,A*4B
$GPRMC,202751.7,A,3326.594547,N,11737.742765,W,39.9,135.3,180910,,,A*42
$GPRMC,202754.7,A,3326.570633,N,11737.714145,W,41.6,134.7,180910,,,A*4F
$GPRMC,202757.7,A,3326.545372,N,11737.684437,W,43.3,134.7,180910,,,A*45
$GPRMC,202800.7,A,3326.518049,N,11737.651995,W,47.3,134.7,180910,,,A*42
$GPRMC,202803.7,A,3326.489605,N,11737.617419,W,49.1,134.3,180910,,,A*45
$GPRMC,202806.7,A,3326.461491,N,11737.579825,W,50.7,130.8,180910,,,A*40
$GPRMC,202809.7,A,3326.434666,N,11737.539097,W,52.8,126.6,180910,,,A*44
$GPRMC,202812.7,A,3326.409075,N,11737.494992,W,54.4,124.1,180910,,,A*41
$GPRMC,202815.7,A,3326.385240,N,11737.449233,W,54.2,123.7,180910,,,A*46
$GPRMC,202818.7,A,3326.360696,N,11737.404274,W,54.3,123.5,180910,,,A*46
$GPRMC,202821.7,A,3326.335672,N,11737.359755,W,53.2,123.8,180910,,,A*44
$GPRMC,202824.7,A,3326.310126,N,11737.315357,W,53.5,124.4,180910,,,A*42
$GPRMC,202827.7,A,3326.286114,N,11737.270891,W,53.2,123.5,180910,,,A*4C
$GPRMC,202830.7,A,3326.261902,N,11737.227346,W,52.7,124.9,180910,,,A*40
$GPRMC,202833.7,A,3326.234715,N,11737.184956,W,52.8,128.8,180910,,,A*48
$GPRMC,202836.7,A,3326.205157,N,11737.145552,W,52.6,133.7,180910,,,A*41
$GPRMC,202839.7,A,3326.171948,N,11737.110075,W,53.1,138.8,180910,,,A*4A
$GPRMC,202842.7,A,3326.135764,N,11737.077661,W,53.6,144.1,180910,,,A*40
$GPRMC,202845.7,A,3326.095959,N,11737.048466,W,55.4,148.7,180910,,,A*4B
$GPRMC,202848.7,A,3326.057083,N,11737.021676,W,53.7,149.5,180910,,,A*4C
$GPRMC,202851.7,A,3326.019556,N,11736.996328,W,52.3,149.8,180910,,,A*41
$GPRMC,202854.7,A,3325.982792,N,11736.971832,W,50.6,149.7,180910,,,A*47
$GPRMC,202857.7,A,3325.946449,N,11736.947524,W,49.0,148.9,180910,,,A*47
$GPRMC,202900.7,A,3325.912653,N,11736.921959,W,48.7,145.2,180910,,,A*4A
$GPRMC,202903.7,A,3325.881420,N,11736.890412,W,49.2,140.1,180910,,,A*4F
$GPRMC,202906.7,A,3325.850988,N,11736.857949,W,48.8,137.6,180910,,,A*4D
$GPRMC,202909.7,A,3325.821187,N,11736.821579,W,52.4,134.3,180910,,,A*4C
$GPRMC,202912.7,A,3325.789978,N,11736.783805,W,53.9,134.7,180910,,,A*4A
$GPRMC,202915.7,A,3325.755327,N,11736.747173,W,55.0,139.2,180910,,,A*4B
$GPRMC,202918.7,A,3325.719268,N,11736.712550,W,55.3,142.5,180910,,,A*49
$GPRMC,202921.7,A,3325.680527,N,11736.679323,W,56.3,145.4,180910,,,A*45
$GPRMC,202929.7,A,3325.570956,N,11736.600365,W,57.7,149.8,180910,,,A*42
$GPRMC,202932.7,A,3325.530443,N,11736.572195,W,56.5,150.2,180910,,,A*4F
$GPRMC,202935.7,A,3325.490120,N,11736.546547,W,56.5,150.4,180910,,,A*49
$GPRMC,202938.7,A,3325.448088,N,11736.521271,W,56.4,152.7,180910,,,A*41
$GPRMC,202941.7,A,3325.404747,N,11736.500100,W,56.4,157.8,180910,,,A*4F
$GPRMC,202944.7,A,3325.359821,N,11736.478039,W,56.9,157.8,180910,,,A*42
$GPRMC,202947.7,A,3325.316898,N,11736.455792,W,55.1,156.0,180910,,,A*43
$GPRMC,202950.7,A,3325.275646,N,11736.431186,W,56.2,151.6,180910,,,A*4C
$GPRMC,202953.7,A,3325.235188,N,11736.399821,W,57.7,146.5,180910,,,A*4E
$GPRMC,202956.7,A,3325.194886,N,11736.367308,W,59.3,144.6,180910,,,A*4E
$GPRMC,202959.7,A,3325.154275,N,11736.333073,W,59.6,144.3,180910,,,A*45
$GPRMC,203002.7,A,3325.112254,N,11736.300982,W,59.5,149.9,180910,,,A*41
$GPRMC,203005.7,A,3325.066638,N,11736.276958,W,59.0,156.8,180910,,,A*47
$GPRMC,203008.7,A,3325.021501,N,11736.254494,W,58.4,156.9,180910,,,A*49
$GPRMC,203011.7,A,3324.977611,N,11736.232052,W,56.9,156.7,180910,,,A*4B
$GPRMC,203014.7,A,3324.933275,N,11736.210922,W,57.1,157.4,180910,,,A*4D
$GPRMC,203017.7,A,3324.889635,N,11736.190267,W,56.6,157.3,180910,,,A*4E
$GPRMC,203020.7,A,3324.846182,N,11736.168866,W,56.0,157.8,180910,,,A*43
$GPRMC,203023.7,A,3324.801833,N,11736.147320,W,57.0,157.5,180910,,,A*48
$GPRMC,203026.7,A,3324.757745,N,11736.125349,W,56.6,157.5,180910,,,A*43
$GPRMC,203029.7,A,3324.714890,N,11736.105751,W,56.4,157.2,180910,,,A*46
$GPRMC,203032.7,A,3324.672281,N,11736.084811,W,55.8,157.6,180910,,,A*4F
$GPRMC,203035.7,A,3324.629621,N,11736.062874,W,55.7,156.8,180910,,,A*43
$GPRMC,203038.7,A,3324.587520,N,11736.041212,W,55.5,156.9,180910,,,A*43
$GPRMC,203041.7,A,3324.544318,N,11736.019373,W,56.6,157.4,180910,,,A*48
$GPRMC,203044.7,A,3324.501225,N,11735.997174,W,56.8,157.1,180910,,,A*41
$GPRMC,203047.7,A,3324.458128,N,11735.974350,W,56.2,157.2,180910,,,A*41
$GPRMC,203050.7,A,3324.415574,N,11735.953020,W,56.3,157.3,180910,,,A*42
$GPRMC,203053.7,A,3324.370932,N,11735.931385,W,56.6,157.1,180910,,,A*44
$GPRMC,203056.7,A,3324.327203,N,11735.909208,W,56.0,156.7,180910,,,A*44
$GPRMC,203059.7,A,3324.283070,N,11735.887195,W,56.7,157.4,180910,,,A*47
$GPRMC,203102.7,A,3324.239494,N,11735.864060,W,56.6,156.9,180910,,,A*4C
$GPRMC,203105.7,A,3324.195991,N,11735.843376,W,55.9,157.1,180910,,,A*42
$GPRMC,203108.7,A,3324.154362,N,11735.822139,W,54.3,157.1,180910,,,A*41
$GPRMC,203111.7,A,3324.111905,N,11735.800689,W,54.2,157.4,180910,,,A*4B
$GPRMC,203114.7,A,3324.070529,N,11735.780254,W,54.5,156.9,180910,,,A*42
$GPRMC,203117.7,A,3324.028202,N,11735.759191,W,54.7,157.1,180910,,,A*47
$GPRMC,203120.7,A,3323.985425,N,11735.738502,W,56.2,157.6,180910,,,A*40
$GPRMC,203123.7,A,3323.940653,N,11735.717831,W,56.1,158.3,180910,,,A*40
$GPRMC,203126.7,A,3323.897047,N,11735.695571,W,57.0,157.2,180910,,,A*41
$GPRMC,203129.7,A,3323.854099,N,11735.672422,W,56.6,156.3,180910,,,A*4B
$GPRMC,203132.7,A,3323.811824,N,11735.649612,W,56.0,155.3,180910,,,A*42
$GPRMC,203135.7,A,3323.769808,N,11735.624147,W,56.8,153.3,180910,,,A*49
$GPRMC,203138.7,A,3323.727414,N,11735.597404,W,56.9,152.1,180910,,,A*44
$GPRMC,203141.7,A,3323.686001,N,11735.569907,W,57.0,151.1,180910,,,A*44
$GPRMC,203144.7,A,3323.644757,N,11735.542308,W,57.0,150.8,180910,,,A*4F
$GPRMC,203147.7,A,3323.603628,N,11735.512240,W,58.0,149.3,180910,,,A*42
$GPRMC,203150.7,A,3323.560278,N,11735.482361,W,59.0,149.2,180910,,,A*49
$GPRMC,203153.7,A,3323.518693,N,11735.450609,W,59.6,147.6,180910,,,A*4C
$GPRMC,203156.7,A,3323.477175,N,11735.418774,W,59.0,147.2,180910,,,A*4B
$GPRMC,203159.7,A,3323.436168,N,11735.387002,W,59.4,147.4,180910,,,A*48
$GPRMC,203202.7,A,3323.394892,N,11735.356731,W,59.0,147.1,180910,,,A*4C
$GPRMC,203205.7,A,3323.354545,N,11735.323463,W,57.9,146.2,180910,,,A*43
$GPRMC,203208.7,A,3323.316119,N,11735.289498,W,57.7,142.6,180910,,,A*4E
$GPRMC,203211.7,A,3323.279585,N,11735.253137,W,57.8,137.9,180910,,,A*4A
$GPRMC,203214.7,A,3323.245419,N,11735.212433,W,57.7,134.2,180910,,,A*47
$GPRMC,203217.7,A,3323.213585,N,11735.170221,W,57.4,131.2,180910,,,A*47
$GPRMC,203220.7,A,3323.183896,N,11735.123574,W,58.1,126.7,180910,,,A*4E
$GPRMC,203223.7,A,3323.156303,N,11735.074860,W,58.9,123.0,180910,,,A*43
$GPRMC,203226.7,A,3323.132234,N,11735.024368,W,58.9,119.1,180910,,,A*4F
$GPRMC,203229.7,A,3323.110962,N,11734.972756,W,58.0,116.3,180910,,,A*4E
$GPRMC,203232.7,A,3323.090794,N,11734.920240,W,58.1,114.8,180910,,,A*47
$GPRMC,203235.7,A,3323.072488,N,11734.866636,W,57.9,114.4,180910,,,A*4F
$GPRMC,203238.7,A,3323.052520,N,11734.815009,W,56.7,114.6,180910,,,A*40
$GPRMC,203241.7,A,3323.033970,N,11734.763630,W,55.8,114.7,180910,,,A*4F
$GPRMC,203244.7,A,3323.014499,N,11734.712150,W,55.9,115.3,180910,,,A*46
$GPRMC,203247.7,A,3322.994229,N,11734.661132,W,56.4,115.9,180910,,,A*4D
$GPRMC,203250.7,A,3322.974267,N,11734.609886,W,56.9,115.2,180910,,,A*41
$GPRMC,203253.7,A,3322.954517,N,11734.557118,W,57.1,115.1,180910,,,A*4C
$GPRMC,203256.7,A,3322.934435,N,11734.507828,W,56.4,115.4,180910,,,A*40
$GPRMC,203259.7,A,3322.914090,N,11734.456515,W,56.5,114.9,180910,,,A*4D
$GPRMC,203302.7,A,3322.895083,N,11734.406195,W,55.7,115.0,180910,,,A*48
$GPRMC,203305.7,A,3322.875649,N,11734.356401,W,55.1,115.1,180910,,,A*4C
$GPRMC,203308.7,A,3322.856114,N,11734.306908,W,54.9,115.1,180910,,,A*47
$GPRMC,203311.7,A,3322.836998,N,11734.256819,W,55.0,114.5,180910,,,A*4D
$GPRMC,203314.7,A,3322.817462,N,11734.206234,W,55.5,114.8,180910,,,A*4B
$GPRMC,203317.7,A,3322.799090,N,11734.155156,W,54.8,114.3,180910,,,A*4D
$GPRMC,203320.7,A,3322.780590,N,11734.107409,W,54.0,114.1,180910,,,A*46
$GPRMC,203323.7,A,3322.760856,N,11734.057373,W,55.5,114.6,180910,,,A*41
$GPRMC,203326.7,A,3322.740303,N,11734.007312,W,56.0,115.8,180910,,,A*46
$GPRMC,203329.7,A,3322.718052,N,11733.958099,W,55.8,118.7,180910,,,A*4E
$GPRMC,203332.7,A,3322.692490,N,11733.912824,W,55.3,124.6,180910,,,A*48
$GPRMC,203335.7,A,3322.663623,N,11733.868761,W,55.4,129.4,180910,,,A*41
$GPRMC,203338.7,A,3322.632696,N,11733.828980,W,54.9,133.7,180910,,,A*47
$GPRMC,203341.7,A,3322.598616,N,11733.790693,W,56.0,137.2,180910,,,A*49
$GPRMC,203344.7,A,3322.562641,N,11733.753622,W,56.7,136.8,180910,,,A*42
$GPRMC,203347.7,A,3322.528714,N,11733.713538,W,56.7,134.4,180910,,,A*4C
$GPRMC,203350.7,A,3322.499321,N,11733.669876,W,56.8,128.9,180910,,,A*47
$GPRMC,203353.7,A,3322.471595,N,11733.624205,W,56.9,125.1,180910,,,A*48
$GPRMC,203356.7,A,3322.444411,N,11733.576379,W,57.5,123.7,180910,,,A*45
$GPRMC,203359.7,A,3322.418115,N,11733.529142,W,56.8,124.6,180910,,,A*48
$GPRMC,203402.7,A,3322.393376,N,11733.481501,W,56.5,123.0,180910,,,A*4E
$GPRMC,203405.7,A,3322.368851,N,11733.433831,W,56.5,122.4,180910,,,A*41
$GPRMC,203408.7,A,3322.344298,N,11733.385939,W,56.8,122.1,180910,,,A*46
$GPRMC,203411.7,A,3322.317595,N,11733.338231,W,57.8,122.1,180910,,,A*46
$GPRMC,203414.7,A,3322.290593,N,11733.290298,W,58.0,122.5,180910,,,A*48
$GPRMC,203417.7,A,3322.262871,N,11733.243111,W,57.5,123.1,180910,,,A*44
$GPRMC,203420.7,A,3322.237204,N,11733.193759,W,58.2,122.3,180910,,,A*47
$GPRMC,203423.7,A,3322.208958,N,11733.147282,W,58.4,123.6,180910,,,A*42
$GPRMC,203426.7,A,3322.183887,N,11733.099389,W,57.7,123.3,180910,,,A*45
$GPRMC,203429.7,A,3322.157639,N,11733.052662,W,57.2,122.6,180910,,,A*4E
$GPRMC,203432.7,A,3322.131640,N,11733.005609,W,57.2,122.0,180910,,,A*43
$GPRMC,203435.7,A,3322.105719,N,11732.959587,W,56.2,123.3,180910,,,A*49
$GPRMC,203438.7,A,3322.079980,N,11732.910888,W,57.5,122.9,180910,,,A*42
$GPRMC,203441.7,A,3322.053574,N,11732.862360,W,57.4,122.8,180910,,,A*4A
$GPRMC,203444.7,A,3322.025345,N,11732.817847,W,57.1,126.5,180910,,,A*4A
$GPRMC,203447.7,A,3321.995715,N,11732.772989,W,56.6,128.5,180910,,,A*4E
$GPRMC,203450.7,A,3321.966324,N,11732.728661,W,55.8,128.7,180910,,,A*4B
$GPRMC,203453.7,A,3321.936359,N,11732.685723,W,55.9,128.9,180910,,,A*49
$GPRMC,203456.7,A,3321.907455,N,11732.642181,W,55.9,129.3,180910,,,A*4B
$GPRMC,203459.7,A,3321.876389,N,11732.601588,W,55.6,128.9,180910,,,A*4B
$GPRMC,203502.7,A,3321.846862,N,11732.558390,W,55.9,128.8,180910,,,A*47
$GPRMC,203505.7,A,3321.818559,N,11732.514659,W,56.0,128.1,180910,,,A*45
$GPRMC,203508.7,A,3321.788946,N,11732.472363,W,56.2,128.6,180910,,,A*44
$GPRMC,203511.7,A,3321.759153,N,11732.428988,W,57.3,128.8,180910,,,A*42
$GPRMC,203514.7,A,3321.729824,N,11732.385028,W,57.1,128.8,180910,,,A*48
$GPRMC,203517.7,A,3321.699269,N,11732.340406,W,57.4,129.2,180910,,,A*4D
$GPRMC,203520.7,A,3321.669651,N,11732.295284,W,58.3,128.4,180910,,,A*43
$GPRMC,203523.7,A,3321.638465,N,11732.249759,W,58.5,129.0,180910,,,A*46
$GPRMC,203526.7,A,3321.606948,N,11732.205491,W,59.0,129.0,180910,,,A*47
$GPRMC,203529.7,A,3321.575676,N,11732.161138,W,58.7,129.0,180910,,,A*4C
$GPRMC,203532.7,A,3321.543785,N,11732.117277,W,57.8,129.3,180910,,,A*44
$GPRMC,203535.7,A,3321.515123,N,11732.070760,W,57.5,128.5,180910,,,A*43
$GPRMC,203538.7,A,3321.484733,N,11732.026489,W,57.6,129.1,180910,,,A*41
$GPRMC,203541.7,A,3321.453715,N,11731.983201,W,57.5,129.4,180910,,,A*44
$GPRMC,203544.7,A,3321.424513,N,11731.939412,W,56.9,128.7,180910,,,A*4F
$GPRMC,203547.7,A,3321.393917,N,11731.896273,W,57.3,129.2,180910,,,A*45
$GPRMC,203550.7,A,3321.364051,N,11731.851688,W,57.7,129.7,180910,,,A*4A
$GPRMC,203553.7,A,3321.332034,N,11731.807813,W,58.3,130.3,180910,,,A*41
$GPRMC,203556.7,A,3321.300023,N,11731.763311,W,59.3,130.4,180910,,,A*41
$GPRMC,203559.7,A,3321.268452,N,11731.715790,W,59.6,130.1,180910,,,A*4F
$GPRMC,203602.7,A,3321.238374,N,11731.668537,W,59.3,129.3,180910,,,A*4F
$GPRMC,203605.7,A,3321.207040,N,11731.624206,W,58.8,129.9,180910,,,A*4D
$GPRMC,203608.7,A,3321.175914,N,11731.579413,W,59.0,129.5,180910,,,A*42
$GPRMC,203611.7,A,3321.144364,N,11731.533822,W,58.6,129.5,180910,,,A*42
$GPRMC,203614.7,A,3321.114311,N,11731.488796,W,58.2,129.2,180910,,,A*42
$GPRMC,203617.7,A,3321.083963,N,11731.443572,W,58.1,129.1,180910,,,A*4E
$GPRMC,203620.7,A,3321.052918,N,11731.397116,W,59.0,129.0,180910,,,A*43
$GPRMC,203623.7,A,3321.022109,N,11731.352752,W,58.4,129.3,180910,,,A*46
$GPRMC,203626.7,A,3320.990892,N,11731.309061,W,58.5,129.6,180910,,,A*44
$GPRMC,203629.7,A,3320.960256,N,11731.263160,W,59.0,129.2,180910,,,A*4B
$GPRMC,203632.7,A,3320.929809,N,11731.217154,W,58.8,129.1,180910,,,A*42
$GPRMC,203635.7,A,3320.898593,N,11731.171985,W,58.8,129.5,180910,,,A*43
$GPRMC,203638.7,A,3320.869866,N,11731.126531,W,57.8,128.9,180910,,,A*44
$GPRMC,203641.7,A,3320.837980,N,11731.083145,W,57.9,130.3,180910,,,A*43
$GPRMC,203644.7,A,3320.805034,N,11731.040460,W,58.4,130.9,180910,,,A*44
$GPRMC,203647.7,A,3320.773663,N,11730.996130,W,58.7,131.1,180910,,,A*44
$GPRMC,203650.7,A,3320.742503,N,11730.951111,W,59.2,131.0,180910,,,A*48
$GPRMC,203653.7,A,3320.709601,N,11730.907154,W,58.3,130.8,180910,,,A*4E
$GPRMC,203656.7,A,3320.677530,N,11730.863448,W,58.1,130.9,180910,,,A*4A
$GPRMC,203659.7,A,3320.646042,N,11730.820864,W,57.8,130.6,180910,,,A*4B
$GPRMC,203702.7,A,3320.613604,N,11730.777174,W,58.3,131.1,180910,,,A*47
$GPRMC,203705.7,A,3320.582174,N,11730.732955,W,58.3,130.3,180910,,,A*42
$GPRMC,203708.7,A,3320.550826,N,11730.687929,W,58.8,130.7,180910,,,A*45
$GPRMC,203711.7,A,3320.518981,N,11730.643273,W,59.2,131.0,180910,,,A*4C
$GPRMC,203714.7,A,3320.486312,N,11730.599069,W,59.3,131.0,180910,,,A*43
$GPRMC,203717.7,A,3320.452911,N,11730.554300,W,60.2,131.2,180910,,,A*44
$GPRMC,203720.7,A,3320.420833,N,11730.509347,W,59.6,131.4,180910,,,A*47
$GPRMC,203723.7,A,3320.388499,N,11730.463795,W,59.7,131.0,180910,,,A*4E
$GPRMC,203726.7,A,3320.357280,N,11730.416926,W,59.5,130.6,180910,,,A*46
$GPRMC,203729.7,A,3320.324535,N,11730.373963,W,58.5,131.2,180910,,,A*45
$GPRMC,203732.7,A,3320.291044,N,11730.329579,W,58.9,131.4,180910,,,A*41
$GPRMC,203735.7,A,3320.259494,N,11730.286528,W,57.8,131.4,180910,,,A*45
$GPRMC,203738.7,A,3320.226875,N,11730.243701,W,57.6,131.7,180910,,,A*4E
$GPRMC,203741.7,A,3320.195838,N,11730.201585,W,57.3,131.3,180910,,,A*4B
$GPRMC,203744.7,A,3320.164937,N,11730.158996,W,57.6,131.3,180910,,,A*4A
$GPRMC,203747.7,A,3320.133429,N,11730.113908,W,57.9,130.9,180910,,,A*45
$GPRMC,203750.7,A,3320.101513,N,11730.069655,W,58.6,131.0,180910,,,A*49
$GPRMC,203753.7,A,3320.070758,N,11730.024841,W,58.7,130.6,180910,,,A*44
$GPRMC,203756.7,A,3320.038949,N,11729.980556,W,58.8,130.7,180910,,,A*49
$GPRMC,203759.7,A,3320.006361,N,11729.937847,W,58.2,131.6,180910,,,A*40
$GPRMC,203802.7,A,3319.973752,N,11729.894596,W,58.9,131.5,180910,,,A*45
$GPRMC,203805.7,A,3319.941324,N,11729.850833,W,58.8,131.7,180910,,,A*4F
$GPRMC,203808.7,A,3319.908682,N,11729.804568,W,59.6,130.8,180910,,,A*45
$GPRMC,203811.7,A,3319.874427,N,11729.758162,W,60.4,131.4,180910,,,A*47
$GPRMC,203814.7,A,3319.841734,N,11729.712072,W,60.4,130.6,180910,,,A*48
$GPRMC,203817.7,A,3319.808545,N,11729.666524,W,60.7,131.2,180910,,,A*40
$GPRMC,203820.7,A,3319.774929,N,11729.622297,W,60.6,130.8,180910,,,A*43
$GPRMC,203823.7,A,3319.740898,N,11729.577326,W,60.4,131.6,180910,,,A*49
$GPRMC,203826.7,A,3319.707297,N,11729.532397,W,60.5,131.4,180910,,,A*42
$GPRMC,203829.7,A,3319.674491,N,11729.487940,W,59.6,131.1,180910,,,A*4B
$GPRMC,203832.7,A,3319.641904,N,11729.441561,W,59.8,130.9,180910,,,A*44
$GPRMC,203835.7,A,3319.609118,N,11729.395430,W,59.6,131.0,180910,,,A*47
$GPRMC,203838.7,A,3319.576201,N,11729.351523,W,60.6,131.6,180910,,,A*4D
$GPRMC,203841.7,A,3319.543082,N,11729.306788,W,59.7,131.1,180910,,,A*41
$GPRMC,203844.7,A,3319.510328,N,11729.261765,W,59.6,130.9,180910,,,A*4A
$GPRMC,203847.7,A,3319.477852,N,11729.218058,W,59.2,130.8,180910,,,A*4D
$GPRMC,203850.7,A,3319.445571,N,11729.173859,W,59.4,130.7,180910,,,A*48
$GPRMC,203853.7,A,3319.412630,N,11729.128989,W,60.3,131.2,180910,,,A*44
$GPRMC,203856.7,A,3319.377796,N,11729.085908,W,59.9,134.8,180910,,,A*48
$GPRMC,203859.7,A,3319.338826,N,11729.046742,W,60.0,141.7,180910,,,A*49
$GPRMC,203902.7,A,3319.298431,N,11729.014157,W,58.6,147.8,180910,,,A*46
$GPRMC,203905.7,A,3319.255157,N,11728.988516,W,57.7,155.0,180910,,,A*4C
$GPRMC,203908.7,A,3319.209723,N,11728.970680,W,56.9,162.2,180910,,,A*4F
$GPRMC,203911.7,A,3319.164076,N,11728.959156,W,56.9,168.9,180910,,,A*4E
$GPRMC,203914.7,A,3319.116318,N,11728.954004,W,57.6,175.8,180910,,,A*4D
$GPRMC,203917.7,A,3319.067938,N,11728.950431,W,57.8,175.1,180910,,,A*40
$GPRMC,203920.7,A,3319.020015,N,11728.945737,W,57.6,175.3,180910,,,A*4C
$GPRMC,203923.7,A,3318.972357,N,11728.941535,W,57.8,176.2,180910,,,A*4D
$GPRMC,203926.7,A,3318.924782,N,11728.936745,W,56.6,174.9,180910,,,A*44
$GPRMC,203929.7,A,3318.877903,N,11728.927853,W,56.8,170.2,180910,,,A*42
$GPRMC,203932.7,A,3318.831501,N,11728.912072,W,57.9,163.7,180910,,,A*4E
$GPRMC,203935.7,A,3318.787991,N,11728.889547,W,57.8,155.2,180910,,,A*4F
$GPRMC,203938.7,A,3318.744850,N,11728.863002,W,57.8,151.2,180910,,,A*45
$GPRMC,203941.7,A,3318.704981,N,11728.830200,W,58.7,143.7,180910,,,A*42
$GPRMC,203944.7,A,3318.669105,N,11728.790876,W,58.3,137.2,180910,,,A*45
$GPRMC,203947.7,A,3318.634237,N,11728.749580,W,57.7,134.9,180910,,,A*4F
$GPRMC,203950.7,A,3318.600879,N,11728.708985,W,56.4,134.2,180910,,,A*4B
$GPRMC,203953.7,A,3318.568414,N,11728.668907,W,55.8,134.0,180910,,,A*42
$GPRMC,203956.7,A,3318.536391,N,11728.628739,W,55.5,134.0,180910,,,A*4C
$GPRMC,203959.7,A,3318.504123,N,11728.589183,W,56.6,134.7,180910,,,A*41
$GPRMC,204002.7,A,3318.470492,N,11728.548491,W,56.4,134.4,180910,,,A*46
$GPRMC,204005.7,A,3318.436770,N,11728.508871,W,57.4,134.4,180910,,,A*4B
$GPRMC,204008.7,A,3318.403989,N,11728.469041,W,56.6,134.7,180910,,,A*45
$GPRMC,204011.7,A,3318.372038,N,11728.428577,W,57.1,134.2,180910,,,A*49
$GPRMC,204014.7,A,3318.337453,N,11728.387021,W,57.5,134.1,180910,,,A*47
$GPRMC,204017.7,A,3318.303676,N,11728.344890,W,58.1,134.1,180910,,,A*40
$GPRMC,204020.7,A,3318.269099,N,11728.304736,W,58.3,135.3,180910,,,A*48
$GPRMC,204023.7,A,3318.235538,N,11728.263211,W,58.5,133.6,180910,,,A*49
$GPRMC,204026.7,A,3318.202311,N,11728.222330,W,57.7,134.1,180910,,,A*4F
$GPRMC,204029.7,A,3318.168450,N,11728.182282,W,57.7,134.9,180910,,,A*44
$GPRMC,204032.7,A,3318.134805,N,11728.141646,W,57.5,134.9,180910,,,A*4A
$GPRMC,204035.7,A,3318.101289,N,11728.100142,W,57.2,134.2,180910,,,A*4F
$GPRMC,204038.7,A,3318.068693,N,11728.060631,W,56.4,134.3,180910,,,A*41
$GPRMC,204041.7,A,3318.035500,N,11728.018360,W,57.5,134.3,180910,,,A*40
$GPRMC,204044.7,A,3318.000772,N,11727.978642,W,58.5,135.6,180910,,,A*4A
$GPRMC,204047.7,A,3317.966345,N,11727.936765,W,58.7,135.3,180910,,,A*46
$GPRMC,204050.7,A,3317.932385,N,11727.895605,W,58.0,134.7,180910,,,A*40
$GPRMC,204053.7,A,3317.898309,N,11727.855155,W,56.6,135.6,180910,,,A*40
$GPRMC,204056.7,A,3317.864912,N,11727.813376,W,57.8,134.3,180910,,,A*4C
$GPRMC,204059.7,A,3317.832798,N,11727.770706,W,58.1,133.8,180910,,,A*4F
$GPRMC,204102.7,A,3317.799845,N,11727.731218,W,58.7,134.3,180910,,,A*44
$GPRMC,204105.7,A,3317.765580,N,11727.687546,W,59.5,134.9,180910,,,A*4D
$GPRMC,204108.7,A,3317.730149,N,11727.645913,W,58.5,134.7,180910,,,A*4C
$GPRMC,204111.7,A,3317.694008,N,11727.605904,W,59.3,134.2,180910,,,A*4F
$GPRMC,204114.7,A,3317.659060,N,11727.567346,W,57.6,136.3,180910,,,A*46
$GPRMC,204117.7,A,3317.623113,N,11727.529507,W,57.1,140.1,180910,,,A*40
$GPRMC,204120.7,A,3317.585025,N,11727.496510,W,57.3,143.2,180910,,,A*4E
$GPRMC,204123.7,A,3317.544927,N,11727.469630,W,57.5,146.1,180910,,,A*4A
$GPRMC,204126.7,A,3317.503477,N,11727.439653,W,57.0,148.6,180910,,,A*48
$GPRMC,204129.7,A,3317.460196,N,11727.410129,W,58.0,147.8,180910,,,A*46
$GPRMC,204132.7,A,3317.419838,N,11727.378301,W,57.5,147.0,180910,,,A*4C
$GPRMC,204135.7,A,3317.379674,N,11727.346015,W,57.9,146.4,180910,,,A*4E
$GPRMC,204138.7,A,3317.337527,N,11727.313962,W,58.7,146.2,180910,,,A*42
$GPRMC,204141.7,A,3317.297666,N,11727.281467,W,58.4,146.4,180910,,,A*46
$GPRMC,204144.7,A,3317.255474,N,11727.250717,W,58.7,147.3,180910,,,A*41
$GPRMC,204147.7,A,3317.215101,N,11727.218760,W,59.6,148.2,180910,,,A*43
$GPRMC,204150.7,A,3317.175469,N,11727.187607,W,58.4,147.8,180910,,,A*48
$GPRMC,204153.7,A,3317.135189,N,11727.153818,W,58.7,147.3,180910,,,A*45
$GPRMC,204156.7,A,3317.093115,N,11727.123358,W,59.4,148.0,180910,,,A*4E
$GPRMC,204159.7,A,3317.049719,N,11727.094588,W,59.1,147.9,180910,,,A*49
$GPRMC,204202.7,A,3317.006523,N,11727.064765,W,59.9,147.7,180910,,,A*4C
$GPRMC,204205.7,A,3316.965531,N,11727.032717,W,59.4,147.3,180910,,,A*4A
$GPRMC,204208.7,A,3316.924138,N,11726.999538,W,59.9,147.3,180910,,,A*44
$GPRMC,204211.7,A,3316.881151,N,11726.967209,W,60.1,147.9,180910,,,A*41
$GPRMC,204214.7,A,3316.838601,N,11726.936308,W,59.3,148.4,180910,,,A*4A
$GPRMC,204217.7,A,3316.796970,N,11726.904895,W,59.0,147.9,180910,,,A*44
$GPRMC,204220.7,A,3316.756295,N,11726.874440,W,58.3,148.0,180910,,,A*4A
$GPRMC,204223.7,A,3316.716544,N,11726.844455,W,56.9,147.8,180910,,,A*42
$GPRMC,204226.7,A,3316.674826,N,11726.811616,W,59.1,147.2,180910,,,A*43
$GPRMC,204229.7,A,3316.634455,N,11726.778936,W,58.1,146.9,180910,,,A*46
$GPRMC,204232.7,A,3316.593139,N,11726.748998,W,58.3,147.2,180910,,,A*42
$GPRMC,204235.7,A,3316.552002,N,11726.718879,W,57.5,147.6,180910,,,A*47
$GPRMC,204238.7,A,3316.512133,N,11726.688918,W,57.7,148.2,180910,,,A*4A
$GPRMC,204241.7,A,3316.472185,N,11726.659453,W,56.6,148.2,180910,,,A*40
$GPRMC,204244.7,A,3316.431610,N,11726.629763,W,56.4,147.8,180910,,,A*49
$GPRMC,204247.7,A,3316.390765,N,11726.597619,W,57.2,145.9,180910,,,A*4B
$GPRMC,204250.7,A,3316.352466,N,11726.565003,W,56.8,144.2,180910,,,A*42
$GPRMC,204253.7,A,3316.318443,N,11726.525856,W,56.4,137.2,180910,,,A*4C
$GPRMC,204256.7,A,3316.286822,N,11726.481873,W,56.7,133.3,180910,,,A*4A
$GPRMC,204259.7,A,3316.253369,N,11726.439237,W,58.5,132.4,180910,,,A*4A
$GPRMC,204302.7,A,3316.221174,N,11726.394616,W,58.7,130.9,180910,,,A*44
$GPRMC,204305.7,A,3316.189235,N,11726.350354,W,58.6,131.2,180910,,,A*44
$GPRMC,204308.7,A,3316.157320,N,11726.307193,W,57.9,131.1,180910,,,A*47
$GPRMC,204311.7,A,3316.124688,N,11726.262713,W,58.4,131.8,180910,,,A*4B
$GPRMC,204314.7,A,3316.093930,N,11726.219341,W,58.0,131.3,180910,,,A*4F
$GPRMC,204317.7,A,3316.064177,N,11726.176321,W,57.2,130.7,180910,,,A*4B
$GPRMC,204320.7,A,3316.031273,N,11726.131894,W,57.9,131.2,180910,,,A*41
$GPRMC,204323.7,A,3315.998424,N,11726.085571,W,58.4,130.8,180910,,,A*4E
$GPRMC,204326.7,A,3315.968053,N,11726.043622,W,58.2,131.1,180910,,,A*41
$GPRMC,204329.7,A,3315.937060,N,11725.998246,W,57.9,130.8,180910,,,A*42
$GPRMC,204332.7,A,3315.905614,N,11725.957002,W,56.8,131.9,180910,,,A*4D
$GPRMC,204335.7,A,3315.872867,N,11725.919312,W,56.9,135.0,180910,,,A*45
$GPRMC,204338.7,A,3315.836732,N,11725.878323,W,57.5,136.7,180910,,,A*4A
$GPRMC,204341.7,A,3315.802371,N,11725.850613,W,54.8,141.8,180910,,,A*4D
$GPRMC,204344.7,A,3315.767326,N,11725.818800,W,54.5,142.5,180910,,,A*45
$GPRMC,204347.7,A,3315.716517,N,11725.782744,W,57.8,146.6,180910,,,A*4E
$GPRMC,204350.7,A,3315.673354,N,11725.752484,W,57.9,146.4,180910,,,A*4A
$GPRMC,204353.7,A,3315.633200,N,11725.720608,W,57.7,146.0,180910,,,A*44
$GPRMC,204356.7,A,3315.593452,N,11725.689031,W,57.4,146.0,180910,,,A*44
$GPRMC,204359.7,A,3315.554235,N,11725.657153,W,56.9,146.5,180910,,,A*48
$GPRMC,204402.7,A,3315.514934,N,11725.625772,W,56.9,146.3,180910,,,A*49
$GPRMC,204405.7,A,3315.475287,N,11725.594765,W,57.4,146.4,180910,,,A*4F
$GPRMC,204408.7,A,3315.435066,N,11725.563167,W,57.8,146.2,180910,,,A*4D
$GPRMC,204411.7,A,3315.394454,N,11725.530707,W,58.2,145.9,180910,,,A*47
$GPRMC,204414.7,A,3315.353501,N,11725.499097,W,58.0,146.3,180910,,,A*4F
$GPRMC,204417.7,A,3315.313113,N,11725.467092,W,57.9,146.2,180910,,,A*4C
$GPRMC,204420.7,A,3315.272723,N,11725.435150,W,57.9,146.7,180910,,,A*46
$GPRMC,204423.7,A,3315.232330,N,11725.403091,W,58.3,146.5,180910,,,A*49
$GPRMC,204426.7,A,3315.191553,N,11725.371065,W,59.2,146.2,180910,,,A*4B
$GPRMC,204429.7,A,3315.150337,N,11725.338031,W,59.2,146.2,180910,,,A*41
$GPRMC,204432.7,A,3315.109321,N,11725.305380,W,58.9,146.3,180910,,,A*4C
$GPRMC,204435.7,A,3315.068511,N,11725.273387,W,58.7,146.2,180910,,,A*40
$GPRMC,204438.7,A,3315.027954,N,11725.241212,W,58.3,146.4,180910,,,A*45
$GPRMC,204441.7,A,3314.987835,N,11725.209309,W,58.1,146.3,180910,,,A*4D
$GPRMC,204444.7,A,3314.947561,N,11725.177382,W,57.9,146.3,180910,,,A*46
$GPRMC,204447.7,A,3314.907395,N,11725.145374,W,58.0,146.6,180910,,,A*47
$GPRMC,204450.7,A,3314.865904,N,11725.114944,W,58.5,149.4,180910,,,A*43
$GPRMC,204453.7,A,3314.821150,N,11725.089778,W,59.0,157.4,180910,,,A*46
$GPRMC,204456.7,A,3314.775362,N,11725.068995,W,58.6,159.5,180910,,,A*44
$GPRMC,204459.7,A,3314.729991,N,11725.048515,W,58.6,159.4,180910,,,A*43
$GPRMC,204502.7,A,3314.684058,N,11725.028546,W,58.1,159.8,180910,,,A*4D
$GPRMC,204505.7,A,3314.637974,N,11725.008738,W,58.1,159.2,180910,,,A*46
$GPRMC,204508.7,A,3314.593572,N,11724.987683,W,57.8,157.0,180910,,,A*48
$GPRMC,204511.7,A,3314.551276,N,11724.961459,W,57.9,149.8,180910,,,A*46
$GPRMC,204514.7,A,3314.511186,N,11724.930397,W,57.4,143.9,180910,,,A*4C
$GPRMC,204517.7,A,3314.474228,N,11724.894313,W,57.3,138.0,180910,,,A*4B
$GPRMC,204520.7,A,3314.440309,N,11724.853673,W,57.6,132.9,180910,,,A*44
$GPRMC,204523.7,A,3314.409958,N,11724.808428,W,57.6,126.6,180910,,,A*4C
$GPRMC,204526.7,A,3314.382337,N,11724.761410,W,57.6,125.0,180910,,,A*40
$GPRMC,204529.7,A,3314.355435,N,11724.714582,W,56.8,124.7,180910,,,A*41
$GPRMC,204532.7,A,3314.328107,N,11724.668064,W,56.2,124.9,180910,,,A*46
$GPRMC,204535.7,A,3314.301318,N,11724.622540,W,55.9,125.4,180910,,,A*4F
$GPRMC,204538.7,A,3314.272972,N,11724.577986,W,56.1,128.3,180910,,,A*45
$GPRMC,204541.7,A,3314.241961,N,11724.536022,W,56.2,132.8,180910,,,A*48
$GPRMC,204544.7,A,3314.208237,N,11724.497066,W,55.2,136.6,180910,,,A*4B
$GPRMC,204547.7,A,3314.174405,N,11724.459760,W,54.7,136.8,180910,,,A*4E
$GPRMC,204550.7,A,3314.141171,N,11724.421715,W,55.3,136.7,180910,,,A*4F
$GPRMC,204553.7,A,3314.106991,N,11724.383645,W,56.0,136.8,180910,,,A*4D
$GPRMC,204556.7,A,3314.072309,N,11724.344848,W,57.1,136.4,180910,,,A*45
$GPRMC,204559.7,A,3314.037895,N,11724.306714,W,57.0,136.6,180910,,,A*46
$GPRMC,204602.7,A,3314.003349,N,11724.268290,W,57.2,136.5,180910,,,A*47
$GPRMC,204605.7,A,3313.968475,N,11724.229250,W,57.0,136.8,180910,,,A*4D
$GPRMC,204608.7,A,3313.933961,N,11724.190358,W,56.9,136.7,180910,,,A*49
$GPRMC,204611.7,A,3313.899277,N,11724.151995,W,56.6,136.9,180910,,,A*4B
$GPRMC,204614.7,A,3313.864861,N,11724.113228,W,56.9,136.9,180910,,,A*45
$GPRMC,204617.7,A,3313.829694,N,11724.074448,W,57.5,137.3,180910,,,A*4D
$GPRMC,204620.7,A,3313.794388,N,11724.035472,W,57.6,136.9,180910,,,A*4C
$GPRMC,204623.7,A,3313.759297,N,11723.997269,W,57.3,137.1,180910,,,A*47
$GPRMC,204626.7,A,3313.724015,N,11723.958164,W,57.3,137.1,180910,,,A*4D
$GPRMC,204629.7,A,3313.688936,N,11723.919202,W,57.4,137.1,180910,,,A*4C
$GPRMC,204632.7,A,3313.653455,N,11723.880047,W,57.6,136.6,180910,,,A*4E
$GPRMC,204635.7,A,3313.618355,N,11723.840865,W,57.2,136.9,180910,,,A*4E
$GPRMC,204638.7,A,3313.583558,N,11723.802512,W,56.7,137.0,180910,,,A*4E
$GPRMC,204641.7,A,3313.549142,N,11723.764194,W,56.5,137.4,180910,,,A*4A
$GPRMC,204644.7,A,3313.514515,N,11723.726141,W,56.6,137.3,180910,,,A*4B
$GPRMC,204647.7,A,3313.480057,N,11723.688148,W,56.4,136.7,180910,,,A*4C
$GPRMC,204650.7,A,3313.445279,N,11723.650184,W,56.0,137.0,180910,,,A*4A
$GPRMC,204653.7,A,3313.411607,N,11723.612735,W,55.7,137.9,180910,,,A*42
$GPRMC,204656.7,A,3313.375374,N,11723.578967,W,55.1,143.5,180910,,,A*4C
$GPRMC,204659.7,A,3313.336123,N,11723.551362,W,55.2,152.3,180910,,,A*45
$GPRMC,204702.7,A,3313.294067,N,11723.528327,W,55.8,158.2,180910,,,A*4C
$GPRMC,204705.7,A,3313.249534,N,11723.510348,W,57.4,163.4,180910,,,A*4A
$GPRMC,204708.7,A,3313.203363,N,11723.496210,W,57.0,165.1,180910,,,A*49
$GPRMC,204711.7,A,3313.156780,N,11723.481985,W,57.3,165.4,180910,,,A*4C
$GPRMC,204714.7,A,3313.110065,N,11723.467988,W,57.5,166.1,180910,,,A*42
$GPRMC,204717.7,A,3313.064059,N,11723.456238,W,56.9,166.2,180910,,,A*40
$GPRMC,204720.7,A,3313.017750,N,11723.441959,W,57.1,165.9,180910,,,A*45
$GPRMC,204723.7,A,3312.971582,N,11723.427871,W,57.4,165.8,180910,,,A*4C
$GPRMC,204726.7,A,3312.925414,N,11723.413715,W,57.2,165.8,180910,,,A*4A
$GPRMC,204729.7,A,3312.879052,N,11723.397595,W,57.5,163.1,180910,,,A*42
$GPRMC,204732.7,A,3312.834246,N,11723.379291,W,56.5,159.0,180910,,,A*4C
$GPRMC,204735.7,A,3312.792644,N,11723.352630,W,55.8,152.3,180910,,,A*4E
$GPRMC,204738.7,A,3312.749740,N,11723.324843,W,57.4,151.9,180910,,,A*4C
$GPRMC,204741.7,A,3312.708242,N,11723.297531,W,57.0,151.8,180910,,,A*44
$GPRMC,204744.7,A,3312.666574,N,11723.271945,W,57.2,151.8,180910,,,A*4F
$GPRMC,204747.7,A,3312.624027,N,11723.246527,W,56.9,152.6,180910,,,A*42
$GPRMC,204750.7,A,3312.581086,N,11723.219589,W,58.1,152.6,180910,,,A*4B
$GPRMC,204753.7,A,3312.536984,N,11723.192259,W,57.9,152.3,180910,,,A*47
$GPRMC,204756.7,A,3312.494371,N,11723.165864,W,57.6,152.1,180910,,,A*4A
$GPRMC,204759.7,A,3312.450500,N,11723.139831,W,58.3,152.4,180910,,,A*4B
$GPRMC,204802.7,A,3312.410007,N,11723.113328,W,57.1,151.5,180910,,,A*48
$GPRMC,204805.7,A,3312.370051,N,11723.085374,W,56.6,148.9,180910,,,A*48
$GPRMC,204808.7,A,3312.331686,N,11723.051948,W,57.0,143.1,180910,,,A*44
$GPRMC,204811.7,A,3312.294748,N,11723.015218,W,56.0,138.8,180910,,,A*4B
$GPRMC,204814.7,A,3312.262016,N,11722.975995,W,55.5,133.5,180910,,,A*4B
$GPRMC,204817.7,A,3312.232240,N,11722.932944,W,54.8,127.8,180910,,,A*47
$GPRMC,204820.7,A,3312.206973,N,11722.885980,W,54.5,122.2,180910,,,A*48
$GPRMC,204823.7,A,3312.185479,N,11722.837650,W,54.9,116.7,180910,,,A*41
$GPRMC,204826.7,A,3312.166992,N,11722.787516,W,55.1,112.1,180910,,,A*4F
$GPRMC,204829.7,A,3312.149691,N,11722.736454,W,55.4,112.8,180910,,,A*40
$GPRMC,204832.7,A,3312.131054,N,11722.686939,W,54.8,114.4,180910,,,A*41
$GPRMC,204835.7,A,3312.113972,N,11722.636971,W,54.6,111.9,180910,,,A*4A
$GPRMC,204838.7,A,3312.096667,N,11722.586359,W,54.7,111.9,180910,,,A*49
$GPRMC,204841.7,A,3312.078978,N,11722.535711,W,55.2,111.0,180910,,,A*4B
$GPRMC,204844.7,A,3312.062347,N,11722.484551,W,55.7,111.7,180910,,,A*4C
$GPRMC,204847.7,A,3312.044887,N,11722.433324,W,54.9,111.9,180910,,,A*45
$GPRMC,204850.7,A,3312.027270,N,11722.383567,W,54.9,112.2,180910,,,A*41
$GPRMC,204853.7,A,3312.008880,N,11722.333624,W,55.6,114.4,180910,,,A*4B
