NMEA Sentence Code,UTC Time,Status,Latitude,Latitude Direction,Longitude,Longitude Direction,Speed (knots),Track Angle (degrees true),Date,MagneticVariation,Magnetic Variation Direction,[FAA Mode]-Optional,Checksum
$GPRMC,181644.8,A,3338.403428,N,11742.959467,W,6.2,237.9,250310,,,A*77
$GPRMC,181647.8,A,3338.393381,N,11742.972149,W,18.3,229.3,250310,,,A*45
$GPRMC,181650.8,A,3338.378402,N,11742.990739,W,26.5,230.8,250310,,,A*4F
$GPRMC,181653.8,A,3338.362417,N,11743.015775,W,32.4,235.7,250310,,,A*40
$GPRMC,181656.8,A,3338.344926,N,11743.048014,W,38.7,239.0,250310,,,A*44
$GPRMC,181749.7,A,3338.352417,N,11743.953498,W,37.3,273.6,250310,,,A*4C
$GPRMC,181752.7,A,3338.354765,N,11743.985201,W,29.4,276.6,250310,,,A*46
$GPRMC,181755.7,A,3338.364099,N,11744.010034,W,28.6,289.9,250310,,,A*4C
$GPRMC,181758.7,A,3338.386950,N,11744.013800,W,26.4,332.5,250310,,,A*4C
$GPRMC,181801.7,A,3338.406896,N,11744.004809,W,23.6,8.9,250310,,,A*45
$GPRMC,181804.7,A,3338.418513,N,11743.980841,W,23.3,45.2,250310,,,A*76
$GPRMC,181807.7,A,3338.419567,N,11743.955229,W,23.1,76.6,250310,,,A*7D
$GPRMC,181810.7,A,3338.403683,N,11743.926258,W,27.5,110.1,250310,,,A*4D
$GPRMC,181813.7,A,3338.380921,N,11743.893112,W,37.7,120.8,250310,,,A*4E
$GPRMC,181816.7,A,3338.327936,N,11743.864146,W,54.9,142.8,250310,,,A*46
$GPRMC,181819.7,A,3338.278799,N,11743.829831,W,65.6,145.5,250310,,,A*4E
$GPRMC,181822.7,A,3338.233166,N,11743.790767,W,68.0,144.4,250310,,,A*45
$GPRMC,181825.7,A,3338.187502,N,11743.751897,W,65.7,144.8,250310,,,A*43
$GPRMC,181828.7,A,3338.143250,N,11743.715477,W,64.5,145.7,250310,,,A*49
$GPRMC,181831.7,A,3338.098209,N,11743.679584,W,64.7,145.9,250310,,,A*40
$GPRMC,181834.7,A,3338.053915,N,11743.643607,W,64.9,145.4,250310,,,A*46
$GPRMC,181837.7,A,3338.010253,N,11743.605103,W,64.2,142.1,250310,,,A*43
$GPRMC,181840.7,A,3337.968128,N,11743.564847,W,64.4,140.0,250310,,,A*4D
$GPRMC,181843.7,A,3337.927592,N,11743.521302,W,65.0,137.2,250310,,,A*4C
$GPRMC,181846.7,A,3337.890678,N,11743.476768,W,64.0,134.1,250310,,,A*49
$GPRMC,181849.7,A,3337.854404,N,11743.428582,W,65.1,132.3,250310,,,A*4E
$GPRMC,181852.7,A,3337.816188,N,11743.381619,W,64.6,134.4,250310,,,A*41
$GPRMC,181855.7,A,3337.778701,N,11743.335141,W,64.9,134.7,250310,,,A*4F
$GPRMC,181858.7,A,3337.740357,N,11743.291381,W,63.6,138.4,250310,,,A*48
$GPRMC,181901.7,A,3337.699220,N,11743.250167,W,63.4,140.5,250310,,,A*4A
$GPRMC,181904.7,A,3337.657418,N,11743.208890,W,63.7,140.4,250310,,,A*4E
$GPRMC,181907.7,A,3337.615879,N,11743.170100,W,64.0,141.5,250310,,,A*4C
$GPRMC,181910.7,A,3337.572813,N,11743.130204,W,64.1,140.8,250310,,,A*4A
$GPRMC,181913.7,A,3337.529623,N,11743.090778,W,64.3,141.4,250310,,,A*40
$GPRMC,181916.7,A,3337.487024,N,11743.051931,W,64.2,142.2,250310,,,A*4B
$GPRMC,181919.7,A,3337.445760,N,11743.013238,W,64.3,142.1,250310,,,A*4B
$GPRMC,181922.7,A,3337.404740,N,11742.974034,W,64.6,142.0,250310,,,A*47
$GPRMC,181925.7,A,3337.362113,N,11742.933735,W,64.7,142.5,250310,,,A*46
$GPRMC,181928.7,A,3337.319974,N,11742.894175,W,64.6,141.7,250310,,,A*40
$GPRMC,181931.7,A,3337.277840,N,11742.855579,W,64.2,142.7,250310,,,A*45
$GPRMC,181934.7,A,3337.236556,N,11742.816668,W,63.7,142.6,250310,,,A*48
$GPRMC,181937.7,A,3337.193106,N,11742.775845,W,64.1,142.5,250310,,,A*4F
$GPRMC,181940.7,A,3337.150728,N,11742.737024,W,64.6,142.3,250310,,,A*42
$GPRMC,181943.7,A,3337.106448,N,11742.697708,W,65.5,142.7,250310,,,A*43
$GPRMC,181946.7,A,3337.063326,N,11742.659464,W,64.2,143.2,250310,,,A*42
$GPRMC,181949.7,A,3337.020985,N,11742.620683,W,63.8,142.4,250310,,,A*46
$GPRMC,181952.7,A,3336.978757,N,11742.578836,W,64.6,141.0,250310,,,A*48
$GPRMC,181955.7,A,3336.939072,N,11742.536674,W,64.1,137.1,250310,,,A*4F
$GPRMC,181958.7,A,3336.900349,N,11742.491941,W,64.6,135.7,250310,,,A*45
$GPRMC,182001.7,A,3336.862534,N,11742.448338,W,64.6,135.2,250310,,,A*4F
$GPRMC,182004.7,A,3336.820865,N,11742.401875,W,66.5,135.6,250310,,,A*4F
$GPRMC,182007.7,A,3336.782440,N,11742.355587,W,65.5,135.7,250310,,,A*44
$GPRMC,182010.7,A,3336.744290,N,11742.309704,W,65.4,135.6,250310,,,A*43
$GPRMC,182013.7,A,3336.705316,N,11742.263526,W,65.8,135.4,250310,,,A*4B
$GPRMC,182016.7,A,3336.667341,N,11742.217126,W,65.6,134.0,250310,,,A*45
$GPRMC,182019.7,A,3336.631135,N,11742.167408,W,66.4,130.0,250310,,,A*40
$GPRMC,182022.7,A,3336.598625,N,11742.115134,W,65.9,126.5,250310,,,A*4D
$GPRMC,182025.7,A,3336.569443,N,11742.060380,W,65.1,123.1,250310,,,A*41
$GPRMC,182028.7,A,3336.542075,N,11742.002578,W,66.0,119.7,250310,,,A*4C
$GPRMC,182031.7,A,3336.517604,N,11741.945773,W,65.4,118.1,250310,,,A*44
$GPRMC,182034.7,A,3336.492646,N,11741.887052,W,66.0,117.5,250310,,,A*4C
$GPRMC,182037.7,A,3336.468794,N,11741.829489,W,65.2,116.9,250310,,,A*4E
$GPRMC,182040.7,A,3336.444803,N,11741.769724,W,66.2,116.5,250310,,,A*41
$GPRMC,182046.7,A,3336.394229,N,11741.652879,W,65.3,118.3,250310,,,A*4B
$GPRMC,182049.7,A,3336.367536,N,11741.595684,W,64.8,119.5,250310,,,A*48
$GPRMC,182052.7,A,3336.340386,N,11741.539993,W,64.9,121.5,250310,,,A*4F
$GPRMC,182055.7,A,3336.308064,N,11741.484951,W,65.4,124.2,250310,,,A*4C
$GPRMC,182058.7,A,3336.275237,N,11741.431927,W,65.6,126.2,250310,,,A*41
$GPRMC,182101.7,A,3336.238799,N,11741.382759,W,65.4,128.9,250310,,,A*4B
$GPRMC,182104.7,A,3336.202383,N,11741.331951,W,65.3,128.6,250310,,,A*4E
$GPRMC,182107.7,A,3336.169082,N,11741.278086,W,66.1,125.2,250310,,,A*46
$GPRMC,182110.7,A,3336.140415,N,11741.222912,W,66.2,122.2,250310,,,A*4E
$GPRMC,182113.7,A,3336.115614,N,11741.164800,W,65.5,118.6,250310,,,A*44
$GPRMC,182116.7,A,3336.091051,N,11741.107395,W,65.6,116.7,250310,,,A*45
$GPRMC,182119.7,A,3336.067126,N,11741.047925,W,65.7,115.2,250310,,,A*41
$GPRMC,182122.7,A,3336.044489,N,11740.988156,W,65.6,115.6,250310,,,A*4A
$GPRMC,182125.7,A,3336.021102,N,11740.929190,W,65.8,114.8,250310,,,A*48
$GPRMC,182128.7,A,3335.999086,N,11740.870642,W,64.8,114.8,250310,,,A*45
$GPRMC,182131.7,A,3335.976528,N,11740.811971,W,64.5,115.0,250310,,,A*41
$GPRMC,182134.7,A,3335.953215,N,11740.751546,W,65.7,115.6,250310,,,A*4C
$GPRMC,182137.7,A,3335.931033,N,11740.692042,W,65.6,115.5,250310,,,A*40
$GPRMC,182140.7,A,3335.903708,N,11740.633623,W,64.8,120.7,250310,,,A*4F
$GPRMC,182143.7,A,3335.872845,N,11740.581282,W,63.7,126.0,250310,,,A*41
$GPRMC,182146.7,A,3335.835781,N,11740.532417,W,64.6,132.0,250310,,,A*41
$GPRMC,182149.7,A,3335.795691,N,11740.487714,W,65.1,136.5,250310,,,A*43
$GPRMC,182154.7,A,3335.724090,N,11740.420112,W,64.2,143.1,250310,,,A*4B
$GPRMC,182157.7,A,3335.677716,N,11740.383667,W,64.9,146.6,250310,,,A*44
$GPRMC,182200.7,A,3335.629537,N,11740.352184,W,64.1,152.6,250310,,,A*44
$GPRMC,182203.7,A,3335.577733,N,11740.328408,W,64.7,159.1,250310,,,A*4F
$GPRMC,182206.7,A,3335.527199,N,11740.310820,W,65.0,165.2,250310,,,A*4E
$GPRMC,182209.7,A,3335.470727,N,11740.302491,W,66.1,173.7,250310,,,A*44
$GPRMC,182212.7,A,3335.416074,N,11740.299579,W,66.1,179.0,250310,,,A*46
$GPRMC,182215.7,A,3335.360211,N,11740.299755,W,65.8,180.3,250310,,,A*45
$GPRMC,182218.7,A,3335.303620,N,11740.300794,W,66.0,180.7,250310,,,A*48
$GPRMC,182221.7,A,3335.248571,N,11740.302984,W,65.5,181.1,250310,,,A*47
$GPRMC,182224.7,A,3335.193988,N,11740.304022,W,65.5,180.7,250310,,,A*49
$GPRMC,182227.7,A,3335.139370,N,11740.305205,W,65.8,180.9,250310,,,A*42
$GPRMC,182230.7,A,3335.084152,N,11740.305684,W,65.3,181.1,250310,,,A*4E
$GPRMC,182233.7,A,3335.031987,N,11740.307694,W,62.4,181.9,250310,,,A*48
$GPRMC,182236.7,A,3334.981431,N,11740.308819,W,60.8,180.8,250310,,,A*44
$GPRMC,182239.7,A,3334.930310,N,11740.310246,W,61.9,181.0,250310,,,A*45
$GPRMC,182242.7,A,3334.878905,N,11740.312346,W,63.8,181.2,250310,,,A*48
$GPRMC,182245.7,A,3334.827362,N,11740.314478,W,62.3,181.4,250310,,,A*4E
$GPRMC,182248.7,A,3334.776850,N,11740.314932,W,60.4,180.8,250310,,,A*49
$GPRMC,182251.7,A,3334.723763,N,11740.316481,W,62.8,180.9,250310,,,A*46
$GPRMC,182254.7,A,3334.670869,N,11740.317601,W,61.5,181.2,250310,,,A*4E
$GPRMC,182257.7,A,3334.624652,N,11740.319063,W,54.7,182.8,250310,,,A*4B
$GPRMC,182300.7,A,3334.579183,N,11740.320962,W,56.3,182.9,250310,,,A*4D
$GPRMC,182303.7,A,3334.531038,N,11740.322542,W,58.9,181.6,250310,,,A*47
$GPRMC,182306.7,A,3334.480913,N,11740.323040,W,59.2,180.6,250310,,,A*44
$GPRMC,182309.7,A,3334.433165,N,11740.324085,W,56.7,180.9,250310,,,A*41
$GPRMC,182312.7,A,3334.385345,N,11740.325070,W,57.2,180.8,250310,,,A*4F
$GPRMC,182317.7,A,3334.307443,N,11740.326382,W,54.3,180.8,250310,,,A*4E
$GPRMC,182320.7,A,3334.262079,N,11740.327629,W,53.9,180.9,250310,,,A*4C
$GPRMC,182323.7,A,3334.217241,N,11740.327929,W,52.5,180.7,250310,,,A*48
$GPRMC,182326.7,A,3334.173029,N,11740.328984,W,53.2,181.4,250310,,,A*4C
$GPRMC,182329.7,A,3334.129832,N,11740.331472,W,51.9,183.4,250310,,,A*49
$GPRMC,182332.7,A,3334.087088,N,11740.335640,W,51.0,184.8,250310,,,A*4A
$GPRMC,182335.7,A,3334.046293,N,11740.339780,W,48.9,186.2,250310,,,A*40
$GPRMC,182338.7,A,3334.006087,N,11740.345182,W,47.8,186.6,250310,,,A*4B
$GPRMC,182341.7,A,3333.965198,N,11740.350153,W,49.5,186.4,250310,,,A*48
$GPRMC,182344.7,A,3333.921559,N,11740.355164,W,51.7,185.8,250310,,,A*41
$GPRMC,182347.7,A,3333.878714,N,11740.362581,W,51.6,186.7,250310,,,A*42
$GPRMC,182350.7,A,3333.837051,N,11740.366534,W,49.8,185.9,250310,,,A*49
$GPRMC,182353.7,A,3333.795736,N,11740.372266,W,49.2,186.2,250310,,,A*4C
$GPRMC,182356.7,A,3333.754874,N,11740.377272,W,49.4,185.8,250310,,,A*42
$GPRMC,182359.7,A,3333.714920,N,11740.383117,W,48.8,188.4,250310,,,A*4E
$GPRMC,182402.7,A,3333.677028,N,11740.390143,W,47.2,189.9,250310,,,A*48
$GPRMC,182405.7,A,3333.640324,N,11740.397533,W,44.7,189.5,250310,,,A*4A
$GPRMC,182408.7,A,3333.607809,N,11740.404029,W,39.8,189.7,250310,,,A*44
$GPRMC,182411.7,A,3333.582869,N,11740.409068,W,28.8,188.1,250310,,,A*4B
$GPRMC,182414.7,A,3333.568567,N,11740.412923,W,15.9,190.2,250310,,,A*40
$GPRMC,182417.7,A,3333.564193,N,11740.413985,W,4.9,186.6,250310,,,A*7E
$GPRMC,182456.7,A,3333.555493,N,11740.416615,W,8.3,203.2,250310,,,A*73
$GPRMC,182459.7,A,3333.545313,N,11740.414568,W,12.0,147.1,250310,,,A*41
$GPRMC,182502.7,A,3333.539784,N,11740.403469,W,12.5,121.0,250310,,,A*4D
$GPRMC,182505.7,A,3333.542575,N,11740.388858,W,15.1,90.8,250310,,,A*70
$GPRMC,182508.7,A,3333.550136,N,11740.372228,W,15.8,69.8,250310,,,A*7A
$GPRMC,182511.7,A,3333.554072,N,11740.358604,W,11.5,70.2,250310,,,A*7E
$GPRMC,182514.7,A,3333.557644,N,11740.348711,W,7.9,68.5,250310,,,A*4A
$GPRMC,182520.7,A,3333.562018,N,11740.336429,W,10.1,68.1,250310,,,A*7F
$GPRMC,182523.7,A,3333.568212,N,11740.321902,W,19.2,62.8,250310,,,A*75
$GPRMC,182526.7,A,3333.575467,N,11740.306128,W,16.2,57.7,250310,,,A*7B
$GPRMC,182529.7,A,3333.581961,N,11740.294186,W,13.9,53.5,250310,,,A*72
$GPRMC,182532.7,A,3333.590184,N,11740.281919,W,18.1,52.2,250310,,,A*74
$GPRMC,182535.7,A,3333.604304,N,11740.265433,W,23.1,46.1,250310,,,A*76
$GPRMC,182538.7,A,3333.619331,N,11740.248895,W,24.5,42.5,250310,,,A*7D
$GPRMC,182541.7,A,3333.635114,N,11740.235039,W,22.8,34.1,250310,,,A*72
$GPRMC,182544.7,A,3333.650295,N,11740.223131,W,20.2,33.6,250310,,,A*78
$GPRMC,182547.7,A,3333.661905,N,11740.212920,W,18.4,40.6,250310,,,A*78
$GPRMC,182550.7,A,3333.673344,N,11740.202311,W,15.5,37.1,250310,,,A*70
$GPRMC,182553.7,A,3333.679316,N,11740.193386,W,11.3,50.5,250310,,,A*7C
$GPRMC,182644.7,A,3333.693777,N,11740.180899,W,8.2,46.1,250310,,,A*43
$GPRMC,182647.7,A,3333.705905,N,11740.166428,W,17.5,47.0,250310,,,A*72
$GPRMC,182650.7,A,3333.721103,N,11740.146349,W,22.6,51.9,250310,,,A*75
$GPRMC,182653.7,A,3333.732061,N,11740.129206,W,19.8,56.7,250310,,,A*7D
$GPRMC,182656.7,A,3333.739996,N,11740.113002,W,16.2,60.6,250310,,,A*7C
$GPRMC,182659.7,A,3333.745060,N,11740.103852,W,7.3,69.0,250310,,,A*4A
