NMEA Sentence Code,UTC Time,Status,Latitude,Latitude Direction,Longitude,Longitude Direction,Speed (knots),Track Angle (degrees true),Date,MagneticVariation,Magnetic Variation Direction,[FAA Mode]-Optional,Checksum
$GPRMC,151837.000,A,3246.3562,N,11700.3521,W,14.74,18.9,151110,,*28
$GPRMC,151840.000,A,3246.3701,N,11700.3409,W,23.12,37.7,151110,,*23
$GPRMC,151843.000,A,3246.3853,N,11700.3252,W,20.97,39.4,151110,,*23
$GPRMC,151846.000,A,3246.3970,N,11700.3138,W,13.64,38.6,151110,,*26
$GPRMC,151849.000,A,3246.4030,N,11700.3071,W,8.97,44.2,151110,,*16
$GPRMC,151852.000,A,3246.4061,N,11700.2940,W,19.46,78.2,151110,,*21
$GPRMC,151855.000,A,3246.4063,N,11700.2700,W,26.55,87.6,151110,,*24
$GPRMC,151858.000,A,3246.4064,N,11700.2406,W,29.77,89.2,151110,,*2E
$GPRMC,151901.000,A,3246.4063,N,11700.2098,W,31.99,89.9,151110,,*25
$GPRMC,151904.000,A,3246.4054,N,11700.1764,W,34.17,92.0,151110,,*23
$GPRMC,151907.000,A,3246.4026,N,11700.1457,W,28.46,96.6,151110,,*2D
$GPRMC,151910.000,A,3246.4002,N,11700.1216,W,19.46,98.2,151110,,*26
$GPRMC,151913.000,A,3246.4005,N,11700.1109,W,8.06,94.7,151110,,*12
$GPRMC,151928.000,A,3246.4025,N,11700.1087,W,6.08,96.0,151110,,*1A
$GPRMC,151931.000,A,3246.4056,N,11700.1021,W,12.47,35.3,151110,,*2E
$GPRMC,151934.000,A,3246.4181,N,11700.1004,W,18.72,356.7,151110,,*19
$GPRMC,151937.000,A,3246.4363,N,11700.1039,W,24.30,351.6,151110,,*15
$GPRMC,151940.000,A,3246.4579,N,11700.1122,W,28.06,340.6,151110,,*1A
$GPRMC,151943.000,A,3246.4818,N,11700.1251,W,32.58,336.7,151110,,*14
$GPRMC,151946.000,A,3246.5095,N,11700.1396,W,37.38,335.9,151110,,*19
$GPRMC,151949.000,A,3246.5389,N,11700.1559,W,35.85,335.2,151110,,*12
$GPRMC,151952.000,A,3246.5612,N,11700.1683,W,19.84,334.8,151110,,*1F
$GPRMC,151955.000,A,3246.5726,N,11700.1748,W,11.97,335.1,151110,,*1A
$GPRMC,152004.000,A,3246.5800,N,11700.1787,W,8.70,338.0,151110,,*21
$GPRMC,152007.000,A,3246.5865,N,11700.1823,W,6.08,334.1,151110,,*2C
$GPRMC,152010.000,A,3246.5899,N,11700.1840,W,4.65,334.1,151110,,*25
$GPRMC,152013.000,A,3246.5969,N,11700.1869,W,14.78,338.7,151110,,*14
$GPRMC,152016.000,A,3246.6144,N,11700.1943,W,27.63,342.5,151110,,*19
$GPRMC,152019.000,A,3246.6429,N,11700.2036,W,39.49,344.7,151110,,*13
$GPRMC,152022.000,A,3246.6777,N,11700.2159,W,45.60,343.1,151110,,*1A
$GPRMC,152025.000,A,3246.7183,N,11700.2295,W,52.13,344.5,151110,,*13
$GPRMC,152028.000,A,3246.7631,N,11700.2439,W,57.20,344.9,151110,,*19
$GPRMC,152031.000,A,3246.8122,N,11700.2593,W,62.03,345.2,151110,,*17
$GPRMC,152034.000,A,3246.8622,N,11700.2754,W,61.40,345.1,151110,,*1B
$GPRMC,152037.000,A,3246.9126,N,11700.2916,W,63.10,345.0,151110,,*14
$GPRMC,152040.000,A,3246.9642,N,11700.3074,W,64.05,345.1,151110,,*1F
$GPRMC,152043.000,A,3247.0159,N,11700.3235,W,62.62,345.1,151110,,*19
$GPRMC,152046.000,A,3247.0660,N,11700.3388,W,61.59,345.5,151110,,*19
$GPRMC,152049.000,A,3247.1165,N,11700.3525,W,62.72,347.5,151110,,*1C
$GPRMC,152052.000,A,3247.1680,N,11700.3641,W,61.70,350.1,151110,,*18
$GPRMC,152055.000,A,3247.2200,N,11700.3731,W,63.28,352.5,151110,,*1F
$GPRMC,152058.000,A,3247.2732,N,11700.3798,W,65.25,354.3,151110,,*1E
$GPRMC,152101.000,A,3247.3276,N,11700.3837,W,63.32,356.8,151110,,*14
$GPRMC,152104.000,A,3247.3796,N,11700.3834,W,62.02,1.0,151110,,*12
$GPRMC,152107.000,A,3247.4313,N,11700.3804,W,60.88,2.6,151110,,*19
$GPRMC,152110.000,A,3247.4806,N,11700.3748,W,59.52,5.5,151110,,*1E
$GPRMC,152113.000,A,3247.5287,N,11700.3667,W,56.69,8.2,151110,,*1E
$GPRMC,152116.000,A,3247.5749,N,11700.3567,W,56.28,10.4,151110,,*25
$GPRMC,152119.000,A,3247.6208,N,11700.3457,W,55.58,11.0,151110,,*2A
$GPRMC,152122.000,A,3247.6668,N,11700.3360,W,55.54,9.4,151110,,*12
$GPRMC,152125.000,A,3247.7132,N,11700.3290,W,55.67,7.1,151110,,*19
$GPRMC,152128.000,A,3247.7598,N,11700.3243,W,56.22,4.1,151110,,*1F
$GPRMC,152131.000,A,3247.8063,N,11700.3228,W,56.08,1.4,151110,,*1C
$GPRMC,152134.000,A,3247.8531,N,11700.3218,W,57.30,359.9,151110,,*11
$GPRMC,152137.000,A,3247.9016,N,11700.3218,W,58.33,0.2,151110,,*1B
$GPRMC,152140.000,A,3247.9505,N,11700.3218,W,58.69,0.3,151110,,*12
$GPRMC,152143.000,A,3247.9999,N,11700.3216,W,59.23,0.4,151110,,*1E
$GPRMC,152146.000,A,3248.0494,N,11700.3215,W,59.28,0.2,151110,,*13
$GPRMC,152149.000,A,3248.0990,N,11700.3212,W,58.91,0.5,151110,,*16
$GPRMC,152152.000,A,3248.1490,N,11700.3209,W,60.18,0.5,151110,,*10
$GPRMC,152155.000,A,3248.2000,N,11700.3209,W,61.16,0.5,151110,,*16
$GPRMC,152158.000,A,3248.2505,N,11700.3204,W,60.09,0.4,151110,,*18
$GPRMC,152201.000,A,3248.3010,N,11700.3205,W,61.16,0.1,151110,,*1C
$GPRMC,152204.000,A,3248.3521,N,11700.3205,W,60.92,0.1,151110,,*13
$GPRMC,152207.000,A,3248.4019,N,11700.3204,W,58.23,0.3,151110,,*1B
$GPRMC,152210.000,A,3248.4506,N,11700.3202,W,58.29,1.1,151110,,*19
$GPRMC,152213.000,A,3248.4992,N,11700.3151,W,57.29,5.7,151110,,*13
$GPRMC,152216.000,A,3248.5452,N,11700.3055,W,55.32,10.8,151110,,*20
$GPRMC,152219.000,A,3248.5890,N,11700.2905,W,55.57,16.5,151110,,*28
$GPRMC,152222.000,A,3248.6329,N,11700.2698,W,57.31,22.6,151110,,*27
$GPRMC,152225.000,A,3248.6765,N,11700.2418,W,59.35,28.5,151110,,*25
$GPRMC,152228.000,A,3248.7190,N,11700.2113,W,59.09,30.6,151110,,*2E
$GPRMC,152231.000,A,3248.7612,N,11700.1815,W,57.72,30.8,151110,,*2B
$GPRMC,152234.000,A,3248.8026,N,11700.1522,W,56.99,30.5,151110,,*20
$GPRMC,152237.000,A,3248.8444,N,11700.1239,W,56.41,29.3,151110,,*25
$GPRMC,152240.000,A,3248.8862,N,11700.0989,W,56.40,25.7,151110,,*25
$GPRMC,152243.000,A,3248.9285,N,11700.0789,W,52.48,20.8,151110,,*2C
$GPRMC,152246.000,A,3248.9693,N,11700.0649,W,49.26,15.8,151110,,*23
$GPRMC,152249.000,A,3249.0080,N,11700.0556,W,45.06,11.1,151110,,*2E
$GPRMC,152252.000,A,3249.0434,N,11700.0499,W,41.84,7.0,151110,,*15
$GPRMC,152255.000,A,3249.0787,N,11700.0485,W,43.01,1.7,151110,,*1A
$GPRMC,152258.000,A,3249.1176,N,11700.0503,W,48.52,357.8,151110,,*13
$GPRMC,152301.000,A,3249.1595,N,11700.0553,W,52.20,353.9,151110,,*19
$GPRMC,152304.000,A,3249.2042,N,11700.0657,W,53.68,348.6,151110,,*1F
$GPRMC,152307.000,A,3249.2491,N,11700.0815,W,56.34,344.1,151110,,*19
$GPRMC,152310.000,A,3249.2958,N,11700.1001,W,58.38,341.7,151110,,*1A
$GPRMC,152313.000,A,3249.3418,N,11700.1188,W,57.75,341.6,151110,,*16
$GPRMC,152316.000,A,3249.3886,N,11700.1372,W,58.79,342.0,151110,,*19
$GPRMC,152319.000,A,3249.4362,N,11700.1533,W,60.07,344.7,151110,,*10
$GPRMC,152322.000,A,3249.4862,N,11700.1661,W,60.59,348.5,151110,,*12
$GPRMC,152325.000,A,3249.5341,N,11700.1749,W,55.35,351.8,151110,,*1C
$GPRMC,152328.000,A,3249.5739,N,11700.1799,W,39.28,354.9,151110,,*15
$GPRMC,152331.000,A,3249.5991,N,11700.1797,W,22.85,1.3,151110,,*1B
$GPRMC,152334.000,A,3249.6115,N,11700.1790,W,11.82,1.5,151110,,*1F
$GPRMC,152337.000,A,3249.6195,N,11700.1789,W,10.81,359.3,151110,,*16
$GPRMC,152340.000,A,3249.6283,N,11700.1793,W,11.89,359.0,151110,,*13
$GPRMC,152343.000,A,3249.6382,N,11700.1793,W,13.32,0.4,151110,,*19
$GPRMC,152346.000,A,3249.6499,N,11700.1797,W,16.44,359.8,151110,,*12
$GPRMC,152349.000,A,3249.6645,N,11700.1797,W,18.04,359.8,151110,,*14
$GPRMC,152352.000,A,3249.6764,N,11700.1799,W,11.85,359.3,151110,,*19
$GPRMC,152355.000,A,3249.6858,N,11700.1799,W,12.12,0.2,151110,,*1D
$GPRMC,152358.000,A,3249.6965,N,11700.1800,W,13.20,359.7,151110,,*1A
$GPRMC,152401.000,A,3249.7092,N,11700.1800,W,16.36,0.3,151110,,*18
$GPRMC,152404.000,A,3249.7225,N,11700.1801,W,15.49,360.0,151110,,*1F
$GPRMC,152407.000,A,3249.7355,N,11700.1800,W,15.65,360.0,151110,,*15
$GPRMC,152410.000,A,3249.7451,N,11700.1806,W,8.35,359.5,151110,,*20
$GPRMC,152413.000,A,3249.7516,N,11700.1807,W,8.42,359.7,151110,,*22
$GPRMC,152416.000,A,3249.7592,N,11700.1806,W,10.17,359.6,151110,,*12
$GPRMC,152419.000,A,3249.7698,N,11700.1805,W,15.74,359.4,151110,,*15
$GPRMC,152422.000,A,3249.7834,N,11700.1806,W,15.90,359.4,151110,,*1C
$GPRMC,152425.000,A,3249.7930,N,11700.1810,W,7.92,358.6,151110,,*2B
$GPRMC,152428.000,A,3249.7976,N,11700.1810,W,4.78,0.8,151110,,*23
$GPRMC,152431.000,A,3249.8011,N,11700.1805,W,4.57,0.8,151110,,*25
$GPRMC,152437.000,A,3249.8072,N,11700.1803,W,6.33,0.9,151110,,*21
$GPRMC,152440.000,A,3249.8133,N,11700.1802,W,10.73,2.5,151110,,*19
$GPRMC,152443.000,A,3249.8269,N,11700.1803,W,18.21,360.0,151110,,*1A
$GPRMC,152446.000,A,3249.8409,N,11700.1806,W,14.18,359.7,151110,,*11
$GPRMC,152449.000,A,3249.8525,N,11700.1807,W,13.32,359.8,151110,,*10
$GPRMC,152452.000,A,3249.8636,N,11700.1809,W,13.95,359.2,151110,,*12
$GPRMC,152455.000,A,3249.8755,N,11700.1804,W,12.21,1.1,151110,,*1F
$GPRMC,152458.000,A,3249.8851,N,11700.1802,W,11.10,1.8,151110,,*17
$GPRMC,152501.000,A,3249.8950,N,11700.1800,W,12.33,2.1,151110,,*10
$GPRMC,152504.000,A,3249.9046,N,11700.1794,W,11.58,2.8,151110,,*1F
$GPRMC,152507.000,A,3249.9149,N,11700.1789,W,12.72,2.7,151110,,*1A
$GPRMC,152510.000,A,3249.9256,N,11700.1786,W,13.00,2.7,151110,,*1A
$GPRMC,152513.000,A,3249.9370,N,11700.1782,W,14.03,2.3,151110,,*18
$GPRMC,152516.000,A,3249.9501,N,11700.1775,W,17.64,2.5,151110,,*11
$GPRMC,152519.000,A,3249.9661,N,11700.1766,W,20.92,2.5,151110,,*14
$GPRMC,152522.000,A,3249.9833,N,11700.1755,W,18.72,2.4,151110,,*11
$GPRMC,152525.000,A,3249.9984,N,11700.1751,W,15.90,2.0,151110,,*1A
$GPRMC,152528.000,A,3250.0104,N,11700.1746,W,13.49,2.4,151110,,*16
$GPRMC,152531.000,A,3250.0208,N,11700.1742,W,10.70,358.6,151110,,*12
$GPRMC,152534.000,A,3250.0279,N,11700.1733,W,7.45,2.1,151110,,*2C
$GPRMC,152537.000,A,3250.0328,N,11700.1729,W,5.71,2.2,151110,,*27
$GPRMC,152540.000,A,3250.0387,N,11700.1728,W,9.47,3.6,151110,,*2F
$GPRMC,152543.000,A,3250.0479,N,11700.1722,W,12.10,3.0,151110,,*1E
$GPRMC,152546.000,A,3250.0563,N,11700.1723,W,7.50,359.5,151110,,*29
$GPRMC,152555.000,A,3250.0662,N,11700.1723,W,6.89,359.0,151110,,*29
$GPRMC,152558.000,A,3250.0718,N,11700.1723,W,5.91,357.1,151110,,*2D
$GPRMC,152601.000,A,3250.0761,N,11700.1729,W,4.75,357.1,151110,,*2D
$GPRMC,152619.000,A,3250.0863,N,11700.1741,W,6.88,352.5,151110,,*26
$GPRMC,152622.000,A,3250.0972,N,11700.1764,W,17.05,349.7,151110,,*15
$GPRMC,152625.000,A,3250.1110,N,11700.1807,W,14.75,344.5,151110,,*1E
$GPRMC,152628.000,A,3250.1221,N,11700.1854,W,13.11,339.9,151110,,*17
$GPRMC,152631.000,A,3250.1327,N,11700.1910,W,15.05,335.8,151110,,*17
$GPRMC,152634.000,A,3250.1440,N,11700.1978,W,16.76,331.9,151110,,*18
$GPRMC,152637.000,A,3250.1564,N,11700.2070,W,17.10,327.1,151110,,*10
$GPRMC,152640.000,A,3250.1682,N,11700.2175,W,16.72,321.9,151110,,*14
$GPRMC,152643.000,A,3250.1788,N,11700.2290,W,18.47,316.5,151110,,*14
$GPRMC,152646.000,A,3250.1895,N,11700.2430,W,19.10,311.8,151110,,*17
$GPRMC,152649.000,A,3250.1993,N,11700.2581,W,19.38,306.8,151110,,*18
$GPRMC,152652.000,A,3250.2080,N,11700.2747,W,20.21,301.0,151110,,*1F
$GPRMC,152655.000,A,3250.2148,N,11700.2921,W,16.97,295.0,151110,,*17
$GPRMC,152658.000,A,3250.2192,N,11700.3069,W,15.32,289.8,151110,,*10
$GPRMC,152701.000,A,3250.2219,N,11700.3205,W,12.82,285.4,151110,,*19
$GPRMC,152704.000,A,3250.2242,N,11700.3324,W,10.85,281.8,151110,,*1D
$GPRMC,152707.000,A,3250.2258,N,11700.3425,W,10.88,278.6,151110,,*16
$GPRMC,152710.000,A,3250.2267,N,11700.3533,W,11.23,276.2,151110,,*10
$GPRMC,152713.000,A,3250.2273,N,11700.3639,W,10.47,272.3,151110,,*19
$GPRMC,152716.000,A,3250.2271,N,11700.3746,W,10.56,268.6,151110,,*19
$GPRMC,152719.000,A,3250.2265,N,11700.3843,W,9.12,266.5,151110,,*2C
$GPRMC,152722.000,A,3250.2259,N,11700.3932,W,9.41,263.2,151110,,*28
$GPRMC,152725.000,A,3250.2245,N,11700.4032,W,10.65,260.8,151110,,*1B
$GPRMC,152728.000,A,3250.2223,N,11700.4146,W,13.04,257.4,151110,,*18
$GPRMC,152731.000,A,3250.2191,N,11700.4280,W,14.42,255.4,151110,,*14
$GPRMC,152734.000,A,3250.2162,N,11700.4416,W,14.10,256.0,151110,,*14
$GPRMC,152737.000,A,3250.2134,N,11700.4541,W,12.48,256.5,151110,,*19
$GPRMC,152740.000,A,3250.2111,N,11700.4668,W,12.23,255.7,151110,,*1A
$GPRMC,152743.000,A,3250.2083,N,11700.4793,W,12.30,255.1,151110,,*12
$GPRMC,152746.000,A,3250.2063,N,11700.4894,W,7.69,252.3,151110,,*2C
$GPRMC,152749.000,A,3250.2051,N,11700.4946,W,5.54,249.5,151110,,*2C
$GPRMC,152752.000,A,3250.2038,N,11700.4987,W,5.93,247.2,151110,,*26
$GPRMC,152755.000,A,3250.2025,N,11700.5049,W,7.75,249.2,151110,,*23
$GPRMC,152758.000,A,3250.2010,N,11700.5137,W,10.55,252.8,151110,,*14
$GPRMC,152819.000,A,3250.1974,N,11700.5250,W,5.43,251.2,151110,,*2E
$GPRMC,152825.000,A,3250.1961,N,11700.5341,W,6.74,255.2,151110,,*27
$GPRMC,152828.000,A,3250.1949,N,11700.5413,W,7.96,255.6,151110,,*29
$GPRMC,152831.000,A,3250.1935,N,11700.5497,W,9.31,255.6,151110,,*25
$GPRMC,152834.000,A,3250.1915,N,11700.5603,W,12.12,256.3,151110,,*10
$GPRMC,152837.000,A,3250.1892,N,11700.5723,W,10.81,255.6,151110,,*10
$GPRMC,152840.000,A,3250.1878,N,11700.5792,W,4.87,255.9,151110,,*22
$GPRMC,152852.000,A,3250.1869,N,11700.5854,W,8.16,255.6,151110,,*2F
$GPRMC,152855.000,A,3250.1849,N,11700.5954,W,10.16,256.0,151110,,*17
$GPRMC,152858.000,A,3250.1830,N,11700.6050,W,9.88,256.7,151110,,*22
$GPRMC,152901.000,A,3250.1805,N,11700.6170,W,15.07,257.0,151110,,*16
$GPRMC,152904.000,A,3250.1771,N,11700.6350,W,20.76,256.6,151110,,*18
$GPRMC,152907.000,A,3250.1734,N,11700.6543,W,17.56,257.8,151110,,*17
$GPRMC,152910.000,A,3250.1709,N,11700.6705,W,15.71,259.5,151110,,*1B
$GPRMC,152913.000,A,3250.1688,N,11700.6872,W,19.84,261.8,151110,,*1F
$GPRMC,152916.000,A,3250.1662,N,11700.7084,W,21.93,263.6,151110,,*1F
$GPRMC,152919.000,A,3250.1647,N,11700.7296,W,21.12,265.0,151110,,*1F
$GPRMC,152922.000,A,3250.1633,N,11700.7505,W,20.47,267.4,151110,,*1E
$GPRMC,152925.000,A,3250.1629,N,11700.7701,W,20.17,269.6,151110,,*1D
$GPRMC,152928.000,A,3250.1634,N,11700.7917,W,22.33,271.8,151110,,*16
$GPRMC,152931.000,A,3250.1644,N,11700.8160,W,25.59,273.1,151110,,*1E
$GPRMC,152934.000,A,3250.1657,N,11700.8448,W,32.05,273.8,151110,,*10
$GPRMC,152937.000,A,3250.1679,N,11700.8793,W,36.33,273.9,151110,,*1A
$GPRMC,152940.000,A,3250.1701,N,11700.9152,W,35.01,274.1,151110,,*13
$GPRMC,152943.000,A,3250.1719,N,11700.9461,W,28.89,274.0,151110,,*11
$GPRMC,152946.000,A,3250.1743,N,11700.9764,W,34.04,275.5,151110,,*11
$GPRMC,152949.000,A,3250.1770,N,11701.0123,W,36.56,274.9,151110,,*1B
$GPRMC,152952.000,A,3250.1792,N,11701.0492,W,39.00,274.5,151110,,*12
$GPRMC,152955.000,A,3250.1829,N,11701.0884,W,38.28,276.8,151110,,*15
$GPRMC,152958.000,A,3250.1885,N,11701.1208,W,29.47,281.5,151110,,*1D
$GPRMC,153001.000,A,3250.1940,N,11701.1458,W,23.25,284.8,151110,,*14
$GPRMC,153004.000,A,3250.1990,N,11701.1648,W,19.27,286.5,151110,,*1B
$GPRMC,153007.000,A,3250.2036,N,11701.1802,W,15.86,288.8,151110,,*1A
$GPRMC,153010.000,A,3250.2077,N,11701.1920,W,11.40,290.5,151110,,*12
$GPRMC,153013.000,A,3250.2111,N,11701.1991,W,8.09,290.8,151110,,*22
$GPRMC,153016.000,A,3250.2139,N,11701.2052,W,6.98,295.8,151110,,*2B
$GPRMC,153019.000,A,3250.2178,N,11701.2137,W,13.57,295.7,151110,,*1B
$GPRMC,153022.000,A,3250.2255,N,11701.2289,W,19.97,300.0,151110,,*15
$GPRMC,153025.000,A,3250.2354,N,11701.2467,W,20.81,302.8,151110,,*13
$GPRMC,153028.000,A,3250.2454,N,11701.2634,W,19.00,305.4,151110,,*15
$GPRMC,153031.000,A,3250.2554,N,11701.2783,W,18.89,308.3,151110,,*1B
$GPRMC,153034.000,A,3250.2652,N,11701.2918,W,15.97,311.0,151110,,*1E
$GPRMC,153037.000,A,3250.2738,N,11701.3027,W,13.59,312.7,151110,,*14
$GPRMC,153040.000,A,3250.2814,N,11701.3111,W,11.62,315.7,151110,,*1C
$GPRMC,153043.000,A,3250.2871,N,11701.3177,W,7.48,316.2,151110,,*25
$GPRMC,153055.000,A,3250.2929,N,11701.3240,W,10.82,316.4,151110,,*1F
$GPRMC,153058.000,A,3250.3020,N,11701.3333,W,16.94,319.1,151110,,*1D
$GPRMC,153101.000,A,3250.3158,N,11701.3462,W,22.28,322.4,151110,,*10
$GPRMC,153104.000,A,3250.3316,N,11701.3592,W,20.35,326.1,151110,,*1C
$GPRMC,153107.000,A,3250.3449,N,11701.3692,W,16.93,328.8,151110,,*1F
$GPRMC,153110.000,A,3250.3583,N,11701.3778,W,19.50,331.2,151110,,*19
$GPRMC,153113.000,A,3250.3733,N,11701.3866,W,18.73,333.5,151110,,*16
$GPRMC,153116.000,A,3250.3873,N,11701.3944,W,20.08,334.8,151110,,*14
$GPRMC,153119.000,A,3250.4041,N,11701.4040,W,24.24,334.6,151110,,*1B
$GPRMC,153122.000,A,3250.4213,N,11701.4136,W,20.98,335.1,151110,,*13
$GPRMC,153125.000,A,3250.4350,N,11701.4213,W,16.72,334.7,151110,,*10
$GPRMC,153128.000,A,3250.4477,N,11701.4290,W,18.85,334.6,151110,,*13
$GPRMC,153131.000,A,3250.4641,N,11701.4379,W,24.56,334.3,151110,,*1E
$GPRMC,153134.000,A,3250.4839,N,11701.4496,W,28.54,334.0,151110,,*11
$GPRMC,153137.000,A,3250.5073,N,11701.4626,W,33.42,334.4,151110,,*15
$GPRMC,153140.000,A,3250.5342,N,11701.4777,W,35.49,334.7,151110,,*1F
$GPRMC,153143.000,A,3250.5598,N,11701.4917,W,31.65,334.7,151110,,*1F
$GPRMC,153146.000,A,3250.5789,N,11701.5032,W,20.81,333.6,151110,,*1B
$GPRMC,153149.000,A,3250.5923,N,11701.5109,W,17.23,333.9,151110,,*10
$GPRMC,153152.000,A,3250.6046,N,11701.5178,W,15.29,335.1,151110,,*13
$GPRMC,153155.000,A,3250.6149,N,11701.5235,W,12.00,335.2,151110,,*1F
$GPRMC,153158.000,A,3250.6224,N,11701.5269,W,9.26,335.8,151110,,*27
$GPRMC,153201.000,A,3250.6309,N,11701.5316,W,14.10,334.7,151110,,*18
$GPRMC,153204.000,A,3250.6441,N,11701.5395,W,21.09,334.4,151110,,*10
$GPRMC,153207.000,A,3250.6612,N,11701.5497,W,23.58,334.4,151110,,*14
$GPRMC,153210.000,A,3250.6800,N,11701.5604,W,24.76,334.7,151110,,*1F
$GPRMC,153213.000,A,3250.6974,N,11701.5705,W,22.31,334.2,151110,,*1E
$GPRMC,153216.000,A,3250.7157,N,11701.5813,W,25.57,333.2,151110,,*1B
$GPRMC,153219.000,A,3250.7360,N,11701.5941,W,29.38,331.6,151110,,*17
$GPRMC,153222.000,A,3250.7566,N,11701.6088,W,27.18,329.1,151110,,*12
$GPRMC,153225.000,A,3250.7757,N,11701.6240,W,29.48,326.6,151110,,*10
$GPRMC,153228.000,A,3250.7972,N,11701.6415,W,30.71,324.6,151110,,*12
$GPRMC,153231.000,A,3250.8192,N,11701.6609,W,34.09,322.5,151110,,*12
$GPRMC,153234.000,A,3250.8422,N,11701.6839,W,36.33,319.9,151110,,*1B
$GPRMC,153237.000,A,3250.8640,N,11701.7073,W,34.50,317.6,151110,,*1F
$GPRMC,153240.000,A,3250.8855,N,11701.7321,W,36.15,315.2,151110,,*14
$GPRMC,153243.000,A,3250.9058,N,11701.7579,W,34.57,312.8,151110,,*11
$GPRMC,153246.000,A,3250.9247,N,11701.7837,W,34.74,310.6,151110,,*12
$GPRMC,153249.000,A,3250.9424,N,11701.8106,W,33.98,308.2,151110,,*12
$GPRMC,153252.000,A,3250.9582,N,11701.8367,W,30.83,305.6,151110,,*10
$GPRMC,153255.000,A,3250.9717,N,11701.8614,W,29.23,303.1,151110,,*1B
$GPRMC,153258.000,A,3250.9842,N,11701.8864,W,28.22,301.1,151110,,*12
$GPRMC,153301.000,A,3250.9958,N,11701.9114,W,28.88,299.1,151110,,*1A
$GPRMC,153304.000,A,3251.0066,N,11701.9363,W,26.72,297.0,151110,,*15
$GPRMC,153307.000,A,3251.0159,N,11701.9590,W,25.13,295.5,151110,,*12
$GPRMC,153310.000,A,3251.0246,N,11701.9818,W,25.87,293.6,151110,,*1C
$GPRMC,153313.000,A,3251.0331,N,11702.0066,W,26.90,291.4,151110,,*10
$GPRMC,153316.000,A,3251.0403,N,11702.0307,W,24.77,289.4,151110,,*15
$GPRMC,153319.000,A,3251.0469,N,11702.0525,W,22.48,288.1,151110,,*1E
$GPRMC,153322.000,A,3251.0526,N,11702.0745,W,23.98,286.7,151110,,*1C
$GPRMC,153325.000,A,3251.0580,N,11702.0988,W,25.45,284.9,151110,,*12
$GPRMC,153328.000,A,3251.0626,N,11702.1217,W,22.22,283.3,151110,,*17
$GPRMC,153331.000,A,3251.0668,N,11702.1441,W,24.30,282.0,151110,,*17
$GPRMC,153334.000,A,3251.0710,N,11702.1692,W,27.68,281.1,151110,,*1C
$GPRMC,153337.000,A,3251.0756,N,11702.1982,W,32.59,280.5,151110,,*10
$GPRMC,153340.000,A,3251.0806,N,11702.2321,W,36.98,280.2,151110,,*14
$GPRMC,153343.000,A,3251.0863,N,11702.2697,W,40.18,280.3,151110,,*14
$GPRMC,153346.000,A,3251.0925,N,11702.3096,W,41.10,280.3,151110,,*1D
$GPRMC,153349.000,A,3251.0982,N,11702.3501,W,40.74,279.9,151110,,*1B
$GPRMC,153352.000,A,3251.1033,N,11702.3887,W,39.03,279.7,151110,,*10
$GPRMC,153355.000,A,3251.1091,N,11702.4277,W,40.59,279.5,151110,,*1E
$GPRMC,153358.000,A,3251.1149,N,11702.4677,W,41.59,279.8,151110,,*1F
$GPRMC,153401.000,A,3251.1214,N,11702.5083,W,42.23,280.2,151110,,*11
$GPRMC,153404.000,A,3251.1282,N,11702.5506,W,43.69,280.1,151110,,*1F
$GPRMC,153407.000,A,3251.1343,N,11702.5937,W,45.27,280.2,151110,,*11
$GPRMC,153410.000,A,3251.1408,N,11702.6386,W,46.92,280.4,151110,,*17
$GPRMC,153413.000,A,3251.1479,N,11702.6842,W,45.60,280.2,151110,,*19
$GPRMC,153416.000,A,3251.1542,N,11702.7291,W,46.98,280.1,151110,,*17
$GPRMC,153419.000,A,3251.1610,N,11702.7753,W,48.03,280.1,151110,,*1B
$GPRMC,153422.000,A,3251.1681,N,11702.8224,W,48.59,280.4,151110,,*1B
$GPRMC,153425.000,A,3251.1757,N,11702.8701,W,48.36,280.8,151110,,*11
$GPRMC,153428.000,A,3251.1834,N,11702.9167,W,48.21,280.8,151110,,*17
$GPRMC,153431.000,A,3251.1906,N,11702.9624,W,47.14,279.9,151110,,*11
$GPRMC,153434.000,A,3251.1965,N,11703.0104,W,49.90,278.7,151110,,*11
$GPRMC,153437.000,A,3251.2034,N,11703.0584,W,48.93,279.7,151110,,*13
$GPRMC,153440.000,A,3251.2100,N,11703.1065,W,49.23,279.5,151110,,*16
$GPRMC,153443.000,A,3251.2168,N,11703.1547,W,50.04,279.5,151110,,*13
$GPRMC,153446.000,A,3251.2239,N,11703.2033,W,49.21,279.7,151110,,*19
$GPRMC,153449.000,A,3251.2309,N,11703.2503,W,47.44,280.0,151110,,*1E
$GPRMC,153452.000,A,3251.2380,N,11703.2972,W,49.13,280.0,151110,,*13
$GPRMC,153455.000,A,3251.2451,N,11703.3459,W,50.69,280.0,151110,,*1F
$GPRMC,153458.000,A,3251.2526,N,11703.3958,W,51.77,280.2,151110,,*13
$GPRMC,153501.000,A,3251.2602,N,11703.4468,W,52.11,280.1,151110,,*12
$GPRMC,153504.000,A,3251.2680,N,11703.4992,W,54.43,280.0,151110,,*15
$GPRMC,153507.000,A,3251.2757,N,11703.5529,W,55.62,280.0,151110,,*12
$GPRMC,153510.000,A,3251.2827,N,11703.6071,W,55.39,278.6,151110,,*18
$GPRMC,153513.000,A,3251.2875,N,11703.6615,W,55.17,275.2,151110,,*1D
$GPRMC,153516.000,A,3251.2891,N,11703.7160,W,55.07,271.8,151110,,*19
$GPRMC,153519.000,A,3251.2883,N,11703.7708,W,55.50,268.1,151110,,*1E
$GPRMC,153522.000,A,3251.2845,N,11703.8262,W,56.04,264.6,151110,,*13
$GPRMC,153525.000,A,3251.2775,N,11703.8822,W,59.40,261.0,151110,,*1A
$GPRMC,153528.000,A,3251.2671,N,11703.9404,W,59.85,257.3,151110,,*14
$GPRMC,153531.000,A,3251.2533,N,11703.9981,W,60.13,253.6,151110,,*1D
$GPRMC,153534.000,A,3251.2360,N,11704.0536,W,59.61,249.2,151110,,*16
$GPRMC,153537.000,A,3251.2160,N,11704.1065,W,58.13,245.7,151110,,*18
$GPRMC,153540.000,A,3251.1936,N,11704.1577,W,57.50,242.1,151110,,*1F
$GPRMC,153543.000,A,3251.1688,N,11704.2065,W,57.01,238.3,151110,,*18
$GPRMC,153546.000,A,3251.1417,N,11704.2521,W,56.63,234.6,151110,,*10
$GPRMC,153549.000,A,3251.1119,N,11704.2962,W,57.43,230.9,151110,,*17
$GPRMC,153552.000,A,3251.0802,N,11704.3390,W,58.57,228.3,151110,,*10
$GPRMC,153555.000,A,3251.0471,N,11704.3818,W,58.38,227.4,151110,,*15
$GPRMC,153558.000,A,3251.0139,N,11704.4245,W,60.10,227.4,151110,,*15
$GPRMC,153601.000,A,3250.9795,N,11704.4683,W,61.26,227.4,151110,,*18
$GPRMC,153604.000,A,3250.9448,N,11704.5130,W,61.05,227.1,151110,,*14
$GPRMC,153607.000,A,3250.9101,N,11704.5568,W,59.97,226.7,151110,,*11
$GPRMC,153610.000,A,3250.8760,N,11704.6000,W,59.53,226.7,151110,,*17
$GPRMC,153613.000,A,3250.8419,N,11704.6424,W,58.85,226.7,151110,,*11
$GPRMC,153616.000,A,3250.8083,N,11704.6848,W,58.31,227.2,151110,,*1E
$GPRMC,153619.000,A,3250.7762,N,11704.7284,W,58.53,229.4,151110,,*11
$GPRMC,153622.000,A,3250.7463,N,11704.7744,W,58.14,232.7,151110,,*18
$GPRMC,153625.000,A,3250.7186,N,11704.8217,W,58.69,236.0,151110,,*14
$GPRMC,153628.000,A,3250.6930,N,11704.8721,W,60.18,239.5,151110,,*1A
$GPRMC,153631.000,A,3250.6692,N,11704.9254,W,60.95,242.7,151110,,*18
$GPRMC,153634.000,A,3250.6484,N,11704.9802,W,60.79,246.4,151110,,*14
$GPRMC,153637.000,A,3250.6310,N,11705.0364,W,60.60,250.0,151110,,*15
$GPRMC,153640.000,A,3250.6162,N,11705.0938,W,59.48,253.2,151110,,*10
$GPRMC,153643.000,A,3250.6037,N,11705.1493,W,57.04,254.9,151110,,*15
$GPRMC,153646.000,A,3250.5917,N,11705.2032,W,56.77,255.0,151110,,*19
$GPRMC,153649.000,A,3250.5796,N,11705.2586,W,58.53,255.0,151110,,*13
$GPRMC,153652.000,A,3250.5672,N,11705.3152,W,59.02,255.1,151110,,*1A
$GPRMC,153655.000,A,3250.5544,N,11705.3720,W,59.82,255.1,151110,,*10
$GPRMC,153658.000,A,3250.5418,N,11705.4290,W,59.00,255.2,151110,,*15
$GPRMC,153701.000,A,3250.5290,N,11705.4851,W,58.22,255.0,151110,,*1A
$GPRMC,153704.000,A,3250.5167,N,11705.5408,W,58.61,255.2,151110,,*10
$GPRMC,153707.000,A,3250.5047,N,11705.5966,W,59.24,255.1,151110,,*16
$GPRMC,153710.000,A,3250.4928,N,11705.6539,W,59.82,257.4,151110,,*1F
$GPRMC,153713.000,A,3250.4855,N,11705.7116,W,58.56,262.4,151110,,*11
$GPRMC,153716.000,A,3250.4823,N,11705.7685,W,57.93,266.4,151110,,*1A
$GPRMC,153719.000,A,3250.4819,N,11705.8264,W,58.90,270.1,151110,,*16
$GPRMC,153722.000,A,3250.4840,N,11705.8847,W,58.67,272.1,151110,,*13
$GPRMC,153725.000,A,3250.4865,N,11705.9423,W,58.37,272.7,151110,,*1F
$GPRMC,153728.000,A,3250.4893,N,11706.0003,W,59.40,272.7,151110,,*16
$GPRMC,153731.000,A,3250.4914,N,11706.0591,W,58.77,272.7,151110,,*1B
$GPRMC,153734.000,A,3250.4941,N,11706.1187,W,60.68,272.8,151110,,*16
$GPRMC,153737.000,A,3250.4961,N,11706.1783,W,59.63,272.5,151110,,*19
$GPRMC,153740.000,A,3250.4986,N,11706.2374,W,60.56,272.6,151110,,*10
$GPRMC,153743.000,A,3250.5008,N,11706.2963,W,59.07,272.7,151110,,*1E
$GPRMC,153746.000,A,3250.5033,N,11706.3546,W,58.14,272.8,151110,,*15
$GPRMC,153749.000,A,3250.5058,N,11706.4128,W,59.32,272.8,151110,,*19
$GPRMC,153752.000,A,3250.5081,N,11706.4707,W,57.56,272.8,151110,,*10
$GPRMC,153755.000,A,3250.5108,N,11706.5285,W,59.56,273.5,151110,,*1B
$GPRMC,153758.000,A,3250.5142,N,11706.5884,W,61.68,273.5,151110,,*15
$GPRMC,153801.000,A,3250.5172,N,11706.6502,W,63.78,272.8,151110,,*1A
$GPRMC,153804.000,A,3250.5195,N,11706.7132,W,63.06,272.6,151110,,*17
$GPRMC,153807.000,A,3250.5212,N,11706.7759,W,63.80,271.7,151110,,*1F
$GPRMC,153810.000,A,3250.5211,N,11706.8388,W,63.13,270.0,151110,,*11
$GPRMC,153813.000,A,3250.5206,N,11706.9006,W,63.54,269.4,151110,,*1F
$GPRMC,153816.000,A,3250.5196,N,11706.9652,W,66.71,269.4,151110,,*15
$GPRMC,153819.000,A,3250.5195,N,11707.0317,W,67.29,270.2,151110,,*17
$GPRMC,153822.000,A,3250.5194,N,11707.0986,W,67.33,269.7,151110,,*1A
$GPRMC,153825.000,A,3250.5188,N,11707.1651,W,66.54,269.2,151110,,*11
$GPRMC,153828.000,A,3250.5173,N,11707.2296,W,64.95,268.5,151110,,*1D
$GPRMC,153831.000,A,3250.5156,N,11707.2936,W,65.25,268.4,151110,,*18
$GPRMC,153834.000,A,3250.5142,N,11707.3594,W,66.20,268.9,151110,,*16
$GPRMC,153837.000,A,3250.5133,N,11707.4250,W,66.36,269.0,151110,,*14
$GPRMC,153840.000,A,3250.5128,N,11707.4902,W,66.45,269.1,151110,,*17
$GPRMC,153843.000,A,3250.5118,N,11707.5563,W,66.83,269.1,151110,,*17
$GPRMC,153846.000,A,3250.5103,N,11707.6225,W,67.05,268.2,151110,,*13
$GPRMC,153849.000,A,3250.5071,N,11707.6888,W,67.15,266.5,151110,,*1D
$GPRMC,153852.000,A,3250.5024,N,11707.7551,W,67.60,265.0,151110,,*1B
$GPRMC,153855.000,A,3250.4959,N,11707.8213,W,67.85,262.8,151110,,*14
$GPRMC,153858.000,A,3250.4875,N,11707.8883,W,68.58,261.9,151110,,*18
$GPRMC,153901.000,A,3250.4791,N,11707.9562,W,68.46,262.0,151110,,*16
$GPRMC,153904.000,A,3250.4722,N,11708.0232,W,67.84,262.9,151110,,*17
$GPRMC,153907.000,A,3250.4643,N,11708.0887,W,66.16,261.9,151110,,*1F
$GPRMC,153910.000,A,3250.4570,N,11708.1526,W,64.93,262.5,151110,,*1D
$GPRMC,153913.000,A,3250.4502,N,11708.2151,W,62.93,262.4,151110,,*1B
$GPRMC,153916.000,A,3250.4419,N,11708.2766,W,62.50,260.4,151110,,*1A
$GPRMC,153919.000,A,3250.4311,N,11708.3361,W,60.83,257.5,151110,,*11
$GPRMC,153922.000,A,3250.4194,N,11708.3953,W,61.78,256.7,151110,,*1B
$GPRMC,153925.000,A,3250.4073,N,11708.4546,W,61.85,256.4,151110,,*1A
$GPRMC,153928.000,A,3250.3959,N,11708.5096,W,49.25,256.5,151110,,*19
$GPRMC,153931.000,A,3250.3877,N,11708.5504,W,37.10,257.1,151110,,*18
$GPRMC,153934.000,A,3250.3823,N,11708.5779,W,25.35,256.9,151110,,*19
$GPRMC,153937.000,A,3250.3774,N,11708.6001,W,23.50,256.2,151110,,*12
$GPRMC,153940.000,A,3250.3726,N,11708.6233,W,26.40,256.1,151110,,*11
$GPRMC,153943.000,A,3250.3668,N,11708.6505,W,31.86,256.9,151110,,*1F
$GPRMC,153946.000,A,3250.3608,N,11708.6843,W,37.39,258.3,151110,,*15
$GPRMC,153949.000,A,3250.3538,N,11708.7210,W,39.25,257.0,151110,,*18
$GPRMC,153952.000,A,3250.3458,N,11708.7603,W,42.96,256.4,151110,,*12
$GPRMC,153955.000,A,3250.3375,N,11708.8017,W,43.72,256.4,151110,,*1A
$GPRMC,153958.000,A,3250.3288,N,11708.8444,W,45.54,256.3,151110,,*13
$GPRMC,154001.000,A,3250.3195,N,11708.8878,W,45.20,256.0,151110,,*1D
$GPRMC,154004.000,A,3250.3108,N,11708.9309,W,45.42,256.4,151110,,*10
$GPRMC,154007.000,A,3250.3019,N,11708.9742,W,44.27,256.3,151110,,*1C
$GPRMC,154010.000,A,3250.2932,N,11709.0162,W,42.96,256.3,151110,,*1B
$GPRMC,154013.000,A,3250.2848,N,11709.0567,W,40.38,256.2,151110,,*12
$GPRMC,154016.000,A,3250.2768,N,11709.0949,W,38.71,256.1,151110,,*1B
$GPRMC,154019.000,A,3250.2695,N,11709.1311,W,37.42,256.2,151110,,*1D
$GPRMC,154022.000,A,3250.2619,N,11709.1669,W,37.00,256.7,151110,,*18
$GPRMC,154025.000,A,3250.2560,N,11709.2015,W,34.28,258.4,151110,,*18
$GPRMC,154028.000,A,3250.2514,N,11709.2327,W,30.09,261.2,151110,,*1F
$GPRMC,154031.000,A,3250.2488,N,11709.2607,W,28.86,264.4,151110,,*19
$GPRMC,154034.000,A,3250.2481,N,11709.2903,W,32.42,268.2,151110,,*17
$GPRMC,154037.000,A,3250.2487,N,11709.3232,W,33.70,271.3,151110,,*13
$GPRMC,154040.000,A,3250.2508,N,11709.3570,W,34.53,274.6,151110,,*12
$GPRMC,154043.000,A,3250.2544,N,11709.3903,W,34.29,277.6,151110,,*1F
$GPRMC,154046.000,A,3250.2602,N,11709.4230,W,32.55,281.3,151110,,*16
$GPRMC,154049.000,A,3250.2666,N,11709.4531,W,29.97,284.5,151110,,*1A
$GPRMC,154052.000,A,3250.2733,N,11709.4801,W,27.10,287.5,151110,,*1D
$GPRMC,154055.000,A,3250.2814,N,11709.5055,W,29.32,290.0,151110,,*15
$GPRMC,154058.000,A,3250.2909,N,11709.5344,W,33.93,292.5,151110,,*11
$GPRMC,154101.000,A,3250.3039,N,11709.5673,W,38.66,295.5,151110,,*10
$GPRMC,154104.000,A,3250.3204,N,11709.6040,W,44.41,298.4,151110,,*1E
$GPRMC,154107.000,A,3250.3417,N,11709.6422,W,46.89,304.0,151110,,*1F
$GPRMC,154110.000,A,3250.3664,N,11709.6786,W,45.65,309.0,151110,,*1E
$GPRMC,154113.000,A,3250.3913,N,11709.7118,W,43.55,311.4,151110,,*1A
$GPRMC,154116.000,A,3250.4156,N,11709.7425,W,41.41,312.0,151110,,*1A
$GPRMC,154119.000,A,3250.4391,N,11709.7727,W,42.82,312.3,151110,,*12
$GPRMC,154122.000,A,3250.4640,N,11709.8053,W,45.62,312.2,151110,,*10
$GPRMC,154125.000,A,3250.4895,N,11709.8386,W,45.05,312.1,151110,,*18
$GPRMC,154128.000,A,3250.5147,N,11709.8714,W,45.01,312.0,151110,,*18
$GPRMC,154131.000,A,3250.5404,N,11709.9054,W,46.48,312.2,151110,,*1C
$GPRMC,154134.000,A,3250.5669,N,11709.9396,W,47.79,312.2,151110,,*1E
$GPRMC,154137.000,A,3250.5944,N,11709.9756,W,50.57,312.1,151110,,*1C
$GPRMC,154140.000,A,3250.6232,N,11710.0126,W,51.56,312.2,151110,,*16
$GPRMC,154143.000,A,3250.6525,N,11710.0512,W,53.49,312.2,151110,,*1B
$GPRMC,154146.000,A,3250.6825,N,11710.0908,W,54.00,312.1,151110,,*1D
$GPRMC,154149.000,A,3250.7121,N,11710.1313,W,53.95,310.1,151110,,*16
$GPRMC,154152.000,A,3250.7392,N,11710.1748,W,55.07,306.1,151110,,*16
$GPRMC,154155.000,A,3250.7643,N,11710.2218,W,58.21,301.3,151110,,*17
$GPRMC,154158.000,A,3250.7860,N,11710.2732,W,58.50,296.1,151110,,*13
$GPRMC,154201.000,A,3250.8045,N,11710.3268,W,58.36,291.4,151110,,*15
$GPRMC,154204.000,A,3250.8189,N,11710.3837,W,61.60,286.1,151110,,*1B
$GPRMC,154207.000,A,3250.8294,N,11710.4447,W,63.22,281.3,151110,,*1A
$GPRMC,154210.000,A,3250.8381,N,11710.5059,W,62.13,280.0,151110,,*12
$GPRMC,154213.000,A,3250.8467,N,11710.5660,W,61.33,279.7,151110,,*12
$GPRMC,154216.000,A,3250.8547,N,11710.6257,W,60.94,278.1,151110,,*1C
$GPRMC,154219.000,A,3250.8594,N,11710.6860,W,61.99,274.7,151110,,*15
$GPRMC,154222.000,A,3250.8598,N,11710.7467,W,61.48,270.0,151110,,*14
$GPRMC,154225.000,A,3250.8558,N,11710.8071,W,61.70,265.5,151110,,*19
$GPRMC,154228.000,A,3250.8488,N,11710.8686,W,63.83,262.2,151110,,*18
$GPRMC,154231.000,A,3250.8400,N,11710.9322,W,64.87,261.1,151110,,*19
$GPRMC,154234.000,A,3250.8313,N,11710.9948,W,62.77,260.9,151110,,*1F
$GPRMC,154237.000,A,3250.8229,N,11711.0566,W,63.58,260.9,151110,,*10
$GPRMC,154240.000,A,3250.8144,N,11711.1192,W,64.53,261.0,151110,,*12
$GPRMC,154243.000,A,3250.8059,N,11711.1825,W,64.77,260.9,151110,,*17
$GPRMC,154246.000,A,3250.7975,N,11711.2448,W,62.62,261.1,151110,,*15
$GPRMC,154249.000,A,3250.7898,N,11711.3047,W,58.99,261.1,151110,,*1F
$GPRMC,154252.000,A,3250.7822,N,11711.3607,W,57.01,261.1,151110,,*18
$GPRMC,154255.000,A,3250.7750,N,11711.4153,W,54.84,261.1,151110,,*1A
$GPRMC,154258.000,A,3250.7676,N,11711.4688,W,55.39,260.9,151110,,*1D
$GPRMC,154301.000,A,3250.7604,N,11711.5231,W,56.16,261.0,151110,,*14
$GPRMC,154304.000,A,3250.7530,N,11711.5787,W,57.98,261.3,151110,,*19
$GPRMC,154307.000,A,3250.7481,N,11711.6360,W,58.23,265.1,151110,,*16
$GPRMC,154310.000,A,3250.7467,N,11711.6935,W,56.56,268.8,151110,,*1A
$GPRMC,154313.000,A,3250.7487,N,11711.7494,W,56.31,272.6,151110,,*14
$GPRMC,154316.000,A,3250.7544,N,11711.8057,W,57.82,277.0,151110,,*11
$GPRMC,154319.000,A,3250.7651,N,11711.8627,W,59.79,282.5,151110,,*1D
$GPRMC,154322.000,A,3250.7775,N,11711.9224,W,63.46,283.1,151110,,*14
$GPRMC,154325.000,A,3250.7897,N,11711.9857,W,66.30,282.8,151110,,*12
$GPRMC,154328.000,A,3250.8024,N,11712.0496,W,65.22,283.0,151110,,*12
$GPRMC,154331.000,A,3250.8142,N,11712.1115,W,62.78,282.4,151110,,*19
$GPRMC,154334.000,A,3250.8231,N,11712.1728,W,63.18,278.6,151110,,*13
$GPRMC,154337.000,A,3250.8269,N,11712.2347,W,62.29,273.0,151110,,*1D
$GPRMC,154340.000,A,3250.8252,N,11712.2963,W,62.25,267.5,151110,,*15
$GPRMC,154343.000,A,3250.8183,N,11712.3569,W,61.71,261.3,151110,,*1C
$GPRMC,154346.000,A,3250.8057,N,11712.4165,W,62.46,255.5,151110,,*18
$GPRMC,154349.000,A,3250.7881,N,11712.4753,W,63.02,250.2,151110,,*1B
$GPRMC,154352.000,A,3250.7650,N,11712.5328,W,64.24,244.8,151110,,*16
$GPRMC,154355.000,A,3250.7397,N,11712.5902,W,66.27,242.9,151110,,*1B
$GPRMC,154358.000,A,3250.7147,N,11712.6475,W,64.12,242.7,151110,,*1D
$GPRMC,154401.000,A,3250.6901,N,11712.7026,W,61.30,242.8,151110,,*14
$GPRMC,154404.000,A,3250.6665,N,11712.7566,W,62.13,242.8,151110,,*1F
$GPRMC,154407.000,A,3250.6427,N,11712.8105,W,61.10,242.6,151110,,*18
$GPRMC,154410.000,A,3250.6191,N,11712.8641,W,60.97,242.3,151110,,*1A
$GPRMC,154413.000,A,3250.5948,N,11712.9169,W,60.52,241.4,151110,,*17
$GPRMC,154416.000,A,3250.5701,N,11712.9686,W,59.85,240.8,151110,,*1A
$GPRMC,154419.000,A,3250.5462,N,11713.0198,W,59.29,240.6,151110,,*1B
$GPRMC,154422.000,A,3250.5220,N,11713.0704,W,58.99,240.0,151110,,*1C
$GPRMC,154425.000,A,3250.4979,N,11713.1198,W,56.87,239.7,151110,,*17
$GPRMC,154428.000,A,3250.4752,N,11713.1684,W,56.11,240.5,151110,,*14
$GPRMC,154431.000,A,3250.4548,N,11713.2177,W,56.24,244.0,151110,,*1A
$GPRMC,154434.000,A,3250.4373,N,11713.2685,W,54.95,247.7,151110,,*17
$GPRMC,154437.000,A,3250.4234,N,11713.3189,W,53.86,252.0,151110,,*1A
$GPRMC,154440.000,A,3250.4126,N,11713.3701,W,55.02,255.4,151110,,*15
$GPRMC,154443.000,A,3250.4031,N,11713.4221,W,53.98,257.0,151110,,*12
$GPRMC,154446.000,A,3250.3937,N,11713.4732,W,53.15,257.4,151110,,*19
$GPRMC,154449.000,A,3250.3844,N,11713.5237,W,52.14,257.3,151110,,*15
$GPRMC,154452.000,A,3250.3754,N,11713.5733,W,51.20,257.5,151110,,*12
$GPRMC,154455.000,A,3250.3664,N,11713.6223,W,51.59,257.7,151110,,*1C
$GPRMC,154458.000,A,3250.3577,N,11713.6733,W,53.79,257.8,151110,,*1B
$GPRMC,154501.000,A,3250.3491,N,11713.7253,W,54.51,258.1,151110,,*16
$GPRMC,154504.000,A,3250.3415,N,11713.7787,W,54.42,261.0,151110,,*1A
$GPRMC,154507.000,A,3250.3380,N,11713.8307,W,51.23,266.6,151110,,*12
$GPRMC,154510.000,A,3250.3395,N,11713.8794,W,47.90,272.9,151110,,*1B
$GPRMC,154513.000,A,3250.3439,N,11713.9249,W,44.06,276.3,151110,,*1F
$GPRMC,154516.000,A,3250.3476,N,11713.9658,W,39.63,275.1,151110,,*1D
$GPRMC,154519.000,A,3250.3486,N,11714.0037,W,37.50,271.6,151110,,*11
$GPRMC,154522.000,A,3250.3488,N,11714.0400,W,36.34,271.3,151110,,*11
$GPRMC,154525.000,A,3250.3521,N,11714.0756,W,36.40,280.1,151110,,*1B
$GPRMC,154528.000,A,3250.3690,N,11714.1053,W,36.76,305.9,151110,,*1D
$GPRMC,154531.000,A,3250.3918,N,11714.1239,W,26.72,326.1,151110,,*18
$GPRMC,154534.000,A,3250.4096,N,11714.1326,W,19.29,334.4,151110,,*1E
$GPRMC,154537.000,A,3250.4235,N,11714.1389,W,17.17,336.9,151110,,*1F
$GPRMC,154540.000,A,3250.4342,N,11714.1438,W,11.41,337.2,151110,,*1C
$GPRMC,154543.000,A,3250.4427,N,11714.1480,W,13.95,336.8,151110,,*18
$GPRMC,154546.000,A,3250.4550,N,11714.1527,W,17.81,340.4,151110,,*1C
$GPRMC,154549.000,A,3250.4717,N,11714.1595,W,24.98,341.3,151110,,*15
$GPRMC,154552.000,A,3250.4932,N,11714.1668,W,27.08,344.7,151110,,*1C
$GPRMC,154555.000,A,3250.5159,N,11714.1721,W,27.23,349.2,151110,,*12
$GPRMC,154558.000,A,3250.5403,N,11714.1764,W,31.62,352.1,151110,,*1F
$GPRMC,154601.000,A,3250.5675,N,11714.1794,W,32.05,355.4,151110,,*1C
$GPRMC,154604.000,A,3250.5921,N,11714.1805,W,26.51,358.1,151110,,*1C
$GPRMC,154607.000,A,3250.6134,N,11714.1802,W,27.31,1.5,151110,,*1B
$GPRMC,154610.000,A,3250.6374,N,11714.1788,W,30.27,3.1,151110,,*11
$GPRMC,154613.000,A,3250.6619,N,11714.1757,W,27.89,5.8,151110,,*13
$GPRMC,154616.000,A,3250.6833,N,11714.1726,W,24.16,7.3,151110,,*1A
$GPRMC,154619.000,A,3250.7011,N,11714.1698,W,20.60,7.3,151110,,*1D
$GPRMC,154622.000,A,3250.7200,N,11714.1669,W,25.52,7.4,151110,,*1A
$GPRMC,154625.000,A,3250.7434,N,11714.1633,W,30.85,7.7,151110,,*1E
$GPRMC,154628.000,A,3250.7707,N,11714.1586,W,34.76,7.8,151110,,*1A
$GPRMC,154631.000,A,3250.7994,N,11714.1543,W,35.57,7.2,151110,,*17
$GPRMC,154634.000,A,3250.8310,N,11714.1492,W,40.59,7.9,151110,,*11
$GPRMC,154637.000,A,3250.8663,N,11714.1427,W,44.58,9.6,151110,,*19
$GPRMC,154640.000,A,3250.9047,N,11714.1326,W,48.42,13.3,151110,,*27
$GPRMC,154643.000,A,3250.9442,N,11714.1176,W,50.41,19.0,151110,,*21
$GPRMC,154646.000,A,3250.9828,N,11714.0973,W,50.21,24.7,151110,,*27
$GPRMC,154649.000,A,3251.0202,N,11714.0730,W,51.27,28.9,151110,,*2E
$GPRMC,154652.000,A,3251.0574,N,11714.0470,W,52.17,30.4,151110,,*21
$GPRMC,154655.000,A,3251.0954,N,11714.0202,W,53.42,30.4,151110,,*2A
$GPRMC,154658.000,A,3251.1339,N,11713.9931,W,54.28,30.6,151110,,*2B
$GPRMC,154701.000,A,3251.1727,N,11713.9663,W,53.44,30.7,151110,,*29
$GPRMC,154704.000,A,3251.2103,N,11713.9397,W,51.09,30.7,151110,,*2A
$GPRMC,154707.000,A,3251.2477,N,11713.9136,W,52.18,30.6,151110,,*24
$GPRMC,154710.000,A,3251.2859,N,11713.8886,W,51.02,27.9,151110,,*20
$GPRMC,154713.000,A,3251.3238,N,11713.8686,W,47.74,23.8,151110,,*22
$GPRMC,154716.000,A,3251.3597,N,11713.8533,W,43.73,19.7,151110,,*2D
$GPRMC,154719.000,A,3251.3933,N,11713.8422,W,40.23,15.4,151110,,*28
$GPRMC,154722.000,A,3251.4256,N,11713.8348,W,38.96,11.2,151110,,*27
$GPRMC,154725.000,A,3251.4566,N,11713.8298,W,37.53,7.9,151110,,*12
$GPRMC,154728.000,A,3251.4877,N,11713.8260,W,38.40,6.5,151110,,*15
$GPRMC,154731.000,A,3251.5203,N,11713.8226,W,40.50,5.7,151110,,*18
$GPRMC,154734.000,A,3251.5546,N,11713.8194,W,42.84,5.1,151110,,*1C
$GPRMC,154737.000,A,3251.5910,N,11713.8165,W,44.56,4.7,151110,,*10
$GPRMC,154740.000,A,3251.6270,N,11713.8132,W,41.73,4.6,151110,,*1F
$GPRMC,154743.000,A,3251.6615,N,11713.8096,W,40.50,4.7,151110,,*15
$GPRMC,154746.000,A,3251.6949,N,11713.8066,W,40.96,4.8,151110,,*1C
$GPRMC,154749.000,A,3251.7295,N,11713.8030,W,41.48,4.7,151110,,*16
$GPRMC,154752.000,A,3251.7647,N,11713.7994,W,43.87,4.7,151110,,*1E
$GPRMC,154755.000,A,3251.8024,N,11713.7958,W,47.26,4.6,151110,,*1B
$GPRMC,154758.000,A,3251.8421,N,11713.7924,W,48.28,4.5,151110,,*1E
$GPRMC,154801.000,A,3251.8832,N,11713.7888,W,50.12,4.5,151110,,*14
$GPRMC,154804.000,A,3251.9261,N,11713.7847,W,52.61,4.5,151110,,*19
$GPRMC,154807.000,A,3251.9711,N,11713.7806,W,53.96,4.7,151110,,*16
$GPRMC,154810.000,A,3252.0157,N,11713.7761,W,53.40,4.7,151110,,*1B
$GPRMC,154813.000,A,3252.0602,N,11713.7716,W,53.09,4.7,151110,,*12
$GPRMC,154816.000,A,3252.1039,N,11713.7673,W,52.73,4.5,151110,,*14
$GPRMC,154819.000,A,3252.1487,N,11713.7630,W,53.57,4.7,151110,,*18
$GPRMC,154822.000,A,3252.1933,N,11713.7590,W,54.06,4.4,151110,,*1B
$GPRMC,154825.000,A,3252.2387,N,11713.7545,W,54.38,4.7,151110,,*1C
$GPRMC,154828.000,A,3252.2835,N,11713.7502,W,53.22,4.8,151110,,*13
$GPRMC,154831.000,A,3252.3284,N,11713.7457,W,54.62,4.7,151110,,*17
$GPRMC,154834.000,A,3252.3730,N,11713.7416,W,52.64,4.6,151110,,*1C
$GPRMC,154837.000,A,3252.4174,N,11713.7368,W,53.99,4.8,151110,,*1D
$GPRMC,154840.000,A,3252.4621,N,11713.7326,W,53.60,4.8,151110,,*16
$GPRMC,154843.000,A,3252.5069,N,11713.7282,W,54.48,4.7,151110,,*13
$GPRMC,154846.000,A,3252.5519,N,11713.7238,W,54.24,4.7,151110,,*1F
$GPRMC,154849.000,A,3252.5964,N,11713.7194,W,52.33,4.8,151110,,*1C
$GPRMC,154852.000,A,3252.6404,N,11713.7153,W,52.49,4.9,151110,,*19
$GPRMC,154855.000,A,3252.6839,N,11713.7109,W,52.23,4.7,151110,,*11
$GPRMC,154858.000,A,3252.7270,N,11713.7066,W,50.90,4.7,151110,,*18
$GPRMC,154901.000,A,3252.7693,N,11713.7030,W,51.24,4.6,151110,,*10
$GPRMC,154904.000,A,3252.8125,N,11713.6991,W,51.73,4.8,151110,,*1F
$GPRMC,154907.000,A,3252.8559,N,11713.6948,W,51.77,4.9,151110,,*12
$GPRMC,154910.000,A,3252.8990,N,11713.6907,W,51.84,4.9,151110,,*1A
$GPRMC,154913.000,A,3252.9427,N,11713.6862,W,53.36,4.8,151110,,*11
$GPRMC,154916.000,A,3252.9874,N,11713.6822,W,54.60,4.7,151110,,*11
$GPRMC,154919.000,A,3253.0331,N,11713.6774,W,55.68,5.1,151110,,*1E
$GPRMC,154922.000,A,3253.0812,N,11713.6713,W,59.11,5.8,151110,,*16
$GPRMC,154925.000,A,3253.1304,N,11713.6659,W,58.85,5.1,151110,,*16
$GPRMC,154928.000,A,3253.1791,N,11713.6610,W,57.87,4.8,151110,,*1B
$GPRMC,154931.000,A,3253.2269,N,11713.6561,W,56.84,4.7,151110,,*1A
$GPRMC,154934.000,A,3253.2740,N,11713.6516,W,55.36,4.9,151110,,*15
$GPRMC,154937.000,A,3253.3186,N,11713.6469,W,53.12,4.8,151110,,*13
$GPRMC,154940.000,A,3253.3642,N,11713.6421,W,56.10,4.8,151110,,*17
$GPRMC,154943.000,A,3253.4114,N,11713.6379,W,58.02,4.6,151110,,*1E
$GPRMC,154946.000,A,3253.4612,N,11713.6330,W,61.38,4.8,151110,,*1A
$GPRMC,154949.000,A,3253.5135,N,11713.6280,W,62.53,5.1,151110,,*1A
$GPRMC,154952.000,A,3253.5647,N,11713.6214,W,61.30,7.1,151110,,*1B
$GPRMC,154955.000,A,3253.6149,N,11713.6123,W,60.47,9.8,151110,,*17
$GPRMC,154958.000,A,3253.6639,N,11713.5989,W,58.76,13.8,151110,,*23
$GPRMC,155001.000,A,3253.7110,N,11713.5812,W,59.73,17.9,151110,,*28
$GPRMC,155004.000,A,3253.7600,N,11713.5600,W,63.86,19.9,151110,,*2B
$GPRMC,155007.000,A,3253.8100,N,11713.5384,W,60.85,19.2,151110,,*22
$GPRMC,155010.000,A,3253.8573,N,11713.5194,W,58.95,18.6,151110,,*28
$GPRMC,155013.000,A,3253.9034,N,11713.5011,W,57.51,18.3,151110,,*22
$GPRMC,155016.000,A,3253.9483,N,11713.4825,W,56.16,19.1,151110,,*20
$GPRMC,155019.000,A,3253.9919,N,11713.4630,W,54.97,20.8,151110,,*23
$GPRMC,155022.000,A,3254.0350,N,11713.4442,W,54.10,19.3,151110,,*2B
$GPRMC,155025.000,A,3254.0789,N,11713.4294,W,55.57,15.2,151110,,*2E
$GPRMC,155028.000,A,3254.1249,N,11713.4186,W,57.19,10.0,151110,,*24
$GPRMC,155031.000,A,3254.1730,N,11713.4130,W,58.53,4.6,151110,,*18
$GPRMC,155034.000,A,3254.2215,N,11713.4125,W,58.11,358.9,151110,,*1B
$GPRMC,155037.000,A,3254.2698,N,11713.4182,W,57.65,353.9,151110,,*13
$GPRMC,155040.000,A,3254.3175,N,11713.4297,W,57.74,348.8,151110,,*1A
$GPRMC,155043.000,A,3254.3647,N,11713.4467,W,59.89,343.0,151110,,*19
$GPRMC,155046.000,A,3254.4120,N,11713.4695,W,61.04,338.0,151110,,*10
$GPRMC,155049.000,A,3254.4589,N,11713.4971,W,63.72,333.0,151110,,*15
$GPRMC,155052.000,A,3254.5051,N,11713.5313,W,65.10,327.8,151110,,*1E
$GPRMC,155055.000,A,3254.5493,N,11713.5675,W,62.17,326.2,151110,,*1D
$GPRMC,155058.000,A,3254.5937,N,11713.6002,W,62.46,329.1,151110,,*1E
$GPRMC,155101.000,A,3254.6386,N,11713.6299,W,61.13,331.3,151110,,*18
$GPRMC,155104.000,A,3254.6845,N,11713.6588,W,62.29,332.2,151110,,*16
$GPRMC,155107.000,A,3254.7304,N,11713.6877,W,61.53,332.2,151110,,*19
$GPRMC,155110.000,A,3254.7758,N,11713.7157,W,61.37,332.4,151110,,*1C
$GPRMC,155113.000,A,3254.8217,N,11713.7436,W,60.85,332.4,151110,,*14
$GPRMC,155116.000,A,3254.8651,N,11713.7731,W,60.02,329.3,151110,,*11
$GPRMC,155119.000,A,3254.9057,N,11713.8076,W,59.63,323.8,151110,,*18
$GPRMC,155122.000,A,3254.9430,N,11713.8454,W,57.78,318.9,151110,,*1C
$GPRMC,155125.000,A,3254.9769,N,11713.8840,W,54.68,316.1,151110,,*19
$GPRMC,155128.000,A,3255.0065,N,11713.9210,W,47.38,314.0,151110,,*1D
$GPRMC,155131.000,A,3255.0302,N,11713.9493,W,37.61,315.9,151110,,*19
$GPRMC,155134.000,A,3255.0518,N,11713.9716,W,32.52,318.8,151110,,*16
$GPRMC,155137.000,A,3255.0711,N,11713.9905,W,28.54,319.9,151110,,*1F
$GPRMC,155140.000,A,3255.0876,N,11714.0056,W,22.70,321.9,151110,,*17
$GPRMC,155143.000,A,3255.1012,N,11714.0147,W,17.10,336.9,151110,,*18
$GPRMC,155146.000,A,3255.1144,N,11714.0083,W,21.20,41.6,151110,,*2C
$GPRMC,155149.000,A,3255.1286,N,11713.9869,W,31.14,49.6,151110,,*22
$GPRMC,155152.000,A,3255.1463,N,11713.9586,W,36.56,52.4,151110,,*20
$GPRMC,155155.000,A,3255.1649,N,11713.9295,W,35.39,49.6,151110,,*2A
$GPRMC,155158.000,A,3255.1839,N,11713.9062,W,28.38,43.4,151110,,*21
$GPRMC,155201.000,A,3255.2003,N,11713.8895,W,22.57,41.1,151110,,*29
$GPRMC,155204.000,A,3255.2120,N,11713.8770,W,15.15,41.6,151110,,*2D
$GPRMC,155207.000,A,3255.2189,N,11713.8698,W,9.03,43.1,151110,,*15
$GPRMC,155249.000,A,3255.2267,N,11713.8632,W,8.76,41.5,151110,,*19
$GPRMC,155252.000,A,3255.2335,N,11713.8562,W,12.56,41.9,151110,,*26
$GPRMC,155255.000,A,3255.2425,N,11713.8458,W,16.79,44.8,151110,,*22
$GPRMC,155258.000,A,3255.2534,N,11713.8311,W,21.40,49.7,151110,,*28
$GPRMC,155301.000,A,3255.2648,N,11713.8130,W,22.19,54.2,151110,,*2A
$GPRMC,155304.000,A,3255.2753,N,11713.7946,W,21.92,55.6,151110,,*27
$GPRMC,155307.000,A,3255.2849,N,11713.7775,W,18.15,55.2,151110,,*2F
$GPRMC,155310.000,A,3255.2943,N,11713.7631,W,20.15,50.5,151110,,*2A
$GPRMC,155313.000,A,3255.3071,N,11713.7454,W,24.90,50.0,151110,,*2D
$GPRMC,155316.000,A,3255.3188,N,11713.7289,W,17.26,49.3,151110,,*2F
$GPRMC,155319.000,A,3255.3263,N,11713.7196,W,9.81,46.3,151110,,*16
