NMEA Sentence Code,UTC Time,Status,Latitude,Latitude Direction,Longitude,Longitude Direction,Speed (knots),Track Angle (degrees true),Date,MagneticVariation,Magnetic Variation Direction,[FAA Mode]-Optional,Checksum
$GPRMC,160845.2,A,3340.042458,N,11748.985105,W,59.0,108.9,300610,,,A*48
$GPRMC,160848.2,A,3340.024828,N,11748.932547,W,58.6,110.0,300610,,,A*47
$GPRMC,160851.2,A,3340.004084,N,11748.883549,W,57.1,111.5,300610,,,A*4A
$GPRMC,160854.2,A,3339.987005,N,11748.830654,W,56.4,111.5,300610,,,A*49
$GPRMC,160857.2,A,3339.968732,N,11748.779106,W,56.8,111.5,300610,,,A*46
$GPRMC,160900.2,A,3339.952767,N,11748.724613,W,57.4,110.0,300610,,,A*4E
$GPRMC,160903.2,A,3339.939117,N,11748.667235,W,59.3,106.4,300610,,,A*4D
$GPRMC,160906.2,A,3339.926244,N,11748.609620,W,60.1,104.1,300610,,,A*44
$GPRMC,160909.2,A,3339.915772,N,11748.550322,W,60.8,101.2,300610,,,A*4C
$GPRMC,160912.2,A,3339.907225,N,11748.492200,W,58.3,99.8,300610,,,A*76
$GPRMC,160915.2,A,3339.899751,N,11748.433506,W,59.7,99.2,300610,,,A*74
$GPRMC,160918.2,A,3339.893014,N,11748.372437,W,61.8,99.2,300610,,,A*70
$GPRMC,160921.2,A,3339.882563,N,11748.311072,W,63.3,100.0,300610,,,A*45
$GPRMC,160924.2,A,3339.874257,N,11748.249061,W,62.1,99.8,300610,,,A*7D
$GPRMC,160927.2,A,3339.865435,N,11748.188309,W,61.4,99.1,300610,,,A*70
$GPRMC,160930.2,A,3339.857088,N,11748.130012,W,58.5,99.4,300610,,,A*71
$GPRMC,160933.2,A,3339.850234,N,11748.073311,W,57.4,99.0,300610,,,A*7C
$GPRMC,160936.2,A,3339.840718,N,11748.018057,W,56.8,101.0,300610,,,A*42
$GPRMC,160939.2,A,3339.832100,N,11747.959953,W,59.4,99.8,300610,,,A*72
$GPRMC,160942.2,A,3339.824137,N,11747.900444,W,60.0,99.9,300610,,,A*75
$GPRMC,160945.2,A,3339.815360,N,11747.841304,W,60.2,99.8,300610,,,A*74
$GPRMC,160948.2,A,3339.807902,N,11747.781587,W,60.4,98.8,300610,,,A*7D
$GPRMC,160951.2,A,3339.800044,N,11747.723392,W,58.2,98.8,300610,,,A*7E
$GPRMC,160954.2,A,3339.791339,N,11747.666998,W,56.9,100.2,300610,,,A*4A
$GPRMC,160957.2,A,3339.782271,N,11747.609151,W,58.4,100.4,300610,,,A*47
$GPRMC,161000.2,A,3339.774738,N,11747.552188,W,57.7,99.5,300610,,,A*79
$GPRMC,161003.2,A,3339.765210,N,11747.495315,W,58.5,100.4,300610,,,A*44
$GPRMC,161006.2,A,3339.757171,N,11747.437127,W,58.5,99.3,300610,,,A*79
$GPRMC,161009.2,A,3339.750150,N,11747.379023,W,58.4,99.5,300610,,,A*7D
$GPRMC,161012.2,A,3339.742183,N,11747.320798,W,58.7,100.4,300610,,,A*42
$GPRMC,161015.2,A,3339.731380,N,11747.263823,W,58.9,103.3,300610,,,A*43
$GPRMC,161018.2,A,3339.717013,N,11747.208022,W,59.2,107.1,300610,,,A*4B
$GPRMC,161021.2,A,3339.700337,N,11747.149812,W,61.8,109.2,300610,,,A*43
$GPRMC,161024.2,A,3339.677242,N,11747.096868,W,60.3,114.9,300610,,,A*47
$GPRMC,161027.2,A,3339.653204,N,11747.045405,W,59.7,118.5,300610,,,A*47
$GPRMC,161030.2,A,3339.627324,N,11746.994605,W,60.7,120.2,300610,,,A*41
$GPRMC,161033.2,A,3339.599474,N,11746.944214,W,60.8,122.9,300610,,,A*49
$GPRMC,161036.2,A,3339.572990,N,11746.891863,W,61.5,123.1,300610,,,A*48
$GPRMC,161039.2,A,3339.543441,N,11746.841653,W,62.2,124.3,300610,,,A*45
$GPRMC,161042.2,A,3339.511010,N,11746.791936,W,63.0,125.6,300610,,,A*47
$GPRMC,161045.2,A,3339.482948,N,11746.739675,W,61.7,123.9,300610,,,A*49
$GPRMC,161048.2,A,3339.453724,N,11746.689520,W,60.9,124.9,300610,,,A*4D
$GPRMC,161051.2,A,3339.423367,N,11746.636912,W,63.5,125.0,300610,,,A*4F
$GPRMC,161054.2,A,3339.392416,N,11746.586511,W,63.2,125.1,300610,,,A*47
$GPRMC,161057.2,A,3339.362025,N,11746.534136,W,64.0,124.9,300610,,,A*4B
$GPRMC,161100.2,A,3339.331981,N,11746.481081,W,63.9,124.2,300610,,,A*4E
$GPRMC,161103.2,A,3339.300254,N,11746.429958,W,64.2,125.0,300610,,,A*4C
$GPRMC,161106.2,A,3339.269969,N,11746.375528,W,64.8,123.8,300610,,,A*43
$GPRMC,161109.2,A,3339.242251,N,11746.320529,W,62.6,122.0,300610,,,A*45
$GPRMC,161112.2,A,3339.217166,N,11746.268491,W,60.5,118.6,300610,,,A*49
$GPRMC,161115.2,A,3339.196715,N,11746.211220,W,61.2,114.4,300610,,,A*4C
$GPRMC,161118.2,A,3339.177546,N,11746.154537,W,60.3,112.1,300610,,,A*4A
$GPRMC,161121.2,A,3339.162491,N,11746.096381,W,60.2,108.4,300610,,,A*44
$GPRMC,161124.2,A,3339.148907,N,11746.035864,W,61.5,105.2,300610,,,A*4F
$GPRMC,161127.2,A,3339.137904,N,11745.975305,W,62.6,101.5,300610,,,A*46
$GPRMC,161130.2,A,3339.129070,N,11745.909932,W,66.0,99.9,300610,,,A*7E
$GPRMC,161133.2,A,3339.120061,N,11745.842219,W,67.7,99.9,300610,,,A*7E
$GPRMC,161136.2,A,3339.109781,N,11745.777220,W,66.1,100.1,300610,,,A*44
$GPRMC,161139.2,A,3339.101284,N,11745.712708,W,64.2,100.0,300610,,,A*4F
$GPRMC,161142.2,A,3339.091986,N,11745.650966,W,62.4,100.1,300610,,,A*42
$GPRMC,161145.2,A,3339.082829,N,11745.589154,W,62.9,99.8,300610,,,A*78
$GPRMC,161148.2,A,3339.073714,N,11745.529087,W,61.3,100.8,300610,,,A*47
$GPRMC,161151.2,A,3339.061224,N,11745.469236,W,61.2,104.1,300610,,,A*4B
$GPRMC,161154.2,A,3339.047229,N,11745.411263,W,60.7,106.2,300610,,,A*4D
$GPRMC,161157.2,A,3339.030983,N,11745.356485,W,58.4,108.9,300610,,,A*42
$GPRMC,161200.2,A,3339.013743,N,11745.301388,W,59.6,110.0,300610,,,A*4B
$GPRMC,161203.2,A,3338.996312,N,11745.247002,W,58.7,109.9,300610,,,A*4E
$GPRMC,161206.2,A,3338.980223,N,11745.192718,W,59.3,109.3,300610,,,A*47
$GPRMC,161209.2,A,3338.964663,N,11745.135150,W,60.0,109.1,300610,,,A*4E
$GPRMC,161212.2,A,3338.947915,N,11745.078157,W,59.7,109.0,300610,,,A*48
$GPRMC,161215.2,A,3338.932306,N,11745.021142,W,59.5,108.6,300610,,,A*48
$GPRMC,161218.2,A,3338.916522,N,11744.966823,W,58.9,108.9,300610,,,A*44
$GPRMC,161221.2,A,3338.899524,N,11744.909521,W,61.9,110.3,300610,,,A*41
$GPRMC,161224.2,A,3338.881760,N,11744.845994,W,66.6,109.5,300610,,,A*42
$GPRMC,161227.2,A,3338.860912,N,11744.782714,W,68.3,110.1,300610,,,A*40
$GPRMC,161230.2,A,3338.842195,N,11744.716947,W,68.7,109.5,300610,,,A*4C
$GPRMC,161233.2,A,3338.823910,N,11744.652623,W,68.2,109.0,300610,,,A*41
$GPRMC,161236.2,A,3338.802591,N,11744.590208,W,66.5,110.1,300610,,,A*42
$GPRMC,161239.2,A,3338.785233,N,11744.528780,W,63.3,109.5,300610,,,A*4B
$GPRMC,161242.2,A,3338.768164,N,11744.472386,W,59.7,109.7,300610,,,A*46
$GPRMC,161245.2,A,3338.753160,N,11744.417740,W,56.5,108.9,300610,,,A*42
$GPRMC,161248.2,A,3338.737872,N,11744.363956,W,57.4,109.3,300610,,,A*41
$GPRMC,161251.2,A,3338.721746,N,11744.305738,W,61.1,109.7,300610,,,A*44
$GPRMC,161254.2,A,3338.700532,N,11744.248432,W,64.9,113.8,300610,,,A*4B
$GPRMC,161257.2,A,3338.673033,N,11744.190009,W,67.0,119.8,300610,,,A*43
$GPRMC,161300.2,A,3338.639897,N,11744.134256,W,68.1,126.4,300610,,,A*40
$GPRMC,161303.2,A,3338.600267,N,11744.083030,W,70.1,132.8,300610,,,A*43
$GPRMC,161306.2,A,3338.555472,N,11744.035287,W,70.5,139.7,300610,,,A*44
$GPRMC,161309.2,A,3338.507207,N,11743.993663,W,71.1,144.7,300610,,,A*4B
$GPRMC,161312.2,A,3338.456351,N,11743.954208,W,71.5,146.6,300610,,,A*43
$GPRMC,161315.2,A,3338.405042,N,11743.916876,W,71.0,147.9,300610,,,A*4D
$GPRMC,161318.2,A,3338.357453,N,11743.878488,W,69.1,146.4,300610,,,A*44
$GPRMC,161321.2,A,3338.307475,N,11743.840037,W,71.0,146.6,300610,,,A*4E
$GPRMC,161324.2,A,3338.257986,N,11743.800595,W,69.7,146.3,300610,,,A*4C
$GPRMC,161327.2,A,3338.212284,N,11743.763001,W,64.7,146.3,300610,,,A*48
$GPRMC,161330.2,A,3338.172546,N,11743.732374,W,55.2,147.7,300610,,,A*45
$GPRMC,161333.2,A,3338.135156,N,11743.702010,W,56.7,145.7,300610,,,A*46
$GPRMC,161336.2,A,3338.095071,N,11743.667162,W,60.2,144.4,300610,,,A*48
$GPRMC,161339.2,A,3338.055048,N,11743.632735,W,58.0,144.4,300610,,,A*4C
$GPRMC,161342.2,A,3338.016825,N,11743.600223,W,54.6,143.1,300610,,,A*4F
$GPRMC,161345.2,A,3337.982590,N,11743.567477,W,51.0,140.2,300610,,,A*46
$GPRMC,161348.2,A,3337.952162,N,11743.534937,W,50.4,137.9,300610,,,A*4E
$GPRMC,161351.2,A,3337.919345,N,11743.496513,W,56.4,135.8,300610,,,A*48
$GPRMC,161354.2,A,3337.885176,N,11743.454147,W,59.7,135.0,300610,,,A*44
$GPRMC,161357.2,A,3337.847963,N,11743.407994,W,65.6,134.3,300610,,,A*49
$GPRMC,161400.2,A,3337.807970,N,11743.357692,W,69.4,134.7,300610,,,A*4B
$GPRMC,161403.2,A,3337.764760,N,11743.309290,W,70.1,138.1,300610,,,A*47
$GPRMC,161406.2,A,3337.719844,N,11743.265247,W,69.7,141.5,300610,,,A*44
$GPRMC,161409.2,A,3337.673135,N,11743.224243,W,68.5,142.7,300610,,,A*4A
$GPRMC,161412.2,A,3337.628533,N,11743.182572,W,65.8,142.1,300610,,,A*40
$GPRMC,161415.2,A,3337.587753,N,11743.142248,W,63.5,141.3,300610,,,A*4D
$GPRMC,161418.2,A,3337.546544,N,11743.103946,W,62.4,142.1,300610,,,A*48
$GPRMC,161421.2,A,3337.506150,N,11743.065389,W,61.6,141.5,300610,,,A*49
$GPRMC,161424.2,A,3337.465380,N,11743.027591,W,60.5,142.0,300610,,,A*4A
$GPRMC,161427.2,A,3337.423262,N,11742.994778,W,58.9,143.4,300610,,,A*41
$GPRMC,161430.2,A,3337.383456,N,11742.958592,W,60.4,142.0,300610,,,A*4E
$GPRMC,161433.2,A,3337.341893,N,11742.920263,W,63.5,142.9,300610,,,A*4B
$GPRMC,161436.2,A,3337.296812,N,11742.880256,W,69.4,143.1,300610,,,A*43
$GPRMC,161439.2,A,3337.248091,N,11742.835961,W,72.7,142.2,300610,,,A*46
$GPRMC,161442.2,A,3337.203605,N,11742.790946,W,68.4,140.6,300610,,,A*45
$GPRMC,161445.2,A,3337.160541,N,11742.749521,W,66.0,141.4,300610,,,A*47
$GPRMC,161448.2,A,3337.116523,N,11742.709815,W,65.3,142.5,300610,,,A*43
$GPRMC,161451.2,A,3337.073772,N,11742.669454,W,64.8,142.2,300610,,,A*4C
$GPRMC,161454.2,A,3337.031401,N,11742.629871,W,64.7,142.2,300610,,,A*48
$GPRMC,161457.2,A,3336.989497,N,11742.589358,W,64.9,140.7,300610,,,A*4F
$GPRMC,161500.2,A,3336.948400,N,11742.547433,W,64.4,138.8,300610,,,A*4A
$GPRMC,161503.2,A,3336.909563,N,11742.504407,W,63.9,137.1,300610,,,A*44
$GPRMC,161506.2,A,3336.872563,N,11742.457843,W,63.7,135.4,300610,,,A*4E
$GPRMC,161509.2,A,3336.833915,N,11742.413823,W,64.5,136.0,300610,,,A*4D
$GPRMC,161512.2,A,3336.795272,N,11742.368064,W,64.8,135.7,300610,,,A*47
$GPRMC,161515.2,A,3336.754408,N,11742.326598,W,65.4,136.5,300610,,,A*46
$GPRMC,161518.2,A,3336.714226,N,11742.280509,W,66.9,136.2,300610,,,A*49
$GPRMC,161521.2,A,3336.674408,N,11742.232207,W,68.0,134.6,300610,,,A*4F
$GPRMC,161524.2,A,3336.635915,N,11742.180625,W,69.2,131.3,300610,,,A*43
$GPRMC,161527.2,A,3336.600016,N,11742.126890,W,68.8,127.7,300610,,,A*48
$GPRMC,161530.2,A,3336.568123,N,11742.070907,W,68.0,123.8,300610,,,A*4A
$GPRMC,161533.2,A,3336.539349,N,11742.012021,W,67.8,120.3,300610,,,A*45
$GPRMC,161536.2,A,3336.512610,N,11741.952886,W,68.0,117.9,300610,,,A*42
$GPRMC,161539.2,A,3336.487987,N,11741.889945,W,68.0,116.4,300610,,,A*44
$GPRMC,161542.2,A,3336.464174,N,11741.829459,W,65.7,116.1,300610,,,A*44
$GPRMC,161545.2,A,3336.441336,N,11741.771159,W,63.4,115.8,300610,,,A*48
$GPRMC,161548.2,A,3336.416982,N,11741.716440,W,60.9,118.3,300610,,,A*46
$GPRMC,161551.2,A,3336.393198,N,11741.664981,W,58.9,118.1,300610,,,A*4A
$GPRMC,161554.2,A,3336.368724,N,11741.612124,W,61.2,119.3,300610,,,A*4E
$GPRMC,161557.2,A,3336.341417,N,11741.559198,W,62.7,121.7,300610,,,A*47
$GPRMC,161600.2,A,3336.312542,N,11741.507742,W,62.2,124.0,300610,,,A*4C
$GPRMC,161603.2,A,3336.281665,N,11741.457331,W,62.2,126.6,300610,,,A*42
$GPRMC,161606.2,A,3336.249642,N,11741.408615,W,61.5,128.4,300610,,,A*47
$GPRMC,161609.2,A,3336.217551,N,11741.361491,W,61.3,128.2,300610,,,A*44
$GPRMC,161612.2,A,3336.186027,N,11741.311441,W,62.7,126.1,300610,,,A*41
$GPRMC,161615.2,A,3336.157708,N,11741.259010,W,62.6,123.0,300610,,,A*48
$GPRMC,161618.2,A,3336.132834,N,11741.204853,W,60.9,119.5,300610,,,A*40
$GPRMC,161621.2,A,3336.110272,N,11741.150387,W,61.0,116.4,300610,,,A*44
$GPRMC,161624.2,A,3336.087416,N,11741.093726,W,63.8,115.3,300610,,,A*45
$GPRMC,161627.2,A,3336.064407,N,11741.035263,W,65.1,115.3,300610,,,A*4C
$GPRMC,161630.2,A,3336.041644,N,11740.976393,W,64.0,114.8,300610,,,A*43
$GPRMC,161633.2,A,3336.019599,N,11740.920131,W,61.6,114.8,300610,,,A*44
$GPRMC,161636.2,A,3335.998564,N,11740.865106,W,60.1,115.1,300610,,,A*4A
$GPRMC,161639.2,A,3335.977366,N,11740.810656,W,59.2,115.1,300610,,,A*49
$GPRMC,161642.2,A,3335.955738,N,11740.756626,W,59.9,115.4,300610,,,A*4E
$GPRMC,161645.2,A,3335.934120,N,11740.702645,W,60.2,115.3,300610,,,A*43
$GPRMC,161648.2,A,3335.909523,N,11740.650435,W,60.7,119.5,300610,,,A*4B
$GPRMC,161651.2,A,3335.880344,N,11740.599579,W,61.5,125.5,300610,,,A*47
$GPRMC,161654.2,A,3335.847410,N,11740.552973,W,60.1,131.0,300610,,,A*4B
$GPRMC,161657.2,A,3335.811388,N,11740.510736,W,60.3,135.5,300610,,,A*47
$GPRMC,161700.2,A,3335.774665,N,11740.470029,W,60.7,138.5,300610,,,A*49
$GPRMC,161703.2,A,3335.733684,N,11740.432172,W,61.9,142.4,300610,,,A*4C
$GPRMC,161706.2,A,3335.691387,N,11740.397441,W,61.1,146.5,300610,,,A*46
$GPRMC,161709.2,A,3335.648323,N,11740.367183,W,59.7,151.7,300610,,,A*4E
$GPRMC,161712.2,A,3335.602832,N,11740.342576,W,59.7,157.2,300610,,,A*4B
$GPRMC,161715.2,A,3335.554614,N,11740.323441,W,60.3,163.0,300610,,,A*4F
$GPRMC,161718.2,A,3335.504564,N,11740.309193,W,61.3,169.1,300610,,,A*4B
$GPRMC,161721.2,A,3335.454791,N,11740.302103,W,61.2,175.2,300610,,,A*40
$GPRMC,161724.2,A,3335.401758,N,11740.302169,W,63.1,180.4,300610,,,A*41
$GPRMC,161727.2,A,3335.348255,N,11740.303361,W,63.0,181.3,300610,,,A*4C
$GPRMC,161730.2,A,3335.295056,N,11740.304835,W,63.1,181.0,300610,,,A*45
$GPRMC,161733.2,A,3335.242793,N,11740.305854,W,62.4,180.9,300610,,,A*48
$GPRMC,161736.2,A,3335.190030,N,11740.307027,W,63.7,181.0,300610,,,A*4B
$GPRMC,161739.2,A,3335.136638,N,11740.306565,W,64.8,180.2,300610,,,A*4F
$GPRMC,161742.2,A,3335.080064,N,11740.308082,W,68.0,180.9,300610,,,A*4D
$GPRMC,161745.2,A,3335.022153,N,11740.309316,W,69.8,180.9,300610,,,A*41
$GPRMC,161748.2,A,3334.963282,N,11740.309714,W,69.9,180.5,300610,,,A*45
$GPRMC,161751.2,A,3334.905461,N,11740.310154,W,69.6,180.7,300610,,,A*41
$GPRMC,161754.2,A,3334.846841,N,11740.311190,W,69.9,180.9,300610,,,A*44
$GPRMC,161757.2,A,3334.788589,N,11740.312349,W,69.9,181.4,300610,,,A*4A
$GPRMC,161800.2,A,3334.732878,N,11740.312101,W,68.9,180.5,300610,,,A*4A
$GPRMC,161803.2,A,3334.674379,N,11740.313447,W,70.6,180.7,300610,,,A*42
$GPRMC,161806.2,A,3334.615120,N,11740.314485,W,71.3,180.7,300610,,,A*43
$GPRMC,161809.2,A,3334.556784,N,11740.315919,W,70.3,181.2,300610,,,A*4C
$GPRMC,161812.2,A,3334.498661,N,11740.317227,W,69.7,180.9,300610,,,A*4D
$GPRMC,161815.2,A,3334.441209,N,11740.317363,W,69.2,180.6,300610,,,A*4F
$GPRMC,161818.2,A,3334.384646,N,11740.317915,W,68.3,180.8,300610,,,A*46
$GPRMC,161821.2,A,3334.329376,N,11740.319691,W,67.9,180.9,300610,,,A*44
$GPRMC,161824.2,A,3334.273835,N,11740.320142,W,67.1,180.8,300610,,,A*49
$GPRMC,161827.2,A,3334.219592,N,11740.321238,W,65.9,181.0,300610,,,A*4A
$GPRMC,161830.2,A,3334.164879,N,11740.322994,W,64.6,181.9,300610,,,A*44
$GPRMC,161833.2,A,3334.113044,N,11740.326408,W,62.8,184.0,300610,,,A*49
$GPRMC,161836.2,A,3334.060691,N,11740.331167,W,61.8,185.1,300610,,,A*4E
$GPRMC,161839.2,A,3334.009063,N,11740.337616,W,62.0,186.7,300610,,,A*4C
$GPRMC,161842.2,A,3333.956389,N,11740.345457,W,62.7,186.2,300610,,,A*43
$GPRMC,161845.2,A,3333.905280,N,11740.350670,W,61.5,185.2,300610,,,A*4B
$GPRMC,161848.2,A,3333.857886,N,11740.356985,W,59.9,186.3,300610,,,A*4A
$GPRMC,161851.2,A,3333.808741,N,11740.363978,W,59.4,186.2,300610,,,A*44
$GPRMC,161854.2,A,3333.756275,N,11740.370483,W,62.4,186.0,300610,,,A*46
$GPRMC,161857.2,A,3333.703739,N,11740.375857,W,64.4,185.5,300610,,,A*48
$GPRMC,161900.2,A,3333.649607,N,11740.381061,W,64.3,184.1,300610,,,A*4C
$GPRMC,161903.2,A,3333.595948,N,11740.385104,W,64.7,182.6,300610,,,A*4A
$GPRMC,161906.2,A,3333.540519,N,11740.386250,W,66.3,180.3,300610,,,A*4F
$GPRMC,161909.2,A,3333.485782,N,11740.385907,W,66.2,179.0,300610,,,A*46
$GPRMC,161912.2,A,3333.431095,N,11740.384609,W,66.2,178.7,300610,,,A*44
$GPRMC,161915.2,A,3333.374432,N,11740.383752,W,66.7,178.9,300610,,,A*4F
$GPRMC,161918.2,A,3333.320231,N,11740.383124,W,65.8,178.9,300610,,,A*4D
$GPRMC,161921.2,A,3333.266858,N,11740.382113,W,64.0,179.1,300610,,,A*44
$GPRMC,161924.2,A,3333.214598,N,11740.380621,W,63.1,178.9,300610,,,A*4E
$GPRMC,161927.2,A,3333.160970,N,11740.379175,W,64.1,178.8,300610,,,A*41
$GPRMC,161930.2,A,3333.106218,N,11740.377040,W,66.0,178.5,300610,,,A*45
$GPRMC,161933.2,A,3333.049107,N,11740.375280,W,68.0,178.6,300610,,,A*40
$GPRMC,161936.2,A,3332.991074,N,11740.373881,W,69.2,179.4,300610,,,A*40
$GPRMC,161939.2,A,3332.933334,N,11740.375184,W,69.0,181.4,300610,,,A*4F
$GPRMC,161942.2,A,3332.876500,N,11740.377995,W,68.6,183.5,300610,,,A*4C
$GPRMC,161945.2,A,3332.818302,N,11740.384229,W,69.9,185.6,300610,,,A*4C
$GPRMC,161948.2,A,3332.760820,N,11740.392239,W,70.5,187.5,300610,,,A*49
$GPRMC,161951.2,A,3332.700069,N,11740.404713,W,72.0,189.3,300610,,,A*48
$GPRMC,161954.2,A,3332.641690,N,11740.417660,W,71.0,190.1,300610,,,A*47
$GPRMC,161957.2,A,3332.584047,N,11740.430186,W,70.8,190.2,300610,,,A*42
$GPRMC,162000.2,A,3332.528270,N,11740.442947,W,69.5,190.5,300610,,,A*48
$GPRMC,162003.2,A,3332.469958,N,11740.455139,W,70.7,190.2,300610,,,A*44
$GPRMC,162006.2,A,3332.411690,N,11740.468365,W,71.1,190.9,300610,,,A*4C
$GPRMC,162009.2,A,3332.352494,N,11740.482027,W,71.7,190.5,300610,,,A*4E
$GPRMC,162012.2,A,3332.294043,N,11740.493954,W,71.2,188.7,300610,,,A*42
$GPRMC,162015.2,A,3332.232671,N,11740.502396,W,70.3,186.4,300610,,,A*4E
$GPRMC,162018.2,A,3332.177073,N,11740.506261,W,67.9,183.5,300610,,,A*40
$GPRMC,162021.2,A,3332.120365,N,11740.508516,W,67.9,181.3,300610,,,A*41
$GPRMC,162024.2,A,3332.065529,N,11740.508124,W,66.0,178.7,300610,,,A*45
$GPRMC,162027.2,A,3332.015585,N,11740.505118,W,62.3,176.5,300610,,,A*4E
$GPRMC,162030.2,A,3331.961625,N,11740.499160,W,62.6,171.5,300610,,,A*41
$GPRMC,162033.2,A,3331.912161,N,11740.486088,W,60.6,163.9,300610,,,A*45
$GPRMC,162036.2,A,3331.866022,N,11740.461091,W,61.4,154.7,300610,,,A*4C
$GPRMC,162039.2,A,3331.821433,N,11740.427429,W,63.6,146.5,300610,,,A*40
$GPRMC,162042.2,A,3331.779271,N,11740.386134,W,65.2,138.4,300610,,,A*41
$GPRMC,162045.2,A,3331.742601,N,11740.337711,W,66.5,131.5,300610,,,A*4A
$GPRMC,162048.2,A,3331.705223,N,11740.284381,W,71.1,129.6,300610,,,A*4C
$GPRMC,162051.2,A,3331.665968,N,11740.228811,W,73.5,130.1,300610,,,A*4A
$GPRMC,162054.2,A,3331.625271,N,11740.175309,W,71.5,134.3,300610,,,A*45
$GPRMC,162057.2,A,3331.580449,N,11740.129197,W,70.0,141.4,300610,,,A*4A
$GPRMC,162100.2,A,3331.531962,N,11740.090669,W,69.4,148.7,300610,,,A*44
$GPRMC,162103.2,A,3331.479939,N,11740.058399,W,69.8,154.3,300610,,,A*4F
$GPRMC,162106.2,A,3331.425793,N,11740.032804,W,69.7,159.4,300610,,,A*4B
$GPRMC,162109.2,A,3331.370517,N,11740.008935,W,70.2,160.3,300610,,,A*47
$GPRMC,162112.2,A,3331.315030,N,11739.985789,W,70.4,160.5,300610,,,A*45
$GPRMC,162115.2,A,3331.259137,N,11739.961507,W,71.0,160.7,300610,,,A*44
$GPRMC,162118.2,A,3331.202028,N,11739.938504,W,71.8,161.0,300610,,,A*49
$GPRMC,162121.2,A,3331.144575,N,11739.915023,W,72.6,160.5,300610,,,A*49
$GPRMC,162124.2,A,3331.088015,N,11739.890209,W,72.5,160.1,300610,,,A*4F
$GPRMC,162127.2,A,3331.031803,N,11739.866375,W,71.4,160.2,300610,,,A*43
$GPRMC,162130.2,A,3330.975733,N,11739.842493,W,71.2,160.4,300610,,,A*48
$GPRMC,162133.2,A,3330.919430,N,11739.818949,W,71.7,160.7,300610,,,A*42
$GPRMC,162136.2,A,3330.861830,N,11739.794691,W,72.8,160.4,300610,,,A*4B
$GPRMC,162139.2,A,3330.805368,N,11739.770156,W,71.9,160.3,300610,,,A*43
$GPRMC,162142.2,A,3330.749018,N,11739.745157,W,72.8,159.7,300610,,,A*47
$GPRMC,162145.2,A,3330.691255,N,11739.719725,W,74.0,160.4,300610,,,A*42
$GPRMC,162148.2,A,3330.632373,N,11739.694229,W,74.9,160.2,300610,,,A*41
$GPRMC,162151.2,A,3330.574539,N,11739.669619,W,74.0,160.3,300610,,,A*4D
$GPRMC,162154.2,A,3330.515034,N,11739.645133,W,75.1,160.5,300610,,,A*40
$GPRMC,162157.2,A,3330.457123,N,11739.620033,W,74.2,160.5,300610,,,A*43
$GPRMC,162200.2,A,3330.400524,N,11739.595180,W,72.8,160.4,300610,,,A*4A
$GPRMC,162203.2,A,3330.343978,N,11739.572107,W,71.6,161.0,300610,,,A*42
$GPRMC,162206.2,A,3330.286718,N,11739.550060,W,71.9,163.4,300610,,,A*4E
$GPRMC,162209.2,A,3330.228561,N,11739.532041,W,72.1,167.1,300610,,,A*44
$GPRMC,162212.2,A,3330.169868,N,11739.520348,W,71.8,171.3,300610,,,A*4A
$GPRMC,162215.2,A,3330.110602,N,11739.512122,W,72.5,174.8,300610,,,A*4E
$GPRMC,162218.2,A,3330.048366,N,11739.508456,W,73.2,178.3,300610,,,A*44
$GPRMC,162221.2,A,3329.989160,N,11739.510483,W,71.9,182.4,300610,,,A*4C
$GPRMC,162224.2,A,3329.930325,N,11739.515594,W,72.0,185.9,300610,,,A*4A
$GPRMC,162227.2,A,3329.871755,N,11739.526657,W,72.1,189.8,300610,,,A*4E
$GPRMC,162230.2,A,3329.813679,N,11739.542504,W,70.8,193.8,300610,,,A*44
$GPRMC,162233.2,A,3329.758218,N,11739.562450,W,70.3,197.6,300610,,,A*47
$GPRMC,162236.2,A,3329.702950,N,11739.585243,W,69.8,200.7,300610,,,A*48
$GPRMC,162239.2,A,3329.650132,N,11739.613774,W,69.4,205.1,300610,,,A*4F
$GPRMC,162242.2,A,3329.599406,N,11739.645591,W,68.3,208.6,300610,,,A*41
$GPRMC,162245.2,A,3329.550925,N,11739.680447,W,67.9,211.4,300610,,,A*43
$GPRMC,162248.2,A,3329.503053,N,11739.715932,W,67.5,212.2,300610,,,A*4B
$GPRMC,162251.2,A,3329.454278,N,11739.752362,W,68.4,212.1,300610,,,A*4A
$GPRMC,162254.2,A,3329.406200,N,11739.789421,W,68.7,212.3,300610,,,A*40
$GPRMC,162257.2,A,3329.357974,N,11739.825962,W,69.0,211.8,300610,,,A*45
$GPRMC,162300.2,A,3329.310205,N,11739.861038,W,67.5,212.0,300610,,,A*4E
$GPRMC,162303.2,A,3329.261167,N,11739.896747,W,68.4,211.8,300610,,,A*4F
$GPRMC,162306.2,A,3329.213350,N,11739.933953,W,68.3,212.3,300610,,,A*43
$GPRMC,162309.2,A,3329.166310,N,11739.969359,W,67.1,212.3,300610,,,A*4B
$GPRMC,162312.2,A,3329.118969,N,11740.006134,W,67.0,213.6,300610,,,A*4E
$GPRMC,162315.2,A,3329.074129,N,11740.043932,W,66.4,215.6,300610,,,A*42
$GPRMC,162318.2,A,3329.030849,N,11740.082041,W,65.3,216.0,300610,,,A*41
$GPRMC,162321.2,A,3328.986550,N,11740.120003,W,65.1,215.7,300610,,,A*42
$GPRMC,162324.2,A,3328.943008,N,11740.158495,W,64.7,216.0,300610,,,A*41
$GPRMC,162327.2,A,3328.899200,N,11740.195358,W,63.6,215.9,300610,,,A*45
$GPRMC,162330.2,A,3328.856973,N,11740.232381,W,62.9,216.0,300610,,,A*41
$GPRMC,162333.2,A,3328.813482,N,11740.269473,W,63.5,216.0,300610,,,A*49
$GPRMC,162336.2,A,3328.772172,N,11740.307420,W,62.9,216.6,300610,,,A*4A
$GPRMC,162339.2,A,3328.729270,N,11740.344136,W,62.9,215.8,300610,,,A*42
$GPRMC,162342.2,A,3328.686679,N,11740.379868,W,61.8,214.7,300610,,,A*47
$GPRMC,162345.2,A,3328.641460,N,11740.411702,W,61.8,209.7,300610,,,A*47
$GPRMC,162348.2,A,3328.593709,N,11740.439845,W,63.1,204.8,300610,,,A*45
$GPRMC,162351.2,A,3328.542410,N,11740.463248,W,65.2,199.3,300610,,,A*4B
$GPRMC,162354.2,A,3328.490780,N,11740.478430,W,64.1,193.2,300610,,,A*40
$GPRMC,162357.2,A,3328.438374,N,11740.488117,W,62.7,187.5,300610,,,A*43
$GPRMC,162400.2,A,3328.383419,N,11740.490671,W,64.4,180.5,300610,,,A*41
$GPRMC,162403.2,A,3328.327850,N,11740.486955,W,65.4,174.8,300610,,,A*44
$GPRMC,162406.2,A,3328.272293,N,11740.476311,W,64.8,168.1,300610,,,A*49
$GPRMC,162409.2,A,3328.220962,N,11740.456718,W,63.6,159.4,300610,,,A*45
$GPRMC,162412.2,A,3328.174533,N,11740.427899,W,63.0,150.6,300610,,,A*48
$GPRMC,162415.2,A,3328.131590,N,11740.391123,W,63.7,141.6,300610,,,A*42
$GPRMC,162418.2,A,3328.094150,N,11740.347739,W,63.4,133.5,300610,,,A*4A
$GPRMC,162421.2,A,3328.063883,N,11740.298999,W,60.7,124.8,300610,,,A*43
$GPRMC,162424.2,A,3328.039110,N,11740.246979,W,59.7,118.2,300610,,,A*48
$GPRMC,162427.2,A,3328.017653,N,11740.193122,W,60.2,116.6,300610,,,A*4F
$GPRMC,162430.2,A,3327.991630,N,11740.140058,W,62.0,120.4,300610,,,A*41
$GPRMC,162433.2,A,3327.960955,N,11740.087399,W,63.7,126.0,300610,,,A*40
$GPRMC,162436.2,A,3327.928358,N,11740.039168,W,61.0,128.9,300610,,,A*45
$GPRMC,162439.2,A,3327.895606,N,11739.993985,W,59.9,129.2,300610,,,A*47
$GPRMC,162442.2,A,3327.863991,N,11739.948260,W,59.6,129.2,300610,,,A*4A
$GPRMC,162445.2,A,3327.831289,N,11739.902237,W,60.7,129.6,300610,,,A*4B
$GPRMC,162448.2,A,3327.798616,N,11739.855014,W,61.3,129.3,300610,,,A*48
$GPRMC,162451.2,A,3327.766031,N,11739.807329,W,61.6,129.2,300610,,,A*4C
$GPRMC,162454.2,A,3327.733584,N,11739.759029,W,61.8,128.7,300610,,,A*4F
$GPRMC,162457.2,A,3327.699877,N,11739.711459,W,62.8,129.2,300610,,,A*44
$GPRMC,162500.2,A,3327.666952,N,11739.661367,W,64.1,127.3,300610,,,A*4D
$GPRMC,162503.2,A,3327.638314,N,11739.606502,W,64.9,120.9,300610,,,A*4C
$GPRMC,162506.2,A,3327.614159,N,11739.551016,W,62.8,117.2,300610,,,A*45
$GPRMC,162509.2,A,3327.591210,N,11739.496554,W,61.3,116.7,300610,,,A*4F
$GPRMC,162512.2,A,3327.566784,N,11739.442712,W,61.3,119.3,300610,,,A*47
$GPRMC,162515.2,A,3327.540381,N,11739.390174,W,61.3,123.3,300610,,,A*42
$GPRMC,162518.2,A,3327.509770,N,11739.340038,W,62.0,125.5,300610,,,A*4C
$GPRMC,162521.2,A,3327.479329,N,11739.289129,W,62.7,125.5,300610,,,A*4A
$GPRMC,162524.2,A,3327.448525,N,11739.239373,W,62.2,126.3,300610,,,A*41
$GPRMC,162527.2,A,3327.418038,N,11739.188615,W,62.7,125.2,300610,,,A*45
$GPRMC,162530.2,A,3327.389690,N,11739.136041,W,63.3,122.4,300610,,,A*4E
$GPRMC,162533.2,A,3327.362434,N,11739.082110,W,63.5,120.5,300610,,,A*4A
$GPRMC,162536.2,A,3327.337478,N,11739.027162,W,63.2,118.1,300610,,,A*45
$GPRMC,162539.2,A,3327.312704,N,11738.970477,W,64.4,117.5,300610,,,A*44
$GPRMC,162542.2,A,3327.287939,N,11738.913544,W,64.1,117.7,300610,,,A*46
$GPRMC,162545.2,A,3327.263767,N,11738.858668,W,62.1,117.7,300610,,,A*4B
$GPRMC,162548.2,A,3327.239656,N,11738.803191,W,62.8,117.8,300610,,,A*43
$GPRMC,162551.2,A,3327.216631,N,11738.747914,W,62.4,117.2,300610,,,A*4B
$GPRMC,162554.2,A,3327.191758,N,11738.694806,W,61.0,119.3,300610,,,A*49
$GPRMC,162557.2,A,3327.167291,N,11738.642932,W,59.1,121.0,300610,,,A*4C
$GPRMC,162600.2,A,3327.142567,N,11738.594093,W,56.9,122.6,300610,,,A*4C
$GPRMC,162603.2,A,3327.116382,N,11738.547467,W,55.5,124.8,300610,,,A*45
$GPRMC,162606.2,A,3327.089452,N,11738.504170,W,53.3,127.0,300610,,,A*42
$GPRMC,162609.2,A,3327.061466,N,11738.464050,W,52.0,129.3,300610,,,A*47
$GPRMC,162612.2,A,3327.033157,N,11738.424670,W,51.4,130.1,300610,,,A*40
$GPRMC,162615.2,A,3327.005560,N,11738.387059,W,50.6,130.6,300610,,,A*45
$GPRMC,162618.2,A,3326.977359,N,11738.349412,W,51.0,130.2,300610,,,A*43
$GPRMC,162621.2,A,3326.948684,N,11738.309325,W,51.9,130.5,300610,,,A*49
$GPRMC,162624.2,A,3326.922244,N,11738.270012,W,51.2,128.4,300610,,,A*43
$GPRMC,162627.2,A,3326.896732,N,11738.228195,W,53.1,125.1,300610,,,A*40
$GPRMC,162630.2,A,3326.872409,N,11738.181553,W,55.4,122.4,300610,,,A*48
$GPRMC,162633.2,A,3326.847228,N,11738.134622,W,55.6,122.4,300610,,,A*41
$GPRMC,162636.2,A,3326.823816,N,11738.087619,W,54.7,121.3,300610,,,A*44
$GPRMC,162639.2,A,3326.799820,N,11738.039909,W,56.0,121.0,300610,,,A*4D
$GPRMC,162642.2,A,3326.776434,N,11737.990691,W,57.8,120.1,300610,,,A*4B
$GPRMC,162645.2,A,3326.751197,N,11737.939348,W,60.2,121.7,300610,,,A*4E
$GPRMC,162648.2,A,3326.719468,N,11737.891024,W,60.9,128.2,300610,,,A*47
$GPRMC,162651.2,A,3326.684813,N,11737.846327,W,60.5,133.7,300610,,,A*43
$GPRMC,162654.2,A,3326.649057,N,11737.806691,W,56.7,135.4,300610,,,A*41
$GPRMC,162657.2,A,3326.617412,N,11737.770511,W,51.1,135.4,300610,,,A*48
$GPRMC,162700.2,A,3326.587348,N,11737.736461,W,49.7,135.6,300610,,,A*40
$GPRMC,162703.2,A,3326.556792,N,11737.699000,W,53.6,134.9,300610,,,A*4F
$GPRMC,162706.2,A,3326.523525,N,11737.658740,W,57.9,134.6,300610,,,A*4C
$GPRMC,162709.2,A,3326.488369,N,11737.615415,W,60.2,133.6,300610,,,A*4F
$GPRMC,162712.2,A,3326.455727,N,11737.570080,W,61.0,130.3,300610,,,A*46
$GPRMC,162715.2,A,3326.425887,N,11737.521338,W,61.4,125.6,300610,,,A*42
$GPRMC,162718.2,A,3326.396722,N,11737.469948,W,63.3,124.0,300610,,,A*42
$GPRMC,162721.2,A,3326.367273,N,11737.416942,W,64.1,123.7,300610,,,A*40
$GPRMC,162724.2,A,3326.338606,N,11737.362261,W,64.7,123.5,300610,,,A*43
$GPRMC,162727.2,A,3326.308599,N,11737.308017,W,65.5,123.5,300610,,,A*4A
$GPRMC,162730.2,A,3326.278639,N,11737.253620,W,65.4,123.6,300610,,,A*4C
$GPRMC,162733.2,A,3326.246912,N,11737.200516,W,65.1,125.1,300610,,,A*40
$GPRMC,162736.2,A,3326.212031,N,11737.153943,W,62.4,132.0,300610,,,A*40
$GPRMC,162739.2,A,3326.175038,N,11737.110381,W,61.3,137.6,300610,,,A*40
$GPRMC,162742.2,A,3326.134633,N,11737.075284,W,58.8,144.8,300610,,,A*49
$GPRMC,162745.2,A,3326.093917,N,11737.046412,W,54.8,149.4,300610,,,A*4F
$GPRMC,162748.2,A,3326.054573,N,11737.019767,W,53.4,150.1,300610,,,A*4A
$GPRMC,162751.2,A,3326.016059,N,11736.994098,W,52.4,150.5,300610,,,A*46
$GPRMC,162754.2,A,3325.976388,N,11736.969381,W,53.1,151.4,300610,,,A*4D
$GPRMC,162757.2,A,3325.936434,N,11736.941985,W,55.3,149.2,300610,,,A*45
$GPRMC,162800.2,A,3325.898660,N,11736.910801,W,56.4,143.3,300610,,,A*48
$GPRMC,162803.2,A,3325.861605,N,11736.872966,W,59.5,138.2,300610,,,A*48
$GPRMC,162806.2,A,3325.824764,N,11736.829479,W,62.9,134.3,300610,,,A*4E
$GPRMC,162809.2,A,3325.786399,N,11736.782820,W,66.0,134.4,300610,,,A*44
$GPRMC,162812.2,A,3325.745114,N,11736.737109,W,67.0,138.7,300610,,,A*44
$GPRMC,162815.2,A,3325.700441,N,11736.697300,W,66.3,144.2,300610,,,A*4B
$GPRMC,162818.2,A,3325.654541,N,11736.661647,W,65.2,147.6,300610,,,A*4D
$GPRMC,162821.2,A,3325.608000,N,11736.627813,W,65.3,149.3,300610,,,A*49
$GPRMC,162824.2,A,3325.560801,N,11736.595284,W,65.7,150.0,300610,,,A*49
$GPRMC,162827.2,A,3325.513638,N,11736.563564,W,64.5,150.3,300610,,,A*4A
$GPRMC,162830.2,A,3325.466765,N,11736.532665,W,64.0,152.0,300610,,,A*44
$GPRMC,162833.2,A,3325.418295,N,11736.505154,W,63.5,156.3,300610,,,A*40
$GPRMC,162836.2,A,3325.368348,N,11736.481738,W,64.5,158.2,300610,,,A*4D
$GPRMC,162839.2,A,3325.317314,N,11736.456746,W,65.1,156.1,300610,,,A*48
$GPRMC,162842.2,A,3325.269114,N,11736.426876,W,67.0,150.6,300610,,,A*47
$GPRMC,162845.2,A,3325.220131,N,11736.389397,W,69.5,145.2,300610,,,A*47
$GPRMC,162848.2,A,3325.172503,N,11736.349061,W,69.8,144.3,300610,,,A*40
$GPRMC,162851.2,A,3325.123027,N,11736.310686,W,69.9,148.6,300610,,,A*44
$GPRMC,162854.2,A,3325.069102,N,11736.279892,W,72.8,156.6,300610,,,A*49
$GPRMC,162857.2,A,3325.010014,N,11736.250751,W,77.1,157.3,300610,,,A*41
$GPRMC,162900.2,A,3324.950277,N,11736.221132,W,77.7,157.3,300610,,,A*4A
$GPRMC,162903.2,A,3324.890895,N,11736.191440,W,76.7,157.4,300610,,,A*4C
$GPRMC,162906.2,A,3324.833263,N,11736.162211,W,75.2,156.8,300610,,,A*46
$GPRMC,162909.2,A,3324.777461,N,11736.132745,W,73.7,156.7,300610,,,A*4F
$GPRMC,162912.2,A,3324.721620,N,11736.104166,W,73.2,156.9,300610,,,A*48
$GPRMC,162915.2,A,3324.665484,N,11736.074651,W,73.2,156.2,300610,,,A*4C
$GPRMC,162918.2,A,3324.611071,N,11736.045884,W,72.4,156.9,300610,,,A*44
$GPRMC,162921.2,A,3324.555382,N,11736.017506,W,72.6,157.1,300610,,,A*49
$GPRMC,162924.2,A,3324.500146,N,11735.989019,W,72.3,157.0,300610,,,A*44
$GPRMC,162927.2,A,3324.445355,N,11735.961755,W,70.5,156.9,300610,,,A*42
$GPRMC,162930.2,A,3324.391061,N,11735.934505,W,70.0,156.9,300610,,,A*4C
$GPRMC,162933.2,A,3324.337441,N,11735.908256,W,69.6,157.1,300610,,,A*4C
$GPRMC,162936.2,A,3324.284651,N,11735.880817,W,69.1,156.6,300610,,,A*4C
$GPRMC,162939.2,A,3324.232060,N,11735.854393,W,68.2,157.0,300610,,,A*41
$GPRMC,162942.2,A,3324.179279,N,11735.827380,W,68.1,157.0,300610,,,A*4E
$GPRMC,162945.2,A,3324.128476,N,11735.802779,W,66.3,157.7,300610,,,A*4A
$GPRMC,162948.2,A,3324.077767,N,11735.777030,W,66.1,157.3,300610,,,A*4E
$GPRMC,162951.2,A,3324.026761,N,11735.751432,W,67.1,157.3,300610,,,A*47
$GPRMC,162954.2,A,3323.974208,N,11735.725523,W,67.6,157.4,300610,,,A*43
$GPRMC,162957.2,A,3323.923070,N,11735.699685,W,66.7,157.3,300610,,,A*41
$GPRMC,163000.2,A,3323.870750,N,11735.674906,W,67.0,156.9,300610,,,A*43
$GPRMC,163003.2,A,3323.819587,N,11735.648119,W,66.7,155.4,300610,,,A*46
$GPRMC,163006.2,A,3323.771532,N,11735.618667,W,65.5,153.3,300610,,,A*47
$GPRMC,163009.2,A,3323.723975,N,11735.587902,W,65.1,151.6,300610,,,A*4A
$GPRMC,163012.2,A,3323.676088,N,11735.557124,W,64.0,151.2,300610,,,A*4F
$GPRMC,163015.2,A,3323.631425,N,11735.525215,W,63.3,149.3,300610,,,A*40
$GPRMC,163018.2,A,3323.586421,N,11735.492722,W,64.3,148.2,300610,,,A*4D
$GPRMC,163021.2,A,3323.540909,N,11735.457862,W,65.3,146.9,300610,,,A*4C
$GPRMC,163024.2,A,3323.495038,N,11735.422106,W,65.5,146.7,300610,,,A*4A
$GPRMC,163027.2,A,3323.447253,N,11735.386047,W,66.3,146.7,300610,,,A*41
$GPRMC,163030.2,A,3323.402079,N,11735.349896,W,66.5,146.6,300610,,,A*4C
$GPRMC,163033.2,A,3323.353172,N,11735.310976,W,68.9,145.5,300610,,,A*47
$GPRMC,163036.2,A,3323.304822,N,11735.268491,W,69.5,141.8,300610,,,A*42
$GPRMC,163039.2,A,3323.260923,N,11735.222954,W,69.2,137.1,300610,,,A*4B
$GPRMC,163042.2,A,3323.222351,N,11735.172892,W,68.8,132.0,300610,,,A*4C
$GPRMC,163045.2,A,3323.185375,N,11735.118965,W,70.0,127.3,300610,,,A*40
$GPRMC,163048.2,A,3323.154213,N,11735.061108,W,69.0,121.9,300610,,,A*48
$GPRMC,163051.2,A,3323.127584,N,11735.002456,W,66.4,117.8,300610,,,A*49
$GPRMC,163054.2,A,3323.104762,N,11734.942689,W,65.6,115.0,300610,,,A*40
$GPRMC,163057.2,A,3323.082747,N,11734.884215,W,64.6,114.6,300610,,,A*47
$GPRMC,163100.2,A,3323.060336,N,11734.825199,W,64.9,114.7,300610,,,A*48
$GPRMC,163103.2,A,3323.036573,N,11734.767465,W,64.2,115.1,300610,,,A*4C
$GPRMC,163106.2,A,3323.014399,N,11734.712053,W,61.6,115.2,300610,,,A*4A
$GPRMC,163109.2,A,3322.992079,N,11734.655982,W,62.6,115.6,300610,,,A*4E
$GPRMC,163112.2,A,3322.970150,N,11734.598791,W,64.1,114.1,300610,,,A*4B
$GPRMC,163115.2,A,3322.948440,N,11734.540386,W,63.3,114.6,300610,,,A*46
$GPRMC,163118.2,A,3322.925857,N,11734.483975,W,62.6,115.3,300610,,,A*42
$GPRMC,163121.2,A,3322.904215,N,11734.428067,W,62.3,114.8,300610,,,A*43
$GPRMC,163124.2,A,3322.882917,N,11734.371607,W,61.9,115.1,300610,,,A*4A
$GPRMC,163127.2,A,3322.861118,N,11734.315663,W,62.4,114.8,300610,,,A*45
$GPRMC,163130.2,A,3322.839533,N,11734.259363,W,62.5,114.9,300610,,,A*4F
$GPRMC,163133.2,A,3322.816709,N,11734.202221,W,63.2,115.2,300610,,,A*4F
$GPRMC,163136.2,A,3322.796005,N,11734.146850,W,60.1,114.8,300610,,,A*42
$GPRMC,163139.2,A,3322.775083,N,11734.091809,W,60.6,114.6,300610,,,A*40
$GPRMC,163142.2,A,3322.752544,N,11734.037001,W,62.1,114.9,300610,,,A*41
$GPRMC,163145.2,A,3322.730345,N,11733.979923,W,62.8,116.7,300610,,,A*4D
$GPRMC,163148.2,A,3322.703419,N,11733.928834,W,59.2,122.4,300610,,,A*4B
$GPRMC,163151.2,A,3322.673528,N,11733.884664,W,57.1,128.8,300610,,,A*41
$GPRMC,163154.2,A,3322.639834,N,11733.843343,W,57.6,134.5,300610,,,A*46
$GPRMC,163157.2,A,3322.605091,N,11733.802738,W,57.4,136.4,300610,,,A*41
$GPRMC,163200.2,A,3322.571337,N,11733.765154,W,54.3,137.1,300610,,,A*4D
$GPRMC,163203.2,A,3322.540018,N,11733.728606,W,50.9,135.5,300610,,,A*43
$GPRMC,163206.2,A,3322.510524,N,11733.690733,W,53.2,130.5,300610,,,A*41
$GPRMC,163209.2,A,3322.482261,N,11733.648781,W,55.1,126.0,300610,,,A*49
$GPRMC,163212.2,A,3322.456204,N,11733.601958,W,56.6,123.3,300610,,,A*4C
$GPRMC,163215.2,A,3322.431302,N,11733.553746,W,56.6,122.5,300610,,,A*4F
$GPRMC,163218.2,A,3322.406315,N,11733.505977,W,56.6,122.7,300610,,,A*4D
$GPRMC,163221.2,A,3322.380320,N,11733.457370,W,58.2,123.0,300610,,,A*4F
$GPRMC,163224.2,A,3322.354741,N,11733.408177,W,58.4,122.5,300610,,,A*4D
$GPRMC,163227.2,A,3322.328182,N,11733.358280,W,60.0,122.5,300610,,,A*4A
$GPRMC,163230.2,A,3322.301314,N,11733.307441,W,60.5,122.4,300610,,,A*4F
$GPRMC,163233.2,A,3322.272811,N,11733.256374,W,62.2,122.8,300610,,,A*4A
$GPRMC,163236.2,A,3322.245115,N,11733.204003,W,63.0,122.6,300610,,,A*4F
$GPRMC,163239.2,A,3322.216710,N,11733.152280,W,61.0,123.0,300610,,,A*49
$GPRMC,163242.2,A,3322.189012,N,11733.102106,W,59.6,123.2,300610,,,A*42
$GPRMC,163245.2,A,3322.161347,N,11733.051374,W,61.4,122.9,300610,,,A*43
$GPRMC,163248.2,A,3322.132164,N,11732.999395,W,63.6,123.6,300610,,,A*46
$GPRMC,163251.2,A,3322.100966,N,11732.945176,W,66.7,124.0,300610,,,A*4E
$GPRMC,163254.2,A,3322.070670,N,11732.888119,W,68.0,123.0,300610,,,A*42
$GPRMC,163257.2,A,3322.037723,N,11732.833615,W,66.8,125.0,300610,,,A*4E
$GPRMC,163300.2,A,3322.004473,N,11732.783408,W,63.7,128.0,300610,,,A*46
$GPRMC,163303.2,A,3321.971412,N,11732.734075,W,62.9,128.8,300610,,,A*4F
$GPRMC,163306.2,A,3321.938469,N,11732.685807,W,62.0,128.8,300610,,,A*44
$GPRMC,163309.2,A,3321.907271,N,11732.639092,W,59.1,128.9,300610,,,A*43
$GPRMC,163312.2,A,3321.877252,N,11732.595702,W,55.7,129.1,300610,,,A*46
$GPRMC,163315.2,A,3321.847475,N,11732.552797,W,56.7,129.1,300610,,,A*45
$GPRMC,163318.2,A,3321.817045,N,11732.508948,W,57.9,129.4,300610,,,A*43
$GPRMC,163321.2,A,3321.785141,N,11732.463801,W,59.3,129.3,300610,,,A*4B
$GPRMC,163324.2,A,3321.752421,N,11732.417652,W,61.1,129.2,300610,,,A*44
$GPRMC,163327.2,A,3321.718834,N,11732.369000,W,64.0,129.2,300610,,,A*4A
$GPRMC,163330.2,A,3321.684649,N,11732.319228,W,64.6,129.4,300610,,,A*43
$GPRMC,163333.2,A,3321.649610,N,11732.268985,W,66.2,129.5,300610,,,A*41
$GPRMC,163336.2,A,3321.614789,N,11732.217915,W,65.3,129.3,300610,,,A*48
$GPRMC,163339.2,A,3321.580607,N,11732.167924,W,64.5,128.9,300610,,,A*44
$GPRMC,163342.2,A,3321.547222,N,11732.117831,W,64.5,128.7,300610,,,A*4C
$GPRMC,163345.2,A,3321.513678,N,11732.068489,W,64.1,129.0,300610,,,A*45
$GPRMC,163348.2,A,3321.481298,N,11732.018630,W,63.1,128.6,300610,,,A*4F
$GPRMC,163351.2,A,3321.446764,N,11731.969464,W,64.3,129.2,300610,,,A*45
$GPRMC,163354.2,A,3321.412859,N,11731.919243,W,65.4,129.0,300610,,,A*40
$GPRMC,163357.2,A,3321.379354,N,11731.867327,W,66.0,128.5,300610,,,A*47
$GPRMC,163400.2,A,3321.342622,N,11731.817235,W,66.4,129.5,300610,,,A*4E
$GPRMC,163403.2,A,3321.307658,N,11731.766441,W,65.9,129.1,300610,,,A*47
$GPRMC,163406.2,A,3321.273350,N,11731.716274,W,65.3,129.0,300610,,,A*41
$GPRMC,163409.2,A,3321.237845,N,11731.666878,W,65.9,129.8,300610,,,A*43
$GPRMC,163412.2,A,3321.201530,N,11731.614487,W,68.1,129.3,300610,,,A*44
$GPRMC,163415.2,A,3321.165885,N,11731.560996,W,68.9,129.1,300610,,,A*46
$GPRMC,163418.2,A,3321.129097,N,11731.506655,W,69.9,128.7,300610,,,A*4E
$GPRMC,163421.2,A,3321.092506,N,11731.452861,W,69.9,128.8,300610,,,A*4E
$GPRMC,163424.2,A,3321.055868,N,11731.398113,W,71.0,128.3,300610,,,A*43
$GPRMC,163427.2,A,3321.018963,N,11731.342366,W,70.8,128.4,300610,,,A*4A
$GPRMC,163430.2,A,3320.981732,N,11731.287871,W,70.3,128.9,300610,,,A*4D
$GPRMC,163433.2,A,3320.944210,N,11731.234381,W,70.3,129.4,300610,,,A*42
$GPRMC,163436.2,A,3320.908045,N,11731.178795,W,71.1,128.8,300610,,,A*49
$GPRMC,163439.2,A,3320.869172,N,11731.124068,W,71.6,129.6,300610,,,A*41
$GPRMC,163442.2,A,3320.830388,N,11731.069708,W,71.4,130.4,300610,,,A*47
$GPRMC,163445.2,A,3320.791697,N,11731.015752,W,71.6,130.4,300610,,,A*49
$GPRMC,163448.2,A,3320.752330,N,11730.961628,W,71.0,131.1,300610,,,A*46
$GPRMC,163451.2,A,3320.713899,N,11730.908650,W,69.8,131.1,300610,,,A*42
$GPRMC,163454.2,A,3320.677319,N,11730.857074,W,67.7,130.6,300610,,,A*4B
$GPRMC,163457.2,A,3320.639390,N,11730.807108,W,67.6,131.1,300610,,,A*4B
$GPRMC,163500.2,A,3320.602986,N,11730.755552,W,67.9,130.7,300610,,,A*46
$GPRMC,163503.2,A,3320.565448,N,11730.703858,W,68.8,130.8,300610,,,A*4D
$GPRMC,163506.2,A,3320.528008,N,11730.652196,W,68.6,131.0,300610,,,A*48
$GPRMC,163509.2,A,3320.490896,N,11730.600688,W,68.8,130.9,300610,,,A*43
$GPRMC,163512.2,A,3320.453066,N,11730.549578,W,68.0,131.0,300610,,,A*43
$GPRMC,163515.2,A,3320.416135,N,11730.498962,W,67.3,130.7,300610,,,A*42
$GPRMC,163518.2,A,3320.381094,N,11730.451184,W,61.0,131.2,300610,,,A*48
$GPRMC,163521.2,A,3320.350914,N,11730.409963,W,53.7,131.4,300610,,,A*43
$GPRMC,163524.2,A,3320.322612,N,11730.370792,W,51.4,131.2,300610,,,A*44
$GPRMC,163527.2,A,3320.295006,N,11730.332043,W,53.2,130.7,300610,,,A*44
$GPRMC,163530.2,A,3320.264311,N,11730.289926,W,56.2,130.7,300610,,,A*47
$GPRMC,163533.2,A,3320.233908,N,11730.246953,W,57.2,130.5,300610,,,A*46
$GPRMC,163536.2,A,3320.201772,N,11730.202739,W,59.1,131.0,300610,,,A*4A
$GPRMC,163539.2,A,3320.168229,N,11730.158286,W,60.4,131.0,300610,,,A*40
$GPRMC,163542.2,A,3320.134196,N,11730.111032,W,62.6,130.9,300610,,,A*4A
$GPRMC,163545.2,A,3320.099369,N,11730.064319,W,63.3,131.0,300610,,,A*4C
$GPRMC,163548.2,A,3320.064621,N,11730.016401,W,64.0,130.7,300610,,,A*43
$GPRMC,163551.2,A,3320.029775,N,11729.967226,W,64.8,130.9,300610,,,A*40
$GPRMC,163554.2,A,3319.994104,N,11729.919252,W,64.9,131.1,300610,,,A*42
$GPRMC,163557.2,A,3319.958299,N,11729.870484,W,64.5,131.1,300610,,,A*49
$GPRMC,163600.2,A,3319.923451,N,11729.822478,W,62.9,131.1,300610,,,A*48
$GPRMC,163603.2,A,3319.889439,N,11729.776240,W,61.5,131.0,300610,,,A*49
$GPRMC,163606.2,A,3319.856605,N,11729.731208,W,59.7,130.8,300610,,,A*4C
$GPRMC,163609.2,A,3319.824026,N,11729.686808,W,58.7,131.4,300610,,,A*4A
$GPRMC,163612.2,A,3319.792169,N,11729.642574,W,59.1,131.1,300610,,,A*44
$GPRMC,163615.2,A,3319.758786,N,11729.597267,W,60.6,131.2,300610,,,A*42
$GPRMC,163618.2,A,3319.726288,N,11729.552098,W,60.4,131.0,300610,,,A*46
$GPRMC,163621.2,A,3319.692050,N,11729.505908,W,61.4,131.3,300610,,,A*45
$GPRMC,163624.2,A,3319.658134,N,11729.458151,W,63.4,130.8,300610,,,A*40
$GPRMC,163627.2,A,3319.623921,N,11729.410533,W,63.3,131.1,300610,,,A*40
$GPRMC,163630.2,A,3319.588297,N,11729.362438,W,64.0,131.1,300610,,,A*4E
$GPRMC,163633.2,A,3319.553869,N,11729.314776,W,63.3,131.0,300610,,,A*4D
$GPRMC,163636.2,A,3319.518930,N,11729.266667,W,64.7,131.0,300610,,,A*4C
$GPRMC,163639.2,A,3319.481687,N,11729.218778,W,65.9,130.9,300610,,,A*40
$GPRMC,163642.2,A,3319.446569,N,11729.169032,W,65.6,130.7,300610,,,A*49
$GPRMC,163645.2,A,3319.410483,N,11729.118951,W,65.7,131.3,300610,,,A*46
$GPRMC,163648.2,A,3319.372427,N,11729.072364,W,64.5,136.4,300610,,,A*44
$GPRMC,163651.2,A,3319.330333,N,11729.032601,W,64.2,143.9,300610,,,A*42
$GPRMC,163654.2,A,3319.284646,N,11728.999406,W,63.3,151.6,300610,,,A*48
$GPRMC,163657.2,A,3319.234502,N,11728.975962,W,63.7,160.0,300610,,,A*4E
$GPRMC,163700.2,A,3319.184598,N,11728.959804,W,60.8,166.9,300610,,,A*4A
$GPRMC,163703.2,A,3319.137210,N,11728.952362,W,56.9,173.6,300610,,,A*49
$GPRMC,163706.2,A,3319.092988,N,11728.948531,W,53.2,175.6,300610,,,A*4B
$GPRMC,163709.2,A,3319.048952,N,11728.944056,W,53.9,175.3,300610,,,A*42
$GPRMC,163712.2,A,3319.002109,N,11728.940077,W,56.4,175.7,300610,,,A*4B
$GPRMC,163715.2,A,3318.952931,N,11728.936027,W,60.0,175.7,300610,,,A*47
$GPRMC,163718.2,A,3318.900966,N,11728.928657,W,62.6,171.8,300610,,,A*4E
$GPRMC,163721.2,A,3318.850428,N,11728.914516,W,63.0,164.8,300610,,,A*4D
$GPRMC,163724.2,A,3318.799131,N,11728.892148,W,65.1,157.5,300610,,,A*45
$GPRMC,163727.2,A,3318.750182,N,11728.861766,W,66.7,150.2,300610,,,A*48
$GPRMC,163730.2,A,3318.704374,N,11728.823419,W,67.4,143.1,300610,,,A*4A
$GPRMC,163733.2,A,3318.663484,N,11728.779126,W,65.5,136.8,300610,,,A*40
$GPRMC,163736.2,A,3318.627134,N,11728.734674,W,61.6,134.5,300610,,,A*4A
$GPRMC,163739.2,A,3318.593359,N,11728.692540,W,58.5,134.3,300610,,,A*46
$GPRMC,163742.2,A,3318.559398,N,11728.651117,W,58.4,134.5,300610,,,A*4F
$GPRMC,163745.2,A,3318.525404,N,11728.609486,W,58.6,134.4,300610,,,A*42
$GPRMC,163748.2,A,3318.489708,N,11728.566577,W,60.9,134.7,300610,,,A*45
$GPRMC,163751.2,A,3318.453782,N,11728.523714,W,61.0,134.4,300610,,,A*45
$GPRMC,163754.2,A,3318.418144,N,11728.481188,W,60.0,134.6,300610,,,A*4A
$GPRMC,163757.2,A,3318.384520,N,11728.439262,W,58.6,134.5,300610,,,A*47
$GPRMC,163800.2,A,3318.349898,N,11728.397496,W,59.6,134.6,300610,,,A*49
$GPRMC,163803.2,A,3318.313252,N,11728.353062,W,63.2,134.0,300610,,,A*45
$GPRMC,163806.2,A,3318.274232,N,11728.306345,W,67.2,134.3,300610,,,A*47
$GPRMC,163809.2,A,3318.233504,N,11728.256838,W,69.4,134.3,300610,,,A*44
$GPRMC,163812.2,A,3318.191812,N,11728.205780,W,71.6,134.2,300610,,,A*4F
$GPRMC,163815.2,A,3318.149620,N,11728.155175,W,72.2,134.6,300610,,,A*4B
$GPRMC,163818.2,A,3318.107597,N,11728.104056,W,71.0,134.5,300610,,,A*45
$GPRMC,163821.2,A,3318.067034,N,11728.054665,W,69.1,134.5,300610,,,A*4E
$GPRMC,163824.2,A,3318.027807,N,11728.006075,W,68.1,134.3,300610,,,A*40
$GPRMC,163827.2,A,3317.987773,N,11727.957054,W,68.9,134.5,300610,,,A*4C
$GPRMC,163830.2,A,3317.946254,N,11727.908265,W,69.6,134.9,300610,,,A*4F
$GPRMC,163833.2,A,3317.905408,N,11727.859798,W,68.9,135.2,300610,,,A*42
$GPRMC,163836.2,A,3317.865520,N,11727.811142,W,68.8,135.1,300610,,,A*44
$GPRMC,163839.2,A,3317.823495,N,11727.763397,W,70.1,135.7,300610,,,A*40
$GPRMC,163842.2,A,3317.781914,N,11727.713249,W,70.9,134.8,300610,,,A*4C
$GPRMC,163845.2,A,3317.740230,N,11727.662732,W,71.3,134.5,300610,,,A*43
$GPRMC,163848.2,A,3317.698438,N,11727.612543,W,70.6,134.7,300610,,,A*41
$GPRMC,163851.2,A,3317.656804,N,11727.564575,W,67.7,136.7,300610,,,A*4A
$GPRMC,163854.2,A,3317.614507,N,11727.522849,W,65.8,142.8,300610,,,A*46
$GPRMC,163857.2,A,3317.569371,N,11727.486492,W,66.4,146.6,300610,,,A*4B
$GPRMC,163900.2,A,3317.521701,N,11727.450581,W,67.1,147.3,300610,,,A*4F
$GPRMC,163903.2,A,3317.474864,N,11727.414961,W,66.9,147.3,300610,,,A*4A
$GPRMC,163906.2,A,3317.427515,N,11727.379352,W,67.0,147.5,300610,,,A*4A
$GPRMC,163909.2,A,3317.380400,N,11727.343471,W,67.2,147.5,300610,,,A*47
$GPRMC,163912.2,A,3317.332677,N,11727.306925,W,67.6,147.4,300610,,,A*4E
$GPRMC,163915.2,A,3317.284081,N,11727.271702,W,67.2,148.2,300610,,,A*4D
$GPRMC,163918.2,A,3317.237980,N,11727.236968,W,66.2,147.4,300610,,,A*49
$GPRMC,163921.2,A,3317.191368,N,11727.200281,W,67.0,147.3,300610,,,A*4D
$GPRMC,163924.2,A,3317.143149,N,11727.163409,W,67.7,147.5,300610,,,A*47
$GPRMC,163927.2,A,3317.095574,N,11727.126964,W,67.1,147.7,300610,,,A*47
$GPRMC,163930.2,A,3317.048817,N,11727.091538,W,66.3,147.6,300610,,,A*43
$GPRMC,163933.2,A,3317.001966,N,11727.056965,W,65.5,147.8,300610,,,A*4E
$GPRMC,163936.2,A,3316.956397,N,11727.021122,W,65.2,146.9,300610,,,A*49
$GPRMC,163939.2,A,3316.911540,N,11726.986086,W,64.1,147.5,300610,,,A*4C
$GPRMC,163942.2,A,3316.866437,N,11726.952057,W,64.4,147.6,300610,,,A*43
$GPRMC,163945.2,A,3316.820057,N,11726.915998,W,66.7,147.2,300610,,,A*48
$GPRMC,163948.2,A,3316.773220,N,11726.880147,W,66.7,147.6,300610,,,A*4D
$GPRMC,163951.2,A,3316.726109,N,11726.845345,W,66.9,147.3,300610,,,A*4F
$GPRMC,163954.2,A,3316.679328,N,11726.809594,W,66.8,147.5,300610,,,A*45
$GPRMC,163957.2,A,3316.632033,N,11726.776112,W,65.9,148.2,300610,,,A*47
$GPRMC,164000.2,A,3316.586674,N,11726.740923,W,65.3,147.2,300610,,,A*48
$GPRMC,164003.2,A,3316.540634,N,11726.705758,W,65.0,147.7,300610,,,A*40
$GPRMC,164006.2,A,3316.494477,N,11726.671138,W,65.5,147.3,300610,,,A*4B
$GPRMC,164009.2,A,3316.447273,N,11726.636174,W,66.4,147.7,300610,,,A*45
$GPRMC,164012.2,A,3316.400892,N,11726.600198,W,66.7,146.7,300610,,,A*4C
$GPRMC,164015.2,A,3316.355158,N,11726.560288,W,68.5,141.4,300610,,,A*4C
$GPRMC,164018.2,A,3316.314412,N,11726.513774,W,67.6,134.9,300610,,,A*4E
$GPRMC,164021.2,A,3316.276837,N,11726.463702,W,67.3,132.0,300610,,,A*47
$GPRMC,164024.2,A,3316.240009,N,11726.413632,W,67.7,131.3,300610,,,A*43
$GPRMC,164027.2,A,3316.202358,N,11726.362474,W,68.7,131.3,300610,,,A*4F
$GPRMC,164030.2,A,3316.164139,N,11726.310501,W,69.3,131.3,300610,,,A*4C
$GPRMC,164033.2,A,3316.126677,N,11726.258469,W,69.1,131.3,300610,,,A*44
$GPRMC,164036.2,A,3316.088102,N,11726.206739,W,69.9,131.4,300610,,,A*43
$GPRMC,164039.2,A,3316.049438,N,11726.154166,W,70.4,131.2,300610,,,A*46
$GPRMC,164042.2,A,3316.009465,N,11726.101509,W,71.5,131.3,300610,,,A*4A
$GPRMC,164045.2,A,3315.970094,N,11726.048028,W,71.5,131.4,300610,,,A*4E
$GPRMC,164048.2,A,3315.930820,N,11725.994382,W,71.0,131.5,300610,,,A*4C
$GPRMC,164051.2,A,3315.892360,N,11725.942578,W,70.0,132.8,300610,,,A*45
$GPRMC,164054.2,A,3315.849711,N,11725.896153,W,68.8,139.8,300610,,,A*4B
$GPRMC,164057.2,A,3315.801537,N,11725.855786,W,69.6,145.5,300610,,,A*4A
$GPRMC,164100.2,A,3315.752130,N,11725.816753,W,70.1,146.1,300610,,,A*44
$GPRMC,164103.2,A,3315.703189,N,11725.778798,W,69.8,146.3,300610,,,A*42
$GPRMC,164106.2,A,3315.655597,N,11725.740665,W,69.2,146.4,300610,,,A*4B
$GPRMC,164109.2,A,3315.607369,N,11725.702858,W,69.0,146.3,300610,,,A*47
$GPRMC,164112.2,A,3315.559607,N,11725.665368,W,68.8,146.3,300610,,,A*49
$GPRMC,164115.2,A,3315.513167,N,11725.627297,W,67.5,146.5,300610,,,A*42
$GPRMC,164118.2,A,3315.466771,N,11725.591010,W,65.6,146.8,300610,,,A*42
$GPRMC,164121.2,A,3315.421280,N,11725.554552,W,65.2,146.5,300610,,,A*43
$GPRMC,164124.2,A,3315.373968,N,11725.517773,W,68.2,146.2,300610,,,A*47
$GPRMC,164127.2,A,3315.326166,N,11725.478624,W,69.6,146.0,300610,,,A*4E
$GPRMC,164130.2,A,3315.277555,N,11725.440415,W,69.4,146.1,300610,,,A*41
$GPRMC,164133.2,A,3315.229119,N,11725.401753,W,69.7,145.8,300610,,,A*48
$GPRMC,164136.2,A,3315.181796,N,11725.362727,W,67.9,145.4,300610,,,A*40
$GPRMC,164139.2,A,3315.136912,N,11725.326061,W,64.7,146.2,300610,,,A*4C
$GPRMC,164142.2,A,3315.093817,N,11725.291796,W,62.5,146.3,300610,,,A*4D
$GPRMC,164145.2,A,3315.050447,N,11725.257431,W,62.1,146.3,300610,,,A*4C
$GPRMC,164148.2,A,3315.008588,N,11725.223109,W,60.8,146.7,300610,,,A*4C
$GPRMC,164151.2,A,3314.966568,N,11725.189053,W,61.6,145.8,300610,,,A*44
$GPRMC,164154.2,A,3314.922170,N,11725.154673,W,62.7,146.8,300610,,,A*49
$GPRMC,164157.2,A,3314.877058,N,11725.122076,W,62.9,150.3,300610,,,A*40
$GPRMC,164200.2,A,3314.829531,N,11725.094113,W,63.8,155.9,300610,,,A*41
$GPRMC,164203.2,A,3314.777278,N,11725.071204,W,67.3,160.3,300610,,,A*41
$GPRMC,164206.2,A,3314.722010,N,11725.047166,W,71.3,159.5,300610,,,A*41
$GPRMC,164209.2,A,3314.665747,N,11725.022136,W,72.5,159.5,300610,,,A*4A
$GPRMC,164212.2,A,3314.609480,N,11724.996420,W,71.1,158.0,300610,,,A*44
$GPRMC,164215.2,A,3314.556521,N,11724.966027,W,69.0,151.4,300610,,,A*49
$GPRMC,164218.2,A,3314.508574,N,11724.928359,W,69.5,144.2,300610,,,A*48
$GPRMC,164221.2,A,3314.465206,N,11724.883874,W,68.8,138.1,300610,,,A*4A
$GPRMC,164224.2,A,3314.426425,N,11724.835155,W,66.9,131.9,300610,,,A*46
$GPRMC,164227.2,A,3314.393002,N,11724.783299,W,65.4,126.4,300610,,,A*49
$GPRMC,164230.2,A,3314.363966,N,11724.731807,W,62.8,124.6,300610,,,A*44
$GPRMC,164233.2,A,3314.334618,N,11724.681214,W,61.7,124.9,300610,,,A*42
$GPRMC,164236.2,A,3314.305376,N,11724.631597,W,60.6,125.1,300610,,,A*46
$GPRMC,164239.2,A,3314.274994,N,11724.584082,W,59.9,127.7,300610,,,A*45
$GPRMC,164242.2,A,3314.241240,N,11724.538368,W,61.2,132.5,300610,,,A*4B
$GPRMC,164245.2,A,3314.204955,N,11724.494474,W,62.3,135.1,300610,,,A*4E
$GPRMC,164248.2,A,3314.166466,N,11724.450588,W,62.5,136.4,300610,,,A*43
$GPRMC,164251.2,A,3314.129488,N,11724.408747,W,61.8,136.7,300610,,,A*41
$GPRMC,164254.2,A,3314.092470,N,11724.366485,W,61.2,136.8,300610,,,A*45
$GPRMC,164257.2,A,3314.054100,N,11724.325647,W,60.2,137.3,300610,,,A*4E
$GPRMC,164300.2,A,3314.018708,N,11724.284475,W,60.2,136.4,300610,,,A*44
$GPRMC,164303.2,A,3313.982547,N,11724.243863,W,59.8,136.8,300610,,,A*4F
$GPRMC,164306.2,A,3313.945381,N,11724.203038,W,60.4,137.0,300610,,,A*40
$GPRMC,164309.2,A,3313.908780,N,11724.162212,W,59.7,136.8,300610,,,A*4D
$GPRMC,164312.2,A,3313.873305,N,11724.121603,W,59.0,136.8,300610,,,A*47
$GPRMC,164315.2,A,3313.838124,N,11724.081293,W,59.2,136.8,300610,,,A*4A
$GPRMC,164318.2,A,3313.802292,N,11724.041973,W,57.9,137.2,300610,,,A*47
$GPRMC,164321.2,A,3313.768437,N,11724.003990,W,55.3,136.8,300610,,,A*4F
$GPRMC,164324.2,A,3313.734746,N,11723.966965,W,56.2,136.6,300610,,,A*4D
$GPRMC,164327.2,A,3313.697740,N,11723.927088,W,59.6,137.2,300610,,,A*41
$GPRMC,164330.2,A,3313.659814,N,11723.885123,W,62.5,137.1,300610,,,A*4A
$GPRMC,164333.2,A,3313.621309,N,11723.841798,W,64.3,136.5,300610,,,A*4A
$GPRMC,164336.2,A,3313.580991,N,11723.796356,W,66.1,136.0,300610,,,A*4A
$GPRMC,164339.2,A,3313.540511,N,11723.750728,W,66.6,136.3,300610,,,A*4E
$GPRMC,164342.2,A,3313.499038,N,11723.705717,W,66.6,137.3,300610,,,A*44
$GPRMC,164345.2,A,3313.459691,N,11723.661226,W,64.9,136.8,300610,,,A*49
$GPRMC,164348.2,A,3313.419945,N,11723.616977,W,65.1,137.5,300610,,,A*4C
$GPRMC,164351.2,A,3313.376971,N,11723.576074,W,65.5,143.5,300610,,,A*45
$GPRMC,164354.2,A,3313.329143,N,11723.542438,W,66.2,151.8,300610,,,A*42
$GPRMC,164357.2,A,3313.276670,N,11723.516554,W,66.9,160.2,300610,,,A*44
$GPRMC,164400.2,A,3313.221399,N,11723.497724,W,67.9,165.3,300610,,,A*49
$GPRMC,164403.2,A,3313.166757,N,11723.481737,W,67.4,166.0,300610,,,A*44
$GPRMC,164406.2,A,3313.111378,N,11723.465514,W,67.8,165.9,300610,,,A*47
$GPRMC,164409.2,A,3313.057414,N,11723.449221,W,67.3,165.9,300610,,,A*42
$GPRMC,164412.2,A,3313.002118,N,11723.433260,W,68.1,166.0,300610,,,A*4E
$GPRMC,164415.2,A,3312.946301,N,11723.416407,W,68.6,165.6,300610,,,A*49
$GPRMC,164418.2,A,3312.891437,N,11723.398686,W,68.8,163.5,300610,,,A*4C
$GPRMC,164421.2,A,3312.838175,N,11723.374087,W,69.0,156.6,300610,,,A*4F
$GPRMC,164424.2,A,3312.786060,N,11723.343790,W,68.7,152.7,300610,,,A*43
$GPRMC,164427.2,A,3312.735898,N,11723.311803,W,67.8,152.3,300610,,,A*41
$GPRMC,164430.2,A,3312.686706,N,11723.280817,W,66.0,152.1,300610,,,A*41
$GPRMC,164433.2,A,3312.637864,N,11723.249759,W,66.8,151.6,300610,,,A*4F
$GPRMC,164436.2,A,3312.588104,N,11723.218650,W,67.6,152.1,300610,,,A*45
$GPRMC,164439.2,A,3312.537389,N,11723.186965,W,68.7,152.3,300610,,,A*48
$GPRMC,164442.2,A,3312.487086,N,11723.155644,W,68.1,152.4,300610,,,A*41
$GPRMC,164445.2,A,3312.436982,N,11723.123652,W,67.9,152.1,300610,,,A*45
$GPRMC,164448.2,A,3312.388093,N,11723.092284,W,65.4,150.9,300610,,,A*42
$GPRMC,164451.2,A,3312.343052,N,11723.058377,W,63.7,145.5,300610,,,A*46
$GPRMC,164454.2,A,3312.302190,N,11723.018941,W,62.9,139.2,300610,,,A*41
$GPRMC,164457.2,A,3312.264813,N,11722.974609,W,62.7,133.3,300610,,,A*45
$GPRMC,164500.2,A,3312.232638,N,11722.924973,W,62.6,126.4,300610,,,A*47
$GPRMC,164503.2,A,3312.204133,N,11722.873444,W,62.1,121.2,300610,,,A*41
$GPRMC,164506.2,A,3312.181478,N,11722.818627,W,61.5,115.1,300610,,,A*49
$GPRMC,164509.2,A,3312.161987,N,11722.761516,W,61.0,111.9,300610,,,A*4C
$GPRMC,164512.2,A,3312.143396,N,11722.704256,W,61.8,111.8,300610,,,A*45
$GPRMC,164515.2,A,3312.124025,N,11722.648074,W,61.3,112.4,300610,,,A*47
$GPRMC,164518.2,A,3312.103811,N,11722.590939,W,62.8,112.5,300610,,,A*4F
$GPRMC,164521.2,A,3312.084090,N,11722.532933,W,63.4,112.3,300610,,,A*43
$GPRMC,164524.2,A,3312.064588,N,11722.474702,W,62.5,111.9,300610,,,A*42
$GPRMC,164527.2,A,3312.045210,N,11722.416128,W,63.1,112.0,300610,,,A*41
$GPRMC,164530.2,A,3312.025524,N,11722.358093,W,62.5,112.8,300610,,,A*40
$GPRMC,164533.2,A,3312.003191,N,11722.302436,W,63.1,116.4,300610,,,A*44
$GPRMC,164536.2,A,3311.973764,N,11722.250327,W,63.2,123.9,300610,,,A*49
$GPRMC,164539.2,A,3311.940734,N,11722.200924,W,63.2,129.8,300610,,,A*44
$GPRMC,164542.2,A,3311.903344,N,11722.154851,W,65.0,135.8,300610,,,A*44
$GPRMC,164545.2,A,3311.860633,N,11722.112870,W,66.7,141.9,300610,,,A*45
$GPRMC,164548.2,A,3311.814572,N,11722.075024,W,66.9,145.0,300610,,,A*47
$GPRMC,164551.2,A,3311.769458,N,11722.036871,W,66.0,145.3,300610,,,A*46
$GPRMC,164554.2,A,3311.723785,N,11721.998339,W,67.6,145.0,300610,,,A*43
$GPRMC,164557.2,A,3311.677255,N,11721.960586,W,67.2,145.4,300610,,,A*4D
$GPRMC,164600.2,A,3311.632049,N,11721.923105,W,65.8,145.4,300610,,,A*42
$GPRMC,164603.2,A,3311.585227,N,11721.885040,W,68.6,145.6,300610,,,A*48
$GPRMC,164606.2,A,3311.537781,N,11721.845624,W,69.2,145.5,300610,,,A*43
$GPRMC,164609.2,A,3311.490745,N,11721.807069,W,68.8,145.3,300610,,,A*4C
$GPRMC,164612.2,A,3311.443673,N,11721.768541,W,67.2,145.4,300610,,,A*47
$GPRMC,164615.2,A,3311.398655,N,11721.730446,W,66.0,145.0,300610,,,A*49
$GPRMC,164618.2,A,3311.354207,N,11721.692386,W,66.5,144.9,300610,,,A*48
$GPRMC,164621.2,A,3311.308642,N,11721.654981,W,65.3,145.0,300610,,,A*44
$GPRMC,164624.2,A,3311.265090,N,11721.617366,W,65.2,144.8,300610,,,A*4E
$GPRMC,164627.2,A,3311.220682,N,11721.580097,W,64.7,145.0,300610,,,A*44
$GPRMC,164630.2,A,3311.176133,N,11721.543908,W,65.0,145.3,300610,,,A*4A
$GPRMC,164633.2,A,3311.131714,N,11721.507213,W,64.9,144.9,300610,,,A*4B
$GPRMC,164636.2,A,3311.087928,N,11721.470116,W,63.7,144.9,300610,,,A*4D
$GPRMC,164639.2,A,3311.043782,N,11721.433333,W,65.1,145.2,300610,,,A*4C
$GPRMC,164642.2,A,3310.998557,N,11721.395371,W,66.1,144.8,300610,,,A*41
$GPRMC,164645.2,A,3310.952396,N,11721.357347,W,66.0,145.2,300610,,,A*4A
$GPRMC,164648.2,A,3310.906520,N,11721.321098,W,64.9,145.6,300610,,,A*42
$GPRMC,164651.2,A,3310.862515,N,11721.284004,W,65.5,145.2,300610,,,A*4D
$GPRMC,164654.2,A,3310.818303,N,11721.247723,W,63.6,145.3,300610,,,A*4D
$GPRMC,164657.2,A,3310.775096,N,11721.212317,W,61.9,145.1,300610,,,A*49
$GPRMC,164700.2,A,3310.732127,N,11721.177236,W,63.1,145.5,300610,,,A*4E
$GPRMC,164703.2,A,3310.688966,N,11721.141131,W,63.1,145.5,300610,,,A*41
$GPRMC,164706.2,A,3310.646048,N,11721.105474,W,63.2,145.4,300610,,,A*45
$GPRMC,164709.2,A,3310.601682,N,11721.070924,W,63.7,146.8,300610,,,A*48
$GPRMC,164712.2,A,3310.556709,N,11721.037239,W,63.1,147.6,300610,,,A*4C
$GPRMC,164715.2,A,3310.512918,N,11721.003385,W,62.6,147.8,300610,,,A*4C
$GPRMC,164718.2,A,3310.468896,N,11720.969654,W,63.1,147.8,300610,,,A*41
$GPRMC,164721.2,A,3310.424953,N,11720.935936,W,63.0,147.6,300610,,,A*46
$GPRMC,164724.2,A,3310.380041,N,11720.902254,W,64.5,147.6,300610,,,A*49
$GPRMC,164727.2,A,3310.334652,N,11720.868218,W,63.9,147.8,300610,,,A*41
$GPRMC,164730.2,A,3310.290309,N,11720.834730,W,62.3,147.7,300610,,,A*41
$GPRMC,164733.2,A,3310.247557,N,11720.801956,W,60.0,147.6,300610,,,A*4D
$GPRMC,164736.2,A,3310.205167,N,11720.769877,W,59.6,147.6,300610,,,A*46
$GPRMC,164739.2,A,3310.162414,N,11720.738326,W,60.6,148.7,300610,,,A*45
$GPRMC,164742.2,A,3310.118329,N,11720.707979,W,61.2,151.4,300610,,,A*4F
$GPRMC,164745.2,A,3310.072312,N,11720.681458,W,60.2,154.6,300610,,,A*4A
$GPRMC,164748.2,A,3310.025622,N,11720.657562,W,60.8,156.8,300610,,,A*46
$GPRMC,164751.2,A,3309.977298,N,11720.633581,W,62.5,156.8,300610,,,A*4D
$GPRMC,164754.2,A,3309.928598,N,11720.608857,W,63.3,156.6,300610,,,A*42
$GPRMC,164757.2,A,3309.879905,N,11720.583508,W,63.8,156.7,300610,,,A*41
$GPRMC,164800.2,A,3309.830541,N,11720.558232,W,64.2,156.9,300610,,,A*46
$GPRMC,164803.2,A,3309.781017,N,11720.533592,W,64.8,156.7,300610,,,A*42
$GPRMC,164806.2,A,3309.730279,N,11720.507742,W,66.3,156.6,300610,,,A*47
$GPRMC,164809.2,A,3309.678014,N,11720.481270,W,67.5,156.9,300610,,,A*4F
$GPRMC,164812.2,A,3309.622828,N,11720.454185,W,69.3,157.0,300610,,,A*4C
$GPRMC,164815.2,A,3309.568871,N,11720.426841,W,69.7,156.8,300610,,,A*43
$GPRMC,164818.2,A,3309.515532,N,11720.399790,W,70.0,156.8,300610,,,A*41
$GPRMC,164821.2,A,3309.461543,N,11720.372773,W,70.0,157.0,300610,,,A*4E
$GPRMC,164824.2,A,3309.410582,N,11720.346013,W,68.9,156.7,300610,,,A*40
$GPRMC,164827.2,A,3309.357786,N,11720.318728,W,68.0,157.0,300610,,,A*4A
$GPRMC,164830.2,A,3309.306671,N,11720.292360,W,66.0,156.1,300610,,,A*44
$GPRMC,164833.2,A,3309.256571,N,11720.265658,W,65.4,155.0,300610,,,A*43
$GPRMC,164836.2,A,3309.206369,N,11720.236334,W,67.8,153.7,300610,,,A*4A
$GPRMC,164839.2,A,3309.155458,N,11720.205921,W,68.3,153.7,300610,,,A*4F
$GPRMC,164842.2,A,3309.103382,N,11720.175615,W,70.0,154.4,300610,,,A*42
$GPRMC,164845.2,A,3309.050545,N,11720.145492,W,69.7,154.2,300610,,,A*48
$GPRMC,164848.2,A,3308.998737,N,11720.116071,W,69.2,154.5,300610,,,A*43
$GPRMC,164851.2,A,3308.947171,N,11720.085881,W,69.8,154.3,300610,,,A*4D
$GPRMC,164854.2,A,3308.894228,N,11720.057547,W,69.2,157.8,300610,,,A*42
$GPRMC,164857.2,A,3308.838484,N,11720.037628,W,68.7,165.8,300610,,,A*4E
$GPRMC,164900.2,A,3308.782208,N,11720.027124,W,66.4,173.6,300610,,,A*4F
$GPRMC,164903.2,A,3308.728179,N,11720.023228,W,65.4,177.0,300610,,,A*43
$GPRMC,164906.2,A,3308.673184,N,11720.020665,W,65.6,177.5,300610,,,A*42
$GPRMC,164909.2,A,3308.618683,N,11720.018512,W,65.7,177.5,300610,,,A*49
$GPRMC,164912.2,A,3308.563410,N,11720.010729,W,67.1,170.2,300610,,,A*42
$GPRMC,164915.2,A,3308.510274,N,11719.992707,W,66.7,162.6,300610,,,A*40
$GPRMC,164918.2,A,3308.461203,N,11719.965746,W,65.2,156.6,300610,,,A*46
$GPRMC,164921.2,A,3308.410180,N,11719.940036,W,66.8,157.0,300610,,,A*4B
$GPRMC,164924.2,A,3308.359166,N,11719.913629,W,66.5,156.9,300610,,,A*47
$GPRMC,164927.2,A,3308.308059,N,11719.887799,W,65.7,156.9,300610,,,A*4A
$GPRMC,164930.2,A,3308.258664,N,11719.862936,W,64.7,157.0,300610,,,A*49
$GPRMC,164933.2,A,3308.208870,N,11719.837501,W,65.6,156.7,300610,,,A*4A
$GPRMC,164936.2,A,3308.157405,N,11719.810698,W,66.6,156.6,300610,,,A*4C
$GPRMC,164939.2,A,3308.107325,N,11719.785275,W,65.6,157.0,300610,,,A*43
$GPRMC,164942.2,A,3308.056559,N,11719.759836,W,66.5,157.0,300610,,,A*4B
$GPRMC,164945.2,A,3308.004647,N,11719.732798,W,66.6,155.7,300610,,,A*47
$GPRMC,164948.2,A,3307.955740,N,11719.705349,W,64.5,154.0,300610,,,A*45
$GPRMC,164951.2,A,3307.907846,N,11719.676099,W,64.8,153.0,300610,,,A*42
$GPRMC,164954.2,A,3307.860900,N,11719.647080,W,63.3,153.1,300610,,,A*43
$GPRMC,164957.2,A,3307.813221,N,11719.618845,W,64.1,153.4,300610,,,A*47
$GPRMC,165000.2,A,3307.764851,N,11719.589633,W,65.8,153.1,300610,,,A*46
$GPRMC,165003.2,A,3307.715190,N,11719.560624,W,66.6,153.3,300610,,,A*49
$GPRMC,165006.2,A,3307.664806,N,11719.530674,W,67.7,153.2,300610,,,A*4C
$GPRMC,165009.2,A,3307.614712,N,11719.501227,W,66.7,153.5,300610,,,A*48
$GPRMC,165012.2,A,3307.564843,N,11719.471876,W,66.7,153.2,300610,,,A*42
