NMEA Sentence Code,UTC Time,Status,Latitude,Latitude Direction,Longitude,Longitude Direction,Speed (knots),Track Angle (degrees true),Date,MagneticVariation,Magnetic Variation Direction,[FAA Mode]-Optional,Checksum
$GPRMC,011107.0,A,3340.046954,N,11749.010511,W,65.5,111.8,220510,,,A*41
$GPRMC,011110.0,A,3340.027066,N,11748.950005,W,65.1,111.9,220510,,,A*41
$GPRMC,011113.0,A,3340.007045,N,11748.890279,W,64.2,111.7,220510,,,A*49
$GPRMC,011116.0,A,3339.987286,N,11748.830950,W,64.0,111.3,220510,,,A*42
$GPRMC,011119.0,A,3339.968721,N,11748.771179,W,63.8,109.5,220510,,,A*4D
$GPRMC,011122.0,A,3339.951627,N,11748.710598,W,64.1,107.3,220510,,,A*42
$GPRMC,011125.0,A,3339.936715,N,11748.648744,W,64.4,105.0,220510,,,A*4F
$GPRMC,011128.0,A,3339.924525,N,11748.586634,W,64.2,102.3,220510,,,A*45
$GPRMC,011131.0,A,3339.914187,N,11748.523785,W,64.2,100.2,220510,,,A*45
$GPRMC,011134.0,A,3339.905049,N,11748.460961,W,63.6,99.8,220510,,,A*79
$GPRMC,011137.0,A,3339.896148,N,11748.398419,W,63.4,99.4,220510,,,A*7D
$GPRMC,011140.0,A,3339.887482,N,11748.336153,W,63.3,99.3,220510,,,A*71
$GPRMC,011143.0,A,3339.878619,N,11748.274269,W,62.8,99.6,220510,,,A*70
$GPRMC,011146.0,A,3339.869921,N,11748.212300,W,63.1,99.5,220510,,,A*74
$GPRMC,011149.0,A,3339.861175,N,11748.150201,W,63.0,99.6,220510,,,A*7D
$GPRMC,011152.0,A,3339.852460,N,11748.088176,W,62.8,99.7,220510,,,A*79
$GPRMC,011155.0,A,3339.843701,N,11748.026172,W,62.9,99.4,220510,,,A*78
$GPRMC,011158.0,A,3339.835111,N,11747.964374,W,62.5,99.6,220510,,,A*79
$GPRMC,011201.0,A,3339.826497,N,11747.902998,W,62.4,99.4,220510,,,A*74
$GPRMC,011204.0,A,3339.817806,N,11747.841522,W,62.4,99.6,220510,,,A*7E
$GPRMC,011207.0,A,3339.809254,N,11747.780664,W,61.3,99.4,220510,,,A*7A
$GPRMC,011210.0,A,3339.800770,N,11747.720350,W,61.1,99.5,220510,,,A*7D
$GPRMC,011213.0,A,3339.792477,N,11747.660598,W,59.8,99.6,220510,,,A*78
$GPRMC,011216.0,A,3339.784212,N,11747.603608,W,56.5,99.5,220510,,,A*71
$GPRMC,011219.0,A,3339.776431,N,11747.548936,W,55.1,99.5,220510,,,A*7D
$GPRMC,011222.0,A,3339.768719,N,11747.494687,W,54.7,99.5,220510,,,A*71
$GPRMC,011225.0,A,3339.761211,N,11747.440438,W,55.8,99.5,220510,,,A*73
$GPRMC,011228.0,A,3339.753345,N,11747.384614,W,57.1,99.5,220510,,,A*77
$GPRMC,011231.0,A,3339.745276,N,11747.329374,W,55.2,100.5,220510,,,A*4D
$GPRMC,011234.0,A,3339.735746,N,11747.275960,W,54.1,103.8,220510,,,A*42
$GPRMC,011237.0,A,3339.723545,N,11747.223501,W,54.5,107.0,220510,,,A*47
$GPRMC,011240.0,A,3339.709345,N,11747.172173,W,53.8,109.7,220510,,,A*4C
$GPRMC,011243.0,A,3339.692779,N,11747.122043,W,54.0,113.2,220510,,,A*41
$GPRMC,011246.0,A,3339.673696,N,11747.072606,W,54.9,116.5,220510,,,A*43
$GPRMC,011249.0,A,3339.651837,N,11747.023829,W,55.5,119.5,220510,,,A*4C
$GPRMC,011252.0,A,3339.627529,N,11746.976354,W,55.8,122.9,220510,,,A*45
$GPRMC,011255.0,A,3339.601108,N,11746.929608,W,56.8,124.1,220510,,,A*4A
$GPRMC,011258.0,A,3339.573770,N,11746.882651,W,57.9,124.5,220510,,,A*40
$GPRMC,011301.0,A,3339.545828,N,11746.834300,W,58.9,124.5,220510,,,A*49
$GPRMC,011304.0,A,3339.517491,N,11746.785286,W,59.6,124.4,220510,,,A*40
$GPRMC,011307.0,A,3339.488893,N,11746.735674,W,60.7,124.3,220510,,,A*44
$GPRMC,011310.0,A,3339.459804,N,11746.685217,W,61.9,124.4,220510,,,A*43
$GPRMC,011313.0,A,3339.430361,N,11746.633794,W,62.0,124.2,220510,,,A*48
$GPRMC,011316.0,A,3339.400772,N,11746.582687,W,61.7,124.2,220510,,,A*46
$GPRMC,011319.0,A,3339.371711,N,11746.531908,W,61.4,124.3,220510,,,A*4F
$GPRMC,011322.0,A,3339.342595,N,11746.481476,W,61.3,124.5,220510,,,A*46
$GPRMC,011325.0,A,3339.313449,N,11746.430792,W,61.6,124.5,220510,,,A*43
$GPRMC,011328.0,A,3339.284144,N,11746.380093,W,61.6,124.4,220510,,,A*42
$GPRMC,011331.0,A,3339.255438,N,11746.329073,W,61.7,122.5,220510,,,A*43
$GPRMC,011334.0,A,3339.229148,N,11746.275663,W,62.2,118.5,220510,,,A*4F
$GPRMC,011337.0,A,3339.205538,N,11746.220031,W,62.5,115.2,220510,,,A*4D
$GPRMC,011340.0,A,3339.184841,N,11746.162332,W,63.0,111.5,220510,,,A*46
$GPRMC,011343.0,A,3339.167171,N,11746.102892,W,63.3,108.2,220510,,,A*49
$GPRMC,011346.0,A,3339.152473,N,11746.042100,W,63.7,104.1,220510,,,A*41
$GPRMC,011349.0,A,3339.141173,N,11745.979713,W,64.2,101.1,220510,,,A*48
$GPRMC,011352.0,A,3339.131753,N,11745.916291,W,64.9,99.7,220510,,,A*7A
$GPRMC,011355.0,A,3339.122397,N,11745.852255,W,65.1,99.8,220510,,,A*7C
$GPRMC,011358.0,A,3339.112889,N,11745.787721,W,65.5,99.8,220510,,,A*73
$GPRMC,011401.0,A,3339.103542,N,11745.724012,W,64.3,100.0,220510,,,A*42
$GPRMC,011404.0,A,3339.094274,N,11745.661052,W,63.7,99.7,220510,,,A*7B
$GPRMC,011407.0,A,3339.084977,N,11745.598057,W,64.4,100.1,220510,,,A*42
$GPRMC,011410.0,A,3339.075349,N,11745.534730,W,64.0,100.8,220510,,,A*40
$GPRMC,011413.0,A,3339.063460,N,11745.471810,W,64.5,104.6,220510,,,A*4A
$GPRMC,011416.0,A,3339.048166,N,11745.410193,W,64.1,108.2,220510,,,A*4C
$GPRMC,011419.0,A,3339.030889,N,11745.349854,W,63.5,109.1,220510,,,A*4C
$GPRMC,011422.0,A,3339.013611,N,11745.289806,W,63.2,109.1,220510,,,A*47
$GPRMC,011425.0,A,3338.996449,N,11745.230457,W,63.1,109.0,220510,,,A*42
$GPRMC,011428.0,A,3338.979287,N,11745.171465,W,62.5,109.2,220510,,,A*4A
$GPRMC,011431.0,A,3338.962397,N,11745.113011,W,62.1,108.9,220510,,,A*45
$GPRMC,011434.0,A,3338.945683,N,11745.054256,W,61.9,108.7,220510,,,A*43
$GPRMC,011437.0,A,3338.928918,N,11744.995661,W,61.6,108.7,220510,,,A*4C
$GPRMC,011440.0,A,3338.912332,N,11744.937504,W,61.5,109.0,220510,,,A*4A
$GPRMC,011443.0,A,3338.896000,N,11744.879282,W,61.8,108.2,220510,,,A*4A
$GPRMC,011446.0,A,3338.879552,N,11744.820863,W,61.7,108.6,220510,,,A*4E
$GPRMC,011449.0,A,3338.862566,N,11744.762545,W,61.9,109.4,220510,,,A*41
$GPRMC,011452.0,A,3338.845424,N,11744.704293,W,61.7,109.0,220510,,,A*4F
$GPRMC,011455.0,A,3338.828511,N,11744.646262,W,61.5,109.2,220510,,,A*4D
$GPRMC,011458.0,A,3338.811601,N,11744.588215,W,61.6,109.3,220510,,,A*4B
$GPRMC,011501.0,A,3338.794564,N,11744.530134,W,61.4,109.3,220510,,,A*45
$GPRMC,011504.0,A,3338.777687,N,11744.472248,W,61.1,109.1,220510,,,A*4B
$GPRMC,011507.0,A,3338.760839,N,11744.414589,W,61.1,109.3,220510,,,A*4D
$GPRMC,011510.0,A,3338.744087,N,11744.356870,W,61.2,109.2,220510,,,A*48
$GPRMC,011513.0,A,3338.727247,N,11744.299271,W,60.0,109.8,220510,,,A*40
$GPRMC,011516.0,A,3338.710233,N,11744.247908,W,51.8,113.3,220510,,,A*4E
$GPRMC,011519.0,A,3338.691889,N,11744.204099,W,47.9,119.1,220510,,,A*4A
$GPRMC,011522.0,A,3338.671921,N,11744.165586,W,44.4,123.2,220510,,,A*44
$GPRMC,011525.0,A,3338.650857,N,11744.131287,W,41.4,127.3,220510,,,A*47
$GPRMC,011528.0,A,3338.630172,N,11744.101600,W,35.5,132.0,220510,,,A*4F
$GPRMC,011531.0,A,3338.615092,N,11744.082424,W,20.9,133.2,220510,,,A*4A
$GPRMC,011534.0,A,3338.605107,N,11744.070852,W,15.7,135.6,220510,,,A*49
$GPRMC,011537.0,A,3338.595959,N,11744.060864,W,14.6,137.2,220510,,,A*41
$GPRMC,011540.0,A,3338.589619,N,11744.054427,W,6.5,140.2,220510,,,A*7B
$GPRMC,011549.0,A,3338.583796,N,11744.048548,W,5.9,137.5,220510,,,A*73
$GPRMC,011552.0,A,3338.578983,N,11744.043710,W,8.8,139.0,220510,,,A*74
$GPRMC,011555.0,A,3338.571899,N,11744.036714,W,12.7,140.6,220510,,,A*4A
$GPRMC,011558.0,A,3338.563226,N,11744.028255,W,13.9,142.3,220510,,,A*4D
$GPRMC,011602.0,A,3338.550872,N,11744.017010,W,14.5,144.6,220510,,,A*4D
$GPRMC,011605.0,A,3338.542008,N,11744.009959,W,12.6,146.3,220510,,,A*45
$GPRMC,011608.0,A,3338.533255,N,11744.002929,W,12.4,146.2,220510,,,A*4B
$GPRMC,011611.0,A,3338.525840,N,11743.997211,W,9.7,148.6,220510,,,A*7B
$GPRMC,011614.0,A,3338.520134,N,11743.993031,W,8.2,146.0,220510,,,A*79
$GPRMC,011617.0,A,3338.514021,N,11743.988193,W,8.7,147.3,220510,,,A*7C
$GPRMC,011620.0,A,3338.508834,N,11743.984160,W,7.1,147.8,220510,,,A*7B
$GPRMC,011623.0,A,3338.503000,N,11743.979161,W,10.0,139.2,220510,,,A*4B
$GPRMC,011626.0,A,3338.497337,N,11743.973538,W,8.0,144.2,220510,,,A*74
$GPRMC,011629.0,A,3338.491976,N,11743.969475,W,8.4,145.0,220510,,,A*76
$GPRMC,011632.0,A,3338.486017,N,11743.965125,W,8.1,147.4,220510,,,A*7B
$GPRMC,011635.0,A,3338.480130,N,11743.960900,W,8.1,147.0,220510,,,A*70
$GPRMC,011638.0,A,3338.474216,N,11743.956505,W,8.0,146.1,220510,,,A*7C
$GPRMC,011641.0,A,3338.468477,N,11743.952250,W,8.1,146.6,220510,,,A*7B
$GPRMC,011644.0,A,3338.462684,N,11743.947870,W,7.9,147.3,220510,,,A*75
$GPRMC,011647.0,A,3338.457690,N,11743.944490,W,6.3,148.3,220510,,,A*70
$GPRMC,011650.0,A,3338.452993,N,11743.941246,W,6.8,149.0,220510,,,A*7E
$GPRMC,011653.0,A,3338.447855,N,11743.937676,W,8.1,146.7,220510,,,A*7B
$GPRMC,011656.0,A,3338.441710,N,11743.933149,W,8.8,147.6,220510,,,A*70
$GPRMC,011659.0,A,3338.435476,N,11743.928518,W,8.6,147.3,220510,,,A*7E
$GPRMC,011702.0,A,3338.429253,N,11743.923820,W,9.9,146.4,220510,,,A*78
$GPRMC,011705.0,A,3338.422307,N,11743.918595,W,9.9,147.0,220510,,,A*7A
$GPRMC,011708.0,A,3338.415488,N,11743.913420,W,9.4,147.0,220510,,,A*7A
$GPRMC,011711.0,A,3338.408809,N,11743.908175,W,9.3,144.8,220510,,,A*78
$GPRMC,011714.0,A,3338.400971,N,11743.902406,W,11.3,147.1,220510,,,A*43
$GPRMC,011717.0,A,3338.392819,N,11743.896125,W,11.4,147.4,220510,,,A*49
$GPRMC,011720.0,A,3338.385582,N,11743.890442,W,10.3,146.1,220510,,,A*44
$GPRMC,011723.0,A,3338.377802,N,11743.884221,W,11.9,145.5,220510,,,A*45
$GPRMC,011726.0,A,3338.368885,N,11743.877004,W,13.6,145.3,220510,,,A*43
$GPRMC,011729.0,A,3338.359048,N,11743.869073,W,14.6,146.4,220510,,,A*4B
$GPRMC,011732.0,A,3338.347730,N,11743.860192,W,16.5,146.5,220510,,,A*41
$GPRMC,011735.0,A,3338.335934,N,11743.850666,W,17.1,145.6,220510,,,A*43
$GPRMC,011738.0,A,3338.325137,N,11743.841388,W,15.9,146.0,220510,,,A*4E
$GPRMC,011741.0,A,3338.314115,N,11743.832320,W,16.8,146.5,220510,,,A*43
$GPRMC,011744.0,A,3338.301754,N,11743.823258,W,16.1,146.1,220510,,,A*42
$GPRMC,011747.0,A,3338.290727,N,11743.814783,W,15.6,146.1,220510,,,A*4F
$GPRMC,011750.0,A,3338.279799,N,11743.806365,W,14.0,146.3,220510,,,A*41
$GPRMC,011753.0,A,3338.271622,N,11743.800229,W,8.5,147.0,220510,,,A*7E
$GPRMC,011756.0,A,3338.266557,N,11743.796306,W,6.5,146.2,220510,,,A*7D
$GPRMC,011759.0,A,3338.262315,N,11743.792756,W,6.6,144.7,220510,,,A*77
$GPRMC,011802.0,A,3338.256524,N,11743.788345,W,9.4,145.3,220510,,,A*70
$GPRMC,011805.0,A,3338.249179,N,11743.782401,W,11.4,146.3,220510,,,A*42
$GPRMC,011808.0,A,3338.241014,N,11743.775873,W,11.9,146.0,220510,,,A*42
$GPRMC,011811.0,A,3338.232784,N,11743.769094,W,10.9,146.0,220510,,,A*4D
$GPRMC,011814.0,A,3338.226558,N,11743.763974,W,7.8,145.9,220510,,,A*7E
$GPRMC,011817.0,A,3338.221270,N,11743.759372,W,8.6,145.2,220510,,,A*78
$GPRMC,011820.0,A,3338.215461,N,11743.754610,W,7.7,145.6,220510,,,A*7B
$GPRMC,011823.0,A,3338.210281,N,11743.750395,W,7.6,145.0,220510,,,A*7E
$GPRMC,011826.0,A,3338.204432,N,11743.745718,W,8.8,147.2,220510,,,A*74
$GPRMC,011829.0,A,3338.198651,N,11743.741122,W,7.6,145.9,220510,,,A*79
$GPRMC,011832.0,A,3338.193979,N,11743.737491,W,6.3,145.9,220510,,,A*75
$GPRMC,011835.0,A,3338.189667,N,11743.733945,W,6.4,146.0,220510,,,A*74
$GPRMC,011838.0,A,3338.184542,N,11743.729937,W,8.1,146.3,220510,,,A*76
$GPRMC,011841.0,A,3338.177413,N,11743.724194,W,11.8,145.5,220510,,,A*49
$GPRMC,011844.0,A,3338.169110,N,11743.717369,W,12.0,145.2,220510,,,A*49
$GPRMC,011847.0,A,3338.160993,N,11743.710665,W,11.8,145.6,220510,,,A*41
$GPRMC,011850.0,A,3338.152977,N,11743.704112,W,11.5,146.4,220510,,,A*42
$GPRMC,011853.0,A,3338.145549,N,11743.698042,W,10.2,146.3,220510,,,A*47
$GPRMC,011856.0,A,3338.138048,N,11743.692248,W,11.3,146.3,220510,,,A*4E
$GPRMC,011859.0,A,3338.129051,N,11743.685112,W,14.4,145.3,220510,,,A*42
$GPRMC,011902.0,A,3338.118173,N,11743.676291,W,16.6,145.9,220510,,,A*40
$GPRMC,011905.0,A,3338.106651,N,11743.666982,W,16.5,145.5,220510,,,A*48
$GPRMC,011908.0,A,3338.095247,N,11743.657703,W,16.3,146.1,220510,,,A*49
$GPRMC,011911.0,A,3338.083688,N,11743.648243,W,17.5,146.3,220510,,,A*4B
$GPRMC,011914.0,A,3338.071417,N,11743.638492,W,17.9,146.0,220510,,,A*45
$GPRMC,011917.0,A,3338.058977,N,11743.628353,W,18.2,146.6,220510,,,A*4F
$GPRMC,011920.0,A,3338.045471,N,11743.616691,W,21.5,142.4,220510,,,A*41
$GPRMC,011923.0,A,3338.030087,N,11743.602398,W,24.2,141.7,220510,,,A*46
$GPRMC,011926.0,A,3338.013363,N,11743.586576,W,24.9,141.6,220510,,,A*48
$GPRMC,011929.0,A,3337.997893,N,11743.571353,W,23.0,140.4,220510,,,A*4D
$GPRMC,011932.0,A,3337.984664,N,11743.557910,W,19.0,140.1,220510,,,A*46
$GPRMC,011935.0,A,3337.973034,N,11743.545750,W,17.5,137.9,220510,,,A*40
$GPRMC,011938.0,A,3337.962606,N,11743.534519,W,15.8,137.3,220510,,,A*46
$GPRMC,011941.0,A,3337.953767,N,11743.524436,W,12.3,138.8,220510,,,A*49
$GPRMC,011950.0,A,3337.946915,N,11743.516460,W,9.4,133.9,220510,,,A*73
$GPRMC,011953.0,A,3337.940956,N,11743.509334,W,8.4,135.1,220510,,,A*76
$GPRMC,011956.0,A,3337.937325,N,11743.505250,W,4.6,135.0,220510,,,A*7D
$GPRMC,011959.0,A,3337.934292,N,11743.501498,W,6.4,134.1,220510,,,A*7A
$GPRMC,012002.0,A,3337.928750,N,11743.495066,W,11.5,135.1,220510,,,A*47
$GPRMC,012005.0,A,3337.921126,N,11743.486139,W,12.5,135.6,220510,,,A*43
$GPRMC,012008.0,A,3337.913886,N,11743.477710,W,12.0,134.7,220510,,,A*4A
$GPRMC,012011.0,A,3337.907089,N,11743.469186,W,11.2,135.0,220510,,,A*41
$GPRMC,012014.0,A,3337.901225,N,11743.462251,W,8.9,135.3,220510,,,A*74
$GPRMC,012017.0,A,3337.895339,N,11743.455592,W,10.9,135.2,220510,,,A*43
$GPRMC,012020.0,A,3337.888029,N,11743.447128,W,13.2,135.3,220510,,,A*46
$GPRMC,012023.0,A,3337.879288,N,11743.436798,W,15.9,134.8,220510,,,A*4E
$GPRMC,012026.0,A,3337.868752,N,11743.424427,W,19.0,135.3,220510,,,A*42
$GPRMC,012029.0,A,3337.857064,N,11743.410647,W,19.0,135.3,220510,,,A*40
$GPRMC,012032.0,A,3337.845945,N,11743.397697,W,17.8,135.4,220510,,,A*47
$GPRMC,012035.0,A,3337.836966,N,11743.387120,W,11.6,135.4,220510,,,A*47
$GPRMC,012038.0,A,3337.832153,N,11743.381850,W,4.9,135.0,220510,,,A*77
$GPRMC,012050.0,A,3337.825102,N,11743.373763,W,7.0,134.5,220510,,,A*77
$GPRMC,012053.0,A,3337.820508,N,11743.368387,W,7.6,135.2,220510,,,A*7B
$GPRMC,012056.0,A,3337.815431,N,11743.362694,W,9.0,136.2,220510,,,A*75
$GPRMC,012059.0,A,3337.810407,N,11743.356619,W,8.4,135.7,220510,,,A*7B
$GPRMC,012102.0,A,3337.805212,N,11743.350589,W,8.6,135.8,220510,,,A*73
$GPRMC,012105.0,A,3337.799172,N,11743.343709,W,11.9,136.3,220510,,,A*4C
$GPRMC,012108.0,A,3337.790531,N,11743.333977,W,15.9,137.0,220510,,,A*4D
$GPRMC,012111.0,A,3337.781001,N,11743.323472,W,15.1,138.4,220510,,,A*49
$GPRMC,012114.0,A,3337.771700,N,11743.313559,W,14.7,138.9,220510,,,A*44
$GPRMC,012117.0,A,3337.762006,N,11743.303662,W,15.5,140.4,220510,,,A*4F
$GPRMC,012120.0,A,3337.752272,N,11743.294031,W,15.2,141.5,220510,,,A*41
$GPRMC,012123.0,A,3337.741741,N,11743.283782,W,17.3,141.4,220510,,,A*4E
$GPRMC,012126.0,A,3337.729779,N,11743.272546,W,18.6,142.0,220510,,,A*47
$GPRMC,012129.0,A,3337.717121,N,11743.260698,W,19.6,141.7,220510,,,A*48
$GPRMC,012132.0,A,3337.703563,N,11743.248381,W,20.3,142.7,220510,,,A*4E
$GPRMC,012135.0,A,3337.690441,N,11743.236679,W,19.3,142.3,220510,,,A*46
$GPRMC,012138.0,A,3337.677625,N,11743.224443,W,19.2,141.9,220510,,,A*42
$GPRMC,012141.0,A,3337.664778,N,11743.212327,W,19.1,142.4,220510,,,A*4A
$GPRMC,012144.0,A,3337.651750,N,11743.200363,W,20.2,142.4,220510,,,A*49
$GPRMC,012147.0,A,3337.638327,N,11743.188323,W,19.0,142.5,220510,,,A*4F
$GPRMC,012150.0,A,3337.626921,N,11743.177988,W,16.2,142.4,220510,,,A*4D
$GPRMC,012153.0,A,3337.615872,N,11743.167865,W,17.7,142.1,220510,,,A*4B
$GPRMC,012156.0,A,3337.603817,N,11743.156690,W,18.4,142.2,220510,,,A*43
$GPRMC,012159.0,A,3337.590869,N,11743.144887,W,20.2,141.7,220510,,,A*4C
$GPRMC,012202.0,A,3337.577389,N,11743.132173,W,21.0,142.3,220510,,,A*4A
$GPRMC,012205.0,A,3337.562261,N,11743.118368,W,23.7,142.5,220510,,,A*4D
$GPRMC,012208.0,A,3337.545642,N,11743.103079,W,26.0,142.0,220510,,,A*4E
$GPRMC,012211.0,A,3337.527756,N,11743.086227,W,28.1,141.5,220510,,,A*4A
$GPRMC,012214.0,A,3337.508558,N,11743.068419,W,29.2,142.2,220510,,,A*43
$GPRMC,012217.0,A,3337.490272,N,11743.051576,W,25.9,142.3,220510,,,A*4B
$GPRMC,012220.0,A,3337.474862,N,11743.037293,W,21.3,142.3,220510,,,A*4C
$GPRMC,012223.0,A,3337.462393,N,11743.026013,W,15.5,142.9,220510,,,A*4C
$GPRMC,012226.0,A,3337.454117,N,11743.018479,W,11.1,142.3,220510,,,A*4D
$GPRMC,012229.0,A,3337.446191,N,11743.011418,W,12.8,142.7,220510,,,A*4F
$GPRMC,012232.0,A,3337.435524,N,11743.001611,W,20.1,141.9,220510,,,A*44
$GPRMC,012235.0,A,3337.420618,N,11742.987982,W,23.6,142.4,220510,,,A*42
$GPRMC,012238.0,A,3337.404263,N,11742.972830,W,25.4,142.3,220510,,,A*40
$GPRMC,012241.0,A,3337.386993,N,11742.957018,W,26.6,142.4,220510,,,A*44
$GPRMC,012244.0,A,3337.368828,N,11742.940714,W,26.7,142.4,220510,,,A*4C
$GPRMC,012247.0,A,3337.350756,N,11742.924002,W,29.0,142.1,220510,,,A*4D
$GPRMC,012250.0,A,3337.331577,N,11742.906490,W,28.5,142.4,220510,,,A*43
$GPRMC,012253.0,A,3337.312753,N,11742.889115,W,28.4,142.3,220510,,,A*4D
$GPRMC,012256.0,A,3337.294573,N,11742.872383,W,26.4,142.3,220510,,,A*40
$GPRMC,012259.0,A,3337.277511,N,11742.856501,W,25.8,142.4,220510,,,A*44
$GPRMC,012302.0,A,3337.260747,N,11742.841157,W,24.1,142.4,220510,,,A*45
$GPRMC,012305.0,A,3337.245657,N,11742.827085,W,21.7,142.2,220510,,,A*4E
$GPRMC,012308.0,A,3337.232191,N,11742.814527,W,19.1,142.3,220510,,,A*4F
$GPRMC,012311.0,A,3337.221391,N,11742.804731,W,12.7,143.1,220510,,,A*4D
$GPRMC,012314.0,A,3337.215095,N,11742.799018,W,6.7,142.2,220510,,,A*78
$GPRMC,012317.0,A,3337.210734,N,11742.794899,W,8.6,140.6,220510,,,A*77
$GPRMC,012320.0,A,3337.203480,N,11742.787989,W,12.1,141.4,220510,,,A*40
$GPRMC,012323.0,A,3337.195481,N,11742.780777,W,12.2,142.2,220510,,,A*40
$GPRMC,012326.0,A,3337.187087,N,11742.772931,W,13.3,141.9,220510,,,A*4D
$GPRMC,012329.0,A,3337.177693,N,11742.764311,W,14.6,142.6,220510,,,A*4F
$GPRMC,012332.0,A,3337.167687,N,11742.755148,W,15.6,142.5,220510,,,A*4F
$GPRMC,012335.0,A,3337.156173,N,11742.744527,W,19.3,141.6,220510,,,A*42
$GPRMC,012338.0,A,3337.141619,N,11742.730822,W,23.1,142.4,220510,,,A*43
$GPRMC,012341.0,A,3337.125626,N,11742.716092,W,24.6,142.4,220510,,,A*44
$GPRMC,012344.0,A,3337.108235,N,11742.700351,W,27.1,142.2,220510,,,A*41
$GPRMC,012347.0,A,3337.089187,N,11742.682895,W,30.1,142.4,220510,,,A*48
$GPRMC,012350.0,A,3337.068814,N,11742.664347,W,31.0,142.4,220510,,,A*4E
$GPRMC,012353.0,A,3337.048472,N,11742.645478,W,29.8,142.4,220510,,,A*4A
$GPRMC,012356.0,A,3337.029861,N,11742.628344,W,26.3,142.3,220510,,,A*46
$GPRMC,012359.0,A,3337.013441,N,11742.613296,W,23.0,142.4,220510,,,A*49
$GPRMC,012402.0,A,3336.998688,N,11742.599602,W,21.6,141.4,220510,,,A*43
$GPRMC,012405.0,A,3336.985391,N,11742.586657,W,19.6,140.5,220510,,,A*40
$GPRMC,012408.0,A,3336.972459,N,11742.573591,W,21.1,138.8,220510,,,A*4B
$GPRMC,012411.0,A,3336.959172,N,11742.559354,W,20.6,136.9,220510,,,A*48
$GPRMC,012414.0,A,3336.947142,N,11742.546072,W,19.2,136.4,220510,,,A*4B
$GPRMC,012417.0,A,3336.934458,N,11742.531467,W,22.9,135.5,220510,,,A*43
$GPRMC,012420.0,A,3336.919776,N,11742.514081,W,25.6,135.5,220510,,,A*44
$GPRMC,012423.0,A,3336.904930,N,11742.496535,W,24.2,135.7,220510,,,A*41
$GPRMC,012426.0,A,3336.890800,N,11742.480401,W,22.1,135.6,220510,,,A*4F
$GPRMC,012429.0,A,3336.878343,N,11742.465751,W,20.2,135.4,220510,,,A*44
$GPRMC,012432.0,A,3336.865826,N,11742.450639,W,23.3,136.0,220510,,,A*46
$GPRMC,012435.0,A,3336.850374,N,11742.432836,W,28.1,135.7,220510,,,A*43
$GPRMC,012438.0,A,3336.832586,N,11742.411784,W,31.1,135.5,220510,,,A*4C
$GPRMC,012441.0,A,3336.813191,N,11742.388836,W,33.8,135.4,220510,,,A*48
$GPRMC,012444.0,A,3336.792677,N,11742.364736,W,34.5,135.7,220510,,,A*40
$GPRMC,012447.0,A,3336.771321,N,11742.339882,W,36.9,135.7,220510,,,A*4E
$GPRMC,012450.0,A,3336.748174,N,11742.312654,W,40.0,135.4,220510,,,A*47
$GPRMC,012453.0,A,3336.723657,N,11742.283737,W,41.8,135.6,220510,,,A*49
$GPRMC,012456.0,A,3336.698659,N,11742.254115,W,42.1,135.1,220510,,,A*42
$GPRMC,012459.0,A,3336.673841,N,11742.223699,W,43.3,133.5,220510,,,A*4D
$GPRMC,012502.0,A,3336.648997,N,11742.190602,W,45.1,130.6,220510,,,A*4D
$GPRMC,012505.0,A,3336.625586,N,11742.155966,W,44.1,127.8,220510,,,A*40
$GPRMC,012508.0,A,3336.604149,N,11742.121190,W,42.2,125.4,220510,,,A*40
$GPRMC,012511.0,A,3336.585250,N,11742.087630,W,38.2,122.8,220510,,,A*4F
$GPRMC,012514.0,A,3336.571352,N,11742.060654,W,25.8,120.9,220510,,,A*4C
$GPRMC,012517.0,A,3336.563212,N,11742.043706,W,15.0,119.6,220510,,,A*40
$GPRMC,012520.0,A,3336.557637,N,11742.032350,W,12.8,119.8,220510,,,A*40
$GPRMC,012523.0,A,3336.552769,N,11742.021789,W,11.7,118.4,220510,,,A*4F
$GPRMC,012526.0,A,3336.547956,N,11742.011353,W,13.7,118.1,220510,,,A*4B
$GPRMC,012529.0,A,3336.541278,N,11741.995899,W,20.9,116.8,220510,,,A*47
$GPRMC,012532.0,A,3336.532791,N,11741.975812,W,23.8,116.9,220510,,,A*45
$GPRMC,012535.0,A,3336.523686,N,11741.954775,W,22.6,117.3,220510,,,A*4C
$GPRMC,012538.0,A,3336.515400,N,11741.935348,W,21.8,117.4,220510,,,A*4F
$GPRMC,012541.0,A,3336.507401,N,11741.916715,W,20.6,117.7,220510,,,A*42
$GPRMC,012544.0,A,3336.499312,N,11741.897574,W,22.5,116.9,220510,,,A*47
$GPRMC,012547.0,A,3336.490124,N,11741.876391,W,25.1,117.3,220510,,,A*40
$GPRMC,012550.0,A,3336.480241,N,11741.853343,W,26.6,117.0,220510,,,A*48
$GPRMC,012553.0,A,3336.469678,N,11741.827805,W,29.0,116.5,220510,,,A*45
$GPRMC,012556.0,A,3336.458460,N,11741.801326,W,31.1,116.7,220510,,,A*4D
$GPRMC,012559.0,A,3336.446224,N,11741.772630,W,33.0,117.0,220510,,,A*47
$GPRMC,012602.0,A,3336.433500,N,11741.742581,W,34.4,117.2,220510,,,A*42
$GPRMC,012605.0,A,3336.420354,N,11741.711601,W,34.8,117.7,220510,,,A*44
$GPRMC,012608.0,A,3336.406532,N,11741.680436,W,35.7,118.4,220510,,,A*46
$GPRMC,012611.0,A,3336.391799,N,11741.648496,W,36.7,119.4,220510,,,A*48
$GPRMC,012614.0,A,3336.376588,N,11741.617164,W,35.6,120.7,220510,,,A*4F
$GPRMC,012617.0,A,3336.361222,N,11741.587356,W,33.8,122.1,220510,,,A*48
$GPRMC,012620.0,A,3336.346869,N,11741.560254,W,31.0,122.8,220510,,,A*45
$GPRMC,012623.0,A,3336.333300,N,11741.535712,W,28.0,124.2,220510,,,A*43
$GPRMC,012626.0,A,3336.320840,N,11741.513906,W,25.6,125.5,220510,,,A*49
$GPRMC,012629.0,A,3336.308463,N,11741.493347,W,25.2,126.0,220510,,,A*45
$GPRMC,012632.0,A,3336.296386,N,11741.473557,W,24.0,126.6,220510,,,A*49
$GPRMC,012635.0,A,3336.284638,N,11741.455150,W,23.1,127.9,220510,,,A*42
$GPRMC,012638.0,A,3336.272596,N,11741.436829,W,23.6,128.0,220510,,,A*42
$GPRMC,012641.0,A,3336.260430,N,11741.418805,W,23.1,129.3,220510,,,A*45
$GPRMC,012644.0,A,3336.249678,N,11741.402827,W,20.0,129.5,220510,,,A*4A
$GPRMC,012647.0,A,3336.239972,N,11741.388393,W,17.5,129.6,220510,,,A*48
$GPRMC,012650.0,A,3336.231485,N,11741.375956,W,14.9,127.8,220510,,,A*4D
$GPRMC,012653.0,A,3336.226923,N,11741.369112,W,4.8,129.8,220510,,,A*72
$GPRMC,012659.0,A,3336.222111,N,11741.362891,W,9.7,128.6,220510,,,A*71
$GPRMC,012702.0,A,3336.215359,N,11741.352430,W,16.7,127.9,220510,,,A*4E
$GPRMC,012705.0,A,3336.204923,N,11741.336518,W,21.6,127.4,220510,,,A*4F
$GPRMC,012708.0,A,3336.193465,N,11741.318197,W,23.4,126.1,220510,,,A*4B
$GPRMC,012711.0,A,3336.183012,N,11741.300871,W,20.1,125.0,220510,,,A*4A
$GPRMC,012714.0,A,3336.174082,N,11741.285261,W,18.2,123.4,220510,,,A*43
$GPRMC,012717.0,A,3336.166448,N,11741.271300,W,15.2,122.8,220510,,,A*4C
$GPRMC,012720.0,A,3336.160252,N,11741.259934,W,12.2,122.2,220510,,,A*49
$GPRMC,012723.0,A,3336.155004,N,11741.250746,W,10.4,121.2,220510,,,A*48
$GPRMC,012726.0,A,3336.150543,N,11741.242724,W,9.1,122.3,220510,,,A*76
$GPRMC,012729.0,A,3336.146875,N,11741.235618,W,8.4,119.6,220510,,,A*71
$GPRMC,012732.0,A,3336.142693,N,11741.227300,W,10.6,119.6,220510,,,A*4D
$GPRMC,012735.0,A,3336.138614,N,11741.218479,W,9.3,119.0,220510,,,A*76
$GPRMC,012744.0,A,3336.134430,N,11741.209266,W,4.9,117.5,220510,,,A*7C
$GPRMC,012747.0,A,3336.131367,N,11741.202471,W,8.6,117.2,220510,,,A*70
$GPRMC,012750.0,A,3336.128387,N,11741.195445,W,7.5,117.1,220510,,,A*75
$GPRMC,012753.0,A,3336.125870,N,11741.189149,W,6.9,115.9,220510,,,A*7B
$GPRMC,012756.0,A,3336.122938,N,11741.181806,W,9.3,116.0,220510,,,A*71
$GPRMC,012759.0,A,3336.119471,N,11741.172925,W,9.9,115.0,220510,,,A*73
$GPRMC,012802.0,A,3336.116182,N,11741.164949,W,8.1,114.5,220510,,,A*74
$GPRMC,012805.0,A,3336.113106,N,11741.157289,W,8.9,114.8,220510,,,A*78
$GPRMC,012808.0,A,3336.109563,N,11741.148312,W,11.5,115.3,220510,,,A*4A
$GPRMC,012811.0,A,3336.104587,N,11741.136056,W,15.1,114.7,220510,,,A*4A
$GPRMC,012814.0,A,3336.098902,N,11741.121376,W,15.9,114.3,220510,,,A*41
$GPRMC,012817.0,A,3336.093905,N,11741.108768,W,12.6,114.9,220510,,,A*4C
$GPRMC,012820.0,A,3336.089542,N,11741.097865,W,11.0,115.5,220510,,,A*41
$GPRMC,012823.0,A,3336.086160,N,11741.088989,W,9.5,115.5,220510,,,A*78
$GPRMC,012826.0,A,3336.082713,N,11741.080776,W,9.1,114.2,220510,,,A*7F
$GPRMC,012829.0,A,3336.079474,N,11741.072247,W,9.7,114.4,220510,,,A*7C
$GPRMC,012832.0,A,3336.075974,N,11741.062837,W,10.9,113.9,220510,,,A*47
$GPRMC,012835.0,A,3336.071779,N,11741.052427,W,12.2,114.6,220510,,,A*48
$GPRMC,012838.0,A,3336.067158,N,11741.040653,W,13.1,114.4,220510,,,A*45
$GPRMC,012841.0,A,3336.063004,N,11741.028941,W,11.7,113.2,220510,,,A*40
$GPRMC,012844.0,A,3336.059056,N,11741.018626,W,11.2,114.8,220510,,,A*4E
$GPRMC,012847.0,A,3336.055613,N,11741.009764,W,8.9,114.2,220510,,,A*78
$GPRMC,012850.0,A,3336.052618,N,11741.001542,W,9.0,114.1,220510,,,A*77
$GPRMC,012853.0,A,3336.049505,N,11740.993953,W,7.9,116.0,220510,,,A*7A
$GPRMC,012856.0,A,3336.046677,N,11740.986173,W,9.3,114.6,220510,,,A*78
$GPRMC,012859.0,A,3336.042890,N,11740.976421,W,12.1,114.7,220510,,,A*40
$GPRMC,012902.0,A,3336.038011,N,11740.964135,W,15.3,113.9,220510,,,A*4C
$GPRMC,012905.0,A,3336.031061,N,11740.946292,W,22.7,115.1,220510,,,A*45
$GPRMC,012908.0,A,3336.022338,N,11740.924571,W,24.3,114.6,220510,,,A*4F
$GPRMC,012911.0,A,3336.014073,N,11740.903142,W,22.0,114.2,220510,,,A*4E
$GPRMC,012914.0,A,3336.006896,N,11740.884866,W,18.8,114.8,220510,,,A*41
$GPRMC,012917.0,A,3336.000695,N,11740.869205,W,15.7,115.0,220510,,,A*4E
$GPRMC,012920.0,A,3335.995324,N,11740.855687,W,15.2,115.3,220510,,,A*44
$GPRMC,012923.0,A,3335.989369,N,11740.840137,W,18.6,114.6,220510,,,A*46
$GPRMC,012926.0,A,3335.982437,N,11740.822228,W,19.6,114.6,220510,,,A*4C
$GPRMC,012929.0,A,3335.975987,N,11740.805586,W,17.0,115.5,220510,,,A*41
$GPRMC,012932.0,A,3335.970088,N,11740.790846,W,16.2,114.5,220510,,,A*48
$GPRMC,012935.0,A,3335.964304,N,11740.775924,W,16.5,114.9,220510,,,A*48
$GPRMC,012938.0,A,3335.958528,N,11740.760902,W,16.8,114.9,220510,,,A*4F
$GPRMC,012941.0,A,3335.952488,N,11740.745594,W,16.9,115.1,220510,,,A*4C
$GPRMC,012944.0,A,3335.946629,N,11740.730753,W,16.1,115.5,220510,,,A*42
$GPRMC,012947.0,A,3335.941288,N,11740.717104,W,14.1,114.9,220510,,,A*47
$GPRMC,012950.0,A,3335.936543,N,11740.704787,W,13.0,115.0,220510,,,A*40
$GPRMC,012953.0,A,3335.931851,N,11740.693069,W,13.5,116.2,220510,,,A*46
$GPRMC,012956.0,A,3335.926329,N,11740.680134,W,15.6,118.2,220510,,,A*41
$GPRMC,012959.0,A,3335.919522,N,11740.665213,W,18.1,119.5,220510,,,A*4E
$GPRMC,013002.0,A,3335.910804,N,11740.648099,W,22.4,121.8,220510,,,A*4D
$GPRMC,013005.0,A,3335.899426,N,11740.627037,W,28.0,123.5,220510,,,A*4A
$GPRMC,013008.0,A,3335.883247,N,11740.601117,W,35.0,127.7,220510,,,A*40
$GPRMC,013011.0,A,3335.863299,N,11740.572073,W,38.6,130.3,220510,,,A*48
$GPRMC,013014.0,A,3335.840826,N,11740.542955,W,40.5,134.1,220510,,,A*46
$GPRMC,013017.0,A,3335.815784,N,11740.513262,W,43.2,136.2,220510,,,A*4C
$GPRMC,013020.0,A,3335.788483,N,11740.483183,W,44.0,138.7,220510,,,A*4D
$GPRMC,013023.0,A,3335.760038,N,11740.455186,W,43.2,141.5,220510,,,A*4B
$GPRMC,013026.0,A,3335.730338,N,11740.428275,W,44.5,143.6,220510,,,A*4C
$GPRMC,013029.0,A,3335.699040,N,11740.402541,W,45.2,146.6,220510,,,A*46
$GPRMC,013032.0,A,3335.666687,N,11740.378607,W,44.5,150.1,220510,,,A*4C
$GPRMC,013035.0,A,3335.634684,N,11740.358380,W,41.8,154.2,220510,,,A*48
$GPRMC,013038.0,A,3335.602998,N,11740.341397,W,40.9,158.2,220510,,,A*40
$GPRMC,013041.0,A,3335.571908,N,11740.328130,W,38.0,162.1,220510,,,A*4C
$GPRMC,013044.0,A,3335.542533,N,11740.318031,W,35.4,165.5,220510,,,A*44
$GPRMC,013047.0,A,3335.514447,N,11740.310714,W,34.0,168.9,220510,,,A*4A
$GPRMC,013050.0,A,3335.486279,N,11740.305227,W,33.7,172.5,220510,,,A*4B
$GPRMC,013053.0,A,3335.459341,N,11740.302049,W,31.1,175.0,220510,,,A*4B
$GPRMC,013056.0,A,3335.434290,N,11740.300042,W,28.8,177.9,220510,,,A*4B
$GPRMC,013059.0,A,3335.410176,N,11740.299906,W,28.5,180.2,220510,,,A*4F
$GPRMC,013102.0,A,3335.385432,N,11740.300253,W,30.5,181.1,220510,,,A*4F
$GPRMC,013105.0,A,3335.359673,N,11740.300681,W,31.1,180.1,220510,,,A*41
$GPRMC,013108.0,A,3335.333999,N,11740.301214,W,31.0,180.5,220510,,,A*47
$GPRMC,013111.0,A,3335.309261,N,11740.301752,W,26.3,180.8,220510,,,A*45
$GPRMC,013114.0,A,3335.290603,N,11740.302174,W,19.0,181.1,220510,,,A*47
$GPRMC,013117.0,A,3335.279001,N,11740.302466,W,11.8,179.7,220510,,,A*40
$GPRMC,013120.0,A,3335.270640,N,11740.302501,W,9.5,180.4,220510,,,A*7F
$GPRMC,013123.0,A,3335.260717,N,11740.302622,W,14.7,180.5,220510,,,A*43
$GPRMC,013126.0,A,3335.245527,N,11740.303024,W,20.7,181.0,220510,,,A*42
$GPRMC,013129.0,A,3335.227673,N,11740.303452,W,22.2,180.6,220510,,,A*4E
$GPRMC,013132.0,A,3335.208718,N,11740.303592,W,22.8,178.4,220510,,,A*47
$GPRMC,013135.0,A,3335.189844,N,11740.303844,W,21.9,180.6,220510,,,A*4D
$GPRMC,013138.0,A,3335.171110,N,11740.304146,W,22.6,180.6,220510,,,A*4F
$GPRMC,013141.0,A,3335.151663,N,11740.304518,W,23.7,180.6,220510,,,A*4F
$GPRMC,013144.0,A,3335.131742,N,11740.305026,W,24.2,180.5,220510,,,A*46
$GPRMC,013147.0,A,3335.111032,N,11740.305222,W,25.0,180.6,220510,,,A*41
$GPRMC,013150.0,A,3335.090171,N,11740.305715,W,24.3,181.1,220510,,,A*4C
$GPRMC,013153.0,A,3335.070269,N,11740.306474,W,23.6,181.2,220510,,,A*4D
$GPRMC,013156.0,A,3335.052762,N,11740.306650,W,17.9,180.5,220510,,,A*4C
$GPRMC,013159.0,A,3335.039789,N,11740.306771,W,14.6,178.8,220510,,,A*4F
$GPRMC,013202.0,A,3335.029817,N,11740.306871,W,11.3,180.8,220510,,,A*43
$GPRMC,013205.0,A,3335.020022,N,11740.307027,W,13.2,180.3,220510,,,A*41
$GPRMC,013208.0,A,3335.005385,N,11740.307219,W,19.3,181.1,220510,,,A*42
$GPRMC,013211.0,A,3334.988364,N,11740.307359,W,20.5,180.2,220510,,,A*43
$GPRMC,013214.0,A,3334.971768,N,11740.307822,W,19.5,181.2,220510,,,A*44
$GPRMC,013217.0,A,3334.955559,N,11740.308255,W,20.3,180.7,220510,,,A*4C
$GPRMC,013220.0,A,3334.934768,N,11740.308541,W,28.7,180.4,220510,,,A*42
$GPRMC,013223.0,A,3334.906530,N,11740.309250,W,37.4,180.8,220510,,,A*48
$GPRMC,013226.0,A,3334.871949,N,11740.309884,W,44.2,180.9,220510,,,A*4E
$GPRMC,013229.0,A,3334.831822,N,11740.310613,W,50.7,180.9,220510,,,A*41
$GPRMC,013232.0,A,3334.789366,N,11740.311217,W,50.8,180.8,220510,,,A*43
$GPRMC,013235.0,A,3334.746103,N,11740.312052,W,51.5,180.6,220510,,,A*44
$GPRMC,013238.0,A,3334.703740,N,11740.312529,W,49.4,180.6,220510,,,A*48
$GPRMC,013241.0,A,3334.662227,N,11740.313233,W,49.1,180.7,220510,,,A*4D
$GPRMC,013244.0,A,3334.619786,N,11740.314013,W,52.1,181.0,220510,,,A*41
$GPRMC,013247.0,A,3334.575243,N,11740.315285,W,54.1,181.3,220510,,,A*4E
$GPRMC,013250.0,A,3334.529837,N,11740.316633,W,53.9,181.3,220510,,,A*4D
$GPRMC,013253.0,A,3334.484899,N,11740.318001,W,53.5,181.2,220510,,,A*48
$GPRMC,013256.0,A,3334.440577,N,11740.318876,W,52.7,180.5,220510,,,A*45
$GPRMC,013259.0,A,3334.396982,N,11740.319736,W,52.1,180.8,220510,,,A*41
$GPRMC,013302.0,A,3334.353143,N,11740.320480,W,52.2,180.5,220510,,,A*48
$GPRMC,013305.0,A,3334.310395,N,11740.321044,W,50.8,180.8,220510,,,A*49
$GPRMC,013308.0,A,3334.268118,N,11740.321652,W,50.2,180.9,220510,,,A*47
$GPRMC,013311.0,A,3334.226479,N,11740.322517,W,49.6,180.8,220510,,,A*4B
$GPRMC,013314.0,A,3334.185047,N,11740.323181,W,49.0,181.3,220510,,,A*4B
$GPRMC,013317.0,A,3334.144383,N,11740.325022,W,49.0,182.8,220510,,,A*48
$GPRMC,013320.0,A,3334.103129,N,11740.328321,W,49.8,184.4,220510,,,A*42
$GPRMC,013323.0,A,3334.061196,N,11740.332656,W,50.9,185.7,220510,,,A*45
$GPRMC,013326.0,A,3334.018363,N,11740.337952,W,51.8,186.3,220510,,,A*4F
$GPRMC,013329.0,A,3333.975040,N,11740.343479,W,52.3,186.4,220510,,,A*4F
$GPRMC,013332.0,A,3333.930932,N,11740.349790,W,53.5,187.2,220510,,,A*46
$GPRMC,013335.0,A,3333.887062,N,11740.356876,W,52.1,187.2,220510,,,A*4C
$GPRMC,013338.0,A,3333.844410,N,11740.362670,W,50.9,186.1,220510,,,A*48
$GPRMC,013341.0,A,3333.802495,N,11740.367820,W,49.8,186.1,220510,,,A*4E
$GPRMC,013344.0,A,3333.761583,N,11740.373186,W,49.0,186.7,220510,,,A*49
$GPRMC,013347.0,A,3333.721541,N,11740.380096,W,47.6,189.6,220510,,,A*4A
$GPRMC,013350.0,A,3333.683113,N,11740.388248,W,45.7,190.0,220510,,,A*42
$GPRMC,013353.0,A,3333.647099,N,11740.396647,W,42.2,191.4,220510,,,A*49
$GPRMC,013356.0,A,3333.614335,N,11740.404975,W,38.2,192.1,220510,,,A*46
$GPRMC,013359.0,A,3333.584957,N,11740.412473,W,34.0,191.8,220510,,,A*45
$GPRMC,013402.0,A,3333.563510,N,11740.417910,W,21.8,190.3,220510,,,A*41
$GPRMC,013405.0,A,3333.552677,N,11740.420269,W,10.4,186.5,220510,,,A*48
$GPRMC,013411.0,A,3333.544409,N,11740.422954,W,4.7,198.2,220510,,,A*78
$GPRMC,013414.0,A,3333.541382,N,11740.425363,W,5.7,220.8,220510,,,A*7E
$GPRMC,013417.0,A,3333.537240,N,11740.434079,W,14.1,246.2,220510,,,A*47
$GPRMC,013420.0,A,3333.532322,N,11740.453255,W,22.7,249.8,220510,,,A*48
$GPRMC,013423.0,A,3333.525658,N,11740.477727,W,26.7,250.0,220510,,,A*47
$GPRMC,013426.0,A,3333.518680,N,11740.503757,W,27.5,250.4,220510,,,A*4B
$GPRMC,013429.0,A,3333.511373,N,11740.528712,W,23.8,248.5,220510,,,A*4D
$GPRMC,013432.0,A,3333.504488,N,11740.546807,W,16.7,242.8,220510,,,A*4D
$GPRMC,013435.0,A,3333.499323,N,11740.557997,W,10.4,239.4,220510,,,A*44
$GPRMC,013438.0,A,3333.496142,N,11740.564721,W,6.1,240.3,220510,,,A*7B
$GPRMC,013441.0,A,3333.493975,N,11740.568709,W,4.7,238.7,220510,,,A*75
$GPRMC,013505.0,A,3333.488885,N,11740.578435,W,12.2,231.8,220510,,,A*49
$GPRMC,013508.0,A,3333.479652,N,11740.592758,W,21.7,231.3,220510,,,A*4C
$GPRMC,013511.0,A,3333.467116,N,11740.612764,W,27.2,235.8,220510,,,A*44
$GPRMC,013514.0,A,3333.453920,N,11740.637905,W,31.8,240.5,220510,,,A*47
$GPRMC,013517.0,A,3333.441873,N,11740.668356,W,34.5,248.5,220510,,,A*46
$GPRMC,013520.0,A,3333.432518,N,11740.703867,W,37.6,255.4,220510,,,A*4E
$GPRMC,013523.0,A,3333.425671,N,11740.742692,W,40.0,258.7,220510,,,A*4E
$GPRMC,013526.0,A,3333.418555,N,11740.782840,W,41.4,256.9,220510,,,A*48
$GPRMC,013529.0,A,3333.410204,N,11740.824390,W,43.3,256.8,220510,,,A*4D
$GPRMC,013532.0,A,3333.402957,N,11740.865207,W,40.7,257.5,220510,,,A*48
$GPRMC,013535.0,A,3333.393460,N,11740.904208,W,40.7,250.3,220510,,,A*41
$GPRMC,013538.0,A,3333.379071,N,11740.941796,W,42.1,242.3,220510,,,A*48
$GPRMC,013541.0,A,3333.359835,N,11740.977653,W,43.5,233.5,220510,,,A*44
$GPRMC,013544.0,A,3333.336419,N,11741.009719,W,39.8,225.2,220510,,,A*44
$GPRMC,013547.0,A,3333.313280,N,11741.034744,W,35.3,219.5,220510,,,A*4F
$GPRMC,013550.0,A,3333.292022,N,11741.054770,W,28.6,218.4,220510,,,A*43
$GPRMC,013553.0,A,3333.277294,N,11741.068027,W,16.7,217.9,220510,,,A*40
$GPRMC,013556.0,A,3333.267296,N,11741.076692,W,14.7,218.7,220510,,,A*42
$GPRMC,013559.0,A,3333.255752,N,11741.087289,W,20.5,219.8,220510,,,A*4A
$GPRMC,013602.0,A,3333.240908,N,11741.101350,W,24.9,220.7,220510,,,A*45
$GPRMC,013605.0,A,3333.224083,N,11741.118982,W,28.6,223.0,220510,,,A*40
$GPRMC,013608.0,A,3333.206592,N,11741.140935,W,32.6,229.5,220510,,,A*4D
$GPRMC,013611.0,A,3333.188665,N,11741.168952,W,37.8,234.9,220510,,,A*4B
$GPRMC,013614.0,A,3333.169429,N,11741.200927,W,40.2,233.6,220510,,,A*46
$GPRMC,013617.0,A,3333.147595,N,11741.232606,W,41.1,227.5,220510,,,A*46
$GPRMC,013620.0,A,3333.122588,N,11741.260251,W,40.6,219.4,220510,,,A*46
$GPRMC,013623.0,A,3333.094673,N,11741.284456,W,42.1,212.4,220510,,,A*4B
$GPRMC,013626.0,A,3333.063118,N,11741.304341,W,42.7,204.5,220510,,,A*44
$GPRMC,013629.0,A,3333.029086,N,11741.319384,W,43.9,198.2,220510,,,A*48
$GPRMC,013632.0,A,3332.993887,N,11741.332887,W,44.6,197.5,220510,,,A*43
$GPRMC,013635.0,A,3332.958492,N,11741.346274,W,44.7,197.8,220510,,,A*42
$GPRMC,013638.0,A,3332.922470,N,11741.359964,W,45.1,197.8,220510,,,A*4D
$GPRMC,013641.0,A,3332.886859,N,11741.373638,W,43.8,197.6,220510,,,A*44
$GPRMC,013644.0,A,3332.851997,N,11741.386674,W,43.3,196.9,220510,,,A*4F
$GPRMC,013647.0,A,3332.817153,N,11741.398034,W,42.6,194.3,220510,,,A*4F
$GPRMC,013650.0,A,3332.783420,N,11741.407997,W,40.4,193.7,220510,,,A*48
$GPRMC,013653.0,A,3332.750486,N,11741.416597,W,39.9,192.3,220510,,,A*43
$GPRMC,013656.0,A,3332.719200,N,11741.425499,W,36.7,194.4,220510,,,A*4C
$GPRMC,013659.0,A,3332.691399,N,11741.435743,W,33.4,199.8,220510,,,A*41
$GPRMC,013702.0,A,3332.666384,N,11741.448341,W,31.5,205.9,220510,,,A*42
$GPRMC,013705.0,A,3332.644620,N,11741.462030,W,28.0,207.6,220510,,,A*43
$GPRMC,013708.0,A,3332.625922,N,11741.474754,W,23.3,214.5,220510,,,A*4F
$GPRMC,013711.0,A,3332.612871,N,11741.487151,W,16.9,219.9,220510,,,A*46
$GPRMC,013714.0,A,3332.604659,N,11741.495660,W,10.4,223.1,220510,,,A*4C
$GPRMC,013717.0,A,3332.600505,N,11741.500850,W,5.3,225.2,220510,,,A*77
$GPRMC,013850.0,A,3332.588747,N,11741.514539,W,13.7,210.0,220510,,,A*4C
$GPRMC,013853.0,A,3332.575973,N,11741.516938,W,17.6,173.4,220510,,,A*4C
$GPRMC,013856.0,A,3332.565067,N,11741.511140,W,9.9,149.9,220510,,,A*70
$GPRMC,013859.0,A,3332.560395,N,11741.513539,W,7.4,227.6,220510,,,A*7B
$GPRMC,013902.0,A,3332.555197,N,11741.516873,W,6.3,180.5,220510,,,A*7F
$GPRMC,014135.0,A,3332.560204,N,11741.512789,W,5.7,45.4,220510,,,A*4B
$GPRMC,014138.0,A,3332.561836,N,11741.507629,W,5.9,92.3,220510,,,A*40
$GPRMC,014141.0,A,3332.557030,N,11741.499638,W,12.7,137.4,220510,,,A*42
$GPRMC,014144.0,A,3332.545881,N,11741.486271,W,21.2,136.1,220510,,,A*40
$GPRMC,014147.0,A,3332.531286,N,11741.468090,W,28.3,132.2,220510,,,A*4F
$GPRMC,014150.0,A,3332.513227,N,11741.444126,W,34.7,131.9,220510,,,A*41
$GPRMC,014153.0,A,3332.492715,N,11741.416436,W,38.8,131.3,220510,,,A*44
$GPRMC,014156.0,A,3332.471721,N,11741.385995,W,39.4,129.2,220510,,,A*47
$GPRMC,014159.0,A,3332.450435,N,11741.355684,W,39.8,130.7,220510,,,A*4E
$GPRMC,014202.0,A,3332.427108,N,11741.325031,W,42.7,133.3,220510,,,A*43
$GPRMC,014205.0,A,3332.402709,N,11741.294097,W,41.8,133.6,220510,,,A*4A
$GPRMC,014208.0,A,3332.380078,N,11741.265944,W,37.7,133.4,220510,,,A*4E
$GPRMC,014211.0,A,3332.359772,N,11741.239923,W,33.9,132.8,220510,,,A*40
$GPRMC,014214.0,A,3332.341766,N,11741.217443,W,29.3,134.9,220510,,,A*48
$GPRMC,014217.0,A,3332.325217,N,11741.199217,W,25.3,139.9,220510,,,A*49
$GPRMC,014220.0,A,3332.309649,N,11741.184552,W,21.4,142.6,220510,,,A*46
$GPRMC,014223.0,A,3332.297154,N,11741.173820,W,15.3,145.6,220510,,,A*4F
$GPRMC,014226.0,A,3332.288024,N,11741.167448,W,9.9,149.7,220510,,,A*7F
$GPRMC,014229.0,A,3332.281916,N,11741.164230,W,5.3,154.0,220510,,,A*76
$GPRMC,014241.0,A,3332.275454,N,11741.161071,W,12.9,151.8,220510,,,A*4B
$GPRMC,014244.0,A,3332.262285,N,11741.152939,W,20.2,152.4,220510,,,A*42
$GPRMC,014247.0,A,3332.243712,N,11741.141624,W,26.1,155.0,220510,,,A*4E
$GPRMC,014250.0,A,3332.221695,N,11741.130982,W,29.7,160.2,220510,,,A*4A
$GPRMC,014253.0,A,3332.194955,N,11741.121577,W,34.3,165.8,220510,,,A*46
$GPRMC,014256.0,A,3332.165243,N,11741.114019,W,36.4,170.4,220510,,,A*47
$GPRMC,014259.0,A,3332.132596,N,11741.110352,W,40.4,178.3,220510,,,A*43
$GPRMC,014302.0,A,3332.098370,N,11741.110287,W,41.1,181.0,220510,,,A*4B
$GPRMC,014305.0,A,3332.063604,N,11741.110976,W,41.8,181.1,220510,,,A*43
$GPRMC,014308.0,A,3332.027253,N,11741.111248,W,44.6,180.7,220510,,,A*43
$GPRMC,014311.0,A,3331.989306,N,11741.111358,W,45.9,180.9,220510,,,A*44
$GPRMC,014314.0,A,3331.949256,N,11741.111323,W,48.5,180.2,220510,,,A*4F
$GPRMC,014317.0,A,3331.907793,N,11741.113370,W,48.3,181.6,220510,,,A*4D
$GPRMC,014320.0,A,3331.871714,N,11741.113928,W,38.8,179.9,220510,,,A*45
$GPRMC,014323.0,A,3331.839646,N,11741.113646,W,37.6,179.3,220510,,,A*40
$GPRMC,014326.0,A,3331.810427,N,11741.115185,W,32.7,184.0,220510,,,A*40
$GPRMC,014329.0,A,3331.788618,N,11741.116076,W,21.4,185.0,220510,,,A*41
$GPRMC,014332.0,A,3331.779246,N,11741.122246,W,11.6,237.8,220510,,,A*4F
$GPRMC,014335.0,A,3331.777174,N,11741.144882,W,25.8,260.7,220510,,,A*42
$GPRMC,014338.0,A,3331.770968,N,11741.171522,W,28.7,249.1,220510,,,A*43
$GPRMC,014341.0,A,3331.760746,N,11741.198921,W,31.3,244.1,220510,,,A*47
$GPRMC,014344.0,A,3331.749853,N,11741.224720,W,26.9,243.8,220510,,,A*4B
$GPRMC,014347.0,A,3331.741490,N,11741.244354,W,19.0,245.4,220510,,,A*4D
$GPRMC,014350.0,A,3331.737466,N,11741.253472,W,7.4,249.5,220510,,,A*70
$GPRMC,014353.0,A,3331.734698,N,11741.258063,W,7.2,215.8,220510,,,A*7E
$GPRMC,014356.0,A,3331.726812,N,11741.258521,W,11.2,160.8,220510,,,A*41
