NMEA Sentence Code,UTC Time,Status,Latitude,Latitude Direction,Longitude,Longitude Direction,Speed (knots),Track Angle (degrees true),Date,MagneticVariation,Magnetic Variation Direction,[FAA Mode]-Optional,Checksum
$GPRMC,234119.000,A,3243.6602,N,11711.4873,W,9.20,198.30,170910,,,A*7D
$GPRMC,234134.000,A,3243.6500,N,11711.4945,W,11.80,270.80,170910,,,A*4A
$GPRMC,234137.000,A,3243.6508,N,11711.5097,W,18.00,274.00,170910,,,A*4B
$GPRMC,234140.000,A,3243.6522,N,11711.5285,W,19.70,275.00,170910,,,A*45
$GPRMC,234143.000,A,3243.6533,N,11711.5479,W,19.40,274.00,170910,,,A*41
$GPRMC,234146.000,A,3243.6545,N,11711.5666,W,18.10,274.60,170910,,,A*4B
$GPRMC,234149.000,A,3243.6557,N,11711.5840,W,16.80,274.60,170910,,,A*4A
$GPRMC,234152.000,A,3243.6585,N,11711.5998,W,16.40,288.80,170910,,,A*4A
$GPRMC,234155.000,A,3243.6635,N,11711.6153,W,17.00,290.50,170910,,,A*48
$GPRMC,234158.000,A,3243.6701,N,11711.6318,W,18.20,293.70,170910,,,A*42
$GPRMC,234201.000,A,3243.6750,N,11711.6491,W,18.50,278.80,170910,,,A*42
$GPRMC,234204.000,A,3243.6773,N,11711.6672,W,18.10,277.20,170910,,,A*48
$GPRMC,234207.000,A,3243.6782,N,11711.6834,W,16.00,273.30,170910,,,A*43
$GPRMC,234210.000,A,3243.6787,N,11711.6979,W,12.90,273.50,170910,,,A*43
$GPRMC,234216.000,A,3243.6777,N,11711.7089,W,5.20,238.40,170910,,,A*7E
$GPRMC,234219.000,A,3243.6662,N,11711.7184,W,16.80,209.60,170910,,,A*40
$GPRMC,234222.000,A,3243.6537,N,11711.7268,W,16.80,210.70,170910,,,A*43
$GPRMC,234225.000,A,3243.6440,N,11711.7396,W,17.30,232.10,170910,,,A*49
$GPRMC,234228.000,A,3243.6416,N,11711.7559,W,16.10,263.70,170910,,,A*43
$GPRMC,234231.000,A,3243.6361,N,11711.7678,W,13.50,219.90,170910,,,A*4E
$GPRMC,234234.000,A,3243.6265,N,11711.7729,W,13.30,193.10,170910,,,A*44
$GPRMC,234237.000,A,3243.6200,N,11711.7763,W,8.00,221.30,170910,,,A*7B
$GPRMC,234240.000,A,3243.6173,N,11711.7824,W,6.00,252.70,170910,,,A*7E
$GPRMC,234316.000,A,3243.6186,N,11711.7879,W,9.40,270.50,170910,,,A*77
$GPRMC,234319.000,A,3243.6126,N,11711.7985,W,16.20,211.30,170910,,,A*49
$GPRMC,234322.000,A,3243.5978,N,11711.8032,W,21.10,190.50,170910,,,A*40
$GPRMC,234325.000,A,3243.5807,N,11711.8088,W,20.80,200.60,170910,,,A*4E
$GPRMC,234328.000,A,3243.5652,N,11711.8171,W,20.60,200.70,170910,,,A*45
$GPRMC,234331.000,A,3243.5496,N,11711.8224,W,18.60,190.20,170910,,,A*40
$GPRMC,234334.000,A,3243.5346,N,11711.8251,W,18.10,187.60,170910,,,A*48
$GPRMC,234337.000,A,3243.5196,N,11711.8267,W,15.80,177.50,170910,,,A*49
$GPRMC,234340.000,A,3243.5110,N,11711.8176,W,16.50,113.80,170910,,,A*45
$GPRMC,234343.000,A,3243.5074,N,11711.7988,W,20.10,100.50,170910,,,A*4D
$GPRMC,234346.000,A,3243.5059,N,11711.7745,W,24.10,95.00,170910,,,A*74
$GPRMC,234349.000,A,3243.5043,N,11711.7476,W,26.50,95.20,170910,,,A*77
$GPRMC,234352.000,A,3243.5024,N,11711.7197,W,27.50,94.90,170910,,,A*7D
$GPRMC,234355.000,A,3243.5004,N,11711.6924,W,27.00,94.90,170910,,,A*7C
$GPRMC,234358.000,A,3243.4980,N,11711.6653,W,27.10,95.90,170910,,,A*7A
$GPRMC,234401.000,A,3243.4956,N,11711.6380,W,27.50,96.10,170910,,,A*7E
$GPRMC,234404.000,A,3243.4937,N,11711.6097,W,27.30,96.00,170910,,,A*7E
$GPRMC,234407.000,A,3243.4912,N,11711.5843,W,24.40,97.70,170910,,,A*7A
$GPRMC,234410.000,A,3243.4883,N,11711.5601,W,24.70,97.10,170910,,,A*78
$GPRMC,234413.000,A,3243.4853,N,11711.5333,W,26.80,98.00,170910,,,A*71
$GPRMC,234416.000,A,3243.4823,N,11711.5106,W,20.90,98.60,170910,,,A*76
$GPRMC,234419.000,A,3243.4799,N,11711.4888,W,22.70,98.50,170910,,,A*76
$GPRMC,234422.000,A,3243.4768,N,11711.4644,W,25.10,98.90,170910,,,A*73
$GPRMC,234425.000,A,3243.4731,N,11711.4384,W,25.90,99.50,170910,,,A*74
$GPRMC,234428.000,A,3243.4695,N,11711.4151,W,23.60,99.80,170910,,,A*78
$GPRMC,234431.000,A,3243.4664,N,11711.3945,W,21.00,99.70,170910,,,A*7F
$GPRMC,234434.000,A,3243.4685,N,11711.3802,W,15.00,62.80,170910,,,A*7B
$GPRMC,234437.000,A,3243.4762,N,11711.3732,W,12.70,17.40,170910,,,A*72
$GPRMC,234440.000,A,3243.4865,N,11711.3756,W,12.30,338.30,170910,,,A*45
$GPRMC,234443.000,A,3243.4913,N,11711.3884,W,14.50,281.00,170910,,,A*46
$GPRMC,234446.000,A,3243.4856,N,11711.4010,W,17.10,216.50,170910,,,A*4D
$GPRMC,234449.000,A,3243.4752,N,11711.4124,W,16.90,229.60,170910,,,A*49
$GPRMC,234452.000,A,3243.4752,N,11711.4318,W,21.20,277.40,170910,,,A*48
$GPRMC,234455.000,A,3243.4783,N,11711.4534,W,23.60,278.50,170910,,,A*43
$GPRMC,234458.000,A,3243.4816,N,11711.4773,W,25.10,281.80,170910,,,A*46
$GPRMC,234501.000,A,3243.4856,N,11711.5014,W,24.50,279.60,170910,,,A*44
$GPRMC,234504.000,A,3243.4887,N,11711.5246,W,24.00,278.50,170910,,,A*4F
$GPRMC,234507.000,A,3243.4915,N,11711.5475,W,22.70,277.90,170910,,,A*42
$GPRMC,234510.000,A,3243.4939,N,11711.5698,W,22.70,277.30,170910,,,A*41
$GPRMC,234513.000,A,3243.4963,N,11711.5919,W,22.60,276.80,170910,,,A*40
$GPRMC,234516.000,A,3243.4986,N,11711.6146,W,23.90,275.60,170910,,,A*4C
$GPRMC,234519.000,A,3243.5007,N,11711.6382,W,24.10,276.30,170910,,,A*41
$GPRMC,234522.000,A,3243.5026,N,11711.6620,W,24.80,275.30,170910,,,A*4D
$GPRMC,234525.000,A,3243.5045,N,11711.6869,W,25.20,275.60,170910,,,A*42
$GPRMC,234528.000,A,3243.5063,N,11711.7112,W,24.20,275.00,170910,,,A*48
$GPRMC,234531.000,A,3243.5078,N,11711.7348,W,24.30,274.60,170910,,,A*41
$GPRMC,234534.000,A,3243.5093,N,11711.7584,W,23.20,273.80,170910,,,A*48
$GPRMC,234537.000,A,3243.5107,N,11711.7797,W,20.20,275.40,170910,,,A*4E
$GPRMC,234540.000,A,3243.5259,N,11711.7917,W,20.00,332.80,170910,,,A*4C
$GPRMC,234543.000,A,3243.5453,N,11711.7934,W,23.00,00.60,170910,,,A*7D
$GPRMC,234546.000,A,3243.5655,N,11711.7920,W,24.80,02.80,170910,,,A*7A
$GPRMC,234549.000,A,3243.5859,N,11711.7914,W,23.20,00.50,170910,,,A*72
$GPRMC,234552.000,A,3243.5965,N,11711.7907,W,7.40,03.30,170910,,,A*41
$GPRMC,234619.000,A,3243.6028,N,11711.7903,W,2.50,354.40,170910,,,A*78
$GPRMC,234622.000,A,3243.6183,N,11711.7874,W,16.90,07.20,170910,,,A*7B
$GPRMC,234625.000,A,3243.6329,N,11711.7855,W,19.30,06.50,170910,,,A*7E
$GPRMC,234628.000,A,3243.6500,N,11711.7819,W,22.10,15.80,170910,,,A*73
$GPRMC,234631.000,A,3243.6663,N,11711.7738,W,21.40,30.20,170910,,,A*7A
$GPRMC,234634.000,A,3243.6793,N,11711.7594,W,21.30,52.00,170910,,,A*74
$GPRMC,234637.000,A,3243.6883,N,11711.7423,W,20.10,59.70,170910,,,A*7B
$GPRMC,234640.000,A,3243.6987,N,11711.7258,W,20.80,51.30,170910,,,A*71
$GPRMC,234643.000,A,3243.7119,N,11711.7133,W,20.10,31.40,170910,,,A*7A
$GPRMC,234646.000,A,3243.7278,N,11711.7057,W,20.70,12.30,170910,,,A*78
$GPRMC,234649.000,A,3243.7420,N,11711.7025,W,14.60,14.80,170910,,,A*72
$GPRMC,234652.000,A,3243.7505,N,11711.6950,W,13.70,52.60,170910,,,A*7E
$GPRMC,234655.000,A,3243.7520,N,11711.6750,W,23.00,91.80,170910,,,A*75
$GPRMC,234658.000,A,3243.7510,N,11711.6474,W,31.00,89.80,170910,,,A*74
$GPRMC,234701.000,A,3243.7506,N,11711.6163,W,31.90,91.80,170910,,,A*7D
$GPRMC,234704.000,A,3243.7512,N,11711.5801,W,36.60,90.30,170910,,,A*71
$GPRMC,234707.000,A,3243.7505,N,11711.5410,W,39.60,92.00,170910,,,A*76
$GPRMC,234710.000,A,3243.7493,N,11711.5007,W,39.80,92.70,170910,,,A*75
$GPRMC,234713.000,A,3243.7476,N,11711.4606,W,40.50,93.60,170910,,,A*78
$GPRMC,234716.000,A,3243.7456,N,11711.4202,W,40.50,93.10,170910,,,A*78
$GPRMC,234719.000,A,3243.7435,N,11711.3811,W,39.20,93.20,170910,,,A*77
$GPRMC,234722.000,A,3243.7414,N,11711.3436,W,38.10,93.40,170910,,,A*71
$GPRMC,234725.000,A,3243.7394,N,11711.3062,W,37.90,93.60,170910,,,A*79
$GPRMC,234728.000,A,3243.7373,N,11711.2677,W,39.10,94.20,170910,,,A*7B
$GPRMC,234731.000,A,3243.7348,N,11711.2284,W,40.00,93.90,170910,,,A*70
$GPRMC,234734.000,A,3243.7329,N,11711.1879,W,40.70,93.60,170910,,,A*71
$GPRMC,234737.000,A,3243.7301,N,11711.1476,W,41.30,95.80,170910,,,A*76
$GPRMC,234740.000,A,3243.7245,N,11711.1088,W,39.30,102.20,170910,,,A*48
$GPRMC,234743.000,A,3243.7158,N,11711.0720,W,39.10,108.60,170910,,,A*4C
$GPRMC,234746.000,A,3243.7046,N,11711.0356,W,39.40,111.70,170910,,,A*4E
$GPRMC,234749.000,A,3243.6928,N,11710.9993,W,39.50,111.30,170910,,,A*4F
$GPRMC,234752.000,A,3243.6809,N,11710.9633,W,38.60,111.60,170910,,,A*45
$GPRMC,234755.000,A,3243.6694,N,11710.9284,W,37.80,111.70,170910,,,A*40
$GPRMC,234758.000,A,3243.6588,N,11710.8931,W,37.90,106.30,170910,,,A*44
$GPRMC,234801.000,A,3243.6518,N,11710.8570,W,36.70,100.70,170910,,,A*4A
$GPRMC,234804.000,A,3243.6486,N,11710.8208,W,35.90,93.70,170910,,,A*77
$GPRMC,234807.000,A,3243.6480,N,11710.7867,W,33.90,89.70,170910,,,A*73
$GPRMC,234810.000,A,3243.6495,N,11710.7550,W,31.20,83.70,170910,,,A*7B
$GPRMC,234813.000,A,3243.6537,N,11710.7300,W,17.30,76.90,170910,,,A*73
$GPRMC,234816.000,A,3243.6570,N,11710.7168,W,10.20,72.70,170910,,,A*75
$GPRMC,234831.000,A,3243.6589,N,11710.7035,W,11.10,94.90,170910,,,A*7B
$GPRMC,234834.000,A,3243.6593,N,11710.6877,W,15.80,90.80,170910,,,A*72
$GPRMC,234837.000,A,3243.6586,N,11710.6697,W,17.00,93.00,170910,,,A*74
$GPRMC,234840.000,A,3243.6588,N,11710.6548,W,12.70,81.10,170910,,,A*7B
$GPRMC,234843.000,A,3243.6672,N,11710.6451,W,14.60,20.50,170910,,,A*7F
$GPRMC,234846.000,A,3243.6825,N,11710.6408,W,19.60,11.30,170910,,,A*73
$GPRMC,234849.000,A,3243.6984,N,11710.6323,W,21.60,30.80,170910,,,A*7B
$GPRMC,234852.000,A,3243.7066,N,11710.6135,W,21.00,69.40,170910,,,A*76
$GPRMC,234855.000,A,3243.7122,N,11710.5957,W,17.50,69.50,170910,,,A*7E
$GPRMC,234858.000,A,3243.7162,N,11710.5831,W,12.70,69.40,170910,,,A*70
$GPRMC,234901.000,A,3243.7210,N,11710.5705,W,13.70,64.80,170910,,,A*73
$GPRMC,234904.000,A,3243.7262,N,11710.5575,W,14.00,66.60,170910,,,A*7A
$GPRMC,234907.000,A,3243.7303,N,11710.5450,W,12.90,70.10,170910,,,A*76
$GPRMC,234910.000,A,3243.7330,N,11710.5362,W,6.50,73.90,170910,,,A*44
$GPRMC,234913.000,A,3243.7346,N,11710.5301,W,7.20,69.60,170910,,,A*41
$GPRMC,234916.000,A,3243.7366,N,11710.5231,W,7.10,69.60,170910,,,A*47
$GPRMC,234919.000,A,3243.7391,N,11710.5151,W,10.70,69.70,170910,,,A*74
$GPRMC,234922.000,A,3243.7421,N,11710.5056,W,8.60,70.10,170910,,,A*40
$GPRMC,234952.000,A,3243.7433,N,11710.5006,W,0.00,00.00,170910,,,A*49
$GPRMC,234955.000,A,3243.7459,N,11710.4926,W,13.60,68.40,170910,,,A*76
$GPRMC,234958.000,A,3243.7508,N,11710.4774,W,19.00,70.00,170910,,,A*76
$GPRMC,235001.000,A,3243.7566,N,11710.4585,W,20.10,70.50,170910,,,A*78
$GPRMC,235004.000,A,3243.7613,N,11710.4431,W,15.40,70.50,170910,,,A*71
$GPRMC,235007.000,A,3243.7657,N,11710.4283,W,16.30,71.10,170910,,,A*7C
$GPRMC,235010.000,A,3243.7706,N,11710.4125,W,16.80,69.30,170910,,,A*70
$GPRMC,235013.000,A,3243.7757,N,11710.3978,W,15.80,67.50,170910,,,A*7B
$GPRMC,235016.000,A,3243.7809,N,11710.3833,W,14.30,70.40,170910,,,A*79
$GPRMC,235019.000,A,3243.7863,N,11710.3669,W,19.60,69.10,170910,,,A*7E
$GPRMC,235022.000,A,3243.7923,N,11710.3479,W,17.50,70.20,170910,,,A*76
$GPRMC,235116.000,A,3243.7979,N,11710.3303,W,9.40,72.20,170910,,,A*49
$GPRMC,235119.000,A,3243.8019,N,11710.3157,W,14.60,72.30,170910,,,A*7A
$GPRMC,235122.000,A,3243.8059,N,11710.3021,W,12.90,70.00,170910,,,A*7E
$GPRMC,235125.000,A,3243.8093,N,11710.2901,W,11.80,70.80,170910,,,A*7F
$GPRMC,235128.000,A,3243.8127,N,11710.2790,W,13.10,70.60,170910,,,A*7F
$GPRMC,235131.000,A,3243.8195,N,11710.2702,W,11.70,17.10,170910,,,A*77
$GPRMC,235134.000,A,3243.8336,N,11710.2727,W,19.70,347.40,170910,,,A*45
$GPRMC,235137.000,A,3243.8513,N,11710.2773,W,22.70,348.10,170910,,,A*44
$GPRMC,235138.000,A,3243.8575,N,11710.2789,W,22.70,348.10,170910,,,A*4E
$GPRMC,235146.000,A,3243.9259,N,11710.2988,W,32.40,338.10,170910,,,A*45
$GPRMC,235149.000,A,3243.9495,N,11710.3134,W,32.20,325.00,170910,,,A*49
$GPRMC,235152.000,A,3243.9731,N,11710.3324,W,31.20,324.70,170910,,,A*48
$GPRMC,235155.000,A,3243.9950,N,11710.3507,W,30.80,323.90,170910,,,A*43
$GPRMC,235158.000,A,3244.0165,N,11710.3677,W,32.00,325.30,170910,,,A*4C
$GPRMC,235201.000,A,3244.0411,N,11710.3857,W,34.20,326.80,170910,,,A*45
$GPRMC,235204.000,A,3244.0663,N,11710.4049,W,35.40,326.10,170910,,,A*49
$GPRMC,235207.000,A,3244.0883,N,11710.4262,W,34.50,319.50,170910,,,A*49
$GPRMC,235210.000,A,3244.1104,N,11710.4481,W,34.50,321.90,170910,,,A*44
$GPRMC,235213.000,A,3244.1332,N,11710.4691,W,34.00,323.10,170910,,,A*4C
$GPRMC,235216.000,A,3244.1554,N,11710.4886,W,33.00,324.20,170910,,,A*44
$GPRMC,235219.000,A,3244.1754,N,11710.5061,W,28.90,325.00,170910,,,A*49
$GPRMC,235222.000,A,3244.1921,N,11710.5196,W,22.70,328.20,170910,,,A*4F
$GPRMC,235225.000,A,3244.2050,N,11710.5303,W,18.30,328.70,170910,,,A*42
$GPRMC,235228.000,A,3244.2115,N,11710.5372,W,8.50,323.50,170910,,,A*77
$GPRMC,235231.000,A,3244.2177,N,11710.5410,W,6.40,323.50,170910,,,A*77
$GPRMC,235249.000,A,3244.2220,N,11710.5454,W,11.50,323.50,170910,,,A*4E
$GPRMC,235252.000,A,3244.2323,N,11710.5547,W,18.20,318.50,170910,,,A*43
$GPRMC,235255.000,A,3244.2471,N,11710.5686,W,23.10,321.50,170910,,,A*4B
$GPRMC,235258.000,A,3244.2635,N,11710.5828,W,23.60,323.50,170910,,,A*4B
$GPRMC,235301.000,A,3244.2788,N,11710.5966,W,22.90,322.80,170910,,,A*48
$GPRMC,235304.000,A,3244.2959,N,11710.6121,W,27.10,322.20,170910,,,A*40
$GPRMC,235307.000,A,3244.3152,N,11710.6294,W,29.10,322.90,170910,,,A*49
$GPRMC,235310.000,A,3244.3356,N,11710.6464,W,29.60,323.50,170910,,,A*4A
$GPRMC,235313.000,A,3244.3549,N,11710.6627,W,27.00,324.00,170910,,,A*4E
$GPRMC,235316.000,A,3244.3728,N,11710.6788,W,27.10,321.60,170910,,,A*48
$GPRMC,235319.000,A,3244.3913,N,11710.6964,W,30.00,321.90,170910,,,A*45
$GPRMC,235322.000,A,3244.4118,N,11710.7162,W,32.50,320.90,170910,,,A*40
$GPRMC,235325.000,A,3244.4345,N,11710.7387,W,36.50,318.30,170910,,,A*41
$GPRMC,235328.000,A,3244.4577,N,11710.7643,W,38.40,316.60,170910,,,A*42
$GPRMC,235331.000,A,3244.4781,N,11710.7871,W,27.30,316.10,170910,,,A*40
$GPRMC,235334.000,A,3244.4923,N,11710.8045,W,21.70,311.70,170910,,,A*40
$GPRMC,235337.000,A,3244.5033,N,11710.8198,W,19.30,307.30,170910,,,A*47
$GPRMC,235340.000,A,3244.5119,N,11710.8341,W,14.50,302.60,170910,,,A*43
$GPRMC,235349.000,A,3244.5165,N,11710.8433,W,2.20,300.70,170910,,,A*70
$GPRMC,235352.000,A,3244.5201,N,11710.8515,W,13.90,297.20,170910,,,A*4F
$GPRMC,235355.000,A,3244.5270,N,11710.8677,W,22.80,297.00,170910,,,A*48
$GPRMC,235358.000,A,3244.5361,N,11710.8899,W,26.50,295.90,170910,,,A*48
$GPRMC,235401.000,A,3244.5483,N,11710.9169,W,32.80,298.10,170910,,,A*42
$GPRMC,235404.000,A,3244.5619,N,11710.9479,W,37.40,297.00,170910,,,A*45
$GPRMC,235407.000,A,3244.5773,N,11710.9841,W,42.30,296.20,170910,,,A*4A
$GPRMC,235410.000,A,3244.5950,N,11711.0244,W,46.40,298.20,170910,,,A*49
$GPRMC,235413.000,A,3244.6131,N,11711.0649,W,44.90,298.50,170910,,,A*47
$GPRMC,235416.000,A,3244.6312,N,11711.1038,W,45.20,298.10,170910,,,A*4E
$GPRMC,235419.000,A,3244.6508,N,11711.1463,W,48.60,299.10,170910,,,A*4E
$GPRMC,235422.000,A,3244.6705,N,11711.1882,W,48.40,298.70,170910,,,A*4F
$GPRMC,235425.000,A,3244.6903,N,11711.2309,W,50.50,298.50,170910,,,A*41
$GPRMC,235428.000,A,3244.7110,N,11711.2767,W,53.20,298.60,170910,,,A*4C
$GPRMC,235431.000,A,3244.7329,N,11711.3247,W,55.90,297.90,170910,,,A*47
$GPRMC,235434.000,A,3244.7564,N,11711.3766,W,58.60,297.00,170910,,,A*40
$GPRMC,235437.000,A,3244.7801,N,11711.4287,W,59.70,297.70,170910,,,A*47
$GPRMC,235440.000,A,3244.8048,N,11711.4815,W,60.40,298.20,170910,,,A*4F
$GPRMC,235443.000,A,3244.8295,N,11711.5342,W,60.30,299.50,170910,,,A*47
$GPRMC,235446.000,A,3244.8552,N,11711.5842,W,59.10,304.50,170910,,,A*48
$GPRMC,235449.000,A,3244.8840,N,11711.6307,W,59.10,308.70,170910,,,A*4E
$GPRMC,235452.000,A,3244.9159,N,11711.6747,W,57.90,312.20,170910,,,A*4C
$GPRMC,235455.000,A,3244.9500,N,11711.7144,W,56.30,317.30,170910,,,A*48
$GPRMC,235458.000,A,3244.9855,N,11711.7500,W,56.20,321.30,170910,,,A*48
$GPRMC,235501.000,A,3245.0226,N,11711.7839,W,56.40,322.50,170910,,,A*47
$GPRMC,235504.000,A,3245.0607,N,11711.8176,W,56.30,322.80,170910,,,A*42
$GPRMC,235507.000,A,3245.0980,N,11711.8509,W,55.30,323.00,170910,,,A*47
$GPRMC,235510.000,A,3245.1339,N,11711.8844,W,54.80,320.00,170910,,,A*45
$GPRMC,235513.000,A,3245.1680,N,11711.9212,W,55.80,315.40,170910,,,A*4A
$GPRMC,235516.000,A,3245.1989,N,11711.9623,W,56.00,310.10,170910,,,A*44
$GPRMC,235519.000,A,3245.2298,N,11712.0049,W,57.60,310.90,170910,,,A*4C
$GPRMC,235522.000,A,3245.2619,N,11712.0478,W,57.60,311.00,170910,,,A*47
$GPRMC,235525.000,A,3245.2933,N,11712.0899,W,55.90,312.90,170910,,,A*43
$GPRMC,235528.000,A,3245.3276,N,11712.1275,W,55.80,320.80,170910,,,A*4D
$GPRMC,235531.000,A,3245.3657,N,11712.1589,W,55.70,329.90,170910,,,A*41
$GPRMC,235534.000,A,3245.4080,N,11712.1838,W,57.50,336.10,170910,,,A*4E
$GPRMC,235537.000,A,3245.4545,N,11712.2000,W,58.00,346.30,170910,,,A*4E
$GPRMC,235540.000,A,3245.5020,N,11712.2118,W,57.60,347.70,170910,,,A*4D
$GPRMC,235543.000,A,3245.5486,N,11712.2242,W,56.50,347.50,170910,,,A*4A
$GPRMC,235546.000,A,3245.5932,N,11712.2354,W,54.60,347.70,170910,,,A*48
$GPRMC,235549.000,A,3245.6373,N,11712.2459,W,54.00,347.80,170910,,,A*48
$GPRMC,235552.000,A,3245.6816,N,11712.2567,W,53.90,347.70,170910,,,A*47
$GPRMC,235555.000,A,3245.7250,N,11712.2678,W,53.80,347.60,170910,,,A*44
$GPRMC,235558.000,A,3245.7693,N,11712.2791,W,55.50,347.80,170910,,,A*41
$GPRMC,235601.000,A,3245.8152,N,11712.2907,W,56.80,347.80,170910,,,A*44
$GPRMC,235604.000,A,3245.8619,N,11712.3026,W,56.90,348.10,170910,,,A*45
$GPRMC,235607.000,A,3245.9083,N,11712.3145,W,56.70,347.50,170910,,,A*43
$GPRMC,235610.000,A,3245.9538,N,11712.3264,W,55.30,347.50,170910,,,A*47
$GPRMC,235613.000,A,3245.9989,N,11712.3379,W,54.80,348.20,170910,,,A*4D
$GPRMC,235616.000,A,3246.0436,N,11712.3493,W,55.10,347.90,170910,,,A*44
$GPRMC,235619.000,A,3246.0891,N,11712.3606,W,56.60,347.80,170910,,,A*41
$GPRMC,235622.000,A,3246.1354,N,11712.3724,W,56.70,347.80,170910,,,A*4A
$GPRMC,235625.000,A,3246.1812,N,11712.3841,W,54.90,347.80,170910,,,A*44
$GPRMC,235628.000,A,3246.2253,N,11712.3950,W,53.20,348.00,170910,,,A*4F
$GPRMC,235631.000,A,3246.2692,N,11712.4062,W,54.40,347.80,170910,,,A*47
$GPRMC,235634.000,A,3246.3145,N,11712.4177,W,56.60,347.90,170910,,,A*4A
$GPRMC,235637.000,A,3246.3614,N,11712.4295,W,58.10,347.90,170910,,,A*4C
$GPRMC,235640.000,A,3246.4092,N,11712.4419,W,58.60,347.80,170910,,,A*47
$GPRMC,235643.000,A,3246.4568,N,11712.4541,W,57.40,347.80,170910,,,A*45
$GPRMC,235646.000,A,3246.5031,N,11712.4658,W,56.70,347.70,170910,,,A*4E
$GPRMC,235649.000,A,3246.5498,N,11712.4778,W,57.40,347.90,170910,,,A*49
$GPRMC,235652.000,A,3246.5968,N,11712.4898,W,57.60,348.00,170910,,,A*44
$GPRMC,235655.000,A,3246.6433,N,11712.5004,W,56.00,351.70,170910,,,A*47
$GPRMC,235658.000,A,3246.6898,N,11712.5055,W,56.00,358.30,170910,,,A*4E
$GPRMC,235701.000,A,3246.7367,N,11712.5046,W,56.30,03.10,170910,,,A*77
$GPRMC,235704.000,A,3246.7841,N,11712.4968,W,57.70,08.30,170910,,,A*75
$GPRMC,235707.000,A,3246.8316,N,11712.4884,W,57.10,08.50,170910,,,A*73
$GPRMC,235710.000,A,3246.8782,N,11712.4803,W,55.90,08.30,170910,,,A*7F
$GPRMC,235713.000,A,3246.9242,N,11712.4720,W,56.10,08.50,170910,,,A*77
$GPRMC,235716.000,A,3246.9710,N,11712.4637,W,57.00,08.50,170910,,,A*77
$GPRMC,235719.000,A,3247.0179,N,11712.4553,W,57.20,08.60,170910,,,A*79
$GPRMC,235722.000,A,3247.0646,N,11712.4469,W,55.60,08.40,170910,,,A*76
$GPRMC,235725.000,A,3247.1093,N,11712.4390,W,52.50,08.60,170910,,,A*79
$GPRMC,235728.000,A,3247.1519,N,11712.4314,W,51.30,08.30,170910,,,A*7F
$GPRMC,235731.000,A,3247.1942,N,11712.4239,W,50.80,08.10,170910,,,A*73
$GPRMC,235734.000,A,3247.2362,N,11712.4171,W,51.30,06.80,170910,,,A*7F
$GPRMC,235737.000,A,3247.2798,N,11712.4124,W,53.00,03.80,170910,,,A*79
$GPRMC,235740.000,A,3247.3248,N,11712.4102,W,54.50,00.90,170910,,,A*74
$GPRMC,235743.000,A,3247.3703,N,11712.4109,W,54.80,358.30,170910,,,A*4F
$GPRMC,235746.000,A,3247.4163,N,11712.4140,W,55.20,355.70,170910,,,A*42
$GPRMC,235749.000,A,3247.4621,N,11712.4201,W,55.40,353.00,170910,,,A*4D
$GPRMC,235752.000,A,3247.5094,N,11712.4286,W,56.90,350.40,170910,,,A*48
$GPRMC,235755.000,A,3247.5562,N,11712.4415,W,56.10,346.40,170910,,,A*40
$GPRMC,235758.000,A,3247.6013,N,11712.4559,W,55.60,344.00,170910,,,A*46
$GPRMC,235801.000,A,3247.6455,N,11712.4728,W,55.00,341.40,170910,,,A*40
$GPRMC,235804.000,A,3247.6874,N,11712.4917,W,53.60,337.60,170910,,,A*4B
$GPRMC,235807.000,A,3247.7289,N,11712.5136,W,54.80,335.10,170910,,,A*47
$GPRMC,235810.000,A,3247.7706,N,11712.5379,W,56.70,332.60,170910,,,A*47
$GPRMC,235813.000,A,3247.8132,N,11712.5638,W,57.00,333.10,170910,,,A*4A
$GPRMC,235816.000,A,3247.8557,N,11712.5899,W,56.50,332.80,170910,,,A*41
$GPRMC,235819.000,A,3247.8978,N,11712.6152,W,55.20,333.70,170910,,,A*48
$GPRMC,235822.000,A,3247.9379,N,11712.6380,W,53.40,334.10,170910,,,A*46
$GPRMC,235825.000,A,3247.9790,N,11712.6598,W,54.70,336.20,170910,,,A*48
$GPRMC,235828.000,A,3248.0218,N,11712.6817,W,56.80,336.70,170910,,,A*44
$GPRMC,235831.000,A,3248.0660,N,11712.7045,W,58.40,336.00,170910,,,A*4C
$GPRMC,235834.000,A,3248.1102,N,11712.7285,W,57.90,334.80,170910,,,A*4D
$GPRMC,235837.000,A,3248.1531,N,11712.7535,W,57.00,333.30,170910,,,A*43
$GPRMC,235840.000,A,3248.1946,N,11712.7799,W,55.90,331.60,170910,,,A*47
$GPRMC,235843.000,A,3248.2352,N,11712.8069,W,55.50,330.10,170910,,,A*45
$GPRMC,235846.000,A,3248.2753,N,11712.8349,W,55.80,328.60,170910,,,A*47
$GPRMC,235849.000,A,3248.3151,N,11712.8646,W,56.90,327.00,170910,,,A*4C
$GPRMC,235852.000,A,3248.3549,N,11712.8960,W,57.70,325.70,170910,,,A*4A
$GPRMC,235855.000,A,3248.3947,N,11712.9287,W,58.20,325.10,170910,,,A*40
$GPRMC,235858.000,A,3248.4333,N,11712.9618,W,57.20,324.30,170910,,,A*4D
$GPRMC,235901.000,A,3248.4721,N,11712.9949,W,57.00,324.60,170910,,,A*4B
$GPRMC,235904.000,A,3248.5111,N,11713.0276,W,57.80,324.70,170910,,,A*4C
$GPRMC,235907.000,A,3248.5514,N,11713.0604,W,58.80,326.10,170910,,,A*44
$GPRMC,235910.000,A,3248.5925,N,11713.0931,W,59.30,326.10,170910,,,A*4F
$GPRMC,235913.000,A,3248.6338,N,11713.1258,W,59.90,326.00,170910,,,A*47
$GPRMC,235916.000,A,3248.6753,N,11713.1589,W,60.00,326.00,170910,,,A*43
$GPRMC,235919.000,A,3248.7167,N,11713.1920,W,59.20,326.20,170910,,,A*49
$GPRMC,235922.000,A,3248.7578,N,11713.2232,W,58.70,327.90,170910,,,A*4E
$GPRMC,235925.000,A,3248.7993,N,11713.2534,W,58.50,328.80,170910,,,A*4D
$GPRMC,235928.000,A,3248.8399,N,11713.2829,W,55.60,328.80,170910,,,A*40
$GPRMC,235931.000,A,3248.8784,N,11713.3111,W,53.10,328.00,170910,,,A*4A
$GPRMC,235934.000,A,3248.9161,N,11713.3396,W,54.10,326.20,170910,,,A*45
$GPRMC,235937.000,A,3248.9530,N,11713.3692,W,52.30,325.60,170910,,,A*44
$GPRMC,235940.000,A,3248.9877,N,11713.3980,W,50.60,324.60,170910,,,A*40
$GPRMC,235943.000,A,3249.0227,N,11713.4275,W,51.50,324.00,170910,,,A*46
$GPRMC,235946.000,A,3249.0566,N,11713.4582,W,51.30,321.10,170910,,,A*4C
$GPRMC,235949.000,A,3249.0902,N,11713.4919,W,54.60,319.10,170910,,,A*48
$GPRMC,235952.000,A,3249.1253,N,11713.5283,W,56.20,318.60,170910,,,A*45
$GPRMC,235955.000,A,3249.1606,N,11713.5647,W,56.20,318.90,170910,,,A*45
$GPRMC,235958.000,A,3249.1954,N,11713.6008,W,55.10,319.00,170910,,,A*46
$GPRMC,000001.000,A,3249.2293,N,11713.6360,W,52.60,319.10,180910,,,A*47
$GPRMC,000004.000,A,3249.2616,N,11713.6694,W,50.80,319.00,180910,,,A*48
$GPRMC,000007.000,A,3249.2937,N,11713.7026,W,51.60,319.30,180910,,,A*45
$GPRMC,000010.000,A,3249.3255,N,11713.7356,W,50.30,318.90,180910,,,A*46
$GPRMC,000013.000,A,3249.3570,N,11713.7680,W,49.30,319.30,180910,,,A*48
$GPRMC,000016.000,A,3249.3875,N,11713.7992,W,47.40,319.10,180910,,,A*42
$GPRMC,000019.000,A,3249.4177,N,11713.8300,W,48.30,320.70,180910,,,A*4B
$GPRMC,000022.000,A,3249.4496,N,11713.8592,W,48.80,322.90,180910,,,A*43
$GPRMC,000025.000,A,3249.4848,N,11713.8868,W,52.50,330.00,180910,,,A*4F
$GPRMC,000028.000,A,3249.5250,N,11713.9109,W,54.70,335.90,180910,,,A*47
$GPRMC,000031.000,A,3249.5679,N,11713.9311,W,55.70,340.20,180910,,,A*43
$GPRMC,000034.000,A,3249.6132,N,11713.9461,W,56.30,345.40,180910,,,A*49
$GPRMC,000037.000,A,3249.6614,N,11713.9550,W,58.60,352.70,180910,,,A*44
$GPRMC,000040.000,A,3249.7112,N,11713.9591,W,59.90,358.40,180910,,,A*4E
$GPRMC,000043.000,A,3249.7616,N,11713.9596,W,60.50,359.80,180910,,,A*42
$GPRMC,000046.000,A,3249.8120,N,11713.9601,W,60.20,359.50,180910,,,A*4D
$GPRMC,000049.000,A,3249.8619,N,11713.9600,W,59.20,00.00,180910,,,A*7E
$GPRMC,000052.000,A,3249.9113,N,11713.9597,W,59.00,00.30,180910,,,A*74
$GPRMC,000055.000,A,3249.9603,N,11713.9605,W,58.60,358.00,180910,,,A*47
$GPRMC,000058.000,A,3250.0094,N,11713.9675,W,59.40,351.40,180910,,,A*4A
$GPRMC,000101.000,A,3250.0575,N,11713.9817,W,58.60,343.80,180910,,,A*4B
$GPRMC,000104.000,A,3250.1044,N,11714.0005,W,59.40,340.20,180910,,,A*47
$GPRMC,000107.000,A,3250.1514,N,11714.0212,W,60.70,339.20,180910,,,A*47
$GPRMC,000110.000,A,3250.1995,N,11714.0429,W,61.20,339.10,180910,,,A*4D
$GPRMC,000113.000,A,3250.2462,N,11714.0641,W,59.70,339.10,180910,,,A*4A
$GPRMC,000116.000,A,3250.2923,N,11714.0848,W,58.50,338.60,180910,,,A*45
$GPRMC,000119.000,A,3250.3382,N,11714.1056,W,59.20,339.00,180910,,,A*4D
$GPRMC,000122.000,A,3250.3853,N,11714.1268,W,60.20,339.10,180910,,,A*46
$GPRMC,000125.000,A,3250.4332,N,11714.1476,W,60.90,340.10,180910,,,A*46
$GPRMC,000128.000,A,3250.4833,N,11714.1653,W,61.50,344.40,180910,,,A*48
$GPRMC,000131.000,A,3250.5340,N,11714.1765,W,61.00,351.00,180910,,,A*4F
$GPRMC,000134.000,A,3250.5862,N,11714.1809,W,62.30,357.80,180910,,,A*4A
$GPRMC,000137.000,A,3250.6377,N,11714.1792,W,62.40,04.60,180910,,,A*74
$GPRMC,000140.000,A,3250.6888,N,11714.1722,W,62.00,07.60,180910,,,A*73
$GPRMC,000143.000,A,3250.7399,N,11714.1644,W,61.10,07.40,180910,,,A*7B
$GPRMC,000146.000,A,3250.7891,N,11714.1567,W,58.00,07.10,180910,,,A*71
$GPRMC,000149.000,A,3250.8373,N,11714.1496,W,58.60,08.30,180910,,,A*72
$GPRMC,000152.000,A,3250.8857,N,11714.1380,W,59.20,14.10,180910,,,A*7F
$GPRMC,000155.000,A,3250.9326,N,11714.1212,W,58.10,20.00,180910,,,A*7A
$GPRMC,000158.000,A,3250.9774,N,11714.0989,W,58.10,25.40,180910,,,A*7D
$GPRMC,000201.000,A,3251.0198,N,11714.0720,W,57.60,30.30,180910,,,A*78
$GPRMC,000204.000,A,3251.0616,N,11714.0430,W,58.30,30.30,180910,,,A*74
$GPRMC,000207.000,A,3251.1038,N,11714.0136,W,59.10,30.60,180910,,,A*79
$GPRMC,000210.000,A,3251.1466,N,11713.9837,W,59.60,30.40,180910,,,A*73
$GPRMC,000213.000,A,3251.1897,N,11713.9537,W,60.30,30.60,180910,,,A*72
$GPRMC,000216.000,A,3251.2334,N,11713.9231,W,60.90,30.50,180910,,,A*7E
$GPRMC,000219.000,A,3251.2778,N,11713.8934,W,61.30,27.60,180910,,,A*7C
$GPRMC,000222.000,A,3251.3245,N,11713.8680,W,61.80,21.20,180910,,,A*77
$GPRMC,000225.000,A,3251.3734,N,11713.8487,W,61.90,16.10,180910,,,A*70
$GPRMC,000228.000,A,3251.4236,N,11713.8353,W,61.30,09.40,180910,,,A*72
$GPRMC,000231.000,A,3251.4737,N,11713.8279,W,59.60,04.70,180910,,,A*77
$GPRMC,000234.000,A,3251.5235,N,11713.8231,W,59.90,04.90,180910,,,A*79
$GPRMC,000237.000,A,3251.5737,N,11713.8181,W,60.40,04.60,180910,,,A*7D
$GPRMC,000240.000,A,3251.6237,N,11713.8134,W,59.30,04.80,180910,,,A*76
$GPRMC,000243.000,A,3251.6731,N,11713.8086,W,59.60,04.70,180910,,,A*74
$GPRMC,000246.000,A,3251.7227,N,11713.8037,W,60.10,04.80,180910,,,A*7A
$GPRMC,000249.000,A,3251.7734,N,11713.7987,W,61.70,04.70,180910,,,A*77
$GPRMC,000252.000,A,3251.8242,N,11713.7939,W,60.70,04.50,180910,,,A*70
$GPRMC,000255.000,A,3251.8750,N,11713.7890,W,61.70,04.60,180910,,,A*71
$GPRMC,000258.000,A,3251.9260,N,11713.7840,W,60.60,04.90,180910,,,A*79
$GPRMC,000301.000,A,3251.9760,N,11713.7790,W,60.70,04.60,180910,,,A*7D
$GPRMC,000304.000,A,3252.0269,N,11713.7740,W,61.70,05.00,180910,,,A*75
$GPRMC,000307.000,A,3252.0781,N,11713.7688,W,61.30,04.70,180910,,,A*72
$GPRMC,000310.000,A,3252.1288,N,11713.7640,W,60.20,04.40,180910,,,A*7E
$GPRMC,000313.000,A,3252.1785,N,11713.7591,W,59.20,04.70,180910,,,A*73
$GPRMC,000316.000,A,3252.2277,N,11713.7546,W,58.90,04.60,180910,,,A*7C
$GPRMC,000319.000,A,3252.2764,N,11713.7497,W,58.40,04.80,180910,,,A*7A
$GPRMC,000322.000,A,3252.3251,N,11713.7449,W,58.40,04.80,180910,,,A*73
$GPRMC,000325.000,A,3252.3743,N,11713.7402,W,59.50,04.80,180910,,,A*7D
$GPRMC,000328.000,A,3252.4238,N,11713.7356,W,59.30,04.70,180910,,,A*71
$GPRMC,000331.000,A,3252.4732,N,11713.7309,W,59.70,04.70,180910,,,A*78
$GPRMC,000334.000,A,3252.5224,N,11713.7258,W,57.80,05.00,180910,,,A*7C
$GPRMC,000337.000,A,3252.5702,N,11713.7213,W,57.20,04.50,180910,,,A*7F
$GPRMC,000340.000,A,3252.6169,N,11713.7169,W,56.00,04.60,180910,,,A*79
$GPRMC,000343.000,A,3252.6642,N,11713.7122,W,57.70,04.80,180910,,,A*73
$GPRMC,000346.000,A,3252.7127,N,11713.7076,W,59.10,04.70,180910,,,A*74
$GPRMC,000349.000,A,3252.7623,N,11713.7025,W,60.50,04.70,180910,,,A*70
$GPRMC,000352.000,A,3252.8130,N,11713.6976,W,61.20,04.70,180910,,,A*78
$GPRMC,000355.000,A,3252.8642,N,11713.6926,W,61.20,04.80,180910,,,A*77
$GPRMC,000358.000,A,3252.9144,N,11713.6879,W,59.70,04.40,180910,,,A*73
$GPRMC,000401.000,A,3252.9645,N,11713.6831,W,60.20,04.80,180910,,,A*71
$GPRMC,000404.000,A,3253.0149,N,11713.6779,W,60.60,05.00,180910,,,A*79
$GPRMC,000407.000,A,3253.0661,N,11713.6724,W,61.10,04.60,180910,,,A*7E
$GPRMC,000410.000,A,3253.1166,N,11713.6672,W,60.20,04.80,180910,,,A*77
$GPRMC,000413.000,A,3253.1665,N,11713.6621,W,59.20,04.60,180910,,,A*72
$GPRMC,000416.000,A,3253.2158,N,11713.6573,W,59.70,04.50,180910,,,A*7F
$GPRMC,000419.000,A,3253.2665,N,11713.6521,W,60.60,04.90,180910,,,A*79
$GPRMC,000422.000,A,3253.3166,N,11713.6473,W,60.00,04.50,180910,,,A*78
$GPRMC,000425.000,A,3253.3666,N,11713.6424,W,60.20,04.70,180910,,,A*7A
$GPRMC,000428.000,A,3253.4168,N,11713.6373,W,59.80,04.60,180910,,,A*7D
$GPRMC,000431.000,A,3253.4670,N,11713.6325,W,61.30,04.80,180910,,,A*76
$GPRMC,000434.000,A,3253.5179,N,11713.6274,W,61.30,04.60,180910,,,A*77
$GPRMC,000437.000,A,3253.5681,N,11713.6218,W,60.00,06.30,180910,,,A*7B
$GPRMC,000440.000,A,3253.6173,N,11713.6131,W,59.30,10.90,180910,,,A*7E
$GPRMC,000443.000,A,3253.6655,N,11713.6000,W,59.10,15.20,180910,,,A*71
$GPRMC,000446.000,A,3253.7127,N,11713.5829,W,59.10,18.60,180910,,,A*7E
$GPRMC,000449.000,A,3253.7598,N,11713.5642,W,59.70,18.60,180910,,,A*74
$GPRMC,000452.000,A,3253.8066,N,11713.5454,W,58.60,18.60,180910,,,A*70
$GPRMC,000455.000,A,3253.8525,N,11713.5272,W,57.40,18.50,180910,,,A*79
$GPRMC,000458.000,A,3253.8980,N,11713.5096,W,56.90,18.40,180910,,,A*72
$GPRMC,000501.000,A,3253.9426,N,11713.4921,W,55.50,18.30,180910,,,A*73
$GPRMC,000504.000,A,3253.9870,N,11713.4747,W,56.40,18.30,180910,,,A*75
$GPRMC,000507.000,A,3254.0324,N,11713.4574,W,58.00,17.90,180910,,,A*7F
$GPRMC,000510.000,A,3254.0795,N,11713.4414,W,59.80,13.70,180910,,,A*73
$GPRMC,000513.000,A,3254.1291,N,11713.4308,W,60.70,07.40,180910,,,A*79
$GPRMC,000516.000,A,3254.1794,N,11713.4261,W,60.70,02.60,180910,,,A*75
$GPRMC,000519.000,A,3254.2304,N,11713.4272,W,60.90,356.00,180910,,,A*4C
$GPRMC,000522.000,A,3254.2806,N,11713.4343,W,59.80,350.00,180910,,,A*43
$GPRMC,000525.000,A,3254.3286,N,11713.4472,W,58.10,344.20,180910,,,A*4D
$GPRMC,000528.000,A,3254.3745,N,11713.4659,W,58.50,338.70,180910,,,A*4B
$GPRMC,000531.000,A,3254.4195,N,11713.4901,W,59.40,332.90,180910,,,A*49
$GPRMC,000534.000,A,3254.4628,N,11713.5198,W,59.90,327.60,180910,,,A*42
$GPRMC,000537.000,A,3254.5043,N,11713.5538,W,60.10,324.50,180910,,,A*47
$GPRMC,000540.000,A,3254.5440,N,11713.5874,W,54.70,324.80,180910,,,A*49
$GPRMC,000543.000,A,3254.5776,N,11713.6147,W,42.20,327.80,180910,,,A*47
$GPRMC,000546.000,A,3254.6039,N,11713.6330,W,31.10,331.70,180910,,,A*40
$GPRMC,000549.000,A,3254.6239,N,11713.6456,W,24.40,332.10,180910,,,A*4E
$GPRMC,000552.000,A,3254.6408,N,11713.6559,W,21.00,333.60,180910,,,A*49
$GPRMC,000555.000,A,3254.6532,N,11713.6640,W,13.10,326.90,180910,,,A*46
$GPRMC,000558.000,A,3254.6605,N,11713.6699,W,8.70,327.90,180910,,,A*75
$GPRMC,000607.000,A,3254.6688,N,11713.6749,W,4.90,333.50,180910,,,A*7E
$GPRMC,000610.000,A,3254.6747,N,11713.6783,W,11.80,332.10,180910,,,A*4C
$GPRMC,000613.000,A,3254.6836,N,11713.6849,W,10.90,328.70,180910,,,A*42
$GPRMC,000616.000,A,3254.6886,N,11713.6880,W,5.10,335.00,180910,,,A*7E
$GPRMC,000619.000,A,3254.6924,N,11713.6904,W,6.70,334.00,180910,,,A*71
$GPRMC,000622.000,A,3254.6970,N,11713.6926,W,6.10,339.40,180910,,,A*77
$GPRMC,000625.000,A,3254.7025,N,11713.6956,W,7.30,333.50,180910,,,A*77
$GPRMC,000631.000,A,3254.7093,N,11713.7011,W,4.70,319.70,180910,,,A*79
$GPRMC,000634.000,A,3254.7135,N,11713.7046,W,7.20,328.60,180910,,,A*76
$GPRMC,000637.000,A,3254.7188,N,11713.7078,W,6.90,334.70,180910,,,A*78
$GPRMC,000640.000,A,3254.7237,N,11713.7105,W,6.70,334.20,180910,,,A*7F
$GPRMC,000643.000,A,3254.7285,N,11713.7134,W,5.40,334.20,180910,,,A*77
$GPRMC,000649.000,A,3254.7353,N,11713.7173,W,4.10,334.20,180910,,,A*70
$GPRMC,000652.000,A,3254.7427,N,11713.7216,W,15.70,334.20,180910,,,A*48
$GPRMC,000655.000,A,3254.7538,N,11713.7284,W,13.50,333.00,180910,,,A*4A
$GPRMC,000658.000,A,3254.7624,N,11713.7336,W,9.90,332.60,180910,,,A*71
$GPRMC,000701.000,A,3254.7694,N,11713.7382,W,9.60,331.50,180910,,,A*77
$GPRMC,000704.000,A,3254.7770,N,11713.7432,W,11.10,331.90,180910,,,A*47
$GPRMC,000707.000,A,3254.7852,N,11713.7486,W,11.10,331.30,180910,,,A*4E
$GPRMC,000710.000,A,3254.7942,N,11713.7543,W,12.50,331.80,180910,,,A*4C
$GPRMC,000713.000,A,3254.8038,N,11713.7607,W,13.30,331.60,180910,,,A*4E
$GPRMC,000716.000,A,3254.8140,N,11713.7671,W,13.40,332.40,180910,,,A*42
$GPRMC,000719.000,A,3254.8230,N,11713.7736,W,12.80,324.70,180910,,,A*42
$GPRMC,000722.000,A,3254.8330,N,11713.7814,W,15.00,329.10,180910,,,A*40
$GPRMC,000725.000,A,3254.8448,N,11713.7897,W,17.90,328.40,180910,,,A*4B
$GPRMC,000728.000,A,3254.8585,N,11713.7998,W,19.10,328.10,180910,,,A*4B
$GPRMC,000731.000,A,3254.8706,N,11713.8091,W,16.80,327.60,180910,,,A*4B
$GPRMC,000734.000,A,3254.8785,N,11713.8161,W,12.00,323.90,180910,,,A*4C
$GPRMC,000737.000,A,3254.8869,N,11713.8232,W,14.50,323.20,180910,,,A*4F
$GPRMC,000740.000,A,3254.8966,N,11713.8317,W,14.30,323.30,180910,,,A*40
$GPRMC,000743.000,A,3254.9029,N,11713.8382,W,6.90,308.30,180910,,,A*7C
$GPRMC,000746.000,A,3254.9061,N,11713.8417,W,4.80,325.80,180910,,,A*79
$GPRMC,000749.000,A,3254.9108,N,11713.8455,W,10.10,319.90,180910,,,A*4C
$GPRMC,000752.000,A,3254.9186,N,11713.8536,W,13.70,319.00,180910,,,A*48
$GPRMC,000755.000,A,3254.9274,N,11713.8629,W,13.40,317.00,180910,,,A*41
$GPRMC,000758.000,A,3254.9358,N,11713.8724,W,14.50,314.90,180910,,,A*43
$GPRMC,000801.000,A,3254.9449,N,11713.8832,W,15.50,314.30,180910,,,A*44
$GPRMC,000804.000,A,3254.9538,N,11713.8943,W,15.10,312.20,180910,,,A*42
$GPRMC,000807.000,A,3254.9614,N,11713.9044,W,11.50,311.40,180910,,,A*46
$GPRMC,000810.000,A,3254.9673,N,11713.9123,W,10.50,311.30,180910,,,A*47
$GPRMC,000813.000,A,3254.9738,N,11713.9216,W,12.10,309.90,180910,,,A*4A
$GPRMC,000816.000,A,3254.9799,N,11713.9304,W,11.40,309.30,180910,,,A*4A
$GPRMC,000819.000,A,3254.9869,N,11713.9406,W,14.70,309.20,180910,,,A*47
$GPRMC,000822.000,A,3254.9953,N,11713.9528,W,16.50,308.70,180910,,,A*4E
$GPRMC,000825.000,A,3255.0038,N,11713.9654,W,16.20,308.40,180910,,,A*49
$GPRMC,000828.000,A,3255.0126,N,11713.9785,W,16.60,308.20,180910,,,A*45
$GPRMC,000831.000,A,3255.0211,N,11713.9909,W,15.70,307.80,180910,,,A*47
$GPRMC,000834.000,A,3255.0287,N,11714.0021,W,14.40,308.60,180910,,,A*43
$GPRMC,000837.000,A,3255.0361,N,11714.0118,W,13.60,310.80,180910,,,A*40
$GPRMC,000840.000,A,3255.0441,N,11714.0233,W,15.40,309.90,180910,,,A*42
$GPRMC,000843.000,A,3255.0523,N,11714.0350,W,14.10,311.20,180910,,,A*46
$GPRMC,000846.000,A,3255.0579,N,11714.0419,W,6.40,318.70,180910,,,A*7C
$GPRMC,000916.000,A,3255.0665,N,11714.0537,W,7.60,313.10,180910,,,A*75
$GPRMC,000919.000,A,3255.0724,N,11714.0617,W,11.10,314.00,180910,,,A*49
$GPRMC,000922.000,A,3255.0790,N,11714.0698,W,11.30,314.30,180910,,,A*48
$GPRMC,000925.000,A,3255.0857,N,11714.0774,W,10.80,314.70,180910,,,A*46
$GPRMC,000928.000,A,3255.0934,N,11714.0872,W,13.50,312.90,180910,,,A*40
$GPRMC,000931.000,A,3255.1016,N,11714.0966,W,13.30,316.20,180910,,,A*4D
$GPRMC,000934.000,A,3255.1104,N,11714.1061,W,15.00,317.10,180910,,,A*42
$GPRMC,000937.000,A,3255.1197,N,11714.1162,W,13.40,318.10,180910,,,A*44
$GPRMC,000946.000,A,3255.1315,N,11714.1286,W,5.10,318.60,180910,,,A*76
$GPRMC,000949.000,A,3255.1347,N,11714.1322,W,4.90,318.30,180910,,,A*7D
$GPRMC,000952.000,A,3255.1373,N,11714.1354,W,4.20,313.20,180910,,,A*70
$GPRMC,001007.000,A,3255.1427,N,11714.1405,W,3.00,319.40,180910,,,A*74
$GPRMC,001010.000,A,3255.1456,N,11714.1437,W,5.40,315.60,180910,,,A*79
$GPRMC,001013.000,A,3255.1495,N,11714.1492,W,7.60,309.20,180910,,,A*73
$GPRMC,001016.000,A,3255.1587,N,11714.1566,W,12.10,318.40,180910,,,A*4B
$GPRMC,001019.000,A,3255.1691,N,11714.1660,W,16.50,322.40,180910,,,A*4C
$GPRMC,001022.000,A,3255.1808,N,11714.1765,W,18.70,323.60,180910,,,A*41
$GPRMC,001025.000,A,3255.1939,N,11714.1880,W,19.60,324.30,180910,,,A*43
$GPRMC,001028.000,A,3255.2074,N,11714.1993,W,18.60,325.20,180910,,,A*4F
$GPRMC,001031.000,A,3255.2198,N,11714.2091,W,16.10,326.70,180910,,,A*43
$GPRMC,001034.000,A,3255.2289,N,11714.2160,W,10.30,327.70,180910,,,A*4F
$GPRMC,001037.000,A,3255.2345,N,11714.2201,W,7.00,328.20,180910,,,A*76
$GPRMC,001040.000,A,3255.2402,N,11714.2244,W,9.20,328.10,180910,,,A*7C
$GPRMC,001043.000,A,3255.2479,N,11714.2301,W,11.90,328.80,180910,,,A*48
$GPRMC,001046.000,A,3255.2564,N,11714.2359,W,11.40,329.60,180910,,,A*4F
$GPRMC,001049.000,A,3255.2651,N,11714.2420,W,13.00,330.30,180910,,,A*47
$GPRMC,001052.000,A,3255.2742,N,11714.2481,W,11.60,330.90,180910,,,A*4B
$GPRMC,001101.000,A,3255.2859,N,11714.2555,W,4.10,328.40,180910,,,A*76
$GPRMC,001104.000,A,3255.2898,N,11714.2579,W,5.50,332.60,180910,,,A*7C
$GPRMC,001107.000,A,3255.2941,N,11714.2605,W,5.30,333.40,180910,,,A*77
$GPRMC,001110.000,A,3255.2977,N,11714.2627,W,4.80,333.30,180910,,,A*79
$GPRMC,001113.000,A,3255.3011,N,11714.2646,W,4.40,334.60,180910,,,A*7B
$GPRMC,001116.000,A,3255.3047,N,11714.2666,W,4.90,333.90,180910,,,A*7A
$GPRMC,001119.000,A,3255.3087,N,11714.2687,W,6.10,333.70,180910,,,A*72
$GPRMC,001122.000,A,3255.3140,N,11714.2717,W,7.90,333.60,180910,,,A*70
$GPRMC,001125.000,A,3255.3213,N,11714.2760,W,10.10,334.70,180910,,,A*4A
$GPRMC,001128.000,A,3255.3292,N,11714.2802,W,9.60,333.40,180910,,,A*7E
$GPRMC,001131.000,A,3255.3368,N,11714.2842,W,9.70,336.10,180910,,,A*77
$GPRMC,001134.000,A,3255.3431,N,11714.2877,W,8.20,336.70,180910,,,A*7D
$GPRMC,001137.000,A,3255.3496,N,11714.2905,W,8.30,339.80,180910,,,A*76
$GPRMC,001207.000,A,3255.3598,N,11714.2958,W,2.90,329.10,180910,,,A*79
$GPRMC,001228.000,A,3255.3750,N,11714.3025,W,8.30,340.00,180910,,,A*7E
$GPRMC,001231.000,A,3255.3840,N,11714.3065,W,9.20,339.00,180910,,,A*72
$GPRMC,001234.000,A,3255.3908,N,11714.3092,W,6.50,341.30,180910,,,A*76
$GPRMC,001243.000,A,3255.3966,N,11714.3115,W,5.20,341.30,180910,,,A*74
$GPRMC,001246.000,A,3255.4035,N,11714.3144,W,9.50,339.60,180910,,,A*7C
$GPRMC,001249.000,A,3255.4126,N,11714.3179,W,11.20,342.00,180910,,,A*4A
$GPRMC,001252.000,A,3255.4215,N,11714.3217,W,11.20,340.80,180910,,,A*42
$GPRMC,001255.000,A,3255.4304,N,11714.3250,W,11.10,342.60,180910,,,A*48
$GPRMC,001258.000,A,3255.4381,N,11714.3279,W,8.20,343.90,180910,,,A*76
$GPRMC,001319.000,A,3255.4475,N,11714.3305,W,5.00,339.60,180910,,,A*79
$GPRMC,001322.000,A,3255.4555,N,11714.3331,W,10.60,344.00,180910,,,A*4B
$GPRMC,001325.000,A,3255.4643,N,11714.3358,W,10.40,345.20,180910,,,A*46
$GPRMC,001328.000,A,3255.4716,N,11714.3380,W,7.40,345.20,180910,,,A*79
$GPRMC,001331.000,A,3255.4770,N,11714.3400,W,6.20,343.80,180910,,,A*75
$GPRMC,001334.000,A,3255.4820,N,11714.3417,W,6.40,343.20,180910,,,A*70
$GPRMC,001337.000,A,3255.4882,N,11714.3436,W,7.90,344.00,180910,,,A*71
$GPRMC,001340.000,A,3255.4947,N,11714.3457,W,8.40,343.90,180910,,,A*72
$GPRMC,001343.000,A,3255.5025,N,11714.3481,W,9.80,346.60,180910,,,A*71
$GPRMC,001346.000,A,3255.5128,N,11714.3517,W,13.20,344.60,180910,,,A*45
$GPRMC,001349.000,A,3255.5228,N,11714.3550,W,11.50,344.10,180910,,,A*48
$GPRMC,001352.000,A,3255.5322,N,11714.3582,W,11.90,344.50,180910,,,A*4E
$GPRMC,001355.000,A,3255.5418,N,11714.3617,W,12.10,344.20,180910,,,A*44
$GPRMC,001358.000,A,3255.5515,N,11714.3649,W,11.50,344.10,180910,,,A*4A
$GPRMC,001416.000,A,3255.5695,N,11714.3711,W,4.40,343.60,180910,,,A*75
$GPRMC,001419.000,A,3255.5734,N,11714.3724,W,5.10,344.00,180910,,,A*73
$GPRMC,001422.000,A,3255.5789,N,11714.3742,W,8.20,344.40,180910,,,A*77
$GPRMC,001425.000,A,3255.5865,N,11714.3767,W,10.80,343.80,180910,,,A*42
$GPRMC,001428.000,A,3255.5963,N,11714.3800,W,12.80,344.10,180910,,,A*4A
$GPRMC,001431.000,A,3255.6079,N,11714.3841,W,15.50,343.90,180910,,,A*43
$GPRMC,001434.000,A,3255.6203,N,11714.3881,W,14.90,344.20,180910,,,A*44
$GPRMC,001437.000,A,3255.6319,N,11714.3918,W,14.30,344.40,180910,,,A*40
$GPRMC,001440.000,A,3255.6444,N,11714.3959,W,16.50,343.60,180910,,,A*4B
$GPRMC,001443.000,A,3255.6580,N,11714.4007,W,17.20,344.10,180910,,,A*42
$GPRMC,001446.000,A,3255.6719,N,11714.4049,W,17.60,345.50,180910,,,A*4E
$GPRMC,001449.000,A,3255.6869,N,11714.4097,W,18.00,345.30,180910,,,A*45
$GPRMC,001452.000,A,3255.7007,N,11714.4138,W,16.20,344.30,180910,,,A*47
$GPRMC,001455.000,A,3255.7125,N,11714.4176,W,14.30,344.80,180910,,,A*43
$GPRMC,001458.000,A,3255.7229,N,11714.4206,W,11.80,344.50,180910,,,A*46
$GPRMC,001510.000,A,3255.7285,N,11714.4222,W,1.50,332.20,180910,,,A*71
$GPRMC,001513.000,A,3255.7355,N,11714.4243,W,8.90,346.70,180910,,,A*7A
$GPRMC,001516.000,A,3255.7430,N,11714.4260,W,8.50,346.60,180910,,,A*77
$GPRMC,001519.000,A,3255.7492,N,11714.4277,W,7.40,347.00,180910,,,A*7F
$GPRMC,001522.000,A,3255.7552,N,11714.4294,W,7.40,346.80,180910,,,A*7E
$GPRMC,001525.000,A,3255.7620,N,11714.4314,W,8.20,347.20,180910,,,A*74
$GPRMC,001528.000,A,3255.7705,N,11714.4332,W,9.50,348.30,180910,,,A*73
$GPRMC,001531.000,A,3255.7776,N,11714.4348,W,8.80,348.60,180910,,,A*7B
$GPRMC,001534.000,A,3255.7800,N,11714.4354,W,5.60,348.00,180910,,,A*78
$GPRMC,001543.000,A,3255.7914,N,11714.4379,W,8.40,349.00,180910,,,A*7D
$GPRMC,001546.000,A,3255.7981,N,11714.4394,W,8.80,348.60,180910,,,A*7C
$GPRMC,001549.000,A,3255.8053,N,11714.4412,W,8.50,348.80,180910,,,A*70
$GPRMC,001552.000,A,3255.8097,N,11714.4422,W,6.30,348.20,180910,,,A*73
$GPRMC,001558.000,A,3255.8137,N,11714.4431,W,5.90,352.50,180910,,,A*75
$GPRMC,001601.000,A,3255.8187,N,11714.4443,W,6.00,348.00,180910,,,A*70
$GPRMC,001604.000,A,3255.8226,N,11714.4446,W,5.30,350.60,180910,,,A*77
$GPRMC,001607.000,A,3255.8272,N,11714.4453,W,5.50,350.90,180910,,,A*78
$GPRMC,001610.000,A,3255.8345,N,11714.4465,W,8.60,353.60,180910,,,A*7C
$GPRMC,001613.000,A,3255.8437,N,11714.4474,W,11.60,353.60,180910,,,A*45
$GPRMC,001616.000,A,3255.8576,N,11714.4497,W,16.20,351.10,180910,,,A*4F
$GPRMC,001619.000,A,3255.8710,N,11714.4519,W,15.60,350.80,180910,,,A*4A
$GPRMC,001622.000,A,3255.8839,N,11714.4542,W,15.90,352.00,180910,,,A*4D
$GPRMC,001625.000,A,3255.8966,N,11714.4554,W,14.70,352.80,180910,,,A*41
$GPRMC,001628.000,A,3255.9068,N,11714.4569,W,12.30,353.50,180910,,,A*4A
$GPRMC,001631.000,A,3255.9196,N,11714.4582,W,15.20,354.90,180910,,,A*4A
$GPRMC,001634.000,A,3255.9358,N,11714.4602,W,17.10,354.20,180910,,,A*4E
$GPRMC,001637.000,A,3255.9492,N,11714.4618,W,14.90,355.00,180910,,,A*4F
$GPRMC,001640.000,A,3255.9625,N,11714.4639,W,15.50,354.70,180910,,,A*49
$GPRMC,001643.000,A,3255.9741,N,11714.4656,W,10.40,355.70,180910,,,A*45
$GPRMC,001649.000,A,3255.9834,N,11714.4665,W,4.20,357.40,180910,,,A*70
$GPRMC,001652.000,A,3255.9885,N,11714.4667,W,6.70,00.80,180910,,,A*48
$GPRMC,001655.000,A,3255.9983,N,11714.4673,W,11.20,357.60,180910,,,A*41
$GPRMC,001658.000,A,3256.0122,N,11714.4693,W,15.10,354.70,180910,,,A*4E
$GPRMC,001701.000,A,3256.0252,N,11714.4700,W,12.50,356.50,180910,,,A*4F
$GPRMC,001704.000,A,3256.0358,N,11714.4709,W,12.10,356.30,180910,,,A*4A
$GPRMC,001707.000,A,3256.0455,N,11714.4716,W,11.50,357.20,180910,,,A*4A
$GPRMC,001710.000,A,3256.0555,N,11714.4727,W,11.30,356.10,180910,,,A*4B
$GPRMC,001713.000,A,3256.0650,N,11714.4733,W,11.20,356.60,180910,,,A*4D
$GPRMC,001719.000,A,3256.0720,N,11714.4740,W,5.10,356.70,180910,,,A*72
$GPRMC,001722.000,A,3256.0779,N,11714.4744,W,9.20,356.50,180910,,,A*7F
$GPRMC,001725.000,A,3256.0868,N,11714.4751,W,11.20,356.50,180910,,,A*4A
$GPRMC,001728.000,A,3256.0952,N,11714.4759,W,9.40,356.40,180910,,,A*79
$GPRMC,001731.000,A,3256.1029,N,11714.4766,W,9.30,356.40,180910,,,A*7E
$GPRMC,001734.000,A,3256.1128,N,11714.4774,W,13.50,356.70,180910,,,A*46
$GPRMC,001737.000,A,3256.1243,N,11714.4782,W,13.80,356.40,180910,,,A*4C
$GPRMC,001740.000,A,3256.1363,N,11714.4790,W,14.30,356.40,180910,,,A*40
$GPRMC,001743.000,A,3256.1454,N,11714.4798,W,7.80,356.30,180910,,,A*76
$GPRMC,001746.000,A,3256.1510,N,11714.4800,W,6.50,356.50,180910,,,A*76
$GPRMC,001749.000,A,3256.1567,N,11714.4803,W,8.10,356.50,180910,,,A*70
$GPRMC,001752.000,A,3256.1659,N,11714.4811,W,12.40,357.30,180910,,,A*4E
$GPRMC,001755.000,A,3256.1781,N,11714.4821,W,15.40,356.50,180910,,,A*4E
$GPRMC,001758.000,A,3256.1912,N,11714.4831,W,15.50,356.80,180910,,,A*4A
$GPRMC,001801.000,A,3256.2020,N,11714.4839,W,11.00,355.40,180910,,,A*44
$GPRMC,001804.000,A,3256.2097,N,11714.4850,W,9.10,352.90,180910,,,A*70
$GPRMC,001810.000,A,3256.2155,N,11714.4850,W,2.70,00.90,180910,,,A*43
$GPRMC,001813.000,A,3256.2218,N,11714.4852,W,10.50,357.00,180910,,,A*41
$GPRMC,001816.000,A,3256.2325,N,11714.4861,W,14.60,356.50,180910,,,A*48
$GPRMC,001819.000,A,3256.2453,N,11714.4870,W,15.80,357.80,180910,,,A*42
$GPRMC,001822.000,A,3256.2606,N,11714.4882,W,17.90,356.60,180910,,,A*49
$GPRMC,001825.000,A,3256.2753,N,11714.4897,W,16.40,356.40,180910,,,A*45
$GPRMC,001828.000,A,3256.2883,N,11714.4909,W,15.60,356.40,180910,,,A*4D
$GPRMC,001849.000,A,3256.3025,N,11714.4914,W,7.20,356.40,180910,,,A*74
$GPRMC,001852.000,A,3256.3104,N,11714.4920,W,9.90,355.70,180910,,,A*7E
$GPRMC,001855.000,A,3256.3181,N,11714.4927,W,8.70,355.00,180910,,,A*7B
$GPRMC,001858.000,A,3256.3252,N,11714.4934,W,9.80,355.50,180910,,,A*72
$GPRMC,001901.000,A,3256.3343,N,11714.4942,W,11.90,357.70,180910,,,A*47
$GPRMC,001904.000,A,3256.3464,N,11714.4961,W,13.30,354.60,180910,,,A*4B
$GPRMC,001907.000,A,3256.3561,N,11714.4965,W,9.90,349.50,180910,,,A*76
$GPRMC,001910.000,A,3256.3628,N,11714.4977,W,8.10,350.30,180910,,,A*7A
$GPRMC,001913.000,A,3256.3700,N,11714.4996,W,10.90,353.80,180910,,,A*44
$GPRMC,001916.000,A,3256.3802,N,11714.5016,W,13.00,353.10,180910,,,A*4F
$GPRMC,001919.000,A,3256.3909,N,11714.5029,W,12.70,353.80,180910,,,A*49
$GPRMC,001922.000,A,3256.4001,N,11714.5045,W,10.20,352.20,180910,,,A*41
$GPRMC,001925.000,A,3256.4087,N,11714.5057,W,11.40,352.10,180910,,,A*4F
$GPRMC,001928.000,A,3256.4192,N,11714.5078,W,13.70,350.90,180910,,,A*41
$GPRMC,001931.000,A,3256.4330,N,11714.5104,W,17.50,351.30,180910,,,A*44
$GPRMC,001934.000,A,3256.4483,N,11714.5135,W,20.00,350.90,180910,,,A*46
$GPRMC,001937.000,A,3256.4655,N,11714.5168,W,20.10,351.20,180910,,,A*4F
$GPRMC,001940.000,A,3256.4816,N,11714.5199,W,19.40,351.40,180910,,,A*41
$GPRMC,001943.000,A,3256.4978,N,11714.5225,W,19.70,351.60,180910,,,A*4E
$GPRMC,001946.000,A,3256.5159,N,11714.5252,W,22.70,351.40,180910,,,A*4B
$GPRMC,001949.000,A,3256.5357,N,11714.5287,W,24.70,351.00,180910,,,A*42
$GPRMC,001952.000,A,3256.5551,N,11714.5324,W,22.40,350.80,180910,,,A*4C
$GPRMC,001955.000,A,3256.5730,N,11714.5357,W,21.40,350.40,180910,,,A*45
$GPRMC,001958.000,A,3256.5908,N,11714.5393,W,21.60,350.70,180910,,,A*44
$GPRMC,002001.000,A,3256.6089,N,11714.5425,W,22.50,351.30,180910,,,A*4E
$GPRMC,002004.000,A,3256.6276,N,11714.5461,W,23.60,351.00,180910,,,A*48
$GPRMC,002007.000,A,3256.6470,N,11714.5499,W,23.40,351.10,180910,,,A*4F
$GPRMC,002010.000,A,3256.6651,N,11714.5533,W,20.30,350.80,180910,,,A*45
$GPRMC,002013.000,A,3256.6808,N,11714.5563,W,18.30,351.30,180910,,,A*40
$GPRMC,002016.000,A,3256.6947,N,11714.5589,W,15.50,351.10,180910,,,A*42
$GPRMC,002019.000,A,3256.7070,N,11714.5613,W,14.80,351.50,180910,,,A*49
$GPRMC,002022.000,A,3256.7188,N,11714.5632,W,14.10,350.80,180910,,,A*41
$GPRMC,002025.000,A,3256.7292,N,11714.5650,W,10.90,351.10,180910,,,A*4E
$GPRMC,002037.000,A,3256.7423,N,11714.5675,W,4.60,351.90,180910,,,A*74
$GPRMC,002043.000,A,3256.7491,N,11714.5685,W,4.40,351.50,180910,,,A*7F
$GPRMC,002046.000,A,3256.7533,N,11714.5693,W,6.30,352.30,180910,,,A*74
$GPRMC,002049.000,A,3256.7595,N,11714.5704,W,9.70,351.00,180910,,,A*73
$GPRMC,002052.000,A,3256.7681,N,11714.5719,W,9.70,351.10,180910,,,A*72
$GPRMC,002055.000,A,3256.7752,N,11714.5733,W,7.50,351.10,180910,,,A*7E
$GPRMC,002058.000,A,3256.7810,N,11714.5744,W,6.90,351.00,180910,,,A*76
$GPRMC,002101.000,A,3256.7853,N,11714.5753,W,5.40,350.10,180910,,,A*74
$GPRMC,002104.000,A,3256.7905,N,11714.5765,W,6.60,350.80,180910,,,A*7E
$GPRMC,002107.000,A,3256.7960,N,11714.5777,W,6.80,350.20,180910,,,A*79
$GPRMC,002110.000,A,3256.8020,N,11714.5789,W,7.00,351.10,180910,,,A*77
$GPRMC,002113.000,A,3256.8078,N,11714.5798,W,6.90,351.00,180910,,,A*70
$GPRMC,002116.000,A,3256.8134,N,11714.5806,W,7.10,351.10,180910,,,A*7C
$GPRMC,002119.000,A,3256.8193,N,11714.5818,W,5.50,350.80,180910,,,A*7F
$GPRMC,002122.000,A,3256.8240,N,11714.5829,W,6.60,351.60,180910,,,A*77
$GPRMC,002125.000,A,3256.8293,N,11714.5839,W,6.60,351.10,180910,,,A*78
$GPRMC,002128.000,A,3256.8347,N,11714.5849,W,6.50,350.50,180910,,,A*7C
$GPRMC,002131.000,A,3256.8416,N,11714.5862,W,8.30,351.10,180910,,,A*73
$GPRMC,002134.000,A,3256.8495,N,11714.5873,W,10.80,351.30,180910,,,A*4D
$GPRMC,002137.000,A,3256.8585,N,11714.5888,W,12.00,351.40,180910,,,A*47
$GPRMC,002140.000,A,3256.8690,N,11714.5909,W,13.00,350.90,180910,,,A*45
$GPRMC,002143.000,A,3256.8822,N,11714.5935,W,17.30,350.90,180910,,,A*49
$GPRMC,002146.000,A,3256.8980,N,11714.5964,W,20.20,350.80,180910,,,A*45
$GPRMC,002149.000,A,3256.9149,N,11714.5996,W,20.50,351.20,180910,,,A*47
$GPRMC,002152.000,A,3256.9316,N,11714.6029,W,19.70,349.90,180910,,,A*41
$GPRMC,002155.000,A,3256.9464,N,11714.6058,W,17.30,351.10,180910,,,A*49
$GPRMC,002158.000,A,3256.9605,N,11714.6080,W,17.30,351.70,180910,,,A*42
$GPRMC,002201.000,A,3256.9743,N,11714.6106,W,15.90,351.10,180910,,,A*4F
$GPRMC,002204.000,A,3256.9865,N,11714.6128,W,14.00,351.10,180910,,,A*45
$GPRMC,002207.000,A,3256.9951,N,11714.6151,W,9.60,344.60,180910,,,A*77
$GPRMC,002219.000,A,3257.0051,N,11714.6195,W,4.60,336.50,180910,,,A*7A
$GPRMC,002222.000,A,3257.0099,N,11714.6200,W,5.20,347.00,180910,,,A*7F
$GPRMC,002225.000,A,3257.0142,N,11714.6184,W,5.40,354.10,180910,,,A*75
$GPRMC,002228.000,A,3257.0234,N,11714.6193,W,10.30,351.00,180910,,,A*4B
$GPRMC,002231.000,A,3257.0321,N,11714.6212,W,9.80,350.60,180910,,,A*78
$GPRMC,002234.000,A,3257.0415,N,11714.6231,W,12.00,351.20,180910,,,A*4B
$GPRMC,002237.000,A,3257.0508,N,11714.6252,W,11.50,351.10,180910,,,A*45
$GPRMC,002240.000,A,3257.0615,N,11714.6263,W,11.80,350.80,180910,,,A*4D
$GPRMC,002243.000,A,3257.0729,N,11714.6278,W,14.20,351.40,180910,,,A*48
$GPRMC,002246.000,A,3257.0852,N,11714.6301,W,15.60,350.90,180910,,,A*48
$GPRMC,002249.000,A,3257.0985,N,11714.6324,W,16.70,350.80,180910,,,A*48
$GPRMC,002252.000,A,3257.1129,N,11714.6350,W,17.50,350.90,180910,,,A*4C
$GPRMC,002255.000,A,3257.1267,N,11714.6376,W,14.80,351.20,180910,,,A*42
$GPRMC,002258.000,A,3257.1359,N,11714.6393,W,9.30,350.40,180910,,,A*78
$GPRMC,002301.000,A,3257.1434,N,11714.6408,W,9.40,350.00,180910,,,A*7F
$GPRMC,002304.000,A,3257.1518,N,11714.6424,W,10.00,351.30,180910,,,A*45
$GPRMC,002307.000,A,3257.1579,N,11714.6437,W,5.60,354.30,180910,,,A*74
$GPRMC,002310.000,A,3257.1627,N,11714.6444,W,5.80,351.70,180910,,,A*71
$GPRMC,002313.000,A,3257.1695,N,11714.6457,W,10.90,350.90,180910,,,A*43
$GPRMC,002316.000,A,3257.1795,N,11714.6476,W,12.90,350.50,180910,,,A*4A
$GPRMC,002319.000,A,3257.1913,N,11714.6498,W,15.50,351.40,180910,,,A*4E
$GPRMC,002322.000,A,3257.2042,N,11714.6522,W,15.90,351.20,180910,,,A*42
$GPRMC,002325.000,A,3257.2187,N,11714.6550,W,17.80,351.30,180910,,,A*4A
$GPRMC,002328.000,A,3257.2342,N,11714.6579,W,19.10,351.10,180910,,,A*42
$GPRMC,002331.000,A,3257.2523,N,11714.6613,W,22.70,351.10,180910,,,A*4A
$GPRMC,002334.000,A,3257.2728,N,11714.6653,W,25.90,350.80,180910,,,A*43
$GPRMC,002337.000,A,3257.2943,N,11714.6696,W,25.90,350.90,180910,,,A*4B
$GPRMC,002340.000,A,3257.3151,N,11714.6734,W,22.80,351.30,180910,,,A*45
$GPRMC,002343.000,A,3257.3313,N,11714.6764,W,16.70,350.90,180910,,,A*44
$GPRMC,002346.000,A,3257.3448,N,11714.6790,W,16.80,350.60,180910,,,A*43
$GPRMC,002349.000,A,3257.3596,N,11714.6819,W,19.00,351.40,180910,,,A*44
$GPRMC,002352.000,A,3257.3757,N,11714.6847,W,20.00,351.30,180910,,,A*47
$GPRMC,002355.000,A,3257.3935,N,11714.6879,W,22.70,351.70,180910,,,A*46
$GPRMC,002358.000,A,3257.4114,N,11714.6912,W,21.00,350.80,180910,,,A*41
$GPRMC,002401.000,A,3257.4288,N,11714.6944,W,20.70,351.00,180910,,,A*40
$GPRMC,002404.000,A,3257.4456,N,11714.6975,W,20.00,350.70,180910,,,A*43
$GPRMC,002407.000,A,3257.4622,N,11714.7008,W,20.20,350.90,180910,,,A*4F
$GPRMC,002410.000,A,3257.4778,N,11714.7035,W,16.70,351.30,180910,,,A*42
$GPRMC,002413.000,A,3257.4887,N,11714.7057,W,11.20,350.70,180910,,,A*4D
$GPRMC,002416.000,A,3257.4963,N,11714.7075,W,6.70,350.60,180910,,,A*71
$GPRMC,002434.000,A,3257.5146,N,11714.7122,W,4.00,351.10,180910,,,A*7F
$GPRMC,002437.000,A,3257.5192,N,11714.7131,W,7.00,349.40,180910,,,A*78
$GPRMC,002440.000,A,3257.5258,N,11714.7145,W,8.60,349.70,180910,,,A*74
$GPRMC,002443.000,A,3257.5335,N,11714.7162,W,9.60,348.90,180910,,,A*76
$GPRMC,002446.000,A,3257.5422,N,11714.7184,W,11.10,348.90,180910,,,A*44
$GPRMC,002449.000,A,3257.5517,N,11714.7205,W,11.60,347.70,180910,,,A*40
$GPRMC,002452.000,A,3257.5616,N,11714.7232,W,13.00,347.70,180910,,,A*48
$GPRMC,002455.000,A,3257.5752,N,11714.7266,W,17.20,347.80,180910,,,A*46
$GPRMC,002458.000,A,3257.5908,N,11714.7307,W,21.10,347.00,180910,,,A*42
$GPRMC,002501.000,A,3257.6082,N,11714.7355,W,21.80,346.50,180910,,,A*4D
$GPRMC,002504.000,A,3257.6256,N,11714.7405,W,20.50,345.60,180910,,,A*4D
$GPRMC,002507.000,A,3257.6413,N,11714.7453,W,18.50,345.20,180910,,,A*45
$GPRMC,002510.000,A,3257.6565,N,11714.7501,W,19.90,344.70,180910,,,A*4C
$GPRMC,002513.000,A,3257.6733,N,11714.7556,W,22.80,344.20,180910,,,A*40
$GPRMC,002516.000,A,3257.6921,N,11714.7619,W,24.20,343.50,180910,,,A*4C
$GPRMC,002519.000,A,3257.7118,N,11714.7691,W,24.90,342.60,180910,,,A*49
$GPRMC,002522.000,A,3257.7317,N,11714.7767,W,25.30,342.50,180910,,,A*4C
$GPRMC,002525.000,A,3257.7519,N,11714.7845,W,25.80,342.10,180910,,,A*43
$GPRMC,002528.000,A,3257.7726,N,11714.7921,W,26.00,342.60,180910,,,A*4F
$GPRMC,002531.000,A,3257.7932,N,11714.8001,W,25.30,342.30,180910,,,A*4D
$GPRMC,002534.000,A,3257.8128,N,11714.8074,W,24.00,342.70,180910,,,A*40
$GPRMC,002537.000,A,3257.8317,N,11714.8147,W,23.60,342.20,180910,,,A*48
$GPRMC,002540.000,A,3257.8507,N,11714.8219,W,24.10,342.50,180910,,,A*40
$GPRMC,002543.000,A,3257.8698,N,11714.8291,W,22.90,342.30,180910,,,A*4E
$GPRMC,002546.000,A,3257.8869,N,11714.8357,W,21.00,342.30,180910,,,A*4A
$GPRMC,002549.000,A,3257.9041,N,11714.8421,W,21.60,342.20,180910,,,A*47
$GPRMC,002552.000,A,3257.9216,N,11714.8486,W,22.10,342.10,180910,,,A*47
$GPRMC,002555.000,A,3257.9394,N,11714.8554,W,22.60,342.30,180910,,,A*40
$GPRMC,002558.000,A,3257.9579,N,11714.8621,W,23.00,342.50,180910,,,A*48
$GPRMC,002601.000,A,3257.9748,N,11714.8685,W,19.40,342.20,180910,,,A*43
$GPRMC,002604.000,A,3257.9893,N,11714.8741,W,17.80,342.40,180910,,,A*42
$GPRMC,002607.000,A,3258.0036,N,11714.8795,W,18.00,342.30,180910,,,A*49
$GPRMC,002610.000,A,3258.0181,N,11714.8849,W,18.60,342.40,180910,,,A*4D
$GPRMC,002613.000,A,3258.0331,N,11714.8907,W,19.80,342.30,180910,,,A*44
$GPRMC,002616.000,A,3258.0495,N,11714.8969,W,21.30,342.50,180910,,,A*46
$GPRMC,002619.000,A,3258.0682,N,11714.9039,W,24.80,342.40,180910,,,A*4F
$GPRMC,002622.000,A,3258.0888,N,11714.9119,W,26.70,342.10,180910,,,A*48
$GPRMC,002625.000,A,3258.1096,N,11714.9197,W,25.60,342.70,180910,,,A*4B
$GPRMC,002628.000,A,3258.1297,N,11714.9274,W,25.10,342.30,180910,,,A*48
$GPRMC,002631.000,A,3258.1497,N,11714.9349,W,24.80,342.30,180910,,,A*41
$GPRMC,002634.000,A,3258.1694,N,11714.9425,W,25.00,342.00,180910,,,A*42
$GPRMC,002637.000,A,3258.1891,N,11714.9501,W,23.90,342.20,180910,,,A*40
$GPRMC,002640.000,A,3258.2084,N,11714.9574,W,25.40,342.40,180910,,,A*40
$GPRMC,002643.000,A,3258.2299,N,11714.9655,W,28.10,342.50,180910,,,A*44
$GPRMC,002646.000,A,3258.2523,N,11714.9739,W,29.00,342.40,180910,,,A*4D
$GPRMC,002649.000,A,3258.2763,N,11714.9828,W,29.80,342.50,180910,,,A*42
$GPRMC,002652.000,A,3258.2998,N,11714.9916,W,29.10,342.20,180910,,,A*40
$GPRMC,002655.000,A,3258.3216,N,11715.0000,W,25.30,342.20,180910,,,A*43
$GPRMC,002658.000,A,3258.3406,N,11715.0072,W,23.00,342.30,180910,,,A*48
$GPRMC,002701.000,A,3258.3565,N,11715.0130,W,17.20,342.30,180910,,,A*43
$GPRMC,002704.000,A,3258.3651,N,11715.0162,W,9.40,342.30,180910,,,A*7C
$GPRMC,002707.000,A,3258.3723,N,11715.0190,W,8.70,342.80,180910,,,A*7F
$GPRMC,002710.000,A,3258.3793,N,11715.0216,W,8.90,343.20,180910,,,A*7A
$GPRMC,002719.000,A,3258.3912,N,11715.0260,W,3.70,341.10,180910,,,A*71
$GPRMC,002722.000,A,3258.3954,N,11715.0276,W,7.60,342.50,180910,,,A*7E
$GPRMC,002725.000,A,3258.4039,N,11715.0308,W,13.30,342.40,180910,,,A*45
$GPRMC,002728.000,A,3258.4159,N,11715.0353,W,17.40,342.50,180910,,,A*43
$GPRMC,002731.000,A,3258.4305,N,11715.0408,W,18.80,342.70,180910,,,A*48
$GPRMC,002734.000,A,3258.4474,N,11715.0471,W,22.70,341.90,180910,,,A*49
$GPRMC,002737.000,A,3258.4678,N,11715.0548,W,28.10,342.50,180910,,,A*4C
$GPRMC,002740.000,A,3258.4922,N,11715.0639,W,32.80,342.40,180910,,,A*4A
$GPRMC,002743.000,A,3258.5194,N,11715.0743,W,34.80,342.30,180910,,,A*40
$GPRMC,002746.000,A,3258.5478,N,11715.0850,W,36.40,342.30,180910,,,A*41
$GPRMC,002749.000,A,3258.5778,N,11715.0963,W,38.40,342.60,180910,,,A*47
$GPRMC,002752.000,A,3258.6104,N,11715.1086,W,41.40,342.40,180910,,,A*4C
$GPRMC,002755.000,A,3258.6435,N,11715.1211,W,41.50,342.30,180910,,,A*46
$GPRMC,002758.000,A,3258.6758,N,11715.1332,W,38.70,342.40,180910,,,A*48
$GPRMC,002801.000,A,3258.7059,N,11715.1449,W,37.70,342.10,180910,,,A*4D
$GPRMC,002804.000,A,3258.7356,N,11715.1564,W,37.50,342.90,180910,,,A*40
$GPRMC,002807.000,A,3258.7632,N,11715.1664,W,34.90,342.60,180910,,,A*47
$GPRMC,002810.000,A,3258.7895,N,11715.1766,W,30.00,341.80,180910,,,A*41
$GPRMC,002813.000,A,3258.8105,N,11715.1844,W,24.00,342.60,180910,,,A*4A
$GPRMC,002816.000,A,3258.8263,N,11715.1903,W,18.00,342.00,180910,,,A*47
$GPRMC,002819.000,A,3258.8398,N,11715.1955,W,16.90,342.30,180910,,,A*4A
$GPRMC,002822.000,A,3258.8544,N,11715.2012,W,18.70,342.70,180910,,,A*48
$GPRMC,002825.000,A,3258.8687,N,11715.2064,W,17.70,342.50,180910,,,A*4F
$GPRMC,002828.000,A,3258.8806,N,11715.2107,W,14.70,342.20,180910,,,A*45
$GPRMC,002831.000,A,3258.8874,N,11715.2132,W,8.10,342.90,180910,,,A*7E
$GPRMC,002837.000,A,3258.8939,N,11715.2147,W,7.00,350.70,180910,,,A*71
$GPRMC,002840.000,A,3258.9059,N,11715.2194,W,15.10,347.40,180910,,,A*46
$GPRMC,002843.000,A,3258.9211,N,11715.2254,W,18.10,342.10,180910,,,A*49
$GPRMC,002846.000,A,3258.9361,N,11715.2313,W,18.90,341.80,180910,,,A*4A
$GPRMC,002849.000,A,3258.9505,N,11715.2370,W,17.30,342.70,180910,,,A*4D
$GPRMC,002852.000,A,3258.9637,N,11715.2420,W,15.80,342.30,180910,,,A*4A
$GPRMC,002855.000,A,3258.9753,N,11715.2463,W,15.00,342.50,180910,,,A*47
$GPRMC,002858.000,A,3258.9904,N,11715.2518,W,20.20,342.40,180910,,,A*4E
$GPRMC,002901.000,A,3259.0072,N,11715.2582,W,22.60,342.30,180910,,,A*41
$GPRMC,002904.000,A,3259.0276,N,11715.2659,W,26.20,343.00,180910,,,A*45
$GPRMC,002907.000,A,3259.0521,N,11715.2736,W,29.90,346.10,180910,,,A*4B
$GPRMC,002910.000,A,3259.0751,N,11715.2795,W,27.50,347.80,180910,,,A*4B
$GPRMC,002913.000,A,3259.0975,N,11715.2847,W,27.40,349.50,180910,,,A*42
$GPRMC,002916.000,A,3259.1205,N,11715.2891,W,27.40,350.80,180910,,,A*44
$GPRMC,002919.000,A,3259.1403,N,11715.2922,W,24.60,351.40,180910,,,A*4E
$GPRMC,002922.000,A,3259.1607,N,11715.2958,W,25.00,352.90,180910,,,A*44
$GPRMC,002925.000,A,3259.1820,N,11715.2993,W,26.20,353.20,180910,,,A*44
$GPRMC,002928.000,A,3259.2055,N,11715.3030,W,28.50,352.50,180910,,,A*4E
$GPRMC,002931.000,A,3259.2286,N,11715.3064,W,28.50,352.80,180910,,,A*46
$GPRMC,002934.000,A,3259.2533,N,11715.3105,W,30.90,352.40,180910,,,A*45
$GPRMC,002937.000,A,3259.2793,N,11715.3148,W,30.90,352.50,180910,,,A*46
$GPRMC,002940.000,A,3259.3052,N,11715.3190,W,32.10,352.60,180910,,,A*41
$GPRMC,002943.000,A,3259.3328,N,11715.3237,W,33.50,352.30,180910,,,A*42
$GPRMC,002946.000,A,3259.3611,N,11715.3282,W,34.20,352.10,180910,,,A*44
$GPRMC,002949.000,A,3259.3897,N,11715.3332,W,35.40,351.50,180910,,,A*41
$GPRMC,002952.000,A,3259.4190,N,11715.3381,W,35.90,352.00,180910,,,A*41
$GPRMC,002955.000,A,3259.4484,N,11715.3425,W,35.10,352.70,180910,,,A*40
$GPRMC,002958.000,A,3259.4764,N,11715.3468,W,33.40,352.50,180910,,,A*48
$GPRMC,003001.000,A,3259.5039,N,11715.3512,W,32.90,352.30,180910,,,A*44
