NMEA Sentence Code,UTC Time,Status,Latitude,Latitude Direction,Longitude,Longitude Direction,Speed (knots),Track Angle (degrees true),Date,MagneticVariation,Magnetic Variation Direction,[FAA Mode]-Optional,Checksum
$GPRMC,223421.618,A,3344.8849,N,11700.4208,W,4.513133,94.74,120210,,*22
$GPRMC,223424.618,A,3344.8850,N,11700.4162,W,4.383122,82.40,120210,,*2F
$GPRMC,223536.614,A,3344.8790,N,11700.3987,W,5.259954,182.37,120210,,*19
$GPRMC,223539.613,A,3344.8737,N,11700.3997,W,7.630559,183.07,120210,,*17
$GPRMC,223542.613,A,3344.8666,N,11700.4006,W,7.898009,182.99,120210,,*12
$GPRMC,223545.613,A,3344.8611,N,11700.4008,W,4.509330,183.65,120210,,*16
$GPRMC,223712.607,A,3344.8538,N,11700.4011,W,6.645547,184.13,120210,,*1A
$GPRMC,223715.607,A,3344.8483,N,11700.4047,W,7.579948,234.91,120210,,*13
$GPRMC,223718.607,A,3344.8468,N,11700.4137,W,10.090110,273.40,120210,,*23
$GPRMC,223721.607,A,3344.8473,N,11700.4267,W,14.735307,272.56,120210,,*2B
$GPRMC,223724.607,A,3344.8479,N,11700.4442,W,19.307210,271.43,120210,,*2D
$GPRMC,223727.606,A,3344.8479,N,11700.4660,W,23.027775,268.19,120210,,*24
$GPRMC,223730.606,A,3344.8467,N,11700.4912,W,25.667832,265.32,120210,,*2B
$GPRMC,223733.606,A,3344.8443,N,11700.5183,W,27.385759,262.10,120210,,*21
$GPRMC,223736.606,A,3344.8410,N,11700.5453,W,25.888194,260.03,120210,,*29
$GPRMC,223739.606,A,3344.8373,N,11700.5683,W,21.409439,257.31,120210,,*2D
$GPRMC,223742.605,A,3344.8337,N,11700.5863,W,16.203827,255.73,120210,,*2D
$GPRMC,223745.605,A,3344.8310,N,11700.5978,W,9.305195,254.43,120210,,*1F
$GPRMC,223748.605,A,3344.8295,N,11700.6038,W,5.215682,253.81,120210,,*14
$GPRMC,223751.605,A,3344.8280,N,11700.6092,W,7.998723,253.98,120210,,*16
$GPRMC,223754.605,A,3344.8253,N,11700.6193,W,13.050769,250.97,120210,,*27
$GPRMC,223757.604,A,3344.8210,N,11700.6344,W,18.018668,250.90,120210,,*2A
$GPRMC,223800.604,A,3344.8151,N,11700.6537,W,21.620975,248.89,120210,,*26
$GPRMC,223803.604,A,3344.8076,N,11700.6757,W,24.614190,246.78,120210,,*24
$GPRMC,223806.604,A,3344.7987,N,11700.6997,W,26.919583,245.55,120210,,*21
$GPRMC,223809.604,A,3344.7891,N,11700.7251,W,27.932003,245.67,120210,,*2C
$GPRMC,223812.604,A,3344.7793,N,11700.7510,W,27.961075,246.00,120210,,*2C
$GPRMC,223815.603,A,3344.7701,N,11700.7756,W,25.223323,245.76,120210,,*2A
$GPRMC,223818.603,A,3344.7621,N,11700.7968,W,21.634887,245.70,120210,,*22
$GPRMC,223821.603,A,3344.7553,N,11700.8147,W,18.636237,245.54,120210,,*2B
$GPRMC,223824.603,A,3344.7495,N,11700.8300,W,15.898552,245.73,120210,,*22
$GPRMC,223827.603,A,3344.7450,N,11700.8417,W,11.303049,246.13,120210,,*2E
$GPRMC,223830.602,A,3344.7421,N,11700.8497,W,7.291854,246.63,120210,,*19
$GPRMC,223845.601,A,3344.7384,N,11700.8578,W,6.466374,246.58,120210,,*1E
$GPRMC,223848.601,A,3344.7354,N,11700.8665,W,11.414279,246.89,120210,,*22
$GPRMC,223851.601,A,3344.7307,N,11700.8798,W,15.909148,246.69,120210,,*25
$GPRMC,223854.601,A,3344.7245,N,11700.8966,W,19.667472,245.51,120210,,*27
$GPRMC,223857.601,A,3344.7171,N,11700.9162,W,22.258645,245.74,120210,,*2C
$GPRMC,223900.600,A,3344.7089,N,11700.9380,W,24.655036,245.63,120210,,*2D
$GPRMC,223903.600,A,3344.7000,N,11700.9618,W,26.887299,246.29,120210,,*22
$GPRMC,223906.600,A,3344.6912,N,11700.9857,W,23.330150,245.88,120210,,*25
$GPRMC,223909.600,A,3344.6844,N,11701.0038,W,16.937361,246.42,120210,,*2F
$GPRMC,223912.600,A,3344.6791,N,11701.0195,W,17.660747,248.42,120210,,*26
$GPRMC,223915.599,A,3344.6734,N,11701.0374,W,20.369988,251.47,120210,,*28
$GPRMC,223918.599,A,3344.6679,N,11701.0575,W,21.635375,252.87,120210,,*20
$GPRMC,223921.599,A,3344.6623,N,11701.0784,W,21.917584,254.30,120210,,*24
$GPRMC,223924.599,A,3344.6577,N,11701.0979,W,19.158365,255.40,120210,,*28
$GPRMC,223927.599,A,3344.6540,N,11701.1151,W,16.542465,256.81,120210,,*25
$GPRMC,223930.598,A,3344.6511,N,11701.1301,W,14.293761,258.16,120210,,*2F
$GPRMC,223933.598,A,3344.6490,N,11701.1426,W,12.381780,259.68,120210,,*25
$GPRMC,223936.598,A,3344.6474,N,11701.1537,W,11.099106,260.30,120210,,*2D
$GPRMC,223939.598,A,3344.6461,N,11701.1638,W,10.574271,261.55,120210,,*2C
$GPRMC,223942.598,A,3344.6449,N,11701.1752,W,13.364617,262.77,120210,,*24
$GPRMC,223945.598,A,3344.6437,N,11701.1901,W,17.071144,264.53,120210,,*20
$GPRMC,223948.597,A,3344.6424,N,11701.2095,W,20.757058,266.13,120210,,*2A
$GPRMC,223951.597,A,3344.6412,N,11701.2326,W,23.964887,267.49,120210,,*25
$GPRMC,223954.597,A,3344.6405,N,11701.2582,W,25.371692,268.57,120210,,*2C
$GPRMC,223957.597,A,3344.6401,N,11701.2824,W,22.465124,268.71,120210,,*21
$GPRMC,224000.597,A,3344.6399,N,11701.3040,W,20.464265,268.83,120210,,*28
$GPRMC,224003.596,A,3344.6395,N,11701.3239,W,19.519490,269.02,120210,,*2F
$GPRMC,224006.596,A,3344.6392,N,11701.3429,W,17.993505,268.49,120210,,*29
$GPRMC,224009.596,A,3344.6390,N,11701.3594,W,15.338707,268.76,120210,,*26
$GPRMC,224012.596,A,3344.6386,N,11701.3733,W,13.004852,268.22,120210,,*20
$GPRMC,224015.596,A,3344.6383,N,11701.3853,W,11.705561,268.30,120210,,*21
$GPRMC,224018.595,A,3344.6381,N,11701.3956,W,9.658822,268.74,120210,,*13
$GPRMC,224021.595,A,3344.6380,N,11701.4047,W,9.482807,268.86,120210,,*19
$GPRMC,224024.595,A,3344.6378,N,11701.4148,W,11.696407,269.18,120210,,*21
$GPRMC,224027.595,A,3344.6376,N,11701.4270,W,15.050437,269.13,120210,,*24
$GPRMC,224030.595,A,3344.6370,N,11701.4438,W,18.299613,267.67,120210,,*2D
$GPRMC,224033.594,A,3344.6362,N,11701.4642,W,21.944403,268.79,120210,,*21
$GPRMC,224036.594,A,3344.6358,N,11701.4884,W,25.852628,269.37,120210,,*2B
$GPRMC,224039.594,A,3344.6359,N,11701.5162,W,28.705394,269.36,120210,,*26
$GPRMC,224042.594,A,3344.6359,N,11701.5463,W,30.684369,269.50,120210,,*2D
$GPRMC,224045.594,A,3344.6359,N,11701.5782,W,32.306093,269.89,120210,,*29
$GPRMC,224048.593,A,3344.6359,N,11701.6117,W,33.843247,269.54,120210,,*2A
$GPRMC,224051.593,A,3344.6358,N,11701.6462,W,35.081761,269.38,120210,,*2F
$GPRMC,224054.593,A,3344.6358,N,11701.6817,W,35.742879,270.03,120210,,*2A
$GPRMC,224057.593,A,3344.6357,N,11701.7177,W,36.138331,270.00,120210,,*24
$GPRMC,224100.593,A,3344.6361,N,11701.7541,W,36.555482,270.13,120210,,*21
$GPRMC,224103.593,A,3344.6359,N,11701.7903,W,35.337124,269.41,120210,,*24
$GPRMC,224106.592,A,3344.6357,N,11701.8242,W,31.144017,270.24,120210,,*27
$GPRMC,224109.592,A,3344.6355,N,11701.8516,W,24.424519,269.79,120210,,*20
$GPRMC,224112.592,A,3344.6354,N,11701.8736,W,19.968874,270.32,120210,,*21
$GPRMC,224115.592,A,3344.6359,N,11701.8903,W,15.398663,272.19,120210,,*29
$GPRMC,224118.592,A,3344.6364,N,11701.9029,W,12.303722,271.32,120210,,*21
$GPRMC,224121.591,A,3344.6366,N,11701.9135,W,10.220000,270.37,120210,,*27
$GPRMC,224124.591,A,3344.6366,N,11701.9213,W,6.598324,270.55,120210,,*17
$GPRMC,224206.588,A,3344.6356,N,11701.9294,W,5.519271,270.19,120210,,*13
$GPRMC,224209.588,A,3344.6357,N,11701.9379,W,11.259816,270.54,120210,,*2B
$GPRMC,224212.588,A,3344.6357,N,11701.9519,W,15.776044,270.51,120210,,*27
$GPRMC,224215.588,A,3344.6357,N,11701.9700,W,19.608894,269.90,120210,,*2E
$GPRMC,224218.588,A,3344.6357,N,11701.9916,W,22.475549,269.42,120210,,*28
$GPRMC,224221.588,A,3344.6356,N,11702.0160,W,25.166768,268.71,120210,,*20
$GPRMC,224224.587,A,3344.6353,N,11702.0428,W,27.662914,268.85,120210,,*29
$GPRMC,224227.587,A,3344.6348,N,11702.0720,W,29.436672,269.30,120210,,*26
$GPRMC,224230.587,A,3344.6346,N,11702.1027,W,31.123423,269.91,120210,,*2A
$GPRMC,224233.587,A,3344.6345,N,11702.1347,W,32.632331,269.82,120210,,*2D
$GPRMC,224236.587,A,3344.6346,N,11702.1682,W,34.088900,269.77,120210,,*24
$GPRMC,224239.586,A,3344.6346,N,11702.2030,W,35.352524,269.61,120210,,*2E
$GPRMC,224242.586,A,3344.6345,N,11702.2388,W,36.488974,269.80,120210,,*24
$GPRMC,224245.586,A,3344.6347,N,11702.2758,W,37.482418,269.85,120210,,*21
$GPRMC,224248.586,A,3344.6345,N,11702.3139,W,38.479230,269.42,120210,,*22
$GPRMC,224251.586,A,3344.6346,N,11702.3528,W,39.172567,269.93,120210,,*2B
$GPRMC,224254.585,A,3344.6345,N,11702.3923,W,39.780825,269.72,120210,,*26
$GPRMC,224257.585,A,3344.6344,N,11702.4323,W,40.441403,269.84,120210,,*28
$GPRMC,224300.585,A,3344.6343,N,11702.4731,W,40.975224,270.03,120210,,*25
$GPRMC,224303.585,A,3344.6342,N,11702.5146,W,41.510784,270.06,120210,,*24
$GPRMC,224306.585,A,3344.6339,N,11702.5565,W,41.863841,269.73,120210,,*2D
$GPRMC,224309.584,A,3344.6338,N,11702.5985,W,42.112872,269.94,120210,,*25
$GPRMC,224312.584,A,3344.6337,N,11702.6408,W,42.360138,269.76,120210,,*27
$GPRMC,224315.584,A,3344.6334,N,11702.6831,W,42.521097,269.48,120210,,*2F
$GPRMC,224318.584,A,3344.6335,N,11702.7256,W,42.644123,270.38,120210,,*28
$GPRMC,224321.584,A,3344.6336,N,11702.7683,W,42.621958,270.21,120210,,*22
$GPRMC,224324.584,A,3344.6335,N,11702.8109,W,42.661471,270.12,120210,,*2C
$GPRMC,224327.583,A,3344.6333,N,11702.8535,W,42.352435,269.53,120210,,*2D
$GPRMC,224330.583,A,3344.6330,N,11702.8954,W,41.627495,269.75,120210,,*29
$GPRMC,224333.583,A,3344.6329,N,11702.9362,W,40.811865,269.84,120210,,*2B
$GPRMC,224336.583,A,3344.6329,N,11702.9766,W,40.407498,269.88,120210,,*27
$GPRMC,224339.583,A,3344.6330,N,11703.0166,W,39.983844,269.91,120210,,*24
$GPRMC,224342.582,A,3344.6332,N,11703.0562,W,39.854450,269.94,120210,,*2C
$GPRMC,224345.582,A,3344.6334,N,11703.0960,W,39.840247,270.38,120210,,*28
$GPRMC,224348.582,A,3344.6339,N,11703.1356,W,39.601077,270.98,120210,,*26
$GPRMC,224351.582,A,3344.6343,N,11703.1750,W,39.481603,269.82,120210,,*2D
$GPRMC,224354.582,A,3344.6343,N,11703.2144,W,39.926471,269.87,120210,,*2A
$GPRMC,224357.581,A,3344.6343,N,11703.2545,W,40.504506,269.65,120210,,*20
$GPRMC,224400.581,A,3344.6341,N,11703.2951,W,40.948949,270.05,120210,,*23
$GPRMC,224403.581,A,3344.6341,N,11703.3361,W,41.503045,269.56,120210,,*21
$GPRMC,224406.581,A,3344.6340,N,11703.3775,W,41.880884,269.67,120210,,*25
$GPRMC,224409.581,A,3344.6342,N,11703.4191,W,41.959992,269.88,120210,,*21
$GPRMC,224412.580,A,3344.6341,N,11703.4607,W,41.761923,269.63,120210,,*2B
$GPRMC,224415.580,A,3344.6340,N,11703.5023,W,41.471490,269.89,120210,,*2F
$GPRMC,224418.580,A,3344.6340,N,11703.5438,W,41.052127,270.45,120210,,*28
$GPRMC,224421.580,A,3344.6337,N,11703.5846,W,40.020528,269.39,120210,,*2B
$GPRMC,224424.580,A,3344.6315,N,11703.6243,W,39.367210,263.49,120210,,*2D
$GPRMC,224427.579,A,3344.6258,N,11703.6625,W,38.829233,256.86,120210,,*20
$GPRMC,224430.579,A,3344.6162,N,11703.6991,W,38.296247,249.30,120210,,*22
$GPRMC,224433.579,A,3344.6031,N,11703.7339,W,37.925966,242.44,120210,,*23
$GPRMC,224436.579,A,3344.5863,N,11703.7656,W,37.763909,233.99,120210,,*25
$GPRMC,224439.579,A,3344.5657,N,11703.7945,W,38.615752,228.31,120210,,*29
$GPRMC,224442.579,A,3344.5426,N,11703.8221,W,39.521848,224.36,120210,,*2D
$GPRMC,224445.578,A,3344.5190,N,11703.8505,W,40.277426,226.59,120210,,*27
$GPRMC,224448.578,A,3344.4960,N,11703.8800,W,40.594565,228.71,120210,,*2C
$GPRMC,224451.578,A,3344.4757,N,11703.9120,W,40.054113,236.46,120210,,*23
$GPRMC,224454.578,A,3344.4589,N,11703.9463,W,39.287690,242.84,120210,,*26
$GPRMC,224457.578,A,3344.4457,N,11703.9823,W,39.039728,248.85,120210,,*21
$GPRMC,224500.577,A,3344.4340,N,11704.0192,W,39.503023,249.08,120210,,*25
$GPRMC,224503.577,A,3344.4218,N,11704.0563,W,40.111032,248.25,120210,,*27
$GPRMC,224506.577,A,3344.4094,N,11704.0937,W,40.306862,249.40,120210,,*22
$GPRMC,224509.577,A,3344.3984,N,11704.1318,W,39.896018,253.75,120210,,*20
$GPRMC,224512.577,A,3344.3910,N,11704.1696,W,37.836810,258.00,120210,,*29
$GPRMC,224515.576,A,3344.3842,N,11704.2067,W,37.673207,257.14,120210,,*2B
$GPRMC,224518.576,A,3344.3775,N,11704.2431,W,37.216007,257.58,120210,,*27
$GPRMC,224521.576,A,3344.3710,N,11704.2788,W,36.835934,256.76,120210,,*21
$GPRMC,224524.576,A,3344.3644,N,11704.3142,W,36.382367,258.40,120210,,*25
$GPRMC,224527.576,A,3344.3587,N,11704.3495,W,35.939382,259.42,120210,,*24
$GPRMC,224530.575,A,3344.3545,N,11704.3844,W,35.406546,263.06,120210,,*29
$GPRMC,224533.575,A,3344.3528,N,11704.4192,W,34.874658,267.16,120210,,*25
$GPRMC,224536.575,A,3344.3517,N,11704.4529,W,32.567842,267.66,120210,,*23
$GPRMC,224539.575,A,3344.3512,N,11704.4832,W,28.334508,268.86,120210,,*27
$GPRMC,224542.575,A,3344.3507,N,11704.5075,W,21.516254,268.71,120210,,*2C
$GPRMC,224545.575,A,3344.3505,N,11704.5269,W,18.866324,269.19,120210,,*2F
$GPRMC,224548.574,A,3344.3505,N,11704.5450,W,19.105236,268.47,120210,,*2A
$GPRMC,224551.574,A,3344.3500,N,11704.5655,W,22.135922,268.13,120210,,*24
$GPRMC,224554.574,A,3344.3494,N,11704.5893,W,25.339631,268.45,120210,,*2E
$GPRMC,224557.574,A,3344.3488,N,11704.6164,W,28.493452,268.52,120210,,*29
$GPRMC,224600.574,A,3344.3480,N,11704.6464,W,31.284566,268.11,120210,,*2C
$GPRMC,224603.573,A,3344.3471,N,11704.6794,W,34.187611,268.58,120210,,*21
$GPRMC,224606.573,A,3344.3463,N,11704.7151,W,36.524932,268.84,120210,,*29
$GPRMC,224609.573,A,3344.3456,N,11704.7529,W,38.724175,268.58,120210,,*2D
$GPRMC,224612.573,A,3344.3446,N,11704.7930,W,40.839125,268.04,120210,,*22
$GPRMC,224615.573,A,3344.3435,N,11704.8349,W,42.529496,269.62,120210,,*28
$GPRMC,224618.572,A,3344.3427,N,11704.8782,W,43.998122,268.73,120210,,*28
$GPRMC,224621.572,A,3344.3417,N,11704.9226,W,44.870886,268.12,120210,,*2B
$GPRMC,224624.572,A,3344.3404,N,11704.9678,W,44.846192,268.59,120210,,*25
$GPRMC,224627.572,A,3344.3391,N,11705.0132,W,44.658531,268.56,120210,,*2F
$GPRMC,224630.572,A,3344.3379,N,11705.0582,W,44.766559,268.14,120210,,*24
$GPRMC,224633.571,A,3344.3368,N,11705.1029,W,44.669324,268.30,120210,,*25
$GPRMC,224636.571,A,3344.3357,N,11705.1478,W,44.925462,268.45,120210,,*2C
$GPRMC,224639.571,A,3344.3347,N,11705.1929,W,44.877563,268.52,120210,,*2B
$GPRMC,224642.571,A,3344.3336,N,11705.2376,W,44.502757,268.34,120210,,*28
$GPRMC,224645.571,A,3344.3327,N,11705.2819,W,44.136871,268.28,120210,,*28
$GPRMC,224648.571,A,3344.3318,N,11705.3260,W,44.510234,268.74,120210,,*2E
$GPRMC,224651.570,A,3344.3309,N,11705.3704,W,45.000144,268.49,120210,,*2F
$GPRMC,224654.570,A,3344.3299,N,11705.4152,W,45.117756,268.51,120210,,*2B
$GPRMC,224657.570,A,3344.3291,N,11705.4602,W,45.538307,268.69,120210,,*20
$GPRMC,224700.570,A,3344.3281,N,11705.5060,W,46.506506,268.48,120210,,*2B
$GPRMC,224703.570,A,3344.3279,N,11705.5529,W,47.208451,271.65,120210,,*2B
$GPRMC,224706.569,A,3344.3304,N,11705.6003,W,47.308817,276.03,120210,,*2B
$GPRMC,224709.569,A,3344.3359,N,11705.6468,W,46.695202,280.22,120210,,*21
$GPRMC,224712.569,A,3344.3443,N,11705.6919,W,46.007522,283.99,120210,,*27
$GPRMC,224715.569,A,3344.3551,N,11705.7358,W,45.317114,287.25,120210,,*2F
$GPRMC,224718.569,A,3344.3682,N,11705.7784,W,44.972949,291.12,120210,,*21
$GPRMC,224721.568,A,3344.3835,N,11705.8192,W,44.865053,295.18,120210,,*2D
$GPRMC,224724.568,A,3344.4008,N,11705.8587,W,44.936112,297.68,120210,,*2F
$GPRMC,224727.568,A,3344.4189,N,11705.8982,W,45.530616,298.68,120210,,*2A
$GPRMC,224730.568,A,3344.4374,N,11705.9384,W,46.386957,298.67,120210,,*2C
$GPRMC,224733.568,A,3344.4561,N,11705.9793,W,47.138228,298.66,120210,,*2B
$GPRMC,224736.567,A,3344.4751,N,11706.0208,W,47.790494,298.40,120210,,*2C
$GPRMC,224739.567,A,3344.4943,N,11706.0627,W,47.961018,298.58,120210,,*2E
$GPRMC,224742.567,A,3344.5133,N,11706.1044,W,47.888367,298.82,120210,,*24
$GPRMC,224745.567,A,3344.5326,N,11706.1460,W,47.563411,298.97,120210,,*2D
$GPRMC,224748.567,A,3344.5517,N,11706.1875,W,47.423891,298.72,120210,,*26
$GPRMC,224751.567,A,3344.5700,N,11706.2289,W,46.491255,296.28,120210,,*2B
$GPRMC,224754.566,A,3344.5853,N,11706.2711,W,45.644324,291.88,120210,,*21
$GPRMC,224757.566,A,3344.5971,N,11706.3143,W,44.538780,285.08,120210,,*2D
$GPRMC,224800.566,A,3344.6046,N,11706.3570,W,41.806195,278.51,120210,,*23
$GPRMC,224803.566,A,3344.6076,N,11706.3947,W,35.186961,273.12,120210,,*26
$GPRMC,224806.566,A,3344.6077,N,11706.4286,W,33.341194,269.48,120210,,*2A
$GPRMC,224809.565,A,3344.6071,N,11706.4617,W,34.172879,269.45,120210,,*2E
$GPRMC,224812.565,A,3344.6066,N,11706.4960,W,35.434115,268.58,120210,,*25
$GPRMC,224815.565,A,3344.6057,N,11706.5317,W,36.321953,268.95,120210,,*20
$GPRMC,224818.565,A,3344.6050,N,11706.5687,W,37.629731,268.64,120210,,*2E
$GPRMC,224821.565,A,3344.6043,N,11706.6064,W,38.143362,268.99,120210,,*2A
$GPRMC,224824.564,A,3344.6036,N,11706.6446,W,38.717874,269.22,120210,,*22
$GPRMC,224827.564,A,3344.6034,N,11706.6840,W,40.017850,269.87,120210,,*28
$GPRMC,224830.564,A,3344.6030,N,11706.7240,W,39.552584,269.02,120210,,*22
$GPRMC,224833.564,A,3344.6021,N,11706.7636,W,39.289651,268.77,120210,,*2D
$GPRMC,224836.564,A,3344.6011,N,11706.8029,W,39.255636,268.87,120210,,*23
$GPRMC,224839.563,A,3344.6007,N,11706.8422,W,39.497051,269.07,120210,,*25
$GPRMC,224842.563,A,3344.6006,N,11706.8815,W,39.754281,269.70,120210,,*23
$GPRMC,224845.563,A,3344.6005,N,11706.9212,W,40.147933,269.04,120210,,*20
$GPRMC,224848.563,A,3344.6000,N,11706.9617,W,41.201821,269.23,120210,,*2E
$GPRMC,224851.563,A,3344.5998,N,11707.0031,W,41.836608,269.24,120210,,*2B
$GPRMC,224854.562,A,3344.5992,N,11707.0452,W,41.692810,269.28,120210,,*2F
$GPRMC,224857.562,A,3344.5986,N,11707.0867,W,41.130351,269.25,120210,,*2F
$GPRMC,224900.562,A,3344.5981,N,11707.1274,W,40.871644,269.45,120210,,*28
$GPRMC,224903.562,A,3344.5977,N,11707.1682,W,41.384291,269.54,120210,,*23
$GPRMC,224906.562,A,3344.5973,N,11707.2095,W,41.729979,268.96,120210,,*20
$GPRMC,224909.562,A,3344.5968,N,11707.2515,W,42.666762,269.43,120210,,*2C
$GPRMC,224912.561,A,3344.5969,N,11707.2947,W,44.066061,270.18,120210,,*2D
$GPRMC,224915.561,A,3344.5970,N,11707.3393,W,45.444502,269.90,120210,,*2D
$GPRMC,224918.561,A,3344.5968,N,11707.3853,W,46.700888,269.96,120210,,*27
$GPRMC,224921.561,A,3344.5973,N,11707.4325,W,47.517513,270.98,120210,,*26
$GPRMC,224924.561,A,3344.5974,N,11707.4802,W,47.737348,270.30,120210,,*20
$GPRMC,224927.560,A,3344.5974,N,11707.5275,W,47.138874,269.40,120210,,*2B
$GPRMC,224930.560,A,3344.5973,N,11707.5744,W,47.160940,270.06,120210,,*2C
$GPRMC,224933.560,A,3344.5972,N,11707.6212,W,46.497673,269.66,120210,,*26
$GPRMC,224936.560,A,3344.5972,N,11707.6668,W,44.932516,270.14,120210,,*27
$GPRMC,224939.560,A,3344.5971,N,11707.7106,W,43.937125,269.34,120210,,*29
$GPRMC,224942.559,A,3344.5966,N,11707.7546,W,44.266114,268.97,120210,,*2B
$GPRMC,224945.559,A,3344.5960,N,11707.7992,W,45.097241,269.61,120210,,*29
$GPRMC,224948.559,A,3344.5955,N,11707.8447,W,45.720229,269.44,120210,,*2A
$GPRMC,224951.559,A,3344.5950,N,11707.8902,W,45.694085,269.35,120210,,*27
$GPRMC,224954.559,A,3344.5947,N,11707.9357,W,45.891797,269.91,120210,,*2E
$GPRMC,224957.558,A,3344.5946,N,11707.9814,W,46.109016,269.68,120210,,*22
$GPRMC,225000.558,A,3344.5943,N,11708.0265,W,42.061058,269.93,120210,,*22
$GPRMC,225003.558,A,3344.5939,N,11708.0643,W,33.385000,269.74,120210,,*27
$GPRMC,225006.558,A,3344.5937,N,11708.0939,W,26.075045,270.07,120210,,*2B
$GPRMC,225009.558,A,3344.5940,N,11708.1164,W,21.443180,270.32,120210,,*2D
$GPRMC,225012.558,A,3344.5944,N,11708.1348,W,17.733232,270.47,120210,,*26
$GPRMC,225015.557,A,3344.5946,N,11708.1504,W,14.807954,270.26,120210,,*25
$GPRMC,225018.557,A,3344.5944,N,11708.1627,W,10.468262,269.84,120210,,*27
$GPRMC,225021.557,A,3344.5942,N,11708.1704,W,5.925647,269.73,120210,,*10
$GPRMC,225033.556,A,3344.5945,N,11708.1735,W,4.666298,269.80,120210,,*14
$GPRMC,225036.556,A,3344.5945,N,11708.1818,W,12.203683,269.79,120210,,*29
$GPRMC,225039.556,A,3344.5944,N,11708.1973,W,18.575842,269.81,120210,,*23
$GPRMC,225042.556,A,3344.5941,N,11708.2190,W,23.943908,269.45,120210,,*2A
$GPRMC,225045.555,A,3344.5937,N,11708.2455,W,28.117800,269.47,120210,,*2A
$GPRMC,225048.555,A,3344.5933,N,11708.2757,W,31.237119,269.08,120210,,*21
$GPRMC,225051.555,A,3344.5929,N,11708.3086,W,33.556176,269.84,120210,,*27
$GPRMC,225054.555,A,3344.5928,N,11708.3437,W,35.672979,269.53,120210,,*23
$GPRMC,225057.555,A,3344.5928,N,11708.3805,W,37.275500,269.84,120210,,*24
$GPRMC,225100.555,A,3344.5929,N,11708.4186,W,38.798492,269.53,120210,,*2A
$GPRMC,225103.554,A,3344.5928,N,11708.4582,W,40.136822,270.05,120210,,*28
$GPRMC,225106.554,A,3344.5926,N,11708.4991,W,41.403414,269.34,120210,,*2C
$GPRMC,225109.554,A,3344.5923,N,11708.5414,W,42.767045,269.95,120210,,*2E
$GPRMC,225112.554,A,3344.5924,N,11708.5849,W,43.901595,269.95,120210,,*20
$GPRMC,225115.554,A,3344.5924,N,11708.6289,W,44.427353,269.75,120210,,*2E
$GPRMC,225118.553,A,3344.5922,N,11708.6738,W,45.236365,269.65,120210,,*2E
$GPRMC,225121.553,A,3344.5918,N,11708.7192,W,45.237618,269.76,120210,,*26
$GPRMC,225124.553,A,3344.5917,N,11708.7634,W,43.203496,269.67,120210,,*22
$GPRMC,225127.553,A,3344.5915,N,11708.8058,W,41.346453,270.15,120210,,*26
$GPRMC,225130.553,A,3344.5914,N,11708.8455,W,38.228357,269.91,120210,,*28
$GPRMC,225133.552,A,3344.5910,N,11708.8830,W,37.430658,269.58,120210,,*2E
$GPRMC,225136.552,A,3344.5911,N,11708.9201,W,37.805328,270.26,120210,,*2A
$GPRMC,225139.552,A,3344.5911,N,11708.9571,W,37.291312,269.44,120210,,*27
$GPRMC,225142.552,A,3344.5910,N,11708.9934,W,36.140733,269.77,120210,,*2E
$GPRMC,225145.552,A,3344.5907,N,11709.0278,W,33.472185,269.84,120210,,*22
$GPRMC,225148.551,A,3344.5907,N,11709.0596,W,30.704498,270.61,120210,,*20
$GPRMC,225151.551,A,3344.5914,N,11709.0882,W,27.172223,270.58,120210,,*2F
$GPRMC,225154.551,A,3344.5916,N,11709.1135,W,24.173641,269.64,120210,,*29
$GPRMC,225157.551,A,3344.5916,N,11709.1356,W,21.456268,269.85,120210,,*2A
$GPRMC,225200.551,A,3344.5917,N,11709.1552,W,18.938670,270.15,120210,,*2B
$GPRMC,225203.551,A,3344.5918,N,11709.1721,W,15.694964,269.58,120210,,*2E
$GPRMC,225206.550,A,3344.5915,N,11709.1839,W,10.567226,269.02,120210,,*29
$GPRMC,225209.550,A,3344.5914,N,11709.1938,W,10.493485,270.52,120210,,*2F
$GPRMC,225212.550,A,3344.5916,N,11709.2039,W,10.682755,270.82,120210,,*2D
$GPRMC,225215.550,A,3344.5918,N,11709.2151,W,12.595574,270.55,120210,,*27
$GPRMC,225218.550,A,3344.5918,N,11709.2291,W,16.222675,268.20,120210,,*23
$GPRMC,225221.549,A,3344.5914,N,11709.2475,W,20.578589,268.72,120210,,*2B
$GPRMC,225224.549,A,3344.5909,N,11709.2702,W,24.532940,268.69,120210,,*28
$GPRMC,225227.549,A,3344.5903,N,11709.2967,W,27.710250,268.80,120210,,*20
$GPRMC,225230.549,A,3344.5898,N,11709.3262,W,30.557492,268.99,120210,,*2D
$GPRMC,225233.549,A,3344.5890,N,11709.3583,W,32.982909,268.13,120210,,*25
$GPRMC,225236.548,A,3344.5881,N,11709.3930,W,35.425266,269.10,120210,,*22
$GPRMC,225239.548,A,3344.5874,N,11709.4298,W,37.269194,268.67,120210,,*2A
$GPRMC,225242.548,A,3344.5866,N,11709.4676,W,38.022895,269.02,120210,,*29
$GPRMC,225245.548,A,3344.5859,N,11709.5056,W,37.659305,268.70,120210,,*24
$GPRMC,225248.548,A,3344.5849,N,11709.5438,W,38.330602,268.94,120210,,*29
$GPRMC,225251.547,A,3344.5844,N,11709.5824,W,38.834015,269.32,120210,,*20
$GPRMC,225254.547,A,3344.5842,N,11709.6213,W,39.090336,269.40,120210,,*2E
$GPRMC,225257.547,A,3344.5840,N,11709.6605,W,39.225308,269.81,120210,,*20
$GPRMC,225300.547,A,3344.5841,N,11709.6997,W,39.501655,269.15,120210,,*27
$GPRMC,225303.547,A,3344.5838,N,11709.7391,W,39.647653,269.18,120210,,*2D
$GPRMC,225306.547,A,3344.5832,N,11709.7786,W,39.668580,268.97,120210,,*26
$GPRMC,225309.546,A,3344.5828,N,11709.8182,W,40.116527,269.25,120210,,*2B
$GPRMC,225312.546,A,3344.5824,N,11709.8584,W,40.653758,268.66,120210,,*25
$GPRMC,225315.546,A,3344.5815,N,11709.8992,W,41.019666,268.74,120210,,*2D
$GPRMC,225318.546,A,3344.5808,N,11709.9404,W,41.093152,268.93,120210,,*24
$GPRMC,225321.546,A,3344.5801,N,11709.9818,W,41.311841,269.45,120210,,*2E
$GPRMC,225324.545,A,3344.5799,N,11710.0232,W,41.642214,269.72,120210,,*28
$GPRMC,225327.545,A,3344.5797,N,11710.0649,W,41.931591,269.32,120210,,*28
$GPRMC,225330.545,A,3344.5795,N,11710.1068,W,42.350800,269.06,120210,,*24
$GPRMC,225333.545,A,3344.5782,N,11710.1490,W,42.493814,267.18,120210,,*2E
$GPRMC,225336.545,A,3344.5768,N,11710.1912,W,42.693466,270.59,120210,,*20
$GPRMC,225339.544,A,3344.5825,N,11710.2329,W,42.641318,288.85,120210,,*2E
$GPRMC,225342.544,A,3344.5993,N,11710.2700,W,42.381334,303.90,120210,,*20
$GPRMC,225345.544,A,3344.6209,N,11710.3039,W,42.469182,306.57,120210,,*20
$GPRMC,225348.544,A,3344.6424,N,11710.3380,W,42.408367,304.30,120210,,*28
$GPRMC,225351.544,A,3344.6626,N,11710.3732,W,42.401016,304.57,120210,,*20
$GPRMC,225354.543,A,3344.6836,N,11710.4078,W,42.615592,305.80,120210,,*26
$GPRMC,225357.543,A,3344.7049,N,11710.4425,W,42.590568,305.81,120210,,*22
$GPRMC,225400.543,A,3344.7261,N,11710.4770,W,42.698063,306.05,120210,,*26
$GPRMC,225403.543,A,3344.7473,N,11710.5115,W,42.859755,305.91,120210,,*2B
$GPRMC,225406.543,A,3344.7683,N,11710.5464,W,42.943928,305.60,120210,,*20
$GPRMC,225409.543,A,3344.7894,N,11710.5813,W,43.097946,305.98,120210,,*25
$GPRMC,225412.542,A,3344.8106,N,11710.6164,W,43.211293,305.77,120210,,*27
$GPRMC,225415.542,A,3344.8319,N,11710.6512,W,43.039207,306.46,120210,,*2D
$GPRMC,225418.542,A,3344.8534,N,11710.6848,W,40.994032,307.85,120210,,*2C
$GPRMC,225421.542,A,3344.8733,N,11710.7157,W,37.507241,307.09,120210,,*21
$GPRMC,225424.542,A,3344.8908,N,11710.7442,W,34.111826,305.13,120210,,*21
$GPRMC,225427.541,A,3344.9069,N,11710.7711,W,34.255001,305.92,120210,,*2C
$GPRMC,225430.541,A,3344.9236,N,11710.7991,W,35.602857,305.91,120210,,*2B
$GPRMC,225433.541,A,3344.9413,N,11710.8282,W,36.981026,306.17,120210,,*2B
$GPRMC,225436.541,A,3344.9597,N,11710.8584,W,38.081836,306.42,120210,,*2C
$GPRMC,225439.541,A,3344.9788,N,11710.8895,W,39.248989,306.02,120210,,*25
$GPRMC,225442.540,A,3344.9986,N,11710.9217,W,40.270391,306.18,120210,,*24
$GPRMC,225445.540,A,3345.0184,N,11710.9546,W,40.853664,305.95,120210,,*20
$GPRMC,225448.540,A,3345.0383,N,11710.9879,W,40.945456,306.25,120210,,*24
$GPRMC,225451.540,A,3345.0585,N,11711.0213,W,41.126128,306.01,120210,,*24
$GPRMC,225454.540,A,3345.0787,N,11711.0543,W,39.474617,306.08,120210,,*2C
$GPRMC,225457.539,A,3345.0953,N,11711.0820,W,28.966562,305.86,120210,,*24
$GPRMC,225500.539,A,3345.1066,N,11711.1001,W,17.577567,307.02,120210,,*28
$GPRMC,225503.539,A,3345.1130,N,11711.1099,W,9.649389,306.39,120210,,*16
$GPRMC,225506.539,A,3345.1164,N,11711.1151,W,5.441799,305.74,120210,,*1E
$GPRMC,225515.538,A,3345.1178,N,11711.1179,W,6.252023,305.90,120210,,*11
$GPRMC,225518.538,A,3345.1232,N,11711.1267,W,15.572823,307.21,120210,,*2A
$GPRMC,225521.538,A,3345.1332,N,11711.1428,W,23.146022,306.13,120210,,*23
$GPRMC,225524.538,A,3345.1464,N,11711.1643,W,28.612216,305.96,120210,,*2B
$GPRMC,225527.538,A,3345.1615,N,11711.1895,W,31.956407,305.93,120210,,*2D
$GPRMC,225530.537,A,3345.1781,N,11711.2172,W,34.834454,305.32,120210,,*26
$GPRMC,225533.537,A,3345.1952,N,11711.2472,W,36.292616,303.57,120210,,*25
$GPRMC,225536.537,A,3345.2122,N,11711.2785,W,37.315511,303.09,120210,,*27
$GPRMC,225539.537,A,3345.2297,N,11711.3100,W,37.279941,304.02,120210,,*21
$GPRMC,225542.537,A,3345.2473,N,11711.3409,W,36.966251,304.02,120210,,*23
$GPRMC,225545.536,A,3345.2645,N,11711.3712,W,35.956220,305.85,120210,,*23
$GPRMC,225548.536,A,3345.2841,N,11711.3981,W,35.286306,317.64,120210,,*2F
$GPRMC,225551.536,A,3345.3081,N,11711.4174,W,34.199543,331.89,120210,,*2B
$GPRMC,225554.536,A,3345.3342,N,11711.4279,W,32.148907,347.93,120210,,*20
$GPRMC,225557.536,A,3345.3608,N,11711.4303,W,30.958568,359.02,120210,,*2D
$GPRMC,225600.536,A,3345.3865,N,11711.4297,W,29.017841,359.42,120210,,*2D
$GPRMC,225603.535,A,3345.4096,N,11711.4291,W,25.705699,1.45,120210,,*22
$GPRMC,225606.535,A,3345.4300,N,11711.4255,W,23.403806,19.36,120210,,*15
$GPRMC,225609.535,A,3345.4435,N,11711.4109,W,21.321640,60.75,120210,,*11
$GPRMC,225612.535,A,3345.4443,N,11711.3897,W,21.773517,106.98,120210,,*23
$GPRMC,225615.535,A,3345.4318,N,11711.3728,W,22.431106,151.73,120210,,*23
$GPRMC,225618.534,A,3345.4118,N,11711.3681,W,23.532984,176.58,120210,,*22
$GPRMC,225621.534,A,3345.3890,N,11711.3678,W,27.422393,178.39,120210,,*21
$GPRMC,225624.534,A,3345.3636,N,11711.3674,W,30.746764,179.09,120210,,*23
$GPRMC,225627.534,A,3345.3357,N,11711.3672,W,33.988054,179.25,120210,,*21
$GPRMC,225630.534,A,3345.3054,N,11711.3665,W,36.868962,179.08,120210,,*28
$GPRMC,225633.533,A,3345.2730,N,11711.3663,W,39.722060,180.08,120210,,*2D
$GPRMC,225636.533,A,3345.2381,N,11711.3668,W,42.835631,180.12,120210,,*21
$GPRMC,225639.533,A,3345.2006,N,11711.3673,W,46.131939,180.22,120210,,*25
$GPRMC,225642.533,A,3345.1597,N,11711.3676,W,49.833184,180.49,120210,,*25
$GPRMC,225645.533,A,3345.1158,N,11711.3678,W,53.162850,180.47,120210,,*23
$GPRMC,225648.532,A,3345.0701,N,11711.3683,W,54.440992,180.26,120210,,*2A
$GPRMC,225651.532,A,3345.0240,N,11711.3681,W,54.357781,180.38,120210,,*22
$GPRMC,225654.532,A,3344.9783,N,11711.3683,W,53.626259,180.45,120210,,*29
$GPRMC,225657.532,A,3344.9341,N,11711.3688,W,52.376149,180.52,120210,,*2E
$GPRMC,225700.532,A,3344.8906,N,11711.3693,W,52.031271,180.95,120210,,*2C
$GPRMC,225703.532,A,3344.8472,N,11711.3704,W,52.133100,181.58,120210,,*28
$GPRMC,225706.531,A,3344.8034,N,11711.3723,W,52.209781,182.33,120210,,*26
$GPRMC,225709.531,A,3344.7597,N,11711.3742,W,52.275472,182.28,120210,,*23
$GPRMC,225712.531,A,3344.7159,N,11711.3760,W,52.369866,181.55,120210,,*23
$GPRMC,225715.531,A,3344.6723,N,11711.3775,W,52.439282,180.57,120210,,*2B
$GPRMC,225718.531,A,3344.6286,N,11711.3780,W,52.706388,180.37,120210,,*24
$GPRMC,225721.530,A,3344.5847,N,11711.3783,W,52.679944,179.96,120210,,*26
$GPRMC,225724.530,A,3344.5406,N,11711.3784,W,52.928315,180.20,120210,,*23
$GPRMC,225727.530,A,3344.4964,N,11711.3777,W,52.901803,178.96,120210,,*29
$GPRMC,225730.530,A,3344.4523,N,11711.3766,W,52.861473,179.18,120210,,*2B
$GPRMC,225733.530,A,3344.4083,N,11711.3763,W,52.790058,179.63,120210,,*22
$GPRMC,225736.529,A,3344.3642,N,11711.3759,W,52.719802,179.71,120210,,*2F
$GPRMC,225739.529,A,3344.3202,N,11711.3754,W,52.706657,179.29,120210,,*20
$GPRMC,225742.529,A,3344.2763,N,11711.3748,W,52.709974,179.48,120210,,*24
$GPRMC,225745.529,A,3344.2323,N,11711.3740,W,52.729842,179.31,120210,,*23
$GPRMC,225748.529,A,3344.1882,N,11711.3735,W,52.697695,179.64,120210,,*2F
$GPRMC,225751.528,A,3344.1441,N,11711.3728,W,52.599594,179.17,120210,,*22
$GPRMC,225754.528,A,3344.1001,N,11711.3721,W,52.653380,179.73,120210,,*2A
$GPRMC,225757.528,A,3344.0560,N,11711.3714,W,52.686590,179.28,120210,,*2D
$GPRMC,225800.528,A,3344.0119,N,11711.3710,W,52.658312,179.52,120210,,*2C
$GPRMC,225803.528,A,3343.9679,N,11711.3704,W,52.718889,179.38,120210,,*25
$GPRMC,225806.528,A,3343.9237,N,11711.3699,W,52.723455,179.68,120210,,*2B
$GPRMC,225809.527,A,3343.8796,N,11711.3694,W,52.801188,179.54,120210,,*2C
$GPRMC,225812.527,A,3343.8353,N,11711.3689,W,52.865059,179.51,120210,,*2D
$GPRMC,225815.527,A,3343.7910,N,11711.3684,W,52.926804,179.40,120210,,*23
$GPRMC,225818.527,A,3343.7467,N,11711.3679,W,52.958818,179.41,120210,,*24
$GPRMC,225821.527,A,3343.7025,N,11711.3671,W,52.845380,179.13,120210,,*24
$GPRMC,225824.526,A,3343.6582,N,11711.3665,W,52.884342,179.67,120210,,*2C
$GPRMC,225827.526,A,3343.6141,N,11711.3662,W,52.774532,179.43,120210,,*24
$GPRMC,225830.526,A,3343.5700,N,11711.3657,W,52.719268,179.43,120210,,*27
$GPRMC,225833.526,A,3343.5259,N,11711.3649,W,52.730103,179.33,120210,,*20
$GPRMC,225836.526,A,3343.4819,N,11711.3642,W,52.655069,179.33,120210,,*2E
$GPRMC,225839.525,A,3343.4378,N,11711.3636,W,52.632060,179.47,120210,,*26
$GPRMC,225842.525,A,3343.3938,N,11711.3631,W,52.698877,179.54,120210,,*28
$GPRMC,225845.525,A,3343.3495,N,11711.3628,W,52.862538,179.14,120210,,*24
$GPRMC,225848.525,A,3343.3053,N,11711.3621,W,52.785819,179.21,120210,,*20
$GPRMC,225851.525,A,3343.2613,N,11711.3616,W,52.833065,179.74,120210,,*2E
$GPRMC,225854.524,A,3343.2172,N,11711.3611,W,52.837316,179.42,120210,,*2B
$GPRMC,225857.524,A,3343.1732,N,11711.3604,W,52.802225,179.48,120210,,*20
$GPRMC,225900.524,A,3343.1291,N,11711.3598,W,52.685294,179.51,120210,,*2A
$GPRMC,225903.524,A,3343.0851,N,11711.3597,W,52.652316,179.73,120210,,*20
$GPRMC,225906.524,A,3343.0410,N,11711.3591,W,52.649899,179.16,120210,,*2F
$GPRMC,225909.524,A,3342.9969,N,11711.3575,W,52.718323,178.75,120210,,*2A
$GPRMC,225912.523,A,3342.9528,N,11711.3571,W,52.629432,179.39,120210,,*27
$GPRMC,225915.523,A,3342.9090,N,11711.3561,W,51.989577,177.91,120210,,*2D
$GPRMC,225918.523,A,3342.8652,N,11711.3530,W,52.720200,175.14,120210,,*2B
$GPRMC,225921.523,A,3342.8215,N,11711.3469,W,52.711450,172.14,120210,,*2D
$GPRMC,225924.523,A,3342.7783,N,11711.3381,W,52.807275,168.85,120210,,*26
$GPRMC,225927.522,A,3342.7355,N,11711.3264,W,52.529738,165.81,120210,,*25
$GPRMC,225930.522,A,3342.6935,N,11711.3116,W,52.283868,162.90,120210,,*22
$GPRMC,225933.522,A,3342.6524,N,11711.2943,W,51.794663,159.87,120210,,*2F
$GPRMC,225936.522,A,3342.6122,N,11711.2748,W,51.514521,157.03,120210,,*20
$GPRMC,225939.522,A,3342.5730,N,11711.2527,W,51.771510,153.53,120210,,*20
$GPRMC,225942.521,A,3342.5344,N,11711.2283,W,52.045284,152.14,120210,,*2A
$GPRMC,225945.521,A,3342.4961,N,11711.2029,W,52.361368,151.20,120210,,*21
$GPRMC,225948.521,A,3342.4580,N,11711.1766,W,52.413472,149.71,120210,,*23
$GPRMC,225951.521,A,3342.4203,N,11711.1489,W,52.538572,147.90,120210,,*2D
$GPRMC,225954.521,A,3342.3832,N,11711.1202,W,52.609914,146.95,120210,,*2B
$GPRMC,225957.521,A,3342.3460,N,11711.0914,W,52.731622,147.76,120210,,*22
$GPRMC,230000.520,A,3342.3087,N,11711.0632,W,52.874988,147.74,120210,,*29
$GPRMC,230003.520,A,3342.2712,N,11711.0351,W,52.766947,147.85,120210,,*21
$GPRMC,230006.520,A,3342.2335,N,11711.0075,W,52.789676,149.56,120210,,*2C
$GPRMC,230009.520,A,3342.1950,N,11710.9811,W,52.875782,150.77,120210,,*26
$GPRMC,230012.520,A,3342.1560,N,11710.9551,W,53.664063,150.86,120210,,*23
$GPRMC,230015.519,A,3342.1168,N,11710.9291,W,53.722030,151.08,120210,,*2B
$GPRMC,230018.519,A,3342.0773,N,11710.9033,W,53.979312,151.15,120210,,*2E
$GPRMC,230021.519,A,3342.0378,N,11710.8771,W,53.887313,150.75,120210,,*2D
$GPRMC,230024.519,A,3341.9983,N,11710.8510,W,53.717062,150.98,120210,,*29
$GPRMC,230027.519,A,3341.9589,N,11710.8254,W,53.530310,151.62,120210,,*2E
$GPRMC,230030.518,A,3341.9198,N,11710.7997,W,53.341445,150.74,120210,,*27
$GPRMC,230033.518,A,3341.8810,N,11710.7736,W,53.204905,150.75,120210,,*21
$GPRMC,230036.518,A,3341.8421,N,11710.7478,W,53.187616,151.21,120210,,*26
$GPRMC,230039.518,A,3341.8032,N,11710.7222,W,53.184302,150.89,120210,,*26
$GPRMC,230042.518,A,3341.7643,N,11710.6965,W,53.180876,151.01,120210,,*21
$GPRMC,230045.517,A,3341.7254,N,11710.6708,W,53.158896,151.10,120210,,*25
$GPRMC,230048.517,A,3341.6865,N,11710.6449,W,53.106595,150.86,120210,,*2C
$GPRMC,230051.517,A,3341.6477,N,11710.6192,W,53.017291,151.05,120210,,*20
$GPRMC,230054.517,A,3341.6090,N,11710.5937,W,53.022561,150.84,120210,,*2A
$GPRMC,230057.517,A,3341.5703,N,11710.5679,W,52.769197,150.90,120210,,*23
$GPRMC,230100.517,A,3341.5319,N,11710.5424,W,52.561786,151.13,120210,,*23
$GPRMC,230103.516,A,3341.4937,N,11710.5170,W,52.289432,150.94,120210,,*21
$GPRMC,230106.516,A,3341.4554,N,11710.4917,W,52.233660,151.18,120210,,*24
$GPRMC,230109.516,A,3341.4172,N,11710.4663,W,52.275736,151.06,120210,,*28
$GPRMC,230112.516,A,3341.3789,N,11710.4410,W,52.472647,151.13,120210,,*23
$GPRMC,230115.516,A,3341.3406,N,11710.4156,W,52.642022,151.01,120210,,*20
$GPRMC,230118.515,A,3341.3021,N,11710.3901,W,52.743365,151.00,120210,,*23
$GPRMC,230121.515,A,3341.2632,N,11710.3651,W,52.845836,152.79,120210,,*2F
$GPRMC,230124.515,A,3341.2233,N,11710.3423,W,52.747137,155.88,120210,,*24
$GPRMC,230127.515,A,3341.1825,N,11710.3224,W,52.793615,158.95,120210,,*27
$GPRMC,230130.515,A,3341.1408,N,11710.3053,W,52.702764,161.87,120210,,*26
$GPRMC,230133.514,A,3341.1001,N,11710.2913,W,47.453338,163.56,120210,,*25
$GPRMC,230136.514,A,3341.0645,N,11710.2816,W,40.881354,167.50,120210,,*2F
$GPRMC,230139.514,A,3341.0334,N,11710.2746,W,36.600382,170.11,120210,,*27
$GPRMC,230142.514,A,3341.0058,N,11710.2697,W,31.577254,171.90,120210,,*29
$GPRMC,230145.514,A,3340.9821,N,11710.2664,W,26.339238,173.90,120210,,*2E
$GPRMC,230148.513,A,3340.9625,N,11710.2642,W,22.498137,175.30,120210,,*22
$GPRMC,230151.513,A,3340.9458,N,11710.2627,W,19.567694,176.16,120210,,*21
$GPRMC,230154.513,A,3340.9309,N,11710.2618,W,16.195536,176.53,120210,,*27
$GPRMC,230157.513,A,3340.9190,N,11710.2612,W,13.288025,178.08,120210,,*21
$GPRMC,230200.513,A,3340.9095,N,11710.2613,W,9.853059,178.75,120210,,*13
$GPRMC,230203.513,A,3340.9035,N,11710.2615,W,6.112010,179.10,120210,,*10
$GPRMC,230206.512,A,3340.8993,N,11710.2615,W,4.922976,179.97,120210,,*1F
$GPRMC,230224.511,A,3340.8800,N,11710.2607,W,5.894267,179.22,120210,,*1C
$GPRMC,230227.511,A,3340.8739,N,11710.2606,W,7.965381,179.86,120210,,*11
$GPRMC,230230.511,A,3340.8673,N,11710.2606,W,7.998933,180.54,120210,,*10
$GPRMC,230233.511,A,3340.8600,N,11710.2610,W,8.975243,180.63,120210,,*14
$GPRMC,230236.510,A,3340.8517,N,11710.2613,W,9.858981,180.78,120210,,*16
$GPRMC,230239.510,A,3340.8425,N,11710.2614,W,12.142855,180.96,120210,,*2E
$GPRMC,230242.510,A,3340.8313,N,11710.2615,W,14.266889,180.37,120210,,*28
$GPRMC,230245.510,A,3340.8181,N,11710.2617,W,16.533495,179.97,120210,,*2C
$GPRMC,230248.510,A,3340.8042,N,11710.2619,W,15.240576,180.39,120210,,*2F
$GPRMC,230251.509,A,3340.7919,N,11710.2621,W,13.728468,180.77,120210,,*25
$GPRMC,230254.509,A,3340.7807,N,11710.2622,W,13.232043,180.46,120210,,*2C
$GPRMC,230257.509,A,3340.7691,N,11710.2622,W,14.605088,180.19,120210,,*24
$GPRMC,230300.509,A,3340.7568,N,11710.2622,W,15.008053,180.17,120210,,*20
$GPRMC,230303.509,A,3340.7436,N,11710.2619,W,16.561595,180.00,120210,,*21
$GPRMC,230306.509,A,3340.7286,N,11710.2621,W,18.973393,180.69,120210,,*2C
$GPRMC,230309.508,A,3340.7117,N,11710.2624,W,21.453916,180.70,120210,,*26
$GPRMC,230312.508,A,3340.6922,N,11710.2624,W,24.020861,180.02,120210,,*22
$GPRMC,230315.508,A,3340.6706,N,11710.2624,W,26.603524,180.56,120210,,*25
$GPRMC,230318.508,A,3340.6473,N,11710.2628,W,28.330018,180.84,120210,,*2B
$GPRMC,230321.508,A,3340.6227,N,11710.2629,W,29.742839,179.90,120210,,*2F
$GPRMC,230324.507,A,3340.5969,N,11710.2627,W,31.273728,180.12,120210,,*24
$GPRMC,230327.507,A,3340.5701,N,11710.2628,W,32.460565,180.08,120210,,*2F
$GPRMC,230330.507,A,3340.5422,N,11710.2629,W,33.472840,180.44,120210,,*2A
$GPRMC,230333.507,A,3340.5136,N,11710.2631,W,34.518911,180.30,120210,,*2C
$GPRMC,230336.507,A,3340.4838,N,11710.2634,W,36.049518,180.45,120210,,*2E
$GPRMC,230339.506,A,3340.4531,N,11710.2635,W,36.601700,180.69,120210,,*2A
$GPRMC,230342.506,A,3340.4224,N,11710.2638,W,36.628482,180.09,120210,,*2C
$GPRMC,230345.506,A,3340.3918,N,11710.2639,W,36.528089,179.91,120210,,*22
$GPRMC,230348.506,A,3340.3614,N,11710.2639,W,36.503697,180.13,120210,,*20
$GPRMC,230351.506,A,3340.3306,N,11710.2639,W,37.106810,180.08,120210,,*25
$GPRMC,230354.506,A,3340.2991,N,11710.2639,W,37.588177,180.24,120210,,*21
$GPRMC,230357.505,A,3340.2676,N,11710.2638,W,37.612250,180.12,120210,,*25
$GPRMC,230400.505,A,3340.2365,N,11710.2640,W,37.395826,180.46,120210,,*28
$GPRMC,230403.505,A,3340.2057,N,11710.2645,W,36.783016,180.51,120210,,*23
$GPRMC,230406.505,A,3340.1755,N,11710.2644,W,35.868434,179.96,120210,,*21
$GPRMC,230409.505,A,3340.1460,N,11710.2645,W,35.033307,180.28,120210,,*28
$GPRMC,230412.504,A,3340.1170,N,11710.2647,W,34.229067,180.58,120210,,*2F
$GPRMC,230415.504,A,3340.0891,N,11710.2650,W,32.270131,180.28,120210,,*26
$GPRMC,230418.504,A,3340.0633,N,11710.2650,W,30.225070,179.81,120210,,*2E
$GPRMC,230421.504,A,3340.0382,N,11710.2651,W,29.964925,180.79,120210,,*24
$GPRMC,230424.504,A,3340.0132,N,11710.2653,W,29.884389,179.94,120210,,*2C
$GPRMC,230427.503,A,3339.9897,N,11710.2652,W,26.753294,180.20,120210,,*26
$GPRMC,230430.503,A,3339.9700,N,11710.2653,W,19.831776,179.80,120210,,*22
$GPRMC,230433.503,A,3339.9572,N,11710.2652,W,12.781243,180.14,120210,,*20
$GPRMC,230436.503,A,3339.9486,N,11710.2652,W,9.419958,179.95,120210,,*19
$GPRMC,230439.503,A,3339.9417,N,11710.2653,W,8.337511,180.72,120210,,*1B
$GPRMC,230442.502,A,3339.9361,N,11710.2654,W,6.231358,181.15,120210,,*15
$GPRMC,230445.502,A,3339.9311,N,11710.2654,W,7.183321,181.21,120210,,*17
$GPRMC,230448.502,A,3339.9238,N,11710.2653,W,10.488225,180.87,120210,,*27
$GPRMC,230451.502,A,3339.9134,N,11710.2652,W,14.132269,179.97,120210,,*2E
$GPRMC,230454.502,A,3339.8995,N,11710.2651,W,18.595066,179.97,120210,,*22
$GPRMC,230457.502,A,3339.8820,N,11710.2654,W,22.461328,180.96,120210,,*26
$GPRMC,230500.501,A,3339.8611,N,11710.2656,W,26.119778,180.13,120210,,*2A
$GPRMC,230503.501,A,3339.8376,N,11710.2659,W,28.634318,180.61,120210,,*23
$GPRMC,230506.501,A,3339.8126,N,11710.2666,W,30.223582,181.20,120210,,*27
$GPRMC,230509.501,A,3339.7862,N,11710.2670,W,32.012353,180.12,120210,,*21
$GPRMC,230512.501,A,3339.7584,N,11710.2674,W,33.351598,180.72,120210,,*28
$GPRMC,230515.500,A,3339.7302,N,11710.2681,W,32.840929,181.21,120210,,*27
$GPRMC,230518.500,A,3339.7042,N,11710.2689,W,29.806719,181.37,120210,,*27
$GPRMC,230521.500,A,3339.6796,N,11710.2699,W,30.017398,182.19,120210,,*21
$GPRMC,230524.500,A,3339.6543,N,11710.2710,W,30.594236,182.10,120210,,*2C
$GPRMC,230527.500,A,3339.6280,N,11710.2719,W,32.396564,181.65,120210,,*29
$GPRMC,230530.499,A,3339.5998,N,11710.2733,W,34.674271,182.33,120210,,*2B
$GPRMC,230533.499,A,3339.5702,N,11710.2749,W,35.665244,182.50,120210,,*2A
$GPRMC,230536.499,A,3339.5402,N,11710.2761,W,35.528961,182.22,120210,,*25
$GPRMC,230539.499,A,3339.5107,N,11710.2772,W,35.049845,182.09,120210,,*24
$GPRMC,230542.499,A,3339.4819,N,11710.2783,W,33.253675,181.85,120210,,*24
$GPRMC,230545.498,A,3339.4552,N,11710.2789,W,31.252085,181.38,120210,,*26
$GPRMC,230548.498,A,3339.4293,N,11710.2796,W,30.882691,181.79,120210,,*2F
$GPRMC,230551.498,A,3339.4041,N,11710.2801,W,29.978005,180.89,120210,,*22
$GPRMC,230554.498,A,3339.3791,N,11710.2809,W,29.742460,181.35,120210,,*24
$GPRMC,230557.498,A,3339.3545,N,11710.2815,W,29.159664,180.40,120210,,*28
$GPRMC,230600.498,A,3339.3304,N,11710.2818,W,28.764007,179.77,120210,,*2F
$GPRMC,230603.497,A,3339.3064,N,11710.2817,W,29.213466,179.65,120210,,*2D
$GPRMC,230606.497,A,3339.2820,N,11710.2817,W,29.876279,179.82,120210,,*29
$GPRMC,230609.497,A,3339.2567,N,11710.2819,W,30.580472,179.94,120210,,*20
$GPRMC,230612.497,A,3339.2306,N,11710.2818,W,31.684713,180.19,120210,,*2B
$GPRMC,230615.497,A,3339.2037,N,11710.2816,W,32.326890,179.84,120210,,*2B
$GPRMC,230618.496,A,3339.1772,N,11710.2811,W,31.226744,179.39,120210,,*27
$GPRMC,230621.496,A,3339.1519,N,11710.2808,W,30.067736,179.93,120210,,*29
$GPRMC,230624.496,A,3339.1270,N,11710.2807,W,29.324917,179.66,120210,,*20
$GPRMC,230627.496,A,3339.1028,N,11710.2806,W,28.553870,180.16,120210,,*2B
$GPRMC,230630.496,A,3339.0794,N,11710.2811,W,27.919854,179.97,120210,,*2E
$GPRMC,230633.495,A,3339.0565,N,11710.2812,W,26.734754,179.63,120210,,*25
$GPRMC,230636.495,A,3339.0346,N,11710.2808,W,25.954849,179.61,120210,,*26
$GPRMC,230639.495,A,3339.0127,N,11710.2811,W,26.563065,180.63,120210,,*2D
$GPRMC,230642.495,A,3338.9916,N,11710.2813,W,27.209828,179.78,120210,,*26
$GPRMC,230645.495,A,3338.9684,N,11710.2810,W,27.617464,179.62,120210,,*22
$GPRMC,230648.494,A,3338.9450,N,11710.2811,W,27.751433,180.39,120210,,*2D
$GPRMC,230651.494,A,3338.9214,N,11710.2814,W,27.604646,180.40,120210,,*29
$GPRMC,230654.494,A,3338.8984,N,11710.2816,W,26.846340,179.99,120210,,*25
$GPRMC,230657.494,A,3338.8763,N,11710.2812,W,25.784458,179.46,120210,,*2B
$GPRMC,230700.494,A,3338.8549,N,11710.2809,W,25.345970,179.82,120210,,*2E
$GPRMC,230703.494,A,3338.8339,N,11710.2809,W,25.401891,179.81,120210,,*26
$GPRMC,230706.493,A,3338.8122,N,11710.2811,W,26.498922,180.00,120210,,*20
$GPRMC,230709.493,A,3338.7893,N,11710.2813,W,27.883989,180.40,120210,,*23
$GPRMC,230712.493,A,3338.7651,N,11710.2811,W,29.883142,179.59,120210,,*24
$GPRMC,230715.493,A,3338.7393,N,11710.2808,W,31.698640,179.61,120210,,*23
$GPRMC,230718.493,A,3338.7121,N,11710.2809,W,33.259958,180.26,120210,,*2C
$GPRMC,230721.492,A,3338.6836,N,11710.2807,W,33.982649,179.81,120210,,*2E
$GPRMC,230724.492,A,3338.6552,N,11710.2802,W,32.988064,179.70,120210,,*2D
$GPRMC,230727.492,A,3338.6283,N,11710.2800,W,31.257901,179.80,120210,,*28
$GPRMC,230730.492,A,3338.6028,N,11710.2800,W,30.160740,179.97,120210,,*26
$GPRMC,230733.492,A,3338.5779,N,11710.2802,W,29.855769,179.87,120210,,*2A
$GPRMC,230736.491,A,3338.5530,N,11710.2802,W,29.910735,179.95,120210,,*29
$GPRMC,230739.491,A,3338.5280,N,11710.2804,W,29.644841,180.05,120210,,*21
$GPRMC,230742.491,A,3338.5036,N,11710.2806,W,28.098734,179.95,120210,,*24
$GPRMC,230745.491,A,3338.4819,N,11710.2812,W,24.221943,180.02,120210,,*28
$GPRMC,230748.491,A,3338.4631,N,11710.2809,W,22.230418,179.94,120210,,*27
$GPRMC,230751.491,A,3338.4448,N,11710.2808,W,21.840708,179.84,120210,,*2F
$GPRMC,230754.490,A,3338.4275,N,11710.2806,W,19.351932,180.66,120210,,*20
$GPRMC,230757.490,A,3338.4128,N,11710.2804,W,16.733930,179.37,120210,,*25
$GPRMC,230800.490,A,3338.3992,N,11710.2801,W,16.983482,179.50,120210,,*23
$GPRMC,230803.490,A,3338.3846,N,11710.2798,W,18.356845,179.61,120210,,*2E
$GPRMC,230806.490,A,3338.3684,N,11710.2799,W,19.525107,180.13,120210,,*25
$GPRMC,230809.489,A,3338.3523,N,11710.2799,W,18.534602,180.07,120210,,*2A
$GPRMC,230812.489,A,3338.3386,N,11710.2794,W,15.340924,179.67,120210,,*27
$GPRMC,230815.489,A,3338.3267,N,11710.2792,W,14.582768,179.37,120210,,*22
$GPRMC,230818.489,A,3338.3137,N,11710.2794,W,16.603537,179.60,120210,,*2D
$GPRMC,230821.489,A,3338.2988,N,11710.2794,W,18.774221,179.71,120210,,*25
$GPRMC,230824.488,A,3338.2819,N,11710.2793,W,20.778207,179.76,120210,,*2B
$GPRMC,230827.488,A,3338.2634,N,11710.2790,W,22.485229,180.07,120210,,*25
$GPRMC,230830.488,A,3338.2437,N,11710.2789,W,23.689734,179.96,120210,,*22
$GPRMC,230833.488,A,3338.2237,N,11710.2789,W,23.501828,179.78,120210,,*26
$GPRMC,230836.488,A,3338.2044,N,11710.2790,W,22.637319,180.18,120210,,*23
$GPRMC,230839.487,A,3338.1865,N,11710.2792,W,20.378784,180.35,120210,,*2A
$GPRMC,230842.487,A,3338.1706,N,11710.2794,W,18.701839,179.32,120210,,*23
$GPRMC,230845.487,A,3338.1559,N,11710.2795,W,16.609184,179.75,120210,,*26
$GPRMC,230848.487,A,3338.1431,N,11710.2795,W,14.542693,179.67,120210,,*28
$GPRMC,230851.487,A,3338.1312,N,11710.2794,W,14.881679,179.53,120210,,*26
$GPRMC,230854.487,A,3338.1183,N,11710.2790,W,16.475571,179.72,120210,,*20
$GPRMC,230857.486,A,3338.1037,N,11710.2788,W,18.237477,179.66,120210,,*29
$GPRMC,230900.486,A,3338.0877,N,11710.2785,W,19.650365,179.62,120210,,*2E
$GPRMC,230903.486,A,3338.0709,N,11710.2781,W,20.754375,180.01,120210,,*22
$GPRMC,230906.486,A,3338.0532,N,11710.2784,W,21.397376,180.62,120210,,*24
$GPRMC,230909.486,A,3338.0347,N,11710.2787,W,22.454947,179.15,120210,,*29
$GPRMC,230912.485,A,3338.0156,N,11710.2786,W,22.677428,179.51,120210,,*24
$GPRMC,230915.485,A,3337.9965,N,11710.2782,W,23.224406,179.37,120210,,*26
$GPRMC,230918.485,A,3337.9766,N,11710.2783,W,23.960970,180.16,120210,,*25
$GPRMC,230921.485,A,3337.9561,N,11710.2782,W,24.817363,179.82,120210,,*2E
$GPRMC,230924.485,A,3337.9348,N,11710.2779,W,25.864545,180.01,120210,,*28
$GPRMC,230927.484,A,3337.9124,N,11710.2781,W,27.207401,180.10,120210,,*29
$GPRMC,230930.484,A,3337.8892,N,11710.2783,W,28.174973,180.02,120210,,*2B
$GPRMC,230933.484,A,3337.8653,N,11710.2783,W,29.373169,179.98,120210,,*29
$GPRMC,230936.484,A,3337.8395,N,11710.2781,W,32.003548,179.55,120210,,*29
$GPRMC,230939.484,A,3337.8112,N,11710.2779,W,34.851223,180.14,120210,,*2C
$GPRMC,230942.483,A,3337.7805,N,11710.2778,W,37.527770,180.13,120210,,*2D
$GPRMC,230945.483,A,3337.7480,N,11710.2777,W,39.245379,179.78,120210,,*2F
$GPRMC,230948.483,A,3337.7143,N,11710.2775,W,40.903768,179.90,120210,,*2F
$GPRMC,230951.483,A,3337.6793,N,11710.2776,W,42.478580,180.10,120210,,*27
$GPRMC,230954.483,A,3337.6428,N,11710.2778,W,43.972215,180.49,120210,,*2E
$GPRMC,230957.483,A,3337.6050,N,11710.2783,W,45.697986,180.17,120210,,*2A
$GPRMC,231000.482,A,3337.5658,N,11710.2789,W,47.667097,180.71,120210,,*22
$GPRMC,231003.482,A,3337.5248,N,11710.2800,W,49.908886,180.61,120210,,*2B
$GPRMC,231006.482,A,3337.4819,N,11710.2807,W,51.887147,180.83,120210,,*21
$GPRMC,231009.482,A,3337.4377,N,11710.2813,W,52.662981,180.75,120210,,*25
$GPRMC,231012.482,A,3337.3934,N,11710.2821,W,52.831603,180.57,120210,,*29
$GPRMC,231015.481,A,3337.3491,N,11710.2826,W,52.961273,181.06,120210,,*2A
$GPRMC,231018.481,A,3337.3048,N,11710.2831,W,52.940468,180.29,120210,,*22
$GPRMC,231021.481,A,3337.2606,N,11710.2833,W,52.809903,179.74,120210,,*25
$GPRMC,231024.481,A,3337.2166,N,11710.2825,W,52.734200,179.46,120210,,*2E
$GPRMC,231027.481,A,3337.1726,N,11710.2817,W,52.699482,180.04,120210,,*27
$GPRMC,231030.480,A,3337.1284,N,11710.2810,W,52.602587,178.50,120210,,*2A
$GPRMC,231033.480,A,3337.0843,N,11710.2799,W,52.784891,178.94,120210,,*2A
$GPRMC,231036.480,A,3337.0400,N,11710.2791,W,52.997696,179.08,120210,,*2D
$GPRMC,231039.480,A,3336.9956,N,11710.2782,W,53.063089,178.90,120210,,*2D
$GPRMC,231042.480,A,3336.9510,N,11710.2772,W,53.091183,179.22,120210,,*2E
$GPRMC,231045.480,A,3336.9067,N,11710.2764,W,53.011651,179.50,120210,,*2E
$GPRMC,231048.479,A,3336.8623,N,11710.2756,W,53.070040,179.54,120210,,*26
$GPRMC,231051.479,A,3336.8180,N,11710.2752,W,52.960149,180.00,120210,,*22
$GPRMC,231054.479,A,3336.7737,N,11710.2759,W,52.947775,181.24,120210,,*22
$GPRMC,231057.479,A,3336.7294,N,11710.2777,W,53.047078,182.17,120210,,*20
$GPRMC,231100.479,A,3336.6849,N,11710.2800,W,53.269057,182.46,120210,,*20
$GPRMC,231103.478,A,3336.6402,N,11710.2822,W,53.578038,182.34,120210,,*2A
$GPRMC,231106.478,A,3336.5954,N,11710.2845,W,53.858546,182.48,120210,,*2B
$GPRMC,231109.478,A,3336.5503,N,11710.2869,W,54.232698,182.24,120210,,*2F
$GPRMC,231112.478,A,3336.5050,N,11710.2892,W,53.888064,182.38,120210,,*26
$GPRMC,231115.478,A,3336.4601,N,11710.2916,W,53.838087,182.35,120210,,*24
$GPRMC,231118.477,A,3336.4154,N,11710.2940,W,53.643993,182.27,120210,,*2F
$GPRMC,231121.477,A,3336.3710,N,11710.2964,W,53.425946,182.71,120210,,*2B
$GPRMC,231124.477,A,3336.3269,N,11710.2988,W,53.004286,182.55,120210,,*21
$GPRMC,231127.477,A,3336.2830,N,11710.3013,W,52.712594,182.13,120210,,*28
$GPRMC,231130.477,A,3336.2389,N,11710.3044,W,52.698429,184.73,120210,,*21
$GPRMC,231133.476,A,3336.1952,N,11710.3115,W,52.708025,189.67,120210,,*21
$GPRMC,231136.476,A,3336.1522,N,11710.3231,W,52.889735,194.00,120210,,*27
$GPRMC,231139.476,A,3336.1097,N,11710.3390,W,53.324626,199.90,120210,,*23
$GPRMC,231142.476,A,3336.0685,N,11710.3601,W,53.706018,205.50,120210,,*23
$GPRMC,231145.476,A,3336.0292,N,11710.3860,W,53.836658,211.11,120210,,*21
$GPRMC,231148.476,A,3335.9915,N,11710.4154,W,53.704970,212.85,120210,,*2E
$GPRMC,231151.475,A,3335.9541,N,11710.4451,W,53.650111,213.31,120210,,*29
$GPRMC,231154.475,A,3335.9169,N,11710.4747,W,53.489148,213.56,120210,,*2D
$GPRMC,231157.475,A,3335.8796,N,11710.5041,W,53.410134,213.25,120210,,*26
$GPRMC,231200.475,A,3335.8424,N,11710.5333,W,53.428931,213.41,120210,,*2F
$GPRMC,231203.475,A,3335.8053,N,11710.5625,W,53.538266,212.91,120210,,*2F
$GPRMC,231206.474,A,3335.7680,N,11710.5922,W,53.763918,213.51,120210,,*27
$GPRMC,231209.474,A,3335.7304,N,11710.6218,W,54.106956,213.57,120210,,*2E
$GPRMC,231212.474,A,3335.6924,N,11710.6515,W,54.520283,213.38,120210,,*2D
$GPRMC,231215.474,A,3335.6538,N,11710.6809,W,54.776582,212.27,120210,,*23
$GPRMC,231218.474,A,3335.6142,N,11710.7095,W,55.324446,209.78,120210,,*20
$GPRMC,231221.473,A,3335.5733,N,11710.7366,W,55.857168,207.18,120210,,*2F
$GPRMC,231224.473,A,3335.5311,N,11710.7606,W,56.382809,204.22,120210,,*29
$GPRMC,231227.473,A,3335.4875,N,11710.7825,W,56.762392,202.55,120210,,*28
$GPRMC,231230.473,A,3335.4427,N,11710.8023,W,57.103261,199.50,120210,,*2D
$GPRMC,231233.473,A,3335.3967,N,11710.8192,W,57.209241,196.43,120210,,*2D
$GPRMC,231236.473,A,3335.3502,N,11710.8333,W,57.354342,193.63,120210,,*22
$GPRMC,231239.472,A,3335.3035,N,11710.8447,W,57.555158,191.00,120210,,*20
$GPRMC,231242.472,A,3335.2563,N,11710.8539,W,57.733088,188.08,120210,,*2D
$GPRMC,231245.472,A,3335.2084,N,11710.8604,W,57.936163,185.32,120210,,*20
$GPRMC,231248.472,A,3335.1599,N,11710.8644,W,58.064765,183.03,120210,,*26
$GPRMC,231251.472,A,3335.1112,N,11710.8656,W,58.276697,180.13,120210,,*25
$GPRMC,231254.471,A,3335.0625,N,11710.8650,W,58.500802,179.96,120210,,*28
$GPRMC,231257.471,A,3335.0135,N,11710.8645,W,58.342627,180.04,120210,,*2D
$GPRMC,231300.471,A,3334.9648,N,11710.8640,W,57.604361,179.88,120210,,*23
$GPRMC,231303.471,A,3334.9171,N,11710.8635,W,56.577193,179.74,120210,,*25
$GPRMC,231306.471,A,3334.8700,N,11710.8631,W,55.766607,179.56,120210,,*2E
$GPRMC,231309.470,A,3334.8238,N,11710.8628,W,54.903048,179.82,120210,,*2E
$GPRMC,231312.470,A,3334.7782,N,11710.8627,W,54.292394,179.93,120210,,*21
$GPRMC,231315.470,A,3334.7329,N,11710.8627,W,53.828173,179.93,120210,,*24
$GPRMC,231318.470,A,3334.6881,N,11710.8623,W,53.670461,179.71,120210,,*2C
$GPRMC,231321.470,A,3334.6434,N,11710.8620,W,53.510988,180.11,120210,,*28
$GPRMC,231324.469,A,3334.5988,N,11710.8623,W,53.477076,179.97,120210,,*2F
$GPRMC,231327.469,A,3334.5542,N,11710.8625,W,53.489191,179.67,120210,,*26
$GPRMC,231330.469,A,3334.5097,N,11710.8620,W,53.407549,179.71,120210,,*28
$GPRMC,231333.469,A,3334.4652,N,11710.8619,W,53.347163,179.97,120210,,*28
$GPRMC,231336.469,A,3334.4210,N,11710.8618,W,52.921193,179.93,120210,,*2E
$GPRMC,231339.469,A,3334.3770,N,11710.8616,W,51.735537,180.06,120210,,*23
$GPRMC,231342.468,A,3334.3333,N,11710.8619,W,52.792807,180.12,120210,,*27
$GPRMC,231345.468,A,3334.2893,N,11710.8624,W,52.768706,179.79,120210,,*2E
$GPRMC,231348.468,A,3334.2452,N,11710.8625,W,52.775271,179.75,120210,,*26
$GPRMC,231351.468,A,3334.2011,N,11710.8621,W,52.830582,179.72,120210,,*2B
$GPRMC,231354.468,A,3334.1568,N,11710.8622,W,52.914843,179.89,120210,,*26
$GPRMC,231357.467,A,3334.1125,N,11710.8620,W,52.978729,180.08,120210,,*23
$GPRMC,231400.467,A,3334.0680,N,11710.8618,W,53.044028,179.89,120210,,*2A
$GPRMC,231403.467,A,3334.0236,N,11710.8616,W,53.191294,179.96,120210,,*2C
$GPRMC,231406.467,A,3333.9791,N,11710.8615,W,53.190286,179.75,120210,,*23
$GPRMC,231409.467,A,3333.9345,N,11710.8612,W,53.175590,179.74,120210,,*2C
$GPRMC,231412.466,A,3333.8901,N,11710.8611,W,53.060351,180.01,120210,,*25
$GPRMC,231415.466,A,3333.8460,N,11710.8612,W,52.736736,180.09,120210,,*23
$GPRMC,231418.466,A,3333.8021,N,11710.8610,W,52.622467,179.77,120210,,*21
$GPRMC,231421.466,A,3333.7581,N,11710.8609,W,52.780579,179.74,120210,,*27
$GPRMC,231424.466,A,3333.7138,N,11710.8610,W,53.008439,180.27,120210,,*2F
$GPRMC,231427.465,A,3333.6692,N,11710.8612,W,53.369705,179.89,120210,,*21
$GPRMC,231430.465,A,3333.6247,N,11710.8612,W,53.675161,179.82,120210,,*2C
$GPRMC,231433.465,A,3333.5799,N,11710.8612,W,54.049935,180.06,120210,,*27
$GPRMC,231436.465,A,3333.5349,N,11710.8611,W,54.040544,179.77,120210,,*2B
$GPRMC,231439.465,A,3333.4897,N,11710.8607,W,54.016258,179.82,120210,,*29
$GPRMC,231442.465,A,3333.4447,N,11710.8606,W,53.934097,179.67,120210,,*21
$GPRMC,231445.464,A,3333.3998,N,11710.8603,W,53.922616,179.56,120210,,*20
$GPRMC,231448.464,A,3333.3547,N,11710.8599,W,53.981384,179.88,120210,,*27
$GPRMC,231451.464,A,3333.3098,N,11710.8608,W,53.805822,182.55,120210,,*2D
$GPRMC,231454.464,A,3333.2648,N,11710.8644,W,53.755223,184.89,120210,,*2C
$GPRMC,231457.464,A,3333.2199,N,11710.8704,W,53.279321,187.26,120210,,*2F
$GPRMC,231500.463,A,3333.1759,N,11710.8779,W,52.414820,189.04,120210,,*20
$GPRMC,231503.463,A,3333.1330,N,11710.8862,W,51.750618,189.36,120210,,*29
$GPRMC,231506.463,A,3333.0907,N,11710.8941,W,51.018965,187.79,120210,,*28
$GPRMC,231509.463,A,3333.0484,N,11710.9003,W,51.251186,185.97,120210,,*27
$GPRMC,231512.463,A,3333.0052,N,11710.9039,W,52.149791,181.22,120210,,*28
$GPRMC,231515.462,A,3332.9614,N,11710.9022,W,52.974152,175.77,120210,,*2C
$GPRMC,231518.462,A,3332.9173,N,11710.8956,W,53.799995,171.47,120210,,*24
$GPRMC,231521.462,A,3332.8738,N,11710.8840,W,54.004012,165.95,120210,,*28
$GPRMC,231524.462,A,3332.8305,N,11710.8673,W,54.139159,160.24,120210,,*27
$GPRMC,231527.462,A,3332.7887,N,11710.8466,W,53.828048,155.47,120210,,*20
$GPRMC,231530.462,A,3332.7487,N,11710.8219,W,53.756856,150.61,120210,,*24
$GPRMC,231533.461,A,3332.7111,N,11710.7925,W,53.331564,144.70,120210,,*29
$GPRMC,231536.461,A,3332.6762,N,11710.7592,W,53.147409,139.88,120210,,*2B
$GPRMC,231539.461,A,3332.6440,N,11710.7225,W,52.763011,135.33,120210,,*2C
$GPRMC,231542.461,A,3332.6131,N,11710.6845,W,52.537446,134.91,120210,,*22
$GPRMC,231545.461,A,3332.5821,N,11710.6471,W,52.558569,136.00,120210,,*2A
$GPRMC,231548.460,A,3332.5490,N,11710.6122,W,52.595613,141.90,120210,,*25
$GPRMC,231551.460,A,3332.5133,N,11710.5814,W,52.903640,146.23,120210,,*24
$GPRMC,231554.460,A,3332.4754,N,11710.5539,W,52.988963,149.55,120210,,*26
$GPRMC,231557.460,A,3332.4366,N,11710.5275,W,53.388932,149.37,120210,,*24
$GPRMC,231600.460,A,3332.3975,N,11710.5004,W,53.931293,149.71,120210,,*24
$GPRMC,231603.459,A,3332.3584,N,11710.4728,W,54.129296,149.85,120210,,*2F
$GPRMC,231606.459,A,3332.3193,N,11710.4459,W,54.266245,150.14,120210,,*2B
$GPRMC,231609.459,A,3332.2799,N,11710.4192,W,54.155918,150.42,120210,,*28
$GPRMC,231612.459,A,3332.2405,N,11710.3925,W,53.701538,150.51,120210,,*2B
$GPRMC,231615.459,A,3332.2016,N,11710.3668,W,52.651906,150.71,120210,,*2A
$GPRMC,231618.458,A,3332.1638,N,11710.3419,W,51.629241,150.46,120210,,*2B
$GPRMC,231621.458,A,3332.1266,N,11710.3171,W,51.352006,151.02,120210,,*2C
$GPRMC,231624.458,A,3332.0892,N,11710.2924,W,51.895963,150.82,120210,,*23
$GPRMC,231627.458,A,3332.0515,N,11710.2666,W,52.356235,149.09,120210,,*2F
$GPRMC,231630.458,A,3332.0137,N,11710.2399,W,52.859081,150.09,120210,,*29
$GPRMC,231633.458,A,3331.9752,N,11710.2139,W,52.443622,150.87,120210,,*23
$GPRMC,231636.457,A,3331.9395,N,11710.1899,W,46.013890,150.57,120210,,*28
$GPRMC,231639.457,A,3331.9069,N,11710.1679,W,44.359822,149.41,120210,,*2E
$GPRMC,231642.457,A,3331.8750,N,11710.1451,W,45.160466,149.87,120210,,*29
$GPRMC,231645.457,A,3331.8415,N,11710.1222,W,47.208671,150.22,120210,,*22
$GPRMC,231648.457,A,3331.8064,N,11710.0988,W,48.537226,150.97,120210,,*2B
$GPRMC,231651.456,A,3331.7706,N,11710.0747,W,48.739185,150.67,120210,,*2A
$GPRMC,231654.456,A,3331.7356,N,11710.0514,W,46.920722,150.86,120210,,*26
$GPRMC,231657.456,A,3331.7019,N,11710.0289,W,45.192204,150.76,120210,,*22
$GPRMC,231700.456,A,3331.6686,N,11710.0067,W,46.191253,150.95,120210,,*2D
$GPRMC,231703.456,A,3331.6343,N,11709.9836,W,47.830596,150.63,120210,,*2B
$GPRMC,231706.455,A,3331.5988,N,11709.9599,W,49.450534,150.76,120210,,*23
$GPRMC,231709.455,A,3331.5623,N,11709.9355,W,50.896131,150.91,120210,,*22
$GPRMC,231712.455,A,3331.5247,N,11709.9104,W,52.007442,150.70,120210,,*24
$GPRMC,231715.455,A,3331.4863,N,11709.8848,W,53.038474,150.86,120210,,*2F
$GPRMC,231718.455,A,3331.4474,N,11709.8587,W,53.559342,150.75,120210,,*2A
$GPRMC,231721.455,A,3331.4082,N,11709.8325,W,53.433211,150.84,120210,,*27
$GPRMC,231724.454,A,3331.3690,N,11709.8063,W,53.471952,150.90,120210,,*2F
$GPRMC,231727.454,A,3331.3302,N,11709.7805,W,52.143275,151.44,120210,,*26
$GPRMC,231730.454,A,3331.2908,N,11709.7542,W,53.634304,150.84,120210,,*23
$GPRMC,231733.454,A,3331.2519,N,11709.7281,W,53.640835,150.24,120210,,*24
$GPRMC,231736.454,A,3331.2130,N,11709.7023,W,53.479855,150.84,120210,,*20
$GPRMC,231739.453,A,3331.1740,N,11709.6766,W,53.021295,150.98,120210,,*2F
$GPRMC,231742.453,A,3331.1355,N,11709.6510,W,52.654310,151.12,120210,,*2A
$GPRMC,231745.453,A,3331.0972,N,11709.6252,W,52.503808,150.78,120210,,*2C
$GPRMC,231748.453,A,3331.0588,N,11709.5992,W,52.380763,150.86,120210,,*22
$GPRMC,231751.453,A,3331.0204,N,11709.5737,W,52.634450,150.93,120210,,*25
$GPRMC,231754.452,A,3330.9819,N,11709.5482,W,52.760870,150.56,120210,,*25
$GPRMC,231757.452,A,3330.9435,N,11709.5228,W,52.873390,151.15,120210,,*2C
$GPRMC,231800.452,A,3330.9050,N,11709.4975,W,52.918772,151.77,120210,,*24
$GPRMC,231803.452,A,3330.8656,N,11709.4737,W,53.065962,154.11,120210,,*26
$GPRMC,231806.452,A,3330.8249,N,11709.4526,W,53.248799,157.57,120210,,*2D
$GPRMC,231809.451,A,3330.7833,N,11709.4332,W,53.572456,159.04,120210,,*2C
$GPRMC,231812.451,A,3330.7414,N,11709.4140,W,54.120277,159.14,120210,,*28
$GPRMC,231815.451,A,3330.6993,N,11709.3952,W,54.217323,159.49,120210,,*2F
$GPRMC,231818.451,A,3330.6571,N,11709.3762,W,53.520931,158.48,120210,,*22
$GPRMC,231821.451,A,3330.6155,N,11709.3572,W,52.498803,159.57,120210,,*25
$GPRMC,231824.451,A,3330.5745,N,11709.3387,W,52.204540,159.16,120210,,*24
$GPRMC,231827.450,A,3330.5336,N,11709.3204,W,52.290673,159.16,120210,,*22
$GPRMC,231830.450,A,3330.4927,N,11709.3018,W,52.337044,159.12,120210,,*2A
$GPRMC,231833.450,A,3330.4519,N,11709.2832,W,52.465979,159.20,120210,,*2F
$GPRMC,231836.450,A,3330.4110,N,11709.2644,W,52.638652,159.05,120210,,*23
