NMEA Sentence Code,UTC Time,Status,Latitude,Latitude Direction,Longitude,Longitude Direction,Speed (knots),Track Angle (degrees true),Date,MagneticVariation,Magnetic Variation Direction,[FAA Mode]-Optional,Checksum
$GPRMC,130452.1,A,3335.525204,N,11737.361419,W,33.7,20.8,210310,,,A*79
$GPRMC,130455.1,A,3335.553452,N,11737.352637,W,35.2,16.4,210310,,,A*7E
$GPRMC,130458.1,A,3335.583719,N,11737.345797,W,35.3,11.4,210310,,,A*79
$GPRMC,130501.1,A,3335.611465,N,11737.344972,W,32.5,356.6,210310,,,A*43
$GPRMC,130504.1,A,3335.638301,N,11737.354294,W,32.5,342.4,210310,,,A*4D
$GPRMC,130507.1,A,3335.662234,N,11737.369723,W,32.5,326.5,210310,,,A*42
$GPRMC,130510.1,A,3335.680338,N,11737.391900,W,30.7,311.9,210310,,,A*45
$GPRMC,130513.1,A,3335.692734,N,11737.416248,W,29.3,301.3,210310,,,A*45
$GPRMC,130516.1,A,3335.700784,N,11737.440553,W,24.7,294.2,210310,,,A*4A
$GPRMC,130519.1,A,3335.705876,N,11737.455568,W,15.4,295.2,210310,,,A*4E
$GPRMC,130522.1,A,3335.709693,N,11737.462381,W,7.3,317.0,210310,,,A*77
$GPRMC,130525.1,A,3335.717303,N,11737.465220,W,10.3,355.6,210310,,,A*48
$GPRMC,130528.1,A,3335.730766,N,11737.462332,W,16.5,14.9,210310,,,A*7B
$GPRMC,130531.1,A,3335.751951,N,11737.452770,W,27.2,21.6,210310,,,A*73
$GPRMC,130534.1,A,3335.776989,N,11737.439381,W,32.5,21.8,210310,,,A*7C
$GPRMC,130537.1,A,3335.806881,N,11737.428024,W,36.7,19.2,210310,,,A*75
$GPRMC,130540.1,A,3335.839298,N,11737.414811,W,39.9,18.7,210310,,,A*7F
$GPRMC,130543.1,A,3335.871834,N,11737.401499,W,42.2,18.9,210310,,,A*7D
$GPRMC,130546.1,A,3335.905446,N,11737.387686,W,42.6,18.5,210310,,,A*7E
$GPRMC,130549.1,A,3335.938541,N,11737.372286,W,43.0,19.8,210310,,,A*7C
$GPRMC,130552.1,A,3335.974068,N,11737.357997,W,43.8,19.1,210310,,,A*7D
$GPRMC,130555.1,A,3336.008406,N,11737.344571,W,43.3,18.1,210310,,,A*7B
$GPRMC,130558.1,A,3336.042408,N,11737.331800,W,42.7,16.5,210310,,,A*70
$GPRMC,130601.1,A,3336.074754,N,11737.321929,W,40.7,13.9,210310,,,A*70
$GPRMC,130604.1,A,3336.108298,N,11737.312873,W,40.3,13.7,210310,,,A*7E
$GPRMC,130607.1,A,3336.141230,N,11737.304733,W,41.0,12.9,210310,,,A*73
$GPRMC,130610.1,A,3336.173577,N,11737.294810,W,40.9,14.3,210310,,,A*72
$GPRMC,130613.1,A,3336.204720,N,11737.283129,W,40.8,16.7,210310,,,A*70
$GPRMC,130616.1,A,3336.237228,N,11737.269232,W,41.6,20.4,210310,,,A*7C
$GPRMC,130619.1,A,3336.268685,N,11737.251604,W,41.8,25.6,210310,,,A*79
$GPRMC,130622.1,A,3336.297769,N,11737.229580,W,41.4,31.8,210310,,,A*75
$GPRMC,130625.1,A,3336.326261,N,11737.205125,W,42.5,35.9,210310,,,A*76
$GPRMC,130628.1,A,3336.352633,N,11737.175195,W,43.5,41.1,210310,,,A*7E
$GPRMC,130631.1,A,3336.380570,N,11737.146091,W,43.9,41.6,210310,,,A*73
$GPRMC,130634.1,A,3336.407802,N,11737.117703,W,43.3,39.8,210310,,,A*75
$GPRMC,130637.1,A,3336.435937,N,11737.093999,W,42.0,35.5,210310,,,A*73
$GPRMC,130640.1,A,3336.465599,N,11737.072303,W,42.0,30.2,210310,,,A*7A
$GPRMC,130643.1,A,3336.498840,N,11737.053896,W,42.7,24.5,210310,,,A*73
$GPRMC,130646.1,A,3336.530515,N,11737.040660,W,40.2,18.1,210310,,,A*71
$GPRMC,130649.1,A,3336.564515,N,11737.030611,W,40.5,12.0,210310,,,A*72
$GPRMC,130652.1,A,3336.599689,N,11737.025389,W,41.8,7.8,210310,,,A*4C
$GPRMC,130655.1,A,3336.636332,N,11737.021661,W,43.4,5.4,210310,,,A*4F
$GPRMC,130658.1,A,3336.674185,N,11737.017546,W,44.5,5.7,210310,,,A*4C
$GPRMC,130701.1,A,3336.710942,N,11737.013745,W,44.3,6.7,210310,,,A*41
$GPRMC,130704.1,A,3336.747047,N,11737.008236,W,44.4,7.0,210310,,,A*40
$GPRMC,130707.1,A,3336.782508,N,11736.999694,W,43.2,11.4,210310,,,A*7A
$GPRMC,130710.1,A,3336.815998,N,11736.990369,W,42.0,13.1,210310,,,A*72
$GPRMC,130713.1,A,3336.847856,N,11736.980865,W,40.2,15.9,210310,,,A*7D
$GPRMC,130716.1,A,3336.879257,N,11736.965845,W,40.4,20.8,210310,,,A*76
$GPRMC,130719.1,A,3336.908058,N,11736.948761,W,39.6,24.6,210310,,,A*73
$GPRMC,130722.1,A,3336.937422,N,11736.932540,W,39.3,26.3,210310,,,A*70
$GPRMC,130725.1,A,3336.966757,N,11736.913709,W,40.3,29.7,210310,,,A*7B
$GPRMC,130728.1,A,3336.996413,N,11736.891654,W,41.0,33.2,210310,,,A*74
$GPRMC,130731.1,A,3337.024017,N,11736.867574,W,41.1,37.0,210310,,,A*72
$GPRMC,130734.1,A,3337.050776,N,11736.840907,W,41.8,39.3,210310,,,A*7D
$GPRMC,130737.1,A,3337.076577,N,11736.813152,W,41.8,40.3,210310,,,A*79
$GPRMC,130740.1,A,3337.103427,N,11736.785239,W,40.4,40.2,210310,,,A*7C
$GPRMC,130743.1,A,3337.129838,N,11736.760915,W,39.8,39.4,210310,,,A*71
$GPRMC,130746.1,A,3337.153517,N,11736.737986,W,35.5,38.7,210310,,,A*72
$GPRMC,130749.1,A,3337.175284,N,11736.718547,W,31.8,35.5,210310,,,A*7E
$GPRMC,130752.1,A,3337.195061,N,11736.702930,W,26.8,33.5,210310,,,A*74
$GPRMC,130755.1,A,3337.209338,N,11736.693373,W,18.3,31.2,210310,,,A*7D
$GPRMC,130758.1,A,3337.212505,N,11736.691256,W,6.2,15.6,210310,,,A*4A
$GPRMC,130810.1,A,3337.211252,N,11736.688100,W,7.9,20.6,210310,,,A*4B
$GPRMC,130813.1,A,3337.219976,N,11736.687257,W,10.4,349.7,210310,,,A*45
$GPRMC,130816.1,A,3337.232194,N,11736.696727,W,16.3,320.3,210310,,,A*45
$GPRMC,130819.1,A,3337.251046,N,11736.713463,W,25.4,321.4,210310,,,A*4F
$GPRMC,130822.1,A,3337.270567,N,11736.730133,W,26.6,324.3,210310,,,A*40
$GPRMC,130825.1,A,3337.293948,N,11736.743586,W,29.8,334.9,210310,,,A*4F
$GPRMC,130828.1,A,3337.323757,N,11736.755958,W,34.1,340.4,210310,,,A*4B
$GPRMC,130831.1,A,3337.352508,N,11736.764950,W,35.8,346.4,210310,,,A*49
$GPRMC,130834.1,A,3337.385715,N,11736.770128,W,37.5,353.8,210310,,,A*4D
$GPRMC,130837.1,A,3337.419974,N,11736.772846,W,39.0,0.8,210310,,,A*48
$GPRMC,130840.1,A,3337.453221,N,11736.770455,W,39.7,7.0,210310,,,A*49
$GPRMC,130843.1,A,3337.486593,N,11736.761050,W,39.9,14.0,210310,,,A*71
$GPRMC,130846.1,A,3337.515344,N,11736.745581,W,38.2,22.8,210310,,,A*7B
$GPRMC,130849.1,A,3337.542780,N,11736.726913,W,38.2,29.5,210310,,,A*7E
$GPRMC,130852.1,A,3337.570068,N,11736.706084,W,38.7,33.8,210310,,,A*72
$GPRMC,130855.1,A,3337.597236,N,11736.682290,W,38.8,35.3,210310,,,A*7D
$GPRMC,130858.1,A,3337.621480,N,11736.661015,W,38.2,35.2,210310,,,A*7C
$GPRMC,130901.1,A,3337.647524,N,11736.639981,W,38.6,36.1,210310,,,A*73
$GPRMC,130904.1,A,3337.673803,N,11736.616997,W,38.9,35.1,210310,,,A*7F
$GPRMC,130907.1,A,3337.700493,N,11736.595454,W,38.0,34.7,210310,,,A*78
$GPRMC,130910.1,A,3337.724541,N,11736.574302,W,36.2,35.5,210310,,,A*72
$GPRMC,130913.1,A,3337.746698,N,11736.553248,W,35.5,35.4,210310,,,A*7D
$GPRMC,130916.1,A,3337.770977,N,11736.533221,W,35.0,34.7,210310,,,A*7D
$GPRMC,130919.1,A,3337.795321,N,11736.513574,W,35.0,36.8,210310,,,A*78
$GPRMC,130922.1,A,3337.817172,N,11736.490108,W,34.9,41.5,210310,,,A*71
$GPRMC,130925.1,A,3337.837616,N,11736.466991,W,33.3,44.3,210310,,,A*7E
$GPRMC,130928.1,A,3337.855379,N,11736.444779,W,31.3,44.9,210310,,,A*7B
$GPRMC,130931.1,A,3337.870279,N,11736.424194,W,27.0,50.0,210310,,,A*7E
$GPRMC,130934.1,A,3337.880078,N,11736.402962,W,22.8,56.5,210310,,,A*7C
$GPRMC,130937.1,A,3337.889262,N,11736.386240,W,20.3,51.9,210310,,,A*7D
$GPRMC,130940.1,A,3337.902591,N,11736.379742,W,16.6,15.4,210310,,,A*7E
$GPRMC,130943.1,A,3337.919133,N,11736.381084,W,18.3,354.7,210310,,,A*4F
$GPRMC,130946.1,A,3337.936358,N,11736.392285,W,22.5,338.1,210310,,,A*4A
$GPRMC,130949.1,A,3337.956013,N,11736.401898,W,25.9,341.1,210310,,,A*41
$GPRMC,130952.1,A,3337.982049,N,11736.409133,W,28.9,346.8,210310,,,A*4E
$GPRMC,130955.1,A,3338.008280,N,11736.414290,W,32.6,353.6,210310,,,A*42
$GPRMC,130958.1,A,3338.039090,N,11736.418861,W,36.2,357.7,210310,,,A*43
$GPRMC,131001.1,A,3338.071269,N,11736.419808,W,38.5,359.2,210310,,,A*43
$GPRMC,131004.1,A,3338.103498,N,11736.421614,W,39.1,358.1,210310,,,A*45
$GPRMC,131007.1,A,3338.136963,N,11736.423154,W,40.2,358.8,210310,,,A*4C
$GPRMC,131010.1,A,3338.170272,N,11736.424768,W,39.4,356.1,210310,,,A*42
$GPRMC,131013.1,A,3338.201651,N,11736.430794,W,36.9,349.8,210310,,,A*42
$GPRMC,131016.1,A,3338.231666,N,11736.439493,W,36.3,345.5,210310,,,A*46
$GPRMC,131019.1,A,3338.260283,N,11736.450479,W,35.9,342.0,210310,,,A*42
$GPRMC,131022.1,A,3338.284427,N,11736.464136,W,32.7,336.3,210310,,,A*48
$GPRMC,131025.1,A,3338.300105,N,11736.474020,W,23.0,333.8,210310,,,A*49
$GPRMC,131028.1,A,3338.309374,N,11736.479994,W,15.1,336.8,210310,,,A*43
$GPRMC,131031.1,A,3338.312258,N,11736.480433,W,8.9,9.2,210310,,,A*79
$GPRMC,131034.1,A,3338.320053,N,11736.472157,W,14.7,42.0,210310,,,A*70
$GPRMC,131037.1,A,3338.331934,N,11736.457972,W,20.5,47.0,210310,,,A*73
$GPRMC,131040.1,A,3338.345054,N,11736.437599,W,25.5,48.8,210310,,,A*72
$GPRMC,131043.1,A,3338.365200,N,11736.414140,W,31.9,45.1,210310,,,A*7C
$GPRMC,131046.1,A,3338.388166,N,11736.391391,W,34.5,38.9,210310,,,A*76
$GPRMC,131049.1,A,3338.411649,N,11736.372809,W,33.9,33.5,210310,,,A*7F
$GPRMC,131052.1,A,3338.433267,N,11736.356084,W,31.9,32.3,210310,,,A*73
$GPRMC,131055.1,A,3338.455947,N,11736.340444,W,29.1,32.3,210310,,,A*73
$GPRMC,131058.1,A,3338.475056,N,11736.323962,W,27.7,34.7,210310,,,A*73
$GPRMC,131101.1,A,3338.489725,N,11736.309764,W,21.0,37.0,210310,,,A*7B
$GPRMC,131104.1,A,3338.488219,N,11736.298071,W,10.2,80.9,210310,,,A*7A
$GPRMC,131107.1,A,3338.482565,N,11736.288748,W,10.5,122.7,210310,,,A*43
$GPRMC,131110.1,A,3338.476503,N,11736.280821,W,9.9,132.7,210310,,,A*73
$GPRMC,131113.1,A,3338.469882,N,11736.276550,W,8.9,159.7,210310,,,A*74
$GPRMC,131116.1,A,3338.461754,N,11736.279416,W,11.4,200.0,210310,,,A*4C
$GPRMC,131119.1,A,3338.452100,N,11736.284493,W,12.8,203.4,210310,,,A*43
$GPRMC,131122.1,A,3338.442242,N,11736.289603,W,11.9,199.9,210310,,,A*46
$GPRMC,131125.1,A,3338.434000,N,11736.290918,W,9.3,181.5,210310,,,A*7F
$GPRMC,131128.1,A,3338.427577,N,11736.290657,W,7.5,175.1,210310,,,A*76
$GPRMC,131131.1,A,3338.422187,N,11736.289214,W,4.6,173.4,210310,,,A*78
$GPRMC,131313.1,A,3338.428500,N,11736.280150,W,7.8,25.4,210310,,,A*4E
$GPRMC,131316.1,A,3338.440593,N,11736.274299,W,14.8,26.7,210310,,,A*70
$GPRMC,131319.1,A,3338.451743,N,11736.268166,W,14.2,25.4,210310,,,A*74
$GPRMC,131322.1,A,3338.461208,N,11736.264784,W,10.8,19.2,210310,,,A*74
$GPRMC,131325.1,A,3338.469587,N,11736.260042,W,8.9,21.1,210310,,,A*42
$GPRMC,131328.1,A,3338.475924,N,11736.262552,W,7.7,338.0,210310,,,A*7A
$GPRMC,131331.1,A,3338.478120,N,11736.269323,W,7.6,301.3,210310,,,A*70
$GPRMC,131334.1,A,3338.483243,N,11736.278801,W,9.7,302.7,210310,,,A*74
$GPRMC,131337.1,A,3338.488239,N,11736.288103,W,10.0,303.9,210310,,,A*45
$GPRMC,131340.1,A,3338.493124,N,11736.293929,W,8.0,315.6,210310,,,A*7B
$GPRMC,131343.1,A,3338.495546,N,11736.296153,W,5.1,325.2,210310,,,A*75
$GPRMC,131346.1,A,3338.498886,N,11736.298738,W,5.2,335.8,210310,,,A*71
$GPRMC,131349.1,A,3338.506317,N,11736.297494,W,5.8,9.1,210310,,,A*7E
$GPRMC,131352.1,A,3338.516161,N,11736.287936,W,9.7,35.5,210310,,,A*4A
$GPRMC,131355.1,A,3338.531270,N,11736.268769,W,19.8,49.3,210310,,,A*7D
$GPRMC,131358.1,A,3338.550235,N,11736.242543,W,25.9,50.9,210310,,,A*78
$GPRMC,131401.1,A,3338.562376,N,11736.224294,W,19.4,49.6,210310,,,A*7C
$GPRMC,131404.1,A,3338.569422,N,11736.213293,W,10.3,55.2,210310,,,A*70
$GPRMC,131407.1,A,3338.575886,N,11736.202396,W,12.4,47.5,210310,,,A*79
$GPRMC,131410.1,A,3338.589408,N,11736.200493,W,11.8,352.4,210310,,,A*4F
$GPRMC,131413.1,A,3338.607851,N,11736.211698,W,21.6,333.8,210310,,,A*46
$GPRMC,131416.1,A,3338.635577,N,11736.231113,W,32.9,330.1,210310,,,A*4A
$GPRMC,131419.1,A,3338.667858,N,11736.253227,W,41.1,330.0,210310,,,A*4F
$GPRMC,131422.1,A,3338.712027,N,11736.283978,W,51.3,331.0,210310,,,A*4A
$GPRMC,131425.1,A,3338.754196,N,11736.309154,W,54.4,334.2,210310,,,A*44
$GPRMC,131428.1,A,3338.797386,N,11736.333064,W,57.0,334.5,210310,,,A*4E
$GPRMC,131431.1,A,3338.842134,N,11736.358617,W,58.7,334.9,210310,,,A*41
$GPRMC,131434.1,A,3338.887094,N,11736.385172,W,59.2,331.3,210310,,,A*49
$GPRMC,131437.1,A,3338.929031,N,11736.417028,W,59.9,326.0,210310,,,A*4C
$GPRMC,131440.1,A,3338.969160,N,11736.454068,W,60.3,320.7,210310,,,A*4F
$GPRMC,131443.1,A,3339.003274,N,11736.495139,W,58.5,314.7,210310,,,A*4C
$GPRMC,131446.1,A,3339.034618,N,11736.539637,W,56.7,309.4,210310,,,A*4E
$GPRMC,131449.1,A,3339.061529,N,11736.585705,W,56.4,304.7,210310,,,A*4A
$GPRMC,131452.1,A,3339.085728,N,11736.636108,W,56.7,299.3,210310,,,A*4B
$GPRMC,131455.1,A,3339.102653,N,11736.684923,W,54.8,293.4,210310,,,A*47
$GPRMC,131458.1,A,3339.117831,N,11736.736693,W,55.4,288.8,210310,,,A*43
$GPRMC,131501.1,A,3339.128421,N,11736.791542,W,57.1,283.9,210310,,,A*40
$GPRMC,131504.1,A,3339.138062,N,11736.848617,W,58.5,282.3,210310,,,A*4F
$GPRMC,131507.1,A,3339.147877,N,11736.908684,W,61.3,282.5,210310,,,A*4D
$GPRMC,131510.1,A,3339.158690,N,11736.970529,W,62.7,281.9,210310,,,A*41
$GPRMC,131513.1,A,3339.170170,N,11737.032267,W,63.1,282.7,210310,,,A*48
$GPRMC,131516.1,A,3339.185585,N,11737.094975,W,64.4,285.8,210310,,,A*47
$GPRMC,131519.1,A,3339.201658,N,11737.154892,W,62.5,289.2,210310,,,A*40
$GPRMC,131522.1,A,3339.219961,N,11737.213795,W,62.4,290.2,210310,,,A*45
$GPRMC,131525.1,A,3339.238310,N,11737.270914,W,60.6,290.7,210310,,,A*4A
$GPRMC,131528.1,A,3339.255424,N,11737.327574,W,60.6,290.6,210310,,,A*44
$GPRMC,131531.1,A,3339.274608,N,11737.383913,W,60.8,291.4,210310,,,A*4D
$GPRMC,131534.1,A,3339.291530,N,11737.440523,W,60.1,290.5,210310,,,A*45
$GPRMC,131537.1,A,3339.310578,N,11737.496436,W,60.9,291.2,210310,,,A*42
$GPRMC,131540.1,A,3339.330509,N,11737.553226,W,62.2,292.0,210310,,,A*41
$GPRMC,131543.1,A,3339.348427,N,11737.611921,W,63.2,290.1,210310,,,A*4B
$GPRMC,131546.1,A,3339.368450,N,11737.670844,W,64.1,291.5,210310,,,A*48
$GPRMC,131549.1,A,3339.387210,N,11737.728551,W,62.0,293.3,210310,,,A*42
$GPRMC,131552.1,A,3339.408506,N,11737.784001,W,61.2,295.1,210310,,,A*4B
$GPRMC,131555.1,A,3339.432042,N,11737.837418,W,60.3,298.4,210310,,,A*43
$GPRMC,131558.1,A,3339.460430,N,11737.887925,W,60.1,302.5,210310,,,A*41
$GPRMC,131601.1,A,3339.494026,N,11737.939857,W,62.1,306.4,210310,,,A*41
$GPRMC,131604.1,A,3339.526011,N,11737.986780,W,62.1,310.3,210310,,,A*49
$GPRMC,131607.1,A,3339.559866,N,11738.032025,W,61.5,312.5,210310,,,A*48
$GPRMC,131610.1,A,3339.596564,N,11738.075534,W,61.6,315.1,210310,,,A*44
$GPRMC,131613.1,A,3339.633906,N,11738.117945,W,60.7,315.3,210310,,,A*4E
$GPRMC,131616.1,A,3339.670505,N,11738.160121,W,59.8,314.7,210310,,,A*49
$GPRMC,131619.1,A,3339.704392,N,11738.201349,W,58.2,313.4,210310,,,A*4B
$GPRMC,131622.1,A,3339.736939,N,11738.244700,W,59.0,310.9,210310,,,A*4C
$GPRMC,131625.1,A,3339.767370,N,11738.290977,W,61.4,307.3,210310,,,A*4C
$GPRMC,131628.1,A,3339.796126,N,11738.343515,W,63.7,303.2,210310,,,A*4D
$GPRMC,131631.1,A,3339.824564,N,11738.398641,W,65.6,300.7,210310,,,A*44
$GPRMC,131634.1,A,3339.847365,N,11738.456953,W,66.5,296.1,210310,,,A*42
$GPRMC,131637.1,A,3339.868558,N,11738.517522,W,66.0,293.8,210310,,,A*43
$GPRMC,131640.1,A,3339.892830,N,11738.578049,W,66.6,295.3,210310,,,A*4F
$GPRMC,131643.1,A,3339.915913,N,11738.636465,W,65.3,295.8,210310,,,A*4C
$GPRMC,131646.1,A,3339.939480,N,11738.694995,W,64.9,295.3,210310,,,A*4A
$GPRMC,131649.1,A,3339.962640,N,11738.753337,W,64.3,295.3,210310,,,A*47
$GPRMC,131652.1,A,3339.985346,N,11738.810992,W,64.0,295.2,210310,,,A*48
$GPRMC,131655.1,A,3340.007744,N,11738.867351,W,62.5,296.1,210310,,,A*42
$GPRMC,131658.1,A,3340.030028,N,11738.923237,W,61.4,295.6,210310,,,A*40
$GPRMC,131701.1,A,3340.054118,N,11738.979140,W,61.8,295.8,210310,,,A*43
$GPRMC,131704.1,A,3340.075626,N,11739.033868,W,61.6,295.3,210310,,,A*4F
$GPRMC,131707.1,A,3340.096530,N,11739.088457,W,62.0,295.4,210310,,,A*47
$GPRMC,131710.1,A,3340.119520,N,11739.144409,W,61.9,295.5,210310,,,A*47
$GPRMC,131713.1,A,3340.141315,N,11739.201010,W,62.5,295.5,210310,,,A*48
$GPRMC,131716.1,A,3340.163753,N,11739.256955,W,62.3,295.4,210310,,,A*46
$GPRMC,131719.1,A,3340.184738,N,11739.313462,W,61.5,296.2,210310,,,A*44
$GPRMC,131722.1,A,3340.206452,N,11739.368276,W,61.8,295.5,210310,,,A*4C
$GPRMC,131725.1,A,3340.229088,N,11739.421835,W,61.8,296.3,210310,,,A*47
$GPRMC,131728.1,A,3340.251960,N,11739.476282,W,61.3,296.2,210310,,,A*44
$GPRMC,131731.1,A,3340.272577,N,11739.528950,W,60.7,295.8,210310,,,A*45
$GPRMC,131734.1,A,3340.295123,N,11739.583136,W,61.0,296.3,210310,,,A*4B
$GPRMC,131737.1,A,3340.316405,N,11739.637828,W,61.6,295.7,210310,,,A*48
$GPRMC,131740.1,A,3340.339877,N,11739.693630,W,61.5,296.0,210310,,,A*42
$GPRMC,131743.1,A,3340.361071,N,11739.747687,W,61.4,296.0,210310,,,A*47
$GPRMC,131746.1,A,3340.381413,N,11739.801094,W,59.5,295.3,210310,,,A*4F
$GPRMC,131749.1,A,3340.402198,N,11739.854970,W,59.1,294.8,210310,,,A*47
$GPRMC,131752.1,A,3340.423805,N,11739.906816,W,57.9,295.7,210310,,,A*4C
$GPRMC,131755.1,A,3340.444348,N,11739.957779,W,56.7,295.8,210310,,,A*4A
$GPRMC,131758.1,A,3340.464413,N,11740.007917,W,56.4,295.2,210310,,,A*41
$GPRMC,131801.1,A,3340.487533,N,11740.057433,W,56.1,299.0,210310,,,A*49
$GPRMC,131804.1,A,3340.512452,N,11740.106314,W,57.5,302.6,210310,,,A*40
$GPRMC,131807.1,A,3340.541888,N,11740.153964,W,59.2,305.8,210310,,,A*43
$GPRMC,131810.1,A,3340.573606,N,11740.201346,W,59.6,310.0,210310,,,A*4A
$GPRMC,131813.1,A,3340.611041,N,11740.245384,W,61.7,315.5,210310,,,A*4F
$GPRMC,131816.1,A,3340.653335,N,11740.286911,W,61.4,320.6,210310,,,A*43
$GPRMC,131819.1,A,3340.696576,N,11740.322414,W,61.6,324.9,210310,,,A*4A
$GPRMC,131822.1,A,3340.739702,N,11740.354274,W,60.4,329.2,210310,,,A*43
$GPRMC,131825.1,A,3340.786131,N,11740.383290,W,61.1,332.1,210310,,,A*4B
$GPRMC,131828.1,A,3340.832119,N,11740.410617,W,61.8,333.9,210310,,,A*4A
$GPRMC,131831.1,A,3340.878165,N,11740.438083,W,61.6,333.2,210310,,,A*43
$GPRMC,131834.1,A,3340.923705,N,11740.467251,W,61.1,331.3,210310,,,A*4A
$GPRMC,131837.1,A,3340.965536,N,11740.497754,W,60.6,328.7,210310,,,A*4C
$GPRMC,131840.1,A,3341.008928,N,11740.531006,W,60.2,325.5,210310,,,A*4A
$GPRMC,131843.1,A,3341.050087,N,11740.567561,W,60.1,322.1,210310,,,A*4F
$GPRMC,131846.1,A,3341.087014,N,11740.606262,W,59.3,318.3,210310,,,A*49
$GPRMC,131849.1,A,3341.121070,N,11740.646149,W,58.9,314.9,210310,,,A*4A
$GPRMC,131852.1,A,3341.154019,N,11740.689464,W,59.2,312.1,210310,,,A*40
$GPRMC,131855.1,A,3341.184486,N,11740.734969,W,59.1,309.5,210310,,,A*42
$GPRMC,131858.1,A,3341.216442,N,11740.780742,W,59.2,309.5,210310,,,A*44
$GPRMC,131901.1,A,3341.247102,N,11740.826373,W,59.7,309.7,210310,,,A*4E
$GPRMC,131904.1,A,3341.277402,N,11740.870801,W,59.3,309.6,210310,,,A*45
$GPRMC,131907.1,A,3341.308759,N,11740.917994,W,59.8,309.0,210310,,,A*42
$GPRMC,131910.1,A,3341.343358,N,11740.963745,W,59.9,310.6,210310,,,A*40
$GPRMC,131913.1,A,3341.374709,N,11741.008971,W,59.3,310.2,210310,,,A*45
$GPRMC,131916.1,A,3341.407069,N,11741.056120,W,60.2,309.0,210310,,,A*44
$GPRMC,131919.1,A,3341.439333,N,11741.104065,W,60.8,309.4,210310,,,A*42
$GPRMC,131922.1,A,3341.473419,N,11741.151894,W,61.2,309.8,210310,,,A*4A
$GPRMC,131925.1,A,3341.504774,N,11741.197499,W,60.8,309.5,210310,,,A*49
$GPRMC,131928.1,A,3341.537242,N,11741.245232,W,62.1,309.5,210310,,,A*44
$GPRMC,131931.1,A,3341.571405,N,11741.292631,W,61.9,309.9,210310,,,A*41
$GPRMC,131934.1,A,3341.604415,N,11741.341731,W,62.6,309.0,210310,,,A*4F
$GPRMC,131937.1,A,3341.637214,N,11741.390048,W,62.7,309.9,210310,,,A*46
$GPRMC,131940.1,A,3341.671225,N,11741.438062,W,61.7,310.0,210310,,,A*49
$GPRMC,131943.1,A,3341.704135,N,11741.482967,W,60.5,309.2,210310,,,A*4F
$GPRMC,131946.1,A,3341.734183,N,11741.530878,W,59.8,306.1,210310,,,A*48
$GPRMC,131949.1,A,3341.761370,N,11741.580518,W,60.2,303.1,210310,,,A*4C
$GPRMC,131952.1,A,3341.785481,N,11741.629838,W,59.0,301.2,210310,,,A*43
$GPRMC,131955.1,A,3341.807700,N,11741.679415,W,57.9,299.8,210310,,,A*40
$GPRMC,131958.1,A,3341.830471,N,11741.729637,W,58.5,298.7,210310,,,A*47
$GPRMC,132001.1,A,3341.854252,N,11741.781530,W,58.3,298.9,210310,,,A*4A
$GPRMC,132004.1,A,3341.878436,N,11741.833901,W,59.0,298.8,210310,,,A*4E
$GPRMC,132007.1,A,3341.902998,N,11741.885541,W,59.4,298.7,210310,,,A*46
$GPRMC,132010.1,A,3341.929205,N,11741.939023,W,61.1,299.4,210310,,,A*4D
$GPRMC,132013.1,A,3341.954259,N,11741.992286,W,60.5,299.4,210310,,,A*44
$GPRMC,132016.1,A,3341.978034,N,11742.044612,W,59.9,299.3,210310,,,A*4F
$GPRMC,132019.1,A,3342.001467,N,11742.095116,W,59.6,299.8,210310,,,A*4D
$GPRMC,132022.1,A,3342.026495,N,11742.145952,W,59.7,300.0,210310,,,A*41
$GPRMC,132025.1,A,3342.052756,N,11742.197877,W,60.7,300.7,210310,,,A*4D
$GPRMC,132028.1,A,3342.078193,N,11742.249858,W,60.7,300.3,210310,,,A*4E
$GPRMC,132031.1,A,3342.103516,N,11742.301878,W,61.3,299.7,210310,,,A*4D
$GPRMC,132034.1,A,3342.127990,N,11742.354847,W,60.9,299.2,210310,,,A*4E
$GPRMC,132037.1,A,3342.154114,N,11742.408830,W,61.4,299.0,210310,,,A*4D
$GPRMC,132040.1,A,3342.181457,N,11742.463552,W,63.1,299.5,210310,,,A*41
$GPRMC,132043.1,A,3342.207727,N,11742.519774,W,63.5,299.7,210310,,,A*47
$GPRMC,132046.1,A,3342.231797,N,11742.572489,W,62.2,299.4,210310,,,A*45
$GPRMC,132049.1,A,3342.258065,N,11742.626736,W,63.9,300.1,210310,,,A*44
$GPRMC,132052.1,A,3342.285166,N,11742.681655,W,63.7,299.9,210310,,,A*42
$GPRMC,132055.1,A,3342.310638,N,11742.737343,W,64.6,299.4,210310,,,A*41
$GPRMC,132058.1,A,3342.334848,N,11742.791921,W,63.9,298.4,210310,,,A*48
$GPRMC,132101.1,A,3342.360335,N,11742.847187,W,63.0,298.5,210310,,,A*4D
$GPRMC,132104.1,A,3342.386513,N,11742.901286,W,62.7,300.9,210310,,,A*49
$GPRMC,132107.1,A,3342.418281,N,11742.951724,W,61.7,305.7,210310,,,A*46
$GPRMC,132110.1,A,3342.450881,N,11742.999229,W,62.4,310.4,210310,,,A*4D
$GPRMC,132113.1,A,3342.487921,N,11743.044534,W,62.9,314.9,210310,,,A*48
$GPRMC,132116.1,A,3342.529837,N,11743.086234,W,63.1,321.1,210310,,,A*40
$GPRMC,132119.1,A,3342.570716,N,11743.121309,W,61.4,326.7,210310,,,A*4A
$GPRMC,132122.1,A,3342.616116,N,11743.151073,W,61.9,330.9,210310,,,A*4A
$GPRMC,132125.1,A,3342.659881,N,11743.177506,W,60.5,334.7,210310,,,A*45
$GPRMC,132128.1,A,3342.706649,N,11743.195746,W,58.1,342.0,210310,,,A*4A
$GPRMC,132131.1,A,3342.753370,N,11743.210835,W,57.2,345.0,210310,,,A*43
$GPRMC,132134.1,A,3342.797400,N,11743.219435,W,55.2,351.3,210310,,,A*4F
$GPRMC,132137.1,A,3342.841694,N,11743.224429,W,54.0,355.0,210310,,,A*40
$GPRMC,132140.1,A,3342.884964,N,11743.224250,W,52.2,359.8,210310,,,A*41
$GPRMC,132143.1,A,3342.928656,N,11743.221827,W,52.2,3.8,210310,,,A*48
$GPRMC,132146.1,A,3342.970261,N,11743.217562,W,50.0,6.1,210310,,,A*45
$GPRMC,132149.1,A,3343.010930,N,11743.211960,W,49.0,6.6,210310,,,A*4C
$GPRMC,132152.1,A,3343.051032,N,11743.207374,W,48.2,6.0,210310,,,A*45
$GPRMC,132155.1,A,3343.090868,N,11743.201430,W,48.8,6.7,210310,,,A*44
$GPRMC,132158.1,A,3343.132462,N,11743.196911,W,50.3,6.2,210310,,,A*42
$GPRMC,132201.1,A,3343.175597,N,11743.191676,W,52.1,6.3,210310,,,A*4D
$GPRMC,132204.1,A,3343.220466,N,11743.185574,W,53.7,6.4,210310,,,A*40
$GPRMC,132207.1,A,3343.263906,N,11743.179806,W,53.3,6.5,210310,,,A*41
$GPRMC,132210.1,A,3343.308417,N,11743.173766,W,53.3,6.8,210310,,,A*48
$GPRMC,132213.1,A,3343.353447,N,11743.167038,W,54.8,6.6,210310,,,A*4B
$GPRMC,132216.1,A,3343.399764,N,11743.160610,W,56.1,6.6,210310,,,A*4A
$GPRMC,132219.1,A,3343.446995,N,11743.153682,W,57.2,6.6,210310,,,A*49
$GPRMC,132222.1,A,3343.494976,N,11743.147171,W,58.3,6.7,210310,,,A*42
$GPRMC,132225.1,A,3343.544579,N,11743.141310,W,58.9,6.6,210310,,,A*42
$GPRMC,132228.1,A,3343.594142,N,11743.135391,W,59.6,6.1,210310,,,A*4D
$GPRMC,132231.1,A,3343.643729,N,11743.128218,W,60.3,7.0,210310,,,A*44
$GPRMC,132234.1,A,3343.695301,N,11743.121805,W,61.3,5.8,210310,,,A*40
$GPRMC,132237.1,A,3343.747655,N,11743.115022,W,62.4,6.3,210310,,,A*4F
$GPRMC,132240.1,A,3343.800323,N,11743.107995,W,62.7,6.0,210310,,,A*41
$GPRMC,132243.1,A,3343.852395,N,11743.101631,W,62.6,6.2,210310,,,A*4C
$GPRMC,132246.1,A,3343.903995,N,11743.094790,W,61.5,6.4,210310,,,A*47
$GPRMC,132249.1,A,3343.955271,N,11743.089259,W,61.2,5.8,210310,,,A*4E
$GPRMC,132252.1,A,3344.004814,N,11743.082908,W,60.4,5.8,210310,,,A*44
$GPRMC,132255.1,A,3344.052834,N,11743.076701,W,59.6,6.4,210310,,,A*49
$GPRMC,132258.1,A,3344.101686,N,11743.069197,W,59.8,7.1,210310,,,A*49
$GPRMC,132301.1,A,3344.151517,N,11743.061973,W,60.1,6.5,210310,,,A*46
$GPRMC,132304.1,A,3344.200973,N,11743.054003,W,60.3,6.7,210310,,,A*42
$GPRMC,132307.1,A,3344.250175,N,11743.048398,W,60.9,3.6,210310,,,A*48
$GPRMC,132310.1,A,3344.302764,N,11743.048685,W,61.0,0.6,210310,,,A*4C
$GPRMC,132313.1,A,3344.353948,N,11743.051097,W,61.6,357.3,210310,,,A*44
$GPRMC,132316.1,A,3344.404629,N,11743.058042,W,61.7,353.0,210310,,,A*4B
$GPRMC,132319.1,A,3344.457060,N,11743.068670,W,62.3,348.9,210310,,,A*49
$GPRMC,132322.1,A,3344.508296,N,11743.085685,W,63.0,344.6,210310,,,A*49
$GPRMC,132325.1,A,3344.557373,N,11743.105283,W,62.3,340.4,210310,,,A*41
$GPRMC,132328.1,A,3344.603674,N,11743.130728,W,61.5,334.6,210310,,,A*4A
$GPRMC,132331.1,A,3344.651626,N,11743.160264,W,63.2,331.6,210310,,,A*4A
$GPRMC,132334.1,A,3344.695300,N,11743.192004,W,61.8,327.6,210310,,,A*40
$GPRMC,132337.1,A,3344.734709,N,11743.226798,W,61.5,323.3,210310,,,A*46
$GPRMC,132340.1,A,3344.774645,N,11743.265813,W,60.7,319.3,210310,,,A*4A
$GPRMC,132343.1,A,3344.812859,N,11743.308677,W,61.7,315.4,210310,,,A*49
$GPRMC,132346.1,A,3344.847185,N,11743.354158,W,61.7,310.9,210310,,,A*4F
$GPRMC,132349.1,A,3344.878732,N,11743.402539,W,61.5,307.3,210310,,,A*4F
$GPRMC,132352.1,A,3344.909279,N,11743.454512,W,63.0,304.0,210310,,,A*45
$GPRMC,132355.1,A,3344.936028,N,11743.506457,W,61.2,302.2,210310,,,A*4A
$GPRMC,132358.1,A,3344.963625,N,11743.559489,W,61.5,301.8,210310,,,A*4B
$GPRMC,132401.1,A,3344.988069,N,11743.609586,W,59.6,301.7,210310,,,A*44
$GPRMC,132404.1,A,3345.011981,N,11743.658474,W,58.5,301.4,210310,,,A*4F
$GPRMC,132407.1,A,3345.034430,N,11743.708270,W,57.3,302.4,210310,,,A*40
$GPRMC,132410.1,A,3345.062599,N,11743.754138,W,57.7,308.4,210310,,,A*4F
$GPRMC,132413.1,A,3345.098031,N,11743.798399,W,57.9,314.5,210310,,,A*45
$GPRMC,132416.1,A,3345.133650,N,11743.837830,W,57.6,319.6,210310,,,A*42
$GPRMC,132419.1,A,3345.174092,N,11743.871695,W,58.0,326.4,210310,,,A*42
$GPRMC,132422.1,A,3345.217716,N,11743.901110,W,58.1,331.1,210310,,,A*49
$GPRMC,132425.1,A,3345.264223,N,11743.926344,W,58.8,336.7,210310,,,A*47
$GPRMC,132428.1,A,3345.309878,N,11743.943833,W,58.1,343.9,210310,,,A*49
$GPRMC,132431.1,A,3345.358447,N,11743.956518,W,59.0,349.4,210310,,,A*42
$GPRMC,132434.1,A,3345.408163,N,11743.963498,W,59.3,355.3,210310,,,A*40
$GPRMC,132437.1,A,3345.458045,N,11743.963787,W,60.0,1.0,210310,,,A*46
$GPRMC,132440.1,A,3345.508085,N,11743.958825,W,60.8,5.7,210310,,,A*4A
$GPRMC,132443.1,A,3345.557392,N,11743.949072,W,61.1,8.7,210310,,,A*49
$GPRMC,132446.1,A,3345.605930,N,11743.939134,W,60.3,8.9,210310,,,A*43
$GPRMC,132449.1,A,3345.652090,N,11743.928323,W,58.6,9.0,210310,,,A*4F
$GPRMC,132452.1,A,3345.700044,N,11743.922157,W,58.0,3.1,210310,,,A*4C
$GPRMC,132455.1,A,3345.750542,N,11743.923106,W,58.0,358.4,210310,,,A*40
$GPRMC,132458.1,A,3345.800066,N,11743.929462,W,59.8,351.5,210310,,,A*48
$GPRMC,132501.1,A,3345.849813,N,11743.940809,W,60.2,346.9,210310,,,A*46
$GPRMC,132504.1,A,3345.898079,N,11743.958711,W,60.2,340.9,210310,,,A*42
$GPRMC,132507.1,A,3345.943911,N,11743.983176,W,60.0,334.2,210310,,,A*4A
$GPRMC,132510.1,A,3345.987403,N,11744.013261,W,60.8,329.5,210310,,,A*4B
$GPRMC,132513.1,A,3346.028394,N,11744.047025,W,60.1,323.9,210310,,,A*42
$GPRMC,132516.1,A,3346.067320,N,11744.088047,W,60.6,317.3,210310,,,A*4E
$GPRMC,132519.1,A,3346.102252,N,11744.133037,W,61.9,311.9,210310,,,A*43
$GPRMC,132522.1,A,3346.133385,N,11744.180460,W,62.6,308.0,210310,,,A*41
$GPRMC,132525.1,A,3346.163684,N,11744.230080,W,62.3,306.5,210310,,,A*4B
$GPRMC,132528.1,A,3346.194356,N,11744.279616,W,61.7,306.4,210310,,,A*46
$GPRMC,132531.1,A,3346.224559,N,11744.330182,W,63.0,306.1,210310,,,A*49
$GPRMC,132534.1,A,3346.255708,N,11744.381944,W,62.8,305.9,210310,,,A*46
$GPRMC,132537.1,A,3346.284200,N,11744.432824,W,63.2,305.8,210310,,,A*46
$GPRMC,132540.1,A,3346.316163,N,11744.485636,W,64.8,306.0,210310,,,A*4D
$GPRMC,132543.1,A,3346.346891,N,11744.536649,W,65.0,306.0,210310,,,A*47
$GPRMC,132546.1,A,3346.379103,N,11744.586764,W,63.6,309.7,210310,,,A*41
$GPRMC,132549.1,A,3346.414752,N,11744.635913,W,64.7,311.6,210310,,,A*4B
$GPRMC,132552.1,A,3346.452889,N,11744.683195,W,65.5,315.0,210310,,,A*40
$GPRMC,132555.1,A,3346.494122,N,11744.727468,W,66.1,318.5,210310,,,A*42
$GPRMC,132558.1,A,3346.537351,N,11744.768614,W,66.0,322.8,210310,,,A*46
$GPRMC,132601.1,A,3346.586586,N,11744.804080,W,67.2,329.9,210310,,,A*48
$GPRMC,132604.1,A,3346.636263,N,11744.831758,W,66.3,336.4,210310,,,A*4E
$GPRMC,132607.1,A,3346.691321,N,11744.854101,W,67.1,342.8,210310,,,A*42
$GPRMC,132610.1,A,3346.744898,N,11744.867947,W,67.8,349.4,210310,,,A*40
$GPRMC,132613.1,A,3346.797558,N,11744.874049,W,66.4,355.2,210310,,,A*4F
$GPRMC,132616.1,A,3346.855064,N,11744.872804,W,67.9,1.6,210310,,,A*4C
$GPRMC,132619.1,A,3346.912060,N,11744.863927,W,68.3,7.9,210310,,,A*49
$GPRMC,132622.1,A,3346.965342,N,11744.849538,W,66.4,13.9,210310,,,A*74
$GPRMC,132625.1,A,3347.011588,N,11744.825093,W,64.1,21.2,210310,,,A*7B
$GPRMC,132628.1,A,3347.058146,N,11744.795497,W,63.3,27.2,210310,,,A*7A
$GPRMC,132631.1,A,3347.103894,N,11744.763278,W,63.1,31.2,210310,,,A*70
$GPRMC,132634.1,A,3347.146757,N,11744.725615,W,63.9,35.8,210310,,,A*7F
$GPRMC,132637.1,A,3347.186681,N,11744.683765,W,64.2,41.1,210310,,,A*77
$GPRMC,132640.1,A,3347.225644,N,11744.638475,W,64.2,45.0,210310,,,A*73
$GPRMC,132643.1,A,3347.259416,N,11744.590739,W,63.3,50.1,210310,,,A*77
$GPRMC,132646.1,A,3347.290425,N,11744.540016,W,62.9,52.9,210310,,,A*71
$GPRMC,132649.1,A,3347.321204,N,11744.488790,W,63.1,53.6,210310,,,A*7B
$GPRMC,132652.1,A,3347.352524,N,11744.437884,W,62.5,53.5,210310,,,A*78
$GPRMC,132655.1,A,3347.384599,N,11744.389521,W,61.4,52.7,210310,,,A*73
$GPRMC,132658.1,A,3347.415003,N,11744.341859,W,60.4,52.6,210310,,,A*71
$GPRMC,132701.1,A,3347.445292,N,11744.293200,W,60.1,53.8,210310,,,A*71
$GPRMC,132704.1,A,3347.476827,N,11744.244872,W,60.6,53.1,210310,,,A*7B
$GPRMC,132707.1,A,3347.508202,N,11744.195275,W,62.0,53.6,210310,,,A*7C
$GPRMC,132710.1,A,3347.540352,N,11744.146878,W,61.9,52.4,210310,,,A*72
$GPRMC,132713.1,A,3347.571162,N,11744.096814,W,61.9,53.1,210310,,,A*70
$GPRMC,132716.1,A,3347.600956,N,11744.046160,W,61.2,53.7,210310,,,A*75
$GPRMC,132719.1,A,3347.631787,N,11743.997181,W,60.0,52.8,210310,,,A*7A
$GPRMC,132722.1,A,3347.662474,N,11743.949966,W,60.2,53.0,210310,,,A*72
$GPRMC,132725.1,A,3347.690657,N,11743.901355,W,60.2,52.6,210310,,,A*7A
$GPRMC,132728.1,A,3347.718201,N,11743.852204,W,59.1,53.9,210310,,,A*74
$GPRMC,132731.1,A,3347.747726,N,11743.805585,W,58.5,52.7,210310,,,A*70
$GPRMC,132734.1,A,3347.777103,N,11743.759560,W,57.8,52.1,210310,,,A*7E
$GPRMC,132737.1,A,3347.806730,N,11743.715696,W,57.0,47.9,210310,,,A*74
$GPRMC,132740.1,A,3347.839556,N,11743.675725,W,56.8,42.7,210310,,,A*76
$GPRMC,132743.1,A,3347.876778,N,11743.639461,W,56.4,35.5,210310,,,A*75
$GPRMC,132746.1,A,3347.916068,N,11743.609393,W,55.7,31.1,210310,,,A*78
$GPRMC,132749.1,A,3347.957040,N,11743.584152,W,55.6,24.8,210310,,,A*7D
$GPRMC,132752.1,A,3347.999339,N,11743.563346,W,55.3,21.1,210310,,,A*7F
$GPRMC,132755.1,A,3348.041984,N,11743.545379,W,54.3,19.7,210310,,,A*73
$GPRMC,132758.1,A,3348.086408,N,11743.531266,W,54.7,14.3,210310,,,A*7D
$GPRMC,132801.1,A,3348.130245,N,11743.518382,W,53.8,14.0,210310,,,A*76
$GPRMC,132804.1,A,3348.173945,N,11743.505703,W,54.1,14.5,210310,,,A*75
$GPRMC,132807.1,A,3348.218426,N,11743.492011,W,54.6,13.8,210310,,,A*76
$GPRMC,132810.1,A,3348.262612,N,11743.478713,W,54.8,14.1,210310,,,A*79
$GPRMC,132813.1,A,3348.307089,N,11743.465471,W,54.7,14.8,210310,,,A*71
$GPRMC,132816.1,A,3348.351508,N,11743.451214,W,55.2,15.5,210310,,,A*71
$GPRMC,132819.1,A,3348.396192,N,11743.434227,W,56.4,19.5,210310,,,A*78
$GPRMC,132822.1,A,3348.441138,N,11743.413431,W,56.8,22.2,210310,,,A*7A
$GPRMC,132825.1,A,3348.485895,N,11743.389628,W,57.7,25.9,210310,,,A*77
$GPRMC,132828.1,A,3348.529519,N,11743.363859,W,58.0,27.7,210310,,,A*7C
$GPRMC,132831.1,A,3348.572031,N,11743.335828,W,57.6,28.7,210310,,,A*76
$GPRMC,132834.1,A,3348.615259,N,11743.308761,W,59.5,28.9,210310,,,A*72
$GPRMC,132837.1,A,3348.659211,N,11743.280997,W,59.5,29.0,210310,,,A*7B
$GPRMC,132840.1,A,3348.701301,N,11743.253263,W,58.5,29.2,210310,,,A*7A
$GPRMC,132843.1,A,3348.745683,N,11743.224626,W,59.2,30.0,210310,,,A*7F
$GPRMC,132846.1,A,3348.790026,N,11743.195452,W,59.3,28.7,210310,,,A*7C
$GPRMC,132849.1,A,3348.834511,N,11743.166987,W,59.9,27.2,210310,,,A*7A
$GPRMC,132852.1,A,3348.880545,N,11743.139090,W,60.1,24.8,210310,,,A*70
$GPRMC,132855.1,A,3348.927160,N,11743.114334,W,60.9,23.0,210310,,,A*7D
$GPRMC,132858.1,A,3348.973653,N,11743.091050,W,60.8,21.8,210310,,,A*70
$GPRMC,132901.1,A,3349.018899,N,11743.068077,W,59.8,21.2,210310,,,A*73
$GPRMC,132904.1,A,3349.064465,N,11743.047027,W,60.2,19.9,210310,,,A*7A
$GPRMC,132907.1,A,3349.115482,N,11743.031162,W,61.5,15.4,210310,,,A*71
$GPRMC,132910.1,A,3349.168507,N,11743.020018,W,61.9,13.0,210310,,,A*73
$GPRMC,132913.1,A,3349.218896,N,11743.010754,W,59.9,11.7,210310,,,A*73
$GPRMC,132916.1,A,3349.266798,N,11743.000594,W,57.5,9.5,210310,,,A*48
$GPRMC,132919.1,A,3349.314254,N,11742.991687,W,56.3,8.5,210310,,,A*41
$GPRMC,132922.1,A,3349.360487,N,11742.981996,W,55.5,7.5,210310,,,A*46
$GPRMC,132925.1,A,3349.408784,N,11742.978930,W,55.8,4.8,210310,,,A*41
$GPRMC,132928.1,A,3349.458178,N,11742.977094,W,56.6,2.7,210310,,,A*40
$GPRMC,132931.1,A,3349.507721,N,11742.976817,W,57.8,1.0,210310,,,A*40
$GPRMC,132934.1,A,3349.557324,N,11742.978050,W,58.9,359.8,210310,,,A*4C
$GPRMC,132937.1,A,3349.608461,N,11742.980344,W,59.8,358.0,210310,,,A*48
$GPRMC,132940.1,A,3349.658978,N,11742.984618,W,59.6,356.3,210310,,,A*43
$GPRMC,132943.1,A,3349.709549,N,11742.990491,W,59.7,354.3,210310,,,A*4E
$GPRMC,132946.1,A,3349.760259,N,11742.998474,W,60.2,353.1,210310,,,A*4B
$GPRMC,132949.1,A,3349.809570,N,11743.006225,W,59.7,352.3,210310,,,A*49
$GPRMC,132952.1,A,3349.859967,N,11743.013656,W,61.0,353.6,210310,,,A*40
$GPRMC,132955.1,A,3349.910484,N,11743.020331,W,60.8,353.7,210310,,,A*47
$GPRMC,132958.1,A,3349.961381,N,11743.027938,W,61.8,353.2,210310,,,A*4E
$GPRMC,133001.1,A,3350.012849,N,11743.035263,W,62.1,353.0,210310,,,A*4E
$GPRMC,133004.1,A,3350.064564,N,11743.043123,W,63.8,352.8,210310,,,A*4F
$GPRMC,133007.1,A,3350.118643,N,11743.051556,W,65.2,352.9,210310,,,A*48
$GPRMC,133010.1,A,3350.172296,N,11743.060325,W,66.1,353.0,210310,,,A*46
$GPRMC,133013.1,A,3350.227077,N,11743.067570,W,65.9,354.0,210310,,,A*46
