NMEA Sentence Code,UTC Time,Status,Latitude,Latitude Direction,Longitude,Longitude Direction,Speed (knots),Track Angle (degrees true),Date,MagneticVariation,Magnetic Variation Direction,[FAA Mode]-Optional,Checksum
$GPRMC,005619.9,A,3309.0136,N,11720.1246,W,10.00,153.50,181210,,*22
$GPRMC,005623.9,A,3309.0043,N,11720.1182,W,9.10,137.30,181210,,*1E
$GPRMC,005627.9,A,3308.9936,N,11720.1140,W,10.30,153.80,181210,,*24
$GPRMC,005631.9,A,3308.9846,N,11720.1082,W,6.00,156.20,181210,,*11
$GPRMC,005639.9,A,3308.9734,N,11720.1017,W,6.80,153.90,181210,,*19
$GPRMC,005643.9,A,3308.9667,N,11720.0987,W,6.60,155.70,181210,,*14
$GPRMC,005647.9,A,3308.9578,N,11720.0932,W,9.30,151.10,181210,,*1B
$GPRMC,005651.9,A,3308.9439,N,11720.0850,W,13.00,154.40,181210,,*25
$GPRMC,005655.9,A,3308.9308,N,11720.0778,W,12.40,155.00,181210,,*21
$GPRMC,005659.9,A,3308.9206,N,11720.0721,W,8.70,153.60,181210,,*16
$GPRMC,005703.9,A,3308.9127,N,11720.0682,W,9.10,157.50,181210,,*10
$GPRMC,005707.9,A,3308.9016,N,11720.0628,W,11.10,158.90,181210,,*2D
$GPRMC,005711.9,A,3308.8890,N,11720.0571,W,11.00,157.30,181210,,*26
$GPRMC,005715.9,A,3308.8766,N,11720.0521,W,11.40,162.80,181210,,*28
$GPRMC,005719.9,A,3308.8644,N,11720.0463,W,12.70,161.70,181210,,*2E
$GPRMC,005723.9,A,3308.8494,N,11720.0407,W,13.90,163.00,181210,,*20
$GPRMC,005727.9,A,3308.8337,N,11720.0362,W,14.60,167.00,181210,,*22
$GPRMC,005731.9,A,3308.8193,N,11720.0332,W,14.00,169.30,181210,,*27
$GPRMC,005735.9,A,3308.8034,N,11720.0302,W,14.80,176.00,181210,,*29
$GPRMC,005739.9,A,3308.7868,N,11720.0283,W,15.40,175.60,181210,,*2B
$GPRMC,005743.9,A,3308.7652,N,11720.0267,W,19.50,175.80,181210,,*28
$GPRMC,005747.9,A,3308.7457,N,11720.0249,W,17.20,175.50,181210,,*23
$GPRMC,005751.9,A,3308.7295,N,11720.0251,W,14.70,176.60,181210,,*23
$GPRMC,005755.9,A,3308.7136,N,11720.0236,W,14.00,179.00,181210,,*22
$GPRMC,005759.9,A,3308.6982,N,11720.0236,W,13.90,178.20,181210,,*25
$GPRMC,005803.9,A,3308.6839,N,11720.0237,W,12.90,178.90,181210,,*2F
$GPRMC,005807.9,A,3308.6671,N,11720.0221,W,18.00,176.30,181210,,*29
$GPRMC,005811.9,A,3308.6440,N,11720.0211,W,21.70,178.20,181210,,*2F
$GPRMC,005815.9,A,3308.6189,N,11720.0185,W,20.60,175.60,181210,,*2C
$GPRMC,005819.9,A,3308.6001,N,11720.0174,W,14.80,174.90,181210,,*28
$GPRMC,005823.9,A,3308.5861,N,11720.0169,W,12.00,172.90,181210,,*28
$GPRMC,005827.9,A,3308.5687,N,11720.0136,W,16.60,170.80,181210,,*21
$GPRMC,005831.9,A,3308.5474,N,11720.0082,W,21.00,167.10,181210,,*2B
$GPRMC,005835.9,A,3308.5262,N,11720.0001,W,20.10,160.80,181210,,*2B
$GPRMC,005839.9,A,3308.5048,N,11719.9895,W,21.90,156.50,181210,,*2A
$GPRMC,005843.9,A,3308.4814,N,11719.9782,W,19.80,157.60,181210,,*26
$GPRMC,005847.9,A,3308.4645,N,11719.9692,W,15.00,156.50,181210,,*2E
$GPRMC,005851.9,A,3308.4494,N,11719.9608,W,16.80,154.20,181210,,*2A
$GPRMC,005855.9,A,3308.4288,N,11719.9492,W,21.10,156.70,181210,,*2E
$GPRMC,005859.9,A,3308.4081,N,11719.9389,W,19.30,157.00,181210,,*2B
$GPRMC,005903.9,A,3308.3880,N,11719.9291,W,19.00,158.30,181210,,*2C
$GPRMC,005907.9,A,3308.3688,N,11719.9196,W,18.30,156.70,181210,,*22
$GPRMC,005911.9,A,3308.3517,N,11719.9111,W,18.20,156.10,181210,,*28
$GPRMC,005915.9,A,3308.3291,N,11719.8993,W,22.00,157.30,181210,,*2E
$GPRMC,005919.9,A,3308.3040,N,11719.8877,W,24.20,157.10,181210,,*21
$GPRMC,005923.9,A,3308.2782,N,11719.8738,W,26.70,156.40,181210,,*27
$GPRMC,005927.9,A,3308.2504,N,11719.8602,W,27.60,156.20,181210,,*21
$GPRMC,005931.9,A,3308.2221,N,11719.8452,W,27.50,156.80,181210,,*28
$GPRMC,005935.9,A,3308.1962,N,11719.8312,W,25.00,156.00,181210,,*2F
$GPRMC,005939.9,A,3308.1717,N,11719.8190,W,22.60,155.70,181210,,*22
$GPRMC,005943.9,A,3308.1488,N,11719.8074,W,21.90,156.10,181210,,*28
$GPRMC,005947.9,A,3308.1283,N,11719.7975,W,20.10,157.90,181210,,*26
$GPRMC,005951.9,A,3308.1091,N,11719.7883,W,16.90,157.20,181210,,*2E
$GPRMC,005955.9,A,3308.0933,N,11719.7808,W,14.30,156.40,181210,,*26
$GPRMC,005959.9,A,3308.0794,N,11719.7739,W,13.60,158.00,181210,,*2C
$GPRMC,010003.9,A,3308.0677,N,11719.7670,W,10.60,158.90,181210,,*24
$GPRMC,010007.9,A,3308.0538,N,11719.7612,W,14.60,156.00,181210,,*2F
$GPRMC,010011.9,A,3308.0396,N,11719.7539,W,13.90,155.20,181210,,*29
$GPRMC,010015.9,A,3308.0240,N,11719.7456,W,15.00,155.80,181210,,*2A
$GPRMC,010019.9,A,3308.0088,N,11719.7378,W,13.70,156.00,181210,,*21
$GPRMC,010023.9,A,3307.9946,N,11719.7297,W,13.90,154.80,181210,,*21
$GPRMC,010027.9,A,3307.9802,N,11719.7206,W,17.80,153.90,181210,,*2F
$GPRMC,010031.9,A,3307.9602,N,11719.7091,W,21.00,153.80,181210,,*26
$GPRMC,010035.9,A,3307.9403,N,11719.6972,W,19.40,153.20,181210,,*21
$GPRMC,010039.9,A,3307.9226,N,11719.6866,W,16.20,153.50,181210,,*26
$GPRMC,010043.9,A,3307.9077,N,11719.6781,W,12.50,153.60,181210,,*2B
$GPRMC,010047.9,A,3307.8951,N,11719.6705,W,12.70,153.00,181210,,*2B
$GPRMC,010051.9,A,3307.8839,N,11719.6634,W,9.60,152.70,181210,,*1D
$GPRMC,010055.9,A,3307.8736,N,11719.6575,W,11.50,153.10,181210,,*22
$GPRMC,010059.9,A,3307.8625,N,11719.6514,W,11.40,153.30,181210,,*29
$GPRMC,010103.9,A,3307.8475,N,11719.6426,W,16.70,153.60,181210,,*21
$GPRMC,010107.9,A,3307.8324,N,11719.6332,W,13.90,153.50,181210,,*2C
$GPRMC,010111.9,A,3307.8185,N,11719.6252,W,15.20,153.40,181210,,*29
$GPRMC,010115.9,A,3307.8050,N,11719.6169,W,12.10,152.90,181210,,*27
$GPRMC,010119.9,A,3307.7941,N,11719.6102,W,10.50,152.80,181210,,*27
$GPRMC,010123.9,A,3307.7837,N,11719.6040,W,9.90,153.50,181210,,*11
$GPRMC,010127.9,A,3307.7747,N,11719.5987,W,8.30,154.40,181210,,*11
$GPRMC,010131.9,A,3307.7669,N,11719.5939,W,8.30,152.80,181210,,*14
$GPRMC,010135.9,A,3307.7575,N,11719.5878,W,11.80,153.30,181210,,*23
$GPRMC,010139.9,A,3307.7435,N,11719.5791,W,15.60,153.90,181210,,*22
$GPRMC,010143.9,A,3307.7267,N,11719.5692,W,17.70,152.60,181210,,*21
$GPRMC,010147.9,A,3307.7097,N,11719.5583,W,15.80,151.40,181210,,*27
$GPRMC,010151.9,A,3307.6952,N,11719.5500,W,13.80,153.20,181210,,*28
$GPRMC,010155.9,A,3307.6816,N,11719.5421,W,11.50,153.30,181210,,*21
$GPRMC,010159.9,A,3307.6718,N,11719.5364,W,10.70,153.20,181210,,*28
$GPRMC,010203.9,A,3307.6644,N,11719.5318,W,9.00,154.60,181210,,*1B
$GPRMC,010207.9,A,3307.6530,N,11719.5252,W,12.70,153.70,181210,,*2B
$GPRMC,010211.9,A,3307.6410,N,11719.5182,W,8.10,149.20,181210,,*12
$GPRMC,010223.9,A,3307.6247,N,11719.5075,W,7.30,153.30,181210,,*19
$GPRMC,010227.9,A,3307.6174,N,11719.5030,W,9.40,153.40,181210,,*11
$GPRMC,010233.9,A,3307.5907,N,11719.4869,W,20.10,154.00,181210,,*23
$GPRMC,010237.9,A,3307.5675,N,11719.4733,W,22.10,152.40,181210,,*2D
$GPRMC,010241.9,A,3307.5500,N,11719.4632,W,16.00,152.90,181210,,*26
$GPRMC,010245.9,A,3307.5351,N,11719.4543,W,14.50,151.80,181210,,*20
$GPRMC,010249.9,A,3307.5211,N,11719.4462,W,14.10,153.40,181210,,*21
$GPRMC,010253.9,A,3307.5066,N,11719.4375,W,14.50,153.60,181210,,*2F
$GPRMC,010257.9,A,3307.4922,N,11719.4287,W,13.50,153.60,181210,,*28
$GPRMC,010301.9,A,3307.4796,N,11719.4212,W,11.70,154.10,181210,,*27
$GPRMC,010305.9,A,3307.4680,N,11719.4143,W,13.00,152.80,181210,,*28
$GPRMC,010309.9,A,3307.4524,N,11719.4050,W,16.90,152.90,181210,,*27
$GPRMC,010313.9,A,3307.4367,N,11719.3956,W,13.60,153.60,181210,,*21
$GPRMC,010317.9,A,3307.4234,N,11719.3869,W,13.30,154.90,181210,,*22
$GPRMC,010321.9,A,3307.4078,N,11719.3779,W,17.80,153.00,181210,,*22
$GPRMC,010325.9,A,3307.3890,N,11719.3669,W,19.50,154.90,181210,,*22
$GPRMC,010329.9,A,3307.3688,N,11719.3556,W,19.90,153.40,181210,,*20
$GPRMC,010333.9,A,3307.3480,N,11719.3432,W,21.70,152.40,181210,,*26
$GPRMC,010337.9,A,3307.3265,N,11719.3303,W,22.40,153.40,181210,,*2B
$GPRMC,010341.9,A,3307.3061,N,11719.3178,W,20.10,153.60,181210,,*27
$GPRMC,010345.9,A,3307.2904,N,11719.3073,W,12.10,154.20,181210,,*20
$GPRMC,010349.9,A,3307.2792,N,11719.3007,W,11.60,152.80,181210,,*26
$GPRMC,010353.9,A,3307.2673,N,11719.2934,W,12.00,153.30,181210,,*24
$GPRMC,010357.9,A,3307.2550,N,11719.2860,W,13.10,154.40,181210,,*22
$GPRMC,010401.9,A,3307.2407,N,11719.2776,W,13.90,153.10,181210,,*27
$GPRMC,010405.9,A,3307.2276,N,11719.2702,W,14.80,153.40,181210,,*23
$GPRMC,010409.9,A,3307.2132,N,11719.2622,W,13.70,153.10,181210,,*22
$GPRMC,010413.9,A,3307.1971,N,11719.2523,W,18.00,152.50,181210,,*2E
$GPRMC,010417.9,A,3307.1791,N,11719.2409,W,17.20,153.20,181210,,*28
$GPRMC,010421.9,A,3307.1610,N,11719.2307,W,17.90,153.70,181210,,*22
$GPRMC,010425.9,A,3307.1432,N,11719.2207,W,17.40,153.90,181210,,*26
$GPRMC,010429.9,A,3307.1262,N,11719.2097,W,18.00,153.40,181210,,*24
$GPRMC,010433.9,A,3307.1094,N,11719.1995,W,15.20,153.20,181210,,*25
$GPRMC,010437.9,A,3307.0951,N,11719.1914,W,14.60,153.60,181210,,*28
$GPRMC,010441.9,A,3307.0796,N,11719.1819,W,16.80,150.50,181210,,*2C
$GPRMC,010445.9,A,3307.0592,N,11719.1677,W,21.90,151.40,181210,,*2D
$GPRMC,010449.9,A,3307.0382,N,11719.1545,W,20.70,153.40,181210,,*29
$GPRMC,010453.9,A,3307.0185,N,11719.1421,W,18.90,153.70,181210,,*22
$GPRMC,010457.9,A,3307.0008,N,11719.1318,W,19.60,153.10,181210,,*27
$GPRMC,010501.9,A,3306.9836,N,11719.1211,W,15.70,152.90,181210,,*24
$GPRMC,010505.9,A,3306.9671,N,11719.1114,W,17.30,154.10,181210,,*23
$GPRMC,010509.9,A,3306.9456,N,11719.0987,W,23.40,153.20,181210,,*2F
$GPRMC,010513.9,A,3306.9195,N,11719.0831,W,26.20,153.10,181210,,*22
$GPRMC,010517.9,A,3306.8950,N,11719.0673,W,24.10,152.30,181210,,*2C
$GPRMC,010521.9,A,3306.8735,N,11719.0538,W,19.90,153.70,181210,,*2B
$GPRMC,010525.9,A,3306.8545,N,11719.0428,W,18.80,153.00,181210,,*2D
$GPRMC,010529.9,A,3306.8345,N,11719.0315,W,21.50,152.70,181210,,*2F
$GPRMC,010533.9,A,3306.8104,N,11719.0168,W,25.50,153.40,181210,,*2D
$GPRMC,010537.9,A,3306.7828,N,11718.9998,W,28.30,152.40,181210,,*24
$GPRMC,010541.9,A,3306.7549,N,11718.9823,W,27.80,152.40,181210,,*2A
$GPRMC,010545.9,A,3306.7294,N,11718.9674,W,23.80,153.10,181210,,*25
$GPRMC,010549.9,A,3306.7086,N,11718.9566,W,20.10,154.30,181210,,*27
$GPRMC,010553.9,A,3306.6876,N,11718.9444,W,21.50,153.40,181210,,*2E
$GPRMC,010557.9,A,3306.6635,N,11718.9300,W,25.20,153.80,181210,,*2B
$GPRMC,010601.9,A,3306.6385,N,11718.9142,W,25.40,152.60,181210,,*28
$GPRMC,010605.9,A,3306.6119,N,11718.8976,W,29.30,152.90,181210,,*21
$GPRMC,010609.9,A,3306.5840,N,11718.8811,W,27.10,152.90,181210,,*27
$GPRMC,010613.9,A,3306.5587,N,11718.8659,W,24.40,153.20,181210,,*24
$GPRMC,010617.9,A,3306.5343,N,11718.8516,W,25.70,153.70,181210,,*21
$GPRMC,010621.9,A,3306.5062,N,11718.8346,W,30.00,153.10,181210,,*22
$GPRMC,010625.9,A,3306.4788,N,11718.8166,W,25.10,151.70,181210,,*25
$GPRMC,010629.9,A,3306.4546,N,11718.8005,W,26.10,151.40,181210,,*2D
$GPRMC,010633.9,A,3306.4260,N,11718.7819,W,29.20,151.50,181210,,*22
$GPRMC,010637.9,A,3306.3984,N,11718.7647,W,27.40,151.20,181210,,*2A
$GPRMC,010641.9,A,3306.3704,N,11718.7461,W,29.30,151.60,181210,,*26
$GPRMC,010645.9,A,3306.3414,N,11718.7272,W,29.20,150.40,181210,,*26
$GPRMC,010649.9,A,3306.3152,N,11718.7101,W,26.70,150.90,181210,,*2D
$GPRMC,010653.9,A,3306.2901,N,11718.6938,W,25.00,152.20,181210,,*27
$GPRMC,010657.9,A,3306.2670,N,11718.6793,W,21.50,150.80,181210,,*2C
$GPRMC,010701.9,A,3306.2512,N,11718.6685,W,15.30,150.50,181210,,*23
$GPRMC,010705.9,A,3306.2368,N,11718.6589,W,14.20,150.50,181210,,*23
$GPRMC,010709.9,A,3306.2235,N,11718.6500,W,13.60,151.00,181210,,*20
$GPRMC,010713.9,A,3306.2069,N,11718.6402,W,16.90,154.60,181210,,*2A
$GPRMC,010717.9,A,3306.1853,N,11718.6268,W,22.50,151.30,181210,,*2D
$GPRMC,010721.9,A,3306.1652,N,11718.6133,W,20.60,151.60,181210,,*2E
$GPRMC,010725.9,A,3306.1455,N,11718.6002,W,18.70,151.00,181210,,*20
$GPRMC,010729.9,A,3306.1269,N,11718.5879,W,18.40,151.00,181210,,*21
$GPRMC,010733.9,A,3306.1099,N,11718.5760,W,16.20,150.90,181210,,*20
$GPRMC,010737.9,A,3306.0944,N,11718.5662,W,17.30,150.70,181210,,*21
$GPRMC,010741.9,A,3306.0746,N,11718.5544,W,20.40,154.10,181210,,*2A
$GPRMC,010745.9,A,3306.0539,N,11718.5397,W,20.90,150.90,181210,,*2D
$GPRMC,010749.9,A,3306.0350,N,11718.5275,W,16.40,151.10,181210,,*24
$GPRMC,010753.9,A,3306.0200,N,11718.5176,W,14.80,150.10,181210,,*24
$GPRMC,010757.9,A,3306.0034,N,11718.5073,W,18.80,150.80,181210,,*24
$GPRMC,010801.9,A,3305.9833,N,11718.4944,W,22.30,151.60,181210,,*2C
$GPRMC,010805.9,A,3305.9610,N,11718.4799,W,22.90,151.70,181210,,*22
$GPRMC,010809.9,A,3305.9410,N,11718.4663,W,17.00,149.80,181210,,*21
$GPRMC,010813.9,A,3305.9300,N,11718.4592,W,9.30,148.50,181210,,*11
$GPRMC,010817.9,A,3305.9203,N,11718.4518,W,14.20,151.90,181210,,*2C
$GPRMC,010821.9,A,3305.9040,N,11718.4415,W,18.00,152.50,181210,,*21
$GPRMC,010825.9,A,3305.8840,N,11718.4296,W,20.40,152.40,181210,,*2F
$GPRMC,010829.9,A,3305.8646,N,11718.4179,W,20.20,151.20,181210,,*2A
$GPRMC,010833.9,A,3305.8442,N,11718.4053,W,19.20,152.00,181210,,*25
$GPRMC,010837.9,A,3305.8274,N,11718.3939,W,18.10,150.80,181210,,*28
$GPRMC,010841.9,A,3305.8084,N,11718.3813,W,20.20,151.30,181210,,*2F
$GPRMC,010845.9,A,3305.7903,N,11718.3710,W,16.90,152.70,181210,,*27
$GPRMC,010849.9,A,3305.7724,N,11718.3586,W,20.70,150.80,181210,,*2B
$GPRMC,010853.9,A,3305.7523,N,11718.3451,W,20.70,152.50,181210,,*21
$GPRMC,010857.9,A,3305.7319,N,11718.3308,W,21.50,151.40,181210,,*20
$GPRMC,010901.9,A,3305.7104,N,11718.3169,W,21.80,152.10,181210,,*22
$GPRMC,010905.9,A,3305.6899,N,11718.3040,W,21.00,150.10,181210,,*2A
$GPRMC,010909.9,A,3305.6672,N,11718.2889,W,23.60,151.90,181210,,*2C
$GPRMC,010913.9,A,3305.6434,N,11718.2729,W,24.60,151.00,181210,,*2C
$GPRMC,010917.9,A,3305.6189,N,11718.2572,W,24.90,151.70,181210,,*2F
$GPRMC,010921.9,A,3305.5933,N,11718.2407,W,27.00,150.70,181210,,*28
$GPRMC,010925.9,A,3305.5664,N,11718.2231,W,28.00,150.80,181210,,*22
$GPRMC,010929.9,A,3305.5388,N,11718.2040,W,28.70,151.30,181210,,*20
$GPRMC,010933.9,A,3305.5107,N,11718.1855,W,28.00,151.20,181210,,*27
$GPRMC,010937.9,A,3305.4825,N,11718.1677,W,29.80,151.30,181210,,*2D
$GPRMC,010941.9,A,3305.4524,N,11718.1473,W,31.10,151.30,181210,,*26
$GPRMC,010945.9,A,3305.4208,N,11718.1258,W,32.50,151.60,181210,,*26
$GPRMC,010949.9,A,3305.3879,N,11718.1048,W,34.30,151.20,181210,,*26
$GPRMC,010953.9,A,3305.3535,N,11718.0817,W,36.10,151.40,181210,,*2D
$GPRMC,010957.9,A,3305.3164,N,11718.0582,W,37.30,152.00,181210,,*2C
$GPRMC,011001.9,A,3305.2805,N,11718.0359,W,36.10,151.00,181210,,*28
$GPRMC,011005.9,A,3305.2447,N,11718.0126,W,37.10,151.60,181210,,*2B
$GPRMC,011009.9,A,3305.2080,N,11717.9896,W,38.40,151.90,181210,,*29
$GPRMC,011013.9,A,3305.1693,N,11717.9646,W,40.70,151.00,181210,,*23
$GPRMC,011017.9,A,3305.1284,N,11717.9388,W,42.40,151.30,181210,,*20
$GPRMC,011021.9,A,3305.0906,N,11717.9144,W,35.60,152.80,181210,,*2D
$GPRMC,011025.9,A,3305.0606,N,11717.8982,W,26.90,155.40,181210,,*23
$GPRMC,011029.9,A,3305.0396,N,11717.8876,W,21.20,157.90,181210,,*2A
$GPRMC,011033.9,A,3305.0164,N,11717.8775,W,22.50,159.20,181210,,*23
$GPRMC,011037.9,A,3304.9932,N,11717.8703,W,21.50,162.80,181210,,*24
$GPRMC,011041.9,A,3304.9675,N,11717.8610,W,24.60,165.50,181210,,*26
$GPRMC,011045.9,A,3304.9436,N,11717.8530,W,21.00,165.10,181210,,*21
$GPRMC,011049.9,A,3304.9227,N,11717.8460,W,18.90,166.40,181210,,*2A
$GPRMC,011053.9,A,3304.9001,N,11717.8394,W,22.50,166.50,181210,,*2F
$GPRMC,011057.9,A,3304.8718,N,11717.8323,W,26.70,168.00,181210,,*24
$GPRMC,011101.9,A,3304.8465,N,11717.8254,W,22.10,165.70,181210,,*26
$GPRMC,011105.9,A,3304.8292,N,11717.8203,W,12.40,166.10,181210,,*2D
$GPRMC,011109.9,A,3304.8191,N,11717.8170,W,9.60,167.70,181210,,*19
$GPRMC,011113.9,A,3304.8030,N,11717.8112,W,17.80,167.10,181210,,*2B
$GPRMC,011117.9,A,3304.7781,N,11717.8030,W,23.30,165.90,181210,,*2A
$GPRMC,011121.9,A,3304.7524,N,11717.7950,W,24.30,164.80,181210,,*25
$GPRMC,011125.9,A,3304.7258,N,11717.7861,W,23.80,165.50,181210,,*2E
$GPRMC,011129.9,A,3304.7056,N,11717.7809,W,18.90,165.30,181210,,*2F
$GPRMC,011133.9,A,3304.6848,N,11717.7748,W,19.50,167.30,181210,,*27
$GPRMC,011137.9,A,3304.6645,N,11717.7689,W,18.50,166.70,181210,,*28
$GPRMC,011141.9,A,3304.6448,N,11717.7636,W,17.40,166.30,181210,,*28
$GPRMC,011145.9,A,3304.6267,N,11717.7581,W,17.00,166.20,181210,,*2D
$GPRMC,011149.9,A,3304.6060,N,11717.7521,W,19.00,166.60,181210,,*24
$GPRMC,011153.9,A,3304.5810,N,11717.7446,W,25.40,165.90,181210,,*24
$GPRMC,011157.9,A,3304.5520,N,11717.7354,W,27.70,164.90,181210,,*2A
$GPRMC,011201.9,A,3304.5185,N,11717.7245,W,30.90,166.00,181210,,*23
$GPRMC,011205.9,A,3304.4832,N,11717.7150,W,32.80,165.60,181210,,*22
$GPRMC,011209.9,A,3304.4468,N,11717.7043,W,34.30,165.50,181210,,*20
$GPRMC,011213.9,A,3304.4089,N,11717.6933,W,34.60,165.80,181210,,*27
$GPRMC,011217.9,A,3304.3739,N,11717.6824,W,31.60,164.90,181210,,*2A
$GPRMC,011221.9,A,3304.3396,N,11717.6718,W,32.80,165.40,181210,,*2F
$GPRMC,011225.9,A,3304.3041,N,11717.6623,W,33.00,165.60,181210,,*20
$GPRMC,011229.9,A,3304.2703,N,11717.6515,W,30.10,166.20,181210,,*2F
$GPRMC,011233.9,A,3304.2356,N,11717.6415,W,34.20,165.90,181210,,*2E
$GPRMC,011237.9,A,3304.1967,N,11717.6298,W,37.20,165.80,181210,,*20
$GPRMC,011241.9,A,3304.1601,N,11717.6185,W,32.30,165.90,181210,,*24
$GPRMC,011245.9,A,3304.1261,N,11717.6085,W,30.60,166.00,181210,,*2E
$GPRMC,011249.9,A,3304.0956,N,11717.5988,W,26.20,165.80,181210,,*23
$GPRMC,011253.9,A,3304.0686,N,11717.5903,W,24.40,166.10,181210,,*27
$GPRMC,011257.9,A,3304.0410,N,11717.5816,W,26.70,165.80,181210,,*20
$GPRMC,011301.9,A,3304.0097,N,11717.5720,W,28.50,166.20,181210,,*26
$GPRMC,011305.9,A,3303.9783,N,11717.5624,W,31.60,165.60,181210,,*27
$GPRMC,011309.9,A,3303.9431,N,11717.5517,W,33.20,166.20,181210,,*23
$GPRMC,011313.9,A,3303.9073,N,11717.5419,W,33.30,167.40,181210,,*23
$GPRMC,011317.9,A,3303.8708,N,11717.5308,W,34.00,165.60,181210,,*2E
$GPRMC,011321.9,A,3303.8344,N,11717.5184,W,33.00,166.00,181210,,*23
$GPRMC,011325.9,A,3303.7976,N,11717.5077,W,34.20,165.90,181210,,*21
$GPRMC,011329.9,A,3303.7611,N,11717.4974,W,34.70,165.50,181210,,*21
$GPRMC,011333.9,A,3303.7248,N,11717.4868,W,33.70,165.30,181210,,*2F
$GPRMC,011337.9,A,3303.6923,N,11717.4759,W,28.90,165.60,181210,,*20
$GPRMC,011341.9,A,3303.6653,N,11717.4684,W,23.40,165.90,181210,,*21
$GPRMC,011345.9,A,3303.6419,N,11717.4615,W,20.70,164.70,181210,,*2E
$GPRMC,011349.9,A,3303.6226,N,11717.4557,W,16.10,166.90,181210,,*22
$GPRMC,011353.9,A,3303.6036,N,11717.4497,W,17.20,165.50,181210,,*2A
$GPRMC,011357.9,A,3303.5833,N,11717.4437,W,19.30,166.50,181210,,*26
$GPRMC,011401.9,A,3303.5604,N,11717.4359,W,23.20,164.90,181210,,*21
$GPRMC,011405.9,A,3303.5315,N,11717.4274,W,26.30,166.50,181210,,*24
$GPRMC,011409.9,A,3303.5057,N,11717.4204,W,23.70,165.30,181210,,*2E
$GPRMC,011413.9,A,3303.4797,N,11717.4115,W,23.30,165.40,181210,,*2F
$GPRMC,011417.9,A,3303.4549,N,11717.4042,W,22.80,166.90,181210,,*2D
$GPRMC,011421.9,A,3303.4276,N,11717.3963,W,28.00,166.40,181210,,*21
$GPRMC,011425.9,A,3303.3968,N,11717.3877,W,29.30,166.10,181210,,*25
$GPRMC,011429.9,A,3303.3690,N,11717.3800,W,23.40,166.10,181210,,*2C
$GPRMC,011433.9,A,3303.3483,N,11717.3739,W,18.10,165.80,181210,,*25
$GPRMC,011437.9,A,3303.3301,N,11717.3689,W,15.60,166.80,181210,,*2F
$GPRMC,011441.9,A,3303.3080,N,11717.3636,W,23.30,168.00,181210,,*26
$GPRMC,011445.9,A,3303.2811,N,11717.3555,W,25.70,166.60,181210,,*2F
$GPRMC,011449.9,A,3303.2518,N,11717.3461,W,28.10,164.90,181210,,*27
$GPRMC,011453.9,A,3303.2205,N,11717.3377,W,29.00,166.10,181210,,*2D
$GPRMC,011457.9,A,3303.1894,N,11717.3278,W,28.80,166.30,181210,,*2D
$GPRMC,011503.9,A,3303.1411,N,11717.3117,W,29.30,165.70,181210,,*2B
$GPRMC,011507.9,A,3303.1096,N,11717.3028,W,29.60,165.60,181210,,*2D
$GPRMC,011511.9,A,3303.0769,N,11717.2931,W,29.90,165.70,181210,,*22
$GPRMC,011515.9,A,3303.0442,N,11717.2825,W,29.20,165.90,181210,,*2D
$GPRMC,011519.9,A,3303.0113,N,11717.2734,W,32.00,165.30,181210,,*2D
$GPRMC,011523.9,A,3302.9793,N,11717.2638,W,28.10,164.90,181210,,*2E
$GPRMC,011527.9,A,3302.9480,N,11717.2545,W,31.10,165.70,181210,,*25
$GPRMC,011531.9,A,3302.9160,N,11717.2457,W,29.40,164.90,181210,,*28
$GPRMC,011535.9,A,3302.8847,N,11717.2358,W,30.10,165.50,181210,,*29
$GPRMC,011539.9,A,3302.8514,N,11717.2257,W,31.00,166.60,181210,,*20
$GPRMC,011543.9,A,3302.8155,N,11717.2146,W,33.20,165.10,181210,,*2B
$GPRMC,011547.9,A,3302.7791,N,11717.2045,W,33.40,165.40,181210,,*2F
$GPRMC,011551.9,A,3302.7449,N,11717.1932,W,30.90,165.70,181210,,*29
$GPRMC,011555.9,A,3302.7127,N,11717.1836,W,29.30,165.50,181210,,*25
$GPRMC,011559.9,A,3302.6814,N,11717.1740,W,28.70,165.60,181210,,*29
$GPRMC,011603.9,A,3302.6513,N,11717.1656,W,28.90,165.80,181210,,*29
$GPRMC,011607.9,A,3302.6208,N,11717.1553,W,27.30,163.60,181210,,*2B
$GPRMC,011611.9,A,3302.5927,N,11717.1472,W,26.10,164.00,181210,,*29
$GPRMC,011615.9,A,3302.5658,N,11717.1382,W,25.60,164.00,181210,,*26
$GPRMC,011619.9,A,3302.5392,N,11717.1295,W,24.10,162.50,181210,,*2B
$GPRMC,011623.9,A,3302.5146,N,11717.1171,W,24.00,158.10,181210,,*2C
$GPRMC,011627.9,A,3302.4887,N,11717.1032,W,24.40,156.70,181210,,*27
$GPRMC,011631.9,A,3302.4645,N,11717.0859,W,25.00,155.20,181210,,*27
$GPRMC,011635.9,A,3302.4403,N,11717.0676,W,25.40,152.30,181210,,*22
$GPRMC,011639.9,A,3302.4174,N,11717.0509,W,23.40,149.30,181210,,*2C
$GPRMC,011643.9,A,3302.3932,N,11717.0360,W,27.20,149.50,181210,,*21
$GPRMC,011647.9,A,3302.3659,N,11717.0184,W,28.60,154.60,181210,,*2B
$GPRMC,011651.9,A,3302.3354,N,11717.0022,W,31.70,153.00,181210,,*21
$GPRMC,011655.9,A,3302.3032,N,11716.9837,W,32.40,151.60,181210,,*26
$GPRMC,011659.9,A,3302.2716,N,11716.9613,W,33.90,150.30,181210,,*2A
$GPRMC,011703.9,A,3302.2389,N,11716.9375,W,34.70,149.20,181210,,*23
$GPRMC,011707.9,A,3302.2062,N,11716.9158,W,32.10,150.30,181210,,*25
$GPRMC,011711.9,A,3302.1755,N,11716.8948,W,31.10,151.10,181210,,*2A
$GPRMC,011715.9,A,3302.1423,N,11716.8741,W,33.30,151.30,181210,,*29
$GPRMC,011719.9,A,3302.1106,N,11716.8499,W,32.80,150.30,181210,,*2A
$GPRMC,011723.9,A,3302.0796,N,11716.8289,W,31.90,150.20,181210,,*29
$GPRMC,011727.9,A,3302.0470,N,11716.8078,W,32.10,150.20,181210,,*21
$GPRMC,011731.9,A,3302.0172,N,11716.7876,W,29.00,150.10,181210,,*20
$GPRMC,011735.9,A,3301.9876,N,11716.7684,W,30.10,151.00,181210,,*29
$GPRMC,011739.9,A,3301.9583,N,11716.7507,W,30.30,151.90,181210,,*21
$GPRMC,011743.9,A,3301.9286,N,11716.7295,W,31.00,150.20,181210,,*2A
$GPRMC,011747.9,A,3301.8977,N,11716.7089,W,32.90,150.30,181210,,*2E
$GPRMC,011751.9,A,3301.8643,N,11716.6867,W,34.10,151.20,181210,,*26
$GPRMC,011755.9,A,3301.8297,N,11716.6631,W,35.20,149.80,181210,,*23
$GPRMC,011759.9,A,3301.7959,N,11716.6400,W,34.40,150.70,181210,,*29
$GPRMC,011803.9,A,3301.7621,N,11716.6180,W,33.60,149.40,181210,,*2A
$GPRMC,011807.9,A,3301.7305,N,11716.5969,W,32.10,150.70,181210,,*2C
$GPRMC,011811.9,A,3301.6999,N,11716.5765,W,32.70,151.20,181210,,*25
$GPRMC,011815.9,A,3301.6665,N,11716.5529,W,35.70,150.20,181210,,*21
$GPRMC,011819.9,A,3301.6312,N,11716.5286,W,35.60,150.50,181210,,*2C
$GPRMC,011823.9,A,3301.5975,N,11716.5067,W,34.60,151.50,181210,,*20
$GPRMC,011827.9,A,3301.5628,N,11716.4862,W,33.90,154.70,181210,,*20
$GPRMC,011831.9,A,3301.5268,N,11716.4676,W,35.70,158.40,181210,,*2B
$GPRMC,011835.9,A,3301.4905,N,11716.4516,W,34.70,161.20,181210,,*26
$GPRMC,011839.9,A,3301.4540,N,11716.4391,W,33.70,165.20,181210,,*2D
$GPRMC,011843.9,A,3301.4154,N,11716.4294,W,35.10,167.70,181210,,*22
$GPRMC,011847.9,A,3301.3782,N,11716.4212,W,33.50,170.20,181210,,*23
$GPRMC,011851.9,A,3301.3418,N,11716.4144,W,32.20,170.80,181210,,*28
$GPRMC,011855.9,A,3301.3068,N,11716.4078,W,30.20,170.20,181210,,*29
$GPRMC,011859.9,A,3301.2762,N,11716.4017,W,26.70,170.60,181210,,*26
$GPRMC,011903.9,A,3301.2465,N,11716.3960,W,27.20,170.70,181210,,*27
$GPRMC,011907.9,A,3301.2171,N,11716.3891,W,27.80,169.10,181210,,*28
$GPRMC,011911.9,A,3301.1872,N,11716.3813,W,27.70,166.90,181210,,*24
$GPRMC,011915.9,A,3301.1592,N,11716.3726,W,26.10,164.50,181210,,*23
$GPRMC,011919.9,A,3301.1327,N,11716.3634,W,23.90,162.80,181210,,*23
$GPRMC,011923.9,A,3301.1083,N,11716.3535,W,23.20,159.80,181210,,*26
$GPRMC,011927.9,A,3301.0836,N,11716.3420,W,24.80,158.00,181210,,*24
$GPRMC,011931.9,A,3301.0583,N,11716.3297,W,24.10,156.20,181210,,*2F
$GPRMC,011935.9,A,3301.0341,N,11716.3146,W,24.40,152.80,181210,,*27
$GPRMC,011939.9,A,3301.0099,N,11716.2996,W,24.20,150.90,181210,,*2C
$GPRMC,011943.9,A,3300.9860,N,11716.2830,W,24.60,149.80,181210,,*27
$GPRMC,011947.9,A,3300.9640,N,11716.2654,W,23.70,145.30,181210,,*22
$GPRMC,011951.9,A,3300.9426,N,11716.2476,W,23.40,145.70,181210,,*22
$GPRMC,011955.9,A,3300.9209,N,11716.2272,W,25.90,141.90,181210,,*2E
$GPRMC,011959.9,A,3300.8971,N,11716.2032,W,28.90,139.40,181210,,*2E
$GPRMC,012003.9,A,3300.8747,N,11716.1785,W,28.40,137.40,181210,,*2B
$GPRMC,012007.9,A,3300.8528,N,11716.1527,W,27.20,135.50,181210,,*24
$GPRMC,012011.9,A,3300.8310,N,11716.1272,W,27.20,136.10,181210,,*2E
$GPRMC,012015.9,A,3300.8107,N,11716.1046,W,26.10,136.50,181210,,*2D
$GPRMC,012019.9,A,3300.7894,N,11716.0806,W,26.20,134.90,181210,,*2D
$GPRMC,012023.9,A,3300.7686,N,11716.0561,W,26.10,135.80,181210,,*26
$GPRMC,012027.9,A,3300.7461,N,11716.0320,W,26.20,135.00,181210,,*21
$GPRMC,012031.9,A,3300.7239,N,11716.0080,W,28.10,136.00,181210,,*2A
$GPRMC,012035.9,A,3300.6994,N,11715.9794,W,30.10,136.00,181210,,*22
$GPRMC,012039.9,A,3300.6780,N,11715.9528,W,28.40,134.70,181210,,*29
$GPRMC,012043.9,A,3300.6571,N,11715.9284,W,26.90,134.80,181210,,*25
$GPRMC,012047.9,A,3300.6355,N,11715.9045,W,26.00,136.60,181210,,*2B
$GPRMC,012051.9,A,3300.6140,N,11715.8786,W,28.70,135.40,181210,,*2B
$GPRMC,012055.9,A,3300.5900,N,11715.8515,W,30.20,135.10,181210,,*21
$GPRMC,012059.9,A,3300.5660,N,11715.8249,W,28.90,136.00,181210,,*2A
$GPRMC,012103.9,A,3300.5447,N,11715.7978,W,28.70,134.10,181210,,*28
$GPRMC,012107.9,A,3300.5236,N,11715.7708,W,27.70,133.70,181210,,*2B
$GPRMC,012111.9,A,3300.5015,N,11715.7452,W,27.80,136.00,181210,,*2E
$GPRMC,012115.9,A,3300.4774,N,11715.7175,W,30.60,135.70,181210,,*27
$GPRMC,012119.9,A,3300.4501,N,11715.6855,W,35.00,135.60,181210,,*23
$GPRMC,012123.9,A,3300.4192,N,11715.6518,W,39.10,136.30,181210,,*2B
$GPRMC,012127.9,A,3300.3882,N,11715.6165,W,38.20,136.80,181210,,*27
$GPRMC,012131.9,A,3300.3558,N,11715.5829,W,39.30,140.90,181210,,*28
$GPRMC,012135.9,A,3300.3198,N,11715.5512,W,38.80,146.20,181210,,*26
$GPRMC,012139.9,A,3300.2813,N,11715.5232,W,39.60,150.30,181210,,*2D
$GPRMC,012143.9,A,3300.2436,N,11715.5012,W,36.30,155.80,181210,,*2F
$GPRMC,012147.9,A,3300.2068,N,11715.4831,W,36.20,160.30,181210,,*20
$GPRMC,012151.9,A,3300.1673,N,11715.4690,W,38.70,164.60,181210,,*27
$GPRMC,012155.9,A,3300.1236,N,11715.4595,W,40.20,171.00,181210,,*28
$GPRMC,012159.9,A,3300.0790,N,11715.4525,W,40.90,172.20,181210,,*2D
$GPRMC,012203.9,A,3300.0314,N,11715.4454,W,44.70,172.30,181210,,*25
$GPRMC,012207.9,A,3259.9805,N,11715.4377,W,47.40,172.80,181210,,*23
$GPRMC,012211.9,A,3259.9273,N,11715.4306,W,48.80,173.00,181210,,*23
$GPRMC,012215.9,A,3259.8761,N,11715.4238,W,43.80,173.50,181210,,*22
$GPRMC,012219.9,A,3259.8356,N,11715.4175,W,38.80,173.40,181210,,*29
$GPRMC,012223.9,A,3259.7904,N,11715.4101,W,42.80,170.70,181210,,*2C
$GPRMC,012227.9,A,3259.7424,N,11715.4003,W,43.20,171.50,181210,,*2C
$GPRMC,012231.9,A,3259.6928,N,11715.3920,W,46.00,172.40,181210,,*21
$GPRMC,012235.9,A,3259.6386,N,11715.3835,W,50.40,172.60,181210,,*2F
$GPRMC,012239.9,A,3259.5840,N,11715.3754,W,48.40,172.30,181210,,*25
$GPRMC,012243.9,A,3259.5310,N,11715.3677,W,48.80,172.40,181210,,*2D
$GPRMC,012247.9,A,3259.4773,N,11715.3590,W,49.00,172.20,181210,,*2C
$GPRMC,012251.9,A,3259.4229,N,11715.3503,W,49.60,172.30,181210,,*2C
$GPRMC,012255.9,A,3259.3694,N,11715.3427,W,47.70,173.40,181210,,*23
$GPRMC,012259.9,A,3259.3153,N,11715.3342,W,50.70,172.40,181210,,*20
$GPRMC,012303.9,A,3259.2582,N,11715.3250,W,51.20,172.60,181210,,*23
$GPRMC,012307.9,A,3259.2009,N,11715.3162,W,51.60,173.00,181210,,*20
$GPRMC,012311.9,A,3259.1451,N,11715.3075,W,49.20,172.00,181210,,*26
$GPRMC,012315.9,A,3259.0907,N,11715.2967,W,49.30,169.00,181210,,*2D
$GPRMC,012319.9,A,3259.0378,N,11715.2819,W,46.80,164.90,181210,,*2B
$GPRMC,012323.9,A,3258.9910,N,11715.2650,W,43.40,162.90,181210,,*22
$GPRMC,012327.9,A,3258.9434,N,11715.2470,W,45.90,162.40,181210,,*2B
$GPRMC,012331.9,A,3258.8946,N,11715.2279,W,45.90,162.50,181210,,*2B
$GPRMC,012335.9,A,3258.8453,N,11715.2094,W,46.90,162.50,181210,,*24
$GPRMC,012339.9,A,3258.7956,N,11715.1907,W,48.20,162.40,181210,,*2B
$GPRMC,012343.9,A,3258.7436,N,11715.1710,W,49.40,162.10,181210,,*27
$GPRMC,012347.9,A,3258.6895,N,11715.1502,W,52.80,162.30,181210,,*22
$GPRMC,012351.9,A,3258.6327,N,11715.1285,W,53.80,162.20,181210,,*2F
$GPRMC,012355.9,A,3258.5750,N,11715.1074,W,54.90,162.10,181210,,*25
$GPRMC,012359.9,A,3258.5188,N,11715.0858,W,53.10,162.30,181210,,*20
$GPRMC,012403.9,A,3258.4626,N,11715.0645,W,51.90,162.50,181210,,*24
$GPRMC,012407.9,A,3258.4081,N,11715.0438,W,51.30,162.60,181210,,*2A
$GPRMC,012411.9,A,3258.3548,N,11715.0239,W,49.70,162.30,181210,,*25
$GPRMC,012415.9,A,3258.3022,N,11715.0040,W,49.50,162.20,181210,,*27
$GPRMC,012419.9,A,3258.2499,N,11714.9841,W,48.70,162.70,181210,,*29
$GPRMC,012423.9,A,3258.1986,N,11714.9651,W,49.00,162.10,181210,,*2F
$GPRMC,012427.9,A,3258.1462,N,11714.9451,W,49.60,162.60,181210,,*2F
$GPRMC,012431.9,A,3258.0926,N,11714.9251,W,50.60,162.60,181210,,*2A
$GPRMC,012435.9,A,3258.0382,N,11714.9044,W,51.20,161.90,181210,,*25
$GPRMC,012439.9,A,3257.9840,N,11714.8835,W,50.10,162.60,181210,,*2B
$GPRMC,012443.9,A,3257.9334,N,11714.8652,W,45.80,162.60,181210,,*2C
$GPRMC,012447.9,A,3257.8850,N,11714.8468,W,46.30,162.30,181210,,*26
$GPRMC,012451.9,A,3257.8354,N,11714.8285,W,47.40,163.00,181210,,*2F
$GPRMC,012455.9,A,3257.7837,N,11714.8116,W,48.00,163.70,181210,,*2F
$GPRMC,012459.9,A,3257.7337,N,11714.7943,W,45.70,162.50,181210,,*26
$GPRMC,012503.9,A,3257.6856,N,11714.7782,W,43.80,165.90,181210,,*24
$GPRMC,012507.9,A,3257.6383,N,11714.7648,W,43.50,168.00,181210,,*2D
$GPRMC,012511.9,A,3257.5903,N,11714.7523,W,44.20,166.90,181210,,*22
$GPRMC,012515.9,A,3257.5408,N,11714.7398,W,46.40,168.20,181210,,*27
$GPRMC,012519.9,A,3257.4888,N,11714.7280,W,47.50,169.70,181210,,*22
$GPRMC,012523.9,A,3257.4379,N,11714.7187,W,46.80,170.60,181210,,*2F
$GPRMC,012527.9,A,3257.3868,N,11714.7095,W,44.90,171.20,181210,,*23
$GPRMC,012534.9,A,3257.2984,N,11714.6944,W,46.70,171.00,181210,,*29
$GPRMC,012538.9,A,3257.2486,N,11714.6819,W,45.40,168.90,181210,,*22
$GPRMC,012542.9,A,3257.1974,N,11714.6707,W,46.40,168.80,181210,,*2E
$GPRMC,012546.9,A,3257.1475,N,11714.6577,W,43.90,165.90,181210,,*27
$GPRMC,012550.9,A,3257.0837,N,11714.6459,W,54.10,171.50,181210,,*21
$GPRMC,012554.9,A,3257.0229,N,11714.6350,W,54.50,170.90,181210,,*27
$GPRMC,012558.9,A,3256.9616,N,11714.6240,W,55.40,171.70,181210,,*24
$GPRMC,012613.9,A,3256.7107,N,11714.5746,W,57.00,170.10,181210,,*20
$GPRMC,012614.9,A,3256.6964,N,11714.5711,W,55.30,171.00,181210,,*28
$GPRMC,012618.9,A,3256.6361,N,11714.5609,W,55.80,171.10,181210,,*29
$GPRMC,012622.9,A,3256.5734,N,11714.5502,W,56.60,171.60,181210,,*25
$GPRMC,012626.9,A,3256.5098,N,11714.5388,W,57.30,170.90,181210,,*2E
$GPRMC,012630.9,A,3256.4468,N,11714.5271,W,56.30,170.90,181210,,*25
$GPRMC,012634.9,A,3256.3883,N,11714.5161,W,51.20,172.00,181210,,*20
$GPRMC,012638.9,A,3256.3392,N,11714.5093,W,43.50,172.70,181210,,*28
$GPRMC,012642.9,A,3256.3037,N,11714.5053,W,31.60,175.40,181210,,*27
$GPRMC,012646.9,A,3256.2679,N,11714.5025,W,34.30,173.90,181210,,*24
$GPRMC,012650.9,A,3256.2285,N,11714.4994,W,38.40,176.50,181210,,*24
$GPRMC,012656.9,A,3256.1659,N,11714.4935,W,37.20,176.40,181210,,*27
$GPRMC,012700.9,A,3256.1258,N,11714.4898,W,36.50,175.90,181210,,*2E
$GPRMC,012704.9,A,3256.0863,N,11714.4870,W,36.40,176.60,181210,,*22
$GPRMC,012708.9,A,3256.0453,N,11714.4840,W,37.40,176.50,181210,,*20
$GPRMC,012712.9,A,3256.0023,N,11714.4810,W,38.90,175.70,181210,,*2E
$GPRMC,012716.9,A,3255.9601,N,11714.4775,W,38.30,175.50,181210,,*22
$GPRMC,012720.9,A,3255.9217,N,11714.4729,W,32.60,173.60,181210,,*27
$GPRMC,012724.9,A,3255.8856,N,11714.4677,W,34.60,172.80,181210,,*2E
$GPRMC,012728.9,A,3255.8463,N,11714.4595,W,37.00,171.30,181210,,*2A
$GPRMC,012732.9,A,3255.8041,N,11714.4510,W,38.50,169.50,181210,,*2D
$GPRMC,012736.9,A,3255.7635,N,11714.4428,W,36.40,169.00,181210,,*23
$GPRMC,012740.9,A,3255.7272,N,11714.4324,W,32.70,167.00,181210,,*27
$GPRMC,012744.9,A,3255.6955,N,11714.4228,W,27.60,165.40,181210,,*22
$GPRMC,012748.9,A,3255.6662,N,11714.4141,W,27.90,164.90,181210,,*2A
$GPRMC,012752.9,A,3255.6367,N,11714.4045,W,26.90,164.20,181210,,*2E
$GPRMC,012756.9,A,3255.6059,N,11714.3944,W,30.30,164.50,181210,,*21
$GPRMC,012800.9,A,3255.5727,N,11714.3839,W,31.60,164.40,181210,,*2E
$GPRMC,012804.9,A,3255.5437,N,11714.3740,W,24.10,163.60,181210,,*2F
$GPRMC,012808.9,A,3255.5246,N,11714.3676,W,15.80,164.50,181210,,*28
$GPRMC,012812.9,A,3255.5115,N,11714.3633,W,9.20,164.10,181210,,*14
$GPRMC,012816.9,A,3255.5034,N,11714.3605,W,7.20,163.20,181210,,*1D
$GPRMC,012820.9,A,3255.4937,N,11714.3565,W,11.10,164.90,181210,,*2E
$GPRMC,012824.9,A,3255.4811,N,11714.3533,W,11.80,167.20,181210,,*2D
$GPRMC,012828.9,A,3255.4678,N,11714.3497,W,11.40,163.90,181210,,*2C
$GPRMC,012832.9,A,3255.4558,N,11714.3456,W,8.80,164.10,181210,,*10
$GPRMC,012836.9,A,3255.4489,N,11714.3434,W,6.20,163.90,181210,,*16
$GPRMC,012840.9,A,3255.4408,N,11714.3404,W,7.30,164.40,181210,,*17
$GPRMC,012844.9,A,3255.4335,N,11714.3377,W,6.10,158.80,181210,,*19
$GPRMC,012856.9,A,3255.4246,N,11714.3351,W,4.60,166.30,181210,,*18
$GPRMC,012900.9,A,3255.4161,N,11714.3326,W,9.40,164.10,181210,,*13
$GPRMC,012904.9,A,3255.4044,N,11714.3279,W,10.70,160.80,181210,,*2C
$GPRMC,012908.9,A,3255.3949,N,11714.3245,W,7.30,161.10,181210,,*16
$GPRMC,012912.9,A,3255.3871,N,11714.3212,W,8.40,158.60,181210,,*10
$GPRMC,012916.9,A,3255.3792,N,11714.3177,W,6.40,159.20,181210,,*1D
$GPRMC,012932.9,A,3255.3645,N,11714.3105,W,6.20,160.10,181210,,*1A
$GPRMC,012936.9,A,3255.3574,N,11714.3079,W,6.30,160.00,181210,,*15
$GPRMC,012948.9,A,3255.3440,N,11714.3001,W,5.70,157.40,181210,,*12
$GPRMC,012952.9,A,3255.3388,N,11714.2972,W,5.00,155.60,181210,,*11
$GPRMC,012956.9,A,3255.3342,N,11714.2949,W,4.70,153.10,181210,,*1C
$GPRMC,013000.9,A,3255.3292,N,11714.2922,W,4.70,155.20,181210,,*13
$GPRMC,013008.9,A,3255.3203,N,11714.2884,W,4.40,155.80,181210,,*17
$GPRMC,013012.9,A,3255.3158,N,11714.2855,W,4.40,151.90,181210,,*18
$GPRMC,013028.9,A,3255.3062,N,11714.2786,W,5.30,154.00,181210,,*12
$GPRMC,013032.9,A,3255.3014,N,11714.2759,W,4.80,156.60,181210,,*14
$GPRMC,013048.9,A,3255.2871,N,11714.2669,W,4.50,152.90,181210,,*17
$GPRMC,013100.9,A,3255.2771,N,11714.2613,W,5.20,150.60,181210,,*13
$GPRMC,013104.9,A,3255.2724,N,11714.2586,W,4.80,153.40,181210,,*12
$GPRMC,013116.9,A,3255.2620,N,11714.2513,W,4.70,151.10,181210,,*10
$GPRMC,013120.9,A,3255.2563,N,11714.2473,W,6.30,149.50,181210,,*1D
$GPRMC,013124.9,A,3255.2493,N,11714.2429,W,6.90,149.20,181210,,*15
$GPRMC,013128.9,A,3255.2434,N,11714.2388,W,5.70,151.50,181210,,*1B
$GPRMC,013132.9,A,3255.2353,N,11714.2334,W,7.30,148.80,181210,,*12
$GPRMC,013136.9,A,3255.2301,N,11714.2292,W,5.60,147.00,181210,,*1C
$GPRMC,013140.9,A,3255.2235,N,11714.2245,W,6.90,148.90,181210,,*1B
$GPRMC,013144.9,A,3255.2158,N,11714.2195,W,8.00,146.00,181210,,*19
$GPRMC,013148.9,A,3255.2079,N,11714.2124,W,8.30,146.30,181210,,*1D
$GPRMC,013152.9,A,3255.2022,N,11714.2085,W,5.00,150.30,181210,,*1B
$GPRMC,013156.9,A,3255.1997,N,11714.2061,W,5.80,144.90,181210,,*16
$GPRMC,013200.9,A,3255.1915,N,11714.1988,W,10.20,144.00,181210,,*26
$GPRMC,013204.9,A,3255.1809,N,11714.1901,W,11.70,145.40,181210,,*2E
$GPRMC,013208.9,A,3255.1720,N,11714.1824,W,8.40,144.60,181210,,*18
$GPRMC,013212.9,A,3255.1670,N,11714.1783,W,5.20,142.60,181210,,*18
$GPRMC,013216.9,A,3255.1607,N,11714.1725,W,8.90,142.90,181210,,*19
$GPRMC,013220.9,A,3255.1517,N,11714.1649,W,10.40,144.40,181210,,*2A
$GPRMC,013224.9,A,3255.1424,N,11714.1566,W,10.10,140.30,181210,,*27
$GPRMC,013228.9,A,3255.1335,N,11714.1492,W,9.10,145.90,181210,,*11
$GPRMC,013232.9,A,3255.1264,N,11714.1430,W,8.00,143.90,181210,,*11
$GPRMC,013236.9,A,3255.1203,N,11714.1384,W,7.00,143.40,181210,,*1E
$GPRMC,013240.9,A,3255.1142,N,11714.1295,W,8.70,135.60,181210,,*13
$GPRMC,013244.9,A,3255.1056,N,11714.1214,W,9.70,136.40,181210,,*1A
$GPRMC,013248.9,A,3255.0973,N,11714.1122,W,9.50,137.20,181210,,*1A
$GPRMC,013252.9,A,3255.0901,N,11714.1049,W,7.90,137.20,181210,,*1A
$GPRMC,013300.9,A,3255.0837,N,11714.0960,W,5.70,135.80,181210,,*1F
$GPRMC,013304.9,A,3255.0792,N,11714.0899,W,4.90,134.80,181210,,*12
$GPRMC,013308.9,A,3255.0751,N,11714.0860,W,4.60,135.20,181210,,*13
$GPRMC,013312.9,A,3255.0700,N,11714.0792,W,7.50,134.90,181210,,*14
$GPRMC,013316.9,A,3255.0650,N,11714.0733,W,5.70,137.50,181210,,*10
$GPRMC,013324.9,A,3255.0623,N,11714.0674,W,5.00,134.90,181210,,*1F
$GPRMC,013344.9,A,3255.0502,N,11714.0518,W,5.60,131.20,181210,,*18
$GPRMC,013348.9,A,3255.0463,N,11714.0457,W,5.20,127.40,181210,,*1D
$GPRMC,013352.9,A,3255.0431,N,11714.0413,W,4.60,132.80,181210,,*1C
$GPRMC,013428.9,A,3255.0333,N,11714.0256,W,4.60,130.60,181210,,*18
$GPRMC,013440.9,A,3255.0232,N,11714.0150,W,4.70,131.10,181210,,*14
$GPRMC,013444.9,A,3255.0189,N,11714.0106,W,5.20,141.00,181210,,*12
$GPRMC,013448.9,A,3255.0149,N,11714.0054,W,5.80,136.30,181210,,*1D
$GPRMC,013452.9,A,3255.0115,N,11714.0011,W,4.80,133.90,181210,,*10
$GPRMC,013508.9,A,3255.0011,N,11713.9862,W,7.00,131.20,181210,,*1B
$GPRMC,013512.9,A,3254.9969,N,11713.9817,W,4.60,135.20,181210,,*1D
$GPRMC,013516.9,A,3254.9939,N,11713.9767,W,4.80,127.20,181210,,*19
$GPRMC,013536.9,A,3254.9819,N,11713.9558,W,5.70,133.30,181210,,*1C
$GPRMC,013540.9,A,3254.9770,N,11713.9513,W,5.70,138.20,181210,,*18
$GPRMC,013544.9,A,3254.9729,N,11713.9472,W,4.60,133.00,181210,,*1F
$GPRMC,013548.9,A,3254.9676,N,11713.9402,W,6.90,130.50,181210,,*14
$GPRMC,013600.9,A,3254.9609,N,11713.9293,W,4.60,131.00,181210,,*14
$GPRMC,013604.9,A,3254.9573,N,11713.9253,W,5.10,135.90,181210,,*19
$GPRMC,013608.9,A,3254.9526,N,11713.9190,W,6.10,131.00,181210,,*17
$GPRMC,013612.9,A,3254.9470,N,11713.9139,W,5.70,136.20,181210,,*1D
$GPRMC,013616.9,A,3254.9425,N,11713.9106,W,4.40,135.60,181210,,*10
$GPRMC,013708.9,A,3254.9215,N,11713.8826,W,6.80,138.20,181210,,*16
$GPRMC,013712.9,A,3254.9164,N,11713.8772,W,5.60,136.80,181210,,*1F
$GPRMC,013720.9,A,3254.9057,N,11713.8657,W,8.50,140.10,181210,,*1F
$GPRMC,013724.9,A,3254.8985,N,11713.8590,W,7.80,141.10,181210,,*17
$GPRMC,013728.9,A,3254.8935,N,11713.8532,W,7.00,138.40,181210,,*1B
$GPRMC,013752.9,A,3254.8879,N,11713.8463,W,4.50,142.80,181210,,*1D
$GPRMC,013756.9,A,3254.8842,N,11713.8432,W,4.40,145.30,181210,,*18
$GPRMC,013800.9,A,3254.8804,N,11713.8397,W,4.50,144.70,181210,,*1A
$GPRMC,013808.9,A,3254.8737,N,11713.8337,W,4.50,142.10,181210,,*17
$GPRMC,013832.9,A,3254.8531,N,11713.8181,W,4.90,148.90,181210,,*1B
$GPRMC,013836.9,A,3254.8484,N,11713.8146,W,4.80,149.80,181210,,*1A
$GPRMC,013900.9,A,3254.8342,N,11713.8045,W,7.00,150.90,181210,,*13
$GPRMC,013904.9,A,3254.8284,N,11713.8011,W,4.50,148.00,181210,,*1B
$GPRMC,013912.9,A,3254.8219,N,11713.7978,W,4.60,153.20,181210,,*1A
$GPRMC,013916.9,A,3254.8163,N,11713.7943,W,5.30,149.80,181210,,*1D
$GPRMC,013920.9,A,3254.8112,N,11713.7896,W,5.80,148.40,181210,,*11
$GPRMC,013932.9,A,3254.8013,N,11713.7839,W,5.40,153.10,181210,,*14
$GPRMC,013937.9,A,3254.7954,N,11713.7812,W,4.00,159.00,181210,,*13
$GPRMC,014013.9,A,3254.7621,N,11713.7557,W,4.90,146.20,181210,,*1F
$GPRMC,014027.9,A,3254.7456,N,11713.7479,W,4.90,150.50,181210,,*17
$GPRMC,014031.9,A,3254.7409,N,11713.7440,W,4.40,147.90,181210,,*17
$GPRMC,014039.9,A,3254.7341,N,11713.7446,W,4.60,151.50,181210,,*1B
$GPRMC,014043.9,A,3254.7295,N,11713.7406,W,4.90,153.40,181210,,*16
$GPRMC,014147.9,A,3254.6921,N,11713.7158,W,4.70,154.80,181210,,*1D
$GPRMC,014155.9,A,3254.6829,N,11713.7111,W,4.60,155.30,181210,,*11
$GPRMC,014227.9,A,3254.6640,N,11713.6983,W,5.60,152.30,181210,,*12
$GPRMC,014231.9,A,3254.6581,N,11713.6948,W,5.60,153.10,181210,,*1F
$GPRMC,014235.9,A,3254.6523,N,11713.6906,W,4.90,150.70,181210,,*12
$GPRMC,014243.9,A,3254.6434,N,11713.6841,W,4.50,153.10,181210,,*1F
$GPRMC,014251.9,A,3254.6353,N,11713.6793,W,5.50,152.60,181210,,*1D
$GPRMC,014255.9,A,3254.6301,N,11713.6764,W,4.50,153.10,181210,,*11
$GPRMC,014319.9,A,3254.6111,N,11713.6632,W,4.70,152.30,181210,,*18
$GPRMC,014323.9,A,3254.6063,N,11713.6598,W,4.90,148.30,181210,,*13
$GPRMC,014331.9,A,3254.5989,N,11713.6552,W,5.40,151.10,181210,,*1E
$GPRMC,014335.9,A,3254.5928,N,11713.6520,W,5.60,152.30,181210,,*17
$GPRMC,014339.9,A,3254.5875,N,11713.6488,W,5.40,153.40,181210,,*15
$GPRMC,014343.9,A,3254.5820,N,11713.6449,W,5.60,152.50,181210,,*17
$GPRMC,014403.9,A,3254.5684,N,11713.6365,W,5.10,152.80,181210,,*17
$GPRMC,014407.9,A,3254.5629,N,11713.6334,W,4.60,155.50,181210,,*1C
$GPRMC,014415.9,A,3254.5546,N,11713.6285,W,5.10,151.60,181210,,*1F
$GPRMC,014419.9,A,3254.5478,N,11713.6240,W,7.30,152.50,181210,,*16
$GPRMC,014423.9,A,3254.5394,N,11713.6188,W,8.80,153.30,181210,,*1E
$GPRMC,014427.9,A,3254.5308,N,11713.6134,W,7.40,152.50,181210,,*1C
$GPRMC,014507.9,A,3254.5196,N,11713.6066,W,5.60,151.00,181210,,*1A
$GPRMC,014511.9,A,3254.5136,N,11713.6028,W,6.10,153.00,181210,,*1B
$GPRMC,014515.9,A,3254.5076,N,11713.5993,W,6.60,152.80,181210,,*1E
$GPRMC,014519.9,A,3254.4983,N,11713.5930,W,9.40,150.90,181210,,*17
$GPRMC,014523.9,A,3254.4906,N,11713.5884,W,6.90,151.20,181210,,*15
$GPRMC,014527.9,A,3254.4857,N,11713.5843,W,5.40,150.60,181210,,*14
$GPRMC,014535.9,A,3254.4763,N,11713.5772,W,5.60,156.20,181210,,*12
$GPRMC,014539.9,A,3254.4705,N,11713.5742,W,5.30,152.80,181210,,*16
$GPRMC,014555.9,A,3254.4492,N,11713.5628,W,6.90,153.00,181210,,*1C
$GPRMC,014559.9,A,3254.4407,N,11713.5587,W,7.90,154.50,181210,,*19
$GPRMC,014603.9,A,3254.4358,N,11713.5545,W,5.20,134.50,181210,,*19
$GPRMC,014619.9,A,3254.4327,N,11713.5542,W,4.40,156.40,181210,,*1F
$GPRMC,014623.9,A,3254.4262,N,11713.5507,W,7.40,154.80,181210,,*1A
$GPRMC,014627.9,A,3254.4193,N,11713.5463,W,6.60,152.00,181210,,*1D
$GPRMC,014631.9,A,3254.4142,N,11713.5438,W,5.10,157.50,181210,,*1C
$GPRMC,014635.9,A,3254.4089,N,11713.5408,W,4.90,154.90,181210,,*1B
$GPRMC,014643.9,A,3254.4004,N,11713.5346,W,5.00,153.50,181210,,*11
$GPRMC,014647.9,A,3254.3940,N,11713.5309,W,6.70,156.20,181210,,*16
$GPRMC,014651.9,A,3254.3868,N,11713.5261,W,6.90,153.70,181210,,*1B
$GPRMC,014655.9,A,3254.3805,N,11713.5224,W,6.50,153.90,181210,,*17
$GPRMC,014659.9,A,3254.3767,N,11713.5195,W,4.50,151.30,181210,,*13
$GPRMC,014703.9,A,3254.3709,N,11713.5166,W,6.70,151.80,181210,,*12
$GPRMC,014707.9,A,3254.3631,N,11713.5120,W,7.80,152.40,181210,,*1F
$GPRMC,014719.9,A,3254.3487,N,11713.5027,W,6.60,154.20,181210,,*16
$GPRMC,014723.9,A,3254.3421,N,11713.4988,W,6.50,152.90,181210,,*10
$GPRMC,014727.9,A,3254.3368,N,11713.4963,W,4.40,152.40,181210,,*15
$GPRMC,014735.9,A,3254.3327,N,11713.4931,W,4.70,150.80,181210,,*17
$GPRMC,014739.9,A,3254.3271,N,11713.4898,W,6.00,149.10,181210,,*1F
$GPRMC,014743.9,A,3254.3219,N,11713.4869,W,4.40,151.60,181210,,*1A
$GPRMC,014755.9,A,3254.3115,N,11713.4800,W,7.10,150.90,181210,,*15
$GPRMC,014759.9,A,3254.3049,N,11713.4753,W,6.50,147.60,181210,,*14
$GPRMC,014803.9,A,3254.2986,N,11713.4710,W,6.90,149.70,181210,,*1B
$GPRMC,014807.9,A,3254.2930,N,11713.4676,W,5.60,149.10,181210,,*19
$GPRMC,014811.9,A,3254.2885,N,11713.4642,W,4.80,149.00,181210,,*18
$GPRMC,014815.9,A,3254.2837,N,11713.4608,W,4.40,148.60,181210,,*10
$GPRMC,014819.9,A,3254.2800,N,11713.4570,W,4.40,146.60,181210,,*1A
$GPRMC,014823.9,A,3254.2760,N,11713.4536,W,4.80,148.70,181210,,*1B
$GPRMC,014831.9,A,3254.2680,N,11713.4482,W,4.90,145.20,181210,,*10
$GPRMC,014835.9,A,3254.2642,N,11713.4451,W,4.50,146.50,181210,,*1C
$GPRMC,014859.9,A,3254.2418,N,11713.4239,W,4.90,144.70,181210,,*1F
$GPRMC,014903.9,A,3254.2374,N,11713.4175,W,5.30,139.00,181210,,*11
$GPRMC,014907.9,A,3254.2334,N,11713.4140,W,5.00,140.30,181210,,*19
$GPRMC,014911.9,A,3254.2289,N,11713.4108,W,4.80,144.60,181210,,*1D
$GPRMC,014915.9,A,3254.2196,N,11713.4047,W,5.60,148.30,181210,,*18
$GPRMC,014919.9,A,3254.2114,N,11713.3972,W,5.60,150.00,181210,,*1C
$GPRMC,014923.9,A,3254.2077,N,11713.3944,W,4.50,141.60,181210,,*10
$GPRMC,014947.9,A,3254.2000,N,11713.3916,W,6.90,140.10,181210,,*1D
$GPRMC,014951.9,A,3254.1928,N,11713.3851,W,7.90,141.30,181210,,*1A
$GPRMC,014955.9,A,3254.1867,N,11713.3797,W,6.60,141.40,181210,,*18
$GPRMC,015007.9,A,3254.1765,N,11713.3684,W,5.40,151.40,181210,,*19
$GPRMC,015147.9,A,3254.1189,N,11713.3176,W,6.50,140.10,181210,,*15
$GPRMC,015151.9,A,3254.1117,N,11713.3103,W,7.90,137.80,181210,,*13
$GPRMC,015155.9,A,3254.1056,N,11713.3055,W,6.80,142.20,181210,,*19
$GPRMC,015159.9,A,3254.1016,N,11713.3012,W,4.60,138.70,181210,,*16
$GPRMC,015203.9,A,3254.0969,N,11713.2971,W,5.40,142.60,181210,,*18
$GPRMC,015207.9,A,3254.0924,N,11713.2923,W,5.10,138.20,181210,,*1E
$GPRMC,015215.9,A,3254.0859,N,11713.2872,W,4.40,141.10,181210,,*1A
$GPRMC,015223.9,A,3254.0796,N,11713.2792,W,4.60,136.70,181210,,*16
$GPRMC,015227.9,A,3254.0753,N,11713.2743,W,4.40,141.00,181210,,*12
$GPRMC,015231.9,A,3254.0709,N,11713.2705,W,5.50,143.30,181210,,*19
$GPRMC,015235.9,A,3254.0630,N,11713.2644,W,8.20,144.80,181210,,*14
$GPRMC,015239.9,A,3254.0540,N,11713.2561,W,11.80,142.30,181210,,*27
$GPRMC,015243.9,A,3254.0429,N,11713.2456,W,12.40,141.10,181210,,*2F
$GPRMC,015247.9,A,3254.0335,N,11713.2376,W,9.30,142.10,181210,,*1A
$GPRMC,015251.9,A,3254.0279,N,11713.2318,W,6.80,138.50,181210,,*11
$GPRMC,015255.9,A,3254.0247,N,11713.2286,W,4.80,136.80,181210,,*1F
$GPRMC,015259.9,A,3254.0202,N,11713.2239,W,4.90,135.20,181210,,*1E
$GPRMC,015303.9,A,3254.0144,N,11713.2197,W,6.00,144.30,181210,,*1A
$GPRMC,015307.9,A,3254.0091,N,11713.2156,W,5.80,143.10,181210,,*14
$GPRMC,015311.9,A,3254.0038,N,11713.2087,W,5.80,139.40,181210,,*15
$GPRMC,015319.9,A,3253.9981,N,11713.2027,W,4.60,141.00,181210,,*16
$GPRMC,015511.9,A,3253.9718,N,11713.1727,W,4.50,141.80,181210,,*19
$GPRMC,015515.9,A,3253.9676,N,11713.1680,W,5.30,144.20,181210,,*10
$GPRMC,015551.9,A,3253.9413,N,11713.1446,W,4.40,148.10,181210,,*10
$GPRMC,015611.9,A,3253.9252,N,11713.1310,W,4.60,152.50,181210,,*1D
$GPRMC,015615.9,A,3253.9186,N,11713.1267,W,6.60,148.00,181210,,*1E
$GPRMC,015619.9,A,3253.9075,N,11713.1189,W,12.90,145.70,181210,,*2C
$GPRMC,015623.9,A,3253.8910,N,11713.1029,W,20.50,140.90,181210,,*23
$GPRMC,015627.9,A,3253.8685,N,11713.0833,W,24.90,141.90,181210,,*2F
$GPRMC,015631.9,A,3253.8480,N,11713.0648,W,20.80,141.50,181210,,*24
$GPRMC,015635.9,A,3253.8301,N,11713.0475,W,22.20,140.40,181210,,*2A
$GPRMC,015639.9,A,3253.8100,N,11713.0291,W,24.40,143.50,181210,,*2B
$GPRMC,015643.9,A,3253.7876,N,11713.0071,W,25.50,139.30,181210,,*26
$GPRMC,015647.9,A,3253.7662,N,11712.9837,W,28.10,138.20,181210,,*22
$GPRMC,015651.9,A,3253.7409,N,11712.9564,W,31.00,135.80,181210,,*2F
$GPRMC,015655.9,A,3253.7147,N,11712.9254,W,33.00,133.80,181210,,*24
$GPRMC,015659.9,A,3253.6874,N,11712.8905,W,36.40,132.00,181210,,*26
$GPRMC,015703.9,A,3253.6602,N,11712.8526,W,36.90,129.40,181210,,*29
$GPRMC,015707.9,A,3253.6358,N,11712.8129,W,37.20,126.50,181210,,*28
$GPRMC,015711.9,A,3253.6114,N,11712.7693,W,40.90,122.70,181210,,*21
$GPRMC,015715.9,A,3253.5872,N,11712.7233,W,42.50,121.00,181210,,*2B
$GPRMC,015719.9,A,3253.5626,N,11712.6746,W,40.90,119.70,181210,,*2C
$GPRMC,015723.9,A,3253.5415,N,11712.6304,W,35.40,120.70,181210,,*20
$GPRMC,015727.9,A,3253.5191,N,11712.5949,W,32.40,132.60,181210,,*28
$GPRMC,015731.9,A,3253.4919,N,11712.5736,W,27.20,152.20,181210,,*20
$GPRMC,015735.9,A,3253.4689,N,11712.5648,W,20.70,162.50,181210,,*2C
$GPRMC,015739.9,A,3253.4532,N,11712.5596,W,14.90,164.60,181210,,*2F
$GPRMC,015743.9,A,3253.4404,N,11712.5554,W,10.30,162.80,181210,,*2E
$GPRMC,015747.9,A,3253.4303,N,11712.5521,W,9.60,163.20,181210,,*1E
$GPRMC,015751.9,A,3253.4173,N,11712.5468,W,13.30,161.90,181210,,*27
$GPRMC,015755.9,A,3253.4064,N,11712.5346,W,14.80,118.50,181210,,*21
$GPRMC,015759.9,A,3253.4032,N,11712.5149,W,15.50,98.50,181210,,*16
$GPRMC,015803.9,A,3253.4008,N,11712.4913,W,19.70,91.20,181210,,*19
$GPRMC,015807.9,A,3253.4023,N,11712.4618,W,24.60,86.60,181210,,*1D
$GPRMC,015811.9,A,3253.4030,N,11712.4280,W,26.50,93.10,181210,,*1F
$GPRMC,015815.9,A,3253.3954,N,11712.3913,W,30.00,110.70,181210,,*2F
$GPRMC,015819.9,A,3253.3814,N,11712.3554,W,27.80,117.20,181210,,*25
$GPRMC,015823.9,A,3253.3676,N,11712.3316,W,18.90,129.30,181210,,*27
$GPRMC,015827.9,A,3253.3555,N,11712.3167,W,11.20,133.50,181210,,*2A
$GPRMC,015835.9,A,3253.3522,N,11712.3143,W,4.90,130.60,181210,,*10
$GPRMC,015839.9,A,3253.3437,N,11712.3035,W,14.60,132.70,181210,,*24
$GPRMC,015843.9,A,3253.3272,N,11712.2855,W,21.70,139.00,181210,,*2A
$GPRMC,015847.9,A,3253.3043,N,11712.2637,W,26.10,141.90,181210,,*23
$GPRMC,015851.9,A,3253.2817,N,11712.2448,W,23.10,145.10,181210,,*2F
$GPRMC,015855.9,A,3253.2641,N,11712.2317,W,18.30,147.30,181210,,*21
$GPRMC,015859.9,A,3253.2485,N,11712.2223,W,15.50,152.20,181210,,*2F
$GPRMC,015903.9,A,3253.2313,N,11712.2137,W,19.00,155.00,181210,,*23
$GPRMC,015907.9,A,3253.2084,N,11712.2023,W,22.40,158.10,181210,,*2E
$GPRMC,015911.9,A,3253.1830,N,11712.1909,W,23.50,161.30,181210,,*27
$GPRMC,015915.9,A,3253.1609,N,11712.1836,W,19.30,164.10,181210,,*22
$GPRMC,015919.9,A,3253.1417,N,11712.1779,W,19.20,165.80,181210,,*2E
$GPRMC,015923.9,A,3253.1185,N,11712.1712,W,22.00,166.20,181210,,*27
$GPRMC,015927.9,A,3253.0971,N,11712.1637,W,18.20,165.40,181210,,*29
$GPRMC,015931.9,A,3253.0796,N,11712.1576,W,14.50,166.00,181210,,*23
$GPRMC,015935.9,A,3253.0629,N,11712.1522,W,17.00,165.80,181210,,*2E
$GPRMC,015939.9,A,3253.0425,N,11712.1466,W,19.50,165.80,181210,,*26
$GPRMC,015943.9,A,3253.0224,N,11712.1405,W,19.70,165.00,181210,,*23
$GPRMC,015947.9,A,3253.0016,N,11712.1344,W,19.40,166.20,181210,,*24
$GPRMC,015951.9,A,3252.9813,N,11712.1286,W,18.30,165.60,181210,,*28
$GPRMC,015955.9,A,3252.9633,N,11712.1218,W,16.80,164.90,181210,,*2C
$GPRMC,015959.9,A,3252.9462,N,11712.1167,W,14.90,165.10,181210,,*27
$GPRMC,020003.9,A,3252.9323,N,11712.1133,W,11.30,165.80,181210,,*22
$GPRMC,020007.9,A,3252.9228,N,11712.1101,W,8.40,164.50,181210,,*1E
$GPRMC,020011.9,A,3252.9114,N,11712.1077,W,11.30,166.10,181210,,*2C
$GPRMC,020015.9,A,3252.9004,N,11712.1038,W,9.90,165.80,181210,,*1A
$GPRMC,020019.9,A,3252.8925,N,11712.1031,W,6.20,168.60,181210,,*13
$GPRMC,020023.9,A,3252.8830,N,11712.1002,W,7.80,166.20,181210,,*1E
$GPRMC,020027.9,A,3252.8736,N,11712.0981,W,9.50,163.70,181210,,*13
$GPRMC,020031.9,A,3252.8644,N,11712.0956,W,7.50,165.60,181210,,*13
$GPRMC,020035.9,A,3252.8578,N,11712.0938,W,5.80,169.40,181210,,*12
$GPRMC,020039.9,A,3252.8507,N,11712.0914,W,6.40,167.60,181210,,*1B
$GPRMC,020043.9,A,3252.8426,N,11712.0882,W,8.80,162.90,181210,,*12
$GPRMC,020047.9,A,3252.8343,N,11712.0855,W,7.20,165.40,181210,,*17
$GPRMC,020051.9,A,3252.8251,N,11712.0809,W,6.70,154.90,181210,,*10
$GPRMC,020055.9,A,3252.8218,N,11712.0798,W,4.80,164.60,181210,,*1F
$GPRMC,020059.9,A,3252.8129,N,11712.0774,W,8.10,169.30,181210,,*1D
$GPRMC,020103.9,A,3252.8041,N,11712.0752,W,8.20,165.90,181210,,*1D
$GPRMC,020107.9,A,3252.7955,N,11712.0722,W,8.20,164.70,181210,,*12
$GPRMC,020111.9,A,3252.7876,N,11712.0694,W,7.50,166.30,181210,,*17
$GPRMC,020115.9,A,3252.7800,N,11712.0668,W,7.20,163.00,181210,,*10
$GPRMC,020119.9,A,3252.7729,N,11712.0651,W,6.80,165.20,181210,,*1D
$GPRMC,020123.9,A,3252.7651,N,11712.0630,W,7.30,164.60,181210,,*12
$GPRMC,020151.4,A,3252.7278,N,11712.0507,W,4.70,168.30,181210,,*1C
$GPRMC,020154.4,A,3252.7229,N,11712.0480,W,6.50,162.10,181210,,*1B
$GPRMC,020158.4,A,3252.7123,N,11712.0437,W,8.00,159.30,181210,,*13
$GPRMC,020202.4,A,3252.7039,N,11712.0409,W,8.20,160.50,181210,,*16
$GPRMC,020206.4,A,3252.6951,N,11712.0377,W,8.30,163.20,181210,,*1F
$GPRMC,020210.4,A,3252.6878,N,11712.0348,W,7.00,161.40,181210,,*16
$GPRMC,020214.4,A,3252.6802,N,11712.0311,W,6.70,159.80,181210,,*12
$GPRMC,020218.4,A,3252.6726,N,11712.0260,W,8.40,155.00,181210,,*19
$GPRMC,020222.4,A,3252.6624,N,11712.0226,W,10.30,163.80,181210,,*22
$GPRMC,020226.4,A,3252.6489,N,11712.0184,W,13.20,165.00,181210,,*24
$GPRMC,020230.4,A,3252.6326,N,11712.0135,W,14.50,165.60,181210,,*2D
$GPRMC,020234.4,A,3252.6164,N,11712.0082,W,13.60,164.10,181210,,*22
$GPRMC,020238.4,A,3252.6000,N,11712.0039,W,16.30,163.90,181210,,*22
$GPRMC,020242.4,A,3252.5829,N,11711.9979,W,16.50,162.70,181210,,*21
$GPRMC,020246.4,A,3252.5662,N,11711.9922,W,14.70,160.50,181210,,*2A
$GPRMC,020250.4,A,3252.5516,N,11711.9854,W,13.30,160.20,181210,,*29
$GPRMC,020254.4,A,3252.5363,N,11711.9792,W,14.50,158.40,181210,,*20
$GPRMC,020258.4,A,3252.5212,N,11711.9716,W,14.60,156.40,181210,,*2A
$GPRMC,020302.4,A,3252.5093,N,11711.9640,W,11.80,153.80,181210,,*2F
$GPRMC,020306.4,A,3252.4989,N,11711.9564,W,11.40,153.60,181210,,*2F
$GPRMC,020310.4,A,3252.4867,N,11711.9491,W,11.50,156.40,181210,,*24
$GPRMC,020314.4,A,3252.4730,N,11711.9414,W,15.00,153.80,181210,,*28
$GPRMC,020318.4,A,3252.4571,N,11711.9339,W,14.80,151.20,181210,,*2A
$GPRMC,020322.4,A,3252.4442,N,11711.9253,W,13.10,151.00,181210,,*23
$GPRMC,020326.4,A,3252.4284,N,11711.9155,W,16.90,151.30,181210,,*20
$GPRMC,020330.4,A,3252.4108,N,11711.9040,W,18.00,148.50,181210,,*2C
$GPRMC,020334.4,A,3252.3937,N,11711.8907,W,18.40,147.60,181210,,*28
$GPRMC,020338.4,A,3252.3768,N,11711.8772,W,18.40,145.90,181210,,*21
$GPRMC,020342.4,A,3252.3606,N,11711.8636,W,17.50,146.80,181210,,*28
$GPRMC,020346.4,A,3252.3464,N,11711.8513,W,15.60,143.70,181210,,*25
$GPRMC,020350.4,A,3252.3325,N,11711.8380,W,17.60,142.00,181210,,*28
$GPRMC,020354.4,A,3252.3160,N,11711.8234,W,19.70,141.10,181210,,*2C
$GPRMC,020358.4,A,3252.2969,N,11711.8057,W,23.10,141.60,181210,,*2F
$GPRMC,020402.4,A,3252.2754,N,11711.7872,W,23.40,141.40,181210,,*20
$GPRMC,020406.4,A,3252.2547,N,11711.7665,W,24.70,141.40,181210,,*28
$GPRMC,020410.4,A,3252.2330,N,11711.7446,W,24.40,140.40,181210,,*28
$GPRMC,020414.4,A,3252.2118,N,11711.7251,W,26.00,140.20,181210,,*24
$GPRMC,020418.4,A,3252.1882,N,11711.7028,W,26.50,141.40,181210,,*2F
$GPRMC,020422.4,A,3252.1627,N,11711.6794,W,28.30,141.70,181210,,*2D
$GPRMC,020426.4,A,3252.1426,N,11711.6596,W,21.90,141.50,181210,,*2B
$GPRMC,020430.4,A,3252.1235,N,11711.6419,W,23.10,142.80,181210,,*2A
$GPRMC,020434.4,A,3252.1029,N,11711.6213,W,25.60,141.50,181210,,*22
$GPRMC,020438.4,A,3252.0808,N,11711.6004,W,26.20,141.10,181210,,*23
$GPRMC,020442.4,A,3252.0564,N,11711.5781,W,28.80,141.60,181210,,*23
$GPRMC,020446.4,A,3252.0300,N,11711.5522,W,31.80,141.20,181210,,*24
$GPRMC,020450.4,A,3252.0004,N,11711.5240,W,35.00,140.80,181210,,*20
$GPRMC,020454.4,A,3251.9686,N,11711.4958,W,36.30,142.00,181210,,*2B
$GPRMC,020458.4,A,3251.9382,N,11711.4663,W,35.00,141.30,181210,,*21
$GPRMC,020502.4,A,3251.9107,N,11711.4389,W,30.40,140.80,181210,,*2A
$GPRMC,020506.4,A,3251.8881,N,11711.4176,W,23.20,142.50,181210,,*21
$GPRMC,020510.4,A,3251.8749,N,11711.4049,W,14.40,142.20,181210,,*25
$GPRMC,020514.4,A,3251.8661,N,11711.3970,W,8.30,144.10,181210,,*11
$GPRMC,020518.4,A,3251.8582,N,11711.3882,W,12.80,138.70,181210,,*22
$GPRMC,020522.4,A,3251.8439,N,11711.3754,W,18.80,141.80,181210,,*25
$GPRMC,020526.4,A,3251.8243,N,11711.3586,W,22.20,141.50,181210,,*29
$GPRMC,020530.4,A,3251.8065,N,11711.3410,W,20.90,139.90,181210,,*2C
$GPRMC,020534.4,A,3251.7870,N,11711.3235,W,23.70,142.80,181210,,*2A
$GPRMC,020538.4,A,3251.7639,N,11711.3004,W,29.20,140.90,181210,,*29
$GPRMC,020542.4,A,3251.7359,N,11711.2736,W,33.90,140.90,181210,,*20
$GPRMC,020546.4,A,3251.7057,N,11711.2430,W,36.00,140.40,181210,,*2D
$GPRMC,020550.4,A,3251.6729,N,11711.2119,W,37.30,141.50,181210,,*29
$GPRMC,020554.4,A,3251.6435,N,11711.1865,W,32.10,144.80,181210,,*2D
$GPRMC,020558.4,A,3251.6142,N,11711.1624,W,31.70,145.80,181210,,*2B
$GPRMC,020602.4,A,3251.5866,N,11711.1406,W,28.30,148.10,181210,,*21
$GPRMC,020606.4,A,3251.5573,N,11711.1216,W,30.60,150.50,181210,,*2A
$GPRMC,020610.4,A,3251.5278,N,11711.1038,W,31.70,151.70,181210,,*2C
$GPRMC,020614.4,A,3251.4926,N,11711.0819,W,34.90,151.00,181210,,*2F
$GPRMC,020618.4,A,3251.4570,N,11711.0599,W,36.30,152.20,181210,,*20
$GPRMC,020622.4,A,3251.4182,N,11711.0359,W,39.40,152.50,181210,,*25
$GPRMC,020626.4,A,3251.3817,N,11711.0126,W,38.50,152.80,181210,,*24
$GPRMC,020630.4,A,3251.3417,N,11710.9893,W,39.10,153.30,181210,,*2F
$GPRMC,020634.4,A,3251.3007,N,11710.9659,W,40.60,153.30,181210,,*2F
$GPRMC,020638.4,A,3251.2599,N,11710.9413,W,41.90,152.90,181210,,*29
$GPRMC,020642.4,A,3251.2197,N,11710.9173,W,39.80,153.70,181210,,*2C
$GPRMC,020646.4,A,3251.1801,N,11710.8935,W,38.80,153.10,181210,,*21
$GPRMC,020650.4,A,3251.1409,N,11710.8691,W,40.50,152.90,181210,,*28
$GPRMC,020654.4,A,3251.1006,N,11710.8448,W,39.00,152.90,181210,,*2A
$GPRMC,020658.4,A,3251.0656,N,11710.8226,W,35.40,152.90,181210,,*22
$GPRMC,020702.4,A,3251.0293,N,11710.8004,W,37.70,152.60,181210,,*2D
$GPRMC,020706.4,A,3250.9905,N,11710.7774,W,39.20,153.40,181210,,*22
$GPRMC,020710.4,A,3250.9537,N,11710.7535,W,37.00,152.90,181210,,*2F
$GPRMC,020714.4,A,3250.9189,N,11710.7330,W,34.00,152.10,181210,,*22
$GPRMC,020718.4,A,3250.8859,N,11710.7129,W,31.90,153.40,181210,,*29
$GPRMC,020722.4,A,3250.8621,N,11710.6987,W,19.20,153.10,181210,,*28
$GPRMC,020726.4,A,3250.8480,N,11710.6901,W,17.10,155.50,181210,,*24
$GPRMC,020730.4,A,3250.8257,N,11710.6789,W,24.10,155.30,181210,,*27
$GPRMC,020734.4,A,3250.7985,N,11710.6632,W,28.20,153.10,181210,,*22
$GPRMC,020738.4,A,3250.7697,N,11710.6448,W,28.00,153.30,181210,,*2D
$GPRMC,020742.4,A,3250.7424,N,11710.6290,W,25.80,152.60,181210,,*28
$GPRMC,020746.4,A,3250.7189,N,11710.6138,W,23.80,152.70,181210,,*28
$GPRMC,020750.4,A,3250.6938,N,11710.5991,W,25.40,153.00,181210,,*28
$GPRMC,020754.4,A,3250.6715,N,11710.5848,W,22.00,152.40,181210,,*2E
$GPRMC,020758.4,A,3250.6513,N,11710.5718,W,21.10,151.80,181210,,*21
$GPRMC,020802.4,A,3250.6304,N,11710.5591,W,20.70,152.80,181210,,*26
$GPRMC,020806.4,A,3250.6118,N,11710.5480,W,17.20,155.90,181210,,*2B
$GPRMC,020810.4,A,3250.5992,N,11710.5387,W,15.00,150.30,181210,,*2A
$GPRMC,020814.4,A,3250.5817,N,11710.5282,W,19.90,150.50,181210,,*25
$GPRMC,020818.4,A,3250.5600,N,11710.5152,W,22.20,152.00,181210,,*2B
$GPRMC,020822.4,A,3250.5390,N,11710.5037,W,19.50,155.50,181210,,*21
$GPRMC,020826.4,A,3250.5227,N,11710.4929,W,15.30,152.50,181210,,*22
$GPRMC,020830.4,A,3250.5076,N,11710.4832,W,16.40,151.50,181210,,*2F
$GPRMC,020834.4,A,3250.4936,N,11710.4728,W,13.10,150.30,181210,,*24
$GPRMC,020838.4,A,3250.4830,N,11710.4676,W,9.50,152.50,181210,,*1E
$GPRMC,020842.4,A,3250.4741,N,11710.4618,W,9.60,151.80,181210,,*1F
$GPRMC,020846.4,A,3250.4645,N,11710.4554,W,9.80,146.10,181210,,*14
$GPRMC,020850.4,A,3250.4528,N,11710.4485,W,13.70,150.70,181210,,*23
$GPRMC,020854.4,A,3250.4358,N,11710.4394,W,16.90,151.40,181210,,*28
$GPRMC,020858.4,A,3250.4163,N,11710.4272,W,20.80,152.80,181210,,*2C
$GPRMC,020902.4,A,3250.3943,N,11710.4137,W,21.90,152.70,181210,,*22
$GPRMC,020906.4,A,3250.3729,N,11710.4009,W,22.20,152.90,181210,,*2E
$GPRMC,020910.4,A,3250.3528,N,11710.3887,W,19.20,152.10,181210,,*23
$GPRMC,020914.4,A,3250.3328,N,11710.3763,W,19.50,151.70,181210,,*26
$GPRMC,020918.4,A,3250.3141,N,11710.3644,W,19.70,153.20,181210,,*26
$GPRMC,020922.4,A,3250.2950,N,11710.3513,W,20.00,151.10,181210,,*2B
$GPRMC,020926.4,A,3250.2745,N,11710.3398,W,22.00,153.10,181210,,*20
$GPRMC,020930.4,A,3250.2523,N,11710.3264,W,22.50,151.60,181210,,*27
$GPRMC,020934.4,A,3250.2314,N,11710.3129,W,19.70,153.60,181210,,*23
$GPRMC,020938.4,A,3250.2141,N,11710.3029,W,16.50,152.70,181210,,*21
$GPRMC,020942.4,A,3250.1988,N,11710.2924,W,15.50,152.90,181210,,*2A
$GPRMC,020946.4,A,3250.1831,N,11710.2847,W,14.50,153.90,181210,,*29
$GPRMC,020950.4,A,3250.1669,N,11710.2756,W,18.10,153.30,181210,,*20
$GPRMC,020954.4,A,3250.1480,N,11710.2631,W,19.30,151.90,181210,,*2A
$GPRMC,020958.4,A,3250.1274,N,11710.2522,W,20.30,152.70,181210,,*2D
$GPRMC,021002.4,A,3250.1076,N,11710.2399,W,21.80,152.90,181210,,*28
$GPRMC,021006.4,A,3250.0849,N,11710.2262,W,21.60,151.80,181210,,*20
$GPRMC,021010.4,A,3250.0642,N,11710.2127,W,21.20,151.80,181210,,*24
$GPRMC,021014.4,A,3250.0431,N,11710.2001,W,20.60,153.30,181210,,*2F
$GPRMC,021018.4,A,3250.0246,N,11710.1890,W,17.20,153.80,181210,,*2D
$GPRMC,021022.4,A,3250.0099,N,11710.1798,W,15.40,152.30,181210,,*2D
$GPRMC,021026.4,A,3249.9955,N,11710.1694,W,14.80,151.60,181210,,*27
$GPRMC,021030.4,A,3249.9816,N,11710.1613,W,13.30,153.60,181210,,*27
$GPRMC,021034.4,A,3249.9674,N,11710.1529,W,14.90,153.20,181210,,*2A
$GPRMC,021038.4,A,3249.9527,N,11710.1425,W,15.90,151.50,181210,,*2A
$GPRMC,021042.4,A,3249.9362,N,11710.1324,W,16.40,150.30,181210,,*2F
$GPRMC,021046.4,A,3249.9193,N,11710.1243,W,16.50,153.50,181210,,*23
$GPRMC,021050.4,A,3249.9044,N,11710.1144,W,14.80,152.10,181210,,*21
$GPRMC,021054.4,A,3249.8881,N,11710.1066,W,14.90,153.60,181210,,*23
