NMEA Sentence Code,UTC Time,Status,Latitude,Latitude Direction,Longitude,Longitude Direction,Speed (knots),Track Angle (degrees true),Date,MagneticVariation,Magnetic Variation Direction,[FAA Mode]-Optional,Checksum
$GPRMC,060503.1,A,3347.587105,N,11631.965764,W,18.1,21.0,080210,,,A*7B
$GPRMC,060506.1,A,3347.600440,N,11631.960624,W,14.9,16.3,080210,,,A*75
$GPRMC,060509.1,A,3347.609840,N,11631.958511,W,7.4,2.6,080210,,,A*7E
$GPRMC,060512.1,A,3347.615444,N,11631.960626,W,8.4,321.2,080210,,,A*74
$GPRMC,060515.1,A,3347.618913,N,11631.969789,W,12.8,280.1,080210,,,A*42
$GPRMC,060518.1,A,3347.621969,N,11631.984842,W,17.1,281.0,080210,,,A*4F
$GPRMC,060521.1,A,3347.623207,N,11632.004191,W,20.5,272.8,080210,,,A*45
$GPRMC,060524.1,A,3347.623516,N,11632.025305,W,21.6,270.1,080210,,,A*42
$GPRMC,060527.1,A,3347.623234,N,11632.046702,W,21.4,270.3,080210,,,A*40
$GPRMC,060530.1,A,3347.622875,N,11632.068778,W,22.0,269.6,080210,,,A*43
$GPRMC,060533.1,A,3347.622129,N,11632.090926,W,22.1,268.9,080210,,,A*4D
$GPRMC,060536.1,A,3347.622252,N,11632.111732,W,20.4,270.1,080210,,,A*42
$GPRMC,060539.1,A,3347.622234,N,11632.132015,W,19.7,270.6,080210,,,A*40
$GPRMC,060542.1,A,3347.622040,N,11632.151489,W,19.8,270.4,080210,,,A*44
$GPRMC,060550.2,A,3347.617161,N,11632.201259,W,17.1,261.4,080210,,,A*4A
$GPRMC,060553.2,A,3347.617259,N,11632.209768,W,9.2,263.3,080210,,,A*77
$GPRMC,060602.2,A,3347.627279,N,11632.221173,W,9.4,334.5,080210,,,A*74
$GPRMC,060605.2,A,3347.636323,N,11632.226107,W,9.3,330.6,080210,,,A*79
$GPRMC,060654.3,A,3347.648102,N,11632.646156,W,29.4,269.5,080210,,,A*49
$GPRMC,060657.3,A,3347.647761,N,11632.673954,W,27.1,271.0,080210,,,A*4D
$GPRMC,060700.3,A,3347.647933,N,11632.699013,W,24.1,270.7,080210,,,A*4C
$GPRMC,060703.3,A,3347.648385,N,11632.717639,W,14.1,270.1,080210,,,A*4B
$GPRMC,060706.3,A,3347.648745,N,11632.726733,W,4.5,276.5,080210,,,A*78
$GPRMC,060712.3,A,3347.653755,N,11632.733310,W,8.3,336.3,080210,,,A*7E
$GPRMC,060715.3,A,3347.661778,N,11632.736068,W,10.4,343.5,080210,,,A*44
$GPRMC,060718.3,A,3347.679962,N,11632.735930,W,19.0,355.7,080210,,,A*4A
$GPRMC,060721.3,A,3347.702865,N,11632.735357,W,27.0,359.7,080210,,,A*41
$GPRMC,060724.3,A,3347.727791,N,11632.734568,W,29.0,359.6,080210,,,A*43
$GPRMC,060727.3,A,3347.751801,N,11632.735117,W,29.3,359.6,080210,,,A*49
$GPRMC,060730.3,A,3347.776331,N,11632.735139,W,28.8,359.5,080210,,,A*47
$GPRMC,060733.3,A,3347.800801,N,11632.735511,W,28.7,359.5,080210,,,A*43
$GPRMC,060736.3,A,3347.824835,N,11632.735421,W,28.9,359.8,080210,,,A*46
$GPRMC,060739.3,A,3347.849075,N,11632.735139,W,28.8,359.9,080210,,,A*42
$GPRMC,060742.3,A,3347.873766,N,11632.735480,W,29.8,359.4,080210,,,A*49
$GPRMC,060745.3,A,3347.898582,N,11632.735716,W,29.4,359.9,080210,,,A*4E
$GPRMC,060748.3,A,3347.923505,N,11632.735675,W,30.2,0.2,080210,,,A*43
$GPRMC,060751.3,A,3347.948453,N,11632.735442,W,30.3,0.3,080210,,,A*42
$GPRMC,060754.3,A,3347.974325,N,11632.735339,W,31.2,0.2,080210,,,A*44
$GPRMC,060757.3,A,3348.000593,N,11632.735261,W,31.3,0.1,080210,,,A*47
$GPRMC,060800.3,A,3348.026263,N,11632.735184,W,30.8,359.9,080210,,,A*43
$GPRMC,060803.3,A,3348.050946,N,11632.735130,W,29.5,0.1,080210,,,A*40
$GPRMC,060806.3,A,3348.074848,N,11632.735265,W,28.2,359.7,080210,,,A*40
$GPRMC,060809.3,A,3348.097367,N,11632.735596,W,25.7,0.1,080210,,,A*4E
$GPRMC,060812.3,A,3348.115565,N,11632.736002,W,18.8,359.6,080210,,,A*49
$GPRMC,060815.3,A,3348.129938,N,11632.734783,W,13.8,6.2,080210,,,A*4F
$GPRMC,060818.3,A,3348.137641,N,11632.731777,W,5.6,33.4,080210,,,A*4B
$GPRMC,060923.3,A,3348.151608,N,11632.727617,W,6.5,4.4,080210,,,A*7B
$GPRMC,060926.3,A,3348.169907,N,11632.728892,W,14.2,358.1,080210,,,A*42
$GPRMC,060929.3,A,3348.200839,N,11632.733588,W,29.3,359.9,080210,,,A*47
$GPRMC,060932.3,A,3348.226384,N,11632.734341,W,29.8,0.0,080210,,,A*4D
$GPRMC,060935.3,A,3348.252518,N,11632.734164,W,30.2,0.3,080210,,,A*4E
$GPRMC,060938.3,A,3348.278508,N,11632.733773,W,30.4,0.2,080210,,,A*4A
$GPRMC,060941.3,A,3348.304188,N,11632.733171,W,30.5,359.7,080210,,,A*4D
$GPRMC,060944.3,A,3348.330106,N,11632.733375,W,30.6,0.8,080210,,,A*4C
$GPRMC,060947.3,A,3348.355855,N,11632.733149,W,30.7,0.5,080210,,,A*42
$GPRMC,060950.3,A,3348.381796,N,11632.732825,W,29.9,359.9,080210,,,A*4A
$GPRMC,060953.3,A,3348.406594,N,11632.732869,W,29.1,0.1,080210,,,A*46
$GPRMC,060956.3,A,3348.431240,N,11632.732876,W,30.1,359.7,080210,,,A*46
$GPRMC,060959.3,A,3348.455870,N,11632.733006,W,28.4,359.8,080210,,,A*4F
$GPRMC,061002.3,A,3348.478392,N,11632.732939,W,26.4,0.3,080210,,,A*4F
$GPRMC,061005.3,A,3348.497129,N,11632.733201,W,16.8,3.2,080210,,,A*47
$GPRMC,061008.3,A,3348.505599,N,11632.732326,W,5.0,2.5,080210,,,A*76
$GPRMC,061017.3,A,3348.515221,N,11632.731131,W,11.0,8.0,080210,,,A*40
$GPRMC,061020.3,A,3348.527156,N,11632.728744,W,15.1,10.8,080210,,,A*7E
$GPRMC,061023.3,A,3348.545461,N,11632.720213,W,22.4,23.4,080210,,,A*7A
$GPRMC,061026.3,A,3348.564851,N,11632.705862,W,29.1,31.7,080210,,,A*76
$GPRMC,061029.3,A,3348.586656,N,11632.691348,W,30.4,27.8,080210,,,A*76
$GPRMC,061032.3,A,3348.611537,N,11632.679272,W,32.6,20.0,080210,,,A*74
$GPRMC,061042.4,A,3348.696018,N,11632.668626,W,27.5,1.8,080210,,,A*4A
$GPRMC,061045.4,A,3348.717032,N,11632.670252,W,26.3,355.0,080210,,,A*4E
$GPRMC,061048.4,A,3348.738592,N,11632.673927,W,25.4,351.9,080210,,,A*42
$GPRMC,061051.4,A,3348.758795,N,11632.680330,W,23.3,341.7,080210,,,A*47
$GPRMC,061054.4,A,3348.776057,N,11632.688474,W,22.6,337.9,080210,,,A*43
$GPRMC,061057.4,A,3348.794092,N,11632.698870,W,24.4,331.2,080210,,,A*45
$GPRMC,061100.4,A,3348.811135,N,11632.712063,W,24.8,327.7,080210,,,A*4F
$GPRMC,061103.4,A,3348.828331,N,11632.724377,W,23.8,333.6,080210,,,A*40
$GPRMC,061106.4,A,3348.846446,N,11632.732945,W,22.9,341.5,080210,,,A*40
$GPRMC,061109.4,A,3348.867986,N,11632.731669,W,25.7,0.7,080210,,,A*42
$GPRMC,061112.4,A,3348.890360,N,11632.731893,W,26.5,0.1,080210,,,A*4E
$GPRMC,061115.4,A,3348.912880,N,11632.731435,W,27.0,0.2,080210,,,A*40
$GPRMC,061118.4,A,3348.935505,N,11632.730792,W,26.0,360.0,080210,,,A*41
