NMEA Sentence Code,UTC Time,Status,Latitude,Latitude Direction,Longitude,Longitude Direction,Speed (knots),Track Angle (degrees true),Date,MagneticVariation,Magnetic Variation Direction,[FAA Mode]-Optional,Checksum
$GPRMC,190503.318,A,3302.2456,N,11539.8867,W,52.351905,270.03,071210,,*23
$GPRMC,190506.318,A,3302.2457,N,11539.9386,W,52.280400,270.22,071210,,*24
$GPRMC,190509.318,A,3302.2458,N,11539.9904,W,52.331081,270.03,071210,,*21
$GPRMC,190512.317,A,3302.2457,N,11540.0423,W,52.257796,270.05,071210,,*22
$GPRMC,190515.317,A,3302.2457,N,11540.0940,W,52.301765,269.98,071210,,*2F
$GPRMC,190518.317,A,3302.2457,N,11540.1461,W,52.320481,270.14,071210,,*2B
$GPRMC,190521.317,A,3302.2458,N,11540.1983,W,52.388222,270.29,071210,,*2C
$GPRMC,190524.317,A,3302.2460,N,11540.2504,W,52.376434,269.86,071210,,*2F
$GPRMC,190527.316,A,3302.2458,N,11540.3025,W,52.326740,269.66,071210,,*2A
$GPRMC,190530.316,A,3302.2457,N,11540.3545,W,52.333359,270.08,071210,,*28
$GPRMC,190533.316,A,3302.2458,N,11540.4066,W,52.280845,269.90,071210,,*21
$GPRMC,190536.316,A,3302.2459,N,11540.4585,W,52.321189,270.04,071210,,*2B
$GPRMC,190539.316,A,3302.2460,N,11540.5106,W,52.398165,269.96,071210,,*23
$GPRMC,190542.315,A,3302.2461,N,11540.5625,W,52.454868,270.15,071210,,*2B
$GPRMC,190545.315,A,3302.2465,N,11540.6148,W,52.490158,270.24,071210,,*27
$GPRMC,190548.315,A,3302.2471,N,11540.6671,W,52.448606,270.87,071210,,*22
$GPRMC,190551.315,A,3302.2485,N,11540.7194,W,52.340287,271.90,071210,,*29
$GPRMC,190554.315,A,3302.2505,N,11540.7715,W,52.223864,272.38,071210,,*28
$GPRMC,190557.314,A,3302.2532,N,11540.8232,W,52.147074,273.21,071210,,*20
$GPRMC,190600.314,A,3302.2562,N,11540.8747,W,52.092978,274.07,071210,,*2C
$GPRMC,190603.314,A,3302.2595,N,11540.9264,W,52.166319,274.55,071210,,*22
$GPRMC,190606.314,A,3302.2623,N,11540.9786,W,52.170761,273.96,071210,,*24
$GPRMC,190609.314,A,3302.2650,N,11541.0305,W,52.221338,273.53,071210,,*2E
$GPRMC,190612.314,A,3302.2674,N,11541.0822,W,52.330640,272.20,071210,,*22
$GPRMC,190615.313,A,3302.2691,N,11541.1340,W,52.342626,271.47,071210,,*20
$GPRMC,190618.313,A,3302.2701,N,11541.1856,W,52.301762,270.87,071210,,*22
$GPRMC,190621.313,A,3302.2704,N,11541.2373,W,52.319755,270.05,071210,,*25
$GPRMC,190624.313,A,3302.2705,N,11541.2889,W,52.212141,270.03,071210,,*20
$GPRMC,190627.313,A,3302.2703,N,11541.3403,W,52.097882,270.14,071210,,*25
$GPRMC,190630.312,A,3302.2700,N,11541.3919,W,52.050107,269.89,071210,,*24
$GPRMC,190633.312,A,3302.2699,N,11541.4439,W,52.094321,269.88,071210,,*21
$GPRMC,190636.312,A,3302.2696,N,11541.4960,W,52.086618,269.25,071210,,*21
$GPRMC,190639.312,A,3302.2687,N,11541.5480,W,52.139022,269.12,071210,,*22
$GPRMC,190642.312,A,3302.2682,N,11541.5999,W,52.298008,269.38,071210,,*26
$GPRMC,190645.311,A,3302.2681,N,11541.6521,W,52.418468,269.77,071210,,*2A
$GPRMC,190648.311,A,3302.2681,N,11541.7044,W,52.394217,269.97,071210,,*23
$GPRMC,190651.311,A,3302.2681,N,11541.7565,W,52.431687,270.03,071210,,*2D
$GPRMC,190654.311,A,3302.2679,N,11541.8083,W,52.539045,269.50,071210,,*22
$GPRMC,190657.311,A,3302.2675,N,11541.8601,W,52.539418,269.75,071210,,*2A
$GPRMC,190700.310,A,3302.2677,N,11541.9118,W,52.507802,270.15,071210,,*20
$GPRMC,190703.310,A,3302.2678,N,11541.9634,W,52.442080,269.80,071210,,*23
$GPRMC,190706.310,A,3302.2677,N,11542.0152,W,52.263796,270.15,071210,,*25
$GPRMC,190709.310,A,3302.2678,N,11542.0671,W,52.132290,270.18,071210,,*2A
$GPRMC,190712.310,A,3302.2684,N,11542.1190,W,51.923865,272.04,071210,,*2E
$GPRMC,190715.309,A,3302.2712,N,11542.1708,W,51.674680,274.95,071210,,*2E
$GPRMC,190718.309,A,3302.2759,N,11542.2225,W,51.689380,277.85,071210,,*20
$GPRMC,190721.309,A,3302.2830,N,11542.2732,W,52.186192,281.22,071210,,*27
$GPRMC,190724.309,A,3302.2927,N,11542.3238,W,52.708851,284.27,071210,,*2D
$GPRMC,190727.309,A,3302.3049,N,11542.3745,W,52.991918,287.41,071210,,*20
$GPRMC,190730.309,A,3302.3194,N,11542.4245,W,53.090854,290.28,071210,,*2C
$GPRMC,190733.308,A,3302.3360,N,11542.4731,W,53.004112,293.59,071210,,*22
$GPRMC,190736.308,A,3302.3548,N,11542.5204,W,52.756015,296.32,071210,,*26
$GPRMC,190739.308,A,3302.3760,N,11542.5664,W,52.400138,299.60,071210,,*25
$GPRMC,190742.308,A,3302.3991,N,11542.6105,W,52.152589,302.84,071210,,*2F
$GPRMC,190745.308,A,3302.4241,N,11542.6528,W,52.033833,305.85,071210,,*2E
$GPRMC,190748.307,A,3302.4507,N,11542.6936,W,52.076180,309.03,071210,,*28
$GPRMC,190751.307,A,3302.4793,N,11542.7325,W,52.119594,312.14,071210,,*23
$GPRMC,190754.307,A,3302.5095,N,11542.7697,W,52.180443,314.91,071210,,*2A
$GPRMC,190757.307,A,3302.5413,N,11542.8049,W,52.182324,318.27,071210,,*2C
$GPRMC,190800.307,A,3302.5748,N,11542.8378,W,52.007970,321.35,071210,,*23
$GPRMC,190803.306,A,3302.6096,N,11542.8688,W,51.753047,324.41,071210,,*22
$GPRMC,190806.306,A,3302.6458,N,11542.8971,W,51.927329,327.50,071210,,*2D
$GPRMC,190809.306,A,3302.6835,N,11542.9235,W,52.262260,330.48,071210,,*25
$GPRMC,190812.306,A,3302.7222,N,11542.9485,W,52.487111,331.79,071210,,*24
$GPRMC,190815.306,A,3302.7611,N,11542.9731,W,52.543433,331.94,071210,,*24
$GPRMC,190818.305,A,3302.7999,N,11542.9977,W,52.626632,332.02,071210,,*26
$GPRMC,190821.305,A,3302.8385,N,11543.0226,W,52.493509,331.20,071210,,*27
$GPRMC,190824.305,A,3302.8766,N,11543.0487,W,52.661233,328.38,071210,,*26
$GPRMC,190827.305,A,3302.9136,N,11543.0768,W,52.577830,325.74,071210,,*2D
$GPRMC,190830.305,A,3302.9493,N,11543.1071,W,52.331697,322.70,071210,,*2B
$GPRMC,190833.304,A,3302.9832,N,11543.1404,W,52.362016,318.85,071210,,*22
$GPRMC,190836.304,A,3303.0158,N,11543.1756,W,52.460352,317.38,071210,,*21
$GPRMC,190839.304,A,3303.0478,N,11543.2113,W,52.423294,317.00,071210,,*2A
$GPRMC,190842.304,A,3303.0797,N,11543.2469,W,52.480561,317.35,071210,,*2E
$GPRMC,190845.304,A,3303.1116,N,11543.2822,W,52.484819,317.36,071210,,*21
$GPRMC,190848.304,A,3303.1435,N,11543.3177,W,52.493700,317.74,071210,,*27
$GPRMC,190851.303,A,3303.1763,N,11543.3520,W,52.495277,320.68,071210,,*24
$GPRMC,190854.303,A,3303.2110,N,11543.3840,W,52.401835,323.10,071210,,*26
$GPRMC,190857.303,A,3303.2471,N,11543.4135,W,52.305604,326.73,071210,,*24
$GPRMC,190900.303,A,3303.2844,N,11543.4408,W,52.101268,329.40,071210,,*21
$GPRMC,190903.303,A,3303.3227,N,11543.4660,W,52.121564,331.36,071210,,*21
$GPRMC,190906.302,A,3303.3611,N,11543.4910,W,52.242839,331.40,071210,,*2E
$GPRMC,190909.302,A,3303.3994,N,11543.5160,W,52.329170,331.50,071210,,*24
$GPRMC,190912.302,A,3303.4379,N,11543.5408,W,52.405894,331.79,071210,,*2A
$GPRMC,190915.302,A,3303.4768,N,11543.5648,W,52.417991,333.01,071210,,*25
$GPRMC,190918.302,A,3303.5156,N,11543.5889,W,52.379784,331.74,071210,,*24
$GPRMC,190921.301,A,3303.5543,N,11543.6135,W,52.304874,331.46,071210,,*2B
$GPRMC,190924.301,A,3303.5927,N,11543.6385,W,52.132005,330.83,071210,,*28
$GPRMC,190927.301,A,3303.6303,N,11543.6644,W,52.034663,328.93,071210,,*25
$GPRMC,190930.301,A,3303.6669,N,11543.6923,W,52.133928,325.94,071210,,*28
$GPRMC,190933.301,A,3303.7022,N,11543.7225,W,52.046445,322.62,071210,,*24
$GPRMC,190936.300,A,3303.7364,N,11543.7548,W,52.242836,321.71,071210,,*22
$GPRMC,190939.300,A,3303.7707,N,11543.7875,W,52.366395,321.36,071210,,*29
$GPRMC,190942.300,A,3303.8050,N,11543.8203,W,52.425381,321.56,071210,,*28
$GPRMC,190945.300,A,3303.8393,N,11543.8530,W,52.520789,321.26,071210,,*2B
$GPRMC,190948.300,A,3303.8736,N,11543.8857,W,52.488053,321.63,071210,,*23
$GPRMC,190951.299,A,3303.9081,N,11543.9183,W,52.516572,321.51,071210,,*20
$GPRMC,190954.299,A,3303.9424,N,11543.9510,W,52.678501,321.43,071210,,*2C
$GPRMC,190957.299,A,3303.9768,N,11543.9839,W,52.638019,321.37,071210,,*29
$GPRMC,191000.299,A,3304.0112,N,11544.0166,W,52.437041,321.30,071210,,*2C
$GPRMC,191003.299,A,3304.0455,N,11544.0493,W,52.268727,321.64,071210,,*2C
$GPRMC,191006.299,A,3304.0797,N,11544.0817,W,52.218948,321.33,071210,,*26
$GPRMC,191009.298,A,3304.1137,N,11544.1141,W,52.204476,321.17,071210,,*25
$GPRMC,191012.298,A,3304.1478,N,11544.1461,W,52.128971,321.77,071210,,*27
$GPRMC,191015.298,A,3304.1819,N,11544.1783,W,52.271416,321.67,071210,,*26
$GPRMC,191018.298,A,3304.2163,N,11544.2107,W,52.336718,321.36,071210,,*2E
$GPRMC,191021.298,A,3304.2505,N,11544.2434,W,52.283662,321.36,071210,,*26
$GPRMC,191024.297,A,3304.2848,N,11544.2758,W,52.415255,321.57,071210,,*2F
$GPRMC,191027.297,A,3304.3193,N,11544.3082,W,52.428125,321.01,071210,,*2A
$GPRMC,191030.297,A,3304.3536,N,11544.3409,W,52.402851,321.18,071210,,*2A
$GPRMC,191033.297,A,3304.3880,N,11544.3736,W,52.349607,321.46,071210,,*28
$GPRMC,191036.297,A,3304.4223,N,11544.4061,W,52.283036,321.58,071210,,*27
$GPRMC,191039.296,A,3304.4566,N,11544.4384,W,52.213789,320.56,071210,,*22
$GPRMC,191042.296,A,3304.4899,N,11544.4719,W,52.342423,318.73,071210,,*29
$GPRMC,191045.296,A,3304.5220,N,11544.5071,W,52.314556,316.57,071210,,*27
$GPRMC,191048.296,A,3304.5531,N,11544.5434,W,52.369709,314.74,071210,,*29
$GPRMC,191051.296,A,3304.5831,N,11544.5808,W,52.479821,312.99,071210,,*29
$GPRMC,191054.295,A,3304.6121,N,11544.6197,W,52.449359,310.37,071210,,*29
$GPRMC,191057.295,A,3304.6398,N,11544.6603,W,52.497256,308.59,071210,,*2C
$GPRMC,191100.295,A,3304.6664,N,11544.7020,W,52.491785,307.32,071210,,*20
$GPRMC,191103.295,A,3304.6924,N,11544.7438,W,52.557589,306.63,071210,,*25
$GPRMC,191106.295,A,3304.7181,N,11544.7858,W,52.466435,306.08,071210,,*24
$GPRMC,191109.294,A,3304.7435,N,11544.8280,W,52.370686,306.42,071210,,*24
$GPRMC,191112.294,A,3304.7691,N,11544.8700,W,52.193687,306.27,071210,,*22
$GPRMC,191115.294,A,3304.7946,N,11544.9118,W,51.995188,305.78,071210,,*22
$GPRMC,191118.294,A,3304.8193,N,11544.9544,W,51.937185,302.64,071210,,*22
$GPRMC,191121.294,A,3304.8419,N,11544.9991,W,52.105627,299.80,071210,,*27
$GPRMC,191124.294,A,3304.8629,N,11545.0455,W,52.137487,296.87,071210,,*2F
$GPRMC,191127.293,A,3304.8816,N,11545.0927,W,52.318921,293.79,071210,,*2B
$GPRMC,191130.293,A,3304.8980,N,11545.1406,W,52.487623,290.69,071210,,*22
$GPRMC,191133.293,A,3304.9121,N,11545.1895,W,52.576190,287.92,071210,,*27
$GPRMC,191136.293,A,3304.9239,N,11545.2396,W,52.432965,284.67,071210,,*29
$GPRMC,191139.293,A,3304.9342,N,11545.2898,W,52.312505,284.11,071210,,*20
$GPRMC,191142.292,A,3304.9447,N,11545.3401,W,52.160518,284.26,071210,,*2D
$GPRMC,191145.292,A,3304.9555,N,11545.3905,W,52.046902,284.40,071210,,*23
$GPRMC,191148.292,A,3304.9678,N,11545.4402,W,52.137969,288.61,071210,,*2A
$GPRMC,191151.292,A,3304.9824,N,11545.4887,W,52.140907,291.08,071210,,*2B
$GPRMC,191154.292,A,3304.9990,N,11545.5363,W,52.119851,294.01,071210,,*22
$GPRMC,191157.291,A,3305.0183,N,11545.5830,W,52.115723,297.62,071210,,*2D
$GPRMC,191200.291,A,3305.0402,N,11545.6284,W,52.172727,300.67,071210,,*29
$GPRMC,191203.291,A,3305.0639,N,11545.6725,W,52.214941,303.71,071210,,*27
$GPRMC,191206.291,A,3305.0895,N,11545.7146,W,52.506059,306.90,071210,,*26
$GPRMC,191209.291,A,3305.1171,N,11545.7556,W,52.839937,309.91,071210,,*20
$GPRMC,191212.290,A,3305.1464,N,11545.7955,W,53.194073,311.81,071210,,*2B
$GPRMC,191215.290,A,3305.1766,N,11545.8344,W,53.284398,312.40,071210,,*22
$GPRMC,191218.290,A,3305.2069,N,11545.8728,W,52.865591,312.48,071210,,*29
$GPRMC,191221.290,A,3305.2368,N,11545.9113,W,52.641398,312.35,071210,,*23
$GPRMC,191224.290,A,3305.2665,N,11545.9493,W,52.438676,312.81,071210,,*25
$GPRMC,191227.289,A,3305.2959,N,11545.9874,W,52.206310,311.95,071210,,*23
$GPRMC,191230.289,A,3305.3243,N,11546.0266,W,51.952011,309.58,071210,,*24
$GPRMC,191233.289,A,3305.3493,N,11546.0651,W,51.707485,306.64,071210,,*2B
$GPRMC,191236.289,A,3305.3742,N,11546.1082,W,51.684918,304.01,071210,,*2A
$GPRMC,191239.289,A,3305.3973,N,11546.1525,W,51.931408,300.83,071210,,*22
$GPRMC,191242.288,A,3305.4190,N,11546.1986,W,52.312714,298.20,071210,,*27
$GPRMC,191245.288,A,3305.4389,N,11546.2462,W,52.433001,295.13,071210,,*24
$GPRMC,191248.288,A,3305.4571,N,11546.2939,W,52.306372,294.20,071210,,*2C
$GPRMC,191251.288,A,3305.4750,N,11546.3412,W,52.264355,293.85,071210,,*28
$GPRMC,191254.288,A,3305.4929,N,11546.3884,W,52.379124,294.29,071210,,*26
$GPRMC,191257.288,A,3305.5109,N,11546.4357,W,52.495101,294.51,071210,,*21
$GPRMC,191300.287,A,3305.5293,N,11546.4830,W,52.500440,295.45,071210,,*2E
$GPRMC,191303.287,A,3305.5491,N,11546.5297,W,52.733604,297.98,071210,,*2D
$GPRMC,191306.287,A,3305.5704,N,11546.5761,W,52.832156,298.73,071210,,*2F
$GPRMC,191309.287,A,3305.5919,N,11546.6226,W,52.848196,298.85,071210,,*2F
$GPRMC,191312.287,A,3305.6136,N,11546.6689,W,52.745557,299.88,071210,,*25
$GPRMC,191315.286,A,3305.6354,N,11546.7146,W,52.540098,299.12,071210,,*22
$GPRMC,191318.286,A,3305.6569,N,11546.7602,W,52.333362,299.14,071210,,*22
$GPRMC,191321.286,A,3305.6783,N,11546.8057,W,52.482274,299.15,071210,,*2D
$GPRMC,191324.286,A,3305.6999,N,11546.8514,W,52.469450,299.51,071210,,*2A
$GPRMC,191327.286,A,3305.7213,N,11546.8970,W,52.442036,299.33,071210,,*26
$GPRMC,191330.285,A,3305.7426,N,11546.9425,W,52.345990,298.50,071210,,*2E
$GPRMC,191333.285,A,3305.7640,N,11546.9880,W,52.214968,299.58,071210,,*27
$GPRMC,191336.285,A,3305.7856,N,11547.0329,W,52.075310,299.42,071210,,*20
$GPRMC,191339.285,A,3305.8069,N,11547.0781,W,52.113385,299.20,071210,,*2B
$GPRMC,191342.285,A,3305.8282,N,11547.1233,W,52.219914,299.28,071210,,*2E
$GPRMC,191345.284,A,3305.8495,N,11547.1687,W,52.320450,299.17,071210,,*29
$GPRMC,191348.284,A,3305.8707,N,11547.2142,W,52.309609,298.92,071210,,*28
$GPRMC,191351.284,A,3305.8919,N,11547.2598,W,52.318064,299.02,071210,,*27
$GPRMC,191354.284,A,3305.9131,N,11547.3053,W,52.345770,298.96,071210,,*24
$GPRMC,191357.284,A,3305.9345,N,11547.3506,W,52.343454,299.12,071210,,*2D
$GPRMC,191400.283,A,3305.9560,N,11547.3959,W,52.454426,299.60,071210,,*29
$GPRMC,191403.283,A,3305.9776,N,11547.4412,W,52.468012,299.35,071210,,*26
$GPRMC,191406.283,A,3305.9992,N,11547.4865,W,52.655727,299.49,071210,,*2D
$GPRMC,191409.283,A,3306.0207,N,11547.5319,W,52.648444,298.89,071210,,*29
$GPRMC,191412.283,A,3306.0419,N,11547.5775,W,52.463682,299.08,071210,,*2F
$GPRMC,191415.283,A,3306.0630,N,11547.6233,W,52.317659,298.28,071210,,*24
$GPRMC,191418.282,A,3306.0832,N,11547.6697,W,52.073825,296.77,071210,,*2E
$GPRMC,191421.282,A,3306.1028,N,11547.7163,W,51.834728,296.96,071210,,*2E
$GPRMC,191424.282,A,3306.1222,N,11547.7624,W,51.900329,296.63,071210,,*2E
$GPRMC,191427.282,A,3306.1418,N,11547.8085,W,52.475897,297.00,071210,,*26
$GPRMC,191430.282,A,3306.1614,N,11547.8551,W,52.820041,296.60,071210,,*2A
$GPRMC,191433.281,A,3306.1808,N,11547.9021,W,52.744737,295.61,071210,,*23
$GPRMC,191436.281,A,3306.1984,N,11547.9499,W,52.599043,292.43,071210,,*25
$GPRMC,191439.281,A,3306.2139,N,11547.9987,W,52.640691,289.30,071210,,*25
$GPRMC,191442.281,A,3306.2269,N,11548.0487,W,53.025428,286.32,071210,,*2D
$GPRMC,191445.281,A,3306.2379,N,11548.0992,W,53.070463,283.40,071210,,*2C
$GPRMC,191448.280,A,3306.2460,N,11548.1506,W,53.029518,280.14,071210,,*2C
$GPRMC,191451.280,A,3306.2524,N,11548.2023,W,52.875636,278.08,071210,,*21
$GPRMC,191454.280,A,3306.2585,N,11548.2541,W,52.246542,277.98,071210,,*22
$GPRMC,191457.280,A,3306.2642,N,11548.3055,W,51.705893,277.51,071210,,*2D
$GPRMC,191500.280,A,3306.2695,N,11548.3568,W,51.569093,277.67,071210,,*2A
$GPRMC,191503.279,A,3306.2754,N,11548.4075,W,51.722251,278.24,071210,,*24
$GPRMC,191506.279,A,3306.2816,N,11548.4585,W,52.341434,278.25,071210,,*24
$GPRMC,191509.279,A,3306.2878,N,11548.5102,W,52.635875,277.65,071210,,*2D
$GPRMC,191512.279,A,3306.2937,N,11548.5620,W,52.716741,277.87,071210,,*2E
$GPRMC,191515.279,A,3306.2996,N,11548.6135,W,52.570118,277.35,071210,,*23
$GPRMC,191518.278,A,3306.3056,N,11548.6649,W,52.503529,278.05,071210,,*29
$GPRMC,191521.278,A,3306.3118,N,11548.7164,W,52.445365,277.77,071210,,*26
$GPRMC,191524.278,A,3306.3179,N,11548.7681,W,52.328811,277.98,071210,,*2D
$GPRMC,191527.278,A,3306.3238,N,11548.8196,W,52.177591,277.88,071210,,*2A
$GPRMC,191530.278,A,3306.3299,N,11548.8711,W,52.040036,277.71,071210,,*25
$GPRMC,191533.278,A,3306.3358,N,11548.9223,W,51.643219,277.69,071210,,*2F
$GPRMC,191536.277,A,3306.3416,N,11548.9732,W,51.907349,277.94,071210,,*24
$GPRMC,191539.277,A,3306.3477,N,11549.0245,W,52.517403,277.89,071210,,*2A
$GPRMC,191542.277,A,3306.3533,N,11549.0765,W,52.530518,277.31,071210,,*2D
$GPRMC,191545.277,A,3306.3593,N,11549.1283,W,52.359624,278.32,071210,,*25
$GPRMC,191548.277,A,3306.3652,N,11549.1800,W,52.184971,277.96,071210,,*2B
$GPRMC,191551.276,A,3306.3709,N,11549.2315,W,52.106500,277.38,071210,,*25
$GPRMC,191554.276,A,3306.3766,N,11549.2828,W,52.348739,277.92,071210,,*2C
$GPRMC,191557.276,A,3306.3828,N,11549.3339,W,52.520651,277.61,071210,,*2B
$GPRMC,191600.276,A,3306.3889,N,11549.3853,W,52.651952,277.71,071210,,*2E
$GPRMC,191603.276,A,3306.3949,N,11549.4370,W,52.419645,277.55,071210,,*2C
$GPRMC,191606.275,A,3306.4006,N,11549.4888,W,51.979064,277.58,071210,,*23
$GPRMC,191609.275,A,3306.4064,N,11549.5402,W,51.874539,277.85,071210,,*26
$GPRMC,191612.275,A,3306.4124,N,11549.5911,W,51.695152,278.13,071210,,*2E
$GPRMC,191615.275,A,3306.4191,N,11549.6419,W,51.606246,279.56,071210,,*2D
$GPRMC,191618.275,A,3306.4275,N,11549.6926,W,51.897176,282.72,071210,,*2C
$GPRMC,191621.274,A,3306.4379,N,11549.7435,W,52.352401,284.09,071210,,*2A
$GPRMC,191624.274,A,3306.4487,N,11549.7938,W,52.134538,283.92,071210,,*25
$GPRMC,191627.274,A,3306.4592,N,11549.8438,W,52.013302,283.81,071210,,*28
$GPRMC,191630.274,A,3306.4698,N,11549.8938,W,51.983567,283.89,071210,,*24
$GPRMC,191633.274,A,3306.4802,N,11549.9443,W,52.063195,284.17,071210,,*27
$GPRMC,191636.273,A,3306.4907,N,11549.9952,W,52.046734,283.92,071210,,*2C
$GPRMC,191639.273,A,3306.5011,N,11550.0458,W,52.188285,283.98,071210,,*2C
$GPRMC,191642.273,A,3306.5118,N,11550.0962,W,52.445283,284.14,071210,,*2D
$GPRMC,191645.273,A,3306.5225,N,11550.1464,W,52.787485,284.75,071210,,*27
$GPRMC,191648.273,A,3306.5351,N,11550.1962,W,53.178306,288.16,071210,,*21
$GPRMC,191651.273,A,3306.5506,N,11550.2450,W,53.242307,291.16,071210,,*21
$GPRMC,191654.272,A,3306.5682,N,11550.2936,W,53.399332,294.10,071210,,*25
$GPRMC,191657.272,A,3306.5882,N,11550.3416,W,53.653037,297.36,071210,,*24
$GPRMC,191700.272,A,3306.6099,N,11550.3886,W,53.494360,300.24,071210,,*27
$GPRMC,191703.272,A,3306.6334,N,11550.4330,W,52.620509,303.24,071210,,*27
$GPRMC,191706.272,A,3306.6587,N,11550.4750,W,52.078742,307.09,071210,,*23
$GPRMC,191709.271,A,3306.6858,N,11550.5151,W,51.960033,309.48,071210,,*2F
$GPRMC,191712.271,A,3306.7147,N,11550.5534,W,51.989967,313.05,071210,,*29
$GPRMC,191715.271,A,3306.7453,N,11550.5899,W,52.053821,315.26,071210,,*2D
$GPRMC,191718.271,A,3306.7770,N,11550.6252,W,52.064647,317.31,071210,,*22
$GPRMC,191721.271,A,3306.8089,N,11550.6602,W,52.267127,316.83,071210,,*2F
$GPRMC,191724.270,A,3306.8406,N,11550.6956,W,52.428557,316.94,071210,,*2E
$GPRMC,191727.270,A,3306.8726,N,11550.7311,W,52.437359,316.96,071210,,*20
$GPRMC,191730.270,A,3306.9043,N,11550.7667,W,52.477093,316.93,071210,,*23
$GPRMC,191733.270,A,3306.9363,N,11550.8024,W,52.636391,317.17,071210,,*24
$GPRMC,191736.270,A,3306.9687,N,11550.8379,W,52.697818,317.18,071210,,*2B
$GPRMC,191739.269,A,3307.0008,N,11550.8738,W,52.654839,316.32,071210,,*21
$GPRMC,191742.269,A,3307.0328,N,11550.9096,W,52.504262,316.93,071210,,*27
$GPRMC,191745.269,A,3307.0639,N,11550.9437,W,48.104490,317.43,071210,,*22
$GPRMC,191748.269,A,3307.0916,N,11550.9742,W,43.164051,316.93,071210,,*24
$GPRMC,191751.269,A,3307.1170,N,11551.0021,W,40.225264,317.51,071210,,*21
$GPRMC,191754.268,A,3307.1408,N,11551.0272,W,36.608654,318.71,071210,,*2B
$GPRMC,191757.268,A,3307.1632,N,11551.0500,W,34.558976,320.29,071210,,*2C
$GPRMC,191800.268,A,3307.1857,N,11551.0709,W,33.585905,322.34,071210,,*2A
$GPRMC,191803.268,A,3307.2079,N,11551.0910,W,32.588563,322.42,071210,,*29
$GPRMC,191806.268,A,3307.2298,N,11551.1100,W,32.012515,323.84,071210,,*25
$GPRMC,191809.268,A,3307.2519,N,11551.1282,W,31.779986,325.47,071210,,*2B
$GPRMC,191812.267,A,3307.2737,N,11551.1451,W,30.047977,326.91,071210,,*25
$GPRMC,191815.267,A,3307.2942,N,11551.1606,W,27.620065,327.92,071210,,*27
$GPRMC,191818.267,A,3307.3131,N,11551.1743,W,25.622071,329.25,071210,,*20
$GPRMC,191821.267,A,3307.3309,N,11551.1868,W,24.411906,330.08,071210,,*28
$GPRMC,191824.267,A,3307.3477,N,11551.1984,W,23.161027,330.92,071210,,*2C
$GPRMC,191827.266,A,3307.3637,N,11551.2094,W,21.908710,331.36,071210,,*2A
$GPRMC,191830.266,A,3307.3793,N,11551.2194,W,20.889510,332.45,071210,,*2E
$GPRMC,191833.266,A,3307.3943,N,11551.2283,W,19.997939,333.24,071210,,*2E
$GPRMC,191836.266,A,3307.4087,N,11551.2365,W,19.104961,333.92,071210,,*26
$GPRMC,191839.266,A,3307.4226,N,11551.2445,W,18.340238,334.39,071210,,*27
$GPRMC,191842.265,A,3307.4359,N,11551.2519,W,17.303111,334.77,071210,,*23
$GPRMC,191845.265,A,3307.4484,N,11551.2586,W,15.833636,335.95,071210,,*20
$GPRMC,191848.265,A,3307.4605,N,11551.2650,W,15.166622,336.44,071210,,*2D
$GPRMC,191851.265,A,3307.4723,N,11551.2710,W,13.872632,339.93,071210,,*2B
$GPRMC,191854.265,A,3307.4829,N,11551.2750,W,12.215711,345.47,071210,,*27
$GPRMC,191857.264,A,3307.4914,N,11551.2770,W,9.202048,349.41,071210,,*15
$GPRMC,191900.264,A,3307.4981,N,11551.2785,W,7.120847,348.94,071210,,*13
$GPRMC,191903.264,A,3307.5027,N,11551.2795,W,4.981537,346.99,071210,,*1C
$GPRMC,191948.261,A,3307.5176,N,11551.2846,W,7.607510,344.77,071210,,*17
$GPRMC,191951.261,A,3307.5255,N,11551.2885,W,10.716055,334.68,071210,,*28
$GPRMC,191954.261,A,3307.5352,N,11551.2949,W,12.780981,326.28,071210,,*20
$GPRMC,191957.261,A,3307.5459,N,11551.3033,W,15.188496,327.06,071210,,*25
$GPRMC,192000.260,A,3307.5590,N,11551.3120,W,18.607778,334.55,071210,,*21
$GPRMC,192003.260,A,3307.5759,N,11551.3199,W,21.692821,338.88,071210,,*2E
$GPRMC,192006.260,A,3307.5952,N,11551.3280,W,25.240907,340.82,071210,,*2A
$GPRMC,192009.260,A,3307.6178,N,11551.3373,W,30.072260,340.66,071210,,*2C
$GPRMC,192012.260,A,3307.6440,N,11551.3487,W,34.446665,338.24,071210,,*2B
$GPRMC,192015.259,A,3307.6730,N,11551.3629,W,38.121226,337.84,071210,,*2A
$GPRMC,192018.259,A,3307.7049,N,11551.3769,W,41.832958,340.13,071210,,*23
$GPRMC,192021.259,A,3307.7397,N,11551.3916,W,44.988234,340.33,071210,,*29
$GPRMC,192024.259,A,3307.7772,N,11551.4072,W,48.275251,340.98,071210,,*28
$GPRMC,192027.259,A,3307.8169,N,11551.4228,W,50.504800,341.75,071210,,*21
$GPRMC,192030.258,A,3307.8578,N,11551.4394,W,51.968774,340.40,071210,,*28
$GPRMC,192033.258,A,3307.8991,N,11551.4574,W,52.486353,340.14,071210,,*26
$GPRMC,192036.258,A,3307.9405,N,11551.4756,W,52.206249,340.33,071210,,*21
$GPRMC,192039.258,A,3307.9817,N,11551.4934,W,51.726430,339.90,071210,,*20
$GPRMC,192042.258,A,3308.0226,N,11551.5110,W,51.545743,339.94,071210,,*29
$GPRMC,192045.258,A,3308.0633,N,11551.5284,W,51.579136,340.46,071210,,*2A
$GPRMC,192048.257,A,3308.1040,N,11551.5457,W,51.879223,340.10,071210,,*2A
$GPRMC,192051.257,A,3308.1453,N,11551.5638,W,52.721392,340.18,071210,,*2D
$GPRMC,192054.257,A,3308.1868,N,11551.5824,W,53.070437,339.99,071210,,*22
$GPRMC,192057.257,A,3308.2285,N,11551.6008,W,53.040545,340.16,071210,,*20
$GPRMC,192100.257,A,3308.2700,N,11551.6190,W,53.042998,340.22,071210,,*22
$GPRMC,192103.256,A,3308.3115,N,11551.6370,W,53.038836,340.00,071210,,*27
$GPRMC,192106.256,A,3308.3529,N,11551.6549,W,52.830024,340.11,071210,,*2F
$GPRMC,192109.256,A,3308.3944,N,11551.6725,W,52.879174,340.44,071210,,*26
$GPRMC,192112.256,A,3308.4359,N,11551.6898,W,52.745620,340.13,071210,,*20
$GPRMC,192115.256,A,3308.4769,N,11551.7075,W,52.213495,340.16,071210,,*25
$GPRMC,192118.255,A,3308.5177,N,11551.7250,W,51.825637,340.30,071210,,*24
$GPRMC,192121.255,A,3308.5583,N,11551.7426,W,51.479474,339.97,071210,,*25
$GPRMC,192124.255,A,3308.5991,N,11551.7605,W,52.270183,339.75,071210,,*21
$GPRMC,192127.255,A,3308.6402,N,11551.7784,W,52.484760,340.57,071210,,*26
$GPRMC,192130.255,A,3308.6814,N,11551.7963,W,52.629044,339.99,071210,,*24
$GPRMC,192133.254,A,3308.7226,N,11551.8140,W,52.359982,340.09,071210,,*2C
$GPRMC,192136.254,A,3308.7637,N,11551.8317,W,52.036740,340.14,071210,,*2B
$GPRMC,192139.254,A,3308.8049,N,11551.8495,W,52.115388,340.01,071210,,*2D
$GPRMC,192142.254,A,3308.8459,N,11551.8673,W,51.734651,340.54,071210,,*29
$GPRMC,192145.254,A,3308.8865,N,11551.8843,W,51.768356,340.06,071210,,*2C
$GPRMC,192148.253,A,3308.9273,N,11551.9022,W,52.436371,339.87,071210,,*2D
$GPRMC,192151.253,A,3308.9685,N,11551.9198,W,52.038085,339.98,071210,,*24
$GPRMC,192154.253,A,3309.0095,N,11551.9375,W,51.700737,340.22,071210,,*21
$GPRMC,192157.253,A,3309.0504,N,11551.9543,W,51.432338,340.23,071210,,*24
$GPRMC,192200.253,A,3309.0911,N,11551.9717,W,51.536105,340.23,071210,,*27
$GPRMC,192203.253,A,3309.1319,N,11551.9888,W,51.594487,340.15,071210,,*2C
$GPRMC,192206.252,A,3309.1727,N,11552.0067,W,52.253300,339.94,071210,,*22
$GPRMC,192209.252,A,3309.2138,N,11552.0246,W,52.855096,340.18,071210,,*2D
$GPRMC,192212.252,A,3309.2553,N,11552.0427,W,53.026336,339.89,071210,,*2D
$GPRMC,192215.252,A,3309.2966,N,11552.0610,W,52.676024,340.01,071210,,*2A
$GPRMC,192218.252,A,3309.3376,N,11552.0785,W,52.039145,340.22,071210,,*2A
$GPRMC,192221.251,A,3309.3783,N,11552.0958,W,51.530754,339.54,071210,,*25
$GPRMC,192224.251,A,3309.4189,N,11552.1134,W,51.685379,340.02,071210,,*23
$GPRMC,192227.251,A,3309.4596,N,11552.1307,W,52.354639,340.24,071210,,*27
$GPRMC,192230.251,A,3309.5006,N,11552.1486,W,52.779693,339.88,071210,,*21
$GPRMC,192233.251,A,3309.5418,N,11552.1669,W,52.849010,339.87,071210,,*24
$GPRMC,192236.250,A,3309.5832,N,11552.1846,W,52.740738,340.02,071210,,*2F
$GPRMC,192239.250,A,3309.6244,N,11552.2023,W,51.960969,339.90,071210,,*20
$GPRMC,192242.250,A,3309.6653,N,11552.2199,W,51.373233,340.08,071210,,*2D
$GPRMC,192245.250,A,3309.7061,N,11552.2373,W,51.857857,340.12,071210,,*24
$GPRMC,192248.250,A,3309.7470,N,11552.2550,W,52.327317,340.14,071210,,*2C
$GPRMC,192251.249,A,3309.7878,N,11552.2730,W,52.748861,340.74,071210,,*2D
$GPRMC,192254.249,A,3309.8288,N,11552.2907,W,52.528955,339.88,071210,,*27
$GPRMC,192257.249,A,3309.8696,N,11552.3094,W,52.335522,337.89,071210,,*24
$GPRMC,192300.249,A,3309.9089,N,11552.3321,W,52.299231,330.44,071210,,*27
$GPRMC,192303.249,A,3309.9457,N,11552.3609,W,52.553820,323.88,071210,,*25
$GPRMC,192306.248,A,3309.9787,N,11552.3955,W,52.584643,314.92,071210,,*27
$GPRMC,192309.248,A,3310.0077,N,11552.4349,W,52.195192,310.70,071210,,*26
$GPRMC,192312.248,A,3310.0351,N,11552.4752,W,51.888478,309.98,071210,,*2C
$GPRMC,192315.248,A,3310.0624,N,11552.5153,W,51.706082,309.58,071210,,*2E
$GPRMC,192318.248,A,3310.0894,N,11552.5554,W,51.611168,310.03,071210,,*21
$GPRMC,192321.247,A,3310.1169,N,11552.5951,W,51.929476,309.79,071210,,*2C
$GPRMC,192324.247,A,3310.1447,N,11552.6345,W,51.994965,310.65,071210,,*20
$GPRMC,192327.247,A,3310.1725,N,11552.6743,W,52.159310,309.86,071210,,*21
$GPRMC,192330.247,A,3310.2001,N,11552.7144,W,52.296997,309.42,071210,,*28
$GPRMC,192333.247,A,3310.2280,N,11552.7545,W,52.384563,310.31,071210,,*2C
$GPRMC,192336.247,A,3310.2560,N,11552.7942,W,51.861863,309.67,071210,,*2E
$GPRMC,192339.246,A,3310.2838,N,11552.8338,W,51.958889,310.08,071210,,*26
$GPRMC,192342.246,A,3310.3115,N,11552.8732,W,51.642735,309.85,071210,,*22
$GPRMC,192345.246,A,3310.3391,N,11552.9124,W,51.241733,309.92,071210,,*2C
$GPRMC,192348.246,A,3310.3668,N,11552.9515,W,51.392392,310.07,071210,,*20
$GPRMC,192351.246,A,3310.3944,N,11552.9910,W,51.864157,309.84,071210,,*2A
$GPRMC,192354.245,A,3310.4225,N,11553.0312,W,52.589294,309.86,071210,,*24
$GPRMC,192357.245,A,3310.4509,N,11553.0715,W,53.143883,309.69,071210,,*23
$GPRMC,192400.245,A,3310.4794,N,11553.1119,W,53.096407,309.70,071210,,*2A
$GPRMC,192403.245,A,3310.5079,N,11553.1522,W,52.795882,310.07,071210,,*2C
$GPRMC,192406.245,A,3310.5361,N,11553.1924,W,52.423414,310.09,071210,,*2A
$GPRMC,192409.244,A,3310.5642,N,11553.2325,W,52.409006,309.89,071210,,*27
$GPRMC,192412.244,A,3310.5922,N,11553.2722,W,52.258822,309.88,071210,,*2A
$GPRMC,192415.244,A,3310.6202,N,11553.3119,W,52.096534,309.61,071210,,*25
$GPRMC,192418.244,A,3310.6480,N,11553.3516,W,51.916021,309.98,071210,,*2A
$GPRMC,192421.244,A,3310.6762,N,11553.3911,W,52.054915,310.37,071210,,*2B
$GPRMC,192424.243,A,3310.7043,N,11553.4309,W,52.157220,309.82,071210,,*21
$GPRMC,192427.243,A,3310.7324,N,11553.4709,W,52.205913,309.87,071210,,*2E
$GPRMC,192430.243,A,3310.7601,N,11553.5108,W,52.263247,309.72,071210,,*2C
$GPRMC,192433.243,A,3310.7882,N,11553.5507,W,52.423873,309.88,071210,,*2B
$GPRMC,192436.243,A,3310.8162,N,11553.5909,W,52.532485,309.91,071210,,*28
$GPRMC,192439.242,A,3310.8444,N,11553.6310,W,52.472820,310.06,071210,,*26
$GPRMC,192442.242,A,3310.8726,N,11553.6712,W,52.536800,309.48,071210,,*2A
$GPRMC,192445.242,A,3310.9005,N,11553.7115,W,52.568973,309.77,071210,,*28
$GPRMC,192448.242,A,3310.9285,N,11553.7516,W,52.453311,309.81,071210,,*26
$GPRMC,192451.242,A,3310.9568,N,11553.7917,W,52.502939,309.76,071210,,*2A
$GPRMC,192454.242,A,3310.9851,N,11553.8318,W,52.308031,310.28,071210,,*2C
$GPRMC,192457.241,A,3311.0134,N,11553.8720,W,52.368922,309.04,071210,,*2A
$GPRMC,192500.241,A,3311.0413,N,11553.9122,W,52.404414,309.92,071210,,*26
$GPRMC,192503.241,A,3311.0692,N,11553.9521,W,52.354415,309.91,071210,,*29
$GPRMC,192506.241,A,3311.0973,N,11553.9919,W,52.354828,310.12,071210,,*2A
$GPRMC,192509.241,A,3311.1251,N,11554.0319,W,52.360918,309.99,071210,,*25
$GPRMC,192512.240,A,3311.1529,N,11554.0721,W,52.370441,309.89,071210,,*28
$GPRMC,192515.240,A,3311.1811,N,11554.1123,W,52.468885,309.58,071210,,*2A
$GPRMC,192518.240,A,3311.2100,N,11554.1520,W,52.386583,312.04,071210,,*25
$GPRMC,192521.240,A,3311.2408,N,11554.1896,W,52.427131,314.85,071210,,*2C
$GPRMC,192524.240,A,3311.2732,N,11554.2253,W,52.450115,318.02,071210,,*26
$GPRMC,192527.239,A,3311.3073,N,11554.2587,W,52.549387,321.63,071210,,*2B
$GPRMC,192530.239,A,3311.3428,N,11554.2894,W,52.591755,324.35,071210,,*20
$GPRMC,192533.239,A,3311.3795,N,11554.3182,W,52.672045,327.51,071210,,*20
$GPRMC,192536.239,A,3311.4171,N,11554.3452,W,52.515934,330.30,071210,,*2A
$GPRMC,192539.239,A,3311.4560,N,11554.3693,W,52.426447,333.99,071210,,*26
$GPRMC,192542.238,A,3311.4958,N,11554.3909,W,52.573735,336.67,071210,,*23
$GPRMC,192545.238,A,3311.5364,N,11554.4105,W,52.709862,339.04,071210,,*2B
$GPRMC,192548.238,A,3311.5780,N,11554.4281,W,52.855173,339.94,071210,,*21
$GPRMC,192551.238,A,3311.6198,N,11554.4459,W,53.083758,339.92,071210,,*2D
$GPRMC,192554.238,A,3311.6616,N,11554.4639,W,53.074465,339.51,071210,,*27
$GPRMC,192557.237,A,3311.7035,N,11554.4819,W,53.322016,340.07,071210,,*2C
$GPRMC,192600.237,A,3311.7456,N,11554.4996,W,53.338245,339.94,071210,,*21
$GPRMC,192603.237,A,3311.7874,N,11554.5176,W,52.981118,339.80,071210,,*2E
$GPRMC,192606.237,A,3311.8290,N,11554.5360,W,52.756699,339.69,071210,,*2C
$GPRMC,192609.237,A,3311.8704,N,11554.5545,W,52.519411,339.60,071210,,*28
$GPRMC,192612.236,A,3311.9115,N,11554.5727,W,52.223460,340.05,071210,,*27
$GPRMC,192615.236,A,3311.9526,N,11554.5907,W,52.473106,339.88,071210,,*25
$GPRMC,192618.236,A,3311.9938,N,11554.6088,W,52.693901,339.46,071210,,*27
$GPRMC,192621.236,A,3312.0351,N,11554.6269,W,53.064586,340.04,071210,,*2B
$GPRMC,192624.236,A,3312.0768,N,11554.6447,W,53.285838,339.91,071210,,*2D
$GPRMC,192627.236,A,3312.1185,N,11554.6632,W,53.121633,339.44,071210,,*2A
$GPRMC,192630.235,A,3312.1601,N,11554.6819,W,53.095402,339.61,071210,,*2A
$GPRMC,192633.235,A,3312.2015,N,11554.7005,W,52.975544,339.76,071210,,*2E
$GPRMC,192636.235,A,3312.2430,N,11554.7185,W,53.031625,339.96,071210,,*23
$GPRMC,192639.235,A,3312.2844,N,11554.7369,W,53.009413,339.70,071210,,*27
$GPRMC,192642.235,A,3312.3258,N,11554.7554,W,52.889391,339.68,071210,,*20
$GPRMC,192645.234,A,3312.3672,N,11554.7741,W,52.681415,339.79,071210,,*21
$GPRMC,192648.234,A,3312.4084,N,11554.7921,W,52.508329,339.97,071210,,*26
$GPRMC,192651.234,A,3312.4494,N,11554.8102,W,52.146131,339.90,071210,,*2F
$GPRMC,192654.234,A,3312.4901,N,11554.8283,W,51.836121,339.78,071210,,*2B
$GPRMC,192657.234,A,3312.5310,N,11554.8461,W,52.320524,339.95,071210,,*24
$GPRMC,192700.233,A,3312.5723,N,11554.8638,W,52.780048,339.81,071210,,*2E
$GPRMC,192703.233,A,3312.6137,N,11554.8818,W,52.973099,339.84,071210,,*2A
$GPRMC,192706.233,A,3312.6551,N,11554.9002,W,52.685188,339.45,071210,,*23
$GPRMC,192709.233,A,3312.6962,N,11554.9191,W,52.549126,339.64,071210,,*2F
$GPRMC,192712.233,A,3312.7374,N,11554.9374,W,52.505388,339.94,071210,,*21
$GPRMC,192715.232,A,3312.7786,N,11554.9555,W,52.497752,339.82,071210,,*25
$GPRMC,192718.232,A,3312.8198,N,11554.9735,W,52.579152,339.77,071210,,*27
$GPRMC,192721.232,A,3312.8611,N,11554.9914,W,52.605165,339.97,071210,,*24
$GPRMC,192724.232,A,3312.9022,N,11555.0096,W,52.515957,339.73,071210,,*2C
$GPRMC,192727.232,A,3312.9431,N,11555.0277,W,52.331578,339.52,071210,,*26
$GPRMC,192730.231,A,3312.9839,N,11555.0459,W,52.108498,339.75,071210,,*2F
$GPRMC,192733.231,A,3313.0248,N,11555.0640,W,52.154541,339.72,071210,,*29
$GPRMC,192736.231,A,3313.0657,N,11555.0822,W,52.234506,339.80,071210,,*27
$GPRMC,192739.231,A,3313.1067,N,11555.1001,W,52.081137,340.16,071210,,*2F
$GPRMC,192742.231,A,3313.1475,N,11555.1181,W,52.094087,339.70,071210,,*2D
$GPRMC,192745.230,A,3313.1884,N,11555.1363,W,52.452051,339.86,071210,,*2B
$GPRMC,192748.230,A,3313.2297,N,11555.1544,W,52.624697,339.73,071210,,*2B
$GPRMC,192751.230,A,3313.2711,N,11555.1723,W,52.759975,339.72,071210,,*22
$GPRMC,192754.230,A,3313.3125,N,11555.1904,W,52.636963,339.55,071210,,*26
$GPRMC,192757.230,A,3313.3538,N,11555.2082,W,52.755846,340.16,071210,,*22
$GPRMC,192800.230,A,3313.3952,N,11555.2262,W,52.504716,339.99,071210,,*26
$GPRMC,192803.229,A,3313.4362,N,11555.2448,W,52.440692,339.33,071210,,*21
$GPRMC,192806.229,A,3313.4772,N,11555.2632,W,52.582416,339.61,071210,,*28
$GPRMC,192809.229,A,3313.5180,N,11555.2820,W,52.602382,337.85,071210,,*25
$GPRMC,192812.229,A,3313.5573,N,11555.3049,W,52.633004,330.14,071210,,*21
$GPRMC,192815.229,A,3313.5939,N,11555.3339,W,52.776458,322.78,071210,,*24
$GPRMC,192818.228,A,3313.6281,N,11555.3674,W,52.760896,319.53,071210,,*27
$GPRMC,192821.228,A,3313.6614,N,11555.4016,W,52.503224,319.65,071210,,*21
$GPRMC,192824.228,A,3313.6950,N,11555.4356,W,52.523908,319.53,071210,,*2E
$GPRMC,192827.228,A,3313.7284,N,11555.4695,W,52.080546,319.87,071210,,*27
$GPRMC,192830.228,A,3313.7618,N,11555.5032,W,51.978129,319.82,071210,,*2F
$GPRMC,192833.227,A,3313.7949,N,11555.5367,W,51.980595,319.77,071210,,*25
$GPRMC,192836.227,A,3313.8282,N,11555.5701,W,52.184513,319.65,071210,,*25
$GPRMC,192839.227,A,3313.8614,N,11555.6036,W,52.104947,319.85,071210,,*2A
$GPRMC,192842.227,A,3313.8948,N,11555.6371,W,52.263648,319.68,071210,,*21
$GPRMC,192845.227,A,3313.9284,N,11555.6710,W,52.436099,319.52,071210,,*2A
$GPRMC,192848.226,A,3313.9621,N,11555.7048,W,52.512053,319.71,071210,,*26
$GPRMC,192851.226,A,3313.9957,N,11555.7386,W,52.483604,319.90,071210,,*23
$GPRMC,192854.226,A,3314.0293,N,11555.7724,W,52.539664,319.71,071210,,*2E
$GPRMC,192857.226,A,3314.0627,N,11555.8064,W,52.442694,319.52,071210,,*29
$GPRMC,192900.226,A,3314.0961,N,11555.8403,W,52.619667,319.53,071210,,*23
$GPRMC,192903.225,A,3314.1300,N,11555.8740,W,52.902288,320.87,071210,,*28
$GPRMC,192906.225,A,3314.1651,N,11555.9061,W,52.779935,323.87,071210,,*25
$GPRMC,192909.225,A,3314.2017,N,11555.9360,W,52.940457,327.14,071210,,*2C
$GPRMC,192912.225,A,3314.2393,N,11555.9643,W,53.076969,328.00,071210,,*2A
$GPRMC,192915.225,A,3314.2768,N,11555.9923,W,52.879245,328.06,071210,,*21
$GPRMC,192918.224,A,3314.3140,N,11556.0199,W,52.472986,328.22,071210,,*26
$GPRMC,192921.224,A,3314.3513,N,11556.0474,W,52.309124,328.04,071210,,*27
$GPRMC,192924.224,A,3314.3884,N,11556.0749,W,52.407636,328.04,071210,,*21
$GPRMC,192927.224,A,3314.4258,N,11556.1025,W,52.532169,328.08,071210,,*24
$GPRMC,192930.224,A,3314.4632,N,11556.1304,W,52.735494,328.14,071210,,*25
$GPRMC,192933.224,A,3314.5005,N,11556.1579,W,52.495781,328.20,071210,,*20
$GPRMC,192936.223,A,3314.5375,N,11556.1856,W,52.116625,327.54,071210,,*2B
$GPRMC,192939.223,A,3314.5740,N,11556.2131,W,51.734181,327.09,071210,,*29
$GPRMC,192942.223,A,3314.6099,N,11556.2413,W,51.855828,326.23,071210,,*2B
$GPRMC,192945.223,A,3314.6458,N,11556.2700,W,51.949346,326.52,071210,,*2D
$GPRMC,192948.223,A,3314.6819,N,11556.2989,W,52.060309,326.00,071210,,*2B
$GPRMC,192951.222,A,3314.7180,N,11556.3280,W,51.948467,326.22,071210,,*26
$GPRMC,192954.222,A,3314.7544,N,11556.3566,W,52.173047,326.63,071210,,*20
$GPRMC,192957.222,A,3314.7911,N,11556.3851,W,52.478441,327.19,071210,,*26
$GPRMC,193000.222,A,3314.8284,N,11556.4129,W,52.487789,327.99,071210,,*2A
$GPRMC,193003.222,A,3314.8657,N,11556.4407,W,52.451771,328.02,071210,,*2B
$GPRMC,193006.221,A,3314.9031,N,11556.4681,W,52.491227,328.34,071210,,*29
$GPRMC,193009.221,A,3314.9404,N,11556.4956,W,52.305437,327.88,071210,,*24
$GPRMC,193012.221,A,3314.9775,N,11556.5229,W,52.307777,328.40,071210,,*27
$GPRMC,193015.221,A,3315.0146,N,11556.5506,W,52.295672,327.99,071210,,*21
$GPRMC,193018.221,A,3315.0517,N,11556.5786,W,52.384963,327.92,071210,,*23
$GPRMC,193021.220,A,3315.0887,N,11556.6064,W,52.353364,328.35,071210,,*21
$GPRMC,193024.220,A,3315.1260,N,11556.6340,W,52.431846,327.85,071210,,*2F
$GPRMC,193027.220,A,3315.1636,N,11556.6621,W,52.390579,328.20,071210,,*24
$GPRMC,193030.220,A,3315.2010,N,11556.6900,W,52.517276,328.16,071210,,*2B
$GPRMC,193033.220,A,3315.2381,N,11556.7175,W,52.410688,328.09,071210,,*25
$GPRMC,193036.219,A,3315.2752,N,11556.7450,W,52.348214,328.15,071210,,*24
$GPRMC,193039.219,A,3315.3126,N,11556.7727,W,52.567087,328.29,071210,,*20
$GPRMC,193042.219,A,3315.3497,N,11556.8005,W,52.418092,327.97,071210,,*2C
$GPRMC,193045.219,A,3315.3869,N,11556.8283,W,52.255407,328.11,071210,,*2C
$GPRMC,193048.219,A,3315.4239,N,11556.8556,W,51.875807,328.42,071210,,*27
$GPRMC,193051.218,A,3315.4609,N,11556.8827,W,51.694549,328.23,071210,,*23
$GPRMC,193054.218,A,3315.4979,N,11556.9101,W,52.043657,328.18,071210,,*29
$GPRMC,193057.218,A,3315.5353,N,11556.9384,W,52.565956,328.07,071210,,*27
$GPRMC,193100.218,A,3315.5729,N,11556.9662,W,52.888613,328.33,071210,,*27
$GPRMC,193103.218,A,3315.6102,N,11556.9933,W,52.584414,327.93,071210,,*22
$GPRMC,193106.218,A,3315.6469,N,11557.0195,W,52.268358,327.94,071210,,*2E
$GPRMC,193109.217,A,3315.6837,N,11557.0466,W,52.320016,328.21,071210,,*25
$GPRMC,193112.217,A,3315.7210,N,11557.0743,W,52.379560,328.15,071210,,*2A
$GPRMC,193115.217,A,3315.7579,N,11557.1025,W,52.049424,327.66,071210,,*29
$GPRMC,193118.217,A,3315.7946,N,11557.1309,W,51.898773,327.47,071210,,*2C
$GPRMC,193121.217,A,3315.8312,N,11557.1591,W,51.670274,327.29,071210,,*27
$GPRMC,193124.216,A,3315.8680,N,11557.1872,W,51.890705,327.73,071210,,*21
$GPRMC,193127.216,A,3315.9047,N,11557.2151,W,52.084517,327.35,071210,,*28
$GPRMC,193130.216,A,3315.9415,N,11557.2430,W,52.136819,327.41,071210,,*27
$GPRMC,193133.216,A,3315.9783,N,11557.2713,W,52.255819,327.16,071210,,*2E
$GPRMC,193136.216,A,3316.0153,N,11557.2997,W,52.310555,327.66,071210,,*2A
$GPRMC,193139.215,A,3316.0522,N,11557.3271,W,52.081477,328.03,071210,,*20
$GPRMC,193142.215,A,3316.0888,N,11557.3544,W,51.962015,327.55,071210,,*2B
$GPRMC,193145.215,A,3316.1257,N,11557.3815,W,52.207625,328.59,071210,,*21
$GPRMC,193148.215,A,3316.1629,N,11557.4089,W,52.362404,327.89,071210,,*2A
$GPRMC,193151.215,A,3316.1999,N,11557.4369,W,52.106073,328.15,071210,,*25
$GPRMC,193154.214,A,3316.2365,N,11557.4648,W,51.906305,327.80,071210,,*27
$GPRMC,193157.214,A,3316.2733,N,11557.4923,W,51.785449,328.37,071210,,*28
$GPRMC,193200.214,A,3316.3102,N,11557.5193,W,52.435317,328.36,071210,,*28
$GPRMC,193203.214,A,3316.3474,N,11557.5463,W,52.225272,328.12,071210,,*26
$GPRMC,193206.214,A,3316.3844,N,11557.5735,W,52.057948,327.94,071210,,*28
$GPRMC,193209.213,A,3316.4215,N,11557.6012,W,52.144262,327.71,071210,,*23
$GPRMC,193212.213,A,3316.4579,N,11557.6290,W,49.979769,328.25,071210,,*20
$GPRMC,193215.213,A,3316.4923,N,11557.6551,W,46.683763,328.11,071210,,*26
$GPRMC,193218.213,A,3316.5240,N,11557.6796,W,43.824573,325.66,071210,,*25
$GPRMC,193221.213,A,3316.5537,N,11557.7028,W,40.869714,327.66,071210,,*20
$GPRMC,193224.212,A,3316.5821,N,11557.7236,W,39.121768,328.21,071210,,*2F
$GPRMC,193227.212,A,3316.6099,N,11557.7442,W,39.518644,328.05,071210,,*26
$GPRMC,193230.212,A,3316.6382,N,11557.7656,W,40.669845,327.88,071210,,*20
$GPRMC,193233.212,A,3316.6666,N,11557.7867,W,40.081661,328.38,071210,,*2C
$GPRMC,193236.212,A,3316.6954,N,11557.8077,W,41.489791,329.00,071210,,*28
$GPRMC,193239.211,A,3316.7257,N,11557.8300,W,44.227159,327.76,071210,,*24
$GPRMC,193242.211,A,3316.7581,N,11557.8545,W,47.101740,328.01,071210,,*26
$GPRMC,193245.211,A,3316.7928,N,11557.8797,W,49.755434,329.50,071210,,*2F
$GPRMC,193248.211,A,3316.8298,N,11557.9050,W,51.722975,329.67,071210,,*25
$GPRMC,193251.211,A,3316.8673,N,11557.9322,W,52.521782,328.13,071210,,*2C
$GPRMC,193254.211,A,3316.9048,N,11557.9602,W,52.836426,328.30,071210,,*26
$GPRMC,193257.210,A,3316.9425,N,11557.9882,W,52.942801,328.17,071210,,*23
$GPRMC,193300.210,A,3316.9799,N,11558.0163,W,52.577809,328.04,071210,,*24
$GPRMC,193303.210,A,3317.0170,N,11558.0440,W,52.194432,328.23,071210,,*22
$GPRMC,193306.210,A,3317.0539,N,11558.0718,W,52.116371,328.20,071210,,*29
$GPRMC,193309.210,A,3317.0908,N,11558.0996,W,52.178448,327.93,071210,,*22
$GPRMC,193312.209,A,3317.1279,N,11558.1273,W,52.134268,327.92,071210,,*20
$GPRMC,193315.209,A,3317.1649,N,11558.1548,W,52.121152,328.03,071210,,*26
$GPRMC,193318.209,A,3317.2018,N,11558.1825,W,52.167621,328.09,071210,,*27
$GPRMC,193321.209,A,3317.2388,N,11558.2100,W,52.192379,328.01,071210,,*20
$GPRMC,193324.209,A,3317.2758,N,11558.2371,W,52.070422,328.12,071210,,*2E
$GPRMC,193327.208,A,3317.3127,N,11558.2642,W,51.785736,328.32,071210,,*2C
$GPRMC,193330.208,A,3317.3496,N,11558.2912,W,51.806581,328.21,071210,,*27
$GPRMC,193333.208,A,3317.3865,N,11558.3185,W,51.998498,328.16,071210,,*28
$GPRMC,193336.208,A,3317.4236,N,11558.3461,W,52.141381,327.98,071210,,*20
$GPRMC,193339.208,A,3317.4609,N,11558.3736,W,52.299499,327.94,071210,,*22
$GPRMC,193342.207,A,3317.4984,N,11558.4010,W,52.747624,328.32,071210,,*2E
$GPRMC,193345.207,A,3317.5357,N,11558.4288,W,52.882786,327.90,071210,,*27
$GPRMC,193348.207,A,3317.5730,N,11558.4567,W,52.908627,328.10,071210,,*27
$GPRMC,193351.207,A,3317.6104,N,11558.4845,W,52.798681,328.20,071210,,*28
$GPRMC,193354.207,A,3317.6475,N,11558.5123,W,52.494090,327.86,071210,,*2C
$GPRMC,193357.206,A,3317.6846,N,11558.5402,W,52.533505,328.03,071210,,*23
$GPRMC,193400.206,A,3317.7217,N,11558.5678,W,52.393285,328.37,071210,,*22
$GPRMC,193403.206,A,3317.7588,N,11558.5953,W,52.053128,328.13,071210,,*2B
$GPRMC,193406.206,A,3317.7957,N,11558.6226,W,51.983532,328.22,071210,,*20
$GPRMC,193409.206,A,3317.8328,N,11558.6499,W,52.037976,327.81,071210,,*2F
$GPRMC,193412.205,A,3317.8697,N,11558.6774,W,52.191986,328.03,071210,,*20
$GPRMC,193415.205,A,3317.9069,N,11558.7049,W,52.283258,328.34,071210,,*25
$GPRMC,193418.205,A,3317.9440,N,11558.7325,W,52.262462,327.76,071210,,*27
$GPRMC,193421.205,A,3317.9811,N,11558.7601,W,52.188186,328.11,071210,,*20
$GPRMC,193424.205,A,3318.0181,N,11558.7876,W,52.326634,328.19,071210,,*2D
$GPRMC,193427.205,A,3318.0553,N,11558.8155,W,52.420380,327.99,071210,,*2E
$GPRMC,193430.204,A,3318.0927,N,11558.8430,W,52.364922,328.04,071210,,*2E
$GPRMC,193433.204,A,3318.1300,N,11558.8705,W,52.395422,328.07,071210,,*26
$GPRMC,193436.204,A,3318.1673,N,11558.8979,W,52.567477,327.93,071210,,*2E
$GPRMC,193439.204,A,3318.2047,N,11558.9258,W,52.859227,328.11,071210,,*2C
$GPRMC,193442.204,A,3318.2423,N,11558.9538,W,52.942103,327.78,071210,,*29
$GPRMC,193445.203,A,3318.2798,N,11558.9817,W,52.570883,327.51,071210,,*2D
$GPRMC,193448.203,A,3318.3171,N,11559.0095,W,52.610433,328.18,071210,,*2A
$GPRMC,193451.203,A,3318.3543,N,11559.0370,W,52.336076,328.16,071210,,*25
$GPRMC,193454.203,A,3318.3913,N,11559.0647,W,52.161164,327.82,071210,,*28
$GPRMC,193457.203,A,3318.4282,N,11559.0922,W,51.872620,327.81,071210,,*2F
$GPRMC,193500.202,A,3318.4649,N,11559.1195,W,51.595413,327.92,071210,,*2F
$GPRMC,193503.202,A,3318.5015,N,11559.1470,W,51.835562,327.88,071210,,*27
$GPRMC,193506.202,A,3318.5384,N,11559.1746,W,52.132356,328.00,071210,,*2C
$GPRMC,193509.202,A,3318.5752,N,11559.2023,W,52.449640,327.97,071210,,*21
$GPRMC,193512.202,A,3318.6123,N,11559.2300,W,52.582095,327.81,071210,,*25
$GPRMC,193515.201,A,3318.6496,N,11559.2576,W,52.580859,327.86,071210,,*20
$GPRMC,193518.201,A,3318.6869,N,11559.2853,W,52.636713,328.26,071210,,*21
$GPRMC,193521.201,A,3318.7246,N,11559.3133,W,53.172138,328.11,071210,,*2E
$GPRMC,193524.201,A,3318.7626,N,11559.3412,W,53.289229,328.26,071210,,*2F
$GPRMC,193527.201,A,3318.8002,N,11559.3693,W,52.857319,328.01,071210,,*27
$GPRMC,193530.200,A,3318.8375,N,11559.3971,W,52.637679,327.86,071210,,*2B
$GPRMC,193533.200,A,3318.8747,N,11559.4251,W,52.416522,327.70,071210,,*26
$GPRMC,193536.200,A,3318.9119,N,11559.4525,W,52.429325,328.58,071210,,*23
$GPRMC,193539.200,A,3318.9491,N,11559.4801,W,52.371972,327.47,071210,,*21
$GPRMC,193542.200,A,3318.9864,N,11559.5078,W,52.413576,328.09,071210,,*22
$GPRMC,193545.199,A,3319.0236,N,11559.5356,W,52.618637,327.84,071210,,*29
$GPRMC,193548.199,A,3319.0607,N,11559.5636,W,51.858778,328.32,071210,,*20
$GPRMC,193551.199,A,3319.0974,N,11559.5912,W,51.464361,328.28,071210,,*2E
$GPRMC,193554.199,A,3319.1341,N,11559.6181,W,51.579026,328.09,071210,,*29
$GPRMC,193557.199,A,3319.1711,N,11559.6452,W,52.232878,328.18,071210,,*28
$GPRMC,193600.198,A,3319.2083,N,11559.6727,W,52.612793,327.66,071210,,*2C
$GPRMC,193603.198,A,3319.2458,N,11559.7004,W,52.801527,328.13,071210,,*26
$GPRMC,193606.198,A,3319.2834,N,11559.7284,W,53.136543,327.84,071210,,*20
$GPRMC,193609.198,A,3319.3213,N,11559.7569,W,53.178313,328.33,071210,,*2F
$GPRMC,193612.198,A,3319.3593,N,11559.7851,W,53.150772,328.34,071210,,*22
$GPRMC,193615.198,A,3319.3970,N,11559.8132,W,52.990662,327.76,071210,,*2B
$GPRMC,193618.197,A,3319.4347,N,11559.8412,W,52.762577,328.32,071210,,*2C
$GPRMC,193621.197,A,3319.4720,N,11559.8689,W,52.339098,327.89,071210,,*22
$GPRMC,193624.197,A,3319.5087,N,11559.8966,W,51.794382,327.79,071210,,*25
$GPRMC,193627.197,A,3319.5453,N,11559.9240,W,51.591434,328.24,071210,,*2F
$GPRMC,193630.197,A,3319.5820,N,11559.9510,W,51.866702,328.08,071210,,*2E
$GPRMC,193633.196,A,3319.6190,N,11559.9786,W,52.318646,327.71,071210,,*21
$GPRMC,193636.196,A,3319.6565,N,11600.0062,W,52.638861,328.34,071210,,*23
$GPRMC,193639.196,A,3319.6940,N,11600.0338,W,52.802741,327.86,071210,,*27
$GPRMC,193642.196,A,3319.7315,N,11600.0616,W,52.602501,328.12,071210,,*23
$GPRMC,193645.196,A,3319.7687,N,11600.0896,W,52.477170,327.81,071210,,*2B
$GPRMC,193648.195,A,3319.8060,N,11600.1173,W,52.319948,328.29,071210,,*27
$GPRMC,193651.195,A,3319.8429,N,11600.1448,W,52.093488,328.24,071210,,*26
$GPRMC,193654.195,A,3319.8799,N,11600.1723,W,52.028899,327.94,071210,,*2D
$GPRMC,193657.195,A,3319.9167,N,11600.1998,W,52.061150,327.73,071210,,*2E
$GPRMC,193700.195,A,3319.9536,N,11600.2273,W,52.206944,328.13,071210,,*27
$GPRMC,193703.194,A,3319.9906,N,11600.2551,W,52.324575,327.92,071210,,*24
$GPRMC,193706.194,A,3320.0278,N,11600.2827,W,52.369155,328.09,071210,,*2E
$GPRMC,193709.194,A,3320.0650,N,11600.3108,W,52.421713,327.78,071210,,*2C
$GPRMC,193712.194,A,3320.1022,N,11600.3388,W,52.542278,327.98,071210,,*2C
$GPRMC,193715.194,A,3320.1396,N,11600.3668,W,52.682257,328.25,071210,,*27
$GPRMC,193718.193,A,3320.1770,N,11600.3947,W,52.691318,328.10,071210,,*2D
$GPRMC,193721.193,A,3320.2148,N,11600.4221,W,52.782472,327.96,071210,,*2C
$GPRMC,193724.193,A,3320.2521,N,11600.4499,W,52.634451,327.94,071210,,*28
$GPRMC,193727.193,A,3320.2892,N,11600.4779,W,52.546381,328.16,071210,,*2A
$GPRMC,193730.193,A,3320.3265,N,11600.5058,W,52.617594,327.82,071210,,*2D
$GPRMC,193733.192,A,3320.3637,N,11600.5341,W,52.605694,328.37,071210,,*26
$GPRMC,193736.192,A,3320.4012,N,11600.5616,W,52.715508,328.06,071210,,*26
$GPRMC,193739.192,A,3320.4385,N,11600.5893,W,52.751742,328.08,071210,,*25
$GPRMC,193742.192,A,3320.4757,N,11600.6170,W,52.779946,327.96,071210,,*2D
$GPRMC,193745.192,A,3320.5131,N,11600.6450,W,52.482243,327.85,071210,,*21
$GPRMC,193748.191,A,3320.5501,N,11600.6731,W,52.195062,327.68,071210,,*2D
$GPRMC,193751.191,A,3320.5869,N,11600.7010,W,51.952185,327.79,071210,,*2B
$GPRMC,193754.191,A,3320.6239,N,11600.7287,W,51.923267,328.39,071210,,*2C
$GPRMC,193757.191,A,3320.6609,N,11600.7563,W,52.166833,327.83,071210,,*2A
$GPRMC,193800.191,A,3320.6980,N,11600.7840,W,52.430713,327.75,071210,,*27
$GPRMC,193803.190,A,3320.7352,N,11600.8118,W,52.646854,327.98,071210,,*26
$GPRMC,193806.190,A,3320.7726,N,11600.8396,W,52.624693,328.36,071210,,*2A
$GPRMC,193809.190,A,3320.8101,N,11600.8669,W,52.579697,329.23,071210,,*26
$GPRMC,193812.190,A,3320.8486,N,11600.8922,W,52.899596,332.39,071210,,*26
$GPRMC,193815.190,A,3320.8884,N,11600.9151,W,52.734375,334.84,071210,,*21
$GPRMC,193818.190,A,3320.9289,N,11600.9363,W,52.566425,337.04,071210,,*25
$GPRMC,193821.189,A,3320.9701,N,11600.9555,W,52.478148,339.24,071210,,*2D
$GPRMC,193824.189,A,3321.0115,N,11600.9725,W,52.577702,342.54,071210,,*2B
$GPRMC,193827.189,A,3321.0514,N,11600.9859,W,52.716400,344.31,071210,,*28
$GPRMC,193830.189,A,3321.0947,N,11600.9994,W,52.631871,345.50,071210,,*2C
$GPRMC,193833.189,A,3321.1379,N,11601.0128,W,52.574054,345.42,071210,,*20
$GPRMC,193836.188,A,3321.1807,N,11601.0263,W,52.515591,344.81,071210,,*2F
$GPRMC,193839.188,A,3321.2234,N,11601.0397,W,52.480531,345.77,071210,,*2C
$GPRMC,193842.188,A,3321.2661,N,11601.0530,W,52.575101,345.10,071210,,*22
$GPRMC,193845.188,A,3321.3084,N,11601.0666,W,52.211234,345.42,071210,,*2E
$GPRMC,193848.188,A,3321.3509,N,11601.0799,W,52.500296,345.32,071210,,*2A
$GPRMC,193851.187,A,3321.3935,N,11601.0932,W,52.810823,345.56,071210,,*2B
$GPRMC,193854.187,A,3321.4364,N,11601.1063,W,53.036583,345.50,071210,,*27
$GPRMC,193857.187,A,3321.4795,N,11601.1195,W,53.110963,345.38,071210,,*2F
$GPRMC,193900.187,A,3321.5226,N,11601.1331,W,52.850267,345.19,071210,,*2C
$GPRMC,193903.187,A,3321.5654,N,11601.1466,W,52.701067,345.27,071210,,*2F
$GPRMC,193906.186,A,3321.6080,N,11601.1601,W,52.431187,344.90,071210,,*26
$GPRMC,193909.186,A,3321.6505,N,11601.1737,W,52.235569,345.56,071210,,*28
$GPRMC,193912.186,A,3321.6931,N,11601.1868,W,52.435028,345.37,071210,,*2D
$GPRMC,193915.186,A,3321.7359,N,11601.2002,W,52.917077,345.38,071210,,*20
$GPRMC,193918.186,A,3321.7788,N,11601.2137,W,52.806662,345.04,071210,,*2E
$GPRMC,193921.185,A,3321.8215,N,11601.2271,W,52.826593,345.38,071210,,*28
$GPRMC,193924.185,A,3321.8640,N,11601.2405,W,52.641400,345.30,071210,,*20
$GPRMC,193927.185,A,3321.9065,N,11601.2540,W,52.437782,345.35,071210,,*2C
$GPRMC,193930.185,A,3321.9487,N,11601.2673,W,52.067524,345.36,071210,,*2D
$GPRMC,193933.185,A,3321.9905,N,11601.2811,W,52.113942,343.22,071210,,*2E
$GPRMC,193936.184,A,3322.0315,N,11601.2975,W,52.233774,340.82,071210,,*2B
$GPRMC,193939.184,A,3322.0721,N,11601.3150,W,52.452933,339.53,071210,,*27
$GPRMC,193942.184,A,3322.1122,N,11601.3352,W,52.565931,335.44,071210,,*22
$GPRMC,193945.184,A,3322.1519,N,11601.3580,W,52.627477,334.15,071210,,*2F
$GPRMC,193948.184,A,3322.1914,N,11601.3816,W,52.692659,334.32,071210,,*24
$GPRMC,193951.183,A,3322.2312,N,11601.4046,W,52.586454,334.26,071210,,*22
$GPRMC,193954.183,A,3322.2709,N,11601.4276,W,52.577150,334.02,071210,,*21
$GPRMC,193957.183,A,3322.3106,N,11601.4506,W,52.557899,333.94,071210,,*2C
$GPRMC,194000.183,A,3322.3503,N,11601.4734,W,52.633193,334.21,071210,,*29
$GPRMC,194003.183,A,3322.3900,N,11601.4963,W,52.554171,333.73,071210,,*27
$GPRMC,194006.183,A,3322.4295,N,11601.5196,W,52.776425,334.10,071210,,*25
$GPRMC,194009.182,A,3322.4692,N,11601.5427,W,52.748143,334.46,071210,,*2C
$GPRMC,194012.182,A,3322.5087,N,11601.5656,W,52.543201,334.11,071210,,*2F
$GPRMC,194015.182,A,3322.5482,N,11601.5884,W,52.421541,334.18,071210,,*27
$GPRMC,194018.182,A,3322.5876,N,11601.6111,W,52.220196,333.98,071210,,*2D
$GPRMC,194021.182,A,3322.6265,N,11601.6350,W,52.208186,331.38,071210,,*28
$GPRMC,194024.181,A,3322.6638,N,11601.6612,W,52.246941,327.34,071210,,*23
$GPRMC,194027.181,A,3322.6996,N,11601.6904,W,52.351761,323.54,071210,,*2A
$GPRMC,194030.181,A,3322.7337,N,11601.7228,W,52.392954,319.77,071210,,*27
$GPRMC,194033.181,A,3322.7665,N,11601.7583,W,52.453411,317.38,071210,,*23
$GPRMC,194036.181,A,3322.7988,N,11601.7946,W,52.521877,317.03,071210,,*2F
$GPRMC,194039.180,A,3322.8310,N,11601.8308,W,52.428869,317.10,071210,,*2F
$GPRMC,194042.180,A,3322.8632,N,11601.8662,W,52.518400,317.18,071210,,*26
$GPRMC,194045.180,A,3322.8953,N,11601.9013,W,52.562138,317.48,071210,,*2E
$GPRMC,194048.180,A,3322.9272,N,11601.9358,W,52.507525,317.14,071210,,*24
$GPRMC,194051.180,A,3322.9591,N,11601.9709,W,52.572731,317.30,071210,,*25
$GPRMC,194054.179,A,3322.9914,N,11602.0066,W,52.700054,317.32,071210,,*22
$GPRMC,194057.179,A,3323.0242,N,11602.0428,W,52.572546,316.88,071210,,*2E
$GPRMC,194100.179,A,3323.0569,N,11602.0787,W,52.530415,317.40,071210,,*21
$GPRMC,194103.179,A,3323.0892,N,11602.1145,W,52.321653,317.04,071210,,*24
$GPRMC,194106.179,A,3323.1212,N,11602.1502,W,52.118909,317.17,071210,,*2F
$GPRMC,194109.178,A,3323.1532,N,11602.1857,W,51.855012,317.11,071210,,*2F
$GPRMC,194112.178,A,3323.1851,N,11602.2212,W,52.118876,317.16,071210,,*2B
$GPRMC,194115.178,A,3323.2172,N,11602.2568,W,52.182878,317.45,071210,,*26
$GPRMC,194118.178,A,3323.2491,N,11602.2923,W,52.261598,317.00,071210,,*2C
$GPRMC,194121.178,A,3323.2813,N,11602.3277,W,52.315051,317.31,071210,,*2B
$GPRMC,194124.177,A,3323.3134,N,11602.3635,W,52.483382,316.80,071210,,*20
$GPRMC,194127.177,A,3323.3454,N,11602.3990,W,52.527560,316.97,071210,,*23
$GPRMC,194130.177,A,3323.3775,N,11602.4341,W,52.479798,318.33,071210,,*2B
$GPRMC,194133.177,A,3323.4109,N,11602.4675,W,52.616020,321.88,071210,,*25
$GPRMC,194136.177,A,3323.4468,N,11602.4979,W,53.067412,326.51,071210,,*26
$GPRMC,194139.176,A,3323.4848,N,11602.5250,W,52.963283,331.03,071210,,*24
$GPRMC,194142.176,A,3323.5244,N,11602.5481,W,52.592440,335.75,071210,,*2B
$GPRMC,194145.176,A,3323.5653,N,11602.5674,W,52.620155,340.18,071210,,*24
$GPRMC,194148.176,A,3323.6077,N,11602.5830,W,52.918843,345.16,071210,,*25
$GPRMC,194151.176,A,3323.6510,N,11602.5945,W,52.819322,347.96,071210,,*2C
$GPRMC,194154.176,A,3323.6944,N,11602.6048,W,52.521342,348.99,071210,,*23
$GPRMC,194157.175,A,3323.7373,N,11602.6148,W,52.154188,348.86,071210,,*21
$GPRMC,194200.175,A,3323.7797,N,11602.6250,W,51.770688,348.68,071210,,*20
$GPRMC,194203.175,A,3323.8220,N,11602.6354,W,51.472406,348.56,071210,,*28
$GPRMC,194206.175,A,3323.8643,N,11602.6453,W,51.724351,348.69,071210,,*25
$GPRMC,194209.175,A,3323.9068,N,11602.6549,W,51.858820,348.98,071210,,*29
$GPRMC,194212.174,A,3323.9496,N,11602.6649,W,52.004163,348.49,071210,,*24
$GPRMC,194215.174,A,3323.9923,N,11602.6753,W,52.012922,348.27,071210,,*28
$GPRMC,194218.174,A,3324.0351,N,11602.6853,W,51.948726,348.70,071210,,*26
$GPRMC,194221.174,A,3324.0777,N,11602.6957,W,51.907071,348.99,071210,,*20
$GPRMC,194224.174,A,3324.1203,N,11602.7055,W,51.994653,348.47,071210,,*27
$GPRMC,194227.173,A,3324.1629,N,11602.7157,W,52.068642,348.63,071210,,*23
$GPRMC,194230.173,A,3324.2054,N,11602.7258,W,52.117625,348.68,071210,,*25
$GPRMC,194233.173,A,3324.2482,N,11602.7361,W,52.342725,348.55,071210,,*2F
$GPRMC,194236.173,A,3324.2913,N,11602.7465,W,52.411420,348.94,071210,,*26
$GPRMC,194239.173,A,3324.3344,N,11602.7567,W,52.384020,348.87,071210,,*2E
$GPRMC,194242.172,A,3324.3774,N,11602.7673,W,52.428877,348.53,071210,,*20
$GPRMC,194245.172,A,3324.4204,N,11602.7777,W,52.236853,348.63,071210,,*2B
$GPRMC,194248.172,A,3324.4633,N,11602.7881,W,51.951430,348.52,071210,,*22
$GPRMC,194251.172,A,3324.5058,N,11602.7982,W,51.756729,348.36,071210,,*22
$GPRMC,194254.172,A,3324.5483,N,11602.8086,W,51.226951,348.74,071210,,*22
$GPRMC,194257.171,A,3324.5905,N,11602.8189,W,51.313137,348.67,071210,,*22
$GPRMC,194300.171,A,3324.6327,N,11602.8290,W,51.537562,348.80,071210,,*2E
$GPRMC,194303.171,A,3324.6750,N,11602.8392,W,51.832910,348.74,071210,,*20
$GPRMC,194306.171,A,3324.7178,N,11602.8492,W,52.646767,348.92,071210,,*27
$GPRMC,194309.171,A,3324.7611,N,11602.8594,W,53.312137,348.33,071210,,*2A
$GPRMC,194312.170,A,3324.8046,N,11602.8709,W,53.086603,346.62,071210,,*28
$GPRMC,194315.170,A,3324.8472,N,11602.8848,W,52.958690,342.82,071210,,*2D
$GPRMC,194318.170,A,3324.8895,N,11602.9018,W,53.111303,340.32,071210,,*2B
$GPRMC,194321.170,A,3324.9312,N,11602.9211,W,53.003931,336.95,071210,,*2A
$GPRMC,194324.170,A,3324.9713,N,11602.9428,W,52.815707,333.55,071210,,*2A
$GPRMC,194327.169,A,3325.0096,N,11602.9679,W,52.634361,330.37,071210,,*2B
$GPRMC,194330.169,A,3325.0466,N,11602.9949,W,52.385742,327.80,071210,,*2A
$GPRMC,194333.169,A,3325.0825,N,11603.0243,W,52.240131,324.92,071210,,*21
$GPRMC,194336.169,A,3325.1172,N,11603.0556,W,52.162917,321.76,071210,,*2D
$GPRMC,194339.169,A,3325.1505,N,11603.0895,W,52.190782,318.55,071210,,*20
$GPRMC,194342.168,A,3325.1823,N,11603.1255,W,52.093408,315.74,071210,,*2E
$GPRMC,194345.168,A,3325.2132,N,11603.1629,W,51.980147,314.88,071210,,*28
$GPRMC,194348.168,A,3325.2441,N,11603.2003,W,52.123275,314.97,071210,,*27
$GPRMC,194351.168,A,3325.2749,N,11603.2372,W,52.320779,314.86,071210,,*29
$GPRMC,194354.168,A,3325.3058,N,11603.2740,W,52.553477,315.34,071210,,*28
$GPRMC,194357.168,A,3325.3368,N,11603.3105,W,51.232401,315.04,071210,,*2C
$GPRMC,194400.167,A,3325.3665,N,11603.3455,W,48.840132,315.21,071210,,*2B
$GPRMC,194403.167,A,3325.3952,N,11603.3790,W,46.887668,314.95,071210,,*2A
$GPRMC,194406.167,A,3325.4230,N,11603.4112,W,45.205507,315.21,071210,,*2B
$GPRMC,194409.167,A,3325.4499,N,11603.4419,W,43.319369,317.49,071210,,*27
$GPRMC,194412.167,A,3325.4762,N,11603.4707,W,43.443775,316.09,071210,,*22
$GPRMC,194415.166,A,3325.5022,N,11603.5025,W,46.653064,314.98,071210,,*2B
$GPRMC,194418.166,A,3325.5300,N,11603.5362,W,49.790233,315.44,071210,,*24
$GPRMC,194421.166,A,3325.5600,N,11603.5718,W,51.568641,316.22,071210,,*2C
$GPRMC,194424.166,A,3325.5916,N,11603.6067,W,52.297473,318.60,071210,,*22
$GPRMC,194427.166,A,3325.6251,N,11603.6406,W,52.597233,320.32,071210,,*20
$GPRMC,194430.165,A,3325.6595,N,11603.6742,W,52.776523,320.35,071210,,*25
$GPRMC,194433.165,A,3325.6939,N,11603.7078,W,52.636489,320.73,071210,,*25
$GPRMC,194436.165,A,3325.7283,N,11603.7413,W,52.520379,320.46,071210,,*28
$GPRMC,194439.165,A,3325.7625,N,11603.7749,W,52.534631,319.84,071210,,*2B
$GPRMC,194442.165,A,3325.7963,N,11603.8086,W,52.355272,319.36,071210,,*2A
$GPRMC,194445.164,A,3325.8295,N,11603.8428,W,52.433807,318.92,071210,,*21
$GPRMC,194448.164,A,3325.8630,N,11603.8771,W,52.393426,319.38,071210,,*2B
$GPRMC,194451.164,A,3325.8966,N,11603.9113,W,52.382061,319.21,071210,,*23
$GPRMC,194454.164,A,3325.9298,N,11603.9454,W,52.501450,319.57,071210,,*21
$GPRMC,194457.164,A,3325.9628,N,11603.9793,W,52.651658,319.08,071210,,*23
$GPRMC,194500.163,A,3325.9958,N,11604.0136,W,52.723992,319.47,071210,,*2E
$GPRMC,194503.163,A,3326.0292,N,11604.0477,W,52.689484,319.56,071210,,*21
$GPRMC,194506.163,A,3326.0623,N,11604.0820,W,52.721310,318.90,071210,,*26
$GPRMC,194509.163,A,3326.0953,N,11604.1164,W,52.656571,319.36,071210,,*24
$GPRMC,194512.163,A,3326.1287,N,11604.1507,W,52.587808,319.33,071210,,*25
$GPRMC,194515.162,A,3326.1621,N,11604.1850,W,52.512485,319.23,071210,,*20
$GPRMC,194518.162,A,3326.1953,N,11604.2193,W,52.463331,319.04,071210,,*28
$GPRMC,194521.162,A,3326.2287,N,11604.2533,W,52.396675,319.44,071210,,*21
$GPRMC,194524.162,A,3326.2620,N,11604.2871,W,52.424098,319.45,071210,,*2C
$GPRMC,194527.162,A,3326.2953,N,11604.3210,W,52.561943,319.38,071210,,*2D
$GPRMC,194530.161,A,3326.3283,N,11604.3551,W,52.500591,319.11,071210,,*22
$GPRMC,194533.161,A,3326.3613,N,11604.3895,W,52.413392,319.05,071210,,*2A
$GPRMC,194536.161,A,3326.3946,N,11604.4237,W,52.360861,319.39,071210,,*2E
$GPRMC,194539.161,A,3326.4277,N,11604.4579,W,52.393624,319.26,071210,,*2F
$GPRMC,194542.161,A,3326.4610,N,11604.4920,W,52.330921,319.45,071210,,*20
$GPRMC,194545.161,A,3326.4941,N,11604.5261,W,52.405409,319.34,071210,,*23
$GPRMC,194548.160,A,3326.5276,N,11604.5603,W,52.478905,319.48,071210,,*21
$GPRMC,194551.160,A,3326.5609,N,11604.5946,W,52.345290,319.45,071210,,*28
$GPRMC,194554.160,A,3326.5942,N,11604.6285,W,52.422682,319.50,071210,,*2F
$GPRMC,194557.160,A,3326.6268,N,11604.6627,W,52.462030,319.21,071210,,*2D
$GPRMC,194600.160,A,3326.6598,N,11604.6969,W,52.553978,318.94,071210,,*28
$GPRMC,194603.159,A,3326.6929,N,11604.7312,W,52.519151,319.47,071210,,*22
