NMEA Sentence Code,UTC Time,Status,Latitude,Latitude Direction,Longitude,Longitude Direction,Speed (knots),Track Angle (degrees true),Date,MagneticVariation,Magnetic Variation Direction,[FAA Mode]-Optional,Checksum
$GPRMC,012811.3,A,3246.296284,N,11714.863785,W,21.5,116.4,130310,,,A*45
$GPRMC,012814.3,A,3246.288291,N,11714.844991,W,20.9,119.4,130310,,,A*47
$GPRMC,012817.3,A,3246.279515,N,11714.831111,W,15.0,127.5,130310,,,A*40
$GPRMC,012820.3,A,3246.275875,N,11714.826209,W,6.2,131.0,130310,,,A*7D
$GPRMC,012911.3,A,3246.273852,N,11714.821721,W,5.4,110.0,130310,,,A*73
$GPRMC,012914.3,A,3246.275178,N,11714.811911,W,9.4,78.4,130310,,,A*48
$GPRMC,012917.3,A,3246.282785,N,11714.801563,W,12.2,51.2,130310,,,A*7E
$GPRMC,012920.3,A,3246.287892,N,11714.791946,W,9.9,64.5,130310,,,A*4B
$GPRMC,012923.3,A,3246.285444,N,11714.785318,W,7.2,108.4,130310,,,A*76
$GPRMC,012926.3,A,3246.276250,N,11714.780779,W,9.3,148.5,130310,,,A*70
$GPRMC,012929.3,A,3246.269008,N,11714.775757,W,10.5,151.4,130310,,,A*4F
$GPRMC,012932.3,A,3246.262253,N,11714.768743,W,11.1,136.3,130310,,,A*48
$GPRMC,012935.3,A,3246.262807,N,11714.760027,W,7.6,77.8,130310,,,A*46
$GPRMC,012938.3,A,3246.268702,N,11714.758142,W,6.7,14.1,130310,,,A*4E
$GPRMC,012941.3,A,3246.276245,N,11714.760845,W,8.7,342.4,130310,,,A*77
$GPRMC,012944.3,A,3246.281059,N,11714.769897,W,9.0,307.1,130310,,,A*71
$GPRMC,012947.3,A,3246.286365,N,11714.776615,W,9.0,316.0,130310,,,A*72
$GPRMC,012950.3,A,3246.292280,N,11714.783453,W,9.3,314.2,130310,,,A*72
$GPRMC,012953.3,A,3246.294960,N,11714.792317,W,9.1,288.5,130310,,,A*74
$GPRMC,012956.3,A,3246.290615,N,11714.800831,W,8.9,250.9,130310,,,A*73
$GPRMC,012959.3,A,3246.285300,N,11714.806601,W,7.7,231.3,130310,,,A*7E
$GPRMC,013002.3,A,3246.278878,N,11714.814400,W,10.2,224.4,130310,,,A*4E
$GPRMC,013005.3,A,3246.268713,N,11714.823667,W,14.5,220.5,130310,,,A*4B
$GPRMC,013008.3,A,3246.260372,N,11714.832226,W,11.8,218.7,130310,,,A*4D
$GPRMC,013011.3,A,3246.253038,N,11714.838685,W,10.0,220.8,130310,,,A*42
$GPRMC,013014.3,A,3246.251989,N,11714.846280,W,8.5,261.1,130310,,,A*7E
$GPRMC,013017.3,A,3246.256023,N,11714.854732,W,9.8,290.2,130310,,,A*7D
$GPRMC,013020.3,A,3246.261220,N,11714.863300,W,10.8,302.8,130310,,,A*45
$GPRMC,013023.3,A,3246.266667,N,11714.872916,W,11.6,304.6,130310,,,A*4C
$GPRMC,013026.3,A,3246.272109,N,11714.880914,W,10.6,304.6,130310,,,A*4D
$GPRMC,013029.3,A,3246.277734,N,11714.889483,W,10.0,303.8,130310,,,A*4A
$GPRMC,013032.3,A,3246.280568,N,11714.897621,W,8.8,300.5,130310,,,A*79
$GPRMC,013035.3,A,3246.283661,N,11714.905732,W,8.5,299.7,130310,,,A*70
$GPRMC,013038.3,A,3246.286780,N,11714.914766,W,9.8,295.7,130310,,,A*77
$GPRMC,013041.3,A,3246.288968,N,11714.928836,W,13.3,282.9,130310,,,A*42
$GPRMC,013044.3,A,3246.290781,N,11714.942381,W,13.0,278.8,130310,,,A*4B
$GPRMC,013047.3,A,3246.290723,N,11714.955577,W,11.9,273.6,130310,,,A*47
$GPRMC,013050.3,A,3246.292353,N,11714.965978,W,10.5,279.7,130310,,,A*46
$GPRMC,013053.3,A,3246.296912,N,11714.971787,W,7.2,328.8,130310,,,A*7E
$GPRMC,013059.3,A,3246.306281,N,11714.970225,W,7.2,4.0,130310,,,A*74
$GPRMC,013102.3,A,3246.311943,N,11714.966962,W,8.4,32.2,130310,,,A*49
$GPRMC,013105.3,A,3246.318651,N,11714.957589,W,10.8,54.2,130310,,,A*75
$GPRMC,013108.3,A,3246.316910,N,11714.940389,W,15.8,91.8,130310,,,A*7A
$GPRMC,013111.3,A,3246.314356,N,11714.923540,W,17.2,101.5,130310,,,A*43
$GPRMC,013114.3,A,3246.310351,N,11714.904273,W,19.2,107.5,130310,,,A*4F
$GPRMC,013117.3,A,3246.305261,N,11714.885737,W,18.7,111.3,130310,,,A*42
$GPRMC,013120.3,A,3246.299432,N,11714.866620,W,19.8,112.1,130310,,,A*47
$GPRMC,013123.3,A,3246.291741,N,11714.848324,W,19.4,117.4,130310,,,A*4A
$GPRMC,013126.3,A,3246.284705,N,11714.835250,W,15.4,122.2,130310,,,A*4F
$GPRMC,013129.3,A,3246.278142,N,11714.827309,W,11.1,131.3,130310,,,A*4A
$GPRMC,013132.3,A,3246.278864,N,11714.822169,W,7.3,92.6,130310,,,A*44
$GPRMC,013138.3,A,3246.292434,N,11714.837938,W,18.9,304.9,130310,,,A*4C
$GPRMC,013141.3,A,3246.301061,N,11714.859109,W,24.3,300.2,130310,,,A*45
$GPRMC,013144.3,A,3246.310965,N,11714.881790,W,27.0,296.4,130310,,,A*46
$GPRMC,013147.3,A,3246.318047,N,11714.908317,W,27.0,289.4,130310,,,A*41
$GPRMC,013150.3,A,3246.324479,N,11714.934405,W,27.1,281.8,130310,,,A*4F
$GPRMC,013153.3,A,3246.328129,N,11714.958708,W,22.7,276.8,130310,,,A*4F
$GPRMC,013156.3,A,3246.328648,N,11714.982341,W,23.7,271.3,130310,,,A*49
$GPRMC,013159.3,A,3246.327731,N,11715.007209,W,24.8,269.1,130310,,,A*4D
$GPRMC,013202.3,A,3246.326543,N,11715.028452,W,20.5,266.0,130310,,,A*44
$GPRMC,013205.3,A,3246.324641,N,11715.047479,W,19.1,266.8,130310,,,A*46
$GPRMC,013208.3,A,3246.325297,N,11715.060429,W,11.2,267.8,130310,,,A*4F
$GPRMC,013214.3,A,3246.330604,N,11715.069421,W,7.7,321.5,130310,,,A*75
$GPRMC,013217.3,A,3246.342391,N,11715.074757,W,14.7,338.3,130310,,,A*48
$GPRMC,013220.3,A,3246.357850,N,11715.078276,W,17.4,349.8,130310,,,A*49
$GPRMC,013223.3,A,3246.373871,N,11715.080521,W,19.2,352.5,130310,,,A*42
$GPRMC,013226.3,A,3246.391337,N,11715.082344,W,19.2,352.8,130310,,,A*48
$GPRMC,013229.3,A,3246.408586,N,11715.084573,W,19.8,354.6,130310,,,A*4A
$GPRMC,013232.3,A,3246.425350,N,11715.086989,W,19.7,351.4,130310,,,A*41
$GPRMC,013235.3,A,3246.441288,N,11715.092102,W,20.2,348.2,130310,,,A*4F
$GPRMC,013238.3,A,3246.456816,N,11715.098004,W,19.6,345.9,130310,,,A*4C
$GPRMC,013241.3,A,3246.471566,N,11715.102659,W,18.9,344.3,130310,,,A*44
$GPRMC,013244.3,A,3246.488391,N,11715.108359,W,21.1,341.9,130310,,,A*4B
$GPRMC,013247.3,A,3246.506247,N,11715.116118,W,22.2,341.7,130310,,,A*43
$GPRMC,013250.3,A,3246.522807,N,11715.125082,W,22.2,339.3,130310,,,A*44
$GPRMC,013253.3,A,3246.539427,N,11715.131053,W,21.9,343.7,130310,,,A*4B
$GPRMC,013256.3,A,3246.559122,N,11715.137276,W,22.7,346.9,130310,,,A*4D
$GPRMC,013259.3,A,3246.574567,N,11715.143292,W,20.7,345.9,130310,,,A*40
$GPRMC,013302.3,A,3246.591286,N,11715.146996,W,20.3,347.6,130310,,,A*4F
$GPRMC,013305.3,A,3246.608734,N,11715.150293,W,21.0,351.1,130310,,,A*4C
$GPRMC,013308.3,A,3246.629413,N,11715.152540,W,23.5,352.4,130310,,,A*4E
$GPRMC,013311.3,A,3246.650577,N,11715.153083,W,23.2,355.8,130310,,,A*4C
$GPRMC,013314.3,A,3246.667377,N,11715.154235,W,21.6,357.2,130310,,,A*4D
$GPRMC,013317.3,A,3246.681346,N,11715.153699,W,16.7,3.3,130310,,,A*47
$GPRMC,013320.3,A,3246.689447,N,11715.153758,W,9.8,2.7,130310,,,A*75
$GPRMC,013338.3,A,3246.694357,N,11715.155929,W,5.6,353.8,130310,,,A*72
$GPRMC,013341.3,A,3246.704262,N,11715.156296,W,12.1,1.5,130310,,,A*47
$GPRMC,013344.3,A,3246.720371,N,11715.157020,W,18.9,359.6,130310,,,A*46
$GPRMC,013347.3,A,3246.739298,N,11715.154994,W,21.5,2.5,130310,,,A*46
$GPRMC,013350.3,A,3246.758642,N,11715.154056,W,22.2,2.5,130310,,,A*47
$GPRMC,013353.3,A,3246.777852,N,11715.152705,W,22.2,2.9,130310,,,A*4D
$GPRMC,013356.3,A,3246.796473,N,11715.152256,W,21.7,2.7,130310,,,A*43
$GPRMC,013359.3,A,3246.816467,N,11715.150506,W,22.0,2.5,130310,,,A*48
$GPRMC,013402.3,A,3246.834173,N,11715.150123,W,21.8,2.2,130310,,,A*4E
$GPRMC,013405.3,A,3246.853668,N,11715.148113,W,23.1,2.3,130310,,,A*45
$GPRMC,013408.3,A,3246.871864,N,11715.147558,W,21.9,2.0,130310,,,A*47
$GPRMC,013411.3,A,3246.889981,N,11715.146851,W,21.4,0.9,130310,,,A*41
$GPRMC,013414.3,A,3246.906409,N,11715.148329,W,19.3,357.8,130310,,,A*49
$GPRMC,013417.3,A,3246.922192,N,11715.148187,W,19.3,359.4,130310,,,A*4F
$GPRMC,013420.3,A,3246.936813,N,11715.148980,W,16.6,357.5,130310,,,A*44
$GPRMC,013423.3,A,3246.948653,N,11715.149616,W,12.6,355.6,130310,,,A*40
$GPRMC,013426.3,A,3246.959726,N,11715.150930,W,13.5,354.7,130310,,,A*47
$GPRMC,013429.3,A,3246.971936,N,11715.151322,W,14.5,356.1,130310,,,A*46
$GPRMC,013432.3,A,3246.983643,N,11715.152923,W,14.4,351.9,130310,,,A*4A
$GPRMC,013435.3,A,3246.995319,N,11715.154113,W,14.4,351.9,130310,,,A*4D
$GPRMC,013438.3,A,3247.006871,N,11715.156214,W,14.1,352.5,130310,,,A*4B
$GPRMC,013441.3,A,3247.019310,N,11715.158835,W,14.2,349.7,130310,,,A*4B
$GPRMC,013444.3,A,3247.027609,N,11715.161793,W,12.5,350.6,130310,,,A*4F
$GPRMC,013447.3,A,3247.038488,N,11715.162365,W,11.2,350.2,130310,,,A*47
$GPRMC,013450.3,A,3247.048490,N,11715.164143,W,12.5,349.8,130310,,,A*49
$GPRMC,013453.3,A,3247.060723,N,11715.167470,W,13.4,346.7,130310,,,A*4D
$GPRMC,013456.3,A,3247.072431,N,11715.170431,W,12.3,346.0,130310,,,A*49
$GPRMC,013459.3,A,3247.078190,N,11715.171675,W,5.9,349.6,130310,,,A*74
$GPRMC,013505.3,A,3247.085514,N,11715.170700,W,5.1,351.9,130310,,,A*7A
$GPRMC,013508.3,A,3247.094056,N,11715.173378,W,11.7,346.7,130310,,,A*47
$GPRMC,013511.3,A,3247.106470,N,11715.178390,W,15.8,342.5,130310,,,A*45
$GPRMC,013514.3,A,3247.120500,N,11715.182984,W,17.8,344.5,130310,,,A*4C
$GPRMC,013517.3,A,3247.135273,N,11715.187621,W,19.8,343.4,130310,,,A*45
$GPRMC,013520.3,A,3247.152488,N,11715.194738,W,21.3,343.4,130310,,,A*49
$GPRMC,013523.3,A,3247.169391,N,11715.199803,W,21.1,347.1,130310,,,A*44
$GPRMC,013526.3,A,3247.186371,N,11715.204925,W,20.2,348.4,130310,,,A*44
$GPRMC,013529.3,A,3247.202696,N,11715.207356,W,19.4,353.5,130310,,,A*42
$GPRMC,013532.3,A,3247.215844,N,11715.210114,W,15.9,355.7,130310,,,A*48
$GPRMC,013535.3,A,3247.225417,N,11715.209369,W,9.3,358.3,130310,,,A*78
$GPRMC,013538.3,A,3247.229951,N,11715.210189,W,6.2,356.3,130310,,,A*72
$GPRMC,013541.3,A,3247.239474,N,11715.209559,W,11.8,356.0,130310,,,A*49
$GPRMC,013544.3,A,3247.253558,N,11715.209461,W,16.6,0.4,130310,,,A*48
$GPRMC,013547.3,A,3247.270481,N,11715.206794,W,18.8,3.3,130310,,,A*4D
$GPRMC,013550.3,A,3247.286335,N,11715.203585,W,19.3,9.6,130310,,,A*48
$GPRMC,013553.3,A,3247.302214,N,11715.199834,W,19.5,10.7,130310,,,A*7C
$GPRMC,013556.3,A,3247.319301,N,11715.196501,W,20.9,8.0,130310,,,A*4A
$GPRMC,013559.3,A,3247.336492,N,11715.194504,W,21.5,3.7,130310,,,A*43
$GPRMC,013602.3,A,3247.355914,N,11715.195548,W,22.9,356.9,130310,,,A*43
$GPRMC,013605.3,A,3247.375815,N,11715.198835,W,24.3,352.6,130310,,,A*4B
$GPRMC,013608.3,A,3247.394821,N,11715.203313,W,24.0,347.1,130310,,,A*40
$GPRMC,013611.3,A,3247.414689,N,11715.210152,W,24.2,345.3,130310,,,A*4C
$GPRMC,013614.3,A,3247.433377,N,11715.216242,W,21.5,347.8,130310,,,A*47
$GPRMC,013617.3,A,3247.445331,N,11715.219665,W,13.7,347.3,130310,,,A*41
$GPRMC,013750.3,A,3247.460018,N,11715.224949,W,9.9,342.2,130310,,,A*72
$GPRMC,013753.3,A,3247.478448,N,11715.231025,W,21.5,344.7,130310,,,A*4B
$GPRMC,013756.3,A,3247.502298,N,11715.238469,W,26.3,345.4,130310,,,A*4F
$GPRMC,013759.3,A,3247.524922,N,11715.245743,W,26.3,345.6,130310,,,A*4D
$GPRMC,013802.3,A,3247.543151,N,11715.250991,W,21.7,346.4,130310,,,A*46
$GPRMC,013805.3,A,3247.556182,N,11715.254642,W,14.9,350.6,130310,,,A*43
$GPRMC,013835.3,A,3247.574817,N,11715.263376,W,9.8,323.9,130310,,,A*75
$GPRMC,013838.3,A,3247.590366,N,11715.270931,W,16.3,333.7,130310,,,A*4E
$GPRMC,013841.3,A,3247.615006,N,11715.275636,W,22.9,345.7,130310,,,A*4A
$GPRMC,013844.3,A,3247.636431,N,11715.281281,W,24.6,345.6,130310,,,A*45
$GPRMC,013847.3,A,3247.659020,N,11715.287924,W,26.2,345.6,130310,,,A*4F
$GPRMC,013850.3,A,3247.681384,N,11715.294218,W,26.1,345.9,130310,,,A*4B
$GPRMC,013853.3,A,3247.704010,N,11715.301418,W,27.0,345.4,130310,,,A*4C
$GPRMC,013856.3,A,3247.727135,N,11715.308405,W,28.0,345.7,130310,,,A*47
$GPRMC,013859.3,A,3247.748611,N,11715.315853,W,25.6,345.0,130310,,,A*4F
$GPRMC,013902.3,A,3247.765928,N,11715.318282,W,18.4,348.6,130310,,,A*46
$GPRMC,013905.3,A,3247.773166,N,11715.320534,W,7.6,347.8,130310,,,A*78
$GPRMC,013911.3,A,3247.784361,N,11715.323061,W,10.4,348.5,130310,,,A*40
$GPRMC,013914.3,A,3247.795594,N,11715.327726,W,14.8,345.0,130310,,,A*49
$GPRMC,013917.3,A,3247.811861,N,11715.333999,W,19.9,344.2,130310,,,A*4E
$GPRMC,013920.3,A,3247.827926,N,11715.339999,W,20.6,342.3,130310,,,A*45
$GPRMC,013923.3,A,3247.845323,N,11715.345825,W,21.8,343.9,130310,,,A*44
$GPRMC,013926.3,A,3247.863262,N,11715.351512,W,22.8,343.7,130310,,,A*40
$GPRMC,013929.3,A,3247.878282,N,11715.356112,W,16.8,347.9,130310,,,A*45
$GPRMC,013932.3,A,3247.887036,N,11715.357856,W,10.5,347.1,130310,,,A*49
$GPRMC,013935.3,A,3247.889328,N,11715.359312,W,4.8,344.4,130310,,,A*77
$GPRMC,013938.3,A,3247.894034,N,11715.359658,W,6.2,344.0,130310,,,A*7F
$GPRMC,013941.3,A,3247.904425,N,11715.363086,W,13.8,345.5,130310,,,A*4B
$GPRMC,013944.3,A,3247.918249,N,11715.367794,W,18.7,345.4,130310,,,A*4A
$GPRMC,013947.3,A,3247.934527,N,11715.371571,W,20.1,346.6,130310,,,A*4A
$GPRMC,013950.3,A,3247.950337,N,11715.376615,W,20.5,345.8,130310,,,A*46
$GPRMC,013953.3,A,3247.970198,N,11715.382358,W,24.2,345.5,130310,,,A*49
$GPRMC,013956.3,A,3247.992707,N,11715.388565,W,27.7,344.1,130310,,,A*41
$GPRMC,013959.3,A,3248.016698,N,11715.395696,W,29.9,345.2,130310,,,A*42
$GPRMC,014002.3,A,3248.041477,N,11715.403186,W,29.9,345.5,130310,,,A*4A
$GPRMC,014005.3,A,3248.063492,N,11715.410040,W,27.6,346.1,130310,,,A*49
$GPRMC,014008.3,A,3248.085987,N,11715.417637,W,27.6,344.3,130310,,,A*44
$GPRMC,014011.3,A,3248.108420,N,11715.424842,W,28.6,346.2,130310,,,A*48
$GPRMC,014014.3,A,3248.131764,N,11715.432308,W,29.5,345.0,130310,,,A*45
$GPRMC,014017.3,A,3248.155330,N,11715.440502,W,28.8,344.7,130310,,,A*42
$GPRMC,014020.3,A,3248.179188,N,11715.447417,W,28.5,347.2,130310,,,A*40
$GPRMC,014023.3,A,3248.201923,N,11715.453961,W,27.9,346.7,130310,,,A*48
$GPRMC,014026.3,A,3248.221552,N,11715.459841,W,25.6,346.8,130310,,,A*4E
$GPRMC,014029.3,A,3248.240360,N,11715.464620,W,22.4,348.0,130310,,,A*45
$GPRMC,014032.3,A,3248.257809,N,11715.467521,W,18.5,350.8,130310,,,A*45
$GPRMC,014035.3,A,3248.265598,N,11715.470855,W,8.7,350.0,130310,,,A*75
$GPRMC,014041.3,A,3248.272853,N,11715.476018,W,8.5,333.2,130310,,,A*78
$GPRMC,014044.3,A,3248.281724,N,11715.477836,W,11.7,346.5,130310,,,A*44
$GPRMC,014047.3,A,3248.293279,N,11715.483793,W,14.7,335.5,130310,,,A*43
$GPRMC,014050.3,A,3248.299303,N,11715.495510,W,14.2,306.0,130310,,,A*4D
$GPRMC,014053.3,A,3248.306078,N,11715.510519,W,16.1,302.5,130310,,,A*43
$GPRMC,014056.3,A,3248.319181,N,11715.520909,W,19.8,323.5,130310,,,A*44
$GPRMC,014059.3,A,3248.333986,N,11715.535467,W,23.1,323.8,130310,,,A*40
$GPRMC,014102.3,A,3248.352124,N,11715.551254,W,26.2,323.1,130310,,,A*43
$GPRMC,014105.3,A,3248.369034,N,11715.566536,W,26.6,318.8,130310,,,A*4E
$GPRMC,014108.3,A,3248.385965,N,11715.583340,W,25.9,318.7,130310,,,A*43
$GPRMC,014111.3,A,3248.401568,N,11715.600311,W,25.4,317.3,130310,,,A*4B
$GPRMC,014114.3,A,3248.417818,N,11715.618000,W,26.0,316.3,130310,,,A*4F
$GPRMC,014117.3,A,3248.434196,N,11715.634541,W,26.5,317.8,130310,,,A*43
$GPRMC,014120.3,A,3248.448410,N,11715.654045,W,26.8,313.7,130310,,,A*46
$GPRMC,014123.3,A,3248.463868,N,11715.674074,W,26.4,312.4,130310,,,A*41
$GPRMC,014126.3,A,3248.475413,N,11715.691969,W,19.5,305.7,130310,,,A*45
$GPRMC,014129.3,A,3248.479339,N,11715.704791,W,14.8,292.2,130310,,,A*47
$GPRMC,014132.3,A,3248.482616,N,11715.720926,W,17.4,283.0,130310,,,A*48
$GPRMC,014135.3,A,3248.483628,N,11715.742038,W,20.9,272.6,130310,,,A*40
$GPRMC,014138.3,A,3248.486633,N,11715.767012,W,25.3,280.7,130310,,,A*4E
$GPRMC,014141.3,A,3248.495584,N,11715.790571,W,26.0,295.9,130310,,,A*4F
$GPRMC,014144.3,A,3248.509266,N,11715.812007,W,26.7,308.0,130310,,,A*4F
$GPRMC,014147.3,A,3248.524512,N,11715.831710,W,27.7,312.0,130310,,,A*4D
$GPRMC,014150.3,A,3248.542708,N,11715.849804,W,28.7,315.6,130310,,,A*49
$GPRMC,014153.3,A,3248.559275,N,11715.870085,W,27.1,314.8,130310,,,A*42
$GPRMC,014156.3,A,3248.573995,N,11715.889491,W,26.5,313.9,130310,,,A*4E
$GPRMC,014159.3,A,3248.589206,N,11715.908522,W,26.2,313.7,130310,,,A*4D
$GPRMC,014202.3,A,3248.602470,N,11715.928658,W,25.3,311.8,130310,,,A*44
$GPRMC,014205.3,A,3248.618415,N,11715.946497,W,25.7,314.9,130310,,,A*42
$GPRMC,014208.3,A,3248.634628,N,11715.962995,W,25.5,315.9,130310,,,A*47
$GPRMC,014211.3,A,3248.648564,N,11715.978480,W,22.0,318.6,130310,,,A*4D
$GPRMC,014214.3,A,3248.660043,N,11715.989112,W,15.7,319.3,130310,,,A*45
$GPRMC,014217.3,A,3248.666168,N,11715.995915,W,8.6,323.9,130310,,,A*74
$GPRMC,014220.3,A,3248.673453,N,11715.999774,W,9.9,331.9,130310,,,A*71
$GPRMC,014223.3,A,3248.678120,N,11716.008226,W,11.4,301.7,130310,,,A*41
$GPRMC,014226.3,A,3248.686403,N,11716.018827,W,17.0,313.1,130310,,,A*4C
$GPRMC,014229.3,A,3248.698646,N,11716.033308,W,21.1,315.5,130310,,,A*46
$GPRMC,014232.3,A,3248.712385,N,11716.048872,W,22.4,315.1,130310,,,A*4D
$GPRMC,014235.3,A,3248.722639,N,11716.062322,W,18.2,316.4,130310,,,A*44
$GPRMC,014238.3,A,3248.732409,N,11716.071478,W,14.0,318.9,130310,,,A*4E
$GPRMC,014241.3,A,3248.737271,N,11716.077937,W,9.9,313.2,130310,,,A*79
$GPRMC,014244.3,A,3248.743413,N,11716.083638,W,8.8,321.4,130310,,,A*71
$GPRMC,014247.3,A,3248.749511,N,11716.086348,W,8.4,336.6,130310,,,A*74
$GPRMC,014250.3,A,3248.754490,N,11716.094286,W,10.8,301.6,130310,,,A*47
$GPRMC,014253.3,A,3248.759996,N,11716.105723,W,14.2,306.5,130310,,,A*4B
$GPRMC,014256.3,A,3248.770897,N,11716.118893,W,18.9,315.7,130310,,,A*4A
$GPRMC,014259.3,A,3248.785251,N,11716.131845,W,21.6,319.0,130310,,,A*41
$GPRMC,014302.3,A,3248.800371,N,11716.144516,W,20.9,321.6,130310,,,A*45
$GPRMC,014305.3,A,3248.811509,N,11716.153836,W,13.0,323.8,130310,,,A*47
$GPRMC,014308.3,A,3248.814963,N,11716.158207,W,5.7,321.0,130310,,,A*76
$GPRMC,014311.3,A,3248.817334,N,11716.160660,W,4.9,321.9,130310,,,A*7D
$GPRMC,014314.3,A,3248.822958,N,11716.163701,W,8.9,334.5,130310,,,A*7F
$GPRMC,014317.3,A,3248.831604,N,11716.169504,W,11.7,326.1,130310,,,A*44
$GPRMC,014320.3,A,3248.842499,N,11716.176821,W,13.7,325.3,130310,,,A*45
$GPRMC,014323.3,A,3248.853176,N,11716.184483,W,15.6,329.3,130310,,,A*40
$GPRMC,014326.3,A,3248.865700,N,11716.193766,W,17.8,331.4,130310,,,A*4B
$GPRMC,014329.3,A,3248.880177,N,11716.200788,W,18.5,333.7,130310,,,A*43
$GPRMC,014332.3,A,3248.892601,N,11716.208587,W,18.2,331.6,130310,,,A*4D
$GPRMC,014335.3,A,3248.905245,N,11716.217072,W,16.9,332.3,130310,,,A*43
$GPRMC,014338.3,A,3248.915815,N,11716.223301,W,12.1,333.5,130310,,,A*4B
$GPRMC,014341.3,A,3248.922461,N,11716.227661,W,8.3,332.0,130310,,,A*74
$GPRMC,014344.3,A,3248.928070,N,11716.230942,W,8.3,332.1,130310,,,A*76
$GPRMC,014347.3,A,3248.934984,N,11716.232498,W,8.6,345.3,130310,,,A*75
$GPRMC,014350.3,A,3248.942832,N,11716.237367,W,11.4,326.3,130310,,,A*43
$GPRMC,014353.3,A,3248.950306,N,11716.243987,W,11.6,327.3,130310,,,A*4B
$GPRMC,014356.3,A,3248.960943,N,11716.250581,W,15.1,332.6,130310,,,A*4C
$GPRMC,014359.3,A,3248.973099,N,11716.257613,W,16.6,332.0,130310,,,A*42
$GPRMC,014402.3,A,3248.986035,N,11716.265766,W,17.2,332.6,130310,,,A*46
$GPRMC,014405.3,A,3248.998428,N,11716.274195,W,16.6,329.8,130310,,,A*4D
$GPRMC,014408.3,A,3249.011262,N,11716.282670,W,17.1,331.1,130310,,,A*42
$GPRMC,014411.3,A,3249.023107,N,11716.291752,W,16.7,329.2,130310,,,A*45
$GPRMC,014414.3,A,3249.035086,N,11716.298519,W,16.2,330.3,130310,,,A*47
$GPRMC,014417.3,A,3249.045230,N,11716.305186,W,13.4,332.8,130310,,,A*41
$GPRMC,014420.3,A,3249.051222,N,11716.308695,W,9.4,342.9,130310,,,A*76
$GPRMC,014423.3,A,3249.060478,N,11716.312920,W,12.0,326.6,130310,,,A*47
$GPRMC,014426.3,A,3249.070723,N,11716.321663,W,15.8,324.8,130310,,,A*45
$GPRMC,014429.3,A,3249.084263,N,11716.330029,W,19.1,329.3,130310,,,A*4B
$GPRMC,014432.3,A,3249.098952,N,11716.340504,W,21.4,329.8,130310,,,A*4D
$GPRMC,014435.3,A,3249.116342,N,11716.350672,W,22.8,332.0,130310,,,A*48
$GPRMC,014438.3,A,3249.135008,N,11716.362492,W,24.4,332.3,130310,,,A*4D
$GPRMC,014441.3,A,3249.153844,N,11716.373313,W,24.7,332.1,130310,,,A*4C
$GPRMC,014444.3,A,3249.171312,N,11716.385371,W,24.8,331.3,130310,,,A*42
$GPRMC,014447.3,A,3249.189277,N,11716.396294,W,23.4,332.6,130310,,,A*41
$GPRMC,014450.3,A,3249.204963,N,11716.407626,W,23.1,329.9,130310,,,A*4D
$GPRMC,014453.3,A,3249.223776,N,11716.419331,W,26.2,330.4,130310,,,A*4E
$GPRMC,014456.3,A,3249.245121,N,11716.431215,W,29.0,332.0,130310,,,A*49
$GPRMC,014459.3,A,3249.267800,N,11716.446061,W,30.8,331.2,130310,,,A*4C
$GPRMC,014502.3,A,3249.290322,N,11716.460043,W,30.9,331.0,130310,,,A*47
$GPRMC,014505.3,A,3249.314556,N,11716.474951,W,32.1,332.2,130310,,,A*4C
$GPRMC,014508.3,A,3249.337820,N,11716.489667,W,31.3,330.5,130310,,,A*40
$GPRMC,014511.3,A,3249.360624,N,11716.503632,W,30.2,331.3,130310,,,A*44
$GPRMC,014514.3,A,3249.381353,N,11716.516972,W,28.6,331.5,130310,,,A*4F
$GPRMC,014517.3,A,3249.403720,N,11716.527083,W,28.1,334.2,130310,,,A*41
$GPRMC,014520.3,A,3249.423070,N,11716.538311,W,27.1,332.5,130310,,,A*4D
$GPRMC,014523.3,A,3249.446458,N,11716.551004,W,29.6,335.1,130310,,,A*41
$GPRMC,014526.3,A,3249.469315,N,11716.561714,W,29.5,336.8,130310,,,A*4B
$GPRMC,014529.3,A,3249.490338,N,11716.572848,W,28.0,338.7,130310,,,A*4C
$GPRMC,014532.3,A,3249.510516,N,11716.581448,W,26.3,341.2,130310,,,A*43
$GPRMC,014535.3,A,3249.532645,N,11716.590468,W,28.0,342.0,130310,,,A*4F
$GPRMC,014538.3,A,3249.554642,N,11716.599875,W,28.6,343.8,130310,,,A*43
$GPRMC,014541.3,A,3249.576791,N,11716.607183,W,27.7,345.3,130310,,,A*45
$GPRMC,014544.3,A,3249.597047,N,11716.611661,W,23.7,349.5,130310,,,A*41
$GPRMC,014547.3,A,3249.614162,N,11716.615306,W,21.8,351.1,130310,,,A*4C
$GPRMC,014550.3,A,3249.634129,N,11716.617012,W,23.7,352.7,130310,,,A*4B
$GPRMC,014553.3,A,3249.655907,N,11716.618784,W,25.7,354.9,130310,,,A*42
$GPRMC,014556.3,A,3249.679603,N,11716.619311,W,26.6,355.2,130310,,,A*43
$GPRMC,014559.3,A,3249.702226,N,11716.621801,W,27.0,354.8,130310,,,A*4F
$GPRMC,014602.3,A,3249.726263,N,11716.621059,W,26.0,356.8,130310,,,A*43
$GPRMC,014605.3,A,3249.745104,N,11716.623556,W,21.3,354.8,130310,,,A*4D
$GPRMC,014608.3,A,3249.760747,N,11716.624845,W,19.7,353.1,130310,,,A*4F
$GPRMC,014611.3,A,3249.776472,N,11716.624632,W,20.8,4.3,130310,,,A*4D
$GPRMC,014614.3,A,3249.791123,N,11716.618152,W,20.0,19.5,130310,,,A*7C
$GPRMC,014617.3,A,3249.805710,N,11716.609704,W,19.5,23.8,130310,,,A*75
$GPRMC,014620.3,A,3249.820038,N,11716.602470,W,18.6,24.5,130310,,,A*78
$GPRMC,014623.3,A,3249.834163,N,11716.595592,W,20.2,23.9,130310,,,A*75
$GPRMC,014626.3,A,3249.851657,N,11716.586723,W,21.7,22.5,130310,,,A*70
$GPRMC,014629.3,A,3249.867622,N,11716.584198,W,19.0,1.0,130310,,,A*44
$GPRMC,014632.3,A,3249.883047,N,11716.586291,W,17.9,353.9,130310,,,A*43
$GPRMC,014635.3,A,3249.894469,N,11716.588850,W,14.4,352.9,130310,,,A*4C
$GPRMC,014638.3,A,3249.900952,N,11716.588549,W,8.3,9.2,130310,,,A*71
$GPRMC,014702.3,A,3249.910588,N,11716.592523,W,10.6,340.3,130310,,,A*47
$GPRMC,014705.3,A,3249.923025,N,11716.597302,W,15.1,342.9,130310,,,A*48
$GPRMC,014708.3,A,3249.938312,N,11716.601954,W,18.0,344.2,130310,,,A*4C
$GPRMC,014711.3,A,3249.955496,N,11716.608467,W,20.3,340.8,130310,,,A*46
$GPRMC,014714.3,A,3249.971832,N,11716.614682,W,20.0,341.9,130310,,,A*40
$GPRMC,014717.3,A,3249.990151,N,11716.619166,W,20.9,347.5,130310,,,A*43
$GPRMC,014720.3,A,3250.010712,N,11716.625521,W,24.5,345.3,130310,,,A*4B
$GPRMC,014723.3,A,3250.032615,N,11716.633853,W,26.4,344.3,130310,,,A*43
$GPRMC,014726.3,A,3250.053662,N,11716.644463,W,27.0,343.5,130310,,,A*4A
$GPRMC,014729.3,A,3250.076103,N,11716.649989,W,26.0,345.4,130310,,,A*40
$GPRMC,014732.3,A,3250.098377,N,11716.653440,W,25.8,347.8,130310,,,A*4D
$GPRMC,014735.3,A,3250.118626,N,11716.661677,W,26.6,345.5,130310,,,A*47
$GPRMC,014738.3,A,3250.139302,N,11716.670231,W,26.4,344.5,130310,,,A*4F
$GPRMC,014741.3,A,3250.159587,N,11716.679786,W,26.1,344.6,130310,,,A*4A
$GPRMC,014744.3,A,3250.179078,N,11716.686320,W,24.3,342.8,130310,,,A*48
$GPRMC,014747.3,A,3250.195321,N,11716.690599,W,22.3,343.2,130310,,,A*48
$GPRMC,014750.3,A,3250.211865,N,11716.694380,W,21.5,346.2,130310,,,A*40
$GPRMC,014753.3,A,3250.230497,N,11716.694573,W,22.1,354.4,130310,,,A*49
$GPRMC,014756.3,A,3250.244761,N,11716.693065,W,19.9,3.7,130310,,,A*42
$GPRMC,014759.3,A,3250.260561,N,11716.690698,W,19.6,6.6,130310,,,A*45
$GPRMC,014802.3,A,3250.278310,N,11716.686849,W,18.9,358.6,130310,,,A*4E
$GPRMC,014805.3,A,3250.293999,N,11716.689937,W,19.6,350.3,130310,,,A*43
$GPRMC,014808.3,A,3250.310448,N,11716.694500,W,20.3,349.4,130310,,,A*41
$GPRMC,014811.3,A,3250.325829,N,11716.698777,W,18.8,349.6,130310,,,A*48
$GPRMC,014814.3,A,3250.338486,N,11716.700506,W,16.4,350.3,130310,,,A*43
$GPRMC,014817.3,A,3250.349103,N,11716.699494,W,11.8,7.7,130310,,,A*4B
$GPRMC,014820.3,A,3250.353547,N,11716.688582,W,9.3,42.4,130310,,,A*46
$GPRMC,014823.3,A,3250.356557,N,11716.663393,W,18.2,75.6,130310,,,A*75
$GPRMC,014826.3,A,3250.362686,N,11716.639125,W,22.9,75.1,130310,,,A*7D
$GPRMC,014829.3,A,3250.367449,N,11716.615424,W,21.8,75.0,130310,,,A*7F
$GPRMC,014832.3,A,3250.370600,N,11716.593457,W,21.2,78.1,130310,,,A*73
$GPRMC,014835.3,A,3250.374392,N,11716.571105,W,21.2,75.2,130310,,,A*7E
$GPRMC,014838.3,A,3250.379920,N,11716.552536,W,18.8,73.6,130310,,,A*7A
$GPRMC,014841.3,A,3250.383652,N,11716.537037,W,16.4,75.5,130310,,,A*7B
$GPRMC,014844.3,A,3250.389485,N,11716.518587,W,18.6,74.0,130310,,,A*77
$GPRMC,014847.3,A,3250.393962,N,11716.497866,W,20.3,75.5,130310,,,A*75
$GPRMC,014850.3,A,3250.399871,N,11716.475845,W,21.6,75.1,130310,,,A*77
$GPRMC,014853.3,A,3250.404271,N,11716.457601,W,19.6,73.6,130310,,,A*79
$GPRMC,014856.3,A,3250.406809,N,11716.445147,W,12.6,72.5,130310,,,A*74
$GPRMC,014859.3,A,3250.408238,N,11716.437946,W,5.7,72.6,130310,,,A*45
$GPRMC,014908.3,A,3250.411654,N,11716.424436,W,6.8,78.4,130310,,,A*4A
$GPRMC,014911.3,A,3250.415015,N,11716.411610,W,13.1,76.7,130310,,,A*75
$GPRMC,014914.3,A,3250.419210,N,11716.393454,W,16.1,75.4,130310,,,A*71
$GPRMC,014917.3,A,3250.423881,N,11716.375713,W,17.6,72.6,130310,,,A*72
$GPRMC,014920.3,A,3250.427998,N,11716.361506,W,16.2,67.9,130310,,,A*76
$GPRMC,014923.3,A,3250.437152,N,11716.351554,W,16.1,38.3,130310,,,A*7D
$GPRMC,014926.3,A,3250.448781,N,11716.357158,W,15.0,354.4,130310,,,A*4A
$GPRMC,014929.3,A,3250.468067,N,11716.363625,W,20.7,345.3,130310,,,A*44
$GPRMC,014932.3,A,3250.492017,N,11716.369197,W,24.5,347.6,130310,,,A*49
$GPRMC,014935.3,A,3250.512144,N,11716.373934,W,23.4,350.3,130310,,,A*4F
$GPRMC,014938.3,A,3250.522805,N,11716.370348,W,14.9,15.9,130310,,,A*7E
$GPRMC,014941.3,A,3250.536827,N,11716.357060,W,20.3,36.5,130310,,,A*79
$GPRMC,014944.3,A,3250.551930,N,11716.342357,W,23.3,40.8,130310,,,A*76
$GPRMC,014947.3,A,3250.568821,N,11716.323793,W,26.1,41.4,130310,,,A*7F
$GPRMC,014950.3,A,3250.587597,N,11716.301792,W,29.0,41.7,130310,,,A*74
$GPRMC,014953.3,A,3250.605780,N,11716.282433,W,29.2,40.3,130310,,,A*7F
$GPRMC,014956.3,A,3250.624311,N,11716.262852,W,29.0,41.6,130310,,,A*76
$GPRMC,014959.3,A,3250.642685,N,11716.243477,W,28.3,40.5,130310,,,A*79
$GPRMC,015002.3,A,3250.659440,N,11716.224244,W,27.5,42.7,130310,,,A*70
$GPRMC,015005.3,A,3250.672173,N,11716.206094,W,23.3,51.3,130310,,,A*70
$GPRMC,015008.3,A,3250.676019,N,11716.197462,W,14.6,63.4,130310,,,A*75
$GPRMC,015029.3,A,3250.682420,N,11716.196202,W,13.0,40.8,130310,,,A*7E
$GPRMC,015032.3,A,3250.695146,N,11716.182503,W,21.1,42.4,130310,,,A*7A
$GPRMC,015035.3,A,3250.712310,N,11716.166230,W,26.7,40.2,130310,,,A*7A
$GPRMC,015038.3,A,3250.731698,N,11716.145198,W,30.5,42.4,130310,,,A*72
$GPRMC,015041.3,A,3250.751567,N,11716.122279,W,30.8,43.1,130310,,,A*7D
$GPRMC,015044.3,A,3250.771151,N,11716.102130,W,30.5,41.4,130310,,,A*7D
$GPRMC,015047.3,A,3250.790416,N,11716.082120,W,31.2,41.5,130310,,,A*78
$GPRMC,015050.3,A,3250.810109,N,11716.061356,W,32.3,42.2,130310,,,A*7A
$GPRMC,015053.3,A,3250.829926,N,11716.040054,W,30.7,42.8,130310,,,A*78
$GPRMC,015056.3,A,3250.848338,N,11716.018516,W,29.5,46.4,130310,,,A*73
$GPRMC,015059.3,A,3250.863007,N,11715.998333,W,26.2,52.4,130310,,,A*74
$GPRMC,015102.3,A,3250.871862,N,11715.978733,W,25.2,64.2,130310,,,A*79
$GPRMC,015105.3,A,3250.878234,N,11715.954176,W,25.4,70.6,130310,,,A*70
$GPRMC,015108.3,A,3250.881165,N,11715.927340,W,26.9,78.1,130310,,,A*7E
$GPRMC,015111.3,A,3250.883834,N,11715.905437,W,22.2,79.7,130310,,,A*76
$GPRMC,015114.3,A,3250.886047,N,11715.888382,W,18.5,81.3,130310,,,A*7A
$GPRMC,015117.3,A,3250.887731,N,11715.880089,W,11.5,72.6,130310,,,A*7E
$GPRMC,015135.3,A,3250.890007,N,11715.875466,W,5.0,70.0,130310,,,A*41
$GPRMC,015138.3,A,3250.891383,N,11715.868667,W,7.0,77.8,130310,,,A*40
$GPRMC,015141.3,A,3250.894802,N,11715.860439,W,9.2,73.5,130310,,,A*4D
$GPRMC,015144.3,A,3250.896549,N,11715.854024,W,7.4,69.9,130310,,,A*48
$GPRMC,015147.3,A,3250.898138,N,11715.848401,W,6.2,76.0,130310,,,A*49
$GPRMC,015150.3,A,3250.900724,N,11715.839467,W,8.7,74.6,130310,,,A*4D
$GPRMC,015153.3,A,3250.904085,N,11715.826081,W,11.7,73.5,130310,,,A*78
$GPRMC,015156.3,A,3250.908205,N,11715.814835,W,11.3,70.8,130310,,,A*77
$GPRMC,015159.3,A,3250.913440,N,11715.798025,W,14.3,68.5,130310,,,A*76
$GPRMC,015202.3,A,3250.919203,N,11715.780825,W,16.0,68.8,130310,,,A*7D
$GPRMC,015205.3,A,3250.924763,N,11715.765673,W,14.4,64.4,130310,,,A*77
$GPRMC,015208.3,A,3250.930829,N,11715.754365,W,12.3,61.1,130310,,,A*7F
$GPRMC,015211.3,A,3250.935314,N,11715.744967,W,10.4,58.8,130310,,,A*78
$GPRMC,015214.3,A,3250.942458,N,11715.735322,W,10.4,51.3,130310,,,A*7D
$GPRMC,015217.3,A,3250.946210,N,11715.727042,W,9.4,56.5,130310,,,A*4F
$GPRMC,015220.3,A,3250.948993,N,11715.723063,W,5.1,59.6,130310,,,A*47
$GPRMC,015229.3,A,3250.956396,N,11715.712377,W,6.9,56.5,130310,,,A*4D
$GPRMC,015232.3,A,3250.961116,N,11715.704627,W,9.4,55.5,130310,,,A*4F
$GPRMC,015235.3,A,3250.967374,N,11715.693292,W,12.7,57.2,130310,,,A*71
$GPRMC,015238.3,A,3250.970955,N,11715.681275,W,12.4,65.5,130310,,,A*7C
$GPRMC,015241.3,A,3250.975401,N,11715.673522,W,9.9,72.9,130310,,,A*4E
$GPRMC,015244.3,A,3250.975388,N,11715.667750,W,6.6,74.4,130310,,,A*44
$GPRMC,015247.3,A,3250.976370,N,11715.659813,W,6.8,77.2,130310,,,A*4D
$GPRMC,015250.3,A,3250.977337,N,11715.649065,W,8.5,82.5,130310,,,A*4F
$GPRMC,015253.3,A,3250.979157,N,11715.640329,W,8.2,78.7,130310,,,A*44
$GPRMC,015256.3,A,3250.981610,N,11715.635114,W,5.8,71.6,130310,,,A*43
$GPRMC,015417.3,A,3250.983059,N,11715.621245,W,5.2,85.2,130310,,,A*4E
$GPRMC,015420.3,A,3250.982088,N,11715.614508,W,6.4,86.6,130310,,,A*4D
$GPRMC,015423.3,A,3250.983383,N,11715.605541,W,8.2,82.8,130310,,,A*48
$GPRMC,015426.3,A,3250.984024,N,11715.598419,W,7.0,83.7,130310,,,A*4C
$GPRMC,015429.3,A,3250.983835,N,11715.593846,W,5.3,86.3,130310,,,A*41
$GPRMC,015432.3,A,3250.983445,N,11715.588743,W,4.9,90.5,130310,,,A*4A
$GPRMC,015435.3,A,3250.985089,N,11715.584462,W,4.8,82.7,130310,,,A*43
$GPRMC,015438.3,A,3250.985975,N,11715.579623,W,5.0,81.7,130310,,,A*4B
$GPRMC,015441.3,A,3250.986566,N,11715.573413,W,5.7,80.6,130310,,,A*44
$GPRMC,015444.3,A,3250.988001,N,11715.567092,W,6.3,78.2,130310,,,A*47
$GPRMC,015447.3,A,3250.988702,N,11715.561065,W,6.4,81.2,130310,,,A*4F
$GPRMC,015450.3,A,3250.987223,N,11715.554831,W,6.0,87.6,130310,,,A*49
$GPRMC,015526.3,A,3250.988363,N,11715.541689,W,5.6,82.1,130310,,,A*4D
$GPRMC,015529.3,A,3250.987896,N,11715.532944,W,8.1,89.5,130310,,,A*43
$GPRMC,015532.3,A,3250.988204,N,11715.523189,W,9.7,87.9,130310,,,A*4B
$GPRMC,015535.3,A,3250.989161,N,11715.511107,W,12.5,87.5,130310,,,A*7E
$GPRMC,015538.3,A,3250.990241,N,11715.497863,W,13.3,87.8,130310,,,A*74
$GPRMC,015541.3,A,3250.989229,N,11715.484175,W,13.8,91.7,130310,,,A*73
$GPRMC,015544.3,A,3250.987990,N,11715.472115,W,11.3,94.2,130310,,,A*77
$GPRMC,015547.3,A,3250.987255,N,11715.465970,W,6.9,91.0,130310,,,A*40
$GPRMC,015626.3,A,3250.987283,N,11715.440063,W,7.5,84.2,130310,,,A*48
$GPRMC,015629.3,A,3250.988018,N,11715.428198,W,10.7,85.2,130310,,,A*76
$GPRMC,015632.3,A,3250.990266,N,11715.414648,W,13.6,78.6,130310,,,A*7F
$GPRMC,015635.3,A,3250.995077,N,11715.395861,W,19.3,74.5,130310,,,A*74
$GPRMC,015638.3,A,3251.000061,N,11715.376760,W,19.9,72.4,130310,,,A*74
$GPRMC,015641.3,A,3251.006423,N,11715.355951,W,21.5,71.2,130310,,,A*71
$GPRMC,015644.3,A,3251.012336,N,11715.334171,W,19.9,70.0,130310,,,A*7B
$GPRMC,015647.3,A,3251.017451,N,11715.320035,W,16.5,69.9,130310,,,A*7D
$GPRMC,015650.3,A,3251.021019,N,11715.306193,W,14.0,72.8,130310,,,A*73
$GPRMC,015653.3,A,3251.023249,N,11715.295845,W,10.3,73.6,130310,,,A*74
$GPRMC,015738.3,A,3251.023306,N,11715.285370,W,5.9,76.4,130310,,,A*47
$GPRMC,015741.3,A,3251.025299,N,11715.277464,W,7.5,76.9,130310,,,A*44
$GPRMC,015744.3,A,3251.026513,N,11715.270766,W,6.4,77.4,130310,,,A*4D
$GPRMC,015747.3,A,3251.027702,N,11715.264412,W,6.5,77.7,130310,,,A*4A
$GPRMC,015817.3,A,3251.027493,N,11715.247613,W,5.0,96.5,130310,,,A*42
$GPRMC,015820.3,A,3251.027269,N,11715.241930,W,5.9,93.0,130310,,,A*44
$GPRMC,015823.3,A,3251.027504,N,11715.235989,W,5.7,90.0,130310,,,A*47
$GPRMC,015826.3,A,3251.026023,N,11715.228381,W,7.4,99.0,130310,,,A*45
$GPRMC,015829.3,A,3251.023700,N,11715.215051,W,12.1,99.5,130310,,,A*7D
$GPRMC,015832.3,A,3251.022854,N,11715.198409,W,15.5,96.5,130310,,,A*7B
$GPRMC,015835.3,A,3251.021243,N,11715.180282,W,17.5,97.9,130310,,,A*70
$GPRMC,015838.3,A,3251.019042,N,11715.162849,W,17.3,98.9,130310,,,A*7D
$GPRMC,015841.3,A,3251.018037,N,11715.147320,W,14.9,97.0,130310,,,A*7C
$GPRMC,015844.3,A,3251.015974,N,11715.136232,W,11.7,95.9,130310,,,A*7E
$GPRMC,015847.3,A,3251.015908,N,11715.131853,W,6.1,83.6,130310,,,A*44
$GPRMC,020029.3,A,3251.013014,N,11715.124905,W,6.9,108.9,130310,,,A*73
$GPRMC,020032.3,A,3251.010128,N,11715.114402,W,10.7,110.3,130310,,,A*47
$GPRMC,020035.3,A,3251.007362,N,11715.100069,W,14.8,98.5,130310,,,A*7A
$GPRMC,020038.3,A,3251.010973,N,11715.085104,W,14.7,69.2,130310,,,A*7B
$GPRMC,020041.3,A,3251.019244,N,11715.068785,W,17.7,61.3,130310,,,A*75
$GPRMC,020044.3,A,3251.026043,N,11715.050262,W,20.2,66.8,130310,,,A*73
$GPRMC,020047.3,A,3251.032144,N,11715.029903,W,21.4,70.6,130310,,,A*7F
$GPRMC,020050.3,A,3251.040506,N,11715.004746,W,24.7,70.1,130310,,,A*7F
$GPRMC,020053.3,A,3251.049381,N,11714.976597,W,27.7,71.0,130310,,,A*7C
$GPRMC,020056.3,A,3251.057529,N,11714.946573,W,29.8,71.5,130310,,,A*7F
$GPRMC,020059.3,A,3251.067900,N,11714.913665,W,32.0,71.2,130310,,,A*75
$GPRMC,020102.3,A,3251.078105,N,11714.874033,W,34.7,72.2,130310,,,A*7E
$GPRMC,020105.3,A,3251.086991,N,11714.838998,W,35.7,71.5,130310,,,A*78
$GPRMC,020108.3,A,3251.097544,N,11714.805857,W,35.0,71.1,130310,,,A*7E
$GPRMC,020111.3,A,3251.106790,N,11714.775412,W,32.8,67.6,130310,,,A*7E
$GPRMC,020114.3,A,3251.123164,N,11714.748410,W,32.4,52.9,130310,,,A*78
$GPRMC,020117.3,A,3251.145115,N,11714.728242,W,34.1,36.8,130310,,,A*7A
$GPRMC,020120.3,A,3251.171077,N,11714.718106,W,32.8,18.5,130310,,,A*72
$GPRMC,020123.3,A,3251.199316,N,11714.714885,W,34.2,6.3,130310,,,A*48
$GPRMC,020126.3,A,3251.229322,N,11714.717642,W,36.9,359.2,130310,,,A*45
$GPRMC,020129.3,A,3251.262226,N,11714.719630,W,39.5,358.1,130310,,,A*4A
$GPRMC,020132.3,A,3251.295845,N,11714.723091,W,40.3,357.1,130310,,,A*44
$GPRMC,020135.3,A,3251.331843,N,11714.726338,W,41.4,356.7,130310,,,A*4E
$GPRMC,020138.3,A,3251.368210,N,11714.731651,W,41.6,354.5,130310,,,A*4D
$GPRMC,020141.3,A,3251.403159,N,11714.738502,W,41.6,350.5,130310,,,A*4F
$GPRMC,020144.3,A,3251.437855,N,11714.747904,W,42.1,347.6,130310,,,A*4B
$GPRMC,020147.3,A,3251.473937,N,11714.762380,W,43.8,342.1,130310,,,A*46
$GPRMC,020150.3,A,3251.510122,N,11714.778161,W,43.8,340.9,130310,,,A*44
$GPRMC,020153.3,A,3251.547306,N,11714.788303,W,43.7,345.1,130310,,,A*4A
$GPRMC,020156.3,A,3251.581299,N,11714.783090,W,40.2,359.5,130310,,,A*4F
$GPRMC,020159.3,A,3251.611677,N,11714.775156,W,37.5,4.0,130310,,,A*45
$GPRMC,020202.3,A,3251.637374,N,11714.760923,W,33.3,14.0,130310,,,A*77
$GPRMC,020205.3,A,3251.657669,N,11714.733151,W,31.9,29.5,130310,,,A*77
$GPRMC,020208.3,A,3251.659910,N,11714.687329,W,31.3,61.6,130310,,,A*73
$GPRMC,020211.3,A,3251.658773,N,11714.636754,W,37.3,69.7,130310,,,A*7A
$GPRMC,020214.3,A,3251.672268,N,11714.598130,W,37.4,59.0,130310,,,A*78
$GPRMC,020217.3,A,3251.691745,N,11714.566256,W,36.6,55.1,130310,,,A*70
$GPRMC,020220.3,A,3251.720413,N,11714.547612,W,40.1,40.0,130310,,,A*7B
$GPRMC,020226.3,A,3251.786575,N,11714.570182,W,34.3,354.4,130310,,,A*49
$GPRMC,020229.3,A,3251.812210,N,11714.574323,W,32.4,352.9,130310,,,A*47
$GPRMC,020232.3,A,3251.838523,N,11714.578707,W,32.0,351.1,130310,,,A*43
$GPRMC,020235.3,A,3251.865431,N,11714.580470,W,31.4,353.9,130310,,,A*47
$GPRMC,020238.3,A,3251.888880,N,11714.576969,W,28.1,359.9,130310,,,A*44
$GPRMC,020241.3,A,3251.905359,N,11714.575692,W,21.7,3.8,130310,,,A*4B
$GPRMC,020244.3,A,3251.915597,N,11714.572251,W,15.7,13.1,130310,,,A*78
$GPRMC,020247.3,A,3251.920388,N,11714.575326,W,10.3,12.2,130310,,,A*70
$GPRMC,020311.3,A,3251.915016,N,11714.595176,W,5.2,358.9,130310,,,A*7A
$GPRMC,020314.3,A,3251.925674,N,11714.593668,W,13.7,5.1,130310,,,A*41
$GPRMC,020317.3,A,3251.940393,N,11714.590126,W,18.3,8.7,130310,,,A*47
$GPRMC,020320.3,A,3251.961881,N,11714.586959,W,24.1,7.6,130310,,,A*4C
$GPRMC,020323.3,A,3251.984672,N,11714.582475,W,24.8,9.3,130310,,,A*43
$GPRMC,020326.3,A,3252.004229,N,11714.579715,W,24.2,10.5,130310,,,A*7B
$GPRMC,020329.3,A,3252.024719,N,11714.577047,W,25.0,7.5,130310,,,A*4B
$GPRMC,020332.3,A,3252.048077,N,11714.572813,W,26.3,10.3,130310,,,A*78
$GPRMC,020335.3,A,3252.069308,N,11714.566955,W,25.8,11.4,130310,,,A*7F
$GPRMC,020338.3,A,3252.090586,N,11714.562335,W,26.7,11.0,130310,,,A*74
$GPRMC,020341.3,A,3252.111318,N,11714.558497,W,25.6,10.3,130310,,,A*75
$GPRMC,020344.3,A,3252.130315,N,11714.553206,W,21.1,12.9,130310,,,A*70
$GPRMC,020347.3,A,3252.139338,N,11714.551982,W,10.2,9.9,130310,,,A*4B
$GPRMC,020426.3,A,3252.151191,N,11714.546558,W,4.5,9.7,130310,,,A*75
$GPRMC,020429.3,A,3252.159805,N,11714.544536,W,9.8,11.6,130310,,,A*44
$GPRMC,020432.3,A,3252.172628,N,11714.539348,W,15.8,14.7,130310,,,A*7A
$GPRMC,020435.3,A,3252.188201,N,11714.534681,W,17.2,12.3,130310,,,A*70
$GPRMC,020438.3,A,3252.198505,N,11714.529669,W,12.7,31.8,130310,,,A*7F
$GPRMC,020441.3,A,3252.203048,N,11714.519045,W,11.9,71.4,130310,,,A*72
$GPRMC,020444.3,A,3252.199676,N,11714.496614,W,20.4,93.0,130310,,,A*7F
$GPRMC,020447.3,A,3252.201333,N,11714.474110,W,21.5,81.6,130310,,,A*70
$GPRMC,020450.3,A,3252.207531,N,11714.449799,W,24.6,70.4,130310,,,A*77
$GPRMC,020453.3,A,3252.218368,N,11714.425305,W,28.0,58.5,130310,,,A*7A
$GPRMC,020456.3,A,3252.236463,N,11714.399351,W,32.7,52.2,130310,,,A*7F
$GPRMC,020459.3,A,3252.256882,N,11714.370323,W,36.4,50.6,130310,,,A*76
$GPRMC,020502.3,A,3252.276575,N,11714.337476,W,38.5,55.2,130310,,,A*74
$GPRMC,020505.3,A,3252.291426,N,11714.301351,W,40.6,66.2,130310,,,A*76
$GPRMC,020508.3,A,3252.299247,N,11714.261885,W,40.1,78.8,130310,,,A*75
$GPRMC,020511.3,A,3252.301747,N,11714.227572,W,36.2,86.3,130310,,,A*77
$GPRMC,020514.3,A,3252.302054,N,11714.193682,W,32.9,89.6,130310,,,A*71
$GPRMC,020517.3,A,3252.300878,N,11714.161341,W,33.0,93.3,130310,,,A*77
$GPRMC,020520.3,A,3252.297786,N,11714.131345,W,31.7,95.9,130310,,,A*7A
$GPRMC,020523.3,A,3252.295827,N,11714.101634,W,30.0,93.6,130310,,,A*70
$GPRMC,020526.3,A,3252.295459,N,11714.075421,W,26.1,92.1,130310,,,A*74
$GPRMC,020529.3,A,3252.294515,N,11714.054442,W,18.6,91.5,130310,,,A*78
$GPRMC,020532.3,A,3252.294428,N,11714.045223,W,8.7,88.4,130310,,,A*45
$GPRMC,020726.3,A,3252.293418,N,11714.034711,W,8.5,100.1,130310,,,A*72
$GPRMC,020729.3,A,3252.294198,N,11714.022176,W,13.0,86.5,130310,,,A*73
$GPRMC,020732.3,A,3252.294525,N,11713.999723,W,22.6,87.8,130310,,,A*7B
$GPRMC,020735.3,A,3252.296211,N,11713.967323,W,27.7,88.4,130310,,,A*7C
$GPRMC,020738.3,A,3252.297497,N,11713.934621,W,31.2,87.8,130310,,,A*78
$GPRMC,020741.3,A,3252.296016,N,11713.899364,W,33.1,88.3,130310,,,A*7D
$GPRMC,020744.3,A,3252.298276,N,11713.864322,W,33.2,82.7,130310,,,A*7F
$GPRMC,020747.3,A,3252.303633,N,11713.831264,W,33.8,78.6,130310,,,A*77
$GPRMC,020750.3,A,3252.310088,N,11713.799670,W,33.2,76.2,130310,,,A*79
$GPRMC,020753.3,A,3252.316398,N,11713.768185,W,31.9,76.3,130310,,,A*75
$GPRMC,020756.3,A,3252.321699,N,11713.737590,W,31.9,77.8,130310,,,A*70
$GPRMC,020759.3,A,3252.330066,N,11713.704018,W,34.2,76.9,130310,,,A*72
$GPRMC,020802.3,A,3252.333757,N,11713.666773,W,36.1,83.6,130310,,,A*7E
$GPRMC,020805.3,A,3252.335120,N,11713.632204,W,35.6,90.2,130310,,,A*7F
$GPRMC,020808.3,A,3252.328123,N,11713.596961,W,36.1,101.4,130310,,,A*43
$GPRMC,020811.3,A,3252.318379,N,11713.565565,W,34.4,109.5,130310,,,A*4F
$GPRMC,020814.3,A,3252.306031,N,11713.536671,W,31.8,116.6,130310,,,A*4E
$GPRMC,020817.3,A,3252.292872,N,11713.512785,W,29.6,119.2,130310,,,A*4E
$GPRMC,020820.3,A,3252.283793,N,11713.490120,W,25.3,118.1,130310,,,A*43
$GPRMC,020823.3,A,3252.274067,N,11713.470829,W,22.6,119.1,130310,,,A*49
$GPRMC,020826.3,A,3252.267870,N,11713.459453,W,13.3,120.8,130310,,,A*4E
$GPRMC,020829.3,A,3252.265489,N,11713.458064,W,4.5,130.0,130310,,,A*71
