NMEA Sentence Code,UTC Time,Status,Latitude,Latitude Direction,Longitude,Longitude Direction,Speed (knots),Track Angle (degrees true),Date,MagneticVariation,Magnetic Variation Direction,[FAA Mode]-Optional,Checksum
$GPRMC,030508.7,A,3255.489223,N,11714.327253,W,63.1,343.7,180310,,,A*4E
$GPRMC,030511.7,A,3255.540759,N,11714.346068,W,64.0,342.7,180310,,,A*40
$GPRMC,030514.7,A,3255.592647,N,11714.363366,W,64.4,343.8,180310,,,A*44
$GPRMC,030517.7,A,3255.644167,N,11714.381678,W,64.1,343.9,180310,,,A*48
$GPRMC,030520.7,A,3255.693454,N,11714.398866,W,61.8,344.0,180310,,,A*48
$GPRMC,030523.7,A,3255.742657,N,11714.410955,W,59.1,351.3,180310,,,A*44
$GPRMC,030526.7,A,3255.793573,N,11714.413436,W,57.7,0.1,180310,,,A*4E
$GPRMC,030529.7,A,3255.839802,N,11714.407580,W,55.1,8.1,180310,,,A*40
$GPRMC,030532.7,A,3255.884780,N,11714.393018,W,54.2,17.8,180310,,,A*72
$GPRMC,030535.7,A,3255.925657,N,11714.372709,W,51.9,25.1,180310,,,A*7A
$GPRMC,030538.7,A,3255.963288,N,11714.346513,W,52.3,33.9,180310,,,A*7B
$GPRMC,030541.7,A,3255.995596,N,11714.313649,W,51.3,43.5,180310,,,A*70
$GPRMC,030544.7,A,3256.022261,N,11714.275297,W,51.2,52.8,180310,,,A*76
$GPRMC,030547.7,A,3256.043627,N,11714.231621,W,50.1,60.9,180310,,,A*7F
$GPRMC,030550.7,A,3256.057826,N,11714.191803,W,42.4,65.2,180310,,,A*7C
$GPRMC,030553.7,A,3256.070977,N,11714.154397,W,42.3,65.9,180310,,,A*7C
$GPRMC,030556.7,A,3256.085356,N,11714.113876,W,45.6,66.4,180310,,,A*71
$GPRMC,030559.7,A,3256.101686,N,11714.069542,W,49.3,66.9,180310,,,A*79
$GPRMC,030602.7,A,3256.118865,N,11714.022080,W,53.1,67.8,180310,,,A*72
$GPRMC,030605.7,A,3256.137241,N,11713.971923,W,55.1,66.6,180310,,,A*75
$GPRMC,030608.7,A,3256.156542,N,11713.921721,W,55.8,65.9,180310,,,A*77
$GPRMC,030611.7,A,3256.183788,N,11713.853533,W,57.4,65.4,180310,,,A*75
$GPRMC,030614.7,A,3256.204657,N,11713.801524,W,58.9,65.7,180310,,,A*7F
$GPRMC,030617.7,A,3256.226165,N,11713.747953,W,59.1,64.5,180310,,,A*71
$GPRMC,030620.7,A,3256.246950,N,11713.693303,W,60.3,66.5,180310,,,A*70
$GPRMC,030623.7,A,3256.262785,N,11713.637418,W,61.0,71.3,180310,,,A*72
$GPRMC,030626.7,A,3256.278156,N,11713.578958,W,62.2,73.2,180310,,,A*77
$GPRMC,030629.7,A,3256.293437,N,11713.520423,W,61.0,73.2,180310,,,A*72
$GPRMC,030632.7,A,3256.309883,N,11713.465649,W,57.1,68.2,180310,,,A*79
$GPRMC,030635.7,A,3256.332267,N,11713.413331,W,56.7,61.2,180310,,,A*73
$GPRMC,030638.7,A,3256.358687,N,11713.366278,W,57.0,55.8,180310,,,A*7A
$GPRMC,030641.7,A,3256.385968,N,11713.321810,W,56.0,54.9,180310,,,A*7C
$GPRMC,030644.7,A,3256.412342,N,11713.276698,W,56.8,56.4,180310,,,A*78
$GPRMC,030647.7,A,3256.434876,N,11713.229475,W,55.2,61.8,180310,,,A*79
$GPRMC,030650.7,A,3256.453135,N,11713.178945,W,55.5,67.6,180310,,,A*76
$GPRMC,030653.7,A,3256.469040,N,11713.128495,W,54.7,68.4,180310,,,A*74
$GPRMC,030656.7,A,3256.485770,N,11713.079436,W,53.1,67.7,180310,,,A*76
$GPRMC,030659.7,A,3256.502070,N,11713.032287,W,51.5,66.0,180310,,,A*73
$GPRMC,030702.7,A,3256.523396,N,11712.987169,W,52.2,59.6,180310,,,A*7F
$GPRMC,030705.7,A,3256.549907,N,11712.944952,W,53.1,51.6,180310,,,A*73
$GPRMC,030708.7,A,3256.581910,N,11712.905805,W,54.1,46.0,180310,,,A*7D
$GPRMC,030711.7,A,3256.613375,N,11712.868134,W,52.1,46.0,180310,,,A*73
$GPRMC,030714.7,A,3256.641656,N,11712.830967,W,51.9,49.4,180310,,,A*76
$GPRMC,030717.7,A,3256.667736,N,11712.787401,W,55.1,55.9,180310,,,A*74
$GPRMC,030720.7,A,3256.690227,N,11712.738383,W,55.8,62.4,180310,,,A*74
$GPRMC,030723.7,A,3256.708196,N,11712.688928,W,54.0,67.3,180310,,,A*74
$GPRMC,030726.7,A,3256.724718,N,11712.639899,W,52.7,67.8,180310,,,A*74
$GPRMC,030729.7,A,3256.741310,N,11712.592360,W,51.9,67.7,180310,,,A*79
$GPRMC,030732.7,A,3256.757186,N,11712.546356,W,49.1,67.4,180310,,,A*77
$GPRMC,030735.7,A,3256.773833,N,11712.500430,W,50.2,67.1,180310,,,A*7A
$GPRMC,030738.7,A,3256.791065,N,11712.453656,W,50.6,65.5,180310,,,A*77
$GPRMC,030741.7,A,3256.809272,N,11712.409122,W,49.1,62.7,180310,,,A*72
$GPRMC,030744.7,A,3256.829839,N,11712.366260,W,49.9,59.3,180310,,,A*7F
$GPRMC,030747.7,A,3256.852443,N,11712.325880,W,50.0,55.4,180310,,,A*78
$GPRMC,030750.7,A,3256.877604,N,11712.286410,W,50.9,54.8,180310,,,A*71
$GPRMC,030753.7,A,3256.901750,N,11712.245826,W,51.4,54.9,180310,,,A*79
$GPRMC,030756.7,A,3256.924786,N,11712.204488,W,49.3,56.8,180310,,,A*70
$GPRMC,030759.7,A,3256.945856,N,11712.162460,W,49.5,59.8,180310,,,A*76
$GPRMC,030802.7,A,3256.964319,N,11712.120794,W,47.9,62.5,180310,,,A*7D
$GPRMC,030805.7,A,3256.981874,N,11712.076453,W,49.6,65.3,180310,,,A*7B
$GPRMC,030808.7,A,3256.998682,N,11712.030230,W,52.0,67.9,180310,,,A*7C
$GPRMC,030811.7,A,3257.014923,N,11711.981198,W,54.3,68.2,180310,,,A*7C
$GPRMC,030814.7,A,3257.031634,N,11711.929318,W,56.4,68.8,180310,,,A*70
$GPRMC,030817.7,A,3257.050506,N,11711.875014,W,58.7,67.9,180310,,,A*72
$GPRMC,030820.7,A,3257.068442,N,11711.819702,W,59.5,68.6,180310,,,A*75
$GPRMC,030823.7,A,3257.087050,N,11711.765166,W,60.2,68.6,180310,,,A*7D
$GPRMC,030826.7,A,3257.104969,N,11711.709165,W,59.9,68.4,180310,,,A*7B
$GPRMC,030829.7,A,3257.123176,N,11711.653611,W,60.2,68.6,180310,,,A*7E
$GPRMC,030832.7,A,3257.143286,N,11711.596726,W,61.4,68.1,180310,,,A*71
$GPRMC,030835.7,A,3257.160998,N,11711.540354,W,61.1,68.1,180310,,,A*7C
$GPRMC,030838.7,A,3257.180236,N,11711.484770,W,61.4,67.6,180310,,,A*76
$GPRMC,030841.7,A,3257.201082,N,11711.426108,W,62.2,65.4,180310,,,A*7B
$GPRMC,030844.7,A,3257.225208,N,11711.373721,W,59.5,61.3,180310,,,A*7E
$GPRMC,030847.7,A,3257.250146,N,11711.325727,W,57.5,57.1,180310,,,A*7A
$GPRMC,030850.7,A,3257.277086,N,11711.278734,W,56.0,53.7,180310,,,A*79
$GPRMC,030853.7,A,3257.307776,N,11711.236574,W,56.4,49.2,180310,,,A*72
$GPRMC,030856.7,A,3257.340025,N,11711.197873,W,55.2,45.1,180310,,,A*7D
$GPRMC,030859.7,A,3257.373802,N,11711.160843,W,55.7,41.5,180310,,,A*71
$GPRMC,030902.7,A,3257.409369,N,11711.125511,W,55.5,37.7,180310,,,A*78
$GPRMC,030905.7,A,3257.447004,N,11711.094283,W,55.6,32.8,180310,,,A*73
$GPRMC,030908.7,A,3257.489068,N,11711.064640,W,58.3,29.6,180310,,,A*7E
$GPRMC,030911.7,A,3257.531580,N,11711.039129,W,58.7,26.2,180310,,,A*78
$GPRMC,030914.7,A,3257.575643,N,11711.014170,W,59.6,25.9,180310,,,A*7A
$GPRMC,030917.7,A,3257.622217,N,11710.987459,W,60.6,26.1,180310,,,A*70
$GPRMC,030920.7,A,3257.668798,N,11710.961373,W,61.6,25.6,180310,,,A*7A
$GPRMC,030923.7,A,3257.715384,N,11710.935097,W,61.9,26.4,180310,,,A*7D
$GPRMC,030926.7,A,3257.760314,N,11710.903822,W,63.1,31.7,180310,,,A*7F
$GPRMC,030929.7,A,3257.804273,N,11710.867137,W,63.5,36.3,180310,,,A*74
$GPRMC,030932.7,A,3257.844571,N,11710.827390,W,62.9,42.8,180310,,,A*71
$GPRMC,030935.7,A,3257.880380,N,11710.782228,W,62.7,47.9,180310,,,A*7E
$GPRMC,030938.7,A,3257.912059,N,11710.734226,W,63.0,52.9,180310,,,A*7F
$GPRMC,030941.7,A,3257.941027,N,11710.681652,W,64.4,57.5,180310,,,A*7C
$GPRMC,030944.7,A,3257.966608,N,11710.624184,W,65.4,63.3,180310,,,A*74
$GPRMC,030947.7,A,3257.986156,N,11710.565621,W,63.6,69.3,180310,,,A*75
$GPRMC,030950.7,A,3257.999335,N,11710.507358,W,61.9,73.7,180310,,,A*77
$GPRMC,030953.7,A,3258.010169,N,11710.449471,W,60.9,78.1,180310,,,A*73
$GPRMC,030956.7,A,3258.016408,N,11710.389520,W,60.9,83.5,180310,,,A*7C
$GPRMC,030959.7,A,3258.018193,N,11710.330225,W,59.4,88.9,180310,,,A*7A
$GPRMC,031002.7,A,3258.014637,N,11710.271953,W,59.9,94.1,180310,,,A*7F
$GPRMC,031005.7,A,3258.007420,N,11710.213038,W,60.2,99.6,180310,,,A*75
$GPRMC,031008.7,A,3257.994478,N,11710.155880,W,59.3,104.4,180310,,,A*4F
$GPRMC,031011.7,A,3257.978678,N,11710.100772,W,58.8,109.2,180310,,,A*44
$GPRMC,031014.7,A,3257.959070,N,11710.047072,W,58.9,114.2,180310,,,A*44
$GPRMC,031017.7,A,3257.935163,N,11709.995301,W,59.1,118.4,180310,,,A*44
$GPRMC,031020.7,A,3257.911104,N,11709.945755,W,59.4,119.4,180310,,,A*4B
$GPRMC,031023.7,A,3257.887607,N,11709.894052,W,59.1,119.1,180310,,,A*4F
$GPRMC,031026.7,A,3257.862872,N,11709.843630,W,58.6,119.4,180310,,,A*46
$GPRMC,031029.7,A,3257.838743,N,11709.793651,W,58.1,119.7,180310,,,A*4A
$GPRMC,031032.7,A,3257.815153,N,11709.744016,W,57.5,119.0,180310,,,A*4B
$GPRMC,031035.7,A,3257.792169,N,11709.694518,W,56.8,119.3,180310,,,A*4D
$GPRMC,031038.7,A,3257.768595,N,11709.646787,W,55.7,120.3,180310,,,A*4F
$GPRMC,031041.7,A,3257.745213,N,11709.598462,W,55.9,119.4,180310,,,A*4C
$GPRMC,031044.7,A,3257.721405,N,11709.550793,W,55.5,119.5,180310,,,A*4E
$GPRMC,031047.7,A,3257.700165,N,11709.503542,W,53.3,118.8,180310,,,A*49
$GPRMC,031050.7,A,3257.678332,N,11709.459386,W,50.0,119.6,180310,,,A*4E
$GPRMC,031053.7,A,3257.657076,N,11709.420198,W,45.9,122.6,180310,,,A*45
$GPRMC,031056.7,A,3257.635848,N,11709.383878,W,44.5,123.7,180310,,,A*45
$GPRMC,031059.7,A,3257.614088,N,11709.347789,W,43.8,125.7,180310,,,A*48
$GPRMC,031102.7,A,3257.589294,N,11709.317794,W,40.5,136.7,180310,,,A*4A
$GPRMC,031105.7,A,3257.561170,N,11709.295096,W,38.2,146.5,180310,,,A*41
$GPRMC,031108.7,A,3257.534088,N,11709.275836,W,37.7,148.6,180310,,,A*41
$GPRMC,031111.7,A,3257.509122,N,11709.256468,W,34.8,145.2,180310,,,A*45
$GPRMC,031114.7,A,3257.492750,N,11709.234186,W,30.4,132.1,180310,,,A*4A
$GPRMC,031117.7,A,3257.485849,N,11709.211133,W,23.5,110.7,180310,,,A*44
$GPRMC,031120.7,A,3257.482800,N,11709.194566,W,14.7,106.3,180310,,,A*45
$GPRMC,031129.7,A,3257.482188,N,11709.181232,W,11.1,92.2,180310,,,A*79
$GPRMC,031132.7,A,3257.488119,N,11709.171355,W,12.0,42.3,180310,,,A*70
$GPRMC,031135.7,A,3257.504250,N,11709.169926,W,19.9,357.9,180310,,,A*44
$GPRMC,031138.7,A,3257.525520,N,11709.171385,W,26.8,355.1,180310,,,A*47
$GPRMC,031141.7,A,3257.549772,N,11709.173214,W,28.9,357.1,180310,,,A*40
$GPRMC,031144.7,A,3257.570789,N,11709.175470,W,24.4,358.4,180310,,,A*42
$GPRMC,031147.7,A,3257.585618,N,11709.177023,W,15.9,359.2,180310,,,A*4A
$GPRMC,031150.7,A,3257.592559,N,11709.177004,W,5.9,4.4,180310,,,A*75
$GPRMC,031159.7,A,3257.598081,N,11709.177329,W,8.5,352.3,180310,,,A*7C
$GPRMC,031202.7,A,3257.611203,N,11709.177798,W,16.9,358.8,180310,,,A*47
$GPRMC,031205.7,A,3257.630160,N,11709.177322,W,22.5,3.2,180310,,,A*4C
$GPRMC,031208.7,A,3257.655330,N,11709.170756,W,29.8,12.3,180310,,,A*72
$GPRMC,031211.7,A,3257.682059,N,11709.159727,W,33.2,19.4,180310,,,A*7C
$GPRMC,031214.7,A,3257.709397,N,11709.144745,W,34.7,27.6,180310,,,A*7F
$GPRMC,031217.7,A,3257.734047,N,11709.125518,W,35.6,37.0,180310,,,A*76
$GPRMC,031220.7,A,3257.754542,N,11709.101814,W,34.5,46.0,180310,,,A*77
$GPRMC,031223.7,A,3257.772948,N,11709.073635,W,35.3,53.8,180310,,,A*74
$GPRMC,031226.7,A,3257.790340,N,11709.042219,W,38.6,58.7,180310,,,A*7B
$GPRMC,031229.7,A,3257.807158,N,11709.009264,W,39.8,59.3,180310,,,A*71
$GPRMC,031232.7,A,3257.823934,N,11708.974741,W,40.2,58.6,180310,,,A*7F
$GPRMC,031235.7,A,3257.845487,N,11708.941564,W,40.8,50.7,180310,,,A*7D
$GPRMC,031238.7,A,3257.866432,N,11708.910697,W,39.9,47.8,180310,,,A*72
$GPRMC,031241.7,A,3257.888141,N,11708.883291,W,38.1,46.3,180310,,,A*77
$GPRMC,031244.7,A,3257.911332,N,11708.858579,W,36.6,41.4,180310,,,A*7B
$GPRMC,031247.7,A,3257.934983,N,11708.836561,W,35.8,36.5,180310,,,A*72
$GPRMC,031250.7,A,3257.960650,N,11708.818093,W,35.4,30.8,180310,,,A*77
$GPRMC,031253.7,A,3257.986486,N,11708.802307,W,36.1,26.5,180310,,,A*7C
$GPRMC,031256.7,A,3258.014728,N,11708.788687,W,36.5,20.8,180310,,,A*7C
$GPRMC,031259.7,A,3258.044059,N,11708.780036,W,36.1,14.1,180310,,,A*79
$GPRMC,031302.7,A,3258.074904,N,11708.771910,W,37.0,9.0,180310,,,A*4A
$GPRMC,031305.7,A,3258.106863,N,11708.768917,W,38.4,3.0,180310,,,A*47
$GPRMC,031308.7,A,3258.140817,N,11708.768078,W,39.4,359.2,180310,,,A*44
$GPRMC,031311.7,A,3258.174032,N,11708.769148,W,39.5,0.1,180310,,,A*4A
$GPRMC,031314.7,A,3258.206317,N,11708.765059,W,39.7,8.0,180310,,,A*4B
$GPRMC,031317.7,A,3258.238745,N,11708.756195,W,40.7,16.5,180310,,,A*73
$GPRMC,031320.7,A,3258.271301,N,11708.741015,W,41.2,23.4,180310,,,A*72
$GPRMC,031323.7,A,3258.302678,N,11708.724511,W,41.3,24.1,180310,,,A*7E
$GPRMC,031326.7,A,3258.335479,N,11708.708978,W,40.9,21.2,180310,,,A*7C
$GPRMC,031329.7,A,3258.367510,N,11708.697209,W,39.9,13.8,180310,,,A*75
$GPRMC,031332.7,A,3258.399772,N,11708.690030,W,39.8,6.6,180310,,,A*4C
$GPRMC,031335.7,A,3258.433601,N,11708.690529,W,39.8,358.0,180310,,,A*4A
$GPRMC,031338.7,A,3258.465445,N,11708.696043,W,40.4,351.7,180310,,,A*45
$GPRMC,031341.7,A,3258.495233,N,11708.705409,W,38.1,343.1,180310,,,A*4D
$GPRMC,031344.7,A,3258.520598,N,11708.720482,W,34.0,334.1,180310,,,A*48
$GPRMC,031347.7,A,3258.540947,N,11708.735898,W,28.0,329.4,180310,,,A*44
$GPRMC,031350.7,A,3258.555262,N,11708.748416,W,19.4,325.5,180310,,,A*41
$GPRMC,031353.7,A,3258.562699,N,11708.754410,W,9.3,329.1,180310,,,A*73
$GPRMC,031417.7,A,3258.567887,N,11708.761095,W,10.7,305.7,180310,,,A*4B
$GPRMC,031420.7,A,3258.579294,N,11708.773354,W,21.0,314.9,180310,,,A*4E
$GPRMC,031423.7,A,3258.597183,N,11708.791657,W,29.1,315.8,180310,,,A*4B
$GPRMC,031426.7,A,3258.617837,N,11708.814216,W,34.8,315.7,180310,,,A*4A
$GPRMC,031429.7,A,3258.640757,N,11708.840606,W,39.0,314.4,180310,,,A*4D
$GPRMC,031432.7,A,3258.666649,N,11708.868901,W,41.4,315.3,180310,,,A*42
$GPRMC,031435.7,A,3258.691200,N,11708.897517,W,41.6,315.6,180310,,,A*48
$GPRMC,031438.7,A,3258.716654,N,11708.926990,W,42.1,312.9,180310,,,A*4A
$GPRMC,031441.7,A,3258.739560,N,11708.960366,W,43.1,308.3,180310,,,A*4C
$GPRMC,031444.7,A,3258.757528,N,11708.996033,W,42.9,300.9,180310,,,A*4C
$GPRMC,031447.7,A,3258.770359,N,11709.035503,W,43.6,293.3,180310,,,A*42
$GPRMC,031450.7,A,3258.783258,N,11709.076608,W,43.5,288.6,180310,,,A*4B
$GPRMC,031453.7,A,3258.790688,N,11709.118533,W,43.1,282.0,180310,,,A*49
$GPRMC,031456.7,A,3258.794258,N,11709.160560,W,42.1,275.7,180310,,,A*46
$GPRMC,031459.7,A,3258.795472,N,11709.202519,W,42.2,271.5,180310,,,A*4A
$GPRMC,031502.7,A,3258.796009,N,11709.243683,W,41.2,271.3,180310,,,A*4E
$GPRMC,031505.7,A,3258.797722,N,11709.284974,W,41.6,273.4,180310,,,A*4B
$GPRMC,031508.7,A,3258.801910,N,11709.327191,W,41.8,277.7,180310,,,A*4B
$GPRMC,031511.7,A,3258.810647,N,11709.368808,W,42.5,285.0,180310,,,A*48
$GPRMC,031514.7,A,3258.822976,N,11709.408027,W,43.3,290.7,180310,,,A*41
$GPRMC,031517.7,A,3258.839846,N,11709.446021,W,42.7,297.5,180310,,,A*46
$GPRMC,031520.7,A,3258.859337,N,11709.481457,W,42.1,303.3,180310,,,A*4B
$GPRMC,031523.7,A,3258.881244,N,11709.514061,W,41.1,309.8,180310,,,A*46
$GPRMC,031526.7,A,3258.904123,N,11709.542900,W,39.4,314.8,180310,,,A*46
$GPRMC,031529.7,A,3258.930995,N,11709.566039,W,38.2,323.3,180310,,,A*46
$GPRMC,031532.7,A,3258.954978,N,11709.586374,W,34.8,327.3,180310,,,A*4B
$GPRMC,031535.7,A,3258.980949,N,11709.602125,W,33.5,333.0,180310,,,A*42
$GPRMC,031538.7,A,3259.008786,N,11709.614148,W,34.1,338.1,180310,,,A*4F
$GPRMC,031541.7,A,3259.034483,N,11709.623796,W,34.2,341.8,180310,,,A*4D
$GPRMC,031544.7,A,3259.064296,N,11709.632365,W,35.1,347.5,180310,,,A*4E
$GPRMC,031547.7,A,3259.095378,N,11709.635742,W,35.3,355.4,180310,,,A*44
$GPRMC,031550.7,A,3259.125310,N,11709.636635,W,35.6,359.2,180310,,,A*4B
$GPRMC,031553.7,A,3259.156425,N,11709.633721,W,36.6,6.3,180310,,,A*47
$GPRMC,031556.7,A,3259.187771,N,11709.627122,W,36.5,11.4,180310,,,A*7E
$GPRMC,031559.7,A,3259.219262,N,11709.617794,W,36.8,15.0,180310,,,A*77
$GPRMC,031602.7,A,3259.248624,N,11709.607537,W,37.2,15.3,180310,,,A*7A
$GPRMC,031605.7,A,3259.280965,N,11709.597640,W,38.9,13.0,180310,,,A*7B
$GPRMC,031608.7,A,3259.314579,N,11709.587700,W,39.5,14.4,180310,,,A*71
$GPRMC,031611.7,A,3259.346915,N,11709.576148,W,39.4,15.8,180310,,,A*70
$GPRMC,031614.7,A,3259.378406,N,11709.566324,W,38.9,15.3,180310,,,A*79
$GPRMC,031617.7,A,3259.410170,N,11709.556610,W,39.6,15.2,180310,,,A*79
$GPRMC,031620.7,A,3259.441880,N,11709.545689,W,39.6,16.2,180310,,,A*7E
$GPRMC,031623.7,A,3259.472898,N,11709.535146,W,39.5,15.9,180310,,,A*7C
$GPRMC,031626.7,A,3259.507089,N,11709.524080,W,41.9,15.4,180310,,,A*77
$GPRMC,031629.7,A,3259.541795,N,11709.512157,W,42.0,15.5,180310,,,A*75
$GPRMC,031632.7,A,3259.577082,N,11709.500896,W,42.5,15.0,180310,,,A*7C
$GPRMC,031635.7,A,3259.612326,N,11709.489264,W,42.4,15.7,180310,,,A*77
$GPRMC,031638.7,A,3259.646158,N,11709.477720,W,42.0,16.5,180310,,,A*71
$GPRMC,031641.7,A,3259.681495,N,11709.465911,W,42.8,16.1,180310,,,A*73
$GPRMC,031644.7,A,3259.716321,N,11709.452845,W,44.2,17.6,180310,,,A*7F
$GPRMC,031647.7,A,3259.749553,N,11709.439247,W,42.2,19.6,180310,,,A*78
$GPRMC,031650.7,A,3259.780136,N,11709.423937,W,38.7,25.0,180310,,,A*7A
$GPRMC,031653.7,A,3259.804901,N,11709.408816,W,33.5,28.6,180310,,,A*7F
$GPRMC,031656.7,A,3259.824030,N,11709.394458,W,24.1,28.9,180310,,,A*7A
$GPRMC,031659.7,A,3259.831113,N,11709.389784,W,12.1,26.4,180310,,,A*79
$GPRMC,031723.7,A,3259.837299,N,11709.390794,W,11.3,351.7,180310,,,A*4A
$GPRMC,031726.7,A,3259.850104,N,11709.401453,W,22.2,318.5,180310,,,A*40
$GPRMC,031729.7,A,3259.864425,N,11709.422527,W,30.4,307.9,180310,,,A*4A
$GPRMC,031732.7,A,3259.883307,N,11709.450652,W,37.9,308.8,180310,,,A*4E
$GPRMC,031735.7,A,3259.907887,N,11709.481249,W,41.9,313.5,180310,,,A*43
$GPRMC,031738.7,A,3259.939928,N,11709.506438,W,42.0,326.5,180310,,,A*45
$GPRMC,031741.7,A,3259.974735,N,11709.523832,W,44.3,336.9,180310,,,A*49
$GPRMC,031744.7,A,3300.012754,N,11709.540360,W,46.3,339.3,180310,,,A*41
$GPRMC,031747.7,A,3300.051497,N,11709.555229,W,47.6,340.2,180310,,,A*4A
$GPRMC,031750.7,A,3300.088426,N,11709.572838,W,48.7,336.3,180310,,,A*43
$GPRMC,031753.7,A,3300.124143,N,11709.596171,W,48.5,328.7,180310,,,A*46
$GPRMC,031756.7,A,3300.156336,N,11709.625852,W,49.3,322.5,180310,,,A*4A
$GPRMC,031759.7,A,3300.185702,N,11709.658747,W,49.6,316.5,180310,,,A*4B
$GPRMC,031802.7,A,3300.210278,N,11709.696437,W,49.1,308.2,180310,,,A*44
$GPRMC,031805.7,A,3300.229870,N,11709.736660,W,47.4,300.4,180310,,,A*45
$GPRMC,031808.7,A,3300.244590,N,11709.778440,W,46.2,292.8,180310,,,A*4B
$GPRMC,031811.7,A,3300.256384,N,11709.821943,W,46.4,287.9,180310,,,A*4D
$GPRMC,031814.7,A,3300.266259,N,11709.868029,W,47.4,283.0,180310,,,A*4E
$GPRMC,031817.7,A,3300.272977,N,11709.914510,W,48.1,278.5,180310,,,A*41
$GPRMC,031820.7,A,3300.276113,N,11709.963173,W,47.8,273.4,180310,,,A*46
$GPRMC,031823.7,A,3300.275481,N,11710.011379,W,48.3,268.8,180310,,,A*46
$GPRMC,031826.7,A,3300.272280,N,11710.059610,W,48.7,266.3,180310,,,A*44
$GPRMC,031829.7,A,3300.270252,N,11710.107329,W,48.5,266.8,180310,,,A*4A
$GPRMC,031832.7,A,3300.268281,N,11710.154187,W,47.5,267.3,180310,,,A*42
$GPRMC,031835.7,A,3300.267666,N,11710.198539,W,45.8,267.4,180310,,,A*4E
$GPRMC,031838.7,A,3300.266125,N,11710.241508,W,41.0,265.9,180310,,,A*44
$GPRMC,031841.7,A,3300.263460,N,11710.279863,W,38.4,266.0,180310,,,A*40
$GPRMC,031844.7,A,3300.260556,N,11710.317764,W,38.7,265.9,180310,,,A*4A
$GPRMC,031847.7,A,3300.257556,N,11710.356822,W,38.8,265.6,180310,,,A*45
$GPRMC,031850.7,A,3300.255319,N,11710.396221,W,40.2,265.3,180310,,,A*49
$GPRMC,031853.7,A,3300.252306,N,11710.437476,W,41.5,265.2,180310,,,A*4C
$GPRMC,031856.7,A,3300.249394,N,11710.477560,W,41.4,262.5,180310,,,A*4B
$GPRMC,031859.7,A,3300.240166,N,11710.517416,W,41.1,254.4,180310,,,A*44
$GPRMC,031902.7,A,3300.227883,N,11710.551494,W,35.0,245.1,180310,,,A*47
$GPRMC,031905.7,A,3300.215844,N,11710.578554,W,30.7,238.9,180310,,,A*4C
$GPRMC,031908.7,A,3300.200003,N,11710.604628,W,33.1,232.8,180310,,,A*40
$GPRMC,031911.7,A,3300.179694,N,11710.631299,W,36.6,225.8,180310,,,A*41
$GPRMC,031914.7,A,3300.155606,N,11710.655356,W,38.6,217.7,180310,,,A*41
$GPRMC,031917.7,A,3300.128495,N,11710.677099,W,38.9,212.5,180310,,,A*48
$GPRMC,031920.7,A,3300.095811,N,11710.695677,W,41.1,207.0,180310,,,A*46
$GPRMC,031923.7,A,3300.065607,N,11710.714003,W,41.0,208.3,180310,,,A*43
$GPRMC,031926.7,A,3300.034709,N,11710.732775,W,41.6,207.8,180310,,,A*4D
$GPRMC,031929.7,A,3300.004202,N,11710.750045,W,40.6,206.5,180310,,,A*42
$GPRMC,031932.7,A,3259.975724,N,11710.768339,W,38.9,207.7,180310,,,A*4B
$GPRMC,031935.7,A,3259.946616,N,11710.786830,W,37.3,207.7,180310,,,A*4B
$GPRMC,031938.7,A,3259.920472,N,11710.802787,W,33.8,206.6,180310,,,A*49
$GPRMC,031941.7,A,3259.896103,N,11710.817896,W,30.0,209.0,180310,,,A*41
$GPRMC,031944.7,A,3259.878968,N,11710.832303,W,26.4,212.6,180310,,,A*4E
$GPRMC,031947.7,A,3259.869542,N,11710.844490,W,19.6,220.9,180310,,,A*45
$GPRMC,031950.7,A,3259.868761,N,11710.849342,W,6.9,240.3,180310,,,A*79
$GPRMC,032020.7,A,3259.863825,N,11710.846715,W,8.9,218.0,180310,,,A*79
$GPRMC,032023.7,A,3259.856562,N,11710.858318,W,13.8,235.1,180310,,,A*41
$GPRMC,032026.7,A,3259.840356,N,11710.881434,W,24.4,237.1,180310,,,A*45
$GPRMC,032029.7,A,3259.810171,N,11710.920685,W,41.4,237.0,180310,,,A*48
$GPRMC,032032.7,A,3259.791773,N,11710.961788,W,46.0,244.8,180310,,,A*46
$GPRMC,032035.7,A,3259.777065,N,11711.010067,W,51.3,250.8,180310,,,A*41
$GPRMC,032038.7,A,3259.768803,N,11711.060729,W,51.3,259.1,180310,,,A*40
$GPRMC,032041.7,A,3259.770079,N,11711.106924,W,47.2,270.2,180310,,,A*4E
$GPRMC,032044.7,A,3259.772838,N,11711.152487,W,46.1,276.3,180310,,,A*44
$GPRMC,032047.7,A,3259.784092,N,11711.191422,W,38.9,286.1,180310,,,A*4A
$GPRMC,032050.7,A,3259.795019,N,11711.226122,W,36.1,289.6,180310,,,A*4B
$GPRMC,032053.7,A,3259.805352,N,11711.258542,W,35.7,289.5,180310,,,A*4F
$GPRMC,032056.7,A,3259.815769,N,11711.292698,W,36.0,289.1,180310,,,A*45
$GPRMC,032059.7,A,3259.824474,N,11711.326902,W,36.1,286.1,180310,,,A*4B
$GPRMC,032102.7,A,3259.827655,N,11711.361360,W,32.5,276.2,180310,,,A*47
$GPRMC,032105.7,A,3259.825157,N,11711.389328,W,23.8,263.3,180310,,,A*45
$GPRMC,032108.7,A,3259.824199,N,11711.401703,W,13.0,254.8,180310,,,A*45
$GPRMC,032111.7,A,3259.820024,N,11711.417079,W,17.5,255.3,180310,,,A*48
$GPRMC,032114.7,A,3259.814592,N,11711.438696,W,24.0,250.0,180310,,,A*4B
$GPRMC,032117.7,A,3259.804009,N,11711.462382,W,26.1,242.9,180310,,,A*48
$GPRMC,032120.7,A,3259.790704,N,11711.487260,W,28.4,237.4,180310,,,A*46
$GPRMC,032123.7,A,3259.778682,N,11711.507558,W,23.7,233.9,180310,,,A*48
$GPRMC,032126.7,A,3259.768661,N,11711.524868,W,19.2,233.8,180310,,,A*43
$GPRMC,032129.7,A,3259.759043,N,11711.542020,W,22.1,236.5,180310,,,A*4F
$GPRMC,032132.7,A,3259.747407,N,11711.565165,W,28.1,239.9,180310,,,A*42
$GPRMC,032135.7,A,3259.737422,N,11711.589056,W,26.7,243.3,180310,,,A*49
$GPRMC,032138.7,A,3259.729414,N,11711.610893,W,23.7,246.5,180310,,,A*4A
$GPRMC,032141.7,A,3259.723783,N,11711.630919,W,20.8,249.0,180310,,,A*44
$GPRMC,032144.7,A,3259.719606,N,11711.644564,W,12.6,255.1,180310,,,A*42
$GPRMC,032147.7,A,3259.721702,N,11711.651525,W,6.2,299.7,180310,,,A*79
$GPRMC,032150.7,A,3259.728513,N,11711.652911,W,7.4,344.4,180310,,,A*79
$GPRMC,032153.7,A,3259.739449,N,11711.652937,W,12.8,351.7,180310,,,A*4F
$GPRMC,032156.7,A,3259.753552,N,11711.653535,W,15.0,352.6,180310,,,A*4F
$GPRMC,032159.7,A,3259.767854,N,11711.655838,W,15.2,353.8,180310,,,A*47
$GPRMC,032202.7,A,3259.780541,N,11711.657392,W,14.8,351.9,180310,,,A*4B
$GPRMC,032205.7,A,3259.793659,N,11711.658235,W,14.8,354.1,180310,,,A*4A
$GPRMC,032208.7,A,3259.806849,N,11711.659481,W,16.1,351.9,180310,,,A*45
$GPRMC,032211.7,A,3259.822009,N,11711.661995,W,17.6,352.9,180310,,,A*41
$GPRMC,032214.7,A,3259.834465,N,11711.663347,W,12.3,356.0,180310,,,A*47
$GPRMC,032217.7,A,3259.840858,N,11711.663006,W,7.6,7.1,180310,,,A*74
$GPRMC,032314.7,A,3259.830025,N,11711.659021,W,10.6,168.0,180310,,,A*40
$GPRMC,032317.7,A,3259.814831,N,11711.656986,W,18.1,174.2,180310,,,A*43
$GPRMC,032320.7,A,3259.797964,N,11711.655830,W,18.4,173.9,180310,,,A*44
$GPRMC,032323.7,A,3259.780735,N,11711.655688,W,19.5,177.1,180310,,,A*4A
$GPRMC,032326.7,A,3259.764200,N,11711.654134,W,19.0,174.4,180310,,,A*44
$GPRMC,032329.7,A,3259.747980,N,11711.653084,W,19.3,177.6,180310,,,A*46
$GPRMC,032332.7,A,3259.734458,N,11711.652631,W,15.2,178.0,180310,,,A*4D
$GPRMC,032335.7,A,3259.723387,N,11711.651803,W,12.2,175.8,180310,,,A*47
$GPRMC,032338.7,A,3259.718484,N,11711.650041,W,4.9,170.8,180310,,,A*70
$GPRMC,032350.7,A,3259.712577,N,11711.644073,W,7.3,127.8,180310,,,A*76
$GPRMC,032353.7,A,3259.711284,N,11711.632688,W,10.6,111.6,180310,,,A*46
$GPRMC,032356.7,A,3259.716722,N,11711.613626,W,16.6,83.2,180310,,,A*72
$GPRMC,032359.7,A,3259.730508,N,11711.577997,W,27.7,68.5,180310,,,A*76
$GPRMC,032402.7,A,3259.743154,N,11711.552348,W,25.8,60.8,180310,,,A*71
$GPRMC,032405.7,A,3259.756612,N,11711.534600,W,21.9,44.4,180310,,,A*71
$GPRMC,032414.7,A,3259.761685,N,11711.530075,W,12.4,35.8,180310,,,A*7C
$GPRMC,032417.7,A,3259.772590,N,11711.530984,W,14.3,347.4,180310,,,A*46
$GPRMC,032420.7,A,3259.786190,N,11711.542924,W,21.9,324.8,180310,,,A*47
$GPRMC,032423.7,A,3259.801379,N,11711.559355,W,25.8,320.9,180310,,,A*47
$GPRMC,032426.7,A,3259.818490,N,11711.578880,W,29.9,313.8,180310,,,A*46
$GPRMC,032429.7,A,3259.834981,N,11711.605165,W,33.5,307.7,180310,,,A*4C
$GPRMC,032432.7,A,3259.852446,N,11711.634684,W,35.2,302.5,180310,,,A*4C
$GPRMC,032435.7,A,3259.861344,N,11711.668035,W,34.6,291.4,180310,,,A*44
$GPRMC,032438.7,A,3259.870920,N,11711.701751,W,36.4,288.0,180310,,,A*46
$GPRMC,032441.7,A,3259.879830,N,11711.737383,W,38.7,288.7,180310,,,A*45
$GPRMC,032444.7,A,3259.890215,N,11711.774591,W,40.7,288.0,180310,,,A*40
$GPRMC,032447.7,A,3259.900194,N,11711.815195,W,43.1,287.6,180310,,,A*45
$GPRMC,032450.7,A,3259.911463,N,11711.857206,W,45.0,285.7,180310,,,A*45
$GPRMC,032453.7,A,3259.923383,N,11711.900386,W,46.1,287.3,180310,,,A*40
$GPRMC,032456.7,A,3259.934061,N,11711.943758,W,44.8,286.5,180310,,,A*40
$GPRMC,032459.7,A,3259.944188,N,11711.985697,W,43.5,286.3,180310,,,A*4A
$GPRMC,032502.7,A,3259.954214,N,11712.021574,W,33.9,288.4,180310,,,A*4A
$GPRMC,032505.7,A,3259.965808,N,11712.042627,W,23.5,298.2,180310,,,A*42
$GPRMC,032508.7,A,3259.974232,N,11712.055604,W,16.1,303.5,180310,,,A*4D
$GPRMC,032511.7,A,3259.986406,N,11712.055080,W,11.2,338.8,180310,,,A*42
$GPRMC,032514.7,A,3300.013787,N,11712.044349,W,20.3,5.2,180310,,,A*47
$GPRMC,032517.7,A,3300.060786,N,11712.020345,W,36.0,16.3,180310,,,A*78
$GPRMC,032520.7,A,3300.093678,N,11712.005673,W,33.9,17.5,180310,,,A*7C
$GPRMC,032523.7,A,3300.118289,N,11711.995384,W,28.9,17.8,180310,,,A*7E
$GPRMC,032526.7,A,3300.139344,N,11711.986501,W,26.0,18.2,180310,,,A*73
$GPRMC,032529.7,A,3300.160063,N,11711.978517,W,26.1,19.2,180310,,,A*70
$GPRMC,032532.7,A,3300.181376,N,11711.970502,W,28.2,18.4,180310,,,A*74
$GPRMC,032535.7,A,3300.207184,N,11711.959546,W,31.4,19.4,180310,,,A*75
$GPRMC,032538.7,A,3300.233365,N,11711.949031,W,32.9,18.4,180310,,,A*79
$GPRMC,032541.7,A,3300.262409,N,11711.940566,W,32.1,10.3,180310,,,A*77
$GPRMC,032544.7,A,3300.286700,N,11711.938088,W,28.1,6.0,180310,,,A*47
$GPRMC,032547.7,A,3300.304283,N,11711.937542,W,22.0,3.8,180310,,,A*4B
$GPRMC,032550.7,A,3300.310416,N,11711.940427,W,10.4,348.1,180310,,,A*40
$GPRMC,032553.7,A,3300.311656,N,11711.946624,W,6.5,304.2,180310,,,A*7E
$GPRMC,032556.7,A,3300.309137,N,11711.960797,W,15.8,268.9,180310,,,A*40
$GPRMC,032559.7,A,3300.307508,N,11711.983557,W,25.1,270.5,180310,,,A*45
$GPRMC,032602.7,A,3300.307787,N,11712.014122,W,32.3,269.8,180310,,,A*4E
$GPRMC,032605.7,A,3300.306793,N,11712.051634,W,38.5,269.2,180310,,,A*4A
$GPRMC,032608.7,A,3300.306823,N,11712.093829,W,42.1,270.5,180310,,,A*49
$GPRMC,032611.7,A,3300.306413,N,11712.137715,W,44.1,269.8,180310,,,A*42
$GPRMC,032614.7,A,3300.306131,N,11712.180279,W,42.2,269.7,180310,,,A*4B
$GPRMC,032617.7,A,3300.305894,N,11712.222733,W,42.5,269.5,180310,,,A*48
$GPRMC,032620.7,A,3300.304566,N,11712.263523,W,41.5,268.5,180310,,,A*49
$GPRMC,032623.7,A,3300.303680,N,11712.304894,W,42.0,268.8,180310,,,A*4C
$GPRMC,032626.7,A,3300.302786,N,11712.345753,W,40.7,268.4,180310,,,A*47
$GPRMC,032629.7,A,3300.301102,N,11712.386085,W,39.6,268.9,180310,,,A*40
$GPRMC,032632.7,A,3300.302142,N,11712.423300,W,37.0,270.1,180310,,,A*42
$GPRMC,032635.7,A,3300.300750,N,11712.457251,W,32.3,268.0,180310,,,A*4A
$GPRMC,032638.7,A,3300.300057,N,11712.485035,W,26.1,269.8,180310,,,A*46
$GPRMC,032641.7,A,3300.299312,N,11712.504367,W,17.5,266.0,180310,,,A*46
$GPRMC,032644.7,A,3300.298761,N,11712.512880,W,8.3,256.0,180310,,,A*7C
$GPRMC,032702.7,A,3300.298642,N,11712.525775,W,14.8,265.8,180310,,,A*40
$GPRMC,032705.7,A,3300.298018,N,11712.547498,W,21.7,268.5,180310,,,A*43
$GPRMC,032708.7,A,3300.300481,N,11712.574571,W,26.7,273.5,180310,,,A*41
$GPRMC,032711.7,A,3300.302111,N,11712.605523,W,31.7,274.6,180310,,,A*47
$GPRMC,032714.7,A,3300.303467,N,11712.639137,W,33.7,273.5,180310,,,A*4F
$GPRMC,032717.7,A,3300.311958,N,11712.676296,W,35.8,283.2,180310,,,A*4C
$GPRMC,032720.7,A,3300.323441,N,11712.712065,W,36.6,288.4,180310,,,A*41
$GPRMC,032723.7,A,3300.334680,N,11712.744515,W,35.0,291.7,180310,,,A*44
$GPRMC,032726.7,A,3300.347881,N,11712.776093,W,35.3,294.7,180310,,,A*46
$GPRMC,032729.7,A,3300.361461,N,11712.808320,W,36.1,294.3,180310,,,A*47
$GPRMC,032732.7,A,3300.374490,N,11712.839257,W,33.4,294.9,180310,,,A*4E
$GPRMC,032735.7,A,3300.381885,N,11712.867140,W,28.8,289.8,180310,,,A*4E
$GPRMC,032738.7,A,3300.379942,N,11712.895096,W,28.1,272.8,180310,,,A*44
$GPRMC,032741.7,A,3300.378161,N,11712.925616,W,31.2,268.4,180310,,,A*4A
$GPRMC,032744.7,A,3300.380931,N,11712.957083,W,33.6,271.6,180310,,,A*46
$GPRMC,032747.7,A,3300.388554,N,11712.990116,W,35.1,279.0,180310,,,A*4B
$GPRMC,032750.7,A,3300.395736,N,11713.023362,W,32.3,283.8,180310,,,A*4E
$GPRMC,032753.7,A,3300.407333,N,11713.051775,W,31.6,289.6,180310,,,A*45
$GPRMC,032756.7,A,3300.414454,N,11713.075251,W,23.3,291.7,180310,,,A*4F
$GPRMC,032759.7,A,3300.414099,N,11713.095658,W,19.3,284.8,180310,,,A*44
$GPRMC,032802.7,A,3300.417465,N,11713.115199,W,19.3,282.0,180310,,,A*4C
$GPRMC,032805.7,A,3300.412051,N,11713.129101,W,12.4,257.2,180310,,,A*45
$GPRMC,032808.7,A,3300.409199,N,11713.135410,W,7.2,238.8,180310,,,A*7E
$GPRMC,032811.7,A,3300.402620,N,11713.138676,W,8.7,190.7,180310,,,A*73
$GPRMC,032814.7,A,3300.391022,N,11713.135405,W,15.8,167.3,180310,,,A*4B
$GPRMC,032817.7,A,3300.371115,N,11713.133440,W,19.2,185.2,180310,,,A*4F
$GPRMC,032820.7,A,3300.355319,N,11713.140348,W,19.5,206.6,180310,,,A*43
$GPRMC,032823.7,A,3300.337473,N,11713.158407,W,24.5,221.2,180310,,,A*45
$GPRMC,032826.7,A,3300.335626,N,11713.198125,W,32.2,253.9,180310,,,A*47
$GPRMC,032829.7,A,3300.327244,N,11713.229523,W,31.5,250.6,180310,,,A*48
$GPRMC,032832.7,A,3300.312245,N,11713.257914,W,32.8,239.4,180310,,,A*47
$GPRMC,032835.7,A,3300.300075,N,11713.284312,W,32.9,237.5,180310,,,A*4E
$GPRMC,032838.7,A,3300.283044,N,11713.311075,W,32.6,233.9,180310,,,A*43
$GPRMC,032841.7,A,3300.269310,N,11713.340583,W,34.3,242.4,180310,,,A*4B
$GPRMC,032844.7,A,3300.262314,N,11713.372575,W,33.8,255.4,180310,,,A*43
$GPRMC,032847.7,A,3300.261477,N,11713.404214,W,31.2,267.5,180310,,,A*4F
$GPRMC,032850.7,A,3300.259627,N,11713.432144,W,26.1,261.3,180310,,,A*43
$GPRMC,032853.7,A,3300.248369,N,11713.453529,W,23.8,236.1,180310,,,A*4B
$GPRMC,032856.7,A,3300.232729,N,11713.465411,W,18.3,217.7,180310,,,A*4A
$GPRMC,032859.7,A,3300.201265,N,11713.459470,W,30.5,176.8,180310,,,A*47
$GPRMC,032902.7,A,3300.169877,N,11713.458183,W,33.6,183.1,180310,,,A*47
$GPRMC,032905.7,A,3300.138570,N,11713.458532,W,34.0,185.2,180310,,,A*44
$GPRMC,032908.7,A,3300.109174,N,11713.464515,W,32.3,194.9,180310,,,A*4F
$GPRMC,032911.7,A,3300.086427,N,11713.477859,W,28.2,212.0,180310,,,A*4B
$GPRMC,032914.7,A,3300.071098,N,11713.498331,W,29.8,228.4,180310,,,A*44
$GPRMC,032917.7,A,3300.054553,N,11713.522827,W,30.8,232.5,180310,,,A*4C
$GPRMC,032920.7,A,3300.041270,N,11713.544287,W,26.5,231.5,180310,,,A*43
$GPRMC,032923.7,A,3300.035899,N,11713.560022,W,17.1,247.3,180310,,,A*44
$GPRMC,032926.7,A,3300.034754,N,11713.580785,W,23.3,264.7,180310,,,A*4A
$GPRMC,032929.7,A,3300.031000,N,11713.605317,W,24.5,259.0,180310,,,A*4F
$GPRMC,032932.7,A,3300.022558,N,11713.626590,W,23.5,237.7,180310,,,A*4F
$GPRMC,032935.7,A,3300.007404,N,11713.645995,W,25.1,224.8,180310,,,A*44
$GPRMC,032938.7,A,3259.986142,N,11713.655097,W,24.3,202.3,180310,,,A*45
$GPRMC,032941.7,A,3259.964659,N,11713.654357,W,23.7,173.7,180310,,,A*46
$GPRMC,032944.7,A,3259.942234,N,11713.645302,W,27.2,158.4,180310,,,A*43
$GPRMC,032947.7,A,3259.924481,N,11713.634753,W,24.2,168.0,180310,,,A*4A
$GPRMC,032950.7,A,3259.901584,N,11713.636699,W,25.5,197.6,180310,,,A*4A
$GPRMC,032953.7,A,3259.879366,N,11713.648588,W,28.1,206.7,180310,,,A*44
$GPRMC,032956.7,A,3259.860368,N,11713.666390,W,29.1,222.4,180310,,,A*40
$GPRMC,032959.7,A,3259.847754,N,11713.688057,W,27.6,236.0,180310,,,A*41
$GPRMC,033002.7,A,3259.833431,N,11713.711991,W,29.8,230.7,180310,,,A*47
$GPRMC,033005.7,A,3259.814563,N,11713.735778,W,33.5,227.4,180310,,,A*4F
$GPRMC,033008.7,A,3259.794442,N,11713.759567,W,33.8,225.7,180310,,,A*4D
$GPRMC,033011.7,A,3259.773651,N,11713.783658,W,34.9,227.6,180310,,,A*41
$GPRMC,033014.7,A,3259.759384,N,11713.813851,W,35.1,247.3,180310,,,A*4A
$GPRMC,033017.7,A,3259.754812,N,11713.849430,W,36.4,265.2,180310,,,A*43
$GPRMC,033020.7,A,3259.754761,N,11713.888712,W,39.2,271.2,180310,,,A*4E
$GPRMC,033023.7,A,3259.757130,N,11713.927586,W,41.0,273.3,180310,,,A*49
$GPRMC,033026.7,A,3259.757484,N,11713.970266,W,43.3,268.7,180310,,,A*42
$GPRMC,033029.7,A,3259.754050,N,11714.013766,W,43.9,262.9,180310,,,A*43
$GPRMC,033032.7,A,3259.751170,N,11714.056813,W,43.4,266.3,180310,,,A*40
$GPRMC,033035.7,A,3259.750546,N,11714.102668,W,46.2,271.2,180310,,,A*41
$GPRMC,033038.7,A,3259.752296,N,11714.148812,W,45.1,273.3,180310,,,A*4A
$GPRMC,033041.7,A,3259.753692,N,11714.191149,W,41.0,274.2,180310,,,A*45
$GPRMC,033044.7,A,3259.756661,N,11714.228983,W,38.5,274.1,180310,,,A*4E
$GPRMC,033047.7,A,3259.758582,N,11714.265721,W,37.4,272.7,180310,,,A*4C
$GPRMC,033050.7,A,3259.758126,N,11714.299645,W,32.4,269.6,180310,,,A*4E
$GPRMC,033053.7,A,3259.761223,N,11714.326719,W,27.9,275.6,180310,,,A*48
$GPRMC,033056.7,A,3259.759980,N,11714.332776,W,14.4,269.6,180310,,,A*48
$GPRMC,033059.7,A,3259.759473,N,11714.332767,W,12.5,270.6,180310,,,A*49
$GPRMC,033102.7,A,3259.759984,N,11714.351292,W,23.6,271.5,180310,,,A*4A
$GPRMC,033105.7,A,3259.761588,N,11714.379402,W,29.7,274.0,180310,,,A*48
$GPRMC,033108.7,A,3259.761619,N,11714.410934,W,33.1,270.9,180310,,,A*4E
$GPRMC,033111.7,A,3259.760761,N,11714.441797,W,32.6,270.3,180310,,,A*46
$GPRMC,033114.7,A,3259.760751,N,11714.474973,W,33.6,269.9,180310,,,A*41
$GPRMC,033117.7,A,3259.761252,N,11714.511536,W,37.8,270.0,180310,,,A*41
$GPRMC,033120.7,A,3259.761225,N,11714.552665,W,41.0,269.9,180310,,,A*4F
$GPRMC,033123.7,A,3259.761259,N,11714.594851,W,42.7,270.2,180310,,,A*43
$GPRMC,033126.7,A,3259.761086,N,11714.638699,W,44.1,269.7,180310,,,A*44
$GPRMC,033129.7,A,3259.760158,N,11714.683317,W,45.1,269.2,180310,,,A*4F
$GPRMC,033132.7,A,3259.761845,N,11714.726352,W,43.8,270.8,180310,,,A*43
$GPRMC,033135.7,A,3259.762562,N,11714.769352,W,42.4,270.8,180310,,,A*49
$GPRMC,033138.7,A,3259.763475,N,11714.808250,W,39.1,271.0,180310,,,A*49
$GPRMC,033141.7,A,3259.762435,N,11714.845017,W,36.1,266.6,180310,,,A*45
$GPRMC,033144.7,A,3259.756161,N,11714.881617,W,36.6,259.0,180310,,,A*40
$GPRMC,033147.7,A,3259.749363,N,11714.918575,W,38.0,256.4,180310,,,A*48
$GPRMC,033150.7,A,3259.742152,N,11714.955367,W,38.4,256.2,180310,,,A*4B
$GPRMC,033153.7,A,3259.734009,N,11714.991984,W,37.0,256.2,180310,,,A*42
$GPRMC,033156.7,A,3259.728916,N,11715.027443,W,35.1,261.3,180310,,,A*48
$GPRMC,033159.7,A,3259.728489,N,11715.054552,W,26.2,268.6,180310,,,A*44
$GPRMC,033202.7,A,3259.729533,N,11715.077852,W,24.9,272.1,180310,,,A*41
$GPRMC,033205.7,A,3259.730963,N,11715.105084,W,29.0,273.1,180310,,,A*45
$GPRMC,033208.7,A,3259.732662,N,11715.136835,W,32.3,274.8,180310,,,A*41
$GPRMC,033211.7,A,3259.734279,N,11715.170009,W,32.0,273.9,180310,,,A*41
$GPRMC,033214.7,A,3259.737531,N,11715.193379,W,23.3,276.2,180310,,,A*48
$GPRMC,033217.7,A,3259.741601,N,11715.201041,W,11.9,286.4,180310,,,A*48
$GPRMC,033244.7,A,3259.742170,N,11715.209258,W,16.5,277.0,180310,,,A*4F
$GPRMC,033247.7,A,3259.743436,N,11715.236915,W,26.1,274.1,180310,,,A*41
$GPRMC,033250.7,A,3259.743746,N,11715.264577,W,26.2,273.8,180310,,,A*41
$GPRMC,033253.7,A,3259.744428,N,11715.287959,W,20.6,272.6,180310,,,A*4E
$GPRMC,033256.7,A,3259.744537,N,11715.298258,W,10.4,274.5,180310,,,A*44
$GPRMC,033323.7,A,3259.743258,N,11715.307134,W,7.1,275.2,180310,,,A*75
$GPRMC,033326.7,A,3259.742994,N,11715.320795,W,12.2,271.1,180310,,,A*42
$GPRMC,033329.7,A,3259.745844,N,11715.349628,W,27.2,274.4,180310,,,A*48
$GPRMC,033332.7,A,3259.748848,N,11715.382836,W,31.0,274.7,180310,,,A*43
$GPRMC,033340.7,A,3259.753789,N,11715.463653,W,30.2,273.5,180310,,,A*4D
$GPRMC,033343.7,A,3259.762320,N,11715.487600,W,27.9,277.4,180310,,,A*4F
$GPRMC,033346.7,A,3259.763184,N,11715.518333,W,28.4,275.5,180310,,,A*44
$GPRMC,033349.7,A,3259.765673,N,11715.546036,W,27.6,274.1,180310,,,A*47
$GPRMC,033352.7,A,3259.768138,N,11715.572765,W,27.2,276.7,180310,,,A*4E
$GPRMC,033355.7,A,3259.771159,N,11715.601434,W,29.1,276.0,180310,,,A*4C
$GPRMC,033358.7,A,3259.773712,N,11715.636723,W,33.4,275.5,180310,,,A*43
$GPRMC,033401.7,A,3259.774698,N,11715.674260,W,35.4,274.8,180310,,,A*42
$GPRMC,033404.7,A,3259.777664,N,11715.707939,W,33.6,273.0,180310,,,A*4E
$GPRMC,033407.7,A,3259.776571,N,11715.741181,W,32.7,266.9,180310,,,A*4F
$GPRMC,033410.7,A,3259.768736,N,11715.772969,W,32.9,255.1,180310,,,A*4F
$GPRMC,033413.7,A,3259.758440,N,11715.804668,W,35.0,250.5,180310,,,A*42
$GPRMC,033416.7,A,3259.747025,N,11715.839473,W,37.4,250.1,180310,,,A*4A
$GPRMC,033419.7,A,3259.735265,N,11715.874616,W,37.7,249.6,180310,,,A*42
$GPRMC,033422.7,A,3259.723702,N,11715.909623,W,37.7,248.6,180310,,,A*45
$GPRMC,033425.7,A,3259.713098,N,11715.941482,W,35.4,249.2,180310,,,A*44
$GPRMC,033428.7,A,3259.703951,N,11715.973256,W,32.0,249.5,180310,,,A*4E
$GPRMC,033431.7,A,3259.693223,N,11716.000946,W,29.7,243.6,180310,,,A*40
