NMEA Sentence Code,UTC Time,Status,Latitude,Latitude Direction,Longitude,Longitude Direction,Speed (knots),Track Angle (degrees true),Date,MagneticVariation,Magnetic Variation Direction,[FAA Mode]-Optional,Checksum
$GPRMC,162348.73,A,3312.0450,N,11723.0124,W,6.279,295.286,131110,0,W,A*2D
$GPRMC,162351.73,A,3312.0530,N,11723.0204,W,17.631,326.705,131110,0,W,A*1C
$GPRMC,162354.73,A,3312.0671,N,11723.0314,W,20.659,327.326,131110,0,W,A*11
$GPRMC,162357.73,A,3312.0825,N,11723.0383,W,17.617,3.374,131110,0,W,A*1F
$GPRMC,162400.73,A,3312.0990,N,11723.0334,W,22.160,20.484,131110,0,W,A*21
$GPRMC,162403.73,A,3312.1186,N,11723.0249,W,26.009,16.019,131110,0,W,A*28
$GPRMC,162406.73,A,3312.1419,N,11723.0183,W,28.808,13.208,131110,0,W,A*2B
$GPRMC,162409.73,A,3312.1688,N,11723.0116,W,33.923,11.729,131110,0,W,A*24
$GPRMC,162412.73,A,3312.1994,N,11723.0047,W,38.972,11.173,131110,0,W,A*2F
$GPRMC,162415.73,A,3312.2347,N,11722.9964,W,43.089,11.550,131110,0,W,A*2B
$GPRMC,162418.73,A,3312.2719,N,11722.9873,W,47.226,10.363,131110,0,W,A*2A
$GPRMC,162421.73,A,3312.3132,N,11722.9778,W,50.739,12.024,131110,0,W,A*25
$GPRMC,162424.73,A,3312.3545,N,11722.9654,W,50.494,18.622,131110,0,W,A*25
$GPRMC,162427.73,A,3312.3943,N,11722.9448,W,52.439,25.405,131110,0,W,A*2F
$GPRMC,162430.73,A,3312.4338,N,11722.9170,W,55.217,33.744,131110,0,W,A*2A
$GPRMC,162433.73,A,3312.4705,N,11722.8827,W,53.901,41.291,131110,0,W,A*2B
$GPRMC,162436.73,A,3312.5027,N,11722.8431,W,54.267,48.793,131110,0,W,A*21
$GPRMC,162439.73,A,3312.5301,N,11722.8000,W,51.757,50.268,131110,0,W,A*24
$GPRMC,162442.73,A,3312.5572,N,11722.7594,W,52.081,50.253,131110,0,W,A*2A
$GPRMC,162445.73,A,3312.5851,N,11722.7196,W,51.264,50.310,131110,0,W,A*2B
$GPRMC,162448.73,A,3312.6117,N,11722.6808,W,49.839,49.923,131110,0,W,A*28
$GPRMC,162451.73,A,3312.6387,N,11722.6429,W,49.995,50.180,131110,0,W,A*2A
$GPRMC,162454.73,A,3312.6663,N,11722.6052,W,50.577,48.408,131110,0,W,A*2C
$GPRMC,162457.73,A,3312.6936,N,11722.5665,W,51.168,53.769,131110,0,W,A*24
$GPRMC,162500.73,A,3312.7158,N,11722.5248,W,50.356,61.288,131110,0,W,A*28
$GPRMC,162503.73,A,3312.7327,N,11722.4792,W,49.594,68.685,131110,0,W,A*22
$GPRMC,162506.73,A,3312.7448,N,11722.4327,W,48.008,75.511,131110,0,W,A*20
$GPRMC,162509.73,A,3312.7516,N,11722.3850,W,48.097,83.036,131110,0,W,A*26
$GPRMC,162512.73,A,3312.7536,N,11722.3370,W,48.423,89.236,131110,0,W,A*24
$GPRMC,162515.73,A,3312.7521,N,11722.2880,W,46.656,92.189,131110,0,W,A*23
$GPRMC,162518.73,A,3312.7497,N,11722.2435,W,43.603,92.268,131110,0,W,A*29
$GPRMC,162521.73,A,3312.7476,N,11722.2044,W,35.730,92.730,131110,0,W,A*26
$GPRMC,162524.73,A,3312.7457,N,11722.1724,W,29.997,92.505,131110,0,W,A*28
$GPRMC,162527.73,A,3312.7440,N,11722.1424,W,30.999,92.458,131110,0,W,A*21
$GPRMC,162530.73,A,3312.7426,N,11722.1099,W,35.903,91.691,131110,0,W,A*27
$GPRMC,162533.73,A,3312.7424,N,11722.0727,W,39.719,87.742,131110,0,W,A*24
$GPRMC,162536.73,A,3312.7461,N,11722.0315,W,43.607,83.005,131110,0,W,A*26
$GPRMC,162539.73,A,3312.7528,N,11721.9863,W,47.652,77.692,131110,0,W,A*22
$GPRMC,162542.73,A,3312.7638,N,11721.9408,W,48.704,74.816,131110,0,W,A*21
$GPRMC,162545.73,A,3312.7744,N,11721.8919,W,51.869,74.969,131110,0,W,A*25
$GPRMC,162548.73,A,3312.7861,N,11721.8403,W,53.975,74.798,131110,0,W,A*28
$GPRMC,162551.73,A,3312.7976,N,11721.7893,W,51.731,75.312,131110,0,W,A*26
$GPRMC,162554.73,A,3312.8090,N,11721.7393,W,53.084,74.683,131110,0,W,A*21
$GPRMC,162557.73,A,3312.8203,N,11721.6885,W,52.058,74.957,131110,0,W,A*21
$GPRMC,162600.73,A,3312.8311,N,11721.6398,W,51.097,75.037,131110,0,W,A*2B
$GPRMC,162603.73,A,3312.8426,N,11721.5893,W,53.167,74.656,131110,0,W,A*24
$GPRMC,162606.73,A,3312.8545,N,11721.5387,W,52.855,73.546,131110,0,W,A*27
$GPRMC,162609.73,A,3312.8673,N,11721.4887,W,51.241,72.853,131110,0,W,A*20
$GPRMC,162612.73,A,3312.8799,N,11721.4416,W,49.932,71.982,131110,0,W,A*23
$GPRMC,162615.73,A,3312.8934,N,11721.3937,W,51.037,71.674,131110,0,W,A*27
$GPRMC,162618.73,A,3312.9062,N,11721.3458,W,50.147,73.373,131110,0,W,A*22
$GPRMC,162621.73,A,3312.9184,N,11721.2985,W,48.569,73.283,131110,0,W,A*22
$GPRMC,162624.73,A,3312.9299,N,11721.2535,W,46.378,72.626,131110,0,W,A*2D
$GPRMC,162627.73,A,3312.9413,N,11721.2112,W,43.183,72.343,131110,0,W,A*2E
$GPRMC,162630.73,A,3312.9508,N,11721.1752,W,33.539,72.289,131110,0,W,A*27
$GPRMC,162633.73,A,3312.9581,N,11721.1482,W,25.827,72.547,131110,0,W,A*2B
$GPRMC,162636.73,A,3312.9638,N,11721.1266,W,21.253,71.473,131110,0,W,A*2B
$GPRMC,162639.73,A,3312.9685,N,11721.1106,W,14.968,72.373,131110,0,W,A*26
$GPRMC,162642.73,A,3312.9716,N,11721.1000,W,9.034,69.689,131110,0,W,A*10
$GPRMC,162657.73,A,3312.9732,N,11721.0945,W,8.094,70.632,131110,0,W,A*18
$GPRMC,162700.73,A,3312.9765,N,11721.0815,W,18.341,72.258,131110,0,W,A*2D
$GPRMC,162703.73,A,3312.9825,N,11721.0594,W,27.032,71.975,131110,0,W,A*2D
$GPRMC,162706.73,A,3312.9901,N,11721.0308,W,32.458,71.902,131110,0,W,A*20
$GPRMC,162709.73,A,3312.9989,N,11720.9974,W,37.519,72.245,131110,0,W,A*2C
$GPRMC,162712.73,A,3313.0093,N,11720.9607,W,38.505,72.087,131110,0,W,A*29
$GPRMC,162715.73,A,3313.0195,N,11720.9239,W,37.564,72.022,131110,0,W,A*27
$GPRMC,162718.73,A,3313.0285,N,11720.8896,W,35.286,72.017,131110,0,W,A*29
$GPRMC,162721.73,A,3313.0375,N,11720.8572,W,33.990,72.146,131110,0,W,A*25
$GPRMC,162724.73,A,3313.0463,N,11720.8239,W,36.571,72.803,131110,0,W,A*26
$GPRMC,162727.73,A,3313.0555,N,11720.7865,W,40.820,75.222,131110,0,W,A*2B
$GPRMC,162730.73,A,3313.0649,N,11720.7462,W,41.760,72.411,131110,0,W,A*23
$GPRMC,162733.73,A,3313.0756,N,11720.7077,W,38.113,71.444,131110,0,W,A*20
$GPRMC,162736.73,A,3313.0850,N,11720.6763,W,29.344,71.585,131110,0,W,A*23
$GPRMC,162739.73,A,3313.0903,N,11720.6568,W,13.380,70.586,131110,0,W,A*21
$GPRMC,162745.73,A,3313.0902,N,11720.6511,W,9.219,98.085,131110,0,W,A*1F
$GPRMC,162748.73,A,3313.0829,N,11720.6399,W,19.052,147.649,131110,0,W,A*15
$GPRMC,162751.73,A,3313.0647,N,11720.6308,W,25.073,159.278,131110,0,W,A*16
$GPRMC,162754.73,A,3313.0457,N,11720.6209,W,20.199,154.032,131110,0,W,A*11
$GPRMC,162757.73,A,3313.0343,N,11720.6148,W,8.798,152.382,131110,0,W,A*25
$GPRMC,162854.73,A,3313.0277,N,11720.6115,W,6.406,147.165,131110,0,W,A*22
$GPRMC,162857.73,A,3313.0200,N,11720.6055,W,13.770,140.129,131110,0,W,A*1D
$GPRMC,162900.73,A,3313.0139,N,11720.5930,W,15.080,90.131,131110,0,W,A*25
$GPRMC,162903.73,A,3313.0210,N,11720.5774,W,20.361,49.710,131110,0,W,A*2B
$GPRMC,162906.73,A,3313.0343,N,11720.5590,W,26.613,50.226,131110,0,W,A*2F
$GPRMC,162909.73,A,3313.0502,N,11720.5367,W,30.324,49.065,131110,0,W,A*26
$GPRMC,162912.73,A,3313.0679,N,11720.5114,W,34.047,50.972,131110,0,W,A*20
$GPRMC,162915.73,A,3313.0867,N,11720.4838,W,35.666,50.285,131110,0,W,A*27
$GPRMC,162918.73,A,3313.1063,N,11720.4561,W,36.376,50.172,131110,0,W,A*2A
$GPRMC,162921.73,A,3313.1263,N,11720.4280,W,36.411,50.199,131110,0,W,A*29
$GPRMC,162924.73,A,3313.1465,N,11720.3994,W,38.194,50.357,131110,0,W,A*23
$GPRMC,162927.73,A,3313.1674,N,11720.3697,W,39.722,49.865,131110,0,W,A*26
$GPRMC,162930.73,A,3313.1892,N,11720.3388,W,39.890,50.590,131110,0,W,A*24
$GPRMC,162933.73,A,3313.2100,N,11720.3093,W,37.258,50.206,131110,0,W,A*27
$GPRMC,162936.73,A,3313.2289,N,11720.2826,W,32.258,49.707,131110,0,W,A*2E
$GPRMC,162939.73,A,3313.2450,N,11720.2603,W,25.724,49.494,131110,0,W,A*2B
$GPRMC,162942.73,A,3313.2565,N,11720.2449,W,17.611,50.767,131110,0,W,A*2D
$GPRMC,162945.73,A,3313.2651,N,11720.2332,W,15.059,50.350,131110,0,W,A*2D
$GPRMC,162948.73,A,3313.2715,N,11720.2240,W,10.480,50.251,131110,0,W,A*20
$GPRMC,162951.73,A,3313.2751,N,11720.2188,W,5.041,50.362,131110,0,W,A*13
$GPRMC,162954.73,A,3313.2768,N,11720.2156,W,6.381,51.381,131110,0,W,A*1F
$GPRMC,163003.73,A,3313.2836,N,11720.2060,W,11.804,50.625,131110,0,W,A*2F
$GPRMC,163006.73,A,3313.2929,N,11720.1921,W,21.984,50.086,131110,0,W,A*2F
$GPRMC,163009.73,A,3313.3071,N,11720.1718,W,26.110,46.659,131110,0,W,A*20
$GPRMC,163012.73,A,3313.3213,N,11720.1531,W,21.681,48.000,131110,0,W,A*29
$GPRMC,163015.73,A,3313.3322,N,11720.1394,W,15.839,51.280,131110,0,W,A*2C
$GPRMC,163018.73,A,3313.3383,N,11720.1317,W,5.347,48.828,131110,0,W,A*12
$GPRMC,163115.73,A,3313.3432,N,11720.1281,W,9.110,29.350,131110,0,W,A*12
$GPRMC,163118.73,A,3313.3521,N,11720.1304,W,13.924,326.081,131110,0,W,A*17
$GPRMC,163121.73,A,3313.3621,N,11720.1404,W,15.177,317.919,131110,0,W,A*1B
$GPRMC,163124.73,A,3313.3707,N,11720.1489,W,12.188,320.026,131110,0,W,A*18
$GPRMC,163127.73,A,3313.3791,N,11720.1576,W,13.974,317.521,131110,0,W,A*19
$GPRMC,163130.73,A,3313.3877,N,11720.1670,W,13.285,320.128,131110,0,W,A*11
$GPRMC,163133.73,A,3313.3957,N,11720.1746,W,11.260,320.940,131110,0,W,A*1A
$GPRMC,163136.73,A,3313.4016,N,11720.1806,W,7.386,323.115,131110,0,W,A*2A
$GPRMC,163142.73,A,3313.4088,N,11720.1884,W,10.298,317.728,131110,0,W,A*13
$GPRMC,163145.73,A,3313.4179,N,11720.1993,W,19.705,318.752,131110,0,W,A*16
$GPRMC,163148.73,A,3313.4327,N,11720.2131,W,22.672,322.043,131110,0,W,A*16
$GPRMC,163151.73,A,3313.4481,N,11720.2278,W,22.911,320.520,131110,0,W,A*13
$GPRMC,163154.73,A,3313.4625,N,11720.2425,W,21.279,319.618,131110,0,W,A*10
$GPRMC,163157.73,A,3313.4754,N,11720.2559,W,19.259,320.328,131110,0,W,A*1B
$GPRMC,163200.73,A,3313.4881,N,11720.2678,W,19.949,321.125,131110,0,W,A*19
$GPRMC,163203.73,A,3313.5011,N,11720.2806,W,19.982,321.351,131110,0,W,A*1B
$GPRMC,163206.73,A,3313.5132,N,11720.2908,W,14.585,323.982,131110,0,W,A*11
$GPRMC,163209.73,A,3313.5202,N,11720.2959,W,6.468,334.787,131110,0,W,A*26
$GPRMC,163212.73,A,3313.5251,N,11720.2958,W,6.904,36.847,131110,0,W,A*1E
$GPRMC,163215.73,A,3313.5279,N,11720.2876,W,11.118,79.238,131110,0,W,A*24
$GPRMC,163218.73,A,3313.5274,N,11720.2709,W,18.552,92.762,131110,0,W,A*2F
$GPRMC,163221.73,A,3313.5267,N,11720.2508,W,17.863,90.877,131110,0,W,A*2D
$GPRMC,163224.73,A,3313.5250,N,11720.2360,W,13.711,122.754,131110,0,W,A*1C
$GPRMC,163227.73,A,3313.5146,N,11720.2271,W,16.152,152.151,131110,0,W,A*1A
$GPRMC,163230.73,A,3313.5011,N,11720.2170,W,18.416,142.961,131110,0,W,A*1C
$GPRMC,163233.73,A,3313.4883,N,11720.2059,W,18.495,140.251,131110,0,W,A*16
$GPRMC,163236.73,A,3313.4755,N,11720.1935,W,18.258,140.341,131110,0,W,A*10
$GPRMC,163239.73,A,3313.4637,N,11720.1824,W,17.747,141.152,131110,0,W,A*1E
$GPRMC,163242.73,A,3313.4520,N,11720.1717,W,17.019,141.813,131110,0,W,A*18
$GPRMC,163245.73,A,3313.4426,N,11720.1631,W,11.427,144.567,131110,0,W,A*19
$GPRMC,163248.73,A,3313.4342,N,11720.1604,W,11.055,183.377,131110,0,W,A*1A
$GPRMC,163251.73,A,3313.4250,N,11720.1677,W,15.721,220.036,131110,0,W,A*18
$GPRMC,163254.73,A,3313.4160,N,11720.1791,W,13.492,227.033,131110,0,W,A*1B
$GPRMC,163257.73,A,3313.4108,N,11720.1873,W,4.851,227.974,131110,0,W,A*2A
$GPRMC,163303.73,A,3313.4081,N,11720.1910,W,9.038,187.283,131110,0,W,A*2E
$GPRMC,163306.73,A,3313.3994,N,11720.1858,W,13.158,144.490,131110,0,W,A*1B
$GPRMC,163309.73,A,3313.3904,N,11720.1758,W,14.014,137.872,131110,0,W,A*18
$GPRMC,163312.73,A,3313.3820,N,11720.1668,W,12.232,141.936,131110,0,W,A*17
$GPRMC,163315.73,A,3313.3772,N,11720.1572,W,11.474,90.368,131110,0,W,A*2B
$GPRMC,163318.73,A,3313.3825,N,11720.1470,W,13.448,46.413,131110,0,W,A*25
$GPRMC,163321.73,A,3313.3917,N,11720.1377,W,14.239,41.930,131110,0,W,A*23
$GPRMC,163324.73,A,3313.4009,N,11720.1294,W,13.678,38.998,131110,0,W,A*21
$GPRMC,163327.73,A,3313.4102,N,11720.1217,W,12.950,38.009,131110,0,W,A*26
$GPRMC,163330.73,A,3313.4192,N,11720.1138,W,13.266,38.228,131110,0,W,A*29
$GPRMC,163333.73,A,3313.4284,N,11720.1056,W,13.289,37.517,131110,0,W,A*22
$GPRMC,163336.73,A,3313.4374,N,11720.0986,W,10.976,17.524,131110,0,W,A*26
$GPRMC,163339.73,A,3313.4459,N,11720.0999,W,10.470,323.997,131110,0,W,A*14
$GPRMC,163342.73,A,3313.4533,N,11720.1070,W,10.642,317.855,131110,0,W,A*11
$GPRMC,163345.73,A,3313.4600,N,11720.1135,W,9.361,323.870,131110,0,W,A*29
$GPRMC,163348.73,A,3313.4660,N,11720.1186,W,8.543,322.867,131110,0,W,A*2A
$GPRMC,163351.73,A,3313.4713,N,11720.1236,W,7.673,320.507,131110,0,W,A*29
$GPRMC,163354.73,A,3313.4760,N,11720.1290,W,7.219,320.351,131110,0,W,A*29
$GPRMC,163357.73,A,3313.4808,N,11720.1337,W,8.036,319.132,131110,0,W,A*2A
$GPRMC,163400.73,A,3313.4859,N,11720.1393,W,8.637,318.335,131110,0,W,A*26
$GPRMC,163403.73,A,3313.4913,N,11720.1451,W,8.105,318.352,131110,0,W,A*24
$GPRMC,163406.73,A,3313.4968,N,11720.1500,W,8.454,323.707,131110,0,W,A*25
$GPRMC,163409.73,A,3313.5025,N,11720.1549,W,8.026,319.907,131110,0,W,A*20
$GPRMC,163412.73,A,3313.5072,N,11720.1603,W,7.609,318.014,131110,0,W,A*2B
$GPRMC,163415.73,A,3313.5120,N,11720.1658,W,7.772,317.766,131110,0,W,A*24
$GPRMC,163418.73,A,3313.5170,N,11720.1706,W,7.433,326.608,131110,0,W,A*2B
$GPRMC,163421.73,A,3313.5217,N,11720.1735,W,4.925,325.102,131110,0,W,A*24
