NMEA Sentence Code,UTC Time,Status,Latitude,Latitude Direction,Longitude,Longitude Direction,Speed (knots),Track Angle (degrees true),Date,MagneticVariation,Magnetic Variation Direction,[FAA Mode]-Optional,Checksum
$GPRMC,211404.2,A,3337.426960,N,11743.862323,W,43.7,189.2,060210,,,A*4E
$GPRMC,211407.2,A,3337.390534,N,11743.867546,W,44.4,187.6,060210,,,A*44
$GPRMC,211410.9,A,3337.340740,N,11743.875994,W,44.8,189.2,060210,,,A*43
$GPRMC,211414.2,A,3337.307068,N,11743.880958,W,36.1,187.2,060210,,,A*4A
$GPRMC,211417.9,A,3337.282978,N,11743.886625,W,23.0,190.9,060210,,,A*4D
$GPRMC,211420.9,A,3337.271704,N,11743.889233,W,12.0,191.4,060210,,,A*42
$GPRMC,211503.9,A,3337.254324,N,11743.894694,W,10.9,203.3,060210,,,A*42
$GPRMC,211506.9,A,3337.229862,N,11743.899063,W,27.6,188.8,060210,,,A*47
$GPRMC,211509.9,A,3337.194557,N,11743.901447,W,36.0,184.0,060210,,,A*46
$GPRMC,211513.2,A,3337.158299,N,11743.898836,W,39.0,176.3,060210,,,A*49
$GPRMC,211516.0,A,3337.126827,N,11743.892729,W,40.8,170.9,060210,,,A*49
$GPRMC,211519.9,A,3337.081182,N,11743.883361,W,42.7,170.1,060210,,,A*48
$GPRMC,211522.9,A,3337.045864,N,11743.875920,W,42.4,170.3,060210,,,A*4E
$GPRMC,211525.9,A,3337.010786,N,11743.872147,W,43.5,172.0,060210,,,A*45
$GPRMC,211528.9,A,3336.972255,N,11743.864107,W,46.1,171.0,060210,,,A*4E
$GPRMC,211531.9,A,3336.934271,N,11743.855651,W,46.4,170.7,060210,,,A*47
$GPRMC,211534.2,A,3336.904976,N,11743.849919,W,47.7,170.4,060210,,,A*49
$GPRMC,211537.9,A,3336.856201,N,11743.840518,W,46.6,172.4,060210,,,A*4A
$GPRMC,211540.2,A,3336.828088,N,11743.832794,W,43.7,167.1,060210,,,A*4D
$GPRMC,211543.2,A,3336.793549,N,11743.821142,W,43.4,162.3,060210,,,A*42
$GPRMC,211546.2,A,3336.762637,N,11743.804166,W,41.2,151.8,060210,,,A*4D
$GPRMC,211549.2,A,3336.737946,N,11743.779737,W,38.8,140.5,060210,,,A*45
$GPRMC,211552.2,A,3336.716025,N,11743.750990,W,39.3,129.4,060210,,,A*4C
$GPRMC,211555.9,A,3336.696151,N,11743.706546,W,42.3,118.3,060210,,,A*46
$GPRMC,211558.9,A,3336.683281,N,11743.664946,W,44.5,110.4,060210,,,A*47
$GPRMC,211602.2,A,3336.669008,N,11743.620360,W,41.9,110.6,060210,,,A*42
$GPRMC,211605.9,A,3336.653542,N,11743.578693,W,36.5,116.7,060210,,,A*40
$GPRMC,211608.9,A,3336.637986,N,11743.552565,W,28.4,128.9,060210,,,A*44
$GPRMC,211611.2,A,3336.628462,N,11743.540101,W,20.0,133.3,060210,,,A*47
$GPRMC,211615.2,A,3336.620212,N,11743.531689,W,6.8,147.4,060210,,,A*73
$GPRMC,211722.2,A,3336.599930,N,11743.518665,W,10.5,147.4,060210,,,A*4F
$GPRMC,211725.2,A,3336.580072,N,11743.499724,W,27.6,146.8,060210,,,A*49
$GPRMC,211728.9,A,3336.546237,N,11743.476091,W,32.8,150.9,060210,,,A*42
$GPRMC,211731.9,A,3336.524691,N,11743.459677,W,25.9,151.3,060210,,,A*49
$GPRMC,211822.2,A,3336.503589,N,11743.437147,W,9.2,124.9,060210,,,A*71
$GPRMC,211825.9,A,3336.489597,N,11743.418131,W,23.8,130.8,060210,,,A*4B
$GPRMC,211828.2,A,3336.475360,N,11743.399166,W,31.2,131.2,060210,,,A*4E
$GPRMC,211832.2,A,3336.448635,N,11743.360979,W,40.7,129.4,060210,,,A*42
$GPRMC,211835.9,A,3336.417810,N,11743.319794,W,45.0,131.4,060210,,,A*45
$GPRMC,211838.9,A,3336.392507,N,11743.286172,W,45.4,130.7,060210,,,A*46
$GPRMC,211841.2,A,3336.374477,N,11743.259622,W,43.9,131.1,060210,,,A*41
$GPRMC,211845.2,A,3336.334832,N,11743.220462,W,43.5,146.9,060210,,,A*40
$GPRMC,211848.2,A,3336.301771,N,11743.201229,W,42.8,154.9,060210,,,A*46
$GPRMC,211851.2,A,3336.265425,N,11743.183639,W,46.3,157.7,060210,,,A*41
$GPRMC,211854.2,A,3336.229401,N,11743.164968,W,46.3,153.0,060210,,,A*4B
$GPRMC,211858.2,A,3336.184454,N,11743.132197,W,46.8,142.2,060210,,,A*41
$GPRMC,211902.2,A,3336.144936,N,11743.088527,W,48.5,139.4,060210,,,A*4C
$GPRMC,211905.2,A,3336.119575,N,11743.057944,W,40.9,138.2,060210,,,A*40
$GPRMC,211908.2,A,3336.095537,N,11743.036011,W,32.6,145.2,060210,,,A*40
$GPRMC,211911.2,A,3336.079994,N,11743.026241,W,18.0,153.3,060210,,,A*41
$GPRMC,211914.2,A,3336.074708,N,11743.023420,W,5.3,165.8,060210,,,A*77
$GPRMC,211929.2,A,3336.073669,N,11743.023603,W,5.9,145.3,060210,,,A*78
$GPRMC,211932.2,A,3336.058965,N,11743.018534,W,18.2,157.1,060210,,,A*41
$GPRMC,211935.9,A,3336.029750,N,11743.005812,W,28.9,164.8,060210,,,A*47
$GPRMC,211938.9,A,3335.999830,N,11742.997189,W,35.8,170.4,060210,,,A*4E
$GPRMC,211941.9,A,3335.965335,N,11742.991824,W,42.2,172.2,060210,,,A*4B
$GPRMC,211956.9,A,3335.767393,N,11742.963697,W,47.1,166.4,060210,,,A*43
$GPRMC,211959.9,A,3335.730774,N,11742.947069,W,47.8,160.5,060210,,,A*4C
$GPRMC,212002.0,A,3335.707856,N,11742.933585,W,46.3,153.7,060210,,,A*46
$GPRMC,212005.3,A,3335.672046,N,11742.909989,W,46.4,151.5,060210,,,A*46
$GPRMC,212008.3,A,3335.637798,N,11742.889466,W,42.8,153.1,060210,,,A*45
$GPRMC,212011.3,A,3335.605902,N,11742.870773,W,41.5,153.3,060210,,,A*4C
$GPRMC,212014.3,A,3335.573468,N,11742.852681,W,42.4,154.5,060210,,,A*45
$GPRMC,212017.3,A,3335.545036,N,11742.834180,W,36.7,152.7,060210,,,A*4E
$GPRMC,212020.3,A,3335.518905,N,11742.817569,W,32.3,153.6,060210,,,A*49
$GPRMC,212023.3,A,3335.501019,N,11742.805669,W,22.2,155.0,060210,,,A*46
$GPRMC,212026.3,A,3335.492820,N,11742.799368,W,9.9,160.7,060210,,,A*77
$GPRMC,212029.0,A,3335.485906,N,11742.799293,W,9.3,188.9,060210,,,A*7F
$GPRMC,212032.3,A,3335.476991,N,11742.808836,W,17.0,224.4,060210,,,A*42
$GPRMC,212035.0,A,3335.458913,N,11742.830407,W,31.4,224.2,060210,,,A*43
$GPRMC,212038.3,A,3335.434370,N,11742.853244,W,35.2,216.4,060210,,,A*49
$GPRMC,212041.0,A,3335.409351,N,11742.876811,W,42.6,212.4,060210,,,A*44
$GPRMC,212044.9,A,3335.367607,N,11742.908617,W,45.5,212.7,060210,,,A*46
$GPRMC,212047.3,A,3335.341371,N,11742.929915,W,47.9,216.6,060210,,,A*4A
$GPRMC,212050.3,A,3335.310746,N,11742.962559,W,48.8,222.5,060210,,,A*49
$GPRMC,212053.3,A,3335.282669,N,11742.999751,W,49.9,228.7,060210,,,A*4A
$GPRMC,212056.3,A,3335.267153,N,11743.043017,W,49.3,243.4,060210,,,A*44
$GPRMC,212059.3,A,3335.256630,N,11743.088972,W,47.5,252.8,060210,,,A*42
$GPRMC,212102.3,A,3335.248319,N,11743.129470,W,39.4,254.8,060210,,,A*47
$GPRMC,212105.3,A,3335.242893,N,11743.157751,W,26.3,258.3,060210,,,A*44
$GPRMC,212108.3,A,3335.240551,N,11743.171853,W,6.8,260.1,060210,,,A*71
$GPRMC,212142.3,A,3335.240635,N,11743.179521,W,10.3,259.4,060210,,,A*4D
$GPRMC,212145.3,A,3335.233181,N,11743.193607,W,14.3,209.1,060210,,,A*41
$GPRMC,212148.3,A,3335.215586,N,11743.193608,W,21.1,162.6,060210,,,A*49
$GPRMC,212151.3,A,3335.193567,N,11743.185356,W,27.8,160.9,060210,,,A*48
$GPRMC,212154.3,A,3335.171547,N,11743.176643,W,28.9,161.7,060210,,,A*4F
$GPRMC,212157.3,A,3335.147286,N,11743.168624,W,29.6,164.5,060210,,,A*44
$GPRMC,212200.3,A,3335.117724,N,11743.168096,W,31.8,173.4,060210,,,A*42
$GPRMC,212203.3,A,3335.090680,N,11743.169003,W,32.1,178.6,060210,,,A*4E
$GPRMC,212206.3,A,3335.063803,N,11743.169429,W,32.0,180.3,060210,,,A*4D
$GPRMC,212209.3,A,3335.036657,N,11743.168332,W,32.1,179.8,060210,,,A*4D
$GPRMC,212212.3,A,3335.009677,N,11743.170283,W,31.6,181.3,060210,,,A*43
$GPRMC,212215.3,A,3334.982328,N,11743.175983,W,34.8,186.9,060210,,,A*48
$GPRMC,212218.3,A,3334.949118,N,11743.185789,W,39.7,193.3,060210,,,A*44
$GPRMC,212221.3,A,3334.917074,N,11743.201125,W,41.0,201.9,060210,,,A*4B
$GPRMC,212224.3,A,3334.880382,N,11743.223289,W,46.0,209.7,060210,,,A*4F
$GPRMC,212227.9,A,3334.841627,N,11743.257499,W,46.2,215.7,060210,,,A*4A
$GPRMC,212230.3,A,3334.819509,N,11743.278544,W,43.8,218.0,060210,,,A*4D
$GPRMC,212233.3,A,3334.791499,N,11743.306805,W,43.3,219.4,060210,,,A*47
$GPRMC,212236.3,A,3334.760873,N,11743.332942,W,40.7,216.0,060210,,,A*4D
$GPRMC,212239.3,A,3334.734301,N,11743.353853,W,37.4,212.5,060210,,,A*49
$GPRMC,212242.3,A,3334.706665,N,11743.372889,W,37.1,208.8,060210,,,A*44
$GPRMC,212245.3,A,3334.677956,N,11743.387777,W,35.9,204.4,060210,,,A*45
$GPRMC,212248.3,A,3334.653484,N,11743.398503,W,31.1,200.1,060210,,,A*4E
$GPRMC,212251.3,A,3334.631255,N,11743.404759,W,26.3,195.9,060210,,,A*44
$GPRMC,212254.3,A,3334.615938,N,11743.409776,W,19.5,195.9,060210,,,A*4D
$GPRMC,212257.3,A,3334.607534,N,11743.411771,W,10.6,198.1,060210,,,A*4C
