NMEA Sentence Code,UTC Time,Status,Latitude,Latitude Direction,Longitude,Longitude Direction,Speed (knots),Track Angle (degrees true),Date,MagneticVariation,Magnetic Variation Direction,[FAA Mode]-Optional,Checksum
$GPRMC,005005.3,A,3339.3317,N,11746.4743,W,50.00,124.30,240310,,*2A
$GPRMC,005008.3,A,3339.3078,N,11746.4337,W,50.20,124.80,240310,,*23
$GPRMC,005011.3,A,3339.2836,N,11746.3922,W,51.40,124.80,240310,,*26
$GPRMC,005014.3,A,3339.2594,N,11746.3500,W,51.90,122.90,240310,,*20
$GPRMC,005017.3,A,3339.2367,N,11746.3058,W,52.60,121.30,240310,,*24
$GPRMC,005020.3,A,3339.2170,N,11746.2602,W,53.00,117.80,240310,,*25
$GPRMC,005023.3,A,3339.1998,N,11746.2097,W,54.70,114.00,240310,,*2A
$GPRMC,005026.3,A,3339.1814,N,11746.1589,W,54.70,110.90,240310,,*2E
$GPRMC,005029.3,A,3339.1666,N,11746.1080,W,54.60,107.80,240310,,*20
$GPRMC,005032.3,A,3339.1538,N,11746.0564,W,53.20,106.00,240310,,*26
$GPRMC,005035.3,A,3339.1426,N,11746.0034,W,53.30,103.30,240310,,*28
$GPRMC,005038.3,A,3339.1330,N,11745.9477,W,55.50,100.90,240310,,*25
$GPRMC,005041.3,A,3339.1254,N,11745.8925,W,56.40,99.90,240310,,*10
$GPRMC,005044.3,A,3339.1174,N,11745.8361,W,57.60,100.10,240310,,*24
$GPRMC,005047.3,A,3339.1088,N,11745.7783,W,59.50,100.10,240310,,*2F
$GPRMC,005050.3,A,3339.1001,N,11745.7197,W,60.20,100.00,240310,,*27
$GPRMC,005053.3,A,3339.0920,N,11745.6608,W,59.70,99.60,240310,,*17
$GPRMC,005056.3,A,3339.0832,N,11745.6019,W,59.90,100.20,240310,,*2D
$GPRMC,005059.3,A,3339.0750,N,11745.5429,W,59.60,100.60,240310,,*26
$GPRMC,005102.3,A,3339.0639,N,11745.4847,W,59.50,103.50,240310,,*21
$GPRMC,005105.3,A,3339.0508,N,11745.4302,W,58.40,107.90,240310,,*25
$GPRMC,005108.3,A,3339.0342,N,11745.3741,W,58.00,110.00,240310,,*2F
$GPRMC,005111.3,A,3339.0185,N,11745.3173,W,60.00,109.00,240310,,*2A
$GPRMC,005114.3,A,3339.0027,N,11745.2606,W,59.70,108.50,240310,,*2B
$GPRMC,005117.3,A,3338.9877,N,11745.2056,W,58.60,108.90,240310,,*22
$GPRMC,005120.3,A,3338.9706,N,11745.1501,W,60.00,109.10,240310,,*2F
$GPRMC,005123.3,A,3338.9531,N,11745.0933,W,60.80,109.40,240310,,*2B
$GPRMC,005126.3,A,3338.9365,N,11745.0352,W,60.80,108.70,240310,,*26
$GPRMC,005129.3,A,3338.9206,N,11744.9778,W,61.00,108.90,240310,,*2E
$GPRMC,005132.3,A,3338.9037,N,11744.9198,W,60.60,108.70,240310,,*25
$GPRMC,005135.3,A,3338.8878,N,11744.8637,W,58.50,109.10,240310,,*2C
$GPRMC,005138.3,A,3338.8717,N,11744.8089,W,57.30,109.00,240310,,*2C
$GPRMC,005141.3,A,3338.8565,N,11744.7566,W,55.40,109.50,240310,,*2E
$GPRMC,005144.3,A,3338.8415,N,11744.7047,W,55.70,108.90,240310,,*25
$GPRMC,005147.3,A,3338.8255,N,11744.6516,W,56.50,109.20,240310,,*2F
$GPRMC,005150.3,A,3338.8097,N,11744.5983,W,57.60,108.90,240310,,*2E
$GPRMC,005153.3,A,3338.7939,N,11744.5439,W,58.20,109.60,240310,,*26
$GPRMC,005156.3,A,3338.7773,N,11744.4890,W,58.30,109.60,240310,,*2C
$GPRMC,005159.3,A,3338.7610,N,11744.4336,W,57.90,109.20,240310,,*21
$GPRMC,005202.3,A,3338.7451,N,11744.3797,W,55.70,109.40,240310,,*29
$GPRMC,005205.3,A,3338.7300,N,11744.3278,W,53.70,109.30,240310,,*28
$GPRMC,005208.3,A,3338.7151,N,11744.2782,W,52.80,111.50,240310,,*23
$GPRMC,005211.3,A,3338.6968,N,11744.2299,W,53.10,115.60,240310,,*28
$GPRMC,005214.3,A,3338.6754,N,11744.1850,W,51.00,120.20,240310,,*21
$GPRMC,005217.3,A,3338.6514,N,11744.1412,W,50.20,123.20,240310,,*2E
$GPRMC,005220.3,A,3338.6242,N,11744.1029,W,49.70,129.30,240310,,*24
$GPRMC,005223.3,A,3338.5930,N,11744.0704,W,48.20,136.30,240310,,*29
$GPRMC,005226.3,A,3338.5638,N,11744.0397,W,44.80,141.70,240310,,*27
$GPRMC,005229.3,A,3338.5337,N,11744.0141,W,42.10,145.40,240310,,*23
$GPRMC,005232.3,A,3338.5047,N,11743.9907,W,41.00,146.10,240310,,*2D
$GPRMC,005235.3,A,3338.4762,N,11743.9688,W,41.00,147.80,240310,,*2B
$GPRMC,005238.3,A,3338.4484,N,11743.9466,W,39.20,147.30,240310,,*29
$GPRMC,005241.3,A,3338.4214,N,11743.9260,W,36.30,147.00,240310,,*25
$GPRMC,005244.3,A,3338.3965,N,11743.9064,W,35.40,146.20,240310,,*2B
$GPRMC,005247.3,A,3338.3721,N,11743.8876,W,34.40,146.70,240310,,*28
$GPRMC,005250.3,A,3338.3482,N,11743.8691,W,34.00,146.80,240310,,*28
$GPRMC,005253.3,A,3338.3240,N,11743.8514,W,34.40,148.50,240310,,*2A
$GPRMC,005256.3,A,3338.3027,N,11743.8330,W,31.70,146.40,240310,,*25
$GPRMC,005259.3,A,3338.2830,N,11743.8162,W,28.90,146.20,240310,,*20
$GPRMC,005302.3,A,3338.2650,N,11743.8017,W,24.80,146.60,240310,,*2D
$GPRMC,005305.3,A,3338.2481,N,11743.7878,W,23.80,146.00,240310,,*2B
$GPRMC,005308.3,A,3338.2310,N,11743.7753,W,25.40,146.20,240310,,*27
$GPRMC,005311.3,A,3338.2126,N,11743.7607,W,26.40,145.60,240310,,*2C
$GPRMC,005314.3,A,3338.1950,N,11743.7457,W,24.80,145.80,240310,,*24
$GPRMC,005317.3,A,3338.1798,N,11743.7330,W,19.90,146.10,240310,,*2E
$GPRMC,005320.3,A,3338.1694,N,11743.7244,W,12.00,146.00,240310,,*26
$GPRMC,005323.3,A,3338.1621,N,11743.7189,W,9.50,147.10,240310,,*16
$GPRMC,005326.3,A,3338.1571,N,11743.7139,W,8.60,145.00,240310,,*1F
$GPRMC,005329.3,A,3338.1500,N,11743.7090,W,10.70,144.80,240310,,*25
$GPRMC,005332.3,A,3338.1433,N,11743.7031,W,11.00,143.00,240310,,*2C
$GPRMC,005335.3,A,3338.1386,N,11743.6962,W,8.70,142.20,240310,,*10
$GPRMC,005338.3,A,3338.1351,N,11743.6936,W,5.70,144.50,240310,,*1A
$GPRMC,005341.3,A,3338.1311,N,11743.6896,W,7.20,143.60,240310,,*18
$GPRMC,005344.3,A,3338.1239,N,11743.6840,W,8.60,145.50,240310,,*13
$GPRMC,005347.3,A,3338.1184,N,11743.6798,W,7.00,146.40,240310,,*14
$GPRMC,005350.3,A,3338.1125,N,11743.6758,W,8.50,146.20,240310,,*19
$GPRMC,005353.3,A,3338.1058,N,11743.6709,W,9.60,146.90,240310,,*1C
$GPRMC,005356.3,A,3338.0991,N,11743.6659,W,9.60,147.00,240310,,*18
$GPRMC,005359.3,A,3338.0929,N,11743.6607,W,8.80,145.30,240310,,*11
$GPRMC,005402.3,A,3338.0871,N,11743.6552,W,9.60,143.60,240310,,*1B
$GPRMC,005405.3,A,3338.0798,N,11743.6493,W,9.80,146.10,240310,,*14
$GPRMC,005408.3,A,3338.0724,N,11743.6435,W,11.70,145.60,240310,,*20
$GPRMC,005411.3,A,3338.0647,N,11743.6364,W,12.20,144.60,240310,,*28
$GPRMC,005414.3,A,3338.0567,N,11743.6298,W,12.50,146.20,240310,,*2F
$GPRMC,005417.3,A,3338.0461,N,11743.6213,W,15.50,145.60,240310,,*28
$GPRMC,005420.3,A,3338.0365,N,11743.6114,W,16.30,143.00,240310,,*2E
$GPRMC,005423.3,A,3338.0241,N,11743.5997,W,17.60,142.70,240310,,*28
$GPRMC,005426.3,A,3338.0101,N,11743.5867,W,19.60,142.60,240310,,*2B
$GPRMC,005429.3,A,3337.9957,N,11743.5752,W,22.60,140.80,240310,,*24
$GPRMC,005432.3,A,3337.9809,N,11743.5611,W,23.00,141.10,240310,,*2D
$GPRMC,005435.3,A,3337.9669,N,11743.5474,W,21.80,140.90,240310,,*20
$GPRMC,005438.3,A,3337.9559,N,11743.5340,W,19.60,138.10,240310,,*2F
$GPRMC,005441.3,A,3337.9456,N,11743.5231,W,17.40,136.10,240310,,*2A
$GPRMC,005444.3,A,3337.9372,N,11743.5109,W,16.60,135.50,240310,,*22
$GPRMC,005447.3,A,3337.9282,N,11743.4998,W,14.10,133.70,240310,,*2F
$GPRMC,005450.3,A,3337.9211,N,11743.4903,W,12.60,131.60,240310,,*23
$GPRMC,005453.3,A,3337.9099,N,11743.4810,W,14.90,137.70,240310,,*2F
$GPRMC,005456.3,A,3337.8989,N,11743.4707,W,15.50,140.00,240310,,*20
$GPRMC,005459.3,A,3337.8887,N,11743.4577,W,17.00,135.60,240310,,*26
$GPRMC,005502.3,A,3337.8771,N,11743.4482,W,16.60,138.70,240310,,*2F
$GPRMC,005505.3,A,3337.8692,N,11743.4371,W,15.10,135.00,240310,,*21
$GPRMC,005508.3,A,3337.8591,N,11743.4269,W,15.60,136.30,240310,,*23
$GPRMC,005511.3,A,3337.8493,N,11743.4172,W,15.20,137.60,240310,,*21
$GPRMC,005514.3,A,3337.8436,N,11743.4071,W,14.40,136.50,240310,,*2C
$GPRMC,005517.3,A,3337.8345,N,11743.3936,W,16.20,134.00,240310,,*22
$GPRMC,005520.3,A,3337.8240,N,11743.3823,W,16.50,137.10,240310,,*22
$GPRMC,005523.3,A,3337.8142,N,11743.3704,W,17.40,135.20,240310,,*2B
$GPRMC,005526.3,A,3337.8039,N,11743.3568,W,17.90,135.20,240310,,*26
$GPRMC,005529.3,A,3337.7951,N,11743.3489,W,14.50,137.50,240310,,*25
$GPRMC,005532.3,A,3337.7869,N,11743.3395,W,14.00,139.20,240310,,*23
$GPRMC,005535.3,A,3337.7778,N,11743.3297,W,13.90,137.90,240310,,*23
$GPRMC,005538.3,A,3337.7666,N,11743.3188,W,16.10,138.70,240310,,*21
$GPRMC,005541.3,A,3337.7563,N,11743.3098,W,15.60,140.50,240310,,*20
$GPRMC,005544.3,A,3337.7445,N,11743.2992,W,16.40,140.90,240310,,*2F
$GPRMC,005547.3,A,3337.7312,N,11743.2874,W,19.60,142.30,240310,,*25
$GPRMC,005550.3,A,3337.7172,N,11743.2747,W,19.30,142.20,240310,,*2C
$GPRMC,005553.3,A,3337.7059,N,11743.2627,W,16.90,139.70,240310,,*2C
$GPRMC,005556.3,A,3337.6948,N,11743.2516,W,17.20,140.60,240310,,*25
$GPRMC,005559.3,A,3337.6833,N,11743.2434,W,18.60,142.00,240310,,*29
$GPRMC,005602.3,A,3337.6700,N,11743.2320,W,20.00,142.60,240310,,*22
$GPRMC,005605.3,A,3337.6568,N,11743.2188,W,21.00,141.10,240310,,*2C
$GPRMC,005608.3,A,3337.6419,N,11743.2057,W,21.30,143.70,240310,,*22
$GPRMC,005611.3,A,3337.6293,N,11743.1955,W,18.80,145.00,240310,,*26
$GPRMC,005614.3,A,3337.6212,N,11743.1869,W,14.40,142.80,240310,,*2B
$GPRMC,005617.3,A,3337.6135,N,11743.1784,W,13.60,140.40,240310,,*29
$GPRMC,005620.3,A,3337.6020,N,11743.1676,W,16.30,141.50,240310,,*24
$GPRMC,005623.3,A,3337.5890,N,11743.1575,W,17.70,142.30,240310,,*27
$GPRMC,005626.3,A,3337.5768,N,11743.1459,W,18.60,140.80,240310,,*22
$GPRMC,005629.3,A,3337.5659,N,11743.1358,W,17.70,141.30,240310,,*2C
$GPRMC,005632.3,A,3337.5537,N,11743.1219,W,19.50,139.40,240310,,*2D
$GPRMC,005635.3,A,3337.5392,N,11743.1096,W,20.30,142.40,240310,,*26
$GPRMC,005638.3,A,3337.5238,N,11743.0969,W,22.20,143.80,240310,,*2C
$GPRMC,005641.3,A,3337.5099,N,11743.0836,W,20.40,141.90,240310,,*27
$GPRMC,005644.3,A,3337.4954,N,11743.0700,W,21.50,142.60,240310,,*2D
$GPRMC,005647.3,A,3337.4788,N,11743.0576,W,24.50,143.70,240310,,*27
$GPRMC,005650.3,A,3337.4654,N,11743.0370,W,26.50,133.40,240310,,*27
$GPRMC,005653.3,A,3337.4406,N,11743.0207,W,32.70,142.60,240310,,*23
$GPRMC,005656.3,A,3337.4196,N,11742.9976,W,35.60,141.80,240310,,*24
$GPRMC,005659.3,A,3337.3932,N,11742.9721,W,38.90,142.60,240310,,*29
$GPRMC,005702.3,A,3337.3662,N,11742.9459,W,41.90,142.50,240310,,*2D
$GPRMC,005705.3,A,3337.3378,N,11742.9213,W,42.60,142.20,240310,,*27
$GPRMC,005708.3,A,3337.3092,N,11742.8948,W,44.50,142.50,240310,,*2B
$GPRMC,005711.3,A,3337.2798,N,11742.8676,W,43.30,142.20,240310,,*2B
$GPRMC,005714.3,A,3337.2515,N,11742.8416,W,41.80,143.10,240310,,*26
$GPRMC,005717.3,A,3337.2251,N,11742.8193,W,38.00,143.60,240310,,*2B
$GPRMC,005720.3,A,3337.2026,N,11742.7982,W,35.20,142.70,240310,,*25
$GPRMC,005723.3,A,3337.1812,N,11742.7776,W,33.80,142.70,240310,,*23
$GPRMC,005726.3,A,3337.1614,N,11742.7590,W,32.30,141.00,240310,,*2A
$GPRMC,005729.3,A,3337.1396,N,11742.7376,W,33.70,141.90,240310,,*28
$GPRMC,005732.3,A,3337.1143,N,11742.7118,W,37.30,140.80,240310,,*22
$GPRMC,005735.3,A,3337.0866,N,11742.6861,W,40.20,141.80,240310,,*2C
$GPRMC,005738.3,A,3337.0592,N,11742.6627,W,40.40,142.80,240310,,*2E
$GPRMC,005741.3,A,3337.0316,N,11742.6384,W,41.20,143.00,240310,,*28
$GPRMC,005744.3,A,3337.0054,N,11742.6131,W,40.70,142.60,240310,,*27
$GPRMC,005747.3,A,3336.9783,N,11742.5854,W,40.00,141.00,240310,,*2A
$GPRMC,005750.3,A,3336.9540,N,11742.5599,W,38.60,138.40,240310,,*2E
$GPRMC,005753.3,A,3336.9313,N,11742.5343,W,37.70,137.30,240310,,*2A
$GPRMC,005756.3,A,3336.9082,N,11742.5105,W,35.30,138.60,240310,,*28
$GPRMC,005759.3,A,3336.8884,N,11742.4859,W,32.40,132.10,240310,,*24
$GPRMC,005802.3,A,3336.8713,N,11742.4654,W,30.00,134.70,240310,,*21
$GPRMC,005805.3,A,3336.8553,N,11742.4440,W,26.50,136.60,240310,,*26
$GPRMC,005808.3,A,3336.8360,N,11742.4203,W,34.40,134.00,240310,,*2A
$GPRMC,005811.3,A,3336.8143,N,11742.3928,W,38.50,133.10,240310,,*2F
$GPRMC,005814.3,A,3336.7885,N,11742.3640,W,42.30,135.50,240310,,*2E
$GPRMC,005817.3,A,3336.7622,N,11742.3320,W,44.90,134.20,240310,,*27
$GPRMC,005820.3,A,3336.7356,N,11742.2999,W,45.10,134.90,240310,,*2E
$GPRMC,005823.3,A,3336.7085,N,11742.2712,W,43.90,136.70,240310,,*2F
$GPRMC,005826.3,A,3336.6843,N,11742.2417,W,41.80,136.30,240310,,*28
$GPRMC,005829.3,A,3336.6607,N,11742.2117,W,40.60,134.50,240310,,*27
$GPRMC,005832.3,A,3336.6357,N,11742.1795,W,43.80,129.60,240310,,*20
$GPRMC,005835.3,A,3336.6118,N,11742.1431,W,48.00,124.80,240310,,*23
$GPRMC,005838.3,A,3336.5895,N,11742.1015,W,51.90,123.50,240310,,*28
$GPRMC,005841.3,A,3336.5654,N,11742.0560,W,55.00,120.50,240310,,*2D
$GPRMC,005844.3,A,3336.5432,N,11742.0083,W,54.70,116.50,240310,,*21
$GPRMC,005847.3,A,3336.5231,N,11741.9584,W,55.90,115.30,240310,,*25
$GPRMC,005850.3,A,3336.5028,N,11741.9069,W,58.60,117.00,240310,,*2C
$GPRMC,005853.3,A,3336.4810,N,11741.8556,W,56.90,117.00,240310,,*24
$GPRMC,005856.3,A,3336.4599,N,11741.8066,W,55.30,116.30,240310,,*20
$GPRMC,005859.3,A,3336.4388,N,11741.7564,W,57.10,117.20,240310,,*21
$GPRMC,005902.3,A,3336.4166,N,11741.7058,W,57.30,117.80,240310,,*2E
$GPRMC,005905.3,A,3336.3939,N,11741.6561,W,55.50,119.50,240310,,*25
$GPRMC,005908.3,A,3336.3712,N,11741.6096,W,53.30,120.40,240310,,*29
$GPRMC,005911.3,A,3336.3475,N,11741.5663,W,52.20,122.80,240310,,*22
$GPRMC,005914.3,A,3336.3227,N,11741.5230,W,52.70,124.20,240310,,*2D
$GPRMC,005917.3,A,3336.2952,N,11741.4791,W,54.40,126.80,240310,,*24
$GPRMC,005920.3,A,3336.2676,N,11741.4352,W,55.40,127.50,240310,,*2F
$GPRMC,005923.3,A,3336.2385,N,11741.3915,W,55.90,128.90,240310,,*25
$GPRMC,005926.3,A,3336.2094,N,11741.3468,W,55.60,127.80,240310,,*25
$GPRMC,005929.3,A,3336.1825,N,11741.3020,W,55.30,125.80,240310,,*24
$GPRMC,005932.3,A,3336.1582,N,11741.2562,W,53.40,122.40,240310,,*26
$GPRMC,005935.3,A,3336.1371,N,11741.2148,W,45.20,122.40,240310,,*26
$GPRMC,005938.3,A,3336.1201,N,11741.1817,W,38.30,122.60,240310,,*24
$GPRMC,005941.3,A,3336.1122,N,11741.1585,W,29.30,115.40,240310,,*28
$GPRMC,005944.3,A,3336.1028,N,11741.1332,W,28.40,114.60,240310,,*29
$GPRMC,005947.3,A,3336.0927,N,11741.1072,W,28.00,115.50,240310,,*2C
$GPRMC,005950.3,A,3336.0835,N,11741.0833,W,25.50,114.80,240310,,*20
$GPRMC,005953.3,A,3336.0756,N,11741.0631,W,20.40,115.10,240310,,*29
$GPRMC,005956.3,A,3336.0717,N,11741.0535,W,7.80,115.40,240310,,*12
$GPRMC,005959.3,A,3336.0695,N,11741.0465,W,8.00,112.00,240310,,*16
$GPRMC,010002.3,A,3336.0658,N,11741.0405,W,6.10,120.40,240310,,*18
$GPRMC,010005.3,A,3336.0633,N,11741.0348,W,8.00,115.50,240310,,*14
$GPRMC,010008.3,A,3336.0587,N,11741.0244,W,15.10,115.10,240310,,*21
$GPRMC,010011.3,A,3336.0536,N,11741.0106,W,15.40,115.50,240310,,*27
$GPRMC,010014.3,A,3336.0481,N,11740.9927,W,20.70,106.10,240310,,*2F
$GPRMC,010017.3,A,3336.0369,N,11740.9655,W,32.00,115.10,240310,,*21
$GPRMC,010020.3,A,3336.0234,N,11740.9340,W,37.30,118.60,240310,,*21
$GPRMC,010023.3,A,3336.0084,N,11740.9003,W,38.50,118.00,240310,,*20
$GPRMC,010026.3,A,3335.9937,N,11740.8665,W,37.50,116.70,240310,,*2F
$GPRMC,010029.3,A,3335.9792,N,11740.8339,W,38.50,118.50,240310,,*2E
$GPRMC,010032.3,A,3335.9670,N,11740.8054,W,31.90,117.60,240310,,*28
$GPRMC,010035.3,A,3335.9544,N,11740.7772,W,32.70,120.00,240310,,*28
$GPRMC,010038.3,A,3335.9409,N,11740.7493,W,31.00,121.00,240310,,*24
$GPRMC,010041.3,A,3335.9266,N,11740.7221,W,32.60,123.80,240310,,*25
$GPRMC,010044.3,A,3335.9081,N,11740.6975,W,34.00,138.40,240310,,*26
$GPRMC,010047.3,A,3335.8865,N,11740.6789,W,30.00,142.50,240310,,*23
$GPRMC,010050.3,A,3335.8674,N,11740.6753,W,22.80,164.60,240310,,*20
$GPRMC,010053.3,A,3335.8630,N,11740.6747,W,6.10,168.90,240310,,*1A
$GPRMC,010056.3,A,3335.8558,N,11740.6736,W,12.70,163.90,240310,,*2C
$GPRMC,010059.3,A,3335.8440,N,11740.6668,W,16.90,146.10,240310,,*24
$GPRMC,010102.3,A,3335.8327,N,11740.6535,W,19.20,132.70,240310,,*27
$GPRMC,010105.3,A,3335.8221,N,11740.6391,W,17.50,131.80,240310,,*2A
$GPRMC,010108.3,A,3335.8206,N,11740.6263,W,12.00,86.30,240310,,*18
$GPRMC,010111.3,A,3335.8309,N,11740.6116,W,17.50,51.80,240310,,*1E
$GPRMC,010114.3,A,3335.8524,N,11740.5975,W,27.60,26.30,240310,,*17
$GPRMC,010117.3,A,3335.8735,N,11740.5845,W,28.60,27.70,240310,,*1E
$GPRMC,010120.3,A,3335.8967,N,11740.5703,W,29.60,27.90,240310,,*11
$GPRMC,010123.3,A,3335.9167,N,11740.5579,W,23.20,29.70,240310,,*1A
$GPRMC,010126.3,A,3335.9287,N,11740.5494,W,16.40,25.80,240310,,*13
$GPRMC,010129.3,A,3335.9360,N,11740.5459,W,10.40,22.30,240310,,*1F
$GPRMC,010205.3,A,3335.9354,N,11740.5402,W,6.30,65.30,240310,,*28
$GPRMC,010208.3,A,3335.9428,N,11740.5310,W,10.70,51.10,240310,,*1B
$GPRMC,010211.3,A,3335.9588,N,11740.5173,W,19.20,40.20,240310,,*10
$GPRMC,010214.3,A,3335.9767,N,11740.4968,W,26.20,49.60,240310,,*14
$GPRMC,010217.3,A,3335.9894,N,11740.4730,W,28.10,57.80,240310,,*1B
$GPRMC,010220.3,A,3336.0027,N,11740.4479,W,29.30,64.60,240310,,*16
$GPRMC,010223.3,A,3336.0116,N,11740.4196,W,29.30,73.00,240310,,*12
$GPRMC,010226.3,A,3336.0193,N,11740.3921,W,27.10,74.40,240310,,*16
$GPRMC,010229.3,A,3336.0239,N,11740.3703,W,17.20,83.20,240310,,*1A
$GPRMC,010232.3,A,3336.0250,N,11740.3569,W,11.20,82.90,240310,,*1D
$GPRMC,010317.3,A,3336.0258,N,11740.3369,W,8.70,83.90,240310,,*29
$GPRMC,010320.3,A,3336.0310,N,11740.3275,W,8.50,60.80,240310,,*22
$GPRMC,010323.3,A,3336.0441,N,11740.3264,W,13.00,3.00,240310,,*20
$GPRMC,010326.3,A,3336.0589,N,11740.3284,W,15.20,357.90,240310,,*21
$GPRMC,010329.3,A,3336.0714,N,11740.3303,W,13.70,344.00,240310,,*2E
$GPRMC,010332.3,A,3336.0781,N,11740.3366,W,9.40,325.00,240310,,*14
$GPRMC,010335.3,A,3336.0769,N,11740.3532,W,14.00,265.10,240310,,*2E
$GPRMC,010338.3,A,3336.0747,N,11740.3645,W,9.20,253.90,240310,,*1F
$GPRMC,010341.3,A,3336.0711,N,11740.3699,W,5.80,222.40,240310,,*1E
$GPRMC,010344.3,A,3336.0666,N,11740.3676,W,5.20,161.40,240310,,*15
$GPRMC,010347.3,A,3336.0630,N,11740.3622,W,6.20,131.70,240310,,*11
$GPRMC,010350.3,A,3336.0618,N,11740.3546,W,6.80,115.30,240310,,*14
$GPRMC,010544.3,A,3336.0526,N,11740.3647,W,4.40,178.90,240310,,*14
$GPRMC,010741.3,A,3336.0426,N,11740.3657,W,5.50,183.50,240310,,*1B
$GPRMC,010744.3,A,3336.0384,N,11740.3676,W,5.50,224.50,240310,,*1C
$GPRMC,010747.3,A,3336.0367,N,11740.3725,W,5.40,259.80,240310,,*13
$GPRMC,010750.3,A,3336.0384,N,11740.3773,W,5.20,279.90,240310,,*1E
$GPRMC,010753.3,A,3336.0375,N,11740.3823,W,5.40,248.60,240310,,*12
$GPRMC,010805.3,A,3336.0362,N,11740.3712,W,8.00,77.60,240310,,*22
$GPRMC,010808.3,A,3336.0374,N,11740.3630,W,8.00,81.80,240310,,*2E
$GPRMC,010811.3,A,3336.0383,N,11740.3551,W,8.00,78.80,240310,,*2C
$GPRMC,010814.3,A,3336.0415,N,11740.3474,W,7.40,65.70,240310,,*2F
$GPRMC,010817.3,A,3336.0523,N,11740.3449,W,10.00,17.20,240310,,*14
$GPRMC,010820.3,A,3336.0612,N,11740.3463,W,9.40,350.10,240310,,*16
$GPRMC,010823.3,A,3336.0676,N,11740.3512,W,8.50,328.80,240310,,*16
$GPRMC,010826.3,A,3336.0688,N,11740.3597,W,6.50,306.70,240310,,*12
$GPRMC,010829.3,A,3336.0727,N,11740.3634,W,5.00,335.20,240310,,*10
$GPRMC,010835.3,A,3336.0729,N,11740.3520,W,7.50,97.80,240310,,*23
$GPRMC,010838.3,A,3336.0684,N,11740.3401,W,10.40,130.30,240310,,*2A
$GPRMC,010841.3,A,3336.0569,N,11740.3351,W,11.60,179.50,240310,,*2E
$GPRMC,010844.3,A,3336.0461,N,11740.3347,W,9.80,180.00,240310,,*11
$GPRMC,010847.3,A,3336.0384,N,11740.3349,W,9.10,182.90,240310,,*12
$GPRMC,010923.3,A,3336.0355,N,11740.3341,W,4.80,182.00,240310,,*18
$GPRMC,010926.3,A,3336.0269,N,11740.3300,W,8.50,157.80,240310,,*17
$GPRMC,010929.3,A,3336.0197,N,11740.3212,W,11.20,134.80,240310,,*22
$GPRMC,010932.3,A,3336.0197,N,11740.2981,W,23.10,90.80,240310,,*15
$GPRMC,010935.3,A,3336.0199,N,11740.2710,W,26.60,90.70,240310,,*17
$GPRMC,010938.3,A,3336.0193,N,11740.2409,W,27.70,94.40,240310,,*1C
$GPRMC,010941.3,A,3336.0140,N,11740.2102,W,30.60,108.10,240310,,*24
$GPRMC,010944.3,A,3336.0041,N,11740.1807,W,31.60,114.00,240310,,*23
$GPRMC,010947.3,A,3335.9907,N,11740.1519,W,33.40,119.50,240310,,*2B
$GPRMC,010950.3,A,3335.9743,N,11740.1222,W,34.60,121.60,240310,,*21
$GPRMC,010953.3,A,3335.9604,N,11740.0896,W,36.40,114.90,240310,,*2D
$GPRMC,010956.3,A,3335.9506,N,11740.0552,W,37.20,105.60,240310,,*24
$GPRMC,010959.3,A,3335.9422,N,11740.0188,W,37.40,104.30,240310,,*2D
$GPRMC,011002.3,A,3335.9342,N,11739.9826,W,36.60,104.50,240310,,*25
$GPRMC,011005.3,A,3335.9271,N,11739.9495,W,34.20,103.60,240310,,*25
$GPRMC,011008.3,A,3335.9216,N,11739.9160,W,34.10,98.70,240310,,*17
$GPRMC,011011.3,A,3335.9211,N,11739.8827,W,33.40,88.90,240310,,*1E
$GPRMC,011014.3,A,3335.9261,N,11739.8487,W,34.40,79.70,240310,,*1D
$GPRMC,011017.3,A,3335.9303,N,11739.8118,W,36.50,86.30,240310,,*1F
$GPRMC,011020.3,A,3335.9291,N,11739.7750,W,37.30,96.30,240310,,*12
$GPRMC,011023.3,A,3335.9197,N,11739.7386,W,39.90,110.50,240310,,*26
$GPRMC,011026.3,A,3335.9057,N,11739.7023,W,39.90,116.00,240310,,*21
$GPRMC,011029.3,A,3335.8875,N,11739.6678,W,40.70,120.30,240310,,*28
$GPRMC,011032.3,A,3335.8701,N,11739.6333,W,39.00,119.70,240310,,*23
$GPRMC,011035.3,A,3335.8546,N,11739.6020,W,33.80,121.50,240310,,*2F
$GPRMC,011038.3,A,3335.8402,N,11739.5749,W,32.40,121.80,240310,,*28
$GPRMC,011041.3,A,3335.8289,N,11739.5487,W,28.10,117.30,240310,,*22
$GPRMC,011044.3,A,3335.8195,N,11739.5257,W,24.90,115.00,240310,,*27
$GPRMC,011047.3,A,3335.8136,N,11739.5084,W,15.90,112.60,240310,,*22
$GPRMC,011050.3,A,3335.8054,N,11739.5039,W,11.80,144.90,240310,,*2E
$GPRMC,011053.3,A,3335.7899,N,11739.5110,W,18.90,200.40,240310,,*27
$GPRMC,011056.3,A,3335.7718,N,11739.5201,W,22.50,199.80,240310,,*2D
$GPRMC,011059.3,A,3335.7529,N,11739.5286,W,22.30,200.90,240310,,*29
$GPRMC,011102.3,A,3335.7380,N,11739.5361,W,16.50,201.90,240310,,*2B
$GPRMC,011105.3,A,3335.7270,N,11739.5415,W,10.40,202.30,240310,,*28
$GPRMC,011108.3,A,3335.7216,N,11739.5447,W,4.80,203.60,240310,,*1F
$GPRMC,011135.3,A,3335.7112,N,11739.5512,W,10.80,206.00,240310,,*21
$GPRMC,011138.3,A,3335.6974,N,11739.5578,W,19.00,202.90,240310,,*25
$GPRMC,011141.3,A,3335.6796,N,11739.5661,W,25.30,202.40,240310,,*23
$GPRMC,011144.3,A,3335.6596,N,11739.5758,W,25.30,201.50,240310,,*2D
$GPRMC,011147.3,A,3335.6407,N,11739.5850,W,23.70,201.10,240310,,*26
$GPRMC,011150.3,A,3335.6239,N,11739.5917,W,21.20,195.80,240310,,*29
$GPRMC,011153.3,A,3335.6067,N,11739.5968,W,21.20,192.30,240310,,*27
$GPRMC,011156.3,A,3335.5883,N,11739.6012,W,22.80,190.10,240310,,*2D
$GPRMC,011159.3,A,3335.5690,N,11739.6015,W,24.40,183.30,240310,,*23
$GPRMC,011202.3,A,3335.5470,N,11739.6020,W,26.90,178.70,240310,,*2B
$GPRMC,011205.3,A,3335.5234,N,11739.5996,W,29.10,173.90,240310,,*2F
$GPRMC,011208.3,A,3335.4985,N,11739.5956,W,31.40,172.90,240310,,*23
$GPRMC,011211.3,A,3335.4712,N,11739.5909,W,34.30,173.70,240310,,*2C
$GPRMC,011214.3,A,3335.4418,N,11739.5884,W,36.70,177.70,240310,,*26
$GPRMC,011217.3,A,3335.4108,N,11739.5893,W,38.30,184.40,240310,,*22
$GPRMC,011220.3,A,3335.3793,N,11739.5944,W,38.20,191.70,240310,,*28
$GPRMC,011223.3,A,3335.3487,N,11739.6035,W,36.70,194.10,240310,,*29
$GPRMC,011226.3,A,3335.3189,N,11739.6126,W,36.20,194.60,240310,,*26
$GPRMC,011229.3,A,3335.2899,N,11739.6219,W,35.30,194.90,240310,,*22
$GPRMC,011232.3,A,3335.2616,N,11739.6301,W,35.00,192.80,240310,,*2D
$GPRMC,011235.3,A,3335.2321,N,11739.6362,W,35.20,188.00,240310,,*2F
$GPRMC,011238.3,A,3335.2028,N,11739.6368,W,35.80,179.70,240310,,*21
$GPRMC,011241.3,A,3335.1725,N,11739.6330,W,36.50,173.90,240310,,*21
$GPRMC,011244.3,A,3335.1435,N,11739.6256,W,34.60,169.00,240310,,*24
$GPRMC,011247.3,A,3335.1193,N,11739.6169,W,27.50,160.00,240310,,*29
$GPRMC,011250.3,A,3335.1027,N,11739.6077,W,16.50,151.20,240310,,*2D
$GPRMC,011253.3,A,3335.0938,N,11739.6018,W,7.50,153.50,240310,,*14
$GPRMC,011326.3,A,3335.0754,N,11739.5916,W,13.30,150.40,240310,,*26
$GPRMC,011329.3,A,3335.0655,N,11739.5845,W,15.10,148.80,240310,,*2F
$GPRMC,011332.3,A,3335.0546,N,11739.5758,W,15.20,134.70,240310,,*20
$GPRMC,011335.3,A,3335.0481,N,11739.5640,W,12.30,116.70,240310,,*23
$GPRMC,011338.3,A,3335.0553,N,11739.5450,W,20.70,69.00,240310,,*18
$GPRMC,011341.3,A,3335.0699,N,11739.5213,W,31.20,57.20,240310,,*18
$GPRMC,011344.3,A,3335.0853,N,11739.4940,W,34.10,59.00,240310,,*13
$GPRMC,011347.3,A,3335.1002,N,11739.4618,W,37.90,62.60,240310,,*1A
$GPRMC,011350.3,A,3335.1143,N,11739.4250,W,41.00,66.90,240310,,*13
$GPRMC,011353.3,A,3335.1259,N,11739.3867,W,41.20,71.60,240310,,*1A
$GPRMC,011356.3,A,3335.1343,N,11739.3436,W,44.60,78.40,240310,,*17
$GPRMC,011359.3,A,3335.1389,N,11739.2957,W,47.50,84.90,240310,,*1B
$GPRMC,011402.3,A,3335.1412,N,11739.2473,W,49.00,87.30,240310,,*1E
$GPRMC,011405.3,A,3335.1423,N,11739.1974,W,50.10,86.80,240310,,*11
$GPRMC,011408.3,A,3335.1481,N,11739.1474,W,50.80,80.70,240310,,*19
$GPRMC,011411.3,A,3335.1588,N,11739.0969,W,51.60,74.00,240310,,*1A
$GPRMC,011414.3,A,3335.1721,N,11739.0502,W,49.60,71.50,240310,,*16
$GPRMC,011417.3,A,3335.1948,N,11739.0062,W,51.30,57.90,240310,,*13
$GPRMC,011420.3,A,3335.2185,N,11738.9666,W,48.90,52.40,240310,,*1D
$GPRMC,011423.3,A,3335.2436,N,11738.9300,W,47.00,52.10,240310,,*15
$GPRMC,011426.3,A,3335.2677,N,11738.8945,W,46.10,53.20,240310,,*1F
$GPRMC,011429.3,A,3335.2866,N,11738.8574,W,41.00,60.00,240310,,*14
$GPRMC,011432.3,A,3335.3004,N,11738.8222,W,37.50,66.40,240310,,*11
$GPRMC,011435.3,A,3335.3095,N,11738.7940,W,30.70,68.70,240310,,*16
$GPRMC,011438.3,A,3335.3155,N,11738.7697,W,26.20,69.80,240310,,*1F
$GPRMC,011441.3,A,3335.3150,N,11738.7656,W,12.10,73.90,240310,,*17
$GPRMC,011444.3,A,3335.3151,N,11738.7584,W,7.90,76.30,240310,,*2C
$GPRMC,011532.3,A,3335.3134,N,11738.7583,W,4.40,111.70,240310,,*12
$GPRMC,011535.3,A,3335.3128,N,11738.7507,W,8.00,96.90,240310,,*2C
$GPRMC,011538.3,A,3335.3162,N,11738.7344,W,15.50,83.00,240310,,*1A
$GPRMC,011541.3,A,3335.3185,N,11738.7118,W,23.40,85.90,240310,,*1D
$GPRMC,011544.3,A,3335.3189,N,11738.6882,W,23.20,87.60,240310,,*14
$GPRMC,011547.3,A,3335.3188,N,11738.6670,W,20.20,89.60,240310,,*18
$GPRMC,011550.3,A,3335.3189,N,11738.6486,W,17.20,91.90,240310,,*16
$GPRMC,011553.3,A,3335.3187,N,11738.6363,W,11.20,91.30,240310,,*1B
$GPRMC,011556.3,A,3335.3174,N,11738.6299,W,6.80,98.70,240310,,*27
$GPRMC,011559.3,A,3335.3153,N,11738.6187,W,15.10,99.80,240310,,*14
$GPRMC,011602.3,A,3335.3111,N,11738.5998,W,24.20,103.30,240310,,*22
$GPRMC,011605.3,A,3335.3061,N,11738.5736,W,27.20,104.30,240310,,*2D
$GPRMC,011608.3,A,3335.2986,N,11738.5453,W,30.50,108.50,240310,,*2A
$GPRMC,011611.3,A,3335.2896,N,11738.5142,W,33.50,110.00,240310,,*28
$GPRMC,011614.3,A,3335.2760,N,11738.4810,W,37.20,114.30,240310,,*20
$GPRMC,011617.3,A,3335.2571,N,11738.4467,W,40.70,117.90,240310,,*21
$GPRMC,011620.3,A,3335.2344,N,11738.4097,W,42.70,123.10,240310,,*23
$GPRMC,011623.3,A,3335.2153,N,11738.3742,W,42.00,122.80,240310,,*23
$GPRMC,011626.3,A,3335.1969,N,11738.3384,W,41.80,121.60,240310,,*2C
$GPRMC,011629.3,A,3335.1779,N,11738.3018,W,43.50,122.10,240310,,*21
$GPRMC,011632.3,A,3335.1586,N,11738.2644,W,44.20,121.40,240310,,*21
$GPRMC,011635.3,A,3335.1392,N,11738.2248,W,45.00,120.90,240310,,*22
$GPRMC,011638.3,A,3335.1225,N,11738.1875,W,42.40,120.10,240310,,*2E
$GPRMC,011641.3,A,3335.1053,N,11738.1529,W,41.80,120.90,240310,,*20
$GPRMC,011644.3,A,3335.0884,N,11738.1170,W,42.30,120.40,240310,,*2B
$GPRMC,011647.3,A,3335.0705,N,11738.0825,W,39.80,120.20,240310,,*27
$GPRMC,011650.3,A,3335.0520,N,11738.0505,W,36.60,119.00,240310,,*22
$GPRMC,011653.3,A,3335.0374,N,11738.0179,W,35.00,111.50,240310,,*21
$GPRMC,011656.3,A,3335.0292,N,11737.9865,W,29.60,107.30,240310,,*25
$GPRMC,011659.3,A,3335.0222,N,11737.9622,W,25.00,104.50,240310,,*23
$GPRMC,011702.3,A,3335.0176,N,11737.9380,W,25.20,100.10,240310,,*21
$GPRMC,011705.3,A,3335.0141,N,11737.9114,W,27.40,99.30,240310,,*1A
$GPRMC,011708.3,A,3335.0108,N,11737.8847,W,26.10,95.90,240310,,*16
$GPRMC,011711.3,A,3335.0088,N,11737.8614,W,19.70,103.50,240310,,*27
$GPRMC,011714.3,A,3335.0038,N,11737.8480,W,14.20,116.20,240310,,*2D
$GPRMC,011717.3,A,3334.9849,N,11737.8527,W,21.90,186.00,240310,,*22
$GPRMC,011720.3,A,3334.9594,N,11737.8595,W,30.40,190.20,240310,,*2A
$GPRMC,011723.3,A,3334.9323,N,11737.8657,W,33.40,189.30,240310,,*24
$GPRMC,011726.3,A,3334.9014,N,11737.8718,W,38.10,189.50,240310,,*24
$GPRMC,011729.3,A,3334.8679,N,11737.8806,W,41.40,191.80,240310,,*28
$GPRMC,011732.3,A,3334.8299,N,11737.8927,W,45.90,195.30,240310,,*2C
$GPRMC,011735.3,A,3334.7926,N,11737.9046,W,47.10,195.10,240310,,*2C
$GPRMC,011738.3,A,3334.7507,N,11737.9185,W,50.30,195.40,240310,,*21
$GPRMC,011741.3,A,3334.7099,N,11737.9308,W,50.50,194.60,240310,,*2F
$GPRMC,011744.3,A,3334.6707,N,11737.9448,W,50.80,195.50,240310,,*27
$GPRMC,011747.3,A,3334.6259,N,11737.9590,W,54.70,195.50,240310,,*25
$GPRMC,011750.3,A,3334.5808,N,11737.9739,W,54.70,195.50,240310,,*2F
$GPRMC,011753.3,A,3334.5370,N,11737.9882,W,53.80,195.50,240310,,*2F
$GPRMC,011756.3,A,3334.4941,N,11738.0016,W,52.90,192.70,240310,,*25
$GPRMC,011759.3,A,3334.4507,N,11738.0085,W,50.60,186.20,240310,,*23
$GPRMC,011802.3,A,3334.4085,N,11738.0082,W,50.70,175.00,240310,,*25
$GPRMC,011805.3,A,3334.3662,N,11737.9997,W,51.90,169.70,240310,,*24
$GPRMC,011808.3,A,3334.3252,N,11737.9854,W,52.70,162.60,240310,,*27
$GPRMC,011811.3,A,3334.2878,N,11737.9641,W,49.90,150.70,240310,,*22
$GPRMC,011814.3,A,3334.2538,N,11737.9376,W,47.70,143.20,240310,,*28
$GPRMC,011817.3,A,3334.2233,N,11737.9083,W,46.80,140.80,240310,,*29
$GPRMC,011820.3,A,3334.1957,N,11737.8756,W,46.50,135.90,240310,,*27
$GPRMC,011823.3,A,3334.1680,N,11737.8433,W,46.00,137.70,240310,,*28
$GPRMC,011826.3,A,3334.1389,N,11737.8143,W,45.30,145.90,240310,,*28
$GPRMC,011829.3,A,3334.1065,N,11737.7901,W,46.50,151.90,240310,,*27
$GPRMC,011832.3,A,3334.0706,N,11737.7707,W,47.70,158.10,240310,,*24
$GPRMC,011835.3,A,3334.0333,N,11737.7552,W,46.50,163.70,240310,,*2E
$GPRMC,011838.3,A,3333.9965,N,11737.7451,W,43.60,171.20,240310,,*26
$GPRMC,011841.3,A,3333.9684,N,11737.7397,W,33.00,171.20,240310,,*24
$GPRMC,011844.3,A,3333.9521,N,11737.7390,W,18.10,177.50,240310,,*23
$GPRMC,011847.3,A,3333.9458,N,11737.7399,W,6.80,179.10,240310,,*1A
$GPRMC,011850.3,A,3333.9416,N,11737.7404,W,4.60,187.20,240310,,*1B
$GPRMC,012011.3,A,3333.9337,N,11737.7417,W,7.10,191.50,240310,,*17
$GPRMC,012014.3,A,3333.9157,N,11737.7441,W,19.60,189.00,240310,,*21
$GPRMC,012017.3,A,3333.8886,N,11737.7489,W,28.80,189.90,240310,,*27
$GPRMC,012020.3,A,3333.8604,N,11737.7547,W,32.50,191.10,240310,,*23
$GPRMC,012023.3,A,3333.8306,N,11737.7633,W,36.10,194.90,240310,,*2A
$GPRMC,012026.3,A,3333.8011,N,11737.7735,W,37.40,194.60,240310,,*26
$GPRMC,012029.3,A,3333.7701,N,11737.7833,W,38.80,196.00,240310,,*2E
$GPRMC,012032.3,A,3333.7377,N,11737.7944,W,40.40,195.70,240310,,*27
$GPRMC,012035.3,A,3333.7048,N,11737.8057,W,40.80,195.10,240310,,*21
$GPRMC,012038.3,A,3333.6714,N,11737.8163,W,41.10,194.50,240310,,*28
$GPRMC,012041.3,A,3333.6380,N,11737.8269,W,41.20,194.80,240310,,*28
$GPRMC,012044.3,A,3333.6040,N,11737.8384,W,41.90,195.60,240310,,*24
$GPRMC,012047.3,A,3333.5698,N,11737.8488,W,42.60,194.60,240310,,*21
$GPRMC,012050.3,A,3333.5346,N,11737.8581,W,43.40,192.00,240310,,*2A
$GPRMC,012053.3,A,3333.4956,N,11737.8653,W,46.20,187.20,240310,,*2A
$GPRMC,012056.3,A,3333.4577,N,11737.8639,W,46.00,177.70,240310,,*24
$GPRMC,012059.3,A,3333.4192,N,11737.8580,W,47.10,172.80,240310,,*2F
$GPRMC,012102.3,A,3333.3805,N,11737.8504,W,47.20,169.60,240310,,*2B
$GPRMC,012105.3,A,3333.3427,N,11737.8404,W,45.20,168.50,240310,,*21
$GPRMC,012108.3,A,3333.3064,N,11737.8317,W,44.10,169.10,240310,,*2D
$GPRMC,012111.3,A,3333.2702,N,11737.8233,W,43.40,169.00,240310,,*27
$GPRMC,012114.3,A,3333.2362,N,11737.8153,W,41.80,169.50,240310,,*2E
$GPRMC,012117.3,A,3333.2028,N,11737.8074,W,41.90,169.00,240310,,*20
$GPRMC,012120.3,A,3333.1669,N,11737.7986,W,44.20,169.10,240310,,*20
$GPRMC,012123.3,A,3333.1293,N,11737.7898,W,46.70,170.20,240310,,*20
$GPRMC,012126.3,A,3333.0901,N,11737.7835,W,48.00,175.50,240310,,*28
$GPRMC,012129.3,A,3333.0498,N,11737.7810,W,48.90,178.70,240310,,*2B
$GPRMC,012132.3,A,3333.0090,N,11737.7805,W,49.50,178.70,240310,,*24
$GPRMC,012135.3,A,3332.9677,N,11737.7797,W,49.50,178.80,240310,,*2F
$GPRMC,012138.3,A,3332.9265,N,11737.7784,W,50.00,179.00,240310,,*23
$GPRMC,012141.3,A,3332.8844,N,11737.7772,W,51.60,179.00,240310,,*2B
$GPRMC,012144.3,A,3332.8419,N,11737.7756,W,50.40,177.00,240310,,*21
$GPRMC,012147.3,A,3332.8013,N,11737.7706,W,48.30,172.40,240310,,*26
$GPRMC,012150.3,A,3332.7624,N,11737.7629,W,46.50,169.70,240310,,*20
$GPRMC,012153.3,A,3332.7248,N,11737.7529,W,46.70,167.10,240310,,*24
$GPRMC,012156.3,A,3332.6867,N,11737.7391,W,47.10,161.40,240310,,*26
$GPRMC,012159.3,A,3332.6494,N,11737.7224,W,48.50,158.10,240310,,*22
$GPRMC,012202.3,A,3332.6114,N,11737.7042,W,49.30,157.90,240310,,*20
$GPRMC,012205.3,A,3332.5739,N,11737.6858,W,47.80,157.90,240310,,*2A
$GPRMC,012208.3,A,3332.5382,N,11737.6684,W,44.00,158.10,240310,,*20
$GPRMC,012211.3,A,3332.5065,N,11737.6531,W,37.70,158.20,240310,,*2F
$GPRMC,012214.3,A,3332.4802,N,11737.6407,W,30.70,158.20,240310,,*21
$GPRMC,012217.3,A,3332.4591,N,11737.6305,W,24.10,158.80,240310,,*29
$GPRMC,012220.3,A,3332.4442,N,11737.6235,W,13.80,157.20,240310,,*28
$GPRMC,012223.3,A,3332.4374,N,11737.6204,W,4.60,157.80,240310,,*19
$GPRMC,012229.3,A,3332.4346,N,11737.6190,W,4.50,157.70,240310,,*10
$GPRMC,012232.3,A,3332.4273,N,11737.6144,W,14.90,154.00,240310,,*2D
$GPRMC,012235.3,A,3332.4127,N,11737.6077,W,20.70,158.30,240310,,*2F
$GPRMC,012238.3,A,3332.3935,N,11737.5985,W,29.20,158.30,240310,,*25
$GPRMC,012241.3,A,3332.3695,N,11737.5869,W,32.80,158.00,240310,,*2E
$GPRMC,012244.3,A,3332.3412,N,11737.5734,W,39.00,157.80,240310,,*25
$GPRMC,012247.3,A,3332.3089,N,11737.5578,W,43.50,158.50,240310,,*20
$GPRMC,012250.3,A,3332.2746,N,11737.5413,W,45.20,157.50,240310,,*21
$GPRMC,012253.3,A,3332.2376,N,11737.5238,W,48.50,157.80,240310,,*2D
$GPRMC,012256.3,A,3332.1992,N,11737.5048,W,50.10,158.10,240310,,*25
$GPRMC,012259.3,A,3332.1601,N,11737.4866,W,50.20,156.80,240310,,*2E
$GPRMC,012302.3,A,3332.1226,N,11737.4650,W,50.70,153.20,240310,,*21
$GPRMC,012305.3,A,3332.0855,N,11737.4415,W,49.90,151.10,240310,,*2D
$GPRMC,012308.3,A,3332.0500,N,11737.4174,W,46.90,148.50,240310,,*2C
$GPRMC,012311.3,A,3332.0143,N,11737.3871,W,51.30,145.10,240310,,*29
$GPRMC,012314.3,A,3331.9804,N,11737.3499,W,55.60,135.90,240310,,*28
$GPRMC,012317.3,A,3331.9471,N,11737.3124,W,56.40,137.30,240310,,*2F
$GPRMC,012320.3,A,3331.9132,N,11737.2743,W,57.30,136.00,240310,,*2B
$GPRMC,012323.3,A,3331.8788,N,11737.2354,W,58.10,137.20,240310,,*22
$GPRMC,012326.3,A,3331.8427,N,11737.2016,W,57.60,143.40,240310,,*29
$GPRMC,012329.3,A,3331.8027,N,11737.1712,W,58.40,150.30,240310,,*2A
$GPRMC,012332.3,A,3331.7611,N,11737.1479,W,54.90,154.80,240310,,*2C
$GPRMC,012335.3,A,3331.7168,N,11737.1304,W,54.60,162.40,240310,,*29
$GPRMC,012338.3,A,3331.6698,N,11737.1196,W,55.30,170.80,240310,,*2F
$GPRMC,012341.3,A,3331.6183,N,11737.1180,W,59.50,179.60,240310,,*26
$GPRMC,012344.3,A,3331.5686,N,11737.1229,W,58.20,185.50,240310,,*24
$GPRMC,012347.3,A,3331.5194,N,11737.1355,W,59.80,193.50,240310,,*25
$GPRMC,012350.3,A,3331.4712,N,11737.1548,W,59.40,198.20,240310,,*20
$GPRMC,012353.3,A,3331.4246,N,11737.1756,W,59.10,199.30,240310,,*2F
$GPRMC,012356.3,A,3331.3819,N,11737.1925,W,54.50,197.20,240310,,*21
$GPRMC,012359.3,A,3331.3389,N,11737.2030,W,51.80,191.60,240310,,*28
$GPRMC,012402.3,A,3331.2996,N,11737.2069,W,46.40,182.10,240310,,*27
$GPRMC,012405.3,A,3331.2626,N,11737.2020,W,42.50,174.70,240310,,*23
$GPRMC,012408.3,A,3331.2324,N,11737.1965,W,32.50,173.80,240310,,*2D
$GPRMC,012411.3,A,3331.2108,N,11737.1939,W,25.20,175.50,240310,,*2A
$GPRMC,012414.3,A,3331.2061,N,11737.1928,W,9.80,176.80,240310,,*1B
$GPRMC,012429.3,A,3331.2041,N,11737.1921,W,8.50,174.20,240310,,*1A
$GPRMC,012432.3,A,3331.1909,N,11737.1896,W,14.60,164.60,240310,,*20
$GPRMC,012435.3,A,3331.1807,N,11737.1817,W,13.00,143.30,240310,,*20
$GPRMC,012438.3,A,3331.1810,N,11737.1678,W,13.30,102.60,240310,,*2F
$GPRMC,012441.3,A,3331.1905,N,11737.1393,W,28.20,74.20,240310,,*19
$GPRMC,012444.3,A,3331.1985,N,11737.1111,W,29.90,70.20,240310,,*12
$GPRMC,012447.3,A,3331.2077,N,11737.0804,W,34.50,70.90,240310,,*11
$GPRMC,012450.3,A,3331.2174,N,11737.0458,W,37.70,71.50,240310,,*1C
$GPRMC,012453.3,A,3331.2280,N,11737.0077,W,40.40,71.50,240310,,*1D
$GPRMC,012456.3,A,3331.2389,N,11736.9705,W,40.30,70.80,240310,,*11
$GPRMC,012459.3,A,3331.2522,N,11736.9317,W,42.60,64.80,240310,,*1C
$GPRMC,012502.3,A,3331.2697,N,11736.8939,W,42.50,57.50,240310,,*17
$GPRMC,012505.3,A,3331.2891,N,11736.8606,W,39.90,54.50,240310,,*18
$GPRMC,012508.3,A,3331.3069,N,11736.8285,W,38.40,58.10,240310,,*10
$GPRMC,012511.3,A,3331.3176,N,11736.7919,W,39.10,72.10,240310,,*1A
$GPRMC,012514.3,A,3331.3220,N,11736.7524,W,38.50,79.90,240310,,*1B
$GPRMC,012517.3,A,3331.3180,N,11736.7131,W,40.80,96.60,240310,,*1D
$GPRMC,012520.3,A,3331.3138,N,11736.6733,W,40.70,97.20,240310,,*15
$GPRMC,012523.3,A,3331.3094,N,11736.6297,W,42.40,95.80,240310,,*13
$GPRMC,012526.3,A,3331.3090,N,11736.5898,W,38.00,88.50,240310,,*1C
$GPRMC,012529.3,A,3331.3138,N,11736.5564,W,30.70,75.80,240310,,*1E
$GPRMC,012532.3,A,3331.3208,N,11736.5342,W,22.50,65.90,240310,,*17
$GPRMC,012535.3,A,3331.3290,N,11736.5169,W,19.90,62.60,240310,,*16
$GPRMC,012538.3,A,3331.3354,N,11736.5018,W,18.30,63.40,240310,,*1D
$GPRMC,012541.3,A,3331.3415,N,11736.4847,W,21.50,67.90,240310,,*17
$GPRMC,012544.3,A,3331.3479,N,11736.4609,W,25.10,74.60,240310,,*11
$GPRMC,012547.3,A,3331.3505,N,11736.4363,W,25.70,84.20,240310,,*1C
$GPRMC,012550.3,A,3331.3514,N,11736.4071,W,30.20,91.10,240310,,*1C
$GPRMC,012553.3,A,3331.3490,N,11736.3759,W,31.80,95.30,240310,,*15
$GPRMC,012556.3,A,3331.3434,N,11736.3438,W,32.80,101.90,240310,,*2F
$GPRMC,012559.3,A,3331.3347,N,11736.3105,W,33.70,108.30,240310,,*25
$GPRMC,012602.3,A,3331.3199,N,11736.2823,W,33.70,123.30,240310,,*2C
$GPRMC,012605.3,A,3331.3036,N,11736.2566,W,32.50,132.90,240310,,*2A
$GPRMC,012608.3,A,3331.2848,N,11736.2344,W,31.70,137.00,240310,,*2C
$GPRMC,012611.3,A,3331.2649,N,11736.2124,W,33.90,137.50,240310,,*26
$GPRMC,012614.3,A,3331.2435,N,11736.1884,W,36.60,137.10,240310,,*24
$GPRMC,012617.3,A,3331.2200,N,11736.1627,W,38.30,136.30,240310,,*28
$GPRMC,012620.3,A,3331.1954,N,11736.1349,W,40.60,136.70,240310,,*26
$GPRMC,012623.3,A,3331.1723,N,11736.1058,W,40.20,126.90,240310,,*23
$GPRMC,012626.3,A,3331.1563,N,11736.0713,W,37.90,112.40,240310,,*28
$GPRMC,012629.3,A,3331.1453,N,11736.0376,W,35.60,110.20,240310,,*2B
$GPRMC,012632.3,A,3331.1352,N,11736.0051,W,33.90,111.10,240310,,*2A
$GPRMC,012635.3,A,3331.1253,N,11735.9734,W,34.00,110.50,240310,,*28
$GPRMC,012638.3,A,3331.1158,N,11735.9413,W,34.10,109.70,240310,,*20
$GPRMC,012641.3,A,3331.1064,N,11735.9096,W,34.00,109.90,240310,,*26
$GPRMC,012644.3,A,3331.0973,N,11735.8774,W,34.30,110.40,240310,,*21
$GPRMC,012647.3,A,3331.0872,N,11735.8457,W,34.00,110.50,240310,,*22
$GPRMC,012650.3,A,3331.0768,N,11735.8152,W,32.70,110.60,240310,,*22
$GPRMC,012653.3,A,3331.0678,N,11735.7839,W,32.60,110.10,240310,,*2C
$GPRMC,012656.3,A,3331.0577,N,11735.7534,W,33.30,110.60,240310,,*26
$GPRMC,012659.3,A,3331.0473,N,11735.7195,W,37.70,110.20,240310,,*27
$GPRMC,012702.3,A,3331.0364,N,11735.6825,W,39.20,110.40,240310,,*27
$GPRMC,012705.3,A,3331.0245,N,11735.6453,W,39.90,110.60,240310,,*26
$GPRMC,012708.3,A,3331.0122,N,11735.6081,W,41.80,111.30,240310,,*28
$GPRMC,012711.3,A,3330.9976,N,11735.5698,W,42.50,118.60,240310,,*2E
$GPRMC,012714.3,A,3330.9777,N,11735.5348,W,42.50,130.40,240310,,*24
$GPRMC,012717.3,A,3330.9558,N,11735.5032,W,40.90,127.10,240310,,*2B
$GPRMC,012720.3,A,3330.9376,N,11735.4694,W,40.40,117.30,240310,,*22
$GPRMC,012723.3,A,3330.9255,N,11735.4322,W,41.00,107.10,240310,,*2F
$GPRMC,012726.3,A,3330.9148,N,11735.3941,W,40.50,108.20,240310,,*25
$GPRMC,012729.3,A,3330.9041,N,11735.3560,W,38.70,108.90,240310,,*2B
$GPRMC,012732.3,A,3330.8940,N,11735.3200,W,37.40,108.40,240310,,*28
$GPRMC,012735.3,A,3330.8848,N,11735.2855,W,34.70,106.10,240310,,*26
$GPRMC,012738.3,A,3330.8787,N,11735.2534,W,31.50,97.00,240310,,*12
$GPRMC,012741.3,A,3330.8777,N,11735.2223,W,30.90,90.80,240310,,*10
$GPRMC,012744.3,A,3330.8803,N,11735.1923,W,30.20,85.90,240310,,*1F
$GPRMC,012747.3,A,3330.8816,N,11735.1614,W,31.20,88.70,240310,,*11
$GPRMC,012750.3,A,3330.8803,N,11735.1318,W,30.40,94.50,240310,,*12
$GPRMC,012753.3,A,3330.8746,N,11735.1016,W,30.70,104.00,240310,,*2C
$GPRMC,012756.3,A,3330.8650,N,11735.0720,W,33.20,115.20,240310,,*28
$GPRMC,012759.3,A,3330.8510,N,11735.0420,W,35.30,122.30,240310,,*21
$GPRMC,012802.3,A,3330.8355,N,11735.0105,W,38.50,115.80,240310,,*21
$GPRMC,012805.3,A,3330.8239,N,11734.9729,W,41.20,105.30,240310,,*2E
$GPRMC,012808.3,A,3330.8182,N,11734.9325,W,41.20,92.80,240310,,*1C
$GPRMC,012811.3,A,3330.8195,N,11734.8926,W,40.50,86.40,240310,,*15
$GPRMC,012814.3,A,3330.8245,N,11734.8513,W,41.50,82.30,240310,,*16
$GPRMC,012817.3,A,3330.8299,N,11734.8084,W,42.40,83.10,240310,,*1E
$GPRMC,012820.3,A,3330.8334,N,11734.7675,W,41.90,84.00,240310,,*13
$GPRMC,012823.3,A,3330.8366,N,11734.7271,W,41.20,84.20,240310,,*1E
$GPRMC,012826.3,A,3330.8409,N,11734.6836,W,42.00,83.30,240310,,*1A
$GPRMC,012829.3,A,3330.8451,N,11734.6433,W,41.90,83.40,240310,,*1C
$GPRMC,012832.3,A,3330.8516,N,11734.6022,W,43.20,79.80,240310,,*10
$GPRMC,012835.3,A,3330.8576,N,11734.5606,W,43.50,80.90,240310,,*12
$GPRMC,012838.3,A,3330.8643,N,11734.5191,W,41.50,77.90,240310,,*19
$GPRMC,012841.3,A,3330.8734,N,11734.4787,W,42.00,74.10,240310,,*1B
$GPRMC,012844.3,A,3330.8815,N,11734.4391,W,41.30,77.00,240310,,*13
$GPRMC,012847.3,A,3330.8850,N,11734.4002,W,39.50,85.80,240310,,*14
$GPRMC,012850.3,A,3330.8799,N,11734.3630,W,37.70,99.00,240310,,*11
$GPRMC,012853.3,A,3330.8731,N,11734.3283,W,36.40,104.30,240310,,*28
$GPRMC,012856.3,A,3330.8667,N,11734.2934,W,36.30,100.40,240310,,*2D
$GPRMC,012859.3,A,3330.8624,N,11734.2550,W,39.70,97.40,240310,,*1F
$GPRMC,012902.3,A,3330.8607,N,11734.2127,W,42.60,92.80,240310,,*11
$GPRMC,012905.3,A,3330.8592,N,11734.1684,W,44.30,91.30,240310,,*1F
$GPRMC,012908.3,A,3330.8595,N,11734.1240,W,44.10,90.10,240310,,*18
$GPRMC,012911.3,A,3330.8599,N,11734.0783,W,45.80,89.80,240310,,*1E
$GPRMC,012914.3,A,3330.8658,N,11734.0353,W,44.80,82.70,240310,,*19
$GPRMC,012917.3,A,3330.8783,N,11733.9915,W,43.70,74.50,240310,,*18
$GPRMC,012920.3,A,3330.8921,N,11733.9531,W,43.30,68.00,240310,,*1C
$GPRMC,012923.3,A,3330.9096,N,11733.9177,W,41.20,59.70,240310,,*1B
$GPRMC,012926.3,A,3330.9304,N,11733.8831,W,40.20,51.50,240310,,*17
$GPRMC,012929.3,A,3330.9595,N,11733.8571,W,42.20,39.40,240310,,*12
$GPRMC,012932.3,A,3330.9887,N,11733.8344,W,42.30,34.50,240310,,*1B
$GPRMC,012935.3,A,3331.0187,N,11733.8105,W,42.50,34.70,240310,,*1E
$GPRMC,012938.3,A,3331.0453,N,11733.7830,W,42.60,43.70,240310,,*1C
$GPRMC,012941.3,A,3331.0696,N,11733.7527,W,42.50,46.80,240310,,*1B
$GPRMC,012944.3,A,3331.0940,N,11733.7215,W,44.30,47.20,240310,,*17
$GPRMC,012947.3,A,3331.1205,N,11733.6878,W,46.60,45.90,240310,,*11
$GPRMC,012950.3,A,3331.1488,N,11733.6554,W,47.10,42.20,240310,,*1D
$GPRMC,012953.3,A,3331.1808,N,11733.6279,W,46.50,35.60,240310,,*13
$GPRMC,012956.3,A,3331.2156,N,11733.6102,W,44.10,25.40,240310,,*1D
$GPRMC,012959.3,A,3331.2515,N,11733.5979,W,44.50,15.40,240310,,*11
$GPRMC,013002.3,A,3331.2879,N,11733.5839,W,45.50,18.60,240310,,*1B
$GPRMC,013005.3,A,3331.3227,N,11733.5621,W,47.20,28.70,240310,,*1C
$GPRMC,013008.3,A,3331.3534,N,11733.5279,W,50.40,41.10,240310,,*14
$GPRMC,013011.3,A,3331.3775,N,11733.4841,W,52.10,60.40,240310,,*1A
$GPRMC,013014.3,A,3331.3976,N,11733.4379,W,50.40,61.50,240310,,*15
$GPRMC,013017.3,A,3331.4183,N,11733.3938,W,50.20,60.30,240310,,*1A
$GPRMC,013020.3,A,3331.4388,N,11733.3499,W,49.90,60.00,240310,,*11
$GPRMC,013023.3,A,3331.4612,N,11733.3087,W,48.30,53.10,240310,,*15
$GPRMC,013026.3,A,3331.4877,N,11733.2733,W,47.40,44.10,240310,,*1A
$GPRMC,013029.3,A,3331.5180,N,11733.2432,W,47.40,35.00,240310,,*10
$GPRMC,013032.3,A,3331.5528,N,11733.2200,W,47.90,23.90,240310,,*18
$GPRMC,013035.3,A,3331.5898,N,11733.2021,W,48.00,21.10,240310,,*14
$GPRMC,013038.3,A,3331.6277,N,11733.1885,W,46.50,16.10,240310,,*1B
$GPRMC,013041.3,A,3331.6645,N,11733.1814,W,45.00,8.60,240310,,*26
$GPRMC,013044.3,A,3331.7036,N,11733.1747,W,45.80,8.80,240310,,*2F
$GPRMC,013047.3,A,3331.7410,N,11733.1639,W,46.40,16.00,240310,,*1C
$GPRMC,013050.3,A,3331.7778,N,11733.1446,W,47.90,25.20,240310,,*13
$GPRMC,013053.3,A,3331.8126,N,11733.1198,W,48.50,30.70,240310,,*16
$GPRMC,013056.3,A,3331.8467,N,11733.0954,W,48.70,30.90,240310,,*16
$GPRMC,013059.3,A,3331.8819,N,11733.0700,W,48.00,31.30,240310,,*1F
$GPRMC,013102.3,A,3331.9159,N,11733.0465,W,46.90,29.70,240310,,*16
$GPRMC,013105.3,A,3331.9502,N,11733.0240,W,46.60,27.60,240310,,*1A
$GPRMC,013108.3,A,3331.9857,N,11733.0047,W,46.30,24.30,240310,,*1C
$GPRMC,013111.3,A,3332.0226,N,11732.9885,W,46.60,17.80,240310,,*12
$GPRMC,013114.3,A,3332.0591,N,11732.9760,W,46.20,14.40,240310,,*13
$GPRMC,013117.3,A,3332.0983,N,11732.9673,W,48.10,10.10,240310,,*10
$GPRMC,013120.3,A,3332.1382,N,11732.9619,W,48.60,6.50,240310,,*26
$GPRMC,013123.3,A,3332.1776,N,11732.9595,W,47.30,3.00,240310,,*27
$GPRMC,013126.3,A,3332.2174,N,11732.9586,W,47.90,2.30,240310,,*2F
$GPRMC,013129.3,A,3332.2554,N,11732.9563,W,46.10,5.40,240310,,*24
$GPRMC,013132.3,A,3332.2935,N,11732.9500,W,45.70,9.30,240310,,*2E
$GPRMC,013135.3,A,3332.3310,N,11732.9399,W,46.40,13.50,240310,,*1E
$GPRMC,013138.3,A,3332.3685,N,11732.9278,W,46.50,14.80,240310,,*1F
$GPRMC,013141.3,A,3332.4058,N,11732.9173,W,46.80,11.90,240310,,*11
