NMEA Sentence Code,UTC Time,Status,Latitude,Latitude Direction,Longitude,Longitude Direction,Speed (knots),Track Angle (degrees true),Date,MagneticVariation,Magnetic Variation Direction,[FAA Mode]-Optional,Checksum
$GPRMC,173639.20,A,3310.980340,N,11707.063299,W,56.3,154.3,070910,,,A*7B
$GPRMC,173642.20,A,3310.938047,N,11707.038713,W,57.6,154.6,070910,,,A*78
$GPRMC,173645.20,A,3310.894673,N,11707.014493,W,58.0,154.5,070910,,,A*76
$GPRMC,173648.20,A,3310.851191,N,11706.989404,W,57.6,153.9,070910,,,A*79
$GPRMC,173651.20,A,3310.808350,N,11706.964715,W,56.6,154.1,070910,,,A*7C
$GPRMC,173654.30,A,3310.764850,N,11706.939056,W,59.2,154.1,070910,,,A*75
$GPRMC,173658.00,A,3310.707143,N,11706.906728,W,61.4,153.9,070910,,,A*74
$GPRMC,173702.20,A,3310.643047,N,11706.868263,W,60.6,153.8,070910,,,A*7D
$GPRMC,173705.20,A,3310.595805,N,11706.841661,W,61.8,154.8,070910,,,A*79
$GPRMC,173708.20,A,3310.548203,N,11706.815741,W,62.1,153.8,070910,,,A*77
$GPRMC,173712.20,A,3310.485261,N,11706.779467,W,63.3,154.0,070910,,,A*76
$GPRMC,173715.20,A,3310.436659,N,11706.751724,W,64.3,154.2,070910,,,A*7D
$GPRMC,173718.20,A,3310.388251,N,11706.724211,W,64.1,154.3,070910,,,A*7C
$GPRMC,173721.20,A,3310.339682,N,11706.696603,W,63.8,154.2,070910,,,A*76
$GPRMC,173724.20,A,3310.292219,N,11706.669294,W,63.3,153.9,070910,,,A*78
$GPRMC,173728.20,A,3310.227974,N,11706.632434,W,63.5,154.5,070910,,,A*75
$GPRMC,173731.20,A,3310.180142,N,11706.605182,W,62.6,154.4,070910,,,A*71
$GPRMC,173734.20,A,3310.133131,N,11706.577715,W,62.7,153.9,070910,,,A*7D
$GPRMC,173737.20,A,3310.086378,N,11706.550750,W,62.2,154.1,070910,,,A*70
$GPRMC,173740.00,A,3310.044046,N,11706.526077,W,61.9,153.8,070910,,,A*77
$GPRMC,173743.20,A,3309.993437,N,11706.497656,W,61.9,154.2,070910,,,A*7C
$GPRMC,173746.20,A,3309.946886,N,11706.470899,W,62.3,154.5,070910,,,A*7D
$GPRMC,173749.20,A,3309.899279,N,11706.443618,W,64.2,153.8,070910,,,A*71
$GPRMC,173752.20,A,3309.850646,N,11706.416314,W,64.9,154.7,070910,,,A*7C
$GPRMC,173755.20,A,3309.804969,N,11706.389779,W,62.3,155.1,070910,,,A*7D
$GPRMC,173758.90,A,3309.746249,N,11706.357145,W,63.4,156.2,070910,,,A*77
$GPRMC,173801.90,A,3309.697411,N,11706.335567,W,63.2,159.3,070910,,,A*7A
$GPRMC,173804.00,A,3309.665123,N,11706.322705,W,62.6,161.1,070910,,,A*73
$GPRMC,173807.00,A,3309.613678,N,11706.306209,W,61.2,164.3,070910,,,A*77
$GPRMC,173811.90,A,3309.532052,N,11706.283345,W,61.7,167.9,070910,,,A*7E
$GPRMC,173814.90,A,3309.481597,N,11706.272594,W,61.5,170.1,070910,,,A*76
$GPRMC,173817.20,A,3309.443108,N,11706.266064,W,60.9,172.8,070910,,,A*7B
$GPRMC,173820.20,A,3309.392465,N,11706.259852,W,61.2,175.0,070910,,,A*7E
$GPRMC,173823.20,A,3309.341941,N,11706.255640,W,60.7,176.7,070910,,,A*79
$GPRMC,173826.90,A,3309.279712,N,11706.253099,W,61.3,179.4,070910,,,A*78
$GPRMC,173829.90,A,3309.229234,N,11706.254229,W,61.6,181.6,070910,,,A*7D
$GPRMC,173832.90,A,3309.176213,N,11706.255544,W,62.5,181.9,070910,,,A*79
$GPRMC,173835.90,A,3309.125158,N,11706.259186,W,61.4,182.4,070910,,,A*7E
$GPRMC,173838.90,A,3309.073548,N,11706.263015,W,61.0,182.7,070910,,,A*71
$GPRMC,173842.00,A,3309.023231,N,11706.266509,W,60.6,182.5,070910,,,A*71
$GPRMC,173845.90,A,3308.955040,N,11706.269653,W,60.4,182.3,070910,,,A*75
$GPRMC,173848.90,A,3308.904103,N,11706.273056,W,61.0,183.1,070910,,,A*74
$GPRMC,173851.90,A,3308.854075,N,11706.275140,W,61.3,182.9,070910,,,A*72
$GPRMC,173854.20,A,3308.816019,N,11706.277386,W,60.6,182.5,070910,,,A*72
$GPRMC,173857.20,A,3308.765255,N,11706.280199,W,60.9,182.6,070910,,,A*78
$GPRMC,173900.20,A,3308.715128,N,11706.282930,W,59.7,182.6,070910,,,A*78
$GPRMC,173903.20,A,3308.665684,N,11706.285812,W,58.8,182.5,070910,,,A*77
$GPRMC,173907.20,A,3308.600601,N,11706.288595,W,59.6,182.6,070910,,,A*7E
$GPRMC,173910.20,A,3308.551547,N,11706.290872,W,58.5,182.4,070910,,,A*73
$GPRMC,173913.20,A,3308.503816,N,11706.293140,W,57.5,182.5,070910,,,A*7B
$GPRMC,173916.20,A,3308.456242,N,11706.295958,W,57.4,182.8,070910,,,A*7F
$GPRMC,173919.20,A,3308.408590,N,11706.297864,W,57.3,181.6,070910,,,A*75
$GPRMC,173922.20,A,3308.361927,N,11706.300436,W,55.9,182.6,070910,,,A*7A
$GPRMC,173925.20,A,3308.316244,N,11706.303365,W,54.6,182.9,070910,,,A*70
$GPRMC,173928.20,A,3308.270438,N,11706.306337,W,55.3,182.6,070910,,,A*78
$GPRMC,173931.20,A,3308.223907,N,11706.308434,W,55.2,182.5,070910,,,A*7F
$GPRMC,173934.20,A,3308.178204,N,11706.311512,W,55.3,182.6,070910,,,A*70
$GPRMC,173937.20,A,3308.132573,N,11706.314631,W,55.0,182.5,070910,,,A*7D
$GPRMC,173940.20,A,3308.086669,N,11706.317144,W,55.1,182.7,070910,,,A*7E
$GPRMC,173944.20,A,3308.026458,N,11706.320488,W,53.6,182.3,070910,,,A*74
$GPRMC,173947.20,A,3307.981553,N,11706.322538,W,53.4,182.9,070910,,,A*76
$GPRMC,173950.20,A,3307.937719,N,11706.324959,W,51.6,182.6,070910,,,A*73
$GPRMC,173953.20,A,3307.894662,N,11706.326627,W,52.1,181.4,070910,,,A*74
$GPRMC,173956.20,A,3307.850916,N,11706.327530,W,52.1,180.1,070910,,,A*75
$GPRMC,173959.20,A,3307.807303,N,11706.326152,W,52.5,177.3,070910,,,A*79
$GPRMC,174002.20,A,3307.762704,N,11706.322882,W,53.7,175.6,070910,,,A*72
$GPRMC,174005.20,A,3307.718288,N,11706.317860,W,53.1,173.7,070910,,,A*72
$GPRMC,174009.20,A,3307.660436,N,11706.308841,W,51.9,171.6,070910,,,A*77
$GPRMC,174012.20,A,3307.617625,N,11706.299261,W,52.5,169.2,070910,,,A*7E
$GPRMC,174016.20,A,3307.561082,N,11706.284829,W,52.2,167.1,070910,,,A*73
$GPRMC,174019.20,A,3307.519236,N,11706.271346,W,52.1,164.5,070910,,,A*72
$GPRMC,174023.20,A,3307.462893,N,11706.250044,W,52.6,161.6,070910,,,A*70
$GPRMC,174026.20,A,3307.421606,N,11706.232873,W,52.2,159.6,070910,,,A*77
$GPRMC,174029.20,A,3307.380847,N,11706.213923,W,53.2,157.7,070910,,,A*76
$GPRMC,174033.20,A,3307.326063,N,11706.186760,W,53.3,157.2,070910,,,A*7D
$GPRMC,174037.20,A,3307.271996,N,11706.159544,W,52.9,156.5,070910,,,A*72
$GPRMC,174040.20,A,3307.231432,N,11706.137057,W,54.1,154.1,070910,,,A*72
$GPRMC,174043.20,A,3307.190881,N,11706.113505,W,53.8,154.1,070910,,,A*77
$GPRMC,174047.20,A,3307.138060,N,11706.082175,W,52.5,153.4,070910,,,A*72
$GPRMC,174050.20,A,3307.099241,N,11706.059659,W,50.8,153.9,070910,,,A*72
$GPRMC,174053.20,A,3307.061850,N,11706.037689,W,49.8,154.2,070910,,,A*7D
$GPRMC,174056.20,A,3307.023551,N,11706.015233,W,51.8,154.0,070910,,,A*7C
$GPRMC,174059.20,A,3306.984220,N,11705.992783,W,52.5,154.2,070910,,,A*70
$GPRMC,174102.20,A,3306.944408,N,11705.969822,W,53.5,154.1,070910,,,A*7D
$GPRMC,174106.20,A,3306.889428,N,11705.938492,W,55.5,154.7,070910,,,A*78
$GPRMC,174110.20,A,3306.832094,N,11705.906884,W,57.7,155.1,070910,,,A*7D
$GPRMC,174114.20,A,3306.773417,N,11705.873921,W,58.6,154.2,070910,,,A*7D
$GPRMC,174117.20,A,3306.729337,N,11705.848491,W,58.8,154.4,070910,,,A*72
$GPRMC,174121.20,A,3306.671285,N,11705.811815,W,58.6,151.4,070910,,,A*74
$GPRMC,174125.20,A,3306.614455,N,11705.773268,W,58.6,150.7,070910,,,A*71
$GPRMC,174129.20,A,3306.558174,N,11705.734781,W,58.0,150.6,070910,,,A*76
$GPRMC,174133.20,A,3306.499842,N,11705.699734,W,58.9,153.7,070910,,,A*7E
$GPRMC,174136.20,A,3306.455455,N,11705.673628,W,59.7,153.7,070910,,,A*76
$GPRMC,174139.20,A,3306.410271,N,11705.647260,W,59.8,153.9,070910,,,A*76
$GPRMC,174142.20,A,3306.365443,N,11705.620927,W,60.1,153.9,070910,,,A*72
$GPRMC,174145.20,A,3306.320135,N,11705.594331,W,60.7,153.9,070910,,,A*77
$GPRMC,174148.20,A,3306.273597,N,11705.568023,W,62.4,155.1,070910,,,A*7D
$GPRMC,174151.20,A,3306.226145,N,11705.541352,W,62.3,153.9,070910,,,A*79
$GPRMC,174154.20,A,3306.179830,N,11705.513900,W,61.3,154.6,070910,,,A*7F
$GPRMC,174157.20,A,3306.134033,N,11705.487436,W,60.9,153.8,070910,,,A*78
$GPRMC,174200.20,A,3306.088459,N,11705.460462,W,60.9,153.6,070910,,,A*71
$GPRMC,174203.20,A,3306.043271,N,11705.431855,W,61.5,151.5,070910,,,A*79
$GPRMC,174206.20,A,3305.998692,N,11705.402073,W,60.6,150.0,070910,,,A*73
$GPRMC,174209.20,A,3305.955332,N,11705.371079,W,60.6,147.6,070910,,,A*7B
$GPRMC,174212.20,A,3305.912873,N,11705.338411,W,60.3,146.4,070910,,,A*7D
$GPRMC,174220.20,A,3305.802320,N,11705.243059,W,62.3,142.0,070910,,,A*76
$GPRMC,174223.20,A,3305.762966,N,11705.204293,W,60.9,139.9,070910,,,A*7E
$GPRMC,174226.20,A,3305.725589,N,11705.165594,W,58.9,138.9,070910,,,A*7B
$GPRMC,174229.20,A,3305.688480,N,11705.128435,W,57.9,140.1,070910,,,A*71
$GPRMC,174232.20,A,3305.652745,N,11705.092228,W,55.5,139.2,070910,,,A*7F
$GPRMC,174235.20,A,3305.618606,N,11705.056616,W,53.8,138.7,070910,,,A*7E
$GPRMC,174238.20,A,3305.584811,N,11705.021231,W,54.3,138.2,070910,,,A*75
$GPRMC,174241.20,A,3305.551174,N,11704.984943,W,54.6,137.8,070910,,,A*70
$GPRMC,174244.20,A,3305.517378,N,11704.948648,W,55.2,138.2,070910,,,A*7D
$GPRMC,174247.20,A,3305.482909,N,11704.912462,W,54.8,138.1,070910,,,A*72
$GPRMC,174250.20,A,3305.449404,N,11704.875857,W,54.5,137.5,070910,,,A*7F
$GPRMC,174253.20,A,3305.415354,N,11704.839537,W,54.9,138.0,070910,,,A*72
$GPRMC,174256.20,A,3305.381359,N,11704.802735,W,55.5,137.6,070910,,,A*7C
$GPRMC,174259.20,A,3305.346871,N,11704.765581,W,55.9,138.0,070910,,,A*7F
$GPRMC,174302.20,A,3305.312114,N,11704.728654,W,55.9,138.0,070910,,,A*79
$GPRMC,174305.20,A,3305.277573,N,11704.691308,W,56.3,137.3,070910,,,A*73
$GPRMC,174308.20,A,3305.242721,N,11704.653819,W,56.0,138.6,070910,,,A*71
$GPRMC,174311.20,A,3305.207785,N,11704.616980,W,56.3,139.0,070910,,,A*72
$GPRMC,174314.20,A,3305.171095,N,11704.581382,W,57.1,141.7,070910,,,A*7D
$GPRMC,174317.20,A,3305.133356,N,11704.546680,W,56.9,142.7,070910,,,A*72
$GPRMC,174320.20,A,3305.094889,N,11704.514007,W,56.8,144.6,070910,,,A*7B
$GPRMC,174323.20,A,3305.054434,N,11704.482017,W,58.1,147.4,070910,,,A*77
$GPRMC,174327.20,A,3304.999398,N,11704.442677,W,57.4,149.6,070910,,,A*71
$GPRMC,174330.20,A,3304.957577,N,11704.415153,W,57.6,151.8,070910,,,A*74
$GPRMC,174333.20,A,3304.914908,N,11704.388546,W,57.9,153.4,070910,,,A*76
$GPRMC,174337.20,A,3304.856768,N,11704.355416,W,58.0,156.2,070910,,,A*7C
$GPRMC,174340.20,A,3304.812107,N,11704.332911,W,58.6,158.2,070910,,,A*70
$GPRMC,174343.20,A,3304.766507,N,11704.311878,W,59.0,159.2,070910,,,A*72
$GPRMC,174346.20,A,3304.720496,N,11704.291862,W,58.6,160.7,070910,,,A*76
$GPRMC,174349.20,A,3304.673625,N,11704.274159,W,58.5,163.1,070910,,,A*78
$GPRMC,174352.20,A,3304.626880,N,11704.259486,W,57.5,166.0,070910,,,A*70
$GPRMC,174355.20,A,3304.579938,N,11704.247236,W,57.3,168.7,070910,,,A*71
