NMEA Sentence Code,UTC Time,Status,Latitude,Latitude Direction,Longitude,Longitude Direction,Speed (knots),Track Angle (degrees true),Date,MagneticVariation,Magnetic Variation Direction,[FAA Mode]-Optional,Checksum
$GPRMC,165140.5,A,3246.4448,N,11539.8630,W,68.30,270.40,230410,,*26
$GPRMC,165144.5,A,3246.4454,N,11539.9536,W,68.80,269.90,230410,,*25
$GPRMC,165148.5,A,3246.4472,N,11540.0453,W,69.10,270.70,230410,,*26
$GPRMC,165152.5,A,3246.4482,N,11540.1363,W,68.70,270.40,230410,,*23
$GPRMC,165156.5,A,3246.4491,N,11540.2262,W,68.40,270.40,230410,,*25
$GPRMC,165200.5,A,3246.4482,N,11540.3166,W,68.90,269.80,230410,,*28
$GPRMC,165204.5,A,3246.4482,N,11540.4065,W,68.70,270.00,230410,,*27
$GPRMC,165208.5,A,3246.4476,N,11540.4969,W,68.50,269.80,230410,,*27
$GPRMC,165212.5,A,3246.4494,N,11540.5874,W,68.50,270.70,230410,,*2B
$GPRMC,165216.5,A,3246.4498,N,11540.6777,W,68.40,269.90,230410,,*2B
$GPRMC,165220.5,A,3246.4506,N,11540.7682,W,68.30,270.30,230410,,*27
$GPRMC,165224.5,A,3246.4503,N,11540.8592,W,68.90,269.90,230410,,*23
$GPRMC,165228.5,A,3246.4501,N,11540.9493,W,68.80,270.50,230410,,*29
$GPRMC,165232.5,A,3246.4497,N,11541.0395,W,68.70,270.10,230410,,*2E
$GPRMC,165236.5,A,3246.4507,N,11541.1309,W,68.80,270.40,230410,,*2C
$GPRMC,165240.5,A,3246.4496,N,11541.2216,W,68.70,269.50,230410,,*2E
$GPRMC,165244.5,A,3246.4494,N,11541.3122,W,69.20,270.40,230410,,*20
$GPRMC,165248.5,A,3246.4495,N,11541.4018,W,68.50,270.00,230410,,*20
$GPRMC,165252.5,A,3246.4482,N,11541.4933,W,69.00,270.00,230410,,*29
$GPRMC,165256.5,A,3246.4477,N,11541.5835,W,69.10,269.90,230410,,*21
$GPRMC,165300.5,A,3246.4487,N,11541.6743,W,68.30,270.10,230410,,*22
$GPRMC,165304.5,A,3246.4497,N,11541.7641,W,68.10,270.10,230410,,*27
$GPRMC,165308.5,A,3246.4502,N,11541.8537,W,68.40,270.30,230410,,*2C
$GPRMC,165312.5,A,3246.4507,N,11541.9437,W,68.50,270.00,230410,,*20
$GPRMC,165316.5,A,3246.4499,N,11542.0346,W,68.90,270.10,230410,,*24
$GPRMC,165320.5,A,3246.4498,N,11542.1256,W,68.90,270.00,230410,,*20
$GPRMC,165324.5,A,3246.4498,N,11542.2158,W,68.80,270.10,230410,,*2A
$GPRMC,165328.5,A,3246.4496,N,11542.3069,W,68.70,270.10,230410,,*25
$GPRMC,165332.5,A,3246.4501,N,11542.3974,W,68.50,269.70,230410,,*28
$GPRMC,165336.5,A,3246.4508,N,11542.4876,W,68.70,270.50,230410,,*29
$GPRMC,165340.5,A,3246.4505,N,11542.5783,W,68.80,269.90,230410,,*2A
$GPRMC,165344.5,A,3246.4505,N,11542.6691,W,68.70,270.20,230410,,*23
$GPRMC,165348.5,A,3246.4505,N,11542.7594,W,68.40,269.90,230410,,*28
$GPRMC,165352.5,A,3246.4504,N,11542.8502,W,68.70,269.90,230410,,*21
$GPRMC,165356.5,A,3246.4503,N,11542.9409,W,68.60,270.00,230410,,*29
$GPRMC,165400.5,A,3246.4504,N,11543.0315,W,68.70,270.20,230410,,*2B
$GPRMC,165404.5,A,3246.4510,N,11543.1219,W,68.70,270.00,230410,,*24
$GPRMC,165408.5,A,3246.4512,N,11543.2124,W,68.70,270.00,230410,,*24
$GPRMC,165412.5,A,3246.4512,N,11543.3028,W,68.70,270.10,230410,,*22
$GPRMC,165416.5,A,3246.4515,N,11543.3931,W,68.70,269.90,230410,,*20
$GPRMC,165420.5,A,3246.4518,N,11543.4837,W,68.80,270.10,230410,,*27
$GPRMC,165424.5,A,3246.4519,N,11543.5742,W,69.40,269.40,230410,,*2E
$GPRMC,165428.5,A,3246.4525,N,11543.6649,W,68.50,270.40,230410,,*2C
$GPRMC,165432.5,A,3246.4525,N,11543.7553,W,68.30,269.80,230410,,*2C
$GPRMC,165436.5,A,3246.4529,N,11543.8451,W,68.80,270.20,230410,,*21
$GPRMC,165440.5,A,3246.4528,N,11543.9360,W,68.70,270.30,230410,,*2B
$GPRMC,165444.5,A,3246.4534,N,11544.0262,W,68.80,270.50,230410,,*26
$GPRMC,165448.5,A,3246.4532,N,11544.1165,W,68.70,269.80,230410,,*23
$GPRMC,165452.5,A,3246.4530,N,11544.2071,W,68.70,270.20,230410,,*2F
$GPRMC,165456.5,A,3246.4527,N,11544.2976,W,68.70,270.00,230410,,*21
$GPRMC,165500.5,A,3246.4523,N,11544.3881,W,68.70,270.10,230410,,*2E
$GPRMC,165504.5,A,3246.4521,N,11544.4785,W,68.50,268.70,230410,,*29
$GPRMC,165508.5,A,3246.4448,N,11544.5681,W,68.60,261.10,230410,,*23
$GPRMC,165512.5,A,3246.4300,N,11544.6569,W,68.90,257.50,230410,,*2B
$GPRMC,165516.5,A,3246.4129,N,11544.7451,W,68.70,257.10,230410,,*27
$GPRMC,165520.5,A,3246.4010,N,11544.8341,W,68.30,263.10,230410,,*23
$GPRMC,165524.5,A,3246.3989,N,11544.9255,W,69.00,268.70,230410,,*23
$GPRMC,165528.5,A,3246.4002,N,11545.0161,W,68.50,270.10,230410,,*25
$GPRMC,165532.5,A,3246.4005,N,11545.1071,W,68.50,269.90,230410,,*28
$GPRMC,165536.5,A,3246.4020,N,11545.1983,W,68.70,269.90,230410,,*2D
$GPRMC,165540.5,A,3246.4028,N,11545.2893,W,69.10,269.60,230410,,*2F
$GPRMC,165544.5,A,3246.4015,N,11545.3794,W,68.70,269.50,230410,,*28
$GPRMC,165548.5,A,3246.4019,N,11545.4695,W,68.60,270.00,230410,,*23
$GPRMC,165552.5,A,3246.4018,N,11545.5599,W,68.90,270.20,230410,,*2A
$GPRMC,165556.5,A,3246.4044,N,11545.6512,W,68.80,270.10,230410,,*25
$GPRMC,165600.5,A,3246.4024,N,11545.7404,W,68.30,269.80,230410,,*2E
$GPRMC,165604.5,A,3246.4012,N,11545.8306,W,68.60,269.50,230410,,*2D
$GPRMC,165608.5,A,3246.4007,N,11545.9226,W,68.70,269.60,230410,,*25
$GPRMC,165612.5,A,3246.4022,N,11546.0114,W,68.20,270.20,230410,,*28
$GPRMC,165616.5,A,3246.4032,N,11546.1034,W,68.70,270.20,230410,,*2A
$GPRMC,165620.5,A,3246.4027,N,11546.1930,W,68.30,270.10,230410,,*21
$GPRMC,165624.5,A,3246.4037,N,11546.2830,W,68.30,270.10,230410,,*26
$GPRMC,165628.5,A,3246.4035,N,11546.3746,W,69.00,269.80,230410,,*24
$GPRMC,165632.5,A,3246.4036,N,11546.4629,W,65.30,270.10,230410,,*2D
$GPRMC,165636.5,A,3246.4042,N,11546.5447,W,61.90,270.50,230410,,*2B
$GPRMC,165640.5,A,3246.4019,N,11546.6265,W,63.20,269.30,230410,,*26
$GPRMC,165644.5,A,3246.3977,N,11546.7111,W,64.10,266.60,230410,,*2B
$GPRMC,165648.5,A,3246.3909,N,11546.7945,W,65.70,263.70,230410,,*24
$GPRMC,165652.5,A,3246.3798,N,11546.8815,W,68.80,259.40,230410,,*2A
$GPRMC,165656.5,A,3246.3627,N,11546.9688,W,68.20,255.90,230410,,*2B
$GPRMC,165700.5,A,3246.3447,N,11547.0556,W,67.90,256.20,230410,,*29
$GPRMC,165704.5,A,3246.3270,N,11547.1431,W,67.90,256.60,230410,,*2A
$GPRMC,165708.5,A,3246.3100,N,11547.2305,W,68.30,256.70,230410,,*25
$GPRMC,165712.5,A,3246.2920,N,11547.3173,W,67.70,256.50,230410,,*2E
$GPRMC,165716.5,A,3246.2743,N,11547.4049,W,68.10,256.30,230410,,*21
$GPRMC,165720.5,A,3246.2575,N,11547.4899,W,64.20,256.60,230410,,*2C
$GPRMC,165724.5,A,3246.2410,N,11547.5735,W,65.00,257.30,230410,,*25
$GPRMC,165728.5,A,3246.2253,N,11547.6569,W,65.20,257.50,230410,,*24
$GPRMC,165732.5,A,3246.2091,N,11547.7381,W,60.80,256.40,230410,,*2D
$GPRMC,165736.5,A,3246.1933,N,11547.8149,W,60.10,256.50,230410,,*2A
$GPRMC,165740.5,A,3246.1780,N,11547.8920,W,60.10,256.40,230410,,*2B
$GPRMC,165744.5,A,3246.1622,N,11547.9691,W,60.20,256.50,230410,,*20
$GPRMC,165748.5,A,3246.1467,N,11548.0465,W,59.70,257.10,230410,,*2A
$GPRMC,165752.5,A,3246.1308,N,11548.1230,W,60.00,256.50,230410,,*20
$GPRMC,165756.5,A,3246.1152,N,11548.2000,W,60.10,256.40,230410,,*2B
$GPRMC,165800.5,A,3246.0998,N,11548.2769,W,60.10,256.40,230410,,*20
$GPRMC,165804.5,A,3246.0838,N,11548.3538,W,60.30,256.70,230410,,*29
$GPRMC,165808.5,A,3246.0683,N,11548.4307,W,59.80,256.40,230410,,*24
$GPRMC,165812.5,A,3246.0530,N,11548.5083,W,60.40,256.90,230410,,*21
$GPRMC,165816.5,A,3246.0377,N,11548.5858,W,60.50,256.20,230410,,*24
$GPRMC,165820.5,A,3246.0210,N,11548.6660,W,63.40,256.30,230410,,*24
$GPRMC,165824.5,A,3246.0030,N,11548.7468,W,64.00,255.60,230410,,*2E
$GPRMC,165828.5,A,3245.9863,N,11548.8290,W,63.70,256.80,230410,,*25
$GPRMC,165832.5,A,3245.9704,N,11548.9105,W,64.00,256.80,230410,,*2E
$GPRMC,165836.5,A,3245.9538,N,11548.9930,W,64.00,256.70,230410,,*26
$GPRMC,165840.5,A,3245.9374,N,11549.0745,W,63.70,256.60,230410,,*2C
$GPRMC,165844.5,A,3245.9205,N,11549.1558,W,63.60,256.30,230410,,*24
$GPRMC,165848.5,A,3245.9040,N,11549.2379,W,63.50,256.20,230410,,*2F
$GPRMC,165852.5,A,3245.8872,N,11549.3199,W,63.90,256.60,230410,,*29
$GPRMC,165856.5,A,3245.8706,N,11549.4012,W,63.50,256.30,230410,,*2D
$GPRMC,165900.5,A,3245.8542,N,11549.4828,W,64.10,256.70,230410,,*2B
$GPRMC,165904.5,A,3245.8379,N,11549.5638,W,63.60,256.40,230410,,*2C
$GPRMC,165908.5,A,3245.8219,N,11549.6455,W,64.20,256.50,230410,,*2F
$GPRMC,165912.5,A,3245.8049,N,11549.7292,W,65.70,256.60,230410,,*28
$GPRMC,165916.5,A,3245.7883,N,11549.8126,W,65.50,256.30,230410,,*29
$GPRMC,165920.5,A,3245.7712,N,11549.8966,W,65.60,256.60,230410,,*21
$GPRMC,165924.5,A,3245.7539,N,11549.9805,W,65.70,256.60,230410,,*2A
$GPRMC,165928.5,A,3245.7364,N,11550.0643,W,65.30,256.40,230410,,*23
$GPRMC,165932.5,A,3245.7194,N,11550.1481,W,65.30,256.40,230410,,*28
$GPRMC,165936.5,A,3245.7018,N,11550.2319,W,65.30,256.20,230410,,*2A
$GPRMC,165940.5,A,3245.6844,N,11550.3161,W,65.40,256.60,230410,,*24
$GPRMC,165944.5,A,3245.6674,N,11550.3997,W,65.30,256.80,230410,,*25
$GPRMC,165948.5,A,3245.6511,N,11550.4844,W,65.70,258.40,230410,,*27
$GPRMC,165952.5,A,3245.6373,N,11550.5692,W,65.70,259.20,230410,,*2D
$GPRMC,165956.5,A,3245.6238,N,11550.6542,W,65.40,259.40,230410,,*2F
$GPRMC,170000.5,A,3245.6106,N,11550.7389,W,65.40,259.30,230410,,*28
$GPRMC,170004.5,A,3245.5972,N,11550.8233,W,65.50,259.30,230410,,*2A
$GPRMC,170008.5,A,3245.5838,N,11550.9085,W,65.50,259.60,230410,,*22
$GPRMC,170012.5,A,3245.5705,N,11550.9930,W,65.60,259.50,230410,,*2F
$GPRMC,170016.5,A,3245.5569,N,11551.0776,W,65.60,259.40,230410,,*26
$GPRMC,170020.5,A,3245.5435,N,11551.1627,W,65.80,259.40,230410,,*21
$GPRMC,170024.5,A,3245.5301,N,11551.2481,W,64.60,259.60,230410,,*25
$GPRMC,170028.5,A,3245.5164,N,11551.3328,W,65.60,259.60,230410,,*2C
$GPRMC,170032.5,A,3245.5034,N,11551.4181,W,66.20,259.40,230410,,*20
$GPRMC,170036.5,A,3245.4894,N,11551.5028,W,65.40,259.30,230410,,*26
$GPRMC,170040.5,A,3245.4756,N,11551.5869,W,65.40,259.50,230410,,*2D
$GPRMC,170044.5,A,3245.4619,N,11551.6711,W,65.50,259.50,230410,,*21
$GPRMC,170048.5,A,3245.4486,N,11551.7561,W,65.50,259.30,230410,,*2B
$GPRMC,170052.5,A,3245.4351,N,11551.8410,W,65.50,259.50,230410,,*23
$GPRMC,170056.5,A,3245.4219,N,11551.9253,W,65.40,259.50,230410,,*2B
$GPRMC,170100.5,A,3245.4086,N,11552.0098,W,65.70,259.40,230410,,*20
$GPRMC,170104.5,A,3245.3955,N,11552.0951,W,65.60,259.60,230410,,*2B
$GPRMC,170108.5,A,3245.3824,N,11552.1803,W,66.10,259.40,230410,,*21
$GPRMC,170112.5,A,3245.3685,N,11552.2659,W,65.60,259.50,230410,,*28
$GPRMC,170116.5,A,3245.3556,N,11552.3506,W,65.80,259.50,230410,,*27
$GPRMC,170120.5,A,3245.3420,N,11552.4359,W,65.70,259.50,230410,,*26
$GPRMC,170124.5,A,3245.3285,N,11552.5211,W,65.50,259.50,230410,,*25
$GPRMC,170128.5,A,3245.3149,N,11552.6058,W,65.40,259.20,230410,,*20
$GPRMC,170132.5,A,3245.3014,N,11552.6907,W,65.40,259.60,230410,,*25
$GPRMC,170136.5,A,3245.2886,N,11552.7750,W,65.40,259.30,230410,,*2B
$GPRMC,170140.5,A,3245.2749,N,11552.8596,W,65.40,259.40,230410,,*26
$GPRMC,170144.5,A,3245.2614,N,11552.9439,W,65.40,259.30,230410,,*29
$GPRMC,170148.5,A,3245.2484,N,11553.0289,W,65.00,259.30,230410,,*2F
$GPRMC,170152.5,A,3245.2349,N,11553.1136,W,65.50,259.50,230410,,*27
$GPRMC,170156.5,A,3245.2216,N,11553.1988,W,65.50,259.20,230410,,*22
$GPRMC,170200.5,A,3245.2084,N,11553.2831,W,65.50,259.60,230410,,*2F
$GPRMC,170204.5,A,3245.1952,N,11553.3680,W,65.20,259.40,230410,,*2A
$GPRMC,170208.5,A,3245.1818,N,11553.4533,W,65.50,259.40,230410,,*22
$GPRMC,170212.5,A,3245.1684,N,11553.5381,W,65.40,259.60,230410,,*2F
$GPRMC,170216.5,A,3245.1561,N,11553.6231,W,65.40,260.40,230410,,*22
$GPRMC,170220.5,A,3245.1439,N,11553.7080,W,65.40,259.90,230410,,*25
$GPRMC,170224.5,A,3245.1311,N,11553.7932,W,65.60,260.30,230410,,*2E
$GPRMC,170228.5,A,3245.1197,N,11553.8791,W,65.60,260.90,230410,,*2C
$GPRMC,170232.5,A,3245.1078,N,11553.9640,W,65.70,260.80,230410,,*2B
$GPRMC,170236.5,A,3245.0963,N,11554.0498,W,65.70,261.00,230410,,*2D
$GPRMC,170240.5,A,3245.0846,N,11554.1350,W,65.30,260.50,230410,,*28
$GPRMC,170244.5,A,3245.0730,N,11554.2210,W,65.70,261.30,230410,,*27
$GPRMC,170248.5,A,3245.0627,N,11554.3069,W,65.10,262.30,230410,,*24
$GPRMC,170252.5,A,3245.0504,N,11554.3916,W,65.50,261.30,230410,,*2B
$GPRMC,170256.5,A,3245.0377,N,11554.4768,W,65.50,261.20,230410,,*2C
$GPRMC,170300.5,A,3245.0262,N,11554.5623,W,67.40,260.60,230410,,*22
$GPRMC,170304.5,A,3245.0149,N,11554.6485,W,65.50,260.90,230410,,*2D
$GPRMC,170308.5,A,3245.0031,N,11554.7338,W,65.50,260.80,230410,,*2E
$GPRMC,170312.5,A,3244.9916,N,11554.8186,W,65.80,260.70,230410,,*2B
$GPRMC,170316.5,A,3244.9800,N,11554.9040,W,65.60,260.80,230410,,*22
$GPRMC,170320.5,A,3244.9688,N,11554.9904,W,67.30,260.80,230410,,*27
$GPRMC,170324.5,A,3244.9568,N,11555.0770,W,67.50,260.80,230410,,*2D
$GPRMC,170328.5,A,3244.9446,N,11555.1646,W,67.40,260.90,230410,,*29
$GPRMC,170332.5,A,3244.9327,N,11555.2524,W,67.40,260.90,230410,,*26
$GPRMC,170336.5,A,3244.9211,N,11555.3405,W,67.50,261.00,230410,,*2C
$GPRMC,170340.5,A,3244.9092,N,11555.4283,W,67.50,260.80,230410,,*22
$GPRMC,170344.5,A,3244.8969,N,11555.5162,W,67.60,260.90,230410,,*25
$GPRMC,170348.5,A,3244.8852,N,11555.6040,W,67.60,260.70,230410,,*2C
$GPRMC,170352.5,A,3244.8733,N,11555.6914,W,67.30,260.80,230410,,*2D
$GPRMC,170356.5,A,3244.8613,N,11555.7794,W,67.40,260.80,230410,,*2A
$GPRMC,170400.5,A,3244.8500,N,11555.8669,W,67.30,260.80,230410,,*24
$GPRMC,170404.5,A,3244.8377,N,11555.9543,W,67.30,260.90,230410,,*2D
$GPRMC,170408.5,A,3244.8261,N,11556.0416,W,67.20,260.90,230410,,*2D
$GPRMC,170412.5,A,3244.8144,N,11556.1292,W,67.10,260.70,230410,,*24
$GPRMC,170416.5,A,3244.8024,N,11556.2165,W,67.00,260.90,230410,,*20
$GPRMC,170420.5,A,3244.7903,N,11556.3041,W,67.40,261.10,230410,,*2D
$GPRMC,170424.5,A,3244.7781,N,11556.3919,W,67.60,260.70,230410,,*2C
$GPRMC,170428.5,A,3244.7662,N,11556.4795,W,67.90,261.10,230410,,*29
$GPRMC,170432.5,A,3244.7544,N,11556.5678,W,67.70,261.10,230410,,*28
$GPRMC,170436.5,A,3244.7425,N,11556.6559,W,67.70,260.80,230410,,*21
$GPRMC,170440.5,A,3244.7304,N,11556.7444,W,67.60,260.70,230410,,*26
$GPRMC,170444.5,A,3244.7181,N,11556.8324,W,67.50,260.70,230410,,*20
$GPRMC,170448.5,A,3244.7062,N,11556.9203,W,67.70,260.70,230410,,*27
$GPRMC,170452.5,A,3244.6942,N,11557.0081,W,67.30,260.90,230410,,*2C
$GPRMC,170456.5,A,3244.6825,N,11557.0954,W,67.10,260.80,230410,,*2A
$GPRMC,170500.5,A,3244.6704,N,11557.1825,W,67.40,260.90,230410,,*26
$GPRMC,170504.5,A,3244.6575,N,11557.2694,W,67.20,260.00,230410,,*2E
$GPRMC,170508.5,A,3244.6450,N,11557.3560,W,66.80,260.80,230410,,*2E
$GPRMC,170512.5,A,3244.6329,N,11557.4429,W,66.90,260.70,230410,,*29
$GPRMC,170516.5,A,3244.6209,N,11557.5296,W,67.00,260.20,230410,,*20
$GPRMC,170520.5,A,3244.6069,N,11557.6169,W,67.50,258.20,230410,,*2F
$GPRMC,170524.5,A,3244.5891,N,11557.7032,W,67.70,255.30,230410,,*27
$GPRMC,170528.5,A,3244.5676,N,11557.7890,W,67.70,251.00,230410,,*2B
$GPRMC,170532.5,A,3244.5403,N,11557.8725,W,67.70,247.20,230410,,*2B
$GPRMC,170536.5,A,3244.5105,N,11557.9543,W,67.70,246.10,230410,,*2D
$GPRMC,170540.5,A,3244.4802,N,11558.0357,W,67.20,246.30,230410,,*21
$GPRMC,170544.5,A,3244.4502,N,11558.1161,W,66.90,245.70,230410,,*23
$GPRMC,170548.5,A,3244.4208,N,11558.1973,W,67.10,247.70,230410,,*22
$GPRMC,170552.5,A,3244.3936,N,11558.2798,W,67.30,249.60,230410,,*2D
$GPRMC,170556.5,A,3244.3682,N,11558.3632,W,67.30,250.90,230410,,*2E
$GPRMC,170600.5,A,3244.3443,N,11558.4474,W,67.20,252.70,230410,,*2B
$GPRMC,170604.5,A,3244.3230,N,11558.5328,W,67.30,254.50,230410,,*27
$GPRMC,170608.5,A,3244.3032,N,11558.6185,W,67.30,254.90,230410,,*21
$GPRMC,170612.5,A,3244.2831,N,11558.7037,W,67.30,254.10,230410,,*21
$GPRMC,170616.5,A,3244.2628,N,11558.7894,W,67.30,254.40,230410,,*27
$GPRMC,170620.5,A,3244.2431,N,11558.8752,W,67.40,255.40,230410,,*24
$GPRMC,170624.5,A,3244.2244,N,11558.9611,W,67.40,256.20,230410,,*26
$GPRMC,170628.5,A,3244.2061,N,11559.0471,W,67.40,255.30,230410,,*21
$GPRMC,170632.5,A,3244.1870,N,11559.1329,W,67.30,254.90,230410,,*26
$GPRMC,170636.5,A,3244.1681,N,11559.2186,W,67.40,255.30,230410,,*2A
$GPRMC,170640.5,A,3244.1483,N,11559.3045,W,67.30,254.90,230410,,*28
$GPRMC,170644.5,A,3244.1287,N,11559.3898,W,66.90,255.20,230410,,*27
$GPRMC,170648.5,A,3244.1091,N,11559.4756,W,67.30,254.70,230410,,*2B
$GPRMC,170652.5,A,3244.0904,N,11559.5612,W,67.00,255.10,230410,,*20
$GPRMC,170656.5,A,3244.0721,N,11559.6467,W,67.70,254.90,230410,,*20
$GPRMC,170700.5,A,3244.0519,N,11559.7325,W,67.70,254.70,230410,,*25
$GPRMC,170704.5,A,3244.0333,N,11559.8180,W,67.50,255.30,230410,,*2A
$GPRMC,170708.5,A,3244.0140,N,11559.9038,W,67.00,254.60,230410,,*22
$GPRMC,170712.5,A,3243.9956,N,11559.9897,W,67.20,256.40,230410,,*27
$GPRMC,170716.5,A,3243.9793,N,11600.0754,W,67.10,258.00,230410,,*2B
$GPRMC,170720.5,A,3243.9627,N,11600.1633,W,67.90,257.60,230410,,*20
$GPRMC,170724.5,A,3243.9453,N,11600.2483,W,67.00,257.60,230410,,*26
$GPRMC,170728.5,A,3243.9304,N,11600.3370,W,67.50,258.30,230410,,*2A
$GPRMC,170732.5,A,3243.9164,N,11600.4208,W,67.20,258.10,230410,,*29
$GPRMC,170736.5,A,3243.9022,N,11600.5082,W,67.60,258.40,230410,,*2E
$GPRMC,170740.5,A,3243.8879,N,11600.5951,W,67.60,258.40,230410,,*2F
$GPRMC,170744.5,A,3243.8710,N,11600.6821,W,67.50,256.00,230410,,*27
$GPRMC,170748.5,A,3243.8481,N,11600.7668,W,67.30,250.80,230410,,*2A
$GPRMC,170752.5,A,3243.8182,N,11600.8472,W,67.20,245.90,230410,,*25
$GPRMC,170756.5,A,3243.7844,N,11600.9270,W,67.40,240.30,230410,,*21
$GPRMC,170800.5,A,3243.7456,N,11601.0037,W,67.70,238.90,230410,,*2D
$GPRMC,170804.5,A,3243.7060,N,11601.0809,W,67.40,239.00,230410,,*26
$GPRMC,170808.5,A,3243.6700,N,11601.1584,W,67.40,243.20,230410,,*2C
$GPRMC,170812.5,A,3243.6454,N,11601.2394,W,65.80,253.50,230410,,*29
$GPRMC,170816.5,A,3243.6357,N,11601.3258,W,66.20,263.30,230410,,*25
$GPRMC,170820.5,A,3243.6278,N,11601.4132,W,67.20,263.40,230410,,*22
$GPRMC,170824.5,A,3243.6200,N,11601.5015,W,67.80,262.60,230410,,*25
$GPRMC,170828.5,A,3243.6101,N,11601.5904,W,67.60,261.70,230410,,*2E
$GPRMC,170832.5,A,3243.5989,N,11601.6787,W,67.10,260.70,230410,,*2E
$GPRMC,170836.5,A,3243.5855,N,11601.7661,W,67.20,259.80,230410,,*24
$GPRMC,170840.5,A,3243.5709,N,11601.8533,W,66.80,258.50,230410,,*2F
$GPRMC,170844.5,A,3243.5570,N,11601.9404,W,66.70,258.60,230410,,*2F
$GPRMC,170848.5,A,3243.5427,N,11602.0268,W,67.10,258.90,230410,,*2E
$GPRMC,170852.5,A,3243.5284,N,11602.1138,W,67.00,258.80,230410,,*2D
$GPRMC,170856.5,A,3243.5138,N,11602.2003,W,67.30,258.30,230410,,*2F
$GPRMC,170900.5,A,3243.4992,N,11602.2862,W,67.40,260.00,230410,,*24
$GPRMC,170904.5,A,3243.4935,N,11602.3763,W,69.60,267.40,230410,,*2D
$GPRMC,170908.5,A,3243.5034,N,11602.4632,W,67.60,279.90,230410,,*26
$GPRMC,170912.5,A,3243.5213,N,11602.5501,W,67.90,285.50,230410,,*28
$GPRMC,170916.5,A,3243.5412,N,11602.6364,W,67.60,285.40,230410,,*23
$GPRMC,170920.5,A,3243.5616,N,11602.7228,W,67.50,285.30,230410,,*2C
$GPRMC,170924.5,A,3243.5817,N,11602.8080,W,67.40,284.80,230410,,*23
$GPRMC,170928.5,A,3243.6017,N,11602.8937,W,67.40,285.40,230410,,*2C
$GPRMC,170932.5,A,3243.6214,N,11602.9795,W,67.40,285.50,230410,,*20
$GPRMC,170936.5,A,3243.6410,N,11603.0650,W,67.40,285.20,230410,,*21
$GPRMC,170940.5,A,3243.6612,N,11603.1504,W,67.30,285.30,230410,,*25
$GPRMC,170944.5,A,3243.6811,N,11603.2355,W,66.70,285.40,230410,,*2F
$GPRMC,170948.5,A,3243.7007,N,11603.3201,W,66.90,285.40,230410,,*22
$GPRMC,170952.5,A,3243.7206,N,11603.4055,W,67.10,285.40,230410,,*27
$GPRMC,170956.5,A,3243.7411,N,11603.4899,W,67.20,284.70,230410,,*2A
$GPRMC,171000.5,A,3243.7553,N,11603.5767,W,67.40,277.40,230410,,*20
$GPRMC,171004.5,A,3243.7565,N,11603.6666,W,69.00,267.40,230410,,*29
$GPRMC,171008.5,A,3243.7367,N,11603.7517,W,66.50,253.00,230410,,*2C
$GPRMC,171012.5,A,3243.7074,N,11603.8339,W,67.90,248.30,230410,,*27
$GPRMC,171015.5,A,3243.6738,N,11603.8868,W,66.00,236.60,230410,,*25
$GPRMC,171018.5,A,3243.6240,N,11603.9279,W,67.50,223.00,230410,,*2F
$GPRMC,171022.5,A,3243.5682,N,11603.9879,W,67.70,222.30,230410,,*25
$GPRMC,171027.5,A,3243.5005,N,11604.0646,W,66.90,223.40,230410,,*2C
$GPRMC,171030.5,A,3243.4552,N,11604.1061,W,66.90,217.10,230410,,*2C
$GPRMC,171034.5,A,3243.3916,N,11604.1517,W,67.40,207.00,230410,,*2B
$GPRMC,171042.5,A,3243.2543,N,11604.2032,W,61.60,190.00,230410,,*2F
$GPRMC,171046.5,A,3243.1810,N,11604.2015,W,63.70,176.30,230410,,*2E
$GPRMC,171050.5,A,3243.1071,N,11604.1879,W,66.60,167.10,230410,,*21
$GPRMC,171054.5,A,3243.0373,N,11604.1593,W,67.30,157.10,230410,,*2B
$GPRMC,171058.5,A,3242.9690,N,11604.1246,W,66.10,156.20,230410,,*29
$GPRMC,171102.5,A,3242.8998,N,11604.0898,W,68.30,157.00,230410,,*26
$GPRMC,171108.5,A,3242.7990,N,11604.0382,W,66.30,156.50,230410,,*21
$GPRMC,171109.5,A,3242.7825,N,11604.0288,W,66.40,156.70,230410,,*21
$GPRMC,171113.5,A,3242.7133,N,11603.9941,W,66.30,156.60,230410,,*22
$GPRMC,171117.5,A,3242.6442,N,11603.9598,W,66.90,157.00,230410,,*21
$GPRMC,171121.5,A,3242.5758,N,11603.9274,W,65.50,158.80,230410,,*22
$GPRMC,171125.5,A,3242.5019,N,11603.9098,W,65.90,169.30,230410,,*21
$GPRMC,171129.5,A,3242.4254,N,11603.9276,W,69.20,188.70,230410,,*29
$GPRMC,171133.5,A,3242.3576,N,11603.9816,W,72.80,210.20,230410,,*29
$GPRMC,171137.5,A,3242.3085,N,11604.0559,W,69.20,227.80,230410,,*22
$GPRMC,171141.5,A,3242.2717,N,11604.1344,W,67.50,234.80,230410,,*2E
$GPRMC,171145.5,A,3242.2283,N,11604.2083,W,68.00,235.00,230410,,*2A
$GPRMC,171149.5,A,3242.1892,N,11604.2839,W,68.00,240.60,230410,,*22
$GPRMC,171153.5,A,3242.1651,N,11604.3678,W,67.70,252.70,230410,,*28
$GPRMC,171157.5,A,3242.1501,N,11604.4568,W,68.00,256.30,230410,,*27
$GPRMC,171201.5,A,3242.1336,N,11604.5451,W,67.90,256.50,230410,,*2F
$GPRMC,171205.5,A,3242.1168,N,11604.6322,W,68.10,256.30,230410,,*23
$GPRMC,171209.5,A,3242.0944,N,11604.7148,W,66.60,248.50,230410,,*27
$GPRMC,171213.5,A,3242.0572,N,11604.7905,W,67.60,239.50,230410,,*23
$GPRMC,171217.5,A,3242.0048,N,11604.8526,W,64.30,228.80,230410,,*22
$GPRMC,171221.5,A,3241.9363,N,11604.8989,W,67.30,217.50,230410,,*2C
$GPRMC,171225.5,A,3241.8742,N,11604.9514,W,67.70,217.10,230410,,*27
$GPRMC,171229.5,A,3241.8128,N,11605.0051,W,68.00,218.40,230410,,*2F
$GPRMC,171233.5,A,3241.7514,N,11605.0594,W,68.80,219.30,230410,,*22
$GPRMC,171237.5,A,3241.7008,N,11605.1237,W,68.90,226.00,230410,,*2F
$GPRMC,171241.5,A,3241.6519,N,11605.1909,W,68.90,228.30,230410,,*21
$GPRMC,171245.5,A,3241.6037,N,11605.2580,W,67.40,229.90,230410,,*2B
$GPRMC,171249.5,A,3241.5539,N,11605.3244,W,67.90,226.40,230410,,*2E
$GPRMC,171253.5,A,3241.4996,N,11605.3800,W,63.80,215.10,230410,,*27
$GPRMC,171257.5,A,3241.4360,N,11605.4247,W,67.20,210.40,230410,,*20
$GPRMC,171301.5,A,3241.3708,N,11605.4686,W,67.70,209.30,230410,,*2C
$GPRMC,171305.5,A,3241.3039,N,11605.5089,W,67.20,202.80,230410,,*20
$GPRMC,171309.5,A,3241.2360,N,11605.5319,W,62.90,193.60,230410,,*23
$GPRMC,171313.5,A,3241.1650,N,11605.5230,W,63.40,175.40,230410,,*21
$GPRMC,171317.5,A,3241.0942,N,11605.5012,W,66.20,168.70,230410,,*26
$GPRMC,171321.5,A,3241.0218,N,11605.4805,W,65.10,172.50,230410,,*21
$GPRMC,171325.5,A,3240.9455,N,11605.4866,W,66.90,182.80,230410,,*2E
$GPRMC,171329.5,A,3240.8636,N,11605.5237,W,76.30,199.30,230410,,*21
$GPRMC,171333.5,A,3240.8223,N,11605.6026,W,67.30,223.80,230410,,*22
$GPRMC,171337.5,A,3240.8065,N,11605.6897,W,67.30,246.20,230410,,*2D
$GPRMC,171341.5,A,3240.7805,N,11605.7740,W,67.10,246.10,230410,,*28
$GPRMC,171345.5,A,3240.7525,N,11605.8562,W,67.20,246.10,230410,,*2D
$GPRMC,171349.5,A,3240.7230,N,11605.9382,W,68.10,246.90,230410,,*2F
$GPRMC,171353.5,A,3240.7058,N,11606.0232,W,65.00,259.30,230410,,*20
$GPRMC,171357.5,A,3240.7190,N,11606.1149,W,67.30,279.20,230410,,*2D
$GPRMC,171401.5,A,3240.7269,N,11606.2012,W,66.60,270.10,230410,,*2E
$GPRMC,171405.5,A,3240.7166,N,11606.2901,W,69.60,260.80,230410,,*2A
$GPRMC,171409.5,A,3240.6746,N,11606.3643,W,67.50,242.10,230410,,*2F
$GPRMC,171413.5,A,3240.6134,N,11606.4141,W,61.50,222.00,230410,,*24
$GPRMC,171417.5,A,3240.5337,N,11606.4392,W,66.50,201.10,230410,,*29
$GPRMC,171421.5,A,3240.4589,N,11606.4548,W,61.40,189.40,230410,,*2F
$GPRMC,171425.5,A,3240.3849,N,11606.4425,W,63.90,172.70,230410,,*2F
$GPRMC,171429.5,A,3240.3219,N,11606.3972,W,62.10,154.20,230410,,*2C
$GPRMC,171433.5,A,3240.2599,N,11606.3655,W,61.20,160.40,230410,,*22
$GPRMC,171437.5,A,3240.1963,N,11606.3593,W,57.50,174.80,230410,,*2E
$GPRMC,171441.5,A,3240.1209,N,11606.3781,W,66.50,189.20,230410,,*23
$GPRMC,171445.5,A,3240.0459,N,11606.3907,W,66.70,184.80,230410,,*20
$GPRMC,171449.5,A,3239.9691,N,11606.3949,W,66.00,180.00,230410,,*2C
$GPRMC,171453.5,A,3239.8941,N,11606.3934,W,66.00,178.20,230410,,*2B
$GPRMC,171457.5,A,3239.8221,N,11606.3803,W,64.60,168.10,230410,,*21
$GPRMC,171501.5,A,3239.7511,N,11606.3461,W,68.60,158.20,230410,,*2C
$GPRMC,171505.5,A,3239.7203,N,11606.2663,W,63.40,129.20,230410,,*22
$GPRMC,171509.5,A,3239.6948,N,11606.1812,W,66.70,113.20,230410,,*2F
$GPRMC,171513.5,A,3239.6649,N,11606.0986,W,67.20,117.80,230410,,*2D
$GPRMC,171517.5,A,3239.6221,N,11606.0239,W,69.60,124.40,230410,,*2A
$GPRMC,171521.5,A,3239.5769,N,11605.9529,W,67.10,130.70,230410,,*26
$GPRMC,171525.5,A,3239.5233,N,11605.9012,W,56.70,141.70,230410,,*27
$GPRMC,171529.5,A,3239.4574,N,11605.8778,W,56.60,160.50,230410,,*24
$GPRMC,171533.5,A,3239.3851,N,11605.8976,W,58.30,187.90,230410,,*2C
$GPRMC,171537.5,A,3239.3215,N,11605.9261,W,55.80,196.10,230410,,*20
$GPRMC,171541.5,A,3239.2584,N,11605.9497,W,55.20,197.00,230410,,*2A
$GPRMC,171545.5,A,3239.2002,N,11605.9789,W,57.30,206.70,230410,,*26
$GPRMC,171549.5,A,3239.1466,N,11606.0205,W,57.60,214.80,230410,,*2D
$GPRMC,171553.5,A,3239.0941,N,11606.0688,W,59.00,216.40,230410,,*28
$GPRMC,171557.5,A,3239.0384,N,11606.1170,W,60.20,216.30,230410,,*21
$GPRMC,171601.5,A,3238.9837,N,11606.1661,W,62.60,216.20,230410,,*2A
$GPRMC,171605.5,A,3238.9283,N,11606.2141,W,60.10,217.30,230410,,*28
$GPRMC,171609.5,A,3238.8737,N,11606.2575,W,58.60,212.70,230410,,*21
$GPRMC,171613.5,A,3238.8158,N,11606.2952,W,58.70,207.90,230410,,*27
$GPRMC,171617.5,A,3238.7566,N,11606.3292,W,58.10,206.50,230410,,*28
$GPRMC,171621.5,A,3238.6973,N,11606.3633,W,58.50,206.80,230410,,*22
$GPRMC,171625.5,A,3238.6387,N,11606.3982,W,59.00,206.60,230410,,*28
$GPRMC,171629.5,A,3238.5799,N,11606.4326,W,59.20,206.70,230410,,*2C
$GPRMC,171633.5,A,3238.5195,N,11606.4686,W,63.60,207.10,230410,,*28
$GPRMC,171637.5,A,3238.4551,N,11606.5074,W,66.70,207.40,230410,,*2A
$GPRMC,171641.5,A,3238.3876,N,11606.5493,W,69.00,210.30,230410,,*20
$GPRMC,171645.5,A,3238.3295,N,11606.6064,W,70.60,222.70,230410,,*27
$GPRMC,171649.5,A,3238.2766,N,11606.6770,W,72.60,230.10,230410,,*26
$GPRMC,171653.5,A,3238.2406,N,11606.7531,W,67.80,237.60,230410,,*24
$GPRMC,171657.5,A,3238.2135,N,11606.8255,W,62.70,242.20,230410,,*23
$GPRMC,171701.5,A,3238.1930,N,11606.9086,W,63.20,248.70,230410,,*29
$GPRMC,171705.5,A,3238.2037,N,11607.0105,W,67.10,261.10,230410,,*28
$GPRMC,171709.5,A,3238.2081,N,11607.1047,W,68.70,264.20,230410,,*20
$GPRMC,171713.5,A,3238.2141,N,11607.1951,W,68.10,264.80,230410,,*24
$GPRMC,171717.5,A,3238.2052,N,11607.2854,W,67.70,263.40,230410,,*26
$GPRMC,171721.5,A,3238.1969,N,11607.3755,W,67.50,263.60,230410,,*2E
$GPRMC,171725.5,A,3238.1869,N,11607.4645,W,67.30,263.60,230410,,*2A
$GPRMC,171729.5,A,3238.1768,N,11607.5538,W,67.70,263.30,230410,,*21
$GPRMC,171733.5,A,3238.1679,N,11607.6430,W,67.40,263.70,230410,,*26
$GPRMC,171737.5,A,3238.1614,N,11607.7308,W,67.20,263.90,230410,,*2C
$GPRMC,171741.5,A,3238.1527,N,11607.8180,W,67.40,263.80,230410,,*24
$GPRMC,171745.5,A,3238.1452,N,11607.9050,W,67.20,264.10,230410,,*26
$GPRMC,171749.5,A,3238.1376,N,11607.9923,W,67.10,263.90,230410,,*2A
$GPRMC,171753.5,A,3238.1299,N,11608.0831,W,67.60,263.70,230410,,*2C
$GPRMC,171757.5,A,3238.1223,N,11608.1722,W,67.70,264.10,230410,,*25
$GPRMC,171801.5,A,3238.1133,N,11608.2623,W,68.70,263.20,230410,,*23
$GPRMC,171805.5,A,3238.1044,N,11608.3511,W,67.90,263.50,230410,,*23
$GPRMC,171809.5,A,3238.0986,N,11608.4380,W,66.80,264.60,230410,,*24
$GPRMC,171813.5,A,3238.0896,N,11608.5260,W,67.30,263.60,230410,,*2C
$GPRMC,171817.5,A,3238.0814,N,11608.6140,W,67.40,263.60,230410,,*27
$GPRMC,171821.5,A,3238.0732,N,11608.7021,W,67.30,263.70,230410,,*28
$GPRMC,171825.5,A,3238.0647,N,11608.7907,W,68.10,263.40,230410,,*2C
$GPRMC,171829.5,A,3238.0569,N,11608.8795,W,68.20,265.10,230410,,*25
$GPRMC,171833.5,A,3238.0573,N,11608.9701,W,68.60,272.20,230410,,*28
$GPRMC,171837.5,A,3238.0664,N,11609.0591,W,68.20,277.00,230410,,*29
$GPRMC,171841.5,A,3238.0802,N,11609.1440,W,67.20,278.70,230410,,*2D
$GPRMC,171845.5,A,3238.0910,N,11609.2315,W,67.30,279.00,230410,,*28
$GPRMC,171849.5,A,3238.1017,N,11609.3182,W,67.20,278.30,230410,,*25
$GPRMC,171853.5,A,3238.1132,N,11609.4045,W,67.00,278.30,230410,,*27
$GPRMC,171857.5,A,3238.1243,N,11609.4928,W,67.60,278.60,230410,,*27
$GPRMC,171901.5,A,3238.1372,N,11609.5816,W,67.60,278.60,230410,,*2B
$GPRMC,171905.5,A,3238.1493,N,11609.6697,W,67.50,278.70,230410,,*21
$GPRMC,171909.5,A,3238.1607,N,11609.7575,W,67.50,278.60,230410,,*2D
$GPRMC,171913.5,A,3238.1729,N,11609.8448,W,67.50,280.90,230410,,*23
$GPRMC,171917.5,A,3238.1919,N,11609.9310,W,67.40,288.40,230410,,*25
$GPRMC,171921.5,A,3238.2189,N,11610.0142,W,67.50,293.00,230410,,*29
$GPRMC,171925.5,A,3238.2518,N,11610.0925,W,66.80,298.90,230410,,*26
$GPRMC,171929.5,A,3238.2931,N,11610.1653,W,66.40,305.20,230410,,*20
$GPRMC,171933.5,A,3238.3408,N,11610.2335,W,65.20,310.90,230410,,*21
$GPRMC,171937.5,A,3238.3887,N,11610.3018,W,67.30,309.60,230410,,*27
$GPRMC,171941.5,A,3238.4373,N,11610.3701,W,67.30,309.60,230410,,*2E
$GPRMC,171945.5,A,3238.4855,N,11610.4379,W,67.50,309.70,230410,,*2E
$GPRMC,171949.5,A,3238.5335,N,11610.5068,W,67.60,308.70,230410,,*2E
$GPRMC,171953.5,A,3238.5755,N,11610.5798,W,67.90,301.70,230410,,*29
$GPRMC,171957.5,A,3238.6075,N,11610.6591,W,67.40,294.10,230410,,*25
$GPRMC,172001.5,A,3238.6377,N,11610.7404,W,67.20,293.80,230410,,*29
$GPRMC,172005.5,A,3238.6677,N,11610.8211,W,67.50,293.80,230410,,*22
$GPRMC,172009.5,A,3238.6975,N,11610.9024,W,67.40,293.80,230410,,*27
$GPRMC,172013.5,A,3238.7277,N,11610.9839,W,67.40,294.00,230410,,*2F
$GPRMC,172020.5,A,3238.7816,N,11611.1259,W,67.70,294.10,230410,,*25
$GPRMC,172024.5,A,3238.8117,N,11611.2069,W,67.70,293.70,230410,,*25
$GPRMC,172028.5,A,3238.8426,N,11611.2888,W,67.40,293.50,230410,,*28
$GPRMC,172032.5,A,3238.8732,N,11611.3701,W,67.00,293.40,230410,,*2F
$GPRMC,172036.5,A,3238.9033,N,11611.4514,W,67.20,293.90,230410,,*22
$GPRMC,172040.5,A,3238.9334,N,11611.5318,W,66.90,293.80,230410,,*27
$GPRMC,172044.5,A,3238.9631,N,11611.6127,W,66.50,294.60,230410,,*2B
$GPRMC,172048.5,A,3238.9983,N,11611.6899,W,66.40,300.90,230410,,*2F
$GPRMC,172052.5,A,3239.0398,N,11611.7635,W,66.90,303.80,230410,,*2A
$GPRMC,172055.5,A,3239.0782,N,11611.8101,W,65.60,312.50,230410,,*2C
$GPRMC,172101.5,A,3239.1584,N,11611.9018,W,66.40,315.60,230410,,*24
$GPRMC,172104.5,A,3239.1994,N,11611.9470,W,67.10,317.30,230410,,*25
$GPRMC,172108.5,A,3239.2550,N,11612.0082,W,67.80,317.10,230410,,*26
$GPRMC,172112.5,A,3239.3110,N,11612.0679,W,67.00,316.60,230410,,*20
$GPRMC,172119.5,A,3239.4056,N,11612.1733,W,66.60,316.60,230410,,*26
$GPRMC,172122.5,A,3239.4518,N,11612.2176,W,67.90,318.20,230410,,*21
$GPRMC,172126.5,A,3239.5048,N,11612.2804,W,68.10,314.20,230410,,*23
$GPRMC,172130.5,A,3239.5570,N,11612.3472,W,68.60,309.80,230410,,*27
$GPRMC,172134.5,A,3239.5974,N,11612.4214,W,68.50,302.80,230410,,*22
$GPRMC,172138.5,A,3239.6310,N,11612.5007,W,67.30,295.80,230410,,*22
$GPRMC,172142.5,A,3239.6585,N,11612.5826,W,67.20,288.90,230410,,*22
$GPRMC,172146.5,A,3239.6782,N,11612.6674,W,67.10,282.90,230410,,*20
$GPRMC,172150.5,A,3239.6912,N,11612.7550,W,68.10,278.30,230410,,*24
$GPRMC,172154.5,A,3239.6976,N,11612.8441,W,68.00,274.10,230410,,*23
$GPRMC,172158.5,A,3239.6999,N,11612.9318,W,66.80,272.70,230410,,*22
$GPRMC,172202.5,A,3239.7027,N,11613.0188,W,67.00,272.70,230410,,*29
$GPRMC,172206.5,A,3239.7061,N,11613.1074,W,67.40,273.00,230410,,*2E
$GPRMC,172210.5,A,3239.7101,N,11613.1952,W,67.40,272.80,230410,,*2A
$GPRMC,172214.5,A,3239.7142,N,11613.2839,W,67.30,273.20,230410,,*2A
$GPRMC,172218.5,A,3239.7182,N,11613.3727,W,67.50,272.70,230410,,*29
$GPRMC,172222.5,A,3239.7172,N,11613.4612,W,68.80,267.70,230410,,*29
$GPRMC,172226.5,A,3239.7019,N,11613.5489,W,67.90,256.20,230410,,*29
$GPRMC,172230.5,A,3239.6820,N,11613.6346,W,67.70,254.80,230410,,*2C
$GPRMC,172234.5,A,3239.6691,N,11613.7219,W,67.30,263.30,230410,,*2D
$GPRMC,172238.5,A,3239.6699,N,11613.8091,W,67.20,271.00,230410,,*25
$GPRMC,172242.5,A,3239.6716,N,11613.8978,W,67.10,271.00,230410,,*23
$GPRMC,172246.5,A,3239.6723,N,11613.9860,W,67.30,270.40,230410,,*2F
$GPRMC,172249.5,A,3239.6735,N,11614.0524,W,67.20,271.40,230410,,*24
$GPRMC,172253.5,A,3239.6786,N,11614.1405,W,67.60,275.90,230410,,*29
$GPRMC,172257.5,A,3239.6978,N,11614.2247,W,66.10,285.60,230410,,*27
$GPRMC,172301.5,A,3239.7237,N,11614.3070,W,67.40,288.90,230410,,*25
$GPRMC,172305.5,A,3239.7499,N,11614.3917,W,68.00,289.30,230410,,*2B
$GPRMC,172309.5,A,3239.7742,N,11614.4752,W,67.20,288.70,230410,,*22
$GPRMC,172313.5,A,3239.7986,N,11614.5597,W,67.70,288.30,230410,,*24
$GPRMC,172317.5,A,3239.8167,N,11614.6455,W,67.30,287.90,230410,,*25
$GPRMC,172321.5,A,3239.8404,N,11614.7301,W,68.20,289.50,230410,,*2B
$GPRMC,172325.5,A,3239.8653,N,11614.8133,W,67.80,289.30,230410,,*20
$GPRMC,172329.5,A,3239.8911,N,11614.8969,W,67.80,289.00,230410,,*21
$GPRMC,172333.5,A,3239.9138,N,11614.9813,W,67.40,288.70,230410,,*2F
$GPRMC,172337.5,A,3239.9373,N,11615.0650,W,67.20,288.60,230410,,*20
$GPRMC,172341.5,A,3239.9609,N,11615.1489,W,67.30,288.40,230410,,*2D
$GPRMC,172345.5,A,3239.9848,N,11615.2332,W,67.20,288.40,230410,,*27
$GPRMC,172349.5,A,3240.0083,N,11615.3165,W,66.80,288.40,230410,,*29
$GPRMC,172353.5,A,3240.0321,N,11615.4010,W,67.60,288.70,230410,,*21
$GPRMC,172357.5,A,3240.0570,N,11615.4855,W,68.00,288.90,230410,,*29
$GPRMC,172401.5,A,3240.0806,N,11615.5699,W,67.60,288.50,230410,,*2B
$GPRMC,172405.5,A,3240.1039,N,11615.6536,W,67.60,288.50,230410,,*2F
$GPRMC,172409.5,A,3240.1275,N,11615.7383,W,67.80,287.90,230410,,*2D
$GPRMC,172413.5,A,3240.1515,N,11615.8229,W,67.50,288.50,230410,,*27
$GPRMC,172417.5,A,3240.1744,N,11615.9070,W,67.30,288.50,230410,,*2C
$GPRMC,172421.5,A,3240.1981,N,11615.9909,W,67.20,289.50,230410,,*29
$GPRMC,172425.5,A,3240.2226,N,11616.0741,W,67.00,289.00,230410,,*27
$GPRMC,172429.5,A,3240.2470,N,11616.1564,W,67.10,289.40,230410,,*2F
$GPRMC,172433.5,A,3240.2691,N,11616.2401,W,67.10,288.10,230410,,*2C
$GPRMC,172437.5,A,3240.2927,N,11616.3245,W,67.30,288.10,230410,,*2F
$GPRMC,172441.5,A,3240.3164,N,11616.4078,W,67.50,288.60,230410,,*2A
$GPRMC,172445.5,A,3240.3404,N,11616.4915,W,67.50,288.70,230410,,*2E
$GPRMC,172449.5,A,3240.3642,N,11616.5748,W,67.50,288.10,230410,,*23
$GPRMC,172453.5,A,3240.3878,N,11616.6584,W,67.60,288.10,230410,,*2D
$GPRMC,172457.5,A,3240.4125,N,11616.7418,W,67.30,288.30,230410,,*2D
$GPRMC,172501.5,A,3240.4379,N,11616.8254,W,67.80,288.80,230410,,*25
$GPRMC,172505.5,A,3240.4626,N,11616.9095,W,67.30,288.60,230410,,*25
$GPRMC,172509.5,A,3240.4880,N,11616.9930,W,67.40,289.00,230410,,*2D
$GPRMC,172513.5,A,3240.5130,N,11617.0775,W,67.50,288.80,230410,,*2A
$GPRMC,172517.5,A,3240.5361,N,11617.1620,W,67.70,288.70,230410,,*25
$GPRMC,172521.5,A,3240.5605,N,11617.2465,W,67.90,288.40,230410,,*2A
$GPRMC,172525.5,A,3240.5844,N,11617.3311,W,67.40,289.70,230410,,*2F
$GPRMC,172529.5,A,3240.6143,N,11617.4122,W,67.10,296.30,230410,,*24
$GPRMC,172533.5,A,3240.6496,N,11617.4895,W,66.70,301.10,230410,,*2D
$GPRMC,172537.5,A,3240.6903,N,11617.5621,W,66.20,305.90,230410,,*21
$GPRMC,172541.5,A,3240.7379,N,11617.6301,W,66.70,310.70,230410,,*2D
$GPRMC,172544.5,A,3240.7760,N,11617.6779,W,67.20,313.40,230410,,*2B
$GPRMC,172548.5,A,3240.8266,N,11617.7434,W,67.00,312.20,230410,,*25
$GPRMC,172552.5,A,3240.8773,N,11617.8089,W,67.30,313.30,230410,,*21
$GPRMC,172556.5,A,3240.9283,N,11617.8728,W,67.00,313.60,230410,,*24
$GPRMC,172600.5,A,3240.9794,N,11617.9373,W,67.00,312.90,230410,,*22
$GPRMC,172604.5,A,3241.0315,N,11618.0019,W,67.30,314.70,230410,,*21
$GPRMC,172608.5,A,3241.0844,N,11618.0644,W,67.20,313.50,230410,,*28
$GPRMC,172612.5,A,3241.1360,N,11618.1288,W,67.50,313.60,230410,,*2E
$GPRMC,172616.5,A,3241.1881,N,11618.1933,W,67.50,313.40,230410,,*27
$GPRMC,172620.5,A,3241.2400,N,11618.2574,W,67.40,313.60,230410,,*2B
$GPRMC,172624.5,A,3241.2911,N,11618.3218,W,67.70,313.10,230410,,*2A
$GPRMC,172628.5,A,3241.3425,N,11618.3861,W,67.10,313.70,230410,,*29
$GPRMC,172632.5,A,3241.3948,N,11618.4512,W,67.80,313.60,230410,,*22
$GPRMC,172636.5,A,3241.4466,N,11618.5164,W,67.90,312.70,230410,,*25
$GPRMC,172640.5,A,3241.4964,N,11618.5812,W,67.20,312.30,230410,,*2C
$GPRMC,172644.5,A,3241.5495,N,11618.6440,W,67.40,314.10,230410,,*20
$GPRMC,172648.5,A,3241.6006,N,11618.7085,W,67.40,313.60,230410,,*2D
$GPRMC,172652.5,A,3241.6506,N,11618.7722,W,66.80,313.20,230410,,*20
$GPRMC,172656.5,A,3241.7027,N,11618.8367,W,67.60,313.90,230410,,*2D
$GPRMC,172700.5,A,3241.7559,N,11618.9021,W,67.90,314.10,230410,,*23
$GPRMC,172704.5,A,3241.8083,N,11618.9656,W,67.40,313.40,230410,,*23
$GPRMC,172708.5,A,3241.8554,N,11619.0302,W,66.80,310.70,230410,,*21
$GPRMC,172712.5,A,3241.9002,N,11619.1002,W,67.40,307.10,230410,,*22
$GPRMC,172716.5,A,3241.9425,N,11619.1742,W,67.20,301.50,230410,,*20
$GPRMC,172720.5,A,3241.9783,N,11619.2512,W,67.30,296.80,230410,,*2D
$GPRMC,172724.5,A,3242.0076,N,11619.3327,W,67.50,290.90,230410,,*2E
$GPRMC,172728.5,A,3242.0315,N,11619.4170,W,67.50,286.60,230410,,*2B
$GPRMC,172732.5,A,3242.0495,N,11619.5038,W,68.00,281.80,230410,,*20
$GPRMC,172736.5,A,3242.0611,N,11619.5915,W,67.90,278.70,230410,,*23
$GPRMC,172740.5,A,3242.0734,N,11619.6803,W,67.90,278.70,230410,,*21
$GPRMC,172744.5,A,3242.0849,N,11619.7683,W,67.70,278.80,230410,,*26
$GPRMC,172751.5,A,3242.1051,N,11619.9229,W,67.70,278.50,230410,,*25
$GPRMC,172755.5,A,3242.1165,N,11620.0096,W,67.20,278.90,230410,,*2B
$GPRMC,172759.5,A,3242.1272,N,11620.0977,W,67.70,279.10,230410,,*28
$GPRMC,172803.5,A,3242.1398,N,11620.1844,W,67.30,279.50,230410,,*2D
$GPRMC,172807.5,A,3242.1525,N,11620.2725,W,67.50,278.90,230410,,*29
$GPRMC,172811.5,A,3242.1620,N,11620.3613,W,67.70,278.20,230410,,*24
$GPRMC,172815.5,A,3242.1727,N,11620.4498,W,67.90,278.80,230410,,*24
$GPRMC,172819.5,A,3242.1851,N,11620.5381,W,67.70,279.60,230410,,*29
$GPRMC,172823.5,A,3242.1971,N,11620.6263,W,67.30,279.10,230410,,*2E
$GPRMC,172827.5,A,3242.2079,N,11620.7134,W,66.50,278.80,230410,,*27
$GPRMC,172831.5,A,3242.2198,N,11620.8004,W,67.00,278.80,230410,,*27
$GPRMC,172835.5,A,3242.2306,N,11620.8873,W,66.80,279.00,230410,,*2E
$GPRMC,172839.5,A,3242.2420,N,11620.9742,W,66.80,279.20,230410,,*2F
$GPRMC,172843.5,A,3242.2538,N,11621.0613,W,67.00,278.80,230410,,*25
$GPRMC,172847.5,A,3242.2653,N,11621.1491,W,67.30,278.90,230410,,*24
$GPRMC,172851.5,A,3242.2769,N,11621.2369,W,67.30,278.60,230410,,*27
$GPRMC,172855.5,A,3242.2887,N,11621.3244,W,67.60,279.00,230410,,*21
$GPRMC,172859.5,A,3242.3004,N,11621.4124,W,67.90,279.00,230410,,*22
$GPRMC,172903.5,A,3242.3126,N,11621.5005,W,67.80,279.60,230410,,*29
$GPRMC,172907.5,A,3242.3263,N,11621.5880,W,67.70,282.60,230410,,*21
$GPRMC,172911.5,A,3242.3469,N,11621.6730,W,67.60,287.80,230410,,*27
$GPRMC,172915.5,A,3242.3704,N,11621.7591,W,71.60,288.00,230410,,*23
$GPRMC,172919.5,A,3242.3954,N,11621.8504,W,72.90,287.80,230410,,*2C
$GPRMC,172923.5,A,3242.4182,N,11621.9393,W,68.80,286.50,230410,,*2E
$GPRMC,172927.5,A,3242.4409,N,11622.0239,W,67.40,288.00,230410,,*2F
$GPRMC,172931.5,A,3242.4642,N,11622.1080,W,67.40,288.00,230410,,*24
$GPRMC,172935.5,A,3242.4872,N,11622.1924,W,67.40,288.00,230410,,*2A
$GPRMC,172939.5,A,3242.5103,N,11622.2760,W,64.20,288.10,230410,,*21
$GPRMC,172943.5,A,3242.5326,N,11622.3546,W,62.50,288.10,230410,,*2F
$GPRMC,172947.5,A,3242.5539,N,11622.4309,W,60.40,288.10,230410,,*2A
$GPRMC,172951.5,A,3242.5749,N,11622.5056,W,60.40,290.00,230410,,*28
$GPRMC,172955.5,A,3242.6002,N,11622.5805,W,63.00,293.40,230410,,*29
$GPRMC,172959.5,A,3242.6305,N,11622.6586,W,66.70,296.40,230410,,*23
$GPRMC,173003.5,A,3242.6669,N,11622.7374,W,68.00,300.00,230410,,*22
$GPRMC,173007.5,A,3242.7075,N,11622.8133,W,68.20,304.00,230410,,*24
$GPRMC,173011.5,A,3242.7519,N,11622.8856,W,67.90,306.70,230410,,*27
$GPRMC,173015.5,A,3242.7995,N,11622.9537,W,67.30,310.60,230410,,*2C
$GPRMC,173019.5,A,3242.8501,N,11623.0202,W,67.10,312.40,230410,,*25
$GPRMC,173023.5,A,3242.9030,N,11623.0823,W,66.70,314.30,230410,,*25
$GPRMC,173027.5,A,3242.9575,N,11623.1452,W,67.10,314.90,230410,,*23
$GPRMC,173031.5,A,3243.0125,N,11623.2078,W,67.80,315.30,230410,,*20
$GPRMC,173035.5,A,3243.0627,N,11623.2705,W,67.30,311.40,230410,,*24
$GPRMC,173039.5,A,3243.1103,N,11623.3385,W,67.10,306.40,230410,,*21
$GPRMC,173043.5,A,3243.1510,N,11623.4136,W,68.80,300.90,230410,,*2A
$GPRMC,173047.5,A,3243.1892,N,11623.4909,W,67.00,300.50,230410,,*26
$GPRMC,173051.5,A,3243.2270,N,11623.5671,W,66.80,300.70,230410,,*2E
$GPRMC,173055.5,A,3243.2648,N,11623.6432,W,67.20,300.70,230410,,*28
$GPRMC,173059.5,A,3243.3029,N,11623.7193,W,67.00,300.70,230410,,*29
$GPRMC,173103.5,A,3243.3410,N,11623.7960,W,66.80,300.90,230410,,*2A
$GPRMC,173107.5,A,3243.3795,N,11623.8721,W,67.00,301.20,230410,,*27
$GPRMC,173111.5,A,3243.4192,N,11623.9487,W,66.80,301.60,230410,,*25
$GPRMC,173115.5,A,3243.4563,N,11624.0254,W,66.70,298.80,230410,,*2D
$GPRMC,173119.5,A,3243.4897,N,11624.1042,W,68.50,295.30,230410,,*29
$GPRMC,173123.5,A,3243.5211,N,11624.1847,W,67.20,293.30,230410,,*26
$GPRMC,173127.5,A,3243.5495,N,11624.2672,W,67.30,290.50,230410,,*27
$GPRMC,173131.5,A,3243.5739,N,11624.3510,W,67.10,287.70,230410,,*25
$GPRMC,173135.5,A,3243.5946,N,11624.4365,W,67.20,285.00,230410,,*22
$GPRMC,173139.5,A,3243.6123,N,11624.5236,W,67.20,282.90,230410,,*2E
$GPRMC,173143.5,A,3243.6268,N,11624.6106,W,67.30,279.80,230410,,*28
$GPRMC,173147.5,A,3243.6395,N,11624.6981,W,67.50,279.40,230410,,*22
$GPRMC,173151.5,A,3243.6520,N,11624.7859,W,67.50,279.50,230410,,*29
$GPRMC,173155.5,A,3243.6647,N,11624.8740,W,67.40,280.10,230410,,*24
$GPRMC,173159.5,A,3243.6775,N,11624.9620,W,67.40,280.00,230410,,*2F
$GPRMC,173203.5,A,3243.6906,N,11625.0499,W,67.40,280.30,230410,,*22
$GPRMC,173207.5,A,3243.7035,N,11625.1376,W,67.40,278.40,230410,,*29
$GPRMC,173211.5,A,3243.7112,N,11625.2257,W,66.90,274.40,230410,,*2B
$GPRMC,173215.5,A,3243.7112,N,11625.3145,W,67.40,267.90,230410,,*2D
$GPRMC,173219.5,A,3243.7048,N,11625.4030,W,67.80,263.70,230410,,*2D
$GPRMC,173223.5,A,3243.6904,N,11625.4898,W,67.60,257.50,230410,,*25
$GPRMC,173227.5,A,3243.6702,N,11625.5761,W,67.50,253.80,230410,,*2B
$GPRMC,173231.5,A,3243.6498,N,11625.6620,W,67.40,254.40,230410,,*21
$GPRMC,173235.5,A,3243.6295,N,11625.7474,W,67.40,253.90,230410,,*26
$GPRMC,173239.5,A,3243.6090,N,11625.8326,W,67.30,254.10,230410,,*2A
$GPRMC,173243.5,A,3243.5889,N,11625.9176,W,67.50,254.20,230410,,*27
$GPRMC,173247.5,A,3243.5677,N,11626.0043,W,69.20,254.30,230410,,*29
$GPRMC,173251.5,A,3243.5530,N,11626.0905,W,67.50,259.10,230410,,*23
$GPRMC,173255.5,A,3243.5409,N,11626.1792,W,67.80,260.90,230410,,*22
$GPRMC,173259.5,A,3243.5336,N,11626.2672,W,67.30,263.70,230410,,*2F
$GPRMC,173303.5,A,3243.5251,N,11626.3551,W,67.20,263.80,230410,,*2C
$GPRMC,173307.5,A,3243.5188,N,11626.4450,W,68.00,265.00,230410,,*2B
$GPRMC,173311.5,A,3243.5103,N,11626.5339,W,67.10,263.70,230410,,*29
$GPRMC,173315.5,A,3243.5012,N,11626.6209,W,67.30,261.30,230410,,*29
$GPRMC,173319.5,A,3243.4840,N,11626.7068,W,67.70,255.30,230410,,*2C
$GPRMC,173323.5,A,3243.4635,N,11626.7929,W,67.60,252.60,230410,,*26
$GPRMC,173327.5,A,3243.4379,N,11626.8749,W,67.40,248.20,230410,,*25
$GPRMC,173331.5,A,3243.4066,N,11626.9540,W,67.30,243.70,230410,,*2C
$GPRMC,173335.5,A,3243.3714,N,11627.0319,W,67.10,240.90,230410,,*20
$GPRMC,173339.5,A,3243.3303,N,11627.1064,W,67.10,236.10,230410,,*2F
$GPRMC,173343.5,A,3243.2861,N,11627.1797,W,68.10,234.90,230410,,*22
$GPRMC,173347.5,A,3243.2428,N,11627.2532,W,67.60,236.00,230410,,*2A
$GPRMC,173351.5,A,3243.2054,N,11627.3286,W,67.30,240.80,230410,,*27
$GPRMC,173355.5,A,3243.1739,N,11627.4111,W,68.10,246.00,230410,,*25
$GPRMC,173359.5,A,3243.1502,N,11627.4945,W,67.20,252.90,230410,,*2A
$GPRMC,173403.5,A,3243.1336,N,11627.5800,W,67.80,257.70,230410,,*23
$GPRMC,173407.5,A,3243.1215,N,11627.6681,W,67.80,261.60,230410,,*27
$GPRMC,173411.5,A,3243.1146,N,11627.7576,W,68.20,264.90,230410,,*20
$GPRMC,173415.5,A,3243.1081,N,11627.8461,W,67.70,265.30,230410,,*27
$GPRMC,173419.5,A,3243.1026,N,11627.9349,W,67.40,265.50,230410,,*2F
$GPRMC,173423.5,A,3243.1001,N,11628.0227,W,67.00,267.60,230410,,*29
$GPRMC,173427.5,A,3243.1057,N,11628.1110,W,66.90,275.80,230410,,*2D
$GPRMC,173431.5,A,3243.1204,N,11628.1963,W,66.60,284.80,230410,,*23
$GPRMC,173435.5,A,3243.1474,N,11628.2778,W,66.80,294.30,230410,,*25
$GPRMC,173439.5,A,3243.1842,N,11628.3550,W,67.40,303.00,230410,,*28
$GPRMC,173443.5,A,3243.2302,N,11628.4249,W,67.30,311.70,230410,,*22
$GPRMC,173447.5,A,3243.2843,N,11628.4861,W,67.50,319.80,230410,,*29
$GPRMC,173451.5,A,3243.3472,N,11628.5357,W,67.20,329.10,230410,,*23
$GPRMC,173455.5,A,3243.4155,N,11628.5762,W,67.70,333.00,230410,,*2D
$GPRMC,173459.5,A,3243.4833,N,11628.6161,W,67.60,333.00,230410,,*2F
$GPRMC,173503.5,A,3243.5508,N,11628.6559,W,67.70,332.90,230410,,*23
$GPRMC,173507.5,A,3243.6176,N,11628.6953,W,66.00,334.50,230410,,*23
$GPRMC,173511.5,A,3243.6866,N,11628.7286,W,67.20,340.10,230410,,*2A
$GPRMC,173515.5,A,3243.7543,N,11628.7533,W,63.30,343.90,230410,,*22
$GPRMC,173519.5,A,3243.8240,N,11628.7703,W,63.90,349.90,230410,,*24
$GPRMC,173523.5,A,3243.8953,N,11628.7799,W,66.20,356.20,230410,,*2C
$GPRMC,173527.5,A,3243.9698,N,11628.7841,W,65.80,358.20,230410,,*2C
$GPRMC,173531.5,A,3244.0409,N,11628.7856,W,64.70,359.20,230410,,*26
$GPRMC,173535.5,A,3244.1146,N,11628.7878,W,66.60,359.00,230410,,*20
$GPRMC,173539.5,A,3244.1917,N,11628.7890,W,69.40,358.80,230410,,*22
$GPRMC,173547.5,A,3244.3473,N,11628.7939,W,69.60,358.70,230410,,*29
$GPRMC,173551.5,A,3244.4249,N,11628.7951,W,70.00,359.00,230410,,*20
$GPRMC,173555.5,A,3244.5039,N,11628.7945,W,71.20,359.60,230410,,*20
$GPRMC,173559.5,A,3244.5821,N,11628.7989,W,68.80,357.40,230410,,*23
$GPRMC,173603.5,A,3244.6568,N,11628.8045,W,67.40,355.10,230410,,*2E
$GPRMC,173607.5,A,3244.7306,N,11628.8149,W,66.20,352.10,230410,,*28
$GPRMC,173611.5,A,3244.8046,N,11628.8282,W,67.40,350.90,230410,,*2E
$GPRMC,173615.5,A,3244.8790,N,11628.8415,W,67.20,351.00,230410,,*20
$GPRMC,173619.5,A,3244.9512,N,11628.8531,W,66.50,351.30,230410,,*27
$GPRMC,173623.5,A,3245.0254,N,11628.8683,W,66.30,351.00,230410,,*2C
$GPRMC,173627.5,A,3245.0961,N,11628.8805,W,65.40,351.10,230410,,*20
$GPRMC,173631.5,A,3245.1676,N,11628.8950,W,64.70,351.10,230410,,*2C
$GPRMC,173635.5,A,3245.2376,N,11628.9078,W,64.80,350.90,230410,,*2A
$GPRMC,173639.5,A,3245.3095,N,11628.9218,W,64.30,350.70,230410,,*28
$GPRMC,173643.5,A,3245.3782,N,11628.9352,W,62.30,351.70,230410,,*2C
$GPRMC,173647.5,A,3245.4417,N,11628.9445,W,56.00,353.30,230410,,*23
$GPRMC,173651.5,A,3245.5027,N,11628.9513,W,54.60,356.60,230410,,*24
$GPRMC,173655.5,A,3245.5635,N,11628.9519,W,53.60,359.90,230410,,*28
$GPRMC,173659.5,A,3245.6164,N,11628.9505,W,46.10,0.90,230410,,*25
$GPRMC,173703.5,A,3245.6556,N,11628.9511,W,36.10,354.10,230410,,*26
$GPRMC,173707.5,A,3245.6662,N,11628.9549,W,15.10,342.60,230410,,*2A
$GPRMC,173711.5,A,3245.6552,N,11628.9681,W,16.50,257.80,230410,,*26
$GPRMC,173715.5,A,3245.6445,N,11629.0002,W,31.80,253.30,230410,,*27
$GPRMC,173719.5,A,3245.6318,N,11629.0482,W,41.70,253.30,230410,,*20
$GPRMC,173723.5,A,3245.6190,N,11629.1029,W,42.80,254.00,230410,,*27
$GPRMC,173727.5,A,3245.6053,N,11629.1563,W,41.60,253.30,230410,,*2F
$GPRMC,173731.5,A,3245.5918,N,11629.2057,W,37.80,253.50,230410,,*25
$GPRMC,173735.5,A,3245.5848,N,11629.2449,W,24.70,258.30,230410,,*2E
$GPRMC,173739.5,A,3245.5818,N,11629.2584,W,7.70,265.70,230410,,*1C
$GPRMC,173743.5,A,3245.5939,N,11629.2661,W,14.80,332.40,230410,,*26
$GPRMC,173747.5,A,3245.6163,N,11629.2773,W,21.30,338.10,230410,,*26
$GPRMC,173751.5,A,3245.6597,N,11629.2925,W,34.50,340.50,230410,,*2A
$GPRMC,173755.5,A,3245.7183,N,11629.3104,W,48.40,342.70,230410,,*2E
$GPRMC,173759.5,A,3245.7843,N,11629.3346,W,56.30,341.70,230410,,*28
$GPRMC,173803.5,A,3245.8475,N,11629.3566,W,60.20,342.50,230410,,*2F
$GPRMC,173807.5,A,3245.9129,N,11629.3839,W,62.50,339.50,230410,,*28
$GPRMC,173811.5,A,3245.9781,N,11629.4160,W,63.40,337.50,230410,,*27
$GPRMC,173815.5,A,3246.0423,N,11629.4485,W,62.50,337.60,230410,,*2F
$GPRMC,173819.5,A,3246.1075,N,11629.4803,W,62.70,337.70,230410,,*24
$GPRMC,173823.5,A,3246.1717,N,11629.5116,W,61.80,337.50,230410,,*2C
$GPRMC,173827.5,A,3246.2353,N,11629.5419,W,61.10,338.40,230410,,*22
$GPRMC,173831.5,A,3246.2996,N,11629.5634,W,61.80,346.10,230410,,*2E
$GPRMC,173835.5,A,3246.3677,N,11629.5801,W,62.70,348.50,230410,,*25
$GPRMC,173839.5,A,3246.4365,N,11629.5963,W,63.40,349.00,230410,,*2B
$GPRMC,173843.5,A,3246.5065,N,11629.6118,W,64.10,349.00,230410,,*21
$GPRMC,173847.5,A,3246.5775,N,11629.6274,W,64.50,350.40,230410,,*22
$GPRMC,173851.5,A,3246.6473,N,11629.6308,W,62.40,359.70,230410,,*24
$GPRMC,173855.5,A,3246.7154,N,11629.6315,W,60.30,358.20,230410,,*2C
$GPRMC,173859.5,A,3246.7818,N,11629.6396,W,58.90,353.00,230410,,*22
$GPRMC,173903.5,A,3246.8459,N,11629.6490,W,59.50,352.20,230410,,*25
$GPRMC,173907.5,A,3246.9118,N,11629.6615,W,60.30,351.80,230410,,*2A
$GPRMC,173911.5,A,3246.9767,N,11629.6764,W,59.50,347.40,230410,,*23
$GPRMC,173915.5,A,3247.0429,N,11629.6987,W,62.40,344.40,230410,,*2F
$GPRMC,173919.5,A,3247.1092,N,11629.7194,W,63.10,344.80,230410,,*25
$GPRMC,173923.5,A,3247.1743,N,11629.7406,W,60.30,344.60,230410,,*26
$GPRMC,173927.5,A,3247.2288,N,11629.7626,W,52.40,338.00,230410,,*28
$GPRMC,173931.5,A,3247.2705,N,11629.8055,W,48.40,319.50,230410,,*2F
$GPRMC,173935.5,A,3247.3103,N,11629.8403,W,48.00,328.40,230410,,*2A
$GPRMC,173939.5,A,3247.3639,N,11629.8503,W,49.30,352.30,230410,,*21
$GPRMC,173943.5,A,3247.4224,N,11629.8265,W,54.10,11.70,230410,,*1A
$GPRMC,173947.5,A,3247.4797,N,11629.8091,W,54.20,11.70,230410,,*19
$GPRMC,173951.5,A,3247.5342,N,11629.7984,W,49.80,2.60,230410,,*24
$GPRMC,173955.5,A,3247.5890,N,11629.8055,W,49.80,350.20,230410,,*2E
$GPRMC,173959.5,A,3247.6448,N,11629.8258,W,53.80,344.20,230410,,*29
$GPRMC,174003.5,A,3247.7052,N,11629.8407,W,56.40,353.80,230410,,*2F
$GPRMC,174007.5,A,3247.7647,N,11629.8454,W,52.60,354.90,230410,,*2F
$GPRMC,174011.5,A,3247.8150,N,11629.8596,W,47.30,343.70,230410,,*20
$GPRMC,174015.5,A,3247.8511,N,11629.8874,W,37.40,331.30,230410,,*25
$GPRMC,174019.5,A,3247.8799,N,11629.9048,W,27.80,332.20,230410,,*22
$GPRMC,174023.5,A,3247.8965,N,11629.9177,W,16.30,332.80,230410,,*28
$GPRMC,174027.5,A,3247.9060,N,11629.9235,W,9.50,332.80,230410,,*1C
$GPRMC,174039.5,A,3247.9177,N,11629.9348,W,9.40,330.70,230410,,*13
$GPRMC,174043.5,A,3247.9363,N,11629.9484,W,23.50,328.20,230410,,*2B
$GPRMC,174047.5,A,3247.9660,N,11629.9715,W,33.20,324.00,230410,,*2A
$GPRMC,174051.5,A,3247.9970,N,11630.0057,W,40.10,314.60,230410,,*21
$GPRMC,174055.5,A,3248.0295,N,11630.0483,W,46.10,309.60,230410,,*24
$GPRMC,174059.5,A,3248.0616,N,11630.1005,W,49.50,302.70,230410,,*2D
$GPRMC,174103.5,A,3248.0929,N,11630.1553,W,50.60,307.30,230410,,*2C
$GPRMC,174107.5,A,3248.1311,N,11630.2049,W,50.90,317.30,230410,,*2B
$GPRMC,174111.5,A,3248.1746,N,11630.2484,W,51.10,322.30,230410,,*20
$GPRMC,174115.5,A,3248.2171,N,11630.2845,W,46.50,323.80,230410,,*2C
$GPRMC,174119.5,A,3248.2528,N,11630.3258,W,45.30,311.30,230410,,*20
$GPRMC,174123.5,A,3248.2818,N,11630.3739,W,45.20,301.70,230410,,*21
$GPRMC,174127.5,A,3248.3088,N,11630.4211,W,44.70,308.70,230410,,*20
$GPRMC,174131.5,A,3248.3427,N,11630.4594,W,42.90,323.70,230410,,*2D
$GPRMC,174135.5,A,3248.3831,N,11630.4924,W,43.90,325.20,230410,,*27
$GPRMC,174139.5,A,3248.4244,N,11630.5277,W,45.30,323.70,230410,,*27
$GPRMC,174143.5,A,3248.4643,N,11630.5687,W,46.70,319.20,230410,,*29
$GPRMC,174147.5,A,3248.5026,N,11630.6087,W,44.50,316.90,230410,,*28
$GPRMC,174151.5,A,3248.5358,N,11630.6488,W,42.90,313.30,230410,,*2B
$GPRMC,174155.5,A,3248.5656,N,11630.6864,W,41.40,315.40,230410,,*25
$GPRMC,174159.5,A,3248.6027,N,11630.7168,W,40.60,321.90,230410,,*27
$GPRMC,174203.5,A,3248.6333,N,11630.7106,W,34.20,345.50,230410,,*2C
$GPRMC,174207.5,A,3248.6708,N,11630.6765,W,35.60,12.10,230410,,*16
$GPRMC,174211.5,A,3248.7008,N,11630.6336,W,31.90,24.70,230410,,*1D
$GPRMC,174215.5,A,3248.7289,N,11630.6186,W,26.50,18.90,230410,,*10
$GPRMC,174219.5,A,3248.7558,N,11630.6084,W,25.90,18.20,230410,,*10
$GPRMC,174223.5,A,3248.7618,N,11630.6231,W,17.10,356.90,230410,,*29
$GPRMC,174227.5,A,3248.7576,N,11630.6722,W,18.20,303.20,230410,,*26
$GPRMC,174231.5,A,3248.7484,N,11630.7248,W,25.20,278.20,230410,,*26
$GPRMC,174235.5,A,3248.7417,N,11630.8025,W,38.10,266.60,230410,,*2A
$GPRMC,174239.5,A,3248.7530,N,11630.9015,W,48.00,270.70,230410,,*20
$GPRMC,174243.5,A,3248.7857,N,11631.0098,W,60.30,278.00,230410,,*2A
$GPRMC,174247.5,A,3248.8154,N,11631.1077,W,62.70,281.20,230410,,*29
$GPRMC,174251.5,A,3248.8409,N,11631.2162,W,67.00,285.20,230410,,*23
$GPRMC,174255.5,A,3248.8694,N,11631.3110,W,65.70,288.50,230410,,*2A
$GPRMC,174259.5,A,3248.8989,N,11631.3947,W,64.30,292.50,230410,,*21
$GPRMC,174303.5,A,3248.9326,N,11631.4734,W,65.90,300.20,230410,,*2A
$GPRMC,174307.5,A,3248.9733,N,11631.5486,W,65.90,301.20,230410,,*24
$GPRMC,174311.5,A,3249.0098,N,11631.6243,W,66.10,298.70,230410,,*2E
$GPRMC,174315.5,A,3249.0441,N,11631.7032,W,68.00,296.90,230410,,*20
$GPRMC,174319.5,A,3249.0712,N,11631.7841,W,67.20,292.20,230410,,*27
$GPRMC,174323.5,A,3249.0999,N,11631.8721,W,67.20,287.70,230410,,*24
$GPRMC,174327.5,A,3249.1164,N,11631.9581,W,67.40,282.50,230410,,*23
$GPRMC,174331.5,A,3249.1299,N,11632.0468,W,67.30,278.40,230410,,*2A
$GPRMC,174335.5,A,3249.1377,N,11632.1347,W,67.80,274.60,230410,,*21
$GPRMC,174339.5,A,3249.1395,N,11632.2232,W,67.90,271.00,230410,,*23
$GPRMC,174343.5,A,3249.1382,N,11632.3127,W,68.30,267.80,230410,,*24
$GPRMC,174347.5,A,3249.1299,N,11632.4006,W,67.20,264.00,230410,,*2B
$GPRMC,174351.5,A,3249.1233,N,11632.4895,W,67.60,265.60,230410,,*2D
$GPRMC,174355.5,A,3249.1252,N,11632.5776,W,67.70,273.20,230410,,*2F
$GPRMC,174359.5,A,3249.1364,N,11632.6653,W,67.00,281.00,230410,,*2A
$GPRMC,174403.5,A,3249.1597,N,11632.7510,W,67.30,289.30,230410,,*25
$GPRMC,174407.5,A,3249.1919,N,11632.8311,W,67.10,296.60,230410,,*2A
$GPRMC,174411.5,A,3249.2316,N,11632.9088,W,68.20,299.70,230410,,*2B
$GPRMC,174415.5,A,3249.2697,N,11632.9862,W,67.30,300.00,230410,,*27
$GPRMC,174419.5,A,3249.3079,N,11633.0614,W,66.70,300.60,230410,,*28
$GPRMC,174423.5,A,3249.3437,N,11633.1384,W,66.60,296.90,230410,,*22
$GPRMC,174427.5,A,3249.3709,N,11633.2207,W,67.30,289.60,230410,,*24
$GPRMC,174431.5,A,3249.3870,N,11633.3051,W,67.10,281.10,230410,,*2F
$GPRMC,174435.5,A,3249.3932,N,11633.3976,W,69.70,271.60,230410,,*20
$GPRMC,174439.5,A,3249.3956,N,11633.4885,W,69.00,271.40,230410,,*21
$GPRMC,174443.5,A,3249.3966,N,11633.5798,W,68.80,270.90,230410,,*28
$GPRMC,174447.5,A,3249.3970,N,11633.6692,W,68.50,270.80,230410,,*2F
$GPRMC,174451.5,A,3249.3962,N,11633.7577,W,67.00,270.50,230410,,*25
$GPRMC,174455.5,A,3249.3956,N,11633.8452,W,67.00,268.50,230410,,*26
$GPRMC,174459.5,A,3249.3882,N,11633.9333,W,66.60,262.40,230410,,*2F
$GPRMC,174503.5,A,3249.3699,N,11634.0192,W,65.50,253.30,230410,,*27
$GPRMC,174507.5,A,3249.3420,N,11634.0985,W,66.20,245.60,230410,,*2B
$GPRMC,174511.5,A,3249.3076,N,11634.1759,W,66.70,242.70,230410,,*26
$GPRMC,174515.5,A,3249.2763,N,11634.2557,W,67.20,247.00,230410,,*29
$GPRMC,174519.5,A,3249.2526,N,11634.3404,W,67.70,255.00,230410,,*26
$GPRMC,174523.5,A,3249.2402,N,11634.4286,W,68.40,262.60,230410,,*2D
$GPRMC,174527.5,A,3249.2352,N,11634.5203,W,68.60,266.10,230410,,*26
$GPRMC,174531.5,A,3249.2294,N,11634.6106,W,68.30,267.50,230410,,*2F
$GPRMC,174535.5,A,3249.2243,N,11634.7007,W,67.50,267.30,230410,,*2F
$GPRMC,174539.5,A,3249.2176,N,11634.7894,W,67.50,267.50,230410,,*22
$GPRMC,174543.5,A,3249.2161,N,11634.8776,W,67.50,268.80,230410,,*27
$GPRMC,174547.5,A,3249.2137,N,11634.9670,W,67.70,268.10,230410,,*2D
$GPRMC,174551.5,A,3249.2121,N,11635.0550,W,67.50,269.60,230410,,*20
$GPRMC,174555.5,A,3249.2233,N,11635.1422,W,67.20,278.10,230410,,*21
$GPRMC,174559.5,A,3249.2402,N,11635.2285,W,67.80,283.20,230410,,*2C
$GPRMC,174603.5,A,3249.2604,N,11635.3158,W,68.20,285.20,230410,,*25
$GPRMC,174607.5,A,3249.2790,N,11635.4030,W,68.30,285.00,230410,,*26
$GPRMC,174611.5,A,3249.2990,N,11635.4879,W,68.00,284.60,230410,,*2E
$GPRMC,174615.5,A,3249.3176,N,11635.5757,W,68.20,284.80,230410,,*25
$GPRMC,174619.5,A,3249.3376,N,11635.6606,W,67.90,284.70,230410,,*26
$GPRMC,174623.5,A,3249.3551,N,11635.7454,W,67.20,284.50,230410,,*21
$GPRMC,174627.5,A,3249.3715,N,11635.8319,W,67.40,284.40,230410,,*21
$GPRMC,174631.5,A,3249.3919,N,11635.9195,W,67.90,283.90,230410,,*24
$GPRMC,174635.5,A,3249.4090,N,11636.0076,W,68.10,284.00,230410,,*20
$GPRMC,174639.5,A,3249.4263,N,11636.0952,W,67.70,283.80,230410,,*2B
$GPRMC,174643.5,A,3249.4454,N,11636.1822,W,68.30,283.90,230410,,*29
$GPRMC,174647.5,A,3249.4642,N,11636.2697,W,68.30,283.60,230410,,*24
$GPRMC,174651.5,A,3249.4791,N,11636.3584,W,68.70,280.80,230410,,*25
$GPRMC,174655.5,A,3249.4888,N,11636.4470,W,68.60,276.60,230410,,*2D
$GPRMC,174659.5,A,3249.4934,N,11636.5345,W,68.90,272.80,230410,,*22
$GPRMC,174703.5,A,3249.4951,N,11636.6258,W,68.80,270.30,230410,,*29
$GPRMC,174707.5,A,3249.4879,N,11636.7163,W,68.80,264.90,230410,,*23
$GPRMC,174711.5,A,3249.4753,N,11636.8060,W,67.80,263.10,230410,,*2E
$GPRMC,174715.5,A,3249.4649,N,11636.8951,W,67.60,263.30,230410,,*27
$GPRMC,174719.5,A,3249.4542,N,11636.9837,W,68.40,263.40,230410,,*29
$GPRMC,174723.5,A,3249.4426,N,11637.0768,W,69.40,263.50,230410,,*2E
$GPRMC,174727.5,A,3249.4401,N,11637.1654,W,68.80,267.00,230410,,*2C
$GPRMC,174731.5,A,3249.4589,N,11637.2529,W,68.60,275.80,230410,,*25
$GPRMC,174735.5,A,3249.4933,N,11637.3336,W,67.30,290.50,230410,,*29
$GPRMC,174739.5,A,3249.5352,N,11637.4060,W,66.20,300.10,230410,,*22
$GPRMC,174743.5,A,3249.5816,N,11637.4757,W,66.40,308.90,230410,,*21
$GPRMC,174747.5,A,3249.6414,N,11637.5343,W,66.80,316.30,230410,,*21
$GPRMC,174751.5,A,3249.7031,N,11637.5826,W,65.70,326.70,230410,,*27
$GPRMC,174755.5,A,3249.7662,N,11637.6261,W,66.70,328.40,230410,,*27
$GPRMC,174759.5,A,3249.8283,N,11637.6726,W,67.50,325.10,230410,,*22
$GPRMC,174803.5,A,3249.8868,N,11637.7307,W,68.20,318.60,230410,,*2A
$GPRMC,174807.5,A,3249.9377,N,11637.7959,W,68.80,311.80,230410,,*26
$GPRMC,174811.5,A,3249.9813,N,11637.8695,W,68.60,305.80,230410,,*23
$GPRMC,174815.5,A,3250.0274,N,11637.9511,W,72.50,300.30,230410,,*25
$GPRMC,174819.5,A,3250.0638,N,11638.0372,W,73.30,297.30,230410,,*28
$GPRMC,174823.5,A,3250.0853,N,11638.1196,W,68.70,291.90,230410,,*29
$GPRMC,174827.5,A,3250.1101,N,11638.2022,W,67.60,290.80,230410,,*21
$GPRMC,174831.5,A,3250.1353,N,11638.2863,W,67.80,290.40,230410,,*2C
$GPRMC,174835.5,A,3250.1519,N,11638.3692,W,68.40,288.40,230410,,*2B
$GPRMC,174839.5,A,3250.1702,N,11638.4524,W,66.80,285.90,230410,,*24
$GPRMC,174843.5,A,3250.1852,N,11638.5349,W,66.00,283.70,230410,,*2F
$GPRMC,174847.5,A,3250.1972,N,11638.6128,W,64.60,281.50,230410,,*2A
$GPRMC,174851.5,A,3250.2144,N,11638.6961,W,65.70,282.20,230410,,*22
$GPRMC,174855.5,A,3250.2419,N,11638.7924,W,68.50,283.20,230410,,*25
$GPRMC,174859.5,A,3250.2585,N,11638.8875,W,72.20,282.30,230410,,*2B
$GPRMC,174903.5,A,3250.2715,N,11638.9736,W,67.10,280.60,230410,,*27
$GPRMC,174907.5,A,3250.2904,N,11639.0588,W,66.30,280.90,230410,,*2E
$GPRMC,174911.5,A,3250.3114,N,11639.1424,W,68.20,276.40,230410,,*2C
$GPRMC,174915.5,A,3250.3105,N,11639.2336,W,69.00,270.10,230410,,*2F
$GPRMC,174919.5,A,3250.2943,N,11639.3099,W,67.20,261.40,230410,,*26
$GPRMC,174923.5,A,3250.2791,N,11639.3933,W,67.20,256.70,230410,,*20
$GPRMC,174927.5,A,3250.2636,N,11639.4823,W,67.30,256.10,230410,,*28
$GPRMC,174931.5,A,3250.2461,N,11639.5706,W,68.00,258.60,230410,,*23
$GPRMC,174935.5,A,3250.2437,N,11639.6602,W,67.30,268.20,230410,,*29
$GPRMC,174939.5,A,3250.2521,N,11639.7517,W,65.70,277.50,230410,,*2A
$GPRMC,174943.5,A,3250.2684,N,11639.8379,W,66.40,282.30,230410,,*26
$GPRMC,174947.5,A,3250.2926,N,11639.9289,W,68.60,284.70,230410,,*24
$GPRMC,174951.5,A,3250.3122,N,11640.0176,W,70.10,283.70,230410,,*23
$GPRMC,174955.5,A,3250.3139,N,11640.1020,W,67.00,274.00,230410,,*26
$GPRMC,174959.5,A,3250.3181,N,11640.1912,W,67.40,269.70,230410,,*2E
$GPRMC,175003.5,A,3250.3129,N,11640.2793,W,66.90,266.70,230410,,*2C
$GPRMC,175007.5,A,3250.2905,N,11640.3610,W,66.60,258.00,230410,,*21
$GPRMC,175011.5,A,3250.2708,N,11640.4450,W,67.30,257.80,230410,,*27
$GPRMC,175015.5,A,3250.2678,N,11640.5421,W,69.10,264.00,230410,,*26
$GPRMC,175019.5,A,3250.2682,N,11640.6299,W,68.10,270.60,230410,,*2B
$GPRMC,175023.5,A,3250.2750,N,11640.7162,W,67.40,276.40,230410,,*24
$GPRMC,175027.5,A,3250.2839,N,11640.8012,W,67.00,277.90,230410,,*21
$GPRMC,175031.5,A,3250.2927,N,11640.8882,W,67.10,277.50,230410,,*24
