NMEA Sentence Code,UTC Time,Status,Latitude,Latitude Direction,Longitude,Longitude Direction,Speed (knots),Track Angle (degrees true),Date,MagneticVariation,Magnetic Variation Direction,[FAA Mode]-Optional,Checksum
$GPRMC,203202.3,A,3245.856444,N,11709.261340,W,4.8,77.8,281110,,,A*42
$GPRMC,203205.3,A,3245.861429,N,11709.251532,W,11.5,60.3,281110,,,A*7E
$GPRMC,203208.3,A,3245.872723,N,11709.242069,W,19.0,32.8,281110,,,A*70
$GPRMC,203211.3,A,3245.889569,N,11709.230949,W,23.6,32.9,281110,,,A*70
$GPRMC,203214.3,A,3245.902807,N,11709.213374,W,25.3,57.1,281110,,,A*7F
$GPRMC,203217.3,A,3245.916814,N,11709.187503,W,34.4,58.9,281110,,,A*73
$GPRMC,203220.3,A,3245.931334,N,11709.153242,W,40.2,69.6,281110,,,A*78
$GPRMC,203223.3,A,3245.942709,N,11709.113453,W,43.5,72.9,281110,,,A*76
$GPRMC,203226.3,A,3245.953595,N,11709.072838,W,43.2,72.0,281110,,,A*7D
$GPRMC,203229.3,A,3245.965942,N,11709.029785,W,49.5,72.2,281110,,,A*79
$GPRMC,203232.3,A,3245.978732,N,11708.981427,W,52.9,73.3,281110,,,A*71
$GPRMC,203235.3,A,3245.991516,N,11708.930226,W,54.7,73.8,281110,,,A*7B
$GPRMC,203238.3,A,3246.004911,N,11708.877552,W,56.6,71.5,281110,,,A*71
$GPRMC,203241.3,A,3246.020104,N,11708.823417,W,59.1,70.0,281110,,,A*78
$GPRMC,203244.3,A,3246.038817,N,11708.769215,W,60.1,65.4,281110,,,A*70
$GPRMC,203247.3,A,3246.061363,N,11708.715809,W,60.8,62.2,281110,,,A*73
$GPRMC,203250.3,A,3246.085119,N,11708.662127,W,61.6,62.3,281110,,,A*7A
$GPRMC,203253.9,A,3246.113401,N,11708.595649,W,60.4,65.9,281110,,,A*7B
$GPRMC,203256.9,A,3246.137026,N,11708.540699,W,63.2,63.3,281110,,,A*75
$GPRMC,203259.3,A,3246.151649,N,11708.495062,W,64.6,66.2,281110,,,A*73
$GPRMC,203302.3,A,3246.171889,N,11708.439406,W,61.3,68.5,281110,,,A*75
$GPRMC,203305.3,A,3246.190163,N,11708.383417,W,60.6,69.5,281110,,,A*73
$GPRMC,203309.3,A,3246.208074,N,11708.309369,W,56.8,75.9,281110,,,A*7C
$GPRMC,203312.3,A,3246.215930,N,11708.253869,W,56.3,81.4,281110,,,A*7B
$GPRMC,203315.3,A,3246.221525,N,11708.199453,W,55.5,84.2,281110,,,A*75
$GPRMC,203319.3,A,3246.225207,N,11708.131403,W,51.1,85.1,281110,,,A*7F
$GPRMC,203322.3,A,3246.231237,N,11708.084133,W,46.0,79.9,281110,,,A*74
$GPRMC,203325.3,A,3246.241211,N,11708.040403,W,45.3,67.1,281110,,,A*79
$GPRMC,203329.2,A,3246.265072,N,11707.988128,W,45.3,57.1,281110,,,A*78
$GPRMC,203332.2,A,3246.298608,N,11707.962685,W,46.5,28.9,281110,,,A*7A
$GPRMC,203335.2,A,3246.334720,N,11707.946633,W,45.4,16.5,281110,,,A*79
$GPRMC,203338.2,A,3246.374202,N,11707.944909,W,46.2,360.0,281110,,,A*43
$GPRMC,203341.2,A,3246.417393,N,11707.962963,W,50.9,342.5,281110,,,A*47
$GPRMC,203344.2,A,3246.458762,N,11707.995736,W,53.4,324.9,281110,,,A*47
$GPRMC,203347.2,A,3246.494016,N,11708.026015,W,50.0,324.1,281110,,,A*47
$GPRMC,203350.2,A,3246.526624,N,11708.054036,W,47.4,324.5,281110,,,A*4C
$GPRMC,203353.2,A,3246.557817,N,11708.080759,W,45.7,322.9,281110,,,A*4B
$GPRMC,203356.2,A,3246.585494,N,11708.103001,W,40.0,326.6,281110,,,A*4F
$GPRMC,203359.2,A,3246.610571,N,11708.122800,W,38.3,325.9,281110,,,A*4F
$GPRMC,203402.2,A,3246.636523,N,11708.143775,W,38.8,326.3,281110,,,A*4D
$GPRMC,203405.2,A,3246.666051,N,11708.165927,W,42.1,328.3,281110,,,A*48
$GPRMC,203408.2,A,3246.698275,N,11708.189066,W,44.2,329.0,281110,,,A*49
$GPRMC,203411.2,A,3246.730189,N,11708.212621,W,44.9,328.4,281110,,,A*48
$GPRMC,203414.2,A,3246.762947,N,11708.237403,W,46.7,327.3,281110,,,A*41
$GPRMC,203417.2,A,3246.795705,N,11708.263955,W,47.8,325.9,281110,,,A*4B
$GPRMC,203420.2,A,3246.829658,N,11708.292533,W,49.9,323.8,281110,,,A*44
$GPRMC,203423.2,A,3246.865615,N,11708.321856,W,51.8,322.2,281110,,,A*42
$GPRMC,203426.2,A,3246.899366,N,11708.356497,W,54.1,317.8,281110,,,A*44
$GPRMC,203429.2,A,3246.931561,N,11708.395598,W,55.3,314.3,281110,,,A*43
$GPRMC,203432.2,A,3246.961263,N,11708.438287,W,56.3,308.4,281110,,,A*49
$GPRMC,203435.2,A,3246.989035,N,11708.483615,W,56.4,306.1,281110,,,A*4A
$GPRMC,203438.2,A,3247.016484,N,11708.529176,W,56.6,305.3,281110,,,A*47
$GPRMC,203441.2,A,3247.044234,N,11708.575783,W,57.0,305.3,281110,,,A*41
$GPRMC,203444.2,A,3247.070917,N,11708.621044,W,56.8,305.4,281110,,,A*49
$GPRMC,203447.2,A,3247.097442,N,11708.666240,W,56.4,305.0,281110,,,A*43
$GPRMC,203450.2,A,3247.128809,N,11708.709686,W,57.3,309.3,281110,,,A*4C
$GPRMC,203453.2,A,3247.161130,N,11708.750916,W,58.3,311.4,281110,,,A*4A
$GPRMC,203456.2,A,3247.198048,N,11708.789003,W,58.4,318.3,281110,,,A*47
$GPRMC,203459.2,A,3247.235707,N,11708.826662,W,58.7,321.2,281110,,,A*43
$GPRMC,203502.2,A,3247.275320,N,11708.860510,W,59.0,325.0,281110,,,A*4D
$GPRMC,203505.2,A,3247.318029,N,11708.890069,W,59.5,331.3,281110,,,A*4D
$GPRMC,203508.2,A,3247.364756,N,11708.917182,W,60.6,335.3,281110,,,A*43
$GPRMC,203511.2,A,3247.410980,N,11708.936649,W,60.9,340.5,281110,,,A*42
$GPRMC,203514.2,A,3247.459825,N,11708.953623,W,60.7,344.0,281110,,,A*44
$GPRMC,203517.2,A,3247.509896,N,11708.966065,W,60.7,349.2,281110,,,A*46
$GPRMC,203520.2,A,3247.559309,N,11708.972955,W,59.6,353.0,281110,,,A*47
$GPRMC,203523.2,A,3247.610018,N,11708.976493,W,60.4,357.7,281110,,,A*41
$GPRMC,203526.2,A,3247.659832,N,11708.975303,W,60.3,2.0,281110,,,A*47
$GPRMC,203529.2,A,3247.709237,N,11708.971501,W,60.1,3.2,281110,,,A*42
$GPRMC,203532.2,A,3247.758423,N,11708.968630,W,59.8,3.0,281110,,,A*47
$GPRMC,203535.2,A,3247.808144,N,11708.965548,W,59.8,3.0,281110,,,A*4F
$GPRMC,203538.2,A,3247.857379,N,11708.963449,W,59.2,1.7,281110,,,A*4D
$GPRMC,203541.2,A,3247.906325,N,11708.963920,W,59.1,358.2,281110,,,A*44
$GPRMC,203544.2,A,3247.955874,N,11708.968236,W,59.5,353.8,281110,,,A*4A
$GPRMC,203547.2,A,3248.007483,N,11708.979681,W,60.4,349.1,281110,,,A*4D
$GPRMC,203550.2,A,3248.057032,N,11708.992780,W,60.6,347.2,281110,,,A*4A
$GPRMC,203553.2,A,3248.106845,N,11709.005921,W,60.9,347.4,281110,,,A*4E
$GPRMC,203556.2,A,3248.155668,N,11709.018758,W,59.7,347.3,281110,,,A*43
$GPRMC,203559.2,A,3248.205527,N,11709.032079,W,59.8,347.6,281110,,,A*44
$GPRMC,203602.2,A,3248.254889,N,11709.045009,W,60.4,347.7,281110,,,A*44
$GPRMC,203605.2,A,3248.304682,N,11709.060598,W,61.6,345.0,281110,,,A*4E
$GPRMC,203608.2,A,3248.350582,N,11709.074352,W,57.8,345.5,281110,,,A*4A
$GPRMC,203611.2,A,3248.395615,N,11709.088327,W,58.1,342.9,281110,,,A*4A
$GPRMC,203614.2,A,3248.440527,N,11709.107500,W,57.9,338.9,281110,,,A*4D
$GPRMC,203617.2,A,3248.483257,N,11709.131902,W,57.8,334.4,281110,,,A*4A
$GPRMC,203620.2,A,3248.525457,N,11709.159511,W,57.5,330.8,281110,,,A*40
$GPRMC,203623.2,A,3248.565918,N,11709.188745,W,56.2,328.0,281110,,,A*49
$GPRMC,203626.2,A,3248.604209,N,11709.222145,W,55.9,323.7,281110,,,A*42
$GPRMC,203629.2,A,3248.637836,N,11709.255743,W,53.9,320.9,281110,,,A*40
$GPRMC,203632.2,A,3248.671681,N,11709.289099,W,53.7,321.2,281110,,,A*4F
$GPRMC,203635.2,A,3248.705594,N,11709.323282,W,54.0,319.0,281110,,,A*4D
$GPRMC,203638.2,A,3248.742295,N,11709.360298,W,57.4,320.0,281110,,,A*44
$GPRMC,203641.2,A,3248.780439,N,11709.397421,W,58.4,320.4,281110,,,A*43
$GPRMC,203644.2,A,3248.818783,N,11709.435572,W,59.7,320.5,281110,,,A*41
$GPRMC,203647.2,A,3248.858751,N,11709.471175,W,60.6,322.9,281110,,,A*4F
$GPRMC,203650.2,A,3248.903713,N,11709.506405,W,62.8,327.2,281110,,,A*41
$GPRMC,203653.2,A,3248.951118,N,11709.535510,W,62.2,332.7,281110,,,A*46
$GPRMC,203656.2,A,3248.997753,N,11709.562735,W,62.6,334.0,281110,,,A*42
$GPRMC,203659.2,A,3249.044128,N,11709.589599,W,62.3,334.2,281110,,,A*47
$GPRMC,203702.2,A,3249.091398,N,11709.616630,W,62.3,334.2,281110,,,A*4C
$GPRMC,203705.2,A,3249.137965,N,11709.643732,W,63.4,334.3,281110,,,A*4A
$GPRMC,203708.2,A,3249.184187,N,11709.671456,W,61.9,333.5,281110,,,A*45
$GPRMC,203711.2,A,3249.229708,N,11709.697222,W,61.3,334.2,281110,,,A*4F
$GPRMC,203714.2,A,3249.276669,N,11709.724372,W,60.8,334.1,281110,,,A*42
$GPRMC,203717.2,A,3249.321351,N,11709.750349,W,60.2,333.8,281110,,,A*43
$GPRMC,203720.9,A,3249.378369,N,11709.784283,W,59.5,334.2,281110,,,A*45
$GPRMC,203723.2,A,3249.410159,N,11709.802008,W,57.9,334.2,281110,,,A*47
$GPRMC,203726.3,A,3249.452743,N,11709.825160,W,57.4,334.5,281110,,,A*48
$GPRMC,203729.2,A,3249.495165,N,11709.848922,W,56.8,333.7,281110,,,A*42
$GPRMC,203732.2,A,3249.537234,N,11709.874046,W,56.6,333.0,281110,,,A*4B
$GPRMC,203735.2,A,3249.579228,N,11709.899231,W,57.0,333.0,281110,,,A*4D
$GPRMC,203738.2,A,3249.621141,N,11709.925423,W,56.9,332.7,281110,,,A*4F
$GPRMC,203741.2,A,3249.664210,N,11709.951656,W,58.0,332.8,281110,,,A*4C
$GPRMC,203744.2,A,3249.707596,N,11709.978660,W,57.9,332.8,281110,,,A*4C
$GPRMC,203747.2,A,3249.750317,N,11710.004266,W,57.1,333.1,281110,,,A*4A
$GPRMC,203750.2,A,3249.793491,N,11710.030573,W,57.8,333.2,281110,,,A*44
$GPRMC,203753.2,A,3249.836042,N,11710.057756,W,56.5,332.3,281110,,,A*45
$GPRMC,203756.2,A,3249.879447,N,11710.084810,W,57.9,332.7,281110,,,A*40
$GPRMC,203759.2,A,3249.921512,N,11710.110010,W,57.3,332.8,281110,,,A*43
$GPRMC,203802.2,A,3249.964757,N,11710.135609,W,57.9,333.0,281110,,,A*4A
$GPRMC,203805.2,A,3250.006683,N,11710.161708,W,57.6,332.8,281110,,,A*47
$GPRMC,203808.2,A,3250.051111,N,11710.187289,W,59.1,335.5,281110,,,A*43
$GPRMC,203811.2,A,3250.094234,N,11710.215288,W,58.5,332.8,281110,,,A*40
$GPRMC,203814.2,A,3250.137363,N,11710.241944,W,58.4,333.0,281110,,,A*4C
$GPRMC,203817.2,A,3250.181441,N,11710.269920,W,58.9,332.1,281110,,,A*40
$GPRMC,203820.2,A,3250.225530,N,11710.298006,W,59.3,332.2,281110,,,A*45
$GPRMC,203823.2,A,3250.269072,N,11710.324970,W,58.5,332.6,281110,,,A*40
$GPRMC,203826.2,A,3250.312778,N,11710.351322,W,59.7,332.6,281110,,,A*49
$GPRMC,203829.2,A,3250.357594,N,11710.377084,W,59.2,334.6,281110,,,A*4F
$GPRMC,203832.2,A,3250.400613,N,11710.400955,W,59.7,335.0,281110,,,A*4C
$GPRMC,203835.2,A,3250.447388,N,11710.430700,W,60.7,333.9,281110,,,A*47
$GPRMC,203838.2,A,3250.491999,N,11710.456437,W,60.5,333.0,281110,,,A*47
$GPRMC,203841.2,A,3250.536027,N,11710.483641,W,60.4,333.2,281110,,,A*41
$GPRMC,203844.2,A,3250.580937,N,11710.511180,W,61.5,333.1,281110,,,A*42
$GPRMC,203847.2,A,3250.627252,N,11710.539140,W,62.6,332.6,281110,,,A*47
$GPRMC,203850.2,A,3250.673880,N,11710.567538,W,63.2,333.0,281110,,,A*47
$GPRMC,203853.2,A,3250.719745,N,11710.595832,W,63.0,333.3,281110,,,A*44
$GPRMC,203857.3,A,3250.783900,N,11710.632730,W,63.7,332.9,281110,,,A*42
$GPRMC,203900.3,A,3250.831275,N,11710.661694,W,63.9,332.6,281110,,,A*46
$GPRMC,203903.3,A,3250.878208,N,11710.692426,W,64.1,332.7,281110,,,A*4B
$GPRMC,203906.3,A,3250.925005,N,11710.721598,W,63.0,332.7,281110,,,A*43
$GPRMC,203909.3,A,3250.971278,N,11710.751044,W,62.5,332.8,281110,,,A*4D
$GPRMC,203912.0,A,3251.012585,N,11710.776177,W,62.0,332.4,281110,,,A*41
$GPRMC,203915.3,A,3251.062571,N,11710.807248,W,62.0,332.2,281110,,,A*49
$GPRMC,203918.3,A,3251.108765,N,11710.835471,W,61.9,332.6,281110,,,A*4D
$GPRMC,203921.3,A,3251.153954,N,11710.864580,W,61.1,332.0,281110,,,A*40
$GPRMC,203924.3,A,3251.200083,N,11710.891918,W,61.0,333.1,281110,,,A*45
$GPRMC,203927.3,A,3251.246534,N,11710.919191,W,61.5,332.7,281110,,,A*47
$GPRMC,203930.3,A,3251.290500,N,11710.946725,W,61.2,332.6,281110,,,A*48
$GPRMC,203933.3,A,3251.336339,N,11710.975273,W,60.5,332.6,281110,,,A*4A
$GPRMC,203936.3,A,3251.381329,N,11711.002542,W,61.0,332.7,281110,,,A*4A
$GPRMC,203939.3,A,3251.427158,N,11711.029320,W,61.3,333.1,281110,,,A*45
$GPRMC,203942.9,A,3251.484325,N,11711.063210,W,60.2,332.3,281110,,,A*4D
$GPRMC,203946.2,A,3251.535261,N,11711.093123,W,62.4,333.5,281110,,,A*47
$GPRMC,203949.2,A,3251.579408,N,11711.120446,W,60.3,331.3,281110,,,A*47
$GPRMC,203952.2,A,3251.621117,N,11711.150659,W,59.7,328.3,281110,,,A*45
$GPRMC,203955.2,A,3251.662152,N,11711.184419,W,59.0,324.0,281110,,,A*43
$GPRMC,203958.2,A,3251.702774,N,11711.221452,W,60.8,321.8,281110,,,A*47
$GPRMC,204001.2,A,3251.742638,N,11711.259441,W,62.5,321.9,281110,,,A*4B
$GPRMC,204004.2,A,3251.782639,N,11711.297539,W,61.1,321.7,281110,,,A*46
$GPRMC,204007.2,A,3251.822446,N,11711.335031,W,61.6,321.4,281110,,,A*4A
$GPRMC,204010.2,A,3251.863131,N,11711.372296,W,61.4,321.3,281110,,,A*45
$GPRMC,204013.9,A,3251.913571,N,11711.419475,W,60.7,322.3,281110,,,A*4B
$GPRMC,204016.3,A,3251.943167,N,11711.448226,W,60.1,321.1,281110,,,A*41
$GPRMC,204019.9,A,3251.992806,N,11711.492515,W,59.9,322.1,281110,,,A*47
$GPRMC,204023.2,A,3252.033622,N,11711.535096,W,60.2,320.5,281110,,,A*49
$GPRMC,204026.2,A,3252.072528,N,11711.572460,W,59.3,321.2,281110,,,A*43
$GPRMC,204029.2,A,3252.109601,N,11711.609546,W,59.1,321.2,281110,,,A*41
$GPRMC,204032.3,A,3252.147394,N,11711.645157,W,58.2,322.2,281110,,,A*44
$GPRMC,204035.3,A,3252.186443,N,11711.683054,W,60.3,321.1,281110,,,A*41
$GPRMC,204038.3,A,3252.227678,N,11711.721937,W,61.2,321.4,281110,,,A*4E
$GPRMC,204041.3,A,3252.267951,N,11711.760116,W,62.8,321.2,281110,,,A*41
$GPRMC,204044.2,A,3252.306946,N,11711.796568,W,62.0,322.5,281110,,,A*4D
$GPRMC,204047.2,A,3252.348916,N,11711.834897,W,62.7,323.2,281110,,,A*4A
$GPRMC,204050.2,A,3252.391965,N,11711.870430,W,62.3,326.9,281110,,,A*47
$GPRMC,204053.2,A,3252.437786,N,11711.903060,W,64.8,329.8,281110,,,A*4B
$GPRMC,204056.2,A,3252.482840,N,11711.931729,W,61.6,333.9,281110,,,A*4F
$GPRMC,204059.2,A,3252.529758,N,11711.956883,W,61.3,334.4,281110,,,A*47
$GPRMC,204102.2,A,3252.576212,N,11711.978297,W,60.7,339.8,281110,,,A*4E
$GPRMC,204105.2,A,3252.624025,N,11711.997202,W,60.2,341.5,281110,,,A*41
$GPRMC,204108.2,A,3252.672044,N,11712.010354,W,60.1,346.0,281110,,,A*4E
$GPRMC,204111.9,A,3252.733265,N,11712.028797,W,59.5,346.2,281110,,,A*44
$GPRMC,204114.3,A,3252.771639,N,11712.037975,W,60.1,346.4,281110,,,A*44
$GPRMC,204117.3,A,3252.819716,N,11712.053097,W,60.7,345.7,281110,,,A*4B
$GPRMC,204120.3,A,3252.869439,N,11712.067866,W,61.7,345.8,281110,,,A*49
$GPRMC,204123.3,A,3252.919267,N,11712.083933,W,62.1,345.1,281110,,,A*46
$GPRMC,204126.9,A,3252.984654,N,11712.104614,W,64.2,345.6,281110,,,A*4F
$GPRMC,204129.3,A,3253.024327,N,11712.115726,W,63.6,346.2,281110,,,A*4D
$GPRMC,204132.3,A,3253.074512,N,11712.131853,W,62.7,345.4,281110,,,A*4C
$GPRMC,204135.3,A,3253.124817,N,11712.146513,W,61.9,346.2,281110,,,A*46
$GPRMC,204138.3,A,3253.174473,N,11712.162000,W,61.1,343.4,281110,,,A*4A
$GPRMC,204141.3,A,3253.221790,N,11712.182610,W,60.6,339.5,281110,,,A*4A
$GPRMC,204144.3,A,3253.267483,N,11712.207950,W,59.4,333.4,281110,,,A*4A
$GPRMC,204147.3,A,3253.310583,N,11712.236650,W,59.2,329.6,281110,,,A*4B
$GPRMC,204150.0,A,3253.349444,N,11712.266786,W,61.0,326.0,281110,,,A*47
$GPRMC,204154.3,A,3253.404688,N,11712.319919,W,60.7,318.2,281110,,,A*44
$GPRMC,204157.3,A,3253.439499,N,11712.363890,W,61.4,313.6,281110,,,A*4B
$GPRMC,204200.3,A,3253.470685,N,11712.411059,W,61.3,306.7,281110,,,A*45
$GPRMC,204203.3,A,3253.500537,N,11712.461270,W,61.5,303.8,281110,,,A*48
$GPRMC,204206.3,A,3253.525310,N,11712.514012,W,60.8,297.0,281110,,,A*44
$GPRMC,204209.3,A,3253.546637,N,11712.567562,W,60.3,294.4,281110,,,A*44
$GPRMC,204212.3,A,3253.566613,N,11712.620445,W,59.0,294.8,281110,,,A*4B
$GPRMC,204215.3,A,3253.587825,N,11712.672931,W,57.0,297.0,281110,,,A*44
$GPRMC,204219.2,A,3253.619031,N,11712.738810,W,57.2,301.0,281110,,,A*41
$GPRMC,204222.2,A,3253.644884,N,11712.786444,W,58.0,304.2,281110,,,A*45
$GPRMC,204225.2,A,3253.673473,N,11712.832701,W,57.5,307.2,281110,,,A*49
$GPRMC,204228.2,A,3253.704502,N,11712.877507,W,58.1,311.0,281110,,,A*49
$GPRMC,204231.2,A,3253.738033,N,11712.919200,W,58.7,314.0,281110,,,A*43
$GPRMC,204234.3,A,3253.774112,N,11712.957597,W,59.2,317.7,281110,,,A*4E
$GPRMC,204237.9,A,3253.822580,N,11713.006647,W,58.6,320.8,281110,,,A*48
$GPRMC,204240.3,A,3253.851665,N,11713.033505,W,59.3,322.2,281110,,,A*41
$GPRMC,204243.0,A,3253.889365,N,11713.067947,W,60.5,322.3,281110,,,A*47
$GPRMC,204246.9,A,3253.942581,N,11713.114916,W,60.0,321.8,281110,,,A*4D
$GPRMC,204249.9,A,3253.980378,N,11713.151574,W,59.1,321.3,281110,,,A*45
$GPRMC,204252.9,A,3254.021192,N,11713.186849,W,59.6,321.7,281110,,,A*46
$GPRMC,204256.3,A,3254.061727,N,11713.227613,W,59.2,320.1,281110,,,A*4E
$GPRMC,204259.9,A,3254.109357,N,11713.274884,W,57.9,320.8,281110,,,A*4D
$GPRMC,204302.9,A,3254.147329,N,11713.311208,W,59.8,320.3,281110,,,A*49
$GPRMC,204305.9,A,3254.183243,N,11713.348170,W,55.8,320.9,281110,,,A*4D
$GPRMC,204308.9,A,3254.220966,N,11713.384187,W,57.0,320.0,281110,,,A*4D
$GPRMC,204311.2,A,3254.249406,N,11713.412461,W,57.6,320.3,281110,,,A*4A
$GPRMC,204314.2,A,3254.287977,N,11713.447882,W,58.1,324.2,281110,,,A*4A
$GPRMC,204317.2,A,3254.331068,N,11713.479922,W,57.8,330.3,281110,,,A*46
$GPRMC,204320.3,A,3254.373783,N,11713.505746,W,58.7,332.6,281110,,,A*46
$GPRMC,204323.2,A,3254.416632,N,11713.533375,W,58.3,332.6,281110,,,A*4E
$GPRMC,204326.0,A,3254.455881,N,11713.556589,W,58.7,332.9,281110,,,A*45
$GPRMC,204329.2,A,3254.503064,N,11713.586345,W,58.4,331.9,281110,,,A*42
$GPRMC,204332.2,A,3254.547008,N,11713.612466,W,58.8,332.9,281110,,,A*45
$GPRMC,204335.2,A,3254.591132,N,11713.639693,W,59.3,333.4,281110,,,A*46
$GPRMC,204338.0,A,3254.632327,N,11713.663342,W,59.6,334.1,281110,,,A*44
$GPRMC,204341.0,A,3254.675248,N,11713.687679,W,59.0,333.9,281110,,,A*4F
$GPRMC,204344.3,A,3254.723923,N,11713.714254,W,59.1,333.7,281110,,,A*42
$GPRMC,204347.2,A,3254.768238,N,11713.740044,W,59.9,332.9,281110,,,A*4B
$GPRMC,204350.2,A,3254.811958,N,11713.767655,W,59.8,332.2,281110,,,A*48
$GPRMC,204353.2,A,3254.856276,N,11713.798239,W,61.0,328.1,281110,,,A*4A
$GPRMC,204356.0,A,3254.895002,N,11713.829436,W,61.5,323.2,281110,,,A*42
$GPRMC,204359.3,A,3254.939747,N,11713.873104,W,63.1,319.1,281110,,,A*48
$GPRMC,204402.3,A,3254.972716,N,11713.918605,W,61.9,310.3,281110,,,A*41
$GPRMC,204405.9,A,3255.014330,N,11713.978833,W,63.0,308.6,281110,,,A*4E
$GPRMC,204408.0,A,3255.037407,N,11714.012027,W,63.4,309.5,281110,,,A*41
$GPRMC,204411.9,A,3255.085048,N,11714.074650,W,63.7,313.0,281110,,,A*4D
$GPRMC,204415.2,A,3255.127368,N,11714.122975,W,63.6,316.7,281110,,,A*43
$GPRMC,204418.0,A,3255.165504,N,11714.160521,W,63.6,320.8,281110,,,A*47
$GPRMC,204421.0,A,3255.205851,N,11714.197413,W,64.4,324.3,281110,,,A*47
$GPRMC,204424.9,A,3255.264832,N,11714.242705,W,64.8,328.5,281110,,,A*40
$GPRMC,204427.3,A,3255.301178,N,11714.265895,W,64.5,332.4,281110,,,A*48
$GPRMC,204430.9,A,3255.360425,N,11714.296492,W,64.4,335.9,281110,,,A*42
$GPRMC,204433.3,A,3255.398365,N,11714.312992,W,63.2,340.4,281110,,,A*41
$GPRMC,204436.3,A,3255.447629,N,11714.331759,W,62.6,343.4,281110,,,A*42
$GPRMC,204439.3,A,3255.498403,N,11714.349685,W,62.4,343.7,281110,,,A*4B
$GPRMC,204442.3,A,3255.548093,N,11714.367408,W,62.2,344.3,281110,,,A*48
$GPRMC,204445.3,A,3255.598029,N,11714.383366,W,62.3,344.6,281110,,,A*42
$GPRMC,204448.3,A,3255.647230,N,11714.399260,W,60.4,344.2,281110,,,A*49
$GPRMC,204451.3,A,3255.696304,N,11714.414717,W,60.8,345.3,281110,,,A*40
$GPRMC,204454.3,A,3255.745044,N,11714.429141,W,60.7,346.9,281110,,,A*40
$GPRMC,204457.3,A,3255.794795,N,11714.441549,W,61.8,348.5,281110,,,A*4A
$GPRMC,204500.3,A,3255.844172,N,11714.450865,W,60.7,350.4,281110,,,A*41
$GPRMC,204503.3,A,3255.893623,N,11714.457275,W,59.8,353.9,281110,,,A*4C
$GPRMC,204506.3,A,3255.943878,N,11714.466485,W,60.2,353.7,281110,,,A*40
$GPRMC,204509.3,A,3255.993062,N,11714.471153,W,59.7,355.2,281110,,,A*45
$GPRMC,204512.3,A,3256.044006,N,11714.474191,W,59.9,356.5,281110,,,A*4C
$GPRMC,204515.3,A,3256.093344,N,11714.478130,W,60.0,356.4,281110,,,A*41
$GPRMC,204518.3,A,3256.142889,N,11714.481967,W,59.6,356.5,281110,,,A*4A
$GPRMC,204521.3,A,3256.192139,N,11714.485898,W,58.1,355.6,281110,,,A*4C
$GPRMC,204524.3,A,3256.241548,N,11714.490397,W,59.0,356.5,281110,,,A*46
$GPRMC,204527.3,A,3256.291142,N,11714.494482,W,59.0,356.2,281110,,,A*46
$GPRMC,204530.3,A,3256.341557,N,11714.499237,W,60.8,354.8,281110,,,A*43
$GPRMC,204533.3,A,3256.392234,N,11714.506476,W,60.0,352.9,281110,,,A*47
$GPRMC,204536.3,A,3256.439711,N,11714.514683,W,59.0,351.4,281110,,,A*49
$GPRMC,204539.3,A,3256.488355,N,11714.524318,W,59.4,350.8,281110,,,A*45
$GPRMC,204542.3,A,3256.536852,N,11714.533562,W,59.3,350.9,281110,,,A*4A
$GPRMC,204545.3,A,3256.585912,N,11714.541788,W,59.7,350.8,281110,,,A*46
$GPRMC,204548.3,A,3256.635998,N,11714.550832,W,60.5,350.8,281110,,,A*47
$GPRMC,204551.3,A,3256.684155,N,11714.559972,W,60.0,350.4,281110,,,A*49
$GPRMC,204554.3,A,3256.735069,N,11714.568994,W,60.8,351.0,281110,,,A*4E
$GPRMC,204557.3,A,3256.782556,N,11714.579204,W,59.2,350.5,281110,,,A*4E
$GPRMC,204600.3,A,3256.831111,N,11714.586744,W,58.8,351.1,281110,,,A*40
$GPRMC,204603.3,A,3256.879338,N,11714.595477,W,58.3,351.4,281110,,,A*49
$GPRMC,204606.3,A,3256.928446,N,11714.603731,W,58.8,350.7,281110,,,A*43
$GPRMC,204609.3,A,3256.976004,N,11714.611340,W,57.8,351.1,281110,,,A*4C
$GPRMC,204612.3,A,3257.023164,N,11714.619369,W,57.3,351.0,281110,,,A*40
$GPRMC,204615.3,A,3257.071951,N,11714.630940,W,58.2,350.4,281110,,,A*4F
$GPRMC,204618.3,A,3257.120828,N,11714.640383,W,58.5,350.9,281110,,,A*40
$GPRMC,204621.3,A,3257.169218,N,11714.649024,W,58.7,351.3,281110,,,A*40
$GPRMC,204624.3,A,3257.218637,N,11714.661624,W,60.1,350.9,281110,,,A*43
$GPRMC,204627.3,A,3257.267698,N,11714.669925,W,59.2,351.4,281110,,,A*4E
$GPRMC,204630.3,A,3257.313067,N,11714.680711,W,56.6,346.2,281110,,,A*49
$GPRMC,204633.3,A,3257.361980,N,11714.689050,W,58.0,350.3,281110,,,A*4A
$GPRMC,204636.3,A,3257.411420,N,11714.696189,W,59.5,352.1,281110,,,A*47
$GPRMC,204639.3,A,3257.458857,N,11714.702356,W,57.4,353.0,281110,,,A*4A
$GPRMC,204642.3,A,3257.507207,N,11714.710360,W,58.5,352.1,281110,,,A*4A
$GPRMC,204645.3,A,3257.557462,N,11714.715867,W,63.0,355.5,281110,,,A*4A
$GPRMC,204648.3,A,3257.600293,N,11714.730472,W,57.6,347.9,281110,,,A*4F
$GPRMC,204651.3,A,3257.648429,N,11714.747209,W,59.0,345.2,281110,,,A*47
$GPRMC,204654.9,A,3257.707049,N,11714.766813,W,58.2,343.8,281110,,,A*4D
$GPRMC,204657.2,A,3257.742463,N,11714.780543,W,58.6,342.6,281110,,,A*43
$GPRMC,204700.2,A,3257.787780,N,11714.799210,W,58.3,342.5,281110,,,A*48
$GPRMC,204703.2,A,3257.832771,N,11714.816594,W,56.9,342.3,281110,,,A*45
$GPRMC,204706.2,A,3257.876619,N,11714.833758,W,56.9,342.4,281110,,,A*4D
$GPRMC,204709.2,A,3257.921671,N,11714.851338,W,56.8,342.3,281110,,,A*4F
$GPRMC,204712.2,A,3257.966096,N,11714.868589,W,57.0,342.5,281110,,,A*40
$GPRMC,204715.2,A,3258.011840,N,11714.886116,W,56.9,342.3,281110,,,A*4E
$GPRMC,204718.2,A,3258.056224,N,11714.903380,W,56.4,342.4,281110,,,A*43
$GPRMC,204721.2,A,3258.101340,N,11714.919841,W,56.8,343.2,281110,,,A*4F
$GPRMC,204724.2,A,3258.146908,N,11714.937347,W,57.2,342.4,281110,,,A*42
$GPRMC,204727.2,A,3258.192589,N,11714.953860,W,57.3,342.6,281110,,,A*42
$GPRMC,204730.2,A,3258.237207,N,11714.971258,W,57.4,342.3,281110,,,A*4A
$GPRMC,204733.2,A,3258.283413,N,11714.988082,W,58.3,342.6,281110,,,A*4B
$GPRMC,204736.2,A,3258.329986,N,11715.006314,W,57.8,341.3,281110,,,A*4E
$GPRMC,204739.2,A,3258.375994,N,11715.023135,W,58.4,342.5,281110,,,A*4B
$GPRMC,204742.9,A,3258.432687,N,11715.045288,W,58.5,342.5,281110,,,A*41
$GPRMC,204745.3,A,3258.468949,N,11715.058510,W,59.4,343.1,281110,,,A*41
$GPRMC,204748.3,A,3258.517127,N,11715.075953,W,59.4,342.5,281110,,,A*44
$GPRMC,204751.3,A,3258.565831,N,11715.094619,W,60.4,342.3,281110,,,A*45
$GPRMC,204754.3,A,3258.614210,N,11715.112331,W,60.2,342.3,281110,,,A*4A
$GPRMC,204757.3,A,3258.662358,N,11715.130413,W,59.9,342.1,281110,,,A*41
$GPRMC,204800.3,A,3258.710559,N,11715.149336,W,59.8,342.0,281110,,,A*41
$GPRMC,204803.3,A,3258.757909,N,11715.166844,W,59.7,341.8,281110,,,A*4F
$GPRMC,204806.3,A,3258.805416,N,11715.184995,W,59.3,341.9,281110,,,A*45
$GPRMC,204809.3,A,3258.851632,N,11715.202036,W,58.4,342.8,281110,,,A*46
$GPRMC,204812.3,A,3258.898290,N,11715.219865,W,58.4,342.2,281110,,,A*4B
$GPRMC,204815.3,A,3258.945271,N,11715.237162,W,58.3,342.1,281110,,,A*44
$GPRMC,204818.3,A,3258.992535,N,11715.256758,W,58.6,342.4,281110,,,A*4C
$GPRMC,204821.3,A,3259.039429,N,11715.273416,W,59.3,342.5,281110,,,A*48
$GPRMC,204824.3,A,3259.089336,N,11715.286473,W,60.4,349.0,281110,,,A*45
$GPRMC,204827.3,A,3259.139106,N,11715.295456,W,60.1,351.7,281110,,,A*43
$GPRMC,204830.3,A,3259.190314,N,11715.303864,W,61.3,352.6,281110,,,A*45
$GPRMC,204833.3,A,3259.240168,N,11715.307873,W,60.3,354.4,281110,,,A*46
$GPRMC,204836.3,A,3259.290492,N,11715.315481,W,60.5,352.2,281110,,,A*4A
$GPRMC,204839.3,A,3259.341866,N,11715.323581,W,60.4,352.4,281110,,,A*4C
$GPRMC,204842.3,A,3259.388136,N,11715.331249,W,58.4,352.0,281110,,,A*46
$GPRMC,204845.3,A,3259.435909,N,11715.338919,W,58.7,352.1,281110,,,A*41
$GPRMC,204848.3,A,3259.484914,N,11715.346527,W,58.5,353.0,281110,,,A*40
$GPRMC,204851.3,A,3259.533319,N,11715.353248,W,58.6,353.1,281110,,,A*4A
$GPRMC,204854.3,A,3259.582734,N,11715.361409,W,59.8,351.8,281110,,,A*48
$GPRMC,204857.3,A,3259.631464,N,11715.370291,W,58.5,351.8,281110,,,A*4D
$GPRMC,204900.3,A,3259.678389,N,11715.376771,W,58.3,352.7,281110,,,A*40
$GPRMC,204903.3,A,3259.724863,N,11715.384934,W,57.8,352.2,281110,,,A*47
$GPRMC,204906.3,A,3259.771747,N,11715.393069,W,57.5,352.0,281110,,,A*43
$GPRMC,204909.3,A,3259.818888,N,11715.400500,W,57.8,352.4,281110,,,A*4E
$GPRMC,204912.3,A,3259.867128,N,11715.408290,W,58.3,352.5,281110,,,A*4C
$GPRMC,204915.3,A,3259.914288,N,11715.415939,W,58.0,352.0,281110,,,A*45
$GPRMC,204918.3,A,3259.962543,N,11715.423309,W,58.0,352.6,281110,,,A*43
$GPRMC,204921.3,A,3300.011888,N,11715.430570,W,57.7,352.7,281110,,,A*40
$GPRMC,204924.3,A,3300.059677,N,11715.437740,W,56.9,352.5,281110,,,A*4C
$GPRMC,204927.3,A,3300.107584,N,11715.444606,W,56.4,352.3,281110,,,A*46
$GPRMC,204930.3,A,3300.153198,N,11715.453798,W,55.4,349.3,281110,,,A*41
$GPRMC,204933.3,A,3300.198902,N,11715.468255,W,56.2,344.7,281110,,,A*4E
$GPRMC,204936.3,A,3300.240892,N,11715.487827,W,55.7,337.5,281110,,,A*4B
$GPRMC,204939.3,A,3300.282760,N,11715.510743,W,54.6,333.5,281110,,,A*4E
$GPRMC,204942.3,A,3300.322823,N,11715.536953,W,55.3,329.1,281110,,,A*41
$GPRMC,204945.3,A,3300.359031,N,11715.566793,W,54.4,323.7,281110,,,A*4C
$GPRMC,204948.9,A,3300.401821,N,11715.611416,W,55.4,318.5,281110,,,A*4E
$GPRMC,204951.3,A,3300.428117,N,11715.641747,W,58.2,316.2,281110,,,A*4B
$GPRMC,204954.0,A,3300.460694,N,11715.679396,W,59.5,316.4,281110,,,A*4E
$GPRMC,204957.0,A,3300.496798,N,11715.720153,W,59.7,315.8,281110,,,A*42
$GPRMC,205000.2,A,3300.535824,N,11715.764621,W,59.9,316.8,281110,,,A*45
$GPRMC,205003.2,A,3300.571886,N,11715.805044,W,59.0,316.5,281110,,,A*47
$GPRMC,205006.2,A,3300.606416,N,11715.844878,W,56.8,316.2,281110,,,A*46
$GPRMC,205009.3,A,3300.640201,N,11715.883715,W,55.4,316.1,281110,,,A*49
$GPRMC,205012.9,A,3300.681472,N,11715.929225,W,54.6,316.9,281110,,,A*4A
$GPRMC,205015.9,A,3300.712737,N,11715.965318,W,53.2,316.3,281110,,,A*4A
$GPRMC,205018.9,A,3300.745544,N,11716.002347,W,53.5,316.6,281110,,,A*40
$GPRMC,205021.9,A,3300.776871,N,11716.038684,W,51.2,316.9,281110,,,A*48
$GPRMC,205024.9,A,3300.808474,N,11716.075528,W,52.4,315.8,281110,,,A*49
$GPRMC,205027.9,A,3300.839760,N,11716.111157,W,52.3,314.7,281110,,,A*48
$GPRMC,205030.3,A,3300.863984,N,11716.139443,W,57.4,314.7,281110,,,A*47
$GPRMC,205033.9,A,3300.905491,N,11716.189219,W,59.2,315.9,281110,,,A*43
$GPRMC,205036.9,A,3300.944011,N,11716.228789,W,59.4,320.1,281110,,,A*43
$GPRMC,205040.2,A,3300.989916,N,11716.267595,W,62.9,324.2,281110,,,A*40
$GPRMC,205043.9,A,3301.043799,N,11716.302423,W,60.0,332.2,281110,,,A*4D
$GPRMC,205046.9,A,3301.088613,N,11716.329684,W,59.6,334.6,281110,,,A*44
$GPRMC,205049.9,A,3301.133683,N,11716.349722,W,57.2,340.0,281110,,,A*47
$GPRMC,205052.3,A,3301.168925,N,11716.362667,W,57.6,343.3,281110,,,A*47
$GPRMC,205055.0,A,3301.211897,N,11716.374426,W,57.7,347.5,281110,,,A*45
$GPRMC,205058.9,A,3301.276560,N,11716.389015,W,59.3,350.3,281110,,,A*49
$GPRMC,205101.2,A,3301.313167,N,11716.396956,W,58.9,348.8,281110,,,A*47
$GPRMC,205104.2,A,3301.361125,N,11716.407896,W,58.4,349.6,281110,,,A*41
$GPRMC,205107.2,A,3301.411396,N,11716.416668,W,59.4,349.6,281110,,,A*46
$GPRMC,205110.2,A,3301.459678,N,11716.428464,W,57.2,347.5,281110,,,A*4F
$GPRMC,205113.2,A,3301.505785,N,11716.444006,W,57.5,343.8,281110,,,A*43
$GPRMC,205116.2,A,3301.548760,N,11716.461439,W,55.9,339.6,281110,,,A*46
$GPRMC,205119.2,A,3301.590601,N,11716.485030,W,54.6,334.9,281110,,,A*41
$GPRMC,205122.2,A,3301.630241,N,11716.510458,W,55.3,332.1,281110,,,A*4D
$GPRMC,205125.9,A,3301.682673,N,11716.546589,W,57.4,330.2,281110,,,A*47
$GPRMC,205128.9,A,3301.723489,N,11716.574301,W,55.5,330.5,281110,,,A*44
$GPRMC,205131.9,A,3301.760515,N,11716.597879,W,52.3,332.3,281110,,,A*43
$GPRMC,205134.2,A,3301.792353,N,11716.617760,W,55.6,332.1,281110,,,A*48
$GPRMC,205137.2,A,3301.832250,N,11716.642134,W,55.3,331.5,281110,,,A*49
$GPRMC,205140.0,A,3301.869727,N,11716.669131,W,56.6,330.7,281110,,,A*49
$GPRMC,205143.3,A,3301.913700,N,11716.699915,W,56.2,330.1,281110,,,A*43
$GPRMC,205146.9,A,3301.966757,N,11716.736485,W,57.9,329.1,281110,,,A*4E
$GPRMC,205150.3,A,3302.012492,N,11716.764984,W,57.6,331.1,281110,,,A*4D
$GPRMC,205153.3,A,3302.053676,N,11716.794131,W,57.9,330.7,281110,,,A*42
$GPRMC,205156.9,A,3302.105000,N,11716.828965,W,56.8,331.2,281110,,,A*4D
$GPRMC,205159.2,A,3302.137563,N,11716.850051,W,57.3,331.0,281110,,,A*41
$GPRMC,205202.2,A,3302.177644,N,11716.877068,W,55.6,330.4,281110,,,A*43
$GPRMC,205205.2,A,3302.217514,N,11716.903633,W,55.3,331.1,281110,,,A*4C
$GPRMC,205208.2,A,3302.257538,N,11716.930888,W,54.5,330.5,281110,,,A*47
$GPRMC,205211.2,A,3302.296152,N,11716.957538,W,54.4,331.5,281110,,,A*4D
$GPRMC,205214.9,A,3302.342916,N,11716.990614,W,52.9,331.5,281110,,,A*4E
$GPRMC,205218.3,A,3302.386624,N,11717.019217,W,53.5,329.8,281110,,,A*49
$GPRMC,205221.0,A,3302.423965,N,11717.043741,W,54.8,330.2,281110,,,A*43
$GPRMC,205224.3,A,3302.467695,N,11717.071334,W,54.5,331.8,281110,,,A*44
$GPRMC,205227.3,A,3302.508267,N,11717.095374,W,54.5,335.1,281110,,,A*45
$GPRMC,205230.3,A,3302.550392,N,11717.114904,W,54.7,339.5,281110,,,A*4A
$GPRMC,205233.3,A,3302.592996,N,11717.131303,W,53.2,343.3,281110,,,A*4A
$GPRMC,205236.3,A,3302.637199,N,11717.144199,W,54.5,345.4,281110,,,A*46
$GPRMC,205239.3,A,3302.680498,N,11717.157036,W,54.0,346.3,281110,,,A*46
$GPRMC,205242.3,A,3302.724981,N,11717.170019,W,54.8,346.0,281110,,,A*43
$GPRMC,205245.3,A,3302.771887,N,11717.182760,W,56.2,346.6,281110,,,A*49
$GPRMC,205248.3,A,3302.817426,N,11717.195988,W,56.4,346.2,281110,,,A*40
$GPRMC,205251.3,A,3302.862401,N,11717.208656,W,56.5,346.6,281110,,,A*41
$GPRMC,205254.3,A,3302.906160,N,11717.222686,W,55.0,345.5,281110,,,A*46
$GPRMC,205257.3,A,3302.951070,N,11717.236898,W,55.0,345.2,281110,,,A*44
$GPRMC,205300.3,A,3302.995807,N,11717.249465,W,54.4,345.5,281110,,,A*43
$GPRMC,205303.3,A,3303.036917,N,11717.262667,W,51.0,345.4,281110,,,A*48
$GPRMC,205306.3,A,3303.076844,N,11717.275157,W,49.0,345.3,281110,,,A*42
$GPRMC,205309.3,A,3303.115403,N,11717.287170,W,47.5,345.8,281110,,,A*4E
$GPRMC,205312.3,A,3303.154277,N,11717.299929,W,48.1,343.7,281110,,,A*4D
$GPRMC,205315.3,A,3303.193600,N,11717.312522,W,49.0,345.1,281110,,,A*40
$GPRMC,205318.3,A,3303.233414,N,11717.322641,W,49.8,346.2,281110,,,A*4E
$GPRMC,205321.3,A,3303.274202,N,11717.333963,W,49.8,346.8,281110,,,A*43
$GPRMC,205324.3,A,3303.316433,N,11717.346144,W,51.4,346.5,281110,,,A*40
$GPRMC,205327.3,A,3303.358096,N,11717.359481,W,52.5,345.7,281110,,,A*43
$GPRMC,205330.3,A,3303.400639,N,11717.372001,W,54.1,346.3,281110,,,A*4C
$GPRMC,205333.3,A,3303.445413,N,11717.386047,W,54.7,345.3,281110,,,A*48
$GPRMC,205336.3,A,3303.489792,N,11717.399735,W,54.1,346.4,281110,,,A*49
$GPRMC,205339.3,A,3303.533454,N,11717.413119,W,54.4,345.4,281110,,,A*44
$GPRMC,205342.3,A,3303.577414,N,11717.425815,W,54.2,346.0,281110,,,A*4D
$GPRMC,205345.3,A,3303.620636,N,11717.438734,W,54.9,346.1,281110,,,A*43
$GPRMC,205348.3,A,3303.665746,N,11717.453308,W,55.8,345.5,281110,,,A*48
$GPRMC,205351.3,A,3303.710238,N,11717.465615,W,55.7,346.0,281110,,,A*4A
$GPRMC,205354.3,A,3303.756545,N,11717.479667,W,56.8,346.3,281110,,,A*47
$GPRMC,205357.3,A,3303.802783,N,11717.494535,W,56.9,345.7,281110,,,A*43
$GPRMC,205400.3,A,3303.849224,N,11717.508010,W,56.7,345.9,281110,,,A*47
$GPRMC,205403.3,A,3303.895441,N,11717.520925,W,56.4,345.6,281110,,,A*49
$GPRMC,205406.3,A,3303.940825,N,11717.533870,W,55.7,346.6,281110,,,A*4B
$GPRMC,205409.3,A,3303.986535,N,11717.548428,W,55.1,345.9,281110,,,A*45
$GPRMC,205412.3,A,3304.029192,N,11717.561476,W,53.1,346.0,281110,,,A*41
$GPRMC,205415.3,A,3304.071159,N,11717.574519,W,52.2,346.6,281110,,,A*44
$GPRMC,205418.3,A,3304.113739,N,11717.586567,W,52.8,346.0,281110,,,A*44
$GPRMC,205421.3,A,3304.157089,N,11717.600318,W,53.0,345.7,281110,,,A*4C
$GPRMC,205424.3,A,3304.200450,N,11717.613303,W,54.8,345.8,281110,,,A*40
$GPRMC,205427.3,A,3304.246687,N,11717.627286,W,56.2,345.6,281110,,,A*44
$GPRMC,205430.3,A,3304.293083,N,11717.640601,W,56.5,346.2,281110,,,A*42
$GPRMC,205433.3,A,3304.338371,N,11717.654863,W,56.7,345.5,281110,,,A*46
$GPRMC,205436.3,A,3304.384218,N,11717.668499,W,58.1,346.1,281110,,,A*43
$GPRMC,205439.3,A,3304.432615,N,11717.681169,W,59.3,346.5,281110,,,A*45
$GPRMC,205442.3,A,3304.481276,N,11717.695990,W,59.2,345.8,281110,,,A*44
$GPRMC,205445.3,A,3304.528367,N,11717.710417,W,58.1,345.7,281110,,,A*43
$GPRMC,205448.3,A,3304.573502,N,11717.724280,W,56.5,345.5,281110,,,A*42
$GPRMC,205451.3,A,3304.619624,N,11717.740336,W,56.7,345.4,281110,,,A*4F
$GPRMC,205454.3,A,3304.666803,N,11717.752883,W,56.6,346.9,281110,,,A*40
$GPRMC,205457.3,A,3304.712468,N,11717.765012,W,56.2,345.9,281110,,,A*43
$GPRMC,205500.3,A,3304.757357,N,11717.778515,W,55.1,345.0,281110,,,A*4D
$GPRMC,205503.3,A,3304.802451,N,11717.792758,W,53.7,345.9,281110,,,A*46
$GPRMC,205506.3,A,3304.845404,N,11717.802738,W,52.9,347.2,281110,,,A*46
$GPRMC,205509.3,A,3304.887750,N,11717.817442,W,53.3,345.7,281110,,,A*43
$GPRMC,205512.3,A,3304.930115,N,11717.830720,W,53.2,345.7,281110,,,A*40
$GPRMC,205515.3,A,3304.974467,N,11717.844755,W,54.9,344.6,281110,,,A*4A
$GPRMC,205518.3,A,3305.018857,N,11717.862438,W,56.3,341.5,281110,,,A*48
$GPRMC,205521.3,A,3305.062357,N,11717.883350,W,56.3,337.8,281110,,,A*4E
$GPRMC,205524.3,A,3305.106484,N,11717.909223,W,57.9,333.6,281110,,,A*46
$GPRMC,205527.3,A,3305.150462,N,11717.937702,W,58.8,332.3,281110,,,A*4F
$GPRMC,205530.9,A,3305.206555,N,11717.976188,W,60.6,331.5,281110,,,A*47
$GPRMC,205534.3,A,3305.254822,N,11718.009036,W,59.4,330.8,281110,,,A*4D
$GPRMC,205537.9,A,3305.305837,N,11718.039169,W,57.6,331.1,281110,,,A*49
$GPRMC,205540.9,A,3305.349781,N,11718.068042,W,57.8,330.7,281110,,,A*46
$GPRMC,205543.9,A,3305.391665,N,11718.094924,W,56.1,330.6,281110,,,A*48
$GPRMC,205546.9,A,3305.431747,N,11718.122898,W,54.6,329.2,281110,,,A*42
$GPRMC,205549.9,A,3305.468507,N,11718.148470,W,53.7,330.3,281110,,,A*4E
$GPRMC,205552.9,A,3305.508721,N,11718.174037,W,54.4,331.7,281110,,,A*4C
$GPRMC,205556.3,A,3305.553307,N,11718.203634,W,55.3,331.2,281110,,,A*49
$GPRMC,205559.9,A,3305.603753,N,11718.235456,W,54.7,332.0,281110,,,A*48
$GPRMC,205602.9,A,3305.644734,N,11718.263957,W,55.8,331.3,281110,,,A*46
$GPRMC,205605.9,A,3305.683960,N,11718.285869,W,53.5,331.9,281110,,,A*40
$GPRMC,205608.0,A,3305.707107,N,11718.297529,W,50.6,332.2,281110,,,A*42
$GPRMC,205611.9,A,3305.758323,N,11718.331939,W,52.6,331.5,281110,,,A*4B
$GPRMC,205614.2,A,3305.788280,N,11718.353037,W,53.2,330.3,281110,,,A*41
$GPRMC,205617.9,A,3305.835146,N,11718.386252,W,55.3,330.9,281110,,,A*4D
$GPRMC,205620.9,A,3305.878277,N,11718.416491,W,58.9,331.2,281110,,,A*4B
$GPRMC,205623.9,A,3305.927341,N,11718.450158,W,61.8,331.1,281110,,,A*4D
$GPRMC,205626.9,A,3305.973363,N,11718.479731,W,61.9,331.4,281110,,,A*4F
$GPRMC,205629.9,A,3306.022011,N,11718.510880,W,63.6,331.4,281110,,,A*4E
$GPRMC,205632.9,A,3306.067223,N,11718.538753,W,62.3,331.8,281110,,,A*45
$GPRMC,205635.9,A,3306.111028,N,11718.566985,W,61.7,331.7,281110,,,A*4D
$GPRMC,205638.9,A,3306.156782,N,11718.595838,W,61.4,331.3,281110,,,A*48
$GPRMC,205641.9,A,3306.194872,N,11718.614747,W,57.8,333.1,281110,,,A*4C
$GPRMC,205644.2,A,3306.230078,N,11718.639087,W,60.3,331.4,281110,,,A*41
$GPRMC,205647.9,A,3306.291810,N,11718.683820,W,63.6,330.8,281110,,,A*4B
$GPRMC,205650.9,A,3306.337408,N,11718.715166,W,62.3,330.5,281110,,,A*49
$GPRMC,205653.9,A,3306.382144,N,11718.744705,W,60.8,331.1,281110,,,A*42
$GPRMC,205656.9,A,3306.425281,N,11718.770174,W,58.7,332.3,281110,,,A*45
$GPRMC,205659.9,A,3306.469376,N,11718.796586,W,59.1,332.3,281110,,,A*4D
$GPRMC,205702.9,A,3306.513816,N,11718.830397,W,60.6,330.6,281110,,,A*4C
$GPRMC,205705.9,A,3306.561013,N,11718.856965,W,62.4,332.8,281110,,,A*48
$GPRMC,205708.9,A,3306.605549,N,11718.878972,W,61.1,334.7,281110,,,A*4B
$GPRMC,205711.9,A,3306.649052,N,11718.907666,W,60.2,333.4,281110,,,A*41
$GPRMC,205714.9,A,3306.696568,N,11718.938589,W,61.5,333.0,281110,,,A*46
$GPRMC,205717.9,A,3306.740990,N,11718.967763,W,61.4,332.9,281110,,,A*41
$GPRMC,205720.9,A,3306.790100,N,11718.994313,W,60.9,333.3,281110,,,A*41
$GPRMC,205723.9,A,3306.834233,N,11719.020101,W,59.5,333.0,281110,,,A*43
$GPRMC,205726.9,A,3306.879408,N,11719.048144,W,59.0,332.7,281110,,,A*4D
$GPRMC,205729.3,A,3306.911960,N,11719.067270,W,58.1,332.6,281110,,,A*4C
$GPRMC,205732.9,A,3306.963561,N,11719.099472,W,58.7,333.2,281110,,,A*42
$GPRMC,205735.9,A,3307.004035,N,11719.118739,W,57.9,334.2,281110,,,A*4A
$GPRMC,205738.9,A,3307.047171,N,11719.145298,W,58.2,333.6,281110,,,A*40
$GPRMC,205741.9,A,3307.091918,N,11719.174236,W,58.7,332.6,281110,,,A*40
$GPRMC,205744.9,A,3307.133307,N,11719.196911,W,57.6,332.9,281110,,,A*4B
$GPRMC,205747.9,A,3307.178194,N,11719.227876,W,61.1,332.6,281110,,,A*4B
$GPRMC,205750.9,A,3307.226796,N,11719.258329,W,62.4,332.2,281110,,,A*4A
$GPRMC,205753.9,A,3307.270349,N,11719.281793,W,60.0,333.9,281110,,,A*41
$GPRMC,205756.9,A,3307.316314,N,11719.312523,W,60.3,332.7,281110,,,A*43
$GPRMC,205759.2,A,3307.348907,N,11719.331049,W,58.2,333.5,281110,,,A*45
$GPRMC,205802.2,A,3307.391961,N,11719.352957,W,57.5,334.1,281110,,,A*48
$GPRMC,205805.9,A,3307.447218,N,11719.383329,W,59.1,334.8,281110,,,A*41
$GPRMC,205808.9,A,3307.493892,N,11719.415114,W,60.2,332.1,281110,,,A*4F
$GPRMC,205811.9,A,3307.535997,N,11719.443109,W,59.4,332.9,281110,,,A*45
$GPRMC,205815.3,A,3307.584620,N,11719.471464,W,59.0,333.1,281110,,,A*40
$GPRMC,205818.9,A,3307.639280,N,11719.501506,W,59.3,333.8,281110,,,A*45
$GPRMC,205822.2,A,3307.688035,N,11719.530539,W,59.4,333.1,281110,,,A*41
$GPRMC,205825.9,A,3307.742239,N,11719.561539,W,58.7,333.3,281110,,,A*40
$GPRMC,205828.9,A,3307.787873,N,11719.592423,W,59.6,332.8,281110,,,A*4C
$GPRMC,205831.9,A,3307.832032,N,11719.621152,W,59.9,333.3,281110,,,A*45
$GPRMC,205834.2,A,3307.866500,N,11719.640266,W,59.7,332.7,281110,,,A*46
$GPRMC,205837.2,A,3307.909819,N,11719.663859,W,58.7,333.3,281110,,,A*4B
$GPRMC,205840.2,A,3307.952096,N,11719.687551,W,56.9,333.5,281110,,,A*43
$GPRMC,205843.3,A,3307.994232,N,11719.712175,W,55.0,333.6,281110,,,A*41
$GPRMC,205846.3,A,3308.034654,N,11719.735508,W,54.2,335.7,281110,,,A*43
$GPRMC,205849.3,A,3308.076704,N,11719.757711,W,54.4,336.4,281110,,,A*46
$GPRMC,205852.3,A,3308.118681,N,11719.778564,W,54.8,337.3,281110,,,A*4E
$GPRMC,205855.3,A,3308.161025,N,11719.799886,W,55.6,336.9,281110,,,A*45
$GPRMC,205858.3,A,3308.205571,N,11719.822116,W,57.3,337.2,281110,,,A*4F
$GPRMC,205901.3,A,3308.250444,N,11719.843851,W,58.2,337.4,281110,,,A*40
$GPRMC,205904.2,A,3308.294563,N,11719.866825,W,58.5,336.5,281110,,,A*4B
$GPRMC,205907.2,A,3308.338936,N,11719.889760,W,57.8,336.9,281110,,,A*42
$GPRMC,205910.2,A,3308.383483,N,11719.913060,W,57.2,337.0,281110,,,A*40
$GPRMC,205913.2,A,3308.427278,N,11719.934155,W,56.6,336.8,281110,,,A*46
$GPRMC,205916.2,A,3308.471764,N,11719.955984,W,57.3,337.0,281110,,,A*46
$GPRMC,205919.0,A,3308.513032,N,11719.975752,W,56.9,338.8,281110,,,A*41
$GPRMC,205922.3,A,3308.563267,N,11719.992741,W,56.7,345.9,281110,,,A*41
$GPRMC,205925.3,A,3308.609090,N,11720.001368,W,56.5,352.4,281110,,,A*4C
$GPRMC,205928.3,A,3308.656521,N,11720.005287,W,57.8,356.7,281110,,,A*4B
$GPRMC,205931.3,A,3308.703973,N,11720.009213,W,58.3,357.0,281110,,,A*4A
$GPRMC,205934.3,A,3308.750974,N,11720.011055,W,57.1,357.6,281110,,,A*4C
$GPRMC,205937.3,A,3308.797596,N,11720.014731,W,56.8,355.3,281110,,,A*4B
$GPRMC,205940.3,A,3308.843547,N,11720.022890,W,56.6,349.5,281110,,,A*45
$GPRMC,205943.3,A,3308.890827,N,11720.038657,W,58.0,342.5,281110,,,A*4E
$GPRMC,205946.3,A,3308.935417,N,11720.061851,W,58.7,336.1,281110,,,A*4E
$GPRMC,205949.3,A,3308.980702,N,11720.088480,W,59.8,334.4,281110,,,A*46
$GPRMC,205952.3,A,3309.025538,N,11720.114844,W,60.0,331.5,281110,,,A*46
$GPRMC,205955.3,A,3309.071454,N,11720.141901,W,60.6,334.5,281110,,,A*48
$GPRMC,205958.3,A,3309.117233,N,11720.167690,W,60.8,334.2,281110,,,A*49
$GPRMC,210001.3,A,3309.164338,N,11720.194008,W,61.9,334.2,281110,,,A*4D
$GPRMC,210004.3,A,3309.211278,N,11720.220437,W,61.2,333.9,281110,,,A*4F
$GPRMC,210008.3,A,3309.271682,N,11720.257824,W,62.0,333.7,281110,,,A*45
$GPRMC,210011.3,A,3309.316624,N,11720.281663,W,61.1,335.9,281110,,,A*4D
$GPRMC,210014.3,A,3309.363468,N,11720.306707,W,61.0,336.2,281110,,,A*44
$GPRMC,210017.3,A,3309.410243,N,11720.330570,W,61.6,336.7,281110,,,A*4F
$GPRMC,210020.3,A,3309.458708,N,11720.354553,W,62.3,337.0,281110,,,A*4E
$GPRMC,210023.3,A,3309.505574,N,11720.377499,W,61.3,336.5,281110,,,A*4C
$GPRMC,210026.3,A,3309.552527,N,11720.403294,W,61.4,335.5,281110,,,A*46
$GPRMC,210029.3,A,3309.598822,N,11720.426421,W,60.0,336.9,281110,,,A*42
$GPRMC,210032.3,A,3309.643529,N,11720.448671,W,57.9,336.7,281110,,,A*47
$GPRMC,210035.3,A,3309.686641,N,11720.470422,W,56.3,336.9,281110,,,A*4E
$GPRMC,210039.2,A,3309.744397,N,11720.499320,W,56.9,336.6,281110,,,A*45
$GPRMC,210042.2,A,3309.788867,N,11720.522563,W,57.6,336.5,281110,,,A*40
$GPRMC,210045.2,A,3309.833607,N,11720.545594,W,58.3,336.7,281110,,,A*41
$GPRMC,210048.2,A,3309.879175,N,11720.568837,W,58.9,336.9,281110,,,A*4F
$GPRMC,210051.2,A,3309.923770,N,11720.591646,W,58.8,336.9,281110,,,A*45
$GPRMC,210055.2,A,3309.984605,N,11720.622861,W,59.6,335.4,281110,,,A*4E
$GPRMC,210058.9,A,3310.040001,N,11720.651078,W,58.7,337.3,281110,,,A*42
$GPRMC,210101.3,A,3310.075217,N,11720.670145,W,58.6,335.7,281110,,,A*4D
$GPRMC,210104.3,A,3310.119514,N,11720.693456,W,57.0,335.6,281110,,,A*45
$GPRMC,210108.3,A,3310.178207,N,11720.727186,W,59.6,331.6,281110,,,A*41
$GPRMC,210111.3,A,3310.220599,N,11720.760956,W,60.5,327.7,281110,,,A*4E
$GPRMC,210114.3,A,3310.264111,N,11720.794110,W,61.8,328.0,281110,,,A*4A
$GPRMC,210117.3,A,3310.307043,N,11720.826555,W,61.1,327.5,281110,,,A*4B
$GPRMC,210120.3,A,3310.348928,N,11720.860377,W,61.0,326.8,281110,,,A*49
$GPRMC,210123.3,A,3310.391517,N,11720.893118,W,60.2,327.2,281110,,,A*41
$GPRMC,210126.3,A,3310.434714,N,11720.925687,W,60.6,327.8,281110,,,A*4E
$GPRMC,210129.3,A,3310.477405,N,11720.956432,W,61.5,328.3,281110,,,A*4B
$GPRMC,210132.3,A,3310.520164,N,11720.989358,W,60.2,327.6,281110,,,A*45
$GPRMC,210135.3,A,3310.562109,N,11721.022081,W,59.8,327.6,281110,,,A*41
$GPRMC,210138.9,A,3310.612821,N,11721.061978,W,59.9,326.5,281110,,,A*4A
$GPRMC,210141.3,A,3310.645070,N,11721.087032,W,60.0,326.8,281110,,,A*41
$GPRMC,210144.0,A,3310.684508,N,11721.119116,W,61.2,325.0,281110,,,A*49
$GPRMC,210147.3,A,3310.730720,N,11721.156492,W,61.3,325.6,281110,,,A*4A
$GPRMC,210150.3,A,3310.772000,N,11721.189855,W,59.7,325.9,281110,,,A*4A
$GPRMC,210153.3,A,3310.812422,N,11721.223507,W,58.2,325.0,281110,,,A*40
$GPRMC,210156.3,A,3310.851657,N,11721.255760,W,56.8,324.6,281110,,,A*43
$GPRMC,210159.3,A,3310.889263,N,11721.287005,W,55.6,325.5,281110,,,A*4E
$GPRMC,210202.3,A,3310.926875,N,11721.319032,W,54.7,324.6,281110,,,A*4A
$GPRMC,210205.3,A,3310.963629,N,11721.349378,W,53.5,324.4,281110,,,A*44
$GPRMC,210208.3,A,3311.000079,N,11721.380085,W,54.0,325.3,281110,,,A*47
$GPRMC,210211.3,A,3311.037206,N,11721.411087,W,54.5,324.9,281110,,,A*42
$GPRMC,210214.3,A,3311.074433,N,11721.441821,W,54.8,325.4,281110,,,A*40
$GPRMC,210217.3,A,3311.113061,N,11721.473488,W,56.2,325.5,281110,,,A*47
$GPRMC,210220.3,A,3311.151791,N,11721.506611,W,57.1,324.8,281110,,,A*42
$GPRMC,210223.3,A,3311.191443,N,11721.538540,W,57.1,325.0,281110,,,A*42
$GPRMC,210226.3,A,3311.230196,N,11721.570958,W,55.7,325.0,281110,,,A*4F
$GPRMC,210229.3,A,3311.267146,N,11721.602568,W,54.8,325.0,281110,,,A*48
$GPRMC,210232.3,A,3311.303129,N,11721.631595,W,54.1,325.2,281110,,,A*41
$GPRMC,210235.3,A,3311.339946,N,11721.663731,W,54.0,325.4,281110,,,A*42
$GPRMC,210238.3,A,3311.377107,N,11721.695094,W,54.8,325.2,281110,,,A*47
$GPRMC,210241.3,A,3311.415935,N,11721.726702,W,55.1,324.8,281110,,,A*41
$GPRMC,210244.3,A,3311.454524,N,11721.757830,W,55.8,325.2,281110,,,A*47
$GPRMC,210247.3,A,3311.493284,N,11721.790284,W,55.7,325.1,281110,,,A*40
$GPRMC,210250.3,A,3311.532229,N,11721.822291,W,56.2,324.8,281110,,,A*47
$GPRMC,210253.3,A,3311.570175,N,11721.853311,W,54.2,325.2,281110,,,A*4E
$GPRMC,210256.3,A,3311.606227,N,11721.883618,W,51.8,324.9,281110,,,A*49
$GPRMC,210259.3,A,3311.642137,N,11721.912294,W,52.5,325.3,281110,,,A*48
$GPRMC,210302.3,A,3311.678758,N,11721.942132,W,53.0,324.6,281110,,,A*4B
$GPRMC,210305.3,A,3311.715911,N,11721.972639,W,53.9,324.3,281110,,,A*46
$GPRMC,210308.3,A,3311.753456,N,11722.002862,W,54.0,325.6,281110,,,A*40
$GPRMC,210311.3,A,3311.791090,N,11722.035352,W,54.6,325.1,281110,,,A*45
$GPRMC,210315.3,A,3311.838711,N,11722.076274,W,55.0,323.8,281110,,,A*49
$GPRMC,210318.0,A,3311.872777,N,11722.104123,W,56.3,324.5,281110,,,A*46
$GPRMC,210321.3,A,3311.912309,N,11722.142415,W,57.9,317.7,281110,,,A*4E
$GPRMC,210324.9,A,3311.955518,N,11722.193313,W,59.3,313.6,281110,,,A*48
$GPRMC,210327.3,A,3311.979660,N,11722.227265,W,59.4,309.0,281110,,,A*45
$GPRMC,210330.9,A,3312.013159,N,11722.286825,W,58.5,303.8,281110,,,A*45
$GPRMC,210333.3,A,3312.028150,N,11722.328119,W,58.0,294.3,281110,,,A*4F
$GPRMC,210336.0,A,3312.045139,N,11722.378788,W,59.4,292.6,281110,,,A*40
$GPRMC,210339.2,A,3312.065750,N,11722.440308,W,61.9,292.2,281110,,,A*44
$GPRMC,210342.2,A,3312.085170,N,11722.498273,W,62.3,292.0,281110,,,A*41
$GPRMC,210345.2,A,3312.104581,N,11722.556668,W,62.4,291.9,281110,,,A*44
$GPRMC,210348.2,A,3312.124808,N,11722.614559,W,62.0,292.2,281110,,,A*4F
$GPRMC,210352.3,A,3312.150366,N,11722.689898,W,60.7,292.0,281110,,,A*46
$GPRMC,210355.3,A,3312.168685,N,11722.745425,W,61.1,291.7,281110,,,A*4A
$GPRMC,210358.0,A,3312.186710,N,11722.797175,W,61.9,292.5,281110,,,A*4F
$GPRMC,210401.2,A,3312.210845,N,11722.857596,W,63.2,296.2,281110,,,A*45
$GPRMC,210404.9,A,3312.245593,N,11722.922997,W,62.0,303.6,281110,,,A*49
$GPRMC,210408.3,A,3312.283780,N,11722.975515,W,64.2,309.6,281110,,,A*4F
$GPRMC,210411.3,A,3312.320844,N,11723.018978,W,62.5,316.6,281110,,,A*43
$GPRMC,210414.2,A,3312.361761,N,11723.056546,W,62.0,323.6,281110,,,A*42
$GPRMC,210417.9,A,3312.416708,N,11723.096528,W,62.4,328.9,281110,,,A*46
$GPRMC,210420.9,A,3312.462339,N,11723.126402,W,61.3,332.0,281110,,,A*42
$GPRMC,210423.9,A,3312.505766,N,11723.155273,W,60.0,331.5,281110,,,A*4F
$GPRMC,210426.9,A,3312.550425,N,11723.178032,W,59.8,333.7,281110,,,A*44
$GPRMC,210429.9,A,3312.596576,N,11723.202134,W,59.8,333.0,281110,,,A*48
$GPRMC,210432.9,A,3312.643150,N,11723.230010,W,61.2,332.8,281110,,,A*47
$GPRMC,210435.9,A,3312.687316,N,11723.259536,W,60.9,331.9,281110,,,A*4E
$GPRMC,210438.9,A,3312.731620,N,11723.294310,W,61.1,330.6,281110,,,A*4B
$GPRMC,210441.0,A,3312.763098,N,11723.309147,W,60.4,332.6,281110,,,A*4D
$GPRMC,210444.2,A,3312.810993,N,11723.338163,W,60.5,332.3,281110,,,A*43
$GPRMC,210447.2,A,3312.856600,N,11723.365921,W,61.2,337.3,281110,,,A*42
$GPRMC,210450.3,A,3312.905738,N,11723.385235,W,62.0,342.3,281110,,,A*4B
$GPRMC,210453.3,A,3312.955999,N,11723.400412,W,61.8,345.6,281110,,,A*48
$GPRMC,210456.3,A,3313.005577,N,11723.415914,W,60.5,345.5,281110,,,A*4C
$GPRMC,210459.3,A,3313.054632,N,11723.431388,W,61.0,345.8,281110,,,A*45
$GPRMC,210502.2,A,3313.103831,N,11723.446229,W,61.5,346.0,281110,,,A*41
$GPRMC,210505.2,A,3313.152367,N,11723.460267,W,60.5,345.8,281110,,,A*4E
$GPRMC,210508.2,A,3313.200168,N,11723.474426,W,58.5,345.5,281110,,,A*4A
$GPRMC,210511.2,A,3313.247944,N,11723.488235,W,59.0,346.4,281110,,,A*46
$GPRMC,210514.2,A,3313.295690,N,11723.502310,W,58.5,345.6,281110,,,A*4A
$GPRMC,210518.2,A,3313.359175,N,11723.525052,W,57.7,341.9,281110,,,A*4D
$GPRMC,210521.2,A,3313.403003,N,11723.550478,W,58.6,333.2,281110,,,A*41
$GPRMC,210524.9,A,3313.455809,N,11723.588176,W,58.4,327.0,281110,,,A*45
$GPRMC,210527.9,A,3313.493178,N,11723.625762,W,57.8,320.0,281110,,,A*40
$GPRMC,210530.9,A,3313.527779,N,11723.663940,W,57.7,317.7,281110,,,A*4F
$GPRMC,210533.9,A,3313.564877,N,11723.703968,W,58.7,317.2,281110,,,A*4D
$GPRMC,210536.3,A,3313.591517,N,11723.734528,W,57.8,316.6,281110,,,A*4A
$GPRMC,210539.9,A,3313.635110,N,11723.783838,W,57.2,317.9,281110,,,A*45
$GPRMC,210542.9,A,3313.671301,N,11723.823651,W,58.7,317.8,281110,,,A*44
$GPRMC,210545.9,A,3313.706934,N,11723.863572,W,58.5,317.1,281110,,,A*43
$GPRMC,210548.9,A,3313.743783,N,11723.904469,W,60.4,317.2,281110,,,A*4F
$GPRMC,210551.9,A,3313.780834,N,11723.946816,W,61.6,315.9,281110,,,A*43
$GPRMC,210554.9,A,3313.818837,N,11723.990188,W,63.0,317.0,281110,,,A*41
$GPRMC,210558.2,A,3313.858402,N,11724.035035,W,61.6,316.9,281110,,,A*42
$GPRMC,210601.2,A,3313.896459,N,11724.076844,W,61.2,316.7,281110,,,A*42
$GPRMC,210604.9,A,3313.945154,N,11724.125525,W,61.1,319.5,281110,,,A*48
$GPRMC,210607.9,A,3313.986420,N,11724.163822,W,61.6,321.8,281110,,,A*4B
$GPRMC,210610.2,A,3314.016019,N,11724.192375,W,61.1,320.9,281110,,,A*4F
$GPRMC,210613.2,A,3314.055642,N,11724.230809,W,60.3,321.7,281110,,,A*44
$GPRMC,210616.2,A,3314.094689,N,11724.269595,W,60.0,320.4,281110,,,A*4E
$GPRMC,210619.2,A,3314.132951,N,11724.303605,W,57.8,323.3,281110,,,A*49
$GPRMC,210622.2,A,3314.171328,N,11724.338972,W,57.8,322.1,281110,,,A*46
$GPRMC,210625.2,A,3314.210601,N,11724.375513,W,59.8,322.2,281110,,,A*44
$GPRMC,210628.9,A,3314.259046,N,11724.418106,W,59.4,319.6,281110,,,A*46
$GPRMC,210632.2,A,3314.299161,N,11724.467528,W,60.4,310.6,281110,,,A*4D
$GPRMC,210635.3,A,3314.327498,N,11724.516407,W,60.4,304.3,281110,,,A*47
$GPRMC,210638.3,A,3314.348123,N,11724.569786,W,58.2,295.7,281110,,,A*44
$GPRMC,210641.2,A,3314.366219,N,11724.622141,W,58.3,291.2,281110,,,A*4C
$GPRMC,210644.9,A,3314.385728,N,11724.688124,W,57.0,291.7,281110,,,A*42
$GPRMC,210647.9,A,3314.404653,N,11724.740224,W,56.4,294.4,281110,,,A*47
$GPRMC,210650.3,A,3314.422921,N,11724.779495,W,56.2,299.3,281110,,,A*4F
$GPRMC,210653.3,A,3314.450317,N,11724.826426,W,56.9,306.2,281110,,,A*46
$GPRMC,210656.3,A,3314.481334,N,11724.868831,W,58.1,313.0,281110,,,A*4E
$GPRMC,210659.9,A,3314.527896,N,11724.916341,W,59.2,321.2,281110,,,A*40
$GPRMC,210702.3,A,3314.559184,N,11724.941957,W,58.9,324.2,281110,,,A*46
$GPRMC,210705.2,A,3314.601560,N,11724.967809,W,58.1,333.8,281110,,,A*4A
$GPRMC,210708.0,A,3314.642059,N,11724.986518,W,57.5,339.3,281110,,,A*45
$GPRMC,210711.3,A,3314.691678,N,11725.008657,W,57.7,339.2,281110,,,A*40
$GPRMC,210714.3,A,3314.736363,N,11725.030097,W,57.6,339.3,281110,,,A*47
$GPRMC,210717.3,A,3314.781525,N,11725.048657,W,57.6,339.7,281110,,,A*4D
$GPRMC,210720.3,A,3314.825874,N,11725.068285,W,57.5,337.9,281110,,,A*4B
$GPRMC,210723.3,A,3314.870971,N,11725.095054,W,57.3,332.9,281110,,,A*43
$GPRMC,210727.3,A,3314.926616,N,11725.134532,W,58.6,329.2,281110,,,A*4F
$GPRMC,210730.3,A,3314.968244,N,11725.166885,W,59.7,326.4,281110,,,A*4F
$GPRMC,210733.3,A,3315.008938,N,11725.199834,W,58.4,326.1,281110,,,A*4F
$GPRMC,210736.3,A,3315.049106,N,11725.232322,W,57.1,326.4,281110,,,A*4B
$GPRMC,210739.3,A,3315.088281,N,11725.264150,W,57.2,326.2,281110,,,A*44
$GPRMC,210742.3,A,3315.129577,N,11725.296447,W,58.6,326.7,281110,,,A*4C
$GPRMC,210745.3,A,3315.169939,N,11725.327752,W,58.4,327.3,281110,,,A*42
$GPRMC,210748.2,A,3315.209045,N,11725.359558,W,57.9,325.8,281110,,,A*43
$GPRMC,210751.2,A,3315.249261,N,11725.393241,W,58.0,326.2,281110,,,A*4D
$GPRMC,210754.9,A,3315.300851,N,11725.434125,W,58.5,327.8,281110,,,A*43
$GPRMC,210757.9,A,3315.340894,N,11725.466115,W,57.9,326.0,281110,,,A*43
$GPRMC,210800.9,A,3315.379634,N,11725.499002,W,57.8,325.8,281110,,,A*4D
$GPRMC,210803.3,A,3315.411034,N,11725.522053,W,57.7,324.9,281110,,,A*41
$GPRMC,210806.3,A,3315.451200,N,11725.555706,W,59.0,326.0,281110,,,A*40
$GPRMC,210809.3,A,3315.492766,N,11725.588194,W,59.2,325.9,281110,,,A*40
$GPRMC,210812.3,A,3315.534433,N,11725.620790,W,59.9,326.8,281110,,,A*4E
$GPRMC,210815.3,A,3315.575501,N,11725.652499,W,60.3,326.4,281110,,,A*4F
$GPRMC,210818.3,A,3315.618375,N,11725.686940,W,60.7,326.8,281110,,,A*47
$GPRMC,210821.3,A,3315.659533,N,11725.719578,W,59.3,326.3,281110,,,A*49
$GPRMC,210824.3,A,3315.700834,N,11725.750977,W,58.8,326.4,281110,,,A*48
$GPRMC,210827.3,A,3315.740500,N,11725.782606,W,57.6,326.5,281110,,,A*43
$GPRMC,210830.3,A,3315.780713,N,11725.814358,W,57.7,326.2,281110,,,A*41
$GPRMC,210833.3,A,3315.819218,N,11725.845168,W,56.3,325.9,281110,,,A*4B
$GPRMC,210836.3,A,3315.857785,N,11725.879210,W,56.5,321.6,281110,,,A*4B
$GPRMC,210839.3,A,3315.893430,N,11725.916022,W,57.5,315.4,281110,,,A*4E
$GPRMC,210842.9,A,3315.931858,N,11725.962344,W,56.0,313.9,281110,,,A*4C
$GPRMC,210845.9,A,3315.963200,N,11726.004934,W,58.3,312.0,281110,,,A*49
$GPRMC,210848.9,A,3315.999047,N,11726.053990,W,61.9,311.5,281110,,,A*4A
$GPRMC,210851.9,A,3316.033384,N,11726.101419,W,61.5,311.2,281110,,,A*45
$GPRMC,210854.9,A,3316.065611,N,11726.145950,W,60.6,309.0,281110,,,A*43
$GPRMC,210857.9,A,3316.098363,N,11726.192874,W,59.4,309.5,281110,,,A*42
$GPRMC,210900.9,A,3316.129800,N,11726.235871,W,57.2,311.9,281110,,,A*42
$GPRMC,210903.9,A,3316.159964,N,11726.276389,W,56.5,311.7,281110,,,A*46
$GPRMC,210906.9,A,3316.192254,N,11726.319023,W,56.9,311.1,281110,,,A*4D
$GPRMC,210909.9,A,3316.221378,N,11726.357848,W,54.1,311.8,281110,,,A*4A
$GPRMC,210912.9,A,3316.253893,N,11726.399458,W,55.9,311.7,281110,,,A*42
$GPRMC,210915.9,A,3316.283896,N,11726.439097,W,55.4,312.2,281110,,,A*4C
$GPRMC,210918.9,A,3316.314667,N,11726.482182,W,56.6,311.1,281110,,,A*4A
$GPRMC,210921.9,A,3316.347800,N,11726.527464,W,57.7,313.6,281110,,,A*4F
$GPRMC,210924.9,A,3316.380359,N,11726.563831,W,57.0,320.2,281110,,,A*49
$GPRMC,210927.3,A,3316.410095,N,11726.588054,W,55.3,325.5,281110,,,A*40
$GPRMC,210930.3,A,3316.451027,N,11726.617649,W,56.1,328.0,281110,,,A*4C
$GPRMC,210933.0,A,3316.488314,N,11726.644361,W,56.8,327.4,281110,,,A*40
$GPRMC,210936.9,A,3316.540347,N,11726.684171,W,57.5,327.2,281110,,,A*4A
$GPRMC,210939.0,A,3316.568474,N,11726.705006,W,57.4,327.1,281110,,,A*4A
$GPRMC,210942.2,A,3316.613451,N,11726.736254,W,57.1,329.2,281110,,,A*41
$GPRMC,210945.2,A,3316.654232,N,11726.767889,W,56.8,327.3,281110,,,A*4F
$GPRMC,210948.2,A,3316.692725,N,11726.798593,W,56.3,327.4,281110,,,A*41
$GPRMC,210951.2,A,3316.732610,N,11726.829474,W,57.4,327.6,281110,,,A*4C
$GPRMC,210954.2,A,3316.773876,N,11726.860352,W,58.2,327.9,281110,,,A*4A
$GPRMC,210957.2,A,3316.814608,N,11726.893131,W,58.8,327.0,281110,,,A*48
$GPRMC,211000.2,A,3316.854994,N,11726.923059,W,56.7,327.1,281110,,,A*49
$GPRMC,211003.2,A,3316.894836,N,11726.953635,W,55.8,327.6,281110,,,A*4F
$GPRMC,211006.2,A,3316.934302,N,11726.983482,W,56.2,327.1,281110,,,A*40
$GPRMC,211009.2,A,3316.974138,N,11727.013370,W,56.4,327.7,281110,,,A*4B
$GPRMC,211012.2,A,3317.013294,N,11727.043367,W,56.3,327.9,281110,,,A*47
$GPRMC,211015.2,A,3317.052826,N,11727.073159,W,56.1,327.6,281110,,,A*47
$GPRMC,211018.2,A,3317.092225,N,11727.103033,W,56.3,327.6,281110,,,A*46
$GPRMC,211021.2,A,3317.132157,N,11727.132429,W,56.8,327.2,281110,,,A*43
$GPRMC,211024.2,A,3317.171463,N,11727.163607,W,57.3,326.9,281110,,,A*49
$GPRMC,211027.2,A,3317.211063,N,11727.193733,W,56.8,327.4,281110,,,A*44
$GPRMC,211030.2,A,3317.251248,N,11727.221486,W,56.1,327.8,281110,,,A*4F
$GPRMC,211033.2,A,3317.290854,N,11727.251920,W,57.1,326.5,281110,,,A*4D
$GPRMC,211036.2,A,3317.330706,N,11727.283578,W,57.3,326.9,281110,,,A*4B
$GPRMC,211039.3,A,3317.371411,N,11727.314040,W,57.5,328.8,281110,,,A*4D
$GPRMC,211042.3,A,3317.411050,N,11727.346022,W,57.2,327.0,281110,,,A*42
$GPRMC,211045.2,A,3317.451499,N,11727.375517,W,56.9,327.8,281110,,,A*40
$GPRMC,211048.0,A,3317.488958,N,11727.404814,W,58.2,327.6,281110,,,A*4F
$GPRMC,211051.3,A,3317.533707,N,11727.438090,W,57.8,327.8,281110,,,A*41
$GPRMC,211054.3,A,3317.575365,N,11727.470231,W,58.2,327.3,281110,,,A*4D
$GPRMC,211057.9,A,3317.626879,N,11727.506765,W,57.0,325.9,281110,,,A*46
$GPRMC,211100.9,A,3317.663085,N,11727.542836,W,55.6,320.2,281110,,,A*4C
$GPRMC,211103.2,A,3317.690833,N,11727.569095,W,55.1,323.6,281110,,,A*45
$GPRMC,211106.2,A,3317.722195,N,11727.611148,W,57.1,314.3,281110,,,A*43
$GPRMC,211109.2,A,3317.755147,N,11727.651637,W,56.3,314.5,281110,,,A*4D
$GPRMC,211112.9,A,3317.794510,N,11727.701767,W,55.1,314.4,281110,,,A*47
$GPRMC,211115.9,A,3317.824855,N,11727.739941,W,53.6,313.9,281110,,,A*42
$GPRMC,211118.9,A,3317.857217,N,11727.775481,W,52.7,315.4,281110,,,A*45
$GPRMC,211121.9,A,3317.888049,N,11727.813040,W,52.7,314.8,281110,,,A*4F
$GPRMC,211124.9,A,3317.919283,N,11727.850910,W,52.4,314.8,281110,,,A*4F
$GPRMC,211127.9,A,3317.949395,N,11727.888361,W,52.6,314.2,281110,,,A*4E
$GPRMC,211130.9,A,3317.981391,N,11727.925973,W,54.2,315.4,281110,,,A*42
$GPRMC,211133.9,A,3318.013240,N,11727.966041,W,55.6,314.6,281110,,,A*48
$GPRMC,211136.9,A,3318.045205,N,11728.004002,W,55.6,314.5,281110,,,A*49
$GPRMC,211139.9,A,3318.076503,N,11728.043749,W,56.8,314.1,281110,,,A*45
$GPRMC,211142.9,A,3318.112173,N,11728.084500,W,57.7,315.4,281110,,,A*47
$GPRMC,211145.9,A,3318.147395,N,11728.126423,W,59.1,315.1,281110,,,A*4E
$GPRMC,211148.9,A,3318.182945,N,11728.168963,W,58.0,314.5,281110,,,A*4B
$GPRMC,211151.9,A,3318.214958,N,11728.210229,W,56.7,313.9,281110,,,A*48
$GPRMC,211154.9,A,3318.249075,N,11728.253312,W,56.8,313.8,281110,,,A*43
$GPRMC,211157.9,A,3318.282624,N,11728.292022,W,57.0,315.9,281110,,,A*46
$GPRMC,211200.9,A,3318.315411,N,11728.330557,W,56.7,315.7,281110,,,A*4A
$GPRMC,211203.9,A,3318.350522,N,11728.371684,W,58.7,314.3,281110,,,A*4A
$GPRMC,211206.9,A,3318.384208,N,11728.411974,W,58.5,314.4,281110,,,A*4D
$GPRMC,211209.9,A,3318.416954,N,11728.454251,W,58.3,313.7,281110,,,A*43
$GPRMC,211212.9,A,3318.450734,N,11728.496629,W,58.5,314.3,281110,,,A*43
$GPRMC,211215.9,A,3318.485798,N,11728.538408,W,58.6,314.8,281110,,,A*46
$GPRMC,211218.9,A,3318.521544,N,11728.581410,W,59.1,314.6,281110,,,A*44
$GPRMC,211221.9,A,3318.554913,N,11728.621129,W,57.1,315.0,281110,,,A*4D
$GPRMC,211224.9,A,3318.586947,N,11728.662852,W,58.7,314.0,281110,,,A*4C
$GPRMC,211227.9,A,3318.619617,N,11728.704422,W,58.0,314.1,281110,,,A*4C
$GPRMC,211230.9,A,3318.653711,N,11728.743739,W,57.7,315.0,281110,,,A*41
$GPRMC,211233.9,A,3318.690634,N,11728.784876,W,58.3,316.2,281110,,,A*4E
$GPRMC,211236.9,A,3318.727574,N,11728.822612,W,59.2,320.3,281110,,,A*4A
$GPRMC,211239.3,A,3318.756549,N,11728.845754,W,56.9,328.4,281110,,,A*4E
$GPRMC,211242.9,A,3318.806759,N,11728.875901,W,56.5,335.7,281110,,,A*4F
$GPRMC,211246.3,A,3318.857093,N,11728.898385,W,55.9,341.9,281110,,,A*43
$GPRMC,211249.9,A,3318.910663,N,11728.913527,W,54.4,350.3,281110,,,A*47
$GPRMC,211252.2,A,3318.947736,N,11728.918868,W,56.5,352.5,281110,,,A*4F
$GPRMC,211255.2,A,3318.997817,N,11728.926076,W,61.5,354.9,281110,,,A*4D
$GPRMC,211258.2,A,3319.039993,N,11728.930018,W,55.0,355.2,281110,,,A*46
$GPRMC,211301.2,A,3319.083795,N,11728.933689,W,55.2,355.3,281110,,,A*4C
$GPRMC,211304.2,A,3319.129772,N,11728.938825,W,55.4,355.5,281110,,,A*42
$GPRMC,211307.2,A,3319.174803,N,11728.944514,W,54.8,351.8,281110,,,A*40
$GPRMC,211310.2,A,3319.218566,N,11728.954920,W,55.5,346.2,281110,,,A*4B
$GPRMC,211314.2,A,3319.277783,N,11728.978213,W,57.7,337.5,281110,,,A*4B
$GPRMC,211317.9,A,3319.330848,N,11729.013306,W,59.3,329.3,281110,,,A*4A
$GPRMC,211320.9,A,3319.370615,N,11729.047346,W,59.3,322.4,281110,,,A*45
$GPRMC,211323.9,A,3319.406157,N,11729.089095,W,58.3,315.1,281110,,,A*4E
$GPRMC,211326.3,A,3319.431472,N,11729.121856,W,58.8,311.7,281110,,,A*4A
$GPRMC,211329.9,A,3319.473563,N,11729.177099,W,60.3,311.6,281110,,,A*41
$GPRMC,211332.9,A,3319.506435,N,11729.226146,W,60.9,310.2,281110,,,A*41
$GPRMC,211335.9,A,3319.536923,N,11729.270521,W,59.2,310.2,281110,,,A*48
$GPRMC,211338.9,A,3319.569279,N,11729.311616,W,57.9,311.7,281110,,,A*4B
$GPRMC,211341.9,A,3319.600378,N,11729.352750,W,57.4,311.5,281110,,,A*42
$GPRMC,211344.9,A,3319.630293,N,11729.397966,W,57.8,310.2,281110,,,A*48
$GPRMC,211347.9,A,3319.661799,N,11729.441900,W,57.3,311.5,281110,,,A*41
$GPRMC,211350.9,A,3319.693579,N,11729.484619,W,57.4,310.7,281110,,,A*4C
$GPRMC,211353.9,A,3319.723877,N,11729.526059,W,56.7,310.4,281110,,,A*4C
$GPRMC,211356.9,A,3319.755810,N,11729.567175,W,57.3,311.0,281110,,,A*43
$GPRMC,211359.9,A,3319.787899,N,11729.609626,W,57.6,312.2,281110,,,A*4C
