NMEA Sentence Code,UTC Time,Status,Latitude,Latitude Direction,Longitude,Longitude Direction,Speed (knots),Track Angle (degrees true),Date,MagneticVariation,Magnetic Variation Direction,[FAA Mode]-Optional,Checksum
$GPRMC,233801.000,A,3312.9487,N,11723.5189,W,21.10,127.00,200910,,,A*49
$GPRMC,233804.000,A,3312.9368,N,11723.5028,W,21.40,135.90,200910,,,A*4F
$GPRMC,233807.000,A,3312.9222,N,11723.4923,W,20.80,152.00,200910,,,A*45
$GPRMC,233810.000,A,3312.9046,N,11723.4869,W,21.90,164.10,200910,,,A*48
$GPRMC,233813.000,A,3312.8866,N,11723.4841,W,22.30,170.00,200910,,,A*47
$GPRMC,233816.000,A,3312.8685,N,11723.4810,W,21.60,169.80,200910,,,A*43
$GPRMC,233819.000,A,3312.8511,N,11723.4771,W,20.90,167.90,200910,,,A*4B
$GPRMC,233822.000,A,3312.8339,N,11723.4733,W,21.00,168.40,200910,,,A*43
$GPRMC,233825.000,A,3312.8166,N,11723.4692,W,21.30,169.00,200910,,,A*40
$GPRMC,233828.000,A,3312.7988,N,11723.4654,W,21.10,170.90,200910,,,A*43
$GPRMC,233831.000,A,3312.7809,N,11723.4614,W,22.30,168.50,200910,,,A*43
$GPRMC,233834.000,A,3312.7625,N,11723.4568,W,22.20,168.30,200910,,,A*49
$GPRMC,233837.000,A,3312.7445,N,11723.4520,W,21.90,167.90,200910,,,A*4F
$GPRMC,233840.000,A,3312.7267,N,11723.4476,W,21.50,168.80,200910,,,A*49
$GPRMC,233843.000,A,3312.7088,N,11723.4432,W,22.10,168.50,200910,,,A*43
$GPRMC,233846.000,A,3312.6906,N,11723.4389,W,22.40,167.90,200910,,,A*49
$GPRMC,233849.000,A,3312.6724,N,11723.4344,W,22.10,167.40,200910,,,A*41
$GPRMC,233852.000,A,3312.6551,N,11723.4298,W,21.10,167.20,200910,,,A*4E
$GPRMC,233855.000,A,3312.6388,N,11723.4256,W,19.70,168.40,200910,,,A*4D
$GPRMC,233858.000,A,3312.6224,N,11723.4214,W,20.30,167.50,200910,,,A*41
$GPRMC,233901.000,A,3312.6051,N,11723.4167,W,21.50,167.60,200910,,,A*4F
$GPRMC,233904.000,A,3312.5872,N,11723.4139,W,21.10,180.60,200910,,,A*46
$GPRMC,233907.000,A,3312.5711,N,11723.4177,W,19.60,198.70,200910,,,A*41
$GPRMC,233910.000,A,3312.5565,N,11723.4267,W,19.70,208.50,200910,,,A*4D
$GPRMC,233913.000,A,3312.5434,N,11723.4359,W,18.50,207.90,200910,,,A*47
$GPRMC,233916.000,A,3312.5319,N,11723.4407,W,17.90,190.60,200910,,,A*47
$GPRMC,233919.000,A,3312.5159,N,11723.4380,W,20.70,169.60,200910,,,A*4A
$GPRMC,233922.000,A,3312.4993,N,11723.4342,W,20.10,167.80,200910,,,A*45
$GPRMC,233925.000,A,3312.4889,N,11723.4324,W,9.80,168.70,200910,,,A*7A
$GPRMC,233943.000,A,3312.4806,N,11723.4287,W,4.50,103.80,200910,,,A*77
$GPRMC,233946.000,A,3312.4821,N,11723.4143,W,17.10,66.80,200910,,,A*78
$GPRMC,233949.000,A,3312.4888,N,11723.3966,W,21.00,62.30,200910,,,A*77
$GPRMC,233952.000,A,3312.4959,N,11723.3782,W,19.70,61.90,200910,,,A*71
$GPRMC,233955.000,A,3312.5028,N,11723.3605,W,19.50,61.80,200910,,,A*75
$GPRMC,233958.000,A,3312.5101,N,11723.3428,W,20.20,59.90,200910,,,A*78
$GPRMC,234001.000,A,3312.5191,N,11723.3258,W,20.60,54.40,200910,,,A*76
$GPRMC,234004.000,A,3312.5318,N,11723.3128,W,18.30,34.60,200910,,,A*7E
$GPRMC,234007.000,A,3312.5416,N,11723.3054,W,10.80,26.80,200910,,,A*70
$GPRMC,234043.000,A,3312.5511,N,11723.2990,W,2.50,31.20,200910,,,A*44
$GPRMC,234046.000,A,3312.5571,N,11723.2959,W,12.10,09.30,200910,,,A*7D
$GPRMC,234049.000,A,3312.5704,N,11723.2988,W,20.70,335.80,200910,,,A*4E
$GPRMC,234052.000,A,3312.5882,N,11723.3088,W,25.30,333.20,200910,,,A*40
$GPRMC,234055.000,A,3312.6080,N,11723.3203,W,26.50,334.00,200910,,,A*4F
$GPRMC,234058.000,A,3312.6293,N,11723.3281,W,26.80,348.10,200910,,,A*4F
$GPRMC,234101.000,A,3312.6470,N,11723.3145,W,26.40,47.90,200910,,,A*7A
$GPRMC,234104.000,A,3312.6563,N,11723.2906,W,26.20,75.90,200910,,,A*75
$GPRMC,234107.000,A,3312.6448,N,11723.2666,W,28.80,128.90,200910,,,A*4A
$GPRMC,234110.000,A,3312.6212,N,11723.2471,W,34.50,146.50,200910,,,A*45
$GPRMC,234113.000,A,3312.5945,N,11723.2292,W,37.40,149.60,200910,,,A*49
$GPRMC,234116.000,A,3312.5655,N,11723.2086,W,40.90,149.60,200910,,,A*48
$GPRMC,234119.000,A,3312.5341,N,11723.1904,W,42.10,152.90,200910,,,A*48
$GPRMC,234122.000,A,3312.5002,N,11723.1686,W,44.60,152.50,200910,,,A*4C
$GPRMC,234125.000,A,3312.4669,N,11723.1483,W,44.50,152.20,200910,,,A*42
$GPRMC,234128.000,A,3312.4355,N,11723.1278,W,41.70,151.40,200910,,,A*45
$GPRMC,234131.000,A,3312.4066,N,11723.1086,W,39.50,150.60,200910,,,A*43
$GPRMC,234134.000,A,3312.3778,N,11723.0889,W,40.30,150.10,200910,,,A*40
$GPRMC,234137.000,A,3312.3485,N,11723.0667,W,42.10,147.00,200910,,,A*4B
$GPRMC,234140.000,A,3312.3202,N,11723.0416,W,41.90,142.90,200910,,,A*41
$GPRMC,234143.000,A,3312.2907,N,11723.0096,W,48.30,136.90,200910,,,A*41
$GPRMC,234146.000,A,3312.2617,N,11722.9744,W,51.20,131.70,200910,,,A*4A
$GPRMC,234149.000,A,3312.2342,N,11722.9345,W,52.40,126.30,200910,,,A*42
$GPRMC,234152.000,A,3312.2100,N,11722.8918,W,51.20,121.60,200910,,,A*48
$GPRMC,234155.000,A,3312.1888,N,11722.8470,W,51.60,117.10,200910,,,A*40
$GPRMC,234158.000,A,3312.1714,N,11722.8007,W,50.10,112.90,200910,,,A*48
$GPRMC,234201.000,A,3312.1571,N,11722.7576,W,43.00,109.50,200910,,,A*4F
$GPRMC,234204.000,A,3312.1443,N,11722.7197,W,41.50,112.00,200910,,,A*49
$GPRMC,234207.000,A,3312.1306,N,11722.6794,W,45.70,112.00,200910,,,A*4E
$GPRMC,234210.000,A,3312.1152,N,11722.6337,W,51.20,111.00,200910,,,A*45
$GPRMC,234213.000,A,3312.0986,N,11722.5860,W,51.40,112.50,200910,,,A*4C
$GPRMC,234216.000,A,3312.0824,N,11722.5393,W,50.80,112.30,200910,,,A*4C
$GPRMC,234219.000,A,3312.0661,N,11722.4920,W,51.60,112.00,200910,,,A*43
$GPRMC,234222.000,A,3312.0500,N,11722.4453,W,49.60,111.80,200910,,,A*44
$GPRMC,234225.000,A,3312.0351,N,11722.4017,W,45.50,111.90,200910,,,A*4B
$GPRMC,234228.000,A,3312.0206,N,11722.3600,W,45.60,113.70,200910,,,A*4D
$GPRMC,234231.000,A,3312.0046,N,11722.3181,W,46.60,116.20,200910,,,A*4E
$GPRMC,234234.000,A,3311.9856,N,11722.2793,W,44.90,121.50,200910,,,A*42
$GPRMC,234237.000,A,3311.9643,N,11722.2424,W,45.70,125.80,200910,,,A*42
$GPRMC,234240.000,A,3311.9408,N,11722.2065,W,45.80,130.30,200910,,,A*4E
$GPRMC,234243.000,A,3311.9147,N,11722.1734,W,45.60,135.50,200910,,,A*4E
$GPRMC,234246.000,A,3311.8869,N,11722.1436,W,44.70,140.20,200910,,,A*4B
$GPRMC,234249.000,A,3311.8574,N,11722.1158,W,45.60,142.90,200910,,,A*41
$GPRMC,234252.000,A,3311.8263,N,11722.0902,W,45.20,145.00,200910,,,A*46
$GPRMC,234255.000,A,3311.7947,N,11722.0648,W,45.50,145.70,200910,,,A*42
$GPRMC,234258.000,A,3311.7626,N,11722.0387,W,46.60,145.50,200910,,,A*43
$GPRMC,234301.000,A,3311.7325,N,11722.0145,W,42.70,145.70,200910,,,A*43
$GPRMC,234304.000,A,3311.7044,N,11721.9914,W,40.10,145.40,200910,,,A*43
$GPRMC,234307.000,A,3311.6774,N,11721.9696,W,39.50,145.10,200910,,,A*4F
$GPRMC,234310.000,A,3311.6495,N,11721.9471,W,40.70,146.10,200910,,,A*41
$GPRMC,234313.000,A,3311.6200,N,11721.9241,W,43.20,148.30,200910,,,A*47
$GPRMC,234316.000,A,3311.5886,N,11721.9013,W,44.30,149.50,200910,,,A*41
$GPRMC,234319.000,A,3311.5568,N,11721.8793,W,43.70,149.80,200910,,,A*43
$GPRMC,234322.000,A,3311.5253,N,11721.8626,W,40.70,160.40,200910,,,A*4F
$GPRMC,234325.000,A,3311.4927,N,11721.8577,W,38.60,183.60,200910,,,A*47
$GPRMC,234328.000,A,3311.4619,N,11721.8594,W,36.10,179.50,200910,,,A*4A
$GPRMC,234331.000,A,3311.4356,N,11721.8500,W,30.40,160.00,200910,,,A*4F
$GPRMC,234334.000,A,3311.4187,N,11721.8384,W,20.40,146.20,200910,,,A*49
$GPRMC,234337.000,A,3311.4097,N,11721.8311,W,13.30,140.20,200910,,,A*47
$GPRMC,234355.000,A,3311.4031,N,11721.8253,W,5.30,148.70,200910,,,A*72
$GPRMC,234358.000,A,3311.3974,N,11721.8209,W,9.80,148.50,200910,,,A*7A
$GPRMC,234401.000,A,3311.3900,N,11721.8136,W,11.40,132.10,200910,,,A*41
$GPRMC,234404.000,A,3311.3867,N,11721.7973,W,18.50,79.80,200910,,,A*7D
$GPRMC,234407.000,A,3311.3930,N,11721.7799,W,17.20,57.70,200910,,,A*7C
$GPRMC,234410.000,A,3311.3996,N,11721.7679,W,13.50,54.40,200910,,,A*7A
$GPRMC,234413.000,A,3311.4063,N,11721.7560,W,14.50,54.20,200910,,,A*77
$GPRMC,234416.000,A,3311.4121,N,11721.7458,W,12.20,56.40,200910,,,A*7A
$GPRMC,234419.000,A,3311.4158,N,11721.7372,W,10.00,63.50,200910,,,A*73
$GPRMC,234422.000,A,3311.4216,N,11721.7286,W,10.80,52.40,200910,,,A*73
$GPRMC,234425.000,A,3311.4289,N,11721.7159,W,14.00,50.00,200910,,,A*79
$GPRMC,234428.000,A,3311.4366,N,11721.7053,W,12.40,47.40,200910,,,A*7F
$GPRMC,234431.000,A,3311.4426,N,11721.6971,W,10.50,47.40,200910,,,A*7F
$GPRMC,234504.000,A,3311.4472,N,11721.6918,W,4.50,47.50,200910,,,A*42
$GPRMC,234507.000,A,3311.4517,N,11721.6860,W,11.60,48.70,200910,,,A*77
$GPRMC,234510.000,A,3311.4604,N,11721.6729,W,19.70,52.60,200910,,,A*71
$GPRMC,234513.000,A,3311.4724,N,11721.6510,W,29.00,58.40,200910,,,A*75
$GPRMC,234516.000,A,3311.4852,N,11721.6261,W,29.60,59.00,200910,,,A*7C
$GPRMC,234519.000,A,3311.4987,N,11721.5990,W,32.40,59.60,200910,,,A*72
$GPRMC,234522.000,A,3311.5124,N,11721.5710,W,32.20,59.60,200910,,,A*7A
$GPRMC,234525.000,A,3311.5260,N,11721.5437,W,31.90,59.60,200910,,,A*70
$GPRMC,234528.000,A,3311.5392,N,11721.5164,W,31.50,60.10,200910,,,A*73
$GPRMC,234531.000,A,3311.5525,N,11721.4891,W,31.70,60.00,200910,,,A*70
$GPRMC,234534.000,A,3311.5659,N,11721.4614,W,32.80,59.50,200910,,,A*7D
$GPRMC,234537.000,A,3311.5800,N,11721.4331,W,33.10,59.70,200910,,,A*74
$GPRMC,234540.000,A,3311.5940,N,11721.4046,W,33.00,59.80,200910,,,A*7C
$GPRMC,234543.000,A,3311.6074,N,11721.3775,W,29.90,59.70,200910,,,A*7F
$GPRMC,234546.000,A,3311.6192,N,11721.3535,W,25.30,59.70,200910,,,A*73
$GPRMC,234549.000,A,3311.6285,N,11721.3344,W,19.70,60.10,200910,,,A*7E
$GPRMC,234552.000,A,3311.6353,N,11721.3205,W,12.20,59.60,200910,,,A*79
$GPRMC,234613.000,A,3311.6409,N,11721.3105,W,9.00,59.60,200910,,,A*4C
$GPRMC,234616.000,A,3311.6470,N,11721.2986,W,18.20,59.80,200910,,,A*79
$GPRMC,234619.000,A,3311.6558,N,11721.2815,W,20.80,58.30,200910,,,A*7D
$GPRMC,234622.000,A,3311.6681,N,11721.2624,W,26.00,49.10,200910,,,A*72
$GPRMC,234625.000,A,3311.6835,N,11721.2418,W,28.60,47.20,200910,,,A*7C
$GPRMC,234628.000,A,3311.6995,N,11721.2217,W,26.00,45.90,200910,,,A*72
$GPRMC,234631.000,A,3311.7141,N,11721.2042,W,23.20,45.00,200910,,,A*76
$GPRMC,234634.000,A,3311.7287,N,11721.1868,W,26.80,44.40,200910,,,A*73
$GPRMC,234637.000,A,3311.7461,N,11721.1665,W,30.90,44.60,200910,,,A*79
$GPRMC,234640.000,A,3311.7649,N,11721.1444,W,32.60,44.70,200910,,,A*7C
$GPRMC,234643.000,A,3311.7850,N,11721.1205,W,35.40,44.80,200910,,,A*70
$GPRMC,234646.000,A,3311.8065,N,11721.0954,W,35.70,44.10,200910,,,A*70
$GPRMC,234649.000,A,3311.8277,N,11721.0704,W,35.40,45.70,200910,,,A*71
$GPRMC,234652.000,A,3311.8478,N,11721.0443,W,36.40,49.40,200910,,,A*7E
$GPRMC,234655.000,A,3311.8674,N,11721.0167,W,36.60,50.50,200910,,,A*7F
$GPRMC,234658.000,A,3311.8859,N,11720.9875,W,37.40,55.90,200910,,,A*7B
$GPRMC,234701.000,A,3311.9025,N,11720.9553,W,38.70,60.20,200910,,,A*7C
$GPRMC,234704.000,A,3311.9187,N,11720.9211,W,39.80,60.80,200910,,,A*75
$GPRMC,234707.000,A,3311.9346,N,11720.8872,W,39.30,60.60,200910,,,A*72
$GPRMC,234710.000,A,3311.9507,N,11720.8541,W,37.50,60.70,200910,,,A*73
$GPRMC,234713.000,A,3311.9660,N,11720.8218,W,36.90,60.80,200910,,,A*7B
$GPRMC,234716.000,A,3311.9809,N,11720.7899,W,36.70,60.90,200910,,,A*7C
$GPRMC,234719.000,A,3311.9960,N,11720.7582,W,36.90,60.90,200910,,,A*74
$GPRMC,234722.000,A,3312.0112,N,11720.7256,W,38.40,60.90,200910,,,A*76
$GPRMC,234725.000,A,3312.0267,N,11720.6920,W,38.90,61.00,200910,,,A*7E
$GPRMC,234728.000,A,3312.0425,N,11720.6585,W,38.30,60.80,200910,,,A*73
$GPRMC,234731.000,A,3312.0581,N,11720.6255,W,37.50,60.50,200910,,,A*7A
$GPRMC,234734.000,A,3312.0735,N,11720.5927,W,37.30,61.00,200910,,,A*7D
$GPRMC,234737.000,A,3312.0872,N,11720.5621,W,31.00,64.10,200910,,,A*7A
$GPRMC,234740.000,A,3312.0951,N,11720.5395,W,18.90,72.10,200910,,,A*75
$GPRMC,234743.000,A,3312.0982,N,11720.5268,W,7.50,77.00,200910,,,A*4D
$GPRMC,234801.000,A,3312.0995,N,11720.5194,W,6.20,80.40,200910,,,A*48
$GPRMC,234804.000,A,3312.0999,N,11720.5111,W,11.00,84.90,200910,,,A*71
$GPRMC,234807.000,A,3312.1007,N,11720.4959,W,18.80,88.40,200910,,,A*78
$GPRMC,234810.000,A,3312.1007,N,11720.4751,W,22.00,89.40,200910,,,A*78
$GPRMC,234813.000,A,3312.1009,N,11720.4514,W,25.70,90.30,200910,,,A*79
$GPRMC,234816.000,A,3312.1021,N,11720.4238,W,30.30,85.90,200910,,,A*71
$GPRMC,234819.000,A,3312.1030,N,11720.3927,W,32.10,88.50,200910,,,A*7D
$GPRMC,234822.000,A,3312.1030,N,11720.3597,W,33.80,90.20,200910,,,A*74
$GPRMC,234825.000,A,3312.1029,N,11720.3253,W,35.00,90.70,200910,,,A*7F
$GPRMC,234828.000,A,3312.1031,N,11720.2908,W,34.20,89.40,200910,,,A*77
$GPRMC,234831.000,A,3312.1032,N,11720.2570,W,34.80,89.70,200910,,,A*76
$GPRMC,234834.000,A,3312.1029,N,11720.2221,W,35.20,89.90,200910,,,A*7F
$GPRMC,234837.000,A,3312.1029,N,11720.1866,W,36.10,89.60,200910,,,A*79
$GPRMC,234840.000,A,3312.1028,N,11720.1501,W,37.10,89.80,200910,,,A*7B
$GPRMC,234843.000,A,3312.1028,N,11720.1131,W,36.90,89.70,200910,,,A*79
$GPRMC,234846.000,A,3312.1037,N,11720.0774,W,35.60,88.50,200910,,,A*7B
$GPRMC,234849.000,A,3312.1031,N,11720.0452,W,32.70,88.90,200910,,,A*7F
$GPRMC,234852.000,A,3312.1024,N,11720.0185,W,25.00,89.60,200910,,,A*71
$GPRMC,234855.000,A,3312.1026,N,11719.9958,W,22.10,87.50,200910,,,A*74
$GPRMC,234858.000,A,3312.1038,N,11719.9794,W,14.80,81.80,200910,,,A*7F
$GPRMC,235028.000,A,3312.1050,N,11719.9603,W,16.00,89.10,200910,,,A*7B
$GPRMC,235031.000,A,3312.1055,N,11719.9399,W,24.20,89.40,200910,,,A*76
$GPRMC,235034.000,A,3312.1057,N,11719.9119,W,29.30,89.30,200910,,,A*70
$GPRMC,235037.000,A,3312.1059,N,11719.8785,W,34.80,90.40,200910,,,A*77
$GPRMC,235040.000,A,3312.1046,N,11719.8423,W,37.70,93.20,200910,,,A*7F
$GPRMC,235043.000,A,3312.1019,N,11719.8024,W,40.70,92.50,200910,,,A*73
$GPRMC,235046.000,A,3312.1011,N,11719.7611,W,41.50,90.90,200910,,,A*7C
$GPRMC,235049.000,A,3312.1013,N,11719.7191,W,43.10,90.60,200910,,,A*77
$GPRMC,235052.000,A,3312.1007,N,11719.6746,W,46.70,90.70,200910,,,A*77
$GPRMC,235055.000,A,3312.1005,N,11719.6268,W,48.00,90.80,200910,,,A*7D
$GPRMC,235058.000,A,3312.1005,N,11719.5783,W,49.50,90.70,200910,,,A*78
$GPRMC,235101.000,A,3312.0996,N,11719.5293,W,49.30,92.00,200910,,,A*70
$GPRMC,235104.000,A,3312.0991,N,11719.4787,W,50.60,90.90,200910,,,A*75
$GPRMC,235107.000,A,3312.0984,N,11719.4283,W,51.00,90.70,200910,,,A*7A
$GPRMC,235110.000,A,3312.0973,N,11719.3777,W,50.30,90.40,200910,,,A*7C
$GPRMC,235113.000,A,3312.0965,N,11719.3290,W,49.00,90.60,200910,,,A*7D
$GPRMC,235116.000,A,3312.0958,N,11719.2801,W,49.60,90.70,200910,,,A*72
$GPRMC,235119.000,A,3312.0952,N,11719.2302,W,50.50,91.20,200910,,,A*70
$GPRMC,235122.000,A,3312.0945,N,11719.1806,W,49.90,90.60,200910,,,A*73
$GPRMC,235125.000,A,3312.0971,N,11719.1306,W,50.00,85.50,200910,,,A*7E
