NMEA Sentence Code,UTC Time,Status,Latitude,Latitude Direction,Longitude,Longitude Direction,Speed (knots),Track Angle (degrees true),Date,MagneticVariation,Magnetic Variation Direction,[FAA Mode]-Optional,Checksum
$GPRMC,155122.000,A,3344.5446,N,11624.3293,W,11.18,301.60,190810,,,A*48
$GPRMC,155125.000,A,3344.5535,N,11624.3379,W,13.61,320.80,190810,,,A*4E
$GPRMC,155128.000,A,3344.5622,N,11624.3452,W,11.66,321.60,190810,,,A*42
$GPRMC,155131.000,A,3344.5685,N,11624.3521,W,8.75,318.30,190810,,,A*77
$GPRMC,155134.000,A,3344.5708,N,11624.3600,W,7.78,290.20,190810,,,A*74
$GPRMC,155137.000,A,3344.5723,N,11624.3654,W,5.83,290.50,190810,,,A*7E
$GPRMC,155143.000,A,3344.5749,N,11624.3720,W,4.86,292.70,190810,,,A*77
$GPRMC,155149.000,A,3344.5775,N,11624.3804,W,3.40,293.90,190810,,,A*79
$GPRMC,155152.000,A,3344.5798,N,11624.3855,W,6.32,303.90,190810,,,A*7C
$GPRMC,155155.000,A,3344.5827,N,11624.3949,W,8.75,297.70,190810,,,A*73
$GPRMC,155158.000,A,3344.5879,N,11624.4008,W,8.26,313.10,190810,,,A*73
$GPRMC,155201.000,A,3344.5919,N,11624.4090,W,8.75,297.90,190810,,,A*79
$GPRMC,155204.000,A,3344.5943,N,11624.4196,W,10.69,279.90,190810,,,A*40
$GPRMC,155207.000,A,3344.5945,N,11624.4320,W,11.18,270.00,190810,,,A*4D
$GPRMC,155210.000,A,3344.5940,N,11624.4427,W,9.23,268.90,190810,,,A*7F
$GPRMC,155213.000,A,3344.5931,N,11624.4505,W,7.29,262.20,190810,,,A*7E
$GPRMC,155219.000,A,3344.5887,N,11624.4552,W,4.48,214.50,190810,,,A*78
$GPRMC,155222.000,A,3344.5831,N,11624.4584,W,6.39,204.80,190810,,,A*7E
$GPRMC,155225.000,A,3344.5761,N,11624.4605,W,7.29,199.00,190810,,,A*76
$GPRMC,155228.000,A,3344.5711,N,11624.4650,W,6.80,220.90,190810,,,A*76
$GPRMC,155231.000,A,3344.5720,N,11624.4708,W,5.35,274.00,190810,,,A*75
$GPRMC,155240.000,A,3344.5725,N,11624.4811,W,4.37,301.00,190810,,,A*71
$GPRMC,155243.000,A,3344.5769,N,11624.4847,W,5.35,329.80,190810,,,A*78
$GPRMC,155246.000,A,3344.5842,N,11624.4861,W,8.32,349.70,190810,,,A*7C
$GPRMC,155249.000,A,3344.6032,N,11624.4874,W,18.49,357.40,190810,,,A*4A
$GPRMC,155252.000,A,3344.6247,N,11624.4878,W,23.81,359.20,190810,,,A*48
$GPRMC,155255.000,A,3344.6508,N,11624.4893,W,28.67,359.40,190810,,,A*43
$GPRMC,155258.000,A,3344.6765,N,11624.4894,W,31.10,359.30,190810,,,A*4F
$GPRMC,155301.000,A,3344.7037,N,11624.4893,W,33.05,00.20,190810,,,A*7C
$GPRMC,155303.000,A,3344.7208,N,11624.4892,W,33.53,359.80,190810,,,A*47
$GPRMC,155307.000,A,3344.7625,N,11624.4875,W,36.46,02.30,190810,,,A*76
$GPRMC,155310.000,A,3344.7985,N,11624.4848,W,35.48,02.20,190810,,,A*77
$GPRMC,155314.000,A,3344.8367,N,11624.4856,W,34.50,359.80,190810,,,A*4A
$GPRMC,155316.000,A,3344.8571,N,11624.4853,W,35.96,00.50,190810,,,A*75
$GPRMC,155320.000,A,3344.8918,N,11624.4849,W,35.96,00.10,190810,,,A*7C
$GPRMC,155323.000,A,3344.9186,N,11624.4844,W,35.48,359.60,190810,,,A*47
$GPRMC,155326.000,A,3344.9519,N,11624.4866,W,35.96,359.80,190810,,,A*4D
$GPRMC,155329.000,A,3344.9912,N,11624.4859,W,38.88,01.40,190810,,,A*79
$GPRMC,155332.000,A,3345.0217,N,11624.4844,W,38.39,02.50,190810,,,A*71
$GPRMC,155335.000,A,3345.0514,N,11624.4857,W,37.91,00.10,190810,,,A*7B
$GPRMC,155338.000,A,3345.0770,N,11624.4854,W,39.38,359.70,190810,,,A*41
$GPRMC,155341.000,A,3345.1047,N,11624.4859,W,38.41,00.40,190810,,,A*73
$GPRMC,155343.000,A,3345.1358,N,11624.4866,W,39.36,359.00,190810,,,A*4A
$GPRMC,155347.000,A,3345.1692,N,11624.4859,W,39.36,00.20,190810,,,A*7C
$GPRMC,155350.000,A,3345.2034,N,11624.4850,W,38.39,02.60,190810,,,A*72
$GPRMC,155353.000,A,3345.2474,N,11624.4862,W,39.85,00.10,190810,,,A*73
$GPRMC,155356.000,A,3345.2720,N,11624.4847,W,38.41,00.40,190810,,,A*7F
$GPRMC,155359.000,A,3345.3056,N,11624.4842,W,38.39,00.20,190810,,,A*7B
$GPRMC,155402.000,A,3345.3434,N,11624.4837,W,35.96,359.40,190810,,,A*41
$GPRMC,155406.000,A,3345.3820,N,11624.4843,W,32.56,359.80,190810,,,A*48
$GPRMC,155409.000,A,3345.4065,N,11624.4838,W,28.67,00.50,190810,,,A*7E
$GPRMC,155412.000,A,3345.4275,N,11624.4816,W,24.79,04.50,190810,,,A*7C
$GPRMC,155414.000,A,3345.4402,N,11624.4815,W,23.81,02.10,190810,,,A*7D
$GPRMC,155417.000,A,3345.4518,N,11624.4814,W,19.93,00.20,190810,,,A*7E
$GPRMC,155421.000,A,3345.4682,N,11624.4750,W,13.61,34.10,190810,,,A*77
$GPRMC,155424.000,A,3345.4694,N,11624.4598,W,15.10,78.00,190810,,,A*7A
$GPRMC,155427.000,A,3345.4681,N,11624.4352,W,24.79,88.90,190810,,,A*76
$GPRMC,155430.000,A,3345.4679,N,11624.4076,W,30.13,90.10,190810,,,A*7A
$GPRMC,155433.000,A,3345.4678,N,11624.3752,W,34.50,89.90,190810,,,A*7D
$GPRMC,155436.000,A,3345.4683,N,11624.3419,W,31.10,89.20,190810,,,A*7A
$GPRMC,155439.000,A,3345.4700,N,11624.3122,W,28.19,85.60,190810,,,A*7B
$GPRMC,155443.000,A,3345.4701,N,11624.2866,W,16.04,88.90,190810,,,A*7C
$GPRMC,155446.000,A,3345.4701,N,11624.2697,W,18.47,91.70,190810,,,A*76
$GPRMC,155449.000,A,3345.4713,N,11624.2449,W,26.73,90.00,190810,,,A*77
$GPRMC,155452.000,A,3345.4709,N,11624.2162,W,29.65,92.00,190810,,,A*70
$GPRMC,155455.000,A,3345.4701,N,11624.1823,W,34.50,91.20,190810,,,A*7B
$GPRMC,155458.000,A,3345.4702,N,11624.1460,W,36.45,89.80,190810,,,A*7B
$GPRMC,155501.000,A,3345.4700,N,11624.1090,W,37.91,89.80,190810,,,A*77
$GPRMC,155504.000,A,3345.4699,N,11624.0698,W,39.36,90.30,190810,,,A*7C
$GPRMC,155507.000,A,3345.4699,N,11624.0306,W,39.36,90.00,190810,,,A*7E
$GPRMC,155510.000,A,3345.4705,N,11623.9928,W,37.42,88.50,190810,,,A*75
$GPRMC,155513.000,A,3345.4721,N,11623.9582,W,34.02,87.80,190810,,,A*79
$GPRMC,155516.000,A,3345.4711,N,11623.9306,W,26.73,90.10,190810,,,A*7F
$GPRMC,155519.000,A,3345.4702,N,11623.9065,W,22.84,88.50,190810,,,A*75
$GPRMC,155522.000,A,3345.4719,N,11623.8857,W,17.50,85.70,190810,,,A*7F
$GPRMC,155525.000,A,3345.4724,N,11623.8716,W,13.61,89.90,190810,,,A*78
$GPRMC,155528.000,A,3345.4707,N,11623.8534,W,19.93,97.30,190810,,,A*74
$GPRMC,155531.000,A,3345.4676,N,11623.8286,W,25.27,99.60,190810,,,A*7E
$GPRMC,155534.000,A,3345.4584,N,11623.8034,W,27.70,108.90,190810,,,A*48
$GPRMC,155537.000,A,3345.4630,N,11623.7648,W,34.02,97.40,190810,,,A*78
$GPRMC,155540.000,A,3345.4626,N,11623.7266,W,34.02,96.90,190810,,,A*7B
$GPRMC,155543.000,A,3345.4714,N,11623.6828,W,37.43,90.60,190810,,,A*76
$GPRMC,155546.000,A,3345.4727,N,11623.6456,W,36.45,89.00,190810,,,A*7F
$GPRMC,155549.000,A,3345.4735,N,11623.6104,W,33.55,89.50,190810,,,A*70
$GPRMC,155552.000,A,3345.4738,N,11623.5785,W,31.59,88.20,190810,,,A*73
$GPRMC,155555.000,A,3345.4728,N,11623.5493,W,30.13,91.30,190810,,,A*77
$GPRMC,155558.000,A,3345.4727,N,11623.5277,W,19.93,84.80,190810,,,A*75
$GPRMC,155601.000,A,3345.4741,N,11623.5107,W,15.55,82.80,190810,,,A*7E
$GPRMC,155604.000,A,3345.4752,N,11623.4980,W,11.66,79.80,190810,,,A*7F
$GPRMC,155625.000,A,3345.4775,N,11623.4853,W,6.80,99.40,190810,,,A*4A
$GPRMC,155628.000,A,3345.4755,N,11623.4760,W,8.26,88.30,190810,,,A*4F
$GPRMC,155631.000,A,3345.4805,N,11623.4649,W,11.66,51.40,190810,,,A*78
$GPRMC,155634.000,A,3345.4963,N,11623.4624,W,18.49,08.90,190810,,,A*72
$GPRMC,155636.000,A,3345.5120,N,11623.4647,W,26.73,00.70,190810,,,A*79
$GPRMC,155640.000,A,3345.5569,N,11623.4631,W,35.48,01.00,190810,,,A*7C
$GPRMC,155643.000,A,3345.5901,N,11623.4640,W,39.36,359.60,190810,,,A*46
$GPRMC,155646.000,A,3345.6150,N,11623.4629,W,42.28,01.60,190810,,,A*7E
$GPRMC,155650.000,A,3345.6665,N,11623.4619,W,44.22,01.10,190810,,,A*70
$GPRMC,155653.000,A,3345.7127,N,11623.4601,W,45.68,01.20,190810,,,A*76
$GPRMC,155656.000,A,3345.7513,N,11623.4604,W,46.17,359.90,190810,,,A*4B
$GPRMC,155659.000,A,3345.7906,N,11623.4581,W,46.65,01.60,190810,,,A*76
$GPRMC,155702.000,A,3345.8295,N,11623.4592,W,47.14,359.90,190810,,,A*43
$GPRMC,155705.000,A,3345.8713,N,11623.4567,W,48.11,02.30,190810,,,A*78
$GPRMC,155708.000,A,3345.9100,N,11623.4561,W,46.65,00.60,190810,,,A*7C
$GPRMC,155711.000,A,3345.9482,N,11623.4551,W,45.68,00.90,190810,,,A*79
$GPRMC,155713.000,A,3345.9736,N,11623.4541,W,46.17,01.60,190810,,,A*73
$GPRMC,155717.000,A,3346.0164,N,11623.4517,W,47.14,01.50,190810,,,A*7E
$GPRMC,155719.000,A,3346.0498,N,11623.4504,W,46.65,01.50,190810,,,A*73
$GPRMC,155722.000,A,3346.0761,N,11623.4501,W,45.68,00.70,190810,,,A*76
$GPRMC,155726.000,A,3346.1306,N,11623.4478,W,44.71,01.50,190810,,,A*73
$GPRMC,155729.000,A,3346.1768,N,11623.4462,W,44.22,01.00,190810,,,A*78
$GPRMC,155732.000,A,3346.2109,N,11623.4436,W,41.31,02.00,190810,,,A*75
$GPRMC,155736.000,A,3346.2519,N,11623.4446,W,36.93,358.90,190810,,,A*4E
$GPRMC,155739.000,A,3346.2836,N,11623.4464,W,36.93,359.50,190810,,,A*4C
$GPRMC,155741.000,A,3346.2992,N,11623.4440,W,31.59,02.90,190810,,,A*7A
$GPRMC,155745.000,A,3346.3216,N,11623.4433,W,19.44,01.50,190810,,,A*75
$GPRMC,155748.000,A,3346.3352,N,11623.4419,W,16.04,08.60,190810,,,A*70
$GPRMC,155757.000,A,3346.3414,N,11623.4422,W,6.32,00.60,190810,,,A*4F
$GPRMC,155800.000,A,3346.3511,N,11623.4426,W,11.66,352.50,190810,,,A*42
$GPRMC,155803.000,A,3346.3688,N,11623.4419,W,21.38,359.90,190810,,,A*41
$GPRMC,155806.000,A,3346.3921,N,11623.4405,W,27.22,02.60,190810,,,A*7A
$GPRMC,155808.000,A,3346.4101,N,11623.4389,W,31.10,04.70,190810,,,A*7B
$GPRMC,155812.000,A,3346.4449,N,11623.4334,W,39.36,10.70,190810,,,A*76
$GPRMC,155815.000,A,3346.4783,N,11623.4237,W,42.77,16.40,190810,,,A*7A
$GPRMC,155818.000,A,3346.5104,N,11623.4113,W,43.74,21.50,190810,,,A*7D
$GPRMC,155822.000,A,3346.5581,N,11623.3813,W,46.65,30.50,190810,,,A*76
$GPRMC,155825.000,A,3346.5922,N,11623.3570,W,48.60,30.00,190810,,,A*72
$GPRMC,155828.000,A,3346.6241,N,11623.3346,W,49.57,29.50,190810,,,A*79
$GPRMC,155831.000,A,3346.6752,N,11623.3082,W,50.06,21.40,190810,,,A*78
$GPRMC,155834.000,A,3346.7173,N,11623.2915,W,53.46,15.90,190810,,,A*72
$GPRMC,155837.000,A,3346.7587,N,11623.2849,W,49.57,05.40,190810,,,A*71
$GPRMC,155840.000,A,3346.7985,N,11623.2845,W,48.60,00.30,190810,,,A*74
$GPRMC,155843.000,A,3346.8342,N,11623.2858,W,43.25,359.80,190810,,,A*4B
$GPRMC,155846.000,A,3346.8694,N,11623.2855,W,38.88,00.00,190810,,,A*71
$GPRMC,155849.000,A,3346.8978,N,11623.2848,W,33.05,359.80,190810,,,A*46
$GPRMC,155852.000,A,3346.9206,N,11623.2853,W,25.76,00.60,190810,,,A*77
$GPRMC,155855.000,A,3346.9377,N,11623.2873,W,19.44,359.70,190810,,,A*45
$GPRMC,155858.000,A,3346.9514,N,11623.2855,W,16.04,01.40,190810,,,A*79
$GPRMC,155901.000,A,3346.9656,N,11623.2847,W,18.47,358.50,190810,,,A*45
$GPRMC,155904.000,A,3346.9850,N,11623.2848,W,23.81,358.70,190810,,,A*47
$GPRMC,155907.000,A,3347.0075,N,11623.2847,W,29.16,359.50,190810,,,A*4B
$GPRMC,155910.000,A,3347.0369,N,11623.2838,W,34.99,359.90,190810,,,A*4C
$GPRMC,155913.000,A,3347.0669,N,11623.2829,W,35.96,00.30,190810,,,A*71
$GPRMC,155916.000,A,3347.0981,N,11623.2845,W,36.93,358.20,190810,,,A*4E
$GPRMC,155919.000,A,3347.1297,N,11623.2862,W,37.91,358.70,190810,,,A*4F
$GPRMC,155922.000,A,3347.1579,N,11623.2836,W,33.05,01.30,190810,,,A*73
$GPRMC,155925.000,A,3347.1839,N,11623.2835,W,29.16,01.00,190810,,,A*74
$GPRMC,155928.000,A,3347.2043,N,11623.2856,W,22.84,359.00,190810,,,A*44
$GPRMC,155931.000,A,3347.2157,N,11623.2845,W,13.12,00.50,190810,,,A*7D
$GPRMC,160004.000,A,3347.2218,N,11623.2819,W,7.78,352.30,190810,,,A*7E
$GPRMC,160007.000,A,3347.2383,N,11623.2832,W,17.50,358.10,190810,,,A*44
$GPRMC,160010.000,A,3347.2590,N,11623.2840,W,25.27,358.30,190810,,,A*40
$GPRMC,160013.000,A,3347.2836,N,11623.2843,W,30.62,358.60,190810,,,A*41
$GPRMC,160016.000,A,3347.3131,N,11623.2865,W,37.42,357.40,190810,,,A*47
$GPRMC,160019.000,A,3347.3457,N,11623.2867,W,39.85,358.80,190810,,,A*49
$GPRMC,160022.000,A,3347.3832,N,11623.2863,W,42.77,00.30,190810,,,A*7E
$GPRMC,160025.000,A,3347.4201,N,11623.2840,W,43.74,00.80,190810,,,A*7C
$GPRMC,160028.000,A,3347.4587,N,11623.2838,W,45.68,359.80,190810,,,A*43
