NMEA Sentence Code,UTC Time,Status,Latitude,Latitude Direction,Longitude,Longitude Direction,Speed (knots),Track Angle (degrees true),Date,MagneticVariation,Magnetic Variation Direction,[FAA Mode]-Optional,Checksum
$GPRMC,152547.9,A,3247.799432,N,11656.072972,W,5.7,138.0,130410,,,A*76
$GPRMC,152550.9,A,3247.789005,N,11656.066527,W,9.9,130.5,130410,,,A*77
$GPRMC,152553.9,A,3247.785310,N,11656.055455,W,11.0,109.4,130410,,,A*40
$GPRMC,152556.9,A,3247.785576,N,11656.042800,W,13.5,89.8,130410,,,A*7B
$GPRMC,152559.9,A,3247.786408,N,11656.025107,W,18.1,91.1,130410,,,A*7F
$GPRMC,152602.9,A,3247.785456,N,11656.004699,W,19.3,90.0,130410,,,A*7A
$GPRMC,152605.9,A,3247.785786,N,11655.985402,W,21.8,90.4,130410,,,A*74
$GPRMC,152608.9,A,3247.785833,N,11655.962853,W,22.3,89.5,130410,,,A*78
$GPRMC,152611.9,A,3247.787603,N,11655.939050,W,23.4,87.2,130410,,,A*75
$GPRMC,152614.9,A,3247.787781,N,11655.916633,W,24.3,88.1,130410,,,A*79
$GPRMC,152617.9,A,3247.787245,N,11655.889828,W,25.9,90.3,130410,,,A*74
$GPRMC,152620.9,A,3247.787306,N,11655.866985,W,24.3,90.3,130410,,,A*7A
$GPRMC,152623.9,A,3247.786585,N,11655.842396,W,24.7,89.5,130410,,,A*71
$GPRMC,152626.9,A,3247.787181,N,11655.815141,W,26.7,89.8,130410,,,A*70
$GPRMC,152629.9,A,3247.786434,N,11655.790703,W,26.1,90.0,130410,,,A*71
$GPRMC,152632.9,A,3247.786853,N,11655.761024,W,29.3,87.8,130410,,,A*79
$GPRMC,152635.9,A,3247.788447,N,11655.735401,W,26.5,87.0,130410,,,A*7A
$GPRMC,152638.9,A,3247.789506,N,11655.707596,W,26.6,87.2,130410,,,A*7D
$GPRMC,152641.9,A,3247.789222,N,11655.684033,W,23.5,90.5,130410,,,A*75
$GPRMC,152644.9,A,3247.787900,N,11655.662338,W,21.8,92.3,130410,,,A*7E
$GPRMC,152647.9,A,3247.786660,N,11655.642852,W,18.7,91.5,130410,,,A*70
$GPRMC,152650.9,A,3247.786243,N,11655.626094,W,14.8,95.7,130410,,,A*76
$GPRMC,152653.9,A,3247.785422,N,11655.621773,W,4.7,104.3,130410,,,A*7D
$GPRMC,152656.9,A,3247.779819,N,11655.617827,W,10.0,162.6,130410,,,A*43
$GPRMC,152659.9,A,3247.768922,N,11655.618024,W,14.9,176.3,130410,,,A*4C
$GPRMC,152702.9,A,3247.752407,N,11655.617881,W,21.0,176.2,130410,,,A*46
$GPRMC,152705.9,A,3247.730472,N,11655.617452,W,25.2,180.2,130410,,,A*4A
$GPRMC,152708.9,A,3247.705298,N,11655.617891,W,28.4,180.4,130410,,,A*4D
$GPRMC,152711.9,A,3247.681124,N,11655.616984,W,29.9,179.1,130410,,,A*47
$GPRMC,152714.9,A,3247.655227,N,11655.618468,W,31.2,180.7,130410,,,A*48
$GPRMC,152717.9,A,3247.631545,N,11655.617508,W,28.4,179.1,130410,,,A*4C
$GPRMC,152720.9,A,3247.607627,N,11655.618200,W,27.5,180.9,130410,,,A*4A
$GPRMC,152723.9,A,3247.591016,N,11655.618052,W,19.7,181.3,130410,,,A*40
$GPRMC,152726.9,A,3247.579650,N,11655.617860,W,10.6,182.6,130410,,,A*4F
$GPRMC,152753.9,A,3247.563634,N,11655.613020,W,6.7,148.4,130410,,,A*7E
$GPRMC,152756.9,A,3247.562678,N,11655.605778,W,11.3,97.0,130410,,,A*7A
$GPRMC,152759.9,A,3247.562521,N,11655.587166,W,20.6,89.7,130410,,,A*75
$GPRMC,152802.9,A,3247.564126,N,11655.561451,W,27.0,89.9,130410,,,A*77
$GPRMC,152805.9,A,3247.564419,N,11655.533464,W,29.4,89.3,130410,,,A*78
$GPRMC,152808.9,A,3247.564882,N,11655.500969,W,31.3,90.6,130410,,,A*78
$GPRMC,152811.9,A,3247.562761,N,11655.469899,W,31.7,90.6,130410,,,A*70
$GPRMC,152814.9,A,3247.563425,N,11655.437661,W,34.1,88.6,130410,,,A*7F
$GPRMC,152817.9,A,3247.563238,N,11655.402217,W,37.2,91.0,130410,,,A*7B
$GPRMC,152820.9,A,3247.561940,N,11655.366991,W,34.7,91.1,130410,,,A*7E
$GPRMC,152823.9,A,3247.563597,N,11655.333849,W,33.1,88.6,130410,,,A*73
$GPRMC,152826.9,A,3247.563227,N,11655.304449,W,29.7,91.2,130410,,,A*73
$GPRMC,152829.9,A,3247.562180,N,11655.278643,W,25.0,92.1,130410,,,A*7A
$GPRMC,152833.2,A,3247.561328,N,11655.259174,W,14.4,94.9,130410,,,A*71
$GPRMC,152836.2,A,3247.559793,N,11655.252828,W,8.5,120.1,130410,,,A*7A
$GPRMC,152839.2,A,3247.551409,N,11655.243805,W,14.5,141.3,130410,,,A*4A
$GPRMC,152842.9,A,3247.527756,N,11655.232002,W,26.6,155.8,130410,,,A*40
$GPRMC,152845.9,A,3247.504376,N,11655.219349,W,30.4,154.7,130410,,,A*4E
$GPRMC,152848.9,A,3247.482394,N,11655.197370,W,34.4,139.1,130410,,,A*46
$GPRMC,152851.9,A,3247.460526,N,11655.172971,W,37.1,136.1,130410,,,A*44
$GPRMC,152854.9,A,3247.437061,N,11655.144201,W,39.6,134.7,130410,,,A*41
$GPRMC,152857.9,A,3247.412060,N,11655.118964,W,38.1,139.6,130410,,,A*4F
$GPRMC,152900.9,A,3247.382734,N,11655.100355,W,39.9,150.4,130410,,,A*41
$GPRMC,152903.9,A,3247.352436,N,11655.087139,W,39.1,162.0,130410,,,A*45
$GPRMC,152906.9,A,3247.320469,N,11655.077972,W,39.3,164.0,130410,,,A*43
$GPRMC,152909.9,A,3247.288863,N,11655.067262,W,39.6,165.5,130410,,,A*43
$GPRMC,152912.9,A,3247.276944,N,11655.071851,W,22.2,173.1,130410,,,A*4C
$GPRMC,152915.9,A,3247.264098,N,11655.070623,W,13.3,178.6,130410,,,A*45
$GPRMC,152939.9,A,3247.255405,N,11655.063270,W,10.7,143.3,130410,,,A*43
$GPRMC,152942.9,A,3247.253507,N,11655.048290,W,17.7,90.5,130410,,,A*73
$GPRMC,152945.9,A,3247.255458,N,11655.023013,W,26.1,87.8,130410,,,A*72
$GPRMC,152948.9,A,3247.252843,N,11654.993852,W,32.0,98.3,130410,,,A*71
$GPRMC,152951.9,A,3247.244677,N,11654.958734,W,36.6,106.8,130410,,,A*40
$GPRMC,152954.9,A,3247.234427,N,11654.921815,W,39.5,111.3,130410,,,A*46
$GPRMC,152957.9,A,3247.216592,N,11654.885795,W,43.1,121.8,130410,,,A*43
$GPRMC,153000.9,A,3247.193811,N,11654.855715,W,40.1,130.6,130410,,,A*49
$GPRMC,153003.9,A,3247.171928,N,11654.825946,W,39.3,128.2,130410,,,A*43
$GPRMC,153006.9,A,3247.158955,N,11654.786563,W,40.8,109.1,130410,,,A*4F
$GPRMC,153009.9,A,3247.158564,N,11654.743388,W,43.3,89.3,130410,,,A*77
$GPRMC,153012.9,A,3247.161645,N,11654.699900,W,45.4,84.6,130410,,,A*72
$GPRMC,153015.9,A,3247.167331,N,11654.651384,W,49.1,82.1,130410,,,A*7F
$GPRMC,153018.9,A,3247.172553,N,11654.603508,W,48.2,82.0,130410,,,A*72
$GPRMC,153021.9,A,3247.180699,N,11654.558058,W,47.9,77.7,130410,,,A*74
$GPRMC,153024.9,A,3247.190543,N,11654.513490,W,45.9,76.0,130410,,,A*7F
$GPRMC,153027.9,A,3247.204144,N,11654.473750,W,43.3,68.3,130410,,,A*79
$GPRMC,153030.9,A,3247.219013,N,11654.435507,W,39.2,66.3,130410,,,A*70
$GPRMC,153033.9,A,3247.230563,N,11654.408322,W,29.1,64.6,130410,,,A*70
$GPRMC,153036.9,A,3247.234471,N,11654.395909,W,11.5,58.3,130410,,,A*76
$GPRMC,153039.9,A,3247.234459,N,11654.391340,W,8.5,70.4,130410,,,A*45
$GPRMC,153042.9,A,3247.236149,N,11654.381846,W,10.5,75.2,130410,,,A*79
$GPRMC,153045.9,A,3247.232527,N,11654.370213,W,13.0,129.2,130410,,,A*4C
$GPRMC,153048.9,A,3247.218841,N,11654.370339,W,18.5,177.2,130410,,,A*48
$GPRMC,153051.9,A,3247.198324,N,11654.370923,W,26.8,180.9,130410,,,A*41
$GPRMC,153054.9,A,3247.170642,N,11654.372524,W,33.1,181.7,130410,,,A*4C
$GPRMC,153057.9,A,3247.141121,N,11654.369359,W,35.8,177.2,130410,,,A*4A
$GPRMC,153100.9,A,3247.109917,N,11654.370418,W,36.3,180.8,130410,,,A*48
$GPRMC,153103.9,A,3247.079653,N,11654.369425,W,35.8,179.5,130410,,,A*47
$GPRMC,153106.9,A,3247.051035,N,11654.370443,W,35.2,180.7,130410,,,A*48
$GPRMC,153109.9,A,3247.020042,N,11654.373634,W,36.3,180.5,130410,,,A*40
$GPRMC,153112.9,A,3246.991697,N,11654.370397,W,34.8,176.6,130410,,,A*4A
$GPRMC,153115.9,A,3246.960084,N,11654.370252,W,37.7,178.7,130410,,,A*4C
$GPRMC,153118.9,A,3246.927799,N,11654.370095,W,37.1,179.0,130410,,,A*40
$GPRMC,153121.9,A,3246.896479,N,11654.371681,W,37.0,181.7,130410,,,A*4F
$GPRMC,153124.9,A,3246.868994,N,11654.372829,W,32.5,180.1,130410,,,A*4D
$GPRMC,153127.9,A,3246.846166,N,11654.372984,W,25.1,182.1,130410,,,A*41
$GPRMC,153130.9,A,3246.831391,N,11654.373662,W,16.5,181.6,130410,,,A*4B
$GPRMC,153133.9,A,3246.825969,N,11654.374356,W,5.4,188.7,130410,,,A*7E
$GPRMC,153136.9,A,3246.823093,N,11654.375127,W,5.4,189.2,130410,,,A*70
$GPRMC,153139.9,A,3246.809823,N,11654.371705,W,14.3,174.1,130410,,,A*40
$GPRMC,153142.9,A,3246.792170,N,11654.371464,W,22.6,179.3,130410,,,A*45
$GPRMC,153145.9,A,3246.768984,N,11654.371567,W,28.4,180.1,130410,,,A*4A
$GPRMC,153148.9,A,3246.741956,N,11654.370962,W,34.5,177.9,130410,,,A*47
$GPRMC,153151.9,A,3246.710044,N,11654.374960,W,36.9,183.7,130410,,,A*4C
$GPRMC,153154.9,A,3246.675499,N,11654.375875,W,38.4,181.4,130410,,,A*49
$GPRMC,153157.9,A,3246.643728,N,11654.375361,W,37.8,180.1,130410,,,A*4F
$GPRMC,153200.9,A,3246.614038,N,11654.378587,W,34.9,188.3,130410,,,A*41
$GPRMC,153203.2,A,3246.590869,N,11654.387680,W,36.2,193.6,130410,,,A*48
$GPRMC,153206.2,A,3246.565625,N,11654.413482,W,37.1,218.6,130410,,,A*49
$GPRMC,153209.2,A,3246.539707,N,11654.434088,W,37.9,206.3,130410,,,A*47
$GPRMC,153212.2,A,3246.509438,N,11654.443952,W,37.9,183.9,130410,,,A*4B
$GPRMC,153215.2,A,3246.476855,N,11654.440751,W,39.6,169.2,130410,,,A*42
$GPRMC,153218.9,A,3246.437821,N,11654.427689,W,40.3,163.5,130410,,,A*41
$GPRMC,153221.9,A,3246.402199,N,11654.417293,W,43.0,167.3,130410,,,A*49
$GPRMC,153224.9,A,3246.370274,N,11654.411681,W,38.5,178.2,130410,,,A*49
$GPRMC,153227.9,A,3246.340270,N,11654.422644,W,37.4,203.9,130410,,,A*4E
$GPRMC,153230.9,A,3246.311232,N,11654.448733,W,41.8,217.6,130410,,,A*40
$GPRMC,153233.9,A,3246.285547,N,11654.479363,W,45.1,222.9,130410,,,A*4D
$GPRMC,153236.9,A,3246.257631,N,11654.512157,W,45.2,222.8,130410,,,A*4E
$GPRMC,153239.9,A,3246.231284,N,11654.539678,W,43.6,221.7,130410,,,A*46
$GPRMC,153242.9,A,3246.203389,N,11654.569785,W,43.9,222.1,130410,,,A*4B
$GPRMC,153245.9,A,3246.177043,N,11654.598324,W,42.9,222.1,130410,,,A*49
$GPRMC,153248.9,A,3246.148791,N,11654.623381,W,41.8,215.7,130410,,,A*4C
$GPRMC,153251.9,A,3246.122506,N,11654.643794,W,36.5,212.5,130410,,,A*4A
$GPRMC,153254.9,A,3246.099500,N,11654.660794,W,31.5,213.5,130410,,,A*4F
$GPRMC,153257.9,A,3246.083131,N,11654.678647,W,27.5,224.6,130410,,,A*47
$GPRMC,153300.9,A,3246.076986,N,11654.702777,W,27.1,257.7,130410,,,A*45
$GPRMC,153303.9,A,3246.071861,N,11654.727213,W,25.0,250.4,130410,,,A*4E
$GPRMC,153306.9,A,3246.058817,N,11654.748556,W,26.1,237.5,130410,,,A*4C
$GPRMC,153309.9,A,3246.048044,N,11654.772473,W,28.8,243.3,130410,,,A*41
$GPRMC,153312.9,A,3246.034138,N,11654.797027,W,29.9,229.0,130410,,,A*4B
$GPRMC,153315.9,A,3246.014226,N,11654.814974,W,29.9,217.3,130410,,,A*47
$GPRMC,153318.9,A,3246.000539,N,11654.835386,W,27.6,240.4,130410,,,A*46
$GPRMC,153321.9,A,3245.996007,N,11654.861684,W,26.2,256.7,130410,,,A*46
$GPRMC,153324.9,A,3245.986122,N,11654.880448,W,24.4,227.0,130410,,,A*4C
$GPRMC,153327.9,A,3245.966126,N,11654.893480,W,28.0,204.3,130410,,,A*49
$GPRMC,153330.9,A,3245.943697,N,11654.900889,W,27.6,190.1,130410,,,A*4E
$GPRMC,153333.9,A,3245.920742,N,11654.899959,W,29.0,177.9,130410,,,A*45
$GPRMC,153336.9,A,3245.894024,N,11654.898374,W,30.8,178.5,130410,,,A*4E
$GPRMC,153339.9,A,3245.873681,N,11654.898665,W,22.7,181.4,130410,,,A*4F
$GPRMC,153342.9,A,3245.859085,N,11654.901870,W,15.6,199.6,130410,,,A*4C
$GPRMC,153345.9,A,3245.855550,N,11654.911797,W,10.8,266.5,130410,,,A*46
$GPRMC,153348.9,A,3245.861643,N,11654.921142,W,11.0,306.5,130410,,,A*4E
$GPRMC,153351.9,A,3245.871035,N,11654.921559,W,10.7,355.2,130410,,,A*49
$GPRMC,153354.9,A,3245.879902,N,11654.920361,W,10.3,2.5,130410,,,A*47
$GPRMC,153357.9,A,3245.889397,N,11654.919695,W,10.1,0.9,130410,,,A*45
$GPRMC,153400.9,A,3245.897001,N,11654.920879,W,9.2,356.5,130410,,,A*72
$GPRMC,153403.9,A,3245.904122,N,11654.921444,W,10.1,1.8,130410,,,A*4E
$GPRMC,153406.9,A,3245.913192,N,11654.921717,W,10.1,356.0,130410,,,A*4A
$GPRMC,153409.9,A,3245.920268,N,11654.925865,W,7.9,318.6,130410,,,A*7F
$GPRMC,153412.9,A,3245.921707,N,11654.932750,W,7.2,262.7,130410,,,A*71
$GPRMC,153415.9,A,3245.914242,N,11654.938123,W,8.3,195.0,130410,,,A*7E
$GPRMC,153418.9,A,3245.908907,N,11654.936564,W,6.0,177.2,130410,,,A*7E
$GPRMC,153436.9,A,3245.898998,N,11654.937412,W,4.6,176.9,130410,,,A*73
$GPRMC,153439.9,A,3245.893805,N,11654.932850,W,6.5,141.3,130410,,,A*72
$GPRMC,153442.9,A,3245.892354,N,11654.927494,W,5.6,121.7,130410,,,A*72
$GPRMC,153445.9,A,3245.886546,N,11654.922706,W,7.2,146.0,130410,,,A*78
$GPRMC,153448.9,A,3245.877880,N,11654.921590,W,9.2,168.3,130410,,,A*73
$GPRMC,153451.9,A,3245.871030,N,11654.921191,W,8.5,174.4,130410,,,A*77
$GPRMC,153454.9,A,3245.861567,N,11654.920608,W,11.5,176.5,130410,,,A*49
$GPRMC,153457.9,A,3245.854768,N,11654.916121,W,9.0,143.0,130410,,,A*77
$GPRMC,153500.9,A,3245.852788,N,11654.910172,W,6.8,116.9,130410,,,A*72
$GPRMC,153503.9,A,3245.850452,N,11654.905232,W,6.1,121.6,130410,,,A*76
$GPRMC,153506.9,A,3245.844686,N,11654.899696,W,9.1,148.6,130410,,,A*73
$GPRMC,153509.9,A,3245.827303,N,11654.898093,W,21.6,173.7,130410,,,A*47
$GPRMC,153512.9,A,3245.799664,N,11654.899979,W,30.5,180.6,130410,,,A*41
$GPRMC,153515.9,A,3245.772473,N,11654.900893,W,32.4,180.9,130410,,,A*4F
$GPRMC,153518.9,A,3245.751428,N,11654.902837,W,22.5,182.5,130410,,,A*4F
$GPRMC,153521.9,A,3245.742543,N,11654.903118,W,7.5,187.7,130410,,,A*7E
$GPRMC,153530.9,A,3245.736349,N,11654.905955,W,7.0,211.7,130410,,,A*7F
$GPRMC,153533.9,A,3245.731044,N,11654.918150,W,16.3,257.8,130410,,,A*4A
$GPRMC,153536.9,A,3245.731626,N,11654.942384,W,26.0,270.1,130410,,,A*45
$GPRMC,153539.9,A,3245.728549,N,11654.973443,W,29.6,265.4,130410,,,A*4E
$GPRMC,153542.9,A,3245.729071,N,11655.000127,W,27.4,270.8,130410,,,A*42
$GPRMC,153545.9,A,3245.729135,N,11655.025030,W,24.2,268.3,130410,,,A*43
$GPRMC,153548.9,A,3245.731932,N,11655.053763,W,29.1,271.7,130410,,,A*4A
$GPRMC,153551.9,A,3245.731725,N,11655.084728,W,31.8,270.6,130410,,,A*4F
$GPRMC,153554.9,A,3245.732480,N,11655.117959,W,33.9,269.6,130410,,,A*4D
$GPRMC,153557.9,A,3245.730183,N,11655.150255,W,30.5,268.6,130410,,,A*40
$GPRMC,153600.9,A,3245.731612,N,11655.179341,W,29.2,274.8,130410,,,A*4C
$GPRMC,153603.9,A,3245.735908,N,11655.208406,W,31.8,280.4,130410,,,A*4A
$GPRMC,153606.9,A,3245.743218,N,11655.233636,W,25.0,289.0,130410,,,A*4D
$GPRMC,153609.9,A,3245.747989,N,11655.248387,W,12.3,294.2,130410,,,A*4F
$GPRMC,153636.9,A,3245.746687,N,11655.259913,W,10.6,250.4,130410,,,A*4D
$GPRMC,153639.9,A,3245.736173,N,11655.282420,W,23.1,237.7,130410,,,A*47
$GPRMC,153642.9,A,3245.728763,N,11655.308807,W,29.4,258.0,130410,,,A*48
$GPRMC,153645.9,A,3245.728952,N,11655.341832,W,33.6,268.9,130410,,,A*4B
$GPRMC,153648.9,A,3245.726950,N,11655.371510,W,30.4,266.0,130410,,,A*42
$GPRMC,153651.9,A,3245.728026,N,11655.402637,W,32.4,271.3,130410,,,A*4E
$GPRMC,153654.9,A,3245.727793,N,11655.438054,W,35.6,272.0,130410,,,A*42
$GPRMC,153657.9,A,3245.727767,N,11655.475821,W,36.1,269.9,130410,,,A*4E
$GPRMC,153700.9,A,3245.727792,N,11655.517230,W,40.2,269.8,130410,,,A*4B
$GPRMC,153703.9,A,3245.726931,N,11655.558447,W,41.8,268.9,130410,,,A*48
$GPRMC,153706.9,A,3245.724970,N,11655.597160,W,40.9,267.4,130410,,,A*4B
$GPRMC,153709.9,A,3245.724827,N,11655.634303,W,33.6,269.4,130410,,,A*4F
$GPRMC,153712.9,A,3245.725976,N,11655.655675,W,17.9,269.0,130410,,,A*4F
$GPRMC,153848.9,A,3245.717321,N,11655.676845,W,9.4,219.3,130410,,,A*7C
$GPRMC,153851.9,A,3245.702813,N,11655.680343,W,15.8,186.3,130410,,,A*4A
$GPRMC,153854.9,A,3245.672112,N,11655.677853,W,28.9,178.6,130410,,,A*48
$GPRMC,153857.9,A,3245.645342,N,11655.676346,W,32.5,178.1,130410,,,A*46
$GPRMC,153900.9,A,3245.617711,N,11655.673206,W,35.8,171.1,130410,,,A*43
$GPRMC,153903.9,A,3245.585326,N,11655.666418,W,41.3,168.7,130410,,,A*43
$GPRMC,153906.9,A,3245.548889,N,11655.657345,W,45.8,167.4,130410,,,A*47
$GPRMC,153909.9,A,3245.507483,N,11655.649385,W,50.4,172.0,130410,,,A*4E
$GPRMC,153912.9,A,3245.466710,N,11655.647826,W,50.0,177.9,130410,,,A*4F
$GPRMC,153915.9,A,3245.421939,N,11655.647282,W,53.0,179.7,130410,,,A*49
$GPRMC,153918.9,A,3245.379094,N,11655.645067,W,52.1,179.2,130410,,,A*4E
$GPRMC,153921.9,A,3245.332961,N,11655.647808,W,53.8,181.0,130410,,,A*46
$GPRMC,153924.9,A,3245.291958,N,11655.643413,W,49.6,177.6,130410,,,A*49
$GPRMC,153927.9,A,3245.255000,N,11655.645522,W,44.1,181.2,130410,,,A*44
$GPRMC,153930.9,A,3245.222630,N,11655.646355,W,36.1,180.9,130410,,,A*4D
$GPRMC,153933.9,A,3245.202582,N,11655.648815,W,21.5,184.0,130410,,,A*48
$GPRMC,153936.9,A,3245.192821,N,11655.648748,W,7.7,186.7,130410,,,A*77
$GPRMC,153939.9,A,3245.186723,N,11655.647691,W,9.9,177.0,130410,,,A*73
$GPRMC,153942.9,A,3245.174004,N,11655.649593,W,17.9,181.1,130410,,,A*48
$GPRMC,153945.9,A,3245.153976,N,11655.650301,W,24.3,179.5,130410,,,A*4A
$GPRMC,153948.9,A,3245.130030,N,11655.651224,W,28.9,180.4,130410,,,A*4F
$GPRMC,153951.9,A,3245.099593,N,11655.651631,W,33.5,178.8,130410,,,A*44
$GPRMC,153954.9,A,3245.075523,N,11655.650448,W,29.0,175.0,130410,,,A*4E
$GPRMC,153957.9,A,3245.060135,N,11655.646130,W,20.0,170.0,130410,,,A*4B
$GPRMC,154000.9,A,3245.051228,N,11655.640877,W,10.4,157.2,130410,,,A*46
$GPRMC,154003.9,A,3245.048162,N,11655.639959,W,5.1,165.6,130410,,,A*77
$GPRMC,154006.9,A,3245.045697,N,11655.643794,W,4.6,186.5,130410,,,A*78
$GPRMC,154009.9,A,3245.038900,N,11655.642037,W,7.7,176.9,130410,,,A*72
$GPRMC,154012.9,A,3245.029886,N,11655.642811,W,12.1,180.8,130410,,,A*41
$GPRMC,154015.9,A,3245.007954,N,11655.641326,W,22.3,178.5,130410,,,A*43
$GPRMC,154018.9,A,3244.978833,N,11655.642268,W,31.2,178.9,130410,,,A*49
$GPRMC,154021.9,A,3244.953701,N,11655.642894,W,32.5,180.0,130410,,,A*47
$GPRMC,154024.9,A,3244.921928,N,11655.643554,W,36.9,179.7,130410,,,A*4B
$GPRMC,154027.9,A,3244.894458,N,11655.642667,W,34.6,179.6,130410,,,A*43
$GPRMC,154030.9,A,3244.863647,N,11655.640930,W,35.5,179.7,130410,,,A*4D
$GPRMC,154033.9,A,3244.837377,N,11655.640999,W,34.1,182.8,130410,,,A*44
$GPRMC,154036.9,A,3244.806843,N,11655.646130,W,35.3,192.2,130410,,,A*4A
$GPRMC,154039.9,A,3244.778112,N,11655.658299,W,38.2,201.7,130410,,,A*41
$GPRMC,154042.9,A,3244.750350,N,11655.677410,W,36.3,213.4,130410,,,A*46
$GPRMC,154045.9,A,3244.728890,N,11655.699002,W,31.4,222.0,130410,,,A*48
$GPRMC,154048.9,A,3244.715189,N,11655.715946,W,21.3,229.9,130410,,,A*42
$GPRMC,154051.9,A,3244.708435,N,11655.725754,W,9.4,229.7,130410,,,A*79
$GPRMC,154124.9,A,3244.705654,N,11655.732376,W,6.8,243.7,130410,,,A*7F
$GPRMC,154127.9,A,3244.697733,N,11655.752170,W,21.5,245.8,130410,,,A*45
$GPRMC,154130.9,A,3244.688712,N,11655.777295,W,28.3,246.4,130410,,,A*41
$GPRMC,154133.9,A,3244.677243,N,11655.808135,W,34.4,246.3,130410,,,A*40
$GPRMC,154136.9,A,3244.666310,N,11655.838963,W,33.4,246.0,130410,,,A*4E
$GPRMC,154139.9,A,3244.655125,N,11655.871028,W,34.2,246.8,130410,,,A*47
$GPRMC,154142.9,A,3244.644910,N,11655.901046,W,33.1,247.3,130410,,,A*45
$GPRMC,154145.9,A,3244.633472,N,11655.930781,W,33.6,247.7,130410,,,A*46
$GPRMC,154148.9,A,3244.622088,N,11655.961957,W,34.5,247.7,130410,,,A*4F
$GPRMC,154151.9,A,3244.611554,N,11655.990960,W,31.5,246.3,130410,,,A*49
$GPRMC,154154.9,A,3244.601190,N,11656.019661,W,31.5,245.0,130410,,,A*44
$GPRMC,154157.9,A,3244.588380,N,11656.049854,W,36.2,243.4,130410,,,A*49
$GPRMC,154200.9,A,3244.573567,N,11656.084903,W,40.6,243.8,130410,,,A*48
$GPRMC,154203.9,A,3244.556880,N,11656.122782,W,42.3,242.9,130410,,,A*45
$GPRMC,154206.9,A,3244.539044,N,11656.159490,W,41.3,240.6,130410,,,A*4B
$GPRMC,154209.9,A,3244.523850,N,11656.192821,W,39.1,240.5,130410,,,A*4D
$GPRMC,154212.9,A,3244.507990,N,11656.224386,W,36.4,239.4,130410,,,A*41
$GPRMC,154215.9,A,3244.496681,N,11656.248560,W,25.3,237.5,130410,,,A*4E
$GPRMC,154218.9,A,3244.488551,N,11656.262789,W,16.4,236.1,130410,,,A*4D
$GPRMC,154221.9,A,3244.482632,N,11656.273583,W,11.2,235.0,130410,,,A*40
$GPRMC,154224.9,A,3244.478208,N,11656.280982,W,8.8,235.4,130410,,,A*7A
$GPRMC,154227.9,A,3244.474752,N,11656.288402,W,8.9,236.3,130410,,,A*77
$GPRMC,154230.9,A,3244.471185,N,11656.294900,W,6.9,232.7,130410,,,A*74
$GPRMC,154233.9,A,3244.468057,N,11656.303378,W,12.5,239.3,130410,,,A*4D
$GPRMC,154236.9,A,3244.459144,N,11656.321940,W,22.9,237.1,130410,,,A*4B
$GPRMC,154239.9,A,3244.445627,N,11656.345203,W,30.4,238.1,130410,,,A*44
$GPRMC,154242.9,A,3244.431211,N,11656.374027,W,31.6,238.2,130410,,,A*4C
$GPRMC,154245.9,A,3244.417910,N,11656.398850,W,30.8,237.0,130410,,,A*4D
$GPRMC,154248.9,A,3244.403217,N,11656.426310,W,34.5,239.1,130410,,,A*42
$GPRMC,154251.9,A,3244.388758,N,11656.457669,W,35.1,244.3,130410,,,A*40
$GPRMC,154254.9,A,3244.382462,N,11656.483890,W,23.2,253.7,130410,,,A*42
$GPRMC,154257.9,A,3244.377973,N,11656.499972,W,15.0,255.4,130410,,,A*42
$GPRMC,154300.9,A,3244.378461,N,11656.510453,W,9.6,269.8,130410,,,A*76
$GPRMC,154439.2,A,3244.379929,N,11656.539475,W,18.7,270.6,130410,,,A*48
$GPRMC,154442.2,A,3244.379425,N,11656.574409,W,32.7,269.9,130410,,,A*48
$GPRMC,154445.2,A,3244.378642,N,11656.610520,W,37.1,268.1,130410,,,A*4C
$GPRMC,154448.9,A,3244.376306,N,11656.657257,W,38.3,263.6,130410,,,A*44
$GPRMC,154451.9,A,3244.372910,N,11656.695630,W,40.8,263.7,130410,,,A*4B
$GPRMC,154454.9,A,3244.366786,N,11656.738763,W,45.0,262.8,130410,,,A*48
$GPRMC,154457.9,A,3244.364688,N,11656.785131,W,46.6,266.6,130410,,,A*4E
$GPRMC,154500.9,A,3244.361941,N,11656.834945,W,49.1,266.2,130410,,,A*40
$GPRMC,154503.9,A,3244.359300,N,11656.881019,W,47.3,268.2,130410,,,A*4B
$GPRMC,154506.9,A,3244.360607,N,11656.929311,W,49.3,274.2,130410,,,A*4D
$GPRMC,154509.9,A,3244.366983,N,11656.977446,W,49.3,280.2,130410,,,A*42
$GPRMC,154512.9,A,3244.377687,N,11657.018056,W,38.2,287.5,130410,,,A*40
$GPRMC,154515.9,A,3244.383263,N,11657.043080,W,23.7,287.6,130410,,,A*4B
$GPRMC,154518.9,A,3244.387654,N,11657.054906,W,8.5,290.0,130410,,,A*78
$GPRMC,154542.9,A,3244.393840,N,11657.067706,W,12.4,295.4,130410,,,A*4C
$GPRMC,154545.9,A,3244.400061,N,11657.085196,W,21.6,295.0,130410,,,A*48
$GPRMC,154548.9,A,3244.409705,N,11657.108086,W,26.7,297.2,130410,,,A*4B
$GPRMC,154551.9,A,3244.422257,N,11657.132449,W,32.6,302.0,130410,,,A*4D
$GPRMC,154554.9,A,3244.441548,N,11657.163200,W,38.9,307.8,130410,,,A*43
$GPRMC,154557.9,A,3244.463061,N,11657.196208,W,41.7,309.4,130410,,,A*4E
$GPRMC,154600.9,A,3244.488824,N,11657.225229,W,42.9,315.0,130410,,,A*4F
$GPRMC,154603.9,A,3244.516813,N,11657.254367,W,45.1,319.7,130410,,,A*47
$GPRMC,154606.9,A,3244.549536,N,11657.279548,W,47.7,328.3,130410,,,A*44
$GPRMC,154609.9,A,3244.583272,N,11657.303294,W,47.2,329.4,130410,,,A*43
$GPRMC,154612.9,A,3244.614873,N,11657.327069,W,46.0,329.2,130410,,,A*4C
$GPRMC,154615.9,A,3244.647866,N,11657.349416,W,44.4,330.1,130410,,,A*40
$GPRMC,154618.9,A,3244.676847,N,11657.374515,W,41.3,320.3,130410,,,A*41
$GPRMC,154621.9,A,3244.699061,N,11657.402107,W,35.6,313.1,130410,,,A*43
$GPRMC,154624.9,A,3244.714478,N,11657.425345,W,29.8,305.8,130410,,,A*42
$GPRMC,154627.9,A,3244.727298,N,11657.449446,W,31.3,299.8,130410,,,A*41
$GPRMC,154630.9,A,3244.736665,N,11657.479662,W,29.8,289.6,130410,,,A*4B
$GPRMC,154633.9,A,3244.742659,N,11657.518797,W,40.1,281.2,130410,,,A*43
$GPRMC,154636.9,A,3244.746534,N,11657.561573,W,43.0,274.9,130410,,,A*4F
$GPRMC,154639.9,A,3244.745780,N,11657.608635,W,48.3,268.0,130410,,,A*4F
$GPRMC,154642.9,A,3244.742586,N,11657.660279,W,50.9,265.8,130410,,,A*44
$GPRMC,154645.9,A,3244.737919,N,11657.707928,W,49.6,262.8,130410,,,A*44
$GPRMC,154648.9,A,3244.727772,N,11657.756404,W,49.8,255.3,130410,,,A*4D
$GPRMC,154651.9,A,3244.714724,N,11657.803546,W,50.2,253.0,130410,,,A*49
$GPRMC,154654.9,A,3244.702883,N,11657.849464,W,49.8,252.9,130410,,,A*4C
$GPRMC,154657.2,A,3244.694686,N,11657.883907,W,48.7,254.7,130410,,,A*49
$GPRMC,154700.9,A,3244.683446,N,11657.941869,W,51.2,256.2,130410,,,A*45
$GPRMC,154703.9,A,3244.676719,N,11657.993929,W,53.3,262.2,130410,,,A*4B
$GPRMC,154706.9,A,3244.674666,N,11658.048091,W,56.0,268.4,130410,,,A*45
$GPRMC,154709.9,A,3244.673870,N,11658.105048,W,56.9,271.1,130410,,,A*4C
$GPRMC,154712.9,A,3244.675444,N,11658.160442,W,54.5,271.6,130410,,,A*4F
$GPRMC,154715.9,A,3244.676473,N,11658.214671,W,55.1,271.4,130410,,,A*4A
$GPRMC,154718.9,A,3244.677553,N,11658.270887,W,56.3,271.2,130410,,,A*47
$GPRMC,154721.9,A,3244.676952,N,11658.324633,W,55.9,270.5,130410,,,A*4F
$GPRMC,154724.9,A,3244.677195,N,11658.384628,W,60.6,270.1,130410,,,A*45
$GPRMC,154727.9,A,3244.676431,N,11658.448138,W,64.4,268.9,130410,,,A*4A
$GPRMC,154730.9,A,3244.677778,N,11658.511160,W,65.1,270.5,130410,,,A*42
$GPRMC,154733.9,A,3244.678134,N,11658.575828,W,65.6,270.8,130410,,,A*4D
$GPRMC,154736.9,A,3244.679464,N,11658.638833,W,65.1,271.1,130410,,,A*46
$GPRMC,154739.9,A,3244.678940,N,11658.703364,W,65.9,270.5,130410,,,A*4E
$GPRMC,154742.9,A,3244.678699,N,11658.769941,W,67.4,270.3,130410,,,A*41
$GPRMC,154745.9,A,3244.680535,N,11658.835957,W,67.1,271.3,130410,,,A*41
$GPRMC,154748.9,A,3244.680785,N,11658.902744,W,66.5,270.2,130410,,,A*49
$GPRMC,154751.9,A,3244.681724,N,11658.964559,W,64.2,270.2,130410,,,A*40
$GPRMC,154754.9,A,3244.684998,N,11659.030649,W,65.8,274.4,130410,,,A*4B
$GPRMC,154757.9,A,3244.693999,N,11659.094985,W,66.1,280.8,130410,,,A*43
$GPRMC,154800.9,A,3244.707360,N,11659.156502,W,64.4,287.1,130410,,,A*4B
$GPRMC,154803.9,A,3244.729815,N,11659.214286,W,64.9,294.8,130410,,,A*45
$GPRMC,154806.9,A,3244.753446,N,11659.272000,W,65.1,296.0,130410,,,A*48
$GPRMC,154809.9,A,3244.776062,N,11659.332084,W,66.1,294.2,130410,,,A*48
$GPRMC,154812.9,A,3244.799739,N,11659.391017,W,65.4,294.9,130410,,,A*44
$GPRMC,154815.9,A,3244.823579,N,11659.450394,W,67.2,295.2,130410,,,A*47
$GPRMC,154818.9,A,3244.846841,N,11659.510655,W,67.2,293.7,130410,,,A*41
$GPRMC,154821.9,A,3244.870831,N,11659.568736,W,63.7,295.4,130410,,,A*46
$GPRMC,154824.9,A,3244.894562,N,11659.627180,W,64.9,296.0,130410,,,A*4F
$GPRMC,154827.9,A,3244.916054,N,11659.683943,W,64.5,294.3,130410,,,A*43
$GPRMC,154830.9,A,3244.937093,N,11659.742305,W,63.3,294.5,130410,,,A*4E
$GPRMC,154833.9,A,3244.958109,N,11659.799099,W,62.0,292.6,130410,,,A*41
$GPRMC,154836.9,A,3244.973884,N,11659.857487,W,61.4,287.6,130410,,,A*44
$GPRMC,154839.9,A,3244.987295,N,11659.914941,W,60.4,285.5,130410,,,A*4B
$GPRMC,154842.9,A,3244.999501,N,11659.972764,W,61.0,284.8,130410,,,A*42
$GPRMC,154845.9,A,3245.013177,N,11700.029890,W,60.3,285.7,130410,,,A*48
$GPRMC,154848.9,A,3245.027114,N,11700.087144,W,61.7,284.2,130410,,,A*42
$GPRMC,154851.9,A,3245.041065,N,11700.148281,W,62.5,285.2,130410,,,A*45
$GPRMC,154854.9,A,3245.057263,N,11700.204146,W,60.4,293.5,130410,,,A*43
$GPRMC,154857.9,A,3245.084367,N,11700.254275,W,60.0,304.5,130410,,,A*46
$GPRMC,154900.9,A,3245.115389,N,11700.300166,W,59.9,308.4,130410,,,A*43
$GPRMC,154903.9,A,3245.150376,N,11700.342873,W,60.7,313.3,130410,,,A*43
$GPRMC,154906.9,A,3245.186349,N,11700.385714,W,58.0,310.3,130410,,,A*4B
$GPRMC,154909.9,A,3245.210813,N,11700.434227,W,54.8,300.9,130410,,,A*4B
$GPRMC,154912.9,A,3245.227036,N,11700.482004,W,54.0,291.1,130410,,,A*4D
$GPRMC,154915.9,A,3245.238711,N,11700.537943,W,56.9,282.5,130410,,,A*4E
$GPRMC,154918.9,A,3245.242965,N,11700.596990,W,59.6,273.5,130410,,,A*48
$GPRMC,154921.9,A,3245.238897,N,11700.656506,W,61.1,262.9,130410,,,A*4F
$GPRMC,154924.9,A,3245.224728,N,11700.713714,W,56.7,251.7,130410,,,A*41
$GPRMC,154927.9,A,3245.209488,N,11700.758171,W,46.5,245.0,130410,,,A*4F
$GPRMC,154930.9,A,3245.191913,N,11700.793232,W,38.8,237.3,130410,,,A*45
$GPRMC,154933.9,A,3245.175514,N,11700.818828,W,29.4,232.4,130410,,,A*44
$GPRMC,154936.9,A,3245.161578,N,11700.835772,W,21.8,226.7,130410,,,A*43
$GPRMC,154939.9,A,3245.150897,N,11700.846153,W,15.8,223.1,130410,,,A*47
$GPRMC,154942.9,A,3245.142462,N,11700.856344,W,14.5,220.8,130410,,,A*4D
$GPRMC,154945.9,A,3245.133373,N,11700.867849,W,14.8,225.0,130410,,,A*4F
$GPRMC,154948.9,A,3245.126019,N,11700.876242,W,11.2,223.7,130410,,,A*46
$GPRMC,154951.9,A,3245.120316,N,11700.881626,W,7.6,216.7,130410,,,A*7F
$GPRMC,154954.9,A,3245.117363,N,11700.884975,W,6.2,219.4,130410,,,A*79
$GPRMC,154957.9,A,3245.114209,N,11700.888520,W,5.4,218.2,130410,,,A*76
$GPRMC,155000.9,A,3245.110157,N,11700.893541,W,6.7,224.8,130410,,,A*78
$GPRMC,155003.9,A,3245.106714,N,11700.897857,W,4.9,221.0,130410,,,A*72
$GPRMC,155009.9,A,3245.102882,N,11700.902823,W,7.2,225.5,130410,,,A*7B
$GPRMC,155012.9,A,3245.098515,N,11700.906895,W,6.7,222.9,130410,,,A*76
$GPRMC,155015.9,A,3245.091938,N,11700.915711,W,12.7,226.6,130410,,,A*44
$GPRMC,155018.9,A,3245.079939,N,11700.927576,W,19.5,219.9,130410,,,A*46
$GPRMC,155021.9,A,3245.062044,N,11700.943105,W,28.8,215.8,130410,,,A*45
$GPRMC,155024.9,A,3245.037671,N,11700.963660,W,37.1,213.6,130410,,,A*49
$GPRMC,155027.9,A,3245.010657,N,11700.985160,W,40.9,213.5,130410,,,A*4F
$GPRMC,155030.9,A,3244.978127,N,11701.007452,W,46.4,210.7,130410,,,A*43
$GPRMC,155033.9,A,3244.938392,N,11701.036376,W,54.4,214.7,130410,,,A*4C
$GPRMC,155036.9,A,3244.904694,N,11701.072037,W,55.3,222.9,130410,,,A*4E
$GPRMC,155039.9,A,3244.874535,N,11701.116089,W,58.2,232.8,130410,,,A*45
$GPRMC,155042.9,A,3244.847993,N,11701.167559,W,61.2,240.2,130410,,,A*42
$GPRMC,155045.9,A,3244.829718,N,11701.223525,W,60.6,250.6,130410,,,A*48
$GPRMC,155048.9,A,3244.818080,N,11701.284271,W,63.0,258.7,130410,,,A*46
$GPRMC,155051.9,A,3244.816540,N,11701.345977,W,61.0,269.5,130410,,,A*4A
$GPRMC,155054.9,A,3244.821475,N,11701.406676,W,62.8,274.6,130410,,,A*46
$GPRMC,155057.9,A,3244.824668,N,11701.471426,W,65.9,273.3,130410,,,A*4D
$GPRMC,155100.9,A,3244.829642,N,11701.537634,W,67.7,275.1,130410,,,A*41
$GPRMC,155103.9,A,3244.833666,N,11701.606526,W,69.6,273.5,130410,,,A*43
$GPRMC,155106.9,A,3244.832560,N,11701.673551,W,68.6,269.0,130410,,,A*4F
$GPRMC,155109.9,A,3244.822023,N,11701.743052,W,70.8,260.9,130410,,,A*40
$GPRMC,155112.9,A,3244.804917,N,11701.808785,W,69.0,252.8,130410,,,A*4D
$GPRMC,155115.9,A,3244.785587,N,11701.873241,W,68.8,251.0,130410,,,A*4A
$GPRMC,155118.9,A,3244.765831,N,11701.938066,W,68.6,251.4,130410,,,A*4A
$GPRMC,155121.9,A,3244.749545,N,11702.000261,W,65.5,252.0,130410,,,A*4D
$GPRMC,155124.9,A,3244.733586,N,11702.061746,W,66.6,251.8,130410,,,A*46
$GPRMC,155127.9,A,3244.718412,N,11702.127254,W,68.9,254.8,130410,,,A*41
$GPRMC,155130.9,A,3244.706143,N,11702.193187,W,69.0,258.8,130410,,,A*4F
$GPRMC,155133.9,A,3244.697797,N,11702.259260,W,67.6,262.1,130410,,,A*4D
$GPRMC,155136.9,A,3244.694680,N,11702.325648,W,67.4,267.0,130410,,,A*4E
$GPRMC,155139.9,A,3244.693991,N,11702.389837,W,65.5,269.0,130410,,,A*44
$GPRMC,155142.9,A,3244.696217,N,11702.456617,W,67.4,271.3,130410,,,A*48
$GPRMC,155145.9,A,3244.697296,N,11702.523544,W,66.0,271.1,130410,,,A*46
$GPRMC,155148.9,A,3244.698731,N,11702.587851,W,64.2,270.8,130410,,,A*43
$GPRMC,155151.9,A,3244.699300,N,11702.651405,W,62.9,270.6,130410,,,A*4A
$GPRMC,155154.9,A,3244.697228,N,11702.711245,W,62.1,268.5,130410,,,A*4F
$GPRMC,155157.9,A,3244.691582,N,11702.772353,W,61.4,261.4,130410,,,A*40
$GPRMC,155200.9,A,3244.673882,N,11702.828907,W,60.7,248.2,130410,,,A*44
$GPRMC,155203.9,A,3244.649429,N,11702.882072,W,61.1,236.8,130410,,,A*4C
$GPRMC,155206.9,A,3244.615199,N,11702.928915,W,61.9,228.6,130410,,,A*4E
$GPRMC,155209.9,A,3244.580370,N,11702.974303,W,62.4,227.1,130410,,,A*49
$GPRMC,155212.9,A,3244.544066,N,11703.020586,W,63.3,227.3,130410,,,A*49
$GPRMC,155215.9,A,3244.509046,N,11703.066521,W,64.7,227.1,130410,,,A*4B
$GPRMC,155218.9,A,3244.470614,N,11703.114685,W,66.9,226.3,130410,,,A*4E
$GPRMC,155221.9,A,3244.431553,N,11703.161471,W,66.9,222.1,130410,,,A*4C
$GPRMC,155224.9,A,3244.388460,N,11703.202513,W,67.0,217.7,130410,,,A*46
$GPRMC,155227.9,A,3244.344083,N,11703.240712,W,67.3,216.3,130410,,,A*4F
$GPRMC,155230.9,A,3244.299808,N,11703.280740,W,65.7,217.0,130410,,,A*4C
$GPRMC,155233.9,A,3244.256937,N,11703.319272,W,64.2,217.5,130410,,,A*45
$GPRMC,155236.9,A,3244.214772,N,11703.357712,W,63.3,217.5,130410,,,A*46
$GPRMC,155239.9,A,3244.173218,N,11703.394899,W,63.0,216.3,130410,,,A*45
$GPRMC,155242.9,A,3244.128597,N,11703.430053,W,65.3,215.2,130410,,,A*47
$GPRMC,155245.9,A,3244.085209,N,11703.469134,W,64.8,216.8,130410,,,A*49
$GPRMC,155248.9,A,3244.042384,N,11703.510081,W,66.5,220.0,130410,,,A*49
$GPRMC,155251.9,A,3244.000135,N,11703.554651,W,68.2,223.3,130410,,,A*4D
$GPRMC,155254.9,A,3243.960310,N,11703.602536,W,67.4,227.1,130410,,,A*48
$GPRMC,155257.9,A,3243.924497,N,11703.652931,W,66.8,229.9,130410,,,A*46
$GPRMC,155300.9,A,3243.890703,N,11703.704433,W,67.6,231.3,130410,,,A*44
$GPRMC,155303.9,A,3243.855040,N,11703.758329,W,70.5,232.1,130410,,,A*4F
$GPRMC,155306.9,A,3243.821603,N,11703.813263,W,68.8,236.1,130410,,,A*47
$GPRMC,155309.9,A,3243.792661,N,11703.873820,W,71.0,239.8,130410,,,A*46
$GPRMC,155312.9,A,3243.764546,N,11703.935883,W,72.3,243.5,130410,,,A*49
$GPRMC,155315.9,A,3243.740315,N,11704.000291,W,71.4,246.5,130410,,,A*48
$GPRMC,155318.9,A,3243.717842,N,11704.066664,W,72.2,247.4,130410,,,A*45
$GPRMC,155321.9,A,3243.695436,N,11704.131982,W,71.4,247.7,130410,,,A*49
$GPRMC,155324.9,A,3243.672166,N,11704.196458,W,71.1,246.9,130410,,,A*48
$GPRMC,155327.9,A,3243.648268,N,11704.261016,W,71.3,245.2,130410,,,A*40
$GPRMC,155330.9,A,3243.615574,N,11704.321923,W,72.5,234.7,130410,,,A*48
$GPRMC,155333.2,A,3243.585714,N,11704.362523,W,72.1,228.2,130410,,,A*49
$GPRMC,155336.2,A,3243.545547,N,11704.415289,W,71.6,228.4,130410,,,A*46
$GPRMC,155339.2,A,3243.506030,N,11704.468072,W,71.1,228.6,130410,,,A*42
$GPRMC,155342.9,A,3243.459223,N,11704.532243,W,69.7,229.2,130410,,,A*4A
$GPRMC,155345.9,A,3243.419721,N,11704.584878,W,71.3,228.4,130410,,,A*4B
$GPRMC,155348.9,A,3243.383406,N,11704.635670,W,67.7,230.0,130410,,,A*45
$GPRMC,155351.9,A,3243.346439,N,11704.683784,W,64.2,228.8,130410,,,A*48
$GPRMC,155354.9,A,3243.312824,N,11704.730068,W,61.2,229.5,130410,,,A*49
$GPRMC,155357.9,A,3243.279526,N,11704.777325,W,62.9,229.9,130410,,,A*44
$GPRMC,155400.9,A,3243.244104,N,11704.825909,W,65.1,229.3,130410,,,A*42
$GPRMC,155403.9,A,3243.208402,N,11704.874922,W,66.1,228.7,130410,,,A*41
$GPRMC,155406.9,A,3243.170691,N,11704.923492,W,66.7,228.3,130410,,,A*47
$GPRMC,155409.9,A,3243.135521,N,11704.974158,W,65.8,233.1,130410,,,A*44
$GPRMC,155412.9,A,3243.109726,N,11705.030131,W,65.3,243.2,130410,,,A*4C
$GPRMC,155415.9,A,3243.091770,N,11705.091801,W,67.7,253.2,130410,,,A*4E
$GPRMC,155418.9,A,3243.082371,N,11705.159465,W,70.4,262.7,130410,,,A*4D
$GPRMC,155421.9,A,3243.080458,N,11705.229837,W,71.2,269.6,130410,,,A*4B
$GPRMC,155424.9,A,3243.082106,N,11705.297153,W,70.3,270.4,130410,,,A*46
$GPRMC,155427.9,A,3243.081302,N,11705.370754,W,73.2,269.0,130410,,,A*47
$GPRMC,155430.9,A,3243.081246,N,11705.440138,W,70.4,270.4,130410,,,A*41
$GPRMC,155433.9,A,3243.081044,N,11705.508728,W,69.2,269.9,130410,,,A*43
$GPRMC,155436.9,A,3243.093221,N,11705.579570,W,73.2,284.1,130410,,,A*4D
$GPRMC,155439.9,A,3243.115855,N,11705.646955,W,72.7,290.9,130410,,,A*49
$GPRMC,155442.9,A,3243.139655,N,11705.711965,W,68.8,292.1,130410,,,A*4B
$GPRMC,155445.9,A,3243.151711,N,11705.773802,W,65.9,278.9,130410,,,A*47
$GPRMC,155448.9,A,3243.155688,N,11705.840071,W,67.2,272.2,130410,,,A*44
$GPRMC,155451.9,A,3243.153413,N,11705.904415,W,65.2,270.2,130410,,,A*4D
$GPRMC,155454.9,A,3243.152832,N,11705.968969,W,66.2,269.0,130410,,,A*43
$GPRMC,155457.9,A,3243.151388,N,11706.036974,W,68.1,267.7,130410,,,A*40
$GPRMC,155500.9,A,3243.148517,N,11706.105116,W,67.7,267.9,130410,,,A*41
$GPRMC,155503.9,A,3243.146921,N,11706.170172,W,65.4,266.8,130410,,,A*44
$GPRMC,155506.9,A,3243.138499,N,11706.236538,W,66.4,259.2,130410,,,A*48
$GPRMC,155509.9,A,3243.125986,N,11706.301368,W,66.8,256.4,130410,,,A*4B
$GPRMC,155512.9,A,3243.110399,N,11706.366077,W,68.1,255.1,130410,,,A*4E
$GPRMC,155515.9,A,3243.098951,N,11706.429809,W,67.0,259.4,130410,,,A*4C
$GPRMC,155518.9,A,3243.094963,N,11706.493456,W,66.7,267.2,130410,,,A*46
$GPRMC,155521.9,A,3243.098300,N,11706.560233,W,66.5,272.3,130410,,,A*40
$GPRMC,155524.9,A,3243.098904,N,11706.623356,W,63.5,270.3,130410,,,A*4A
$GPRMC,155527.9,A,3243.096026,N,11706.687795,W,63.0,263.9,130410,,,A*46
$GPRMC,155530.9,A,3243.084735,N,11706.748833,W,62.0,258.6,130410,,,A*41
$GPRMC,155533.9,A,3243.074375,N,11706.809086,W,62.6,258.7,130410,,,A*46
$GPRMC,155536.9,A,3243.065117,N,11706.869460,W,61.8,258.1,130410,,,A*44
$GPRMC,155539.9,A,3243.054570,N,11706.929936,W,62.2,259.2,130410,,,A*4C
$GPRMC,155542.9,A,3243.044334,N,11706.988654,W,60.2,259.6,130410,,,A*41
$GPRMC,155545.9,A,3243.036263,N,11707.043698,W,56.7,259.7,130410,,,A*4E
$GPRMC,155548.9,A,3243.027065,N,11707.100530,W,59.0,259.2,130410,,,A*4D
$GPRMC,155551.9,A,3243.014254,N,11707.158241,W,59.9,254.2,130410,,,A*4D
$GPRMC,155554.9,A,3242.999212,N,11707.211494,W,57.2,251.3,130410,,,A*46
$GPRMC,155557.9,A,3242.981461,N,11707.268513,W,60.9,249.9,130410,,,A*42
$GPRMC,155600.9,A,3242.964128,N,11707.327444,W,61.9,250.8,130410,,,A*41
$GPRMC,155603.9,A,3242.945588,N,11707.384539,W,61.3,249.3,130410,,,A*44
$GPRMC,155606.9,A,3242.926649,N,11707.443961,W,63.8,250.6,130410,,,A*43
$GPRMC,155609.9,A,3242.909653,N,11707.504836,W,64.7,251.5,130410,,,A*41
$GPRMC,155612.9,A,3242.890761,N,11707.563530,W,65.3,249.5,130410,,,A*4C
$GPRMC,155615.9,A,3242.872586,N,11707.624447,W,66.0,249.8,130410,,,A*40
$GPRMC,155618.9,A,3242.854001,N,11707.686472,W,67.1,250.1,130410,,,A*4C
$GPRMC,155621.9,A,3242.836021,N,11707.750453,W,67.2,253.8,130410,,,A*40
$GPRMC,155624.9,A,3242.821686,N,11707.814046,W,68.2,255.7,130410,,,A*41
$GPRMC,155627.9,A,3242.811305,N,11707.881350,W,67.9,260.5,130410,,,A*47
$GPRMC,155630.9,A,3242.805230,N,11707.943534,W,64.5,263.7,130410,,,A*46
$GPRMC,155633.9,A,3242.802543,N,11708.006398,W,62.8,267.3,130410,,,A*4D
$GPRMC,155636.9,A,3242.801759,N,11708.065580,W,60.0,269.0,130410,,,A*4F
$GPRMC,155639.9,A,3242.801214,N,11708.125132,W,59.1,269.1,130410,,,A*4E
$GPRMC,155642.9,A,3242.801173,N,11708.180201,W,56.0,270.0,130410,,,A*4B
$GPRMC,155645.9,A,3242.800969,N,11708.235274,W,56.7,269.4,130410,,,A*4A
$GPRMC,155648.9,A,3242.801571,N,11708.291560,W,54.4,269.7,130410,,,A*4D
$GPRMC,155651.9,A,3242.799231,N,11708.342178,W,48.1,268.2,130410,,,A*46
$GPRMC,155654.9,A,3242.799945,N,11708.386926,W,45.9,270.3,130410,,,A*4D
$GPRMC,155658.2,A,3242.799638,N,11708.434759,W,45.1,269.5,130410,,,A*41
$GPRMC,155701.9,A,3242.802047,N,11708.490920,W,45.6,271.3,130410,,,A*42
$GPRMC,155704.2,A,3242.800858,N,11708.527732,W,48.3,270.3,130410,,,A*41
$GPRMC,155707.2,A,3242.802883,N,11708.580713,W,56.0,272.7,130410,,,A*42
$GPRMC,155710.2,A,3242.804777,N,11708.637718,W,58.3,271.5,130410,,,A*4E
$GPRMC,155713.2,A,3242.810165,N,11708.693665,W,54.9,279.8,130410,,,A*4B
$GPRMC,155716.2,A,3242.821159,N,11708.743250,W,48.7,292.5,130410,,,A*46
$GPRMC,155719.9,A,3242.844317,N,11708.791280,W,44.7,304.9,130410,,,A*45
$GPRMC,155722.9,A,3242.872882,N,11708.818547,W,43.1,321.5,130410,,,A*47
$GPRMC,155725.9,A,3242.906515,N,11708.833750,W,42.5,339.8,130410,,,A*4D
$GPRMC,155728.9,A,3242.941245,N,11708.841727,W,42.7,352.3,130410,,,A*40
$GPRMC,155731.9,A,3242.978109,N,11708.844620,W,45.1,356.3,130410,,,A*4F
$GPRMC,155734.9,A,3243.015345,N,11708.846514,W,45.6,357.1,130410,,,A*41
$GPRMC,155737.9,A,3243.055984,N,11708.849867,W,49.0,356.8,130410,,,A*45
$GPRMC,155740.9,A,3243.099265,N,11708.850948,W,50.8,357.5,130410,,,A*49
$GPRMC,155743.9,A,3243.139915,N,11708.856768,W,51.7,352.5,130410,,,A*4C
$GPRMC,155746.9,A,3243.184059,N,11708.866052,W,54.9,349.3,130410,,,A*44
$GPRMC,155749.9,A,3243.226620,N,11708.881358,W,56.1,343.0,130410,,,A*4B
$GPRMC,155752.9,A,3243.273012,N,11708.901707,W,58.4,338.8,130410,,,A*4E
$GPRMC,155755.9,A,3243.316083,N,11708.921893,W,53.4,335.4,130410,,,A*49
$GPRMC,155758.9,A,3243.350706,N,11708.944659,W,46.5,329.3,130410,,,A*48
$GPRMC,155801.9,A,3243.380585,N,11708.964976,W,38.2,329.4,130410,,,A*46
$GPRMC,155804.9,A,3243.403360,N,11708.983503,W,34.5,322.9,130410,,,A*48
$GPRMC,155807.9,A,3243.423112,N,11709.008640,W,35.5,312.3,130410,,,A*49
$GPRMC,155810.9,A,3243.439960,N,11709.038978,W,36.8,303.6,130410,,,A*45
$GPRMC,155813.9,A,3243.454677,N,11709.069306,W,35.9,298.1,130410,,,A*45
$GPRMC,155816.2,A,3243.461913,N,11709.094098,W,36.6,287.5,130410,,,A*40
$GPRMC,155819.9,A,3243.471261,N,11709.139297,W,39.4,280.4,130410,,,A*4B
$GPRMC,155822.9,A,3243.472484,N,11709.183561,W,44.6,269.9,130410,,,A*40
$GPRMC,155825.9,A,3243.467977,N,11709.231419,W,50.0,264.6,130410,,,A*47
$GPRMC,155828.9,A,3243.462798,N,11709.284238,W,53.2,262.3,130410,,,A*49
$GPRMC,155831.9,A,3243.456114,N,11709.337340,W,55.1,262.1,130410,,,A*44
$GPRMC,155834.9,A,3243.452981,N,11709.392264,W,55.5,267.5,130410,,,A*4C
$GPRMC,155837.9,A,3243.451417,N,11709.443755,W,50.1,267.6,130410,,,A*40
$GPRMC,155840.9,A,3243.448354,N,11709.485533,W,41.7,265.8,130410,,,A*4A
$GPRMC,155843.9,A,3243.448398,N,11709.519514,W,33.6,267.0,130410,,,A*46
$GPRMC,155846.9,A,3243.448174,N,11709.541903,W,21.5,262.8,130410,,,A*49
$GPRMC,155849.9,A,3243.449352,N,11709.554340,W,14.5,275.2,130410,,,A*42
$GPRMC,155904.9,A,3243.450876,N,11709.561666,W,9.3,324.6,130410,,,A*73
$GPRMC,155907.9,A,3243.464748,N,11709.563399,W,17.7,353.9,130410,,,A*46
