NMEA Sentence Code,UTC Time,Status,Latitude,Latitude Direction,Longitude,Longitude Direction,Speed (knots),Track Angle (degrees true),Date,MagneticVariation,Magnetic Variation Direction,[FAA Mode]-Optional,Checksum
$GPRMC,234449.9,A,3245.961924,N,11701.493428,W,20.1,43.6,190710,,,A*72
$GPRMC,234452.2,A,3245.971478,N,11701.482420,W,21.7,38.4,190710,,,A*77
$GPRMC,234455.9,A,3245.993623,N,11701.465874,W,25.3,33.4,190710,,,A*74
$GPRMC,234458.9,A,3246.010907,N,11701.453253,W,24.1,34.3,190710,,,A*78
$GPRMC,234501.9,A,3246.024309,N,11701.439018,W,22.1,37.7,190710,,,A*76
$GPRMC,234504.9,A,3246.036839,N,11701.427789,W,18.7,35.7,190710,,,A*75
$GPRMC,234507.9,A,3246.044940,N,11701.420719,W,12.9,35.7,190710,,,A*76
$GPRMC,234513.9,A,3246.047528,N,11701.422739,W,6.0,11.7,190710,,,A*48
$GPRMC,234516.9,A,3246.056984,N,11701.412253,W,13.4,40.1,190710,,,A*7F
$GPRMC,234519.9,A,3246.070142,N,11701.407951,W,14.6,359.3,190710,,,A*47
$GPRMC,234522.9,A,3246.082965,N,11701.417750,W,18.6,321.7,190710,,,A*46
$GPRMC,234525.9,A,3246.098477,N,11701.431840,W,24.0,324.7,190710,,,A*42
$GPRMC,234528.9,A,3246.120073,N,11701.445003,W,27.4,330.1,190710,,,A*45
$GPRMC,234531.9,A,3246.137426,N,11701.457422,W,23.8,332.1,190710,,,A*41
$GPRMC,234534.9,A,3246.154618,N,11701.468016,W,23.1,331.0,190710,,,A*4A
$GPRMC,234537.9,A,3246.171482,N,11701.478180,W,19.0,333.2,190710,,,A*48
$GPRMC,234540.9,A,3246.181737,N,11701.483143,W,13.9,337.7,190710,,,A*43
$GPRMC,234546.9,A,3246.186139,N,11701.482286,W,5.7,10.5,190710,,,A*4C
$GPRMC,234549.9,A,3246.190411,N,11701.473799,W,13.2,54.8,190710,,,A*71
$GPRMC,234552.9,A,3246.194345,N,11701.453522,W,22.9,73.4,190710,,,A*79
$GPRMC,234555.9,A,3246.202168,N,11701.427606,W,29.1,72.6,190710,,,A*79
$GPRMC,234558.9,A,3246.210556,N,11701.398908,W,28.8,71.5,190710,,,A*74
$GPRMC,234601.9,A,3246.215823,N,11701.376244,W,24.0,72.5,190710,,,A*75
$GPRMC,234604.9,A,3246.222070,N,11701.355250,W,21.9,72.5,190710,,,A*72
$GPRMC,234607.9,A,3246.224457,N,11701.339144,W,15.7,75.8,190710,,,A*79
$GPRMC,234610.9,A,3246.227247,N,11701.328709,W,9.4,72.8,190710,,,A*4D
$GPRMC,234613.9,A,3246.229942,N,11701.322590,W,5.5,67.7,190710,,,A*40
$GPRMC,234637.9,A,3246.232195,N,11701.300467,W,4.8,81.0,190710,,,A*44
$GPRMC,234640.9,A,3246.232535,N,11701.295347,W,4.5,79.0,190710,,,A*48
$GPRMC,234701.9,A,3246.239679,N,11701.276679,W,4.4,65.9,190710,,,A*4C
$GPRMC,234707.9,A,3246.240892,N,11701.266453,W,4.8,77.8,190710,,,A*4A
$GPRMC,234713.9,A,3246.246568,N,11701.257496,W,7.2,66.9,190710,,,A*42
$GPRMC,234716.9,A,3246.250434,N,11701.244321,W,13.4,72.6,190710,,,A*78
$GPRMC,234719.9,A,3246.256673,N,11701.217869,W,26.9,74.0,190710,,,A*7A
$GPRMC,234722.9,A,3246.264388,N,11701.188660,W,31.6,72.3,190710,,,A*7C
$GPRMC,234725.9,A,3246.278321,N,11701.154113,W,36.5,65.5,190710,,,A*73
$GPRMC,234728.9,A,3246.293147,N,11701.121221,W,38.5,61.7,190710,,,A*71
$GPRMC,234731.9,A,3246.312930,N,11701.085709,W,41.5,58.4,190710,,,A*7E
$GPRMC,234734.9,A,3246.330827,N,11701.050249,W,41.4,57.4,190710,,,A*7B
$GPRMC,234737.9,A,3246.350129,N,11701.013349,W,45.1,58.9,190710,,,A*7C
$GPRMC,234740.9,A,3246.370476,N,11700.972440,W,49.1,60.0,190710,,,A*7E
$GPRMC,234743.9,A,3246.391473,N,11700.929683,W,50.8,61.2,190710,,,A*76
$GPRMC,234746.9,A,3246.411177,N,11700.883695,W,53.1,64.4,190710,,,A*72
$GPRMC,234749.9,A,3246.430614,N,11700.832741,W,56.1,66.4,190710,,,A*79
$GPRMC,234752.9,A,3246.450112,N,11700.780586,W,57.8,66.5,190710,,,A*72
$GPRMC,234755.9,A,3246.470167,N,11700.725097,W,60.2,66.7,190710,,,A*73
$GPRMC,234758.9,A,3246.490681,N,11700.670239,W,60.8,66.2,190710,,,A*77
$GPRMC,234801.9,A,3246.511272,N,11700.616375,W,60.7,66.1,190710,,,A*71
$GPRMC,234804.9,A,3246.530649,N,11700.560462,W,61.5,66.7,190710,,,A*7D
$GPRMC,234807.9,A,3246.550781,N,11700.506174,W,59.8,66.6,190710,,,A*78
$GPRMC,234810.9,A,3246.572510,N,11700.450588,W,61.5,66.5,190710,,,A*74
$GPRMC,234813.9,A,3246.592323,N,11700.394875,W,61.5,67.3,190710,,,A*78
$GPRMC,234816.9,A,3246.611681,N,11700.337638,W,62.5,67.4,190710,,,A*72
$GPRMC,234819.9,A,3246.630941,N,11700.283354,W,58.2,67.2,190710,,,A*74
$GPRMC,234822.9,A,3246.650310,N,11700.232626,W,56.2,64.8,190710,,,A*79
$GPRMC,234825.2,A,3246.668000,N,11700.195957,W,55.6,59.5,190710,,,A*7F
$GPRMC,234828.9,A,3246.699393,N,11700.137162,W,56.2,58.0,190710,,,A*7B
$GPRMC,234831.9,A,3246.721524,N,11700.089051,W,55.7,61.9,190710,,,A*7B
$GPRMC,234834.9,A,3246.739037,N,11700.037946,W,56.1,68.6,190710,,,A*79
$GPRMC,234837.9,A,3246.753153,N,11659.985519,W,55.8,75.3,190710,,,A*7D
$GPRMC,234840.9,A,3246.760959,N,11659.932549,W,54.1,81.4,190710,,,A*72
$GPRMC,234843.9,A,3246.759920,N,11659.875016,W,56.5,90.2,190710,,,A*78
$GPRMC,234846.9,A,3246.757724,N,11659.820889,W,53.8,92.5,190710,,,A*7A
$GPRMC,234849.2,A,3246.756870,N,11659.781232,W,52.0,92.4,190710,,,A*77
$GPRMC,234852.9,A,3246.755107,N,11659.716428,W,53.9,92.2,190710,,,A*71
$GPRMC,234855.9,A,3246.752158,N,11659.663291,W,54.4,92.6,190710,,,A*72
$GPRMC,234858.9,A,3246.752254,N,11659.603173,W,58.6,91.2,190710,,,A*70
$GPRMC,234901.9,A,3246.750974,N,11659.543229,W,59.0,91.7,190710,,,A*7F
$GPRMC,234904.9,A,3246.748669,N,11659.486524,W,58.7,92.1,190710,,,A*71
$GPRMC,234907.9,A,3246.747436,N,11659.430077,W,57.9,91.5,190710,,,A*7D
$GPRMC,234910.9,A,3246.746339,N,11659.372434,W,58.3,90.9,190710,,,A*78
$GPRMC,234913.9,A,3246.744166,N,11659.315106,W,58.6,91.9,190710,,,A*70
$GPRMC,234916.9,A,3246.741192,N,11659.257682,W,58.1,92.1,190710,,,A*7B
$GPRMC,234919.9,A,3246.738122,N,11659.202300,W,55.7,92.7,190710,,,A*73
$GPRMC,234922.9,A,3246.739056,N,11659.149287,W,53.2,87.3,190710,,,A*79
$GPRMC,234925.9,A,3246.745424,N,11659.100349,W,51.2,80.7,190710,,,A*7B
$GPRMC,234928.9,A,3246.763034,N,11659.055263,W,49.5,67.5,190710,,,A*7A
$GPRMC,234931.9,A,3246.781607,N,11659.010452,W,50.9,63.2,190710,,,A*7A
$GPRMC,234934.9,A,3246.808959,N,11658.970909,W,51.2,51.9,190710,,,A*78
$GPRMC,234937.9,A,3246.842235,N,11658.933707,W,54.6,40.2,190710,,,A*79
$GPRMC,234940.9,A,3246.881741,N,11658.907558,W,54.0,29.2,190710,,,A*76
$GPRMC,234943.9,A,3246.923199,N,11658.885157,W,53.2,25.0,190710,,,A*74
$GPRMC,234946.9,A,3246.965414,N,11658.862181,W,54.4,25.3,190710,,,A*73
$GPRMC,234949.9,A,3247.007960,N,11658.838491,W,55.9,25.2,190710,,,A*78
$GPRMC,234952.9,A,3247.052146,N,11658.813234,W,56.0,27.1,190710,,,A*75
$GPRMC,234955.9,A,3247.089047,N,11658.786970,W,53.6,30.2,190710,,,A*7A
$GPRMC,234958.9,A,3247.122769,N,11658.759157,W,53.1,32.9,190710,,,A*7D
$GPRMC,235001.9,A,3247.157197,N,11658.732064,W,51.9,33.2,190710,,,A*70
$GPRMC,235004.9,A,3247.198337,N,11658.702001,W,53.7,29.8,190710,,,A*73
$GPRMC,235007.9,A,3247.240745,N,11658.683985,W,51.5,22.2,190710,,,A*7B
$GPRMC,235010.9,A,3247.281024,N,11658.673222,W,50.4,13.5,190710,,,A*7C
$GPRMC,235013.9,A,3247.321252,N,11658.662941,W,51.9,8.8,190710,,,A*42
$GPRMC,235016.9,A,3247.363952,N,11658.661797,W,51.3,2.8,190710,,,A*4C
$GPRMC,235019.9,A,3247.407731,N,11658.660852,W,52.1,1.3,190710,,,A*43
$GPRMC,235022.9,A,3247.450233,N,11658.661092,W,51.4,0.1,190710,,,A*4E
$GPRMC,235025.9,A,3247.493481,N,11658.654611,W,53.5,4.7,190710,,,A*43
$GPRMC,235028.9,A,3247.536772,N,11658.651663,W,52.5,5.9,190710,,,A*41
$GPRMC,235031.9,A,3247.582974,N,11658.648307,W,55.1,6.1,190710,,,A*49
$GPRMC,235034.9,A,3247.629024,N,11658.644523,W,55.6,6.1,190710,,,A*49
$GPRMC,235037.9,A,3247.674977,N,11658.634970,W,54.6,7.9,190710,,,A*48
$GPRMC,235040.9,A,3247.719250,N,11658.624751,W,52.6,7.5,190710,,,A*4A
$GPRMC,235043.9,A,3247.764017,N,11658.616549,W,53.7,7.6,190710,,,A*4B
$GPRMC,235046.9,A,3247.808413,N,11658.609855,W,52.3,7.4,190710,,,A*42
$GPRMC,235049.9,A,3247.851981,N,11658.603785,W,51.4,8.3,190710,,,A*43
$GPRMC,235052.9,A,3247.894969,N,11658.594647,W,50.0,12.7,190710,,,A*7E
$GPRMC,235055.9,A,3247.935765,N,11658.578565,W,50.4,19.3,190710,,,A*7B
$GPRMC,235058.9,A,3247.975109,N,11658.560121,W,50.5,23.4,190710,,,A*7C
$GPRMC,235101.9,A,3248.016257,N,11658.526836,W,56.0,31.7,190710,,,A*74
$GPRMC,235104.2,A,3248.042744,N,11658.498894,W,56.8,38.7,190710,,,A*71
$GPRMC,235107.2,A,3248.081242,N,11658.451681,W,61.7,48.5,190710,,,A*7F
$GPRMC,235110.2,A,3248.114310,N,11658.404965,W,62.2,51.9,190710,,,A*75
$GPRMC,235113.9,A,3248.146111,N,11658.339342,W,63.7,62.0,190710,,,A*72
$GPRMC,235116.9,A,3248.164712,N,11658.280841,W,63.6,70.2,190710,,,A*79
$GPRMC,235119.9,A,3248.181985,N,11658.220636,W,63.2,72.9,190710,,,A*74
$GPRMC,235122.9,A,3248.186568,N,11658.155244,W,65.2,83.7,190710,,,A*72
$GPRMC,235125.9,A,3248.188902,N,11658.094260,W,63.1,87.4,190710,,,A*73
$GPRMC,235128.9,A,3248.186434,N,11658.027659,W,65.1,89.2,190710,,,A*70
$GPRMC,235131.9,A,3248.187359,N,11657.964209,W,64.9,89.6,190710,,,A*78
$GPRMC,235134.9,A,3248.187617,N,11657.900642,W,64.0,90.0,190710,,,A*7C
$GPRMC,235137.9,A,3248.183898,N,11657.835392,W,64.4,90.7,190710,,,A*7E
$GPRMC,235140.9,A,3248.182772,N,11657.771966,W,64.3,90.4,190710,,,A*7E
$GPRMC,235143.9,A,3248.183180,N,11657.709892,W,61.9,90.2,190710,,,A*7B
$GPRMC,235146.9,A,3248.183613,N,11657.656136,W,54.2,90.3,190710,,,A*73
$GPRMC,235149.9,A,3248.183464,N,11657.607635,W,49.3,90.4,190710,,,A*74
$GPRMC,235152.9,A,3248.185681,N,11657.569416,W,39.3,90.6,190710,,,A*7C
$GPRMC,235155.9,A,3248.181760,N,11657.535795,W,33.0,91.6,190710,,,A*78
$GPRMC,235158.9,A,3248.183390,N,11657.502769,W,33.3,90.3,190710,,,A*7C
$GPRMC,235201.9,A,3248.183418,N,11657.471185,W,32.5,89.3,190710,,,A*7A
$GPRMC,235204.9,A,3248.183208,N,11657.439006,W,31.3,89.2,190710,,,A*7A
$GPRMC,235207.9,A,3248.179845,N,11657.418561,W,22.4,95.6,190710,,,A*74
$GPRMC,235210.9,A,3248.181020,N,11657.398664,W,19.8,91.9,190710,,,A*78
$GPRMC,235213.9,A,3248.178909,N,11657.373226,W,27.2,97.7,190710,,,A*77
$GPRMC,235216.9,A,3248.178076,N,11657.340734,W,35.1,93.5,190710,,,A*73
$GPRMC,235219.9,A,3248.177121,N,11657.301917,W,40.9,91.5,190710,,,A*72
$GPRMC,235222.9,A,3248.174754,N,11657.258554,W,43.9,92.3,190710,,,A*7D
$GPRMC,235225.9,A,3248.172336,N,11657.216528,W,41.9,93.3,190710,,,A*7E
$GPRMC,235228.9,A,3248.170508,N,11657.176418,W,38.8,92.0,190710,,,A*70
$GPRMC,235231.9,A,3248.170736,N,11657.148349,W,24.9,85.3,190710,,,A*70
$GPRMC,235234.9,A,3248.170700,N,11657.133804,W,14.4,84.0,190710,,,A*72
$GPRMC,235237.9,A,3248.168815,N,11657.128942,W,6.4,92.4,190710,,,A*4A
$GPRMC,235253.2,A,3248.170357,N,11657.113281,W,7.0,87.6,190710,,,A*48
$GPRMC,235256.9,A,3248.167456,N,11657.099889,W,11.5,100.9,190710,,,A*44
$GPRMC,235259.9,A,3248.164889,N,11657.086291,W,14.8,99.0,190710,,,A*7B
$GPRMC,235302.9,A,3248.163767,N,11657.072050,W,12.9,95.1,190710,,,A*72
$GPRMC,235305.9,A,3248.158238,N,11657.065414,W,10.5,139.1,190710,,,A*49
$GPRMC,235308.9,A,3248.146790,N,11657.061743,W,14.9,176.2,190710,,,A*49
$GPRMC,235311.9,A,3248.125535,N,11657.063939,W,23.6,180.5,190710,,,A*4D
$GPRMC,235314.9,A,3248.104153,N,11657.063467,W,25.3,177.6,190710,,,A*41
$GPRMC,235317.9,A,3248.083256,N,11657.061053,W,23.5,174.4,190710,,,A*4A
$GPRMC,235320.9,A,3248.074203,N,11657.060496,W,9.9,168.1,190710,,,A*76
$GPRMC,235326.9,A,3248.070048,N,11657.059234,W,5.4,184.0,190710,,,A*7F
$GPRMC,235329.9,A,3248.059303,N,11657.059687,W,13.0,182.1,190710,,,A*4F
$GPRMC,235332.9,A,3248.042894,N,11657.059713,W,20.6,181.1,190710,,,A*43
$GPRMC,235335.9,A,3248.026617,N,11657.058854,W,18.0,176.9,190710,,,A*43
$GPRMC,235338.9,A,3248.015309,N,11657.056133,W,13.1,163.6,190710,,,A*43
$GPRMC,235341.9,A,3248.010016,N,11657.046389,W,12.2,112.5,190710,,,A*40
$GPRMC,235344.9,A,3248.010241,N,11657.031624,W,15.0,93.5,190710,,,A*7A
$GPRMC,235347.9,A,3248.010829,N,11657.010683,W,20.9,90.2,190710,,,A*78
$GPRMC,235350.9,A,3248.010650,N,11656.987574,W,22.0,87.6,190710,,,A*7A
$GPRMC,235353.9,A,3248.011681,N,11656.967311,W,19.4,87.7,190710,,,A*72
$GPRMC,235356.9,A,3248.012285,N,11656.949160,W,18.1,90.6,190710,,,A*7F
$GPRMC,235359.9,A,3248.012334,N,11656.930646,W,20.5,90.1,190710,,,A*7E
$GPRMC,235402.9,A,3248.013790,N,11656.908515,W,22.1,88.2,190710,,,A*7E
$GPRMC,235405.9,A,3248.012382,N,11656.886436,W,22.7,90.5,190710,,,A*70
$GPRMC,235408.9,A,3248.013419,N,11656.862222,W,22.9,89.1,190710,,,A*72
$GPRMC,235411.9,A,3248.013413,N,11656.841005,W,23.5,91.3,190710,,,A*70
$GPRMC,235414.9,A,3248.013800,N,11656.818763,W,21.6,89.5,190710,,,A*7E
$GPRMC,235417.9,A,3248.010318,N,11656.799173,W,17.9,92.6,190710,,,A*7E
$GPRMC,235420.9,A,3248.012893,N,11656.778990,W,19.5,85.4,190710,,,A*7C
$GPRMC,235423.9,A,3248.015914,N,11656.765408,W,12.6,77.8,190710,,,A*7F
$GPRMC,235426.9,A,3248.011441,N,11656.761508,W,5.3,98.9,190710,,,A*45
$GPRMC,235429.9,A,3248.013096,N,11656.756839,W,5.1,80.1,190710,,,A*4E
$GPRMC,235433.2,A,3248.013957,N,11656.744669,W,11.7,92.6,190710,,,A*75
$GPRMC,235436.2,A,3248.014615,N,11656.727699,W,17.4,92.6,190710,,,A*71
$GPRMC,235439.2,A,3248.014432,N,11656.706339,W,21.3,91.6,190710,,,A*74
$GPRMC,235442.2,A,3248.015392,N,11656.683022,W,22.8,89.8,190710,,,A*7E
$GPRMC,235445.2,A,3248.014445,N,11656.660812,W,23.4,87.9,190710,,,A*71
$GPRMC,235448.9,A,3248.016010,N,11656.632298,W,24.4,88.5,190710,,,A*7A
$GPRMC,235451.9,A,3248.015960,N,11656.605203,W,25.7,89.5,190710,,,A*7A
$GPRMC,235454.9,A,3248.015825,N,11656.583329,W,22.5,84.5,190710,,,A*73
$GPRMC,235457.9,A,3248.016054,N,11656.562901,W,21.6,86.7,190710,,,A*72
$GPRMC,235500.9,A,3248.015264,N,11656.537168,W,24.7,90.4,190710,,,A*74
$GPRMC,235503.9,A,3248.015271,N,11656.511553,W,25.1,90.7,190710,,,A*7F
$GPRMC,235506.9,A,3248.015236,N,11656.484862,W,26.6,90.2,190710,,,A*7A
$GPRMC,235509.9,A,3248.013683,N,11656.457719,W,27.9,91.4,190710,,,A*7D
$GPRMC,235512.9,A,3248.013501,N,11656.429900,W,28.1,90.9,190710,,,A*7A
$GPRMC,235515.9,A,3248.013996,N,11656.403621,W,26.5,89.6,190710,,,A*76
$GPRMC,235518.9,A,3248.014090,N,11656.379768,W,25.2,92.4,190710,,,A*79
$GPRMC,235521.9,A,3248.013404,N,11656.352246,W,27.3,91.5,190710,,,A*7C
$GPRMC,235524.9,A,3248.012233,N,11656.325277,W,28.2,90.6,190710,,,A*74
$GPRMC,235527.9,A,3248.011286,N,11656.299734,W,25.3,92.4,190710,,,A*72
$GPRMC,235530.9,A,3248.011202,N,11656.274237,W,25.3,90.7,190710,,,A*7C
$GPRMC,235533.9,A,3248.012003,N,11656.248179,W,26.7,88.5,190710,,,A*75
$GPRMC,235536.9,A,3248.012989,N,11656.220518,W,27.5,89.0,190710,,,A*71
$GPRMC,235539.9,A,3248.011376,N,11656.196581,W,23.8,91.0,190710,,,A*79
$GPRMC,235542.9,A,3248.010084,N,11656.177624,W,17.7,90.3,190710,,,A*73
$GPRMC,235545.9,A,3248.010176,N,11656.170402,W,5.3,88.2,190710,,,A*46
$GPRMC,235603.9,A,3248.009802,N,11656.167185,W,5.8,91.8,190710,,,A*40
$GPRMC,235612.9,A,3248.001870,N,11656.152739,W,10.4,164.3,190710,,,A*42
$GPRMC,235615.9,A,3247.988547,N,11656.150941,W,18.5,178.2,190710,,,A*4D
$GPRMC,235618.9,A,3247.967827,N,11656.150339,W,25.6,179.3,190710,,,A*42
$GPRMC,235621.9,A,3247.940339,N,11656.147949,W,30.8,178.3,190710,,,A*49
$GPRMC,235624.9,A,3247.913259,N,11656.148150,W,32.8,180.1,190710,,,A*45
$GPRMC,235627.9,A,3247.884013,N,11656.148476,W,35.4,181.4,190710,,,A*4B
$GPRMC,235630.9,A,3247.850817,N,11656.148594,W,38.3,180.7,190710,,,A*4D
$GPRMC,235633.9,A,3247.817323,N,11656.147805,W,38.2,179.7,190710,,,A*4C
$GPRMC,235636.9,A,3247.789000,N,11656.147786,W,32.1,178.5,190710,,,A*4D
$GPRMC,235639.9,A,3247.767144,N,11656.147051,W,25.4,178.8,190710,,,A*40
$GPRMC,235644.9,A,3247.747977,N,11656.147133,W,9.9,176.9,190710,,,A*79
$GPRMC,235739.9,A,3247.733584,N,11656.149136,W,11.6,189.7,190710,,,A*42
$GPRMC,235742.9,A,3247.709691,N,11656.149195,W,23.3,181.1,190710,,,A*43
$GPRMC,235745.9,A,3247.686740,N,11656.147922,W,26.1,176.7,190710,,,A*4C
$GPRMC,235748.9,A,3247.664869,N,11656.142280,W,27.8,164.2,190710,,,A*41
$GPRMC,235751.9,A,3247.640738,N,11656.127057,W,33.3,146.3,190710,,,A*40
$GPRMC,235754.9,A,3247.618259,N,11656.103482,W,35.3,138.6,190710,,,A*4A
$GPRMC,235757.9,A,3247.594908,N,11656.078742,W,36.9,136.2,190710,,,A*40
$GPRMC,235800.9,A,3247.575210,N,11656.054593,W,35.2,133.1,190710,,,A*4E
$GPRMC,235803.9,A,3247.558969,N,11656.030781,W,28.6,132.2,190710,,,A*4E
$GPRMC,235806.9,A,3247.561035,N,11656.024564,W,11.7,105.3,190710,,,A*43
