NMEA Sentence Code,UTC Time,Status,Latitude,Latitude Direction,Longitude,Longitude Direction,Speed (knots),Track Angle (degrees true),Date,MagneticVariation,Magnetic Variation Direction,[FAA Mode]-Optional,Checksum
$GPRMC,203753.5,A,3337.913686,N,11742.850616,W,5.1,348.8,140410,,,A*70
$GPRMC,203756.5,A,3337.918055,N,11742.854363,W,6.0,324.9,140410,,,A*7C
$GPRMC,203759.5,A,3337.919673,N,11742.859099,W,5.3,305.8,140410,,,A*79
$GPRMC,203802.5,A,3337.918132,N,11742.865018,W,6.0,266.2,140410,,,A*73
$GPRMC,203805.5,A,3337.913602,N,11742.872552,W,7.7,246.1,140410,,,A*71
$GPRMC,203808.5,A,3337.910468,N,11742.880209,W,7.2,241.3,140410,,,A*75
$GPRMC,203811.5,A,3337.907503,N,11742.885249,W,4.8,228.5,140410,,,A*76
$GPRMC,203829.5,A,3337.893019,N,11742.888200,W,5.1,169.1,140410,,,A*75
$GPRMC,203832.5,A,3337.882514,N,11742.879762,W,11.6,144.2,140410,,,A*46
$GPRMC,203835.5,A,3337.873082,N,11742.875240,W,10.6,179.7,140410,,,A*46
$GPRMC,203838.5,A,3337.863356,N,11742.881614,W,14.1,222.9,140410,,,A*4E
$GPRMC,203841.5,A,3337.852056,N,11742.895343,W,19.3,230.3,140410,,,A*45
$GPRMC,203844.5,A,3337.835428,N,11742.912826,W,23.8,228.4,140410,,,A*46
$GPRMC,203847.5,A,3337.820603,N,11742.931393,W,25.3,228.7,140410,,,A*40
$GPRMC,203850.5,A,3337.808752,N,11742.949093,W,24.1,228.3,140410,,,A*42
$GPRMC,203853.5,A,3337.794867,N,11742.966873,W,23.4,228.2,140410,,,A*4A
$GPRMC,203856.5,A,3337.781956,N,11742.982187,W,20.2,226.9,140410,,,A*40
$GPRMC,203859.5,A,3337.773941,N,11742.994155,W,15.1,227.5,140410,,,A*44
$GPRMC,203902.5,A,3337.769607,N,11743.000453,W,8.8,226.1,140410,,,A*7B
$GPRMC,203947.5,A,3337.765625,N,11743.012044,W,5.4,242.9,140410,,,A*7C
$GPRMC,203950.5,A,3337.761028,N,11743.024568,W,11.0,259.1,140410,,,A*48
$GPRMC,203953.5,A,3337.757255,N,11743.043501,W,17.1,263.8,140410,,,A*4F
$GPRMC,203956.5,A,3337.730620,N,11743.085721,W,31.1,248.0,140410,,,A*42
$GPRMC,203959.5,A,3337.724228,N,11743.118011,W,32.7,257.4,140410,,,A*4A
$GPRMC,204002.5,A,3337.723817,N,11743.155008,W,36.5,268.7,140410,,,A*43
$GPRMC,204005.5,A,3337.734553,N,11743.198719,W,39.8,282.5,140410,,,A*4D
$GPRMC,204008.5,A,3337.749717,N,11743.235896,W,39.5,295.8,140410,,,A*42
$GPRMC,204011.5,A,3337.777912,N,11743.270252,W,43.5,312.5,140410,,,A*41
$GPRMC,204014.5,A,3337.811575,N,11743.304324,W,50.2,316.4,140410,,,A*44
$GPRMC,204017.5,A,3337.843014,N,11743.341523,W,52.8,314.8,140410,,,A*44
$GPRMC,204020.5,A,3337.873466,N,11743.381534,W,55.0,313.2,140410,,,A*4A
$GPRMC,204023.5,A,3337.908912,N,11743.422444,W,57.7,314.9,140410,,,A*4B
$GPRMC,204026.5,A,3337.944814,N,11743.464547,W,59.1,315.3,140410,,,A*42
$GPRMC,204029.5,A,3337.983703,N,11743.504782,W,60.0,317.7,140410,,,A*4E
$GPRMC,204032.5,A,3338.023258,N,11743.544091,W,60.3,320.7,140410,,,A*45
$GPRMC,204035.5,A,3338.065394,N,11743.581229,W,60.2,324.5,140410,,,A*4E
$GPRMC,204038.5,A,3338.107138,N,11743.613316,W,58.0,326.7,140410,,,A*4E
$GPRMC,204041.5,A,3338.148770,N,11743.645686,W,58.6,326.6,140410,,,A*49
$GPRMC,204044.5,A,3338.188981,N,11743.677889,W,56.9,326.7,140410,,,A*40
$GPRMC,204047.5,A,3338.231024,N,11743.710019,W,58.5,326.5,140410,,,A*45
$GPRMC,204050.5,A,3338.271192,N,11743.742108,W,58.5,326.6,140410,,,A*4E
$GPRMC,204053.5,A,3338.311042,N,11743.774836,W,58.0,327.8,140410,,,A*4D
$GPRMC,204056.5,A,3338.349383,N,11743.803626,W,55.8,329.2,140410,,,A*4A
$GPRMC,204059.5,A,3338.389941,N,11743.832426,W,55.4,328.8,140410,,,A*4A
$GPRMC,204102.5,A,3338.429052,N,11743.860738,W,53.7,329.8,140410,,,A*4C
$GPRMC,204105.5,A,3338.468207,N,11743.886594,W,53.2,330.1,140410,,,A*44
$GPRMC,204108.5,A,3338.505947,N,11743.912442,W,52.7,330.3,140410,,,A*4C
$GPRMC,204111.5,A,3338.546002,N,11743.939103,W,53.2,329.9,140410,,,A*44
$GPRMC,204114.5,A,3338.581946,N,11743.965015,W,51.9,330.0,140410,,,A*44
$GPRMC,204117.5,A,3338.619706,N,11743.990344,W,51.4,329.5,140410,,,A*42
$GPRMC,204120.5,A,3338.655735,N,11744.018706,W,51.2,324.0,140410,,,A*4C
$GPRMC,204123.5,A,3338.685929,N,11744.052111,W,50.3,317.6,140410,,,A*49
$GPRMC,204126.5,A,3338.721489,N,11744.088412,W,53.0,317.5,140410,,,A*46
$GPRMC,204129.5,A,3338.757476,N,11744.124535,W,54.0,320.0,140410,,,A*4D
$GPRMC,204132.5,A,3338.790924,N,11744.159025,W,54.9,321.0,140410,,,A*40
$GPRMC,204135.5,A,3338.826859,N,11744.193295,W,55.6,320.9,140410,,,A*47
$GPRMC,204138.5,A,3338.864091,N,11744.227842,W,57.3,321.6,140410,,,A*45
$GPRMC,204141.5,A,3338.903743,N,11744.261985,W,57.3,323.7,140410,,,A*48
$GPRMC,204144.5,A,3338.942081,N,11744.296521,W,58.1,323.8,140410,,,A*49
$GPRMC,204147.5,A,3338.981459,N,11744.330610,W,57.9,324.5,140410,,,A*45
$GPRMC,204150.5,A,3339.022293,N,11744.364204,W,59.1,325.4,140410,,,A*44
$GPRMC,204153.5,A,3339.064899,N,11744.398022,W,60.5,326.2,140410,,,A*4B
$GPRMC,204156.5,A,3339.106293,N,11744.430412,W,58.9,326.4,140410,,,A*48
$GPRMC,204159.5,A,3339.146790,N,11744.462816,W,58.5,326.5,140410,,,A*47
$GPRMC,204202.5,A,3339.188033,N,11744.495307,W,59.6,326.6,140410,,,A*44
$GPRMC,204205.5,A,3339.230253,N,11744.528261,W,59.5,326.2,140410,,,A*46
$GPRMC,204208.5,A,3339.271793,N,11744.561346,W,59.3,326.7,140410,,,A*4D
$GPRMC,204211.5,A,3339.312990,N,11744.594245,W,58.0,326.4,140410,,,A*45
$GPRMC,204214.5,A,3339.352413,N,11744.626958,W,56.6,325.4,140410,,,A*44
$GPRMC,204217.5,A,3339.392987,N,11744.659177,W,57.4,326.1,140410,,,A*43
$GPRMC,204220.5,A,3339.433738,N,11744.690426,W,57.4,327.6,140410,,,A*43
$GPRMC,204223.5,A,3339.473926,N,11744.719775,W,56.8,327.9,140410,,,A*42
$GPRMC,204226.5,A,3339.514083,N,11744.749733,W,56.9,327.9,140410,,,A*47
$GPRMC,204229.5,A,3339.554907,N,11744.781367,W,57.2,327.6,140410,,,A*4D
$GPRMC,204232.5,A,3339.594605,N,11744.813523,W,57.1,326.4,140410,,,A*44
$GPRMC,204235.5,A,3339.633796,N,11744.845977,W,55.3,325.6,140410,,,A*49
$GPRMC,204238.5,A,3339.671971,N,11744.876964,W,55.1,326.0,140410,,,A*40
$GPRMC,204241.5,A,3339.709101,N,11744.908901,W,56.4,325.2,140410,,,A*43
$GPRMC,204244.5,A,3339.748158,N,11744.939361,W,55.8,326.7,140410,,,A*48
$GPRMC,204247.5,A,3339.786342,N,11744.970929,W,55.5,325.4,140410,,,A*46
$GPRMC,204250.5,A,3339.823890,N,11745.000014,W,54.3,325.5,140410,,,A*4A
$GPRMC,204253.5,A,3339.862274,N,11745.031821,W,54.1,325.1,140410,,,A*46
$GPRMC,204256.5,A,3339.899729,N,11745.062387,W,53.9,325.0,140410,,,A*45
$GPRMC,204259.5,A,3339.936681,N,11745.092612,W,52.9,325.6,140410,,,A*4C
$GPRMC,204302.5,A,3339.975558,N,11745.121932,W,54.9,326.6,140410,,,A*42
$GPRMC,204305.5,A,3340.013767,N,11745.152171,W,54.6,326.3,140410,,,A*4D
$GPRMC,204308.5,A,3340.052291,N,11745.182615,W,55.6,326.5,140410,,,A*46
$GPRMC,204311.5,A,3340.090831,N,11745.211784,W,54.2,326.5,140410,,,A*45
$GPRMC,204314.5,A,3340.128309,N,11745.240650,W,53.8,329.3,140410,,,A*4A
$GPRMC,204317.5,A,3340.167340,N,11745.267452,W,53.5,332.6,140410,,,A*48
$GPRMC,204320.5,A,3340.210339,N,11745.289570,W,53.3,338.6,140410,,,A*4C
$GPRMC,204323.5,A,3340.257980,N,11745.307291,W,54.3,343.9,140410,,,A*4F
$GPRMC,204326.5,A,3340.303666,N,11745.318695,W,54.0,348.4,140410,,,A*46
$GPRMC,204329.5,A,3340.346908,N,11745.327889,W,53.2,350.3,140410,,,A*4B
$GPRMC,204332.5,A,3340.389548,N,11745.336567,W,53.0,350.0,140410,,,A*46
$GPRMC,204335.5,A,3340.436330,N,11745.346176,W,54.8,349.3,140410,,,A*4C
$GPRMC,204338.5,A,3340.481092,N,11745.358331,W,55.0,345.5,140410,,,A*4B
$GPRMC,204341.5,A,3340.525248,N,11745.376369,W,55.7,340.1,140410,,,A*48
$GPRMC,204344.5,A,3340.568031,N,11745.398371,W,56.2,335.3,140410,,,A*47
$GPRMC,204347.5,A,3340.609151,N,11745.424970,W,56.7,330.9,140410,,,A*46
$GPRMC,204350.5,A,3340.647954,N,11745.456530,W,56.3,324.9,140410,,,A*4B
$GPRMC,204353.5,A,3340.683870,N,11745.492043,W,57.0,319.6,140410,,,A*4D
$GPRMC,204356.5,A,3340.720520,N,11745.530397,W,58.2,317.4,140410,,,A*4A
$GPRMC,204359.5,A,3340.752671,N,11745.569684,W,55.8,315.8,140410,,,A*45
$GPRMC,204402.5,A,3340.788742,N,11745.610387,W,57.4,316.7,140410,,,A*43
$GPRMC,204405.5,A,3340.821706,N,11745.649073,W,56.6,316.8,140410,,,A*40
$GPRMC,204408.5,A,3340.857064,N,11745.686892,W,55.2,317.3,140410,,,A*46
$GPRMC,204411.5,A,3340.891436,N,11745.725630,W,55.0,317.2,140410,,,A*4A
$GPRMC,204414.5,A,3340.928774,N,11745.764380,W,55.1,319.4,140410,,,A*4B
$GPRMC,204417.5,A,3340.964241,N,11745.798227,W,55.7,322.8,140410,,,A*4E
$GPRMC,204420.5,A,3341.003905,N,11745.830567,W,57.2,326.8,140410,,,A*45
$GPRMC,204423.5,A,3341.042779,N,11745.857640,W,55.7,330.5,140410,,,A*4C
$GPRMC,204426.5,A,3341.084664,N,11745.885030,W,58.0,331.3,140410,,,A*4D
$GPRMC,204429.5,A,3341.126922,N,11745.912567,W,56.9,331.4,140410,,,A*4E
$GPRMC,204432.5,A,3341.168635,N,11745.939737,W,56.9,331.4,140410,,,A*49
$GPRMC,204434.5,A,3341.195176,N,11745.957505,W,56.5,331.7,140410,,,A*49
$GPRMC,204435.5,A,3341.208946,N,11745.965778,W,56.3,331.9,140410,,,A*45
$GPRMC,204438.5,A,3341.248004,N,11745.991433,W,56.6,332.0,140410,,,A*4B
$GPRMC,204441.5,A,3341.291911,N,11746.019720,W,60.0,332.3,140410,,,A*47
$GPRMC,204444.5,A,3341.334471,N,11746.045698,W,59.4,332.4,140410,,,A*45
$GPRMC,204447.5,A,3341.376842,N,11746.072934,W,58.9,331.7,140410,,,A*4D
$GPRMC,204450.5,A,3341.422249,N,11746.102096,W,60.2,331.5,140410,,,A*49
$GPRMC,204453.5,A,3341.467290,N,11746.131651,W,61.0,331.1,140410,,,A*45
$GPRMC,204456.5,A,3341.511985,N,11746.161432,W,60.8,331.0,140410,,,A*45
$GPRMC,204459.5,A,3341.556997,N,11746.192401,W,62.3,330.8,140410,,,A*46
$GPRMC,204502.5,A,3341.603023,N,11746.222703,W,62.8,330.8,140410,,,A*4E
$GPRMC,204505.5,A,3341.649229,N,11746.254112,W,63.3,330.8,140410,,,A*42
$GPRMC,204508.5,A,3341.696238,N,11746.283482,W,63.4,331.9,140410,,,A*4C
$GPRMC,204511.5,A,3341.741793,N,11746.314047,W,63.7,331.2,140410,,,A*41
$GPRMC,204514.5,A,3341.790191,N,11746.344226,W,64.6,331.8,140410,,,A*40
$GPRMC,204517.5,A,3341.836846,N,11746.375375,W,64.3,331.4,140410,,,A*4F
$GPRMC,204520.5,A,3341.884930,N,11746.407015,W,65.3,331.5,140410,,,A*45
$GPRMC,204523.5,A,3341.932953,N,11746.438684,W,65.6,331.2,140410,,,A*4F
$GPRMC,204526.5,A,3341.981274,N,11746.470185,W,65.4,331.4,140410,,,A*42
$GPRMC,204529.5,A,3342.028195,N,11746.501119,W,63.9,331.7,140410,,,A*42
$GPRMC,204532.5,A,3342.075044,N,11746.532374,W,63.5,331.2,140410,,,A*4D
$GPRMC,204535.5,A,3342.121896,N,11746.561725,W,64.5,331.4,140410,,,A*4A
$GPRMC,204538.5,A,3342.168861,N,11746.592882,W,63.9,331.3,140410,,,A*40
$GPRMC,204541.5,A,3342.213551,N,11746.622283,W,63.4,331.6,140410,,,A*44
$GPRMC,204544.5,A,3342.260553,N,11746.652506,W,63.6,331.2,140410,,,A*4C
$GPRMC,204547.5,A,3342.307928,N,11746.683604,W,64.5,331.1,140410,,,A*45
$GPRMC,204550.5,A,3342.355181,N,11746.717306,W,66.4,330.4,140410,,,A*43
$GPRMC,204553.5,A,3342.401711,N,11746.752523,W,67.4,328.8,140410,,,A*4D
$GPRMC,204556.5,A,3342.447154,N,11746.786010,W,65.2,328.0,140410,,,A*4D
$GPRMC,204559.5,A,3342.494472,N,11746.823496,W,64.9,325.9,140410,,,A*49
$GPRMC,204602.5,A,3342.539030,N,11746.860222,W,63.2,324.7,140410,,,A*4D
$GPRMC,204605.5,A,3342.582997,N,11746.896108,W,61.9,322.5,140410,,,A*41
$GPRMC,204608.5,A,3342.622488,N,11746.934186,W,61.1,320.9,140410,,,A*4F
$GPRMC,204611.5,A,3342.660650,N,11746.972655,W,59.7,320.6,140410,,,A*4F
$GPRMC,204614.5,A,3342.697480,N,11747.009479,W,57.7,320.0,140410,,,A*4D
$GPRMC,204617.5,A,3342.728073,N,11747.045682,W,54.8,316.8,140410,,,A*4C
$GPRMC,204620.5,A,3342.758118,N,11747.086144,W,55.1,313.5,140410,,,A*41
$GPRMC,204623.5,A,3342.790753,N,11747.126831,W,56.4,312.6,140410,,,A*4B
$GPRMC,204626.5,A,3342.821410,N,11747.169061,W,56.6,311.3,140410,,,A*4D
$GPRMC,204629.5,A,3342.853593,N,11747.211614,W,56.4,311.2,140410,,,A*46
$GPRMC,204632.5,A,3342.884050,N,11747.253378,W,55.5,311.3,140410,,,A*46
$GPRMC,204635.5,A,3342.914284,N,11747.295179,W,54.7,310.0,140410,,,A*4A
$GPRMC,204638.5,A,3342.943402,N,11747.336855,W,54.7,310.1,140410,,,A*43
$GPRMC,204641.5,A,3342.973506,N,11747.379861,W,55.0,309.4,140410,,,A*4C
$GPRMC,204644.5,A,3343.003085,N,11747.423979,W,56.1,308.8,140410,,,A*47
$GPRMC,204647.5,A,3343.034137,N,11747.467028,W,56.2,311.0,140410,,,A*46
$GPRMC,204650.5,A,3343.065607,N,11747.509451,W,55.4,313.5,140410,,,A*41
$GPRMC,204653.5,A,3343.098788,N,11747.545807,W,52.4,319.8,140410,,,A*41
$GPRMC,204656.5,A,3343.133592,N,11747.570854,W,48.0,333.3,140410,,,A*41
$GPRMC,204659.5,A,3343.168028,N,11747.584580,W,43.7,344.4,140410,,,A*40
$GPRMC,204702.5,A,3343.199643,N,11747.595569,W,39.4,340.0,140410,,,A*43
$GPRMC,204705.5,A,3343.224065,N,11747.612824,W,33.7,325.6,140410,,,A*47
$GPRMC,204708.5,A,3343.240415,N,11747.627254,W,25.4,325.6,140410,,,A*44
$GPRMC,204711.5,A,3343.247565,N,11747.633417,W,16.5,337.4,140410,,,A*49
$GPRMC,204714.5,A,3343.250623,N,11747.634280,W,9.1,348.5,140410,,,A*77
$GPRMC,204817.5,A,3343.236170,N,11747.644114,W,5.8,229.6,140410,,,A*73
$GPRMC,204820.5,A,3343.229127,N,11747.653079,W,8.8,228.8,140410,,,A*75
$GPRMC,204823.5,A,3343.221637,N,11747.665080,W,11.1,231.0,140410,,,A*4A
$GPRMC,204830.5,A,3343.158743,N,11747.726489,W,32.6,216.5,140410,,,A*4A
$GPRMC,204833.5,A,3343.135806,N,11747.750913,W,30.9,216.3,140410,,,A*48
$GPRMC,204836.5,A,3343.128999,N,11747.761333,W,23.2,214.4,140410,,,A*40
$GPRMC,204839.5,A,3343.124598,N,11747.765959,W,16.4,211.6,140410,,,A*4B
$GPRMC,204854.5,A,3343.134903,N,11747.763412,W,4.6,266.5,140410,,,A*79
$GPRMC,204857.5,A,3343.131573,N,11747.769208,W,5.9,258.8,140410,,,A*7D
$GPRMC,204900.5,A,3343.122454,N,11747.777166,W,8.0,240.8,140410,,,A*71
$GPRMC,204903.5,A,3343.104192,N,11747.792684,W,13.5,230.1,140410,,,A*48
$GPRMC,204906.5,A,3343.078669,N,11747.812140,W,20.8,223.2,140410,,,A*40
$GPRMC,204909.5,A,3343.070011,N,11747.822235,W,12.5,212.1,140410,,,A*41
$GPRMC,204912.5,A,3343.064353,N,11747.825924,W,4.8,219.4,140410,,,A*73
$GPRMC,204939.5,A,3343.051650,N,11747.836448,W,4.5,235.1,140410,,,A*79
$GPRMC,204942.5,A,3343.038746,N,11747.849200,W,8.6,228.4,140410,,,A*78
$GPRMC,204945.5,A,3343.024718,N,11747.866984,W,13.7,226.0,140410,,,A*42
$GPRMC,204948.5,A,3342.996767,N,11747.890851,W,22.6,216.4,140410,,,A*42
$GPRMC,204951.5,A,3342.947608,N,11747.926857,W,42.3,213.6,140410,,,A*40
$GPRMC,204954.5,A,3342.903286,N,11747.959782,W,47.4,211.8,140410,,,A*46
$GPRMC,204957.5,A,3342.862828,N,11747.988126,W,51.1,211.4,140410,,,A*47
$GPRMC,205000.5,A,3342.819102,N,11748.017670,W,52.1,210.1,140410,,,A*43
$GPRMC,205003.5,A,3342.779404,N,11748.043956,W,52.6,209.1,140410,,,A*4F
$GPRMC,205006.5,A,3342.734208,N,11748.067641,W,54.8,206.6,140410,,,A*46
$GPRMC,205009.5,A,3342.675950,N,11748.086629,W,59.4,202.9,140410,,,A*40
$GPRMC,205012.5,A,3342.624361,N,11748.108830,W,60.8,202.2,140410,,,A*4A
$GPRMC,205015.5,A,3342.572548,N,11748.130898,W,61.6,202.4,140410,,,A*40
$GPRMC,205018.5,A,3342.525927,N,11748.154644,W,61.6,202.2,140410,,,A*41
$GPRMC,205021.5,A,3342.478062,N,11748.178990,W,60.9,203.2,140410,,,A*4D
$GPRMC,205024.5,A,3342.433637,N,11748.204906,W,60.0,204.5,140410,,,A*4F
$GPRMC,205027.5,A,3342.388184,N,11748.232441,W,61.8,207.3,140410,,,A*43
$GPRMC,205030.5,A,3342.344219,N,11748.268057,W,62.7,215.4,140410,,,A*46
$GPRMC,205033.5,A,3342.308703,N,11748.308445,W,60.9,222.5,140410,,,A*4A
$GPRMC,205036.5,A,3342.274445,N,11748.350886,W,60.5,226.1,140410,,,A*46
$GPRMC,205039.5,A,3342.244908,N,11748.396885,W,60.0,230.9,140410,,,A*4D
$GPRMC,205042.5,A,3342.214119,N,11748.442791,W,59.3,228.5,140410,,,A*44
$GPRMC,205045.5,A,3342.178469,N,11748.484976,W,59.7,223.3,140410,,,A*4C
$GPRMC,205048.5,A,3342.139258,N,11748.524007,W,60.2,218.6,140410,,,A*46
$GPRMC,205051.5,A,3342.100833,N,11748.563332,W,61.6,221.0,140410,,,A*4C
$GPRMC,205054.5,A,3342.064924,N,11748.606141,W,61.3,224.9,140410,,,A*42
$GPRMC,205057.5,A,3342.029833,N,11748.649902,W,61.3,226.2,140410,,,A*42
$GPRMC,205100.5,A,3341.993285,N,11748.694421,W,61.2,225.7,140410,,,A*46
$GPRMC,205103.5,A,3341.959295,N,11748.739652,W,61.4,228.7,140410,,,A*49
$GPRMC,205106.5,A,3341.931928,N,11748.789022,W,61.1,237.8,140410,,,A*41
$GPRMC,205109.5,A,3341.910796,N,11748.843454,W,60.8,246.0,140410,,,A*4C
$GPRMC,205112.5,A,3341.901997,N,11748.900941,W,59.4,256.3,140410,,,A*42
$GPRMC,205115.5,A,3341.903088,N,11748.959308,W,60.1,268.9,140410,,,A*43
$GPRMC,205118.5,A,3341.905132,N,11749.018605,W,58.8,271.7,140410,,,A*49
