NMEA Sentence Code,UTC Time,Status,Latitude,Latitude Direction,Longitude,Longitude Direction,Speed (knots),Track Angle (degrees true),Date,MagneticVariation,Magnetic Variation Direction,[FAA Mode]-Optional,Checksum
$GPRMC,225451.000,A,3300.3089,N,11649.4705,W,43.74,252.30,221210,,,A*46
$GPRMC,225454.000,A,3300.2933,N,11649.5138,W,46.17,246.60,221210,,,A*43
$GPRMC,225457.000,A,3300.2755,N,11649.5543,W,45.20,240.80,221210,,,A*49
$GPRMC,225500.000,A,3300.2576,N,11649.5919,W,46.17,238.90,221210,,,A*43
$GPRMC,225503.000,A,3300.2359,N,11649.6324,W,47.63,238.40,221210,,,A*43
$GPRMC,225506.000,A,3300.2150,N,11649.6737,W,48.60,239.00,221210,,,A*42
$GPRMC,225509.000,A,3300.1961,N,11649.7142,W,47.63,239.50,221210,,,A*48
$GPRMC,225512.000,A,3300.1740,N,11649.7536,W,49.08,237.20,221210,,,A*42
$GPRMC,225515.000,A,3300.1518,N,11649.7967,W,49.57,238.20,221210,,,A*47
$GPRMC,225518.000,A,3300.1294,N,11649.8388,W,49.08,238.60,221210,,,A*43
$GPRMC,225521.000,A,3300.1103,N,11649.8799,W,48.11,243.90,221210,,,A*4A
$GPRMC,225524.000,A,3300.0955,N,11649.9237,W,47.63,252.70,221210,,,A*41
$GPRMC,225527.000,A,3300.0884,N,11649.9693,W,47.14,261.40,221210,,,A*46
$GPRMC,225530.000,A,3300.0828,N,11650.0171,W,46.65,260.40,221210,,,A*4A
$GPRMC,225533.000,A,3300.0721,N,11650.0585,W,43.25,250.10,221210,,,A*47
$GPRMC,225536.000,A,3300.0498,N,11650.0949,W,45.20,230.50,221210,,,A*4E
$GPRMC,225539.000,A,3300.0186,N,11650.1280,W,49.57,224.50,221210,,,A*4D
$GPRMC,225543.000,A,3259.9863,N,11650.1715,W,43.25,230.10,221210,,,A*41
$GPRMC,225546.000,A,3259.9697,N,11650.2047,W,38.88,241.40,221210,,,A*4A
$GPRMC,225549.000,A,3259.9524,N,11650.2377,W,39.36,232.60,221210,,,A*4C
$GPRMC,225552.000,A,3259.9304,N,11650.2704,W,43.74,231.20,221210,,,A*4E
$GPRMC,225555.000,A,3259.9102,N,11650.3094,W,46.17,243.00,221210,,,A*45
$GPRMC,225558.000,A,3259.8991,N,11650.3532,W,47.14,257.10,221210,,,A*44
$GPRMC,225601.000,A,3259.8937,N,11650.4008,W,49.08,262.90,221210,,,A*41
$GPRMC,225605.000,A,3259.8889,N,11650.4555,W,50.54,264.00,221210,,,A*42
$GPRMC,225608.000,A,3259.8847,N,11650.5039,W,47.63,263.80,221210,,,A*4E
$GPRMC,225612.000,A,3259.8793,N,11650.5775,W,48.11,265.20,221210,,,A*4A
$GPRMC,225616.000,A,3259.8756,N,11650.6389,W,45.68,269.30,221210,,,A*4D
$GPRMC,225619.000,A,3259.8816,N,11650.6851,W,45.68,280.60,221210,,,A*45
$GPRMC,225622.000,A,3259.8903,N,11650.7271,W,45.20,283.70,221210,,,A*4F
$GPRMC,225625.000,A,3259.8992,N,11650.7701,W,43.74,281.20,221210,,,A*42
$GPRMC,225628.000,A,3259.8997,N,11650.8141,W,42.77,269.30,221210,,,A*42
$GPRMC,225631.000,A,3259.8963,N,11650.8530,W,39.85,264.80,221210,,,A*44
$GPRMC,225634.000,A,3259.8953,N,11650.8926,W,40.34,270.50,221210,,,A*45
$GPRMC,225636.000,A,3259.8970,N,11650.9198,W,40.82,272.70,221210,,,A*47
$GPRMC,225640.000,A,3259.8974,N,11650.9726,W,39.36,266.90,221210,,,A*4B
$GPRMC,225643.000,A,3259.8835,N,11651.0104,W,40.82,247.10,221210,,,A*48
$GPRMC,225646.000,A,3259.8675,N,11651.0461,W,41.79,248.40,221210,,,A*4E
$GPRMC,225649.000,A,3259.8604,N,11651.0879,W,43.25,260.60,221210,,,A*41
$GPRMC,225652.000,A,3259.8575,N,11651.1327,W,44.71,266.20,221210,,,A*4B
$GPRMC,225655.000,A,3259.8626,N,11651.1772,W,45.20,274.60,221210,,,A*4F
$GPRMC,225658.000,A,3259.8683,N,11651.2238,W,47.14,274.10,221210,,,A*47
$GPRMC,225701.000,A,3259.8696,N,11651.2710,W,45.68,271.90,221210,,,A*45
$GPRMC,225704.000,A,3259.8669,N,11651.3147,W,44.71,268.60,221210,,,A*4B
$GPRMC,225707.000,A,3259.8720,N,11651.3560,W,43.25,278.70,221210,,,A*43
$GPRMC,225710.000,A,3259.8859,N,11651.3955,W,40.82,293.70,221210,,,A*45
$GPRMC,225713.000,A,3259.8992,N,11651.4313,W,39.85,288.50,221210,,,A*4E
$GPRMC,225716.000,A,3259.9048,N,11651.4695,W,39.85,281.60,221210,,,A*45
$GPRMC,225719.000,A,3259.9101,N,11651.5127,W,42.77,281.20,221210,,,A*4C
$GPRMC,225722.000,A,3259.9133,N,11651.5549,W,44.22,279.80,221210,,,A*42
$GPRMC,225725.000,A,3259.9210,N,11651.6001,W,46.17,283.90,221210,,,A*4D
$GPRMC,225728.000,A,3259.9371,N,11651.6430,W,46.17,290.50,221210,,,A*4E
$GPRMC,225731.000,A,3259.9469,N,11651.6843,W,44.22,288.30,221210,,,A*4B
$GPRMC,225734.000,A,3259.9640,N,11651.7229,W,41.31,296.30,221210,,,A*48
$GPRMC,225737.000,A,3259.9820,N,11651.7526,W,35.48,307.50,221210,,,A*49
$GPRMC,225740.000,A,3300.0119,N,11651.7722,W,37.91,334.30,221210,,,A*48
$GPRMC,225743.000,A,3300.0449,N,11651.7854,W,39.86,339.30,221210,,,A*40
$GPRMC,225746.000,A,3300.0747,N,11651.7994,W,39.36,338.50,221210,,,A*49
$GPRMC,225749.000,A,3300.1064,N,11651.8124,W,39.85,339.60,221210,,,A*47
$GPRMC,225752.000,A,3300.1374,N,11651.8262,W,40.34,338.90,221210,,,A*44
$GPRMC,225755.000,A,3300.1676,N,11651.8427,W,40.82,330.50,221210,,,A*4A
$GPRMC,225758.000,A,3300.1931,N,11651.8679,W,40.34,318.10,221210,,,A*41
$GPRMC,225801.000,A,3300.2140,N,11651.8957,W,39.86,316.30,221210,,,A*47
$GPRMC,225804.000,A,3300.2437,N,11651.9182,W,40.34,333.10,221210,,,A*44
$GPRMC,225807.000,A,3300.2760,N,11651.9302,W,40.34,342.90,221210,,,A*42
$GPRMC,225810.000,A,3300.3147,N,11651.9411,W,44.71,349.00,221210,,,A*44
$GPRMC,225813.000,A,3300.3532,N,11651.9410,W,46.17,04.40,221210,,,A*7C
$GPRMC,225816.000,A,3300.3940,N,11651.9328,W,48.60,09.40,221210,,,A*7F
$GPRMC,225819.000,A,3300.4335,N,11651.9309,W,46.17,00.00,221210,,,A*7F
$GPRMC,225822.000,A,3300.4722,N,11651.9387,W,46.65,345.20,221210,,,A*46
$GPRMC,225825.000,A,3300.5083,N,11651.9568,W,48.61,336.60,221210,,,A*41
$GPRMC,225828.000,A,3300.5457,N,11651.9753,W,48.11,337.90,221210,,,A*42
$GPRMC,225831.000,A,3300.5813,N,11651.9896,W,45.20,345.50,221210,,,A*46
$GPRMC,225834.000,A,3300.6189,N,11651.9915,W,46.17,359.20,221210,,,A*4D
$GPRMC,225837.000,A,3300.6595,N,11651.9922,W,48.60,00.10,221210,,,A*71
$GPRMC,225840.000,A,3300.7019,N,11651.9912,W,49.57,01.00,221210,,,A*77
$GPRMC,225843.000,A,3300.7436,N,11651.9924,W,50.54,00.00,221210,,,A*72
$GPRMC,225846.000,A,3300.7848,N,11651.9911,W,48.60,00.60,221210,,,A*7C
$GPRMC,225849.000,A,3300.8230,N,11651.9881,W,44.22,01.50,221210,,,A*79
$GPRMC,225852.000,A,3300.8560,N,11651.9922,W,36.45,357.90,221210,,,A*41
$GPRMC,225854.000,A,3300.8679,N,11651.9921,W,24.79,01.10,221210,,,A*7B
$GPRMC,225913.000,A,3300.8738,N,11651.9924,W,4.37,356.60,221210,,,A*76
$GPRMC,225916.000,A,3300.8836,N,11651.9931,W,11.66,355.20,221210,,,A*41
$GPRMC,225919.000,A,3300.8909,N,11652.0006,W,14.09,304.70,221210,,,A*49
$GPRMC,225922.000,A,3300.8917,N,11652.0185,W,20.90,268.90,221210,,,A*46
$GPRMC,225925.000,A,3300.8938,N,11652.0474,W,29.16,270.10,221210,,,A*41
$GPRMC,225928.000,A,3300.8894,N,11652.0789,W,34.02,267.40,221210,,,A*40
$GPRMC,225931.000,A,3300.8887,N,11652.1188,W,39.36,270.40,221210,,,A*40
$GPRMC,225935.000,A,3300.8902,N,11652.1651,W,41.79,270.20,221210,,,A*49
$GPRMC,225938.000,A,3300.8918,N,11652.2065,W,41.31,270.40,221210,,,A*47
$GPRMC,225941.000,A,3300.8925,N,11652.2477,W,41.79,270.80,221210,,,A*40
$GPRMC,225944.000,A,3300.8928,N,11652.2907,W,43.75,270.50,221210,,,A*41
$GPRMC,225947.000,A,3300.8938,N,11652.3303,W,44.71,270.90,221210,,,A*43
$GPRMC,225950.000,A,3300.8939,N,11652.3893,W,45.20,270.20,221210,,,A*48
$GPRMC,225953.000,A,3300.8942,N,11652.4308,W,41.31,269.40,221210,,,A*43
$GPRMC,225956.000,A,3300.8945,N,11652.4709,W,40.34,270.00,221210,,,A*4C
$GPRMC,225959.000,A,3300.8947,N,11652.5108,W,41.31,270.50,221210,,,A*46
$GPRMC,230002.000,A,3300.8955,N,11652.5528,W,41.79,271.20,221210,,,A*4A
$GPRMC,230005.000,A,3300.8958,N,11652.5797,W,40.82,270.60,221210,,,A*46
$GPRMC,230008.000,A,3300.8957,N,11652.6300,W,39.36,269.70,221210,,,A*45
$GPRMC,230011.000,A,3300.8962,N,11652.6706,W,40.82,270.50,221210,,,A*42
$GPRMC,230014.000,A,3300.8957,N,11652.7082,W,36.93,269.70,221210,,,A*40
$GPRMC,230017.000,A,3300.8955,N,11652.7393,W,28.67,269.80,221210,,,A*49
$GPRMC,230019.000,A,3300.8954,N,11652.7548,W,23.33,268.50,221210,,,A*40
$GPRMC,230023.000,A,3300.8850,N,11652.7732,W,17.50,212.60,221210,,,A*4F
$GPRMC,230026.000,A,3300.8637,N,11652.7737,W,27.22,181.30,221210,,,A*4A
$GPRMC,230029.000,A,3300.8363,N,11652.7731,W,34.02,179.00,221210,,,A*43
$GPRMC,230032.000,A,3300.8031,N,11652.7736,W,38.88,180.90,221210,,,A*4B
$GPRMC,230035.000,A,3300.7701,N,11652.7731,W,40.34,180.50,221210,,,A*44
$GPRMC,230038.000,A,3300.7360,N,11652.7737,W,41.31,181.00,221210,,,A*4C
$GPRMC,230041.000,A,3300.7007,N,11652.7746,W,40.82,180.70,221210,,,A*49
$GPRMC,230044.000,A,3300.6672,N,11652.7737,W,40.82,179.60,221210,,,A*48
$GPRMC,230047.000,A,3300.6332,N,11652.7743,W,41.31,181.40,221210,,,A*45
$GPRMC,230050.000,A,3300.5963,N,11652.7737,W,42.77,179.90,221210,,,A*46
$GPRMC,230053.000,A,3300.5722,N,11652.7748,W,41.31,180.80,221210,,,A*40
$GPRMC,230056.000,A,3300.5364,N,11652.7743,W,30.13,180.70,221210,,,A*41
$GPRMC,230059.000,A,3300.5155,N,11652.7753,W,22.84,188.70,221210,,,A*4A
$GPRMC,230102.000,A,3300.5052,N,11652.7859,W,17.01,239.70,221210,,,A*44
$GPRMC,230105.000,A,3300.5005,N,11652.8075,W,23.81,264.00,221210,,,A*48
$GPRMC,230108.000,A,3300.5023,N,11652.8350,W,30.13,272.00,221210,,,A*4B
$GPRMC,230111.000,A,3300.5025,N,11652.8675,W,34.99,269.10,221210,,,A*4A
$GPRMC,230115.000,A,3300.5032,N,11652.9242,W,42.28,270.90,221210,,,A*42
$GPRMC,230119.000,A,3300.5037,N,11652.9855,W,46.17,270.80,221210,,,A*4E
$GPRMC,230122.000,A,3300.5049,N,11653.0331,W,47.14,271.00,221210,,,A*45
$GPRMC,230125.000,A,3300.5060,N,11653.0656,W,48.11,271.00,221210,,,A*47
$GPRMC,230128.000,A,3300.5051,N,11653.1291,W,48.11,270.50,221210,,,A*42
$GPRMC,230131.000,A,3300.5059,N,11653.1760,W,49.08,270.10,221210,,,A*44
$GPRMC,230134.000,A,3300.5046,N,11653.2272,W,50.54,269.80,221210,,,A*4A
$GPRMC,230137.000,A,3300.5055,N,11653.2747,W,46.65,270.80,221210,,,A*45
$GPRMC,230141.000,A,3300.5068,N,11653.3324,W,43.74,271.20,221210,,,A*44
$GPRMC,230144.000,A,3300.5073,N,11653.3731,W,42.77,270.50,221210,,,A*4F
$GPRMC,230147.000,A,3300.5090,N,11653.4183,W,45.20,270.60,221210,,,A*4F
$GPRMC,230150.000,A,3300.5095,N,11653.4632,W,44.71,271.40,221210,,,A*47
$GPRMC,230153.000,A,3300.5092,N,11653.5062,W,44.71,269.80,221210,,,A*44
$GPRMC,230156.000,A,3300.5103,N,11653.5511,W,45.68,270.90,221210,,,A*49
$GPRMC,230159.000,A,3300.5097,N,11653.5947,W,45.68,270.50,221210,,,A*49
$GPRMC,230202.000,A,3300.5078,N,11653.6403,W,46.17,268.90,221210,,,A*45
$GPRMC,230205.000,A,3300.5097,N,11653.6881,W,47.63,270.80,221210,,,A*4F
$GPRMC,230208.000,A,3300.5099,N,11653.7348,W,48.11,270.00,221210,,,A*41
$GPRMC,230211.000,A,3300.5101,N,11653.7836,W,49.08,270.60,221210,,,A*44
$GPRMC,230215.000,A,3300.5100,N,11653.8489,W,48.11,269.90,221210,,,A*48
$GPRMC,230218.000,A,3300.5114,N,11653.8955,W,46.65,270.20,221210,,,A*42
$GPRMC,230221.000,A,3300.5105,N,11653.9404,W,44.71,270.50,221210,,,A*40
$GPRMC,230224.000,A,3300.5103,N,11653.9821,W,43.25,270.50,221210,,,A*4E
$GPRMC,230227.000,A,3300.5103,N,11654.0250,W,43.74,269.70,221210,,,A*41
$GPRMC,230230.000,A,3300.5136,N,11654.0715,W,46.17,271.80,221210,,,A*43
$GPRMC,230233.000,A,3300.5126,N,11654.1166,W,44.71,270.70,221210,,,A*4E
$GPRMC,230236.000,A,3300.5132,N,11654.1591,W,42.28,270.30,221210,,,A*4C
$GPRMC,230238.000,A,3300.5115,N,11654.1868,W,41.31,268.70,221210,,,A*4A
$GPRMC,230242.000,A,3300.5127,N,11654.2368,W,37.42,275.20,221210,,,A*42
$GPRMC,230244.000,A,3300.5190,N,11654.2599,W,35.48,288.30,221210,,,A*4B
$GPRMC,230248.000,A,3300.5422,N,11654.2958,W,34.50,314.50,221210,,,A*40
$GPRMC,230251.000,A,3300.5669,N,11654.3176,W,36.45,322.30,221210,,,A*45
$GPRMC,230254.000,A,3300.5956,N,11654.3405,W,39.36,324.40,221210,,,A*48
$GPRMC,230257.000,A,3300.6218,N,11654.3625,W,39.85,324.30,221210,,,A*46
$GPRMC,230259.000,A,3300.6409,N,11654.3782,W,39.85,324.40,221210,,,A*45
$GPRMC,230303.000,A,3300.6736,N,11654.4096,W,37.42,322.60,221210,,,A*40
$GPRMC,230306.000,A,3300.6990,N,11654.4305,W,35.96,323.20,221210,,,A*40
$GPRMC,230309.000,A,3300.7224,N,11654.4496,W,33.53,325.60,221210,,,A*4A
$GPRMC,230312.000,A,3300.7435,N,11654.4679,W,28.67,325.50,221210,,,A*4B
$GPRMC,230314.000,A,3300.7533,N,11654.4769,W,21.87,326.90,221210,,,A*42
$GPRMC,230351.000,A,3300.7567,N,11654.4808,W,0.00,325.10,221210,,,A*7D
$GPRMC,230354.000,A,3300.7644,N,11654.4871,W,8.26,325.40,221210,,,A*7D
$GPRMC,230357.000,A,3300.7719,N,11654.4944,W,10.21,321.90,221210,,,A*47
$GPRMC,230400.000,A,3300.7793,N,11654.4987,W,9.23,328.70,221210,,,A*72
$GPRMC,230403.000,A,3300.7853,N,11654.5070,W,12.15,310.30,221210,,,A*42
$GPRMC,230406.000,A,3300.7886,N,11654.5189,W,12.15,271.90,221210,,,A*44
$GPRMC,230409.000,A,3300.7797,N,11654.5325,W,17.01,228.60,221210,,,A*43
$GPRMC,230412.000,A,3300.7678,N,11654.5464,W,21.87,225.20,221210,,,A*49
$GPRMC,230415.000,A,3300.7521,N,11654.5664,W,28.19,226.70,221210,,,A*4B
$GPRMC,230418.000,A,3300.7347,N,11654.5883,W,32.07,226.40,221210,,,A*40
$GPRMC,230421.000,A,3300.7146,N,11654.6128,W,35.48,226.00,221210,,,A*4A
$GPRMC,230424.000,A,3300.6940,N,11654.6394,W,36.45,226.70,221210,,,A*4C
$GPRMC,230427.000,A,3300.6729,N,11654.6654,W,35.96,226.70,221210,,,A*4A
$GPRMC,230430.000,A,3300.6526,N,11654.6919,W,35.96,226.60,221210,,,A*46
$GPRMC,230433.000,A,3300.6314,N,11654.7194,W,37.42,227.60,221210,,,A*44
$GPRMC,230436.000,A,3300.6102,N,11654.7466,W,37.91,227.40,221210,,,A*40
$GPRMC,230439.000,A,3300.5884,N,11654.7760,W,39.36,229.30,221210,,,A*44
$GPRMC,230442.000,A,3300.5675,N,11654.8063,W,40.34,231.70,221210,,,A*42
$GPRMC,230445.000,A,3300.5498,N,11654.8396,W,38.88,242.20,221210,,,A*44
$GPRMC,230448.000,A,3300.5414,N,11654.8768,W,37.91,257.30,221210,,,A*4A
$GPRMC,230451.000,A,3300.5391,N,11654.9141,W,39.36,269.50,221210,,,A*4C
$GPRMC,230455.000,A,3300.5495,N,11654.9636,W,38.88,287.60,221210,,,A*4B
$GPRMC,230458.000,A,3300.5628,N,11655.0013,W,39.85,293.40,221210,,,A*40
$GPRMC,230501.000,A,3300.5772,N,11655.0343,W,37.42,295.00,221210,,,A*42
$GPRMC,230504.000,A,3300.5881,N,11655.0677,W,35.96,291.20,221210,,,A*4B
$GPRMC,230507.000,A,3300.5980,N,11655.1036,W,38.39,284.60,221210,,,A*42
$GPRMC,230510.000,A,3300.6021,N,11655.1424,W,39.36,275.70,221210,,,A*43
$GPRMC,230513.000,A,3300.5992,N,11655.1806,W,39.36,264.90,221210,,,A*40
$GPRMC,230516.000,A,3300.5926,N,11655.2193,W,41.31,255.10,221210,,,A*4E
$GPRMC,230519.000,A,3300.5798,N,11655.2583,W,42.28,247.60,221210,,,A*40
$GPRMC,230522.000,A,3300.5633,N,11655.2980,W,44.22,243.70,221210,,,A*4E
$GPRMC,230524.000,A,3300.5527,N,11655.3230,W,43.74,243.00,221210,,,A*4C
$GPRMC,230528.000,A,3300.5289,N,11655.3732,W,44.71,243.40,221210,,,A*42
$GPRMC,230531.000,A,3300.5175,N,11655.4138,W,43.74,255.20,221210,,,A*42
$GPRMC,230534.000,A,3300.5156,N,11655.4571,W,42.77,270.60,221210,,,A*4E
$GPRMC,230537.000,A,3300.5218,N,11655.4992,W,42.28,282.20,221210,,,A*46
$GPRMC,230540.000,A,3300.5345,N,11655.5363,W,40.82,295.50,221210,,,A*49
$GPRMC,230543.000,A,3300.5554,N,11655.5704,W,42.28,304.00,221210,,,A*47
$GPRMC,230547.000,A,3300.5816,N,11655.6214,W,44.71,300.70,221210,,,A*46
$GPRMC,230550.000,A,3300.5985,N,11655.6620,W,46.65,293.60,221210,,,A*45
$GPRMC,230553.000,A,3300.6124,N,11655.7059,W,45.20,289.80,221210,,,A*48
$GPRMC,230556.000,A,3300.6259,N,11655.7488,W,45.68,289.40,221210,,,A*4C
$GPRMC,230559.000,A,3300.6376,N,11655.7864,W,42.28,290.60,221210,,,A*48
$GPRMC,230602.000,A,3300.6485,N,11655.8258,W,43.25,289.60,221210,,,A*40
$GPRMC,230605.000,A,3300.6562,N,11655.8718,W,46.65,282.40,221210,,,A*46
$GPRMC,230608.000,A,3300.6644,N,11655.9137,W,43.25,277.60,221210,,,A*4F
$GPRMC,230611.000,A,3300.6634,N,11655.9597,W,45.20,269.80,221210,,,A*4C
$GPRMC,230614.000,A,3300.6610,N,11656.0051,W,45.68,267.90,221210,,,A*49
$GPRMC,230617.000,A,3300.6628,N,11656.0475,W,43.74,270.40,221210,,,A*43
$GPRMC,230620.000,A,3300.6622,N,11656.0919,W,45.20,268.30,221210,,,A*43
$GPRMC,230623.000,A,3300.6624,N,11656.1339,W,42.28,268.00,221210,,,A*43
$GPRMC,230626.000,A,3300.6574,N,11656.1763,W,40.82,264.40,221210,,,A*41
$GPRMC,230629.000,A,3300.6542,N,11656.2166,W,39.85,264.60,221210,,,A*40
$GPRMC,230633.000,A,3300.6519,N,11656.2701,W,42.28,264.90,221210,,,A*46
$GPRMC,230636.000,A,3300.6476,N,11656.3108,W,40.34,264.90,221210,,,A*4A
$GPRMC,230638.000,A,3300.6459,N,11656.3382,W,39.85,264.90,221210,,,A*4D
$GPRMC,230642.000,A,3300.6429,N,11656.3853,W,35.96,264.70,221210,,,A*40
$GPRMC,230645.000,A,3300.6417,N,11656.4222,W,36.93,267.50,221210,,,A*46
$GPRMC,230649.000,A,3300.6383,N,11656.4684,W,34.99,266.70,221210,,,A*43
$GPRMC,230652.000,A,3300.6379,N,11656.5019,W,34.50,271.70,221210,,,A*4C
$GPRMC,230655.000,A,3300.6427,N,11656.5349,W,33.05,278.70,221210,,,A*4F
$GPRMC,230658.000,A,3300.6484,N,11656.5694,W,34.50,281.30,221210,,,A*4B
$GPRMC,230701.000,A,3300.6564,N,11656.6035,W,35.96,285.60,221210,,,A*4D
$GPRMC,230704.000,A,3300.6643,N,11656.6367,W,35.48,285.30,221210,,,A*4C
$GPRMC,230707.000,A,3300.6702,N,11656.6720,W,36.93,280.90,221210,,,A*46
$GPRMC,230710.000,A,3300.6733,N,11656.7081,W,36.45,276.40,221210,,,A*40
$GPRMC,230713.000,A,3300.6760,N,11656.7454,W,38.88,275.00,221210,,,A*41
$GPRMC,230716.000,A,3300.6792,N,11656.7802,W,35.48,274.70,221210,,,A*41
$GPRMC,230719.000,A,3300.6816,N,11656.8035,W,35.48,275.60,221210,,,A*4E
$GPRMC,230722.000,A,3300.6883,N,11656.8513,W,37.91,281.40,221210,,,A*44
$GPRMC,230725.000,A,3300.6981,N,11656.8925,W,41.31,288.80,221210,,,A*47
$GPRMC,230728.000,A,3300.7093,N,11656.9335,W,44.22,289.50,221210,,,A*40
$GPRMC,230731.000,A,3300.7233,N,11656.9778,W,47.63,290.30,221210,,,A*45
$GPRMC,230734.000,A,3300.7385,N,11657.0235,W,49.57,290.70,221210,,,A*45
$GPRMC,230737.000,A,3300.7508,N,11657.0709,W,50.54,286.20,221210,,,A*46
$GPRMC,230740.000,A,3300.7562,N,11657.1191,W,49.09,275.00,221210,,,A*42
$GPRMC,230743.000,A,3300.7492,N,11657.1651,W,45.68,259.80,221210,,,A*49
$GPRMC,230746.000,A,3300.7258,N,11657.2099,W,50.06,238.30,221210,,,A*4D
$GPRMC,230749.000,A,3300.6986,N,11657.2442,W,48.60,220.70,221210,,,A*4D
$GPRMC,230751.000,A,3300.6757,N,11657.2614,W,48.60,210.00,221210,,,A*43
$GPRMC,230755.000,A,3300.6196,N,11657.2801,W,50.54,191.70,221210,,,A*45
$GPRMC,230758.000,A,3300.5752,N,11657.2887,W,53.94,191.20,221210,,,A*41
$GPRMC,230801.000,A,3300.5318,N,11657.3005,W,52.97,195.70,221210,,,A*48
$GPRMC,230804.000,A,3300.4872,N,11657.3158,W,54.43,197.20,221210,,,A*4A
$GPRMC,230807.000,A,3300.4453,N,11657.3345,W,54.43,198.50,221210,,,A*40
$GPRMC,230810.000,A,3300.4040,N,11657.3500,W,53.94,197.90,221210,,,A*49
$GPRMC,230813.000,A,3300.3616,N,11657.3657,W,53.94,198.40,221210,,,A*4B
$GPRMC,230816.000,A,3300.3205,N,11657.3839,W,52.00,202.30,221210,,,A*45
$GPRMC,230818.000,A,3300.2921,N,11657.3991,W,53.47,205.40,221210,,,A*46
$GPRMC,230821.000,A,3300.2535,N,11657.4224,W,51.51,207.90,221210,,,A*4D
$GPRMC,230825.000,A,3300.2047,N,11657.4519,W,49.57,205.20,221210,,,A*46
$GPRMC,230828.000,A,3300.1680,N,11657.4708,W,49.08,197.90,221210,,,A*4E
$GPRMC,230831.000,A,3300.1276,N,11657.4789,W,49.57,188.70,221210,,,A*48
$GPRMC,230835.000,A,3300.0794,N,11657.4865,W,53.01,187.50,221210,,,A*4C
$GPRMC,230838.000,A,3300.0360,N,11657.4957,W,52.50,192.70,221210,,,A*4D
$GPRMC,230842.000,A,3259.9744,N,11657.5248,W,50.54,209.50,221210,,,A*47
$GPRMC,230845.000,A,3259.9450,N,11657.5586,W,49.57,226.20,221210,,,A*42
$GPRMC,230848.000,A,3259.9231,N,11657.5996,W,50.06,238.30,221210,,,A*41
$GPRMC,230851.000,A,3259.9144,N,11657.6478,W,49.57,256.70,221210,,,A*46
$GPRMC,230853.000,A,3259.9103,N,11657.6806,W,49.57,260.00,221210,,,A*40
$GPRMC,230857.000,A,3259.9008,N,11657.7431,W,47.14,260.30,221210,,,A*4D
$GPRMC,230900.000,A,3259.8941,N,11657.7891,W,47.63,260.00,221210,,,A*4E
$GPRMC,230903.000,A,3259.8878,N,11657.8374,W,49.08,260.90,221210,,,A*43
$GPRMC,230906.000,A,3259.8819,N,11657.8829,W,47.14,260.90,221210,,,A*41
$GPRMC,230909.000,A,3259.8740,N,11657.9288,W,47.15,254.80,221210,,,A*4A
$GPRMC,230912.000,A,3259.8603,N,11657.9729,W,47.14,248.90,221210,,,A*45
$GPRMC,230915.000,A,3259.8428,N,11658.0182,W,49.57,246.50,221210,,,A*43
$GPRMC,230918.000,A,3259.8249,N,11658.0632,W,50.54,245.40,221210,,,A*4A
$GPRMC,230921.000,A,3259.8081,N,11658.1090,W,51.03,245.90,221210,,,A*47
$GPRMC,230924.000,A,3259.7934,N,11658.1564,W,50.54,253.00,221210,,,A*49
$GPRMC,230927.000,A,3259.7872,N,11658.2061,W,51.03,261.80,221210,,,A*40
$GPRMC,230930.000,A,3259.7829,N,11658.2563,W,50.06,263.10,221210,,,A*40
$GPRMC,230933.000,A,3259.7741,N,11658.3026,W,49.08,256.40,221210,,,A*42
$GPRMC,230936.000,A,3259.7615,N,11658.3498,W,48.60,251.60,221210,,,A*4C
$GPRMC,230939.000,A,3259.7480,N,11658.3944,W,48.11,251.00,221210,,,A*41
$GPRMC,230942.000,A,3259.7342,N,11658.4399,W,49.08,250.60,221210,,,A*47
$GPRMC,230945.000,A,3259.7204,N,11658.4876,W,50.54,249.90,221210,,,A*4F
$GPRMC,230948.000,A,3259.7013,N,11658.5291,W,49.08,238.60,221210,,,A*4C
$GPRMC,230951.000,A,3259.6758,N,11658.5688,W,49.57,232.70,221210,,,A*40
$GPRMC,230954.000,A,3259.6517,N,11658.6090,W,49.08,233.40,221210,,,A*48
$GPRMC,230957.000,A,3259.6267,N,11658.6458,W,47.14,231.50,221210,,,A*4B
$GPRMC,231000.000,A,3259.6001,N,11658.6787,W,46.65,224.80,221210,,,A*4C
$GPRMC,231003.000,A,3259.5699,N,11658.7085,W,48.11,216.80,221210,,,A*43
$GPRMC,231006.000,A,3259.5340,N,11658.7338,W,49.58,207.70,221210,,,A*41
$GPRMC,231009.000,A,3259.4944,N,11658.7509,W,49.58,198.50,221210,,,A*42
$GPRMC,231013.000,A,3259.4413,N,11658.7627,W,49.08,186.80,221210,,,A*4E
$GPRMC,231017.000,A,3259.3877,N,11658.7637,W,47.63,175.50,221210,,,A*40
$GPRMC,231019.000,A,3259.3618,N,11658.7579,W,46.66,167.80,221210,,,A*4A
$GPRMC,231023.000,A,3259.3269,N,11658.7425,W,44.71,154.80,221210,,,A*4D
$GPRMC,231026.000,A,3259.2873,N,11658.7055,W,46.17,137.20,221210,,,A*46
$GPRMC,231029.000,A,3259.2616,N,11658.6695,W,47.14,128.30,221210,,,A*42
$GPRMC,231032.000,A,3259.2418,N,11658.6312,W,47.14,123.60,221210,,,A*40
$GPRMC,231035.000,A,3259.2161,N,11658.5945,W,49.57,130.70,221210,,,A*4D
$GPRMC,231038.000,A,3259.1859,N,11658.5593,W,50.07,139.40,221210,,,A*41
$GPRMC,231041.000,A,3259.1496,N,11658.5307,W,51.03,150.00,221210,,,A*45
$GPRMC,231044.000,A,3259.1092,N,11658.5127,W,51.51,160.40,221210,,,A*40
$GPRMC,231047.000,A,3259.0692,N,11658.5003,W,51.03,167.40,221210,,,A*43
$GPRMC,231050.000,A,3259.0269,N,11658.4917,W,51.52,170.10,221210,,,A*4F
$GPRMC,231053.000,A,3258.9844,N,11658.4831,W,52.00,170.10,221210,,,A*40
$GPRMC,231056.000,A,3258.9409,N,11658.4733,W,52.97,169.70,221210,,,A*4D
$GPRMC,231059.000,A,3258.8979,N,11658.4639,W,52.49,170.20,221210,,,A*4C
$GPRMC,231102.000,A,3258.8541,N,11658.4536,W,52.00,169.70,221210,,,A*48
$GPRMC,231105.000,A,3258.8114,N,11658.4448,W,51.51,169.50,221210,,,A*46
$GPRMC,231107.000,A,3258.7848,N,11658.4377,W,48.11,167.20,221210,,,A*45
$GPRMC,231111.000,A,3258.7414,N,11658.4239,W,34.99,165.80,221210,,,A*4F
$GPRMC,231114.000,A,3258.7224,N,11658.4198,W,21.87,181.50,221210,,,A*4B
$GPRMC,231117.000,A,3258.7097,N,11658.4317,W,21.38,234.90,221210,,,A*42
$GPRMC,231118.000,A,3258.7076,N,11658.4389,W,22.84,247.90,221210,,,A*45
$GPRMC,231125.000,A,3258.6959,N,11658.5093,W,34.99,259.00,221210,,,A*4A
$GPRMC,231129.000,A,3258.6909,N,11658.5600,W,40.34,262.80,221210,,,A*4B
$GPRMC,231132.000,A,3258.6851,N,11658.6033,W,44.71,262.10,221210,,,A*44
$GPRMC,231135.000,A,3258.6755,N,11658.6482,W,46.17,258.10,221210,,,A*4D
$GPRMC,231138.000,A,3258.6688,N,11658.6938,W,47.15,259.20,221210,,,A*4C
$GPRMC,231141.000,A,3258.6643,N,11658.7402,W,48.11,263.90,221210,,,A*49
$GPRMC,231144.000,A,3258.6640,N,11658.7866,W,47.14,270.20,221210,,,A*42
$GPRMC,231147.000,A,3258.6681,N,11658.8338,W,48.12,276.00,221210,,,A*4E
$GPRMC,231150.000,A,3258.6718,N,11658.8817,W,49.57,278.30,221210,,,A*42
$GPRMC,231153.000,A,3258.6789,N,11658.9301,W,51.03,281.50,221210,,,A*4C
$GPRMC,231156.000,A,3258.6905,N,11658.9803,W,51.51,283.50,221210,,,A*4F
$GPRMC,231159.000,A,3258.6994,N,11659.0297,W,51.51,281.60,221210,,,A*46
$GPRMC,231201.000,A,3258.7014,N,11659.0624,W,50.54,276.70,221210,,,A*49
$GPRMC,231205.000,A,3258.7070,N,11659.1187,W,52.00,274.60,221210,,,A*40
$GPRMC,231208.000,A,3258.7104,N,11659.1684,W,49.08,274.90,221210,,,A*46
$GPRMC,231211.000,A,3258.7129,N,11659.2143,W,45.20,269.90,221210,,,A*44
$GPRMC,231214.000,A,3258.7097,N,11659.2576,W,43.75,260.30,221210,,,A*42
$GPRMC,231217.000,A,3258.6942,N,11659.2927,W,44.22,241.70,221210,,,A*4B
$GPRMC,231220.000,A,3258.6639,N,11659.3383,W,43.75,232.50,221210,,,A*4A
$GPRMC,231223.000,A,3258.6439,N,11659.3755,W,45.68,241.00,221210,,,A*4F
$GPRMC,231226.000,A,3258.6419,N,11659.4166,W,44.24,261.80,221210,,,A*4A
$GPRMC,231229.000,A,3258.6372,N,11659.4614,W,46.18,260.00,221210,,,A*49
$GPRMC,231232.000,A,3258.6261,N,11659.5076,W,47.14,254.30,221210,,,A*4A
$GPRMC,231235.000,A,3258.6147,N,11659.5505,W,47.15,252.40,221210,,,A*4B
$GPRMC,231238.000,A,3258.6062,N,11659.5972,W,47.63,258.90,221210,,,A*4A
$GPRMC,231238.000,A,3258.6062,N,11659.5972,W,47.63,258.90,221210,,,A*4A
$GPRMC,231242.000,A,3258.5978,N,11659.6584,W,48.61,261.80,221210,,,A*46
$GPRMC,231245.000,A,3258.5927,N,11659.7074,W,50.06,262.90,221210,,,A*4A
$GPRMC,231248.000,A,3258.5848,N,11659.7544,W,48.60,258.40,221210,,,A*44
$GPRMC,231251.000,A,3258.5744,N,11659.7978,W,47.15,254.60,221210,,,A*4F
$GPRMC,231253.000,A,3258.5671,N,11659.8289,W,48.12,259.50,221210,,,A*46
$GPRMC,231257.000,A,3258.5697,N,11659.8933,W,48.12,275.40,221210,,,A*4F
$GPRMC,231300.000,A,3258.5732,N,11659.9381,W,44.71,274.50,221210,,,A*49
$GPRMC,231302.000,A,3258.5725,N,11659.9673,W,43.75,265.50,221210,,,A*46
$GPRMC,231306.000,A,3258.5568,N,11700.0191,W,43.25,244.60,221210,,,A*43
$GPRMC,231309.000,A,3258.5336,N,11700.0555,W,46.65,234.10,221210,,,A*4C
$GPRMC,231312.000,A,3258.5101,N,11700.0925,W,47.64,233.10,221210,,,A*4C
$GPRMC,231315.000,A,3258.4853,N,11700.1316,W,49.08,232.80,221210,,,A*43
$GPRMC,231318.000,A,3258.4602,N,11700.1708,W,48.60,233.30,221210,,,A*4A
$GPRMC,231321.000,A,3258.4376,N,11700.2139,W,49.57,238.90,221210,,,A*45
$GPRMC,231323.000,A,3258.4266,N,11700.2414,W,48.60,244.10,221210,,,A*4B
$GPRMC,231327.000,A,3258.4090,N,11700.3024,W,49.57,251.60,221210,,,A*44
$GPRMC,231330.000,A,3258.3931,N,11700.3506,W,51.03,249.80,221210,,,A*4D
$GPRMC,231333.000,A,3258.3801,N,11700.3979,W,50.54,252.20,221210,,,A*4B
$GPRMC,231336.000,A,3258.3663,N,11700.4430,W,45.69,250.10,221210,,,A*48
$GPRMC,231339.000,A,3258.3580,N,11700.4840,W,42.78,259.30,221210,,,A*4E
$GPRMC,231342.000,A,3258.3599,N,11700.5262,W,43.75,272.00,221210,,,A*47
$GPRMC,231345.000,A,3258.3570,N,11700.5685,W,42.77,264.10,221210,,,A*4F
$GPRMC,231348.000,A,3258.3524,N,11700.6120,W,45.20,261.50,221210,,,A*4C
$GPRMC,231351.000,A,3258.3452,N,11700.6570,W,45.68,260.80,221210,,,A*45
$GPRMC,231354.000,A,3258.3370,N,11700.7017,W,45.21,255.90,221210,,,A*48
$GPRMC,231357.000,A,3258.3229,N,11700.7426,W,44.71,245.10,221210,,,A*4D
$GPRMC,231400.000,A,3258.3010,N,11700.7791,W,45.69,235.10,221210,,,A*40
$GPRMC,231403.000,A,3258.2789,N,11700.8151,W,46.18,234.10,221210,,,A*44
$GPRMC,231406.000,A,3258.2550,N,11700.8524,W,47.14,233.30,221210,,,A*49
$GPRMC,231409.000,A,3258.2334,N,11700.8869,W,40.82,234.00,221210,,,A*4A
$GPRMC,231412.000,A,3258.2166,N,11700.9151,W,33.05,234.40,221210,,,A*49
$GPRMC,231415.000,A,3258.2047,N,11700.9325,W,23.33,231.50,221210,,,A*4D
$GPRMC,231418.000,A,3258.1987,N,11700.9466,W,15.07,238.70,221210,,,A*4F
$GPRMC,231421.000,A,3258.2032,N,11700.9600,W,14.13,297.00,221210,,,A*45
$GPRMC,231424.000,A,3258.2171,N,11700.9700,W,21.38,336.90,221210,,,A*4B
$GPRMC,231427.000,A,3258.2384,N,11700.9774,W,29.16,344.40,221210,,,A*4F
$GPRMC,231430.000,A,3258.2673,N,11700.9849,W,35.48,346.70,221210,,,A*42
$GPRMC,231433.000,A,3258.3013,N,11700.9938,W,39.36,346.20,221210,,,A*47
$GPRMC,231436.000,A,3258.3306,N,11701.0028,W,35.96,345.80,221210,,,A*4A
$GPRMC,231439.000,A,3258.3562,N,11701.0153,W,33.05,337.50,221210,,,A*48
$GPRMC,231442.000,A,3258.3780,N,11701.0320,W,32.07,320.30,221210,,,A*4F
$GPRMC,231445.000,A,3258.3933,N,11701.0591,W,34.50,302.30,221210,,,A*46
$GPRMC,231447.000,A,3258.4019,N,11701.0790,W,34.99,298.20,221210,,,A*47
$GPRMC,231451.000,A,3258.4210,N,11701.1225,W,38.39,298.00,221210,,,A*45
$GPRMC,231454.000,A,3258.4352,N,11701.1563,W,37.42,296.30,221210,,,A*4C
$GPRMC,231457.000,A,3258.4492,N,11701.1905,W,38.39,295.30,221210,,,A*48
$GPRMC,231500.000,A,3258.4618,N,11701.2253,W,38.39,295.00,221210,,,A*43
$GPRMC,231503.000,A,3258.4756,N,11701.2558,W,37.42,297.50,221210,,,A*43
$GPRMC,231506.000,A,3258.4900,N,11701.2934,W,40.83,295.90,221210,,,A*4E
$GPRMC,231509.000,A,3258.5070,N,11701.3270,W,39.36,305.40,221210,,,A*41
$GPRMC,231512.000,A,3258.5273,N,11701.3536,W,35.48,316.70,221210,,,A*4B
$GPRMC,231515.000,A,3258.5519,N,11701.3720,W,34.02,328.80,221210,,,A*4F
$GPRMC,231518.000,A,3258.5758,N,11701.3845,W,31.59,339.00,221210,,,A*4A
$GPRMC,231521.000,A,3258.6035,N,11701.3925,W,32.56,348.60,221210,,,A*44
$GPRMC,231524.000,A,3258.6306,N,11701.3960,W,31.10,354.50,221210,,,A*4C
$GPRMC,231527.000,A,3258.6542,N,11701.3968,W,27.70,356.80,221210,,,A*4F
$GPRMC,231530.000,A,3258.6701,N,11701.3975,W,17.50,357.40,221210,,,A*4C
$GPRMC,231646.000,A,3258.6754,N,11701.3973,W,0.00,346.30,221210,,,A*7C
$GPRMC,231649.000,A,3258.6872,N,11701.4066,W,10.21,316.20,221210,,,A*44
$GPRMC,231652.000,A,3258.6907,N,11701.4258,W,18.47,280.50,221210,,,A*43
$GPRMC,231655.000,A,3258.6900,N,11701.4635,W,32.56,270.90,221210,,,A*47
$GPRMC,231658.000,A,3258.6906,N,11701.5009,W,37.91,270.70,221210,,,A*44
$GPRMC,231701.000,A,3258.6904,N,11701.5414,W,41.31,269.60,221210,,,A*41
$GPRMC,231704.000,A,3258.6906,N,11701.5857,W,44.71,270.40,221210,,,A*46
$GPRMC,231707.000,A,3258.6927,N,11701.6270,W,43.25,271.70,221210,,,A*4E
$GPRMC,231710.000,A,3258.6952,N,11701.6729,W,45.20,273.00,221210,,,A*45
$GPRMC,231713.000,A,3258.6953,N,11701.7158,W,44.71,271.50,221210,,,A*44
$GPRMC,231716.000,A,3258.6948,N,11701.7610,W,44.71,270.70,221210,,,A*43
$GPRMC,231719.000,A,3258.6963,N,11701.8040,W,45.20,271.40,221210,,,A*4E
$GPRMC,231722.000,A,3258.6984,N,11701.8499,W,45.20,271.70,221210,,,A*4C
$GPRMC,231725.000,A,3258.6988,N,11701.8966,W,44.22,270.90,221210,,,A*46
$GPRMC,231728.000,A,3258.6993,N,11701.9388,W,42.77,270.40,221210,,,A*41
$GPRMC,231731.000,A,3258.7004,N,11701.9801,W,41.79,270.80,221210,,,A*44
$GPRMC,231734.000,A,3258.7003,N,11702.0221,W,42.77,271.60,221210,,,A*46
$GPRMC,231737.000,A,3258.7025,N,11702.0666,W,43.74,272.00,221210,,,A*41
$GPRMC,231740.000,A,3258.7039,N,11702.1080,W,42.28,270.70,221210,,,A*4E
$GPRMC,231743.000,A,3258.7014,N,11702.1446,W,34.99,264.90,221210,,,A*4C
$GPRMC,231746.000,A,3258.6999,N,11702.1688,W,20.90,263.90,221210,,,A*4F
$GPRMC,231749.000,A,3258.6980,N,11702.1820,W,10.21,259.80,221210,,,A*45
$GPRMC,231801.000,A,3258.6978,N,11702.1848,W,4.37,237.50,221210,,,A*78
$GPRMC,231804.000,A,3258.6961,N,11702.1955,W,14.58,260.30,221210,,,A*44
$GPRMC,231807.000,A,3258.6912,N,11702.2154,W,22.84,254.80,221210,,,A*41
$GPRMC,231810.000,A,3258.6790,N,11702.2443,W,32.56,244.40,221210,,,A*43
$GPRMC,231813.000,A,3258.6620,N,11702.2758,W,37.42,237.20,221210,,,A*41
$GPRMC,231817.000,A,3258.6365,N,11702.3148,W,38.88,229.20,221210,,,A*41
$GPRMC,231820.000,A,3258.6105,N,11702.3426,W,41.79,221.00,221210,,,A*46
$GPRMC,231823.000,A,3258.5806,N,11702.3655,W,40.34,211.40,221210,,,A*45
$GPRMC,231826.000,A,3258.5540,N,11702.3857,W,35.96,211.20,221210,,,A*4F
$GPRMC,231829.000,A,3258.5332,N,11702.4000,W,26.73,211.40,221210,,,A*41
$GPRMC,231833.000,A,3258.5142,N,11702.4145,W,17.50,216.20,221210,,,A*4D
$GPRMC,231836.000,A,3258.5098,N,11702.4202,W,7.78,230.10,221210,,,A*72
$GPRMC,231839.000,A,3258.5033,N,11702.4301,W,12.15,232.00,221210,,,A*42
$GPRMC,231842.000,A,3258.4948,N,11702.4429,W,17.50,235.60,221210,,,A*42
$GPRMC,231845.000,A,3258.4860,N,11702.4595,W,20.90,242.30,221210,,,A*45
$GPRMC,231849.000,A,3258.4762,N,11702.4925,W,29.65,253.00,221210,,,A*43
$GPRMC,231852.000,A,3258.4722,N,11702.5252,W,32.56,263.10,221210,,,A*4F
$GPRMC,231855.000,A,3258.4720,N,11702.5573,W,32.56,273.70,221210,,,A*49
$GPRMC,231858.000,A,3258.4805,N,11702.5899,W,34.50,287.90,221210,,,A*40
$GPRMC,231901.000,A,3258.4937,N,11702.6213,W,34.99,300.00,221210,,,A*44
$GPRMC,231904.000,A,3258.5126,N,11702.6498,W,36.93,306.50,221210,,,A*46
$GPRMC,231907.000,A,3258.5324,N,11702.6818,W,39.36,305.90,221210,,,A*4E
$GPRMC,231910.000,A,3258.5510,N,11702.7139,W,39.85,303.70,221210,,,A*42
$GPRMC,231913.000,A,3258.5712,N,11702.7478,W,40.82,303.40,221210,,,A*4B
$GPRMC,231916.000,A,3258.5859,N,11702.7835,W,41.79,297.50,221210,,,A*43
$GPRMC,231919.000,A,3258.6035,N,11702.8229,W,43.74,297.70,221210,,,A*48
$GPRMC,231922.000,A,3258.6210,N,11702.8613,W,42.77,298.40,221210,,,A*46
$GPRMC,231925.000,A,3258.6376,N,11702.8978,W,42.28,298.30,221210,,,A*4F
$GPRMC,231928.000,A,3258.6540,N,11702.9356,W,43.25,297.00,221210,,,A*46
$GPRMC,231931.000,A,3258.6684,N,11702.9730,W,40.34,290.80,221210,,,A*4D
$GPRMC,231934.000,A,3258.6751,N,11703.0045,W,30.13,280.60,221210,,,A*41
$GPRMC,231937.000,A,3258.6753,N,11703.0315,W,24.79,271.30,221210,,,A*44
$GPRMC,231940.000,A,3258.6765,N,11703.0509,W,17.98,272.20,221210,,,A*47
$GPRMC,231943.000,A,3258.6765,N,11703.0629,W,12.64,270.90,221210,,,A*4A
$GPRMC,231946.000,A,3258.6767,N,11703.0721,W,8.26,276.50,221210,,,A*73
$GPRMC,232004.000,A,3258.6791,N,11703.0851,W,10.69,278.30,221210,,,A*44
$GPRMC,232008.000,A,3258.6816,N,11703.1124,W,23.81,277.90,221210,,,A*41
$GPRMC,232011.000,A,3258.6834,N,11703.1410,W,31.10,275.60,221210,,,A*4D
$GPRMC,232014.000,A,3258.6880,N,11703.1746,W,35.96,278.10,221210,,,A*47
$GPRMC,232017.000,A,3258.6928,N,11703.2147,W,40.82,278.80,221210,,,A*4D
$GPRMC,232020.000,A,3258.6984,N,11703.2549,W,41.79,280.60,221210,,,A*49
$GPRMC,232024.000,A,3258.7047,N,11703.3096,W,41.79,279.30,221210,,,A*4F
$GPRMC,232027.000,A,3258.7157,N,11703.3494,W,39.85,287.40,221210,,,A*40
$GPRMC,232030.000,A,3258.7259,N,11703.3843,W,36.93,290.80,221210,,,A*4F
$GPRMC,232033.000,A,3258.7395,N,11703.4154,W,34.02,298.40,221210,,,A*4B
$GPRMC,232036.000,A,3258.7530,N,11703.4408,W,29.65,304.90,221210,,,A*4F
$GPRMC,232040.000,A,3258.7695,N,11703.4679,W,23.81,308.60,221210,,,A*45
$GPRMC,232043.000,A,3258.7826,N,11703.4817,W,18.95,316.40,221210,,,A*46
$GPRMC,232046.000,A,3258.7908,N,11703.4926,W,12.15,309.90,221210,,,A*4C
$GPRMC,232054.000,A,3258.7948,N,11703.4989,W,2.43,332.10,221210,,,A*7C
$GPRMC,232058.000,A,3258.8018,N,11703.5081,W,12.64,313.20,221210,,,A*47
$GPRMC,232101.000,A,3258.8069,N,11703.5186,W,13.61,287.80,221210,,,A*48
$GPRMC,232105.000,A,3258.7990,N,11703.5357,W,19.93,243.40,221210,,,A*41
$GPRMC,232108.000,A,3258.7801,N,11703.5592,W,31.10,229.60,221210,,,A*45
$GPRMC,232112.000,A,3258.7451,N,11703.6087,W,40.82,231.20,221210,,,A*45
$GPRMC,232115.000,A,3258.7298,N,11703.6438,W,40.34,241.50,221210,,,A*4C
$GPRMC,232118.000,A,3258.7228,N,11703.6798,W,37.91,254.70,221210,,,A*4A
$GPRMC,232121.000,A,3258.7183,N,11703.7157,W,35.96,263.40,221210,,,A*44
$GPRMC,232124.000,A,3258.7165,N,11703.7469,W,33.53,268.40,221210,,,A*45
$GPRMC,232127.000,A,3258.7138,N,11703.7800,W,34.50,261.00,221210,,,A*44
$GPRMC,232130.000,A,3258.7044,N,11703.8185,W,42.77,252.10,221210,,,A*46
$GPRMC,232133.000,A,3258.6892,N,11703.8600,W,47.63,244.70,221210,,,A*4C
$GPRMC,232136.000,A,3258.6665,N,11703.9011,W,47.63,235.20,221210,,,A*4B
$GPRMC,232139.000,A,3258.6376,N,11703.9324,W,46.17,222.00,221210,,,A*40
$GPRMC,232142.000,A,3258.6060,N,11703.9590,W,46.17,212.00,221210,,,A*42
$GPRMC,232145.000,A,3258.5731,N,11703.9789,W,45.20,206.70,221210,,,A*4A
$GPRMC,232148.000,A,3258.5360,N,11704.0004,W,47.63,206.40,221210,,,A*4D
$GPRMC,232151.000,A,3258.5002,N,11704.0216,W,47.14,207.70,221210,,,A*41
$GPRMC,232154.000,A,3258.4733,N,11704.0401,W,35.48,210.70,221210,,,A*4A
$GPRMC,232156.000,A,3258.4626,N,11704.0495,W,26.24,212.90,221210,,,A*44
$GPRMC,232200.000,A,3258.4494,N,11704.0629,W,14.58,219.90,221210,,,A*4B
$GPRMC,232216.000,A,3258.4368,N,11704.0739,W,11.66,223.40,221210,,,A*44
$GPRMC,232219.000,A,3258.4272,N,11704.0890,W,20.90,229.80,221210,,,A*40
$GPRMC,232222.000,A,3258.4099,N,11704.1099,W,30.62,224.10,221210,,,A*47
$GPRMC,232225.000,A,3258.3902,N,11704.1337,W,34.99,224.60,221210,,,A*4C
$GPRMC,232228.000,A,3258.3667,N,11704.1586,W,37.42,222.80,221210,,,A*4C
$GPRMC,232231.000,A,3258.3425,N,11704.1844,W,38.88,224.70,221210,,,A*43
$GPRMC,232234.000,A,3258.3209,N,11704.2146,W,41.79,231.40,221210,,,A*41
$GPRMC,232237.000,A,3258.3028,N,11704.2508,W,43.25,239.40,221210,,,A*4E
$GPRMC,232240.000,A,3258.2901,N,11704.2894,W,43.25,249.40,221210,,,A*42
$GPRMC,232243.000,A,3258.2801,N,11704.3335,W,44.22,256.80,221210,,,A*43
$GPRMC,232246.000,A,3258.2742,N,11704.3749,W,43.74,262.60,221210,,,A*4C
$GPRMC,232249.000,A,3258.2751,N,11704.4170,W,44.22,271.30,221210,,,A*49
$GPRMC,232252.000,A,3258.2791,N,11704.4631,W,46.17,275.00,221210,,,A*4E
$GPRMC,232255.000,A,3258.2817,N,11704.5086,W,46.65,273.80,221210,,,A*48
$GPRMC,232258.000,A,3258.2844,N,11704.5564,W,47.63,274.10,221210,,,A*43
$GPRMC,232300.000,A,3258.2873,N,11704.5875,W,48.11,275.20,221210,,,A*4E
$GPRMC,232304.000,A,3258.2902,N,11704.6522,W,49.08,270.70,221210,,,A*48
$GPRMC,232307.000,A,3258.2865,N,11704.6986,W,48.11,265.50,221210,,,A*46
$GPRMC,232310.000,A,3258.2732,N,11704.7483,W,51.51,252.50,221210,,,A*4C
$GPRMC,232313.000,A,3258.2543,N,11704.7927,W,49.57,242.40,221210,,,A*47
$GPRMC,232316.000,A,3258.2278,N,11704.8311,W,46.17,231.70,221210,,,A*41
