NMEA Sentence Code,UTC Time,Status,Latitude,Latitude Direction,Longitude,Longitude Direction,Speed (knots),Track Angle (degrees true),Date,MagneticVariation,Magnetic Variation Direction,[FAA Mode]-Optional,Checksum
$GPRMC,013410.0,A,3302.535109,N,11717.128437,W,32.7,160.1,041210,,,A*4E
$GPRMC,013413.0,A,3302.511282,N,11717.116396,W,31.6,158.3,041210,,,A*41
$GPRMC,013416.0,A,3302.490610,N,11717.106113,W,27.0,157.3,041210,,,A*43
$GPRMC,013419.0,A,3302.472510,N,11717.097524,W,23.4,158.2,041210,,,A*44
$GPRMC,013422.0,A,3302.457809,N,11717.087118,W,20.4,153.9,041210,,,A*47
$GPRMC,013425.0,A,3302.443538,N,11717.078768,W,18.9,152.2,041210,,,A*47
$GPRMC,013428.0,A,3302.430715,N,11717.070851,W,18.9,152.1,041210,,,A*4D
$GPRMC,013431.0,A,3302.418466,N,11717.061539,W,18.9,150.4,041210,,,A*4C
$GPRMC,013434.0,A,3302.406093,N,11717.052102,W,18.7,150.8,041210,,,A*46
$GPRMC,013437.0,A,3302.391993,N,11717.043314,W,19.7,150.1,041210,,,A*48
$GPRMC,013440.0,A,3302.376368,N,11717.032609,W,22.3,149.9,041210,,,A*4C
$GPRMC,013443.0,A,3302.359570,N,11717.020626,W,25.0,150.0,041210,,,A*46
$GPRMC,013446.0,A,3302.336955,N,11717.006205,W,28.8,150.1,041210,,,A*44
$GPRMC,013449.0,A,3302.315913,N,11716.991446,W,29.0,150.0,041210,,,A*47
$GPRMC,013452.0,A,3302.294244,N,11716.975597,W,30.7,150.6,041210,,,A*42
$GPRMC,013455.0,A,3302.270248,N,11716.959516,W,32.2,151.2,041210,,,A*46
$GPRMC,013458.0,A,3302.245606,N,11716.942877,W,34.2,150.1,041210,,,A*47
$GPRMC,013501.0,A,3302.220684,N,11716.926244,W,34.4,149.9,041210,,,A*4D
$GPRMC,013504.0,A,3302.196363,N,11716.909839,W,33.6,150.6,041210,,,A*45
$GPRMC,013507.0,A,3302.169813,N,11716.892250,W,35.3,151.0,041210,,,A*48
$GPRMC,013510.0,A,3302.141769,N,11716.874262,W,37.9,149.9,041210,,,A*47
$GPRMC,013513.0,A,3302.113392,N,11716.855079,W,38.6,150.1,041210,,,A*48
$GPRMC,013516.0,A,3302.084020,N,11716.834170,W,41.2,149.6,041210,,,A*42
$GPRMC,013519.0,A,3302.053618,N,11716.813891,W,41.3,150.8,041210,,,A*4E
$GPRMC,013522.0,A,3302.025085,N,11716.793992,W,39.4,150.6,041210,,,A*46
$GPRMC,013525.0,A,3301.995543,N,11716.774978,W,39.4,150.6,041210,,,A*42
$GPRMC,013528.0,A,3301.966678,N,11716.755985,W,40.0,150.9,041210,,,A*4C
$GPRMC,013531.0,A,3301.936503,N,11716.735447,W,41.9,150.2,041210,,,A*48
$GPRMC,013534.0,A,3301.903035,N,11716.713738,W,44.6,150.5,041210,,,A*49
$GPRMC,013537.0,A,3301.871169,N,11716.691141,W,45.6,150.2,041210,,,A*43
$GPRMC,013540.0,A,3301.837951,N,11716.669351,W,46.0,150.8,041210,,,A*49
$GPRMC,013543.0,A,3301.803940,N,11716.645878,W,46.4,150.1,041210,,,A*4E
$GPRMC,013546.0,A,3301.769942,N,11716.622396,W,47.2,150.3,041210,,,A*45
$GPRMC,013549.0,A,3301.733353,N,11716.598826,W,47.7,151.0,041210,,,A*4A
$GPRMC,013552.0,A,3301.699112,N,11716.577149,W,46.9,150.9,041210,,,A*40
$GPRMC,013555.0,A,3301.667449,N,11716.555105,W,45.3,150.5,041210,,,A*40
$GPRMC,013558.0,A,3301.634786,N,11716.533846,W,43.9,150.8,041210,,,A*44
$GPRMC,013601.0,A,3301.603343,N,11716.513006,W,43.8,151.6,041210,,,A*42
$GPRMC,013604.0,A,3301.568353,N,11716.493156,W,46.7,153.8,041210,,,A*43
$GPRMC,013607.0,A,3301.531173,N,11716.472738,W,48.5,157.2,041210,,,A*4F
$GPRMC,013610.0,A,3301.491466,N,11716.455048,W,50.3,160.8,041210,,,A*47
$GPRMC,013613.0,A,3301.450088,N,11716.441449,W,50.5,164.3,041210,,,A*44
$GPRMC,013616.0,A,3301.408350,N,11716.431074,W,50.3,167.9,041210,,,A*48
$GPRMC,013619.0,A,3301.366502,N,11716.420958,W,49.0,169.0,041210,,,A*42
$GPRMC,013622.0,A,3301.327568,N,11716.411385,W,47.7,168.7,041210,,,A*44
$GPRMC,013625.0,A,3301.288829,N,11716.402101,W,46.9,169.5,041210,,,A*4F
$GPRMC,013628.0,A,3301.250211,N,11716.393695,W,46.1,170.2,041210,,,A*44
$GPRMC,013631.0,A,3301.213619,N,11716.385794,W,44.2,168.4,041210,,,A*4E
$GPRMC,013634.0,A,3301.178567,N,11716.375902,W,43.5,166.6,041210,,,A*4D
$GPRMC,013637.0,A,3301.144897,N,11716.365682,W,43.0,164.8,041210,,,A*4C
$GPRMC,013640.0,A,3301.111504,N,11716.354199,W,43.7,161.9,041210,,,A*47
$GPRMC,013643.0,A,3301.078348,N,11716.338778,W,43.0,157.2,041210,,,A*4E
$GPRMC,013646.0,A,3301.045735,N,11716.321308,W,41.4,155.5,041210,,,A*43
$GPRMC,013649.0,A,3301.017067,N,11716.303172,W,38.8,152.1,041210,,,A*45
$GPRMC,013652.0,A,3300.993500,N,11716.287494,W,32.4,150.1,041210,,,A*4B
$GPRMC,013655.0,A,3300.973322,N,11716.273094,W,28.9,148.0,041210,,,A*45
$GPRMC,013658.0,A,3300.954926,N,11716.258481,W,28.7,145.5,041210,,,A*4C
$GPRMC,013701.0,A,3300.935141,N,11716.240812,W,29.8,143.0,041210,,,A*4D
$GPRMC,013704.0,A,3300.913723,N,11716.219415,W,32.5,140.0,041210,,,A*4D
$GPRMC,013707.0,A,3300.893227,N,11716.199400,W,32.5,139.4,041210,,,A*43
$GPRMC,013710.0,A,3300.876221,N,11716.179038,W,31.1,136.9,041210,,,A*4C
$GPRMC,013713.0,A,3300.857951,N,11716.158635,W,30.6,136.0,041210,,,A*47
$GPRMC,013716.0,A,3300.841702,N,11716.139492,W,26.0,134.6,041210,,,A*40
$GPRMC,013719.0,A,3300.827906,N,11716.123040,W,23.6,134.7,041210,,,A*47
$GPRMC,013722.0,A,3300.812783,N,11716.104805,W,26.2,135.2,041210,,,A*43
$GPRMC,013725.0,A,3300.794243,N,11716.084223,W,32.6,135.7,041210,,,A*4F
$GPRMC,013728.0,A,3300.771834,N,11716.058305,W,37.3,135.6,041210,,,A*46
$GPRMC,013731.0,A,3300.748104,N,11716.031668,W,40.2,135.2,041210,,,A*4A
$GPRMC,013734.0,A,3300.724164,N,11716.002818,W,40.5,135.5,041210,,,A*4A
$GPRMC,013737.0,A,3300.699458,N,11715.974478,W,40.3,135.3,041210,,,A*45
$GPRMC,013740.0,A,3300.675344,N,11715.947653,W,39.2,137.3,041210,,,A*4B
$GPRMC,013743.0,A,3300.652409,N,11715.922842,W,37.8,136.9,041210,,,A*41
$GPRMC,013746.0,A,3300.630180,N,11715.896741,W,36.9,136.3,041210,,,A*4C
$GPRMC,013749.0,A,3300.607108,N,11715.871543,W,37.1,137.1,041210,,,A*44
$GPRMC,013752.0,A,3300.584834,N,11715.846783,W,36.6,136.6,041210,,,A*4A
$GPRMC,013755.0,A,3300.563671,N,11715.821232,W,36.9,135.6,041210,,,A*49
$GPRMC,013758.0,A,3300.541482,N,11715.795938,W,37.5,134.9,041210,,,A*48
$GPRMC,013801.0,A,3300.520141,N,11715.770125,W,36.7,135.6,041210,,,A*44
$GPRMC,013804.0,A,3300.499304,N,11715.745397,W,34.3,135.6,041210,,,A*4A
$GPRMC,013807.0,A,3300.479273,N,11715.722380,W,34.2,135.4,041210,,,A*42
$GPRMC,013810.0,A,3300.458631,N,11715.698091,W,35.3,135.3,041210,,,A*41
$GPRMC,013813.0,A,3300.437753,N,11715.670717,W,37.3,135.2,041210,,,A*42
$GPRMC,013816.0,A,3300.415193,N,11715.646089,W,35.3,136.1,041210,,,A*4A
$GPRMC,013819.0,A,3300.397339,N,11715.626261,W,28.0,138.6,041210,,,A*4E
$GPRMC,013822.0,A,3300.386190,N,11715.612970,W,18.0,138.9,041210,,,A*47
$GPRMC,013825.0,A,3300.381137,N,11715.607426,W,9.3,139.6,041210,,,A*7D
$GPRMC,013828.0,A,3300.377109,N,11715.604173,W,4.6,155.3,041210,,,A*75
$GPRMC,013837.0,A,3300.375010,N,11715.600725,W,5.2,129.3,041210,,,A*7F
$GPRMC,013840.0,A,3300.369345,N,11715.594198,W,9.4,133.7,041210,,,A*7A
$GPRMC,013843.0,A,3300.360117,N,11715.584935,W,13.3,139.6,041210,,,A*4C
$GPRMC,013846.0,A,3300.345943,N,11715.573529,W,18.5,145.4,041210,,,A*4A
$GPRMC,013849.0,A,3300.325454,N,11715.556197,W,24.9,145.4,041210,,,A*4D
$GPRMC,013852.0,A,3300.300767,N,11715.537687,W,29.7,147.2,041210,,,A*45
$GPRMC,013855.0,A,3300.271198,N,11715.515253,W,32.4,149.9,041210,,,A*42
$GPRMC,013858.0,A,3300.246578,N,11715.502516,W,32.9,155.7,041210,,,A*4F
$GPRMC,013901.0,A,3300.219469,N,11715.490130,W,34.1,158.7,041210,,,A*40
$GPRMC,013904.0,A,3300.188808,N,11715.476941,W,36.0,161.7,041210,,,A*4A
$GPRMC,013907.0,A,3300.154649,N,11715.466375,W,39.3,165.3,041210,,,A*43
$GPRMC,013910.0,A,3300.119828,N,11715.457505,W,40.3,168.5,041210,,,A*43
$GPRMC,013913.0,A,3300.085589,N,11715.452118,W,39.9,172.7,041210,,,A*42
$GPRMC,013916.0,A,3300.054403,N,11715.449200,W,38.1,174.0,041210,,,A*40
$GPRMC,013919.0,A,3300.022004,N,11715.444778,W,38.6,173.6,041210,,,A*4C
$GPRMC,013922.0,A,3259.986091,N,11715.442011,W,41.1,175.1,041210,,,A*44
$GPRMC,013925.0,A,3259.946840,N,11715.437073,W,43.3,175.4,041210,,,A*48
$GPRMC,013928.0,A,3259.906055,N,11715.432703,W,44.7,174.9,041210,,,A*47
$GPRMC,013931.0,A,3259.858858,N,11715.423718,W,48.6,174.2,041210,,,A*4C
$GPRMC,013934.0,A,3259.813614,N,11715.416825,W,50.5,171.7,041210,,,A*4D
$GPRMC,013937.0,A,3259.768136,N,11715.407764,W,53.2,171.1,041210,,,A*42
$GPRMC,013940.0,A,3259.720308,N,11715.398905,W,55.2,171.9,041210,,,A*47
$GPRMC,013943.0,A,3259.671342,N,11715.391329,W,56.6,173.4,041210,,,A*4A
$GPRMC,013946.0,A,3259.623181,N,11715.382901,W,57.1,173.0,041210,,,A*45
$GPRMC,013949.0,A,3259.574772,N,11715.377223,W,58.0,173.4,041210,,,A*4A
$GPRMC,013952.0,A,3259.519907,N,11715.367884,W,59.1,173.6,041210,,,A*43
$GPRMC,013955.0,A,3259.467004,N,11715.358574,W,60.2,171.9,041210,,,A*4C
$GPRMC,013958.0,A,3259.417327,N,11715.351571,W,60.0,173.5,041210,,,A*44
$GPRMC,014001.0,A,3259.364363,N,11715.343122,W,61.1,173.7,041210,,,A*46
$GPRMC,014004.0,A,3259.312691,N,11715.336538,W,62.9,173.2,041210,,,A*49
$GPRMC,014007.0,A,3259.258980,N,11715.324458,W,63.6,172.0,041210,,,A*43
$GPRMC,014010.0,A,3259.205499,N,11715.315801,W,64.1,172.2,041210,,,A*48
$GPRMC,014013.0,A,3259.152368,N,11715.308819,W,63.6,173.9,041210,,,A*4C
$GPRMC,014016.0,A,3259.100312,N,11715.299928,W,63.7,172.4,041210,,,A*44
$GPRMC,014019.0,A,3259.049080,N,11715.288476,W,63.1,170.7,041210,,,A*4E
$GPRMC,014022.0,A,3258.998786,N,11715.274790,W,62.8,168.5,041210,,,A*48
$GPRMC,014025.0,A,3258.958734,N,11715.255839,W,60.2,165.7,041210,,,A*42
$GPRMC,014028.0,A,3258.906431,N,11715.235676,W,62.1,163.8,041210,,,A*49
$GPRMC,014031.0,A,3258.846908,N,11715.211712,W,66.9,163.0,041210,,,A*42
$GPRMC,014034.0,A,3258.793511,N,11715.191968,W,66.2,163.2,041210,,,A*45
$GPRMC,014037.0,A,3258.736324,N,11715.172227,W,66.6,162.8,041210,,,A*4B
$GPRMC,014040.0,A,3258.686508,N,11715.149397,W,66.3,162.2,041210,,,A*44
$GPRMC,014043.0,A,3258.630819,N,11715.129128,W,67.8,161.8,041210,,,A*44
$GPRMC,014046.0,A,3258.576429,N,11715.107200,W,69.1,161.8,041210,,,A*4D
$GPRMC,014049.0,A,3258.517406,N,11715.087437,W,69.3,162.9,041210,,,A*43
$GPRMC,014052.0,A,3258.463521,N,11715.065984,W,68.7,163.3,041210,,,A*48
$GPRMC,014055.0,A,3258.415799,N,11715.049925,W,65.8,163.2,041210,,,A*49
$GPRMC,014058.0,A,3258.364391,N,11715.029659,W,64.8,163.3,041210,,,A*4B
$GPRMC,014101.0,A,3258.316356,N,11715.011948,W,62.2,162.5,041210,,,A*47
$GPRMC,014104.0,A,3258.267965,N,11714.993788,W,61.4,162.6,041210,,,A*49
$GPRMC,014107.0,A,3258.219568,N,11714.978259,W,60.0,163.7,041210,,,A*4B
$GPRMC,014110.0,A,3258.172295,N,11714.960089,W,60.2,163.9,041210,,,A*4C
$GPRMC,014113.0,A,3258.124800,N,11714.943077,W,60.1,163.7,041210,,,A*47
$GPRMC,014116.0,A,3258.077681,N,11714.924189,W,59.7,162.4,041210,,,A*4D
$GPRMC,014119.0,A,3258.033094,N,11714.907871,W,59.1,162.8,041210,,,A*45
$GPRMC,014122.0,A,3257.987383,N,11714.891682,W,58.7,162.9,041210,,,A*4B
$GPRMC,014125.0,A,3257.942873,N,11714.875345,W,58.0,163.4,041210,,,A*4E
$GPRMC,014128.0,A,3257.894438,N,11714.853309,W,58.9,161.8,041210,,,A*41
$GPRMC,014131.0,A,3257.843051,N,11714.837339,W,59.4,163.1,041210,,,A*4E
$GPRMC,014134.0,A,3257.797423,N,11714.819145,W,59.1,161.9,041210,,,A*46
$GPRMC,014137.0,A,3257.751995,N,11714.800526,W,58.8,162.2,041210,,,A*46
$GPRMC,014140.0,A,3257.705460,N,11714.785664,W,59.2,163.0,041210,,,A*4F
$GPRMC,014143.0,A,3257.655260,N,11714.767061,W,59.9,163.0,041210,,,A*4A
$GPRMC,014146.0,A,3257.607164,N,11714.752003,W,60.4,164.5,041210,,,A*48
$GPRMC,014149.0,A,3257.559856,N,11714.741221,W,59.2,168.1,041210,,,A*43
$GPRMC,014152.0,A,3257.511421,N,11714.732834,W,58.3,169.9,041210,,,A*4A
$GPRMC,014155.0,A,3257.464688,N,11714.722445,W,58.2,169.5,041210,,,A*49
$GPRMC,014158.0,A,3257.417600,N,11714.715082,W,58.8,170.2,041210,,,A*4E
$GPRMC,014201.0,A,3257.368638,N,11714.703760,W,58.7,169.5,041210,,,A*49
$GPRMC,014204.0,A,3257.315921,N,11714.693257,W,60.2,169.9,041210,,,A*4A
$GPRMC,014207.0,A,3257.267937,N,11714.683252,W,59.4,170.0,041210,,,A*43
$GPRMC,014210.0,A,3257.218572,N,11714.671992,W,59.6,170.3,041210,,,A*4B
$GPRMC,014213.0,A,3257.168297,N,11714.662120,W,60.8,170.0,041210,,,A*44
$GPRMC,014216.0,A,3257.116263,N,11714.656215,W,61.5,171.1,041210,,,A*4D
$GPRMC,014219.0,A,3257.061810,N,11714.648569,W,61.9,171.8,041210,,,A*4B
$GPRMC,014222.0,A,3257.012033,N,11714.637772,W,62.2,171.4,041210,,,A*4A
$GPRMC,014231.0,A,3256.863397,N,11714.603097,W,62.4,169.4,041210,,,A*4E
$GPRMC,014234.0,A,3256.811667,N,11714.594944,W,63.4,170.4,041210,,,A*47
$GPRMC,014237.0,A,3256.758486,N,11714.584006,W,63.0,170.6,041210,,,A*43
$GPRMC,014240.0,A,3256.704717,N,11714.571538,W,64.2,169.5,041210,,,A*4D
$GPRMC,014243.0,A,3256.652082,N,11714.559261,W,63.9,169.6,041210,,,A*49
$GPRMC,014246.0,A,3256.598120,N,11714.548862,W,64.9,169.8,041210,,,A*40
$GPRMC,014249.0,A,3256.539337,N,11714.534841,W,66.5,169.3,041210,,,A*4F
$GPRMC,014252.0,A,3256.490647,N,11714.519674,W,65.3,169.2,041210,,,A*46
$GPRMC,014255.0,A,3256.432754,N,11714.510362,W,67.0,169.6,041210,,,A*44
$GPRMC,014258.0,A,3256.381878,N,11714.500173,W,64.4,170.9,041210,,,A*44
$GPRMC,014301.0,A,3256.328108,N,11714.492464,W,65.4,171.2,041210,,,A*46
$GPRMC,014304.0,A,3256.275481,N,11714.483780,W,64.3,172.1,041210,,,A*41
$GPRMC,014307.0,A,3256.211024,N,11714.485654,W,66.0,176.1,041210,,,A*40
$GPRMC,014310.0,A,3256.154749,N,11714.481101,W,65.8,176.0,041210,,,A*41
$GPRMC,014313.0,A,3256.095602,N,11714.478905,W,66.1,175.4,041210,,,A*47
$GPRMC,014316.0,A,3256.042694,N,11714.473748,W,64.9,176.6,041210,,,A*40
$GPRMC,014319.0,A,3255.983960,N,11714.470685,W,65.5,176.0,041210,,,A*44
$GPRMC,014322.0,A,3255.926518,N,11714.467035,W,67.8,174.1,041210,,,A*47
$GPRMC,014325.0,A,3255.870431,N,11714.459887,W,67.9,173.7,041210,,,A*44
$GPRMC,014328.0,A,3255.814187,N,11714.451183,W,67.8,172.0,041210,,,A*41
$GPRMC,014331.0,A,3255.763159,N,11714.439666,W,66.1,170.3,041210,,,A*4E
$GPRMC,014334.0,A,3255.703332,N,11714.429547,W,64.6,168.2,041210,,,A*4E
$GPRMC,014353.0,A,3255.391626,N,11714.320976,W,57.6,162.7,041210,,,A*4F
$GPRMC,014403.0,A,3255.259738,N,11714.247850,W,55.8,153.2,041210,,,A*48
$GPRMC,014406.0,A,3255.217774,N,11714.221386,W,55.8,150.4,041210,,,A*4A
$GPRMC,014409.0,A,3255.175859,N,11714.188191,W,58.5,147.0,041210,,,A*44
$GPRMC,014412.0,A,3255.132760,N,11714.149120,W,61.5,143.4,041210,,,A*45
$GPRMC,014415.0,A,3255.093739,N,11714.108779,W,62.0,141.2,041210,,,A*49
$GPRMC,014418.0,A,3255.056682,N,11714.067219,W,61.8,137.9,041210,,,A*46
$GPRMC,014421.0,A,3255.017725,N,11714.020574,W,63.5,135.6,041210,,,A*48
$GPRMC,014424.0,A,3254.987788,N,11713.969428,W,63.4,131.5,041210,,,A*46
$GPRMC,014427.0,A,3254.953014,N,11713.923349,W,62.4,133.2,041210,,,A*44
$GPRMC,014430.0,A,3254.920519,N,11713.881655,W,60.6,134.0,041210,,,A*4A
$GPRMC,014433.0,A,3254.890274,N,11713.846328,W,57.5,135.9,041210,,,A*44
$GPRMC,014436.0,A,3254.860325,N,11713.815850,W,55.4,137.1,041210,,,A*40
$GPRMC,014439.0,A,3254.835174,N,11713.790027,W,52.3,138.6,041210,,,A*4B
$GPRMC,014442.0,A,3254.810319,N,11713.775694,W,46.5,144.9,041210,,,A*4B
$GPRMC,014445.0,A,3254.786871,N,11713.767151,W,42.2,150.6,041210,,,A*4D
$GPRMC,014448.0,A,3254.767874,N,11713.762659,W,38.5,152.7,041210,,,A*49
$GPRMC,014451.0,A,3254.740318,N,11713.748533,W,37.7,154.5,041210,,,A*4B
$GPRMC,014454.0,A,3254.723579,N,11713.741136,W,32.7,153.2,041210,,,A*47
$GPRMC,014457.0,A,3254.713866,N,11713.733482,W,27.1,149.0,041210,,,A*40
$GPRMC,014500.0,A,3254.703493,N,11713.729905,W,21.2,155.3,041210,,,A*46
$GPRMC,014503.0,A,3254.710113,N,11713.739366,W,9.3,149.1,041210,,,A*70
$GPRMC,014512.0,A,3254.703664,N,11713.734915,W,8.3,150.9,041210,,,A*77
$GPRMC,014515.0,A,3254.695847,N,11713.729976,W,9.1,153.5,041210,,,A*74
$GPRMC,014518.0,A,3254.689637,N,11713.726619,W,8.7,152.6,041210,,,A*71
$GPRMC,014521.0,A,3254.681844,N,11713.721791,W,9.8,151.0,041210,,,A*74
$GPRMC,014524.0,A,3254.673421,N,11713.716389,W,9.4,152.7,041210,,,A*72
$GPRMC,014527.0,A,3254.667475,N,11713.712914,W,7.4,155.4,041210,,,A*75
$GPRMC,014530.0,A,3254.664159,N,11713.711710,W,5.0,155.0,041210,,,A*70
$GPRMC,014533.0,A,3254.660050,N,11713.709190,W,6.0,151.4,041210,,,A*7B
$GPRMC,014536.0,A,3254.656604,N,11713.706245,W,5.1,151.2,041210,,,A*7C
$GPRMC,014539.0,A,3254.652672,N,11713.705372,W,4.5,152.6,041210,,,A*72
$GPRMC,014542.0,A,3254.648242,N,11713.702332,W,5.6,156.1,041210,,,A*70
$GPRMC,014545.0,A,3254.643084,N,11713.699461,W,5.3,161.1,041210,,,A*77
$GPRMC,014600.0,A,3254.635967,N,11713.694132,W,5.3,155.6,041210,,,A*7E
$GPRMC,014612.0,A,3254.627979,N,11713.689374,W,4.9,149.7,041210,,,A*7A
$GPRMC,014615.0,A,3254.623612,N,11713.686366,W,5.6,149.2,041210,,,A*7C
$GPRMC,014618.0,A,3254.618416,N,11713.683194,W,6.6,151.1,041210,,,A*7C
$GPRMC,014621.0,A,3254.613511,N,11713.680320,W,6.4,153.0,041210,,,A*74
$GPRMC,014624.0,A,3254.608987,N,11713.677838,W,6.0,154.5,041210,,,A*74
$GPRMC,014627.0,A,3254.604634,N,11713.675662,W,5.5,155.2,041210,,,A*7F
$GPRMC,014630.0,A,3254.601471,N,11713.673456,W,4.9,153.2,041210,,,A*77
$GPRMC,014648.0,A,3254.591645,N,11713.666385,W,5.6,150.5,041210,,,A*70
$GPRMC,014651.0,A,3254.586877,N,11713.663547,W,6.0,151.6,041210,,,A*7B
$GPRMC,014654.0,A,3254.581953,N,11713.660738,W,6.3,153.6,041210,,,A*76
$GPRMC,014657.0,A,3254.577731,N,11713.657482,W,6.0,152.4,041210,,,A*70
$GPRMC,014700.0,A,3254.571654,N,11713.653798,W,7.4,149.9,041210,,,A*79
$GPRMC,014703.0,A,3254.566668,N,11713.650300,W,6.7,153.0,041210,,,A*75
$GPRMC,014706.0,A,3254.561307,N,11713.647264,W,6.2,150.2,041210,,,A*7A
$GPRMC,014709.0,A,3254.557803,N,11713.644960,W,5.4,151.1,041210,,,A*74
$GPRMC,014712.0,A,3254.554348,N,11713.642473,W,4.8,149.3,041210,,,A*76
$GPRMC,014715.0,A,3254.549621,N,11713.639566,W,5.3,150.3,041210,,,A*7C
$GPRMC,014718.0,A,3254.545618,N,11713.637680,W,5.7,152.6,041210,,,A*71
$GPRMC,014721.0,A,3254.539518,N,11713.633888,W,6.3,153.6,041210,,,A*77
$GPRMC,014724.0,A,3254.534699,N,11713.631583,W,6.2,153.9,041210,,,A*7F
$GPRMC,014727.0,A,3254.530488,N,11713.629125,W,6.0,152.3,041210,,,A*72
$GPRMC,014730.0,A,3254.527628,N,11713.626742,W,4.8,152.3,041210,,,A*78
$GPRMC,014742.0,A,3254.516431,N,11713.618412,W,5.1,152.7,041210,,,A*72
$GPRMC,014745.0,A,3254.512479,N,11713.615470,W,5.2,148.6,041210,,,A*7D
$GPRMC,014748.0,A,3254.508897,N,11713.613413,W,5.1,153.3,041210,,,A*78
$GPRMC,014751.0,A,3254.504242,N,11713.610885,W,5.6,150.3,041210,,,A*7A
$GPRMC,014754.0,A,3254.498867,N,11713.607770,W,6.3,152.1,041210,,,A*73
$GPRMC,014757.0,A,3254.494710,N,11713.605531,W,6.0,153.8,041210,,,A*7D
$GPRMC,014800.0,A,3254.491793,N,11713.603276,W,5.5,151.9,041210,,,A*79
$GPRMC,014803.0,A,3254.486710,N,11713.600088,W,6.3,149.9,041210,,,A*7B
$GPRMC,014806.0,A,3254.480859,N,11713.596537,W,7.4,150.4,041210,,,A*74
$GPRMC,014809.0,A,3254.474671,N,11713.593314,W,7.7,153.4,041210,,,A*76
$GPRMC,014812.0,A,3254.470159,N,11713.590472,W,6.6,151.7,041210,,,A*70
$GPRMC,014815.0,A,3254.466368,N,11713.587735,W,6.0,152.3,041210,,,A*77
$GPRMC,014818.0,A,3254.461725,N,11713.584055,W,6.4,150.1,041210,,,A*76
$GPRMC,014821.0,A,3254.456395,N,11713.581794,W,6.6,153.1,041210,,,A*79
$GPRMC,014824.0,A,3254.450796,N,11713.579590,W,6.2,155.8,041210,,,A*77
$GPRMC,014827.0,A,3254.446150,N,11713.576434,W,6.1,156.5,041210,,,A*72
$GPRMC,014830.0,A,3254.442223,N,11713.574496,W,6.0,154.9,041210,,,A*72
$GPRMC,014833.0,A,3254.437477,N,11713.571800,W,5.1,157.4,041210,,,A*7E
$GPRMC,014836.0,A,3254.433034,N,11713.569304,W,5.7,156.8,041210,,,A*71
$GPRMC,014839.0,A,3254.427512,N,11713.566598,W,6.9,157.8,041210,,,A*7A
$GPRMC,014842.0,A,3254.421950,N,11713.564228,W,7.2,158.5,041210,,,A*7C
$GPRMC,014845.0,A,3254.418075,N,11713.561127,W,5.8,156.7,041210,,,A*72
$GPRMC,014848.0,A,3254.413132,N,11713.558403,W,5.8,155.4,041210,,,A*7F
$GPRMC,014851.0,A,3254.408723,N,11713.556522,W,5.2,158.2,041210,,,A*76
$GPRMC,014854.0,A,3254.406190,N,11713.555172,W,4.8,155.3,041210,,,A*76
$GPRMC,014857.0,A,3254.402857,N,11713.553576,W,4.6,155.8,041210,,,A*70
$GPRMC,014900.0,A,3254.399603,N,11713.551798,W,4.4,156.9,041210,,,A*79
$GPRMC,014903.0,A,3254.394700,N,11713.550138,W,5.4,158.5,041210,,,A*7B
$GPRMC,014906.0,A,3254.389667,N,11713.548078,W,5.9,154.8,041210,,,A*72
$GPRMC,014909.0,A,3254.384588,N,11713.545122,W,6.1,154.3,041210,,,A*71
$GPRMC,014912.0,A,3254.381164,N,11713.542309,W,5.5,155.0,041210,,,A*71
$GPRMC,014915.0,A,3254.375678,N,11713.540590,W,6.1,156.2,041210,,,A*75
$GPRMC,014918.0,A,3254.371581,N,11713.537842,W,6.0,155.3,041210,,,A*78
$GPRMC,014921.0,A,3254.366974,N,11713.535305,W,6.1,154.4,041210,,,A*7F
$GPRMC,014924.0,A,3254.361912,N,11713.532191,W,6.2,155.0,041210,,,A*73
$GPRMC,014927.0,A,3254.358308,N,11713.529675,W,5.7,151.9,041210,,,A*77
$GPRMC,014930.0,A,3254.353751,N,11713.525842,W,5.9,152.5,041210,,,A*75
$GPRMC,014933.0,A,3254.351327,N,11713.524538,W,5.1,154.8,041210,,,A*73
$GPRMC,014936.0,A,3254.345450,N,11713.522200,W,5.9,154.3,041210,,,A*7D
$GPRMC,014939.0,A,3254.341550,N,11713.519977,W,6.0,154.3,041210,,,A*7E
$GPRMC,014942.0,A,3254.332766,N,11713.515633,W,7.4,157.2,041210,,,A*75
$GPRMC,014945.0,A,3254.332225,N,11713.515948,W,5.1,157.7,041210,,,A*71
$GPRMC,014948.0,A,3254.328874,N,11713.514500,W,5.5,161.4,041210,,,A*7A
$GPRMC,014951.0,A,3254.324135,N,11713.512753,W,6.3,158.6,041210,,,A*7D
$GPRMC,014954.0,A,3254.319499,N,11713.510312,W,6.3,156.7,041210,,,A*79
$GPRMC,014957.0,A,3254.315684,N,11713.509188,W,6.3,162.6,041210,,,A*77
$GPRMC,015000.0,A,3254.311339,N,11713.507950,W,6.7,162.9,041210,,,A*72
$GPRMC,015003.0,A,3254.304964,N,11713.505897,W,7.2,163.8,041210,,,A*7B
$GPRMC,015006.0,A,3254.298566,N,11713.502939,W,7.1,158.8,041210,,,A*7D
$GPRMC,015009.0,A,3254.293587,N,11713.500474,W,7.0,162.3,041210,,,A*73
$GPRMC,015012.0,A,3254.286844,N,11713.499336,W,7.3,166.2,041210,,,A*79
$GPRMC,015015.0,A,3254.280754,N,11713.497492,W,7.3,167.6,041210,,,A*74
$GPRMC,015018.0,A,3254.275835,N,11713.493583,W,7.0,165.8,041210,,,A*71
$GPRMC,015021.0,A,3254.270434,N,11713.492068,W,6.9,164.6,041210,,,A*75
$GPRMC,015024.0,A,3254.264268,N,11713.489441,W,7.9,162.8,041210,,,A*76
$GPRMC,015027.0,A,3254.255185,N,11713.486708,W,8.3,165.8,041210,,,A*74
$GPRMC,015030.0,A,3254.248897,N,11713.484616,W,8.0,166.1,041210,,,A*71
$GPRMC,015033.0,A,3254.242900,N,11713.482193,W,7.8,164.2,041210,,,A*7D
$GPRMC,015036.0,A,3254.236512,N,11713.480290,W,7.4,164.7,041210,,,A*7F
$GPRMC,015039.0,A,3254.230016,N,11713.478002,W,8.0,165.6,041210,,,A*72
$GPRMC,015042.0,A,3254.223508,N,11713.475674,W,8.1,167.4,041210,,,A*7D
$GPRMC,015045.0,A,3254.218218,N,11713.476166,W,7.6,174.8,041210,,,A*75
$GPRMC,015048.0,A,3254.213107,N,11713.474278,W,6.7,170.9,041210,,,A*75
$GPRMC,015051.0,A,3254.206942,N,11713.474365,W,7.3,175.1,041210,,,A*75
$GPRMC,015054.0,A,3254.200879,N,11713.474651,W,8.6,177.5,041210,,,A*71
$GPRMC,015057.0,A,3254.191558,N,11713.473199,W,9.9,175.2,041210,,,A*78
$GPRMC,015100.0,A,3254.184981,N,11713.473089,W,9.1,173.9,041210,,,A*72
$GPRMC,015103.0,A,3254.175800,N,11713.472385,W,9.4,174.5,041210,,,A*77
$GPRMC,015106.0,A,3254.171652,N,11713.471609,W,7.7,175.0,041210,,,A*74
$GPRMC,015109.0,A,3254.166330,N,11713.472239,W,6.5,175.3,041210,,,A*78
$GPRMC,015112.0,A,3254.164295,N,11713.471706,W,5.3,172.3,041210,,,A*76
$GPRMC,015115.0,A,3254.160815,N,11713.471742,W,4.8,178.4,041210,,,A*70
$GPRMC,015118.0,A,3254.156942,N,11713.470492,W,4.9,176.3,041210,,,A*7C
$GPRMC,015121.0,A,3254.150423,N,11713.470377,W,6.1,177.6,041210,,,A*78
$GPRMC,015124.0,A,3254.146275,N,11713.470780,W,5.5,179.5,041210,,,A*79
$GPRMC,015127.0,A,3254.140851,N,11713.470161,W,5.9,177.5,041210,,,A*7B
$GPRMC,015130.0,A,3254.136348,N,11713.470824,W,5.8,181.7,041210,,,A*7D
$GPRMC,015133.0,A,3254.130765,N,11713.470766,W,6.5,183.6,041210,,,A*77
$GPRMC,015136.0,A,3254.126007,N,11713.471582,W,6.2,187.9,041210,,,A*73
$GPRMC,015139.0,A,3254.120408,N,11713.471262,W,6.6,182.4,041210,,,A*74
$GPRMC,015142.0,A,3254.115704,N,11713.471042,W,6.2,177.1,041210,,,A*7A
$GPRMC,015145.0,A,3254.111039,N,11713.471125,W,6.4,180.1,041210,,,A*7E
$GPRMC,015148.0,A,3254.105201,N,11713.472262,W,6.5,182.9,041210,,,A*77
$GPRMC,015151.0,A,3254.099711,N,11713.472111,W,7.1,180.2,041210,,,A*74
$GPRMC,015154.0,A,3254.093236,N,11713.471410,W,7.6,183.1,041210,,,A*7B
$GPRMC,015157.0,A,3254.085967,N,11713.472195,W,7.8,185.6,041210,,,A*74
$GPRMC,015200.0,A,3254.082026,N,11713.472129,W,6.7,186.7,041210,,,A*75
$GPRMC,015203.0,A,3254.075525,N,11713.473457,W,7.9,189.7,041210,,,A*75
$GPRMC,015206.0,A,3254.068077,N,11713.474529,W,8.6,188.1,041210,,,A*76
$GPRMC,015209.0,A,3254.059036,N,11713.477190,W,9.3,191.4,041210,,,A*72
$GPRMC,015212.0,A,3254.053423,N,11713.478304,W,7.1,186.1,041210,,,A*7D
$GPRMC,015215.0,A,3254.049350,N,11713.478090,W,6.0,183.9,041210,,,A*71
$GPRMC,015218.0,A,3254.046726,N,11713.478294,W,4.6,181.6,041210,,,A*79
$GPRMC,015230.0,A,3254.035487,N,11713.482347,W,5.4,192.2,041210,,,A*70
$GPRMC,015233.0,A,3254.029996,N,11713.484112,W,6.4,194.6,041210,,,A*76
$GPRMC,015236.0,A,3254.024315,N,11713.486287,W,7.1,195.7,041210,,,A*76
$GPRMC,015239.0,A,3254.017326,N,11713.487819,W,7.5,192.4,041210,,,A*75
$GPRMC,015242.0,A,3254.011451,N,11713.488578,W,7.2,190.8,041210,,,A*74
$GPRMC,015245.0,A,3254.007702,N,11713.489656,W,6.2,191.9,041210,,,A*7E
$GPRMC,015248.0,A,3254.003295,N,11713.490488,W,6.1,190.4,041210,,,A*7A
$GPRMC,015251.0,A,3253.997286,N,11713.492260,W,6.4,194.5,041210,,,A*71
$GPRMC,015254.0,A,3253.991789,N,11713.494358,W,6.0,195.9,041210,,,A*7D
$GPRMC,015257.0,A,3253.986701,N,11713.496245,W,6.8,200.1,041210,,,A*78
$GPRMC,015300.0,A,3253.980883,N,11713.498822,W,7.1,200.7,041210,,,A*73
$GPRMC,015303.0,A,3253.974888,N,11713.500551,W,7.5,198.0,041210,,,A*78
$GPRMC,015306.0,A,3253.966937,N,11713.503245,W,8.6,197.3,041210,,,A*7A
$GPRMC,015309.0,A,3253.959536,N,11713.506002,W,8.5,197.9,041210,,,A*79
$GPRMC,015312.0,A,3253.951692,N,11713.510927,W,10.0,204.7,041210,,,A*44
$GPRMC,015315.0,A,3253.942878,N,11713.516060,W,10.8,201.7,041210,,,A*4A
$GPRMC,015318.0,A,3253.935059,N,11713.518428,W,9.4,198.2,041210,,,A*78
$GPRMC,015321.0,A,3253.924389,N,11713.521058,W,11.3,200.9,041210,,,A*42
$GPRMC,015324.0,A,3253.917216,N,11713.525061,W,10.9,198.2,041210,,,A*4C
$GPRMC,015327.0,A,3253.907674,N,11713.528110,W,9.9,195.3,041210,,,A*70
$GPRMC,015330.0,A,3253.900982,N,11713.529674,W,8.5,191.9,041210,,,A*70
$GPRMC,015333.0,A,3253.896847,N,11713.530435,W,7.2,188.7,041210,,,A*74
$GPRMC,015336.0,A,3253.890001,N,11713.532482,W,7.5,195.6,041210,,,A*79
$GPRMC,015339.0,A,3253.886762,N,11713.534255,W,6.3,197.1,041210,,,A*7B
$GPRMC,015342.0,A,3253.880137,N,11713.536226,W,7.0,199.0,041210,,,A*7C
$GPRMC,015345.0,A,3253.875610,N,11713.536955,W,5.9,196.3,041210,,,A*7B
$GPRMC,015348.0,A,3253.872591,N,11713.539062,W,4.5,199.7,041210,,,A*7F
$GPRMC,015400.0,A,3253.858007,N,11713.541598,W,6.2,198.3,041210,,,A*79
$GPRMC,015403.0,A,3253.848938,N,11713.544953,W,9.7,199.0,041210,,,A*78
$GPRMC,015406.0,A,3253.839709,N,11713.549468,W,12.1,198.9,041210,,,A*4B
$GPRMC,015409.0,A,3253.827844,N,11713.553900,W,12.0,196.7,041210,,,A*44
$GPRMC,015412.0,A,3253.818459,N,11713.557723,W,11.0,195.9,041210,,,A*47
$GPRMC,015415.0,A,3253.810123,N,11713.561382,W,9.7,198.7,041210,,,A*77
$GPRMC,015418.0,A,3253.804003,N,11713.564336,W,8.6,198.4,041210,,,A*75
$GPRMC,015421.0,A,3253.798298,N,11713.568588,W,8.1,202.7,041210,,,A*7E
$GPRMC,015424.0,A,3253.790033,N,11713.572044,W,8.7,200.9,041210,,,A*74
$GPRMC,015427.0,A,3253.780811,N,11713.572793,W,8.3,195.3,041210,,,A*72
$GPRMC,015430.0,A,3253.775304,N,11713.573521,W,7.5,195.6,041210,,,A*77
$GPRMC,015433.0,A,3253.770719,N,11713.576275,W,6.9,199.4,041210,,,A*79
$GPRMC,015436.0,A,3253.764005,N,11713.578926,W,8.5,199.2,041210,,,A*74
$GPRMC,015439.0,A,3253.753540,N,11713.582669,W,11.2,198.4,041210,,,A*42
$GPRMC,015442.0,A,3253.743046,N,11713.586016,W,12.9,197.5,041210,,,A*40
$GPRMC,015445.0,A,3253.732913,N,11713.589931,W,12.1,200.1,041210,,,A*4A
$GPRMC,015448.0,A,3253.722305,N,11713.594809,W,12.2,200.7,041210,,,A*48
$GPRMC,015451.0,A,3253.712540,N,11713.599028,W,11.5,202.4,041210,,,A*47
$GPRMC,015454.0,A,3253.703701,N,11713.602923,W,10.5,197.6,041210,,,A*4A
$GPRMC,015457.0,A,3253.696706,N,11713.605180,W,7.9,193.5,041210,,,A*78
$GPRMC,015500.0,A,3253.691438,N,11713.606117,W,6.3,193.2,041210,,,A*73
$GPRMC,015503.0,A,3253.690151,N,11713.607362,W,4.5,193.4,041210,,,A*78
$GPRMC,015506.0,A,3253.685335,N,11713.608873,W,4.5,194.6,041210,,,A*78
$GPRMC,015512.0,A,3253.679607,N,11713.610878,W,5.2,197.5,041210,,,A*7E
$GPRMC,015515.0,A,3253.673663,N,11713.612994,W,7.1,197.3,041210,,,A*77
$GPRMC,015518.0,A,3253.667679,N,11713.615699,W,7.0,198.1,041210,,,A*7D
$GPRMC,015521.0,A,3253.661466,N,11713.617197,W,6.8,194.0,041210,,,A*72
$GPRMC,015524.0,A,3253.655783,N,11713.619845,W,7.2,196.9,041210,,,A*70
$GPRMC,015527.0,A,3253.650205,N,11713.621886,W,7.2,196.2,041210,,,A*72
$GPRMC,015530.0,A,3253.643755,N,11713.623181,W,8.1,193.0,041210,,,A*71
$GPRMC,015533.0,A,3253.637502,N,11713.624958,W,8.6,193.9,041210,,,A*74
$GPRMC,015536.0,A,3253.627667,N,11713.628014,W,10.7,193.7,041210,,,A*4B
$GPRMC,015539.0,A,3253.617110,N,11713.629399,W,14.2,192.0,041210,,,A*40
$GPRMC,015542.0,A,3253.602992,N,11713.632365,W,17.1,190.2,041210,,,A*43
$GPRMC,015545.0,A,3253.590863,N,11713.634759,W,13.7,190.8,041210,,,A*46
$GPRMC,015548.0,A,3253.581293,N,11713.636484,W,10.7,189.0,041210,,,A*4C
$GPRMC,015551.0,A,3253.570534,N,11713.638630,W,13.1,187.7,041210,,,A*4F
$GPRMC,015554.0,A,3253.558185,N,11713.640694,W,14.3,187.9,041210,,,A*44
$GPRMC,015557.0,A,3253.546603,N,11713.642132,W,13.6,186.0,041210,,,A*42
$GPRMC,015600.0,A,3253.535557,N,11713.642272,W,12.6,185.4,041210,,,A*44
$GPRMC,015603.0,A,3253.525805,N,11713.644581,W,10.7,186.6,041210,,,A*43
$GPRMC,015606.0,A,3253.516373,N,11713.645196,W,11.1,187.2,041210,,,A*4D
$GPRMC,015609.0,A,3253.507703,N,11713.646371,W,11.4,186.1,041210,,,A*4E
$GPRMC,015612.0,A,3253.495409,N,11713.646727,W,15.2,183.9,041210,,,A*4F
$GPRMC,015615.0,A,3253.479047,N,11713.647986,W,18.4,184.5,041210,,,A*40
$GPRMC,015618.0,A,3253.463634,N,11713.649044,W,18.0,184.7,041210,,,A*4B
$GPRMC,015621.0,A,3253.449245,N,11713.649672,W,15.2,184.4,041210,,,A*44
$GPRMC,015624.0,A,3253.438857,N,11713.649784,W,11.8,179.9,041210,,,A*47
$GPRMC,015627.0,A,3253.431721,N,11713.650060,W,8.8,184.7,041210,,,A*72
$GPRMC,015630.0,A,3253.423922,N,11713.650063,W,11.3,186.2,041210,,,A*4D
$GPRMC,015633.0,A,3253.412970,N,11713.652341,W,13.7,187.0,041210,,,A*4F
$GPRMC,015636.0,A,3253.403919,N,11713.653049,W,8.3,185.3,041210,,,A*70
$GPRMC,015639.0,A,3253.396353,N,11713.654492,W,9.6,184.7,041210,,,A*74
$GPRMC,015642.0,A,3253.386415,N,11713.655185,W,10.8,186.9,041210,,,A*44
$GPRMC,015645.0,A,3253.375732,N,11713.655715,W,13.6,185.2,041210,,,A*43
$GPRMC,015648.0,A,3253.364738,N,11713.657528,W,13.3,188.6,041210,,,A*46
$GPRMC,015651.0,A,3253.357713,N,11713.659054,W,8.9,189.8,041210,,,A*78
$GPRMC,015654.0,A,3253.352182,N,11713.659785,W,7.4,189.0,041210,,,A*77
$GPRMC,015657.0,A,3253.347224,N,11713.662515,W,7.9,192.1,041210,,,A*7A
$GPRMC,015700.0,A,3253.339197,N,11713.663908,W,10.5,190.8,041210,,,A*4B
$GPRMC,015703.0,A,3253.330210,N,11713.665330,W,10.6,188.3,041210,,,A*4B
$GPRMC,015706.0,A,3253.323296,N,11713.665615,W,9.3,187.5,041210,,,A*74
$GPRMC,015709.0,A,3253.313312,N,11713.666583,W,10.0,186.0,041210,,,A*45
$GPRMC,015712.0,A,3253.305522,N,11713.667039,W,8.6,187.2,041210,,,A*74
$GPRMC,015715.0,A,3253.296776,N,11713.667305,W,9.0,186.8,041210,,,A*7B
$GPRMC,015718.0,A,3253.287704,N,11713.668684,W,9.9,185.4,041210,,,A*76
$GPRMC,015721.0,A,3253.278533,N,11713.669521,W,10.8,186.2,041210,,,A*4B
$GPRMC,015724.0,A,3253.269937,N,11713.668523,W,10.1,180.1,041210,,,A*49
$GPRMC,015727.0,A,3253.262234,N,11713.668134,W,8.0,179.0,041210,,,A*74
$GPRMC,015730.0,A,3253.255000,N,11713.668272,W,9.8,185.4,041210,,,A*7C
$GPRMC,015733.0,A,3253.245531,N,11713.669650,W,12.4,186.7,041210,,,A*4A
$GPRMC,015736.0,A,3253.234708,N,11713.670760,W,12.6,186.4,041210,,,A*4A
$GPRMC,015745.0,A,3253.210297,N,11713.673096,W,9.5,183.7,041210,,,A*79
$GPRMC,015748.0,A,3253.204798,N,11713.674277,W,6.8,181.5,041210,,,A*73
$GPRMC,015751.0,A,3253.195366,N,11713.673852,W,10.5,181.9,041210,,,A*49
$GPRMC,015754.0,A,3253.183794,N,11713.674894,W,13.3,187.7,041210,,,A*42
$GPRMC,015757.0,A,3253.171144,N,11713.676089,W,13.9,184.2,041210,,,A*4D
$GPRMC,015800.0,A,3253.159406,N,11713.676887,W,14.3,182.3,041210,,,A*45
$GPRMC,015803.0,A,3253.148548,N,11713.677951,W,13.4,184.2,041210,,,A*41
$GPRMC,015806.0,A,3253.136220,N,11713.679658,W,15.9,184.1,041210,,,A*44
$GPRMC,015809.0,A,3253.123344,N,11713.680473,W,15.1,182.7,041210,,,A*49
$GPRMC,015812.0,A,3253.112408,N,11713.681594,W,12.2,184.2,041210,,,A*40
$GPRMC,015815.0,A,3253.101655,N,11713.682389,W,12.3,184.0,041210,,,A*45
$GPRMC,015818.0,A,3253.090313,N,11713.684639,W,13.2,185.3,041210,,,A*4C
$GPRMC,015821.0,A,3253.077993,N,11713.686060,W,15.3,185.6,041210,,,A*47
$GPRMC,015824.0,A,3253.062288,N,11713.687025,W,19.1,184.6,041210,,,A*48
$GPRMC,015827.0,A,3253.045191,N,11713.688578,W,19.7,184.6,041210,,,A*41
$GPRMC,015830.0,A,3253.029860,N,11713.690473,W,16.8,184.5,041210,,,A*4A
$GPRMC,015833.0,A,3253.021027,N,11713.691136,W,9.5,180.9,041210,,,A*74
$GPRMC,015836.0,A,3253.012688,N,11713.691948,W,10.3,186.4,041210,,,A*46
$GPRMC,015839.0,A,3253.000686,N,11713.693050,W,14.0,186.6,041210,,,A*43
$GPRMC,015842.0,A,3252.987074,N,11713.694302,W,16.7,184.9,041210,,,A*48
$GPRMC,015845.0,A,3252.972596,N,11713.695313,W,17.6,183.9,041210,,,A*4A
$GPRMC,015848.0,A,3252.960301,N,11713.696832,W,15.9,184.3,041210,,,A*47
$GPRMC,015851.0,A,3252.947913,N,11713.699405,W,16.0,186.7,041210,,,A*48
$GPRMC,015854.0,A,3252.934157,N,11713.700518,W,17.2,185.6,041210,,,A*4C
$GPRMC,015857.0,A,3252.918844,N,11713.702196,W,18.2,185.2,041210,,,A*41
$GPRMC,015900.0,A,3252.903367,N,11713.704596,W,18.4,187.0,041210,,,A*46
$GPRMC,015903.0,A,3252.886702,N,11713.705875,W,19.7,184.2,041210,,,A*4C
$GPRMC,015906.0,A,3252.869584,N,11713.707374,W,20.3,184.9,041210,,,A*49
$GPRMC,015909.0,A,3252.852757,N,11713.709082,W,21.2,182.9,041210,,,A*40
$GPRMC,015912.0,A,3252.837659,N,11713.708766,W,19.5,181.7,041210,,,A*4B
$GPRMC,015915.0,A,3252.825636,N,11713.710795,W,15.6,178.6,041210,,,A*4B
$GPRMC,015918.0,A,3252.811142,N,11713.710254,W,16.6,178.3,041210,,,A*4B
$GPRMC,015921.0,A,3252.798355,N,11713.711476,W,15.9,182.0,041210,,,A*46
$GPRMC,015924.0,A,3252.784960,N,11713.711297,W,15.7,182.6,041210,,,A*43
$GPRMC,015927.0,A,3252.777666,N,11713.712373,W,12.2,179.1,041210,,,A*4C
$GPRMC,015930.0,A,3252.776229,N,11713.713168,W,5.2,167.4,041210,,,A*71
$GPRMC,015936.0,A,3252.773109,N,11713.715382,W,6.6,187.7,041210,,,A*79
$GPRMC,015939.0,A,3252.768208,N,11713.714637,W,6.1,176.8,041210,,,A*72
$GPRMC,015948.0,A,3252.763139,N,11713.715471,W,5.8,174.7,041210,,,A*78
$GPRMC,015951.0,A,3252.758495,N,11713.714983,W,5.1,174.4,041210,,,A*70
$GPRMC,020003.0,A,3252.752630,N,11713.717502,W,4.4,188.5,041210,,,A*7F
$GPRMC,020006.0,A,3252.747701,N,11713.718957,W,5.8,194.7,041210,,,A*7C
$GPRMC,020009.0,A,3252.740576,N,11713.719976,W,7.5,188.2,041210,,,A*73
$GPRMC,020012.0,A,3252.734239,N,11713.720657,W,7.5,185.4,041210,,,A*7B
$GPRMC,020015.0,A,3252.728577,N,11713.720403,W,6.1,177.9,041210,,,A*7A
$GPRMC,020018.0,A,3252.724554,N,11713.721130,W,5.6,178.5,041210,,,A*79
$GPRMC,020021.0,A,3252.717739,N,11713.722838,W,8.2,180.2,041210,,,A*71
$GPRMC,020024.0,A,3252.708978,N,11713.721958,W,9.5,180.3,041210,,,A*72
$GPRMC,020027.0,A,3252.699613,N,11713.721934,W,11.2,179.8,041210,,,A*43
$GPRMC,020030.0,A,3252.688414,N,11713.723307,W,13.6,184.8,041210,,,A*4C
$GPRMC,020033.0,A,3252.674946,N,11713.724109,W,15.4,184.9,041210,,,A*48
$GPRMC,020036.0,A,3252.661981,N,11713.725717,W,14.9,184.7,041210,,,A*48
$GPRMC,020039.0,A,3252.647667,N,11713.726258,W,16.2,181.1,041210,,,A*43
$GPRMC,020042.0,A,3252.634618,N,11713.726546,W,15.8,179.3,041210,,,A*47
$GPRMC,020045.0,A,3252.624348,N,11713.726714,W,12.0,176.9,041210,,,A*4E
$GPRMC,020048.0,A,3252.611574,N,11713.727204,W,13.9,181.7,041210,,,A*47
$GPRMC,020051.0,A,3252.598095,N,11713.729328,W,15.4,183.5,041210,,,A*4D
$GPRMC,020054.0,A,3252.588251,N,11713.729339,W,13.0,180.4,041210,,,A*43
$GPRMC,020057.0,A,3252.577994,N,11713.730097,W,12.1,179.8,041210,,,A*47
$GPRMC,020100.0,A,3252.566506,N,11713.730855,W,13.4,183.3,041210,,,A*4F
$GPRMC,020103.0,A,3252.550664,N,11713.731243,W,15.9,177.0,041210,,,A*41
$GPRMC,020106.0,A,3252.536921,N,11713.730623,W,15.9,176.4,041210,,,A*4C
$GPRMC,020109.0,A,3252.524357,N,11713.730827,W,14.9,177.4,041210,,,A*41
$GPRMC,020112.0,A,3252.514591,N,11713.732812,W,13.0,181.9,041210,,,A*4A
$GPRMC,020115.0,A,3252.505091,N,11713.735724,W,11.9,183.3,041210,,,A*46
$GPRMC,020118.0,A,3252.498442,N,11713.738030,W,10.5,183.9,041210,,,A*4C
$GPRMC,020121.0,A,3252.488683,N,11713.739480,W,10.7,180.4,041210,,,A*4A
$GPRMC,020124.0,A,3252.480603,N,11713.740563,W,9.4,180.0,041210,,,A*72
$GPRMC,020127.0,A,3252.471625,N,11713.744255,W,10.6,180.8,041210,,,A*4F
$GPRMC,020130.0,A,3252.461301,N,11713.747301,W,11.7,186.9,041210,,,A*4F
$GPRMC,020133.0,A,3252.448985,N,11713.748961,W,13.8,185.8,041210,,,A*4D
$GPRMC,020136.0,A,3252.437558,N,11713.749001,W,14.3,181.6,041210,,,A*44
$GPRMC,020139.0,A,3252.422423,N,11713.749799,W,16.9,183.2,041210,,,A*4A
$GPRMC,020142.0,A,3252.408227,N,11713.753845,W,17.5,178.3,041210,,,A*41
$GPRMC,020145.0,A,3252.392914,N,11713.755168,W,18.4,184.4,041210,,,A*43
$GPRMC,020148.0,A,3252.372861,N,11713.754786,W,19.5,186.0,041210,,,A*42
$GPRMC,020151.0,A,3252.357247,N,11713.758721,W,19.5,188.2,041210,,,A*4E
$GPRMC,020154.0,A,3252.345771,N,11713.759178,W,16.0,184.4,041210,,,A*43
$GPRMC,020157.0,A,3252.334819,N,11713.759111,W,15.0,182.5,041210,,,A*4C
$GPRMC,020200.0,A,3252.322874,N,11713.761323,W,15.2,188.6,041210,,,A*42
$GPRMC,020208.0,A,3252.289570,N,11713.766498,W,15.6,183.6,041210,,,A*4C
$GPRMC,020211.0,A,3252.276970,N,11713.767075,W,15.5,183.7,041210,,,A*4C
$GPRMC,020214.0,A,3252.266778,N,11713.768564,W,14.1,185.4,041210,,,A*44
$GPRMC,020217.0,A,3252.253504,N,11713.769344,W,17.1,183.2,041210,,,A*4E
$GPRMC,020220.0,A,3252.237114,N,11713.769994,W,18.8,182.8,041210,,,A*47
$GPRMC,020223.0,A,3252.221126,N,11713.771494,W,19.5,185.4,041210,,,A*41
$GPRMC,020226.0,A,3252.204253,N,11713.772127,W,18.7,185.1,041210,,,A*4A
$GPRMC,020229.0,A,3252.193387,N,11713.774682,W,16.9,185.3,041210,,,A*4C
$GPRMC,020232.0,A,3252.181534,N,11713.775342,W,14.7,182.1,041210,,,A*4A
$GPRMC,020235.0,A,3252.167366,N,11713.776201,W,15.9,183.1,041210,,,A*4F
$GPRMC,020238.0,A,3252.154586,N,11713.777460,W,15.5,183.9,041210,,,A*4E
$GPRMC,020241.0,A,3252.142787,N,11713.779542,W,15.0,182.5,041210,,,A*43
$GPRMC,020244.0,A,3252.130008,N,11713.781181,W,14.7,184.5,041210,,,A*4F
$GPRMC,020247.0,A,3252.118469,N,11713.781932,W,13.9,184.5,041210,,,A*4C
$GPRMC,020250.0,A,3252.104689,N,11713.784086,W,16.2,185.9,041210,,,A*4B
$GPRMC,020253.0,A,3252.090075,N,11713.785584,W,17.7,185.4,041210,,,A*4E
$GPRMC,020256.0,A,3252.067842,N,11713.788213,W,22.8,185.6,041210,,,A*40
$GPRMC,020259.0,A,3252.047381,N,11713.789067,W,24.2,184.7,041210,,,A*45
$GPRMC,020302.0,A,3252.027227,N,11713.790852,W,22.7,183.6,041210,,,A*42
$GPRMC,020305.0,A,3252.009941,N,11713.792263,W,21.5,185.3,041210,,,A*4A
$GPRMC,020308.0,A,3251.996705,N,11713.794310,W,15.7,184.0,041210,,,A*41
$GPRMC,020311.0,A,3251.987384,N,11713.794510,W,10.6,185.1,041210,,,A*46
$GPRMC,020314.0,A,3251.975009,N,11713.796299,W,15.0,184.5,041210,,,A*4A
$GPRMC,020317.0,A,3251.958855,N,11713.797611,W,19.5,187.4,041210,,,A*49
$GPRMC,020320.0,A,3251.943328,N,11713.799700,W,18.8,186.7,041210,,,A*47
$GPRMC,020323.0,A,3251.928156,N,11713.801214,W,19.2,184.4,041210,,,A*46
$GPRMC,020326.0,A,3251.911552,N,11713.802606,W,18.9,184.0,041210,,,A*43
$GPRMC,020329.0,A,3251.895088,N,11713.804429,W,18.7,183.7,041210,,,A*44
$GPRMC,020332.0,A,3251.881121,N,11713.805717,W,17.3,185.0,041210,,,A*4C
$GPRMC,020335.0,A,3251.864647,N,11713.808282,W,19.9,186.2,041210,,,A*46
$GPRMC,020338.0,A,3251.847071,N,11713.808173,W,21.0,183.1,041210,,,A*40
$GPRMC,020341.0,A,3251.829166,N,11713.809327,W,20.7,183.7,041210,,,A*43
$GPRMC,020344.0,A,3251.812145,N,11713.811359,W,20.8,185.3,041210,,,A*42
$GPRMC,020347.0,A,3251.795041,N,11713.811888,W,20.1,183.1,041210,,,A*4E
$GPRMC,020350.0,A,3251.780356,N,11713.814255,W,19.0,184.5,041210,,,A*4E
$GPRMC,020353.0,A,3251.766796,N,11713.814721,W,17.4,184.6,041210,,,A*42
$GPRMC,020356.0,A,3251.751681,N,11713.817250,W,17.9,186.6,041210,,,A*4B
$GPRMC,020359.0,A,3251.736321,N,11713.818494,W,18.1,186.4,041210,,,A*4E
$GPRMC,020402.0,A,3251.720813,N,11713.818934,W,18.3,185.3,041210,,,A*4B
$GPRMC,020405.0,A,3251.705915,N,11713.821178,W,19.7,185.7,041210,,,A*47
$GPRMC,020408.0,A,3251.689124,N,11713.823768,W,19.8,184.6,041210,,,A*4F
$GPRMC,020411.0,A,3251.671973,N,11713.825602,W,20.5,185.4,041210,,,A*45
$GPRMC,020414.0,A,3251.654063,N,11713.826737,W,20.3,183.0,041210,,,A*4F
$GPRMC,020417.0,A,3251.636915,N,11713.827690,W,21.0,186.9,041210,,,A*43
$GPRMC,020420.0,A,3251.619250,N,11713.830156,W,20.7,185.4,041210,,,A*43
$GPRMC,020423.0,A,3251.602538,N,11713.830768,W,20.8,182.8,041210,,,A*4C
$GPRMC,020426.0,A,3251.583403,N,11713.832508,W,23.5,184.9,041210,,,A*45
$GPRMC,020429.0,A,3251.562218,N,11713.835042,W,25.7,187.0,041210,,,A*4B
$GPRMC,020432.0,A,3251.540433,N,11713.836329,W,27.1,184.8,041210,,,A*4C
$GPRMC,020435.0,A,3251.517953,N,11713.838729,W,27.5,185.6,041210,,,A*43
$GPRMC,020438.0,A,3251.495304,N,11713.841413,W,27.6,185.6,041210,,,A*4A
$GPRMC,020441.0,A,3251.470394,N,11713.844240,W,28.2,185.0,041210,,,A*4E
$GPRMC,020444.0,A,3251.449557,N,11713.845372,W,25.1,185.3,041210,,,A*44
$GPRMC,020447.0,A,3251.429597,N,11713.850766,W,24.7,189.5,041210,,,A*45
$GPRMC,020450.0,A,3251.407981,N,11713.853854,W,25.1,189.6,041210,,,A*4D
$GPRMC,020453.0,A,3251.385896,N,11713.860394,W,26.1,195.0,041210,,,A*4B
$GPRMC,020456.0,A,3251.364508,N,11713.866335,W,24.7,194.9,041210,,,A*4A
$GPRMC,020459.0,A,3251.345824,N,11713.874489,W,22.6,198.2,041210,,,A*46
$GPRMC,020502.0,A,3251.329958,N,11713.881949,W,20.8,200.3,041210,,,A*4D
$GPRMC,020505.0,A,3251.313528,N,11713.890741,W,21.5,202.1,041210,,,A*42
$GPRMC,020508.0,A,3251.296940,N,11713.899738,W,21.3,204.2,041210,,,A*45
$GPRMC,020511.0,A,3251.280861,N,11713.907930,W,21.7,205.5,041210,,,A*4A
$GPRMC,020514.0,A,3251.264738,N,11713.917022,W,21.7,207.4,041210,,,A*4E
$GPRMC,020517.0,A,3251.248870,N,11713.927925,W,21.8,210.0,041210,,,A*40
$GPRMC,020520.0,A,3251.233883,N,11713.938571,W,20.7,210.5,041210,,,A*4C
$GPRMC,020523.0,A,3251.219522,N,11713.949177,W,21.2,209.3,041210,,,A*4F
$GPRMC,020526.0,A,3251.205466,N,11713.958233,W,20.6,209.9,041210,,,A*4A
$GPRMC,020529.0,A,3251.191561,N,11713.968900,W,20.1,209.3,041210,,,A*48
$GPRMC,020532.0,A,3251.178096,N,11713.977875,W,18.8,209.2,041210,,,A*46
$GPRMC,020535.0,A,3251.166925,N,11713.988085,W,18.1,211.8,041210,,,A*42
$GPRMC,020538.0,A,3251.154672,N,11713.997652,W,17.7,210.8,041210,,,A*49
$GPRMC,020541.0,A,3251.142024,N,11714.006575,W,18.3,212.0,041210,,,A*44
$GPRMC,020544.0,A,3251.128149,N,11714.014463,W,19.1,207.9,041210,,,A*4C
$GPRMC,020547.0,A,3251.114985,N,11714.022949,W,16.8,207.1,041210,,,A*46
$GPRMC,020550.0,A,3251.102436,N,11714.030794,W,16.2,208.2,041210,,,A*49
$GPRMC,020553.0,A,3251.091125,N,11714.038458,W,15.5,212.2,041210,,,A*42
$GPRMC,020556.0,A,3251.078554,N,11714.048577,W,18.3,214.5,041210,,,A*43
$GPRMC,020559.0,A,3251.063149,N,11714.060561,W,21.4,213.7,041210,,,A*4B
$GPRMC,020602.0,A,3251.046162,N,11714.075003,W,24.7,212.5,041210,,,A*48
$GPRMC,020605.0,A,3251.027147,N,11714.086156,W,25.6,208.6,041210,,,A*4A
$GPRMC,020608.0,A,3251.006676,N,11714.098422,W,25.2,209.7,041210,,,A*4C
$GPRMC,020611.0,A,3250.989842,N,11714.111146,W,24.9,209.3,041210,,,A*4B
$GPRMC,020614.0,A,3250.971142,N,11714.122105,W,24.3,206.7,041210,,,A*46
$GPRMC,020617.0,A,3250.951724,N,11714.130916,W,24.1,201.7,041210,,,A*4D
$GPRMC,020620.0,A,3250.932971,N,11714.138413,W,24.3,198.3,041210,,,A*47
$GPRMC,020623.0,A,3250.912595,N,11714.145883,W,24.3,198.8,041210,,,A*44
$GPRMC,020626.0,A,3250.892139,N,11714.153067,W,25.0,195.5,041210,,,A*4D
$GPRMC,020629.0,A,3250.872153,N,11714.158318,W,24.7,192.5,041210,,,A*41
$GPRMC,020632.0,A,3250.851663,N,11714.164168,W,25.0,191.5,041210,,,A*41
$GPRMC,020635.0,A,3250.831634,N,11714.168528,W,24.6,188.1,041210,,,A*45
$GPRMC,020638.0,A,3250.813359,N,11714.170217,W,22.7,186.8,041210,,,A*44
$GPRMC,020641.0,A,3250.794644,N,11714.171202,W,23.4,187.0,041210,,,A*4D
$GPRMC,020644.0,A,3250.778128,N,11714.173555,W,22.9,188.0,041210,,,A*43
$GPRMC,020647.0,A,3250.758954,N,11714.177330,W,23.1,188.4,041210,,,A*4D
$GPRMC,020650.0,A,3250.742185,N,11714.178851,W,20.5,186.9,041210,,,A*43
$GPRMC,020653.0,A,3250.727207,N,11714.182182,W,19.5,187.0,041210,,,A*4A
$GPRMC,020656.0,A,3250.709499,N,11714.184289,W,21.0,186.2,041210,,,A*41
$GPRMC,020659.0,A,3250.690894,N,11714.186455,W,22.8,188.6,041210,,,A*4A
$GPRMC,020702.0,A,3250.670259,N,11714.190182,W,24.4,186.8,041210,,,A*42
$GPRMC,020705.0,A,3250.647322,N,11714.193505,W,26.0,186.2,041210,,,A*48
$GPRMC,020708.0,A,3250.621815,N,11714.196281,W,28.0,184.6,041210,,,A*4C
$GPRMC,020711.0,A,3250.599671,N,11714.196261,W,23.9,180.4,041210,,,A*42
$GPRMC,020714.0,A,3250.582672,N,11714.196958,W,20.3,180.0,041210,,,A*42
$GPRMC,020717.0,A,3250.568577,N,11714.195923,W,17.6,177.2,041210,,,A*47
$GPRMC,020720.0,A,3250.554562,N,11714.194805,W,16.8,176.0,041210,,,A*40
$GPRMC,020723.0,A,3250.542929,N,11714.192904,W,15.2,173.4,041210,,,A*49
$GPRMC,020726.0,A,3250.531000,N,11714.191234,W,14.6,173.1,041210,,,A*41
$GPRMC,020729.0,A,3250.518301,N,11714.189412,W,15.1,171.5,041210,,,A*4C
$GPRMC,020732.0,A,3250.504558,N,11714.186437,W,17.0,169.8,041210,,,A*4E
$GPRMC,020735.0,A,3250.492552,N,11714.183675,W,17.1,168.3,041210,,,A*47
$GPRMC,020738.0,A,3250.479464,N,11714.180743,W,15.4,167.7,041210,,,A*40
$GPRMC,020741.0,A,3250.468368,N,11714.177062,W,12.8,166.0,041210,,,A*44
$GPRMC,020744.0,A,3250.459342,N,11714.174302,W,10.6,164.5,041210,,,A*46
$GPRMC,020747.0,A,3250.450759,N,11714.170975,W,9.2,162.8,041210,,,A*7B
$GPRMC,020750.0,A,3250.445047,N,11714.169408,W,8.4,162.8,041210,,,A*79
$GPRMC,020753.0,A,3250.438702,N,11714.166878,W,8.7,163.6,041210,,,A*7E
$GPRMC,020756.0,A,3250.428596,N,11714.162680,W,12.4,161.1,041210,,,A*45
$GPRMC,020759.0,A,3250.414766,N,11714.157011,W,17.6,160.6,041210,,,A*41
$GPRMC,020802.0,A,3250.398388,N,11714.149062,W,20.1,160.1,041210,,,A*48
$GPRMC,020805.0,A,3250.383731,N,11714.143400,W,19.7,158.2,041210,,,A*4D
$GPRMC,020808.0,A,3250.366878,N,11714.137084,W,20.0,160.4,041210,,,A*42
$GPRMC,020811.0,A,3250.350480,N,11714.128790,W,19.7,157.4,041210,,,A*41
$GPRMC,020814.0,A,3250.335081,N,11714.121471,W,19.1,159.4,041210,,,A*4F
$GPRMC,020817.0,A,3250.320671,N,11714.114175,W,18.4,157.9,041210,,,A*41
$GPRMC,020820.0,A,3250.306820,N,11714.108234,W,17.4,159.0,041210,,,A*48
$GPRMC,020823.0,A,3250.293746,N,11714.101565,W,17.2,158.6,041210,,,A*42
$GPRMC,020826.0,A,3250.278370,N,11714.094545,W,18.7,158.8,041210,,,A*48
$GPRMC,020829.0,A,3250.261793,N,11714.087663,W,20.4,159.8,041210,,,A*4A
$GPRMC,020832.0,A,3250.242554,N,11714.078044,W,22.9,159.0,041210,,,A*4C
$GPRMC,020835.0,A,3250.224668,N,11714.070636,W,23.2,159.6,041210,,,A*40
$GPRMC,020838.0,A,3250.201793,N,11714.061100,W,24.5,158.9,041210,,,A*43
$GPRMC,020841.0,A,3250.181670,N,11714.050639,W,25.0,158.3,041210,,,A*4B
$GPRMC,020844.0,A,3250.164889,N,11714.043550,W,24.3,160.2,041210,,,A*4B
$GPRMC,020847.0,A,3250.146066,N,11714.035198,W,23.9,159.8,041210,,,A*4D
$GPRMC,020850.0,A,3250.129023,N,11714.026443,W,21.4,158.1,041210,,,A*45
$GPRMC,020853.0,A,3250.113232,N,11714.018903,W,20.2,159.5,041210,,,A*4B
$GPRMC,020856.0,A,3250.098126,N,11714.012846,W,20.2,162.1,041210,,,A*4C
$GPRMC,020859.0,A,3250.082169,N,11714.007322,W,18.5,162.7,041210,,,A*44
$GPRMC,020902.0,A,3250.067578,N,11714.002811,W,17.9,164.2,041210,,,A*4A
$GPRMC,020905.0,A,3250.052269,N,11713.998052,W,17.8,164.8,041210,,,A*45
$GPRMC,020908.0,A,3250.038138,N,11713.995714,W,17.7,169.0,041210,,,A*41
$GPRMC,020911.0,A,3250.024394,N,11713.992378,W,17.6,169.3,041210,,,A*4B
$GPRMC,020914.0,A,3250.009888,N,11713.989543,W,17.5,170.6,041210,,,A*4D
$GPRMC,020917.0,A,3249.997834,N,11713.987491,W,15.4,170.7,041210,,,A*4D
$GPRMC,020920.0,A,3249.988332,N,11713.984713,W,12.2,167.9,041210,,,A*49
$GPRMC,020923.0,A,3249.978189,N,11713.981972,W,12.3,171.8,041210,,,A*4C
$GPRMC,020926.0,A,3249.969633,N,11713.981932,W,11.5,175.7,041210,,,A*45
$GPRMC,020929.0,A,3249.961124,N,11713.980894,W,10.3,173.8,041210,,,A*41
$GPRMC,020932.0,A,3249.952288,N,11713.980598,W,10.1,175.6,041210,,,A*45
$GPRMC,020935.0,A,3249.941251,N,11713.979024,W,13.6,178.9,041210,,,A*46
$GPRMC,020938.0,A,3249.926786,N,11713.978992,W,18.3,179.7,041210,,,A*41
$GPRMC,020941.0,A,3249.910606,N,11713.981240,W,20.2,182.0,041210,,,A*48
$GPRMC,020944.0,A,3249.895637,N,11713.982601,W,16.6,180.4,041210,,,A*46
$GPRMC,020947.0,A,3249.885655,N,11713.983051,W,11.6,179.0,041210,,,A*47
$GPRMC,020950.0,A,3249.876360,N,11713.982113,W,11.3,177.8,041210,,,A*4B
$GPRMC,020953.0,A,3249.864173,N,11713.982100,W,14.9,180.9,041210,,,A*4F
$GPRMC,020956.0,A,3249.849699,N,11713.982185,W,17.7,179.9,041210,,,A*40
$GPRMC,020959.0,A,3249.834573,N,11713.982137,W,18.5,178.5,041210,,,A*4B
$GPRMC,021002.0,A,3249.816026,N,11713.982702,W,24.2,179.2,041210,,,A*46
$GPRMC,021005.0,A,3249.792563,N,11713.983072,W,28.4,180.3,041210,,,A*4A
$GPRMC,021008.0,A,3249.767125,N,11713.984556,W,30.9,179.8,041210,,,A*46
$GPRMC,021011.0,A,3249.741427,N,11713.983804,W,31.7,179.4,041210,,,A*43
$GPRMC,021014.0,A,3249.715995,N,11713.983894,W,28.7,179.0,041210,,,A*46
$GPRMC,021017.0,A,3249.691703,N,11713.983113,W,28.4,178.8,041210,,,A*45
$GPRMC,021020.0,A,3249.668422,N,11713.979853,W,28.0,173.6,041210,,,A*4E
$GPRMC,021023.0,A,3249.642390,N,11713.975301,W,30.4,171.4,041210,,,A*46
$GPRMC,021026.0,A,3249.611916,N,11713.968012,W,34.4,169.6,041210,,,A*43
$GPRMC,021029.0,A,3249.584255,N,11713.959579,W,34.5,166.5,041210,,,A*48
$GPRMC,021032.0,A,3249.557481,N,11713.950734,W,32.8,162.8,041210,,,A*43
$GPRMC,021035.0,A,3249.532224,N,11713.938992,W,32.1,158.2,041210,,,A*48
$GPRMC,021038.0,A,3249.506710,N,11713.924459,W,32.8,156.1,041210,,,A*43
$GPRMC,021041.0,A,3249.483597,N,11713.910598,W,32.2,153.2,041210,,,A*4B
$GPRMC,021044.0,A,3249.460397,N,11713.895694,W,31.5,150.4,041210,,,A*47
$GPRMC,021047.0,A,3249.441492,N,11713.882083,W,27.4,147.4,041210,,,A*43
$GPRMC,021050.0,A,3249.423307,N,11713.867469,W,25.4,144.0,041210,,,A*44
$GPRMC,021053.0,A,3249.407858,N,11713.853188,W,25.0,142.2,041210,,,A*4D
$GPRMC,021056.0,A,3249.394401,N,11713.838375,W,23.8,140.4,041210,,,A*42
$GPRMC,021059.0,A,3249.380795,N,11713.823528,W,22.8,138.8,041210,,,A*40
$GPRMC,021102.0,A,3249.366823,N,11713.809101,W,23.2,139.5,041210,,,A*45
$GPRMC,021105.0,A,3249.351275,N,11713.793423,W,24.9,138.3,041210,,,A*4D
$GPRMC,021108.0,A,3249.334987,N,11713.777136,W,25.4,140.0,041210,,,A*4E
$GPRMC,021111.0,A,3249.319130,N,11713.760525,W,25.8,138.5,041210,,,A*4B
$GPRMC,021114.0,A,3249.302997,N,11713.743637,W,27.3,138.5,041210,,,A*49
$GPRMC,021117.0,A,3249.284854,N,11713.723261,W,28.7,137.7,041210,,,A*4C
$GPRMC,021120.0,A,3249.267316,N,11713.703786,W,29.1,138.8,041210,,,A*41
$GPRMC,021123.0,A,3249.247900,N,11713.686524,W,28.9,140.5,041210,,,A*40
$GPRMC,021126.0,A,3249.229913,N,11713.667182,W,29.1,137.9,041210,,,A*4D
$GPRMC,021129.0,A,3249.210011,N,11713.647534,W,31.3,139.0,041210,,,A*44
$GPRMC,021132.0,A,3249.189337,N,11713.627563,W,32.8,139.0,041210,,,A*46
$GPRMC,021135.0,A,3249.166726,N,11713.605063,W,34.1,138.4,041210,,,A*4B
$GPRMC,021138.0,A,3249.146250,N,11713.583495,W,33.1,139.2,041210,,,A*40
$GPRMC,021141.0,A,3249.125223,N,11713.562543,W,32.3,140.0,041210,,,A*45
$GPRMC,021144.0,A,3249.104459,N,11713.541258,W,32.4,139.1,041210,,,A*4C
$GPRMC,021147.0,A,3249.083475,N,11713.517941,W,34.0,137.8,041210,,,A*4A
$GPRMC,021150.0,A,3249.062305,N,11713.496135,W,34.8,139.5,041210,,,A*4B
$GPRMC,021153.0,A,3249.040805,N,11713.473877,W,33.6,139.5,041210,,,A*4E
$GPRMC,021156.0,A,3249.020320,N,11713.452160,W,32.2,141.3,041210,,,A*41
$GPRMC,021159.0,A,3249.000155,N,11713.432615,W,31.4,141.2,041210,,,A*4B
$GPRMC,021202.0,A,3248.978506,N,11713.412314,W,33.8,141.7,041210,,,A*4E
$GPRMC,021205.0,A,3248.953396,N,11713.392986,W,35.6,143.2,041210,,,A*4E
$GPRMC,021208.0,A,3248.930413,N,11713.370912,W,34.9,144.2,041210,,,A*44
$GPRMC,021211.0,A,3248.909762,N,11713.347276,W,34.4,142.7,041210,,,A*40
$GPRMC,021214.0,A,3248.886924,N,11713.324627,W,35.1,141.7,041210,,,A*4D
$GPRMC,021217.0,A,3248.863543,N,11713.305033,W,34.8,143.2,041210,,,A*47
$GPRMC,021220.0,A,3248.839578,N,11713.284714,W,35.0,143.7,041210,,,A*42
$GPRMC,021223.0,A,3248.810810,N,11713.270013,W,34.5,148.4,041210,,,A*4E
$GPRMC,021226.0,A,3248.780005,N,11713.262503,W,34.7,152.6,041210,,,A*4D
$GPRMC,021229.0,A,3248.752283,N,11713.242989,W,36.3,148.8,041210,,,A*4E
$GPRMC,021232.0,A,3248.726673,N,11713.224256,W,35.3,146.4,041210,,,A*44
$GPRMC,021235.0,A,3248.701241,N,11713.204345,W,35.3,146.0,041210,,,A*46
$GPRMC,021238.0,A,3248.675341,N,11713.182951,W,36.0,146.1,041210,,,A*4B
$GPRMC,021241.0,A,3248.649897,N,11713.165103,W,35.4,147.2,041210,,,A*49
$GPRMC,021244.0,A,3248.625373,N,11713.146140,W,33.8,147.0,041210,,,A*49
$GPRMC,021247.0,A,3248.604138,N,11713.129443,W,31.3,148.1,041210,,,A*4C
$GPRMC,021250.0,A,3248.582228,N,11713.110230,W,31.7,146.1,041210,,,A*47
$GPRMC,021253.0,A,3248.559296,N,11713.091267,W,32.3,145.5,041210,,,A*4D
$GPRMC,021256.0,A,3248.539971,N,11713.073516,W,30.8,146.0,041210,,,A*4E
$GPRMC,021259.0,A,3248.518496,N,11713.056271,W,31.7,145.8,041210,,,A*42
$GPRMC,021302.0,A,3248.497095,N,11713.039681,W,30.4,145.4,041210,,,A*40
$GPRMC,021305.0,A,3248.479004,N,11713.022679,W,27.7,143.1,041210,,,A*44
$GPRMC,021308.0,A,3248.460006,N,11713.007764,W,26.3,145.0,041210,,,A*4B
$GPRMC,021311.0,A,3248.443426,N,11712.995459,W,24.2,144.0,041210,,,A*48
$GPRMC,021314.0,A,3248.425930,N,11712.981103,W,25.6,143.8,041210,,,A*42
$GPRMC,021317.0,A,3248.406810,N,11712.963702,W,27.3,142.6,041210,,,A*40
$GPRMC,021320.0,A,3248.386867,N,11712.946399,W,29.7,143.9,041210,,,A*4E
$GPRMC,021323.0,A,3248.366193,N,11712.928635,W,30.6,143.5,041210,,,A*4F
$GPRMC,021326.0,A,3248.345722,N,11712.911295,W,30.6,144.1,041210,,,A*40
$GPRMC,021329.0,A,3248.322694,N,11712.894732,W,30.1,147.1,041210,,,A*42
$GPRMC,021332.0,A,3248.301838,N,11712.879863,W,28.7,148.7,041210,,,A*4F
$GPRMC,021335.0,A,3248.283265,N,11712.863524,W,28.6,147.7,041210,,,A*4A
$GPRMC,021338.0,A,3248.261766,N,11712.848671,W,29.5,148.3,041210,,,A*4E
$GPRMC,021341.0,A,3248.237220,N,11712.830996,W,31.7,147.8,041210,,,A*42
$GPRMC,021344.0,A,3248.213240,N,11712.811863,W,33.3,149.4,041210,,,A*4B
$GPRMC,021347.0,A,3248.186674,N,11712.795510,W,34.2,151.5,041210,,,A*40
$GPRMC,021350.0,A,3248.163523,N,11712.779748,W,33.7,152.0,041210,,,A*45
$GPRMC,021353.0,A,3248.138914,N,11712.763776,W,33.0,152.3,041210,,,A*42
$GPRMC,021356.0,A,3248.116990,N,11712.748394,W,30.3,153.0,041210,,,A*44
$GPRMC,021359.0,A,3248.094307,N,11712.734689,W,29.8,153.2,041210,,,A*47
$GPRMC,021402.0,A,3248.070575,N,11712.721274,W,31.8,154.7,041210,,,A*4E
$GPRMC,021405.0,A,3248.043382,N,11712.708356,W,35.1,157.1,041210,,,A*45
$GPRMC,021408.0,A,3248.015978,N,11712.693804,W,36.7,156.2,041210,,,A*4C
$GPRMC,021411.0,A,3247.988250,N,11712.680444,W,36.0,156.7,041210,,,A*4F
$GPRMC,021414.0,A,3247.962856,N,11712.667085,W,34.4,156.5,041210,,,A*46
$GPRMC,021417.0,A,3247.936715,N,11712.653413,W,34.5,155.6,041210,,,A*41
$GPRMC,021420.0,A,3247.909487,N,11712.637124,W,37.6,153.9,041210,,,A*4B
$GPRMC,021423.0,A,3247.879139,N,11712.620459,W,40.8,153.4,041210,,,A*44
$GPRMC,021426.0,A,3247.848064,N,11712.601541,W,42.4,152.3,041210,,,A*49
$GPRMC,021429.0,A,3247.817939,N,11712.581830,W,41.5,153.4,041210,,,A*49
$GPRMC,021432.0,A,3247.788944,N,11712.566713,W,37.7,153.2,041210,,,A*42
$GPRMC,021435.0,A,3247.766067,N,11712.552862,W,32.1,153.5,041210,,,A*47
$GPRMC,021438.0,A,3247.742655,N,11712.538910,W,31.0,153.1,041210,,,A*45
$GPRMC,021441.0,A,3247.718733,N,11712.525169,W,30.9,154.0,041210,,,A*41
$GPRMC,021444.0,A,3247.695182,N,11712.513218,W,31.3,156.7,041210,,,A*42
$GPRMC,021447.0,A,3247.669490,N,11712.501181,W,33.2,158.0,041210,,,A*4E
$GPRMC,021450.0,A,3247.642269,N,11712.488038,W,35.0,159.4,041210,,,A*43
$GPRMC,021453.0,A,3247.613108,N,11712.476942,W,35.0,161.1,041210,,,A*4B
$GPRMC,021456.0,A,3247.583334,N,11712.466864,W,36.3,165.2,041210,,,A*4A
$GPRMC,021459.0,A,3247.553102,N,11712.457447,W,38.3,166.0,041210,,,A*4F
$GPRMC,021502.0,A,3247.522067,N,11712.449001,W,38.4,167.7,041210,,,A*4C
$GPRMC,021505.0,A,3247.491136,N,11712.442510,W,39.0,170.2,041210,,,A*4F
$GPRMC,021508.0,A,3247.455526,N,11712.434953,W,41.1,171.5,041210,,,A*4D
$GPRMC,021511.0,A,3247.421298,N,11712.430938,W,41.2,174.4,041210,,,A*4A
$GPRMC,021514.0,A,3247.381749,N,11712.428595,W,44.3,176.8,041210,,,A*43
$GPRMC,021517.0,A,3247.345681,N,11712.427857,W,43.5,179.1,041210,,,A*46
$GPRMC,021520.0,A,3247.309408,N,11712.428285,W,43.2,181.0,041210,,,A*42
$GPRMC,021523.0,A,3247.272978,N,11712.430025,W,44.0,183.6,041210,,,A*46
$GPRMC,021526.0,A,3247.237031,N,11712.433853,W,42.3,185.8,041210,,,A*41
$GPRMC,021529.0,A,3247.202586,N,11712.439996,W,42.6,188.5,041210,,,A*46
$GPRMC,021532.0,A,3247.166919,N,11712.445320,W,44.3,188.2,041210,,,A*4F
$GPRMC,021535.0,A,3247.126619,N,11712.453079,W,48.1,188.8,041210,,,A*4F
$GPRMC,021538.0,A,3247.086612,N,11712.460981,W,49.1,188.6,041210,,,A*43
$GPRMC,021541.0,A,3247.046282,N,11712.468162,W,48.3,188.4,041210,,,A*40
$GPRMC,021544.0,A,3247.006616,N,11712.474591,W,47.6,188.5,041210,,,A*46
$GPRMC,021547.0,A,3246.967397,N,11712.481824,W,47.7,189.0,041210,,,A*4A
$GPRMC,021550.0,A,3246.926415,N,11712.489746,W,49.7,189.1,041210,,,A*48
$GPRMC,021553.0,A,3246.885296,N,11712.496538,W,50.3,188.4,041210,,,A*43
$GPRMC,021556.0,A,3246.842733,N,11712.504441,W,50.5,189.0,041210,,,A*41
$GPRMC,021559.0,A,3246.803475,N,11712.512244,W,48.1,189.1,041210,,,A*42
$GPRMC,021602.0,A,3246.764598,N,11712.519595,W,46.8,188.9,041210,,,A*4D
$GPRMC,021605.0,A,3246.723867,N,11712.524217,W,46.6,184.4,041210,,,A*48
$GPRMC,021608.0,A,3246.684328,N,11712.524151,W,45.9,178.9,041210,,,A*4A
$GPRMC,021611.0,A,3246.646638,N,11712.521037,W,45.0,173.9,041210,,,A*4E
$GPRMC,021614.0,A,3246.611134,N,11712.513847,W,43.6,170.1,041210,,,A*47
$GPRMC,021617.0,A,3246.574184,N,11712.504302,W,45.2,168.7,041210,,,A*4E
$GPRMC,021620.0,A,3246.536097,N,11712.493685,W,47.6,168.0,041210,,,A*4B
$GPRMC,021623.0,A,3246.495147,N,11712.483299,W,50.6,168.2,041210,,,A*40
$GPRMC,021626.0,A,3246.454253,N,11712.472214,W,50.0,167.3,041210,,,A*4D
$GPRMC,021629.0,A,3246.415099,N,11712.462083,W,48.1,168.1,041210,,,A*4B
$GPRMC,021632.0,A,3246.378078,N,11712.453872,W,46.2,167.8,041210,,,A*4D
$GPRMC,021635.0,A,3246.340173,N,11712.445080,W,46.3,168.2,041210,,,A*4D
$GPRMC,021638.0,A,3246.300321,N,11712.434798,W,48.9,168.6,041210,,,A*49
$GPRMC,021641.0,A,3246.258402,N,11712.423765,W,50.9,167.4,041210,,,A*4D
$GPRMC,021644.0,A,3246.216330,N,11712.412515,W,51.5,167.4,041210,,,A*4E
$GPRMC,021647.0,A,3246.173967,N,11712.401234,W,52.2,167.8,041210,,,A*4B
$GPRMC,021650.0,A,3246.129703,N,11712.389036,W,52.8,167.7,041210,,,A*4C
$GPRMC,021653.0,A,3246.086047,N,11712.376798,W,53.7,167.9,041210,,,A*4F
$GPRMC,021656.0,A,3246.036440,N,11712.364389,W,57.2,168.6,041210,,,A*44
$GPRMC,021659.0,A,3245.991463,N,11712.354141,W,56.4,168.2,041210,,,A*4B
$GPRMC,021702.0,A,3245.943932,N,11712.342960,W,58.0,168.2,041210,,,A*44
$GPRMC,021705.0,A,3245.895406,N,11712.330132,W,58.5,167.7,041210,,,A*46
$GPRMC,021708.0,A,3245.846602,N,11712.317541,W,59.0,167.8,041210,,,A*4D
$GPRMC,021711.0,A,3245.801187,N,11712.306957,W,58.6,169.4,041210,,,A*42
$GPRMC,021714.0,A,3245.753053,N,11712.295145,W,59.0,168.8,041210,,,A*4D
$GPRMC,021717.0,A,3245.702304,N,11712.282414,W,59.3,168.1,041210,,,A*46
$GPRMC,021720.0,A,3245.654630,N,11712.270790,W,59.9,168.2,041210,,,A*49
$GPRMC,021723.0,A,3245.602314,N,11712.257515,W,61.6,168.3,041210,,,A*45
$GPRMC,021726.0,A,3245.552153,N,11712.245434,W,61.3,168.4,041210,,,A*44
$GPRMC,021729.0,A,3245.500352,N,11712.233285,W,63.1,169.2,041210,,,A*45
$GPRMC,021732.0,A,3245.446202,N,11712.217620,W,64.0,166.0,041210,,,A*4E
$GPRMC,021735.0,A,3245.395099,N,11712.196912,W,62.4,159.8,041210,,,A*42
$GPRMC,021738.0,A,3245.353270,N,11712.171436,W,54.7,151.7,041210,,,A*43
$GPRMC,021741.0,A,3245.320315,N,11712.145229,W,46.5,144.7,041210,,,A*41
$GPRMC,021744.0,A,3245.292728,N,11712.118376,W,43.5,138.2,041210,,,A*4E
$GPRMC,021747.0,A,3245.268448,N,11712.084508,W,46.8,130.8,041210,,,A*4C
$GPRMC,021750.0,A,3245.240804,N,11712.046261,W,51.5,130.1,041210,,,A*40
$GPRMC,021753.0,A,3245.213386,N,11712.006199,W,51.0,129.7,041210,,,A*4F
$GPRMC,021756.0,A,3245.185349,N,11711.967046,W,49.6,130.7,041210,,,A*4C
$GPRMC,021759.0,A,3245.159161,N,11711.932066,W,48.2,132.3,041210,,,A*4B
$GPRMC,021802.0,A,3245.130920,N,11711.899735,W,48.3,136.5,041210,,,A*4A
