NMEA Sentence Code,UTC Time,Status,Latitude,Latitude Direction,Longitude,Longitude Direction,Speed (knots),Track Angle (degrees true),Date,MagneticVariation,Magnetic Variation Direction,[FAA Mode]-Optional,Checksum
$GPRMC,170156.0,A,3306.078679,N,11718.749259,W,27.6,339.9,010810,,,A*48
$GPRMC,170159.0,A,3306.099565,N,11718.760333,W,26.4,330.9,010810,,,A*4A
$GPRMC,170202.0,A,3306.117443,N,11718.775234,W,25.6,320.8,010810,,,A*46
$GPRMC,170205.0,A,3306.134570,N,11718.789844,W,24.4,327.3,010810,,,A*40
$GPRMC,170208.0,A,3306.151941,N,11718.799630,W,19.5,340.5,010810,,,A*44
$GPRMC,170211.0,A,3306.162411,N,11718.802381,W,7.1,0.0,010810,,,A*7F
$GPRMC,170214.0,A,3306.167229,N,11718.798529,W,10.5,53.7,010810,,,A*79
$GPRMC,170217.0,A,3306.170443,N,11718.784699,W,17.8,77.9,010810,,,A*71
$GPRMC,170220.0,A,3306.173765,N,11718.764633,W,22.2,78.3,010810,,,A*76
$GPRMC,170223.0,A,3306.177509,N,11718.742957,W,21.0,77.7,010810,,,A*7A
$GPRMC,170226.0,A,3306.180456,N,11718.725707,W,14.4,76.9,010810,,,A*7B
$GPRMC,170229.0,A,3306.182256,N,11718.714261,W,8.9,85.0,010810,,,A*42
$GPRMC,170232.0,A,3306.181054,N,11718.706828,W,7.1,108.1,010810,,,A*7D
$GPRMC,170235.0,A,3306.170880,N,11718.699249,W,19.3,153.3,010810,,,A*4E
$GPRMC,170238.0,A,3306.155786,N,11718.687043,W,22.2,136.1,010810,,,A*42
$GPRMC,170241.0,A,3306.144171,N,11718.669416,W,23.7,123.2,010810,,,A*45
$GPRMC,170244.0,A,3306.132262,N,11718.648243,W,27.2,123.5,010810,,,A*43
$GPRMC,170247.0,A,3306.119093,N,11718.625139,W,28.6,124.4,010810,,,A*4D
$GPRMC,170250.0,A,3306.103354,N,11718.601789,W,30.9,133.4,010810,,,A*43
$GPRMC,170253.0,A,3306.083441,N,11718.580129,W,32.7,140.4,010810,,,A*44
$GPRMC,170256.0,A,3306.060571,N,11718.560133,W,34.3,146.3,010810,,,A*48
$GPRMC,170259.0,A,3306.035001,N,11718.541314,W,37.1,149.4,010810,,,A*48
$GPRMC,170302.0,A,3306.006604,N,11718.521906,W,40.5,150.1,010810,,,A*42
$GPRMC,170305.0,A,3305.976157,N,11718.500859,W,42.9,149.7,010810,,,A*41
$GPRMC,170308.0,A,3305.943973,N,11718.479043,W,45.0,150.9,010810,,,A*40
$GPRMC,170311.0,A,3305.910026,N,11718.456764,W,46.7,151.2,010810,,,A*46
$GPRMC,170314.0,A,3305.875423,N,11718.434334,W,46.9,151.1,010810,,,A*48
$GPRMC,170317.0,A,3305.840833,N,11718.411738,W,47.0,150.8,010810,,,A*4F
$GPRMC,170320.0,A,3305.806303,N,11718.388770,W,47.4,150.4,010810,,,A*42
$GPRMC,170323.0,A,3305.771330,N,11718.365354,W,48.2,150.7,010810,,,A*45
$GPRMC,170326.0,A,3305.735596,N,11718.341767,W,49.4,150.8,010810,,,A*40
$GPRMC,170329.0,A,3305.698880,N,11718.317205,W,51.1,150.6,010810,,,A*43
$GPRMC,170332.0,A,3305.660742,N,11718.292276,W,52.1,151.1,010810,,,A*42
$GPRMC,170335.0,A,3305.621945,N,11718.267135,W,52.9,151.3,010810,,,A*4D
$GPRMC,170338.0,A,3305.582534,N,11718.241808,W,53.2,151.3,010810,,,A*49
$GPRMC,170341.0,A,3305.543098,N,11718.216099,W,53.1,151.4,010810,,,A*4F
$GPRMC,170344.0,A,3305.504155,N,11718.190823,W,52.9,151.2,010810,,,A*42
$GPRMC,170347.0,A,3305.465367,N,11718.165536,W,52.5,151.2,010810,,,A*4B
$GPRMC,170350.0,A,3305.426952,N,11718.140577,W,51.9,151.5,010810,,,A*4C
$GPRMC,170353.0,A,3305.388942,N,11718.116115,W,51.4,151.3,010810,,,A*45
$GPRMC,170356.0,A,3305.351455,N,11718.091809,W,50.8,151.4,010810,,,A*4F
$GPRMC,170359.0,A,3305.314392,N,11718.067518,W,50.3,151.2,010810,,,A*44
$GPRMC,170402.0,A,3305.277514,N,11718.043504,W,50.4,151.4,010810,,,A*4B
$GPRMC,170405.0,A,3305.240507,N,11718.019394,W,50.8,151.1,010810,,,A*43
$GPRMC,170408.0,A,3305.203035,N,11717.994772,W,51.8,151.0,010810,,,A*42
$GPRMC,170411.0,A,3305.164557,N,11717.969716,W,53.0,151.4,010810,,,A*47
$GPRMC,170414.0,A,3305.125101,N,11717.944078,W,54.5,151.1,010810,,,A*47
$GPRMC,170417.0,A,3305.084292,N,11717.918293,W,55.5,153.3,010810,,,A*48
$GPRMC,170420.0,A,3305.042032,N,11717.895220,W,55.7,157.9,010810,,,A*4E
$GPRMC,170423.0,A,3304.997904,N,11717.876391,W,56.1,161.8,010810,,,A*46
$GPRMC,170426.0,A,3304.952516,N,11717.860654,W,56.1,165.3,010810,,,A*41
$GPRMC,170429.0,A,3304.906967,N,11717.847151,W,56.1,165.7,010810,,,A*46
$GPRMC,170432.0,A,3304.861312,N,11717.833789,W,56.2,165.9,010810,,,A*49
$GPRMC,170435.0,A,3304.815944,N,11717.820351,W,55.9,165.7,010810,,,A*41
$GPRMC,170438.0,A,3304.770702,N,11717.807190,W,55.5,165.9,010810,,,A*44
$GPRMC,170441.0,A,3304.726036,N,11717.793732,W,54.7,165.9,010810,,,A*46
$GPRMC,170444.0,A,3304.682141,N,11717.781058,W,53.7,166.1,010810,,,A*49
$GPRMC,170447.0,A,3304.638529,N,11717.767912,W,53.9,165.8,010810,,,A*4A
$GPRMC,170450.0,A,3304.594700,N,11717.754751,W,54.3,165.4,010810,,,A*48
$GPRMC,170453.0,A,3304.550521,N,11717.741595,W,54.3,166.1,010810,,,A*4A
$GPRMC,170456.0,A,3304.506853,N,11717.728790,W,53.5,165.8,010810,,,A*47
$GPRMC,170459.0,A,3304.463733,N,11717.715785,W,52.8,165.9,010810,,,A*44
$GPRMC,170502.0,A,3304.420930,N,11717.702749,W,53.3,165.5,010810,,,A*41
$GPRMC,170505.0,A,3304.377473,N,11717.689543,W,54.1,165.7,010810,,,A*44
$GPRMC,170508.0,A,3304.333209,N,11717.676145,W,55.0,165.8,010810,,,A*4F
$GPRMC,170511.0,A,3304.288116,N,11717.662582,W,56.0,165.6,010810,,,A*4C
$GPRMC,170514.0,A,3304.242582,N,11717.648988,W,56.5,166.1,010810,,,A*49
$GPRMC,170517.0,A,3304.196701,N,11717.635349,W,56.2,165.5,010810,,,A*44
$GPRMC,170520.0,A,3304.151079,N,11717.621433,W,56.0,165.9,010810,,,A*42
$GPRMC,170523.0,A,3304.105681,N,11717.607885,W,55.8,165.8,010810,,,A*4E
$GPRMC,170526.0,A,3304.060529,N,11717.594467,W,55.7,166.1,010810,,,A*44
$GPRMC,170529.0,A,3304.015488,N,11717.581266,W,55.5,165.9,010810,,,A*49
$GPRMC,170532.0,A,3303.970269,N,11717.567737,W,56.2,165.7,010810,,,A*44
$GPRMC,170535.0,A,3303.924338,N,11717.553711,W,57.0,165.6,010810,,,A*46
$GPRMC,170538.0,A,3303.878308,N,11717.539805,W,57.6,165.7,010810,,,A*41
$GPRMC,170541.0,A,3303.831379,N,11717.525699,W,57.9,166.0,010810,,,A*49
$GPRMC,170544.0,A,3303.784304,N,11717.511758,W,58.0,165.8,010810,,,A*41
$GPRMC,170547.0,A,3303.737686,N,11717.497586,W,56.8,165.8,010810,,,A*4D
$GPRMC,170550.0,A,3303.691951,N,11717.483735,W,55.8,165.6,010810,,,A*41
$GPRMC,170553.0,A,3303.647011,N,11717.470086,W,55.3,165.8,010810,,,A*42
$GPRMC,170556.0,A,3303.601879,N,11717.456578,W,55.8,165.9,010810,,,A*49
$GPRMC,170559.0,A,3303.556443,N,11717.442823,W,56.3,165.6,010810,,,A*43
$GPRMC,170602.0,A,3303.510630,N,11717.429079,W,57.0,166.0,010810,,,A*47
$GPRMC,170605.0,A,3303.463912,N,11717.415203,W,57.6,165.9,010810,,,A*46
$GPRMC,170608.0,A,3303.417295,N,11717.401051,W,57.6,165.7,010810,,,A*42
$GPRMC,170611.0,A,3303.370767,N,11717.386899,W,57.5,165.7,010810,,,A*43
$GPRMC,170614.0,A,3303.324094,N,11717.372938,W,57.3,165.9,010810,,,A*45
$GPRMC,170617.0,A,3303.277965,N,11717.359038,W,56.6,165.7,010810,,,A*4C
$GPRMC,170620.0,A,3303.232149,N,11717.345198,W,55.9,165.8,010810,,,A*4A
$GPRMC,170623.0,A,3303.187126,N,11717.331654,W,55.3,165.4,010810,,,A*4F
$GPRMC,170626.0,A,3303.142495,N,11717.318075,W,54.8,166.0,010810,,,A*4D
$GPRMC,170629.0,A,3303.098299,N,11717.305216,W,54.1,166.0,010810,,,A*4C
$GPRMC,170632.0,A,3303.054935,N,11717.292251,W,53.3,165.7,010810,,,A*46
$GPRMC,170635.0,A,3303.012220,N,11717.279170,W,52.5,165.5,010810,,,A*4C
$GPRMC,170638.0,A,3302.970123,N,11717.266612,W,51.8,165.9,010810,,,A*42
$GPRMC,170641.0,A,3302.927992,N,11717.253899,W,52.1,166.0,010810,,,A*47
$GPRMC,170644.0,A,3302.885543,N,11717.241185,W,52.8,165.6,010810,,,A*40
$GPRMC,170647.0,A,3302.842403,N,11717.228195,W,53.7,165.6,010810,,,A*4D
$GPRMC,170650.0,A,3302.798768,N,11717.214928,W,53.9,165.6,010810,,,A*42
$GPRMC,170653.0,A,3302.755233,N,11717.201867,W,53.7,165.9,010810,,,A*44
$GPRMC,170656.0,A,3302.711548,N,11717.188706,W,54.2,165.8,010810,,,A*43
$GPRMC,170659.0,A,3302.667480,N,11717.175464,W,54.6,166.1,010810,,,A*42
$GPRMC,170702.0,A,3302.622999,N,11717.162197,W,55.0,165.5,010810,,,A*46
$GPRMC,170705.0,A,3302.578708,N,11717.148201,W,55.0,164.4,010810,,,A*4F
$GPRMC,170708.0,A,3302.534914,N,11717.131932,W,55.2,160.7,010810,,,A*49
$GPRMC,170711.0,A,3302.492005,N,11717.111956,W,55.3,156.6,010810,,,A*40
$GPRMC,170714.0,A,3302.450585,N,11717.088359,W,54.7,152.3,010810,,,A*46
$GPRMC,170717.0,A,3302.410541,N,11717.061826,W,55.0,150.5,010810,,,A*4F
$GPRMC,170720.0,A,3302.370328,N,11717.034769,W,55.6,150.7,010810,,,A*43
$GPRMC,170723.0,A,3302.329569,N,11717.007360,W,56.1,150.7,010810,,,A*46
$GPRMC,170726.0,A,3302.288760,N,11716.979680,W,56.2,150.2,010810,,,A*4E
$GPRMC,170729.0,A,3302.248006,N,11716.952110,W,55.8,150.6,010810,,,A*40
$GPRMC,170732.0,A,3302.207675,N,11716.924605,W,55.1,150.4,010810,,,A*4A
$GPRMC,170735.0,A,3302.167862,N,11716.897337,W,54.8,150.5,010810,,,A*44
$GPRMC,170738.0,A,3302.127835,N,11716.870497,W,55.1,150.3,010810,,,A*45
$GPRMC,170741.0,A,3302.087637,N,11716.843314,W,55.5,150.2,010810,,,A*45
$GPRMC,170744.0,A,3302.047012,N,11716.815639,W,56.7,150.5,010810,,,A*42
$GPRMC,170747.0,A,3302.005416,N,11716.787662,W,57.4,150.7,010810,,,A*4D
$GPRMC,170750.0,A,3301.963337,N,11716.759514,W,58.1,150.5,010810,,,A*4C
$GPRMC,170753.0,A,3301.921067,N,11716.730913,W,58.6,150.5,010810,,,A*4C
$GPRMC,170756.0,A,3301.878184,N,11716.702041,W,59.1,150.2,010810,,,A*46
$GPRMC,170759.0,A,3301.835023,N,11716.672781,W,59.7,150.6,010810,,,A*43
$GPRMC,170802.0,A,3301.791443,N,11716.643577,W,59.7,150.5,010810,,,A*4B
$GPRMC,170805.0,A,3301.748170,N,11716.614589,W,59.3,150.4,010810,,,A*4B
$GPRMC,170808.0,A,3301.705053,N,11716.585671,W,59.2,150.5,010810,,,A*40
$GPRMC,170811.0,A,3301.661873,N,11716.556849,W,59.7,150.6,010810,,,A*4C
$GPRMC,170814.0,A,3301.618635,N,11716.527530,W,59.8,150.3,010810,,,A*44
$GPRMC,170817.0,A,3301.574612,N,11716.499135,W,60.0,152.9,010810,,,A*44
$GPRMC,170820.0,A,3301.528761,N,11716.474543,W,60.0,157.8,010810,,,A*4E
$GPRMC,170823.0,A,3301.481764,N,11716.454124,W,59.8,161.9,010810,,,A*4B
$GPRMC,170826.0,A,3301.433527,N,11716.438187,W,59.6,166.4,010810,,,A*45
$GPRMC,170829.0,A,3301.384963,N,11716.426781,W,58.8,169.8,010810,,,A*4E
$GPRMC,170832.0,A,3301.336867,N,11716.417240,W,57.9,171.0,010810,,,A*4D
$GPRMC,170835.0,A,3301.289138,N,11716.408525,W,57.9,171.0,010810,,,A*46
$GPRMC,170838.0,A,3301.241225,N,11716.399181,W,57.7,170.0,010810,,,A*4A
$GPRMC,170841.0,A,3301.194014,N,11716.388690,W,57.4,167.9,010810,,,A*44
$GPRMC,170844.0,A,3301.147698,N,11716.374709,W,57.2,163.6,010810,,,A*42
$GPRMC,170847.0,A,3301.102642,N,11716.357379,W,56.1,160.1,010810,,,A*43
$GPRMC,170850.0,A,3301.059980,N,11716.336523,W,55.3,155.7,010810,,,A*44
$GPRMC,170853.0,A,3301.018163,N,11716.311794,W,56.7,151.7,010810,,,A*4F
$GPRMC,170856.0,A,3300.976828,N,11716.282877,W,57.7,147.9,010810,,,A*4D
$GPRMC,170859.0,A,3300.937440,N,11716.250851,W,56.6,143.5,010810,,,A*46
$GPRMC,170902.0,A,3300.900948,N,11716.216377,W,55.2,139.7,010810,,,A*4D
$GPRMC,170905.0,A,3300.867067,N,11716.179825,W,55.0,136.6,010810,,,A*44
$GPRMC,170908.0,A,3300.833404,N,11716.141216,W,56.9,136.1,010810,,,A*45
$GPRMC,170911.0,A,3300.799433,N,11716.102019,W,56.5,135.8,010810,,,A*4A
$GPRMC,170914.0,A,3300.765901,N,11716.063098,W,55.9,135.9,010810,,,A*41
$GPRMC,170917.0,A,3300.732812,N,11716.024701,W,55.4,135.9,010810,,,A*4A
$GPRMC,170920.0,A,3300.699868,N,11715.986419,W,54.8,135.5,010810,,,A*4A
$GPRMC,170923.0,A,3300.667601,N,11715.948429,W,54.2,135.3,010810,,,A*44
$GPRMC,170926.0,A,3300.635754,N,11715.911299,W,52.9,135.8,010810,,,A*40
$GPRMC,170929.0,A,3300.604802,N,11715.875642,W,51.0,136.1,010810,,,A*40
$GPRMC,170932.0,A,3300.574612,N,11715.841047,W,50.0,136.0,010810,,,A*45
$GPRMC,170935.0,A,3300.544802,N,11715.806426,W,50.7,135.4,010810,,,A*4E
$GPRMC,170938.0,A,3300.514947,N,11715.771267,W,49.3,135.4,010810,,,A*46
$GPRMC,170941.0,A,3300.485589,N,11715.737517,W,49.4,136.1,010810,,,A*4C
$GPRMC,170944.0,A,3300.455756,N,11715.703917,W,49.7,137.8,010810,,,A*44
$GPRMC,170947.0,A,3300.424822,N,11715.670171,W,50.8,136.4,010810,,,A*4A
$GPRMC,170950.0,A,3300.394496,N,11715.633796,W,51.9,134.4,010810,,,A*49
$GPRMC,170953.0,A,3300.363313,N,11715.598189,W,51.8,138.4,010810,,,A*4F
$GPRMC,170956.0,A,3300.329781,N,11715.566119,W,51.2,143.6,010810,,,A*47
$GPRMC,170959.0,A,3300.293964,N,11715.537960,W,51.5,148.7,010810,,,A*42
$GPRMC,171002.0,A,3300.255923,N,11715.513237,W,52.3,154.1,010810,,,A*4C
$GPRMC,171005.0,A,3300.215866,N,11715.493367,W,51.9,159.4,010810,,,A*43
$GPRMC,171008.0,A,3300.174780,N,11715.477445,W,51.3,164.2,010810,,,A*42
$GPRMC,171011.0,A,3300.132616,N,11715.466013,W,51.7,169.4,010810,,,A*4E
$GPRMC,171014.0,A,3300.089801,N,11715.458440,W,51.2,172.8,010810,,,A*4E
$GPRMC,171017.0,A,3300.046899,N,11715.452188,W,52.1,172.5,010810,,,A*49
$GPRMC,171020.0,A,3300.003191,N,11715.445364,W,53.1,172.6,010810,,,A*49
$GPRMC,171023.0,A,3259.958663,N,11715.438585,W,53.9,172.5,010810,,,A*42
$GPRMC,171026.0,A,3259.913547,N,11715.431951,W,54.5,173.0,010810,,,A*4E
$GPRMC,171029.0,A,3259.868184,N,11715.425373,W,54.3,172.8,010810,,,A*47
$GPRMC,171032.0,A,3259.822929,N,11715.418981,W,54.5,173.1,010810,,,A*4B
$GPRMC,171035.0,A,3259.777310,N,11715.412182,W,55.2,172.7,010810,,,A*43
$GPRMC,171038.0,A,3259.731127,N,11715.405060,W,55.9,172.4,010810,,,A*49
$GPRMC,171041.0,A,3259.684738,N,11715.397914,W,56.0,172.5,010810,,,A*4D
$GPRMC,171044.0,A,3259.637967,N,11715.390471,W,56.4,172.1,010810,,,A*4D
$GPRMC,171047.0,A,3259.591154,N,11715.383023,W,56.6,172.4,010810,,,A*4F
$GPRMC,171050.0,A,3259.544156,N,11715.375403,W,56.8,172.2,010810,,,A*44
$GPRMC,171053.0,A,3259.496928,N,11715.367850,W,57.0,172.4,010810,,,A*4E
$GPRMC,171056.0,A,3259.449611,N,11715.360497,W,57.1,172.4,010810,,,A*4D
$GPRMC,171059.0,A,3259.402211,N,11715.353029,W,57.3,172.5,010810,,,A*4B
$GPRMC,171102.0,A,3259.354766,N,11715.345958,W,57.1,172.7,010810,,,A*4D
$GPRMC,171105.0,A,3259.307792,N,11715.338681,W,56.0,172.5,010810,,,A*44
$GPRMC,171108.0,A,3259.261868,N,11715.331398,W,54.7,172.2,010810,,,A*44
$GPRMC,171111.0,A,3259.216774,N,11715.324388,W,54.6,172.3,010810,,,A*4B
$GPRMC,171114.0,A,3259.171479,N,11715.317010,W,54.9,172.2,010810,,,A*4E
$GPRMC,171117.0,A,3259.125981,N,11715.309899,W,55.1,172.2,010810,,,A*49
$GPRMC,171120.0,A,3259.080075,N,11715.300861,W,56.2,168.5,010810,,,A*43
$GPRMC,171123.0,A,3259.033877,N,11715.288113,W,57.2,165.3,010810,,,A*45
$GPRMC,171126.0,A,3258.987815,N,11715.272014,W,57.7,162.5,010810,,,A*44
$GPRMC,171129.0,A,3258.942027,N,11715.254231,W,57.3,162.2,010810,,,A*49
$GPRMC,171132.0,A,3258.896380,N,11715.236916,W,58.1,162.3,010810,,,A*43
$GPRMC,171135.0,A,3258.850122,N,11715.219133,W,58.0,162.2,010810,,,A*46
$GPRMC,171138.0,A,3258.804533,N,11715.201531,W,57.3,161.9,010810,,,A*45
$GPRMC,171141.0,A,3258.759301,N,11715.184170,W,56.7,162.1,010810,,,A*4A
$GPRMC,171144.0,A,3258.714365,N,11715.167252,W,56.0,162.4,010810,,,A*48
$GPRMC,171147.0,A,3258.670059,N,11715.150666,W,55.3,162.2,010810,,,A*45
$GPRMC,171150.0,A,3258.626363,N,11715.133859,W,54.7,162.0,010810,,,A*4A
$GPRMC,171153.0,A,3258.583218,N,11715.117524,W,54.3,162.4,010810,,,A*49
$GPRMC,171156.0,A,3258.539092,N,11715.100918,W,56.1,162.3,010810,,,A*4F
$GPRMC,171159.0,A,3258.494313,N,11715.084201,W,56.6,162.4,010810,,,A*42
$GPRMC,171202.0,A,3258.448882,N,11715.067288,W,57.6,162.5,010810,,,A*41
$GPRMC,171205.0,A,3258.403212,N,11715.049912,W,57.6,162.2,010810,,,A*49
$GPRMC,171208.0,A,3258.356768,N,11715.032346,W,59.2,162.2,010810,,,A*46
$GPRMC,171211.0,A,3258.308981,N,11715.014427,W,60.7,162.3,010810,,,A*46
$GPRMC,171214.0,A,3258.260171,N,11714.996171,W,61.8,162.5,010810,,,A*47
$GPRMC,171217.0,A,3258.210815,N,11714.977639,W,62.0,162.4,010810,,,A*46
$GPRMC,171220.0,A,3258.161245,N,11714.959046,W,62.3,162.5,010810,,,A*48
$GPRMC,171223.0,A,3258.111781,N,11714.940755,W,62.1,162.4,010810,,,A*4F
$GPRMC,171226.0,A,3258.062367,N,11714.922348,W,61.9,162.7,010810,,,A*47
$GPRMC,171229.0,A,3258.013311,N,11714.904047,W,61.0,162.5,010810,,,A*4C
$GPRMC,171232.0,A,3257.964991,N,11714.885942,W,60.4,162.4,010810,,,A*42
$GPRMC,171235.0,A,3257.917123,N,11714.867696,W,60.3,162.5,010810,,,A*4C
$GPRMC,171238.0,A,3257.868987,N,11714.849637,W,60.1,162.3,010810,,,A*4D
$GPRMC,171241.0,A,3257.821459,N,11714.831814,W,59.0,162.4,010810,,,A*4C
$GPRMC,171244.0,A,3257.775025,N,11714.814362,W,57.5,162.3,010810,,,A*49
$GPRMC,171247.0,A,3257.729463,N,11714.797213,W,57.2,162.7,010810,,,A*45
$GPRMC,171250.0,A,3257.683771,N,11714.780265,W,57.4,163.0,010810,,,A*45
$GPRMC,171253.0,A,3257.637669,N,11714.765057,W,57.2,165.6,010810,,,A*4F
$GPRMC,171256.0,A,3257.590815,N,11714.751991,W,57.8,167.1,010810,,,A*4A
$GPRMC,171259.0,A,3257.543395,N,11714.739609,W,58.2,168.4,010810,,,A*47
$GPRMC,171302.0,A,3257.495530,N,11714.728947,W,58.1,170.2,010810,,,A*42
$GPRMC,171305.0,A,3257.447942,N,11714.719744,W,57.2,171.3,010810,,,A*40
$GPRMC,171308.0,A,3257.400630,N,11714.711124,W,57.2,171.2,010810,,,A*4D
$GPRMC,171311.0,A,3257.353585,N,11714.702424,W,56.6,171.1,010810,,,A*48
$GPRMC,171314.0,A,3257.307118,N,11714.693804,W,55.9,171.3,010810,,,A*45
$GPRMC,171317.0,A,3257.261036,N,11714.685631,W,55.4,171.4,010810,,,A*4F
$GPRMC,171320.0,A,3257.215261,N,11714.677243,W,55.0,170.9,010810,,,A*4C
$GPRMC,171323.0,A,3257.170004,N,11714.668739,W,54.6,171.2,010810,,,A*45
$GPRMC,171326.0,A,3257.124920,N,11714.660305,W,54.7,170.8,010810,,,A*47
$GPRMC,171329.0,A,3257.079318,N,11714.651539,W,55.7,170.9,010810,,,A*4B
$GPRMC,171332.0,A,3257.032784,N,11714.643155,W,56.6,171.0,010810,,,A*48
$GPRMC,171335.0,A,3256.985900,N,11714.634324,W,57.3,171.0,010810,,,A*49
$GPRMC,171338.0,A,3256.938085,N,11714.625121,W,58.2,170.7,010810,,,A*49
$GPRMC,171341.0,A,3256.889539,N,11714.615465,W,59.1,170.4,010810,,,A*49
$GPRMC,171344.0,A,3256.840738,N,11714.606181,W,59.0,170.8,010810,,,A*4A
$GPRMC,171347.0,A,3256.792333,N,11714.596943,W,58.3,171.0,010810,,,A*41
$GPRMC,171350.0,A,3256.744114,N,11714.587573,W,58.8,170.8,010810,,,A*46
$GPRMC,171353.0,A,3256.695328,N,11714.578300,W,59.3,170.8,010810,,,A*4D
$GPRMC,171356.0,A,3256.646417,N,11714.568759,W,59.4,170.6,010810,,,A*4D
$GPRMC,171359.0,A,3256.597434,N,11714.559365,W,59.4,171.1,010810,,,A*43
$GPRMC,171402.0,A,3256.548274,N,11714.550337,W,59.5,171.1,010810,,,A*45
$GPRMC,171405.0,A,3256.499086,N,11714.541345,W,59.5,171.2,010810,,,A*46
$GPRMC,171408.0,A,3256.450226,N,11714.532469,W,58.9,171.1,010810,,,A*45
$GPRMC,171411.0,A,3256.401408,N,11714.523748,W,58.8,171.7,010810,,,A*44
$GPRMC,171414.0,A,3256.353211,N,11714.516280,W,58.0,173.3,010810,,,A*46
$GPRMC,171417.0,A,3256.305308,N,11714.510743,W,57.5,175.2,010810,,,A*4E
$GPRMC,171420.0,A,3256.257016,N,11714.506609,W,58.6,176.3,010810,,,A*46
$GPRMC,171423.0,A,3256.207635,N,11714.502903,W,59.5,176.3,010810,,,A*44
$GPRMC,171426.0,A,3256.158196,N,11714.499262,W,59.3,176.3,010810,,,A*4F
$GPRMC,171429.0,A,3256.108475,N,11714.495510,W,60.2,176.3,010810,,,A*48
$GPRMC,171432.0,A,3256.057814,N,11714.491698,W,61.1,176.0,010810,,,A*44
$GPRMC,171435.0,A,3256.006537,N,11714.487463,W,62.1,175.4,010810,,,A*4E
$GPRMC,171438.0,A,3255.954357,N,11714.482233,W,63.4,174.6,010810,,,A*4F
$GPRMC,171441.0,A,3255.900867,N,11714.475620,W,65.0,173.0,010810,,,A*45
$GPRMC,171444.0,A,3255.846817,N,11714.466658,W,65.6,171.2,010810,,,A*4F
$GPRMC,171447.0,A,3255.794282,N,11714.456298,W,63.3,169.2,010810,,,A*4B
$GPRMC,171450.0,A,3255.743493,N,11714.443861,W,60.6,168.0,010810,,,A*4C
$GPRMC,171453.0,A,3255.695560,N,11714.431323,W,58.3,166.5,010810,,,A*45
$GPRMC,171456.0,A,3255.648331,N,11714.416980,W,59.2,164.9,010810,,,A*4A
$GPRMC,171459.0,A,3255.600306,N,11714.401319,W,60.5,164.1,010810,,,A*44
$GPRMC,171502.0,A,3255.551244,N,11714.384984,W,61.7,164.3,010810,,,A*4E
$GPRMC,171505.0,A,3255.501850,N,11714.367543,W,61.2,163.2,010810,,,A*4A
$GPRMC,171508.0,A,3255.453555,N,11714.350867,W,59.1,164.0,010810,,,A*4B
$GPRMC,171511.0,A,3255.407172,N,11714.334743,W,57.0,162.9,010810,,,A*48
$GPRMC,171514.0,A,3255.362198,N,11714.316543,W,57.2,159.5,010810,,,A*49
$GPRMC,171517.0,A,3255.317758,N,11714.294877,W,58.1,155.7,010810,,,A*41
$GPRMC,171520.0,A,3255.273922,N,11714.269465,W,58.6,152.7,010810,,,A*48
$GPRMC,171523.0,A,3255.231672,N,11714.241609,W,57.8,149.6,010810,,,A*4F
$GPRMC,171526.0,A,3255.190690,N,11714.211031,W,58.3,146.2,010810,,,A*49
$GPRMC,171529.0,A,3255.151181,N,11714.176889,W,57.9,142.7,010810,,,A*41
$GPRMC,171532.0,A,3255.114548,N,11714.140628,W,56.2,138.9,010810,,,A*42
$GPRMC,171535.0,A,3255.080214,N,11714.103086,W,55.6,137.3,010810,,,A*40
$GPRMC,171538.0,A,3255.048056,N,11714.062511,W,56.1,132.9,010810,,,A*4B
$GPRMC,171541.0,A,3255.017189,N,11714.020055,W,56.2,130.2,010810,,,A*45
$GPRMC,171544.0,A,3254.987236,N,11713.977599,W,55.9,130.2,010810,,,A*47
$GPRMC,171547.0,A,3254.957131,N,11713.934796,W,56.4,130.6,010810,,,A*4D
$GPRMC,171550.0,A,3254.927243,N,11713.892682,W,54.7,128.6,010810,,,A*4B
$GPRMC,171553.0,A,3254.890704,N,11713.857236,W,56.4,141.8,010810,,,A*41
$GPRMC,171556.0,A,3254.852575,N,11713.824808,W,55.5,147.2,010810,,,A*43
$GPRMC,171559.0,A,3254.812732,N,11713.797339,W,54.4,151.4,010810,,,A*46
$GPRMC,171602.0,A,3254.772743,N,11713.772289,W,54.2,151.7,010810,,,A*40
$GPRMC,171605.0,A,3254.732681,N,11713.747510,W,54.0,152.3,010810,,,A*48
$GPRMC,171608.0,A,3254.692063,N,11713.722148,W,55.0,152.0,010810,,,A*4C
$GPRMC,171611.0,A,3254.650957,N,11713.696429,W,56.1,152.9,010810,,,A*43
$GPRMC,171614.0,A,3254.608898,N,11713.671279,W,55.4,153.1,010810,,,A*4C
$GPRMC,171617.0,A,3254.567257,N,11713.645977,W,55.7,152.8,010810,,,A*45
$GPRMC,171620.0,A,3254.527029,N,11713.621722,W,54.0,153.3,010810,,,A*4E
$GPRMC,171623.0,A,3254.487057,N,11713.597225,W,53.9,152.6,010810,,,A*49
$GPRMC,171626.0,A,3254.446615,N,11713.573009,W,53.8,153.7,010810,,,A*46
$GPRMC,171629.0,A,3254.405243,N,11713.550056,W,55.1,155.6,010810,,,A*4A
$GPRMC,171632.0,A,3254.362865,N,11713.527586,W,56.2,156.2,010810,,,A*47
$GPRMC,171635.0,A,3254.319589,N,11713.505659,W,55.8,158.5,010810,,,A*42
$GPRMC,171638.0,A,3254.275796,N,11713.488550,W,54.4,164.2,010810,,,A*43
$GPRMC,171641.0,A,3254.230941,N,11713.475177,W,55.4,168.6,010810,,,A*42
$GPRMC,171644.0,A,3254.184751,N,11713.467302,W,55.5,173.9,010810,,,A*43
$GPRMC,171647.0,A,3254.138938,N,11713.464330,W,54.5,179.0,010810,,,A*46
$GPRMC,171650.0,A,3254.093376,N,11713.466708,W,54.7,185.3,010810,,,A*4F
$GPRMC,171653.0,A,3254.047996,N,11713.474368,W,54.9,189.7,010810,,,A*46
$GPRMC,171656.0,A,3254.003284,N,11713.485859,W,54.8,194.2,010810,,,A*44
$GPRMC,171659.0,A,3253.959025,N,11713.501847,W,55.3,197.6,010810,,,A*4C
$GPRMC,171702.0,A,3253.914557,N,11713.519006,W,56.0,197.7,010810,,,A*4F
$GPRMC,171705.0,A,3253.869828,N,11713.536342,W,56.3,198.0,010810,,,A*43
$GPRMC,171708.0,A,3253.824910,N,11713.554095,W,57.0,198.3,010810,,,A*41
$GPRMC,171711.0,A,3253.779382,N,11713.571742,W,57.3,197.9,010810,,,A*43
$GPRMC,171714.0,A,3253.734557,N,11713.589429,W,55.1,198.6,010810,,,A*48
$GPRMC,171717.0,A,3253.691284,N,11713.606493,W,54.1,198.1,010810,,,A*4F
$GPRMC,171720.0,A,3253.647809,N,11713.621968,W,54.2,195.2,010810,,,A*4E
$GPRMC,171723.0,A,3253.603291,N,11713.634294,W,54.7,191.1,010810,,,A*48
$GPRMC,171726.0,A,3253.557966,N,11713.642779,W,54.7,187.3,010810,,,A*4E
$GPRMC,171729.0,A,3253.512845,N,11713.649015,W,54.9,187.1,010810,,,A*4A
$GPRMC,171732.0,A,3253.469242,N,11713.654532,W,50.7,185.9,010810,,,A*4C
$GPRMC,171735.0,A,3253.428531,N,11713.660094,W,47.9,187.3,010810,,,A*43
$GPRMC,171738.0,A,3253.389369,N,11713.666863,W,46.3,188.8,010810,,,A*40
$GPRMC,171741.0,A,3253.353499,N,11713.674105,W,40.7,190.2,010810,,,A*4A
$GPRMC,171744.0,A,3253.323130,N,11713.682353,W,34.0,195.8,010810,,,A*4D
$GPRMC,171747.0,A,3253.299591,N,11713.691270,W,26.5,198.1,010810,,,A*41
$GPRMC,171750.0,A,3253.280926,N,11713.698859,W,22.9,198.8,010810,,,A*46
$GPRMC,171753.0,A,3253.262889,N,11713.707081,W,23.5,204.4,010810,,,A*40
$GPRMC,171756.0,A,3253.249358,N,11713.712850,W,13.0,198.6,010810,,,A*49
$GPRMC,171759.0,A,3253.243205,N,11713.715575,W,5.6,200.3,010810,,,A*7E
$GPRMC,171802.0,A,3253.236755,N,11713.717049,W,10.1,174.8,010810,,,A*4D
$GPRMC,171805.0,A,3253.229551,N,11713.708711,W,14.6,114.1,010810,,,A*4A
$GPRMC,171808.0,A,3253.225650,N,11713.691028,W,21.3,104.4,010810,,,A*42
$GPRMC,171811.0,A,3253.221117,N,11713.667783,W,26.1,103.8,010810,,,A*4B
$GPRMC,171814.0,A,3253.216012,N,11713.639791,W,30.8,101.7,010810,,,A*45
$GPRMC,171817.0,A,3253.211285,N,11713.607710,W,33.9,99.2,010810,,,A*7E
$GPRMC,171820.0,A,3253.207118,N,11713.572361,W,37.5,97.5,010810,,,A*78
$GPRMC,171823.0,A,3253.202868,N,11713.533043,W,40.9,98.2,010810,,,A*72
$GPRMC,171826.0,A,3253.196134,N,11713.491874,W,42.2,104.9,010810,,,A*4A
$GPRMC,171829.0,A,3253.182689,N,11713.451098,W,42.8,116.8,010810,,,A*4F
$GPRMC,171832.0,A,3253.162726,N,11713.413882,W,43.5,128.0,010810,,,A*43
$GPRMC,171835.0,A,3253.137195,N,11713.383783,W,41.9,142.0,010810,,,A*48
$GPRMC,171838.0,A,3253.106955,N,11713.361775,W,42.4,152.6,010810,,,A*4F
$GPRMC,171841.0,A,3253.074882,N,11713.341639,W,43.7,152.0,010810,,,A*41
$GPRMC,171844.0,A,3253.041803,N,11713.320556,W,45.9,152.5,010810,,,A*4B
$GPRMC,171847.0,A,3253.008251,N,11713.298654,W,45.2,149.9,010810,,,A*46
$GPRMC,171850.0,A,3252.977953,N,11713.275093,W,41.2,144.2,010810,,,A*45
$GPRMC,171853.0,A,3252.953773,N,11713.252381,W,33.0,140.2,010810,,,A*4A
$GPRMC,171856.0,A,3252.937239,N,11713.234699,W,21.2,137.7,010810,,,A*4E
$GPRMC,171859.0,A,3252.929934,N,11713.226421,W,6.2,143.4,010810,,,A*7F
$GPRMC,171911.0,A,3252.929261,N,11713.225566,W,7.5,132.1,010810,,,A*7D
$GPRMC,171914.0,A,3252.920407,N,11713.215025,W,19.3,132.6,010810,,,A*48
$GPRMC,171917.0,A,3252.907743,N,11713.198072,W,26.0,129.6,010810,,,A*4C
$GPRMC,171920.0,A,3252.892440,N,11713.175441,W,30.6,129.0,010810,,,A*45
$GPRMC,171923.0,A,3252.876163,N,11713.147197,W,36.4,121.7,010810,,,A*4C
$GPRMC,171926.0,A,3252.860276,N,11713.114417,W,39.2,118.9,010810,,,A*4F
$GPRMC,171929.0,A,3252.843632,N,11713.079676,W,39.9,119.8,010810,,,A*41
$GPRMC,171932.0,A,3252.826663,N,11713.044089,W,41.8,119.6,010810,,,A*44
$GPRMC,171935.0,A,3252.809039,N,11713.007201,W,42.8,119.4,010810,,,A*43
$GPRMC,171938.0,A,3252.791532,N,11712.969889,W,42.6,119.2,010810,,,A*4C
$GPRMC,171941.0,A,3252.773910,N,11712.934177,W,39.8,122.1,010810,,,A*4B
$GPRMC,171944.0,A,3252.754322,N,11712.903776,W,37.9,133.4,010810,,,A*49
$GPRMC,171947.0,A,3252.729206,N,11712.879199,W,39.3,146.1,010810,,,A*4F
$GPRMC,171950.0,A,3252.700067,N,11712.860606,W,39.6,157.6,010810,,,A*4C
$GPRMC,171953.0,A,3252.668479,N,11712.849281,W,39.3,168.8,010810,,,A*4C
$GPRMC,171956.0,A,3252.634932,N,11712.845856,W,39.4,178.2,010810,,,A*42
$GPRMC,171959.0,A,3252.600465,N,11712.846685,W,41.1,179.8,010810,,,A*47
$GPRMC,172002.0,A,3252.564854,N,11712.847173,W,40.9,178.8,010810,,,A*4B
$GPRMC,172005.0,A,3252.534636,N,11712.846776,W,30.3,179.3,010810,,,A*46
$GPRMC,172008.0,A,3252.517110,N,11712.846801,W,13.9,181.0,010810,,,A*49
$GPRMC,172029.0,A,3252.512900,N,11712.847274,W,7.7,179.3,010810,,,A*70
$GPRMC,172032.0,A,3252.500722,N,11712.847495,W,18.7,180.2,010810,,,A*47
$GPRMC,172035.0,A,3252.481845,N,11712.847807,W,25.2,180.2,010810,,,A*4A
$GPRMC,172038.0,A,3252.458364,N,11712.848104,W,30.1,180.3,010810,,,A*48
$GPRMC,172041.0,A,3252.432774,N,11712.848551,W,30.4,181.0,010810,,,A*4C
$GPRMC,172044.0,A,3252.407241,N,11712.849145,W,30.2,179.7,010810,,,A*4A
$GPRMC,172047.0,A,3252.383599,N,11712.848989,W,24.6,175.2,010810,,,A*41
$GPRMC,172050.0,A,3252.369507,N,11712.847369,W,11.0,177.2,010810,,,A*4D
$GPRMC,172141.0,A,3252.361237,N,11712.846736,W,7.7,173.8,010810,,,A*71
$GPRMC,172144.0,A,3252.352652,N,11712.842129,W,13.9,137.0,010810,,,A*4C
$GPRMC,172147.0,A,3252.349725,N,11712.827092,W,18.2,85.8,010810,,,A*76
$GPRMC,172150.0,A,3252.355124,N,11712.805924,W,24.9,71.7,010810,,,A*7E
$GPRMC,172153.0,A,3252.362594,N,11712.779939,W,29.8,71.8,010810,,,A*7D
$GPRMC,172156.0,A,3252.370732,N,11712.750488,W,32.3,71.9,010810,,,A*79
$GPRMC,172159.0,A,3252.379590,N,11712.719317,W,33.4,71.8,010810,,,A*7E
$GPRMC,172202.0,A,3252.388042,N,11712.688770,W,31.0,72.5,010810,,,A*73
$GPRMC,172205.0,A,3252.395731,N,11712.660768,W,28.2,71.7,010810,,,A*7F
$GPRMC,172208.0,A,3252.402777,N,11712.635602,W,25.0,72.4,010810,,,A*7B
$GPRMC,172211.0,A,3252.408822,N,11712.614731,W,18.5,71.2,010810,,,A*7A
$GPRMC,172214.0,A,3252.412597,N,11712.602335,W,9.1,72.3,010810,,,A*46
$GPRMC,172241.0,A,3252.415868,N,11712.590365,W,10.5,76.3,010810,,,A*79
$GPRMC,172244.0,A,3252.419321,N,11712.573809,W,21.6,77.3,010810,,,A*7A
$GPRMC,172247.0,A,3252.423382,N,11712.550067,W,26.0,79.5,010810,,,A*71
$GPRMC,172250.0,A,3252.426910,N,11712.524363,W,26.5,82.4,010810,,,A*77
$GPRMC,172253.0,A,3252.428977,N,11712.500449,W,23.5,83.5,010810,,,A*77
$GPRMC,172256.0,A,3252.431579,N,11712.479910,W,18.5,80.4,010810,,,A*7C
$GPRMC,172259.0,A,3252.433618,N,11712.466045,W,11.3,79.0,010810,,,A*7F
$GPRMC,172302.0,A,3252.435419,N,11712.450721,W,19.9,82.8,010810,,,A*7B
$GPRMC,172305.0,A,3252.438089,N,11712.425771,W,28.5,84.0,010810,,,A*7B
$GPRMC,172308.0,A,3252.441655,N,11712.393771,W,34.4,82.1,010810,,,A*7E
$GPRMC,172311.0,A,3252.445804,N,11712.358612,W,36.1,81.7,010810,,,A*79
$GPRMC,172314.0,A,3252.450670,N,11712.322166,W,37.7,80.2,010810,,,A*7F
$GPRMC,172317.0,A,3252.456295,N,11712.284141,W,39.0,80.6,010810,,,A*70
$GPRMC,172320.0,A,3252.462053,N,11712.245024,W,39.2,79.0,010810,,,A*76
$GPRMC,172323.0,A,3252.469582,N,11712.206883,W,37.2,79.7,010810,,,A*7C
$GPRMC,172326.0,A,3252.474792,N,11712.171327,W,35.8,81.1,010810,,,A*79
$GPRMC,172329.0,A,3252.478478,N,11712.136676,W,34.2,84.2,010810,,,A*72
$GPRMC,172332.0,A,3252.477556,N,11712.102986,W,35.2,97.5,010810,,,A*79
$GPRMC,172335.0,A,3252.467520,N,11712.068416,W,38.6,113.6,010810,,,A*40
$GPRMC,172338.0,A,3252.453750,N,11712.031094,W,42.4,113.6,010810,,,A*42
$GPRMC,172341.0,A,3252.438801,N,11711.991218,W,44.4,115.7,010810,,,A*4D
$GPRMC,172344.0,A,3252.418976,N,11711.953274,W,44.4,126.8,010810,,,A*40
$GPRMC,172347.0,A,3252.392430,N,11711.920675,W,46.1,138.3,010810,,,A*4B
$GPRMC,172350.0,A,3252.361986,N,11711.890540,W,48.2,140.3,010810,,,A*4C
$GPRMC,172353.0,A,3252.330078,N,11711.859545,W,49.7,140.3,010810,,,A*47
$GPRMC,172356.0,A,3252.297837,N,11711.827449,W,50.4,139.1,010810,,,A*4E
$GPRMC,172359.0,A,3252.265871,N,11711.794574,W,50.3,138.4,010810,,,A*45
$GPRMC,172402.0,A,3252.234127,N,11711.761387,W,50.6,138.6,010810,,,A*45
$GPRMC,172405.0,A,3252.202348,N,11711.728235,W,50.5,139.0,010810,,,A*4D
$GPRMC,172408.0,A,3252.170381,N,11711.695781,W,50.4,139.5,010810,,,A*4A
$GPRMC,172411.0,A,3252.137807,N,11711.663404,W,50.7,140.0,010810,,,A*4B
$GPRMC,172414.0,A,3252.104891,N,11711.631353,W,51.0,141.3,010810,,,A*47
$GPRMC,172417.0,A,3252.070866,N,11711.599373,W,52.8,141.4,010810,,,A*41
$GPRMC,172420.0,A,3252.035293,N,11711.565642,W,55.7,141.0,010810,,,A*4C
$GPRMC,172423.0,A,3251.998019,N,11711.530298,W,57.7,141.2,010810,,,A*41
$GPRMC,172426.0,A,3251.960004,N,11711.494078,W,58.5,140.9,010810,,,A*4B
$GPRMC,172429.0,A,3251.921805,N,11711.457581,W,58.8,141.2,010810,,,A*43
$GPRMC,172432.0,A,3251.883257,N,11711.421009,W,58.7,141.3,010810,,,A*47
$GPRMC,172435.0,A,3251.844799,N,11711.384684,W,58.5,141.2,010810,,,A*44
$GPRMC,172438.0,A,3251.806743,N,11711.348353,W,58.3,141.2,010810,,,A*41
$GPRMC,172441.0,A,3251.768296,N,11711.311711,W,59.2,141.1,010810,,,A*48
$GPRMC,172444.0,A,3251.729410,N,11711.274727,W,59.9,141.2,010810,,,A*4F
$GPRMC,172447.0,A,3251.690314,N,11711.237260,W,60.3,140.9,010810,,,A*47
$GPRMC,172450.0,A,3251.650511,N,11711.200230,W,60.6,143.2,010810,,,A*42
$GPRMC,172453.0,A,3251.608922,N,11711.165730,W,60.7,146.4,010810,,,A*47
$GPRMC,172456.0,A,3251.565440,N,11711.134373,W,60.4,150.4,010810,,,A*40
$GPRMC,172459.0,A,3251.521159,N,11711.106140,W,59.7,152.3,010810,,,A*4D
$GPRMC,172502.0,A,3251.476827,N,11711.079103,W,59.4,152.9,010810,,,A*46
$GPRMC,172505.0,A,3251.432688,N,11711.052831,W,58.4,152.8,010810,,,A*4B
$GPRMC,172508.0,A,3251.389191,N,11711.026156,W,58.8,152.4,010810,,,A*45
$GPRMC,172511.0,A,3251.345606,N,11710.999441,W,59.1,152.7,010810,,,A*40
$GPRMC,172514.0,A,3251.301544,N,11710.972701,W,60.0,152.7,010810,,,A*49
$GPRMC,172517.0,A,3251.256674,N,11710.945403,W,60.6,152.8,010810,,,A*45
$GPRMC,172520.0,A,3251.211572,N,11710.917844,W,60.6,152.2,010810,,,A*45
$GPRMC,172523.0,A,3251.166891,N,11710.889816,W,60.6,152.1,010810,,,A*47
$GPRMC,172526.0,A,3251.121694,N,11710.861578,W,61.7,152.2,010810,,,A*4A
$GPRMC,172529.0,A,3251.076024,N,11710.833233,W,61.7,152.6,010810,,,A*40
$GPRMC,172532.0,A,3251.030412,N,11710.805176,W,61.2,152.6,010810,,,A*4B
$GPRMC,172535.0,A,3250.984511,N,11710.777138,W,62.3,152.8,010810,,,A*45
$GPRMC,172538.0,A,3250.938382,N,11710.749252,W,61.5,152.8,010810,,,A*44
$GPRMC,172541.0,A,3250.892111,N,11710.720923,W,63.0,152.6,010810,,,A*48
$GPRMC,172544.0,A,3250.845888,N,11710.692478,W,61.5,152.5,010810,,,A*41
$GPRMC,172547.0,A,3250.801058,N,11710.665190,W,59.5,152.8,010810,,,A*4A
$GPRMC,172550.0,A,3250.757081,N,11710.638590,W,59.2,152.9,010810,,,A*4E
$GPRMC,172553.0,A,3250.712749,N,11710.611654,W,59.8,152.7,010810,,,A*4B
$GPRMC,172556.0,A,3250.668349,N,11710.584462,W,59.9,152.7,010810,,,A*4F
$GPRMC,172559.0,A,3250.624000,N,11710.557234,W,59.7,152.8,010810,,,A*4C
$GPRMC,172602.0,A,3250.579522,N,11710.530082,W,59.9,152.6,010810,,,A*41
$GPRMC,172605.0,A,3250.535281,N,11710.502763,W,59.5,152.5,010810,,,A*46
$GPRMC,172608.0,A,3250.491842,N,11710.476179,W,57.6,152.5,010810,,,A*43
$GPRMC,172611.0,A,3250.450117,N,11710.450380,W,55.6,152.5,010810,,,A*4D
$GPRMC,172614.0,A,3250.409623,N,11710.425631,W,53.6,152.9,010810,,,A*43
$GPRMC,172617.0,A,3250.370446,N,11710.401929,W,52.1,152.7,010810,,,A*40
$GPRMC,172620.0,A,3250.332413,N,11710.378579,W,51.2,152.6,010810,,,A*43
$GPRMC,172623.0,A,3250.294465,N,11710.355525,W,50.9,152.7,010810,,,A*41
$GPRMC,172626.0,A,3250.256827,N,11710.332517,W,50.7,152.7,010810,,,A*4E
$GPRMC,172629.0,A,3250.219141,N,11710.309383,W,51.0,152.4,010810,,,A*45
$GPRMC,172632.0,A,3250.181312,N,11710.286022,W,50.7,152.5,010810,,,A*40
$GPRMC,172635.0,A,3250.144315,N,11710.263200,W,49.3,152.7,010810,,,A*4E
$GPRMC,172638.0,A,3250.107002,N,11710.240755,W,50.5,152.7,010810,,,A*4B
$GPRMC,172641.0,A,3250.068906,N,11710.217561,W,51.8,152.6,010810,,,A*4A
$GPRMC,172644.0,A,3250.030214,N,11710.193974,W,51.9,152.8,010810,,,A*42
$GPRMC,172647.0,A,3249.991465,N,11710.170402,W,52.5,152.7,010810,,,A*4A
$GPRMC,172650.0,A,3249.952147,N,11710.146605,W,52.9,152.8,010810,,,A*45
$GPRMC,172653.0,A,3249.912560,N,11710.122424,W,53.3,152.6,010810,,,A*45
$GPRMC,172656.0,A,3249.872787,N,11710.098219,W,53.7,152.8,010810,,,A*4E
$GPRMC,172659.0,A,3249.832888,N,11710.073737,W,54.0,152.4,010810,,,A*45
$GPRMC,172702.0,A,3249.792630,N,11710.049200,W,54.4,152.6,010810,,,A*4C
$GPRMC,172705.0,A,3249.752331,N,11710.024497,W,54.3,152.4,010810,,,A*45
$GPRMC,172708.0,A,3249.712066,N,11709.999854,W,53.9,152.8,010810,,,A*48
$GPRMC,172711.0,A,3249.672167,N,11709.975644,W,53.6,152.5,010810,,,A*48
$GPRMC,172714.0,A,3249.631821,N,11709.950865,W,54.9,152.6,010810,,,A*40
$GPRMC,172717.0,A,3249.590788,N,11709.925946,W,55.3,152.9,010810,,,A*41
$GPRMC,172720.0,A,3249.549702,N,11709.901097,W,54.9,152.9,010810,,,A*4B
$GPRMC,172723.0,A,3249.509027,N,11709.876580,W,54.7,153.1,010810,,,A*49
$GPRMC,172726.0,A,3249.467554,N,11709.852028,W,56.0,153.6,010810,,,A*47
$GPRMC,172729.0,A,3249.425679,N,11709.827661,W,55.9,154.0,010810,,,A*40
$GPRMC,172732.0,A,3249.383492,N,11709.803275,W,56.2,154.0,010810,,,A*49
$GPRMC,172735.0,A,3249.341053,N,11709.778592,W,57.0,153.6,010810,,,A*46
$GPRMC,172738.0,A,3249.298230,N,11709.753456,W,57.2,153.7,010810,,,A*4A
$GPRMC,172741.0,A,3249.255339,N,11709.728366,W,57.1,153.8,010810,,,A*49
$GPRMC,172744.0,A,3249.212184,N,11709.703643,W,57.2,154.0,010810,,,A*4C
$GPRMC,172747.0,A,3249.169341,N,11709.679146,W,56.7,154.3,010810,,,A*42
$GPRMC,172750.0,A,3249.126545,N,11709.654528,W,57.2,154.0,010810,,,A*49
$GPRMC,172753.0,A,3249.083478,N,11709.629403,W,57.7,153.6,010810,,,A*4D
$GPRMC,172756.0,A,3249.040336,N,11709.604111,W,57.5,153.9,010810,,,A*4E
$GPRMC,172759.0,A,3248.997238,N,11709.579091,W,57.7,153.8,010810,,,A*4F
$GPRMC,172802.0,A,3248.953850,N,11709.553930,W,57.5,153.8,010810,,,A*4A
$GPRMC,172805.0,A,3248.911668,N,11709.528091,W,56.3,151.1,010810,,,A*4C
$GPRMC,172808.0,A,3248.871623,N,11709.499756,W,55.6,147.3,010810,,,A*4D
$GPRMC,172811.0,A,3248.833897,N,11709.468887,W,54.4,143.6,010810,,,A*4D
$GPRMC,172814.0,A,3248.798316,N,11709.435388,W,55.4,140.6,010810,,,A*4A
$GPRMC,172817.0,A,3248.761875,N,11709.399993,W,57.3,140.8,010810,,,A*4B
$GPRMC,172820.0,A,3248.724400,N,11709.363678,W,58.4,140.9,010810,,,A*46
$GPRMC,172823.0,A,3248.686609,N,11709.327287,W,58.5,140.8,010810,,,A*43
$GPRMC,172826.0,A,3248.648317,N,11709.290142,W,59.8,140.7,010810,,,A*4A
$GPRMC,172829.0,A,3248.609522,N,11709.252423,W,60.3,140.7,010810,,,A*4D
$GPRMC,172832.0,A,3248.569719,N,11709.214614,W,61.8,142.4,010810,,,A*47
$GPRMC,172835.0,A,3248.527431,N,11709.178957,W,61.8,145.6,010810,,,A*47
$GPRMC,172838.0,A,3248.482101,N,11709.146877,W,62.7,151.4,010810,,,A*47
$GPRMC,172841.0,A,3248.435086,N,11709.120795,W,62.3,157.4,010810,,,A*4A
$GPRMC,172844.0,A,3248.385720,N,11709.099794,W,63.2,161.9,010810,,,A*42
$GPRMC,172847.0,A,3248.335190,N,11709.082921,W,62.6,165.6,010810,,,A*43
$GPRMC,172850.0,A,3248.284707,N,11709.069377,W,61.8,167.5,010810,,,A*46
$GPRMC,172853.0,A,3248.234687,N,11709.056085,W,60.9,167.2,010810,,,A*42
$GPRMC,172856.0,A,3248.185394,N,11709.042914,W,60.4,167.2,010810,,,A*40
$GPRMC,172859.0,A,3248.136232,N,11709.029934,W,59.8,167.1,010810,,,A*40
$GPRMC,172902.0,A,3248.087889,N,11709.017235,W,59.3,167.3,010810,,,A*40
$GPRMC,172905.0,A,3248.039368,N,11709.004431,W,59.7,167.1,010810,,,A*40
$GPRMC,172908.0,A,3247.990319,N,11708.991914,W,60.2,168.4,010810,,,A*45
$GPRMC,172911.0,A,3247.940339,N,11708.982761,W,60.3,173.3,010810,,,A*40
$GPRMC,172914.0,A,3247.890000,N,11708.978254,W,60.3,177.2,010810,,,A*43
$GPRMC,172917.0,A,3247.839429,N,11708.978194,W,60.5,182.1,010810,,,A*4C
$GPRMC,172920.0,A,3247.788854,N,11708.981428,W,61.0,183.3,010810,,,A*48
$GPRMC,172923.0,A,3247.737788,N,11708.985361,W,61.8,183.1,010810,,,A*45
$GPRMC,172926.0,A,3247.685958,N,11708.989273,W,62.4,183.4,010810,,,A*4F
$GPRMC,172929.0,A,3247.633773,N,11708.992633,W,62.1,181.7,010810,,,A*44
$GPRMC,172932.0,A,3247.581922,N,11708.992175,W,61.8,177.2,010810,,,A*4D
$GPRMC,172935.0,A,3247.530313,N,11708.987045,W,61.9,173.2,010810,,,A*4B
$GPRMC,172938.0,A,3247.479250,N,11708.977203,W,61.7,168.5,010810,,,A*40
$GPRMC,172941.0,A,3247.429466,N,11708.962870,W,60.9,164.1,010810,,,A*45
$GPRMC,172944.0,A,3247.381166,N,11708.944086,W,60.5,160.0,010810,,,A*4C
$GPRMC,172947.0,A,3247.335208,N,11708.921320,W,59.2,155.2,010810,,,A*4E
$GPRMC,172950.0,A,3247.291477,N,11708.894449,W,59.1,150.2,010810,,,A*48
$GPRMC,172953.0,A,3247.249695,N,11708.863449,W,58.6,146.2,010810,,,A*49
$GPRMC,172956.0,A,3247.210183,N,11708.829694,W,57.9,142.9,010810,,,A*43
$GPRMC,172959.0,A,3247.173000,N,11708.793534,W,57.4,139.1,010810,,,A*4E
$GPRMC,173002.0,A,3247.138023,N,11708.753869,W,58.8,134.6,010810,,,A*46
$GPRMC,173005.0,A,3247.104611,N,11708.710377,W,60.3,130.5,010810,,,A*4D
$GPRMC,173008.0,A,3247.073142,N,11708.662520,W,62.0,126.1,010810,,,A*42
$GPRMC,173011.0,A,3247.043138,N,11708.611992,W,62.5,125.3,010810,,,A*41
$GPRMC,173014.0,A,3247.012840,N,11708.561203,W,62.9,125.6,010810,,,A*48
$GPRMC,173017.0,A,3246.981898,N,11708.510313,W,63.4,126.4,010810,,,A*47
$GPRMC,173020.0,A,3246.949973,N,11708.459664,W,63.6,127.7,010810,,,A*4A
$GPRMC,173023.0,A,3246.916549,N,11708.411178,W,62.6,132.2,010810,,,A*40
$GPRMC,173026.0,A,3246.880470,N,11708.367013,W,61.7,136.1,010810,,,A*4F
$GPRMC,173029.0,A,3246.842203,N,11708.326714,W,61.2,140.8,010810,,,A*44
$GPRMC,173032.0,A,3246.801100,N,11708.289991,W,62.1,145.3,010810,,,A*40
$GPRMC,173035.0,A,3246.757299,N,11708.256477,W,62.9,148.3,010810,,,A*4A
$GPRMC,173038.0,A,3246.711911,N,11708.223717,W,64.0,148.6,010810,,,A*43
$GPRMC,173041.0,A,3246.666173,N,11708.190832,W,63.9,148.5,010810,,,A*4E
$GPRMC,173044.0,A,3246.620959,N,11708.158011,W,63.2,148.4,010810,,,A*4E
$GPRMC,173047.0,A,3246.576021,N,11708.125453,W,63.1,148.6,010810,,,A*42
$GPRMC,173050.0,A,3246.531151,N,11708.092934,W,62.8,148.6,010810,,,A*48
$GPRMC,173053.0,A,3246.486402,N,11708.060723,W,62.6,148.7,010810,,,A*4F
$GPRMC,173056.0,A,3246.441373,N,11708.028350,W,63.4,148.3,010810,,,A*4B
$GPRMC,173059.0,A,3246.396357,N,11707.995560,W,62.9,148.4,010810,,,A*41
$GPRMC,173102.0,A,3246.352239,N,11707.963172,W,62.1,148.3,010810,,,A*4E
$GPRMC,173105.0,A,3246.308232,N,11707.931147,W,61.7,148.5,010810,,,A*4F
$GPRMC,173108.0,A,3246.264529,N,11707.899599,W,61.1,148.5,010810,,,A*46
$GPRMC,173111.0,A,3246.221444,N,11707.868373,W,60.2,148.8,010810,,,A*46
$GPRMC,173114.0,A,3246.178238,N,11707.838601,W,59.6,150.8,010810,,,A*43
$GPRMC,173117.0,A,3246.134570,N,11707.810910,W,58.7,152.5,010810,,,A*49
$GPRMC,173120.0,A,3246.090910,N,11707.785287,W,58.0,154.4,010810,,,A*4E
$GPRMC,173123.0,A,3246.047207,N,11707.761524,W,57.1,156.2,010810,,,A*44
$GPRMC,173126.0,A,3246.003876,N,11707.739692,W,55.9,157.5,010810,,,A*42
$GPRMC,173129.0,A,3245.960801,N,11707.719712,W,54.9,159.0,010810,,,A*43
$GPRMC,173132.0,A,3245.918151,N,11707.701451,W,53.9,160.9,010810,,,A*43
$GPRMC,173135.0,A,3245.875839,N,11707.685101,W,53.1,162.5,010810,,,A*42
$GPRMC,173138.0,A,3245.833667,N,11707.670451,W,52.1,164.0,010810,,,A*40
$GPRMC,173141.0,A,3245.791910,N,11707.657255,W,51.2,165.6,010810,,,A*46
$GPRMC,173144.0,A,3245.750852,N,11707.645416,W,50.7,166.8,010810,,,A*42
$GPRMC,173147.0,A,3245.709341,N,11707.634302,W,51.8,167.2,010810,,,A*45
$GPRMC,173150.0,A,3245.666377,N,11707.622835,W,53.8,166.9,010810,,,A*4E
$GPRMC,173153.0,A,3245.621744,N,11707.610801,W,55.6,166.8,010810,,,A*45
$GPRMC,173156.0,A,3245.575974,N,11707.597544,W,57.3,165.5,010810,,,A*46
$GPRMC,173159.0,A,3245.529094,N,11707.582150,W,59.2,163.8,010810,,,A*46
$GPRMC,173202.0,A,3245.480867,N,11707.565503,W,60.9,163.8,010810,,,A*47
$GPRMC,173205.0,A,3245.431260,N,11707.548676,W,62.0,163.8,010810,,,A*42
$GPRMC,173208.0,A,3245.381067,N,11707.531345,W,62.9,163.6,010810,,,A*4A
$GPRMC,173211.0,A,3245.330318,N,11707.513638,W,63.3,163.9,010810,,,A*48
$GPRMC,173214.0,A,3245.279347,N,11707.495975,W,64.0,163.8,010810,,,A*47
$GPRMC,173217.0,A,3245.227912,N,11707.478092,W,64.2,163.4,010810,,,A*48
$GPRMC,173220.0,A,3245.176582,N,11707.460273,W,63.9,163.8,010810,,,A*4A
$GPRMC,173223.0,A,3245.125393,N,11707.442898,W,64.0,164.0,010810,,,A*47
$GPRMC,173226.0,A,3245.073731,N,11707.425235,W,64.3,163.7,010810,,,A*43
$GPRMC,173229.0,A,3245.022212,N,11707.407794,W,63.7,164.0,010810,,,A*41
$GPRMC,173232.0,A,3244.971986,N,11707.388553,W,63.1,159.6,010810,,,A*44
$GPRMC,173235.0,A,3244.923364,N,11707.363347,W,63.3,153.1,010810,,,A*4B
$GPRMC,173238.0,A,3244.877790,N,11707.332724,W,62.0,148.1,010810,,,A*44
$GPRMC,173241.0,A,3244.835465,N,11707.298662,W,60.6,144.4,010810,,,A*4A
$GPRMC,173244.0,A,3244.794279,N,11707.264021,W,60.4,145.0,010810,,,A*45
$GPRMC,173247.0,A,3244.753128,N,11707.229375,W,60.5,144.4,010810,,,A*45
$GPRMC,173250.0,A,3244.712080,N,11707.194710,W,60.4,144.8,010810,,,A*4A
$GPRMC,173253.0,A,3244.670816,N,11707.160290,W,60.4,144.7,010810,,,A*42
$GPRMC,173256.0,A,3244.629859,N,11707.125619,W,60.4,144.4,010810,,,A*47
$GPRMC,173259.0,A,3244.588622,N,11707.091205,W,60.3,145.2,010810,,,A*45
$GPRMC,173302.0,A,3244.547061,N,11707.057318,W,60.3,146.2,010810,,,A*4C
$GPRMC,173305.0,A,3244.504621,N,11707.025162,W,60.3,148.6,010810,,,A*4E
$GPRMC,173308.0,A,3244.461287,N,11706.994706,W,60.3,150.7,010810,,,A*47
$GPRMC,173311.0,A,3244.416804,N,11706.966733,W,60.3,152.8,010810,,,A*48
$GPRMC,173314.0,A,3244.371567,N,11706.940572,W,60.4,155.0,010810,,,A*48
$GPRMC,173317.0,A,3244.325384,N,11706.916729,W,60.3,157.4,010810,,,A*4F
$GPRMC,173320.0,A,3244.278475,N,11706.894892,W,60.4,159.5,010810,,,A*47
$GPRMC,173323.0,A,3244.231091,N,11706.874715,W,60.3,160.7,010810,,,A*46
$GPRMC,173326.0,A,3244.183449,N,11706.855484,W,60.4,160.8,010810,,,A*48
$GPRMC,173329.0,A,3244.135924,N,11706.836273,W,59.9,161.1,010810,,,A*48
$GPRMC,173332.0,A,3244.088771,N,11706.817474,W,59.7,161.0,010810,,,A*46
$GPRMC,173335.0,A,3244.041796,N,11706.797784,W,59.6,159.3,010810,,,A*4F
$GPRMC,173338.0,A,3243.996237,N,11706.773841,W,60.1,152.3,010810,,,A*42
$GPRMC,173341.0,A,3243.953889,N,11706.741991,W,60.2,143.4,010810,,,A*43
$GPRMC,173344.0,A,3243.916259,N,11706.702784,W,60.4,134.9,010810,,,A*46
$GPRMC,173347.0,A,3243.883537,N,11706.657688,W,59.6,127.2,010810,,,A*4A
$GPRMC,173350.0,A,3243.856550,N,11706.609503,W,57.7,122.6,010810,,,A*40
$GPRMC,173353.0,A,3243.830668,N,11706.562275,W,56.0,123.2,010810,,,A*40
$GPRMC,173356.0,A,3243.805288,N,11706.515489,W,56.6,122.4,010810,,,A*4D
$GPRMC,173359.0,A,3243.779811,N,11706.467551,W,58.1,122.5,010810,,,A*44
$GPRMC,173402.0,A,3243.753473,N,11706.418517,W,59.3,123.2,010810,,,A*42
$GPRMC,173405.0,A,3243.724294,N,11706.370473,W,59.8,128.4,010810,,,A*46
$GPRMC,173408.0,A,3243.690639,N,11706.326187,W,60.3,134.9,010810,,,A*4A
$GPRMC,173411.0,A,3243.653494,N,11706.285949,W,60.3,140.1,010810,,,A*41
$GPRMC,173414.0,A,3243.613082,N,11706.250745,W,59.8,146.4,010810,,,A*4B
$GPRMC,173417.0,A,3243.569856,N,11706.221012,W,60.0,152.6,010810,,,A*41
$GPRMC,173420.0,A,3243.524152,N,11706.196546,W,60.1,158.2,010810,,,A*45
$GPRMC,173423.0,A,3243.476651,N,11706.177923,W,60.0,164.5,010810,,,A*4D
$GPRMC,173426.0,A,3243.427582,N,11706.165234,W,60.0,170.1,010810,,,A*4E
$GPRMC,173429.0,A,3243.377683,N,11706.158611,W,59.9,176.2,010810,,,A*4A
$GPRMC,173432.0,A,3243.327457,N,11706.158063,W,60.1,181.5,010810,,,A*40
$GPRMC,173435.0,A,3243.277382,N,11706.161749,W,60.2,183.7,010810,,,A*4A
$GPRMC,173438.0,A,3243.227206,N,11706.165903,W,60.2,183.6,010810,,,A*4A
$GPRMC,173441.0,A,3243.177060,N,11706.170143,W,59.9,183.9,010810,,,A*46
$GPRMC,173444.0,A,3243.126960,N,11706.174277,W,60.3,183.6,010810,,,A*41
$GPRMC,173447.0,A,3243.077003,N,11706.178144,W,60.0,183.3,010810,,,A*42
$GPRMC,173450.0,A,3243.027149,N,11706.182047,W,60.0,182.5,010810,,,A*4E
$GPRMC,173453.0,A,3242.976956,N,11706.183032,W,60.1,178.0,010810,,,A*45
$GPRMC,173456.0,A,3242.926775,N,11706.178370,W,60.2,172.6,010810,,,A*44
$GPRMC,173459.0,A,3242.877411,N,11706.167361,W,60.2,166.3,010810,,,A*41
$GPRMC,173502.0,A,3242.829107,N,11706.150368,W,60.2,160.4,010810,,,A*4B
$GPRMC,173505.0,A,3242.782403,N,11706.127898,W,60.4,155.2,010810,,,A*41
$GPRMC,173508.0,A,3242.737981,N,11706.099865,W,60.4,149.3,010810,,,A*4F
$GPRMC,173511.0,A,3242.696086,N,11706.066774,W,60.4,143.5,010810,,,A*40
$GPRMC,173514.0,A,3242.656486,N,11706.029935,W,60.3,141.1,010810,,,A*4C
$GPRMC,173517.0,A,3242.617274,N,11705.992453,W,60.3,141.8,010810,,,A*4F
$GPRMC,173520.0,A,3242.577911,N,11705.955499,W,60.2,141.5,010810,,,A*47
$GPRMC,173523.0,A,3242.538832,N,11705.918117,W,60.0,141.3,010810,,,A*41
$GPRMC,173526.0,A,3242.499733,N,11705.880690,W,60.1,141.0,010810,,,A*4A
$GPRMC,173529.0,A,3242.460654,N,11705.843208,W,60.1,141.2,010810,,,A*4B
$GPRMC,173532.0,A,3242.420813,N,11705.806430,W,60.2,143.6,010810,,,A*41
$GPRMC,173535.0,A,3242.378913,N,11705.773313,W,60.0,149.2,010810,,,A*4A
$GPRMC,173538.0,A,3242.334624,N,11705.745663,W,59.9,155.6,010810,,,A*49
$GPRMC,173541.0,A,3242.288004,N,11705.724304,W,59.7,161.3,010810,,,A*4A
$GPRMC,173544.0,A,3242.240174,N,11705.707959,W,59.4,165.0,010810,,,A*4A
$GPRMC,173547.0,A,3242.190549,N,11705.698469,W,60.0,172.8,010810,,,A*44
$GPRMC,173550.0,A,3242.140537,N,11705.694682,W,59.6,178.9,010810,,,A*4A
$GPRMC,173553.0,A,3242.090243,N,11705.695487,W,60.0,180.8,010810,,,A*4D
$GPRMC,173556.0,A,3242.039815,N,11705.696609,W,60.2,180.2,010810,,,A*4D
$GPRMC,173559.0,A,3241.989667,N,11705.697428,W,60.0,180.6,010810,,,A*4E
$GPRMC,173602.0,A,3241.939461,N,11705.698620,W,59.9,180.4,010810,,,A*48
$GPRMC,173605.0,A,3241.889145,N,11705.699279,W,60.1,180.3,010810,,,A*4A
$GPRMC,173608.0,A,3241.838861,N,11705.700033,W,60.0,180.5,010810,,,A*48
$GPRMC,173611.0,A,3241.788655,N,11705.700758,W,60.0,180.5,010810,,,A*47
$GPRMC,173614.0,A,3241.738339,N,11705.701512,W,60.2,180.3,010810,,,A*4F
$GPRMC,173617.0,A,3241.687841,N,11705.702327,W,60.1,180.4,010810,,,A*4A
$GPRMC,173620.0,A,3241.637517,N,11705.702965,W,60.0,180.5,010810,,,A*47
$GPRMC,173623.0,A,3241.587185,N,11705.703725,W,60.0,180.5,010810,,,A*48
$GPRMC,173626.0,A,3241.537228,N,11705.703820,W,59.9,179.0,010810,,,A*48
$GPRMC,173629.0,A,3241.487309,N,11705.699857,W,60.2,173.1,010810,,,A*47
$GPRMC,173632.0,A,3241.437847,N,11705.689482,W,60.2,167.4,010810,,,A*42
$GPRMC,173635.0,A,3241.389638,N,11705.673505,W,60.0,162.0,010810,,,A*49
$GPRMC,173638.0,A,3241.342661,N,11705.652171,W,60.2,156.0,010810,,,A*4E
$GPRMC,173641.0,A,3241.298042,N,11705.624908,W,60.2,150.2,010810,,,A*42
$GPRMC,173644.0,A,3241.255611,N,11705.592566,W,60.3,144.8,010810,,,A*42
$GPRMC,173647.0,A,3241.216319,N,11705.555350,W,60.4,138.8,010810,,,A*4F
$GPRMC,173650.0,A,3241.180232,N,11705.513608,W,60.7,133.8,010810,,,A*4F
$GPRMC,173653.0,A,3241.145777,N,11705.469483,W,60.4,133.1,010810,,,A*46
$GPRMC,173656.0,A,3241.111426,N,11705.425689,W,60.3,133.1,010810,,,A*42
$GPRMC,173659.0,A,3241.077157,N,11705.381789,W,60.4,133.3,010810,,,A*42
$GPRMC,173702.0,A,3241.042147,N,11705.339032,W,60.0,135.6,010810,,,A*49
$GPRMC,173705.0,A,3241.004660,N,11705.299704,W,59.8,141.3,010810,,,A*43
$GPRMC,173708.0,A,3240.963891,N,11705.265405,W,59.7,147.5,010810,,,A*49
$GPRMC,173711.0,A,3240.920565,N,11705.236025,W,59.6,153.2,010810,,,A*43
$GPRMC,173714.0,A,3240.875260,N,11705.211412,W,59.9,156.9,010810,,,A*41
$GPRMC,173717.0,A,3240.829301,N,11705.188022,W,59.9,156.7,010810,,,A*47
$GPRMC,173720.0,A,3240.783425,N,11705.164440,W,60.1,156.4,010810,,,A*4E
$GPRMC,173723.0,A,3240.737326,N,11705.141019,W,60.2,156.5,010810,,,A*4B
$GPRMC,173726.0,A,3240.691226,N,11705.117070,W,60.2,156.4,010810,,,A*4F
$GPRMC,173729.0,A,3240.645043,N,11705.093303,W,60.3,156.6,010810,,,A*41
$GPRMC,173732.0,A,3240.598700,N,11705.069902,W,60.4,156.8,010810,,,A*4F
$GPRMC,173735.0,A,3240.552241,N,11705.046315,W,60.4,156.6,010810,,,A*41
$GPRMC,173738.0,A,3240.505932,N,11705.022648,W,60.3,157.0,010810,,,A*4E
$GPRMC,173741.0,A,3240.459227,N,11705.000027,W,60.4,158.4,010810,,,A*44
$GPRMC,173744.0,A,3240.412229,N,11704.978829,W,60.2,159.8,010810,,,A*4A
$GPRMC,173747.0,A,3240.365239,N,11704.959186,W,59.7,161.4,010810,,,A*48
$GPRMC,173750.0,A,3240.317918,N,11704.940884,W,59.7,161.9,010810,,,A*4D
$GPRMC,173753.0,A,3240.270500,N,11704.922704,W,59.8,162.1,010810,,,A*4C
$GPRMC,173756.0,A,3240.223128,N,11704.904453,W,59.9,161.8,010810,,,A*4F
$GPRMC,173759.0,A,3240.175568,N,11704.886087,W,60.0,161.9,010810,,,A*44
$GPRMC,173802.0,A,3240.127851,N,11704.867640,W,59.9,161.5,010810,,,A*48
$GPRMC,173805.0,A,3240.080278,N,11704.849002,W,60.0,161.7,010810,,,A*4F
$GPRMC,173808.0,A,3240.032597,N,11704.830636,W,60.0,161.9,010810,,,A*4C
$GPRMC,173811.0,A,3239.984843,N,11704.812274,W,60.2,162.1,010810,,,A*41
$GPRMC,173814.0,A,3239.936885,N,11704.794023,W,60.4,162.1,010810,,,A*40
$GPRMC,173817.0,A,3239.888859,N,11704.775486,W,60.2,161.4,010810,,,A*42
$GPRMC,173820.0,A,3239.842209,N,11704.756099,W,58.6,159.0,010810,,,A*44
$GPRMC,173823.0,A,3239.798075,N,11704.733538,W,57.2,154.6,010810,,,A*4B
$GPRMC,173826.0,A,3239.756422,N,11704.707738,W,55.7,150.3,010810,,,A*49
$GPRMC,173829.0,A,3239.717398,N,11704.678600,W,55.9,146.2,010810,,,A*4E
$GPRMC,173832.0,A,3239.678802,N,11704.645458,W,58.1,142.3,010810,,,A*45
$GPRMC,173835.0,A,3239.639944,N,11704.609816,W,58.8,142.5,010810,,,A*45
$GPRMC,173838.0,A,3239.601323,N,11704.574859,W,57.4,142.6,010810,,,A*4A
$GPRMC,173841.0,A,3239.563634,N,11704.540399,W,57.1,142.5,010810,,,A*46
$GPRMC,173844.0,A,3239.525778,N,11704.505763,W,57.2,142.4,010810,,,A*4A
$GPRMC,173847.0,A,3239.488316,N,11704.471092,W,56.7,141.7,010810,,,A*4C
$GPRMC,173850.0,A,3239.451210,N,11704.436597,W,56.3,142.3,010810,,,A*49
$GPRMC,173853.0,A,3239.413731,N,11704.402495,W,56.6,142.6,010810,,,A*4E
$GPRMC,173856.0,A,3239.376120,N,11704.368402,W,56.2,142.4,010810,,,A*4A
$GPRMC,173859.0,A,3239.338995,N,11704.334818,W,55.7,142.7,010810,,,A*42
$GPRMC,173902.0,A,3239.301981,N,11704.301188,W,56.6,142.3,010810,,,A*42
$GPRMC,173905.0,A,3239.263908,N,11704.266426,W,58.3,142.6,010810,,,A*4E
$GPRMC,173908.0,A,3239.224927,N,11704.231092,W,59.0,142.5,010810,,,A*45
$GPRMC,173911.0,A,3239.185725,N,11704.195586,W,58.8,142.5,010810,,,A*4D
$GPRMC,173914.0,A,3239.147579,N,11704.159904,W,57.3,140.4,010810,,,A*4C
$GPRMC,173917.0,A,3239.111927,N,11704.121788,W,58.0,135.9,010810,,,A*4D
$GPRMC,173920.0,A,3239.078154,N,11704.080021,W,58.6,131.6,010810,,,A*48
$GPRMC,173923.0,A,3239.046920,N,11704.035393,W,58.2,127.7,010810,,,A*4B
$GPRMC,173926.0,A,3239.019330,N,11703.989134,W,56.7,123.3,010810,,,A*42
$GPRMC,173929.0,A,3238.994713,N,11703.940935,W,57.5,119.4,010810,,,A*44
$GPRMC,173932.0,A,3238.972411,N,11703.890387,W,57.7,116.9,010810,,,A*48
$GPRMC,173935.0,A,3238.951052,N,11703.840161,W,56.0,116.7,010810,,,A*42
$GPRMC,173938.0,A,3238.930154,N,11703.790765,W,56.3,116.8,010810,,,A*43
$GPRMC,173941.0,A,3238.908224,N,11703.741389,W,56.5,119.4,010810,,,A*4D
$GPRMC,173944.0,A,3238.883541,N,11703.694638,W,55.1,124.6,010810,,,A*43
$GPRMC,173947.0,A,3238.855665,N,11703.651830,W,54.9,130.4,010810,,,A*4F
$GPRMC,173950.0,A,3238.823800,N,11703.612628,W,54.9,136.2,010810,,,A*45
$GPRMC,173953.0,A,3238.789194,N,11703.577067,W,54.7,141.6,010810,,,A*4A
$GPRMC,173956.0,A,3238.751762,N,11703.545675,W,55.2,146.6,010810,,,A*42
$GPRMC,173959.0,A,3238.712047,N,11703.518009,W,55.2,151.8,010810,,,A*47
$GPRMC,174002.0,A,3238.670874,N,11703.493905,W,55.2,154.6,010810,,,A*46
$GPRMC,174005.0,A,3238.629122,N,11703.470459,W,55.8,154.4,010810,,,A*46
$GPRMC,174008.0,A,3238.587154,N,11703.446596,W,56.1,154.2,010810,,,A*46
$GPRMC,174011.0,A,3238.544763,N,11703.422526,W,56.1,154.2,010810,,,A*4A
$GPRMC,174014.0,A,3238.502390,N,11703.398185,W,56.5,152.8,010810,,,A*46
$GPRMC,174017.0,A,3238.461526,N,11703.369655,W,57.2,145.6,010810,,,A*40
$GPRMC,174020.0,A,3238.423189,N,11703.335673,W,57.3,141.9,010810,,,A*44
$GPRMC,174023.0,A,3238.387881,N,11703.296959,W,57.9,134.9,010810,,,A*48
$GPRMC,174026.0,A,3238.355982,N,11703.254306,W,57.3,129.0,010810,,,A*41
$GPRMC,174029.0,A,3238.327630,N,11703.209130,W,56.9,125.0,010810,,,A*45
$GPRMC,174032.0,A,3238.300523,N,11703.162851,W,57.0,125.0,010810,,,A*43
$GPRMC,174035.0,A,3238.273657,N,11703.116986,W,55.6,124.9,010810,,,A*45
$GPRMC,174038.0,A,3238.247478,N,11703.072216,W,55.0,124.4,010810,,,A*4A
$GPRMC,174041.0,A,3238.221555,N,11703.027532,W,54.8,125.0,010810,,,A*47
$GPRMC,174044.0,A,3238.194345,N,11702.984206,W,54.1,128.7,010810,,,A*4A
$GPRMC,174047.0,A,3238.165367,N,11702.943878,W,53.1,131.8,010810,,,A*4F
$GPRMC,174050.0,A,3238.135232,N,11702.905908,W,52.6,134.1,010810,,,A*43
$GPRMC,174053.0,A,3238.103687,N,11702.868999,W,53.6,137.2,010810,,,A*4C
$GPRMC,174056.0,A,3238.069557,N,11702.834237,W,54.4,140.5,010810,,,A*4E
$GPRMC,174059.0,A,3238.033143,N,11702.800934,W,55.7,144.0,010810,,,A*43
$GPRMC,174102.0,A,3237.993903,N,11702.769653,W,57.1,147.5,010810,,,A*40
$GPRMC,174105.0,A,3237.952483,N,11702.740373,W,58.1,151.1,010810,,,A*4F
$GPRMC,174108.0,A,3237.909067,N,11702.714071,W,58.9,153.8,010810,,,A*41
$GPRMC,174111.0,A,3237.863656,N,11702.690203,W,59.6,157.9,010810,,,A*41
$GPRMC,174114.0,A,3237.817031,N,11702.668507,W,60.0,158.4,010810,,,A*4A
$GPRMC,174117.0,A,3237.770886,N,11702.646977,W,58.4,158.2,010810,,,A*4D
$GPRMC,174120.0,A,3237.726363,N,11702.626157,W,56.6,158.0,010810,,,A*48
$GPRMC,174123.0,A,3237.682499,N,11702.605567,W,56.9,158.2,010810,,,A*4D
$GPRMC,174126.0,A,3237.638112,N,11702.584666,W,57.7,158.1,010810,,,A*4B
$GPRMC,174129.0,A,3237.593181,N,11702.563167,W,58.3,157.6,010810,,,A*40
$GPRMC,174132.0,A,3237.547726,N,11702.542738,W,58.4,160.0,010810,,,A*42
$GPRMC,174135.0,A,3237.501732,N,11702.523627,W,58.4,160.9,010810,,,A*43
$GPRMC,174138.0,A,3237.455398,N,11702.505352,W,58.3,161.9,010810,,,A*4F
$GPRMC,174141.0,A,3237.409082,N,11702.488081,W,58.0,162.8,010810,,,A*48
$GPRMC,174144.0,A,3237.362734,N,11702.471370,W,58.2,162.6,010810,,,A*4A
$GPRMC,174147.0,A,3237.316430,N,11702.454019,W,57.9,162.0,010810,,,A*44
$GPRMC,174150.0,A,3237.270891,N,11702.436533,W,56.7,162.1,010810,,,A*43
$GPRMC,174153.0,A,3237.225730,N,11702.419338,W,57.0,162.0,010810,,,A*43
$GPRMC,174156.0,A,3237.179932,N,11702.401646,W,58.0,161.5,010810,,,A*4C
$GPRMC,174159.0,A,3237.133319,N,11702.383521,W,59.2,161.8,010810,,,A*4F
$GPRMC,174202.0,A,3237.086028,N,11702.365310,W,59.9,161.9,010810,,,A*4A
$GPRMC,174205.0,A,3237.038020,N,11702.346878,W,61.0,161.8,010810,,,A*47
$GPRMC,174208.0,A,3236.989073,N,11702.327717,W,62.0,161.5,010810,,,A*41
$GPRMC,174211.0,A,3236.939567,N,11702.308209,W,62.6,161.5,010810,,,A*43
$GPRMC,174214.0,A,3236.890223,N,11702.288943,W,61.7,161.7,010810,,,A*4F
$GPRMC,174217.0,A,3236.841885,N,11702.270204,W,60.4,161.7,010810,,,A*4B
$GPRMC,174220.0,A,3236.794239,N,11702.252200,W,59.5,163.1,010810,,,A*4E
$GPRMC,174223.0,A,3236.746978,N,11702.235935,W,58.0,164.9,010810,,,A*4B
$GPRMC,174226.0,A,3236.700725,N,11702.223151,W,56.3,167.4,010810,,,A*44
$GPRMC,174229.0,A,3236.655641,N,11702.212726,W,54.9,169.2,010810,,,A*4D
$GPRMC,174232.0,A,3236.610982,N,11702.204136,W,54.1,171.4,010810,,,A*41
$GPRMC,174235.0,A,3236.566314,N,11702.197618,W,53.8,173.7,010810,,,A*4C
$GPRMC,174238.0,A,3236.521567,N,11702.192861,W,54.2,175.4,010810,,,A*4D
$GPRMC,174241.0,A,3236.476664,N,11702.189642,W,53.5,177.1,010810,,,A*42
$GPRMC,174244.0,A,3236.431739,N,11702.188324,W,54.4,179.1,010810,,,A*41
$GPRMC,174247.0,A,3236.385873,N,11702.188365,W,55.4,180.0,010810,,,A*48
$GPRMC,174250.0,A,3236.339582,N,11702.188832,W,55.4,180.2,010810,,,A*41
$GPRMC,174253.0,A,3236.293181,N,11702.189119,W,55.5,180.0,010810,,,A*46
$GPRMC,174256.0,A,3236.247036,N,11702.189295,W,54.6,179.8,010810,,,A*4C
$GPRMC,174259.0,A,3236.201688,N,11702.189617,W,53.8,180.3,010810,,,A*48
$GPRMC,174302.0,A,3236.157226,N,11702.189280,W,53.4,177.9,010810,,,A*43
$GPRMC,174305.0,A,3236.114805,N,11702.189476,W,49.7,180.2,010810,,,A*4C
$GPRMC,174308.0,A,3236.073433,N,11702.190120,W,49.7,181.0,010810,,,A*45
$GPRMC,174311.0,A,3236.030650,N,11702.191407,W,52.4,180.7,010810,,,A*43
$GPRMC,174314.0,A,3235.986954,N,11702.192318,W,52.2,180.8,010810,,,A*49
$GPRMC,174317.0,A,3235.943729,N,11702.192619,W,51.1,179.9,010810,,,A*44
$GPRMC,174320.0,A,3235.902449,N,11702.193404,W,47.6,181.9,010810,,,A*48
$GPRMC,174323.0,A,3235.864522,N,11702.196658,W,44.1,185.2,010810,,,A*43
$GPRMC,174326.0,A,3235.829258,N,11702.200671,W,41.1,185.0,010810,,,A*45
$GPRMC,174329.0,A,3235.796319,N,11702.203392,W,38.6,182.7,010810,,,A*47
$GPRMC,174332.0,A,3235.765639,N,11702.205514,W,35.1,183.7,010810,,,A*43
$GPRMC,174335.0,A,3235.739123,N,11702.207838,W,30.0,185.1,010810,,,A*44
$GPRMC,174338.0,A,3235.720990,N,11702.208672,W,18.2,184.4,010810,,,A*42
$GPRMC,174341.0,A,3235.710364,N,11702.210050,W,9.9,184.6,010810,,,A*78
$GPRMC,174344.0,A,3235.703004,N,11702.211046,W,9.2,185.0,010810,,,A*70
$GPRMC,174347.0,A,3235.694728,N,11702.212032,W,11.8,179.0,010810,,,A*45
$GPRMC,174350.0,A,3235.685809,N,11702.206721,W,14.3,127.7,010810,,,A*4D
$GPRMC,174353.0,A,3235.682555,N,11702.189702,W,19.6,98.5,010810,,,A*77
$GPRMC,174356.0,A,3235.682311,N,11702.168756,W,20.9,92.4,010810,,,A*74
$GPRMC,174408.0,A,3235.690282,N,11702.152643,W,7.0,90.7,010810,,,A*41
$GPRMC,174411.0,A,3235.690587,N,11702.140196,W,17.2,89.5,010810,,,A*7E
$GPRMC,174414.0,A,3235.690727,N,11702.119863,W,22.6,89.7,010810,,,A*7C
$GPRMC,174417.0,A,3235.690979,N,11702.095009,W,27.2,89.4,010810,,,A*79
$GPRMC,174420.0,A,3235.690979,N,11702.066966,W,28.4,90.8,010810,,,A*7C
$GPRMC,174423.0,A,3235.690338,N,11702.039029,W,27.8,91.4,010810,,,A*76
$GPRMC,174426.0,A,3235.689883,N,11702.010494,W,29.6,91.0,010810,,,A*7D
$GPRMC,174429.0,A,3235.689875,N,11701.980148,W,31.4,89.5,010810,,,A*7B
$GPRMC,174432.0,A,3235.690096,N,11701.948294,W,32.2,89.6,010810,,,A*7C
$GPRMC,174435.0,A,3235.690255,N,11701.915815,W,33.4,89.1,010810,,,A*7D
$GPRMC,174438.0,A,3235.690851,N,11701.882522,W,33.0,89.1,010810,,,A*7C
$GPRMC,174441.0,A,3235.690971,N,11701.851085,W,30.1,90.6,010810,,,A*7A
$GPRMC,174444.0,A,3235.690712,N,11701.823405,W,25.8,90.5,010810,,,A*73
$GPRMC,174447.0,A,3235.690562,N,11701.800829,W,19.3,89.6,010810,,,A*79
$GPRMC,174450.0,A,3235.690406,N,11701.787537,W,8.4,88.0,010810,,,A*4E
$GPRMC,174502.0,A,3235.690126,N,11701.777313,W,7.3,90.5,010810,,,A*44
$GPRMC,174505.0,A,3235.690066,N,11701.765841,W,14.7,90.8,010810,,,A*72
$GPRMC,174508.0,A,3235.689993,N,11701.748918,W,19.7,90.5,010810,,,A*76
$GPRMC,174511.0,A,3235.689847,N,11701.726835,W,24.5,90.3,010810,,,A*7A
$GPRMC,174514.0,A,3235.689453,N,11701.700644,W,28.3,92.7,010810,,,A*76
$GPRMC,174517.0,A,3235.688203,N,11701.670268,W,32.5,92.1,010810,,,A*70
$GPRMC,174520.0,A,3235.687486,N,11701.636753,W,34.5,91.0,010810,,,A*7B
$GPRMC,174523.0,A,3235.686943,N,11701.602032,W,35.4,91.0,010810,,,A*7A
