NMEA Sentence Code,UTC Time,Status,Latitude,Latitude Direction,Longitude,Longitude Direction,Speed (knots),Track Angle (degrees true),Date,MagneticVariation,Magnetic Variation Direction,[FAA Mode]-Optional,Checksum
$GPRMC,010712.5,A,3254.3819,N,11711.3307,W,30.00,179.00,120210,,*2E
$GPRMC,010715.5,A,3254.3575,N,11711.3304,W,29.50,179.60,120210,,*26
$GPRMC,010718.5,A,3254.3326,N,11711.3304,W,28.60,179.00,120210,,*2F
$GPRMC,010721.5,A,3254.3105,N,11711.3292,W,25.60,177.10,120210,,*2A
$GPRMC,010724.5,A,3254.2932,N,11711.3288,W,17.90,178.40,120210,,*2D
$GPRMC,010727.5,A,3254.2820,N,11711.3321,W,11.90,207.30,120210,,*24
$GPRMC,010730.5,A,3254.2769,N,11711.3445,W,16.70,241.20,120210,,*2F
$GPRMC,010733.5,A,3254.2781,N,11711.3730,W,29.70,268.80,120210,,*26
$GPRMC,010736.5,A,3254.2778,N,11711.4056,W,33.00,268.60,120210,,*27
$GPRMC,010739.5,A,3254.2782,N,11711.4397,W,32.90,269.20,120210,,*2E
$GPRMC,010742.5,A,3254.2785,N,11711.4719,W,31.50,268.80,120210,,*23
$GPRMC,010745.5,A,3254.2770,N,11711.5039,W,32.50,264.00,120210,,*2D
$GPRMC,010748.5,A,3254.2726,N,11711.5343,W,29.90,256.60,120210,,*2C
$GPRMC,010751.5,A,3254.2659,N,11711.5618,W,27.80,253.60,120210,,*2C
$GPRMC,010754.5,A,3254.2593,N,11711.5874,W,26.80,251.50,120210,,*28
$GPRMC,010757.5,A,3254.2549,N,11711.6128,W,24.50,259.70,120210,,*2A
$GPRMC,010800.5,A,3254.2523,N,11711.6356,W,21.10,265.10,120210,,*28
$GPRMC,010803.5,A,3254.2514,N,11711.6562,W,21.50,270.00,120210,,*2F
$GPRMC,010806.5,A,3254.2524,N,11711.6776,W,23.10,273.20,120210,,*29
$GPRMC,010809.5,A,3254.2544,N,11711.7014,W,23.70,274.10,120210,,*20
$GPRMC,010812.5,A,3254.2560,N,11711.7239,W,22.30,273.60,120210,,*24
$GPRMC,010815.5,A,3254.2573,N,11711.7462,W,21.00,273.20,120210,,*2D
$GPRMC,010818.5,A,3254.2584,N,11711.7666,W,19.10,272.90,120210,,*2E
$GPRMC,010821.5,A,3254.2585,N,11711.7833,W,14.40,272.10,120210,,*2B
$GPRMC,010824.5,A,3254.2579,N,11711.7950,W,9.50,269.60,120210,,*19
$GPRMC,010827.5,A,3254.2579,N,11711.8035,W,10.50,270.40,120210,,*2D
$GPRMC,010830.5,A,3254.2576,N,11711.8184,W,18.00,266.20,120210,,*23
$GPRMC,010833.5,A,3254.2552,N,11711.8378,W,21.60,259.10,120210,,*24
$GPRMC,010836.5,A,3254.2506,N,11711.8596,W,23.70,252.60,120210,,*29
$GPRMC,010839.5,A,3254.2426,N,11711.8825,W,25.80,243.70,120210,,*28
$GPRMC,010842.5,A,3254.2319,N,11711.9035,W,24.50,235.10,120210,,*2C
$GPRMC,010845.5,A,3254.2188,N,11711.9230,W,25.80,231.00,120210,,*2F
$GPRMC,010848.5,A,3254.2022,N,11711.9405,W,26.40,220.30,120210,,*2F
$GPRMC,010851.5,A,3254.1837,N,11711.9543,W,25.90,210.00,120210,,*25
$GPRMC,010854.5,A,3254.1649,N,11711.9644,W,23.50,201.20,120210,,*2B
$GPRMC,010857.5,A,3254.1483,N,11711.9707,W,18.20,197.80,120210,,*23
$GPRMC,010900.5,A,3254.1350,N,11711.9757,W,15.90,197.60,120210,,*24
$GPRMC,010903.5,A,3254.1269,N,11711.9773,W,9.50,188.50,120210,,*16
$GPRMC,010906.5,A,3254.1224,N,11711.9788,W,4.40,200.20,120210,,*16
$GPRMC,010909.5,A,3254.1186,N,11711.9823,W,8.00,243.10,120210,,*10
$GPRMC,010912.5,A,3254.1168,N,11711.9956,W,16.90,266.50,120210,,*2C
$GPRMC,010915.5,A,3254.1154,N,11712.0153,W,21.60,263.50,120210,,*2D
$GPRMC,010918.5,A,3254.1157,N,11712.0458,W,31.50,268.60,120210,,*27
$GPRMC,010921.5,A,3254.1139,N,11712.0804,W,36.60,263.30,120210,,*2A
$GPRMC,010924.5,A,3254.1083,N,11712.1155,W,35.70,253.90,120210,,*28
$GPRMC,010927.5,A,3254.0993,N,11712.1496,W,36.00,255.20,120210,,*21
$GPRMC,010930.5,A,3254.0868,N,11712.1870,W,41.50,249.50,120210,,*29
$GPRMC,010933.5,A,3254.0758,N,11712.2259,W,40.90,255.00,120210,,*21
$GPRMC,010936.5,A,3254.0698,N,11712.2648,W,39.70,261.80,120210,,*22
$GPRMC,010939.5,A,3254.0640,N,11712.3034,W,39.10,260.40,120210,,*2F
$GPRMC,010942.5,A,3254.0593,N,11712.3418,W,38.30,263.30,120210,,*23
$GPRMC,010945.5,A,3254.0552,N,11712.3789,W,37.10,262.60,120210,,*2B
$GPRMC,010948.5,A,3254.0507,N,11712.4140,W,35.40,261.80,120210,,*28
$GPRMC,010951.5,A,3254.0457,N,11712.4459,W,30.80,260.60,120210,,*2F
$GPRMC,010954.5,A,3254.0409,N,11712.4749,W,28.60,259.90,120210,,*21
$GPRMC,010957.5,A,3254.0364,N,11712.5041,W,30.60,260.00,120210,,*2A
$GPRMC,011000.5,A,3254.0332,N,11712.5350,W,31.30,265.70,120210,,*26
$GPRMC,011003.5,A,3254.0338,N,11712.5659,W,32.00,273.50,120210,,*26
$GPRMC,011006.5,A,3254.0407,N,11712.5968,W,33.30,289.50,120210,,*22
$GPRMC,011009.5,A,3254.0530,N,11712.6281,W,34.70,300.50,120210,,*24
$GPRMC,011012.5,A,3254.0679,N,11712.6584,W,36.70,301.60,120210,,*22
$GPRMC,011015.5,A,3254.0841,N,11712.6917,W,38.20,298.10,120210,,*2B
$GPRMC,011018.5,A,3254.0970,N,11712.7295,W,40.70,291.20,120210,,*25
$GPRMC,011021.5,A,3254.1062,N,11712.7677,W,39.40,286.10,120210,,*24
$GPRMC,011024.5,A,3254.1057,N,11712.8079,W,38.80,274.20,120210,,*23
$GPRMC,011027.5,A,3254.0997,N,11712.8479,W,39.30,264.90,120210,,*20
$GPRMC,011030.5,A,3254.0924,N,11712.8856,W,40.20,255.20,120210,,*29
$GPRMC,011033.5,A,3254.0808,N,11712.9166,W,34.60,245.90,120210,,*23
$GPRMC,011036.5,A,3254.0663,N,11712.9380,W,26.90,238.00,120210,,*20
$GPRMC,011039.5,A,3254.0531,N,11712.9523,W,18.60,222.80,120210,,*25
$GPRMC,011042.5,A,3254.0451,N,11712.9609,W,9.90,219.50,120210,,*1F
$GPRMC,011045.5,A,3254.0395,N,11712.9644,W,4.70,213.70,120210,,*15
$GPRMC,011054.5,A,3254.0359,N,11712.9667,W,5.30,211.90,120210,,*1D
$GPRMC,011057.5,A,3254.0241,N,11712.9683,W,14.00,206.90,120210,,*29
$GPRMC,011100.5,A,3254.0103,N,11712.9778,W,20.30,207.40,120210,,*22
$GPRMC,011103.5,A,3253.9925,N,11712.9882,W,22.30,206.50,120210,,*2B
$GPRMC,011106.5,A,3253.9752,N,11712.9970,W,22.10,207.40,120210,,*2E
$GPRMC,011109.5,A,3253.9623,N,11713.0056,W,17.00,205.80,120210,,*2A
$GPRMC,011112.5,A,3253.9536,N,11713.0120,W,9.80,213.90,120210,,*16
$GPRMC,011115.5,A,3253.9484,N,11713.0188,W,9.10,220.20,120210,,*19
$GPRMC,011118.5,A,3253.9421,N,11713.0280,W,13.90,221.80,120210,,*28
$GPRMC,011121.5,A,3253.9336,N,11713.0368,W,14.60,227.30,120210,,*21
$GPRMC,011124.5,A,3253.9254,N,11713.0471,W,11.40,236.10,120210,,*2B
$GPRMC,011127.5,A,3253.9243,N,11713.0569,W,11.10,275.80,120210,,*2D
$GPRMC,011130.5,A,3253.9333,N,11713.0670,W,14.70,313.10,120210,,*2D
$GPRMC,011133.5,A,3253.9529,N,11713.0851,W,29.00,318.80,120210,,*25
$GPRMC,011136.5,A,3253.9715,N,11713.1042,W,30.30,320.70,120210,,*29
$GPRMC,011139.5,A,3253.9922,N,11713.1238,W,33.60,321.10,120210,,*22
$GPRMC,011142.5,A,3254.0143,N,11713.1449,W,34.30,320.70,120210,,*2A
$GPRMC,011145.5,A,3254.0362,N,11713.1661,W,31.30,321.70,120210,,*20
$GPRMC,011148.5,A,3254.0540,N,11713.1835,W,23.40,317.70,120210,,*25
$GPRMC,011151.5,A,3254.0657,N,11713.1939,W,15.40,319.50,120210,,*2C
$GPRMC,011154.5,A,3254.0742,N,11713.2018,W,11.00,319.50,120210,,*25
$GPRMC,011157.5,A,3254.0791,N,11713.2067,W,5.20,323.30,120210,,*18
$GPRMC,011257.5,A,3254.0856,N,11713.2124,W,7.20,321.00,120210,,*1A
$GPRMC,011300.5,A,3254.0913,N,11713.2179,W,9.80,320.30,120210,,*17
$GPRMC,011303.5,A,3254.0990,N,11713.2257,W,15.90,320.20,120210,,*2D
$GPRMC,011306.5,A,3254.1115,N,11713.2381,W,20.50,320.10,120210,,*2F
$GPRMC,011309.5,A,3254.1253,N,11713.2513,W,23.40,320.10,120210,,*2E
$GPRMC,011312.5,A,3254.1409,N,11713.2666,W,23.80,322.20,120210,,*21
$GPRMC,011315.5,A,3254.1578,N,11713.2827,W,28.30,320.80,120210,,*22
$GPRMC,011318.5,A,3254.1775,N,11713.3017,W,33.50,320.00,120210,,*2E
$GPRMC,011321.5,A,3254.1994,N,11713.3238,W,35.60,319.50,120210,,*20
$GPRMC,011324.5,A,3254.2243,N,11713.3479,W,38.90,323.70,120210,,*2D
$GPRMC,011327.5,A,3254.2509,N,11713.3686,W,38.40,329.70,120210,,*22
$GPRMC,011330.5,A,3254.2806,N,11713.3861,W,40.80,336.20,120210,,*29
$GPRMC,011333.5,A,3254.3135,N,11713.4002,W,43.10,343.80,120210,,*2A
$GPRMC,011336.5,A,3254.3494,N,11713.4113,W,44.30,345.80,120210,,*23
$GPRMC,011339.5,A,3254.3854,N,11713.4230,W,44.50,343.30,120210,,*25
$GPRMC,011342.5,A,3254.4185,N,11713.4371,W,40.40,336.40,120210,,*2F
$GPRMC,011345.5,A,3254.4489,N,11713.4550,W,40.70,330.30,120210,,*26
$GPRMC,011348.5,A,3254.4769,N,11713.4753,W,37.40,328.20,120210,,*2C
$GPRMC,011351.5,A,3254.5024,N,11713.4943,W,34.80,327.70,120210,,*21
$GPRMC,011354.5,A,3254.5278,N,11713.5130,W,38.10,328.20,120210,,*2D
$GPRMC,011357.5,A,3254.5562,N,11713.5336,W,41.60,328.20,120210,,*2F
$GPRMC,011400.5,A,3254.5869,N,11713.5552,W,42.80,329.60,120210,,*20
$GPRMC,011403.5,A,3254.6173,N,11713.5744,W,39.50,333.00,120210,,*2B
$GPRMC,011406.5,A,3254.6458,N,11713.5915,W,37.20,333.20,120210,,*23
$GPRMC,011409.5,A,3254.6722,N,11713.6076,W,34.50,333.60,120210,,*2D
$GPRMC,011412.5,A,3254.6970,N,11713.6218,W,30.80,335.10,120210,,*2C
$GPRMC,011415.5,A,3254.7187,N,11713.6336,W,28.10,335.40,120210,,*22
$GPRMC,011418.5,A,3254.7393,N,11713.6446,W,26.40,335.80,120210,,*2F
$GPRMC,011421.5,A,3254.7578,N,11713.6543,W,21.90,336.10,120210,,*22
$GPRMC,011424.5,A,3254.7715,N,11713.6614,W,14.50,338.00,120210,,*2A
$GPRMC,011427.5,A,3254.7793,N,11713.6655,W,8.30,342.80,120210,,*1C
$GPRMC,011436.5,A,3254.7872,N,11713.6701,W,14.30,335.10,120210,,*28
$GPRMC,011439.5,A,3254.8012,N,11713.6783,W,20.30,332.70,120210,,*2A
$GPRMC,011442.5,A,3254.8174,N,11713.6884,W,24.80,330.90,120210,,*2C
$GPRMC,011445.5,A,3254.8381,N,11713.7019,W,30.10,328.80,120210,,*2A
$GPRMC,011448.5,A,3254.8619,N,11713.7172,W,32.20,330.20,120210,,*2D
$GPRMC,011451.5,A,3254.8855,N,11713.7319,W,31.10,330.50,120210,,*2B
$GPRMC,011454.5,A,3254.9069,N,11713.7472,W,30.00,333.80,120210,,*2C
$GPRMC,011457.5,A,3254.9283,N,11713.7578,W,26.40,339.70,120210,,*24
$GPRMC,011500.5,A,3254.9503,N,11713.7647,W,27.90,344.90,120210,,*2F
$GPRMC,011503.5,A,3254.9759,N,11713.7700,W,31.60,354.10,120210,,*22
$GPRMC,011506.5,A,3255.0029,N,11713.7714,W,32.10,0.20,120210,,*2F
$GPRMC,011509.5,A,3255.0289,N,11713.7693,W,34.40,5.50,120210,,*27
$GPRMC,011512.5,A,3255.0578,N,11713.7663,W,35.10,5.00,120210,,*2A
$GPRMC,011515.5,A,3255.0867,N,11713.7647,W,36.20,0.30,120210,,*2E
$GPRMC,011518.5,A,3255.1158,N,11713.7688,W,34.20,350.10,120210,,*22
$GPRMC,011521.5,A,3255.1429,N,11713.7755,W,32.20,344.90,120210,,*21
$GPRMC,011524.5,A,3255.1682,N,11713.7858,W,31.00,336.40,120210,,*2C
$GPRMC,011527.5,A,3255.1882,N,11713.7982,W,21.60,330.90,120210,,*2B
$GPRMC,011530.5,A,3255.2008,N,11713.8061,W,13.80,333.50,120210,,*2F
$GPRMC,011533.5,A,3255.2029,N,11713.8100,W,5.60,302.00,120210,,*17
$GPRMC,011557.5,A,3255.2051,N,11713.8118,W,6.80,324.90,120210,,*13
$GPRMC,011600.5,A,3255.2129,N,11713.8179,W,14.10,323.60,120210,,*29
$GPRMC,011603.5,A,3255.2235,N,11713.8277,W,14.90,321.20,120210,,*27
$GPRMC,011606.5,A,3255.2318,N,11713.8362,W,12.00,319.90,120210,,*26
$GPRMC,011609.5,A,3255.2396,N,11713.8417,W,10.70,349.40,120210,,*27
$GPRMC,011612.5,A,3255.2479,N,11713.8370,W,12.30,37.30,120210,,*16
$GPRMC,011615.5,A,3255.2595,N,11713.8200,W,24.20,53.00,120210,,*11
$GPRMC,011618.5,A,3255.2734,N,11713.7976,W,29.00,55.20,120210,,*1B
$GPRMC,011621.5,A,3255.2872,N,11713.7748,W,25.80,52.40,120210,,*1A
$GPRMC,011624.5,A,3255.3000,N,11713.7549,W,23.30,53.30,120210,,*1B
$GPRMC,011627.5,A,3255.3100,N,11713.7391,W,17.80,52.50,120210,,*11
$GPRMC,011630.5,A,3255.3129,N,11713.7341,W,4.60,64.60,120210,,*2B
$GPRMC,011727.5,A,3255.3241,N,11713.7205,W,12.20,56.70,120210,,*13
$GPRMC,011730.5,A,3255.3317,N,11713.7118,W,13.70,22.80,120210,,*10
$GPRMC,011733.5,A,3255.3427,N,11713.7111,W,12.40,346.80,120210,,*2D
$GPRMC,011736.5,A,3255.3530,N,11713.7217,W,17.50,317.80,120210,,*2A
$GPRMC,011739.5,A,3255.3666,N,11713.7447,W,26.80,307.50,120210,,*25
$GPRMC,011742.5,A,3255.3835,N,11713.7750,W,35.70,302.20,120210,,*2B
$GPRMC,011745.5,A,3255.3990,N,11713.8078,W,37.30,297.40,120210,,*2D
$GPRMC,011748.5,A,3255.4113,N,11713.8454,W,39.10,290.40,120210,,*25
$GPRMC,011751.5,A,3255.4222,N,11713.8839,W,41.20,287.50,120210,,*20
$GPRMC,011754.5,A,3255.4330,N,11713.9253,W,42.80,286.80,120210,,*25
$GPRMC,011757.5,A,3255.4440,N,11713.9673,W,43.30,286.00,120210,,*22
$GPRMC,011800.5,A,3255.4565,N,11714.0087,W,44.70,287.40,120210,,*2C
$GPRMC,011803.5,A,3255.4677,N,11714.0510,W,44.50,286.90,120210,,*2A
$GPRMC,011806.5,A,3255.4783,N,11714.0929,W,43.50,286.70,120210,,*2A
$GPRMC,011809.5,A,3255.4913,N,11714.1328,W,42.80,294.60,120210,,*26
$GPRMC,011812.5,A,3255.5074,N,11714.1659,W,41.20,303.80,120210,,*2E
$GPRMC,011815.5,A,3255.5280,N,11714.1968,W,40.70,312.20,120210,,*23
$GPRMC,011818.5,A,3255.5530,N,11714.2242,W,41.80,321.60,120210,,*28
$GPRMC,011821.5,A,3255.5821,N,11714.2470,W,41.30,330.70,120210,,*22
$GPRMC,011824.5,A,3255.6124,N,11714.2635,W,39.10,339.50,120210,,*2D
$GPRMC,011827.5,A,3255.6442,N,11714.2742,W,40.80,347.90,120210,,*28
$GPRMC,011830.5,A,3255.6775,N,11714.2793,W,40.90,357.20,120210,,*2E
$GPRMC,011833.5,A,3255.7122,N,11714.2779,W,41.80,5.80,120210,,*22
$GPRMC,011836.5,A,3255.7465,N,11714.2705,W,41.60,14.90,120210,,*15
$GPRMC,011839.5,A,3255.7794,N,11714.2565,W,42.10,25.00,120210,,*1C
$GPRMC,011842.5,A,3255.8109,N,11714.2358,W,43.60,30.10,120210,,*16
$GPRMC,011845.5,A,3255.8422,N,11714.2134,W,43.30,31.30,120210,,*13
$GPRMC,011848.5,A,3255.8733,N,11714.1946,W,42.10,22.50,120210,,*14
$GPRMC,011851.5,A,3255.9056,N,11714.1819,W,40.10,13.20,120210,,*15
$GPRMC,011854.5,A,3255.9383,N,11714.1756,W,39.20,4.90,120210,,*2F
$GPRMC,011857.5,A,3255.9676,N,11714.1747,W,32.00,356.60,120210,,*21
$GPRMC,011900.5,A,3255.9915,N,11714.1777,W,24.10,350.90,120210,,*24
$GPRMC,011903.5,A,3256.0068,N,11714.1811,W,16.10,347.00,120210,,*2F
$GPRMC,011912.5,A,3256.0202,N,11714.1848,W,11.40,345.90,120210,,*24
$GPRMC,011915.5,A,3256.0350,N,11714.1907,W,19.50,336.50,120210,,*2E
$GPRMC,011918.5,A,3256.0541,N,11714.2008,W,25.60,335.30,120210,,*29
$GPRMC,011921.5,A,3256.0729,N,11714.2121,W,24.20,333.90,120210,,*2C
$GPRMC,011924.5,A,3256.0902,N,11714.2218,W,22.50,333.30,120210,,*2C
$GPRMC,011927.5,A,3256.1067,N,11714.2312,W,21.60,335.00,120210,,*2A
$GPRMC,011930.5,A,3256.1219,N,11714.2392,W,18.40,332.50,120210,,*25
$GPRMC,011933.5,A,3256.1330,N,11714.2481,W,12.70,320.50,120210,,*23
$GPRMC,011936.5,A,3256.1384,N,11714.2537,W,5.80,333.50,120210,,*1E
$GPRMC,011945.5,A,3256.1447,N,11714.2617,W,9.30,308.90,120210,,*10
$GPRMC,011948.5,A,3256.1607,N,11714.2765,W,22.40,317.30,120210,,*25
$GPRMC,011951.5,A,3256.1764,N,11714.2958,W,27.30,312.80,120210,,*25
$GPRMC,011954.5,A,3256.1915,N,11714.3155,W,24.10,311.80,120210,,*2E
$GPRMC,011957.5,A,3256.2055,N,11714.3338,W,26.80,315.10,120210,,*2C
$GPRMC,012000.5,A,3256.2238,N,11714.3530,W,31.10,323.40,120210,,*2C
$GPRMC,012003.5,A,3256.2469,N,11714.3699,W,33.30,332.80,120210,,*21
$GPRMC,012006.5,A,3256.2739,N,11714.3829,W,36.20,341.20,120210,,*2D
$GPRMC,012009.5,A,3256.3060,N,11714.3909,W,39.50,351.10,120210,,*21
$GPRMC,012012.5,A,3256.3382,N,11714.3961,W,39.40,352.40,120210,,*2D
$GPRMC,012015.5,A,3256.3713,N,11714.4014,W,39.90,352.30,120210,,*20
$GPRMC,012018.5,A,3256.4031,N,11714.4064,W,37.60,352.20,120210,,*2A
$GPRMC,012021.5,A,3256.4302,N,11714.4099,W,31.10,352.70,120210,,*25
$GPRMC,012024.5,A,3256.4564,N,11714.4132,W,33.90,357.30,120210,,*2D
$GPRMC,012027.5,A,3256.4851,N,11714.4133,W,34.70,1.90,120210,,*27
$GPRMC,012030.5,A,3256.5130,N,11714.4103,W,32.80,7.40,120210,,*2F
$GPRMC,012033.5,A,3256.5400,N,11714.4056,W,32.00,9.30,120210,,*2A
$GPRMC,012036.5,A,3256.5671,N,11714.4013,W,32.40,8.20,120210,,*2E
$GPRMC,012039.5,A,3256.5836,N,11714.3919,W,24.90,17.20,120210,,*1C
$GPRMC,012042.5,A,3256.5977,N,11714.3838,W,21.00,20.70,120210,,*1B
$GPRMC,012045.5,A,3256.6067,N,11714.3775,W,13.60,22.10,120210,,*12
$GPRMC,012048.5,A,3256.6104,N,11714.3749,W,6.40,18.80,120210,,*22
$GPRMC,012121.5,A,3256.6157,N,11714.3749,W,6.70,62.10,120210,,*2D
$GPRMC,012124.5,A,3256.6263,N,11714.3690,W,16.00,27.80,120210,,*17
$GPRMC,012127.5,A,3256.6417,N,11714.3600,W,24.50,27.00,120210,,*14
$GPRMC,012130.5,A,3256.6623,N,11714.3474,W,32.50,26.80,120210,,*18
$GPRMC,012133.5,A,3256.6874,N,11714.3320,W,34.60,26.00,120210,,*1C
$GPRMC,012136.5,A,3256.7153,N,11714.3166,W,40.50,24.80,120210,,*1E
$GPRMC,012139.5,A,3256.7470,N,11714.2994,W,43.60,24.30,120210,,*1A
$GPRMC,012142.5,A,3256.7797,N,11714.2812,W,42.10,24.30,120210,,*15
$GPRMC,012145.5,A,3256.8118,N,11714.2637,W,41.80,24.70,120210,,*1B
$GPRMC,012148.5,A,3256.8409,N,11714.2442,W,40.90,32.30,120210,,*10
$GPRMC,012151.5,A,3256.8698,N,11714.2216,W,41.40,33.60,120210,,*1D
$GPRMC,012154.5,A,3256.8989,N,11714.1995,W,41.30,30.90,120210,,*1F
$GPRMC,012157.5,A,3256.9289,N,11714.1802,W,40.90,26.70,120210,,*1B
$GPRMC,012200.5,A,3256.9602,N,11714.1616,W,41.80,26.40,120210,,*15
$GPRMC,012203.5,A,3256.9904,N,11714.1426,W,40.90,30.20,120210,,*1F
$GPRMC,012206.5,A,3257.0181,N,11714.1188,W,42.00,39.10,120210,,*17
$GPRMC,012209.5,A,3257.0450,N,11714.0923,W,41.90,40.00,120210,,*1C
$GPRMC,012212.5,A,3257.0715,N,11714.0679,W,39.50,35.10,120210,,*14
$GPRMC,012215.5,A,3257.0985,N,11714.0488,W,36.10,24.80,120210,,*1A
$GPRMC,012218.5,A,3257.1256,N,11714.0370,W,33.70,17.00,120210,,*18
$GPRMC,012221.5,A,3257.1522,N,11714.0312,W,31.20,8.00,120210,,*2B
$GPRMC,012224.5,A,3257.1766,N,11714.0321,W,23.80,356.60,120210,,*2B
$GPRMC,012227.5,A,3257.1939,N,11714.0343,W,18.50,348.70,120210,,*23
$GPRMC,012230.5,A,3257.2034,N,11714.0368,W,11.60,339.40,120210,,*24
$GPRMC,012433.5,A,3257.2091,N,11714.0372,W,4.50,351.60,120210,,*1E
$GPRMC,012436.5,A,3257.2251,N,11714.0406,W,13.50,350.20,120210,,*22
$GPRMC,012439.5,A,3257.2589,N,11714.0479,W,33.90,349.50,120210,,*26
$GPRMC,012442.5,A,3257.2901,N,11714.0542,W,36.60,351.40,120210,,*2D
$GPRMC,012445.5,A,3257.3221,N,11714.0573,W,39.60,358.40,120210,,*26
$GPRMC,012448.5,A,3257.3541,N,11714.0593,W,38.00,357.10,120210,,*29
$GPRMC,012451.5,A,3257.3880,N,11714.0599,W,40.50,359.60,120210,,*28
$GPRMC,012454.5,A,3257.4219,N,11714.0602,W,41.10,359.60,120210,,*24
$GPRMC,012457.5,A,3257.4567,N,11714.0598,W,42.60,1.50,120210,,*20
$GPRMC,012500.5,A,3257.4929,N,11714.0568,W,43.40,3.70,120210,,*29
$GPRMC,012503.5,A,3257.5292,N,11714.0545,W,43.40,3.30,120210,,*2B
$GPRMC,012506.5,A,3257.5653,N,11714.0529,W,42.80,2.90,120210,,*2B
$GPRMC,012509.5,A,3257.6000,N,11714.0494,W,41.00,4.30,120210,,*27
$GPRMC,012512.5,A,3257.6331,N,11714.0471,W,38.80,2.90,120210,,*2D
$GPRMC,012515.5,A,3257.6634,N,11714.0450,W,35.90,0.80,120210,,*26
$GPRMC,012518.5,A,3257.6866,N,11714.0448,W,26.10,358.20,120210,,*25
$GPRMC,012521.5,A,3257.7059,N,11714.0476,W,19.90,351.60,120210,,*2E
$GPRMC,012524.5,A,3257.7155,N,11714.0481,W,11.80,350.60,120210,,*26
$GPRMC,012548.5,A,3257.7159,N,11714.0461,W,7.30,4.40,120210,,*12
$GPRMC,012551.5,A,3257.7268,N,11714.0464,W,12.70,1.60,120210,,*29
$GPRMC,012554.5,A,3257.7471,N,11714.0480,W,21.90,358.80,120210,,*27
$GPRMC,012557.5,A,3257.7767,N,11714.0517,W,33.70,355.10,120210,,*26
$GPRMC,012600.5,A,3257.8054,N,11714.0541,W,34.00,355.90,120210,,*24
$GPRMC,012603.5,A,3257.8337,N,11714.0573,W,33.30,354.00,120210,,*2C
$GPRMC,012606.5,A,3257.8603,N,11714.0624,W,30.40,347.60,120210,,*2A
$GPRMC,012609.5,A,3257.8819,N,11714.0692,W,25.60,343.70,120210,,*2E
$GPRMC,012612.5,A,3257.8942,N,11714.0741,W,15.90,345.60,120210,,*2F
$GPRMC,012615.5,A,3257.9001,N,11714.0764,W,12.20,335.90,120210,,*24
$GPRMC,012618.5,A,3257.9164,N,11714.0844,W,20.50,331.30,120210,,*2E
$GPRMC,012621.5,A,3257.9378,N,11714.0983,W,28.10,325.40,120210,,*2F
$GPRMC,012624.5,A,3257.9689,N,11714.1209,W,42.30,325.90,120210,,*2A
$GPRMC,012627.5,A,3257.9987,N,11714.1470,W,44.20,322.10,120210,,*28
$GPRMC,012630.5,A,3258.0268,N,11714.1750,W,44.90,321.50,120210,,*2F
$GPRMC,012633.5,A,3258.0552,N,11714.2054,W,46.90,318.90,120210,,*26
$GPRMC,012636.5,A,3258.0845,N,11714.2367,W,47.10,318.70,120210,,*2C
$GPRMC,012639.5,A,3258.1141,N,11714.2683,W,47.90,318.50,120210,,*2A
$GPRMC,012642.5,A,3258.1444,N,11714.2993,W,48.00,318.80,120210,,*23
$GPRMC,012645.5,A,3258.1750,N,11714.3302,W,47.00,321.50,120210,,*29
$GPRMC,012648.5,A,3258.2074,N,11714.3541,W,45.00,334.10,120210,,*25
$GPRMC,012651.5,A,3258.2423,N,11714.3698,W,44.70,344.90,120210,,*25
$GPRMC,012654.5,A,3258.2780,N,11714.3759,W,43.50,359.20,120210,,*24
$GPRMC,012657.5,A,3258.3141,N,11714.3707,W,43.50,13.60,120210,,*1F
$GPRMC,012700.5,A,3258.3484,N,11714.3563,W,43.90,26.00,120210,,*1C
$GPRMC,012703.5,A,3258.3793,N,11714.3331,W,44.10,38.80,120210,,*13
$GPRMC,012706.5,A,3258.4050,N,11714.3023,W,43.30,51.20,120210,,*19
$GPRMC,012709.5,A,3258.4242,N,11714.2659,W,43.20,63.80,120210,,*17
$GPRMC,012712.5,A,3258.4363,N,11714.2248,W,44.30,76.80,120210,,*19
$GPRMC,012715.5,A,3258.4428,N,11714.1808,W,45.00,81.00,120210,,*19
$GPRMC,012718.5,A,3258.4484,N,11714.1370,W,44.00,81.00,120210,,*17
$GPRMC,012721.5,A,3258.4539,N,11714.0943,W,43.50,81.10,120210,,*12
$GPRMC,012724.5,A,3258.4594,N,11714.0525,W,41.70,81.40,120210,,*19
$GPRMC,012727.5,A,3258.4647,N,11714.0135,W,38.60,79.20,120210,,*1C
$GPRMC,012730.5,A,3258.4725,N,11713.9777,W,36.20,71.40,120210,,*15
$GPRMC,012733.5,A,3258.4839,N,11713.9451,W,33.80,63.60,120210,,*1D
$GPRMC,012736.5,A,3258.4977,N,11713.9174,W,29.70,56.40,120210,,*11
$GPRMC,012739.5,A,3258.5096,N,11713.8983,W,17.50,50.70,120210,,*12
$GPRMC,012742.5,A,3258.5167,N,11713.8894,W,12.20,45.60,120210,,*11
$GPRMC,012745.5,A,3258.5271,N,11713.8779,W,20.10,41.60,120210,,*18
$GPRMC,012748.5,A,3258.5423,N,11713.8637,W,26.40,34.90,120210,,*11
$GPRMC,012751.5,A,3258.5624,N,11713.8494,W,28.50,27.10,120210,,*12
$GPRMC,012754.5,A,3258.5855,N,11713.8374,W,31.00,21.50,120210,,*19
$GPRMC,012757.5,A,3258.6103,N,11713.8274,W,30.80,15.70,120210,,*1E
$GPRMC,012800.5,A,3258.6363,N,11713.8241,W,30.80,0.90,120210,,*2B
$GPRMC,012803.5,A,3258.6621,N,11713.8244,W,29.30,359.20,120210,,*29
$GPRMC,012806.5,A,3258.6854,N,11713.8246,W,25.90,358.90,120210,,*2E
$GPRMC,012809.5,A,3258.7064,N,11713.8252,W,25.50,359.00,120210,,*2A
$GPRMC,012812.5,A,3258.7283,N,11713.8258,W,27.90,359.30,120210,,*2C
$GPRMC,012815.5,A,3258.7513,N,11713.8264,W,27.50,359.30,120210,,*26
$GPRMC,012818.5,A,3258.7744,N,11713.8266,W,28.10,359.20,120210,,*23
$GPRMC,012821.5,A,3258.7978,N,11713.8269,W,27.80,359.30,120210,,*20
$GPRMC,012824.5,A,3258.8195,N,11713.8272,W,23.80,359.10,120210,,*2D
$GPRMC,012827.5,A,3258.8384,N,11713.8274,W,21.80,359.00,120210,,*29
$GPRMC,012830.5,A,3258.8583,N,11713.8278,W,24.60,359.00,120210,,*29
$GPRMC,012833.5,A,3258.8779,N,11713.8283,W,22.60,359.00,120210,,*2F
$GPRMC,012836.5,A,3258.8962,N,11713.8289,W,21.50,359.20,120210,,*26
$GPRMC,012839.5,A,3258.9151,N,11713.8294,W,22.60,358.80,120210,,*27
$GPRMC,012842.5,A,3258.9321,N,11713.8297,W,19.90,355.10,120210,,*2E
$GPRMC,012845.5,A,3258.9408,N,11713.8309,W,13.30,350.90,120210,,*2E
$GPRMC,012854.5,A,3258.9431,N,11713.8293,W,7.30,6.40,120210,,*1E
$GPRMC,012857.5,A,3258.9547,N,11713.8298,W,12.70,352.30,120210,,*23
$GPRMC,012900.5,A,3258.9634,N,11713.8361,W,12.70,298.10,120210,,*25
$GPRMC,012903.5,A,3258.9638,N,11713.8497,W,15.80,262.60,120210,,*2E
$GPRMC,012906.5,A,3258.9604,N,11713.8725,W,22.40,259.80,120210,,*20
$GPRMC,012909.5,A,3258.9546,N,11713.8958,W,25.00,255.80,120210,,*21
$GPRMC,012912.5,A,3258.9484,N,11713.9218,W,28.00,249.50,120210,,*27
$GPRMC,012915.5,A,3258.9365,N,11713.9471,W,30.40,238.20,120210,,*2D
$GPRMC,012918.5,A,3258.9218,N,11713.9743,W,33.40,238.10,120210,,*29
$GPRMC,012921.5,A,3258.9078,N,11714.0025,W,33.70,240.60,120210,,*25
$GPRMC,012924.5,A,3258.8947,N,11714.0328,W,33.80,243.70,120210,,*27
$GPRMC,012927.5,A,3258.8836,N,11714.0632,W,33.20,248.80,120210,,*23
$GPRMC,012930.5,A,3258.8744,N,11714.0952,W,35.30,254.50,120210,,*21
$GPRMC,012933.5,A,3258.8677,N,11714.1305,W,36.80,259.60,120210,,*2C
$GPRMC,012936.5,A,3258.8643,N,11714.1667,W,37.60,265.10,120210,,*28
$GPRMC,012939.5,A,3258.8620,N,11714.2041,W,38.70,265.60,120210,,*2A
$GPRMC,012942.5,A,3258.8598,N,11714.2428,W,38.70,265.90,120210,,*22
$GPRMC,012945.5,A,3258.8576,N,11714.2804,W,38.20,265.20,120210,,*29
$GPRMC,012948.5,A,3258.8546,N,11714.3179,W,37.50,264.90,120210,,*27
$GPRMC,012951.5,A,3258.8518,N,11714.3550,W,37.00,265.70,120210,,*21
$GPRMC,012954.5,A,3258.8493,N,11714.3913,W,37.70,265.40,120210,,*29
$GPRMC,012957.5,A,3258.8475,N,11714.4295,W,38.60,268.10,120210,,*26
$GPRMC,013000.5,A,3258.8497,N,11714.4679,W,37.80,273.40,120210,,*28
$GPRMC,013003.5,A,3258.8515,N,11714.5044,W,36.90,273.90,120210,,*24
$GPRMC,013006.5,A,3258.8537,N,11714.5420,W,37.70,273.70,120210,,*26
$GPRMC,013009.5,A,3258.8564,N,11714.5789,W,37.80,277.00,120210,,*23
$GPRMC,013012.5,A,3258.8608,N,11714.6160,W,37.70,278.30,120210,,*21
$GPRMC,013015.5,A,3258.8653,N,11714.6530,W,38.00,278.40,120210,,*26
$GPRMC,013018.5,A,3258.8699,N,11714.6911,W,38.60,278.50,120210,,*25
$GPRMC,013021.5,A,3258.8746,N,11714.7279,W,37.10,278.60,120210,,*23
$GPRMC,013024.5,A,3258.8795,N,11714.7641,W,36.50,277.40,120210,,*2F
$GPRMC,013027.5,A,3258.8803,N,11714.7989,W,36.10,263.60,120210,,*24
$GPRMC,013030.5,A,3258.8745,N,11714.8342,W,36.90,258.00,120210,,*2B
$GPRMC,013033.5,A,3258.8670,N,11714.8687,W,35.30,256.80,120210,,*2C
$GPRMC,013036.5,A,3258.8603,N,11714.9018,W,33.80,257.30,120210,,*2B
$GPRMC,013039.5,A,3258.8544,N,11714.9341,W,33.00,257.30,120210,,*23
$GPRMC,013042.5,A,3258.8482,N,11714.9664,W,33.60,257.80,120210,,*2B
$GPRMC,013045.5,A,3258.8424,N,11714.9996,W,34.00,258.10,120210,,*25
$GPRMC,013048.5,A,3258.8361,N,11715.0320,W,33.20,257.40,120210,,*2E
$GPRMC,013051.5,A,3258.8310,N,11715.0631,W,32.40,260.00,120210,,*22
$GPRMC,013054.5,A,3258.8284,N,11715.0897,W,27.20,268.20,120210,,*21
$GPRMC,013057.5,A,3258.8306,N,11715.1168,W,27.40,280.60,120210,,*25
$GPRMC,013100.5,A,3258.8388,N,11715.1412,W,27.20,290.90,120210,,*20
$GPRMC,013103.5,A,3258.8517,N,11715.1646,W,26.50,298.80,120210,,*2F
$GPRMC,013106.5,A,3258.8719,N,11715.1815,W,23.90,327.20,120210,,*28
$GPRMC,013109.5,A,3258.8879,N,11715.1914,W,18.80,336.30,120210,,*26
$GPRMC,013112.5,A,3258.8994,N,11715.1980,W,12.20,329.00,120210,,*2E
$GPRMC,013115.5,A,3258.9036,N,11715.1991,W,5.80,336.70,120210,,*1C
$GPRMC,013118.5,A,3258.9083,N,11715.2011,W,8.30,343.70,120210,,*19
$GPRMC,013121.5,A,3258.9191,N,11715.2062,W,18.20,336.10,120210,,*21
$GPRMC,013124.5,A,3258.9361,N,11715.2151,W,23.90,336.70,120210,,*2D
$GPRMC,013127.5,A,3258.9572,N,11715.2258,W,30.70,337.20,120210,,*28
$GPRMC,013130.5,A,3258.9827,N,11715.2377,W,32.90,339.50,120210,,*2A
$GPRMC,013133.5,A,3259.0099,N,11715.2490,W,36.80,341.20,120210,,*2F
$GPRMC,013136.5,A,3259.0402,N,11715.2601,W,39.60,343.70,120210,,*20
$GPRMC,013139.5,A,3259.0728,N,11715.2703,W,40.30,346.40,120210,,*2A
$GPRMC,013142.5,A,3259.1059,N,11715.2790,W,39.80,348.90,120210,,*2A
$GPRMC,013145.5,A,3259.1380,N,11715.2852,W,38.90,352.60,120210,,*2F
$GPRMC,013148.5,A,3259.1695,N,11715.2899,W,38.10,352.90,120210,,*23
$GPRMC,013151.5,A,3259.2020,N,11715.2951,W,40.50,352.30,120210,,*24
$GPRMC,013154.5,A,3259.2343,N,11715.3003,W,35.90,351.60,120210,,*20
$GPRMC,013157.5,A,3259.2613,N,11715.3060,W,30.70,350.10,120210,,*2B
$GPRMC,013200.5,A,3259.2863,N,11715.3110,W,30.00,351.70,120210,,*25
$GPRMC,013203.5,A,3259.3098,N,11715.3151,W,27.10,352.10,120210,,*2C
$GPRMC,013206.5,A,3259.3309,N,11715.3185,W,24.40,352.10,120210,,*2D
$GPRMC,013209.5,A,3259.3507,N,11715.3215,W,22.70,352.30,120210,,*27
$GPRMC,013212.5,A,3259.3687,N,11715.3245,W,20.20,352.10,120210,,*26
$GPRMC,013215.5,A,3259.3852,N,11715.3278,W,20.40,351.60,120210,,*2B
$GPRMC,013218.5,A,3259.4017,N,11715.3304,W,19.40,351.60,120210,,*28
$GPRMC,013221.5,A,3259.4175,N,11715.3329,W,18.90,352.30,120210,,*22
$GPRMC,013224.5,A,3259.4347,N,11715.3356,W,21.10,352.40,120210,,*29
$GPRMC,013227.5,A,3259.4535,N,11715.3385,W,23.90,352.40,120210,,*2D
$GPRMC,013230.5,A,3259.4741,N,11715.3419,W,24.80,352.40,120210,,*2E
$GPRMC,013233.5,A,3259.4950,N,11715.3447,W,26.20,352.50,120210,,*21
$GPRMC,013236.5,A,3259.5169,N,11715.3478,W,26.60,352.40,120210,,*2E
$GPRMC,013239.5,A,3259.5391,N,11715.3516,W,27.10,352.30,120210,,*2C
$GPRMC,013242.5,A,3259.5610,N,11715.3550,W,26.20,352.20,120210,,*2D
$GPRMC,013245.5,A,3259.5830,N,11715.3586,W,28.10,352.30,120210,,*21
$GPRMC,013248.5,A,3259.6066,N,11715.3625,W,28.80,352.40,120210,,*20
$GPRMC,013251.5,A,3259.6294,N,11715.3668,W,28.20,351.10,120210,,*22
$GPRMC,013254.5,A,3259.6543,N,11715.3717,W,30.40,350.50,120210,,*29
$GPRMC,013257.5,A,3259.6804,N,11715.3762,W,31.80,351.70,120210,,*28
$GPRMC,013300.5,A,3259.7071,N,11715.3811,W,32.60,351.50,120210,,*24
$GPRMC,013303.5,A,3259.7368,N,11715.3858,W,36.90,352.20,120210,,*2E
$GPRMC,013306.5,A,3259.7671,N,11715.3906,W,37.20,352.60,120210,,*22
$GPRMC,013309.5,A,3259.7980,N,11715.3956,W,34.90,352.10,120210,,*26
$GPRMC,013312.5,A,3259.8251,N,11715.3995,W,31.10,352.50,120210,,*22
$GPRMC,013315.5,A,3259.8508,N,11715.4033,W,31.10,352.30,120210,,*2A
$GPRMC,013318.5,A,3259.8769,N,11715.4077,W,32.50,350.60,120210,,*22
$GPRMC,013321.5,A,3259.9040,N,11715.4131,W,33.10,350.60,120210,,*23
$GPRMC,013324.5,A,3259.9292,N,11715.4178,W,29.70,352.20,120210,,*2D
$GPRMC,013327.5,A,3259.9550,N,11715.4223,W,32.00,352.40,120210,,*21
$GPRMC,013330.5,A,3259.9817,N,11715.4264,W,32.70,352.30,120210,,*2A
$GPRMC,013333.5,A,3300.0086,N,11715.4307,W,31.70,352.40,120210,,*2D
$GPRMC,013336.5,A,3300.0344,N,11715.4350,W,29.50,352.40,120210,,*2C
$GPRMC,013339.5,A,3300.0571,N,11715.4387,W,26.00,352.50,120210,,*22
$GPRMC,013342.5,A,3300.0767,N,11715.4418,W,21.70,352.30,120210,,*2C
$GPRMC,013345.5,A,3300.0950,N,11715.4446,W,20.90,352.40,120210,,*22
$GPRMC,013348.5,A,3300.1110,N,11715.4467,W,19.30,352.90,120210,,*2C
$GPRMC,013351.5,A,3300.1281,N,11715.4498,W,22.50,350.80,120210,,*22
$GPRMC,013354.5,A,3300.1477,N,11715.4542,W,23.10,348.40,120210,,*2E
$GPRMC,013357.5,A,3300.1667,N,11715.4595,W,23.10,345.80,120210,,*25
$GPRMC,013400.5,A,3300.1851,N,11715.4657,W,22.30,343.80,120210,,*23
$GPRMC,013403.5,A,3300.2025,N,11715.4717,W,21.20,341.90,120210,,*2C
$GPRMC,013406.5,A,3300.2184,N,11715.4784,W,17.40,340.00,120210,,*22
$GPRMC,013409.5,A,3300.2287,N,11715.4831,W,8.40,339.20,120210,,*1E
$GPRMC,013412.5,A,3300.2338,N,11715.4853,W,5.30,337.90,120210,,*1A
$GPRMC,013415.5,A,3300.2382,N,11715.4875,W,6.10,337.90,120210,,*19
$GPRMC,013418.5,A,3300.2432,N,11715.4900,W,8.00,336.90,120210,,*15
$GPRMC,013421.5,A,3300.2497,N,11715.4933,W,7.50,336.30,120210,,*10
$GPRMC,013424.5,A,3300.2551,N,11715.4959,W,5.90,335.40,120210,,*18
$GPRMC,013427.5,A,3300.2595,N,11715.4981,W,5.00,335.50,120210,,*1E
$GPRMC,013430.5,A,3300.2634,N,11715.5005,W,5.40,333.90,120210,,*1A
$GPRMC,013433.5,A,3300.2679,N,11715.5031,W,6.70,334.10,120210,,*18
$GPRMC,013436.5,A,3300.2733,N,11715.5066,W,8.00,333.30,120210,,*1C
$GPRMC,013439.5,A,3300.2796,N,11715.5107,W,9.30,332.40,120210,,*1E
$GPRMC,013443.5,A,3300.2892,N,11715.5169,W,10.90,331.30,120210,,*26
$GPRMC,013446.5,A,3300.2975,N,11715.5222,W,11.50,329.90,120210,,*29
$GPRMC,013449.5,A,3300.3068,N,11715.5289,W,15.10,328.70,120210,,*2C
$GPRMC,013452.5,A,3300.3181,N,11715.5376,W,17.00,326.80,120210,,*23
$GPRMC,013455.5,A,3300.3308,N,11715.5475,W,21.00,325.50,120210,,*28
$GPRMC,013458.5,A,3300.3465,N,11715.5609,W,24.70,323.00,120210,,*21
$GPRMC,013501.5,A,3300.3622,N,11715.5757,W,21.50,321.00,120210,,*22
$GPRMC,013504.5,A,3300.3748,N,11715.5879,W,17.10,319.20,120210,,*21
$GPRMC,013507.5,A,3300.3857,N,11715.5991,W,18.70,317.40,120210,,*25
$GPRMC,013510.5,A,3300.3988,N,11715.6135,W,23.50,316.10,120210,,*2B
$GPRMC,013513.5,A,3300.4131,N,11715.6301,W,25.40,314.60,120210,,*22
$GPRMC,013516.5,A,3300.4310,N,11715.6499,W,29.80,315.70,120210,,*20
$GPRMC,013519.5,A,3300.4492,N,11715.6708,W,28.90,315.90,120210,,*27
$GPRMC,013522.5,A,3300.4654,N,11715.6896,W,26.20,316.10,120210,,*21
$GPRMC,013525.5,A,3300.4812,N,11715.7074,W,26.30,315.90,120210,,*25
$GPRMC,013528.5,A,3300.4974,N,11715.7260,W,29.10,316.10,120210,,*28
$GPRMC,013531.5,A,3300.5170,N,11715.7493,W,36.00,314.20,120210,,*29
$GPRMC,013534.5,A,3300.5403,N,11715.7771,W,43.10,315.50,120210,,*27
$GPRMC,013537.5,A,3300.5678,N,11715.8084,W,46.70,316.30,120210,,*2E
$GPRMC,013540.5,A,3300.5965,N,11715.8410,W,48.70,316.40,120210,,*2D
$GPRMC,013543.5,A,3300.6264,N,11715.8753,W,49.50,316.00,120210,,*24
$GPRMC,013546.5,A,3300.6562,N,11715.9092,W,49.00,316.30,120210,,*2D
$GPRMC,013549.5,A,3300.6857,N,11715.9428,W,49.50,316.40,120210,,*2E
$GPRMC,013552.5,A,3300.7158,N,11715.9772,W,51.00,316.50,120210,,*22
$GPRMC,013555.5,A,3300.7457,N,11716.0116,W,47.70,316.10,120210,,*25
$GPRMC,013558.5,A,3300.7729,N,11716.0426,W,42.80,316.00,120210,,*2F
$GPRMC,013601.5,A,3300.7967,N,11716.0696,W,35.70,316.10,120210,,*23
$GPRMC,013604.5,A,3300.8167,N,11716.0925,W,31.10,315.90,120210,,*2F
$GPRMC,013607.5,A,3300.8345,N,11716.1126,W,29.80,316.10,120210,,*2F
$GPRMC,013610.5,A,3300.8514,N,11716.1319,W,26.00,316.10,120210,,*22
$GPRMC,013613.5,A,3300.8671,N,11716.1496,W,27.20,316.00,120210,,*23
$GPRMC,013616.5,A,3300.8846,N,11716.1698,W,31.70,316.20,120210,,*20
$GPRMC,013619.5,A,3300.9056,N,11716.1927,W,35.10,318.50,120210,,*27
$GPRMC,013622.5,A,3300.9295,N,11716.2171,W,39.30,320.50,120210,,*2F
$GPRMC,013625.5,A,3300.9556,N,11716.2412,W,39.90,324.00,120210,,*2B
$GPRMC,013628.5,A,3300.9840,N,11716.2642,W,42.30,327.20,120210,,*2C
$GPRMC,013631.5,A,3301.0153,N,11716.2869,W,45.30,329.90,120210,,*22
$GPRMC,013634.5,A,3301.0487,N,11716.3084,W,46.80,333.50,120210,,*2E
$GPRMC,013637.5,A,3301.0835,N,11716.3277,W,44.20,336.60,120210,,*28
$GPRMC,013640.5,A,3301.1165,N,11716.3433,W,42.20,339.10,120210,,*2D
$GPRMC,013643.5,A,3301.1467,N,11716.3584,W,38.40,335.70,120210,,*25
$GPRMC,013646.5,A,3301.1748,N,11716.3660,W,34.20,340.50,120210,,*2D
$GPRMC,013649.5,A,3301.1960,N,11716.3713,W,25.90,347.30,120210,,*29
$GPRMC,013652.5,A,3301.2132,N,11716.3753,W,18.00,349.10,120210,,*20
$GPRMC,013655.5,A,3301.2263,N,11716.3778,W,14.20,350.30,120210,,*2D
$GPRMC,013658.5,A,3301.2364,N,11716.3795,W,11.50,350.40,120210,,*20
$GPRMC,013701.5,A,3301.2426,N,11716.3810,W,8.30,350.20,120210,,*16
$GPRMC,013704.5,A,3301.2524,N,11716.3829,W,13.70,349.90,120210,,*27
$GPRMC,013707.5,A,3301.2678,N,11716.3854,W,20.50,350.50,120210,,*22
$GPRMC,013710.5,A,3301.2867,N,11716.3891,W,25.90,350.20,120210,,*23
$GPRMC,013713.5,A,3301.3106,N,11716.3942,W,29.90,350.60,120210,,*28
$GPRMC,013716.5,A,3301.3369,N,11716.3995,W,33.00,350.40,120210,,*2C
$GPRMC,013719.5,A,3301.3657,N,11716.4055,W,36.10,349.90,120210,,*28
$GPRMC,013722.5,A,3301.3972,N,11716.4120,W,38.50,350.50,120210,,*25
$GPRMC,013725.5,A,3301.4285,N,11716.4200,W,37.90,347.50,120210,,*22
$GPRMC,013728.5,A,3301.4597,N,11716.4290,W,37.40,345.10,120210,,*29
$GPRMC,013731.5,A,3301.4894,N,11716.4389,W,36.90,343.60,120210,,*2B
$GPRMC,013734.5,A,3301.5183,N,11716.4508,W,37.50,339.90,120210,,*20
$GPRMC,013737.5,A,3301.5486,N,11716.4653,W,41.10,336.80,120210,,*25
$GPRMC,013740.5,A,3301.5802,N,11716.4826,W,41.70,334.40,120210,,*21
$GPRMC,013743.5,A,3301.6122,N,11716.5026,W,44.20,331.10,120210,,*23
$GPRMC,013746.5,A,3301.6459,N,11716.5250,W,46.20,330.50,120210,,*2B
$GPRMC,013749.5,A,3301.6791,N,11716.5471,W,46.60,330.40,120210,,*23
$GPRMC,013752.5,A,3301.7135,N,11716.5700,W,47.40,330.70,120210,,*25
$GPRMC,013755.5,A,3301.7470,N,11716.5923,W,44.40,330.50,120210,,*28
$GPRMC,013758.5,A,3301.7773,N,11716.6133,W,40.30,330.50,120210,,*2C
$GPRMC,013801.5,A,3301.8062,N,11716.6327,W,39.20,330.60,120210,,*2C
$GPRMC,013805.5,A,3301.8428,N,11716.6565,W,35.90,330.40,120210,,*27
$GPRMC,013808.5,A,3301.8694,N,11716.6749,W,37.40,328.90,120210,,*28
$GPRMC,013811.5,A,3301.8980,N,11716.6944,W,40.20,330.40,120210,,*2B
$GPRMC,013814.5,A,3301.9278,N,11716.7139,W,41.10,330.50,120210,,*23
$GPRMC,013817.5,A,3301.9585,N,11716.7349,W,43.10,330.40,120210,,*23
$GPRMC,013820.5,A,3301.9914,N,11716.7566,W,46.00,330.40,120210,,*2C
$GPRMC,013823.5,A,3302.0263,N,11716.7797,W,49.40,330.60,120210,,*2B
$GPRMC,013826.5,A,3302.0628,N,11716.8044,W,50.80,330.40,120210,,*25
$GPRMC,013829.5,A,3302.1003,N,11716.8297,W,52.40,330.30,120210,,*21
$GPRMC,013832.5,A,3302.1393,N,11716.8557,W,54.70,330.60,120210,,*2A
$GPRMC,013835.5,A,3302.1793,N,11716.8823,W,55.30,330.60,120210,,*22
$GPRMC,013838.5,A,3302.2198,N,11716.9095,W,55.20,330.50,120210,,*27
$GPRMC,013841.5,A,3302.2595,N,11716.9363,W,54.80,330.50,120210,,*21
$GPRMC,013844.5,A,3302.2993,N,11716.9633,W,55.80,330.40,120210,,*2E
$GPRMC,013847.5,A,3302.3396,N,11716.9905,W,54.20,330.50,120210,,*23
$GPRMC,013850.5,A,3302.3782,N,11717.0164,W,52.90,330.60,120210,,*2D
$GPRMC,013853.5,A,3302.4171,N,11717.0425,W,53.70,330.50,120210,,*2F
$GPRMC,013856.5,A,3302.4566,N,11717.0689,W,54.30,331.70,120210,,*2C
$GPRMC,013859.5,A,3302.4972,N,11717.0925,W,53.70,335.80,120210,,*2B
$GPRMC,013902.5,A,3302.5391,N,11717.1133,W,54.40,339.60,120210,,*2A
$GPRMC,013905.5,A,3302.5820,N,11717.1294,W,54.60,343.70,120210,,*2C
$GPRMC,013908.5,A,3302.6256,N,11717.1431,W,54.50,345.80,120210,,*2A
$GPRMC,013911.5,A,3302.6692,N,11717.1565,W,54.00,345.70,120210,,*24
$GPRMC,013914.5,A,3302.7130,N,11717.1697,W,54.50,345.70,120210,,*24
$GPRMC,013917.5,A,3302.7568,N,11717.1831,W,54.60,346.00,120210,,*2B
$GPRMC,013920.5,A,3302.8013,N,11717.1961,W,55.20,345.90,120210,,*22
$GPRMC,013923.5,A,3302.8463,N,11717.2094,W,55.40,345.70,120210,,*2A
$GPRMC,013926.5,A,3302.8913,N,11717.2226,W,55.60,345.60,120210,,*2D
$GPRMC,013929.5,A,3302.9367,N,11717.2365,W,55.80,345.70,120210,,*23
$GPRMC,013932.5,A,3302.9821,N,11717.2503,W,56.30,345.80,120210,,*21
$GPRMC,013935.5,A,3303.0275,N,11717.2637,W,56.10,346.20,120210,,*2A
$GPRMC,013939.5,A,3303.0885,N,11717.2818,W,56.50,345.80,120210,,*2D
$GPRMC,013942.5,A,3303.1346,N,11717.2969,W,57.40,344.20,120210,,*28
$GPRMC,013945.5,A,3303.1792,N,11717.3106,W,54.90,345.70,120210,,*28
$GPRMC,013948.5,A,3303.2236,N,11717.3235,W,54.70,346.40,120210,,*20
$GPRMC,013951.5,A,3303.2673,N,11717.3385,W,54.20,343.20,120210,,*21
$GPRMC,013954.5,A,3303.3130,N,11717.3503,W,55.90,345.90,120210,,*2A
$GPRMC,013957.5,A,3303.3581,N,11717.3639,W,56.30,345.70,120210,,*2A
$GPRMC,014000.5,A,3303.4035,N,11717.3774,W,56.10,345.80,120210,,*2E
$GPRMC,014003.5,A,3303.4490,N,11717.3913,W,56.60,345.60,120210,,*20
$GPRMC,014006.5,A,3303.4950,N,11717.4050,W,55.90,345.70,120210,,*20
$GPRMC,014009.5,A,3303.5404,N,11717.4184,W,56.00,345.70,120210,,*20
$GPRMC,014012.5,A,3303.5858,N,11717.4319,W,56.30,345.70,120210,,*2A
$GPRMC,014015.5,A,3303.6309,N,11717.4456,W,55.50,345.70,120210,,*28
$GPRMC,014018.5,A,3303.6757,N,11717.4594,W,56.00,345.90,120210,,*2D
$GPRMC,014021.5,A,3303.7213,N,11717.4732,W,56.70,345.70,120210,,*24
$GPRMC,014024.5,A,3303.7676,N,11717.4873,W,57.40,345.80,120210,,*21
$GPRMC,014027.5,A,3303.8139,N,11717.5011,W,56.80,345.80,120210,,*21
$GPRMC,014030.5,A,3303.8598,N,11717.5149,W,56.50,345.70,120210,,*26
$GPRMC,014033.5,A,3303.9055,N,11717.5286,W,56.30,345.70,120210,,*26
$GPRMC,014036.5,A,3303.9511,N,11717.5424,W,56.40,345.70,120210,,*2F
$GPRMC,014039.5,A,3303.9965,N,11717.5558,W,56.40,345.80,120210,,*2A
$GPRMC,014042.5,A,3304.0423,N,11717.5696,W,56.10,345.80,120210,,*23
$GPRMC,014045.5,A,3304.0878,N,11717.5832,W,56.30,345.80,120210,,*24
$GPRMC,014048.5,A,3304.1337,N,11717.5970,W,56.60,346.10,120210,,*20
$GPRMC,014051.5,A,3304.1790,N,11717.6111,W,56.30,345.70,120210,,*2D
$GPRMC,014054.5,A,3304.2247,N,11717.6248,W,56.10,345.80,120210,,*26
$GPRMC,014057.5,A,3304.2700,N,11717.6387,W,56.00,345.70,120210,,*2F
$GPRMC,014100.5,A,3304.3149,N,11717.6522,W,55.40,345.30,120210,,*2C
$GPRMC,014103.5,A,3304.3596,N,11717.6659,W,54.80,346.00,120210,,*2B
$GPRMC,014106.5,A,3304.4041,N,11717.6787,W,54.60,345.70,120210,,*2E
$GPRMC,014109.5,A,3304.4479,N,11717.6917,W,54.10,345.70,120210,,*2E
$GPRMC,014112.5,A,3304.4919,N,11717.7049,W,54.70,345.80,120210,,*25
$GPRMC,014115.5,A,3304.5360,N,11717.7183,W,54.40,345.70,120210,,*2C
$GPRMC,014118.5,A,3304.5799,N,11717.7316,W,53.80,345.70,120210,,*26
$GPRMC,014121.5,A,3304.6230,N,11717.7447,W,53.60,346.00,120210,,*20
$GPRMC,014124.5,A,3304.6668,N,11717.7580,W,54.00,345.80,120210,,*2C
$GPRMC,014127.5,A,3304.7111,N,11717.7715,W,55.00,345.70,120210,,*27
$GPRMC,014130.5,A,3304.7558,N,11717.7849,W,55.20,345.70,120210,,*2C
$GPRMC,014133.5,A,3304.8005,N,11717.7981,W,55.10,345.90,120210,,*25
$GPRMC,014136.5,A,3304.8451,N,11717.8116,W,54.70,345.80,120210,,*2A
$GPRMC,014139.5,A,3304.8898,N,11717.8242,W,55.00,345.80,120210,,*28
$GPRMC,014142.5,A,3304.9349,N,11717.8377,W,56.20,345.80,120210,,*24
$GPRMC,014145.5,A,3304.9802,N,11717.8522,W,56.10,344.30,120210,,*28
$GPRMC,014148.5,A,3305.0254,N,11717.8693,W,56.50,341.50,120210,,*2A
$GPRMC,014151.5,A,3305.0699,N,11717.8907,W,58.40,336.50,120210,,*2A
$GPRMC,014154.5,A,3305.1134,N,11717.9168,W,58.10,332.20,120210,,*28
$GPRMC,014157.5,A,3305.1555,N,11717.9439,W,57.30,331.20,120210,,*27
$GPRMC,014200.5,A,3305.1982,N,11717.9718,W,57.90,331.20,120210,,*2A
$GPRMC,014203.5,A,3305.2404,N,11717.9989,W,57.30,331.30,120210,,*24
$GPRMC,014206.5,A,3305.2819,N,11718.0258,W,56.10,331.20,120210,,*22
$GPRMC,014209.5,A,3305.3229,N,11718.0524,W,55.60,331.30,120210,,*2C
$GPRMC,014212.5,A,3305.3636,N,11718.0789,W,55.20,331.30,120210,,*2D
$GPRMC,014215.5,A,3305.4041,N,11718.1052,W,55.00,331.20,120210,,*28
$GPRMC,014218.5,A,3305.4444,N,11718.1317,W,55.20,331.30,120210,,*25
$GPRMC,014221.5,A,3305.4851,N,11718.1584,W,56.20,331.00,120210,,*2B
$GPRMC,014224.5,A,3305.5267,N,11718.1856,W,57.20,331.30,120210,,*20
$GPRMC,014227.5,A,3305.5690,N,11718.2138,W,58.40,330.90,120210,,*2F
$GPRMC,014230.5,A,3305.6091,N,11718.2404,W,55.70,331.60,120210,,*27
$GPRMC,014233.5,A,3305.6500,N,11718.2664,W,55.50,331.10,120210,,*28
$GPRMC,014236.5,A,3305.6909,N,11718.2928,W,55.20,331.20,120210,,*2B
$GPRMC,014239.5,A,3305.7315,N,11718.3189,W,54.30,331.30,120210,,*21
$GPRMC,014242.5,A,3305.7699,N,11718.3441,W,50.30,331.30,120210,,*29
$GPRMC,014245.5,A,3305.8053,N,11718.3674,W,46.90,331.30,120210,,*28
$GPRMC,014248.5,A,3305.8385,N,11718.3891,W,43.20,331.20,120210,,*27
$GPRMC,014251.5,A,3305.8683,N,11718.4086,W,39.90,331.30,120210,,*22
$GPRMC,014254.5,A,3305.8970,N,11718.4272,W,40.20,331.40,120210,,*2F
$GPRMC,014257.5,A,3305.9273,N,11718.4471,W,43.60,331.20,120210,,*21
$GPRMC,014300.5,A,3305.9611,N,11718.4693,W,47.70,331.30,120210,,*28
$GPRMC,014303.5,A,3305.9973,N,11718.4925,W,50.90,331.20,120210,,*2B
$GPRMC,014306.5,A,3306.0352,N,11718.5169,W,51.90,331.30,120210,,*2C
$GPRMC,014309.5,A,3306.0730,N,11718.5416,W,51.30,331.20,120210,,*25
$GPRMC,014312.5,A,3306.1095,N,11718.5655,W,48.00,331.20,120210,,*28
$GPRMC,014315.5,A,3306.1432,N,11718.5872,W,44.90,331.20,120210,,*28
$GPRMC,014318.5,A,3306.1752,N,11718.6083,W,43.50,331.40,120210,,*28
$GPRMC,014321.5,A,3306.2070,N,11718.6286,W,44.00,331.20,120210,,*25
$GPRMC,014324.5,A,3306.2387,N,11718.6494,W,42.30,331.30,120210,,*2A
$GPRMC,014327.5,A,3306.2686,N,11718.6692,W,40.00,331.20,120210,,*29
$GPRMC,014330.5,A,3306.2970,N,11718.6877,W,37.50,331.40,120210,,*2F
$GPRMC,014333.5,A,3306.3229,N,11718.7042,W,32.70,331.30,120210,,*25
$GPRMC,014336.5,A,3306.3455,N,11718.7190,W,30.30,331.10,120210,,*27
$GPRMC,014339.5,A,3306.3675,N,11718.7331,W,29.00,331.40,120210,,*2F
$GPRMC,014342.5,A,3306.3885,N,11718.7468,W,30.10,331.20,120210,,*26
$GPRMC,014345.5,A,3306.4117,N,11718.7620,W,34.40,331.20,120210,,*2B
$GPRMC,014348.5,A,3306.4379,N,11718.7789,W,35.10,331.30,120210,,*2B
$GPRMC,014351.5,A,3306.4647,N,11718.7964,W,38.20,330.70,120210,,*2D
$GPRMC,014354.5,A,3306.4950,N,11718.8160,W,42.30,331.60,120210,,*2E
$GPRMC,014357.5,A,3306.5276,N,11718.8367,W,46.20,332.50,120210,,*23
$GPRMC,014400.5,A,3306.5619,N,11718.8578,W,46.70,333.00,120210,,*22
$GPRMC,014403.5,A,3306.5955,N,11718.8785,W,44.60,333.20,120210,,*27
$GPRMC,014406.5,A,3306.6278,N,11718.8977,W,41.90,333.20,120210,,*2C
$GPRMC,014409.5,A,3306.6587,N,11718.9159,W,41.20,333.40,120210,,*2C
$GPRMC,014412.5,A,3306.6889,N,11718.9341,W,39.30,333.20,120210,,*26
$GPRMC,014415.5,A,3306.7178,N,11718.9511,W,37.70,333.30,120210,,*2F
$GPRMC,014418.5,A,3306.7460,N,11718.9676,W,38.40,333.90,120210,,*2A
$GPRMC,014421.5,A,3306.7734,N,11718.9841,W,35.50,333.30,120210,,*2E
$GPRMC,014424.5,A,3306.7996,N,11718.9999,W,34.90,333.20,120210,,*25
$GPRMC,014427.5,A,3306.8245,N,11719.0150,W,32.80,333.20,120210,,*2E
$GPRMC,014430.5,A,3306.8484,N,11719.0294,W,31.00,333.20,120210,,*23
$GPRMC,014433.5,A,3306.8706,N,11719.0427,W,29.20,333.40,120210,,*2A
$GPRMC,014436.5,A,3306.8915,N,11719.0553,W,26.40,333.30,120210,,*2F
$GPRMC,014439.5,A,3306.9097,N,11719.0664,W,23.30,333.20,120210,,*26
$GPRMC,014442.5,A,3306.9253,N,11719.0756,W,17.00,333.60,120210,,*20
$GPRMC,014445.5,A,3306.9353,N,11719.0816,W,11.20,333.50,120210,,*2A
$GPRMC,014500.5,A,3306.9463,N,11719.0876,W,6.00,332.60,120210,,*1E
$GPRMC,014503.5,A,3306.9519,N,11719.0907,W,9.60,333.10,120210,,*19
$GPRMC,014506.5,A,3306.9609,N,11719.0964,W,15.90,333.00,120210,,*28
$GPRMC,014509.5,A,3306.9761,N,11719.1055,W,22.70,333.40,120210,,*2C
$GPRMC,014512.5,A,3306.9942,N,11719.1163,W,26.40,333.10,120210,,*2F
$GPRMC,014515.5,A,3307.0141,N,11719.1282,W,25.90,333.40,120210,,*2C
$GPRMC,014518.5,A,3307.0338,N,11719.1403,W,27.00,333.10,120210,,*2C
$GPRMC,014521.5,A,3307.0557,N,11719.1534,W,30.40,333.20,120210,,*2D
$GPRMC,014524.5,A,3307.0776,N,11719.1665,W,28.70,333.50,120210,,*23
$GPRMC,014527.5,A,3307.0999,N,11719.1794,W,31.40,333.20,120210,,*2C
$GPRMC,014530.5,A,3307.1246,N,11719.1940,W,33.20,333.40,120210,,*27
$GPRMC,014533.5,A,3307.1483,N,11719.2083,W,30.70,333.10,120210,,*2D
$GPRMC,014536.5,A,3307.1705,N,11719.2218,W,30.20,333.30,120210,,*22
$GPRMC,014539.5,A,3307.1931,N,11719.2354,W,29.90,333.20,120210,,*2F
$GPRMC,014542.5,A,3307.2152,N,11719.2488,W,29.80,333.40,120210,,*2C
$GPRMC,014545.5,A,3307.2370,N,11719.2620,W,29.60,333.40,120210,,*27
$GPRMC,014548.5,A,3307.2595,N,11719.2755,W,31.30,333.10,120210,,*2D
$GPRMC,014551.5,A,3307.2820,N,11719.2889,W,29.70,333.40,120210,,*20
$GPRMC,014554.5,A,3307.3037,N,11719.3021,W,28.70,333.10,120210,,*25
$GPRMC,014557.5,A,3307.3249,N,11719.3152,W,28.40,332.60,120210,,*2D
$GPRMC,014600.5,A,3307.3452,N,11719.3269,W,26.00,333.20,120210,,*24
$GPRMC,014603.5,A,3307.3642,N,11719.3385,W,25.80,333.30,120210,,*2D
$GPRMC,014606.5,A,3307.3826,N,11719.3490,W,23.70,334.10,120210,,*2B
$GPRMC,014609.5,A,3307.3989,N,11719.3591,W,20.80,333.40,120210,,*2E
$GPRMC,014612.5,A,3307.4137,N,11719.3677,W,18.40,333.30,120210,,*25
$GPRMC,014615.5,A,3307.4272,N,11719.3759,W,18.80,333.00,120210,,*22
$GPRMC,014618.5,A,3307.4419,N,11719.3846,W,20.10,333.00,120210,,*27
$GPRMC,014621.5,A,3307.4565,N,11719.3932,W,19.30,333.60,120210,,*2B
$GPRMC,014624.5,A,3307.4710,N,11719.4016,W,20.50,333.20,120210,,*2E
$GPRMC,014627.5,A,3307.4860,N,11719.4112,W,20.50,333.20,120210,,*20
$GPRMC,014630.5,A,3307.5003,N,11719.4204,W,19.00,333.40,120210,,*27
$GPRMC,014633.5,A,3307.5151,N,11719.4293,W,19.70,333.10,120210,,*2E
$GPRMC,014636.5,A,3307.5276,N,11719.4365,W,13.60,333.30,120210,,*2C
$GPRMC,014639.5,A,3307.5368,N,11719.4419,W,10.90,332.60,120210,,*29
$GPRMC,014642.5,A,3307.5440,N,11719.4463,W,7.50,333.10,120210,,*19
$GPRMC,014645.5,A,3307.5488,N,11719.4490,W,5.30,333.70,120210,,*14
$GPRMC,014648.5,A,3307.5534,N,11719.4516,W,8.10,333.60,120210,,*1E
$GPRMC,014651.5,A,3307.5608,N,11719.4562,W,10.80,334.10,120210,,*29
$GPRMC,014654.5,A,3307.5673,N,11719.4600,W,5.50,333.00,120210,,*18
$GPRMC,014709.5,A,3307.5790,N,11719.4668,W,10.20,331.10,120210,,*23
$GPRMC,014712.5,A,3307.5910,N,11719.4738,W,17.70,333.50,120210,,*2F
$GPRMC,014715.5,A,3307.6044,N,11719.4821,W,18.50,333.30,120210,,*2F
$GPRMC,014718.5,A,3307.6207,N,11719.4918,W,21.60,333.30,120210,,*25
$GPRMC,014721.5,A,3307.6367,N,11719.5013,W,21.40,333.20,120210,,*28
$GPRMC,014724.5,A,3307.6540,N,11719.5122,W,25.30,333.00,120210,,*2C
$GPRMC,014727.5,A,3307.6729,N,11719.5236,W,25.20,333.50,120210,,*20
$GPRMC,014730.5,A,3307.6933,N,11719.5359,W,29.60,333.30,120210,,*25
$GPRMC,014733.5,A,3307.7158,N,11719.5493,W,29.50,333.20,120210,,*21
$GPRMC,014736.5,A,3307.7376,N,11719.5624,W,29.20,333.00,120210,,*21
$GPRMC,014739.5,A,3307.7609,N,11719.5762,W,34.00,333.30,120210,,*2D
$GPRMC,014742.5,A,3307.7874,N,11719.5925,W,36.40,333.30,120210,,*2E
$GPRMC,014745.5,A,3307.8148,N,11719.6086,W,36.00,333.20,120210,,*26
$GPRMC,014748.5,A,3307.8424,N,11719.6254,W,38.90,333.10,120210,,*2D
$GPRMC,014751.5,A,3307.8717,N,11719.6429,W,40.40,333.40,120210,,*2D
$GPRMC,014754.5,A,3307.9027,N,11719.6613,W,41.60,333.10,120210,,*20
$GPRMC,014757.5,A,3307.9340,N,11719.6798,W,42.70,333.20,120210,,*22
$GPRMC,014800.5,A,3307.9666,N,11719.6990,W,44.10,333.90,120210,,*23
$GPRMC,014803.5,A,3307.9987,N,11719.7173,W,40.90,335.30,120210,,*24
$GPRMC,014806.5,A,3308.0284,N,11719.7332,W,37.40,336.40,120210,,*21
$GPRMC,014809.5,A,3308.0559,N,11719.7472,W,34.20,337.10,120210,,*2B
$GPRMC,014812.5,A,3308.0800,N,11719.7594,W,29.40,337.70,120210,,*25
$GPRMC,014815.5,A,3308.0966,N,11719.7680,W,19.00,337.10,120210,,*24
$GPRMC,014818.5,A,3308.1112,N,11719.7753,W,20.50,336.50,120210,,*26
$GPRMC,014821.5,A,3308.1264,N,11719.7834,W,19.70,336.60,120210,,*2B
$GPRMC,014824.5,A,3308.1408,N,11719.7903,W,17.30,336.60,120210,,*2D
$GPRMC,014827.5,A,3308.1512,N,11719.7961,W,11.70,330.30,120210,,*21
$GPRMC,014836.5,A,3308.1581,N,11719.7991,W,6.60,337.20,120210,,*15
$GPRMC,014839.5,A,3308.1642,N,11719.8020,W,10.20,337.10,120210,,*2A
$GPRMC,014842.5,A,3308.1743,N,11719.8068,W,16.00,337.10,120210,,*2E
$GPRMC,014845.5,A,3308.1886,N,11719.8142,W,21.40,336.90,120210,,*2F
$GPRMC,014848.5,A,3308.2070,N,11719.8233,W,24.90,336.80,120210,,*2C
$GPRMC,014851.5,A,3308.2271,N,11719.8334,W,28.00,336.90,120210,,*25
$GPRMC,014854.5,A,3308.2497,N,11719.8449,W,30.90,336.80,120210,,*22
$GPRMC,014857.5,A,3308.2744,N,11719.8577,W,33.70,336.80,120210,,*2D
$GPRMC,014900.5,A,3308.3005,N,11719.8711,W,33.40,336.90,120210,,*2D
$GPRMC,014903.5,A,3308.3261,N,11719.8836,W,33.70,337.00,120210,,*2F
$GPRMC,014906.5,A,3308.3532,N,11719.8977,W,37.10,336.70,120210,,*2B
$GPRMC,014909.5,A,3308.3826,N,11719.9126,W,40.10,337.00,120210,,*27
$GPRMC,014912.5,A,3308.4138,N,11719.9286,W,41.30,336.90,120210,,*2E
$GPRMC,014915.5,A,3308.4461,N,11719.9451,W,43.30,337.00,120210,,*26
$GPRMC,014918.5,A,3308.4788,N,11719.9613,W,41.30,337.00,120210,,*29
$GPRMC,014921.5,A,3308.5100,N,11719.9765,W,39.60,339.70,120210,,*27
$GPRMC,014924.5,A,3308.5425,N,11719.9889,W,42.00,344.00,120210,,*2A
$GPRMC,014927.5,A,3308.5792,N,11719.9986,W,47.70,349.60,120210,,*21
$GPRMC,014930.5,A,3308.6196,N,11720.0045,W,49.20,354.90,120210,,*2B
$GPRMC,014933.5,A,3308.6596,N,11720.0073,W,47.30,357.40,120210,,*28
$GPRMC,014936.5,A,3308.6980,N,11720.0095,W,44.30,357.40,120210,,*2D
$GPRMC,014939.5,A,3308.7342,N,11720.0114,W,41.30,357.40,120210,,*2A
$GPRMC,014942.5,A,3308.7657,N,11720.0128,W,34.50,357.20,120210,,*2A
$GPRMC,014945.5,A,3308.7924,N,11720.0149,W,30.60,355.30,120210,,*25
$GPRMC,014948.5,A,3308.8165,N,11720.0178,W,26.70,351.70,120210,,*2E
$GPRMC,014951.5,A,3308.8374,N,11720.0217,W,24.90,352.30,120210,,*25
$GPRMC,014954.5,A,3308.8590,N,11720.0274,W,28.20,347.80,120210,,*21
$GPRMC,014957.5,A,3308.8754,N,11720.0345,W,22.60,341.90,120210,,*22
$GPRMC,015000.5,A,3308.8927,N,11720.0423,W,21.40,338.40,120210,,*27
$GPRMC,015003.5,A,3308.9082,N,11720.0505,W,19.50,335.40,120210,,*21
$GPRMC,015006.5,A,3308.9228,N,11720.0590,W,20.00,334.10,120210,,*21
$GPRMC,015009.5,A,3308.9391,N,11720.0685,W,24.40,334.10,120210,,*2A
$GPRMC,015012.5,A,3308.9593,N,11720.0799,W,30.50,334.20,120210,,*2F
$GPRMC,015015.5,A,3308.9831,N,11720.0934,W,33.30,333.80,120210,,*2C
$GPRMC,015018.5,A,3309.0073,N,11720.1078,W,31.40,333.80,120210,,*22
$GPRMC,015021.5,A,3309.0313,N,11720.1218,W,34.30,334.30,120210,,*27
$GPRMC,015024.5,A,3309.0570,N,11720.1369,W,33.40,334.00,120210,,*25
$GPRMC,015027.5,A,3309.0817,N,11720.1511,W,33.70,334.40,120210,,*24
$GPRMC,015030.5,A,3309.1082,N,11720.1665,W,35.90,334.20,120210,,*29
$GPRMC,015033.5,A,3309.1353,N,11720.1825,W,36.90,333.30,120210,,*2A
$GPRMC,015036.5,A,3309.1657,N,11720.1991,W,40.40,333.80,120210,,*27
$GPRMC,015039.5,A,3309.1962,N,11720.2165,W,40.90,334.00,120210,,*23
$GPRMC,015042.5,A,3309.2278,N,11720.2347,W,42.70,334.10,120210,,*23
$GPRMC,015045.5,A,3309.2600,N,11720.2533,W,42.70,334.40,120210,,*2F
$GPRMC,015048.5,A,3309.2920,N,11720.2716,W,42.10,335.20,120210,,*2B
$GPRMC,015051.5,A,3309.3246,N,11720.2895,W,43.80,336.30,120210,,*27
$GPRMC,015054.5,A,3309.3590,N,11720.3071,W,45.90,336.70,120210,,*2E
$GPRMC,015057.5,A,3309.3943,N,11720.3252,W,46.20,336.80,120210,,*2B
$GPRMC,015100.5,A,3309.4301,N,11720.3433,W,47.20,336.80,120210,,*23
$GPRMC,015103.5,A,3309.4669,N,11720.3623,W,48.70,336.60,120210,,*2C
$GPRMC,015106.5,A,3309.5057,N,11720.3816,W,50.60,336.90,120210,,*2C
$GPRMC,015109.5,A,3309.5453,N,11720.4017,W,52.20,336.80,120210,,*2A
$GPRMC,015112.5,A,3309.5853,N,11720.4219,W,52.10,336.70,120210,,*2C
$GPRMC,015115.5,A,3309.6258,N,11720.4423,W,53.10,336.90,120210,,*29
$GPRMC,015118.5,A,3309.6673,N,11720.4637,W,54.70,336.90,120210,,*2F
$GPRMC,015121.5,A,3309.7092,N,11720.4845,W,55.10,336.90,120210,,*21
$GPRMC,015124.5,A,3309.7516,N,11720.5061,W,55.20,336.50,120210,,*2D
$GPRMC,015127.5,A,3309.7937,N,11720.5275,W,54.00,336.80,120210,,*28
$GPRMC,015130.5,A,3309.8348,N,11720.5489,W,53.80,336.80,120210,,*29
$GPRMC,015133.5,A,3309.8762,N,11720.5701,W,54.10,336.70,120210,,*24
$GPRMC,015136.5,A,3309.9181,N,11720.5911,W,54.00,337.10,120210,,*22
$GPRMC,015139.5,A,3309.9601,N,11720.6118,W,53.90,337.90,120210,,*26
$GPRMC,015142.5,A,3310.0021,N,11720.6326,W,54.50,337.20,120210,,*20
$GPRMC,015145.5,A,3310.0436,N,11720.6539,W,54.80,336.90,120210,,*2A
$GPRMC,015148.5,A,3310.0856,N,11720.6765,W,55.10,334.60,120210,,*23
$GPRMC,015151.5,A,3310.1259,N,11720.7010,W,53.70,332.00,120210,,*2B
$GPRMC,015154.5,A,3310.1654,N,11720.7275,W,54.50,329.40,120210,,*2D
$GPRMC,015157.5,A,3310.2046,N,11720.7557,W,54.80,328.00,120210,,*27
$GPRMC,015200.5,A,3310.2439,N,11720.7851,W,55.80,327.70,120210,,*28
$GPRMC,015203.5,A,3310.2825,N,11720.8145,W,54.70,327.70,120210,,*27
$GPRMC,015206.5,A,3310.3209,N,11720.8433,W,53.80,327.90,120210,,*25
$GPRMC,015209.5,A,3310.3590,N,11720.8721,W,54.70,327.90,120210,,*25
$GPRMC,015212.5,A,3310.3981,N,11720.9018,W,54.70,327.80,120210,,*2E
$GPRMC,015215.5,A,3310.4365,N,11720.9307,W,52.60,327.50,120210,,*29
$GPRMC,015218.5,A,3310.4739,N,11720.9592,W,54.50,327.60,120210,,*25
$GPRMC,015221.5,A,3310.5120,N,11720.9881,W,54.70,327.90,120210,,*22
$GPRMC,015224.5,A,3310.5501,N,11721.0164,W,53.50,327.70,120210,,*21
$GPRMC,015227.5,A,3310.5881,N,11721.0452,W,55.10,327.50,120210,,*27
$GPRMC,015230.5,A,3310.6271,N,11721.0747,W,56.00,327.30,120210,,*24
$GPRMC,015233.5,A,3310.6653,N,11721.1061,W,55.60,325.30,120210,,*26
$GPRMC,015236.5,A,3310.7032,N,11721.1374,W,55.90,325.20,120210,,*2A
$GPRMC,015239.5,A,3310.7415,N,11721.1690,W,56.70,325.10,120210,,*25
$GPRMC,015242.5,A,3310.7805,N,11721.2012,W,57.30,325.00,120210,,*2F
$GPRMC,015245.5,A,3310.8197,N,11721.2331,W,56.20,326.80,120210,,*2C
$GPRMC,015248.5,A,3310.8593,N,11721.2659,W,57.90,325.20,120210,,*29
$GPRMC,015251.5,A,3310.8989,N,11721.2987,W,57.20,325.50,120210,,*26
$GPRMC,015254.5,A,3310.9371,N,11721.3305,W,55.40,325.10,120210,,*2E
$GPRMC,015257.5,A,3310.9761,N,11721.3623,W,57.10,325.00,120210,,*2F
$GPRMC,015300.5,A,3311.0149,N,11721.3945,W,54.90,325.30,120210,,*2F
$GPRMC,015303.5,A,3311.0519,N,11721.4244,W,52.70,326.60,120210,,*2E
$GPRMC,015306.5,A,3311.0886,N,11721.4526,W,51.30,326.70,120210,,*25
$GPRMC,015309.5,A,3311.1239,N,11721.4815,W,51.40,325.10,120210,,*2A
$GPRMC,015312.5,A,3311.1582,N,11721.5101,W,48.40,326.40,120210,,*24
$GPRMC,015315.5,A,3311.1909,N,11721.5356,W,44.80,326.20,120210,,*2A
$GPRMC,015318.5,A,3311.2214,N,11721.5599,W,44.40,326.20,120210,,*2A
$GPRMC,015321.5,A,3311.2540,N,11721.5851,W,48.30,327.30,120210,,*24
$GPRMC,015324.5,A,3311.2874,N,11721.6118,W,47.90,324.90,120210,,*20
$GPRMC,015327.5,A,3311.3197,N,11721.6389,W,47.20,324.50,120210,,*2B
$GPRMC,015330.5,A,3311.3517,N,11721.6658,W,46.20,325.50,120210,,*28
$GPRMC,015333.5,A,3311.3829,N,11721.6911,W,44.00,325.20,120210,,*2E
$GPRMC,015336.5,A,3311.4120,N,11721.7146,W,40.20,327.50,120210,,*24
$GPRMC,015339.5,A,3311.4393,N,11721.7339,W,35.90,330.80,120210,,*29
$GPRMC,015342.5,A,3311.4641,N,11721.7494,W,31.80,332.30,120210,,*23
$GPRMC,015345.5,A,3311.4852,N,11721.7638,W,25.70,330.60,120210,,*21
$GPRMC,015348.5,A,3311.5030,N,11721.7715,W,21.70,343.80,120210,,*21
$GPRMC,015351.5,A,3311.5178,N,11721.7614,W,17.10,31.10,120210,,*18
$GPRMC,015354.5,A,3311.5225,N,11721.7401,W,18.20,76.90,120210,,*17
$GPRMC,015357.5,A,3311.5123,N,11721.7173,W,21.20,116.30,120210,,*26
$GPRMC,015400.5,A,3311.4942,N,11721.7050,W,23.10,145.10,120210,,*28
$GPRMC,015403.5,A,3311.4789,N,11721.6935,W,17.30,145.40,120210,,*29
$GPRMC,015406.5,A,3311.4690,N,11721.6864,W,11.80,148.20,120210,,*26
$GPRMC,015439.5,A,3311.4610,N,11721.6907,W,12.30,215.80,120210,,*2F
$GPRMC,015442.5,A,3311.4512,N,11721.7019,W,19.20,227.40,120210,,*22
$GPRMC,015445.5,A,3311.4399,N,11721.7168,W,22.50,228.60,120210,,*25
$GPRMC,015448.5,A,3311.4268,N,11721.7342,W,24.00,227.70,120210,,*20
$GPRMC,015451.5,A,3311.4149,N,11721.7510,W,21.40,230.00,120210,,*29
$GPRMC,015454.5,A,3311.4046,N,11721.7694,W,19.80,236.10,120210,,*2D
$GPRMC,015457.5,A,3311.3970,N,11721.7836,W,12.80,238.80,120210,,*2F
$GPRMC,015609.5,A,3311.3894,N,11721.7997,W,8.70,253.50,120210,,*13
$GPRMC,015612.5,A,3311.3776,N,11721.8153,W,18.80,232.10,120210,,*28
$GPRMC,015615.5,A,3311.3606,N,11721.8324,W,23.20,219.80,120210,,*29
$GPRMC,015618.5,A,3311.3455,N,11721.8469,W,24.40,216.00,120210,,*28
