NMEA Sentence Code,UTC Time,Status,Latitude,Latitude Direction,Longitude,Longitude Direction,Speed (knots),Track Angle (degrees true),Date,MagneticVariation,Magnetic Variation Direction,[FAA Mode]-Optional,Checksum
$GPRMC,172014.9,A,3238.667123,N,11659.883751,W,37.5,303.7,220910,,,A*4D
$GPRMC,172017.9,A,3238.684289,N,11659.915590,W,37.2,302.9,220910,,,A*49
$GPRMC,172020.9,A,3238.699531,N,11659.946271,W,36.2,300.3,220910,,,A*42
$GPRMC,172023.9,A,3238.715557,N,11659.977707,W,36.0,302.6,220910,,,A*47
$GPRMC,172026.9,A,3238.729855,N,11700.006652,W,34.0,300.2,220910,,,A*45
$GPRMC,172029.9,A,3238.743520,N,11700.032782,W,33.1,301.3,220910,,,A*44
$GPRMC,172032.9,A,3238.757901,N,11700.060950,W,32.8,302.0,220910,,,A*4A
$GPRMC,172035.9,A,3238.772049,N,11700.088745,W,33.0,300.9,220910,,,A*41
$GPRMC,172038.9,A,3238.783989,N,11700.113629,W,29.8,301.2,220910,,,A*46
$GPRMC,172041.9,A,3238.796828,N,11700.136193,W,27.2,300.5,220910,,,A*45
$GPRMC,172044.9,A,3238.809144,N,11700.157123,W,24.5,300.1,220910,,,A*46
$GPRMC,172047.9,A,3238.820298,N,11700.178990,W,26.9,300.0,220910,,,A*4E
$GPRMC,172050.9,A,3238.831891,N,11700.206384,W,32.5,299.0,220910,,,A*46
$GPRMC,172053.9,A,3238.845536,N,11700.234781,W,34.9,302.5,220910,,,A*4A
$GPRMC,172056.9,A,3238.865188,N,11700.262688,W,37.2,309.9,220910,,,A*48
$GPRMC,172059.0,A,3238.880549,N,11700.283854,W,39.0,308.8,220910,,,A*40
$GPRMC,172102.9,A,3238.917910,N,11700.309180,W,38.8,326.9,220910,,,A*4E
$GPRMC,172105.9,A,3238.945797,N,11700.330958,W,39.7,325.9,220910,,,A*45
$GPRMC,172108.9,A,3238.972529,N,11700.352725,W,40.7,323.6,220910,,,A*4C
$GPRMC,172111.9,A,3239.012012,N,11700.371869,W,44.2,323.6,220910,,,A*40
$GPRMC,172114.2,A,3239.034335,N,11700.395514,W,46.1,317.4,220910,,,A*45
$GPRMC,172117.9,A,3239.058334,N,11700.444076,W,44.0,299.7,220910,,,A*4B
$GPRMC,172121.2,A,3239.074707,N,11700.492619,W,47.3,293.1,220910,,,A*47
$GPRMC,172124.9,A,3239.076254,N,11700.555843,W,49.4,274.9,220910,,,A*4B
$GPRMC,172127.9,A,3239.079569,N,11700.604996,W,49.8,275.4,220910,,,A*40
$GPRMC,172130.9,A,3239.087249,N,11700.649415,W,48.5,280.0,220910,,,A*4F
$GPRMC,172133.9,A,3239.093740,N,11700.699362,W,50.2,280.1,220910,,,A*40
$GPRMC,172136.9,A,3239.100438,N,11700.745299,W,46.3,278.8,220910,,,A*4F
$GPRMC,172139.9,A,3239.107197,N,11700.787125,W,41.5,279.5,220910,,,A*40
$GPRMC,172142.9,A,3239.112131,N,11700.820439,W,34.1,279.6,220910,,,A*4B
$GPRMC,172145.9,A,3239.115244,N,11700.848617,W,26.3,276.1,220910,,,A*43
$GPRMC,172148.9,A,3239.116892,N,11700.862361,W,14.9,275.8,220910,,,A*41
$GPRMC,172151.9,A,3239.118690,N,11700.870595,W,6.6,274.5,220910,,,A*75
$GPRMC,172200.9,A,3239.123609,N,11700.884026,W,14.9,289.7,220910,,,A*40
$GPRMC,172203.2,A,3239.128212,N,11700.901141,W,23.0,290.0,220910,,,A*43
$GPRMC,172206.2,A,3239.139791,N,11700.931056,W,36.2,296.9,220910,,,A*45
$GPRMC,172209.2,A,3239.157596,N,11700.963301,W,42.8,305.9,220910,,,A*43
$GPRMC,172212.2,A,3239.180162,N,11700.999172,W,47.6,306.6,220910,,,A*48
$GPRMC,172215.2,A,3239.203890,N,11701.036941,W,47.4,306.6,220910,,,A*44
$GPRMC,172218.9,A,3239.232224,N,11701.082317,W,45.7,306.2,220910,,,A*46
$GPRMC,172221.9,A,3239.253426,N,11701.115175,W,43.8,304.7,220910,,,A*48
$GPRMC,172225.2,A,3239.270230,N,11701.159156,W,44.3,292.6,220910,,,A*4D
$GPRMC,172228.0,A,3239.276834,N,11701.200535,W,44.1,281.1,220910,,,A*43
$GPRMC,172231.9,A,3239.281196,N,11701.258099,W,44.5,271.9,220910,,,A*46
$GPRMC,172234.9,A,3239.279506,N,11701.301697,W,43.9,269.6,220910,,,A*41
$GPRMC,172237.9,A,3239.282688,N,11701.344305,W,44.0,273.0,220910,,,A*4F
$GPRMC,172240.9,A,3239.283901,N,11701.386999,W,43.8,271.3,220910,,,A*4F
$GPRMC,172243.2,A,3239.282229,N,11701.421406,W,45.2,268.4,220910,,,A*45
$GPRMC,172246.2,A,3239.281853,N,11701.466590,W,45.2,270.2,220910,,,A*46
$GPRMC,172249.9,A,3239.285682,N,11701.523172,W,46.0,276.6,220910,,,A*4F
$GPRMC,172252.2,A,3239.298971,N,11701.552714,W,43.8,291.9,220910,,,A*4A
$GPRMC,172255.9,A,3239.324949,N,11701.599295,W,45.7,301.5,220910,,,A*4D
$GPRMC,172258.9,A,3239.350550,N,11701.637406,W,46.7,306.8,220910,,,A*45
$GPRMC,172301.9,A,3239.376133,N,11701.669891,W,43.5,309.0,220910,,,A*44
$GPRMC,172304.9,A,3239.398438,N,11701.698045,W,38.2,308.3,220910,,,A*49
$GPRMC,172307.9,A,3239.416388,N,11701.722488,W,31.8,309.2,220910,,,A*41
$GPRMC,172310.9,A,3239.428075,N,11701.743200,W,26.5,308.9,220910,,,A*4B
$GPRMC,172313.2,A,3239.440024,N,11701.758170,W,25.5,313.8,220910,,,A*4F
$GPRMC,172316.9,A,3239.461324,N,11701.780257,W,28.0,320.0,220910,,,A*42
$GPRMC,172319.9,A,3239.486606,N,11701.794672,W,33.5,332.1,220910,,,A*4A
$GPRMC,172322.9,A,3239.515195,N,11701.806753,W,35.4,338.9,220910,,,A*47
$GPRMC,172325.9,A,3239.542588,N,11701.818174,W,35.6,339.5,220910,,,A*49
$GPRMC,172328.2,A,3239.566848,N,11701.827828,W,37.0,339.8,220910,,,A*4D
$GPRMC,172331.9,A,3239.603619,N,11701.839713,W,34.6,341.2,220910,,,A*4C
$GPRMC,172334.9,A,3239.624118,N,11701.852938,W,29.3,340.2,220910,,,A*48
$GPRMC,172337.9,A,3239.645192,N,11701.860310,W,23.2,343.6,220910,,,A*43
$GPRMC,172340.9,A,3239.656294,N,11701.866094,W,14.4,342.2,220910,,,A*4A
$GPRMC,172343.9,A,3239.663490,N,11701.869724,W,8.5,338.3,220910,,,A*7E
$GPRMC,172431.9,A,3239.673358,N,11701.872904,W,6.0,318.7,220910,,,A*75
$GPRMC,172434.9,A,3239.675093,N,11701.890347,W,13.2,267.9,220910,,,A*42
$GPRMC,172437.9,A,3239.669110,N,11701.912807,W,20.9,248.5,220910,,,A*48
$GPRMC,172440.9,A,3239.660870,N,11701.941383,W,25.3,246.3,220910,,,A*48
$GPRMC,172443.9,A,3239.652241,N,11701.967137,W,27.1,246.2,220910,,,A*4A
$GPRMC,172446.9,A,3239.643983,N,11701.992172,W,28.7,251.8,220910,,,A*44
$GPRMC,172449.2,A,3239.640458,N,11702.015124,W,30.4,261.6,220910,,,A*49
$GPRMC,172452.9,A,3239.638212,N,11702.053143,W,31.8,271.3,220910,,,A*45
$GPRMC,172455.9,A,3239.641312,N,11702.087803,W,33.6,277.4,220910,,,A*44
$GPRMC,172458.9,A,3239.646071,N,11702.118128,W,29.3,276.0,220910,,,A*44
$GPRMC,172501.9,A,3239.645795,N,11702.142563,W,24.3,269.3,220910,,,A*43
$GPRMC,172504.2,A,3239.644204,N,11702.156434,W,17.5,260.8,220910,,,A*43
$GPRMC,172507.2,A,3239.640505,N,11702.170100,W,14.2,255.0,220910,,,A*4E
$GPRMC,172510.2,A,3239.635776,N,11702.185215,W,17.5,247.3,220910,,,A*45
$GPRMC,172513.2,A,3239.627441,N,11702.205391,W,25.4,238.0,220910,,,A*4F
$GPRMC,172516.9,A,3239.611746,N,11702.230444,W,28.0,234.1,220910,,,A*4D
$GPRMC,172519.9,A,3239.595867,N,11702.252195,W,28.5,233.5,220910,,,A*4A
$GPRMC,172522.9,A,3239.584122,N,11702.276535,W,28.1,236.8,220910,,,A*4E
$GPRMC,172525.9,A,3239.569637,N,11702.298104,W,28.5,235.5,220910,,,A*45
$GPRMC,172528.9,A,3239.558078,N,11702.324541,W,29.8,238.6,220910,,,A*46
$GPRMC,172531.9,A,3239.544729,N,11702.348047,W,30.2,235.8,220910,,,A*48
$GPRMC,172534.9,A,3239.528323,N,11702.372140,W,32.4,234.7,220910,,,A*4C
$GPRMC,172537.9,A,3239.512845,N,11702.402014,W,35.3,237.4,220910,,,A*4D
$GPRMC,172540.9,A,3239.496165,N,11702.432496,W,36.2,235.9,220910,,,A*4B
$GPRMC,172543.9,A,3239.480129,N,11702.461181,W,34.1,238.1,220910,,,A*46
$GPRMC,172546.9,A,3239.458397,N,11702.491888,W,40.0,231.6,220910,,,A*42
$GPRMC,172549.9,A,3239.436414,N,11702.524720,W,41.9,230.5,220910,,,A*41
$GPRMC,172553.2,A,3239.407580,N,11702.559001,W,43.4,227.3,220910,,,A*4E
$GPRMC,172556.2,A,3239.384015,N,11702.588734,W,42.2,226.7,220910,,,A*41
$GPRMC,172559.2,A,3239.360335,N,11702.619737,W,42.9,227.4,220910,,,A*44
$GPRMC,172602.9,A,3239.331292,N,11702.666320,W,44.9,228.9,220910,,,A*44
$GPRMC,172605.9,A,3239.306212,N,11702.695391,W,42.8,227.7,220910,,,A*4F
$GPRMC,172608.9,A,3239.283451,N,11702.726376,W,43.2,229.0,220910,,,A*4D
$GPRMC,172611.9,A,3239.260782,N,11702.761270,W,43.6,232.6,220910,,,A*49
$GPRMC,172614.9,A,3239.239213,N,11702.798313,W,44.3,236.9,220910,,,A*46
$GPRMC,172617.9,A,3239.221397,N,11702.837054,W,43.9,241.4,220910,,,A*4B
$GPRMC,172620.9,A,3239.205604,N,11702.877061,W,44.3,242.1,220910,,,A*4F
$GPRMC,172623.9,A,3239.183165,N,11702.910500,W,42.9,232.3,220910,,,A*4A
$GPRMC,172626.9,A,3239.160459,N,11702.940008,W,43.0,224.9,220910,,,A*45
$GPRMC,172629.2,A,3239.137700,N,11702.962884,W,44.2,223.0,220910,,,A*4B
$GPRMC,172632.2,A,3239.111613,N,11702.991744,W,43.4,225.3,220910,,,A*4D
$GPRMC,172635.9,A,3239.083418,N,11703.030521,W,41.6,231.4,220910,,,A*42
$GPRMC,172638.9,A,3239.064350,N,11703.066038,W,40.3,235.4,220910,,,A*43
$GPRMC,172641.9,A,3239.048086,N,11703.095688,W,37.6,236.4,220910,,,A*4C
$GPRMC,172644.9,A,3239.031063,N,11703.126392,W,37.9,234.3,220910,,,A*41
$GPRMC,172647.9,A,3239.010674,N,11703.154272,W,37.6,229.7,220910,,,A*4C
$GPRMC,172650.9,A,3238.992577,N,11703.181319,W,35.0,230.7,220910,,,A*40
$GPRMC,172653.9,A,3238.975408,N,11703.202640,W,30.2,229.1,220910,,,A*4B
$GPRMC,172656.9,A,3238.958185,N,11703.221473,W,28.6,228.1,220910,,,A*4E
$GPRMC,172659.9,A,3238.942808,N,11703.243835,W,28.7,229.4,220910,,,A*49
$GPRMC,172702.9,A,3238.928067,N,11703.264159,W,29.3,229.4,220910,,,A*48
$GPRMC,172705.9,A,3238.913591,N,11703.288808,W,29.9,235.3,220910,,,A*44
$GPRMC,172708.9,A,3238.902267,N,11703.317500,W,31.1,244.5,220910,,,A*44
$GPRMC,172711.9,A,3238.889728,N,11703.345561,W,33.5,245.3,220910,,,A*41
$GPRMC,172714.9,A,3238.878355,N,11703.376177,W,34.1,248.3,220910,,,A*49
$GPRMC,172718.2,A,3238.874512,N,11703.415567,W,36.3,260.5,220910,,,A*4C
$GPRMC,172721.2,A,3238.873558,N,11703.441920,W,23.6,267.1,220910,,,A*43
$GPRMC,172724.9,A,3238.873065,N,11703.461657,W,16.9,272.1,220910,,,A*46
$GPRMC,172807.9,A,3238.879098,N,11703.490580,W,26.5,281.3,220910,,,A*46
$GPRMC,172810.9,A,3238.883299,N,11703.527641,W,34.3,278.5,220910,,,A*40
$GPRMC,172813.9,A,3238.888560,N,11703.562587,W,35.3,279.1,220910,,,A*45
$GPRMC,172816.9,A,3238.891671,N,11703.598626,W,35.6,275.5,220910,,,A*4B
$GPRMC,172820.2,A,3238.896673,N,11703.631999,W,32.9,279.8,220910,,,A*42
$GPRMC,172823.2,A,3238.917554,N,11703.670270,W,41.5,296.4,220910,,,A*43
$GPRMC,172826.9,A,3238.934252,N,11703.722202,W,46.4,289.1,220910,,,A*43
$GPRMC,172829.9,A,3238.955642,N,11703.767594,W,51.5,293.9,220910,,,A*43
$GPRMC,172832.9,A,3238.974221,N,11703.815425,W,53.4,293.9,220910,,,A*49
$GPRMC,172835.9,A,3238.991187,N,11703.862079,W,52.1,294.0,220910,,,A*4D
$GPRMC,172838.9,A,3239.009899,N,11703.909471,W,53.7,295.6,220910,,,A*4F
$GPRMC,172841.9,A,3239.031811,N,11703.958720,W,56.5,297.0,220910,,,A*4A
$GPRMC,172844.9,A,3239.057022,N,11704.012077,W,62.2,301.0,220910,,,A*4C
$GPRMC,172847.9,A,3239.087647,N,11704.058824,W,59.6,306.2,220910,,,A*4E
$GPRMC,172850.9,A,3239.122485,N,11704.104411,W,62.1,312.4,220910,,,A*44
$GPRMC,172853.9,A,3239.159780,N,11704.144126,W,61.7,317.7,220910,,,A*4B
$GPRMC,172856.9,A,3239.199125,N,11704.179013,W,60.1,321.6,220910,,,A*41
$GPRMC,172859.9,A,3239.238551,N,11704.220534,W,62.2,321.6,220910,,,A*4F
$GPRMC,172902.9,A,3239.276649,N,11704.254920,W,60.3,321.8,220910,,,A*47
$GPRMC,172905.9,A,3239.320456,N,11704.290834,W,62.1,322.9,220910,,,A*40
$GPRMC,172908.9,A,3239.358946,N,11704.328678,W,61.2,321.8,220910,,,A*48
$GPRMC,172911.9,A,3239.399968,N,11704.367904,W,61.8,322.0,220910,,,A*4F
$GPRMC,172914.9,A,3239.440949,N,11704.403869,W,61.8,322.5,220910,,,A*40
$GPRMC,172917.9,A,3239.475477,N,11704.440648,W,59.2,320.2,220910,,,A*4B
$GPRMC,172920.9,A,3239.512285,N,11704.478862,W,58.8,319.5,220910,,,A*4F
$GPRMC,172924.2,A,3239.566002,N,11704.519465,W,63.4,323.6,220910,,,A*4D
$GPRMC,172927.9,A,3239.613210,N,11704.564832,W,59.9,321.2,220910,,,A*43
$GPRMC,172930.9,A,3239.655748,N,11704.602623,W,62.0,322.1,220910,,,A*43
$GPRMC,172933.9,A,3239.699728,N,11704.638410,W,63.4,324.3,220910,,,A*4C
$GPRMC,172936.9,A,3239.738437,N,11704.676216,W,60.7,322.5,220910,,,A*44
$GPRMC,172939.9,A,3239.792510,N,11704.702563,W,63.0,330.4,220910,,,A*4E
$GPRMC,172942.9,A,3239.837504,N,11704.730551,W,60.7,333.5,220910,,,A*41
$GPRMC,172945.9,A,3239.880882,N,11704.754619,W,60.1,337.0,220910,,,A*43
$GPRMC,172948.9,A,3239.930145,N,11704.776775,W,61.5,340.2,220910,,,A*4A
$GPRMC,172951.9,A,3239.979362,N,11704.794523,W,61.7,342.7,220910,,,A*40
$GPRMC,172954.0,A,3240.012895,N,11704.805550,W,62.0,342.9,220910,,,A*4C
$GPRMC,172957.9,A,3240.074319,N,11704.831141,W,62.0,342.0,220910,,,A*43
$GPRMC,173000.9,A,3240.125134,N,11704.848876,W,62.1,342.5,220910,,,A*46
$GPRMC,173003.9,A,3240.172607,N,11704.869279,W,61.4,341.0,220910,,,A*46
$GPRMC,173006.9,A,3240.222542,N,11704.888110,W,62.1,341.7,220910,,,A*45
$GPRMC,173009.9,A,3240.272896,N,11704.905921,W,62.0,342.7,220910,,,A*47
$GPRMC,173012.9,A,3240.323115,N,11704.923593,W,62.0,342.0,220910,,,A*4C
$GPRMC,173015.9,A,3240.370245,N,11704.943233,W,62.5,340.6,220910,,,A*41
$GPRMC,173018.9,A,3240.417443,N,11704.965174,W,61.6,339.9,220910,,,A*4F
$GPRMC,173021.9,A,3240.464959,N,11704.988726,W,62.3,338.7,220910,,,A*4C
$GPRMC,173024.9,A,3240.514346,N,11705.009715,W,61.6,339.1,220910,,,A*4B
$GPRMC,173027.9,A,3240.559893,N,11705.033425,W,60.8,336.7,220910,,,A*4D
$GPRMC,173030.9,A,3240.608208,N,11705.057591,W,61.8,337.0,220910,,,A*4F
$GPRMC,173033.9,A,3240.652847,N,11705.081023,W,59.5,336.4,220910,,,A*46
$GPRMC,173036.9,A,3240.698745,N,11705.105318,W,60.9,336.4,220910,,,A*48
$GPRMC,173039.9,A,3240.748088,N,11705.129707,W,62.8,337.6,220910,,,A*49
$GPRMC,173042.9,A,3240.797115,N,11705.152114,W,62.3,337.6,220910,,,A*41
$GPRMC,173045.9,A,3240.846767,N,11705.176237,W,62.6,337.5,220910,,,A*44
$GPRMC,173048.9,A,3240.892764,N,11705.202113,W,61.7,336.1,220910,,,A*41
$GPRMC,173051.9,A,3240.938416,N,11705.226716,W,61.4,335.6,220910,,,A*4C
$GPRMC,173054.9,A,3240.985113,N,11705.254949,W,62.4,331.5,220910,,,A*4A
$GPRMC,173057.9,A,3241.026713,N,11705.289334,W,61.4,326.0,220910,,,A*4E
$GPRMC,173100.9,A,3241.063971,N,11705.328215,W,60.7,320.2,220910,,,A*48
$GPRMC,173103.2,A,3241.091519,N,11705.364654,W,61.0,313.8,220910,,,A*4A
$GPRMC,173106.2,A,3241.126009,N,11705.409349,W,61.1,313.3,220910,,,A*49
$GPRMC,173109.2,A,3241.160258,N,11705.453236,W,60.8,313.0,220910,,,A*4F
$GPRMC,173112.9,A,3241.203326,N,11705.508529,W,62.7,313.0,220910,,,A*4B
$GPRMC,173115.9,A,3241.240268,N,11705.550188,W,61.6,315.9,220910,,,A*4F
$GPRMC,173118.9,A,3241.279239,N,11705.586731,W,59.8,320.7,220910,,,A*4E
$GPRMC,173121.9,A,3241.326341,N,11705.617249,W,62.0,329.3,220910,,,A*4D
$GPRMC,173125.2,A,3241.375693,N,11705.648974,W,60.5,332.5,220910,,,A*4A
$GPRMC,173128.9,A,3241.435171,N,11705.679099,W,62.8,338.1,220910,,,A*4D
$GPRMC,173131.9,A,3241.484791,N,11705.683806,W,60.4,349.0,220910,,,A*45
$GPRMC,173134.9,A,3241.539056,N,11705.687198,W,62.0,356.4,220910,,,A*4D
$GPRMC,173137.9,A,3241.590123,N,11705.689664,W,61.6,359.6,220910,,,A*4C
$GPRMC,173140.9,A,3241.642465,N,11705.687450,W,61.3,1.3,220910,,,A*42
$GPRMC,173143.9,A,3241.690533,N,11705.688006,W,60.2,0.6,220910,,,A*40
$GPRMC,173146.9,A,3241.744603,N,11705.687193,W,63.4,0.2,220910,,,A*4E
$GPRMC,173149.9,A,3241.792868,N,11705.686561,W,61.9,1.3,220910,,,A*4E
$GPRMC,173152.9,A,3241.848009,N,11705.684348,W,63.1,2.5,220910,,,A*43
$GPRMC,173155.9,A,3241.903320,N,11705.681381,W,63.4,2.0,220910,,,A*42
$GPRMC,173158.9,A,3241.950644,N,11705.684784,W,60.9,359.3,220910,,,A*4A
$GPRMC,173201.9,A,3242.000941,N,11705.684531,W,60.8,0.2,220910,,,A*43
$GPRMC,173204.9,A,3242.052217,N,11705.683789,W,61.2,0.4,220910,,,A*42
$GPRMC,173207.9,A,3242.104122,N,11705.684811,W,61.5,359.7,220910,,,A*44
$GPRMC,173210.9,A,3242.158017,N,11705.684630,W,63.0,358.4,220910,,,A*44
$GPRMC,173213.9,A,3242.210751,N,11705.688055,W,63.6,354.4,220910,,,A*4E
$GPRMC,173217.2,A,3242.265599,N,11705.702004,W,62.9,347.4,220910,,,A*4E
$GPRMC,173220.9,A,3242.325498,N,11705.724937,W,61.4,340.8,220910,,,A*4C
$GPRMC,173223.9,A,3242.375267,N,11705.749462,W,63.4,336.8,220910,,,A*49
$GPRMC,173226.9,A,3242.422517,N,11705.780932,W,65.1,331.8,220910,,,A*40
$GPRMC,173229.9,A,3242.465394,N,11705.815166,W,62.8,325.2,220910,,,A*4A
$GPRMC,173232.9,A,3242.499850,N,11705.853298,W,56.9,322.0,220910,,,A*43
$GPRMC,173235.9,A,3242.538325,N,11705.895100,W,61.3,321.8,220910,,,A*4A
$GPRMC,173238.9,A,3242.580698,N,11705.933052,W,62.9,321.8,220910,,,A*45
$GPRMC,173241.9,A,3242.619485,N,11705.970455,W,62.0,320.7,220910,,,A*45
$GPRMC,173245.2,A,3242.666396,N,11706.012674,W,62.8,322.6,220910,,,A*43
$GPRMC,173248.2,A,3242.708132,N,11706.050048,W,62.3,323.1,220910,,,A*49
$GPRMC,173251.9,A,3242.760584,N,11706.096433,W,62.5,325.6,220910,,,A*48
$GPRMC,173254.2,A,3242.797397,N,11706.117870,W,62.3,332.5,220910,,,A*4A
$GPRMC,173257.9,A,3242.856572,N,11706.146231,W,62.0,339.1,220910,,,A*4A
$GPRMC,173300.9,A,3242.905851,N,11706.164765,W,61.4,342.8,220910,,,A*44
$GPRMC,173303.2,A,3242.946562,N,11706.168450,W,62.4,353.1,220910,,,A*45
$GPRMC,173306.2,A,3242.999971,N,11706.174389,W,64.7,353.0,220910,,,A*46
$GPRMC,173309.9,A,3243.062028,N,11706.171190,W,61.4,3.1,220910,,,A*45
$GPRMC,173312.9,A,3243.114716,N,11706.164765,W,62.7,5.0,220910,,,A*4A
$GPRMC,173315.2,A,3243.154394,N,11706.161050,W,61.4,4.8,220910,,,A*41
$GPRMC,173318.9,A,3243.220651,N,11706.153837,W,61.2,4.8,220910,,,A*45
$GPRMC,173321.9,A,3243.270077,N,11706.152720,W,61.3,3.0,220910,,,A*4E
$GPRMC,173324.9,A,3243.322156,N,11706.149967,W,61.9,3.0,220910,,,A*42
$GPRMC,173327.9,A,3243.374057,N,11706.148294,W,62.6,359.9,220910,,,A*4D
$GPRMC,173330.9,A,3243.427866,N,11706.155894,W,63.3,353.2,220910,,,A*43
$GPRMC,173333.9,A,3243.479996,N,11706.167960,W,62.9,348.5,220910,,,A*48
$GPRMC,173336.9,A,3243.530100,N,11706.186802,W,63.3,341.7,220910,,,A*4C
$GPRMC,173339.9,A,3243.579816,N,11706.206711,W,64.8,338.9,220910,,,A*4A
$GPRMC,173342.9,A,3243.622745,N,11706.238801,W,62.0,331.4,220910,,,A*4B
$GPRMC,173345.9,A,3243.666468,N,11706.274412,W,63.8,325.7,220910,,,A*49
$GPRMC,173348.9,A,3243.706690,N,11706.315554,W,63.5,320.3,220910,,,A*4F
$GPRMC,173351.9,A,3243.741015,N,11706.361267,W,62.0,313.3,220910,,,A*4F
$GPRMC,173354.9,A,3243.771536,N,11706.410027,W,61.6,306.3,220910,,,A*4B
$GPRMC,173357.9,A,3243.799584,N,11706.463292,W,62.3,303.4,220910,,,A*4B
$GPRMC,173400.2,A,3243.820308,N,11706.502973,W,62.5,303.1,220910,,,A*4B
$GPRMC,173403.9,A,3243.853411,N,11706.568222,W,64.1,302.1,220910,,,A*48
$GPRMC,173406.9,A,3243.880864,N,11706.620445,W,63.2,302.3,220910,,,A*43
$GPRMC,173410.2,A,3243.916951,N,11706.676263,W,63.6,307.8,220910,,,A*4D
$GPRMC,173413.9,A,3243.962198,N,11706.728466,W,61.4,315.4,220910,,,A*4D
$GPRMC,173416.9,A,3244.002979,N,11706.764301,W,59.6,323.3,220910,,,A*42
$GPRMC,173419.0,A,3244.034956,N,11706.782744,W,60.5,331.4,220910,,,A*4C
$GPRMC,173422.9,A,3244.105464,N,11706.812199,W,63.5,339.6,220910,,,A*4B
$GPRMC,173425.9,A,3244.151766,N,11706.830215,W,61.3,340.7,220910,,,A*40
$GPRMC,173428.9,A,3244.202575,N,11706.851309,W,62.3,340.6,220910,,,A*41
$GPRMC,173431.9,A,3244.248489,N,11706.872457,W,61.2,339.7,220910,,,A*45
$GPRMC,173434.2,A,3244.288831,N,11706.886345,W,63.4,341.5,220910,,,A*4E
$GPRMC,173437.2,A,3244.338251,N,11706.907210,W,62.2,337.3,220910,,,A*42
$GPRMC,173440.2,A,3244.386743,N,11706.931102,W,63.1,336.9,220910,,,A*4D
$GPRMC,173443.2,A,3244.433316,N,11706.957867,W,62.9,334.3,220910,,,A*48
$GPRMC,173446.2,A,3244.479688,N,11706.987115,W,62.4,330.6,220910,,,A*4C
$GPRMC,173449.9,A,3244.535164,N,11707.026700,W,63.4,328.7,220910,,,A*4C
$GPRMC,173452.9,A,3244.579186,N,11707.060674,W,62.3,326.9,220910,,,A*44
$GPRMC,173455.9,A,3244.626914,N,11707.091474,W,65.0,330.5,220910,,,A*4A
$GPRMC,173458.9,A,3244.669441,N,11707.124363,W,61.8,327.7,220910,,,A*47
$GPRMC,173501.9,A,3244.712886,N,11707.160588,W,62.7,324.8,220910,,,A*43
$GPRMC,173504.9,A,3244.755060,N,11707.197165,W,62.9,324.6,220910,,,A*4A
$GPRMC,173507.2,A,3244.787627,N,11707.225268,W,61.8,324.7,220910,,,A*4F
$GPRMC,173510.9,A,3244.838644,N,11707.268952,W,61.2,322.8,220910,,,A*44
$GPRMC,173513.9,A,3244.880307,N,11707.303721,W,62.3,325.4,220910,,,A*49
$GPRMC,173516.2,A,3244.915502,N,11707.327668,W,62.2,329.0,220910,,,A*4A
$GPRMC,173519.0,A,3244.954327,N,11707.356966,W,61.2,332.6,220910,,,A*4B
$GPRMC,173522.9,A,3245.018364,N,11707.388021,W,62.5,339.8,220910,,,A*45
$GPRMC,173525.9,A,3245.067031,N,11707.408158,W,62.3,341.9,220910,,,A*41
$GPRMC,173528.9,A,3245.118577,N,11707.421734,W,63.0,344.9,220910,,,A*42
$GPRMC,173531.9,A,3245.165951,N,11707.439602,W,61.5,343.6,220910,,,A*4A
$GPRMC,173534.9,A,3245.214612,N,11707.456255,W,61.5,344.1,220910,,,A*4D
$GPRMC,173537.0,A,3245.249884,N,11707.468330,W,62.8,343.2,220910,,,A*4B
$GPRMC,173540.9,A,3245.315184,N,11707.493351,W,64.6,342.7,220910,,,A*4C
$GPRMC,173543.2,A,3245.354515,N,11707.504276,W,62.7,343.8,220910,,,A*4F
$GPRMC,173546.9,A,3245.417571,N,11707.527133,W,64.3,343.6,220910,,,A*4C
$GPRMC,173549.2,A,3245.456272,N,11707.540499,W,63.3,343.1,220910,,,A*4D
$GPRMC,173552.9,A,3245.516835,N,11707.559877,W,61.7,344.6,220910,,,A*42
$GPRMC,173555.9,A,3245.568754,N,11707.578533,W,62.6,342.8,220910,,,A*40
$GPRMC,173558.9,A,3245.619628,N,11707.594033,W,62.8,344.9,220910,,,A*4C
$GPRMC,173601.9,A,3245.670274,N,11707.609057,W,62.4,346.4,220910,,,A*47
$GPRMC,173604.2,A,3245.708576,N,11707.618908,W,63.0,346.9,220910,,,A*49
$GPRMC,173607.2,A,3245.760980,N,11707.633608,W,63.6,346.1,220910,,,A*49
$GPRMC,173610.9,A,3245.826825,N,11707.651567,W,65.9,346.0,220910,,,A*41
$GPRMC,173613.9,A,3245.878224,N,11707.663059,W,63.4,346.0,220910,,,A*40
$GPRMC,173616.9,A,3245.927825,N,11707.685689,W,63.1,341.3,220910,,,A*47
$GPRMC,173619.9,A,3245.973633,N,11707.706767,W,62.9,339.7,220910,,,A*49
$GPRMC,173622.9,A,3246.021880,N,11707.731466,W,62.6,337.0,220910,,,A*4A
$GPRMC,173625.9,A,3246.069250,N,11707.759293,W,62.3,335.3,220910,,,A*40
$GPRMC,173628.9,A,3246.114982,N,11707.783815,W,62.6,334.8,220910,,,A*4E
$GPRMC,173631.9,A,3246.160774,N,11707.814868,W,62.6,331.7,220910,,,A*43
$GPRMC,173634.9,A,3246.203430,N,11707.846084,W,61.5,330.0,220910,,,A*48
$GPRMC,173637.9,A,3246.246353,N,11707.877204,W,61.9,329.5,220910,,,A*41
$GPRMC,173640.9,A,3246.295587,N,11707.906651,W,62.9,330.2,220910,,,A*4F
$GPRMC,173643.9,A,3246.338958,N,11707.938217,W,62.3,328.5,220910,,,A*4B
$GPRMC,173646.9,A,3246.383625,N,11707.967863,W,60.2,329.0,220910,,,A*4F
$GPRMC,173649.9,A,3246.429049,N,11708.002679,W,62.6,327.8,220910,,,A*4B
$GPRMC,173652.9,A,3246.472412,N,11708.033083,W,61.7,328.2,220910,,,A*43
$GPRMC,173655.9,A,3246.517569,N,11708.066050,W,63.6,329.5,220910,,,A*40
$GPRMC,173658.9,A,3246.562467,N,11708.096389,W,61.8,328.9,220910,,,A*49
$GPRMC,173701.9,A,3246.604633,N,11708.128836,W,61.3,329.0,220910,,,A*4C
$GPRMC,173704.9,A,3246.645552,N,11708.159893,W,60.5,328.3,220910,,,A*44
$GPRMC,173707.9,A,3246.688421,N,11708.191415,W,60.4,327.6,220910,,,A*4E
$GPRMC,173710.9,A,3246.733581,N,11708.224041,W,61.7,328.5,220910,,,A*44
$GPRMC,173713.9,A,3246.780550,N,11708.255152,W,62.8,328.5,220910,,,A*4A
$GPRMC,173716.9,A,3246.825119,N,11708.289346,W,64.1,326.8,220910,,,A*4C
$GPRMC,173719.9,A,3246.866827,N,11708.324806,W,64.0,324.2,220910,,,A*40
$GPRMC,173722.9,A,3246.908520,N,11708.365761,W,65.7,321.5,220910,,,A*44
$GPRMC,173725.9,A,3246.940219,N,11708.415215,W,64.2,313.2,220910,,,A*46
$GPRMC,173728.9,A,3246.976433,N,11708.462339,W,63.9,309.7,220910,,,A*4D
$GPRMC,173731.9,A,3247.007091,N,11708.513142,W,63.4,306.1,220910,,,A*4A
$GPRMC,173734.9,A,3247.036276,N,11708.567011,W,63.4,304.7,220910,,,A*46
$GPRMC,173737.2,A,3247.058278,N,11708.605260,W,62.1,305.2,220910,,,A*4B
$GPRMC,173740.9,A,3247.092443,N,11708.662417,W,61.7,306.0,220910,,,A*4B
$GPRMC,173743.2,A,3247.117249,N,11708.700895,W,63.3,308.6,220910,,,A*4E
$GPRMC,173746.2,A,3247.152166,N,11708.748251,W,62.8,311.1,220910,,,A*4F
$GPRMC,173749.9,A,3247.197034,N,11708.801769,W,62.8,317.6,220910,,,A*49
$GPRMC,173752.9,A,3247.241430,N,11708.837742,W,63.0,324.3,220910,,,A*4B
$GPRMC,173755.9,A,3247.285469,N,11708.868882,W,60.7,327.1,220910,,,A*44
$GPRMC,173758.9,A,3247.333718,N,11708.896525,W,62.9,332.5,220910,,,A*4D
$GPRMC,173801.9,A,3247.384069,N,11708.920686,W,63.1,337.4,220910,,,A*48
$GPRMC,173804.9,A,3247.433533,N,11708.941527,W,62.6,341.2,220910,,,A*42
$GPRMC,173807.9,A,3247.482216,N,11708.959358,W,60.8,344.0,220910,,,A*47
$GPRMC,173810.9,A,3247.530397,N,11708.970626,W,59.7,348.9,220910,,,A*46
$GPRMC,173813.9,A,3247.582417,N,11708.972756,W,61.2,355.8,220910,,,A*44
$GPRMC,173816.9,A,3247.637973,N,11708.974121,W,63.3,0.6,220910,,,A*4D
$GPRMC,173819.9,A,3247.689544,N,11708.972315,W,62.6,2.8,220910,,,A*44
$GPRMC,173822.9,A,3247.740658,N,11708.967155,W,63.5,4.5,220910,,,A*4D
$GPRMC,173825.9,A,3247.793798,N,11708.964646,W,62.8,3.1,220910,,,A*40
$GPRMC,173828.9,A,3247.846173,N,11708.961621,W,61.8,2.8,220910,,,A*46
$GPRMC,173831.9,A,3247.893828,N,11708.963128,W,60.2,358.7,220910,,,A*45
$GPRMC,173834.9,A,3247.947641,N,11708.963060,W,63.0,357.4,220910,,,A*49
$GPRMC,173837.9,A,3248.002572,N,11708.975673,W,64.8,349.9,220910,,,A*40
$GPRMC,173840.9,A,3248.055669,N,11708.988276,W,64.1,348.1,220910,,,A*48
$GPRMC,173843.9,A,3248.102124,N,11709.005113,W,60.4,345.6,220910,,,A*40
$GPRMC,173846.9,A,3248.152387,N,11709.017959,W,60.7,347.0,220910,,,A*49
$GPRMC,173849.9,A,3248.207136,N,11709.030529,W,62.3,347.1,220910,,,A*44
$GPRMC,173853.2,A,3248.261938,N,11709.045019,W,61.9,347.6,220910,,,A*48
$GPRMC,173856.9,A,3248.322989,N,11709.063427,W,61.4,346.5,220910,,,A*48
$GPRMC,173859.9,A,3248.375467,N,11709.077390,W,63.3,345.5,220910,,,A*40
$GPRMC,173902.9,A,3248.425292,N,11709.098174,W,63.7,340.1,220910,,,A*4D
$GPRMC,173905.9,A,3248.472209,N,11709.122416,W,62.8,336.2,220910,,,A*47
$GPRMC,173908.9,A,3248.518494,N,11709.151659,W,63.4,331.3,220910,,,A*43
$GPRMC,173911.2,A,3248.552924,N,11709.176718,W,63.6,328.8,220910,,,A*48
$GPRMC,173914.9,A,3248.605090,N,11709.222064,W,62.8,322.8,220910,,,A*4A
$GPRMC,173917.2,A,3248.636295,N,11709.250473,W,61.9,323.2,220910,,,A*4B
$GPRMC,173920.9,A,3248.681707,N,11709.294424,W,57.7,321.9,220910,,,A*4E
$GPRMC,173923.9,A,3248.717782,N,11709.330092,W,55.5,321.1,220910,,,A*40
$GPRMC,173926.9,A,3248.752792,N,11709.364792,W,54.5,320.8,220910,,,A*4A
$GPRMC,173929.9,A,3248.788483,N,11709.396393,W,54.5,321.4,220910,,,A*44
$GPRMC,173932.9,A,3248.821099,N,11709.431224,W,53.9,320.4,220910,,,A*40
$GPRMC,173935.9,A,3248.856473,N,11709.466417,W,54.2,322.3,220910,,,A*4A
$GPRMC,173938.9,A,3248.892145,N,11709.496478,W,51.3,325.6,220910,,,A*4F
$GPRMC,173941.9,A,3248.931141,N,11709.522309,W,53.6,328.7,220910,,,A*49
$GPRMC,173944.9,A,3248.971166,N,11709.548950,W,54.8,329.8,220910,,,A*40
$GPRMC,173947.9,A,3249.011133,N,11709.576314,W,55.3,330.1,220910,,,A*41
$GPRMC,173950.9,A,3249.054902,N,11709.600174,W,56.2,333.7,220910,,,A*4D
$GPRMC,173953.9,A,3249.100025,N,11709.621555,W,52.7,335.9,220910,,,A*4F
$GPRMC,173956.9,A,3249.136206,N,11709.643221,W,49.5,335.9,220910,,,A*44
$GPRMC,173959.9,A,3249.170510,N,11709.663467,W,46.9,333.8,220910,,,A*4B
$GPRMC,174002.9,A,3249.208751,N,11709.681744,W,46.8,335.5,220910,,,A*44
$GPRMC,174005.9,A,3249.244214,N,11709.701665,W,46.5,334.1,220910,,,A*4C
$GPRMC,174008.9,A,3249.278464,N,11709.722875,W,46.2,334.1,220910,,,A*46
$GPRMC,174012.2,A,3249.319156,N,11709.743831,W,48.3,336.4,220910,,,A*4B
$GPRMC,174015.9,A,3249.362558,N,11709.770582,W,48.4,332.4,220910,,,A*47
$GPRMC,174018.9,A,3249.399094,N,11709.792897,W,49.4,332.7,220910,,,A*4C
$GPRMC,174021.9,A,3249.436844,N,11709.813826,W,49.4,334.2,220910,,,A*4E
$GPRMC,174024.9,A,3249.474216,N,11709.835308,W,49.4,334.6,220910,,,A*47
$GPRMC,174027.9,A,3249.513578,N,11709.856396,W,51.2,335.8,220910,,,A*49
$GPRMC,174030.9,A,3249.549246,N,11709.880069,W,49.5,333.2,220910,,,A*40
$GPRMC,174033.9,A,3249.585537,N,11709.902648,W,49.0,332.8,220910,,,A*42
$GPRMC,174036.9,A,3249.621354,N,11709.923121,W,47.8,333.1,220910,,,A*4C
$GPRMC,174039.9,A,3249.655601,N,11709.945219,W,46.8,332.8,220910,,,A*44
$GPRMC,174042.9,A,3249.691207,N,11709.965060,W,46.9,334.4,220910,,,A*47
$GPRMC,174045.9,A,3249.727293,N,11709.984078,W,44.8,335.1,220910,,,A*40
$GPRMC,174048.9,A,3249.759007,N,11710.000988,W,41.6,337.6,220910,,,A*4E
$GPRMC,174051.9,A,3249.788623,N,11710.017321,W,40.3,337.3,220910,,,A*44
$GPRMC,174054.9,A,3249.816524,N,11710.033902,W,37.7,333.9,220910,,,A*4A
$GPRMC,174058.2,A,3249.849077,N,11710.050247,W,37.0,336.3,220910,,,A*43
$GPRMC,174101.2,A,3249.879726,N,11710.062471,W,34.8,340.9,220910,,,A*4C
$GPRMC,174104.0,A,3249.903531,N,11710.066030,W,30.6,355.0,220910,,,A*41
$GPRMC,174107.2,A,3249.928041,N,11710.057800,W,28.5,22.8,220910,,,A*73
$GPRMC,174110.2,A,3249.946797,N,11710.039980,W,28.4,38.5,220910,,,A*77
$GPRMC,174113.2,A,3249.961408,N,11710.024820,W,21.5,40.4,220910,,,A*75
$GPRMC,174116.9,A,3249.968591,N,11710.008014,W,17.8,71.2,220910,,,A*7E
$GPRMC,174119.2,A,3249.968391,N,11709.988331,W,25.0,91.0,220910,,,A*74
$GPRMC,174123.2,A,3249.959287,N,11709.953467,W,28.6,101.4,220910,,,A*4C
$GPRMC,174126.0,A,3249.954666,N,11709.928344,W,25.5,107.3,220910,,,A*48
$GPRMC,174129.9,A,3249.952731,N,11709.896679,W,22.9,94.5,220910,,,A*72
$GPRMC,174132.9,A,3249.956219,N,11709.872373,W,22.9,88.5,220910,,,A*7B
$GPRMC,174135.9,A,3249.957899,N,11709.850301,W,21.9,88.1,220910,,,A*7D
$GPRMC,174138.9,A,3249.960106,N,11709.834079,W,14.4,73.4,220910,,,A*7F
$GPRMC,174141.9,A,3249.966769,N,11709.829047,W,10.5,14.7,220910,,,A*7E
$GPRMC,174144.9,A,3249.977350,N,11709.829669,W,13.1,2.4,220910,,,A*4C
$GPRMC,174147.9,A,3249.992670,N,11709.827796,W,17.8,358.9,220910,,,A*40
$GPRMC,174150.9,A,3250.010910,N,11709.829025,W,22.4,356.8,220910,,,A*40
$GPRMC,174153.9,A,3250.033204,N,11709.830033,W,24.7,358.4,220910,,,A*44
$GPRMC,174156.9,A,3250.053157,N,11709.833165,W,22.9,357.5,220910,,,A*45
$GPRMC,174159.9,A,3250.067213,N,11709.833362,W,17.5,1.9,220910,,,A*4D
$GPRMC,174202.9,A,3250.074475,N,11709.832318,W,6.7,3.6,220910,,,A*77
$GPRMC,174206.2,A,3250.078950,N,11709.834335,W,8.2,334.1,220910,,,A*7C
$GPRMC,174209.2,A,3250.084946,N,11709.838946,W,8.7,330.4,220910,,,A*71
$GPRMC,174212.2,A,3250.086413,N,11709.855928,W,14.8,290.5,220910,,,A*4F
$GPRMC,174215.9,A,3250.092720,N,11709.883053,W,23.1,274.4,220910,,,A*4D
$GPRMC,174218.9,A,3250.086532,N,11709.915839,W,28.1,266.1,220910,,,A*43
$GPRMC,174221.9,A,3250.093775,N,11709.936433,W,25.0,272.8,220910,,,A*4B
$GPRMC,174224.9,A,3250.088974,N,11709.963492,W,26.1,267.7,220910,,,A*49
$GPRMC,174227.9,A,3250.081623,N,11709.996465,W,27.8,264.6,220910,,,A*46
$GPRMC,174230.9,A,3250.079193,N,11710.025117,W,31.4,263.9,220910,,,A*41
$GPRMC,174233.9,A,3250.079109,N,11710.049295,W,25.9,267.4,220910,,,A*43
$GPRMC,174236.9,A,3250.080269,N,11710.071750,W,22.2,270.5,220910,,,A*49
$GPRMC,174239.9,A,3250.078638,N,11710.088040,W,15.5,266.4,220910,,,A*44
$GPRMC,174242.9,A,3250.081330,N,11710.091747,W,6.4,284.7,220910,,,A*77
$GPRMC,174245.9,A,3250.092195,N,11710.094352,W,11.2,345.0,220910,,,A*41
$GPRMC,174248.9,A,3250.107864,N,11710.092087,W,18.5,0.6,220910,,,A*41
$GPRMC,174251.9,A,3250.126814,N,11710.093244,W,23.1,358.0,220910,,,A*45
$GPRMC,174254.9,A,3250.152951,N,11710.093999,W,32.8,357.6,220910,,,A*48
$GPRMC,174257.9,A,3250.183014,N,11710.092691,W,36.6,1.4,220910,,,A*41
$GPRMC,174300.9,A,3250.215252,N,11710.087630,W,38.1,9.1,220910,,,A*45
$GPRMC,174303.9,A,3250.247627,N,11710.076047,W,38.4,17.3,220910,,,A*77
$GPRMC,174306.9,A,3250.277217,N,11710.068711,W,36.4,10.4,220910,,,A*73
$GPRMC,174309.9,A,3250.303005,N,11710.065538,W,32.6,2.8,220910,,,A*42
$GPRMC,174312.9,A,3250.328112,N,11710.065001,W,29.8,360.0,220910,,,A*42
$GPRMC,174315.9,A,3250.352585,N,11710.068206,W,30.2,357.5,220910,,,A*49
$GPRMC,174318.9,A,3250.373618,N,11710.067220,W,26.5,1.9,220910,,,A*47
$GPRMC,174321.9,A,3250.392342,N,11710.060500,W,20.8,13.2,220910,,,A*79
$GPRMC,174324.9,A,3250.402766,N,11710.058348,W,9.1,16.3,220910,,,A*47
$GPRMC,174339.2,A,3250.407543,N,11710.055963,W,7.6,13.6,220910,,,A*47
$GPRMC,174342.9,A,3250.418058,N,11710.060166,W,13.7,320.9,220910,,,A*42
$GPRMC,174345.9,A,3250.424864,N,11710.075199,W,20.1,292.0,220910,,,A*4E
$GPRMC,174348.9,A,3250.430455,N,11710.101985,W,27.7,284.0,220910,,,A*49
$GPRMC,174351.9,A,3250.436736,N,11710.130947,W,31.1,287.2,220910,,,A*4D
$GPRMC,174354.9,A,3250.445713,N,11710.160870,W,31.9,291.0,220910,,,A*46
$GPRMC,174358.2,A,3250.456919,N,11710.192415,W,31.4,295.4,220910,,,A*48
$GPRMC,174401.9,A,3250.474039,N,11710.222367,W,26.9,301.0,220910,,,A*4A
$GPRMC,174404.9,A,3250.483982,N,11710.242982,W,18.9,300.4,220910,,,A*41
$GPRMC,174408.2,A,3250.492405,N,11710.248141,W,11.4,345.7,220910,,,A*4F
$GPRMC,174411.9,A,3250.498059,N,11710.256677,W,12.5,296.7,220910,,,A*4B
$GPRMC,174414.9,A,3250.501863,N,11710.268555,W,12.5,291.8,220910,,,A*48
$GPRMC,174417.9,A,3250.506557,N,11710.277762,W,6.9,310.8,220910,,,A*7F
$GPRMC,174420.9,A,3250.512018,N,11710.276768,W,5.6,2.3,220910,,,A*7C
$GPRMC,174423.9,A,3250.518350,N,11710.272267,W,8.1,32.9,220910,,,A*47
$GPRMC,174426.9,A,3250.519915,N,11710.265001,W,8.6,66.0,220910,,,A*43
$GPRMC,174429.9,A,3250.526499,N,11710.257851,W,9.1,34.7,220910,,,A*43
$GPRMC,174432.9,A,3250.531833,N,11710.258701,W,6.7,346.5,220910,,,A*7B
$GPRMC,174435.2,A,3250.530630,N,11710.264471,W,8.6,250.1,220910,,,A*7D
$GPRMC,174438.9,A,3250.526475,N,11710.276219,W,11.1,242.4,220910,,,A*4D
$GPRMC,174441.9,A,3250.521435,N,11710.284552,W,9.9,224.7,220910,,,A*77
$GPRMC,174444.9,A,3250.516567,N,11710.284485,W,6.6,186.8,220910,,,A*7F
$GPRMC,174518.9,A,3250.501754,N,11710.294348,W,9.0,220.2,220910,,,A*78
$GPRMC,174521.9,A,3250.498173,N,11710.303381,W,8.9,244.4,220910,,,A*76
$GPRMC,174524.9,A,3250.502398,N,11710.313631,W,11.5,286.1,220910,,,A*46
$GPRMC,174527.9,A,3250.517313,N,11710.330203,W,20.5,316.0,220910,,,A*4D
$GPRMC,174530.9,A,3250.535221,N,11710.340353,W,21.3,329.6,220910,,,A*45
$GPRMC,174533.9,A,3250.550898,N,11710.350979,W,23.0,334.2,220910,,,A*47
$GPRMC,174536.9,A,3250.567265,N,11710.361907,W,23.6,333.9,220910,,,A*4F
$GPRMC,174539.9,A,3250.588117,N,11710.367532,W,23.4,341.4,220910,,,A*41
