NMEA Sentence Code,UTC Time,Status,Latitude,Latitude Direction,Longitude,Longitude Direction,Speed (knots),Track Angle (degrees true),Date,MagneticVariation,Magnetic Variation Direction,[FAA Mode]-Optional,Checksum
$GPRMC,204329.0,A,3241.775565,N,11710.434707,W,7.8,206.9,030810,,,A*78
$GPRMC,204332.0,A,3241.766556,N,11710.439682,W,13.1,205.8,030810,,,A*4F
$GPRMC,204335.0,A,3241.753057,N,11710.447305,W,17.3,206.1,030810,,,A*45
$GPRMC,204338.0,A,3241.739479,N,11710.455714,W,17.3,206.7,030810,,,A*4D
$GPRMC,204341.0,A,3241.727651,N,11710.462169,W,14.9,205.8,030810,,,A*49
$GPRMC,204344.0,A,3241.715887,N,11710.469165,W,14.7,202.9,030810,,,A*47
$GPRMC,204347.0,A,3241.706041,N,11710.474473,W,13.3,204.3,030810,,,A*45
$GPRMC,204350.0,A,3241.697360,N,11710.480062,W,11.7,208.8,030810,,,A*44
$GPRMC,204353.0,A,3241.690973,N,11710.483837,W,7.9,211.7,030810,,,A*7D
$GPRMC,204438.0,A,3241.676586,N,11710.493178,W,9.8,211.0,030810,,,A*72
$GPRMC,204441.0,A,3241.663343,N,11710.500367,W,17.6,205.0,030810,,,A*44
$GPRMC,204444.0,A,3241.650046,N,11710.508171,W,17.0,204.5,030810,,,A*48
$GPRMC,204447.0,A,3241.636841,N,11710.515599,W,16.7,205.3,030810,,,A*4B
$GPRMC,204450.0,A,3241.624661,N,11710.522890,W,17.2,205.5,030810,,,A*40
$GPRMC,204453.0,A,3241.612172,N,11710.530991,W,16.1,206.2,030810,,,A*46
$GPRMC,204456.0,A,3241.601099,N,11710.537380,W,13.9,207.1,030810,,,A*47
$GPRMC,204459.0,A,3241.590086,N,11710.543633,W,14.8,205.3,030810,,,A*45
$GPRMC,204502.0,A,3241.577139,N,11710.552321,W,18.3,206.9,030810,,,A*4E
$GPRMC,204505.0,A,3241.562627,N,11710.559765,W,18.4,205.4,030810,,,A*43
$GPRMC,204508.0,A,3241.548230,N,11710.567330,W,18.2,207.5,030810,,,A*48
$GPRMC,204511.0,A,3241.536267,N,11710.574360,W,15.2,207.7,030810,,,A*43
$GPRMC,204514.0,A,3241.526486,N,11710.580189,W,13.0,205.3,030810,,,A*42
$GPRMC,204517.0,A,3241.516832,N,11710.586390,W,13.0,206.7,030810,,,A*4A
$GPRMC,204520.0,A,3241.507882,N,11710.592160,W,13.7,206.0,030810,,,A*4D
$GPRMC,204523.0,A,3241.496588,N,11710.598569,W,15.7,206.5,030810,,,A*44
$GPRMC,204526.0,A,3241.484422,N,11710.606587,W,17.2,206.4,030810,,,A*41
$GPRMC,204529.0,A,3241.471117,N,11710.615554,W,17.5,207.4,030810,,,A*4D
$GPRMC,204532.0,A,3241.456827,N,11710.623106,W,17.6,203.8,030810,,,A*45
$GPRMC,204535.0,A,3241.444144,N,11710.629932,W,16.9,206.8,030810,,,A*43
$GPRMC,204538.0,A,3241.432009,N,11710.638017,W,17.3,206.3,030810,,,A*49
$GPRMC,204541.0,A,3241.418113,N,11710.646415,W,18.8,205.4,030810,,,A*4A
$GPRMC,204544.0,A,3241.402110,N,11710.655044,W,20.6,205.6,030810,,,A*42
$GPRMC,204547.0,A,3241.385410,N,11710.663766,W,21.7,203.3,030810,,,A*4D
$GPRMC,204550.0,A,3241.367705,N,11710.673495,W,22.4,205.6,030810,,,A*4D
$GPRMC,204553.0,A,3241.351936,N,11710.683261,W,21.9,206.2,030810,,,A*4E
$GPRMC,204556.0,A,3241.334902,N,11710.692445,W,21.4,205.7,030810,,,A*44
$GPRMC,204559.0,A,3241.319638,N,11710.701585,W,20.9,206.4,030810,,,A*48
$GPRMC,204602.0,A,3241.304085,N,11710.711194,W,20.6,206.6,030810,,,A*41
$GPRMC,204605.0,A,3241.289332,N,11710.719711,W,19.9,207.3,030810,,,A*4F
$GPRMC,204608.0,A,3241.276918,N,11710.727950,W,15.4,206.5,030810,,,A*40
$GPRMC,204611.0,A,3241.268782,N,11710.733146,W,11.1,207.8,030810,,,A*4D
$GPRMC,204614.0,A,3241.262656,N,11710.736963,W,7.5,207.0,030810,,,A*7B
$GPRMC,204626.0,A,3241.251611,N,11710.741851,W,11.7,206.9,030810,,,A*44
$GPRMC,204629.0,A,3241.241543,N,11710.748437,W,13.9,207.1,030810,,,A*4E
$GPRMC,204632.0,A,3241.228818,N,11710.755642,W,16.4,206.2,030810,,,A*4E
$GPRMC,204635.0,A,3241.216064,N,11710.762401,W,17.3,205.8,030810,,,A*49
$GPRMC,204638.0,A,3241.202676,N,11710.770154,W,17.2,206.4,030810,,,A*4C
$GPRMC,204641.0,A,3241.190453,N,11710.777323,W,16.6,205.8,030810,,,A*40
$GPRMC,204644.0,A,3241.179980,N,11710.783150,W,12.4,205.7,030810,,,A*45
$GPRMC,204647.0,A,3241.174043,N,11710.785643,W,4.5,200.5,030810,,,A*7F
$GPRMC,204817.0,A,3241.169853,N,11710.789204,W,5.7,206.8,030810,,,A*72
$GPRMC,204820.0,A,3241.159262,N,11710.795193,W,12.8,204.7,030810,,,A*49
$GPRMC,204823.0,A,3241.146587,N,11710.800667,W,15.2,194.3,030810,,,A*44
$GPRMC,204826.0,A,3241.133159,N,11710.803239,W,15.4,183.2,030810,,,A*49
$GPRMC,204829.0,A,3241.118157,N,11710.801632,W,16.9,175.1,030810,,,A*48
$GPRMC,204832.0,A,3241.103632,N,11710.796670,W,17.9,161.8,030810,,,A*46
$GPRMC,204835.0,A,3241.089390,N,11710.789028,W,19.2,151.4,030810,,,A*40
$GPRMC,204838.0,A,3241.077124,N,11710.776889,W,19.6,137.2,030810,,,A*40
$GPRMC,204841.0,A,3241.066203,N,11710.763773,W,19.1,134.0,030810,,,A*40
$GPRMC,204844.0,A,3241.053352,N,11710.750762,W,19.7,143.4,030810,,,A*44
$GPRMC,204847.0,A,3241.038690,N,11710.741904,W,20.7,160.0,030810,,,A*40
$GPRMC,204850.0,A,3241.021787,N,11710.735876,W,20.7,167.8,030810,,,A*41
$GPRMC,204853.0,A,3241.006022,N,11710.733261,W,19.4,174.8,030810,,,A*4E
$GPRMC,204856.0,A,3240.989804,N,11710.730379,W,20.1,166.8,030810,,,A*4F
$GPRMC,204859.0,A,3240.974935,N,11710.724381,W,17.1,158.6,030810,,,A*44
$GPRMC,204902.0,A,3240.966071,N,11710.718873,W,10.3,150.9,030810,,,A*4A
$GPRMC,204950.0,A,3240.955678,N,11710.712563,W,6.0,158.5,030810,,,A*74
$GPRMC,204953.0,A,3240.946301,N,11710.701972,W,13.6,138.6,030810,,,A*47
$GPRMC,204956.0,A,3240.934407,N,11710.688564,W,19.1,136.5,030810,,,A*4D
$GPRMC,204959.0,A,3240.920317,N,11710.673185,W,22.3,136.4,030810,,,A*45
$GPRMC,205002.0,A,3240.907419,N,11710.657310,W,22.5,133.8,030810,,,A*48
$GPRMC,205005.0,A,3240.894119,N,11710.640392,W,23.8,133.4,030810,,,A*4D
$GPRMC,205008.0,A,3240.878869,N,11710.622875,W,26.0,135.6,030810,,,A*43
$GPRMC,205011.0,A,3240.863566,N,11710.604165,W,26.2,133.7,030810,,,A*4A
$GPRMC,205014.0,A,3240.847411,N,11710.585870,W,26.5,136.1,030810,,,A*4B
$GPRMC,205017.0,A,3240.827969,N,11710.570668,W,27.0,148.5,030810,,,A*48
$GPRMC,205020.0,A,3240.804079,N,11710.561779,W,27.2,165.1,030810,,,A*4D
$GPRMC,205023.0,A,3240.782185,N,11710.555680,W,26.8,165.7,030810,,,A*40
$GPRMC,205026.0,A,3240.761884,N,11710.546759,W,25.3,158.4,030810,,,A*42
$GPRMC,205029.0,A,3240.744576,N,11710.535510,W,24.2,149.0,030810,,,A*45
$GPRMC,205032.0,A,3240.729829,N,11710.520325,W,23.4,137.4,030810,,,A*4B
$GPRMC,205035.0,A,3240.716273,N,11710.500893,W,26.5,130.4,030810,,,A*42
$GPRMC,205038.0,A,3240.702448,N,11710.479791,W,27.1,129.1,030810,,,A*4E
$GPRMC,205041.0,A,3240.689415,N,11710.460619,W,24.1,129.1,030810,,,A*40
$GPRMC,205044.0,A,3240.677673,N,11710.442751,W,22.8,129.4,030810,,,A*41
$GPRMC,205047.0,A,3240.664952,N,11710.424712,W,24.3,129.6,030810,,,A*44
$GPRMC,205050.0,A,3240.651298,N,11710.404746,W,25.7,129.2,030810,,,A*4B
$GPRMC,205053.0,A,3240.638621,N,11710.385827,W,24.6,127.8,030810,,,A*43
$GPRMC,205056.0,A,3240.625148,N,11710.369278,W,23.2,130.0,030810,,,A*4D
$GPRMC,205059.0,A,3240.616597,N,11710.355613,W,16.3,127.7,030810,,,A*44
$GPRMC,205102.0,A,3240.613365,N,11710.349722,W,6.1,123.6,030810,,,A*7D
$GPRMC,205138.0,A,3240.610296,N,11710.341536,W,5.6,131.7,030810,,,A*73
$GPRMC,205141.0,A,3240.608447,N,11710.334149,W,6.7,107.3,030810,,,A*73
$GPRMC,205144.0,A,3240.612054,N,11710.325531,W,6.6,56.2,030810,,,A*45
