NMEA Sentence Code,UTC Time,Status,Latitude,Latitude Direction,Longitude,Longitude Direction,Speed (knots),Track Angle (degrees true),Date,MagneticVariation,Magnetic Variation Direction,[FAA Mode]-Optional,Checksum
$GPRMC,020141.000,A,3337.0688,N,11749.2136,W,63.20,154.00,250310,,,A*46
$GPRMC,020145.000,A,3337.0060,N,11749.1836,W,62.40,158.00,250310,,,A*43
$GPRMC,020149.000,A,3336.9422,N,11749.1550,W,63.50,158.00,250310,,,A*48
$GPRMC,020153.000,A,3336.8657,N,11749.1193,W,64.20,158.00,250310,,,A*49
$GPRMC,020157.000,A,3336.8054,N,11749.0819,W,64.80,150.00,250310,,,A*40
$GPRMC,020159.000,A,3336.7706,N,11749.0542,W,65.40,146.00,250310,,,A*48
$GPRMC,020203.000,A,3336.7181,N,11749.0011,W,64.40,138.00,250310,,,A*46
$GPRMC,020205.000,A,3336.6897,N,11748.9648,W,64.60,132.00,250310,,,A*45
$GPRMC,020209.000,A,3336.6477,N,11748.8976,W,64.70,124.00,250310,,,A*4E
$GPRMC,020213.000,A,3336.6131,N,11748.8247,W,65.90,118.00,250310,,,A*4B
$GPRMC,020215.000,A,3336.5957,N,11748.7775,W,66.50,112.00,250310,,,A*48
$GPRMC,020220.000,A,3336.5703,N,11748.6765,W,68.90,104.00,250310,,,A*44
$GPRMC,020221.000,A,3336.5648,N,11748.6412,W,69.40,100.00,250310,,,A*40
$GPRMC,020226.000,A,3336.5514,N,11748.5354,W,70.50,100.00,250310,,,A*42
$GPRMC,020227.000,A,3336.5469,N,11748.4994,W,71.10,98.00,250310,,,A*7A
$GPRMC,020231.000,A,3336.5356,N,11748.4105,W,70.50,98.00,250310,,,A*73
$GPRMC,020233.000,A,3336.5275,N,11748.3583,W,68.80,102.00,250310,,,A*4A
$GPRMC,020237.000,A,3336.5075,N,11748.2766,W,66.20,110.00,250310,,,A*43
$GPRMC,020241.000,A,3336.4809,N,11748.2055,W,57.90,114.00,250310,,,A*4A
$GPRMC,020243.000,A,3336.4644,N,11748.1677,W,55.60,116.00,250310,,,A*45
$GPRMC,020247.000,A,3336.4393,N,11748.1078,W,48.20,114.00,250310,,,A*4D
$GPRMC,020251.000,A,3336.4176,N,11748.0536,W,46.40,116.00,250310,,,A*47
$GPRMC,020253.000,A,3336.4058,N,11748.0225,W,45.40,114.00,250310,,,A*4C
$GPRMC,020257.000,A,3336.3861,N,11747.9722,W,44.20,116.00,250310,,,A*4C
$GPRMC,020302.000,A,3336.3603,N,11747.9150,W,43.40,120.00,250310,,,A*40
$GPRMC,020303.000,A,3336.3511,N,11747.8956,W,43.70,120.00,250310,,,A*4D
$GPRMC,020308.000,A,3336.3252,N,11747.8378,W,42.10,118.00,250310,,,A*4C
$GPRMC,020309.000,A,3336.3167,N,11747.8191,W,41.60,118.00,250310,,,A*49
$GPRMC,020313.000,A,3336.2962,N,11747.7743,W,39.30,116.00,250310,,,A*4C
$GPRMC,020318.000,A,3336.2744,N,11747.7228,W,37.10,116.00,250310,,,A*49
$GPRMC,020319.000,A,3336.2677,N,11747.7061,W,36.40,114.00,250310,,,A*40
$GPRMC,020323.000,A,3336.2518,N,11747.6676,W,30.70,116.00,250310,,,A*45
$GPRMC,020328.000,A,3336.2393,N,11747.6379,W,15.60,116.00,250310,,,A*47
$GPRMC,020329.000,A,3336.2370,N,11747.6324,W,11.90,114.00,250310,,,A*4A
$GPRMC,020350.000,A,3336.2277,N,11747.6109,W,10.60,114.00,250310,,,A*41
$GPRMC,020351.000,A,3336.2251,N,11747.6033,W,16.50,114.00,250310,,,A*49
$GPRMC,020355.000,A,3336.2120,N,11747.5714,W,30.60,116.00,250310,,,A*4C
$GPRMC,020359.000,A,3336.1944,N,11747.5254,W,39.70,112.00,250310,,,A*44
$GPRMC,020403.000,A,3336.1725,N,11747.4645,W,51.80,112.00,250310,,,A*41
$GPRMC,020408.000,A,3336.1493,N,11747.3763,W,62.60,104.00,250310,,,A*4F
$GPRMC,020409.000,A,3336.1436,N,11747.3444,W,64.50,102.00,250310,,,A*44
$GPRMC,020414.000,A,3336.1319,N,11747.2458,W,65.10,96.00,250310,,,A*77
$GPRMC,020418.000,A,3336.1241,N,11747.1583,W,69.60,96.00,250310,,,A*78
$GPRMC,020419.000,A,3336.1201,N,11747.1216,W,70.70,98.00,250310,,,A*71
$GPRMC,020424.000,A,3336.1038,N,11747.0114,W,71.00,102.00,250310,,,A*43
$GPRMC,020428.000,A,3336.0833,N,11746.9255,W,71.00,108.00,250310,,,A*49
$GPRMC,020429.000,A,3336.0720,N,11746.8920,W,70.70,112.00,250310,,,A*40
$GPRMC,020433.000,A,3336.0391,N,11746.8128,W,70.60,116.00,250310,,,A*40
$GPRMC,020438.000,A,3335.9917,N,11746.7168,W,72.60,118.00,250310,,,A*42
$GPRMC,020442.000,A,3335.9551,N,11746.6348,W,72.60,116.00,250310,,,A*4E
$GPRMC,020443.000,A,3335.9430,N,11746.6006,W,72.90,112.00,250310,,,A*4B
$GPRMC,020448.000,A,3335.9195,N,11746.4946,W,71.80,100.00,250310,,,A*44
$GPRMC,020449.000,A,3335.9153,N,11746.4581,W,71.80,98.00,250310,,,A*78
$GPRMC,020454.000,A,3335.9103,N,11746.3496,W,71.40,96.00,250310,,,A*73
$GPRMC,020458.000,A,3335.9018,N,11746.2581,W,71.00,98.00,250310,,,A*78
$GPRMC,020502.000,A,3335.8837,N,11746.1717,W,70.50,108.00,250310,,,A*40
$GPRMC,020506.000,A,3335.8551,N,11746.0893,W,69.50,114.00,250310,,,A*4E
$GPRMC,020510.000,A,3335.8162,N,11746.0155,W,69.30,124.00,250310,,,A*4B
$GPRMC,020514.000,A,3335.7616,N,11745.9339,W,68.30,128.00,250310,,,A*4B
$GPRMC,020518.000,A,3335.7164,N,11745.8687,W,67.80,128.00,250310,,,A*40
$GPRMC,020522.000,A,3335.6718,N,11745.8038,W,67.00,128.00,250310,,,A*4F
$GPRMC,020526.000,A,3335.6270,N,11745.7390,W,66.90,130.00,250310,,,A*4F
$GPRMC,020530.000,A,3335.5733,N,11745.6600,W,67.00,128.00,250310,,,A*45
$GPRMC,020534.000,A,3335.5321,N,11745.5926,W,68.90,124.00,250310,,,A*44
$GPRMC,020538.000,A,3335.4986,N,11745.5160,W,69.10,114.00,250310,,,A*4E
$GPRMC,020542.000,A,3335.4741,N,11745.4158,W,70.00,104.00,250310,,,A*44
$GPRMC,020546.000,A,3335.4619,N,11745.3289,W,69.50,100.00,250310,,,A*4D
$GPRMC,020550.000,A,3335.4505,N,11745.2457,W,66.60,100.00,250310,,,A*4C
$GPRMC,020554.000,A,3335.4369,N,11745.1458,W,66.60,100.00,250310,,,A*48
$GPRMC,020558.000,A,3335.4263,N,11745.0623,W,66.30,98.00,250310,,,A*75
$GPRMC,020602.000,A,3335.4140,N,11744.9786,W,68.00,102.00,250310,,,A*42
$GPRMC,020606.000,A,3335.3923,N,11744.8817,W,66.90,108.00,250310,,,A*47
$GPRMC,020610.000,A,3335.3657,N,11744.8065,W,65.30,114.00,250310,,,A*45
$GPRMC,020614.000,A,3335.3361,N,11744.7326,W,65.10,116.00,250310,,,A*4A
$GPRMC,020618.000,A,3335.3067,N,11744.6539,W,64.60,112.00,250310,,,A*48
$GPRMC,020622.000,A,3335.2858,N,11744.5702,W,66.00,104.00,250310,,,A*4E
$GPRMC,020624.000,A,3335.2776,N,11744.5182,W,67.20,100.00,250310,,,A*42
$GPRMC,020628.000,A,3335.2694,N,11744.4314,W,66.50,96.00,250310,,,A*77
$GPRMC,020632.000,A,3335.2620,N,11744.3461,W,64.90,96.00,250310,,,A*7F
$GPRMC,020634.000,A,3335.2581,N,11744.2965,W,63.90,94.00,250310,,,A*7C
$GPRMC,020638.000,A,3335.2521,N,11744.2133,W,65.00,96.00,250310,,,A*7C
$GPRMC,020642.000,A,3335.2442,N,11744.1261,W,67.70,96.00,250310,,,A*77
$GPRMC,020646.000,A,3335.2353,N,11744.0359,W,69.90,96.00,250310,,,A*7F
$GPRMC,020648.000,A,3335.2284,N,11743.9800,W,70.30,98.00,250310,,,A*7F
$GPRMC,020652.000,A,3335.2098,N,11743.8931,W,72.50,106.00,250310,,,A*4B
$GPRMC,020657.000,A,3335.1742,N,11743.7882,W,73.10,114.00,250310,,,A*4D
$GPRMC,020658.000,A,3335.1588,N,11743.7552,W,72.60,118.00,250310,,,A*4C
$GPRMC,020702.000,A,3335.1166,N,11743.6787,W,71.70,126.00,250310,,,A*42
$GPRMC,020707.000,A,3335.0561,N,11743.5968,W,71.20,130.00,250310,,,A*4B
$GPRMC,020708.000,A,3335.0349,N,11743.5696,W,71.60,132.00,250310,,,A*40
$GPRMC,020712.000,A,3334.9829,N,11743.5002,W,71.60,130.00,250310,,,A*47
$GPRMC,020716.000,A,3334.9320,N,11743.4298,W,71.40,130.00,250310,,,A*43
$GPRMC,020720.000,A,3334.8807,N,11743.3569,W,71.40,130.00,250310,,,A*47
$GPRMC,020725.000,A,3334.8197,N,11743.2704,W,71.50,130.00,250310,,,A*4B
$GPRMC,020729.000,A,3334.7701,N,11743.1962,W,73.20,128.00,250310,,,A*40
$GPRMC,020730.000,A,3334.7512,N,11743.1660,W,73.20,126.00,250310,,,A*4B
$GPRMC,020735.000,A,3334.6988,N,11743.0741,W,72.30,122.00,250310,,,A*47
$GPRMC,020739.000,A,3334.6586,N,11742.9969,W,70.40,122.00,250310,,,A*40
$GPRMC,020740.000,A,3334.6439,N,11742.9669,W,70.60,120.00,250310,,,A*44
$GPRMC,020745.000,A,3334.6009,N,11742.8736,W,71.50,118.00,250310,,,A*45
$GPRMC,020746.000,A,3334.5872,N,11742.8411,W,71.50,116.00,250310,,,A*49
$GPRMC,020751.000,A,3334.5518,N,11742.7467,W,69.50,114.00,250310,,,A*4B
$GPRMC,020754.000,A,3334.5284,N,11742.6870,W,69.00,114.00,250310,,,A*42
$GPRMC,020759.000,A,3334.4918,N,11742.5863,W,65.80,112.00,250310,,,A*43
$GPRMC,020800.000,A,3334.4814,N,11742.5566,W,63.90,112.00,250310,,,A*42
$GPRMC,020805.000,A,3334.4504,N,11742.4703,W,64.90,114.00,250310,,,A*4A
$GPRMC,020806.000,A,3334.4385,N,11742.4418,W,65.50,116.00,250310,,,A*40
$GPRMC,020811.000,A,3334.3953,N,11742.3583,W,66.40,124.00,250310,,,A*47
$GPRMC,020815.000,A,3334.3516,N,11742.2920,W,65.80,128.00,250310,,,A*49
$GPRMC,020819.000,A,3334.3032,N,11742.2299,W,67.10,134.00,250310,,,A*49
$GPRMC,020823.000,A,3334.2499,N,11742.1661,W,68.90,134.00,250310,,,A*43
$GPRMC,020827.000,A,3334.1857,N,11742.0882,W,70.30,134.00,250310,,,A*4B
$GPRMC,020831.000,A,3334.1343,N,11742.0254,W,67.70,134.00,250310,,,A*41
$GPRMC,020835.000,A,3334.0849,N,11741.9649,W,66.20,134.00,250310,,,A*43
$GPRMC,020839.000,A,3334.0361,N,11741.9048,W,65.60,134.00,250310,,,A*4E
$GPRMC,020843.000,A,3333.9868,N,11741.8445,W,66.50,134.00,250310,,,A*47
$GPRMC,020847.000,A,3333.9235,N,11741.7773,W,66.00,140.00,250310,,,A*4E
$GPRMC,020851.000,A,3333.8649,N,11741.7283,W,67.10,146.00,250310,,,A*4B
$GPRMC,020855.000,A,3333.8039,N,11741.6849,W,67.70,148.00,250310,,,A*4B
$GPRMC,020859.000,A,3333.7278,N,11741.6299,W,70.20,148.00,250310,,,A*4B
$GPRMC,020903.000,A,3333.6641,N,11741.5798,W,69.50,142.00,250310,,,A*48
$GPRMC,020907.000,A,3333.6098,N,11741.5206,W,68.00,134.00,250310,,,A*49
$GPRMC,020911.000,A,3333.5639,N,11741.4521,W,68.60,126.00,250310,,,A*46
$GPRMC,020915.000,A,3333.5200,N,11741.3586,W,71.30,116.00,250310,,,A*48
$GPRMC,020919.000,A,3333.4936,N,11741.2707,W,72.90,108.00,250310,,,A*47
$GPRMC,020923.000,A,3333.4769,N,11741.1764,W,71.50,100.00,250310,,,A*4B
$GPRMC,020927.000,A,3333.4634,N,11741.0831,W,71.30,100.00,250310,,,A*4E
$GPRMC,020929.000,A,3333.4561,N,11741.0291,W,71.80,100.00,250310,,,A*48
$GPRMC,020933.000,A,3333.4425,N,11740.9425,W,65.80,102.00,250310,,,A*44
$GPRMC,020937.000,A,3333.4217,N,11740.8633,W,63.80,110.00,250310,,,A*46
$GPRMC,020941.000,A,3333.3892,N,11740.7908,W,63.60,120.00,250310,,,A*42
$GPRMC,020943.000,A,3333.3644,N,11740.7501,W,63.60,126.00,250310,,,A*46
$GPRMC,020947.000,A,3333.3173,N,11740.6903,W,65.40,134.00,250310,,,A*49
$GPRMC,020949.000,A,3333.2839,N,11740.6585,W,66.70,142.00,250310,,,A*42
$GPRMC,020953.000,A,3333.2208,N,11740.6149,W,68.00,152.00,250310,,,A*4D
$GPRMC,020957.000,A,3333.1533,N,11740.5870,W,66.30,162.00,250310,,,A*4B
$GPRMC,020959.000,A,3333.1112,N,11740.5755,W,66.90,166.00,250310,,,A*44
$GPRMC,021003.000,A,3333.0391,N,11740.5585,W,69.00,168.00,250310,,,A*4C
$GPRMC,021008.000,A,3332.9519,N,11740.5377,W,69.90,168.00,250310,,,A*4B
$GPRMC,021009.000,A,3332.9221,N,11740.5303,W,70.00,168.00,250310,,,A*44
$GPRMC,021013.000,A,3332.8488,N,11740.5126,W,68.50,168.00,250310,,,A*42
$GPRMC,021018.000,A,3332.7618,N,11740.4926,W,70.40,168.00,250310,,,A*4C
$GPRMC,021019.000,A,3332.7318,N,11740.4855,W,72.30,168.00,250310,,,A*48
$GPRMC,021024.000,A,3332.6446,N,11740.4641,W,72.50,168.00,250310,,,A*46
$GPRMC,021027.000,A,3332.5726,N,11740.4507,W,71.70,174.00,250310,,,A*4E
$GPRMC,021032.000,A,3332.4820,N,11740.4543,W,76.80,186.00,250310,,,A*47
$GPRMC,021033.000,A,3332.4502,N,11740.4598,W,77.40,186.00,250310,,,A*40
$GPRMC,021038.000,A,3332.3533,N,11740.4793,W,76.10,190.00,250310,,,A*44
$GPRMC,021039.000,A,3332.3215,N,11740.4869,W,75.90,190.00,250310,,,A*47
$GPRMC,021044.000,A,3332.2310,N,11740.5045,W,70.40,186.00,250310,,,A*40
$GPRMC,021048.000,A,3332.1635,N,11740.5114,W,65.90,182.00,250310,,,A*45
$GPRMC,021052.000,A,3332.0954,N,11740.5136,W,66.40,180.00,250310,,,A*4B
$GPRMC,021056.000,A,3332.0141,N,11740.5095,W,67.80,174.00,250310,,,A*4D
$GPRMC,021100.000,A,3331.9412,N,11740.4962,W,68.90,168.00,250310,,,A*45
$GPRMC,021101.000,A,3331.9123,N,11740.4869,W,69.60,164.00,250310,,,A*4B
$GPRMC,021106.000,A,3331.8297,N,11740.4408,W,70.60,150.00,250310,,,A*45
$GPRMC,021110.000,A,3331.7695,N,11740.3834,W,71.20,138.00,250310,,,A*44
$GPRMC,021114.000,A,3331.7176,N,11740.3134,W,72.20,132.00,250310,,,A*4A
$GPRMC,021118.000,A,3331.6694,N,11740.2419,W,71.70,130.00,250310,,,A*43
$GPRMC,021122.000,A,3331.6103,N,11740.1636,W,66.90,134.00,250310,,,A*43
$GPRMC,021126.000,A,3331.5592,N,11740.1128,W,62.50,144.00,250310,,,A*4F
$GPRMC,021130.000,A,3331.5030,N,11740.0738,W,62.80,152.00,250310,,,A*49
$GPRMC,021134.000,A,3331.4273,N,11740.0367,W,64.30,158.00,250310,,,A*40
$GPRMC,021138.000,A,3331.3615,N,11740.0096,W,66.20,160.00,250310,,,A*4A
$GPRMC,021142.000,A,3331.2929,N,11739.9811,W,67.80,160.00,250310,,,A*4D
$GPRMC,021146.000,A,3331.2238,N,11739.9527,W,67.50,160.00,250310,,,A*47
$GPRMC,021150.000,A,3331.1448,N,11739.9192,W,65.30,160.00,250310,,,A*4C
$GPRMC,021154.000,A,3331.0822,N,11739.8912,W,61.70,158.00,250310,,,A*43
$GPRMC,021158.000,A,3331.0211,N,11739.8641,W,59.80,160.00,250310,,,A*43
$GPRMC,021202.000,A,3330.9595,N,11739.8382,W,61.40,160.00,250310,,,A*41
$GPRMC,021206.000,A,3330.8955,N,11739.8110,W,63.50,160.00,250310,,,A*4E
$GPRMC,021210.000,A,3330.8157,N,11739.7776,W,66.40,160.00,250310,,,A*4E
$GPRMC,021214.000,A,3330.7471,N,11739.7487,W,65.30,160.00,250310,,,A*4D
$GPRMC,021218.000,A,3330.6823,N,11739.7210,W,63.80,160.00,250310,,,A*4E
$GPRMC,021222.000,A,3330.6181,N,11739.6937,W,64.10,160.00,250310,,,A*47
$GPRMC,021224.000,A,3330.5798,N,11739.6771,W,64.40,160.00,250310,,,A*45
$GPRMC,021228.000,A,3330.5146,N,11739.6495,W,65.60,160.00,250310,,,A*46
$GPRMC,021230.000,A,3330.4742,N,11739.6321,W,65.90,160.00,250310,,,A*4B
$GPRMC,021234.000,A,3330.4068,N,11739.6037,W,64.90,160.00,250310,,,A*45
$GPRMC,021238.000,A,3330.3428,N,11739.5765,W,63.00,160.00,250310,,,A*43
$GPRMC,021240.000,A,3330.3051,N,11739.5603,W,62.70,160.00,250310,,,A*41
$GPRMC,021244.000,A,3330.2417,N,11739.5377,W,61.30,164.00,250310,,,A*47
$GPRMC,021249.000,A,3330.1642,N,11739.5192,W,63.50,170.00,250310,,,A*43
$GPRMC,021250.000,A,3330.1371,N,11739.5149,W,63.60,172.00,250310,,,A*49
$GPRMC,021254.000,A,3330.0701,N,11739.5085,W,64.20,176.00,250310,,,A*49
$GPRMC,021256.000,A,3330.0286,N,11739.5076,W,64.80,178.00,250310,,,A*49
$GPRMC,021300.000,A,3329.9588,N,11739.5114,W,65.70,184.00,250310,,,A*4B
$GPRMC,021302.000,A,3329.9186,N,11739.5168,W,63.70,186.00,250310,,,A*4C
$GPRMC,021306.000,A,3329.8542,N,11739.5296,W,61.60,190.00,250310,,,A*43
$GPRMC,021308.000,A,3329.8176,N,11739.5398,W,60.80,192.00,250310,,,A*4C
$GPRMC,021312.000,A,3329.7580,N,11739.5611,W,58.80,196.00,250310,,,A*4E
$GPRMC,021314.000,A,3329.7233,N,11739.5760,W,58.70,198.00,250310,,,A*41
$GPRMC,021318.000,A,3329.6658,N,11739.6050,W,58.60,202.00,250310,,,A*43
$GPRMC,021323.000,A,3329.5994,N,11739.6473,W,58.20,208.00,250310,,,A*4C
$GPRMC,021324.000,A,3329.5779,N,11739.6630,W,58.30,208.00,250310,,,A*42
$GPRMC,021328.000,A,3329.5250,N,11739.7042,W,57.20,212.00,250310,,,A*47
$GPRMC,021332.000,A,3329.4730,N,11739.7442,W,57.10,212.00,250310,,,A*49
$GPRMC,021337.000,A,3329.4078,N,11739.7931,W,59.70,212.00,250310,,,A*46
$GPRMC,021338.000,A,3329.3849,N,11739.8104,W,61.10,212.00,250310,,,A*48
$GPRMC,021342.000,A,3329.3256,N,11739.8551,W,64.40,212.00,250310,,,A*45
$GPRMC,021347.000,A,3329.2516,N,11739.9103,W,66.50,212.00,250310,,,A*43
$GPRMC,021348.000,A,3329.2271,N,11739.9288,W,66.80,212.00,250310,,,A*47
$GPRMC,021353.000,A,3329.1549,N,11739.9835,W,65.30,212.00,250310,,,A*46
$GPRMC,021357.000,A,3329.0968,N,11740.0308,W,65.40,214.00,250310,,,A*4F
$GPRMC,021358.000,A,3329.0742,N,11740.0499,W,65.40,216.00,250310,,,A*4B
$GPRMC,021403.000,A,3329.0079,N,11740.1070,W,63.30,216.00,250310,,,A*4E
$GPRMC,021404.000,A,3328.9866,N,11740.1254,W,62.50,216.00,250310,,,A*44
$GPRMC,021409.000,A,3328.9225,N,11740.1807,W,62.70,216.00,250310,,,A*4A
$GPRMC,021413.000,A,3328.8687,N,11740.2276,W,62.60,216.00,250310,,,A*42
$GPRMC,021417.000,A,3328.8141,N,11740.2749,W,63.70,216.00,250310,,,A*42
$GPRMC,021421.000,A,3328.7582,N,11740.3234,W,64.50,216.00,250310,,,A*48
$GPRMC,021425.000,A,3328.6929,N,11740.3796,W,61.50,214.00,250310,,,A*4A
$GPRMC,021429.000,A,3328.6398,N,11740.4200,W,60.00,210.00,250310,,,A*4B
$GPRMC,021433.000,A,3328.5843,N,11740.4528,W,59.50,204.00,250310,,,A*49
$GPRMC,021437.000,A,3328.5133,N,11740.4822,W,58.10,196.00,250310,,,A*49
$GPRMC,021441.000,A,3328.4538,N,11740.4964,W,56.00,188.00,250310,,,A*45
$GPRMC,021445.000,A,3328.3952,N,11740.5011,W,55.40,182.00,250310,,,A*41
$GPRMC,021449.000,A,3328.3378,N,11740.4985,W,53.60,176.00,250310,,,A*45
$GPRMC,021453.000,A,3328.2691,N,11740.4862,W,54.20,168.00,250310,,,A*49
$GPRMC,021457.000,A,3328.2139,N,11740.4619,W,55.30,158.00,250310,,,A*49
$GPRMC,021501.000,A,3328.1598,N,11740.4266,W,57.10,148.00,250310,,,A*4A
$GPRMC,021505.000,A,3328.1101,N,11740.3776,W,59.50,138.00,250310,,,A*44
$GPRMC,021509.000,A,3328.0669,N,11740.3147,W,61.60,126.00,250310,,,A*43
$GPRMC,021513.000,A,3328.0328,N,11740.2408,W,64.70,116.00,250310,,,A*40
$GPRMC,021515.000,A,3328.0134,N,11740.1934,W,65.80,116.00,250310,,,A*46
$GPRMC,021519.000,A,3327.9786,N,11740.1202,W,64.10,122.00,250310,,,A*42
$GPRMC,021523.000,A,3327.9392,N,11740.0576,W,61.60,126.00,250310,,,A*49
$GPRMC,021527.000,A,3327.8910,N,11739.9865,W,62.20,128.00,250310,,,A*4D
$GPRMC,021531.000,A,3327.8486,N,11739.9256,W,62.70,128.00,250310,,,A*47
$GPRMC,021533.000,A,3327.8239,N,11739.8894,W,62.60,128.00,250310,,,A*43
$GPRMC,021537.000,A,3327.7835,N,11739.8303,W,61.50,128.00,250310,,,A*4B
$GPRMC,021541.000,A,3327.7349,N,11739.7591,W,63.60,128.00,250310,,,A*49
$GPRMC,021545.000,A,3327.6924,N,11739.6961,W,66.50,128.00,250310,,,A*49
$GPRMC,021547.000,A,3327.6666,N,11739.6568,W,66.20,128.00,250310,,,A*40
$GPRMC,021551.000,A,3327.6299,N,11739.5869,W,64.20,118.00,250310,,,A*4D
$GPRMC,021555.000,A,3327.5989,N,11739.5124,W,61.20,116.00,250310,,,A*4B
$GPRMC,021557.000,A,3327.5817,N,11739.4718,W,60.90,118.00,250310,,,A*43
$GPRMC,021601.000,A,3327.5501,N,11739.4063,W,62.00,122.00,250310,,,A*40
$GPRMC,021603.000,A,3327.5279,N,11739.3678,W,62.20,124.00,250310,,,A*45
$GPRMC,021607.000,A,3327.4905,N,11739.3061,W,62.70,126.00,250310,,,A*49
$GPRMC,021609.000,A,3327.4677,N,11739.2685,W,62.20,124.00,250310,,,A*47
$GPRMC,021613.000,A,3327.4302,N,11739.2059,W,61.20,124.00,250310,,,A*4F
$GPRMC,021617.000,A,3327.3927,N,11739.1389,W,61.80,122.00,250310,,,A*40
$GPRMC,021619.000,A,3327.3706,N,11739.0965,W,61.90,120.00,250310,,,A*49
$GPRMC,021623.000,A,3327.3383,N,11739.0285,W,58.70,118.00,250310,,,A*43
$GPRMC,021627.000,A,3327.3099,N,11738.9645,W,55.10,116.00,250310,,,A*4A
$GPRMC,021629.000,A,3327.2943,N,11738.9253,W,56.90,114.00,250310,,,A*41
$GPRMC,021633.000,A,3327.2676,N,11738.8571,W,62.10,114.00,250310,,,A*4A
$GPRMC,021635.000,A,3327.2502,N,11738.8139,W,64.20,116.00,250310,,,A*43
$GPRMC,021639.000,A,3327.2172,N,11738.7369,W,68.20,118.00,250310,,,A*46
$GPRMC,021643.000,A,3327.1807,N,11738.6589,W,69.70,120.00,250310,,,A*45
$GPRMC,021645.000,A,3327.1577,N,11738.6144,W,69.70,122.00,250310,,,A*4E
$GPRMC,021649.000,A,3327.1167,N,11738.5403,W,69.40,124.00,250310,,,A*47
$GPRMC,021654.000,A,3327.0634,N,11738.4587,W,67.10,128.00,250310,,,A*40
$GPRMC,021655.000,A,3327.0446,N,11738.4326,W,65.00,130.00,250310,,,A*41
$GPRMC,021659.000,A,3327.0000,N,11738.3715,W,61.50,130.00,250310,,,A*49
$GPRMC,021704.000,A,3326.9489,N,11738.3001,W,61.00,130.00,250310,,,A*4A
$GPRMC,021705.000,A,3326.9317,N,11738.2754,W,61.90,130.00,250310,,,A*44
$GPRMC,021710.000,A,3326.8835,N,11738.1963,W,66.80,122.00,250310,,,A*46
$GPRMC,021714.000,A,3326.8436,N,11738.1188,W,72.10,122.00,250310,,,A*4C
$GPRMC,021715.000,A,3326.8267,N,11738.0859,W,73.70,120.00,250310,,,A*4E
$GPRMC,021719.000,A,3326.7842,N,11738.0017,W,75.60,120.00,250310,,,A*45
$GPRMC,021723.000,A,3326.7428,N,11737.9232,W,67.60,124.00,250310,,,A*48
$GPRMC,021728.000,A,3326.6867,N,11737.8436,W,65.20,132.00,250310,,,A*47
$GPRMC,021729.000,A,3326.6668,N,11737.8200,W,65.40,134.00,250310,,,A*44
$GPRMC,021733.000,A,3326.6174,N,11737.7613,W,65.70,134.00,250310,,,A*4F
$GPRMC,021738.000,A,3326.5583,N,11737.6912,W,66.50,134.00,250310,,,A*45
$GPRMC,021739.000,A,3326.5385,N,11737.6678,W,66.80,134.00,250310,,,A*4A
$GPRMC,021744.000,A,3326.4798,N,11737.5960,W,66.00,132.00,250310,,,A*42
$GPRMC,021748.000,A,3326.4365,N,11737.5330,W,64.70,126.00,250310,,,A*47
$GPRMC,021752.000,A,3326.3974,N,11737.4636,W,63.60,124.00,250310,,,A*47
$GPRMC,021755.000,A,3326.3600,N,11737.3961,W,62.10,124.00,250310,,,A*40
$GPRMC,021759.000,A,3326.3223,N,11737.3288,W,62.80,124.00,250310,,,A*4C
$GPRMC,021804.000,A,3326.2764,N,11737.2450,W,64.70,122.00,250310,,,A*41
$GPRMC,021808.000,A,3326.2338,N,11737.1754,W,66.10,128.00,250310,,,A*4A
$GPRMC,021812.000,A,3326.1825,N,11737.1138,W,68.80,136.00,250310,,,A*41
$GPRMC,021816.000,A,3326.1248,N,11737.0620,W,67.30,146.00,250310,,,A*48
$GPRMC,021820.000,A,3326.0617,N,11737.0183,W,67.20,150.00,250310,,,A*4A
$GPRMC,021824.000,A,3325.9976,N,11736.9757,W,66.70,150.00,250310,,,A*4F
$GPRMC,021828.000,A,3325.9235,N,11736.9261,W,65.40,148.00,250310,,,A*46
$GPRMC,021832.000,A,3325.8676,N,11736.8766,W,64.20,140.00,250310,,,A*43
$GPRMC,021836.000,A,3325.8190,N,11736.8195,W,65.10,134.00,250310,,,A*43
$GPRMC,021840.000,A,3325.7695,N,11736.7596,W,68.30,136.00,250310,,,A*4A
$GPRMC,021844.000,A,3325.7033,N,11736.6945,W,68.70,142.00,250310,,,A*40
$GPRMC,021848.000,A,3325.6416,N,11736.6463,W,68.30,148.00,250310,,,A*49
$GPRMC,021852.000,A,3325.5780,N,11736.6036,W,67.90,150.00,250310,,,A*45
$GPRMC,021856.000,A,3325.5113,N,11736.5611,W,68.70,152.00,250310,,,A*4E
$GPRMC,021900.000,A,3325.4423,N,11736.5190,W,69.20,154.00,250310,,,A*47
$GPRMC,021904.000,A,3325.3602,N,11736.4787,W,68.80,158.00,250310,,,A*43
$GPRMC,021908.000,A,3325.2922,N,11736.4439,W,70.20,154.00,250310,,,A*4A
$GPRMC,021912.000,A,3325.2273,N,11736.3987,W,73.60,146.00,250310,,,A*45
$GPRMC,021916.000,A,3325.1633,N,11736.3428,W,74.70,144.00,250310,,,A*4E
$GPRMC,021920.000,A,3325.0848,N,11736.2854,W,72.30,152.00,250310,,,A*4B
$GPRMC,021924.000,A,3325.0180,N,11736.2511,W,70.00,156.00,250310,,,A*4B
$GPRMC,021928.000,A,3324.9488,N,11736.2158,W,72.10,156.00,250310,,,A*48
$GPRMC,021930.000,A,3324.9051,N,11736.1941,W,74.70,158.00,250310,,,A*4C
$GPRMC,021934.000,A,3324.8300,N,11736.1562,W,74.20,156.00,250310,,,A*48
$GPRMC,021938.000,A,3324.7551,N,11736.1185,W,74.00,156.00,250310,,,A*46
$GPRMC,021942.000,A,3324.6834,N,11736.0824,W,72.60,156.00,250310,,,A*47
$GPRMC,021946.000,A,3324.6035,N,11736.0425,W,68.50,156.00,250310,,,A*4F
$GPRMC,021950.000,A,3324.5382,N,11736.0094,W,67.90,156.00,250310,,,A*49
$GPRMC,021954.000,A,3324.4748,N,11735.9782,W,66.80,156.00,250310,,,A*44
$GPRMC,021956.000,A,3324.4345,N,11735.9581,W,65.90,156.00,250310,,,A*4C
$GPRMC,022000.000,A,3324.3680,N,11735.9248,W,65.70,156.00,250310,,,A*42
$GPRMC,022004.000,A,3324.3036,N,11735.8927,W,65.40,156.00,250310,,,A*4D
$GPRMC,022006.000,A,3324.2653,N,11735.8727,W,65.70,156.00,250310,,,A*46
$GPRMC,022011.000,A,3324.1905,N,11735.8333,W,66.50,156.00,250310,,,A*4F
$GPRMC,022012.000,A,3324.1651,N,11735.8206,W,66.80,156.00,250310,,,A*48
$GPRMC,022016.000,A,3324.0979,N,11735.7850,W,70.70,156.00,250310,,,A*46
$GPRMC,022018.000,A,3324.0555,N,11735.7631,W,73.00,156.00,250310,,,A*47
$GPRMC,022022.000,A,3323.9810,N,11735.7253,W,75.60,156.00,250310,,,A*4C
$GPRMC,022027.000,A,3323.8909,N,11735.6797,W,75.90,156.00,250310,,,A*42
$GPRMC,022028.000,A,3323.8611,N,11735.6645,W,75.20,156.00,250310,,,A*4E
$GPRMC,022032.000,A,3323.7891,N,11735.6257,W,73.60,154.00,250310,,,A*4B
$GPRMC,022036.000,A,3323.7212,N,11735.5843,W,70.00,152.00,250310,,,A*41
$GPRMC,022041.000,A,3323.6407,N,11735.5304,W,70.90,150.00,250310,,,A*41
$GPRMC,022042.000,A,3323.6143,N,11735.5115,W,71.50,148.00,250310,,,A*41
$GPRMC,022046.000,A,3323.5488,N,11735.4630,W,73.70,148.00,250310,,,A*45
$GPRMC,022051.000,A,3323.4681,N,11735.4004,W,74.90,146.00,250310,,,A*4F
$GPRMC,022052.000,A,3323.4409,N,11735.3793,W,75.20,146.00,250310,,,A*4A
$GPRMC,022056.000,A,3323.3711,N,11735.3284,W,76.10,148.00,250310,,,A*4E
$GPRMC,022101.000,A,3323.2900,N,11735.2609,W,75.90,140.00,250310,,,A*41
$GPRMC,022105.000,A,3323.2322,N,11735.1955,W,73.10,134.00,250310,,,A*47
$GPRMC,022108.000,A,3323.1857,N,11735.1294,W,69.10,128.00,250310,,,A*40
$GPRMC,022112.000,A,3323.1460,N,11735.0580,W,66.50,122.00,250310,,,A*41
$GPRMC,022116.000,A,3323.1131,N,11734.9826,W,63.80,116.00,250310,,,A*42
$GPRMC,022121.000,A,3323.0804,N,11734.8914,W,64.00,114.00,250310,,,A*44
$GPRMC,022125.000,A,3323.0511,N,11734.8130,W,65.30,114.00,250310,,,A*45
$GPRMC,022129.000,A,3323.0205,N,11734.7318,W,67.20,114.00,250310,,,A*4F
$GPRMC,022133.000,A,3322.9894,N,11734.6502,W,67.40,114.00,250310,,,A*44
$GPRMC,022137.000,A,3322.9586,N,11734.5696,W,64.60,114.00,250310,,,A*42
$GPRMC,022141.000,A,3322.9295,N,11734.4943,W,64.40,114.00,250310,,,A*42
$GPRMC,022142.000,A,3322.9176,N,11734.4635,W,64.60,114.00,250310,,,A*43
$GPRMC,022147.000,A,3322.8816,N,11734.3704,W,65.80,114.00,250310,,,A*43
$GPRMC,022151.000,A,3322.8505,N,11734.2892,W,67.80,114.00,250310,,,A*48
$GPRMC,022155.000,A,3322.8184,N,11734.2065,W,68.90,114.00,250310,,,A*4F
$GPRMC,022159.000,A,3322.7876,N,11734.1254,W,68.00,114.00,250310,,,A*42
$GPRMC,022203.000,A,3322.7579,N,11734.0461,W,65.70,114.00,250310,,,A*47
$GPRMC,022207.000,A,3322.7272,N,11733.9705,W,64.50,118.00,250310,,,A*4F
$GPRMC,022211.000,A,3322.6910,N,11733.9019,W,65.70,124.00,250310,,,A*40
$GPRMC,022215.000,A,3322.6360,N,11733.8273,W,64.00,134.00,250310,,,A*41
$GPRMC,022219.000,A,3322.5865,N,11733.7733,W,64.30,136.00,250310,,,A*4F
$GPRMC,022223.000,A,3322.5385,N,11733.7190,W,63.90,134.00,250310,,,A*43
$GPRMC,022227.000,A,3322.4862,N,11733.6451,W,65.50,126.00,250310,,,A*44
$GPRMC,022231.000,A,3322.4484,N,11733.5768,W,64.70,122.00,250310,,,A*4A
$GPRMC,022235.000,A,3322.4103,N,11733.5066,W,66.10,122.00,250310,,,A*49
$GPRMC,022239.000,A,3322.3709,N,11733.4345,W,68.00,122.00,250310,,,A*42
$GPRMC,022243.000,A,3322.3215,N,11733.3432,W,71.00,122.00,250310,,,A*4F
$GPRMC,022247.000,A,3322.2793,N,11733.2662,W,71.60,122.00,250310,,,A*41
$GPRMC,022251.000,A,3322.2369,N,11733.1888,W,72.50,122.00,250310,,,A*4E
$GPRMC,022255.000,A,3322.1945,N,11733.1119,W,72.70,122.00,250310,,,A*4E
$GPRMC,022259.000,A,3322.1439,N,11733.0187,W,73.00,122.00,250310,,,A*44
$GPRMC,022303.000,A,3322.1015,N,11732.9411,W,74.30,122.00,250310,,,A*46
$GPRMC,022307.000,A,3322.0570,N,11732.8601,W,76.10,124.00,250310,,,A*41
$GPRMC,022309.000,A,3322.0287,N,11732.8125,W,76.30,126.00,250310,,,A*41
$GPRMC,022313.000,A,3321.9781,N,11732.7370,W,76.70,130.00,250310,,,A*4D
$GPRMC,022317.000,A,3321.9259,N,11732.6619,W,76.20,130.00,250310,,,A*47
$GPRMC,022321.000,A,3321.8747,N,11732.5872,W,74.00,128.00,250310,,,A*40
$GPRMC,022323.000,A,3321.8441,N,11732.5422,W,74.30,128.00,250310,,,A*4D
$GPRMC,022327.000,A,3321.7935,N,11732.4678,W,74.10,128.00,250310,,,A*46
$GPRMC,022331.000,A,3321.7431,N,11732.3942,W,74.50,128.00,250310,,,A*4D
$GPRMC,022333.000,A,3321.7126,N,11732.3499,W,74.90,128.00,250310,,,A*4B
$GPRMC,022337.000,A,3321.6605,N,11732.2734,W,75.90,128.00,250310,,,A*4C
$GPRMC,022341.000,A,3321.6073,N,11732.1956,W,77.10,128.00,250310,,,A*49
$GPRMC,022345.000,A,3321.5538,N,11732.1171,W,77.90,128.00,250310,,,A*41
$GPRMC,022349.000,A,3321.5000,N,11732.0382,W,77.30,128.00,250310,,,A*46
$GPRMC,022351.000,A,3321.4685,N,11731.9920,W,76.60,128.00,250310,,,A*49
$GPRMC,022355.000,A,3321.4157,N,11731.9149,W,76.40,128.00,250310,,,A*40
$GPRMC,022359.000,A,3321.3638,N,11731.8393,W,72.70,128.00,250310,,,A*46
$GPRMC,022401.000,A,3321.3352,N,11731.7976,W,69.80,128.00,250310,,,A*4E
$GPRMC,022405.000,A,3321.2891,N,11731.7304,W,67.70,128.00,250310,,,A*41
$GPRMC,022409.000,A,3321.2428,N,11731.6634,W,67.60,130.00,250310,,,A*4C
$GPRMC,022413.000,A,3321.1949,N,11731.5957,W,67.90,130.00,250310,,,A*48
$GPRMC,022415.000,A,3321.1666,N,11731.5550,W,67.20,128.00,250310,,,A*45
$GPRMC,022419.000,A,3321.1224,N,11731.4910,W,66.00,128.00,250310,,,A*41
$GPRMC,022423.000,A,3321.0773,N,11731.4247,W,65.70,128.00,250310,,,A*43
$GPRMC,022425.000,A,3321.0505,N,11731.3856,W,64.50,128.00,250310,,,A*48
$GPRMC,022429.000,A,3321.0068,N,11731.3223,W,63.00,128.00,250310,,,A*40
$GPRMC,022433.000,A,3320.9627,N,11731.2583,W,64.50,130.00,250310,,,A*49
$GPRMC,022437.000,A,3320.9166,N,11731.1909,W,67.20,128.00,250310,,,A*4F
$GPRMC,022441.000,A,3320.8711,N,11731.1248,W,63.80,128.00,250310,,,A*49
$GPRMC,022443.000,A,3320.8447,N,11731.0871,W,62.40,130.00,250310,,,A*4E
$GPRMC,022447.000,A,3320.8003,N,11731.0271,W,61.20,132.00,250310,,,A*43
$GPRMC,022451.000,A,3320.7558,N,11730.9692,W,60.30,132.00,250310,,,A*41
$GPRMC,022455.000,A,3320.7138,N,11730.9121,W,58.30,130.00,250310,,,A*41
$GPRMC,022459.000,A,3320.6730,N,11730.8556,W,56.70,130.00,250310,,,A*4D
$GPRMC,022501.000,A,3320.6485,N,11730.8217,W,57.40,130.00,250310,,,A*4C
$GPRMC,022505.000,A,3320.6064,N,11730.7634,W,57.90,130.00,250310,,,A*44
$GPRMC,022509.000,A,3320.5649,N,11730.7060,W,57.70,130.00,250310,,,A*4B
$GPRMC,022513.000,A,3320.5239,N,11730.6494,W,57.40,130.00,250310,,,A*4E
$GPRMC,022517.000,A,3320.4828,N,11730.5934,W,57.60,130.00,250310,,,A*47
$GPRMC,022522.000,A,3320.4326,N,11730.5248,W,59.60,130.00,250310,,,A*4A
$GPRMC,022523.000,A,3320.4157,N,11730.5025,W,60.40,132.00,250310,,,A*4C
$GPRMC,022527.000,A,3320.3722,N,11730.4435,W,61.40,132.00,250310,,,A*4E
$GPRMC,022532.000,A,3320.3187,N,11730.3706,W,61.70,130.00,250310,,,A*46
$GPRMC,022533.000,A,3320.3010,N,11730.3459,W,61.60,130.00,250310,,,A*40
$GPRMC,022537.000,A,3320.2573,N,11730.2857,W,60.30,130.00,250310,,,A*42
$GPRMC,022541.000,A,3320.2143,N,11730.2272,W,59.70,130.00,250310,,,A*47
$GPRMC,022545.000,A,3320.1722,N,11730.1707,W,58.40,130.00,250310,,,A*47
$GPRMC,022549.000,A,3320.1313,N,11730.1153,W,57.30,130.00,250310,,,A*42
$GPRMC,022554.000,A,3320.0850,N,11730.0523,W,55.90,130.00,250310,,,A*49
$GPRMC,022555.000,A,3320.0700,N,11730.0311,W,54.30,130.00,250310,,,A*4E
$GPRMC,022559.000,A,3320.0312,N,11729.9778,W,56.00,130.00,250310,,,A*4E
$GPRMC,022603.000,A,3319.9911,N,11729.9225,W,56.40,130.00,250310,,,A*41
$GPRMC,022608.000,A,3319.9426,N,11729.8557,W,56.80,130.00,250310,,,A*4C
$GPRMC,022612.000,A,3319.9026,N,11729.8001,W,55.90,130.00,250310,,,A*47
$GPRMC,022613.000,A,3319.8867,N,11729.7784,W,55.80,130.00,250310,,,A*4E
$GPRMC,022617.000,A,3319.8470,N,11729.7240,W,55.30,130.00,250310,,,A*46
$GPRMC,022621.000,A,3319.8069,N,11729.6687,W,56.30,130.00,250310,,,A*42
$GPRMC,022626.000,A,3319.7572,N,11729.6006,W,59.90,130.00,250310,,,A*4F
$GPRMC,022630.000,A,3319.7125,N,11729.5400,W,61.80,132.00,250310,,,A*47
$GPRMC,022634.000,A,3319.6707,N,11729.4819,W,57.70,130.00,250310,,,A*49
$GPRMC,022635.000,A,3319.6543,N,11729.4593,W,57.60,130.00,250310,,,A*44
$GPRMC,022640.000,A,3319.6063,N,11729.3934,W,56.90,130.00,250310,,,A*49
$GPRMC,022644.000,A,3319.5656,N,11729.3370,W,58.00,130.00,250310,,,A*43
$GPRMC,022648.000,A,3319.5247,N,11729.2815,W,58.00,130.00,250310,,,A*42
$GPRMC,022652.000,A,3319.4840,N,11729.2254,W,57.60,130.00,250310,,,A*43
$GPRMC,022656.000,A,3319.4436,N,11729.1700,W,57.00,130.00,250310,,,A*4B
$GPRMC,022700.000,A,3319.4040,N,11729.1152,W,52.80,130.00,250310,,,A*40
$GPRMC,022704.000,A,3319.3574,N,11729.0593,W,50.00,136.00,250310,,,A*45
$GPRMC,022708.000,A,3319.3130,N,11729.0201,W,51.90,146.00,250310,,,A*4E
$GPRMC,022712.000,A,3319.2619,N,11728.9884,W,54.20,154.00,250310,,,A*4A
$GPRMC,022716.000,A,3319.2036,N,11728.9642,W,54.90,162.00,250310,,,A*4F
$GPRMC,022720.000,A,3319.1436,N,11728.9508,W,53.10,172.00,250310,,,A*4E
$GPRMC,022724.000,A,3319.0867,N,11728.9463,W,52.70,174.00,250310,,,A*4E
$GPRMC,022728.000,A,3319.0176,N,11728.9417,W,54.60,176.00,250310,,,A*4D
$GPRMC,022732.000,A,3318.9568,N,11728.9374,W,57.70,176.00,250310,,,A*45
$GPRMC,022736.000,A,3318.8956,N,11728.9308,W,58.80,172.00,250310,,,A*4E
$GPRMC,022740.000,A,3318.8322,N,11728.9148,W,62.50,164.00,250310,,,A*43
$GPRMC,022744.000,A,3318.7561,N,11728.8770,W,64.00,154.00,250310,,,A*45
$GPRMC,022748.000,A,3318.6978,N,11728.8298,W,63.90,142.00,250310,,,A*46
$GPRMC,022752.000,A,3318.6491,N,11728.7753,W,61.70,134.00,250310,,,A*47
$GPRMC,022756.000,A,3318.6047,N,11728.7189,W,60.20,134.00,250310,,,A*49
$GPRMC,022758.000,A,3318.5780,N,11728.6845,W,59.50,132.00,250310,,,A*4B
$GPRMC,022802.000,A,3318.5347,N,11728.6285,W,57.90,134.00,250310,,,A*46
$GPRMC,022806.000,A,3318.4913,N,11728.5736,W,59.70,132.00,250310,,,A*40
$GPRMC,022810.000,A,3318.4443,N,11728.5136,W,66.20,134.00,250310,,,A*46
$GPRMC,022814.000,A,3318.3923,N,11728.4494,W,69.30,134.00,250310,,,A*4C
$GPRMC,022816.000,A,3318.3603,N,11728.4104,W,69.40,134.00,250310,,,A*48
$GPRMC,022820.000,A,3318.3073,N,11728.3458,W,68.90,134.00,250310,,,A*4B
$GPRMC,022824.000,A,3318.2554,N,11728.2825,W,67.50,134.00,250310,,,A*4A
$GPRMC,022828.000,A,3318.2047,N,11728.2211,W,66.80,134.00,250310,,,A*40
$GPRMC,022830.000,A,3318.1741,N,11728.1842,W,66.90,134.00,250310,,,A*45
$GPRMC,022834.000,A,3318.1231,N,11728.1225,W,67.20,134.00,250310,,,A*42
$GPRMC,022838.000,A,3318.0720,N,11728.0600,W,68.60,134.00,250310,,,A*43
$GPRMC,022842.000,A,3318.0187,N,11727.9955,W,71.10,134.00,250310,,,A*43
$GPRMC,022846.000,A,3317.9634,N,11727.9278,W,72.90,134.00,250310,,,A*41
$GPRMC,022848.000,A,3317.9299,N,11727.8871,W,72.10,134.00,250310,,,A*46
$GPRMC,022852.000,A,3317.8751,N,11727.8213,W,72.00,134.00,250310,,,A*42
$GPRMC,022856.000,A,3317.8184,N,11727.7525,W,75.80,134.00,250310,,,A*4A
$GPRMC,022858.000,A,3317.7837,N,11727.7103,W,76.00,134.00,250310,,,A*41
$GPRMC,022902.000,A,3317.7273,N,11727.6417,W,74.30,134.00,250310,,,A*45
$GPRMC,022906.000,A,3317.6728,N,11727.5760,W,71.70,134.00,250310,,,A*4A
$GPRMC,022911.000,A,3317.6044,N,11727.5060,W,70.20,144.00,250310,,,A*45
$GPRMC,022912.000,A,3317.5802,N,11727.4868,W,70.40,146.00,250310,,,A*4A
$GPRMC,022917.000,A,3317.5061,N,11727.4311,W,70.20,146.00,250310,,,A*41
$GPRMC,022918.000,A,3317.4815,N,11727.4127,W,70.10,146.00,250310,,,A*40
$GPRMC,022923.000,A,3317.4070,N,11727.3564,W,70.90,146.00,250310,,,A*4F
$GPRMC,022924.000,A,3317.3813,N,11727.3368,W,70.80,146.00,250310,,,A*49
$GPRMC,022928.000,A,3317.3162,N,11727.2877,W,70.40,146.00,250310,,,A*42
$GPRMC,022932.000,A,3317.2513,N,11727.2388,W,70.00,148.00,250310,,,A*4B
$GPRMC,022937.000,A,3317.1753,N,11727.1816,W,68.10,146.00,250310,,,A*42
$GPRMC,022941.000,A,3317.1160,N,11727.1361,W,65.90,146.00,250310,,,A*4B
$GPRMC,022942.000,A,3317.0926,N,11727.1181,W,66.00,146.00,250310,,,A*45
$GPRMC,022947.000,A,3317.0198,N,11727.0629,W,67.20,146.00,250310,,,A*4A
$GPRMC,022948.000,A,3316.9955,N,11727.0444,W,67.30,146.00,250310,,,A*4C
$GPRMC,022953.000,A,3316.9211,N,11726.9884,W,69.80,148.00,250310,,,A*4E
$GPRMC,022957.000,A,3316.8570,N,11726.9403,W,71.90,148.00,250310,,,A*40
$GPRMC,023001.000,A,3316.7931,N,11726.8918,W,72.30,146.00,250310,,,A*4C
$GPRMC,023005.000,A,3316.7171,N,11726.8342,W,70.30,148.00,250310,,,A*4D
$GPRMC,023009.000,A,3316.6531,N,11726.7859,W,69.50,146.00,250310,,,A*4E
$GPRMC,023013.000,A,3316.5898,N,11726.7378,W,68.70,146.00,250310,,,A*43
$GPRMC,023017.000,A,3316.5275,N,11726.6907,W,67.60,146.00,250310,,,A*43
$GPRMC,023021.000,A,3316.4652,N,11726.6435,W,68.20,146.00,250310,,,A*41
$GPRMC,023025.000,A,3316.4026,N,11726.5959,W,68.90,146.00,250310,,,A*4F
$GPRMC,023029.000,A,3316.3428,N,11726.5436,W,69.60,140.00,250310,,,A*42
$GPRMC,023033.000,A,3316.2796,N,11726.4649,W,73.20,132.00,250310,,,A*4F
$GPRMC,023037.000,A,3316.2262,N,11726.3922,W,75.80,132.00,250310,,,A*4C
$GPRMC,023041.000,A,3316.1715,N,11726.3176,W,76.20,130.00,250310,,,A*49
$GPRMC,023045.000,A,3316.1167,N,11726.2426,W,76.40,130.00,250310,,,A*49
$GPRMC,023049.000,A,3316.0636,N,11726.1701,W,74.30,130.00,250310,,,A*47
$GPRMC,023053.000,A,3316.0012,N,11726.0860,W,72.50,130.00,250310,,,A*45
$GPRMC,023057.000,A,3315.9519,N,11726.0199,W,68.20,130.00,250310,,,A*46
$GPRMC,023101.000,A,3315.9051,N,11725.9558,W,66.20,130.00,250310,,,A*40
$GPRMC,023105.000,A,3315.8569,N,11725.8954,W,64.20,136.00,250310,,,A*4E
$GPRMC,023109.000,A,3315.8037,N,11725.8471,W,62.30,144.00,250310,,,A*44
$GPRMC,023113.000,A,3315.7495,N,11725.8046,W,63.60,146.00,250310,,,A*4A
$GPRMC,023117.000,A,3315.6797,N,11725.7495,W,65.50,146.00,250310,,,A*4E
$GPRMC,023121.000,A,3315.6224,N,11725.7042,W,65.00,146.00,250310,,,A*4D
$GPRMC,023125.000,A,3315.5644,N,11725.6586,W,65.50,146.00,250310,,,A*41
$GPRMC,023127.000,A,3315.5292,N,11725.6306,W,67.40,146.00,250310,,,A*41
$GPRMC,023131.000,A,3315.4692,N,11725.5833,W,68.60,146.00,250310,,,A*40
$GPRMC,023133.000,A,3315.4324,N,11725.5540,W,69.20,146.00,250310,,,A*46
$GPRMC,023137.000,A,3315.3696,N,11725.5047,W,69.80,146.00,250310,,,A*41
$GPRMC,023141.000,A,3315.3067,N,11725.4551,W,70.00,146.00,250310,,,A*4B
$GPRMC,023143.000,A,3315.2690,N,11725.4254,W,70.00,146.00,250310,,,A*44
$GPRMC,023147.000,A,3315.2076,N,11725.3770,W,70.50,146.00,250310,,,A*4F
$GPRMC,023149.000,A,3315.1707,N,11725.3477,W,69.50,146.00,250310,,,A*4F
$GPRMC,023153.000,A,3315.1102,N,11725.2998,W,69.50,146.00,250310,,,A*4A
$GPRMC,023157.000,A,3315.0487,N,11725.2513,W,69.40,146.00,250310,,,A*49
$GPRMC,023159.000,A,3315.0107,N,11725.2210,W,69.50,146.00,250310,,,A*4F
$GPRMC,023203.000,A,3314.9472,N,11725.1709,W,68.90,146.00,250310,,,A*4F
$GPRMC,023207.000,A,3314.8849,N,11725.1217,W,68.60,146.00,250310,,,A*4B
$GPRMC,023212.000,A,3314.8077,N,11725.0743,W,69.10,156.00,250310,,,A*48
$GPRMC,023213.000,A,3314.7796,N,11725.0617,W,69.70,158.00,250310,,,A*46
$GPRMC,023217.000,A,3314.7089,N,11725.0309,W,71.00,158.00,250310,,,A*4F
$GPRMC,023221.000,A,3314.6385,N,11724.9999,W,70.40,158.00,250310,,,A*4A
$GPRMC,023223.000,A,3314.5958,N,11724.9796,W,70.30,156.00,250310,,,A*49
$GPRMC,023227.000,A,3314.5290,N,11724.9385,W,71.50,148.00,250310,,,A*4C
$GPRMC,023232.000,A,3314.4564,N,11724.8705,W,71.30,136.00,250310,,,A*47
$GPRMC,023233.000,A,3314.4352,N,11724.8445,W,70.90,134.00,250310,,,A*4B
$GPRMC,023237.000,A,3314.3889,N,11724.7733,W,69.30,126.00,250310,,,A*49
$GPRMC,023242.000,A,3314.3383,N,11724.6843,W,69.30,124.00,250310,,,A*41
$GPRMC,023246.000,A,3314.2961,N,11724.6120,W,68.50,126.00,250310,,,A*4B
$GPRMC,023247.000,A,3314.2787,N,11724.5840,W,67.10,126.00,250310,,,A*4B
$GPRMC,023251.000,A,3314.2335,N,11724.5214,W,65.70,132.00,250310,,,A*4B
$GPRMC,023256.000,A,3314.1698,N,11724.4486,W,68.30,136.00,250310,,,A*4C
$GPRMC,023300.000,A,3314.1140,N,11724.3863,W,69.70,136.00,250310,,,A*49
$GPRMC,023304.000,A,3314.0586,N,11724.3246,W,68.30,136.00,250310,,,A*4A
$GPRMC,023308.000,A,3314.0048,N,11724.2642,W,67.30,136.00,250310,,,A*4F
$GPRMC,023309.000,A,3313.9833,N,11724.2399,W,68.20,136.00,250310,,,A*49
$GPRMC,023313.000,A,3313.9275,N,11724.1771,W,71.80,136.00,250310,,,A*49
$GPRMC,023318.000,A,3313.8597,N,11724.1008,W,71.60,136.00,250310,,,A*4F
$GPRMC,023322.000,A,3313.8035,N,11724.0382,W,70.00,136.00,250310,,,A*4C
$GPRMC,023326.000,A,3313.7489,N,11723.9776,W,68.40,136.00,250310,,,A*48
$GPRMC,023327.000,A,3313.7275,N,11723.9538,W,67.90,136.00,250310,,,A*46
$GPRMC,023332.000,A,3313.6632,N,11723.8824,W,68.60,136.00,250310,,,A*45
$GPRMC,023336.000,A,3313.6086,N,11723.8212,W,68.10,136.00,250310,,,A*40
$GPRMC,023340.000,A,3313.5541,N,11723.7609,W,67.40,136.00,250310,,,A*47
$GPRMC,023344.000,A,3313.5026,N,11723.7034,W,63.20,136.00,250310,,,A*4D
$GPRMC,023348.000,A,3313.4540,N,11723.6495,W,60.50,136.00,250310,,,A*4F
$GPRMC,023352.000,A,3313.4062,N,11723.5977,W,58.20,138.00,250310,,,A*41
$GPRMC,023356.000,A,3313.3555,N,11723.5536,W,57.70,146.00,250310,,,A*49
$GPRMC,023400.000,A,3313.2889,N,11723.5142,W,58.40,156.00,250310,,,A*4A
$GPRMC,023404.000,A,3313.2255,N,11723.4916,W,61.10,164.00,250310,,,A*43
$GPRMC,023408.000,A,3313.1600,N,11723.4733,W,65.20,164.00,250310,,,A*46
$GPRMC,023412.000,A,3313.0876,N,11723.4526,W,73.60,166.00,250310,,,A*44
$GPRMC,023416.000,A,3312.9965,N,11723.4263,W,73.20,166.00,250310,,,A*49
$GPRMC,023420.000,A,3312.9216,N,11723.4045,W,71.40,166.00,250310,,,A*41
$GPRMC,023424.000,A,3312.8524,N,11723.3805,W,67.20,160.00,250310,,,A*4E
$GPRMC,023428.000,A,3312.7909,N,11723.3463,W,64.70,152.00,250310,,,A*45
$GPRMC,023432.000,A,3312.7327,N,11723.3097,W,63.10,152.00,250310,,,A*46
$GPRMC,023436.000,A,3312.6624,N,11723.2648,W,61.80,152.00,250310,,,A*4B
$GPRMC,023440.000,A,3312.6033,N,11723.2273,W,62.30,152.00,250310,,,A*4E
$GPRMC,023444.000,A,3312.5424,N,11723.1887,W,63.20,152.00,250310,,,A*49
$GPRMC,023448.000,A,3312.4807,N,11723.1499,W,63.80,152.00,250310,,,A*40
$GPRMC,023452.000,A,3312.4202,N,11723.1116,W,62.40,152.00,250310,,,A*4B
$GPRMC,023454.000,A,3312.3853,N,11723.0894,W,62.00,150.00,250310,,,A*40
$GPRMC,023458.000,A,3312.3313,N,11723.0473,W,59.40,144.00,250310,,,A*4F
$GPRMC,023502.000,A,3312.2837,N,11722.9989,W,59.10,138.00,250310,,,A*43
$GPRMC,023504.000,A,3312.2568,N,11722.9651,W,60.10,134.00,250310,,,A*4E
$GPRMC,023508.000,A,3312.2167,N,11722.9001,W,61.80,126.00,250310,,,A*41
$GPRMC,023512.000,A,3312.1838,N,11722.8295,W,63.00,118.00,250310,,,A*43
$GPRMC,023516.000,A,3312.1539,N,11722.7432,W,63.70,112.00,250310,,,A*42
$GPRMC,023520.000,A,3312.1300,N,11722.6695,W,64.20,112.00,250310,,,A*47
$GPRMC,023522.000,A,3312.1148,N,11722.6245,W,65.60,112.00,250310,,,A*47
$GPRMC,023526.000,A,3312.0883,N,11722.5456,W,67.90,112.00,250310,,,A*46
$GPRMC,023528.000,A,3312.0724,N,11722.4983,W,67.40,110.00,250310,,,A*41
$GPRMC,023532.000,A,3312.0465,N,11722.4223,W,64.00,112.00,250310,,,A*48
$GPRMC,023534.000,A,3312.0317,N,11722.3789,W,62.80,112.00,250310,,,A*40
$GPRMC,023538.000,A,3312.0066,N,11722.3088,W,62.20,114.00,250310,,,A*43
$GPRMC,023542.000,A,3311.9728,N,11722.2350,W,60.80,122.00,250310,,,A*43
$GPRMC,023547.000,A,3311.9234,N,11722.1666,W,59.70,132.00,250310,,,A*49
$GPRMC,023551.000,A,3311.8745,N,11722.1157,W,59.90,140.00,250310,,,A*42
$GPRMC,023552.000,A,3311.8533,N,11722.0971,W,60.30,142.00,250310,,,A*4D
$GPRMC,023556.000,A,3311.7986,N,11722.0521,W,61.40,144.00,250310,,,A*4D
$GPRMC,023601.000,A,3311.7296,N,11721.9947,W,63.90,144.00,250310,,,A*4F
$GPRMC,023602.000,A,3311.7060,N,11721.9755,W,64.80,144.00,250310,,,A*4C
$GPRMC,023607.000,A,3311.6331,N,11721.9143,W,67.80,144.00,250310,,,A*4D
$GPRMC,023611.000,A,3311.5695,N,11721.8623,W,70.00,146.00,250310,,,A*4E
$GPRMC,023612.000,A,3311.5438,N,11721.8417,W,70.30,144.00,250310,,,A*4C
$GPRMC,023617.000,A,3311.4680,N,11721.7792,W,70.00,144.00,250310,,,A*4B
$GPRMC,023618.000,A,3311.4432,N,11721.7587,W,69.80,144.00,250310,,,A*49
$GPRMC,023622.000,A,3311.3806,N,11721.7076,W,68.80,144.00,250310,,,A*46
$GPRMC,023627.000,A,3311.3078,N,11721.6489,W,67.00,144.00,250310,,,A*40
$GPRMC,023631.000,A,3311.2461,N,11721.5995,W,67.30,146.00,250310,,,A*48
$GPRMC,023635.000,A,3311.1842,N,11721.5511,W,66.90,146.00,250310,,,A*49
$GPRMC,023639.000,A,3311.1241,N,11721.5028,W,65.40,146.00,250310,,,A*4D
$GPRMC,023643.000,A,3311.0661,N,11721.4583,W,63.30,146.00,250310,,,A*43
$GPRMC,023647.000,A,3311.0138,N,11721.4151,W,60.40,144.00,250310,,,A*41
$GPRMC,023651.000,A,3310.9633,N,11721.3726,W,57.80,144.00,250310,,,A*4B
$GPRMC,023655.000,A,3310.9072,N,11721.3250,W,53.50,144.00,250310,,,A*41
$GPRMC,023659.000,A,3310.8628,N,11721.2881,W,50.40,144.00,250310,,,A*40
$GPRMC,023703.000,A,3310.8246,N,11721.2563,W,41.50,144.00,250310,,,A*42
$GPRMC,023707.000,A,3310.7811,N,11721.2227,W,42.20,148.00,250310,,,A*4E
$GPRMC,023711.000,A,3310.7446,N,11721.1936,W,42.00,146.00,250310,,,A*43
$GPRMC,023715.000,A,3310.7065,N,11721.1628,W,45.30,146.00,250310,,,A*46
$GPRMC,023719.000,A,3310.6663,N,11721.1299,W,44.80,146.00,250310,,,A*4F
$GPRMC,023723.000,A,3310.6216,N,11721.0954,W,40.60,146.00,250310,,,A*41
$GPRMC,023727.000,A,3310.5870,N,11721.0693,W,40.00,148.00,250310,,,A*40
$GPRMC,023731.000,A,3310.5518,N,11721.0477,W,36.70,152.00,250310,,,A*41
$GPRMC,023735.000,A,3310.5221,N,11721.0486,W,22.50,208.00,250310,,,A*4D
$GPRMC,023739.000,A,3310.5110,N,11721.0752,W,23.10,264.00,250310,,,A*45
$GPRMC,023743.000,A,3310.5271,N,11721.1017,W,25.40,332.00,250310,,,A*4A
$GPRMC,023747.000,A,3310.5546,N,11721.1089,W,23.80,350.00,250310,,,A*44
$GPRMC,023749.000,A,3310.5701,N,11721.1105,W,23.00,356.00,250310,,,A*40
$GPRMC,023753.000,A,3310.5953,N,11721.0994,W,28.30,28.00,250310,,,A*71
$GPRMC,023757.000,A,3310.6179,N,11721.0739,W,29.30,48.00,250310,,,A*78
$GPRMC,023759.000,A,3310.6317,N,11721.0518,W,34.10,54.00,250310,,,A*7E
$GPRMC,023803.000,A,3310.6575,N,11721.0071,W,43.40,56.00,250310,,,A*71
$GPRMC,023807.000,A,3310.6873,N,11720.9562,W,48.50,54.00,250310,,,A*79
$GPRMC,023809.000,A,3310.7062,N,11720.9245,W,50.30,54.00,250310,,,A*73
$GPRMC,023813.000,A,3310.7374,N,11720.8719,W,50.30,54.00,250310,,,A*71
$GPRMC,023817.000,A,3310.7703,N,11720.8169,W,54.10,54.00,250310,,,A*76
$GPRMC,023819.000,A,3310.7920,N,11720.7786,W,60.30,56.00,250310,,,A*78
$GPRMC,023823.000,A,3310.8250,N,11720.7057,W,63.60,64.00,250310,,,A*7E
$GPRMC,023827.000,A,3310.8490,N,11720.6305,W,62.70,72.00,250310,,,A*72
$GPRMC,023829.000,A,3310.8589,N,11720.5842,W,62.50,76.00,250310,,,A*78
$GPRMC,023833.000,A,3310.8680,N,11720.5037,W,63.40,84.00,250310,,,A*7E
$GPRMC,023835.000,A,3310.8687,N,11720.4561,W,62.90,90.00,250310,,,A*71
$GPRMC,023838.000,A,3310.8673,N,11720.3946,W,62.20,90.00,250310,,,A*72
$GPRMC,023841.000,A,3310.8672,N,11720.3383,W,60.90,88.00,250310,,,A*7E
$GPRMC,023846.000,A,3310.8670,N,11720.2524,W,58.00,88.00,250310,,,A*73
$GPRMC,023847.000,A,3310.8672,N,11720.2232,W,58.00,90.00,250310,,,A*79
$GPRMC,023852.000,A,3310.8673,N,11720.1356,W,58.20,90.00,250310,,,A*7E
$GPRMC,023853.000,A,3310.8674,N,11720.1061,W,58.10,90.00,250310,,,A*7C
$GPRMC,023858.000,A,3310.8681,N,11720.0204,W,56.30,90.00,250310,,,A*71
$GPRMC,023859.000,A,3310.8681,N,11719.9929,W,55.70,90.00,250310,,,A*70
$GPRMC,023904.000,A,3310.8681,N,11719.9091,W,56.20,88.00,250310,,,A*7C
$GPRMC,023905.000,A,3310.8689,N,11719.8806,W,56.50,88.00,250310,,,A*75
$GPRMC,023910.000,A,3310.8702,N,11719.7959,W,57.00,88.00,250310,,,A*73
$GPRMC,023911.000,A,3310.8711,N,11719.7669,W,57.40,86.00,250310,,,A*76
$GPRMC,023916.000,A,3310.8803,N,11719.6801,W,60.20,78.00,250310,,,A*7F
$GPRMC,023917.000,A,3310.8862,N,11719.6491,W,61.20,76.00,250310,,,A*73
$GPRMC,023922.000,A,3310.9071,N,11719.5566,W,61.80,74.00,250310,,,A*7C
$GPRMC,023923.000,A,3310.9144,N,11719.5277,W,59.40,74.00,250310,,,A*7A
$GPRMC,023927.000,A,3310.9295,N,11719.4567,W,57.50,78.00,250310,,,A*75
$GPRMC,023932.000,A,3310.9347,N,11719.3689,W,58.10,90.00,250310,,,A*76
$GPRMC,023933.000,A,3310.9321,N,11719.3395,W,58.40,96.00,250310,,,A*7C
$GPRMC,023938.000,A,3310.9133,N,11719.2513,W,59.50,106.00,250310,,,A*47
$GPRMC,023942.000,A,3310.8894,N,11719.1740,W,62.60,108.00,250310,,,A*4D
$GPRMC,023946.000,A,3310.8664,N,11719.0952,W,62.30,108.00,250310,,,A*41
$GPRMC,023947.000,A,3310.8571,N,11719.0651,W,61.90,108.00,250310,,,A*42
$GPRMC,023952.000,A,3310.8342,N,11718.9722,W,64.00,104.00,250310,,,A*4D
$GPRMC,023956.000,A,3310.8207,N,11718.8923,W,64.20,98.00,250310,,,A*71
$GPRMC,024000.000,A,3310.8109,N,11718.8126,W,61.50,98.00,250310,,,A*7E
$GPRMC,024004.000,A,3310.8006,N,11718.7259,W,57.70,98.00,250310,,,A*77
$GPRMC,024008.000,A,3310.7926,N,11718.6557,W,57.00,96.00,250310,,,A*7E
$GPRMC,024012.000,A,3310.7882,N,11718.5858,W,56.70,92.00,250310,,,A*79
$GPRMC,024016.000,A,3310.7939,N,11718.4996,W,56.70,82.00,250310,,,A*7F
$GPRMC,024020.000,A,3310.8090,N,11718.4279,W,57.90,72.00,250310,,,A*75
$GPRMC,024024.000,A,3310.8319,N,11718.3587,W,57.70,68.00,250310,,,A*77
$GPRMC,024028.000,A,3310.8557,N,11718.2889,W,58.90,68.00,250310,,,A*74
$GPRMC,024032.000,A,3310.8853,N,11718.2040,W,57.80,68.00,250310,,,A*75
$GPRMC,024036.000,A,3310.9088,N,11718.1336,W,57.80,68.00,250310,,,A*7F
$GPRMC,024040.000,A,3310.9328,N,11718.0617,W,57.80,68.00,250310,,,A*70
$GPRMC,024044.000,A,3310.9558,N,11717.9925,W,56.60,68.00,250310,,,A*72
$GPRMC,024048.000,A,3310.9754,N,11717.9222,W,55.30,74.00,250310,,,A*77
$GPRMC,024052.000,A,3310.9871,N,11717.8542,W,53.10,80.00,250310,,,A*7B
$GPRMC,024056.000,A,3310.9915,N,11717.7918,W,48.60,84.00,250310,,,A*79
$GPRMC,024058.000,A,3310.9929,N,11717.7556,W,47.60,86.00,250310,,,A*73
$GPRMC,024102.000,A,3310.9957,N,11717.6961,W,47.40,84.00,250310,,,A*7D
$GPRMC,024104.000,A,3310.9977,N,11717.6592,W,48.10,86.00,250310,,,A*71
$GPRMC,024108.000,A,3311.0015,N,11717.5944,W,51.80,86.00,250310,,,A*7D
$GPRMC,024112.000,A,3311.0059,N,11717.5218,W,55.90,86.00,250310,,,A*79
$GPRMC,024116.000,A,3311.0106,N,11717.4470,W,57.10,84.00,250310,,,A*77
$GPRMC,024120.000,A,3311.0187,N,11717.3712,W,58.30,80.00,250310,,,A*72
$GPRMC,024122.000,A,3311.0266,N,11717.3265,W,57.90,76.00,250310,,,A*75
$GPRMC,024126.000,A,3311.0446,N,11717.2551,W,57.50,72.00,250310,,,A*7C
$GPRMC,024130.000,A,3311.0677,N,11717.1852,W,57.70,66.00,250310,,,A*71
$GPRMC,024135.000,A,3311.1033,N,11717.1059,W,58.20,60.00,250310,,,A*7C
$GPRMC,024136.000,A,3311.1168,N,11717.0793,W,57.70,60.00,250310,,,A*7A
$GPRMC,024140.000,A,3311.1509,N,11717.0156,W,56.30,58.00,250310,,,A*79
$GPRMC,024144.000,A,3311.1834,N,11716.9565,W,54.10,58.00,250310,,,A*72
$GPRMC,024148.000,A,3311.2142,N,11716.8999,W,52.50,58.00,250310,,,A*79
$GPRMC,024152.000,A,3311.2436,N,11716.8417,W,52.70,60.00,250310,,,A*76
$GPRMC,024157.000,A,3311.2791,N,11716.7694,W,53.00,60.00,250310,,,A*7D
$GPRMC,024158.000,A,3311.2898,N,11716.7473,W,53.50,60.00,250310,,,A*7A
$GPRMC,024203.000,A,3311.3253,N,11716.6747,W,56.10,60.00,250310,,,A*7F
$GPRMC,024207.000,A,3311.3556,N,11716.6124,W,56.50,60.00,250310,,,A*7E
$GPRMC,024210.000,A,3311.3859,N,11716.5503,W,56.60,60.00,250310,,,A*7B
$GPRMC,024215.000,A,3311.4221,N,11716.4763,W,54.80,60.00,250310,,,A*75
$GPRMC,024219.000,A,3311.4509,N,11716.4180,W,53.50,60.00,250310,,,A*75
$GPRMC,024220.000,A,3311.4622,N,11716.3946,W,53.00,60.00,250310,,,A*75
$GPRMC,024225.000,A,3311.4943,N,11716.3267,W,52.20,62.00,250310,,,A*71
$GPRMC,024229.000,A,3311.5196,N,11716.2659,W,54.00,62.00,250310,,,A*70
$GPRMC,024233.000,A,3311.5441,N,11716.2064,W,53.90,64.00,250310,,,A*74
$GPRMC,024237.000,A,3311.5739,N,11716.1319,W,55.40,64.00,250310,,,A*7D
$GPRMC,024241.000,A,3311.5999,N,11716.0667,W,57.90,64.00,250310,,,A*7A
$GPRMC,024242.000,A,3311.6104,N,11716.0396,W,57.90,64.00,250310,,,A*7D
$GPRMC,024247.000,A,3311.6382,N,11715.9544,W,59.20,72.00,250310,,,A*75
$GPRMC,024251.000,A,3311.6532,N,11715.8784,W,59.40,78.00,250310,,,A*7C
$GPRMC,024255.000,A,3311.6599,N,11715.8022,W,60.00,86.00,250310,,,A*7D
$GPRMC,024259.000,A,3311.6596,N,11715.7241,W,60.70,92.00,250310,,,A*74
$GPRMC,024303.000,A,3311.6573,N,11715.6470,W,60.00,92.00,250310,,,A*73
$GPRMC,024307.000,A,3311.6546,N,11715.5555,W,59.60,92.00,250310,,,A*78
$GPRMC,024311.000,A,3311.6535,N,11715.4803,W,59.90,88.00,250310,,,A*70
$GPRMC,024315.000,A,3311.6569,N,11715.4043,W,60.30,84.00,250310,,,A*7D
$GPRMC,024319.000,A,3311.6658,N,11715.3251,W,60.80,82.00,250310,,,A*7B
$GPRMC,024323.000,A,3311.6796,N,11715.2294,W,62.00,80.00,250310,,,A*71
$GPRMC,024327.000,A,3311.6922,N,11715.1483,W,63.00,80.00,250310,,,A*76
$GPRMC,024331.000,A,3311.6984,N,11715.0675,W,62.50,88.00,250310,,,A*7B
$GPRMC,024334.000,A,3311.6933,N,11715.0058,W,61.60,94.00,250310,,,A*76
$GPRMC,024339.000,A,3311.6730,N,11714.9181,W,58.50,108.00,250310,,,A*46
$GPRMC,024343.000,A,3311.6382,N,11714.8461,W,57.10,122.00,250310,,,A*4F
$GPRMC,024347.000,A,3311.6036,N,11714.7871,W,56.80,124.00,250310,,,A*4B
$GPRMC,024351.000,A,3311.5695,N,11714.7295,W,55.90,124.00,250310,,,A*42
$GPRMC,024355.000,A,3311.5343,N,11714.6713,W,57.10,124.00,250310,,,A*48
$GPRMC,024359.000,A,3311.4964,N,11714.6073,W,57.60,124.00,250310,,,A*4C
$GPRMC,024401.000,A,3311.4742,N,11714.5696,W,57.60,124.00,250310,,,A*42
$GPRMC,024405.000,A,3311.4372,N,11714.5058,W,57.80,124.00,250310,,,A*4B
$GPRMC,024409.000,A,3311.3998,N,11714.4419,W,58.90,124.00,250310,,,A*40
$GPRMC,024413.000,A,3311.3623,N,11714.3774,W,60.00,124.00,250310,,,A*49
$GPRMC,024415.000,A,3311.3398,N,11714.3399,W,59.90,124.00,250310,,,A*4E
$GPRMC,024419.000,A,3311.3041,N,11714.2788,W,59.20,124.00,250310,,,A*4B
$GPRMC,024423.000,A,3311.2684,N,11714.2178,W,58.20,124.00,250310,,,A*44
$GPRMC,024425.000,A,3311.2470,N,11714.1808,W,57.90,124.00,250310,,,A*42
$GPRMC,024429.000,A,3311.2113,N,11714.1199,W,57.00,124.00,250310,,,A*46
$GPRMC,024433.000,A,3311.1751,N,11714.0635,W,53.20,128.00,250310,,,A*44
$GPRMC,024437.000,A,3311.1351,N,11714.0144,W,51.30,136.00,250310,,,A*49
$GPRMC,024439.000,A,3311.1091,N,11713.9880,W,51.80,140.00,250310,,,A*4D
$GPRMC,024443.000,A,3311.0642,N,11713.9500,W,52.10,146.00,250310,,,A*40
$GPRMC,024447.000,A,3311.0138,N,11713.9158,W,52.80,150.00,250310,,,A*49
$GPRMC,024452.000,A,3310.9510,N,11713.8752,W,55.40,150.00,250310,,,A*4D
$GPRMC,024453.000,A,3310.9291,N,11713.8609,W,56.00,150.00,250310,,,A*4A
$GPRMC,024457.000,A,3310.8724,N,11713.8234,W,57.00,150.00,250310,,,A*4F
$GPRMC,024501.000,A,3310.8145,N,11713.7850,W,58.60,150.00,250310,,,A*42
$GPRMC,024505.000,A,3310.7578,N,11713.7478,W,58.50,150.00,250310,,,A*46
$GPRMC,024509.000,A,3310.7007,N,11713.7100,W,59.20,150.00,250310,,,A*4B
$GPRMC,024514.000,A,3310.6302,N,11713.6637,W,59.60,150.00,250310,,,A*46
$GPRMC,024518.000,A,3310.5729,N,11713.6258,W,58.50,150.00,250310,,,A*4B
$GPRMC,024522.000,A,3310.5189,N,11713.5896,W,56.50,150.00,250310,,,A*4B
$GPRMC,024526.000,A,3310.4638,N,11713.5524,W,58.20,150.00,250310,,,A*4E
$GPRMC,024527.000,A,3310.4410,N,11713.5371,W,58.90,150.00,250310,,,A*4A
$GPRMC,024531.000,A,3310.3836,N,11713.4984,W,59.30,150.00,250310,,,A*48
$GPRMC,024536.000,A,3310.3168,N,11713.4475,W,61.40,142.00,250310,,,A*41
$GPRMC,024540.000,A,3310.2683,N,11713.3913,W,61.30,132.00,250310,,,A*49
$GPRMC,024544.000,A,3310.2317,N,11713.3267,W,60.10,120.00,250310,,,A*4D
$GPRMC,024548.000,A,3310.2066,N,11713.2587,W,58.70,112.00,250310,,,A*40
$GPRMC,024552.000,A,3310.1846,N,11713.1875,W,58.40,110.00,250310,,,A*40
$GPRMC,024556.000,A,3310.1623,N,11713.1164,W,58.50,110.00,250310,,,A*41
$GPRMC,024600.000,A,3310.1279,N,11713.0301,W,61.20,118.00,250310,,,A*4F
$GPRMC,024604.000,A,3310.0909,N,11712.9648,W,62.70,126.00,250310,,,A*4D
$GPRMC,024608.000,A,3310.0460,N,11712.9052,W,63.10,134.00,250310,,,A*4A
$GPRMC,024612.000,A,3309.9958,N,11712.8545,W,62.70,140.00,250310,,,A*40
$GPRMC,024616.000,A,3309.9291,N,11712.8000,W,62.10,144.00,250310,,,A*4C
$GPRMC,024620.000,A,3309.8758,N,11712.7567,W,59.60,144.00,250310,,,A*4C
$GPRMC,024624.000,A,3309.8245,N,11712.7149,W,59.10,144.00,250310,,,A*4E
$GPRMC,024628.000,A,3309.7727,N,11712.6731,W,58.90,146.00,250310,,,A*4F
$GPRMC,024632.000,A,3309.7199,N,11712.6302,W,59.50,144.00,250310,,,A*4C
$GPRMC,024636.000,A,3309.6660,N,11712.5860,W,60.60,144.00,250310,,,A*4D
$GPRMC,024640.000,A,3309.5999,N,11712.5321,W,61.30,144.00,250310,,,A*4C
$GPRMC,024644.000,A,3309.5454,N,11712.4869,W,61.00,144.00,250310,,,A*41
$GPRMC,024648.000,A,3309.4919,N,11712.4430,W,60.10,144.00,250310,,,A*48
$GPRMC,024652.000,A,3309.4407,N,11712.3985,W,59.00,142.00,250310,,,A*48
$GPRMC,024656.000,A,3309.3949,N,11712.3511,W,58.40,138.00,250310,,,A*45
$GPRMC,024658.000,A,3309.3677,N,11712.3206,W,58.50,138.00,250310,,,A*49
$GPRMC,024702.000,A,3309.3214,N,11712.2669,W,62.90,136.00,250310,,,A*41
$GPRMC,024706.000,A,3309.2740,N,11712.2097,W,62.40,134.00,250310,,,A*48
$GPRMC,024708.000,A,3309.2461,N,11712.1763,W,61.40,134.00,250310,,,A*4A
$GPRMC,024712.000,A,3309.2002,N,11712.1225,W,60.40,136.00,250310,,,A*44
$GPRMC,024716.000,A,3309.1549,N,11712.0693,W,59.70,134.00,250310,,,A*4A
$GPRMC,024718.000,A,3309.1285,N,11712.0379,W,58.00,134.00,250310,,,A*44
$GPRMC,024722.000,A,3309.0842,N,11711.9858,W,58.90,134.00,250310,,,A*46
$GPRMC,024726.000,A,3309.0390,N,11711.9319,W,59.60,134.00,250310,,,A*46
$GPRMC,024728.000,A,3309.0120,N,11711.9002,W,59.50,136.00,250310,,,A*49
$GPRMC,024732.000,A,3308.9702,N,11711.8501,W,58.50,134.00,250310,,,A*48
$GPRMC,024734.000,A,3308.9440,N,11711.8200,W,58.00,136.00,250310,,,A*4A
$GPRMC,024738.000,A,3308.8997,N,11711.7685,W,57.70,134.00,250310,,,A*4C
$GPRMC,024742.000,A,3308.8531,N,11711.7147,W,59.80,134.00,250310,,,A*49
$GPRMC,024744.000,A,3308.8250,N,11711.6822,W,60.20,136.00,250310,,,A*46
$GPRMC,024748.000,A,3308.7776,N,11711.6275,W,61.40,134.00,250310,,,A*49
$GPRMC,024752.000,A,3308.7301,N,11711.5716,W,62.30,134.00,250310,,,A*41
$GPRMC,024757.000,A,3308.6721,N,11711.5038,W,62.90,134.00,250310,,,A*42
$GPRMC,024758.000,A,3308.6532,N,11711.4818,W,62.40,136.00,250310,,,A*49
$GPRMC,024802.000,A,3308.6057,N,11711.4258,W,63.40,134.00,250310,,,A*42
$GPRMC,024807.000,A,3308.5514,N,11711.3477,W,66.90,126.00,250310,,,A*41
$GPRMC,024808.000,A,3308.5355,N,11711.3189,W,67.20,122.00,250310,,,A*47
$GPRMC,024813.000,A,3308.4982,N,11711.2268,W,66.20,114.00,250310,,,A*45
$GPRMC,024816.000,A,3308.4768,N,11711.1650,W,64.20,112.00,250310,,,A*42
$GPRMC,024818.000,A,3308.4611,N,11711.1206,W,63.20,112.00,250310,,,A*43
$GPRMC,024822.000,A,3308.4349,N,11711.0467,W,61.90,112.00,250310,,,A*4B
$GPRMC,024827.000,A,3308.4037,N,11710.9585,W,63.50,112.00,250310,,,A*4F
$GPRMC,024828.000,A,3308.3932,N,11710.9287,W,63.70,112.00,250310,,,A*4C
$GPRMC,024833.000,A,3308.3615,N,11710.8392,W,63.00,112.00,250310,,,A*4F
$GPRMC,024837.000,A,3308.3357,N,11710.7663,W,61.50,112.00,250310,,,A*4B
$GPRMC,024841.000,A,3308.3095,N,11710.6929,W,62.20,114.00,250310,,,A*45
$GPRMC,024845.000,A,3308.2825,N,11710.6195,W,62.10,112.00,250310,,,A*49
$GPRMC,024849.000,A,3308.2556,N,11710.5437,W,63.80,112.00,250310,,,A*4A
$GPRMC,024852.000,A,3308.2284,N,11710.4677,W,64.10,112.00,250310,,,A*41
$GPRMC,024857.000,A,3308.2023,N,11710.3762,W,65.60,104.00,250310,,,A*48
$GPRMC,024901.000,A,3308.1953,N,11710.2910,W,68.30,92.00,250310,,,A*7B
$GPRMC,024905.000,A,3308.2010,N,11710.1865,W,68.60,86.00,250310,,,A*72
$GPRMC,024909.000,A,3308.2065,N,11710.1038,W,66.40,84.00,250310,,,A*72
$GPRMC,024913.000,A,3308.2110,N,11710.0239,W,65.00,86.00,250310,,,A*7D
$GPRMC,024917.000,A,3308.2172,N,11709.9291,W,65.10,84.00,250310,,,A*7D
$GPRMC,024921.000,A,3308.2221,N,11709.8511,W,64.50,86.00,250310,,,A*74
$GPRMC,024925.000,A,3308.2282,N,11709.7608,W,62.90,86.00,250310,,,A*77
$GPRMC,024929.000,A,3308.2332,N,11709.6870,W,60.30,84.00,250310,,,A*7B
$GPRMC,024933.000,A,3308.2423,N,11709.6130,W,60.20,78.00,250310,,,A*78
$GPRMC,024937.000,A,3308.2633,N,11709.5231,W,61.80,72.00,250310,,,A*7F
$GPRMC,024941.000,A,3308.2850,N,11709.4436,W,63.70,72.00,250310,,,A*78
$GPRMC,024945.000,A,3308.3068,N,11709.3610,W,65.80,72.00,250310,,,A*76
$GPRMC,024949.000,A,3308.3293,N,11709.2765,W,68.00,72.00,250310,,,A*7B
$GPRMC,024953.000,A,3308.3519,N,11709.1941,W,66.80,72.00,250310,,,A*78
$GPRMC,024957.000,A,3308.3682,N,11709.1130,W,63.30,80.00,250310,,,A*70
$GPRMC,024959.000,A,3308.3738,N,11709.0651,W,63.30,82.00,250310,,,A*7D
$GPRMC,025003.000,A,3308.3768,N,11708.9867,W,62.70,90.00,250310,,,A*7A
$GPRMC,025007.000,A,3308.3737,N,11708.9069,W,62.70,92.00,250310,,,A*70
$GPRMC,025011.000,A,3308.3706,N,11708.8274,W,62.00,92.00,250310,,,A*7D
$GPRMC,025013.000,A,3308.3687,N,11708.7795,W,61.60,92.00,250310,,,A*77
$GPRMC,025017.000,A,3308.3660,N,11708.7008,W,60.20,90.00,250310,,,A*7E
$GPRMC,025019.000,A,3308.3646,N,11708.6560,W,58.10,92.00,250310,,,A*74
$GPRMC,025023.000,A,3308.3578,N,11708.5860,W,55.00,98.00,250310,,,A*7B
$GPRMC,025025.000,A,3308.3501,N,11708.5483,W,53.70,104.00,250310,,,A*47
$GPRMC,025029.000,A,3308.3292,N,11708.4869,W,55.00,114.00,250310,,,A*4F
$GPRMC,025031.000,A,3308.3132,N,11708.4501,W,55.80,116.00,250310,,,A*46
$GPRMC,025035.000,A,3308.2845,N,11708.3852,W,57.50,118.00,250310,,,A*47
$GPRMC,025037.000,A,3308.2666,N,11708.3441,W,58.60,116.00,250310,,,A*46
$GPRMC,025041.000,A,3308.2370,N,11708.2740,W,60.00,116.00,250310,,,A*4B
$GPRMC,025046.000,A,3308.2010,N,11708.1900,W,60.30,116.00,250310,,,A*43
$GPRMC,025047.000,A,3308.1885,N,11708.1621,W,60.10,118.00,250310,,,A*45
$GPRMC,025051.000,A,3308.1573,N,11708.0938,W,60.00,116.00,250310,,,A*4F
$GPRMC,025055.000,A,3308.1315,N,11708.0229,W,59.30,110.00,250310,,,A*49
$GPRMC,025100.000,A,3308.1133,N,11707.9382,W,57.50,102.00,250310,,,A*43
$GPRMC,025101.000,A,3308.1083,N,11707.9095,W,57.90,102.00,250310,,,A*41
$GPRMC,025106.000,A,3308.0941,N,11707.8209,W,58.20,100.00,250310,,,A*40
$GPRMC,025107.000,A,3308.0900,N,11707.7915,W,57.90,100.00,250310,,,A*49
$GPRMC,025111.000,A,3308.0806,N,11707.7186,W,58.60,100.00,250310,,,A*4B
$GPRMC,025116.000,A,3308.0658,N,11707.6316,W,59.50,104.00,250310,,,A*45
$GPRMC,025117.000,A,3308.0585,N,11707.6030,W,59.70,108.00,250310,,,A*4E
$GPRMC,025122.000,A,3308.0299,N,11707.5176,W,61.70,116.00,250310,,,A*46
$GPRMC,025123.000,A,3308.0174,N,11707.4880,W,64.60,116.00,250310,,,A*42
$GPRMC,025128.000,A,3307.9775,N,11707.3966,W,64.80,116.00,250310,,,A*48
$GPRMC,025132.000,A,3307.9449,N,11707.3237,W,62.90,118.00,250310,,,A*49
$GPRMC,025135.000,A,3307.9183,N,11707.2684,W,62.70,118.00,250310,,,A*4E
$GPRMC,025137.000,A,3307.9017,N,11707.2312,W,61.90,118.00,250310,,,A*47
$GPRMC,025142.000,A,3307.8676,N,11707.1542,W,58.90,118.00,250310,,,A*4F
$GPRMC,025145.000,A,3307.8382,N,11707.0894,W,59.50,118.00,250310,,,A*4C
$GPRMC,025150.000,A,3307.8011,N,11707.0058,W,60.90,118.00,250310,,,A*4F
$GPRMC,025154.000,A,3307.7713,N,11706.9397,W,56.00,118.00,250310,,,A*45
$GPRMC,025158.000,A,3307.7466,N,11706.8865,W,43.80,118.00,250310,,,A*43
