NMEA Sentence Code,UTC Time,Status,Latitude,Latitude Direction,Longitude,Longitude Direction,Speed (knots),Track Angle (degrees true),Date,MagneticVariation,Magnetic Variation Direction,[FAA Mode]-Optional,Checksum
$GPRMC,230519.9,A,3337.080231,N,11749.213272,W,58.5,148.9,051210,,,A*43
$GPRMC,230522.9,A,3337.034291,N,11749.189474,W,59.9,156.3,051210,,,A*46
$GPRMC,230525.9,A,3336.989558,N,11749.167077,W,60.3,157.6,051210,,,A*4E
$GPRMC,230528.9,A,3336.942132,N,11749.144028,W,61.2,157.8,051210,,,A*49
$GPRMC,230531.9,A,3336.893950,N,11749.121298,W,62.5,157.8,051210,,,A*4E
$GPRMC,230534.9,A,3336.846852,N,11749.096410,W,62.0,153.7,051210,,,A*45
$GPRMC,230537.9,A,3336.800986,N,11749.064840,W,64.1,148.6,051210,,,A*44
$GPRMC,230540.9,A,3336.757925,N,11749.029984,W,62.8,143.4,051210,,,A*46
$GPRMC,230543.9,A,3336.717479,N,11748.988921,W,64.9,137.2,051210,,,A*4B
$GPRMC,230546.9,A,3336.679345,N,11748.942102,W,64.7,131.5,051210,,,A*4F
$GPRMC,230549.9,A,3336.650090,N,11748.890997,W,63.6,124.6,051210,,,A*4B
$GPRMC,230552.9,A,3336.623190,N,11748.837033,W,63.0,119.3,051210,,,A*43
$GPRMC,230555.9,A,3336.601152,N,11748.780114,W,61.6,114.4,051210,,,A*43
$GPRMC,230559.2,A,3336.582366,N,11748.716342,W,63.1,113.0,051210,,,A*41
$GPRMC,230602.9,A,3336.569812,N,11748.646341,W,60.2,102.9,051210,,,A*44
$GPRMC,230605.9,A,3336.563745,N,11748.590092,W,56.5,99.4,051210,,,A*7D
$GPRMC,230608.9,A,3336.556293,N,11748.539753,W,54.0,100.3,051210,,,A*40
$GPRMC,230611.9,A,3336.547649,N,11748.486055,W,55.3,100.8,051210,,,A*46
$GPRMC,230614.9,A,3336.541038,N,11748.430998,W,56.8,99.8,051210,,,A*79
$GPRMC,230618.2,A,3336.529007,N,11748.368131,W,58.0,102.8,051210,,,A*48
$GPRMC,230621.2,A,3336.516252,N,11748.316731,W,53.8,106.9,051210,,,A*45
$GPRMC,230624.2,A,3336.501017,N,11748.266485,W,53.3,110.4,051210,,,A*4E
$GPRMC,230627.2,A,3336.483998,N,11748.216552,W,54.6,110.0,051210,,,A*42
$GPRMC,230630.2,A,3336.462117,N,11748.167023,W,56.7,116.3,051210,,,A*44
$GPRMC,230633.2,A,3336.440474,N,11748.115245,W,58.3,116.0,051210,,,A*49
$GPRMC,230636.2,A,3336.419656,N,11748.063482,W,56.8,116.2,051210,,,A*48
$GPRMC,230639.2,A,3336.399029,N,11748.013977,W,55.9,114.0,051210,,,A*44
$GPRMC,230642.2,A,3336.379460,N,11747.965829,W,52.5,116.1,051210,,,A*4A
$GPRMC,230645.2,A,3336.359234,N,11747.920175,W,51.4,119.7,051210,,,A*42
$GPRMC,230648.2,A,3336.337969,N,11747.876345,W,51.2,119.7,051210,,,A*41
$GPRMC,230651.2,A,3336.319911,N,11747.838167,W,41.9,120.7,051210,,,A*42
$GPRMC,230654.2,A,3336.302763,N,11747.802434,W,40.9,120.4,051210,,,A*4E
$GPRMC,230657.2,A,3336.286373,N,11747.768083,W,39.2,119.0,051210,,,A*45
$GPRMC,230700.2,A,3336.270697,N,11747.736043,W,36.3,122.1,051210,,,A*40
$GPRMC,230703.2,A,3336.255387,N,11747.705413,W,35.4,121.5,051210,,,A*42
$GPRMC,230706.2,A,3336.241425,N,11747.676469,W,37.3,118.4,051210,,,A*4B
$GPRMC,230709.2,A,3336.234028,N,11747.658111,W,19.5,117.2,051210,,,A*4A
$GPRMC,230712.2,A,3336.227830,N,11747.643455,W,12.8,114.4,051210,,,A*4F
$GPRMC,230715.2,A,3336.224077,N,11747.634688,W,7.1,113.7,051210,,,A*7B
$GPRMC,230718.9,A,3336.221657,N,11747.629438,W,4.8,128.0,051210,,,A*7C
$GPRMC,230751.2,A,3336.219025,N,11747.621579,W,10.5,117.1,051210,,,A*4B
$GPRMC,230754.2,A,3336.213446,N,11747.604601,W,25.5,110.4,051210,,,A*4A
$GPRMC,230757.2,A,3336.204163,N,11747.574687,W,37.0,110.3,051210,,,A*46
$GPRMC,230800.2,A,3336.191771,N,11747.536019,W,45.4,111.3,051210,,,A*46
$GPRMC,230803.2,A,3336.177744,N,11747.490993,W,50.2,109.2,051210,,,A*47
$GPRMC,230806.2,A,3336.165095,N,11747.440737,W,55.0,105.0,051210,,,A*4E
$GPRMC,230809.2,A,3336.154081,N,11747.386557,W,57.4,102.5,051210,,,A*4B
$GPRMC,230812.2,A,3336.144271,N,11747.328889,W,58.0,101.9,051210,,,A*43
$GPRMC,230815.2,A,3336.138259,N,11747.268545,W,60.3,97.7,051210,,,A*75
$GPRMC,230818.2,A,3336.132257,N,11747.209905,W,59.3,93.9,051210,,,A*73
$GPRMC,230821.2,A,3336.131162,N,11747.151564,W,61.3,95.2,051210,,,A*7C
$GPRMC,230824.2,A,3336.125856,N,11747.089769,W,61.9,98.5,051210,,,A*79
$GPRMC,230827.9,A,3336.111836,N,11747.013536,W,62.6,104.5,051210,,,A*43
$GPRMC,230830.2,A,3336.098680,N,11746.966660,W,64.8,108.3,051210,,,A*45
$GPRMC,230833.2,A,3336.078968,N,11746.904979,W,67.3,112.7,051210,,,A*45
$GPRMC,230836.2,A,3336.055503,N,11746.844130,W,68.0,117.7,051210,,,A*47
$GPRMC,230839.2,A,3336.028302,N,11746.785349,W,67.4,120.3,051210,,,A*40
$GPRMC,230842.9,A,3335.993384,N,11746.714142,W,67.8,120.9,051210,,,A*44
$GPRMC,230845.9,A,3335.969669,N,11746.655322,W,65.0,115.2,051210,,,A*47
$GPRMC,230848.9,A,3335.947621,N,11746.595053,W,65.3,112.3,051210,,,A*45
$GPRMC,230851.9,A,3335.930040,N,11746.533295,W,66.1,109.3,051210,,,A*43
$GPRMC,230854.9,A,3335.922543,N,11746.470148,W,63.4,99.5,051210,,,A*78
$GPRMC,230857.9,A,3335.921556,N,11746.404429,W,64.6,94.3,051210,,,A*73
$GPRMC,230900.9,A,3335.920846,N,11746.343863,W,62.6,94.2,051210,,,A*7C
$GPRMC,230903.9,A,3335.913219,N,11746.278973,W,64.5,97.3,051210,,,A*71
$GPRMC,230906.9,A,3335.900667,N,11746.216718,W,64.0,104.3,051210,,,A*4E
$GPRMC,230909.9,A,3335.883713,N,11746.151856,W,67.7,108.1,051210,,,A*46
$GPRMC,230912.9,A,3335.861321,N,11746.100251,W,62.6,116.6,051210,,,A*40
$GPRMC,230915.9,A,3335.833524,N,11746.045275,W,63.5,122.4,051210,,,A*42
$GPRMC,230918.9,A,3335.801290,N,11745.996133,W,62.4,127.4,051210,,,A*46
$GPRMC,230921.9,A,3335.768720,N,11745.946712,W,63.2,128.1,051210,,,A*47
$GPRMC,230924.9,A,3335.734994,N,11745.897526,W,63.1,128.3,051210,,,A*43
$GPRMC,230927.9,A,3335.701979,N,11745.852257,W,62.7,129.0,051210,,,A*48
$GPRMC,230930.9,A,3335.667936,N,11745.801375,W,64.5,128.9,051210,,,A*4F
$GPRMC,230933.9,A,3335.637094,N,11745.752800,W,61.1,126.7,051210,,,A*49
$GPRMC,230936.9,A,3335.602895,N,11745.705666,W,62.6,128.9,051210,,,A*4B
$GPRMC,230939.2,A,3335.576923,N,11745.668394,W,63.4,131.9,051210,,,A*4A
$GPRMC,230942.2,A,3335.548537,N,11745.619372,W,60.3,122.3,051210,,,A*40
$GPRMC,230945.2,A,3335.524262,N,11745.566955,W,60.7,116.5,051210,,,A*4B
$GPRMC,230948.2,A,3335.503435,N,11745.509454,W,64.0,110.6,051210,,,A*44
$GPRMC,230951.9,A,3335.483688,N,11745.430879,W,67.4,105.0,051210,,,A*47
$GPRMC,230954.9,A,3335.474567,N,11745.365801,W,66.7,99.9,051210,,,A*7F
$GPRMC,230957.9,A,3335.466231,N,11745.297874,W,67.9,100.1,051210,,,A*43
$GPRMC,231000.9,A,3335.455275,N,11745.230384,W,69.6,99.9,051210,,,A*78
$GPRMC,231003.9,A,3335.444651,N,11745.161662,W,69.8,100.1,051210,,,A*44
$GPRMC,231006.9,A,3335.436348,N,11745.096279,W,66.8,99.6,051210,,,A*77
$GPRMC,231009.9,A,3335.428230,N,11745.029815,W,66.4,99.9,051210,,,A*7E
$GPRMC,231012.9,A,3335.414932,N,11744.968707,W,63.9,104.6,051210,,,A*41
$GPRMC,231015.9,A,3335.397601,N,11744.906897,W,63.3,108.6,051210,,,A*4D
$GPRMC,231018.9,A,3335.379810,N,11744.851663,W,62.0,112.5,051210,,,A*42
$GPRMC,231021.9,A,3335.357957,N,11744.794443,W,62.6,114.0,051210,,,A*45
$GPRMC,231024.9,A,3335.337059,N,11744.736216,W,62.5,113.7,051210,,,A*4C
$GPRMC,231027.9,A,3335.315597,N,11744.678968,W,63.3,112.7,051210,,,A*47
$GPRMC,231030.9,A,3335.301123,N,11744.620036,W,62.9,106.3,051210,,,A*4A
$GPRMC,231033.9,A,3335.288984,N,11744.558295,W,63.6,102.0,051210,,,A*42
$GPRMC,231036.9,A,3335.282084,N,11744.497982,W,62.4,97.6,051210,,,A*73
$GPRMC,231039.9,A,3335.275247,N,11744.435121,W,64.6,96.2,051210,,,A*71
$GPRMC,231042.9,A,3335.267829,N,11744.372582,W,64.4,97.8,051210,,,A*7C
$GPRMC,231045.9,A,3335.260891,N,11744.309456,W,64.2,97.0,051210,,,A*75
$GPRMC,231048.9,A,3335.253962,N,11744.244760,W,64.7,96.6,051210,,,A*79
$GPRMC,231051.9,A,3335.249665,N,11744.178711,W,65.1,96.1,051210,,,A*78
$GPRMC,231054.9,A,3335.243788,N,11744.117251,W,64.1,95.9,051210,,,A*77
$GPRMC,231057.9,A,3335.237768,N,11744.053833,W,65.0,97.3,051210,,,A*7E
$GPRMC,231100.9,A,3335.230151,N,11743.990070,W,64.6,99.2,051210,,,A*70
$GPRMC,231103.2,A,3335.220852,N,11743.945559,W,62.1,102.6,051210,,,A*43
$GPRMC,231107.2,A,3335.199567,N,11743.865781,W,62.9,109.8,051210,,,A*44
$GPRMC,231110.0,A,3335.176798,N,11743.811561,W,64.3,115.5,051210,,,A*40
$GPRMC,231113.2,A,3335.149282,N,11743.751098,W,64.7,119.6,051210,,,A*40
$GPRMC,231116.2,A,3335.117726,N,11743.697621,W,65.9,125.4,051210,,,A*48
$GPRMC,231119.2,A,3335.085011,N,11743.646048,W,64.8,130.2,051210,,,A*49
$GPRMC,231122.2,A,3335.050345,N,11743.596927,W,64.4,129.9,051210,,,A*4A
$GPRMC,231125.2,A,3335.014829,N,11743.547949,W,66.0,130.9,051210,,,A*46
$GPRMC,231128.2,A,3334.979217,N,11743.497793,W,65.8,130.2,051210,,,A*4A
$GPRMC,231131.2,A,3334.943413,N,11743.447938,W,66.0,130.6,051210,,,A*44
$GPRMC,231134.2,A,3334.908180,N,11743.397729,W,65.5,129.9,051210,,,A*44
$GPRMC,231137.2,A,3334.873813,N,11743.348574,W,64.9,130.4,051210,,,A*49
$GPRMC,231140.2,A,3334.838387,N,11743.298871,W,65.7,130.2,051210,,,A*4D
$GPRMC,231143.2,A,3334.803222,N,11743.248438,W,65.6,129.0,051210,,,A*4F
$GPRMC,231146.2,A,3334.770001,N,11743.196677,W,65.6,126.9,051210,,,A*4D
$GPRMC,231149.2,A,3334.737989,N,11743.143987,W,64.5,125.5,051210,,,A*4D
$GPRMC,231152.2,A,3334.707804,N,11743.091708,W,62.9,123.6,051210,,,A*48
$GPRMC,231155.2,A,3334.678848,N,11743.038595,W,64.5,122.1,051210,,,A*47
$GPRMC,231158.2,A,3334.650221,N,11742.982657,W,66.1,120.0,051210,,,A*44
$GPRMC,231201.2,A,3334.622990,N,11742.925373,W,65.9,119.2,051210,,,A*42
$GPRMC,231204.2,A,3334.597465,N,11742.867421,W,65.5,116.9,051210,,,A*42
$GPRMC,231207.2,A,3334.573219,N,11742.807805,W,67.9,115.5,051210,,,A*4B
$GPRMC,231210.2,A,3334.549913,N,11742.746422,W,67.5,113.6,051210,,,A*4F
$GPRMC,231213.2,A,3334.527473,N,11742.684143,W,68.6,113.4,051210,,,A*4C
$GPRMC,231217.2,A,3334.495606,N,11742.597824,W,70.1,113.7,051210,,,A*44
$GPRMC,231220.9,A,3334.467844,N,11742.520133,W,67.8,113.7,051210,,,A*42
$GPRMC,231223.2,A,3334.448800,N,11742.473406,W,67.0,117.8,051210,,,A*40
$GPRMC,231226.2,A,3334.421604,N,11742.416795,W,65.1,122.2,051210,,,A*45
$GPRMC,231229.2,A,3334.390840,N,11742.362538,W,66.4,125.8,051210,,,A*43
$GPRMC,231232.2,A,3334.357558,N,11742.310325,W,65.7,129.4,051210,,,A*49
$GPRMC,231235.2,A,3334.320783,N,11742.261240,W,65.8,133.2,051210,,,A*4D
$GPRMC,231238.2,A,3334.282020,N,11742.213931,W,66.8,134.2,051210,,,A*4B
$GPRMC,231241.2,A,3334.243068,N,11742.166089,W,67.1,134.1,051210,,,A*44
$GPRMC,231244.9,A,3334.194684,N,11742.106874,W,68.5,133.8,051210,,,A*4E
$GPRMC,231248.2,A,3334.151327,N,11742.052516,W,67.5,134.0,051210,,,A*45
$GPRMC,231251.2,A,3334.113261,N,11742.005454,W,66.6,134.3,051210,,,A*4C
$GPRMC,231254.9,A,3334.065624,N,11741.946306,W,67.2,133.4,051210,,,A*4F
$GPRMC,231258.2,A,3334.023385,N,11741.892999,W,65.7,133.5,051210,,,A*46
$GPRMC,231301.0,A,3333.988643,N,11741.851838,W,65.5,134.9,051210,,,A*45
$GPRMC,231304.9,A,3333.934542,N,11741.793393,W,65.3,138.7,051210,,,A*43
$GPRMC,231307.9,A,3333.890982,N,11741.753443,W,65.1,144.4,051210,,,A*43
$GPRMC,231310.9,A,3333.849589,N,11741.720897,W,61.1,146.6,051210,,,A*43
$GPRMC,231313.9,A,3333.804678,N,11741.688169,W,62.1,148.3,051210,,,A*47
$GPRMC,231316.2,A,3333.771627,N,11741.663853,W,62.3,148.5,051210,,,A*4F
$GPRMC,231319.2,A,3333.727034,N,11741.631750,W,63.2,148.3,051210,,,A*4A
$GPRMC,231323.2,A,3333.667720,N,11741.583679,W,65.9,142.8,051210,,,A*48
$GPRMC,231326.2,A,3333.628342,N,11741.541572,W,64.0,135.1,051210,,,A*41
$GPRMC,231329.2,A,3333.593796,N,11741.494817,W,61.8,129.0,051210,,,A*46
$GPRMC,231332.2,A,3333.563544,N,11741.445335,W,61.3,123.3,051210,,,A*4B
$GPRMC,231335.9,A,3333.532252,N,11741.380112,W,60.3,117.5,051210,,,A*4A
$GPRMC,231338.9,A,3333.513354,N,11741.326260,W,59.3,111.5,051210,,,A*45
$GPRMC,231341.9,A,3333.498975,N,11741.268183,W,62.4,104.7,051210,,,A*4C
$GPRMC,231344.9,A,3333.487809,N,11741.205403,W,65.3,101.2,051210,,,A*4B
$GPRMC,231347.9,A,3333.474724,N,11741.136670,W,68.3,101.6,051210,,,A*48
$GPRMC,231350.9,A,3333.465355,N,11741.072133,W,65.5,101.0,051210,,,A*40
$GPRMC,231353.9,A,3333.453947,N,11741.008406,W,64.6,101.3,051210,,,A*40
$GPRMC,231356.9,A,3333.444116,N,11740.947578,W,63.3,102.3,051210,,,A*45
$GPRMC,231359.9,A,3333.426907,N,11740.888749,W,63.7,108.7,051210,,,A*4E
$GPRMC,231402.9,A,3333.405597,N,11740.831978,W,62.3,117.8,051210,,,A*49
$GPRMC,231405.9,A,3333.377823,N,11740.779140,W,63.3,124.8,051210,,,A*4F
$GPRMC,231408.9,A,3333.344194,N,11740.734032,W,62.9,132.9,051210,,,A*47
$GPRMC,231411.9,A,3333.304345,N,11740.691261,W,63.5,140.6,051210,,,A*48
$GPRMC,231414.9,A,3333.260839,N,11740.654351,W,63.9,146.7,051210,,,A*4E
$GPRMC,231417.9,A,3333.213618,N,11740.623533,W,64.9,153.4,051210,,,A*46
$GPRMC,231420.9,A,3333.160690,N,11740.602615,W,66.1,163.1,051210,,,A*4D
$GPRMC,231423.9,A,3333.106089,N,11740.587781,W,65.4,168.1,051210,,,A*4F
$GPRMC,231426.9,A,3333.054870,N,11740.575963,W,63.5,169.6,051210,,,A*4C
$GPRMC,231429.9,A,3333.002707,N,11740.563298,W,63.2,168.2,051210,,,A*45
$GPRMC,231432.9,A,3332.953528,N,11740.547448,W,62.5,166.8,051210,,,A*43
$GPRMC,231435.9,A,3332.904859,N,11740.536638,W,59.8,169.2,051210,,,A*4E
$GPRMC,231438.9,A,3332.854269,N,11740.523275,W,60.5,168.3,051210,,,A*40
$GPRMC,231441.9,A,3332.806317,N,11740.512450,W,59.0,167.8,051210,,,A*49
$GPRMC,231444.9,A,3332.756886,N,11740.500266,W,60.8,167.9,051210,,,A*46
$GPRMC,231447.9,A,3332.706171,N,11740.484663,W,63.1,167.2,051210,,,A*4C
$GPRMC,231450.9,A,3332.654774,N,11740.470328,W,62.5,167.7,051210,,,A*4E
$GPRMC,231453.9,A,3332.604962,N,11740.461592,W,61.4,172.0,051210,,,A*47
$GPRMC,231456.9,A,3332.552363,N,11740.460590,W,63.9,181.1,051210,,,A*48
$GPRMC,231459.9,A,3332.498670,N,11740.465170,W,65.8,186.6,051210,,,A*4F
$GPRMC,231502.9,A,3332.441583,N,11740.472498,W,68.1,187.0,051210,,,A*4D
$GPRMC,231505.9,A,3332.389318,N,11740.482972,W,64.0,188.3,051210,,,A*4A
$GPRMC,231508.9,A,3332.339121,N,11740.492733,W,62.3,189.1,051210,,,A*48
$GPRMC,231511.9,A,3332.284185,N,11740.500800,W,64.4,187.0,051210,,,A*42
$GPRMC,231514.9,A,3332.233247,N,11740.507000,W,58.4,184.9,051210,,,A*4C
$GPRMC,231517.9,A,3332.186710,N,11740.509795,W,55.9,182.6,051210,,,A*49
$GPRMC,231520.9,A,3332.139788,N,11740.511206,W,57.2,180.8,051210,,,A*4B
$GPRMC,231523.9,A,3332.092489,N,11740.512604,W,56.2,180.2,051210,,,A*44
$GPRMC,231526.9,A,3332.046452,N,11740.510522,W,56.2,178.2,051210,,,A*4C
$GPRMC,231529.9,A,3331.999049,N,11740.505361,W,56.0,174.1,051210,,,A*4D
$GPRMC,231532.9,A,3331.950558,N,11740.497688,W,58.0,170.0,051210,,,A*44
$GPRMC,231535.9,A,3331.905621,N,11740.481845,W,57.3,161.3,051210,,,A*49
$GPRMC,231538.9,A,3331.857624,N,11740.457564,W,60.3,153.8,051210,,,A*4C
$GPRMC,231541.9,A,3331.817169,N,11740.425678,W,58.8,145.1,051210,,,A*4D
$GPRMC,231544.9,A,3331.778953,N,11740.388328,W,59.0,137.6,051210,,,A*44
$GPRMC,231547.9,A,3331.746929,N,11740.345782,W,56.6,130.6,051210,,,A*4C
$GPRMC,231550.9,A,3331.715833,N,11740.301743,W,58.1,129.8,051210,,,A*44
$GPRMC,231553.9,A,3331.685425,N,11740.255761,W,58.8,129.4,051210,,,A*41
$GPRMC,231556.9,A,3331.654224,N,11740.210292,W,57.8,130.8,051210,,,A*4C
$GPRMC,231559.9,A,3331.621705,N,11740.170537,W,55.2,136.2,051210,,,A*4E
$GPRMC,231603.2,A,3331.584043,N,11740.132867,W,53.6,141.9,051210,,,A*47
$GPRMC,231606.2,A,3331.546666,N,11740.102672,W,55.5,148.8,051210,,,A*49
$GPRMC,231609.2,A,3331.506425,N,11740.076500,W,54.2,153.4,051210,,,A*43
$GPRMC,231612.9,A,3331.455766,N,11740.050436,W,53.1,158.4,051210,,,A*4E
$GPRMC,231615.9,A,3331.415267,N,11740.033667,W,51.8,160.2,051210,,,A*4C
$GPRMC,231618.9,A,3331.372659,N,11740.015149,W,54.4,160.3,051210,,,A*49
$GPRMC,231621.9,A,3331.330865,N,11739.997540,W,53.1,160.8,051210,,,A*4D
$GPRMC,231624.9,A,3331.286831,N,11739.979892,W,55.6,160.4,051210,,,A*4A
$GPRMC,231627.9,A,3331.242651,N,11739.960326,W,56.4,160.5,051210,,,A*45
$GPRMC,231630.9,A,3331.199649,N,11739.941030,W,54.9,160.2,051210,,,A*40
$GPRMC,231633.9,A,3331.155720,N,11739.923481,W,53.6,160.6,051210,,,A*4B
$GPRMC,231636.9,A,3331.114134,N,11739.906066,W,53.7,159.9,051210,,,A*46
$GPRMC,231639.9,A,3331.071718,N,11739.887569,W,55.2,160.3,051210,,,A*42
$GPRMC,231642.9,A,3331.028998,N,11739.867876,W,55.1,159.7,051210,,,A*44
$GPRMC,231645.9,A,3330.987138,N,11739.851803,W,53.2,161.0,051210,,,A*42
$GPRMC,231648.9,A,3330.945219,N,11739.832144,W,54.4,159.7,051210,,,A*43
$GPRMC,231651.9,A,3330.900863,N,11739.813713,W,55.0,161.2,051210,,,A*41
$GPRMC,231654.9,A,3330.854635,N,11739.795210,W,57.9,160.7,051210,,,A*41
$GPRMC,231657.9,A,3330.810101,N,11739.774329,W,56.1,159.5,051210,,,A*47
$GPRMC,231700.9,A,3330.766987,N,11739.755993,W,55.1,160.6,051210,,,A*4E
$GPRMC,231703.9,A,3330.720928,N,11739.738011,W,56.4,161.4,051210,,,A*47
$GPRMC,231706.9,A,3330.677859,N,11739.719939,W,55.8,161.1,051210,,,A*4C
$GPRMC,231709.9,A,3330.634281,N,11739.701276,W,55.8,159.3,051210,,,A*4B
$GPRMC,231712.9,A,3330.590330,N,11739.682226,W,54.6,159.0,051210,,,A*44
$GPRMC,231715.9,A,3330.544097,N,11739.663278,W,57.4,159.8,051210,,,A*49
$GPRMC,231718.9,A,3330.501105,N,11739.644776,W,56.3,160.6,051210,,,A*43
$GPRMC,231721.9,A,3330.455130,N,11739.624160,W,58.5,160.5,051210,,,A*43
$GPRMC,231724.9,A,3330.409686,N,11739.605545,W,58.1,160.3,051210,,,A*47
$GPRMC,231727.9,A,3330.363008,N,11739.586480,W,59.3,160.6,051210,,,A*49
$GPRMC,231730.9,A,3330.316411,N,11739.566087,W,60.2,161.1,051210,,,A*41
$GPRMC,231733.9,A,3330.267225,N,11739.549216,W,60.1,164.6,051210,,,A*42
$GPRMC,231736.9,A,3330.219696,N,11739.534271,W,58.3,167.4,051210,,,A*41
$GPRMC,231739.9,A,3330.172495,N,11739.523778,W,58.3,170.4,051210,,,A*4D
$GPRMC,231743.2,A,3330.120750,N,11739.514669,W,57.9,174.4,051210,,,A*42
$GPRMC,231746.9,A,3330.061124,N,11739.512656,W,58.6,178.4,051210,,,A*4B
$GPRMC,231749.9,A,3330.012781,N,11739.514322,W,58.4,180.9,051210,,,A*41
$GPRMC,231752.9,A,3329.963053,N,11739.515653,W,60.4,181.3,051210,,,A*46
$GPRMC,231755.9,A,3329.912911,N,11739.520804,W,60.5,186.9,051210,,,A*4E
$GPRMC,231758.9,A,3329.863500,N,11739.531177,W,60.1,189.5,051210,,,A*42
$GPRMC,231801.9,A,3329.815864,N,11739.546699,W,57.9,194.3,051210,,,A*4E
$GPRMC,231804.9,A,3329.771557,N,11739.561405,W,55.0,197.2,051210,,,A*40
$GPRMC,231807.9,A,3329.727799,N,11739.579004,W,57.0,199.6,051210,,,A*44
$GPRMC,231810.9,A,3329.682734,N,11739.601492,W,58.4,203.1,051210,,,A*40
$GPRMC,231813.9,A,3329.638395,N,11739.627318,W,56.7,206.5,051210,,,A*40
$GPRMC,231816.9,A,3329.596037,N,11739.651761,W,56.0,208.4,051210,,,A*4A
$GPRMC,231819.9,A,3329.555256,N,11739.679542,W,55.7,210.5,051210,,,A*4A
$GPRMC,231822.9,A,3329.523263,N,11739.707537,W,50.3,213.2,051210,,,A*4A
$GPRMC,231825.9,A,3329.487519,N,11739.734613,W,52.2,213.0,051210,,,A*4C
$GPRMC,231828.9,A,3329.446101,N,11739.762826,W,56.2,211.4,051210,,,A*48
$GPRMC,231831.9,A,3329.406653,N,11739.792747,W,54.9,211.8,051210,,,A*46
$GPRMC,231834.9,A,3329.369633,N,11739.823039,W,54.4,212.7,051210,,,A*41
$GPRMC,231837.9,A,3329.329446,N,11739.849924,W,53.8,210.9,051210,,,A*48
$GPRMC,231840.9,A,3329.292372,N,11739.880794,W,54.8,213.3,051210,,,A*47
$GPRMC,231843.9,A,3329.252938,N,11739.908789,W,55.7,210.5,051210,,,A*4A
$GPRMC,231846.9,A,3329.212587,N,11739.938794,W,56.3,212.3,051210,,,A*4F
$GPRMC,231849.9,A,3329.173356,N,11739.968141,W,56.5,212.8,051210,,,A*48
$GPRMC,231852.9,A,3329.129424,N,11740.002326,W,60.4,212.9,051210,,,A*42
$GPRMC,231855.9,A,3329.088716,N,11740.036006,W,58.8,215.2,051210,,,A*40
$GPRMC,231858.9,A,3329.049393,N,11740.068881,W,57.6,215.3,051210,,,A*45
$GPRMC,231901.9,A,3329.012024,N,11740.101669,W,55.3,215.7,051210,,,A*4C
$GPRMC,231904.9,A,3328.975188,N,11740.135814,W,56.1,216.6,051210,,,A*47
$GPRMC,231907.9,A,3328.937783,N,11740.167188,W,56.2,215.8,051210,,,A*4A
$GPRMC,231910.9,A,3328.897637,N,11740.200601,W,57.9,215.0,051210,,,A*4F
$GPRMC,231913.9,A,3328.857516,N,11740.235356,W,60.5,215.8,051210,,,A*41
$GPRMC,231916.9,A,3328.815809,N,11740.270519,W,61.7,215.5,051210,,,A*43
$GPRMC,231919.9,A,3328.773937,N,11740.306924,W,60.9,216.5,051210,,,A*41
$GPRMC,231922.9,A,3328.735944,N,11740.342143,W,57.5,216.6,051210,,,A*4D
$GPRMC,231925.9,A,3328.696612,N,11740.375267,W,57.0,215.3,051210,,,A*4C
$GPRMC,231928.9,A,3328.655356,N,11740.407120,W,57.8,211.8,051210,,,A*4E
$GPRMC,231931.9,A,3328.613748,N,11740.432843,W,55.1,206.6,051210,,,A*46
$GPRMC,231934.2,A,3328.580403,N,11740.448376,W,57.1,201.7,051210,,,A*49
$GPRMC,231937.2,A,3328.536130,N,11740.466546,W,56.6,196.3,051210,,,A*44
$GPRMC,231940.2,A,3328.490146,N,11740.480239,W,55.6,191.6,051210,,,A*4E
$GPRMC,231943.2,A,3328.444220,N,11740.489818,W,55.7,189.0,051210,,,A*49
$GPRMC,231946.9,A,3328.388752,N,11740.493365,W,53.9,180.7,051210,,,A*4C
$GPRMC,231949.9,A,3328.341282,N,11740.491594,W,56.6,176.6,051210,,,A*46
$GPRMC,231952.9,A,3328.296031,N,11740.486485,W,53.6,171.9,051210,,,A*47
$GPRMC,231955.9,A,3328.251443,N,11740.473636,W,53.8,164.3,051210,,,A*4A
$GPRMC,231958.9,A,3328.210814,N,11740.455555,W,51.3,157.8,051210,,,A*4C
$GPRMC,232001.9,A,3328.172328,N,11740.430929,W,52.8,152.5,051210,,,A*4D
$GPRMC,232004.9,A,3328.134824,N,11740.396410,W,56.5,141.5,051210,,,A*4A
$GPRMC,232007.9,A,3328.102026,N,11740.358736,W,55.3,133.1,051210,,,A*47
$GPRMC,232010.9,A,3328.073259,N,11740.313780,W,56.7,125.3,051210,,,A*4C
$GPRMC,232013.9,A,3328.048194,N,11740.263862,W,58.8,118.7,051210,,,A*4B
$GPRMC,232016.9,A,3328.026125,N,11740.213754,W,57.9,117.4,051210,,,A*43
$GPRMC,232019.9,A,3328.003962,N,11740.162902,W,57.6,120.3,051210,,,A*44
$GPRMC,232022.9,A,3327.976916,N,11740.113449,W,57.7,124.4,051210,,,A*4D
$GPRMC,232025.9,A,3327.948768,N,11740.069272,W,54.4,127.9,051210,,,A*4C
$GPRMC,232028.9,A,3327.919733,N,11740.026755,W,54.9,129.1,051210,,,A*4B
$GPRMC,232031.9,A,3327.890254,N,11739.985881,W,54.2,129.6,051210,,,A*43
$GPRMC,232034.9,A,3327.861248,N,11739.945374,W,54.2,130.3,051210,,,A*45
$GPRMC,232037.9,A,3327.832262,N,11739.901869,W,55.7,129.2,051210,,,A*42
$GPRMC,232040.9,A,3327.802779,N,11739.858226,W,57.2,130.1,051210,,,A*4E
$GPRMC,232043.9,A,3327.772436,N,11739.811574,W,60.3,128.8,051210,,,A*45
$GPRMC,232046.9,A,3327.739746,N,11739.764861,W,62.0,128.7,051210,,,A*41
$GPRMC,232049.9,A,3327.705825,N,11739.717629,W,63.8,130.7,051210,,,A*4D
$GPRMC,232052.9,A,3327.673463,N,11739.666194,W,64.3,127.1,051210,,,A*43
$GPRMC,232055.9,A,3327.643367,N,11739.614782,W,61.8,121.9,051210,,,A*40
$GPRMC,232058.9,A,3327.621327,N,11739.562827,W,58.0,116.2,051210,,,A*42
$GPRMC,232101.9,A,3327.600176,N,11739.511000,W,58.1,116.3,051210,,,A*43
$GPRMC,232104.9,A,3327.579138,N,11739.460157,W,57.7,118.4,051210,,,A*45
$GPRMC,232107.9,A,3327.553700,N,11739.409086,W,59.5,121.8,051210,,,A*4B
$GPRMC,232110.9,A,3327.525215,N,11739.360757,W,57.2,126.7,051210,,,A*4F
$GPRMC,232113.9,A,3327.494006,N,11739.311166,W,61.3,126.5,051210,,,A*43
$GPRMC,232116.9,A,3327.464966,N,11739.260960,W,61.7,125.7,051210,,,A*4A
$GPRMC,232119.9,A,3327.434349,N,11739.210344,W,61.3,125.7,051210,,,A*48
$GPRMC,232122.9,A,3327.405214,N,11739.158200,W,63.2,123.5,051210,,,A*42
$GPRMC,232125.9,A,3327.378940,N,11739.106584,W,61.1,119.9,051210,,,A*46
$GPRMC,232128.9,A,3327.351023,N,11739.050513,W,63.3,118.9,051210,,,A*41
$GPRMC,232131.9,A,3327.327270,N,11738.998504,W,62.9,117.5,051210,,,A*4E
$GPRMC,232134.9,A,3327.304314,N,11738.940444,W,63.8,116.8,051210,,,A*45
$GPRMC,232137.9,A,3327.278771,N,11738.880463,W,65.4,116.2,051210,,,A*43
$GPRMC,232140.9,A,3327.254144,N,11738.826923,W,61.2,117.7,051210,,,A*4E
$GPRMC,232143.9,A,3327.231708,N,11738.773806,W,60.1,117.7,051210,,,A*4B
$GPRMC,232146.9,A,3327.208684,N,11738.719409,W,61.9,117.7,051210,,,A*47
$GPRMC,232149.9,A,3327.183170,N,11738.665067,W,61.8,120.1,051210,,,A*41
$GPRMC,232152.9,A,3327.156457,N,11738.613661,W,60.0,122.9,051210,,,A*41
$GPRMC,232155.9,A,3327.128379,N,11738.565671,W,59.5,124.6,051210,,,A*41
$GPRMC,232158.9,A,3327.098530,N,11738.514894,W,61.0,126.4,051210,,,A*40
$GPRMC,232201.9,A,3327.067972,N,11738.469889,W,58.5,129.5,051210,,,A*43
$GPRMC,232204.9,A,3327.036090,N,11738.425142,W,59.2,130.1,051210,,,A*4B
$GPRMC,232207.9,A,3327.002132,N,11738.380826,W,59.4,130.6,051210,,,A*44
$GPRMC,232210.9,A,3326.971202,N,11738.336583,W,57.9,129.1,051210,,,A*4D
$GPRMC,232213.9,A,3326.941885,N,11738.295929,W,54.6,130.3,051210,,,A*4A
$GPRMC,232216.9,A,3326.913707,N,11738.253909,W,55.5,127.6,051210,,,A*44
$GPRMC,232219.9,A,3326.885930,N,11738.203575,W,58.8,122.2,051210,,,A*4C
$GPRMC,232222.9,A,3326.857663,N,11738.155108,W,59.4,122.8,051210,,,A*4B
$GPRMC,232225.9,A,3326.830343,N,11738.101249,W,62.8,121.0,051210,,,A*42
$GPRMC,232228.9,A,3326.805526,N,11738.046266,W,64.2,119.4,051210,,,A*40
$GPRMC,232231.9,A,3326.777366,N,11737.989487,W,66.3,121.6,051210,,,A*46
$GPRMC,232234.9,A,3326.748278,N,11737.935258,W,65.6,123.4,051210,,,A*44
$GPRMC,232237.9,A,3326.715063,N,11737.885134,W,64.4,130.2,051210,,,A*43
$GPRMC,232240.9,A,3326.676585,N,11737.837281,W,65.2,134.2,051210,,,A*4D
$GPRMC,232243.9,A,3326.639953,N,11737.791412,W,63.3,134.8,051210,,,A*40
$GPRMC,232246.9,A,3326.601565,N,11737.748669,W,62.8,135.4,051210,,,A*4A
$GPRMC,232249.9,A,3326.564698,N,11737.703592,W,63.2,135.1,051210,,,A*42
$GPRMC,232252.9,A,3326.526309,N,11737.659051,W,63.7,134.9,051210,,,A*4B
$GPRMC,232255.9,A,3326.489341,N,11737.613982,W,65.1,134.1,051210,,,A*45
$GPRMC,232258.9,A,3326.453261,N,11737.563859,W,64.3,129.1,051210,,,A*40
$GPRMC,232301.9,A,3326.422796,N,11737.513048,W,63.2,124.9,051210,,,A*4A
$GPRMC,232304.9,A,3326.392083,N,11737.460384,W,64.1,124.5,051210,,,A*4E
$GPRMC,232307.9,A,3326.362772,N,11737.407606,W,64.4,123.6,051210,,,A*44
$GPRMC,232310.9,A,3326.334074,N,11737.351526,W,63.9,123.3,051210,,,A*4A
$GPRMC,232313.9,A,3326.305992,N,11737.298998,W,64.3,123.0,051210,,,A*49
$GPRMC,232316.9,A,3326.274508,N,11737.243061,W,65.9,124.0,051210,,,A*41
$GPRMC,232319.9,A,3326.242871,N,11737.191297,W,64.8,127.5,051210,,,A*49
$GPRMC,232322.9,A,3326.206473,N,11737.143814,W,63.3,134.4,051210,,,A*4E
$GPRMC,232325.9,A,3326.167557,N,11737.102136,W,63.8,139.7,051210,,,A*43
$GPRMC,232328.9,A,3326.123691,N,11737.065805,W,63.9,145.9,051210,,,A*4A
$GPRMC,232331.9,A,3326.076448,N,11737.032925,W,64.6,149.8,051210,,,A*41
$GPRMC,232334.9,A,3326.029010,N,11737.001104,W,65.1,150.4,051210,,,A*4E
$GPRMC,232337.9,A,3325.982197,N,11736.970513,W,64.4,150.2,051210,,,A*46
$GPRMC,232340.9,A,3325.938561,N,11736.938424,W,61.4,148.3,051210,,,A*4E
$GPRMC,232343.9,A,3325.896065,N,11736.904745,W,61.6,143.7,051210,,,A*4F
$GPRMC,232346.9,A,3325.856453,N,11736.865410,W,60.7,137.5,051210,,,A*43
$GPRMC,232349.9,A,3325.822745,N,11736.823467,W,59.8,133.6,051210,,,A*4B
$GPRMC,232352.9,A,3325.786293,N,11736.779789,W,61.1,135.9,051210,,,A*46
$GPRMC,232355.9,A,3325.747671,N,11736.739225,W,61.6,139.7,051210,,,A*46
$GPRMC,232358.9,A,3325.705631,N,11736.700086,W,63.5,143.8,051210,,,A*4B
$GPRMC,232401.9,A,3325.659534,N,11736.664613,W,65.9,147.8,051210,,,A*49
$GPRMC,232404.9,A,3325.612468,N,11736.632220,W,65.6,150.3,051210,,,A*4E
$GPRMC,232407.9,A,3325.564532,N,11736.599715,W,66.2,150.6,051210,,,A*42
$GPRMC,232410.9,A,3325.516032,N,11736.566697,W,67.0,150.4,051210,,,A*4E
$GPRMC,232413.9,A,3325.466670,N,11736.534770,W,65.7,152.5,051210,,,A*42
$GPRMC,232416.9,A,3325.416941,N,11736.506040,W,66.4,156.2,051210,,,A*4B
$GPRMC,232419.9,A,3325.364278,N,11736.481555,W,67.4,158.6,051210,,,A*43
$GPRMC,232422.9,A,3325.314244,N,11736.457373,W,63.7,156.3,051210,,,A*46
$GPRMC,232425.9,A,3325.267826,N,11736.426168,W,63.9,149.7,051210,,,A*40
$GPRMC,232429.2,A,3325.220616,N,11736.389172,W,62.6,145.6,051210,,,A*43
$GPRMC,232432.0,A,3325.182247,N,11736.357561,W,61.8,143.8,051210,,,A*40
$GPRMC,232435.9,A,3325.125943,N,11736.310436,W,60.7,147.5,051210,,,A*4B
$GPRMC,232438.9,A,3325.082037,N,11736.284035,W,60.4,155.2,051210,,,A*4C
$GPRMC,232441.9,A,3325.032201,N,11736.258090,W,65.6,156.8,051210,,,A*4E
$GPRMC,232444.9,A,3324.982543,N,11736.234025,W,64.7,157.2,051210,,,A*46
$GPRMC,232447.9,A,3324.932243,N,11736.209138,W,65.4,157.4,051210,,,A*4E
$GPRMC,232450.9,A,3324.882163,N,11736.184267,W,65.4,156.2,051210,,,A*4B
$GPRMC,232453.9,A,3324.831910,N,11736.159216,W,65.1,156.7,051210,,,A*4A
$GPRMC,232456.9,A,3324.784015,N,11736.135531,W,63.0,157.2,051210,,,A*49
$GPRMC,232459.9,A,3324.736908,N,11736.109541,W,61.7,156.0,051210,,,A*44
$GPRMC,232502.9,A,3324.687886,N,11736.086180,W,62.9,157.8,051210,,,A*4C
$GPRMC,232505.9,A,3324.640140,N,11736.062439,W,63.3,156.2,051210,,,A*4E
$GPRMC,232508.9,A,3324.590509,N,11736.036131,W,64.9,156.6,051210,,,A*41
$GPRMC,232511.9,A,3324.539910,N,11736.009122,W,66.4,156.9,051210,,,A*40
$GPRMC,232514.9,A,3324.487451,N,11735.982602,W,68.0,157.2,051210,,,A*45
$GPRMC,232517.9,A,3324.434087,N,11735.957901,W,67.9,158.8,051210,,,A*46
$GPRMC,232520.9,A,3324.382538,N,11735.932326,W,67.2,157.6,051210,,,A*4F
$GPRMC,232523.9,A,3324.329976,N,11735.907987,W,67.1,158.5,051210,,,A*43
$GPRMC,232526.9,A,3324.280392,N,11735.884324,W,62.5,160.5,051210,,,A*47
$GPRMC,232529.9,A,3324.229881,N,11735.857636,W,63.7,156.7,051210,,,A*4E
$GPRMC,232532.9,A,3324.183171,N,11735.833246,W,62.7,156.8,051210,,,A*4E
$GPRMC,232535.9,A,3324.133111,N,11735.809486,W,65.7,157.9,051210,,,A*40
$GPRMC,232538.9,A,3324.080741,N,11735.781635,W,68.0,156.8,051210,,,A*48
$GPRMC,232541.9,A,3324.029026,N,11735.756498,W,69.1,157.4,051210,,,A*41
$GPRMC,232544.9,A,3323.975758,N,11735.729078,W,68.8,157.1,051210,,,A*42
$GPRMC,232547.9,A,3323.923254,N,11735.702465,W,67.5,157.2,051210,,,A*4B
$GPRMC,232550.9,A,3323.873948,N,11735.676504,W,64.0,156.7,051210,,,A*49
$GPRMC,232553.9,A,3323.825895,N,11735.652667,W,62.8,156.0,051210,,,A*41
$GPRMC,232556.9,A,3323.779666,N,11735.627249,W,59.9,154.2,051210,,,A*43
$GPRMC,232559.9,A,3323.735115,N,11735.598019,W,61.2,151.4,051210,,,A*44
$GPRMC,232602.9,A,3323.688725,N,11735.568857,W,62.4,151.0,051210,,,A*47
$GPRMC,232605.9,A,3323.642618,N,11735.536623,W,64.0,150.7,051210,,,A*4B
$GPRMC,232608.9,A,3323.596135,N,11735.504143,W,64.6,148.8,051210,,,A*44
$GPRMC,232611.9,A,3323.550786,N,11735.469571,W,65.2,147.3,051210,,,A*46
$GPRMC,232614.9,A,3323.505634,N,11735.434019,W,63.4,146.8,051210,,,A*42
$GPRMC,232617.9,A,3323.462368,N,11735.399499,W,61.2,146.5,051210,,,A*48
$GPRMC,232620.9,A,3323.418241,N,11735.365657,W,64.6,146.7,051210,,,A*4B
$GPRMC,232623.9,A,3323.373261,N,11735.332102,W,63.1,147.5,051210,,,A*46
$GPRMC,232626.9,A,3323.332152,N,11735.297219,W,61.1,144.5,051210,,,A*43
$GPRMC,232629.9,A,3323.290690,N,11735.255399,W,63.9,139.8,051210,,,A*46
$GPRMC,232632.9,A,3323.251579,N,11735.211904,W,63.0,135.7,051210,,,A*41
$GPRMC,232635.9,A,3323.214042,N,11735.165205,W,64.6,130.9,051210,,,A*4A
$GPRMC,232638.9,A,3323.183148,N,11735.115532,W,63.4,125.4,051210,,,A*49
$GPRMC,232641.9,A,3323.154371,N,11735.061858,W,63.3,121.5,051210,,,A*44
$GPRMC,232644.9,A,3323.128952,N,11735.006041,W,62.6,117.3,051210,,,A*47
$GPRMC,232647.9,A,3323.106882,N,11734.951446,W,60.1,115.5,051210,,,A*4C
$GPRMC,232650.9,A,3323.086123,N,11734.896533,W,60.8,114.8,051210,,,A*4D
$GPRMC,232653.9,A,3323.065695,N,11734.840823,W,61.3,113.7,051210,,,A*4C
$GPRMC,232656.9,A,3323.043660,N,11734.784525,W,62.9,114.5,051210,,,A*47
$GPRMC,232659.0,A,3323.029856,N,11734.745891,W,62.4,113.7,051210,,,A*41
$GPRMC,232702.9,A,3322.997550,N,11734.672132,W,62.1,116.5,051210,,,A*46
$GPRMC,232705.9,A,3322.975975,N,11734.618006,W,60.5,114.8,051210,,,A*45
$GPRMC,232708.9,A,3322.955637,N,11734.561987,W,62.1,115.1,051210,,,A*40
$GPRMC,232711.9,A,3322.931854,N,11734.504409,W,63.7,115.7,051210,,,A*48
$GPRMC,232714.9,A,3322.910988,N,11734.447769,W,64.2,114.3,051210,,,A*4A
$GPRMC,232717.9,A,3322.889062,N,11734.388008,W,66.4,113.5,051210,,,A*44
$GPRMC,232720.9,A,3322.864296,N,11734.325578,W,68.0,115.1,051210,,,A*47
$GPRMC,232723.9,A,3322.841671,N,11734.266599,W,65.1,114.3,051210,,,A*48
$GPRMC,232726.9,A,3322.819139,N,11734.206130,W,66.2,114.4,051210,,,A*4D
$GPRMC,232729.9,A,3322.797013,N,11734.147157,W,65.4,114.8,051210,,,A*4C
$GPRMC,232732.9,A,3322.773496,N,11734.089367,W,65.3,115.0,051210,,,A*49
$GPRMC,232735.9,A,3322.749727,N,11734.030080,W,65.8,116.2,051210,,,A*4C
$GPRMC,232738.9,A,3322.725856,N,11733.971905,W,64.1,118.5,051210,,,A*4C
$GPRMC,232741.9,A,3322.697116,N,11733.918065,W,63.3,124.4,051210,,,A*4C
$GPRMC,232744.9,A,3322.663838,N,11733.869518,W,62.4,131.3,051210,,,A*4A
$GPRMC,232747.9,A,3322.627484,N,11733.825880,W,61.8,136.2,051210,,,A*4F
$GPRMC,232750.9,A,3322.589544,N,11733.783592,W,63.5,137.0,051210,,,A*42
$GPRMC,232753.9,A,3322.550540,N,11733.739128,W,64.2,136.0,051210,,,A*44
$GPRMC,232756.9,A,3322.514329,N,11733.692626,W,64.5,130.2,051210,,,A*42
$GPRMC,232759.9,A,3322.480781,N,11733.640566,W,66.7,125.2,051210,,,A*4B
$GPRMC,232802.9,A,3322.450513,N,11733.585293,W,66.7,123.0,051210,,,A*4D
$GPRMC,232805.9,A,3322.420859,N,11733.527720,W,67.8,122.3,051210,,,A*47
$GPRMC,232808.9,A,3322.390113,N,11733.472156,W,67.7,122.7,051210,,,A*4C
$GPRMC,232811.9,A,3322.359122,N,11733.415905,W,66.0,123.0,051210,,,A*4C
$GPRMC,232814.9,A,3322.327809,N,11733.360183,W,66.2,123.6,051210,,,A*47
$GPRMC,232817.9,A,3322.299034,N,11733.306989,W,65.0,123.1,051210,,,A*42
$GPRMC,232820.9,A,3322.268079,N,11733.249450,W,67.8,122.6,051210,,,A*4E
$GPRMC,232823.9,A,3322.235755,N,11733.191896,W,69.8,123.6,051210,,,A*43
$GPRMC,232826.9,A,3322.204239,N,11733.134805,W,69.9,122.7,051210,,,A*4F
$GPRMC,232829.9,A,3322.172078,N,11733.073712,W,71.0,123.1,051210,,,A*49
$GPRMC,232833.2,A,3322.136466,N,11733.008618,W,72.1,123.2,051210,,,A*44
$GPRMC,232836.2,A,3322.103466,N,11732.947325,W,74.0,123.2,051210,,,A*48
$GPRMC,232839.2,A,3322.069680,N,11732.885165,W,73.6,123.4,051210,,,A*4E
$GPRMC,232842.9,A,3322.027737,N,11732.813719,W,70.3,126.3,051210,,,A*48
$GPRMC,232845.9,A,3321.991831,N,11732.758634,W,69.3,128.8,051210,,,A*42
$GPRMC,232848.9,A,3321.954191,N,11732.705994,W,69.8,129.5,051210,,,A*4F
$GPRMC,232851.9,A,3321.918363,N,11732.653953,W,68.3,129.0,051210,,,A*46
$GPRMC,232854.9,A,3321.880888,N,11732.600485,W,68.7,129.5,051210,,,A*4C
$GPRMC,232857.9,A,3321.844774,N,11732.546734,W,68.8,128.8,051210,,,A*40
$GPRMC,232900.9,A,3321.810204,N,11732.492867,W,68.5,128.0,051210,,,A*44
$GPRMC,232903.9,A,3321.772759,N,11732.440297,W,67.8,132.0,051210,,,A*42
$GPRMC,232906.9,A,3321.737680,N,11732.388366,W,67.5,128.8,051210,,,A*41
$GPRMC,232909.9,A,3321.700659,N,11732.336739,W,68.3,129.9,051210,,,A*4C
$GPRMC,232912.9,A,3321.664872,N,11732.284206,W,68.3,128.5,051210,,,A*4E
$GPRMC,232915.9,A,3321.628819,N,11732.231990,W,66.6,129.3,051210,,,A*4A
$GPRMC,232918.9,A,3321.595330,N,11732.180984,W,65.1,129.0,051210,,,A*49
$GPRMC,232921.9,A,3321.560218,N,11732.130821,W,65.3,129.5,051210,,,A*40
$GPRMC,232924.9,A,3321.525437,N,11732.080727,W,66.6,129.5,051210,,,A*4A
$GPRMC,232927.9,A,3321.489908,N,11732.026290,W,68.9,128.4,051210,,,A*4B
$GPRMC,232930.9,A,3321.453695,N,11731.974950,W,66.5,129.6,051210,,,A*4A
$GPRMC,232933.9,A,3321.418903,N,11731.926967,W,63.7,129.6,051210,,,A*42
$GPRMC,232936.9,A,3321.386287,N,11731.879564,W,60.3,129.7,051210,,,A*42
$GPRMC,232939.9,A,3321.354283,N,11731.833611,W,59.8,129.9,051210,,,A*46
$GPRMC,232942.9,A,3321.321910,N,11731.787111,W,59.9,129.7,051210,,,A*41
$GPRMC,232945.9,A,3321.291416,N,11731.741662,W,59.6,129.2,051210,,,A*44
$GPRMC,232948.9,A,3321.258810,N,11731.695980,W,59.9,129.7,051210,,,A*47
$GPRMC,232951.9,A,3321.228991,N,11731.650422,W,57.9,128.8,051210,,,A*4C
$GPRMC,232954.9,A,3321.199202,N,11731.605397,W,58.0,129.1,051210,,,A*46
$GPRMC,232957.9,A,3321.168994,N,11731.559854,W,58.2,128.5,051210,,,A*46
$GPRMC,233000.9,A,3321.137401,N,11731.516168,W,58.4,129.4,051210,,,A*4C
$GPRMC,233003.9,A,3321.106188,N,11731.472993,W,56.4,130.5,051210,,,A*41
$GPRMC,233006.9,A,3321.076688,N,11731.427868,W,57.1,129.1,051210,,,A*48
$GPRMC,233009.9,A,3321.045729,N,11731.383561,W,57.9,129.5,051210,,,A*4C
$GPRMC,233012.9,A,3321.016974,N,11731.339848,W,56.5,128.9,051210,,,A*41
$GPRMC,233015.9,A,3320.986210,N,11731.297467,W,56.8,129.4,051210,,,A*4B
$GPRMC,233018.9,A,3320.956107,N,11731.250819,W,59.9,128.4,051210,,,A*4F
$GPRMC,233021.9,A,3320.925604,N,11731.203421,W,61.0,128.2,051210,,,A*40
$GPRMC,233024.9,A,3320.893854,N,11731.156849,W,60.4,129.1,051210,,,A*44
$GPRMC,233027.9,A,3320.861490,N,11731.110459,W,61.9,129.2,051210,,,A*4E
$GPRMC,233030.9,A,3320.828384,N,11731.062794,W,62.0,130.3,051210,,,A*42
$GPRMC,233033.9,A,3320.794747,N,11731.016653,W,61.8,131.5,051210,,,A*47
$GPRMC,233036.9,A,3320.759202,N,11730.968586,W,63.6,131.6,051210,,,A*42
$GPRMC,233039.9,A,3320.724590,N,11730.921801,W,63.5,131.3,051210,,,A*42
$GPRMC,233042.9,A,3320.690671,N,11730.874506,W,62.8,130.8,051210,,,A*41
$GPRMC,233045.9,A,3320.654963,N,11730.828911,W,62.5,131.1,051210,,,A*44
$GPRMC,233048.9,A,3320.622992,N,11730.780707,W,62.2,130.5,051210,,,A*40
$GPRMC,233051.9,A,3320.588749,N,11730.733435,W,62.8,130.8,051210,,,A*4E
$GPRMC,233054.9,A,3320.554838,N,11730.687298,W,60.9,131.4,051210,,,A*42
$GPRMC,233057.9,A,3320.520134,N,11730.641064,W,62.3,130.8,051210,,,A*49
$GPRMC,233100.9,A,3320.485767,N,11730.593633,W,63.2,130.8,051210,,,A*4C
$GPRMC,233103.9,A,3320.451768,N,11730.544958,W,64.0,130.1,051210,,,A*4D
$GPRMC,233106.9,A,3320.415733,N,11730.498054,W,64.5,130.7,051210,,,A*40
$GPRMC,233109.9,A,3320.379329,N,11730.447329,W,66.2,130.5,051210,,,A*41
$GPRMC,233112.9,A,3320.341824,N,11730.397640,W,67.1,131.8,051210,,,A*48
$GPRMC,233115.9,A,3320.305682,N,11730.346320,W,67.5,131.2,051210,,,A*4C
$GPRMC,233118.9,A,3320.269626,N,11730.296033,W,66.1,130.9,051210,,,A*46
$GPRMC,233121.9,A,3320.232228,N,11730.245941,W,67.0,131.2,051210,,,A*40
$GPRMC,233124.9,A,3320.193941,N,11730.193006,W,69.9,130.7,051210,,,A*48
$GPRMC,233127.9,A,3320.156127,N,11730.140339,W,68.5,131.1,051210,,,A*41
$GPRMC,233130.9,A,3320.118558,N,11730.089798,W,69.0,131.3,051210,,,A*4C
$GPRMC,233133.9,A,3320.082230,N,11730.039250,W,67.2,131.0,051210,,,A*41
$GPRMC,233136.9,A,3320.044250,N,11729.988845,W,67.7,131.1,051210,,,A*49
$GPRMC,233139.9,A,3320.007740,N,11729.936629,W,68.9,130.4,051210,,,A*41
$GPRMC,233142.9,A,3319.969657,N,11729.885196,W,67.6,131.0,051210,,,A*4E
$GPRMC,233145.9,A,3319.933402,N,11729.835126,W,67.1,131.5,051210,,,A*46
$GPRMC,233148.9,A,3319.898339,N,11729.786246,W,65.1,130.9,051210,,,A*49
$GPRMC,233151.9,A,3319.859866,N,11729.736218,W,67.4,131.2,051210,,,A*40
$GPRMC,233154.9,A,3319.822855,N,11729.686582,W,66.8,130.9,051210,,,A*40
$GPRMC,233157.9,A,3319.786338,N,11729.637261,W,65.7,131.2,051210,,,A*44
$GPRMC,233200.9,A,3319.751607,N,11729.588120,W,65.7,130.5,051210,,,A*41
$GPRMC,233203.2,A,3319.722571,N,11729.548736,W,67.9,132.0,051210,,,A*49
$GPRMC,233206.2,A,3319.686521,N,11729.499145,W,66.8,130.9,051210,,,A*42
$GPRMC,233209.2,A,3319.649334,N,11729.448996,W,67.4,130.8,051210,,,A*4A
$GPRMC,233212.2,A,3319.612667,N,11729.399068,W,65.7,130.9,051210,,,A*4E
$GPRMC,233215.2,A,3319.576828,N,11729.349609,W,66.5,130.8,051210,,,A*41
$GPRMC,233218.9,A,3319.531837,N,11729.286124,W,68.7,129.7,051210,,,A*4B
$GPRMC,233221.9,A,3319.493084,N,11729.234288,W,70.5,131.2,051210,,,A*43
$GPRMC,233224.9,A,3319.453799,N,11729.179977,W,70.9,131.0,051210,,,A*4E
$GPRMC,233227.9,A,3319.414761,N,11729.128127,W,67.6,132.1,051210,,,A*4B
$GPRMC,233230.9,A,3319.379070,N,11729.077045,W,68.2,128.5,051210,,,A*4C
$GPRMC,233233.9,A,3319.336667,N,11729.037211,W,65.0,142.0,051210,,,A*45
$GPRMC,233236.9,A,3319.291152,N,11729.004280,W,63.3,151.0,051210,,,A*42
$GPRMC,233239.9,A,3319.241353,N,11728.981304,W,63.4,160.7,051210,,,A*49
$GPRMC,233242.9,A,3319.189015,N,11728.962666,W,63.9,166.0,051210,,,A*43
$GPRMC,233245.9,A,3319.136260,N,11728.955751,W,63.1,174.6,051210,,,A*4C
$GPRMC,233248.9,A,3319.083085,N,11728.951111,W,64.7,175.5,051210,,,A*42
$GPRMC,233251.9,A,3319.029219,N,11728.944349,W,65.0,174.6,051210,,,A*42
$GPRMC,233254.9,A,3318.974441,N,11728.939145,W,66.5,176.2,051210,,,A*48
$GPRMC,233257.9,A,3318.920945,N,11728.933716,W,64.2,173.3,051210,,,A*48
$GPRMC,233300.9,A,3318.866381,N,11728.922311,W,65.7,167.7,051210,,,A*4C
$GPRMC,233303.9,A,3318.815633,N,11728.902098,W,65.6,159.8,051210,,,A*44
$GPRMC,233306.9,A,3318.763799,N,11728.874083,W,66.1,152.8,051210,,,A*4B
$GPRMC,233309.9,A,3318.716272,N,11728.837213,W,67.4,144.6,051210,,,A*47
$GPRMC,233312.9,A,3318.675026,N,11728.794166,W,66.6,136.9,051210,,,A*44
$GPRMC,233315.9,A,3318.634843,N,11728.746077,W,67.5,134.6,051210,,,A*4C
$GPRMC,233318.9,A,3318.596459,N,11728.698574,W,65.7,134.2,051210,,,A*4D
$GPRMC,233321.9,A,3318.558737,N,11728.652890,W,64.0,134.7,051210,,,A*4C
$GPRMC,233324.9,A,3318.521268,N,11728.607512,W,64.2,135.1,051210,,,A*4A
$GPRMC,233327.9,A,3318.484709,N,11728.562205,W,64.5,134.1,051210,,,A*42
$GPRMC,233330.9,A,3318.445553,N,11728.515724,W,66.2,135.2,051210,,,A*45
$GPRMC,233333.9,A,3318.407576,N,11728.469513,W,66.1,134.0,051210,,,A*4B
$GPRMC,233336.9,A,3318.368926,N,11728.420770,W,66.2,133.5,051210,,,A*42
$GPRMC,233339.9,A,3318.328814,N,11728.372606,W,67.1,134.4,051210,,,A*4D
$GPRMC,233342.9,A,3318.289188,N,11728.325587,W,66.7,134.5,051210,,,A*49
$GPRMC,233345.9,A,3318.250817,N,11728.278783,W,65.9,134.6,051210,,,A*44
$GPRMC,233348.9,A,3318.213902,N,11728.232931,W,64.9,134.7,051210,,,A*42
$GPRMC,233351.9,A,3318.174461,N,11728.186372,W,67.3,134.8,051210,,,A*47
$GPRMC,233354.9,A,3318.134108,N,11728.138564,W,68.1,134.8,051210,,,A*45
$GPRMC,233357.9,A,3318.094954,N,11728.089761,W,67.1,133.6,051210,,,A*46
$GPRMC,233400.9,A,3318.056142,N,11728.043715,W,66.1,134.8,051210,,,A*4F
$GPRMC,233403.9,A,3318.018037,N,11727.997605,W,65.1,134.3,051210,,,A*42
$GPRMC,233406.9,A,3317.980015,N,11727.951138,W,64.8,134.6,051210,,,A*4E
$GPRMC,233409.9,A,3317.942500,N,11727.904752,W,65.9,134.3,051210,,,A*41
$GPRMC,233412.9,A,3317.901456,N,11727.856614,W,68.9,135.0,051210,,,A*44
$GPRMC,233415.9,A,3317.861166,N,11727.807446,W,68.9,134.6,051210,,,A*44
$GPRMC,233418.9,A,3317.821641,N,11727.758459,W,68.8,133.7,051210,,,A*43
$GPRMC,233421.9,A,3317.782254,N,11727.710511,W,67.7,134.4,051210,,,A*4A
$GPRMC,233424.9,A,3317.742271,N,11727.663104,W,67.1,134.8,051210,,,A*4B
$GPRMC,233427.9,A,3317.703363,N,11727.614403,W,66.5,133.7,051210,,,A*40
$GPRMC,233430.9,A,3317.665981,N,11727.569433,W,63.3,136.1,051210,,,A*4B
$GPRMC,233433.9,A,3317.625281,N,11727.529681,W,63.8,142.5,051210,,,A*44
$GPRMC,233436.9,A,3317.578630,N,11727.492214,W,67.2,146.7,051210,,,A*45
$GPRMC,233439.9,A,3317.530180,N,11727.456328,W,67.3,147.6,051210,,,A*4D
$GPRMC,233442.9,A,3317.483965,N,11727.420862,W,66.1,147.6,051210,,,A*4C
$GPRMC,233445.9,A,3317.437564,N,11727.384979,W,65.6,146.3,051210,,,A*4B
$GPRMC,233448.9,A,3317.391145,N,11727.350752,W,64.6,147.6,051210,,,A*41
$GPRMC,233451.9,A,3317.345941,N,11727.315707,W,63.6,147.2,051210,,,A*4E
$GPRMC,233454.9,A,3317.302474,N,11727.282051,W,61.3,147.5,051210,,,A*48
$GPRMC,233457.9,A,3317.260731,N,11727.250691,W,61.4,147.6,051210,,,A*4D
$GPRMC,233500.9,A,3317.217664,N,11727.217994,W,62.4,147.3,051210,,,A*40
$GPRMC,233503.9,A,3317.171718,N,11727.184134,W,63.2,147.8,051210,,,A*4D
$GPRMC,233506.9,A,3317.127074,N,11727.148981,W,62.5,146.9,051210,,,A*46
$GPRMC,233509.9,A,3317.082367,N,11727.115444,W,63.4,147.1,051210,,,A*43
$GPRMC,233512.9,A,3317.037573,N,11727.082612,W,64.6,147.7,051210,,,A*49
$GPRMC,233515.9,A,3316.991393,N,11727.046474,W,66.6,147.6,051210,,,A*4B
$GPRMC,233518.9,A,3316.944806,N,11727.011988,W,65.2,147.9,051210,,,A*4D
$GPRMC,233521.9,A,3316.898378,N,11726.977229,W,67.2,147.3,051210,,,A*45
$GPRMC,233524.9,A,3316.848812,N,11726.940183,W,68.6,148.0,051210,,,A*4A
$GPRMC,233527.9,A,3316.801750,N,11726.903331,W,68.1,147.2,051210,,,A*4B
$GPRMC,233530.9,A,3316.755838,N,11726.869077,W,66.2,147.6,051210,,,A*47
$GPRMC,233533.9,A,3316.707181,N,11726.832176,W,68.8,148.1,051210,,,A*4A
$GPRMC,233536.9,A,3316.659824,N,11726.797283,W,66.6,148.2,051210,,,A*49
$GPRMC,233539.9,A,3316.612796,N,11726.761204,W,66.8,147.7,051210,,,A*4D
$GPRMC,233542.9,A,3316.566242,N,11726.725161,W,66.6,147.2,051210,,,A*46
$GPRMC,233545.9,A,3316.518740,N,11726.689200,W,67.1,147.9,051210,,,A*41
$GPRMC,233548.9,A,3316.470046,N,11726.653120,W,67.0,147.8,051210,,,A*44
$GPRMC,233551.9,A,3316.425575,N,11726.617733,W,63.8,147.4,051210,,,A*4D
$GPRMC,233554.9,A,3316.382042,N,11726.584091,W,63.6,145.1,051210,,,A*4C
$GPRMC,233557.9,A,3316.340154,N,11726.541379,W,66.3,138.3,051210,,,A*43
$GPRMC,233600.9,A,3316.301387,N,11726.492759,W,67.0,132.5,051210,,,A*4C
$GPRMC,233603.9,A,3316.263887,N,11726.444321,W,67.3,131.5,051210,,,A*41
$GPRMC,233606.9,A,3316.226464,N,11726.395600,W,65.9,132.3,051210,,,A*44
$GPRMC,233609.9,A,3316.192240,N,11726.347446,W,63.7,131.5,051210,,,A*45
$GPRMC,233612.9,A,3316.156966,N,11726.299465,W,64.8,130.9,051210,,,A*4E
$GPRMC,233615.9,A,3316.122642,N,11726.250999,W,64.8,129.9,051210,,,A*40
$GPRMC,233618.9,A,3316.086006,N,11726.201369,W,66.4,131.1,051210,,,A*4A
$GPRMC,233621.9,A,3316.052221,N,11726.151639,W,63.6,130.7,051210,,,A*48
$GPRMC,233624.9,A,3316.016664,N,11726.104482,W,65.0,131.2,051210,,,A*4E
$GPRMC,233627.9,A,3315.978596,N,11726.054640,W,68.1,131.5,051210,,,A*42
$GPRMC,233630.9,A,3315.941363,N,11726.004132,W,66.6,131.0,051210,,,A*49
$GPRMC,233633.9,A,3315.905636,N,11725.954314,W,65.9,131.2,051210,,,A*48
$GPRMC,233636.9,A,3315.868058,N,11725.908991,W,63.5,136.5,051210,,,A*4D
$GPRMC,233639.9,A,3315.823614,N,11725.869504,W,64.9,144.7,051210,,,A*49
$GPRMC,233642.9,A,3315.778642,N,11725.834757,W,64.6,146.2,051210,,,A*43
$GPRMC,233645.9,A,3315.733054,N,11725.797023,W,66.2,146.3,051210,,,A*4F
$GPRMC,233648.9,A,3315.686073,N,11725.759593,W,69.7,145.2,051210,,,A*4C
$GPRMC,233651.9,A,3315.637824,N,11725.720806,W,69.5,145.6,051210,,,A*4D
$GPRMC,233654.9,A,3315.589019,N,11725.682340,W,67.3,147.4,051210,,,A*40
$GPRMC,233657.9,A,3315.541651,N,11725.644961,W,67.8,146.2,051210,,,A*42
$GPRMC,233700.9,A,3315.495330,N,11725.607498,W,67.8,146.1,051210,,,A*44
$GPRMC,233703.9,A,3315.448002,N,11725.569424,W,68.7,146.5,051210,,,A*4D
$GPRMC,233706.9,A,3315.398829,N,11725.531003,W,70.4,146.3,051210,,,A*43
$GPRMC,233709.9,A,3315.350478,N,11725.492513,W,69.3,146.2,051210,,,A*42
$GPRMC,233712.9,A,3315.302665,N,11725.453801,W,68.8,145.9,051210,,,A*40
$GPRMC,233715.9,A,3315.254670,N,11725.417585,W,68.5,146.8,051210,,,A*4F
$GPRMC,233718.9,A,3315.207685,N,11725.379258,W,68.8,145.8,051210,,,A*48
$GPRMC,233721.9,A,3315.160184,N,11725.340645,W,68.9,146.2,051210,,,A*4C
$GPRMC,233724.9,A,3315.112565,N,11725.301792,W,68.8,145.9,051210,,,A*40
$GPRMC,233727.9,A,3315.064585,N,11725.265394,W,68.9,146.7,051210,,,A*40
$GPRMC,233730.9,A,3315.017132,N,11725.225061,W,69.7,145.8,051210,,,A*44
$GPRMC,233733.9,A,3314.969499,N,11725.187571,W,68.7,146.0,051210,,,A*47
$GPRMC,233736.9,A,3314.920864,N,11725.149859,W,68.3,146.4,051210,,,A*44
$GPRMC,233739.9,A,3314.874225,N,11725.115913,W,66.7,149.4,051210,,,A*47
$GPRMC,233742.9,A,3314.826131,N,11725.085832,W,65.7,155.6,051210,,,A*4C
$GPRMC,233745.9,A,3314.770495,N,11725.062848,W,70.1,160.1,051210,,,A*4B
$GPRMC,233748.9,A,3314.715594,N,11725.038617,W,69.3,159.5,051210,,,A*4A
$GPRMC,233751.9,A,3314.661381,N,11725.013050,W,69.8,159.2,051210,,,A*42
$GPRMC,233754.9,A,3314.606579,N,11724.989125,W,69.3,158.3,051210,,,A*44
$GPRMC,233757.9,A,3314.555866,N,11724.958779,W,68.2,151.6,051210,,,A*4E
$GPRMC,233800.9,A,3314.509132,N,11724.921662,W,67.8,144.3,051210,,,A*43
$GPRMC,233803.9,A,3314.467599,N,11724.879226,W,65.0,137.7,051210,,,A*4E
$GPRMC,233806.9,A,3314.431963,N,11724.832041,W,62.7,130.7,051210,,,A*4A
$GPRMC,233809.9,A,3314.400941,N,11724.785372,W,58.8,126.7,051210,,,A*46
$GPRMC,233812.9,A,3314.374262,N,11724.739400,W,55.4,124.9,051210,,,A*4A
$GPRMC,233815.9,A,3314.348221,N,11724.693915,W,55.8,124.3,051210,,,A*4B
$GPRMC,233818.9,A,3314.321449,N,11724.651089,W,54.5,126.9,051210,,,A*47
$GPRMC,233821.9,A,3314.293091,N,11724.605740,W,56.7,126.5,051210,,,A*4B
$GPRMC,233824.9,A,3314.262365,N,11724.562586,W,58.1,131.2,051210,,,A*4B
$GPRMC,233827.9,A,3314.229334,N,11724.519640,W,58.1,134.5,051210,,,A*44
$GPRMC,233830.9,A,3314.194408,N,11724.479578,W,59.0,137.2,051210,,,A*44
$GPRMC,233833.9,A,3314.159455,N,11724.440969,W,57.7,136.5,051210,,,A*47
$GPRMC,233836.9,A,3314.125067,N,11724.399410,W,59.2,136.3,051210,,,A*41
$GPRMC,233839.9,A,3314.088342,N,11724.361178,W,57.3,137.2,051210,,,A*4F
$GPRMC,233842.9,A,3314.054642,N,11724.322394,W,57.7,136.6,051210,,,A*41
$GPRMC,233845.9,A,3314.017506,N,11724.281359,W,59.7,136.9,051210,,,A*4A
$GPRMC,233848.9,A,3313.981702,N,11724.240753,W,59.0,136.6,051210,,,A*4B
$GPRMC,233851.9,A,3313.945135,N,11724.199848,W,60.9,136.6,051210,,,A*48
$GPRMC,233854.9,A,3313.907617,N,11724.159717,W,60.0,138.0,051210,,,A*44
$GPRMC,233857.9,A,3313.871125,N,11724.116685,W,62.0,136.4,051210,,,A*48
$GPRMC,233900.9,A,3313.834335,N,11724.074320,W,62.3,136.7,051210,,,A*46
$GPRMC,233903.9,A,3313.795263,N,11724.032888,W,62.2,137.7,051210,,,A*48
$GPRMC,233906.9,A,3313.757355,N,11723.991727,W,61.5,137.6,051210,,,A*4F
$GPRMC,233909.9,A,3313.719931,N,11723.950175,W,62.6,136.5,051210,,,A*4C
$GPRMC,233912.9,A,3313.681437,N,11723.906809,W,63.4,136.7,051210,,,A*4D
$GPRMC,233915.9,A,3313.641787,N,11723.864101,W,63.7,137.6,051210,,,A*49
$GPRMC,233918.9,A,3313.605138,N,11723.822738,W,60.8,136.8,051210,,,A*4B
$GPRMC,233921.9,A,3313.566641,N,11723.779763,W,60.8,136.8,051210,,,A*41
$GPRMC,233924.9,A,3313.531287,N,11723.739314,W,58.2,136.8,051210,,,A*49
$GPRMC,233927.9,A,3313.495467,N,11723.699359,W,58.4,137.2,051210,,,A*42
$GPRMC,233930.9,A,3313.459246,N,11723.661841,W,57.4,137.9,051210,,,A*40
$GPRMC,233933.9,A,3313.423298,N,11723.622452,W,58.0,137.0,051210,,,A*46
$GPRMC,233936.9,A,3313.385489,N,11723.583894,W,59.4,142.2,051210,,,A*45
$GPRMC,233939.9,A,3313.344795,N,11723.552794,W,58.6,149.6,051210,,,A*46
$GPRMC,233942.9,A,3313.298528,N,11723.527900,W,60.0,156.3,051210,,,A*49
$GPRMC,233945.9,A,3313.249559,N,11723.509711,W,62.2,163.8,051210,,,A*4B
$GPRMC,233948.9,A,3313.196890,N,11723.492771,W,64.7,165.9,051210,,,A*4E
$GPRMC,233951.9,A,3313.144131,N,11723.478120,W,64.5,166.4,051210,,,A*41
$GPRMC,233954.9,A,3313.092366,N,11723.462182,W,65.0,165.2,051210,,,A*4C
$GPRMC,233957.9,A,3313.042034,N,11723.447786,W,63.6,166.3,051210,,,A*41
$GPRMC,234000.9,A,3312.988582,N,11723.431092,W,66.1,165.2,051210,,,A*48
$GPRMC,234003.9,A,3312.934054,N,11723.414732,W,65.7,164.7,051210,,,A*49
$GPRMC,234006.9,A,3312.883875,N,11723.398255,W,62.2,163.4,051210,,,A*4B
$GPRMC,234009.9,A,3312.834084,N,11723.375243,W,63.4,155.7,051210,,,A*4B
$GPRMC,234012.9,A,3312.787920,N,11723.346402,W,63.4,152.1,051210,,,A*43
$GPRMC,234015.9,A,3312.743592,N,11723.319064,W,61.9,152.1,051210,,,A*48
$GPRMC,234018.9,A,3312.696289,N,11723.288576,W,63.0,152.0,051210,,,A*44
$GPRMC,234021.9,A,3312.650856,N,11723.259960,W,62.0,152.2,051210,,,A*48
$GPRMC,234024.9,A,3312.601883,N,11723.229872,W,65.0,151.9,051210,,,A*4B
$GPRMC,234027.9,A,3312.557264,N,11723.199417,W,61.9,151.1,051210,,,A*49
$GPRMC,234030.9,A,3312.510436,N,11723.172022,W,62.0,152.7,051210,,,A*45
$GPRMC,234033.9,A,3312.463709,N,11723.142723,W,63.0,152.0,051210,,,A*4F
$GPRMC,234036.9,A,3312.416759,N,11723.112778,W,62.9,152.5,051210,,,A*4B
$GPRMC,234039.9,A,3312.372497,N,11723.083012,W,61.7,149.0,051210,,,A*40
$GPRMC,234042.9,A,3312.329406,N,11723.047638,W,63.0,143.5,051210,,,A*46
$GPRMC,234045.9,A,3312.290424,N,11723.006034,W,63.8,136.8,051210,,,A*4A
$GPRMC,234048.9,A,3312.252604,N,11722.956339,W,66.4,131.0,051210,,,A*4C
$GPRMC,234051.9,A,3312.221672,N,11722.906697,W,62.7,124.4,051210,,,A*42
$GPRMC,234054.9,A,3312.194227,N,11722.853236,W,63.0,120.3,051210,,,A*45
$GPRMC,234057.9,A,3312.175319,N,11722.798490,W,59.5,113.0,051210,,,A*48
$GPRMC,234100.9,A,3312.158512,N,11722.742481,W,58.6,111.8,051210,,,A*46
$GPRMC,234103.2,A,3312.145419,N,11722.701248,W,58.3,110.7,051210,,,A*47
$GPRMC,234106.2,A,3312.125519,N,11722.648131,W,60.4,112.4,051210,,,A*49
$GPRMC,234109.2,A,3312.105461,N,11722.592964,W,61.0,112.1,051210,,,A*46
$GPRMC,234112.9,A,3312.080660,N,11722.522942,W,62.7,113.6,051210,,,A*45
$GPRMC,234115.9,A,3312.061399,N,11722.465965,W,60.6,112.5,051210,,,A*48
$GPRMC,234118.9,A,3312.043603,N,11722.409872,W,60.3,112.1,051210,,,A*4F
$GPRMC,234121.9,A,3312.026634,N,11722.352749,W,60.3,111.1,051210,,,A*4F
$GPRMC,234124.9,A,3312.000920,N,11722.298721,W,60.6,117.5,051210,,,A*4A
$GPRMC,234127.9,A,3311.972033,N,11722.246696,W,63.2,124.8,051210,,,A*49
$GPRMC,234130.9,A,3311.940486,N,11722.198630,W,62.3,129.2,051210,,,A*4F
$GPRMC,234133.9,A,3311.902429,N,11722.153458,W,63.6,135.7,051210,,,A*48
$GPRMC,234136.9,A,3311.863155,N,11722.112990,W,60.6,141.8,051210,,,A*46
$GPRMC,234139.9,A,3311.821463,N,11722.078217,W,62.7,144.3,051210,,,A*4B
$GPRMC,234142.9,A,3311.775618,N,11722.041655,W,66.9,144.9,051210,,,A*4F
$GPRMC,234145.9,A,3311.730553,N,11722.005764,W,64.2,145.2,051210,,,A*45
$GPRMC,234148.9,A,3311.685669,N,11721.967534,W,64.1,144.9,051210,,,A*4D
$GPRMC,234151.9,A,3311.641291,N,11721.930536,W,66.4,144.6,051210,,,A*46
$GPRMC,234154.9,A,3311.594619,N,11721.893019,W,66.9,145.7,051210,,,A*41
$GPRMC,234157.9,A,3311.548601,N,11721.855221,W,65.8,145.6,051210,,,A*4A
$GPRMC,234200.9,A,3311.501978,N,11721.817283,W,67.2,145.2,051210,,,A*45
$GPRMC,234203.9,A,3311.459652,N,11721.781471,W,64.9,145.4,051210,,,A*48
$GPRMC,234206.9,A,3311.413939,N,11721.744293,W,65.5,145.4,051210,,,A*4F
$GPRMC,234209.9,A,3311.370315,N,11721.705956,W,65.2,144.3,051210,,,A*40
$GPRMC,234212.9,A,3311.326316,N,11721.669341,W,64.8,144.7,051210,,,A*42
$GPRMC,234215.9,A,3311.280851,N,11721.631999,W,63.4,145.6,051210,,,A*49
$GPRMC,234218.9,A,3311.240256,N,11721.597645,W,61.6,144.1,051210,,,A*42
$GPRMC,234221.9,A,3311.197197,N,11721.562560,W,61.6,145.3,051210,,,A*42
$GPRMC,234224.9,A,3311.155439,N,11721.527198,W,61.9,144.7,051210,,,A*40
$GPRMC,234227.9,A,3311.113095,N,11721.491394,W,63.2,144.2,051210,,,A*4D
$GPRMC,234230.9,A,3311.070129,N,11721.456813,W,62.1,144.9,051210,,,A*4F
$GPRMC,234233.9,A,3311.027109,N,11721.421629,W,61.1,144.9,051210,,,A*48
$GPRMC,234236.9,A,3310.987434,N,11721.387281,W,59.9,143.8,051210,,,A*4C
$GPRMC,234239.9,A,3310.943834,N,11721.352503,W,63.2,145.5,051210,,,A*4B
$GPRMC,234242.9,A,3310.901025,N,11721.317444,W,63.1,145.1,051210,,,A*4D
$GPRMC,234245.9,A,3310.856898,N,11721.281948,W,62.5,144.9,051210,,,A*44
$GPRMC,234248.9,A,3310.818063,N,11721.246804,W,59.4,144.5,051210,,,A*48
$GPRMC,234251.9,A,3310.776471,N,11721.212701,W,59.3,145.0,051210,,,A*48
$GPRMC,234254.9,A,3310.734352,N,11721.179640,W,61.1,145.5,051210,,,A*4B
$GPRMC,234257.9,A,3310.692987,N,11721.143846,W,62.4,143.7,051210,,,A*44
$GPRMC,234300.9,A,3310.646409,N,11721.107538,W,65.3,145.5,051210,,,A*45
$GPRMC,234303.9,A,3310.599690,N,11721.070825,W,67.3,146.9,051210,,,A*48
$GPRMC,234306.9,A,3310.553603,N,11721.034045,W,67.9,147.2,051210,,,A*4F
$GPRMC,234309.9,A,3310.504626,N,11720.996884,W,68.9,147.9,051210,,,A*44
$GPRMC,234312.9,A,3310.458087,N,11720.961917,W,66.3,148.0,051210,,,A*4A
$GPRMC,234315.9,A,3310.412850,N,11720.928709,W,63.5,147.4,051210,,,A*45
$GPRMC,234318.9,A,3310.368220,N,11720.894077,W,65.0,146.7,051210,,,A*46
$GPRMC,234321.9,A,3310.320522,N,11720.859247,W,65.2,147.8,051210,,,A*49
$GPRMC,234324.9,A,3310.275268,N,11720.826186,W,62.8,147.9,051210,,,A*4E
$GPRMC,234327.9,A,3310.231690,N,11720.793291,W,62.5,147.3,051210,,,A*4D
$GPRMC,234330.9,A,3310.186761,N,11720.758754,W,63.8,148.1,051210,,,A*41
$GPRMC,234333.9,A,3310.140488,N,11720.725965,W,63.2,150.7,051210,,,A*4F
$GPRMC,234336.9,A,3310.092113,N,11720.698035,W,63.1,155.1,051210,,,A*48
$GPRMC,234339.9,A,3310.045482,N,11720.672892,W,62.7,156.1,051210,,,A*45
$GPRMC,234342.9,A,3310.000459,N,11720.649706,W,61.0,157.0,051210,,,A*40
$GPRMC,234345.9,A,3309.951205,N,11720.625718,W,63.4,156.7,051210,,,A*48
$GPRMC,234348.9,A,3309.903345,N,11720.598739,W,62.8,156.0,051210,,,A*4B
$GPRMC,234351.9,A,3309.855053,N,11720.576051,W,61.6,157.1,051210,,,A*41
$GPRMC,234354.9,A,3309.807192,N,11720.551866,W,62.4,157.0,051210,,,A*46
$GPRMC,234357.9,A,3309.758804,N,11720.528198,W,62.9,157.2,051210,,,A*4F
$GPRMC,234400.9,A,3309.710753,N,11720.503953,W,64.0,156.9,051210,,,A*48
$GPRMC,234403.2,A,3309.672171,N,11720.484094,W,63.7,156.9,051210,,,A*4F
$GPRMC,234406.2,A,3309.622787,N,11720.459204,W,63.5,156.8,051210,,,A*48
$GPRMC,234409.2,A,3309.574327,N,11720.434571,W,63.6,156.9,051210,,,A*45
$GPRMC,234412.2,A,3309.525951,N,11720.410259,W,61.7,156.8,051210,,,A*49
$GPRMC,234415.2,A,3309.478326,N,11720.385183,W,62.1,156.9,051210,,,A*46
$GPRMC,234418.2,A,3309.431335,N,11720.361351,W,60.8,156.6,051210,,,A*47
$GPRMC,234421.2,A,3309.384034,N,11720.337215,W,63.4,157.0,051210,,,A*4C
$GPRMC,234424.2,A,3309.334249,N,11720.311919,W,66.4,156.6,051210,,,A*4B
$GPRMC,234427.2,A,3309.283403,N,11720.285511,W,65.9,155.0,051210,,,A*4E
$GPRMC,234430.2,A,3309.234033,N,11720.257750,W,65.4,154.3,051210,,,A*44
$GPRMC,234433.2,A,3309.185586,N,11720.229635,W,65.0,154.0,051210,,,A*49
$GPRMC,234436.2,A,3309.138019,N,11720.201780,W,63.2,154.2,051210,,,A*4A
$GPRMC,234439.2,A,3309.090601,N,11720.174447,W,62.6,154.0,051210,,,A*47
$GPRMC,234442.2,A,3309.043946,N,11720.147207,W,62.1,154.0,051210,,,A*4C
$GPRMC,234445.2,A,3308.997432,N,11720.119936,W,61.7,153.8,051210,,,A*4C
$GPRMC,234448.2,A,3308.950599,N,11720.093210,W,62.6,153.9,051210,,,A*45
$GPRMC,234451.2,A,3308.903397,N,11720.067889,W,61.8,157.2,051210,,,A*40
$GPRMC,234454.2,A,3308.855021,N,11720.047472,W,61.4,161.8,051210,,,A*40
$GPRMC,234457.2,A,3308.803331,N,11720.035109,W,62.3,172.1,051210,,,A*41
$GPRMC,234500.2,A,3308.751010,N,11720.030017,W,63.8,177.1,051210,,,A*4E
$GPRMC,234503.2,A,3308.698935,N,11720.026795,W,62.2,176.9,051210,,,A*4F
$GPRMC,234506.2,A,3308.646753,N,11720.023810,W,62.2,177.5,051210,,,A*4D
$GPRMC,234509.2,A,3308.595450,N,11720.020175,W,61.7,173.9,051210,,,A*48
$GPRMC,234512.2,A,3308.545117,N,11720.009614,W,60.3,166.6,051210,,,A*4C
$GPRMC,234515.2,A,3308.498534,N,11719.991249,W,58.0,158.7,051210,,,A*45
$GPRMC,234518.2,A,3308.454620,N,11719.968426,W,58.8,157.0,051210,,,A*47
$GPRMC,234521.2,A,3308.408949,N,11719.944497,W,59.8,156.8,051210,,,A*48
$GPRMC,234524.9,A,3308.351910,N,11719.915301,W,60.9,157.1,051210,,,A*4E
$GPRMC,234527.9,A,3308.302534,N,11719.893108,W,60.9,157.5,051210,,,A*41
$GPRMC,234530.9,A,3308.257969,N,11719.870354,W,59.4,157.2,051210,,,A*44
$GPRMC,234533.9,A,3308.211736,N,11719.847232,W,59.2,157.0,051210,,,A*40
$GPRMC,234536.9,A,3308.168110,N,11719.825611,W,57.6,156.9,051210,,,A*49
$GPRMC,234539.9,A,3308.123461,N,11719.800768,W,57.7,156.0,051210,,,A*4A
$GPRMC,234542.9,A,3308.082383,N,11719.779603,W,55.1,156.7,051210,,,A*49
$GPRMC,234545.9,A,3308.041170,N,11719.756599,W,55.3,155.4,051210,,,A*40
$GPRMC,234548.9,A,3307.993223,N,11719.734059,W,60.9,157.1,051210,,,A*47
$GPRMC,234551.9,A,3307.949464,N,11719.709358,W,60.4,154.4,051210,,,A*4A
$GPRMC,234554.9,A,3307.902250,N,11719.681304,W,63.5,153.5,051210,,,A*4D
$GPRMC,234557.9,A,3307.855877,N,11719.654636,W,61.8,154.3,051210,,,A*40
$GPRMC,234600.9,A,3307.811610,N,11719.625567,W,62.6,152.9,051210,,,A*4E
$GPRMC,234603.9,A,3307.764018,N,11719.599005,W,61.0,153.2,051210,,,A*44
$GPRMC,234606.9,A,3307.721040,N,11719.572232,W,58.5,152.8,051210,,,A*4A
$GPRMC,234609.9,A,3307.678090,N,11719.547162,W,58.2,153.1,051210,,,A*4A
$GPRMC,234612.9,A,3307.633589,N,11719.520039,W,57.9,153.0,051210,,,A*49
$GPRMC,234615.9,A,3307.590735,N,11719.494477,W,56.4,154.1,051210,,,A*4B
$GPRMC,234618.9,A,3307.550811,N,11719.472830,W,54.3,156.2,051210,,,A*40
$GPRMC,234621.9,A,3307.510891,N,11719.454206,W,49.7,158.4,051210,,,A*4D
$GPRMC,234624.9,A,3307.474303,N,11719.439390,W,46.6,163.1,051210,,,A*4D
$GPRMC,234627.9,A,3307.438105,N,11719.429929,W,43.1,173.1,051210,,,A*48
$GPRMC,234630.9,A,3307.401702,N,11719.430380,W,42.8,181.1,051210,,,A*41
$GPRMC,234633.9,A,3307.371092,N,11719.433280,W,33.7,183.0,051210,,,A*44
$GPRMC,234636.9,A,3307.351940,N,11719.433355,W,21.1,180.5,051210,,,A*4F
$GPRMC,234639.9,A,3307.343266,N,11719.432957,W,8.0,182.8,051210,,,A*70
$GPRMC,234648.9,A,3307.339708,N,11719.430496,W,9.6,155.3,051210,,,A*72
$GPRMC,234651.9,A,3307.328703,N,11719.417911,W,19.2,116.0,051210,,,A*47
$GPRMC,234654.9,A,3307.326928,N,11719.392158,W,27.7,92.5,051210,,,A*74
$GPRMC,234657.9,A,3307.326760,N,11719.358584,W,34.8,90.7,051210,,,A*7B
$GPRMC,234700.9,A,3307.325589,N,11719.322801,W,36.0,91.3,051210,,,A*7C
$GPRMC,234703.9,A,3307.323116,N,11719.289018,W,34.3,94.6,051210,,,A*7A
$GPRMC,234706.9,A,3307.323647,N,11719.257013,W,31.6,90.1,051210,,,A*77
$GPRMC,234709.9,A,3307.324447,N,11719.227122,W,29.9,89.6,051210,,,A*70
$GPRMC,234712.9,A,3307.322919,N,11719.201157,W,26.0,91.6,051210,,,A*73
$GPRMC,234715.9,A,3307.321810,N,11719.179207,W,18.5,94.3,051210,,,A*7D
$GPRMC,234718.9,A,3307.322084,N,11719.167108,W,8.6,89.9,051210,,,A*41
$GPRMC,234812.9,A,3307.325906,N,11719.161981,W,5.2,67.8,051210,,,A*47
$GPRMC,234815.9,A,3307.334575,N,11719.147336,W,13.7,31.9,051210,,,A*7A
$GPRMC,234818.9,A,3307.351718,N,11719.144111,W,22.6,4.3,051210,,,A*46
$GPRMC,234821.9,A,3307.375073,N,11719.145602,W,28.6,355.2,051210,,,A*48
$GPRMC,234824.2,A,3307.394440,N,11719.150349,W,31.3,346.3,051210,,,A*4D
