NMEA Sentence Code,UTC Time,Status,Latitude,Latitude Direction,Longitude,Longitude Direction,Speed (knots),Track Angle (degrees true),Date,MagneticVariation,Magnetic Variation Direction,[FAA Mode]-Optional,Checksum
$GPRMC,234158.9,A,3304.729631,N,11635.943542,W,12.4,218.6,141010,,,A*42
$GPRMC,234201.2,A,3304.724053,N,11635.950822,W,11.7,223.5,141010,,,A*4B
$GPRMC,234204.9,A,3304.711112,N,11635.960996,W,11.2,211.3,141010,,,A*48
$GPRMC,234207.9,A,3304.708323,N,11635.966288,W,6.0,225.9,141010,,,A*78
$GPRMC,234210.2,A,3304.704360,N,11635.970103,W,11.6,225.0,141010,,,A*40
$GPRMC,234213.2,A,3304.697040,N,11635.978538,W,15.5,221.3,141010,,,A*4D
$GPRMC,234216.9,A,3304.684107,N,11635.995318,W,19.1,222.1,141010,,,A*4D
$GPRMC,234219.9,A,3304.672189,N,11636.006006,W,17.8,218.6,141010,,,A*48
$GPRMC,234222.9,A,3304.658370,N,11636.017243,W,20.1,215.7,141010,,,A*4E
$GPRMC,234225.9,A,3304.648433,N,11636.028042,W,13.7,218.0,141010,,,A*4B
$GPRMC,234228.2,A,3304.646313,N,11636.030353,W,7.3,219.1,141010,,,A*7D
$GPRMC,234232.2,A,3304.643354,N,11636.033243,W,4.8,228.5,141010,,,A*7D
$GPRMC,234235.9,A,3304.642028,N,11636.037539,W,5.0,246.3,141010,,,A*71
$GPRMC,234238.9,A,3304.645283,N,11636.045296,W,8.7,294.4,141010,,,A*7D
$GPRMC,234241.9,A,3304.651023,N,11636.053730,W,10.9,304.6,141010,,,A*4D
$GPRMC,234244.9,A,3304.659798,N,11636.062645,W,12.3,312.1,141010,,,A*4E
$GPRMC,234247.9,A,3304.666178,N,11636.073886,W,12.5,312.4,141010,,,A*4B
$GPRMC,234250.2,A,3304.671905,N,11636.080112,W,12.3,316.0,141010,,,A*4C
$GPRMC,234253.9,A,3304.680306,N,11636.089594,W,8.7,314.4,141010,,,A*79
$GPRMC,234428.9,A,3304.685647,N,11636.100300,W,5.2,296.4,141010,,,A*7E
$GPRMC,234431.9,A,3304.690456,N,11636.107886,W,7.6,306.0,141010,,,A*78
$GPRMC,234434.9,A,3304.697491,N,11636.116928,W,9.2,313.1,141010,,,A*7B
$GPRMC,234437.9,A,3304.702077,N,11636.121463,W,7.2,320.0,141010,,,A*70
$GPRMC,234450.2,A,3304.691088,N,11636.115994,W,7.8,135.9,141010,,,A*76
$GPRMC,234453.9,A,3304.681187,N,11636.102323,W,13.2,132.9,141010,,,A*49
$GPRMC,234456.9,A,3304.672426,N,11636.088545,W,15.7,129.4,141010,,,A*4F
$GPRMC,234459.9,A,3304.663893,N,11636.074023,W,15.6,127.9,141010,,,A*46
$GPRMC,234502.9,A,3304.656781,N,11636.061641,W,14.9,129.4,141010,,,A*48
$GPRMC,234505.2,A,3304.651479,N,11636.053695,W,15.2,132.5,141010,,,A*4E
$GPRMC,234508.9,A,3304.639019,N,11636.041796,W,14.3,134.4,141010,,,A*42
$GPRMC,234511.9,A,3304.630331,N,11636.032141,W,14.6,133.0,141010,,,A*44
$GPRMC,234514.9,A,3304.623063,N,11636.019809,W,15.7,128.3,141010,,,A*42
$GPRMC,234517.9,A,3304.613614,N,11636.008841,W,15.9,133.6,141010,,,A*49
$GPRMC,234520.9,A,3304.604389,N,11635.996709,W,16.8,131.5,141010,,,A*47
$GPRMC,234523.9,A,3304.596818,N,11635.979615,W,21.2,123.1,141010,,,A*4B
$GPRMC,234526.9,A,3304.588068,N,11635.957663,W,23.3,110.1,141010,,,A*40
$GPRMC,234529.2,A,3304.585037,N,11635.941840,W,20.6,102.7,141010,,,A*48
$GPRMC,234532.9,A,3304.577563,N,11635.918207,W,18.1,118.0,141010,,,A*45
$GPRMC,234535.2,A,3304.562699,N,11635.917384,W,22.4,179.1,141010,,,A*44
$GPRMC,234538.9,A,3304.538819,N,11635.919627,W,23.5,182.7,141010,,,A*4B
$GPRMC,234541.9,A,3304.515002,N,11635.917613,W,26.1,172.7,141010,,,A*4F
$GPRMC,234544.9,A,3304.489403,N,11635.910175,W,28.7,162.3,141010,,,A*46
$GPRMC,234547.2,A,3304.474762,N,11635.899279,W,27.9,154.8,141010,,,A*48
$GPRMC,234550.9,A,3304.446994,N,11635.877445,W,32.1,143.9,141010,,,A*41
$GPRMC,234553.9,A,3304.429559,N,11635.853875,W,32.7,134.3,141010,,,A*43
$GPRMC,234556.9,A,3304.414407,N,11635.828051,W,31.9,126.3,141010,,,A*4E
$GPRMC,234559.9,A,3304.400315,N,11635.799321,W,32.8,122.7,141010,,,A*43
$GPRMC,234602.9,A,3304.384465,N,11635.771623,W,34.0,124.1,141010,,,A*4A
$GPRMC,234605.9,A,3304.365446,N,11635.743415,W,35.1,125.9,141010,,,A*4C
$GPRMC,234608.9,A,3304.347706,N,11635.712968,W,35.9,123.9,141010,,,A*4B
$GPRMC,234611.9,A,3304.330546,N,11635.683424,W,36.3,123.4,141010,,,A*4D
$GPRMC,234614.9,A,3304.316303,N,11635.654647,W,35.5,123.1,141010,,,A*46
$GPRMC,234617.9,A,3304.298366,N,11635.624366,W,36.4,123.6,141010,,,A*45
$GPRMC,234620.9,A,3304.280023,N,11635.592733,W,37.4,124.6,141010,,,A*46
$GPRMC,234623.9,A,3304.263854,N,11635.563512,W,38.1,123.2,141010,,,A*46
$GPRMC,234626.9,A,3304.244279,N,11635.530520,W,39.9,124.4,141010,,,A*4C
$GPRMC,234629.9,A,3304.226935,N,11635.500328,W,38.8,125.7,141010,,,A*4B
$GPRMC,234632.9,A,3304.209708,N,11635.466344,W,39.9,122.6,141010,,,A*41
$GPRMC,234636.2,A,3304.188613,N,11635.430292,W,39.8,124.5,141010,,,A*42
$GPRMC,234639.0,A,3304.168421,N,11635.401598,W,40.2,128.5,141010,,,A*45
$GPRMC,234642.9,A,3304.138435,N,11635.353415,W,44.6,127.8,141010,,,A*46
$GPRMC,234645.9,A,3304.116160,N,11635.318165,W,43.7,125.3,141010,,,A*4A
$GPRMC,234648.9,A,3304.099504,N,11635.279403,W,43.9,123.0,141010,,,A*4F
$GPRMC,234651.2,A,3304.083208,N,11635.250289,W,43.9,124.0,141010,,,A*44
$GPRMC,234654.9,A,3304.059933,N,11635.204812,W,41.4,122.5,141010,,,A*4B
$GPRMC,234657.9,A,3304.040788,N,11635.172537,W,40.1,123.9,141010,,,A*4F
$GPRMC,234701.2,A,3304.021279,N,11635.134759,W,39.5,122.9,141010,,,A*49
$GPRMC,234704.2,A,3304.001280,N,11635.103544,W,38.6,126.6,141010,,,A*4B
$GPRMC,234707.2,A,3303.981156,N,11635.070886,W,39.5,129.2,141010,,,A*49
$GPRMC,234710.2,A,3303.959273,N,11635.039105,W,40.2,132.1,141010,,,A*41
$GPRMC,234713.2,A,3303.935608,N,11635.008078,W,41.5,134.6,141010,,,A*4E
$GPRMC,234716.2,A,3303.909377,N,11634.981211,W,41.0,138.6,141010,,,A*44
$GPRMC,234719.2,A,3303.883377,N,11634.953549,W,41.7,138.7,141010,,,A*4B
$GPRMC,234722.9,A,3303.842706,N,11634.918357,W,46.1,143.7,141010,,,A*4C
$GPRMC,234725.2,A,3303.826094,N,11634.899411,W,42.2,139.1,141010,,,A*4F
$GPRMC,234728.0,A,3303.803125,N,11634.876340,W,40.6,141.5,141010,,,A*43
$GPRMC,234731.9,A,3303.769918,N,11634.844027,W,40.8,140.8,141010,,,A*46
$GPRMC,234734.2,A,3303.749631,N,11634.822927,W,40.5,139.5,141010,,,A*49
$GPRMC,234737.9,A,3303.719359,N,11634.795908,W,38.3,142.0,141010,,,A*41
$GPRMC,234740.9,A,3303.690421,N,11634.768352,W,41.4,142.2,141010,,,A*45
$GPRMC,234743.9,A,3303.659969,N,11634.746999,W,45.2,147.6,141010,,,A*40
$GPRMC,234746.9,A,3303.620779,N,11634.725873,W,50.4,154.5,141010,,,A*47
$GPRMC,234749.9,A,3303.582335,N,11634.714408,W,48.1,164.2,141010,,,A*45
$GPRMC,234752.9,A,3303.545033,N,11634.699791,W,46.3,162.9,141010,,,A*47
$GPRMC,234755.9,A,3303.510188,N,11634.682484,W,44.9,156.2,141010,,,A*48
$GPRMC,234758.9,A,3303.479742,N,11634.654143,W,45.3,142.7,141010,,,A*45
$GPRMC,234801.2,A,3303.457707,N,11634.632889,W,44.0,141.7,141010,,,A*4E
$GPRMC,234804.9,A,3303.422179,N,11634.603156,W,42.7,145.3,141010,,,A*45
$GPRMC,234807.2,A,3303.399348,N,11634.584993,W,43.3,147.4,141010,,,A*47
$GPRMC,234810.9,A,3303.360605,N,11634.559019,W,44.1,147.6,141010,,,A*4C
$GPRMC,234813.9,A,3303.326434,N,11634.537611,W,45.5,151.9,141010,,,A*46
$GPRMC,234816.9,A,3303.292061,N,11634.515047,W,45.7,151.5,141010,,,A*42
$GPRMC,234819.9,A,3303.256928,N,11634.491602,W,46.7,152.0,141010,,,A*4E
$GPRMC,234822.9,A,3303.222693,N,11634.466985,W,46.1,152.5,141010,,,A*41
$GPRMC,234825.9,A,3303.189338,N,11634.445080,W,43.7,152.9,141010,,,A*42
$GPRMC,234828.9,A,3303.159010,N,11634.425913,W,41.5,153.5,141010,,,A*43
$GPRMC,234831.9,A,3303.127627,N,11634.407664,W,41.9,153.9,141010,,,A*4F
$GPRMC,234834.9,A,3303.097213,N,11634.387312,W,41.7,148.7,141010,,,A*42
$GPRMC,234837.9,A,3303.067710,N,11634.354538,W,44.9,137.2,141010,,,A*4E
$GPRMC,234840.9,A,3303.040951,N,11634.316125,W,46.8,132.4,141010,,,A*4E
$GPRMC,234844.2,A,3303.012296,N,11634.278985,W,45.5,131.1,141010,,,A*45
$GPRMC,234847.9,A,3302.987457,N,11634.237297,W,41.3,127.0,141010,,,A*45
$GPRMC,234850.9,A,3302.964331,N,11634.209370,W,37.3,140.0,141010,,,A*4C
$GPRMC,234853.9,A,3302.941477,N,11634.188152,W,32.7,146.0,141010,,,A*42
$GPRMC,234856.9,A,3302.932384,N,11634.184731,W,15.6,161.7,141010,,,A*41
$GPRMC,234859.9,A,3302.917513,N,11634.180824,W,20.7,170.3,141010,,,A*4D
$GPRMC,234902.9,A,3302.895028,N,11634.176396,W,28.5,172.2,141010,,,A*46
$GPRMC,234905.9,A,3302.869693,N,11634.170968,W,33.2,170.5,141010,,,A*41
$GPRMC,234908.9,A,3302.836788,N,11634.156398,W,39.4,158.3,141010,,,A*4C
$GPRMC,234911.9,A,3302.811801,N,11634.131999,W,39.4,139.0,141010,,,A*41
$GPRMC,234914.9,A,3302.799792,N,11634.100019,W,36.2,115.6,141010,,,A*4C
$GPRMC,234917.2,A,3302.789852,N,11634.074599,W,35.0,119.6,141010,,,A*44
$GPRMC,234920.2,A,3302.776098,N,11634.050724,W,31.9,127.6,141010,,,A*4C
$GPRMC,234923.9,A,3302.741492,N,11634.035444,W,32.6,157.3,141010,,,A*46
$GPRMC,234926.2,A,3302.723505,N,11634.028297,W,30.6,155.9,141010,,,A*4D
$GPRMC,234930.2,A,3302.698717,N,11634.000928,W,30.2,137.5,141010,,,A*43
$GPRMC,234933.0,A,3302.679292,N,11633.986751,W,29.7,155.7,141010,,,A*4E
$GPRMC,234936.0,A,3302.655005,N,11633.980068,W,30.5,173.5,141010,,,A*4E
$GPRMC,234939.9,A,3302.622639,N,11633.971908,W,30.1,168.9,141010,,,A*42
$GPRMC,234942.9,A,3302.599576,N,11633.962767,W,28.5,158.6,141010,,,A*41
$GPRMC,234945.9,A,3302.577379,N,11633.956936,W,24.4,170.3,141010,,,A*40
$GPRMC,234948.9,A,3302.559763,N,11633.961140,W,21.9,190.8,141010,,,A*4E
$GPRMC,234951.2,A,3302.547076,N,11633.968679,W,23.6,203.0,141010,,,A*49
$GPRMC,234954.9,A,3302.533333,N,11633.988381,W,22.8,226.1,141010,,,A*43
$GPRMC,234958.2,A,3302.512615,N,11634.005411,W,26.8,212.5,141010,,,A*44
$GPRMC,235002.2,A,3302.481231,N,11634.018693,W,29.0,192.9,141010,,,A*4E
$GPRMC,235005.0,A,3302.460603,N,11634.022353,W,24.8,187.4,141010,,,A*4D
$GPRMC,235008.9,A,3302.438364,N,11634.034062,W,22.2,215.7,141010,,,A*41
$GPRMC,235011.9,A,3302.426986,N,11634.056242,W,25.1,233.8,141010,,,A*4B
$GPRMC,235014.0,A,3302.416510,N,11634.066864,W,24.4,222.5,141010,,,A*43
$GPRMC,235018.2,A,3302.390120,N,11634.073084,W,23.4,177.6,141010,,,A*46
$GPRMC,235021.2,A,3302.368690,N,11634.056460,W,27.1,151.6,141010,,,A*4B
$GPRMC,235024.9,A,3302.347965,N,11634.024615,W,32.7,129.9,141010,,,A*4A
$GPRMC,235027.9,A,3302.329346,N,11633.995474,W,35.1,124.7,141010,,,A*49
$GPRMC,235030.9,A,3302.314960,N,11633.965342,W,32.6,121.4,141010,,,A*44
$GPRMC,235033.2,A,3302.309966,N,11633.944453,W,28.6,99.3,141010,,,A*7C
$GPRMC,235036.9,A,3302.319761,N,11633.910123,W,31.0,71.8,141010,,,A*7A
$GPRMC,235039.2,A,3302.326238,N,11633.886455,W,30.5,77.5,141010,,,A*7E
$GPRMC,235042.0,A,3302.330523,N,11633.861928,W,25.7,85.1,141010,,,A*7B
$GPRMC,235045.2,A,3302.322694,N,11633.837108,W,27.2,127.8,141010,,,A*4C
$GPRMC,235048.9,A,3302.303691,N,11633.811424,W,26.9,129.8,141010,,,A*47
$GPRMC,235051.9,A,3302.286925,N,11633.799010,W,22.3,155.9,141010,,,A*4B
$GPRMC,235054.9,A,3302.268642,N,11633.796239,W,24.5,176.8,141010,,,A*46
$GPRMC,235057.2,A,3302.251557,N,11633.796814,W,26.8,175.6,141010,,,A*44
$GPRMC,235100.9,A,3302.227679,N,11633.786024,W,25.6,143.7,141010,,,A*41
$GPRMC,235103.9,A,3302.215386,N,11633.762575,W,26.4,127.4,141010,,,A*4D
$GPRMC,235106.0,A,3302.202058,N,11633.745320,W,29.7,134.6,141010,,,A*48
$GPRMC,235109.0,A,3302.188415,N,11633.734148,W,20.3,149.1,141010,,,A*41
$GPRMC,235112.2,A,3302.171268,N,11633.733140,W,20.3,189.7,141010,,,A*46
$GPRMC,235115.2,A,3302.155886,N,11633.741620,W,18.4,196.3,141010,,,A*4F
$GPRMC,235120.2,A,3302.130588,N,11633.756984,W,20.6,206.3,141010,,,A*4D
$GPRMC,235123.2,A,3302.126341,N,11633.789403,W,23.5,245.4,141010,,,A*4A
$GPRMC,235126.2,A,3302.118416,N,11633.807611,W,18.9,241.6,141010,,,A*4D
$GPRMC,235129.0,A,3302.100242,N,11633.809247,W,19.8,177.7,141010,,,A*40
$GPRMC,235132.9,A,3302.073882,N,11633.799132,W,25.8,161.6,141010,,,A*4E
$GPRMC,235135.9,A,3302.049532,N,11633.789312,W,28.9,158.3,141010,,,A*44
$GPRMC,235138.2,A,3302.033157,N,11633.774189,W,30.5,142.6,141010,,,A*41
$GPRMC,235141.9,A,3302.012596,N,11633.743981,W,30.3,128.3,141010,,,A*45
$GPRMC,235144.2,A,3301.998622,N,11633.725957,W,32.1,137.5,141010,,,A*4C
$GPRMC,235147.9,A,3301.972816,N,11633.703522,W,29.5,143.9,141010,,,A*42
$GPRMC,235150.9,A,3301.958368,N,11633.695625,W,25.1,152.4,141010,,,A*41
$GPRMC,235153.2,A,3301.939755,N,11633.688147,W,27.9,165.7,141010,,,A*46
$GPRMC,235157.2,A,3301.913661,N,11633.687992,W,22.5,180.1,141010,,,A*47
$GPRMC,235201.2,A,3301.888407,N,11633.700130,W,22.4,208.1,141010,,,A*4A
$GPRMC,235204.2,A,3301.875712,N,11633.720325,W,25.5,230.5,141010,,,A*47
$GPRMC,235207.0,A,3301.865749,N,11633.747225,W,29.0,247.4,141010,,,A*41
$GPRMC,235210.9,A,3301.848911,N,11633.779219,W,28.1,227.4,141010,,,A*46
$GPRMC,235213.9,A,3301.824124,N,11633.791836,W,29.3,200.6,141010,,,A*44
$GPRMC,235216.9,A,3301.797631,N,11633.790893,W,30.1,178.6,141010,,,A*4D
$GPRMC,235219.9,A,3301.765135,N,11633.780705,W,34.5,161.6,141010,,,A*45
$GPRMC,235222.2,A,3301.746793,N,11633.767970,W,31.8,150.5,141010,,,A*41
$GPRMC,235225.9,A,3301.719733,N,11633.753735,W,29.1,165.8,141010,,,A*4E
$GPRMC,235228.9,A,3301.696731,N,11633.754062,W,29.0,184.6,141010,,,A*45
$GPRMC,235231.9,A,3301.674039,N,11633.763315,W,30.1,197.3,141010,,,A*47
$GPRMC,235234.2,A,3301.655096,N,11633.772347,W,30.2,197.6,141010,,,A*4E
$GPRMC,235237.9,A,3301.625922,N,11633.772219,W,24.0,169.7,141010,,,A*4A
$GPRMC,235240.2,A,3301.609690,N,11633.765146,W,25.8,160.6,141010,,,A*47
$GPRMC,235244.2,A,3301.580313,N,11633.749307,W,28.7,160.3,141010,,,A*41
$GPRMC,235247.2,A,3301.556890,N,11633.742875,W,28.2,174.5,141010,,,A*4A
$GPRMC,235250.0,A,3301.536431,N,11633.738820,W,27.7,175.0,141010,,,A*4C
$GPRMC,235254.2,A,3301.505597,N,11633.733548,W,25.5,171.8,141010,,,A*43
$GPRMC,235257.9,A,3301.481071,N,11633.725300,W,23.5,166.7,141010,,,A*49
$GPRMC,235300.9,A,3301.459122,N,11633.715463,W,24.4,163.7,141010,,,A*4A
$GPRMC,235303.2,A,3301.442868,N,11633.708886,W,27.3,165.2,141010,,,A*43
$GPRMC,235306.9,A,3301.411682,N,11633.697803,W,31.8,160.8,141010,,,A*48
$GPRMC,235309.9,A,3301.381213,N,11633.685029,W,37.0,162.7,141010,,,A*45
$GPRMC,235312.9,A,3301.349441,N,11633.678440,W,38.2,169.8,141010,,,A*4A
$GPRMC,235315.9,A,3301.317556,N,11633.673012,W,38.4,175.3,141010,,,A*49
$GPRMC,235318.9,A,3301.284179,N,11633.670303,W,39.8,179.2,141010,,,A*46
$GPRMC,235321.9,A,3301.253549,N,11633.671287,W,38.1,180.8,141010,,,A*49
$GPRMC,235324.9,A,3301.226734,N,11633.673613,W,31.1,178.2,141010,,,A*49
$GPRMC,235327.9,A,3301.209096,N,11633.665894,W,24.9,166.2,141010,,,A*4D
$GPRMC,235330.9,A,3301.194808,N,11633.666042,W,22.3,178.1,141010,,,A*43
$GPRMC,235333.2,A,3301.185845,N,11633.669005,W,20.5,184.8,141010,,,A*40
$GPRMC,235336.9,A,3301.164634,N,11633.673203,W,21.7,184.2,141010,,,A*4F
$GPRMC,235339.2,A,3301.149171,N,11633.675166,W,25.8,185.6,141010,,,A*4A
$GPRMC,235342.9,A,3301.122213,N,11633.679396,W,25.3,187.2,141010,,,A*4B
$GPRMC,235345.2,A,3301.109151,N,11633.683712,W,24.3,198.2,141010,,,A*49
$GPRMC,235348.2,A,3301.090897,N,11633.696713,W,25.1,208.5,141010,,,A*4D
$GPRMC,235351.2,A,3301.076072,N,11633.715425,W,26.2,213.3,141010,,,A*4E
$GPRMC,235355.2,A,3301.049425,N,11633.733345,W,26.4,209.4,141010,,,A*4F
$GPRMC,235358.2,A,3301.026484,N,11633.745264,W,28.2,200.4,141010,,,A*42
$GPRMC,235402.2,A,3300.992863,N,11633.750779,W,29.0,187.6,141010,,,A*48
$GPRMC,235405.9,A,3300.961518,N,11633.751794,W,28.2,181.3,141010,,,A*4B
$GPRMC,235408.2,A,3300.943235,N,11633.751036,W,29.3,174.8,141010,,,A*4B
$GPRMC,235411.0,A,3300.919913,N,11633.742579,W,33.4,158.6,141010,,,A*41
$GPRMC,235414.0,A,3300.894897,N,11633.729375,W,34.2,152.2,141010,,,A*45
$GPRMC,235417.9,A,3300.860730,N,11633.706882,W,35.4,153.2,141010,,,A*4E
$GPRMC,235420.2,A,3300.840403,N,11633.698911,W,35.5,161.7,141010,,,A*48
$GPRMC,235423.2,A,3300.809302,N,11633.689006,W,37.6,164.0,141010,,,A*4C
$GPRMC,235426.9,A,3300.770788,N,11633.677200,W,38.2,166.1,141010,,,A*48
$GPRMC,235429.9,A,3300.743376,N,11633.670649,W,35.2,169.2,141010,,,A*4D
$GPRMC,235432.9,A,3300.717316,N,11633.669396,W,33.5,175.4,141010,,,A*45
$GPRMC,235435.9,A,3300.690048,N,11633.667622,W,31.7,178.2,141010,,,A*4B
$GPRMC,235438.9,A,3300.665751,N,11633.669202,W,26.7,187.6,141010,,,A*49
$GPRMC,235441.0,A,3300.658641,N,11633.674577,W,18.6,204.6,141010,,,A*4D
$GPRMC,235445.2,A,3300.645267,N,11633.680940,W,10.6,209.2,141010,,,A*45
$GPRMC,235448.2,A,3300.640738,N,11633.686364,W,8.8,213.9,141010,,,A*7F
$GPRMC,235542.2,A,3300.629194,N,11633.693274,W,8.5,204.9,141010,,,A*74
$GPRMC,235545.9,A,3300.611899,N,11633.707991,W,21.3,217.2,141010,,,A*4F
$GPRMC,235548.9,A,3300.589923,N,11633.727673,W,30.7,216.5,141010,,,A*43
$GPRMC,235551.9,A,3300.568206,N,11633.747789,W,33.0,218.3,141010,,,A*46
$GPRMC,235554.9,A,3300.545212,N,11633.772092,W,36.9,216.8,141010,,,A*4B
$GPRMC,235557.9,A,3300.519772,N,11633.794455,W,37.2,216.5,141010,,,A*42
$GPRMC,235600.2,A,3300.500626,N,11633.811070,W,37.9,215.3,141010,,,A*4F
$GPRMC,235603.2,A,3300.472108,N,11633.826727,W,38.3,196.0,141010,,,A*4C
$GPRMC,235606.2,A,3300.440747,N,11633.833674,W,38.7,187.6,141010,,,A*44
$GPRMC,235609.2,A,3300.407481,N,11633.835810,W,40.1,185.5,141010,,,A*43
$GPRMC,235612.2,A,3300.372653,N,11633.838883,W,41.4,185.6,141010,,,A*41
$GPRMC,235615.2,A,3300.337746,N,11633.843004,W,41.5,186.4,141010,,,A*49
$GPRMC,235618.2,A,3300.304337,N,11633.848199,W,41.2,186.8,141010,,,A*43
$GPRMC,235621.2,A,3300.270027,N,11633.853639,W,41.3,186.6,141010,,,A*41
$GPRMC,235624.2,A,3300.234619,N,11633.858305,W,42.2,186.5,141010,,,A*4F
$GPRMC,235627.2,A,3300.199441,N,11633.863000,W,42.1,186.3,141010,,,A*4C
$GPRMC,235630.9,A,3300.159005,N,11633.869964,W,38.2,189.2,141010,,,A*48
$GPRMC,235633.9,A,3300.133501,N,11633.882330,W,34.3,206.9,141010,,,A*4A
$GPRMC,235636.9,A,3300.111763,N,11633.909410,W,36.8,227.3,141010,,,A*4E
$GPRMC,235639.9,A,3300.092778,N,11633.934716,W,36.7,221.7,141010,,,A*47
$GPRMC,235642.9,A,3300.064334,N,11633.955050,W,37.5,206.0,141010,,,A*4D
$GPRMC,235645.9,A,3300.032338,N,11633.965895,W,39.8,198.9,141010,,,A*49
$GPRMC,235648.9,A,3300.002524,N,11633.979282,W,39.6,198.4,141010,,,A*4E
$GPRMC,235651.9,A,3259.970066,N,11633.989956,W,39.7,197.5,141010,,,A*46
$GPRMC,235654.9,A,3259.939979,N,11634.006484,W,39.2,207.6,141010,,,A*4E
$GPRMC,235657.9,A,3259.915220,N,11634.033744,W,41.3,221.4,141010,,,A*45
$GPRMC,235700.2,A,3259.895721,N,11634.053926,W,41.4,219.7,141010,,,A*43
$GPRMC,235703.9,A,3259.864286,N,11634.088203,W,40.4,221.5,141010,,,A*4F
$GPRMC,235706.9,A,3259.839181,N,11634.112854,W,39.3,220.6,141010,,,A*47
$GPRMC,235709.9,A,3259.812763,N,11634.138293,W,39.7,219.8,141010,,,A*42
$GPRMC,235712.9,A,3259.786588,N,11634.160909,W,38.7,218.4,141010,,,A*44
$GPRMC,235715.9,A,3259.761848,N,11634.185936,W,39.2,220.1,141010,,,A*46
$GPRMC,235718.9,A,3259.734718,N,11634.214328,W,39.9,219.8,141010,,,A*47
$GPRMC,235721.9,A,3259.712865,N,11634.234371,W,33.7,218.8,141010,,,A*47
$GPRMC,235724.9,A,3259.694885,N,11634.252249,W,25.9,220.4,141010,,,A*47
$GPRMC,235727.9,A,3259.679938,N,11634.268653,W,24.9,221.6,141010,,,A*44
$GPRMC,235730.9,A,3259.664164,N,11634.285407,W,27.2,221.2,141010,,,A*43
$GPRMC,235733.9,A,3259.645782,N,11634.303100,W,29.9,221.1,141010,,,A*46
$GPRMC,235736.9,A,3259.621611,N,11634.322465,W,32.9,209.5,141010,,,A*4B
$GPRMC,235739.9,A,3259.597025,N,11634.332609,W,32.1,204.2,141010,,,A*40
$GPRMC,235742.9,A,3259.574989,N,11634.349115,W,31.6,218.0,141010,,,A*43
$GPRMC,235745.9,A,3259.561322,N,11634.377193,W,32.3,245.3,141010,,,A*45
$GPRMC,235748.9,A,3259.554286,N,11634.404360,W,28.8,250.3,141010,,,A*48
$GPRMC,235751.2,A,3259.544560,N,11634.421254,W,27.0,231.2,141010,,,A*45
$GPRMC,235754.9,A,3259.522200,N,11634.441377,W,28.9,217.0,141010,,,A*4C
$GPRMC,235757.9,A,3259.503757,N,11634.462296,W,30.9,228.3,141010,,,A*42
$GPRMC,235800.9,A,3259.492842,N,11634.489860,W,30.6,251.1,141010,,,A*48
$GPRMC,235803.9,A,3259.485779,N,11634.518796,W,31.0,252.6,141010,,,A*46
$GPRMC,235806.2,A,3259.477825,N,11634.539659,W,31.5,241.7,141010,,,A*44
$GPRMC,235810.2,A,3259.458460,N,11634.566212,W,27.4,227.8,141010,,,A*4B
$GPRMC,235813.9,A,3259.444727,N,11634.592258,W,24.6,250.6,141010,,,A*44
$GPRMC,235816.9,A,3259.443860,N,11634.618176,W,23.9,278.8,141010,,,A*48
$GPRMC,235819.9,A,3259.454744,N,11634.645540,W,30.1,294.7,141010,,,A*46
$GPRMC,235822.2,A,3259.467408,N,11634.670414,W,36.2,295.0,141010,,,A*4B
$GPRMC,235825.9,A,3259.472717,N,11634.711460,W,30.7,270.3,141010,,,A*40
$GPRMC,235828.9,A,3259.458660,N,11634.738713,W,30.4,239.4,141010,,,A*41
$GPRMC,235831.9,A,3259.445118,N,11634.758885,W,26.4,234.8,141010,,,A*4D
$GPRMC,235834.2,A,3259.437721,N,11634.778256,W,27.7,245.1,141010,,,A*41
$GPRMC,235837.2,A,3259.444874,N,11634.801395,W,27.0,285.5,141010,,,A*49
$GPRMC,235840.9,A,3259.462148,N,11634.835480,W,33.0,297.2,141010,,,A*45
$GPRMC,235843.2,A,3259.469653,N,11634.861590,W,36.3,285.2,141010,,,A*4F
$GPRMC,235846.9,A,3259.476485,N,11634.915164,W,41.7,278.5,141010,,,A*4A
$GPRMC,235850.2,A,3259.481985,N,11634.959015,W,39.1,276.3,141010,,,A*4D
$GPRMC,235853.2,A,3259.487070,N,11634.998299,W,38.7,278.5,141010,,,A*4F
$GPRMC,235857.2,A,3259.493583,N,11635.049667,W,39.6,278.1,141010,,,A*42
$GPRMC,235900.9,A,3259.497432,N,11635.095891,W,39.3,276.8,141010,,,A*41
$GPRMC,235903.2,A,3259.502425,N,11635.124526,W,38.4,278.4,141010,,,A*4C
$GPRMC,235907.2,A,3259.511304,N,11635.181147,W,41.4,277.9,141010,,,A*4E
$GPRMC,235910.2,A,3259.514101,N,11635.212795,W,36.8,269.5,141010,,,A*45
$GPRMC,235913.2,A,3259.507787,N,11635.248965,W,36.5,247.6,141010,,,A*40
$GPRMC,235917.2,A,3259.484609,N,11635.287560,W,36.3,225.9,141010,,,A*4E
$GPRMC,235920.2,A,3259.458091,N,11635.306336,W,36.9,205.7,141010,,,A*47
$GPRMC,235923.2,A,3259.426955,N,11635.311319,W,37.8,178.9,141010,,,A*40
$GPRMC,235926.0,A,3259.400227,N,11635.306727,W,35.4,165.9,141010,,,A*40
$GPRMC,235930.2,A,3259.366364,N,11635.282454,W,34.0,140.3,141010,,,A*46
$GPRMC,235933.2,A,3259.345993,N,11635.257113,W,33.1,136.6,141010,,,A*4A
$GPRMC,235936.2,A,3259.324951,N,11635.233652,W,33.9,137.5,141010,,,A*4C
$GPRMC,235939.2,A,3259.306693,N,11635.208114,W,33.7,122.9,141010,,,A*49
$GPRMC,235942.2,A,3259.292895,N,11635.181097,W,30.3,119.5,141010,,,A*4A
$GPRMC,235945.2,A,3259.285375,N,11635.163487,W,12.9,115.3,141010,,,A*47
$GPRMC,235948.9,A,3259.285266,N,11635.154641,W,5.4,103.4,141010,,,A*75
$GPRMC,000018.9,A,3259.281256,N,11635.150004,W,6.4,126.3,151010,,,A*7B
$GPRMC,000021.0,A,3259.276024,N,11635.143748,W,10.1,134.8,151010,,,A*40
$GPRMC,000024.9,A,3259.271362,N,11635.111127,W,24.8,98.9,151010,,,A*7A
$GPRMC,000027.2,A,3259.267964,N,11635.090588,W,25.8,101.2,151010,,,A*4B
$GPRMC,000030.9,A,3259.251011,N,11635.059076,W,29.3,124.2,151010,,,A*49
$GPRMC,000033.9,A,3259.234472,N,11635.041192,W,29.2,138.8,151010,,,A*4C
$GPRMC,000036.9,A,3259.213585,N,11635.021991,W,30.9,144.5,151010,,,A*4D
$GPRMC,000039.9,A,3259.191763,N,11635.007447,W,30.6,151.9,151010,,,A*44
$GPRMC,000042.9,A,3259.169186,N,11634.999018,W,29.9,152.8,151010,,,A*46
$GPRMC,000046.2,A,3259.145463,N,11634.975537,W,32.1,139.5,151010,,,A*41
$GPRMC,000049.0,A,3259.127825,N,11634.955452,W,29.0,139.4,151010,,,A*4C
$GPRMC,000052.9,A,3259.100746,N,11634.936807,W,29.9,155.3,151010,,,A*4D
$GPRMC,000055.9,A,3259.073428,N,11634.930295,W,33.6,167.3,151010,,,A*46
$GPRMC,000058.9,A,3259.045160,N,11634.923304,W,35.0,169.0,151010,,,A*41
$GPRMC,000101.2,A,3259.023009,N,11634.916297,W,35.1,167.5,151010,,,A*4E
$GPRMC,000104.9,A,3258.986853,N,11634.902593,W,35.5,161.6,151010,,,A*47
$GPRMC,000108.2,A,3258.958371,N,11634.884023,W,35.3,149.6,151010,,,A*45
$GPRMC,000111.2,A,3258.936538,N,11634.864032,W,33.7,146.9,151010,,,A*42
$GPRMC,000114.9,A,3258.907457,N,11634.846239,W,31.1,155.9,151010,,,A*49
$GPRMC,000117.9,A,3258.882618,N,11634.853676,W,29.0,195.6,151010,,,A*4F
$GPRMC,000120.9,A,3258.863178,N,11634.864900,W,23.5,203.1,151010,,,A*4B
$GPRMC,000123.9,A,3258.849329,N,11634.871038,W,13.0,199.0,151010,,,A*47
$GPRMC,000126.9,A,3258.842533,N,11634.872421,W,6.0,193.8,151010,,,A*7D
$GPRMC,000150.9,A,3258.836170,N,11634.870962,W,9.2,171.1,151010,,,A*7C
$GPRMC,000153.9,A,3258.820850,N,11634.870900,W,19.4,177.4,151010,,,A*43
$GPRMC,000156.9,A,3258.799703,N,11634.867738,W,26.1,173.3,151010,,,A*4B
$GPRMC,000159.9,A,3258.776597,N,11634.861227,W,29.1,169.5,151010,,,A*45
$GPRMC,000202.9,A,3258.750342,N,11634.858396,W,30.4,178.8,151010,,,A*43
$GPRMC,000205.9,A,3258.724655,N,11634.868591,W,33.0,198.9,151010,,,A*4E
$GPRMC,000208.9,A,3258.698703,N,11634.879517,W,34.2,200.6,151010,,,A*41
$GPRMC,000211.9,A,3258.674314,N,11634.893963,W,33.1,203.0,151010,,,A*43
$GPRMC,000214.9,A,3258.649044,N,11634.908106,W,33.1,204.6,151010,,,A*47
$GPRMC,000217.9,A,3258.628983,N,11634.916582,W,25.3,199.2,151010,,,A*40
$GPRMC,000220.9,A,3258.609568,N,11634.918868,W,19.5,178.0,151010,,,A*4D
$GPRMC,000223.9,A,3258.593921,N,11634.906156,W,19.9,136.2,151010,,,A*40
$GPRMC,000226.9,A,3258.586742,N,11634.881080,W,25.6,95.5,151010,,,A*71
$GPRMC,000229.9,A,3258.590580,N,11634.852663,W,30.4,87.5,151010,,,A*75
$GPRMC,000232.9,A,3258.590585,N,11634.820152,W,33.2,87.8,151010,,,A*72
$GPRMC,000235.9,A,3258.592482,N,11634.788550,W,33.2,88.8,151010,,,A*75
$GPRMC,000238.9,A,3258.591862,N,11634.756159,W,30.8,92.8,151010,,,A*75
$GPRMC,000241.9,A,3258.585409,N,11634.727589,W,29.4,110.7,151010,,,A*40
$GPRMC,000244.9,A,3258.568369,N,11634.708372,W,29.2,141.9,151010,,,A*44
$GPRMC,000247.9,A,3258.543903,N,11634.696804,W,31.4,156.6,151010,,,A*42
$GPRMC,000250.9,A,3258.515110,N,11634.684858,W,32.3,159.9,151010,,,A*43
$GPRMC,000253.2,A,3258.497952,N,11634.677086,W,30.5,157.9,151010,,,A*43
$GPRMC,000256.9,A,3258.474403,N,11634.657173,W,28.0,137.9,151010,,,A*4A
$GPRMC,000259.9,A,3258.456305,N,11634.636860,W,28.8,140.3,151010,,,A*4A
$GPRMC,000303.2,A,3258.433229,N,11634.624091,W,27.8,163.7,151010,,,A*4C
$GPRMC,000306.9,A,3258.404992,N,11634.614081,W,27.8,167.1,151010,,,A*4D
$GPRMC,000309.9,A,3258.388242,N,11634.617181,W,23.7,190.3,151010,,,A*44
$GPRMC,000312.9,A,3258.365645,N,11634.625273,W,27.7,198.4,151010,,,A*4A
$GPRMC,000315.9,A,3258.342279,N,11634.635660,W,28.6,199.5,151010,,,A*4A
$GPRMC,000318.9,A,3258.320750,N,11634.638085,W,27.3,187.6,151010,,,A*4B
$GPRMC,000321.9,A,3258.296340,N,11634.635883,W,28.3,174.5,151010,,,A*4B
$GPRMC,000324.9,A,3258.272849,N,11634.631122,W,28.9,172.0,151010,,,A*49
$GPRMC,000327.9,A,3258.247148,N,11634.626624,W,30.9,176.0,151010,,,A*4E
$GPRMC,000330.2,A,3258.226549,N,11634.628387,W,30.3,183.9,151010,,,A*4A
$GPRMC,000333.2,A,3258.200215,N,11634.635068,W,31.5,188.7,151010,,,A*4F
$GPRMC,000336.9,A,3258.173298,N,11634.644443,W,24.9,200.5,151010,,,A*41
$GPRMC,000339.9,A,3258.158399,N,11634.662757,W,28.6,223.1,151010,,,A*43
$GPRMC,000342.9,A,3258.139551,N,11634.682991,W,30.5,224.5,151010,,,A*49
$GPRMC,000345.9,A,3258.129529,N,11634.706270,W,28.8,243.5,151010,,,A*4C
$GPRMC,000348.9,A,3258.124529,N,11634.739575,W,31.2,262.5,151010,,,A*43
$GPRMC,000351.2,A,3258.123546,N,11634.764709,W,32.2,260.0,151010,,,A*4B
$GPRMC,000354.9,A,3258.112071,N,11634.793847,W,25.0,238.0,151010,,,A*42
$GPRMC,000357.9,A,3258.091012,N,11634.807756,W,27.8,209.1,151010,,,A*4A
$GPRMC,000400.9,A,3258.068909,N,11634.814896,W,28.3,193.8,151010,,,A*46
$GPRMC,000403.9,A,3258.041740,N,11634.815608,W,28.9,180.2,151010,,,A*47
$GPRMC,000406.9,A,3258.016979,N,11634.814515,W,29.5,178.7,151010,,,A*45
$GPRMC,000409.9,A,3257.990107,N,11634.813495,W,28.6,186.0,151010,,,A*49
$GPRMC,000412.9,A,3257.966733,N,11634.815174,W,26.6,182.7,151010,,,A*4A
$GPRMC,000415.9,A,3257.944680,N,11634.810919,W,29.1,164.6,151010,,,A*43
$GPRMC,000418.9,A,3257.919013,N,11634.800512,W,30.5,165.0,151010,,,A*47
$GPRMC,000421.9,A,3257.895503,N,11634.790032,W,29.3,159.5,151010,,,A*49
$GPRMC,000424.9,A,3257.874161,N,11634.783493,W,25.9,172.8,151010,,,A*4C
$GPRMC,000427.9,A,3257.853810,N,11634.786958,W,24.3,189.7,151010,,,A*4A
$GPRMC,000430.9,A,3257.829732,N,11634.787869,W,24.8,174.1,151010,,,A*43
$GPRMC,000433.9,A,3257.810167,N,11634.781635,W,26.1,166.1,151010,,,A*45
$GPRMC,000436.9,A,3257.785235,N,11634.779150,W,28.3,175.6,151010,,,A*4D
$GPRMC,000439.9,A,3257.762819,N,11634.775212,W,28.0,170.9,151010,,,A*4F
$GPRMC,000442.9,A,3257.739188,N,11634.767073,W,29.8,166.4,151010,,,A*49
$GPRMC,000445.9,A,3257.712718,N,11634.759456,W,30.1,168.9,151010,,,A*44
$GPRMC,000449.2,A,3257.682817,N,11634.757317,W,30.7,178.1,151010,,,A*48
$GPRMC,000452.2,A,3257.655714,N,11634.757748,W,32.4,179.2,151010,,,A*49
$GPRMC,000455.2,A,3257.627910,N,11634.756961,W,34.2,177.1,151010,,,A*48
$GPRMC,000458.2,A,3257.598327,N,11634.754312,W,34.0,177.7,151010,,,A*44
$GPRMC,000501.2,A,3257.572819,N,11634.753804,W,27.9,180.2,151010,,,A*46
$GPRMC,000504.2,A,3257.559469,N,11634.753445,W,11.4,179.6,151010,,,A*42
$GPRMC,000507.2,A,3257.553323,N,11634.752866,W,5.0,172.4,151010,,,A*76
$GPRMC,000552.2,A,3257.550799,N,11634.752496,W,8.3,164.7,151010,,,A*79
$GPRMC,000555.2,A,3257.540097,N,11634.750023,W,15.9,168.0,151010,,,A*43
$GPRMC,000558.2,A,3257.524762,N,11634.746210,W,21.2,170.2,151010,,,A*43
$GPRMC,000601.2,A,3257.505334,N,11634.744255,W,25.1,177.3,151010,,,A*4A
$GPRMC,000604.2,A,3257.482727,N,11634.747016,W,26.9,185.6,151010,,,A*42
$GPRMC,000607.2,A,3257.461628,N,11634.746127,W,24.7,174.3,151010,,,A*47
$GPRMC,000610.2,A,3257.445471,N,11634.734729,W,23.1,148.7,151010,,,A*4E
$GPRMC,000613.2,A,3257.431339,N,11634.710198,W,29.6,137.6,151010,,,A*4B
$GPRMC,000616.2,A,3257.411140,N,11634.692168,W,31.5,148.1,151010,,,A*41
$GPRMC,000619.2,A,3257.387389,N,11634.684650,W,29.5,171.0,151010,,,A*48
$GPRMC,000622.2,A,3257.362214,N,11634.690873,W,31.4,196.0,151010,,,A*45
$GPRMC,000625.2,A,3257.341244,N,11634.697394,W,23.4,191.0,151010,,,A*47
$GPRMC,000628.2,A,3257.321762,N,11634.693567,W,23.4,166.0,151010,,,A*4B
$GPRMC,000631.2,A,3257.308498,N,11634.665658,W,28.5,123.2,151010,,,A*41
$GPRMC,000634.2,A,3257.293757,N,11634.640665,W,29.5,135.2,151010,,,A*48
$GPRMC,000637.2,A,3257.273305,N,11634.626222,W,28.0,153.5,151010,,,A*42
$GPRMC,000640.2,A,3257.247722,N,11634.624644,W,29.8,179.0,151010,,,A*46
$GPRMC,000643.2,A,3257.223439,N,11634.634982,W,28.9,202.0,151010,,,A*45
$GPRMC,000646.2,A,3257.203946,N,11634.652327,W,30.8,214.6,151010,,,A*4B
$GPRMC,000649.2,A,3257.196980,N,11634.671642,W,17.5,219.4,151010,,,A*41
$GPRMC,000652.2,A,3257.183385,N,11634.681734,W,19.8,208.7,151010,,,A*4F
$GPRMC,000655.2,A,3257.178784,N,11634.675269,W,6.1,151.6,151010,,,A*76
$GPRMC,000658.2,A,3257.170951,N,11634.640913,W,23.2,115.0,151010,,,A*47
$GPRMC,000701.2,A,3257.156909,N,11634.611660,W,20.1,147.9,151010,,,A*42
$GPRMC,000704.2,A,3257.140611,N,11634.610432,W,20.9,179.6,151010,,,A*48
$GPRMC,000707.2,A,3257.121921,N,11634.612127,W,22.4,164.7,151010,,,A*41
$GPRMC,000710.2,A,3257.104790,N,11634.599663,W,24.8,146.0,151010,,,A*4E
$GPRMC,000713.2,A,3257.085738,N,11634.586359,W,25.7,154.2,151010,,,A*4A
$GPRMC,000716.2,A,3257.059982,N,11634.586840,W,31.5,191.0,151010,,,A*4E
$GPRMC,000719.2,A,3257.035636,N,11634.593337,W,29.1,195.3,151010,,,A*4E
$GPRMC,000722.2,A,3257.015933,N,11634.610497,W,32.3,220.7,151010,,,A*4A
$GPRMC,000725.2,A,3256.995018,N,11634.631316,W,33.3,219.1,151010,,,A*4D
$GPRMC,000728.2,A,3256.968821,N,11634.646728,W,33.9,199.3,151010,,,A*4A
$GPRMC,000731.2,A,3256.943355,N,11634.660003,W,34.6,213.5,151010,,,A*46
$GPRMC,000734.2,A,3256.920814,N,11634.680387,W,33.5,216.9,151010,,,A*44
$GPRMC,000737.2,A,3256.904583,N,11634.695654,W,21.9,216.8,151010,,,A*43
$GPRMC,000740.2,A,3256.892284,N,11634.704134,W,20.0,211.0,151010,,,A*42
$GPRMC,000743.2,A,3256.880587,N,11634.704714,W,14.3,185.7,151010,,,A*4F
$GPRMC,000746.2,A,3256.878228,N,11634.677129,W,18.5,101.4,151010,,,A*47
$GPRMC,000749.2,A,3256.877351,N,11634.656994,W,19.9,94.9,151010,,,A*78
$GPRMC,000752.9,A,3256.882183,N,11634.634586,W,17.4,85.7,151010,,,A*78
$GPRMC,000755.2,A,3256.882615,N,11634.625482,W,9.1,100.8,151010,,,A*70
$GPRMC,000758.2,A,3256.883055,N,11634.619413,W,8.5,98.9,151010,,,A*4D
$GPRMC,000801.1,A,3256.880761,N,11634.611268,W,9.4,110.6,151010,,,A*72
$GPRMC,000804.2,A,3256.876772,N,11634.589820,W,18.9,104.2,151010,,,A*47
$GPRMC,000807.2,A,3256.876286,N,11634.561662,W,27.2,94.2,151010,,,A*7B
$GPRMC,000810.2,A,3256.864564,N,11634.548319,W,20.8,123.9,151010,,,A*4C
$GPRMC,000814.2,A,3256.849392,N,11634.513964,W,29.5,107.7,151010,,,A*4A
$GPRMC,000817.9,A,3256.838433,N,11634.471033,W,35.0,109.8,151010,,,A*4F
$GPRMC,000820.2,A,3256.855331,N,11634.450211,W,31.8,74.1,151010,,,A*71
$GPRMC,000823.2,A,3256.881984,N,11634.427542,W,36.1,53.3,151010,,,A*77
$GPRMC,000827.2,A,3256.906512,N,11634.390917,W,33.6,55.1,151010,,,A*7F
$GPRMC,000830.2,A,3256.912564,N,11634.365113,W,25.0,73.4,151010,,,A*7B
$GPRMC,000833.2,A,3256.901312,N,11634.341196,W,18.7,109.7,151010,,,A*40
$GPRMC,000836.2,A,3256.871442,N,11634.324971,W,31.3,149.2,151010,,,A*4D
$GPRMC,000839.2,A,3256.853143,N,11634.304142,W,30.4,132.9,151010,,,A*4D
$GPRMC,000842.9,A,3256.826408,N,11634.279435,W,32.6,151.0,151010,,,A*40
$GPRMC,000845.2,A,3256.808004,N,11634.267938,W,32.9,153.3,151010,,,A*49
$GPRMC,000848.2,A,3256.779230,N,11634.250548,W,36.2,154.1,151010,,,A*4D
$GPRMC,000851.2,A,3256.757090,N,11634.230083,W,36.6,141.7,151010,,,A*43
$GPRMC,000854.2,A,3256.729913,N,11634.202486,W,41.3,140.4,151010,,,A*4A
$GPRMC,000857.2,A,3256.700410,N,11634.176843,W,42.1,142.9,151010,,,A*47
$GPRMC,000900.2,A,3256.671477,N,11634.152587,W,42.7,145.1,151010,,,A*48
$GPRMC,000903.2,A,3256.643758,N,11634.131162,W,40.5,147.9,151010,,,A*44
$GPRMC,000906.2,A,3256.614175,N,11634.108016,W,39.2,147.4,151010,,,A*46
$GPRMC,000909.2,A,3256.591817,N,11634.086116,W,36.7,142.8,151010,,,A*4F
$GPRMC,000912.2,A,3256.569307,N,11634.062382,W,35.8,139.7,151010,,,A*42
$GPRMC,000915.2,A,3256.550297,N,11634.033010,W,37.9,132.5,151010,,,A*41
$GPRMC,000918.2,A,3256.527085,N,11634.023609,W,35.2,155.7,151010,,,A*48
$GPRMC,000921.2,A,3256.499087,N,11634.014447,W,34.7,160.7,151010,,,A*4A
$GPRMC,000924.2,A,3256.473450,N,11633.991808,W,38.4,147.8,151010,,,A*44
$GPRMC,000927.2,A,3256.441760,N,11633.972975,W,42.0,155.5,151010,,,A*47
$GPRMC,000930.2,A,3256.414907,N,11633.956616,W,36.7,151.2,151010,,,A*45
$GPRMC,000933.2,A,3256.390568,N,11633.936976,W,35.3,145.7,151010,,,A*40
$GPRMC,000936.0,A,3256.368571,N,11633.910318,W,40.1,136.2,151010,,,A*4F
$GPRMC,000939.2,A,3256.342980,N,11633.876269,W,41.2,135.2,151010,,,A*4F
$GPRMC,000942.9,A,3256.317398,N,11633.849157,W,34.3,140.4,151010,,,A*4E
$GPRMC,000945.2,A,3256.305793,N,11633.832187,W,30.5,129.3,151010,,,A*45
$GPRMC,000948.9,A,3256.273288,N,11633.809374,W,37.6,146.1,151010,,,A*45
$GPRMC,000952.2,A,3256.243398,N,11633.801800,W,39.8,162.9,151010,,,A*48
$GPRMC,000955.2,A,3256.204829,N,11633.791127,W,43.5,164.5,151010,,,A*4D
$GPRMC,000959.2,A,3256.154452,N,11633.781234,W,43.7,169.1,151010,,,A*4C
$GPRMC,001002.2,A,3256.120814,N,11633.771659,W,40.8,166.2,151010,,,A*47
$GPRMC,001005.9,A,3256.083566,N,11633.757248,W,38.2,162.1,151010,,,A*49
$GPRMC,001008.2,A,3256.058823,N,11633.743990,W,38.9,159.8,151010,,,A*44
$GPRMC,001011.2,A,3256.025438,N,11633.752410,W,38.4,179.3,151010,,,A*41
$GPRMC,001014.2,A,3255.988102,N,11633.757121,W,42.6,184.1,151010,,,A*48
$GPRMC,001017.2,A,3255.949821,N,11633.762934,W,43.4,186.1,151010,,,A*45
$GPRMC,001020.2,A,3255.917357,N,11633.763957,W,41.2,182.9,151010,,,A*4C
$GPRMC,001024.2,A,3255.874439,N,11633.760529,W,38.7,178.3,151010,,,A*41
$GPRMC,001027.2,A,3255.842409,N,11633.756992,W,37.4,172.9,151010,,,A*41
$GPRMC,001030.2,A,3255.807743,N,11633.766180,W,40.9,192.5,151010,,,A*4C
$GPRMC,001033.2,A,3255.773861,N,11633.776129,W,41.7,192.0,151010,,,A*44
$GPRMC,001036.0,A,3255.743424,N,11633.783501,W,39.7,189.9,151010,,,A*45
$GPRMC,001039.2,A,3255.708081,N,11633.795449,W,41.9,193.8,151010,,,A*4D
$GPRMC,001042.0,A,3255.682184,N,11633.801336,W,38.0,189.9,151010,,,A*44
$GPRMC,001045.3,A,3255.650541,N,11633.810687,W,37.0,192.5,151010,,,A*44
$GPRMC,001048.3,A,3255.617525,N,11633.813676,W,39.3,185.2,151010,,,A*49
$GPRMC,001051.3,A,3255.577638,N,11633.822052,W,49.6,191.9,151010,,,A*45
$GPRMC,001054.0,A,3255.551181,N,11633.827139,W,41.4,191.1,151010,,,A*49
$GPRMC,001058.2,A,3255.505275,N,11633.839230,W,40.3,197.4,151010,,,A*4E
$GPRMC,001101.2,A,3255.477826,N,11633.865388,W,43.9,212.5,151010,,,A*46
$GPRMC,001105.2,A,3255.436541,N,11633.903291,W,49.1,219.0,151010,,,A*4F
$GPRMC,001108.2,A,3255.404368,N,11633.935627,W,46.5,219.0,151010,,,A*49
$GPRMC,001111.2,A,3255.379895,N,11633.960093,W,38.1,217.4,151010,,,A*4B
$GPRMC,001114.2,A,3255.363299,N,11633.972647,W,21.9,211.0,151010,,,A*4D
$GPRMC,001117.2,A,3255.353191,N,11633.981657,W,13.2,216.8,151010,,,A*4E
$GPRMC,001126.2,A,3255.348231,N,11633.987543,W,6.4,230.6,151010,,,A*77
$GPRMC,001129.2,A,3255.340513,N,11634.000082,W,20.0,232.0,151010,,,A*4A
$GPRMC,001132.2,A,3255.325501,N,11634.018337,W,30.3,222.7,151010,,,A*40
$GPRMC,001135.9,A,3255.298325,N,11634.046574,W,36.4,220.1,151010,,,A*44
$GPRMC,001138.2,A,3255.277949,N,11634.066697,W,43.7,219.7,151010,,,A*42
$GPRMC,001141.9,A,3255.242774,N,11634.103501,W,44.0,221.9,151010,,,A*4A
$GPRMC,001144.2,A,3255.220256,N,11634.125789,W,45.5,220.9,151010,,,A*46
$GPRMC,001147.2,A,3255.193702,N,11634.156259,W,44.4,222.9,151010,,,A*44
$GPRMC,001150.2,A,3255.167506,N,11634.184003,W,40.0,225.6,151010,,,A*45
$GPRMC,001153.2,A,3255.143466,N,11634.209208,W,39.3,222.3,151010,,,A*47
$GPRMC,001156.0,A,3255.118362,N,11634.234710,W,42.9,221.7,151010,,,A*4E
$GPRMC,001159.2,A,3255.089295,N,11634.261326,W,41.2,217.0,151010,,,A*48
$GPRMC,001202.2,A,3255.058393,N,11634.283950,W,43.1,211.9,151010,,,A*47
$GPRMC,001205.2,A,3255.023556,N,11634.294196,W,43.3,194.0,151010,,,A*42
$GPRMC,001208.2,A,3254.987507,N,11634.298967,W,46.1,191.8,151010,,,A*4D
$GPRMC,001211.2,A,3254.952587,N,11634.291337,W,41.6,174.7,151010,,,A*47
$GPRMC,001214.2,A,3254.919229,N,11634.291398,W,40.2,178.1,151010,,,A*44
$GPRMC,001217.2,A,3254.889612,N,11634.296761,W,38.1,185.7,151010,,,A*4E
$GPRMC,001220.2,A,3254.857861,N,11634.335298,W,45.7,222.2,151010,,,A*4F
$GPRMC,001223.2,A,3254.829923,N,11634.366572,W,45.9,220.3,151010,,,A*4A
$GPRMC,001226.0,A,3254.805620,N,11634.395206,W,43.0,217.3,151010,,,A*4C
$GPRMC,001229.0,A,3254.769563,N,11634.412876,W,46.3,203.5,151010,,,A*42
$GPRMC,001232.2,A,3254.728381,N,11634.425461,W,45.5,197.3,151010,,,A*46
$GPRMC,001235.2,A,3254.690104,N,11634.440418,W,47.9,197.7,151010,,,A*4B
$GPRMC,001238.2,A,3254.652218,N,11634.453934,W,50.1,196.5,151010,,,A*4A
$GPRMC,001241.2,A,3254.617692,N,11634.469748,W,43.9,199.5,151010,,,A*4A
$GPRMC,001245.2,A,3254.574774,N,11634.494918,W,42.5,206.8,151010,,,A*4D
$GPRMC,001248.2,A,3254.546352,N,11634.524140,W,47.3,221.9,151010,,,A*49
$GPRMC,001251.2,A,3254.536678,N,11634.568637,W,45.2,244.6,151010,,,A*4B
$GPRMC,001254.9,A,3254.533142,N,11634.624059,W,43.9,260.7,151010,,,A*41
$GPRMC,001258.2,A,3254.527905,N,11634.671273,W,43.8,263.7,151010,,,A*40
$GPRMC,001301.9,A,3254.500629,N,11634.709272,W,40.1,237.8,151010,,,A*49
$GPRMC,001304.2,A,3254.486377,N,11634.735766,W,41.2,231.3,151010,,,A*46
$GPRMC,001307.2,A,3254.460312,N,11634.752349,W,33.7,211.7,151010,,,A*40
$GPRMC,001310.0,A,3254.439797,N,11634.769312,W,31.9,212.0,151010,,,A*4F
$GPRMC,001313.2,A,3254.426363,N,11634.788548,W,22.7,231.4,151010,,,A*40
$GPRMC,001316.2,A,3254.391285,N,11634.795596,W,31.2,205.5,151010,,,A*49
$GPRMC,001319.2,A,3254.358654,N,11634.816766,W,42.1,214.9,151010,,,A*49
$GPRMC,001322.2,A,3254.325734,N,11634.842097,W,44.7,212.3,151010,,,A*48
$GPRMC,001326.0,A,3254.286264,N,11634.859701,W,41.3,202.0,151010,,,A*47
$GPRMC,001329.0,A,3254.256065,N,11634.849628,W,38.4,185.5,151010,,,A*4D
$GPRMC,001332.2,A,3254.224864,N,11634.844367,W,39.6,177.8,151010,,,A*49
$GPRMC,001335.0,A,3254.201172,N,11634.834180,W,36.6,167.9,151010,,,A*46
$GPRMC,001338.2,A,3254.173312,N,11634.821515,W,35.0,158.0,151010,,,A*47
$GPRMC,001341.2,A,3254.139500,N,11634.803822,W,39.5,159.2,151010,,,A*41
$GPRMC,001344.2,A,3254.108954,N,11634.805360,W,37.6,181.4,151010,,,A*4E
$GPRMC,001347.2,A,3254.077602,N,11634.814710,W,40.5,190.3,151010,,,A*4F
$GPRMC,001350.2,A,3254.043056,N,11634.819229,W,40.9,187.0,151010,,,A*42
$GPRMC,001353.2,A,3254.006943,N,11634.827842,W,43.0,186.4,151010,,,A*48
$GPRMC,001356.1,A,3253.975961,N,11634.839777,W,41.7,190.4,151010,,,A*40
$GPRMC,001359.2,A,3253.940533,N,11634.842185,W,39.5,179.8,151010,,,A*40
$GPRMC,001403.2,A,3253.899052,N,11634.836195,W,36.5,172.0,151010,,,A*41
$GPRMC,001406.0,A,3253.876207,N,11634.831961,W,31.9,175.9,151010,,,A*44
$GPRMC,001409.2,A,3253.845009,N,11634.805957,W,36.7,148.1,151010,,,A*48
$GPRMC,001412.0,A,3253.817496,N,11634.778720,W,38.4,141.1,151010,,,A*4A
$GPRMC,001415.2,A,3253.791239,N,11634.753455,W,38.1,139.5,151010,,,A*4B
$GPRMC,001418.9,A,3253.761651,N,11634.733240,W,33.5,142.7,151010,,,A*4D
$GPRMC,001421.2,A,3253.730562,N,11634.729700,W,42.9,167.9,151010,,,A*42
$GPRMC,001424.2,A,3253.692506,N,11634.728900,W,42.3,171.4,151010,,,A*43
$GPRMC,001427.2,A,3253.658522,N,11634.720610,W,40.5,166.4,151010,,,A*44
$GPRMC,001430.2,A,3253.629690,N,11634.709031,W,35.9,157.2,151010,,,A*4A
$GPRMC,001433.2,A,3253.593031,N,11634.684501,W,45.0,153.6,151010,,,A*4A
$GPRMC,001436.2,A,3253.558673,N,11634.660045,W,48.1,148.8,151010,,,A*4F
$GPRMC,001439.2,A,3253.523952,N,11634.635219,W,49.9,151.0,151010,,,A*42
$GPRMC,001442.9,A,3253.477467,N,11634.607519,W,50.6,153.0,151010,,,A*4D
$GPRMC,001448.2,A,3253.419003,N,11634.579020,W,44.8,160.3,151010,,,A*4F
$GPRMC,001451.2,A,3253.379700,N,11634.569226,W,44.5,167.5,151010,,,A*4B
$GPRMC,001454.2,A,3253.339073,N,11634.560495,W,49.7,171.2,151010,,,A*41
$GPRMC,001457.2,A,3253.299717,N,11634.551613,W,48.5,168.8,151010,,,A*43
$GPRMC,001503.0,A,3253.231346,N,11634.536113,W,45.3,171.5,151010,,,A*4B
$GPRMC,001506.2,A,3253.193645,N,11634.519115,W,45.3,158.4,151010,,,A*40
$GPRMC,001509.2,A,3253.159170,N,11634.501666,W,45.1,156.4,151010,,,A*4E
$GPRMC,001512.2,A,3253.125877,N,11634.478766,W,43.7,148.1,151010,,,A*45
$GPRMC,001515.2,A,3253.094224,N,11634.480022,W,38.7,167.9,151010,,,A*4C
$GPRMC,001518.9,A,3253.056633,N,11634.494976,W,37.2,191.8,151010,,,A*49
$GPRMC,001521.9,A,3253.031413,N,11634.519463,W,39.2,212.0,151010,,,A*41
$GPRMC,001524.2,A,3253.011024,N,11634.536232,W,37.8,213.5,151010,,,A*42
$GPRMC,001527.2,A,3252.991474,N,11634.557713,W,31.7,221.3,151010,,,A*4F
$GPRMC,001530.2,A,3252.980991,N,11634.583945,W,32.9,238.7,151010,,,A*4A
$GPRMC,001533.2,A,3252.973879,N,11634.622916,W,36.6,254.4,151010,,,A*4E
$GPRMC,001536.2,A,3252.964624,N,11634.664598,W,42.7,253.5,151010,,,A*47
$GPRMC,001539.0,A,3252.957356,N,11634.701338,W,41.4,258.7,151010,,,A*4D
$GPRMC,001542.9,A,3252.932464,N,11634.744428,W,37.5,243.6,151010,,,A*41
$GPRMC,001545.2,A,3252.907585,N,11634.772968,W,45.2,232.1,151010,,,A*4A
$GPRMC,001548.9,A,3252.882476,N,11634.809600,W,37.8,228.0,151010,,,A*4A
$GPRMC,001551.9,A,3252.855459,N,11634.833373,W,39.7,220.3,151010,,,A*47
$GPRMC,001554.9,A,3252.834825,N,11634.865703,W,40.2,228.2,151010,,,A*40
$GPRMC,001557.2,A,3252.816695,N,11634.892040,W,43.4,229.2,151010,,,A*41
$GPRMC,001600.2,A,3252.791238,N,11634.920758,W,46.2,225.3,151010,,,A*4B
$GPRMC,001603.9,A,3252.776723,N,11634.953367,W,31.7,244.0,151010,,,A*48
$GPRMC,001606.9,A,3252.766897,N,11634.985396,W,33.7,246.2,151010,,,A*4B
$GPRMC,001615.2,A,3252.828039,N,11635.045634,W,28.5,309.6,151010,,,A*44
$GPRMC,001618.2,A,3252.832916,N,11635.072196,W,27.2,282.0,151010,,,A*41
$GPRMC,001621.9,A,3252.831751,N,11635.095924,W,18.8,278.7,151010,,,A*42
$GPRMC,001630.2,A,3252.744862,N,11635.080713,W,33.6,171.0,151010,,,A*4F
$GPRMC,001633.9,A,3252.700700,N,11635.080846,W,33.1,186.9,151010,,,A*45
$GPRMC,001636.9,A,3252.677869,N,11635.096648,W,31.3,212.9,151010,,,A*48
$GPRMC,001639.9,A,3252.654390,N,11635.117494,W,30.8,209.4,151010,,,A*4D
$GPRMC,001642.9,A,3252.632465,N,11635.134039,W,30.5,212.6,151010,,,A*4B
$GPRMC,001645.0,A,3252.615744,N,11635.144007,W,32.4,211.0,151010,,,A*4C
$GPRMC,001648.9,A,3252.594384,N,11635.172254,W,29.8,225.5,151010,,,A*4F
$GPRMC,001651.9,A,3252.571454,N,11635.188620,W,30.9,212.5,151010,,,A*49
$GPRMC,001654.9,A,3252.551555,N,11635.210175,W,31.8,222.7,151010,,,A*4A
$GPRMC,001657.9,A,3252.543037,N,11635.239264,W,30.1,250.7,151010,,,A*4E
$GPRMC,001701.3,A,3252.528748,N,11635.266727,W,32.0,234.5,151010,,,A*4F
$GPRMC,001704.2,A,3252.502589,N,11635.281042,W,35.8,204.0,151010,,,A*48
$GPRMC,001708.2,A,3252.465203,N,11635.297059,W,34.6,200.7,151010,,,A*40
$GPRMC,001711.2,A,3252.433102,N,11635.317153,W,40.6,206.4,151010,,,A*4D
$GPRMC,001714.9,A,3252.394133,N,11635.346020,W,43.6,211.1,151010,,,A*4A
$GPRMC,001717.2,A,3252.370554,N,11635.353906,W,38.7,203.0,151010,,,A*4B
$GPRMC,001720.2,A,3252.336224,N,11635.357942,W,36.8,193.6,151010,,,A*44
$GPRMC,001723.0,A,3252.302643,N,11635.357996,W,41.1,188.3,151010,,,A*48
$GPRMC,001726.1,A,3252.264531,N,11635.364104,W,44.4,188.8,151010,,,A*43
$GPRMC,001730.0,A,3252.215157,N,11635.375886,W,45.5,194.1,151010,,,A*40
$GPRMC,001733.2,A,3252.182617,N,11635.391350,W,38.1,199.2,151010,,,A*45
$GPRMC,001736.2,A,3252.155577,N,11635.404113,W,36.5,200.1,151010,,,A*4B
$GPRMC,001739.9,A,3252.122166,N,11635.422544,W,35.9,199.5,151010,,,A*41
$GPRMC,001742.2,A,3252.101187,N,11635.439120,W,39.3,205.8,151010,,,A*49
$GPRMC,001745.2,A,3252.072383,N,11635.453064,W,38.5,200.0,151010,,,A*4A
$GPRMC,001748.9,A,3252.034172,N,11635.465694,W,38.0,196.8,151010,,,A*4F
$GPRMC,001751.0,A,3252.012453,N,11635.475620,W,40.5,200.9,151010,,,A*45
$GPRMC,001754.2,A,3251.977397,N,11635.490838,W,39.8,195.4,151010,,,A*49
$GPRMC,001758.2,A,3251.939171,N,11635.509348,W,36.0,204.2,151010,,,A*42
$GPRMC,001801.9,A,3251.906961,N,11635.530371,W,35.3,204.3,151010,,,A*4E
$GPRMC,001805.2,A,3251.872840,N,11635.527719,W,40.2,175.6,151010,,,A*4E
$GPRMC,001808.2,A,3251.839828,N,11635.522797,W,40.2,178.1,151010,,,A*4B
$GPRMC,001811.2,A,3251.807073,N,11635.528438,W,37.9,191.5,151010,,,A*4C
$GPRMC,001815.2,A,3251.771170,N,11635.555734,W,36.9,213.8,151010,,,A*44
$GPRMC,001818.2,A,3251.746730,N,11635.578453,W,37.5,212.4,151010,,,A*42
$GPRMC,001821.9,A,3251.713494,N,11635.598076,W,35.6,203.2,151010,,,A*44
$GPRMC,001824.9,A,3251.684308,N,11635.605969,W,35.2,198.0,151010,,,A*4B
$GPRMC,001827.9,A,3251.655574,N,11635.619198,W,36.0,199.8,151010,,,A*4A
$GPRMC,001830.9,A,3251.629478,N,11635.637053,W,36.3,204.2,151010,,,A*4E
$GPRMC,001833.2,A,3251.606335,N,11635.645242,W,38.8,200.7,151010,,,A*46
$GPRMC,001836.9,A,3251.569557,N,11635.660105,W,37.8,196.6,151010,,,A*45
$GPRMC,001839.9,A,3251.538854,N,11635.668992,W,38.3,191.6,151010,,,A*4D
$GPRMC,001842.9,A,3251.506238,N,11635.666936,W,37.2,180.7,151010,,,A*43
$GPRMC,001845.9,A,3251.473663,N,11635.666061,W,38.5,176.7,151010,,,A*47
$GPRMC,001848.2,A,3251.447704,N,11635.663405,W,40.5,173.5,151010,,,A*4D
$GPRMC,001851.9,A,3251.410073,N,11635.660074,W,36.5,176.6,151010,,,A*4D
$GPRMC,001854.9,A,3251.383348,N,11635.661768,W,31.6,183.4,151010,,,A*49
$GPRMC,001857.9,A,3251.359314,N,11635.664785,W,30.0,188.7,151010,,,A*4D
$GPRMC,001901.2,A,3251.333697,N,11635.675525,W,29.0,199.1,151010,,,A*40
$GPRMC,001904.2,A,3251.318094,N,11635.682612,W,19.2,197.7,151010,,,A*4F
$GPRMC,001908.2,A,3251.305794,N,11635.703736,W,17.3,219.7,151010,,,A*4D
$GPRMC,001911.9,A,3251.294431,N,11635.718360,W,13.5,232.2,151010,,,A*48
$GPRMC,001914.2,A,3251.292732,N,11635.727442,W,13.4,253.7,151010,,,A*48
$GPRMC,002049.2,A,3251.286254,N,11635.726703,W,5.9,161.5,151010,,,A*77
$GPRMC,002052.2,A,3251.272269,N,11635.725610,W,15.3,183.8,151010,,,A*42
$GPRMC,002055.2,A,3251.252560,N,11635.727874,W,26.3,180.8,151010,,,A*44
$GPRMC,002058.2,A,3251.228712,N,11635.725358,W,31.8,169.7,151010,,,A*41
$GPRMC,002101.2,A,3251.202410,N,11635.716549,W,31.4,158.5,151010,,,A*4F
$GPRMC,002104.2,A,3251.180112,N,11635.702659,W,28.4,146.3,151010,,,A*42
$GPRMC,002107.2,A,3251.163178,N,11635.687036,W,23.5,140.6,151010,,,A*4A
$GPRMC,002110.2,A,3251.152457,N,11635.679535,W,11.5,159.1,151010,,,A*4F
$GPRMC,002113.2,A,3251.148063,N,11635.678794,W,6.1,181.1,151010,,,A*7B
$GPRMC,002116.2,A,3251.136614,N,11635.684497,W,21.0,215.3,151010,,,A*4A
$GPRMC,002119.2,A,3251.120536,N,11635.699330,W,29.0,219.5,151010,,,A*45
$GPRMC,002122.2,A,3251.100110,N,11635.719957,W,34.6,220.1,151010,,,A*49
$GPRMC,002125.2,A,3251.074350,N,11635.744461,W,41.7,219.4,151010,,,A*46
$GPRMC,002128.2,A,3251.046398,N,11635.772344,W,45.7,219.6,151010,,,A*4D
$GPRMC,002131.2,A,3251.015602,N,11635.802550,W,48.2,219.5,151010,,,A*45
$GPRMC,002134.2,A,3250.984429,N,11635.834513,W,49.3,220.3,151010,,,A*45
$GPRMC,002137.2,A,3250.952726,N,11635.866017,W,50.1,220.3,151010,,,A*4D
$GPRMC,002140.2,A,3250.919011,N,11635.898090,W,51.0,219.2,151010,,,A*44
$GPRMC,002143.2,A,3250.885763,N,11635.930252,W,51.7,218.1,151010,,,A*4B
$GPRMC,002146.2,A,3250.849746,N,11635.958339,W,51.9,209.7,151010,,,A*43
$GPRMC,002149.2,A,3250.811382,N,11635.981615,W,51.8,204.9,151010,,,A*40
$GPRMC,002152.2,A,3250.772117,N,11636.002957,W,51.0,204.9,151010,,,A*4E
$GPRMC,002155.2,A,3250.732702,N,11636.024147,W,52.8,203.8,151010,,,A*4F
$GPRMC,002158.2,A,3250.693897,N,11636.045392,W,51.1,205.0,151010,,,A*42
$GPRMC,002201.2,A,3250.656490,N,11636.065508,W,49.2,204.5,151010,,,A*46
$GPRMC,002204.2,A,3250.625829,N,11636.099015,W,50.4,218.3,151010,,,A*46
$GPRMC,002207.2,A,3250.599506,N,11636.144480,W,54.6,238.7,151010,,,A*48
$GPRMC,002210.2,A,3250.586952,N,11636.196390,W,54.0,253.8,151010,,,A*40
$GPRMC,002213.2,A,3250.573594,N,11636.248459,W,55.3,253.2,151010,,,A*45
$GPRMC,002216.2,A,3250.560877,N,11636.301567,W,55.3,253.9,151010,,,A*49
$GPRMC,002219.2,A,3250.548258,N,11636.354296,W,55.6,253.8,151010,,,A*46
$GPRMC,002222.2,A,3250.535427,N,11636.406929,W,54.4,253.8,151010,,,A*46
$GPRMC,002225.2,A,3250.523357,N,11636.457910,W,53.1,254.1,151010,,,A*44
$GPRMC,002228.2,A,3250.512287,N,11636.505860,W,49.6,254.2,151010,,,A*48
$GPRMC,002231.2,A,3250.505541,N,11636.549611,W,45.5,259.4,151010,,,A*4F
$GPRMC,002234.2,A,3250.503539,N,11636.593747,W,44.5,269.8,151010,,,A*48
$GPRMC,002237.2,A,3250.509838,N,11636.633850,W,42.7,282.0,151010,,,A*44
$GPRMC,002240.2,A,3250.513657,N,11636.679600,W,43.8,272.0,151010,,,A*4C
$GPRMC,002243.2,A,3250.506158,N,11636.723248,W,45.4,248.2,151010,,,A*44
$GPRMC,002246.2,A,3250.487780,N,11636.760794,W,40.0,230.3,151010,,,A*46
$GPRMC,002249.2,A,3250.463790,N,11636.787372,W,40.3,215.9,151010,,,A*49
$GPRMC,002252.2,A,3250.437456,N,11636.811055,W,38.7,216.5,151010,,,A*49
$GPRMC,002255.9,A,3250.406368,N,11636.837701,W,36.8,215.5,151010,,,A*4D
$GPRMC,002258.9,A,3250.379650,N,11636.863164,W,40.4,217.8,151010,,,A*47
$GPRMC,002301.2,A,3250.358268,N,11636.883590,W,41.6,219.0,151010,,,A*49
$GPRMC,002304.0,A,3250.336991,N,11636.911679,W,41.5,226.7,151010,,,A*4D
$GPRMC,002308.2,A,3250.304066,N,11636.954629,W,42.7,229.3,151010,,,A*4D
$GPRMC,002311.9,A,3250.277886,N,11636.999177,W,44.0,234.1,151010,,,A*4F
$GPRMC,002314.9,A,3250.254546,N,11637.036762,W,45.7,236.7,151010,,,A*47
$GPRMC,002317.9,A,3250.237310,N,11637.079110,W,47.2,242.3,151010,,,A*4C
$GPRMC,002320.9,A,3250.219226,N,11637.121167,W,47.5,239.7,151010,,,A*43
$GPRMC,002323.9,A,3250.194952,N,11637.161085,W,50.3,233.1,151010,,,A*4B
$GPRMC,002326.2,A,3250.174631,N,11637.188248,W,50.5,229.0,151010,,,A*49
$GPRMC,002329.9,A,3250.139773,N,11637.233812,W,48.1,229.4,151010,,,A*4C
$GPRMC,002332.9,A,3250.112399,N,11637.267817,W,48.7,227.8,151010,,,A*4F
$GPRMC,002335.2,A,3250.089265,N,11637.294696,W,50.4,223.3,151010,,,A*4C
$GPRMC,002338.2,A,3250.056374,N,11637.321653,W,47.8,208.4,151010,,,A*40
$GPRMC,002341.2,A,3250.019172,N,11637.338059,W,48.2,197.8,151010,,,A*49
$GPRMC,002344.2,A,3249.979975,N,11637.353218,W,50.5,197.7,151010,,,A*4F
$GPRMC,002347.2,A,3249.939731,N,11637.369016,W,50.9,198.8,151010,,,A*4F
$GPRMC,002350.2,A,3249.901471,N,11637.384652,W,47.0,199.7,151010,,,A*41
$GPRMC,002353.2,A,3249.865779,N,11637.400266,W,45.1,201.7,151010,,,A*43
$GPRMC,002356.2,A,3249.832606,N,11637.416438,W,41.5,203.0,151010,,,A*42
$GPRMC,002359.2,A,3249.804161,N,11637.431588,W,35.3,203.7,151010,,,A*43
$GPRMC,002402.2,A,3249.780273,N,11637.447581,W,31.8,212.0,151010,,,A*49
$GPRMC,002405.0,A,3249.763128,N,11637.467474,W,30.6,226.7,151010,,,A*4A
$GPRMC,002408.2,A,3249.748057,N,11637.496304,W,35.6,239.6,151010,,,A*41
$GPRMC,002411.2,A,3249.743917,N,11637.527219,W,32.6,259.9,151010,,,A*47
$GPRMC,002414.2,A,3249.750167,N,11637.559688,W,36.3,288.7,151010,,,A*49
$GPRMC,002417.2,A,3249.763649,N,11637.590746,W,36.4,302.0,151010,,,A*44
$GPRMC,002420.2,A,3249.786856,N,11637.617548,W,38.0,316.3,151010,,,A*47
$GPRMC,002423.0,A,3249.812349,N,11637.642821,W,43.3,319.7,151010,,,A*47
$GPRMC,002426.9,A,3249.853933,N,11637.681136,W,47.7,322.3,151010,,,A*45
$GPRMC,002429.9,A,3249.887288,N,11637.715580,W,53.9,317.6,151010,,,A*45
$GPRMC,002433.2,A,3249.921067,N,11637.760181,W,54.5,312.5,151010,,,A*41
$GPRMC,002436.2,A,3249.953392,N,11637.809052,W,57.7,307.3,151010,,,A*44
$GPRMC,002439.2,A,3249.981665,N,11637.855291,W,57.7,304.1,151010,,,A*4C
$GPRMC,002442.2,A,3250.005724,N,11637.903885,W,56.1,298.6,151010,,,A*40
$GPRMC,002445.2,A,3250.025609,N,11637.958823,W,58.5,293.8,151010,,,A*46
$GPRMC,002448.9,A,3250.047619,N,11638.028655,W,60.2,291.7,151010,,,A*4A
$GPRMC,002451.9,A,3250.065107,N,11638.080541,W,58.4,291.3,151010,,,A*47
$GPRMC,002454.9,A,3250.085036,N,11638.136049,W,58.9,291.8,151010,,,A*48
$GPRMC,002457.9,A,3250.101706,N,11638.188384,W,57.7,291.3,151010,,,A*4F
$GPRMC,002500.9,A,3250.119214,N,11638.239736,W,57.5,291.1,151010,,,A*47
$GPRMC,002503.9,A,3250.138339,N,11638.296083,W,58.6,291.6,151010,,,A*4E
$GPRMC,002506.9,A,3250.152034,N,11638.351669,W,58.5,288.0,151010,,,A*4C
$GPRMC,002509.9,A,3250.165324,N,11638.406021,W,59.7,285.9,151010,,,A*4D
$GPRMC,002512.9,A,3250.177842,N,11638.459728,W,59.2,284.1,151010,,,A*47
$GPRMC,002515.9,A,3250.191713,N,11638.517514,W,59.9,284.1,151010,,,A*4E
$GPRMC,002518.9,A,3250.204992,N,11638.574075,W,59.4,284.4,151010,,,A*44
$GPRMC,002521.9,A,3250.218228,N,11638.632898,W,60.3,284.2,151010,,,A*48
$GPRMC,002524.9,A,3250.229409,N,11638.690845,W,59.8,283.0,151010,,,A*46
$GPRMC,002527.9,A,3250.241131,N,11638.746722,W,59.6,284.4,151010,,,A*4C
$GPRMC,002530.9,A,3250.254245,N,11638.801032,W,58.1,285.3,151010,,,A*44
$GPRMC,002533.9,A,3250.268406,N,11638.856904,W,58.8,285.1,151010,,,A*4C
$GPRMC,002536.9,A,3250.280727,N,11638.914689,W,59.5,284.8,151010,,,A*46
$GPRMC,002539.9,A,3250.293656,N,11638.972765,W,58.9,284.8,151010,,,A*42
$GPRMC,002542.9,A,3250.308475,N,11639.036065,W,61.3,283.2,151010,,,A*4C
$GPRMC,002545.9,A,3250.318066,N,11639.095954,W,60.1,278.7,151010,,,A*4C
$GPRMC,002548.9,A,3250.320742,N,11639.150222,W,59.2,273.2,151010,,,A*4E
$GPRMC,002551.9,A,3250.320683,N,11639.209388,W,60.1,267.3,151010,,,A*49
$GPRMC,002554.9,A,3250.314483,N,11639.271096,W,61.2,262.0,151010,,,A*4E
$GPRMC,002557.9,A,3250.302792,N,11639.330355,W,60.7,256.2,151010,,,A*40
$GPRMC,002600.9,A,3250.289244,N,11639.391507,W,61.6,254.7,151010,,,A*40
$GPRMC,002603.9,A,3250.277351,N,11639.445842,W,59.6,253.7,151010,,,A*49
$GPRMC,002606.9,A,3250.267294,N,11639.504060,W,59.9,256.8,151010,,,A*4C
$GPRMC,002609.9,A,3250.258539,N,11639.561035,W,59.4,260.7,151010,,,A*4B
$GPRMC,002612.9,A,3250.253390,N,11639.616202,W,57.5,265.7,151010,,,A*40
$GPRMC,002615.9,A,3250.257471,N,11639.675548,W,58.1,273.4,151010,,,A*48
$GPRMC,002619.2,A,3250.262529,N,11639.740212,W,59.0,276.9,151010,,,A*42
$GPRMC,002622.9,A,3250.276920,N,11639.799904,W,54.8,284.2,151010,,,A*4A
$GPRMC,002625.9,A,3250.290900,N,11639.855689,W,56.9,285.0,151010,,,A*42
$GPRMC,002629.2,A,3250.305155,N,11639.920522,W,58.9,283.5,151010,,,A*4C
$GPRMC,002632.2,A,3250.316344,N,11639.977366,W,58.5,281.6,151010,,,A*4F
$GPRMC,002635.9,A,3250.328297,N,11640.054125,W,60.3,278.1,151010,,,A*4E
$GPRMC,002638.9,A,3250.329121,N,11640.109748,W,57.8,271.4,151010,,,A*4B
$GPRMC,002641.9,A,3250.330409,N,11640.173547,W,60.4,265.8,151010,,,A*43
$GPRMC,002644.9,A,3250.322206,N,11640.234682,W,59.7,258.8,151010,,,A*41
$GPRMC,002647.9,A,3250.310008,N,11640.291310,W,60.1,256.2,151010,,,A*46
$GPRMC,002650.9,A,3250.296994,N,11640.348475,W,59.9,254.3,151010,,,A*43
$GPRMC,002653.9,A,3250.283272,N,11640.408842,W,60.7,256.3,151010,,,A*4A
$GPRMC,002656.9,A,3250.278338,N,11640.465990,W,59.4,262.0,151010,,,A*4C
$GPRMC,002659.9,A,3250.274220,N,11640.524888,W,59.4,266.1,151010,,,A*4E
$GPRMC,002702.9,A,3250.274262,N,11640.583874,W,59.3,270.3,151010,,,A*4B
$GPRMC,002705.2,A,3250.275922,N,11640.628677,W,57.9,272.0,151010,,,A*43
$GPRMC,002708.2,A,3250.281436,N,11640.685187,W,57.6,276.8,151010,,,A*41
$GPRMC,002711.0,A,3250.286321,N,11640.737876,W,58.6,276.9,151010,,,A*4C
$GPRMC,002714.2,A,3250.292966,N,11640.801882,W,59.4,277.7,151010,,,A*4A
$GPRMC,002717.2,A,3250.298660,N,11640.859732,W,59.5,276.1,151010,,,A*45
$GPRMC,002720.2,A,3250.308572,N,11640.924737,W,61.4,277.1,151010,,,A*4C
$GPRMC,002724.2,A,3250.317853,N,11641.004546,W,60.5,277.6,151010,,,A*41
$GPRMC,002727.9,A,3250.325570,N,11641.079030,W,61.1,276.9,151010,,,A*41
$GPRMC,002730.9,A,3250.332301,N,11641.135533,W,59.8,275.0,151010,,,A*46
$GPRMC,002733.9,A,3250.336321,N,11641.192387,W,59.4,272.6,151010,,,A*4A
$GPRMC,002736.9,A,3250.336415,N,11641.251610,W,59.8,270.0,151010,,,A*40
$GPRMC,002739.9,A,3250.338935,N,11641.313547,W,60.5,270.0,151010,,,A*4F
$GPRMC,002742.9,A,3250.337251,N,11641.368976,W,59.0,269.0,151010,,,A*40
$GPRMC,002745.9,A,3250.336632,N,11641.428687,W,59.0,268.5,151010,,,A*41
$GPRMC,002748.9,A,3250.338017,N,11641.489489,W,59.9,270.0,151010,,,A*41
$GPRMC,002751.9,A,3250.335889,N,11641.545712,W,59.2,268.9,151010,,,A*40
$GPRMC,002754.9,A,3250.332596,N,11641.600587,W,57.6,266.9,151010,,,A*49
$GPRMC,002757.9,A,3250.331407,N,11641.655346,W,56.6,267.5,151010,,,A*47
$GPRMC,002800.9,A,3250.332743,N,11641.713440,W,58.0,269.4,151010,,,A*4F
$GPRMC,002803.9,A,3250.332775,N,11641.771811,W,59.1,269.0,151010,,,A*41
$GPRMC,002806.9,A,3250.332402,N,11641.832337,W,59.7,268.5,151010,,,A*42
$GPRMC,002809.9,A,3250.330543,N,11641.893663,W,60.2,269.3,151010,,,A*4C
$GPRMC,002812.9,A,3250.332067,N,11641.955166,W,60.2,269.8,151010,,,A*45
$GPRMC,002815.9,A,3250.332328,N,11642.015182,W,60.0,268.9,151010,,,A*4C
$GPRMC,002818.9,A,3250.331368,N,11642.075363,W,59.4,268.3,151010,,,A*49
$GPRMC,002821.9,A,3250.331410,N,11642.136661,W,60.4,267.6,151010,,,A*4A
$GPRMC,002824.9,A,3250.324817,N,11642.194443,W,59.4,261.7,151010,,,A*47
$GPRMC,002827.9,A,3250.313774,N,11642.254297,W,60.4,257.9,151010,,,A*4B
$GPRMC,002830.2,A,3250.304603,N,11642.298193,W,60.5,255.9,151010,,,A*45
$GPRMC,002833.9,A,3250.292474,N,11642.371349,W,60.6,258.9,151010,,,A*4C
$GPRMC,002837.2,A,3250.283448,N,11642.431210,W,58.9,257.2,151010,,,A*42
$GPRMC,002840.2,A,3250.272335,N,11642.489958,W,60.8,257.7,151010,,,A*4A
$GPRMC,002843.2,A,3250.261296,N,11642.549530,W,61.7,257.6,151010,,,A*43
$GPRMC,002846.0,A,3250.250951,N,11642.604261,W,61.9,257.4,151010,,,A*43
$GPRMC,002849.0,A,3250.240577,N,11642.664462,W,61.6,258.0,151010,,,A*42
$GPRMC,002852.9,A,3250.227448,N,11642.744688,W,62.7,257.3,151010,,,A*46
$GPRMC,002855.9,A,3250.213997,N,11642.802128,W,61.1,255.3,151010,,,A*4E
$GPRMC,002858.9,A,3250.200950,N,11642.860321,W,60.9,252.9,151010,,,A*41
$GPRMC,002901.9,A,3250.185931,N,11642.917109,W,61.9,249.1,151010,,,A*4F
$GPRMC,002904.9,A,3250.164454,N,11642.972161,W,61.4,243.8,151010,,,A*48
$GPRMC,002907.9,A,3250.138703,N,11643.025852,W,61.9,238.9,151010,,,A*40
$GPRMC,002910.9,A,3250.108207,N,11643.073695,W,61.9,234.5,151010,,,A*42
$GPRMC,002913.9,A,3250.078904,N,11643.126744,W,62.7,236.8,151010,,,A*41
$GPRMC,002916.2,A,3250.059587,N,11643.168693,W,63.3,240.5,151010,,,A*43
$GPRMC,002919.9,A,3250.038324,N,11643.240725,W,63.1,251.4,151010,,,A*49
$GPRMC,002922.9,A,3250.029255,N,11643.301542,W,61.0,262.1,151010,,,A*47
$GPRMC,002925.9,A,3250.028413,N,11643.361504,W,60.7,270.8,151010,,,A*4D
$GPRMC,002928.9,A,3250.032055,N,11643.421382,W,61.1,274.7,151010,,,A*4A
$GPRMC,002931.9,A,3250.038850,N,11643.483716,W,62.2,277.0,151010,,,A*40
$GPRMC,002934.9,A,3250.041521,N,11643.542390,W,61.6,274.4,151010,,,A*46
$GPRMC,002937.9,A,3250.045765,N,11643.605740,W,63.7,271.8,151010,,,A*40
$GPRMC,002940.9,A,3250.045751,N,11643.671321,W,64.1,268.3,151010,,,A*45
$GPRMC,002943.9,A,3250.041991,N,11643.734531,W,63.1,265.6,151010,,,A*48
$GPRMC,002946.9,A,3250.038836,N,11643.796307,W,62.3,267.4,151010,,,A*47
$GPRMC,002949.9,A,3250.039704,N,11643.858523,W,62.2,272.0,151010,,,A*4B
$GPRMC,002952.9,A,3250.042769,N,11643.919441,W,61.1,275.5,151010,,,A*45
$GPRMC,002955.2,A,3250.048430,N,11643.964635,W,61.6,277.8,151010,,,A*4F
$GPRMC,002958.2,A,3250.057719,N,11644.021945,W,62.4,280.8,151010,,,A*4A
$GPRMC,003001.2,A,3250.067548,N,11644.081862,W,62.4,280.8,151010,,,A*45
$GPRMC,003004.2,A,3250.077620,N,11644.142465,W,62.3,280.9,151010,,,A*4F
$GPRMC,003007.9,A,3250.089108,N,11644.215578,W,61.7,281.4,151010,,,A*4C
$GPRMC,003010.2,A,3250.095469,N,11644.266807,W,65.3,277.5,151010,,,A*47
$GPRMC,003013.9,A,3250.104569,N,11644.343283,W,63.5,276.3,151010,,,A*40
$GPRMC,003016.9,A,3250.106530,N,11644.403605,W,63.2,270.8,151010,,,A*48
