NMEA Sentence Code,UTC Time,Status,Latitude,Latitude Direction,Longitude,Longitude Direction,Speed (knots),Track Angle (degrees true),Date,MagneticVariation,Magnetic Variation Direction,[FAA Mode]-Optional,Checksum
$GPRMC,131942.000,A,3246.4445,N,11539.8933,W,52.07,269.76,110210,,*2E
$GPRMC,131945.000,A,3246.4443,N,11539.9447,W,52.02,269.80,110210,,*2C
$GPRMC,131948.000,A,3246.4443,N,11539.9961,W,52.12,270.20,110210,,*2B
$GPRMC,131951.000,A,3246.4446,N,11540.0476,W,52.18,270.45,110210,,*23
$GPRMC,131954.000,A,3246.4449,N,11540.0992,W,52.14,270.34,110210,,*24
$GPRMC,131957.000,A,3246.4446,N,11540.1512,W,52.13,269.29,110210,,*2E
$GPRMC,132000.000,A,3246.4443,N,11540.2027,W,52.25,269.88,110210,,*2D
$GPRMC,132003.000,A,3246.4445,N,11540.2542,W,52.09,270.19,110210,,*20
$GPRMC,132006.000,A,3246.4447,N,11540.3057,W,52.12,269.78,110210,,*22
$GPRMC,132009.000,A,3246.4446,N,11540.3572,W,52.11,269.61,110210,,*25
$GPRMC,132012.000,A,3246.4443,N,11540.4097,W,52.13,270.17,110210,,*28
$GPRMC,132015.000,A,3246.4444,N,11540.4611,W,52.09,270.09,110210,,*24
$GPRMC,132018.000,A,3246.4447,N,11540.5125,W,52.11,270.16,110210,,*2C
$GPRMC,132021.000,A,3246.4451,N,11540.5638,W,52.05,270.61,110210,,*2F
$GPRMC,132024.000,A,3246.4455,N,11540.6152,W,52.20,270.24,110210,,*20
$GPRMC,132027.000,A,3246.4456,N,11540.6667,W,52.18,269.97,110210,,*2A
$GPRMC,132030.000,A,3246.4456,N,11540.7181,W,52.18,269.90,110210,,*25
$GPRMC,132033.000,A,3246.4456,N,11540.7696,W,52.23,270.24,110210,,*28
$GPRMC,132036.000,A,3246.4458,N,11540.8211,W,52.17,270.33,110210,,*26
$GPRMC,132039.000,A,3246.4460,N,11540.8725,W,52.13,270.01,110210,,*25
$GPRMC,132042.000,A,3246.4461,N,11540.9240,W,52.12,269.90,110210,,*2E
$GPRMC,132045.000,A,3246.4462,N,11540.9756,W,52.29,270.13,110210,,*23
$GPRMC,132048.000,A,3246.4463,N,11541.0271,W,52.25,269.95,110210,,*2D
$GPRMC,132051.000,A,3246.4463,N,11541.0787,W,52.16,270.07,110210,,*2A
$GPRMC,132054.000,A,3246.4464,N,11541.1302,W,52.14,270.21,110210,,*26
$GPRMC,132057.000,A,3246.4466,N,11541.1816,W,52.08,270.01,110210,,*26
$GPRMC,132100.000,A,3246.4467,N,11541.2332,W,52.25,269.96,110210,,*23
$GPRMC,132103.000,A,3246.4468,N,11541.2849,W,52.51,270.35,110210,,*2A
$GPRMC,132106.000,A,3246.4470,N,11541.3369,W,52.67,269.98,110210,,*24
$GPRMC,132109.000,A,3246.4471,N,11541.3890,W,52.60,269.83,110210,,*2A
$GPRMC,132112.000,A,3246.4469,N,11541.4410,W,53.02,270.06,110210,,*2A
$GPRMC,132115.000,A,3246.4470,N,11541.4931,W,52.45,270.07,110210,,*28
$GPRMC,132118.000,A,3246.4473,N,11541.5450,W,52.42,270.24,110210,,*2B
$GPRMC,132121.000,A,3246.4475,N,11541.5969,W,52.59,270.05,110210,,*29
$GPRMC,132124.000,A,3246.4475,N,11541.6491,W,52.04,269.92,110210,,*2B
$GPRMC,132127.000,A,3246.4474,N,11541.7007,W,51.54,270.04,110210,,*22
$GPRMC,132130.000,A,3246.4475,N,11541.7519,W,51.29,270.15,110210,,*25
$GPRMC,132133.000,A,3246.4476,N,11541.8027,W,51.35,269.96,110210,,*2C
$GPRMC,132136.000,A,3246.4476,N,11541.8536,W,51.38,269.90,110210,,*27
$GPRMC,132139.000,A,3246.4475,N,11541.9044,W,51.40,269.82,110210,,*26
$GPRMC,132142.000,A,3246.4473,N,11541.9553,W,51.51,269.61,110210,,*22
$GPRMC,132145.000,A,3246.4470,N,11542.0062,W,51.88,269.84,110210,,*24
$GPRMC,132148.000,A,3246.4473,N,11542.0577,W,52.47,270.31,110210,,*2D
$GPRMC,132151.000,A,3246.4475,N,11542.1094,W,52.49,270.44,110210,,*26
$GPRMC,132154.000,A,3246.4479,N,11542.1611,W,52.26,270.42,110210,,*2B
$GPRMC,132157.000,A,3246.4481,N,11542.2129,W,52.18,270.13,110210,,*29
$GPRMC,132200.000,A,3246.4481,N,11542.2646,W,52.07,270.05,110210,,*2F
$GPRMC,132203.000,A,3246.4481,N,11542.3163,W,52.10,270.01,110210,,*2F
$GPRMC,132206.000,A,3246.4482,N,11542.3680,W,52.14,270.01,110210,,*27
$GPRMC,132209.000,A,3246.4483,N,11542.4195,W,52.20,270.41,110210,,*2E
$GPRMC,132212.000,A,3246.4482,N,11542.4707,W,52.03,269.78,110210,,*2B
$GPRMC,132216.000,A,3246.4484,N,11542.5392,W,52.23,269.99,110210,,*2D
$GPRMC,132219.000,A,3246.4484,N,11542.5907,W,52.28,269.81,110210,,*26
$GPRMC,132222.000,A,3246.4484,N,11542.6422,W,52.16,270.00,110210,,*2B
$GPRMC,132225.000,A,3246.4487,N,11542.6936,W,52.14,270.26,110210,,*21
$GPRMC,132228.000,A,3246.4488,N,11542.7450,W,52.10,270.05,110210,,*2A
$GPRMC,132231.000,A,3246.4488,N,11542.7964,W,52.13,269.94,110210,,*2B
$GPRMC,132234.000,A,3246.4492,N,11542.8479,W,52.11,270.48,110210,,*20
$GPRMC,132237.000,A,3246.4490,N,11542.8999,W,52.16,269.73,110210,,*25
$GPRMC,132240.000,A,3246.4489,N,11542.9516,W,52.09,269.70,110210,,*2A
$GPRMC,132243.000,A,3246.4490,N,11543.0032,W,52.16,270.38,110210,,*20
$GPRMC,132246.000,A,3246.4492,N,11543.0551,W,52.24,270.12,110210,,*2E
$GPRMC,132249.000,A,3246.4490,N,11543.1068,W,52.22,270.05,110210,,*2D
$GPRMC,132252.000,A,3246.4488,N,11543.1585,W,52.14,269.82,110210,,*2A
$GPRMC,132255.000,A,3246.4488,N,11543.2101,W,52.02,269.82,110210,,*21
$GPRMC,132258.000,A,3246.4488,N,11543.2616,W,52.17,270.26,110210,,*2F
$GPRMC,132300.000,A,3246.4489,N,11543.2960,W,52.17,270.17,110210,,*2E
$GPRMC,132303.000,A,3246.4490,N,11543.3477,W,52.20,270.04,110210,,*29
$GPRMC,132306.000,A,3246.4489,N,11543.3993,W,52.21,270.07,110210,,*21
$GPRMC,132309.000,A,3246.4490,N,11543.4509,W,52.18,270.10,110210,,*22
$GPRMC,132312.000,A,3246.4493,N,11543.5026,W,52.15,269.80,110210,,*2E
$GPRMC,132315.000,A,3246.4495,N,11543.5542,W,52.01,270.11,110210,,*2D
$GPRMC,132318.000,A,3246.4497,N,11543.6057,W,51.98,270.06,110210,,*25
$GPRMC,132321.000,A,3246.4499,N,11543.6571,W,52.02,270.01,110210,,*27
$GPRMC,132324.000,A,3246.4500,N,11543.7086,W,52.06,270.13,110210,,*28
$GPRMC,132327.000,A,3246.4502,N,11543.7602,W,52.20,270.08,110210,,*2D
$GPRMC,132330.000,A,3246.4504,N,11543.8119,W,52.20,270.05,110210,,*22
$GPRMC,132333.000,A,3246.4504,N,11543.8635,W,52.19,269.94,110210,,*22
$GPRMC,132336.000,A,3246.4506,N,11543.9151,W,52.14,270.21,110210,,*2A
$GPRMC,132339.000,A,3246.4508,N,11543.9667,W,52.14,270.01,110210,,*2B
$GPRMC,132342.000,A,3246.4510,N,11544.0180,W,52.40,270.20,110210,,*2C
$GPRMC,132346.000,A,3246.4512,N,11544.0867,W,52.18,270.07,110210,,*22
$GPRMC,132349.000,A,3246.4513,N,11544.1382,W,52.20,270.02,110210,,*23
$GPRMC,132352.000,A,3246.4514,N,11544.1897,W,52.19,270.11,110210,,*29
$GPRMC,132355.000,A,3246.4516,N,11544.2412,W,52.09,270.31,110210,,*2D
$GPRMC,132358.000,A,3246.4518,N,11544.2928,W,52.10,270.20,110210,,*22
$GPRMC,132400.000,A,3246.4519,N,11544.3272,W,52.12,269.84,110210,,*28
$GPRMC,132403.000,A,3246.4518,N,11544.3786,W,52.11,269.82,110210,,*21
$GPRMC,132406.000,A,3246.4518,N,11544.4301,W,52.13,270.15,110210,,*2C
$GPRMC,132409.000,A,3246.4515,N,11544.4816,W,52.01,268.50,110210,,*28
$GPRMC,132412.000,A,3246.4486,N,11544.5332,W,52.08,264.34,110210,,*22
$GPRMC,132415.000,A,3246.4431,N,11544.5846,W,52.36,260.95,110210,,*23
$GPRMC,132418.000,A,3246.4346,N,11544.6355,W,52.38,257.49,110210,,*28
$GPRMC,132421.000,A,3246.4248,N,11544.6861,W,52.44,257.25,110210,,*20
$GPRMC,132424.000,A,3246.4151,N,11544.7365,W,51.94,256.92,110210,,*23
$GPRMC,132427.000,A,3246.4063,N,11544.7867,W,52.05,261.05,110210,,*28
$GPRMC,132430.000,A,3246.4011,N,11544.8376,W,52.00,264.96,110210,,*25
$GPRMC,132433.000,A,3246.3990,N,11544.8888,W,52.02,269.00,110210,,*2B
$GPRMC,132436.000,A,3246.3991,N,11544.9401,W,52.21,270.41,110210,,*2F
$GPRMC,132439.000,A,3246.3996,N,11544.9916,W,52.18,270.06,110210,,*25
$GPRMC,132442.000,A,3246.3996,N,11545.0430,W,52.04,269.86,110210,,*25
$GPRMC,132445.000,A,3246.3996,N,11545.0944,W,52.13,269.90,110210,,*2D
$GPRMC,132448.000,A,3246.3997,N,11545.1459,W,52.08,269.91,110210,,*2A
$GPRMC,132451.000,A,3246.3998,N,11545.1974,W,52.16,269.97,110210,,*26
$GPRMC,132454.000,A,3246.3998,N,11545.2489,W,52.14,269.98,110210,,*22
$GPRMC,132457.000,A,3246.3999,N,11545.3005,W,52.17,270.24,110210,,*2D
$GPRMC,132500.000,A,3246.4002,N,11545.3521,W,52.18,269.95,110210,,*2C
$GPRMC,132503.000,A,3246.4001,N,11545.4035,W,52.04,269.98,110210,,*2B
$GPRMC,132506.000,A,3246.4000,N,11545.4547,W,51.96,269.78,110210,,*29
$GPRMC,132509.000,A,3246.3999,N,11545.5060,W,52.07,269.78,110210,,*22
$GPRMC,132512.000,A,3246.3999,N,11545.5574,W,52.11,270.01,110210,,*29
$GPRMC,132516.000,A,3246.4000,N,11545.6259,W,52.10,270.10,110210,,*29
$GPRMC,132519.000,A,3246.4000,N,11545.6772,W,52.11,269.97,110210,,*2C
$GPRMC,132522.000,A,3246.4001,N,11545.7287,W,52.10,270.24,110210,,*2A
$GPRMC,132525.000,A,3246.4003,N,11545.7802,W,52.09,270.20,110210,,*24
$GPRMC,132528.000,A,3246.4003,N,11545.8317,W,52.09,269.85,110210,,*2E
$GPRMC,132531.000,A,3246.4000,N,11545.8832,W,52.07,269.47,110210,,*29
$GPRMC,132534.000,A,3246.3999,N,11545.9347,W,52.12,269.87,110210,,*22
$GPRMC,132537.000,A,3246.4000,N,11545.9863,W,52.17,270.15,110210,,*24
$GPRMC,132540.000,A,3246.4000,N,11546.0378,W,52.15,270.03,110210,,*2A
$GPRMC,132543.000,A,3246.4002,N,11546.0893,W,52.15,270.22,110210,,*26
$GPRMC,132546.000,A,3246.4002,N,11546.1407,W,51.95,269.79,110210,,*2E
$GPRMC,132549.000,A,3246.4001,N,11546.1919,W,51.65,269.87,110210,,*2E
$GPRMC,132552.000,A,3246.4000,N,11546.2428,W,51.51,269.80,110210,,*29
$GPRMC,132555.000,A,3246.3999,N,11546.2937,W,51.69,269.90,110210,,*29
$GPRMC,132558.000,A,3246.3998,N,11546.3450,W,52.12,270.02,110210,,*24
$GPRMC,132601.000,A,3246.3999,N,11546.3966,W,52.34,270.05,110210,,*21
$GPRMC,132604.000,A,3246.4001,N,11546.4484,W,52.35,270.15,110210,,*2D
$GPRMC,132607.000,A,3246.4002,N,11546.5002,W,52.40,270.26,110210,,*24
$GPRMC,132610.000,A,3246.4002,N,11546.5520,W,52.44,269.53,110210,,*29
$GPRMC,132613.000,A,3246.3999,N,11546.6037,W,52.31,269.50,110210,,*27
$GPRMC,132616.000,A,3246.3991,N,11546.6552,W,51.96,268.23,110210,,*27
$GPRMC,132619.000,A,3246.3972,N,11546.7063,W,51.72,266.74,110210,,*25
$GPRMC,132622.000,A,3246.3939,N,11546.7573,W,51.90,264.42,110210,,*2D
$GPRMC,132625.000,A,3246.3887,N,11546.8084,W,52.10,262.33,110210,,*27
$GPRMC,132628.000,A,3246.3822,N,11546.8595,W,52.25,260.83,110210,,*2F
$GPRMC,132631.000,A,3246.3745,N,11546.9104,W,52.24,258.94,110210,,*28
$GPRMC,132634.000,A,3246.3654,N,11546.9608,W,52.00,257.35,110210,,*25
$GPRMC,132637.000,A,3246.3555,N,11547.0110,W,52.34,256.64,110210,,*20
$GPRMC,132640.000,A,3246.3451,N,11547.0613,W,52.21,256.50,110210,,*22
$GPRMC,132643.000,A,3246.3349,N,11547.1115,W,52.06,256.34,110210,,*28
$GPRMC,132646.000,A,3246.3247,N,11547.1616,W,52.21,256.52,110210,,*23
$GPRMC,132649.000,A,3246.3145,N,11547.2118,W,52.03,256.27,110210,,*25
$GPRMC,132652.000,A,3246.3042,N,11547.2618,W,52.07,256.55,110210,,*2F
$GPRMC,132655.000,A,3246.2941,N,11547.3121,W,52.45,256.62,110210,,*2D
$GPRMC,132658.000,A,3246.2839,N,11547.3621,W,52.11,256.72,110210,,*29
$GPRMC,132700.000,A,3246.2772,N,11547.3955,W,52.19,256.75,110210,,*26
$GPRMC,132703.000,A,3246.2672,N,11547.4457,W,52.19,256.63,110210,,*2B
$GPRMC,132706.000,A,3246.2570,N,11547.4957,W,52.05,256.45,110210,,*2B
$GPRMC,132709.000,A,3246.2471,N,11547.5458,W,52.22,256.57,110210,,*21
$GPRMC,132712.000,A,3246.2368,N,11547.5957,W,52.03,256.22,110210,,*27
$GPRMC,132715.000,A,3246.2266,N,11547.6457,W,52.16,256.59,110210,,*29
$GPRMC,132718.000,A,3246.2165,N,11547.6957,W,51.87,256.33,110210,,*2E
$GPRMC,132721.000,A,3246.2063,N,11547.7454,W,51.88,256.41,110210,,*26
$GPRMC,132724.000,A,3246.1962,N,11547.7954,W,52.01,256.51,110210,,*26
$GPRMC,132727.000,A,3246.1859,N,11547.8454,W,52.06,256.37,110210,,*29
$GPRMC,132730.000,A,3246.1758,N,11547.8955,W,52.08,256.56,110210,,*24
$GPRMC,132733.000,A,3246.1657,N,11547.9455,W,51.93,256.45,110210,,*26
$GPRMC,132736.000,A,3246.1555,N,11547.9955,W,52.19,256.38,110210,,*24
$GPRMC,132739.000,A,3246.1451,N,11548.0456,W,52.08,255.86,110210,,*20
$GPRMC,132742.000,A,3246.1348,N,11548.0956,W,52.28,256.60,110210,,*27
$GPRMC,132745.000,A,3246.1248,N,11548.1459,W,52.29,256.64,110210,,*27
$GPRMC,132748.000,A,3246.1146,N,11548.1960,W,52.19,256.42,110210,,*27
$GPRMC,132751.000,A,3246.1046,N,11548.2461,W,52.23,256.47,110210,,*2D
$GPRMC,132754.000,A,3246.0946,N,11548.2962,W,52.08,256.77,110210,,*24
$GPRMC,132757.000,A,3246.0846,N,11548.3462,W,52.06,256.43,110210,,*23
$GPRMC,132800.000,A,3246.0744,N,11548.3962,W,52.01,256.48,110210,,*22
$GPRMC,132803.000,A,3246.0643,N,11548.4463,W,52.21,256.56,110210,,*21
$GPRMC,132806.000,A,3246.0543,N,11548.4964,W,52.01,256.46,110210,,*2E
$GPRMC,132809.000,A,3246.0440,N,11548.5465,W,52.29,256.22,110210,,*26
$GPRMC,132812.000,A,3246.0338,N,11548.5966,W,52.24,256.44,110210,,*27
$GPRMC,132815.000,A,3246.0236,N,11548.6467,W,52.38,256.41,110210,,*28
$GPRMC,132818.000,A,3246.0134,N,11548.6968,W,52.00,256.55,110210,,*28
$GPRMC,132821.000,A,3246.0034,N,11548.7469,W,52.28,256.61,110210,,*23
$GPRMC,132824.000,A,3245.9933,N,11548.7970,W,52.32,256.60,110210,,*2D
$GPRMC,132827.000,A,3245.9830,N,11548.8472,W,52.41,256.23,110210,,*2F
$GPRMC,132830.000,A,3245.9728,N,11548.8973,W,52.14,256.37,110210,,*26
$GPRMC,132833.000,A,3245.9627,N,11548.9473,W,52.05,256.64,110210,,*21
$GPRMC,132836.000,A,3245.9528,N,11548.9974,W,52.23,256.65,110210,,*27
$GPRMC,132839.000,A,3245.9427,N,11549.0474,W,51.98,256.32,110210,,*22
$GPRMC,132842.000,A,3245.9326,N,11549.0975,W,52.35,256.32,110210,,*20
$GPRMC,132845.000,A,3245.9222,N,11549.1476,W,52.35,256.21,110210,,*2F
$GPRMC,132848.000,A,3245.9121,N,11549.1978,W,52.26,256.62,110210,,*24
$GPRMC,132851.000,A,3245.9022,N,11549.2479,W,52.13,256.79,110210,,*2D
$GPRMC,132854.000,A,3245.8921,N,11549.2978,W,52.06,256.24,110210,,*23
$GPRMC,132857.000,A,3245.8819,N,11549.3476,W,52.17,256.44,110210,,*2E
$GPRMC,132900.000,A,3245.8718,N,11549.3975,W,52.18,256.24,110210,,*24
$GPRMC,132903.000,A,3245.8614,N,11549.4475,W,52.09,256.19,110210,,*2E
$GPRMC,132906.000,A,3245.8512,N,11549.4974,W,51.95,256.57,110210,,*2E
$GPRMC,132909.000,A,3245.8412,N,11549.5472,W,52.11,256.31,110210,,*25
$GPRMC,132912.000,A,3245.8310,N,11549.5971,W,52.16,256.38,110210,,*2A
$GPRMC,132915.000,A,3245.8207,N,11549.6472,W,52.00,256.31,110210,,*29
$GPRMC,132918.000,A,3245.8106,N,11549.6971,W,51.93,256.58,110210,,*2E
$GPRMC,132921.000,A,3245.8005,N,11549.7471,W,52.11,256.32,110210,,*2F
$GPRMC,132924.000,A,3245.7903,N,11549.7971,W,52.16,256.39,110210,,*2B
$GPRMC,132927.000,A,3245.7801,N,11549.8469,W,51.84,256.38,110210,,*29
$GPRMC,132930.000,A,3245.7700,N,11549.8967,W,51.86,256.36,110210,,*2E
$GPRMC,132933.000,A,3245.7598,N,11549.9467,W,52.06,256.34,110210,,*2B
$GPRMC,132936.000,A,3245.7495,N,11549.9966,W,52.17,256.46,110210,,*2B
$GPRMC,132939.000,A,3245.7394,N,11550.0469,W,52.19,256.46,110210,,*2F
$GPRMC,132942.000,A,3245.7293,N,11550.0969,W,52.02,256.73,110210,,*24
$GPRMC,132945.000,A,3245.7193,N,11550.1469,W,51.96,256.43,110210,,*21
$GPRMC,132948.000,A,3245.7093,N,11550.1967,W,51.82,256.57,110210,,*2E
$GPRMC,132951.000,A,3245.6992,N,11550.2466,W,51.88,256.36,110210,,*2D
$GPRMC,132954.000,A,3245.6889,N,11550.2964,W,51.99,256.22,110210,,*29
$GPRMC,132957.000,A,3245.6788,N,11550.3463,W,51.77,256.68,110210,,*21
$GPRMC,133000.000,A,3245.6688,N,11550.3962,W,52.08,256.77,110210,,*23
$GPRMC,133003.000,A,3245.6592,N,11550.4464,W,52.22,257.12,110210,,*2E
$GPRMC,133006.000,A,3245.6499,N,11550.4967,W,51.95,258.26,110210,,*28
$GPRMC,133009.000,A,3245.6414,N,11550.5471,W,52.16,258.73,110210,,*21
$GPRMC,133012.000,A,3245.6333,N,11550.5974,W,51.93,259.38,110210,,*21
$GPRMC,133015.000,A,3245.6253,N,11550.6479,W,52.02,259.45,110210,,*23
$GPRMC,133018.000,A,3245.6173,N,11550.6982,W,51.93,259.18,110210,,*25
$GPRMC,133021.000,A,3245.6094,N,11550.7486,W,52.07,259.67,110210,,*29
$GPRMC,133024.000,A,3245.6015,N,11550.7991,W,52.14,259.30,110210,,*2E
$GPRMC,133027.000,A,3245.5933,N,11550.8495,W,52.04,259.01,110210,,*26
$GPRMC,133030.000,A,3245.5853,N,11550.8999,W,52.05,259.62,110210,,*22
$GPRMC,133033.000,A,3245.5775,N,11550.9505,W,52.07,259.84,110210,,*28
$GPRMC,133036.000,A,3245.5698,N,11551.0010,W,52.11,259.68,110210,,*23
$GPRMC,133039.000,A,3245.5619,N,11551.0516,W,52.02,259.29,110210,,*21
$GPRMC,133042.000,A,3245.5538,N,11551.1021,W,52.17,259.35,110210,,*24
$GPRMC,133045.000,A,3245.5458,N,11551.1526,W,52.15,259.52,110210,,*25
$GPRMC,133048.000,A,3245.5378,N,11551.2032,W,52.12,259.52,110210,,*29
$GPRMC,133051.000,A,3245.5299,N,11551.2537,W,52.05,259.56,110210,,*2D
$GPRMC,133054.000,A,3245.5221,N,11551.3043,W,52.07,259.50,110210,,*28
$GPRMC,133057.000,A,3245.5140,N,11551.3547,W,51.98,259.23,110210,,*2F
$GPRMC,133100.000,A,3245.5060,N,11551.4051,W,52.02,259.69,110210,,*24
$GPRMC,133103.000,A,3245.4982,N,11551.4556,W,52.05,259.64,110210,,*2B
$GPRMC,133106.000,A,3245.4904,N,11551.5062,W,51.98,259.51,110210,,*22
$GPRMC,133109.000,A,3245.4824,N,11551.5566,W,51.99,259.41,110210,,*2F
$GPRMC,133112.000,A,3245.4744,N,11551.6070,W,51.93,259.37,110210,,*26
$GPRMC,133115.000,A,3245.4664,N,11551.6574,W,51.96,259.61,110210,,*25
$GPRMC,133118.000,A,3245.4588,N,11551.7079,W,51.88,259.85,110210,,*25
$GPRMC,133121.000,A,3245.4510,N,11551.7583,W,51.92,259.60,110210,,*2E
$GPRMC,133124.000,A,3245.4431,N,11551.8087,W,51.90,259.23,110210,,*22
$GPRMC,133127.000,A,3245.4351,N,11551.8591,W,51.99,259.34,110210,,*2D
$GPRMC,133130.000,A,3245.4271,N,11551.9096,W,52.07,259.47,110210,,*2B
$GPRMC,133133.000,A,3245.4191,N,11551.9602,W,52.14,259.72,110210,,*2A
$GPRMC,133136.000,A,3245.4112,N,11552.0108,W,52.16,259.16,110210,,*23
$GPRMC,133139.000,A,3245.4030,N,11552.0614,W,52.16,259.42,110210,,*26
$GPRMC,133142.000,A,3245.3950,N,11552.1121,W,52.24,259.39,110210,,*2F
$GPRMC,133145.000,A,3245.3870,N,11552.1628,W,52.28,259.69,110210,,*2C
$GPRMC,133148.000,A,3245.3792,N,11552.2136,W,52.24,259.48,110210,,*26
$GPRMC,133151.000,A,3245.3711,N,11552.2643,W,52.33,259.34,110210,,*2D
$GPRMC,133154.000,A,3245.3631,N,11552.3151,W,52.17,259.35,110210,,*29
$GPRMC,133157.000,A,3245.3552,N,11552.3657,W,52.33,259.74,110210,,*2E
$GPRMC,133200.000,A,3245.3474,N,11552.4165,W,52.18,259.63,110210,,*24
$GPRMC,133203.000,A,3245.3394,N,11552.4672,W,52.10,259.15,110210,,*26
$GPRMC,133206.000,A,3245.3313,N,11552.5177,W,52.05,259.37,110210,,*2B
$GPRMC,133209.000,A,3245.3234,N,11552.5682,W,51.99,259.40,110210,,*2B
$GPRMC,133212.000,A,3245.3154,N,11552.6187,W,52.00,259.34,110210,,*25
$GPRMC,133215.000,A,3245.3073,N,11552.6691,W,52.01,259.16,110210,,*27
$GPRMC,133218.000,A,3245.2993,N,11552.7196,W,52.04,259.55,110210,,*2F
$GPRMC,133221.000,A,3245.2916,N,11552.7702,W,52.02,259.92,110210,,*2E
$GPRMC,133224.000,A,3245.2838,N,11552.8206,W,51.94,259.25,110210,,*28
$GPRMC,133227.000,A,3245.2758,N,11552.8711,W,51.86,259.30,110210,,*26
$GPRMC,133230.000,A,3245.2679,N,11552.9215,W,52.05,259.44,110210,,*29
$GPRMC,133233.000,A,3245.2599,N,11552.9720,W,52.10,259.39,110210,,*2A
$GPRMC,133236.000,A,3245.2519,N,11553.0227,W,52.01,259.37,110210,,*23
$GPRMC,133239.000,A,3245.2439,N,11553.0732,W,51.96,259.53,110210,,*21
$GPRMC,133242.000,A,3245.2360,N,11553.1236,W,51.92,259.58,110210,,*29
$GPRMC,133245.000,A,3245.2283,N,11553.1740,W,51.98,259.71,110210,,*27
$GPRMC,133248.000,A,3245.2204,N,11553.2246,W,52.01,259.45,110210,,*21
$GPRMC,133251.000,A,3245.2123,N,11553.2751,W,52.11,259.30,110210,,*2F
$GPRMC,133254.000,A,3245.2043,N,11553.3257,W,52.05,259.38,110210,,*22
$GPRMC,133257.000,A,3245.1963,N,11553.3762,W,52.02,259.66,110210,,*26
$GPRMC,133300.000,A,3245.1884,N,11553.4267,W,52.03,259.33,110210,,*2B
$GPRMC,133303.000,A,3245.1804,N,11553.4772,W,51.95,259.42,110210,,*2B
$GPRMC,133306.000,A,3245.1724,N,11553.5277,W,51.96,259.48,110210,,*2B
$GPRMC,133309.000,A,3245.1644,N,11553.5781,W,52.02,259.38,110210,,*26
$GPRMC,133312.000,A,3245.1564,N,11553.6286,W,52.05,259.51,110210,,*24
$GPRMC,133315.000,A,3245.1486,N,11553.6791,W,51.97,259.67,110210,,*20
$GPRMC,133318.000,A,3245.1409,N,11553.7297,W,51.98,259.81,110210,,*2F
$GPRMC,133321.000,A,3245.1331,N,11553.7802,W,52.05,259.43,110210,,*26
$GPRMC,133324.000,A,3245.1257,N,11553.8310,W,52.17,260.81,110210,,*22
$GPRMC,133327.000,A,3245.1188,N,11553.8819,W,52.10,260.68,110210,,*22
$GPRMC,133330.000,A,3245.1118,N,11553.9327,W,52.13,260.68,110210,,*29
$GPRMC,133333.000,A,3245.1049,N,11553.9836,W,52.18,260.73,110210,,*25
$GPRMC,133336.000,A,3245.0980,N,11554.0345,W,52.18,261.07,110210,,*2E
$GPRMC,133339.000,A,3245.0913,N,11554.0854,W,52.13,260.70,110210,,*2A
$GPRMC,133342.000,A,3245.0843,N,11554.1362,W,52.10,260.60,110210,,*2F
$GPRMC,133345.000,A,3245.0774,N,11554.1871,W,52.16,261.04,110210,,*2F
$GPRMC,133348.000,A,3245.0706,N,11554.2380,W,52.16,260.98,110210,,*25
$GPRMC,133351.000,A,3245.0638,N,11554.2889,W,52.13,261.00,110210,,*26
$GPRMC,133354.000,A,3245.0569,N,11554.3397,W,52.11,260.81,110210,,*2B
$GPRMC,133357.000,A,3245.0500,N,11554.3906,W,52.14,261.11,110210,,*28
$GPRMC,133400.000,A,3245.0433,N,11554.4415,W,52.10,260.88,110210,,*21
$GPRMC,133403.000,A,3245.0365,N,11554.4923,W,52.07,260.90,110210,,*21
$GPRMC,133406.000,A,3245.0296,N,11554.5433,W,52.14,260.72,110210,,*2A
$GPRMC,133409.000,A,3245.0226,N,11554.5943,W,52.29,260.74,110210,,*2C
$GPRMC,133412.000,A,3245.0157,N,11554.6453,W,52.11,260.85,110210,,*29
$GPRMC,133415.000,A,3245.0089,N,11554.6962,W,52.06,261.01,110210,,*28
$GPRMC,133418.000,A,3245.0022,N,11554.7471,W,52.05,260.71,110210,,*2F
$GPRMC,133421.000,A,3244.9952,N,11554.7980,W,52.11,260.66,110210,,*23
$GPRMC,133424.000,A,3244.9883,N,11554.8489,W,52.20,260.84,110210,,*2E
$GPRMC,133427.000,A,3244.9815,N,11554.8998,W,52.07,260.90,110210,,*2F
$GPRMC,133430.000,A,3244.9746,N,11554.9507,W,52.15,260.84,110210,,*2D
$GPRMC,133433.000,A,3244.9676,N,11555.0017,W,52.21,260.62,110210,,*2F
$GPRMC,133436.000,A,3244.9607,N,11555.0525,W,52.13,260.75,110210,,*2F
$GPRMC,133439.000,A,3244.9537,N,11555.1033,W,52.18,260.69,110210,,*25
$GPRMC,133442.000,A,3244.9469,N,11555.1543,W,52.14,260.91,110210,,*2A
$GPRMC,133445.000,A,3244.9401,N,11555.2052,W,52.07,260.78,110210,,*20
$GPRMC,133448.000,A,3244.9333,N,11555.2560,W,52.09,261.05,110210,,*2A
$GPRMC,133451.000,A,3244.9264,N,11555.3070,W,52.31,260.77,110210,,*2B
$GPRMC,133454.000,A,3244.9195,N,11555.3581,W,52.32,260.93,110210,,*21
$GPRMC,133457.000,A,3244.9126,N,11555.4091,W,52.18,260.76,110210,,*2A
$GPRMC,133500.000,A,3244.9056,N,11555.4601,W,52.43,260.66,110210,,*2F
$GPRMC,133503.000,A,3244.8985,N,11555.5111,W,52.25,260.77,110210,,*2D
$GPRMC,133506.000,A,3244.8917,N,11555.5622,W,52.38,261.11,110210,,*29
$GPRMC,133509.000,A,3244.8848,N,11555.6133,W,52.31,260.68,110210,,*2F
$GPRMC,133512.000,A,3244.8778,N,11555.6643,W,52.32,260.85,110210,,*29
$GPRMC,133515.000,A,3244.8708,N,11555.7153,W,52.34,260.66,110210,,*25
$GPRMC,133518.000,A,3244.8636,N,11555.7663,W,52.33,260.64,110210,,*25
$GPRMC,133521.000,A,3244.8566,N,11555.8173,W,52.17,260.74,110210,,*27
$GPRMC,133524.000,A,3244.8496,N,11555.8681,W,52.17,260.87,110210,,*2A
$GPRMC,133527.000,A,3244.8425,N,11555.9189,W,52.05,260.42,110210,,*25
$GPRMC,133530.000,A,3244.8354,N,11555.9695,W,51.99,260.82,110210,,*22
$GPRMC,133533.000,A,3244.8286,N,11556.0202,W,51.94,260.88,110210,,*28
$GPRMC,133536.000,A,3244.8218,N,11556.0708,W,51.95,261.02,110210,,*27
$GPRMC,133539.000,A,3244.8150,N,11556.1214,W,51.85,260.93,110210,,*26
$GPRMC,133542.000,A,3244.8081,N,11556.1719,W,51.86,260.81,110210,,*2F
$GPRMC,133545.000,A,3244.8012,N,11556.2224,W,51.80,260.73,110210,,*21
$GPRMC,133548.000,A,3244.7941,N,11556.2729,W,52.01,260.78,110210,,*25
$GPRMC,133551.000,A,3244.7872,N,11556.3238,W,52.19,260.82,110210,,*24
$GPRMC,133554.000,A,3244.7801,N,11556.3747,W,52.33,260.41,110210,,*2F
$GPRMC,133557.000,A,3244.7730,N,11556.4257,W,52.36,260.73,110210,,*26
$GPRMC,133600.000,A,3244.7660,N,11556.4767,W,52.38,261.05,110210,,*2B
$GPRMC,133603.000,A,3244.7591,N,11556.5277,W,52.35,260.90,110210,,*20
$GPRMC,133606.000,A,3244.7524,N,11556.5788,W,52.27,260.96,110210,,*2B
$GPRMC,133609.000,A,3244.7452,N,11556.6300,W,52.60,260.65,110210,,*2C
$GPRMC,133612.000,A,3244.7382,N,11556.6811,W,52.56,260.57,110210,,*23
$GPRMC,133615.000,A,3244.7310,N,11556.7324,W,52.67,260.68,110210,,*2D
$GPRMC,133618.000,A,3244.7237,N,11556.7838,W,52.68,260.38,110210,,*28
$GPRMC,133621.000,A,3244.7167,N,11556.8352,W,52.78,261.17,110210,,*21
$GPRMC,133624.000,A,3244.7098,N,11556.8868,W,52.89,261.08,110210,,*27
$GPRMC,133627.000,A,3244.7028,N,11556.9384,W,52.98,260.57,110210,,*2C
$GPRMC,133630.000,A,3244.6956,N,11556.9901,W,52.79,261.06,110210,,*26
$GPRMC,133633.000,A,3244.6887,N,11557.0413,W,52.21,261.05,110210,,*20
$GPRMC,133636.000,A,3244.6818,N,11557.0920,W,51.53,261.05,110210,,*28
$GPRMC,133639.000,A,3244.6749,N,11557.1423,W,51.68,260.72,110210,,*2A
$GPRMC,133642.000,A,3244.6680,N,11557.1929,W,51.86,261.02,110210,,*23
$GPRMC,133645.000,A,3244.6612,N,11557.2437,W,52.11,260.97,110210,,*2E
$GPRMC,133648.000,A,3244.6543,N,11557.2946,W,51.99,260.85,110210,,*2F
$GPRMC,133651.000,A,3244.6473,N,11557.3452,W,51.70,261.04,110210,,*23
$GPRMC,133654.000,A,3244.6404,N,11557.3956,W,51.59,260.62,110210,,*25
$GPRMC,133657.000,A,3244.6334,N,11557.4458,W,51.37,260.79,110210,,*24
$GPRMC,133700.000,A,3244.6266,N,11557.4958,W,51.10,260.64,110210,,*25
$GPRMC,133703.000,A,3244.6194,N,11557.5454,W,51.05,259.90,110210,,*2D
$GPRMC,133706.000,A,3244.6118,N,11557.5952,W,51.45,259.33,110210,,*2A
$GPRMC,133709.000,A,3244.6029,N,11557.6451,W,52.08,256.70,110210,,*29
$GPRMC,133712.000,A,3244.5919,N,11557.6949,W,52.33,254.45,110210,,*22
$GPRMC,133715.000,A,3244.5797,N,11557.7447,W,52.53,252.71,110210,,*28
$GPRMC,133718.000,A,3244.5659,N,11557.7940,W,52.56,250.92,110210,,*26
$GPRMC,133721.000,A,3244.5507,N,11557.8427,W,52.48,248.65,110210,,*29
$GPRMC,133724.000,A,3244.5340,N,11557.8906,W,52.39,246.94,110210,,*21
$GPRMC,133727.000,A,3244.5165,N,11557.9382,W,52.74,246.24,110210,,*22
$GPRMC,133730.000,A,3244.4987,N,11557.9859,W,52.60,246.15,110210,,*2B
$GPRMC,133733.000,A,3244.4808,N,11558.0330,W,52.01,245.71,110210,,*2A
$GPRMC,133737.000,A,3244.4571,N,11558.0953,W,51.60,245.82,110210,,*2A
$GPRMC,133740.000,A,3244.4395,N,11558.1417,W,51.68,246.03,110210,,*28
$GPRMC,133743.000,A,3244.4223,N,11558.1887,W,52.00,246.81,110210,,*25
$GPRMC,133746.000,A,3244.4055,N,11558.2362,W,52.16,248.02,110210,,*22
$GPRMC,133749.000,A,3244.3898,N,11558.2842,W,52.14,249.59,110210,,*27
$GPRMC,133752.000,A,3244.3750,N,11558.3326,W,52.08,250.31,110210,,*25
$GPRMC,133755.000,A,3244.3607,N,11558.3812,W,52.07,251.13,110210,,*23
$GPRMC,133758.000,A,3244.3472,N,11558.4300,W,52.06,252.28,110210,,*2B
$GPRMC,133800.000,A,3244.3386,N,11558.4627,W,52.04,252.66,110210,,*2D
$GPRMC,133803.000,A,3244.3262,N,11558.5119,W,51.99,254.11,110210,,*2F
$GPRMC,133806.000,A,3244.3147,N,11558.5615,W,51.95,254.67,110210,,*28
$GPRMC,133809.000,A,3244.3037,N,11558.6111,W,52.00,255.33,110210,,*2E
$GPRMC,133812.000,A,3244.2927,N,11558.6607,W,51.91,254.99,110210,,*27
$GPRMC,133815.000,A,3244.2816,N,11558.7104,W,51.96,255.13,110210,,*22
$GPRMC,133818.000,A,3244.2704,N,11558.7600,W,51.98,254.55,110210,,*2D
$GPRMC,133821.000,A,3244.2590,N,11558.8095,W,51.96,254.71,110210,,*25
$GPRMC,133824.000,A,3244.2477,N,11558.8590,W,51.88,254.86,110210,,*2F
$GPRMC,133827.000,A,3244.2366,N,11558.9086,W,51.98,255.20,110210,,*24
$GPRMC,133830.000,A,3244.2256,N,11558.9584,W,52.04,254.76,110210,,*23
$GPRMC,133833.000,A,3244.2142,N,11559.0079,W,51.90,254.65,110210,,*25
$GPRMC,133836.000,A,3244.2030,N,11559.0575,W,51.98,255.00,110210,,*27
$GPRMC,133839.000,A,3244.1918,N,11559.1072,W,52.02,254.80,110210,,*22
$GPRMC,133842.000,A,3244.1806,N,11559.1570,W,52.06,255.24,110210,,*2C
$GPRMC,133845.000,A,3244.1696,N,11559.2067,W,52.07,254.96,110210,,*25
$GPRMC,133848.000,A,3244.1583,N,11559.2564,W,52.07,254.84,110210,,*2A
$GPRMC,133851.000,A,3244.1469,N,11559.3062,W,52.14,254.90,110210,,*22
$GPRMC,133854.000,A,3244.1356,N,11559.3559,W,51.84,254.73,110210,,*26
$GPRMC,133857.000,A,3244.1246,N,11559.4052,W,51.42,254.99,110210,,*22
$GPRMC,133900.000,A,3244.1137,N,11559.4541,W,50.74,255.13,110210,,*24
$GPRMC,133903.000,A,3244.1030,N,11559.5023,W,50.03,254.95,110210,,*2E
$GPRMC,133906.000,A,3244.0922,N,11559.5497,W,49.20,254.96,110210,,*21
$GPRMC,133909.000,A,3244.0816,N,11559.5962,W,48.43,254.81,110210,,*2D
$GPRMC,133912.000,A,3244.0712,N,11559.6420,W,47.82,254.96,110210,,*20
$GPRMC,133915.000,A,3244.0610,N,11559.6874,W,47.33,255.23,110210,,*2C
$GPRMC,133918.000,A,3244.0510,N,11559.7323,W,46.92,255.01,110210,,*20
$GPRMC,133921.000,A,3244.0408,N,11559.7768,W,46.51,254.84,110210,,*2A
$GPRMC,133924.000,A,3244.0309,N,11559.8210,W,46.36,254.94,110210,,*2C
$GPRMC,133927.000,A,3244.0208,N,11559.8651,W,46.08,254.81,110210,,*27
$GPRMC,133930.000,A,3244.0110,N,11559.9088,W,45.51,255.28,110210,,*25
$GPRMC,133933.000,A,3244.0020,N,11559.9520,W,44.70,256.68,110210,,*26
$GPRMC,133936.000,A,3243.9940,N,11559.9947,W,44.05,257.84,110210,,*2E
$GPRMC,133939.000,A,3243.9864,N,11600.0369,W,43.44,257.74,110210,,*2B
$GPRMC,133942.000,A,3243.9789,N,11600.0786,W,42.96,258.02,110210,,*2E
$GPRMC,133945.000,A,3243.9716,N,11600.1197,W,42.54,257.74,110210,,*28
$GPRMC,133948.000,A,3243.9642,N,11600.1606,W,42.35,257.71,110210,,*28
$GPRMC,133951.000,A,3243.9566,N,11600.2013,W,42.22,257.65,110210,,*27
$GPRMC,133954.000,A,3243.9492,N,11600.2419,W,41.96,257.94,110210,,*24
$GPRMC,133957.000,A,3243.9420,N,11600.2823,W,41.70,257.86,110210,,*20
$GPRMC,134000.000,A,3243.9347,N,11600.3224,W,41.54,257.68,110210,,*20
$GPRMC,134003.000,A,3243.9274,N,11600.3624,W,41.43,257.59,110210,,*22
$GPRMC,134006.000,A,3243.9202,N,11600.4024,W,41.27,257.94,110210,,*24
$GPRMC,134009.000,A,3243.9131,N,11600.4422,W,41.17,257.98,110210,,*25
$GPRMC,134012.000,A,3243.9057,N,11600.4818,W,41.10,257.40,110210,,*29
$GPRMC,134015.000,A,3243.8983,N,11600.5214,W,41.07,257.71,110210,,*2C
$GPRMC,134018.000,A,3243.8911,N,11600.5610,W,41.00,257.77,110210,,*2B
$GPRMC,134021.000,A,3243.8838,N,11600.6005,W,41.00,257.85,110210,,*27
$GPRMC,134024.000,A,3243.8766,N,11600.6400,W,41.03,257.81,110210,,*20
$GPRMC,134027.000,A,3243.8690,N,11600.6796,W,41.00,256.32,110210,,*2D
$GPRMC,134030.000,A,3243.8603,N,11600.7186,W,40.95,254.11,110210,,*29
$GPRMC,134033.000,A,3243.8503,N,11600.7573,W,40.94,251.62,110210,,*27
$GPRMC,134036.000,A,3243.8389,N,11600.7954,W,40.89,249.38,110210,,*25
$GPRMC,134039.000,A,3243.8262,N,11600.8329,W,40.85,246.82,110210,,*23
$GPRMC,134042.000,A,3243.8121,N,11600.8696,W,40.87,244.13,110210,,*22
$GPRMC,134045.000,A,3243.7966,N,11600.9055,W,40.91,241.94,110210,,*24
$GPRMC,134048.000,A,3243.7797,N,11600.9408,W,41.26,239.92,110210,,*21
$GPRMC,134051.000,A,3243.7621,N,11600.9759,W,41.37,238.93,110210,,*22
$GPRMC,134054.000,A,3243.7441,N,11601.0108,W,41.31,238.44,110210,,*25
$GPRMC,134057.000,A,3243.7261,N,11601.0461,W,41.84,238.99,110210,,*26
$GPRMC,134100.000,A,3243.7079,N,11601.0816,W,42.22,238.71,110210,,*2B
$GPRMC,134103.000,A,3243.6897,N,11601.1175,W,42.30,239.24,110210,,*2E
$GPRMC,134106.000,A,3243.6724,N,11601.1542,W,43.00,242.72,110210,,*21
$GPRMC,134109.000,A,3243.6583,N,11601.1927,W,41.56,250.01,110210,,*28
$GPRMC,134112.000,A,3243.6486,N,11601.2316,W,40.27,256.34,110210,,*2A
$GPRMC,134115.000,A,3243.6424,N,11601.2697,W,38.06,262.79,110210,,*2B
$GPRMC,134118.000,A,3243.6388,N,11601.3056,W,34.84,263.47,110210,,*27
$GPRMC,134121.000,A,3243.6361,N,11601.3386,W,33.22,263.83,110210,,*27
$GPRMC,134124.000,A,3243.6334,N,11601.3709,W,32.83,263.57,110210,,*22
$GPRMC,134127.000,A,3243.6306,N,11601.4030,W,32.93,263.46,110210,,*2B
$GPRMC,134130.000,A,3243.6279,N,11601.4352,W,33.28,263.63,110210,,*25
$GPRMC,134133.000,A,3243.6250,N,11601.4681,W,33.82,263.34,110210,,*24
$GPRMC,134136.000,A,3243.6217,N,11601.5017,W,34.98,262.87,110210,,*2F
$GPRMC,134139.000,A,3243.6179,N,11601.5363,W,36.21,262.07,110210,,*23
$GPRMC,134142.000,A,3243.6136,N,11601.5724,W,37.72,261.79,110210,,*2E
$GPRMC,134145.000,A,3243.6088,N,11601.6102,W,39.53,261.35,110210,,*29
$GPRMC,134148.000,A,3243.6034,N,11601.6496,W,41.09,260.18,110210,,*25
$GPRMC,134151.000,A,3243.5973,N,11601.6903,W,42.33,259.80,110210,,*24
$GPRMC,134154.000,A,3243.5909,N,11601.7318,W,43.04,259.26,110210,,*24
$GPRMC,134157.000,A,3243.5838,N,11601.7737,W,43.30,259.13,110210,,*2C
$GPRMC,134200.000,A,3243.5769,N,11601.8157,W,43.13,258.77,110210,,*2B
$GPRMC,134203.000,A,3243.5700,N,11601.8572,W,42.59,258.85,110210,,*26
$GPRMC,134206.000,A,3243.5632,N,11601.8983,W,42.17,258.68,110210,,*28
$GPRMC,134209.000,A,3243.5564,N,11601.9389,W,41.83,258.74,110210,,*25
$GPRMC,134212.000,A,3243.5496,N,11601.9793,W,41.57,259.11,110210,,*27
$GPRMC,134215.000,A,3243.5431,N,11602.0193,W,41.15,258.81,110210,,*2F
$GPRMC,134218.000,A,3243.5364,N,11602.0589,W,40.63,258.50,110210,,*26
$GPRMC,134221.000,A,3243.5297,N,11602.0980,W,40.10,258.41,110210,,*20
$GPRMC,134224.000,A,3243.5231,N,11602.1364,W,39.40,258.97,110210,,*28
$GPRMC,134227.000,A,3243.5169,N,11602.1743,W,38.81,259.16,110210,,*20
$GPRMC,134230.000,A,3243.5107,N,11602.2116,W,38.25,258.59,110210,,*2F
$GPRMC,134233.000,A,3243.5048,N,11602.2483,W,37.88,259.40,110210,,*2E
$GPRMC,134236.000,A,3243.4996,N,11602.2848,W,37.53,261.66,110210,,*22
$GPRMC,134239.000,A,3243.4962,N,11602.3215,W,37.63,265.11,110210,,*22
$GPRMC,134242.000,A,3243.4950,N,11602.3588,W,37.91,268.99,110210,,*2C
$GPRMC,134245.000,A,3243.4957,N,11602.3965,W,38.03,273.58,110210,,*20
$GPRMC,134248.000,A,3243.4985,N,11602.4343,W,38.52,276.77,110210,,*27
$GPRMC,134251.000,A,3243.5036,N,11602.4721,W,39.12,280.45,110210,,*22
$GPRMC,134254.000,A,3243.5107,N,11602.5102,W,40.22,284.01,110210,,*2B
$GPRMC,134257.000,A,3243.5198,N,11602.5494,W,41.62,285.48,110210,,*2D
$GPRMC,134300.000,A,3243.5295,N,11602.5897,W,43.00,285.40,110210,,*21
$GPRMC,134303.000,A,3243.5392,N,11602.6305,W,42.66,285.59,110210,,*2E
$GPRMC,134306.000,A,3243.5490,N,11602.6714,W,43.39,285.11,110210,,*2D
$GPRMC,134309.000,A,3243.5587,N,11602.7133,W,44.33,285.40,110210,,*2E
$GPRMC,134312.000,A,3243.5689,N,11602.7559,W,45.22,285.57,110210,,*26
$GPRMC,134315.000,A,3243.5793,N,11602.7994,W,46.06,285.59,110210,,*2D
$GPRMC,134318.000,A,3243.5898,N,11602.8436,W,46.84,285.56,110210,,*2B
$GPRMC,134321.000,A,3243.6005,N,11602.8886,W,47.62,285.30,110210,,*20
$GPRMC,134324.000,A,3243.6111,N,11602.9344,W,48.32,285.24,110210,,*2A
$GPRMC,134327.000,A,3243.6220,N,11602.9808,W,49.07,285.45,110210,,*2B
$GPRMC,134330.000,A,3243.6331,N,11603.0279,W,49.75,285.30,110210,,*2F
$GPRMC,134333.000,A,3243.6443,N,11603.0759,W,50.75,285.17,110210,,*24
$GPRMC,134336.000,A,3243.6558,N,11603.1247,W,51.68,285.59,110210,,*26
$GPRMC,134339.000,A,3243.6675,N,11603.1743,W,52.10,285.42,110210,,*22
$GPRMC,134342.000,A,3243.6792,N,11603.2240,W,51.94,285.50,110210,,*2F
$GPRMC,134345.000,A,3243.6906,N,11603.2734,W,51.39,285.49,110210,,*22
$GPRMC,134348.000,A,3243.7021,N,11603.3221,W,50.51,285.38,110210,,*2B
$GPRMC,134351.000,A,3243.7136,N,11603.3699,W,49.62,285.74,110210,,*23
$GPRMC,134354.000,A,3243.7248,N,11603.4167,W,48.80,285.36,110210,,*26
$GPRMC,134357.000,A,3243.7355,N,11603.4629,W,48.00,285.33,110210,,*28
$GPRMC,134400.000,A,3243.7459,N,11603.5083,W,47.11,284.45,110210,,*2E
$GPRMC,134403.000,A,3243.7535,N,11603.5537,W,46.57,278.75,110210,,*2F
$GPRMC,134406.000,A,3243.7570,N,11603.5993,W,45.97,272.81,110210,,*27
$GPRMC,134409.000,A,3243.7559,N,11603.6446,W,45.54,265.02,110210,,*27
$GPRMC,134412.000,A,3243.7501,N,11603.6889,W,45.05,258.59,110210,,*2B
$GPRMC,134415.000,A,3243.7405,N,11603.7316,W,44.45,252.55,110210,,*26
$GPRMC,134418.000,A,3243.7271,N,11603.7725,W,43.94,246.41,110210,,*21
$GPRMC,134421.000,A,3243.7102,N,11603.8107,W,43.27,239.75,110210,,*22
$GPRMC,134424.000,A,3243.6900,N,11603.8460,W,42.64,233.80,110210,,*2E
$GPRMC,134427.000,A,3243.6672,N,11603.8782,W,41.98,227.51,110210,,*21
$GPRMC,134430.000,A,3243.6422,N,11603.9073,W,41.63,223.79,110210,,*22
$GPRMC,134433.000,A,3243.6166,N,11603.9355,W,41.57,223.43,110210,,*2D
$GPRMC,134436.000,A,3243.5911,N,11603.9632,W,41.04,222.97,110210,,*29
$GPRMC,134439.000,A,3243.5661,N,11603.9904,W,40.41,223.11,110210,,*2B
$GPRMC,134442.000,A,3243.5415,N,11604.0173,W,39.94,223.34,110210,,*21
$GPRMC,134445.000,A,3243.5171,N,11604.0442,W,39.65,223.28,110210,,*25
$GPRMC,134448.000,A,3243.4930,N,11604.0704,W,38.53,222.37,110210,,*2E
$GPRMC,134451.000,A,3243.4693,N,11604.0945,W,36.80,219.89,110210,,*26
$GPRMC,134454.000,A,3243.4452,N,11604.1165,W,36.27,216.09,110210,,*2D
$GPRMC,134457.000,A,3243.4201,N,11604.1361,W,35.68,211.91,110210,,*26
$GPRMC,134500.000,A,3243.3941,N,11604.1531,W,35.05,207.56,110210,,*29
$GPRMC,134503.000,A,3243.3678,N,11604.1675,W,34.01,203.34,110210,,*29
$GPRMC,134506.000,A,3243.3416,N,11604.1796,W,33.19,199.91,110210,,*2B
$GPRMC,134509.000,A,3243.3157,N,11604.1889,W,32.36,196.68,110210,,*20
$GPRMC,134512.000,A,3243.2898,N,11604.1964,W,31.59,192.15,110210,,*27
$GPRMC,134515.000,A,3243.2641,N,11604.2017,W,30.85,188.56,110210,,*28
$GPRMC,134518.000,A,3243.2386,N,11604.2049,W,30.44,185.23,110210,,*22
$GPRMC,134521.000,A,3243.2133,N,11604.2064,W,30.18,182.24,110210,,*22
$GPRMC,134524.000,A,3243.1883,N,11604.2062,W,29.88,178.31,110210,,*20
$GPRMC,134527.000,A,3243.1638,N,11604.2042,W,29.48,174.85,110210,,*20
$GPRMC,134530.000,A,3243.1397,N,11604.2000,W,29.16,171.15,110210,,*27
$GPRMC,134533.000,A,3243.1161,N,11604.1945,W,28.58,168.66,110210,,*23
$GPRMC,134536.000,A,3243.0938,N,11604.1881,W,27.36,165.52,110210,,*27
$GPRMC,134539.000,A,3243.0718,N,11604.1801,W,27.84,161.76,110210,,*27
$GPRMC,134542.000,A,3243.0500,N,11604.1705,W,28.05,158.88,110210,,*26
$GPRMC,134545.000,A,3243.0283,N,11604.1597,W,28.25,157.17,110210,,*2F
$GPRMC,134548.000,A,3243.0064,N,11604.1487,W,28.40,157.41,110210,,*29
$GPRMC,134551.000,A,3242.9845,N,11604.1376,W,28.49,157.24,110210,,*21
$GPRMC,134554.000,A,3242.9625,N,11604.1264,W,28.71,157.03,110210,,*20
$GPRMC,134557.000,A,3242.9404,N,11604.1152,W,28.82,157.25,110210,,*2C
$GPRMC,134600.000,A,3242.9181,N,11604.1040,W,28.99,157.19,110210,,*22
$GPRMC,134603.000,A,3242.8956,N,11604.0927,W,29.39,157.16,110210,,*2F
$GPRMC,134606.000,A,3242.8729,N,11604.0812,W,29.70,157.18,110210,,*28
$GPRMC,134609.000,A,3242.8500,N,11604.0696,W,29.81,157.27,110210,,*2E
$GPRMC,134612.000,A,3242.8269,N,11604.0581,W,30.01,157.26,110210,,*28
$GPRMC,134615.000,A,3242.8036,N,11604.0464,W,30.29,156.82,110210,,*28
$GPRMC,134618.000,A,3242.7802,N,11604.0346,W,30.54,157.11,110210,,*23
$GPRMC,134621.000,A,3242.7567,N,11604.0228,W,30.57,157.41,110210,,*28
$GPRMC,134624.000,A,3242.7332,N,11604.0111,W,30.06,157.04,110210,,*27
$GPRMC,134627.000,A,3242.7104,N,11603.9997,W,29.28,157.26,110210,,*2F
$GPRMC,134630.000,A,3242.6881,N,11603.9884,W,28.71,156.81,110210,,*2E
$GPRMC,134633.000,A,3242.6662,N,11603.9773,W,28.49,157.08,110210,,*22
$GPRMC,134636.000,A,3242.6444,N,11603.9664,W,28.17,157.22,110210,,*25
$GPRMC,134639.000,A,3242.6228,N,11603.9555,W,27.92,157.19,110210,,*2D
$GPRMC,134642.000,A,3242.6012,N,11603.9448,W,27.86,157.49,110210,,*27
$GPRMC,134645.000,A,3242.5797,N,11603.9343,W,27.86,157.98,110210,,*29
$GPRMC,134648.000,A,3242.5578,N,11603.9250,W,27.73,162.97,110210,,*27
$GPRMC,134651.000,A,3242.5357,N,11603.9187,W,27.48,169.53,110210,,*26
$GPRMC,134654.000,A,3242.5129,N,11603.9155,W,27.29,176.64,110210,,*2A
$GPRMC,134657.000,A,3242.4900,N,11603.9156,W,26.99,183.00,110210,,*2A
$GPRMC,134700.000,A,3242.4677,N,11603.9186,W,26.68,189.61,110210,,*28
$GPRMC,134703.000,A,3242.4463,N,11603.9250,W,26.61,196.62,110210,,*20
$GPRMC,134706.000,A,3242.4252,N,11603.9338,W,26.49,202.29,110210,,*25
$GPRMC,134709.000,A,3242.4058,N,11603.9452,W,26.09,208.97,110210,,*22
$GPRMC,134712.000,A,3242.3877,N,11603.9594,W,25.93,216.17,110210,,*26
$GPRMC,134715.000,A,3242.3713,N,11603.9759,W,25.67,221.88,110210,,*26
$GPRMC,134718.000,A,3242.3565,N,11603.9939,W,25.39,227.48,110210,,*21
$GPRMC,134721.000,A,3242.3433,N,11604.0136,W,25.23,234.88,110210,,*25
$GPRMC,134724.000,A,3242.3319,N,11604.0344,W,25.18,236.25,110210,,*25
$GPRMC,134727.000,A,3242.3207,N,11604.0551,W,25.08,235.99,110210,,*2F
$GPRMC,134730.000,A,3242.3093,N,11604.0758,W,25.13,236.00,110210,,*24
$GPRMC,134733.000,A,3242.2978,N,11604.0964,W,25.40,236.19,110210,,*25
$GPRMC,134736.000,A,3242.2861,N,11604.1172,W,25.55,236.15,110210,,*2F
$GPRMC,134739.000,A,3242.2744,N,11604.1381,W,25.65,235.57,110210,,*20
$GPRMC,134742.000,A,3242.2626,N,11604.1591,W,25.93,236.13,110210,,*24
$GPRMC,134745.000,A,3242.2506,N,11604.1804,W,26.18,235.74,110210,,*21
$GPRMC,134748.000,A,3242.2385,N,11604.2017,W,26.31,235.89,110210,,*21
$GPRMC,134751.000,A,3242.2265,N,11604.2237,W,26.60,236.56,110210,,*23
$GPRMC,134754.000,A,3242.2144,N,11604.2467,W,26.06,235.77,110210,,*25
$GPRMC,134757.000,A,3242.2028,N,11604.2697,W,26.30,240.39,110210,,*2D
$GPRMC,134800.000,A,3242.1933,N,11604.2936,W,26.83,245.86,110210,,*2D
$GPRMC,134803.000,A,3242.1850,N,11604.3192,W,27.20,249.14,110210,,*22
$GPRMC,134806.000,A,3242.1782,N,11604.3452,W,27.31,254.47,110210,,*24
$GPRMC,134809.000,A,3242.1728,N,11604.3717,W,27.28,255.72,110210,,*26
$GPRMC,134812.000,A,3242.1675,N,11604.3981,W,27.45,256.46,110210,,*2B
$GPRMC,134815.000,A,3242.1622,N,11604.4245,W,27.22,255.98,110210,,*2B
$GPRMC,134818.000,A,3242.1569,N,11604.4509,W,27.43,255.82,110210,,*29
$GPRMC,134821.000,A,3242.1514,N,11604.4776,W,28.21,256.16,110210,,*26
$GPRMC,134824.000,A,3242.1457,N,11604.5054,W,29.31,255.58,110210,,*2A
$GPRMC,134827.000,A,3242.1400,N,11604.5338,W,29.42,256.43,110210,,*2F
$GPRMC,134830.000,A,3242.1344,N,11604.5623,W,29.75,256.44,110210,,*22
$GPRMC,134833.000,A,3242.1286,N,11604.5919,W,31.43,256.10,110210,,*25
$GPRMC,134836.000,A,3242.1223,N,11604.6232,W,33.34,255.99,110210,,*2E
$GPRMC,134839.000,A,3242.1153,N,11604.6562,W,35.02,254.03,110210,,*26
$GPRMC,134842.000,A,3242.1054,N,11604.6898,W,36.77,247.52,110210,,*23
$GPRMC,134845.000,A,3242.0918,N,11604.7237,W,38.98,241.47,110210,,*27
$GPRMC,134848.000,A,3242.0738,N,11604.7571,W,40.72,234.29,110210,,*22
$GPRMC,134851.000,A,3242.0517,N,11604.7884,W,41.81,226.68,110210,,*29
$GPRMC,134854.000,A,3242.0253,N,11604.8166,W,42.74,219.10,110210,,*2B
$GPRMC,134857.000,A,3241.9966,N,11604.8424,W,42.65,217.46,110210,,*21
$GPRMC,134900.000,A,3241.9683,N,11604.8675,W,41.83,217.60,110210,,*2F
$GPRMC,134903.000,A,3241.9406,N,11604.8924,W,41.38,217.82,110210,,*24
$GPRMC,134906.000,A,3241.9133,N,11604.9170,W,40.62,217.62,110210,,*2A
$GPRMC,134909.000,A,3241.8868,N,11604.9410,W,39.35,217.59,110210,,*24
$GPRMC,134912.000,A,3241.8615,N,11604.9641,W,36.92,218.14,110210,,*28
$GPRMC,134915.000,A,3241.8376,N,11604.9858,W,35.47,217.41,110210,,*2D
$GPRMC,134918.000,A,3241.8147,N,11605.0066,W,34.04,217.60,110210,,*28
$GPRMC,134921.000,A,3241.7927,N,11605.0268,W,32.83,218.23,110210,,*2E
$GPRMC,134924.000,A,3241.7720,N,11605.0469,W,31.45,220.95,110210,,*2A
$GPRMC,134927.000,A,3241.7531,N,11605.0670,W,30.42,223.82,110210,,*22
$GPRMC,134930.000,A,3241.7356,N,11605.0883,W,30.20,227.39,110210,,*21
$GPRMC,134933.000,A,3241.7191,N,11605.1103,W,29.73,229.71,110210,,*27
$GPRMC,134936.000,A,3241.7032,N,11605.1325,W,29.29,229.60,110210,,*23
$GPRMC,134939.000,A,3241.6875,N,11605.1546,W,29.59,229.65,110210,,*27
$GPRMC,134942.000,A,3241.6712,N,11605.1769,W,30.45,229.33,110210,,*2C
$GPRMC,134945.000,A,3241.6549,N,11605.2001,W,30.55,229.94,110210,,*21
$GPRMC,134948.000,A,3241.6386,N,11605.2234,W,30.74,230.09,110210,,*22
$GPRMC,134951.000,A,3241.6223,N,11605.2465,W,29.92,230.64,110210,,*2D
$GPRMC,134954.000,A,3241.6069,N,11605.2683,W,27.52,230.04,110210,,*2A
$GPRMC,134957.000,A,3241.5928,N,11605.2879,W,24.60,229.62,110210,,*27
$GPRMC,135000.000,A,3241.5797,N,11605.3060,W,24.03,228.90,110210,,*2F
$GPRMC,135003.000,A,3241.5663,N,11605.3235,W,24.12,226.06,110210,,*25
$GPRMC,135006.000,A,3241.5519,N,11605.3400,W,24.00,221.87,110210,,*23
$GPRMC,135009.000,A,3241.5365,N,11605.3554,W,24.14,218.08,110210,,*29
$GPRMC,135012.000,A,3241.5201,N,11605.3692,W,23.79,213.46,110210,,*24
$GPRMC,135015.000,A,3241.5032,N,11605.3815,W,23.95,211.09,110210,,*2B
$GPRMC,135018.000,A,3241.4862,N,11605.3932,W,24.07,210.43,110210,,*2D
$GPRMC,135021.000,A,3241.4691,N,11605.4048,W,24.01,209.57,110210,,*2D
$GPRMC,135024.000,A,3241.4517,N,11605.4162,W,24.17,209.67,110210,,*28
$GPRMC,135027.000,A,3241.4342,N,11605.4278,W,24.15,209.96,110210,,*29
$GPRMC,135030.000,A,3241.4167,N,11605.4391,W,24.42,209.13,110210,,*23
$GPRMC,135033.000,A,3241.3987,N,11605.4508,W,25.44,210.05,110210,,*2F
$GPRMC,135036.000,A,3241.3800,N,11605.4628,W,25.71,209.13,110210,,*2C
$GPRMC,135039.000,A,3241.3609,N,11605.4751,W,26.82,209.10,110210,,*27
$GPRMC,135042.000,A,3241.3413,N,11605.4874,W,27.36,208.21,110210,,*27
$GPRMC,135045.000,A,3241.3205,N,11605.4995,W,27.21,203.82,110210,,*2B
$GPRMC,135048.000,A,3241.2997,N,11605.5089,W,25.20,198.55,110210,,*2A
$GPRMC,135051.000,A,3241.2807,N,11605.5148,W,22.18,192.68,110210,,*2E
$GPRMC,135054.000,A,3241.2628,N,11605.5180,W,21.14,186.80,110210,,*20
$GPRMC,135057.000,A,3241.2454,N,11605.5191,W,20.57,181.53,110210,,*25
$GPRMC,135100.000,A,3241.2281,N,11605.5185,W,20.87,176.64,110210,,*2C
$GPRMC,135103.000,A,3241.2109,N,11605.5163,W,20.86,171.36,110210,,*25
$GPRMC,135106.000,A,3241.1939,N,11605.5128,W,21.01,169.08,110210,,*2D
$GPRMC,135109.000,A,3241.1768,N,11605.5088,W,21.12,169.09,110210,,*20
$GPRMC,135112.000,A,3241.1594,N,11605.5049,W,21.52,170.08,110210,,*2B
$GPRMC,135115.000,A,3241.1414,N,11605.5011,W,22.10,169.96,110210,,*22
$GPRMC,135118.000,A,3241.1235,N,11605.4972,W,21.73,169.06,110210,,*28
$GPRMC,135121.000,A,3241.1055,N,11605.4928,W,21.75,168.76,110210,,*29
$GPRMC,135124.000,A,3241.0879,N,11605.4883,W,21.43,168.66,110210,,*2F
$GPRMC,135127.000,A,3241.0700,N,11605.4837,W,22.01,169.11,110210,,*26
$GPRMC,135130.000,A,3241.0521,N,11605.4795,W,21.56,170.18,110210,,*26
$GPRMC,135133.000,A,3241.0344,N,11605.4762,W,21.20,172.05,110210,,*27
$GPRMC,135136.000,A,3241.0167,N,11605.4745,W,21.24,177.82,110210,,*2A
$GPRMC,135139.000,A,3240.9988,N,11605.4747,W,21.19,182.98,110210,,*29
$GPRMC,135142.000,A,3240.9814,N,11605.4772,W,20.95,189.47,110210,,*2B
$GPRMC,135145.000,A,3240.9641,N,11605.4815,W,21.06,194.04,110210,,*2C
$GPRMC,135148.000,A,3240.9470,N,11605.4877,W,21.22,199.33,110210,,*2A
$GPRMC,135151.000,A,3240.9306,N,11605.4956,W,21.14,205.11,110210,,*25
$GPRMC,135154.000,A,3240.9151,N,11605.5056,W,21.00,210.26,110210,,*2D
$GPRMC,135157.000,A,3240.9005,N,11605.5164,W,20.88,212.39,110210,,*23
$GPRMC,135200.000,A,3240.8865,N,11605.5293,W,21.08,221.58,110210,,*28
$GPRMC,135203.000,A,3240.8743,N,11605.5440,W,20.99,227.51,110210,,*2E
$GPRMC,135206.000,A,3240.8632,N,11605.5601,W,21.17,232.03,110210,,*2F
$GPRMC,135209.000,A,3240.8531,N,11605.5777,W,21.65,237.50,110210,,*26
$GPRMC,135212.000,A,3240.8443,N,11605.5966,W,21.63,242.59,110210,,*2B
$GPRMC,135215.000,A,3240.8368,N,11605.6161,W,21.77,246.09,110210,,*2A
$GPRMC,135218.000,A,3240.8297,N,11605.6358,W,21.78,246.36,110210,,*2D
$GPRMC,135221.000,A,3240.8226,N,11605.6556,W,22.06,246.10,110210,,*2B
$GPRMC,135224.000,A,3240.8153,N,11605.6755,W,22.17,246.04,110210,,*2B
$GPRMC,135227.000,A,3240.8080,N,11605.6958,W,22.46,246.36,110210,,*21
$GPRMC,135230.000,A,3240.8005,N,11605.7161,W,22.63,246.37,110210,,*2F
$GPRMC,135233.000,A,3240.7931,N,11605.7365,W,22.69,246.63,110210,,*20
$GPRMC,135236.000,A,3240.7857,N,11605.7571,W,22.66,246.19,110210,,*25
$GPRMC,135239.000,A,3240.7782,N,11605.7777,W,22.93,246.67,110210,,*2A
$GPRMC,135242.000,A,3240.7706,N,11605.7985,W,23.06,246.34,110210,,*22
$GPRMC,135245.000,A,3240.7629,N,11605.8191,W,22.77,245.72,110210,,*2D
$GPRMC,135248.000,A,3240.7554,N,11605.8395,W,22.43,246.06,110210,,*28
$GPRMC,135251.000,A,3240.7478,N,11605.8596,W,22.38,245.64,110210,,*21
$GPRMC,135254.000,A,3240.7403,N,11605.8796,W,22.34,246.20,110210,,*25
$GPRMC,135257.000,A,3240.7331,N,11605.8997,W,22.09,246.42,110210,,*25
$GPRMC,135300.000,A,3240.7258,N,11605.9196,W,22.24,246.63,110210,,*2C
$GPRMC,135303.000,A,3240.7188,N,11605.9404,W,22.17,249.51,110210,,*21
$GPRMC,135306.000,A,3240.7134,N,11605.9611,W,21.76,255.25,110210,,*2F
$GPRMC,135309.000,A,3240.7098,N,11605.9823,W,21.48,261.61,110210,,*22
$GPRMC,135312.000,A,3240.7082,N,11606.0037,W,21.63,266.44,110210,,*2D
$GPRMC,135315.000,A,3240.7081,N,11606.0253,W,21.96,271.72,110210,,*20
$GPRMC,135318.000,A,3240.7099,N,11606.0474,W,21.90,277.00,110210,,*22
$GPRMC,135321.000,A,3240.7128,N,11606.0691,W,21.44,279.57,110210,,*2F
$GPRMC,135324.000,A,3240.7161,N,11606.0898,W,20.92,279.98,110210,,*29
$GPRMC,135327.000,A,3240.7191,N,11606.1102,W,20.79,279.33,110210,,*2A
$GPRMC,135330.000,A,3240.7221,N,11606.1305,W,20.53,279.50,110210,,*2C
$GPRMC,135333.000,A,3240.7249,N,11606.1504,W,20.18,278.32,110210,,*2C
$GPRMC,135336.000,A,3240.7268,N,11606.1702,W,19.82,273.78,110210,,*22
$GPRMC,135339.000,A,3240.7273,N,11606.1896,W,19.02,268.59,110210,,*24
$GPRMC,135342.000,A,3240.7263,N,11606.2076,W,17.94,263.70,110210,,*2D
$GPRMC,135345.000,A,3240.7239,N,11606.2257,W,19.22,258.45,110210,,*29
$GPRMC,135348.000,A,3240.7198,N,11606.2448,W,20.45,253.90,110210,,*2C
$GPRMC,135351.000,A,3240.7143,N,11606.2648,W,22.01,250.41,110210,,*2D
$GPRMC,135354.000,A,3240.7075,N,11606.2842,W,20.36,245.56,110210,,*2C
$GPRMC,135357.000,A,3240.7000,N,11606.3018,W,19.62,240.69,110210,,*29
$GPRMC,135400.000,A,3240.6914,N,11606.3178,W,19.19,235.43,110210,,*20
$GPRMC,135403.000,A,3240.6822,N,11606.3325,W,17.64,231.38,110210,,*21
$GPRMC,135406.000,A,3240.6725,N,11606.3460,W,18.56,227.36,110210,,*2D
$GPRMC,135409.000,A,3240.6610,N,11606.3592,W,19.50,222.36,110210,,*2B
$GPRMC,135412.000,A,3240.6482,N,11606.3715,W,20.02,217.46,110210,,*29
$GPRMC,135415.000,A,3240.6345,N,11606.3827,W,19.92,213.90,110210,,*20
$GPRMC,135418.000,A,3240.6200,N,11606.3929,W,20.27,208.85,110210,,*28
$GPRMC,135421.000,A,3240.6047,N,11606.4017,W,20.21,204.52,110210,,*20
$GPRMC,135424.000,A,3240.5890,N,11606.4095,W,20.43,202.86,110210,,*25
$GPRMC,135427.000,A,3240.5732,N,11606.4173,W,20.65,203.74,110210,,*20
$GPRMC,135430.000,A,3240.5573,N,11606.4253,W,20.44,203.22,110210,,*20
$GPRMC,135433.000,A,3240.5415,N,11606.4330,W,20.36,202.66,110210,,*22
$GPRMC,135436.000,A,3240.5256,N,11606.4402,W,20.44,199.80,110210,,*2C
$GPRMC,135439.000,A,3240.5091,N,11606.4463,W,20.72,195.23,110210,,*2D
$GPRMC,135442.000,A,3240.4918,N,11606.4504,W,20.97,189.73,110210,,*2B
$GPRMC,135445.000,A,3240.4744,N,11606.4528,W,21.06,185.83,110210,,*2F
$GPRMC,135448.000,A,3240.4566,N,11606.4539,W,21.31,180.76,110210,,*2B
$GPRMC,135451.000,A,3240.4386,N,11606.4527,W,21.58,174.98,110210,,*20
$GPRMC,135454.000,A,3240.4207,N,11606.4497,W,21.62,170.45,110210,,*2A
$GPRMC,135457.000,A,3240.4031,N,11606.4450,W,21.42,165.64,110210,,*20
$GPRMC,135500.000,A,3240.3861,N,11606.4385,W,21.44,159.35,110210,,*2B
$GPRMC,135503.000,A,3240.3696,N,11606.4300,W,21.77,155.02,110210,,*2B
$GPRMC,135506.000,A,3240.3533,N,11606.4203,W,21.97,154.01,110210,,*2C
$GPRMC,135509.000,A,3240.3368,N,11606.4103,W,22.51,153.40,110210,,*23
$GPRMC,135512.000,A,3240.3199,N,11606.4003,W,22.85,153.92,110210,,*22
$GPRMC,135515.000,A,3240.3025,N,11606.3902,W,22.88,154.42,110210,,*2B
$GPRMC,135518.000,A,3240.2857,N,11606.3815,W,21.70,160.70,110210,,*2F
$GPRMC,135521.000,A,3240.2683,N,11606.3755,W,21.20,165.62,110210,,*2A
$GPRMC,135524.000,A,3240.2508,N,11606.3714,W,21.37,171.76,110210,,*2C
$GPRMC,135527.000,A,3240.2331,N,11606.3690,W,21.21,176.26,110210,,*2B
$GPRMC,135530.000,A,3240.2154,N,11606.3684,W,20.90,181.59,110210,,*22
$GPRMC,135533.000,A,3240.1979,N,11606.3700,W,20.34,186.58,110210,,*20
$GPRMC,135536.000,A,3240.1811,N,11606.3727,W,20.19,189.92,110210,,*29
$GPRMC,135539.000,A,3240.1642,N,11606.3765,W,20.16,190.74,110210,,*27
$GPRMC,135542.000,A,3240.1477,N,11606.3804,W,20.16,190.43,110210,,*23
$GPRMC,135545.000,A,3240.1310,N,11606.3839,W,20.16,190.07,110210,,*2C
$GPRMC,135548.000,A,3240.1145,N,11606.3873,W,20.07,190.20,110210,,*28
$GPRMC,135551.000,A,3240.0979,N,11606.3908,W,20.15,190.27,110210,,*2F
$GPRMC,135554.000,A,3240.0810,N,11606.3941,W,20.89,188.87,110210,,*2F
$GPRMC,135557.000,A,3240.0633,N,11606.3970,W,21.88,187.56,110210,,*22
$GPRMC,135600.000,A,3240.0447,N,11606.3990,W,22.51,184.54,110210,,*2A
$GPRMC,135603.000,A,3240.0256,N,11606.4002,W,22.76,182.59,110210,,*24
$GPRMC,135606.000,A,3240.0064,N,11606.4005,W,23.15,180.62,110210,,*2B
$GPRMC,135609.000,A,3239.9874,N,11606.4003,W,21.54,179.72,110210,,*2C
$GPRMC,135612.000,A,3239.9701,N,11606.3999,W,20.35,178.76,110210,,*25
$GPRMC,135615.000,A,3239.9533,N,11606.3996,W,20.13,179.76,110210,,*2B
$GPRMC,135618.000,A,3239.9366,N,11606.3993,W,20.05,179.30,110210,,*20
$GPRMC,135621.000,A,3239.9199,N,11606.3990,W,20.04,179.27,110210,,*2C
$GPRMC,135624.000,A,3239.9033,N,11606.3985,W,19.79,178.64,110210,,*2A
$GPRMC,135627.000,A,3239.8870,N,11606.3978,W,19.46,177.82,110210,,*2E
$GPRMC,135630.000,A,3239.8710,N,11606.3966,W,18.89,174.57,110210,,*27
$GPRMC,135633.000,A,3239.8563,N,11606.3942,W,17.49,170.23,110210,,*20
$GPRMC,135636.000,A,3239.8415,N,11606.3901,W,18.88,164.43,110210,,*23
$GPRMC,135639.000,A,3239.8263,N,11606.3839,W,19.66,159.51,110210,,*2D
$GPRMC,135642.000,A,3239.8112,N,11606.3763,W,19.63,155.75,110210,,*2B
$GPRMC,135645.000,A,3239.7965,N,11606.3672,W,19.88,150.41,110210,,*2D
$GPRMC,135648.000,A,3239.7825,N,11606.3565,W,20.07,145.20,110210,,*2E
$GPRMC,135651.000,A,3239.7689,N,11606.3440,W,20.84,140.52,110210,,*23
$GPRMC,135654.000,A,3239.7561,N,11606.3296,W,21.29,134.12,110210,,*2F
$GPRMC,135657.000,A,3239.7442,N,11606.3135,W,21.77,129.59,110210,,*2E
$GPRMC,135700.000,A,3239.7331,N,11606.2961,W,21.91,125.13,110210,,*2C
$GPRMC,135703.000,A,3239.7237,N,11606.2775,W,21.39,118.79,110210,,*23
$GPRMC,135706.000,A,3239.7161,N,11606.2584,W,21.05,113.41,110210,,*25
$GPRMC,135709.000,A,3239.7098,N,11606.2385,W,21.54,110.28,110210,,*22
$GPRMC,135712.000,A,3239.7037,N,11606.2184,W,21.29,110.63,110210,,*2B
$GPRMC,135715.000,A,3239.6971,N,11606.1983,W,21.73,111.26,110210,,*25
$GPRMC,135718.000,A,3239.6906,N,11606.1780,W,21.80,110.52,110210,,*2B
$GPRMC,135721.000,A,3239.6838,N,11606.1580,W,21.36,112.78,110210,,*28
$GPRMC,135724.000,A,3239.6765,N,11606.1388,W,20.91,115.77,110210,,*20
$GPRMC,135727.000,A,3239.6688,N,11606.1208,W,20.45,118.50,110210,,*29
$GPRMC,135730.000,A,3239.6607,N,11606.1035,W,19.91,121.11,110210,,*28
$GPRMC,135733.000,A,3239.6520,N,11606.0873,W,19.26,124.81,110210,,*26
$GPRMC,135736.000,A,3239.6429,N,11606.0719,W,18.97,124.81,110210,,*23
$GPRMC,135739.000,A,3239.6335,N,11606.0564,W,18.99,124.06,110210,,*2F
$GPRMC,135742.000,A,3239.6244,N,11606.0412,W,18.93,125.66,110210,,*29
$GPRMC,135745.000,A,3239.6153,N,11606.0260,W,19.10,125.00,110210,,*22
$GPRMC,135748.000,A,3239.6062,N,11606.0105,W,19.57,125.29,110210,,*24
$GPRMC,135751.000,A,3239.5965,N,11605.9948,W,19.93,126.31,110210,,*28
$GPRMC,135754.000,A,3239.5859,N,11605.9790,W,20.39,130.03,110210,,*24
$GPRMC,135757.000,A,3239.5747,N,11605.9645,W,20.22,133.39,110210,,*2E
$GPRMC,135800.000,A,3239.5624,N,11605.9514,W,20.12,139.56,110210,,*20
$GPRMC,135803.000,A,3239.5493,N,11605.9391,W,20.19,143.30,110210,,*20
$GPRMC,135806.000,A,3239.5352,N,11605.9277,W,20.39,150.10,110210,,*24
$GPRMC,135809.000,A,3239.5197,N,11605.9189,W,20.98,156.15,110210,,*2A
$GPRMC,135812.000,A,3239.5032,N,11605.9112,W,20.83,159.40,110210,,*29
$GPRMC,135815.000,A,3239.4865,N,11605.9052,W,20.67,165.85,110210,,*2C
$GPRMC,135818.000,A,3239.4699,N,11605.9015,W,20.69,171.67,110210,,*28
$GPRMC,135821.000,A,3239.4530,N,11605.8999,W,20.04,177.07,110210,,*25
$GPRMC,135824.000,A,3239.4364,N,11605.8998,W,19.89,182.02,110210,,*26
$GPRMC,135827.000,A,3239.4199,N,11605.9014,W,19.86,186.90,110210,,*29
$GPRMC,135830.000,A,3239.4034,N,11605.9048,W,19.36,191.83,110210,,*2F
$GPRMC,135833.000,A,3239.3879,N,11605.9094,W,18.97,195.37,110210,,*2A
$GPRMC,135836.000,A,3239.3725,N,11605.9147,W,19.29,196.64,110210,,*27
$GPRMC,135839.000,A,3239.3568,N,11605.9201,W,19.68,196.24,110210,,*23
$GPRMC,135842.000,A,3239.3410,N,11605.9255,W,19.57,196.16,110210,,*2D
$GPRMC,135845.000,A,3239.3252,N,11605.9309,W,19.75,196.66,110210,,*25
$GPRMC,135848.000,A,3239.3092,N,11605.9365,W,20.05,196.16,110210,,*26
$GPRMC,135851.000,A,3239.2928,N,11605.9420,W,20.30,196.43,110210,,*27
$GPRMC,135854.000,A,3239.2763,N,11605.9477,W,20.52,196.44,110210,,*22
$GPRMC,135857.000,A,3239.2599,N,11605.9535,W,20.39,197.58,110210,,*20
$GPRMC,135900.000,A,3239.2438,N,11605.9597,W,19.99,199.24,110210,,*24
$GPRMC,135903.000,A,3239.2284,N,11605.9667,W,19.81,202.20,110210,,*26
$GPRMC,135906.000,A,3239.2133,N,11605.9747,W,20.20,205.38,110210,,*20
$GPRMC,135909.000,A,3239.1985,N,11605.9839,W,20.09,208.93,110210,,*28
$GPRMC,135912.000,A,3239.1844,N,11605.9937,W,19.45,210.95,110210,,*2C
$GPRMC,135915.000,A,3239.1708,N,11606.0040,W,18.98,213.51,110210,,*25
$GPRMC,135918.000,A,3239.1579,N,11606.0150,W,18.93,215.52,110210,,*22
$GPRMC,135921.000,A,3239.1450,N,11606.0261,W,19.41,216.11,110210,,*29
$GPRMC,135924.000,A,3239.1320,N,11606.0374,W,19.57,216.00,110210,,*2E
$GPRMC,135927.000,A,3239.1187,N,11606.0489,W,19.88,215.71,110210,,*20
$GPRMC,135930.000,A,3239.1050,N,11606.0604,W,20.45,215.22,110210,,*27
$GPRMC,135933.000,A,3239.0908,N,11606.0724,W,21.38,215.67,110210,,*28
$GPRMC,135936.000,A,3239.0761,N,11606.0847,W,22.04,215.00,110210,,*2B
$GPRMC,135939.000,A,3239.0610,N,11606.0972,W,22.31,215.77,110210,,*22
$GPRMC,135942.000,A,3239.0458,N,11606.1101,W,22.96,215.42,110210,,*26
$GPRMC,135945.000,A,3239.0302,N,11606.1230,W,22.54,215.22,110210,,*20
$GPRMC,135948.000,A,3239.0147,N,11606.1362,W,23.45,215.64,110210,,*2B
$GPRMC,135951.000,A,3238.9984,N,11606.1500,W,24.48,215.72,110210,,*23
$GPRMC,135954.000,A,3238.9815,N,11606.1643,W,25.26,215.77,110210,,*27
$GPRMC,135957.000,A,3238.9642,N,11606.1790,W,25.43,215.67,110210,,*25
$GPRMC,140000.000,A,3238.9472,N,11606.1935,W,25.17,215.56,110210,,*2F
$GPRMC,140003.000,A,3238.9298,N,11606.2081,W,26.02,215.56,110210,,*2C
$GPRMC,140006.000,A,3238.9117,N,11606.2232,W,27.06,215.03,110210,,*22
$GPRMC,140009.000,A,3238.8927,N,11606.2388,W,28.36,214.21,110210,,*2A
$GPRMC,140012.000,A,3238.8724,N,11606.2544,W,29.07,211.36,110210,,*2B
$GPRMC,140015.000,A,3238.8510,N,11606.2691,W,29.61,208.76,110210,,*2E
$GPRMC,140018.000,A,3238.8287,N,11606.2831,W,30.72,207.42,110210,,*2C
$GPRMC,140021.000,A,3238.8059,N,11606.2967,W,31.18,206.97,110210,,*21
$GPRMC,140024.000,A,3238.7821,N,11606.3107,W,32.03,206.42,110210,,*22
$GPRMC,140027.000,A,3238.7585,N,11606.3247,W,30.72,206.82,110210,,*2D
$GPRMC,140030.000,A,3238.7357,N,11606.3383,W,30.20,207.05,110210,,*22
$GPRMC,140033.000,A,3238.7132,N,11606.3520,W,30.06,206.92,110210,,*24
$GPRMC,140036.000,A,3238.6905,N,11606.3654,W,30.30,206.26,110210,,*26
$GPRMC,140039.000,A,3238.6676,N,11606.3789,W,30.54,206.86,110210,,*2B
$GPRMC,140042.000,A,3238.6448,N,11606.3927,W,30.67,206.99,110210,,*2C
$GPRMC,140045.000,A,3238.6217,N,11606.4063,W,30.93,206.64,110210,,*20
$GPRMC,140048.000,A,3238.5984,N,11606.4202,W,31.49,206.69,110210,,*21
$GPRMC,140051.000,A,3238.5745,N,11606.4342,W,32.34,206.18,110210,,*20
$GPRMC,140054.000,A,3238.5503,N,11606.4484,W,33.47,206.46,110210,,*26
$GPRMC,140057.000,A,3238.5253,N,11606.4632,W,34.57,206.67,110210,,*2D
$GPRMC,140100.000,A,3238.4993,N,11606.4787,W,35.74,206.97,110210,,*28
$GPRMC,140103.000,A,3238.4725,N,11606.4951,W,36.83,206.82,110210,,*22
$GPRMC,140106.000,A,3238.4448,N,11606.5117,W,37.87,206.75,110210,,*29
$GPRMC,140109.000,A,3238.4164,N,11606.5289,W,38.44,207.12,110210,,*29
$GPRMC,140112.000,A,3238.3880,N,11606.5476,W,38.68,211.45,110210,,*2A
$GPRMC,140115.000,A,3238.3611,N,11606.5689,W,38.66,216.74,110210,,*22
$GPRMC,140118.000,A,3238.3366,N,11606.5932,W,38.48,223.59,110210,,*20
$GPRMC,140121.000,A,3238.3147,N,11606.6206,W,38.16,229.26,110210,,*2D
$GPRMC,140124.000,A,3238.2952,N,11606.6515,W,38.34,235.68,110210,,*27
$GPRMC,140127.000,A,3238.2785,N,11606.6841,W,38.28,240.87,110210,,*22
$GPRMC,140130.000,A,3238.2646,N,11606.7185,W,38.11,246.96,110210,,*26
$GPRMC,140133.000,A,3238.2540,N,11606.7541,W,37.98,252.89,110210,,*29
$GPRMC,140136.000,A,3238.2466,N,11606.7905,W,37.85,258.61,110210,,*25
$GPRMC,140139.000,A,3238.2423,N,11606.8275,W,37.84,263.48,110210,,*2A
$GPRMC,140142.000,A,3238.2391,N,11606.8649,W,37.90,263.49,110210,,*27
$GPRMC,140145.000,A,3238.2361,N,11606.9027,W,38.37,264.29,110210,,*23
$GPRMC,140148.000,A,3238.2329,N,11606.9407,W,38.76,263.99,110210,,*2D
$GPRMC,140151.000,A,3238.2295,N,11606.9789,W,38.48,263.36,110210,,*2E
$GPRMC,140154.000,A,3238.2259,N,11607.0169,W,39.07,263.29,110210,,*2F
$GPRMC,140157.000,A,3238.2225,N,11607.0558,W,39.61,263.99,110210,,*2A
$GPRMC,140200.000,A,3238.2192,N,11607.0952,W,40.40,264.13,110210,,*2A
$GPRMC,140203.000,A,3238.2157,N,11607.1357,W,41.97,263.69,110210,,*2F
$GPRMC,140206.000,A,3238.2118,N,11607.1779,W,44.03,263.54,110210,,*2F
$GPRMC,140209.000,A,3238.2076,N,11607.2222,W,46.13,263.54,110210,,*22
$GPRMC,140212.000,A,3238.2033,N,11607.2686,W,48.44,263.76,110210,,*2F
$GPRMC,140215.000,A,3238.1989,N,11607.3173,W,50.63,263.88,110210,,*22
$GPRMC,140218.000,A,3238.1943,N,11607.3681,W,52.55,263.82,110210,,*2E
$GPRMC,140221.000,A,3238.1896,N,11607.4202,W,53.33,263.83,110210,,*25
