NMEA Sentence Code,UTC Time,Status,Latitude,Latitude Direction,Longitude,Longitude Direction,Speed (knots),Track Angle (degrees true),Date,MagneticVariation,Magnetic Variation Direction,[FAA Mode]-Optional,Checksum
$GPRMC,061311.7,A,3256.8534,N,11708.4985,W,39.60,35.30,190210,,*17
$GPRMC,061314.7,A,3256.8813,N,11708.4727,W,41.90,44.40,190210,,*1D
$GPRMC,061317.7,A,3256.8979,N,11708.4436,W,40.10,58.70,190210,,*17
$GPRMC,061320.7,A,3256.9097,N,11708.4062,W,42.20,71.10,190210,,*12
$GPRMC,061323.7,A,3256.9191,N,11708.3662,W,41.90,73.40,190210,,*18
$GPRMC,061326.7,A,3256.9274,N,11708.3260,W,42.10,74.60,190210,,*1D
$GPRMC,061329.7,A,3256.9356,N,11708.2851,W,42.40,80.20,190210,,*10
$GPRMC,061332.7,A,3256.9370,N,11708.2424,W,42.30,90.40,190210,,*10
$GPRMC,061336.7,A,3256.9253,N,11708.1885,W,41.60,108.60,190210,,*24
$GPRMC,061339.7,A,3256.9105,N,11708.1509,W,40.90,117.90,190210,,*2D
$GPRMC,061342.7,A,3256.8914,N,11708.1171,W,40.60,124.50,190210,,*20
$GPRMC,061345.7,A,3256.8708,N,11708.0830,W,41.50,125.40,190210,,*2B
$GPRMC,061348.7,A,3256.8496,N,11708.0506,W,41.50,125.40,190210,,*2A
$GPRMC,061351.7,A,3256.8309,N,11708.0162,W,42.90,118.40,190210,,*24
$GPRMC,061354.7,A,3256.8174,N,11707.9768,W,42.70,108.10,190210,,*29
$GPRMC,061357.7,A,3256.8124,N,11707.9341,W,43.20,97.40,190210,,*16
$GPRMC,061400.7,A,3256.8121,N,11707.8940,W,40.00,93.00,190210,,*1D
$GPRMC,061404.7,A,3256.8107,N,11707.8460,W,32.70,92.40,190210,,*15
$GPRMC,061407.7,A,3256.8094,N,11707.8186,W,25.40,94.70,190210,,*10
$GPRMC,061410.7,A,3256.8089,N,11707.8085,W,8.20,97.80,190210,,*2D
$GPRMC,061416.7,A,3256.8053,N,11707.8054,W,5.70,128.10,190210,,*14
$GPRMC,061419.7,A,3256.7941,N,11707.8042,W,15.60,175.40,190210,,*24
$GPRMC,061422.7,A,3256.7693,N,11707.8063,W,30.30,185.40,190210,,*22
$GPRMC,061426.7,A,3256.7240,N,11707.8118,W,42.00,184.80,190210,,*2A
$GPRMC,061429.7,A,3256.6861,N,11707.8152,W,43.90,184.60,190210,,*25
$GPRMC,061432.7,A,3256.6488,N,11707.8185,W,44.30,182.20,190210,,*21
$GPRMC,061435.7,A,3256.6120,N,11707.8168,W,44.70,172.80,190210,,*23
$GPRMC,061438.7,A,3256.5741,N,11707.8041,W,46.30,163.90,190210,,*21
$GPRMC,061444.7,A,3256.5036,N,11707.7781,W,44.10,163.10,190210,,*21
$GPRMC,061447.7,A,3256.4678,N,11707.7655,W,45.10,163.20,190210,,*25
$GPRMC,061450.7,A,3256.4321,N,11707.7532,W,44.40,165.00,190210,,*28
$GPRMC,061453.7,A,3256.3952,N,11707.7418,W,45.00,166.00,190210,,*2D
$GPRMC,061456.7,A,3256.3600,N,11707.7309,W,43.40,163.20,190210,,*22
$GPRMC,061459.7,A,3256.3279,N,11707.7140,W,42.20,153.90,190210,,*27
$GPRMC,061503.7,A,3256.2912,N,11707.6840,W,38.70,146.70,190210,,*24
$GPRMC,061506.7,A,3256.2684,N,11707.6657,W,30.10,146.60,190210,,*26
$GPRMC,061509.7,A,3256.2524,N,11707.6526,W,19.60,148.60,190210,,*27
$GPRMC,061512.7,A,3256.2439,N,11707.6469,W,9.50,167.00,190210,,*13
$GPRMC,061521.7,A,3256.2363,N,11707.6420,W,14.50,153.20,190210,,*2F
$GPRMC,061524.7,A,3256.2202,N,11707.6242,W,27.40,141.40,190210,,*2A
$GPRMC,061527.7,A,3256.1965,N,11707.6054,W,35.50,146.20,190210,,*26
$GPRMC,061530.7,A,3256.1675,N,11707.5862,W,39.80,150.10,190210,,*25
$GPRMC,061534.7,A,3256.1245,N,11707.5633,W,41.70,159.90,190210,,*2D
$GPRMC,061537.7,A,3256.0900,N,11707.5561,W,41.30,173.70,190210,,*23
$GPRMC,061540.7,A,3256.0548,N,11707.5556,W,41.80,181.40,190210,,*22
$GPRMC,061543.7,A,3256.0195,N,11707.5564,W,41.90,181.50,190210,,*24
$GPRMC,061546.7,A,3255.9836,N,11707.5585,W,43.70,182.10,190210,,*2F
$GPRMC,061549.7,A,3255.9468,N,11707.5596,W,44.90,181.30,190210,,*2D
$GPRMC,061552.7,A,3255.9082,N,11707.5601,W,46.50,180.00,190210,,*26
$GPRMC,061556.7,A,3255.8573,N,11707.5574,W,45.90,175.90,190210,,*25
$GPRMC,061559.7,A,3255.8194,N,11707.5527,W,45.50,172.50,190210,,*26
$GPRMC,061602.7,A,3255.7821,N,11707.5447,W,45.20,169.50,190210,,*29
$GPRMC,061605.7,A,3255.7451,N,11707.5338,W,46.30,167.10,190210,,*22
$GPRMC,061608.7,A,3255.7077,N,11707.5245,W,45.70,167.80,190210,,*2A
$GPRMC,061611.7,A,3255.6704,N,11707.5149,W,45.70,167.50,190210,,*22
$GPRMC,061615.7,A,3255.6199,N,11707.5027,W,46.50,167.30,190210,,*2A
$GPRMC,061618.7,A,3255.5821,N,11707.4921,W,47.00,167.80,190210,,*2F
$GPRMC,061621.7,A,3255.5438,N,11707.4830,W,45.10,170.30,190210,,*2E
$GPRMC,061624.7,A,3255.5105,N,11707.4785,W,36.80,175.80,190210,,*22
$GPRMC,061626.7,A,3255.4928,N,11707.4780,W,30.50,177.30,190210,,*21
$GPRMC,061628.7,A,3255.4814,N,11707.4786,W,20.70,182.20,190210,,*2F
$GPRMC,061631.7,A,3255.4709,N,11707.4796,W,10.30,187.50,190210,,*20
$GPRMC,061649.7,A,3255.4642,N,11707.4809,W,5.70,185.10,190210,,*1E
$GPRMC,061652.7,A,3255.4454,N,11707.4837,W,21.50,188.70,190210,,*23
$GPRMC,061655.7,A,3255.4185,N,11707.4912,W,31.80,191.60,190210,,*2E
$GPRMC,061658.7,A,3255.3857,N,11707.4988,W,39.20,193.00,190210,,*27
$GPRMC,061701.7,A,3255.3505,N,11707.5074,W,41.80,191.00,190210,,*2C
$GPRMC,061704.7,A,3255.3162,N,11707.5128,W,41.40,185.80,190210,,*25
$GPRMC,061707.7,A,3255.2844,N,11707.5118,W,38.80,179.20,190210,,*22
$GPRMC,061710.7,A,3255.2525,N,11707.5104,W,38.30,178.10,190210,,*2A
$GPRMC,061714.7,A,3255.2107,N,11707.5102,W,38.10,179.90,190210,,*27
$GPRMC,061717.7,A,3255.1796,N,11707.5104,W,37.40,179.40,190210,,*28
$GPRMC,061720.7,A,3255.1485,N,11707.5093,W,36.10,178.30,190210,,*20
$GPRMC,061723.7,A,3255.1205,N,11707.5071,W,31.60,175.50,190210,,*2A
$GPRMC,061726.7,A,3255.0970,N,11707.5053,W,26.30,174.40,190210,,*24
$GPRMC,061729.7,A,3255.0766,N,11707.5028,W,23.20,174.40,190210,,*2A
$GPRMC,061732.7,A,3255.0580,N,11707.5004,W,21.10,174.20,190210,,*23
$GPRMC,061735.7,A,3255.0464,N,11707.4989,W,9.50,176.20,190210,,*1E
$GPRMC,061846.7,A,3255.0279,N,11707.4951,W,14.90,170.00,190210,,*2E
$GPRMC,061849.7,A,3255.0115,N,11707.4916,W,21.60,170.60,190210,,*24
$GPRMC,061852.7,A,3254.9902,N,11707.4882,W,27.10,171.40,190210,,*26
$GPRMC,061855.7,A,3254.9644,N,11707.4850,W,30.70,174.40,190210,,*26
$GPRMC,061858.7,A,3254.9380,N,11707.4817,W,30.90,175.30,190210,,*2D
$GPRMC,061901.7,A,3254.9141,N,11707.4798,W,28.50,176.60,190210,,*24
$GPRMC,061904.7,A,3254.8908,N,11707.4774,W,28.20,175.30,190210,,*26
$GPRMC,061907.7,A,3254.8689,N,11707.4749,W,26.50,175.50,190210,,*22
$GPRMC,061910.7,A,3254.8473,N,11707.4741,W,25.80,175.90,190210,,*29
$GPRMC,061913.7,A,3254.8273,N,11707.4721,W,23.30,175.60,190210,,*28
$GPRMC,061916.7,A,3254.8094,N,11707.4702,W,20.10,175.40,190210,,*24
$GPRMC,061919.7,A,3254.7941,N,11707.4683,W,17.10,175.70,190210,,*2A
$GPRMC,061922.7,A,3254.7824,N,11707.4674,W,14.20,176.60,190210,,*2A
$GPRMC,061925.7,A,3254.7685,N,11707.4658,W,18.40,176.40,190210,,*2E
$GPRMC,061928.7,A,3254.7473,N,11707.4664,W,28.10,178.60,190210,,*2D
$GPRMC,061931.7,A,3254.7218,N,11707.4658,W,30.90,178.30,190210,,*25
$GPRMC,061934.7,A,3254.6952,N,11707.4654,W,32.60,178.60,190210,,*20
$GPRMC,061937.7,A,3254.6678,N,11707.4647,W,33.20,178.50,190210,,*20
$GPRMC,061940.7,A,3254.6389,N,11707.4638,W,35.00,178.60,190210,,*24
$GPRMC,061944.7,A,3254.6002,N,11707.4623,W,34.70,178.30,190210,,*29
$GPRMC,061947.7,A,3254.5707,N,11707.4605,W,35.30,177.80,190210,,*2E
$GPRMC,061948.7,A,3254.5607,N,11707.4597,W,35.60,177.40,190210,,*21
$GPRMC,061951.7,A,3254.5298,N,11707.4590,W,36.80,178.10,190210,,*2B
$GPRMC,061954.7,A,3254.4994,N,11707.4589,W,36.10,178.90,190210,,*21
$GPRMC,061957.7,A,3254.4698,N,11707.4576,W,35.70,178.70,190210,,*2A
$GPRMC,062000.7,A,3254.4403,N,11707.4563,W,36.00,178.30,190210,,*26
$GPRMC,062003.7,A,3254.4097,N,11707.4549,W,37.00,178.20,190210,,*24
$GPRMC,062007.7,A,3254.3672,N,11707.4546,W,37.30,179.50,190210,,*20
$GPRMC,062009.7,A,3254.3459,N,11707.4549,W,37.50,179.80,190210,,*21
$GPRMC,062011.7,A,3254.3253,N,11707.4539,W,37.30,179.50,190210,,*28
$GPRMC,062014.7,A,3254.2954,N,11707.4539,W,36.40,178.50,190210,,*27
$GPRMC,062017.7,A,3254.2642,N,11707.4533,W,36.50,180.30,190210,,*26
$GPRMC,062020.7,A,3254.2373,N,11707.4528,W,31.80,180.10,190210,,*27
$GPRMC,062023.7,A,3254.2124,N,11707.4515,W,29.10,178.60,190210,,*2A
$GPRMC,062026.7,A,3254.1919,N,11707.4518,W,24.50,181.10,190210,,*2F
$GPRMC,062029.7,A,3254.1770,N,11707.4494,W,16.30,177.00,190210,,*2B
$GPRMC,062034.7,A,3254.1688,N,11707.4500,W,7.70,183.00,190210,,*12
$GPRMC,062037.7,A,3254.1564,N,11707.4487,W,14.80,176.40,190210,,*2D
$GPRMC,062040.7,A,3254.1285,N,11707.4427,W,31.60,169.10,190210,,*2D
$GPRMC,062043.7,A,3254.0960,N,11707.4368,W,38.40,169.10,190210,,*28
$GPRMC,062047.7,A,3254.0524,N,11707.4280,W,38.20,169.30,190210,,*23
$GPRMC,062050.7,A,3254.0221,N,11707.4195,W,37.10,166.60,190210,,*26
$GPRMC,062053.7,A,3253.9935,N,11707.4108,W,35.00,162.90,190210,,*29
$GPRMC,062056.7,A,3253.9659,N,11707.3985,W,34.90,159.40,190210,,*2E
$GPRMC,062059.7,A,3253.9405,N,11707.3856,W,31.30,155.10,190210,,*23
$GPRMC,062102.7,A,3253.9215,N,11707.3742,W,22.40,158.50,190210,,*2D
$GPRMC,062105.7,A,3253.9081,N,11707.3758,W,15.20,193.10,190210,,*2F
$GPRMC,062108.7,A,3253.8882,N,11707.3945,W,28.80,212.00,190210,,*25
$GPRMC,062111.7,A,3253.8617,N,11707.4041,W,32.80,191.50,190210,,*23
$GPRMC,062114.7,A,3253.8342,N,11707.4064,W,33.70,183.10,190210,,*2D
$GPRMC,062117.7,A,3253.8044,N,11707.4077,W,36.70,181.80,190210,,*27
$GPRMC,062121.7,A,3253.7611,N,11707.4090,W,37.80,181.40,190210,,*20
$GPRMC,062124.7,A,3253.7308,N,11707.4107,W,37.20,182.00,190210,,*2A
$GPRMC,062127.7,A,3253.6995,N,11707.4121,W,36.80,183.30,190210,,*2B
$GPRMC,062130.7,A,3253.6705,N,11707.4144,W,33.10,182.90,190210,,*2E
$GPRMC,062133.7,A,3253.6484,N,11707.4154,W,23.90,183.50,190210,,*22
$GPRMC,062136.7,A,3253.6354,N,11707.4156,W,12.30,178.90,190210,,*2F
$GPRMC,062139.7,A,3253.6305,N,11707.4212,W,13.20,235.50,190210,,*21
$GPRMC,062142.7,A,3253.6297,N,11707.4437,W,26.60,263.80,190210,,*2A
$GPRMC,062145.7,A,3253.6308,N,11707.4822,W,41.00,269.30,190210,,*24
$GPRMC,062148.7,A,3253.6300,N,11707.5257,W,43.10,269.20,190210,,*2A
$GPRMC,062151.7,A,3253.6297,N,11707.5668,W,40.90,269.30,190210,,*2F
$GPRMC,062154.7,A,3253.6295,N,11707.6066,W,40.10,269.60,190210,,*2E
$GPRMC,062158.7,A,3253.6291,N,11707.6622,W,42.30,269.80,190210,,*2E
$GPRMC,062201.7,A,3253.6290,N,11707.7030,W,40.80,269.80,190210,,*2D
$GPRMC,062204.7,A,3253.6290,N,11707.7416,W,37.60,269.40,190210,,*2A
$GPRMC,062208.7,A,3253.6280,N,11707.7858,W,29.90,268.50,190210,,*21
$GPRMC,062211.7,A,3253.6279,N,11707.8090,W,21.60,269.60,190210,,*29
$GPRMC,062214.7,A,3253.6276,N,11707.8286,W,19.50,268.80,190210,,*21
$GPRMC,062217.7,A,3253.6269,N,11707.8489,W,24.10,270.30,190210,,*2D
$GPRMC,062220.7,A,3253.6263,N,11707.8781,W,29.10,268.70,190210,,*28
$GPRMC,062223.7,A,3253.6259,N,11707.9079,W,28.90,267.60,190210,,*24
$GPRMC,062226.7,A,3253.6244,N,11707.9363,W,28.30,268.40,190210,,*22
$GPRMC,062229.7,A,3253.6246,N,11707.9653,W,30.80,269.50,190210,,*2B
$GPRMC,062232.7,A,3253.6243,N,11707.9992,W,35.90,269.30,190210,,*24
$GPRMC,062236.7,A,3253.6246,N,11708.0508,W,41.10,269.60,190210,,*22
$GPRMC,062239.7,A,3253.6217,N,11708.0945,W,45.80,264.20,190210,,*28
$GPRMC,062242.7,A,3253.6153,N,11708.1411,W,47.90,258.70,190210,,*23
$GPRMC,062245.7,A,3253.6030,N,11708.1875,W,48.90,250.40,190210,,*2A
$GPRMC,062248.7,A,3253.5842,N,11708.2309,W,50.30,241.10,190210,,*2C
$GPRMC,062251.7,A,3253.5609,N,11708.2738,W,51.70,236.50,190210,,*22
$GPRMC,062254.7,A,3253.5349,N,11708.3173,W,53.60,235.50,190210,,*2E
$GPRMC,062257.7,A,3253.5104,N,11708.3628,W,53.90,237.30,190210,,*24
$GPRMC,062300.7,A,3253.4863,N,11708.4061,W,52.40,236.20,190210,,*2E
$GPRMC,062303.7,A,3253.4604,N,11708.4483,W,51.40,235.30,190210,,*2B
$GPRMC,062306.7,A,3253.4366,N,11708.4900,W,50.60,235.60,190210,,*2F
$GPRMC,062310.7,A,3253.4053,N,11708.5442,W,49.50,235.50,190210,,*2F
$GPRMC,062313.7,A,3253.3821,N,11708.5850,W,49.10,235.50,190210,,*2D
$GPRMC,062316.7,A,3253.3578,N,11708.6257,W,50.10,235.40,190210,,*2E
$GPRMC,062319.7,A,3253.3360,N,11708.6647,W,47.70,235.70,190210,,*28
$GPRMC,062322.7,A,3253.3134,N,11708.7028,W,46.90,235.60,190210,,*23
$GPRMC,062325.7,A,3253.2907,N,11708.7423,W,49.40,235.30,190210,,*25
$GPRMC,062328.7,A,3253.2665,N,11708.7834,W,50.60,235.80,190210,,*28
$GPRMC,062331.7,A,3253.2428,N,11708.8242,W,49.30,235.30,190210,,*29
$GPRMC,062334.7,A,3253.2199,N,11708.8629,W,47.00,235.00,190210,,*24
$GPRMC,062337.7,A,3253.1985,N,11708.9007,W,46.50,236.10,190210,,*2C
$GPRMC,062340.7,A,3253.1768,N,11708.9382,W,45.20,235.40,190210,,*2D
$GPRMC,062343.7,A,3253.1553,N,11708.9756,W,46.10,235.70,190210,,*2A
$GPRMC,062349.7,A,3253.1112,N,11709.0523,W,46.40,235.80,190210,,*23
$GPRMC,062352.7,A,3253.0892,N,11709.0906,W,46.80,235.40,190210,,*22
$GPRMC,062355.7,A,3253.0666,N,11709.1305,W,48.40,235.60,190210,,*28
$GPRMC,062358.7,A,3253.0432,N,11709.1698,W,48.80,235.50,190210,,*28
$GPRMC,062401.7,A,3253.0214,N,11709.2095,W,47.30,236.00,190210,,*2B
$GPRMC,062404.7,A,3252.9983,N,11709.2475,W,47.90,235.50,190210,,*25
$GPRMC,062407.7,A,3252.9748,N,11709.2879,W,50.50,235.80,190210,,*28
$GPRMC,062413.7,A,3252.9268,N,11709.3709,W,49.90,235.60,190210,,*29
$GPRMC,062416.7,A,3252.9025,N,11709.4110,W,49.80,235.20,190210,,*2B
$GPRMC,062419.7,A,3252.8803,N,11709.4507,W,47.20,235.90,190210,,*24
$GPRMC,062422.7,A,3252.8589,N,11709.4891,W,46.40,235.70,190210,,*28
$GPRMC,062425.7,A,3252.8374,N,11709.5269,W,47.00,235.60,190210,,*23
$GPRMC,062428.7,A,3252.8149,N,11709.5653,W,46.20,235.60,190210,,*2C
$GPRMC,062431.7,A,3252.7935,N,11709.6021,W,45.40,237.50,190210,,*2C
$GPRMC,062434.7,A,3252.7759,N,11709.6428,W,45.90,245.90,190210,,*24
$GPRMC,062437.7,A,3252.7639,N,11709.6848,W,43.80,253.70,190210,,*24
$GPRMC,062440.7,A,3252.7563,N,11709.7258,W,42.00,258.20,190210,,*25
$GPRMC,062443.7,A,3252.7487,N,11709.7663,W,42.60,257.80,190210,,*22
$GPRMC,062446.7,A,3252.7418,N,11709.8077,W,42.20,258.50,190210,,*2B
$GPRMC,062448.7,A,3252.7370,N,11709.8355,W,42.30,258.40,190210,,*2F
$GPRMC,062450.7,A,3252.7319,N,11709.8638,W,43.50,258.20,190210,,*26
$GPRMC,062454.7,A,3252.7224,N,11709.9214,W,44.20,258.30,190210,,*27
$GPRMC,062457.7,A,3252.7164,N,11709.9627,W,43.10,259.70,190210,,*26
$GPRMC,062500.7,A,3252.7103,N,11710.0046,W,42.70,260.20,190210,,*2C
$GPRMC,062503.7,A,3252.7041,N,11710.0444,W,40.10,259.00,190210,,*22
$GPRMC,062506.7,A,3252.6970,N,11710.0827,W,39.40,258.20,190210,,*2C
$GPRMC,062509.7,A,3252.6900,N,11710.1235,W,44.60,258.80,190210,,*2E
$GPRMC,062512.7,A,3252.6830,N,11710.1687,W,46.30,258.60,190210,,*22
$GPRMC,062515.7,A,3252.6749,N,11710.2126,W,43.90,258.20,190210,,*20
$GPRMC,062518.7,A,3252.6672,N,11710.2531,W,41.20,258.20,190210,,*2F
$GPRMC,062521.7,A,3252.6637,N,11710.2908,W,37.50,268.20,190210,,*27
$GPRMC,062524.7,A,3252.6657,N,11710.3206,W,27.50,276.90,190210,,*25
$GPRMC,062527.7,A,3252.6685,N,11710.3387,W,16.60,278.60,190210,,*21
$GPRMC,062530.7,A,3252.6703,N,11710.3563,W,20.50,278.90,190210,,*2D
$GPRMC,062533.7,A,3252.6744,N,11710.3812,W,29.40,277.40,190210,,*2C
$GPRMC,062536.7,A,3252.6778,N,11710.4143,W,35.70,277.30,190210,,*25
$GPRMC,062539.7,A,3252.6829,N,11710.4547,W,40.50,278.10,190210,,*2C
$GPRMC,062542.7,A,3252.6862,N,11710.4957,W,42.30,274.50,190210,,*2E
$GPRMC,062545.7,A,3252.6853,N,11710.5372,W,41.90,265.20,190210,,*29
$GPRMC,062547.7,A,3252.6824,N,11710.5650,W,42.90,261.10,190210,,*2A
$GPRMC,062549.7,A,3252.6798,N,11710.5933,W,43.20,262.80,190210,,*26
$GPRMC,062552.7,A,3252.6742,N,11710.6355,W,42.90,261.00,190210,,*23
$GPRMC,062555.7,A,3252.6687,N,11710.6779,W,43.50,260.80,190210,,*22
$GPRMC,062558.7,A,3252.6624,N,11710.7215,W,44.00,260.10,190210,,*23
$GPRMC,062601.7,A,3252.6559,N,11710.7637,W,43.30,259.70,190210,,*29
$GPRMC,062605.7,A,3252.6467,N,11710.8193,W,42.60,259.60,190210,,*22
$GPRMC,062608.7,A,3252.6417,N,11710.8597,W,41.20,260.50,190210,,*26
$GPRMC,062611.7,A,3252.6352,N,11710.9003,W,41.60,259.70,190210,,*2D
$GPRMC,062614.7,A,3252.6299,N,11710.9396,W,40.20,260.00,190210,,*29
$GPRMC,062618.7,A,3252.6215,N,11710.9922,W,40.70,260.10,190210,,*20
$GPRMC,062621.7,A,3252.6174,N,11711.0316,W,40.70,262.60,190210,,*2E
$GPRMC,062624.7,A,3252.6152,N,11711.0712,W,40.50,269.60,190210,,*26
$GPRMC,062627.7,A,3252.6150,N,11711.1115,W,40.90,270.30,190210,,*26
$GPRMC,062630.7,A,3252.6161,N,11711.1519,W,41.20,270.90,190210,,*2A
$GPRMC,062633.7,A,3252.6164,N,11711.1933,W,41.70,270.90,190210,,*2D
$GPRMC,062636.7,A,3252.6164,N,11711.2344,W,41.80,270.80,190210,,*2F
$GPRMC,062639.7,A,3252.6162,N,11711.2767,W,43.30,267.90,190210,,*2D
$GPRMC,062642.7,A,3252.6120,N,11711.3208,W,43.90,261.90,190210,,*26
$GPRMC,062645.7,A,3252.6064,N,11711.3635,W,43.60,261.40,190210,,*28
$GPRMC,062648.7,A,3252.6006,N,11711.4065,W,44.60,260.50,190210,,*22
$GPRMC,062651.7,A,3252.5939,N,11711.4496,W,44.70,260.10,190210,,*21
$GPRMC,062654.7,A,3252.5880,N,11711.4931,W,44.70,260.10,190210,,*27
$GPRMC,062657.7,A,3252.5816,N,11711.5369,W,45.10,260.10,190210,,*2A
$GPRMC,062700.7,A,3252.5751,N,11711.5817,W,45.20,258.60,190210,,*28
$GPRMC,062703.7,A,3252.5672,N,11711.6249,W,45.50,258.20,190210,,*2A
$GPRMC,062706.7,A,3252.5603,N,11711.6703,W,47.10,258.60,190210,,*20
$GPRMC,062709.7,A,3252.5519,N,11711.7167,W,47.50,258.90,190210,,*29
$GPRMC,062712.7,A,3252.5442,N,11711.7631,W,48.10,259.20,190210,,*29
$GPRMC,062715.7,A,3252.5374,N,11711.8094,W,47.60,259.80,190210,,*28
$GPRMC,062718.7,A,3252.5314,N,11711.8556,W,47.00,260.30,190210,,*2F
$GPRMC,062721.7,A,3252.5244,N,11711.9008,W,46.40,259.80,190210,,*2A
$GPRMC,062724.7,A,3252.5174,N,11711.9460,W,46.10,260.00,190210,,*22
$GPRMC,062727.7,A,3252.5108,N,11711.9908,W,45.80,260.50,190210,,*26
$GPRMC,062729.7,A,3252.5062,N,11712.0209,W,46.00,260.30,190210,,*28
$GPRMC,062731.7,A,3252.5016,N,11712.0515,W,47.10,260.30,190210,,*28
$GPRMC,062734.7,A,3252.4950,N,11712.0967,W,47.50,260.70,190210,,*2E
$GPRMC,062737.7,A,3252.4890,N,11712.1434,W,46.80,260.90,190210,,*28
$GPRMC,062741.7,A,3252.4799,N,11712.2020,W,44.80,260.90,190210,,*2F
$GPRMC,062744.7,A,3252.4741,N,11712.2440,W,44.20,260.60,190210,,*28
$GPRMC,062747.7,A,3252.4677,N,11712.2888,W,45.00,259.90,190210,,*21
$GPRMC,062750.7,A,3252.4609,N,11712.3318,W,43.30,259.60,190210,,*27
$GPRMC,062753.7,A,3252.4551,N,11712.3724,W,40.80,260.70,190210,,*22
$GPRMC,062756.7,A,3252.4507,N,11712.4100,W,36.50,261.70,190210,,*2E
$GPRMC,062758.7,A,3252.4481,N,11712.4334,W,34.40,263.10,190210,,*2D
$GPRMC,062800.7,A,3252.4463,N,11712.4540,W,30.70,262.80,190210,,*29
$GPRMC,062803.7,A,3252.4431,N,11712.4828,W,30.10,263.10,190210,,*20
$GPRMC,062806.7,A,3252.4390,N,11712.5099,W,25.40,262.30,190210,,*28
$GPRMC,062809.7,A,3252.4372,N,11712.5304,W,18.70,261.00,190210,,*21
$GPRMC,062812.7,A,3252.4344,N,11712.5450,W,12.60,258.80,190210,,*21
$GPRMC,062815.7,A,3252.4330,N,11712.5539,W,8.80,259.60,190210,,*11
$GPRMC,062818.7,A,3252.4322,N,11712.5605,W,6.50,259.80,190210,,*1E
$GPRMC,062824.7,A,3252.4283,N,11712.5674,W,4.40,211.40,190210,,*1E
$GPRMC,062827.7,A,3252.4254,N,11712.5801,W,14.70,250.40,190210,,*2C
$GPRMC,062830.7,A,3252.4204,N,11712.5992,W,22.30,250.90,190210,,*28
$GPRMC,062833.7,A,3252.4152,N,11712.6236,W,26.80,252.30,190210,,*2A
$GPRMC,062836.7,A,3252.4075,N,11712.6519,W,32.10,252.00,190210,,*2E
$GPRMC,062839.7,A,3252.3985,N,11712.6836,W,32.10,252.10,190210,,*21
$GPRMC,062842.7,A,3252.3908,N,11712.7124,W,30.70,253.60,190210,,*21
$GPRMC,062845.7,A,3252.3826,N,11712.7428,W,30.50,251.70,190210,,*23
$GPRMC,062848.7,A,3252.3759,N,11712.7680,W,25.20,252.00,190210,,*2E
$GPRMC,062851.7,A,3252.3698,N,11712.7890,W,20.30,252.20,190210,,*23
$GPRMC,062854.7,A,3252.3655,N,11712.8053,W,15.20,254.60,190210,,*2A
$GPRMC,062857.7,A,3252.3624,N,11712.8152,W,8.60,253.60,190210,,*10
$GPRMC,062903.7,A,3252.3604,N,11712.8213,W,6.30,252.10,190210,,*19
$GPRMC,062908.7,A,3252.3569,N,11712.8439,W,17.90,261.00,190210,,*2F
$GPRMC,062911.7,A,3252.3526,N,11712.8638,W,18.80,257.30,190210,,*27
$GPRMC,062914.7,A,3252.3454,N,11712.8929,W,26.40,254.00,190210,,*28
$GPRMC,062917.7,A,3252.3391,N,11712.9258,W,31.40,255.00,190210,,*2E
$GPRMC,062921.7,A,3252.3282,N,11712.9687,W,34.40,252.60,190210,,*2A
$GPRMC,062924.7,A,3252.3216,N,11713.0036,W,34.20,255.50,190210,,*24
$GPRMC,062927.7,A,3252.3134,N,11713.0348,W,32.00,252.80,190210,,*20
$GPRMC,062930.7,A,3252.3054,N,11713.0626,W,29.00,249.00,190210,,*24
$GPRMC,062933.7,A,3252.2980,N,11713.0825,W,18.70,246.30,190210,,*22
$GPRMC,063002.7,A,3252.2948,N,11713.0878,W,5.30,228.80,190210,,*1F
$GPRMC,063005.7,A,3252.2882,N,11713.0972,W,12.70,230.10,190210,,*26
$GPRMC,063009.7,A,3252.2663,N,11713.1051,W,20.90,187.10,190210,,*22
$GPRMC,063012.7,A,3252.2466,N,11713.1063,W,22.50,182.80,190210,,*2C
$GPRMC,063015.7,A,3252.2286,N,11713.1062,W,19.80,180.90,190210,,*24
$GPRMC,063018.7,A,3252.2131,N,11713.1068,W,17.70,184.30,190210,,*23
$GPRMC,063021.7,A,3252.2013,N,11713.1067,W,14.00,183.20,190210,,*25
$GPRMC,063024.7,A,3252.1901,N,11713.1078,W,11.50,184.80,190210,,*2A
$GPRMC,063041.7,A,3252.1710,N,11713.1087,W,12.80,182.20,190210,,*25
$GPRMC,063044.7,A,3252.1566,N,11713.1107,W,20.20,185.70,190210,,*23
$GPRMC,063047.7,A,3252.1400,N,11713.1140,W,21.60,190.30,190210,,*27
$GPRMC,063050.7,A,3252.1213,N,11713.1182,W,23.20,194.50,190210,,*2F
$GPRMC,063053.7,A,3252.1007,N,11713.1254,W,26.30,200.10,190210,,*2D
$GPRMC,063056.7,A,3252.0788,N,11713.1352,W,27.70,203.70,190210,,*2E
$GPRMC,063059.7,A,3252.0586,N,11713.1471,W,25.60,206.50,190210,,*2F
$GPRMC,063105.7,A,3252.0163,N,11713.1734,W,30.20,210.50,190210,,*2D
$GPRMC,063108.7,A,3251.9976,N,11713.1914,W,29.70,218.50,190210,,*2F
$GPRMC,063111.7,A,3251.9781,N,11713.2108,W,30.40,219.60,190210,,*2E
$GPRMC,063114.7,A,3251.9588,N,11713.2333,W,32.80,222.90,190210,,*23
$GPRMC,063117.7,A,3251.9369,N,11713.2564,W,34.30,223.30,190210,,*2B
$GPRMC,063121.7,A,3251.9033,N,11713.2884,W,37.50,219.20,190210,,*2C
$GPRMC,063124.7,A,3251.8787,N,11713.3106,W,37.30,217.60,190210,,*2E
$GPRMC,063127.7,A,3251.8535,N,11713.3297,W,35.20,210.80,190210,,*27
$GPRMC,063130.7,A,3251.8270,N,11713.3448,W,35.90,204.00,190210,,*25
$GPRMC,063133.7,A,3251.7987,N,11713.3584,W,34.90,200.20,190210,,*2C
$GPRMC,063136.7,A,3251.7714,N,11713.3663,W,33.30,193.10,190210,,*20
$GPRMC,063139.7,A,3251.7445,N,11713.3712,W,32.60,188.20,190210,,*22
$GPRMC,063142.7,A,3251.7188,N,11713.3751,W,31.00,187.20,190210,,*27
$GPRMC,063145.7,A,3251.6959,N,11713.3794,W,28.50,186.90,190210,,*2B
$GPRMC,063148.7,A,3251.6852,N,11713.3815,W,11.70,188.00,190210,,*25
$GPRMC,063151.7,A,3251.6835,N,11713.3859,W,7.10,235.30,190210,,*13
$GPRMC,063154.7,A,3251.6820,N,11713.4027,W,15.10,262.70,190210,,*21
$GPRMC,063158.7,A,3251.6919,N,11713.4440,W,31.50,282.40,190210,,*2C
$GPRMC,063201.7,A,3251.6991,N,11713.4747,W,32.80,282.30,190210,,*2E
$GPRMC,063204.7,A,3251.7044,N,11713.4989,W,21.80,283.50,190210,,*22
$GPRMC,063207.7,A,3251.7054,N,11713.5175,W,17.40,266.40,190210,,*29
$GPRMC,063210.7,A,3251.6937,N,11713.5281,W,17.30,217.50,190210,,*2A
$GPRMC,063213.7,A,3251.6692,N,11713.5302,W,27.20,183.60,190210,,*2C
$GPRMC,063216.7,A,3251.6431,N,11713.5267,W,30.20,173.20,190210,,*2D
$GPRMC,063220.7,A,3251.6080,N,11713.5160,W,33.30,165.00,190210,,*25
$GPRMC,063224.7,A,3251.5743,N,11713.4997,W,32.00,159.60,190210,,*20
$GPRMC,063227.7,A,3251.5488,N,11713.4931,W,30.60,169.60,190210,,*2C
$GPRMC,063230.7,A,3251.5208,N,11713.4964,W,33.70,187.20,190210,,*22
$GPRMC,063233.7,A,3251.4969,N,11713.5043,W,29.10,194.70,190210,,*2B
$GPRMC,063237.7,A,3251.4739,N,11713.5429,W,33.90,232.80,190210,,*2F
$GPRMC,063240.7,A,3251.4586,N,11713.5720,W,34.20,237.00,190210,,*22
$GPRMC,063243.7,A,3251.4464,N,11713.6002,W,33.50,240.60,190210,,*2E
