NMEA Sentence Code,UTC Time,Status,Latitude,Latitude Direction,Longitude,Longitude Direction,Speed (knots),Track Angle (degrees true),Date,MagneticVariation,Magnetic Variation Direction,[FAA Mode]-Optional,Checksum
$GPRMC,192023.000,A,3251.2315,N,11656.8464,W,19.44,48.52,60410,,,A*4C
$GPRMC,192026.000,A,3251.2443,N,11656.8271,W,26.73,52.73,60410,,,A*4F
$GPRMC,192029.000,A,3251.2556,N,11656.8088,W,18.95,49.57,60410,,,A*48
$GPRMC,192031.000,A,3251.2617,N,11656.8023,W,14.58,35.51,60410,,,A*46
$GPRMC,192037.000,A,3251.2929,N,11656.8204,W,24.30,332.93,60410,,,A*72
$GPRMC,192042.000,A,3251.3197,N,11656.8410,W,18.95,301.29,60410,,,A*7E
$GPRMC,192045.000,A,3251.3148,N,11656.8577,W,18.98,233.79,60410,,,A*73
$GPRMC,192048.000,A,3251.3020,N,11656.8738,W,25.83,224.30,60410,,,A*77
$GPRMC,192051.000,A,3251.2843,N,11656.8931,W,32.62,222.54,60410,,,A*79
$GPRMC,192054.000,A,3251.2614,N,11656.9153,W,38.93,217.97,60410,,,A*70
$GPRMC,192055.000,A,3251.2524,N,11656.9237,W,41.79,217.97,60410,,,A*7A
$GPRMC,192109.000,A,3251.0963,N,11657.0730,W,54.92,219.38,60410,,,A*7F
$GPRMC,192112.000,A,3251.0612,N,11657.1078,W,54.43,219.73,60410,,,A*75
$GPRMC,192115.000,A,3251.0268,N,11657.1438,W,55.40,222.19,60410,,,A*7D
$GPRMC,192118.000,A,3250.9936,N,11657.1818,W,55.89,223.59,60410,,,A*76
$GPRMC,192121.000,A,3250.9608,N,11657.2211,W,55.40,225.70,60410,,,A*76
$GPRMC,192124.000,A,3250.9280,N,11657.2603,W,55.40,226.41,60410,,,A*71
$GPRMC,192127.000,A,3250.8964,N,11657.3006,W,55.89,226.41,60410,,,A*75
$GPRMC,192130.000,A,3250.8645,N,11657.3415,W,56.86,227.11,60410,,,A*71
$GPRMC,192133.000,A,3250.8317,N,11657.3830,W,57.83,226.76,60410,,,A*7F
$GPRMC,192136.000,A,3250.7992,N,11657.4251,W,58.32,226.76,60410,,,A*7D
$GPRMC,192139.000,A,3250.7661,N,11657.4676,W,58.80,226.76,60410,,,A*79
$GPRMC,192142.000,A,3250.7329,N,11657.5095,W,58.32,226.41,60410,,,A*7B
$GPRMC,192145.000,A,3250.6981,N,11657.5491,W,57.83,222.19,60410,,,A*79
$GPRMC,192148.000,A,3250.6602,N,11657.5854,W,59.29,217.27,60410,,,A*70
$GPRMC,192151.000,A,3250.6196,N,11657.6189,W,59.78,213.05,60410,,,A*78
$GPRMC,192154.000,A,3250.5762,N,11657.6492,W,59.81,208.48,60410,,,A*79
$GPRMC,192157.000,A,3250.5311,N,11657.6749,W,59.81,203.55,60410,,,A*78
$GPRMC,192200.000,A,3250.4847,N,11657.6965,W,59.32,198.63,60410,,,A*7C
$GPRMC,192203.000,A,3250.4368,N,11657.7126,W,59.32,193.71,60410,,,A*7F
$GPRMC,192206.000,A,3250.3872,N,11657.7235,W,59.32,188.79,60410,,,A*7E
$GPRMC,192209.000,A,3250.3380,N,11657.7299,W,59.30,184.57,60410,,,A*73
$GPRMC,192212.000,A,3250.2884,N,11657.7322,W,58.80,181.41,60410,,,A*7E
$GPRMC,192215.000,A,3250.2379,N,11657.7296,W,60.75,178.59,60410,,,A*70
$GPRMC,192218.000,A,3250.1880,N,11657.7287,W,60.76,179.30,60410,,,A*7E
$GPRMC,192221.000,A,3250.1368,N,11657.7264,W,61.23,178.59,60410,,,A*7B
$GPRMC,192223.000,A,3250.1020,N,11657.7251,W,61.72,178.59,60410,,,A*74
$GPRMC,192229.000,A,3249.9974,N,11657.7219,W,62.69,178.24,60410,,,A*79
$GPRMC,192238.000,A,3249.8378,N,11657.7174,W,63.18,178.24,60410,,,A*71
$GPRMC,192241.000,A,3249.7840,N,11657.7161,W,63.66,178.59,60410,,,A*77
$GPRMC,192244.000,A,3249.7313,N,11657.7151,W,64.15,179.30,60410,,,A*71
$GPRMC,192247.000,A,3249.6782,N,11657.7151,W,64.15,180.00,60410,,,A*7A
$GPRMC,192250.000,A,3249.6250,N,11657.7155,W,62.69,180.00,60410,,,A*7F
$GPRMC,192254.000,A,3249.5552,N,11657.7126,W,62.69,176.13,60410,,,A*72
$GPRMC,192257.000,A,3249.5031,N,11657.7061,W,63.66,171.21,60410,,,A*7B
$GPRMC,192300.000,A,3249.4503,N,11657.6952,W,63.66,169.10,60410,,,A*7E
$GPRMC,192303.000,A,3249.3978,N,11657.6810,W,63.66,166.64,60410,,,A*71
$GPRMC,192306.000,A,3249.3444,N,11657.6656,W,65.61,166.29,60410,,,A*72
$GPRMC,192309.000,A,3249.2900,N,11657.6524,W,66.58,170.16,60410,,,A*75
$GPRMC,192311.000,A,3249.2530,N,11657.6463,W,66.58,172.97,60410,,,A*7A
$GPRMC,192315.000,A,3249.1799,N,11657.6398,W,65.61,177.89,60410,,,A*7C
$GPRMC,192320.000,A,3249.0898,N,11657.6440,W,64.64,184.57,60410,,,A*7C
$GPRMC,192323.000,A,3249.0360,N,11657.6514,W,64.64,187.38,60410,,,A*79
$GPRMC,192326.000,A,3248.9852,N,11657.6636,W,59.78,194.06,60410,,,A*71
$GPRMC,192329.000,A,3248.9369,N,11657.6788,W,59.30,194.77,60410,,,A*73
$GPRMC,192332.000,A,3248.8896,N,11657.6939,W,58.81,194.77,60410,,,A*7C
$GPRMC,192335.000,A,3248.8410,N,11657.7071,W,59.78,191.60,60410,,,A*79
$GPRMC,192338.000,A,3248.7924,N,11657.7164,W,58.32,187.73,60410,,,A*7E
$GPRMC,192341.000,A,3248.7460,N,11657.7209,W,54.43,183.52,60410,,,A*78
$GPRMC,192344.000,A,3248.7016,N,11657.7229,W,53.94,181.76,60410,,,A*73
$GPRMC,192347.000,A,3248.6562,N,11657.7242,W,52.98,181.41,60410,,,A*73
$GPRMC,192350.000,A,3248.6131,N,11657.7254,W,50.06,181.76,60410,,,A*71
$GPRMC,192353.000,A,3248.5742,N,11657.7271,W,45.21,183.87,60410,,,A*79
$GPRMC,192356.000,A,3248.5387,N,11657.7316,W,41.81,185.27,60410,,,A*73
$GPRMC,192359.000,A,3248.5043,N,11657.7348,W,40.35,183.87,60410,,,A*7E
$GPRMC,192402.000,A,3248.4721,N,11657.7361,W,37.91,181.05,60410,,,A*78
$GPRMC,192404.000,A,3248.4502,N,11657.7364,W,39.36,181.05,60410,,,A*7B
$GPRMC,192414.000,A,3248.3270,N,11657.7435,W,46.17,179.30,60410,,,A*76
$GPRMC,192417.000,A,3248.2864,N,11657.7451,W,48.11,181.76,60410,,,A*74
$GPRMC,192420.000,A,3248.2475,N,11657.7477,W,45.68,182.46,60410,,,A*7B
$GPRMC,192423.000,A,3248.2098,N,11657.7505,W,42.77,182.46,60410,,,A*72
$GPRMC,192425.000,A,3248.1870,N,11657.7515,W,41.31,182.11,60410,,,A*7B
$GPRMC,192429.000,A,3248.1515,N,11657.7534,W,29.65,186.33,60410,,,A*71
$GPRMC,192432.000,A,3248.1313,N,11657.7612,W,26.24,212.34,60410,,,A*7F
$GPRMC,192435.000,A,3248.1223,N,11657.7811,W,23.83,266.13,60410,,,A*79
$GPRMC,192438.000,A,3248.1290,N,11657.8040,W,23.83,307.62,60410,,,A*7F
$GPRMC,192441.000,A,3248.1496,N,11657.8101,W,25.78,00.35,60410,,,A*41
$GPRMC,192444.000,A,3248.1689,N,11657.7943,W,28.67,42.19,60410,,,A*42
$GPRMC,192447.000,A,3248.1689,N,11657.7654,W,30.63,88.24,60410,,,A*4D
$GPRMC,192450.000,A,3248.1692,N,11657.7335,W,32.07,88.95,60410,,,A*49
$GPRMC,192453.000,A,3248.1667,N,11657.7036,W,27.70,101.60,60410,,,A*7E
$GPRMC,192456.000,A,3248.1525,N,11657.6836,W,25.76,141.33,60410,,,A*71
$GPRMC,192458.000,A,3248.1377,N,11657.6817,W,26.73,188.09,60410,,,A*77
$GPRMC,192503.000,A,3248.1152,N,11657.7135,W,26.73,251.72,60410,,,A*7E
$GPRMC,192506.000,A,3248.1309,N,11657.7328,W,22.36,315.70,60410,,,A*7F
$GPRMC,192509.000,A,3248.1554,N,11657.7367,W,27.22,355.78,60410,,,A*79
$GPRMC,192512.000,A,3248.1805,N,11657.7377,W,29.65,359.30,60410,,,A*76
$GPRMC,192515.000,A,3248.2076,N,11657.7377,W,32.07,359.65,60410,,,A*70
$GPRMC,192518.000,A,3248.2301,N,11657.7328,W,29.65,15.12,60410,,,A*41
$GPRMC,192521.000,A,3248.2481,N,11657.7161,W,28.19,43.95,60410,,,A*4D
$GPRMC,192524.000,A,3248.2449,N,11657.6897,W,25.27,99.14,60410,,,A*43
$GPRMC,192528.000,A,3248.2178,N,11657.6791,W,25.27,183.87,60410,,,A*71
$GPRMC,192531.000,A,3248.2030,N,11657.6971,W,28.69,249.61,60410,,,A*7E
$GPRMC,192533.000,A,3248.2008,N,11657.7168,W,31.10,268.59,60410,,,A*78
$GPRMC,192537.000,A,3248.1998,N,11657.7631,W,37.91,268.24,60410,,,A*71
$GPRMC,192538.000,A,3248.1995,N,11657.7760,W,39.85,268.59,60410,,,A*77
$GPRMC,192543.000,A,3248.1998,N,11657.8468,W,44.71,270.35,60410,,,A*70
$GPRMC,192550.000,A,3248.1989,N,11657.9623,W,50.54,270.35,60410,,,A*7C
$GPRMC,192553.000,A,3248.1992,N,11658.0129,W,51.51,270.00,60410,,,A*7C
$GPRMC,192556.000,A,3248.1985,N,11658.0637,W,50.54,268.24,60410,,,A*7C
$GPRMC,192559.000,A,3248.1960,N,11658.1123,W,48.11,266.84,60410,,,A*77
$GPRMC,192602.000,A,3248.1944,N,11658.1587,W,46.18,266.84,60410,,,A*71
$GPRMC,192605.000,A,3248.1898,N,11658.2041,W,46.66,262.27,60410,,,A*7E
$GPRMC,192608.000,A,3248.1834,N,11658.2507,W,48.60,257.70,60410,,,A*7E
$GPRMC,192611.000,A,3248.1738,N,11658.2971,W,48.11,254.53,60410,,,A*7C
$GPRMC,192614.000,A,3248.1583,N,11658.3418,W,50.06,246.09,60410,,,A*7B
$GPRMC,192617.000,A,3248.1396,N,11658.3853,W,49.09,240.12,60410,,,A*72
$GPRMC,192620.000,A,3248.1184,N,11658.4261,W,48.12,235.20,60410,,,A*73
$GPRMC,192623.000,A,3248.0943,N,11658.4632,W,46.66,228.52,60410,,,A*74
$GPRMC,192626.000,A,3248.0675,N,11658.4966,W,47.18,223.59,60410,,,A*7D
$GPRMC,192629.000,A,3248.0370,N,11658.5266,W,48.12,216.91,60410,,,A*7F
$GPRMC,192632.000,A,3248.0041,N,11658.5539,W,48.12,213.75,60410,,,A*76
$GPRMC,192635.000,A,3247.9690,N,11658.5768,W,47.64,208.12,60410,,,A*7E
$GPRMC,192638.000,A,3247.9320,N,11658.5954,W,49.09,200.04,60410,,,A*76
$GPRMC,192641.000,A,3247.8931,N,11658.6106,W,49.08,195.47,60410,,,A*76
$GPRMC,192644.000,A,3247.8516,N,11658.6202,W,50.54,189.49,60410,,,A*7F
$GPRMC,192647.000,A,3247.8084,N,11658.6263,W,52.00,187.73,60410,,,A*71
$GPRMC,192650.000,A,3247.7650,N,11658.6331,W,52.50,187.73,60410,,,A*74
$GPRMC,192653.000,A,3247.7209,N,11658.6405,W,53.47,187.38,60410,,,A*77
$GPRMC,192656.000,A,3247.6762,N,11658.6469,W,54.92,187.38,60410,,,A*7E
$GPRMC,192659.000,A,3247.6314,N,11658.6534,W,54.92,187.73,60410,,,A*72
$GPRMC,192702.000,A,3247.5864,N,11658.6611,W,54.44,187.73,60410,,,A*7D
$GPRMC,192705.000,A,3247.5419,N,11658.6679,W,52.98,187.73,60410,,,A*75
$GPRMC,192708.000,A,3247.4978,N,11658.6740,W,52.97,185.62,60410,,,A*75
$GPRMC,192711.000,A,3247.4547,N,11658.6766,W,52.00,181.76,60410,,,A*76
$GPRMC,192714.000,A,3247.4125,N,11658.6769,W,50.54,180.35,60410,,,A*79
$GPRMC,192717.000,A,3247.3710,N,11658.6769,W,49.57,180.00,60410,,,A*70
$GPRMC,192720.000,A,3247.3292,N,11658.6778,W,49.57,181.76,60410,,,A*7B
$GPRMC,192723.000,A,3247.2883,N,11658.6843,W,50.07,190.20,60410,,,A*7A
$GPRMC,192726.000,A,3247.2471,N,11658.6972,W,51.04,197.58,60410,,,A*77
$GPRMC,192729.000,A,3247.2075,N,11658.7155,W,52.00,203.55,60410,,,A*70
$GPRMC,192732.000,A,3247.1689,N,11658.7409,W,54.44,210.23,60410,,,A*75
$GPRMC,192735.000,A,3247.1296,N,11658.7696,W,55.89,212.34,60410,,,A*78
$GPRMC,192738.000,A,3247.0884,N,11658.8005,W,59.29,211.64,60410,,,A*7E
$GPRMC,192741.000,A,3247.0456,N,11658.8311,W,61.23,207.42,60410,,,A*77
$GPRMC,192744.000,A,3246.9986,N,11658.8581,W,63.18,205.31,60410,,,A*79
$GPRMC,192747.000,A,3246.9513,N,11658.8848,W,62.70,204.96,60410,,,A*71
$GPRMC,192750.000,A,3246.9046,N,11658.9109,W,61.23,206.37,60410,,,A*73
$GPRMC,192753.000,A,3246.8618,N,11658.9408,W,59.32,214.80,60410,,,A*7C
$GPRMC,192756.000,A,3246.8242,N,11658.9775,W,57.86,224.65,60410,,,A*72
$GPRMC,192759.000,A,3246.7939,N,11659.0203,W,54.46,235.55,60410,,,A*75
$GPRMC,192802.000,A,3246.7714,N,11659.0663,W,53.98,243.98,60410,,,A*73
$GPRMC,192805.000,A,3246.7569,N,11659.1130,W,46.18,255.59,60410,,,A*7A
$GPRMC,192808.000,A,3246.7495,N,11659.1568,W,45.68,261.56,60410,,,A*70
$GPRMC,192811.000,A,3246.7482,N,11659.2038,W,48.61,271.76,60410,,,A*7A
$GPRMC,192814.000,A,3246.7495,N,11659.2527,W,50.58,271.76,60410,,,A*71
$GPRMC,192817.000,A,3246.7508,N,11659.3035,W,52.00,271.76,60410,,,A*7F
$GPRMC,192820.000,A,3246.7524,N,11659.3567,W,54.92,272.11,60410,,,A*78
$GPRMC,192823.000,A,3246.7543,N,11659.4123,W,57.35,272.11,60410,,,A*77
$GPRMC,192826.000,A,3246.7566,N,11659.4703,W,59.81,272.11,60410,,,A*70
$GPRMC,192829.000,A,3246.7585,N,11659.5301,W,60.78,271.76,60410,,,A*7B
$GPRMC,192832.000,A,3246.7601,N,11659.5910,W,60.76,272.46,60410,,,A*7A
$GPRMC,192835.000,A,3246.7627,N,11659.6502,W,59.29,272.81,60410,,,A*7E
$GPRMC,192838.000,A,3246.7653,N,11659.7088,W,57.35,273.16,60410,,,A*7A
$GPRMC,192841.000,A,3246.7682,N,11659.7628,W,52.49,273.87,60410,,,A*72
$GPRMC,192842.000,A,3246.7698,N,11659.7796,W,50.54,274.92,60410,,,A*73
$GPRMC,192847.000,A,3246.7762,N,11659.8594,W,50.54,276.33,60410,,,A*74
$GPRMC,192850.000,A,3246.7794,N,11659.9119,W,51.03,270.70,60410,,,A*79
$GPRMC,192853.000,A,3246.7778,N,11659.9634,W,52.49,265.78,60410,,,A*71
$GPRMC,192859.000,A,3246.7582,N,11700.0699,W,55.90,253.48,60410,,,A*7A
$GPRMC,192902.000,A,3246.7437,N,11700.1214,W,54.92,250.31,60410,,,A*74
$GPRMC,192905.000,A,3246.7186,N,11700.1678,W,53.95,232.03,60410,,,A*77
$GPRMC,192908.000,A,3246.6883,N,11700.2057,W,52.49,224.65,60410,,,A*78
$GPRMC,192910.000,A,3246.6591,N,11700.2193,W,53.94,200.39,60410,,,A*78
$GPRMC,192914.000,A,3246.5982,N,11700.2292,W,52.97,180.35,60410,,,A*76
$GPRMC,192919.000,A,3246.5239,N,11700.2051,W,55.89,160.31,60410,,,A*7F
$GPRMC,192925.000,A,3246.4244,N,11700.1645,W,61.23,163.12,60410,,,A*7E
$GPRMC,192928.000,A,3246.3749,N,11700.1484,W,61.23,164.88,60410,,,A*77
$GPRMC,192938.000,A,3246.2020,N,11700.1307,W,64.64,183.87,60410,,,A*73
$GPRMC,192941.000,A,3246.1486,N,11700.1359,W,64.64,184.57,60410,,,A*77
$GPRMC,192944.000,A,3246.0948,N,11700.1420,W,64.64,184.57,60410,,,A*75
$GPRMC,192947.000,A,3246.0408,N,11700.1449,W,64.64,181.05,60410,,,A*72
$GPRMC,192950.000,A,3245.9860,N,11700.1430,W,65.12,178.24,60410,,,A*77
$GPRMC,192953.000,A,3245.9307,N,11700.1410,W,65.61,177.89,60410,,,A*70
$GPRMC,192956.000,A,3245.8769,N,11700.1381,W,65.12,177.89,60410,,,A*73
$GPRMC,192959.000,A,3245.8280,N,11700.1333,W,62.21,177.89,60410,,,A*70
$GPRMC,193002.000,A,3245.7771,N,11700.1343,W,63.18,185.27,60410,,,A*77
$GPRMC,193009.000,A,3245.6626,N,11700.1774,W,64.64,203.55,60410,,,A*7A
$GPRMC,193011.000,A,3245.6355,N,11700.1996,W,60.26,213.75,60410,,,A*71
$GPRMC,193015.000,A,3245.5843,N,11700.2482,W,58.32,220.78,60410,,,A*72
$GPRMC,193027.000,A,3245.4550,N,11700.4185,W,61.23,225.70,60410,,,A*7E
$GPRMC,193030.000,A,3245.4196,N,11700.4613,W,61.23,225.35,60410,,,A*7F
$GPRMC,193033.000,A,3245.3835,N,11700.5073,W,62.69,226.05,60410,,,A*77
$GPRMC,193038.000,A,3245.3211,N,11700.5765,W,62.69,224.30,60410,,,A*74
$GPRMC,193040.000,A,3245.2956,N,11700.6061,W,63.18,224.65,60410,,,A*75
$GPRMC,193047.000,A,3245.2081,N,11700.7059,W,64.15,223.95,60410,,,A*79
$GPRMC,193048.000,A,3245.1955,N,11700.7207,W,64.15,223.95,60410,,,A*7C
$GPRMC,193051.000,A,3245.1563,N,11700.7642,W,64.15,222.89,60410,,,A*74
$GPRMC,193057.000,A,3245.0822,N,11700.8546,W,64.64,228.52,60410,,,A*79
$GPRMC,193100.000,A,3245.0472,N,11700.9029,W,64.67,229.92,60410,,,A*70
$GPRMC,193103.000,A,3245.0134,N,11700.9509,W,62.69,229.92,60410,,,A*7B
$GPRMC,193106.000,A,3244.9799,N,11700.9969,W,60.82,229.22,60410,,,A*71
$GPRMC,193109.000,A,3244.9461,N,11701.0400,W,58.39,224.30,60410,,,A*75
$GPRMC,193112.000,A,3244.9081,N,11701.0751,W,57.42,211.99,60410,,,A*74
$GPRMC,193115.000,A,3244.8659,N,11701.1008,W,57.38,201.80,60410,,,A*7F
$GPRMC,193118.000,A,3244.8196,N,11701.1173,W,57.84,191.60,60410,,,A*78
$GPRMC,193121.000,A,3244.7697,N,11701.1231,W,59.29,182.46,60410,,,A*71
$GPRMC,193122.000,A,3244.7530,N,11701.1221,W,59.78,178.95,60410,,,A*72
$GPRMC,193128.000,A,3244.6548,N,11701.0922,W,60.26,158.20,60410,,,A*72
$GPRMC,193137.000,A,3244.5141,N,11701.0043,W,65.61,151.88,60410,,,A*71
$GPRMC,193140.000,A,3244.4630,N,11700.9782,W,68.04,157.50,60410,,,A*7E
$GPRMC,193143.000,A,3244.4086,N,11700.9589,W,68.04,166.64,60410,,,A*7A
$GPRMC,193147.000,A,3244.3342,N,11700.9515,W,66.58,178.59,60410,,,A*71
$GPRMC,193153.000,A,3244.2258,N,11700.9618,W,65.12,184.92,60410,,,A*78
$GPRMC,193158.000,A,3244.1353,N,11700.9653,W,66.09,179.65,60410,,,A*76
$GPRMC,193200.000,A,3244.1009,N,11700.9615,W,63.18,175.78,60410,,,A*73
$GPRMC,193226.000,A,3243.6731,N,11700.9035,W,62.21,175.78,60410,,,A*74
$GPRMC,193229.000,A,3243.6203,N,11700.8997,W,63.66,176.48,60410,,,A*7D
$GPRMC,193232.000,A,3243.5669,N,11700.8955,W,64.15,176.84,60410,,,A*71
$GPRMC,193235.000,A,3243.5138,N,11700.8936,W,63.18,178.24,60410,,,A*7E
$GPRMC,193238.000,A,3243.4613,N,11700.8920,W,63.18,178.59,60410,,,A*71
$GPRMC,193241.000,A,3243.4085,N,11700.8916,W,63.66,180.70,60410,,,A*76
$GPRMC,193244.000,A,3243.3554,N,11700.8923,W,63.18,180.70,60410,,,A*72
$GPRMC,193247.000,A,3243.3023,N,11700.8923,W,63.18,180.35,60410,,,A*75
$GPRMC,193252.000,A,3243.2138,N,11700.8926,W,65.12,180.00,60410,,,A*74
$GPRMC,193255.000,A,3243.1588,N,11700.8923,W,64.64,179.65,60410,,,A*7F
$GPRMC,193258.000,A,3243.1050,N,11700.8923,W,64.15,179.65,60410,,,A*74
$GPRMC,193301.000,A,3243.0516,N,11700.8920,W,63.66,179.65,60410,,,A*7F
$GPRMC,193304.000,A,3243.0007,N,11700.8907,W,61.72,177.54,60410,,,A*71
$GPRMC,193307.000,A,3242.9489,N,11700.8839,W,61.23,172.62,60410,,,A*70
$GPRMC,193310.000,A,3242.8987,N,11700.8742,W,60.75,169.10,60410,,,A*7A
$GPRMC,193313.000,A,3242.8495,N,11700.8617,W,59.78,166.64,60410,,,A*7D
$GPRMC,193314.000,A,3242.8337,N,11700.8565,W,59.29,165.59,60410,,,A*7A
$GPRMC,193324.000,A,3242.6750,N,11700.7976,W,60.26,161.72,60410,,,A*7B
$GPRMC,193327.000,A,3242.6271,N,11700.7790,W,60.75,161.72,60410,,,A*7E
$GPRMC,193330.000,A,3242.5778,N,11700.7581,W,62.21,161.02,60410,,,A*71
$GPRMC,193333.000,A,3242.5279,N,11700.7387,W,62.69,161.37,60410,,,A*7C
$GPRMC,193336.000,A,3242.4787,N,11700.7191,W,62.21,161.37,60410,,,A*75
$GPRMC,193339.000,A,3242.4304,N,11700.7021,W,60.75,164.88,60410,,,A*7D
$GPRMC,193342.000,A,3242.3811,N,11700.6882,W,60.26,168.75,60410,,,A*71
$GPRMC,193345.000,A,3242.3329,N,11700.6776,W,60.26,172.27,60410,,,A*7E
$GPRMC,193348.000,A,3242.2830,N,11700.6712,W,58.81,174.02,60410,,,A*74
$GPRMC,193351.000,A,3242.2337,N,11700.6663,W,59.29,176.84,60410,,,A*78
$GPRMC,193354.000,A,3242.1835,N,11700.6679,W,59.78,182.11,60410,,,A*7F
$GPRMC,193357.000,A,3242.1340,N,11700.6734,W,58.84,186.33,60410,,,A*7B
$GPRMC,193400.000,A,3242.0860,N,11700.6811,W,58.35,189.49,60410,,,A*76
$GPRMC,193403.000,A,3242.0380,N,11700.6921,W,58.84,193.36,60410,,,A*7B
$GPRMC,193406.000,A,3241.9917,N,11700.7066,W,58.35,196.52,60410,,,A*76
$GPRMC,193409.000,A,3241.9460,N,11700.7246,W,58.35,200.39,60410,,,A*75
$GPRMC,193412.000,A,3241.9006,N,11700.7461,W,58.35,203.55,60410,,,A*71
$GPRMC,193415.000,A,3241.8565,N,11700.7706,W,58.33,206.02,60410,,,A*74
$GPRMC,193418.000,A,3241.8140,N,11700.7951,W,55.89,205.31,60410,,,A*79
$GPRMC,193421.000,A,3241.7725,N,11700.8176,W,54.43,204.61,60410,,,A*78
$GPRMC,193424.000,A,3241.7307,N,11700.8421,W,56.87,207.07,60410,,,A*77
$GPRMC,193427.000,A,3241.6875,N,11700.8694,W,58.80,209.53,60410,,,A*71
$GPRMC,193430.000,A,3241.6450,N,11700.8994,W,60.75,211.99,60410,,,A*7D
$GPRMC,193431.000,A,3241.6309,N,11700.9100,W,61.23,212.34,60410,,,A*75
$GPRMC,193440.000,A,3241.5057,N,11701.0236,W,63.66,220.43,60410,,,A*74
$GPRMC,193442.000,A,3241.4802,N,11701.0522,W,62.21,222.54,60410,,,A*7B
$GPRMC,193507.000,A,3241.1809,N,11701.4340,W,66.58,231.68,60410,,,A*74
$GPRMC,193508.000,A,3241.1693,N,11701.4510,W,66.58,231.33,60410,,,A*7B
$GPRMC,193526.000,A,3240.9524,N,11701.7481,W,65.12,228.16,60410,,,A*79
$GPRMC,193529.000,A,3240.9163,N,11701.7957,W,64.64,228.16,60410,,,A*77
$GPRMC,193532.000,A,3240.8809,N,11701.8434,W,64.16,228.16,60410,,,A*7B
$GPRMC,193535.000,A,3240.8452,N,11701.8904,W,64.16,228.16,60410,,,A*70
$GPRMC,193538.000,A,3240.8098,N,11701.9370,W,64.18,228.16,60410,,,A*79
$GPRMC,193541.000,A,3240.7741,N,11701.9840,W,63.67,228.52,60410,,,A*7C
$GPRMC,193544.000,A,3240.7393,N,11702.0304,W,61.73,228.16,60410,,,A*74
$GPRMC,193546.000,A,3240.7165,N,11702.0606,W,60.75,228.52,60410,,,A*7D
$GPRMC,193550.000,A,3240.6711,N,11702.1195,W,60.26,227.46,60410,,,A*7E
$GPRMC,193553.000,A,3240.6363,N,11702.1617,W,59.78,224.65,60410,,,A*72
$GPRMC,193555.000,A,3240.6109,N,11702.1862,W,58.32,220.43,60410,,,A*79
$GPRMC,193558.000,A,3240.5736,N,11702.2209,W,56.86,216.91,60410,,,A*72
$GPRMC,193605.000,A,3240.4792,N,11702.2940,W,57.83,213.40,60410,,,A*7D
$GPRMC,193610.000,A,3240.4136,N,11702.3497,W,58.80,218.67,60410,,,A*75
$GPRMC,193611.000,A,3240.4010,N,11702.3622,W,59.29,219.73,60410,,,A*7B
$GPRMC,193615.000,A,3240.3537,N,11702.4163,W,60.26,225.70,60410,,,A*74
$GPRMC,193623.000,A,3240.2678,N,11702.5463,W,64.64,237.30,60410,,,A*79
$GPRMC,193624.000,A,3240.2584,N,11702.5644,W,63.66,238.01,60410,,,A*71
$GPRMC,193630.000,A,3240.2034,N,11702.6683,W,60.26,237.66,60410,,,A*7B
$GPRMC,193633.000,A,3240.1777,N,11702.7176,W,58.80,238.01,60410,,,A*7E
$GPRMC,193636.000,A,3240.1516,N,11702.7662,W,58.80,237.66,60410,,,A*72
$GPRMC,193639.000,A,3240.1258,N,11702.8157,W,59.29,238.36,60410,,,A*76
$GPRMC,193641.000,A,3240.1091,N,11702.8482,W,59.29,238.71,60410,,,A*70
$GPRMC,193659.000,A,3239.9553,N,11703.1473,W,58.32,242.93,60410,,,A*78
$GPRMC,193702.000,A,3239.9340,N,11703.1997,W,59.29,245.39,60410,,,A*78
$GPRMC,193705.000,A,3239.9137,N,11703.2541,W,61.72,247.15,60410,,,A*70
$GPRMC,193708.000,A,3239.8954,N,11703.3124,W,64.15,251.72,60410,,,A*75
$GPRMC,193711.000,A,3239.8796,N,11703.3742,W,66.09,254.18,60410,,,A*7D
$GPRMC,193714.000,A,3239.8661,N,11703.4392,W,68.52,256.64,60410,,,A*76
$GPRMC,193717.000,A,3239.8548,N,11703.5078,W,70.47,258.75,60410,,,A*78
$GPRMC,193718.000,A,3239.8510,N,11703.5300,W,69.98,258.75,60410,,,A*7C
$GPRMC,193748.000,A,3239.6427,N,11704.1154,W,64.15,237.66,60410,,,A*71
$GPRMC,193751.000,A,3239.6131,N,11704.1695,W,65.61,236.60,60410,,,A*74
$GPRMC,193754.000,A,3239.5835,N,11704.2229,W,64.64,236.95,60410,,,A*71
$GPRMC,193757.000,A,3239.5558,N,11704.2789,W,65.61,242.93,60410,,,A*7A
$GPRMC,193800.000,A,3239.5339,N,11704.3382,W,65.12,249.26,60410,,,A*79
$GPRMC,193803.000,A,3239.5188,N,11704.3990,W,64.15,257.34,60410,,,A*71
$GPRMC,193806.000,A,3239.5088,N,11704.4614,W,64.15,260.16,60410,,,A*75
$GPRMC,193809.000,A,3239.5053,N,11704.5242,W,63.18,267.19,60410,,,A*78
$GPRMC,193812.000,A,3239.5104,N,11704.5876,W,64.15,275.98,60410,,,A*7C
$GPRMC,193815.000,A,3239.5191,N,11704.6494,W,63.66,280.20,60410,,,A*7E
$GPRMC,193818.000,A,3239.5291,N,11704.7106,W,62.70,280.20,60410,,,A*79
$GPRMC,193821.000,A,3239.5378,N,11704.7698,W,59.78,279.84,60410,,,A*7D
$GPRMC,193824.000,A,3239.5465,N,11704.8274,W,58.80,280.55,60410,,,A*76
$GPRMC,193827.000,A,3239.5545,N,11704.8834,W,57.35,278.09,60410,,,A*77
$GPRMC,193830.000,A,3239.5571,N,11704.9400,W,57.83,271.05,60410,,,A*74
$GPRMC,193833.000,A,3239.5526,N,11704.9980,W,58.32,262.62,60410,,,A*76
$GPRMC,193836.000,A,3239.5423,N,11705.0543,W,59.29,254.88,60410,,,A*76
$GPRMC,193838.000,A,3239.5307,N,11705.0910,W,59.78,249.61,60410,,,A*7C
$GPRMC,193843.000,A,3239.4921,N,11705.1734,W,56.37,239.06,60410,,,A*74
$GPRMC,193851.000,A,3239.4264,N,11705.3012,W,57.83,238.71,60410,,,A*73
$GPRMC,193858.000,A,3239.3662,N,11705.4171,W,58.80,238.36,60410,,,A*73
$GPRMC,193901.000,A,3239.3415,N,11705.4653,W,57.35,239.77,60410,,,A*7E
$GPRMC,193904.000,A,3239.3176,N,11705.5162,W,58.32,241.17,60410,,,A*7E
$GPRMC,193907.000,A,3239.2961,N,11705.5677,W,57.83,245.39,60410,,,A*7C
$GPRMC,193910.000,A,3239.2774,N,11705.6202,W,58.32,249.61,60410,,,A*71
$GPRMC,193913.000,A,3239.2616,N,11705.6745,W,58.80,251.02,60410,,,A*74
$GPRMC,193916.000,A,3239.2449,N,11705.7289,W,58.80,250.66,60410,,,A*7E
$GPRMC,193919.000,A,3239.2291,N,11705.7830,W,58.32,252.07,60410,,,A*76
$GPRMC,193922.000,A,3239.2153,N,11705.8361,W,55.40,252.77,60410,,,A*7C
$GPRMC,193925.000,A,3239.2021,N,11705.8873,W,52.49,253.83,60410,,,A*73
$GPRMC,193928.000,A,3239.1934,N,11705.9362,W,50.07,259.45,60410,,,A*72
$GPRMC,193931.000,A,3239.1860,N,11705.9861,W,51.07,259.45,60410,,,A*73
$GPRMC,193934.000,A,3239.1786,N,11706.0354,W,50.54,259.80,60410,,,A*78
$GPRMC,193937.000,A,3239.1693,N,11706.0852,W,51.52,259.80,60410,,,A*74
$GPRMC,193940.000,A,3239.1615,N,11706.1348,W,50.54,260.16,60410,,,A*79
$GPRMC,193951.000,A,3239.2153,N,11706.2922,W,49.57,321.68,60410,,,A*7C
$GPRMC,193954.000,A,3239.2539,N,11706.3163,W,52.00,335.04,60410,,,A*7A
$GPRMC,193957.000,A,3239.2925,N,11706.3331,W,48.60,338.55,60410,,,A*79
$GPRMC,194000.000,A,3239.3302,N,11706.3501,W,47.63,338.55,60410,,,A*72
$GPRMC,194003.000,A,3239.3675,N,11706.3675,W,48.60,338.55,60410,,,A*78
$GPRMC,194006.000,A,3239.4058,N,11706.3852,W,50.06,339.61,60410,,,A*77
$GPRMC,194009.000,A,3239.4457,N,11706.4007,W,51.51,341.37,60410,,,A*73
$GPRMC,194012.000,A,3239.4873,N,11706.4184,W,52.49,341.02,60410,,,A*75
$GPRMC,194015.000,A,3239.5275,N,11706.4341,W,50.54,341.37,60410,,,A*7C
$GPRMC,194018.000,A,3239.5664,N,11706.4480,W,50.06,342.07,60410,,,A*78
$GPRMC,194021.000,A,3239.6070,N,11706.4650,W,51.51,341.02,60410,,,A*78
$GPRMC,194024.000,A,3239.6485,N,11706.4824,W,52.00,341.02,60410,,,A*79
$GPRMC,194027.000,A,3239.6875,N,11706.4988,W,47.14,340.31,60410,,,A*7E
$GPRMC,194030.000,A,3239.7222,N,11706.5140,W,43.74,339.96,60410,,,A*7D
$GPRMC,194033.000,A,3239.7544,N,11706.5275,W,40.82,341.02,60410,,,A*74
$GPRMC,194036.000,A,3239.7866,N,11706.5404,W,39.85,341.37,60410,,,A*73
$GPRMC,194039.000,A,3239.8191,N,11706.5526,W,42.28,342.07,60410,,,A*78
$GPRMC,194042.000,A,3239.8545,N,11706.5668,W,46.65,341.37,60410,,,A*7D
$GPRMC,194045.000,A,3239.8931,N,11706.5825,W,50.06,341.37,60410,,,A*70
$GPRMC,194048.000,A,3239.9347,N,11706.5993,W,52.97,341.72,60410,,,A*70
$GPRMC,194051.000,A,3239.9787,N,11706.6173,W,55.40,341.02,60410,,,A*7F
$GPRMC,194054.000,A,3240.0232,N,11706.6356,W,56.37,341.02,60410,,,A*70
$GPRMC,194057.000,A,3240.0673,N,11706.6524,W,55.89,343.83,60410,,,A*7C
$GPRMC,194100.000,A,3240.1117,N,11706.6633,W,52.50,350.51,60410,,,A*70
$GPRMC,194103.000,A,3240.1513,N,11706.6659,W,44.72,01.41,60410,,,A*4E
$GPRMC,194106.000,A,3240.1873,N,11706.6633,W,41.31,06.33,60410,,,A*4C
$GPRMC,194109.000,A,3240.2214,N,11706.6585,W,40.82,08.44,60410,,,A*42
$GPRMC,194112.000,A,3240.2517,N,11706.6495,W,38.39,14.77,60410,,,A*4E
$GPRMC,194115.000,A,3240.2803,N,11706.6389,W,36.93,16.88,60410,,,A*47
$GPRMC,194118.000,A,3240.3090,N,11706.6279,W,35.96,18.63,60410,,,A*4A
$GPRMC,194121.000,A,3240.3386,N,11706.6176,W,34.99,16.17,60410,,,A*4B
$GPRMC,194124.000,A,3240.3618,N,11706.6092,W,26.73,16.88,60410,,,A*46
$GPRMC,194127.000,A,3240.3801,N,11706.5999,W,24.79,24.96,60410,,,A*44
$GPRMC,194130.000,A,3240.3898,N,11706.5809,W,21.38,56.95,60410,,,A*4C
$GPRMC,194133.000,A,3240.3917,N,11706.5616,W,17.50,70.31,60410,,,A*48
$GPRMC,194136.000,A,3240.3985,N,11706.5445,W,20.92,71.02,60410,,,A*49
$GPRMC,194139.000,A,3240.4033,N,11706.5243,W,20.90,75.59,60410,,,A*4D
$GPRMC,194509.000,A,3240.4084,N,11706.5066,W,15.07,67.50,60410,,,A*41
$GPRMC,194512.000,A,3240.4142,N,11706.4885,W,22.86,70.31,60410,,,A*48
$GPRMC,194515.000,A,3240.4207,N,11706.4657,W,23.81,71.02,60410,,,A*4B
$GPRMC,194518.000,A,3240.4268,N,11706.4425,W,24.30,71.37,60410,,,A*43
$GPRMC,194521.000,A,3240.4326,N,11706.4200,W,22.38,72.77,60410,,,A*4A
$GPRMC,194524.000,A,3240.4377,N,11706.4013,W,17.01,72.07,60410,,,A*40
$GPRMC,194606.000,A,3240.4442,N,11706.3820,W,7.29,69.61,60410,,,A*7C
$GPRMC,194609.000,A,3240.4496,N,11706.3646,W,23.33,72.07,60410,,,A*43
$GPRMC,194612.000,A,3240.4567,N,11706.3389,W,30.62,72.07,60410,,,A*46
$GPRMC,194615.000,A,3240.4651,N,11706.3099,W,32.07,71.72,60410,,,A*45
$GPRMC,194618.000,A,3240.4741,N,11706.2790,W,34.02,71.37,60410,,,A*45
$GPRMC,194621.000,A,3240.4831,N,11706.2465,W,36.93,71.37,60410,,,A*44
$GPRMC,194624.000,A,3240.4921,N,11706.2130,W,34.52,71.37,60410,,,A*4B
$GPRMC,194627.000,A,3240.5008,N,11706.1821,W,31.12,72.77,60410,,,A*47
$GPRMC,194630.000,A,3240.5066,N,11706.1577,W,20.92,72.42,60410,,,A*49
$GPRMC,194633.000,A,3240.5111,N,11706.1406,W,16.07,72.42,60410,,,A*45
$GPRMC,194636.000,A,3240.5156,N,11706.1248,W,17.50,70.66,60410,,,A*48
$GPRMC,194639.000,A,3240.5217,N,11706.1046,W,23.81,70.66,60410,,,A*46
$GPRMC,194642.000,A,3240.5282,N,11706.0795,W,28.67,74.88,60410,,,A*49
$GPRMC,194645.000,A,3240.5353,N,11706.0524,W,28.67,73.48,60410,,,A*40
$GPRMC,194648.000,A,3240.5427,N,11706.0241,W,31.10,73.12,60410,,,A*4A
$GPRMC,194651.000,A,3240.5523,N,11705.9906,W,37.42,71.02,60410,,,A*47
$GPRMC,194654.000,A,3240.5626,N,11705.9546,W,37.91,71.37,60410,,,A*44
$GPRMC,194657.000,A,3240.5719,N,11705.9230,W,30.62,71.02,60410,,,A*41
$GPRMC,194700.000,A,3240.5793,N,11705.9021,W,17.98,67.50,60410,,,A*42
$GPRMC,194827.000,A,3240.5855,N,11705.8854,W,14.58,70.31,60410,,,A*48
$GPRMC,194830.000,A,3240.5909,N,11705.8670,W,21.87,72.42,60410,,,A*4C
$GPRMC,194833.000,A,3240.5964,N,11705.8451,W,23.81,70.66,60410,,,A*45
$GPRMC,194836.000,A,3240.6025,N,11705.8207,W,26.24,72.07,60410,,,A*45
$GPRMC,194839.000,A,3240.6090,N,11705.7965,W,24.79,71.72,60410,,,A*4F
$GPRMC,194842.000,A,3240.6151,N,11705.7737,W,23.81,72.07,60410,,,A*47
$GPRMC,194845.000,A,3240.6212,N,11705.7511,W,24.79,72.07,60410,,,A*42
$GPRMC,194848.000,A,3240.6267,N,11705.7296,W,21.87,73.48,60410,,,A*4B
$GPRMC,194851.000,A,3240.6308,N,11705.7100,W,20.41,78.75,60410,,,A*49
$GPRMC,194854.000,A,3240.6321,N,11705.6881,W,23.33,85.43,60410,,,A*47
$GPRMC,194857.000,A,3240.6325,N,11705.6681,W,17.50,89.30,60410,,,A*44
$GPRMC,194933.000,A,3240.6321,N,11705.6510,W,8.26,93.52,60410,,,A*78
$GPRMC,194936.000,A,3240.6305,N,11705.6366,W,18.95,99.49,60410,,,A*45
$GPRMC,194939.000,A,3240.6254,N,11705.6099,W,28.19,101.60,60410,,,A*70
$GPRMC,194942.000,A,3240.6199,N,11705.5812,W,29.16,101.60,60410,,,A*78
$GPRMC,194945.000,A,3240.6148,N,11705.5545,W,24.79,100.90,60410,,,A*76
$GPRMC,194948.000,A,3240.6112,N,11705.5313,W,21.38,100.20,60410,,,A*7A
$GPRMC,195145.000,A,3240.6077,N,11705.5233,W,5.83,175.08,60410,,,A*41
$GPRMC,195149.000,A,3240.5893,N,11705.5249,W,18.49,190.20,60410,,,A*7A
$GPRMC,195153.000,A,3240.5694,N,11705.5310,W,17.98,203.20,60410,,,A*7F
