NMEA Sentence Code,UTC Time,Status,Latitude,Latitude Direction,Longitude,Longitude Direction,Speed (knots),Track Angle (degrees true),Date,MagneticVariation,Magnetic Variation Direction,[FAA Mode]-Optional,Checksum
$GPRMC,081710.9,A,3248.2871,N,11714.5492,W,32.40,164.90,211110,,*23
$GPRMC,081713.9,A,3248.2596,N,11714.5407,W,32.70,165.60,211110,,*25
$GPRMC,081716.9,A,3248.2335,N,11714.5341,W,30.20,165.80,211110,,*23
$GPRMC,081719.9,A,3248.2093,N,11714.5264,W,30.20,165.10,211110,,*2C
$GPRMC,081722.9,A,3248.1863,N,11714.5179,W,30.60,165.70,211110,,*2D
$GPRMC,081725.9,A,3248.1616,N,11714.5108,W,30.30,165.70,211110,,*25
$GPRMC,081728.9,A,3248.1374,N,11714.5028,W,31.30,164.40,211110,,*29
$GPRMC,081731.9,A,3248.1122,N,11714.4948,W,31.60,165.00,211110,,*2E
$GPRMC,081734.9,A,3248.0872,N,11714.4864,W,30.50,165.90,211110,,*22
$GPRMC,081737.9,A,3248.0621,N,11714.4790,W,29.90,166.00,211110,,*23
$GPRMC,081740.9,A,3248.0382,N,11714.4710,W,28.60,164.60,211110,,*2D
$GPRMC,081743.9,A,3248.0180,N,11714.4644,W,19.40,164.50,211110,,*2D
$GPRMC,081746.9,A,3248.0056,N,11714.4609,W,10.70,164.50,211110,,*21
$GPRMC,081822.9,A,3247.9941,N,11714.4577,W,4.40,137.90,211110,,*13
$GPRMC,081825.9,A,3247.9819,N,11714.4555,W,12.70,162.20,211110,,*27
$GPRMC,081828.9,A,3247.9642,N,11714.4497,W,21.10,162.80,211110,,*29
$GPRMC,081831.9,A,3247.9445,N,11714.4434,W,23.60,164.70,211110,,*21
$GPRMC,081834.9,A,3247.9256,N,11714.4384,W,23.70,165.80,211110,,*23
$GPRMC,081837.9,A,3247.9051,N,11714.4332,W,24.20,166.10,211110,,*20
$GPRMC,081840.9,A,3247.8871,N,11714.4279,W,18.50,163.00,211110,,*29
$GPRMC,081843.9,A,3247.8759,N,11714.4239,W,13.70,162.50,211110,,*26
$GPRMC,082028.9,A,3247.8762,N,11714.4171,W,6.40,146.50,211110,,*16
$GPRMC,082031.9,A,3247.8735,N,11714.4072,W,9.10,116.70,211110,,*13
$GPRMC,082034.9,A,3247.8754,N,11714.3899,W,13.70,91.10,211110,,*1E
$GPRMC,082037.9,A,3247.8825,N,11714.3619,W,24.20,75.70,211110,,*1F
$GPRMC,082040.9,A,3247.8889,N,11714.3335,W,26.40,75.70,211110,,*16
$GPRMC,082043.9,A,3247.8951,N,11714.3063,W,26.80,75.70,211110,,*1D
$GPRMC,082046.9,A,3247.9018,N,11714.2780,W,27.30,75.00,211110,,*1B
$GPRMC,082049.9,A,3247.9070,N,11714.2517,W,28.10,75.40,211110,,*1F
$GPRMC,082052.9,A,3247.9127,N,11714.2232,W,28.80,76.40,211110,,*1C
$GPRMC,082055.9,A,3247.9176,N,11714.1959,W,28.50,76.00,211110,,*13
$GPRMC,082058.9,A,3247.9232,N,11714.1693,W,28.10,75.20,211110,,*11
$GPRMC,082101.9,A,3247.9284,N,11714.1428,W,27.60,75.80,211110,,*11
$GPRMC,082104.9,A,3247.9346,N,11714.1179,W,25.00,74.90,211110,,*1E
$GPRMC,082107.9,A,3247.9384,N,11714.1009,W,15.00,72.70,211110,,*1E
$GPRMC,082110.9,A,3247.9404,N,11714.0917,W,7.60,69.70,211110,,*2F
$GPRMC,082122.9,A,3247.9403,N,11714.0907,W,4.50,77.60,211110,,*26
$GPRMC,082125.9,A,3247.9426,N,11714.0783,W,13.80,79.40,211110,,*13
$GPRMC,082128.9,A,3247.9469,N,11714.0580,W,21.20,76.50,211110,,*11
$GPRMC,082131.9,A,3247.9523,N,11714.0337,W,25.10,75.50,211110,,*18
$GPRMC,082134.9,A,3247.9580,N,11714.0078,W,26.70,76.00,211110,,*1F
$GPRMC,082137.9,A,3247.9642,N,11713.9797,W,29.10,75.50,211110,,*16
$GPRMC,082140.9,A,3247.9704,N,11713.9506,W,30.10,75.60,211110,,*14
$GPRMC,082143.9,A,3247.9780,N,11713.9203,W,30.90,75.20,211110,,*15
$GPRMC,082146.9,A,3247.9843,N,11713.8899,W,31.50,75.20,211110,,*15
$GPRMC,082149.9,A,3247.9913,N,11713.8582,W,32.70,76.30,211110,,*1A
$GPRMC,082152.9,A,3247.9987,N,11713.8277,W,31.00,73.70,211110,,*15
$GPRMC,082155.9,A,3248.0040,N,11713.8021,W,25.60,74.60,211110,,*12
$GPRMC,082158.9,A,3248.0095,N,11713.7819,W,19.60,76.30,211110,,*13
$GPRMC,082201.9,A,3248.0134,N,11713.7660,W,16.60,75.50,211110,,*1C
$GPRMC,082204.9,A,3248.0165,N,11713.7483,W,20.20,77.90,211110,,*1D
$GPRMC,082207.9,A,3248.0217,N,11713.7243,W,25.50,75.60,211110,,*1D
$GPRMC,082210.9,A,3248.0283,N,11713.6964,W,28.10,74.50,211110,,*12
$GPRMC,082213.9,A,3248.0344,N,11713.6662,W,30.90,74.80,211110,,*1E
$GPRMC,082216.9,A,3248.0407,N,11713.6349,W,31.70,74.60,211110,,*16
$GPRMC,082219.9,A,3248.0479,N,11713.6028,W,33.60,75.50,211110,,*15
$GPRMC,082222.9,A,3248.0533,N,11713.5695,W,33.00,76.70,211110,,*16
$GPRMC,082225.9,A,3248.0598,N,11713.5392,W,31.60,75.60,211110,,*14
$GPRMC,082228.9,A,3248.0667,N,11713.5087,W,31.40,75.00,211110,,*19
$GPRMC,082231.9,A,3248.0723,N,11713.4797,W,29.70,75.80,211110,,*15
$GPRMC,082234.9,A,3248.0788,N,11713.4502,W,30.60,77.40,211110,,*18
$GPRMC,082237.9,A,3248.0864,N,11713.4192,W,31.00,75.30,211110,,*19
$GPRMC,082240.9,A,3248.0943,N,11713.3883,W,32.30,75.50,211110,,*15
$GPRMC,082243.9,A,3248.1012,N,11713.3582,W,32.80,75.60,211110,,*1E
$GPRMC,082246.9,A,3248.1071,N,11713.3266,W,33.00,76.50,211110,,*1A
$GPRMC,082249.9,A,3248.1131,N,11713.2937,W,33.60,77.10,211110,,*1D
$GPRMC,082252.9,A,3248.1191,N,11713.2611,W,34.50,77.60,211110,,*15
$GPRMC,082255.9,A,3248.1265,N,11713.2273,W,35.00,76.50,211110,,*1C
$GPRMC,082258.9,A,3248.1323,N,11713.1926,W,35.50,79.40,211110,,*11
$GPRMC,082301.9,A,3248.1375,N,11713.1589,W,34.50,81.20,211110,,*16
$GPRMC,082304.9,A,3248.1403,N,11713.1268,W,34.70,86.00,211110,,*1A
$GPRMC,082307.9,A,3248.1404,N,11713.0920,W,35.40,90.50,211110,,*18
$GPRMC,082310.9,A,3248.1379,N,11713.0558,W,36.00,96.20,211110,,*16
$GPRMC,082313.9,A,3248.1327,N,11713.0213,W,35.30,101.70,211110,,*2C
$GPRMC,082316.9,A,3248.1256,N,11712.9882,W,35.00,104.80,211110,,*2D
$GPRMC,082319.9,A,3248.1181,N,11712.9572,W,33.00,106.70,211110,,*22
$GPRMC,082322.9,A,3248.1043,N,11712.9280,W,33.70,119.80,211110,,*29
$GPRMC,082325.9,A,3248.0879,N,11712.9014,W,34.30,126.80,211110,,*2E
$GPRMC,082328.9,A,3248.0684,N,11712.8723,W,37.10,129.40,211110,,*2F
$GPRMC,082331.9,A,3248.0457,N,11712.8453,W,38.60,132.70,211110,,*2E
$GPRMC,082334.9,A,3248.0223,N,11712.8172,W,39.80,134.30,211110,,*25
$GPRMC,082337.9,A,3247.9982,N,11712.7890,W,40.70,134.10,211110,,*29
$GPRMC,082340.9,A,3247.9752,N,11712.7603,W,39.90,133.60,211110,,*2E
$GPRMC,082343.9,A,3247.9536,N,11712.7335,W,37.60,133.70,211110,,*2D
$GPRMC,082346.9,A,3247.9339,N,11712.7095,W,31.80,135.10,211110,,*20
$GPRMC,082349.9,A,3247.9178,N,11712.6909,W,24.70,135.10,211110,,*2E
$GPRMC,082352.9,A,3247.9069,N,11712.6769,W,17.00,134.70,211110,,*2D
$GPRMC,082355.9,A,3247.8993,N,11712.6696,W,12.00,136.10,211110,,*27
$GPRMC,082358.9,A,3247.8889,N,11712.6605,W,16.70,140.90,211110,,*20
$GPRMC,082401.9,A,3247.8763,N,11712.6448,W,23.90,137.80,211110,,*22
$GPRMC,082404.9,A,3247.8595,N,11712.6269,W,29.00,140.40,211110,,*26
$GPRMC,082407.9,A,3247.8373,N,11712.6087,W,32.40,146.80,211110,,*2D
$GPRMC,082410.9,A,3247.8125,N,11712.5908,W,35.90,147.10,211110,,*25
$GPRMC,082413.9,A,3247.7809,N,11712.5695,W,42.00,149.50,211110,,*26
$GPRMC,082416.9,A,3247.7490,N,11712.5486,W,44.10,151.00,211110,,*24
$GPRMC,082419.9,A,3247.7149,N,11712.5271,W,46.40,152.20,211110,,*22
$GPRMC,082422.9,A,3247.6771,N,11712.5081,W,48.70,156.50,211110,,*25
$GPRMC,082425.9,A,3247.6370,N,11712.4926,W,49.80,160.40,211110,,*28
$GPRMC,082428.9,A,3247.5960,N,11712.4779,W,51.30,163.00,211110,,*2C
$GPRMC,082431.9,A,3247.5544,N,11712.4654,W,51.40,164.50,211110,,*25
$GPRMC,082434.9,A,3247.5125,N,11712.4539,W,51.60,167.40,211110,,*2B
$GPRMC,082437.9,A,3247.4702,N,11712.4445,W,52.10,171.70,211110,,*20
$GPRMC,082440.9,A,3247.4262,N,11712.4383,W,53.30,173.20,211110,,*2A
$GPRMC,082443.9,A,3247.3804,N,11712.4336,W,55.50,177.20,211110,,*2E
$GPRMC,082446.9,A,3247.3343,N,11712.4321,W,55.20,179.90,211110,,*27
$GPRMC,082449.9,A,3247.2886,N,11712.4341,W,55.00,183.30,211110,,*20
$GPRMC,082452.9,A,3247.2430,N,11712.4382,W,54.30,185.30,211110,,*20
$GPRMC,082455.9,A,3247.1984,N,11712.4457,W,53.80,188.20,211110,,*29
$GPRMC,082458.9,A,3247.1543,N,11712.4530,W,52.80,188.30,211110,,*23
$GPRMC,082501.9,A,3247.1105,N,11712.4614,W,52.00,189.00,211110,,*27
$GPRMC,082504.9,A,3247.0680,N,11712.4682,W,51.30,188.50,211110,,*22
$GPRMC,082507.9,A,3247.0262,N,11712.4746,W,50.90,186.50,211110,,*25
$GPRMC,082510.9,A,3246.9846,N,11712.4808,W,51.00,187.00,211110,,*2E
$GPRMC,082513.9,A,3246.9413,N,11712.4871,W,53.30,186.70,211110,,*28
$GPRMC,082516.9,A,3246.8969,N,11712.4939,W,54.10,187.80,211110,,*2A
$GPRMC,082519.9,A,3246.8527,N,11712.5009,W,54.20,188.60,211110,,*2A
$GPRMC,082522.9,A,3246.8080,N,11712.5093,W,53.80,188.50,211110,,*27
$GPRMC,082525.9,A,3246.7636,N,11712.5161,W,53.10,187.70,211110,,*2C
$GPRMC,082528.9,A,3246.7201,N,11712.5204,W,53.10,184.20,211110,,*27
$GPRMC,082531.9,A,3246.6759,N,11712.5200,W,54.10,176.40,211110,,*2E
$GPRMC,082534.9,A,3246.6310,N,11712.5150,W,54.50,172.90,211110,,*29
$GPRMC,082537.9,A,3246.5864,N,11712.5053,W,55.20,168.90,211110,,*2E
$GPRMC,082540.9,A,3246.5416,N,11712.4948,W,54.30,168.50,211110,,*29
$GPRMC,082543.9,A,3246.4964,N,11712.4838,W,53.30,167.50,211110,,*2D
$GPRMC,082546.9,A,3246.4530,N,11712.4722,W,53.00,167.90,211110,,*2E
$GPRMC,082549.9,A,3246.4101,N,11712.4615,W,52.50,167.70,211110,,*28
$GPRMC,082552.9,A,3246.3674,N,11712.4488,W,52.30,167.60,211110,,*21
$GPRMC,082555.9,A,3246.3246,N,11712.4378,W,52.90,167.60,211110,,*21
$GPRMC,082558.9,A,3246.2797,N,11712.4281,W,54.00,167.90,211110,,*23
$GPRMC,082601.9,A,3246.2350,N,11712.4173,W,54.10,167.90,211110,,*2C
$GPRMC,082604.9,A,3246.1919,N,11712.4052,W,53.20,168.00,211110,,*2D
$GPRMC,082607.9,A,3246.1491,N,11712.3936,W,52.70,167.70,211110,,*23
$GPRMC,082610.9,A,3246.1063,N,11712.3827,W,52.40,168.00,211110,,*26
$GPRMC,082613.9,A,3246.0643,N,11712.3712,W,51.70,167.60,211110,,*20
$GPRMC,082616.9,A,3246.0225,N,11712.3610,W,50.80,167.90,211110,,*23
$GPRMC,082619.9,A,3245.9811,N,11712.3515,W,50.20,168.00,211110,,*21
$GPRMC,082622.9,A,3245.9405,N,11712.3403,W,49.90,168.20,211110,,*27
$GPRMC,082625.9,A,3245.8998,N,11712.3302,W,49.50,168.00,211110,,*20
$GPRMC,082628.9,A,3245.8594,N,11712.3198,W,50.30,168.00,211110,,*22
$GPRMC,082631.9,A,3245.8174,N,11712.3089,W,51.50,167.60,211110,,*2F
$GPRMC,082634.9,A,3245.7749,N,11712.2985,W,51.80,167.50,211110,,*27
$GPRMC,082637.9,A,3245.7323,N,11712.2872,W,52.30,167.60,211110,,*2E
$GPRMC,082640.9,A,3245.6901,N,11712.2763,W,52.20,167.80,211110,,*25
$GPRMC,082643.9,A,3245.6476,N,11712.2655,W,53.00,168.00,211110,,*2B
$GPRMC,082646.9,A,3245.6041,N,11712.2542,W,53.50,168.00,211110,,*2E
$GPRMC,082649.9,A,3245.5595,N,11712.2426,W,55.20,168.50,211110,,*29
$GPRMC,082652.9,A,3245.5147,N,11712.2314,W,55.20,168.50,211110,,*2E
$GPRMC,082655.9,A,3245.4717,N,11712.2201,W,54.00,168.00,211110,,*28
$GPRMC,082658.9,A,3245.4282,N,11712.2055,W,53.30,161.90,211110,,*2B
$GPRMC,082701.9,A,3245.3873,N,11712.1865,W,53.20,157.30,211110,,*23
$GPRMC,082704.9,A,3245.3495,N,11712.1624,W,52.40,150.40,211110,,*2E
$GPRMC,082707.9,A,3245.3135,N,11712.1310,W,53.40,143.00,211110,,*27
$GPRMC,082710.9,A,3245.2795,N,11712.0947,W,53.90,136.70,211110,,*2D
$GPRMC,082713.9,A,3245.2499,N,11712.0540,W,54.50,131.10,211110,,*20
$GPRMC,082716.9,A,3245.2211,N,11712.0133,W,53.90,130.70,211110,,*2F
$GPRMC,082719.9,A,3245.1928,N,11711.9707,W,54.20,129.80,211110,,*22
$GPRMC,082722.9,A,3245.1633,N,11711.9300,W,54.20,131.90,211110,,*24
$GPRMC,082725.9,A,3245.1301,N,11711.8939,W,54.40,137.00,211110,,*2F
$GPRMC,082728.9,A,3245.0940,N,11711.8608,W,55.20,141.70,211110,,*20
$GPRMC,082731.9,A,3245.0561,N,11711.8275,W,56.70,143.30,211110,,*29
$GPRMC,082734.9,A,3245.0166,N,11711.7948,W,57.50,144.20,211110,,*20
$GPRMC,082737.9,A,3244.9798,N,11711.7603,W,56.80,142.40,211110,,*20
$GPRMC,082740.9,A,3244.9444,N,11711.7240,W,56.30,138.50,211110,,*26
$GPRMC,082743.9,A,3244.9114,N,11711.6851,W,57.20,135.10,211110,,*27
$GPRMC,082746.9,A,3244.8795,N,11711.6427,W,57.70,131.30,211110,,*22
$GPRMC,082749.9,A,3244.8508,N,11711.5993,W,56.10,127.60,211110,,*2F
$GPRMC,082752.9,A,3244.8257,N,11711.5533,W,54.80,123.00,211110,,*27
$GPRMC,082755.9,A,3244.8031,N,11711.5063,W,54.60,119.80,211110,,*2D
$GPRMC,082758.9,A,3244.7804,N,11711.4590,W,55.70,119.40,211110,,*25
$GPRMC,082801.9,A,3244.7573,N,11711.4101,W,56.70,118.90,211110,,*28
$GPRMC,082804.9,A,3244.7365,N,11711.3613,W,55.90,118.10,211110,,*2A
$GPRMC,082807.9,A,3244.7144,N,11711.3127,W,55.20,118.60,211110,,*24
$GPRMC,082810.9,A,3244.6921,N,11711.2657,W,54.60,118.40,211110,,*2E
$GPRMC,082813.9,A,3244.6700,N,11711.2186,W,54.50,118.90,211110,,*25
$GPRMC,082816.9,A,3244.6481,N,11711.1723,W,54.20,118.70,211110,,*29
$GPRMC,082819.9,A,3244.6262,N,11711.1249,W,54.40,119.20,211110,,*26
$GPRMC,082822.9,A,3244.6048,N,11711.0766,W,55.50,118.40,211110,,*2A
$GPRMC,082825.9,A,3244.5817,N,11711.0282,W,55.80,118.70,211110,,*2D
$GPRMC,082828.9,A,3244.5591,N,11710.9811,W,55.80,119.20,211110,,*2F
$GPRMC,082831.9,A,3244.5366,N,11710.9321,W,56.80,118.50,211110,,*24
$GPRMC,082834.9,A,3244.5145,N,11710.8836,W,55.70,119.30,211110,,*25
$GPRMC,082837.9,A,3244.4880,N,11710.8381,W,55.80,124.80,211110,,*2A
$GPRMC,082840.9,A,3244.4579,N,11710.7961,W,56.10,132.40,211110,,*2B
$GPRMC,082843.9,A,3244.4228,N,11710.7588,W,55.80,139.80,211110,,*2D
$GPRMC,082846.9,A,3244.3855,N,11710.7247,W,56.30,142.30,211110,,*24
$GPRMC,082849.9,A,3244.3469,N,11710.6925,W,56.80,143.30,211110,,*2C
$GPRMC,082852.9,A,3244.3078,N,11710.6580,W,56.90,143.50,211110,,*26
$GPRMC,082855.9,A,3244.2688,N,11710.6235,W,57.40,143.30,211110,,*2A
$GPRMC,082858.9,A,3244.2302,N,11710.5907,W,57.10,143.50,211110,,*2A
$GPRMC,082901.9,A,3244.1911,N,11710.5584,W,56.90,144.20,211110,,*22
$GPRMC,082904.9,A,3244.1537,N,11710.5253,W,56.70,143.60,211110,,*2F
$GPRMC,082907.9,A,3244.1153,N,11710.4932,W,56.70,144.10,211110,,*27
$GPRMC,082910.9,A,3244.0773,N,11710.4599,W,57.20,143.70,211110,,*2C
$GPRMC,082913.9,A,3244.0385,N,11710.4261,W,57.60,143.40,211110,,*25
$GPRMC,082916.9,A,3244.0002,N,11710.3919,W,57.40,143.20,211110,,*2B
$GPRMC,082919.9,A,3243.9614,N,11710.3586,W,57.40,143.40,211110,,*27
$GPRMC,082922.9,A,3243.9231,N,11710.3248,W,56.60,143.40,211110,,*2A
$GPRMC,082925.9,A,3243.8862,N,11710.2910,W,55.80,143.20,211110,,*2C
$GPRMC,082928.9,A,3243.8499,N,11710.2590,W,55.00,143.20,211110,,*25
$GPRMC,082931.9,A,3243.8136,N,11710.2265,W,54.30,143.50,211110,,*25
$GPRMC,082934.9,A,3243.7779,N,11710.1948,W,53.30,143.40,211110,,*23
$GPRMC,082937.9,A,3243.7424,N,11710.1645,W,53.20,143.40,211110,,*28
$GPRMC,082940.9,A,3243.7068,N,11710.1350,W,52.10,143.80,211110,,*2B
$GPRMC,082943.9,A,3243.6723,N,11710.1040,W,51.70,143.70,211110,,*29
$GPRMC,082946.9,A,3243.6394,N,11710.0729,W,51.30,142.70,211110,,*28
$GPRMC,082949.9,A,3243.6050,N,11710.0431,W,51.20,143.10,211110,,*20
$GPRMC,082952.9,A,3243.5697,N,11710.0121,W,51.70,141.80,211110,,*2E
$GPRMC,082955.9,A,3243.5347,N,11709.9801,W,51.80,141.60,211110,,*2A
$GPRMC,082958.9,A,3243.5005,N,11709.9481,W,51.50,141.40,211110,,*29
$GPRMC,083001.9,A,3243.4677,N,11709.9148,W,51.80,140.40,211110,,*23
$GPRMC,083004.9,A,3243.4351,N,11709.8833,W,50.40,139.50,211110,,*21
$GPRMC,083007.9,A,3243.4054,N,11709.8485,W,51.10,131.70,211110,,*2B
$GPRMC,083010.9,A,3243.3807,N,11709.8064,W,50.50,123.80,211110,,*26
$GPRMC,083013.9,A,3243.3642,N,11709.7568,W,52.10,111.50,211110,,*26
$GPRMC,083016.9,A,3243.3552,N,11709.7045,W,52.30,100.50,211110,,*29
$GPRMC,083019.9,A,3243.3542,N,11709.6550,W,50.70,92.00,211110,,*1E
$GPRMC,083022.9,A,3243.3593,N,11709.6030,W,50.90,82.80,211110,,*1E
$GPRMC,083025.9,A,3243.3756,N,11709.5535,W,52.20,71.20,211110,,*1E
$GPRMC,083028.9,A,3243.3958,N,11709.5091,W,49.30,64.60,211110,,*13
$GPRMC,083031.9,A,3243.4117,N,11709.4675,W,46.10,66.50,211110,,*1E
$GPRMC,083034.9,A,3243.4258,N,11709.4260,W,45.70,70.20,211110,,*16
$GPRMC,083037.9,A,3243.4326,N,11709.3841,W,45.50,80.20,211110,,*1E
$GPRMC,083040.9,A,3243.4374,N,11709.3390,W,45.70,83.00,211110,,*1D
$GPRMC,083043.9,A,3243.4409,N,11709.2935,W,46.30,84.30,211110,,*14
$GPRMC,083046.9,A,3243.4446,N,11709.2512,W,44.10,83.30,211110,,*14
$GPRMC,083049.9,A,3243.4496,N,11709.2097,W,43.30,82.80,211110,,*11
$GPRMC,083052.9,A,3243.4506,N,11709.1671,W,44.10,88.90,211110,,*10
$GPRMC,083055.9,A,3243.4474,N,11709.1234,W,44.60,98.30,211110,,*1A
$GPRMC,083058.9,A,3243.4360,N,11709.0804,W,44.30,108.50,211110,,*26
$GPRMC,083101.9,A,3243.4165,N,11709.0419,W,46.00,121.70,211110,,*24
$GPRMC,083104.9,A,3243.3912,N,11709.0066,W,46.50,131.30,211110,,*22
$GPRMC,083107.9,A,3243.3579,N,11708.9804,W,45.00,145.40,211110,,*26
$GPRMC,083110.9,A,3243.3248,N,11708.9607,W,44.00,153.80,211110,,*22
$GPRMC,083113.9,A,3243.2917,N,11708.9443,W,43.40,157.80,211110,,*24
$GPRMC,083116.9,A,3243.2567,N,11708.9316,W,44.80,161.60,211110,,*2D
$GPRMC,083119.9,A,3243.2186,N,11708.9186,W,47.00,163.90,211110,,*24
$GPRMC,083122.9,A,3243.1800,N,11708.9085,W,47.00,165.90,211110,,*2C
$GPRMC,083125.9,A,3243.1412,N,11708.8995,W,46.60,168.20,211110,,*2C
$GPRMC,083128.9,A,3243.1020,N,11708.8925,W,46.50,173.10,211110,,*25
$GPRMC,083131.9,A,3243.0649,N,11708.8899,W,45.00,178.10,211110,,*2E
$GPRMC,083134.9,A,3243.0277,N,11708.8933,W,44.60,181.70,211110,,*24
$GPRMC,083137.9,A,3242.9917,N,11708.8978,W,41.80,185.30,211110,,*26
$GPRMC,083140.9,A,3242.9578,N,11708.9009,W,39.90,184.30,211110,,*22
$GPRMC,083143.9,A,3242.9248,N,11708.9015,W,40.70,179.40,211110,,*2D
$GPRMC,083146.9,A,3242.8907,N,11708.8952,W,41.50,171.20,211110,,*2F
$GPRMC,083149.9,A,3242.8615,N,11708.8765,W,40.00,157.10,211110,,*25
$GPRMC,083152.9,A,3242.8342,N,11708.8510,W,42.50,144.80,211110,,*24
$GPRMC,083155.9,A,3242.8148,N,11708.8160,W,40.60,124.70,211110,,*20
$GPRMC,083158.9,A,3242.8002,N,11708.7779,W,41.40,113.60,211110,,*25
$GPRMC,083201.9,A,3242.7922,N,11708.7370,W,43.10,101.90,211110,,*28
$GPRMC,083204.9,A,3242.7905,N,11708.6916,W,44.50,93.20,211110,,*11
$GPRMC,083207.9,A,3242.7890,N,11708.6473,W,43.80,92.40,211110,,*1C
$GPRMC,083210.9,A,3242.7870,N,11708.6040,W,44.20,91.20,211110,,*18
$GPRMC,083213.9,A,3242.7865,N,11708.5594,W,45.20,90.10,211110,,*13
$GPRMC,083216.9,A,3242.7867,N,11708.5144,W,45.30,90.30,211110,,*1E
$GPRMC,083219.9,A,3242.7860,N,11708.4694,W,45.50,91.20,211110,,*1B
$GPRMC,083222.9,A,3242.7858,N,11708.4247,W,45.70,89.20,211110,,*19
$GPRMC,083225.9,A,3242.7850,N,11708.3815,W,44.00,90.00,211110,,*10
$GPRMC,083228.9,A,3242.7856,N,11708.3377,W,44.20,89.80,211110,,*16
$GPRMC,083231.9,A,3242.7864,N,11708.2949,W,44.20,89.50,211110,,*14
$GPRMC,083234.9,A,3242.7863,N,11708.2503,W,44.90,89.50,211110,,*1F
$GPRMC,083237.9,A,3242.7870,N,11708.2057,W,45.40,89.50,211110,,*16
$GPRMC,083240.9,A,3242.7874,N,11708.1605,W,45.70,89.50,211110,,*13
$GPRMC,083243.9,A,3242.7882,N,11708.1145,W,47.10,89.10,211110,,*1A
$GPRMC,083246.9,A,3242.7883,N,11708.0676,W,47.30,89.30,211110,,*18
$GPRMC,083249.9,A,3242.7880,N,11708.0199,W,48.00,89.40,211110,,*19
$GPRMC,083252.9,A,3242.7900,N,11707.9711,W,48.70,86.60,211110,,*10
$GPRMC,083255.9,A,3242.7943,N,11707.9223,W,49.40,84.20,211110,,*10
$GPRMC,083258.9,A,3242.7985,N,11707.8739,W,49.40,82.60,211110,,*1A
$GPRMC,083301.9,A,3242.8061,N,11707.8265,W,49.50,79.20,211110,,*16
$GPRMC,083304.9,A,3242.8149,N,11707.7776,W,49.90,77.00,211110,,*10
$GPRMC,083307.9,A,3242.8260,N,11707.7306,W,50.10,74.20,211110,,*19
$GPRMC,083310.9,A,3242.8391,N,11707.6839,W,49.50,71.50,211110,,*18
$GPRMC,083313.9,A,3242.8546,N,11707.6394,W,49.20,69.50,211110,,*15
$GPRMC,083316.9,A,3242.8683,N,11707.5942,W,48.60,69.80,211110,,*10
$GPRMC,083319.9,A,3242.8825,N,11707.5490,W,49.90,70.40,211110,,*15
$GPRMC,083322.9,A,3242.8962,N,11707.5019,W,50.10,70.00,211110,,*1E
$GPRMC,083325.9,A,3242.9100,N,11707.4536,W,51.10,69.90,211110,,*1D
$GPRMC,083328.9,A,3242.9243,N,11707.4069,W,50.80,72.30,211110,,*13
$GPRMC,083331.9,A,3242.9356,N,11707.3575,W,51.60,76.00,211110,,*19
$GPRMC,083334.9,A,3242.9443,N,11707.3087,W,51.70,79.10,211110,,*18
$GPRMC,083337.9,A,3242.9531,N,11707.2577,W,52.40,78.90,211110,,*1D
$GPRMC,083340.9,A,3242.9612,N,11707.2057,W,52.30,79.40,211110,,*13
$GPRMC,083343.9,A,3242.9697,N,11707.1569,W,51.10,78.90,211110,,*1B
$GPRMC,083346.9,A,3242.9767,N,11707.1078,W,50.20,79.60,211110,,*19
$GPRMC,083349.9,A,3242.9839,N,11707.0587,W,50.10,80.20,211110,,*17
$GPRMC,083352.9,A,3242.9908,N,11707.0092,W,49.30,79.10,211110,,*10
$GPRMC,083355.9,A,3243.0009,N,11706.9610,W,50.80,76.30,211110,,*1D
$GPRMC,083358.9,A,3243.0134,N,11706.9123,W,52.10,73.10,211110,,*14
$GPRMC,083401.9,A,3243.0286,N,11706.8630,W,52.90,70.10,211110,,*1A
$GPRMC,083404.9,A,3243.0436,N,11706.8143,W,51.00,69.20,211110,,*10
$GPRMC,083407.9,A,3243.0570,N,11706.7700,W,45.90,71.10,211110,,*18
$GPRMC,083410.9,A,3243.0696,N,11706.7282,W,43.80,72.30,211110,,*1C
$GPRMC,083413.9,A,3243.0779,N,11706.6882,W,42.00,78.20,211110,,*16
$GPRMC,083416.9,A,3243.0827,N,11706.6470,W,41.70,83.70,211110,,*13
$GPRMC,083419.9,A,3243.0832,N,11706.6062,W,41.60,89.00,211110,,*13
$GPRMC,083422.9,A,3243.0825,N,11706.5647,W,42.60,90.80,211110,,*1C
$GPRMC,083425.9,A,3243.0819,N,11706.5222,W,43.30,91.30,211110,,*1D
$GPRMC,083428.9,A,3243.0804,N,11706.4780,W,43.40,91.10,211110,,*15
$GPRMC,083431.9,A,3243.0815,N,11706.4373,W,42.30,87.30,211110,,*16
$GPRMC,083434.9,A,3243.0848,N,11706.3985,W,38.50,84.00,211110,,*14
$GPRMC,083437.9,A,3243.0871,N,11706.3621,W,37.70,86.70,211110,,*14
$GPRMC,083440.9,A,3243.0830,N,11706.3239,W,39.10,102.10,211110,,*2F
$GPRMC,083443.9,A,3243.0699,N,11706.2888,W,39.50,117.40,211110,,*25
$GPRMC,083446.9,A,3243.0476,N,11706.2602,W,38.70,133.20,211110,,*2C
$GPRMC,083449.9,A,3243.0193,N,11706.2423,W,38.90,151.00,211110,,*24
$GPRMC,083452.9,A,3242.9866,N,11706.2309,W,40.80,161.00,211110,,*27
$GPRMC,083455.9,A,3242.9530,N,11706.2200,W,42.70,162.90,211110,,*21
$GPRMC,083458.9,A,3242.9162,N,11706.2085,W,45.40,164.10,211110,,*2A
$GPRMC,083501.9,A,3242.8779,N,11706.1943,W,47.80,160.80,211110,,*29
$GPRMC,083504.9,A,3242.8411,N,11706.1772,W,48.10,155.90,211110,,*2C
$GPRMC,083507.9,A,3242.8068,N,11706.1556,W,47.00,151.20,211110,,*20
$GPRMC,083510.9,A,3242.7734,N,11706.1295,W,46.50,149.10,211110,,*21
$GPRMC,083513.9,A,3242.7399,N,11706.1060,W,46.30,148.70,211110,,*28
$GPRMC,083516.9,A,3242.7084,N,11706.0790,W,46.90,143.10,211110,,*2C
$GPRMC,083519.9,A,3242.6777,N,11706.0500,W,47.30,141.10,211110,,*2B
$GPRMC,083522.9,A,3242.6458,N,11706.0205,W,48.90,141.30,211110,,*28
$GPRMC,083525.9,A,3242.6136,N,11705.9895,W,48.80,141.30,211110,,*2A
$GPRMC,083528.9,A,3242.5817,N,11705.9588,W,49.20,141.30,211110,,*24
$GPRMC,083531.9,A,3242.5497,N,11705.9296,W,47.90,141.20,211110,,*24
$GPRMC,083534.9,A,3242.5198,N,11705.9004,W,46.30,141.40,211110,,*2F
$GPRMC,083537.9,A,3242.4888,N,11705.8722,W,46.40,141.80,211110,,*2C
$GPRMC,083540.9,A,3242.4587,N,11705.8446,W,46.30,141.70,211110,,*27
$GPRMC,083543.9,A,3242.4273,N,11705.8153,W,47.50,142.20,211110,,*28
$GPRMC,083546.9,A,3242.3951,N,11705.7874,W,47.90,146.30,211110,,*2B
$GPRMC,083549.9,A,3242.3585,N,11705.7637,W,50.00,152.90,211110,,*28
$GPRMC,083552.9,A,3242.3213,N,11705.7429,W,49.40,155.50,211110,,*20
$GPRMC,083555.9,A,3242.2834,N,11705.7265,W,48.60,162.80,211110,,*2D
$GPRMC,083558.9,A,3242.2438,N,11705.7136,W,48.40,165.40,211110,,*2C
$GPRMC,083601.9,A,3242.2036,N,11705.7048,W,49.00,170.10,211110,,*25
$GPRMC,083604.9,A,3242.1622,N,11705.7004,W,49.00,175.40,211110,,*28
$GPRMC,083607.9,A,3242.1212,N,11705.7002,W,48.70,179.50,211110,,*21
$GPRMC,083610.9,A,3242.0797,N,11705.7017,W,49.40,180.60,211110,,*2D
$GPRMC,083613.9,A,3242.0372,N,11705.7031,W,50.90,181.60,211110,,*21
$GPRMC,083616.9,A,3241.9950,N,11705.7056,W,49.70,181.00,211110,,*25
$GPRMC,083619.9,A,3241.9543,N,11705.7056,W,47.80,180.60,211110,,*22
$GPRMC,083622.9,A,3241.9155,N,11705.7062,W,46.00,180.60,211110,,*27
$GPRMC,083625.9,A,3241.8772,N,11705.7073,W,46.00,180.10,211110,,*25
$GPRMC,083628.9,A,3241.8391,N,11705.7075,W,47.00,180.80,211110,,*2F
$GPRMC,083631.9,A,3241.8007,N,11705.7069,W,46.80,179.50,211110,,*24
$GPRMC,083634.9,A,3241.7611,N,11705.7065,W,47.20,180.10,211110,,*2A
$GPRMC,083637.9,A,3241.7218,N,11705.7070,W,46.60,180.80,211110,,*2C
$GPRMC,083640.9,A,3241.6838,N,11705.7078,W,45.90,180.90,211110,,*20
$GPRMC,083643.9,A,3241.6468,N,11705.7070,W,44.30,180.40,211110,,*24
$GPRMC,083646.9,A,3241.6089,N,11705.7088,W,43.90,181.60,211110,,*23
$GPRMC,083649.9,A,3241.5728,N,11705.7122,W,42.60,184.70,211110,,*28
$GPRMC,083652.9,A,3241.5391,N,11705.7161,W,39.50,187.30,211110,,*2B
$GPRMC,083655.9,A,3241.5071,N,11705.7223,W,38.30,188.00,211110,,*2F
$GPRMC,083658.9,A,3241.4785,N,11705.7297,W,33.10,192.10,211110,,*23
$GPRMC,083701.9,A,3241.4552,N,11705.7300,W,29.40,187.10,211110,,*23
$GPRMC,083704.9,A,3241.4322,N,11705.7330,W,27.80,186.80,211110,,*2E
$GPRMC,083707.9,A,3241.4136,N,11705.7334,W,21.70,183.70,211110,,*2D
$GPRMC,083710.9,A,3241.3984,N,11705.7288,W,20.20,166.90,211110,,*2A
$GPRMC,083713.9,A,3241.3844,N,11705.7209,W,17.70,153.90,211110,,*2A
$GPRMC,083716.9,A,3241.3732,N,11705.7160,W,15.40,167.10,211110,,*23
$GPRMC,083719.9,A,3241.3555,N,11705.7193,W,24.20,190.90,211110,,*27
$GPRMC,083722.9,A,3241.3338,N,11705.7221,W,27.10,183.90,211110,,*2A
$GPRMC,083725.9,A,3241.3098,N,11705.7192,W,28.50,171.50,211110,,*25
$GPRMC,083728.9,A,3241.2868,N,11705.7114,W,28.20,159.80,211110,,*20
$GPRMC,083731.9,A,3241.2670,N,11705.6975,W,27.50,145.90,211110,,*25
$GPRMC,083734.9,A,3241.2518,N,11705.6792,W,24.10,132.60,211110,,*22
$GPRMC,083737.9,A,3241.2416,N,11705.6647,W,17.20,128.00,211110,,*29
$GPRMC,083740.9,A,3241.2363,N,11705.6590,W,7.40,134.80,211110,,*17
$GPRMC,083758.9,A,3241.2306,N,11705.6527,W,7.10,144.40,211110,,*1F
$GPRMC,083801.9,A,3241.2257,N,11705.6411,W,12.90,111.40,211110,,*21
$GPRMC,083804.9,A,3241.2264,N,11705.6250,W,16.30,82.60,211110,,*10
$GPRMC,083807.9,A,3241.2305,N,11705.6072,W,19.30,75.50,211110,,*13
$GPRMC,083810.9,A,3241.2364,N,11705.5866,W,21.50,73.10,211110,,*13
$GPRMC,083815.9,A,3241.2472,N,11705.5476,W,26.10,72.30,211110,,*1B
$GPRMC,083818.9,A,3241.2568,N,11705.5198,W,30.20,70.00,211110,,*1C
$GPRMC,083821.9,A,3241.2669,N,11705.4896,W,32.00,71.30,211110,,*10
$GPRMC,083824.9,A,3241.2748,N,11705.4596,W,31.50,71.00,211110,,*1F
$GPRMC,083827.9,A,3241.2834,N,11705.4303,W,30.90,71.80,211110,,*17
$GPRMC,083830.9,A,3241.2916,N,11705.4013,W,31.10,71.20,211110,,*11
$GPRMC,083833.9,A,3241.3000,N,11705.3737,W,29.70,71.20,211110,,*14
$GPRMC,083836.9,A,3241.3066,N,11705.3473,W,28.00,71.90,211110,,*1F
$GPRMC,083839.9,A,3241.3135,N,11705.3210,W,28.00,72.40,211110,,*1A
$GPRMC,083842.9,A,3241.3217,N,11705.2930,W,29.10,71.60,211110,,*1C
$GPRMC,083845.9,A,3241.3299,N,11705.2636,W,29.20,71.00,211110,,*11
$GPRMC,083848.9,A,3241.3383,N,11705.2370,W,28.60,70.70,211110,,*12
$GPRMC,083851.9,A,3241.3464,N,11705.2115,W,28.50,71.80,211110,,*18
$GPRMC,083854.9,A,3241.3539,N,11705.1842,W,29.30,72.00,211110,,*10
$GPRMC,083857.9,A,3241.3604,N,11705.1571,W,29.10,72.70,211110,,*16
$GPRMC,083900.9,A,3241.3659,N,11705.1338,W,21.60,72.00,211110,,*1E
$GPRMC,083903.9,A,3241.3687,N,11705.1215,W,8.90,72.20,211110,,*26
$GPRMC,083918.9,A,3241.3724,N,11705.1102,W,7.80,74.20,211110,,*29
$GPRMC,083921.9,A,3241.3772,N,11705.0921,W,17.10,71.20,211110,,*15
$GPRMC,083924.9,A,3241.3835,N,11705.0715,W,22.60,73.70,211110,,*13
$GPRMC,083927.9,A,3241.3903,N,11705.0461,W,25.80,71.50,211110,,*1D
$GPRMC,083930.9,A,3241.3987,N,11705.0184,W,29.60,70.70,211110,,*18
$GPRMC,083933.9,A,3241.4064,N,11704.9903,W,30.00,71.70,211110,,*18
$GPRMC,083936.9,A,3241.4155,N,11704.9607,W,31.70,71.50,211110,,*11
$GPRMC,083939.9,A,3241.4238,N,11704.9271,W,33.00,72.20,211110,,*12
$GPRMC,083942.9,A,3241.4325,N,11704.8946,W,32.90,70.60,211110,,*13
$GPRMC,083945.9,A,3241.4428,N,11704.8621,W,34.70,70.20,211110,,*1C
$GPRMC,083948.9,A,3241.4520,N,11704.8304,W,32.70,70.60,211110,,*18
$GPRMC,083951.9,A,3241.4600,N,11704.8016,W,31.70,71.40,211110,,*11
$GPRMC,083954.9,A,3241.4687,N,11704.7716,W,31.90,71.40,211110,,*1D
