NMEA Sentence Code,UTC Time,Status,Latitude,Latitude Direction,Longitude,Longitude Direction,Speed (knots),Track Angle (degrees true),Date,MagneticVariation,Magnetic Variation Direction,[FAA Mode]-Optional,Checksum
$GPRMC,155257.2,A,3244.223273,N,11653.599119,W,22.2,313.2,290510,,,A*49
$GPRMC,155300.2,A,3244.240107,N,11653.615515,W,28.8,326.4,290510,,,A*40
$GPRMC,155303.2,A,3244.263171,N,11653.632876,W,36.1,325.8,290510,,,A*47
$GPRMC,155306.2,A,3244.288228,N,11653.657223,W,40.9,314.4,290510,,,A*46
$GPRMC,155309.2,A,3244.309800,N,11653.690767,W,44.5,303.1,290510,,,A*44
$GPRMC,155312.2,A,3244.328968,N,11653.730219,W,46.3,299.1,290510,,,A*43
$GPRMC,155315.2,A,3244.344501,N,11653.771428,W,45.3,292.4,290510,,,A*41
$GPRMC,155318.9,A,3244.347872,N,11653.826358,W,45.8,273.8,290510,,,A*48
$GPRMC,155321.9,A,3244.353280,N,11653.871671,W,47.7,281.5,290510,,,A*41
$GPRMC,155324.9,A,3244.365365,N,11653.924133,W,52.8,284.6,290510,,,A*46
$GPRMC,155327.9,A,3244.378301,N,11653.973577,W,52.4,285.5,290510,,,A*43
$GPRMC,155330.9,A,3244.390098,N,11654.021437,W,51.7,286.9,290510,,,A*43
$GPRMC,155334.2,A,3244.405758,N,11654.077744,W,50.6,288.6,290510,,,A*49
$GPRMC,155337.2,A,3244.424293,N,11654.123358,W,52.8,295.3,290510,,,A*47
$GPRMC,155340.2,A,3244.446300,N,11654.163829,W,47.0,298.2,290510,,,A*41
$GPRMC,155343.2,A,3244.453095,N,11654.207879,W,43.1,279.5,290510,,,A*40
$GPRMC,155346.9,A,3244.438578,N,11654.266685,W,49.8,258.1,290510,,,A*4B
$GPRMC,155350.2,A,3244.430579,N,11654.319186,W,48.6,265.5,290510,,,A*46
$GPRMC,155353.0,A,3244.432148,N,11654.360544,W,46.0,279.3,290510,,,A*44
$GPRMC,155356.2,A,3244.443761,N,11654.407885,W,45.5,282.1,290510,,,A*4E
$GPRMC,155359.9,A,3244.450154,N,11654.464146,W,48.3,276.2,290510,,,A*48
$GPRMC,155402.9,A,3244.450474,N,11654.511412,W,47.5,272.9,290510,,,A*47
$GPRMC,155405.9,A,3244.450953,N,11654.551701,W,38.7,270.5,290510,,,A*49
$GPRMC,155408.2,A,3244.451466,N,11654.578989,W,36.6,268.6,290510,,,A*45
$GPRMC,155411.2,A,3244.449585,N,11654.619621,W,41.1,261.2,290510,,,A*4B
$GPRMC,155414.2,A,3244.441379,N,11654.659958,W,43.5,251.1,290510,,,A*40
$GPRMC,155417.2,A,3244.427241,N,11654.698660,W,44.5,243.0,290510,,,A*45
$GPRMC,155420.2,A,3244.407115,N,11654.734583,W,43.1,230.7,290510,,,A*48
$GPRMC,155423.2,A,3244.382778,N,11654.764302,W,40.3,222.6,290510,,,A*45
$GPRMC,155426.2,A,3244.360533,N,11654.789585,W,32.4,225.4,290510,,,A*4C
$GPRMC,155429.2,A,3244.347585,N,11654.808794,W,17.6,237.4,290510,,,A*49
$GPRMC,155432.2,A,3244.344204,N,11654.821684,W,13.6,286.7,290510,,,A*48
$GPRMC,155435.2,A,3244.355151,N,11654.833023,W,23.2,332.4,290510,,,A*4E
$GPRMC,155438.2,A,3244.375273,N,11654.844346,W,28.5,334.8,290510,,,A*44
$GPRMC,155441.2,A,3244.401722,N,11654.858991,W,37.9,334.2,290510,,,A*4A
$GPRMC,155444.2,A,3244.431726,N,11654.875767,W,41.9,334.7,290510,,,A*44
$GPRMC,155447.2,A,3244.463888,N,11654.894067,W,43.2,334.7,290510,,,A*4A
$GPRMC,155450.2,A,3244.497757,N,11654.912885,W,45.2,334.7,290510,,,A*47
$GPRMC,155453.2,A,3244.532523,N,11654.932527,W,47.6,334.3,290510,,,A*4E
$GPRMC,155456.2,A,3244.567397,N,11654.952409,W,45.9,334.8,290510,,,A*4F
$GPRMC,155459.9,A,3244.608783,N,11654.976119,W,45.1,335.3,290510,,,A*40
$GPRMC,155502.9,A,3244.639650,N,11654.993268,W,42.0,335.5,290510,,,A*4C
$GPRMC,155505.9,A,3244.666948,N,11655.007445,W,34.3,335.5,290510,,,A*49
$GPRMC,155508.9,A,3244.688550,N,11655.019463,W,27.1,334.7,290510,,,A*49
$GPRMC,155511.9,A,3244.705421,N,11655.031434,W,21.6,327.3,290510,,,A*4D
$GPRMC,155514.9,A,3244.718336,N,11655.042131,W,19.1,326.9,290510,,,A*46
$GPRMC,155517.9,A,3244.714217,N,11655.060259,W,19.7,252.0,290510,,,A*4B
$GPRMC,155520.9,A,3244.699248,N,11655.077593,W,25.3,230.2,290510,,,A*4B
$GPRMC,155523.9,A,3244.678594,N,11655.100217,W,34.4,223.9,290510,,,A*45
$GPRMC,155526.9,A,3244.656936,N,11655.126214,W,38.0,226.7,290510,,,A*4C
$GPRMC,155529.9,A,3244.636471,N,11655.158469,W,41.1,236.1,290510,,,A*46
$GPRMC,155532.9,A,3244.622028,N,11655.196683,W,43.0,245.3,290510,,,A*40
$GPRMC,155535.9,A,3244.609566,N,11655.238937,W,44.7,248.6,290510,,,A*4E
$GPRMC,155538.9,A,3244.594611,N,11655.278311,W,43.0,247.5,290510,,,A*41
$GPRMC,155541.9,A,3244.581768,N,11655.319905,W,45.3,249.9,290510,,,A*4A
$GPRMC,155544.9,A,3244.573777,N,11655.365526,W,46.0,259.0,290510,,,A*42
$GPRMC,155547.9,A,3244.571680,N,11655.411775,W,44.9,269.8,290510,,,A*4A
$GPRMC,155550.9,A,3244.574830,N,11655.454737,W,43.7,278.2,290510,,,A*48
$GPRMC,155553.9,A,3244.581140,N,11655.498187,W,45.1,279.1,290510,,,A*40
$GPRMC,155556.9,A,3244.587520,N,11655.542628,W,44.6,279.5,290510,,,A*47
$GPRMC,155559.9,A,3244.593459,N,11655.584411,W,42.3,282.3,290510,,,A*41
$GPRMC,155603.2,A,3244.606154,N,11655.624465,W,39.6,292.2,290510,,,A*42
$GPRMC,155606.2,A,3244.623029,N,11655.658408,W,38.2,298.4,290510,,,A*42
$GPRMC,155609.2,A,3244.637141,N,11655.690064,W,34.3,297.8,290510,,,A*43
$GPRMC,155612.9,A,3244.650628,N,11655.723894,W,27.5,294.8,290510,,,A*42
$GPRMC,155618.9,A,3244.667920,N,11655.747820,W,6.7,322.0,290510,,,A*73
$GPRMC,155624.9,A,3244.671562,N,11655.749888,W,7.1,321.0,290510,,,A*79
$GPRMC,155628.9,A,3244.680849,N,11655.760078,W,14.1,320.7,290510,,,A*47
$GPRMC,155631.9,A,3244.687454,N,11655.773875,W,16.2,287.2,290510,,,A*47
$GPRMC,155638.9,A,3244.670234,N,11655.828831,W,29.4,254.1,290510,,,A*40
$GPRMC,155641.9,A,3244.657914,N,11655.862329,W,38.1,247.6,290510,,,A*4E
$GPRMC,155644.9,A,3244.644866,N,11655.900794,W,43.1,248.4,290510,,,A*4B
$GPRMC,155647.9,A,3244.631083,N,11655.940942,W,44.1,246.7,290510,,,A*42
$GPRMC,155650.9,A,3244.617976,N,11655.978322,W,35.9,246.4,290510,,,A*49
$GPRMC,155653.9,A,3244.609222,N,11656.004182,W,26.0,245.1,290510,,,A*4B
$GPRMC,155656.9,A,3244.600723,N,11656.019766,W,17.6,242.3,290510,,,A*42
$GPRMC,155659.9,A,3244.595505,N,11656.030427,W,10.2,241.4,290510,,,A*4E
$GPRMC,155720.9,A,3244.592380,N,11656.041163,W,8.8,246.5,290510,,,A*7B
$GPRMC,155723.9,A,3244.587336,N,11656.054758,W,17.0,246.1,290510,,,A*49
$GPRMC,155726.9,A,3244.578830,N,11656.074195,W,24.0,242.7,290510,,,A*46
$GPRMC,155729.9,A,3244.568512,N,11656.099032,W,28.5,244.7,290510,,,A*45
$GPRMC,155732.9,A,3244.556598,N,11656.126332,W,34.0,243.5,290510,,,A*4B
$GPRMC,155735.9,A,3244.541256,N,11656.159029,W,38.7,241.2,290510,,,A*40
$GPRMC,155738.9,A,3244.528619,N,11656.193390,W,36.6,243.7,290510,,,A*42
$GPRMC,155741.9,A,3244.512789,N,11656.225491,W,35.6,239.4,290510,,,A*48
$GPRMC,155744.9,A,3244.497503,N,11656.254658,W,32.8,238.6,290510,,,A*4A
$GPRMC,155747.9,A,3244.484173,N,11656.276202,W,25.2,233.0,290510,,,A*42
$GPRMC,155750.9,A,3244.475689,N,11656.292486,W,16.7,236.1,290510,,,A*49
$GPRMC,155753.9,A,3244.469510,N,11656.302119,W,10.7,235.1,290510,,,A*4A
$GPRMC,155756.9,A,3244.467227,N,11656.308653,W,6.7,257.1,290510,,,A*72
$GPRMC,155802.9,A,3244.460093,N,11656.320751,W,12.6,238.9,290510,,,A*4A
$GPRMC,155805.9,A,3244.452137,N,11656.337527,W,22.9,238.9,290510,,,A*4A
$GPRMC,155808.9,A,3244.439606,N,11656.362029,W,29.6,238.3,290510,,,A*4A
$GPRMC,155811.9,A,3244.424519,N,11656.387967,W,31.9,236.6,290510,,,A*46
$GPRMC,155814.9,A,3244.410631,N,11656.416057,W,31.2,238.6,290510,,,A*4D
$GPRMC,155817.9,A,3244.396893,N,11656.444673,W,32.4,240.7,290510,,,A*4D
$GPRMC,155820.9,A,3244.387584,N,11656.473084,W,30.3,250.2,290510,,,A*49
$GPRMC,155823.9,A,3244.381551,N,11656.497785,W,23.6,258.3,290510,,,A*46
$GPRMC,155826.9,A,3244.381701,N,11656.512229,W,11.1,266.7,290510,,,A*44
$GPRMC,155847.9,A,3244.379811,N,11656.515456,W,4.8,260.2,290510,,,A*7D
$GPRMC,155850.9,A,3244.379463,N,11656.525719,W,12.3,267.6,290510,,,A*46
$GPRMC,155853.9,A,3244.379775,N,11656.546810,W,21.8,270.0,290510,,,A*49
$GPRMC,155856.9,A,3244.380450,N,11656.572372,W,26.3,270.9,290510,,,A*43
$GPRMC,155859.9,A,3244.381203,N,11656.603858,W,31.2,270.2,290510,,,A*47
$GPRMC,155902.9,A,3244.379239,N,11656.636942,W,34.4,268.0,290510,,,A*42
$GPRMC,155905.9,A,3244.379039,N,11656.675354,W,38.9,266.0,290510,,,A*42
$GPRMC,155908.9,A,3244.374905,N,11656.715766,W,42.4,263.4,290510,,,A*47
$GPRMC,155911.9,A,3244.369398,N,11656.760316,W,46.7,263.3,290510,,,A*4C
$GPRMC,155914.9,A,3244.365167,N,11656.809070,W,50.1,265.4,290510,,,A*44
$GPRMC,155917.9,A,3244.362737,N,11656.858079,W,50.5,265.6,290510,,,A*48
$GPRMC,155920.9,A,3244.359803,N,11656.912431,W,53.3,269.1,290510,,,A*45
$GPRMC,155923.9,A,3244.363495,N,11656.967036,W,52.7,276.2,290510,,,A*45
$GPRMC,155926.9,A,3244.373024,N,11657.013112,W,45.3,285.4,290510,,,A*4B
$GPRMC,155929.9,A,3244.384665,N,11657.047702,W,35.8,290.7,290510,,,A*42
$GPRMC,155933.2,A,3244.389126,N,11657.060007,W,13.2,298.8,290510,,,A*41
$GPRMC,155957.9,A,3244.388564,N,11657.066511,W,7.1,277.8,290510,,,A*78
$GPRMC,160000.9,A,3244.400703,N,11657.095991,W,26.8,293.4,290510,,,A*45
$GPRMC,160003.9,A,3244.412720,N,11657.122628,W,31.0,298.7,290510,,,A*42
$GPRMC,160006.9,A,3244.429120,N,11657.152278,W,36.7,306.0,290510,,,A*4E
$GPRMC,160009.9,A,3244.453912,N,11657.184244,W,43.3,311.6,290510,,,A*47
$GPRMC,160012.9,A,3244.481642,N,11657.217498,W,46.3,313.3,290510,,,A*44
$GPRMC,160015.9,A,3244.507356,N,11657.250425,W,45.6,312.6,290510,,,A*4B
$GPRMC,160018.9,A,3244.542397,N,11657.279632,W,51.4,324.2,290510,,,A*43
$GPRMC,160021.9,A,3244.581508,N,11657.306003,W,53.3,329.4,290510,,,A*45
$GPRMC,160024.9,A,3244.619413,N,11657.332336,W,51.7,329.3,290510,,,A*4A
$GPRMC,160027.9,A,3244.655799,N,11657.358473,W,50.1,327.9,290510,,,A*49
$GPRMC,160030.9,A,3244.684328,N,11657.388504,W,41.6,318.6,290510,,,A*45
$GPRMC,160033.9,A,3244.703003,N,11657.414382,W,33.9,310.6,290510,,,A*4A
$GPRMC,160036.9,A,3244.714409,N,11657.436240,W,23.0,302.5,290510,,,A*40
$GPRMC,160039.9,A,3244.718194,N,11657.446977,W,8.2,294.5,290510,,,A*7F
$GPRMC,160118.9,A,3244.719732,N,11657.450286,W,6.2,293.2,290510,,,A*7A
$GPRMC,160121.9,A,3244.724445,N,11657.459698,W,14.2,293.3,290510,,,A*4D
$GPRMC,160124.9,A,3244.730692,N,11657.481482,W,23.6,288.6,290510,,,A*46
$GPRMC,160127.9,A,3244.737525,N,11657.509408,W,29.6,284.9,290510,,,A*47
$GPRMC,160130.9,A,3244.740698,N,11657.543246,W,34.6,275.7,290510,,,A*4A
$GPRMC,160133.9,A,3244.743347,N,11657.585151,W,43.2,270.7,290510,,,A*43
$GPRMC,160136.9,A,3244.742789,N,11657.632156,W,48.0,267.3,290510,,,A*42
$GPRMC,160139.9,A,3244.737778,N,11657.682513,W,50.4,265.4,290510,,,A*47
$GPRMC,160142.9,A,3244.729366,N,11657.733293,W,52.6,257.7,290510,,,A*49
$GPRMC,160145.9,A,3244.716502,N,11657.782108,W,53.5,252.9,290510,,,A*44
$GPRMC,160148.9,A,3244.700625,N,11657.834386,W,55.5,251.2,290510,,,A*40
$GPRMC,160151.9,A,3244.690497,N,11657.889523,W,57.5,256.9,290510,,,A*4A
$GPRMC,160154.9,A,3244.679185,N,11657.948241,W,60.3,259.1,290510,,,A*44
$GPRMC,160157.9,A,3244.673147,N,11658.007222,W,61.5,262.5,290510,,,A*40
$GPRMC,160200.9,A,3244.673068,N,11658.071889,W,65.1,269.8,290510,,,A*41
$GPRMC,160203.9,A,3244.674204,N,11658.138496,W,66.6,271.3,290510,,,A*45
$GPRMC,160206.9,A,3244.674589,N,11658.204124,W,66.8,270.4,290510,,,A*4A
$GPRMC,160209.9,A,3244.673421,N,11658.272167,W,68.4,270.3,290510,,,A*42
$GPRMC,160212.9,A,3244.677442,N,11658.342299,W,68.8,272.7,290510,,,A*43
$GPRMC,160215.9,A,3244.679499,N,11658.407389,W,66.9,272.0,290510,,,A*42
$GPRMC,160218.9,A,3244.679170,N,11658.473187,W,67.8,270.2,290510,,,A*42
$GPRMC,160221.9,A,3244.678786,N,11658.539440,W,66.6,270.2,290510,,,A*48
$GPRMC,160224.9,A,3244.680011,N,11658.604846,W,66.0,271.1,290510,,,A*40
$GPRMC,160227.9,A,3244.680410,N,11658.670789,W,66.6,270.3,290510,,,A*4C
$GPRMC,160230.9,A,3244.683974,N,11658.737429,W,67.5,271.1,290510,,,A*4C
$GPRMC,160233.9,A,3244.681679,N,11658.803239,W,66.6,269.4,290510,,,A*4E
$GPRMC,160236.9,A,3244.681952,N,11658.868640,W,64.6,270.1,290510,,,A*45
$GPRMC,160239.9,A,3244.682897,N,11658.931917,W,63.0,271.0,290510,,,A*40
$GPRMC,160242.9,A,3244.684616,N,11658.991192,W,59.7,271.4,290510,,,A*48
$GPRMC,160245.9,A,3244.687729,N,11659.048793,W,60.9,275.6,290510,,,A*48
$GPRMC,160248.9,A,3244.695477,N,11659.105834,W,58.1,275.2,290510,,,A*43
$GPRMC,160251.9,A,3244.709994,N,11659.165426,W,62.3,286.3,290510,,,A*40
$GPRMC,160254.9,A,3244.728837,N,11659.219316,W,59.9,293.0,290510,,,A*47
$GPRMC,160257.9,A,3244.749311,N,11659.271705,W,58.7,294.4,290510,,,A*48
$GPRMC,160300.9,A,3244.769616,N,11659.328437,W,61.0,293.0,290510,,,A*4A
$GPRMC,160303.9,A,3244.788558,N,11659.382529,W,58.9,293.6,290510,,,A*44
$GPRMC,160306.9,A,3244.808583,N,11659.434918,W,57.9,294.8,290510,,,A*42
$GPRMC,160309.9,A,3244.832989,N,11659.485520,W,59.5,296.1,290510,,,A*46
$GPRMC,160312.9,A,3244.854436,N,11659.538717,W,58.3,296.5,290510,,,A*47
$GPRMC,160315.9,A,3244.872885,N,11659.587833,W,54.3,295.1,290510,,,A*46
$GPRMC,160318.9,A,3244.891451,N,11659.630101,W,49.9,296.1,290510,,,A*41
$GPRMC,160321.9,A,3244.911159,N,11659.677951,W,52.9,295.8,290510,,,A*41
$GPRMC,160324.9,A,3244.927175,N,11659.725773,W,52.8,293.6,290510,,,A*4E
$GPRMC,160327.9,A,3244.945410,N,11659.775152,W,53.5,293.6,290510,,,A*43
$GPRMC,160330.9,A,3244.963953,N,11659.822531,W,53.1,291.6,290510,,,A*41
$GPRMC,160333.9,A,3244.978403,N,11659.874692,W,56.0,287.5,290510,,,A*49
$GPRMC,160336.9,A,3244.992512,N,11659.930062,W,58.7,287.8,290510,,,A*45
$GPRMC,160339.9,A,3245.006603,N,11659.978639,W,52.1,289.3,290510,,,A*41
$GPRMC,160342.9,A,3245.016365,N,11700.020183,W,43.5,287.6,290510,,,A*49
$GPRMC,160345.9,A,3245.028581,N,11700.057390,W,41.9,294.8,290510,,,A*4D
$GPRMC,160348.9,A,3245.037173,N,11700.081383,W,26.8,292.2,290510,,,A*42
$GPRMC,160351.9,A,3245.041869,N,11700.083205,W,8.8,307.2,290510,,,A*75
$GPRMC,160427.9,A,3245.039752,N,11700.091000,W,7.9,244.3,290510,,,A*76
$GPRMC,160430.9,A,3245.024743,N,11700.094883,W,17.9,189.5,290510,,,A*4F
$GPRMC,160433.2,A,3245.007468,N,11700.097166,W,27.2,187.7,290510,,,A*49
$GPRMC,160436.9,A,3244.973146,N,11700.102370,W,32.8,192.7,290510,,,A*47
$GPRMC,160439.9,A,3244.941340,N,11700.115795,W,40.6,200.0,290510,,,A*40
$GPRMC,160442.9,A,3244.908229,N,11700.131868,W,42.2,199.8,290510,,,A*49
$GPRMC,160445.9,A,3244.877448,N,11700.150081,W,41.0,210.2,290510,,,A*47
$GPRMC,160448.9,A,3244.847274,N,11700.170104,W,40.7,208.9,290510,,,A*4A
$GPRMC,160451.9,A,3244.814672,N,11700.186228,W,42.4,200.7,290510,,,A*45
$GPRMC,160454.9,A,3244.778668,N,11700.197021,W,43.1,197.5,290510,,,A*4E
$GPRMC,160457.9,A,3244.745856,N,11700.204479,W,41.1,188.5,290510,,,A*4C
$GPRMC,160500.9,A,3244.715887,N,11700.208029,W,35.2,186.6,290510,,,A*46
$GPRMC,160503.9,A,3244.693257,N,11700.210734,W,25.3,188.0,290510,,,A*47
$GPRMC,160506.9,A,3244.681908,N,11700.214049,W,10.2,195.9,290510,,,A*4B
$GPRMC,160524.9,A,3244.681639,N,11700.212252,W,5.1,194.0,290510,,,A*77
$GPRMC,160527.9,A,3244.668863,N,11700.214679,W,15.9,186.8,290510,,,A*4B
$GPRMC,160530.9,A,3244.647208,N,11700.219598,W,26.7,196.1,290510,,,A*40
$GPRMC,160533.9,A,3244.623307,N,11700.233202,W,32.7,206.0,290510,,,A*4D
$GPRMC,160536.9,A,3244.598695,N,11700.250999,W,34.5,208.6,290510,,,A*45
$GPRMC,160539.9,A,3244.570923,N,11700.267144,W,35.9,208.7,290510,,,A*4E
$GPRMC,160542.9,A,3244.544530,N,11700.285384,W,37.3,208.4,290510,,,A*42
$GPRMC,160545.9,A,3244.514882,N,11700.301471,W,40.5,206.6,290510,,,A*4E
$GPRMC,160548.9,A,3244.481685,N,11700.322793,W,43.1,207.9,290510,,,A*40
$GPRMC,160551.9,A,3244.452929,N,11700.341468,W,38.9,204.7,290510,,,A*44
$GPRMC,160554.9,A,3244.419527,N,11700.346635,W,39.4,184.4,290510,,,A*45
$GPRMC,160557.9,A,3244.385174,N,11700.346716,W,41.6,180.3,290510,,,A*48
$GPRMC,160600.9,A,3244.349406,N,11700.346009,W,43.2,179.8,290510,,,A*4B
$GPRMC,160603.9,A,3244.313235,N,11700.347656,W,43.9,181.6,290510,,,A*4E
$GPRMC,160606.9,A,3244.274706,N,11700.347770,W,45.3,182.5,290510,,,A*47
$GPRMC,160609.9,A,3244.240409,N,11700.356368,W,42.1,198.1,290510,,,A*44
$GPRMC,160612.9,A,3244.216496,N,11700.384038,W,40.6,228.5,290510,,,A*4B
$GPRMC,160615.9,A,3244.203492,N,11700.422229,W,40.3,249.9,290510,,,A*4B
$GPRMC,160618.9,A,3244.199754,N,11700.461746,W,41.6,265.8,290510,,,A*4F
$GPRMC,160621.9,A,3244.201512,N,11700.504054,W,43.5,271.2,290510,,,A*4F
$GPRMC,160624.9,A,3244.200164,N,11700.546966,W,43.8,268.9,290510,,,A*4E
$GPRMC,160627.9,A,3244.202309,N,11700.589463,W,40.9,270.7,290510,,,A*48
$GPRMC,160630.9,A,3244.201345,N,11700.626848,W,35.9,269.0,290510,,,A*4B
$GPRMC,160633.9,A,3244.200208,N,11700.656545,W,29.6,268.6,290510,,,A*43
$GPRMC,160636.9,A,3244.201401,N,11700.679735,W,19.0,270.0,290510,,,A*4A
$GPRMC,160639.9,A,3244.203026,N,11700.688860,W,9.0,271.6,290510,,,A*71
$GPRMC,160642.9,A,3244.201048,N,11700.699832,W,13.4,271.8,290510,,,A*41
$GPRMC,160645.9,A,3244.202128,N,11700.719658,W,20.9,271.3,290510,,,A*4F
$GPRMC,160648.9,A,3244.199384,N,11700.744790,W,25.0,266.7,290510,,,A*44
$GPRMC,160651.9,A,3244.200080,N,11700.772297,W,28.9,270.9,290510,,,A*42
$GPRMC,160654.9,A,3244.200534,N,11700.803347,W,32.3,270.2,290510,,,A*42
$GPRMC,160657.9,A,3244.203696,N,11700.835860,W,30.1,270.9,290510,,,A*49
$GPRMC,160700.9,A,3244.202136,N,11700.856762,W,16.9,267.1,290510,,,A*4C
$GPRMC,160709.9,A,3244.199552,N,11700.863276,W,7.9,252.8,290510,,,A*7B
$GPRMC,160712.9,A,3244.189885,N,11700.870812,W,14.3,205.9,290510,,,A*46
$GPRMC,160715.9,A,3244.170978,N,11700.871331,W,25.0,180.6,290510,,,A*4F
$GPRMC,160718.9,A,3244.142693,N,11700.871617,W,35.3,180.9,290510,,,A*45
$GPRMC,160721.9,A,3244.110009,N,11700.873395,W,41.0,181.4,290510,,,A*4C
$GPRMC,160724.9,A,3244.071562,N,11700.873387,W,45.5,181.4,290510,,,A*45
$GPRMC,160727.9,A,3244.034573,N,11700.873627,W,45.2,182.0,290510,,,A*48
$GPRMC,160730.9,A,3243.995419,N,11700.874598,W,44.9,180.6,290510,,,A*48
$GPRMC,160733.9,A,3243.958143,N,11700.876762,W,44.3,181.2,290510,,,A*4A
$GPRMC,160736.9,A,3243.924348,N,11700.877509,W,41.7,180.6,290510,,,A*47
$GPRMC,160739.9,A,3243.887428,N,11700.876268,W,43.9,180.2,290510,,,A*48
$GPRMC,160742.9,A,3243.851931,N,11700.876737,W,44.0,180.5,290510,,,A*4C
$GPRMC,160745.9,A,3243.813445,N,11700.876149,W,47.3,178.2,290510,,,A*4C
$GPRMC,160748.9,A,3243.769640,N,11700.871644,W,51.9,174.3,290510,,,A*49
$GPRMC,160751.9,A,3243.722816,N,11700.866081,W,55.7,173.7,290510,,,A*43
$GPRMC,160754.9,A,3243.675050,N,11700.860034,W,57.3,173.1,290510,,,A*47
$GPRMC,160757.9,A,3243.626900,N,11700.854040,W,58.1,174.1,290510,,,A*40
$GPRMC,160800.9,A,3243.584630,N,11700.854236,W,52.2,181.3,290510,,,A*48
$GPRMC,160803.9,A,3243.549525,N,11700.854733,W,42.7,182.4,290510,,,A*4D
$GPRMC,160806.9,A,3243.515177,N,11700.855129,W,38.3,182.5,290510,,,A*46
$GPRMC,160809.9,A,3243.496276,N,11700.856107,W,20.8,188.2,290510,,,A*41
$GPRMC,160812.9,A,3243.489191,N,11700.869561,W,18.1,242.0,290510,,,A*42
$GPRMC,160815.0,A,3243.492022,N,11700.885145,W,20.5,262.6,290510,,,A*44
$GPRMC,160818.9,A,3243.493613,N,11700.912536,W,16.0,253.2,290510,,,A*4C
$GPRMC,160821.9,A,3243.480095,N,11700.920525,W,19.8,195.6,290510,,,A*45
$GPRMC,160824.9,A,3243.458518,N,11700.922555,W,27.2,181.1,290510,,,A*45
$GPRMC,160827.9,A,3243.433829,N,11700.919981,W,29.9,175.2,290510,,,A*44
$GPRMC,160830.9,A,3243.408946,N,11700.916972,W,29.1,177.5,290510,,,A*4C
$GPRMC,160833.2,A,3243.390501,N,11700.916419,W,28.4,177.8,290510,,,A*44
$GPRMC,160836.2,A,3243.369381,N,11700.916280,W,22.6,183.1,290510,,,A*45
$GPRMC,160839.2,A,3243.353186,N,11700.917961,W,17.2,187.2,290510,,,A*46
