NMEA Sentence Code,UTC Time,Status,Latitude,Latitude Direction,Longitude,Longitude Direction,Speed (knots),Track Angle (degrees true),Date,MagneticVariation,Magnetic Variation Direction,[FAA Mode]-Optional,Checksum
$GPRMC,182852,A,3340.5776,N,11738.0844,W,45.50,201.80,200310,,*37
$GPRMC,182855,A,3340.5389,N,11738.1099,W,52.20,211.70,200310,,*32
$GPRMC,182858,A,3340.5078,N,11738.1388,W,47.80,215.20,200310,,*3E
$GPRMC,182901,A,3340.4764,N,11738.1631,W,42.60,213.60,200310,,*36
$GPRMC,182904,A,3340.4527,N,11738.1815,W,33.00,210.60,200310,,*3D
$GPRMC,182907,A,3340.4319,N,11738.1914,W,24.40,202.40,200310,,*36
$GPRMC,182910,A,3340.4291,N,11738.1972,W,6.40,217.60,200310,,*07
$GPRMC,182926,A,3340.4278,N,11738.2005,W,6.30,192.70,200310,,*07
$GPRMC,182929,A,3340.4085,N,11738.1995,W,17.80,168.40,200310,,*36
$GPRMC,182932,A,3340.3922,N,11738.1802,W,28.00,133.20,200310,,*3C
$GPRMC,182935,A,3340.3733,N,11738.1562,W,33.20,135.90,200310,,*3B
$GPRMC,182938,A,3340.3511,N,11738.1307,W,40.50,136.60,200310,,*3E
$GPRMC,182941,A,3340.3267,N,11738.1022,W,40.00,135.80,200310,,*3A
$GPRMC,182944,A,3340.3008,N,11738.0735,W,42.80,136.80,200310,,*3D
$GPRMC,182947,A,3340.2740,N,11738.0433,W,44.80,136.70,200310,,*38
$GPRMC,182950,A,3340.2413,N,11737.9984,W,47.20,126.70,200310,,*34
$GPRMC,182954,A,3340.2265,N,11737.9487,W,48.50,109.80,200310,,*33
$GPRMC,182957,A,3340.2138,N,11737.9027,W,48.10,107.10,200310,,*36
$GPRMC,183000,A,3340.2119,N,11737.8563,W,49.10,93.00,200310,,*07
$GPRMC,183003,A,3340.2154,N,11737.8038,W,47.40,84.40,200310,,*0F
$GPRMC,183006,A,3340.2215,N,11737.7562,W,48.60,80.20,200310,,*06
$GPRMC,183009,A,3340.2287,N,11737.6990,W,46.30,81.20,200310,,*08
$GPRMC,183012,A,3340.2265,N,11737.6580,W,40.60,91.40,200310,,*07
$GPRMC,183015,A,3340.2207,N,11737.6288,W,39.00,100.20,200310,,*3C
$GPRMC,183019,A,3340.2076,N,11737.5923,W,28.40,111.20,200310,,*39
$GPRMC,183023,A,3340.1987,N,11737.5819,W,8.80,139.70,200310,,*0D
$GPRMC,183026,A,3340.1873,N,11737.5859,W,13.60,192.80,200310,,*3C
$GPRMC,183029,A,3340.1600,N,11737.5996,W,31.90,202.50,200310,,*33
$GPRMC,183032,A,3340.1229,N,11737.6188,W,46.30,206.60,200310,,*3F
$GPRMC,183035,A,3340.0772,N,11737.6503,W,48.10,213.60,200310,,*3D
$GPRMC,183038,A,3340.0525,N,11737.6707,W,51.80,214.50,200310,,*33
$GPRMC,183042,A,3340.0040,N,11737.7123,W,52.20,216.10,200310,,*36
$GPRMC,183045,A,3339.9746,N,11737.7425,W,52.40,222.70,200310,,*33
$GPRMC,183049,A,3339.9332,N,11737.7988,W,52.00,234.30,200310,,*35
$GPRMC,183052,A,3339.9053,N,11737.8519,W,50.60,236.60,200310,,*33
$GPRMC,183055,A,3339.8806,N,11737.8935,W,51.00,234.80,200310,,*34
$GPRMC,183058,A,3339.8635,N,11737.9340,W,49.00,241.60,200310,,*3B
$GPRMC,183102,A,3339.8425,N,11737.9865,W,50.40,244.80,200310,,*3D
$GPRMC,183105,A,3339.8247,N,11738.0301,W,48.50,245.40,200310,,*32
$GPRMC,183108,A,3339.8054,N,11738.0704,W,47.50,237.80,200310,,*38
$GPRMC,183111,A,3339.7836,N,11738.1103,W,48.30,236.20,200310,,*31
$GPRMC,183114,A,3339.7617,N,11738.1502,W,47.30,236.60,200310,,*37
$GPRMC,183117,A,3339.7381,N,11738.2007,W,46.00,244.40,200310,,*38
$GPRMC,183120,A,3339.7231,N,11738.2432,W,46.00,247.60,200310,,*35
$GPRMC,183124,A,3339.7129,N,11738.2938,W,44.40,252.40,200310,,*3C
$GPRMC,183127,A,3339.6989,N,11738.3416,W,43.00,251.20,200310,,*3A
$GPRMC,183130,A,3339.6844,N,11738.3836,W,43.90,248.30,200310,,*32
$GPRMC,183133,A,3339.6754,N,11738.4259,W,41.80,250.80,200310,,*3A
$GPRMC,183136,A,3339.6654,N,11738.4530,W,33.20,248.40,200310,,*3C
$GPRMC,183139,A,3339.6580,N,11738.4849,W,32.60,255.70,200310,,*30
$GPRMC,183142,A,3339.6520,N,11738.5087,W,22.40,249.70,200310,,*33
$GPRMC,183145,A,3339.6380,N,11738.5175,W,19.40,211.00,200310,,*36
$GPRMC,183148,A,3339.6218,N,11738.5174,W,23.50,180.10,200310,,*38
$GPRMC,183152,A,3339.5834,N,11738.5123,W,36.00,176.60,200310,,*39
$GPRMC,183155,A,3339.5555,N,11738.5103,W,36.70,176.50,200310,,*32
$GPRMC,183158,A,3339.5171,N,11738.5071,W,36.40,176.90,200310,,*36
$GPRMC,183201,A,3339.4888,N,11738.5066,W,32.90,179.80,200310,,*36
$GPRMC,183204,A,3339.4616,N,11738.5064,W,29.10,179.00,200310,,*32
$GPRMC,183207,A,3339.4384,N,11738.5093,W,28.00,182.10,200310,,*32
$GPRMC,183210,A,3339.4174,N,11738.5140,W,28.30,189.50,200310,,*3A
$GPRMC,183213,A,3339.3960,N,11738.5197,W,33.40,194.30,200310,,*3E
$GPRMC,183217,A,3339.3526,N,11738.5404,W,45.20,203.80,200310,,*3A
$GPRMC,183220,A,3339.3069,N,11738.5674,W,45.40,205.30,200310,,*3E
$GPRMC,183223,A,3339.2715,N,11738.5872,W,47.10,205.70,200310,,*3B
$GPRMC,183226,A,3339.2347,N,11738.6070,W,47.20,203.90,200310,,*3F
$GPRMC,183229,A,3339.2080,N,11738.6240,W,45.00,205.80,200310,,*3E
$GPRMC,183232,A,3339.1696,N,11738.6485,W,40.00,206.40,200310,,*33
$GPRMC,183236,A,3339.1470,N,11738.6586,W,24.30,199.10,200310,,*3E
$GPRMC,183239,A,3339.1279,N,11738.6666,W,21.90,202.30,200310,,*3F
$GPRMC,183242,A,3339.1208,N,11738.6690,W,8.60,193.50,200310,,*05
$GPRMC,183336,A,3339.1037,N,11738.6721,W,10.50,180.70,200310,,*38
$GPRMC,183339,A,3339.0780,N,11738.6778,W,26.80,186.30,200310,,*3B
$GPRMC,183342,A,3339.0532,N,11738.6793,W,28.20,181.70,200310,,*3E
$GPRMC,183345,A,3339.0217,N,11738.6795,W,31.20,178.20,200310,,*34
$GPRMC,183349,A,3338.9914,N,11738.6748,W,32.80,172.00,200310,,*39
$GPRMC,183353,A,3338.9596,N,11738.6683,W,32.10,171.30,200310,,*3B
$GPRMC,183356,A,3338.9261,N,11738.6608,W,37.20,166.70,200310,,*36
$GPRMC,183359,A,3338.8936,N,11738.6503,W,38.90,161.00,200310,,*3D
$GPRMC,183402,A,3338.8632,N,11738.6364,W,40.40,158.40,200310,,*34
$GPRMC,183405,A,3338.8330,N,11738.6222,W,39.00,158.40,200310,,*3D
$GPRMC,183408,A,3338.8018,N,11738.6110,W,39.20,163.10,200310,,*34
$GPRMC,183411,A,3338.7675,N,11738.6031,W,41.60,171.70,200310,,*32
$GPRMC,183414,A,3338.7238,N,11738.6040,W,41.40,183.30,200310,,*37
$GPRMC,183417,A,3338.6916,N,11738.6060,W,38.60,183.00,200310,,*3F
$GPRMC,183420,A,3338.6613,N,11738.6104,W,36.70,185.90,200310,,*32
$GPRMC,183423,A,3338.6300,N,11738.6162,W,36.60,185.80,200310,,*36
$GPRMC,183426,A,3338.5973,N,11738.6192,W,37.80,184.60,200310,,*31
$GPRMC,183430,A,3338.5707,N,11738.6207,W,33.40,186.80,200310,,*30
$GPRMC,183433,A,3338.5457,N,11738.6266,W,33.00,191.40,200310,,*3C
$GPRMC,183436,A,3338.5179,N,11738.6368,W,28.20,197.70,200310,,*32
$GPRMC,183439,A,3338.4959,N,11738.6499,W,20.80,206.40,200310,,*35
$GPRMC,183442,A,3338.4835,N,11738.6559,W,14.40,201.70,200310,,*30
$GPRMC,183446,A,3338.4704,N,11738.6640,W,16.50,207.50,200310,,*35
$GPRMC,183449,A,3338.4597,N,11738.6720,W,20.10,211.90,200310,,*3F
$GPRMC,183452,A,3338.4366,N,11738.6904,W,26.60,215.80,200310,,*31
$GPRMC,183455,A,3338.4176,N,11738.7087,W,29.60,220.50,200310,,*32
$GPRMC,183458,A,3338.4015,N,11738.7249,W,34.40,220.20,200310,,*32
$GPRMC,183501,A,3338.3719,N,11738.7519,W,37.00,217.00,200310,,*30
$GPRMC,183504,A,3338.3457,N,11738.7741,W,37.20,212.00,200310,,*34
$GPRMC,183508,A,3338.3198,N,11738.7919,W,36.90,207.90,200310,,*3A
$GPRMC,183511,A,3338.2803,N,11738.8116,W,38.20,198.90,200310,,*30
$GPRMC,183515,A,3338.2462,N,11738.8218,W,39.20,193.80,200310,,*39
$GPRMC,183518,A,3338.2110,N,11738.8267,W,40.50,187.60,200310,,*3E
$GPRMC,183521,A,3338.1683,N,11738.8286,W,42.50,183.20,200310,,*37
$GPRMC,183524,A,3338.1348,N,11738.8304,W,41.60,183.50,200310,,*3C
$GPRMC,183527,A,3338.1047,N,11738.8364,W,37.70,187.80,200310,,*3C
$GPRMC,183531,A,3338.0757,N,11738.8420,W,33.40,191.60,200310,,*35
$GPRMC,183534,A,3338.0555,N,11738.8496,W,21.10,197.90,200310,,*32
$GPRMC,183537,A,3338.0389,N,11738.8562,W,13.90,196.70,200310,,*3A
$GPRMC,183540,A,3338.0353,N,11738.8591,W,5.10,202.50,200310,,*02
$GPRMC,183604,A,3338.0295,N,11738.8595,W,12.20,208.60,200310,,*32
$GPRMC,183607,A,3338.0172,N,11738.8673,W,19.90,207.70,200310,,*3E
$GPRMC,183610,A,3337.9996,N,11738.8801,W,28.50,211.40,200310,,*3D
$GPRMC,183613,A,3337.9732,N,11738.8999,W,37.70,216.10,200310,,*30
$GPRMC,183616,A,3337.9478,N,11738.9249,W,41.20,218.50,200310,,*31
$GPRMC,183619,A,3337.9169,N,11738.9528,W,43.80,217.10,200310,,*38
$GPRMC,183622,A,3337.8849,N,11738.9825,W,46.70,218.10,200310,,*3F
$GPRMC,183625,A,3337.8548,N,11739.0095,W,46.60,215.60,200310,,*34
$GPRMC,183628,A,3337.8228,N,11739.0338,W,45.30,210.30,200310,,*3A
$GPRMC,183631,A,3337.7854,N,11739.0529,W,45.20,203.40,200310,,*3E
$GPRMC,183634,A,3337.7597,N,11739.0631,W,41.20,198.90,200310,,*3B
$GPRMC,183637,A,3337.7200,N,11739.0747,W,37.70,191.50,200310,,*30
$GPRMC,183640,A,3337.7038,N,11739.0781,W,28.10,193.90,200310,,*35
$GPRMC,183643,A,3337.6887,N,11739.0799,W,14.90,184.50,200310,,*3F
$GPRMC,183646,A,3337.6846,N,11739.0806,W,8.50,188.60,200310,,*00
$GPRMC,183649,A,3337.6788,N,11739.0823,W,5.00,177.00,200310,,*0B
$GPRMC,183722,A,3337.6771,N,11739.0844,W,8.70,213.70,200310,,*0C
$GPRMC,183725,A,3337.6625,N,11739.0872,W,18.30,191.00,200310,,*35
$GPRMC,183728,A,3337.6388,N,11739.0900,W,26.00,187.00,200310,,*37
$GPRMC,183731,A,3337.6108,N,11739.0956,W,34.20,187.70,200310,,*30
$GPRMC,183734,A,3337.5751,N,11739.0987,W,38.80,180.60,200310,,*30
$GPRMC,183738,A,3337.5314,N,11739.0951,W,40.90,170.80,200310,,*3D
$GPRMC,183741,A,3337.4969,N,11739.0868,W,41.60,168.80,200310,,*3E
$GPRMC,183744,A,3337.4635,N,11739.0780,W,41.50,168.30,200310,,*3C
$GPRMC,183747,A,3337.4148,N,11739.0695,W,44.00,170.70,200310,,*3A
$GPRMC,183750,A,3337.3878,N,11739.0622,W,44.30,167.80,200310,,*37
$GPRMC,183754,A,3337.3383,N,11739.0505,W,47.80,169.20,200310,,*36
$GPRMC,183756,A,3337.3119,N,11739.0444,W,48.00,169.30,200310,,*37
$GPRMC,183757,A,3337.2868,N,11739.0386,W,48.30,169.00,200310,,*31
$GPRMC,183800,A,3337.2554,N,11739.0323,W,49.00,169.80,200310,,*3B
$GPRMC,183803,A,3337.1989,N,11739.0265,W,51.80,174.30,200310,,*32
$GPRMC,183806,A,3337.1683,N,11739.0240,W,52.60,177.70,200310,,*3F
$GPRMC,183809,A,3337.1308,N,11739.0356,W,46.50,194.40,200310,,*38
$GPRMC,183812,A,3337.0946,N,11739.0504,W,45.20,200.60,200310,,*3A
$GPRMC,183815,A,3337.0549,N,11739.0763,W,42.50,209.90,200310,,*3B
$GPRMC,183818,A,3337.0266,N,11739.1011,W,41.50,220.00,200310,,*3E
$GPRMC,183821,A,3337.0067,N,11739.1210,W,41.80,222.90,200310,,*32
$GPRMC,183824,A,3336.9761,N,11739.1583,W,41.40,224.90,200310,,*39
$GPRMC,183827,A,3336.9515,N,11739.1879,W,41.60,223.60,200310,,*39
$GPRMC,183831,A,3336.9199,N,11739.2155,W,41.20,214.80,200310,,*34
$GPRMC,183834,A,3336.8909,N,11739.2361,W,40.80,207.50,200310,,*30
$GPRMC,183837,A,3336.8581,N,11739.2529,W,42.20,200.10,200310,,*3E
$GPRMC,183840,A,3336.8245,N,11739.2638,W,42.40,191.60,200310,,*38
$GPRMC,183843,A,3336.7894,N,11739.2695,W,42.20,183.60,200310,,*30
$GPRMC,183846,A,3336.7451,N,11739.2696,W,43.30,179.30,200310,,*33
$GPRMC,183849,A,3336.7105,N,11739.2635,W,42.60,170.60,200310,,*39
$GPRMC,183852,A,3336.6843,N,11739.2562,W,42.40,167.70,200310,,*3D
$GPRMC,183855,A,3336.6525,N,11739.2493,W,42.20,173.20,200310,,*3E
$GPRMC,183859,A,3336.6003,N,11739.2467,W,43.90,179.80,200310,,*32
$GPRMC,183903,A,3336.5601,N,11739.2597,W,42.00,194.70,200310,,*31
$GPRMC,183906,A,3336.5191,N,11739.2797,W,37.50,202.40,200310,,*30
$GPRMC,183909,A,3336.4943,N,11739.2912,W,28.50,202.70,200310,,*37
$GPRMC,183912,A,3336.4802,N,11739.2990,W,18.00,206.30,200310,,*35
$GPRMC,183915,A,3336.4717,N,11739.3033,W,9.60,194.50,200310,,*00
$GPRMC,183942,A,3336.4671,N,11739.3070,W,8.70,198.80,200310,,*05
$GPRMC,183945,A,3336.4539,N,11739.3146,W,18.00,205.30,200310,,*33
$GPRMC,183948,A,3336.4394,N,11739.3233,W,21.90,204.40,200310,,*3B
$GPRMC,183951,A,3336.4197,N,11739.3312,W,24.30,198.40,200310,,*39
$GPRMC,183954,A,3336.3993,N,11739.3353,W,32.00,192.90,200310,,*31
$GPRMC,183957,A,3336.3627,N,11739.3417,W,33.80,187.70,200310,,*36
$GPRMC,184000,A,3336.3335,N,11739.3451,W,35.20,184.80,200310,,*3E
$GPRMC,184004,A,3336.2988,N,11739.3490,W,38.40,184.30,200310,,*3A
$GPRMC,184007,A,3336.2558,N,11739.3549,W,41.20,187.10,200310,,*34
$GPRMC,184010,A,3336.2173,N,11739.3574,W,42.70,185.20,200310,,*36
$GPRMC,184013,A,3336.1830,N,11739.3638,W,41.60,186.90,200310,,*39
$GPRMC,184016,A,3336.1616,N,11739.3658,W,39.90,186.20,200310,,*3B
$GPRMC,184019,A,3336.1252,N,11739.3783,W,40.90,194.80,200310,,*30
$GPRMC,184022,A,3336.0926,N,11739.3885,W,42.60,195.30,200310,,*3F
$GPRMC,184025,A,3336.0507,N,11739.4017,W,42.00,194.60,200310,,*31
$GPRMC,184028,A,3336.0253,N,11739.4096,W,41.40,195.40,200310,,*37
$GPRMC,184031,A,3335.9923,N,11739.4198,W,41.10,195.30,200310,,*34
$GPRMC,184034,A,3335.9606,N,11739.4304,W,39.70,195.90,200310,,*3D
$GPRMC,184037,A,3335.9305,N,11739.4419,W,37.90,199.00,200310,,*36
$GPRMC,184040,A,3335.9004,N,11739.4543,W,38.10,198.40,200310,,*38
$GPRMC,184043,A,3335.8652,N,11739.4704,W,32.80,200.50,200310,,*3E
$GPRMC,184046,A,3335.8544,N,11739.4759,W,22.70,201.50,200310,,*38
$GPRMC,184050,A,3335.8389,N,11739.4848,W,9.40,203.50,200310,,*0F
$GPRMC,184108,A,3335.8304,N,11739.4916,W,7.10,212.20,200310,,*00
$GPRMC,184112,A,3335.8156,N,11739.4989,W,17.60,200.20,200310,,*3D
$GPRMC,184115,A,3335.7907,N,11739.5120,W,31.50,204.10,200310,,*33
$GPRMC,184118,A,3335.7556,N,11739.5282,W,35.60,201.70,200310,,*39
$GPRMC,184121,A,3335.7275,N,11739.5417,W,37.80,202.60,200310,,*31
$GPRMC,184124,A,3335.6952,N,11739.5588,W,41.40,202.70,200310,,*30
$GPRMC,184127,A,3335.6632,N,11739.5778,W,40.90,203.60,200310,,*3B
$GPRMC,184130,A,3335.6297,N,11739.5901,W,40.40,198.70,200310,,*3B
$GPRMC,184133,A,3335.6046,N,11739.5976,W,42.10,192.80,200310,,*34
$GPRMC,184136,A,3335.5709,N,11739.6032,W,39.50,184.10,200310,,*32
$GPRMC,184139,A,3335.5412,N,11739.6033,W,34.70,178.80,200310,,*30
$GPRMC,184142,A,3335.5185,N,11739.6004,W,27.40,173.20,200310,,*33
$GPRMC,184145,A,3335.5070,N,11739.5983,W,16.40,167.00,200310,,*3F
$GPRMC,184227,A,3335.4983,N,11739.6025,W,8.80,185.30,200310,,*06
$GPRMC,184230,A,3335.4675,N,11739.5948,W,26.40,171.80,200310,,*37
$GPRMC,184233,A,3335.4355,N,11739.5905,W,35.60,177.40,200310,,*30
$GPRMC,184236,A,3335.4009,N,11739.5901,W,40.40,183.20,200310,,*36
$GPRMC,184239,A,3335.3654,N,11739.6001,W,43.00,192.60,200310,,*39
$GPRMC,184242,A,3335.3319,N,11739.6131,W,44.50,199.80,200310,,*3C
$GPRMC,184245,A,3335.2918,N,11739.6236,W,45.90,193.50,200310,,*3F
$GPRMC,184248,A,3335.2567,N,11739.6322,W,43.10,191.10,200310,,*3A
$GPRMC,184251,A,3335.2178,N,11739.6399,W,44.50,188.40,200310,,*36
$GPRMC,184254,A,3335.1823,N,11739.6391,W,44.60,179.20,200310,,*34
$GPRMC,184257,A,3335.1513,N,11739.6334,W,39.60,170.80,200310,,*3F
$GPRMC,184300,A,3335.1223,N,11739.6262,W,31.60,166.30,200310,,*3E
$GPRMC,184303,A,3335.1017,N,11739.6153,W,25.20,161.80,200310,,*34
$GPRMC,184306,A,3335.0934,N,11739.6091,W,14.50,158.10,200310,,*31
$GPRMC,184309,A,3335.0864,N,11739.6068,W,12.00,157.70,200310,,*36
$GPRMC,184312,A,3335.0746,N,11739.5989,W,17.20,151.10,200310,,*31
$GPRMC,184315,A,3335.0637,N,11739.5911,W,13.90,147.60,200310,,*3F
$GPRMC,184318,A,3335.0579,N,11739.5865,W,6.10,152.70,200310,,*00
$GPRMC,184336,A,3335.0534,N,11739.5827,W,6.40,190.30,200310,,*0C
$GPRMC,184339,A,3335.0397,N,11739.5919,W,18.50,217.80,200310,,*39
$GPRMC,184342,A,3335.0244,N,11739.6176,W,31.20,232.50,200310,,*3E
$GPRMC,184345,A,3335.0010,N,11739.6504,W,39.80,233.50,200310,,*38
$GPRMC,184348,A,3334.9864,N,11739.6877,W,42.30,243.10,200310,,*3B
$GPRMC,184351,A,3334.9757,N,11739.7289,W,43.60,249.80,200310,,*31
$GPRMC,184354,A,3334.9655,N,11739.7749,W,45.40,253.90,200310,,*30
$GPRMC,184357,A,3334.9525,N,11739.8117,W,37.90,251.10,200310,,*37
$GPRMC,184400,A,3334.9454,N,11739.8436,W,35.90,254.40,200310,,*31
$GPRMC,184404,A,3334.9372,N,11739.8886,W,29.70,256.60,200310,,*32
$GPRMC,184407,A,3334.9322,N,11739.9071,W,19.90,253.50,200310,,*3E
$GPRMC,184410,A,3334.9278,N,11739.9148,W,8.10,244.50,200310,,*03
$GPRMC,184425,A,3334.9228,N,11739.9293,W,13.30,244.90,200310,,*31
$GPRMC,184428,A,3334.9150,N,11739.9458,W,19.60,244.40,200310,,*33
$GPRMC,184431,A,3334.9043,N,11739.9720,W,28.00,241.50,200310,,*34
$GPRMC,184434,A,3334.8871,N,11739.9961,W,31.60,230.80,200310,,*37
$GPRMC,184437,A,3334.8664,N,11740.0205,W,34.00,228.20,200310,,*30
$GPRMC,184440,A,3334.8525,N,11740.0471,W,33.80,234.10,200310,,*32
$GPRMC,184443,A,3334.8343,N,11740.0730,W,33.10,232.10,200310,,*3E
$GPRMC,184446,A,3334.8208,N,11740.1000,W,30.80,240.30,200310,,*3D
$GPRMC,184449,A,3334.8182,N,11740.1163,W,20.60,253.70,200310,,*3E
$GPRMC,184452,A,3334.8154,N,11740.1331,W,16.20,257.00,200310,,*38
$GPRMC,184455,A,3334.8164,N,11740.1414,W,7.90,267.60,200310,,*02
$GPRMC,184522,A,3334.8157,N,11740.1585,W,12.50,271.40,200310,,*37
$GPRMC,184525,A,3334.8133,N,11740.1757,W,19.00,265.50,200310,,*35
$GPRMC,184528,A,3334.8126,N,11740.1948,W,21.10,268.90,200310,,*37
$GPRMC,184531,A,3334.8120,N,11740.2234,W,27.70,268.70,200310,,*34
$GPRMC,184534,A,3334.8116,N,11740.2525,W,29.00,271.00,200310,,*35
$GPRMC,184537,A,3334.8121,N,11740.2849,W,33.00,270.60,200310,,*39
$GPRMC,184540,A,3334.8127,N,11740.3143,W,27.60,270.50,200310,,*3D
$GPRMC,184543,A,3334.8152,N,11740.3334,W,18.40,276.70,200310,,*34
$GPRMC,184546,A,3334.8177,N,11740.3424,W,12.70,291.90,200310,,*3E
$GPRMC,184549,A,3334.8309,N,11740.3513,W,18.10,330.80,200310,,*38
$GPRMC,184552,A,3334.8469,N,11740.3576,W,19.50,340.30,200310,,*39
$GPRMC,184555,A,3334.8674,N,11740.3633,W,23.50,345.90,200310,,*34
$GPRMC,184558,A,3334.8983,N,11740.3710,W,27.20,358.40,200310,,*3C
$GPRMC,184601,A,3334.9151,N,11740.3594,W,24.30,28.30,200310,,*0A
$GPRMC,184604,A,3334.9155,N,11740.3320,W,23.60,76.60,200310,,*0E
$GPRMC,184607,A,3334.8952,N,11740.3201,W,17.30,142.90,200310,,*3A
$GPRMC,184610,A,3334.8535,N,11740.3200,W,38.50,178.30,200310,,*38
$GPRMC,184613,A,3334.8115,N,11740.3204,W,46.40,179.20,200310,,*31
$GPRMC,184616,A,3334.7812,N,11740.3204,W,51.90,180.10,200310,,*3B
$GPRMC,184619,A,3334.7206,N,11740.3171,W,56.60,178.60,200310,,*32
$GPRMC,184622,A,3334.6719,N,11740.3160,W,56.80,179.10,200310,,*38
$GPRMC,184625,A,3334.6225,N,11740.3173,W,57.90,180.60,200310,,*36
$GPRMC,184628,A,3334.5770,N,11740.3180,W,55.60,178.80,200310,,*35
$GPRMC,184631,A,3334.5312,N,11740.3156,W,55.90,179.50,200310,,*35
$GPRMC,184634,A,3334.4814,N,11740.3161,W,59.00,180.70,200310,,*39
$GPRMC,184637,A,3334.4263,N,11740.3181,W,63.10,180.90,200310,,*38
$GPRMC,184640,A,3334.3748,N,11740.3198,W,62.70,181.20,200310,,*36
$GPRMC,184643,A,3334.3240,N,11740.3208,W,62.00,181.30,200310,,*34
$GPRMC,184646,A,3334.2679,N,11740.3213,W,66.00,180.90,200310,,*3B
$GPRMC,184649,A,3334.2124,N,11740.3216,W,65.50,180.50,200310,,*34
$GPRMC,184652,A,3334.1560,N,11740.3247,W,65.60,182.60,200310,,*3F
$GPRMC,184655,A,3334.1041,N,11740.3258,W,64.10,182.80,200310,,*38
$GPRMC,184658,A,3334.0518,N,11740.3299,W,62.00,184.10,200310,,*38
$GPRMC,184701,A,3334.0013,N,11740.3366,W,60.10,185.30,200310,,*3A
$GPRMC,184704,A,3333.9545,N,11740.3409,W,59.00,185.30,200310,,*32
$GPRMC,184707,A,3333.9061,N,11740.3495,W,59.00,186.80,200310,,*3F
$GPRMC,184710,A,3333.8539,N,11740.3557,W,61.80,185.90,200310,,*3E
$GPRMC,184713,A,3333.8041,N,11740.3620,W,60.00,185.70,200310,,*33
$GPRMC,184716,A,3333.7544,N,11740.3696,W,59.90,186.20,200310,,*31
$GPRMC,184719,A,3333.7115,N,11740.3759,W,55.40,186.20,200310,,*3D
$GPRMC,184722,A,3333.6600,N,11740.3794,W,60.20,183.20,200310,,*33
$GPRMC,184725,A,3333.6107,N,11740.3844,W,58.50,183.00,200310,,*38
$GPRMC,184728,A,3333.5638,N,11740.3893,W,56.60,183.30,200310,,*39
$GPRMC,184731,A,3333.5270,N,11740.3893,W,58.40,179.50,200310,,*36
$GPRMC,184734,A,3333.4697,N,11740.3870,W,56.20,178.40,200310,,*3A
$GPRMC,184737,A,3333.4236,N,11740.3869,W,54.20,179.70,200310,,*3E
$GPRMC,184740,A,3333.3760,N,11740.3866,W,56.80,180.20,200310,,*3B
$GPRMC,184743,A,3333.3255,N,11740.3834,W,58.70,178.30,200310,,*3B
$GPRMC,184746,A,3333.2768,N,11740.3802,W,58.90,178.10,200310,,*3D
$GPRMC,184749,A,3333.2274,N,11740.3790,W,58.90,178.10,200310,,*3E
$GPRMC,184752,A,3333.1771,N,11740.3781,W,60.30,179.00,200310,,*36
$GPRMC,184755,A,3333.1263,N,11740.3760,W,60.20,178.40,200310,,*3C
$GPRMC,184758,A,3333.0719,N,11740.3740,W,64.00,178.90,200310,,*31
$GPRMC,184801,A,3333.0203,N,11740.3749,W,63.30,179.50,200310,,*3C
$GPRMC,184804,A,3332.9658,N,11740.3726,W,65.20,179.00,200310,,*30
$GPRMC,184807,A,3332.9133,N,11740.3777,W,62.90,182.60,200310,,*33
$GPRMC,184810,A,3332.8625,N,11740.3800,W,62.80,183.20,200310,,*3F
$GPRMC,184813,A,3332.8101,N,11740.3871,W,62.20,185.10,200310,,*34
$GPRMC,184816,A,3332.7575,N,11740.3923,W,61.60,186.60,200310,,*3C
$GPRMC,184819,A,3332.7081,N,11740.4030,W,60.40,188.90,200310,,*33
$GPRMC,184822,A,3332.6578,N,11740.4121,W,60.00,189.50,200310,,*31
$GPRMC,184825,A,3332.6067,N,11740.4226,W,62.80,190.70,200310,,*39
$GPRMC,184828,A,3332.5537,N,11740.4338,W,65.80,190.30,200310,,*3A
$GPRMC,184831,A,3332.5001,N,11740.4454,W,66.40,190.20,200310,,*31
$GPRMC,184834,A,3332.4444,N,11740.4580,W,66.90,190.70,200310,,*30
$GPRMC,184837,A,3332.3892,N,11740.4714,W,67.80,191.30,200310,,*39
$GPRMC,184840,A,3332.3328,N,11740.4832,W,69.00,189.80,200310,,*3C
$GPRMC,184843,A,3332.2743,N,11740.4926,W,69.40,188.10,200310,,*3F
$GPRMC,184846,A,3332.2179,N,11740.5023,W,68.40,186.60,200310,,*30
$GPRMC,184849,A,3332.1598,N,11740.5073,W,69.50,183.30,200310,,*32
$GPRMC,184852,A,3332.1000,N,11740.5045,W,69.70,178.80,200310,,*34
$GPRMC,184855,A,3332.0495,N,11740.5037,W,63.80,178.30,200310,,*31
$GPRMC,184858,A,3331.9965,N,11740.5007,W,62.80,175.50,200310,,*3D
$GPRMC,184901,A,3331.9438,N,11740.4936,W,62.00,170.10,200310,,*36
$GPRMC,184904,A,3331.8982,N,11740.4767,W,58.90,160.60,200310,,*32
$GPRMC,184907,A,3331.8711,N,11740.4609,W,55.80,154.70,200310,,*36
$GPRMC,184910,A,3331.8160,N,11740.4190,W,57.80,145.80,200310,,*3A
$GPRMC,184913,A,3331.7827,N,11740.3858,W,53.60,138.50,200310,,*3B
$GPRMC,184916,A,3331.7504,N,11740.3425,W,57.30,131.00,200310,,*39
$GPRMC,184919,A,3331.7207,N,11740.2994,W,56.60,130.50,200310,,*34
$GPRMC,184922,A,3331.6921,N,11740.2571,W,55.40,128.40,200310,,*3C
$GPRMC,184925,A,3331.6577,N,11740.2106,W,60.10,130.70,200310,,*39
$GPRMC,184928,A,3331.6260,N,11740.1678,W,56.30,132.40,200310,,*3E
$GPRMC,184931,A,3331.5882,N,11740.1315,W,56.60,139.60,200310,,*31
$GPRMC,184934,A,3331.5471,N,11740.0984,W,58.50,146.80,200310,,*3C
$GPRMC,184937,A,3331.5039,N,11740.0694,W,60.10,151.40,200310,,*3C
$GPRMC,184940,A,3331.4581,N,11740.0478,W,58.20,159.80,200310,,*37
$GPRMC,184943,A,3331.4126,N,11740.0296,W,57.30,161.20,200310,,*34
$GPRMC,184946,A,3331.3668,N,11740.0089,W,57.80,159.90,200310,,*3C
$GPRMC,184949,A,3331.3216,N,11739.9903,W,58.80,160.50,200310,,*3B
$GPRMC,184952,A,3331.2781,N,11739.9721,W,57.50,161.00,200310,,*33
$GPRMC,184955,A,3331.2300,N,11739.9512,W,61.90,160.10,200310,,*32
$GPRMC,184958,A,3331.1793,N,11739.9269,W,65.10,160.30,200310,,*37
$GPRMC,185001,A,3331.1296,N,11739.9063,W,62.40,160.80,200310,,*32
$GPRMC,185004,A,3331.0819,N,11739.8851,W,58.60,160.20,200310,,*32
$GPRMC,185007,A,3331.0331,N,11739.8645,W,60.80,160.60,200310,,*3A
$GPRMC,185010,A,3330.9867,N,11739.8432,W,59.80,160.10,200310,,*33
$GPRMC,185013,A,3330.9383,N,11739.8246,W,59.90,160.80,200310,,*3C
$GPRMC,185016,A,3330.8920,N,11739.8052,W,60.50,161.20,200310,,*31
$GPRMC,185019,A,3330.8461,N,11739.7850,W,60.50,159.60,200310,,*3C
$GPRMC,185022,A,3330.7982,N,11739.7605,W,62.50,159.00,200310,,*31
$GPRMC,185025,A,3330.7472,N,11739.7405,W,62.60,160.70,200310,,*38
$GPRMC,185028,A,3330.7003,N,11739.7200,W,60.50,159.30,200310,,*3B
$GPRMC,185031,A,3330.6518,N,11739.6992,W,61.90,160.50,200310,,*3D
$GPRMC,185034,A,3330.6012,N,11739.6806,W,63.50,160.50,200310,,*35
$GPRMC,185037,A,3330.5485,N,11739.6572,W,66.50,159.20,200310,,*39
$GPRMC,185040,A,3330.4991,N,11739.6347,W,63.00,158.90,200310,,*3A
$GPRMC,185043,A,3330.4480,N,11739.6140,W,64.50,161.10,200310,,*31
$GPRMC,185046,A,3330.3977,N,11739.5930,W,63.10,160.50,200310,,*3C
$GPRMC,185049,A,3330.3493,N,11739.5714,W,62.10,159.60,200310,,*34
$GPRMC,185052,A,3330.2999,N,11739.5525,W,61.80,161.60,200310,,*39
$GPRMC,185055,A,3330.2502,N,11739.5351,W,61.10,166.10,200310,,*3C
$GPRMC,185058,A,3330.2026,N,11739.5248,W,59.40,169.80,200310,,*33
$GPRMC,185101,A,3330.1543,N,11739.5149,W,58.80,171.00,200310,,*35
$GPRMC,185104,A,3330.1145,N,11739.5105,W,58.50,175.00,200310,,*33
$GPRMC,185107,A,3330.0655,N,11739.5071,W,57.90,177.50,200310,,*31
$GPRMC,185110,A,3330.0170,N,11739.5076,W,58.00,181.60,200310,,*3C
$GPRMC,185113,A,3329.9568,N,11739.5111,W,57.10,182.70,200310,,*3F
$GPRMC,185116,A,3329.9100,N,11739.5190,W,56.80,188.40,200310,,*38
$GPRMC,185119,A,3329.8592,N,11739.5291,W,59.40,190.60,200310,,*33
$GPRMC,185122,A,3329.8134,N,11739.5425,W,57.50,194.20,200310,,*35
$GPRMC,185125,A,3329.7650,N,11739.5589,W,58.80,196.20,200310,,*3F
$GPRMC,185128,A,3329.7144,N,11739.5867,W,62.20,202.80,200310,,*3A
$GPRMC,185131,A,3329.6757,N,11739.5999,W,54.40,201.00,200310,,*3F
$GPRMC,185134,A,3329.6310,N,11739.6276,W,57.80,206.70,200310,,*3B
$GPRMC,185137,A,3329.5911,N,11739.6521,W,55.80,210.80,200310,,*3F
$GPRMC,185140,A,3329.5502,N,11739.6802,W,56.90,211.60,200310,,*30
$GPRMC,185143,A,3329.5105,N,11739.7110,W,58.00,212.80,200310,,*31
$GPRMC,185146,A,3329.4653,N,11739.7454,W,63.30,213.10,200310,,*37
$GPRMC,185149,A,3329.4121,N,11739.7823,W,69.20,210.80,200310,,*37
$GPRMC,185152,A,3329.3667,N,11739.8152,W,66.70,211.60,200310,,*3A
$GPRMC,185155,A,3329.3204,N,11739.8514,W,68.30,211.90,200310,,*3F
$GPRMC,185158,A,3329.2702,N,11739.8880,W,71.40,212.10,200310,,*34
$GPRMC,185201,A,3329.2203,N,11739.9247,W,70.40,212.30,200310,,*3C
$GPRMC,185204,A,3329.1731,N,11739.9594,W,67.20,211.40,200310,,*33
$GPRMC,185207,A,3329.1269,N,11739.9980,W,68.30,214.10,200310,,*3F
$GPRMC,185210,A,3329.0803,N,11740.0364,W,68.00,215.10,200310,,*3B
$GPRMC,185213,A,3329.0288,N,11740.0791,W,70.80,215.10,200310,,*3E
$GPRMC,185216,A,3328.9865,N,11740.1167,W,64.60,216.90,200310,,*34
$GPRMC,185219,A,3328.9417,N,11740.1539,W,62.60,215.60,200310,,*37
$GPRMC,185222,A,3328.9019,N,11740.1894,W,61.20,216.60,200310,,*3B
$GPRMC,185225,A,3328.8572,N,11740.2275,W,64.60,216.00,200310,,*34
$GPRMC,185228,A,3328.8072,N,11740.2696,W,68.90,215.80,200310,,*3D
$GPRMC,185231,A,3328.7659,N,11740.3085,W,66.40,216.60,200310,,*3E
$GPRMC,185234,A,3328.7172,N,11740.3485,W,68.40,215.40,200310,,*3E
$GPRMC,185237,A,3328.6724,N,11740.3866,W,66.00,213.80,200310,,*38
$GPRMC,185240,A,3328.6277,N,11740.4199,W,64.30,210.20,200310,,*3D
$GPRMC,185243,A,3328.5803,N,11740.4508,W,64.60,205.00,200310,,*3B
$GPRMC,185246,A,3328.5217,N,11740.4708,W,68.40,196.30,200310,,*37
$GPRMC,185251,A,3328.4332,N,11740.4894,W,63.60,187.20,200310,,*34
$GPRMC,185254,A,3328.3978,N,11740.4929,W,63.00,183.60,200310,,*33
$GPRMC,185257,A,3328.3312,N,11740.4880,W,62.50,175.70,200310,,*38
$GPRMC,185300,A,3328.2788,N,11740.4764,W,62.80,168.90,200310,,*37
$GPRMC,185303,A,3328.2286,N,11740.4613,W,61.60,162.20,200310,,*32
$GPRMC,185306,A,3328.1811,N,11740.4397,W,62.10,158.50,200310,,*33
$GPRMC,185309,A,3328.1440,N,11740.4077,W,56.40,145.50,200310,,*37
$GPRMC,185312,A,3328.1092,N,11740.3743,W,54.80,139.30,200310,,*32
$GPRMC,185315,A,3328.0809,N,11740.3296,W,57.80,128.80,200310,,*3B
$GPRMC,185318,A,3328.0537,N,11740.2815,W,58.00,122.70,200310,,*34
$GPRMC,185321,A,3328.0309,N,11740.2294,W,57.60,118.10,200310,,*30
$GPRMC,185324,A,3328.0090,N,11740.1767,W,57.90,117.20,200310,,*3F
$GPRMC,185327,A,3327.9856,N,11740.1267,W,58.00,121.10,200310,,*3D
$GPRMC,185330,A,3327.9578,N,11740.0810,W,57.80,125.80,200310,,*3B
$GPRMC,185333,A,3327.9269,N,11740.0305,W,62.20,127.10,200310,,*37
$GPRMC,185336,A,3327.8879,N,11739.9860,W,63.70,132.40,200310,,*32
$GPRMC,185339,A,3327.8541,N,11739.9364,W,63.90,130.20,200310,,*3E
$GPRMC,185342,A,3327.8196,N,11739.8834,W,66.90,129.60,200310,,*3A
$GPRMC,185345,A,3327.7830,N,11739.8401,W,61.80,129.80,200310,,*35
$GPRMC,185348,A,3327.7526,N,11739.7997,W,57.30,132.40,200310,,*37
$GPRMC,185351,A,3327.7193,N,11739.7533,W,59.60,130.50,200310,,*3F
$GPRMC,185354,A,3327.6892,N,11739.7071,W,58.80,128.70,200310,,*34
$GPRMC,185357,A,3327.6603,N,11739.6627,W,55.60,128.20,200310,,*33
$GPRMC,185400,A,3327.6367,N,11739.6171,W,53.50,121.60,200310,,*3D
$GPRMC,185403,A,3327.6154,N,11739.5730,W,48.90,120.70,200310,,*3A
$GPRMC,185407,A,3327.5910,N,11739.5207,W,44.00,119.30,200310,,*3F
$GPRMC,185410,A,3327.5723,N,11739.4863,W,39.70,125.30,200310,,*3C
$GPRMC,185413,A,3327.5519,N,11739.4551,W,38.70,128.70,200310,,*30
$GPRMC,185416,A,3327.5351,N,11739.4326,W,31.90,130.50,200310,,*35
$GPRMC,185419,A,3327.5236,N,11739.4166,W,19.70,130.30,200310,,*3E
$GPRMC,185422,A,3327.5176,N,11739.4123,W,8.40,145.70,200310,,*05
$GPRMC,185452,A,3327.5155,N,11739.4068,W,6.30,141.90,200310,,*0E
$GPRMC,185455,A,3327.5053,N,11739.3876,W,17.30,107.80,200310,,*3D
$GPRMC,185458,A,3327.5135,N,11739.3724,W,15.30,47.60,200310,,*00
$GPRMC,185501,A,3327.5292,N,11739.3598,W,23.40,36.60,200310,,*02
$GPRMC,185504,A,3327.5497,N,11739.3468,W,26.70,35.30,200310,,*0A
$GPRMC,185507,A,3327.5644,N,11739.3291,W,28.10,40.90,200310,,*05
$GPRMC,185510,A,3327.5839,N,11739.3113,W,29.30,44.70,200310,,*07
$GPRMC,185513,A,3327.5985,N,11739.2878,W,29.20,57.70,200310,,*04
$GPRMC,185516,A,3327.6062,N,11739.2606,W,29.10,74.10,200310,,*01
$GPRMC,185519,A,3327.6017,N,11739.2239,W,34.80,96.70,200310,,*0B
$GPRMC,185523,A,3327.5943,N,11739.1799,W,31.20,103.20,200310,,*32
$GPRMC,185526,A,3327.5888,N,11739.1562,W,23.40,105.90,200310,,*3F
$GPRMC,185529,A,3327.5809,N,11739.1351,W,21.80,116.80,200310,,*32
$GPRMC,185532,A,3327.5710,N,11739.1132,W,24.00,119.90,200310,,*3B
$GPRMC,185535,A,3327.5607,N,11739.1011,W,16.90,131.90,200310,,*39
$GPRMC,185538,A,3327.5573,N,11739.0907,W,10.70,126.80,200310,,*34
$GPRMC,185541,A,3327.5504,N,11739.0809,W,10.10,134.20,200310,,*3A
$GPRMC,185556,A,3327.5386,N,11739.0749,W,6.30,142.20,200310,,*0F
$GPRMC,185559,A,3327.5288,N,11739.0652,W,14.60,140.30,200310,,*31
$GPRMC,185602,A,3327.5177,N,11739.0547,W,17.90,145.20,200310,,*30
$GPRMC,185605,A,3327.5007,N,11739.0437,W,23.10,144.50,200310,,*3E
$GPRMC,185608,A,3327.4862,N,11739.0294,W,23.20,139.50,200310,,*3F
$GPRMC,185611,A,3327.4719,N,11739.0115,W,24.10,132.30,200310,,*37
$GPRMC,185614,A,3327.4623,N,11738.9948,W,20.20,126.60,200310,,*35
$GPRMC,185617,A,3327.4544,N,11738.9823,W,16.90,123.20,200310,,*37
$GPRMC,185620,A,3327.4490,N,11738.9664,W,17.30,116.20,200310,,*3B
$GPRMC,185623,A,3327.4407,N,11738.9451,W,21.50,111.70,200310,,*33
$GPRMC,185626,A,3327.4354,N,11738.9219,W,23.40,107.00,200310,,*3E
$GPRMC,185629,A,3327.4305,N,11738.8998,W,25.70,104.90,200310,,*39
$GPRMC,185632,A,3327.4258,N,11738.8750,W,27.30,103.00,200310,,*38
$GPRMC,185635,A,3327.4161,N,11738.8434,W,32.40,107.60,200310,,*36
$GPRMC,185638,A,3327.4086,N,11738.8100,W,33.50,105.10,200310,,*34
$GPRMC,185641,A,3327.4020,N,11738.7776,W,35.60,104.40,200310,,*3F
$GPRMC,185644,A,3327.3989,N,11738.7453,W,33.40,95.40,200310,,*0E
$GPRMC,185647,A,3327.4033,N,11738.7130,W,32.80,81.80,200310,,*06
$GPRMC,185650,A,3327.4144,N,11738.6794,W,34.20,69.30,200310,,*09
$GPRMC,185653,A,3327.4274,N,11738.6524,W,33.00,59.40,200310,,*02
$GPRMC,185656,A,3327.4532,N,11738.6297,W,36.00,37.10,200310,,*05
$GPRMC,185659,A,3327.4798,N,11738.6123,W,35.00,28.70,200310,,*0F
$GPRMC,185702,A,3327.5160,N,11738.6093,W,38.70,5.60,200310,,*3E
$GPRMC,185705,A,3327.5466,N,11738.6072,W,37.60,6.30,200310,,*3D
$GPRMC,185708,A,3327.5817,N,11738.6032,W,39.80,6.70,200310,,*3A
$GPRMC,185711,A,3327.6123,N,11738.5951,W,40.00,12.00,200310,,*04
$GPRMC,185714,A,3327.6438,N,11738.5858,W,40.80,17.50,200310,,*0E
$GPRMC,185717,A,3327.6772,N,11738.5702,W,42.90,23.10,200310,,*00
$GPRMC,185720,A,3327.7094,N,11738.5512,W,43.40,25.00,200310,,*02
$GPRMC,185723,A,3327.7426,N,11738.5350,W,42.10,24.40,200310,,*0D
$GPRMC,185726,A,3327.7735,N,11738.5159,W,42.70,28.90,200310,,*05
$GPRMC,185729,A,3327.8064,N,11738.4924,W,43.70,31.10,200310,,*04
$GPRMC,185732,A,3327.8382,N,11738.4684,W,43.50,32.70,200310,,*07
$GPRMC,185735,A,3327.8634,N,11738.4476,W,38.60,33.10,200310,,*0F
$GPRMC,185738,A,3327.8915,N,11738.4287,W,38.20,32.60,200310,,*04
$GPRMC,185741,A,3327.9187,N,11738.4074,W,38.00,34.50,200310,,*01
$GPRMC,185744,A,3327.9362,N,11738.3839,W,34.50,47.40,200310,,*07
$GPRMC,185747,A,3327.9548,N,11738.3585,W,33.70,48.90,200310,,*07
$GPRMC,185750,A,3327.9716,N,11738.3293,W,36.80,52.60,200310,,*06
$GPRMC,185753,A,3327.9946,N,11738.3019,W,37.10,50.60,200310,,*04
$GPRMC,185756,A,3328.0152,N,11738.2750,W,35.80,48.60,200310,,*03
$GPRMC,185759,A,3328.0294,N,11738.2426,W,37.30,59.80,200310,,*00
$GPRMC,185802,A,3328.0475,N,11738.2060,W,41.60,62.10,200310,,*0B
$GPRMC,185805,A,3328.0625,N,11738.1672,W,41.80,64.20,200310,,*06
$GPRMC,185808,A,3328.0735,N,11738.1332,W,39.50,66.50,200310,,*0D
$GPRMC,185811,A,3328.0899,N,11738.0978,W,39.10,60.90,200310,,*07
$GPRMC,185814,A,3328.1043,N,11738.0688,W,34.00,57.30,200310,,*0E
$GPRMC,185817,A,3328.1178,N,11738.0433,W,29.00,56.00,200310,,*08
$GPRMC,185820,A,3328.1272,N,11738.0222,W,21.90,56.20,200310,,*00
$GPRMC,185823,A,3328.1335,N,11738.0053,W,16.00,68.00,200310,,*07
$GPRMC,185826,A,3328.1281,N,11737.9925,W,15.20,125.20,200310,,*39
$GPRMC,185829,A,3328.1113,N,11737.9777,W,26.10,138.70,200310,,*3D
$GPRMC,185832,A,3328.0891,N,11737.9568,W,35.50,140.70,200310,,*30
$GPRMC,185835,A,3328.0612,N,11737.9309,W,39.30,141.70,200310,,*38
$GPRMC,185838,A,3328.0358,N,11737.9050,W,39.70,141.30,200310,,*31
$GPRMC,185841,A,3328.0109,N,11737.8807,W,38.70,138.80,200310,,*36
$GPRMC,185844,A,3327.9986,N,11737.8560,W,33.40,126.40,200310,,*3D
$GPRMC,185847,A,3327.9832,N,11737.8289,W,32.60,122.00,200310,,*33
$GPRMC,185850,A,3327.9702,N,11737.8023,W,31.40,115.70,200310,,*39
$GPRMC,185853,A,3327.9657,N,11737.7739,W,30.90,103.90,200310,,*3D
$GPRMC,185856,A,3327.9562,N,11737.7410,W,34.00,104.60,200310,,*30
$GPRMC,185859,A,3327.9489,N,11737.7073,W,33.50,104.30,200310,,*3D
$GPRMC,185902,A,3327.9482,N,11737.6902,W,19.90,100.60,200310,,*32
$GPRMC,185906,A,3327.9479,N,11737.6742,W,12.10,104.80,200310,,*31
$GPRMC,185909,A,3327.9498,N,11737.6628,W,9.60,73.10,200310,,*39
$GPRMC,185912,A,3327.9589,N,11737.6587,W,9.70,23.00,200310,,*31
$GPRMC,185915,A,3327.9663,N,11737.6514,W,12.10,36.20,200310,,*01
$GPRMC,185918,A,3327.9746,N,11737.6424,W,13.10,44.40,200310,,*0A
$GPRMC,185921,A,3327.9823,N,11737.6385,W,7.00,350.00,200310,,*06
$GPRMC,185930,A,3327.9817,N,11737.6473,W,7.50,238.30,200310,,*06
$GPRMC,185933,A,3327.9723,N,11737.6526,W,9.90,205.00,200310,,*03
$GPRMC,185936,A,3327.9614,N,11737.6535,W,7.70,188.10,200310,,*06
$GPRMC,185942,A,3327.9559,N,11737.6578,W,7.80,227.10,200310,,*0F
$GPRMC,185945,A,3327.9510,N,11737.6608,W,8.00,178.50,200310,,*0B
$GPRMC,185948,A,3327.9353,N,11737.6438,W,22.60,129.20,200310,,*3B
$GPRMC,185951,A,3327.9172,N,11737.6072,W,38.00,124.20,200310,,*38
$GPRMC,185954,A,3327.8974,N,11737.5806,W,33.40,133.10,200310,,*30
$GPRMC,185957,A,3327.8733,N,11737.5613,W,30.40,146.50,200310,,*31
$GPRMC,190000,A,3327.8587,N,11737.5534,W,21.30,158.60,200310,,*3E
$GPRMC,190003,A,3327.8520,N,11737.5382,W,17.10,121.60,200310,,*32
$GPRMC,190006,A,3327.8553,N,11737.5293,W,9.60,91.30,200310,,*35
$GPRMC,190010,A,3327.8772,N,11737.5178,W,15.80,23.70,200310,,*0B
$GPRMC,190013,A,3327.8935,N,11737.5137,W,18.10,16.30,200310,,*08
$GPRMC,190016,A,3327.9075,N,11737.5095,W,16.60,22.00,200310,,*05
$GPRMC,190019,A,3327.9140,N,11737.4973,W,14.40,50.90,200310,,*01
$GPRMC,190022,A,3327.9203,N,11737.4858,W,14.00,56.60,200310,,*08
