NMEA Sentence Code,UTC Time,Status,Latitude,Latitude Direction,Longitude,Longitude Direction,Speed (knots),Track Angle (degrees true),Date,MagneticVariation,Magnetic Variation Direction,[FAA Mode]-Optional,Checksum
$GPRMC,010258.2,A,3335.565882,N,11742.446570,W,28.8,64.3,100410,,,A*70
$GPRMC,010301.2,A,3335.578412,N,11742.421110,W,30.1,60.0,100410,,,A*70
$GPRMC,010304.2,A,3335.591943,N,11742.394462,W,31.8,58.3,100410,,,A*72
$GPRMC,010307.2,A,3335.606238,N,11742.367538,W,31.9,58.4,100410,,,A*7F
$GPRMC,010310.2,A,3335.620466,N,11742.340135,W,33.0,58.5,100410,,,A*76
$GPRMC,010313.2,A,3335.635749,N,11742.311011,W,35.4,58.6,100410,,,A*7D
$GPRMC,010316.2,A,3335.651135,N,11742.280150,W,35.9,58.7,100410,,,A*76
$GPRMC,010319.2,A,3335.665937,N,11742.251409,W,31.7,58.4,100410,,,A*78
$GPRMC,010322.2,A,3335.679203,N,11742.225544,W,29.3,58.7,100410,,,A*74
$GPRMC,010325.2,A,3335.691999,N,11742.201385,W,28.7,58.4,100410,,,A*76
$GPRMC,010328.2,A,3335.703915,N,11742.177698,W,26.3,57.9,100410,,,A*76
$GPRMC,010331.2,A,3335.715181,N,11742.157826,W,21.6,54.6,100410,,,A*7B
$GPRMC,010334.2,A,3335.723980,N,11742.141140,W,16.9,60.8,100410,,,A*7E
$GPRMC,010337.2,A,3335.728612,N,11742.130671,W,8.2,64.7,100410,,,A*4E
$GPRMC,010358.2,A,3335.732550,N,11742.121011,W,6.0,68.0,100410,,,A*4E
$GPRMC,010401.2,A,3335.735716,N,11742.109636,W,16.1,71.9,100410,,,A*7A
$GPRMC,010404.2,A,3335.740394,N,11742.095409,W,13.4,58.3,100410,,,A*78
$GPRMC,010407.2,A,3335.750540,N,11742.087556,W,16.4,9.4,100410,,,A*4B
$GPRMC,010410.2,A,3335.768201,N,11742.087728,W,25.7,356.0,100410,,,A*41
$GPRMC,010413.2,A,3335.794981,N,11742.088080,W,35.6,2.2,100410,,,A*48
$GPRMC,010416.2,A,3335.829076,N,11742.084949,W,41.8,6.2,100410,,,A*4C
$GPRMC,010419.2,A,3335.866572,N,11742.085126,W,45.6,358.3,100410,,,A*4A
$GPRMC,010422.2,A,3335.905933,N,11742.091084,W,46.7,351.8,100410,,,A*43
$GPRMC,010425.2,A,3335.942983,N,11742.099889,W,43.3,349.5,100410,,,A*44
$GPRMC,010428.2,A,3335.971148,N,11742.105709,W,33.5,352.7,100410,,,A*4C
$GPRMC,010431.2,A,3335.985642,N,11742.110110,W,20.9,352.8,100410,,,A*49
$GPRMC,010434.2,A,3335.990865,N,11742.111997,W,8.8,355.2,100410,,,A*73
$GPRMC,010526.2,A,3335.995879,N,11742.114755,W,8.1,331.8,100410,,,A*7D
$GPRMC,010529.9,A,3336.012336,N,11742.121258,W,14.0,337.7,100410,,,A*47
$GPRMC,010532.9,A,3336.044813,N,11742.134531,W,32.4,336.4,100410,,,A*4C
$GPRMC,010535.9,A,3336.083167,N,11742.143592,W,41.6,343.8,100410,,,A*4B
$GPRMC,010538.9,A,3336.129160,N,11742.153056,W,49.9,346.7,100410,,,A*41
$GPRMC,010541.9,A,3336.174387,N,11742.162510,W,52.6,348.2,100410,,,A*47
$GPRMC,010544.9,A,3336.217802,N,11742.172701,W,48.9,347.2,100410,,,A*4A
$GPRMC,010547.9,A,3336.251483,N,11742.187841,W,42.9,340.2,100410,,,A*42
$GPRMC,010550.9,A,3336.270143,N,11742.202125,W,25.6,328.7,100410,,,A*4E
$GPRMC,010553.9,A,3336.283206,N,11742.204705,W,15.1,351.7,100410,,,A*4B
$GPRMC,010556.9,A,3336.295382,N,11742.192914,W,18.9,41.6,100410,,,A*70
$GPRMC,010559.9,A,3336.311305,N,11742.169427,W,30.5,48.5,100410,,,A*78
$GPRMC,010602.9,A,3336.329319,N,11742.140722,W,37.6,53.3,100410,,,A*76
$GPRMC,010605.9,A,3336.348277,N,11742.107021,W,40.3,61.8,100410,,,A*77
$GPRMC,010608.9,A,3336.360789,N,11742.067685,W,42.5,71.3,100410,,,A*75
$GPRMC,010611.9,A,3336.367585,N,11742.024522,W,44.0,75.5,100410,,,A*7C
$GPRMC,010614.9,A,3336.378927,N,11741.983933,W,42.6,70.4,100410,,,A*7C
$GPRMC,010617.9,A,3336.394291,N,11741.947253,W,41.0,61.7,100410,,,A*78
$GPRMC,010620.9,A,3336.413775,N,11741.913248,W,41.9,52.3,100410,,,A*7D
$GPRMC,010623.9,A,3336.441387,N,11741.882635,W,44.3,40.2,100410,,,A*7A
$GPRMC,010626.0,A,3336.461100,N,11741.867512,W,43.2,32.2,100410,,,A*77
$GPRMC,010629.9,A,3336.507233,N,11741.840272,W,45.3,26.9,100410,,,A*7E
$GPRMC,010632.9,A,3336.543786,N,11741.824067,W,46.5,18.9,100410,,,A*73
$GPRMC,010635.9,A,3336.581869,N,11741.815511,W,48.8,9.7,100410,,,A*4F
$GPRMC,010638.9,A,3336.624900,N,11741.812350,W,51.0,3.8,100410,,,A*41
$GPRMC,010641.9,A,3336.663092,N,11741.809341,W,43.1,5.3,100410,,,A*4B
$GPRMC,010644.9,A,3336.694155,N,11741.802969,W,36.7,10.6,100410,,,A*72
$GPRMC,010647.9,A,3336.708263,N,11741.796694,W,19.8,18.5,100410,,,A*75
$GPRMC,010650.9,A,3336.718112,N,11741.792810,W,12.0,17.0,100410,,,A*78
$GPRMC,010653.9,A,3336.725682,N,11741.788257,W,13.3,27.6,100410,,,A*7E
$GPRMC,010656.9,A,3336.737316,N,11741.778499,W,20.0,35.0,100410,,,A*7D
$GPRMC,010659.9,A,3336.759849,N,11741.763653,W,28.7,33.0,100410,,,A*7C
$GPRMC,010702.9,A,3336.786452,N,11741.746246,W,35.4,30.4,100410,,,A*78
$GPRMC,010705.9,A,3336.814923,N,11741.726724,W,37.7,30.1,100410,,,A*73
$GPRMC,010708.9,A,3336.841887,N,11741.708207,W,37.5,30.0,100410,,,A*7A
$GPRMC,010711.9,A,3336.869501,N,11741.688420,W,37.1,29.4,100410,,,A*79
$GPRMC,010714.9,A,3336.900051,N,11741.669896,W,39.9,29.2,100410,,,A*7C
$GPRMC,010717.9,A,3336.925691,N,11741.653003,W,37.3,27.7,100410,,,A*70
$GPRMC,010720.9,A,3336.949758,N,11741.634605,W,34.4,30.5,100410,,,A*7B
$GPRMC,010723.9,A,3336.972050,N,11741.618541,W,30.3,32.5,100410,,,A*73
$GPRMC,010726.9,A,3336.988054,N,11741.606260,W,22.7,36.7,100410,,,A*7D
$GPRMC,010729.9,A,3337.001578,N,11741.592951,W,21.1,38.1,100410,,,A*7A
$GPRMC,010732.9,A,3337.013806,N,11741.581008,W,19.1,40.7,100410,,,A*72
$GPRMC,010735.9,A,3337.020272,N,11741.570125,W,9.7,44.3,100410,,,A*4B
$GPRMC,010942.9,A,3337.035506,N,11741.569094,W,10.5,339.8,100410,,,A*4E
$GPRMC,010945.9,A,3337.055861,N,11741.582881,W,27.6,332.5,100410,,,A*4B
$GPRMC,010948.9,A,3337.084475,N,11741.608553,W,39.7,325.3,100410,,,A*4E
$GPRMC,010951.9,A,3337.113376,N,11741.633190,W,39.2,323.9,100410,,,A*47
$GPRMC,010954.9,A,3337.133875,N,11741.653981,W,30.7,324.8,100410,,,A*4C
$GPRMC,010957.9,A,3337.146995,N,11741.665157,W,18.6,326.4,100410,,,A*41
$GPRMC,011000.9,A,3337.154618,N,11741.670066,W,8.4,326.4,100410,,,A*76
$GPRMC,011012.9,A,3337.160085,N,11741.672836,W,5.4,310.0,100410,,,A*73
$GPRMC,011015.9,A,3337.172739,N,11741.680380,W,15.3,326.4,100410,,,A*4B
$GPRMC,011018.9,A,3337.189268,N,11741.690917,W,21.4,330.8,100410,,,A*4D
$GPRMC,011021.9,A,3337.214617,N,11741.701710,W,28.9,337.3,100410,,,A*44
$GPRMC,011024.9,A,3337.238924,N,11741.714315,W,32.7,334.8,100410,,,A*48
$GPRMC,011027.9,A,3337.265593,N,11741.728804,W,35.2,334.5,100410,,,A*48
$GPRMC,011030.9,A,3337.295895,N,11741.743919,W,36.5,336.1,100410,,,A*48
$GPRMC,011033.9,A,3337.318554,N,11741.761798,W,32.5,329.7,100410,,,A*44
$GPRMC,011036.9,A,3337.340891,N,11741.776500,W,26.3,328.7,100410,,,A*4F
$GPRMC,011039.9,A,3337.357583,N,11741.789282,W,25.9,325.9,100410,,,A*4F
$GPRMC,011042.9,A,3337.374692,N,11741.805586,W,26.7,321.0,100410,,,A*49
$GPRMC,011045.9,A,3337.390845,N,11741.817020,W,17.7,336.5,100410,,,A*4B
$GPRMC,011048.9,A,3337.401561,N,11741.813355,W,15.5,30.3,100410,,,A*74
$GPRMC,011051.9,A,3337.416912,N,11741.796183,W,28.4,42.6,100410,,,A*76
$GPRMC,011054.9,A,3337.441874,N,11741.768821,W,40.6,40.7,100410,,,A*7F
$GPRMC,011057.9,A,3337.470987,N,11741.740041,W,46.4,41.1,100410,,,A*74
$GPRMC,011100.9,A,3337.501159,N,11741.706493,W,49.0,42.5,100410,,,A*7E
$GPRMC,011103.9,A,3337.532039,N,11741.673297,W,49.2,41.6,100410,,,A*79
$GPRMC,011106.9,A,3337.561836,N,11741.638850,W,49.6,45.2,100410,,,A*77
$GPRMC,011109.9,A,3337.585546,N,11741.603615,W,46.9,48.1,100410,,,A*71
$GPRMC,011112.9,A,3337.611579,N,11741.569736,W,44.6,49.8,100410,,,A*73
$GPRMC,011115.9,A,3337.633093,N,11741.534913,W,42.5,53.1,100410,,,A*73
$GPRMC,011118.9,A,3337.649592,N,11741.506815,W,33.3,52.6,100410,,,A*77
$GPRMC,011121.9,A,3337.663105,N,11741.486046,W,26.7,48.9,100410,,,A*7C
$GPRMC,011124.9,A,3337.678242,N,11741.468553,W,23.5,44.3,100410,,,A*73
$GPRMC,011127.9,A,3337.686093,N,11741.454363,W,16.9,50.7,100410,,,A*7E
$GPRMC,011130.9,A,3337.692035,N,11741.451641,W,6.3,36.7,100410,,,A*4A
$GPRMC,011154.9,A,3337.696491,N,11741.442635,W,10.5,43.1,100410,,,A*72
$GPRMC,011157.9,A,3337.707531,N,11741.430976,W,19.9,44.5,100410,,,A*78
$GPRMC,011200.9,A,3337.724212,N,11741.409730,W,28.8,45.8,100410,,,A*77
$GPRMC,011203.2,A,3337.739265,N,11741.391420,W,35.0,45.6,100410,,,A*7D
$GPRMC,011206.2,A,3337.760588,N,11741.366692,W,37.5,46.1,100410,,,A*70
$GPRMC,011209.2,A,3337.783534,N,11741.338478,W,41.0,45.1,100410,,,A*7F
$GPRMC,011212.2,A,3337.809051,N,11741.308676,W,44.3,44.4,100410,,,A*73
$GPRMC,011215.2,A,3337.836071,N,11741.275982,W,47.9,45.8,100410,,,A*71
$GPRMC,011218.9,A,3337.870343,N,11741.232554,W,48.9,46.8,100410,,,A*7F
$GPRMC,011221.9,A,3337.897646,N,11741.198014,W,47.5,47.2,100410,,,A*76
$GPRMC,011224.9,A,3337.924862,N,11741.171787,W,38.9,40.0,100410,,,A*79
$GPRMC,011227.9,A,3337.936874,N,11741.154622,W,20.2,42.6,100410,,,A*71
$GPRMC,011230.9,A,3337.942248,N,11741.147835,W,8.1,34.6,100410,,,A*43
$GPRMC,011245.9,A,3337.944843,N,11741.140364,W,7.5,44.2,100410,,,A*46
$GPRMC,011248.9,A,3337.953445,N,11741.128634,W,18.7,47.8,100410,,,A*7C
$GPRMC,011251.9,A,3337.968667,N,11741.108478,W,29.5,48.4,100410,,,A*75
$GPRMC,011254.9,A,3337.992151,N,11741.082147,W,38.8,45.6,100410,,,A*7F
$GPRMC,011257.9,A,3338.017629,N,11741.051498,W,43.7,45.8,100410,,,A*7B
$GPRMC,011300.9,A,3338.044615,N,11741.019129,W,44.1,44.8,100410,,,A*72
$GPRMC,011303.9,A,3338.070634,N,11740.987934,W,44.1,45.7,100410,,,A*70
$GPRMC,011306.9,A,3338.095344,N,11740.958128,W,42.8,45.9,100410,,,A*7A
$GPRMC,011309.9,A,3338.120854,N,11740.926307,W,43.6,46.0,100410,,,A*73
$GPRMC,011312.9,A,3338.143755,N,11740.895689,W,40.8,46.3,100410,,,A*76
$GPRMC,011315.9,A,3338.167267,N,11740.866124,W,42.2,45.4,100410,,,A*73
$GPRMC,011318.9,A,3338.190781,N,11740.834933,W,42.4,47.0,100410,,,A*72
$GPRMC,011321.9,A,3338.215612,N,11740.805179,W,44.5,45.6,100410,,,A*7A
$GPRMC,011324.9,A,3338.242760,N,11740.770048,W,47.2,47.1,100410,,,A*76
$GPRMC,011327.9,A,3338.267946,N,11740.736356,W,46.4,52.7,100410,,,A*73
$GPRMC,011330.9,A,3338.287534,N,11740.696293,W,46.7,60.3,100410,,,A*77
$GPRMC,011333.9,A,3338.302587,N,11740.651488,W,46.8,70.0,100410,,,A*7A
$GPRMC,011336.9,A,3338.312395,N,11740.603043,W,48.8,77.5,100410,,,A*73
$GPRMC,011339.9,A,3338.314794,N,11740.555147,W,48.5,86.1,100410,,,A*7D
$GPRMC,011342.2,A,3338.313510,N,11740.516708,W,50.3,90.0,100410,,,A*70
$GPRMC,011345.9,A,3338.313620,N,11740.453382,W,49.3,87.0,100410,,,A*74
$GPRMC,011348.9,A,3338.320426,N,11740.404535,W,49.6,79.4,100410,,,A*75
$GPRMC,011351.9,A,3338.332152,N,11740.361007,W,47.2,71.0,100410,,,A*7E
$GPRMC,011354.9,A,3338.349954,N,11740.318797,W,47.2,61.4,100410,,,A*7C
$GPRMC,011357.9,A,3338.377140,N,11740.279818,W,49.6,50.8,100410,,,A*75
$GPRMC,011400.9,A,3338.407009,N,11740.243840,W,51.3,43.3,100410,,,A*7D
$GPRMC,011403.9,A,3338.443220,N,11740.213001,W,53.0,34.2,100410,,,A*7F
$GPRMC,011406.9,A,3338.481142,N,11740.184894,W,53.2,32.2,100410,,,A*7E
$GPRMC,011410.2,A,3338.520502,N,11740.153089,W,51.8,36.0,100410,,,A*78
$GPRMC,011413.9,A,3338.561280,N,11740.110270,W,51.8,44.5,100410,,,A*7B
$GPRMC,011416.9,A,3338.585978,N,11740.071327,W,50.4,53.6,100410,,,A*75
$GPRMC,011419.9,A,3338.608943,N,11740.027323,W,51.7,56.8,100410,,,A*7A
$GPRMC,011422.9,A,3338.632785,N,11739.982844,W,51.7,55.8,100410,,,A*7E
$GPRMC,011425.9,A,3338.661302,N,11739.940463,W,54.0,49.1,100410,,,A*75
$GPRMC,011428.9,A,3338.693677,N,11739.901075,W,55.0,40.8,100410,,,A*75
$GPRMC,011431.9,A,3338.732814,N,11739.868886,W,56.1,35.0,100410,,,A*7E
$GPRMC,011434.9,A,3338.771051,N,11739.838182,W,53.8,36.0,100410,,,A*72
$GPRMC,011437.9,A,3338.805313,N,11739.804499,W,54.4,40.9,100410,,,A*7B
$GPRMC,011440.9,A,3338.840316,N,11739.769003,W,55.9,41.7,100410,,,A*7F
$GPRMC,011443.9,A,3338.870519,N,11739.730045,W,53.8,45.0,100410,,,A*7C
$GPRMC,011446.9,A,3338.904583,N,11739.691853,W,55.2,41.9,100410,,,A*7C
$GPRMC,011449.9,A,3338.944150,N,11739.659774,W,55.5,31.6,100410,,,A*7C
$GPRMC,011452.9,A,3338.985719,N,11739.636315,W,53.8,22.7,100410,,,A*72
$GPRMC,011455.9,A,3339.030663,N,11739.621635,W,52.9,13.3,100410,,,A*78
$GPRMC,011458.9,A,3339.071454,N,11739.613219,W,50.5,9.2,100410,,,A*49
$GPRMC,011501.9,A,3339.111140,N,11739.606457,W,50.7,10.6,100410,,,A*75
$GPRMC,011504.9,A,3339.151999,N,11739.593924,W,48.8,17.1,100410,,,A*78
$GPRMC,011507.9,A,3339.187681,N,11739.576814,W,45.1,20.6,100410,,,A*78
$GPRMC,011510.9,A,3339.214938,N,11739.565732,W,35.2,18.8,100410,,,A*72
$GPRMC,011513.9,A,3339.237140,N,11739.556201,W,29.4,21.1,100410,,,A*7A
$GPRMC,011516.9,A,3339.256805,N,11739.549120,W,26.7,17.4,100410,,,A*72
$GPRMC,011519.9,A,3339.270501,N,11739.539679,W,23.7,22.7,100410,,,A*7C
$GPRMC,011522.9,A,3339.292471,N,11739.530469,W,29.9,21.2,100410,,,A*76
$GPRMC,011525.9,A,3339.318554,N,11739.517658,W,34.5,24.0,100410,,,A*76
$GPRMC,011528.9,A,3339.347789,N,11739.499743,W,39.2,26.8,100410,,,A*7F
$GPRMC,011531.9,A,3339.384546,N,11739.480426,W,45.0,24.0,100410,,,A*72
$GPRMC,011534.9,A,3339.419517,N,11739.462023,W,45.4,24.0,100410,,,A*79
$GPRMC,011537.9,A,3339.446145,N,11739.441205,W,41.5,32.2,100410,,,A*74
$GPRMC,011540.2,A,3339.468959,N,11739.420684,W,41.8,39.9,100410,,,A*71
$GPRMC,011543.9,A,3339.500304,N,11739.385981,W,41.2,46.2,100410,,,A*7F
$GPRMC,011546.9,A,3339.520169,N,11739.354690,W,39.3,54.9,100410,,,A*74
$GPRMC,011549.9,A,3339.534640,N,11739.319860,W,37.5,62.3,100410,,,A*7D
$GPRMC,011552.9,A,3339.547959,N,11739.286702,W,36.1,66.0,100410,,,A*7A
$GPRMC,011555.9,A,3339.557146,N,11739.254479,W,32.7,68.7,100410,,,A*71
$GPRMC,011558.9,A,3339.566081,N,11739.228746,W,25.9,67.5,100410,,,A*75
$GPRMC,011601.9,A,3339.573477,N,11739.209614,W,19.4,66.2,100410,,,A*72
$GPRMC,011604.9,A,3339.574959,N,11739.200827,W,10.9,74.3,100410,,,A*70
$GPRMC,011607.9,A,3339.574541,N,11739.197520,W,6.3,79.1,100410,,,A*43
$GPRMC,011610.9,A,3339.579360,N,11739.186449,W,14.5,71.0,100410,,,A*7F
$GPRMC,011613.9,A,3339.586679,N,11739.165130,W,21.8,61.9,100410,,,A*74
$GPRMC,011616.9,A,3339.599308,N,11739.153353,W,17.6,33.3,100410,,,A*78
$GPRMC,011619.0,A,3339.606757,N,11739.155702,W,15.6,343.9,100410,,,A*4F
$GPRMC,011622.9,A,3339.638372,N,11739.169132,W,31.6,342.3,100410,,,A*47
$GPRMC,011625.9,A,3339.672659,N,11739.178626,W,40.3,349.4,100410,,,A*4F
$GPRMC,011628.9,A,3339.711467,N,11739.183245,W,45.8,354.4,100410,,,A*4E
$GPRMC,011631.9,A,3339.751294,N,11739.184370,W,48.5,359.4,100410,,,A*45
$GPRMC,011634.9,A,3339.793691,N,11739.179444,W,51.3,6.4,100410,,,A*4A
$GPRMC,011637.9,A,3339.831944,N,11739.172965,W,44.3,10.6,100410,,,A*7D
$GPRMC,011640.9,A,3339.860397,N,11739.163054,W,34.2,16.0,100410,,,A*70
$GPRMC,011643.9,A,3339.878101,N,11739.153732,W,21.8,21.3,100410,,,A*7A
$GPRMC,011646.9,A,3339.884842,N,11739.150618,W,7.8,17.2,100410,,,A*48
$GPRMC,011655.9,A,3339.893061,N,11739.147689,W,14.6,26.3,100410,,,A*74
$GPRMC,011658.9,A,3339.911989,N,11739.135983,W,27.3,25.8,100410,,,A*70
$GPRMC,011701.9,A,3339.941932,N,11739.118304,W,39.7,28.6,100410,,,A*7A
$GPRMC,011704.9,A,3339.973897,N,11739.098108,W,44.0,29.6,100410,,,A*7B
$GPRMC,011707.9,A,3340.005712,N,11739.076549,W,43.0,24.7,100410,,,A*76
$GPRMC,011710.9,A,3340.038716,N,11739.062680,W,40.0,18.5,100410,,,A*77
$GPRMC,011714.2,A,3340.059405,N,11739.057240,W,26.9,14.8,100410,,,A*78
$GPRMC,011802.2,A,3340.076297,N,11739.058635,W,10.3,356.8,100410,,,A*43
$GPRMC,011805.9,A,3340.130700,N,11739.055667,W,39.2,354.6,100410,,,A*4B
$GPRMC,011808.9,A,3340.178100,N,11739.063542,W,47.5,347.8,100410,,,A*4F
$GPRMC,011811.9,A,3340.216840,N,11739.076775,W,43.3,340.2,100410,,,A*4C
$GPRMC,011814.9,A,3340.243377,N,11739.093193,W,37.3,336.5,100410,,,A*46
$GPRMC,011817.9,A,3340.261402,N,11739.106136,W,23.5,329.5,100410,,,A*4F
$GPRMC,011820.9,A,3340.270509,N,11739.113484,W,11.0,329.2,100410,,,A*4A
$GPRMC,011835.9,A,3340.282531,N,11739.124656,W,18.7,318.6,100410,,,A*49
$GPRMC,011838.9,A,3340.296766,N,11739.145249,W,27.6,309.0,100410,,,A*47
$GPRMC,011841.9,A,3340.317878,N,11739.172386,W,37.4,309.9,100410,,,A*4D
$GPRMC,011844.9,A,3340.338718,N,11739.205076,W,41.1,305.7,100410,,,A*45
$GPRMC,011847.2,A,3340.354698,N,11739.230310,W,40.4,309.2,100410,,,A*46
$GPRMC,011850.9,A,3340.377230,N,11739.271609,W,40.1,303.4,100410,,,A*4D
$GPRMC,011853.0,A,3340.385969,N,11739.291949,W,32.9,301.9,100410,,,A*4A
