NMEA Sentence Code,UTC Time,Status,Latitude,Latitude Direction,Longitude,Longitude Direction,Speed (knots),Track Angle (degrees true),Date,MagneticVariation,Magnetic Variation Direction,[FAA Mode]-Optional,Checksum
$GPRMC,063234.3,A,3338.615397,N,11735.879859,W,16.4,275.8,070210,,,A*47
$GPRMC,063237.9,A,3338.617103,N,11735.891481,W,6.6,276.7,070210,,,A*73
$GPRMC,063252.9,A,3338.615495,N,11735.899938,W,11.6,271.6,070210,,,A*4F
$GPRMC,063255.9,A,3338.618657,N,11735.916703,W,20.9,275.6,070210,,,A*40
$GPRMC,063259.3,A,3338.621213,N,11735.947427,W,31.4,274.3,070210,,,A*40
$GPRMC,063302.3,A,3338.622459,N,11735.985314,W,37.8,271.0,070210,,,A*41
$GPRMC,063305.9,A,3338.622513,N,11736.035201,W,43.8,268.3,070210,,,A*4F
$GPRMC,063308.9,A,3338.615071,N,11736.079199,W,45.9,260.8,070210,,,A*49
$GPRMC,063311.9,A,3338.605651,N,11736.124891,W,46.4,255.2,070210,,,A*4E
$GPRMC,063314.9,A,3338.591377,N,11736.169149,W,46.6,248.7,070210,,,A*4A
$GPRMC,063317.9,A,3338.573879,N,11736.210119,W,46.4,242.6,070210,,,A*41
$GPRMC,063320.3,A,3338.557718,N,11736.240172,W,45.9,236.7,070210,,,A*45
$GPRMC,063323.0,A,3338.533594,N,11736.274267,W,46.9,228.3,070210,,,A*49
$GPRMC,063326.9,A,3338.499444,N,11736.318395,W,46.7,224.5,070210,,,A*4B
$GPRMC,063330.3,A,3338.466974,N,11736.347645,W,45.1,214.3,070210,,,A*4A
$GPRMC,063333.3,A,3338.434738,N,11736.371371,W,46.7,213.0,070210,,,A*4E
$GPRMC,063336.3,A,3338.401386,N,11736.396745,W,47.5,213.7,070210,,,A*42
$GPRMC,063339.3,A,3338.368669,N,11736.425730,W,47.6,219.9,070210,,,A*4B
$GPRMC,063342.3,A,3338.339536,N,11736.458648,W,47.1,226.9,070210,,,A*45
$GPRMC,063345.3,A,3338.314226,N,11736.494678,W,47.4,231.9,070210,,,A*4B
$GPRMC,063348.9,A,3338.287228,N,11736.542785,W,47.0,238.3,070210,,,A*47
$GPRMC,063351.3,A,3338.275266,N,11736.575069,W,46.3,244.8,070210,,,A*41
$GPRMC,063354.3,A,3338.260531,N,11736.617916,W,46.4,250.7,070210,,,A*4E
$GPRMC,063357.3,A,3338.250501,N,11736.663842,W,47.8,255.9,070210,,,A*48
$GPRMC,063400.3,A,3338.246451,N,11736.709534,W,47.1,264.1,070210,,,A*4C
$GPRMC,063403.3,A,3338.246518,N,11736.757747,W,47.6,270.2,070210,,,A*4F
$GPRMC,063406.3,A,3338.251018,N,11736.805463,W,48.2,276.8,070210,,,A*43
$GPRMC,063409.9,A,3338.259084,N,11736.864614,W,49.6,279.9,070210,,,A*45
$GPRMC,063412.9,A,3338.266142,N,11736.913554,W,50.5,279.7,070210,,,A*4B
$GPRMC,063416.3,A,3338.272596,N,11736.970377,W,51.4,279.6,070210,,,A*4E
$GPRMC,063419.3,A,3338.279949,N,11737.019190,W,47.8,280.2,070210,,,A*41
$GPRMC,063422.3,A,3338.290525,N,11737.058907,W,39.3,286.8,070210,,,A*45
$GPRMC,063425.3,A,3338.299325,N,11737.091889,W,30.9,290.1,070210,,,A*42
$GPRMC,063428.0,A,3338.307731,N,11737.112432,W,23.9,295.0,070210,,,A*4B
$GPRMC,063431.9,A,3338.313883,N,11737.134631,W,16.6,273.1,070210,,,A*4C
$GPRMC,063434.9,A,3338.305347,N,11737.149603,W,18.4,225.1,070210,,,A*49
$GPRMC,063437.9,A,3338.286051,N,11737.164524,W,27.9,212.0,070210,,,A*49
$GPRMC,063440.9,A,3338.260190,N,11737.183190,W,36.1,212.5,070210,,,A*42
$GPRMC,063443.9,A,3338.231936,N,11737.206762,W,41.9,215.3,070210,,,A*4D
$GPRMC,063446.9,A,3338.195974,N,11737.230395,W,47.5,213.3,070210,,,A*46
$GPRMC,063449.3,A,3338.170888,N,11737.252862,W,48.9,220.4,070210,,,A*49
$GPRMC,063452.9,A,3338.134003,N,11737.293088,W,49.3,222.7,070210,,,A*49
$GPRMC,063455.9,A,3338.104190,N,11737.325102,W,47.1,221.7,070210,,,A*46
$GPRMC,063458.9,A,3338.074726,N,11737.354262,W,45.2,221.5,070210,,,A*46
$GPRMC,063501.9,A,3338.048222,N,11737.383454,W,43.0,223.0,070210,,,A*4F
$GPRMC,063504.9,A,3338.024946,N,11737.412943,W,41.3,224.5,070210,,,A*4E
$GPRMC,063507.3,A,3338.005876,N,11737.436958,W,42.1,227.2,070210,,,A*4F
$GPRMC,063510.9,A,3337.978896,N,11737.479549,W,44.4,235.4,070210,,,A*40
$GPRMC,063513.9,A,3337.959987,N,11737.516645,W,44.9,239.6,070210,,,A*45
$GPRMC,063516.9,A,3337.943128,N,11737.558557,W,46.1,243.1,070210,,,A*4C
$GPRMC,063519.9,A,3337.927046,N,11737.600980,W,47.2,246.0,070210,,,A*46
$GPRMC,063522.3,A,3337.916433,N,11737.635145,W,47.3,249.0,070210,,,A*49
$GPRMC,063526.3,A,3337.898173,N,11737.695754,W,48.2,249.7,070210,,,A*4E
$GPRMC,063529.3,A,3337.885299,N,11737.739503,W,46.7,249.7,070210,,,A*46
$GPRMC,063532.3,A,3337.872385,N,11737.780316,W,42.9,249.1,070210,,,A*44
$GPRMC,063535.3,A,3337.859395,N,11737.819374,W,41.9,249.4,070210,,,A*46
$GPRMC,063539.3,A,3337.844076,N,11737.871854,W,43.3,247.4,070210,,,A*49
$GPRMC,063542.9,A,3337.820489,N,11737.918304,W,42.3,241.0,070210,,,A*4A
$GPRMC,063545.9,A,3337.801732,N,11737.952448,W,39.7,238.7,070210,,,A*4D
$GPRMC,063549.3,A,3337.785685,N,11737.989302,W,37.2,239.8,070210,,,A*4F
$GPRMC,063552.3,A,3337.773261,N,11738.016822,W,28.7,238.6,070210,,,A*4F
$GPRMC,063555.9,A,3337.759784,N,11738.046799,W,28.7,241.0,070210,,,A*46
$GPRMC,063558.3,A,3337.749909,N,11738.069445,W,34.4,240.4,070210,,,A*4F
$GPRMC,063601.3,A,3337.732256,N,11738.104786,W,41.5,241.1,070210,,,A*4C
$GPRMC,063604.3,A,3337.713591,N,11738.144511,W,45.2,240.7,070210,,,A*4A
$GPRMC,063607.3,A,3337.694316,N,11738.185443,W,47.5,240.1,070210,,,A*46
$GPRMC,063610.3,A,3337.674881,N,11738.225598,W,46.6,238.0,070210,,,A*49
$GPRMC,063613.3,A,3337.652839,N,11738.262788,W,45.8,233.2,070210,,,A*49
$GPRMC,063616.9,A,3337.619287,N,11738.304260,W,48.3,225.1,070210,,,A*46
$GPRMC,063620.3,A,3337.587340,N,11738.341307,W,48.4,224.9,070210,,,A*48
$GPRMC,063623.0,A,3337.561787,N,11738.370489,W,46.3,224.1,070210,,,A*4D
$GPRMC,063626.3,A,3337.533069,N,11738.403867,W,42.5,224.5,070210,,,A*42
$GPRMC,063629.9,A,3337.503141,N,11738.442819,W,43.0,229.5,070210,,,A*4A
$GPRMC,063632.3,A,3337.487562,N,11738.470193,W,42.6,235.6,070210,,,A*41
$GPRMC,063635.9,A,3337.467408,N,11738.516873,W,42.8,246.4,070210,,,A*41
$GPRMC,063638.3,A,3337.460002,N,11738.548530,W,43.0,252.5,070210,,,A*43
$GPRMC,063641.0,A,3337.456760,N,11738.587046,W,42.7,262.4,070210,,,A*4B
$GPRMC,063644.9,A,3337.457476,N,11738.643074,W,41.6,273.5,070210,,,A*4B
$GPRMC,063647.0,A,3337.460210,N,11738.670949,W,41.6,279.0,070210,,,A*4B
$GPRMC,063650.9,A,3337.477109,N,11738.720394,W,40.0,292.2,070210,,,A*47
$GPRMC,063653.9,A,3337.495484,N,11738.755197,W,40.0,300.0,070210,,,A*43
$GPRMC,063656.9,A,3337.516797,N,11738.789355,W,41.6,307.2,070210,,,A*42
$GPRMC,063659.9,A,3337.538216,N,11738.822097,W,43.1,308.2,070210,,,A*44
$GPRMC,063702.9,A,3337.562145,N,11738.854751,W,43.2,310.2,070210,,,A*47
$GPRMC,063705.9,A,3337.586452,N,11738.889538,W,44.5,309.6,070210,,,A*48
$GPRMC,063708.9,A,3337.607562,N,11738.923340,W,42.9,309.4,070210,,,A*4D
$GPRMC,063711.9,A,3337.628622,N,11738.955123,W,41.6,308.7,070210,,,A*47
$GPRMC,063714.9,A,3337.646032,N,11738.988740,W,36.9,301.7,070210,,,A*48
$GPRMC,063717.9,A,3337.659206,N,11739.018191,W,31.3,297.1,070210,,,A*4E
$GPRMC,063720.0,A,3337.665513,N,11739.036679,W,29.1,293.6,070210,,,A*4A
$GPRMC,063723.9,A,3337.671655,N,11739.059670,W,15.3,287.7,070210,,,A*4D
$GPRMC,063726.9,A,3337.672120,N,11739.077555,W,20.4,280.0,070210,,,A*47
$GPRMC,063729.3,A,3337.672915,N,11739.097967,W,26.2,276.4,070210,,,A*42
$GPRMC,063732.9,A,3337.673758,N,11739.136990,W,34.5,270.7,070210,,,A*47
$GPRMC,063735.3,A,3337.672761,N,11739.166650,W,38.2,266.4,070210,,,A*48
$GPRMC,063738.9,A,3337.663502,N,11739.216697,W,41.9,256.0,070210,,,A*45
$GPRMC,063741.9,A,3337.648202,N,11739.261283,W,44.7,244.5,070210,,,A*49
$GPRMC,063744.9,A,3337.628605,N,11739.298250,W,42.9,236.3,070210,,,A*4A
$GPRMC,063747.9,A,3337.605934,N,11739.329699,W,40.1,226.9,070210,,,A*40
$GPRMC,063750.3,A,3337.589119,N,11739.348247,W,34.9,221.0,070210,,,A*49
$GPRMC,063754.3,A,3337.554242,N,11739.372940,W,39.4,207.9,070210,,,A*48
$GPRMC,063758.3,A,3337.512035,N,11739.397267,W,43.7,205.7,070210,,,A*43
$GPRMC,063801.9,A,3337.472109,N,11739.425720,W,47.2,212.7,070210,,,A*4C
$GPRMC,063804.3,A,3337.446871,N,11739.447257,W,48.8,218.2,070210,,,A*49
$GPRMC,063807.3,A,3337.414977,N,11739.481108,W,51.0,225.5,070210,,,A*40
$GPRMC,063811.3,A,3337.376949,N,11739.531701,W,48.8,231.4,070210,,,A*48
$GPRMC,063814.9,A,3337.354052,N,11739.576787,W,41.5,237.4,070210,,,A*4B
$GPRMC,063817.9,A,3337.344415,N,11739.602541,W,25.3,242.3,070210,,,A*47
$GPRMC,063820.9,A,3337.340673,N,11739.613343,W,9.2,240.0,070210,,,A*7F
$GPRMC,063829.9,A,3337.342377,N,11739.617202,W,4.8,253.2,070210,,,A*72
$GPRMC,063832.9,A,3337.339592,N,11739.630510,W,17.4,251.5,070210,,,A*43
$GPRMC,063835.9,A,3337.331199,N,11739.655433,W,28.9,251.2,070210,,,A*46
$GPRMC,063838.9,A,3337.320328,N,11739.686082,W,35.8,250.8,070210,,,A*45
$GPRMC,063841.9,A,3337.310660,N,11739.724557,W,43.1,252.7,070210,,,A*40
$GPRMC,063844.9,A,3337.299661,N,11739.768254,W,46.2,251.8,070210,,,A*42
$GPRMC,063848.3,A,3337.284876,N,11739.817114,W,47.7,250.9,070210,,,A*44
$GPRMC,063851.9,A,3337.270452,N,11739.873526,W,47.7,250.9,070210,,,A*40
$GPRMC,063855.3,A,3337.258236,N,11739.922892,W,46.4,255.1,070210,,,A*48
$GPRMC,063858.9,A,3337.246748,N,11739.977914,W,44.9,258.8,070210,,,A*48
$GPRMC,063902.3,A,3337.244089,N,11740.029247,W,46.1,264.6,070210,,,A*4E
$GPRMC,063906.3,A,3337.239990,N,11740.090353,W,46.5,265.6,070210,,,A*42
$GPRMC,063909.9,A,3337.233648,N,11740.146382,W,47.5,263.0,070210,,,A*40
$GPRMC,063912.3,A,3337.231687,N,11740.183257,W,47.7,265.8,070210,,,A*4D
$GPRMC,063915.3,A,3337.228729,N,11740.231505,W,47.9,264.7,070210,,,A*4D
$GPRMC,063918.3,A,3337.225420,N,11740.277588,W,43.9,264.8,070210,,,A*4B
$GPRMC,063921.9,A,3337.218375,N,11740.329300,W,42.5,260.6,070210,,,A*49
$GPRMC,063924.9,A,3337.209825,N,11740.369317,W,42.8,253.7,070210,,,A*4C
$GPRMC,063927.9,A,3337.192387,N,11740.409333,W,44.8,242.0,070210,,,A*4B
$GPRMC,063931.3,A,3337.168184,N,11740.449830,W,43.5,231.1,070210,,,A*41
$GPRMC,063934.3,A,3337.140999,N,11740.481131,W,44.9,219.6,070210,,,A*40
$GPRMC,063937.3,A,3337.110543,N,11740.507301,W,46.1,213.5,070210,,,A*40
$GPRMC,063940.3,A,3337.074028,N,11740.528503,W,48.6,207.7,070210,,,A*4C
$GPRMC,063943.3,A,3337.038310,N,11740.551771,W,49.2,208.6,070210,,,A*4D
$GPRMC,063946.0,A,3337.005984,N,11740.575315,W,49.8,213.4,070210,,,A*40
$GPRMC,063949.9,A,3336.964521,N,11740.614073,W,49.0,221.6,070210,,,A*46
$GPRMC,063953.3,A,3336.935359,N,11740.653459,W,45.9,230.0,070210,,,A*46
$GPRMC,063956.9,A,3336.908756,N,11740.696193,W,42.3,231.7,070210,,,A*4D
$GPRMC,064000.3,A,3336.886706,N,11740.732032,W,38.5,232.1,070210,,,A*43
$GPRMC,064003.9,A,3336.869768,N,11740.762318,W,26.7,231.0,070210,,,A*42
$GPRMC,064006.9,A,3336.861179,N,11740.775927,W,13.5,230.2,070210,,,A*4E
$GPRMC,064010.3,A,3336.856581,N,11740.784333,W,11.7,237.0,070210,,,A*40
$GPRMC,064013.9,A,3336.844036,N,11740.802608,W,23.3,236.7,070210,,,A*4C
$GPRMC,064016.9,A,3336.830130,N,11740.827577,W,32.7,240.6,070210,,,A*45
$GPRMC,064019.9,A,3336.816395,N,11740.860062,W,38.0,240.8,070210,,,A*42
$GPRMC,064022.9,A,3336.799000,N,11740.895961,W,42.3,239.7,070210,,,A*42
$GPRMC,064025.9,A,3336.779194,N,11740.934014,W,44.7,238.1,070210,,,A*43
$GPRMC,064028.9,A,3336.757443,N,11740.971743,W,45.1,231.3,070210,,,A*45
$GPRMC,064031.9,A,3336.730427,N,11741.008139,W,48.4,229.6,070210,,,A*47
$GPRMC,064034.9,A,3336.701286,N,11741.044645,W,48.3,227.4,070210,,,A*42
$GPRMC,064037.9,A,3336.675375,N,11741.079825,W,45.5,228.4,070210,,,A*4C
$GPRMC,064040.9,A,3336.653328,N,11741.110249,W,40.2,227.9,070210,,,A*4E
$GPRMC,064043.9,A,3336.632137,N,11741.137628,W,35.0,227.9,070210,,,A*40
$GPRMC,064046.9,A,3336.614702,N,11741.158503,W,28.3,225.7,070210,,,A*41
$GPRMC,064049.9,A,3336.604025,N,11741.178120,W,19.8,228.6,070210,,,A*4F
$GPRMC,064052.9,A,3336.598205,N,11741.188105,W,10.2,225.0,070210,,,A*43
$GPRMC,064125.9,A,3336.589377,N,11741.202019,W,15.8,234.1,070210,,,A*45
$GPRMC,064128.9,A,3336.575916,N,11741.221020,W,27.5,231.8,070210,,,A*4D
$GPRMC,064131.9,A,3336.556982,N,11741.246399,W,35.2,229.9,070210,,,A*45
$GPRMC,064134.9,A,3336.534413,N,11741.277478,W,41.2,229.1,070210,,,A*40
$GPRMC,064137.9,A,3336.510267,N,11741.307643,W,42.4,227.3,070210,,,A*45
$GPRMC,064140.9,A,3336.483716,N,11741.336700,W,40.8,221.0,070210,,,A*42
$GPRMC,064144.3,A,3336.452951,N,11741.362989,W,39.2,213.4,070210,,,A*42
$GPRMC,064147.0,A,3336.427200,N,11741.380033,W,39.1,205.7,070210,,,A*4C
$GPRMC,064150.3,A,3336.394544,N,11741.395365,W,39.9,199.7,070210,,,A*4B
$GPRMC,064153.0,A,3336.362898,N,11741.406872,W,41.7,193.4,070210,,,A*46
$GPRMC,064156.3,A,3336.325817,N,11741.417020,W,41.9,193.2,070210,,,A*43
$GPRMC,064159.3,A,3336.292806,N,11741.426682,W,41.2,193.4,070210,,,A*40
$GPRMC,064203.3,A,3336.247908,N,11741.441205,W,41.6,193.6,070210,,,A*47
$GPRMC,064206.0,A,3336.217751,N,11741.449923,W,41.4,194.1,070210,,,A*43
$GPRMC,064209.9,A,3336.173020,N,11741.462373,W,42.5,194.2,070210,,,A*42
$GPRMC,064212.9,A,3336.139337,N,11741.472731,W,41.8,194.5,070210,,,A*49
$GPRMC,064215.9,A,3336.106217,N,11741.482581,W,41.9,194.2,070210,,,A*41
$GPRMC,064219.3,A,3336.067096,N,11741.494826,W,43.9,194.2,070210,,,A*4F
$GPRMC,064222.3,A,3336.030282,N,11741.506323,W,45.0,194.5,070210,,,A*4E
$GPRMC,064225.3,A,3335.993117,N,11741.519058,W,45.7,199.2,070210,,,A*49
$GPRMC,064228.9,A,3335.951063,N,11741.541026,W,45.5,208.2,070210,,,A*4F
$GPRMC,064231.9,A,3335.918514,N,11741.565875,W,47.1,213.9,070210,,,A*40
$GPRMC,064234.3,A,3335.893437,N,11741.587328,W,46.9,217.4,070210,,,A*42
$GPRMC,064237.3,A,3335.864777,N,11741.617621,W,46.9,223.1,070210,,,A*4A
$GPRMC,064241.3,A,3335.829143,N,11741.659666,W,44.7,222.7,070210,,,A*41
$GPRMC,064244.9,A,3335.793988,N,11741.697514,W,46.1,223.8,070210,,,A*41
$GPRMC,064247.9,A,3335.767307,N,11741.732265,W,47.5,224.7,070210,,,A*46
$GPRMC,064250.3,A,3335.744163,N,11741.757305,W,47.8,223.8,070210,,,A*4A
$GPRMC,064253.3,A,3335.715377,N,11741.789577,W,47.2,221.7,070210,,,A*4D
$GPRMC,064256.3,A,3335.686113,N,11741.818274,W,44.3,218.1,070210,,,A*4E
$GPRMC,064259.3,A,3335.657874,N,11741.843536,W,41.6,215.9,070210,,,A*4F
$GPRMC,064302.9,A,3335.622836,N,11741.869858,W,40.8,214.0,070210,,,A*44
$GPRMC,064305.9,A,3335.594754,N,11741.891136,W,38.6,212.4,070210,,,A*43
$GPRMC,064308.9,A,3335.569278,N,11741.910730,W,34.5,210.5,070210,,,A*43
$GPRMC,064311.3,A,3335.555378,N,11741.921818,W,24.3,212.2,070210,,,A*4A
$GPRMC,064314.9,A,3335.540380,N,11741.935225,W,16.2,212.7,070210,,,A*42
$GPRMC,064345.3,A,3335.533396,N,11741.938954,W,6.0,223.8,070210,,,A*71
$GPRMC,064349.3,A,3335.511770,N,11741.957188,W,25.8,213.6,070210,,,A*45
$GPRMC,064353.3,A,3335.476253,N,11741.981053,W,37.6,211.1,070210,,,A*4E
$GPRMC,064356.3,A,3335.446241,N,11742.003231,W,42.7,210.7,070210,,,A*49
$GPRMC,064359.3,A,3335.413226,N,11742.027770,W,46.2,210.9,070210,,,A*4E
$GPRMC,064402.3,A,3335.378954,N,11742.051898,W,46.7,210.7,070210,,,A*40
$GPRMC,064405.9,A,3335.338950,N,11742.084068,W,45.9,212.9,070210,,,A*43
$GPRMC,064408.9,A,3335.308320,N,11742.110095,W,45.5,217.6,070210,,,A*48
$GPRMC,064411.9,A,3335.279334,N,11742.140571,W,45.5,223.3,070210,,,A*4A
$GPRMC,064414.9,A,3335.255173,N,11742.172484,W,46.1,229.4,070210,,,A*40
$GPRMC,064417.9,A,3335.229557,N,11742.207904,W,45.3,231.5,070210,,,A*47
$GPRMC,064420.9,A,3335.207286,N,11742.243424,W,44.6,231.2,070210,,,A*48
$GPRMC,064423.9,A,3335.181720,N,11742.278095,W,45.1,228.1,070210,,,A*44
$GPRMC,064427.3,A,3335.150452,N,11742.312410,W,44.2,220.4,070210,,,A*4B
$GPRMC,064430.9,A,3335.113666,N,11742.344411,W,44.2,214.6,070210,,,A*42
$GPRMC,064433.3,A,3335.091126,N,11742.362290,W,42.4,213.0,070210,,,A*49
$GPRMC,064436.9,A,3335.055795,N,11742.389752,W,42.1,213.1,070210,,,A*4A
$GPRMC,064439.3,A,3335.032889,N,11742.404993,W,39.9,211.6,070210,,,A*4C
$GPRMC,064442.9,A,3335.000320,N,11742.428971,W,37.6,211.8,070210,,,A*4E
$GPRMC,064445.9,A,3334.973375,N,11742.450089,W,38.2,212.6,070210,,,A*42
$GPRMC,064448.9,A,3334.945149,N,11742.468616,W,40.0,212.0,070210,,,A*47
$GPRMC,064451.3,A,3334.921794,N,11742.483306,W,40.2,209.1,070210,,,A*49
$GPRMC,064454.9,A,3334.883209,N,11742.502696,W,40.3,204.3,070210,,,A*44
$GPRMC,064457.9,A,3334.858274,N,11742.520567,W,37.1,205.2,070210,,,A*44
$GPRMC,064500.9,A,3334.826760,N,11742.534495,W,39.3,203.5,070210,,,A*4A
$GPRMC,064503.9,A,3334.797225,N,11742.550460,W,39.8,204.6,070210,,,A*4F
$GPRMC,064506.9,A,3334.768107,N,11742.563395,W,38.4,204.4,070210,,,A*4B
$GPRMC,064509.9,A,3334.737740,N,11742.578457,W,39.4,204.2,070210,,,A*4F
$GPRMC,064512.9,A,3334.705606,N,11742.596728,W,40.6,207.2,070210,,,A*43
$GPRMC,064515.9,A,3334.677429,N,11742.617048,W,39.7,210.9,070210,,,A*46
$GPRMC,064518.9,A,3334.649570,N,11742.640768,W,41.1,215.1,070210,,,A*48
$GPRMC,064521.0,A,3334.632283,N,11742.656330,W,39.5,215.4,070210,,,A*4C
$GPRMC,064524.9,A,3334.593071,N,11742.684383,W,40.3,211.1,070210,,,A*49
$GPRMC,064527.9,A,3334.563086,N,11742.702010,W,40.2,206.0,070210,,,A*4D
$GPRMC,064531.3,A,3334.528169,N,11742.718017,W,40.3,199.3,070210,,,A*44
$GPRMC,064534.3,A,3334.495986,N,11742.731048,W,41.5,198.0,070210,,,A*4B
$GPRMC,064537.3,A,3334.462814,N,11742.744243,W,42.0,198.9,070210,,,A*4E
$GPRMC,064540.9,A,3334.423781,N,11742.765584,W,42.6,205.8,070210,,,A*4D
$GPRMC,064543.9,A,3334.393069,N,11742.787600,W,41.7,212.2,070210,,,A*4E
$GPRMC,064546.9,A,3334.363412,N,11742.811265,W,41.5,214.0,070210,,,A*4D
$GPRMC,064549.9,A,3334.337109,N,11742.834270,W,38.7,214.3,070210,,,A*40
$GPRMC,064552.3,A,3334.318318,N,11742.848153,W,32.9,210.0,070210,,,A*45
$GPRMC,064555.9,A,3334.294254,N,11742.862354,W,23.5,204.7,070210,,,A*47
$GPRMC,064558.9,A,3334.287642,N,11742.869840,W,12.7,230.0,070210,,,A*4E
$GPRMC,064601.9,A,3334.290158,N,11742.886252,W,19.3,283.3,070210,,,A*47
$GPRMC,064604.9,A,3334.300626,N,11742.911228,W,30.5,293.9,070210,,,A*40
$GPRMC,064607.9,A,3334.310595,N,11742.944316,W,37.5,289.2,070210,,,A*42
$GPRMC,064610.9,A,3334.320164,N,11742.983353,W,41.7,284.7,070210,,,A*4C
$GPRMC,064613.9,A,3334.325120,N,11743.025699,W,42.5,278.5,070210,,,A*4D
$GPRMC,064616.9,A,3334.328599,N,11743.068243,W,42.5,274.0,070210,,,A*40
$GPRMC,064619.9,A,3334.327644,N,11743.109134,W,41.2,268.2,070210,,,A*4D
$GPRMC,064622.9,A,3334.325103,N,11743.146296,W,38.0,264.6,070210,,,A*47
$GPRMC,064625.9,A,3334.319384,N,11743.180774,W,32.7,258.5,070210,,,A*40
$GPRMC,064628.3,A,3334.315923,N,11743.202636,W,29.6,256.5,070210,,,A*47
$GPRMC,064631.0,A,3334.311298,N,11743.220565,W,17.6,253.2,070210,,,A*49
$GPRMC,064634.9,A,3334.308522,N,11743.233144,W,4.8,251.8,070210,,,A*7A
$GPRMC,064640.9,A,3334.302579,N,11743.243929,W,12.1,243.4,070210,,,A*48
$GPRMC,064643.9,A,3334.297851,N,11743.259328,W,17.4,247.0,070210,,,A*41
$GPRMC,064646.9,A,3334.290855,N,11743.278910,W,20.8,250.3,070210,,,A*48
$GPRMC,064649.9,A,3334.284154,N,11743.301454,W,24.9,248.3,070210,,,A*44
$GPRMC,064652.9,A,3334.276850,N,11743.326473,W,26.0,246.9,070210,,,A*41
$GPRMC,064655.3,A,3334.269421,N,11743.346038,W,27.4,248.5,070210,,,A*42
$GPRMC,064659.3,A,3334.261279,N,11743.373473,W,16.7,250.0,070210,,,A*4D
$GPRMC,064702.0,A,3334.258450,N,11743.385618,W,13.7,255.6,070210,,,A*46
$GPRMC,064705.9,A,3334.269359,N,11743.395021,W,14.0,335.5,070210,,,A*4D
$GPRMC,064708.9,A,3334.292571,N,11743.395734,W,27.2,355.3,070210,,,A*49
$GPRMC,064711.9,A,3334.322718,N,11743.398425,W,36.5,358.2,070210,,,A*43
$GPRMC,064714.9,A,3334.356362,N,11743.398061,W,41.5,359.5,070210,,,A*4E
$GPRMC,064717.9,A,3334.394268,N,11743.400530,W,44.4,359.1,070210,,,A*4F
$GPRMC,064720.9,A,3334.430328,N,11743.399411,W,43.0,0.7,070210,,,A*48
$GPRMC,064723.9,A,3334.467541,N,11743.398542,W,45.9,359.7,070210,,,A*46
$GPRMC,064726.9,A,3334.506898,N,11743.398515,W,45.7,359.3,070210,,,A*44
$GPRMC,064729.9,A,3334.545229,N,11743.399333,W,45.1,0.8,070210,,,A*4D
$GPRMC,064732.9,A,3334.580928,N,11743.396742,W,41.9,4.9,070210,,,A*40
$GPRMC,064735.9,A,3334.613109,N,11743.391399,W,39.8,9.1,070210,,,A*4B
$GPRMC,064738.3,A,3334.637177,N,11743.384692,W,39.2,11.7,070210,,,A*7C
$GPRMC,064741.9,A,3334.676705,N,11743.371995,W,40.1,18.9,070210,,,A*76
$GPRMC,064744.9,A,3334.710757,N,11743.354541,W,44.0,24.9,070210,,,A*7D
$GPRMC,064747.3,A,3334.734235,N,11743.337275,W,43.3,29.6,070210,,,A*70
$GPRMC,064750.9,A,3334.769133,N,11743.310635,W,41.2,36.3,070210,,,A*7C
$GPRMC,064753.9,A,3334.795890,N,11743.285818,W,42.8,37.6,070210,,,A*7D
$GPRMC,064756.9,A,3334.826107,N,11743.258101,W,43.8,37.7,070210,,,A*79
$GPRMC,064759.3,A,3334.847102,N,11743.237383,W,42.7,37.2,070210,,,A*74
$GPRMC,064802.3,A,3334.875252,N,11743.214204,W,40.6,32.1,070210,,,A*78
$GPRMC,064805.3,A,3334.903671,N,11743.196247,W,39.2,25.8,070210,,,A*71
$GPRMC,064808.3,A,3334.933265,N,11743.180978,W,38.6,20.6,070210,,,A*70
$GPRMC,064811.0,A,3334.961130,N,11743.169374,W,38.0,17.6,070210,,,A*7C
$GPRMC,064814.3,A,3334.991382,N,11743.162432,W,32.9,7.2,070210,,,A*46
$GPRMC,064817.3,A,3335.018035,N,11743.160229,W,32.2,3.5,070210,,,A*45
$GPRMC,064820.3,A,3335.041358,N,11743.160160,W,27.4,1.8,070210,,,A*46
$GPRMC,064823.3,A,3335.058113,N,11743.160598,W,16.0,0.5,070210,,,A*49
$GPRMC,064827.3,A,3335.068899,N,11743.151972,W,13.6,73.2,070210,,,A*7F
