NMEA Sentence Code,UTC Time,Status,Latitude,Latitude Direction,Longitude,Longitude Direction,Speed (knots),Track Angle (degrees true),Date,MagneticVariation,Magnetic Variation Direction,[FAA Mode]-Optional,Checksum
$GPRMC,222334.3,A,3241.4876,N,11704.4315,W,6.00,341.50,200510,,*1E
$GPRMC,222337.3,A,3241.4954,N,11704.4348,W,9.40,343.40,200510,,*1C
$GPRMC,222340.3,A,3241.5055,N,11704.4359,W,12.40,354.80,200510,,*25
$GPRMC,222343.3,A,3241.5154,N,11704.4333,W,10.80,21.60,200510,,*1B
$GPRMC,222346.3,A,3241.5203,N,11704.4229,W,9.90,48.20,200510,,*27
$GPRMC,222349.3,A,3241.5222,N,11704.4092,W,11.90,73.20,200510,,*18
$GPRMC,222352.3,A,3241.5237,N,11704.3992,W,8.00,75.80,200510,,*25
$GPRMC,222358.3,A,3241.5298,N,11704.3946,W,5.70,20.20,200510,,*23
$GPRMC,222401.3,A,3241.5362,N,11704.3947,W,6.70,356.40,200510,,*1A
$GPRMC,222404.3,A,3241.5462,N,11704.4003,W,10.00,340.80,200510,,*2D
$GPRMC,222407.3,A,3241.5529,N,11704.4026,W,6.70,341.20,200510,,*1C
$GPRMC,222416.3,A,3241.5648,N,11704.4118,W,8.50,304.70,200510,,*1C
$GPRMC,222419.3,A,3241.5682,N,11704.4211,W,9.40,298.30,200510,,*1F
$GPRMC,222422.3,A,3241.5706,N,11704.4327,W,10.90,286.60,200510,,*21
$GPRMC,222425.3,A,3241.5617,N,11704.4585,W,20.90,262.40,200510,,*22
$GPRMC,222428.3,A,3241.5473,N,11704.4946,W,28.90,253.90,200510,,*2B
$GPRMC,222431.3,A,3241.5406,N,11704.5298,W,31.10,252.70,200510,,*27
$GPRMC,222434.3,A,3241.5317,N,11704.5636,W,34.00,252.00,200510,,*26
$GPRMC,222437.3,A,3241.5204,N,11704.5950,W,32.90,247.80,200510,,*2A
$GPRMC,222440.3,A,3241.5114,N,11704.6240,W,27.10,250.90,200510,,*2A
$GPRMC,222443.3,A,3241.5049,N,11704.6456,W,20.90,250.10,200510,,*26
$GPRMC,222446.3,A,3241.5017,N,11704.6590,W,13.50,251.60,200510,,*29
$GPRMC,222449.3,A,3241.5005,N,11704.6674,W,6.30,249.30,200510,,*12
$GPRMC,222501.3,A,3241.4961,N,11704.6796,W,14.60,249.60,200510,,*2B
$GPRMC,222504.3,A,3241.4901,N,11704.6995,W,21.60,251.00,200510,,*2C
$GPRMC,222507.3,A,3241.4835,N,11704.7236,W,27.10,250.30,200510,,*29
$GPRMC,222510.3,A,3241.4742,N,11704.7530,W,31.80,249.90,200510,,*2D
$GPRMC,222513.3,A,3241.4639,N,11704.7876,W,34.30,251.40,200510,,*26
$GPRMC,222516.3,A,3241.4557,N,11704.8205,W,34.70,251.60,200510,,*2F
$GPRMC,222519.3,A,3241.4462,N,11704.8512,W,33.50,250.20,200510,,*26
$GPRMC,222522.3,A,3241.4364,N,11704.8812,W,34.10,249.10,200510,,*2A
$GPRMC,222525.3,A,3241.4276,N,11704.9141,W,34.90,251.30,200510,,*22
$GPRMC,222528.3,A,3241.4195,N,11704.9490,W,35.40,252.50,200510,,*21
$GPRMC,222531.3,A,3241.4098,N,11704.9825,W,34.70,250.90,200510,,*2B
$GPRMC,222534.3,A,3241.4012,N,11705.0138,W,32.10,251.40,200510,,*2D
$GPRMC,222537.3,A,3241.3953,N,11705.0397,W,28.30,252.60,200510,,*2A
$GPRMC,222540.3,A,3241.3883,N,11705.0615,W,22.80,248.00,200510,,*25
$GPRMC,222543.3,A,3241.3828,N,11705.0760,W,14.50,249.30,200510,,*2E
$GPRMC,222546.3,A,3241.3804,N,11705.0835,W,8.80,246.30,200510,,*15
$GPRMC,222601.3,A,3241.3787,N,11705.0904,W,6.50,243.60,200510,,*11
$GPRMC,222604.3,A,3241.3748,N,11705.1010,W,12.00,228.10,200510,,*20
$GPRMC,222607.3,A,3241.3653,N,11705.1042,W,11.70,177.30,200510,,*20
$GPRMC,222610.3,A,3241.3535,N,11705.0996,W,15.30,160.20,200510,,*23
$GPRMC,222613.3,A,3241.3365,N,11705.0920,W,21.90,158.00,200510,,*2A
$GPRMC,222616.3,A,3241.3152,N,11705.0829,W,25.80,157.70,200510,,*2C
$GPRMC,222619.3,A,3241.2903,N,11705.0726,W,29.10,159.00,200510,,*22
$GPRMC,222622.3,A,3241.2648,N,11705.0620,W,30.40,158.10,200510,,*20
$GPRMC,222625.3,A,3241.2406,N,11705.0503,W,30.30,159.50,200510,,*2F
$GPRMC,222628.3,A,3241.2167,N,11705.0409,W,29.00,162.50,200510,,*28
$GPRMC,222631.3,A,3241.1953,N,11705.0323,W,26.40,161.50,200510,,*2B
$GPRMC,222634.3,A,3241.1777,N,11705.0247,W,25.40,160.80,200510,,*2A
$GPRMC,222637.3,A,3241.1557,N,11705.0172,W,25.10,161.60,200510,,*26
$GPRMC,222640.3,A,3241.1384,N,11705.0105,W,21.60,164.10,200510,,*2F
$GPRMC,222643.3,A,3241.1285,N,11705.0084,W,15.60,168.60,200510,,*28
$GPRMC,222646.3,A,3241.1218,N,11705.0071,W,12.10,168.40,200510,,*21
$GPRMC,222649.3,A,3241.1160,N,11705.0039,W,9.40,164.00,200510,,*19
$GPRMC,222652.3,A,3241.1062,N,11704.9998,W,12.50,155.40,200510,,*27
$GPRMC,222655.3,A,3241.0924,N,11704.9932,W,16.20,155.20,200510,,*2F
$GPRMC,222658.3,A,3241.0719,N,11704.9871,W,22.40,158.90,200510,,*23
$GPRMC,222701.3,A,3241.0497,N,11704.9802,W,25.30,163.10,200510,,*2F
$GPRMC,222704.3,A,3241.0194,N,11704.9697,W,30.70,165.80,200510,,*21
$GPRMC,222707.3,A,3240.9967,N,11704.9603,W,29.80,164.20,200510,,*2F
$GPRMC,222710.3,A,3240.9740,N,11704.9548,W,27.00,164.50,200510,,*2F
$GPRMC,222713.3,A,3240.9549,N,11704.9469,W,24.90,162.80,200510,,*24
$GPRMC,222716.3,A,3240.9386,N,11704.9392,W,23.00,161.60,200510,,*24
$GPRMC,222719.3,A,3240.9239,N,11704.9328,W,19.30,159.30,200510,,*2B
$GPRMC,222722.3,A,3240.9094,N,11704.9229,W,20.60,149.70,200510,,*2C
$GPRMC,222725.3,A,3240.8964,N,11704.9102,W,23.80,139.40,200510,,*2F
$GPRMC,222728.3,A,3240.8844,N,11704.8892,W,25.70,126.10,200510,,*22
$GPRMC,222731.3,A,3240.8729,N,11704.8678,W,26.60,125.70,200510,,*23
$GPRMC,222734.3,A,3240.8569,N,11704.8465,W,26.50,134.40,200510,,*2E
$GPRMC,222737.3,A,3240.8439,N,11704.8345,W,17.90,150.20,200510,,*26
$GPRMC,222740.3,A,3240.8375,N,11704.8292,W,7.80,147.50,200510,,*13
$GPRMC,222831.3,A,3240.8341,N,11704.8271,W,5.10,155.80,200510,,*15
$GPRMC,222834.3,A,3240.8281,N,11704.8247,W,7.30,156.90,200510,,*1A
$GPRMC,222837.3,A,3240.8204,N,11704.8214,W,9.20,156.20,200510,,*16
$GPRMC,222840.3,A,3240.8160,N,11704.8195,W,6.20,162.90,200510,,*1E
$GPRMC,222846.3,A,3240.8081,N,11704.8149,W,5.90,160.10,200510,,*15
$GPRMC,222849.3,A,3240.8002,N,11704.8113,W,9.50,157.20,200510,,*19
$GPRMC,222852.3,A,3240.7887,N,11704.8033,W,15.10,150.00,200510,,*26
$GPRMC,222855.3,A,3240.7692,N,11704.7955,W,21.90,155.80,200510,,*2F
$GPRMC,222858.3,A,3240.7463,N,11704.7871,W,26.00,159.40,200510,,*27
$GPRMC,222901.3,A,3240.7240,N,11704.7798,W,25.50,165.70,200510,,*2F
$GPRMC,222904.3,A,3240.6973,N,11704.7809,W,28.00,185.40,200510,,*22
$GPRMC,222907.3,A,3240.6727,N,11704.7897,W,29.30,198.00,200510,,*23
$GPRMC,222910.3,A,3240.6495,N,11704.7958,W,28.30,193.60,200510,,*21
$GPRMC,222913.3,A,3240.6266,N,11704.7974,W,27.00,181.60,200510,,*29
$GPRMC,222916.3,A,3240.6045,N,11704.7959,W,26.50,179.30,200510,,*26
$GPRMC,222919.3,A,3240.5820,N,11704.7908,W,25.60,168.40,200510,,*22
$GPRMC,222922.3,A,3240.5623,N,11704.7793,W,25.80,160.80,200510,,*21
$GPRMC,222925.3,A,3240.5404,N,11704.7699,W,26.80,161.30,200510,,*23
$GPRMC,222928.3,A,3240.5185,N,11704.7625,W,27.40,163.40,200510,,*2D
$GPRMC,222931.3,A,3240.4939,N,11704.7554,W,27.30,165.90,200510,,*22
$GPRMC,222934.3,A,3240.4685,N,11704.7504,W,28.10,168.00,200510,,*23
$GPRMC,222937.3,A,3240.4456,N,11704.7424,W,27.60,163.40,200510,,*28
$GPRMC,222941.3,A,3240.4168,N,11704.7321,W,29.00,162.60,200510,,*28
$GPRMC,222944.3,A,3240.3923,N,11704.7243,W,28.80,165.20,200510,,*22
$GPRMC,222947.3,A,3240.3737,N,11704.7177,W,23.00,164.10,200510,,*2F
$GPRMC,222950.3,A,3240.3613,N,11704.7128,W,15.90,165.30,200510,,*2B
$GPRMC,222953.3,A,3240.3500,N,11704.7101,W,12.70,159.90,200510,,*2E
$GPRMC,222956.3,A,3240.3376,N,11704.7054,W,16.50,158.50,200510,,*26
$GPRMC,222959.3,A,3240.3198,N,11704.6989,W,21.10,159.00,200510,,*27
$GPRMC,223002.3,A,3240.3000,N,11704.6901,W,26.30,158.80,200510,,*2D
$GPRMC,223005.3,A,3240.2766,N,11704.6810,W,29.10,160.80,200510,,*2B
$GPRMC,223008.3,A,3240.2540,N,11704.6704,W,29.60,161.60,200510,,*22
$GPRMC,223011.3,A,3240.2293,N,11704.6591,W,31.30,160.40,200510,,*22
$GPRMC,223014.3,A,3240.2028,N,11704.6479,W,32.70,161.30,200510,,*23
$GPRMC,223017.3,A,3240.1762,N,11704.6379,W,31.80,161.80,200510,,*2A
$GPRMC,223020.3,A,3240.1524,N,11704.6268,W,31.70,162.10,200510,,*2A
$GPRMC,223023.3,A,3240.1277,N,11704.6169,W,32.20,160.50,200510,,*2A
$GPRMC,223026.3,A,3240.0990,N,11704.6083,W,33.80,162.60,200510,,*23
$GPRMC,223029.3,A,3240.0718,N,11704.5970,W,34.70,161.10,200510,,*28
$GPRMC,223032.3,A,3240.0447,N,11704.5851,W,33.30,160.50,200510,,*2F
$GPRMC,223035.3,A,3240.0184,N,11704.5746,W,33.50,160.90,200510,,*21
$GPRMC,223038.3,A,3239.9903,N,11704.5649,W,32.30,162.10,200510,,*2F
$GPRMC,223041.3,A,3239.9634,N,11704.5565,W,33.30,167.30,200510,,*21
$GPRMC,223044.3,A,3239.9354,N,11704.5550,W,35.20,181.10,200510,,*2C
$GPRMC,223047.3,A,3239.9072,N,11704.5675,W,35.50,201.60,200510,,*27
$GPRMC,223050.3,A,3239.8785,N,11704.5878,W,39.70,212.70,200510,,*21
$GPRMC,223053.3,A,3239.8519,N,11704.6098,W,39.90,214.60,200510,,*29
$GPRMC,223056.3,A,3239.8267,N,11704.6331,W,39.10,216.70,200510,,*29
$GPRMC,223059.3,A,3239.8008,N,11704.6564,W,38.40,215.30,200510,,*28
$GPRMC,223102.3,A,3239.7757,N,11704.6771,W,35.90,215.30,200510,,*23
$GPRMC,223105.3,A,3239.7526,N,11704.6963,W,33.90,214.50,200510,,*2C
$GPRMC,223108.3,A,3239.7310,N,11704.7141,W,32.70,215.10,200510,,*21
$GPRMC,223111.3,A,3239.7082,N,11704.7238,W,30.20,207.60,200510,,*2F
$GPRMC,223114.3,A,3239.6937,N,11704.7249,W,20.10,197.30,200510,,*27
$GPRMC,223117.3,A,3239.6797,N,11704.7243,W,16.60,197.40,200510,,*2F
$GPRMC,223138.3,A,3239.6852,N,11704.7387,W,11.60,271.30,200510,,*26
$GPRMC,223141.3,A,3239.6873,N,11704.7523,W,14.80,282.00,200510,,*27
$GPRMC,223144.3,A,3239.6899,N,11704.7687,W,15.50,280.20,200510,,*27
$GPRMC,223147.3,A,3239.6928,N,11704.7812,W,11.10,281.30,200510,,*2D
$GPRMC,223150.3,A,3239.6930,N,11704.7875,W,5.50,278.30,200510,,*14
$GPRMC,223208.3,A,3239.6928,N,11704.7943,W,8.70,279.60,200510,,*1C
$GPRMC,223211.3,A,3239.6956,N,11704.8074,W,13.00,282.00,200510,,*20
$GPRMC,223214.3,A,3239.6979,N,11704.8238,W,17.50,280.70,200510,,*26
$GPRMC,223217.3,A,3239.7017,N,11704.8432,W,20.50,278.50,200510,,*28
$GPRMC,223220.3,A,3239.7023,N,11704.8637,W,20.20,272.70,200510,,*23
$GPRMC,223223.3,A,3239.7021,N,11704.8839,W,19.60,268.00,200510,,*20
$GPRMC,223226.3,A,3239.6984,N,11704.9078,W,23.50,261.20,200510,,*2F
$GPRMC,223229.3,A,3239.6932,N,11704.9346,W,26.70,259.00,200510,,*2D
$GPRMC,223232.3,A,3239.6878,N,11704.9636,W,29.50,257.80,200510,,*21
$GPRMC,223235.3,A,3239.6835,N,11704.9908,W,29.50,258.50,200510,,*2F
$GPRMC,223238.3,A,3239.6773,N,11705.0219,W,31.40,258.40,200510,,*25
$GPRMC,223241.3,A,3239.6700,N,11705.0551,W,32.90,257.40,200510,,*25
$GPRMC,223244.3,A,3239.6643,N,11705.0870,W,31.70,254.10,200510,,*23
$GPRMC,223247.3,A,3239.6572,N,11705.1153,W,31.00,253.40,200510,,*2D
$GPRMC,223250.3,A,3239.6495,N,11705.1445,W,31.90,251.60,200510,,*28
$GPRMC,223253.3,A,3239.6403,N,11705.1761,W,32.60,251.40,200510,,*2F
$GPRMC,223256.3,A,3239.6307,N,11705.2073,W,33.40,251.00,200510,,*29
$GPRMC,223259.3,A,3239.6207,N,11705.2399,W,34.40,250.20,200510,,*24
$GPRMC,223302.3,A,3239.6137,N,11705.2721,W,34.20,253.00,200510,,*2B
$GPRMC,223305.3,A,3239.6031,N,11705.3054,W,35.00,250.70,200510,,*28
$GPRMC,223308.3,A,3239.5941,N,11705.3402,W,35.70,252.00,200510,,*2D
$GPRMC,223311.3,A,3239.5844,N,11705.3747,W,36.90,247.70,200510,,*2D
$GPRMC,223314.3,A,3239.5784,N,11705.4056,W,31.30,251.40,200510,,*22
$GPRMC,223317.3,A,3239.5738,N,11705.4284,W,24.40,252.90,200510,,*26
$GPRMC,223320.3,A,3239.5689,N,11705.4446,W,15.40,253.40,200510,,*2F
$GPRMC,223323.3,A,3239.5665,N,11705.4510,W,6.80,250.40,200510,,*11
$GPRMC,223332.3,A,3239.5645,N,11705.4555,W,5.60,254.30,200510,,*1C
$GPRMC,223335.3,A,3239.5626,N,11705.4628,W,9.50,251.20,200510,,*1C
$GPRMC,223338.3,A,3239.5583,N,11705.4749,W,13.60,250.10,200510,,*21
$GPRMC,223341.3,A,3239.5542,N,11705.4905,W,16.80,253.60,200510,,*2B
$GPRMC,223344.3,A,3239.5485,N,11705.5087,W,20.40,253.20,200510,,*2B
$GPRMC,223347.3,A,3239.5416,N,11705.5350,W,26.30,250.80,200510,,*23
$GPRMC,223350.3,A,3239.5337,N,11705.5617,W,27.70,251.60,200510,,*2D
$GPRMC,223353.3,A,3239.5258,N,11705.5908,W,29.90,252.10,200510,,*23
$GPRMC,223356.3,A,3239.5172,N,11705.6199,W,30.90,251.10,200510,,*25
$GPRMC,223359.3,A,3239.5072,N,11705.6507,W,31.30,250.90,200510,,*2A
$GPRMC,223402.3,A,3239.5014,N,11705.6785,W,28.60,252.70,200510,,*2A
$GPRMC,223405.3,A,3239.4930,N,11705.7018,W,23.40,249.50,200510,,*20
$GPRMC,223408.3,A,3239.4912,N,11705.7143,W,10.50,250.30,200510,,*2D
$GPRMC,223426.3,A,3239.4893,N,11705.7202,W,5.30,261.70,200510,,*1B
$GPRMC,223429.3,A,3239.4872,N,11705.7318,W,12.60,260.00,200510,,*24
$GPRMC,223432.3,A,3239.4814,N,11705.7531,W,22.40,252.00,200510,,*23
$GPRMC,223435.3,A,3239.4744,N,11705.7783,W,26.70,252.60,200510,,*24
$GPRMC,223438.3,A,3239.4659,N,11705.8068,W,30.10,252.80,200510,,*26
$GPRMC,223441.3,A,3239.4587,N,11705.8371,W,30.80,253.90,200510,,*2A
$GPRMC,223444.3,A,3239.4513,N,11705.8680,W,32.00,255.50,200510,,*29
$GPRMC,223447.3,A,3239.4462,N,11705.8972,W,29.30,257.70,200510,,*26
$GPRMC,223450.3,A,3239.4425,N,11705.9243,W,26.80,259.00,200510,,*26
