NMEA Sentence Code,UTC Time,Status,Latitude,Latitude Direction,Longitude,Longitude Direction,Speed (knots),Track Angle (degrees true),Date,MagneticVariation,Magnetic Variation Direction,[FAA Mode]-Optional,Checksum
$GPRMC,161641.9,A,3257.474925,N,11709.159053,W,20.5,107.2,080510,,,A*40
$GPRMC,161644.9,A,3257.467334,N,11709.134635,W,27.9,119.0,080510,,,A*46
$GPRMC,161647.9,A,3257.452309,N,11709.111538,W,27.7,129.6,080510,,,A*4F
$GPRMC,161650.9,A,3257.437292,N,11709.089465,W,28.0,130.6,080510,,,A*40
$GPRMC,161653.9,A,3257.414431,N,11709.068311,W,30.3,140.2,080510,,,A*4F
$GPRMC,161656.9,A,3257.396000,N,11709.045978,W,32.0,131.8,080510,,,A*46
$GPRMC,161659.9,A,3257.377363,N,11709.014396,W,37.3,126.9,080510,,,A*4F
$GPRMC,161702.9,A,3257.358586,N,11708.979269,W,42.2,124.3,080510,,,A*49
$GPRMC,161705.9,A,3257.336059,N,11708.942945,W,45.7,125.9,080510,,,A*45
$GPRMC,161708.9,A,3257.314113,N,11708.901241,W,51.0,121.5,080510,,,A*45
$GPRMC,161711.9,A,3257.291598,N,11708.854793,W,52.1,119.6,080510,,,A*47
$GPRMC,161715.3,A,3257.269971,N,11708.806987,W,51.6,116.6,080510,,,A*42
$GPRMC,161718.9,A,3257.249693,N,11708.747088,W,53.8,111.6,080510,,,A*43
$GPRMC,161721.9,A,3257.234488,N,11708.696514,W,56.2,108.4,080510,,,A*43
$GPRMC,161724.9,A,3257.219510,N,11708.642026,W,57.9,105.8,080510,,,A*4F
$GPRMC,161727.9,A,3257.206200,N,11708.584225,W,60.6,103.6,080510,,,A*4F
$GPRMC,161730.9,A,3257.198994,N,11708.523609,W,61.4,97.1,080510,,,A*74
$GPRMC,161733.9,A,3257.197675,N,11708.462825,W,61.8,92.9,080510,,,A*7D
$GPRMC,161736.9,A,3257.196548,N,11708.398851,W,63.6,92.2,080510,,,A*72
$GPRMC,161739.9,A,3257.193954,N,11708.334695,W,64.7,92.1,080510,,,A*7C
$GPRMC,161742.9,A,3257.193566,N,11708.268890,W,64.6,90.1,080510,,,A*7D
$GPRMC,161745.9,A,3257.195131,N,11708.202682,W,66.8,89.0,080510,,,A*7E
$GPRMC,161748.9,A,3257.199830,N,11708.135812,W,66.9,86.8,080510,,,A*71
$GPRMC,161751.9,A,3257.199042,N,11708.072097,W,65.0,87.3,080510,,,A*73
$GPRMC,161754.9,A,3257.201315,N,11708.005422,W,67.4,85.2,080510,,,A*7A
$GPRMC,161757.9,A,3257.210334,N,11707.938030,W,67.9,82.2,080510,,,A*7F
$GPRMC,161800.9,A,3257.216178,N,11707.868921,W,69.1,82.7,080510,,,A*70
$GPRMC,161803.9,A,3257.224565,N,11707.801840,W,68.3,81.9,080510,,,A*7D
$GPRMC,161806.2,A,3257.231281,N,11707.753480,W,62.4,81.1,080510,,,A*77
$GPRMC,161809.9,A,3257.242654,N,11707.674827,W,66.2,79.6,080510,,,A*7C
$GPRMC,161812.9,A,3257.258451,N,11707.607618,W,68.1,76.6,080510,,,A*7E
$GPRMC,161815.9,A,3257.269726,N,11707.541459,W,68.8,76.9,080510,,,A*78
$GPRMC,161818.9,A,3257.282737,N,11707.475095,W,69.7,75.5,080510,,,A*73
$GPRMC,161821.9,A,3257.300061,N,11707.407875,W,70.7,72.8,080510,,,A*77
$GPRMC,161824.9,A,3257.322167,N,11707.341460,W,71.2,69.5,080510,,,A*7B
$GPRMC,161827.9,A,3257.343483,N,11707.276650,W,69.8,69.3,080510,,,A*71
$GPRMC,161830.9,A,3257.361306,N,11707.209545,W,68.7,71.2,080510,,,A*74
$GPRMC,161833.9,A,3257.385172,N,11707.150005,W,65.1,68.2,080510,,,A*71
$GPRMC,161836.9,A,3257.407932,N,11707.092491,W,64.9,67.3,080510,,,A*74
$GPRMC,161839.9,A,3257.427872,N,11707.032839,W,66.0,67.8,080510,,,A*78
$GPRMC,161842.9,A,3257.448317,N,11706.971854,W,65.5,68.3,080510,,,A*73
$GPRMC,161845.9,A,3257.467394,N,11706.910420,W,65.2,68.7,080510,,,A*79
$GPRMC,161848.9,A,3257.488597,N,11706.851394,W,64.8,68.0,080510,,,A*70
$GPRMC,161851.9,A,3257.506092,N,11706.795745,W,56.8,68.4,080510,,,A*75
$GPRMC,161854.9,A,3257.522329,N,11706.750418,W,50.1,67.5,080510,,,A*76
$GPRMC,161857.9,A,3257.539984,N,11706.707938,W,46.5,66.4,080510,,,A*7C
$GPRMC,161900.9,A,3257.554281,N,11706.668856,W,43.1,66.3,080510,,,A*7D
$GPRMC,161903.9,A,3257.565036,N,11706.626296,W,43.7,68.2,080510,,,A*77
$GPRMC,161906.9,A,3257.578680,N,11706.586754,W,43.0,67.7,080510,,,A*7A
$GPRMC,161909.9,A,3257.591189,N,11706.547674,W,42.5,68.5,080510,,,A*7B
$GPRMC,161912.9,A,3257.602047,N,11706.507066,W,41.8,69.3,080510,,,A*73
$GPRMC,161915.9,A,3257.617506,N,11706.466597,W,46.1,65.6,080510,,,A*7A
$GPRMC,161918.9,A,3257.633877,N,11706.421729,W,50.8,67.0,080510,,,A*74
$GPRMC,161921.9,A,3257.650371,N,11706.372337,W,54.7,70.1,080510,,,A*70
$GPRMC,161924.9,A,3257.668729,N,11706.318751,W,58.7,68.6,080510,,,A*7D
$GPRMC,161927.9,A,3257.685618,N,11706.264120,W,59.6,69.4,080510,,,A*77
$GPRMC,161930.9,A,3257.697726,N,11706.202396,W,60.8,72.6,080510,,,A*7D
$GPRMC,161933.9,A,3257.720398,N,11706.150256,W,60.8,68.4,080510,,,A*72
$GPRMC,161936.9,A,3257.739499,N,11706.093932,W,61.6,67.6,080510,,,A*7C
$GPRMC,161939.9,A,3257.762505,N,11706.039693,W,63.6,63.4,080510,,,A*79
$GPRMC,161942.9,A,3257.788904,N,11705.983439,W,65.3,62.0,080510,,,A*73
$GPRMC,161945.9,A,3257.814673,N,11705.926679,W,64.2,63.7,080510,,,A*7E
$GPRMC,161948.9,A,3257.836295,N,11705.871490,W,59.8,66.1,080510,,,A*7E
$GPRMC,161951.9,A,3257.851731,N,11705.825740,W,42.8,68.9,080510,,,A*7F
$GPRMC,161954.9,A,3257.860927,N,11705.796457,W,32.5,69.3,080510,,,A*72
$GPRMC,161957.9,A,3257.845948,N,11705.792505,W,10.8,136.4,080510,,,A*4C
$GPRMC,162000.9,A,3257.819825,N,11705.805547,W,27.0,199.9,080510,,,A*44
$GPRMC,162003.9,A,3257.791382,N,11705.820445,W,35.8,203.4,080510,,,A*4C
$GPRMC,162006.9,A,3257.755487,N,11705.841292,W,45.7,207.5,080510,,,A*45
$GPRMC,162009.9,A,3257.717895,N,11705.867515,W,50.9,210.6,080510,,,A*40
$GPRMC,162012.9,A,3257.681747,N,11705.894183,W,53.7,211.8,080510,,,A*41
$GPRMC,162015.9,A,3257.640873,N,11705.921009,W,55.9,211.9,080510,,,A*46
$GPRMC,162018.9,A,3257.602235,N,11705.954081,W,56.1,215.4,080510,,,A*45
$GPRMC,162021.9,A,3257.564749,N,11705.985727,W,54.0,214.4,080510,,,A*47
$GPRMC,162024.9,A,3257.522761,N,11706.008572,W,54.4,200.6,080510,,,A*44
