NMEA Sentence Code,UTC Time,Status,Latitude,Latitude Direction,Longitude,Longitude Direction,Speed (knots),Track Angle (degrees true),Date,MagneticVariation,Magnetic Variation Direction,[FAA Mode]-Optional,Checksum
$GPRMC,215422.4,A,3338.4803,N,11723.0411,W,32.50,141.80,180310,,*22
$GPRMC,215425.4,A,3338.4704,N,11723.0064,W,34.10,112.90,180310,,*2E
$GPRMC,215428.4,A,3338.4747,N,11722.9709,W,32.80,88.90,180310,,*1D
$GPRMC,215431.4,A,3338.4869,N,11722.9351,W,34.10,81.10,180310,,*11
$GPRMC,215434.4,A,3338.4884,N,11722.9001,W,35.00,87.30,180310,,*15
$GPRMC,215437.4,A,3338.4792,N,11722.8744,W,27.00,101.60,180310,,*20
$GPRMC,215440.4,A,3338.4477,N,11722.8572,W,33.30,130.90,180310,,*24
$GPRMC,215443.4,A,3338.4228,N,11722.8288,W,39.70,125.10,180310,,*2B
$GPRMC,215446.4,A,3338.4185,N,11722.7960,W,30.80,111.10,180310,,*29
$GPRMC,215449.4,A,3338.4352,N,11722.7623,W,32.60,75.50,180310,,*1D
$GPRMC,215452.4,A,3338.4660,N,11722.7312,W,36.30,51.80,180310,,*1E
$GPRMC,215455.4,A,3338.4937,N,11722.7079,W,37.50,39.20,180310,,*19
$GPRMC,215458.4,A,3338.5142,N,11722.6827,W,35.20,44.80,180310,,*18
$GPRMC,215501.4,A,3338.5281,N,11722.6468,W,37.20,61.40,180310,,*17
$GPRMC,215504.4,A,3338.5371,N,11722.6206,W,33.40,55.40,180310,,*17
$GPRMC,215507.4,A,3338.5610,N,11722.6030,W,34.20,36.90,180310,,*18
$GPRMC,215510.4,A,3338.5924,N,11722.5978,W,36.80,20.90,180310,,*1F
$GPRMC,215513.4,A,3338.6239,N,11722.5848,W,39.40,21.70,180310,,*16
$GPRMC,215516.4,A,3338.6557,N,11722.5673,W,40.60,28.80,180310,,*10
$GPRMC,215519.4,A,3338.6826,N,11722.5438,W,40.70,35.50,180310,,*19
$GPRMC,215522.4,A,3338.7057,N,11722.5152,W,40.30,39.20,180310,,*18
$GPRMC,215525.4,A,3338.7323,N,11722.4906,W,40.10,38.20,180310,,*14
$GPRMC,215528.4,A,3338.7591,N,11722.4667,W,40.00,37.20,180310,,*10
$GPRMC,215531.4,A,3338.7816,N,11722.4422,W,38.50,39.20,180310,,*1D
$GPRMC,215534.4,A,3338.8031,N,11722.4146,W,37.80,48.30,180310,,*18
$GPRMC,215537.4,A,3338.8168,N,11722.3765,W,40.60,61.20,180310,,*12
$GPRMC,215540.4,A,3338.8197,N,11722.3382,W,36.30,73.20,180310,,*18
$GPRMC,215543.4,A,3338.8035,N,11722.3019,W,37.60,101.50,180310,,*24
$GPRMC,215546.4,A,3338.7887,N,11722.2673,W,35.70,112.50,180310,,*25
$GPRMC,215549.4,A,3338.7670,N,11722.2419,W,35.40,127.50,180310,,*27
$GPRMC,215552.4,A,3338.7437,N,11722.2116,W,38.30,124.00,180310,,*2A
$GPRMC,215555.4,A,3338.7271,N,11722.1796,W,33.70,121.10,180310,,*2F
$GPRMC,215558.4,A,3338.7317,N,11722.1481,W,29.00,95.80,180310,,*1D
$GPRMC,215601.4,A,3338.7484,N,11722.1329,W,18.60,57.60,180310,,*1E
$GPRMC,215604.4,A,3338.7760,N,11722.1486,W,24.00,337.70,180310,,*2D
$GPRMC,215607.4,A,3338.8098,N,11722.1767,W,34.50,320.80,180310,,*20
$GPRMC,215610.4,A,3338.8207,N,11722.2115,W,31.40,304.40,180310,,*2C
$GPRMC,215613.4,A,3338.8160,N,11722.2475,W,32.30,279.80,180310,,*2D
$GPRMC,215616.4,A,3338.8221,N,11722.2819,W,31.90,294.20,180310,,*28
$GPRMC,215619.4,A,3338.8327,N,11722.3123,W,34.50,297.60,180310,,*2F
$GPRMC,215622.4,A,3338.8444,N,11722.3454,W,36.10,295.30,180310,,*21
$GPRMC,215625.4,A,3338.8582,N,11722.3763,W,34.70,300.80,180310,,*28
$GPRMC,215628.4,A,3338.8773,N,11722.3990,W,30.60,312.50,180310,,*20
$GPRMC,215631.4,A,3338.9078,N,11722.4044,W,34.10,344.00,180310,,*27
$GPRMC,215634.4,A,3338.9321,N,11722.4176,W,33.40,336.80,180310,,*22
$GPRMC,215637.4,A,3338.9531,N,11722.4424,W,34.30,317.80,180310,,*27
$GPRMC,215640.4,A,3338.9574,N,11722.4756,W,30.40,294.90,180310,,*28
$GPRMC,215643.4,A,3338.9504,N,11722.5032,W,21.90,269.50,180310,,*2B
$GPRMC,215646.4,A,3338.9319,N,11722.5227,W,22.00,238.30,180310,,*2A
$GPRMC,215649.4,A,3338.9038,N,11722.5576,W,35.40,247.10,180310,,*2E
$GPRMC,215652.4,A,3338.8899,N,11722.5978,W,36.70,259.70,180310,,*2D
$GPRMC,215655.4,A,3338.9002,N,11722.6316,W,33.80,280.00,180310,,*29
$GPRMC,215658.4,A,3338.9266,N,11722.6504,W,30.00,314.70,180310,,*21
$GPRMC,215701.4,A,3338.9603,N,11722.6511,W,32.30,354.90,180310,,*24
$GPRMC,215704.4,A,3338.9953,N,11722.6442,W,38.70,359.60,180310,,*20
$GPRMC,215707.4,A,3339.0284,N,11722.6468,W,41.00,353.70,180310,,*20
$GPRMC,215710.4,A,3339.0623,N,11722.6676,W,46.50,335.20,180310,,*25
$GPRMC,215713.4,A,3339.0846,N,11722.6989,W,43.20,318.40,180310,,*2F
$GPRMC,215716.4,A,3339.1077,N,11722.7285,W,40.40,320.00,180310,,*2D
$GPRMC,215719.4,A,3339.1334,N,11722.7512,W,37.80,329.80,180310,,*22
$GPRMC,215722.4,A,3339.1635,N,11722.7656,W,35.60,341.60,180310,,*21
$GPRMC,215725.4,A,3339.1977,N,11722.7700,W,39.60,356.30,180310,,*22
$GPRMC,215728.4,A,3339.2329,N,11722.7637,W,40.90,11.10,180310,,*1B
$GPRMC,215731.4,A,3339.2630,N,11722.7486,W,39.80,26.30,180310,,*1F
$GPRMC,215734.4,A,3339.2917,N,11722.7265,W,41.10,35.60,180310,,*1A
$GPRMC,215737.4,A,3339.3184,N,11722.7025,W,40.20,36.60,180310,,*1D
$GPRMC,215740.4,A,3339.3435,N,11722.6790,W,38.60,37.10,180310,,*17
$GPRMC,215743.4,A,3339.3685,N,11722.6560,W,37.30,37.20,180310,,*19
$GPRMC,215746.4,A,3339.3941,N,11722.6329,W,37.30,36.20,180310,,*11
$GPRMC,215749.4,A,3339.4184,N,11722.6116,W,36.10,37.10,180310,,*17
$GPRMC,215752.4,A,3339.4416,N,11722.5894,W,35.40,38.90,180310,,*12
$GPRMC,215755.4,A,3339.4619,N,11722.5682,W,32.20,38.10,180310,,*18
$GPRMC,215758.4,A,3339.4780,N,11722.5523,W,25.10,35.70,180310,,*12
$GPRMC,215801.4,A,3339.4903,N,11722.5420,W,18.70,31.60,180310,,*1B
$GPRMC,215804.4,A,3339.4954,N,11722.5365,W,11.80,54.40,180310,,*1D
$GPRMC,215807.4,A,3339.4879,N,11722.5252,W,16.00,109.30,180310,,*24
$GPRMC,215810.4,A,3339.4769,N,11722.5098,W,19.60,122.70,180310,,*2C
$GPRMC,215813.4,A,3339.4640,N,11722.4903,W,26.40,123.80,180310,,*2F
$GPRMC,215816.4,A,3339.4496,N,11722.4663,W,29.40,123.60,180310,,*2B
$GPRMC,215819.4,A,3339.4326,N,11722.4414,W,31.70,125.90,180310,,*29
$GPRMC,215822.4,A,3339.4145,N,11722.4154,W,35.00,126.70,180310,,*29
$GPRMC,215825.4,A,3339.3936,N,11722.3881,W,35.30,127.60,180310,,*20
$GPRMC,215828.4,A,3339.3760,N,11722.3610,W,35.30,125.90,180310,,*2B
$GPRMC,215831.4,A,3339.3592,N,11722.3314,W,36.00,125.60,180310,,*22
$GPRMC,215834.4,A,3339.3432,N,11722.3009,W,36.50,124.60,180310,,*27
$GPRMC,215837.4,A,3339.3244,N,11722.2715,W,37.00,125.50,180310,,*2E
$GPRMC,215840.4,A,3339.3060,N,11722.2405,W,38.00,125.50,180310,,*27
$GPRMC,215843.4,A,3339.2856,N,11722.2085,W,39.30,125.40,180310,,*27
$GPRMC,215846.4,A,3339.2664,N,11722.1770,W,40.10,126.00,180310,,*28
$GPRMC,215849.4,A,3339.2457,N,11722.1451,W,41.50,126.10,180310,,*21
$GPRMC,215852.4,A,3339.2257,N,11722.1100,W,43.40,125.60,180310,,*2B
$GPRMC,215855.4,A,3339.2030,N,11722.0731,W,46.00,125.50,180310,,*28
$GPRMC,215858.4,A,3339.1790,N,11722.0358,W,47.60,125.90,180310,,*2B
$GPRMC,215901.4,A,3339.1556,N,11721.9976,W,46.60,125.70,180310,,*2D
$GPRMC,215904.4,A,3339.1334,N,11721.9602,W,44.50,126.30,180310,,*20
$GPRMC,215907.4,A,3339.1122,N,11721.9282,W,41.40,127.00,180310,,*2C
$GPRMC,215910.4,A,3339.0884,N,11721.8959,W,42.60,128.70,180310,,*2B
$GPRMC,215913.4,A,3339.0668,N,11721.8623,W,42.20,127.00,180310,,*2A
$GPRMC,215916.4,A,3339.0460,N,11721.8275,W,41.90,125.50,180310,,*2D
$GPRMC,215919.4,A,3339.0265,N,11721.7938,W,40.00,126.60,180310,,*24
$GPRMC,215922.4,A,3339.0050,N,11721.7624,W,40.20,126.90,180310,,*27
$GPRMC,215925.4,A,3338.9857,N,11721.7297,W,40.10,126.50,180310,,*24
$GPRMC,215928.4,A,3338.9668,N,11721.6977,W,41.00,125.80,180310,,*21
$GPRMC,215932.4,A,3338.9382,N,11721.6516,W,44.00,125.30,180310,,*2E
$GPRMC,215935.4,A,3338.9144,N,11721.6152,W,45.80,126.60,180310,,*2A
$GPRMC,215938.4,A,3338.8925,N,11721.5782,W,46.20,126.00,180310,,*2E
$GPRMC,215941.4,A,3338.8689,N,11721.5414,W,44.80,126.50,180310,,*28
$GPRMC,215944.4,A,3338.8503,N,11721.5050,W,43.40,125.80,180310,,*2D
$GPRMC,215947.4,A,3338.8294,N,11721.4708,W,42.60,126.20,180310,,*26
$GPRMC,215950.4,A,3338.8074,N,11721.4359,W,42.20,126.20,180310,,*28
$GPRMC,215953.4,A,3338.7872,N,11721.4035,W,41.30,126.70,180310,,*24
$GPRMC,215956.4,A,3338.7682,N,11721.3690,W,42.90,125.80,180310,,*2B
$GPRMC,215959.4,A,3338.7455,N,11721.3350,W,42.30,127.10,180310,,*24
$GPRMC,220002.4,A,3338.7249,N,11721.2996,W,42.80,125.10,180310,,*26
$GPRMC,220005.4,A,3338.7025,N,11721.2644,W,43.30,126.50,180310,,*24
$GPRMC,220008.4,A,3338.6795,N,11721.2306,W,43.30,126.60,180310,,*24
$GPRMC,220011.4,A,3338.6563,N,11721.1974,W,42.90,128.00,180310,,*28
$GPRMC,220014.4,A,3338.6357,N,11721.1643,W,41.20,127.10,180310,,*21
$GPRMC,220017.4,A,3338.6158,N,11721.1322,W,40.50,126.10,180310,,*2A
$GPRMC,220020.4,A,3338.5949,N,11721.1008,W,39.90,127.30,180310,,*2F
$GPRMC,220023.4,A,3338.5750,N,11721.0689,W,39.70,126.70,180310,,*2F
$GPRMC,220026.4,A,3338.5555,N,11721.0400,W,37.60,127.30,180310,,*24
$GPRMC,220029.4,A,3338.5373,N,11721.0077,W,38.40,126.20,180310,,*20
$GPRMC,220032.4,A,3338.5175,N,11720.9775,W,38.10,127.40,180310,,*21
$GPRMC,220035.4,A,3338.4978,N,11720.9471,W,38.40,127.60,180310,,*22
$GPRMC,220038.4,A,3338.4788,N,11720.9174,W,38.20,127.10,180310,,*2F
$GPRMC,220041.4,A,3338.4600,N,11720.8874,W,36.80,126.80,180310,,*24
$GPRMC,220044.4,A,3338.4436,N,11720.8575,W,35.30,126.70,180310,,*2D
$GPRMC,220047.4,A,3338.4271,N,11720.8308,W,32.70,127.00,180310,,*22
$GPRMC,220050.4,A,3338.4122,N,11720.8067,W,30.20,126.60,180310,,*2B
$GPRMC,220053.4,A,3338.3995,N,11720.7836,W,29.30,124.80,180310,,*2D
$GPRMC,220056.4,A,3338.3833,N,11720.7619,W,28.20,128.60,180310,,*24
$GPRMC,220059.4,A,3338.3701,N,11720.7396,W,26.70,127.10,180310,,*24
$GPRMC,220102.4,A,3338.3561,N,11720.7168,W,28.90,125.80,180310,,*27
$GPRMC,220105.4,A,3338.3427,N,11720.6903,W,32.10,124.80,180310,,*25
$GPRMC,220108.4,A,3338.3239,N,11720.6627,W,35.70,126.80,180310,,*2B
$GPRMC,220111.4,A,3338.3057,N,11720.6333,W,36.40,126.40,180310,,*25
$GPRMC,220114.4,A,3338.2877,N,11720.6043,W,35.80,126.70,180310,,*23
$GPRMC,220117.4,A,3338.2698,N,11720.5770,W,35.80,127.40,180310,,*29
$GPRMC,220120.4,A,3338.2515,N,11720.5485,W,36.10,126.70,180310,,*2A
$GPRMC,220123.4,A,3338.2338,N,11720.5191,W,35.60,127.00,180310,,*22
$GPRMC,220126.4,A,3338.2178,N,11720.4901,W,34.90,125.50,180310,,*28
$GPRMC,220129.4,A,3338.1996,N,11720.4622,W,34.80,126.20,180310,,*27
$GPRMC,220132.4,A,3338.1843,N,11720.4339,W,34.40,125.00,180310,,*26
$GPRMC,220136.4,A,3338.1593,N,11720.3962,W,35.30,126.40,180310,,*20
$GPRMC,220139.4,A,3338.1406,N,11720.3673,W,36.40,124.90,180310,,*26
$GPRMC,220142.4,A,3338.1232,N,11720.3374,W,37.40,123.90,180310,,*2F
$GPRMC,220145.4,A,3338.1039,N,11720.3055,W,40.10,125.50,180310,,*2E
$GPRMC,220148.4,A,3338.0825,N,11720.2729,W,42.20,127.10,180310,,*2D
$GPRMC,220151.4,A,3338.0601,N,11720.2390,W,42.50,126.60,180310,,*2A
$GPRMC,220154.4,A,3338.0400,N,11720.2036,W,42.70,125.30,180310,,*27
$GPRMC,220157.4,A,3338.0171,N,11720.1700,W,43.20,126.70,180310,,*25
$GPRMC,220200.4,A,3337.9962,N,11720.1335,W,44.90,126.20,180310,,*23
$GPRMC,220203.4,A,3337.9742,N,11720.0972,W,44.90,125.40,180310,,*21
$GPRMC,220206.4,A,3337.9518,N,11720.0604,W,45.10,126.80,180310,,*21
$GPRMC,220209.4,A,3337.9296,N,11720.0232,W,45.00,127.10,180310,,*27
$GPRMC,220212.4,A,3337.9059,N,11719.9875,W,44.30,127.10,180310,,*24
$GPRMC,220215.4,A,3337.8829,N,11719.9523,W,43.90,127.70,180310,,*28
$GPRMC,220218.4,A,3337.8602,N,11719.9176,W,43.40,127.20,180310,,*2E
$GPRMC,220221.4,A,3337.8389,N,11719.8828,W,43.20,126.50,180310,,*21
$GPRMC,220224.4,A,3337.8187,N,11719.8493,W,41.50,127.10,180310,,*24
$GPRMC,220227.4,A,3337.7996,N,11719.8172,W,39.30,126.70,180310,,*24
$GPRMC,220230.4,A,3337.7791,N,11719.7871,W,38.40,127.20,180310,,*2C
$GPRMC,220233.4,A,3337.7608,N,11719.7556,W,38.30,126.50,180310,,*27
$GPRMC,220236.4,A,3337.7427,N,11719.7246,W,38.70,126.80,180310,,*22
$GPRMC,220239.4,A,3337.7220,N,11719.6935,W,39.30,127.00,180310,,*2E
$GPRMC,220242.4,A,3337.7031,N,11719.6612,W,40.40,126.10,180310,,*23
$GPRMC,220245.4,A,3337.6831,N,11719.6273,W,41.40,126.50,180310,,*2B
$GPRMC,220248.4,A,3337.6616,N,11719.5931,W,43.60,126.00,180310,,*26
$GPRMC,220251.4,A,3337.6396,N,11719.5578,W,44.50,126.60,180310,,*20
$GPRMC,220254.4,A,3337.6176,N,11719.5225,W,43.70,127.00,180310,,*24
$GPRMC,220257.4,A,3337.5953,N,11719.4883,W,43.10,126.90,180310,,*22
$GPRMC,220300.4,A,3337.5742,N,11719.4546,W,42.70,127.10,180310,,*25
$GPRMC,220303.4,A,3337.5523,N,11719.4207,W,43.30,127.70,180310,,*22
$GPRMC,220306.4,A,3337.5314,N,11719.3857,W,43.70,126.40,180310,,*2B
$GPRMC,220309.4,A,3337.5090,N,11719.3504,W,44.80,126.70,180310,,*2B
$GPRMC,220312.4,A,3337.4848,N,11719.3136,W,45.90,127.30,180310,,*2D
$GPRMC,220315.4,A,3337.4633,N,11719.2767,W,45.60,127.00,180310,,*27
$GPRMC,220318.4,A,3337.4410,N,11719.2404,W,46.00,126.10,180310,,*2A
$GPRMC,220321.4,A,3337.4189,N,11719.2036,W,45.50,126.70,180310,,*20
$GPRMC,220324.4,A,3337.3958,N,11719.1675,W,46.00,126.80,180310,,*2D
$GPRMC,220327.4,A,3337.3740,N,11719.1302,W,46.30,126.70,180310,,*20
$GPRMC,220330.4,A,3337.3513,N,11719.0928,W,45.30,126.80,180310,,*2D
$GPRMC,220333.4,A,3337.3281,N,11719.0575,W,44.80,126.90,180310,,*2D
$GPRMC,220336.4,A,3337.3064,N,11719.0207,W,45.10,125.90,180310,,*28
$GPRMC,220339.4,A,3337.2846,N,11718.9830,W,45.60,125.70,180310,,*21
$GPRMC,220342.4,A,3337.2614,N,11718.9460,W,45.20,126.70,180310,,*2A
$GPRMC,220345.4,A,3337.2414,N,11718.9124,W,41.60,126.70,180310,,*2A
$GPRMC,220348.4,A,3337.2231,N,11718.8801,W,38.40,126.40,180310,,*26
$GPRMC,220351.4,A,3337.2044,N,11718.8509,W,36.90,128.30,180310,,*21
$GPRMC,220354.4,A,3337.1856,N,11718.8215,W,38.00,125.80,180310,,*27
$GPRMC,220357.4,A,3337.1658,N,11718.7895,W,40.10,125.50,180310,,*2A
$GPRMC,220400.4,A,3337.1440,N,11718.7569,W,42.20,126.10,180310,,*2C
$GPRMC,220403.4,A,3337.1232,N,11718.7215,W,42.80,125.90,180310,,*21
$GPRMC,220406.4,A,3337.1009,N,11718.6874,W,42.90,126.50,180310,,*2C
$GPRMC,220409.4,A,3337.0821,N,11718.6529,W,41.40,126.20,180310,,*2C
$GPRMC,220412.4,A,3337.0616,N,11718.6206,W,40.50,126.70,180310,,*23
$GPRMC,220415.4,A,3337.0405,N,11718.5871,W,41.00,126.40,180310,,*2A
$GPRMC,220418.4,A,3337.0206,N,11718.5538,W,40.40,126.60,180310,,*25
$GPRMC,220421.4,A,3337.0009,N,11718.5221,W,39.40,127.10,180310,,*25
$GPRMC,220424.4,A,3336.9809,N,11718.4918,W,38.60,126.20,180310,,*21
$GPRMC,220427.4,A,3336.9618,N,11718.4602,W,39.20,125.10,180310,,*2D
$GPRMC,220430.4,A,3336.9385,N,11718.4292,W,39.60,127.30,180310,,*23
$GPRMC,220433.4,A,3336.9192,N,11718.3971,W,40.40,126.50,180310,,*2E
$GPRMC,220436.4,A,3336.9003,N,11718.3642,W,40.70,125.90,180310,,*21
$GPRMC,220439.4,A,3336.8807,N,11718.3313,W,40.90,125.80,180310,,*2D
$GPRMC,220442.4,A,3336.8599,N,11718.2982,W,41.70,126.60,180310,,*2A
$GPRMC,220445.4,A,3336.8380,N,11718.2647,W,41.90,127.20,180310,,*2E
$GPRMC,220448.4,A,3336.8171,N,11718.2323,W,40.80,127.40,180310,,*2E
$GPRMC,220451.4,A,3336.7979,N,11718.1996,W,40.70,124.80,180310,,*2E
$GPRMC,220454.4,A,3336.7777,N,11718.1666,W,42.10,126.70,180310,,*22
$GPRMC,220457.4,A,3336.7566,N,11718.1314,W,42.90,126.50,180310,,*29
$GPRMC,220500.4,A,3336.7337,N,11718.0979,W,42.70,128.80,180310,,*25
$GPRMC,220503.4,A,3336.7130,N,11718.0662,W,39.00,127.80,180310,,*22
$GPRMC,220506.4,A,3336.6940,N,11718.0366,W,36.60,127.30,180310,,*2A
$GPRMC,220509.4,A,3336.6765,N,11718.0080,W,35.20,126.20,180310,,*20
$GPRMC,220512.4,A,3336.6588,N,11717.9799,W,35.20,127.00,180310,,*21
$GPRMC,220515.4,A,3336.6419,N,11717.9526,W,34.90,127.70,180310,,*24
$GPRMC,220518.4,A,3336.6263,N,11717.9247,W,34.70,126.40,180310,,*2E
$GPRMC,220521.4,A,3336.6081,N,11717.8956,W,35.30,126.00,180310,,*21
$GPRMC,220524.4,A,3336.5915,N,11717.8672,W,35.30,126.80,180310,,*22
$GPRMC,220527.4,A,3336.5752,N,11717.8392,W,34.40,126.80,180310,,*21
$GPRMC,220530.4,A,3336.5632,N,11717.8162,W,25.30,128.50,180310,,*29
$GPRMC,220533.4,A,3336.5520,N,11717.8014,W,20.40,129.20,180310,,*2E
$GPRMC,220536.4,A,3336.5476,N,11717.7929,W,9.90,126.10,180310,,*1B
$GPRMC,220539.4,A,3336.5433,N,11717.7860,W,8.10,129.60,180310,,*18
$GPRMC,220542.4,A,3336.5396,N,11717.7815,W,7.60,128.70,180310,,*16
$GPRMC,220545.4,A,3336.5336,N,11717.7697,W,15.80,121.30,180310,,*2F
$GPRMC,220548.4,A,3336.5227,N,11717.7545,W,22.70,123.00,180310,,*25
$GPRMC,220551.4,A,3336.5068,N,11717.7310,W,30.00,123.50,180310,,*23
$GPRMC,220554.4,A,3336.4915,N,11717.7046,W,32.80,124.70,180310,,*2B
$GPRMC,220557.4,A,3336.4736,N,11717.6766,W,34.70,126.50,180310,,*2A
$GPRMC,220600.4,A,3336.4556,N,11717.6486,W,35.00,125.90,180310,,*2B
$GPRMC,220603.4,A,3336.4378,N,11717.6201,W,34.70,126.30,180310,,*24
$GPRMC,220606.4,A,3336.4204,N,11717.5918,W,35.30,126.10,180310,,*2C
$GPRMC,220609.4,A,3336.4051,N,11717.5628,W,35.30,125.30,180310,,*2C
$GPRMC,220612.4,A,3336.3872,N,11717.5345,W,35.50,127.20,180310,,*23
$GPRMC,220615.4,A,3336.3690,N,11717.5054,W,36.50,126.60,180310,,*23
$GPRMC,220618.4,A,3336.3525,N,11717.4768,W,36.30,125.60,180310,,*2F
$GPRMC,220621.4,A,3336.3332,N,11717.4463,W,37.30,125.10,180310,,*2B
$GPRMC,220624.4,A,3336.3135,N,11717.4155,W,38.70,126.30,180310,,*21
$GPRMC,220627.4,A,3336.2959,N,11717.3839,W,38.90,126.10,180310,,*29
$GPRMC,220630.4,A,3336.2766,N,11717.3537,W,38.50,126.60,180310,,*25
$GPRMC,220633.4,A,3336.2571,N,11717.3211,W,39.70,125.30,180310,,*24
$GPRMC,220636.4,A,3336.2361,N,11717.2893,W,40.20,126.00,180310,,*2C
$GPRMC,220639.4,A,3336.2157,N,11717.2569,W,40.10,126.20,180310,,*2D
$GPRMC,220642.4,A,3336.1979,N,11717.2242,W,39.30,125.10,180310,,*24
$GPRMC,220645.4,A,3336.1795,N,11717.1929,W,38.90,125.30,180310,,*23
$GPRMC,220648.4,A,3336.1605,N,11717.1616,W,39.50,125.70,180310,,*2C
$GPRMC,220651.4,A,3336.1409,N,11717.1305,W,38.90,127.20,180310,,*27
$GPRMC,220654.4,A,3336.1208,N,11717.0990,W,38.40,127.00,180310,,*2D
$GPRMC,220657.4,A,3336.1017,N,11717.0680,W,37.70,126.70,180310,,*26
$GPRMC,220700.4,A,3336.0829,N,11717.0368,W,38.00,127.00,180310,,*2C
$GPRMC,220703.4,A,3336.0655,N,11717.0067,W,37.60,124.60,180310,,*2A
$GPRMC,220706.4,A,3336.0465,N,11716.9753,W,38.30,126.30,180310,,*2B
$GPRMC,220709.4,A,3336.0273,N,11716.9471,W,35.40,127.60,180310,,*28
$GPRMC,220712.4,A,3336.0102,N,11716.9212,W,33.10,127.90,180310,,*28
$GPRMC,220715.4,A,3335.9959,N,11716.8951,W,30.70,125.00,180310,,*20
$GPRMC,220718.4,A,3335.9801,N,11716.8713,W,29.10,126.80,180310,,*2C
$GPRMC,220721.4,A,3335.9642,N,11716.8475,W,31.00,128.60,180310,,*24
$GPRMC,220724.4,A,3335.9482,N,11716.8222,W,32.90,127.40,180310,,*2C
$GPRMC,220727.4,A,3335.9320,N,11716.7964,W,32.70,126.30,180310,,*2E
$GPRMC,220730.4,A,3335.9152,N,11716.7699,W,33.40,126.80,180310,,*2B
$GPRMC,220733.4,A,3335.8971,N,11716.7436,W,33.20,126.40,180310,,*2D
$GPRMC,220736.4,A,3335.8841,N,11716.7184,W,28.00,124.90,180310,,*21
$GPRMC,220739.4,A,3335.8723,N,11716.7030,W,16.80,130.10,180310,,*23
$GPRMC,220742.4,A,3335.8682,N,11716.6973,W,4.50,145.60,180310,,*11
$GPRMC,220748.4,A,3335.8668,N,11716.6922,W,8.30,112.40,180310,,*11
$GPRMC,220751.4,A,3335.8696,N,11716.6806,W,9.90,71.60,180310,,*22
$GPRMC,220754.4,A,3335.8844,N,11716.6678,W,20.10,35.40,180310,,*10
$GPRMC,220757.4,A,3335.9011,N,11716.6537,W,26.00,36.50,180310,,*17
$GPRMC,220800.4,A,3335.9230,N,11716.6352,W,32.30,36.60,180310,,*1B
$GPRMC,220803.4,A,3335.9456,N,11716.6157,W,33.40,35.80,180310,,*12
$GPRMC,220806.4,A,3335.9701,N,11716.5944,W,37.20,36.20,180310,,*14
$GPRMC,220809.4,A,3335.9956,N,11716.5723,W,37.70,35.60,180310,,*1A
$GPRMC,220812.4,A,3336.0210,N,11716.5496,W,37.30,36.50,180310,,*1A
$GPRMC,220815.4,A,3336.0460,N,11716.5275,W,37.70,36.70,180310,,*11
$GPRMC,220818.4,A,3336.0708,N,11716.5053,W,36.60,37.40,180310,,*15
$GPRMC,220821.4,A,3336.0949,N,11716.4835,W,35.10,36.70,180310,,*1B
$GPRMC,220824.4,A,3336.1171,N,11716.4632,W,32.80,37.50,180310,,*18
$GPRMC,220827.4,A,3336.1392,N,11716.4432,W,34.40,37.40,180310,,*1D
$GPRMC,220830.4,A,3336.1644,N,11716.4205,W,40.00,36.90,180310,,*1C
$GPRMC,220833.4,A,3336.1918,N,11716.3963,W,40.30,35.80,180310,,*14
$GPRMC,220836.4,A,3336.2174,N,11716.3737,W,37.30,36.50,180310,,*11
$GPRMC,220839.4,A,3336.2423,N,11716.3522,W,35.50,36.10,180310,,*1F
$GPRMC,220842.4,A,3336.2664,N,11716.3320,W,35.60,35.10,180310,,*16
$GPRMC,220845.4,A,3336.2911,N,11716.3112,W,36.70,36.20,180310,,*1D
$GPRMC,220848.4,A,3336.3174,N,11716.2882,W,38.90,36.90,180310,,*10
$GPRMC,220851.4,A,3336.3429,N,11716.2645,W,39.00,36.70,180310,,*16
$GPRMC,220854.4,A,3336.3699,N,11716.2416,W,39.20,36.30,180310,,*18
$GPRMC,220857.4,A,3336.3954,N,11716.2189,W,39.20,36.60,180310,,*13
$GPRMC,220900.4,A,3336.4215,N,11716.1953,W,39.30,36.70,180310,,*15
$GPRMC,220903.4,A,3336.4482,N,11716.1715,W,39.70,36.80,180310,,*19
$GPRMC,220906.4,A,3336.4733,N,11716.1482,W,39.70,38.40,180310,,*1A
$GPRMC,220909.4,A,3336.5004,N,11716.1226,W,41.00,37.50,180310,,*19
$GPRMC,220912.4,A,3336.5279,N,11716.0990,W,39.50,36.00,180310,,*12
$GPRMC,220915.4,A,3336.5528,N,11716.0766,W,35.80,36.90,180310,,*19
$GPRMC,220918.4,A,3336.5754,N,11716.0560,W,34.00,35.40,180310,,*1E
$GPRMC,220921.4,A,3336.5995,N,11716.0362,W,35.20,35.10,180310,,*15
$GPRMC,220924.4,A,3336.6242,N,11716.0151,W,36.20,36.70,180310,,*16
$GPRMC,220927.4,A,3336.6489,N,11715.9942,W,35.70,35.60,180310,,*10
$GPRMC,220930.4,A,3336.6716,N,11715.9735,W,33.90,36.70,180310,,*17
$GPRMC,220933.4,A,3336.6938,N,11715.9536,W,32.30,36.60,180310,,*1D
$GPRMC,220936.4,A,3336.7148,N,11715.9347,W,29.80,37.40,180310,,*14
$GPRMC,220939.4,A,3336.7314,N,11715.9145,W,28.10,56.40,180310,,*1F
$GPRMC,220942.4,A,3336.7404,N,11715.8880,W,29.40,74.70,180310,,*13
$GPRMC,220945.4,A,3336.7425,N,11715.8591,W,30.40,86.20,180310,,*1A
$GPRMC,220948.4,A,3336.7426,N,11715.8248,W,34.40,89.70,180310,,*19
$GPRMC,220951.4,A,3336.7416,N,11715.7902,W,32.80,89.60,180310,,*13
$GPRMC,220954.4,A,3336.7407,N,11715.7580,W,31.90,90.40,180310,,*18
$GPRMC,220957.4,A,3336.7411,N,11715.7280,W,28.60,90.00,180310,,*18
$GPRMC,221000.4,A,3336.7414,N,11715.7042,W,21.90,92.50,180310,,*1A
$GPRMC,221003.4,A,3336.7374,N,11715.6848,W,18.90,107.80,180310,,*21
$GPRMC,221006.4,A,3336.7280,N,11715.6731,W,16.40,136.80,180310,,*2E
$GPRMC,221009.4,A,3336.7096,N,11715.6591,W,26.00,134.40,180310,,*25
$GPRMC,221012.4,A,3336.6928,N,11715.6345,W,33.00,126.70,180310,,*29
$GPRMC,221015.4,A,3336.6727,N,11715.6035,W,39.60,125.10,180310,,*22
$GPRMC,221018.4,A,3336.6524,N,11715.5696,W,42.70,127.00,180310,,*2C
$GPRMC,221021.4,A,3336.6286,N,11715.5358,W,43.70,130.20,180310,,*2B
$GPRMC,221024.4,A,3336.5979,N,11715.5015,W,47.90,136.40,180310,,*26
$GPRMC,221027.4,A,3336.5698,N,11715.4706,W,46.50,138.80,180310,,*2E
$GPRMC,221030.4,A,3336.5384,N,11715.4410,W,47.00,140.60,180310,,*21
$GPRMC,221033.4,A,3336.5066,N,11715.4115,W,47.10,141.50,180310,,*2E
$GPRMC,221036.4,A,3336.4756,N,11715.3826,W,46.70,142.20,180310,,*23
$GPRMC,221039.4,A,3336.4449,N,11715.3534,W,48.30,140.90,180310,,*2C
$GPRMC,221042.4,A,3336.4090,N,11715.3221,W,52.10,141.60,180310,,*24
$GPRMC,221045.4,A,3336.3730,N,11715.2881,W,55.90,141.60,180310,,*27
$GPRMC,221048.4,A,3336.3359,N,11715.2527,W,56.70,141.80,180310,,*23
$GPRMC,221051.4,A,3336.2977,N,11715.2173,W,58.90,142.40,180310,,*26
$GPRMC,221054.4,A,3336.2592,N,11715.1805,W,59.20,141.90,180310,,*2B
$GPRMC,221057.4,A,3336.2192,N,11715.1438,W,59.60,142.40,180310,,*24
$GPRMC,221100.4,A,3336.1803,N,11715.1079,W,58.80,143.00,180310,,*2E
$GPRMC,221103.4,A,3336.1392,N,11715.0715,W,60.40,142.90,180310,,*2D
$GPRMC,221106.4,A,3336.0992,N,11715.0351,W,61.20,141.90,180310,,*23
$GPRMC,221109.4,A,3336.0557,N,11714.9968,W,63.60,142.90,180310,,*24
$GPRMC,221112.4,A,3336.0129,N,11714.9578,W,64.70,142.40,180310,,*25
$GPRMC,221115.4,A,3335.9712,N,11714.9180,W,65.10,142.20,180310,,*24
$GPRMC,221118.4,A,3335.9260,N,11714.8768,W,66.50,142.80,180310,,*25
$GPRMC,221121.4,A,3335.8814,N,11714.8367,W,66.50,142.70,180310,,*23
$GPRMC,221124.4,A,3335.8381,N,11714.7967,W,65.20,142.40,180310,,*23
$GPRMC,221127.4,A,3335.7952,N,11714.7577,W,64.90,142.60,180310,,*2E
$GPRMC,221130.4,A,3335.7523,N,11714.7180,W,65.40,142.90,180310,,*2D
$GPRMC,221133.4,A,3335.7084,N,11714.6781,W,65.80,142.80,180310,,*2D
$GPRMC,221136.4,A,3335.6656,N,11714.6377,W,66.10,142.30,180310,,*2C
$GPRMC,221139.4,A,3335.6210,N,11714.5972,W,67.70,142.30,180310,,*2E
$GPRMC,221142.4,A,3335.5763,N,11714.5559,W,67.70,142.40,180310,,*22
$GPRMC,221145.4,A,3335.5312,N,11714.5139,W,67.40,142.60,180310,,*24
$GPRMC,221148.4,A,3335.4894,N,11714.4721,W,66.10,140.00,180310,,*23
$GPRMC,221151.4,A,3335.4487,N,11714.4257,W,67.20,135.80,180310,,*29
$GPRMC,221154.4,A,3335.4097,N,11714.3772,W,66.40,132.10,180310,,*25
$GPRMC,221157.4,A,3335.3715,N,11714.3283,W,66.10,132.40,180310,,*27
$GPRMC,221200.4,A,3335.3347,N,11714.2803,W,65.20,132.30,180310,,*21
$GPRMC,221203.4,A,3335.2981,N,11714.2326,W,64.40,132.40,180310,,*2F
$GPRMC,221206.4,A,3335.2617,N,11714.1852,W,64.30,132.20,180310,,*20
$GPRMC,221209.4,A,3335.2253,N,11714.1369,W,65.70,131.50,180310,,*29
$GPRMC,221212.4,A,3335.1889,N,11714.0874,W,66.90,131.50,180310,,*26
$GPRMC,221215.4,A,3335.1520,N,11714.0373,W,67.40,131.80,180310,,*22
$GPRMC,221218.4,A,3335.1157,N,11713.9873,W,68.10,132.20,180310,,*2D
$GPRMC,221221.4,A,3335.0771,N,11713.9379,W,68.00,132.30,180310,,*25
$GPRMC,221224.4,A,3335.0377,N,11713.8879,W,68.60,133.00,180310,,*2C
$GPRMC,221227.4,A,3334.9983,N,11713.8385,W,68.70,133.10,180310,,*2E
$GPRMC,221230.4,A,3334.9576,N,11713.7874,W,68.80,132.40,180310,,*2F
$GPRMC,221233.4,A,3334.9166,N,11713.7361,W,69.70,132.80,180310,,*24
$GPRMC,221236.4,A,3334.8751,N,11713.6855,W,70.60,133.20,180310,,*2D
$GPRMC,221239.4,A,3334.8352,N,11713.6338,W,71.20,132.70,180310,,*24
$GPRMC,221242.4,A,3334.7956,N,11713.5807,W,72.00,132.40,180310,,*2F
$GPRMC,221245.4,A,3334.7571,N,11713.5269,W,71.30,132.00,180310,,*27
$GPRMC,221248.4,A,3334.7189,N,11713.4749,W,69.60,132.40,180310,,*27
$GPRMC,221251.4,A,3334.6814,N,11713.4249,W,67.30,132.00,180310,,*29
$GPRMC,221254.4,A,3334.6427,N,11713.3761,W,67.30,133.00,180310,,*29
$GPRMC,221257.4,A,3334.6041,N,11713.3256,W,67.30,132.60,180310,,*28
$GPRMC,221300.4,A,3334.5655,N,11713.2770,W,67.80,133.80,180310,,*2F
$GPRMC,221303.4,A,3334.5269,N,11713.2252,W,69.20,132.60,180310,,*29
$GPRMC,221306.4,A,3334.4896,N,11713.1772,W,68.30,132.40,180310,,*21
$GPRMC,221309.4,A,3334.4493,N,11713.1254,W,70.50,134.00,180310,,*2B
$GPRMC,221312.4,A,3334.4079,N,11713.0753,W,70.20,134.30,180310,,*26
$GPRMC,221315.4,A,3334.3684,N,11713.0260,W,68.90,133.70,180310,,*26
$GPRMC,221318.4,A,3334.3313,N,11712.9768,W,67.20,133.00,180310,,*26
$GPRMC,221321.4,A,3334.2930,N,11712.9284,W,66.40,133.40,180310,,*22
$GPRMC,221324.4,A,3334.2580,N,11712.8811,W,65.50,132.60,180310,,*26
$GPRMC,221327.4,A,3334.2286,N,11712.8332,W,65.00,131.90,180310,,*27
$GPRMC,221330.4,A,3334.1935,N,11712.7838,W,65.80,131.80,180310,,*26
$GPRMC,221333.4,A,3334.1572,N,11712.7345,W,66.50,131.80,180310,,*25
$GPRMC,221336.4,A,3334.1225,N,11712.6838,W,67.20,131.10,180310,,*2A
$GPRMC,221339.4,A,3334.0853,N,11712.6334,W,67.70,131.70,180310,,*2B
$GPRMC,221342.4,A,3334.0467,N,11712.5829,W,68.20,131.80,180310,,*2D
$GPRMC,221345.4,A,3334.0077,N,11712.5323,W,67.80,132.30,180310,,*23
$GPRMC,221348.4,A,3333.9698,N,11712.4837,W,66.50,132.70,180310,,*20
$GPRMC,221351.4,A,3333.9319,N,11712.4362,W,66.20,133.50,180310,,*2B
$GPRMC,221354.4,A,3333.8953,N,11712.3873,W,65.40,132.10,180310,,*27
$GPRMC,221357.4,A,3333.8589,N,11712.3394,W,65.10,132.30,180310,,*2A
$GPRMC,221400.4,A,3333.8230,N,11712.2914,W,65.10,132.40,180310,,*2E
$GPRMC,221403.4,A,3333.7862,N,11712.2431,W,65.70,132.50,180310,,*22
$GPRMC,221406.4,A,3333.7491,N,11712.1947,W,65.70,132.50,180310,,*28
$GPRMC,221409.4,A,3333.7113,N,11712.1463,W,66.60,132.80,180310,,*2C
$GPRMC,221412.4,A,3333.6734,N,11712.0971,W,66.90,132.20,180310,,*2E
$GPRMC,221415.4,A,3333.6357,N,11712.0471,W,67.60,132.30,180310,,*2A
$GPRMC,221418.4,A,3333.5966,N,11711.9973,W,68.50,132.30,180310,,*25
$GPRMC,221421.4,A,3333.5565,N,11711.9463,W,69.70,132.60,180310,,*2A
$GPRMC,221424.4,A,3333.5176,N,11711.8946,W,69.90,132.10,180310,,*2B
$GPRMC,221427.4,A,3333.4788,N,11711.8423,W,70.00,131.40,180310,,*27
$GPRMC,221430.4,A,3333.4408,N,11711.7897,W,69.60,130.60,180310,,*2B
$GPRMC,221433.4,A,3333.4049,N,11711.7363,W,69.00,129.50,180310,,*24
$GPRMC,221436.4,A,3333.3695,N,11711.6828,W,68.30,127.50,180310,,*28
$GPRMC,221439.4,A,3333.3348,N,11711.6282,W,67.90,126.20,180310,,*2B
$GPRMC,221442.4,A,3333.3014,N,11711.5726,W,67.90,124.50,180310,,*20
$GPRMC,221445.4,A,3333.2693,N,11711.5163,W,68.50,124.20,180310,,*2C
$GPRMC,221448.4,A,3333.2385,N,11711.4599,W,67.90,122.90,180310,,*2D
$GPRMC,221451.4,A,3333.2087,N,11711.4029,W,67.60,122.00,180310,,*2C
$GPRMC,221454.4,A,3333.1790,N,11711.3465,W,67.20,121.40,180310,,*23
$GPRMC,221457.4,A,3333.1490,N,11711.2891,W,66.80,121.70,180310,,*2D
$GPRMC,221500.4,A,3333.1194,N,11711.2329,W,66.30,121.90,180310,,*22
$GPRMC,221503.4,A,3333.0908,N,11711.1764,W,65.30,121.40,180310,,*2D
$GPRMC,221506.4,A,3333.0632,N,11711.1221,W,63.60,121.50,180310,,*28
$GPRMC,221509.4,A,3333.0360,N,11711.0682,W,63.30,121.80,180310,,*21
$GPRMC,221512.4,A,3333.0075,N,11711.0150,W,63.00,122.80,180310,,*24
$GPRMC,221515.4,A,3332.9759,N,11710.9640,W,64.20,128.40,180310,,*2F
$GPRMC,221518.4,A,3332.9419,N,11710.9144,W,64.80,130.20,180310,,*23
$GPRMC,221521.4,A,3332.9062,N,11710.8662,W,64.70,131.70,180310,,*28
$GPRMC,221524.4,A,3332.8666,N,11710.8204,W,64.80,137.20,180310,,*26
$GPRMC,221527.4,A,3332.8226,N,11710.7794,W,67.40,144.40,180310,,*2B
$GPRMC,221530.4,A,3332.7761,N,11710.7423,W,66.50,147.10,180310,,*2D
$GPRMC,221533.4,A,3332.7297,N,11710.7075,W,65.50,147.30,180310,,*24
$GPRMC,221536.4,A,3332.6780,N,11710.6764,W,67.60,151.00,180310,,*20
$GPRMC,221539.4,A,3332.6303,N,11710.6436,W,67.20,150.90,180310,,*28
$GPRMC,221542.4,A,3332.5814,N,11710.6112,W,67.30,151.20,180310,,*22
$GPRMC,221545.4,A,3332.5326,N,11710.5790,W,66.90,151.70,180310,,*2E
$GPRMC,221548.4,A,3332.4845,N,11710.5483,W,65.70,151.50,180310,,*22
$GPRMC,221551.4,A,3332.4367,N,11710.5173,W,64.90,151.50,180310,,*24
$GPRMC,221554.4,A,3332.3888,N,11710.4866,W,64.60,151.80,180310,,*22
$GPRMC,221557.4,A,3332.3413,N,11710.4567,W,64.40,151.90,180310,,*20
$GPRMC,221600.4,A,3332.2953,N,11710.4266,W,63.20,151.00,180310,,*27
$GPRMC,221603.4,A,3332.2489,N,11710.3954,W,63.20,151.60,180310,,*25
$GPRMC,221606.4,A,3332.2031,N,11710.3667,W,60.70,152.60,180310,,*2D
$GPRMC,221609.4,A,3332.1583,N,11710.3384,W,59.90,152.50,180310,,*22
$GPRMC,221612.4,A,3332.1151,N,11710.3109,W,57.40,151.60,180310,,*27
$GPRMC,221615.4,A,3332.0751,N,11710.2846,W,53.90,150.70,180310,,*2D
$GPRMC,221618.4,A,3332.0362,N,11710.2588,W,51.50,151.20,180310,,*21
$GPRMC,221621.4,A,3331.9995,N,11710.2346,W,48.90,150.60,180310,,*26
$GPRMC,221624.4,A,3331.9650,N,11710.2117,W,46.10,151.00,180310,,*22
$GPRMC,221627.4,A,3331.9320,N,11710.1899,W,44.50,150.30,180310,,*2B
$GPRMC,221630.4,A,3331.9002,N,11710.1684,W,43.70,150.70,180310,,*2D
$GPRMC,221633.4,A,3331.8689,N,11710.1478,W,42.50,151.10,180310,,*2F
$GPRMC,221636.4,A,3331.8383,N,11710.1275,W,41.60,151.60,180310,,*29
$GPRMC,221639.4,A,3331.8096,N,11710.1089,W,39.40,151.40,180310,,*2F
$GPRMC,221642.4,A,3331.7812,N,11710.0898,W,39.10,150.70,180310,,*26
$GPRMC,221645.4,A,3331.7522,N,11710.0699,W,39.80,150.20,180310,,*2C
$GPRMC,221648.4,A,3331.7213,N,11710.0499,W,41.80,151.10,180310,,*2B
$GPRMC,221651.4,A,3331.6899,N,11710.0291,W,44.30,151.00,180310,,*2B
$GPRMC,221654.4,A,3331.6574,N,11710.0065,W,46.00,150.00,180310,,*29
$GPRMC,221657.4,A,3331.6222,N,11709.9830,W,49.00,150.40,180310,,*2C
$GPRMC,221700.4,A,3331.5867,N,11709.9588,W,49.60,150.80,180310,,*23
$GPRMC,221703.4,A,3331.5505,N,11709.9350,W,49.10,151.50,180310,,*21
$GPRMC,221706.4,A,3331.5150,N,11709.9132,W,46.50,154.90,180310,,*24
$GPRMC,221709.4,A,3331.4808,N,11709.8951,W,42.10,156.80,180310,,*21
$GPRMC,221712.4,A,3331.4487,N,11709.8801,W,39.10,161.40,180310,,*20
$GPRMC,221715.4,A,3331.4215,N,11709.8731,W,31.90,172.60,180310,,*26
$GPRMC,221718.4,A,3331.3943,N,11709.8712,W,33.60,178.30,180310,,*27
$GPRMC,221721.4,A,3331.3655,N,11709.8711,W,36.00,179.50,180310,,*22
$GPRMC,221724.4,A,3331.3361,N,11709.8699,W,34.50,171.30,180310,,*2D
$GPRMC,221727.4,A,3331.3093,N,11709.8590,W,33.20,161.30,180310,,*2B
$GPRMC,221730.4,A,3331.2935,N,11709.8462,W,25.80,159.00,180310,,*20
$GPRMC,221733.4,A,3331.2827,N,11709.8497,W,15.70,186.60,180310,,*23
$GPRMC,221736.4,A,3331.2804,N,11709.8607,W,10.20,222.50,180310,,*22
$GPRMC,221739.4,A,3331.2815,N,11709.8682,W,6.30,225.80,180310,,*1C
$GPRMC,221742.4,A,3331.2800,N,11709.8739,W,5.40,236.50,180310,,*1E
$GPRMC,221745.4,A,3331.2747,N,11709.8815,W,9.40,233.80,180310,,*10
$GPRMC,221748.4,A,3331.2680,N,11709.8905,W,11.40,233.40,180310,,*22
$GPRMC,221751.4,A,3331.2604,N,11709.9024,W,14.80,233.00,180310,,*20
$GPRMC,221754.4,A,3331.2550,N,11709.9152,W,14.80,234.60,180310,,*26
$GPRMC,221757.4,A,3331.2441,N,11709.9298,W,18.60,231.40,180310,,*24
$GPRMC,221800.4,A,3331.2300,N,11709.9456,W,23.40,229.40,180310,,*2C
$GPRMC,221803.4,A,3331.2119,N,11709.9675,W,28.10,229.00,180310,,*2C
$GPRMC,221806.4,A,3331.1961,N,11709.9893,W,29.50,228.00,180310,,*2F
$GPRMC,221809.4,A,3331.1777,N,11710.0123,W,31.30,227.90,180310,,*23
$GPRMC,221812.4,A,3331.1586,N,11710.0360,W,31.80,225.70,180310,,*27
$GPRMC,221815.4,A,3331.1364,N,11710.0584,W,32.00,220.20,180310,,*2D
$GPRMC,221818.4,A,3331.1166,N,11710.0782,W,31.80,217.90,180310,,*20
$GPRMC,221821.4,A,3331.0958,N,11710.0979,W,31.80,218.00,180310,,*22
$GPRMC,221824.4,A,3331.0707,N,11710.1157,W,34.50,210.40,180310,,*22
$GPRMC,221827.4,A,3331.0409,N,11710.1317,W,39.20,205.70,180310,,*27
$GPRMC,221830.4,A,3331.0120,N,11710.1485,W,38.10,205.80,180310,,*2E
$GPRMC,221833.4,A,3330.9851,N,11710.1650,W,35.80,209.50,180310,,*25
$GPRMC,221836.4,A,3330.9578,N,11710.1821,W,35.60,208.80,180310,,*2C
$GPRMC,221839.4,A,3330.9361,N,11710.1981,W,30.00,208.00,180310,,*2D
$GPRMC,221842.4,A,3330.9157,N,11710.2078,W,22.50,196.20,180310,,*2A
$GPRMC,221845.4,A,3330.9036,N,11710.2141,W,17.10,197.00,180310,,*21
$GPRMC,221848.4,A,3330.9051,N,11710.2156,W,4.60,234.40,180310,,*10
$GPRMC,221851.4,A,3330.9039,N,11710.2245,W,11.00,262.50,180310,,*27
$GPRMC,221854.4,A,3330.9108,N,11710.2408,W,18.40,294.60,180310,,*29
$GPRMC,221857.4,A,3330.9185,N,11710.2592,W,22.80,295.20,180310,,*2D
$GPRMC,221900.4,A,3330.9282,N,11710.2816,W,26.50,297.20,180310,,*20
