NMEA Sentence Code,UTC Time,Status,Latitude,Latitude Direction,Longitude,Longitude Direction,Speed (knots),Track Angle (degrees true),Date,MagneticVariation,Magnetic Variation Direction,[FAA Mode]-Optional,Checksum
$GPRMC,190059.9,A,3332.809724,N,11747.755515,W,4.5,72.9,111010,,,A*4F
$GPRMC,190102.9,A,3332.806268,N,11747.745884,W,10.3,104.3,111010,,,A*4F
$GPRMC,190105.9,A,3332.802969,N,11747.729925,W,18.7,111.7,111010,,,A*4A
$GPRMC,190108.9,A,3332.794667,N,11747.709932,W,22.3,116.3,111010,,,A*4C
$GPRMC,190111.2,A,3332.786758,N,11747.693526,W,23.2,121.6,111010,,,A*4B
$GPRMC,190114.9,A,3332.770515,N,11747.669589,W,24.7,127.6,111010,,,A*43
$GPRMC,190117.9,A,3332.756669,N,11747.648270,W,26.6,123.4,111010,,,A*4B
$GPRMC,190120.9,A,3332.744647,N,11747.624614,W,28.1,116.5,111010,,,A*42
$GPRMC,190123.9,A,3332.736309,N,11747.598466,W,27.2,112.3,111010,,,A*46
$GPRMC,190126.9,A,3332.726607,N,11747.575629,W,25.6,113.9,111010,,,A*4E
$GPRMC,190129.9,A,3332.721636,N,11747.557283,W,18.5,109.2,111010,,,A*4D
$GPRMC,190132.9,A,3332.717423,N,11747.547333,W,9.8,115.2,111010,,,A*7F
$GPRMC,190144.9,A,3332.710910,N,11747.536858,W,10.7,117.8,111010,,,A*4B
$GPRMC,190147.9,A,3332.704571,N,11747.522738,W,16.6,118.1,111010,,,A*4B
$GPRMC,190150.9,A,3332.698232,N,11747.504751,W,19.7,113.7,111010,,,A*41
$GPRMC,190153.9,A,3332.691669,N,11747.484902,W,21.9,111.9,111010,,,A*49
$GPRMC,190156.9,A,3332.682505,N,11747.464064,W,24.1,113.8,111010,,,A*4E
$GPRMC,190159.9,A,3332.676293,N,11747.437997,W,25.2,111.4,111010,,,A*4D
$GPRMC,190202.9,A,3332.667118,N,11747.415875,W,24.6,114.5,111010,,,A*4C
$GPRMC,190205.9,A,3332.659303,N,11747.393092,W,24.8,113.1,111010,,,A*4B
$GPRMC,190208.9,A,3332.650782,N,11747.369340,W,24.4,113.7,111010,,,A*41
$GPRMC,190211.9,A,3332.644561,N,11747.349898,W,20.5,113.3,111010,,,A*4E
$GPRMC,190214.9,A,3332.639452,N,11747.332174,W,19.1,110.5,111010,,,A*4C
$GPRMC,190217.9,A,3332.634066,N,11747.316845,W,14.5,108.2,111010,,,A*4B
$GPRMC,190220.9,A,3332.630153,N,11747.308937,W,6.5,108.7,111010,,,A*71
$GPRMC,190235.9,A,3332.628184,N,11747.304602,W,8.5,114.6,111010,,,A*71
$GPRMC,190238.9,A,3332.621693,N,11747.287612,W,18.6,114.5,111010,,,A*4E
$GPRMC,190241.2,A,3332.615184,N,11747.272521,W,21.3,117.9,111010,,,A*44
$GPRMC,190244.9,A,3332.605429,N,11747.244179,W,25.2,110.7,111010,,,A*49
$GPRMC,190247.9,A,3332.598280,N,11747.222601,W,26.1,113.4,111010,,,A*40
$GPRMC,190250.9,A,3332.588661,N,11747.196068,W,28.6,115.3,111010,,,A*41
$GPRMC,190253.9,A,3332.579210,N,11747.169435,W,29.2,115.6,111010,,,A*42
$GPRMC,190256.9,A,3332.570019,N,11747.142160,W,28.6,114.2,111010,,,A*49
$GPRMC,190259.9,A,3332.560195,N,11747.122234,W,26.0,118.2,111010,,,A*42
$GPRMC,190302.9,A,3332.550459,N,11747.102788,W,24.5,122.3,111010,,,A*44
$GPRMC,190305.9,A,3332.539654,N,11747.083582,W,19.9,123.4,111010,,,A*47
$GPRMC,190308.9,A,3332.534424,N,11747.068990,W,12.9,119.7,111010,,,A*49
$GPRMC,190320.9,A,3332.527563,N,11747.057240,W,9.5,115.6,111010,,,A*72
$GPRMC,190323.9,A,3332.524140,N,11747.043151,W,17.0,100.6,111010,,,A*4F
$GPRMC,190326.2,A,3332.521619,N,11747.028609,W,18.1,101.7,111010,,,A*46
$GPRMC,190329.9,A,3332.516856,N,11747.004844,W,18.5,109.3,111010,,,A*42
$GPRMC,190333.2,A,3332.506045,N,11746.986827,W,19.1,133.5,111010,,,A*44
$GPRMC,190336.2,A,3332.491751,N,11746.976120,W,20.1,145.5,111010,,,A*46
$GPRMC,190339.2,A,3332.478655,N,11746.964348,W,19.8,144.5,111010,,,A*46
$GPRMC,190343.2,A,3332.461691,N,11746.947091,W,18.7,143.4,111010,,,A*45
$GPRMC,190346.9,A,3332.443258,N,11746.931722,W,22.0,143.4,111010,,,A*4A
$GPRMC,190350.2,A,3332.425097,N,11746.915056,W,24.5,144.2,111010,,,A*47
$GPRMC,190353.2,A,3332.408188,N,11746.901937,W,25.6,145.2,111010,,,A*4C
$GPRMC,190356.0,A,3332.392501,N,11746.889307,W,24.7,142.3,111010,,,A*44
$GPRMC,190359.9,A,3332.371494,N,11746.866465,W,28.2,141.5,111010,,,A*4C
$GPRMC,190402.9,A,3332.349071,N,11746.846989,W,32.6,143.2,111010,,,A*46
$GPRMC,190405.9,A,3332.325624,N,11746.826519,W,34.4,144.0,111010,,,A*4F
$GPRMC,190408.9,A,3332.300182,N,11746.809220,W,35.9,147.6,111010,,,A*47
$GPRMC,190411.9,A,3332.276402,N,11746.790687,W,34.4,148.5,111010,,,A*44
$GPRMC,190414.2,A,3332.257677,N,11746.777999,W,32.2,148.5,111010,,,A*40
$GPRMC,190417.9,A,3332.228697,N,11746.759263,W,31.1,150.3,111010,,,A*43
$GPRMC,190420.2,A,3332.214068,N,11746.746915,W,27.9,148.0,111010,,,A*44
$GPRMC,190423.9,A,3332.193605,N,11746.728108,W,24.2,147.9,111010,,,A*4F
$GPRMC,190426.9,A,3332.177290,N,11746.715183,W,23.7,150.0,111010,,,A*48
$GPRMC,190429.9,A,3332.159439,N,11746.704339,W,24.0,151.7,111010,,,A*4B
$GPRMC,190432.2,A,3332.148227,N,11746.695572,W,20.7,146.8,111010,,,A*49
$GPRMC,190435.2,A,3332.136664,N,11746.685233,W,16.6,145.3,111010,,,A*4B
$GPRMC,190438.9,A,3332.121117,N,11746.674545,W,17.7,145.1,111010,,,A*42
$GPRMC,190441.9,A,3332.106775,N,11746.664648,W,18.5,148.3,111010,,,A*46
$GPRMC,190444.9,A,3332.093921,N,11746.652319,W,18.9,145.5,111010,,,A*42
$GPRMC,190447.9,A,3332.081386,N,11746.641833,W,20.2,147.5,111010,,,A*46
$GPRMC,190450.9,A,3332.065403,N,11746.631206,W,21.3,148.6,111010,,,A*47
$GPRMC,190453.9,A,3332.048659,N,11746.620271,W,22.6,149.9,111010,,,A*4E
$GPRMC,190456.9,A,3332.030932,N,11746.608168,W,24.0,148.8,111010,,,A*47
$GPRMC,190459.9,A,3332.015145,N,11746.594469,W,23.5,146.8,111010,,,A*49
$GPRMC,190503.2,A,3331.994046,N,11746.581581,W,23.7,148.4,111010,,,A*4E
$GPRMC,190506.9,A,3331.977067,N,11746.568549,W,17.7,144.6,111010,,,A*44
$GPRMC,190509.9,A,3331.968816,N,11746.561915,W,9.4,144.3,111010,,,A*7E
$GPRMC,190536.9,A,3331.963131,N,11746.557951,W,6.3,138.7,111010,,,A*77
$GPRMC,190540.2,A,3331.950699,N,11746.546947,W,16.7,140.7,111010,,,A*45
$GPRMC,190543.9,A,3331.934367,N,11746.527174,W,20.2,133.7,111010,,,A*40
$GPRMC,190546.9,A,3331.921118,N,11746.508977,W,23.6,134.6,111010,,,A*4C
$GPRMC,190549.9,A,3331.906397,N,11746.491377,W,24.0,135.4,111010,,,A*4A
$GPRMC,190552.9,A,3331.890401,N,11746.473337,W,25.4,134.3,111010,,,A*4D
$GPRMC,190555.9,A,3331.875042,N,11746.455469,W,26.7,135.3,111010,,,A*4B
$GPRMC,190558.9,A,3331.859513,N,11746.437688,W,23.1,134.0,111010,,,A*41
$GPRMC,190601.9,A,3331.849272,N,11746.424368,W,16.6,133.1,111010,,,A*41
$GPRMC,190604.9,A,3331.839160,N,11746.416248,W,12.6,139.2,111010,,,A*4C
$GPRMC,190607.9,A,3331.832563,N,11746.409056,W,11.6,134.0,111010,,,A*4C
$GPRMC,190610.9,A,3331.826282,N,11746.401068,W,11.8,132.0,111010,,,A*4A
$GPRMC,190613.9,A,3331.815746,N,11746.388614,W,19.5,132.1,111010,,,A*4B
$GPRMC,190616.9,A,3331.800124,N,11746.370669,W,27.7,136.1,111010,,,A*4E
$GPRMC,190619.9,A,3331.784793,N,11746.349139,W,27.5,133.2,111010,,,A*44
$GPRMC,190622.9,A,3331.768871,N,11746.327993,W,27.4,133.4,111010,,,A*4A
$GPRMC,190625.9,A,3331.754765,N,11746.311022,W,24.3,134.5,111010,,,A*4C
$GPRMC,190628.9,A,3331.740856,N,11746.294504,W,25.7,136.1,111010,,,A*45
$GPRMC,190631.9,A,3331.719371,N,11746.273959,W,31.5,137.0,111010,,,A*45
$GPRMC,190634.2,A,3331.704254,N,11746.256262,W,32.4,136.4,111010,,,A*42
$GPRMC,190637.9,A,3331.681394,N,11746.227034,W,32.5,134.1,111010,,,A*4A
$GPRMC,190640.9,A,3331.661638,N,11746.204327,W,33.4,135.1,111010,,,A*46
$GPRMC,190643.9,A,3331.641018,N,11746.182924,W,32.8,135.3,111010,,,A*48
$GPRMC,190646.9,A,3331.622600,N,11746.157981,W,33.3,134.5,111010,,,A*4D
$GPRMC,190649.9,A,3331.603690,N,11746.134988,W,33.7,134.7,111010,,,A*42
$GPRMC,190652.9,A,3331.584384,N,11746.109607,W,34.4,133.0,111010,,,A*46
$GPRMC,190655.9,A,3331.562689,N,11746.084255,W,35.3,135.1,111010,,,A*47
$GPRMC,190658.9,A,3331.543361,N,11746.056064,W,37.3,133.7,111010,,,A*47
$GPRMC,190701.2,A,3331.527175,N,11746.035071,W,37.4,132.9,111010,,,A*4D
$GPRMC,190704.2,A,3331.504898,N,11746.008142,W,37.5,132.1,111010,,,A*45
$GPRMC,190707.2,A,3331.484096,N,11745.980155,W,36.8,133.0,111010,,,A*49
$GPRMC,190710.2,A,3331.462154,N,11745.953370,W,38.4,134.5,111010,,,A*43
$GPRMC,190713.2,A,3331.439743,N,11745.926475,W,37.2,134.4,111010,,,A*46
$GPRMC,190716.2,A,3331.417925,N,11745.900078,W,37.1,135.1,111010,,,A*4B
$GPRMC,190719.9,A,3331.389375,N,11745.869526,W,37.6,137.7,111010,,,A*43
$GPRMC,190722.9,A,3331.366771,N,11745.844066,W,36.9,135.5,111010,,,A*4A
$GPRMC,190725.2,A,3331.349493,N,11745.825634,W,35.0,138.5,111010,,,A*45
$GPRMC,190728.9,A,3331.323739,N,11745.795089,W,33.4,136.0,111010,,,A*41
$GPRMC,190731.9,A,3331.306871,N,11745.772942,W,29.2,135.1,111010,,,A*45
$GPRMC,190734.9,A,3331.292226,N,11745.756344,W,26.1,131.4,111010,,,A*43
$GPRMC,190737.9,A,3331.281287,N,11745.737275,W,21.9,124.1,111010,,,A*43
$GPRMC,190740.9,A,3331.271829,N,11745.720542,W,22.2,122.9,111010,,,A*41
$GPRMC,190743.2,A,3331.264345,N,11745.706118,W,22.1,126.6,111010,,,A*4B
$GPRMC,190746.9,A,3331.248347,N,11745.681193,W,24.3,130.8,111010,,,A*49
$GPRMC,190749.9,A,3331.227440,N,11745.663298,W,31.4,143.9,111010,,,A*4D
$GPRMC,190752.9,A,3331.203575,N,11745.646689,W,33.4,149.1,111010,,,A*45
$GPRMC,190755.9,A,3331.176092,N,11745.630949,W,37.4,150.1,111010,,,A*41
$GPRMC,190758.9,A,3331.146735,N,11745.611717,W,39.8,148.1,111010,,,A*48
$GPRMC,190801.9,A,3331.118920,N,11745.588313,W,40.0,143.9,111010,,,A*4C
$GPRMC,190804.2,A,3331.096665,N,11745.568513,W,42.9,144.0,111010,,,A*46
$GPRMC,190807.0,A,3331.074008,N,11745.544124,W,41.0,140.0,111010,,,A*46
$GPRMC,190810.9,A,3331.042056,N,11745.509850,W,37.8,139.1,111010,,,A*42
$GPRMC,190813.9,A,3331.019743,N,11745.486095,W,35.7,138.7,111010,,,A*41
$GPRMC,190816.9,A,3330.997283,N,11745.462827,W,34.9,139.0,111010,,,A*41
$GPRMC,190819.9,A,3330.975098,N,11745.438834,W,35.8,138.6,111010,,,A*40
$GPRMC,190822.9,A,3330.951032,N,11745.415187,W,37.2,140.8,111010,,,A*49
$GPRMC,190825.9,A,3330.925195,N,11745.394862,W,36.5,145.6,111010,,,A*40
$GPRMC,190828.9,A,3330.901567,N,11745.376420,W,32.5,146.1,111010,,,A*44
$GPRMC,190831.9,A,3330.882002,N,11745.361094,W,26.7,144.3,111010,,,A*4A
$GPRMC,190834.9,A,3330.865007,N,11745.348271,W,20.5,145.9,111010,,,A*4E
$GPRMC,190837.9,A,3330.854187,N,11745.339249,W,14.5,147.6,111010,,,A*41
$GPRMC,190840.9,A,3330.849456,N,11745.335883,W,6.8,152.1,111010,,,A*79
$GPRMC,190843.9,A,3330.845540,N,11745.332532,W,8.6,145.9,111010,,,A*7E
$GPRMC,190846.9,A,3330.831678,N,11745.323806,W,19.2,147.0,111010,,,A*45
$GPRMC,190849.9,A,3330.813360,N,11745.311672,W,27.9,145.7,111010,,,A*49
$GPRMC,190852.9,A,3330.794520,N,11745.295067,W,30.9,144.9,111010,,,A*47
$GPRMC,190855.9,A,3330.770861,N,11745.273743,W,37.7,144.4,111010,,,A*4F
$GPRMC,190858.9,A,3330.742940,N,11745.247804,W,42.5,142.2,111010,,,A*4A
$GPRMC,190901.9,A,3330.714476,N,11745.220691,W,43.2,140.2,111010,,,A*4B
$GPRMC,190904.2,A,3330.693198,N,11745.199618,W,42.5,138.5,111010,,,A*40
$GPRMC,190907.9,A,3330.664958,N,11745.162020,W,39.6,133.0,111010,,,A*4C
$GPRMC,190910.9,A,3330.647403,N,11745.137063,W,29.7,134.4,111010,,,A*4C
$GPRMC,190913.9,A,3330.638235,N,11745.128450,W,12.4,159.8,111010,,,A*42
$GPRMC,190917.2,A,3330.631527,N,11745.133234,W,9.9,215.5,111010,,,A*7F
$GPRMC,190920.0,A,3330.626833,N,11745.139641,W,9.7,227.2,111010,,,A*73
$GPRMC,190923.9,A,3330.622441,N,11745.146948,W,6.2,218.1,111010,,,A*7F
$GPRMC,190926.9,A,3330.618882,N,11745.147514,W,4.9,175.2,111010,,,A*76
$GPRMC,190929.9,A,3330.612531,N,11745.146666,W,6.3,150.9,111010,,,A*75
$GPRMC,190932.9,A,3330.609906,N,11745.142843,W,6.7,144.1,111010,,,A*79
$GPRMC,190935.9,A,3330.603192,N,11745.137700,W,7.8,143.1,111010,,,A*72
$GPRMC,190938.9,A,3330.599081,N,11745.134750,W,6.0,142.9,111010,,,A*7A
$GPRMC,190941.9,A,3330.595497,N,11745.131983,W,4.4,140.1,111010,,,A*72
$GPRMC,190944.2,A,3330.592887,N,11745.130386,W,5.5,165.9,111010,,,A*77
$GPRMC,190947.9,A,3330.586166,N,11745.129354,W,5.0,150.9,111010,,,A*78
$GPRMC,190950.2,A,3330.584740,N,11745.124891,W,4.8,125.6,111010,,,A*7E
$GPRMC,190953.9,A,3330.583675,N,11745.115821,W,5.1,123.5,111010,,,A*72
$GPRMC,190956.9,A,3330.580762,N,11745.112958,W,4.7,128.8,111010,,,A*7A
$GPRMC,191003.9,A,3330.576803,N,11745.103808,W,5.2,106.3,111010,,,A*74
$GPRMC,191339.9,A,3330.567730,N,11745.091320,W,6.7,332.7,111010,,,A*7D
$GPRMC,191342.9,A,3330.576747,N,11745.096373,W,10.2,334.6,111010,,,A*45
$GPRMC,191345.9,A,3330.589553,N,11745.104956,W,14.4,324.2,111010,,,A*45
$GPRMC,191348.2,A,3330.599052,N,11745.112002,W,16.1,322.7,111010,,,A*4D
$GPRMC,191351.9,A,3330.610566,N,11745.122732,W,12.4,320.3,111010,,,A*4E
$GPRMC,191354.9,A,3330.618273,N,11745.129809,W,11.5,319.1,111010,,,A*46
$GPRMC,191357.9,A,3330.624593,N,11745.132983,W,8.8,350.7,111010,,,A*74
$GPRMC,191400.9,A,3330.630708,N,11745.129984,W,8.1,23.1,111010,,,A*41
$GPRMC,191403.9,A,3330.634849,N,11745.122197,W,7.7,50.6,111010,,,A*47
$GPRMC,191433.2,A,3330.632908,N,11745.115418,W,6.4,112.4,111010,,,A*7C
$GPRMC,191436.9,A,3330.626135,N,11745.105781,W,11.7,124.0,111010,,,A*47
$GPRMC,191439.9,A,3330.614846,N,11745.093667,W,20.7,140.1,111010,,,A*42
$GPRMC,191442.2,A,3330.600516,N,11745.082538,W,25.1,145.1,111010,,,A*47
$GPRMC,191445.9,A,3330.574114,N,11745.062923,W,29.4,149.6,111010,,,A*47
$GPRMC,191448.9,A,3330.551222,N,11745.044632,W,31.9,148.2,111010,,,A*41
$GPRMC,191452.2,A,3330.523119,N,11745.027093,W,33.2,150.8,111010,,,A*4D
$GPRMC,191455.2,A,3330.497137,N,11745.008917,W,35.4,141.9,111010,,,A*41
$GPRMC,191458.0,A,3330.477994,N,11744.987876,W,35.6,133.0,111010,,,A*46
$GPRMC,191501.9,A,3330.453109,N,11744.949376,W,35.4,130.0,111010,,,A*40
$GPRMC,191504.9,A,3330.432157,N,11744.924866,W,35.6,136.2,111010,,,A*4E
$GPRMC,191507.9,A,3330.406342,N,11744.901703,W,37.0,140.3,111010,,,A*43
$GPRMC,191510.9,A,3330.385051,N,11744.875646,W,36.6,138.6,111010,,,A*47
$GPRMC,191513.9,A,3330.360939,N,11744.854126,W,36.8,139.8,111010,,,A*4B
$GPRMC,191516.9,A,3330.335553,N,11744.830072,W,38.4,138.8,111010,,,A*4F
$GPRMC,191519.9,A,3330.312059,N,11744.805052,W,36.5,137.6,111010,,,A*40
$GPRMC,191523.2,A,3330.288284,N,11744.776385,W,36.1,135.1,111010,,,A*41
$GPRMC,191526.9,A,3330.262292,N,11744.749099,W,33.5,140.0,111010,,,A*4C
$GPRMC,191529.2,A,3330.245851,N,11744.735693,W,30.3,145.7,111010,,,A*48
$GPRMC,191532.9,A,3330.221971,N,11744.716351,W,28.1,147.8,111010,,,A*44
$GPRMC,191535.9,A,3330.201895,N,11744.703350,W,25.1,148.9,111010,,,A*4C
$GPRMC,191538.9,A,3330.186508,N,11744.690728,W,22.1,148.6,111010,,,A*4C
$GPRMC,191541.9,A,3330.171075,N,11744.679694,W,21.7,149.3,111010,,,A*45
$GPRMC,191544.9,A,3330.155675,N,11744.669408,W,23.1,148.8,111010,,,A*48
$GPRMC,191547.9,A,3330.137343,N,11744.658120,W,23.8,148.8,111010,,,A*4B
$GPRMC,191550.9,A,3330.119256,N,11744.645917,W,25.1,149.5,111010,,,A*47
$GPRMC,191553.9,A,3330.102185,N,11744.632072,W,26.1,149.1,111010,,,A*4E
$GPRMC,191556.9,A,3330.080307,N,11744.622426,W,28.5,152.0,111010,,,A*4D
$GPRMC,191559.9,A,3330.059918,N,11744.605964,W,30.3,148.4,111010,,,A*4C
$GPRMC,191603.2,A,3330.035706,N,11744.585970,W,31.5,147.3,111010,,,A*41
$GPRMC,191606.2,A,3330.013249,N,11744.568667,W,32.6,145.9,111010,,,A*4C
$GPRMC,191609.2,A,3329.991672,N,11744.549043,W,32.5,137.8,111010,,,A*40
$GPRMC,191612.2,A,3329.972745,N,11744.526121,W,33.0,132.7,111010,,,A*40
$GPRMC,191615.9,A,3329.952673,N,11744.497854,W,28.8,127.5,111010,,,A*4E
$GPRMC,191618.9,A,3329.943851,N,11744.481868,W,20.2,123.5,111010,,,A*43
$GPRMC,191621.9,A,3329.936432,N,11744.469086,W,13.6,124.8,111010,,,A*42
$GPRMC,191624.9,A,3329.930358,N,11744.462024,W,10.0,128.3,111010,,,A*4B
$GPRMC,191627.9,A,3329.926851,N,11744.453926,W,8.1,123.1,111010,,,A*75
$GPRMC,191633.9,A,3329.923112,N,11744.445945,W,6.4,120.3,111010,,,A*73
$GPRMC,191636.9,A,3329.919345,N,11744.437549,W,12.5,125.3,111010,,,A*4B
$GPRMC,191639.9,A,3329.908431,N,11744.426542,W,17.2,133.5,111010,,,A*48
$GPRMC,191642.9,A,3329.896612,N,11744.409744,W,22.5,132.9,111010,,,A*44
$GPRMC,191645.9,A,3329.880486,N,11744.388056,W,26.4,136.4,111010,,,A*4D
$GPRMC,191648.9,A,3329.865256,N,11744.372056,W,25.3,140.5,111010,,,A*41
$GPRMC,191651.9,A,3329.848526,N,11744.355685,W,26.2,143.4,111010,,,A*4B
$GPRMC,191654.9,A,3329.829216,N,11744.339666,W,28.7,144.3,111010,,,A*41
$GPRMC,191657.9,A,3329.807315,N,11744.324206,W,29.4,148.6,111010,,,A*49
$GPRMC,191700.2,A,3329.791816,N,11744.312825,W,29.7,150.7,111010,,,A*4C
$GPRMC,191704.2,A,3329.761289,N,11744.294108,W,31.5,154.0,111010,,,A*4A
$GPRMC,191707.9,A,3329.732189,N,11744.277119,W,31.3,152.5,111010,,,A*4F
$GPRMC,191710.9,A,3329.707738,N,11744.263615,W,32.2,153.4,111010,,,A*4F
$GPRMC,191713.9,A,3329.683361,N,11744.248626,W,31.6,151.9,111010,,,A*48
$GPRMC,191716.9,A,3329.662139,N,11744.230378,W,32.2,146.5,111010,,,A*41
$GPRMC,191719.9,A,3329.642692,N,11744.208798,W,32.1,140.4,111010,,,A*4F
$GPRMC,191722.9,A,3329.622788,N,11744.189499,W,30.0,137.9,111010,,,A*4D
$GPRMC,191725.9,A,3329.605495,N,11744.166118,W,29.3,130.4,111010,,,A*4C
$GPRMC,191728.9,A,3329.591781,N,11744.144607,W,28.8,127.9,111010,,,A*41
$GPRMC,191731.9,A,3329.577838,N,11744.121768,W,29.4,126.6,111010,,,A*44
$GPRMC,191734.9,A,3329.561226,N,11744.097701,W,29.3,129.3,111010,,,A*4D
$GPRMC,191737.9,A,3329.548529,N,11744.078429,W,28.3,127.6,111010,,,A*4F
$GPRMC,191740.9,A,3329.534497,N,11744.054177,W,28.8,126.3,111010,,,A*4F
$GPRMC,191743.9,A,3329.518391,N,11744.031288,W,31.1,128.2,111010,,,A*4D
$GPRMC,191746.2,A,3329.505176,N,11744.010573,W,33.7,126.7,111010,,,A*4B
$GPRMC,191749.9,A,3329.483965,N,11743.975458,W,35.9,126.5,111010,,,A*45
$GPRMC,191752.2,A,3329.468822,N,11743.953416,W,36.4,128.3,111010,,,A*4B
$GPRMC,191755.9,A,3329.445814,N,11743.918013,W,37.2,127.2,111010,,,A*4A
$GPRMC,191759.2,A,3329.422297,N,11743.885548,W,38.5,130.1,111010,,,A*4E
$GPRMC,191802.2,A,3329.398651,N,11743.856820,W,41.7,132.7,111010,,,A*42
$GPRMC,191805.2,A,3329.372809,N,11743.825278,W,43.3,135.5,111010,,,A*42
$GPRMC,191808.9,A,3329.339813,N,11743.787408,W,43.7,135.2,111010,,,A*45
$GPRMC,191811.2,A,3329.319728,N,11743.762160,W,44.3,134.5,111010,,,A*46
$GPRMC,191814.9,A,3329.288045,N,11743.725939,W,42.4,134.6,111010,,,A*48
$GPRMC,191817.2,A,3329.270089,N,11743.705610,W,38.7,135.8,111010,,,A*40
$GPRMC,191820.2,A,3329.247703,N,11743.680955,W,38.3,136.6,111010,,,A*4E
$GPRMC,191823.9,A,3329.218962,N,11743.651127,W,38.3,136.8,111010,,,A*4A
$GPRMC,191826.9,A,3329.199238,N,11743.624671,W,36.7,135.9,111010,,,A*4F
$GPRMC,191830.2,A,3329.174531,N,11743.596302,W,37.2,136.3,111010,,,A*48
$GPRMC,191833.9,A,3329.143661,N,11743.558313,W,42.5,135.3,111010,,,A*46
$GPRMC,191836.9,A,3329.120203,N,11743.529309,W,43.0,134.0,111010,,,A*4D
$GPRMC,191839.2,A,3329.098512,N,11743.505175,W,45.2,137.1,111010,,,A*4D
$GPRMC,191842.0,A,3329.072789,N,11743.476833,W,47.9,135.2,111010,,,A*41
$GPRMC,191845.9,A,3329.032664,N,11743.431564,W,49.6,135.7,111010,,,A*41
$GPRMC,191849.2,A,3329.000745,N,11743.393935,W,46.3,136.9,111010,,,A*45
$GPRMC,191852.9,A,3328.966733,N,11743.351479,W,48.6,133.0,111010,,,A*41
$GPRMC,191855.9,A,3328.937755,N,11743.319394,W,46.8,135.5,111010,,,A*49
$GPRMC,191858.9,A,3328.908311,N,11743.286951,W,46.8,136.0,111010,,,A*4E
$GPRMC,191902.2,A,3328.880137,N,11743.250121,W,45.1,135.9,111010,,,A*48
$GPRMC,191905.9,A,3328.845056,N,11743.215856,W,44.1,139.9,111010,,,A*4E
$GPRMC,191908.9,A,3328.817643,N,11743.190816,W,43.5,142.4,111010,,,A*4E
$GPRMC,191911.2,A,3328.794792,N,11743.171173,W,43.0,144.3,111010,,,A*45
$GPRMC,191914.9,A,3328.757690,N,11743.143582,W,42.2,146.8,111010,,,A*46
$GPRMC,191917.9,A,3328.725043,N,11743.121702,W,42.6,150.1,111010,,,A*4C
$GPRMC,191920.9,A,3328.692726,N,11743.102407,W,41.7,152.2,111010,,,A*45
$GPRMC,191923.9,A,3328.665447,N,11743.085494,W,38.0,152.7,111010,,,A*42
$GPRMC,191926.9,A,3328.642765,N,11743.068806,W,32.0,150.3,111010,,,A*49
$GPRMC,191929.9,A,3328.622455,N,11743.052788,W,29.1,154.1,111010,,,A*4D
$GPRMC,191933.2,A,3328.603885,N,11743.039317,W,23.5,150.6,111010,,,A*4D
$GPRMC,191936.2,A,3328.591769,N,11743.030725,W,15.8,152.4,111010,,,A*49
$GPRMC,191939.2,A,3328.582929,N,11743.026186,W,10.3,160.1,111010,,,A*4C
$GPRMC,192003.9,A,3328.566375,N,11743.016553,W,15.9,153.8,111010,,,A*44
$GPRMC,192006.9,A,3328.551645,N,11743.005193,W,18.3,149.3,111010,,,A*4E
$GPRMC,192009.9,A,3328.535533,N,11742.994335,W,19.8,148.7,111010,,,A*40
$GPRMC,192012.9,A,3328.519481,N,11742.984131,W,22.8,151.1,111010,,,A*4D
$GPRMC,192015.9,A,3328.500584,N,11742.971726,W,25.4,150.6,111010,,,A*41
$GPRMC,192018.9,A,3328.481566,N,11742.958238,W,25.5,150.3,111010,,,A*4D
$GPRMC,192021.9,A,3328.461816,N,11742.944171,W,30.2,147.8,111010,,,A*4E
$GPRMC,192024.9,A,3328.439270,N,11742.925939,W,33.8,148.1,111010,,,A*40
$GPRMC,192027.2,A,3328.418626,N,11742.911096,W,35.6,149.1,111010,,,A*4E
$GPRMC,192030.9,A,3328.381068,N,11742.889048,W,39.4,152.0,111010,,,A*4E
$GPRMC,192033.9,A,3328.352191,N,11742.872111,W,38.6,151.8,111010,,,A*45
$GPRMC,192036.9,A,3328.327526,N,11742.854918,W,34.4,151.5,111010,,,A*4C
$GPRMC,192039.9,A,3328.306670,N,11742.838941,W,28.3,152.3,111010,,,A*49
$GPRMC,192042.9,A,3328.292647,N,11742.828581,W,19.3,156.5,111010,,,A*4C
$GPRMC,192045.9,A,3328.284003,N,11742.822708,W,11.7,155.0,111010,,,A*49
$GPRMC,192048.9,A,3328.277762,N,11742.821603,W,5.5,163.0,111010,,,A*73
$GPRMC,192054.9,A,3328.272460,N,11742.817184,W,6.9,148.6,111010,,,A*77
$GPRMC,192057.9,A,3328.264268,N,11742.809837,W,12.6,144.7,111010,,,A*44
$GPRMC,192100.9,A,3328.252582,N,11742.799546,W,19.0,146.8,111010,,,A*4C
$GPRMC,192103.9,A,3328.234079,N,11742.787410,W,25.8,151.9,111010,,,A*43
$GPRMC,192106.9,A,3328.210496,N,11742.774503,W,29.6,150.0,111010,,,A*40
$GPRMC,192109.9,A,3328.187125,N,11742.756768,W,32.6,150.1,111010,,,A*4B
$GPRMC,192112.9,A,3328.163238,N,11742.736788,W,36.2,148.1,111010,,,A*45
$GPRMC,192115.9,A,3328.133472,N,11742.717008,W,40.1,150.6,111010,,,A*4F
$GPRMC,192118.9,A,3328.104381,N,11742.698596,W,39.0,150.7,111010,,,A*47
$GPRMC,192121.9,A,3328.076541,N,11742.681048,W,37.8,150.7,111010,,,A*4B
$GPRMC,192124.9,A,3328.048523,N,11742.663154,W,38.6,151.4,111010,,,A*44
$GPRMC,192127.9,A,3328.019362,N,11742.648420,W,37.6,153.0,111010,,,A*46
$GPRMC,192130.9,A,3327.996752,N,11742.627209,W,35.5,146.2,111010,,,A*45
$GPRMC,192133.9,A,3327.973366,N,11742.604245,W,34.4,137.3,111010,,,A*40
$GPRMC,192136.9,A,3327.953795,N,11742.579719,W,33.7,129.2,111010,,,A*40
$GPRMC,192139.9,A,3327.940086,N,11742.550271,W,33.6,117.7,111010,,,A*41
$GPRMC,192142.9,A,3327.929676,N,11742.520766,W,31.3,109.8,111010,,,A*48
$GPRMC,192145.9,A,3327.927208,N,11742.491804,W,27.5,100.1,111010,,,A*4D
$GPRMC,192148.9,A,3327.925680,N,11742.468904,W,22.3,94.2,111010,,,A*7D
$GPRMC,192151.2,A,3327.924378,N,11742.456205,W,15.8,94.3,111010,,,A*74
$GPRMC,192154.9,A,3327.920661,N,11742.443265,W,9.2,95.0,111010,,,A*44
$GPRMC,192157.9,A,3327.923034,N,11742.438021,W,4.4,81.3,111010,,,A*41
$GPRMC,192218.9,A,3327.925303,N,11742.432732,W,9.2,89.4,111010,,,A*43
$GPRMC,192221.9,A,3327.927907,N,11742.414249,W,18.6,83.0,111010,,,A*72
$GPRMC,192224.9,A,3327.930664,N,11742.389560,W,24.4,85.0,111010,,,A*7F
$GPRMC,192227.9,A,3327.930027,N,11742.362857,W,26.7,87.2,111010,,,A*70
$GPRMC,192230.9,A,3327.930669,N,11742.335969,W,26.7,87.2,111010,,,A*74
$GPRMC,192233.9,A,3327.930699,N,11742.311042,W,25.8,90.0,111010,,,A*76
$GPRMC,192236.9,A,3327.930441,N,11742.286007,W,25.3,89.6,111010,,,A*7F
$GPRMC,192239.9,A,3327.931197,N,11742.260655,W,25.3,89.0,111010,,,A*70
$GPRMC,192242.9,A,3327.931004,N,11742.235422,W,25.4,90.0,111010,,,A*7A
$GPRMC,192245.2,A,3327.932138,N,11742.215693,W,24.5,88.9,111010,,,A*71
$GPRMC,192248.9,A,3327.932938,N,11742.192246,W,17.2,88.0,111010,,,A*71
$GPRMC,192251.2,A,3327.932163,N,11742.183552,W,10.4,91.7,111010,,,A*78
$GPRMC,192254.2,A,3327.930766,N,11742.172555,W,11.4,92.6,111010,,,A*76
$GPRMC,192257.2,A,3327.930631,N,11742.158475,W,15.4,90.6,111010,,,A*7B
$GPRMC,192301.2,A,3327.931682,N,11742.128248,W,23.6,88.4,111010,,,A*73
$GPRMC,192304.2,A,3327.931599,N,11742.103087,W,25.3,89.9,111010,,,A*78
$GPRMC,192308.2,A,3327.932084,N,11742.066678,W,28.1,89.0,111010,,,A*7C
$GPRMC,192311.2,A,3327.932316,N,11742.041667,W,22.8,90.1,111010,,,A*7D
$GPRMC,192314.2,A,3327.932457,N,11742.020242,W,20.7,88.7,111010,,,A*7C
$GPRMC,192317.9,A,3327.933611,N,11741.990874,W,24.7,88.0,111010,,,A*78
$GPRMC,192320.9,A,3327.932219,N,11741.967404,W,24.0,92.0,111010,,,A*7E
$GPRMC,192323.9,A,3327.931203,N,11741.943149,W,24.0,91.1,111010,,,A*7D
$GPRMC,192326.2,A,3327.930334,N,11741.926870,W,21.2,92.6,111010,,,A*74
$GPRMC,192329.2,A,3327.930631,N,11741.908581,W,17.6,91.6,111010,,,A*76
$GPRMC,192332.9,A,3327.932032,N,11741.891273,W,13.3,83.4,111010,,,A*7B
$GPRMC,192344.9,A,3327.932580,N,11741.877681,W,7.7,92.0,111010,,,A*42
$GPRMC,192348.2,A,3327.935388,N,11741.862535,W,15.4,82.0,111010,,,A*75
$GPRMC,192351.0,A,3327.938876,N,11741.845965,W,18.1,77.5,111010,,,A*73
$GPRMC,192354.9,A,3327.943629,N,11741.819065,W,22.0,74.2,111010,,,A*7B
$GPRMC,192357.9,A,3327.952439,N,11741.799904,W,22.1,63.7,111010,,,A*70
$GPRMC,192400.9,A,3327.958252,N,11741.775542,W,26.1,68.5,111010,,,A*75
$GPRMC,192403.2,A,3327.966554,N,11741.757952,W,26.8,63.5,111010,,,A*7E
$GPRMC,192406.9,A,3327.978745,N,11741.725846,W,27.6,66.1,111010,,,A*72
$GPRMC,192409.2,A,3327.987068,N,11741.706469,W,27.0,66.3,111010,,,A*7A
$GPRMC,192412.2,A,3327.990794,N,11741.679592,W,27.6,79.6,111010,,,A*73
$GPRMC,192415.2,A,3327.990532,N,11741.650399,W,29.0,89.1,111010,,,A*7C
$GPRMC,192418.2,A,3327.988208,N,11741.621773,W,30.5,99.7,111010,,,A*7A
$GPRMC,192421.9,A,3327.976930,N,11741.587523,W,31.7,108.9,111010,,,A*46
$GPRMC,192424.9,A,3327.969781,N,11741.555899,W,33.2,103.7,111010,,,A*48
$GPRMC,192427.9,A,3327.964074,N,11741.522356,W,35.6,101.7,111010,,,A*43
$GPRMC,192430.9,A,3327.959948,N,11741.488726,W,33.0,101.0,111010,,,A*48
$GPRMC,192433.9,A,3327.954662,N,11741.454594,W,35.1,102.8,111010,,,A*47
$GPRMC,192436.9,A,3327.946181,N,11741.423213,W,32.1,106.0,111010,,,A*48
$GPRMC,192439.9,A,3327.939367,N,11741.389065,W,32.9,106.3,111010,,,A*4A
$GPRMC,192442.9,A,3327.928210,N,11741.360461,W,28.8,108.5,111010,,,A*42
$GPRMC,192445.9,A,3327.919936,N,11741.335103,W,26.2,109.9,111010,,,A*40
$GPRMC,192448.9,A,3327.915915,N,11741.314133,W,20.8,106.0,111010,,,A*4A
$GPRMC,192451.9,A,3327.911189,N,11741.300818,W,13.1,110.3,111010,,,A*43
$GPRMC,192454.9,A,3327.909213,N,11741.293225,W,6.3,105.4,111010,,,A*75
$GPRMC,192530.9,A,3327.904663,N,11741.277168,W,8.4,105.1,111010,,,A*74
$GPRMC,192533.9,A,3327.901206,N,11741.263248,W,16.5,105.8,111010,,,A*46
$GPRMC,192536.9,A,3327.895259,N,11741.241063,W,23.3,109.3,111010,,,A*49
$GPRMC,192539.9,A,3327.888271,N,11741.216423,W,25.1,107.3,111010,,,A*48
$GPRMC,192542.2,A,3327.883112,N,11741.198317,W,24.4,110.7,111010,,,A*41
$GPRMC,192545.9,A,3327.875395,N,11741.170743,W,22.0,109.7,111010,,,A*40
$GPRMC,192549.2,A,3327.868578,N,11741.148661,W,23.8,111.4,111010,,,A*47
$GPRMC,192552.0,A,3327.862883,N,11741.123658,W,28.4,108.3,111010,,,A*43
$GPRMC,192556.2,A,3327.852612,N,11741.084038,W,29.1,107.8,111010,,,A*4C
$GPRMC,192559.9,A,3327.847657,N,11741.056864,W,21.6,101.4,111010,,,A*46
$GPRMC,192602.9,A,3327.842821,N,11741.040904,W,15.7,101.4,111010,,,A*47
$GPRMC,192605.9,A,3327.840465,N,11741.022693,W,21.2,97.5,111010,,,A*76
$GPRMC,192608.9,A,3327.837278,N,11740.998899,W,25.6,103.3,111010,,,A*46
$GPRMC,192611.9,A,3327.830301,N,11740.969534,W,29.0,105.7,111010,,,A*4A
$GPRMC,192614.9,A,3327.821694,N,11740.938439,W,30.6,107.7,111010,,,A*42
$GPRMC,192617.9,A,3327.811104,N,11740.905063,W,32.9,109.7,111010,,,A*4A
$GPRMC,192620.9,A,3327.801088,N,11740.875836,W,32.4,110.9,111010,,,A*4F
$GPRMC,192623.9,A,3327.793979,N,11740.848832,W,31.9,109.1,111010,,,A*4B
$GPRMC,192627.2,A,3327.785187,N,11740.816185,W,32.3,109.3,111010,,,A*4F
$GPRMC,192630.2,A,3327.776680,N,11740.788849,W,28.1,111.0,111010,,,A*47
$GPRMC,192633.0,A,3327.770916,N,11740.772801,W,20.1,120.0,111010,,,A*43
$GPRMC,192636.9,A,3327.765205,N,11740.753931,W,11.8,97.4,111010,,,A*71
$GPRMC,192639.9,A,3327.771575,N,11740.744469,W,12.5,39.1,111010,,,A*72
$GPRMC,192642.9,A,3327.787458,N,11740.749126,W,17.7,351.9,111010,,,A*48
$GPRMC,192645.9,A,3327.805324,N,11740.754186,W,21.9,352.9,111010,,,A*48
$GPRMC,192648.9,A,3327.826784,N,11740.751392,W,26.1,8.2,111010,,,A*40
$GPRMC,192652.2,A,3327.849255,N,11740.742412,W,26.5,17.2,111010,,,A*77
$GPRMC,192655.2,A,3327.867077,N,11740.731240,W,20.7,29.0,111010,,,A*70
$GPRMC,192658.9,A,3327.877577,N,11740.723350,W,10.6,31.2,111010,,,A*78
$GPRMC,192701.9,A,3327.880105,N,11740.721319,W,4.4,29.0,111010,,,A*4F
$GPRMC,192722.9,A,3327.888181,N,11740.719387,W,9.2,35.3,111010,,,A*43
$GPRMC,192725.9,A,3327.899463,N,11740.710088,W,17.2,32.9,111010,,,A*7A
$GPRMC,192728.9,A,3327.913173,N,11740.697025,W,22.4,34.2,111010,,,A*74
$GPRMC,192731.9,A,3327.930400,N,11740.683434,W,24.7,32.9,111010,,,A*75
$GPRMC,192734.9,A,3327.945827,N,11740.669441,W,22.0,35.6,111010,,,A*74
$GPRMC,192737.9,A,3327.957846,N,11740.662416,W,15.7,32.6,111010,,,A*7E
$GPRMC,192740.9,A,3327.964741,N,11740.654538,W,9.6,36.3,111010,,,A*43
$GPRMC,192743.9,A,3327.970290,N,11740.651820,W,8.1,30.5,111010,,,A*4B
$GPRMC,192746.9,A,3327.978916,N,11740.646206,W,13.0,32.9,111010,,,A*7E
$GPRMC,192749.9,A,3327.990013,N,11740.635778,W,20.0,34.5,111010,,,A*79
$GPRMC,192752.9,A,3328.007742,N,11740.619547,W,25.9,33.8,111010,,,A*7E
$GPRMC,192755.9,A,3328.026957,N,11740.603625,W,28.0,34.8,111010,,,A*7F
$GPRMC,192758.9,A,3328.049032,N,11740.589071,W,29.7,33.9,111010,,,A*77
$GPRMC,192801.9,A,3328.070494,N,11740.570124,W,30.1,32.1,111010,,,A*76
$GPRMC,192804.9,A,3328.093043,N,11740.555338,W,29.2,25.1,111010,,,A*75
$GPRMC,192807.9,A,3328.117630,N,11740.546419,W,29.4,20.1,111010,,,A*7C
$GPRMC,192810.9,A,3328.137623,N,11740.538301,W,26.1,15.2,111010,,,A*72
$GPRMC,192813.9,A,3328.159526,N,11740.532994,W,28.3,10.2,111010,,,A*7A
$GPRMC,192816.9,A,3328.185281,N,11740.531932,W,29.4,4.0,111010,,,A*4A
$GPRMC,192819.9,A,3328.209910,N,11740.530637,W,29.7,4.9,111010,,,A*40
$GPRMC,192822.9,A,3328.233969,N,11740.529654,W,31.0,4.3,111010,,,A*46
$GPRMC,192825.9,A,3328.261492,N,11740.527831,W,33.2,5.0,111010,,,A*4E
$GPRMC,192828.9,A,3328.288958,N,11740.523770,W,33.7,5.8,111010,,,A*4C
$GPRMC,192831.9,A,3328.315620,N,11740.521534,W,31.8,4.8,111010,,,A*4D
$GPRMC,192834.2,A,3328.334099,N,11740.519218,W,28.1,4.5,111010,,,A*4A
$GPRMC,192837.2,A,3328.355900,N,11740.517487,W,23.1,5.5,111010,,,A*43
$GPRMC,192840.2,A,3328.373826,N,11740.515299,W,19.9,5.5,111010,,,A*48
$GPRMC,192843.9,A,3328.390811,N,11740.514037,W,13.6,7.2,111010,,,A*4E
$GPRMC,192846.9,A,3328.398061,N,11740.511288,W,8.0,9.9,111010,,,A*76
$GPRMC,192904.9,A,3328.408544,N,11740.505380,W,8.8,31.2,111010,,,A*49
$GPRMC,192907.9,A,3328.417475,N,11740.496047,W,14.2,44.8,111010,,,A*7B
$GPRMC,192910.2,A,3328.424780,N,11740.485673,W,15.5,47.9,111010,,,A*78
$GPRMC,192913.2,A,3328.442890,N,11740.463913,W,26.8,38.8,111010,,,A*70
$GPRMC,192916.9,A,3328.474652,N,11740.441757,W,35.8,34.8,111010,,,A*7B
$GPRMC,192919.9,A,3328.505700,N,11740.430084,W,38.5,17.6,111010,,,A*75
$GPRMC,192922.2,A,3328.530731,N,11740.424377,W,41.5,11.1,111010,,,A*77
$GPRMC,192925.9,A,3328.573956,N,11740.412517,W,44.1,15.1,111010,,,A*73
$GPRMC,192928.9,A,3328.609170,N,11740.399400,W,44.1,18.6,111010,,,A*75
$GPRMC,192931.9,A,3328.646859,N,11740.377537,W,47.6,26.2,111010,,,A*7C
$GPRMC,192934.9,A,3328.679273,N,11740.353932,W,48.1,31.4,111010,,,A*70
$GPRMC,192937.9,A,3328.715619,N,11740.323731,W,52.6,34.9,111010,,,A*7E
$GPRMC,192940.9,A,3328.752755,N,11740.296522,W,53.3,33.8,111010,,,A*79
$GPRMC,192943.9,A,3328.789247,N,11740.267381,W,52.1,34.9,111010,,,A*7E
$GPRMC,192946.9,A,3328.819764,N,11740.239781,W,48.0,35.5,111010,,,A*71
$GPRMC,192949.9,A,3328.853821,N,11740.212104,W,48.2,35.5,111010,,,A*7E
$GPRMC,192952.9,A,3328.887305,N,11740.183967,W,47.5,35.7,111010,,,A*7C
$GPRMC,192955.9,A,3328.918527,N,11740.158039,W,46.2,36.4,111010,,,A*78
$GPRMC,192958.9,A,3328.948148,N,11740.128425,W,47.3,36.8,111010,,,A*7F
$GPRMC,193001.9,A,3328.981644,N,11740.100817,W,46.9,35.6,111010,,,A*74
$GPRMC,193004.9,A,3329.014234,N,11740.073119,W,47.1,34.6,111010,,,A*7C
$GPRMC,193007.9,A,3329.045320,N,11740.045141,W,47.0,35.5,111010,,,A*74
$GPRMC,193010.9,A,3329.076972,N,11740.018149,W,47.7,35.8,111010,,,A*75
$GPRMC,193013.9,A,3329.110133,N,11739.991277,W,49.7,34.5,111010,,,A*70
$GPRMC,193016.9,A,3329.144936,N,11739.965591,W,49.8,33.8,111010,,,A*78
$GPRMC,193019.9,A,3329.179909,N,11739.936963,W,50.9,33.4,111010,,,A*77
$GPRMC,193022.9,A,3329.217564,N,11739.910692,W,52.0,31.9,111010,,,A*72
$GPRMC,193025.9,A,3329.254473,N,11739.882505,W,51.6,32.2,111010,,,A*7F
$GPRMC,193028.9,A,3329.291402,N,11739.856375,W,52.3,32.4,111010,,,A*75
$GPRMC,193031.9,A,3329.327891,N,11739.827180,W,53.2,32.8,111010,,,A*75
$GPRMC,193034.9,A,3329.363854,N,11739.799893,W,52.6,32.7,111010,,,A*72
$GPRMC,193037.9,A,3329.401969,N,11739.770539,W,53.2,32.8,111010,,,A*7D
$GPRMC,193040.9,A,3329.440384,N,11739.741215,W,52.9,32.4,111010,,,A*7C
$GPRMC,193043.9,A,3329.478266,N,11739.714778,W,52.4,31.9,111010,,,A*74
$GPRMC,193046.9,A,3329.513431,N,11739.685975,W,52.1,33.3,111010,,,A*7E
$GPRMC,193049.9,A,3329.550273,N,11739.658495,W,52.5,32.4,111010,,,A*77
$GPRMC,193052.9,A,3329.586542,N,11739.630498,W,52.3,30.7,111010,,,A*77
$GPRMC,193055.9,A,3329.625290,N,11739.606555,W,51.9,27.3,111010,,,A*7C
$GPRMC,193058.9,A,3329.664512,N,11739.581760,W,52.2,25.9,111010,,,A*71
$GPRMC,193101.2,A,3329.695583,N,11739.565606,W,51.8,23.6,111010,,,A*7A
$GPRMC,193143.2,A,3330.146298,N,11739.471835,W,7.8,344.5,111010,,,A*78
$GPRMC,193232.9,A,3330.156548,N,11739.456750,W,10.8,35.9,111010,,,A*7B
$GPRMC,193235.9,A,3330.163240,N,11739.435683,W,21.4,68.6,111010,,,A*76
$GPRMC,193238.9,A,3330.174326,N,11739.412953,W,23.3,66.4,111010,,,A*72
$GPRMC,193241.9,A,3330.179843,N,11739.389060,W,24.0,73.6,111010,,,A*77
$GPRMC,193245.2,A,3330.188055,N,11739.362091,W,25.6,69.1,111010,,,A*79
$GPRMC,193248.2,A,3330.195325,N,11739.340083,W,23.5,69.0,111010,,,A*7B
$GPRMC,193251.2,A,3330.202375,N,11739.320449,W,20.0,67.4,111010,,,A*73
$GPRMC,193254.9,A,3330.206987,N,11739.307001,W,10.2,62.5,111010,,,A*76
$GPRMC,193334.9,A,3330.209274,N,11739.286904,W,9.1,65.3,111010,,,A*47
$GPRMC,193337.2,A,3330.212488,N,11739.274780,W,15.4,74.2,111010,,,A*76
$GPRMC,193340.2,A,3330.224569,N,11739.244540,W,34.1,65.5,111010,,,A*71
$GPRMC,193343.9,A,3330.242081,N,11739.206359,W,35.4,60.0,111010,,,A*76
$GPRMC,193346.9,A,3330.261856,N,11739.175450,W,37.7,51.9,111010,,,A*73
$GPRMC,193349.9,A,3330.283101,N,11739.147963,W,38.4,44.7,111010,,,A*71
$GPRMC,193352.9,A,3330.310801,N,11739.123832,W,38.8,35.5,111010,,,A*76
$GPRMC,193355.9,A,3330.336988,N,11739.102872,W,37.2,30.3,111010,,,A*74
$GPRMC,193358.2,A,3330.356782,N,11739.089967,W,35.6,27.9,111010,,,A*7D
$GPRMC,193401.0,A,3330.381720,N,11739.072662,W,36.3,33.3,111010,,,A*71
$GPRMC,193404.9,A,3330.412962,N,11739.043894,W,36.4,40.8,111010,,,A*75
$GPRMC,193407.2,A,3330.429261,N,11739.021335,W,38.4,50.1,111010,,,A*7F
$GPRMC,193410.9,A,3330.453920,N,11738.985653,W,37.0,52.9,111010,,,A*73
$GPRMC,193413.9,A,3330.473082,N,11738.956259,W,36.7,52.3,111010,,,A*7F
$GPRMC,193416.9,A,3330.491842,N,11738.924445,W,38.2,53.3,111010,,,A*76
$GPRMC,193419.9,A,3330.508049,N,11738.897222,W,36.0,54.1,111010,,,A*7C
$GPRMC,193422.9,A,3330.525756,N,11738.866862,W,35.3,55.0,111010,,,A*72
$GPRMC,193425.9,A,3330.544871,N,11738.835647,W,37.3,53.9,111010,,,A*7A
$GPRMC,193428.9,A,3330.564927,N,11738.802435,W,38.2,54.4,111010,,,A*70
$GPRMC,193431.9,A,3330.582922,N,11738.772400,W,37.2,56.3,111010,,,A*71
$GPRMC,193434.2,A,3330.595664,N,11738.748154,W,36.5,57.3,111010,,,A*7E
$GPRMC,193437.9,A,3330.616794,N,11738.706987,W,38.9,58.4,111010,,,A*76
$GPRMC,193440.2,A,3330.629744,N,11738.681904,W,37.8,58.5,111010,,,A*76
$GPRMC,193444.2,A,3330.652452,N,11738.640079,W,38.9,59.4,111010,,,A*7A
$GPRMC,193447.2,A,3330.669721,N,11738.608178,W,37.3,57.2,111010,,,A*77
$GPRMC,193451.2,A,3330.689272,N,11738.569314,W,35.7,57.0,111010,,,A*75
$GPRMC,193454.2,A,3330.704692,N,11738.536607,W,38.3,61.2,111010,,,A*7D
$GPRMC,193457.9,A,3330.720379,N,11738.494969,W,38.0,65.3,111010,,,A*7B
$GPRMC,193500.9,A,3330.734196,N,11738.461136,W,37.9,66.5,111010,,,A*75
$GPRMC,193503.2,A,3330.743569,N,11738.431404,W,40.6,70.4,111010,,,A*71
$GPRMC,193506.2,A,3330.753408,N,11738.393570,W,40.5,74.0,111010,,,A*7D
$GPRMC,193509.2,A,3330.761645,N,11738.351678,W,41.5,76.1,111010,,,A*7F
$GPRMC,193512.0,A,3330.769891,N,11738.314952,W,41.1,73.1,111010,,,A*7F
$GPRMC,193515.9,A,3330.783963,N,11738.264988,W,40.0,69.7,111010,,,A*75
$GPRMC,193518.9,A,3330.800096,N,11738.231988,W,38.8,63.6,111010,,,A*73
$GPRMC,193521.9,A,3330.817887,N,11738.199674,W,37.1,59.1,111010,,,A*72
$GPRMC,193524.9,A,3330.832047,N,11738.168573,W,35.8,62.5,111010,,,A*79
$GPRMC,193527.9,A,3330.844644,N,11738.138533,W,35.1,65.9,111010,,,A*7D
$GPRMC,193531.2,A,3330.856470,N,11738.101919,W,35.5,69.8,111010,,,A*70
$GPRMC,193534.2,A,3330.868191,N,11738.066808,W,35.3,68.7,111010,,,A*7B
$GPRMC,193537.2,A,3330.876625,N,11738.033898,W,34.0,70.2,111010,,,A*78
$GPRMC,193540.9,A,3330.890064,N,11737.998925,W,32.5,67.8,111010,,,A*77
$GPRMC,193543.9,A,3330.899823,N,11737.973396,W,30.6,63.0,111010,,,A*7C
$GPRMC,193547.2,A,3330.914669,N,11737.944681,W,30.5,57.2,111010,,,A*76
$GPRMC,193550.2,A,3330.931217,N,11737.914559,W,34.6,56.3,111010,,,A*7E
$GPRMC,193553.9,A,3330.954453,N,11737.877808,W,37.7,54.7,111010,,,A*7A
$GPRMC,193556.9,A,3330.974524,N,11737.846767,W,37.7,52.2,111010,,,A*7B
$GPRMC,193559.9,A,3330.992312,N,11737.822508,W,35.3,52.4,111010,,,A*76
$GPRMC,193602.9,A,3331.007974,N,11737.793694,W,33.9,56.0,111010,,,A*7A
$GPRMC,193605.9,A,3331.025875,N,11737.765553,W,35.6,52.0,111010,,,A*71
$GPRMC,193608.9,A,3331.045593,N,11737.735988,W,36.8,50.8,111010,,,A*77
$GPRMC,193611.9,A,3331.065587,N,11737.707953,W,35.7,49.8,111010,,,A*7B
$GPRMC,193614.9,A,3331.083738,N,11737.680157,W,34.1,51.3,111010,,,A*77
$GPRMC,193617.9,A,3331.100268,N,11737.656262,W,32.5,52.4,111010,,,A*76
$GPRMC,193620.9,A,3331.114614,N,11737.629011,W,30.2,59.1,111010,,,A*7D
$GPRMC,193623.9,A,3331.123490,N,11737.604784,W,26.4,65.9,111010,,,A*76
$GPRMC,193626.9,A,3331.129365,N,11737.579883,W,25.2,71.8,111010,,,A*74
$GPRMC,193629.9,A,3331.135235,N,11737.555826,W,25.3,72.0,111010,,,A*79
$GPRMC,193632.9,A,3331.139999,N,11737.532017,W,24.2,77.8,111010,,,A*74
$GPRMC,193635.9,A,3331.144144,N,11737.510609,W,24.0,80.7,111010,,,A*7D
$GPRMC,193638.9,A,3331.146219,N,11737.484752,W,26.1,84.1,111010,,,A*7B
$GPRMC,193641.9,A,3331.149147,N,11737.457056,W,28.1,84.6,111010,,,A*76
$GPRMC,193644.9,A,3331.152241,N,11737.428436,W,27.6,83.7,111010,,,A*78
$GPRMC,193647.9,A,3331.156373,N,11737.399934,W,29.5,83.3,111010,,,A*74
$GPRMC,193650.9,A,3331.155856,N,11737.366412,W,33.0,88.3,111010,,,A*71
$GPRMC,193653.9,A,3331.158021,N,11737.332491,W,35.6,85.9,111010,,,A*7A
$GPRMC,193656.9,A,3331.159779,N,11737.296217,W,35.5,86.3,111010,,,A*79
$GPRMC,193659.9,A,3331.162030,N,11737.264482,W,30.9,84.1,111010,,,A*7A
$GPRMC,193702.9,A,3331.166278,N,11737.237909,W,25.8,82.5,111010,,,A*70
$GPRMC,193706.2,A,3331.167456,N,11737.211695,W,22.9,81.4,111010,,,A*7E
$GPRMC,193709.0,A,3331.169879,N,11737.190050,W,23.2,79.4,111010,,,A*74
$GPRMC,193712.9,A,3331.177424,N,11737.161144,W,24.1,75.0,111010,,,A*7A
$GPRMC,193715.9,A,3331.183208,N,11737.135746,W,27.7,74.1,111010,,,A*7E
$GPRMC,193718.9,A,3331.192256,N,11737.104457,W,32.3,71.0,111010,,,A*7D
$GPRMC,193721.9,A,3331.197070,N,11737.073743,W,33.5,73.9,111010,,,A*7F
$GPRMC,193724.9,A,3331.206759,N,11737.039596,W,34.2,72.4,111010,,,A*75
$GPRMC,193727.9,A,3331.216805,N,11737.009800,W,32.8,71.1,111010,,,A*7A
$GPRMC,193730.9,A,3331.225703,N,11736.982541,W,28.8,70.8,111010,,,A*75
$GPRMC,193733.9,A,3331.237040,N,11736.961768,W,27.7,64.3,111010,,,A*7F
$GPRMC,193736.9,A,3331.247610,N,11736.933959,W,30.0,62.9,111010,,,A*78
$GPRMC,193739.9,A,3331.262755,N,11736.906934,W,30.8,58.3,111010,,,A*76
$GPRMC,193742.9,A,3331.277762,N,11736.881616,W,30.8,57.5,111010,,,A*72
$GPRMC,193745.9,A,3331.293789,N,11736.854365,W,30.9,55.2,111010,,,A*77
$GPRMC,193748.9,A,3331.306154,N,11736.829367,W,30.3,61.1,111010,,,A*77
$GPRMC,193752.2,A,3331.316111,N,11736.795751,W,33.0,72.2,111010,,,A*7F
$GPRMC,193755.9,A,3331.319513,N,11736.752095,W,38.1,86.9,111010,,,A*74
$GPRMC,193758.9,A,3331.319939,N,11736.712712,W,39.5,91.5,111010,,,A*7E
$GPRMC,193801.9,A,3331.313899,N,11736.672116,W,42.3,97.8,111010,,,A*78
$GPRMC,193804.9,A,3331.309179,N,11736.629092,W,43.5,97.7,111010,,,A*7A
$GPRMC,193807.9,A,3331.306021,N,11736.587264,W,42.3,91.5,111010,,,A*75
$GPRMC,193810.2,A,3331.311657,N,11736.553942,W,40.8,79.0,111010,,,A*75
$GPRMC,193813.9,A,3331.330104,N,11736.509383,W,39.8,64.4,111010,,,A*71
$GPRMC,193816.9,A,3331.342231,N,11736.473899,W,37.8,68.3,111010,,,A*7D
$GPRMC,193819.9,A,3331.348962,N,11736.437001,W,39.1,80.3,111010,,,A*7D
$GPRMC,193822.9,A,3331.350152,N,11736.396949,W,41.9,90.9,111010,,,A*72
$GPRMC,193825.9,A,3331.345279,N,11736.355328,W,42.6,97.0,111010,,,A*7B
$GPRMC,193828.9,A,3331.336693,N,11736.314150,W,43.9,106.1,111010,,,A*4C
$GPRMC,193832.2,A,3331.317982,N,11736.271630,W,43.1,120.4,111010,,,A*4A
$GPRMC,193835.9,A,3331.287337,N,11736.230820,W,44.1,133.1,111010,,,A*40
$GPRMC,193838.9,A,3331.259466,N,11736.198711,W,46.2,136.1,111010,,,A*45
$GPRMC,193841.9,A,3331.228534,N,11736.167857,W,47.2,138.2,111010,,,A*4A
$GPRMC,193844.9,A,3331.199868,N,11736.137089,W,46.5,137.7,111010,,,A*40
$GPRMC,193847.9,A,3331.174076,N,11736.107755,W,46.0,131.5,111010,,,A*43
$GPRMC,193850.9,A,3331.156067,N,11736.066785,W,46.4,116.9,111010,,,A*43
$GPRMC,193853.2,A,3331.144805,N,11736.032148,W,47.1,112.6,111010,,,A*4D
$GPRMC,193856.0,A,3331.132375,N,11735.992361,W,45.7,110.6,111010,,,A*48
$GPRMC,193859.9,A,3331.115249,N,11735.936936,W,43.9,109.7,111010,,,A*42
$GPRMC,193902.9,A,3331.103373,N,11735.895151,W,43.9,109.9,111010,,,A*4D
$GPRMC,193905.9,A,3331.089111,N,11735.849848,W,46.2,110.5,111010,,,A*45
$GPRMC,193908.9,A,3331.074183,N,11735.807171,W,46.7,112.1,111010,,,A*4B
$GPRMC,193911.9,A,3331.059264,N,11735.763704,W,47.6,110.1,111010,,,A*4D
$GPRMC,193914.9,A,3331.045878,N,11735.717551,W,47.9,110.5,111010,,,A*48
$GPRMC,193917.9,A,3331.031183,N,11735.670718,W,47.8,110.7,111010,,,A*49
$GPRMC,193920.9,A,3331.017377,N,11735.630672,W,44.9,110.8,111010,,,A*44
$GPRMC,193923.9,A,3331.003900,N,11735.588870,W,45.5,111.4,111010,,,A*44
$GPRMC,193926.2,A,3330.991455,N,11735.560914,W,45.0,122.0,111010,,,A*40
$GPRMC,193929.9,A,3330.966382,N,11735.518331,W,45.3,127.6,111010,,,A*43
$GPRMC,193932.9,A,3330.944034,N,11735.479759,W,47.5,123.7,111010,,,A*4A
$GPRMC,193935.9,A,3330.925311,N,11735.437595,W,48.1,113.6,111010,,,A*4F
$GPRMC,193938.9,A,3330.913664,N,11735.392792,W,48.2,109.0,111010,,,A*43
$GPRMC,193942.2,A,3330.900804,N,11735.340514,W,48.3,108.2,111010,,,A*4E
$GPRMC,193945.9,A,3330.886421,N,11735.288629,W,44.0,107.4,111010,,,A*48
$GPRMC,193948.9,A,3330.877654,N,11735.246018,W,43.5,100.8,111010,,,A*44
$GPRMC,193952.2,A,3330.877523,N,11735.195893,W,43.8,87.9,111010,,,A*73
$GPRMC,193955.9,A,3330.882020,N,11735.141515,W,43.7,87.5,111010,,,A*7A
$GPRMC,193958.9,A,3330.873490,N,11735.098756,W,44.0,101.3,111010,,,A*4F
$GPRMC,194002.2,A,3330.859001,N,11735.055246,W,42.1,111.9,111010,,,A*48
$GPRMC,194005.9,A,3330.832919,N,11735.010602,W,44.8,119.3,111010,,,A*41
$GPRMC,194008.2,A,3330.822687,N,11734.977662,W,45.6,110.7,111010,,,A*43
$GPRMC,194011.0,A,3330.815318,N,11734.938160,W,44.0,101.3,111010,,,A*43
$GPRMC,194014.9,A,3330.816516,N,11734.871972,W,49.8,86.9,111010,,,A*72
$GPRMC,194017.9,A,3330.823988,N,11734.818454,W,52.0,82.7,111010,,,A*72
$GPRMC,194020.9,A,3330.832486,N,11734.769084,W,52.0,82.2,111010,,,A*70
$GPRMC,194023.9,A,3330.837191,N,11734.718806,W,51.0,83.0,111010,,,A*71
$GPRMC,194026.9,A,3330.841004,N,11734.669664,W,49.9,82.9,111010,,,A*7D
$GPRMC,194029.9,A,3330.847374,N,11734.620738,W,49.2,81.7,111010,,,A*73
$GPRMC,194032.9,A,3330.855856,N,11734.570576,W,49.5,80.0,111010,,,A*7E
$GPRMC,194035.9,A,3330.862417,N,11734.522131,W,48.9,79.6,111010,,,A*79
$GPRMC,194038.9,A,3330.872610,N,11734.478248,W,46.7,74.0,111010,,,A*78
$GPRMC,194041.9,A,3330.880898,N,11734.431825,W,47.2,79.3,111010,,,A*73
$GPRMC,194044.9,A,3330.885473,N,11734.387603,W,46.1,87.0,111010,,,A*7A
$GPRMC,194047.9,A,3330.879300,N,11734.343639,W,45.0,97.9,111010,,,A*72
$GPRMC,194050.9,A,3330.871071,N,11734.299957,W,44.2,100.6,111010,,,A*4B
$GPRMC,194053.9,A,3330.863205,N,11734.255883,W,45.0,97.4,111010,,,A*7C
$GPRMC,194056.9,A,3330.859984,N,11734.208628,W,48.0,93.3,111010,,,A*7B
$GPRMC,194100.2,A,3330.858528,N,11734.153289,W,50.3,89.6,111010,,,A*7F
$GPRMC,194103.2,A,3330.861627,N,11734.104621,W,49.0,87.3,111010,,,A*7E
$GPRMC,194106.2,A,3330.865622,N,11734.057449,W,48.1,82.4,111010,,,A*73
$GPRMC,194109.2,A,3330.872602,N,11734.010895,W,47.6,76.8,111010,,,A*79
$GPRMC,194112.9,A,3330.889556,N,11733.955959,W,47.7,69.2,111010,,,A*75
$GPRMC,194116.2,A,3330.910983,N,11733.908873,W,48.7,58.8,111010,,,A*79
$GPRMC,194119.9,A,3330.945934,N,11733.865960,W,46.2,44.1,111010,,,A*77
$GPRMC,194122.9,A,3330.977830,N,11733.839998,W,46.5,34.8,111010,,,A*7C
$GPRMC,194125.9,A,3331.010084,N,11733.812582,W,47.4,35.1,111010,,,A*73
$GPRMC,194128.9,A,3331.040915,N,11733.784283,W,46.5,39.9,111010,,,A*78
$GPRMC,194131.9,A,3331.068927,N,11733.754633,W,45.6,44.1,111010,,,A*7B
$GPRMC,194134.9,A,3331.098271,N,11733.721363,W,47.2,47.3,111010,,,A*7C
$GPRMC,194137.9,A,3331.123746,N,11733.684634,W,46.7,47.7,111010,,,A*76
$GPRMC,194140.9,A,3331.151987,N,11733.654133,W,46.3,40.7,111010,,,A*7E
$GPRMC,194143.9,A,3331.181464,N,11733.626273,W,46.1,33.8,111010,,,A*7B
$GPRMC,194146.2,A,3331.210064,N,11733.611681,W,47.6,24.0,111010,,,A*7F
$GPRMC,194149.9,A,3331.255909,N,11733.591757,W,48.4,17.4,111010,,,A*70
$GPRMC,194152.2,A,3331.285160,N,11733.581251,W,46.5,18.4,111010,,,A*79
$GPRMC,194155.9,A,3331.331048,N,11733.554788,W,48.5,27.9,111010,,,A*76
$GPRMC,194158.9,A,3331.358270,N,11733.518759,W,49.2,48.1,111010,,,A*7E
$GPRMC,194201.9,A,3331.380703,N,11733.476932,W,49.6,58.5,111010,,,A*7E
$GPRMC,194204.9,A,3331.401697,N,11733.431707,W,50.4,60.8,111010,,,A*7E
$GPRMC,194207.9,A,3331.422395,N,11733.388614,W,49.0,60.9,111010,,,A*70
$GPRMC,194210.9,A,3331.443128,N,11733.345258,W,49.4,60.2,111010,,,A*77
$GPRMC,194213.9,A,3331.463160,N,11733.305004,W,46.9,57.4,111010,,,A*75
$GPRMC,194217.2,A,3331.487322,N,11733.268623,W,45.2,47.8,111010,,,A*78
$GPRMC,194220.9,A,3331.523515,N,11733.234707,W,46.3,38.5,111010,,,A*73
$GPRMC,194223.2,A,3331.549394,N,11733.217481,W,45.8,28.8,111010,,,A*70
$GPRMC,194227.2,A,3331.600025,N,11733.194533,W,50.1,20.6,111010,,,A*78
$GPRMC,194230.2,A,3331.642599,N,11733.183298,W,53.6,10.6,111010,,,A*7D
$GPRMC,194233.9,A,3331.696738,N,11733.172527,W,51.8,8.1,111010,,,A*4A
$GPRMC,194237.2,A,3331.741895,N,11733.161078,W,50.2,15.0,111010,,,A*7D
$GPRMC,194240.0,A,3331.772504,N,11733.147692,W,46.3,21.7,111010,,,A*7A
$GPRMC,194243.0,A,3331.810201,N,11733.122400,W,49.8,29.2,111010,,,A*73
$GPRMC,194246.9,A,3331.854948,N,11733.086553,W,48.5,31.8,111010,,,A*7E
$GPRMC,194249.9,A,3331.889756,N,11733.060450,W,47.8,32.6,111010,,,A*75
$GPRMC,194252.2,A,3331.913657,N,11733.042617,W,47.4,30.5,111010,,,A*7A
$GPRMC,194256.2,A,3331.957445,N,11733.014869,W,46.4,24.0,111010,,,A*7A
$GPRMC,194259.2,A,3331.995780,N,11732.996585,W,47.5,22.3,111010,,,A*79
$GPRMC,194302.2,A,3332.037045,N,11732.982362,W,49.0,16.5,111010,,,A*7A
$GPRMC,194305.2,A,3332.077703,N,11732.971342,W,48.7,10.7,111010,,,A*70
$GPRMC,194308.9,A,3332.126907,N,11732.962965,W,48.5,6.4,111010,,,A*42
$GPRMC,194311.9,A,3332.164202,N,11732.958968,W,49.9,4.2,111010,,,A*4F
$GPRMC,194314.9,A,3332.209179,N,11732.956512,W,52.5,2.6,111010,,,A*46
$GPRMC,194317.9,A,3332.251779,N,11732.956632,W,51.0,3.4,111010,,,A*4A
$GPRMC,194320.9,A,3332.292432,N,11732.951466,W,49.4,6.9,111010,,,A*4C
$GPRMC,194323.9,A,3332.333612,N,11732.936224,W,49.7,15.5,111010,,,A*79
$GPRMC,194326.2,A,3332.363656,N,11732.928733,W,48.2,14.4,111010,,,A*7A
$GPRMC,194329.2,A,3332.401614,N,11732.918876,W,43.9,9.9,111010,,,A*4C
$GPRMC,194332.2,A,3332.439608,N,11732.911764,W,44.6,7.5,111010,,,A*4F
$GPRMC,194335.9,A,3332.486778,N,11732.914718,W,45.9,353.6,111010,,,A*40
$GPRMC,194338.9,A,3332.525912,N,11732.922842,W,47.4,346.1,111010,,,A*4E
$GPRMC,194341.2,A,3332.554561,N,11732.933964,W,47.0,342.6,111010,,,A*47
$GPRMC,194344.0,A,3332.590079,N,11732.948703,W,46.7,343.5,111010,,,A*43
$GPRMC,194347.9,A,3332.638542,N,11732.962906,W,45.6,350.0,111010,,,A*43
$GPRMC,194350.9,A,3332.675834,N,11732.962882,W,45.1,2.5,111010,,,A*4B
$GPRMC,194353.9,A,3332.711895,N,11732.956872,W,44.3,8.5,111010,,,A*41
$GPRMC,194356.2,A,3332.743096,N,11732.947992,W,47.7,12.9,111010,,,A*7C
$GPRMC,194359.2,A,3332.782034,N,11732.936840,W,48.3,12.8,111010,,,A*74
$GPRMC,194402.2,A,3332.823767,N,11732.926080,W,48.3,9.8,111010,,,A*47
$GPRMC,194405.2,A,3332.863527,N,11732.921435,W,48.3,3.9,111010,,,A*44
$GPRMC,194408.0,A,3332.900359,N,11732.921848,W,47.1,359.1,111010,,,A*4F
$GPRMC,194411.9,A,3332.952174,N,11732.926149,W,47.0,356.7,111010,,,A*43
$GPRMC,194414.2,A,3332.983368,N,11732.927962,W,48.9,356.5,111010,,,A*4A
$GPRMC,194417.9,A,3333.035523,N,11732.929532,W,50.1,356.6,111010,,,A*4B
$GPRMC,194420.9,A,3333.075616,N,11732.934077,W,48.4,356.0,111010,,,A*4C
$GPRMC,194423.9,A,3333.116599,N,11732.935472,W,48.8,357.8,111010,,,A*4A
$GPRMC,194426.9,A,3333.155318,N,11732.937805,W,47.6,356.9,111010,,,A*48
$GPRMC,194429.9,A,3333.196685,N,11732.940203,W,49.4,356.5,111010,,,A*45
$GPRMC,194433.2,A,3333.241243,N,11732.943714,W,47.6,357.3,111010,,,A*49
$GPRMC,194436.2,A,3333.278347,N,11732.946399,W,44.4,356.8,111010,,,A*4C
$GPRMC,194439.2,A,3333.315271,N,11732.947671,W,44.4,359.8,111010,,,A*40
$GPRMC,194442.2,A,3333.353951,N,11732.945012,W,46.1,5.8,111010,,,A*4B
$GPRMC,194445.2,A,3333.393207,N,11732.938912,W,46.7,10.8,111010,,,A*79
$GPRMC,194448.2,A,3333.431598,N,11732.928140,W,47.3,15.4,111010,,,A*78
$GPRMC,194452.2,A,3333.483359,N,11732.910076,W,49.0,16.6,111010,,,A*72
$GPRMC,194455.2,A,3333.521723,N,11732.894682,W,48.4,18.9,111010,,,A*71
$GPRMC,194458.2,A,3333.557902,N,11732.879628,W,48.0,19.4,111010,,,A*7B
$GPRMC,194501.9,A,3333.601795,N,11732.861581,W,46.9,19.7,111010,,,A*70
$GPRMC,194504.2,A,3333.629713,N,11732.849226,W,45.3,21.0,111010,,,A*7F
$GPRMC,194507.9,A,3333.671876,N,11732.829109,W,44.7,22.0,111010,,,A*78
$GPRMC,194510.9,A,3333.707537,N,11732.813506,W,44.1,20.4,111010,,,A*74
$GPRMC,194514.2,A,3333.742187,N,11732.796343,W,41.6,22.0,111010,,,A*74
$GPRMC,194517.9,A,3333.775828,N,11732.780499,W,38.2,20.9,111010,,,A*72
$GPRMC,194520.9,A,3333.805907,N,11732.768882,W,37.0,18.8,111010,,,A*75
$GPRMC,194523.9,A,3333.835740,N,11732.758730,W,38.1,17.9,111010,,,A*7D
$GPRMC,194526.9,A,3333.866081,N,11732.746820,W,40.4,17.0,111010,,,A*76
$GPRMC,194529.9,A,3333.903142,N,11732.730721,W,44.0,18.0,111010,,,A*75
$GPRMC,194532.9,A,3333.940343,N,11732.716082,W,45.2,18.7,111010,,,A*75
$GPRMC,194535.9,A,3333.977605,N,11732.702530,W,48.0,17.8,111010,,,A*77
$GPRMC,194538.9,A,3334.015881,N,11732.683656,W,49.8,21.1,111010,,,A*7C
$GPRMC,194541.9,A,3334.056414,N,11732.664010,W,50.7,22.3,111010,,,A*7E
$GPRMC,194544.9,A,3334.098206,N,11732.643443,W,53.3,23.3,111010,,,A*7D
$GPRMC,194547.9,A,3334.139694,N,11732.622492,W,53.2,23.7,111010,,,A*75
$GPRMC,194550.9,A,3334.178523,N,11732.602488,W,51.9,23.6,111010,,,A*78
$GPRMC,194553.9,A,3334.219093,N,11732.581377,W,51.3,24.2,111010,,,A*77
$GPRMC,194556.9,A,3334.256470,N,11732.559757,W,51.2,24.5,111010,,,A*75
$GPRMC,194559.2,A,3334.286366,N,11732.542911,W,48.7,24.0,111010,,,A*72
$GPRMC,194602.9,A,3334.333001,N,11732.517409,W,48.2,23.8,111010,,,A*77
$GPRMC,194605.2,A,3334.359902,N,11732.504092,W,44.3,22.9,111010,,,A*74
$GPRMC,194608.9,A,3334.402868,N,11732.483807,W,45.2,23.6,111010,,,A*72
$GPRMC,194611.2,A,3334.429238,N,11732.469396,W,45.2,24.0,111010,,,A*71
$GPRMC,194614.9,A,3334.467923,N,11732.444086,W,43.2,33.9,111010,,,A*70
$GPRMC,194617.2,A,3334.489136,N,11732.418573,W,45.0,44.1,111010,,,A*7E
$GPRMC,194620.9,A,3334.518228,N,11732.377941,W,44.1,49.1,111010,,,A*7A
$GPRMC,194623.9,A,3334.542226,N,11732.343144,W,45.4,50.3,111010,,,A*7C
$GPRMC,194626.9,A,3334.565898,N,11732.308924,W,45.1,49.6,111010,,,A*7A
$GPRMC,194629.9,A,3334.596351,N,11732.276397,W,46.0,42.7,111010,,,A*75
$GPRMC,194632.9,A,3334.625646,N,11732.246375,W,47.5,42.6,111010,,,A*7D
$GPRMC,194635.9,A,3334.652156,N,11732.211356,W,49.1,49.3,111010,,,A*7B
$GPRMC,194638.9,A,3334.675177,N,11732.171246,W,51.0,57.7,111010,,,A*76
$GPRMC,194641.9,A,3334.695724,N,11732.126304,W,50.8,62.3,111010,,,A*78
$GPRMC,194644.9,A,3334.714100,N,11732.080160,W,50.9,64.0,111010,,,A*7C
$GPRMC,194647.9,A,3334.732277,N,11732.036783,W,49.7,64.7,111010,,,A*7F
$GPRMC,194650.9,A,3334.752707,N,11731.992385,W,50.1,62.7,111010,,,A*73
$GPRMC,194653.0,A,3334.765284,N,11731.960239,W,50.4,63.4,111010,,,A*7F
$GPRMC,194656.9,A,3334.790099,N,11731.896789,W,52.0,64.1,111010,,,A*75
$GPRMC,194659.9,A,3334.808733,N,11731.850590,W,48.6,63.8,111010,,,A*70
$GPRMC,194702.9,A,3334.826742,N,11731.806974,W,48.3,63.7,111010,,,A*7A
$GPRMC,194705.9,A,3334.844087,N,11731.764600,W,47.9,63.3,111010,,,A*71
$GPRMC,194708.9,A,3334.862318,N,11731.724287,W,47.6,63.2,111010,,,A*7C
$GPRMC,194711.9,A,3334.883279,N,11731.682662,W,47.9,62.2,111010,,,A*71
$GPRMC,194714.2,A,3334.896952,N,11731.650325,W,47.4,63.3,111010,,,A*7D
$GPRMC,194717.9,A,3334.917305,N,11731.600923,W,46.8,64.5,111010,,,A*70
$GPRMC,194720.9,A,3334.935556,N,11731.561110,W,46.8,62.6,111010,,,A*7D
$GPRMC,194723.9,A,3334.953525,N,11731.518649,W,47.5,63.9,111010,,,A*7D
$GPRMC,194726.9,A,3334.970041,N,11731.478937,W,45.1,62.4,111010,,,A*75
$GPRMC,194729.9,A,3334.989560,N,11731.442515,W,43.4,55.2,111010,,,A*7E
$GPRMC,194733.2,A,3335.013950,N,11731.403735,W,43.4,53.7,111010,,,A*7C
$GPRMC,194736.0,A,3335.034247,N,11731.370354,W,42.8,55.8,111010,,,A*77
$GPRMC,194739.9,A,3335.065731,N,11731.334530,W,38.1,38.6,111010,,,A*74
$GPRMC,194742.2,A,3335.087904,N,11731.320370,W,37.5,28.7,111010,,,A*7B
$GPRMC,194745.9,A,3335.130288,N,11731.314101,W,39.6,8.2,111010,,,A*4C
$GPRMC,194748.9,A,3335.158825,N,11731.306225,W,39.0,16.4,111010,,,A*7B
$GPRMC,194751.2,A,3335.182126,N,11731.292857,W,39.1,27.6,111010,,,A*77
$GPRMC,194754.9,A,3335.211152,N,11731.260030,W,38.1,45.3,111010,,,A*77
$GPRMC,194757.9,A,3335.222797,N,11731.219027,W,42.4,68.2,111010,,,A*75
$GPRMC,194800.9,A,3335.233104,N,11731.176021,W,44.6,71.6,111010,,,A*70
$GPRMC,194803.9,A,3335.244320,N,11731.130191,W,45.5,72.0,111010,,,A*78
$GPRMC,194807.2,A,3335.260389,N,11731.082676,W,44.4,66.8,111010,,,A*79
$GPRMC,194810.9,A,3335.283319,N,11731.034973,W,43.3,56.8,111010,,,A*74
$GPRMC,194813.9,A,3335.306704,N,11731.003440,W,41.7,45.9,111010,,,A*7F
$GPRMC,194816.9,A,3335.330029,N,11730.970966,W,42.2,53.5,111010,,,A*7F
$GPRMC,194819.9,A,3335.348832,N,11730.934262,W,41.5,60.4,111010,,,A*77
$GPRMC,194822.9,A,3335.363324,N,11730.902277,W,38.1,59.0,111010,,,A*7F
$GPRMC,194825.9,A,3335.383883,N,11730.875236,W,37.3,45.0,111010,,,A*74
$GPRMC,194828.9,A,3335.411402,N,11730.853202,W,38.3,30.1,111010,,,A*7F
$GPRMC,194831.9,A,3335.441085,N,11730.842800,W,35.6,18.4,111010,,,A*76
$GPRMC,194834.9,A,3335.468818,N,11730.831434,W,33.9,24.2,111010,,,A*7B
$GPRMC,194837.2,A,3335.484836,N,11730.818614,W,33.0,33.7,111010,,,A*7C
$GPRMC,194840.9,A,3335.508472,N,11730.785140,W,36.6,54.8,111010,,,A*7E
$GPRMC,194843.9,A,3335.521223,N,11730.752380,W,37.3,64.7,111010,,,A*78
$GPRMC,194846.9,A,3335.532135,N,11730.716394,W,37.3,69.4,111010,,,A*70
$GPRMC,194849.9,A,3335.541736,N,11730.677447,W,38.0,78.8,111010,,,A*71
$GPRMC,194852.9,A,3335.539092,N,11730.642406,W,35.5,96.7,111010,,,A*79
$GPRMC,194855.2,A,3335.529964,N,11730.615548,W,35.8,108.2,111010,,,A*43
$GPRMC,194858.0,A,3335.515705,N,11730.584167,W,37.9,118.0,111010,,,A*48
$GPRMC,194901.9,A,3335.496447,N,11730.538658,W,38.4,115.8,111010,,,A*48
$GPRMC,194904.9,A,3335.485468,N,11730.502972,W,36.6,107.1,111010,,,A*4A
$GPRMC,194907.9,A,3335.483906,N,11730.470218,W,33.9,90.7,111010,,,A*7A
$GPRMC,194910.9,A,3335.490244,N,11730.435627,W,34.4,79.9,111010,,,A*79
$GPRMC,194913.9,A,3335.491372,N,11730.398067,W,37.6,90.9,111010,,,A*7B
$GPRMC,194916.2,A,3335.484717,N,11730.371255,W,36.1,103.4,111010,,,A*42
$GPRMC,194919.9,A,3335.465163,N,11730.329936,W,39.3,117.5,111010,,,A*46
$GPRMC,194922.9,A,3335.444996,N,11730.295933,W,40.8,122.0,111010,,,A*4A
$GPRMC,194925.9,A,3335.424563,N,11730.261293,W,40.0,123.1,111010,,,A*4F
$GPRMC,194928.9,A,3335.409829,N,11730.227558,W,38.0,116.6,111010,,,A*42
$GPRMC,194932.2,A,3335.405987,N,11730.186202,W,36.9,97.7,111010,,,A*75
$GPRMC,194935.9,A,3335.411671,N,11730.138266,W,39.6,79.3,111010,,,A*79
$GPRMC,194938.9,A,3335.422927,N,11730.099266,W,40.1,73.1,111010,,,A*73
$GPRMC,194941.2,A,3335.430469,N,11730.070848,W,38.1,73.1,111010,,,A*7C
$GPRMC,194945.2,A,3335.438878,N,11730.027482,W,34.9,84.2,111010,,,A*7B
$GPRMC,194948.0,A,3335.429385,N,11729.998827,W,33.4,107.1,111010,,,A*48
$GPRMC,194951.9,A,3335.422789,N,11729.957019,W,32.5,89.9,111010,,,A*73
$GPRMC,194954.9,A,3335.430240,N,11729.923907,W,34.0,72.2,111010,,,A*7C
$GPRMC,194957.9,A,3335.441673,N,11729.891325,W,34.4,68.6,111010,,,A*74
$GPRMC,195000.9,A,3335.455363,N,11729.863788,W,31.5,55.3,111010,,,A*7E
$GPRMC,195003.2,A,3335.470287,N,11729.845901,W,33.1,44.6,111010,,,A*72
$GPRMC,195006.9,A,3335.505033,N,11729.831023,W,35.5,25.1,111010,,,A*7A
$GPRMC,195009.2,A,3335.522649,N,11729.819188,W,32.6,30.7,111010,,,A*7C
$GPRMC,195012.9,A,3335.544512,N,11729.791770,W,28.8,46.7,111010,,,A*7A
$GPRMC,195015.9,A,3335.549099,N,11729.752471,W,35.8,70.9,111010,,,A*7C
$GPRMC,195019.2,A,3335.560214,N,11729.711708,W,37.1,72.2,111010,,,A*7F
$GPRMC,195022.9,A,3335.562679,N,11729.666782,W,37.5,89.6,111010,,,A*76
$GPRMC,195025.2,A,3335.564295,N,11729.640301,W,35.0,86.4,111010,,,A*7B
$GPRMC,195028.2,A,3335.549699,N,11729.605040,W,35.0,105.2,111010,,,A*4A
$GPRMC,195031.9,A,3335.525685,N,11729.564853,W,38.4,116.2,111010,,,A*4B
$GPRMC,195035.0,A,3335.526192,N,11729.534263,W,30.1,89.7,111010,,,A*77
$GPRMC,195038.9,A,3335.548107,N,11729.495259,W,32.4,60.1,111010,,,A*72
$GPRMC,195041.2,A,3335.559255,N,11729.474818,W,29.7,61.8,111010,,,A*72
$GPRMC,195045.2,A,3335.590642,N,11729.449051,W,32.3,45.6,111010,,,A*7C
$GPRMC,195048.9,A,3335.600843,N,11729.412378,W,32.2,80.9,111010,,,A*7E
$GPRMC,195051.9,A,3335.602678,N,11729.379003,W,31.7,83.0,111010,,,A*7B
$GPRMC,195054.9,A,3335.605610,N,11729.337908,W,36.6,82.1,111010,,,A*79
$GPRMC,195057.9,A,3335.617389,N,11729.298032,W,41.3,75.0,111010,,,A*74
$GPRMC,195100.9,A,3335.634396,N,11729.264780,W,39.1,62.8,111010,,,A*76
$GPRMC,195103.9,A,3335.644565,N,11729.231948,W,36.1,75.1,111010,,,A*72
$GPRMC,195106.9,A,3335.640429,N,11729.198565,W,34.2,93.9,111010,,,A*78
$GPRMC,195109.2,A,3335.633076,N,11729.172519,W,33.2,102.2,111010,,,A*4C
$GPRMC,195112.9,A,3335.627617,N,11729.129280,W,36.2,100.4,111010,,,A*41
$GPRMC,195115.9,A,3335.632853,N,11729.096505,W,33.8,82.9,111010,,,A*7A
$GPRMC,195118.9,A,3335.650603,N,11729.067330,W,33.1,64.4,111010,,,A*7A
$GPRMC,195121.9,A,3335.687049,N,11729.047594,W,37.1,44.5,111010,,,A*7F
$GPRMC,195124.9,A,3335.712860,N,11729.019335,W,36.7,53.8,111010,,,A*7E
$GPRMC,195128.2,A,3335.713702,N,11728.982109,W,34.2,89.2,111010,,,A*7E
$GPRMC,195131.9,A,3335.698685,N,11728.940387,W,38.4,111.4,111010,,,A*47
$GPRMC,195134.9,A,3335.682705,N,11728.901090,W,41.5,108.2,111010,,,A*41
$GPRMC,195137.9,A,3335.673512,N,11728.862134,W,39.3,105.6,111010,,,A*43
$GPRMC,195140.9,A,3335.664874,N,11728.826673,W,37.4,106.8,111010,,,A*48
$GPRMC,195143.9,A,3335.652655,N,11728.789821,W,39.4,112.5,111010,,,A*46
$GPRMC,195146.9,A,3335.633485,N,11728.755801,W,39.0,123.2,111010,,,A*49
$GPRMC,195149.9,A,3335.609055,N,11728.734058,W,37.7,134.0,111010,,,A*48
$GPRMC,195152.9,A,3335.586794,N,11728.704123,W,40.4,129.5,111010,,,A*48
$GPRMC,195155.9,A,3335.566498,N,11728.673934,W,38.5,126.3,111010,,,A*46
$GPRMC,195158.9,A,3335.557908,N,11728.636938,W,39.7,110.8,111010,,,A*4D
$GPRMC,195201.9,A,3335.546409,N,11728.599666,W,39.5,110.9,111010,,,A*4F
$GPRMC,195204.9,A,3335.536320,N,11728.564832,W,38.1,110.6,111010,,,A*46
$GPRMC,195207.9,A,3335.528238,N,11728.525269,W,39.4,107.8,111010,,,A*4F
$GPRMC,195210.9,A,3335.517804,N,11728.490254,W,38.5,110.2,111010,,,A*4D
$GPRMC,195213.9,A,3335.510021,N,11728.445963,W,43.1,101.2,111010,,,A*49
$GPRMC,195216.9,A,3335.506796,N,11728.401670,W,46.1,95.9,111010,,,A*7F
$GPRMC,195219.9,A,3335.523687,N,11728.363801,W,41.0,72.4,111010,,,A*7F
$GPRMC,195222.9,A,3335.534865,N,11728.324564,W,40.9,70.1,111010,,,A*71
$GPRMC,195225.2,A,3335.530291,N,11728.293779,W,40.4,85.0,111010,,,A*7D
$GPRMC,195229.3,A,3335.507134,N,11728.249859,W,38.5,114.3,111010,,,A*46
$GPRMC,195232.0,A,3335.490442,N,11728.220987,W,36.7,116.9,111010,,,A*4D
$GPRMC,195235.9,A,3335.477678,N,11728.177379,W,36.9,105.9,111010,,,A*47
$GPRMC,195242.0,A,3335.532986,N,11728.130896,W,33.5,39.3,111010,,,A*74
