NMEA Sentence Code,UTC Time,Status,Latitude,Latitude Direction,Longitude,Longitude Direction,Speed (knots),Track Angle (degrees true),Date,MagneticVariation,Magnetic Variation Direction,[FAA Mode]-Optional,Checksum
$GPRMC,222301.5,A,3241.5174,N,11704.6019,W,32.90,251.20,300410,,*20
$GPRMC,222304.5,A,3241.5087,N,11704.6335,W,32.80,252.30,300410,,*26
$GPRMC,222307.5,A,3241.5005,N,11704.6625,W,30.70,251.50,300410,,*23
$GPRMC,222310.5,A,3241.4927,N,11704.6899,W,30.70,249.10,300410,,*29
$GPRMC,222313.5,A,3241.4842,N,11704.7189,W,30.60,250.60,300410,,*2F
$GPRMC,222316.5,A,3241.4762,N,11704.7501,W,32.00,252.20,300410,,*21
$GPRMC,222319.5,A,3241.4684,N,11704.7802,W,32.70,252.60,300410,,*2A
$GPRMC,222322.5,A,3241.4596,N,11704.8109,W,32.70,252.00,300410,,*29
$GPRMC,222325.5,A,3241.4503,N,11704.8421,W,33.40,251.40,300410,,*28
$GPRMC,222328.5,A,3241.4386,N,11704.8773,W,35.10,250.40,300410,,*28
$GPRMC,222331.5,A,3241.4296,N,11704.9109,W,35.50,252.00,300410,,*28
$GPRMC,222334.5,A,3241.4191,N,11704.9459,W,37.00,251.20,300410,,*2F
$GPRMC,222337.5,A,3241.4099,N,11704.9813,W,36.50,251.50,300410,,*24
$GPRMC,222340.5,A,3241.4001,N,11705.0166,W,36.70,252.00,300410,,*22
$GPRMC,222343.5,A,3241.3915,N,11705.0484,W,33.90,251.10,300410,,*2A
$GPRMC,222346.5,A,3241.3846,N,11705.0738,W,27.90,250.20,300410,,*2B
$GPRMC,222349.5,A,3241.3770,N,11705.0930,W,23.30,243.50,300410,,*23
$GPRMC,222352.5,A,3241.3753,N,11705.1023,W,14.40,246.00,300410,,*21
$GPRMC,222443.5,A,3241.3774,N,11705.1093,W,6.10,278.00,300410,,*13
$GPRMC,222446.5,A,3241.3763,N,11705.1234,W,10.70,274.60,300410,,*24
$GPRMC,222449.5,A,3241.3714,N,11705.1495,W,19.20,264.80,300410,,*25
$GPRMC,222452.5,A,3241.3612,N,11705.1885,W,30.60,257.20,300410,,*20
$GPRMC,222455.5,A,3241.3519,N,11705.2247,W,34.50,252.90,300410,,*21
$GPRMC,222458.5,A,3241.3394,N,11705.2608,W,34.20,250.80,300410,,*24
$GPRMC,222501.5,A,3241.3280,N,11705.2953,W,30.40,250.00,300410,,*26
$GPRMC,222504.5,A,3241.3182,N,11705.3276,W,29.60,251.30,300410,,*27
$GPRMC,222507.5,A,3241.3105,N,11705.3559,W,29.50,251.50,300410,,*24
$GPRMC,222510.5,A,3241.3007,N,11705.3865,W,30.40,250.70,300410,,*29
$GPRMC,222513.5,A,3241.2925,N,11705.4154,W,31.00,251.70,300410,,*2A
$GPRMC,222516.5,A,3241.2843,N,11705.4454,W,30.40,252.30,300410,,*29
$GPRMC,222519.5,A,3241.2776,N,11705.4740,W,29.80,252.70,300410,,*29
$GPRMC,222522.5,A,3241.2693,N,11705.5017,W,31.00,251.70,300410,,*2D
$GPRMC,222525.5,A,3241.2605,N,11705.5331,W,33.10,251.80,300410,,*2E
$GPRMC,222528.5,A,3241.2509,N,11705.5650,W,33.40,251.00,300410,,*23
$GPRMC,222534.5,A,3241.2358,N,11705.6202,W,28.40,250.60,300410,,*21
$GPRMC,222537.5,A,3241.2302,N,11705.6415,W,21.90,254.10,300410,,*2A
$GPRMC,222540.5,A,3241.2368,N,11705.6562,W,17.60,298.30,300410,,*2F
$GPRMC,222543.5,A,3241.2510,N,11705.6716,W,23.60,312.60,300410,,*25
$GPRMC,222546.5,A,3241.2687,N,11705.6905,W,28.70,315.90,300410,,*23
$GPRMC,222549.5,A,3241.2900,N,11705.7065,W,29.40,326.90,300410,,*20
$GPRMC,222552.5,A,3241.3114,N,11705.7163,W,27.10,338.20,300410,,*2E
$GPRMC,222555.5,A,3241.3335,N,11705.7170,W,27.40,355.70,300410,,*21
$GPRMC,222558.5,A,3241.3546,N,11705.7166,W,24.10,5.00,300410,,*2E
$GPRMC,222601.5,A,3241.3727,N,11705.7103,W,21.70,17.40,300410,,*13
$GPRMC,222604.5,A,3241.3872,N,11705.7013,W,19.20,26.40,300410,,*15
$GPRMC,222607.5,A,3241.4004,N,11705.6903,W,19.40,33.40,300410,,*13
$GPRMC,222610.5,A,3241.4137,N,11705.6815,W,19.00,29.10,300410,,*18
$GPRMC,222713.5,A,3241.4351,N,11705.6565,W,4.70,28.40,300410,,*2D
$GPRMC,222716.5,A,3241.4430,N,11705.6520,W,9.20,24.90,300410,,*20
$GPRMC,222719.5,A,3241.4531,N,11705.6512,W,11.80,4.20,300410,,*24
$GPRMC,222722.5,A,3241.4703,N,11705.6586,W,20.80,342.60,300410,,*25
$GPRMC,222725.5,A,3241.4899,N,11705.6679,W,24.80,345.20,300410,,*2A
$GPRMC,222728.5,A,3241.5127,N,11705.6717,W,26.60,350.10,300410,,*28
$GPRMC,222731.5,A,3241.5370,N,11705.6751,W,29.20,353.90,300410,,*22
$GPRMC,222734.5,A,3241.5647,N,11705.6788,W,31.20,356.00,300410,,*27
$GPRMC,222737.5,A,3241.5940,N,11705.6806,W,34.30,358.00,300410,,*2F
$GPRMC,222740.5,A,3241.6226,N,11705.6803,W,35.60,359.00,300410,,*27
$GPRMC,222743.5,A,3241.6534,N,11705.6814,W,38.50,358.80,300410,,*21
$GPRMC,222746.5,A,3241.6872,N,11705.6814,W,41.60,0.10,300410,,*21
$GPRMC,222749.5,A,3241.7254,N,11705.6835,W,44.70,358.70,300410,,*2E
$GPRMC,222752.5,A,3241.7674,N,11705.6850,W,48.90,359.60,300410,,*23
$GPRMC,222755.5,A,3241.8111,N,11705.6862,W,52.00,360.00,300410,,*20
$GPRMC,222758.5,A,3241.8567,N,11705.6870,W,54.00,359.80,300410,,*2F
$GPRMC,222801.5,A,3241.9044,N,11705.6873,W,55.40,359.90,300410,,*2E
$GPRMC,222804.5,A,3241.9519,N,11705.6855,W,57.20,0.70,300410,,*27
$GPRMC,222807.5,A,3241.9987,N,11705.6856,W,58.60,0.00,300410,,*20
$GPRMC,222810.5,A,3242.0490,N,11705.6858,W,60.30,358.80,300410,,*21
$GPRMC,222813.5,A,3242.1000,N,11705.6843,W,63.00,359.90,300410,,*24
$GPRMC,222816.5,A,3242.1529,N,11705.6829,W,62.80,359.50,300410,,*26
$GPRMC,222819.5,A,3242.2057,N,11705.6883,W,62.90,354.90,300410,,*26
$GPRMC,222822.5,A,3242.2576,N,11705.6970,W,62.70,350.80,300410,,*2E
$GPRMC,222825.5,A,3242.3084,N,11705.7141,W,64.10,343.90,300410,,*28
$GPRMC,222828.5,A,3242.3568,N,11705.7392,W,63.00,336.70,300410,,*24
$GPRMC,222831.5,A,3242.4022,N,11705.7692,W,62.20,333.10,300410,,*25
$GPRMC,222834.5,A,3242.4449,N,11705.8039,W,61.60,326.70,300410,,*24
$GPRMC,222837.5,A,3242.4850,N,11705.8410,W,61.00,322.50,300410,,*2C
$GPRMC,222840.5,A,3242.5249,N,11705.8785,W,61.80,321.80,300410,,*26
$GPRMC,222843.5,A,3242.5655,N,11705.9169,W,61.90,321.70,300410,,*27
$GPRMC,222846.5,A,3242.6054,N,11705.9553,W,61.70,321.80,300410,,*2A
$GPRMC,222849.5,A,3242.6440,N,11705.9954,W,61.40,321.00,300410,,*24
$GPRMC,222852.5,A,3242.6841,N,11706.0329,W,61.50,321.80,300410,,*20
$GPRMC,222855.5,A,3242.7254,N,11706.0691,W,61.60,324.00,300410,,*20
$GPRMC,222858.5,A,3242.7677,N,11706.1040,W,60.70,328.50,300410,,*2A
$GPRMC,222901.5,A,3242.8132,N,11706.1273,W,59.20,334.70,300410,,*2C
$GPRMC,222904.5,A,3242.8589,N,11706.1488,W,58.40,338.10,300410,,*22
$GPRMC,222907.5,A,3242.9064,N,11706.1630,W,58.00,345.80,300410,,*20
$GPRMC,222910.5,A,3242.9570,N,11706.1692,W,60.20,353.30,300410,,*2B
$GPRMC,222913.5,A,3243.0090,N,11706.1719,W,60.90,358.30,300410,,*29
$GPRMC,222916.5,A,3243.0603,N,11706.1696,W,61.30,2.00,300410,,*22
$GPRMC,222919.5,A,3243.1114,N,11706.1651,W,61.90,3.50,300410,,*28
$GPRMC,222922.5,A,3243.1637,N,11706.1603,W,63.00,3.80,300410,,*27
$GPRMC,222925.5,A,3243.2179,N,11706.1558,W,63.90,4.20,300410,,*27
$GPRMC,222928.5,A,3243.2688,N,11706.1512,W,63.40,3.20,300410,,*27
$GPRMC,222931.5,A,3243.3211,N,11706.1476,W,63.30,3.20,300410,,*2E
$GPRMC,222934.5,A,3243.3764,N,11706.1459,W,64.90,359.50,300410,,*27
$GPRMC,222937.5,A,3243.4305,N,11706.1510,W,65.20,354.60,300410,,*28
$GPRMC,222940.5,A,3243.4833,N,11706.1641,W,64.90,348.00,300410,,*20
$GPRMC,222943.5,A,3243.5356,N,11706.1806,W,63.20,344.30,300410,,*24
$GPRMC,222946.5,A,3243.5819,N,11706.2034,W,59.70,336.80,300410,,*29
$GPRMC,222949.5,A,3243.6239,N,11706.2282,W,57.10,333.50,300410,,*22
$GPRMC,222952.5,A,3243.6625,N,11706.2570,W,55.30,329.50,300410,,*20
$GPRMC,222955.5,A,3243.6975,N,11706.2950,W,55.30,320.00,300410,,*2F
$GPRMC,222958.5,A,3243.7295,N,11706.3332,W,52.90,316.50,300410,,*24
$GPRMC,223001.5,A,3243.7575,N,11706.3739,W,52.60,310.60,300410,,*2C
$GPRMC,223004.5,A,3243.7816,N,11706.4188,W,51.40,305.60,300410,,*2F
$GPRMC,223007.5,A,3243.8044,N,11706.4626,W,51.10,304.20,300410,,*2F
$GPRMC,223010.5,A,3243.8313,N,11706.5018,W,51.20,307.40,300410,,*24
$GPRMC,223013.5,A,3243.8586,N,11706.5439,W,52.50,307.10,300410,,*2B
$GPRMC,223016.5,A,3243.8874,N,11706.5846,W,53.50,311.00,300410,,*2D
$GPRMC,223019.5,A,3243.9186,N,11706.6234,W,54.60,315.90,300410,,*22
$GPRMC,223022.5,A,3243.9550,N,11706.6553,W,53.80,324.80,300410,,*29
$GPRMC,223025.5,A,3243.9973,N,11706.6793,W,56.00,333.70,300410,,*29
$GPRMC,223028.5,A,3244.0424,N,11706.6993,W,56.60,339.20,300410,,*22
$GPRMC,223031.5,A,3244.0877,N,11706.7105,W,54.50,346.30,300410,,*2E
$GPRMC,223034.5,A,3244.1300,N,11706.7203,W,52.90,348.00,300410,,*23
$GPRMC,223037.5,A,3244.1736,N,11706.7293,W,52.80,348.30,300410,,*2A
$GPRMC,223040.5,A,3244.2169,N,11706.7421,W,51.90,348.20,300410,,*29
$GPRMC,223043.5,A,3244.2575,N,11706.7508,W,50.30,348.00,300410,,*20
$GPRMC,223046.5,A,3244.2992,N,11706.7616,W,49.90,347.70,300410,,*26
$GPRMC,223049.5,A,3244.3393,N,11706.7692,W,48.00,350.80,300410,,*2E
$GPRMC,223052.5,A,3244.3776,N,11706.7734,W,45.70,355.40,300410,,*25
$GPRMC,223055.5,A,3244.4167,N,11706.7691,W,45.90,4.50,300410,,*25
$GPRMC,223058.5,A,3244.4565,N,11706.7539,W,47.70,17.20,300410,,*16
$GPRMC,223101.5,A,3244.4948,N,11706.7335,W,50.50,25.40,300410,,*11
$GPRMC,223104.5,A,3244.5314,N,11706.7071,W,50.70,31.40,300410,,*12
$GPRMC,223107.5,A,3244.5659,N,11706.6769,W,51.50,34.80,300410,,*18
$GPRMC,223110.5,A,3244.6011,N,11706.6433,W,53.30,36.50,300410,,*10
$GPRMC,223113.5,A,3244.6372,N,11706.6114,W,54.10,37.20,300410,,*16
$GPRMC,223116.5,A,3244.6756,N,11706.5803,W,55.40,33.90,300410,,*16
$GPRMC,223119.5,A,3244.7168,N,11706.5544,W,56.00,27.30,300410,,*15
$GPRMC,223122.5,A,3244.7614,N,11706.5346,W,55.20,19.50,300410,,*1F
$GPRMC,223125.5,A,3244.8078,N,11706.5216,W,57.70,10.80,300410,,*1C
$GPRMC,223128.5,A,3244.8589,N,11706.5182,W,60.00,3.60,300410,,*2B
$GPRMC,223131.5,A,3244.9107,N,11706.5169,W,61.90,0.90,300410,,*21
$GPRMC,223134.5,A,3244.9625,N,11706.5167,W,62.10,0.70,300410,,*28
$GPRMC,223137.5,A,3245.0148,N,11706.5170,W,61.90,359.40,300410,,*2E
$GPRMC,223140.5,A,3245.0691,N,11706.5193,W,62.70,359.10,300410,,*28
$GPRMC,223143.5,A,3245.1211,N,11706.5194,W,62.60,359.60,300410,,*27
$GPRMC,223149.5,A,3245.2227,N,11706.5187,W,62.60,0.30,300410,,*23
$GPRMC,223150.5,A,3245.2391,N,11706.5191,W,62.70,359.90,300410,,*24
$GPRMC,223153.5,A,3245.2916,N,11706.5182,W,62.10,0.30,300410,,*23
$GPRMC,223156.5,A,3245.3445,N,11706.5186,W,63.20,359.60,300410,,*20
$GPRMC,223159.5,A,3245.3997,N,11706.5201,W,64.30,359.00,300410,,*21
$GPRMC,223202.5,A,3245.4531,N,11706.5211,W,64.50,359.30,300410,,*2F
$GPRMC,223205.5,A,3245.5072,N,11706.5241,W,64.30,358.50,300410,,*2F
$GPRMC,223208.5,A,3245.5606,N,11706.5265,W,64.90,357.90,300410,,*28
$GPRMC,223211.5,A,3245.6151,N,11706.5304,W,64.80,357.10,300410,,*29
$GPRMC,223214.5,A,3245.6703,N,11706.5359,W,65.70,356.00,300410,,*2B
$GPRMC,223217.5,A,3245.7244,N,11706.5404,W,65.00,355.30,300410,,*27
$GPRMC,223220.5,A,3245.7783,N,11706.5457,W,65.00,354.10,300410,,*28
$GPRMC,223223.5,A,3245.8314,N,11706.5537,W,63.40,352.30,300410,,*2F
$GPRMC,223226.5,A,3245.8842,N,11706.5651,W,62.60,348.20,300410,,*28
$GPRMC,223229.5,A,3245.9336,N,11706.5860,W,62.20,341.40,300410,,*29
$GPRMC,223232.5,A,3245.9796,N,11706.6154,W,62.80,332.80,300410,,*22
$GPRMC,223235.5,A,3246.0241,N,11706.6465,W,62.50,329.60,300410,,*2E
$GPRMC,223238.5,A,3246.0696,N,11706.6784,W,62.30,330.80,300410,,*21
$GPRMC,223241.5,A,3246.1166,N,11706.7073,W,62.30,332.60,300410,,*24
$GPRMC,223244.5,A,3246.1659,N,11706.7320,W,63.50,334.60,300410,,*2E
$GPRMC,223247.5,A,3246.2161,N,11706.7442,W,61.70,343.00,300410,,*27
$GPRMC,223250.5,A,3246.2689,N,11706.7539,W,63.10,351.00,300410,,*2A
$GPRMC,223253.5,A,3246.3232,N,11706.7574,W,64.10,358.50,300410,,*2E
$GPRMC,223256.5,A,3246.3745,N,11706.7541,W,61.50,3.60,300410,,*27
$GPRMC,223259.5,A,3246.4278,N,11706.7358,W,63.40,14.50,300410,,*1C
$GPRMC,223302.5,A,3246.4799,N,11706.7159,W,64.30,15.30,300410,,*1D
$GPRMC,223305.5,A,3246.5322,N,11706.7025,W,62.70,8.40,300410,,*2C
$GPRMC,223308.5,A,3246.5851,N,11706.7021,W,63.50,0.90,300410,,*2C
$GPRMC,223311.5,A,3246.6383,N,11706.7090,W,63.00,353.90,300410,,*29
$GPRMC,223314.5,A,3246.6906,N,11706.7289,W,63.20,345.20,300410,,*2F
$GPRMC,223317.5,A,3246.7432,N,11706.7455,W,64.10,344.20,300410,,*25
$GPRMC,223320.5,A,3246.7955,N,11706.7658,W,62.50,343.90,300410,,*2C
$GPRMC,223323.5,A,3246.8453,N,11706.7842,W,62.00,343.50,300410,,*27
$GPRMC,223326.5,A,3246.8935,N,11706.7998,W,61.80,343.50,300410,,*22
$GPRMC,223329.5,A,3246.9420,N,11706.8166,W,61.80,343.60,300410,,*20
$GPRMC,223332.5,A,3246.9934,N,11706.8342,W,63.00,343.80,300410,,*22
$GPRMC,223335.5,A,3247.0448,N,11706.8484,W,63.60,347.10,300410,,*2D
$GPRMC,223338.5,A,3247.0981,N,11706.8606,W,64.00,352.30,300410,,*27
$GPRMC,223341.5,A,3247.1537,N,11706.8649,W,66.00,357.60,300410,,*20
$GPRMC,223344.5,A,3247.2079,N,11706.8643,W,65.90,0.00,300410,,*2E
$GPRMC,223347.5,A,3247.2620,N,11706.8531,W,66.00,7.40,300410,,*28
$GPRMC,223350.5,A,3247.3154,N,11706.8319,W,66.40,15.00,300410,,*14
$GPRMC,223353.5,A,3247.3667,N,11706.8099,W,65.60,17.80,300410,,*10
$GPRMC,223356.5,A,3247.4169,N,11706.7872,W,64.90,18.60,300410,,*16
$GPRMC,223359.5,A,3247.4676,N,11706.7651,W,63.80,18.60,300410,,*19
$GPRMC,223402.5,A,3247.5176,N,11706.7467,W,62.40,17.70,300410,,*12
$GPRMC,223405.5,A,3247.5667,N,11706.7331,W,60.80,12.30,300410,,*19
$GPRMC,223408.5,A,3247.6167,N,11706.7235,W,60.00,9.20,300410,,*26
$GPRMC,223411.5,A,3247.6662,N,11706.7179,W,58.80,4.60,300410,,*2D
$GPRMC,223414.5,A,3247.7142,N,11706.7183,W,58.30,359.90,300410,,*26
$GPRMC,223417.5,A,3247.7628,N,11706.7209,W,58.10,356.30,300410,,*28
$GPRMC,223420.5,A,3247.8111,N,11706.7250,W,59.10,355.20,300410,,*21
$GPRMC,223423.5,A,3247.8609,N,11706.7311,W,59.70,354.80,300410,,*25
$GPRMC,223426.5,A,3247.9105,N,11706.7379,W,59.60,354.60,300410,,*2B
$GPRMC,223429.5,A,3247.9611,N,11706.7431,W,60.10,355.00,300410,,*27
$GPRMC,223432.5,A,3248.0131,N,11706.7497,W,60.90,354.70,300410,,*2C
$GPRMC,223435.5,A,3248.0620,N,11706.7562,W,60.10,354.30,300410,,*2B
$GPRMC,223438.5,A,3248.1131,N,11706.7611,W,60.10,355.30,300410,,*26
$GPRMC,223441.5,A,3248.1624,N,11706.7672,W,60.40,354.20,300410,,*2B
$GPRMC,223444.5,A,3248.2139,N,11706.7728,W,61.20,354.10,300410,,*2C
$GPRMC,223447.5,A,3248.2653,N,11706.7793,W,62.60,353.40,300410,,*21
$GPRMC,223450.5,A,3248.3159,N,11706.7879,W,61.60,352.60,300410,,*20
$GPRMC,223453.5,A,3248.3667,N,11706.7956,W,61.30,352.70,300410,,*21
$GPRMC,223456.5,A,3248.4165,N,11706.8042,W,61.60,352.60,300410,,*21
$GPRMC,223459.5,A,3248.4692,N,11706.8134,W,62.20,352.50,300410,,*25
$GPRMC,223502.5,A,3248.5206,N,11706.8207,W,62.40,352.70,300410,,*25
$GPRMC,223505.5,A,3248.5723,N,11706.8289,W,61.70,353.10,300410,,*21
$GPRMC,223508.5,A,3248.6231,N,11706.8367,W,61.80,352.60,300410,,*21
$GPRMC,223511.5,A,3248.6757,N,11706.8442,W,63.00,352.90,300410,,*29
$GPRMC,223514.5,A,3248.7274,N,11706.8503,W,62.90,353.20,300410,,*2F
$GPRMC,223517.5,A,3248.7793,N,11706.8586,W,63.00,353.00,300410,,*27
$GPRMC,223520.5,A,3248.8322,N,11706.8664,W,63.50,352.50,300410,,*2C
$GPRMC,223523.5,A,3248.8838,N,11706.8761,W,62.90,351.50,300410,,*25
$GPRMC,223526.5,A,3248.9374,N,11706.8842,W,63.40,351.50,300410,,*20
$GPRMC,223529.5,A,3248.9896,N,11706.8942,W,62.60,350.10,300410,,*2F
$GPRMC,223532.5,A,3249.0387,N,11706.9067,W,61.00,348.20,300410,,*26
$GPRMC,223535.5,A,3249.0899,N,11706.9176,W,61.70,349.40,300410,,*24
$GPRMC,223538.5,A,3249.1419,N,11706.9278,W,62.30,349.90,300410,,*2B
$GPRMC,223541.5,A,3249.1932,N,11706.9398,W,63.30,349.30,300410,,*25
$GPRMC,223544.5,A,3249.2447,N,11706.9506,W,62.40,349.60,300410,,*2E
$GPRMC,223547.5,A,3249.2974,N,11706.9623,W,62.90,349.30,300410,,*2C
$GPRMC,223550.5,A,3249.3459,N,11706.9727,W,60.90,349.90,300410,,*24
$GPRMC,223553.5,A,3249.3942,N,11706.9844,W,58.60,349.70,300410,,*20
$GPRMC,223556.5,A,3249.4429,N,11706.9935,W,57.90,350.20,300410,,*28
$GPRMC,223559.5,A,3249.4873,N,11707.0043,W,55.20,349.50,300410,,*22
$GPRMC,223602.5,A,3249.5327,N,11707.0153,W,55.80,349.90,300410,,*22
$GPRMC,223605.5,A,3249.5789,N,11707.0261,W,58.10,349.70,300410,,*2D
$GPRMC,223608.5,A,3249.6274,N,11707.0361,W,59.50,350.00,300410,,*2F
$GPRMC,223611.5,A,3249.6803,N,11707.0476,W,62.60,349.80,300410,,*27
$GPRMC,223614.5,A,3249.7334,N,11707.0592,W,63.10,350.20,300410,,*23
$GPRMC,223617.5,A,3249.7842,N,11707.0709,W,61.10,349.00,300410,,*22
$GPRMC,223620.5,A,3249.8339,N,11707.0850,W,61.80,348.80,300410,,*2D
$GPRMC,223623.5,A,3249.8846,N,11707.0970,W,62.10,349.60,300410,,*2B
$GPRMC,223626.5,A,3249.9348,N,11707.1073,W,61.50,349.10,300410,,*21
$GPRMC,223629.5,A,3249.9849,N,11707.1188,W,62.30,348.30,300410,,*27
$GPRMC,223632.5,A,3250.0369,N,11707.1338,W,63.00,344.90,300410,,*28
$GPRMC,223635.5,A,3250.0852,N,11707.1535,W,62.70,340.10,300410,,*2D
$GPRMC,223638.5,A,3250.1339,N,11707.1769,W,63.10,338.10,300410,,*24
$GPRMC,223641.5,A,3250.1813,N,11707.2011,W,62.40,338.00,300410,,*27
$GPRMC,223644.5,A,3250.2292,N,11707.2201,W,61.60,341.90,300410,,*27
$GPRMC,223647.5,A,3250.2808,N,11707.2347,W,62.50,348.00,300410,,*2E
$GPRMC,223650.5,A,3250.3318,N,11707.2460,W,62.70,352.40,300410,,*2C
$GPRMC,223653.5,A,3250.3837,N,11707.2493,W,60.60,358.90,300410,,*21
$GPRMC,223656.5,A,3250.4325,N,11707.2449,W,56.30,5.10,300410,,*2F
$GPRMC,223659.5,A,3250.4721,N,11707.2388,W,46.90,6.20,300410,,*21
$GPRMC,223702.5,A,3250.5029,N,11707.2324,W,36.90,10.30,300410,,*17
$GPRMC,223705.5,A,3250.5306,N,11707.2247,W,34.60,13.60,300410,,*11
$GPRMC,223708.5,A,3250.5462,N,11707.2184,W,23.40,18.10,300410,,*1D
$GPRMC,223711.5,A,3250.5615,N,11707.2113,W,19.70,19.80,300410,,*1B
$GPRMC,223714.5,A,3250.5777,N,11707.2005,W,20.80,21.50,300410,,*1E
$GPRMC,223717.5,A,3250.5912,N,11707.1933,W,18.00,22.00,300410,,*1A
$GPRMC,223720.5,A,3250.6058,N,11707.1857,W,20.80,24.00,300410,,*1C
$GPRMC,223723.5,A,3250.6219,N,11707.1748,W,21.70,27.60,300410,,*12
$GPRMC,223726.5,A,3250.6370,N,11707.1633,W,21.50,30.50,300410,,*13
$GPRMC,223729.5,A,3250.6517,N,11707.1517,W,24.00,29.80,300410,,*1B
$GPRMC,223732.5,A,3250.6692,N,11707.1399,W,22.70,29.20,300410,,*14
$GPRMC,223735.5,A,3250.6874,N,11707.1287,W,24.70,27.90,300410,,*18
$GPRMC,223738.5,A,3250.7086,N,11707.1155,W,29.80,28.40,300410,,*1D
$GPRMC,223741.5,A,3250.7326,N,11707.1001,W,34.10,28.70,300410,,*1C
$GPRMC,223744.5,A,3250.7612,N,11707.0829,W,38.10,28.40,300410,,*17
$GPRMC,223747.5,A,3250.7915,N,11707.0639,W,41.30,29.00,300410,,*1A
$GPRMC,223750.5,A,3250.8237,N,11707.0430,W,43.20,28.30,300410,,*12
$GPRMC,223753.5,A,3250.8582,N,11707.0251,W,45.20,23.90,300410,,*1E
$GPRMC,223756.5,A,3250.8938,N,11707.0067,W,46.40,22.30,300410,,*1F
$GPRMC,223759.5,A,3250.9272,N,11706.9916,W,42.60,20.40,300410,,*10
$GPRMC,223802.5,A,3250.9538,N,11706.9789,W,34.50,20.80,300410,,*1E
$GPRMC,223805.5,A,3250.9784,N,11706.9697,W,29.50,16.80,300410,,*1B
$GPRMC,223808.5,A,3251.0015,N,11706.9651,W,29.60,15.00,300410,,*13
$GPRMC,223811.5,A,3251.0256,N,11706.9568,W,32.70,17.10,300410,,*1F
$GPRMC,223814.5,A,3251.0550,N,11706.9465,W,36.90,14.30,300410,,*1C
$GPRMC,223817.5,A,3251.0883,N,11706.9364,W,40.70,14.70,300410,,*11
$GPRMC,223820.5,A,3251.1251,N,11706.9232,W,44.20,15.60,300410,,*12
$GPRMC,223823.5,A,3251.1624,N,11706.9109,W,46.90,15.00,300410,,*13
$GPRMC,223826.5,A,3251.2013,N,11706.8985,W,48.60,14.10,300410,,*1B
$GPRMC,223829.5,A,3251.2431,N,11706.8857,W,52.90,16.40,300410,,*1D
$GPRMC,223832.5,A,3251.2862,N,11706.8692,W,54.00,19.30,300410,,*1D
$GPRMC,223835.5,A,3251.3287,N,11706.8458,W,56.20,23.80,300410,,*1C
$GPRMC,223838.5,A,3251.3727,N,11706.8203,W,58.40,27.00,300410,,*12
$GPRMC,223841.5,A,3251.4156,N,11706.7932,W,58.70,27.20,300410,,*1C
$GPRMC,223844.5,A,3251.4605,N,11706.7659,W,60.30,27.30,300410,,*14
$GPRMC,223847.5,A,3251.5078,N,11706.7397,W,62.00,24.90,300410,,*15
$GPRMC,223850.5,A,3251.5560,N,11706.7168,W,62.50,21.20,300410,,*16
$GPRMC,223853.5,A,3251.6056,N,11706.6962,W,63.70,19.50,300410,,*1A
$GPRMC,223856.5,A,3251.6552,N,11706.6762,W,63.30,20.00,300410,,*1B
$GPRMC,223859.5,A,3251.7040,N,11706.6582,W,63.40,19.00,300410,,*12
$GPRMC,223902.5,A,3251.7537,N,11706.6368,W,63.00,20.50,300410,,*11
$GPRMC,223905.5,A,3251.8027,N,11706.6144,W,62.00,21.50,300410,,*11
$GPRMC,223908.5,A,3251.8506,N,11706.5896,W,61.80,23.00,300410,,*13
$GPRMC,223911.5,A,3251.8981,N,11706.5650,W,61.10,23.30,300410,,*16
$GPRMC,223914.5,A,3251.9436,N,11706.5389,W,60.40,25.20,300410,,*11
$GPRMC,223917.5,A,3251.9898,N,11706.5149,W,60.10,24.20,300410,,*10
$GPRMC,223920.5,A,3252.0360,N,11706.4928,W,60.20,21.30,300410,,*1B
$GPRMC,223923.5,A,3252.0839,N,11706.4740,W,60.50,18.00,300410,,*11
$GPRMC,223926.5,A,3252.1327,N,11706.4570,W,61.10,16.00,300410,,*1B
$GPRMC,223929.5,A,3252.1823,N,11706.4436,W,61.10,13.70,300410,,*1A
$GPRMC,223932.5,A,3252.2319,N,11706.4344,W,60.90,8.80,300410,,*2F
$GPRMC,223935.5,A,3252.2824,N,11706.4265,W,61.20,6.50,300410,,*26
$GPRMC,223938.5,A,3252.3337,N,11706.4209,W,61.80,4.70,300410,,*23
$GPRMC,223941.5,A,3252.3843,N,11706.4173,W,60.60,3.40,300410,,*20
$GPRMC,223944.5,A,3252.4347,N,11706.4174,W,60.70,0.30,300410,,*2F
$GPRMC,223947.5,A,3252.4859,N,11706.4195,W,61.70,357.50,300410,,*21
$GPRMC,223950.5,A,3252.5365,N,11706.4240,W,61.10,355.80,300410,,*20
$GPRMC,223953.5,A,3252.5871,N,11706.4313,W,61.60,353.20,300410,,*21
$GPRMC,223956.5,A,3252.6386,N,11706.4398,W,62.10,351.80,300410,,*2B
$GPRMC,223959.5,A,3252.6884,N,11706.4508,W,61.20,349.20,300410,,*21
$GPRMC,224002.5,A,3252.7390,N,11706.4636,W,61.10,346.90,300410,,*27
$GPRMC,224005.5,A,3252.7895,N,11706.4789,W,61.70,344.80,300410,,*2E
$GPRMC,224008.5,A,3252.8396,N,11706.4971,W,62.80,343.10,300410,,*2F
$GPRMC,224011.5,A,3252.8889,N,11706.5187,W,62.60,340.20,300410,,*2C
$GPRMC,224014.5,A,3252.9375,N,11706.5404,W,62.70,338.50,300410,,*27
$GPRMC,224017.5,A,3252.9868,N,11706.5658,W,63.60,335.30,300410,,*23
$GPRMC,224020.5,A,3253.0350,N,11706.5949,W,63.70,333.30,300410,,*27
$GPRMC,224023.5,A,3253.0843,N,11706.6236,W,65.20,333.50,300410,,*28
$GPRMC,224026.5,A,3253.1310,N,11706.6526,W,64.20,333.30,300410,,*20
$GPRMC,224029.5,A,3253.1805,N,11706.6815,W,64.20,333.30,300410,,*2D
$GPRMC,224032.5,A,3253.2299,N,11706.7115,W,65.00,332.80,300410,,*2A
$GPRMC,224035.5,A,3253.2772,N,11706.7422,W,65.30,332.60,300410,,*21
$GPRMC,224038.5,A,3253.3251,N,11706.7717,W,64.80,333.60,300410,,*27
$GPRMC,224041.5,A,3253.3749,N,11706.7992,W,65.20,334.60,300410,,*2A
$GPRMC,224044.5,A,3253.4243,N,11706.8242,W,65.50,335.50,300410,,*2B
$GPRMC,224047.5,A,3253.4746,N,11706.8486,W,64.00,338.00,300410,,*2A
$GPRMC,224050.5,A,3253.5247,N,11706.8705,W,64.20,339.70,300410,,*25
$GPRMC,224053.5,A,3253.5775,N,11706.8930,W,66.80,341.40,300410,,*2E
$GPRMC,224056.5,A,3253.6308,N,11706.9128,W,67.00,343.40,300410,,*2D
$GPRMC,224059.5,A,3253.6847,N,11706.9295,W,66.70,345.20,300410,,*21
$GPRMC,224102.5,A,3253.7401,N,11706.9444,W,66.20,348.30,300410,,*22
$GPRMC,224105.5,A,3253.7941,N,11706.9561,W,65.50,350.90,300410,,*2D
$GPRMC,224108.5,A,3253.8480,N,11706.9645,W,65.10,352.50,300410,,*20
$GPRMC,224111.5,A,3253.9011,N,11706.9693,W,63.20,355.30,300410,,*2A
$GPRMC,224114.5,A,3253.9511,N,11706.9719,W,61.30,358.40,300410,,*20
$GPRMC,224117.5,A,3254.0038,N,11706.9702,W,60.90,0.10,300410,,*29
$GPRMC,224120.5,A,3254.0517,N,11706.9692,W,58.70,0.40,300410,,*2D
$GPRMC,224123.5,A,3254.0963,N,11706.9692,W,53.40,359.90,300410,,*2B
$GPRMC,224126.5,A,3254.1350,N,11706.9688,W,46.50,0.20,300410,,*2F
$GPRMC,224129.5,A,3254.1683,N,11706.9698,W,40.10,0.00,300410,,*2A
$GPRMC,224132.5,A,3254.1978,N,11706.9702,W,34.80,0.00,300410,,*23
$GPRMC,224135.5,A,3254.2241,N,11706.9704,W,30.80,359.30,300410,,*28
$GPRMC,224138.5,A,3254.2451,N,11706.9701,W,26.60,0.00,300410,,*22
$GPRMC,224141.5,A,3254.2662,N,11706.9705,W,24.40,359.10,300410,,*24
$GPRMC,224144.5,A,3254.2824,N,11706.9711,W,19.10,359.00,300410,,*22
$GPRMC,224147.5,A,3254.2942,N,11706.9717,W,14.10,359.50,300410,,*2E
$GPRMC,224150.5,A,3254.3051,N,11706.9719,W,12.10,357.20,300410,,*23
$GPRMC,224153.5,A,3254.3157,N,11706.9721,W,12.80,357.80,300410,,*2F
$GPRMC,224156.5,A,3254.3293,N,11706.9729,W,17.40,360.00,300410,,*2C
$GPRMC,224159.5,A,3254.3493,N,11706.9736,W,23.20,0.40,300410,,*2B
$GPRMC,224202.5,A,3254.3701,N,11706.9721,W,26.30,0.50,300410,,*2D
$GPRMC,224205.5,A,3254.3924,N,11706.9722,W,26.20,0.60,300410,,*22
$GPRMC,224208.5,A,3254.4147,N,11706.9728,W,27.40,359.40,300410,,*25
$GPRMC,224211.5,A,3254.4399,N,11706.9714,W,29.40,359.90,300410,,*20
$GPRMC,224214.5,A,3254.4664,N,11706.9711,W,31.90,0.70,300410,,*22
$GPRMC,224217.5,A,3254.4937,N,11706.9710,W,33.00,0.10,300410,,*24
$GPRMC,224220.5,A,3254.5240,N,11706.9713,W,34.70,0.20,300410,,*2A
$GPRMC,224223.5,A,3254.5536,N,11706.9733,W,36.50,359.30,300410,,*23
$GPRMC,224226.5,A,3254.5840,N,11706.9709,W,35.20,4.40,300410,,*2B
$GPRMC,224229.5,A,3254.6167,N,11706.9688,W,37.40,1.90,300410,,*2F
$GPRMC,224232.5,A,3254.6474,N,11706.9670,W,36.50,1.70,300410,,*2B
$GPRMC,224235.5,A,3254.6777,N,11706.9653,W,37.00,1.80,300410,,*26
$GPRMC,224238.5,A,3254.7090,N,11706.9668,W,38.30,359.80,300410,,*2E
$GPRMC,224241.5,A,3254.7394,N,11706.9641,W,38.70,1.80,300410,,*26
$GPRMC,224244.5,A,3254.7727,N,11706.9605,W,39.10,1.90,300410,,*29
$GPRMC,224247.5,A,3254.8049,N,11706.9602,W,39.40,2.10,300410,,*23
$GPRMC,224250.5,A,3254.8392,N,11706.9594,W,41.60,2.10,300410,,*21
$GPRMC,224253.5,A,3254.8767,N,11706.9560,W,43.90,4.10,300410,,*2C
$GPRMC,224256.5,A,3254.9148,N,11706.9521,W,43.50,5.30,300410,,*29
$GPRMC,224259.5,A,3254.9512,N,11706.9502,W,42.90,2.70,300410,,*22
$GPRMC,224302.5,A,3254.9859,N,11706.9492,W,40.70,2.40,300410,,*28
$GPRMC,224305.5,A,3255.0197,N,11706.9496,W,40.20,1.00,300410,,*2A
$GPRMC,224308.5,A,3255.0525,N,11706.9482,W,39.60,2.30,300410,,*25
$GPRMC,224311.5,A,3255.0832,N,11706.9465,W,37.40,4.10,300410,,*27
$GPRMC,224314.5,A,3255.1106,N,11706.9416,W,35.20,6.20,300410,,*2C
$GPRMC,224317.5,A,3255.1404,N,11706.9368,W,35.70,7.20,300410,,*22
$GPRMC,224320.5,A,3255.1714,N,11706.9304,W,38.30,7.90,300410,,*2C
$GPRMC,224323.5,A,3255.2054,N,11706.9249,W,40.60,7.20,300410,,*26
$GPRMC,224326.5,A,3255.2395,N,11706.9216,W,42.00,7.10,300410,,*20
$GPRMC,224329.5,A,3255.2750,N,11706.9164,W,43.70,7.80,300410,,*2B
$GPRMC,224332.5,A,3255.3124,N,11706.9097,W,45.00,8.20,300410,,*2C
$GPRMC,224335.5,A,3255.3488,N,11706.9020,W,45.00,8.80,300410,,*2E
$GPRMC,224338.5,A,3255.3875,N,11706.8947,W,46.30,9.00,300410,,*2D
$GPRMC,224341.5,A,3255.4267,N,11706.8878,W,47.10,8.70,300410,,*25
$GPRMC,224344.5,A,3255.4647,N,11706.8798,W,47.00,9.70,300410,,*27
$GPRMC,224347.5,A,3255.5009,N,11706.8717,W,44.80,10.10,300410,,*1B
$GPRMC,224350.5,A,3255.5370,N,11706.8637,W,44.10,10.90,300410,,*12
$GPRMC,224353.5,A,3255.5724,N,11706.8555,W,43.20,12.10,300410,,*1D
$GPRMC,224356.5,A,3255.6073,N,11706.8452,W,44.60,13.40,300410,,*1F
$GPRMC,224359.5,A,3255.6454,N,11706.8336,W,46.70,14.90,300410,,*1D
$GPRMC,224402.5,A,3255.6837,N,11706.8213,W,47.00,14.70,300410,,*13
$GPRMC,224405.5,A,3255.7194,N,11706.8096,W,45.40,13.90,300410,,*15
$GPRMC,224408.5,A,3255.7546,N,11706.7988,W,43.70,12.00,300410,,*17
$GPRMC,224411.5,A,3255.7882,N,11706.7881,W,40.60,14.60,300410,,*10
$GPRMC,224414.5,A,3255.8153,N,11706.7796,W,34.10,14.70,300410,,*13
$GPRMC,224417.5,A,3255.8353,N,11706.7710,W,26.80,18.20,300410,,*1F
$GPRMC,224420.5,A,3255.8523,N,11706.7668,W,22.70,16.20,300410,,*11
$GPRMC,224423.5,A,3255.8701,N,11706.7630,W,22.70,13.60,300410,,*1C
$GPRMC,224426.5,A,3255.8912,N,11706.7590,W,26.10,12.80,300410,,*11
$GPRMC,224429.5,A,3255.9129,N,11706.7501,W,27.70,15.30,300410,,*1C
$GPRMC,224432.5,A,3255.9371,N,11706.7443,W,29.90,14.80,300410,,*14
$GPRMC,224435.5,A,3255.9620,N,11706.7367,W,30.20,14.50,300410,,*1D
$GPRMC,224438.5,A,3255.9854,N,11706.7293,W,28.80,16.60,300410,,*15
$GPRMC,224441.5,A,3256.0049,N,11706.7231,W,24.40,15.50,300410,,*1D
$GPRMC,224444.5,A,3256.0248,N,11706.7153,W,23.80,15.90,300410,,*1B
$GPRMC,224447.5,A,3256.0445,N,11706.7089,W,24.40,13.30,300410,,*12
$GPRMC,224450.5,A,3256.0657,N,11706.7032,W,26.00,13.90,300410,,*19
$GPRMC,224453.5,A,3256.0871,N,11706.6959,W,27.40,13.70,300410,,*1E
$GPRMC,224456.5,A,3256.1111,N,11706.6875,W,29.50,13.50,300410,,*17
$GPRMC,224459.5,A,3256.1322,N,11706.6794,W,25.80,17.80,300410,,*12
$GPRMC,224502.5,A,3256.1504,N,11706.6760,W,22.60,12.40,300410,,*14
$GPRMC,224505.5,A,3256.1701,N,11706.6706,W,24.20,12.70,300410,,*15
$GPRMC,224508.5,A,3256.1919,N,11706.6644,W,26.70,12.70,300410,,*1F
$GPRMC,224511.5,A,3256.2144,N,11706.6585,W,25.90,12.30,300410,,*13
$GPRMC,224514.5,A,3256.2341,N,11706.6509,W,23.60,16.30,300410,,*18
$GPRMC,224517.5,A,3256.2516,N,11706.6444,W,21.80,15.80,300410,,*13
$GPRMC,224520.5,A,3256.2714,N,11706.6407,W,23.50,14.80,300410,,*1E
$GPRMC,224523.5,A,3256.2915,N,11706.6329,W,25.70,15.00,300410,,*14
$GPRMC,224526.5,A,3256.3143,N,11706.6265,W,27.90,13.90,300410,,*11
$GPRMC,224529.5,A,3256.3376,N,11706.6190,W,29.00,15.10,300410,,*1A
$GPRMC,224532.5,A,3256.3609,N,11706.6128,W,28.20,15.80,300410,,*14
$GPRMC,224535.5,A,3256.3860,N,11706.6060,W,32.20,16.40,300410,,*1B
$GPRMC,224538.5,A,3256.4139,N,11706.5959,W,36.90,16.00,300410,,*1F
$GPRMC,224541.5,A,3256.4464,N,11706.5852,W,41.60,15.80,300410,,*12
$GPRMC,224544.5,A,3256.4819,N,11706.5727,W,44.00,17.00,300410,,*15
$GPRMC,224547.5,A,3256.5162,N,11706.5594,W,43.80,17.60,300410,,*11
$GPRMC,224550.5,A,3256.5490,N,11706.5441,W,42.40,21.20,300410,,*1A
$GPRMC,224553.5,A,3256.5842,N,11706.5255,W,43.80,22.80,300410,,*1D
$GPRMC,224556.5,A,3256.6174,N,11706.5070,W,41.30,24.00,300410,,*15
$GPRMC,224559.5,A,3256.6471,N,11706.4876,W,39.90,25.80,300410,,*19
$GPRMC,224602.5,A,3256.6775,N,11706.4676,W,40.30,28.30,300410,,*1F
$GPRMC,224605.5,A,3256.7084,N,11706.4493,W,41.10,30.60,300410,,*16
$GPRMC,224608.5,A,3256.7383,N,11706.4223,W,42.90,36.80,300410,,*11
$GPRMC,224611.5,A,3256.7623,N,11706.3943,W,41.40,48.50,300410,,*16
$GPRMC,224614.5,A,3256.7778,N,11706.3627,W,38.20,64.00,300410,,*12
$GPRMC,224617.5,A,3256.7892,N,11706.3322,W,33.40,68.30,300410,,*18
$GPRMC,224620.5,A,3256.7980,N,11706.3070,W,28.60,71.10,300410,,*18
$GPRMC,224623.5,A,3256.7979,N,11706.2819,W,26.30,93.60,300410,,*1B
$GPRMC,224626.5,A,3256.7882,N,11706.2562,W,28.80,116.20,300410,,*27
$GPRMC,224629.5,A,3256.7744,N,11706.2290,W,32.20,117.40,300410,,*21
$GPRMC,224632.5,A,3256.7639,N,11706.1955,W,35.70,106.90,300410,,*2E
$GPRMC,224635.5,A,3256.7605,N,11706.1540,W,40.10,92.60,300410,,*19
$GPRMC,224638.5,A,3256.7683,N,11706.1099,W,42.70,77.60,300410,,*14
$GPRMC,224641.5,A,3256.7811,N,11706.0680,W,44.70,69.30,300410,,*1C
$GPRMC,224644.5,A,3256.7968,N,11706.0243,W,47.00,67.50,300410,,*11
$GPRMC,224647.5,A,3256.8085,N,11705.9796,W,47.60,76.10,300410,,*12
$GPRMC,224650.5,A,3256.8137,N,11705.9343,W,46.20,81.40,300410,,*18
$GPRMC,224653.5,A,3256.8181,N,11705.8898,W,45.30,83.40,300410,,*1A
$GPRMC,224656.5,A,3256.8204,N,11705.8492,W,39.00,86.30,300410,,*1D
$GPRMC,224659.5,A,3256.8205,N,11705.8191,W,29.10,90.50,300410,,*14
$GPRMC,224702.5,A,3256.8206,N,11705.8014,W,17.90,88.30,300410,,*1E
$GPRMC,224705.5,A,3256.8207,N,11705.7928,W,8.90,89.40,300410,,*29
$GPRMC,224708.5,A,3256.8209,N,11705.7878,W,4.40,91.90,300410,,*2B
$GPRMC,224711.5,A,3256.8190,N,11705.7823,W,9.10,97.00,300410,,*29
$GPRMC,224714.5,A,3256.8171,N,11705.7674,W,16.90,96.40,300410,,*1C
$GPRMC,224717.5,A,3256.8146,N,11705.7454,W,23.70,99.00,300410,,*18
$GPRMC,224720.5,A,3256.8109,N,11705.7178,W,28.20,99.10,300410,,*13
$GPRMC,224723.5,A,3256.8086,N,11705.6889,W,30.00,98.70,300410,,*1C
$GPRMC,224726.5,A,3256.8052,N,11705.6561,W,32.60,97.70,300410,,*10
$GPRMC,224729.5,A,3256.8013,N,11705.6233,W,33.70,98.40,300410,,*16
$GPRMC,224732.5,A,3256.7972,N,11705.5872,W,36.70,98.70,300410,,*17
$GPRMC,224735.5,A,3256.7935,N,11705.5485,W,38.40,97.60,300410,,*14
$GPRMC,224738.5,A,3256.7878,N,11705.5112,W,39.10,98.80,300410,,*1F
$GPRMC,224741.5,A,3256.7831,N,11705.4706,W,41.20,97.40,300410,,*11
$GPRMC,224744.5,A,3256.7787,N,11705.4297,W,41.10,97.60,300410,,*1A
$GPRMC,224747.5,A,3256.7753,N,11705.3874,W,41.90,96.20,300410,,*1D
$GPRMC,224750.5,A,3256.7723,N,11705.3450,W,41.70,96.80,300410,,*12
$GPRMC,224753.5,A,3256.7686,N,11705.3036,W,42.20,97.20,300410,,*16
$GPRMC,224756.5,A,3256.7639,N,11705.2609,W,43.80,97.20,300410,,*17
$GPRMC,224759.5,A,3256.7581,N,11705.2180,W,44.20,97.80,300410,,*19
$GPRMC,224802.5,A,3256.7549,N,11705.1709,W,43.50,97.50,300410,,*15
$GPRMC,224805.5,A,3256.7508,N,11705.1282,W,43.80,96.10,300410,,*19
$GPRMC,224808.5,A,3256.7471,N,11705.0923,W,35.80,95.40,300410,,*1D
$GPRMC,224811.5,A,3256.7425,N,11705.0690,W,25.50,95.80,300410,,*13
$GPRMC,224814.5,A,3256.7414,N,11705.0573,W,15.00,84.80,300410,,*1C
$GPRMC,224841.5,A,3256.7399,N,11705.0548,W,8.00,106.60,300410,,*1F
$GPRMC,224844.5,A,3256.7373,N,11705.0390,W,17.20,105.60,300410,,*22
$GPRMC,224847.5,A,3256.7348,N,11705.0136,W,25.90,98.80,300410,,*16
$GPRMC,224850.5,A,3256.7335,N,11704.9808,W,32.80,92.20,300410,,*11
$GPRMC,224853.5,A,3256.7359,N,11704.9414,W,37.50,87.20,300410,,*15
$GPRMC,224856.5,A,3256.7383,N,11704.9023,W,39.60,84.30,300410,,*18
$GPRMC,224859.5,A,3256.7468,N,11704.8603,W,41.50,78.00,300410,,*1C
$GPRMC,224902.5,A,3256.7585,N,11704.8197,W,42.10,71.70,300410,,*12
$GPRMC,224905.5,A,3256.7699,N,11704.7810,W,41.30,67.40,300410,,*17
$GPRMC,224908.5,A,3256.7848,N,11704.7465,W,33.40,61.70,300410,,*11
$GPRMC,224911.5,A,3256.7965,N,11704.7223,W,24.70,58.50,300410,,*1E
$GPRMC,224914.5,A,3256.8041,N,11704.7066,W,15.30,57.90,300410,,*1D
$GPRMC,224917.5,A,3256.8078,N,11704.7000,W,8.40,55.00,300410,,*24
$GPRMC,224920.5,A,3256.8135,N,11704.6893,W,16.70,53.70,300410,,*16
$GPRMC,224923.5,A,3256.8252,N,11704.6712,W,25.80,53.10,300410,,*18
$GPRMC,224926.5,A,3256.8399,N,11704.6465,W,32.80,54.80,300410,,*10
$GPRMC,224929.5,A,3256.8572,N,11704.6181,W,36.00,54.20,300410,,*15
$GPRMC,224932.5,A,3256.8742,N,11704.5882,W,36.00,54.80,300410,,*1D
$GPRMC,224935.5,A,3256.8928,N,11704.5598,W,36.30,55.60,300410,,*12
$GPRMC,224938.5,A,3256.9093,N,11704.5295,W,35.60,58.60,300410,,*16
$GPRMC,224941.5,A,3256.9237,N,11704.4988,W,36.40,62.10,300410,,*1D
$GPRMC,224944.5,A,3256.9375,N,11704.4665,W,35.80,63.50,300410,,*19
$GPRMC,224947.5,A,3256.9491,N,11704.4329,W,36.60,67.60,300410,,*10
$GPRMC,224950.5,A,3256.9595,N,11704.4000,W,36.90,70.50,300410,,*11
$GPRMC,224953.5,A,3256.9689,N,11704.3649,W,37.50,73.10,300410,,*1A
$GPRMC,224956.5,A,3256.9761,N,11704.3268,W,37.70,76.60,300410,,*1F
$GPRMC,224959.5,A,3256.9820,N,11704.2899,W,37.90,78.30,300410,,*1A
$GPRMC,225002.5,A,3256.9899,N,11704.2506,W,40.10,78.30,300410,,*1D
$GPRMC,225005.5,A,3256.9955,N,11704.2123,W,40.00,81.50,300410,,*19
$GPRMC,225008.5,A,3257.0049,N,11704.1760,W,37.50,72.80,300410,,*1E
$GPRMC,225011.5,A,3257.0134,N,11704.1473,W,31.40,71.40,300410,,*14
$GPRMC,225014.5,A,3257.0209,N,11704.1249,W,23.50,70.00,300410,,*14
$GPRMC,225017.5,A,3257.0265,N,11704.1108,W,15.60,67.70,300410,,*1C
$GPRMC,225020.5,A,3257.0289,N,11704.1029,W,6.50,71.50,300410,,*2C
$GPRMC,225029.5,A,3257.0323,N,11704.0959,W,7.60,60.50,300410,,*29
$GPRMC,225032.5,A,3257.0379,N,11704.0831,W,16.90,62.50,300410,,*1E
$GPRMC,225035.5,A,3257.0465,N,11704.0631,W,23.00,62.10,300410,,*16
$GPRMC,225038.5,A,3257.0571,N,11704.0384,W,26.90,62.20,300410,,*1B
$GPRMC,225041.5,A,3257.0671,N,11704.0130,W,29.30,64.10,300410,,*1B
$GPRMC,225044.5,A,3257.0770,N,11703.9854,W,29.10,67.50,300410,,*1E
$GPRMC,225047.5,A,3257.0857,N,11703.9588,W,28.30,69.20,300410,,*11
$GPRMC,225050.5,A,3257.0924,N,11703.9345,W,24.20,71.20,300410,,*11
$GPRMC,225053.5,A,3257.0974,N,11703.9150,W,20.40,74.20,300410,,*16
$GPRMC,225056.5,A,3257.1000,N,11703.9009,W,13.80,73.50,300410,,*19
$GPRMC,225059.5,A,3257.1018,N,11703.8922,W,7.20,71.40,300410,,*22
$GPRMC,225129.5,A,3257.1010,N,11703.8834,W,7.10,90.00,300410,,*22
$GPRMC,225132.5,A,3257.1022,N,11703.8709,W,12.40,86.00,300410,,*1E
$GPRMC,225135.5,A,3257.1055,N,11703.8507,W,19.10,83.90,300410,,*17
$GPRMC,225138.5,A,3257.1080,N,11703.8294,W,18.30,84.20,300410,,*10
$GPRMC,225141.5,A,3257.1090,N,11703.8105,W,20.40,87.10,300410,,*18
$GPRMC,225144.5,A,3257.1081,N,11703.7889,W,22.80,91.60,300410,,*11
$GPRMC,225147.5,A,3257.1087,N,11703.7625,W,25.50,90.40,300410,,*15
$GPRMC,225150.5,A,3257.1094,N,11703.7354,W,27.70,91.00,300410,,*17
$GPRMC,225153.5,A,3257.1084,N,11703.7063,W,29.40,91.30,300410,,*1C
$GPRMC,225156.5,A,3257.1098,N,11703.6757,W,31.10,86.30,300410,,*1F
$GPRMC,225159.5,A,3257.1137,N,11703.6457,W,30.60,78.80,300410,,*1B
$GPRMC,225202.5,A,3257.1222,N,11703.6151,W,31.10,70.30,300410,,*17
$GPRMC,225205.5,A,3257.1343,N,11703.5862,W,32.50,61.50,300410,,*1D
$GPRMC,225208.5,A,3257.1481,N,11703.5592,W,32.90,57.90,300410,,*1E
$GPRMC,225211.5,A,3257.1652,N,11703.5329,W,33.50,52.30,300410,,*1E
$GPRMC,225214.5,A,3257.1817,N,11703.5114,W,29.00,48.20,300410,,*1C
$GPRMC,225217.5,A,3257.1987,N,11703.4917,W,28.00,46.10,300410,,*11
$GPRMC,225220.5,A,3257.2131,N,11703.4712,W,24.60,44.60,300410,,*17
$GPRMC,225223.5,A,3257.2255,N,11703.4580,W,19.10,41.20,300410,,*14
