NMEA Sentence Code,UTC Time,Status,Latitude,Latitude Direction,Longitude,Longitude Direction,Speed (knots),Track Angle (degrees true),Date,MagneticVariation,Magnetic Variation Direction,[FAA Mode]-Optional,Checksum
$GPRMC,010722.3,A,3337.8701,N,11743.4258,W,25.00,135.40,100310,,*22
$GPRMC,010725.3,A,3337.8547,N,11743.4087,W,25.40,136.00,100310,,*26
$GPRMC,010728.3,A,3337.8397,N,11743.3907,W,26.10,135.30,100310,,*20
$GPRMC,010731.3,A,3337.8238,N,11743.3716,W,27.60,135.00,100310,,*27
$GPRMC,010734.3,A,3337.8053,N,11743.3501,W,31.60,135.00,100310,,*2E
$GPRMC,010737.3,A,3337.7863,N,11743.3285,W,31.20,136.80,100310,,*2D
$GPRMC,010740.3,A,3337.7666,N,11743.3073,W,30.60,139.30,100310,,*2C
$GPRMC,010743.3,A,3337.7474,N,11743.2895,W,29.60,143.70,100310,,*2E
$GPRMC,010746.3,A,3337.7319,N,11743.2759,W,24.40,143.70,100310,,*27
$GPRMC,010749.3,A,3337.7213,N,11743.2651,W,18.80,141.00,100310,,*2C
$GPRMC,010752.3,A,3337.7098,N,11743.2531,W,18.70,137.30,100310,,*2F
$GPRMC,010755.3,A,3337.6939,N,11743.2416,W,21.30,146.10,100310,,*25
$GPRMC,010758.3,A,3337.6754,N,11743.2228,W,27.50,142.30,100310,,*20
$GPRMC,010801.3,A,3337.6570,N,11743.2052,W,28.30,141.80,100310,,*29
$GPRMC,010804.3,A,3337.6386,N,11743.1879,W,30.60,142.30,100310,,*25
$GPRMC,010807.3,A,3337.6165,N,11743.1679,W,32.80,141.80,100310,,*23
$GPRMC,010810.3,A,3337.5956,N,11743.1482,W,32.20,142.30,100310,,*2A
$GPRMC,010813.3,A,3337.5747,N,11743.1297,W,31.50,142.60,100310,,*24
$GPRMC,010816.3,A,3337.5530,N,11743.1093,W,33.30,141.50,100310,,*21
$GPRMC,010819.3,A,3337.5309,N,11743.0882,W,34.60,142.40,100310,,*2B
$GPRMC,010822.3,A,3337.5064,N,11743.0665,W,37.70,142.10,100310,,*2B
$GPRMC,010825.3,A,3337.4795,N,11743.0414,W,43.20,140.40,100310,,*21
$GPRMC,010828.3,A,3337.4517,N,11743.0142,W,43.80,141.60,100310,,*2B
$GPRMC,010831.3,A,3337.4222,N,11742.9871,W,45.30,141.90,100310,,*21
$GPRMC,010834.3,A,3337.3921,N,11742.9589,W,45.90,142.30,100310,,*22
$GPRMC,010837.3,A,3337.3611,N,11742.9302,W,47.40,142.40,100310,,*20
$GPRMC,010840.3,A,3337.3289,N,11742.9009,W,48.90,142.50,100310,,*2E
$GPRMC,010843.3,A,3337.2954,N,11742.8700,W,49.70,142.60,100310,,*24
$GPRMC,010846.3,A,3337.2633,N,11742.8403,W,47.60,142.50,100310,,*23
$GPRMC,010849.3,A,3337.2325,N,11742.8114,W,44.80,142.10,100310,,*24
$GPRMC,010852.3,A,3337.2040,N,11742.7850,W,42.90,142.20,100310,,*2C
$GPRMC,010855.3,A,3337.1771,N,11742.7615,W,37.80,143.20,100310,,*20
$GPRMC,010858.3,A,3337.1560,N,11742.7425,W,28.70,142.00,100310,,*2C
$GPRMC,010901.3,A,3337.1391,N,11742.7280,W,24.40,142.50,100310,,*2A
$GPRMC,010904.3,A,3337.1236,N,11742.7127,W,23.00,141.70,100310,,*2F
$GPRMC,010907.3,A,3337.1086,N,11742.6996,W,23.30,142.50,100310,,*24
$GPRMC,010910.3,A,3337.0930,N,11742.6848,W,26.50,141.90,100310,,*29
$GPRMC,010913.3,A,3337.0743,N,11742.6664,W,30.90,141.80,100310,,*2A
$GPRMC,010916.3,A,3337.0534,N,11742.6465,W,33.60,142.20,100310,,*2B
$GPRMC,010919.3,A,3337.0295,N,11742.6252,W,36.20,142.50,100310,,*2C
$GPRMC,010922.3,A,3337.0045,N,11742.6023,W,37.90,141.50,100310,,*26
$GPRMC,010925.3,A,3336.9798,N,11742.5779,W,39.00,139.20,100310,,*2A
$GPRMC,010928.3,A,3336.9554,N,11742.5509,W,39.90,136.50,100310,,*21
$GPRMC,010931.3,A,3336.9315,N,11742.5237,W,38.70,135.80,100310,,*21
$GPRMC,010934.3,A,3336.9086,N,11742.4972,W,38.00,135.60,100310,,*2F
$GPRMC,010937.3,A,3336.8865,N,11742.4704,W,38.30,134.90,100310,,*2A
$GPRMC,010940.3,A,3336.8634,N,11742.4434,W,38.80,135.20,100310,,*21
$GPRMC,010943.3,A,3336.8408,N,11742.4158,W,38.70,136.00,100310,,*2E
$GPRMC,010946.3,A,3336.8169,N,11742.3879,W,41.20,135.20,100310,,*2E
$GPRMC,010949.3,A,3336.7909,N,11742.3567,W,44.10,134.60,100310,,*21
$GPRMC,010952.3,A,3336.7626,N,11742.3251,W,47.90,135.50,100310,,*22
$GPRMC,010955.3,A,3336.7323,N,11742.2901,W,50.10,135.50,100310,,*24
$GPRMC,010958.3,A,3336.7010,N,11742.2536,W,52.60,135.00,100310,,*22
$GPRMC,011001.3,A,3336.6698,N,11742.2154,W,54.60,132.60,100310,,*26
$GPRMC,011004.3,A,3336.6387,N,11742.1744,W,55.90,130.10,100310,,*27
$GPRMC,011007.3,A,3336.6090,N,11742.1274,W,58.00,125.90,100310,,*2F
$GPRMC,011010.3,A,3336.5811,N,11742.0787,W,60.30,122.30,100310,,*26
$GPRMC,011013.3,A,3336.5548,N,11742.0263,W,61.40,119.50,100310,,*23
$GPRMC,011016.3,A,3336.5306,N,11741.9710,W,62.40,117.50,100310,,*2C
$GPRMC,011019.3,A,3336.5078,N,11741.9150,W,61.60,115.80,100310,,*25
$GPRMC,011022.3,A,3336.4861,N,11741.8618,W,57.80,116.70,100310,,*21
$GPRMC,011025.3,A,3336.4654,N,11741.8111,W,57.40,116.50,100310,,*2E
$GPRMC,011028.3,A,3336.4428,N,11741.7591,W,57.30,117.30,100310,,*29
$GPRMC,011031.3,A,3336.4197,N,11741.7100,W,56.70,118.80,100310,,*2D
$GPRMC,011034.3,A,3336.3963,N,11741.6614,W,56.40,120.30,100310,,*2C
$GPRMC,011037.3,A,3336.3724,N,11741.6132,W,55.90,121.40,100310,,*29
$GPRMC,011040.3,A,3336.3476,N,11741.5658,W,55.90,122.60,100310,,*24
$GPRMC,011043.3,A,3336.3224,N,11741.5207,W,55.10,124.40,100310,,*24
$GPRMC,011046.3,A,3336.2944,N,11741.4763,W,55.40,126.30,100310,,*2B
$GPRMC,011049.3,A,3336.2668,N,11741.4320,W,55.30,127.40,100310,,*27
$GPRMC,011052.3,A,3336.2381,N,11741.3880,W,56.20,128.30,100310,,*23
$GPRMC,011055.3,A,3336.2075,N,11741.3449,W,56.20,127.80,100310,,*21
$GPRMC,011058.3,A,3336.1796,N,11741.2990,W,56.70,125.00,100310,,*22
$GPRMC,011101.3,A,3336.1535,N,11741.2519,W,56.20,122.50,100310,,*2E
$GPRMC,011104.3,A,3336.1289,N,11741.2048,W,55.00,120.60,100310,,*2A
$GPRMC,011107.3,A,3336.1082,N,11741.1544,W,54.70,115.90,100310,,*25
$GPRMC,011110.3,A,3336.0895,N,11741.1043,W,55.20,114.10,100310,,*23
$GPRMC,011113.3,A,3336.0706,N,11741.0535,W,55.50,114.50,100310,,*23
$GPRMC,011116.3,A,3336.0503,N,11741.0026,W,55.30,115.10,100310,,*25
$GPRMC,011119.3,A,3336.0315,N,11740.9528,W,54.70,114.50,100310,,*28
$GPRMC,011122.3,A,3336.0118,N,11740.9046,W,54.00,115.30,100310,,*22
$GPRMC,011125.3,A,3335.9934,N,11740.8574,W,51.50,115.40,100310,,*2B
$GPRMC,011128.3,A,3335.9767,N,11740.8118,W,49.10,114.40,100310,,*2C
$GPRMC,011131.3,A,3335.9590,N,11740.7706,W,46.70,115.10,100310,,*25
$GPRMC,011134.3,A,3335.9440,N,11740.7308,W,43.40,115.00,100310,,*21
$GPRMC,011137.3,A,3335.9289,N,11740.6953,W,39.60,116.70,100310,,*2F
$GPRMC,011140.3,A,3335.9131,N,11740.6616,W,38.30,120.00,100310,,*27
$GPRMC,011143.3,A,3335.8968,N,11740.6304,W,36.70,123.20,100310,,*2C
$GPRMC,011146.3,A,3335.8807,N,11740.6029,W,33.00,126.60,100310,,*2E
$GPRMC,011149.3,A,3335.8634,N,11740.5771,W,32.20,130.50,100310,,*21
$GPRMC,011152.3,A,3335.8463,N,11740.5527,W,30.30,132.60,100310,,*28
$GPRMC,011155.3,A,3335.8303,N,11740.5313,W,29.80,134.20,100310,,*2E
$GPRMC,011158.3,A,3335.8130,N,11740.5117,W,28.40,136.20,100310,,*28
$GPRMC,011201.3,A,3335.7954,N,11740.4932,W,29.20,137.80,100310,,*20
$GPRMC,011204.3,A,3335.7748,N,11740.4730,W,32.50,138.70,100310,,*27
$GPRMC,011207.3,A,3335.7502,N,11740.4502,W,38.00,141.80,100310,,*25
$GPRMC,011210.3,A,3335.7248,N,11740.4256,W,42.00,144.50,100310,,*29
$GPRMC,011213.3,A,3335.6946,N,11740.4013,W,43.60,146.80,100310,,*25
$GPRMC,011216.3,A,3335.6617,N,11740.3778,W,45.60,149.80,100310,,*2F
$GPRMC,011219.3,A,3335.6265,N,11740.3570,W,47.00,154.60,100310,,*2D
$GPRMC,011222.3,A,3335.5899,N,11740.3398,W,46.10,160.40,100310,,*2A
$GPRMC,011225.3,A,3335.5534,N,11740.3260,W,45.60,164.50,100310,,*20
$GPRMC,011228.3,A,3335.5157,N,11740.3153,W,46.60,169.00,100310,,*24
$GPRMC,011231.3,A,3335.4779,N,11740.3085,W,45.10,173.80,100310,,*2A
$GPRMC,011234.3,A,3335.4422,N,11740.3041,W,41.60,174.50,100310,,*23
$GPRMC,011237.3,A,3335.4154,N,11740.3045,W,29.30,179.90,100310,,*2A
$GPRMC,011240.3,A,3335.3924,N,11740.3048,W,26.00,180.30,100310,,*2F
$GPRMC,011243.3,A,3335.3712,N,11740.3050,W,25.60,180.10,100310,,*29
$GPRMC,011246.3,A,3335.3485,N,11740.3052,W,29.50,180.70,100310,,*2A
$GPRMC,011249.3,A,3335.3215,N,11740.3060,W,34.30,181.00,100310,,*27
$GPRMC,011252.3,A,3335.2905,N,11740.3064,W,39.50,180.90,100310,,*21
$GPRMC,011255.3,A,3335.2562,N,11740.3056,W,42.00,176.90,100310,,*2A
$GPRMC,011258.3,A,3335.2194,N,11740.3056,W,45.10,180.80,100310,,*24
$GPRMC,011301.3,A,3335.1800,N,11740.3071,W,46.90,180.30,100310,,*2B
$GPRMC,011304.3,A,3335.1397,N,11740.3074,W,48.30,180.80,100310,,*21
$GPRMC,011307.3,A,3335.0968,N,11740.3078,W,52.10,180.50,100310,,*21
$GPRMC,011310.3,A,3335.0524,N,11740.3086,W,54.40,180.70,100310,,*23
$GPRMC,011313.3,A,3335.0060,N,11740.3091,W,55.50,181.00,100310,,*25
$GPRMC,011316.3,A,3334.9592,N,11740.3103,W,56.00,181.10,100310,,*2D
$GPRMC,011319.3,A,3334.9120,N,11740.3114,W,56.20,180.80,100310,,*23
$GPRMC,011322.3,A,3334.8638,N,11740.3123,W,57.60,180.50,100310,,*28
$GPRMC,011325.3,A,3334.8154,N,11740.3133,W,57.80,181.10,100310,,*28
$GPRMC,011328.3,A,3334.7681,N,11740.3135,W,56.80,180.80,100310,,*2A
$GPRMC,011331.3,A,3334.7218,N,11740.3142,W,54.60,180.20,100310,,*20
$GPRMC,011334.3,A,3334.6726,N,11740.3146,W,58.80,179.30,100310,,*2D
$GPRMC,011337.3,A,3334.6266,N,11740.3156,W,57.40,178.50,100310,,*2A
$GPRMC,011340.3,A,3334.5808,N,11740.3175,W,55.10,180.90,100310,,*26
$GPRMC,011343.3,A,3334.5350,N,11740.3190,W,53.80,181.30,100310,,*2C
$GPRMC,011346.3,A,3334.4898,N,11740.3198,W,52.90,181.50,100310,,*29
$GPRMC,011349.3,A,3334.4477,N,11740.3219,W,51.10,181.80,100310,,*27
$GPRMC,011352.3,A,3334.4043,N,11740.3237,W,51.50,180.50,100310,,*2A
$GPRMC,011355.3,A,3334.3606,N,11740.3244,W,51.90,180.60,100310,,*26
$GPRMC,011358.3,A,3334.3181,N,11740.3250,W,52.30,181.10,100310,,*29
$GPRMC,011401.3,A,3334.2743,N,11740.3258,W,52.60,180.90,100310,,*2F
$GPRMC,011404.3,A,3334.2302,N,11740.3257,W,52.70,180.60,100310,,*2A
$GPRMC,011407.3,A,3334.1865,N,11740.3272,W,51.80,181.40,100310,,*28
$GPRMC,011410.3,A,3334.1438,N,11740.3282,W,54.00,182.00,100310,,*2F
$GPRMC,011413.3,A,3334.0977,N,11740.3304,W,56.30,183.90,100310,,*2D
$GPRMC,011416.3,A,3334.0527,N,11740.3350,W,51.30,185.90,100310,,*21
$GPRMC,011419.3,A,3334.0109,N,11740.3403,W,49.00,185.80,100310,,*2C
$GPRMC,011422.3,A,3333.9696,N,11740.3452,W,50.10,186.10,100310,,*2C
$GPRMC,011425.3,A,3333.9278,N,11740.3511,W,50.50,186.70,100310,,*2B
$GPRMC,011428.3,A,3333.8865,N,11740.3562,W,46.30,186.10,100310,,*22
$GPRMC,011431.3,A,3333.8479,N,11740.3616,W,47.70,186.80,100310,,*27
$GPRMC,011435.3,A,3333.7959,N,11740.3695,W,46.90,187.00,100310,,*2E
$GPRMC,011438.3,A,3333.7585,N,11740.3755,W,45.70,187.60,100310,,*28
$GPRMC,011441.3,A,3333.7220,N,11740.3811,W,43.30,187.30,100310,,*26
$GPRMC,011444.3,A,3333.6850,N,11740.3856,W,47.20,184.50,100310,,*2C
$GPRMC,011447.3,A,3333.6441,N,11740.3903,W,49.30,185.90,100310,,*20
$GPRMC,011450.3,A,3333.5990,N,11740.3927,W,55.00,182.40,100310,,*26
$GPRMC,011453.3,A,3333.5529,N,11740.3945,W,55.70,181.50,100310,,*2A
$GPRMC,011456.3,A,3333.5018,N,11740.3943,W,61.00,179.70,100310,,*2B
$GPRMC,011459.3,A,3333.4488,N,11740.3937,W,64.70,179.20,100310,,*2C
$GPRMC,011502.3,A,3333.3946,N,11740.3929,W,64.40,179.60,100310,,*23
$GPRMC,011505.3,A,3333.3443,N,11740.3907,W,59.80,178.30,100310,,*26
$GPRMC,011508.3,A,3333.2960,N,11740.3882,W,58.40,177.60,100310,,*2D
$GPRMC,011511.3,A,3333.2468,N,11740.3854,W,59.50,178.00,100310,,*22
$GPRMC,011514.3,A,3333.1954,N,11740.3840,W,60.90,178.60,100310,,*23
$GPRMC,011517.3,A,3333.1450,N,11740.3825,W,61.30,178.90,100310,,*2E
$GPRMC,011520.3,A,3333.0927,N,11740.3807,W,62.20,178.70,100310,,*2A
$GPRMC,011523.3,A,3333.0416,N,11740.3795,W,60.90,179.00,100310,,*2D
$GPRMC,011526.3,A,3332.9920,N,11740.3798,W,59.20,179.70,100310,,*23
$GPRMC,011529.3,A,3332.9460,N,11740.3801,W,57.60,181.10,100310,,*21
$GPRMC,011532.3,A,3332.8982,N,11740.3817,W,59.10,182.40,100310,,*23
$GPRMC,011535.3,A,3332.8484,N,11740.3862,W,59.80,183.80,100310,,*29
$GPRMC,011538.3,A,3332.7986,N,11740.3917,W,59.20,186.30,100310,,*23
$GPRMC,011541.3,A,3332.7497,N,11740.3984,W,58.70,188.00,100310,,*23
$GPRMC,011544.3,A,3332.7012,N,11740.4072,W,59.30,189.60,100310,,*2A
$GPRMC,011547.3,A,3332.6527,N,11740.4177,W,59.10,190.10,100310,,*22
$GPRMC,011550.3,A,3332.6040,N,11740.4272,W,59.50,189.60,100310,,*2D
$GPRMC,011553.3,A,3332.5543,N,11740.4384,W,60.20,190.00,100310,,*20
$GPRMC,011556.3,A,3332.5039,N,11740.4501,W,60.60,190.10,100310,,*23
$GPRMC,011559.3,A,3332.4548,N,11740.4616,W,59.90,190.80,100310,,*27
$GPRMC,011602.3,A,3332.4062,N,11740.4723,W,59.30,190.80,100310,,*2A
$GPRMC,011605.3,A,3332.3575,N,11740.4834,W,59.20,190.40,100310,,*2D
$GPRMC,011608.3,A,3332.3090,N,11740.4932,W,58.50,189.20,100310,,*21
$GPRMC,011611.3,A,3332.2611,N,11740.5013,W,58.30,186.70,100310,,*20
$GPRMC,011614.3,A,3332.2123,N,11740.5073,W,59.20,184.90,100310,,*29
$GPRMC,011617.3,A,3332.1627,N,11740.5116,W,60.20,183.00,100310,,*2C
$GPRMC,011620.3,A,3332.1119,N,11740.5130,W,61.50,181.10,100310,,*23
$GPRMC,011623.3,A,3332.0610,N,11740.5126,W,61.10,179.20,100310,,*28
$GPRMC,011626.3,A,3332.0108,N,11740.5106,W,60.40,177.20,100310,,*2B
$GPRMC,011629.3,A,3331.9610,N,11740.5036,W,59.60,171.70,100310,,*29
$GPRMC,011635.3,A,3331.8594,N,11740.4594,W,63.70,152.20,100310,,*2A
$GPRMC,011638.3,A,3331.8134,N,11740.4259,W,64.10,146.00,100310,,*29
$GPRMC,011641.3,A,3331.7725,N,11740.3830,W,64.50,136.70,100310,,*28
$GPRMC,011644.3,A,3331.7370,N,11740.3361,W,62.70,131.10,100310,,*23
$GPRMC,011647.3,A,3331.7048,N,11740.2886,W,61.50,129.60,100310,,*24
$GPRMC,011650.3,A,3331.6726,N,11740.2420,W,60.80,129.90,100310,,*2F
$GPRMC,011653.3,A,3331.6406,N,11740.1969,W,59.30,132.10,100310,,*2D
$GPRMC,011656.3,A,3331.6061,N,11740.1552,W,58.10,136.60,100310,,*29
$GPRMC,011659.3,A,3331.5672,N,11740.1199,W,56.50,143.40,100310,,*28
$GPRMC,011702.3,A,3331.5258,N,11740.0881,W,59.00,148.30,100310,,*2C
$GPRMC,011705.3,A,3331.4843,N,11740.0632,W,56.20,153.70,100310,,*2F
$GPRMC,011708.3,A,3331.4416,N,11740.0409,W,54.70,155.70,100310,,*25
$GPRMC,011711.3,A,3331.3976,N,11740.0259,W,55.50,160.90,100310,,*29
$GPRMC,011714.3,A,3331.3531,N,11740.0080,W,56.70,160.30,100310,,*2E
$GPRMC,011717.3,A,3331.3084,N,11739.9898,W,55.80,160.30,100310,,*2C
$GPRMC,011720.3,A,3331.2647,N,11739.9705,W,56.30,160.20,100310,,*22
$GPRMC,011723.3,A,3331.2202,N,11739.9532,W,56.20,161.00,100310,,*20
$GPRMC,011726.3,A,3331.1757,N,11739.9341,W,55.50,160.40,100310,,*20
$GPRMC,011729.3,A,3331.1324,N,11739.9148,W,54.50,160.30,100310,,*22
$GPRMC,011732.3,A,3331.0909,N,11739.8964,W,54.10,160.80,100310,,*24
$GPRMC,011735.3,A,3331.0485,N,11739.8788,W,54.40,161.50,100310,,*2F
$GPRMC,011738.3,A,3331.0054,N,11739.8618,W,54.70,161.30,100310,,*27
$GPRMC,011741.3,A,3330.9629,N,11739.8442,W,53.90,161.00,100310,,*2A
$GPRMC,011744.3,A,3330.9202,N,11739.8261,W,53.80,160.60,100310,,*23
$GPRMC,011747.3,A,3330.8794,N,11739.8085,W,53.20,160.60,100310,,*29
$GPRMC,011750.3,A,3330.8375,N,11739.7904,W,52.80,159.60,100310,,*2A
$GPRMC,011753.3,A,3330.7951,N,11739.7727,W,52.70,160.60,100310,,*20
$GPRMC,011756.3,A,3330.7543,N,11739.7569,W,51.50,161.20,100310,,*26
$GPRMC,011759.3,A,3330.7142,N,11739.7397,W,51.20,160.30,100310,,*2C
$GPRMC,011802.3,A,3330.6750,N,11739.7204,W,51.10,160.00,100310,,*22
$GPRMC,011805.3,A,3330.6360,N,11739.7038,W,50.80,160.00,100310,,*27
$GPRMC,011808.3,A,3330.5962,N,11739.6856,W,50.60,160.40,100310,,*2A
$GPRMC,011811.3,A,3330.5549,N,11739.6669,W,51.40,160.00,100310,,*22
$GPRMC,011814.3,A,3330.5154,N,11739.6498,W,51.80,159.90,100310,,*2C
$GPRMC,011817.3,A,3330.4716,N,11739.6312,W,54.20,160.40,100310,,*23
$GPRMC,011820.3,A,3330.4301,N,11739.6129,W,53.70,160.40,100310,,*2D
$GPRMC,011823.3,A,3330.3897,N,11739.5949,W,51.80,160.70,100310,,*2E
$GPRMC,011826.3,A,3330.3517,N,11739.5783,W,49.20,160.80,100310,,*2A
$GPRMC,011829.3,A,3330.3099,N,11739.5678,W,45.90,164.00,100310,,*28
$GPRMC,011832.3,A,3330.2722,N,11739.5575,W,44.10,167.50,100310,,*25
$GPRMC,011835.3,A,3330.2366,N,11739.5496,W,41.90,170.70,100310,,*23
$GPRMC,011838.3,A,3330.2047,N,11739.5445,W,35.10,173.40,100310,,*2B
$GPRMC,011841.3,A,3330.1791,N,11739.5417,W,28.00,175.80,100310,,*2A
$GPRMC,011844.3,A,3330.1629,N,11739.5417,W,17.40,178.40,100310,,*24
$GPRMC,011847.3,A,3330.1556,N,11739.5419,W,8.90,183.10,100310,,*10
$GPRMC,011929.3,A,3330.1544,N,11739.5423,W,5.00,173.10,100310,,*18
$GPRMC,011932.3,A,3330.1421,N,11739.5415,W,10.60,173.40,100310,,*22
$GPRMC,011935.3,A,3330.1368,N,11739.5365,W,7.00,148.20,100310,,*11
$GPRMC,011938.3,A,3330.1373,N,11739.5157,W,14.60,89.00,100310,,*1F
$GPRMC,011941.3,A,3330.1479,N,11739.4924,W,24.90,69.50,100310,,*16
$GPRMC,011944.3,A,3330.1553,N,11739.4715,W,18.70,69.50,100310,,*17
$GPRMC,011947.3,A,3330.1601,N,11739.4568,W,13.40,72.80,100310,,*17
$GPRMC,011950.3,A,3330.1627,N,11739.4498,W,4.60,72.90,100310,,*2E
$GPRMC,011956.3,A,3330.1647,N,11739.4466,W,5.10,46.70,100310,,*20
$GPRMC,011959.3,A,3330.1681,N,11739.4336,W,15.80,69.60,100310,,*13
$GPRMC,012002.3,A,3330.1727,N,11739.4180,W,16.40,69.70,100310,,*1B
$GPRMC,012005.3,A,3330.1780,N,11739.4010,W,20.30,68.90,100310,,*14
$GPRMC,012008.3,A,3330.1845,N,11739.3803,W,23.80,69.00,100310,,*12
$GPRMC,012011.3,A,3330.1920,N,11739.3569,W,27.10,69.00,100310,,*14
$GPRMC,012014.3,A,3330.2003,N,11739.3311,W,28.80,68.80,100310,,*1C
$GPRMC,012017.3,A,3330.2093,N,11739.3026,W,31.60,69.00,100310,,*1E
$GPRMC,012020.3,A,3330.2191,N,11739.2718,W,34.60,69.10,100310,,*16
$GPRMC,012023.3,A,3330.2304,N,11739.2397,W,34.20,63.90,100310,,*1E
$GPRMC,012026.3,A,3330.2436,N,11739.2113,W,30.90,59.10,100310,,*1D
$GPRMC,012029.3,A,3330.2558,N,11739.1898,W,24.00,53.30,100310,,*16
$GPRMC,012032.3,A,3330.2679,N,11739.1719,W,22.70,48.80,100310,,*1A
$GPRMC,012035.3,A,3330.2807,N,11739.1555,W,23.00,46.80,100310,,*18
$GPRMC,012038.3,A,3330.2960,N,11739.1414,W,23.70,38.30,100310,,*14
$GPRMC,012041.3,A,3330.3116,N,11739.1275,W,22.70,35.60,100310,,*1A
$GPRMC,012044.3,A,3330.3272,N,11739.1168,W,22.00,30.20,100310,,*17
$GPRMC,012047.3,A,3330.3442,N,11739.1059,W,24.10,29.10,100310,,*1E
$GPRMC,012050.3,A,3330.3638,N,11739.0924,W,27.60,29.00,100310,,*10
$GPRMC,012053.3,A,3330.3860,N,11739.0748,W,32.50,35.60,100310,,*18
$GPRMC,012056.3,A,3330.4081,N,11739.0537,W,34.10,42.60,100310,,*15
$GPRMC,012059.3,A,3330.4275,N,11739.0303,W,31.90,48.70,100310,,*14
$GPRMC,012102.3,A,3330.4438,N,11739.0069,W,30.50,51.30,100310,,*1A
$GPRMC,012105.3,A,3330.4592,N,11738.9838,W,29.50,52.50,100310,,*15
$GPRMC,012108.3,A,3330.4743,N,11738.9594,W,30.70,53.70,100310,,*14
$GPRMC,012111.3,A,3330.4895,N,11738.9333,W,31.80,53.40,100310,,*1E
$GPRMC,012114.3,A,3330.5058,N,11738.9069,W,32.90,53.30,100310,,*1A
$GPRMC,012117.3,A,3330.5222,N,11738.8808,W,33.50,53.30,100310,,*15
$GPRMC,012120.3,A,3330.5389,N,11738.8532,W,34.70,53.80,100310,,*1B
$GPRMC,012123.3,A,3330.5550,N,11738.8267,W,31.60,54.40,100310,,*12
$GPRMC,012126.3,A,3330.5693,N,11738.8022,W,28.60,54.90,100310,,*1D
$GPRMC,012129.3,A,3330.5814,N,11738.7810,W,25.30,57.00,100310,,*17
$GPRMC,012132.3,A,3330.5932,N,11738.7592,W,25.60,58.30,100310,,*16
$GPRMC,012135.3,A,3330.6019,N,11738.7396,W,20.80,57.00,100310,,*17
$GPRMC,012138.3,A,3330.6087,N,11738.7233,W,18.50,57.10,100310,,*14
$GPRMC,012141.3,A,3330.6176,N,11738.7092,W,18.00,57.90,100310,,*11
$GPRMC,012144.3,A,3330.6241,N,11738.6976,W,10.80,58.90,100310,,*1E
$GPRMC,012205.3,A,3330.6381,N,11738.6710,W,5.70,60.80,100310,,*2A
$GPRMC,012208.3,A,3330.6407,N,11738.6657,W,6.30,53.80,100310,,*2B
$GPRMC,012211.3,A,3330.6435,N,11738.6599,W,6.70,59.90,100310,,*2C
$GPRMC,012214.3,A,3330.6469,N,11738.6533,W,7.90,58.40,100310,,*23
$GPRMC,012217.3,A,3330.6508,N,11738.6467,W,8.70,58.00,100310,,*23
$GPRMC,012220.3,A,3330.6551,N,11738.6385,W,8.90,57.80,100310,,*29
$GPRMC,012223.3,A,3330.6590,N,11738.6309,W,9.20,56.90,100310,,*29
$GPRMC,012226.3,A,3330.6623,N,11738.6238,W,8.20,56.50,100310,,*29
$GPRMC,012229.3,A,3330.6661,N,11738.6177,W,6.00,57.10,100310,,*21
$GPRMC,012232.3,A,3330.6685,N,11738.6135,W,5.40,56.20,100310,,*22
$GPRMC,012311.3,A,3330.6845,N,11738.5835,W,4.40,56.20,100310,,*2B
$GPRMC,012317.3,A,3330.6886,N,11738.5758,W,5.60,53.60,100310,,*24
$GPRMC,012332.3,A,3330.6982,N,11738.5586,W,4.60,58.00,100310,,*2B
$GPRMC,012335.3,A,3330.7004,N,11738.5551,W,4.50,54.60,100310,,*29
$GPRMC,012338.3,A,3330.7032,N,11738.5498,W,6.80,58.00,100310,,*20
$GPRMC,012341.3,A,3330.7063,N,11738.5437,W,8.70,58.60,100310,,*28
$GPRMC,012344.3,A,3330.7097,N,11738.5352,W,10.40,70.60,100310,,*12
$GPRMC,012347.3,A,3330.7154,N,11738.5222,W,16.10,63.50,100310,,*1B
$GPRMC,012350.3,A,3330.7215,N,11738.5071,W,16.40,64.10,100310,,*19
$GPRMC,012353.3,A,3330.7273,N,11738.4924,W,15.80,64.20,100310,,*1E
$GPRMC,012356.3,A,3330.7327,N,11738.4788,W,14.80,64.70,100310,,*17
$GPRMC,012359.3,A,3330.7375,N,11738.4665,W,13.60,68.10,100310,,*1E
$GPRMC,012402.3,A,3330.7414,N,11738.4542,W,11.80,69.80,100310,,*15
$GPRMC,012405.3,A,3330.7451,N,11738.4449,W,8.70,64.50,100310,,*2E
$GPRMC,012408.3,A,3330.7463,N,11738.4387,W,6.00,72.70,100310,,*2B
$GPRMC,012411.3,A,3330.7479,N,11738.4340,W,5.90,71.70,100310,,*2A
$GPRMC,012414.3,A,3330.7492,N,11738.4276,W,6.00,71.30,100310,,*20
$GPRMC,012423.3,A,3330.7523,N,11738.4150,W,5.10,77.30,100310,,*2C
$GPRMC,012426.3,A,3330.7541,N,11738.4089,W,7.20,71.80,100310,,*24
$GPRMC,012429.3,A,3330.7561,N,11738.3976,W,11.80,76.30,100310,,*16
$GPRMC,012432.3,A,3330.7596,N,11738.3839,W,15.00,75.10,100310,,*13
$GPRMC,012435.3,A,3330.7640,N,11738.3645,W,18.90,75.70,100310,,*1B
$GPRMC,012438.3,A,3330.7693,N,11738.3457,W,19.30,73.60,100310,,*15
$GPRMC,012441.3,A,3330.7726,N,11738.3262,W,19.20,74.20,100310,,*16
$GPRMC,012444.3,A,3330.7753,N,11738.3085,W,17.30,75.10,100310,,*17
$GPRMC,012447.3,A,3330.7798,N,11738.2919,W,16.40,72.60,100310,,*18
$GPRMC,012450.3,A,3330.7843,N,11738.2770,W,16.00,67.30,100310,,*13
$GPRMC,012453.3,A,3330.7904,N,11738.2620,W,17.80,64.90,100310,,*16
$GPRMC,012456.3,A,3330.7972,N,11738.2452,W,20.00,62.70,100310,,*11
$GPRMC,012459.3,A,3330.8058,N,11738.2282,W,19.90,59.10,100310,,*16
$GPRMC,012502.3,A,3330.8150,N,11738.2119,W,18.40,58.50,100310,,*18
$GPRMC,012505.3,A,3330.8231,N,11738.1959,W,19.50,58.70,100310,,*16
$GPRMC,012508.3,A,3330.8315,N,11738.1780,W,21.20,61.30,100310,,*14
$GPRMC,012511.3,A,3330.8391,N,11738.1598,W,20.00,63.80,100310,,*11
$GPRMC,012514.3,A,3330.8454,N,11738.1423,W,18.80,68.70,100310,,*1C
$GPRMC,012517.3,A,3330.8515,N,11738.1246,W,19.30,68.30,100310,,*10
$GPRMC,012520.3,A,3330.8580,N,11738.1070,W,18.40,66.80,100310,,*1C
$GPRMC,012523.3,A,3330.8621,N,11738.0941,W,13.50,68.50,100310,,*14
$GPRMC,012526.3,A,3330.8651,N,11738.0810,W,14.00,71.70,100310,,*1B
$GPRMC,012529.3,A,3330.8692,N,11738.0687,W,13.10,69.40,100310,,*17
$GPRMC,012532.3,A,3330.8715,N,11738.0556,W,13.60,71.20,100310,,*14
$GPRMC,012535.3,A,3330.8768,N,11738.0426,W,14.50,67.40,100310,,*1A
$GPRMC,012538.3,A,3330.8808,N,11738.0286,W,14.60,69.80,100310,,*13
$GPRMC,012541.3,A,3330.8850,N,11738.0152,W,13.20,71.30,100310,,*1B
$GPRMC,012544.3,A,3330.8887,N,11738.0027,W,12.70,68.00,100310,,*18
$GPRMC,012547.3,A,3330.8930,N,11737.9907,W,12.90,67.10,100310,,*1B
$GPRMC,012550.3,A,3330.8986,N,11737.9776,W,15.10,61.90,100310,,*19
$GPRMC,012553.3,A,3330.9048,N,11737.9647,W,13.50,57.80,100310,,*15
$GPRMC,012556.3,A,3330.9106,N,11737.9542,W,12.20,52.80,100310,,*1E
$GPRMC,012559.3,A,3330.9154,N,11737.9445,W,11.70,56.60,100310,,*1C
$GPRMC,012602.3,A,3330.9208,N,11737.9357,W,10.70,54.00,100310,,*1A
$GPRMC,012605.3,A,3330.9253,N,11737.9262,W,10.80,55.80,100310,,*12
$GPRMC,012608.3,A,3330.9307,N,11737.9177,W,11.20,53.50,100310,,*18
$GPRMC,012611.3,A,3330.9363,N,11737.9080,W,11.40,54.30,100310,,*1C
$GPRMC,012614.3,A,3330.9421,N,11737.8986,W,10.80,54.00,100310,,*18
$GPRMC,012617.3,A,3330.9474,N,11737.8900,W,10.50,53.20,100310,,*1D
$GPRMC,012620.3,A,3330.9536,N,11737.8812,W,11.10,48.90,100310,,*18
$GPRMC,012623.3,A,3330.9599,N,11737.8716,W,12.30,51.60,100310,,*13
$GPRMC,012626.3,A,3330.9658,N,11737.8623,W,11.30,52.70,100310,,*1E
$GPRMC,012629.3,A,3330.9715,N,11737.8537,W,10.90,51.20,100310,,*12
$GPRMC,012632.3,A,3330.9768,N,11737.8455,W,9.30,51.70,100310,,*20
$GPRMC,012635.3,A,3330.9805,N,11737.8402,W,5.60,51.00,100310,,*2F
$GPRMC,012638.3,A,3330.9839,N,11737.8363,W,6.80,51.20,100310,,*22
$GPRMC,012641.3,A,3330.9875,N,11737.8305,W,7.00,51.20,100310,,*2D
$GPRMC,012644.3,A,3330.9920,N,11737.8241,W,10.10,50.60,100310,,*1A
$GPRMC,012647.3,A,3330.9977,N,11737.8158,W,12.40,50.40,100310,,*15
$GPRMC,012650.3,A,3331.0050,N,11737.8054,W,13.30,50.30,100310,,*1B
$GPRMC,012653.3,A,3331.0111,N,11737.7968,W,10.50,50.40,100310,,*17
$GPRMC,012656.3,A,3331.0172,N,11737.7883,W,11.80,49.90,100310,,*1A
$GPRMC,012659.3,A,3331.0235,N,11737.7793,W,11.70,49.40,100310,,*19
$GPRMC,012702.3,A,3331.0300,N,11737.7700,W,13.30,49.50,100310,,*1C
$GPRMC,012705.3,A,3331.0368,N,11737.7600,W,12.20,50.70,100310,,*1E
$GPRMC,012708.3,A,3331.0428,N,11737.7510,W,11.90,51.00,100310,,*1C
$GPRMC,012711.3,A,3331.0492,N,11737.7416,W,12.30,52.00,100310,,*18
$GPRMC,012714.3,A,3331.0550,N,11737.7323,W,11.30,51.70,100310,,*14
$GPRMC,012717.3,A,3331.0612,N,11737.7227,W,12.90,51.90,100310,,*10
$GPRMC,012720.3,A,3331.0675,N,11737.7128,W,12.20,51.60,100310,,*1D
$GPRMC,012723.3,A,3331.0732,N,11737.7039,W,10.80,53.00,100310,,*11
$GPRMC,012726.3,A,3331.0786,N,11737.6956,W,10.70,53.10,100310,,*14
$GPRMC,012729.3,A,3331.0841,N,11737.6871,W,11.10,53.80,100310,,*15
$GPRMC,012738.3,A,3331.0922,N,11737.6741,W,9.20,54.10,100310,,*29
$GPRMC,012741.3,A,3331.0976,N,11737.6654,W,12.60,55.50,100310,,*18
$GPRMC,012744.3,A,3331.1034,N,11737.6541,W,13.80,59.00,100310,,*12
$GPRMC,012747.3,A,3331.1099,N,11737.6406,W,17.40,62.20,100310,,*16
$GPRMC,012750.3,A,3331.1175,N,11737.6213,W,21.00,66.70,100310,,*11
$GPRMC,012753.3,A,3331.1243,N,11737.6010,W,22.30,70.10,100310,,*14
$GPRMC,012756.3,A,3331.1302,N,11737.5801,W,21.90,72.10,100310,,*15
$GPRMC,012759.3,A,3331.1356,N,11737.5596,W,22.10,73.10,100310,,*12
$GPRMC,012802.3,A,3331.1402,N,11737.5396,W,20.30,77.30,100310,,*15
$GPRMC,012805.3,A,3331.1427,N,11737.5202,W,20.10,81.50,100310,,*14
$GPRMC,012808.3,A,3331.1447,N,11737.5013,W,18.20,83.90,100310,,*1B
$GPRMC,012811.3,A,3331.1471,N,11737.4846,W,17.00,82.60,100310,,*1C
$GPRMC,012814.3,A,3331.1489,N,11737.4654,W,18.80,85.80,100310,,*1D
$GPRMC,012817.3,A,3331.1498,N,11737.4480,W,17.40,84.80,100310,,*17
$GPRMC,012820.3,A,3331.1523,N,11737.4316,W,15.80,84.10,100310,,*1D
$GPRMC,012823.3,A,3331.1538,N,11737.4155,W,15.40,83.30,100310,,*18
$GPRMC,012826.3,A,3331.1551,N,11737.3998,W,16.00,82.50,100310,,*1C
$GPRMC,012829.3,A,3331.1574,N,11737.3828,W,17.50,81.50,100310,,*19
$GPRMC,012832.3,A,3331.1595,N,11737.3641,W,18.70,84.10,100310,,*11
$GPRMC,012835.3,A,3331.1620,N,11737.3453,W,18.70,84.30,100310,,*18
$GPRMC,012838.3,A,3331.1643,N,11737.3264,W,18.50,83.40,100310,,*10
$GPRMC,012841.3,A,3331.1659,N,11737.3095,W,15.80,84.40,100310,,*1E
$GPRMC,012844.3,A,3331.1672,N,11737.2945,W,14.30,85.10,100310,,*19
$GPRMC,012847.3,A,3331.1690,N,11737.2824,W,12.00,82.40,100310,,*17
$GPRMC,012850.3,A,3331.1694,N,11737.2749,W,6.20,87.70,100310,,*20
$GPRMC,012944.3,A,3331.1691,N,11737.2670,W,6.20,85.20,100310,,*2D
$GPRMC,012947.3,A,3331.1699,N,11737.2607,W,6.30,82.90,100310,,*2B
$GPRMC,012950.3,A,3331.1707,N,11737.2530,W,9.30,82.60,100310,,*2C
$GPRMC,012953.3,A,3331.1728,N,11737.2423,W,13.30,80.50,100310,,*1B
$GPRMC,012956.3,A,3331.1749,N,11737.2291,W,12.50,78.70,100310,,*14
$GPRMC,012959.3,A,3331.1755,N,11737.2169,W,10.90,78.30,100310,,*18
$GPRMC,013002.3,A,3331.1767,N,11737.2073,W,10.70,78.30,100310,,*1B
$GPRMC,013005.3,A,3331.1787,N,11737.1961,W,13.20,78.30,100310,,*1D
$GPRMC,013008.3,A,3331.1814,N,11737.1815,W,16.20,76.70,100310,,*18
$GPRMC,013011.3,A,3331.1856,N,11737.1655,W,18.90,73.70,100310,,*1C
$GPRMC,013014.3,A,3331.1901,N,11737.1461,W,21.40,73.10,100310,,*1E
$GPRMC,013017.3,A,3331.1961,N,11737.1254,W,23.10,70.70,100310,,*19
$GPRMC,013020.3,A,3331.2027,N,11737.1026,W,25.20,70.70,100310,,*17
$GPRMC,013023.3,A,3331.2094,N,11737.0790,W,23.60,71.10,100310,,*12
$GPRMC,013026.3,A,3331.2149,N,11737.0590,W,19.70,70.90,100310,,*15
$GPRMC,013029.3,A,3331.2208,N,11737.0391,W,22.40,71.40,100310,,*1C
$GPRMC,013032.3,A,3331.2270,N,11737.0168,W,25.00,71.50,100310,,*1F
$GPRMC,013035.3,A,3331.2336,N,11736.9935,W,23.80,71.30,100310,,*1B
$GPRMC,013038.3,A,3331.2400,N,11736.9714,W,24.10,70.80,100310,,*1D
$GPRMC,013041.3,A,3331.2470,N,11736.9495,W,23.40,69.00,100310,,*1C
$GPRMC,013044.3,A,3331.2554,N,11736.9272,W,24.70,64.50,100310,,*1D
$GPRMC,013047.3,A,3331.2660,N,11736.9031,W,28.40,59.00,100310,,*1B
$GPRMC,013050.3,A,3331.2794,N,11736.8783,W,30.00,55.50,100310,,*1C
$GPRMC,013053.3,A,3331.2940,N,11736.8534,W,31.50,55.20,100310,,*15
$GPRMC,013056.3,A,3331.3074,N,11736.8260,W,32.50,62.30,100310,,*1F
$GPRMC,013059.3,A,3331.3165,N,11736.7941,W,34.90,76.60,100310,,*1C
$GPRMC,013102.3,A,3331.3212,N,11736.7586,W,36.30,84.70,100310,,*13
$GPRMC,013105.3,A,3331.3195,N,11736.7220,W,36.20,93.80,100310,,*1B
$GPRMC,013108.3,A,3331.3165,N,11736.6881,W,34.30,96.90,100310,,*1E
$GPRMC,013111.3,A,3331.3117,N,11736.6550,W,33.50,97.70,100310,,*1C
$GPRMC,013114.3,A,3331.3086,N,11736.6219,W,33.30,95.60,100310,,*1F
$GPRMC,013117.3,A,3331.3078,N,11736.5878,W,32.80,88.70,100310,,*14
$GPRMC,013120.3,A,3331.3121,N,11736.5597,W,29.00,79.50,100310,,*1F
$GPRMC,013123.3,A,3331.3202,N,11736.5350,W,25.70,68.50,100310,,*18
$GPRMC,013126.3,A,3331.3301,N,11736.5137,W,24.10,63.30,100310,,*16
$GPRMC,013129.3,A,3331.3370,N,11736.4948,W,20.40,65.60,100310,,*1C
$GPRMC,013132.3,A,3331.3440,N,11736.4757,W,22.30,69.20,100310,,*1F
$GPRMC,013135.3,A,3331.3490,N,11736.4534,W,23.40,79.60,100310,,*11
$GPRMC,013138.3,A,3331.3510,N,11736.4288,W,24.10,87.30,100310,,*13
$GPRMC,013141.3,A,3331.3506,N,11736.4028,W,26.70,91.80,100310,,*1A
$GPRMC,013144.3,A,3331.3484,N,11736.3743,W,29.20,94.90,100310,,*17
$GPRMC,013148.3,A,3331.3391,N,11736.3316,W,33.20,106.50,100310,,*21
$GPRMC,013151.3,A,3331.3310,N,11736.3011,W,32.80,112.20,100310,,*2D
$GPRMC,013154.3,A,3331.3157,N,11736.2725,W,35.00,124.80,100310,,*28
$GPRMC,013157.3,A,3331.2952,N,11736.2456,W,36.70,134.70,100310,,*2A
$GPRMC,013200.3,A,3331.2731,N,11736.2189,W,37.70,135.40,100310,,*24
$GPRMC,013203.3,A,3331.2492,N,11736.1929,W,38.90,138.20,100310,,*26
$GPRMC,013206.3,A,3331.2241,N,11736.1649,W,39.70,137.20,100310,,*22
$GPRMC,013209.3,A,3331.2001,N,11736.1377,W,39.40,136.50,100310,,*26
$GPRMC,013212.3,A,3331.1776,N,11736.1087,W,39.00,128.30,100310,,*29
$GPRMC,013215.3,A,3331.1595,N,11736.0760,W,39.90,120.20,100310,,*2E
$GPRMC,013218.3,A,3331.1450,N,11736.0402,W,40.50,113.40,100310,,*28
$GPRMC,013221.3,A,3331.1334,N,11735.9993,W,42.90,110.50,100310,,*24
$GPRMC,013224.3,A,3331.1213,N,11735.9569,W,44.70,109.70,100310,,*2E
$GPRMC,013227.3,A,3331.1091,N,11735.9152,W,45.10,109.80,100310,,*21
$GPRMC,013230.3,A,3331.0967,N,11735.8743,W,44.30,110.30,100310,,*21
$GPRMC,013233.3,A,3331.0842,N,11735.8342,W,41.50,109.90,100310,,*20
$GPRMC,013236.3,A,3331.0720,N,11735.7969,W,40.40,110.80,100310,,*2B
$GPRMC,013239.3,A,3331.0607,N,11735.7588,W,40.30,110.00,100310,,*2C
$GPRMC,013242.3,A,3331.0486,N,11735.7206,W,41.00,110.40,100310,,*2C
$GPRMC,013245.3,A,3331.0372,N,11735.6816,W,41.60,109.80,100310,,*2F
$GPRMC,013248.3,A,3331.0252,N,11735.6437,W,40.90,110.40,100310,,*24
$GPRMC,013251.3,A,3331.0122,N,11735.6066,W,40.20,112.00,100310,,*25
$GPRMC,013254.3,A,3330.9988,N,11735.5695,W,40.40,115.00,100310,,*28
$GPRMC,013257.3,A,3330.9802,N,11735.5343,W,40.80,121.90,100310,,*24
$GPRMC,013300.3,A,3330.9579,N,11735.5026,W,40.70,127.30,100310,,*25
$GPRMC,013303.3,A,3330.9384,N,11735.4670,W,42.80,120.00,100310,,*2F
$GPRMC,013306.3,A,3330.9255,N,11735.4296,W,41.30,111.00,100310,,*21
$GPRMC,013310.3,A,3330.9104,N,11735.3770,W,42.40,109.10,100310,,*27
$GPRMC,013313.3,A,3330.8985,N,11735.3356,W,43.60,108.60,100310,,*21
$GPRMC,013316.3,A,3330.8864,N,11735.2949,W,42.60,109.70,100310,,*2E
$GPRMC,013319.3,A,3330.8779,N,11735.2548,W,41.20,101.50,100310,,*22
$GPRMC,013322.3,A,3330.8779,N,11735.2175,W,38.60,91.30,100310,,*14
$GPRMC,013325.3,A,3330.8782,N,11735.1802,W,35.90,88.20,100310,,*16
$GPRMC,013328.3,A,3330.8780,N,11735.1465,W,33.60,91.30,100310,,*14
$GPRMC,013331.3,A,3330.8747,N,11735.1143,W,31.80,100.00,100310,,*20
$GPRMC,013334.3,A,3330.8672,N,11735.0837,W,32.30,107.40,100310,,*22
$GPRMC,013337.3,A,3330.8563,N,11735.0540,W,32.50,116.10,100310,,*2C
$GPRMC,013340.3,A,3330.8431,N,11735.0249,W,33.80,119.10,100310,,*27
$GPRMC,013343.3,A,3330.8291,N,11734.9921,W,36.40,112.80,100310,,*2E
$GPRMC,013346.3,A,3330.8201,N,11734.9554,W,38.60,104.10,100310,,*2E
$GPRMC,013349.3,A,3330.8173,N,11734.9161,W,39.70,92.50,100310,,*1F
$GPRMC,013352.3,A,3330.8201,N,11734.8769,W,38.70,85.00,100310,,*1E
$GPRMC,013355.3,A,3330.8260,N,11734.8400,W,35.80,81.90,100310,,*1D
$GPRMC,013358.3,A,3330.8301,N,11734.8049,W,35.90,83.90,100310,,*1C
$GPRMC,013401.3,A,3330.8348,N,11734.7683,W,36.40,83.40,100310,,*16
$GPRMC,013404.3,A,3330.8380,N,11734.7330,W,36.00,83.90,100310,,*13
$GPRMC,013407.3,A,3330.8414,N,11734.6968,W,36.80,83.20,100310,,*1F
$GPRMC,013410.3,A,3330.8456,N,11734.6602,W,38.20,81.80,100310,,*10
$GPRMC,013413.3,A,3330.8501,N,11734.6224,W,37.90,80.30,100310,,*1E
$GPRMC,013416.3,A,3330.8551,N,11734.5840,W,39.10,81.10,100310,,*10
$GPRMC,013419.3,A,3330.8594,N,11734.5451,W,40.50,80.10,100310,,*11
$GPRMC,013422.3,A,3330.8673,N,11734.5055,W,41.00,74.80,100310,,*15
$GPRMC,013425.3,A,3330.8759,N,11734.4665,W,40.30,73.30,100310,,*11
$GPRMC,013428.3,A,3330.8837,N,11734.4265,W,41.40,80.10,100310,,*17
$GPRMC,013431.3,A,3330.8845,N,11734.3851,W,41.00,91.20,100310,,*17
$GPRMC,013434.3,A,3330.8776,N,11734.3444,W,41.50,102.40,100310,,*2D
$GPRMC,013437.3,A,3330.8702,N,11734.3034,W,41.90,101.40,100310,,*21
$GPRMC,013440.3,A,3330.8658,N,11734.2619,W,42.20,96.50,100310,,*11
$GPRMC,013443.3,A,3330.8644,N,11734.2181,W,44.30,92.20,100310,,*1D
$GPRMC,013446.3,A,3330.8635,N,11734.1724,W,46.20,91.10,100310,,*17
$GPRMC,013449.3,A,3330.8634,N,11734.1248,W,46.40,88.70,100310,,*1E
$GPRMC,013452.3,A,3330.8657,N,11734.0799,W,45.10,87.00,100310,,*17
$GPRMC,013455.3,A,3330.8705,N,11734.0356,W,45.20,81.50,100310,,*11
$GPRMC,013458.3,A,3330.8803,N,11733.9908,W,45.10,71.70,100310,,*14
$GPRMC,013501.3,A,3330.8939,N,11733.9486,W,45.60,65.80,100310,,*17
$GPRMC,013504.3,A,3330.9127,N,11733.9099,W,44.60,57.60,100310,,*10
$GPRMC,013507.3,A,3330.9388,N,11733.8765,W,45.10,40.80,100310,,*1F
$GPRMC,013510.3,A,3330.9692,N,11733.8507,W,45.70,33.10,100310,,*1A
$GPRMC,013513.3,A,3331.0014,N,11733.8262,W,45.80,33.00,100310,,*13
$GPRMC,013516.3,A,3331.0320,N,11733.8003,W,44.60,37.90,100310,,*15
$GPRMC,013519.3,A,3331.0586,N,11733.7702,W,45.10,43.60,100310,,*13
$GPRMC,013522.3,A,3331.0832,N,11733.7386,W,43.60,48.30,100310,,*1E
$GPRMC,013525.3,A,3331.1080,N,11733.7054,W,43.50,48.50,100310,,*10
$GPRMC,013528.3,A,3331.1344,N,11733.6719,W,45.40,44.60,100310,,*11
$GPRMC,013531.3,A,3331.1648,N,11733.6431,W,46.30,36.80,100310,,*16
$GPRMC,013534.3,A,3331.1983,N,11733.6185,W,46.50,28.50,100310,,*15
$GPRMC,013537.3,A,3331.2342,N,11733.6035,W,46.10,17.90,100310,,*1C
$GPRMC,013540.3,A,3331.2711,N,11733.5913,W,45.60,15.70,100310,,*18
$GPRMC,013543.3,A,3331.3066,N,11733.5758,W,46.20,24.70,100310,,*19
$GPRMC,013546.3,A,3331.3373,N,11733.5480,W,47.10,41.50,100310,,*1E
$GPRMC,013549.3,A,3331.3634,N,11733.5119,W,48.30,56.20,100310,,*1E
$GPRMC,013552.3,A,3331.3842,N,11733.4704,W,49.10,59.90,100310,,*17
$GPRMC,013555.3,A,3331.4037,N,11733.4281,W,48.40,61.70,100310,,*14
$GPRMC,013558.3,A,3331.4221,N,11733.3867,W,47.00,61.30,100310,,*16
$GPRMC,013601.3,A,3331.4410,N,11733.3457,W,46.20,60.30,100310,,*10
$GPRMC,013604.3,A,3331.4618,N,11733.3079,W,44.00,52.70,100310,,*12
$GPRMC,013607.3,A,3331.4855,N,11733.2746,W,43.10,47.40,100310,,*1D
$GPRMC,013610.3,A,3331.5138,N,11733.2465,W,43.40,37.90,100310,,*15
$GPRMC,013613.3,A,3331.5465,N,11733.2236,W,45.70,25.80,100310,,*1C
$GPRMC,013616.3,A,3331.5822,N,11733.2057,W,45.70,21.30,100310,,*1C
$GPRMC,013619.3,A,3331.6191,N,11733.1916,W,47.70,15.00,100310,,*18
$GPRMC,013622.3,A,3331.6587,N,11733.1825,W,49.10,8.20,100310,,*24
$GPRMC,013625.3,A,3331.6997,N,11733.1762,W,48.80,9.00,100310,,*29
$GPRMC,013628.3,A,3331.7395,N,11733.1660,W,48.10,14.90,100310,,*12
$GPRMC,013631.3,A,3331.7777,N,11733.1450,W,49.80,26.40,100310,,*17
$GPRMC,013634.3,A,3331.8133,N,11733.1203,W,49.50,30.00,100310,,*15
$GPRMC,013637.3,A,3331.8484,N,11733.0956,W,48.50,30.70,100310,,*13
$GPRMC,013640.3,A,3331.8831,N,11733.0698,W,47.50,30.90,100310,,*1D
$GPRMC,013643.3,A,3331.9163,N,11733.0455,W,46.50,30.90,100310,,*13
$GPRMC,013646.3,A,3331.9507,N,11733.0244,W,45.90,26.60,100310,,*11
$GPRMC,013649.3,A,3331.9863,N,11733.0052,W,46.90,23.10,100310,,*15
$GPRMC,013652.3,A,3332.0243,N,11732.9882,W,49.20,18.00,100310,,*1D
$GPRMC,013655.3,A,3332.0643,N,11732.9764,W,49.50,11.70,100310,,*10
$GPRMC,013658.3,A,3332.1045,N,11732.9692,W,49.20,7.00,100310,,*23
$GPRMC,013701.3,A,3332.1454,N,11732.9645,W,49.80,4.10,100310,,*28
$GPRMC,013704.3,A,3332.1870,N,11732.9615,W,50.30,2.30,100310,,*25
$GPRMC,013707.3,A,3332.2294,N,11732.9598,W,50.30,3.40,100310,,*25
$GPRMC,013710.3,A,3332.2701,N,11732.9554,W,48.50,6.30,100310,,*27
$GPRMC,013713.3,A,3332.3095,N,11732.9468,W,47.30,11.50,100310,,*18
$GPRMC,013716.3,A,3332.3469,N,11732.9352,W,47.80,14.60,100310,,*19
$GPRMC,013719.3,A,3332.3857,N,11732.9235,W,47.00,14.30,100310,,*1A
$GPRMC,013722.3,A,3332.4258,N,11732.9144,W,49.20,8.70,100310,,*20
$GPRMC,013725.3,A,3332.4667,N,11732.9147,W,49.90,357.40,100310,,*2D
$GPRMC,013728.3,A,3332.5071,N,11732.9241,W,52.10,346.90,100310,,*2A
$GPRMC,013731.3,A,3332.5501,N,11732.9384,W,52.80,343.80,100310,,*25
$GPRMC,013734.3,A,3332.5913,N,11732.9544,W,51.10,343.20,100310,,*25
$GPRMC,013737.3,A,3332.6320,N,11732.9656,W,50.00,350.10,100310,,*2E
$GPRMC,013740.3,A,3332.6740,N,11732.9695,W,51.00,359.50,100310,,*2F
$GPRMC,013743.3,A,3332.7173,N,11732.9607,W,52.90,9.40,100310,,*2D
$GPRMC,013746.3,A,3332.7624,N,11732.9466,W,55.30,12.40,100310,,*1F
$GPRMC,013749.3,A,3332.8083,N,11732.9336,W,53.90,10.70,100310,,*1B
$GPRMC,013752.3,A,3332.8528,N,11732.9251,W,53.70,6.50,100310,,*2E
$GPRMC,013755.3,A,3332.8954,N,11732.9246,W,51.40,359.20,100310,,*27
$GPRMC,013758.3,A,3332.9371,N,11732.9269,W,49.90,357.70,100310,,*24
$GPRMC,013801.3,A,3332.9788,N,11732.9294,W,48.90,357.10,100310,,*20
$GPRMC,013804.3,A,3333.0199,N,11732.9321,W,49.10,357.10,100310,,*2D
$GPRMC,013807.3,A,3333.0623,N,11732.9344,W,50.40,356.90,100310,,*2F
$GPRMC,013810.3,A,3333.1054,N,11732.9374,W,51.00,356.60,100310,,*27
$GPRMC,013813.3,A,3333.1482,N,11732.9410,W,50.90,356.80,100310,,*28
$GPRMC,013816.3,A,3333.1904,N,11732.9437,W,49.90,357.00,100310,,*2A
$GPRMC,013819.3,A,3333.2311,N,11732.9460,W,48.20,357.10,100310,,*21
$GPRMC,013822.3,A,3333.2690,N,11732.9475,W,45.10,357.60,100310,,*28
$GPRMC,013825.3,A,3333.3064,N,11732.9498,W,44.40,358.00,100310,,*2D
$GPRMC,013828.3,A,3333.3422,N,11732.9485,W,46.00,4.10,100310,,*27
$GPRMC,013831.3,A,3333.3808,N,11732.9436,W,49.10,8.80,100310,,*28
$GPRMC,013834.3,A,3333.4220,N,11732.9338,W,50.90,13.50,100310,,*14
$GPRMC,013837.3,A,3333.4640,N,11732.9179,W,53.20,18.50,100310,,*11
$GPRMC,013840.3,A,3333.5056,N,11732.8999,W,53.80,19.30,100310,,*1B
$GPRMC,013843.3,A,3333.5473,N,11732.8838,W,51.40,18.50,100310,,*18
$GPRMC,013846.3,A,3333.5853,N,11732.8681,W,48.70,19.70,100310,,*17
$GPRMC,013849.3,A,3333.6222,N,11732.8517,W,45.80,19.80,100310,,*16
$GPRMC,013852.3,A,3333.6543,N,11732.8381,W,39.10,20.30,100310,,*16
$GPRMC,013855.3,A,3333.6833,N,11732.8246,W,35.90,21.30,100310,,*14
$GPRMC,013858.3,A,3333.7075,N,11732.8134,W,30.60,22.60,100310,,*18
$GPRMC,013901.3,A,3333.7228,N,11732.8068,W,22.10,20.20,100310,,*15
$GPRMC,013904.3,A,3333.7401,N,11732.7997,W,21.60,19.50,100310,,*12
$GPRMC,013907.3,A,3333.7591,N,11732.7931,W,24.20,16.80,100310,,*16
$GPRMC,013910.3,A,3333.7815,N,11732.7827,W,28.50,17.90,100310,,*1C
$GPRMC,013913.3,A,3333.8076,N,11732.7718,W,33.00,17.80,100310,,*10
$GPRMC,013916.3,A,3333.8371,N,11732.7607,W,35.80,16.70,100310,,*1E
$GPRMC,013919.3,A,3333.8659,N,11732.7499,W,35.20,18.10,100310,,*19
$GPRMC,013922.3,A,3333.8949,N,11732.7379,W,35.30,18.00,100310,,*16
$GPRMC,013925.3,A,3333.9231,N,11732.7267,W,36.90,18.40,100310,,*17
$GPRMC,013928.3,A,3333.9555,N,11732.7130,W,40.00,18.50,100310,,*17
$GPRMC,013931.3,A,3333.9876,N,11732.6991,W,40.40,20.70,100310,,*1C
$GPRMC,013934.3,A,3334.0258,N,11732.6803,W,47.10,21.30,100310,,*1C
$GPRMC,013937.3,A,3334.0623,N,11732.6629,W,47.00,22.30,100310,,*13
$GPRMC,013940.3,A,3334.0991,N,11732.6430,W,47.70,23.70,100310,,*1D
$GPRMC,013943.3,A,3334.1351,N,11732.6245,W,47.70,23.90,100310,,*13
$GPRMC,013946.3,A,3334.1714,N,11732.6064,W,47.90,23.80,100310,,*1D
$GPRMC,013949.3,A,3334.2079,N,11732.5867,W,48.70,23.80,100310,,*14
$GPRMC,013952.3,A,3334.2453,N,11732.5671,W,50.30,24.20,100310,,*1B
$GPRMC,013955.3,A,3334.2833,N,11732.5474,W,50.30,23.70,100310,,*13
$GPRMC,013959.3,A,3334.3331,N,11732.5206,W,47.90,24.20,100310,,*1A
$GPRMC,014002.3,A,3334.3702,N,11732.5010,W,48.40,24.40,100310,,*1F
$GPRMC,014005.3,A,3334.4076,N,11732.4811,W,49.40,23.90,100310,,*18
$GPRMC,014008.3,A,3334.4442,N,11732.4605,W,47.90,26.50,100310,,*17
$GPRMC,014011.3,A,3334.4763,N,11732.4348,W,46.80,37.40,100310,,*12
$GPRMC,014014.3,A,3334.5043,N,11732.4007,W,47.10,46.60,100310,,*17
$GPRMC,014017.3,A,3334.5296,N,11732.3664,W,46.20,48.90,100310,,*19
$GPRMC,014020.3,A,3334.5540,N,11732.3307,W,46.30,49.30,100310,,*1B
$GPRMC,014023.3,A,3334.5804,N,11732.2959,W,48.70,42.90,100310,,*1E
$GPRMC,014026.3,A,3334.6116,N,11732.2620,W,50.60,42.00,100310,,*12
$GPRMC,014029.3,A,3334.6427,N,11732.2263,W,51.90,45.80,100310,,*18
$GPRMC,014032.3,A,3334.6692,N,11732.1854,W,53.00,57.70,100310,,*14
$GPRMC,014035.3,A,3334.6906,N,11732.1394,W,53.00,62.90,100310,,*1E
$GPRMC,014038.3,A,3334.7111,N,11732.0926,W,52.70,63.60,100310,,*16
$GPRMC,014041.3,A,3334.7302,N,11732.0458,W,52.20,63.70,100310,,*18
$GPRMC,014044.3,A,3334.7499,N,11731.9986,W,52.60,63.50,100310,,*1A
$GPRMC,014047.3,A,3334.7703,N,11731.9510,W,53.30,63.30,100310,,*18
$GPRMC,014050.3,A,3334.7904,N,11731.9031,W,53.50,63.30,100310,,*17
$GPRMC,014053.3,A,3334.8101,N,11731.8557,W,53.20,63.50,100310,,*13
$GPRMC,014056.3,A,3334.8301,N,11731.8083,W,53.80,63.30,100310,,*14
$GPRMC,014059.3,A,3334.8508,N,11731.7601,W,54.10,63.20,100310,,*18
$GPRMC,014102.3,A,3334.8718,N,11731.7098,W,55.20,63.90,100310,,*1B
$GPRMC,014105.3,A,3334.8926,N,11731.6600,W,55.60,63.30,100310,,*17
$GPRMC,014108.3,A,3334.9132,N,11731.6109,W,54.20,63.30,100310,,*1D
$GPRMC,014111.3,A,3334.9338,N,11731.5635,W,53.10,62.60,100310,,*16
$GPRMC,014114.3,A,3334.9535,N,11731.5167,W,52.20,64.00,100310,,*1A
$GPRMC,014117.3,A,3334.9730,N,11731.4716,W,50.10,59.40,100310,,*14
$GPRMC,014120.3,A,3334.9974,N,11731.4324,W,47.90,49.70,100310,,*17
$GPRMC,014123.3,A,3335.0218,N,11731.3966,W,46.40,53.90,100310,,*1F
$GPRMC,014126.3,A,3335.0439,N,11731.3588,W,44.60,55.80,100310,,*14
$GPRMC,014129.3,A,3335.0689,N,11731.3281,W,41.70,45.70,100310,,*16
$GPRMC,014132.3,A,3335.1080,N,11731.3165,W,43.30,21.00,100310,,*18
$GPRMC,014135.3,A,3335.1493,N,11731.3142,W,47.40,9.50,100310,,*20
$GPRMC,014138.3,A,3335.1876,N,11731.3005,W,48.40,15.70,100310,,*18
$GPRMC,014141.3,A,3335.2179,N,11731.2771,W,41.00,26.50,100310,,*19
$GPRMC,014144.3,A,3335.2290,N,11731.2296,W,40.50,58.90,100310,,*15
$GPRMC,014147.3,A,3335.2350,N,11731.1725,W,48.20,72.20,100310,,*19
$GPRMC,014150.3,A,3335.2472,N,11731.1254,W,49.80,72.20,100310,,*10
$GPRMC,014153.3,A,3335.2626,N,11731.0796,W,48.70,63.30,100310,,*15
$GPRMC,014156.3,A,3335.2824,N,11731.0385,W,46.40,56.90,100310,,*1B
$GPRMC,014159.3,A,3335.3065,N,11731.0061,W,42.50,43.80,100310,,*11
$GPRMC,014203.3,A,3335.3358,N,11730.9630,W,42.70,56.60,100310,,*12
$GPRMC,014206.3,A,3335.3529,N,11730.9242,W,43.40,62.40,100310,,*11
$GPRMC,014209.3,A,3335.3711,N,11730.8863,W,41.20,59.30,100310,,*14
$GPRMC,014212.3,A,3335.3960,N,11730.8566,W,39.90,45.70,100310,,*13
$GPRMC,014215.3,A,3335.4364,N,11730.8423,W,44.80,17.70,100310,,*11
$GPRMC,014218.3,A,3335.4714,N,11730.8261,W,45.30,25.10,100310,,*12
$GPRMC,014221.3,A,3335.5055,N,11730.7984,W,50.10,35.90,100310,,*1B
$GPRMC,014224.3,A,3335.5229,N,11730.7589,W,47.50,56.20,100310,,*1A
$GPRMC,014227.3,A,3335.5366,N,11730.7126,W,47.20,69.90,100310,,*12
$GPRMC,014230.3,A,3335.5460,N,11730.6667,W,44.50,76.70,100310,,*12
$GPRMC,014233.3,A,3335.5385,N,11730.6219,W,42.90,97.20,100310,,*10
$GPRMC,014236.3,A,3335.5185,N,11730.5766,W,45.50,113.00,100310,,*2D
$GPRMC,014239.3,A,3335.4998,N,11730.5367,W,45.80,114.30,100310,,*2B
$GPRMC,014242.3,A,3335.4853,N,11730.4948,W,45.50,108.50,100310,,*21
$GPRMC,014245.3,A,3335.4846,N,11730.4495,W,44.20,92.30,100310,,*1D
$GPRMC,014248.3,A,3335.4929,N,11730.4043,W,45.70,87.70,100310,,*13
$GPRMC,014251.3,A,3335.4879,N,11730.3607,W,42.10,97.70,100310,,*1E
$GPRMC,014254.3,A,3335.4662,N,11730.3192,W,44.80,117.00,100310,,*25
$GPRMC,014257.3,A,3335.4409,N,11730.2756,W,49.20,121.80,100310,,*2C
$GPRMC,014300.3,A,3335.4201,N,11730.2352,W,46.10,116.00,100310,,*21
$GPRMC,014303.3,A,3335.4057,N,11730.1922,W,45.10,107.30,100310,,*2D
$GPRMC,014306.3,A,3335.4088,N,11730.1496,W,42.60,88.50,100310,,*18
$GPRMC,014309.3,A,3335.4259,N,11730.1071,W,45.60,71.00,100310,,*10
$GPRMC,014312.3,A,3335.4379,N,11730.0627,W,45.80,76.60,100310,,*12
$GPRMC,014315.3,A,3335.4422,N,11730.0187,W,45.90,82.90,100310,,*14
$GPRMC,014318.3,A,3335.4256,N,11729.9802,W,42.10,104.40,100310,,*24
$GPRMC,014321.3,A,3335.4224,N,11729.9442,W,35.60,94.30,100310,,*1B
$GPRMC,014324.3,A,3335.4360,N,11729.9080,W,40.80,68.50,100310,,*1C
$GPRMC,014327.3,A,3335.4501,N,11729.8694,W,39.80,65.10,100310,,*1B
$GPRMC,014330.3,A,3335.4692,N,11729.8404,W,32.80,52.00,100310,,*11
$GPRMC,014333.3,A,3335.5096,N,11729.8285,W,38.60,23.60,100310,,*1A
$GPRMC,014336.3,A,3335.5373,N,11729.8083,W,40.70,35.50,100310,,*19
$GPRMC,014339.3,A,3335.5495,N,11729.7738,W,38.40,59.80,100310,,*1A
$GPRMC,014342.3,A,3335.5575,N,11729.7365,W,39.20,67.60,100310,,*11
$GPRMC,014345.3,A,3335.5672,N,11729.7005,W,39.20,76.00,100310,,*11
$GPRMC,014348.3,A,3335.5664,N,11729.6600,W,40.30,93.50,100310,,*18
$GPRMC,014351.3,A,3335.5548,N,11729.6239,W,39.10,107.10,100310,,*27
$GPRMC,014354.3,A,3335.5395,N,11729.5901,W,37.60,114.60,100310,,*2B
$GPRMC,014357.3,A,3335.5304,N,11729.5554,W,35.90,104.00,100310,,*26
$GPRMC,014400.3,A,3335.5310,N,11729.5243,W,29.10,93.40,100310,,*19
$GPRMC,014403.3,A,3335.5429,N,11729.4881,W,33.70,79.00,100310,,*1F
$GPRMC,014413.3,A,3335.6102,N,11729.3903,W,36.90,59.60,100310,,*12
$GPRMC,014416.3,A,3335.6126,N,11729.3457,W,41.00,74.80,100310,,*15
$GPRMC,014419.3,A,3335.6235,N,11729.3079,W,40.30,64.60,100310,,*1E
$GPRMC,014422.3,A,3335.6391,N,11729.2681,W,41.90,64.20,100310,,*16
$GPRMC,014425.3,A,3335.6505,N,11729.2285,W,41.30,71.50,100310,,*13
$GPRMC,014428.3,A,3335.6527,N,11729.1894,W,41.10,82.10,100310,,*1D
$GPRMC,014431.3,A,3335.6331,N,11729.1540,W,37.80,101.70,100310,,*24
$GPRMC,014434.3,A,3335.6310,N,11729.1217,W,30.20,92.40,100310,,*12
$GPRMC,014437.3,A,3335.6491,N,11729.0904,W,33.60,65.20,100310,,*1E
$GPRMC,014440.3,A,3335.6865,N,11729.0644,W,41.20,40.20,100310,,*14
$GPRMC,014443.3,A,3335.7113,N,11729.0338,W,42.90,48.30,100310,,*11
$GPRMC,014446.3,A,3335.7252,N,11728.9971,W,39.60,60.60,100310,,*11
$GPRMC,014449.3,A,3335.7124,N,11728.9543,W,38.90,92.70,100310,,*13
$GPRMC,014452.3,A,3335.6934,N,11728.9101,W,45.30,107.70,100310,,*2E
$GPRMC,014455.3,A,3335.6800,N,11728.8645,W,46.40,106.60,100310,,*2D
$GPRMC,014458.3,A,3335.6678,N,11728.8229,W,44.80,108.50,100310,,*2C
$GPRMC,014501.3,A,3335.6515,N,11728.7833,W,45.10,118.20,100310,,*29
$GPRMC,014504.3,A,3335.6271,N,11728.7489,W,45.00,129.60,100310,,*23
$GPRMC,014507.3,A,3335.6003,N,11728.7199,W,44.60,134.30,100310,,*2D
$GPRMC,014510.3,A,3335.5757,N,11728.6855,W,44.80,128.20,100310,,*24
$GPRMC,014513.3,A,3335.5599,N,11728.6394,W,50.10,114.50,100310,,*25
$GPRMC,014516.3,A,3335.5459,N,11728.5849,W,54.60,109.50,100310,,*2A
$GPRMC,014519.3,A,3335.5311,N,11728.5326,W,53.60,109.40,100310,,*2A
$GPRMC,014522.3,A,3335.5166,N,11728.4838,W,51.30,109.20,100310,,*24
$GPRMC,014525.3,A,3335.5059,N,11728.4366,W,47.80,104.00,100310,,*2D
$GPRMC,014528.3,A,3335.5053,N,11728.3923,W,45.90,93.70,100310,,*1D
$GPRMC,014531.3,A,3335.5253,N,11728.3539,W,42.90,73.10,100310,,*1F
$GPRMC,014534.3,A,3335.5330,N,11728.3147,W,39.10,77.00,100310,,*12
$GPRMC,014537.3,A,3335.5179,N,11728.2733,W,42.00,102.40,100310,,*20
$GPRMC,014540.3,A,3335.4953,N,11728.2379,W,41.50,114.00,100310,,*2E
$GPRMC,014543.3,A,3335.4854,N,11728.1958,W,44.10,105.50,100310,,*25
$GPRMC,014546.3,A,3335.4954,N,11728.1604,W,38.40,81.20,100310,,*13
$GPRMC,014549.0,A,3335.5220,N,11728.1360,W,37.80,55.20,100310,,*1B
$GPRMC,014552.0,A,3335.5605,N,11728.1170,W,41.20,32.90,100310,,*10
$GPRMC,014555.0,A,3335.5915,N,11728.0994,W,41.20,31.80,100310,,*18
$GPRMC,014600.0,A,3335.6099,N,11728.0392,W,35.50,60.90,100310,,*18
$GPRMC,014603.0,A,3335.6044,N,11727.9980,W,36.60,90.30,100310,,*11
$GPRMC,014606.0,A,3335.6012,N,11727.9580,W,38.40,85.70,100310,,*17
$GPRMC,014609.0,A,3335.6100,N,11727.9199,W,40.00,76.00,100310,,*16
$GPRMC,014612.0,A,3335.6380,N,11727.8915,W,40.10,49.60,100310,,*10
$GPRMC,014616.0,A,3335.6897,N,11727.8658,W,45.60,27.40,100310,,*17
$GPRMC,014619.0,A,3335.7295,N,11727.8590,W,45.20,8.40,100310,,*2F
$GPRMC,014623.0,A,3335.7805,N,11727.8607,W,44.70,359.40,100310,,*2B
$GPRMC,014626.0,A,3335.8101,N,11727.8533,W,38.50,10.60,100310,,*1D
$GPRMC,014629.0,A,3335.8338,N,11727.8319,W,34.20,28.50,100310,,*17
$GPRMC,014632.0,A,3335.8381,N,11727.7943,W,30.60,62.40,100310,,*1A
$GPRMC,014635.0,A,3335.8157,N,11727.7494,W,35.80,101.80,100310,,*20
$GPRMC,014638.0,A,3335.8102,N,11727.7123,W,34.40,96.20,100310,,*1C
$GPRMC,014641.0,A,3335.8250,N,11727.6819,W,30.90,69.50,100310,,*19
$GPRMC,014644.0,A,3335.8650,N,11727.6642,W,39.30,26.90,100310,,*1C
$GPRMC,014647.3,A,3335.9083,N,11727.6502,W,44.90,24.20,100310,,*1B
$GPRMC,014650.3,A,3335.9439,N,11727.6269,W,48.60,29.40,100310,,*1A
$GPRMC,014653.7,A,3335.9845,N,11727.6045,W,47.40,23.60,100310,,*13
$GPRMC,014702.7,A,3336.0884,N,11727.5513,W,41.50,32.20,100310,,*17
$GPRMC,014705.7,A,3336.1137,N,11727.5231,W,43.20,42.30,100310,,*14
$GPRMC,014708.7,A,3336.1276,N,11727.4796,W,46.60,62.40,100310,,*12
$GPRMC,014711.7,A,3336.1404,N,11727.4371,W,45.70,71.00,100310,,*10
$GPRMC,014714.7,A,3336.1468,N,11727.3905,W,46.10,75.20,100310,,*12
$GPRMC,014717.7,A,3336.1620,N,11727.3492,W,44.20,63.20,100310,,*1A
$GPRMC,014720.8,A,3336.1805,N,11727.3105,W,43.30,64.10,100310,,*11
$GPRMC,014723.8,A,3336.1906,N,11727.2721,W,40.30,70.50,100310,,*13
$GPRMC,014726.8,A,3336.1844,N,11727.2295,W,42.80,94.00,100310,,*1D
$GPRMC,014729.8,A,3336.1770,N,11727.1860,W,42.20,96.50,100310,,*14
$GPRMC,014732.8,A,3336.1779,N,11727.1473,W,39.60,85.90,100310,,*1F
$GPRMC,014735.8,A,3336.1882,N,11727.1094,W,39.90,74.50,100310,,*13
$GPRMC,014738.8,A,3336.1907,N,11727.0714,W,38.70,86.60,100310,,*1D
$GPRMC,014741.8,A,3336.1816,N,11727.0413,W,35.40,103.70,100310,,*25
$GPRMC,014744.8,A,3336.1666,N,11727.0094,W,35.30,109.60,100310,,*2E
$GPRMC,014747.8,A,3336.1612,N,11726.9752,W,33.10,99.10,100310,,*10
$GPRMC,014750.8,A,3336.1710,N,11726.9446,W,31.40,77.10,100310,,*14
$GPRMC,014753.8,A,3336.2067,N,11726.9232,W,36.70,38.20,100310,,*1A
$GPRMC,014756.8,A,3336.2304,N,11726.8979,W,36.90,43.60,100310,,*1A
$GPRMC,014759.8,A,3336.2596,N,11726.8769,W,36.80,29.90,100310,,*15
$GPRMC,014802.8,A,3336.2865,N,11726.8647,W,36.00,23.80,100310,,*1B
$GPRMC,014805.8,A,3336.3137,N,11726.8478,W,36.20,28.70,100310,,*1B
$GPRMC,014808.8,A,3336.3322,N,11726.8221,W,34.00,46.90,100310,,*1C
$GPRMC,014811.8,A,3336.3435,N,11726.7876,W,36.10,63.20,100310,,*1D
$GPRMC,014814.8,A,3336.3597,N,11726.7552,W,36.70,55.80,100310,,*13
$GPRMC,014817.8,A,3336.3822,N,11726.7302,W,37.00,44.00,100310,,*1E
$GPRMC,014820.8,A,3336.4025,N,11726.7008,W,38.80,49.50,100310,,*14
$GPRMC,014823.8,A,3336.4149,N,11726.6607,W,41.30,67.70,100310,,*1F
$GPRMC,014826.8,A,3336.4231,N,11726.6165,W,42.80,75.30,100310,,*1A
$GPRMC,014829.8,A,3336.4332,N,11726.5755,W,42.00,74.80,100310,,*13
$GPRMC,014832.8,A,3336.4433,N,11726.5351,W,40.20,72.00,100310,,*11
$GPRMC,014835.8,A,3336.4576,N,11726.4991,W,39.90,65.20,100310,,*10
$GPRMC,014838.8,A,3336.4722,N,11726.4650,W,40.90,58.90,100310,,*17
$GPRMC,014841.8,A,3336.4928,N,11726.4313,W,41.40,51.70,100310,,*14
$GPRMC,014844.8,A,3336.5158,N,11726.4013,W,40.00,48.40,100310,,*12
$GPRMC,014847.8,A,3336.5375,N,11726.3678,W,41.70,52.30,100310,,*1A
$GPRMC,014850.8,A,3336.5444,N,11726.3298,W,38.20,65.60,100310,,*19
$GPRMC,014853.8,A,3336.5614,N,11726.2982,W,36.30,57.10,100310,,*15
$GPRMC,014856.8,A,3336.5923,N,11726.2742,W,40.90,34.60,100310,,*10
$GPRMC,014859.8,A,3336.6252,N,11726.2538,W,42.80,30.70,100310,,*18
$GPRMC,014902.8,A,3336.6570,N,11726.2299,W,43.50,31.20,100310,,*14
$GPRMC,014905.8,A,3336.6881,N,11726.2091,W,42.20,29.10,100310,,*16
$GPRMC,014908.8,A,3336.7199,N,11726.1935,W,40.60,17.30,100310,,*17
$GPRMC,014911.8,A,3336.7515,N,11726.1811,W,39.30,22.00,100310,,*16
$GPRMC,014914.8,A,3336.7785,N,11726.1589,W,40.70,35.60,100310,,*1E
$GPRMC,014918.9,A,3336.7984,N,11726.1136,W,38.50,55.40,100310,,*15
$GPRMC,014921.9,A,3336.7830,N,11726.0705,W,36.70,87.80,100310,,*19
$GPRMC,014924.9,A,3336.7604,N,11726.0360,W,35.80,108.30,100310,,*23
$GPRMC,014930.9,A,3336.6857,N,11726.0271,W,36.30,155.90,100310,,*24
$GPRMC,014933.9,A,3336.6442,N,11726.0283,W,37.00,161.50,100310,,*2B
$GPRMC,014936.9,A,3336.6115,N,11726.0164,W,39.00,163.00,100310,,*2A
$GPRMC,014939.9,A,3336.5784,N,11726.0120,W,39.50,171.50,100310,,*2B
$GPRMC,014942.9,A,3336.5446,N,11726.0067,W,41.40,173.00,100310,,*21
$GPRMC,014945.9,A,3336.5092,N,11726.0016,W,41.70,175.60,100310,,*2E
$GPRMC,014948.9,A,3336.4726,N,11726.0056,W,41.60,185.10,100310,,*27
$GPRMC,014951.9,A,3336.4390,N,11726.0071,W,40.70,179.50,100310,,*24
$GPRMC,014954.9,A,3336.4058,N,11726.0008,W,39.60,171.20,100310,,*28
$GPRMC,014957.9,A,3336.3755,N,11725.9902,W,38.40,164.90,100310,,*23
$GPRMC,015000.9,A,3336.3453,N,11725.9739,W,39.80,154.90,100310,,*24
$GPRMC,015003.9,A,3336.3337,N,11725.9430,W,32.80,127.10,100310,,*2F
$GPRMC,015006.9,A,3336.3379,N,11725.9015,W,38.30,92.50,100310,,*19
$GPRMC,015009.9,A,3336.3651,N,11725.8790,W,29.90,49.30,100310,,*18
$GPRMC,015012.9,A,3336.4059,N,11725.8711,W,40.30,14.80,100310,,*14
$GPRMC,015015.9,A,3336.4436,N,11725.8632,W,44.20,11.50,100310,,*13
$GPRMC,015018.9,A,3336.4791,N,11725.8506,W,42.80,19.70,100310,,*12
$GPRMC,015021.9,A,3336.5109,N,11725.8255,W,44.40,35.40,100310,,*18
$GPRMC,015024.9,A,3336.5383,N,11725.7957,W,45.10,43.60,100310,,*1C
$GPRMC,015027.9,A,3336.5662,N,11725.7636,W,45.00,45.00,100310,,*1C
$GPRMC,015030.9,A,3336.5921,N,11725.7338,W,43.00,43.20,100310,,*1B
$GPRMC,015033.9,A,3336.6190,N,11725.7044,W,42.70,43.50,100310,,*10
$GPRMC,015036.9,A,3336.6440,N,11725.6754,W,41.90,43.90,100310,,*1B
$GPRMC,015039.9,A,3336.6699,N,11725.6467,W,42.10,42.10,100310,,*13
$GPRMC,015042.9,A,3336.6973,N,11725.6212,W,40.80,34.60,100310,,*1D
$GPRMC,015045.9,A,3336.7289,N,11725.6038,W,41.00,21.20,100310,,*16
$GPRMC,015048.9,A,3336.7620,N,11725.5939,W,41.50,10.60,100310,,*14
$GPRMC,015051.9,A,3336.7973,N,11725.5901,W,41.80,1.30,100310,,*26
$GPRMC,015054.9,A,3336.8321,N,11725.5894,W,41.40,0.60,100310,,*24
$GPRMC,015057.9,A,3336.8665,N,11725.5911,W,40.70,358.10,100310,,*25
$GPRMC,015100.9,A,3336.9003,N,11725.5918,W,39.50,358.90,100310,,*2C
$GPRMC,015103.9,A,3336.9310,N,11725.5890,W,36.80,9.20,100310,,*21
$GPRMC,015106.9,A,3336.9580,N,11725.5733,W,36.20,24.70,100310,,*1D
$GPRMC,015109.9,A,3336.9792,N,11725.5406,W,40.00,48.70,100310,,*1F
$GPRMC,015112.9,A,3336.9994,N,11725.5067,W,40.90,50.30,100310,,*1A
$GPRMC,015115.9,A,3337.0238,N,11725.4784,W,39.70,40.80,100310,,*19
$GPRMC,015118.9,A,3337.0548,N,11725.4590,W,40.90,27.30,100310,,*19
$GPRMC,015121.9,A,3337.0888,N,11725.4425,W,43.50,20.80,100310,,*1E
$GPRMC,015124.9,A,3337.1239,N,11725.4277,W,45.40,21.70,100310,,*12
$GPRMC,015127.9,A,3337.1577,N,11725.4078,W,44.60,29.20,100310,,*1F
$GPRMC,015130.9,A,3337.1881,N,11725.3863,W,41.90,24.50,100310,,*18
$GPRMC,015133.9,A,3337.2210,N,11725.3754,W,42.20,16.90,100310,,*14
$GPRMC,015136.9,A,3337.2548,N,11725.3880,W,42.20,351.20,100310,,*26
$GPRMC,015139.9,A,3337.2618,N,11725.4371,W,36.00,303.20,100310,,*2B
$GPRMC,015142.9,A,3337.2549,N,11725.4800,W,37.90,271.60,100310,,*25
$GPRMC,015145.9,A,3337.2209,N,11725.5072,W,33.20,228.30,100310,,*2B
$GPRMC,015148.9,A,3337.1803,N,11725.5110,W,37.50,193.30,100310,,*20
$GPRMC,015151.9,A,3337.1393,N,11725.5089,W,41.80,184.20,100310,,*20
$GPRMC,015154.9,A,3337.1073,N,11725.5191,W,40.00,195.00,100310,,*2B
$GPRMC,015157.9,A,3337.0891,N,11725.5514,W,37.70,228.50,100310,,*23
$GPRMC,015200.9,A,3337.0888,N,11725.5912,W,35.30,259.40,100310,,*21
$GPRMC,015203.9,A,3337.1028,N,11725.6255,W,33.60,284.50,100310,,*28
$GPRMC,015206.9,A,3337.1309,N,11725.6383,W,30.60,317.50,100310,,*2F
$GPRMC,015209.9,A,3337.1735,N,11725.6147,W,31.40,15.20,100310,,*14
$GPRMC,015212.9,A,3337.1991,N,11725.5796,W,36.90,42.00,100310,,*1D
$GPRMC,015215.9,A,3337.2301,N,11725.5559,W,42.80,35.10,100310,,*18
$GPRMC,015218.9,A,3337.2609,N,11725.5334,W,43.20,32.60,100310,,*1E
$GPRMC,015221.9,A,3337.2842,N,11725.5055,W,40.20,41.30,100310,,*13
$GPRMC,015224.9,A,3337.3113,N,11725.4867,W,36.90,30.90,100310,,*14
$GPRMC,015227.9,A,3337.3341,N,11725.4853,W,28.90,12.60,100310,,*15
$GPRMC,015230.9,A,3337.3660,N,11725.4915,W,32.80,357.50,100310,,*2D
$GPRMC,015233.9,A,3337.4031,N,11725.4945,W,36.00,353.60,100310,,*25
$GPRMC,015236.9,A,3337.4443,N,11725.5110,W,45.00,340.90,100310,,*21
$GPRMC,015239.9,A,3337.4749,N,11725.5392,W,43.70,324.00,100310,,*25
$GPRMC,015242.9,A,3337.5054,N,11725.5649,W,44.30,327.80,100310,,*28
$GPRMC,015245.9,A,3337.5359,N,11725.5768,W,39.40,339.30,100310,,*2A
$GPRMC,015248.9,A,3337.5704,N,11725.5731,W,39.20,0.70,100310,,*2C
$GPRMC,015251.9,A,3337.6042,N,11725.5698,W,40.40,4.60,100310,,*2D
$GPRMC,015254.9,A,3337.6446,N,11725.5607,W,43.70,9.50,100310,,*20
$GPRMC,015257.9,A,3337.6901,N,11725.5390,W,45.20,23.40,100310,,*1C
$GPRMC,015300.9,A,3337.7288,N,11725.5190,W,43.30,19.80,100310,,*14
$GPRMC,015303.9,A,3337.7634,N,11725.5097,W,41.40,9.30,100310,,*2D
$GPRMC,015306.9,A,3337.7969,N,11725.5071,W,41.20,4.00,100310,,*2F
$GPRMC,015309.9,A,3337.8313,N,11725.5053,W,41.90,3.40,100310,,*20
$GPRMC,015312.9,A,3337.8676,N,11725.5015,W,42.90,4.00,100310,,*2E
$GPRMC,015315.9,A,3337.9035,N,11725.5018,W,42.90,359.80,100310,,*27
$GPRMC,015318.9,A,3337.9385,N,11725.5041,W,42.10,357.40,100310,,*24
$GPRMC,015321.9,A,3337.9728,N,11725.5008,W,42.00,9.80,100310,,*25
$GPRMC,015324.9,A,3338.0043,N,11725.4873,W,38.60,20.30,100310,,*12
$GPRMC,015327.9,A,3338.0353,N,11725.4668,W,41.10,22.50,100310,,*1A
$GPRMC,015330.9,A,3338.0697,N,11725.4583,W,42.50,9.30,100310,,*2F
$GPRMC,015333.9,A,3338.1059,N,11725.4557,W,43.90,5.10,100310,,*23
$GPRMC,015336.9,A,3338.1436,N,11725.4484,W,43.20,9.80,100310,,*2A
$GPRMC,015339.9,A,3338.1786,N,11725.4309,W,42.90,19.80,100310,,*14
$GPRMC,015342.9,A,3338.2021,N,11725.3953,W,44.40,44.20,100310,,*1A
$GPRMC,015345.9,A,3338.2217,N,11725.3548,W,44.60,49.90,100310,,*18
$GPRMC,015348.9,A,3338.2514,N,11725.3244,W,45.80,39.00,100310,,*1B
$GPRMC,015351.9,A,3338.2867,N,11725.3111,W,44.20,20.80,100310,,*12
$GPRMC,015354.9,A,3338.3277,N,11725.3108,W,47.70,4.80,100310,,*25
$GPRMC,015357.9,A,3338.3682,N,11725.3094,W,48.00,2.40,100310,,*2E
$GPRMC,015400.9,A,3338.4096,N,11725.3075,W,48.60,3.50,100310,,*26
$GPRMC,015403.9,A,3338.4505,N,11725.2987,W,49.80,13.30,100310,,*17
$GPRMC,015406.9,A,3338.4907,N,11725.2853,W,50.40,16.60,100310,,*10
$GPRMC,015409.9,A,3338.5308,N,11725.2711,W,50.70,16.30,100310,,*14
$GPRMC,015412.9,A,3338.5715,N,11725.2570,W,50.70,16.20,100310,,*12
$GPRMC,015415.9,A,3338.6108,N,11725.2420,W,49.80,18.70,100310,,*14
$GPRMC,015418.9,A,3338.6480,N,11725.2235,W,48.70,25.90,100310,,*10
$GPRMC,015421.9,A,3338.6805,N,11725.1928,W,47.60,36.10,100310,,*1B
$GPRMC,015424.9,A,3338.7095,N,11725.1562,W,49.60,43.60,100310,,*17
$GPRMC,015427.9,A,3338.7395,N,11725.1201,W,50.90,44.70,100310,,*14
$GPRMC,015430.9,A,3338.7685,N,11725.0818,W,50.70,44.90,100310,,*15
$GPRMC,015433.9,A,3338.7983,N,11725.0470,W,49.60,44.30,100310,,*1E
$GPRMC,015436.9,A,3338.8281,N,11725.0166,W,46.80,37.10,100310,,*18
$GPRMC,015439.9,A,3338.8640,N,11725.0002,W,45.40,19.00,100310,,*1F
$GPRMC,015442.9,A,3338.9019,N,11724.9947,W,45.40,6.70,100310,,*21
$GPRMC,015445.9,A,3338.9382,N,11724.9895,W,40.70,8.80,100310,,*2E
$GPRMC,015448.9,A,3338.9705,N,11724.9712,W,41.20,26.40,100310,,*1C
$GPRMC,015451.9,A,3338.9981,N,11724.9440,W,42.80,41.70,100310,,*19
$GPRMC,015454.9,A,3339.0215,N,11724.9093,W,44.30,50.30,100310,,*11
$GPRMC,015457.9,A,3339.0424,N,11724.8736,W,43.00,53.40,100310,,*1F
$GPRMC,015500.9,A,3339.0575,N,11724.8359,W,42.50,65.80,100310,,*19
$GPRMC,015503.9,A,3339.0677,N,11724.7925,W,44.20,76.60,100310,,*18
$GPRMC,015506.9,A,3339.0751,N,11724.7491,W,45.30,79.20,100310,,*11
