NMEA Sentence Code,UTC Time,Status,Latitude,Latitude Direction,Longitude,Longitude Direction,Speed (knots),Track Angle (degrees true),Date,MagneticVariation,Magnetic Variation Direction,[FAA Mode]-Optional,Checksum
$GPRMC,154532.1,A,3306.092139,N,11704.501427,W,5.8,127.4,190910,,,A*74
$GPRMC,154535.1,A,3306.086743,N,11704.495732,W,7.2,132.5,190910,,,A*7B
$GPRMC,154538.1,A,3306.082605,N,11704.490293,W,7.3,132.4,190910,,,A*7A
$GPRMC,154550.1,A,3306.062984,N,11704.475001,W,5.7,143.1,190910,,,A*7B
$GPRMC,154553.1,A,3306.060916,N,11704.473454,W,5.1,144.4,190910,,,A*77
$GPRMC,154556.1,A,3306.053721,N,11704.482633,W,4.5,181.8,190910,,,A*75
$GPRMC,154606.1,A,3306.045274,N,11704.463907,W,5.5,130.4,190910,,,A*71
$GPRMC,154607.1,A,3306.044436,N,11704.469839,W,5.7,113.2,190910,,,A*72
$GPRMC,154610.1,A,3306.044244,N,11704.465641,W,9.5,79.0,190910,,,A*4B
$GPRMC,154613.1,A,3306.046565,N,11704.454377,W,11.4,78.0,190910,,,A*75
$GPRMC,154616.1,A,3306.048263,N,11704.441793,W,12.9,83.7,190910,,,A*78
$GPRMC,154619.1,A,3306.045281,N,11704.429937,W,13.3,100.9,190910,,,A*47
$GPRMC,154622.1,A,3306.021801,N,11704.418132,W,21.8,139.6,190910,,,A*4F
$GPRMC,154625.1,A,3306.002445,N,11704.402778,W,27.4,148.0,190910,,,A*4C
$GPRMC,154628.1,A,3305.980286,N,11704.388934,W,28.7,150.0,190910,,,A*4E
$GPRMC,154631.1,A,3305.959497,N,11704.372248,W,29.3,146.9,190910,,,A*4A
$GPRMC,154634.1,A,3305.937427,N,11704.357061,W,28.8,150.7,190910,,,A*41
$GPRMC,154637.1,A,3305.920670,N,11704.346644,W,21.0,156.3,190910,,,A*46
$GPRMC,154640.1,A,3305.907601,N,11704.345787,W,15.5,180.0,190910,,,A*42
$GPRMC,154643.1,A,3305.900987,N,11704.354012,W,11.6,228.0,190910,,,A*4A
$GPRMC,154646.1,A,3305.894004,N,11704.366999,W,13.6,225.4,190910,,,A*41
$GPRMC,154649.1,A,3305.887557,N,11704.372939,W,5.8,203.8,190910,,,A*71
$GPRMC,154655.1,A,3305.881127,N,11704.370347,W,7.5,144.0,190910,,,A*7F
$GPRMC,154658.1,A,3305.875940,N,11704.362660,W,10.4,132.4,190910,,,A*41
$GPRMC,154701.1,A,3305.865950,N,11704.356345,W,13.5,147.9,190910,,,A*44
$GPRMC,154704.1,A,3305.855127,N,11704.350608,W,14.5,163.1,190910,,,A*49
$GPRMC,154707.1,A,3305.846825,N,11704.348639,W,10.3,172.4,190910,,,A*4F
$GPRMC,154710.1,A,3305.843747,N,11704.348894,W,4.5,183.2,190910,,,A*75
$GPRMC,154713.1,A,3305.839977,N,11704.355117,W,7.8,241.7,190910,,,A*7E
$GPRMC,154716.1,A,3305.833116,N,11704.362874,W,10.1,216.6,190910,,,A*4A
$GPRMC,154719.1,A,3305.823287,N,11704.368250,W,13.0,192.3,190910,,,A*41
$GPRMC,154722.1,A,3305.809053,N,11704.369565,W,15.8,184.5,190910,,,A*45
$GPRMC,154725.1,A,3305.794344,N,11704.370482,W,17.1,184.4,190910,,,A*46
$GPRMC,154728.1,A,3305.779156,N,11704.374305,W,16.3,186.2,190910,,,A*42
$GPRMC,154731.1,A,3305.765490,N,11704.376760,W,17.1,190.4,190910,,,A*4F
$GPRMC,154734.1,A,3305.752080,N,11704.380997,W,17.6,195.5,190910,,,A*47
$GPRMC,154737.1,A,3305.737861,N,11704.385891,W,17.8,192.2,190910,,,A*4C
$GPRMC,154740.1,A,3305.721910,N,11704.390512,W,19.0,190.5,190910,,,A*4D
$GPRMC,154743.1,A,3305.705561,N,11704.393838,W,18.9,189.9,190910,,,A*48
$GPRMC,154746.1,A,3305.691899,N,11704.396880,W,17.9,191.7,190910,,,A*45
$GPRMC,154749.1,A,3305.678110,N,11704.401095,W,17.1,194.8,190910,,,A*42
$GPRMC,154752.1,A,3305.663965,N,11704.404396,W,17.1,192.4,190910,,,A*47
$GPRMC,154755.1,A,3305.652811,N,11704.408257,W,15.6,194.3,190910,,,A*44
$GPRMC,154758.1,A,3305.645378,N,11704.411816,W,13.7,198.0,190910,,,A*44
$GPRMC,154801.1,A,3305.642747,N,11704.418393,W,11.8,206.5,190910,,,A*4B
$GPRMC,154804.1,A,3305.667753,N,11704.444132,W,12.8,265.2,190910,,,A*4D
$GPRMC,154807.1,A,3305.680059,N,11704.475441,W,20.4,279.7,190910,,,A*4C
$GPRMC,154810.1,A,3305.685292,N,11704.497087,W,21.1,283.3,190910,,,A*4D
$GPRMC,154813.1,A,3305.689304,N,11704.517350,W,20.8,283.0,190910,,,A*47
$GPRMC,154816.1,A,3305.693369,N,11704.537307,W,20.4,283.0,190910,,,A*4E
$GPRMC,154819.1,A,3305.696690,N,11704.553239,W,17.4,282.2,190910,,,A*4E
$GPRMC,154822.1,A,3305.695957,N,11704.558407,W,10.5,275.8,190910,,,A*45
$GPRMC,154825.1,A,3305.686350,N,11704.559496,W,8.9,233.4,190910,,,A*7F
$GPRMC,154828.1,A,3305.678745,N,11704.563008,W,10.0,203.3,190910,,,A*4D
$GPRMC,154831.1,A,3305.668073,N,11704.567663,W,11.0,193.3,190910,,,A*42
$GPRMC,154834.1,A,3305.646477,N,11704.573601,W,18.2,190.8,190910,,,A*49
$GPRMC,154837.1,A,3305.627403,N,11704.578763,W,21.3,189.6,190910,,,A*4D
$GPRMC,154840.1,A,3305.606235,N,11704.584618,W,24.2,193.8,190910,,,A*42
$GPRMC,154843.1,A,3305.585951,N,11704.589961,W,24.4,193.9,190910,,,A*4B
$GPRMC,154846.1,A,3305.566169,N,11704.594976,W,24.1,191.4,190910,,,A*40
$GPRMC,154849.1,A,3305.549110,N,11704.599550,W,22.7,193.5,190910,,,A*4A
$GPRMC,154852.1,A,3305.530618,N,11704.604143,W,22.6,192.2,190910,,,A*47
$GPRMC,154855.1,A,3305.513156,N,11704.608565,W,21.8,191.7,190910,,,A*4B
$GPRMC,154858.1,A,3305.496904,N,11704.612490,W,21.4,191.1,190910,,,A*4F
$GPRMC,154901.1,A,3305.483448,N,11704.614867,W,18.2,189.8,190910,,,A*4D
$GPRMC,154904.1,A,3305.477998,N,11704.619716,W,11.3,205.5,190910,,,A*45
$GPRMC,154907.1,A,3305.489344,N,11704.636922,W,17.9,275.7,190910,,,A*41
$GPRMC,154910.1,A,3305.495699,N,11704.660604,W,23.7,281.0,190910,,,A*42
$GPRMC,154913.1,A,3305.501442,N,11704.685617,W,27.5,282.2,190910,,,A*47
$GPRMC,154916.1,A,3305.507066,N,11704.711475,W,28.6,283.4,190910,,,A*47
$GPRMC,154919.1,A,3305.512598,N,11704.739449,W,29.0,283.6,190910,,,A*48
$GPRMC,154920.1,A,3305.514596,N,11704.748886,W,29.0,283.6,190910,,,A*43
$GPRMC,154923.1,A,3305.517767,N,11704.778968,W,29.8,280.3,190910,,,A*43
$GPRMC,154926.1,A,3305.522475,N,11704.805932,W,28.3,282.3,190910,,,A*42
$GPRMC,154929.1,A,3305.527607,N,11704.834277,W,28.7,282.8,190910,,,A*48
$GPRMC,154932.1,A,3305.529912,N,11704.862044,W,28.7,279.9,190910,,,A*43
$GPRMC,154935.1,A,3305.535849,N,11704.882645,W,25.1,282.7,190910,,,A*4E
$GPRMC,154938.1,A,3305.549801,N,11704.895822,W,22.5,296.2,190910,,,A*4E
$GPRMC,154941.1,A,3305.562337,N,11704.918975,W,24.4,299.6,190910,,,A*4C
$GPRMC,154944.1,A,3305.581408,N,11704.944234,W,29.2,304.4,190910,,,A*44
$GPRMC,154947.1,A,3305.594538,N,11704.968868,W,30.7,302.7,190910,,,A*44
$GPRMC,154950.1,A,3305.612859,N,11705.000919,W,33.4,303.0,190910,,,A*42
$GPRMC,154953.1,A,3305.632606,N,11705.030431,W,36.0,307.4,190910,,,A*42
$GPRMC,154956.1,A,3305.657872,N,11705.058984,W,39.7,312.1,190910,,,A*4D
$GPRMC,154959.1,A,3305.686439,N,11705.085587,W,42.2,316.1,190910,,,A*4F
$GPRMC,155002.1,A,3305.717675,N,11705.112277,W,44.9,317.3,190910,,,A*43
$GPRMC,155005.1,A,3305.747066,N,11705.141875,W,46.9,317.9,190910,,,A*43
$GPRMC,155008.1,A,3305.779424,N,11705.175696,W,49.7,317.9,190910,,,A*44
$GPRMC,155011.1,A,3305.814404,N,11705.209675,W,52.4,319.4,190910,,,A*45
$GPRMC,155014.1,A,3305.846324,N,11705.247778,W,55.2,318.8,190910,,,A*48
$GPRMC,155017.1,A,3305.884416,N,11705.282298,W,56.4,323.0,190910,,,A*44
$GPRMC,155020.1,A,3305.922283,N,11705.322630,W,57.3,324.8,190910,,,A*43
$GPRMC,155023.1,A,3305.963327,N,11705.352459,W,57.5,328.7,190910,,,A*45
$GPRMC,155026.1,A,3306.004435,N,11705.380866,W,57.6,329.6,190910,,,A*43
$GPRMC,155029.1,A,3306.048263,N,11705.408410,W,58.2,331.8,190910,,,A*47
$GPRMC,155032.1,A,3306.090995,N,11705.435313,W,58.9,332.6,190910,,,A*46
$GPRMC,155035.1,A,3306.134595,N,11705.461993,W,58.2,333.4,190910,,,A*49
$GPRMC,155038.1,A,3306.178070,N,11705.484386,W,57.2,334.8,190910,,,A*43
$GPRMC,155041.1,A,3306.222310,N,11705.509361,W,57.0,333.7,190910,,,A*43
$GPRMC,155044.1,A,3306.263363,N,11705.534174,W,55.9,333.5,190910,,,A*46
$GPRMC,155047.1,A,3306.307090,N,11705.558206,W,56.7,334.1,190910,,,A*4B
$GPRMC,155050.1,A,3306.348020,N,11705.584937,W,55.7,333.5,190910,,,A*45
$GPRMC,155053.1,A,3306.393624,N,11705.607323,W,57.8,336.0,190910,,,A*48
$GPRMC,155056.1,A,3306.439398,N,11705.631466,W,59.7,336.7,190910,,,A*4D
$GPRMC,155059.1,A,3306.477784,N,11705.652919,W,56.7,334.8,190910,,,A*43
$GPRMC,155102.1,A,3306.518801,N,11705.682027,W,55.9,333.0,190910,,,A*4D
$GPRMC,155105.1,A,3306.564804,N,11705.706042,W,56.5,333.9,190910,,,A*4C
$GPRMC,155108.1,A,3306.607104,N,11705.730985,W,56.9,333.1,190910,,,A*4D
$GPRMC,155111.1,A,3306.655332,N,11705.758182,W,59.9,334.2,190910,,,A*4F
$GPRMC,155114.1,A,3306.703739,N,11705.790980,W,62.0,333.6,190910,,,A*4B
$GPRMC,155117.1,A,3306.747145,N,11705.815544,W,61.7,334.6,190910,,,A*40
$GPRMC,155120.1,A,3306.791786,N,11705.839541,W,58.8,333.9,190910,,,A*40
$GPRMC,155123.1,A,3306.834572,N,11705.867884,W,58.3,331.8,190910,,,A*4D
$GPRMC,155126.1,A,3306.877517,N,11705.892669,W,58.3,333.3,190910,,,A*42
$GPRMC,155129.1,A,3306.925302,N,11705.921798,W,59.3,334.0,190910,,,A*4A
$GPRMC,155132.1,A,3306.974383,N,11705.944692,W,61.7,337.3,190910,,,A*4A
$GPRMC,155135.1,A,3307.019464,N,11705.967370,W,60.9,337.0,190910,,,A*44
$GPRMC,155138.1,A,3307.064961,N,11705.989904,W,60.3,337.4,190910,,,A*4C
$GPRMC,155141.1,A,3307.112746,N,11706.012308,W,61.4,337.0,190910,,,A*45
$GPRMC,155144.1,A,3307.153591,N,11706.036683,W,59.7,334.6,190910,,,A*40
$GPRMC,155147.1,A,3307.196534,N,11706.063418,W,59.0,332.8,190910,,,A*4A
$GPRMC,155150.1,A,3307.236986,N,11706.087338,W,56.1,333.5,190910,,,A*4D
$GPRMC,155153.1,A,3307.273830,N,11706.109042,W,55.4,333.3,190910,,,A*4A
$GPRMC,155156.1,A,3307.315733,N,11706.133905,W,55.4,333.1,190910,,,A*43
$GPRMC,155159.1,A,3307.353269,N,11706.163966,W,54.3,330.5,190910,,,A*45
$GPRMC,155202.1,A,3307.397061,N,11706.183384,W,55.5,335.0,190910,,,A*45
$GPRMC,155205.1,A,3307.441882,N,11706.200310,W,57.0,339.3,190910,,,A*46
$GPRMC,155208.1,A,3307.481008,N,11706.210500,W,54.1,341.4,190910,,,A*41
$GPRMC,155211.1,A,3307.519544,N,11706.222394,W,51.1,344.5,190910,,,A*4F
$GPRMC,155220.1,A,3307.622410,N,11706.299977,W,49.6,330.5,190910,,,A*4C
$GPRMC,155223.1,A,3307.656960,N,11706.322291,W,47.5,331.4,190910,,,A*49
$GPRMC,155226.1,A,3307.680293,N,11706.350086,W,45.7,327.9,190910,,,A*4B
$GPRMC,155229.1,A,3307.711635,N,11706.373192,W,45.2,328.0,190910,,,A*43
$GPRMC,155232.1,A,3307.743858,N,11706.397640,W,45.4,327.8,190910,,,A*48
$GPRMC,155238.1,A,3307.665732,N,11706.643867,W,56.3,286.1,190910,,,A*45
$GPRMC,155241.1,A,3307.681847,N,11706.695930,W,55.7,290.9,190910,,,A*4C
$GPRMC,155244.1,A,3307.699383,N,11706.747466,W,55.7,291.5,190910,,,A*4E
