NMEA Sentence Code,UTC Time,Status,Latitude,Latitude Direction,Longitude,Longitude Direction,Speed (knots),Track Angle (degrees true),Date,MagneticVariation,Magnetic Variation Direction,[FAA Mode]-Optional,Checksum
$GPRMC,150502.02,A,3254.3324,N,11708.2588,W,29.459,87.203,311010,0,W,A*2B
$GPRMC,150505.02,A,3254.3348,N,11708.2284,W,31.346,81.474,311010,0,W,A*2D
$GPRMC,150508.02,A,3254.3393,N,11708.1975,W,29.627,81.871,311010,0,W,A*22
$GPRMC,150511.02,A,3254.3419,N,11708.1722,W,19.324,86.936,311010,0,W,A*23
$GPRMC,150514.02,A,3254.3428,N,11708.1555,W,15.327,88.145,311010,0,W,A*2B
$GPRMC,150517.02,A,3254.3428,N,11708.1448,W,6.681,92.223,311010,0,W,A*16
$GPRMC,150520.02,A,3254.3431,N,11708.1400,W,5.361,94.589,311010,0,W,A*1F
$GPRMC,150526.02,A,3254.3430,N,11708.1297,W,10.231,96.411,311010,0,W,A*22
$GPRMC,150529.02,A,3254.3417,N,11708.1178,W,14.232,100.959,311010,0,W,A*12
$GPRMC,150532.02,A,3254.3373,N,11708.1015,W,19.849,108.580,311010,0,W,A*1C
$GPRMC,150535.02,A,3254.3332,N,11708.0804,W,23.179,97.189,311010,0,W,A*2E
$GPRMC,150538.02,A,3254.3320,N,11708.0555,W,26.876,92.154,311010,0,W,A*2F
$GPRMC,150541.02,A,3254.3310,N,11708.0276,W,28.860,92.330,311010,0,W,A*2D
$GPRMC,150544.02,A,3254.3298,N,11707.9986,W,28.944,91.941,311010,0,W,A*23
$GPRMC,150547.02,A,3254.3293,N,11707.9687,W,30.873,91.428,311010,0,W,A*2B
$GPRMC,150550.02,A,3254.3282,N,11707.9378,W,29.964,91.837,311010,0,W,A*25
$GPRMC,150553.02,A,3254.3273,N,11707.9088,W,28.113,91.730,311010,0,W,A*25
$GPRMC,150556.02,A,3254.3265,N,11707.8816,W,26.832,91.664,311010,0,W,A*2D
$GPRMC,150559.02,A,3254.3260,N,11707.8563,W,22.833,92.502,311010,0,W,A*2D
$GPRMC,150602.02,A,3254.3256,N,11707.8396,W,10.536,92.476,311010,0,W,A*22
$GPRMC,150608.02,A,3254.3256,N,11707.8270,W,10.201,91.675,311010,0,W,A*20
$GPRMC,150611.02,A,3254.3253,N,11707.8136,W,16.995,91.612,311010,0,W,A*2D
$GPRMC,150614.02,A,3254.3251,N,11707.7936,W,21.455,91.639,311010,0,W,A*21
$GPRMC,150617.02,A,3254.3246,N,11707.7692,W,26.869,92.341,311010,0,W,A*28
$GPRMC,150620.02,A,3254.3237,N,11707.7396,W,31.283,91.963,311010,0,W,A*2A
$GPRMC,150623.02,A,3254.3226,N,11707.7059,W,35.469,92.152,311010,0,W,A*26
$GPRMC,150626.02,A,3254.3215,N,11707.6683,W,37.844,92.499,311010,0,W,A*20
$GPRMC,150629.02,A,3254.3206,N,11707.6297,W,37.573,91.150,311010,0,W,A*26
$GPRMC,150632.02,A,3254.3199,N,11707.5949,W,29.458,91.833,311010,0,W,A*29
$GPRMC,150635.02,A,3254.3196,N,11707.5734,W,14.506,90.359,311010,0,W,A*27
$GPRMC,150638.02,A,3254.3198,N,11707.5664,W,7.280,93.270,311010,0,W,A*12
$GPRMC,150641.02,A,3254.3199,N,11707.5550,W,15.645,88.415,311010,0,W,A*28
$GPRMC,150644.02,A,3254.3202,N,11707.5358,W,22.694,89.684,311010,0,W,A*21
$GPRMC,150647.02,A,3254.3204,N,11707.5106,W,27.376,90.197,311010,0,W,A*2C
$GPRMC,150650.02,A,3254.3194,N,11707.4842,W,23.693,94.606,311010,0,W,A*29
$GPRMC,150653.02,A,3254.3186,N,11707.4650,W,14.744,90.415,311010,0,W,A*2F
$GPRMC,150708.02,A,3254.3146,N,11707.4520,W,8.511,155.043,311010,0,W,A*28
$GPRMC,150711.02,A,3254.3043,N,11707.4512,W,16.733,178.860,311010,0,W,A*1E
$GPRMC,150714.02,A,3254.2876,N,11707.4511,W,22.264,177.731,311010,0,W,A*13
$GPRMC,150717.02,A,3254.2639,N,11707.4514,W,30.908,179.022,311010,0,W,A*19
$GPRMC,150720.02,A,3254.2355,N,11707.4510,W,35.341,178.893,311010,0,W,A*17
$GPRMC,150723.02,A,3254.2044,N,11707.4501,W,37.685,179.283,311010,0,W,A*12
$GPRMC,150726.02,A,3254.1730,N,11707.4490,W,37.341,178.167,311010,0,W,A*1C
$GPRMC,150729.02,A,3254.1413,N,11707.4471,W,37.594,174.889,311010,0,W,A*15
$GPRMC,150732.02,A,3254.1094,N,11707.4422,W,39.316,170.282,311010,0,W,A*15
$GPRMC,150735.02,A,3254.0756,N,11707.4350,W,41.711,169.186,311010,0,W,A*1B
$GPRMC,150738.02,A,3254.0401,N,11707.4263,W,44.139,169.583,311010,0,W,A*1E
$GPRMC,150741.02,A,3254.0029,N,11707.4162,W,45.640,165.530,311010,0,W,A*10
$GPRMC,150744.02,A,3253.9666,N,11707.4012,W,45.726,156.879,311010,0,W,A*11
$GPRMC,150747.02,A,3253.9321,N,11707.3800,W,46.330,149.614,311010,0,W,A*13
$GPRMC,150750.02,A,3253.9006,N,11707.3546,W,45.795,143.436,311010,0,W,A*1C
$GPRMC,150753.02,A,3253.8711,N,11707.3247,W,46.304,139.140,311010,0,W,A*1F
$GPRMC,150756.02,A,3253.8424,N,11707.2945,W,43.596,139.378,311010,0,W,A*16
$GPRMC,150759.02,A,3253.8163,N,11707.2674,W,39.247,138.677,311010,0,W,A*1F
$GPRMC,150802.02,A,3253.7935,N,11707.2450,W,31.898,142.480,311010,0,W,A*19
$GPRMC,150805.02,A,3253.7728,N,11707.2286,W,28.634,149.507,311010,0,W,A*14
$GPRMC,150808.02,A,3253.7520,N,11707.2159,W,29.315,156.063,311010,0,W,A*1C
$GPRMC,150811.02,A,3253.7287,N,11707.2060,W,30.142,165.148,311010,0,W,A*15
$GPRMC,150814.02,A,3253.7050,N,11707.2008,W,27.786,172.720,311010,0,W,A*10
$GPRMC,150817.02,A,3253.6837,N,11707.1994,W,23.609,178.553,311010,0,W,A*1A
$GPRMC,150820.02,A,3253.6666,N,11707.1996,W,18.918,183.095,311010,0,W,A*1A
$GPRMC,150823.02,A,3253.6534,N,11707.2007,W,15.032,182.418,311010,0,W,A*13
$GPRMC,150826.02,A,3253.6428,N,11707.2019,W,9.635,182.818,311010,0,W,A*25
$GPRMC,150838.02,A,3253.6382,N,11707.2023,W,4.603,182.311,311010,0,W,A*2E
$GPRMC,150841.02,A,3253.6294,N,11707.2027,W,14.324,178.437,311010,0,W,A*15
$GPRMC,150844.02,A,3253.6181,N,11707.2032,W,9.162,192.270,311010,0,W,A*2E
$GPRMC,150847.02,A,3253.6086,N,11707.2041,W,14.580,177.511,311010,0,W,A*10
$GPRMC,150850.02,A,3253.5937,N,11707.2035,W,22.130,177.532,311010,0,W,A*1E
$GPRMC,150853.02,A,3253.5727,N,11707.2014,W,26.885,172.595,311010,0,W,A*1A
$GPRMC,150856.02,A,3253.5486,N,11707.1947,W,31.775,160.715,311010,0,W,A*14
$GPRMC,150859.02,A,3253.5231,N,11707.1800,W,34.301,149.896,311010,0,W,A*1E
$GPRMC,150902.02,A,3253.5000,N,11707.1591,W,35.814,137.777,311010,0,W,A*13
$GPRMC,150905.02,A,3253.4795,N,11707.1305,W,38.106,125.925,311010,0,W,A*18
$GPRMC,150908.02,A,3253.4610,N,11707.0964,W,41.102,124.500,311010,0,W,A*15
$GPRMC,150911.02,A,3253.4396,N,11707.0624,W,43.035,130.240,311010,0,W,A*1C
$GPRMC,150914.02,A,3253.4115,N,11707.0329,W,45.562,146.381,311010,0,W,A*14
$GPRMC,150917.02,A,3253.3767,N,11707.0128,W,47.059,160.838,311010,0,W,A*12
$GPRMC,150920.02,A,3253.3373,N,11707.0034,W,48.760,175.260,311010,0,W,A*1A
$GPRMC,150923.02,A,3253.2947,N,11707.0033,W,51.042,179.861,311010,0,W,A*1A
$GPRMC,150926.02,A,3253.2512,N,11707.0038,W,52.528,179.494,311010,0,W,A*14
$GPRMC,150929.02,A,3253.2058,N,11707.0040,W,54.948,179.618,311010,0,W,A*15
$GPRMC,150932.02,A,3253.1588,N,11707.0039,W,56.893,179.636,311010,0,W,A*13
$GPRMC,150935.02,A,3253.1098,N,11707.0037,W,59.382,179.648,311010,0,W,A*13
$GPRMC,150938.02,A,3253.0589,N,11707.0035,W,61.660,179.775,311010,0,W,A*15
$GPRMC,150941.02,A,3253.0065,N,11707.0030,W,63.335,179.271,311010,0,W,A*1F
$GPRMC,150944.02,A,3252.9529,N,11707.0026,W,64.695,179.971,311010,0,W,A*1B
$GPRMC,150947.02,A,3252.8979,N,11707.0028,W,66.068,180.358,311010,0,W,A*1F
$GPRMC,150950.02,A,3252.8422,N,11707.0030,W,67.438,179.885,311010,0,W,A*1E
$GPRMC,150953.02,A,3252.7854,N,11707.0028,W,68.024,179.761,311010,0,W,A*15
$GPRMC,150956.02,A,3252.7300,N,11707.0031,W,64.677,180.340,311010,0,W,A*1F
$GPRMC,150959.02,A,3252.6770,N,11707.0035,W,62.565,180.135,311010,0,W,A*10
$GPRMC,151002.02,A,3252.6253,N,11707.0036,W,61.513,179.934,311010,0,W,A*1C
$GPRMC,151005.02,A,3252.5739,N,11707.0037,W,61.600,180.125,311010,0,W,A*1F
$GPRMC,151008.02,A,3252.5224,N,11707.0034,W,61.962,179.454,311010,0,W,A*16
$GPRMC,151011.02,A,3252.4710,N,11707.0027,W,61.437,179.515,311010,0,W,A*16
$GPRMC,151014.02,A,3252.4200,N,11707.0024,W,61.509,179.430,311010,0,W,A*1E
$GPRMC,151017.02,A,3252.3687,N,11707.0019,W,61.563,179.822,311010,0,W,A*1C
$GPRMC,151020.02,A,3252.3169,N,11707.0014,W,62.182,179.930,311010,0,W,A*18
$GPRMC,151023.02,A,3252.2648,N,11707.0010,W,62.445,180.008,311010,0,W,A*10
$GPRMC,151026.02,A,3252.2124,N,11707.0008,W,62.354,180.071,311010,0,W,A*18
$GPRMC,151029.02,A,3252.1603,N,11707.0008,W,62.571,179.872,311010,0,W,A*1A
$GPRMC,151032.02,A,3252.1077,N,11707.0008,W,62.976,179.939,311010,0,W,A*10
$GPRMC,151035.02,A,3252.0557,N,11707.0006,W,61.979,180.339,311010,0,W,A*1F
$GPRMC,151038.02,A,3252.0054,N,11707.0007,W,58.229,179.997,311010,0,W,A*19
$GPRMC,151041.02,A,3251.9606,N,11707.0005,W,51.427,179.713,311010,0,W,A*1D
$GPRMC,151044.02,A,3251.9192,N,11706.9999,W,49.400,179.495,311010,0,W,A*17
$GPRMC,151047.02,A,3251.8788,N,11706.9997,W,48.930,179.995,311010,0,W,A*14
$GPRMC,151050.02,A,3251.8377,N,11706.9997,W,50.095,180.064,311010,0,W,A*18
$GPRMC,151053.02,A,3251.7954,N,11706.9997,W,51.626,179.964,311010,0,W,A*1F
$GPRMC,151056.02,A,3251.7520,N,11707.0001,W,52.664,180.494,311010,0,W,A*1A
$GPRMC,151059.02,A,3251.7078,N,11707.0025,W,53.501,184.847,311010,0,W,A*1C
$GPRMC,151102.02,A,3251.6636,N,11707.0098,W,53.475,190.524,311010,0,W,A*17
$GPRMC,151105.02,A,3251.6200,N,11707.0224,W,54.754,195.732,311010,0,W,A*13
$GPRMC,151108.02,A,3251.5770,N,11707.0388,W,53.473,197.552,311010,0,W,A*1F
$GPRMC,151111.02,A,3251.5355,N,11707.0548,W,50.905,197.874,311010,0,W,A*18
$GPRMC,151114.02,A,3251.4971,N,11707.0703,W,46.563,199.628,311010,0,W,A*1F
$GPRMC,151117.02,A,3251.4602,N,11707.0868,W,48.575,200.777,311010,0,W,A*14
$GPRMC,151120.02,A,3251.4235,N,11707.1040,W,44.495,203.794,311010,0,W,A*1E
$GPRMC,151123.02,A,3251.3934,N,11707.1236,W,39.061,217.448,311010,0,W,A*11
$GPRMC,151126.02,A,3251.3736,N,11707.1535,W,40.330,239.136,311010,0,W,A*15
$GPRMC,151129.02,A,3251.3558,N,11707.1892,W,43.227,232.648,311010,0,W,A*11
$GPRMC,151132.02,A,3251.3288,N,11707.2209,W,47.820,215.556,311010,0,W,A*1A
$GPRMC,151135.02,A,3251.2932,N,11707.2476,W,52.490,213.024,311010,0,W,A*1D
$GPRMC,151138.02,A,3251.2573,N,11707.2800,W,55.580,221.095,311010,0,W,A*18
$GPRMC,151141.02,A,3251.2249,N,11707.3214,W,57.479,229.773,311010,0,W,A*14
$GPRMC,151144.02,A,3251.1933,N,11707.3646,W,58.115,225.835,311010,0,W,A*16
$GPRMC,151147.02,A,3251.1574,N,11707.4051,W,60.344,220.570,311010,0,W,A*19
$GPRMC,151150.02,A,3251.1173,N,11707.4428,W,62.172,216.384,311010,0,W,A*1B
$GPRMC,151153.02,A,3251.0749,N,11707.4795,W,64.124,216.210,311010,0,W,A*1A
$GPRMC,151156.02,A,3251.0320,N,11707.5172,W,63.312,216.237,311010,0,W,A*1F
$GPRMC,151159.02,A,3250.9899,N,11707.5541,W,61.872,216.759,311010,0,W,A*17
$GPRMC,151202.02,A,3250.9492,N,11707.5903,W,59.972,216.518,311010,0,W,A*1A
$GPRMC,151205.02,A,3250.9095,N,11707.6250,W,58.923,216.640,311010,0,W,A*1B
$GPRMC,151208.02,A,3250.8702,N,11707.6595,W,58.557,216.944,311010,0,W,A*14
$GPRMC,151211.02,A,3250.8319,N,11707.6943,W,58.115,217.410,311010,0,W,A*1A
$GPRMC,151214.02,A,3250.7938,N,11707.7290,W,57.821,217.137,311010,0,W,A*1C
$GPRMC,151217.02,A,3250.7558,N,11707.7626,W,56.796,217.068,311010,0,W,A*15
$GPRMC,151220.02,A,3250.7183,N,11707.7962,W,55.992,216.950,311010,0,W,A*16
$GPRMC,151223.02,A,3250.6809,N,11707.8297,W,56.437,217.369,311010,0,W,A*11
$GPRMC,151226.02,A,3250.6433,N,11707.8637,W,57.105,217.269,311010,0,W,A*1B
$GPRMC,151229.02,A,3250.6053,N,11707.8982,W,57.795,217.698,311010,0,W,A*12
$GPRMC,151232.02,A,3250.5671,N,11707.9331,W,58.820,217.633,311010,0,W,A*11
$GPRMC,151235.02,A,3250.5281,N,11707.9687,W,59.295,217.987,311010,0,W,A*10
$GPRMC,151238.02,A,3250.4888,N,11708.0052,W,59.694,218.252,311010,0,W,A*1E
$GPRMC,151241.02,A,3250.4488,N,11708.0419,W,61.264,217.921,311010,0,W,A*17
$GPRMC,151244.02,A,3250.4080,N,11708.0788,W,61.643,216.762,311010,0,W,A*1C
$GPRMC,151247.02,A,3250.3666,N,11708.1156,W,62.093,217.088,311010,0,W,A*18
$GPRMC,151250.02,A,3250.3250,N,11708.1530,W,62.550,217.285,311010,0,W,A*1E
$GPRMC,151253.02,A,3250.2838,N,11708.1906,W,61.746,217.455,311010,0,W,A*1C
$GPRMC,151256.02,A,3250.2426,N,11708.2278,W,61.837,217.044,311010,0,W,A*16
$GPRMC,151259.02,A,3250.2014,N,11708.2647,W,61.450,216.831,311010,0,W,A*12
$GPRMC,151302.02,A,3250.1598,N,11708.3010,W,61.828,216.283,311010,0,W,A*1A
$GPRMC,151305.02,A,3250.1183,N,11708.3369,W,61.628,215.984,311010,0,W,A*1F
$GPRMC,151308.02,A,3250.0764,N,11708.3724,W,61.906,215.539,311010,0,W,A*18
$GPRMC,151311.02,A,3250.0336,N,11708.4071,W,62.437,213.812,311010,0,W,A*1D
$GPRMC,151314.02,A,3249.9890,N,11708.4400,W,63.279,210.185,311010,0,W,A*15
$GPRMC,151317.02,A,3249.9422,N,11708.4695,W,63.901,206.717,311010,0,W,A*13
$GPRMC,151320.02,A,3249.8938,N,11708.4966,W,63.890,204.777,311010,0,W,A*1E
$GPRMC,151323.02,A,3249.8448,N,11708.5234,W,65.146,204.895,311010,0,W,A*1D
$GPRMC,151326.02,A,3249.7961,N,11708.5506,W,64.877,205.524,311010,0,W,A*1B
$GPRMC,151329.02,A,3249.7475,N,11708.5782,W,64.356,205.703,311010,0,W,A*1D
$GPRMC,151332.02,A,3249.6993,N,11708.6055,W,63.560,205.075,311010,0,W,A*1F
$GPRMC,151335.02,A,3249.6514,N,11708.6315,W,63.259,204.832,311010,0,W,A*1B
$GPRMC,151338.02,A,3249.6039,N,11708.6574,W,61.602,204.496,311010,0,W,A*17
$GPRMC,151341.02,A,3249.5579,N,11708.6823,W,60.313,204.865,311010,0,W,A*10
$GPRMC,151344.02,A,3249.5138,N,11708.7079,W,58.476,207.598,311010,0,W,A*11
$GPRMC,151347.02,A,3249.4718,N,11708.7342,W,56.915,206.840,311010,0,W,A*13
$GPRMC,151350.02,A,3249.4292,N,11708.7584,W,56.650,204.882,311010,0,W,A*1C
$GPRMC,151353.02,A,3249.3866,N,11708.7813,W,56.384,204.778,311010,0,W,A*1C
$GPRMC,151356.02,A,3249.3445,N,11708.8040,W,55.131,204.392,311010,0,W,A*1A
$GPRMC,151359.02,A,3249.3033,N,11708.8273,W,55.534,205.690,311010,0,W,A*15
$GPRMC,151402.02,A,3249.2624,N,11708.8514,W,53.506,205.726,311010,0,W,A*10
$GPRMC,151405.02,A,3249.2255,N,11708.8719,W,43.315,204.956,311010,0,W,A*17
$GPRMC,151408.02,A,3249.1988,N,11708.8901,W,33.065,219.212,311010,0,W,A*11
$GPRMC,151411.02,A,3249.1883,N,11708.9120,W,22.255,260.022,311010,0,W,A*17
$GPRMC,151414.02,A,3249.1901,N,11708.9279,W,11.234,269.786,311010,0,W,A*11
$GPRMC,151420.02,A,3249.1923,N,11708.9343,W,5.770,272.745,311010,0,W,A*2B
$GPRMC,151423.02,A,3249.1929,N,11708.9435,W,12.279,260.554,311010,0,W,A*1F
$GPRMC,151426.02,A,3249.1872,N,11708.9522,W,13.795,198.283,311010,0,W,A*1D
$GPRMC,151429.02,A,3249.1731,N,11708.9534,W,20.131,182.514,311010,0,W,A*17
$GPRMC,151432.02,A,3249.1545,N,11708.9544,W,25.519,182.960,311010,0,W,A*1F
$GPRMC,151435.02,A,3249.1314,N,11708.9553,W,29.919,182.664,311010,0,W,A*17
$GPRMC,151438.02,A,3249.1051,N,11708.9568,W,34.550,185.299,311010,0,W,A*1C
$GPRMC,151441.02,A,3249.0750,N,11708.9627,W,37.957,195.078,311010,0,W,A*19
$GPRMC,151444.02,A,3249.0445,N,11708.9762,W,40.775,204.334,311010,0,W,A*15
$GPRMC,151447.02,A,3249.0123,N,11708.9944,W,43.789,204.447,311010,0,W,A*1A
$GPRMC,151450.02,A,3248.9776,N,11709.0131,W,46.371,204.397,311010,0,W,A*1C
$GPRMC,151453.02,A,3248.9412,N,11709.0318,W,48.891,203.930,311010,0,W,A*1C
$GPRMC,151456.02,A,3248.9033,N,11709.0511,W,49.609,202.878,311010,0,W,A*13
$GPRMC,151459.02,A,3248.8655,N,11709.0696,W,46.175,203.404,311010,0,W,A*12
$GPRMC,151502.02,A,3248.8349,N,11709.0889,W,37.909,215.040,311010,0,W,A*13
$GPRMC,151505.02,A,3248.8154,N,11709.1151,W,31.471,241.454,311010,0,W,A*13
$GPRMC,151508.02,A,3248.8077,N,11709.1387,W,19.286,252.693,311010,0,W,A*18
$GPRMC,151511.02,A,3248.8063,N,11709.1508,W,6.305,259.157,311010,0,W,A*24
$GPRMC,151520.02,A,3248.8055,N,11709.1587,W,10.296,246.141,311010,0,W,A*11
$GPRMC,151523.02,A,3248.7985,N,11709.1665,W,13.535,203.226,311010,0,W,A*18
