NMEA Sentence Code,UTC Time,Status,Latitude,Latitude Direction,Longitude,Longitude Direction,Speed (knots),Track Angle (degrees true),Date,MagneticVariation,Magnetic Variation Direction,[FAA Mode]-Optional,Checksum
$GPRMC,043455.6,A,3347.6331,N,11729.9730,W,65.30,148.40,040210,,*2F
$GPRMC,043458.6,A,3347.5870,N,11729.9379,W,65.30,147.40,040210,,*29
$GPRMC,043501.6,A,3347.5413,N,11729.9026,W,65.30,147.10,040210,,*21
$GPRMC,043504.6,A,3347.4955,N,11729.8669,W,65.20,147.10,040210,,*27
$GPRMC,043507.6,A,3347.4496,N,11729.8314,W,66.10,148.30,040210,,*24
$GPRMC,043510.6,A,3347.4041,N,11729.7959,W,65.10,146.90,040210,,*27
$GPRMC,043513.6,A,3347.3587,N,11729.7606,W,64.80,146.90,040210,,*21
$GPRMC,043516.6,A,3347.3134,N,11729.7254,W,64.70,147.30,040210,,*2F
$GPRMC,043519.6,A,3347.2678,N,11729.6906,W,64.70,147.10,040210,,*21
$GPRMC,043522.6,A,3347.2225,N,11729.6555,W,64.70,147.20,040210,,*2C
$GPRMC,043525.6,A,3347.1767,N,11729.6210,W,64.80,148.40,040210,,*2B
$GPRMC,043528.6,A,3347.1306,N,11729.5872,W,65.00,147.50,040210,,*2F
$GPRMC,043531.6,A,3347.0850,N,11729.5519,W,65.00,147.30,040210,,*28
$GPRMC,043534.6,A,3347.0390,N,11729.5177,W,64.90,149.30,040210,,*20
$GPRMC,043537.6,A,3346.9923,N,11729.4853,W,64.90,151.10,040210,,*2C
$GPRMC,043540.6,A,3346.9441,N,11729.4549,W,65.10,153.00,040210,,*29
$GPRMC,043543.6,A,3346.8957,N,11729.4257,W,65.00,153.30,040210,,*2B
$GPRMC,043546.6,A,3346.8476,N,11729.3963,W,64.90,152.40,040210,,*25
$GPRMC,043549.6,A,3346.8001,N,11729.3662,W,64.60,152.50,040210,,*2E
$GPRMC,043552.6,A,3346.7522,N,11729.3363,W,64.40,152.80,040210,,*24
$GPRMC,043555.6,A,3346.7046,N,11729.3071,W,64.20,153.00,040210,,*2B
$GPRMC,043558.6,A,3346.6570,N,11729.2779,W,64.20,153.00,040210,,*29
$GPRMC,043601.6,A,3346.6089,N,11729.2487,W,64.50,153.20,040210,,*22
$GPRMC,043604.6,A,3346.5608,N,11729.2195,W,64.90,153.00,040210,,*23
$GPRMC,043607.6,A,3346.5122,N,11729.1901,W,65.00,153.20,040210,,*23
$GPRMC,043610.6,A,3346.4638,N,11729.1611,W,64.80,153.30,040210,,*2E
$GPRMC,043613.6,A,3346.4157,N,11729.1317,W,64.70,152.70,040210,,*2A
$GPRMC,043616.6,A,3346.3681,N,11729.1007,W,64.80,149.80,040210,,*2C
$GPRMC,043619.6,A,3346.3225,N,11729.0655,W,65.40,145.30,040210,,*23
$GPRMC,043622.6,A,3346.2780,N,11729.0263,W,66.90,141.90,040210,,*21
$GPRMC,043625.6,A,3346.2374,N,11728.9819,W,66.10,135.60,040210,,*22
$GPRMC,043628.6,A,3346.1998,N,11728.9335,W,66.40,130.70,040210,,*20
$GPRMC,043631.6,A,3346.1656,N,11728.8814,W,66.30,126.30,040210,,*28
$GPRMC,043634.6,A,3346.1337,N,11728.8276,W,66.30,125.40,040210,,*25
$GPRMC,043637.6,A,3346.1012,N,11728.7741,W,66.20,127.60,040210,,*2D
$GPRMC,043640.6,A,3346.0661,N,11728.7231,W,66.20,132.20,040210,,*2C
$GPRMC,043643.6,A,3346.0272,N,11728.6758,W,66.20,137.00,040210,,*25
$GPRMC,043646.6,A,3345.9848,N,11728.6327,W,66.30,142.20,040210,,*24
$GPRMC,043649.6,A,3345.9403,N,11728.5930,W,66.10,143.50,040210,,*23
$GPRMC,043652.6,A,3345.8960,N,11728.5533,W,65.90,143.70,040210,,*26
$GPRMC,043655.6,A,3345.8518,N,11728.5133,W,66.70,140.40,040210,,*2B
$GPRMC,043658.6,A,3345.8104,N,11728.4692,W,66.10,136.00,040210,,*21
$GPRMC,043701.6,A,3345.7729,N,11728.4217,W,66.10,130.90,040210,,*2C
$GPRMC,043704.6,A,3345.7385,N,11728.3704,W,66.00,126.50,040210,,*21
$GPRMC,043707.6,A,3345.7082,N,11728.3159,W,66.00,121.70,040210,,*2D
$GPRMC,043710.6,A,3345.6813,N,11728.2584,W,66.10,117.00,040210,,*2C
$GPRMC,043713.6,A,3345.6586,N,11728.1982,W,65.90,112.10,040210,,*28
$GPRMC,043716.6,A,3345.6398,N,11728.1360,W,65.90,108.90,040210,,*21
$GPRMC,043719.6,A,3345.6217,N,11728.0735,W,66.20,109.30,040210,,*2E
$GPRMC,043722.6,A,3345.6023,N,11728.0114,W,66.20,112.80,040210,,*27
$GPRMC,043725.6,A,3345.5791,N,11727.9512,W,66.30,117.70,040210,,*22
$GPRMC,043728.6,A,3345.5512,N,11727.8940,W,66.40,122.40,040210,,*2E
$GPRMC,043731.6,A,3345.5195,N,11727.8392,W,66.50,126.90,040210,,*20
$GPRMC,043734.6,A,3345.4856,N,11727.7867,W,66.40,127.90,040210,,*2C
$GPRMC,043737.6,A,3345.4516,N,11727.7346,W,66.30,128.00,040210,,*2F
$GPRMC,043740.6,A,3345.4176,N,11727.6822,W,66.30,127.80,040210,,*22
$GPRMC,043743.6,A,3345.3836,N,11727.6305,W,66.20,128.00,040210,,*23
$GPRMC,043746.6,A,3345.3500,N,11727.5786,W,66.00,127.90,040210,,*26
$GPRMC,043749.6,A,3345.3156,N,11727.5273,W,65.90,130.20,040210,,*26
$GPRMC,043752.6,A,3345.2781,N,11727.4785,W,65.70,135.00,040210,,*25
$GPRMC,043755.6,A,3345.2372,N,11727.4343,W,65.80,140.20,040210,,*2B
$GPRMC,043758.6,A,3345.1934,N,11727.3943,W,65.80,144.80,040210,,*2E
$GPRMC,043801.6,A,3345.1474,N,11727.3580,W,66.00,148.30,040210,,*2B
$GPRMC,043804.6,A,3345.1001,N,11727.3238,W,66.00,148.80,040210,,*27
$GPRMC,043807.6,A,3345.0533,N,11727.2893,W,66.30,147.70,040210,,*28
$GPRMC,043810.6,A,3345.0077,N,11727.2522,W,66.10,144.80,040210,,*22
$GPRMC,043813.6,A,3344.9653,N,11727.2091,W,66.80,137.90,040210,,*28
$GPRMC,043816.6,A,3344.9248,N,11727.1619,W,66.90,133.40,040210,,*2E
$GPRMC,043819.6,A,3344.8884,N,11727.1119,W,66.10,128.60,040210,,*2D
$GPRMC,043822.6,A,3344.8565,N,11727.0594,W,65.30,123.80,040210,,*23
$GPRMC,043825.6,A,3344.8284,N,11727.0034,W,65.60,119.40,040210,,*23
$GPRMC,043828.6,A,3344.8021,N,11726.9462,W,65.10,118.70,040210,,*29
$GPRMC,043831.6,A,3344.7761,N,11726.8891,W,65.10,118.60,040210,,*2D
$GPRMC,043834.6,A,3344.7499,N,11726.8316,W,65.70,118.50,040210,,*2D
$GPRMC,043837.6,A,3344.7236,N,11726.7738,W,65.90,118.60,040210,,*27
$GPRMC,043840.6,A,3344.6976,N,11726.7172,W,64.00,118.60,040210,,*29
$GPRMC,043843.6,A,3344.6719,N,11726.6607,W,64.50,118.70,040210,,*2D
$GPRMC,043846.6,A,3344.6461,N,11726.6040,W,65.20,118.50,040210,,*25
$GPRMC,043849.6,A,3344.6202,N,11726.5463,W,65.60,118.10,040210,,*2F
$GPRMC,043852.6,A,3344.5962,N,11726.4875,W,65.30,114.40,040210,,*2D
$GPRMC,043855.6,A,3344.5753,N,11726.4269,W,65.10,110.70,040210,,*24
$GPRMC,043858.6,A,3344.5580,N,11726.3650,W,65.50,107.10,040210,,*28
$GPRMC,043901.6,A,3344.5438,N,11726.3016,W,65.40,103.30,040210,,*24
$GPRMC,043904.6,A,3344.5327,N,11726.2372,W,65.30,101.00,040210,,*2E
$GPRMC,043907.6,A,3344.5226,N,11726.1735,W,63.80,101.00,040210,,*24
$GPRMC,043910.6,A,3344.5124,N,11726.1128,W,60.90,101.60,040210,,*2D
$GPRMC,043913.6,A,3344.5009,N,11726.0531,W,61.50,105.30,040210,,*21
$GPRMC,043916.6,A,3344.4853,N,11725.9943,W,62.10,110.00,040210,,*21
$GPRMC,043919.6,A,3344.4660,N,11725.9369,W,62.10,113.20,040210,,*23
$GPRMC,043922.6,A,3344.4444,N,11725.8801,W,62.50,115.80,040210,,*23
$GPRMC,043925.6,A,3344.4196,N,11725.8246,W,63.70,119.70,040210,,*27
$GPRMC,043928.6,A,3344.3915,N,11725.7701,W,64.90,123.20,040210,,*22
$GPRMC,043931.6,A,3344.3602,N,11725.7176,W,65.30,126.90,040210,,*20
$GPRMC,043934.6,A,3344.3269,N,11725.6660,W,65.30,127.50,040210,,*20
$GPRMC,043937.6,A,3344.2936,N,11725.6141,W,65.30,127.40,040210,,*26
$GPRMC,043940.6,A,3344.2604,N,11725.5620,W,65.30,127.40,040210,,*2B
$GPRMC,043943.6,A,3344.2272,N,11725.5105,W,65.50,127.30,040210,,*2C
$GPRMC,043946.6,A,3344.1940,N,11725.4588,W,65.20,127.40,040210,,*20
$GPRMC,043949.6,A,3344.1610,N,11725.4071,W,65.20,127.50,040210,,*27
$GPRMC,043952.6,A,3344.1279,N,11725.3553,W,65.20,127.10,040210,,*20
$GPRMC,043955.6,A,3344.0963,N,11725.3020,W,65.50,123.20,040210,,*27
$GPRMC,043958.6,A,3344.0683,N,11725.2456,W,65.50,118.50,040210,,*20
$GPRMC,044001.6,A,3344.0444,N,11725.1866,W,66.20,113.60,040210,,*2B
$GPRMC,044004.6,A,3344.0243,N,11725.1242,W,67.70,108.80,040210,,*23
$GPRMC,044007.6,A,3344.0084,N,11725.0594,W,67.40,104.00,040210,,*23
$GPRMC,044010.6,A,3343.9972,N,11724.9930,W,67.40,98.90,040210,,*1C
$GPRMC,044013.6,A,3343.9914,N,11724.9258,W,67.00,93.20,040210,,*1E
$GPRMC,044016.6,A,3343.9905,N,11724.8586,W,67.10,89.20,040210,,*14
$GPRMC,044019.6,A,3343.9924,N,11724.7918,W,67.20,88.10,040210,,*1D
$GPRMC,044022.6,A,3343.9942,N,11724.7249,W,67.10,88.40,040210,,*1C
$GPRMC,044025.6,A,3343.9961,N,11724.6583,W,67.20,88.30,040210,,*1E
$GPRMC,044028.6,A,3343.9977,N,11724.5912,W,67.10,88.20,040210,,*11
$GPRMC,044031.6,A,3343.9992,N,11724.5243,W,67.30,89.40,040210,,*18
$GPRMC,044034.6,A,3343.9977,N,11724.4569,W,67.60,94.20,040210,,*17
$GPRMC,044037.6,A,3343.9911,N,11724.3897,W,67.60,99.30,040210,,*13
$GPRMC,044040.6,A,3343.9794,N,11724.3233,W,67.80,104.30,040210,,*2F
$GPRMC,044043.6,A,3343.9633,N,11724.2584,W,67.70,109.10,040210,,*2A
$GPRMC,044046.6,A,3343.9427,N,11724.1956,W,67.50,113.00,040210,,*20
$GPRMC,044049.6,A,3343.9175,N,11724.1359,W,67.00,118.40,040210,,*22
$GPRMC,044052.6,A,3343.8903,N,11724.0777,W,66.50,119.30,040210,,*2B
$GPRMC,044055.6,A,3343.8641,N,11724.0195,W,66.10,116.00,040210,,*27
$GPRMC,044058.6,A,3343.8415,N,11723.9588,W,66.60,111.60,040210,,*29
$GPRMC,044101.6,A,3343.8233,N,11723.8955,W,66.90,106.60,040210,,*22
$GPRMC,044104.6,A,3343.8097,N,11723.8299,W,67.60,101.60,040210,,*29
$GPRMC,044107.6,A,3343.8005,N,11723.7630,W,67.70,96.90,040210,,*18
$GPRMC,044110.6,A,3343.7963,N,11723.6957,W,67.80,92.00,040210,,*15
$GPRMC,044113.6,A,3343.7959,N,11723.6281,W,67.90,89.50,040210,,*11
$GPRMC,044116.6,A,3343.7963,N,11723.5605,W,68.00,89.40,040210,,*11
$GPRMC,044119.6,A,3343.7961,N,11723.4924,W,67.80,91.70,040210,,*1C
$GPRMC,044122.6,A,3343.7923,N,11723.4248,W,67.90,95.50,040210,,*14
$GPRMC,044125.6,A,3343.7851,N,11723.3573,W,67.80,99.70,040210,,*10
$GPRMC,044128.6,A,3343.7739,N,11723.2906,W,67.80,103.20,040210,,*24
$GPRMC,044131.6,A,3343.7605,N,11723.2247,W,67.70,103.50,040210,,*24
$GPRMC,044134.6,A,3343.7471,N,11723.1590,W,67.60,103.60,040210,,*2C
$GPRMC,044137.6,A,3343.7341,N,11723.0928,W,67.60,103.50,040210,,*26
$GPRMC,044140.6,A,3343.7207,N,11723.0271,W,67.50,103.60,040210,,*22
$GPRMC,044143.6,A,3343.7071,N,11722.9614,W,67.50,104.70,040210,,*2B
$GPRMC,044146.6,A,3343.6931,N,11722.8962,W,67.50,104.30,040210,,*29
$GPRMC,044149.6,A,3343.6798,N,11722.8306,W,67.30,103.40,040210,,*25
$GPRMC,044152.6,A,3343.6666,N,11722.7654,W,67.10,103.40,040210,,*20
$GPRMC,044155.6,A,3343.6538,N,11722.7003,W,67.00,103.60,040210,,*28
$GPRMC,044158.6,A,3343.6405,N,11722.6354,W,67.20,104.80,040210,,*21
$GPRMC,044201.6,A,3343.6247,N,11722.5709,W,67.40,107.40,040210,,*28
$GPRMC,044204.6,A,3343.6063,N,11722.5074,W,67.60,110.30,040210,,*27
$GPRMC,044207.6,A,3343.5851,N,11722.4451,W,67.60,113.00,040210,,*2C
$GPRMC,044210.6,A,3343.5616,N,11722.3839,W,67.60,116.10,040210,,*26
$GPRMC,044213.6,A,3343.5356,N,11722.3239,W,67.60,118.80,040210,,*29
$GPRMC,044216.6,A,3343.5072,N,11722.2657,W,67.50,121.80,040210,,*2D
$GPRMC,044219.6,A,3343.4759,N,11722.2094,W,67.50,124.40,040210,,*2D
$GPRMC,044222.6,A,3343.4425,N,11722.1548,W,67.70,127.20,040210,,*2D
$GPRMC,044225.6,A,3343.4073,N,11722.1022,W,67.60,130.30,040210,,*22
$GPRMC,044228.6,A,3343.3695,N,11722.0524,W,67.60,134.10,040210,,*22
$GPRMC,044231.6,A,3343.3293,N,11722.0046,W,67.40,136.20,040210,,*2A
$GPRMC,044234.6,A,3343.2884,N,11721.9590,W,66.20,138.90,040210,,*24
$GPRMC,044237.6,A,3343.2465,N,11721.9166,W,65.80,140.50,040210,,*23
$GPRMC,044240.6,A,3343.2038,N,11721.8776,W,64.00,143.90,040210,,*2F
$GPRMC,044243.6,A,3343.1603,N,11721.8409,W,62.50,146.50,040210,,*20
$GPRMC,044246.6,A,3343.1162,N,11721.8079,W,61.80,149.30,040210,,*21
$GPRMC,044249.6,A,3343.0712,N,11721.7778,W,60.90,151.70,040210,,*2A
$GPRMC,044252.6,A,3343.0258,N,11721.7505,W,61.50,154.30,040210,,*2F
$GPRMC,044255.6,A,3342.9791,N,11721.7260,W,60.50,157.10,040210,,*24
$GPRMC,044258.6,A,3342.9320,N,11721.7038,W,60.60,159.40,040210,,*20
$GPRMC,044301.6,A,3342.8853,N,11721.6839,W,59.20,161.90,040210,,*23
$GPRMC,044304.6,A,3342.8386,N,11721.6668,W,58.50,164.10,040210,,*24
$GPRMC,044307.6,A,3342.7908,N,11721.6518,W,59.90,165.50,040210,,*28
$GPRMC,044310.6,A,3342.7417,N,11721.6376,W,61.90,166.80,040210,,*26
$GPRMC,044313.6,A,3342.6910,N,11721.6236,W,62.50,166.30,040210,,*2F
$GPRMC,044316.6,A,3342.6401,N,11721.6069,W,63.20,163.00,040210,,*2F
$GPRMC,044319.6,A,3342.5896,N,11721.5863,W,63.60,159.40,040210,,*29
$GPRMC,044322.6,A,3342.5410,N,11721.5625,W,62.10,156.00,040210,,*22
$GPRMC,044325.6,A,3342.4948,N,11721.5358,W,62.20,151.80,040210,,*27
$GPRMC,044328.6,A,3342.4495,N,11721.5031,W,64.70,147.00,040210,,*27
$GPRMC,044331.6,A,3342.4043,N,11721.4668,W,65.80,145.30,040210,,*24
$GPRMC,044334.6,A,3342.3599,N,11721.4256,W,67.30,141.10,040210,,*22
$GPRMC,044337.6,A,3342.3179,N,11721.3821,W,65.40,137.20,040210,,*21
$GPRMC,044340.6,A,3342.2788,N,11721.3361,W,65.60,133.60,040210,,*25
$GPRMC,044343.6,A,3342.2426,N,11721.2868,W,66.20,129.70,040210,,*2F
$GPRMC,044346.6,A,3342.2077,N,11721.2349,W,67.30,128.60,040210,,*22
$GPRMC,044349.6,A,3342.1730,N,11721.1830,W,65.50,128.60,040210,,*28
$GPRMC,044352.6,A,3342.1395,N,11721.1330,W,63.20,128.50,040210,,*20
$GPRMC,044355.6,A,3342.1063,N,11721.0833,W,64.20,128.60,040210,,*20
$GPRMC,044358.6,A,3342.0728,N,11721.0329,W,64.60,128.60,040210,,*20
$GPRMC,044401.6,A,3342.0388,N,11720.9816,W,65.80,128.50,040210,,*26
$GPRMC,044404.6,A,3342.0044,N,11720.9297,W,66.90,128.50,040210,,*21
$GPRMC,044407.6,A,3341.9697,N,11720.8773,W,67.50,128.50,040210,,*23
$GPRMC,044410.6,A,3341.9344,N,11720.8247,W,67.50,128.50,040210,,*2C
$GPRMC,044413.6,A,3341.8993,N,11720.7721,W,67.70,128.60,040210,,*25
$GPRMC,044416.6,A,3341.8643,N,11720.7194,W,67.50,128.60,040210,,*28
$GPRMC,044419.6,A,3341.8292,N,11720.6664,W,67.50,128.50,040210,,*25
$GPRMC,044422.6,A,3341.7942,N,11720.6136,W,67.30,128.50,040210,,*22
$GPRMC,044425.6,A,3341.7592,N,11720.5613,W,67.10,128.50,040210,,*25
$GPRMC,044428.6,A,3341.7239,N,11720.5088,W,66.90,129.70,040210,,*20
$GPRMC,044431.6,A,3341.6873,N,11720.4584,W,66.90,131.40,040210,,*2F
$GPRMC,044434.6,A,3341.6491,N,11720.4090,W,67.00,133.60,040210,,*22
$GPRMC,044437.6,A,3341.6101,N,11720.3611,W,67.10,135.40,040210,,*20
$GPRMC,044440.6,A,3341.5697,N,11720.3149,W,67.30,137.30,040210,,*26
$GPRMC,044443.6,A,3341.5278,N,11720.2700,W,67.50,139.30,040210,,*22
$GPRMC,044446.6,A,3341.4845,N,11720.2269,W,67.70,141.40,040210,,*22
$GPRMC,044449.6,A,3341.4401,N,11720.1850,W,67.60,142.40,040210,,*20
$GPRMC,044452.6,A,3341.3960,N,11720.1437,W,67.50,142.20,040210,,*2F
$GPRMC,044455.6,A,3341.3510,N,11720.1010,W,68.20,142.10,040210,,*29
$GPRMC,044458.6,A,3341.3060,N,11720.0599,W,68.00,142.70,040210,,*27
$GPRMC,044501.6,A,3341.2610,N,11720.0205,W,67.70,142.80,040210,,*2F
$GPRMC,044504.6,A,3341.2161,N,11719.9790,W,67.90,142.70,040210,,*20
$GPRMC,044507.6,A,3341.1710,N,11719.9379,W,67.90,142.60,040210,,*22
$GPRMC,044510.6,A,3341.1255,N,11719.8983,W,67.10,142.60,040210,,*26
$GPRMC,044513.6,A,3341.0817,N,11719.8581,W,66.10,142.50,040210,,*24
$GPRMC,044516.6,A,3341.0388,N,11719.8182,W,65.20,142.40,040210,,*2A
$GPRMC,044519.6,A,3340.9947,N,11719.7778,W,66.00,142.50,040210,,*28
$GPRMC,044522.6,A,3340.9505,N,11719.7372,W,66.00,142.70,040210,,*26
$GPRMC,044525.6,A,3340.9071,N,11719.6943,W,66.60,141.70,040210,,*2B
$GPRMC,044528.6,A,3340.8636,N,11719.6570,W,66.10,142.70,040210,,*2A
$GPRMC,044531.6,A,3340.8201,N,11719.6183,W,65.80,142.80,040210,,*2F
$GPRMC,044534.6,A,3340.7772,N,11719.5794,W,65.10,142.30,040210,,*25
$GPRMC,044537.6,A,3340.7344,N,11719.5386,W,65.00,139.20,040210,,*2C
$GPRMC,044540.6,A,3340.6939,N,11719.4958,W,64.70,136.40,040210,,*2A
$GPRMC,044543.6,A,3340.6555,N,11719.4500,W,64.40,134.00,040210,,*2B
$GPRMC,044546.6,A,3340.6190,N,11719.4028,W,64.20,131.60,040210,,*29
$GPRMC,044549.6,A,3340.5840,N,11719.3541,W,64.60,128.70,040210,,*21
$GPRMC,044552.6,A,3340.5512,N,11719.3031,W,65.00,126.40,040210,,*29
$GPRMC,044555.6,A,3340.5202,N,11719.2494,W,65.50,123.50,040210,,*23
$GPRMC,044558.6,A,3340.4911,N,11719.1943,W,65.90,121.10,040210,,*28
$GPRMC,044601.6,A,3340.4641,N,11719.1372,W,65.80,118.40,040210,,*2B
$GPRMC,044604.6,A,3340.4390,N,11719.0778,W,66.60,115.80,040210,,*24
$GPRMC,044607.6,A,3340.4150,N,11719.0171,W,67.00,115.40,040210,,*2D
$GPRMC,044610.6,A,3340.3908,N,11718.9568,W,66.90,116.30,040210,,*21
$GPRMC,044613.6,A,3340.3658,N,11718.8971,W,66.80,117.50,040210,,*2B
$GPRMC,044616.6,A,3340.3401,N,11718.8393,W,64.60,118.40,040210,,*24
$GPRMC,044619.6,A,3340.3142,N,11718.7840,W,63.90,120.70,040210,,*23
$GPRMC,044622.6,A,3340.2859,N,11718.7292,W,64.70,121.40,040210,,*27
$GPRMC,044625.6,A,3340.2569,N,11718.6732,W,67.00,122.00,040210,,*23
$GPRMC,044628.6,A,3340.2263,N,11718.6163,W,67.90,123.00,040210,,*29
$GPRMC,044631.6,A,3340.1944,N,11718.5588,W,68.80,124.10,040210,,*26
$GPRMC,044634.6,A,3340.1617,N,11718.5028,W,68.30,125.40,040210,,*2A
$GPRMC,044637.6,A,3340.1282,N,11718.4470,W,69.40,126.00,040210,,*28
$GPRMC,044640.6,A,3340.0938,N,11718.3923,W,67.80,127.60,040210,,*2A
$GPRMC,044643.6,A,3340.0588,N,11718.3393,W,68.00,128.90,040210,,*28
$GPRMC,044646.6,A,3340.0226,N,11718.2868,W,68.00,130.20,040210,,*22
$GPRMC,044649.6,A,3339.9855,N,11718.2356,W,68.10,131.20,040210,,*22
$GPRMC,044652.6,A,3339.9476,N,11718.1847,W,68.00,132.30,040210,,*2E
$GPRMC,044655.6,A,3339.9091,N,11718.1347,W,68.40,133.40,040210,,*2D
$GPRMC,044658.6,A,3339.8693,N,11718.0858,W,68.30,134.70,040210,,*22
$GPRMC,044701.6,A,3339.8291,N,11718.0381,W,67.30,135.80,040210,,*27
$GPRMC,044704.6,A,3339.7884,N,11717.9918,W,67.60,137.00,040210,,*20
$GPRMC,044707.6,A,3339.7467,N,11717.9463,W,67.80,138.00,040210,,*22
$GPRMC,044710.6,A,3339.7040,N,11717.9017,W,67.40,139.40,040210,,*2B
$GPRMC,044713.6,A,3339.6615,N,11717.8589,W,66.30,140.40,040210,,*24
$GPRMC,044716.6,A,3339.6192,N,11717.8172,W,65.70,141.40,040210,,*2F
$GPRMC,044719.6,A,3339.5759,N,11717.7766,W,65.90,142.60,040210,,*21
$GPRMC,044722.6,A,3339.5316,N,11717.7372,W,66.30,144.20,040210,,*2C
$GPRMC,044725.6,A,3339.4862,N,11717.6984,W,66.90,144.80,040210,,*20
$GPRMC,044728.6,A,3339.4402,N,11717.6601,W,67.40,146.10,040210,,*22
$GPRMC,044731.6,A,3339.3930,N,11717.6232,W,67.60,147.10,040210,,*26
$GPRMC,044734.6,A,3339.3449,N,11717.5877,W,67.80,148.90,040210,,*21
$GPRMC,044737.6,A,3339.2959,N,11717.5529,W,68.00,149.90,040210,,*2F
$GPRMC,044740.6,A,3339.2468,N,11717.5189,W,68.10,150.30,040210,,*2D
$GPRMC,044743.6,A,3339.1975,N,11717.4855,W,68.20,150.40,040210,,*21
$GPRMC,044746.6,A,3339.1478,N,11717.4517,W,68.10,150.60,040210,,*2E
$GPRMC,044749.6,A,3339.0987,N,11717.4185,W,67.60,150.30,040210,,*2F
$GPRMC,044752.6,A,3339.0498,N,11717.3853,W,67.40,150.50,040210,,*27
$GPRMC,044755.6,A,3339.0014,N,11717.3529,W,67.00,150.40,040210,,*25
$GPRMC,044758.6,A,3338.9527,N,11717.3202,W,67.20,150.70,040210,,*2A
$GPRMC,044801.6,A,3338.9039,N,11717.2876,W,67.40,150.50,040210,,*2F
$GPRMC,044804.6,A,3338.8546,N,11717.2542,W,67.60,150.60,040210,,*2D
$GPRMC,044807.6,A,3338.8051,N,11717.2208,W,67.80,150.40,040210,,*28
$GPRMC,044810.6,A,3338.7561,N,11717.1863,W,67.90,150.50,040210,,*23
$GPRMC,044813.6,A,3338.7066,N,11717.1531,W,67.90,150.50,040210,,*28
$GPRMC,044816.6,A,3338.6571,N,11717.1203,W,68.00,150.50,040210,,*2F
$GPRMC,044819.6,A,3338.6079,N,11717.0870,W,68.00,150.50,040210,,*22
$GPRMC,044822.6,A,3338.5585,N,11717.0539,W,68.00,150.40,040210,,*2E
$GPRMC,044825.6,A,3338.5090,N,11717.0206,W,68.10,150.50,040210,,*23
$GPRMC,044828.6,A,3338.4595,N,11716.9872,W,68.00,150.60,040210,,*2C
$GPRMC,044831.6,A,3338.4102,N,11716.9542,W,67.80,150.50,040210,,*24
$GPRMC,044834.6,A,3338.3609,N,11716.9207,W,67.70,150.30,040210,,*25
$GPRMC,044837.6,A,3338.3119,N,11716.8871,W,67.60,150.60,040210,,*2E
$GPRMC,044840.6,A,3338.2626,N,11716.8538,W,67.50,150.50,040210,,*24
$GPRMC,044843.6,A,3338.2137,N,11716.8205,W,67.40,150.50,040210,,*28
$GPRMC,044846.6,A,3338.1646,N,11716.7873,W,67.50,150.60,040210,,*29
$GPRMC,044849.6,A,3338.1156,N,11716.7542,W,67.50,150.60,040210,,*2F
$GPRMC,044852.6,A,3338.0665,N,11716.7210,W,67.50,150.40,040210,,*21
$GPRMC,044855.6,A,3338.0178,N,11716.6876,W,67.60,149.60,040210,,*2F
$GPRMC,044858.6,A,3337.9693,N,11716.6535,W,67.70,149.40,040210,,*2F
$GPRMC,044901.6,A,3337.9209,N,11716.6189,W,67.60,149.20,040210,,*21
$GPRMC,044904.6,A,3337.8725,N,11716.5840,W,67.90,148.60,040210,,*2B
$GPRMC,044907.6,A,3337.8243,N,11716.5486,W,67.80,148.40,040210,,*28
$GPRMC,044910.6,A,3337.7759,N,11716.5129,W,67.60,147.80,040210,,*22
$GPRMC,044913.6,A,3337.7281,N,11716.4769,W,67.70,147.60,040210,,*2D
$GPRMC,044916.6,A,3337.6803,N,11716.4406,W,67.90,147.10,040210,,*2A
$GPRMC,044919.6,A,3337.6328,N,11716.4034,W,67.90,146.70,040210,,*25
$GPRMC,044922.6,A,3337.5855,N,11716.3659,W,67.80,146.30,040210,,*20
$GPRMC,044925.6,A,3337.5385,N,11716.3281,W,67.70,146.00,040210,,*2C
$GPRMC,044928.6,A,3337.4916,N,11716.2900,W,67.70,145.60,040210,,*26
$GPRMC,044931.6,A,3337.4452,N,11716.2515,W,67.70,145.20,040210,,*2F
$GPRMC,044934.6,A,3337.3989,N,11716.2126,W,67.80,144.60,040210,,*28
$GPRMC,044937.6,A,3337.3527,N,11716.1734,W,67.90,144.40,040210,,*26
$GPRMC,044940.6,A,3337.3071,N,11716.1337,W,67.70,144.10,040210,,*2C
$GPRMC,044943.6,A,3337.2615,N,11716.0940,W,67.50,143.70,040210,,*22
$GPRMC,044946.6,A,3337.2164,N,11716.0539,W,67.60,143.00,040210,,*20
$GPRMC,044949.6,A,3337.1712,N,11716.0129,W,67.70,142.90,040210,,*27
$GPRMC,044952.6,A,3337.1260,N,11715.9721,W,67.70,142.70,040210,,*27
$GPRMC,044955.6,A,3337.0814,N,11715.9314,W,67.50,142.50,040210,,*2A
$GPRMC,044958.6,A,3337.0369,N,11715.8904,W,67.40,142.50,040210,,*2D
$GPRMC,045001.6,A,3336.9923,N,11715.8493,W,67.60,142.60,040210,,*27
$GPRMC,045004.6,A,3336.9478,N,11715.8084,W,67.70,142.50,040210,,*21
$GPRMC,045007.6,A,3336.9028,N,11715.7676,W,67.60,142.70,040210,,*24
$GPRMC,045010.6,A,3336.8579,N,11715.7266,W,67.60,142.40,040210,,*24
$GPRMC,045013.6,A,3336.8130,N,11715.6856,W,67.70,142.60,040210,,*25
$GPRMC,045016.6,A,3336.7684,N,11715.6446,W,67.60,142.60,040210,,*2B
$GPRMC,045019.6,A,3336.7233,N,11715.6041,W,67.50,143.10,040210,,*2A
$GPRMC,045022.6,A,3336.6785,N,11715.5628,W,67.60,142.50,040210,,*27
$GPRMC,045025.6,A,3336.6337,N,11715.5217,W,67.60,142.40,040210,,*24
$GPRMC,045028.6,A,3336.5886,N,11715.4802,W,67.60,142.40,040210,,*24
$GPRMC,045031.6,A,3336.5439,N,11715.4389,W,67.70,142.60,040210,,*2F
$GPRMC,045034.6,A,3336.4990,N,11715.3977,W,67.80,142.60,040210,,*26
$GPRMC,045037.6,A,3336.4539,N,11715.3561,W,67.80,142.60,040210,,*21
$GPRMC,045040.6,A,3336.4090,N,11715.3152,W,67.80,142.80,040210,,*2D
$GPRMC,045043.6,A,3336.3637,N,11715.2741,W,67.70,142.50,040210,,*25
$GPRMC,045046.6,A,3336.3189,N,11715.2329,W,67.90,142.50,040210,,*26
$GPRMC,045049.6,A,3336.2739,N,11715.1918,W,67.80,142.50,040210,,*2F
$GPRMC,045052.6,A,3336.2288,N,11715.1509,W,67.70,142.70,040210,,*2B
$GPRMC,045055.6,A,3336.1840,N,11715.1098,W,67.70,142.60,040210,,*2D
$GPRMC,045058.6,A,3336.1391,N,11715.0690,W,67.80,142.50,040210,,*24
$GPRMC,045101.6,A,3336.0941,N,11715.0282,W,67.80,142.60,040210,,*2B
$GPRMC,045104.6,A,3336.0492,N,11714.9870,W,67.70,142.60,040210,,*2D
$GPRMC,045107.6,A,3336.0043,N,11714.9456,W,67.50,142.60,040210,,*2C
$GPRMC,045110.6,A,3335.9593,N,11714.9049,W,67.40,142.50,040210,,*20
$GPRMC,045113.6,A,3335.9145,N,11714.8637,W,67.40,142.70,040210,,*20
$GPRMC,045116.6,A,3335.8698,N,11714.8230,W,67.40,142.50,040210,,*22
$GPRMC,045119.6,A,3335.8253,N,11714.7823,W,67.40,142.70,040210,,*2B
$GPRMC,045122.6,A,3335.7804,N,11714.7413,W,67.70,142.70,040210,,*28
$GPRMC,045125.6,A,3335.7352,N,11714.7008,W,67.80,142.80,040210,,*29
$GPRMC,045128.6,A,3335.6903,N,11714.6596,W,67.60,142.70,040210,,*29
$GPRMC,045131.6,A,3335.6454,N,11714.6185,W,67.40,142.60,040210,,*2B
$GPRMC,045134.6,A,3335.6006,N,11714.5776,W,67.30,142.70,040210,,*22
$GPRMC,045137.6,A,3335.5560,N,11714.5368,W,67.20,142.50,040210,,*2F
$GPRMC,045140.6,A,3335.5116,N,11714.4954,W,67.10,141.30,040210,,*28
$GPRMC,045143.6,A,3335.4692,N,11714.4515,W,67.40,137.50,040210,,*2A
$GPRMC,045146.6,A,3335.4293,N,11714.4048,W,67.50,133.30,040210,,*24
$GPRMC,045149.6,A,3335.3911,N,11714.3549,W,67.70,132.40,040210,,*2A
$GPRMC,045152.6,A,3335.3530,N,11714.3050,W,67.80,132.40,040210,,*2D
$GPRMC,045155.6,A,3335.3146,N,11714.2552,W,67.90,132.50,040210,,*29
$GPRMC,045158.6,A,3335.2763,N,11714.2052,W,68.10,132.30,040210,,*20
$GPRMC,045201.6,A,3335.2377,N,11714.1548,W,68.20,132.40,040210,,*27
$GPRMC,045204.6,A,3335.1991,N,11714.1044,W,68.10,132.40,040210,,*29
$GPRMC,045207.6,A,3335.1607,N,11714.0545,W,68.00,133.20,040210,,*29
$GPRMC,045210.6,A,3335.1219,N,11714.0051,W,68.10,133.20,040210,,*25
$GPRMC,045213.6,A,3335.0833,N,11713.9552,W,68.10,132.70,040210,,*29
$GPRMC,045216.6,A,3335.0447,N,11713.9052,W,68.10,132.60,040210,,*27
$GPRMC,045219.6,A,3335.0066,N,11713.8551,W,68.10,132.40,040210,,*2A
$GPRMC,045222.6,A,3334.9683,N,11713.8049,W,68.10,132.40,040210,,*2B
$GPRMC,045225.6,A,3334.9301,N,11713.7547,W,68.00,132.40,040210,,*26
$GPRMC,045228.6,A,3334.8919,N,11713.7047,W,68.00,132.40,040210,,*2C
$GPRMC,045231.6,A,3334.8538,N,11713.6547,W,67.80,132.40,040210,,*28
$GPRMC,045234.6,A,3334.8153,N,11713.6047,W,67.90,132.50,040210,,*21
$GPRMC,045237.6,A,3334.7772,N,11713.5546,W,67.60,132.40,040210,,*21
$GPRMC,045240.6,A,3334.7391,N,11713.5052,W,67.50,132.40,040210,,*2B
$GPRMC,045243.6,A,3334.7009,N,11713.4553,W,67.50,132.40,040210,,*2F
$GPRMC,045246.6,A,3334.6627,N,11713.4058,W,67.60,133.10,040210,,*28
$GPRMC,045249.6,A,3334.6245,N,11713.3562,W,67.60,132.50,040210,,*29
$GPRMC,045252.6,A,3334.5865,N,11713.3063,W,67.60,132.30,040210,,*2A
$GPRMC,045255.6,A,3334.5487,N,11713.2560,W,67.60,132.40,040210,,*2D
$GPRMC,045258.6,A,3334.5105,N,11713.2063,W,67.70,132.30,040210,,*2F
$GPRMC,045301.6,A,3334.4725,N,11713.1566,W,67.80,132.40,040210,,*2C
$GPRMC,045304.6,A,3334.4346,N,11713.1066,W,67.60,132.40,040210,,*23
$GPRMC,045307.6,A,3334.3966,N,11713.0571,W,67.50,132.30,040210,,*29
$GPRMC,045310.6,A,3334.3589,N,11713.0072,W,67.50,132.40,040210,,*23
$GPRMC,045313.6,A,3334.3210,N,11712.9574,W,67.40,132.30,040210,,*2A
$GPRMC,045316.6,A,3334.2829,N,11712.9076,W,67.60,132.40,040210,,*2C
$GPRMC,045319.6,A,3334.2456,N,11712.8594,W,64.70,132.40,040210,,*2D
$GPRMC,045322.6,A,3334.2098,N,11712.8125,W,62.60,132.30,040210,,*2D
$GPRMC,045325.6,A,3334.1747,N,11712.7661,W,62.80,132.10,040210,,*28
$GPRMC,045328.6,A,3334.1396,N,11712.7194,W,62.50,131.90,040210,,*26
$GPRMC,045331.6,A,3334.1056,N,11712.6739,W,59.90,131.60,040210,,*2A
$GPRMC,045334.6,A,3334.0724,N,11712.6293,W,59.50,131.70,040210,,*24
$GPRMC,045337.6,A,3334.0400,N,11712.5858,W,57.50,131.70,040210,,*22
$GPRMC,045340.6,A,3334.0082,N,11712.5433,W,57.30,131.80,040210,,*24
$GPRMC,045343.6,A,3333.9757,N,11712.5003,W,58.60,132.30,040210,,*23
$GPRMC,045346.6,A,3333.9424,N,11712.4567,W,59.60,132.40,040210,,*21
$GPRMC,045349.6,A,3333.9091,N,11712.4132,W,59.20,132.40,040210,,*24
$GPRMC,045352.6,A,3333.8757,N,11712.3696,W,59.50,132.40,040210,,*2B
$GPRMC,045355.6,A,3333.8424,N,11712.3257,W,59.80,132.30,040210,,*28
$GPRMC,045358.6,A,3333.8089,N,11712.2818,W,59.40,132.40,040210,,*2D
$GPRMC,045401.6,A,3333.7749,N,11712.2377,W,60.60,132.40,040210,,*28
$GPRMC,045404.6,A,3333.7407,N,11712.1932,W,60.50,132.30,040210,,*28
$GPRMC,045407.6,A,3333.7064,N,11712.1480,W,61.70,131.30,040210,,*2E
$GPRMC,045410.6,A,3333.6720,N,11712.1006,W,63.90,131.20,040210,,*29
$GPRMC,045413.6,A,3333.6355,N,11712.0521,W,66.30,132.20,040210,,*21
$GPRMC,045416.6,A,3333.5984,N,11712.0032,W,66.30,132.50,040210,,*21
$GPRMC,045419.6,A,3333.5608,N,11711.9544,W,66.80,132.60,040210,,*23
$GPRMC,045422.6,A,3333.5234,N,11711.9058,W,65.50,132.60,040210,,*26
$GPRMC,045425.6,A,3333.4868,N,11711.8572,W,66.10,131.20,040210,,*2F
$GPRMC,045428.6,A,3333.4508,N,11711.8071,W,67.40,130.30,040210,,*2B
$GPRMC,045431.6,A,3333.4145,N,11711.7552,W,67.40,129.20,040210,,*2C
$GPRMC,045434.6,A,3333.3794,N,11711.7026,W,67.20,128.90,040210,,*2E
$GPRMC,045437.6,A,3333.3452,N,11711.6500,W,66.80,127.30,040210,,*2A
$GPRMC,045440.6,A,3333.3132,N,11711.5970,W,65.90,125.20,040210,,*20
$GPRMC,045443.6,A,3333.2825,N,11711.5431,W,65.00,124.20,040210,,*2D
$GPRMC,045446.6,A,3333.2529,N,11711.4882,W,65.90,122.60,040210,,*27
$GPRMC,045449.6,A,3333.2236,N,11711.4316,W,65.90,121.70,040210,,*25
$GPRMC,045452.6,A,3333.1946,N,11711.3755,W,65.70,121.60,040210,,*2B
$GPRMC,045455.6,A,3333.1661,N,11711.3197,W,65.50,121.60,040210,,*2C
$GPRMC,045458.6,A,3333.1377,N,11711.2636,W,65.50,121.50,040210,,*2D
$GPRMC,045501.6,A,3333.1089,N,11711.2081,W,65.60,121.70,040210,,*29
$GPRMC,045504.6,A,3333.0805,N,11711.1524,W,65.60,121.30,040210,,*2C
$GPRMC,045507.6,A,3333.0518,N,11711.0964,W,65.80,121.60,040210,,*2C
$GPRMC,045510.6,A,3333.0228,N,11711.0408,W,65.50,122.00,040210,,*21
$GPRMC,045513.6,A,3332.9926,N,11710.9889,W,63.80,125.60,040210,,*28
$GPRMC,045516.6,A,3332.9608,N,11710.9389,W,63.00,128.50,040210,,*23
$GPRMC,045519.6,A,3332.9270,N,11710.8912,W,62.10,130.60,040210,,*24
$GPRMC,045522.6,A,3332.8921,N,11710.8482,W,58.90,137.00,040210,,*26
$GPRMC,045525.6,A,3332.8560,N,11710.8102,W,57.50,140.40,040210,,*22
$GPRMC,045528.6,A,3332.8183,N,11710.7757,W,55.80,144.00,040210,,*20
$GPRMC,045531.6,A,3332.7801,N,11710.7444,W,55.80,147.00,040210,,*26
$GPRMC,045534.6,A,3332.7397,N,11710.7150,W,57.60,150.40,040210,,*29
$GPRMC,045537.6,A,3332.6979,N,11710.6870,W,56.80,150.90,040210,,*29
$GPRMC,045540.6,A,3332.6560,N,11710.6593,W,58.20,150.80,040210,,*28
$GPRMC,045543.6,A,3332.6130,N,11710.6305,W,59.70,150.90,040210,,*26
$GPRMC,045546.6,A,3332.5693,N,11710.6015,W,59.60,150.80,040210,,*2C
$GPRMC,045549.6,A,3332.5256,N,11710.5722,W,60.80,150.80,040210,,*2A
$GPRMC,045552.6,A,3332.4816,N,11710.5429,W,60.10,150.70,040210,,*21
$GPRMC,045555.6,A,3332.4380,N,11710.5138,W,60.20,151.00,040210,,*22
$GPRMC,045558.6,A,3332.3939,N,11710.4851,W,60.60,151.60,040210,,*25
$GPRMC,045601.6,A,3332.3486,N,11710.4542,W,62.40,150.90,040210,,*22
$GPRMC,045604.6,A,3332.3033,N,11710.4243,W,61.90,150.90,040210,,*25
$GPRMC,045607.6,A,3332.2579,N,11710.3940,W,62.40,150.80,040210,,*2C
$GPRMC,045610.6,A,3332.2123,N,11710.3636,W,62.50,151.10,040210,,*26
$GPRMC,045613.6,A,3332.1670,N,11710.3332,W,61.30,150.70,040210,,*24
$GPRMC,045616.6,A,3332.1227,N,11710.3033,W,60.70,150.80,040210,,*2F
$GPRMC,045619.6,A,3332.0784,N,11710.2737,W,60.50,151.00,040210,,*24
$GPRMC,045622.6,A,3332.0340,N,11710.2439,W,61.20,150.70,040210,,*2D
$GPRMC,045625.6,A,3331.9890,N,11710.2139,W,62.10,150.90,040210,,*2D
$GPRMC,045628.6,A,3331.9432,N,11710.1837,W,63.00,150.90,040210,,*20
$GPRMC,045631.6,A,3331.8970,N,11710.1533,W,63.10,150.80,040210,,*2B
$GPRMC,045634.6,A,3331.8508,N,11710.1225,W,62.80,150.70,040210,,*2A
$GPRMC,045637.6,A,3331.8051,N,11710.0921,W,62.80,150.80,040210,,*21
$GPRMC,045640.6,A,3331.7592,N,11710.0614,W,62.80,150.70,040210,,*22
$GPRMC,045643.6,A,3331.7133,N,11710.0311,W,62.80,150.80,040210,,*21
$GPRMC,045646.6,A,3331.6676,N,11710.0007,W,62.90,150.70,040210,,*29
$GPRMC,045649.6,A,3331.6218,N,11709.9702,W,63.20,151.00,040210,,*25
$GPRMC,045652.6,A,3331.5755,N,11709.9393,W,63.90,150.80,040210,,*2E
$GPRMC,045655.6,A,3331.5291,N,11709.9082,W,63.60,150.80,040210,,*28
$GPRMC,045658.6,A,3331.4828,N,11709.8775,W,63.50,151.20,040210,,*2A
$GPRMC,045701.6,A,3331.4363,N,11709.8466,W,63.70,150.90,040210,,*2A
$GPRMC,045704.6,A,3331.3899,N,11709.8160,W,63.70,151.90,040210,,*24
$GPRMC,045707.6,A,3331.3430,N,11709.7858,W,64.80,151.50,040210,,*21
$GPRMC,045711.6,A,3331.2808,N,11709.7447,W,63.80,150.80,040210,,*29
$GPRMC,045714.6,A,3331.2343,N,11709.7134,W,63.70,150.80,040210,,*26
$GPRMC,045717.6,A,3331.1877,N,11709.6824,W,63.60,150.80,040210,,*22
$GPRMC,045720.6,A,3331.1412,N,11709.6516,W,63.70,151.00,040210,,*2D
$GPRMC,045723.6,A,3331.0948,N,11709.6207,W,63.70,150.70,040210,,*2C
$GPRMC,045726.6,A,3331.0484,N,11709.5898,W,63.70,151.00,040210,,*2D
$GPRMC,045729.6,A,3331.0020,N,11709.5590,W,63.80,150.80,040210,,*2B
$GPRMC,045732.6,A,3330.9556,N,11709.5279,W,63.70,150.80,040210,,*22
$GPRMC,045735.6,A,3330.9091,N,11709.4973,W,63.80,152.00,040210,,*2E
$GPRMC,045738.6,A,3330.8615,N,11709.4688,W,64.00,155.50,040210,,*2E
$GPRMC,045741.6,A,3330.8123,N,11709.4433,W,64.50,157.40,040210,,*26
$GPRMC,045744.6,A,3330.7618,N,11709.4206,W,64.30,159.30,040210,,*2C
$GPRMC,045747.6,A,3330.7118,N,11709.3979,W,64.30,159.20,040210,,*2D
$GPRMC,045750.6,A,3330.6620,N,11709.3756,W,63.70,159.00,040210,,*24
$GPRMC,045753.6,A,3330.6124,N,11709.3536,W,63.60,159.30,040210,,*22
$GPRMC,045756.6,A,3330.5626,N,11709.3319,W,63.40,158.90,040210,,*23
$GPRMC,045759.6,A,3330.5126,N,11709.3088,W,63.60,159.20,040210,,*28
$GPRMC,045802.6,A,3330.4628,N,11709.2870,W,64.00,159.90,040210,,*25
$GPRMC,045805.6,A,3330.4130,N,11709.2650,W,63.80,158.90,040210,,*2E
$GPRMC,045808.6,A,3330.3636,N,11709.2419,W,63.70,159.20,040210,,*2F
$GPRMC,045811.6,A,3330.3134,N,11709.2192,W,64.20,159.00,040210,,*24
$GPRMC,045814.6,A,3330.2637,N,11709.1968,W,63.80,159.10,040210,,*26
$GPRMC,045817.6,A,3330.2139,N,11709.1745,W,63.70,158.90,040210,,*2B
$GPRMC,045820.6,A,3330.1640,N,11709.1528,W,63.60,159.60,040210,,*23
$GPRMC,045823.6,A,3330.1156,N,11709.1277,W,63.30,158.70,040210,,*28
$GPRMC,045826.6,A,3330.0669,N,11709.1026,W,63.60,157.30,040210,,*2F
$GPRMC,045829.6,A,3330.0194,N,11709.0761,W,62.90,154.30,040210,,*2D
$GPRMC,045832.6,A,3329.9718,N,11709.0483,W,62.80,151.70,040210,,*2B
$GPRMC,045835.6,A,3329.9258,N,11709.0175,W,63.20,149.40,040210,,*20
$GPRMC,045838.6,A,3329.8803,N,11708.9835,W,63.70,146.40,040210,,*27
$GPRMC,045841.6,A,3329.8361,N,11708.9473,W,64.00,143.90,040210,,*20
$GPRMC,045844.6,A,3329.7934,N,11708.9089,W,64.40,141.70,040210,,*29
$GPRMC,045847.6,A,3329.7523,N,11708.8677,W,64.30,139.90,040210,,*20
$GPRMC,045850.6,A,3329.7117,N,11708.8276,W,63.80,140.60,040210,,*2D
$GPRMC,045853.6,A,3329.6682,N,11708.7892,W,64.40,145.40,040210,,*27
$GPRMC,045856.6,A,3329.6232,N,11708.7547,W,64.50,150.80,040210,,*21
$GPRMC,045859.6,A,3329.5751,N,11708.7261,W,64.20,156.00,040210,,*27
$GPRMC,045902.6,A,3329.5248,N,11708.7034,W,64.30,161.50,040210,,*27
$GPRMC,045905.6,A,3329.4736,N,11708.6847,W,63.70,163.20,040210,,*26
$GPRMC,045908.6,A,3329.4224,N,11708.6661,W,64.30,162.90,040210,,*2E
$GPRMC,045911.6,A,3329.3720,N,11708.6475,W,63.70,163.10,040210,,*2D
$GPRMC,045915.6,A,3329.3042,N,11708.6235,W,63.70,163.20,040210,,*2B
$GPRMC,045918.6,A,3329.2534,N,11708.6050,W,63.30,163.00,040210,,*24
$GPRMC,045921.6,A,3329.2029,N,11708.5873,W,63.10,163.30,040210,,*2C
$GPRMC,045924.6,A,3329.1522,N,11708.5688,W,63.40,163.10,040210,,*29
$GPRMC,045927.6,A,3329.1015,N,11708.5502,W,63.60,163.00,040210,,*29
$GPRMC,045930.6,A,3329.0501,N,11708.5326,W,63.90,163.20,040210,,*23
$GPRMC,045933.6,A,3329.0001,N,11708.5148,W,62.80,163.30,040210,,*2E
$GPRMC,045936.6,A,3328.9489,N,11708.4963,W,63.80,163.40,040210,,*21
$GPRMC,045939.6,A,3328.8978,N,11708.4785,W,63.90,163.40,040210,,*2B
$GPRMC,045942.6,A,3328.8464,N,11708.4595,W,64.20,163.00,040210,,*2C
$GPRMC,045945.6,A,3328.7947,N,11708.4409,W,64.40,163.20,040210,,*28
$GPRMC,045948.6,A,3328.7434,N,11708.4223,W,64.20,163.40,040210,,*22
$GPRMC,045951.6,A,3328.6922,N,11708.4041,W,64.20,163.20,040210,,*21
$GPRMC,045954.6,A,3328.6409,N,11708.3854,W,64.20,163.20,040210,,*2B
$GPRMC,045957.6,A,3328.5895,N,11708.3671,W,64.10,163.30,040210,,*29
$GPRMC,050000.6,A,3328.5383,N,11708.3491,W,63.90,163.40,040210,,*2E
$GPRMC,050003.6,A,3328.4876,N,11708.3305,W,63.60,163.10,040210,,*2D
$GPRMC,050006.6,A,3328.4369,N,11708.3125,W,63.50,163.20,040210,,*2D
$GPRMC,050009.6,A,3328.3869,N,11708.2948,W,62.70,163.40,040210,,*29
$GPRMC,050012.6,A,3328.3371,N,11708.2766,W,62.50,163.20,040210,,*27
$GPRMC,050015.6,A,3328.2870,N,11708.2581,W,62.90,163.10,040210,,*2F
$GPRMC,050018.6,A,3328.2364,N,11708.2408,W,62.70,163.80,040210,,*2B
$GPRMC,050021.6,A,3328.1866,N,11708.2243,W,61.90,166.90,040210,,*2B
$GPRMC,050024.6,A,3328.1359,N,11708.2114,W,62.00,169.60,040210,,*22
$GPRMC,050027.6,A,3328.0841,N,11708.2019,W,62.40,172.60,040210,,*20
$GPRMC,050030.6,A,3328.0323,N,11708.1956,W,62.10,175.80,040210,,*24
$GPRMC,050033.6,A,3327.9800,N,11708.1927,W,63.00,178.30,040210,,*2B
$GPRMC,050036.6,A,3327.9271,N,11708.1929,W,63.80,181.30,040210,,*22
$GPRMC,050039.6,A,3327.8739,N,11708.1956,W,63.90,182.90,040210,,*25
$GPRMC,050042.6,A,3327.8205,N,11708.1985,W,64.00,181.80,040210,,*21
$GPRMC,050045.6,A,3327.7672,N,11708.1983,W,64.00,178.20,040210,,*27
$GPRMC,050048.6,A,3327.7136,N,11708.1944,W,64.00,175.10,040210,,*28
$GPRMC,050051.6,A,3327.6604,N,11708.1890,W,64.00,174.90,040210,,*26
$GPRMC,050054.6,A,3327.6070,N,11708.1831,W,63.90,174.70,040210,,*2D
$GPRMC,050057.6,A,3327.5537,N,11708.1773,W,63.80,174.70,040210,,*23
$GPRMC,050100.6,A,3327.5005,N,11708.1713,W,64.00,174.70,040210,,*2D
$GPRMC,050103.6,A,3327.4470,N,11708.1651,W,63.90,174.70,040210,,*20
$GPRMC,050106.6,A,3327.3936,N,11708.1591,W,63.80,174.80,040210,,*2C
$GPRMC,050109.6,A,3327.3406,N,11708.1528,W,63.90,174.70,040210,,*21
$GPRMC,050112.6,A,3327.2876,N,11708.1470,W,64.00,174.70,040210,,*23
$GPRMC,050115.6,A,3327.2343,N,11708.1411,W,64.10,174.60,040210,,*2E
$GPRMC,050118.6,A,3327.1811,N,11708.1353,W,63.90,175.10,040210,,*24
$GPRMC,050121.6,A,3327.1293,N,11708.1311,W,60.70,177.30,040210,,*25
$GPRMC,050124.6,A,3327.0788,N,11708.1297,W,60.20,180.70,040210,,*28
$GPRMC,050127.6,A,3327.0290,N,11708.1324,W,60.10,184.60,040210,,*28
$GPRMC,050130.6,A,3326.9791,N,11708.1391,W,60.30,188.00,040210,,*24
$GPRMC,050133.6,A,3326.9294,N,11708.1497,W,60.50,191.60,040210,,*2E
$GPRMC,050136.6,A,3326.8804,N,11708.1633,W,60.30,194.60,040210,,*26
$GPRMC,050139.6,A,3326.8316,N,11708.1792,W,60.60,195.40,040210,,*2D
$GPRMC,050142.6,A,3326.7831,N,11708.1950,W,60.50,195.20,040210,,*25
$GPRMC,050145.6,A,3326.7344,N,11708.2109,W,60.70,195.20,040210,,*2E
$GPRMC,050148.6,A,3326.6857,N,11708.2266,W,60.70,195.30,040210,,*20
$GPRMC,050151.6,A,3326.6365,N,11708.2421,W,60.90,195.10,040210,,*2B
$GPRMC,050154.6,A,3326.5874,N,11708.2581,W,60.80,195.20,040210,,*2F
$GPRMC,050157.6,A,3326.5385,N,11708.2739,W,60.80,195.30,040210,,*29
$GPRMC,050200.6,A,3326.4896,N,11708.2908,W,61.60,197.00,040210,,*22
$GPRMC,050203.6,A,3326.4404,N,11708.3098,W,62.50,198.90,040210,,*21
$GPRMC,050206.6,A,3326.3908,N,11708.3309,W,63.70,200.70,040210,,*26
$GPRMC,050209.6,A,3326.3412,N,11708.3539,W,64.00,202.60,040210,,*29
$GPRMC,050212.6,A,3326.2921,N,11708.3794,W,64.10,204.40,040210,,*2F
$GPRMC,050215.6,A,3326.2435,N,11708.4067,W,64.30,206.50,040210,,*2D
$GPRMC,050218.6,A,3326.1960,N,11708.4360,W,64.30,208.20,040210,,*23
$GPRMC,050221.6,A,3326.1489,N,11708.4673,W,64.50,210.10,040210,,*28
$GPRMC,050224.6,A,3326.1031,N,11708.5002,W,64.50,211.80,040210,,*23
$GPRMC,050227.6,A,3326.0579,N,11708.5352,W,64.40,213.70,040210,,*22
$GPRMC,050230.6,A,3326.0135,N,11708.5725,W,65.20,215.30,040210,,*29
$GPRMC,050233.6,A,3325.9698,N,11708.6110,W,64.40,217.40,040210,,*21
$GPRMC,050236.6,A,3325.9279,N,11708.6510,W,64.40,219.30,040210,,*22
$GPRMC,050239.6,A,3325.8866,N,11708.6920,W,64.30,221.20,040210,,*2A
$GPRMC,050242.6,A,3325.8463,N,11708.7350,W,64.20,222.30,040210,,*20
$GPRMC,050245.6,A,3325.8074,N,11708.7783,W,64.00,224.70,040210,,*2F
$GPRMC,050248.6,A,3325.7695,N,11708.8242,W,64.20,225.40,040210,,*23
$GPRMC,050251.6,A,3325.7321,N,11708.8700,W,64.10,225.60,040210,,*23
$GPRMC,050254.6,A,3325.6944,N,11708.9153,W,63.80,225.60,040210,,*21
$GPRMC,050257.6,A,3325.6562,N,11708.9594,W,63.70,222.90,040210,,*22
$GPRMC,050300.6,A,3325.6167,N,11709.0019,W,63.60,219.70,040210,,*2F
$GPRMC,050303.6,A,3325.5755,N,11709.0413,W,63.30,217.60,040210,,*2C
$GPRMC,050306.6,A,3325.5328,N,11709.0782,W,63.50,214.90,040210,,*26
$GPRMC,050309.6,A,3325.4890,N,11709.1115,W,62.60,211.80,040210,,*2F
$GPRMC,050312.6,A,3325.4432,N,11709.1429,W,63.50,210.40,040210,,*24
$GPRMC,050315.6,A,3325.3971,N,11709.1749,W,63.50,210.10,040210,,*2E
$GPRMC,050318.6,A,3325.3517,N,11709.2071,W,63.30,210.60,040210,,*21
$GPRMC,050321.6,A,3325.3061,N,11709.2395,W,63.50,210.60,040210,,*20
$GPRMC,050324.6,A,3325.2601,N,11709.2712,W,63.50,210.20,040210,,*2B
$GPRMC,050327.6,A,3325.2137,N,11709.3030,W,63.30,210.10,040210,,*29
$GPRMC,050330.6,A,3325.1681,N,11709.3358,W,63.60,210.70,040210,,*28
$GPRMC,050333.6,A,3325.1233,N,11709.3667,W,63.00,210.50,040210,,*2B
$GPRMC,050336.6,A,3325.0767,N,11709.4007,W,64.10,211.60,040210,,*28
$GPRMC,050339.6,A,3325.0314,N,11709.4343,W,64.30,211.60,040210,,*26
$GPRMC,050342.6,A,3324.9861,N,11709.4688,W,64.20,211.70,040210,,*29
$GPRMC,050345.6,A,3324.9400,N,11709.5029,W,64.20,211.60,040210,,*28
$GPRMC,050348.6,A,3324.8943,N,11709.5365,W,64.20,211.70,040210,,*24
$GPRMC,050351.6,A,3324.8493,N,11709.5697,W,63.10,211.70,040210,,*20
$GPRMC,050354.6,A,3324.8043,N,11709.6024,W,63.30,211.80,040210,,*2C
$GPRMC,050357.6,A,3324.7593,N,11709.6352,W,63.00,211.70,040210,,*26
$GPRMC,050400.6,A,3324.7150,N,11709.6682,W,62.80,211.70,040210,,*29
$GPRMC,050403.6,A,3324.6702,N,11709.7007,W,62.70,211.40,040210,,*2C
$GPRMC,050406.6,A,3324.6255,N,11709.7331,W,62.30,211.40,040210,,*2C
$GPRMC,050409.6,A,3324.5812,N,11709.7652,W,62.30,210.90,040210,,*25
$GPRMC,050412.6,A,3324.5369,N,11709.7971,W,62.10,211.20,040210,,*2E
$GPRMC,050415.6,A,3324.4926,N,11709.8299,W,63.40,211.90,040210,,*24
$GPRMC,050418.6,A,3324.4475,N,11709.8642,W,64.70,213.40,040210,,*2B
$GPRMC,050421.6,A,3324.4024,N,11709.9010,W,65.90,215.00,040210,,*2C
$GPRMC,050424.6,A,3324.3573,N,11709.9385,W,65.40,215.40,040210,,*2F
$GPRMC,050427.6,A,3324.3126,N,11709.9760,W,65.70,215.40,040210,,*24
$GPRMC,050430.6,A,3324.2677,N,11710.0138,W,65.90,215.10,040210,,*21
$GPRMC,050433.6,A,3324.2224,N,11710.0515,W,65.90,214.90,040210,,*22
$GPRMC,050436.6,A,3324.1770,N,11710.0886,W,66.00,214.10,040210,,*25
$GPRMC,050439.6,A,3324.1308,N,11710.1246,W,66.20,212.70,040210,,*24
$GPRMC,050442.6,A,3324.0840,N,11710.1598,W,65.90,211.60,040210,,*20
$GPRMC,050445.6,A,3324.0371,N,11710.1941,W,66.00,210.40,040210,,*2F
$GPRMC,050448.6,A,3323.9888,N,11710.2273,W,67.00,209.70,040210,,*22
$GPRMC,050451.6,A,3323.9392,N,11710.2585,W,67.10,208.40,040210,,*27
$GPRMC,050454.6,A,3323.8905,N,11710.2897,W,66.10,207.40,040210,,*27
$GPRMC,050457.6,A,3323.8412,N,11710.3192,W,66.50,206.20,040210,,*21
$GPRMC,050500.6,A,3323.7921,N,11710.3476,W,66.50,205.20,040210,,*2C
$GPRMC,050503.6,A,3323.7423,N,11710.3730,W,66.40,203.30,040210,,*27
$GPRMC,050506.6,A,3323.6920,N,11710.3951,W,65.40,199.70,040210,,*23
$GPRMC,050509.6,A,3323.6407,N,11710.4151,W,65.50,196.60,040210,,*24
$GPRMC,050512.6,A,3323.5883,N,11710.4342,W,66.00,195.90,040210,,*27
$GPRMC,050515.6,A,3323.5371,N,11710.4525,W,65.00,195.60,040210,,*2D
$GPRMC,050518.6,A,3323.4841,N,11710.4678,W,65.10,193.10,040210,,*22
$GPRMC,050521.6,A,3323.4331,N,11710.4767,W,63.00,190.40,040210,,*2A
$GPRMC,050524.6,A,3323.3788,N,11710.4836,W,64.80,186.70,040210,,*2E
$GPRMC,050527.6,A,3323.3246,N,11710.4891,W,65.00,184.20,040210,,*29
$GPRMC,050530.6,A,3323.2717,N,11710.4938,W,63.80,182.80,040210,,*2F
$GPRMC,050533.6,A,3323.2178,N,11710.4936,W,64.70,179.80,040210,,*21
$GPRMC,050536.6,A,3323.1633,N,11710.4911,W,64.30,177.60,040210,,*2E
$GPRMC,050539.6,A,3323.1101,N,11710.4862,W,63.60,175.20,040210,,*26
$GPRMC,050542.6,A,3323.0576,N,11710.4798,W,63.20,173.50,040210,,*20
$GPRMC,050545.6,A,3323.0020,N,11710.4697,W,65.80,171.10,040210,,*25
$GPRMC,050548.6,A,3322.9488,N,11710.4573,W,64.70,167.50,040210,,*22
$GPRMC,050551.6,A,3322.8959,N,11710.4420,W,64.90,166.30,040210,,*24
$GPRMC,050554.6,A,3322.8424,N,11710.4226,W,64.50,162.90,040210,,*24
$GPRMC,050557.6,A,3322.7925,N,11710.4018,W,64.50,160.50,040210,,*25
$GPRMC,050600.6,A,3322.7428,N,11710.3787,W,64.50,158.10,040210,,*2D
$GPRMC,050603.6,A,3322.6932,N,11710.3538,W,64.60,155.90,040210,,*29
$GPRMC,050606.6,A,3322.6444,N,11710.3261,W,64.50,153.50,040210,,*22
$GPRMC,050609.6,A,3322.5965,N,11710.2961,W,64.80,151.20,040210,,*22
$GPRMC,050612.6,A,3322.5496,N,11710.2632,W,64.70,148.80,040210,,*2D
$GPRMC,050615.6,A,3322.5038,N,11710.2284,W,64.90,146.40,040210,,*2F
$GPRMC,050618.6,A,3322.4589,N,11710.1916,W,65.10,144.40,040210,,*24
$GPRMC,050621.6,A,3322.4160,N,11710.1525,W,65.00,141.80,040210,,*29
$GPRMC,050624.6,A,3322.3743,N,11710.1117,W,64.80,139.60,040210,,*21
$GPRMC,050627.6,A,3322.3340,N,11710.0686,W,65.10,137.70,040210,,*2C
$GPRMC,050630.6,A,3322.2936,N,11710.0245,W,66.20,137.60,040210,,*2A
$GPRMC,050633.6,A,3322.2527,N,11709.9773,W,67.70,136.60,040210,,*21
$GPRMC,050636.6,A,3322.2110,N,11709.9387,W,65.90,139.60,040210,,*28
$GPRMC,050639.6,A,3322.1709,N,11709.8970,W,63.50,139.10,040210,,*24
$GPRMC,050642.6,A,3322.1289,N,11709.8570,W,65.90,144.20,040210,,*2A
$GPRMC,050645.6,A,3322.0843,N,11709.8185,W,67.10,144.20,040210,,*24
$GPRMC,050648.6,A,3322.0387,N,11709.7825,W,65.90,147.90,040210,,*24
$GPRMC,050651.6,A,3321.9916,N,11709.7488,W,66.00,150.40,040210,,*2E
$GPRMC,050654.6,A,3321.9432,N,11709.7171,W,66.70,152.70,040210,,*25
$GPRMC,050657.6,A,3321.8934,N,11709.6881,W,66.60,155.00,040210,,*2A
$GPRMC,050700.6,A,3321.8424,N,11709.6615,W,66.50,157.50,040210,,*22
$GPRMC,050703.6,A,3321.7909,N,11709.6379,W,65.20,160.00,040210,,*26
$GPRMC,050706.6,A,3321.7400,N,11709.6175,W,64.30,162.40,040210,,*2F
$GPRMC,050709.6,A,3321.6885,N,11709.5992,W,64.40,164.20,040210,,*25
$GPRMC,050712.6,A,3321.6370,N,11709.5839,W,64.10,166.70,040210,,*2C
$GPRMC,050715.6,A,3321.5842,N,11709.5718,W,64.50,169.30,040210,,*21
$GPRMC,050718.6,A,3321.5310,N,11709.5615,W,64.50,171.40,040210,,*22
$GPRMC,050721.6,A,3321.4765,N,11709.5529,W,65.30,172.90,040210,,*2A
$GPRMC,050724.6,A,3321.4241,N,11709.5463,W,63.90,174.90,040210,,*29
$GPRMC,050727.6,A,3321.3700,N,11709.5439,W,64.90,177.70,040210,,*28
$GPRMC,050730.6,A,3321.3153,N,11709.5420,W,65.20,178.70,040210,,*23
$GPRMC,050733.6,A,3321.2622,N,11709.5431,W,64.30,180.70,040210,,*27
$GPRMC,050736.6,A,3321.2084,N,11709.5439,W,64.70,180.80,040210,,*2B
$GPRMC,050739.6,A,3321.1553,N,11709.5461,W,64.10,181.50,040210,,*2F
$GPRMC,050742.6,A,3321.1011,N,11709.5461,W,64.80,180.70,040210,,*2A
$GPRMC,050745.6,A,3321.0469,N,11709.5464,W,64.80,180.60,040210,,*23
$GPRMC,050748.6,A,3320.9932,N,11709.5464,W,64.30,180.30,040210,,*2B
$GPRMC,050751.6,A,3320.9397,N,11709.5490,W,64.20,181.10,040210,,*2F
$GPRMC,050754.6,A,3320.8858,N,11709.5498,W,64.30,180.90,040210,,*23
$GPRMC,050757.6,A,3320.8313,N,11709.5494,W,64.70,180.50,040210,,*20
$GPRMC,050800.6,A,3320.7780,N,11709.5522,W,64.10,181.10,040210,,*23
$GPRMC,050803.6,A,3320.7245,N,11709.5533,W,64.40,180.60,040210,,*2F
$GPRMC,050806.6,A,3320.6708,N,11709.5545,W,64.60,180.80,040210,,*2A
$GPRMC,050809.6,A,3320.6169,N,11709.5557,W,64.60,180.90,040210,,*26
$GPRMC,050812.6,A,3320.5629,N,11709.5569,W,64.40,180.70,040210,,*2D
$GPRMC,050815.6,A,3320.5089,N,11709.5575,W,64.50,180.50,040210,,*28
$GPRMC,050818.6,A,3320.4559,N,11709.5575,W,64.00,180.30,040210,,*2F
$GPRMC,050821.6,A,3320.4011,N,11709.5567,W,65.00,179.80,040210,,*23
$GPRMC,050824.6,A,3320.3473,N,11709.5585,W,64.80,180.70,040210,,*2D
$GPRMC,050827.6,A,3320.2929,N,11709.5593,W,64.70,180.70,040210,,*25
$GPRMC,050830.6,A,3320.2391,N,11709.5616,W,64.60,180.70,040210,,*25
$GPRMC,050833.6,A,3320.1849,N,11709.5621,W,64.60,180.90,040210,,*21
$GPRMC,050836.6,A,3320.1309,N,11709.5627,W,64.60,180.70,040210,,*23
$GPRMC,050839.6,A,3320.0771,N,11709.5637,W,64.70,180.90,040210,,*28
$GPRMC,050842.6,A,3320.0233,N,11709.5646,W,64.70,180.70,040210,,*2F
$GPRMC,050845.6,A,3319.9695,N,11709.5654,W,64.60,180.70,040210,,*21
$GPRMC,050848.6,A,3319.9155,N,11709.5668,W,64.70,181.00,040210,,*2F
$GPRMC,050851.6,A,3319.8616,N,11709.5682,W,64.20,181.20,040210,,*25
$GPRMC,050854.6,A,3319.8075,N,11709.5688,W,64.80,180.10,040210,,*21
$GPRMC,050857.6,A,3319.7526,N,11709.5674,W,65.70,178.00,040210,,*25
$GPRMC,050900.6,A,3319.6977,N,11709.5641,W,66.00,175.50,040210,,*25
$GPRMC,050903.6,A,3319.6430,N,11709.5576,W,65.40,173.30,040210,,*28
$GPRMC,050906.6,A,3319.5894,N,11709.5488,W,65.00,171.00,040210,,*29
$GPRMC,050909.6,A,3319.5367,N,11709.5360,W,64.50,168.20,040210,,*2E
$GPRMC,050912.6,A,3319.4856,N,11709.5218,W,63.90,165.90,040210,,*2F
$GPRMC,050915.6,A,3319.4350,N,11709.5047,W,63.30,163.10,040210,,*29
$GPRMC,050918.6,A,3319.3846,N,11709.4856,W,63.10,160.90,040210,,*2F
$GPRMC,050921.6,A,3319.3351,N,11709.4632,W,62.40,158.10,040210,,*23
$GPRMC,050924.6,A,3319.2866,N,11709.4376,W,63.70,154.60,040210,,*24
$GPRMC,050927.6,A,3319.2388,N,11709.4094,W,64.60,152.20,040210,,*27
$GPRMC,050930.6,A,3319.1914,N,11709.3792,W,65.40,150.80,040210,,*20
$GPRMC,050933.6,A,3319.1440,N,11709.3484,W,66.10,150.80,040210,,*2D
$GPRMC,050936.6,A,3319.0963,N,11709.3177,W,66.70,150.60,040210,,*24
$GPRMC,050939.6,A,3319.0481,N,11709.2867,W,66.80,150.60,040210,,*2C
$GPRMC,050942.6,A,3319.0001,N,11709.2559,W,66.80,150.70,040210,,*2D
$GPRMC,050945.6,A,3318.9518,N,11709.2252,W,67.10,150.90,040210,,*25
$GPRMC,050948.6,A,3318.9029,N,11709.1946,W,67.50,151.70,040210,,*29
$GPRMC,050951.6,A,3318.8534,N,11709.1662,W,67.00,153.90,040210,,*29
$GPRMC,050954.6,A,3318.8034,N,11709.1425,W,65.20,159.50,040210,,*2E
$GPRMC,050957.6,A,3318.7530,N,11709.1226,W,63.30,162.00,040210,,*2C
$GPRMC,051000.6,A,3318.7024,N,11709.1040,W,63.30,164.90,040210,,*2B
$GPRMC,051003.6,A,3318.6506,N,11709.0873,W,63.70,166.10,040210,,*2B
$GPRMC,051006.6,A,3318.5970,N,11709.0700,W,65.30,167.40,040210,,*2D
$GPRMC,051009.6,A,3318.5433,N,11709.0561,W,64.70,169.80,040210,,*2A
$GPRMC,051012.6,A,3318.4898,N,11709.0456,W,64.10,171.90,040210,,*27
$GPRMC,051015.6,A,3318.4367,N,11709.0377,W,63.40,174.00,040210,,*21
$GPRMC,051018.6,A,3318.3834,N,11709.0321,W,63.80,175.70,040210,,*2F
$GPRMC,051021.6,A,3318.3299,N,11709.0276,W,64.50,176.90,040210,,*2C
$GPRMC,051024.6,A,3318.2757,N,11709.0238,W,65.00,177.10,040210,,*28
$GPRMC,051027.6,A,3318.2213,N,11709.0206,W,64.90,177.30,040210,,*29
$GPRMC,051030.6,A,3318.1673,N,11709.0176,W,64.70,177.20,040210,,*25
$GPRMC,051033.6,A,3318.1136,N,11709.0145,W,64.10,177.30,040210,,*27
$GPRMC,051036.6,A,3318.0601,N,11709.0114,W,64.30,177.40,040210,,*21
$GPRMC,051039.6,A,3318.0067,N,11709.0089,W,63.90,178.20,040210,,*29
$GPRMC,051042.6,A,3317.9531,N,11709.0067,W,64.10,178.00,040210,,*28
$GPRMC,051045.6,A,3317.8996,N,11709.0039,W,64.30,177.40,040210,,*2D
$GPRMC,051048.6,A,3317.8460,N,11709.0008,W,64.40,177.20,040210,,*27
$GPRMC,051051.6,A,3317.7922,N,11708.9979,W,64.40,177.30,040210,,*2D
$GPRMC,051054.6,A,3317.7383,N,11708.9949,W,64.50,177.20,040210,,*2A
$GPRMC,051057.6,A,3317.6845,N,11708.9917,W,64.70,177.30,040210,,*21
$GPRMC,051100.6,A,3317.6302,N,11708.9884,W,64.80,177.30,040210,,*2E
$GPRMC,051103.6,A,3317.5759,N,11708.9854,W,64.90,177.20,040210,,*29
$GPRMC,051106.6,A,3317.5218,N,11708.9828,W,64.90,177.30,040210,,*26
$GPRMC,051109.6,A,3317.4683,N,11708.9787,W,64.80,176.80,040210,,*2F
$GPRMC,051112.6,A,3317.4132,N,11708.9756,W,65.00,177.10,040210,,*25
$GPRMC,051115.6,A,3317.3590,N,11708.9731,W,65.10,178.20,040210,,*25
$GPRMC,051118.6,A,3317.3046,N,11708.9727,W,65.20,180.90,040210,,*2E
$GPRMC,051121.6,A,3317.2505,N,11708.9749,W,65.10,183.70,040210,,*21
$GPRMC,051124.6,A,3317.1964,N,11708.9791,W,65.40,184.80,040210,,*24
$GPRMC,051127.6,A,3317.1430,N,11708.9879,W,64.80,187.90,040210,,*2D
$GPRMC,051130.6,A,3317.0907,N,11708.9997,W,64.40,190.60,040210,,*27
$GPRMC,051133.6,A,3317.0382,N,11709.0153,W,64.70,194.60,040210,,*2C
$GPRMC,051136.6,A,3316.9849,N,11709.0328,W,65.10,195.70,040210,,*24
$GPRMC,051139.6,A,3316.9339,N,11709.0522,W,64.20,198.40,040210,,*27
$GPRMC,051142.6,A,3316.8846,N,11709.0777,W,64.70,202.70,040210,,*2D
$GPRMC,051145.6,A,3316.8352,N,11709.1034,W,64.80,205.40,040210,,*2E
$GPRMC,051148.6,A,3316.7865,N,11709.1318,W,64.80,206.50,040210,,*2C
$GPRMC,051151.6,A,3316.7381,N,11709.1605,W,65.00,206.80,040210,,*28
$GPRMC,051154.6,A,3316.6896,N,11709.1892,W,65.00,206.10,040210,,*28
$GPRMC,051157.6,A,3316.6406,N,11709.2174,W,65.10,205.80,040210,,*27
$GPRMC,051200.6,A,3316.5917,N,11709.2456,W,65.10,205.90,040210,,*2C
$GPRMC,051203.6,A,3316.5429,N,11709.2740,W,65.00,205.90,040210,,*2A
$GPRMC,051206.6,A,3316.4944,N,11709.3029,W,65.00,205.90,040210,,*21
$GPRMC,051209.6,A,3316.4456,N,11709.3310,W,65.00,205.90,040210,,*29
$GPRMC,051212.6,A,3316.3970,N,11709.3594,W,64.80,205.80,040210,,*2F
$GPRMC,051215.6,A,3316.3482,N,11709.3869,W,64.90,204.40,040210,,*2B
$GPRMC,051218.6,A,3316.2983,N,11709.4124,W,65.00,202.10,040210,,*27
$GPRMC,051221.6,A,3316.2479,N,11709.4360,W,64.80,200.30,040210,,*2E
$GPRMC,051224.6,A,3316.1969,N,11709.4575,W,64.80,198.70,040210,,*20
$GPRMC,051227.6,A,3316.1447,N,11709.4783,W,66.40,197.70,040210,,*28
$GPRMC,051230.6,A,3316.0910,N,11709.4950,W,66.20,193.20,040210,,*27
$GPRMC,051233.6,A,3316.0374,N,11709.5090,W,64.50,190.90,040210,,*25
$GPRMC,051236.6,A,3315.9854,N,11709.5192,W,63.20,188.60,040210,,*26
$GPRMC,051239.6,A,3315.9334,N,11709.5272,W,62.40,187.60,040210,,*21
$GPRMC,051242.6,A,3315.8813,N,11709.5342,W,61.60,186.10,040210,,*27
$GPRMC,051245.6,A,3315.8309,N,11709.5381,W,61.10,183.70,040210,,*2B
$GPRMC,051248.6,A,3315.7788,N,11709.5378,W,62.80,181.80,040210,,*25
$GPRMC,051251.6,A,3315.7271,N,11709.5370,W,62.20,181.30,040210,,*27
$GPRMC,051254.6,A,3315.6741,N,11709.5324,W,63.40,176.80,040210,,*20
$GPRMC,051257.6,A,3315.6200,N,11709.5260,W,64.70,174.20,040210,,*2E
$GPRMC,051300.6,A,3315.5672,N,11709.5185,W,62.70,173.70,040210,,*23
$GPRMC,051303.6,A,3315.5147,N,11709.5056,W,61.50,168.10,040210,,*23
$GPRMC,051306.6,A,3315.4665,N,11709.4916,W,57.80,166.50,040210,,*2E
$GPRMC,051309.6,A,3315.4219,N,11709.4780,W,53.70,164.40,040210,,*27
$GPRMC,051312.6,A,3315.3789,N,11709.4620,W,54.00,162.80,040210,,*27
$GPRMC,051315.6,A,3315.3361,N,11709.4465,W,51.70,164.00,040210,,*2D
$GPRMC,051318.6,A,3315.2957,N,11709.4328,W,49.00,165.20,040210,,*2D
$GPRMC,051321.6,A,3315.2578,N,11709.4201,W,45.50,165.40,040210,,*23
$GPRMC,051324.6,A,3315.2252,N,11709.4117,W,40.30,168.10,040210,,*26
$GPRMC,051327.6,A,3315.2008,N,11709.4120,W,29.90,180.10,040210,,*2F
$GPRMC,051330.6,A,3315.1932,N,11709.4130,W,11.40,188.30,040210,,*27
$GPRMC,051333.6,A,3315.1905,N,11709.4164,W,4.60,224.80,040210,,*19
$GPRMC,051336.6,A,3315.1898,N,11709.4238,W,10.40,267.60,040210,,*2D
$GPRMC,051339.6,A,3315.1919,N,11709.4377,W,17.70,276.60,040210,,*24
$GPRMC,051342.6,A,3315.1935,N,11709.4580,W,23.10,275.90,040210,,*25
$GPRMC,051345.6,A,3315.1959,N,11709.4829,W,27.50,275.10,040210,,*2E
$GPRMC,051348.6,A,3315.1973,N,11709.5118,W,30.80,272.40,040210,,*28
$GPRMC,051351.6,A,3315.1980,N,11709.5438,W,34.00,269.50,040210,,*2C
$GPRMC,051354.6,A,3315.1973,N,11709.5799,W,37.40,268.30,040210,,*2D
$GPRMC,051357.6,A,3315.1970,N,11709.6172,W,36.60,271.70,040210,,*22
$GPRMC,051400.6,A,3315.1951,N,11709.6588,W,42.00,267.80,040210,,*28
$GPRMC,051403.6,A,3315.1941,N,11709.7012,W,42.10,268.00,040210,,*2B
$GPRMC,051406.6,A,3315.1926,N,11709.7433,W,42.00,266.70,040210,,*20
$GPRMC,051409.6,A,3315.1907,N,11709.7849,W,41.80,267.20,040210,,*22
$GPRMC,051412.6,A,3315.1876,N,11709.8258,W,42.70,264.80,040210,,*2F
$GPRMC,051415.6,A,3315.1805,N,11709.8670,W,42.00,256.60,040210,,*2A
$GPRMC,051418.6,A,3315.1697,N,11709.9081,W,43.40,251.80,040210,,*27
$GPRMC,051421.6,A,3315.1567,N,11709.9482,W,42.20,247.90,040210,,*27
$GPRMC,051424.6,A,3315.1448,N,11709.9880,W,44.00,250.70,040210,,*2C
$GPRMC,051427.6,A,3315.1328,N,11710.0306,W,45.70,252.10,040210,,*28
$GPRMC,051430.6,A,3315.1211,N,11710.0754,W,47.10,251.80,040210,,*28
$GPRMC,051433.6,A,3315.1112,N,11710.1211,W,46.30,255.00,040210,,*21
$GPRMC,051436.6,A,3315.1057,N,11710.1696,W,49.80,260.20,040210,,*2F
$GPRMC,051439.6,A,3315.0996,N,11710.2200,W,51.10,258.80,040210,,*2C
$GPRMC,051442.6,A,3315.0925,N,11710.2705,W,51.30,259.60,040210,,*25
$GPRMC,051445.6,A,3315.0875,N,11710.3189,W,48.40,260.20,040210,,*24
$GPRMC,051448.6,A,3315.0833,N,11710.3649,W,47.40,262.90,040210,,*26
$GPRMC,051451.6,A,3315.0861,N,11710.4098,W,46.70,270.00,040210,,*2C
$GPRMC,051454.6,A,3315.0911,N,11710.4559,W,48.20,278.40,040210,,*20
$GPRMC,051457.6,A,3315.0998,N,11710.5028,W,47.90,286.10,040210,,*20
$GPRMC,051500.6,A,3315.1130,N,11710.5475,W,47.40,291.00,040210,,*2E
$GPRMC,051503.6,A,3315.1312,N,11710.5880,W,45.70,298.80,040210,,*29
$GPRMC,051506.6,A,3315.1527,N,11710.6244,W,44.80,306.60,040210,,*2B
$GPRMC,051509.6,A,3315.1747,N,11710.6596,W,44.90,305.30,040210,,*2F
$GPRMC,051512.6,A,3315.1942,N,11710.6991,W,46.10,296.40,040210,,*23
$GPRMC,051515.6,A,3315.2081,N,11710.7417,W,46.40,286.50,040210,,*26
$GPRMC,051518.6,A,3315.2158,N,11710.7874,W,47.50,277.20,040210,,*2E
$GPRMC,051521.6,A,3315.2175,N,11710.8353,W,47.60,267.10,040210,,*2B
$GPRMC,051524.6,A,3315.2122,N,11710.8818,W,46.80,257.20,040210,,*27
$GPRMC,051527.6,A,3315.2007,N,11710.9264,W,46.50,250.20,040210,,*28
$GPRMC,051530.6,A,3315.1869,N,11710.9700,W,46.20,248.70,040210,,*21
$GPRMC,051533.6,A,3315.1726,N,11711.0118,W,45.00,247.70,040210,,*2F
$GPRMC,051536.6,A,3315.1589,N,11711.0544,W,46.10,251.80,040210,,*2A
$GPRMC,051539.6,A,3315.1506,N,11711.0982,W,44.60,263.70,040210,,*2F
$GPRMC,051542.6,A,3315.1512,N,11711.1413,W,43.20,276.60,040210,,*24
$GPRMC,051545.6,A,3315.1586,N,11711.1831,W,43.00,287.50,040210,,*2D
$GPRMC,051548.6,A,3315.1709,N,11711.2228,W,43.10,290.60,040210,,*20
$GPRMC,051551.6,A,3315.1821,N,11711.2637,W,43.90,286.60,040210,,*28
$GPRMC,051554.6,A,3315.1879,N,11711.3073,W,44.40,275.10,040210,,*26
$GPRMC,051557.6,A,3315.1905,N,11711.3519,W,45.50,273.40,040210,,*25
$GPRMC,051600.6,A,3315.1925,N,11711.3971,W,46.20,271.30,040210,,*25
$GPRMC,051603.6,A,3315.1913,N,11711.4439,W,47.60,263.60,040210,,*26
$GPRMC,051606.6,A,3315.1862,N,11711.4911,W,47.50,262.00,040210,,*27
$GPRMC,051609.6,A,3315.1797,N,11711.5372,W,47.80,258.50,040210,,*22
$GPRMC,051612.6,A,3315.1707,N,11711.5827,W,46.20,255.30,040210,,*2A
$GPRMC,051615.6,A,3315.1594,N,11711.6254,W,44.60,250.90,040210,,*21
$GPRMC,051618.6,A,3315.1468,N,11711.6662,W,42.80,252.40,040210,,*28
$GPRMC,051621.6,A,3315.1389,N,11711.7078,W,42.90,260.10,040210,,*23
$GPRMC,051624.6,A,3315.1378,N,11711.7496,W,41.10,268.80,040210,,*26
$GPRMC,051627.6,A,3315.1465,N,11711.7939,W,44.50,281.80,040210,,*20
$GPRMC,051630.6,A,3315.1541,N,11711.8379,W,45.30,280.90,040210,,*27
$GPRMC,051633.6,A,3315.1610,N,11711.8826,W,46.40,279.40,040210,,*2D
$GPRMC,051636.6,A,3315.1665,N,11711.9285,W,46.70,276.60,040210,,*26
$GPRMC,051639.6,A,3315.1692,N,11711.9754,W,48.90,272.50,040210,,*2F
$GPRMC,051642.6,A,3315.1695,N,11712.0235,W,48.30,272.50,040210,,*26
$GPRMC,051645.6,A,3315.1707,N,11712.0689,W,46.90,277.10,040210,,*2D
$GPRMC,051648.6,A,3315.1751,N,11712.1132,W,47.00,283.40,040210,,*23
$GPRMC,051651.6,A,3315.1869,N,11712.1575,W,47.30,288.10,040210,,*25
$GPRMC,051654.6,A,3315.1987,N,11712.2004,W,45.10,288.10,040210,,*21
$GPRMC,051657.6,A,3315.2115,N,11712.2416,W,43.80,292.20,040210,,*22
$GPRMC,051700.6,A,3315.2286,N,11712.2791,W,42.40,299.30,040210,,*23
$GPRMC,051703.6,A,3315.2451,N,11712.3130,W,38.30,296.90,040210,,*2F
$GPRMC,051706.6,A,3315.2563,N,11712.3479,W,36.80,286.40,040210,,*2B
$GPRMC,051709.6,A,3315.2588,N,11712.3864,W,37.40,274.10,040210,,*24
$GPRMC,051712.6,A,3315.2635,N,11712.4219,W,35.50,281.20,040210,,*26
$GPRMC,051715.6,A,3315.2751,N,11712.4543,W,33.70,294.70,040210,,*2F
$GPRMC,051718.6,A,3315.2982,N,11712.4842,W,37.50,307.10,040210,,*25
$GPRMC,051721.6,A,3315.3257,N,11712.5141,W,42.90,315.20,040210,,*28
$GPRMC,051724.6,A,3315.3506,N,11712.5447,W,41.40,310.10,040210,,*25
$GPRMC,051727.6,A,3315.3678,N,11712.5810,W,41.80,294.60,040210,,*24
$GPRMC,051730.6,A,3315.3826,N,11712.6199,W,43.00,294.10,040210,,*21
$GPRMC,051733.6,A,3315.3979,N,11712.6593,W,42.20,294.50,040210,,*20
$GPRMC,051736.6,A,3315.4128,N,11712.6957,W,40.50,296.50,040210,,*2D
$GPRMC,051739.6,A,3315.4253,N,11712.7293,W,37.00,286.50,040210,,*2B
$GPRMC,051742.6,A,3315.4315,N,11712.7671,W,39.50,279.60,040210,,*24
$GPRMC,051745.6,A,3315.4289,N,11712.8030,W,37.80,266.80,040210,,*28
$GPRMC,051748.6,A,3315.4147,N,11712.8362,W,35.20,245.80,040210,,*29
$GPRMC,051751.6,A,3315.3941,N,11712.8641,W,32.50,228.00,040210,,*2F
$GPRMC,051754.6,A,3315.3687,N,11712.8809,W,31.20,206.90,040210,,*2C
$GPRMC,051757.6,A,3315.3395,N,11712.8914,W,35.20,193.50,040210,,*23
$GPRMC,051800.6,A,3315.3076,N,11712.8972,W,38.40,188.80,040210,,*2C
$GPRMC,051803.6,A,3315.2745,N,11712.9048,W,39.90,192.80,040210,,*2F
$GPRMC,051806.6,A,3315.2420,N,11712.9160,W,40.80,198.50,040210,,*29
$GPRMC,051809.6,A,3315.2098,N,11712.9340,W,42.00,207.40,040210,,*2F
$GPRMC,051812.6,A,3315.1805,N,11712.9573,W,42.50,217.10,040210,,*2D
$GPRMC,051815.6,A,3315.1522,N,11712.9824,W,40.90,217.40,040210,,*26
$GPRMC,051818.6,A,3315.1259,N,11713.0079,W,40.10,222.50,040210,,*27
$GPRMC,051821.6,A,3315.1027,N,11713.0378,W,41.60,231.90,040210,,*2C
$GPRMC,051824.6,A,3315.0809,N,11713.0713,W,42.00,233.20,040210,,*29
$GPRMC,051827.6,A,3315.0617,N,11713.1046,W,39.70,237.00,040210,,*20
$GPRMC,051830.6,A,3315.0469,N,11713.1396,W,39.90,246.00,040210,,*2B
$GPRMC,051833.6,A,3315.0354,N,11713.1742,W,37.50,246.90,040210,,*27
$GPRMC,051836.6,A,3315.0167,N,11713.2058,W,37.80,235.40,040210,,*2B
$GPRMC,051839.6,A,3315.0018,N,11713.2364,W,32.70,240.70,040210,,*2A
$GPRMC,051842.6,A,3314.9920,N,11713.2674,W,32.50,243.70,040210,,*29
$GPRMC,051845.6,A,3314.9807,N,11713.2969,W,31.50,248.50,040210,,*23
$GPRMC,051848.6,A,3314.9737,N,11713.3264,W,30.60,256.00,040210,,*2D
$GPRMC,051851.6,A,3314.9708,N,11713.3601,W,32.40,262.80,040210,,*21
