NMEA Sentence Code,UTC Time,Status,Latitude,Latitude Direction,Longitude,Longitude Direction,Speed (knots),Track Angle (degrees true),Date,MagneticVariation,Magnetic Variation Direction,[FAA Mode]-Optional,Checksum
$GPRMC,203238.000,A,3344.5215,N,11548.8805,W,28.18,329.18,170710,,,A*49
$GPRMC,203241.000,A,3344.5418,N,11548.8951,W,27.98,328.24,170710,,,A*45
$GPRMC,203244.000,A,3344.5612,N,11548.9105,W,27.09,324.65,170710,,,A*41
$GPRMC,203247.000,A,3344.5789,N,11548.9271,W,26.59,319.52,170710,,,A*4F
$GPRMC,203250.000,A,3344.5949,N,11548.9452,W,26.37,313.75,170710,,,A*4B
$GPRMC,203253.000,A,3344.6093,N,11548.9652,W,26.33,309.18,170710,,,A*43
$GPRMC,203256.000,A,3344.6234,N,11548.9863,W,27.17,309.28,170710,,,A*41
$GPRMC,203259.000,A,3344.6385,N,11549.0070,W,27.52,314.30,170710,,,A*43
$GPRMC,203302.000,A,3344.6557,N,11549.0255,W,27.62,320.99,170710,,,A*47
$GPRMC,203305.000,A,3344.6736,N,11549.0425,W,27.12,322.08,170710,,,A*49
$GPRMC,203308.000,A,3344.6915,N,11549.0588,W,26.68,322.95,170710,,,A*45
$GPRMC,203311.000,A,3344.7091,N,11549.0748,W,26.13,322.86,170710,,,A*49
$GPRMC,203314.000,A,3344.7261,N,11549.0907,W,25.37,321.41,170710,,,A*49
$GPRMC,203317.000,A,3344.7417,N,11549.1072,W,24.77,314.34,170710,,,A*46
$GPRMC,203320.000,A,3344.7543,N,11549.1270,W,25.31,301.53,170710,,,A*44
$GPRMC,203323.000,A,3344.7626,N,11549.1505,W,26.03,288.26,170710,,,A*42
$GPRMC,203326.000,A,3344.7684,N,11549.1757,W,26.87,286.87,170710,,,A*43
$GPRMC,203329.000,A,3344.7750,N,11549.2023,W,28.00,288.60,170710,,,A*45
$GPRMC,203332.000,A,3344.7835,N,11549.2287,W,28.35,293.63,170710,,,A*40
$GPRMC,203335.000,A,3344.7931,N,11549.2547,W,28.14,294.42,170710,,,A*4E
$GPRMC,203338.000,A,3344.8038,N,11549.2793,W,27.48,302.26,170710,,,A*4D
$GPRMC,203341.000,A,3344.8170,N,11549.3011,W,26.71,308.41,170710,,,A*42
$GPRMC,203344.000,A,3344.8305,N,11549.3208,W,24.21,309.05,170710,,,A*4B
$GPRMC,203347.000,A,3344.8422,N,11549.3393,W,22.39,304.72,170710,,,A*4B
$GPRMC,203350.000,A,3344.8516,N,11549.3586,W,22.76,296.28,170710,,,A*47
$GPRMC,203353.000,A,3344.8585,N,11549.3801,W,23.40,287.87,170710,,,A*4D
$GPRMC,203356.000,A,3344.8633,N,11549.4020,W,21.99,286.72,170710,,,A*47
$GPRMC,203359.000,A,3344.8691,N,11549.4222,W,20.49,291.67,170710,,,A*4E
$GPRMC,203402.000,A,3344.8752,N,11549.4405,W,19.85,292.70,170710,,,A*45
$GPRMC,203405.000,A,3344.8814,N,11549.4581,W,18.63,293.23,170710,,,A*4C
$GPRMC,203408.000,A,3344.8874,N,11549.4737,W,14.16,296.76,170710,,,A*43
$GPRMC,203417.000,A,3344.8869,N,11549.4897,W,11.73,230.39,170710,,,A*45
$GPRMC,203420.000,A,3344.8772,N,11549.4999,W,18.15,223.34,170710,,,A*4D
$GPRMC,203423.000,A,3344.8653,N,11549.5143,W,21.83,229.84,170710,,,A*46
$GPRMC,203426.000,A,3344.8551,N,11549.5338,W,24.67,246.60,170710,,,A*40
$GPRMC,203429.000,A,3344.8518,N,11549.5581,W,25.40,273.20,170710,,,A*40
$GPRMC,203432.000,A,3344.8567,N,11549.5837,W,26.58,286.03,170710,,,A*43
$GPRMC,203435.000,A,3344.8593,N,11549.6098,W,25.41,265.06,170710,,,A*42
$GPRMC,203438.000,A,3344.8510,N,11549.6330,W,25.55,234.59,170710,,,A*4E
$GPRMC,203441.000,A,3344.8343,N,11549.6503,W,27.11,212.79,170710,,,A*42
$GPRMC,203444.000,A,3344.8128,N,11549.6595,W,26.98,190.03,170710,,,A*43
$GPRMC,203447.000,A,3344.7896,N,11549.6613,W,26.30,177.75,170710,,,A*44
$GPRMC,203450.000,A,3344.7680,N,11549.6579,W,25.83,170.31,170710,,,A*48
$GPRMC,203453.000,A,3344.7464,N,11549.6531,W,26.58,169.16,170710,,,A*47
$GPRMC,203456.000,A,3344.7236,N,11549.6470,W,28.38,165.50,170710,,,A*41
$GPRMC,203459.000,A,3344.7003,N,11549.6390,W,29.01,163.74,170710,,,A*48
$GPRMC,203502.000,A,3344.6765,N,11549.6301,W,29.61,162.85,170710,,,A*40
$GPRMC,203505.000,A,3344.6533,N,11549.6208,W,28.94,160.69,170710,,,A*45
$GPRMC,203508.000,A,3344.6303,N,11549.6103,W,29.34,157.42,170710,,,A*43
$GPRMC,203511.000,A,3344.6072,N,11549.5982,W,30.68,155.47,170710,,,A*4A
$GPRMC,203514.000,A,3344.5832,N,11549.5844,W,32.20,154.18,170710,,,A*4E
$GPRMC,203517.000,A,3344.5587,N,11549.5702,W,32.02,154.41,170710,,,A*4F
$GPRMC,203520.000,A,3344.5352,N,11549.5562,W,31.00,153.46,170710,,,A*40
$GPRMC,203523.000,A,3344.5128,N,11549.5426,W,29.18,153.60,170710,,,A*49
$GPRMC,203526.000,A,3344.4908,N,11549.5303,W,28.67,156.17,170710,,,A*4B
$GPRMC,203529.000,A,3344.4689,N,11549.5191,W,28.50,156.70,170710,,,A*4E
$GPRMC,203532.000,A,3344.4466,N,11549.5079,W,29.12,157.98,170710,,,A*40
$GPRMC,203535.000,A,3344.4234,N,11549.4973,W,30.51,160.65,170710,,,A*4D
$GPRMC,203538.000,A,3344.3983,N,11549.4877,W,32.45,163.63,170710,,,A*47
$GPRMC,203541.000,A,3344.3711,N,11549.4788,W,34.60,164.72,170710,,,A*45
$GPRMC,203544.000,A,3344.3435,N,11549.4698,W,33.30,164.45,170710,,,A*43
$GPRMC,203547.000,A,3344.3171,N,11549.4609,W,32.42,164.24,170710,,,A*4E
$GPRMC,203550.000,A,3344.2913,N,11549.4524,W,31.38,165.60,170710,,,A*46
$GPRMC,203553.000,A,3344.2653,N,11549.4460,W,32.02,171.16,170710,,,A*41
$GPRMC,203556.000,A,3344.2385,N,11549.4426,W,32.07,174.44,170710,,,A*4F
$GPRMC,203559.000,A,3344.2119,N,11549.4395,W,31.36,173.52,170710,,,A*49
$GPRMC,203602.000,A,3344.1865,N,11549.4345,W,30.72,167.31,170710,,,A*49
$GPRMC,203605.000,A,3344.1621,N,11549.4253,W,30.96,158.25,170710,,,A*45
$GPRMC,203608.000,A,3344.1391,N,11549.4110,W,31.58,148.66,170710,,,A*47
$GPRMC,203611.000,A,3344.1181,N,11549.3919,W,31.75,139.13,170710,,,A*41
$GPRMC,203614.000,A,3344.1000,N,11549.3686,W,32.26,128.83,170710,,,A*49
$GPRMC,203617.000,A,3344.0854,N,11549.3421,W,31.88,119.74,170710,,,A*40
$GPRMC,203620.000,A,3344.0740,N,11549.3126,W,32.65,111.64,170710,,,A*45
$GPRMC,203623.000,A,3344.0657,N,11549.2822,W,31.91,107.35,170710,,,A*46
$GPRMC,203626.000,A,3344.0569,N,11549.2527,W,30.53,114.74,170710,,,A*4D
$GPRMC,203629.000,A,3344.0425,N,11549.2276,W,30.14,135.14,170710,,,A*4E
$GPRMC,203632.000,A,3344.0199,N,11549.2150,W,30.33,165.17,170710,,,A*42
$GPRMC,203635.000,A,3343.9939,N,11549.2173,W,30.58,188.00,170710,,,A*40
$GPRMC,203638.000,A,3343.9687,N,11549.2228,W,29.65,190.73,170710,,,A*41
$GPRMC,203641.000,A,3343.9449,N,11549.2302,W,28.71,197.99,170710,,,A*41
$GPRMC,203644.000,A,3343.9234,N,11549.2418,W,29.39,208.39,170710,,,A*46
$GPRMC,203647.000,A,3343.9028,N,11549.2577,W,31.04,213.40,170710,,,A*41
$GPRMC,203650.000,A,3343.8809,N,11549.2756,W,32.76,213.79,170710,,,A*40
$GPRMC,203653.000,A,3343.8580,N,11549.2945,W,34.22,214.10,170710,,,A*4C
$GPRMC,203656.000,A,3343.8348,N,11549.3137,W,33.24,214.46,170710,,,A*45
$GPRMC,203659.000,A,3343.8123,N,11549.3321,W,32.09,212.55,170710,,,A*4A
$GPRMC,203702.000,A,3343.7880,N,11549.3473,W,31.65,199.99,170710,,,A*43
$GPRMC,203705.000,A,3343.7618,N,11549.3548,W,32.16,188.06,170710,,,A*43
$GPRMC,203708.000,A,3343.7358,N,11549.3491,W,31.45,163.84,170710,,,A*40
$GPRMC,203711.000,A,3343.7102,N,11549.3356,W,32.50,157.66,170710,,,A*45
$GPRMC,203714.000,A,3343.6847,N,11549.3220,W,33.00,156.94,170710,,,A*41
$GPRMC,203717.000,A,3343.6590,N,11549.3087,W,32.94,156.99,170710,,,A*4B
$GPRMC,203720.000,A,3343.6340,N,11549.2961,W,31.98,157.88,170710,,,A*4A
$GPRMC,203723.000,A,3343.6097,N,11549.2837,W,31.38,155.32,170710,,,A*4B
$GPRMC,203726.000,A,3343.5880,N,11549.2666,W,31.35,138.33,170710,,,A*4E
$GPRMC,203729.000,A,3343.5745,N,11549.2408,W,30.34,112.38,170710,,,A*4E
$GPRMC,203732.000,A,3343.5696,N,11549.2083,W,33.64,96.34,170710,,,A*7B
$GPRMC,203735.000,A,3343.5676,N,11549.1737,W,34.31,94.53,170710,,,A*7D
$GPRMC,203738.000,A,3343.5653,N,11549.1396,W,34.82,95.50,170710,,,A*72
$GPRMC,203741.000,A,3343.5615,N,11549.1043,W,36.31,100.56,170710,,,A*44
$GPRMC,203744.000,A,3343.5539,N,11549.0698,W,35.02,111.22,170710,,,A*4D
$GPRMC,203747.000,A,3343.5378,N,11549.0394,W,36.07,130.66,170710,,,A*41
$GPRMC,203750.000,A,3343.5170,N,11549.0137,W,35.43,132.82,170710,,,A*4D
$GPRMC,203753.000,A,3343.5010,N,11548.9853,W,33.40,115.57,170710,,,A*42
$GPRMC,203756.000,A,3343.4920,N,11548.9540,W,33.05,109.34,170710,,,A*4A
$GPRMC,203759.000,A,3343.4830,N,11548.9237,W,30.65,111.69,170710,,,A*46
$GPRMC,203802.000,A,3343.4699,N,11548.8976,W,30.57,130.35,170710,,,A*4E
$GPRMC,203805.000,A,3343.4495,N,11548.8789,W,31.13,149.33,170710,,,A*40
$GPRMC,203808.000,A,3343.4249,N,11548.8691,W,32.07,163.20,170710,,,A*4E
$GPRMC,203811.000,A,3343.3983,N,11548.8608,W,33.05,164.63,170710,,,A*4F
$GPRMC,203814.000,A,3343.3720,N,11548.8506,W,32.73,159.00,170710,,,A*4B
$GPRMC,203817.000,A,3343.3468,N,11548.8361,W,34.00,149.76,170710,,,A*42
$GPRMC,203820.000,A,3343.3230,N,11548.8160,W,35.68,142.14,170710,,,A*4E
$GPRMC,203823.000,A,3343.2997,N,11548.7930,W,36.55,140.55,170710,,,A*42
$GPRMC,203826.000,A,3343.2761,N,11548.7694,W,36.54,140.04,170710,,,A*44
$GPRMC,203829.000,A,3343.2532,N,11548.7461,W,35.21,139.85,170710,,,A*41
$GPRMC,203832.000,A,3343.2307,N,11548.7234,W,34.65,140.07,170710,,,A*48
$GPRMC,203835.000,A,3343.2083,N,11548.7013,W,34.53,140.63,170710,,,A*40
$GPRMC,203838.000,A,3343.1861,N,11548.6800,W,33.55,141.08,170710,,,A*4C
$GPRMC,203841.000,A,3343.1642,N,11548.6589,W,34.05,140.64,170710,,,A*48
$GPRMC,203844.000,A,3343.1426,N,11548.6368,W,34.01,138.69,170710,,,A*42
$GPRMC,203847.000,A,3343.1215,N,11548.6140,W,34.56,137.85,170710,,,A*40
$GPRMC,203850.000,A,3343.0999,N,11548.5897,W,36.00,136.36,170710,,,A*40
$GPRMC,203853.000,A,3343.0780,N,11548.5648,W,35.96,136.95,170710,,,A*4C
$GPRMC,203856.000,A,3343.0563,N,11548.5405,W,35.27,136.95,170710,,,A*47
$GPRMC,203859.000,A,3343.0336,N,11548.5197,W,33.76,148.64,170710,,,A*45
$GPRMC,203902.000,A,3343.0073,N,11548.5069,W,33.85,164.99,170710,,,A*48
$GPRMC,203905.000,A,3342.9795,N,11548.5042,W,33.17,178.79,170710,,,A*49
$GPRMC,203908.000,A,3342.9515,N,11548.5050,W,33.44,179.05,170710,,,A*41
$GPRMC,203911.000,A,3342.9241,N,11548.5008,W,33.38,164.01,170710,,,A*41
$GPRMC,203914.000,A,3342.8987,N,11548.4863,W,34.12,147.68,170710,,,A*41
$GPRMC,203917.000,A,3342.8790,N,11548.4627,W,33.30,129.03,170710,,,A*46
$GPRMC,203920.000,A,3342.8628,N,11548.4358,W,32.55,126.59,170710,,,A*4F
$GPRMC,203923.000,A,3342.8470,N,11548.4102,W,31.12,128.31,170710,,,A*4E
$GPRMC,203926.000,A,3342.8301,N,11548.3876,W,30.43,136.85,170710,,,A*42
$GPRMC,203929.000,A,3342.8093,N,11548.3692,W,31.58,149.01,170710,,,A*4E
$GPRMC,203932.000,A,3342.7850,N,11548.3564,W,31.97,161.96,170710,,,A*41
$GPRMC,203935.000,A,3342.7584,N,11548.3507,W,32.70,173.80,170710,,,A*49
$GPRMC,203938.000,A,3342.7310,N,11548.3492,W,33.14,177.65,170710,,,A*4E
$GPRMC,203941.000,A,3342.7027,N,11548.3478,W,34.22,175.06,170710,,,A*46
$GPRMC,203944.000,A,3342.6741,N,11548.3424,W,35.38,167.35,170710,,,A*45
$GPRMC,203947.000,A,3342.6449,N,11548.3334,W,36.56,164.70,170710,,,A*42
$GPRMC,203950.000,A,3342.6154,N,11548.3236,W,37.29,164.68,170710,,,A*4E
$GPRMC,203953.000,A,3342.5847,N,11548.3136,W,38.03,164.77,170710,,,A*4F
$GPRMC,203956.000,A,3342.5536,N,11548.3032,W,38.93,164.60,170710,,,A*4B
$GPRMC,203959.000,A,3342.5217,N,11548.2932,W,39.57,165.22,170710,,,A*46
$GPRMC,204002.000,A,3342.4893,N,11548.2832,W,40.28,166.18,170710,,,A*4C
$GPRMC,204005.000,A,3342.4562,N,11548.2742,W,40.86,167.66,170710,,,A*4C
$GPRMC,204008.000,A,3342.4231,N,11548.2658,W,39.68,168.38,170710,,,A*40
$GPRMC,204011.000,A,3342.3915,N,11548.2581,W,37.56,168.50,170710,,,A*48
$GPRMC,204014.000,A,3342.3618,N,11548.2508,W,35.03,168.24,170710,,,A*4F
$GPRMC,204017.000,A,3342.3332,N,11548.2438,W,35.25,168.70,170710,,,A*46
$GPRMC,204020.000,A,3342.3042,N,11548.2368,W,35.63,167.91,170710,,,A*46
$GPRMC,204023.000,A,3342.2756,N,11548.2287,W,34.75,165.01,170710,,,A*4B
$GPRMC,204026.000,A,3342.2490,N,11548.2181,W,32.39,158.48,170710,,,A*4F
$GPRMC,204029.000,A,3342.2247,N,11548.2046,W,31.70,153.02,170710,,,A*4D
$GPRMC,204032.000,A,3342.2027,N,11548.1900,W,29.41,150.63,170710,,,A*44
$GPRMC,204035.000,A,3342.1807,N,11548.1762,W,30.21,154.34,170710,,,A*48
$GPRMC,204038.000,A,3342.1573,N,11548.1647,W,30.32,161.55,170710,,,A*4E
$GPRMC,204041.000,A,3342.1326,N,11548.1573,W,30.94,168.90,170710,,,A*4E
$GPRMC,204044.000,A,3342.1064,N,11548.1538,W,32.24,177.13,170710,,,A*4D
$GPRMC,204047.000,A,3342.0791,N,11548.1541,W,33.19,181.88,170710,,,A*48
$GPRMC,204050.000,A,3342.0516,N,11548.1556,W,33.52,182.79,170710,,,A*47
$GPRMC,204053.000,A,3342.0235,N,11548.1576,W,34.20,183.14,170710,,,A*48
$GPRMC,204056.000,A,3341.9946,N,11548.1598,W,35.11,183.71,170710,,,A*48
$GPRMC,204059.000,A,3341.9647,N,11548.1619,W,36.08,182.71,170710,,,A*49
$GPRMC,204102.000,A,3341.9343,N,11548.1637,W,37.10,183.24,170710,,,A*42
$GPRMC,204105.000,A,3341.9029,N,11548.1659,W,38.01,183.09,170710,,,A*42
$GPRMC,204108.000,A,3341.8710,N,11548.1679,W,38.41,183.11,170710,,,A*4C
$GPRMC,204111.000,A,3341.8384,N,11548.1694,W,39.12,180.76,170710,,,A*4B
$GPRMC,204114.000,A,3341.8065,N,11548.1685,W,36.96,176.34,170710,,,A*4E
$GPRMC,204117.000,A,3341.7765,N,11548.1662,W,34.20,176.09,170710,,,A*4D
$GPRMC,204120.000,A,3341.7494,N,11548.1637,W,30.99,175.69,170710,,,A*47
$GPRMC,204123.000,A,3341.7250,N,11548.1615,W,27.63,175.67,170710,,,A*47
$GPRMC,204126.000,A,3341.7024,N,11548.1594,W,27.81,175.67,170710,,,A*45
$GPRMC,204129.000,A,3341.6784,N,11548.1572,W,29.78,175.45,170710,,,A*46
$GPRMC,204132.000,A,3341.6529,N,11548.1548,W,31.36,175.50,170710,,,A*47
$GPRMC,204135.000,A,3341.6260,N,11548.1524,W,32.84,175.58,170710,,,A*42
$GPRMC,204138.000,A,3341.5979,N,11548.1498,W,34.32,175.63,170710,,,A*4A
$GPRMC,204141.000,A,3341.5687,N,11548.1473,W,35.29,176.17,170710,,,A*44
$GPRMC,204144.000,A,3341.5399,N,11548.1449,W,33.88,175.54,170710,,,A*4B
$GPRMC,204147.000,A,3341.5125,N,11548.1424,W,31.22,175.63,170710,,,A*40
$GPRMC,204150.000,A,3341.4875,N,11548.1402,W,29.10,175.81,170710,,,A*4B
$GPRMC,204153.000,A,3341.4626,N,11548.1381,W,30.80,176.51,170710,,,A*43
$GPRMC,204156.000,A,3341.4364,N,11548.1364,W,32.09,177.58,170710,,,A*45
$GPRMC,204159.000,A,3341.4091,N,11548.1359,W,33.35,179.80,170710,,,A*48
$GPRMC,204202.000,A,3341.3809,N,11548.1357,W,32.86,179.66,170710,,,A*44
$GPRMC,204205.000,A,3341.3546,N,11548.1356,W,30.01,180.02,170710,,,A*4D
$GPRMC,204208.000,A,3341.3300,N,11548.1358,W,29.58,180.30,170710,,,A*4F
$GPRMC,204211.000,A,3341.3049,N,11548.1356,W,30.67,179.39,170710,,,A*4C
$GPRMC,204214.000,A,3341.2784,N,11548.1355,W,32.02,179.52,170710,,,A*41
$GPRMC,204217.000,A,3341.2508,N,11548.1353,W,33.60,179.67,170710,,,A*41
$GPRMC,204220.000,A,3341.2221,N,11548.1351,W,34.42,180.04,170710,,,A*4F
$GPRMC,204223.000,A,3341.1943,N,11548.1351,W,32.06,179.97,170710,,,A*4A
$GPRMC,204226.000,A,3341.1685,N,11548.1351,W,30.50,180.21,170710,,,A*40
$GPRMC,204229.000,A,3341.1428,N,11548.1349,W,31.30,178.93,170710,,,A*4A
$GPRMC,204232.000,A,3341.1162,N,11548.1340,W,32.37,177.87,170710,,,A*4C
$GPRMC,204235.000,A,3341.0884,N,11548.1327,W,33.85,177.06,170710,,,A*4B
$GPRMC,204238.000,A,3341.0597,N,11548.1306,W,34.88,176.16,170710,,,A*40
$GPRMC,204241.000,A,3341.0304,N,11548.1283,W,35.89,176.49,170710,,,A*44
$GPRMC,204244.000,A,3341.0001,N,11548.1261,W,36.97,176.42,170710,,,A*4C
$GPRMC,204247.000,A,3340.9697,N,11548.1237,W,35.08,176.16,170710,,,A*49
$GPRMC,204250.000,A,3340.9419,N,11548.1216,W,31.95,176.24,170710,,,A*49
$GPRMC,204253.000,A,3340.9168,N,11548.1196,W,28.92,176.79,170710,,,A*45
$GPRMC,204256.000,A,3340.8921,N,11548.1185,W,30.26,178.10,170710,,,A*41
$GPRMC,204259.000,A,3340.8663,N,11548.1173,W,31.60,177.93,170710,,,A*49
$GPRMC,204302.000,A,3340.8393,N,11548.1164,W,32.92,178.02,170710,,,A*43
$GPRMC,204305.000,A,3340.8118,N,11548.1151,W,32.15,177.44,170710,,,A*41
$GPRMC,204308.000,A,3340.7866,N,11548.1134,W,29.00,176.01,170710,,,A*4E
$GPRMC,204311.000,A,3340.7622,N,11548.1111,W,30.02,174.82,170710,,,A*4C
$GPRMC,204314.000,A,3340.7368,N,11548.1081,W,30.88,174.34,170710,,,A*45
$GPRMC,204317.000,A,3340.7107,N,11548.1050,W,31.82,174.17,170710,,,A*4B
$GPRMC,204320.000,A,3340.6837,N,11548.1018,W,32.79,174.28,170710,,,A*43
$GPRMC,204323.000,A,3340.6558,N,11548.0987,W,33.87,174.60,170710,,,A*46
$GPRMC,204326.000,A,3340.6272,N,11548.0955,W,34.91,175.00,170710,,,A*44
$GPRMC,204329.000,A,3340.5976,N,11548.0927,W,35.84,176.49,170710,,,A*49
$GPRMC,204332.000,A,3340.5672,N,11548.0921,W,36.70,182.87,170710,,,A*4F
$GPRMC,204335.000,A,3340.5367,N,11548.0963,W,36.08,188.85,170710,,,A*48
$GPRMC,204338.000,A,3340.5090,N,11548.1017,W,31.62,189.39,170710,,,A*48
$GPRMC,204341.000,A,3340.4844,N,11548.1053,W,27.61,184.85,170710,,,A*48
$GPRMC,204344.000,A,3340.4615,N,11548.1066,W,28.47,181.58,170710,,,A*4F
$GPRMC,204347.000,A,3340.4375,N,11548.1073,W,29.46,181.66,170710,,,A*46
$GPRMC,204350.000,A,3340.4123,N,11548.1084,W,30.43,182.07,170710,,,A*40
$GPRMC,204353.000,A,3340.3865,N,11548.1095,W,31.64,182.35,170710,,,A*4A
$GPRMC,204356.000,A,3340.3599,N,11548.1107,W,31.82,181.87,170710,,,A*49
$GPRMC,204359.000,A,3340.3338,N,11548.1117,W,30.93,182.62,170710,,,A*43
$GPRMC,204402.000,A,3340.3084,N,11548.1128,W,30.00,181.90,170710,,,A*46
$GPRMC,204405.000,A,3340.2836,N,11548.1139,W,29.53,182.40,170710,,,A*41
$GPRMC,204408.000,A,3340.2592,N,11548.1151,W,28.92,182.21,170710,,,A*4A
$GPRMC,204411.000,A,3340.2351,N,11548.1161,W,28.93,182.02,170710,,,A*48
$GPRMC,204414.000,A,3340.2108,N,11548.1172,W,29.50,182.86,170710,,,A*43
$GPRMC,204417.000,A,3340.1865,N,11548.1184,W,29.20,182.41,170710,,,A*44
$GPRMC,204420.000,A,3340.1619,N,11548.1197,W,29.37,182.34,170710,,,A*43
$GPRMC,204423.000,A,3340.1374,N,11548.1207,W,29.36,181.68,170710,,,A*4F
$GPRMC,204426.000,A,3340.1131,N,11548.1214,W,29.31,181.45,170710,,,A*43
$GPRMC,204429.000,A,3340.0885,N,11548.1223,W,29.63,182.35,170710,,,A*4C
$GPRMC,204432.000,A,3340.0637,N,11548.1234,W,29.69,182.20,170710,,,A*49
$GPRMC,204435.000,A,3340.0388,N,11548.1245,W,30.06,182.33,170710,,,A*4A
$GPRMC,204438.000,A,3340.0139,N,11548.1256,W,29.77,181.70,170710,,,A*47
$GPRMC,204441.000,A,3339.9890,N,11548.1266,W,29.98,181.98,170710,,,A*40
$GPRMC,204444.000,A,3339.9639,N,11548.1278,W,30.12,182.39,170710,,,A*45
$GPRMC,204447.000,A,3339.9390,N,11548.1289,W,30.01,182.15,170710,,,A*42
$GPRMC,204450.000,A,3339.9139,N,11548.1297,W,30.16,180.67,170710,,,A*4B
$GPRMC,204453.000,A,3339.8890,N,11548.1298,W,29.36,180.13,170710,,,A*45
$GPRMC,204456.000,A,3339.8641,N,11548.1299,W,30.21,180.35,170710,,,A*49
$GPRMC,204459.000,A,3339.8390,N,11548.1300,W,29.88,180.28,170710,,,A*49
$GPRMC,204502.000,A,3339.8142,N,11548.1300,W,29.34,179.33,170710,,,A*40
$GPRMC,204505.000,A,3339.7897,N,11548.1299,W,29.26,180.49,170710,,,A*40
$GPRMC,204508.000,A,3339.7661,N,11548.1300,W,27.48,179.92,170710,,,A*4D
$GPRMC,204511.000,A,3339.7441,N,11548.1301,W,25.29,181.04,170710,,,A*49
$GPRMC,204514.000,A,3339.7230,N,11548.1307,W,24.95,180.78,170710,,,A*46
$GPRMC,204517.000,A,3339.7026,N,11548.1309,W,23.41,180.22,170710,,,A*4F
$GPRMC,204520.000,A,3339.6853,N,11548.1312,W,17.65,181.24,170710,,,A*4C
$GPRMC,204523.000,A,3339.6734,N,11548.1367,W,16.63,225.16,170710,,,A*48
$GPRMC,204526.000,A,3339.6657,N,11548.1549,W,24.26,245.30,170710,,,A*41
$GPRMC,204529.000,A,3339.6567,N,11548.1794,W,28.42,244.68,170710,,,A*4E
$GPRMC,204532.000,A,3339.6465,N,11548.2074,W,32.98,246.05,170710,,,A*48
$GPRMC,204535.000,A,3339.6365,N,11548.2420,W,40.16,254.00,170710,,,A*48
$GPRMC,204538.000,A,3339.6308,N,11548.2861,W,47.29,265.10,170710,,,A*4F
$GPRMC,204541.000,A,3339.6293,N,11548.3368,W,52.42,268.58,170710,,,A*49
$GPRMC,204544.000,A,3339.6285,N,11548.3927,W,57.64,268.44,170710,,,A*46
$GPRMC,204547.000,A,3339.6280,N,11548.4532,W,61.75,269.61,170710,,,A*4C
$GPRMC,204550.000,A,3339.6282,N,11548.5160,W,62.29,270.48,170710,,,A*43
$GPRMC,204553.000,A,3339.6288,N,11548.5783,W,61.80,270.72,170710,,,A*48
$GPRMC,204556.000,A,3339.6301,N,11548.6406,W,61.23,272.48,170710,,,A*42
$GPRMC,204559.000,A,3339.6333,N,11548.7022,W,61.23,274.38,170710,,,A*4E
$GPRMC,204602.000,A,3339.6375,N,11548.7636,W,61.32,274.75,170710,,,A*4B
$GPRMC,204605.000,A,3339.6418,N,11548.8251,W,61.46,274.94,170710,,,A*46
$GPRMC,204608.000,A,3339.6456,N,11548.8872,W,61.53,274.32,170710,,,A*42
$GPRMC,204611.000,A,3339.6492,N,11548.9498,W,61.59,274.70,170710,,,A*47
$GPRMC,204614.000,A,3339.6531,N,11549.0120,W,61.60,274.39,170710,,,A*43
$GPRMC,204617.000,A,3339.6571,N,11549.0739,W,61.74,274.64,170710,,,A*47
$GPRMC,204620.000,A,3339.6612,N,11549.1359,W,61.81,274.60,170710,,,A*48
$GPRMC,204623.000,A,3339.6654,N,11549.1977,W,61.86,274.49,170710,,,A*43
$GPRMC,204626.000,A,3339.6695,N,11549.2595,W,61.73,274.66,170710,,,A*4F
$GPRMC,204629.000,A,3339.6737,N,11549.3211,W,61.68,274.67,170710,,,A*48
$GPRMC,204632.000,A,3339.6780,N,11549.3827,W,61.81,274.70,170710,,,A*40
$GPRMC,204635.000,A,3339.6820,N,11549.4444,W,61.78,274.28,170710,,,A*47
$GPRMC,204638.000,A,3339.6863,N,11549.5060,W,61.77,274.77,170710,,,A*4B
$GPRMC,204641.000,A,3339.6906,N,11549.5677,W,61.83,274.66,170710,,,A*4C
$GPRMC,204644.000,A,3339.6949,N,11549.6293,W,61.70,274.47,170710,,,A*40
$GPRMC,204647.000,A,3339.6990,N,11549.6908,W,61.68,274.46,170710,,,A*46
$GPRMC,204650.000,A,3339.7033,N,11549.7524,W,61.86,274.71,170710,,,A*46
$GPRMC,204653.000,A,3339.7075,N,11549.8140,W,61.88,274.57,170710,,,A*44
$GPRMC,204656.000,A,3339.7118,N,11549.8755,W,61.81,274.79,170710,,,A*4C
$GPRMC,204659.000,A,3339.7159,N,11549.9371,W,61.81,274.38,170710,,,A*40
$GPRMC,204702.000,A,3339.7201,N,11549.9984,W,61.82,274.66,170710,,,A*49
$GPRMC,204705.000,A,3339.7242,N,11550.0598,W,61.78,274.67,170710,,,A*4D
$GPRMC,204708.000,A,3339.7283,N,11550.1211,W,61.76,274.61,170710,,,A*42
$GPRMC,204711.000,A,3339.7325,N,11550.1824,W,61.89,274.29,170710,,,A*47
$GPRMC,204714.000,A,3339.7363,N,11550.2439,W,61.96,274.20,170710,,,A*44
$GPRMC,204717.000,A,3339.7394,N,11550.3055,W,61.80,273.29,170710,,,A*49
$GPRMC,204720.000,A,3339.7428,N,11550.3669,W,61.84,274.21,170710,,,A*4F
$GPRMC,204723.000,A,3339.7467,N,11550.4283,W,61.70,274.42,170710,,,A*4E
$GPRMC,204726.000,A,3339.7510,N,11550.4895,W,61.67,275.46,170710,,,A*44
$GPRMC,204729.000,A,3339.7564,N,11550.5506,W,61.69,276.03,170710,,,A*42
$GPRMC,204732.000,A,3339.7608,N,11550.6125,W,61.61,275.11,170710,,,A*4F
$GPRMC,204735.000,A,3339.7650,N,11550.6741,W,61.69,274.74,170710,,,A*4B
$GPRMC,204738.000,A,3339.7693,N,11550.7356,W,61.67,274.76,170710,,,A*46
$GPRMC,204741.000,A,3339.7736,N,11550.7969,W,61.77,274.47,170710,,,A*43
$GPRMC,204744.000,A,3339.7776,N,11550.8582,W,61.69,274.69,170710,,,A*47
$GPRMC,204747.000,A,3339.7816,N,11550.9199,W,61.82,274.49,170710,,,A*45
$GPRMC,204750.000,A,3339.7856,N,11550.9817,W,61.86,274.50,170710,,,A*44
$GPRMC,204753.000,A,3339.7897,N,11551.0433,W,61.82,274.62,170710,,,A*4D
$GPRMC,204756.000,A,3339.7938,N,11551.1048,W,61.78,274.52,170710,,,A*43
$GPRMC,204759.000,A,3339.7979,N,11551.1664,W,61.83,274.52,170710,,,A*45
$GPRMC,204802.000,A,3339.8019,N,11551.2280,W,61.65,274.65,170710,,,A*45
$GPRMC,204805.000,A,3339.8061,N,11551.2892,W,61.35,274.54,170710,,,A*43
$GPRMC,204808.000,A,3339.8102,N,11551.3504,W,61.56,274.54,170710,,,A*4C
$GPRMC,204811.000,A,3339.8144,N,11551.4118,W,61.68,274.55,170710,,,A*44
$GPRMC,204814.000,A,3339.8184,N,11551.4733,W,61.80,274.49,170710,,,A*49
$GPRMC,204817.000,A,3339.8224,N,11551.5350,W,61.97,274.44,170710,,,A*48
$GPRMC,204820.000,A,3339.8264,N,11551.5966,W,61.91,274.52,170710,,,A*46
$GPRMC,204823.000,A,3339.8305,N,11551.6580,W,61.95,274.56,170710,,,A*44
$GPRMC,204826.000,A,3339.8346,N,11551.7195,W,61.92,274.60,170710,,,A*45
$GPRMC,204829.000,A,3339.8388,N,11551.7810,W,61.83,274.51,170710,,,A*4E
$GPRMC,204832.000,A,3339.8428,N,11551.8423,W,61.57,274.42,170710,,,A*41
$GPRMC,204835.000,A,3339.8468,N,11551.9034,W,61.47,274.78,170710,,,A*49
$GPRMC,204838.000,A,3339.8509,N,11551.9645,W,61.47,274.59,170710,,,A*41
$GPRMC,204841.000,A,3339.8551,N,11552.0255,W,61.48,274.76,170710,,,A*4F
$GPRMC,204844.000,A,3339.8593,N,11552.0866,W,61.58,274.57,170710,,,A*4C
$GPRMC,204847.000,A,3339.8632,N,11552.1484,W,61.79,274.40,170710,,,A*43
$GPRMC,204850.000,A,3339.8673,N,11552.2101,W,61.98,274.63,170710,,,A*45
$GPRMC,204853.000,A,3339.8714,N,11552.2718,W,61.98,274.61,170710,,,A*4A
$GPRMC,204856.000,A,3339.8756,N,11552.3334,W,62.06,274.47,170710,,,A*42
$GPRMC,204859.000,A,3339.8796,N,11552.3951,W,61.98,274.66,170710,,,A*4F
$GPRMC,204902.000,A,3339.8837,N,11552.4567,W,62.04,274.40,170710,,,A*48
$GPRMC,204905.000,A,3339.8879,N,11552.5183,W,61.81,274.65,170710,,,A*43
$GPRMC,204908.000,A,3339.8921,N,11552.5796,W,61.61,274.53,170710,,,A*4B
$GPRMC,204911.000,A,3339.8959,N,11552.6408,W,61.72,274.22,170710,,,A*4F
$GPRMC,204914.000,A,3339.9001,N,11552.7022,W,61.79,274.65,170710,,,A*4A
$GPRMC,204917.000,A,3339.9037,N,11552.7642,W,61.92,274.32,170710,,,A*4B
$GPRMC,204920.000,A,3339.9078,N,11552.8255,W,61.70,274.71,170710,,,A*42
$GPRMC,204923.000,A,3339.9121,N,11552.8869,W,61.88,274.74,170710,,,A*4B
$GPRMC,204926.000,A,3339.9165,N,11552.9483,W,61.88,274.52,170710,,,A*43
$GPRMC,204929.000,A,3339.9205,N,11553.0099,W,61.98,274.40,170710,,,A*4C
$GPRMC,204932.000,A,3339.9246,N,11553.0715,W,61.80,274.85,170710,,,A*42
$GPRMC,204935.000,A,3339.9287,N,11553.1329,W,61.59,274.81,170710,,,A*42
$GPRMC,204938.000,A,3339.9329,N,11553.1942,W,61.43,274.79,170710,,,A*41
$GPRMC,204941.000,A,3339.9373,N,11553.2554,W,61.52,276.20,170710,,,A*46
$GPRMC,204944.000,A,3339.9440,N,11553.3161,W,61.31,278.70,170710,,,A*49
$GPRMC,204947.000,A,3339.9524,N,11553.3768,W,61.88,280.10,170710,,,A*45
$GPRMC,204950.000,A,3339.9622,N,11553.4373,W,61.78,281.60,170710,,,A*46
$GPRMC,204953.000,A,3339.9729,N,11553.4976,W,61.85,281.91,170710,,,A*4C
$GPRMC,204956.000,A,3339.9834,N,11553.5581,W,61.71,281.85,170710,,,A*41
$GPRMC,204959.000,A,3339.9940,N,11553.6184,W,61.92,281.64,170710,,,A*4C
$GPRMC,205002.000,A,3340.0045,N,11553.6788,W,61.68,281.92,170710,,,A*47
$GPRMC,205005.000,A,3340.0150,N,11553.7389,W,61.46,281.63,170710,,,A*43
$GPRMC,205008.000,A,3340.0252,N,11553.7988,W,61.79,281.77,170710,,,A*4D
$GPRMC,205011.000,A,3340.0356,N,11553.8591,W,61.68,281.56,170710,,,A*48
$GPRMC,205014.000,A,3340.0459,N,11553.9195,W,61.65,281.49,170710,,,A*47
$GPRMC,205017.000,A,3340.0561,N,11553.9799,W,61.68,281.59,170710,,,A*48
$GPRMC,205020.000,A,3340.0664,N,11554.0403,W,61.84,281.88,170710,,,A*4A
$GPRMC,205023.000,A,3340.0769,N,11554.1009,W,61.75,281.54,170710,,,A*45
$GPRMC,205026.000,A,3340.0873,N,11554.1613,W,61.90,281.81,170710,,,A*4A
$GPRMC,205029.000,A,3340.0977,N,11554.2221,W,61.98,281.07,170710,,,A*40
$GPRMC,205032.000,A,3340.1082,N,11554.2833,W,62.58,281.72,170710,,,A*4C
$GPRMC,205035.000,A,3340.1187,N,11554.3442,W,62.08,281.60,170710,,,A*42
$GPRMC,205038.000,A,3340.1293,N,11554.4048,W,62.22,281.58,170710,,,A*43
$GPRMC,205041.000,A,3340.1397,N,11554.4655,W,62.08,281.57,170710,,,A*45
$GPRMC,205044.000,A,3340.1503,N,11554.5259,W,61.86,281.91,170710,,,A*4D
$GPRMC,205047.000,A,3340.1609,N,11554.5864,W,62.02,281.71,170710,,,A*42
$GPRMC,205050.000,A,3340.1712,N,11554.6470,W,61.92,281.60,170710,,,A*4F
$GPRMC,205053.000,A,3340.1818,N,11554.7074,W,61.92,281.75,170710,,,A*4C
$GPRMC,205056.000,A,3340.1922,N,11554.7680,W,61.82,281.56,170710,,,A*4C
$GPRMC,205059.000,A,3340.2026,N,11554.8283,W,61.86,281.69,170710,,,A*4D
$GPRMC,205102.000,A,3340.2128,N,11554.8890,W,61.78,281.62,170710,,,A*4F
$GPRMC,205105.000,A,3340.2232,N,11554.9496,W,62.19,281.54,170710,,,A*4A
$GPRMC,205108.000,A,3340.2336,N,11555.0101,W,61.71,281.95,170710,,,A*41
$GPRMC,205111.000,A,3340.2441,N,11555.0702,W,61.60,281.61,170710,,,A*40
$GPRMC,205114.000,A,3340.2545,N,11555.1300,W,60.94,282.25,170710,,,A*4E
$GPRMC,205117.000,A,3340.2650,N,11555.1896,W,61.15,281.71,170710,,,A*44
$GPRMC,205120.000,A,3340.2751,N,11555.2495,W,61.32,281.24,170710,,,A*49
$GPRMC,205123.000,A,3340.2853,N,11555.3096,W,61.43,282.14,170710,,,A*47
$GPRMC,205126.000,A,3340.2960,N,11555.3695,W,61.30,281.82,170710,,,A*4E
$GPRMC,205129.000,A,3340.3063,N,11555.4300,W,61.81,281.79,170710,,,A*4A
$GPRMC,205132.000,A,3340.3166,N,11555.4903,W,61.77,281.59,170710,,,A*46
$GPRMC,205135.000,A,3340.3269,N,11555.5507,W,61.90,281.56,170710,,,A*42
$GPRMC,205138.000,A,3340.3374,N,11555.6117,W,61.99,281.74,170710,,,A*4D
$GPRMC,205141.000,A,3340.3479,N,11555.6721,W,62.16,281.34,170710,,,A*4A
$GPRMC,205144.000,A,3340.3582,N,11555.7327,W,61.93,281.64,170710,,,A*42
$GPRMC,205147.000,A,3340.3688,N,11555.7927,W,61.73,281.84,170710,,,A*42
$GPRMC,205150.000,A,3340.3791,N,11555.8529,W,61.48,281.87,170710,,,A*4B
$GPRMC,205153.000,A,3340.3891,N,11555.9128,W,60.91,281.69,170710,,,A*46
$GPRMC,205156.000,A,3340.3991,N,11555.9728,W,61.09,281.80,170710,,,A*43
$GPRMC,205159.000,A,3340.4092,N,11556.0329,W,61.50,282.02,170710,,,A*4B
$GPRMC,205202.000,A,3340.4196,N,11556.0931,W,61.51,281.72,170710,,,A*45
$GPRMC,205205.000,A,3340.4299,N,11556.1530,W,61.50,281.76,170710,,,A*47
$GPRMC,205208.000,A,3340.4403,N,11556.2133,W,61.54,281.45,170710,,,A*4F
$GPRMC,205211.000,A,3340.4506,N,11556.2736,W,61.70,281.59,170710,,,A*4B
$GPRMC,205214.000,A,3340.4611,N,11556.3339,W,61.55,281.80,170710,,,A*42
$GPRMC,205217.000,A,3340.4714,N,11556.3943,W,61.77,281.72,170710,,,A*4F
$GPRMC,205220.000,A,3340.4818,N,11556.4549,W,61.63,281.39,170710,,,A*43
$GPRMC,205223.000,A,3340.4920,N,11556.5152,W,61.89,281.24,170710,,,A*4D
$GPRMC,205226.000,A,3340.5021,N,11556.5757,W,61.58,281.73,170710,,,A*4C
$GPRMC,205229.000,A,3340.5125,N,11556.6361,W,61.55,281.68,170710,,,A*43
$GPRMC,205232.000,A,3340.5229,N,11556.6965,W,62.19,281.51,170710,,,A*49
$GPRMC,205235.000,A,3340.5331,N,11556.7572,W,62.37,281.18,170710,,,A*4C
$GPRMC,205238.000,A,3340.5435,N,11556.8178,W,61.82,282.07,170710,,,A*43
$GPRMC,205241.000,A,3340.5541,N,11556.8780,W,61.84,281.74,170710,,,A*4F
$GPRMC,205244.000,A,3340.5647,N,11556.9384,W,61.75,281.98,170710,,,A*42
$GPRMC,205247.000,A,3340.5752,N,11556.9991,W,62.11,281.49,170710,,,A*47
$GPRMC,205250.000,A,3340.5857,N,11557.0597,W,61.62,281.78,170710,,,A*4C
$GPRMC,205253.000,A,3340.5961,N,11557.1200,W,62.03,281.72,170710,,,A*4D
$GPRMC,205256.000,A,3340.6067,N,11557.1803,W,61.75,281.79,170710,,,A*44
$GPRMC,205259.000,A,3340.6172,N,11557.2407,W,61.79,281.76,170710,,,A*46
$GPRMC,205302.000,A,3340.6276,N,11557.3012,W,62.20,281.26,170710,,,A*45
$GPRMC,205305.000,A,3340.6379,N,11557.3621,W,62.04,281.53,170710,,,A*4E
$GPRMC,205308.000,A,3340.6484,N,11557.4227,W,61.97,281.61,170710,,,A*4B
$GPRMC,205311.000,A,3340.6589,N,11557.4833,W,62.07,281.76,170710,,,A*4C
$GPRMC,205314.000,A,3340.6690,N,11557.5439,W,61.56,281.70,170710,,,A*44
$GPRMC,205317.000,A,3340.6795,N,11557.6042,W,61.78,281.51,170710,,,A*47
$GPRMC,205320.000,A,3340.6898,N,11557.6647,W,61.91,281.59,170710,,,A*4D
$GPRMC,205323.000,A,3340.7003,N,11557.7250,W,61.77,281.64,170710,,,A*40
$GPRMC,205326.000,A,3340.7107,N,11557.7855,W,62.14,281.40,170710,,,A*4F
$GPRMC,205329.000,A,3340.7211,N,11557.8460,W,61.81,281.50,170710,,,A*4F
$GPRMC,205332.000,A,3340.7315,N,11557.9064,W,61.92,281.56,170710,,,A*45
$GPRMC,205335.000,A,3340.7421,N,11557.9670,W,62.22,281.77,170710,,,A*4A
$GPRMC,205338.000,A,3340.7527,N,11558.0275,W,61.99,281.76,170710,,,A*45
$GPRMC,205341.000,A,3340.7633,N,11558.0879,W,61.50,281.71,170710,,,A*49
$GPRMC,205344.000,A,3340.7734,N,11558.1479,W,61.06,281.63,170710,,,A*47
$GPRMC,205347.000,A,3340.7837,N,11558.2074,W,60.90,281.67,170710,,,A*48
$GPRMC,205350.000,A,3340.7939,N,11558.2668,W,60.84,281.48,170710,,,A*42
$GPRMC,205353.000,A,3340.8040,N,11558.3265,W,60.95,281.57,170710,,,A*4F
$GPRMC,205356.000,A,3340.8134,N,11558.3869,W,61.98,279.56,170710,,,A*44
$GPRMC,205359.000,A,3340.8208,N,11558.4482,W,62.38,277.16,170710,,,A*4A
$GPRMC,205402.000,A,3340.8260,N,11558.5098,W,61.90,274.27,170710,,,A*43
$GPRMC,205405.000,A,3340.8280,N,11558.5718,W,62.43,270.77,170710,,,A*49
$GPRMC,205408.000,A,3340.8263,N,11558.6346,W,62.28,267.61,170710,,,A*49
$GPRMC,205411.000,A,3340.8235,N,11558.6968,W,62.44,267.10,170710,,,A*48
$GPRMC,205414.000,A,3340.8204,N,11558.7589,W,62.25,266.50,170710,,,A*4F
$GPRMC,205417.000,A,3340.8171,N,11558.8213,W,62.67,266.83,170710,,,A*4E
$GPRMC,205420.000,A,3340.8143,N,11558.8839,W,62.82,267.12,170710,,,A*4B
$GPRMC,205423.000,A,3340.8112,N,11558.9466,W,62.86,266.40,170710,,,A*49
$GPRMC,205426.000,A,3340.8076,N,11559.0095,W,63.03,266.81,170710,,,A*4E
$GPRMC,205429.000,A,3340.8045,N,11559.0723,W,62.87,266.92,170710,,,A*44
$GPRMC,205432.000,A,3340.8014,N,11559.1353,W,63.25,267.00,170710,,,A*4B
$GPRMC,205435.000,A,3340.7991,N,11559.1976,W,62.31,267.68,170710,,,A*40
$GPRMC,205438.000,A,3340.7967,N,11559.2596,W,62.23,266.92,170710,,,A*42
$GPRMC,205441.000,A,3340.7939,N,11559.3214,W,61.79,266.92,170710,,,A*47
$GPRMC,205444.000,A,3340.7909,N,11559.3833,W,62.22,266.85,170710,,,A*45
$GPRMC,205447.000,A,3340.7879,N,11559.4453,W,62.33,266.63,170710,,,A*45
$GPRMC,205450.000,A,3340.7849,N,11559.5074,W,61.83,266.82,170710,,,A*47
$GPRMC,205453.000,A,3340.7817,N,11559.5687,W,61.16,266.53,170710,,,A*45
$GPRMC,205456.000,A,3340.7789,N,11559.6297,W,61.18,267.64,170710,,,A*45
$GPRMC,205459.000,A,3340.7784,N,11559.6908,W,61.39,271.59,170710,,,A*40
$GPRMC,205502.000,A,3340.7829,N,11559.7517,W,61.31,277.82,170710,,,A*4C
$GPRMC,205505.000,A,3340.7927,N,11559.8113,W,60.93,283.10,170710,,,A*42
$GPRMC,205508.000,A,3340.8056,N,11559.8706,W,61.03,284.90,170710,,,A*4A
$GPRMC,205511.000,A,3340.8190,N,11559.9294,W,61.07,284.90,170710,,,A*42
$GPRMC,205514.000,A,3340.8325,N,11559.9881,W,60.99,285.04,170710,,,A*4F
$GPRMC,205517.000,A,3340.8456,N,11600.0468,W,60.78,284.68,170710,,,A*46
$GPRMC,205520.000,A,3340.8587,N,11600.1055,W,60.67,284.80,170710,,,A*4C
$GPRMC,205523.000,A,3340.8720,N,11600.1643,W,61.11,284.85,170710,,,A*44
$GPRMC,205526.000,A,3340.8851,N,11600.2232,W,60.83,284.75,170710,,,A*4C
$GPRMC,205529.000,A,3340.8982,N,11600.2819,W,60.97,285.06,170710,,,A*4F
$GPRMC,205532.000,A,3340.9113,N,11600.3410,W,61.23,284.77,170710,,,A*49
$GPRMC,205535.000,A,3340.9245,N,11600.3999,W,61.12,285.02,170710,,,A*43
$GPRMC,205538.000,A,3340.9378,N,11600.4586,W,60.86,285.05,170710,,,A*4F
$GPRMC,205541.000,A,3340.9510,N,11600.5171,W,60.73,285.05,170710,,,A*4E
$GPRMC,205544.000,A,3340.9639,N,11600.5755,W,60.55,284.72,170710,,,A*46
$GPRMC,205547.000,A,3340.9766,N,11600.6341,W,60.62,284.74,170710,,,A*4E
$GPRMC,205550.000,A,3340.9896,N,11600.6927,W,60.93,285.08,170710,,,A*46
$GPRMC,205553.000,A,3341.0029,N,11600.7514,W,61.04,285.02,170710,,,A*49
$GPRMC,205556.000,A,3341.0157,N,11600.8102,W,60.80,284.80,170710,,,A*4E
$GPRMC,205559.000,A,3341.0288,N,11600.8688,W,60.78,285.09,170710,,,A*42
$GPRMC,205602.000,A,3341.0418,N,11600.9275,W,60.98,284.57,170710,,,A*43
$GPRMC,205605.000,A,3341.0546,N,11600.9866,W,61.24,284.32,170710,,,A*43
$GPRMC,205608.000,A,3341.0676,N,11601.0458,W,61.18,284.73,170710,,,A*4D
$GPRMC,205611.000,A,3341.0802,N,11601.1056,W,61.24,284.86,170710,,,A*46
$GPRMC,205614.000,A,3341.0933,N,11601.1648,W,61.18,284.77,170710,,,A*48
$GPRMC,205617.000,A,3341.1064,N,11601.2239,W,61.05,284.95,170710,,,A*40
$GPRMC,205620.000,A,3341.1196,N,11601.2827,W,61.24,285.02,170710,,,A*41
$GPRMC,205623.000,A,3341.1326,N,11601.3418,W,61.14,284.46,170710,,,A*48
$GPRMC,205626.000,A,3341.1453,N,11601.4012,W,61.41,284.61,170710,,,A*44
$GPRMC,205629.000,A,3341.1583,N,11601.4611,W,61.47,284.99,170710,,,A*43
$GPRMC,205632.000,A,3341.1720,N,11601.5210,W,61.96,285.80,170710,,,A*43
$GPRMC,205635.000,A,3341.1868,N,11601.5801,W,61.73,286.95,170710,,,A*41
$GPRMC,205638.000,A,3341.2019,N,11601.6389,W,61.17,287.07,170710,,,A*41
$GPRMC,205641.000,A,3341.2167,N,11601.6973,W,60.74,287.40,170710,,,A*4F
$GPRMC,205644.000,A,3341.2313,N,11601.7553,W,60.48,287.31,170710,,,A*4D
$GPRMC,205647.000,A,3341.2464,N,11601.8130,W,60.71,287.44,170710,,,A*4F
$GPRMC,205650.000,A,3341.2613,N,11601.8709,W,60.66,287.11,170710,,,A*41
$GPRMC,205653.000,A,3341.2764,N,11601.9288,W,60.85,287.57,170710,,,A*41
$GPRMC,205656.000,A,3341.2914,N,11601.9868,W,61.08,287.05,170710,,,A*4A
$GPRMC,205659.000,A,3341.3062,N,11602.0452,W,61.12,287.03,170710,,,A*4E
$GPRMC,205702.000,A,3341.3212,N,11602.1036,W,61.28,287.03,170710,,,A*4A
$GPRMC,205705.000,A,3341.3361,N,11602.1619,W,60.87,286.93,170710,,,A*4F
$GPRMC,205708.000,A,3341.3510,N,11602.2205,W,61.20,287.13,170710,,,A*4D
$GPRMC,205711.000,A,3341.3660,N,11602.2788,W,60.84,286.97,170710,,,A*43
$GPRMC,205714.000,A,3341.3809,N,11602.3374,W,61.35,286.75,170710,,,A*46
$GPRMC,205717.000,A,3341.3958,N,11602.3960,W,61.25,286.91,170710,,,A*44
$GPRMC,205720.000,A,3341.4107,N,11602.4545,W,61.22,286.95,170710,,,A*4A
$GPRMC,205723.000,A,3341.4257,N,11602.5130,W,61.21,287.29,170710,,,A*4D
$GPRMC,205726.000,A,3341.4408,N,11602.5714,W,61.21,287.32,170710,,,A*4E
$GPRMC,205729.000,A,3341.4557,N,11602.6296,W,60.96,287.11,170710,,,A*4A
$GPRMC,205732.000,A,3341.4703,N,11602.6876,W,60.42,286.89,170710,,,A*4E
$GPRMC,205735.000,A,3341.4851,N,11602.7455,W,60.90,286.93,170710,,,A*49
$GPRMC,205738.000,A,3341.4998,N,11602.8039,W,61.22,286.91,170710,,,A*4B
$GPRMC,205741.000,A,3341.5145,N,11602.8624,W,61.38,286.84,170710,,,A*49
$GPRMC,205744.000,A,3341.5296,N,11602.9210,W,61.18,287.41,170710,,,A*49
$GPRMC,205747.000,A,3341.5463,N,11602.9788,W,61.29,290.81,170710,,,A*4A
$GPRMC,205750.000,A,3341.5671,N,11603.0345,W,60.94,296.21,170710,,,A*4B
$GPRMC,205753.000,A,3341.5918,N,11603.0881,W,61.31,300.66,170710,,,A*48
$GPRMC,205756.000,A,3341.6185,N,11603.1404,W,61.34,301.37,170710,,,A*42
$GPRMC,205759.000,A,3341.6450,N,11603.1928,W,61.46,300.98,170710,,,A*42
$GPRMC,205802.000,A,3341.6716,N,11603.2454,W,61.29,301.32,170710,,,A*4F
$GPRMC,205805.000,A,3341.6983,N,11603.2976,W,61.39,301.37,170710,,,A*43
$GPRMC,205808.000,A,3341.7250,N,11603.3501,W,61.51,301.20,170710,,,A*4F
$GPRMC,205811.000,A,3341.7516,N,11603.4027,W,61.28,300.99,170710,,,A*49
$GPRMC,205814.000,A,3341.7780,N,11603.4550,W,61.39,301.09,170710,,,A*4C
$GPRMC,205817.000,A,3341.8046,N,11603.5077,W,61.76,301.04,170710,,,A*4A
$GPRMC,205820.000,A,3341.8312,N,11603.5604,W,61.25,301.40,170710,,,A*48
$GPRMC,205823.000,A,3341.8579,N,11603.6126,W,61.19,301.52,170710,,,A*48
$GPRMC,205826.000,A,3341.8841,N,11603.6652,W,61.35,300.31,170710,,,A*45
$GPRMC,205829.000,A,3341.9093,N,11603.7183,W,60.97,298.60,170710,,,A*4B
$GPRMC,205832.000,A,3341.9319,N,11603.7723,W,60.37,294.78,170710,,,A*43
$GPRMC,205835.000,A,3341.9513,N,11603.8281,W,60.36,291.39,170710,,,A*4B
$GPRMC,205838.000,A,3341.9681,N,11603.8845,W,60.37,288.33,170710,,,A*4F
$GPRMC,205841.000,A,3341.9823,N,11603.9427,W,60.72,284.91,170710,,,A*4B
$GPRMC,205844.000,A,3341.9932,N,11604.0016,W,60.71,280.85,170710,,,A*45
$GPRMC,205847.000,A,3342.0011,N,11604.0619,W,61.32,277.85,170710,,,A*43
$GPRMC,205850.000,A,3342.0066,N,11604.1227,W,61.49,275.03,170710,,,A*4D
$GPRMC,205853.000,A,3342.0103,N,11604.1846,W,61.64,274.51,170710,,,A*48
$GPRMC,205856.000,A,3342.0140,N,11604.2461,W,61.82,274.13,170710,,,A*4E
$GPRMC,205859.000,A,3342.0179,N,11604.3072,W,61.63,274.47,170710,,,A*42
$GPRMC,205902.000,A,3342.0217,N,11604.3682,W,61.21,274.69,170710,,,A*45
$GPRMC,205905.000,A,3342.0260,N,11604.4290,W,60.91,275.21,170710,,,A*45
$GPRMC,205908.000,A,3342.0305,N,11604.4893,W,60.93,274.72,170710,,,A*46
$GPRMC,205911.000,A,3342.0344,N,11604.5497,W,61.02,274.70,170710,,,A*49
$GPRMC,205914.000,A,3342.0391,N,11604.6104,W,60.88,275.43,170710,,,A*4A
$GPRMC,205917.000,A,3342.0436,N,11604.6711,W,61.12,274.90,170710,,,A*4C
$GPRMC,205920.000,A,3342.0475,N,11604.7320,W,61.43,274.38,170710,,,A*4E
$GPRMC,205923.000,A,3342.0503,N,11604.7936,W,61.68,272.53,170710,,,A*42
$GPRMC,205926.000,A,3342.0509,N,11604.8548,W,61.48,268.89,170710,,,A*49
$GPRMC,205929.000,A,3342.0477,N,11604.9158,W,61.78,265.22,170710,,,A*45
$GPRMC,205932.000,A,3342.0429,N,11604.9768,W,61.39,264.97,170710,,,A*4B
$GPRMC,205935.000,A,3342.0381,N,11605.0375,W,61.34,264.64,170710,,,A*48
$GPRMC,205938.000,A,3342.0329,N,11605.0985,W,61.52,264.07,170710,,,A*47
$GPRMC,205941.000,A,3342.0265,N,11605.1591,W,61.54,261.78,170710,,,A*43
$GPRMC,205944.000,A,3342.0186,N,11605.2196,W,61.44,261.14,170710,,,A*43
$GPRMC,205947.000,A,3342.0106,N,11605.2799,W,60.98,261.08,170710,,,A*4C
$GPRMC,205950.000,A,3342.0026,N,11605.3400,W,61.09,260.96,170710,,,A*44
$GPRMC,205953.000,A,3341.9942,N,11605.4002,W,61.41,260.57,170710,,,A*46
$GPRMC,205956.000,A,3341.9859,N,11605.4604,W,61.02,260.93,170710,,,A*47
$GPRMC,205959.000,A,3341.9779,N,11605.5207,W,61.35,261.02,170710,,,A*4E
$GPRMC,210002.000,A,3341.9696,N,11605.5810,W,61.28,260.52,170710,,,A*49
$GPRMC,210005.000,A,3341.9612,N,11605.6413,W,61.04,260.26,170710,,,A*43
$GPRMC,210008.000,A,3341.9522,N,11605.7015,W,61.29,259.83,170710,,,A*47
$GPRMC,210011.000,A,3341.9432,N,11605.7622,W,62.38,260.24,170710,,,A*49
$GPRMC,210014.000,A,3341.9349,N,11605.8236,W,62.09,260.97,170710,,,A*43
$GPRMC,210017.000,A,3341.9266,N,11605.8849,W,61.92,260.92,170710,,,A*4A
$GPRMC,210020.000,A,3341.9185,N,11605.9463,W,62.35,261.18,170710,,,A*48
$GPRMC,210023.000,A,3341.9114,N,11606.0078,W,61.90,263.90,170710,,,A*49
$GPRMC,210026.000,A,3341.9087,N,11606.0696,W,62.08,269.20,170710,,,A*42
$GPRMC,210029.000,A,3341.9103,N,11606.1325,W,62.30,274.94,170710,,,A*44
$GPRMC,210032.000,A,3341.9168,N,11606.1946,W,62.30,278.65,170710,,,A*4E
$GPRMC,210035.000,A,3341.9266,N,11606.2555,W,62.10,282.04,170710,,,A*49
$GPRMC,210038.000,A,3341.9382,N,11606.3160,W,62.08,282.72,170710,,,A*44
$GPRMC,210041.000,A,3341.9498,N,11606.3766,W,62.26,282.97,170710,,,A*41
$GPRMC,210044.000,A,3341.9627,N,11606.4380,W,62.36,282.70,170710,,,A*41
$GPRMC,210047.000,A,3341.9752,N,11606.4993,W,62.17,283.25,170710,,,A*4B
$GPRMC,210050.000,A,3341.9872,N,11606.5598,W,61.95,282.82,170710,,,A*43
$GPRMC,210053.000,A,3341.9980,N,11606.6201,W,61.88,281.83,170710,,,A*46
$GPRMC,210056.000,A,3342.0086,N,11606.6814,W,61.97,282.31,170710,,,A*4C
$GPRMC,210059.000,A,3342.0197,N,11606.7419,W,62.12,282.49,170710,,,A*43
$GPRMC,210102.000,A,3342.0312,N,11606.8024,W,62.39,283.08,170710,,,A*4B
$GPRMC,210105.000,A,3342.0428,N,11606.8629,W,61.77,283.19,170710,,,A*40
$GPRMC,210108.000,A,3342.0544,N,11606.9219,W,60.88,283.06,170710,,,A*4F
$GPRMC,210111.000,A,3342.0658,N,11606.9813,W,60.88,283.32,170710,,,A*4E
$GPRMC,210114.000,A,3342.0771,N,11607.0415,W,61.63,283.00,170710,,,A*46
$GPRMC,210117.000,A,3342.0883,N,11607.1011,W,60.44,282.66,170710,,,A*43
$GPRMC,210120.000,A,3342.0994,N,11607.1597,W,59.98,282.96,170710,,,A*4F
$GPRMC,210123.000,A,3342.1107,N,11607.2161,W,57.84,282.89,170710,,,A*4C
$GPRMC,210126.000,A,3342.1215,N,11607.2731,W,59.84,283.87,170710,,,A*4B
$GPRMC,210129.000,A,3342.1339,N,11607.3320,W,61.36,283.78,170710,,,A*4C
$GPRMC,210132.000,A,3342.1455,N,11607.3916,W,60.81,282.82,170710,,,A*4D
$GPRMC,210135.000,A,3342.1566,N,11607.4505,W,60.78,282.87,170710,,,A*41
$GPRMC,210138.000,A,3342.1677,N,11607.5102,W,61.78,282.74,170710,,,A*40
$GPRMC,210141.000,A,3342.1792,N,11607.5709,W,62.91,282.71,170710,,,A*48
$GPRMC,210144.000,A,3342.1913,N,11607.6320,W,62.57,284.30,170710,,,A*4F
$GPRMC,210147.000,A,3342.2059,N,11607.6918,W,62.18,288.50,170710,,,A*48
$GPRMC,210150.000,A,3342.2232,N,11607.7504,W,61.96,290.35,170710,,,A*4E
$GPRMC,210153.000,A,3342.2413,N,11607.8084,W,62.33,290.62,170710,,,A*44
$GPRMC,210156.000,A,3342.2601,N,11607.8666,W,61.89,291.31,170710,,,A*4F
$GPRMC,210159.000,A,3342.2789,N,11607.9229,W,59.93,292.30,170710,,,A*4D
$GPRMC,210202.000,A,3342.2971,N,11607.9777,W,58.43,290.96,170710,,,A*45
$GPRMC,210205.000,A,3342.3139,N,11608.0322,W,58.49,289.71,170710,,,A*4E
$GPRMC,210208.000,A,3342.3301,N,11608.0876,W,59.08,288.75,170710,,,A*41
$GPRMC,210211.000,A,3342.3462,N,11608.1440,W,59.47,288.79,170710,,,A*44
$GPRMC,210214.000,A,3342.3620,N,11608.1997,W,58.57,288.93,170710,,,A*46
$GPRMC,210217.000,A,3342.3783,N,11608.2557,W,59.79,289.12,170710,,,A*4B
$GPRMC,210220.000,A,3342.3953,N,11608.3128,W,61.49,290.15,170710,,,A*46
$GPRMC,210223.000,A,3342.4127,N,11608.3709,W,61.45,289.41,170710,,,A*49
$GPRMC,210226.000,A,3342.4293,N,11608.4292,W,61.68,288.72,170710,,,A*4E
$GPRMC,210229.000,A,3342.4458,N,11608.4873,W,60.95,288.87,170710,,,A*4C
$GPRMC,210232.000,A,3342.4623,N,11608.5450,W,61.00,288.72,170710,,,A*43
$GPRMC,210235.000,A,3342.4786,N,11608.6027,W,61.08,288.71,170710,,,A*46
$GPRMC,210238.000,A,3342.4948,N,11608.6612,W,61.17,288.84,170710,,,A*43
$GPRMC,210241.000,A,3342.5112,N,11608.7192,W,61.54,288.55,170710,,,A*4E
$GPRMC,210244.000,A,3342.5275,N,11608.7777,W,61.97,288.44,170710,,,A*4B
$GPRMC,210247.000,A,3342.5440,N,11608.8367,W,62.16,288.76,170710,,,A*49
$GPRMC,210250.000,A,3342.5609,N,11608.8952,W,61.95,289.39,170710,,,A*4E
$GPRMC,210253.000,A,3342.5781,N,11608.9536,W,62.08,289.54,170710,,,A*4F
$GPRMC,210256.000,A,3342.5956,N,11609.0117,W,61.88,289.75,170710,,,A*49
$GPRMC,210259.000,A,3342.6131,N,11609.0697,W,61.64,289.84,170710,,,A*4F
$GPRMC,210302.000,A,3342.6305,N,11609.1274,W,61.37,289.79,170710,,,A*49
$GPRMC,210305.000,A,3342.6478,N,11609.1851,W,61.45,289.95,170710,,,A*49
$GPRMC,210308.000,A,3342.6653,N,11609.2427,W,61.39,289.78,170710,,,A*49
$GPRMC,210311.000,A,3342.6827,N,11609.3003,W,61.44,289.79,170710,,,A*44
$GPRMC,210314.000,A,3342.7000,N,11609.3580,W,61.57,289.77,170710,,,A*4F
$GPRMC,210317.000,A,3342.7174,N,11609.4158,W,61.49,289.87,170710,,,A*48
$GPRMC,210320.000,A,3342.7347,N,11609.4737,W,61.08,289.96,170710,,,A*44
$GPRMC,210323.000,A,3342.7520,N,11609.5316,W,61.28,289.80,170710,,,A*43
$GPRMC,210326.000,A,3342.7692,N,11609.5894,W,61.32,289.68,170710,,,A*40
$GPRMC,210329.000,A,3342.7866,N,11609.6472,W,61.43,289.92,170710,,,A*4E
$GPRMC,210332.000,A,3342.8039,N,11609.7051,W,61.46,289.83,170710,,,A*48
$GPRMC,210335.000,A,3342.8214,N,11609.7630,W,61.67,289.79,170710,,,A*45
$GPRMC,210338.000,A,3342.8387,N,11609.8209,W,61.36,289.86,170710,,,A*46
$GPRMC,210341.000,A,3342.8560,N,11609.8789,W,61.59,289.91,170710,,,A*45
$GPRMC,210344.000,A,3342.8735,N,11609.9369,W,61.70,289.67,170710,,,A*4B
$GPRMC,210347.000,A,3342.8897,N,11609.9953,W,61.81,286.60,170710,,,A*4A
$GPRMC,210350.000,A,3342.9022,N,11610.0550,W,61.41,282.08,170710,,,A*43
$GPRMC,210353.000,A,3342.9107,N,11610.1153,W,61.50,277.79,170710,,,A*4C
$GPRMC,210356.000,A,3342.9157,N,11610.1762,W,61.29,273.86,170710,,,A*42
$GPRMC,210359.000,A,3342.9170,N,11610.2373,W,61.20,270.34,170710,,,A*4C
$GPRMC,210402.000,A,3342.9168,N,11610.2985,W,61.52,269.94,170710,,,A*48
$GPRMC,210405.000,A,3342.9165,N,11610.3600,W,61.60,270.00,170710,,,A*45
$GPRMC,210408.000,A,3342.9163,N,11610.4216,W,61.82,269.94,170710,,,A*43
$GPRMC,210411.000,A,3342.9160,N,11610.4834,W,61.97,269.95,170710,,,A*47
$GPRMC,210414.000,A,3342.9159,N,11610.5449,W,61.27,270.11,170710,,,A*40
$GPRMC,210417.000,A,3342.9159,N,11610.6060,W,61.01,270.28,170710,,,A*41
$GPRMC,210420.000,A,3342.9159,N,11610.6670,W,61.02,269.89,170710,,,A*42
$GPRMC,210423.000,A,3342.9158,N,11610.7281,W,61.19,269.92,170710,,,A*4B
$GPRMC,210426.000,A,3342.9156,N,11610.7890,W,60.97,269.94,170710,,,A*4B
$GPRMC,210429.000,A,3342.9155,N,11610.8499,W,60.76,270.10,170710,,,A*46
$GPRMC,210432.000,A,3342.9155,N,11610.9102,W,60.10,270.04,170710,,,A*4F
$GPRMC,210435.000,A,3342.9154,N,11610.9701,W,60.03,270.06,170710,,,A*4C
$GPRMC,210438.000,A,3342.9156,N,11611.0301,W,60.13,270.83,170710,,,A*43
$GPRMC,210441.000,A,3342.9180,N,11611.0903,W,60.66,275.41,170710,,,A*47
$GPRMC,210444.000,A,3342.9248,N,11611.1502,W,60.76,279.96,170710,,,A*4E
$GPRMC,210447.000,A,3342.9353,N,11611.2095,W,61.00,283.92,170710,,,A*4F
$GPRMC,210450.000,A,3342.9493,N,11611.2681,W,61.00,288.34,170710,,,A*46
$GPRMC,210453.000,A,3342.9676,N,11611.3251,W,61.08,292.97,170710,,,A*4E
$GPRMC,210456.000,A,3342.9896,N,11611.3802,W,61.07,297.28,170710,,,A*49
$GPRMC,210459.000,A,3343.0148,N,11611.4331,W,60.52,301.57,170710,,,A*4F
$GPRMC,210502.000,A,3343.0434,N,11611.4830,W,60.53,306.20,170710,,,A*42
$GPRMC,210505.000,A,3343.0752,N,11611.5299,W,60.51,310.64,170710,,,A*4B
$GPRMC,210508.000,A,3343.1100,N,11611.5743,W,60.60,314.09,170710,,,A*49
$GPRMC,210511.000,A,3343.1458,N,11611.6175,W,60.74,314.45,170710,,,A*44
$GPRMC,210514.000,A,3343.1818,N,11611.6605,W,60.71,315.18,170710,,,A*45
$GPRMC,210517.000,A,3343.2189,N,11611.7022,W,60.63,317.75,170710,,,A*4C
$GPRMC,210520.000,A,3343.2568,N,11611.7428,W,60.65,317.86,170710,,,A*47
$GPRMC,210523.000,A,3343.2947,N,11611.7834,W,60.50,318.10,170710,,,A*42
$GPRMC,210526.000,A,3343.3325,N,11611.8239,W,60.70,318.04,170710,,,A*47
$GPRMC,210529.000,A,3343.3705,N,11611.8642,W,60.76,318.67,170710,,,A*45
$GPRMC,210532.000,A,3343.4087,N,11611.9043,W,60.67,318.48,170710,,,A*4E
$GPRMC,210535.000,A,3343.4469,N,11611.9444,W,60.71,318.79,170710,,,A*4B
$GPRMC,210538.000,A,3343.4851,N,11611.9846,W,60.76,318.49,170710,,,A*4B
$GPRMC,210541.000,A,3343.5227,N,11612.0251,W,60.55,317.12,170710,,,A*49
$GPRMC,210544.000,A,3343.5590,N,11612.0675,W,60.54,314.40,170710,,,A*40
$GPRMC,210547.000,A,3343.5937,N,11612.1116,W,60.56,312.26,170710,,,A*45
$GPRMC,210550.000,A,3343.6268,N,11612.1570,W,60.51,310.50,170710,,,A*41
$GPRMC,210553.000,A,3343.6594,N,11612.2031,W,60.33,310.35,170710,,,A*42
$GPRMC,210556.000,A,3343.6920,N,11612.2491,W,60.59,310.34,170710,,,A*47
$GPRMC,210559.000,A,3343.7248,N,11612.2951,W,60.65,310.74,170710,,,A*46
$GPRMC,210602.000,A,3343.7582,N,11612.3408,W,60.79,312.13,170710,,,A*44
$GPRMC,210605.000,A,3343.7933,N,11612.3850,W,61.00,314.49,170710,,,A*42
$GPRMC,210608.000,A,3343.8295,N,11612.4280,W,60.98,316.08,170710,,,A*40
$GPRMC,210611.000,A,3343.8670,N,11612.4696,W,61.11,318.23,170710,,,A*43
$GPRMC,210614.000,A,3343.9057,N,11612.5093,W,60.82,320.31,170710,,,A*45
$GPRMC,210617.000,A,3343.9456,N,11612.5476,W,61.15,321.72,170710,,,A*45
$GPRMC,210620.000,A,3343.9857,N,11612.5853,W,60.83,321.68,170710,,,A*42
$GPRMC,210623.000,A,3344.0256,N,11612.6232,W,60.94,321.61,170710,,,A*45
$GPRMC,210626.000,A,3344.0656,N,11612.6608,W,60.95,321.81,170710,,,A*46
$GPRMC,210629.000,A,3344.1056,N,11612.6984,W,60.81,321.78,170710,,,A*46
$GPRMC,210632.000,A,3344.1449,N,11612.7365,W,60.10,319.13,170710,,,A*4C
$GPRMC,210635.000,A,3344.1812,N,11612.7785,W,60.73,312.94,170710,,,A*42
$GPRMC,210638.000,A,3344.2139,N,11612.8245,W,60.58,307.83,170710,,,A*41
$GPRMC,210641.000,A,3344.2428,N,11612.8740,W,60.51,302.02,170710,,,A*4F
$GPRMC,210644.000,A,3344.2670,N,11612.9273,W,60.56,295.75,170710,,,A*49
$GPRMC,210647.000,A,3344.2863,N,11612.9834,W,60.27,290.39,170710,,,A*44
$GPRMC,210650.000,A,3344.3013,N,11613.0414,W,60.38,284.92,170710,,,A*40
$GPRMC,210653.000,A,3344.3111,N,11613.1005,W,60.28,279.04,170710,,,A*49
$GPRMC,210656.000,A,3344.3165,N,11613.1606,W,60.86,275.66,170710,,,A*46
$GPRMC,210659.000,A,3344.3210,N,11613.2211,W,60.76,275.44,170710,,,A*46
$GPRMC,210702.000,A,3344.3253,N,11613.2816,W,60.84,275.21,170710,,,A*4D
$GPRMC,210705.000,A,3344.3299,N,11613.3419,W,60.59,275.44,170710,,,A*4D
$GPRMC,210708.000,A,3344.3342,N,11613.4024,W,60.75,275.23,170710,,,A*45
$GPRMC,210711.000,A,3344.3388,N,11613.4627,W,60.70,275.30,170710,,,A*49
$GPRMC,210714.000,A,3344.3434,N,11613.5231,W,60.50,275.73,170710,,,A*4B
$GPRMC,210717.000,A,3344.3482,N,11613.5834,W,60.65,275.39,170710,,,A*42
$GPRMC,210720.000,A,3344.3528,N,11613.6437,W,60.68,275.38,170710,,,A*47
$GPRMC,210723.000,A,3344.3574,N,11613.7041,W,60.61,275.38,170710,,,A*40
$GPRMC,210726.000,A,3344.3621,N,11613.7644,W,60.64,275.70,170710,,,A*4C
$GPRMC,210729.000,A,3344.3668,N,11613.8248,W,60.64,275.59,170710,,,A*42
$GPRMC,210732.000,A,3344.3715,N,11613.8853,W,60.81,275.53,170710,,,A*42
$GPRMC,210735.000,A,3344.3764,N,11613.9457,W,60.68,275.40,170710,,,A*4F
$GPRMC,210738.000,A,3344.3803,N,11614.0061,W,60.70,272.70,170710,,,A*4E
$GPRMC,210741.000,A,3344.3792,N,11614.0666,W,60.50,265.20,170710,,,A*47
$GPRMC,210744.000,A,3344.3723,N,11614.1267,W,60.87,260.28,170710,,,A*4B
$GPRMC,210747.000,A,3344.3615,N,11614.1862,W,60.84,257.06,170710,,,A*48
$GPRMC,210750.000,A,3344.3496,N,11614.2456,W,60.76,256.64,170710,,,A*47
$GPRMC,210753.000,A,3344.3377,N,11614.3049,W,60.74,256.77,170710,,,A*47
$GPRMC,210756.000,A,3344.3261,N,11614.3642,W,60.84,257.78,170710,,,A*48
$GPRMC,210759.000,A,3344.3164,N,11614.4240,W,60.75,260.79,170710,,,A*4B
$GPRMC,210802.000,A,3344.3096,N,11614.4842,W,60.74,263.81,170710,,,A*4B
$GPRMC,210805.000,A,3344.3054,N,11614.5447,W,60.54,266.84,170710,,,A*48
$GPRMC,210808.000,A,3344.3038,N,11614.6054,W,60.92,269.49,170710,,,A*4E
$GPRMC,210811.000,A,3344.3048,N,11614.6661,W,60.61,272.80,170710,,,A*42
$GPRMC,210814.000,A,3344.3087,N,11614.7264,W,60.65,275.67,170710,,,A*4E
$GPRMC,210817.000,A,3344.3151,N,11614.7864,W,60.65,278.52,170710,,,A*46
$GPRMC,210820.000,A,3344.3241,N,11614.8455,W,59.99,281.44,170710,,,A*49
$GPRMC,210823.000,A,3344.3356,N,11614.9037,W,59.91,284.59,170710,,,A*4D
$GPRMC,210826.000,A,3344.3496,N,11614.9610,W,59.54,287.39,170710,,,A*4C
$GPRMC,210829.000,A,3344.3657,N,11615.0173,W,58.91,290.34,170710,,,A*45
$GPRMC,210832.000,A,3344.3841,N,11615.0719,W,58.74,293.23,170710,,,A*42
$GPRMC,210835.000,A,3344.4047,N,11615.1256,W,60.06,295.69,170710,,,A*45
$GPRMC,210838.000,A,3344.4285,N,11615.1812,W,64.36,297.67,170710,,,A*45
$GPRMC,210841.000,A,3344.4550,N,11615.2375,W,64.13,300.29,170710,,,A*4F
$GPRMC,210844.000,A,3344.4827,N,11615.2925,W,63.89,300.82,170710,,,A*4D
$GPRMC,210847.000,A,3344.5102,N,11615.3470,W,63.41,300.89,170710,,,A*42
$GPRMC,210850.000,A,3344.5377,N,11615.4013,W,63.10,301.57,170710,,,A*44
$GPRMC,210853.000,A,3344.5658,N,11615.4549,W,63.18,301.69,170710,,,A*40
$GPRMC,210856.000,A,3344.5936,N,11615.5088,W,63.15,301.03,170710,,,A*4A
$GPRMC,210859.000,A,3344.6214,N,11615.5632,W,62.68,300.77,170710,,,A*43
$GPRMC,210902.000,A,3344.6489,N,11615.6175,W,63.32,301.20,170710,,,A*44
$GPRMC,210905.000,A,3344.6762,N,11615.6712,W,62.38,301.03,170710,,,A*48
$GPRMC,210908.000,A,3344.7035,N,11615.7245,W,62.27,302.55,170710,,,A*49
$GPRMC,210911.000,A,3344.7334,N,11615.7755,W,62.13,307.28,170710,,,A*4F
$GPRMC,210914.000,A,3344.7668,N,11615.8233,W,62.15,311.71,170710,,,A*41
$GPRMC,210917.000,A,3344.8030,N,11615.8685,W,62.32,315.50,170710,,,A*4D
$GPRMC,210920.000,A,3344.8409,N,11615.9117,W,62.54,316.41,170710,,,A*49
$GPRMC,210923.000,A,3344.8783,N,11615.9551,W,62.15,314.99,170710,,,A*4F
$GPRMC,210926.000,A,3344.9132,N,11616.0007,W,62.11,308.46,170710,,,A*40
$GPRMC,210929.000,A,3344.9431,N,11616.0515,W,62.43,302.56,170710,,,A*43
$GPRMC,210932.000,A,3344.9684,N,11616.1061,W,62.33,296.40,170710,,,A*4E
$GPRMC,210935.000,A,3344.9888,N,11616.1638,W,62.34,290.25,170710,,,A*43
$GPRMC,210938.000,A,3345.0038,N,11616.2236,W,62.18,284.55,170710,,,A*40
$GPRMC,210941.000,A,3345.0139,N,11616.2848,W,62.57,279.66,170710,,,A*44
$GPRMC,210944.000,A,3345.0219,N,11616.3464,W,62.37,279.23,170710,,,A*44
$GPRMC,210947.000,A,3345.0309,N,11616.4079,W,62.46,282.16,170710,,,A*4C
$GPRMC,210950.000,A,3345.0443,N,11616.4681,W,62.17,288.24,170710,,,A*4D
$GPRMC,210953.000,A,3345.0631,N,11616.5262,W,62.22,294.27,170710,,,A*49
$GPRMC,210956.000,A,3345.0854,N,11616.5824,W,62.06,296.00,170710,,,A*48
$GPRMC,210959.000,A,3345.1082,N,11616.6384,W,62.34,295.98,170710,,,A*44
$GPRMC,211002.000,A,3345.1310,N,11616.6944,W,62.25,295.88,170710,,,A*4D
$GPRMC,211005.000,A,3345.1538,N,11616.7506,W,62.51,296.03,170710,,,A*4E
$GPRMC,211008.000,A,3345.1767,N,11616.8069,W,62.41,295.78,170710,,,A*46
$GPRMC,211011.000,A,3345.1996,N,11616.8631,W,62.48,295.86,170710,,,A*4D
$GPRMC,211014.000,A,3345.2223,N,11616.9192,W,62.35,295.69,170710,,,A*4A
$GPRMC,211017.000,A,3345.2452,N,11616.9753,W,62.15,295.62,170710,,,A*4B
$GPRMC,211020.000,A,3345.2678,N,11617.0314,W,62.70,295.77,170710,,,A*4D
$GPRMC,211023.000,A,3345.2906,N,11617.0878,W,62.56,295.58,170710,,,A*40
$GPRMC,211026.000,A,3345.3128,N,11617.1446,W,62.91,294.09,170710,,,A*4E
$GPRMC,211029.000,A,3345.3334,N,11617.2025,W,62.42,292.10,170710,,,A*4C
$GPRMC,211032.000,A,3345.3523,N,11617.2606,W,62.03,290.97,170710,,,A*49
$GPRMC,211035.000,A,3345.3700,N,11617.3189,W,62.22,289.78,170710,,,A*46
$GPRMC,211038.000,A,3345.3874,N,11617.3777,W,62.32,289.74,170710,,,A*4D
$GPRMC,211041.000,A,3345.4051,N,11617.4363,W,62.31,289.89,170710,,,A*4C
$GPRMC,211044.000,A,3345.4229,N,11617.4951,W,62.54,289.78,170710,,,A*42
$GPRMC,211047.000,A,3345.4406,N,11617.5537,W,62.17,290.05,170710,,,A*42
$GPRMC,211050.000,A,3345.4581,N,11617.6122,W,62.35,289.68,170710,,,A*4A
$GPRMC,211053.000,A,3345.4759,N,11617.6709,W,62.44,290.00,170710,,,A*41
$GPRMC,211056.000,A,3345.4938,N,11617.7297,W,62.41,290.06,170710,,,A*4D
$GPRMC,211059.000,A,3345.5123,N,11617.7879,W,62.35,292.34,170710,,,A*4B
$GPRMC,211102.000,A,3345.5342,N,11617.8445,W,62.57,296.83,170710,,,A*41
$GPRMC,211105.000,A,3345.5587,N,11617.8995,W,62.32,298.91,170710,,,A*47
$GPRMC,211108.000,A,3345.5837,N,11617.9543,W,62.31,298.23,170710,,,A*40
$GPRMC,211111.000,A,3345.6076,N,11618.0096,W,62.25,295.74,170710,,,A*47
$GPRMC,211114.000,A,3345.6279,N,11618.0669,W,62.23,291.60,170710,,,A*4E
$GPRMC,211117.000,A,3345.6460,N,11618.1246,W,62.18,288.48,170710,,,A*41
$GPRMC,211120.000,A,3345.6605,N,11618.1847,W,62.10,285.16,170710,,,A*41
$GPRMC,211123.000,A,3345.6720,N,11618.2457,W,62.49,281.78,170710,,,A*4A
$GPRMC,211126.000,A,3345.6818,N,11618.3069,W,61.79,281.47,170710,,,A*4F
$GPRMC,211129.000,A,3345.6920,N,11618.3672,W,61.10,282.57,170710,,,A*4B
$GPRMC,211132.000,A,3345.7043,N,11618.4253,W,59.02,286.01,170710,,,A*43
$GPRMC,211135.000,A,3345.7190,N,11618.4800,W,56.49,289.56,170710,,,A*4A
$GPRMC,211138.000,A,3345.7351,N,11618.5329,W,56.57,289.99,170710,,,A*45
$GPRMC,211141.000,A,3345.7509,N,11618.5866,W,58.46,288.36,170710,,,A*4A
$GPRMC,211144.000,A,3345.7670,N,11618.6446,W,62.82,288.89,170710,,,A*4A
$GPRMC,211147.000,A,3345.7847,N,11618.7042,W,63.55,289.99,170710,,,A*49
$GPRMC,211150.000,A,3345.8028,N,11618.7640,W,63.72,290.08,170710,,,A*40
$GPRMC,211153.000,A,3345.8215,N,11618.8237,W,63.71,291.18,170710,,,A*47
$GPRMC,211156.000,A,3345.8406,N,11618.8830,W,63.33,290.72,170710,,,A*40
$GPRMC,211159.000,A,3345.8587,N,11618.9419,W,62.75,289.85,170710,,,A*42
$GPRMC,211202.000,A,3345.8766,N,11619.0009,W,62.89,289.87,170710,,,A*4E
$GPRMC,211205.000,A,3345.8948,N,11619.0603,W,63.28,291.12,170710,,,A*48
$GPRMC,211208.000,A,3345.9155,N,11619.1184,W,63.22,294.52,170710,,,A*42
$GPRMC,211211.000,A,3345.9388,N,11619.1754,W,62.78,297.38,170710,,,A*42
$GPRMC,211214.000,A,3345.9642,N,11619.2306,W,63.15,299.23,170710,,,A*4A
$GPRMC,211217.000,A,3345.9908,N,11619.2852,W,62.81,300.68,170710,,,A*40
$GPRMC,211220.000,A,3346.0184,N,11619.3386,W,62.82,302.18,170710,,,A*47
$GPRMC,211223.000,A,3346.0474,N,11619.3910,W,62.89,304.00,170710,,,A*4F
$GPRMC,211226.000,A,3346.0776,N,11619.4425,W,62.74,305.21,170710,,,A*47
$GPRMC,211229.000,A,3346.1082,N,11619.4931,W,62.42,305.80,170710,,,A*43
$GPRMC,211232.000,A,3346.1385,N,11619.5435,W,61.67,305.39,170710,,,A*43
$GPRMC,211235.000,A,3346.1686,N,11619.5939,W,62.19,305.16,170710,,,A*44
$GPRMC,211238.000,A,3346.1988,N,11619.6445,W,62.29,305.48,170710,,,A*45
$GPRMC,211241.000,A,3346.2293,N,11619.6951,W,62.60,305.52,170710,,,A*47
$GPRMC,211244.000,A,3346.2596,N,11619.7460,W,62.63,305.25,170710,,,A*4D
$GPRMC,211247.000,A,3346.2899,N,11619.7970,W,62.27,305.41,170710,,,A*42
$GPRMC,211250.000,A,3346.3202,N,11619.8480,W,62.61,305.60,170710,,,A*41
$GPRMC,211253.000,A,3346.3505,N,11619.8990,W,62.24,305.49,170710,,,A*44
$GPRMC,211256.000,A,3346.3812,N,11619.9500,W,62.94,305.63,170710,,,A*4D
$GPRMC,211259.000,A,3346.4118,N,11620.0013,W,63.00,305.44,170710,,,A*4B
$GPRMC,211302.000,A,3346.4423,N,11620.0527,W,62.77,305.38,170710,,,A*41
$GPRMC,211305.000,A,3346.4727,N,11620.1040,W,62.28,305.53,170710,,,A*43
$GPRMC,211308.000,A,3346.5026,N,11620.1546,W,61.52,305.38,170710,,,A*49
$GPRMC,211311.000,A,3346.5321,N,11620.2044,W,61.41,305.23,170710,,,A*49
$GPRMC,211314.000,A,3346.5617,N,11620.2545,W,61.83,305.24,170710,,,A*41
$GPRMC,211317.000,A,3346.5915,N,11620.3048,W,61.75,305.52,170710,,,A*4E
$GPRMC,211320.000,A,3346.6214,N,11620.3546,W,61.06,305.63,170710,,,A*4E
$GPRMC,211323.000,A,3346.6509,N,11620.4039,W,60.80,305.36,170710,,,A*43
$GPRMC,211326.000,A,3346.6803,N,11620.4535,W,61.10,305.24,170710,,,A*43
$GPRMC,211329.000,A,3346.7099,N,11620.5035,W,61.28,305.44,170710,,,A*4F
$GPRMC,211332.000,A,3346.7399,N,11620.5536,W,61.48,305.62,170710,,,A*42
$GPRMC,211335.000,A,3346.7697,N,11620.6035,W,61.67,305.34,170710,,,A*45
$GPRMC,211338.000,A,3346.7993,N,11620.6534,W,61.32,305.28,170710,,,A*4A
$GPRMC,211341.000,A,3346.8292,N,11620.7035,W,61.50,305.64,170710,,,A*48
$GPRMC,211344.000,A,3346.8591,N,11620.7536,W,61.73,305.36,170710,,,A*49
$GPRMC,211347.000,A,3346.8890,N,11620.8039,W,61.97,305.30,170710,,,A*4F
$GPRMC,211350.000,A,3346.9188,N,11620.8543,W,61.63,305.47,170710,,,A*4B
$GPRMC,211353.000,A,3346.9487,N,11620.9044,W,61.54,305.31,170710,,,A*44
$GPRMC,211356.000,A,3346.9785,N,11620.9544,W,61.48,305.59,170710,,,A*46
$GPRMC,211359.000,A,3347.0084,N,11621.0044,W,61.35,305.51,170710,,,A*48
$GPRMC,211402.000,A,3347.0381,N,11621.0546,W,61.56,305.25,170710,,,A*46
$GPRMC,211405.000,A,3347.0678,N,11621.1047,W,61.35,305.64,170710,,,A*47
$GPRMC,211408.000,A,3347.0969,N,11621.1535,W,58.72,305.44,170710,,,A*4E
$GPRMC,211411.000,A,3347.1248,N,11621.2006,W,57.23,305.29,170710,,,A*49
