NMEA Sentence Code,UTC Time,Status,Latitude,Latitude Direction,Longitude,Longitude Direction,Speed (knots),Track Angle (degrees true),Date,MagneticVariation,Magnetic Variation Direction,[FAA Mode]-Optional,Checksum
$GPRMC,223551.000,A,3342.3455,N,11608.2433,W,51.87,111.18,210110,,*2A
$GPRMC,223554.000,A,3342.3298,N,11608.1952,W,52.10,111.61,210110,,*22
$GPRMC,223557.000,A,3342.3140,N,11608.1467,W,52.45,111.52,210110,,*2C
$GPRMC,223600.000,A,3342.2979,N,11608.0980,W,52.78,111.77,210110,,*22
$GPRMC,223603.000,A,3342.2817,N,11608.0490,W,53.11,111.44,210110,,*2A
$GPRMC,223606.000,A,3342.2656,N,11607.9997,W,53.48,111.42,210110,,*22
$GPRMC,223609.000,A,3342.2495,N,11607.9501,W,53.38,111.44,210110,,*22
$GPRMC,223612.000,A,3342.2333,N,11607.9008,W,53.18,111.61,210110,,*2A
$GPRMC,223615.000,A,3342.2171,N,11607.8516,W,53.21,111.77,210110,,*2F
$GPRMC,223618.000,A,3342.2007,N,11607.8024,W,53.31,111.83,210110,,*2C
$GPRMC,223621.000,A,3342.1842,N,11607.7531,W,53.29,112.02,210110,,*21
$GPRMC,223624.000,A,3342.1685,N,11607.7035,W,53.22,109.81,210110,,*2A
$GPRMC,223627.000,A,3342.1546,N,11607.6530,W,53.42,106.96,210110,,*2B
$GPRMC,223630.000,A,3342.1429,N,11607.6019,W,52.82,104.63,210110,,*2E
$GPRMC,223633.000,A,3342.1324,N,11607.5506,W,52.19,103.15,210110,,*2B
$GPRMC,223636.000,A,3342.1228,N,11607.4991,W,51.50,102.92,210110,,*20
$GPRMC,223639.000,A,3342.1140,N,11607.4474,W,50.83,102.68,210110,,*2E
$GPRMC,223642.000,A,3342.1055,N,11607.3964,W,50.14,102.63,210110,,*29
$GPRMC,223645.000,A,3342.0968,N,11607.3468,W,49.32,102.83,210110,,*2B
$GPRMC,223648.000,A,3342.0878,N,11607.2983,W,48.55,103.08,210110,,*2D
$GPRMC,223651.000,A,3342.0791,N,11607.2509,W,47.74,102.46,210110,,*24
$GPRMC,223654.000,A,3342.0706,N,11607.2045,W,47.05,102.62,210110,,*22
$GPRMC,223657.000,A,3342.0622,N,11607.1586,W,46.89,102.54,210110,,*2F
$GPRMC,223700.000,A,3342.0538,N,11607.1125,W,47.06,102.39,210110,,*24
$GPRMC,223703.000,A,3342.0453,N,11607.0663,W,47.44,102.56,210110,,*20
$GPRMC,223706.000,A,3342.0368,N,11607.0199,W,47.74,102.44,210110,,*28
$GPRMC,223709.000,A,3342.0281,N,11606.9730,W,48.08,102.71,210110,,*2E
$GPRMC,223712.000,A,3342.0193,N,11606.9259,W,48.34,102.58,210110,,*2A
$GPRMC,223715.000,A,3342.0106,N,11606.8786,W,48.61,102.61,210110,,*2D
$GPRMC,223718.000,A,3342.0017,N,11606.8313,W,48.60,102.81,210110,,*26
$GPRMC,223721.000,A,3341.9928,N,11606.7837,W,48.91,102.68,210110,,*28
$GPRMC,223724.000,A,3341.9837,N,11606.7363,W,48.42,103.49,210110,,*24
$GPRMC,223727.000,A,3341.9747,N,11606.6897,W,47.23,103.17,210110,,*2D
$GPRMC,223730.000,A,3341.9662,N,11606.6446,W,46.00,103.05,210110,,*2E
$GPRMC,223733.000,A,3341.9578,N,11606.6003,W,44.81,102.80,210110,,*27
$GPRMC,223736.000,A,3341.9500,N,11606.5574,W,43.52,102.64,210110,,*28
$GPRMC,223739.000,A,3341.9422,N,11606.5155,W,42.28,103.05,210110,,*2B
$GPRMC,223742.000,A,3341.9348,N,11606.4750,W,41.02,102.33,210110,,*21
$GPRMC,223745.000,A,3341.9278,N,11606.4355,W,39.77,102.45,210110,,*29
$GPRMC,223748.000,A,3341.9208,N,11606.3976,W,37.68,102.87,210110,,*21
$GPRMC,223751.000,A,3341.9141,N,11606.3625,W,35.49,102.90,210110,,*29
$GPRMC,223754.000,A,3341.9077,N,11606.3282,W,34.86,102.85,210110,,*27
$GPRMC,223757.000,A,3341.9015,N,11606.2946,W,34.39,102.31,210110,,*29
$GPRMC,223800.000,A,3341.8958,N,11606.2607,W,33.78,102.14,210110,,*2A
$GPRMC,223803.000,A,3341.8901,N,11606.2276,W,33.38,102.15,210110,,*22
$GPRMC,223806.000,A,3341.8847,N,11606.1951,W,32.72,101.42,210110,,*27
$GPRMC,223809.000,A,3341.8797,N,11606.1632,W,32.61,99.89,210110,,*15
$GPRMC,223812.000,A,3341.8756,N,11606.1313,W,32.38,98.06,210110,,*1E
$GPRMC,223815.000,A,3341.8725,N,11606.0993,W,32.14,96.22,210110,,*18
$GPRMC,223818.000,A,3341.8701,N,11606.0676,W,31.81,94.50,210110,,*1F
$GPRMC,223821.000,A,3341.8689,N,11606.0359,W,31.57,91.41,210110,,*12
$GPRMC,223824.000,A,3341.8694,N,11606.0047,W,31.11,88.35,210110,,*1E
$GPRMC,223827.000,A,3341.8711,N,11605.9737,W,31.05,85.82,210110,,*1F
$GPRMC,223830.000,A,3341.8735,N,11605.9429,W,30.86,85.32,210110,,*12
$GPRMC,223833.000,A,3341.8762,N,11605.9122,W,30.67,83.34,210110,,*12
$GPRMC,223836.000,A,3341.8800,N,11605.8823,W,30.39,80.82,210110,,*10
$GPRMC,223839.000,A,3341.8845,N,11605.8528,W,30.01,80.80,210110,,*11
$GPRMC,223842.000,A,3341.8884,N,11605.8235,W,29.55,81.81,210110,,*12
$GPRMC,223845.000,A,3341.8923,N,11605.7947,W,29.16,80.79,210110,,*19
$GPRMC,223849.000,A,3341.8977,N,11605.7570,W,28.50,80.38,210110,,*1A
$GPRMC,223852.000,A,3341.9017,N,11605.7294,W,27.82,80.43,210110,,*1F
$GPRMC,223855.000,A,3341.9053,N,11605.7036,W,25.41,80.95,210110,,*14
$GPRMC,223858.000,A,3341.9087,N,11605.6784,W,26.09,80.85,210110,,*11
$GPRMC,223900.000,A,3341.9111,N,11605.6611,W,26.81,80.24,210110,,*15
$GPRMC,223903.000,A,3341.9150,N,11605.6343,W,27.71,80.47,210110,,*1A
$GPRMC,223906.000,A,3341.9188,N,11605.6065,W,28.47,81.08,210110,,*1D
$GPRMC,223909.000,A,3341.9225,N,11605.5780,W,29.19,81.09,210110,,*12
$GPRMC,223912.000,A,3341.9264,N,11605.5488,W,29.89,80.72,210110,,*12
$GPRMC,223915.000,A,3341.9305,N,11605.5190,W,30.17,80.56,210110,,*16
$GPRMC,223918.000,A,3341.9348,N,11605.4891,W,30.50,80.39,210110,,*11
$GPRMC,223921.000,A,3341.9390,N,11605.4586,W,31.03,80.87,210110,,*17
$GPRMC,223924.000,A,3341.9430,N,11605.4276,W,31.41,81.14,210110,,*1A
$GPRMC,223927.000,A,3341.9472,N,11605.3965,W,31.45,80.74,210110,,*12
$GPRMC,223930.000,A,3341.9516,N,11605.3651,W,31.86,80.50,210110,,*16
$GPRMC,223933.000,A,3341.9561,N,11605.3333,W,32.17,80.69,210110,,*15
$GPRMC,223936.000,A,3341.9605,N,11605.3012,W,32.44,80.37,210110,,*1C
$GPRMC,223939.000,A,3341.9655,N,11605.2691,W,32.52,78.66,210110,,*1E
$GPRMC,223942.000,A,3341.9709,N,11605.2370,W,32.68,79.31,210110,,*1A
$GPRMC,223945.000,A,3341.9756,N,11605.2046,W,32.76,80.89,210110,,*1B
$GPRMC,223948.000,A,3341.9800,N,11605.1721,W,32.75,80.13,210110,,*1F
$GPRMC,223951.000,A,3341.9847,N,11605.1396,W,32.83,80.65,210110,,*14
$GPRMC,223954.000,A,3341.9891,N,11605.1069,W,32.99,80.82,210110,,*1B
$GPRMC,223957.000,A,3341.9936,N,11605.0741,W,33.05,81.09,210110,,*1E
$GPRMC,224000.000,A,3341.9979,N,11605.0414,W,32.84,81.16,210110,,*1C
$GPRMC,224003.000,A,3342.0018,N,11605.0087,W,32.86,82.42,210110,,*15
$GPRMC,224006.000,A,3342.0050,N,11604.9758,W,33.10,84.59,210110,,*13
$GPRMC,224009.000,A,3342.0060,N,11604.9422,W,33.24,86.78,210110,,*17
$GPRMC,224012.000,A,3342.0076,N,11604.9087,W,33.25,85.39,210110,,*16
$GPRMC,224015.000,A,3342.0099,N,11604.8754,W,33.37,86.39,210110,,*18
$GPRMC,224018.000,A,3342.0119,N,11604.8420,W,33.31,86.23,210110,,*11
$GPRMC,224021.000,A,3342.0120,N,11604.8087,W,33.25,87.87,210110,,*12
$GPRMC,224024.000,A,3342.0118,N,11604.7754,W,33.15,88.66,210110,,*19
$GPRMC,224027.000,A,3342.0117,N,11604.7427,W,31.11,88.81,210110,,*1D
$GPRMC,224030.000,A,3342.0114,N,11604.7125,W,29.23,89.78,210110,,*10
$GPRMC,224033.000,A,3342.0111,N,11604.6840,W,27.37,90.65,210110,,*12
$GPRMC,224036.000,A,3342.0114,N,11604.6564,W,27.90,90.77,210110,,*17
$GPRMC,224039.000,A,3342.0112,N,11604.6280,W,28.64,92.15,210110,,*11
$GPRMC,224042.000,A,3342.0105,N,11604.5988,W,29.47,93.31,210110,,*1C
$GPRMC,224045.000,A,3342.0094,N,11604.5689,W,30.21,93.02,210110,,*14
$GPRMC,224048.000,A,3342.0079,N,11604.5383,W,30.77,93.67,210110,,*15
$GPRMC,224051.000,A,3342.0061,N,11604.5070,W,31.30,93.60,210110,,*1E
$GPRMC,224054.000,A,3342.0040,N,11604.4752,W,31.67,94.49,210110,,*10
$GPRMC,224057.000,A,3342.0018,N,11604.4434,W,31.81,94.44,210110,,*18
$GPRMC,224100.000,A,3341.9997,N,11604.4113,W,32.23,94.00,210110,,*14
$GPRMC,224103.000,A,3341.9977,N,11604.3786,W,32.53,93.74,210110,,*17
$GPRMC,224106.000,A,3341.9959,N,11604.3461,W,32.32,93.52,210110,,*17
$GPRMC,224109.000,A,3341.9940,N,11604.3135,W,32.81,93.97,210110,,*15
$GPRMC,224112.000,A,3341.9920,N,11604.2803,W,33.47,93.70,210110,,*16
$GPRMC,224115.000,A,3341.9902,N,11604.2464,W,34.02,93.79,210110,,*13
$GPRMC,224118.000,A,3341.9882,N,11604.2123,W,34.35,94.21,210110,,*1F
$GPRMC,224121.000,A,3341.9863,N,11604.1779,W,34.51,93.52,210110,,*11
$GPRMC,224124.000,A,3341.9845,N,11604.1436,W,34.40,93.83,210110,,*14
$GPRMC,224127.000,A,3341.9826,N,11604.1086,W,35.78,93.79,210110,,*12
$GPRMC,224131.000,A,3341.9802,N,11604.0591,W,38.22,93.49,210110,,*10
$GPRMC,224134.000,A,3341.9782,N,11604.0201,W,39.43,93.73,210110,,*13
$GPRMC,224137.000,A,3341.9761,N,11603.9801,W,40.35,93.69,210110,,*1D
$GPRMC,224141.000,A,3341.9723,N,11603.9252,W,41.89,96.19,210110,,*12
$GPRMC,224144.000,A,3341.9678,N,11603.8829,W,43.06,98.32,210110,,*1D
$GPRMC,224147.000,A,3341.9614,N,11603.8407,W,42.28,101.14,210110,,*2C
$GPRMC,224150.000,A,3341.9540,N,11603.7999,W,42.75,102.83,210110,,*28
$GPRMC,224153.000,A,3341.9446,N,11603.7585,W,43.90,105.88,210110,,*2B
$GPRMC,224156.000,A,3341.9332,N,11603.7173,W,44.87,108.53,210110,,*2D
$GPRMC,224159.000,A,3341.9202,N,11603.6755,W,45.28,111.03,210110,,*2A
$GPRMC,224200.000,A,3341.9154,N,11603.6615,W,45.28,111.98,210110,,*22
$GPRMC,224203.000,A,3341.9000,N,11603.6199,W,46.03,114.28,210110,,*26
$GPRMC,224206.000,A,3341.8835,N,11603.5786,W,45.53,116.43,210110,,*2E
$GPRMC,224209.000,A,3341.8655,N,11603.5388,W,45.08,119.52,210110,,*22
$GPRMC,224212.000,A,3341.8468,N,11603.5001,W,44.06,120.13,210110,,*26
$GPRMC,224215.000,A,3341.8283,N,11603.4628,W,42.83,120.85,210110,,*2A
$GPRMC,224218.000,A,3341.8101,N,11603.4268,W,41.68,121.22,210110,,*24
$GPRMC,224221.000,A,3341.7930,N,11603.3932,W,40.27,119.17,210110,,*2F
$GPRMC,224224.000,A,3341.7765,N,11603.3625,W,38.68,119.61,210110,,*28
$GPRMC,224227.000,A,3341.7609,N,11603.3313,W,37.17,119.47,210110,,*23
$GPRMC,224230.000,A,3341.7459,N,11603.3029,W,35.44,119.35,210110,,*29
$GPRMC,224233.000,A,3341.7322,N,11603.2747,W,33.19,117.70,210110,,*2E
$GPRMC,224236.000,A,3341.7186,N,11603.2457,W,32.87,118.86,210110,,*25
$GPRMC,224239.000,A,3341.7057,N,11603.2188,W,32.41,118.42,210110,,*22
$GPRMC,224242.000,A,3341.6917,N,11603.1869,W,32.43,119.49,210110,,*2F
$GPRMC,224245.000,A,3341.6785,N,11603.1573,W,32.19,119.04,210110,,*2D
$GPRMC,224248.000,A,3341.6654,N,11603.1312,W,31.64,119.68,210110,,*2F
$GPRMC,224251.000,A,3341.6525,N,11603.1016,W,31.36,119.14,210110,,*29
$GPRMC,224254.000,A,3341.6396,N,11603.0745,W,31.38,119.49,210110,,*24
$GPRMC,224257.000,A,3341.6271,N,11603.0469,W,31.00,119.30,210110,,*27
$GPRMC,224300.000,A,3341.6143,N,11603.0175,W,30.66,119.66,210110,,*2C
$GPRMC,224303.000,A,3341.6022,N,11602.9907,W,30.35,120.25,210110,,*27
$GPRMC,224306.000,A,3341.5892,N,11602.9658,W,29.94,123.16,210110,,*27
$GPRMC,224309.000,A,3341.5764,N,11602.9428,W,29.57,119.80,210110,,*22
$GPRMC,224312.000,A,3341.5647,N,11602.9173,W,29.13,117.10,210110,,*24
$GPRMC,224315.000,A,3341.5546,N,11602.8917,W,27.22,115.98,210110,,*24
$GPRMC,224318.000,A,3341.5452,N,11602.8675,W,27.87,114.06,210110,,*2F
$GPRMC,224321.000,A,3341.5364,N,11602.8438,W,28.55,112.68,210110,,*22
$GPRMC,224324.000,A,3341.5280,N,11602.8186,W,29.37,110.21,210110,,*26
$GPRMC,224327.000,A,3341.5203,N,11602.7923,W,30.10,107.61,210110,,*29
$GPRMC,224330.000,A,3341.5113,N,11602.7823,W,30.86,107.01,210110,,*25
$GPRMC,224333.000,A,3341.5029,N,11602.7671,W,31.49,106.32,210110,,*24
$GPRMC,224336.000,A,3341.4961,N,11602.7418,W,32.10,106.16,210110,,*21
$GPRMC,224339.000,A,3341.4894,N,11602.7162,W,31.88,105.27,210110,,*2E
$GPRMC,224342.000,A,3341.4836,N,11602.6897,W,29.79,105.53,210110,,*2C
$GPRMC,224345.000,A,3341.4777,N,11602.6635,W,29.12,105.31,210110,,*2E
$GPRMC,224348.000,A,3341.4717,N,11602.6371,W,28.91,105.12,210110,,*2B
$GPRMC,224351.000,A,3341.4661,N,11602.6105,W,28.79,104.50,210110,,*23
$GPRMC,224354.000,A,3341.4600,N,11602.5836,W,28.93,106.08,210110,,*20
$GPRMC,224357.000,A,3341.4538,N,11602.5562,W,29.42,104.34,210110,,*27
$GPRMC,224400.000,A,3341.4478,N,11602.5280,W,30.13,104.42,210110,,*21
$GPRMC,224403.000,A,3341.4416,N,11602.4987,W,31.16,104.10,210110,,*24
$GPRMC,224406.000,A,3341.4351,N,11602.4685,W,32.09,105.64,210110,,*27
$GPRMC,224409.000,A,3341.4277,N,11602.4374,W,33.15,105.59,210110,,*24
$GPRMC,224412.000,A,3341.4204,N,11602.4053,W,34.17,104.60,210110,,*22
$GPRMC,224415.000,A,3341.4131,N,11602.3721,W,35.11,105.05,210110,,*20
$GPRMC,224418.000,A,3341.4054,N,11602.3380,W,35.94,105.69,210110,,*27
$GPRMC,224421.000,A,3341.3972,N,11602.3031,W,36.81,105.44,210110,,*26
$GPRMC,224424.000,A,3341.3891,N,11602.2676,W,37.24,104.74,210110,,*27
$GPRMC,224427.000,A,3341.3811,N,11602.2314,W,38.10,105.34,210110,,*20
$GPRMC,224430.000,A,3341.3726,N,11602.1944,W,38.73,105.45,210110,,*22
$GPRMC,224433.000,A,3341.3640,N,11602.1572,W,38.95,105.38,210110,,*2B
$GPRMC,224436.000,A,3341.3555,N,11602.1197,W,38.90,105.18,210110,,*21
$GPRMC,224439.000,A,3341.3474,N,11602.0831,W,37.60,104.92,210110,,*2B
$GPRMC,224442.000,A,3341.3396,N,11602.0473,W,36.47,105.16,210110,,*2F
$GPRMC,224445.000,A,3341.3315,N,11602.0127,W,36.45,105.59,210110,,*2E
$GPRMC,224448.000,A,3341.3235,N,11601.9772,W,37.51,104.86,210110,,*2B
$GPRMC,224451.000,A,3341.3155,N,11601.9406,W,38.47,104.73,210110,,*24
$GPRMC,224454.000,A,3341.3071,N,11601.9032,W,39.38,105.74,210110,,*2A
$GPRMC,224457.000,A,3341.2982,N,11601.8649,W,40.38,105.30,210110,,*28
$GPRMC,224500.000,A,3341.2893,N,11601.8256,W,41.39,104.94,210110,,*2F
$GPRMC,224503.000,A,3341.2804,N,11601.7853,W,42.26,105.17,210110,,*25
$GPRMC,224506.000,A,3341.2712,N,11601.7442,W,43.07,105.27,210110,,*25
$GPRMC,224509.000,A,3341.2617,N,11601.7024,W,43.69,105.07,210110,,*20
$GPRMC,224512.000,A,3341.2524,N,11601.6611,W,42.54,105.40,210110,,*24
$GPRMC,224515.000,A,3341.2434,N,11601.6201,W,42.64,104.12,210110,,*23
$GPRMC,224518.000,A,3341.2344,N,11601.5789,W,42.90,105.53,210110,,*27
$GPRMC,224521.000,A,3341.2250,N,11601.5376,W,43.18,105.02,210110,,*28
$GPRMC,224524.000,A,3341.2156,N,11601.4961,W,43.29,105.47,210110,,*26
$GPRMC,224527.000,A,3341.2061,N,11601.4544,W,43.53,104.87,210110,,*2B
$GPRMC,224530.000,A,3341.1972,N,11601.4124,W,43.63,104.57,210110,,*29
$GPRMC,224533.000,A,3341.1880,N,11601.3703,W,43.85,105.09,210110,,*20
$GPRMC,224536.000,A,3341.1790,N,11601.3278,W,44.11,103.82,210110,,*2D
$GPRMC,224539.000,A,3341.1704,N,11601.2851,W,44.34,103.72,210110,,*27
$GPRMC,224542.000,A,3341.1620,N,11601.2420,W,44.60,103.36,210110,,*27
$GPRMC,224546.000,A,3341.1506,N,11601.1840,W,45.03,103.45,210110,,*2D
$GPRMC,224549.000,A,3341.1424,N,11601.1401,W,45.24,102.56,210110,,*2C
$GPRMC,224552.000,A,3341.1343,N,11601.0960,W,45.41,102.71,210110,,*2D
$GPRMC,224555.000,A,3341.1259,N,11601.0517,W,45.68,103.27,210110,,*25
$GPRMC,224558.000,A,3341.1173,N,11601.0070,W,46.00,102.80,210110,,*26
$GPRMC,224601.000,A,3341.1092,N,11600.9622,W,45.97,102.28,210110,,*21
$GPRMC,224604.000,A,3341.1012,N,11600.9174,W,45.96,102.49,210110,,*2E
$GPRMC,224607.000,A,3341.0925,N,11600.8727,W,46.07,103.59,210110,,*2B
$GPRMC,224610.000,A,3341.0839,N,11600.8282,W,45.52,102.85,210110,,*28
$GPRMC,224613.000,A,3341.0758,N,11600.7838,W,45.65,102.41,210110,,*2B
$GPRMC,224616.000,A,3341.0677,N,11600.7393,W,45.81,102.67,210110,,*26
$GPRMC,224619.000,A,3341.0592,N,11600.6943,W,46.52,102.88,210110,,*2B
$GPRMC,224622.000,A,3341.0509,N,11600.6485,W,47.22,102.06,210110,,*26
$GPRMC,224625.000,A,3341.0426,N,11600.6021,W,47.72,102.70,210110,,*23
$GPRMC,224628.000,A,3341.0338,N,11600.5553,W,48.40,102.74,210110,,*2F
$GPRMC,224631.000,A,3341.0251,N,11600.5078,W,49.05,102.38,210110,,*2D
$GPRMC,224634.000,A,3341.0160,N,11600.4598,W,49.69,103.16,210110,,*24
$GPRMC,224637.000,A,3341.0067,N,11600.4111,W,50.30,103.09,210110,,*2E
$GPRMC,224640.000,A,3340.9977,N,11600.3619,W,50.65,102.47,210110,,*2D
$GPRMC,224643.000,A,3340.9886,N,11600.3124,W,50.89,102.75,210110,,*2B
$GPRMC,224646.000,A,3340.9794,N,11600.2628,W,50.91,102.71,210110,,*25
$GPRMC,224649.000,A,3340.9702,N,11600.2131,W,51.29,102.99,210110,,*2E
$GPRMC,224652.000,A,3340.9608,N,11600.1629,W,51.83,102.59,210110,,*2E
$GPRMC,224655.000,A,3340.9513,N,11600.1124,W,52.22,103.29,210110,,*24
$GPRMC,224658.000,A,3340.9417,N,11600.0613,W,52.55,102.70,210110,,*23
$GPRMC,224700.000,A,3340.9354,N,11600.0272,W,52.67,102.70,210110,,*2D
$GPRMC,224703.000,A,3340.9261,N,11559.9759,W,52.75,102.54,210110,,*26
$GPRMC,224706.000,A,3340.9167,N,11559.9248,W,52.30,103.04,210110,,*26
$GPRMC,224709.000,A,3340.9074,N,11559.8744,W,51.54,102.71,210110,,*20
$GPRMC,224712.000,A,3340.8983,N,11559.8247,W,50.91,102.64,210110,,*20
$GPRMC,224715.000,A,3340.8893,N,11559.7757,W,50.28,102.95,210110,,*20
$GPRMC,224718.000,A,3340.8808,N,11559.7272,W,49.54,102.09,210110,,*2B
$GPRMC,224721.000,A,3340.8724,N,11559.6794,W,48.92,102.49,210110,,*23
$GPRMC,224724.000,A,3340.8640,N,11559.6321,W,48.39,102.19,210110,,*2B
$GPRMC,224727.000,A,3340.8563,N,11559.5852,W,47.91,100.16,210110,,*26
$GPRMC,224730.000,A,3340.8505,N,11559.5384,W,47.31,97.88,210110,,*12
$GPRMC,224733.000,A,3340.8464,N,11559.4918,W,47.01,95.05,210110,,*1D
$GPRMC,224736.000,A,3340.8444,N,11559.4456,W,46.11,91.98,210110,,*1D
$GPRMC,224739.000,A,3340.8450,N,11559.3999,W,45.72,87.97,210110,,*10
$GPRMC,224742.000,A,3340.8479,N,11559.3546,W,45.39,85.26,210110,,*1E
$GPRMC,224745.000,A,3340.8518,N,11559.3098,W,45.01,84.43,210110,,*10
$GPRMC,224748.000,A,3340.8557,N,11559.2654,W,44.84,84.43,210110,,*1D
$GPRMC,224751.000,A,3340.8597,N,11559.2207,W,45.18,84.30,210110,,*1B
$GPRMC,224754.000,A,3340.8637,N,11559.1757,W,45.45,84.50,210110,,*1A
$GPRMC,224757.000,A,3340.8676,N,11559.1305,W,45.71,84.05,210110,,*18
$GPRMC,224800.000,A,3340.8715,N,11559.0850,W,46.04,84.37,210110,,*1B
$GPRMC,224803.000,A,3340.8755,N,11559.0391,W,46.33,84.29,210110,,*11
$GPRMC,224806.000,A,3340.8796,N,11558.9930,W,46.37,85.02,210110,,*1E
$GPRMC,224809.000,A,3340.8832,N,11558.9469,W,46.34,83.96,210110,,*19
$GPRMC,224812.000,A,3340.8874,N,11558.9009,W,46.50,83.95,210110,,*12
$GPRMC,224815.000,A,3340.8915,N,11558.8546,W,46.75,84.32,210110,,*11
$GPRMC,224818.000,A,3340.8953,N,11558.8079,W,47.43,84.91,210110,,*1A
$GPRMC,224821.000,A,3340.8989,N,11558.7604,W,48.09,84.96,210110,,*12
$GPRMC,224824.000,A,3340.9031,N,11558.7123,W,48.61,83.63,210110,,*1D
$GPRMC,224827.000,A,3340.9077,N,11558.6638,W,48.94,83.85,210110,,*12
$GPRMC,224830.000,A,3340.9120,N,11558.6153,W,48.63,84.69,210110,,*10
$GPRMC,224833.000,A,3340.9158,N,11558.5672,W,48.14,84.44,210110,,*14
$GPRMC,224836.000,A,3340.9201,N,11558.5198,W,47.42,83.89,210110,,*17
$GPRMC,224839.000,A,3340.9241,N,11558.4731,W,46.92,84.71,210110,,*14
$GPRMC,224842.000,A,3340.9279,N,11558.4264,W,47.27,84.16,210110,,*18
$GPRMC,224845.000,A,3340.9321,N,11558.3792,W,47.70,84.24,210110,,*1B
$GPRMC,224848.000,A,3340.9366,N,11558.3318,W,47.66,83.52,210110,,*12
$GPRMC,224851.000,A,3340.9411,N,11558.2845,W,47.84,83.90,210110,,*1D
$GPRMC,224854.000,A,3340.9447,N,11558.2368,W,48.39,86.52,210110,,*1D
$GPRMC,224857.000,A,3340.9464,N,11558.1882,W,48.47,89.60,210110,,*14
$GPRMC,224900.000,A,3340.9461,N,11558.1394,W,48.97,91.90,210110,,*15
$GPRMC,224903.000,A,3340.9440,N,11558.0905,W,49.37,94.38,210110,,*1A
$GPRMC,224906.000,A,3340.9399,N,11558.0414,W,49.61,96.71,210110,,*1D
$GPRMC,224909.000,A,3340.9344,N,11557.9922,W,49.61,98.31,210110,,*16
$GPRMC,224912.000,A,3340.9282,N,11557.9432,W,49.62,98.31,210110,,*18
$GPRMC,224915.000,A,3340.9225,N,11557.8941,W,49.53,97.61,210110,,*12
$GPRMC,224918.000,A,3340.9166,N,11557.8451,W,49.71,98.30,210110,,*1C
$GPRMC,224921.000,A,3340.9107,N,11557.7958,W,49.95,98.35,210110,,*15
$GPRMC,224924.000,A,3340.9048,N,11557.7461,W,50.48,97.91,210110,,*14
$GPRMC,224927.000,A,3340.8989,N,11557.6959,W,51.17,98.34,210110,,*1E
$GPRMC,224930.000,A,3340.8928,N,11557.6449,W,51.91,98.11,210110,,*16
$GPRMC,224933.000,A,3340.8866,N,11557.5932,W,52.67,98.28,210110,,*1C
$GPRMC,224936.000,A,3340.8803,N,11557.5407,W,53.28,98.30,210110,,*12
$GPRMC,224939.000,A,3340.8741,N,11557.4877,W,53.72,97.98,210110,,*1C
$GPRMC,224942.000,A,3340.8678,N,11557.4344,W,54.16,98.14,210110,,*1E
$GPRMC,224945.000,A,3340.8615,N,11557.3808,W,54.01,98.23,210110,,*14
$GPRMC,224948.000,A,3340.8553,N,11557.3274,W,53.75,97.82,210110,,*19
$GPRMC,224951.000,A,3340.8489,N,11557.2746,W,53.41,98.85,210110,,*1D
$GPRMC,224954.000,A,3340.8424,N,11557.2220,W,53.40,98.28,210110,,*1C
$GPRMC,224957.000,A,3340.8362,N,11557.1690,W,53.75,97.93,210110,,*1F
$GPRMC,225000.000,A,3340.8301,N,11557.1158,W,53.77,98.22,210110,,*14
$GPRMC,225003.000,A,3340.8239,N,11557.0628,W,53.73,98.02,210110,,*1A
$GPRMC,225006.000,A,3340.8178,N,11557.0097,W,53.67,97.86,210110,,*1D
$GPRMC,225009.000,A,3340.8117,N,11556.9568,W,53.50,98.03,210110,,*10
$GPRMC,225012.000,A,3340.8056,N,11556.9037,W,53.71,97.86,210110,,*10
$GPRMC,225015.000,A,3340.7996,N,11556.8505,W,54.01,97.83,210110,,*1D
$GPRMC,225018.000,A,3340.7936,N,11556.7969,W,54.41,97.72,210110,,*19
$GPRMC,225021.000,A,3340.7876,N,11556.7430,W,54.58,97.85,210110,,*17
$GPRMC,225024.000,A,3340.7815,N,11556.6889,W,54.50,97.65,210110,,*1E
$GPRMC,225027.000,A,3340.7755,N,11556.6350,W,54.56,97.94,210110,,*11
$GPRMC,225030.000,A,3340.7693,N,11556.5811,W,54.58,97.86,210110,,*1C
$GPRMC,225033.000,A,3340.7632,N,11556.5272,W,54.40,97.88,210110,,*1C
$GPRMC,225036.000,A,3340.7573,N,11556.4734,W,54.20,97.70,210110,,*18
$GPRMC,225039.000,A,3340.7513,N,11556.4199,W,54.10,97.56,210110,,*17
$GPRMC,225042.000,A,3340.7456,N,11556.3663,W,54.32,97.44,210110,,*1D
$GPRMC,225045.000,A,3340.7399,N,11556.3125,W,54.26,97.40,210110,,*1A
$GPRMC,225048.000,A,3340.7340,N,11556.2589,W,53.95,97.92,210110,,*10
$GPRMC,225052.000,A,3340.7259,N,11556.1875,W,54.51,97.58,210110,,*16
$GPRMC,225055.000,A,3340.7201,N,11556.1332,W,55.13,97.40,210110,,*1A
$GPRMC,225058.000,A,3340.7143,N,11556.0782,W,55.70,97.19,210110,,*15
$GPRMC,225100.000,A,3340.7104,N,11556.0413,W,55.84,97.45,210110,,*13
$GPRMC,225103.000,A,3340.7044,N,11555.9860,W,56.10,97.61,210110,,*1F
$GPRMC,225106.000,A,3340.6984,N,11555.9302,W,56.55,97.43,210110,,*10
$GPRMC,225109.000,A,3340.6924,N,11555.8739,W,57.06,97.41,210110,,*1D
$GPRMC,225112.000,A,3340.6865,N,11555.8179,W,55.69,97.40,210110,,*1B
$GPRMC,225115.000,A,3340.6807,N,11555.7637,W,54.20,97.15,210110,,*16
$GPRMC,225118.000,A,3340.6752,N,11555.7101,W,54.38,97.14,210110,,*1E
$GPRMC,225121.000,A,3340.6697,N,11555.6560,W,54.84,96.87,210110,,*12
$GPRMC,225124.000,A,3340.6643,N,11555.6014,W,55.10,97.09,210110,,*13
$GPRMC,225127.000,A,3340.6587,N,11555.5467,W,55.47,97.25,210110,,*14
$GPRMC,225130.000,A,3340.6528,N,11555.4915,W,55.93,97.38,210110,,*1B
$GPRMC,225133.000,A,3340.6470,N,11555.4357,W,56.51,97.01,210110,,*1F
$GPRMC,225136.000,A,3340.6412,N,11555.3795,W,56.72,97.32,210110,,*12
$GPRMC,225139.000,A,3340.6353,N,11555.3236,W,56.35,97.48,210110,,*1D
$GPRMC,225142.000,A,3340.6294,N,11555.2679,W,56.32,97.21,210110,,*1D
$GPRMC,225145.000,A,3340.6237,N,11555.2122,W,56.12,97.05,210110,,*1E
$GPRMC,225148.000,A,3340.6182,N,11555.1569,W,55.83,96.96,210110,,*16
$GPRMC,225151.000,A,3340.6127,N,11555.1016,W,55.90,97.03,210110,,*13
$GPRMC,225154.000,A,3340.6071,N,11555.0463,W,56.06,97.06,210110,,*1A
$GPRMC,225157.000,A,3340.6017,N,11554.9906,W,56.25,96.72,210110,,*1C
$GPRMC,225200.000,A,3340.5963,N,11554.9349,W,56.27,96.76,210110,,*13
$GPRMC,225203.000,A,3340.5906,N,11554.8791,W,56.46,97.31,210110,,*16
$GPRMC,225206.000,A,3340.5849,N,11554.8230,W,56.91,96.89,210110,,*1F
$GPRMC,225209.000,A,3340.5794,N,11554.7667,W,56.81,96.72,210110,,*13
$GPRMC,225212.000,A,3340.5739,N,11554.7106,W,56.60,96.84,210110,,*18
$GPRMC,225215.000,A,3340.5685,N,11554.6546,W,56.50,96.67,210110,,*16
$GPRMC,225218.000,A,3340.5632,N,11554.5986,W,56.62,96.73,210110,,*10
$GPRMC,225221.000,A,3340.5579,N,11554.5428,W,56.17,96.58,210110,,*14
$GPRMC,225224.000,A,3340.5527,N,11554.4877,W,55.17,96.66,210110,,*13
$GPRMC,225227.000,A,3340.5476,N,11554.4337,W,54.22,96.75,210110,,*1F
$GPRMC,225230.000,A,3340.5425,N,11554.3803,W,54.16,96.68,210110,,*1F
$GPRMC,225233.000,A,3340.5375,N,11554.3264,W,54.71,96.46,210110,,*18
$GPRMC,225236.000,A,3340.5326,N,11554.2719,W,55.29,96.21,210110,,*18
$GPRMC,225239.000,A,3340.5277,N,11554.2168,W,55.84,96.49,210110,,*1B
$GPRMC,225242.000,A,3340.5227,N,11554.1612,W,56.27,96.33,210110,,*1C
$GPRMC,225245.000,A,3340.5175,N,11554.1052,W,56.57,96.65,210110,,*19
$GPRMC,225248.000,A,3340.5124,N,11554.0493,W,56.16,96.37,210110,,*1A
$GPRMC,225251.000,A,3340.5074,N,11553.9937,W,56.09,96.46,210110,,*13
$GPRMC,225254.000,A,3340.5025,N,11553.9381,W,55.99,96.01,210110,,*1C
$GPRMC,225257.000,A,3340.4977,N,11553.8826,W,55.90,96.15,210110,,*1B
$GPRMC,225300.000,A,3340.4927,N,11553.8272,W,55.91,96.40,210110,,*17
$GPRMC,225303.000,A,3340.4878,N,11553.7717,W,55.91,95.99,210110,,*11
$GPRMC,225306.000,A,3340.4833,N,11553.7162,W,56.01,95.88,210110,,*15
$GPRMC,225309.000,A,3340.4786,N,11553.6606,W,55.99,96.16,210110,,*19
$GPRMC,225312.000,A,3340.4738,N,11553.6050,W,56.12,96.02,210110,,*16
$GPRMC,225315.000,A,3340.4690,N,11553.5492,W,56.09,95.81,210110,,*19
$GPRMC,225318.000,A,3340.4644,N,11553.4936,W,55.78,95.79,210110,,*1D
$GPRMC,225321.000,A,3340.4597,N,11553.4383,W,55.67,96.04,210110,,*19
$GPRMC,225324.000,A,3340.4552,N,11553.3830,W,55.65,95.72,210110,,*11
$GPRMC,225327.000,A,3340.4504,N,11553.3278,W,55.54,96.03,210110,,*10
$GPRMC,225330.000,A,3340.4459,N,11553.2725,W,55.71,95.60,210110,,*12
$GPRMC,225333.000,A,3340.4415,N,11553.2169,W,56.20,95.67,210110,,*17
$GPRMC,225336.000,A,3340.4369,N,11553.1609,W,56.56,95.92,210110,,*17
$GPRMC,225339.000,A,3340.4321,N,11553.1046,W,56.76,95.79,210110,,*1E
$GPRMC,225342.000,A,3340.4274,N,11553.0481,W,56.80,95.84,210110,,*16
$GPRMC,225345.000,A,3340.4229,N,11552.9917,W,56.92,95.59,210110,,*10
$GPRMC,225348.000,A,3340.4186,N,11552.9350,W,56.97,95.38,210110,,*10
$GPRMC,225351.000,A,3340.4142,N,11552.8784,W,57.02,95.17,210110,,*1C
$GPRMC,225354.000,A,3340.4106,N,11552.8214,W,57.36,93.87,210110,,*1D
$GPRMC,225357.000,A,3340.4079,N,11552.7640,W,57.67,93.12,210110,,*15
$GPRMC,225400.000,A,3340.4066,N,11552.7062,W,57.86,91.10,210110,,*17
$GPRMC,225403.000,A,3340.4068,N,11552.6483,W,57.69,89.57,210110,,*1B
$GPRMC,225406.000,A,3340.4078,N,11552.5905,W,57.74,89.33,210110,,*11
$GPRMC,225409.000,A,3340.4089,N,11552.5326,W,57.84,89.52,210110,,*13
$GPRMC,225412.000,A,3340.4099,N,11552.4747,W,57.78,89.48,210110,,*12
$GPRMC,225415.000,A,3340.4112,N,11552.4165,W,57.79,89.37,210110,,*18
$GPRMC,225418.000,A,3340.4125,N,11552.3587,W,57.97,89.14,210110,,*1F
$GPRMC,225421.000,A,3340.4143,N,11552.3009,W,57.82,88.41,210110,,*13
$GPRMC,225424.000,A,3340.4163,N,11552.2433,W,57.47,88.40,210110,,*10
$GPRMC,225427.000,A,3340.4180,N,11552.1860,W,57.24,88.53,210110,,*10
$GPRMC,225430.000,A,3340.4197,N,11552.1291,W,56.92,88.64,210110,,*1C
$GPRMC,225433.000,A,3340.4214,N,11552.0726,W,56.70,88.40,210110,,*15
$GPRMC,225436.000,A,3340.4231,N,11552.0160,W,56.81,88.39,210110,,*13
$GPRMC,225439.000,A,3340.4251,N,11551.9591,W,57.10,88.04,210110,,*1D
$GPRMC,225442.000,A,3340.4270,N,11551.9021,W,57.25,88.34,210110,,*19
$GPRMC,225445.000,A,3340.4288,N,11551.8449,W,57.41,88.34,210110,,*10
$GPRMC,225448.000,A,3340.4306,N,11551.7876,W,57.53,88.37,210110,,*15
$GPRMC,225451.000,A,3340.4324,N,11551.7301,W,57.64,88.19,210110,,*1E
$GPRMC,225454.000,A,3340.4343,N,11551.6725,W,57.78,88.14,210110,,*19
$GPRMC,225457.000,A,3340.4364,N,11551.6151,W,57.45,88.02,210110,,*13
$GPRMC,225500.000,A,3340.4384,N,11551.5579,W,57.34,87.98,210110,,*19
$GPRMC,225503.000,A,3340.4405,N,11551.5006,W,57.60,87.99,210110,,*19
$GPRMC,225506.000,A,3340.4425,N,11551.4431,W,57.73,88.30,210110,,*11
$GPRMC,225509.000,A,3340.4444,N,11551.3851,W,58.38,88.16,210110,,*10
$GPRMC,225512.000,A,3340.4464,N,11551.3267,W,58.75,88.18,210110,,*10
$GPRMC,225515.000,A,3340.4485,N,11551.2678,W,59.12,88.11,210110,,*1A
$GPRMC,225518.000,A,3340.4507,N,11551.2087,W,59.49,88.05,210110,,*11
$GPRMC,225521.000,A,3340.4528,N,11551.1497,W,58.76,87.92,210110,,*1C
$GPRMC,225524.000,A,3340.4552,N,11551.0917,W,57.87,87.55,210110,,*1A
$GPRMC,225527.000,A,3340.4574,N,11551.0342,W,57.79,87.76,210110,,*17
$GPRMC,225530.000,A,3340.4599,N,11550.9765,W,58.00,87.61,210110,,*1C
$GPRMC,225533.000,A,3340.4623,N,11550.9186,W,58.18,87.57,210110,,*1A
$GPRMC,225536.000,A,3340.4648,N,11550.8605,W,58.34,87.68,210110,,*1D
$GPRMC,225539.000,A,3340.4672,N,11550.8023,W,58.49,87.65,210110,,*1E
$GPRMC,225542.000,A,3340.4697,N,11550.7437,W,59.08,87.54,210110,,*11
$GPRMC,225545.000,A,3340.4722,N,11550.6844,W,59.47,87.71,210110,,*1C
$GPRMC,225548.000,A,3340.4747,N,11550.6248,W,60.05,87.59,210110,,*12
$GPRMC,225551.000,A,3340.4772,N,11550.5645,W,60.56,87.63,210110,,*19
$GPRMC,225554.000,A,3340.4798,N,11550.5040,W,60.68,87.44,210110,,*13
$GPRMC,225557.000,A,3340.4822,N,11550.4434,W,60.67,87.81,210110,,*1E
$GPRMC,225600.000,A,3340.4848,N,11550.3826,W,61.10,87.41,210110,,*16
$GPRMC,225603.000,A,3340.4874,N,11550.3215,W,61.27,87.38,210110,,*1A
$GPRMC,225606.000,A,3340.4901,N,11550.2607,W,61.03,87.40,210110,,*13
$GPRMC,225609.000,A,3340.4929,N,11550.1999,W,61.00,87.18,210110,,*13
$GPRMC,225612.000,A,3340.4957,N,11550.1393,W,60.69,87.27,210110,,*12
$GPRMC,225615.000,A,3340.4984,N,11550.0790,W,60.47,87.18,210110,,*1D
$GPRMC,225618.000,A,3340.5012,N,11550.0190,W,60.22,87.04,210110,,*1F
$GPRMC,225621.000,A,3340.5042,N,11549.9592,W,59.94,86.91,210110,,*1D
$GPRMC,225624.000,A,3340.5072,N,11549.9000,W,59.40,86.70,210110,,*13
$GPRMC,225627.000,A,3340.5104,N,11549.8412,W,59.05,86.58,210110,,*1D
$GPRMC,225630.000,A,3340.5135,N,11549.7827,W,58.62,86.56,210110,,*12
$GPRMC,225633.000,A,3340.5167,N,11549.7247,W,58.25,86.37,210110,,*1E
$GPRMC,225636.000,A,3340.5202,N,11549.6670,W,57.97,86.03,210110,,*1B
$GPRMC,225639.000,A,3340.5236,N,11549.6096,W,57.52,86.26,210110,,*13
$GPRMC,225642.000,A,3340.5271,N,11549.5527,W,57.03,86.18,210110,,*19
$GPRMC,225645.000,A,3340.5306,N,11549.4961,W,56.79,86.01,210110,,*14
$GPRMC,225648.000,A,3340.5340,N,11549.4397,W,56.75,85.95,210110,,*1A
$GPRMC,225651.000,A,3340.5377,N,11549.3833,W,56.60,85.78,210110,,*13
$GPRMC,225654.000,A,3340.5414,N,11549.3272,W,56.30,85.82,210110,,*1B
$GPRMC,225657.000,A,3340.5451,N,11549.2711,W,56.52,85.62,210110,,*12
$GPRMC,225700.000,A,3340.5491,N,11549.2153,W,56.83,85.36,210110,,*10
$GPRMC,225703.000,A,3340.5530,N,11549.1584,W,56.77,85.73,210110,,*1E
$GPRMC,225706.000,A,3340.5569,N,11549.1016,W,56.53,85.35,210110,,*1D
$GPRMC,225709.000,A,3340.5607,N,11549.0449,W,56.61,85.59,210110,,*1D
$GPRMC,225712.000,A,3340.5647,N,11548.9885,W,56.51,85.38,210110,,*13
$GPRMC,225715.000,A,3340.5689,N,11548.9323,W,56.30,85.17,210110,,*1B
$GPRMC,225718.000,A,3340.5730,N,11548.8768,W,55.33,85.04,210110,,*1D
$GPRMC,225721.000,A,3340.5771,N,11548.8225,W,54.14,85.20,210110,,*1C
$GPRMC,225724.000,A,3340.5813,N,11548.7689,W,53.83,84.48,210110,,*19
$GPRMC,225727.000,A,3340.5856,N,11548.7156,W,53.51,84.79,210110,,*13
$GPRMC,225730.000,A,3340.5899,N,11548.6623,W,53.55,84.69,210110,,*17
$GPRMC,225733.000,A,3340.5943,N,11548.6089,W,53.80,84.46,210110,,*11
$GPRMC,225736.000,A,3340.5987,N,11548.5554,W,53.81,84.47,210110,,*1A
$GPRMC,225739.000,A,3340.6034,N,11548.5020,W,53.83,84.48,210110,,*1C
$GPRMC,225742.000,A,3340.6077,N,11548.4485,W,53.54,84.45,210110,,*1A
$GPRMC,225745.000,A,3340.6124,N,11548.3956,W,52.92,83.93,210110,,*19
$GPRMC,225748.000,A,3340.6172,N,11548.3434,W,52.44,83.93,210110,,*15
$GPRMC,225751.000,A,3340.6221,N,11548.2914,W,52.31,83.77,210110,,*1E
$GPRMC,225754.000,A,3340.6271,N,11548.2394,W,52.41,83.32,210110,,*1A
$GPRMC,225757.000,A,3340.6321,N,11548.1874,W,52.47,83.90,210110,,*15
$GPRMC,225800.000,A,3340.6369,N,11548.1350,W,53.00,84.05,210110,,*10
$GPRMC,225803.000,A,3340.6416,N,11548.0821,W,53.49,83.91,210110,,*17
$GPRMC,225806.000,A,3340.6466,N,11548.0286,W,54.03,83.68,210110,,*1D
$GPRMC,225809.000,A,3340.6516,N,11547.9748,W,54.21,84.04,210110,,*18
$GPRMC,225812.000,A,3340.6565,N,11547.9208,W,54.32,83.78,210110,,*19
$GPRMC,225815.000,A,3340.6619,N,11547.8670,W,54.15,83.20,210110,,*14
$GPRMC,225818.000,A,3340.6680,N,11547.8132,W,54.47,81.77,210110,,*1F
$GPRMC,225821.000,A,3340.6753,N,11547.7596,W,54.30,80.55,210110,,*1E
$GPRMC,225824.000,A,3340.6835,N,11547.7057,W,54.89,79.58,210110,,*15
$GPRMC,225827.000,A,3340.6920,N,11547.6517,W,55.21,79.60,210110,,*1B
$GPRMC,225830.000,A,3340.7003,N,11547.5972,W,55.44,79.64,210110,,*1F
$GPRMC,225833.000,A,3340.7092,N,11547.5427,W,55.67,79.03,210110,,*19
$GPRMC,225836.000,A,3340.7180,N,11547.4879,W,55.84,79.32,210110,,*17
$GPRMC,225839.000,A,3340.7266,N,11547.4330,W,55.99,79.62,210110,,*1C
$GPRMC,225842.000,A,3340.7352,N,11547.3779,W,56.25,79.29,210110,,*13
$GPRMC,225845.000,A,3340.7441,N,11547.3225,W,56.58,79.35,210110,,*1A
$GPRMC,225848.000,A,3340.7533,N,11547.2668,W,56.39,78.83,210110,,*14
$GPRMC,225851.000,A,3340.7625,N,11547.2110,W,57.07,79.31,210110,,*14
$GPRMC,230030.000,A,3339.5948,N,11546.3490,W,50.56,90.29,210110,,*17
$GPRMC,230033.000,A,3339.5948,N,11546.2986,W,50.41,89.85,210110,,*17
$GPRMC,230036.000,A,3339.5947,N,11546.2483,W,50.21,90.03,210110,,*15
$GPRMC,230039.000,A,3339.5945,N,11546.1981,W,50.20,90.42,210110,,*10
$GPRMC,230042.000,A,3339.5941,N,11546.1479,W,50.33,89.95,210110,,*12
$GPRMC,230045.000,A,3339.5940,N,11546.0977,W,50.31,90.26,210110,,*14
$GPRMC,230048.000,A,3339.5937,N,11546.0474,W,50.37,90.46,210110,,*17
$GPRMC,230051.000,A,3339.5935,N,11545.9972,W,50.20,90.08,210110,,*10
$GPRMC,230054.000,A,3339.5933,N,11545.9472,W,50.13,90.05,210110,,*13
$GPRMC,230057.000,A,3339.5932,N,11545.8973,W,49.99,90.40,210110,,*17
$GPRMC,230100.000,A,3339.5929,N,11545.8476,W,49.77,90.68,210110,,*1C
$GPRMC,230103.000,A,3339.5925,N,11545.7979,W,49.97,90.52,210110,,*19
$GPRMC,230106.000,A,3339.5925,N,11545.7481,W,49.93,90.21,210110,,*16
$GPRMC,230109.000,A,3339.5924,N,11545.6983,W,50.07,90.19,210110,,*18
$GPRMC,230112.000,A,3339.5924,N,11545.6481,W,50.42,89.90,210110,,*15
$GPRMC,230115.000,A,3339.5923,N,11545.5977,W,50.48,90.13,210110,,*1B
$GPRMC,230118.000,A,3339.5925,N,11545.5473,W,50.75,90.12,210110,,*16
$GPRMC,230121.000,A,3339.5924,N,11545.4967,W,50.77,90.23,210110,,*14
$GPRMC,230124.000,A,3339.5923,N,11545.4459,W,50.89,90.49,210110,,*1B
$GPRMC,230127.000,A,3339.5920,N,11545.3950,W,51.02,90.24,210110,,*11
$GPRMC,230130.000,A,3339.5920,N,11545.3442,W,50.94,90.32,210110,,*10
$GPRMC,230133.000,A,3339.5918,N,11545.2934,W,51.10,90.14,210110,,*1C
$GPRMC,230136.000,A,3339.5916,N,11545.2423,W,51.36,90.07,210110,,*1A
$GPRMC,230139.000,A,3339.5914,N,11545.1910,W,51.50,90.31,210110,,*1C
$GPRMC,230142.000,A,3339.5911,N,11545.1395,W,51.72,90.44,210110,,*10
$GPRMC,230145.000,A,3339.5907,N,11545.0879,W,51.83,90.25,210110,,*11
$GPRMC,230148.000,A,3339.5905,N,11545.0364,W,51.63,90.36,210110,,*15
$GPRMC,230151.000,A,3339.5901,N,11544.9850,W,51.47,90.64,210110,,*1C
$GPRMC,230154.000,A,3339.5897,N,11544.9336,W,51.54,90.10,210110,,*1D
$GPRMC,230158.000,A,3339.5896,N,11544.8650,W,51.69,90.31,210110,,*19
$GPRMC,230200.000,A,3339.5895,N,11544.8307,W,51.64,90.38,210110,,*17
$GPRMC,230203.000,A,3339.5894,N,11544.7793,W,51.45,90.08,210110,,*13
$GPRMC,230206.000,A,3339.5892,N,11544.7277,W,51.66,90.46,210110,,*14
$GPRMC,230209.000,A,3339.5891,N,11544.6760,W,51.85,90.20,210110,,*17
$GPRMC,230212.000,A,3339.5888,N,11544.6242,W,51.99,90.27,210110,,*1A
$GPRMC,230215.000,A,3339.5886,N,11544.5721,W,52.23,90.36,210110,,*12
$GPRMC,230218.000,A,3339.5884,N,11544.5199,W,52.37,90.57,210110,,*1A
$GPRMC,230221.000,A,3339.5882,N,11544.4676,W,52.26,90.15,210110,,*17
$GPRMC,230224.000,A,3339.5883,N,11544.4155,W,52.25,89.78,210110,,*15
$GPRMC,230227.000,A,3339.5881,N,11544.3635,W,51.84,90.46,210110,,*1F
$GPRMC,230230.000,A,3339.5880,N,11544.3119,W,51.30,90.26,210110,,*18
$GPRMC,230233.000,A,3339.5877,N,11544.2606,W,51.49,90.27,210110,,*14
$GPRMC,230236.000,A,3339.5876,N,11544.2092,W,51.72,90.12,210110,,*15
$GPRMC,230239.000,A,3339.5875,N,11544.1574,W,51.91,90.18,210110,,*10
$GPRMC,230242.000,A,3339.5873,N,11544.1054,W,52.23,90.40,210110,,*1A
$GPRMC,230245.000,A,3339.5872,N,11544.0532,W,52.32,89.92,210110,,*1F
$GPRMC,230248.000,A,3339.5871,N,11544.0008,W,52.62,90.39,210110,,*11
$GPRMC,230251.000,A,3339.5868,N,11543.9482,W,52.59,90.37,210110,,*1F
$GPRMC,230254.000,A,3339.5866,N,11543.8955,W,52.88,89.86,210110,,*1C
$GPRMC,230257.000,A,3339.5866,N,11543.8425,W,53.16,90.34,210110,,*12
$GPRMC,230300.000,A,3339.5865,N,11543.7898,W,52.22,90.09,210110,,*1F
$GPRMC,230303.000,A,3339.5863,N,11543.7379,W,51.86,90.35,210110,,*1C
$GPRMC,230306.000,A,3339.5861,N,11543.6864,W,51.12,89.96,210110,,*11
$GPRMC,230309.000,A,3339.5864,N,11543.6358,W,50.29,89.45,210110,,*18
$GPRMC,230312.000,A,3339.5869,N,11543.5859,W,49.74,88.95,210110,,*1A
$GPRMC,230315.000,A,3339.5880,N,11543.5366,W,49.25,88.08,210110,,*1D
$GPRMC,230318.000,A,3339.5896,N,11543.4870,W,49.70,87.33,210110,,*1D
$GPRMC,230321.000,A,3339.5916,N,11543.4371,W,50.17,86.79,210110,,*12
$GPRMC,230324.000,A,3339.5943,N,11543.3871,W,50.30,86.11,210110,,*10
$GPRMC,230327.000,A,3339.5979,N,11543.3371,W,50.24,84.66,210110,,*16
$GPRMC,230330.000,A,3339.6020,N,11543.2871,W,50.66,84.24,210110,,*1C
$GPRMC,230333.000,A,3339.6064,N,11543.2365,W,51.27,84.03,210110,,*10
$GPRMC,230336.000,A,3339.6113,N,11543.1853,W,51.80,83.29,210110,,*1B
$GPRMC,230339.000,A,3339.6168,N,11543.1340,W,51.90,82.33,210110,,*1A
$GPRMC,230342.000,A,3339.6230,N,11543.0827,W,51.83,81.35,210110,,*14
$GPRMC,230345.000,A,3339.6298,N,11543.0317,W,51.76,80.87,210110,,*1B
$GPRMC,230348.000,A,3339.6372,N,11542.9808,W,51.42,79.76,210110,,*11
$GPRMC,230351.000,A,3339.6451,N,11542.9305,W,51.20,79.45,210110,,*1D
$GPRMC,230354.000,A,3339.6531,N,11542.8802,W,51.10,79.28,210110,,*1A
$GPRMC,230357.000,A,3339.6613,N,11542.8300,W,50.95,79.05,210110,,*10
$GPRMC,230400.000,A,3339.6695,N,11542.7801,W,50.88,79.09,210110,,*1E
$GPRMC,230403.000,A,3339.6776,N,11542.7303,W,50.55,79.16,210110,,*16
$GPRMC,230406.000,A,3339.6858,N,11542.6809,W,50.24,78.73,210110,,*14
$GPRMC,230409.000,A,3339.6939,N,11542.6319,W,49.73,79.13,210110,,*1A
$GPRMC,230412.000,A,3339.7019,N,11542.5834,W,49.38,78.93,210110,,*1B
$GPRMC,230415.000,A,3339.7098,N,11542.5348,W,49.42,79.16,210110,,*14
$GPRMC,230418.000,A,3339.7175,N,11542.4862,W,49.46,79.36,210110,,*1F
$GPRMC,230421.000,A,3339.7253,N,11542.4376,W,49.58,79.05,210110,,*13
$GPRMC,230424.000,A,3339.7333,N,11542.3889,W,49.64,79.10,210110,,*16
$GPRMC,230427.000,A,3339.7413,N,11542.3399,W,50.28,79.01,210110,,*1A
$GPRMC,230430.000,A,3339.7493,N,11542.2905,W,50.01,79.19,210110,,*18
$GPRMC,230433.000,A,3339.7571,N,11542.2415,W,50.07,79.23,210110,,*15
$GPRMC,230436.000,A,3339.7650,N,11542.1923,W,50.03,79.20,210110,,*1C
$GPRMC,230439.000,A,3339.7728,N,11542.1431,W,50.27,79.18,210110,,*1E
$GPRMC,230442.000,A,3339.7812,N,11542.0933,W,51.55,77.87,210110,,*16
$GPRMC,230445.000,A,3339.7908,N,11542.0422,W,53.40,77.33,210110,,*1F
$GPRMC,230448.000,A,3339.8002,N,11541.9890,W,55.21,78.42,210110,,*19
$GPRMC,230451.000,A,3339.8092,N,11541.9341,W,56.52,79.33,210110,,*1F
$GPRMC,230454.000,A,3339.8182,N,11541.8780,W,57.50,79.09,210110,,*18
$GPRMC,230457.000,A,3339.8275,N,11541.8211,W,58.27,79.11,210110,,*1B
$GPRMC,230500.000,A,3339.8367,N,11541.7636,W,58.72,79.34,210110,,*13
$GPRMC,230503.000,A,3339.8461,N,11541.7059,W,58.85,78.96,210110,,*1F
$GPRMC,230506.000,A,3339.8551,N,11541.6479,W,59.06,79.99,210110,,*1B
$GPRMC,230509.000,A,3339.8633,N,11541.5897,W,59.22,79.86,210110,,*14
$GPRMC,230512.000,A,3339.8721,N,11541.5314,W,59.06,79.59,210110,,*18
$GPRMC,230515.000,A,3339.8810,N,11541.4738,W,58.16,79.31,210110,,*17
$GPRMC,230518.000,A,3339.8902,N,11541.4172,W,57.31,78.91,210110,,*11
$GPRMC,230521.000,A,3339.8993,N,11541.3616,W,56.29,79.34,210110,,*17
$GPRMC,230524.000,A,3339.9078,N,11541.3068,W,55.43,79.21,210110,,*1B
$GPRMC,230527.000,A,3339.9164,N,11541.2529,W,54.60,79.09,210110,,*1F
$GPRMC,230530.000,A,3339.9251,N,11541.1999,W,53.80,78.97,210110,,*17
$GPRMC,230533.000,A,3339.9333,N,11541.1481,W,51.43,79.55,210110,,*17
$GPRMC,230536.000,A,3339.9407,N,11541.0990,W,49.65,80.22,210110,,*15
$GPRMC,230539.000,A,3339.9469,N,11541.0503,W,49.67,81.75,210110,,*15
$GPRMC,230542.000,A,3339.9521,N,11541.0011,W,50.02,83.40,210110,,*1D
$GPRMC,230545.000,A,3339.9563,N,11540.9512,W,50.84,84.52,210110,,*18
$GPRMC,230548.000,A,3339.9600,N,11540.9002,W,51.90,85.25,210110,,*12
$GPRMC,230551.000,A,3339.9637,N,11540.8480,W,53.08,84.55,210110,,*14
$GPRMC,230554.000,A,3339.9680,N,11540.7950,W,53.46,84.67,210110,,*19
$GPRMC,230557.000,A,3339.9721,N,11540.7416,W,53.85,85.05,210110,,*15
$GPRMC,230600.000,A,3339.9759,N,11540.6879,W,53.56,85.06,210110,,*12
$GPRMC,230603.000,A,3339.9798,N,11540.6354,W,51.75,85.10,210110,,*1C
$GPRMC,230606.000,A,3339.9835,N,11540.5842,W,51.59,84.98,210110,,*11
$GPRMC,230609.000,A,3339.9874,N,11540.5323,W,52.61,84.79,210110,,*10
$GPRMC,230612.000,A,3339.9913,N,11540.4797,W,53.10,84.66,210110,,*19
$GPRMC,230615.000,A,3339.9951,N,11540.4268,W,53.43,85.22,210110,,*1A
$GPRMC,230618.000,A,3339.9989,N,11540.3735,W,53.86,84.95,210110,,*1C
$GPRMC,230621.000,A,3340.0028,N,11540.3198,W,54.22,85.24,210110,,*10
$GPRMC,230624.000,A,3340.0067,N,11540.2661,W,52.95,85.20,210110,,*10
$GPRMC,230627.000,A,3340.0102,N,11540.2140,W,52.48,84.95,210110,,*1A
$GPRMC,230630.000,A,3340.0143,N,11540.1617,W,52.90,85.13,210110,,*15
$GPRMC,230633.000,A,3340.0180,N,11540.1090,W,52.42,85.26,210110,,*19
$GPRMC,230636.000,A,3340.0217,N,11540.0578,W,51.22,85.08,210110,,*1A
$GPRMC,230639.000,A,3340.0253,N,11540.0067,W,51.61,85.06,210110,,*17
$GPRMC,230642.000,A,3340.0289,N,11539.9552,W,51.86,85.11,210110,,*17
$GPRMC,230645.000,A,3340.0326,N,11539.9037,W,51.75,85.19,210110,,*16
$GPRMC,230648.000,A,3340.0365,N,11539.8524,W,51.41,84.87,210110,,*1B
